Timestamp_log,left_angle,right_angle,left_thrust,right_thrust,read_left_angle,read_right_angle,accel_x,accel_y,accel_z,roll,pitch,yaw,e_alpha
2023-03-24 23-10-22-070369,0,0,1553,1553,0.616,159.775,0.27,1.74,-9.61,-10.31,1.34,12.57,29.988599999999998
2023-03-24 23-10-22-199425,0,0,1555,1555,0.616,159.687,0.26,1.74,-9.62,-10.29,1.33,12.58,29.9786
2023-03-24 23-10-22-339860,0,0,1555,1555,0.528,159.775,0.26,1.74,-9.6,-10.29,1.32,12.58,29.9786
2023-03-24 23-10-22-474375,0,0,1555,1555,0.616,159.775,0.28,1.82,-9.62,-10.24,1.35,12.83,29.7286
2023-03-24 23-10-22-598237,0,0,1553,1553,0.616,159.775,0.31,1.7,-9.62,-10.0,1.64,14.61,27.9486
2023-03-24 23-10-22-726388,0,0,1549,1549,0.616,159.687,0.41,1.64,-9.63,-9.69,2.1,17.16,25.3986
2023-03-24 23-10-22-858975,0,0,1546,1546,0.616,159.687,0.48,1.57,-9.65,-9.4,2.63,19.84,22.7186
2023-03-24 23-10-22-983523,0,0,1543,1543,0.616,159.687,0.59,1.5,-9.69,-9.1,3.09,22.42,20.138599999999997
2023-03-24 23-10-23-115581,0,0,1541,1541,0.616,159.687,0.62,1.47,-9.65,-8.84,3.45,24.63,17.9286
2023-03-24 23-10-23-238064,0,0,1539,1539,0.528,159.775,0.66,1.44,-9.64,-8.63,3.7,26.19,16.368599999999997
2023-03-24 23-10-23-366918,0,0,1538,1538,0.616,159.687,0.69,1.41,-9.64,-8.46,3.89,27.32,15.238599999999998
2023-03-24 23-10-23-493832,0,0,1537,1537,0.616,159.687,0.71,1.39,-9.63,-8.32,4.04,28.16,14.398599999999998
2023-03-24 23-10-23-621467,0,0,1535,1535,0.616,159.775,0.71,1.36,-9.65,-8.11,4.21,29.31,13.2486
2023-03-24 23-10-23-750166,0,0,1534,1534,0.616,159.687,0.77,1.31,-9.65,-7.86,4.4,30.61,11.948599999999999
2023-03-24 23-10-23-878017,0,0,1532,1532,0.616,159.775,0.83,1.27,-9.66,-7.63,4.61,31.91,10.648599999999998
2023-03-24 23-10-24-020599,0,0,1540,1540,0.616,159.775,0.85,1.23,-9.65,-7.36,4.8,33.15,9.4086
2023-03-24 23-10-24-154492,0,0,1540,1540,0.616,159.775,0.87,1.17,-9.65,-7.11,4.94,34.26,8.2986
2023-03-24 23-10-24-291471,0,0,1540,1540,0.616,159.775,0.93,1.14,-9.66,-6.86,5.05,35.25,7.308599999999998
2023-03-24 23-10-24-421015,0,0,1540,1540,0.616,159.687,0.9,1.09,-9.67,-6.65,5.16,35.91,6.648600000000002
2023-03-24 23-10-24-550438,0,0,1540,1540,0.616,159.775,0.9,1.06,-9.68,-6.48,5.25,36.15,6.4086
2023-03-24 23-10-24-679608,0,0,1540,1540,0.616,159.775,0.87,1.04,-9.65,-6.33,5.25,36.03,6.528599999999997
2023-03-24 23-10-24-806294,0,0,1540,1540,0.528,159.687,0.78,1.01,-9.66,-6.14,5.17,35.83,6.7286
2023-03-24 23-10-24-933936,0,0,1540,1540,0.616,159.775,0.92,0.93,-9.71,-5.83,5.05,35.94,6.618600000000001
2023-03-24 23-10-25-069910,0,0,1540,1540,0.616,159.687,0.88,0.91,-9.69,-5.5,4.92,36.17,6.388599999999997
2023-03-24 23-10-25-189367,0,0,1540,1540,0.616,159.775,0.82,0.86,-9.69,-5.14,4.78,36.39,6.168599999999998
2023-03-24 23-10-25-328314,0,0,1540,1540,0.616,159.687,0.78,0.76,-9.7,-4.75,4.65,36.69,5.868600000000001
2023-03-24 23-10-25-461698,0,0,1540,1540,0.616,159.687,0.83,0.7,-9.7,-4.36,4.52,36.91,5.648600000000002
2023-03-24 23-10-25-590234,0,0,1540,1540,0.528,159.775,0.8,0.65,-9.71,-4.04,4.41,36.86,5.698599999999999
2023-03-24 23-10-25-718035,0,0,1540,1540,0.616,159.687,0.73,0.59,-9.69,-3.78,4.31,36.62,5.938600000000001
2023-03-24 23-10-25-863877,0,0,1540,1540,0.616,159.687,0.64,0.56,-9.68,-3.6,4.21,36.06,6.498599999999996
2023-03-24 23-10-26-004354,0,0,1540,1540,0.616,159.775,0.66,0.53,-9.69,-3.4,4.08,35.47,7.0886
2023-03-24 23-10-26-134419,0,0,1540,1540,0.528,159.687,0.69,0.5,-9.73,-3.19,3.91,34.91,7.648600000000002
2023-03-24 23-10-26-262658,0,0,1540,1540,0.616,159.687,0.64,0.48,-9.72,-3.0,3.67,34.28,8.278599999999997
2023-03-24 23-10-26-390001,0,0,1540,1540,0.528,159.775,0.61,0.46,-9.73,-2.81,3.31,33.64,8.918599999999998
2023-03-24 23-10-26-519167,0,0,1540,1540,0.528,159.775,0.54,0.43,-9.74,-2.62,2.9,33.21,9.348599999999998
2023-03-24 23-10-26-650546,0,0,1540,1540,0.616,159.775,0.5,0.38,-9.76,-2.42,2.47,32.91,9.648600000000002
2023-03-24 23-10-26-773746,0,0,1532,1532,0.616,159.775,0.41,0.36,-9.76,-2.3,2.1,32.4,10.1586
2023-03-24 23-10-26-901640,0,0,1533,1533,0.616,159.687,0.35,0.35,-9.77,-2.22,1.81,31.71,10.848599999999998
2023-03-24 23-10-27-043632,0,0,1534,1534,0.616,159.775,0.31,0.38,-9.76,-2.18,1.6,30.93,11.628599999999999
2023-03-24 23-10-27-185030,0,0,1534,1534,0.616,159.775,0.2,0.31,-9.77,-2.1,1.44,30.35,12.208599999999997
2023-03-24 23-10-27-322408,0,0,1535,1535,0.616,159.687,0.22,0.3,-9.75,-2.02,1.26,29.75,12.808599999999998
2023-03-24 23-10-27-454080,0,0,1536,1536,0.616,159.687,0.07,0.3,-9.75,-1.94,1.0,29.08,13.4786
2023-03-24 23-10-27-594331,0,0,1536,1536,0.616,159.775,0.13,0.28,-9.76,-1.82,0.59,28.5,14.058599999999998
2023-03-24 23-10-27-745290,0,0,1537,1537,0.616,159.775,0.08,0.25,-9.77,-1.68,0.03,27.95,14.6086
2023-03-24 23-10-27-879552,0,0,1541,1540,0.528,159.775,-0.02,0.22,-9.77,-1.58,-0.57,27.54,15.0186
2023-03-24 23-10-28-009305,0,0,1541,1540,0.616,159.775,-0.14,0.23,-9.76,-1.5,-1.13,27.02,15.538599999999999
2023-03-24 23-10-28-134491,0,0,1541,1540,0.616,159.775,-0.19,0.22,-9.8,-1.46,-1.58,26.37,16.188599999999997
2023-03-24 23-10-28-264121,0,0,1541,1540,0.528,159.687,-0.27,0.22,-9.77,-1.43,-1.89,25.62,16.938599999999997
2023-03-24 23-10-28-391373,0,0,1541,1540,0.616,159.687,-0.37,0.21,-9.76,-1.37,-2.09,24.86,17.6986
2023-03-24 23-10-28-518016,0,0,1541,1540,0.528,159.775,-0.4,0.19,-9.76,-1.31,-2.24,24.19,18.368599999999997
2023-03-24 23-10-28-645552,0,0,1541,1540,0.616,159.775,-0.42,0.19,-9.77,-1.25,-2.46,23.37,19.188599999999997
2023-03-24 23-10-28-773506,0,0,1541,1540,0.616,159.775,-0.48,0.18,-9.75,-1.21,-2.83,22.41,20.1486
2023-03-24 23-10-28-901935,0,0,1541,1540,0.616,159.775,-0.55,0.16,-9.74,-1.16,-3.38,21.4,21.1586
2023-03-24 23-10-29-030080,0,0,1541,1540,0.616,159.687,-0.68,0.16,-9.75,-1.14,-4.04,20.33,22.2286
2023-03-24 23-10-29-173810,0,0,1541,1540,0.616,159.687,-0.76,0.18,-9.75,-1.15,-4.75,19.25,23.3086
2023-03-24 23-10-29-303864,0,0,1541,1540,0.616,159.775,-0.82,0.2,-9.73,-1.19,-5.4,18.3,24.258599999999998
2023-03-24 23-10-29-431256,0,0,1541,1540,0.528,159.775,-0.95,0.22,-9.71,-1.29,-5.86,17.4,25.1586
2023-03-24 23-10-29-557787,0,0,1541,1540,0.528,159.687,-0.97,0.24,-9.71,-1.45,-6.11,16.48,26.078599999999998
2023-03-24 23-10-29-685750,0,0,1541,1540,0.528,159.687,-1.04,0.25,-9.7,-1.65,-6.17,15.55,27.008599999999998
2023-03-24 23-10-29-813548,0,0,1541,1540,0.616,159.687,-1.03,0.29,-9.71,-1.82,-6.16,14.82,27.738599999999998
2023-03-24 23-10-29-941062,0,0,1541,1540,0.616,159.775,-1.03,0.33,-9.7,-1.98,-6.13,14.29,28.2686
2023-03-24 23-10-30-072810,0,0,1541,1540,0.616,159.775,-1.15,0.36,-9.69,-2.1,-6.16,13.89,28.668599999999998
2023-03-24 23-10-30-204069,0,0,1541,1540,0.616,159.775,-1.1,0.35,-9.69,-2.18,-6.36,13.49,29.068599999999996
2023-03-24 23-10-30-326937,0,0,1541,1540,0.616,159.775,-1.14,0.37,-9.7,-2.21,-6.75,12.98,29.578599999999998
2023-03-24 23-10-30-454040,0,0,1541,1540,0.528,159.775,-1.13,0.37,-9.69,-2.22,-7.25,12.35,30.208599999999997
2023-03-24 23-10-30-581889,0,0,1541,1540,0.528,159.775,-1.25,0.37,-9.67,-2.23,-7.71,11.71,30.848599999999998
2023-03-24 23-10-30-709543,0,0,1541,1540,0.528,159.775,-1.29,0.38,-9.67,-2.25,-8.05,11.01,31.5486
2023-03-24 23-10-30-844156,0,0,1541,1540,0.528,159.687,-1.34,0.37,-9.67,-2.28,-8.15,10.27,32.2886
2023-03-24 23-10-30-966277,0,0,1541,1540,0.616,159.687,-1.4,0.38,-9.67,-2.3,-8.06,9.7,32.858599999999996
2023-03-24 23-10-31-095936,0,0,1541,1540,0.616,159.775,-1.33,0.36,-9.69,-2.31,-7.9,9.37,33.1886
2023-03-24 23-10-31-228132,0,0,1541,1540,0.616,159.775,-1.36,0.37,-9.65,-2.29,-7.79,9.17,33.3886
2023-03-24 23-10-31-356437,0,0,1541,1540,0.616,159.775,-1.48,0.41,-9.64,-2.28,-7.82,8.92,33.6386
2023-03-24 23-10-31-476739,0,0,1541,1540,0.616,159.775,-1.36,0.37,-9.67,-2.27,-8.11,8.62,33.9386
2023-03-24 23-10-31-605065,0,0,1541,1540,0.616,159.775,-1.4,0.35,-9.67,-2.23,-8.57,8.17,34.3886
2023-03-24 23-10-31-733880,0,0,1541,1540,0.616,159.775,-1.5,0.36,-9.64,-2.22,-9.09,7.51,35.0486
2023-03-24 23-10-31-865244,0,0,1541,1540,0.616,159.687,-1.58,0.35,-9.62,-2.22,-9.57,6.59,35.968599999999995
2023-03-24 23-10-31-989487,0,0,1541,1540,0.616,159.687,-1.65,0.36,-9.61,-2.24,-9.91,5.49,37.068599999999996
2023-03-24 23-10-32-119856,0,0,1541,1540,0.616,159.775,-1.73,0.4,-9.59,-2.29,-10.07,4.21,38.3486
2023-03-24 23-10-32-260075,0,0,1541,1540,0.616,159.775,-1.69,0.4,-9.62,-2.38,-10.12,3.42,39.1386
2023-03-24 23-10-32-391294,0,0,1541,1540,0.616,159.775,-1.69,0.44,-9.62,-2.53,-10.07,3.15,39.4086
2023-03-24 23-10-32-529751,0,0,1541,1540,0.616,159.687,-1.68,0.45,-9.63,-2.7,-10.01,3.07,39.4886
2023-03-24 23-10-32-662337,0,0,1541,1540,0.616,159.775,-1.66,0.47,-9.62,-2.89,-10.0,3.21,39.3486
2023-03-24 23-10-32-822516,0,0,1541,1540,0.616,159.775,-1.63,0.49,-9.6,-3.05,-9.98,3.39,39.1686
2023-03-24 23-10-32-948864,0,0,1541,1540,0.616,159.775,-1.66,0.52,-9.63,-3.18,-9.89,3.41,39.1486
2023-03-24 23-10-33-081802,0,0,1541,1540,0.528,159.687,-1.64,0.53,-9.63,-3.27,-9.76,3.06,39.498599999999996
2023-03-24 23-10-33-205373,0,0,1541,1540,0.528,159.687,-1.63,0.55,-9.61,-3.27,-9.68,2.33,40.2286
2023-03-24 23-10-33-332962,0,0,1541,1540,0.616,159.775,-1.65,0.53,-9.61,-3.21,-9.69,1.55,41.0086
2023-03-24 23-10-33-461561,0,0,1541,1540,0.616,159.775,-1.62,0.54,-9.61,-3.12,-9.81,0.92,41.6386
2023-03-24 23-10-33-591547,0,0,1541,1540,0.616,159.775,-1.68,0.51,-9.59,-3.05,-10.02,0.53,42.0286
2023-03-24 23-10-33-717492,0,0,1541,1540,0.616,159.775,-1.71,0.49,-9.6,-3.05,-10.19,0.62,41.9386
2023-03-24 23-10-33-849845,0,0,1541,1540,0.616,159.775,-1.72,0.5,-9.61,-3.04,-10.28,0.75,41.8086
2023-03-24 23-10-33-974524,0,0,1541,1540,0.616,159.775,-1.67,0.5,-9.61,-3.02,-10.3,0.96,41.5986
2023-03-24 23-10-34-104061,0,0,1541,1540,0.528,159.775,-1.66,0.49,-9.61,-3.03,-10.21,1.07,41.4886
2023-03-24 23-10-34-230201,0,0,1541,1540,0.616,159.775,-1.62,0.48,-9.62,-3.03,-10.05,0.93,41.6286
2023-03-24 23-10-34-360142,0,0,1541,1540,0.616,159.775,-1.64,0.49,-9.62,-3.0,-9.84,0.49,42.068599999999996
2023-03-24 23-10-34-494287,0,0,1541,1540,0.616,159.687,-1.66,0.48,-9.59,-2.92,-9.66,-0.14,42.6986
2023-03-24 23-10-34-634010,0,0,1541,1540,0.616,159.775,-1.61,0.46,-9.61,-2.8,-9.56,-0.71,43.2686
2023-03-24 23-10-34-758099,0,0,1541,1540,0.616,159.775,-1.68,0.44,-9.59,-2.68,-9.63,-1.25,43.8086
2023-03-24 23-10-34-889009,0,0,1541,1540,0.616,159.775,-1.68,0.42,-9.61,-2.59,-9.85,-1.68,44.2386
2023-03-24 23-10-35-014873,0,0,1541,1540,0.616,159.775,-1.69,0.42,-9.58,-2.53,-10.22,-2.11,44.6686
2023-03-24 23-10-35-143800,0,0,1541,1540,0.616,159.775,-1.71,0.41,-9.59,-2.5,-10.65,-2.51,45.068599999999996
2023-03-24 23-10-35-269276,0,0,1541,1540,0.616,159.775,-1.78,0.41,-9.59,-2.53,-10.98,-2.82,45.3786
2023-03-24 23-10-35-396956,0,0,1541,1540,0.528,159.775,-1.79,0.42,-9.6,-2.58,-11.08,-3.16,45.718599999999995
2023-03-24 23-10-35-525654,0,0,1541,1540,0.616,159.687,-1.78,0.43,-9.6,-2.62,-10.91,-3.55,46.108599999999996
2023-03-24 23-10-35-654103,0,0,1541,1540,0.528,159.687,-1.79,0.43,-9.6,-2.64,-10.57,-3.87,46.428599999999996
2023-03-24 23-10-35-782444,0,0,1541,1540,0.528,159.775,-1.68,0.43,-9.6,-2.65,-10.18,-3.96,46.5186
2023-03-24 23-10-35-914271,0,0,1541,1540,0.616,159.687,-1.73,0.44,-9.62,-2.67,-9.86,-3.91,46.468599999999995
2023-03-24 23-10-36-037012,0,0,1541,1540,0.616,159.687,-1.64,0.41,-9.62,-2.61,-9.7,-4.01,46.568599999999996
2023-03-24 23-10-36-166468,0,0,1541,1540,0.616,159.687,-1.67,0.42,-9.63,-2.51,-9.75,-4.12,46.678599999999996
2023-03-24 23-10-36-293903,0,0,1541,1540,0.616,159.687,-1.57,0.39,-9.64,-2.4,-10.03,-4.29,46.8486
2023-03-24 23-10-36-423279,0,0,1541,1540,0.616,159.775,-1.65,0.39,-9.6,-2.31,-10.42,-4.69,47.248599999999996
2023-03-24 23-10-36-566899,0,0,1541,1540,0.616,159.775,-1.78,0.36,-9.58,-2.24,-10.78,-5.05,47.608599999999996
2023-03-24 23-10-36-693916,0,0,1541,1540,0.616,159.775,-1.86,0.36,-9.59,-2.17,-11.01,-5.43,47.9886
2023-03-24 23-10-36-821428,0,0,1541,1540,0.616,159.775,-1.9,0.34,-9.57,-2.1,-11.06,-5.59,48.1486
2023-03-24 23-10-36-957638,0,0,1541,1540,0.528,159.775,-1.85,0.32,-9.56,-2.08,-11.0,-5.39,47.9486
2023-03-24 23-10-37-095240,0,0,1541,1540,0.528,159.687,-1.82,0.33,-9.59,-2.06,-10.87,-5.17,47.7286
2023-03-24 23-10-37-229449,0,0,1541,1540,0.616,159.775,-1.84,0.32,-9.59,-2.04,-10.78,-5.03,47.5886
2023-03-24 23-10-37-366045,0,0,1541,1540,0.616,159.775,-1.84,0.32,-9.57,-1.99,-10.81,-5.14,47.6986
2023-03-24 23-10-37-493624,0,0,1541,1540,0.616,159.775,-1.84,0.28,-9.6,-1.93,-10.99,-5.46,48.0186
2023-03-24 23-10-37-624135,0,0,1541,1540,0.616,159.775,-1.86,0.28,-9.57,-1.84,-11.28,-6.12,48.678599999999996
2023-03-24 23-10-37-748491,0,0,1541,1540,0.616,159.775,-1.89,0.27,-9.57,-1.75,-11.62,-6.84,49.3986
2023-03-24 23-10-37-876691,0,0,1541,1540,0.616,159.687,-2.01,0.28,-9.56,-1.69,-11.87,-7.44,49.998599999999996
2023-03-24 23-10-38-006506,0,0,1541,1540,0.616,159.775,-2.02,0.28,-9.56,-1.7,-12.01,-7.76,50.318599999999996
2023-03-24 23-10-38-134363,0,0,1541,1540,0.616,159.775,-2.05,0.3,-9.55,-1.73,-11.97,-7.81,50.3686
2023-03-24 23-10-38-273542,0,0,1541,1540,0.616,159.687,-1.98,0.27,-9.56,-1.78,-11.87,-7.55,50.108599999999996
2023-03-24 23-10-38-407247,0,0,1541,1540,0.616,159.775,-1.97,0.28,-9.56,-1.81,-11.74,-7.21,49.7686
2023-03-24 23-10-38-532898,0,0,1541,1540,0.528,159.775,-2.04,0.28,-9.57,-1.83,-11.62,-6.85,49.4086
2023-03-24 23-10-38-664689,0,0,1541,1540,0.616,159.775,-1.93,0.27,-9.58,-1.8,-11.62,-6.74,49.2986
2023-03-24 23-10-38-788653,0,0,1541,1540,0.616,159.687,-1.96,0.27,-9.56,-1.71,-11.74,-7.1,49.6586
2023-03-24 23-10-38-924164,0,0,1541,1540,0.616,159.775,-1.9,0.25,-9.54,-1.59,-12.0,-7.57,50.1286
2023-03-24 23-10-39-047328,0,0,1541,1540,0.528,159.775,-2.01,0.27,-9.55,-1.55,-12.16,-7.65,50.2086
2023-03-24 23-10-39-172706,0,0,1541,1540,0.616,159.687,-2.05,0.27,-9.54,-1.54,-12.17,-7.3,49.858599999999996
2023-03-24 23-10-39-303143,0,0,1541,1540,0.616,159.775,-2.0,0.26,-9.57,-1.56,-11.95,-6.55,49.108599999999996
2023-03-24 23-10-39-430973,0,0,1541,1540,0.528,159.775,-1.98,0.25,-9.57,-1.58,-11.5,-5.75,48.3086
2023-03-24 23-10-39-556881,0,0,1541,1540,0.616,159.775,-1.88,0.24,-9.59,-1.52,-10.97,-5.26,47.818599999999996
2023-03-24 23-10-39-685364,0,0,1541,1540,0.616,159.775,-1.8,0.23,-9.58,-1.39,-10.52,-4.99,47.5486
2023-03-24 23-10-39-814322,0,0,1541,1540,0.616,159.687,-1.72,0.19,-9.59,-1.2,-10.31,-5.03,47.5886
2023-03-24 23-10-39-940563,0,0,1541,1540,0.616,159.775,-1.67,0.16,-9.6,-0.99,-10.4,-5.38,47.9386
2023-03-24 23-10-40-069301,0,0,1541,1540,0.616,159.775,-1.78,0.1,-9.58,-0.79,-10.7,-5.72,48.2786
2023-03-24 23-10-40-205979,0,0,1541,1540,0.616,159.687,-1.81,0.09,-9.57,-0.61,-11.06,-6.12,48.678599999999996
2023-03-24 23-10-40-351969,0,0,1541,1540,0.616,159.775,-1.78,0.05,-9.57,-0.47,-11.22,-6.75,49.3086
2023-03-24 23-10-40-484930,0,0,1541,1540,0.616,159.687,-1.78,0.02,-9.6,-0.35,-11.09,-7.72,50.2786
2023-03-24 23-10-40-614339,0,0,1541,1540,0.616,159.775,-1.78,0.01,-9.6,-0.26,-10.64,-8.86,51.4186
2023-03-24 23-10-40-740960,0,0,1541,1540,0.528,159.775,-1.71,-0.0,-9.61,-0.19,-9.98,-10.14,52.6986
2023-03-24 23-10-40-874867,0,0,1541,1540,0.616,159.687,-1.55,-0.01,-9.65,-0.14,-9.26,-11.73,54.2886
2023-03-24 23-10-40-998428,0,0,1541,1540,0.616,159.775,-1.49,-0.01,-9.66,-0.08,-8.58,-13.54,56.0986
2023-03-24 23-10-41-134013,0,0,1541,1540,0.616,159.775,-1.39,-0.01,-9.66,-0.05,-8.11,-15.33,57.8886
2023-03-24 23-10-41-270030,0,0,1541,1540,0.616,159.775,-1.28,-0.02,-9.66,-0.03,-7.81,-17.05,59.608599999999996
2023-03-24 23-10-41-397394,0,0,1541,1540,0.616,159.775,-1.3,0.01,-9.67,-0.06,-7.55,-18.47,61.0286
2023-03-24 23-10-41-525245,0,0,1541,1540,0.616,159.687,-1.26,0.03,-9.7,-0.12,-7.28,-19.31,61.8686
2023-03-24 23-10-41-653197,0,0,1541,1540,0.616,159.775,-1.15,0.02,-9.71,-0.19,-6.93,-19.47,62.0286
2023-03-24 23-10-41-781119,0,0,1541,1540,0.616,159.687,-1.1,0.04,-9.72,-0.26,-6.47,-19.39,61.9486
2023-03-24 23-10-41-924079,0,0,1541,1540,0.528,159.687,-1.04,0.02,-9.7,-0.3,-6.02,-19.14,61.6986
2023-03-24 23-10-42-062428,0,0,1541,1540,0.616,159.687,-1.0,0.04,-9.7,-0.33,-5.72,-18.76,61.3186
2023-03-24 23-10-42-195961,0,0,1541,1540,0.528,159.775,-0.93,0.05,-9.72,-0.32,-5.61,-18.7,61.2586
2023-03-24 23-10-42-324382,0,0,1541,1540,0.616,159.775,-0.95,0.03,-9.72,-0.27,-5.7,-19.03,61.5886
2023-03-24 23-10-42-453290,0,0,1541,1540,0.616,159.775,-1.04,0.02,-9.7,-0.2,-5.96,-19.63,62.188599999999994
2023-03-24 23-10-42-594073,0,0,1541,1540,0.616,159.775,-1.08,0.02,-9.68,-0.15,-6.3,-20.67,63.2286
2023-03-24 23-10-42-724976,0,0,1541,1540,0.616,159.775,-1.21,0.01,-9.68,-0.09,-6.75,-22.0,64.5586
2023-03-24 23-10-42-853120,0,0,1541,1540,0.616,159.687,-1.23,-0.02,-9.68,-0.02,-7.38,-23.12,65.6786
2023-03-24 23-10-42-981297,0,0,1541,1540,0.616,159.775,-1.37,0.0,-9.66,0.01,-8.17,-24.2,66.7586
2023-03-24 23-10-43-124841,0,0,1541,1540,0.616,159.775,-1.6,-0.05,-9.63,0.04,-9.03,-25.27,67.8286
2023-03-24 23-10-43-253410,0,0,1541,1540,0.616,159.775,-1.7,-0.01,-9.61,0.01,-9.93,-26.23,68.7886
2023-03-24 23-10-43-394594,0,0,1541,1540,0.528,159.687,-1.73,0.0,-9.59,-0.01,-10.86,-27.13,69.6886
2023-03-24 23-10-43-525538,0,0,1541,1540,0.616,159.687,-1.9,0.01,-9.57,-0.05,-11.72,-28.05,70.6086
2023-03-24 23-10-43-663898,0,0,1541,1540,0.616,159.775,-1.97,0.04,-9.54,-0.11,-12.47,-29.03,71.5886
2023-03-24 23-10-43-810635,0,0,1541,1540,0.616,159.775,-2.2,0.02,-9.51,-0.21,-13.04,-29.88,72.4386
2023-03-24 23-10-43-962018,0,0,1541,1540,0.616,159.775,-2.23,0.07,-9.51,-0.34,-13.47,-30.5,73.0586
2023-03-24 23-10-44-086871,0,0,1541,1540,0.616,159.687,-2.28,0.1,-9.49,-0.52,-13.8,-30.83,73.3886
2023-03-24 23-10-44-212399,0,0,1541,1540,0.616,159.775,-2.27,0.14,-9.47,-0.72,-14.11,-30.98,73.5386
2023-03-24 23-10-44-340273,0,0,1541,1540,0.616,159.775,-2.36,0.18,-9.49,-0.99,-14.43,-30.68,73.23859999999999
2023-03-24 23-10-44-469256,0,0,1541,1540,0.616,159.687,-2.42,0.22,-9.47,-1.33,-14.73,-30.01,72.5686
2023-03-24 23-10-44-596134,0,0,1541,1540,0.616,159.775,-2.43,0.28,-9.45,-1.7,-15.0,-29.06,71.6186
2023-03-24 23-10-44-729883,0,0,1541,1540,0.528,159.775,-2.5,0.32,-9.45,-2.03,-15.2,-28.18,70.73859999999999
2023-03-24 23-10-44-870678,0,0,1541,1540,0.616,159.775,-2.51,0.39,-9.43,-2.3,-15.25,-27.47,70.0286
2023-03-24 23-10-44-996129,0,0,1541,1540,0.616,159.775,-2.5,0.41,-9.46,-2.51,-15.13,-26.9,69.45859999999999
2023-03-24 23-10-45-125297,0,0,1541,1540,0.616,159.687,-2.52,0.45,-9.44,-2.63,-14.94,-26.47,69.0286
2023-03-24 23-10-45-252744,0,0,1541,1540,0.528,159.775,-2.47,0.44,-9.45,-2.67,-14.8,-25.99,68.5486
2023-03-24 23-10-45-380835,0,0,1541,1540,0.616,159.775,-2.48,0.45,-9.41,-2.67,-14.8,-25.45,68.0086
2023-03-24 23-10-45-508539,0,0,1541,1540,0.616,159.775,-2.59,0.42,-9.41,-2.65,-14.9,-24.83,67.3886
2023-03-24 23-10-45-636713,0,0,1541,1540,0.616,159.775,-2.47,0.44,-9.43,-2.59,-15.08,-24.29,66.8486
2023-03-24 23-10-45-764716,0,0,1541,1540,0.616,159.775,-2.47,0.42,-9.43,-2.6,-15.2,-23.44,65.9986
2023-03-24 23-10-45-892661,0,0,1541,1540,0.616,159.775,-2.49,0.43,-9.42,-2.64,-15.19,-22.68,65.23859999999999
2023-03-24 23-10-46-022550,0,0,1541,1540,0.616,159.687,-2.43,0.44,-9.44,-2.69,-15.02,-22.03,64.5886
2023-03-24 23-10-46-150761,0,0,1541,1540,0.616,159.687,-2.45,0.45,-9.43,-2.75,-14.62,-21.39,63.9486
2023-03-24 23-10-46-276143,0,0,1541,1540,0.616,159.775,-2.36,0.47,-9.48,-2.81,-14.06,-20.73,63.2886
2023-03-24 23-10-46-405798,0,0,1541,1540,0.616,159.687,-2.27,0.49,-9.49,-2.88,-13.43,-19.86,62.4186
2023-03-24 23-10-46-542824,0,0,1541,1540,0.616,159.775,-2.22,0.49,-9.49,-2.94,-12.89,-19.03,61.5886
2023-03-24 23-10-46-660192,0,0,1541,1540,0.616,159.687,-2.14,0.47,-9.54,-2.93,-12.54,-18.37,60.9286
2023-03-24 23-10-46-802055,0,0,1541,1540,0.528,159.775,-2.07,0.45,-9.54,-2.87,-12.39,-17.73,60.2886
2023-03-24 23-10-46-942790,0,0,1541,1540,0.528,159.775,-2.0,0.46,-9.53,-2.8,-12.41,-17.08,59.6386
2023-03-24 23-10-47-084498,0,0,1541,1540,0.528,159.775,-2.01,0.44,-9.54,-2.75,-12.48,-16.48,59.0386
2023-03-24 23-10-47-206974,0,0,1541,1540,0.616,159.687,-2.05,0.43,-9.51,-2.72,-12.49,-15.94,58.498599999999996
2023-03-24 23-10-47-333273,0,0,1541,1540,0.616,159.775,-2.08,0.42,-9.55,-2.68,-12.33,-15.54,58.0986
2023-03-24 23-10-47-468190,0,0,1541,1540,0.616,159.687,-2.05,0.42,-9.55,-2.64,-11.98,-15.26,57.818599999999996
2023-03-24 23-10-47-591997,0,0,1541,1540,0.616,159.775,-1.94,0.42,-9.55,-2.59,-11.47,-14.8,57.358599999999996
2023-03-24 23-10-47-717045,0,0,1541,1540,0.616,159.775,-1.96,0.45,-9.54,-2.54,-10.94,-14.28,56.8386
2023-03-24 23-10-47-844607,0,0,1541,1540,0.528,159.687,-1.77,0.39,-9.59,-2.45,-10.59,-13.8,56.358599999999996
2023-03-24 23-10-47-984010,0,0,1541,1540,0.616,159.775,-1.77,0.37,-9.6,-2.33,-10.48,-13.46,56.0186
2023-03-24 23-10-48-116940,0,0,1541,1540,0.616,159.775,-1.78,0.38,-9.58,-2.2,-10.64,-13.23,55.7886
