Timestamp_log,left_angle,right_angle,left_thrust,right_thrust,read_left_angle,read_right_angle,accel_x,accel_y,accel_z,roll,pitch,yaw,e_alpha
2023-03-23 21-47-55-852709,0,0,1511,1489,0.088,0.176,0.41,-0.49,-9.75,2.9,2.29,145.43,-44.876299999999986
2023-03-23 21-47-55-874971,0,0,1526,1474,0.088,0.176,0.4,-0.49,-9.75,2.9,2.28,145.43,-44.876299999999986
2023-03-23 21-47-55-891912,0,0,1526,1474,0.088,0.176,0.41,-0.49,-9.76,2.91,2.27,145.43,-44.876299999999986
2023-03-23 21-47-55-923023,0,0,1526,1474,0.088,0.176,0.42,-0.5,-9.75,2.91,2.25,145.43,-44.876299999999986
2023-03-23 21-47-55-939684,0,0,1526,1474,0.088,0.176,0.42,-0.49,-9.75,2.91,2.24,145.43,-44.876299999999986
2023-03-23 21-47-55-969664,0,0,1526,1474,0.088,0.176,0.41,-0.49,-9.75,2.91,2.23,145.43,-44.876299999999986
2023-03-23 21-47-55-988084,0,0,1526,1474,0.088,0.176,0.4,-0.49,-9.75,2.91,2.22,145.43,-44.876299999999986
2023-03-23 21-47-56-007973,0,0,1526,1474,0.088,0.176,0.38,-0.5,-9.75,2.91,2.21,145.43,-44.876299999999986
2023-03-23 21-47-56-035360,0,0,1526,1474,0.088,0.176,0.39,-0.49,-9.75,2.92,2.2,145.43,-44.876299999999986
2023-03-23 21-47-56-050813,0,0,1526,1474,0.088,0.176,0.39,-0.5,-9.77,2.92,2.18,145.43,-44.876299999999986
2023-03-23 21-47-56-070089,0,0,1526,1474,0.088,0.264,0.39,-0.51,-9.77,2.92,2.17,145.43,-44.876299999999986
2023-03-23 21-47-56-102684,0,0,1526,1474,0.088,0.176,0.38,-0.49,-9.75,2.92,2.16,145.43,-44.876299999999986
2023-03-23 21-47-56-135749,0,0,1526,1474,0.088,0.176,0.38,-0.49,-9.75,2.92,2.15,145.43,-44.876299999999986
2023-03-23 21-47-56-166727,0,0,1526,1474,0.088,0.176,0.4,-0.49,-9.75,2.92,2.14,145.43,-44.876299999999986
2023-03-23 21-47-56-199631,0,0,1526,1474,0.088,0.176,0.39,-0.5,-9.75,2.92,2.13,145.43,-44.876299999999986
2023-03-23 21-47-56-226411,0,0,1526,1474,0.088,0.176,0.37,-0.49,-9.76,2.93,2.12,145.43,-44.876299999999986
2023-03-23 21-47-56-241213,0,0,1526,1474,0.088,0.176,0.4,-0.49,-9.77,2.93,2.11,145.43,-44.876299999999986
2023-03-23 21-47-56-258423,0,0,1526,1474,0.088,0.176,0.39,-0.48,-9.74,2.93,2.11,145.43,-44.876299999999986
2023-03-23 21-47-56-273724,0,0,1526,1474,0.088,0.176,0.32,-0.48,-9.77,2.93,2.1,145.43,-44.876299999999986
2023-03-23 21-47-56-290529,0,0,1526,1474,0.0,0.176,0.32,-0.49,-9.75,2.93,2.09,145.42,-44.86629999999997
2023-03-23 21-47-56-306421,0,0,1526,1474,0.088,0.176,0.31,-0.51,-9.73,2.93,2.08,145.42,-44.86629999999997
2023-03-23 21-47-56-321656,0,0,1526,1474,0.088,0.176,0.3,-0.5,-9.73,2.93,2.07,145.42,-44.86629999999997
2023-03-23 21-47-56-338820,0,0,1526,1474,0.088,0.176,0.29,-0.5,-9.73,2.93,2.06,145.42,-44.86629999999997
2023-03-23 21-47-56-354066,0,0,1526,1474,0.088,0.176,0.29,-0.5,-9.72,2.92,2.06,145.42,-44.86629999999997
2023-03-23 21-47-56-369990,0,0,1526,1474,0.088,0.176,0.31,-0.49,-9.75,2.92,2.05,145.42,-44.86629999999997
2023-03-23 21-47-56-385281,0,0,1526,1474,0.088,0.176,0.31,-0.49,-9.74,2.91,2.04,145.42,-44.86629999999997
2023-03-23 21-47-56-402067,0,0,1526,1474,0.088,0.176,0.3,-0.49,-9.73,2.91,2.03,145.42,-44.86629999999997
2023-03-23 21-47-56-418249,0,0,1526,1474,0.088,0.176,0.31,-0.49,-9.74,2.9,2.03,145.42,-44.86629999999997
2023-03-23 21-47-56-433094,0,0,1526,1474,0.088,0.176,0.3,-0.49,-9.74,2.89,2.03,145.42,-44.86629999999997
2023-03-23 21-47-56-470020,0,0,1526,1474,0.088,0.176,0.3,-0.48,-9.73,2.88,2.02,145.42,-44.86629999999997
2023-03-23 21-47-56-502558,0,0,1526,1474,0.088,0.176,0.31,-0.49,-9.74,2.87,2.02,145.42,-44.86629999999997
2023-03-23 21-47-56-537645,0,0,1526,1474,0.088,0.176,0.34,-0.49,-9.76,2.86,2.01,145.42,-44.86629999999997
2023-03-23 21-47-56-562881,0,0,1526,1474,0.088,0.176,0.35,-0.48,-9.75,2.85,2.01,145.42,-44.86629999999997
2023-03-23 21-47-56-578652,0,0,1526,1474,0.0,0.176,0.35,-0.48,-9.74,2.83,2.01,145.42,-44.86629999999997
2023-03-23 21-47-56-602997,0,0,1526,1474,0.088,0.176,0.35,-0.49,-9.74,2.82,2.01,145.42,-44.86629999999997
2023-03-23 21-47-56-628887,0,0,1526,1474,0.088,0.176,0.35,-0.48,-9.74,2.81,2.01,145.41,-44.856299999999976
2023-03-23 21-47-56-662562,0,0,1526,1474,0.088,0.176,0.35,-0.49,-9.75,2.8,2.01,145.41,-44.856299999999976
2023-03-23 21-47-56-692372,0,0,1526,1474,0.088,0.176,0.34,-0.47,-9.76,2.79,2.0,145.41,-44.856299999999976
2023-03-23 21-47-56-726111,0,0,1526,1474,0.088,0.176,0.33,-0.47,-9.74,2.78,2.0,145.41,-44.856299999999976
2023-03-23 21-47-56-757538,0,0,1526,1474,0.088,0.176,0.34,-0.47,-9.73,2.76,2.0,145.4,-44.846299999999985
2023-03-23 21-47-56-789795,0,0,1526,1474,0.088,0.176,0.34,-0.47,-9.74,2.75,2.0,145.4,-44.846299999999985
2023-03-23 21-47-56-817158,0,0,1526,1474,0.088,0.176,0.34,-0.47,-9.75,2.73,2.0,145.39,-44.836299999999966
2023-03-23 21-47-56-833480,0,0,1526,1474,0.088,0.176,0.35,-0.47,-9.74,2.72,2.0,145.39,-44.836299999999966
2023-03-23 21-47-56-852729,0,0,1526,1474,0.088,0.176,0.34,-0.47,-9.75,2.7,2.0,145.38,-44.826299999999975
2023-03-23 21-47-56-881887,0,0,1526,1474,0.088,0.176,0.35,-0.46,-9.74,2.69,2.0,145.37,-44.816299999999984
2023-03-23 21-47-56-898965,0,0,1526,1474,0.088,0.176,0.34,-0.46,-9.74,2.68,2.0,145.37,-44.816299999999984
2023-03-23 21-47-56-913477,0,0,1526,1474,0.0,0.176,0.35,-0.46,-9.76,2.67,2.0,145.36,-44.80629999999999
2023-03-23 21-47-56-930884,0,0,1526,1474,0.088,0.176,0.35,-0.46,-9.76,2.65,2.0,145.36,-44.80629999999999
2023-03-23 21-47-56-945093,0,0,1526,1474,0.088,0.176,0.35,-0.46,-9.77,2.64,2.0,145.35,-44.796299999999974
2023-03-23 21-47-56-962882,0,0,1526,1474,0.088,0.176,0.35,-0.46,-9.76,2.62,2.0,145.35,-44.796299999999974
2023-03-23 21-47-56-977752,0,0,1526,1474,0.088,0.176,0.34,-0.45,-9.76,2.61,2.01,145.34,-44.78629999999998
2023-03-23 21-47-56-994924,0,0,1526,1474,0.088,0.176,0.35,-0.46,-9.77,2.6,2.01,145.34,-44.78629999999998
2023-03-23 21-47-57-010240,0,0,1526,1474,0.088,0.176,0.34,-0.45,-9.76,2.59,2.01,145.33,-44.77629999999999
2023-03-23 21-47-57-026342,0,0,1526,1474,0.088,0.176,0.32,-0.45,-9.76,2.57,2.01,145.33,-44.77629999999999
2023-03-23 21-47-57-042531,0,0,1526,1474,0.088,0.176,0.34,-0.45,-9.76,2.56,2.01,145.32,-44.76629999999997
2023-03-23 21-47-57-057513,0,0,1526,1474,0.088,0.176,0.33,-0.45,-9.77,2.54,2.01,145.32,-44.76629999999997
2023-03-23 21-47-57-090473,0,0,1526,1474,0.088,0.176,0.33,-0.43,-9.78,2.53,2.01,145.31,-44.75629999999998
2023-03-23 21-47-57-121158,0,0,1526,1474,0.088,0.176,0.35,-0.46,-9.76,2.52,2.01,145.31,-44.75629999999998
2023-03-23 21-47-57-137826,0,0,1526,1474,0.088,0.176,0.33,-0.43,-9.79,2.51,2.02,145.31,-44.75629999999998
2023-03-23 21-47-57-153178,0,0,1526,1474,0.088,0.176,0.36,-0.44,-9.76,2.49,2.02,145.31,-44.75629999999998
2023-03-23 21-47-57-169987,0,0,1526,1474,0.0,0.176,0.35,-0.42,-9.77,2.48,2.03,145.3,-44.74629999999999
2023-03-23 21-47-57-185070,0,0,1526,1474,0.088,0.176,0.35,-0.41,-9.76,2.46,2.03,145.3,-44.74629999999999
2023-03-23 21-47-57-201838,0,0,1526,1474,0.088,0.176,0.35,-0.43,-9.77,2.45,2.03,145.3,-44.74629999999999
2023-03-23 21-47-57-222774,0,0,1526,1474,0.088,0.176,0.36,-0.42,-9.76,2.44,2.03,145.3,-44.74629999999999
2023-03-23 21-47-57-250199,0,0,1526,1474,0.088,0.176,0.36,-0.42,-9.77,2.43,2.04,145.3,-44.74629999999999
2023-03-23 21-47-57-266460,0,0,1526,1474,0.088,0.176,0.37,-0.41,-9.76,2.42,2.04,145.3,-44.74629999999999
2023-03-23 21-47-57-296956,0,0,1526,1474,0.088,0.176,0.37,-0.41,-9.76,2.41,2.05,145.3,-44.74629999999999
2023-03-23 21-47-57-313302,0,0,1526,1474,0.088,0.176,0.35,-0.42,-9.76,2.4,2.05,145.3,-44.74629999999999
2023-03-23 21-47-57-330277,0,0,1526,1474,0.088,0.176,0.37,-0.42,-9.76,2.39,2.06,145.29,-44.73629999999997
2023-03-23 21-47-57-360870,0,0,1526,1474,0.0,0.176,0.36,-0.41,-9.76,2.38,2.06,145.29,-44.73629999999997
2023-03-23 21-47-57-377025,0,0,1526,1474,0.088,0.176,0.37,-0.4,-9.77,2.37,2.07,145.29,-44.73629999999997
2023-03-23 21-47-57-396421,0,0,1526,1474,0.088,0.176,0.37,-0.39,-9.76,2.36,2.08,145.29,-44.73629999999997
2023-03-23 21-47-57-424997,0,0,1526,1474,0.088,0.176,0.37,-0.4,-9.77,2.35,2.08,145.29,-44.73629999999997
2023-03-23 21-47-57-441880,0,0,1526,1474,0.088,0.176,0.38,-0.4,-9.76,2.34,2.09,145.29,-44.73629999999997
2023-03-23 21-47-57-457208,0,0,1526,1474,0.088,0.176,0.37,-0.39,-9.76,2.32,2.1,145.29,-44.73629999999997
2023-03-23 21-47-57-473556,0,0,1526,1474,0.088,0.176,0.37,-0.39,-9.76,2.31,2.1,145.29,-44.73629999999997
2023-03-23 21-47-57-489354,0,0,1526,1474,0.088,0.176,0.38,-0.39,-9.75,2.3,2.11,145.28,-44.72629999999998
2023-03-23 21-47-57-521374,0,0,1526,1474,0.088,0.176,0.38,-0.39,-9.76,2.28,2.11,145.28,-44.72629999999998
2023-03-23 21-47-57-537168,0,0,1526,1474,0.088,0.176,0.39,-0.38,-9.76,2.27,2.12,145.28,-44.72629999999998
2023-03-23 21-47-57-553450,0,0,1526,1474,0.088,0.176,0.39,-0.37,-9.76,2.25,2.12,145.28,-44.72629999999998
2023-03-23 21-47-57-570240,0,0,1526,1474,0.088,0.176,0.39,-0.37,-9.76,2.24,2.13,145.28,-44.72629999999998
2023-03-23 21-47-57-585313,0,0,1526,1474,0.088,0.176,0.4,-0.37,-9.75,2.22,2.14,145.27,-44.71629999999999
2023-03-23 21-47-57-601079,0,0,1526,1474,0.088,0.176,0.4,-0.37,-9.76,2.21,2.14,145.27,-44.71629999999999
2023-03-23 21-47-57-618511,0,0,1526,1474,0.088,0.176,0.39,-0.36,-9.76,2.19,2.15,145.27,-44.71629999999999
2023-03-23 21-47-57-634080,0,0,1526,1474,0.088,0.176,0.39,-0.35,-9.75,2.17,2.15,145.26,-44.70629999999997
2023-03-23 21-47-57-650243,0,0,1526,1474,0.088,0.176,0.39,-0.36,-9.76,2.16,2.16,145.26,-44.70629999999997
2023-03-23 21-47-57-665270,0,0,1526,1474,0.088,0.176,0.4,-0.36,-9.76,2.15,2.17,145.25,-44.69629999999998
2023-03-23 21-47-57-682128,0,0,1526,1474,0.088,0.176,0.4,-0.36,-9.75,2.13,2.17,145.25,-44.69629999999998
2023-03-23 21-47-57-699696,0,0,1526,1474,0.088,0.176,0.4,-0.36,-9.76,2.11,2.18,145.25,-44.69629999999998
2023-03-23 21-47-57-728999,0,0,1526,1474,0.088,0.176,0.39,-0.36,-9.77,2.09,2.18,145.24,-44.68629999999999
2023-03-23 21-47-57-746827,0,0,1526,1474,0.088,0.176,0.4,-0.35,-9.76,2.08,2.18,145.24,-44.68629999999999
2023-03-23 21-47-57-777929,0,0,1526,1474,0.088,0.176,0.42,-0.33,-9.75,2.06,2.19,145.24,-44.68629999999999
2023-03-23 21-47-57-796785,0,0,1526,1474,0.088,0.176,0.41,-0.34,-9.78,2.04,2.19,145.23,-44.67629999999997
2023-03-23 21-47-57-825202,0,0,1526,1474,0.088,0.176,0.42,-0.33,-9.76,2.02,2.19,145.23,-44.67629999999997
2023-03-23 21-47-57-841829,0,0,1526,1474,0.088,0.176,0.44,-0.32,-9.74,2.0,2.2,145.23,-44.67629999999997
2023-03-23 21-47-57-858005,0,0,1526,1474,0.088,0.176,0.43,-0.33,-9.78,1.98,2.2,145.24,-44.68629999999999
2023-03-23 21-47-57-873810,0,0,1526,1474,0.088,0.176,0.44,-0.34,-9.73,1.96,2.2,145.24,-44.68629999999999
2023-03-23 21-47-57-889154,0,0,1526,1474,0.088,0.176,0.44,-0.33,-9.8,1.95,2.2,145.24,-44.68629999999999
2023-03-23 21-47-57-906234,0,0,1526,1474,0.088,0.176,0.45,-0.34,-9.77,1.93,2.2,145.25,-44.69629999999998
2023-03-23 21-47-57-922128,0,0,1526,1474,0.088,0.176,0.44,-0.32,-9.78,1.91,2.21,145.26,-44.70629999999997
2023-03-23 21-47-57-938466,0,0,1526,1474,0.088,0.176,0.44,-0.31,-9.77,1.9,2.21,145.27,-44.71629999999999
2023-03-23 21-47-57-954306,0,0,1526,1474,0.088,0.176,0.43,-0.32,-9.77,1.88,2.21,145.28,-44.72629999999998
2023-03-23 21-47-57-969384,0,0,1526,1474,0.088,0.176,0.45,-0.32,-9.79,1.87,2.21,145.29,-44.73629999999997
2023-03-23 21-47-57-985308,0,0,1526,1474,0.088,0.176,0.47,-0.31,-9.78,1.85,2.22,145.3,-44.74629999999999
2023-03-23 21-47-58-003282,0,0,1526,1474,0.088,0.176,0.48,-0.3,-9.77,1.83,2.22,145.32,-44.76629999999997
2023-03-23 21-47-58-018019,0,0,1526,1474,0.088,0.176,0.48,-0.29,-9.77,1.82,2.23,145.33,-44.77629999999999
2023-03-23 21-47-58-032905,0,0,1526,1474,0.088,0.176,0.47,-0.3,-9.77,1.8,2.23,145.34,-44.78629999999998
2023-03-23 21-47-58-049811,0,0,1526,1474,0.0,0.176,0.46,-0.3,-9.77,1.79,2.24,145.34,-44.78629999999998
2023-03-23 21-47-58-067311,0,0,1526,1474,0.088,0.176,0.46,-0.29,-9.78,1.78,2.25,145.35,-44.796299999999974
2023-03-23 21-47-58-081491,0,0,1526,1474,0.088,0.176,0.46,-0.31,-9.78,1.76,2.25,145.36,-44.80629999999999
2023-03-23 21-47-58-097051,0,0,1526,1474,0.088,0.176,0.47,-0.3,-9.78,1.75,2.26,145.37,-44.816299999999984
2023-03-23 21-47-58-114202,0,0,1526,1474,0.088,0.176,0.47,-0.28,-9.78,1.73,2.27,145.37,-44.816299999999984
2023-03-23 21-47-58-130876,0,0,1526,1474,0.088,0.176,0.47,-0.3,-9.78,1.72,2.28,145.38,-44.826299999999975
2023-03-23 21-47-58-145756,0,0,1526,1474,0.0,0.176,0.47,-0.29,-9.78,1.71,2.29,145.39,-44.836299999999966
2023-03-23 21-47-58-161053,0,0,1526,1474,0.088,0.176,0.46,-0.28,-9.78,1.69,2.3,145.39,-44.836299999999966
2023-03-23 21-47-58-177977,0,0,1526,1474,0.088,0.176,0.46,-0.28,-9.78,1.68,2.31,145.4,-44.846299999999985
2023-03-23 21-47-58-193969,0,0,1526,1474,0.088,0.176,0.44,-0.26,-9.78,1.67,2.33,145.41,-44.856299999999976
2023-03-23 21-47-58-209035,0,0,1526,1474,0.088,0.176,0.44,-0.27,-9.76,1.66,2.33,145.41,-44.856299999999976
2023-03-23 21-47-58-226224,0,0,1526,1474,0.088,0.176,0.45,-0.27,-9.77,1.65,2.35,145.42,-44.86629999999997
2023-03-23 21-47-58-241021,0,0,1526,1474,0.088,0.176,0.48,-0.28,-9.75,1.64,2.36,145.42,-44.86629999999997
2023-03-23 21-47-58-257880,0,0,1526,1474,0.088,0.176,0.46,-0.27,-9.78,1.63,2.37,145.42,-44.86629999999997
2023-03-23 21-47-58-276438,0,0,1526,1474,0.0,0.176,0.48,-0.26,-9.77,1.61,2.39,145.42,-44.86629999999997
2023-03-23 21-47-58-305058,0,0,1526,1474,0.088,0.176,0.49,-0.27,-9.77,1.6,2.4,145.41,-44.856299999999976
2023-03-23 21-47-58-320943,0,0,1526,1474,0.088,0.176,0.46,-0.26,-9.76,1.59,2.41,145.41,-44.856299999999976
2023-03-23 21-47-58-340358,0,0,1526,1474,0.088,0.176,0.43,-0.28,-9.77,1.58,2.42,145.41,-44.856299999999976
2023-03-23 21-47-58-369932,0,0,1526,1474,0.088,0.176,0.41,-0.26,-9.77,1.56,2.44,145.4,-44.846299999999985
2023-03-23 21-47-58-387352,0,0,1526,1474,0.088,0.176,0.42,-0.26,-9.76,1.55,2.45,145.39,-44.836299999999966
2023-03-23 21-47-58-402701,0,0,1526,1474,0.088,0.176,0.43,-0.26,-9.76,1.54,2.46,145.39,-44.836299999999966
2023-03-23 21-47-58-416979,0,0,1526,1474,0.088,0.176,0.42,-0.25,-9.76,1.52,2.47,145.38,-44.826299999999975
2023-03-23 21-47-58-440522,0,0,1526,1474,0.088,0.176,0.43,-0.24,-9.75,1.51,2.48,145.38,-44.826299999999975
2023-03-23 21-47-58-466090,0,0,1526,1474,0.088,0.176,0.42,-0.24,-9.76,1.49,2.49,145.37,-44.816299999999984
2023-03-23 21-47-58-481636,0,0,1526,1474,0.088,0.176,0.43,-0.25,-9.77,1.48,2.5,145.36,-44.80629999999999
2023-03-23 21-47-58-498347,0,0,1526,1474,0.088,0.176,0.43,-0.25,-9.77,1.46,2.51,145.36,-44.80629999999999
2023-03-23 21-47-58-513118,0,0,1526,1474,0.088,0.176,0.43,-0.26,-9.77,1.45,2.52,145.35,-44.796299999999974
2023-03-23 21-47-58-530453,0,0,1526,1474,0.088,0.176,0.43,-0.25,-9.75,1.44,2.52,145.34,-44.78629999999998
2023-03-23 21-47-58-546009,0,0,1526,1474,0.088,0.176,0.43,-0.23,-9.76,1.42,2.53,145.33,-44.77629999999999
2023-03-23 21-47-58-563143,0,0,1526,1474,0.088,0.176,0.43,-0.24,-9.77,1.41,2.54,145.32,-44.76629999999997
2023-03-23 21-47-58-579711,0,0,1526,1474,0.088,0.176,0.44,-0.23,-9.77,1.39,2.54,145.31,-44.75629999999998
2023-03-23 21-47-58-612155,0,0,1526,1474,0.088,0.176,0.43,-0.24,-9.78,1.37,2.54,145.3,-44.74629999999999
2023-03-23 21-47-58-643355,0,0,1526,1474,0.088,0.176,0.43,-0.24,-9.77,1.35,2.54,145.29,-44.73629999999997
2023-03-23 21-47-58-657021,0,0,1526,1474,0.088,0.176,0.43,-0.23,-9.77,1.34,2.54,145.28,-44.72629999999998
2023-03-23 21-47-58-675167,0,0,1526,1474,0.088,0.176,0.44,-0.23,-9.78,1.32,2.54,145.27,-44.71629999999999
2023-03-23 21-47-58-705393,0,0,1526,1474,0.088,0.176,0.45,-0.22,-9.76,1.3,2.54,145.27,-44.71629999999999
2023-03-23 21-47-58-721239,0,0,1526,1474,0.088,0.176,0.44,-0.23,-9.77,1.28,2.54,145.26,-44.70629999999997
2023-03-23 21-47-58-737038,0,0,1526,1474,0.088,0.176,0.45,-0.21,-9.77,1.27,2.54,145.25,-44.69629999999998
2023-03-23 21-47-58-753421,0,0,1526,1474,0.088,0.176,0.45,-0.22,-9.77,1.25,2.53,145.25,-44.69629999999998
2023-03-23 21-47-58-769015,0,0,1526,1474,0.088,0.176,0.44,-0.21,-9.77,1.23,2.52,145.24,-44.68629999999999
2023-03-23 21-47-58-784909,0,0,1526,1474,0.088,0.176,0.45,-0.22,-9.8,1.22,2.51,145.23,-44.67629999999997
2023-03-23 21-47-58-800885,0,0,1526,1474,0.088,0.176,0.44,-0.21,-9.77,1.2,2.5,145.22,-44.66629999999998
2023-03-23 21-47-58-819036,0,0,1526,1474,0.088,0.176,0.44,-0.21,-9.78,1.18,2.5,145.21,-44.65629999999999
2023-03-23 21-47-58-833311,0,0,1526,1474,0.088,0.176,0.44,-0.2,-9.79,1.16,2.48,145.2,-44.64629999999997
2023-03-23 21-47-58-849011,0,0,1526,1474,0.088,0.176,0.46,-0.18,-9.76,1.15,2.47,145.2,-44.64629999999997
2023-03-23 21-47-58-865579,0,0,1526,1474,0.088,0.176,0.44,-0.2,-9.77,1.13,2.46,145.19,-44.63629999999998
2023-03-23 21-47-58-881113,0,0,1526,1474,0.088,0.176,0.44,-0.19,-9.77,1.11,2.44,145.19,-44.63629999999998
2023-03-23 21-47-58-898105,0,0,1526,1474,0.088,0.176,0.45,-0.2,-9.77,1.09,2.43,145.18,-44.626299999999986
2023-03-23 21-47-58-912917,0,0,1526,1474,0.088,0.176,0.42,-0.16,-9.81,1.07,2.42,145.17,-44.61629999999997
2023-03-23 21-47-58-930111,0,0,1526,1474,0.088,0.176,0.43,-0.17,-9.76,1.05,2.4,145.17,-44.61629999999997
2023-03-23 21-47-58-946478,0,0,1526,1474,0.088,0.176,0.43,-0.14,-9.81,1.04,2.38,145.17,-44.61629999999997
2023-03-23 21-47-58-961262,0,0,1526,1474,0.088,0.176,0.43,-0.17,-9.76,1.02,2.36,145.16,-44.606299999999976
2023-03-23 21-47-58-976885,0,0,1526,1474,0.088,0.176,0.43,-0.16,-9.78,1.0,2.35,145.17,-44.61629999999997
2023-03-23 21-47-58-992821,0,0,1526,1474,0.088,0.176,0.43,-0.16,-9.76,0.98,2.33,145.16,-44.606299999999976
2023-03-23 21-47-59-010182,0,0,1526,1474,0.088,0.176,0.43,-0.16,-9.77,0.96,2.32,145.16,-44.606299999999976
2023-03-23 21-47-59-025262,0,0,1526,1474,0.088,0.176,0.43,-0.15,-9.78,0.94,2.3,145.16,-44.606299999999976
2023-03-23 21-47-59-041944,0,0,1526,1474,0.088,0.176,0.44,-0.14,-9.77,0.92,2.28,145.16,-44.606299999999976
2023-03-23 21-47-59-056974,0,0,1526,1474,0.088,0.176,0.43,-0.15,-9.77,0.9,2.26,145.16,-44.606299999999976
2023-03-23 21-47-59-073575,0,0,1526,1474,0.088,0.176,0.42,-0.15,-9.76,0.88,2.25,145.16,-44.606299999999976
2023-03-23 21-47-59-089799,0,0,1526,1474,0.088,0.176,0.42,-0.15,-9.75,0.86,2.23,145.15,-44.596299999999985
2023-03-23 21-47-59-105057,0,0,1526,1474,0.088,0.176,0.44,-0.15,-9.77,0.84,2.21,145.15,-44.596299999999985
2023-03-23 21-47-59-120845,0,0,1526,1474,0.088,0.176,0.42,-0.14,-9.78,0.82,2.2,145.15,-44.596299999999985
2023-03-23 21-47-59-137067,0,0,1526,1474,0.088,0.176,0.41,-0.14,-9.78,0.8,2.18,145.14,-44.586299999999966
2023-03-23 21-47-59-153795,0,0,1526,1474,0.088,0.176,0.41,-0.13,-9.77,0.78,2.17,145.14,-44.586299999999966
2023-03-23 21-47-59-169817,0,0,1526,1474,0.088,0.176,0.41,-0.14,-9.77,0.76,2.15,145.13,-44.576299999999975
2023-03-23 21-47-59-186004,0,0,1526,1474,0.088,0.176,0.42,-0.13,-9.78,0.73,2.14,145.13,-44.576299999999975
2023-03-23 21-47-59-201526,0,0,1526,1474,0.088,0.176,0.42,-0.11,-9.77,0.71,2.13,145.13,-44.576299999999975
2023-03-23 21-47-59-216967,0,0,1526,1474,0.088,0.176,0.41,-0.12,-9.76,0.69,2.11,145.12,-44.566299999999984
2023-03-23 21-47-59-232988,0,0,1526,1474,0.088,0.176,0.41,-0.1,-9.76,0.67,2.1,145.12,-44.566299999999984
2023-03-23 21-47-59-250736,0,0,1526,1474,0.088,0.176,0.41,-0.12,-9.78,0.65,2.09,145.11,-44.55629999999999
2023-03-23 21-47-59-264787,0,0,1526,1474,0.088,0.176,0.4,-0.11,-9.77,0.62,2.07,145.11,-44.55629999999999
2023-03-23 21-47-59-280839,0,0,1526,1474,0.088,0.176,0.41,-0.09,-9.76,0.6,2.06,145.1,-44.546299999999974
2023-03-23 21-47-59-298180,0,0,1526,1474,0.088,0.176,0.4,-0.1,-9.78,0.58,2.05,145.09,-44.53629999999998
2023-03-23 21-47-59-312789,0,0,1526,1474,0.088,0.176,0.38,-0.1,-9.78,0.56,2.04,145.09,-44.53629999999998
2023-03-23 21-47-59-328802,0,0,1526,1474,0.088,0.176,0.38,-0.1,-9.78,0.53,2.03,145.08,-44.52629999999999
2023-03-23 21-47-59-345155,0,0,1526,1474,0.088,0.176,0.39,-0.09,-9.77,0.51,2.02,145.08,-44.52629999999999
2023-03-23 21-47-59-362495,0,0,1526,1474,0.0,0.176,0.39,-0.07,-9.76,0.49,2.01,145.07,-44.51629999999997
2023-03-23 21-47-59-377107,0,0,1526,1474,0.088,0.176,0.37,-0.08,-9.78,0.47,1.99,145.06,-44.50629999999998
2023-03-23 21-47-59-392754,0,0,1526,1474,0.088,0.176,0.37,-0.07,-9.76,0.45,1.98,145.05,-44.49629999999999
2023-03-23 21-47-59-409027,0,0,1526,1474,0.088,0.176,0.37,-0.09,-9.78,0.43,1.97,145.04,-44.48629999999997
2023-03-23 21-47-59-425787,0,0,1526,1474,0.088,0.176,0.36,-0.08,-9.77,0.41,1.96,145.04,-44.48629999999997
2023-03-23 21-47-59-443816,0,0,1526,1474,0.088,0.176,0.38,-0.08,-9.78,0.39,1.95,145.03,-44.47629999999998
2023-03-23 21-47-59-456900,0,0,1526,1474,0.088,0.176,0.37,-0.06,-9.77,0.36,1.94,145.02,-44.46629999999999
2023-03-23 21-47-59-472970,0,0,1526,1474,0.0,0.176,0.38,-0.07,-9.77,0.34,1.93,145.02,-44.46629999999999
2023-03-23 21-47-59-490586,0,0,1526,1474,0.088,0.176,0.37,-0.05,-9.79,0.32,1.92,145.01,-44.45629999999997
2023-03-23 21-47-59-509598,0,0,1526,1474,0.0,0.176,0.36,-0.08,-9.77,0.3,1.91,145.01,-44.45629999999997
2023-03-23 21-47-59-550847,0,0,1526,1474,0.088,0.176,0.37,-0.05,-9.77,0.29,1.9,145.0,-44.44629999999998
2023-03-23 21-47-59-572219,0,0,1526,1474,0.088,0.176,0.36,-0.04,-9.77,0.27,1.89,145.0,-44.44629999999998
2023-03-23 21-47-59-604705,0,0,1526,1474,0.088,0.176,0.37,-0.05,-9.78,0.25,1.88,145.0,-44.44629999999998
2023-03-23 21-47-59-638156,0,0,1526,1474,0.088,0.176,0.37,-0.05,-9.78,0.23,1.87,145.0,-44.44629999999998
2023-03-23 21-47-59-668606,0,0,1526,1474,0.088,0.176,0.37,-0.05,-9.79,0.22,1.86,145.0,-44.44629999999998
2023-03-23 21-47-59-701559,0,0,1526,1474,0.088,0.176,0.36,-0.04,-9.79,0.2,1.85,145.0,-44.44629999999998
2023-03-23 21-47-59-732554,0,0,1526,1474,0.088,0.264,0.36,-0.04,-9.78,0.19,1.84,145.0,-44.44629999999998
2023-03-23 21-47-59-764897,0,0,1526,1474,0.088,0.176,0.36,-0.04,-9.79,0.18,1.83,145.01,-44.45629999999997
2023-03-23 21-47-59-796796,0,0,1526,1474,0.088,0.176,0.38,-0.03,-9.77,0.16,1.81,145.01,-44.45629999999997
2023-03-23 21-47-59-830427,0,0,1526,1474,0.088,0.176,0.37,-0.04,-9.78,0.15,1.8,145.02,-44.46629999999999
2023-03-23 21-47-59-860860,0,0,1526,1474,0.088,0.176,0.36,-0.03,-9.8,0.14,1.79,145.03,-44.47629999999998
2023-03-23 21-47-59-892839,0,0,1526,1474,0.088,0.176,0.37,-0.03,-9.79,0.13,1.78,145.04,-44.48629999999997
2023-03-23 21-47-59-925127,0,0,1526,1474,0.088,0.176,0.36,-0.02,-9.77,0.12,1.77,145.05,-44.49629999999999
2023-03-23 21-47-59-956831,0,0,1526,1474,0.088,0.176,0.36,-0.03,-9.78,0.11,1.75,145.07,-44.51629999999997
2023-03-23 21-47-59-989947,0,0,1526,1474,0.088,0.176,0.36,-0.02,-9.8,0.1,1.74,145.08,-44.52629999999999
2023-03-23 21-48-00-021841,0,0,1526,1474,0.088,0.176,0.36,-0.02,-9.8,0.1,1.73,145.1,-44.546299999999974
2023-03-23 21-48-00-052867,0,0,1526,1474,0.088,0.176,0.39,-0.0,-9.79,0.09,1.71,145.11,-44.55629999999999
2023-03-23 21-48-00-084665,0,0,1526,1474,0.088,0.176,0.39,0.0,-9.78,0.08,1.7,145.13,-44.576299999999975
2023-03-23 21-48-00-116371,0,0,1526,1474,0.088,0.176,0.37,0.01,-9.79,0.08,1.69,145.14,-44.586299999999966
2023-03-23 21-48-00-147932,0,0,1526,1474,0.0,0.176,0.37,-0.01,-9.79,0.07,1.67,145.15,-44.596299999999985
2023-03-23 21-48-00-181549,0,0,1526,1474,0.088,0.176,0.37,-0.0,-9.78,0.06,1.66,145.17,-44.61629999999997
2023-03-23 21-48-00-218638,0,0,1526,1474,0.088,0.176,0.37,-0.0,-9.78,0.06,1.65,145.18,-44.626299999999986
2023-03-23 21-48-00-240822,0,0,1526,1474,0.088,0.176,0.36,-0.01,-9.8,0.05,1.63,145.19,-44.63629999999998
2023-03-23 21-48-00-257110,0,0,1526,1474,0.088,0.176,0.35,-0.01,-9.79,0.04,1.62,145.2,-44.64629999999997
2023-03-23 21-48-00-273181,0,0,1526,1474,0.088,0.176,0.36,0.0,-9.77,0.04,1.6,145.2,-44.64629999999997
2023-03-23 21-48-00-289099,0,0,1526,1474,0.088,0.176,0.34,0.02,-9.77,0.03,1.59,145.21,-44.65629999999999
2023-03-23 21-48-00-304655,0,0,1526,1474,0.088,0.176,0.33,0.01,-9.77,0.02,1.58,145.22,-44.66629999999998
2023-03-23 21-48-00-320729,0,0,1526,1474,0.088,0.176,0.34,0.0,-9.78,0.02,1.56,145.24,-44.68629999999999
2023-03-23 21-48-00-338019,0,0,1526,1474,0.088,0.176,0.34,0.01,-9.77,0.01,1.55,145.24,-44.68629999999999
2023-03-23 21-48-00-354322,0,0,1526,1474,0.088,0.176,0.34,0.01,-9.73,0.01,1.53,145.25,-44.69629999999998
2023-03-23 21-48-00-368954,0,0,1526,1474,0.088,0.176,0.28,0.04,-9.78,-0.0,1.52,145.27,-44.71629999999999
2023-03-23 21-48-00-385918,0,0,1526,1474,0.0,0.176,0.26,0.04,-9.74,-0.01,1.5,145.27,-44.71629999999999
2023-03-23 21-48-00-400807,0,0,1526,1474,0.088,0.176,0.23,0.04,-9.75,-0.01,1.49,145.27,-44.71629999999999
2023-03-23 21-48-00-417205,0,0,1526,1474,0.088,0.176,0.22,0.04,-9.73,-0.02,1.47,145.26,-44.70629999999997
2023-03-23 21-48-00-436299,0,0,1526,1474,0.088,0.176,0.2,0.05,-9.74,-0.03,1.45,145.25,-44.69629999999998
2023-03-23 21-48-00-464610,0,0,1526,1474,0.088,0.176,0.18,0.06,-9.73,-0.05,1.44,145.23,-44.67629999999997
2023-03-23 21-48-00-481738,0,0,1526,1474,0.088,0.176,0.18,0.06,-9.71,-0.06,1.42,145.2,-44.64629999999997
2023-03-23 21-48-00-497716,0,0,1526,1474,0.088,0.176,0.19,0.06,-9.75,-0.08,1.4,145.17,-44.61629999999997
2023-03-23 21-48-00-513433,0,0,1526,1474,0.088,0.176,0.2,0.06,-9.72,-0.11,1.39,145.13,-44.576299999999975
2023-03-23 21-48-00-529393,0,0,1526,1474,0.088,0.176,0.19,0.05,-9.73,-0.13,1.38,145.08,-44.52629999999999
2023-03-23 21-48-00-553755,0,0,1526,1474,0.088,0.176,0.19,0.03,-9.74,-0.16,1.36,145.03,-44.47629999999998
2023-03-23 21-48-00-580175,0,0,1526,1474,0.088,0.176,0.2,0.05,-9.75,-0.19,1.35,144.98,-44.42629999999997
2023-03-23 21-48-00-608562,0,0,1526,1474,0.088,0.176,0.2,0.08,-9.73,-0.22,1.35,144.92,-44.36629999999997
2023-03-23 21-48-00-629293,0,0,1526,1474,0.088,0.176,0.2,0.07,-9.75,-0.25,1.33,144.87,-44.316299999999984
2023-03-23 21-48-00-657096,0,0,1526,1474,0.088,0.176,0.2,0.07,-9.74,-0.29,1.32,144.81,-44.25629999999998
2023-03-23 21-48-00-672589,0,0,1526,1474,0.0,0.176,0.21,0.08,-9.76,-0.32,1.31,144.74,-44.18629999999999
2023-03-23 21-48-00-690071,0,0,1526,1474,0.088,0.176,0.21,0.08,-9.75,-0.36,1.31,144.68,-44.126299999999986
2023-03-23 21-48-00-705640,0,0,1526,1474,0.088,0.176,0.19,0.08,-9.75,-0.39,1.3,144.61,-44.05629999999999
2023-03-23 21-48-00-722208,0,0,1526,1474,0.088,0.176,0.19,0.09,-9.77,-0.43,1.29,144.54,-43.98629999999997
2023-03-23 21-48-00-736698,0,0,1526,1474,0.088,0.176,0.2,0.08,-9.76,-0.47,1.29,144.47,-43.91629999999998
2023-03-23 21-48-00-752554,0,0,1526,1474,0.088,0.176,0.19,0.1,-9.76,-0.51,1.28,144.4,-43.846299999999985
2023-03-23 21-48-00-769794,0,0,1526,1474,0.088,0.176,0.18,0.1,-9.75,-0.55,1.28,144.33,-43.77629999999999
2023-03-23 21-48-00-785027,0,0,1526,1474,0.088,0.176,0.19,0.12,-9.73,-0.59,1.28,144.25,-43.69629999999998
2023-03-23 21-48-00-800723,0,0,1526,1474,0.088,0.176,0.19,0.12,-9.76,-0.64,1.28,144.18,-43.626299999999986
2023-03-23 21-48-00-817139,0,0,1526,1474,0.088,0.176,0.19,0.13,-9.76,-0.68,1.27,144.1,-43.546299999999974
2023-03-23 21-48-00-835162,0,0,1526,1474,0.088,0.176,0.2,0.13,-9.76,-0.73,1.27,144.03,-43.47629999999998
2023-03-23 21-48-00-849384,0,0,1526,1474,0.088,0.176,0.2,0.15,-9.77,-0.77,1.27,143.95,-43.39629999999997
2023-03-23 21-48-00-864683,0,0,1526,1474,0.0,0.176,0.2,0.13,-9.76,-0.81,1.28,143.88,-43.326299999999975
2023-03-23 21-48-00-880944,0,0,1526,1474,0.0,0.176,0.19,0.15,-9.78,-0.86,1.28,143.8,-43.24629999999999
2023-03-23 21-48-00-899164,0,0,1526,1474,0.088,0.176,0.19,0.14,-9.76,-0.9,1.29,143.72,-43.16629999999998
2023-03-23 21-48-00-913397,0,0,1526,1474,0.088,0.176,0.19,0.18,-9.75,-0.95,1.29,143.64,-43.086299999999966
2023-03-23 21-48-00-928880,0,0,1526,1474,0.088,0.176,0.2,0.19,-9.75,-1.0,1.3,143.56,-43.00629999999998
2023-03-23 21-48-00-945636,0,0,1526,1474,0.088,0.176,0.2,0.17,-9.77,-1.04,1.3,143.49,-42.93629999999999
2023-03-23 21-48-00-960538,0,0,1526,1474,0.088,0.176,0.23,0.2,-9.75,-1.09,1.31,143.41,-42.856299999999976
2023-03-23 21-48-00-978148,0,0,1526,1474,0.088,0.176,0.23,0.22,-9.76,-1.14,1.31,143.33,-42.77629999999999
2023-03-23 21-48-00-992962,0,0,1526,1474,0.088,0.176,0.23,0.23,-9.77,-1.19,1.32,143.25,-42.69629999999998
2023-03-23 21-48-01-009882,0,0,1526,1474,0.088,0.176,0.24,0.23,-9.76,-1.24,1.33,143.17,-42.61629999999997
2023-03-23 21-48-01-024600,0,0,1526,1474,0.088,0.176,0.23,0.25,-9.78,-1.29,1.34,143.09,-42.53629999999998
2023-03-23 21-48-01-041354,0,0,1526,1474,0.088,0.176,0.22,0.25,-9.76,-1.34,1.35,143.01,-42.45629999999997
2023-03-23 21-48-01-060681,0,0,1526,1474,0.088,0.176,0.23,0.25,-9.77,-1.39,1.36,142.92,-42.36629999999997
2023-03-23 21-48-01-088810,0,0,1526,1474,0.088,0.176,0.23,0.25,-9.78,-1.44,1.37,142.84,-42.28629999999998
2023-03-23 21-48-01-105423,0,0,1526,1474,0.088,0.176,0.26,0.26,-9.77,-1.49,1.38,142.75,-42.19629999999998
2023-03-23 21-48-01-121288,0,0,1526,1474,0.088,0.176,0.29,0.27,-9.79,-1.55,1.4,142.67,-42.11629999999997
2023-03-23 21-48-01-136773,0,0,1526,1474,0.088,0.176,0.3,0.26,-9.8,-1.6,1.41,142.59,-42.03629999999998
2023-03-23 21-48-01-153121,0,0,1526,1474,0.088,0.176,0.3,0.27,-9.79,-1.65,1.42,142.51,-41.95629999999997
2023-03-23 21-48-01-168767,0,0,1526,1474,0.088,0.176,0.33,0.27,-9.8,-1.7,1.44,142.43,-41.876299999999986
2023-03-23 21-48-01-187831,0,0,1526,1474,0.088,0.176,0.32,0.29,-9.8,-1.76,1.46,142.36,-41.80629999999999
2023-03-23 21-48-01-221457,0,0,1526,1474,0.088,0.176,0.32,0.3,-9.79,-1.81,1.47,142.29,-41.73629999999997
2023-03-23 21-48-01-252362,0,0,1526,1474,0.088,0.176,0.33,0.3,-9.79,-1.85,1.49,142.23,-41.67629999999997
2023-03-23 21-48-01-285894,0,0,1526,1474,0.088,0.176,0.32,0.31,-9.79,-1.9,1.51,142.16,-41.606299999999976
2023-03-23 21-48-01-317916,0,0,1526,1474,0.088,0.176,0.32,0.34,-9.79,-1.94,1.53,142.1,-41.546299999999974
2023-03-23 21-48-01-349920,0,0,1526,1474,0.088,0.176,0.34,0.34,-9.8,-1.98,1.55,142.04,-41.48629999999997
2023-03-23 21-48-01-381100,0,0,1526,1474,0.088,0.176,0.35,0.34,-9.79,-2.03,1.57,141.99,-41.43629999999999
2023-03-23 21-48-01-413304,0,0,1526,1474,0.088,0.176,0.36,0.35,-9.8,-2.07,1.58,141.94,-41.38629999999998
2023-03-23 21-48-01-444556,0,0,1526,1474,0.0,0.176,0.36,0.36,-9.79,-2.1,1.6,141.9,-41.346299999999985
2023-03-23 21-48-01-472920,0,0,1526,1474,0.088,0.176,0.35,0.36,-9.79,-2.14,1.63,141.86,-41.30629999999999
2023-03-23 21-48-01-488552,0,0,1526,1474,0.088,0.176,0.35,0.36,-9.79,-2.17,1.65,141.82,-41.26629999999997
2023-03-23 21-48-01-504745,0,0,1526,1474,0.088,0.176,0.36,0.36,-9.77,-2.2,1.66,141.78,-41.22629999999998
2023-03-23 21-48-01-520630,0,0,1526,1474,0.088,0.176,0.35,0.38,-9.78,-2.24,1.69,141.74,-41.18629999999999
2023-03-23 21-48-01-536793,0,0,1526,1474,0.088,0.176,0.34,0.39,-9.78,-2.27,1.71,141.72,-41.16629999999998
2023-03-23 21-48-01-553862,0,0,1526,1474,0.088,0.176,0.36,0.39,-9.77,-2.3,1.73,141.69,-41.13629999999998
2023-03-23 21-48-01-569213,0,0,1526,1474,0.088,0.176,0.36,0.39,-9.78,-2.33,1.76,141.66,-41.106299999999976
2023-03-23 21-48-01-584348,0,0,1526,1474,0.088,0.176,0.36,0.4,-9.77,-2.36,1.78,141.63,-41.076299999999975
2023-03-23 21-48-01-600770,0,0,1526,1474,0.088,0.176,0.38,0.39,-9.75,-2.38,1.8,141.61,-41.05629999999999
2023-03-23 21-48-01-616727,0,0,1526,1474,0.088,0.176,0.37,0.43,-9.8,-2.4,1.82,141.59,-41.03629999999998
2023-03-23 21-48-01-632896,0,0,1526,1474,0.088,0.176,0.37,0.41,-9.75,-2.43,1.85,141.58,-41.02629999999999
2023-03-23 21-48-01-649221,0,0,1526,1474,0.088,0.176,0.37,0.43,-9.79,-2.45,1.87,141.56,-41.00629999999998
2023-03-23 21-48-01-666310,0,0,1526,1474,0.088,0.176,0.38,0.42,-9.75,-2.47,1.89,141.55,-40.99629999999999
2023-03-23 21-48-01-681518,0,0,1526,1474,0.088,0.176,0.4,0.43,-9.78,-2.48,1.91,141.53,-40.97629999999998
2023-03-23 21-48-01-696951,0,0,1526,1474,0.088,0.176,0.4,0.43,-9.76,-2.5,1.93,141.52,-40.96629999999999
2023-03-23 21-48-01-713092,0,0,1526,1474,0.088,0.176,0.4,0.44,-9.76,-2.52,1.95,141.51,-40.95629999999997
2023-03-23 21-48-01-733237,0,0,1526,1474,0.088,0.176,0.41,0.44,-9.78,-2.53,1.97,141.51,-40.95629999999997
2023-03-23 21-48-01-762358,0,0,1526,1474,0.088,0.176,0.41,0.44,-9.77,-2.54,1.99,141.5,-40.94629999999998
2023-03-23 21-48-01-776836,0,0,1526,1474,0.088,0.176,0.41,0.44,-9.76,-2.56,2.01,141.5,-40.94629999999998
2023-03-23 21-48-01-809327,0,0,1526,1474,0.088,0.176,0.4,0.46,-9.74,-2.57,2.03,141.5,-40.94629999999998
2023-03-23 21-48-01-826328,0,0,1526,1474,0.088,0.176,0.38,0.47,-9.74,-2.58,2.05,141.5,-40.94629999999998
2023-03-23 21-48-01-841558,0,0,1526,1474,0.088,0.176,0.39,0.46,-9.76,-2.59,2.06,141.5,-40.94629999999998
2023-03-23 21-48-01-856726,0,0,1526,1474,0.088,0.176,0.39,0.46,-9.75,-2.6,2.08,141.49,-40.93629999999999
2023-03-23 21-48-01-874570,0,0,1526,1474,0.088,0.176,0.4,0.47,-9.75,-2.61,2.09,141.49,-40.93629999999999
2023-03-23 21-48-01-889918,0,0,1526,1474,0.088,0.176,0.41,0.47,-9.76,-2.62,2.11,141.48,-40.92629999999997
2023-03-23 21-48-01-920544,0,0,1526,1474,0.088,0.176,0.4,0.47,-9.76,-2.63,2.12,141.48,-40.92629999999997
2023-03-23 21-48-01-938196,0,0,1526,1474,0.088,0.176,0.41,0.46,-9.77,-2.63,2.13,141.48,-40.92629999999997
2023-03-23 21-48-01-954241,0,0,1526,1474,0.088,0.176,0.4,0.47,-9.75,-2.64,2.14,141.47,-40.91629999999998
2023-03-23 21-48-01-969212,0,0,1526,1474,0.088,0.176,0.41,0.46,-9.75,-2.66,2.15,141.46,-40.90629999999999
2023-03-23 21-48-01-985067,0,0,1526,1474,0.088,0.176,0.4,0.47,-9.74,-2.66,2.16,141.46,-40.90629999999999
2023-03-23 21-48-02-000687,0,0,1526,1474,0.088,0.176,0.39,0.48,-9.76,-2.67,2.17,141.45,-40.89629999999997
2023-03-23 21-48-02-017393,0,0,1526,1474,0.088,0.176,0.4,0.47,-9.75,-2.68,2.18,141.44,-40.88629999999998
2023-03-23 21-48-02-033716,0,0,1526,1474,0.088,0.176,0.4,0.49,-9.74,-2.7,2.18,141.43,-40.876299999999986
2023-03-23 21-48-02-049100,0,0,1526,1474,0.088,0.176,0.4,0.49,-9.75,-2.71,2.19,141.42,-40.86629999999997
2023-03-23 21-48-02-066366,0,0,1526,1474,0.088,0.176,0.41,0.49,-9.75,-2.72,2.19,141.41,-40.856299999999976
2023-03-23 21-48-02-080936,0,0,1526,1474,0.088,0.176,0.42,0.5,-9.76,-2.74,2.2,141.4,-40.846299999999985
2023-03-23 21-48-02-097491,0,0,1526,1474,0.088,0.176,0.42,0.5,-9.76,-2.75,2.2,141.39,-40.836299999999966
2023-03-23 21-48-02-116586,0,0,1526,1474,0.088,0.176,0.43,0.5,-9.75,-2.76,2.2,141.38,-40.826299999999975
2023-03-23 21-48-02-144643,0,0,1526,1474,0.088,0.176,0.43,0.5,-9.76,-2.78,2.2,141.36,-40.80629999999999
2023-03-23 21-48-02-160551,0,0,1526,1474,0.088,0.176,0.43,0.51,-9.76,-2.8,2.2,141.35,-40.796299999999974
2023-03-23 21-48-02-178241,0,0,1526,1474,0.088,0.176,0.44,0.5,-9.76,-2.81,2.2,141.34,-40.78629999999998
2023-03-23 21-48-02-192720,0,0,1526,1474,0.088,0.176,0.42,0.5,-9.76,-2.83,2.19,141.32,-40.76629999999997
2023-03-23 21-48-02-209272,0,0,1526,1474,0.088,0.176,0.42,0.51,-9.76,-2.84,2.19,141.31,-40.75629999999998
2023-03-23 21-48-02-225800,0,0,1526,1474,0.088,0.176,0.43,0.51,-9.77,-2.86,2.18,141.29,-40.73629999999997
2023-03-23 21-48-02-256626,0,0,1526,1474,0.088,0.176,0.42,0.52,-9.76,-2.88,2.18,141.26,-40.70629999999997
2023-03-23 21-48-02-276724,0,0,1526,1474,0.088,0.176,0.42,0.51,-9.77,-2.89,2.17,141.24,-40.68629999999999
2023-03-23 21-48-02-304584,0,0,1526,1474,0.088,0.176,0.42,0.5,-9.78,-2.91,2.16,141.22,-40.66629999999998
2023-03-23 21-48-02-321705,0,0,1526,1474,0.088,0.264,0.42,0.52,-9.78,-2.92,2.16,141.2,-40.64629999999997
2023-03-23 21-48-02-358168,0,0,1526,1474,0.088,0.176,0.39,0.53,-9.76,-2.93,2.15,141.18,-40.626299999999986
2023-03-23 21-48-02-388014,0,0,1526,1474,0.088,0.176,0.39,0.52,-9.76,-2.95,2.13,141.15,-40.596299999999985
2023-03-23 21-48-02-417406,0,0,1526,1474,0.088,0.176,0.4,0.53,-9.76,-2.97,2.12,141.13,-40.576299999999975
2023-03-23 21-48-02-433238,0,0,1526,1474,0.088,0.176,0.4,0.53,-9.77,-2.99,2.11,141.1,-40.546299999999974
2023-03-23 21-48-02-450204,0,0,1526,1474,0.088,0.176,0.4,0.53,-9.77,-3.0,2.09,141.08,-40.52629999999999
2023-03-23 21-48-02-466306,0,0,1526,1474,0.088,0.176,0.38,0.53,-9.78,-3.02,2.07,141.05,-40.49629999999999
2023-03-23 21-48-02-481124,0,0,1526,1474,0.088,0.176,0.38,0.55,-9.76,-3.03,2.06,141.02,-40.46629999999999
2023-03-23 21-48-02-498085,0,0,1526,1474,0.088,0.176,0.37,0.55,-9.76,-3.05,2.04,141.0,-40.44629999999998
2023-03-23 21-48-02-512549,0,0,1526,1474,0.088,0.176,0.37,0.55,-9.77,-3.06,2.02,140.97,-40.41629999999998
2023-03-23 21-48-02-529699,0,0,1526,1474,0.088,0.176,0.38,0.55,-9.77,-3.08,2.0,140.94,-40.38629999999998
2023-03-23 21-48-02-545385,0,0,1526,1474,0.088,0.176,0.37,0.56,-9.76,-3.1,1.98,140.91,-40.356299999999976
2023-03-23 21-48-02-561995,0,0,1526,1474,0.088,0.176,0.37,0.57,-9.74,-3.12,1.96,140.88,-40.326299999999975
2023-03-23 21-48-02-577089,0,0,1526,1474,0.088,0.176,0.34,0.58,-9.75,-3.13,1.93,140.85,-40.296299999999974
2023-03-23 21-48-02-593974,0,0,1526,1474,0.088,0.176,0.33,0.57,-9.75,-3.14,1.91,140.82,-40.26629999999997
2023-03-23 21-48-02-609886,0,0,1526,1474,0.088,0.176,0.33,0.54,-9.77,-3.16,1.88,140.79,-40.23629999999997
2023-03-23 21-48-02-626106,0,0,1526,1474,0.088,0.176,0.32,0.55,-9.75,-3.17,1.86,140.77,-40.21629999999999
2023-03-23 21-48-02-641098,0,0,1526,1474,0.088,0.176,0.31,0.56,-9.75,-3.19,1.83,140.74,-40.18629999999999
2023-03-23 21-48-02-657439,0,0,1526,1474,0.088,0.176,0.31,0.56,-9.75,-3.2,1.8,140.72,-40.16629999999998
2023-03-23 21-48-02-676741,0,0,1526,1474,0.088,0.176,0.3,0.56,-9.75,-3.21,1.78,140.7,-40.14629999999997
2023-03-23 21-48-02-705302,0,0,1526,1474,0.088,0.176,0.29,0.56,-9.76,-3.23,1.75,140.68,-40.126299999999986
2023-03-23 21-48-02-720919,0,0,1526,1474,0.088,0.176,0.29,0.54,-9.75,-3.24,1.71,140.66,-40.106299999999976
2023-03-23 21-48-02-741795,0,0,1526,1474,0.088,0.176,0.28,0.57,-9.76,-3.25,1.68,140.64,-40.086299999999966
2023-03-23 21-48-02-770007,0,0,1526,1474,0.088,0.176,0.27,0.55,-9.75,-3.26,1.65,140.63,-40.076299999999975
2023-03-23 21-48-02-784679,0,0,1526,1474,0.088,0.176,0.26,0.57,-9.75,-3.27,1.62,140.61,-40.05629999999999
2023-03-23 21-48-02-802264,0,0,1526,1474,0.088,0.176,0.26,0.57,-9.73,-3.28,1.59,140.6,-40.046299999999974
2023-03-23 21-48-02-817582,0,0,1526,1474,0.088,0.176,0.27,0.58,-9.75,-3.29,1.56,140.59,-40.03629999999998
2023-03-23 21-48-02-832889,0,0,1526,1474,0.088,0.176,0.28,0.58,-9.75,-3.3,1.53,140.59,-40.03629999999998
2023-03-23 21-48-02-848812,0,0,1526,1474,0.088,0.176,0.26,0.57,-9.76,-3.31,1.5,140.58,-40.02629999999999
2023-03-23 21-48-02-865011,0,0,1526,1474,0.088,0.176,0.25,0.57,-9.77,-3.31,1.46,140.58,-40.02629999999999
2023-03-23 21-48-02-880768,0,0,1526,1474,0.088,0.176,0.25,0.58,-9.75,-3.31,1.43,140.57,-40.01629999999997
2023-03-23 21-48-02-896769,0,0,1526,1474,0.088,0.176,0.24,0.57,-9.75,-3.32,1.4,140.57,-40.01629999999997
2023-03-23 21-48-02-929869,0,0,1527,1473,0.088,0.176,0.26,0.57,-9.76,-3.32,1.37,140.56,-40.00629999999998
2023-03-23 21-48-02-961565,0,0,1526,1474,0.088,0.176,0.25,0.57,-9.76,-3.33,1.34,140.56,-40.00629999999998
2023-03-23 21-48-02-976710,0,0,1526,1474,0.088,0.176,0.24,0.57,-9.76,-3.33,1.32,140.56,-40.00629999999998
2023-03-23 21-48-02-993777,0,0,1526,1474,0.088,0.176,0.24,0.58,-9.74,-3.34,1.3,140.56,-40.00629999999998
2023-03-23 21-48-03-009657,0,0,1526,1474,0.088,0.176,0.24,0.58,-9.75,-3.34,1.27,140.57,-40.01629999999997
2023-03-23 21-48-03-025209,0,0,1527,1473,0.088,0.176,0.23,0.58,-9.75,-3.35,1.24,140.56,-40.00629999999998
2023-03-23 21-48-03-041953,0,0,1526,1474,0.088,0.176,0.23,0.58,-9.75,-3.35,1.22,140.56,-40.00629999999998
2023-03-23 21-48-03-057298,0,0,1526,1474,0.088,0.176,0.22,0.57,-9.74,-3.36,1.19,140.56,-40.00629999999998
2023-03-23 21-48-03-075191,0,0,1526,1474,0.088,0.176,0.23,0.58,-9.76,-3.37,1.17,140.57,-40.01629999999997
2023-03-23 21-48-03-104704,0,0,1526,1474,0.088,0.176,0.22,0.58,-9.76,-3.37,1.15,140.57,-40.01629999999997
2023-03-23 21-48-03-121947,0,0,1526,1474,0.088,0.176,0.21,0.59,-9.75,-3.38,1.13,140.57,-40.01629999999997
2023-03-23 21-48-03-138246,0,0,1526,1474,0.088,0.176,0.21,0.59,-9.75,-3.39,1.11,140.57,-40.01629999999997
2023-03-23 21-48-03-153737,0,0,1526,1474,0.088,0.176,0.21,0.58,-9.75,-3.4,1.1,140.57,-40.01629999999997
2023-03-23 21-48-03-169252,0,0,1526,1474,0.088,0.176,0.22,0.59,-9.74,-3.41,1.08,140.57,-40.01629999999997
2023-03-23 21-48-03-184754,0,0,1526,1474,0.088,0.176,0.24,0.58,-9.75,-3.42,1.06,140.58,-40.02629999999999
2023-03-23 21-48-03-202898,0,0,1526,1474,0.088,0.176,0.22,0.57,-9.76,-3.43,1.05,140.58,-40.02629999999999
2023-03-23 21-48-03-233072,0,0,1526,1474,0.088,0.176,0.22,0.58,-9.77,-3.44,1.03,140.59,-40.03629999999998
2023-03-23 21-48-03-248752,0,0,1526,1474,0.088,0.176,0.21,0.58,-9.76,-3.45,1.02,140.59,-40.03629999999998
2023-03-23 21-48-03-266302,0,0,1526,1474,0.088,0.176,0.21,0.59,-9.77,-3.46,1.01,140.6,-40.046299999999974
2023-03-23 21-48-03-297198,0,0,1526,1474,0.088,0.176,0.22,0.59,-9.76,-3.47,1.0,140.61,-40.05629999999999
2023-03-23 21-48-03-312267,0,0,1526,1474,0.088,0.176,0.22,0.58,-9.78,-3.48,0.98,140.62,-40.066299999999984
2023-03-23 21-48-03-336423,0,0,1526,1474,0.088,0.176,0.22,0.57,-9.77,-3.48,0.97,140.64,-40.086299999999966
2023-03-23 21-48-03-360807,0,0,1526,1474,0.088,0.176,0.21,0.58,-9.75,-3.49,0.95,140.65,-40.096299999999985
2023-03-23 21-48-03-376804,0,0,1526,1474,0.088,0.176,0.2,0.58,-9.76,-3.5,0.94,140.67,-40.11629999999997
2023-03-23 21-48-03-392917,0,0,1526,1474,0.088,0.176,0.2,0.59,-9.77,-3.5,0.92,140.69,-40.13629999999998
2023-03-23 21-48-03-408696,0,0,1526,1474,0.088,0.176,0.2,0.57,-9.76,-3.5,0.91,140.72,-40.16629999999998
2023-03-23 21-48-03-440422,0,0,1526,1474,0.088,0.176,0.2,0.6,-9.79,-3.5,0.9,140.75,-40.19629999999998
2023-03-23 21-48-03-456786,0,0,1526,1474,0.088,0.176,0.19,0.56,-9.77,-3.5,0.88,140.78,-40.22629999999998
2023-03-23 21-48-03-473359,0,0,1526,1474,0.088,0.176,0.17,0.57,-9.78,-3.5,0.87,140.81,-40.25629999999998
2023-03-23 21-48-03-504417,0,0,1526,1474,0.088,0.176,0.18,0.56,-9.76,-3.5,0.85,140.85,-40.296299999999974
2023-03-23 21-48-03-521478,0,0,1526,1474,0.088,0.176,0.18,0.58,-9.78,-3.49,0.84,140.88,-40.326299999999975
2023-03-23 21-48-03-538098,0,0,1526,1474,0.088,0.176,0.19,0.58,-9.75,-3.49,0.82,140.92,-40.36629999999997
2023-03-23 21-48-03-552974,0,0,1526,1474,0.088,0.176,0.18,0.58,-9.77,-3.48,0.8,140.96,-40.40629999999999
2023-03-23 21-48-03-569899,0,0,1526,1474,0.088,0.176,0.18,0.57,-9.77,-3.47,0.78,141.01,-40.45629999999997
2023-03-23 21-48-03-584713,0,0,1526,1474,0.088,0.176,0.18,0.57,-9.77,-3.46,0.75,141.05,-40.49629999999999
2023-03-23 21-48-03-601868,0,0,1526,1474,0.088,0.176,0.17,0.56,-9.77,-3.45,0.73,141.1,-40.546299999999974
2023-03-23 21-48-03-617512,0,0,1526,1474,0.088,0.176,0.17,0.56,-9.77,-3.43,0.7,141.15,-40.596299999999985
2023-03-23 21-48-03-648444,0,0,1526,1474,0.088,0.176,0.15,0.56,-9.77,-3.42,0.68,141.19,-40.63629999999998
2023-03-23 21-48-03-664945,0,0,1526,1474,0.088,0.176,0.14,0.56,-9.78,-3.4,0.65,141.24,-40.68629999999999
2023-03-23 21-48-03-680740,0,0,1526,1474,0.088,0.176,0.13,0.58,-9.76,-3.39,0.62,141.29,-40.73629999999997
2023-03-23 21-48-03-712837,0,0,1526,1474,0.088,0.176,0.13,0.56,-9.76,-3.37,0.6,141.34,-40.78629999999998
2023-03-23 21-48-03-728738,0,0,1526,1474,0.088,0.176,0.15,0.54,-9.77,-3.35,0.57,141.39,-40.836299999999966
2023-03-23 21-48-03-745507,0,0,1526,1474,0.088,0.176,0.12,0.55,-9.76,-3.33,0.54,141.44,-40.88629999999998
2023-03-23 21-48-03-761502,0,0,1526,1474,0.088,0.176,0.11,0.56,-9.75,-3.31,0.5,141.5,-40.94629999999998
2023-03-23 21-48-03-778187,0,0,1526,1474,0.088,0.176,0.1,0.55,-9.75,-3.28,0.47,141.55,-40.99629999999999
2023-03-23 21-48-03-794712,0,0,1526,1474,0.088,0.176,0.09,0.55,-9.75,-3.26,0.44,141.6,-41.046299999999974
2023-03-23 21-48-03-809128,0,0,1526,1474,0.088,0.176,0.08,0.55,-9.75,-3.24,0.41,141.65,-41.096299999999985
2023-03-23 21-48-03-824918,0,0,1526,1474,0.0,0.176,0.06,0.55,-9.76,-3.22,0.37,141.69,-41.13629999999998
2023-03-23 21-48-03-842202,0,0,1526,1474,0.088,0.176,0.06,0.54,-9.76,-3.2,0.33,141.74,-41.18629999999999
2023-03-23 21-48-03-857178,0,0,1526,1474,0.088,0.176,0.07,0.54,-9.76,-3.18,0.3,141.78,-41.22629999999998
2023-03-23 21-48-03-874032,0,0,1526,1474,0.088,0.176,0.05,0.55,-9.75,-3.15,0.26,141.83,-41.27629999999999
2023-03-23 21-48-03-888547,0,0,1526,1474,0.088,0.176,0.04,0.54,-9.74,-3.13,0.23,141.86,-41.30629999999999
2023-03-23 21-48-03-905334,0,0,1526,1474,0.088,0.176,0.04,0.54,-9.74,-3.11,0.2,141.9,-41.346299999999985
2023-03-23 21-48-03-920651,0,0,1526,1474,0.088,0.176,0.05,0.53,-9.75,-3.09,0.16,141.94,-41.38629999999998
2023-03-23 21-48-03-936987,0,0,1526,1474,0.088,0.176,0.04,0.52,-9.76,-3.08,0.13,141.98,-41.42629999999997
2023-03-23 21-48-03-954552,0,0,1526,1474,0.088,0.176,0.02,0.52,-9.76,-3.06,0.09,142.01,-41.45629999999997
2023-03-23 21-48-03-987176,0,0,1526,1474,0.088,0.176,0.03,0.52,-9.75,-3.04,0.06,142.05,-41.49629999999999
2023-03-23 21-48-04-005022,0,0,1526,1474,0.088,0.176,0.01,0.52,-9.74,-3.01,0.02,142.08,-41.52629999999999
2023-03-23 21-48-04-033734,0,0,1526,1474,0.088,0.176,0.01,0.51,-9.75,-3.0,-0.01,142.11,-41.55629999999999
2023-03-23 21-48-04-048334,0,0,1526,1474,0.088,0.176,0.01,0.5,-9.75,-2.98,-0.04,142.14,-41.586299999999966
2023-03-23 21-48-04-064669,0,0,1526,1474,0.088,0.176,0.01,0.49,-9.75,-2.96,-0.07,142.18,-41.626299999999986
2023-03-23 21-48-04-084208,0,0,1526,1474,0.088,0.176,0.01,0.51,-9.73,-2.95,-0.1,142.21,-41.65629999999999
2023-03-23 21-48-04-114821,0,0,1526,1474,0.088,0.176,-0.01,0.53,-9.78,-2.94,-0.13,142.24,-41.68629999999999
2023-03-23 21-48-04-130473,0,0,1526,1474,0.088,0.176,0.0,0.5,-9.72,-2.92,-0.16,142.27,-41.71629999999999
2023-03-23 21-48-04-147706,0,0,1526,1474,0.088,0.176,-0.0,0.52,-9.78,-2.91,-0.19,142.3,-41.74629999999999
2023-03-23 21-48-04-183291,0,0,1526,1474,0.088,0.176,0.01,0.51,-9.74,-2.9,-0.22,142.32,-41.76629999999997
2023-03-23 21-48-04-213572,0,0,1526,1474,0.088,0.176,-0.01,0.51,-9.76,-2.88,-0.24,142.35,-41.796299999999974
2023-03-23 21-48-04-245153,0,0,1526,1474,0.088,0.176,-0.02,0.51,-9.73,-2.87,-0.27,142.37,-41.816299999999984
2023-03-23 21-48-04-276631,0,0,1526,1474,0.088,0.176,-0.01,0.5,-9.74,-2.86,-0.29,142.39,-41.836299999999966
2023-03-23 21-48-04-304273,0,0,1526,1474,0.088,0.176,-0.01,0.5,-9.75,-2.85,-0.31,142.4,-41.846299999999985
2023-03-23 21-48-04-321831,0,0,1526,1474,0.088,0.176,-0.02,0.49,-9.75,-2.84,-0.33,142.42,-41.86629999999997
2023-03-23 21-48-04-339087,0,0,1526,1474,0.088,0.176,-0.03,0.48,-9.75,-2.83,-0.35,142.43,-41.876299999999986
2023-03-23 21-48-04-368223,0,0,1526,1474,0.088,0.176,-0.03,0.49,-9.73,-2.82,-0.37,142.44,-41.88629999999998
2023-03-23 21-48-04-384307,0,0,1526,1474,0.088,0.176,-0.04,0.49,-9.74,-2.82,-0.39,142.45,-41.89629999999997
2023-03-23 21-48-04-400364,0,0,1526,1474,0.088,0.176,-0.05,0.49,-9.75,-2.81,-0.4,142.46,-41.90629999999999
2023-03-23 21-48-04-417818,0,0,1526,1474,0.088,0.176,-0.05,0.49,-9.76,-2.81,-0.42,142.47,-41.91629999999998
2023-03-23 21-48-04-432551,0,0,1526,1474,0.088,0.176,-0.05,0.49,-9.76,-2.8,-0.43,142.47,-41.91629999999998
2023-03-23 21-48-04-448958,0,0,1526,1474,0.088,0.176,-0.05,0.48,-9.75,-2.8,-0.45,142.48,-41.92629999999997
2023-03-23 21-48-04-464533,0,0,1526,1474,0.088,0.176,-0.05,0.48,-9.75,-2.8,-0.46,142.48,-41.92629999999997
2023-03-23 21-48-04-480259,0,0,1526,1474,0.088,0.176,-0.06,0.48,-9.76,-2.8,-0.48,142.48,-41.92629999999997
2023-03-23 21-48-04-497468,0,0,1526,1474,0.088,0.176,-0.05,0.48,-9.75,-2.79,-0.49,142.47,-41.91629999999998
2023-03-23 21-48-04-512559,0,0,1526,1474,0.088,0.176,-0.06,0.49,-9.75,-2.79,-0.51,142.47,-41.91629999999998
2023-03-23 21-48-04-528167,0,0,1526,1474,0.088,0.176,-0.07,0.48,-9.75,-2.79,-0.52,142.46,-41.90629999999999
2023-03-23 21-48-04-544157,0,0,1526,1474,0.088,0.176,-0.07,0.48,-9.75,-2.79,-0.53,142.45,-41.89629999999997
2023-03-23 21-48-04-561080,0,0,1526,1474,0.088,0.176,-0.05,0.49,-9.74,-2.79,-0.54,142.44,-41.88629999999998
2023-03-23 21-48-04-576374,0,0,1526,1474,0.088,0.176,-0.06,0.49,-9.76,-2.79,-0.56,142.43,-41.876299999999986
2023-03-23 21-48-04-594291,0,0,1526,1474,0.088,0.176,-0.06,0.49,-9.77,-2.79,-0.56,142.42,-41.86629999999997
2023-03-23 21-48-04-611769,0,0,1526,1474,0.088,0.176,-0.08,0.46,-9.76,-2.79,-0.57,142.41,-41.856299999999976
2023-03-23 21-48-04-640099,0,0,1526,1474,0.088,0.176,-0.13,0.46,-9.74,-2.79,-0.58,142.39,-41.836299999999966
2023-03-23 21-48-04-657057,0,0,1526,1474,0.088,0.176,-0.14,0.46,-9.75,-2.79,-0.59,142.37,-41.816299999999984
2023-03-23 21-48-04-672422,0,0,1526,1474,0.088,0.176,-0.14,0.45,-9.74,-2.79,-0.6,142.36,-41.80629999999999
2023-03-23 21-48-04-689245,0,0,1526,1474,0.088,0.176,-0.12,0.46,-9.76,-2.8,-0.62,142.35,-41.796299999999974
2023-03-23 21-48-04-705413,0,0,1526,1474,0.088,0.176,-0.12,0.46,-9.75,-2.8,-0.63,142.34,-41.78629999999998
2023-03-23 21-48-04-721266,0,0,1526,1474,0.088,0.176,-0.12,0.46,-9.75,-2.8,-0.64,142.34,-41.78629999999998
2023-03-23 21-48-04-741001,0,0,1526,1474,0.088,0.176,-0.12,0.46,-9.77,-2.79,-0.64,142.33,-41.77629999999999
2023-03-23 21-48-04-769971,0,0,1526,1474,0.088,0.176,-0.12,0.46,-9.75,-2.79,-0.65,142.33,-41.77629999999999
2023-03-23 21-48-04-784379,0,0,1526,1474,0.088,0.176,-0.14,0.45,-9.76,-2.79,-0.66,142.32,-41.76629999999997
2023-03-23 21-48-04-801181,0,0,1526,1474,0.088,0.176,-0.13,0.46,-9.76,-2.79,-0.67,142.31,-41.75629999999998
2023-03-23 21-48-04-818384,0,0,1526,1474,0.088,0.176,-0.13,0.45,-9.77,-2.78,-0.68,142.31,-41.75629999999998
2023-03-23 21-48-04-833771,0,0,1526,1474,0.088,0.176,-0.14,0.45,-9.77,-2.78,-0.69,142.31,-41.75629999999998
2023-03-23 21-48-04-848373,0,0,1526,1474,0.088,0.176,-0.13,0.46,-9.75,-2.77,-0.7,142.3,-41.74629999999999
2023-03-23 21-48-04-864958,0,0,1526,1474,0.088,0.176,-0.13,0.45,-9.75,-2.77,-0.71,142.3,-41.74629999999999
2023-03-23 21-48-04-880544,0,0,1526,1474,0.088,0.176,-0.14,0.45,-9.77,-2.76,-0.72,142.31,-41.75629999999998
2023-03-23 21-48-04-896673,0,0,1526,1474,0.088,0.176,-0.13,0.45,-9.77,-2.76,-0.73,142.31,-41.75629999999998
2023-03-23 21-48-04-912170,0,0,1526,1474,0.088,0.176,-0.13,0.45,-9.77,-2.75,-0.74,142.31,-41.75629999999998
2023-03-23 21-48-04-929216,0,0,1526,1474,0.088,0.176,-0.13,0.45,-9.76,-2.74,-0.74,142.31,-41.75629999999998
2023-03-23 21-48-04-944716,0,0,1526,1474,0.088,0.176,-0.14,0.45,-9.78,-2.73,-0.75,142.31,-41.75629999999998
2023-03-23 21-48-04-962133,0,0,1526,1474,0.088,0.176,-0.12,0.46,-9.77,-2.73,-0.76,142.31,-41.75629999999998
2023-03-23 21-48-04-976299,0,0,1526,1474,0.088,0.176,-0.12,0.44,-9.78,-2.72,-0.77,142.31,-41.75629999999998
2023-03-23 21-48-04-993432,0,0,1526,1474,0.088,0.176,-0.13,0.45,-9.77,-2.71,-0.78,142.31,-41.75629999999998
2023-03-23 21-48-05-009730,0,0,1526,1474,0.088,0.176,-0.13,0.45,-9.77,-2.7,-0.78,142.31,-41.75629999999998
2023-03-23 21-48-05-024222,0,0,1526,1474,0.088,0.176,-0.14,0.44,-9.76,-2.69,-0.78,142.31,-41.75629999999998
2023-03-23 21-48-05-040295,0,0,1526,1474,0.088,0.176,-0.14,0.44,-9.77,-2.68,-0.79,142.31,-41.75629999999998
2023-03-23 21-48-05-056564,0,0,1526,1474,0.088,0.176,-0.13,0.45,-9.78,-2.67,-0.8,142.31,-41.75629999999998
2023-03-23 21-48-05-072977,0,0,1526,1474,0.088,0.176,-0.13,0.44,-9.79,-2.66,-0.8,142.31,-41.75629999999998
2023-03-23 21-48-05-088208,0,0,1526,1474,0.088,0.176,-0.13,0.44,-9.79,-2.64,-0.8,142.32,-41.76629999999997
2023-03-23 21-48-05-104342,0,0,1526,1474,0.088,0.176,-0.11,0.43,-9.78,-2.63,-0.81,142.32,-41.76629999999997
2023-03-23 21-48-05-121340,0,0,1526,1474,0.0,0.176,-0.11,0.42,-9.78,-2.62,-0.81,142.32,-41.76629999999997
2023-03-23 21-48-05-138298,0,0,1526,1474,0.088,0.176,-0.11,0.43,-9.78,-2.6,-0.81,142.33,-41.77629999999999
2023-03-23 21-48-05-152141,0,0,1526,1474,0.088,0.176,-0.12,0.42,-9.78,-2.59,-0.81,142.33,-41.77629999999999
2023-03-23 21-48-05-169548,0,0,1526,1474,0.088,0.176,-0.11,0.42,-9.79,-2.58,-0.81,142.33,-41.77629999999999
2023-03-23 21-48-05-184918,0,0,1526,1474,0.088,0.176,-0.1,0.44,-9.77,-2.57,-0.81,142.34,-41.78629999999998
2023-03-23 21-48-05-200828,0,0,1526,1474,0.088,0.176,-0.1,0.42,-9.78,-2.55,-0.81,142.35,-41.796299999999974
2023-03-23 21-48-05-216187,0,0,1526,1474,0.088,0.176,-0.1,0.42,-9.78,-2.54,-0.82,142.37,-41.816299999999984
2023-03-23 21-48-05-233592,0,0,1526,1474,0.088,0.176,-0.11,0.41,-9.78,-2.53,-0.82,142.38,-41.826299999999975
2023-03-23 21-48-05-248192,0,0,1526,1474,0.088,0.176,-0.1,0.42,-9.76,-2.51,-0.82,142.4,-41.846299999999985
2023-03-23 21-48-05-264079,0,0,1526,1474,0.088,0.176,-0.11,0.43,-9.77,-2.5,-0.82,142.42,-41.86629999999997
2023-03-23 21-48-05-281031,0,0,1526,1474,0.088,0.176,-0.1,0.41,-9.77,-2.49,-0.83,142.44,-41.88629999999998
2023-03-23 21-48-05-297084,0,0,1526,1474,0.088,0.176,-0.09,0.42,-9.77,-2.48,-0.83,142.46,-41.90629999999999
2023-03-23 21-48-05-312087,0,0,1526,1474,0.088,0.176,-0.1,0.41,-9.79,-2.46,-0.83,142.48,-41.92629999999997
2023-03-23 21-48-05-329284,0,0,1526,1474,0.088,0.176,-0.11,0.41,-9.77,-2.45,-0.83,142.51,-41.95629999999997
2023-03-23 21-48-05-344205,0,0,1526,1474,0.088,0.176,-0.12,0.42,-9.76,-2.44,-0.84,142.54,-41.98629999999997
2023-03-23 21-48-05-360197,0,0,1526,1474,0.0,0.176,-0.12,0.41,-9.78,-2.43,-0.84,142.56,-42.00629999999998
2023-03-23 21-48-05-377434,0,0,1526,1474,0.088,0.176,-0.11,0.42,-9.77,-2.41,-0.85,142.59,-42.03629999999998
2023-03-23 21-48-05-394315,0,0,1526,1474,0.088,0.176,-0.12,0.41,-9.77,-2.4,-0.86,142.62,-42.066299999999984
2023-03-23 21-48-05-409445,0,0,1526,1474,0.088,0.176,-0.12,0.41,-9.77,-2.39,-0.86,142.65,-42.096299999999985
2023-03-23 21-48-05-424136,0,0,1526,1474,0.088,0.176,-0.11,0.4,-9.77,-2.37,-0.87,142.68,-42.126299999999986
2023-03-23 21-48-05-441669,0,0,1526,1474,0.088,0.176,-0.12,0.39,-9.77,-2.36,-0.88,142.71,-42.15629999999999
2023-03-23 21-48-05-457150,0,0,1526,1474,0.088,0.176,-0.13,0.39,-9.77,-2.35,-0.89,142.75,-42.19629999999998
2023-03-23 21-48-05-472114,0,0,1526,1474,0.088,0.176,-0.12,0.39,-9.75,-2.34,-0.9,142.78,-42.22629999999998
2023-03-23 21-48-05-488208,0,0,1526,1474,0.088,0.176,-0.12,0.39,-9.77,-2.33,-0.91,142.81,-42.25629999999998
2023-03-23 21-48-05-513546,0,0,1526,1474,0.088,0.176,-0.12,0.39,-9.76,-2.33,-0.92,142.85,-42.296299999999974
2023-03-23 21-48-05-541196,0,0,1526,1474,0.088,0.176,-0.13,0.39,-9.76,-2.32,-0.94,142.88,-42.326299999999975
2023-03-23 21-48-05-569240,0,0,1526,1474,0.088,0.176,-0.15,0.4,-9.75,-2.31,-0.95,142.92,-42.36629999999997
2023-03-23 21-48-05-584507,0,0,1526,1474,0.088,0.176,-0.16,0.4,-9.73,-2.3,-0.97,142.96,-42.40629999999999
2023-03-23 21-48-05-601110,0,0,1526,1474,0.088,0.176,-0.17,0.39,-9.74,-2.29,-0.98,142.99,-42.43629999999999
2023-03-23 21-48-05-617224,0,0,1526,1474,0.088,0.176,-0.18,0.4,-9.73,-2.28,-1.0,143.02,-42.46629999999999
2023-03-23 21-48-05-635232,0,0,1526,1474,0.088,0.176,-0.16,0.4,-9.74,-2.28,-1.02,143.05,-42.49629999999999
2023-03-23 21-48-05-663877,0,0,1526,1474,0.088,0.176,-0.16,0.37,-9.74,-2.27,-1.05,143.09,-42.53629999999998
2023-03-23 21-48-05-684333,0,0,1526,1474,0.088,0.176,-0.18,0.39,-9.74,-2.26,-1.07,143.12,-42.566299999999984
2023-03-23 21-48-05-712821,0,0,1526,1474,0.088,0.176,-0.19,0.39,-9.72,-2.26,-1.09,143.15,-42.596299999999985
2023-03-23 21-48-05-728082,0,0,1526,1474,0.088,0.176,-0.2,0.38,-9.73,-2.25,-1.11,143.18,-42.626299999999986
2023-03-23 21-48-05-746030,0,0,1526,1474,0.088,0.176,-0.2,0.38,-9.75,-2.24,-1.14,143.2,-42.64629999999997
2023-03-23 21-48-05-761492,0,0,1526,1474,0.088,0.176,-0.2,0.37,-9.73,-2.24,-1.16,143.22,-42.66629999999998
2023-03-23 21-48-05-776602,0,0,1526,1474,0.088,0.176,-0.21,0.37,-9.73,-2.23,-1.18,143.25,-42.69629999999998
2023-03-23 21-48-05-792048,0,0,1526,1474,0.088,0.176,-0.21,0.37,-9.72,-2.23,-1.21,143.27,-42.71629999999999
2023-03-23 21-48-05-809223,0,0,1526,1474,0.088,0.176,-0.21,0.36,-9.73,-2.23,-1.23,143.29,-42.73629999999997
2023-03-23 21-48-05-841207,0,0,1526,1474,0.088,0.176,-0.22,0.36,-9.74,-2.23,-1.26,143.31,-42.75629999999998
2023-03-23 21-48-05-856100,0,0,1526,1474,0.088,0.176,-0.23,0.36,-9.74,-2.22,-1.29,143.32,-42.76629999999997
2023-03-23 21-48-05-872858,0,0,1526,1474,0.088,0.176,-0.21,0.37,-9.71,-2.22,-1.31,143.34,-42.78629999999998
2023-03-23 21-48-05-889261,0,0,1526,1474,0.088,0.176,-0.24,0.38,-9.75,-2.22,-1.34,143.36,-42.80629999999999
2023-03-23 21-48-05-904089,0,0,1526,1474,0.088,0.176,-0.23,0.34,-9.71,-2.21,-1.37,143.38,-42.826299999999975
2023-03-23 21-48-05-919968,0,0,1526,1474,0.088,0.176,-0.24,0.37,-9.76,-2.21,-1.39,143.4,-42.846299999999985
2023-03-23 21-48-05-937783,0,0,1526,1474,0.088,0.176,-0.25,0.35,-9.72,-2.21,-1.42,143.41,-42.856299999999976
2023-03-23 21-48-05-953562,0,0,1526,1474,0.088,0.176,-0.24,0.36,-9.76,-2.2,-1.44,143.43,-42.876299999999986
2023-03-23 21-48-05-968943,0,0,1526,1474,0.088,0.176,-0.24,0.35,-9.75,-2.19,-1.46,143.44,-42.88629999999998
2023-03-23 21-48-05-984135,0,0,1526,1474,0.088,0.176,-0.25,0.34,-9.74,-2.19,-1.48,143.46,-42.90629999999999
2023-03-23 21-48-06-000832,0,0,1526,1474,0.088,0.176,-0.24,0.35,-9.75,-2.18,-1.5,143.47,-42.91629999999998
2023-03-23 21-48-06-017668,0,0,1526,1474,0.088,0.176,-0.25,0.35,-9.76,-2.17,-1.52,143.48,-42.92629999999997
2023-03-23 21-48-06-033867,0,0,1526,1474,0.088,0.176,-0.24,0.35,-9.76,-2.16,-1.54,143.49,-42.93629999999999
2023-03-23 21-48-06-048104,0,0,1526,1474,0.088,0.176,-0.25,0.35,-9.76,-2.15,-1.56,143.5,-42.94629999999998
2023-03-23 21-48-06-065402,0,0,1526,1474,0.088,0.176,-0.24,0.34,-9.75,-2.14,-1.58,143.51,-42.95629999999997
2023-03-23 21-48-06-080381,0,0,1526,1474,0.088,0.176,-0.23,0.35,-9.75,-2.13,-1.6,143.52,-42.96629999999999
2023-03-23 21-48-06-096159,0,0,1526,1474,0.088,0.176,-0.24,0.35,-9.76,-2.13,-1.62,143.52,-42.96629999999999
2023-03-23 21-48-06-112712,0,0,1526,1474,0.088,0.176,-0.25,0.34,-9.77,-2.12,-1.63,143.53,-42.97629999999998
2023-03-23 21-48-06-135102,0,0,1526,1474,0.088,0.176,-0.24,0.34,-9.76,-2.11,-1.64,143.53,-42.97629999999998
2023-03-23 21-48-06-160135,0,0,1526,1474,0.088,0.176,-0.25,0.34,-9.76,-2.1,-1.65,143.52,-42.96629999999999
2023-03-23 21-48-06-176439,0,0,1526,1474,0.088,0.176,-0.25,0.35,-9.76,-2.09,-1.67,143.52,-42.96629999999999
2023-03-23 21-48-06-193107,0,0,1526,1474,0.088,0.176,-0.25,0.35,-9.76,-2.08,-1.68,143.52,-42.96629999999999
2023-03-23 21-48-06-208894,0,0,1526,1474,0.0,0.176,-0.26,0.35,-9.76,-2.07,-1.69,143.51,-42.95629999999997
2023-03-23 21-48-06-224264,0,0,1526,1474,0.088,0.176,-0.25,0.34,-9.76,-2.06,-1.7,143.49,-42.93629999999999
2023-03-23 21-48-06-240562,0,0,1526,1474,0.088,0.176,-0.27,0.32,-9.78,-2.04,-1.7,143.48,-42.92629999999997
2023-03-23 21-48-06-257904,0,0,1526,1474,0.088,0.176,-0.27,0.34,-9.77,-2.03,-1.71,143.47,-42.91629999999998
2023-03-23 21-48-06-272984,0,0,1526,1474,0.088,0.176,-0.27,0.34,-9.76,-2.02,-1.72,143.45,-42.89629999999997
2023-03-23 21-48-06-288009,0,0,1526,1474,0.088,0.176,-0.26,0.33,-9.77,-2.01,-1.73,143.44,-42.88629999999998
2023-03-23 21-48-06-303981,0,0,1526,1474,0.088,0.176,-0.27,0.34,-9.77,-2.01,-1.74,143.42,-42.86629999999997
2023-03-23 21-48-06-320500,0,0,1526,1474,0.088,0.176,-0.27,0.34,-9.76,-2.0,-1.74,143.4,-42.846299999999985
2023-03-23 21-48-06-338142,0,0,1526,1474,0.088,0.176,-0.27,0.33,-9.77,-1.99,-1.75,143.38,-42.826299999999975
2023-03-23 21-48-06-352620,0,0,1526,1474,0.088,0.176,-0.27,0.33,-9.79,-1.98,-1.76,143.36,-42.80629999999999
2023-03-23 21-48-06-368440,0,0,1526,1474,0.088,0.176,-0.28,0.33,-9.77,-1.97,-1.76,143.33,-42.77629999999999
2023-03-23 21-48-06-385176,0,0,1526,1474,0.088,0.176,-0.28,0.34,-9.77,-1.96,-1.77,143.31,-42.75629999999998
2023-03-23 21-48-06-401320,0,0,1526,1474,0.088,0.176,-0.28,0.33,-9.78,-1.96,-1.77,143.28,-42.72629999999998
2023-03-23 21-48-06-417595,0,0,1526,1474,0.088,0.176,-0.28,0.34,-9.77,-1.95,-1.77,143.26,-42.70629999999997
2023-03-23 21-48-06-432015,0,0,1526,1474,0.0,0.176,-0.28,0.33,-9.77,-1.94,-1.77,143.22,-42.66629999999998
2023-03-23 21-48-06-449155,0,0,1526,1474,0.088,0.176,-0.27,0.32,-9.75,-1.94,-1.77,143.19,-42.63629999999998
2023-03-23 21-48-06-470553,0,0,1526,1474,0.088,0.176,-0.29,0.31,-9.78,-1.94,-1.77,143.16,-42.606299999999976
2023-03-23 21-48-06-496613,0,0,1526,1474,0.088,0.176,-0.31,0.32,-9.76,-1.94,-1.77,143.13,-42.576299999999975
2023-03-23 21-48-06-512317,0,0,1526,1474,0.088,0.176,-0.3,0.34,-9.74,-1.94,-1.77,143.1,-42.546299999999974
2023-03-23 21-48-06-529958,0,0,1526,1474,0.088,0.176,-0.29,0.34,-9.77,-1.94,-1.77,143.07,-42.51629999999997
2023-03-23 21-48-06-544067,0,0,1526,1474,0.088,0.176,-0.31,0.33,-9.77,-1.94,-1.76,143.04,-42.48629999999997
2023-03-23 21-48-06-559931,0,0,1526,1474,0.088,0.176,-0.31,0.33,-9.77,-1.95,-1.76,143.01,-42.45629999999997
