Timestamp_log,left_angle,right_angle,left_thrust,right_thrust,read_left_angle,read_right_angle,accel_x,accel_y,accel_z,roll,pitch,yaw,e_alpha
2023-03-24 18-17-29-589895,0,0,1572,1572,178.593,-19.609,-0.63,0.27,-9.75,-1.59,-3.89,46.2,30.20779999999999
2023-03-24 18-17-29-718285,0,0,1565,1565,178.681,-19.609,-0.62,0.29,-9.73,-1.62,-3.89,46.24,30.24779999999999
2023-03-24 18-17-29-845608,0,0,1565,1565,178.681,-19.609,-0.64,0.27,-9.74,-1.66,-3.93,46.29,30.297799999999988
2023-03-24 18-17-29-973298,0,0,1564,1564,178.593,-19.609,-0.67,0.27,-9.69,-1.7,-3.97,46.04,30.047799999999988
2023-03-24 18-17-30-101675,0,0,1562,1562,178.681,-19.609,-0.62,0.2,-9.8,-1.63,-4.04,44.8,28.807799999999986
2023-03-24 18-17-30-229322,0,0,1559,1559,178.593,-19.609,-0.63,0.26,-9.75,-1.44,-4.06,42.89,26.89779999999999
2023-03-24 18-17-30-357290,0,0,1555,1555,178.681,-19.609,-0.67,0.24,-9.76,-1.2,-3.99,40.23,24.237799999999986
2023-03-24 18-17-30-485133,0,0,1550,1550,178.681,-19.609,-0.66,0.21,-9.76,-0.92,-3.81,37.51,21.517799999999987
2023-03-24 18-17-30-614178,0,0,1547,1547,178.681,-19.609,-0.58,0.15,-9.76,-0.64,-3.54,35.23,19.237799999999986
2023-03-24 18-17-30-740883,0,0,1545,1545,178.681,-19.609,-0.54,0.12,-9.75,-0.43,-3.22,33.73,17.737799999999986
2023-03-24 18-17-30-879670,0,0,1544,1544,178.593,-19.609,-0.49,0.07,-9.76,-0.28,-3.0,32.75,16.75779999999999
2023-03-24 18-17-31-006588,0,0,1543,1543,178.593,-19.609,-0.47,0.04,-9.72,-0.14,-2.97,31.8,15.80779999999999
2023-03-24 18-17-31-134802,0,0,1540,1540,178.593,-19.609,-0.49,-0.0,-9.73,0.02,-3.07,30.4,14.407799999999988
2023-03-24 18-17-31-263049,0,0,1538,1538,178.681,-19.609,-0.47,-0.02,-9.77,0.23,-3.12,28.76,12.76779999999999
2023-03-24 18-17-31-391055,0,0,1535,1535,178.681,-19.609,-0.49,-0.03,-9.76,0.45,-3.03,26.85,10.85779999999999
2023-03-24 18-17-31-509649,0,0,1550,1550,178.593,-19.609,-0.47,-0.07,-9.76,0.62,-2.85,25.26,9.26779999999999
2023-03-24 18-17-31-637137,0,0,1550,1550,178.593,-19.609,-0.47,-0.1,-9.69,0.74,-2.72,23.97,7.977799999999988
2023-03-24 18-17-31-764865,0,0,1550,1550,178.593,-19.609,-0.44,-0.11,-9.76,0.81,-2.69,23.15,7.1577999999999875
2023-03-24 18-17-31-892929,0,0,1550,1550,178.593,-19.609,-0.45,-0.12,-9.75,0.82,-2.81,22.82,6.827799999999989
2023-03-24 18-17-32-020941,0,0,1550,1550,178.681,-19.609,-0.49,-0.14,-9.77,0.81,-3.03,22.85,6.85779999999999
2023-03-24 18-17-32-149020,0,0,1550,1550,178.681,-19.609,-0.52,-0.13,-9.75,0.77,-3.27,22.9,6.9077999999999875
2023-03-24 18-17-32-276745,0,0,1550,1550,178.681,-19.609,-0.59,-0.1,-9.72,0.75,-3.53,22.37,6.37779999999999
2023-03-24 18-17-32-405481,0,0,1550,1550,178.593,-19.609,-0.57,-0.15,-9.77,0.77,-3.72,21.23,5.237799999999989
2023-03-24 18-17-32-534144,0,0,1550,1550,178.593,-19.609,-0.61,-0.12,-9.77,0.81,-3.73,20.04,4.047799999999988
2023-03-24 18-17-32-660639,0,0,1550,1550,178.593,-19.609,-0.63,-0.11,-9.76,0.84,-3.6,18.8,2.8077999999999896
2023-03-24 18-17-32-794325,0,0,1550,1550,178.593,-19.609,-0.57,-0.12,-9.73,0.89,-3.46,17.42,1.4277999999999906
2023-03-24 18-17-32-920917,0,0,1550,1550,178.681,-19.609,-0.52,-0.13,-9.74,0.96,-3.33,16.53,0.5377999999999901
2023-03-24 18-17-33-045061,0,0,1550,1550,178.593,-19.609,-0.54,-0.13,-9.75,0.95,-3.34,16.32,0.3277999999999892
2023-03-24 18-17-33-173876,0,0,1550,1550,178.681,-19.609,-0.54,-0.14,-9.74,0.9,-3.55,16.56,0.5677999999999876
2023-03-24 18-17-33-301021,0,0,1550,1550,178.593,-19.609,-0.66,-0.11,-9.74,0.81,-3.8,16.72,0.7277999999999878
2023-03-24 18-17-33-429048,0,0,1550,1550,178.593,-19.609,-0.69,-0.07,-9.77,0.78,-3.99,16.44,0.4477999999999902
2023-03-24 18-17-33-556894,0,0,1550,1550,178.593,-19.609,-0.64,-0.14,-9.79,0.76,-4.13,15.81,-0.18220000000001058
2023-03-24 18-17-33-759055,0,0,1550,1550,178.593,-19.609,-0.68,-0.12,-9.76,0.82,-4.08,14.66,-1.332200000000011
2023-03-24 18-17-33-965540,0,0,1550,1550,178.593,-19.609,-0.66,-0.13,-9.76,0.89,-3.85,13.6,-2.3922000000000114
2023-03-24 18-17-34-149176,0,0,1550,1550,178.593,-19.609,-0.52,-0.11,-9.75,0.95,-3.51,12.93,-3.0622000000000114
2023-03-24 18-17-34-324992,0,0,1550,1550,178.593,-19.609,-0.48,-0.13,-9.75,0.96,-3.13,12.82,-3.172200000000011
2023-03-24 18-17-34-521393,0,0,1550,1550,178.593,-19.609,-0.42,-0.11,-9.74,0.89,-2.93,13.24,-2.752200000000011
2023-03-24 18-17-34-709537,0,0,1550,1550,178.593,-19.609,-0.42,-0.1,-9.74,0.79,-2.84,13.88,-2.1122000000000103
2023-03-24 18-17-34-916558,0,0,1550,1550,178.681,-19.609,-0.49,-0.09,-9.77,0.72,-2.81,14.03,-1.9622000000000117
2023-03-24 18-17-35-108756,0,0,1550,1550,178.593,-19.609,-0.46,-0.11,-9.77,0.72,-2.87,13.76,-2.2322000000000113
2023-03-24 18-17-35-284922,0,0,1550,1550,178.593,-19.609,-0.46,-0.18,-9.67,0.74,-2.88,13.25,-2.742200000000011
2023-03-24 18-17-35-477158,0,0,1550,1550,178.593,-19.609,-0.44,-0.09,-9.72,0.82,-2.52,12.22,-3.7722000000000104
2023-03-24 18-17-35-668468,0,0,1550,1550,178.593,-19.609,-0.44,-0.06,-9.78,0.85,-1.88,11.76,-4.232200000000011
2023-03-24 18-17-35-844607,0,0,1550,1550,178.593,-19.609,-0.15,-0.1,-9.74,0.85,-1.28,11.44,-4.552200000000012
2023-03-24 18-17-36-036578,0,0,1550,1550,178.593,-19.609,-0.12,-0.08,-9.74,0.79,-1.0,11.73,-4.262200000000011
2023-03-24 18-17-36-228790,0,0,1550,1550,178.593,-19.609,0.06,-0.09,-9.74,0.71,-1.06,12.46,-3.53220000000001
2023-03-24 18-17-36-421633,0,0,1550,1550,178.593,-19.609,-0.16,-0.04,-9.75,0.62,-1.2,13.21,-2.78220000000001
2023-03-24 18-17-36-628597,0,0,1550,1550,178.593,-19.609,-0.16,-0.05,-9.76,0.57,-1.23,13.42,-2.572200000000011
2023-03-24 18-17-36-820650,0,0,1550,1550,178.593,-19.609,-0.15,-0.03,-9.81,0.57,-1.07,13.47,-2.5222000000000104
2023-03-24 18-17-37-012755,0,0,1550,1550,178.593,-19.609,-0.09,-0.05,-9.76,0.59,-0.82,13.36,-2.6322000000000116
2023-03-24 18-17-37-204692,0,0,1550,1550,178.593,-19.609,-0.09,-0.05,-9.76,0.6,-0.57,12.9,-3.0922000000000107
2023-03-24 18-17-37-396509,0,0,1550,1550,178.593,-19.609,-0.01,-0.05,-9.74,0.62,-0.22,12.53,-3.4622000000000117
2023-03-24 18-17-37-588233,0,0,1550,1550,178.593,-19.609,0.08,-0.07,-9.73,0.61,0.07,12.79,-3.202200000000012
2023-03-24 18-17-37-780503,0,0,1550,1550,178.593,-19.609,0.05,-0.07,-9.74,0.57,0.0,13.5,-2.492200000000011
2023-03-24 18-17-37-986266,0,0,1550,1550,178.593,-19.609,-0.02,-0.06,-9.76,0.51,-0.47,14.53,-1.4622000000000117
2023-03-24 18-17-38-165625,0,0,1550,1550,178.593,-19.609,-0.09,-0.08,-9.76,0.49,-1.11,15.7,-0.2922000000000118
2023-03-24 18-17-38-386253,0,0,1550,1550,178.593,-19.609,-0.22,-0.06,-9.75,0.5,-1.56,15.83,-0.162200000000011
2023-03-24 18-17-38-564366,0,0,1550,1550,178.593,-19.609,-0.24,-0.08,-9.79,0.56,-1.64,15.91,-0.08220000000001093
2023-03-24 18-17-38-756269,0,0,1550,1550,178.593,-19.609,-0.2,-0.08,-9.75,0.59,-1.34,15.73,-0.26220000000001065
2023-03-24 18-17-38-948128,0,0,1550,1550,178.593,-19.609,-0.13,-0.1,-9.77,0.58,-1.05,15.73,-0.26220000000001065
2023-03-24 18-17-39-140717,0,0,1550,1550,178.593,-19.609,-0.13,-0.08,-9.79,0.57,-0.86,15.07,-0.9222000000000108
2023-03-24 18-17-39-347969,0,0,1550,1550,178.593,-19.609,-0.06,-0.09,-9.76,0.6,-0.58,15.07,-0.9222000000000108
2023-03-24 18-17-39-524624,0,0,1550,1550,178.593,-19.609,-0.04,-0.08,-9.74,0.59,-0.53,15.61,-0.38220000000001164
2023-03-24 18-17-39-716103,0,0,1550,1550,178.593,-19.609,-0.02,-0.09,-9.77,0.53,-0.88,16.33,0.3377999999999872
2023-03-24 18-17-39-844503,0,0,1550,1550,178.681,-19.609,-0.17,-0.08,-9.73,0.53,-1.24,16.88,0.8877999999999879
2023-03-24 18-17-39-972967,0,0,1550,1550,178.593,-19.609,-0.27,-0.1,-9.75,0.49,-1.51,17.1,1.1077999999999903
2023-03-24 18-17-40-100710,0,0,1550,1550,178.593,-19.609,-0.2,-0.05,-9.76,0.47,-1.35,16.87,0.8777999999999899
2023-03-24 18-17-40-228407,0,0,1550,1550,178.593,-19.609,-0.13,-0.06,-9.8,0.45,-0.74,16.3,0.30779999999998964
2023-03-24 18-17-40-356091,0,0,1550,1550,178.593,-19.609,0.03,-0.03,-9.74,0.44,0.07,15.82,-0.1722000000000108
2023-03-24 18-17-40-548064,0,0,1550,1550,178.593,-19.609,0.15,-0.04,-9.75,0.4,0.65,15.64,-0.3522000000000105
2023-03-24 18-17-40-724145,0,0,1550,1550,178.593,-19.609,0.22,-0.04,-9.75,0.4,0.96,15.81,-0.18220000000001058
2023-03-24 18-17-40-916222,0,0,1550,1550,178.593,-19.609,0.21,-0.05,-9.75,0.41,0.92,16.44,0.4477999999999902
2023-03-24 18-17-41-044208,0,0,1550,1550,178.593,-19.609,0.15,-0.05,-9.76,0.38,0.5,17.33,1.3377999999999872
2023-03-24 18-17-41-172299,0,0,1550,1550,178.593,-19.609,0.03,0.0,-9.74,0.31,0.07,17.36,1.3677999999999884
2023-03-24 18-17-41-308370,0,0,1550,1550,178.593,-19.609,0.1,-0.05,-9.79,0.31,0.16,17.07,1.0777999999999892
2023-03-24 18-17-41-429398,0,0,1550,1550,178.593,-19.609,0.12,-0.05,-9.7,0.26,0.62,16.27,0.2777999999999885
2023-03-24 18-17-41-557530,0,0,1550,1550,178.593,-19.609,0.28,-0.01,-9.76,0.22,1.36,15.7,-0.2922000000000118
2023-03-24 18-17-41-748891,0,0,1550,1550,178.593,-19.609,0.38,0.07,-9.79,0.13,2.2,14.84,-1.1522000000000112
2023-03-24 18-17-41-956593,0,0,1550,1550,178.593,-19.609,0.53,-0.01,-9.73,0.1,3.01,14.59,-1.4022000000000112
2023-03-24 18-17-42-148423,0,0,1550,1550,178.593,-19.609,0.59,-0.01,-9.74,0.08,3.27,14.96,-1.0322000000000102
2023-03-24 18-17-42-324812,0,0,1550,1550,178.593,-19.609,0.58,-0.02,-9.79,0.01,2.89,15.58,-0.412200000000011
2023-03-24 18-17-42-516023,0,0,1550,1550,178.593,-19.609,0.47,0.06,-9.79,-0.1,2.76,15.14,-0.8522000000000105
2023-03-24 18-17-42-708008,0,0,1550,1550,178.593,-19.609,0.55,0.03,-9.78,-0.11,3.07,14.98,-1.0122000000000106
2023-03-24 18-17-42-884142,0,0,1550,1550,178.593,-19.609,0.58,0.08,-9.73,-0.18,3.45,14.25,-1.742200000000011
2023-03-24 18-17-43-080270,0,0,1550,1550,178.593,-19.609,0.69,0.01,-9.68,-0.27,3.92,13.82,-2.172200000000011
2023-03-24 18-17-43-284437,0,0,1550,1550,178.593,-19.609,0.77,0.1,-9.73,-0.4,4.53,12.84,-3.152200000000011
2023-03-24 18-17-43-476169,0,0,1550,1550,178.593,-19.609,0.87,0.07,-9.7,-0.42,5.05,12.82,-3.172200000000011
2023-03-24 18-17-43-667740,0,0,1550,1550,178.593,-19.609,0.89,0.07,-9.74,-0.45,4.82,13.4,-2.5922000000000107
2023-03-24 18-17-43-859830,0,0,1550,1550,178.593,-19.609,0.74,0.03,-9.78,-0.55,4.11,13.99,-2.002200000000011
2023-03-24 18-17-44-068309,0,0,1550,1550,178.593,-19.609,0.72,0.14,-9.79,-0.7,4.06,13.25,-2.742200000000011
2023-03-24 18-17-44-259776,0,0,1550,1550,178.593,-19.609,0.83,0.11,-9.7,-0.75,4.61,12.99,-3.002200000000011
2023-03-24 18-17-44-468100,0,0,1550,1550,178.593,-19.609,0.88,0.15,-9.73,-0.84,4.93,12.68,-3.3122000000000114
2023-03-24 18-17-44-647480,0,0,1550,1550,178.593,-19.609,0.74,0.23,-9.75,-1.03,4.94,12.31,-3.6822000000000106
2023-03-24 18-17-44-835893,0,0,1550,1550,178.593,-19.609,0.9,0.23,-9.71,-1.21,5.1,11.91,-4.082200000000011
2023-03-24 18-17-45-027695,0,0,1550,1550,178.593,-19.609,0.9,0.22,-9.68,-1.32,5.14,12.36,-3.6322000000000116
2023-03-24 18-17-45-204247,0,0,1550,1550,178.593,-19.609,0.8,0.25,-9.73,-1.44,4.49,13.32,-2.672200000000011
2023-03-24 18-17-45-400251,0,0,1550,1550,178.593,-19.609,0.65,0.29,-9.84,-1.64,3.63,13.87,-2.122200000000012
2023-03-24 18-17-45-587930,0,0,1550,1550,178.593,-19.609,0.63,0.3,-9.76,-1.79,3.5,13.8,-2.1922000000000104
2023-03-24 18-17-45-763772,0,0,1550,1550,178.593,-19.609,0.63,0.3,-9.79,-1.98,3.6,13.33,-2.662200000000011
2023-03-24 18-17-45-956385,0,0,1550,1550,178.593,-19.609,0.71,0.38,-9.72,-2.15,4.01,12.59,-3.402200000000011
