Timestamp_log,left_angle,right_angle,left_thrust,right_thrust,read_left_angle,read_right_angle,accel_x,accel_y,accel_z,roll,pitch,yaw,e_alpha
2023-03-23 22-29-44-515928,0,0,1551,1449,-0.176,-12.75,9.13,0.33,-3.61,-5.59,67.93,86.96,29.988240000000005
2023-03-23 22-29-44-535014,0,0,1554,1446,-0.176,-12.75,9.14,0.35,-3.6,-5.56,67.91,86.98,30.008240000000015
2023-03-23 22-29-44-566007,0,0,1554,1446,-0.176,-12.75,9.15,0.35,-3.63,-5.52,67.88,87.0,30.02824000000001
2023-03-23 22-29-44-582631,0,0,1554,1446,-0.176,-12.75,9.15,0.35,-3.65,-5.49,67.86,87.01,30.038240000000016
2023-03-23 22-29-44-616434,0,0,1554,1446,-0.176,-12.662,9.14,0.33,-3.61,-5.45,67.83,87.03,30.058240000000012
2023-03-23 22-29-44-647004,0,0,1554,1446,-0.176,-12.75,9.12,0.29,-3.56,-5.43,67.8,87.03,30.058240000000012
2023-03-23 22-29-44-676912,0,0,1554,1446,-0.176,-12.75,9.13,0.31,-3.55,-5.42,67.78,87.03,30.058240000000012
2023-03-23 22-29-44-715513,0,0,1554,1446,-0.176,-12.75,9.17,0.31,-3.55,-5.41,67.77,87.01,30.038240000000016
2023-03-23 22-29-44-746820,0,0,1554,1446,-0.176,-12.75,9.18,0.32,-3.53,-5.41,67.76,86.99,30.018240000000006
2023-03-23 22-29-44-780316,0,0,1553,1447,-0.176,-12.75,9.2,0.32,-3.52,-5.43,67.77,86.95,29.978240000000014
2023-03-23 22-29-44-810646,0,0,1553,1447,-0.176,-12.75,9.22,0.31,-3.57,-5.45,67.79,86.9,29.928240000000017
2023-03-23 22-29-44-844871,0,0,1553,1447,-0.176,-12.75,9.22,0.29,-3.63,-5.49,67.8,86.85,29.878240000000005
2023-03-23 22-29-44-875309,0,0,1553,1447,-0.176,-12.75,9.19,0.28,-3.62,-5.54,67.8,86.79,29.818240000000017
2023-03-23 22-29-44-905859,0,0,1553,1447,-0.176,-12.75,9.14,0.27,-3.53,-5.6,67.8,86.73,29.758240000000015
2023-03-23 22-29-44-942186,0,0,1553,1447,-0.176,-12.75,9.11,0.28,-3.54,-5.67,67.81,86.64,29.66824000000001
2023-03-23 22-29-44-971659,0,0,1553,1447,-0.176,-12.75,9.14,0.26,-3.51,-5.75,67.82,86.56,29.588240000000013
2023-03-23 22-29-45-005012,0,0,1553,1447,-0.176,-12.75,9.16,0.27,-3.68,-5.85,67.82,86.47,29.49824000000001
2023-03-23 22-29-45-036577,0,0,1553,1447,-0.176,-12.75,9.14,0.3,-3.77,-5.95,67.84,86.38,29.408240000000006
2023-03-23 22-29-45-070310,0,0,1553,1447,-0.176,-12.662,9.15,0.34,-3.77,-6.06,67.86,86.27,29.298240000000007
2023-03-23 22-29-45-100202,0,0,1553,1447,-0.176,-12.75,9.18,0.32,-3.65,-6.19,67.88,86.16,29.188240000000008
2023-03-23 22-29-45-125652,0,0,1553,1447,-0.176,-12.75,9.17,0.35,-3.54,-6.3,67.89,86.06,29.088240000000013
2023-03-23 22-29-45-160552,0,0,1553,1447,-0.176,-12.75,9.16,0.37,-3.58,-6.41,67.9,85.96,28.988240000000005
2023-03-23 22-29-45-190408,0,0,1553,1447,-0.176,-12.75,9.13,0.37,-3.69,-6.51,67.9,85.87,28.898240000000015
2023-03-23 22-29-45-207062,0,0,1553,1447,-0.176,-12.75,9.14,0.36,-3.68,-6.6,67.9,85.79,28.818240000000017
2023-03-23 22-29-45-236900,0,0,1552,1448,-0.176,-12.75,9.17,0.39,-3.71,-6.7,67.89,85.71,28.738240000000005
2023-03-23 22-29-45-254839,0,0,1552,1448,-0.176,-12.75,9.24,0.39,-3.73,-6.77,67.88,85.63,28.658240000000006
2023-03-23 22-29-45-286385,0,0,1552,1448,-0.176,-12.75,9.25,0.49,-3.7,-6.84,67.89,85.57,28.598240000000004
2023-03-23 22-29-45-303523,0,0,1552,1448,-0.176,-12.75,9.27,0.38,-3.61,-6.91,67.9,85.5,28.52824000000001
2023-03-23 22-29-45-337162,0,0,1552,1448,-0.176,-12.75,9.26,0.42,-3.48,-6.96,67.93,85.44,28.46824000000001
2023-03-23 22-29-45-365709,0,0,1552,1448,-0.176,-12.75,9.27,0.39,-3.43,-7.0,67.96,85.38,28.408240000000006
2023-03-23 22-29-45-381378,0,0,1552,1448,-0.088,-12.75,9.25,0.38,-3.5,-7.03,68.0,85.34,28.368240000000014
2023-03-23 22-29-45-398314,0,0,1552,1448,-0.176,-12.75,9.2,0.42,-3.56,-7.05,68.04,85.3,28.328240000000008
2023-03-23 22-29-45-429251,0,0,1552,1448,-0.176,-12.75,9.17,0.46,-3.65,-7.05,68.09,85.27,28.298240000000007
2023-03-23 22-29-45-445201,0,0,1552,1448,-0.176,-12.75,9.11,0.48,-3.57,-7.04,68.13,85.26,28.288240000000016
2023-03-23 22-29-45-461925,0,0,1552,1448,-0.176,-12.75,9.06,0.46,-3.6,-7.01,68.17,85.25,28.27824000000001
2023-03-23 22-29-45-478892,0,0,1552,1448,-0.176,-12.75,9.05,0.56,-3.73,-6.97,68.2,85.26,28.288240000000016
2023-03-23 22-29-45-494728,0,0,1552,1448,-0.176,-12.75,9.05,0.47,-3.67,-6.92,68.23,85.29,28.318240000000017
2023-03-23 22-29-45-509330,0,0,1552,1448,-0.176,-12.75,9.05,0.49,-3.62,-6.85,68.24,85.32,28.348240000000004
2023-03-23 22-29-45-524707,0,0,1552,1448,-0.176,-12.75,9.07,0.46,-3.52,-6.77,68.24,85.38,28.408240000000006
2023-03-23 22-29-45-542537,0,0,1552,1448,-0.176,-12.75,9.07,0.43,-3.6,-6.7,68.24,85.43,28.458240000000018
2023-03-23 22-29-45-557882,0,0,1552,1448,-0.176,-12.75,9.08,0.4,-3.65,-6.61,68.24,85.5,28.52824000000001
2023-03-23 22-29-45-576794,0,0,1552,1448,-0.176,-12.75,9.08,0.41,-3.72,-6.52,68.25,85.58,28.60824000000001
2023-03-23 22-29-45-607476,0,0,1552,1448,-0.176,-12.662,9.08,0.39,-3.74,-6.45,68.26,85.66,28.688240000000008
2023-03-23 22-29-45-638117,0,0,1553,1447,-0.176,-12.75,9.05,0.39,-3.68,-6.36,68.26,85.75,28.77824000000001
2023-03-23 22-29-45-654419,0,0,1553,1447,-0.176,-12.75,9.01,0.5,-3.75,-6.29,68.24,85.84,28.868240000000014
2023-03-23 22-29-45-670637,0,0,1553,1447,-0.176,-12.75,9.0,0.4,-3.69,-6.2,68.22,85.94,28.96824000000001
2023-03-23 22-29-45-702619,0,0,1553,1447,-0.176,-12.75,8.98,0.43,-3.63,-6.12,68.2,86.04,29.068240000000017
2023-03-23 22-29-45-732964,0,0,1553,1447,-0.176,-12.75,9.0,0.37,-3.51,-6.05,68.17,86.12,29.148240000000015
2023-03-23 22-29-45-749796,0,0,1553,1447,-0.176,-12.75,8.99,0.31,-3.4,-5.99,68.16,86.2,29.228240000000014
2023-03-23 22-29-45-765844,0,0,1553,1447,-0.176,-12.75,9.0,0.25,-3.47,-5.94,68.15,86.26,29.288240000000016
2023-03-23 22-29-45-780717,0,0,1553,1447,-0.176,-12.75,9.03,0.24,-3.62,-5.89,68.15,86.33,29.35824000000001
2023-03-23 22-29-45-798994,0,0,1553,1447,-0.176,-12.75,9.02,0.25,-3.58,-5.85,68.15,86.39,29.41824000000001
2023-03-23 22-29-45-816410,0,0,1553,1447,-0.176,-12.75,9.02,0.22,-3.55,-5.81,68.15,86.44,29.46824000000001
2023-03-23 22-29-45-846214,0,0,1553,1447,-0.176,-12.75,9.0,0.36,-3.69,-5.77,68.15,86.49,29.518240000000006
2023-03-23 22-29-45-861116,0,0,1553,1447,-0.176,-12.75,9.0,0.35,-3.64,-5.74,68.15,86.53,29.558240000000012
2023-03-23 22-29-45-880688,0,0,1553,1447,-0.176,-12.75,9.0,0.41,-3.56,-5.72,68.16,86.56,29.588240000000013
2023-03-23 22-29-45-910153,0,0,1553,1447,-0.176,-12.75,9.01,0.38,-3.43,-5.7,68.17,86.57,29.598240000000004
2023-03-23 22-29-45-925174,0,0,1553,1447,-0.176,-12.75,9.06,0.37,-3.46,-5.68,68.19,86.58,29.60824000000001
2023-03-23 22-29-45-946044,0,0,1553,1447,-0.176,-12.75,9.09,0.33,-3.61,-5.66,68.21,86.6,29.628240000000005
2023-03-23 22-29-45-974278,0,0,1553,1447,-0.176,-12.75,9.08,0.3,-3.67,-5.63,68.23,86.61,29.63824000000001
2023-03-23 22-29-45-988809,0,0,1553,1447,-0.176,-12.75,9.05,0.28,-3.67,-5.6,68.24,86.63,29.658240000000006
2023-03-23 22-29-46-006444,0,0,1553,1447,-0.176,-12.75,9.04,0.27,-3.68,-5.58,68.25,86.64,29.66824000000001
2023-03-23 22-29-46-022888,0,0,1553,1447,-0.176,-12.75,8.97,0.39,-3.71,-5.56,68.25,86.64,29.66824000000001
2023-03-23 22-29-46-037234,0,0,1553,1447,-0.176,-12.75,8.93,0.39,-3.74,-5.53,68.24,86.65,29.678240000000017
2023-03-23 22-29-46-052379,0,0,1553,1447,-0.176,-12.75,8.9,0.42,-3.74,-5.51,68.23,86.66,29.688240000000008
2023-03-23 22-29-46-069884,0,0,1553,1447,-0.176,-12.75,8.91,0.4,-3.62,-5.48,68.21,86.66,29.688240000000008
2023-03-23 22-29-46-086082,0,0,1553,1447,-0.176,-12.75,8.91,0.33,-3.55,-5.47,68.19,86.65,29.678240000000017
2023-03-23 22-29-46-100366,0,0,1553,1447,-0.176,-12.75,8.96,0.27,-3.65,-5.46,68.17,86.65,29.678240000000017
2023-03-23 22-29-46-117026,0,0,1553,1447,-0.176,-12.75,9.02,0.23,-3.77,-5.45,68.15,86.64,29.66824000000001
2023-03-23 22-29-46-132743,0,0,1553,1447,-0.176,-12.75,9.05,0.22,-3.84,-5.45,68.12,86.63,29.658240000000006
2023-03-23 22-29-46-150264,0,0,1553,1447,-0.176,-12.75,9.02,0.25,-3.6,-5.44,68.1,86.62,29.648240000000015
2023-03-23 22-29-46-166676,0,0,1553,1447,-0.176,-12.75,8.98,0.32,-3.41,-5.46,68.09,86.59,29.618240000000014
2023-03-23 22-29-46-196022,0,0,1553,1447,-0.176,-12.75,8.96,0.37,-3.4,-5.48,68.09,86.55,29.578240000000008
2023-03-23 22-29-46-214397,0,0,1553,1447,-0.176,-12.75,8.97,0.36,-3.43,-5.52,68.1,86.49,29.518240000000006
2023-03-23 22-29-46-230130,0,0,1553,1447,-0.176,-12.75,8.99,0.39,-3.38,-5.56,68.12,86.43,29.458240000000018
2023-03-23 22-29-46-244984,0,0,1553,1447,-0.176,-12.75,9.01,0.36,-3.46,-5.59,68.15,86.37,29.398240000000015
2023-03-23 22-29-46-261303,0,0,1553,1447,-0.176,-12.75,8.99,0.34,-3.52,-5.61,68.17,86.32,29.348240000000004
2023-03-23 22-29-46-276191,0,0,1553,1447,-0.176,-12.75,8.98,0.33,-3.63,-5.65,68.18,86.26,29.288240000000016
2023-03-23 22-29-46-293800,0,0,1553,1447,-0.176,-12.75,8.99,0.3,-3.72,-5.67,68.19,86.22,29.24824000000001
2023-03-23 22-29-46-310138,0,0,1553,1447,-0.176,-12.75,9.04,0.33,-3.7,-5.7,68.2,86.18,29.208240000000018
2023-03-23 22-29-46-325793,0,0,1553,1447,-0.176,-12.75,9.09,0.35,-3.79,-5.71,68.21,86.16,29.188240000000008
2023-03-23 22-29-46-340424,0,0,1553,1447,-0.176,-12.75,9.09,0.36,-3.75,-5.74,68.21,86.13,29.158240000000006
2023-03-23 22-29-46-357542,0,0,1553,1447,-0.176,-12.75,9.08,0.37,-3.72,-5.75,68.2,86.11,29.13824000000001
2023-03-23 22-29-46-373392,0,0,1553,1447,-0.176,-12.75,9.06,0.43,-3.59,-5.76,68.19,86.08,29.10824000000001
2023-03-23 22-29-46-389658,0,0,1553,1447,-0.176,-12.75,9.05,0.43,-3.45,-5.76,68.17,86.06,29.088240000000013
2023-03-23 22-29-46-404756,0,0,1553,1447,-0.176,-12.75,9.04,0.43,-3.44,-5.74,68.16,86.06,29.088240000000013
2023-03-23 22-29-46-420473,0,0,1553,1447,-0.176,-12.75,9.04,0.43,-3.58,-5.74,68.14,86.05,29.078240000000008
2023-03-23 22-29-46-437993,0,0,1553,1447,-0.176,-12.75,9.07,0.42,-3.57,-5.73,68.13,86.04,29.068240000000017
2023-03-23 22-29-46-455314,0,0,1553,1447,-0.176,-12.75,9.13,0.38,-3.64,-5.7,68.11,86.05,29.078240000000008
2023-03-23 22-29-46-485008,0,0,1553,1447,-0.176,-12.75,9.17,0.39,-3.71,-5.68,68.1,86.07,29.098240000000004
2023-03-23 22-29-46-500386,0,0,1553,1447,-0.176,-12.75,9.18,0.4,-3.63,-5.65,68.09,86.09,29.118240000000014
2023-03-23 22-29-46-518585,0,0,1553,1447,-0.176,-12.75,9.18,0.38,-3.62,-5.63,68.09,86.11,29.13824000000001
2023-03-23 22-29-46-532942,0,0,1553,1447,-0.176,-12.75,9.11,0.39,-3.46,-5.59,68.09,86.14,29.16824000000001
2023-03-23 22-29-46-548934,0,0,1553,1447,-0.176,-12.75,9.06,0.32,-3.46,-5.56,68.09,86.16,29.188240000000008
2023-03-23 22-29-46-564334,0,0,1553,1447,-0.176,-12.662,9.05,0.32,-3.47,-5.52,68.1,86.18,29.208240000000018
2023-03-23 22-29-46-582294,0,0,1553,1447,-0.176,-12.75,9.06,0.29,-3.54,-5.47,68.11,86.22,29.24824000000001
2023-03-23 22-29-46-597681,0,0,1553,1447,-0.176,-12.75,9.07,0.28,-3.52,-5.42,68.12,86.25,29.27824000000001
2023-03-23 22-29-46-612227,0,0,1553,1447,-0.176,-12.75,9.08,0.22,-3.5,-5.37,68.14,86.28,29.308240000000012
2023-03-23 22-29-46-629255,0,0,1553,1447,-0.176,-12.75,9.1,0.31,-3.64,-5.34,68.17,86.3,29.328240000000008
2023-03-23 22-29-46-644633,0,0,1553,1447,-0.176,-12.75,9.08,0.31,-3.68,-5.29,68.2,86.34,29.368240000000014
2023-03-23 22-29-46-661181,0,0,1553,1447,-0.176,-12.75,9.11,0.29,-3.67,-5.24,68.23,86.37,29.398240000000015
2023-03-23 22-29-46-679717,0,0,1553,1447,-0.176,-12.75,9.13,0.32,-3.66,-5.2,68.26,86.39,29.41824000000001
2023-03-23 22-29-46-708168,0,0,1553,1447,-0.176,-12.75,9.11,0.31,-3.6,-5.16,68.28,86.41,29.438240000000008
2023-03-23 22-29-46-724675,0,0,1553,1447,-0.176,-12.75,9.09,0.3,-3.61,-5.13,68.29,86.42,29.448240000000013
2023-03-23 22-29-46-741110,0,0,1553,1447,-0.176,-12.75,9.08,0.31,-3.62,-5.1,68.3,86.44,29.46824000000001
2023-03-23 22-29-46-757817,0,0,1553,1447,-0.176,-12.75,9.05,0.29,-3.58,-5.08,68.3,86.44,29.46824000000001
2023-03-23 22-29-46-772752,0,0,1553,1447,-0.176,-12.75,9.08,0.26,-3.57,-5.07,68.31,86.42,29.448240000000013
2023-03-23 22-29-46-788444,0,0,1553,1447,-0.176,-12.75,9.05,0.28,-3.64,-5.07,68.31,86.41,29.438240000000008
2023-03-23 22-29-46-805411,0,0,1553,1447,-0.176,-12.75,9.03,0.28,-3.62,-5.07,68.33,86.39,29.41824000000001
2023-03-23 22-29-46-820880,0,0,1553,1447,-0.176,-12.75,9.01,0.24,-3.62,-5.09,68.34,86.36,29.38824000000001
2023-03-23 22-29-46-836406,0,0,1553,1447,-0.176,-12.75,9.01,0.22,-3.54,-5.12,68.34,86.32,29.348240000000004
2023-03-23 22-29-46-853499,0,0,1553,1447,-0.176,-12.75,9.02,0.23,-3.43,-5.15,68.35,86.27,29.298240000000007
2023-03-23 22-29-46-885264,0,0,1553,1447,-0.176,-12.75,9.04,0.24,-3.46,-5.19,68.37,86.22,29.24824000000001
2023-03-23 22-29-46-901223,0,0,1553,1447,-0.176,-12.75,9.06,0.25,-3.46,-5.24,68.38,86.15,29.178240000000017
2023-03-23 22-29-46-916479,0,0,1553,1447,-0.176,-12.75,9.08,0.27,-3.58,-5.3,68.41,86.09,29.118240000000014
2023-03-23 22-29-46-934078,0,0,1553,1447,-0.176,-12.75,9.11,0.26,-3.59,-5.36,68.42,86.01,29.038240000000016
2023-03-23 22-29-46-949945,0,0,1553,1447,-0.176,-12.662,9.08,0.31,-3.59,-5.43,68.45,85.92,28.948240000000013
2023-03-23 22-29-46-965665,0,0,1553,1447,-0.176,-12.75,9.09,0.27,-3.51,-5.5,68.48,85.83,28.85824000000001
2023-03-23 22-29-46-980739,0,0,1552,1448,-0.176,-12.75,9.12,0.28,-3.41,-5.58,68.51,85.73,28.758240000000015
2023-03-23 22-29-46-998993,0,0,1552,1448,-0.176,-12.75,9.14,0.29,-3.44,-5.65,68.55,85.63,28.658240000000006
2023-03-23 22-29-47-028588,0,0,1552,1448,-0.176,-12.75,9.17,0.3,-3.56,-5.72,68.59,85.54,28.568240000000017
2023-03-23 22-29-47-044317,0,0,1552,1448,-0.176,-12.75,9.18,0.31,-3.62,-5.8,68.63,85.45,28.478240000000014
2023-03-23 22-29-47-062051,0,0,1552,1448,-0.176,-12.75,9.16,0.28,-3.61,-5.87,68.67,85.35,28.378240000000005
2023-03-23 22-29-47-076377,0,0,1552,1448,-0.176,-12.75,9.13,0.29,-3.51,-5.92,68.7,85.26,28.288240000000016
2023-03-23 22-29-47-092664,0,0,1552,1448,-0.176,-12.75,9.13,0.24,-3.44,-5.98,68.74,85.17,28.198240000000013
2023-03-23 22-29-47-109568,0,0,1552,1448,-0.176,-12.75,9.14,0.3,-3.47,-6.03,68.78,85.09,28.118240000000014
2023-03-23 22-29-47-125564,0,0,1552,1448,-0.176,-12.75,9.14,0.27,-3.37,-6.1,68.84,84.98,28.008240000000015
2023-03-23 22-29-47-140991,0,0,1552,1448,-0.176,-12.75,9.17,0.28,-3.39,-6.14,68.89,84.89,27.91824000000001
2023-03-23 22-29-47-156354,0,0,1552,1448,-0.176,-12.662,9.17,0.31,-3.33,-6.19,68.95,84.8,27.828240000000008
2023-03-23 22-29-47-189577,0,0,1552,1448,-0.176,-12.662,9.17,0.31,-3.41,-6.24,69.0,84.72,27.74824000000001
2023-03-23 22-29-47-206203,0,0,1552,1448,-0.176,-12.75,9.19,0.33,-3.49,-6.28,69.07,84.63,27.658240000000006
2023-03-23 22-29-47-220305,0,0,1552,1448,-0.176,-12.75,9.17,0.32,-3.44,-6.33,69.13,84.54,27.568240000000017
2023-03-23 22-29-47-237455,0,0,1551,1449,-0.176,-12.75,9.18,0.35,-3.43,-6.37,69.18,84.46,27.488240000000005
2023-03-23 22-29-47-252413,0,0,1551,1449,-0.176,-12.75,9.13,0.3,-3.36,-6.4,69.24,84.38,27.408240000000006
2023-03-23 22-29-47-286785,0,0,1551,1449,-0.176,-12.75,9.11,0.38,-3.38,-6.45,69.3,84.3,27.328240000000008
2023-03-23 22-29-47-301010,0,0,1551,1449,-0.176,-12.75,9.07,0.38,-3.36,-6.49,69.35,84.21,27.238240000000005
2023-03-23 22-29-47-317150,0,0,1551,1449,-0.176,-12.75,9.09,0.35,-3.3,-6.55,69.4,84.11,27.13824000000001
2023-03-23 22-29-47-333414,0,0,1551,1449,-0.176,-12.75,9.13,0.29,-3.29,-6.61,69.44,84.02,27.048240000000007
2023-03-23 22-29-47-348145,0,0,1551,1449,-0.176,-12.75,9.18,0.27,-3.37,-6.69,69.49,83.91,26.938240000000008
2023-03-23 22-29-47-365766,0,0,1551,1449,-0.176,-12.75,9.23,0.25,-3.34,-6.78,69.54,83.79,26.818240000000017
2023-03-23 22-29-47-382436,0,0,1551,1449,-0.176,-12.75,9.29,0.25,-3.36,-6.9,69.61,83.64,26.66824000000001
2023-03-23 22-29-47-412140,0,0,1551,1449,-0.176,-12.75,9.3,0.26,-3.36,-7.04,69.68,83.48,26.508240000000015
2023-03-23 22-29-47-429444,0,0,1551,1449,-0.176,-12.75,9.27,0.25,-3.31,-7.21,69.75,83.31,26.338240000000013
2023-03-23 22-29-47-446182,0,0,1550,1450,-0.176,-12.75,9.2,0.34,-3.22,-7.39,69.82,83.11,26.13824000000001
2023-03-23 22-29-47-461510,0,0,1550,1450,-0.176,-12.75,9.17,0.37,-3.1,-7.59,69.91,82.89,25.91824000000001
2023-03-23 22-29-47-476629,0,0,1550,1450,-0.176,-12.75,9.16,0.37,-2.95,-7.81,70.01,82.65,25.678240000000017
2023-03-23 22-29-47-492778,0,0,1550,1450,-0.176,-12.75,9.16,0.39,-2.95,-8.06,70.12,82.39,25.41824000000001
2023-03-23 22-29-47-508380,0,0,1550,1450,-0.176,-12.75,9.14,0.38,-3.07,-8.32,70.24,82.11,25.13824000000001
2023-03-23 22-29-47-526704,0,0,1549,1451,-0.176,-12.75,9.14,0.38,-3.05,-8.61,70.36,81.82,24.848240000000004
2023-03-23 22-29-47-542042,0,0,1549,1451,-0.176,-12.75,9.16,0.41,-3.03,-8.9,70.49,81.52,24.548240000000007
2023-03-23 22-29-47-556311,0,0,1549,1451,-0.176,-12.75,9.18,0.45,-3.06,-9.22,70.62,81.19,24.21824000000001
2023-03-23 22-29-47-572236,0,0,1549,1451,-0.176,-12.75,9.22,0.45,-3.13,-9.56,70.74,80.85,23.878240000000005
2023-03-23 22-29-47-589469,0,0,1548,1452,-0.176,-12.75,9.25,0.53,-3.22,-9.9,70.86,80.52,23.548240000000007
2023-03-23 22-29-47-604658,0,0,1548,1452,-0.176,-12.75,9.24,0.56,-3.01,-10.26,70.97,80.16,23.188240000000008
2023-03-23 22-29-47-620299,0,0,1548,1452,-0.176,-12.75,9.22,0.6,-2.85,-10.64,71.11,79.78,22.808240000000012
2023-03-23 22-29-47-636948,0,0,1547,1453,-0.264,-12.75,9.26,0.64,-2.93,-11.03,71.25,79.39,22.41824000000001
2023-03-23 22-29-47-654757,0,0,1547,1453,-0.176,-12.75,9.3,0.69,-3.04,-11.42,71.39,79.01,22.038240000000016
2023-03-23 22-29-47-671147,0,0,1547,1453,-0.176,-12.75,9.27,0.72,-3.11,-11.83,71.52,78.6,21.628240000000005
2023-03-23 22-29-47-706405,0,0,1546,1454,-0.176,-12.75,9.24,0.75,-3.04,-12.23,71.64,78.2,21.228240000000014
2023-03-23 22-29-47-734139,0,0,1546,1454,-0.176,-12.75,9.24,0.79,-3.01,-12.63,71.76,77.8,20.828240000000008
2023-03-23 22-29-47-752820,0,0,1546,1454,-0.176,-12.75,9.23,0.8,-2.89,-13.01,71.86,77.42,20.448240000000013
2023-03-23 22-29-47-786333,0,0,1546,1454,-0.176,-12.75,9.29,0.81,-2.91,-13.39,71.97,77.04,20.068240000000017
2023-03-23 22-29-47-816948,0,0,1545,1455,-0.176,-12.75,9.32,0.81,-2.9,-13.74,72.08,76.69,19.71824000000001
2023-03-23 22-29-47-851648,0,0,1545,1455,-0.176,-12.75,9.35,0.84,-2.98,-14.09,72.18,76.35,19.378240000000005
2023-03-23 22-29-47-880884,0,0,1545,1455,-0.176,-12.75,9.36,0.81,-3.07,-14.42,72.27,76.03,19.058240000000012
2023-03-23 22-29-47-914003,0,0,1545,1455,-0.176,-12.75,9.32,0.86,-3.09,-14.72,72.36,75.76,18.788240000000016
2023-03-23 22-29-47-946751,0,0,1544,1456,-0.176,-12.75,9.25,0.9,-3.1,-14.98,72.43,75.52,18.548240000000007
2023-03-23 22-29-47-977522,0,0,1544,1456,-0.176,-12.75,9.19,0.88,-2.93,-15.22,72.49,75.31,18.338240000000013
2023-03-23 22-29-48-011687,0,0,1544,1456,-0.088,-12.75,9.2,0.87,-2.94,-15.43,72.55,75.12,18.148240000000015
2023-03-23 22-29-48-047246,0,0,1544,1456,-0.176,-12.75,9.24,0.84,-2.93,-15.58,72.6,75.0,18.02824000000001
2023-03-23 22-29-48-068502,0,0,1544,1456,-0.176,-12.75,9.27,0.84,-2.97,-15.71,72.64,74.9,17.928240000000017
2023-03-23 22-29-48-085832,0,0,1544,1456,-0.176,-12.75,9.31,0.82,-2.92,-15.81,72.69,74.85,17.878240000000005
2023-03-23 22-29-48-102489,0,0,1544,1456,-0.176,-12.75,9.32,0.8,-2.78,-15.87,72.75,74.81,17.838240000000013
2023-03-23 22-29-48-132264,0,0,1544,1456,-0.176,-12.75,9.32,0.8,-2.82,-15.92,72.82,74.8,17.828240000000008
2023-03-23 22-29-48-149032,0,0,1544,1456,-0.176,-12.75,9.31,0.8,-2.88,-15.94,72.88,74.82,17.848240000000004
2023-03-23 22-29-48-165436,0,0,1544,1456,-0.176,-12.75,9.32,0.8,-2.83,-15.92,72.95,74.87,17.898240000000015
2023-03-23 22-29-48-182906,0,0,1544,1456,-0.176,-12.75,9.33,0.76,-2.77,-15.86,73.01,74.95,17.978240000000014
2023-03-23 22-29-48-211961,0,0,1544,1456,-0.176,-12.75,9.37,0.75,-2.74,-15.78,73.09,75.04,18.068240000000017
2023-03-23 22-29-48-231214,0,0,1544,1456,-0.176,-12.662,9.4,0.69,-2.68,-15.67,73.16,75.17,18.198240000000013
2023-03-23 22-29-48-260552,0,0,1544,1456,-0.176,-12.75,9.42,0.73,-2.76,-15.54,73.24,75.31,18.338240000000013
2023-03-23 22-29-48-276230,0,0,1544,1456,-0.176,-12.75,9.46,0.74,-2.7,-15.4,73.31,75.45,18.478240000000014
2023-03-23 22-29-48-293212,0,0,1544,1456,-0.176,-12.75,9.48,0.77,-2.68,-15.24,73.37,75.6,18.628240000000005
2023-03-23 22-29-48-308247,0,0,1545,1455,-0.176,-12.75,9.48,0.73,-2.72,-15.06,73.43,75.79,18.818240000000017
2023-03-23 22-29-48-341612,0,0,1545,1455,-0.176,-12.75,9.41,0.71,-2.76,-14.89,73.48,75.97,18.99824000000001
2023-03-23 22-29-48-362896,0,0,1545,1455,-0.176,-12.75,9.35,0.68,-2.72,-14.7,73.55,76.14,19.16824000000001
2023-03-23 22-29-48-388806,0,0,1545,1455,-0.176,-12.75,9.33,0.63,-2.64,-14.5,73.6,76.33,19.35824000000001
2023-03-23 22-29-48-404061,0,0,1545,1455,-0.176,-12.75,9.34,0.64,-2.52,-14.31,73.65,76.5,19.52824000000001
2023-03-23 22-29-48-421095,0,0,1545,1455,-0.176,-12.75,9.39,0.56,-2.5,-14.13,73.7,76.68,19.708240000000018
2023-03-23 22-29-48-436408,0,0,1545,1455,-0.176,-12.662,9.43,0.62,-2.77,-13.96,73.76,76.84,19.868240000000014
2023-03-23 22-29-48-453352,0,0,1546,1454,-0.176,-12.75,9.46,0.6,-2.82,-13.8,73.81,76.99,20.018240000000006
2023-03-23 22-29-48-482735,0,0,1546,1454,-0.176,-12.75,9.45,0.58,-2.68,-13.67,73.86,77.12,20.148240000000015
2023-03-23 22-29-48-506723,0,0,1546,1454,-0.176,-12.75,9.44,0.56,-2.53,-13.54,73.92,77.24,20.268240000000006
2023-03-23 22-29-48-537190,0,0,1546,1454,-0.176,-12.75,9.41,0.55,-2.52,-13.43,73.97,77.35,20.378240000000005
2023-03-23 22-29-48-570362,0,0,1546,1454,-0.176,-12.75,9.41,0.58,-2.55,-13.33,74.0,77.44,20.46824000000001
2023-03-23 22-29-48-601187,0,0,1546,1454,-0.176,-12.75,9.46,0.62,-2.69,-13.24,74.02,77.55,20.578240000000008
2023-03-23 22-29-48-633578,0,0,1546,1454,-0.176,-12.75,9.52,0.62,-2.73,-13.17,74.04,77.62,20.648240000000015
2023-03-23 22-29-48-665334,0,0,1546,1454,-0.176,-12.75,9.56,0.66,-2.68,-13.1,74.05,77.7,20.728240000000014
2023-03-23 22-29-48-698497,0,0,1546,1454,-0.176,-12.75,9.6,0.64,-2.72,-13.05,74.06,77.76,20.788240000000016
2023-03-23 22-29-48-730183,0,0,1546,1454,-0.176,-12.75,9.55,0.66,-2.68,-13.01,74.07,77.8,20.828240000000008
2023-03-23 22-29-48-763739,0,0,1546,1454,-0.176,-12.75,9.49,0.57,-2.69,-13.0,74.09,77.83,20.85824000000001
2023-03-23 22-29-48-795817,0,0,1546,1454,-0.176,-12.75,9.44,0.56,-2.57,-12.97,74.1,77.85,20.878240000000005
2023-03-23 22-29-48-826843,0,0,1546,1454,-0.176,-12.75,9.41,0.52,-2.52,-12.94,74.11,77.87,20.898240000000015
2023-03-23 22-29-48-858083,0,0,1546,1454,-0.176,-12.75,9.4,0.51,-2.53,-12.92,74.11,77.89,20.91824000000001
2023-03-23 22-29-48-889782,0,0,1546,1454,-0.176,-12.75,9.43,0.54,-2.52,-12.89,74.12,77.9,20.928240000000017
2023-03-23 22-29-48-921830,0,0,1546,1454,-0.176,-12.75,9.49,0.55,-2.52,-12.87,74.13,77.9,20.928240000000017
2023-03-23 22-29-48-954519,0,0,1546,1454,-0.176,-12.75,9.55,0.6,-2.51,-12.86,74.16,77.87,20.898240000000015
2023-03-23 22-29-48-985805,0,0,1546,1454,-0.176,-12.75,9.54,0.61,-2.58,-12.88,74.19,77.83,20.85824000000001
2023-03-23 22-29-49-012162,0,0,1546,1454,-0.176,-12.75,9.49,0.63,-2.62,-12.89,74.21,77.78,20.808240000000012
2023-03-23 22-29-49-030489,0,0,1546,1454,-0.176,-12.75,9.4,0.55,-2.5,-12.92,74.24,77.72,20.74824000000001
2023-03-23 22-29-49-061761,0,0,1546,1454,-0.176,-12.75,9.39,0.54,-2.44,-12.94,74.27,77.64,20.66824000000001
2023-03-23 22-29-49-078646,0,0,1546,1454,-0.176,-12.75,9.42,0.47,-2.44,-12.98,74.29,77.56,20.588240000000013
2023-03-23 22-29-49-093486,0,0,1546,1454,-0.176,-12.75,9.47,0.49,-2.52,-13.01,74.31,77.47,20.49824000000001
2023-03-23 22-29-49-116015,0,0,1546,1454,-0.176,-12.75,9.51,0.53,-2.65,-13.07,74.33,77.39,20.41824000000001
2023-03-23 22-29-49-145590,0,0,1546,1454,-0.176,-12.75,9.52,0.55,-2.63,-13.13,74.36,77.28,20.308240000000012
2023-03-23 22-29-49-177299,0,0,1546,1454,-0.176,-12.75,9.5,0.62,-2.51,-13.22,74.39,77.16,20.188240000000008
2023-03-23 22-29-49-209719,0,0,1546,1454,-0.176,-12.75,9.46,0.65,-2.53,-13.31,74.42,77.03,20.058240000000012
2023-03-23 22-29-49-240072,0,0,1545,1455,-0.176,-12.662,9.41,0.63,-2.46,-13.41,74.45,76.89,19.91824000000001
2023-03-23 22-29-49-267937,0,0,1545,1455,-0.176,-12.75,9.37,0.54,-2.54,-13.52,74.47,76.75,19.77824000000001
2023-03-23 22-29-49-283852,0,0,1545,1455,-0.176,-12.75,9.38,0.57,-2.5,-13.62,74.48,76.61,19.63824000000001
2023-03-23 22-29-49-300700,0,0,1545,1455,-0.176,-12.75,9.41,0.54,-2.47,-13.7,74.5,76.49,19.518240000000006
2023-03-23 22-29-49-317297,0,0,1545,1455,-0.176,-12.75,9.46,0.6,-2.5,-13.8,74.52,76.36,19.38824000000001
2023-03-23 22-29-49-333258,0,0,1545,1455,-0.176,-12.662,9.46,0.63,-2.5,-13.88,74.54,76.23,19.258240000000015
2023-03-23 22-29-49-348157,0,0,1545,1455,-0.176,-12.75,9.43,0.64,-2.52,-13.96,74.57,76.12,19.148240000000015
2023-03-23 22-29-49-369287,0,0,1545,1455,-0.176,-12.75,9.42,0.66,-2.49,-14.04,74.59,76.01,19.038240000000016
2023-03-23 22-29-49-396157,0,0,1545,1455,-0.176,-12.75,9.36,0.65,-2.49,-14.11,74.61,75.9,18.928240000000017
2023-03-23 22-29-49-412344,0,0,1545,1455,-0.176,-12.75,9.33,0.66,-2.52,-14.19,74.63,75.8,18.828240000000008
2023-03-23 22-29-49-428720,0,0,1544,1456,-0.176,-12.75,9.28,0.59,-2.57,-14.24,74.65,75.72,18.74824000000001
2023-03-23 22-29-49-445495,0,0,1544,1456,-0.176,-12.662,9.26,0.64,-2.58,-14.28,74.66,75.66,18.688240000000008
2023-03-23 22-29-49-460003,0,0,1544,1456,-0.176,-12.75,9.31,0.59,-2.54,-14.27,74.65,75.63,18.658240000000006
2023-03-23 22-29-49-476082,0,0,1544,1456,-0.176,-12.75,9.4,0.62,-2.6,-14.27,74.64,75.61,18.63824000000001
2023-03-23 22-29-49-492231,0,0,1544,1456,-0.176,-12.75,9.47,0.65,-2.72,-14.24,74.63,75.64,18.66824000000001
2023-03-23 22-29-49-509048,0,0,1544,1456,-0.176,-12.75,9.47,0.68,-2.72,-14.22,74.62,75.65,18.678240000000017
2023-03-23 22-29-49-524713,0,0,1544,1456,-0.176,-12.75,9.46,0.71,-2.54,-14.18,74.62,75.68,18.708240000000018
2023-03-23 22-29-49-540003,0,0,1545,1455,-0.176,-12.75,9.37,0.68,-2.45,-14.12,74.62,75.73,18.758240000000015
2023-03-23 22-29-49-557211,0,0,1545,1455,-0.176,-12.75,9.3,0.58,-2.32,-14.06,74.63,75.78,18.808240000000012
2023-03-23 22-29-49-572680,0,0,1545,1455,-0.176,-12.75,9.24,0.59,-2.5,-13.96,74.63,75.86,18.88824000000001
2023-03-23 22-29-49-588763,0,0,1545,1455,-0.176,-12.75,9.27,0.59,-2.6,-13.84,74.61,75.96,18.988240000000005
2023-03-23 22-29-49-606050,0,0,1545,1455,-0.176,-12.75,9.33,0.61,-2.57,-13.7,74.58,76.08,19.10824000000001
2023-03-23 22-29-49-620007,0,0,1545,1455,-0.176,-12.75,9.43,0.66,-2.58,-13.56,74.57,76.2,19.228240000000014
2023-03-23 22-29-49-638228,0,0,1545,1455,-0.176,-12.75,9.47,0.66,-2.54,-13.42,74.56,76.33,19.35824000000001
2023-03-23 22-29-49-652923,0,0,1545,1455,-0.176,-12.75,9.45,0.65,-2.44,-13.28,74.56,76.46,19.488240000000005
2023-03-23 22-29-49-668643,0,0,1545,1455,-0.176,-12.75,9.44,0.63,-2.32,-13.14,74.56,76.57,19.598240000000004
2023-03-23 22-29-49-684105,0,0,1545,1455,-0.176,-12.75,9.45,0.66,-2.32,-13.0,74.58,76.69,19.71824000000001
2023-03-23 22-29-49-704432,0,0,1545,1455,-0.176,-12.75,9.42,0.54,-2.21,-12.88,74.61,76.78,19.808240000000012
2023-03-23 22-29-49-732414,0,0,1545,1455,-0.176,-12.75,9.33,0.58,-2.32,-12.76,74.64,76.88,19.908240000000006
2023-03-23 22-29-49-748098,0,0,1546,1454,-0.176,-12.75,9.34,0.55,-2.39,-12.63,74.65,76.99,20.018240000000006
2023-03-23 22-29-49-766692,0,0,1546,1454,-0.176,-12.75,9.47,0.62,-2.57,-12.5,74.66,77.11,20.13824000000001
2023-03-23 22-29-49-780678,0,0,1546,1454,-0.176,-12.662,9.54,0.66,-2.65,-12.37,74.66,77.23,20.258240000000015
2023-03-23 22-29-49-796918,0,0,1546,1454,-0.176,-12.75,9.59,0.7,-2.66,-12.24,74.66,77.36,20.38824000000001
2023-03-23 22-29-49-812120,0,0,1546,1454,-0.176,-12.75,9.59,0.7,-2.63,-12.12,74.66,77.48,20.508240000000015
2023-03-23 22-29-49-827955,0,0,1546,1454,-0.176,-12.75,9.58,0.69,-2.49,-12.01,74.67,77.59,20.618240000000014
2023-03-23 22-29-49-844973,0,0,1546,1454,-0.176,-12.75,9.57,0.69,-2.5,-11.91,74.67,77.69,20.71824000000001
2023-03-23 22-29-49-860847,0,0,1546,1454,-0.176,-12.75,9.56,0.58,-2.35,-11.82,74.68,77.78,20.808240000000012
2023-03-23 22-29-49-876352,0,0,1546,1454,-0.176,-12.75,9.49,0.61,-2.46,-11.72,74.67,77.88,20.908240000000006
2023-03-23 22-29-49-893263,0,0,1546,1454,-0.176,-12.75,9.45,0.56,-2.4,-11.61,74.65,77.98,21.008240000000015
2023-03-23 22-29-49-909940,0,0,1546,1454,-0.176,-12.662,9.43,0.57,-2.37,-11.52,74.62,78.07,21.098240000000004
2023-03-23 22-29-49-924648,0,0,1546,1454,-0.176,-12.75,9.41,0.54,-2.33,-11.42,74.6,78.15,21.178240000000017
2023-03-23 22-29-49-940277,0,0,1547,1453,-0.176,-12.75,9.4,0.54,-2.32,-11.35,74.58,78.23,21.258240000000015
2023-03-23 22-29-49-956037,0,0,1547,1453,-0.176,-12.75,9.39,0.51,-2.42,-11.26,74.57,78.31,21.338240000000013
2023-03-23 22-29-49-972999,0,0,1547,1453,-0.176,-12.75,9.42,0.52,-2.43,-11.19,74.56,78.38,21.408240000000006
2023-03-23 22-29-50-004778,0,0,1547,1453,-0.176,-12.75,9.49,0.52,-2.57,-11.12,74.55,78.45,21.478240000000014
2023-03-23 22-29-50-020012,0,0,1547,1453,-0.176,-12.75,9.53,0.45,-2.51,-11.05,74.55,78.54,21.568240000000017
2023-03-23 22-29-50-036538,0,0,1547,1453,-0.176,-12.75,9.46,0.48,-2.59,-10.99,74.55,78.62,21.648240000000015
2023-03-23 22-29-50-056881,0,0,1547,1453,-0.088,-12.75,9.45,0.49,-2.65,-10.92,74.56,78.7,21.728240000000014
2023-03-23 22-29-50-083976,0,0,1547,1453,-0.176,-12.75,9.43,0.52,-2.53,-10.86,74.56,78.77,21.798240000000007
2023-03-23 22-29-50-101520,0,0,1547,1453,-0.176,-12.75,9.37,0.57,-2.4,-10.81,74.57,78.83,21.85824000000001
2023-03-23 22-29-50-118061,0,0,1547,1453,-0.176,-12.75,9.37,0.56,-2.41,-10.78,74.59,78.88,21.908240000000006
2023-03-23 22-29-50-133786,0,0,1547,1453,-0.176,-12.75,9.37,0.53,-2.49,-10.74,74.6,78.93,21.958240000000018
2023-03-23 22-29-50-148678,0,0,1547,1453,-0.176,-12.75,9.4,0.52,-2.52,-10.73,74.61,78.96,21.988240000000005
2023-03-23 22-29-50-164152,0,0,1547,1453,-0.176,-12.75,9.39,0.51,-2.51,-10.71,74.62,79.0,22.02824000000001
2023-03-23 22-29-50-180998,0,0,1547,1453,-0.176,-12.75,9.45,0.42,-2.54,-10.68,74.62,79.05,22.078240000000008
2023-03-23 22-29-50-197332,0,0,1547,1453,-0.176,-12.75,9.47,0.4,-2.61,-10.67,74.63,79.09,22.118240000000014
2023-03-23 22-29-50-211743,0,0,1547,1453,-0.176,-12.75,9.47,0.41,-2.77,-10.65,74.62,79.14,22.16824000000001
2023-03-23 22-29-50-228223,0,0,1547,1453,-0.176,-12.75,9.46,0.46,-2.72,-10.65,74.61,79.16,22.188240000000008
2023-03-23 22-29-50-245200,0,0,1547,1453,-0.176,-12.75,9.42,0.41,-2.6,-10.65,74.59,79.19,22.21824000000001
2023-03-23 22-29-50-261744,0,0,1547,1453,-0.176,-12.75,9.42,0.37,-2.54,-10.65,74.57,79.2,22.228240000000014
2023-03-23 22-29-50-277159,0,0,1547,1453,-0.176,-12.75,9.42,0.31,-2.53,-10.65,74.55,79.22,22.24824000000001
2023-03-23 22-29-50-292755,0,0,1547,1453,-0.176,-12.75,9.42,0.29,-2.57,-10.64,74.52,79.25,22.27824000000001
2023-03-23 22-29-50-308262,0,0,1547,1453,-0.176,-12.75,9.35,0.24,-2.51,-10.61,74.49,79.29,22.318240000000017
2023-03-23 22-29-50-324150,0,0,1547,1453,-0.176,-12.75,9.32,0.24,-2.43,-10.56,74.46,79.34,22.368240000000014
2023-03-23 22-29-50-341707,0,0,1547,1453,-0.176,-12.75,9.35,0.21,-2.46,-10.51,74.43,79.41,22.438240000000008
2023-03-23 22-29-50-356281,0,0,1548,1452,-0.176,-12.75,9.39,0.16,-2.54,-10.44,74.41,79.49,22.518240000000006
2023-03-23 22-29-50-372894,0,0,1548,1452,-0.176,-12.75,9.45,0.16,-2.55,-10.37,74.41,79.55,22.578240000000008
2023-03-23 22-29-50-388128,0,0,1548,1452,-0.176,-12.75,9.47,0.11,-2.5,-10.29,74.42,79.62,22.648240000000015
2023-03-23 22-29-50-404926,0,0,1548,1452,-0.176,-12.75,9.48,0.2,-2.51,-10.2,74.45,79.7,22.728240000000014
2023-03-23 22-29-50-420015,0,0,1548,1452,-0.176,-12.75,9.46,0.19,-2.58,-10.12,74.49,79.77,22.798240000000007
2023-03-23 22-29-50-436057,0,0,1548,1452,-0.176,-12.75,9.38,0.34,-2.63,-10.02,74.54,79.84,22.868240000000014
2023-03-23 22-29-50-454219,0,0,1548,1452,-0.176,-12.75,9.34,0.23,-2.52,-9.93,74.62,79.9,22.928240000000017
2023-03-23 22-29-50-468879,0,0,1548,1452,-0.176,-12.75,9.3,0.21,-2.47,-9.81,74.71,79.98,23.008240000000015
2023-03-23 22-29-50-483991,0,0,1548,1452,-0.176,-12.75,9.25,0.14,-2.31,-9.66,74.78,80.08,23.10824000000001
2023-03-23 22-29-50-516598,0,0,1548,1452,-0.176,-12.75,9.23,0.14,-2.22,-9.48,74.84,80.2,23.228240000000014
2023-03-23 22-29-50-547845,0,0,1548,1452,-0.176,-12.75,9.27,0.16,-2.29,-9.28,74.91,80.34,23.368240000000014
2023-03-23 22-29-50-564211,0,0,1548,1452,-0.176,-12.75,9.28,0.17,-2.34,-9.07,74.99,80.47,23.49824000000001
2023-03-23 22-29-50-580641,0,0,1548,1452,-0.176,-12.75,9.31,0.14,-2.36,-8.84,75.1,80.63,23.658240000000006
2023-03-23 22-29-50-596730,0,0,1549,1451,-0.176,-12.75,9.29,0.03,-2.4,-8.61,75.23,80.8,23.828240000000008
2023-03-23 22-29-50-612349,0,0,1549,1451,-0.176,-12.75,9.33,0.13,-2.6,-8.36,75.38,81.0,24.02824000000001
2023-03-23 22-29-50-628147,0,0,1549,1451,-0.176,-12.75,9.46,0.0,-2.69,-8.07,75.54,81.24,24.268240000000006
2023-03-23 22-29-50-648786,0,0,1549,1451,-0.176,-12.75,9.55,0.04,-2.65,-7.76,75.69,81.51,24.538240000000016
2023-03-23 22-29-50-677640,0,0,1549,1451,-0.176,-12.75,9.57,0.05,-2.52,-7.43,75.83,81.8,24.828240000000008
2023-03-23 22-29-50-693843,0,0,1550,1450,-0.176,-12.75,9.53,0.05,-2.45,-7.07,75.96,82.13,25.158240000000006
2023-03-23 22-29-50-708202,0,0,1550,1450,-0.176,-12.75,9.49,0.08,-2.44,-6.69,76.08,82.47,25.49824000000001
2023-03-23 22-29-50-726912,0,0,1550,1450,-0.176,-12.75,9.46,0.13,-2.43,-6.29,76.2,82.84,25.868240000000014
2023-03-23 22-29-50-755853,0,0,1551,1449,-0.176,-12.75,9.38,0.19,-2.35,-5.87,76.32,83.21,26.238240000000005
2023-03-23 22-29-50-772038,0,0,1551,1449,-0.176,-12.75,9.32,0.14,-2.26,-5.42,76.44,83.61,26.63824000000001
2023-03-23 22-29-50-788657,0,0,1551,1449,-0.176,-12.75,9.35,0.07,-2.21,-4.93,76.56,84.05,27.078240000000008
2023-03-23 22-29-50-804734,0,0,1552,1448,-0.176,-12.75,9.38,0.1,-2.31,-4.41,76.67,84.51,27.538240000000016
2023-03-23 22-29-50-820124,0,0,1552,1448,-0.176,-12.75,9.4,0.02,-2.31,-3.86,76.76,85.01,28.038240000000016
2023-03-23 22-29-50-836547,0,0,1552,1448,-0.176,-12.75,9.4,0.05,-2.21,-3.29,76.84,85.51,28.538240000000016
2023-03-23 22-29-50-853263,0,0,1553,1447,-0.176,-12.75,9.41,0.07,-2.09,-2.69,76.91,86.04,29.068240000000017
2023-03-23 22-29-50-867985,0,0,1553,1447,-0.176,-12.75,9.43,0.04,-2.06,-2.08,76.98,86.58,29.60824000000001
2023-03-23 22-29-50-885038,0,0,1554,1446,-0.176,-12.75,9.51,-0.02,-2.06,-1.46,77.04,87.12,30.148240000000015
2023-03-23 22-29-50-900916,0,0,1554,1446,-0.176,-12.75,9.68,-0.07,-2.11,-0.82,77.11,87.69,30.71824000000001
2023-03-23 22-29-50-916061,0,0,1555,1445,-0.176,-12.75,9.84,-0.1,-2.07,-0.18,77.16,88.27,31.298240000000007
2023-03-23 22-29-50-936665,0,0,1555,1445,-0.176,-12.75,9.9,-0.11,-2.03,0.46,77.21,88.85,31.878240000000005
2023-03-23 22-29-50-964010,0,0,1556,1444,-0.176,-12.662,9.92,-0.11,-2.11,1.11,77.29,89.44,32.46824000000001
2023-03-23 22-29-50-980141,0,0,1556,1444,-0.176,-12.75,9.93,-0.05,-2.08,1.73,77.38,90.01,33.038240000000016
2023-03-23 22-29-50-997671,0,0,1556,1444,-0.176,-12.75,9.91,0.01,-2.1,2.36,77.5,90.6,33.628240000000005
2023-03-23 22-29-51-013178,0,0,1557,1443,-0.176,-12.75,9.87,-0.05,-2.06,2.98,77.62,91.18,34.20824000000002
2023-03-23 22-29-51-034101,0,0,1557,1443,-0.176,-12.75,9.77,-0.04,-2.1,3.58,77.72,91.75,34.77824000000001
2023-03-23 22-29-51-059971,0,0,1558,1442,-0.176,-12.75,9.71,-0.08,-2.04,4.15,77.8,92.28,35.30824000000001
2023-03-23 22-29-51-076362,0,0,1558,1442,-0.176,-12.75,9.73,-0.11,-1.88,4.69,77.84,92.77,35.79824000000001
2023-03-23 22-29-51-108060,0,0,1559,1441,-0.176,-12.75,9.79,-0.13,-1.74,5.21,77.86,93.24,36.268240000000006
2023-03-23 22-29-51-124069,0,0,1559,1441,-0.176,-12.75,9.85,-0.12,-1.78,5.69,77.9,93.67,36.69824000000001
2023-03-23 22-29-51-140618,0,0,1559,1441,-0.176,-12.75,9.91,-0.09,-2.02,6.14,77.97,94.08,37.10824000000001
2023-03-23 22-29-51-157920,0,0,1560,1440,-0.176,-12.75,9.93,-0.11,-2.18,6.55,78.05,94.47,37.49824000000001
2023-03-23 22-29-51-172211,0,0,1560,1440,-0.176,-12.75,9.91,-0.18,-2.29,6.96,78.15,94.87,37.898240000000015
2023-03-23 22-29-51-187926,0,0,1560,1440,-0.176,-12.75,9.77,-0.18,-2.25,7.32,78.21,95.22,38.24824000000001
2023-03-23 22-29-51-205000,0,0,1560,1440,-0.176,-12.75,9.62,-0.22,-2.05,7.64,78.25,95.54,38.56824000000002
2023-03-23 22-29-51-220259,0,0,1560,1440,-0.176,-12.75,9.5,-0.28,-1.82,7.89,78.25,95.77,38.79824000000001
2023-03-23 22-29-51-237549,0,0,1560,1440,-0.176,-12.75,9.43,-0.31,-1.51,8.1,78.26,95.95,38.978240000000014
2023-03-23 22-29-51-267577,0,0,1560,1440,-0.176,-12.75,9.42,-0.29,-1.44,8.27,78.29,96.1,39.128240000000005
2023-03-23 22-29-51-284227,0,0,1560,1440,-0.176,-12.75,9.43,-0.23,-1.57,8.43,78.35,96.23,39.258240000000015
2023-03-23 22-29-51-301179,0,0,1560,1440,-0.176,-12.75,9.46,-0.18,-1.74,8.53,78.45,96.32,39.348240000000004
2023-03-23 22-29-51-316771,0,0,1560,1440,-0.176,-12.75,9.48,-0.19,-1.84,8.61,78.56,96.39,39.41824000000001
2023-03-23 22-29-51-331954,0,0,1560,1440,-0.176,-12.662,9.52,-0.16,-1.99,8.65,78.66,96.41,39.43824000000001
2023-03-23 22-29-51-349056,0,0,1560,1440,-0.176,-12.75,9.5,-0.15,-2.08,8.63,78.76,96.4,39.42824000000002
2023-03-23 22-29-51-365050,0,0,1560,1440,-0.176,-12.75,9.42,-0.09,-1.92,8.55,78.84,96.32,39.348240000000004
2023-03-23 22-29-51-380214,0,0,1560,1440,-0.176,-12.75,9.32,-0.14,-1.86,8.4,78.91,96.16,39.18824000000001
2023-03-23 22-29-51-396033,0,0,1560,1440,-0.176,-12.75,9.26,-0.28,-1.69,8.2,78.97,95.94,38.96824000000001
2023-03-23 22-29-51-413402,0,0,1560,1440,-0.176,-12.75,9.2,-0.31,-1.77,7.94,79.02,95.67,38.69824000000001
2023-03-23 22-29-51-429385,0,0,1560,1440,-0.176,-12.75,9.2,-0.36,-1.77,7.64,79.06,95.36,38.38824000000001
2023-03-23 22-29-51-444508,0,0,1560,1440,-0.176,-12.75,9.25,-0.36,-1.84,7.28,79.1,94.99,38.018240000000006
2023-03-23 22-29-51-459926,0,0,1560,1440,-0.176,-12.75,9.31,-0.28,-1.93,6.88,79.16,94.61,37.63824000000001
2023-03-23 22-29-51-477379,0,0,1559,1441,-0.176,-12.75,9.28,-0.19,-2.05,6.44,79.25,94.18,37.20824000000002
2023-03-23 22-29-51-492637,0,0,1559,1441,-0.176,-12.75,9.21,-0.1,-2.1,5.94,79.34,93.71,36.738240000000005
2023-03-23 22-29-51-508421,0,0,1558,1442,-0.176,-12.75,9.16,-0.07,-2.12,5.41,79.41,93.19,36.21824000000001
2023-03-23 22-29-51-525014,0,0,1558,1442,-0.176,-12.75,9.15,-0.1,-2.13,4.85,79.44,92.65,35.67824000000002
2023-03-23 22-29-51-539957,0,0,1558,1442,-0.176,-12.75,9.23,-0.13,-2.13,4.26,79.42,92.08,35.10824000000001
2023-03-23 22-29-51-555850,0,0,1557,1443,-0.176,-12.75,9.31,-0.18,-2.08,3.66,79.36,91.49,34.518240000000006
2023-03-23 22-29-51-571920,0,0,1557,1443,-0.176,-12.75,9.31,-0.21,-2.08,3.04,79.3,90.88,33.908240000000006
2023-03-23 22-29-51-588362,0,0,1556,1444,-0.176,-12.662,9.32,-0.14,-2.0,2.41,79.25,90.26,33.288240000000016
2023-03-23 22-29-51-604434,0,0,1556,1444,-0.176,-12.75,9.27,-0.11,-1.9,1.77,79.22,89.62,32.648240000000015
2023-03-23 22-29-51-621350,0,0,1555,1445,-0.176,-12.75,9.22,-0.14,-1.88,1.13,79.23,88.99,32.018240000000006
2023-03-23 22-29-51-635955,0,0,1555,1445,-0.176,-12.75,9.21,-0.07,-2.05,0.52,79.26,88.37,31.398240000000015
2023-03-23 22-29-51-651945,0,0,1554,1446,-0.176,-12.75,9.23,-0.03,-2.22,-0.08,79.25,87.77,30.798240000000007
2023-03-23 22-29-51-670426,0,0,1554,1446,-0.176,-12.75,9.38,-0.05,-2.4,-0.64,79.17,87.2,30.228240000000014
2023-03-23 22-29-51-684807,0,0,1553,1447,-0.176,-12.75,9.55,-0.09,-2.44,-1.14,79.02,86.69,29.71824000000001
2023-03-23 22-29-51-700357,0,0,1553,1447,-0.176,-12.75,9.68,-0.08,-2.2,-1.57,78.84,86.23,29.258240000000015
2023-03-23 22-29-51-716212,0,0,1553,1447,-0.176,-12.75,9.64,-0.02,-1.68,-1.96,78.7,85.78,28.808240000000012
2023-03-23 22-29-51-746623,0,0,1552,1448,-0.176,-12.75,9.49,0.06,-0.83,-2.38,78.64,85.27,28.298240000000007
2023-03-23 22-29-51-764472,0,0,1552,1448,-0.176,-12.75,9.53,0.27,-0.53,-2.79,78.63,84.74,27.768240000000006
2023-03-23 22-29-51-779918,0,0,1551,1449,-0.176,-12.75,9.81,0.5,-0.9,-3.2,78.59,84.23,27.258240000000015
2023-03-23 22-29-51-796912,0,0,1551,1449,-0.176,-12.75,10.15,0.55,-1.29,-3.57,78.49,83.77,26.798240000000007
2023-03-23 22-29-51-812666,0,0,1551,1449,-0.176,-12.75,10.4,0.48,-1.66,-3.91,78.34,83.38,26.408240000000006
2023-03-23 22-29-51-828313,0,0,1550,1450,-0.176,-12.75,10.6,0.41,-1.97,-4.19,78.17,83.07,26.098240000000004
2023-03-23 22-29-51-844250,0,0,1550,1450,-0.176,-12.75,10.77,0.35,-2.16,-4.41,78.0,82.85,25.878240000000005
2023-03-23 22-29-51-859744,0,0,1550,1450,-0.176,-12.75,10.82,0.34,-2.2,-4.6,77.82,82.69,25.71824000000001
2023-03-23 22-29-51-877154,0,0,1550,1450,-0.176,-12.75,10.83,0.24,-2.1,-4.78,77.68,82.55,25.578240000000008
2023-03-23 22-29-51-892698,0,0,1550,1450,-0.176,-12.75,10.77,0.15,-1.94,-4.96,77.59,82.43,25.458240000000018
2023-03-23 22-29-51-907777,0,0,1550,1450,-0.176,-12.75,10.67,0.06,-1.78,-5.13,77.56,82.34,25.368240000000014
2023-03-23 22-29-51-924053,0,0,1550,1450,-0.176,-12.75,10.52,0.03,-1.68,-5.34,77.58,82.22,25.24824000000001
2023-03-23 22-29-51-940097,0,0,1550,1450,-0.176,-12.75,10.32,0.02,-1.8,-5.57,77.64,82.09,25.118240000000014
2023-03-23 22-29-51-956546,0,0,1550,1450,-0.176,-12.75,10.13,0.03,-1.98,-5.79,77.7,81.99,25.018240000000006
2023-03-23 22-29-51-972230,0,0,1549,1451,-0.176,-12.75,9.96,0.08,-2.14,-5.97,77.75,81.94,24.96824000000001
2023-03-23 22-29-51-989900,0,0,1549,1451,-0.176,-12.75,9.84,0.11,-2.29,-6.1,77.78,81.95,24.978240000000014
2023-03-23 22-29-52-004006,0,0,1550,1450,-0.176,-12.75,9.81,0.18,-2.33,-6.15,77.78,82.02,25.048240000000007
2023-03-23 22-29-52-021225,0,0,1550,1450,-0.176,-12.662,9.72,0.24,-2.11,-6.16,77.77,82.13,25.158240000000006
2023-03-23 22-29-52-036771,0,0,1550,1450,-0.176,-12.75,9.65,0.28,-1.96,-6.11,77.79,82.26,25.288240000000016
2023-03-23 22-29-52-053277,0,0,1550,1450,-0.176,-12.75,9.49,0.21,-1.92,-6.01,77.82,82.44,25.46824000000001
2023-03-23 22-29-52-067924,0,0,1550,1450,-0.176,-12.75,9.3,0.16,-1.94,-5.84,77.87,82.65,25.678240000000017
2023-03-23 22-29-52-084585,0,0,1550,1450,-0.176,-12.75,9.11,0.11,-1.88,-5.6,77.93,82.9,25.928240000000017
2023-03-23 22-29-52-100522,0,0,1550,1450,-0.176,-12.75,8.96,0.09,-1.74,-5.32,78.0,83.17,26.198240000000013
2023-03-23 22-29-52-116244,0,0,1551,1449,-0.176,-12.75,8.9,0.1,-1.69,-4.99,78.06,83.46,26.488240000000005
2023-03-23 22-29-52-132238,0,0,1551,1449,-0.176,-12.75,8.97,0.14,-1.77,-4.6,78.1,83.79,26.818240000000017
2023-03-23 22-29-52-148006,0,0,1551,1449,-0.176,-12.75,9.08,0.13,-1.95,-4.19,78.13,84.13,27.158240000000006
2023-03-23 22-29-52-164214,0,0,1552,1448,-0.176,-12.75,9.2,0.13,-2.1,-3.76,78.15,84.47,27.49824000000001
2023-03-23 22-29-52-181681,0,0,1552,1448,-0.176,-12.75,9.3,0.13,-2.13,-3.33,78.18,84.81,27.838240000000013
2023-03-23 22-29-52-196567,0,0,1552,1448,-0.176,-12.75,9.34,0.08,-2.18,-2.88,78.22,85.17,28.198240000000013
2023-03-23 22-29-52-211964,0,0,1552,1448,-0.176,-12.75,9.38,0.01,-2.29,-2.44,78.27,85.52,28.548240000000007
2023-03-23 22-29-52-228434,0,0,1553,1447,-0.176,-12.75,9.33,-0.07,-2.39,-2.01,78.31,85.88,28.908240000000006
2023-03-23 22-29-52-243964,0,0,1553,1447,-0.176,-12.75,9.3,-0.16,-2.47,-1.59,78.33,86.23,29.258240000000015
2023-03-23 22-29-52-260421,0,0,1553,1447,-0.176,-12.75,9.28,-0.29,-2.44,-1.18,78.32,86.59,29.618240000000014
2023-03-23 22-29-52-276192,0,0,1554,1446,-0.176,-12.75,9.26,-0.3,-2.4,-0.77,78.27,86.95,29.978240000000014
2023-03-23 22-29-52-292250,0,0,1554,1446,-0.176,-12.662,9.27,-0.3,-2.29,-0.43,78.19,87.25,30.27824000000001
2023-03-23 22-29-52-308119,0,0,1554,1446,-0.176,-12.75,9.27,-0.27,-2.21,-0.12,78.1,87.52,30.548240000000007
2023-03-23 22-29-52-324080,0,0,1554,1446,-0.176,-12.75,9.3,-0.24,-2.17,0.13,78.02,87.75,30.77824000000001
2023-03-23 22-29-52-340571,0,0,1554,1446,-0.176,-12.75,9.33,-0.2,-2.15,0.33,77.97,87.94,30.96824000000001
2023-03-23 22-29-52-357236,0,0,1554,1446,-0.176,-12.75,9.31,-0.18,-2.15,0.5,77.92,88.11,31.13824000000001
2023-03-23 22-29-52-371673,0,0,1555,1445,-0.176,-12.75,9.32,-0.17,-2.07,0.64,77.87,88.24,31.268240000000006
2023-03-23 22-29-52-388538,0,0,1555,1445,-0.176,-12.75,9.33,-0.18,-1.98,0.73,77.79,88.33,31.35824000000001
2023-03-23 22-29-52-404204,0,0,1555,1445,-0.176,-12.75,9.34,-0.22,-1.9,0.79,77.7,88.39,31.41824000000001
2023-03-23 22-29-52-421842,0,0,1555,1445,-0.176,-12.75,9.36,-0.1,-1.94,0.8,77.6,88.41,31.438240000000008
2023-03-23 22-29-52-436068,0,0,1555,1445,-0.176,-12.75,9.42,-0.11,-1.98,0.77,77.51,88.38,31.408240000000006
2023-03-23 22-29-52-452228,0,0,1555,1445,-0.176,-12.75,9.45,-0.06,-2.01,0.72,77.44,88.33,31.35824000000001
2023-03-23 22-29-52-467863,0,0,1554,1446,-0.176,-12.75,9.47,-0.04,-1.99,0.62,77.38,88.23,31.258240000000015
2023-03-23 22-29-52-484330,0,0,1554,1446,-0.176,-12.75,9.45,-0.05,-2.0,0.51,77.33,88.12,31.148240000000015
2023-03-23 22-29-52-501671,0,0,1554,1446,-0.176,-12.75,9.44,-0.06,-2.08,0.36,77.29,87.97,30.99824000000001
2023-03-23 22-29-52-516261,0,0,1554,1446,-0.176,-12.75,9.45,-0.06,-2.15,0.19,77.24,87.81,30.838240000000013
2023-03-23 22-29-52-531892,0,0,1554,1446,-0.176,-12.75,9.47,-0.07,-2.17,0.0,77.17,87.62,30.648240000000015
2023-03-23 22-29-52-549075,0,0,1554,1446,-0.176,-12.75,9.51,-0.05,-2.15,-0.21,77.11,87.4,30.428240000000017
2023-03-23 22-29-52-564707,0,0,1554,1446,-0.176,-12.75,9.52,-0.02,-2.15,-0.42,77.05,87.16,30.188240000000008
2023-03-23 22-29-52-580788,0,0,1553,1447,-0.176,-12.75,9.57,0.06,-2.12,-0.65,76.99,86.91,29.938240000000008
2023-03-23 22-29-52-597129,0,0,1553,1447,-0.176,-12.75,9.57,0.09,-2.22,-0.9,76.94,86.64,29.66824000000001
2023-03-23 22-29-52-612317,0,0,1553,1447,-0.176,-12.75,9.64,0.02,-2.3,-1.18,76.89,86.35,29.378240000000005
2023-03-23 22-29-52-628150,0,0,1553,1447,-0.176,-12.75,9.67,-0.01,-2.41,-1.46,76.82,86.04,29.068240000000017
2023-03-23 22-29-52-644274,0,0,1552,1448,-0.176,-12.75,9.72,0.04,-2.31,-1.74,76.75,85.73,28.758240000000015
2023-03-23 22-29-52-661407,0,0,1552,1448,-0.176,-12.75,9.77,0.1,-2.16,-2.01,76.67,85.42,28.448240000000013
2023-03-23 22-29-52-675845,0,0,1552,1448,-0.176,-12.75,9.78,0.16,-2.01,-2.3,76.62,85.08,28.10824000000001
2023-03-23 22-29-52-691828,0,0,1552,1448,-0.176,-12.75,9.72,0.19,-1.95,-2.6,76.58,84.72,27.74824000000001
2023-03-23 22-29-52-711091,0,0,1551,1449,-0.176,-12.75,9.63,0.21,-1.93,-2.9,76.57,84.36,27.38824000000001
2023-03-23 22-29-52-739695,0,0,1551,1449,-0.176,-12.75,9.54,0.21,-1.93,-3.21,76.56,83.97,26.99824000000001
2023-03-23 22-29-52-755882,0,0,1551,1449,-0.176,-12.75,9.49,0.19,-1.99,-3.52,76.55,83.59,26.618240000000014
2023-03-23 22-29-52-772398,0,0,1550,1450,-0.176,-12.75,9.51,0.18,-2.08,-3.84,76.54,83.2,26.228240000000014
2023-03-23 22-29-52-787990,0,0,1550,1450,-0.176,-12.75,9.53,0.21,-2.12,-4.15,76.52,82.83,25.85824000000001
2023-03-23 22-29-52-804610,0,0,1550,1450,-0.176,-12.75,9.57,0.25,-2.15,-4.46,76.5,82.45,25.478240000000014
2023-03-23 22-29-52-819826,0,0,1550,1450,-0.176,-12.75,9.59,0.26,-2.17,-4.77,76.5,82.09,25.118240000000014
2023-03-23 22-29-52-837359,0,0,1549,1451,-0.176,-12.75,9.6,0.31,-2.22,-5.08,76.5,81.72,24.74824000000001
2023-03-23 22-29-52-852757,0,0,1549,1451,-0.176,-12.75,9.6,0.31,-2.23,-5.4,76.52,81.35,24.378240000000005
2023-03-23 22-29-52-868714,0,0,1549,1451,-0.176,-12.75,9.57,0.32,-2.22,-5.7,76.54,81.0,24.02824000000001
2023-03-23 22-29-52-884691,0,0,1548,1452,-0.176,-12.75,9.52,0.31,-2.21,-5.99,76.54,80.66,23.688240000000008
2023-03-23 22-29-52-901064,0,0,1548,1452,-0.176,-12.75,9.47,0.25,-2.28,-6.25,76.52,80.36,23.38824000000001
2023-03-23 22-29-52-916144,0,0,1548,1452,-0.176,-12.75,9.47,0.21,-2.34,-6.48,76.48,80.11,23.13824000000001
2023-03-23 22-29-52-933014,0,0,1548,1452,-0.176,-12.75,9.52,0.21,-2.33,-6.68,76.43,79.89,22.91824000000001
2023-03-23 22-29-52-950812,0,0,1548,1452,-0.176,-12.75,9.55,0.29,-2.37,-6.89,76.38,79.67,22.698240000000013
2023-03-23 22-29-52-980980,0,0,1547,1453,-0.176,-12.75,9.6,0.4,-2.34,-7.06,76.33,79.49,22.518240000000006
2023-03-23 22-29-52-996108,0,0,1547,1453,-0.176,-12.75,9.63,0.41,-2.38,-7.23,76.3,79.32,22.348240000000004
2023-03-23 22-29-53-013065,0,0,1547,1453,-0.176,-12.75,9.61,0.42,-2.32,-7.36,76.28,79.19,22.21824000000001
2023-03-23 22-29-53-027927,0,0,1547,1453,-0.176,-12.75,9.57,0.4,-2.26,-7.48,76.27,79.08,22.10824000000001
2023-03-23 22-29-53-044787,0,0,1547,1453,-0.176,-12.75,9.51,0.34,-2.22,-7.54,76.24,79.02,22.048240000000007
2023-03-23 22-29-53-060268,0,0,1547,1453,-0.176,-12.75,9.46,0.3,-2.28,-7.57,76.2,79.01,22.038240000000016
2023-03-23 22-29-53-077629,0,0,1547,1453,-0.176,-12.75,9.46,0.26,-2.32,-7.56,76.16,79.04,22.068240000000017
2023-03-23 22-29-53-091609,0,0,1547,1453,-0.176,-12.75,9.48,0.27,-2.37,-7.5,76.12,79.12,22.148240000000015
2023-03-23 22-29-53-108801,0,0,1547,1453,-0.176,-12.75,9.5,0.27,-2.37,-7.41,76.08,79.22,22.24824000000001
2023-03-23 22-29-53-124337,0,0,1547,1453,-0.176,-12.75,9.51,0.27,-2.33,-7.31,76.06,79.34,22.368240000000014
2023-03-23 22-29-53-141233,0,0,1548,1452,-0.176,-12.75,9.47,0.3,-2.32,-7.18,76.06,79.5,22.52824000000001
2023-03-23 22-29-53-156681,0,0,1548,1452,-0.176,-12.75,9.46,0.24,-2.29,-7.03,76.06,79.67,22.698240000000013
2023-03-23 22-29-53-172444,0,0,1548,1452,-0.176,-12.75,9.42,0.18,-2.33,-6.82,76.06,79.88,22.908240000000006
2023-03-23 22-29-53-190007,0,0,1548,1452,-0.176,-12.75,9.37,0.19,-2.42,-6.59,76.05,80.13,23.158240000000006
2023-03-23 22-29-53-203852,0,0,1548,1452,-0.176,-12.75,9.38,0.18,-2.43,-6.33,76.02,80.39,23.41824000000001
2023-03-23 22-29-53-220225,0,0,1549,1451,-0.176,-12.75,9.42,0.15,-2.41,-6.03,75.99,80.69,23.71824000000001
2023-03-23 22-29-53-237292,0,0,1549,1451,-0.176,-12.75,9.46,0.15,-2.37,-5.69,75.95,81.02,24.048240000000007
2023-03-23 22-29-53-252495,0,0,1549,1451,-0.176,-12.662,9.46,0.12,-2.35,-5.34,75.92,81.37,24.398240000000015
2023-03-23 22-29-53-268131,0,0,1549,1451,-0.176,-12.75,9.48,0.12,-2.34,-4.99,75.89,81.71,24.738240000000005
2023-03-23 22-29-53-284352,0,0,1550,1450,-0.176,-12.75,9.52,0.07,-2.33,-4.63,75.89,82.06,25.088240000000013
2023-03-23 22-29-53-300155,0,0,1550,1450,-0.176,-12.75,9.52,0.12,-2.43,-4.26,75.87,82.42,25.448240000000013
2023-03-23 22-29-53-317126,0,0,1550,1450,-0.176,-12.75,9.52,0.12,-2.4,-3.86,75.86,82.81,25.838240000000013
2023-03-23 22-29-53-333099,0,0,1551,1449,-0.176,-12.75,9.53,0.09,-2.32,-3.46,75.83,83.19,26.21824000000001
2023-03-23 22-29-53-350754,0,0,1551,1449,-0.176,-12.75,9.53,0.05,-2.24,-3.06,75.8,83.57,26.598240000000004
2023-03-23 22-29-53-379609,0,0,1551,1449,-0.176,-12.75,9.53,0.06,-2.24,-2.66,75.78,83.95,26.978240000000014
2023-03-23 22-29-53-396472,0,0,1551,1449,-0.176,-12.75,9.55,0.07,-2.23,-2.29,75.77,84.29,27.318240000000017
2023-03-23 22-29-53-411529,0,0,1552,1448,-0.176,-12.75,9.59,0.06,-2.24,-1.93,75.78,84.63,27.658240000000006
2023-03-23 22-29-53-429392,0,0,1552,1448,-0.176,-12.75,9.61,0.03,-2.23,-1.59,75.79,84.95,27.978240000000014
2023-03-23 22-29-53-444031,0,0,1552,1448,-0.176,-12.75,9.62,0.01,-2.21,-1.27,75.8,85.26,28.288240000000016
2023-03-23 22-29-53-459792,0,0,1552,1448,-0.176,-12.75,9.62,0.01,-2.24,-0.96,75.81,85.56,28.588240000000013
2023-03-23 22-29-53-476814,0,0,1553,1447,-0.176,-12.75,9.66,0.01,-2.26,-0.7,75.83,85.81,28.838240000000013
2023-03-23 22-29-53-491609,0,0,1553,1447,-0.176,-12.75,9.66,0.04,-2.28,-0.46,75.85,86.04,29.068240000000017
2023-03-23 22-29-53-507706,0,0,1553,1447,-0.176,-12.75,9.67,-0.03,-2.27,-0.24,75.87,86.26,29.288240000000016
2023-03-23 22-29-53-524165,0,0,1553,1447,-0.176,-12.75,9.64,-0.05,-2.34,-0.03,75.89,86.48,29.508240000000015
2023-03-23 22-29-53-540942,0,0,1553,1447,-0.176,-12.75,9.61,-0.08,-2.35,0.15,75.91,86.67,29.698240000000013
2023-03-23 22-29-53-556708,0,0,1553,1447,-0.176,-12.75,9.6,-0.1,-2.31,0.32,75.91,86.84,29.868240000000014
2023-03-23 22-29-53-572159,0,0,1554,1446,-0.176,-12.75,9.6,-0.08,-2.25,0.45,75.93,86.98,30.008240000000015
2023-03-23 22-29-53-587791,0,0,1554,1446,-0.176,-12.75,9.58,-0.11,-2.21,0.56,75.94,87.09,30.118240000000014
2023-03-23 22-29-53-604851,0,0,1554,1446,-0.176,-12.75,9.56,-0.11,-2.25,0.65,75.97,87.19,30.21824000000001
2023-03-23 22-29-53-620444,0,0,1554,1446,-0.176,-12.75,9.52,-0.1,-2.32,0.72,76.0,87.28,30.308240000000012
2023-03-23 22-29-53-636764,0,0,1554,1446,-0.176,-12.75,9.49,-0.12,-2.3,0.76,76.03,87.33,30.35824000000001
2023-03-23 22-29-53-651785,0,0,1554,1446,-0.176,-12.75,9.43,-0.04,-2.38,0.78,76.05,87.36,30.38824000000001
2023-03-23 22-29-53-668099,0,0,1554,1446,-0.176,-12.75,9.39,-0.05,-2.39,0.78,76.07,87.38,30.408240000000006
2023-03-23 22-29-53-686547,0,0,1554,1446,-0.176,-12.75,9.39,-0.08,-2.36,0.79,76.1,87.39,30.41824000000001
2023-03-23 22-29-53-700016,0,0,1554,1446,-0.176,-12.75,9.39,-0.14,-2.3,0.77,76.12,87.37,30.398240000000015
2023-03-23 22-29-53-715806,0,0,1554,1446,-0.176,-12.75,9.4,-0.14,-2.3,0.74,76.14,87.35,30.378240000000005
2023-03-23 22-29-53-732769,0,0,1554,1446,-0.176,-12.75,9.43,-0.16,-2.35,0.71,76.15,87.32,30.348240000000004
2023-03-23 22-29-53-748497,0,0,1554,1446,-0.176,-12.75,9.45,-0.15,-2.42,0.65,76.16,87.27,30.298240000000007
2023-03-23 22-29-53-764737,0,0,1554,1446,-0.176,-12.75,9.48,-0.1,-2.39,0.57,76.18,87.18,30.208240000000018
2023-03-23 22-29-53-780878,0,0,1554,1446,-0.176,-12.75,9.5,-0.09,-2.36,0.5,76.2,87.1,30.128240000000005
2023-03-23 22-29-53-796297,0,0,1554,1446,-0.176,-12.75,9.49,-0.08,-2.36,0.4,76.22,87.0,30.02824000000001
2023-03-23 22-29-53-815120,0,0,1553,1447,-0.176,-12.75,9.48,-0.06,-2.38,0.29,76.24,86.9,29.928240000000017
2023-03-23 22-29-53-844464,0,0,1553,1447,-0.176,-12.75,9.48,0.01,-2.35,0.2,76.25,86.79,29.818240000000017
2023-03-23 22-29-53-859691,0,0,1553,1447,-0.176,-12.75,9.45,0.02,-2.38,0.08,76.25,86.67,29.698240000000013
2023-03-23 22-29-53-876573,0,0,1553,1447,-0.176,-12.662,9.45,0.03,-2.3,-0.03,76.24,86.55,29.578240000000008
2023-03-23 22-29-53-892099,0,0,1553,1447,-0.176,-12.75,9.43,0.02,-2.34,-0.14,76.23,86.42,29.448240000000013
2023-03-23 22-29-53-909650,0,0,1553,1447,-0.176,-12.75,9.41,0.01,-2.32,-0.26,76.22,86.28,29.308240000000012
2023-03-23 22-29-53-924995,0,0,1553,1447,-0.176,-12.75,9.39,-0.01,-2.3,-0.39,76.2,86.14,29.16824000000001
2023-03-23 22-29-53-939693,0,0,1553,1447,-0.176,-12.75,9.41,-0.03,-2.32,-0.51,76.19,85.99,29.018240000000006
2023-03-23 22-29-53-956575,0,0,1553,1447,-0.176,-12.75,9.41,-0.02,-2.37,-0.62,76.19,85.87,28.898240000000015
2023-03-23 22-29-53-972298,0,0,1553,1447,-0.176,-12.75,9.4,-0.02,-2.42,-0.73,76.18,85.74,28.768240000000006
2023-03-23 22-29-53-988695,0,0,1552,1448,-0.176,-12.75,9.46,-0.0,-2.45,-0.84,76.17,85.63,28.658240000000006
2023-03-23 22-29-54-005186,0,0,1552,1448,-0.176,-12.75,9.52,0.0,-2.4,-0.93,76.16,85.51,28.538240000000016
2023-03-23 22-29-54-019813,0,0,1552,1448,-0.176,-12.75,9.56,0.06,-2.36,-1.02,76.15,85.41,28.438240000000008
2023-03-23 22-29-54-036287,0,0,1552,1448,-0.176,-12.75,9.57,0.06,-2.32,-1.11,76.14,85.31,28.338240000000013
2023-03-23 22-29-54-051657,0,0,1552,1448,-0.088,-12.75,9.54,0.09,-2.35,-1.2,76.13,85.2,28.228240000000014
2023-03-23 22-29-54-068805,0,0,1552,1448,-0.176,-12.75,9.54,0.07,-2.3,-1.29,76.13,85.09,28.118240000000014
2023-03-23 22-29-54-084096,0,0,1552,1448,-0.176,-12.75,9.53,0.07,-2.26,-1.38,76.11,84.98,28.008240000000015
2023-03-23 22-29-54-100948,0,0,1552,1448,-0.176,-12.662,9.55,0.05,-2.27,-1.44,76.1,84.89,27.91824000000001
2023-03-23 22-29-54-116970,0,0,1552,1448,-0.176,-12.75,9.53,0.06,-2.33,-1.52,76.07,84.8,27.828240000000008
2023-03-23 22-29-54-132357,0,0,1552,1448,-0.176,-12.662,9.52,0.09,-2.32,-1.58,76.04,84.71,27.738240000000005
2023-03-23 22-29-54-147783,0,0,1552,1448,-0.176,-12.75,9.53,0.09,-2.25,-1.64,76.01,84.63,27.658240000000006
2023-03-23 22-29-54-165224,0,0,1552,1448,-0.176,-12.75,9.57,0.09,-2.25,-1.7,76.0,84.54,27.568240000000017
2023-03-23 22-29-54-180998,0,0,1551,1449,-0.176,-12.75,9.56,0.13,-2.29,-1.78,75.98,84.44,27.46824000000001
2023-03-23 22-29-54-196311,0,0,1551,1449,-0.176,-12.75,9.53,0.11,-2.32,-1.86,75.98,84.35,27.378240000000005
2023-03-23 22-29-54-211693,0,0,1551,1449,-0.176,-12.75,9.51,0.1,-2.35,-1.93,75.98,84.27,27.298240000000007
2023-03-23 22-29-54-227989,0,0,1551,1449,-0.176,-12.75,9.47,0.09,-2.26,-1.99,75.97,84.2,27.228240000000014
2023-03-23 22-29-54-244968,0,0,1551,1449,-0.176,-12.75,9.48,0.05,-2.18,-2.06,75.97,84.1,27.128240000000005
2023-03-23 22-29-54-260098,0,0,1551,1449,-0.176,-12.75,9.44,0.14,-2.24,-2.14,75.98,84.01,27.038240000000016
2023-03-23 22-29-54-277075,0,0,1551,1449,-0.176,-12.75,9.43,0.09,-2.3,-2.21,75.99,83.94,26.96824000000001
2023-03-23 22-29-54-292531,0,0,1551,1449,-0.176,-12.75,9.46,0.13,-2.3,-2.28,76.0,83.86,26.88824000000001
2023-03-23 22-29-54-308303,0,0,1551,1449,-0.176,-12.75,9.48,0.13,-2.33,-2.35,76.02,83.78,26.808240000000012
2023-03-23 22-29-54-324017,0,0,1551,1449,-0.176,-12.75,9.47,0.15,-2.35,-2.43,76.03,83.7,26.728240000000014
2023-03-23 22-29-54-357682,0,0,1551,1449,-0.176,-12.75,9.47,0.13,-2.38,-2.49,76.03,83.64,26.66824000000001
2023-03-23 22-29-54-372413,0,0,1551,1449,-0.176,-12.75,9.48,0.07,-2.37,-2.54,76.03,83.59,26.618240000000014
2023-03-23 22-29-54-389374,0,0,1551,1449,-0.176,-12.75,9.43,0.07,-2.32,-2.6,76.03,83.53,26.558240000000012
2023-03-23 22-29-54-413230,0,0,1551,1449,-0.176,-12.75,9.42,0.05,-2.33,-2.64,76.02,83.49,26.518240000000006
2023-03-23 22-29-54-436336,0,0,1551,1449,-0.176,-12.75,9.37,0.06,-2.37,-2.69,76.01,83.44,26.46824000000001
2023-03-23 22-29-54-451643,0,0,1551,1449,-0.176,-12.75,9.37,0.05,-2.34,-2.73,76.01,83.4,26.428240000000017
2023-03-23 22-29-54-487496,0,0,1551,1449,-0.176,-12.75,9.36,0.03,-2.37,-2.77,76.01,83.37,26.398240000000015
2023-03-23 22-29-54-515375,0,0,1551,1449,-0.176,-12.75,9.38,0.07,-2.35,-2.81,76.01,83.34,26.368240000000014
2023-03-23 22-29-54-548706,0,0,1551,1449,-0.176,-12.75,9.4,0.1,-2.42,-2.85,76.0,83.31,26.338240000000013
2023-03-23 22-29-54-564002,0,0,1551,1449,-0.176,-12.75,9.39,0.14,-2.46,-2.87,75.99,83.31,26.338240000000013
2023-03-23 22-29-54-581508,0,0,1551,1449,-0.176,-12.75,9.37,0.13,-2.5,-2.88,75.97,83.31,26.338240000000013
2023-03-23 22-29-54-596367,0,0,1551,1449,-0.176,-12.75,9.37,0.1,-2.41,-2.87,75.94,83.32,26.348240000000004
2023-03-23 22-29-54-611547,0,0,1551,1449,-0.176,-12.75,9.36,0.06,-2.38,-2.87,75.9,83.33,26.35824000000001
2023-03-23 22-29-54-627726,0,0,1551,1449,-0.176,-12.75,9.41,0.04,-2.36,-2.83,75.86,83.36,26.38824000000001
2023-03-23 22-29-54-646358,0,0,1551,1449,-0.176,-12.75,9.43,0.05,-2.35,-2.79,75.83,83.4,26.428240000000017
2023-03-23 22-29-54-660994,0,0,1551,1449,-0.176,-12.75,9.46,0.07,-2.35,-2.76,75.81,83.43,26.458240000000018
2023-03-23 22-29-54-675835,0,0,1551,1449,-0.176,-12.75,9.49,0.08,-2.37,-2.71,75.79,83.47,26.49824000000001
2023-03-23 22-29-54-692267,0,0,1551,1449,-0.176,-12.75,9.53,0.06,-2.43,-2.66,75.76,83.51,26.538240000000016
2023-03-23 22-29-54-707836,0,0,1551,1449,-0.176,-12.75,9.58,0.07,-2.43,-2.61,75.72,83.56,26.588240000000013
2023-03-23 22-29-54-724890,0,0,1551,1449,-0.176,-12.75,9.6,0.11,-2.49,-2.57,75.68,83.58,26.60824000000001
2023-03-23 22-29-54-739805,0,0,1551,1449,-0.176,-12.75,9.59,0.15,-2.49,-2.52,75.63,83.62,26.648240000000015
2023-03-23 22-29-54-757045,0,0,1551,1449,-0.176,-12.662,9.6,0.1,-2.48,-2.47,75.58,83.66,26.688240000000008
2023-03-23 22-29-54-771734,0,0,1551,1449,-0.176,-12.75,9.64,0.1,-2.4,-2.43,75.54,83.67,26.698240000000013
2023-03-23 22-29-54-787909,0,0,1551,1449,-0.176,-12.75,9.65,0.12,-2.33,-2.41,75.5,83.66,26.688240000000008
2023-03-23 22-29-54-804590,0,0,1551,1449,-0.176,-12.75,9.63,0.09,-2.28,-2.39,75.47,83.67,26.698240000000013
2023-03-23 22-29-54-820656,0,0,1551,1449,-0.176,-12.75,9.58,0.1,-2.27,-2.38,75.46,83.65,26.678240000000017
2023-03-23 22-29-54-835820,0,0,1551,1449,-0.176,-12.662,9.56,0.06,-2.23,-2.38,75.44,83.63,26.658240000000006
2023-03-23 22-29-54-851913,0,0,1551,1449,-0.176,-12.75,9.53,0.02,-2.23,-2.38,75.44,83.6,26.628240000000005
2023-03-23 22-29-54-868529,0,0,1551,1449,-0.176,-12.75,9.54,0.03,-2.22,-2.38,75.45,83.56,26.588240000000013
2023-03-23 22-29-54-884074,0,0,1551,1449,-0.176,-12.75,9.57,0.05,-2.2,-2.41,75.46,83.51,26.538240000000016
2023-03-23 22-29-54-899621,0,0,1551,1449,-0.176,-12.75,9.59,0.12,-2.21,-2.45,75.48,83.44,26.46824000000001
2023-03-23 22-29-54-916101,0,0,1551,1449,-0.176,-12.75,9.64,0.1,-2.27,-2.49,75.49,83.38,26.408240000000006
2023-03-23 22-29-54-934739,0,0,1551,1449,-0.176,-12.75,9.64,0.11,-2.36,-2.54,75.51,83.32,26.348240000000004
2023-03-23 22-29-54-964880,0,0,1551,1449,-0.176,-12.75,9.6,0.13,-2.43,-2.62,75.53,83.24,26.268240000000006
