Timestamp_log,left_angle,right_angle,left_thrust,right_thrust,read_left_angle,read_right_angle,accel_x,accel_y,accel_z,roll,pitch,yaw,e_alpha
2023-03-23 22-26-05-099331,0,0,1536,1464,0.088,-12.662,0.08,-2.76,-9.37,16.5,0.31,144.41,29.924380000000014
2023-03-23 22-26-05-122232,0,0,1544,1456,0.088,-12.662,0.06,-2.76,-9.36,16.51,0.28,144.41,29.924380000000014
2023-03-23 22-26-05-138025,0,0,1544,1456,0.088,-12.662,0.06,-2.77,-9.36,16.51,0.26,144.41,29.924380000000014
2023-03-23 22-26-05-153931,0,0,1544,1456,0.088,-12.662,0.06,-2.77,-9.37,16.52,0.24,144.4,29.914380000000023
2023-03-23 22-26-05-171297,0,0,1544,1456,0.088,-12.662,0.06,-2.78,-9.36,16.52,0.22,144.4,29.914380000000023
2023-03-23 22-26-05-185899,0,0,1544,1456,0.088,-12.662,0.06,-2.79,-9.37,16.52,0.21,144.4,29.914380000000023
2023-03-23 22-26-05-201572,0,0,1544,1456,0.088,-12.662,0.05,-2.78,-9.37,16.52,0.19,144.39,29.904380000000003
2023-03-23 22-26-05-218120,0,0,1544,1456,0.088,-12.662,0.04,-2.77,-9.37,16.52,0.18,144.39,29.904380000000003
2023-03-23 22-26-05-234040,0,0,1544,1456,0.088,-12.662,0.05,-2.78,-9.37,16.53,0.16,144.39,29.904380000000003
2023-03-23 22-26-05-251125,0,0,1544,1456,0.088,-12.662,0.06,-2.77,-9.37,16.53,0.15,144.39,29.904380000000003
2023-03-23 22-26-05-265853,0,0,1544,1456,0.088,-12.662,0.05,-2.77,-9.36,16.53,0.14,144.39,29.904380000000003
2023-03-23 22-26-05-282588,0,0,1544,1456,0.088,-12.662,0.05,-2.78,-9.36,16.52,0.12,144.39,29.904380000000003
2023-03-23 22-26-05-298260,0,0,1544,1456,0.088,-12.662,0.05,-2.78,-9.34,16.52,0.12,144.39,29.904380000000003
2023-03-23 22-26-05-313314,0,0,1544,1456,0.088,-12.662,0.03,-2.77,-9.38,16.52,0.1,144.38,29.894380000000012
2023-03-23 22-26-05-329990,0,0,1544,1456,0.088,-12.662,0.06,-2.79,-9.37,16.52,0.09,144.38,29.894380000000012
2023-03-23 22-26-05-345578,0,0,1544,1456,0.088,-12.662,0.06,-2.8,-9.37,16.52,0.09,144.38,29.894380000000012
2023-03-23 22-26-05-362200,0,0,1544,1456,0.088,-12.662,-0.06,-2.79,-9.37,16.52,0.08,144.38,29.894380000000012
2023-03-23 22-26-05-379368,0,0,1544,1456,0.088,-12.662,-0.17,-2.8,-9.34,16.52,0.07,144.38,29.894380000000012
2023-03-23 22-26-05-396042,0,0,1544,1456,0.088,-12.662,-0.26,-2.81,-9.32,16.52,0.06,144.39,29.904380000000003
2023-03-23 22-26-05-409853,0,0,1544,1456,0.088,-12.662,-0.32,-2.79,-9.32,16.52,0.04,144.4,29.914380000000023
2023-03-23 22-26-05-425805,0,0,1544,1456,0.088,-12.662,-0.34,-2.78,-9.32,16.52,0.03,144.41,29.924380000000014
2023-03-23 22-26-05-443686,0,0,1544,1456,0.088,-12.662,-0.36,-2.78,-9.3,16.52,0.01,144.42,29.934380000000004
2023-03-23 22-26-05-459523,0,0,1544,1456,0.088,-12.662,-0.34,-2.79,-9.32,16.52,-0.01,144.43,29.944380000000024
2023-03-23 22-26-05-475966,0,0,1544,1456,0.088,-12.662,-0.28,-2.79,-9.32,16.51,-0.03,144.45,29.964380000000006
2023-03-23 22-26-05-489488,0,0,1544,1456,0.088,-12.662,-0.21,-2.8,-9.34,16.51,-0.05,144.46,29.974380000000025
2023-03-23 22-26-05-506745,0,0,1544,1456,0.088,-12.662,-0.22,-2.75,-9.36,16.51,-0.06,144.47,29.984380000000016
2023-03-23 22-26-05-521802,0,0,1544,1456,0.088,-12.662,-0.23,-2.79,-9.35,16.5,-0.08,144.48,29.994380000000007
2023-03-23 22-26-05-538581,0,0,1545,1455,0.088,-12.662,-0.2,-2.81,-9.34,16.49,-0.09,144.5,30.014380000000017
2023-03-23 22-26-05-553758,0,0,1545,1455,0.088,-12.662,-0.18,-2.8,-9.33,16.49,-0.11,144.51,30.024380000000008
2023-03-23 22-26-05-570388,0,0,1545,1455,0.088,-12.662,-0.16,-2.79,-9.36,16.49,-0.13,144.53,30.044380000000018
2023-03-23 22-26-05-586272,0,0,1545,1455,0.088,-12.662,-0.17,-2.77,-9.36,16.48,-0.14,144.54,30.05438000000001
2023-03-23 22-26-05-601966,0,0,1545,1455,0.088,-12.662,-0.16,-2.77,-9.36,16.48,-0.16,144.56,30.07438000000002
2023-03-23 22-26-05-618267,0,0,1545,1455,0.088,-12.662,-0.17,-2.79,-9.36,16.48,-0.17,144.57,30.08438000000001
2023-03-23 22-26-05-633587,0,0,1545,1455,0.088,-12.662,-0.16,-2.77,-9.37,16.48,-0.18,144.59,30.10438000000002
2023-03-23 22-26-05-652291,0,0,1545,1455,0.176,-12.662,-0.16,-2.76,-9.37,16.48,-0.19,144.61,30.12438000000003
2023-03-23 22-26-05-667285,0,0,1545,1455,0.088,-12.662,-0.15,-2.77,-9.37,16.48,-0.2,144.62,30.13438000000002
2023-03-23 22-26-05-683305,0,0,1545,1455,0.088,-12.662,-0.15,-2.77,-9.36,16.48,-0.22,144.64,30.154380000000003
2023-03-23 22-26-05-697719,0,0,1545,1455,0.088,-12.662,-0.16,-2.77,-9.36,16.49,-0.22,144.66,30.174380000000014
2023-03-23 22-26-05-714639,0,0,1545,1455,0.088,-12.662,-0.16,-2.79,-9.38,16.48,-0.24,144.67,30.184380000000004
2023-03-23 22-26-05-731267,0,0,1545,1455,0.088,-12.662,-0.17,-2.77,-9.37,16.48,-0.25,144.69,30.204380000000015
2023-03-23 22-26-05-745906,0,0,1545,1455,0.088,-12.662,-0.17,-2.73,-9.4,16.49,-0.26,144.71,30.224380000000025
2023-03-23 22-26-05-761656,0,0,1545,1455,0.176,-12.662,-0.15,-2.78,-9.36,16.49,-0.28,144.73,30.244380000000007
2023-03-23 22-26-05-778512,0,0,1545,1455,0.176,-12.662,-0.15,-2.78,-9.38,16.49,-0.29,144.75,30.264380000000017
2023-03-23 22-26-05-794806,0,0,1545,1455,0.088,-12.662,-0.15,-2.8,-9.37,16.49,-0.31,144.76,30.274380000000008
2023-03-23 22-26-05-809712,0,0,1545,1455,0.088,-12.662,-0.14,-2.8,-9.37,16.48,-0.32,144.78,30.294380000000018
2023-03-23 22-26-05-825919,0,0,1545,1455,0.088,-12.662,-0.14,-2.79,-9.38,16.48,-0.34,144.8,30.31438000000003
2023-03-23 22-26-05-842333,0,0,1545,1455,0.088,-12.662,-0.15,-2.79,-9.37,16.48,-0.35,144.82,30.33438000000001
2023-03-23 22-26-05-858230,0,0,1545,1455,0.088,-12.662,-0.19,-2.77,-9.35,16.48,-0.37,144.84,30.35438000000002
2023-03-23 22-26-05-874187,0,0,1545,1455,0.088,-12.662,-0.2,-2.76,-9.36,16.48,-0.38,144.86,30.37438000000003
2023-03-23 22-26-05-891586,0,0,1545,1455,0.088,-12.662,-0.21,-2.77,-9.37,16.48,-0.4,144.87,30.38438000000002
2023-03-23 22-26-05-905552,0,0,1545,1455,0.088,-12.662,-0.21,-2.78,-9.38,16.47,-0.42,144.88,30.394380000000012
2023-03-23 22-26-05-924200,0,0,1545,1455,0.088,-12.662,-0.2,-2.79,-9.38,16.47,-0.44,144.89,30.404380000000003
2023-03-23 22-26-05-956677,0,0,1545,1455,0.176,-12.662,-0.19,-2.78,-9.35,16.47,-0.46,144.9,30.414380000000023
2023-03-23 22-26-05-987275,0,0,1545,1455,0.088,-12.662,-0.19,-2.78,-9.32,16.46,-0.47,144.91,30.424380000000014
2023-03-23 22-26-06-007362,0,0,1545,1455,0.088,-12.662,-0.23,-2.73,-9.38,16.46,-0.48,144.93,30.444380000000024
2023-03-23 22-26-06-033183,0,0,1545,1455,0.088,-12.662,-0.22,-2.76,-9.38,16.45,-0.49,144.93,30.444380000000024
2023-03-23 22-26-06-050377,0,0,1545,1455,0.088,-12.662,-0.23,-2.79,-9.34,16.44,-0.49,144.94,30.454380000000015
2023-03-23 22-26-06-066291,0,0,1545,1455,0.088,-12.662,-0.21,-2.8,-9.34,16.44,-0.49,144.95,30.464380000000006
2023-03-23 22-26-06-083409,0,0,1545,1455,0.088,-12.662,-0.2,-2.8,-9.33,16.43,-0.49,144.96,30.474380000000025
2023-03-23 22-26-06-103023,0,0,1545,1455,0.088,-12.662,-0.19,-2.77,-9.36,16.42,-0.49,144.97,30.484380000000016
2023-03-23 22-26-06-134037,0,0,1545,1455,0.088,-12.662,-0.18,-2.77,-9.36,16.42,-0.48,144.98,30.494380000000007
2023-03-23 22-26-06-162313,0,0,1545,1455,0.088,-12.662,-0.15,-2.77,-9.34,16.41,-0.47,144.99,30.504380000000026
2023-03-23 22-26-06-178312,0,0,1545,1455,0.088,-12.662,-0.13,-2.77,-9.39,16.4,-0.46,144.99,30.504380000000026
2023-03-23 22-26-06-194936,0,0,1545,1455,0.176,-12.662,-0.15,-2.75,-9.35,16.39,-0.44,145.0,30.514380000000017
2023-03-23 22-26-06-214781,0,0,1545,1455,0.088,-12.662,-0.14,-2.76,-9.33,16.39,-0.43,145.01,30.524380000000008
2023-03-23 22-26-06-242539,0,0,1545,1455,0.088,-12.662,-0.13,-2.75,-9.33,16.38,-0.41,145.02,30.534380000000027
2023-03-23 22-26-06-276575,0,0,1545,1455,0.176,-12.662,-0.13,-2.76,-9.32,16.38,-0.39,145.02,30.534380000000027
2023-03-23 22-26-06-306210,0,0,1545,1455,0.176,-12.662,-0.12,-2.77,-9.35,16.37,-0.37,145.03,30.544380000000018
2023-03-23 22-26-06-324609,0,0,1545,1455,0.088,-12.662,-0.14,-2.72,-9.38,16.37,-0.34,145.04,30.55438000000001
2023-03-23 22-26-06-357709,0,0,1545,1455,0.088,-12.662,-0.11,-2.75,-9.33,16.36,-0.31,145.04,30.55438000000001
2023-03-23 22-26-06-388215,0,0,1545,1455,0.088,-12.662,-0.11,-2.74,-9.33,16.35,-0.28,145.05,30.56438000000003
2023-03-23 22-26-06-420577,0,0,1545,1455,0.088,-12.662,-0.1,-2.72,-9.31,16.34,-0.25,145.05,30.56438000000003
2023-03-23 22-26-06-449330,0,0,1545,1455,0.176,-12.662,-0.09,-2.7,-9.34,16.33,-0.21,145.06,30.57438000000002
2023-03-23 22-26-06-465578,0,0,1545,1455,0.088,-12.662,-0.07,-2.72,-9.36,16.32,-0.17,145.06,30.57438000000002
2023-03-23 22-26-06-482301,0,0,1545,1455,0.088,-12.662,-0.05,-2.73,-9.36,16.31,-0.13,145.07,30.58438000000001
2023-03-23 22-26-06-498626,0,0,1545,1455,0.088,-12.662,-0.04,-2.74,-9.36,16.3,-0.08,145.07,30.58438000000001
2023-03-23 22-26-06-513717,0,0,1545,1455,0.176,-12.662,-0.03,-2.72,-9.33,16.3,-0.03,145.07,30.58438000000001
2023-03-23 22-26-06-529548,0,0,1545,1455,0.176,-12.662,-0.01,-2.73,-9.33,16.29,0.03,145.08,30.59438000000003
2023-03-23 22-26-06-545630,0,0,1545,1455,0.088,-12.662,-0.01,-2.75,-9.36,16.29,0.1,145.08,30.59438000000003
2023-03-23 22-26-06-562860,0,0,1545,1455,0.088,-12.662,-0.02,-2.76,-9.36,16.28,0.16,145.08,30.59438000000003
2023-03-23 22-26-06-578421,0,0,1545,1455,0.088,-12.662,-0.01,-2.77,-9.36,16.28,0.22,145.09,30.60438000000002
2023-03-23 22-26-06-594501,0,0,1545,1455,0.088,-12.662,-0.0,-2.78,-9.36,16.27,0.29,145.09,30.60438000000002
2023-03-23 22-26-06-609606,0,0,1545,1455,0.088,-12.662,0.02,-2.74,-9.32,16.27,0.35,145.09,30.60438000000002
2023-03-23 22-26-06-626235,0,0,1545,1455,0.088,-12.662,0.02,-2.71,-9.37,16.27,0.43,145.1,30.61438000000001
2023-03-23 22-26-06-643648,0,0,1545,1455,0.088,-12.662,0.06,-2.74,-9.36,16.26,0.49,145.11,30.62438000000003
2023-03-23 22-26-06-673315,0,0,1545,1455,0.088,-12.662,0.09,-2.75,-9.4,16.26,0.57,145.11,30.62438000000003
2023-03-23 22-26-06-690017,0,0,1545,1455,0.088,-12.662,0.1,-2.75,-9.38,16.25,0.64,145.12,30.63438000000002
2023-03-23 22-26-06-705388,0,0,1545,1455,0.176,-12.662,0.1,-2.74,-9.36,16.25,0.71,145.12,30.63438000000002
2023-03-23 22-26-06-737797,0,0,1545,1455,0.088,-12.662,0.12,-2.74,-9.35,16.25,0.79,145.13,30.644380000000012
2023-03-23 22-26-06-754910,0,0,1545,1455,0.088,-12.662,0.15,-2.72,-9.35,16.24,0.86,145.13,30.644380000000012
2023-03-23 22-26-06-769412,0,0,1545,1455,0.088,-12.662,0.14,-2.73,-9.38,16.24,0.93,145.13,30.644380000000012
2023-03-23 22-26-06-786143,0,0,1545,1455,0.088,-12.662,0.16,-2.72,-9.38,16.23,1.01,145.13,30.644380000000012
2023-03-23 22-26-06-801501,0,0,1545,1455,0.088,-12.662,0.17,-2.72,-9.37,16.23,1.08,145.13,30.644380000000012
2023-03-23 22-26-06-820636,0,0,1545,1455,0.088,-12.662,0.18,-2.73,-9.37,16.23,1.15,145.13,30.644380000000012
2023-03-23 22-26-06-849539,0,0,1545,1455,0.088,-12.662,0.2,-2.72,-9.37,16.22,1.22,145.13,30.644380000000012
2023-03-23 22-26-06-865448,0,0,1545,1455,0.088,-12.662,0.23,-2.73,-9.38,16.21,1.3,145.13,30.644380000000012
2023-03-23 22-26-06-881581,0,0,1545,1455,0.088,-12.662,0.24,-2.73,-9.38,16.21,1.37,145.13,30.644380000000012
2023-03-23 22-26-06-898755,0,0,1545,1455,0.088,-12.662,0.24,-2.7,-9.4,16.2,1.43,145.12,30.63438000000002
2023-03-23 22-26-06-929390,0,0,1545,1455,0.088,-12.662,0.26,-2.73,-9.39,16.19,1.5,145.12,30.63438000000002
2023-03-23 22-26-06-946192,0,0,1545,1455,0.088,-12.662,0.26,-2.73,-9.39,16.19,1.57,145.12,30.63438000000002
2023-03-23 22-26-06-962511,0,0,1545,1455,0.088,-12.662,0.28,-2.72,-9.38,16.18,1.63,145.12,30.63438000000002
2023-03-23 22-26-06-978169,0,0,1545,1455,0.088,-12.662,0.29,-2.72,-9.37,16.17,1.7,145.11,30.62438000000003
2023-03-23 22-26-06-994769,0,0,1545,1455,0.088,-12.662,0.29,-2.71,-9.36,16.17,1.76,145.1,30.61438000000001
2023-03-23 22-26-07-009496,0,0,1545,1455,0.088,-12.662,0.32,-2.72,-9.38,16.16,1.83,145.1,30.61438000000001
2023-03-23 22-26-07-026112,0,0,1545,1455,0.088,-12.662,0.34,-2.7,-9.4,16.15,1.89,145.08,30.59438000000003
2023-03-23 22-26-07-041349,0,0,1545,1455,0.088,-12.662,0.36,-2.69,-9.39,16.14,1.95,145.07,30.58438000000001
2023-03-23 22-26-07-058507,0,0,1545,1455,0.088,-12.662,0.38,-2.7,-9.37,16.14,2.01,145.05,30.56438000000003
2023-03-23 22-26-07-073440,0,0,1545,1455,0.088,-12.662,0.39,-2.71,-9.37,16.13,2.07,145.04,30.55438000000001
2023-03-23 22-26-07-090524,0,0,1545,1455,0.088,-12.662,0.4,-2.72,-9.41,16.12,2.12,145.02,30.534380000000027
2023-03-23 22-26-07-106375,0,0,1545,1455,0.088,-12.662,0.4,-2.71,-9.42,16.11,2.17,145.0,30.514380000000017
2023-03-23 22-26-07-122531,0,0,1545,1455,0.088,-12.662,0.41,-2.74,-9.39,16.1,2.23,144.98,30.494380000000007
2023-03-23 22-26-07-137657,0,0,1545,1455,0.088,-12.662,0.41,-2.69,-9.36,16.09,2.27,144.96,30.474380000000025
2023-03-23 22-26-07-153643,0,0,1545,1455,0.088,-12.662,0.4,-2.68,-9.4,16.08,2.32,144.94,30.454380000000015
2023-03-23 22-26-07-170203,0,0,1545,1455,0.088,-12.662,0.42,-2.72,-9.38,16.07,2.36,144.91,30.424380000000014
2023-03-23 22-26-07-185365,0,0,1545,1455,0.088,-12.662,0.42,-2.7,-9.41,16.05,2.4,144.89,30.404380000000003
2023-03-23 22-26-07-202560,0,0,1545,1455,0.176,-12.662,0.42,-2.7,-9.38,16.04,2.43,144.86,30.37438000000003
2023-03-23 22-26-07-218102,0,0,1545,1455,0.088,-12.662,0.42,-2.71,-9.39,16.03,2.46,144.83,30.34438000000003
2023-03-23 22-26-07-234765,0,0,1545,1455,0.088,-12.662,0.43,-2.69,-9.4,16.02,2.5,144.81,30.32438000000002
2023-03-23 22-26-07-249504,0,0,1545,1455,0.088,-12.662,0.45,-2.68,-9.4,16.0,2.53,144.78,30.294380000000018
2023-03-23 22-26-07-265531,0,0,1545,1455,0.088,-12.662,0.45,-2.68,-9.39,15.99,2.56,144.75,30.264380000000017
2023-03-23 22-26-07-282529,0,0,1545,1455,0.176,-12.662,0.46,-2.68,-9.39,15.97,2.59,144.71,30.224380000000025
2023-03-23 22-26-07-298289,0,0,1545,1455,0.088,-12.662,0.47,-2.67,-9.39,15.95,2.61,144.68,30.194380000000024
2023-03-23 22-26-07-313449,0,0,1545,1455,0.088,-12.662,0.5,-2.67,-9.41,15.94,2.64,144.65,30.164380000000023
2023-03-23 22-26-07-329911,0,0,1545,1455,0.088,-12.662,0.51,-2.67,-9.39,15.92,2.67,144.61,30.12438000000003
2023-03-23 22-26-07-347142,0,0,1545,1455,0.088,-12.662,0.5,-2.67,-9.39,15.9,2.69,144.58,30.09438000000003
2023-03-23 22-26-07-361251,0,0,1545,1455,0.088,-12.662,0.49,-2.67,-9.4,15.88,2.71,144.54,30.05438000000001
2023-03-23 22-26-07-377726,0,0,1545,1455,0.088,-12.662,0.49,-2.66,-9.42,15.86,2.73,144.51,30.024380000000008
2023-03-23 22-26-07-396327,0,0,1544,1456,0.088,-12.662,0.49,-2.67,-9.42,15.85,2.74,144.47,29.984380000000016
2023-03-23 22-26-07-413133,0,0,1544,1456,0.088,-12.662,0.5,-2.65,-9.41,15.83,2.75,144.44,29.954380000000015
2023-03-23 22-26-07-441387,0,0,1544,1456,0.088,-12.574,0.5,-2.64,-9.39,15.81,2.76,144.4,29.914380000000023
2023-03-23 22-26-07-458314,0,0,1544,1456,0.088,-12.662,0.52,-2.62,-9.41,15.78,2.77,144.37,29.88438000000002
2023-03-23 22-26-07-492788,0,0,1544,1456,0.088,-12.662,0.51,-2.61,-9.41,15.76,2.79,144.33,29.84438000000003
2023-03-23 22-26-07-521359,0,0,1544,1456,0.088,-12.662,0.52,-2.63,-9.41,15.74,2.8,144.3,29.81438000000003
2023-03-23 22-26-07-548997,0,0,1544,1456,0.176,-12.662,0.54,-2.64,-9.41,15.72,2.81,144.27,29.784380000000027
2023-03-23 22-26-07-572229,0,0,1544,1456,0.088,-12.662,0.56,-2.66,-9.41,15.7,2.82,144.23,29.744380000000007
2023-03-23 22-26-07-601781,0,0,1544,1456,0.088,-12.662,0.56,-2.64,-9.45,15.67,2.83,144.19,29.704380000000015
2023-03-23 22-26-07-617628,0,0,1544,1456,0.088,-12.662,0.55,-2.63,-9.44,15.64,2.83,144.14,29.654380000000003
2023-03-23 22-26-07-634920,0,0,1544,1456,0.088,-12.662,0.53,-2.62,-9.44,15.62,2.83,144.1,29.61438000000001
2023-03-23 22-26-07-649383,0,0,1544,1456,0.088,-12.662,0.52,-2.62,-9.42,15.59,2.84,144.06,29.57438000000002
2023-03-23 22-26-07-666700,0,0,1544,1456,0.088,-12.662,0.51,-2.62,-9.41,15.57,2.84,144.01,29.524380000000008
2023-03-23 22-26-07-682391,0,0,1544,1456,0.088,-12.662,0.51,-2.62,-9.42,15.54,2.84,143.96,29.474380000000025
2023-03-23 22-26-07-697338,0,0,1544,1456,0.088,-12.662,0.52,-2.6,-9.46,15.52,2.84,143.91,29.424380000000014
2023-03-23 22-26-07-713387,0,0,1544,1456,0.088,-12.662,0.52,-2.6,-9.44,15.49,2.84,143.86,29.37438000000003
2023-03-23 22-26-07-730247,0,0,1544,1456,0.088,-12.662,0.51,-2.62,-9.46,15.47,2.83,143.81,29.32438000000002
2023-03-23 22-26-07-746534,0,0,1544,1456,0.088,-12.662,0.52,-2.62,-9.45,15.44,2.82,143.76,29.274380000000008
2023-03-23 22-26-07-761258,0,0,1544,1456,0.088,-12.662,0.53,-2.62,-9.45,15.42,2.81,143.71,29.224380000000025
2023-03-23 22-26-07-777356,0,0,1544,1456,0.088,-12.662,0.53,-2.61,-9.44,15.4,2.8,143.66,29.174380000000014
2023-03-23 22-26-07-793928,0,0,1544,1456,0.088,-12.662,0.52,-2.6,-9.44,15.37,2.78,143.61,29.12438000000003
2023-03-23 22-26-07-809433,0,0,1544,1456,0.088,-12.662,0.53,-2.59,-9.46,15.34,2.77,143.55,29.06438000000003
2023-03-23 22-26-07-825575,0,0,1544,1456,0.088,-12.662,0.53,-2.6,-9.46,15.31,2.75,143.49,29.004380000000026
2023-03-23 22-26-07-841945,0,0,1544,1456,0.088,-12.662,0.54,-2.57,-9.45,15.28,2.73,143.44,28.954380000000015
2023-03-23 22-26-07-858452,0,0,1544,1456,0.088,-12.662,0.55,-2.57,-9.44,15.25,2.71,143.38,28.894380000000012
2023-03-23 22-26-07-889696,0,0,1544,1456,0.088,-12.662,0.54,-2.56,-9.45,15.23,2.69,143.32,28.83438000000001
2023-03-23 22-26-07-905306,0,0,1544,1456,0.088,-12.662,0.52,-2.56,-9.47,15.2,2.67,143.26,28.774380000000008
2023-03-23 22-26-07-923506,0,0,1544,1456,0.088,-12.662,0.51,-2.59,-9.47,15.17,2.65,143.2,28.714380000000006
2023-03-23 22-26-07-953235,0,0,1544,1456,0.088,-12.662,0.5,-2.54,-9.45,15.14,2.63,143.14,28.654380000000003
2023-03-23 22-26-07-969333,0,0,1544,1456,0.088,-12.662,0.48,-2.52,-9.47,15.11,2.6,143.08,28.59438000000003
2023-03-23 22-26-07-986506,0,0,1544,1456,0.088,-12.662,0.5,-2.54,-9.46,15.09,2.57,143.02,28.534380000000027
2023-03-23 22-26-08-002447,0,0,1544,1456,0.088,-12.662,0.5,-2.54,-9.47,15.06,2.54,142.95,28.464380000000006
2023-03-23 22-26-08-017252,0,0,1544,1456,0.088,-12.662,0.5,-2.54,-9.45,15.03,2.51,142.89,28.404380000000003
2023-03-23 22-26-08-033191,0,0,1544,1456,0.088,-12.662,0.49,-2.55,-9.45,15.01,2.47,142.83,28.34438000000003
2023-03-23 22-26-08-050313,0,0,1544,1456,0.088,-12.662,0.48,-2.54,-9.49,14.98,2.43,142.76,28.274380000000008
2023-03-23 22-26-08-066283,0,0,1544,1456,0.176,-12.662,0.49,-2.56,-9.49,14.95,2.39,142.69,28.204380000000015
2023-03-23 22-26-08-081649,0,0,1544,1456,0.088,-12.662,0.48,-2.53,-9.48,14.93,2.36,142.62,28.13438000000002
2023-03-23 22-26-08-097473,0,0,1544,1456,0.088,-12.662,0.47,-2.51,-9.48,14.9,2.31,142.55,28.06438000000003
2023-03-23 22-26-08-114827,0,0,1543,1457,0.088,-12.662,0.45,-2.5,-9.48,14.87,2.27,142.48,27.994380000000007
2023-03-23 22-26-08-130504,0,0,1543,1457,0.088,-12.662,0.46,-2.51,-9.48,14.84,2.23,142.4,27.914380000000023
2023-03-23 22-26-08-145276,0,0,1543,1457,0.088,-12.662,0.46,-2.52,-9.47,14.81,2.19,142.33,27.84438000000003
2023-03-23 22-26-08-161391,0,0,1543,1457,0.088,-12.662,0.45,-2.52,-9.49,14.78,2.14,142.25,27.764380000000017
2023-03-23 22-26-08-177685,0,0,1543,1457,0.088,-12.662,0.44,-2.52,-9.5,14.74,2.09,142.17,27.684380000000004
2023-03-23 22-26-08-193749,0,0,1543,1457,0.088,-12.662,0.44,-2.49,-9.48,14.72,2.04,142.09,27.60438000000002
2023-03-23 22-26-08-209376,0,0,1543,1457,0.088,-12.662,0.41,-2.46,-9.49,14.69,1.99,142.02,27.534380000000027
2023-03-23 22-26-08-225725,0,0,1543,1457,0.088,-12.662,0.41,-2.48,-9.46,14.65,1.93,141.94,27.454380000000015
2023-03-23 22-26-08-242238,0,0,1543,1457,0.088,-12.662,0.41,-2.46,-9.48,14.62,1.88,141.87,27.38438000000002
2023-03-23 22-26-08-257511,0,0,1543,1457,0.088,-12.662,0.4,-2.44,-9.48,14.59,1.82,141.79,27.30438000000001
2023-03-23 22-26-08-273356,0,0,1543,1457,0.088,-12.662,0.41,-2.44,-9.49,14.55,1.76,141.71,27.224380000000025
2023-03-23 22-26-08-289513,0,0,1543,1457,0.088,-12.662,0.4,-2.44,-9.5,14.52,1.7,141.63,27.144380000000012
2023-03-23 22-26-08-305892,0,0,1543,1457,0.088,-12.662,0.39,-2.45,-9.52,14.48,1.64,141.55,27.06438000000003
2023-03-23 22-26-08-321559,0,0,1543,1457,0.088,-12.662,0.39,-2.44,-9.52,14.45,1.58,141.47,26.984380000000016
2023-03-23 22-26-08-337854,0,0,1543,1457,0.088,-12.662,0.37,-2.43,-9.5,14.41,1.51,141.38,26.894380000000012
2023-03-23 22-26-08-361758,0,0,1543,1457,0.088,-12.662,0.35,-2.44,-9.51,14.37,1.45,141.29,26.80438000000001
2023-03-23 22-26-08-386545,0,0,1543,1457,0.088,-12.662,0.32,-2.42,-9.51,14.34,1.38,141.2,26.714380000000006
2023-03-23 22-26-08-401852,0,0,1543,1457,0.088,-12.662,0.32,-2.44,-9.52,14.3,1.31,141.12,26.63438000000002
2023-03-23 22-26-08-418494,0,0,1543,1457,0.088,-12.662,0.3,-2.42,-9.51,14.26,1.24,141.03,26.544380000000018
2023-03-23 22-26-08-433352,0,0,1543,1457,0.088,-12.662,0.31,-2.42,-9.52,14.23,1.16,140.94,26.454380000000015
2023-03-23 22-26-08-450251,0,0,1543,1457,0.088,-12.662,0.28,-2.41,-9.56,14.19,1.08,140.84,26.35438000000002
2023-03-23 22-26-08-465754,0,0,1543,1457,0.088,-12.662,0.28,-2.43,-9.55,14.15,1.0,140.75,26.264380000000017
2023-03-23 22-26-08-486219,0,0,1543,1457,0.088,-12.662,0.28,-2.39,-9.56,14.11,0.92,140.65,26.164380000000023
2023-03-23 22-26-08-521990,0,0,1543,1457,0.088,-12.662,0.29,-2.38,-9.52,14.07,0.83,140.56,26.07438000000002
2023-03-23 22-26-08-550291,0,0,1542,1458,0.088,-12.662,0.29,-2.37,-9.55,14.03,0.74,140.46,25.974380000000025
2023-03-23 22-26-08-581048,0,0,1542,1458,0.088,-12.662,0.27,-2.36,-9.56,13.98,0.65,140.36,25.87438000000003
2023-03-23 22-26-08-613302,0,0,1542,1458,0.088,-12.662,0.25,-2.35,-9.56,13.94,0.55,140.26,25.774380000000008
2023-03-23 22-26-08-647265,0,0,1542,1458,0.088,-12.662,0.25,-2.37,-9.56,13.9,0.45,140.15,25.664380000000023
2023-03-23 22-26-08-677477,0,0,1542,1458,0.088,-12.662,0.24,-2.36,-9.58,13.86,0.35,140.05,25.56438000000003
2023-03-23 22-26-08-710687,0,0,1542,1458,0.088,-12.662,0.22,-2.35,-9.61,13.81,0.25,139.94,25.454380000000015
2023-03-23 22-26-08-741802,0,0,1542,1458,0.088,-12.662,0.18,-2.35,-9.59,13.77,0.14,139.83,25.34438000000003
2023-03-23 22-26-08-776278,0,0,1542,1458,0.088,-12.662,0.18,-2.35,-9.58,13.72,0.03,139.72,25.234380000000016
2023-03-23 22-26-08-806608,0,0,1542,1458,0.088,-12.662,0.15,-2.36,-9.58,13.68,-0.09,139.61,25.12438000000003
2023-03-23 22-26-08-838571,0,0,1542,1458,0.088,-12.662,0.12,-2.36,-9.61,13.63,-0.21,139.49,25.004380000000026
2023-03-23 22-26-08-869877,0,0,1542,1458,0.088,-12.662,0.12,-2.36,-9.6,13.58,-0.34,139.37,24.88438000000002
2023-03-23 22-26-08-899050,0,0,1542,1458,0.088,-12.662,0.1,-2.28,-9.65,13.54,-0.48,139.25,24.764380000000017
2023-03-23 22-26-08-913345,0,0,1542,1458,0.088,-12.662,0.09,-2.32,-9.62,13.49,-0.63,139.12,24.63438000000002
2023-03-23 22-26-08-929081,0,0,1542,1458,0.088,-12.662,0.06,-2.3,-9.63,13.43,-0.78,139.0,24.514380000000017
2023-03-23 22-26-08-946425,0,0,1542,1458,0.088,-12.662,0.03,-2.27,-9.62,13.38,-0.94,138.87,24.38438000000002
2023-03-23 22-26-08-964580,0,0,1542,1458,0.176,-12.662,-0.0,-2.27,-9.64,13.33,-1.1,138.74,24.254380000000026
2023-03-23 22-26-08-993569,0,0,1542,1458,0.088,-12.662,-0.02,-2.26,-9.63,13.28,-1.27,138.61,24.12438000000003
2023-03-23 22-26-09-009536,0,0,1541,1459,0.088,-12.662,-0.05,-2.25,-9.63,13.22,-1.44,138.47,23.984380000000016
2023-03-23 22-26-09-026275,0,0,1541,1459,0.088,-12.662,-0.09,-2.25,-9.65,13.17,-1.61,138.33,23.84438000000003
2023-03-23 22-26-09-044977,0,0,1541,1459,0.088,-12.662,-0.11,-2.24,-9.63,13.12,-1.79,138.19,23.704380000000015
2023-03-23 22-26-09-073094,0,0,1541,1459,0.088,-12.662,-0.14,-2.22,-9.62,13.06,-1.97,138.05,23.56438000000003
2023-03-23 22-26-09-089891,0,0,1541,1459,0.088,-12.662,-0.18,-2.21,-9.65,13.01,-2.16,137.9,23.414380000000023
2023-03-23 22-26-09-108842,0,0,1541,1459,0.176,-12.662,-0.21,-2.21,-9.66,12.95,-2.35,137.75,23.264380000000017
2023-03-23 22-26-09-137254,0,0,1541,1459,0.088,-12.662,-0.25,-2.2,-9.64,12.9,-2.55,137.6,23.11438000000001
2023-03-23 22-26-09-154337,0,0,1541,1459,0.088,-12.662,-0.28,-2.19,-9.64,12.84,-2.76,137.45,22.964380000000006
2023-03-23 22-26-09-171835,0,0,1541,1459,0.088,-12.662,-0.31,-2.2,-9.61,12.78,-2.96,137.3,22.81438000000003
2023-03-23 22-26-09-185744,0,0,1541,1459,0.088,-12.662,-0.37,-2.14,-9.67,12.72,-3.17,137.14,22.654380000000003
2023-03-23 22-26-09-201543,0,0,1541,1459,0.088,-12.662,-0.42,-2.14,-9.65,12.66,-3.37,136.99,22.504380000000026
2023-03-23 22-26-09-217241,0,0,1541,1459,0.088,-12.662,-0.46,-2.14,-9.65,12.6,-3.58,136.84,22.35438000000002
2023-03-23 22-26-09-233558,0,0,1541,1459,0.088,-12.662,-0.49,-2.15,-9.61,12.54,-3.79,136.69,22.204380000000015
2023-03-23 22-26-09-249436,0,0,1541,1459,0.088,-12.662,-0.54,-2.11,-9.6,12.49,-3.99,136.54,22.05438000000001
2023-03-23 22-26-09-265926,0,0,1540,1460,0.088,-12.662,-0.6,-2.09,-9.6,12.43,-4.19,136.39,21.904380000000003
2023-03-23 22-26-09-281131,0,0,1540,1460,0.176,-12.662,-0.63,-2.07,-9.61,12.37,-4.39,136.24,21.754380000000026
2023-03-23 22-26-09-298254,0,0,1540,1460,0.088,-12.662,-0.65,-2.06,-9.6,12.31,-4.59,136.09,21.60438000000002
2023-03-23 22-26-09-316045,0,0,1540,1460,0.088,-12.662,-0.69,-2.04,-9.58,12.26,-4.78,135.95,21.464380000000006
2023-03-23 22-26-09-344870,0,0,1540,1460,0.088,-12.662,-0.72,-2.03,-9.56,12.2,-4.97,135.8,21.31438000000003
2023-03-23 22-26-09-361883,0,0,1540,1460,0.088,-12.662,-0.76,-2.0,-9.56,12.14,-5.15,135.65,21.164380000000023
2023-03-23 22-26-09-378124,0,0,1540,1460,0.088,-12.662,-0.8,-1.99,-9.59,12.08,-5.32,135.51,21.024380000000008
2023-03-23 22-26-09-393607,0,0,1540,1460,0.088,-12.662,-0.83,-2.01,-9.58,12.02,-5.5,135.36,20.87438000000003
2023-03-23 22-26-09-409153,0,0,1540,1460,0.088,-12.662,-0.87,-1.99,-9.56,11.96,-5.66,135.21,20.724380000000025
2023-03-23 22-26-09-425519,0,0,1540,1460,0.088,-12.662,-0.91,-1.97,-9.52,11.9,-5.82,135.07,20.58438000000001
2023-03-23 22-26-09-442613,0,0,1540,1460,0.088,-12.662,-0.95,-1.94,-9.57,11.85,-5.97,134.93,20.444380000000024
2023-03-23 22-26-09-458338,0,0,1540,1460,0.088,-12.662,-0.97,-1.93,-9.54,11.79,-6.12,134.79,20.30438000000001
2023-03-23 22-26-09-473953,0,0,1540,1460,0.088,-12.662,-1.03,-1.94,-9.54,11.72,-6.26,134.66,20.174380000000014
2023-03-23 22-26-09-491591,0,0,1540,1460,0.088,-12.662,-1.06,-1.92,-9.5,11.66,-6.39,134.53,20.044380000000018
2023-03-23 22-26-09-505326,0,0,1539,1461,0.088,-12.662,-1.07,-1.91,-9.52,11.61,-6.51,134.4,19.914380000000023
2023-03-23 22-26-09-521188,0,0,1539,1461,0.088,-12.662,-1.08,-1.91,-9.54,11.55,-6.61,134.29,19.80438000000001
2023-03-23 22-26-09-538491,0,0,1539,1461,0.088,-12.662,-1.09,-1.9,-9.51,11.49,-6.71,134.17,19.684380000000004
2023-03-23 22-26-09-553683,0,0,1539,1461,0.088,-12.662,-1.12,-1.91,-9.5,11.43,-6.81,134.07,19.58438000000001
2023-03-23 22-26-09-569207,0,0,1539,1461,0.088,-12.662,-1.15,-1.89,-9.5,11.37,-6.89,133.97,19.484380000000016
2023-03-23 22-26-09-586828,0,0,1539,1461,0.088,-12.662,-1.17,-1.87,-9.49,11.32,-6.97,133.88,19.394380000000012
2023-03-23 22-26-09-602529,0,0,1539,1461,0.088,-12.662,-1.16,-1.85,-9.5,11.27,-7.04,133.8,19.31438000000003
2023-03-23 22-26-09-618456,0,0,1539,1461,0.088,-12.662,-1.17,-1.85,-9.48,11.22,-7.1,133.72,19.234380000000016
2023-03-23 22-26-09-634281,0,0,1539,1461,0.176,-12.662,-1.16,-1.82,-9.47,11.16,-7.16,133.65,19.164380000000023
2023-03-23 22-26-09-670862,0,0,1539,1461,0.088,-12.662,-1.17,-1.82,-9.48,11.11,-7.2,133.58,19.09438000000003
2023-03-23 22-26-09-702165,0,0,1539,1461,0.088,-12.662,-1.19,-1.8,-9.5,11.06,-7.23,133.52,19.034380000000027
2023-03-23 22-26-09-734936,0,0,1539,1461,0.088,-12.662,-1.2,-1.79,-9.51,11.01,-7.25,133.47,18.984380000000016
2023-03-23 22-26-09-765487,0,0,1539,1461,0.088,-12.662,-1.21,-1.77,-9.49,10.95,-7.26,133.42,18.934380000000004
2023-03-23 22-26-09-799301,0,0,1539,1461,0.088,-12.662,-1.22,-1.74,-9.48,10.91,-7.26,133.37,18.88438000000002
2023-03-23 22-26-09-830560,0,0,1539,1461,0.088,-12.662,-1.2,-1.74,-9.49,10.86,-7.26,133.34,18.85438000000002
2023-03-23 22-26-09-869699,0,0,1539,1461,0.088,-12.662,-1.2,-1.74,-9.5,10.81,-7.24,133.3,18.81438000000003
2023-03-23 22-26-09-889754,0,0,1539,1461,0.088,-12.662,-1.19,-1.73,-9.51,10.76,-7.22,133.27,18.784380000000027
2023-03-23 22-26-09-905082,0,0,1539,1461,0.088,-12.662,-1.17,-1.75,-9.52,10.71,-7.19,133.24,18.754380000000026
2023-03-23 22-26-09-921229,0,0,1539,1461,0.088,-12.662,-1.15,-1.75,-9.51,10.66,-7.15,133.21,18.724380000000025
2023-03-23 22-26-09-937577,0,0,1539,1461,0.088,-12.662,-1.14,-1.72,-9.5,10.62,-7.1,133.19,18.704380000000015
2023-03-23 22-26-09-953314,0,0,1539,1461,0.088,-12.662,-1.13,-1.72,-9.52,10.57,-7.04,133.17,18.684380000000004
2023-03-23 22-26-09-969117,0,0,1539,1461,0.088,-12.662,-1.14,-1.72,-9.54,10.53,-6.97,133.16,18.674380000000014
2023-03-23 22-26-09-986595,0,0,1539,1461,0.088,-12.662,-1.14,-1.71,-9.54,10.49,-6.91,133.14,18.654380000000003
2023-03-23 22-26-10-002754,0,0,1539,1461,0.088,-12.662,-1.13,-1.69,-9.53,10.44,-6.83,133.13,18.644380000000012
2023-03-23 22-26-10-033178,0,0,1539,1461,0.088,-12.662,-1.12,-1.71,-9.52,10.4,-6.75,133.13,18.644380000000012
2023-03-23 22-26-10-049481,0,0,1539,1461,0.088,-12.662,-1.12,-1.67,-9.57,10.35,-6.67,133.13,18.644380000000012
2023-03-23 22-26-10-066558,0,0,1539,1461,0.088,-12.662,-1.1,-1.69,-9.56,10.31,-6.58,133.14,18.654380000000003
2023-03-23 22-26-10-082289,0,0,1539,1461,0.088,-12.662,-1.08,-1.69,-9.56,10.27,-6.48,133.15,18.664380000000023
2023-03-23 22-26-10-097414,0,0,1539,1461,0.088,-12.662,-1.07,-1.7,-9.54,10.22,-6.39,133.16,18.674380000000014
2023-03-23 22-26-10-113476,0,0,1539,1461,0.088,-12.662,-1.06,-1.69,-9.56,10.18,-6.29,133.18,18.694380000000024
2023-03-23 22-26-10-129518,0,0,1539,1461,0.088,-12.662,-1.02,-1.67,-9.55,10.14,-6.19,133.2,18.714380000000006
2023-03-23 22-26-10-147546,0,0,1539,1461,0.088,-12.662,-1.01,-1.65,-9.56,10.11,-6.08,133.22,18.734380000000016
2023-03-23 22-26-10-176853,0,0,1539,1461,0.088,-12.662,-0.99,-1.63,-9.59,10.07,-5.97,133.25,18.764380000000017
2023-03-23 22-26-10-194266,0,0,1539,1461,0.088,-12.662,-0.96,-1.65,-9.59,10.03,-5.85,133.27,18.784380000000027
2023-03-23 22-26-10-211479,0,0,1539,1461,0.088,-12.662,-0.93,-1.64,-9.57,10.0,-5.74,133.3,18.81438000000003
2023-03-23 22-26-10-225430,0,0,1539,1461,0.088,-12.662,-0.91,-1.66,-9.58,9.97,-5.63,133.33,18.84438000000003
2023-03-23 22-26-10-241092,0,0,1539,1461,0.088,-12.662,-0.89,-1.65,-9.6,9.94,-5.51,133.36,18.87438000000003
2023-03-23 22-26-10-257481,0,0,1539,1461,0.088,-12.662,-0.87,-1.65,-9.61,9.9,-5.4,133.4,18.914380000000023
2023-03-23 22-26-10-274666,0,0,1539,1461,0.088,-12.662,-0.86,-1.62,-9.59,9.87,-5.28,133.44,18.954380000000015
2023-03-23 22-26-10-290952,0,0,1539,1461,0.088,-12.662,-0.85,-1.62,-9.61,9.84,-5.17,133.47,18.984380000000016
2023-03-23 22-26-10-305400,0,0,1539,1461,0.088,-12.662,-0.84,-1.62,-9.63,9.81,-5.06,133.51,19.024380000000008
2023-03-23 22-26-10-322337,0,0,1539,1461,0.088,-12.662,-0.82,-1.61,-9.62,9.79,-4.95,133.56,19.07438000000002
2023-03-23 22-26-10-348305,0,0,1539,1461,0.088,-12.662,-0.8,-1.59,-9.61,9.76,-4.84,133.6,19.11438000000001
2023-03-23 22-26-10-370225,0,0,1539,1461,0.088,-12.662,-0.76,-1.6,-9.63,9.73,-4.74,133.65,19.164380000000023
2023-03-23 22-26-10-385892,0,0,1539,1461,0.088,-12.662,-0.74,-1.59,-9.63,9.71,-4.64,133.69,19.204380000000015
2023-03-23 22-26-10-401395,0,0,1539,1461,0.088,-12.662,-0.71,-1.59,-9.65,9.69,-4.54,133.74,19.254380000000026
2023-03-23 22-26-10-417521,0,0,1539,1461,0.088,-12.662,-0.69,-1.6,-9.65,9.66,-4.45,133.79,19.30438000000001
2023-03-23 22-26-10-434988,0,0,1539,1461,0.088,-12.662,-0.68,-1.6,-9.64,9.64,-4.36,133.84,19.35438000000002
2023-03-23 22-26-10-449203,0,0,1539,1461,0.088,-12.662,-0.65,-1.6,-9.65,9.63,-4.27,133.89,19.404380000000003
2023-03-23 22-26-10-465143,0,0,1539,1461,0.088,-12.662,-0.64,-1.59,-9.64,9.61,-4.18,133.94,19.454380000000015
2023-03-23 22-26-10-482301,0,0,1539,1461,0.088,-12.662,-0.63,-1.59,-9.64,9.59,-4.11,133.99,19.504380000000026
2023-03-23 22-26-10-498380,0,0,1539,1461,0.088,-12.662,-0.64,-1.58,-9.64,9.58,-4.03,134.04,19.55438000000001
2023-03-23 22-26-10-513661,0,0,1539,1461,0.088,-12.662,-0.63,-1.6,-9.65,9.56,-3.96,134.09,19.60438000000002
2023-03-23 22-26-10-529425,0,0,1539,1461,0.088,-12.662,-0.63,-1.57,-9.64,9.55,-3.9,134.14,19.654380000000003
2023-03-23 22-26-10-545301,0,0,1539,1461,0.088,-12.662,-0.62,-1.56,-9.67,9.53,-3.84,134.19,19.704380000000015
2023-03-23 22-26-10-561996,0,0,1539,1461,0.088,-12.662,-0.61,-1.59,-9.66,9.52,-3.79,134.24,19.754380000000026
2023-03-23 22-26-10-577407,0,0,1539,1461,0.088,-12.662,-0.59,-1.58,-9.68,9.5,-3.74,134.29,19.80438000000001
2023-03-23 22-26-10-593086,0,0,1539,1461,0.088,-12.662,-0.59,-1.6,-9.67,9.5,-3.7,134.34,19.85438000000002
2023-03-23 22-26-10-609479,0,0,1539,1461,0.088,-12.662,-0.58,-1.59,-9.67,9.49,-3.66,134.39,19.904380000000003
2023-03-23 22-26-10-627015,0,0,1539,1461,0.088,-12.662,-0.57,-1.6,-9.66,9.48,-3.63,134.44,19.954380000000015
2023-03-23 22-26-10-641942,0,0,1540,1460,0.088,-12.662,-0.56,-1.59,-9.65,9.48,-3.61,134.48,19.994380000000007
2023-03-23 22-26-10-657149,0,0,1540,1460,0.088,-12.662,-0.58,-1.6,-9.64,9.47,-3.59,134.53,20.044380000000018
2023-03-23 22-26-10-674060,0,0,1540,1460,0.088,-12.662,-0.6,-1.59,-9.65,9.46,-3.58,134.58,20.09438000000003
2023-03-23 22-26-10-689781,0,0,1540,1460,0.088,-12.662,-0.6,-1.6,-9.66,9.46,-3.57,134.62,20.13438000000002
2023-03-23 22-26-10-705839,0,0,1540,1460,0.088,-12.662,-0.6,-1.59,-9.66,9.46,-3.57,134.66,20.174380000000014
2023-03-23 22-26-10-722120,0,0,1540,1460,0.088,-12.662,-0.61,-1.6,-9.64,9.45,-3.58,134.71,20.224380000000025
2023-03-23 22-26-10-737122,0,0,1540,1460,0.088,-12.662,-0.6,-1.6,-9.63,9.45,-3.59,134.75,20.264380000000017
2023-03-23 22-26-10-754723,0,0,1540,1460,0.088,-12.662,-0.6,-1.59,-9.63,9.45,-3.61,134.79,20.30438000000001
2023-03-23 22-26-10-769749,0,0,1540,1460,0.088,-12.662,-0.62,-1.54,-9.65,9.45,-3.63,134.83,20.34438000000003
2023-03-23 22-26-10-786210,0,0,1540,1460,0.088,-12.662,-0.63,-1.6,-9.64,9.45,-3.66,134.87,20.38438000000002
2023-03-23 22-26-10-801141,0,0,1540,1460,0.088,-12.662,-0.63,-1.58,-9.61,9.45,-3.69,134.91,20.424380000000014
2023-03-23 22-26-10-818136,0,0,1540,1460,0.088,-12.662,-0.64,-1.57,-9.63,9.45,-3.73,134.95,20.464380000000006
2023-03-23 22-26-10-833363,0,0,1540,1460,0.088,-12.662,-0.63,-1.57,-9.63,9.45,-3.78,134.98,20.494380000000007
2023-03-23 22-26-10-849800,0,0,1540,1460,0.088,-12.662,-0.64,-1.58,-9.63,9.45,-3.83,135.02,20.534380000000027
2023-03-23 22-26-10-864965,0,0,1540,1460,0.088,-12.662,-0.64,-1.58,-9.65,9.45,-3.88,135.05,20.56438000000003
2023-03-23 22-26-10-881049,0,0,1540,1460,0.088,-12.662,-0.64,-1.59,-9.64,9.46,-3.94,135.09,20.60438000000002
2023-03-23 22-26-10-898613,0,0,1540,1460,0.088,-12.662,-0.65,-1.59,-9.62,9.46,-4.0,135.12,20.63438000000002
2023-03-23 22-26-10-913249,0,0,1540,1460,0.088,-12.662,-0.66,-1.58,-9.62,9.46,-4.07,135.15,20.664380000000023
2023-03-23 22-26-10-930019,0,0,1540,1460,0.088,-12.662,-0.68,-1.58,-9.64,9.46,-4.14,135.18,20.694380000000024
2023-03-23 22-26-10-945251,0,0,1540,1460,0.088,-12.662,-0.7,-1.59,-9.64,9.46,-4.21,135.21,20.724380000000025
2023-03-23 22-26-10-967877,0,0,1540,1460,0.088,-12.662,-0.71,-1.58,-9.61,9.46,-4.28,135.24,20.754380000000026
2023-03-23 22-26-10-993259,0,0,1540,1460,0.088,-12.662,-0.74,-1.6,-9.58,9.47,-4.36,135.27,20.784380000000027
2023-03-23 22-26-11-009036,0,0,1540,1460,0.088,-12.662,-0.77,-1.6,-9.58,9.47,-4.45,135.3,20.81438000000003
2023-03-23 22-26-11-025355,0,0,1540,1460,0.088,-12.662,-0.8,-1.57,-9.63,9.48,-4.53,135.34,20.85438000000002
2023-03-23 22-26-11-042184,0,0,1540,1460,0.088,-12.662,-0.81,-1.59,-9.62,9.48,-4.62,135.37,20.88438000000002
2023-03-23 22-26-11-058687,0,0,1540,1460,0.088,-12.662,-0.82,-1.61,-9.62,9.49,-4.71,135.4,20.914380000000023
2023-03-23 22-26-11-073105,0,0,1540,1460,0.088,-12.662,-0.85,-1.61,-9.6,9.49,-4.8,135.43,20.944380000000024
2023-03-23 22-26-11-089674,0,0,1540,1460,0.088,-12.662,-0.86,-1.59,-9.61,9.5,-4.89,135.46,20.974380000000025
2023-03-23 22-26-11-105227,0,0,1540,1460,0.088,-12.662,-0.86,-1.6,-9.59,9.5,-4.98,135.49,21.004380000000026
2023-03-23 22-26-11-121646,0,0,1540,1460,0.088,-12.662,-0.88,-1.6,-9.58,9.51,-5.07,135.51,21.024380000000008
2023-03-23 22-26-11-137045,0,0,1540,1460,0.088,-12.662,-0.88,-1.6,-9.58,9.52,-5.16,135.54,21.05438000000001
2023-03-23 22-26-11-153790,0,0,1540,1460,0.088,-12.662,-0.89,-1.59,-9.6,9.52,-5.25,135.57,21.08438000000001
2023-03-23 22-26-11-169098,0,0,1540,1460,0.088,-12.662,-0.91,-1.58,-9.59,9.53,-5.34,135.6,21.11438000000001
2023-03-23 22-26-11-185234,0,0,1540,1460,0.088,-12.662,-0.93,-1.59,-9.59,9.53,-5.43,135.63,21.144380000000012
2023-03-23 22-26-11-208733,0,0,1540,1460,0.088,-12.662,-0.94,-1.59,-9.59,9.54,-5.53,135.65,21.164380000000023
2023-03-23 22-26-11-233422,0,0,1540,1460,0.088,-12.662,-0.96,-1.61,-9.58,9.54,-5.62,135.68,21.194380000000024
2023-03-23 22-26-11-249281,0,0,1540,1460,0.088,-12.662,-0.99,-1.62,-9.57,9.55,-5.71,135.71,21.224380000000025
2023-03-23 22-26-11-265931,0,0,1540,1460,0.088,-12.662,-1.02,-1.6,-9.54,9.56,-5.79,135.74,21.254380000000026
2023-03-23 22-26-11-281256,0,0,1540,1460,0.088,-12.662,-1.03,-1.57,-9.57,9.56,-5.88,135.78,21.294380000000018
2023-03-23 22-26-11-298919,0,0,1540,1460,0.088,-12.662,-1.03,-1.61,-9.54,9.57,-5.98,135.81,21.32438000000002
2023-03-23 22-26-11-313238,0,0,1540,1460,0.088,-12.662,-1.04,-1.59,-9.55,9.58,-6.07,135.85,21.36438000000001
2023-03-23 22-26-11-331438,0,0,1540,1460,0.088,-12.662,-1.04,-1.58,-9.56,9.58,-6.16,135.88,21.394380000000012
2023-03-23 22-26-11-361415,0,0,1540,1460,0.088,-12.662,-1.06,-1.57,-9.57,9.59,-6.25,135.93,21.444380000000024
2023-03-23 22-26-11-377126,0,0,1540,1460,0.088,-12.662,-1.08,-1.58,-9.58,9.59,-6.34,135.96,21.474380000000025
2023-03-23 22-26-11-393563,0,0,1540,1460,0.088,-12.662,-1.09,-1.61,-9.57,9.59,-6.43,136.0,21.514380000000017
2023-03-23 22-26-11-409064,0,0,1540,1460,0.088,-12.662,-1.09,-1.62,-9.57,9.6,-6.52,136.04,21.55438000000001
2023-03-23 22-26-11-426117,0,0,1540,1460,0.088,-12.662,-1.11,-1.61,-9.58,9.6,-6.61,136.08,21.59438000000003
2023-03-23 22-26-11-444211,0,0,1540,1460,0.088,-12.662,-1.13,-1.6,-9.57,9.6,-6.7,136.12,21.63438000000002
2023-03-23 22-26-11-473174,0,0,1540,1460,0.088,-12.662,-1.15,-1.62,-9.58,9.61,-6.79,136.15,21.664380000000023
2023-03-23 22-26-11-489292,0,0,1540,1460,0.088,-12.662,-1.18,-1.62,-9.58,9.61,-6.87,136.19,21.704380000000015
2023-03-23 22-26-11-506729,0,0,1540,1460,0.088,-12.662,-1.19,-1.62,-9.56,9.61,-6.96,136.23,21.744380000000007
2023-03-23 22-26-11-521066,0,0,1540,1460,0.088,-12.662,-1.21,-1.64,-9.54,9.61,-7.05,136.27,21.784380000000027
2023-03-23 22-26-11-538833,0,0,1540,1460,0.176,-12.662,-1.24,-1.6,-9.58,9.62,-7.14,136.3,21.81438000000003
2023-03-23 22-26-11-553802,0,0,1540,1460,0.088,-12.662,-1.26,-1.59,-9.58,9.62,-7.23,136.34,21.85438000000002
2023-03-23 22-26-11-570929,0,0,1540,1460,0.088,-12.662,-1.28,-1.63,-9.59,9.62,-7.33,136.38,21.894380000000012
2023-03-23 22-26-11-585016,0,0,1540,1460,0.088,-12.662,-1.29,-1.65,-9.55,9.62,-7.42,136.42,21.934380000000004
2023-03-23 22-26-11-601322,0,0,1540,1460,0.088,-12.662,-1.31,-1.66,-9.54,9.62,-7.52,136.45,21.964380000000006
2023-03-23 22-26-11-618145,0,0,1541,1459,0.088,-12.662,-1.33,-1.64,-9.54,9.62,-7.61,136.49,22.004380000000026
2023-03-23 22-26-11-633026,0,0,1541,1459,0.088,-12.662,-1.36,-1.61,-9.54,9.62,-7.71,136.53,22.044380000000018
2023-03-23 22-26-11-649258,0,0,1541,1459,0.088,-12.662,-1.38,-1.6,-9.56,9.61,-7.81,136.57,22.08438000000001
2023-03-23 22-26-11-666170,0,0,1541,1459,0.088,-12.662,-1.37,-1.61,-9.55,9.61,-7.91,136.61,22.12438000000003
2023-03-23 22-26-11-681387,0,0,1541,1459,0.088,-12.662,-1.36,-1.62,-9.54,9.61,-8.02,136.65,22.164380000000023
2023-03-23 22-26-11-698446,0,0,1541,1459,0.088,-12.662,-1.4,-1.64,-9.55,9.61,-8.12,136.68,22.194380000000024
2023-03-23 22-26-11-713245,0,0,1541,1459,0.088,-12.662,-1.41,-1.63,-9.55,9.6,-8.23,136.73,22.244380000000007
2023-03-23 22-26-11-729513,0,0,1541,1459,0.088,-12.662,-1.43,-1.61,-9.53,9.6,-8.34,136.76,22.274380000000008
2023-03-23 22-26-11-746540,0,0,1541,1459,0.088,-12.662,-1.45,-1.63,-9.53,9.6,-8.44,136.81,22.32438000000002
2023-03-23 22-26-11-761695,0,0,1541,1459,0.088,-12.662,-1.46,-1.62,-9.51,9.6,-8.55,136.85,22.36438000000001
2023-03-23 22-26-11-777628,0,0,1541,1459,0.088,-12.662,-1.49,-1.59,-9.51,9.59,-8.66,136.89,22.404380000000003
2023-03-23 22-26-11-794016,0,0,1541,1459,0.088,-12.662,-1.51,-1.62,-9.49,9.58,-8.78,136.94,22.454380000000015
2023-03-23 22-26-11-810995,0,0,1541,1459,0.088,-12.662,-1.51,-1.58,-9.5,9.58,-8.89,136.99,22.504380000000026
2023-03-23 22-26-11-825235,0,0,1541,1459,0.088,-12.662,-1.53,-1.59,-9.52,9.57,-9.01,137.04,22.55438000000001
2023-03-23 22-26-11-841285,0,0,1541,1459,0.176,-12.662,-1.53,-1.6,-9.51,9.55,-9.13,137.09,22.60438000000002
2023-03-23 22-26-11-857559,0,0,1541,1459,0.088,-12.662,-1.56,-1.63,-9.5,9.54,-9.25,137.14,22.654380000000003
2023-03-23 22-26-11-873637,0,0,1541,1459,0.088,-12.662,-1.58,-1.64,-9.5,9.53,-9.37,137.19,22.704380000000015
2023-03-23 22-26-11-889528,0,0,1541,1459,0.088,-12.662,-1.6,-1.63,-9.49,9.52,-9.49,137.25,22.764380000000017
2023-03-23 22-26-11-907703,0,0,1541,1459,0.088,-12.662,-1.62,-1.6,-9.48,9.51,-9.61,137.31,22.82438000000002
2023-03-23 22-26-11-921069,0,0,1541,1459,0.088,-12.662,-1.63,-1.61,-9.49,9.5,-9.72,137.37,22.88438000000002
2023-03-23 22-26-11-937690,0,0,1541,1459,0.088,-12.662,-1.66,-1.62,-9.51,9.48,-9.84,137.42,22.934380000000004
2023-03-23 22-26-11-953401,0,0,1541,1459,0.088,-12.662,-1.69,-1.62,-9.5,9.47,-9.96,137.49,23.004380000000026
2023-03-23 22-26-11-970550,0,0,1541,1459,0.088,-12.662,-1.74,-1.62,-9.5,9.45,-10.08,137.55,23.06438000000003
2023-03-23 22-26-11-987032,0,0,1541,1459,0.088,-12.662,-1.75,-1.58,-9.47,9.44,-10.2,137.61,23.12438000000003
2023-03-23 22-26-12-001105,0,0,1541,1459,0.088,-12.662,-1.76,-1.57,-9.51,9.42,-10.31,137.67,23.184380000000004
2023-03-23 22-26-12-018322,0,0,1541,1459,0.088,-12.662,-1.75,-1.6,-9.47,9.4,-10.44,137.73,23.244380000000007
2023-03-23 22-26-12-034528,0,0,1541,1459,0.088,-12.662,-1.79,-1.61,-9.47,9.38,-10.56,137.79,23.30438000000001
2023-03-23 22-26-12-049362,0,0,1541,1459,0.088,-12.662,-1.82,-1.61,-9.45,9.36,-10.68,137.86,23.37438000000003
2023-03-23 22-26-12-065939,0,0,1541,1459,0.088,-12.662,-1.85,-1.61,-9.47,9.34,-10.79,137.92,23.434380000000004
2023-03-23 22-26-12-081037,0,0,1541,1459,0.088,-12.662,-1.84,-1.6,-9.47,9.32,-10.91,137.99,23.504380000000026
2023-03-23 22-26-12-098160,0,0,1541,1459,0.088,-12.662,-1.85,-1.59,-9.45,9.3,-11.02,138.05,23.56438000000003
2023-03-23 22-26-12-114323,0,0,1541,1459,0.088,-12.662,-1.87,-1.6,-9.44,9.27,-11.14,138.12,23.63438000000002
2023-03-23 22-26-12-129014,0,0,1541,1459,0.088,-12.662,-1.92,-1.58,-9.44,9.25,-11.25,138.18,23.694380000000024
2023-03-23 22-26-12-145007,0,0,1541,1459,0.088,-12.662,-1.94,-1.57,-9.45,9.23,-11.37,138.24,23.754380000000026
2023-03-23 22-26-12-161727,0,0,1541,1459,0.088,-12.662,-1.93,-1.57,-9.44,9.2,-11.48,138.31,23.82438000000002
2023-03-23 22-26-12-178432,0,0,1541,1459,0.088,-12.662,-1.94,-1.57,-9.42,9.18,-11.59,138.38,23.894380000000012
2023-03-23 22-26-12-193376,0,0,1541,1459,0.088,-12.662,-1.97,-1.56,-9.41,9.15,-11.7,138.44,23.954380000000015
2023-03-23 22-26-12-209277,0,0,1542,1458,0.176,-12.662,-2.0,-1.57,-9.4,9.12,-11.81,138.51,24.024380000000008
2023-03-23 22-26-12-225785,0,0,1542,1458,0.088,-12.662,-2.04,-1.52,-9.41,9.1,-11.92,138.59,24.10438000000002
2023-03-23 22-26-12-265227,0,0,1542,1458,0.088,-12.662,-2.05,-1.57,-9.4,9.07,-12.02,138.66,24.174380000000014
2023-03-23 22-26-12-289452,0,0,1542,1458,0.088,-12.662,-2.07,-1.54,-9.39,9.05,-12.13,138.74,24.254380000000026
2023-03-23 22-26-12-304886,0,0,1542,1458,0.088,-12.662,-2.08,-1.52,-9.39,9.02,-12.23,138.81,24.32438000000002
2023-03-23 22-26-12-321466,0,0,1542,1458,0.088,-12.662,-2.09,-1.51,-9.39,8.99,-12.34,138.88,24.394380000000012
2023-03-23 22-26-12-337374,0,0,1542,1458,0.088,-12.662,-2.11,-1.5,-9.37,8.96,-12.44,138.96,24.474380000000025
2023-03-23 22-26-12-352931,0,0,1542,1458,0.088,-12.662,-2.12,-1.51,-9.37,8.93,-12.54,139.04,24.55438000000001
2023-03-23 22-26-12-370225,0,0,1542,1458,0.088,-12.662,-2.11,-1.5,-9.38,8.89,-12.64,139.12,24.63438000000002
2023-03-23 22-26-12-386947,0,0,1542,1458,0.088,-12.662,-2.12,-1.48,-9.36,8.86,-12.73,139.2,24.714380000000006
2023-03-23 22-26-12-416889,0,0,1542,1458,0.088,-12.662,-2.12,-1.47,-9.36,8.82,-12.83,139.28,24.794380000000018
2023-03-23 22-26-12-435517,0,0,1542,1458,0.088,-12.662,-2.15,-1.48,-9.35,8.78,-12.92,139.36,24.87438000000003
2023-03-23 22-26-12-450751,0,0,1542,1458,0.088,-12.662,-2.17,-1.46,-9.35,8.75,-13.0,139.45,24.964380000000006
2023-03-23 22-26-12-465129,0,0,1542,1458,0.088,-12.662,-2.17,-1.47,-9.4,8.71,-13.09,139.53,25.044380000000018
2023-03-23 22-26-12-482489,0,0,1542,1458,0.088,-12.662,-2.17,-1.48,-9.37,8.67,-13.18,139.61,25.12438000000003
2023-03-23 22-26-12-499310,0,0,1542,1458,0.088,-12.662,-2.21,-1.44,-9.33,8.62,-13.26,139.7,25.214380000000006
2023-03-23 22-26-12-513402,0,0,1542,1458,0.088,-12.662,-2.24,-1.42,-9.35,8.58,-13.35,139.79,25.30438000000001
2023-03-23 22-26-12-529613,0,0,1542,1458,0.088,-12.662,-2.24,-1.44,-9.34,8.54,-13.43,139.88,25.394380000000012
2023-03-23 22-26-12-546116,0,0,1542,1458,0.088,-12.662,-2.24,-1.42,-9.35,8.5,-13.52,139.97,25.484380000000016
2023-03-23 22-26-12-561587,0,0,1542,1458,0.088,-12.662,-2.25,-1.41,-9.34,8.45,-13.6,140.06,25.57438000000002
2023-03-23 22-26-12-578959,0,0,1542,1458,0.088,-12.662,-2.26,-1.41,-9.35,8.4,-13.68,140.16,25.674380000000014
2023-03-23 22-26-12-593107,0,0,1542,1458,0.088,-12.662,-2.27,-1.41,-9.36,8.35,-13.76,140.25,25.764380000000017
2023-03-23 22-26-12-611517,0,0,1542,1458,0.088,-12.662,-2.3,-1.4,-9.35,8.3,-13.83,140.35,25.86438000000001
2023-03-23 22-26-12-626381,0,0,1542,1458,0.088,-12.662,-2.3,-1.4,-9.33,8.25,-13.91,140.44,25.954380000000015
2023-03-23 22-26-12-642758,0,0,1543,1457,0.088,-12.662,-2.32,-1.36,-9.33,8.19,-13.98,140.53,26.044380000000018
2023-03-23 22-26-12-657111,0,0,1543,1457,0.088,-12.662,-2.34,-1.35,-9.35,8.14,-14.05,140.62,26.13438000000002
2023-03-23 22-26-12-673226,0,0,1543,1457,0.088,-12.75,-2.36,-1.33,-9.33,8.08,-14.11,140.72,26.234380000000016
2023-03-23 22-26-12-689616,0,0,1543,1457,0.088,-12.662,-2.38,-1.34,-9.32,8.02,-14.17,140.81,26.32438000000002
2023-03-23 22-26-12-705364,0,0,1543,1457,0.088,-12.662,-2.39,-1.34,-9.32,7.97,-14.23,140.91,26.424380000000014
2023-03-23 22-26-12-721649,0,0,1543,1457,0.088,-12.662,-2.38,-1.35,-9.33,7.91,-14.29,141.01,26.524380000000008
2023-03-23 22-26-12-737622,0,0,1543,1457,0.088,-12.662,-2.39,-1.28,-9.34,7.84,-14.35,141.11,26.62438000000003
2023-03-23 22-26-12-754815,0,0,1543,1457,0.088,-12.662,-2.4,-1.3,-9.32,7.78,-14.4,141.21,26.724380000000025
2023-03-23 22-26-12-769824,0,0,1543,1457,0.088,-12.662,-2.39,-1.26,-9.33,7.72,-14.46,141.31,26.82438000000002
2023-03-23 22-26-12-786103,0,0,1543,1457,0.088,-12.662,-2.39,-1.26,-9.35,7.65,-14.51,141.4,26.914380000000023
2023-03-23 22-26-12-803522,0,0,1543,1457,0.088,-12.662,-2.36,-1.25,-9.35,7.58,-14.55,141.5,27.014380000000017
2023-03-23 22-26-12-818005,0,0,1543,1457,0.088,-12.662,-2.37,-1.24,-9.34,7.52,-14.58,141.58,27.09438000000003
2023-03-23 22-26-12-834073,0,0,1543,1457,0.088,-12.662,-2.37,-1.22,-9.33,7.45,-14.62,141.67,27.184380000000004
2023-03-23 22-26-12-850731,0,0,1543,1457,0.088,-12.662,-2.39,-1.22,-9.34,7.38,-14.65,141.75,27.264380000000017
2023-03-23 22-26-12-873128,0,0,1543,1457,0.088,-12.662,-2.4,-1.22,-9.34,7.31,-14.67,141.83,27.34438000000003
2023-03-23 22-26-12-899052,0,0,1543,1457,0.088,-12.662,-2.4,-1.2,-9.34,7.24,-14.69,141.91,27.424380000000014
2023-03-23 22-26-12-931053,0,0,1543,1457,0.088,-12.662,-2.39,-1.18,-9.33,7.17,-14.7,141.99,27.504380000000026
2023-03-23 22-26-12-945018,0,0,1543,1457,0.088,-12.662,-2.41,-1.16,-9.35,7.1,-14.71,142.06,27.57438000000002
2023-03-23 22-26-12-961022,0,0,1543,1457,0.088,-12.662,-2.42,-1.15,-9.34,7.02,-14.72,142.14,27.654380000000003
2023-03-23 22-26-12-978546,0,0,1543,1457,0.088,-12.662,-2.43,-1.13,-9.35,6.94,-14.72,142.21,27.724380000000025
2023-03-23 22-26-13-009439,0,0,1543,1457,0.088,-12.662,-2.45,-1.15,-9.34,6.87,-14.72,142.27,27.784380000000027
2023-03-23 22-26-13-024992,0,0,1543,1457,0.088,-12.662,-2.43,-1.14,-9.36,6.79,-14.71,142.34,27.85438000000002
2023-03-23 22-26-13-049049,0,0,1543,1457,0.088,-12.662,-2.42,-1.12,-9.33,6.71,-14.69,142.4,27.914380000000023
2023-03-23 22-26-13-073262,0,0,1543,1457,0.088,-12.662,-2.43,-1.1,-9.34,6.64,-14.67,142.47,27.984380000000016
2023-03-23 22-26-13-089262,0,0,1544,1456,0.088,-12.662,-2.44,-1.09,-9.38,6.56,-14.64,142.53,28.044380000000018
2023-03-23 22-26-13-105079,0,0,1544,1456,0.088,-12.662,-2.44,-1.07,-9.36,6.48,-14.62,142.59,28.10438000000002
2023-03-23 22-26-13-121918,0,0,1544,1456,0.088,-12.662,-2.42,-1.05,-9.37,6.4,-14.58,142.65,28.164380000000023
2023-03-23 22-26-13-138729,0,0,1544,1456,0.088,-12.662,-2.42,-1.04,-9.35,6.32,-14.54,142.71,28.224380000000025
2023-03-23 22-26-13-153729,0,0,1544,1456,0.088,-12.662,-2.4,-1.03,-9.34,6.25,-14.49,142.78,28.294380000000018
2023-03-23 22-26-13-170708,0,0,1544,1456,0.088,-12.662,-2.41,-1.0,-9.36,6.17,-14.45,142.84,28.35438000000002
2023-03-23 22-26-13-185349,0,0,1544,1456,0.088,-12.662,-2.4,-1.02,-9.39,6.09,-14.39,142.9,28.414380000000023
2023-03-23 22-26-13-202812,0,0,1544,1456,0.088,-12.662,-2.33,-1.0,-9.38,6.01,-14.33,142.95,28.464380000000006
2023-03-23 22-26-13-217229,0,0,1544,1456,0.088,-12.662,-2.31,-0.99,-9.37,5.94,-14.26,143.01,28.524380000000008
2023-03-23 22-26-13-234289,0,0,1544,1456,0.088,-12.662,-2.3,-0.98,-9.39,5.86,-14.19,143.06,28.57438000000002
2023-03-23 22-26-13-250978,0,0,1544,1456,0.088,-12.662,-2.29,-0.98,-9.39,5.79,-14.12,143.12,28.63438000000002
2023-03-23 22-26-13-265994,0,0,1544,1456,0.088,-12.662,-2.29,-0.95,-9.38,5.71,-14.03,143.17,28.684380000000004
2023-03-23 22-26-13-281457,0,0,1544,1456,0.088,-12.662,-2.28,-0.94,-9.38,5.64,-13.95,143.22,28.734380000000016
2023-03-23 22-26-13-297102,0,0,1544,1456,0.176,-12.662,-2.26,-0.93,-9.37,5.57,-13.85,143.28,28.794380000000018
2023-03-23 22-26-13-313152,0,0,1544,1456,0.088,-12.662,-2.26,-0.93,-9.41,5.5,-13.75,143.34,28.85438000000002
2023-03-23 22-26-13-330200,0,0,1544,1456,0.088,-12.662,-2.24,-0.93,-9.4,5.43,-13.65,143.39,28.904380000000003
2023-03-23 22-26-13-344869,0,0,1544,1456,0.088,-12.662,-2.22,-0.91,-9.41,5.36,-13.55,143.45,28.964380000000006
2023-03-23 22-26-13-368371,0,0,1544,1456,0.088,-12.662,-2.22,-0.91,-9.42,5.29,-13.43,143.51,29.024380000000008
2023-03-23 22-26-13-393713,0,0,1544,1456,0.088,-12.662,-2.22,-0.88,-9.43,5.22,-13.32,143.57,29.08438000000001
2023-03-23 22-26-13-409244,0,0,1544,1456,0.176,-12.662,-2.2,-0.88,-9.42,5.15,-13.2,143.63,29.144380000000012
2023-03-23 22-26-13-427903,0,0,1544,1456,0.088,-12.662,-2.18,-0.85,-9.43,5.08,-13.08,143.7,29.214380000000006
2023-03-23 22-26-13-457858,0,0,1544,1456,0.088,-12.662,-2.16,-0.84,-9.43,5.02,-12.95,143.76,29.274380000000008
2023-03-23 22-26-13-473030,0,0,1544,1456,0.088,-12.662,-2.13,-0.85,-9.44,4.95,-12.82,143.83,29.34438000000003
2023-03-23 22-26-13-496275,0,0,1544,1456,0.088,-12.662,-2.12,-0.82,-9.46,4.89,-12.69,143.89,29.404380000000003
2023-03-23 22-26-13-522209,0,0,1544,1456,0.088,-12.662,-2.11,-0.81,-9.47,4.82,-12.56,143.96,29.474380000000025
2023-03-23 22-26-13-536879,0,0,1544,1456,0.088,-12.662,-2.07,-0.8,-9.48,4.77,-12.43,144.02,29.534380000000027
2023-03-23 22-26-13-553245,0,0,1544,1456,0.088,-12.662,-2.05,-0.79,-9.49,4.7,-12.29,144.09,29.60438000000002
2023-03-23 22-26-13-570596,0,0,1544,1456,0.088,-12.662,-2.04,-0.78,-9.48,4.64,-12.15,144.15,29.664380000000023
2023-03-23 22-26-13-586201,0,0,1544,1456,0.088,-12.662,-2.03,-0.76,-9.49,4.58,-12.01,144.21,29.724380000000025
2023-03-23 22-26-13-602096,0,0,1544,1456,0.088,-12.662,-1.99,-0.76,-9.5,4.52,-11.87,144.27,29.784380000000027
2023-03-23 22-26-13-616965,0,0,1544,1456,0.088,-12.662,-1.98,-0.74,-9.51,4.46,-11.72,144.33,29.84438000000003
2023-03-23 22-26-13-632935,0,0,1544,1456,0.088,-12.662,-1.95,-0.73,-9.52,4.41,-11.57,144.39,29.904380000000003
2023-03-23 22-26-13-648987,0,0,1544,1456,0.088,-12.662,-1.94,-0.73,-9.53,4.35,-11.43,144.44,29.954380000000015
2023-03-23 22-26-13-666976,0,0,1545,1455,0.088,-12.662,-1.92,-0.72,-9.53,4.3,-11.28,144.49,30.004380000000026
2023-03-23 22-26-13-681804,0,0,1545,1455,0.088,-12.662,-1.89,-0.7,-9.54,4.24,-11.14,144.55,30.06438000000003
2023-03-23 22-26-13-697389,0,0,1545,1455,0.088,-12.662,-1.86,-0.71,-9.53,4.19,-10.99,144.6,30.11438000000001
2023-03-23 22-26-13-713507,0,0,1545,1455,0.088,-12.662,-1.84,-0.68,-9.53,4.14,-10.85,144.65,30.164380000000023
2023-03-23 22-26-13-730883,0,0,1545,1455,0.088,-12.662,-1.82,-0.67,-9.56,4.09,-10.7,144.71,30.224380000000025
2023-03-23 22-26-13-746696,0,0,1545,1455,0.088,-12.662,-1.8,-0.69,-9.57,4.03,-10.56,144.76,30.274380000000008
2023-03-23 22-26-13-760950,0,0,1545,1455,0.088,-12.662,-1.79,-0.68,-9.58,3.98,-10.42,144.82,30.33438000000001
2023-03-23 22-26-13-778393,0,0,1545,1455,0.088,-12.662,-1.76,-0.68,-9.59,3.93,-10.28,144.88,30.394380000000012
2023-03-23 22-26-13-793337,0,0,1545,1455,0.088,-12.662,-1.74,-0.64,-9.59,3.88,-10.14,144.93,30.444380000000024
2023-03-23 22-26-13-810158,0,0,1545,1455,0.088,-12.662,-1.71,-0.63,-9.59,3.83,-10.0,144.99,30.504380000000026
2023-03-23 22-26-13-824908,0,0,1545,1455,0.088,-12.662,-1.67,-0.62,-9.59,3.77,-9.87,145.05,30.56438000000003
2023-03-23 22-26-13-841382,0,0,1545,1455,0.088,-12.662,-1.66,-0.61,-9.61,3.72,-9.73,145.11,30.62438000000003
2023-03-23 22-26-13-857989,0,0,1545,1455,0.088,-12.662,-1.64,-0.6,-9.62,3.67,-9.59,145.17,30.684380000000004
2023-03-23 22-26-13-874991,0,0,1545,1455,0.088,-12.662,-1.61,-0.59,-9.62,3.62,-9.46,145.23,30.744380000000007
2023-03-23 22-26-13-889180,0,0,1545,1455,0.088,-12.662,-1.58,-0.59,-9.63,3.58,-9.33,145.28,30.794380000000018
2023-03-23 22-26-13-906266,0,0,1545,1455,0.088,-12.75,-1.56,-0.57,-9.62,3.53,-9.2,145.34,30.85438000000002
2023-03-23 22-26-13-922197,0,0,1545,1455,0.088,-12.662,-1.54,-0.58,-9.64,3.49,-9.07,145.4,30.914380000000023
2023-03-23 22-26-13-937959,0,0,1545,1455,0.088,-12.662,-1.52,-0.56,-9.64,3.44,-8.94,145.45,30.964380000000006
2023-03-23 22-26-13-968830,0,0,1545,1455,0.088,-12.662,-1.51,-0.55,-9.68,3.4,-8.81,145.5,31.014380000000017
2023-03-23 22-26-13-988504,0,0,1545,1455,0.088,-12.662,-1.48,-0.55,-9.65,3.35,-8.69,145.56,31.07438000000002
2023-03-23 22-26-14-017017,0,0,1545,1455,0.176,-12.662,-1.45,-0.55,-9.64,3.31,-8.57,145.61,31.12438000000003
2023-03-23 22-26-14-036795,0,0,1545,1455,0.088,-12.662,-1.46,-0.52,-9.66,3.26,-8.45,145.67,31.184380000000004
2023-03-23 22-26-14-067012,0,0,1545,1455,0.088,-12.662,-1.44,-0.54,-9.64,3.22,-8.34,145.72,31.234380000000016
2023-03-23 22-26-14-081050,0,0,1545,1455,0.088,-12.662,-1.41,-0.51,-9.66,3.18,-8.23,145.78,31.294380000000018
2023-03-23 22-26-14-100080,0,0,1545,1455,0.088,-12.662,-1.39,-0.51,-9.67,3.14,-8.12,145.84,31.35438000000002
2023-03-23 22-26-14-132495,0,0,1545,1455,0.088,-12.662,-1.37,-0.54,-9.71,3.1,-8.02,145.9,31.414380000000023
2023-03-23 22-26-14-169626,0,0,1545,1455,0.088,-12.662,-1.35,-0.52,-9.68,3.05,-7.92,145.95,31.464380000000006
2023-03-23 22-26-14-199481,0,0,1545,1455,0.088,-12.662,-1.33,-0.5,-9.69,3.01,-7.83,146.01,31.524380000000008
2023-03-23 22-26-14-237381,0,0,1545,1455,0.088,-12.662,-1.31,-0.5,-9.7,2.97,-7.74,146.07,31.58438000000001
2023-03-23 22-26-14-257158,0,0,1545,1455,0.088,-12.662,-1.29,-0.49,-9.7,2.93,-7.65,146.13,31.644380000000012
2023-03-23 22-26-14-290771,0,0,1545,1455,0.088,-12.662,-1.28,-0.48,-9.7,2.9,-7.57,146.18,31.694380000000024
2023-03-23 22-26-14-321183,0,0,1545,1455,0.088,-12.662,-1.29,-0.47,-9.7,2.86,-7.5,146.23,31.744380000000007
2023-03-23 22-26-14-355444,0,0,1545,1455,0.088,-12.662,-1.28,-0.46,-9.69,2.82,-7.42,146.29,31.80438000000001
2023-03-23 22-26-14-372817,0,0,1545,1455,0.088,-12.662,-1.26,-0.46,-9.69,2.78,-7.35,146.34,31.85438000000002
2023-03-23 22-26-14-407001,0,0,1545,1455,0.088,-12.662,-1.25,-0.45,-9.7,2.75,-7.29,146.4,31.914380000000023
2023-03-23 22-26-14-432686,0,0,1545,1455,0.088,-12.662,-1.24,-0.44,-9.69,2.71,-7.23,146.45,31.964380000000006
2023-03-23 22-26-14-448750,0,0,1546,1454,0.088,-12.662,-1.24,-0.44,-9.71,2.68,-7.17,146.5,32.01438000000002
2023-03-23 22-26-14-465056,0,0,1546,1454,0.088,-12.662,-1.23,-0.43,-9.71,2.65,-7.12,146.55,32.06438000000003
2023-03-23 22-26-14-481572,0,0,1546,1454,0.088,-12.662,-1.23,-0.42,-9.7,2.62,-7.07,146.6,32.11438000000001
2023-03-23 22-26-14-496754,0,0,1546,1454,0.088,-12.662,-1.22,-0.41,-9.67,2.59,-7.02,146.64,32.15438
2023-03-23 22-26-14-513887,0,0,1546,1454,0.088,-12.662,-1.2,-0.42,-9.67,2.55,-6.99,146.7,32.214380000000006
2023-03-23 22-26-14-528786,0,0,1546,1454,0.088,-12.662,-1.19,-0.43,-9.7,2.52,-6.95,146.74,32.254380000000026
2023-03-23 22-26-14-545133,0,0,1546,1454,0.088,-12.662,-1.2,-0.42,-9.72,2.49,-6.92,146.79,32.30438000000001
2023-03-23 22-26-14-561994,0,0,1546,1454,0.088,-12.662,-1.2,-0.4,-9.71,2.46,-6.89,146.83,32.34438000000003
2023-03-23 22-26-14-577165,0,0,1546,1454,0.088,-12.662,-1.19,-0.4,-9.7,2.43,-6.86,146.88,32.39438000000001
2023-03-23 22-26-14-592838,0,0,1546,1454,0.088,-12.662,-1.19,-0.39,-9.69,2.41,-6.85,146.93,32.444380000000024
2023-03-23 22-26-14-609834,0,0,1546,1454,0.088,-12.662,-1.18,-0.39,-9.71,2.38,-6.83,146.97,32.484380000000016
2023-03-23 22-26-14-642453,0,0,1546,1454,0.088,-12.662,-1.17,-0.38,-9.7,2.36,-6.82,147.02,32.53438000000003
2023-03-23 22-26-14-658389,0,0,1546,1454,0.088,-12.662,-1.17,-0.38,-9.7,2.33,-6.82,147.06,32.57438000000002
2023-03-23 22-26-14-672809,0,0,1546,1454,0.088,-12.662,-1.16,-0.37,-9.71,2.31,-6.82,147.1,32.61438000000001
2023-03-23 22-26-14-689650,0,0,1546,1454,0.088,-12.662,-1.17,-0.37,-9.71,2.29,-6.82,147.14,32.65438
2023-03-23 22-26-14-705357,0,0,1546,1454,0.088,-12.662,-1.18,-0.36,-9.7,2.27,-6.83,147.17,32.684380000000004
2023-03-23 22-26-14-723617,0,0,1546,1454,0.088,-12.662,-1.19,-0.36,-9.69,2.24,-6.84,147.21,32.724380000000025
2023-03-23 22-26-14-753607,0,0,1546,1454,0.088,-12.662,-1.18,-0.37,-9.71,2.22,-6.86,147.25,32.76438000000002
2023-03-23 22-26-14-769040,0,0,1546,1454,0.088,-12.662,-1.2,-0.36,-9.7,2.2,-6.88,147.29,32.80438000000001
2023-03-23 22-26-14-786076,0,0,1546,1454,0.088,-12.662,-1.19,-0.37,-9.71,2.18,-6.9,147.32,32.83438000000001
2023-03-23 22-26-14-801301,0,0,1546,1454,0.088,-12.662,-1.2,-0.38,-9.7,2.16,-6.93,147.35,32.86438000000001
2023-03-23 22-26-14-816976,0,0,1546,1454,0.088,-12.662,-1.21,-0.35,-9.68,2.15,-6.96,147.39,32.90438
2023-03-23 22-26-14-833037,0,0,1546,1454,0.088,-12.662,-1.24,-0.35,-9.74,2.13,-7.0,147.42,32.934380000000004
2023-03-23 22-26-14-849338,0,0,1546,1454,0.088,-12.662,-1.24,-0.35,-9.7,2.12,-7.03,147.45,32.964380000000006
2023-03-23 22-26-14-866443,0,0,1546,1454,0.088,-12.662,-1.25,-0.34,-9.73,2.11,-7.07,147.49,33.004380000000026
2023-03-23 22-26-14-881256,0,0,1546,1454,0.088,-12.662,-1.25,-0.34,-9.68,2.1,-7.12,147.53,33.04438000000002
2023-03-23 22-26-14-896916,0,0,1546,1454,0.088,-12.662,-1.24,-0.34,-9.67,2.09,-7.16,147.56,33.07438000000002
2023-03-23 22-26-14-913433,0,0,1546,1454,0.088,-12.662,-1.24,-0.33,-9.67,2.08,-7.21,147.6,33.11438000000001
2023-03-23 22-26-14-930774,0,0,1546,1454,0.088,-12.662,-1.25,-0.33,-9.65,2.07,-7.26,147.64,33.15438
2023-03-23 22-26-14-945957,0,0,1546,1454,0.088,-12.662,-1.25,-0.34,-9.69,2.06,-7.31,147.67,33.184380000000004
2023-03-23 22-26-14-976725,0,0,1546,1454,0.088,-12.662,-1.26,-0.34,-9.68,2.06,-7.36,147.7,33.214380000000006
2023-03-23 22-26-14-994216,0,0,1546,1454,0.176,-12.662,-1.27,-0.35,-9.68,2.05,-7.41,147.74,33.254380000000026
2023-03-23 22-26-15-009305,0,0,1546,1454,0.088,-12.662,-1.27,-0.35,-9.68,2.05,-7.46,147.77,33.28438000000003
2023-03-23 22-26-15-024879,0,0,1546,1454,0.088,-12.662,-1.27,-0.35,-9.69,2.05,-7.51,147.8,33.31438000000003
2023-03-23 22-26-15-041982,0,0,1546,1454,0.088,-12.662,-1.29,-0.35,-9.69,2.05,-7.57,147.83,33.34438000000003
2023-03-23 22-26-15-056822,0,0,1546,1454,0.088,-12.662,-1.3,-0.35,-9.7,2.04,-7.62,147.86,33.37438000000003
2023-03-23 22-26-15-073431,0,0,1546,1454,0.088,-12.662,-1.3,-0.35,-9.69,2.04,-7.68,147.89,33.40438
2023-03-23 22-26-15-090641,0,0,1546,1454,0.088,-12.662,-1.31,-0.35,-9.68,2.05,-7.73,147.92,33.434380000000004
