Timestamp_log,left_angle,right_angle,left_thrust,right_thrust,read_left_angle,read_right_angle,accel_x,accel_y,accel_z,roll,pitch,yaw,e_alpha
2023-03-23 21-51-27-905782,0,0,1529,1471,0.088,0.176,0.41,-0.55,-9.74,3.26,2.16,146.38,44.97848000000005
2023-03-23 21-51-27-921359,0,0,1534,1466,0.088,0.176,0.4,-0.56,-9.75,3.26,2.16,146.38,44.97848000000005
2023-03-23 21-51-27-954483,0,0,1534,1466,0.088,0.176,0.39,-0.56,-9.76,3.26,2.16,146.38,44.97848000000005
2023-03-23 21-51-27-987000,0,0,1534,1466,0.088,0.176,0.38,-0.56,-9.77,3.26,2.16,146.38,44.97848000000005
2023-03-23 21-51-28-017414,0,0,1534,1466,0.088,0.176,0.4,-0.56,-9.76,3.26,2.16,146.38,44.97848000000005
2023-03-23 21-51-28-032430,0,0,1534,1466,0.088,0.176,0.4,-0.55,-9.75,3.26,2.15,146.38,44.97848000000005
2023-03-23 21-51-28-054021,0,0,1534,1466,0.088,0.176,0.38,-0.55,-9.74,3.26,2.15,146.38,44.97848000000005
2023-03-23 21-51-28-082690,0,0,1534,1466,0.088,0.176,0.39,-0.55,-9.75,3.26,2.15,146.38,44.97848000000005
2023-03-23 21-51-28-117114,0,0,1534,1466,0.088,0.176,0.4,-0.56,-9.76,3.26,2.14,146.38,44.97848000000005
2023-03-23 21-51-28-146542,0,0,1534,1466,0.088,0.176,0.4,-0.55,-9.75,3.26,2.14,146.38,44.97848000000005
2023-03-23 21-51-28-175383,0,0,1534,1466,0.088,0.176,0.38,-0.55,-9.75,3.26,2.13,146.38,44.97848000000005
2023-03-23 21-51-28-194773,0,0,1534,1466,0.088,0.176,0.39,-0.56,-9.75,3.26,2.13,146.38,44.97848000000005
2023-03-23 21-51-28-226543,0,0,1534,1466,0.088,0.176,0.37,-0.55,-9.69,3.26,2.13,146.38,44.97848000000005
2023-03-23 21-51-28-267364,0,0,1534,1466,0.0,0.176,0.3,-0.52,-9.75,3.26,2.13,146.38,44.97848000000005
2023-03-23 21-51-28-293117,0,0,1534,1466,0.088,0.176,0.47,-0.59,-9.68,3.26,2.12,146.38,44.97848000000005
2023-03-23 21-51-28-329152,0,0,1534,1466,0.088,0.176,0.46,-0.57,-9.77,3.26,2.12,146.38,44.97848000000005
2023-03-23 21-51-28-357517,0,0,1534,1466,0.088,0.176,0.38,-0.55,-9.73,3.26,2.12,146.38,44.97848000000005
2023-03-23 21-51-28-385318,0,0,1534,1466,0.088,0.176,0.31,-0.55,-9.75,3.26,2.11,146.38,44.97848000000005
2023-03-23 21-51-28-401382,0,0,1534,1466,0.088,0.176,0.28,-0.58,-9.72,3.26,2.11,146.38,44.97848000000005
2023-03-23 21-51-28-417899,0,0,1534,1466,0.088,0.176,0.26,-0.56,-9.72,3.26,2.1,146.39,44.98848000000004
2023-03-23 21-51-28-435047,0,0,1534,1466,0.088,0.176,0.24,-0.58,-9.73,3.25,2.09,146.39,44.98848000000004
2023-03-23 21-51-28-466561,0,0,1534,1466,0.088,0.176,0.23,-0.55,-9.7,3.25,2.08,146.4,44.99848000000006
2023-03-23 21-51-28-497085,0,0,1534,1466,0.088,0.176,0.24,-0.56,-9.71,3.25,2.07,146.41,45.00848000000005
2023-03-23 21-51-28-512050,0,0,1534,1466,0.088,0.176,0.24,-0.56,-9.73,3.24,2.06,146.42,45.01848000000004
2023-03-23 21-51-28-535234,0,0,1534,1466,0.088,0.176,0.26,-0.56,-9.71,3.24,2.05,146.43,45.02848000000006
2023-03-23 21-51-28-568238,0,0,1534,1466,0.088,0.176,0.25,-0.55,-9.73,3.23,2.04,146.45,45.04848000000004
2023-03-23 21-51-28-598874,0,0,1534,1466,0.088,0.176,0.28,-0.55,-9.72,3.22,2.03,146.47,45.06848000000005
2023-03-23 21-51-28-623894,0,0,1534,1466,0.088,0.176,0.3,-0.54,-9.74,3.21,2.01,146.48,45.07848000000004
2023-03-23 21-51-28-644012,0,0,1534,1466,0.088,0.176,0.32,-0.55,-9.74,3.2,2.0,146.5,45.09848000000005
2023-03-23 21-51-28-671805,0,0,1534,1466,0.088,0.176,0.31,-0.55,-9.74,3.2,1.99,146.51,45.10848000000004
2023-03-23 21-51-28-687587,0,0,1534,1466,0.088,0.176,0.31,-0.55,-9.73,3.19,1.98,146.53,45.12848000000005
2023-03-23 21-51-28-703277,0,0,1534,1466,0.088,0.176,0.31,-0.55,-9.74,3.18,1.97,146.55,45.14848000000006
2023-03-23 21-51-28-720530,0,0,1534,1466,0.088,0.176,0.32,-0.55,-9.73,3.17,1.96,146.56,45.158480000000054
2023-03-23 21-51-28-735996,0,0,1534,1466,0.088,0.176,0.31,-0.55,-9.74,3.16,1.95,146.58,45.178480000000064
2023-03-23 21-51-28-752371,0,0,1534,1466,0.088,0.176,0.31,-0.54,-9.74,3.16,1.94,146.6,45.198480000000046
2023-03-23 21-51-28-768542,0,0,1534,1466,0.088,0.176,0.32,-0.53,-9.75,3.15,1.92,146.62,45.218480000000056
2023-03-23 21-51-28-800733,0,0,1534,1466,0.088,0.176,0.31,-0.54,-9.74,3.14,1.91,146.64,45.23848000000004
2023-03-23 21-51-28-815812,0,0,1534,1466,0.088,0.176,0.31,-0.55,-9.74,3.13,1.91,146.66,45.25848000000005
2023-03-23 21-51-28-853526,0,0,1534,1466,0.088,0.176,0.32,-0.54,-9.74,3.12,1.89,146.68,45.27848000000006
2023-03-23 21-51-28-879411,0,0,1534,1466,0.088,0.176,0.32,-0.55,-9.74,3.11,1.88,146.7,45.29848000000004
2023-03-23 21-51-28-896911,0,0,1534,1466,0.088,0.176,0.31,-0.54,-9.75,3.1,1.87,146.72,45.31848000000005
2023-03-23 21-51-28-914874,0,0,1534,1466,0.088,0.176,0.31,-0.54,-9.74,3.09,1.86,146.74,45.33848000000006
2023-03-23 21-51-28-943432,0,0,1534,1466,0.088,0.176,0.29,-0.54,-9.74,3.08,1.85,146.77,45.36848000000006
2023-03-23 21-51-28-960120,0,0,1534,1466,0.0,0.176,0.29,-0.53,-9.74,3.07,1.83,146.79,45.388480000000044
2023-03-23 21-51-28-975420,0,0,1534,1466,0.088,0.176,0.3,-0.54,-9.75,3.07,1.82,146.81,45.408480000000054
2023-03-23 21-51-28-993422,0,0,1534,1466,0.088,0.176,0.3,-0.52,-9.76,3.06,1.81,146.84,45.438480000000055
2023-03-23 21-51-29-007801,0,0,1534,1466,0.088,0.176,0.32,-0.54,-9.75,3.05,1.79,146.87,45.468480000000056
2023-03-23 21-51-29-023825,0,0,1534,1466,0.088,0.176,0.31,-0.52,-9.74,3.04,1.78,146.9,45.49848000000006
2023-03-23 21-51-29-039520,0,0,1534,1466,0.088,0.176,0.3,-0.52,-9.76,3.03,1.77,146.92,45.51848000000004
2023-03-23 21-51-29-055956,0,0,1534,1466,0.088,0.176,0.3,-0.52,-9.75,3.02,1.75,146.95,45.54848000000004
2023-03-23 21-51-29-073321,0,0,1534,1466,0.0,0.176,0.29,-0.52,-9.76,3.01,1.74,146.98,45.57848000000004
2023-03-23 21-51-29-104053,0,0,1534,1466,0.088,0.176,0.3,-0.53,-9.75,3.0,1.73,147.01,45.60848000000004
2023-03-23 21-51-29-120720,0,0,1534,1466,0.088,0.176,0.3,-0.52,-9.73,2.99,1.72,147.04,45.638480000000044
2023-03-23 21-51-29-135101,0,0,1534,1466,0.088,0.176,0.31,-0.53,-9.75,2.98,1.72,147.06,45.658480000000054
2023-03-23 21-51-29-152934,0,0,1534,1466,0.0,0.176,0.3,-0.53,-9.75,2.97,1.7,147.09,45.688480000000055
2023-03-23 21-51-29-168403,0,0,1534,1466,0.088,0.176,0.31,-0.51,-9.75,2.96,1.69,147.12,45.718480000000056
2023-03-23 21-51-29-189337,0,0,1534,1466,0.088,0.176,0.29,-0.51,-9.75,2.95,1.69,147.14,45.73848000000004
2023-03-23 21-51-29-219740,0,0,1534,1466,0.088,0.176,0.3,-0.51,-9.74,2.93,1.68,147.17,45.76848000000004
2023-03-23 21-51-29-249465,0,0,1534,1466,0.088,0.176,0.29,-0.51,-9.75,2.92,1.67,147.2,45.79848000000004
2023-03-23 21-51-29-262962,0,0,1534,1466,0.088,0.176,0.29,-0.51,-9.74,2.91,1.66,147.22,45.81848000000005
2023-03-23 21-51-29-295010,0,0,1534,1466,0.088,0.176,0.29,-0.51,-9.75,2.89,1.65,147.25,45.84848000000005
2023-03-23 21-51-29-311224,0,0,1534,1466,0.088,0.176,0.29,-0.51,-9.75,2.88,1.65,147.28,45.87848000000005
2023-03-23 21-51-29-327843,0,0,1534,1466,0.088,0.176,0.28,-0.52,-9.75,2.87,1.64,147.31,45.908480000000054
2023-03-23 21-51-29-344640,0,0,1534,1466,0.088,0.176,0.29,-0.5,-9.75,2.86,1.64,147.34,45.938480000000055
2023-03-23 21-51-29-377809,0,0,1534,1466,0.088,0.176,0.29,-0.5,-9.75,2.85,1.63,147.37,45.968480000000056
2023-03-23 21-51-29-392360,0,0,1534,1466,0.088,0.176,0.3,-0.5,-9.75,2.83,1.63,147.4,45.99848000000006
2023-03-23 21-51-29-425022,0,0,1534,1466,0.088,0.176,0.28,-0.5,-9.76,2.82,1.63,147.43,46.02848000000006
2023-03-23 21-51-29-439118,0,0,1534,1466,0.088,0.176,0.27,-0.51,-9.74,2.8,1.62,147.46,46.05848000000006
2023-03-23 21-51-29-456753,0,0,1534,1466,0.088,0.176,0.28,-0.5,-9.76,2.79,1.62,147.5,46.09848000000005
2023-03-23 21-51-29-471230,0,0,1534,1466,0.088,0.176,0.28,-0.5,-9.75,2.78,1.61,147.53,46.12848000000005
2023-03-23 21-51-29-488265,0,0,1534,1466,0.088,0.176,0.3,-0.49,-9.78,2.77,1.61,147.56,46.158480000000054
2023-03-23 21-51-29-519132,0,0,1534,1466,0.088,0.176,0.31,-0.48,-9.75,2.76,1.6,147.6,46.198480000000046
2023-03-23 21-51-29-537969,0,0,1534,1466,0.088,0.176,0.3,-0.48,-9.76,2.75,1.6,147.64,46.23848000000004
2023-03-23 21-51-29-568521,0,0,1534,1466,0.088,0.176,0.3,-0.48,-9.77,2.73,1.6,147.67,46.26848000000004
2023-03-23 21-51-29-585396,0,0,1534,1466,0.088,0.176,0.3,-0.47,-9.75,2.72,1.6,147.7,46.29848000000004
2023-03-23 21-51-29-600255,0,0,1534,1466,0.088,0.176,0.29,-0.47,-9.78,2.71,1.6,147.74,46.33848000000006
2023-03-23 21-51-29-616077,0,0,1534,1466,0.088,0.176,0.3,-0.47,-9.76,2.7,1.6,147.77,46.36848000000006
2023-03-23 21-51-29-632284,0,0,1534,1466,0.088,0.176,0.3,-0.46,-9.76,2.69,1.6,147.8,46.39848000000006
2023-03-23 21-51-29-647948,0,0,1534,1466,0.088,0.176,0.31,-0.46,-9.75,2.68,1.6,147.84,46.438480000000055
2023-03-23 21-51-29-664812,0,0,1534,1466,0.088,0.176,0.3,-0.47,-9.76,2.67,1.6,147.87,46.468480000000056
2023-03-23 21-51-29-680173,0,0,1534,1466,0.088,0.176,0.3,-0.46,-9.75,2.66,1.6,147.9,46.49848000000006
2023-03-23 21-51-29-697498,0,0,1534,1466,0.088,0.176,0.31,-0.45,-9.76,2.65,1.61,147.92,46.51848000000004
2023-03-23 21-51-29-711456,0,0,1534,1466,0.088,0.176,0.31,-0.44,-9.77,2.63,1.61,147.95,46.54848000000004
2023-03-23 21-51-29-728160,0,0,1534,1466,0.088,0.176,0.3,-0.45,-9.76,2.62,1.61,147.99,46.58848000000006
2023-03-23 21-51-29-746405,0,0,1534,1466,0.088,0.176,0.31,-0.45,-9.76,2.61,1.61,148.02,46.61848000000006
2023-03-23 21-51-29-776700,0,0,1534,1466,0.088,0.176,0.3,-0.44,-9.76,2.6,1.61,148.04,46.638480000000044
2023-03-23 21-51-29-792257,0,0,1534,1466,0.088,0.176,0.29,-0.45,-9.76,2.58,1.62,148.07,46.668480000000045
2023-03-23 21-51-29-815310,0,0,1534,1466,0.088,0.176,0.3,-0.46,-9.77,2.57,1.63,148.1,46.698480000000046
2023-03-23 21-51-29-839619,0,0,1534,1466,0.088,0.176,0.3,-0.46,-9.78,2.56,1.64,148.14,46.73848000000004
2023-03-23 21-51-29-856192,0,0,1534,1466,0.088,0.176,0.31,-0.46,-9.76,2.55,1.64,148.17,46.76848000000004
2023-03-23 21-51-29-871412,0,0,1534,1466,0.088,0.176,0.3,-0.44,-9.75,2.53,1.65,148.21,46.80848000000006
2023-03-23 21-51-29-887722,0,0,1534,1466,0.088,0.176,0.31,-0.46,-9.74,2.52,1.66,148.24,46.83848000000006
2023-03-23 21-51-29-903629,0,0,1534,1466,0.088,0.176,0.29,-0.44,-9.78,2.51,1.66,148.28,46.87848000000005
2023-03-23 21-51-29-919686,0,0,1534,1466,0.088,0.176,0.3,-0.45,-9.77,2.5,1.67,148.32,46.918480000000045
2023-03-23 21-51-29-936974,0,0,1534,1466,0.088,0.176,0.31,-0.43,-9.75,2.48,1.67,148.36,46.958480000000066
2023-03-23 21-51-29-951861,0,0,1534,1466,0.088,0.176,0.31,-0.43,-9.77,2.47,1.68,148.4,46.99848000000006
2023-03-23 21-51-29-968275,0,0,1534,1466,0.088,0.176,0.33,-0.43,-9.75,2.46,1.69,148.45,47.04848000000004
2023-03-23 21-51-29-983412,0,0,1534,1466,0.088,0.176,0.32,-0.42,-9.76,2.44,1.7,148.49,47.08848000000006
2023-03-23 21-51-30-000003,0,0,1534,1466,0.0,0.176,0.33,-0.41,-9.77,2.43,1.71,148.53,47.12848000000005
2023-03-23 21-51-30-015207,0,0,1534,1466,0.088,0.176,0.33,-0.42,-9.76,2.42,1.72,148.58,47.178480000000064
2023-03-23 21-51-30-036103,0,0,1534,1466,0.088,0.176,0.34,-0.42,-9.78,2.4,1.73,148.62,47.218480000000056
2023-03-23 21-51-30-063879,0,0,1534,1466,0.088,0.176,0.35,-0.42,-9.77,2.39,1.74,148.66,47.25848000000005
2023-03-23 21-51-30-083188,0,0,1534,1466,0.088,0.176,0.34,-0.43,-9.77,2.37,1.75,148.7,47.29848000000004
2023-03-23 21-51-30-110996,0,0,1534,1466,0.088,0.176,0.34,-0.41,-9.77,2.36,1.77,148.75,47.34848000000005
2023-03-23 21-51-30-127162,0,0,1534,1466,0.088,0.176,0.34,-0.42,-9.77,2.35,1.78,148.79,47.388480000000044
2023-03-23 21-51-30-143224,0,0,1534,1466,0.088,0.176,0.36,-0.42,-9.78,2.34,1.8,148.83,47.428480000000064
2023-03-23 21-51-30-160134,0,0,1534,1466,0.088,0.176,0.35,-0.42,-9.78,2.32,1.81,148.87,47.468480000000056
2023-03-23 21-51-30-176522,0,0,1534,1466,0.088,0.176,0.37,-0.42,-9.78,2.31,1.83,148.92,47.51848000000004
2023-03-23 21-51-30-192285,0,0,1534,1466,0.088,0.176,0.38,-0.41,-9.78,2.3,1.84,148.97,47.56848000000005
2023-03-23 21-51-30-209050,0,0,1534,1466,0.088,0.176,0.4,-0.41,-9.78,2.28,1.85,149.02,47.61848000000006
2023-03-23 21-51-30-223329,0,0,1534,1466,0.088,0.176,0.39,-0.41,-9.77,2.27,1.86,149.07,47.668480000000045
2023-03-23 21-51-30-239649,0,0,1534,1466,0.088,0.176,0.38,-0.42,-9.78,2.26,1.88,149.12,47.718480000000056
2023-03-23 21-51-30-255181,0,0,1534,1466,0.088,0.176,0.4,-0.42,-9.77,2.25,1.89,149.18,47.77848000000006
2023-03-23 21-51-30-272137,0,0,1534,1466,0.0,0.176,0.38,-0.42,-9.77,2.24,1.91,149.23,47.82848000000004
2023-03-23 21-51-30-289105,0,0,1534,1466,0.088,0.176,0.37,-0.4,-9.77,2.23,1.92,149.3,47.89848000000006
2023-03-23 21-51-30-303812,0,0,1534,1466,0.088,0.176,0.37,-0.4,-9.75,2.22,1.93,149.36,47.958480000000066
2023-03-23 21-51-30-319200,0,0,1534,1466,0.088,0.176,0.37,-0.4,-9.79,2.21,1.94,149.43,48.02848000000006
2023-03-23 21-51-30-335267,0,0,1534,1466,0.088,0.176,0.37,-0.41,-9.77,2.2,1.95,149.5,48.09848000000005
2023-03-23 21-51-30-367656,0,0,1534,1466,0.088,0.176,0.39,-0.41,-9.77,2.2,1.96,149.56,48.158480000000054
2023-03-23 21-51-30-383155,0,0,1534,1466,0.088,0.176,0.41,-0.4,-9.78,2.19,1.97,149.63,48.22848000000005
2023-03-23 21-51-30-415094,0,0,1534,1466,0.088,0.176,0.41,-0.4,-9.77,2.19,1.98,149.71,48.30848000000006
2023-03-23 21-51-30-447136,0,0,1534,1466,0.088,0.176,0.39,-0.4,-9.77,2.19,1.99,149.78,48.37848000000005
2023-03-23 21-51-30-474863,0,0,1534,1466,0.088,0.176,0.4,-0.39,-9.77,2.18,1.99,149.86,48.458480000000066
2023-03-23 21-51-30-496370,0,0,1534,1466,0.088,0.176,0.41,-0.39,-9.78,2.18,2.0,149.94,48.53848000000005
2023-03-23 21-51-30-511423,0,0,1534,1466,0.088,0.176,0.41,-0.39,-9.81,2.17,2.01,150.01,48.60848000000004
2023-03-23 21-51-30-538283,0,0,1534,1466,0.088,0.176,0.44,-0.4,-9.78,2.17,2.01,150.09,48.688480000000055
2023-03-23 21-51-30-559691,0,0,1534,1466,0.088,0.176,0.43,-0.4,-9.8,2.17,2.02,150.17,48.76848000000004
2023-03-23 21-51-30-577457,0,0,1534,1466,0.088,0.176,0.44,-0.41,-9.78,2.17,2.02,150.26,48.85848000000004
2023-03-23 21-51-30-605974,0,0,1534,1466,0.088,0.176,0.37,-0.38,-9.79,2.17,2.02,150.34,48.938480000000055
2023-03-23 21-51-30-623102,0,0,1534,1466,0.088,0.176,0.37,-0.37,-9.77,2.16,2.02,150.43,49.02848000000006
2023-03-23 21-51-30-648770,0,0,1534,1466,0.088,0.176,0.36,-0.38,-9.77,2.16,2.02,150.51,49.10848000000004
2023-03-23 21-51-30-672019,0,0,1534,1466,0.088,0.176,0.36,-0.38,-9.77,2.17,2.02,150.59,49.188480000000055
2023-03-23 21-51-30-687047,0,0,1534,1466,0.088,0.088,0.35,-0.38,-9.76,2.17,2.02,150.67,49.26848000000004
2023-03-23 21-51-30-707802,0,0,1534,1466,0.088,0.176,0.36,-0.39,-9.77,2.17,2.01,150.74,49.33848000000006
2023-03-23 21-51-30-735483,0,0,1534,1466,0.088,0.176,0.36,-0.39,-9.78,2.17,2.0,150.82,49.418480000000045
2023-03-23 21-51-30-750942,0,0,1534,1466,0.088,0.176,0.35,-0.39,-9.77,2.17,1.99,150.89,49.48848000000004
2023-03-23 21-51-30-767480,0,0,1534,1466,0.088,0.176,0.36,-0.39,-9.77,2.17,1.98,150.96,49.55848000000006
2023-03-23 21-51-30-785723,0,0,1534,1466,0.088,0.176,0.36,-0.38,-9.76,2.17,1.97,151.03,49.62848000000005
2023-03-23 21-51-30-799806,0,0,1534,1466,0.088,0.176,0.35,-0.41,-9.77,2.16,1.96,151.1,49.698480000000046
2023-03-23 21-51-30-815452,0,0,1534,1466,0.0,0.176,0.35,-0.39,-9.78,2.16,1.95,151.17,49.76848000000004
2023-03-23 21-51-30-832120,0,0,1534,1466,0.088,0.176,0.34,-0.38,-9.75,2.16,1.93,151.23,49.82848000000004
2023-03-23 21-51-30-863634,0,0,1534,1466,0.088,0.176,0.33,-0.38,-9.8,2.16,1.91,151.3,49.89848000000006
2023-03-23 21-51-30-879168,0,0,1535,1465,0.088,0.176,0.34,-0.39,-9.76,2.16,1.9,151.37,49.968480000000056
2023-03-23 21-51-30-895314,0,0,1535,1465,0.088,0.176,0.31,-0.4,-9.78,2.15,1.88,151.43,50.02848000000006
2023-03-23 21-51-30-912925,0,0,1535,1465,0.088,0.176,0.34,-0.37,-9.76,2.15,1.86,151.5,50.09848000000005
2023-03-23 21-51-30-928055,0,0,1535,1465,0.088,0.176,0.32,-0.38,-9.77,2.15,1.83,151.56,50.158480000000054
2023-03-23 21-51-30-943635,0,0,1535,1465,0.088,0.176,0.33,-0.38,-9.76,2.14,1.81,151.62,50.218480000000056
2023-03-23 21-51-30-959387,0,0,1535,1465,0.088,0.176,0.33,-0.38,-9.76,2.14,1.79,151.67,50.26848000000004
2023-03-23 21-51-30-977147,0,0,1535,1465,0.088,0.176,0.32,-0.38,-9.77,2.13,1.76,151.73,50.32848000000004
2023-03-23 21-51-30-991199,0,0,1535,1465,0.088,0.176,0.33,-0.37,-9.77,2.12,1.74,151.78,50.37848000000005
2023-03-23 21-51-31-008022,0,0,1535,1465,0.088,0.176,0.33,-0.37,-9.77,2.11,1.71,151.84,50.438480000000055
2023-03-23 21-51-31-023721,0,0,1535,1465,0.088,0.176,0.32,-0.38,-9.78,2.1,1.69,151.89,50.48848000000004
2023-03-23 21-51-31-040031,0,0,1535,1465,0.088,0.176,0.33,-0.37,-9.78,2.1,1.66,151.94,50.53848000000005
2023-03-23 21-51-31-055288,0,0,1535,1465,0.088,0.176,0.32,-0.38,-9.78,2.09,1.63,152.0,50.59848000000005
2023-03-23 21-51-31-071705,0,0,1535,1465,0.088,0.176,0.31,-0.38,-9.79,2.08,1.6,152.05,50.64848000000006
2023-03-23 21-51-31-087160,0,0,1535,1465,0.088,0.176,0.3,-0.38,-9.78,2.08,1.57,152.1,50.698480000000046
2023-03-23 21-51-31-109372,0,0,1535,1465,0.088,0.176,0.3,-0.37,-9.79,2.07,1.54,152.15,50.74848000000006
2023-03-23 21-51-31-137703,0,0,1535,1465,0.088,0.176,0.3,-0.37,-9.79,2.06,1.51,152.2,50.79848000000004
2023-03-23 21-51-31-166947,0,0,1535,1465,0.088,0.176,0.3,-0.37,-9.79,2.05,1.47,152.25,50.84848000000005
2023-03-23 21-51-31-188899,0,0,1535,1465,0.088,0.176,0.29,-0.37,-9.8,2.04,1.44,152.29,50.888480000000044
2023-03-23 21-51-31-216133,0,0,1535,1465,0.088,0.176,0.29,-0.37,-9.78,2.03,1.41,152.34,50.938480000000055
2023-03-23 21-51-31-231635,0,0,1535,1465,0.088,0.176,0.28,-0.37,-9.79,2.02,1.37,152.39,50.98848000000004
2023-03-23 21-51-31-248649,0,0,1535,1465,0.088,0.176,0.28,-0.37,-9.77,2.01,1.34,152.44,51.03848000000005
2023-03-23 21-51-31-264401,0,0,1535,1465,0.088,0.176,0.28,-0.37,-9.77,2.0,1.31,152.49,51.08848000000006
2023-03-23 21-51-31-280896,0,0,1535,1465,0.088,0.176,0.27,-0.36,-9.77,1.98,1.27,152.54,51.138480000000044
2023-03-23 21-51-31-295241,0,0,1535,1465,0.088,0.176,0.25,-0.37,-9.76,1.97,1.24,152.59,51.188480000000055
2023-03-23 21-51-31-312552,0,0,1535,1465,0.088,0.176,0.23,-0.37,-9.77,1.96,1.2,152.64,51.23848000000004
2023-03-23 21-51-31-330582,0,0,1535,1465,0.088,0.176,0.23,-0.36,-9.77,1.95,1.17,152.68,51.27848000000006
2023-03-23 21-51-31-359378,0,0,1535,1465,0.088,0.176,0.22,-0.38,-9.78,1.94,1.13,152.73,51.32848000000004
2023-03-23 21-51-31-375040,0,0,1535,1465,0.0,0.176,0.23,-0.35,-9.77,1.93,1.1,152.78,51.37848000000005
2023-03-23 21-51-31-391141,0,0,1535,1465,0.088,0.176,0.23,-0.36,-9.75,1.92,1.06,152.83,51.428480000000064
2023-03-23 21-51-31-408544,0,0,1535,1465,0.088,0.176,0.22,-0.36,-9.77,1.91,1.03,152.88,51.47848000000005
2023-03-23 21-51-31-424130,0,0,1535,1465,0.088,0.176,0.22,-0.35,-9.77,1.9,0.99,152.92,51.51848000000004
2023-03-23 21-51-31-439103,0,0,1535,1465,0.088,0.176,0.21,-0.35,-9.77,1.89,0.95,152.97,51.56848000000005
2023-03-23 21-51-31-455802,0,0,1535,1465,0.088,0.176,0.2,-0.34,-9.77,1.88,0.92,153.02,51.61848000000006
2023-03-23 21-51-31-472893,0,0,1535,1465,0.0,0.176,0.2,-0.33,-9.77,1.87,0.89,153.07,51.668480000000045
2023-03-23 21-51-31-487091,0,0,1535,1465,0.088,0.088,0.18,-0.34,-9.76,1.85,0.86,153.11,51.708480000000066
2023-03-23 21-51-31-504413,0,0,1535,1465,0.088,0.176,0.19,-0.35,-9.78,1.85,0.83,153.16,51.75848000000005
2023-03-23 21-51-31-519028,0,0,1535,1465,0.088,0.176,0.19,-0.34,-9.79,1.83,0.79,153.2,51.79848000000004
2023-03-23 21-51-31-537283,0,0,1535,1465,0.088,0.176,0.18,-0.33,-9.77,1.82,0.76,153.24,51.83848000000006
2023-03-23 21-51-31-551118,0,0,1535,1465,0.088,0.176,0.17,-0.33,-9.78,1.81,0.73,153.29,51.888480000000044
2023-03-23 21-51-31-568290,0,0,1535,1465,0.088,0.176,0.17,-0.33,-9.77,1.79,0.69,153.33,51.928480000000064
2023-03-23 21-51-31-582952,0,0,1535,1465,0.088,0.176,0.16,-0.34,-9.79,1.78,0.66,153.37,51.968480000000056
2023-03-23 21-51-31-600804,0,0,1535,1465,0.088,0.176,0.16,-0.33,-9.78,1.77,0.62,153.42,52.01848000000004
2023-03-23 21-51-31-614759,0,0,1535,1465,0.088,0.176,0.16,-0.32,-9.78,1.76,0.59,153.46,52.05848000000006
2023-03-23 21-51-31-631773,0,0,1535,1465,0.088,0.176,0.14,-0.33,-9.77,1.75,0.55,153.5,52.09848000000005
2023-03-23 21-51-31-647122,0,0,1535,1465,0.088,0.176,0.12,-0.33,-9.77,1.73,0.52,153.55,52.14848000000006
2023-03-23 21-51-31-663754,0,0,1535,1465,0.088,0.176,0.11,-0.33,-9.76,1.72,0.49,153.59,52.188480000000055
2023-03-23 21-51-31-678785,0,0,1535,1465,0.088,0.176,0.1,-0.32,-9.75,1.7,0.46,153.64,52.23848000000004
2023-03-23 21-51-31-696347,0,0,1535,1465,0.088,0.176,0.1,-0.31,-9.75,1.69,0.43,153.69,52.28848000000005
2023-03-23 21-51-31-711008,0,0,1535,1465,0.0,0.176,0.11,-0.32,-9.78,1.68,0.4,153.74,52.33848000000006
2023-03-23 21-51-31-727632,0,0,1535,1465,0.088,0.176,0.12,-0.31,-9.77,1.67,0.36,153.78,52.37848000000005
2023-03-23 21-51-31-742865,0,0,1535,1465,0.088,0.176,0.1,-0.32,-9.78,1.66,0.33,153.84,52.438480000000055
2023-03-23 21-51-31-759484,0,0,1535,1465,0.088,0.176,0.09,-0.32,-9.77,1.65,0.3,153.89,52.48848000000004
2023-03-23 21-51-31-775103,0,0,1535,1465,0.088,0.176,0.08,-0.31,-9.76,1.64,0.27,153.94,52.53848000000005
2023-03-23 21-51-31-791075,0,0,1535,1465,0.088,0.176,0.09,-0.31,-9.8,1.63,0.23,154.0,52.59848000000005
2023-03-23 21-51-31-808376,0,0,1535,1465,0.088,0.176,0.09,-0.31,-9.78,1.62,0.21,154.05,52.64848000000006
2023-03-23 21-51-31-823397,0,0,1535,1465,0.088,0.176,0.09,-0.3,-9.78,1.61,0.18,154.1,52.698480000000046
2023-03-23 21-51-31-839045,0,0,1535,1465,0.088,0.176,0.08,-0.3,-9.77,1.6,0.15,154.16,52.75848000000005
2023-03-23 21-51-31-855050,0,0,1535,1465,0.088,0.176,0.06,-0.3,-9.76,1.59,0.12,154.21,52.80848000000006
2023-03-23 21-51-31-872188,0,0,1535,1465,0.088,0.264,0.05,-0.3,-9.78,1.58,0.09,154.26,52.85848000000004
2023-03-23 21-51-31-888426,0,0,1535,1465,0.088,0.176,0.07,-0.31,-9.79,1.57,0.06,154.31,52.908480000000054
2023-03-23 21-51-31-904540,0,0,1535,1465,0.088,0.176,0.07,-0.3,-9.78,1.56,0.03,154.37,52.968480000000056
2023-03-23 21-51-31-919045,0,0,1535,1465,0.088,0.176,0.08,-0.3,-9.79,1.56,0.0,154.42,53.01848000000004
2023-03-23 21-51-31-935054,0,0,1535,1465,0.088,0.176,0.08,-0.29,-9.8,1.55,-0.02,154.48,53.07848000000004
2023-03-23 21-51-31-953158,0,0,1535,1465,0.088,0.176,0.08,-0.3,-9.79,1.54,-0.04,154.53,53.12848000000005
2023-03-23 21-51-31-968596,0,0,1535,1465,0.0,0.176,0.07,-0.29,-9.79,1.54,-0.06,154.59,53.188480000000055
2023-03-23 21-51-31-982996,0,0,1535,1465,0.088,0.176,0.07,-0.29,-9.79,1.53,-0.09,154.65,53.24848000000006
2023-03-23 21-51-31-998981,0,0,1535,1465,0.088,0.176,0.06,-0.3,-9.79,1.53,-0.11,154.72,53.31848000000005
2023-03-23 21-51-32-015545,0,0,1535,1465,0.088,0.176,0.05,-0.28,-9.78,1.52,-0.13,154.78,53.37848000000005
2023-03-23 21-51-32-032398,0,0,1535,1465,0.088,0.176,0.04,-0.28,-9.79,1.51,-0.16,154.85,53.448480000000046
2023-03-23 21-51-32-047769,0,0,1535,1465,0.088,0.176,0.05,-0.3,-9.8,1.51,-0.17,154.91,53.50848000000005
2023-03-23 21-51-32-063098,0,0,1535,1465,0.088,0.176,0.03,-0.29,-9.79,1.51,-0.2,154.98,53.57848000000004
2023-03-23 21-51-32-079718,0,0,1535,1465,0.088,0.176,0.03,-0.28,-9.76,1.5,-0.22,155.05,53.64848000000006
2023-03-23 21-51-32-098950,0,0,1535,1465,0.088,0.176,0.02,-0.27,-9.8,1.5,-0.24,155.12,53.718480000000056
2023-03-23 21-51-32-128488,0,0,1535,1465,0.088,0.176,0.03,-0.29,-9.77,1.5,-0.26,155.19,53.78848000000005
2023-03-23 21-51-32-144312,0,0,1535,1465,0.088,0.176,0.03,-0.3,-9.81,1.49,-0.27,155.26,53.85848000000004
2023-03-23 21-51-32-159086,0,0,1535,1465,0.088,0.176,0.03,-0.28,-9.8,1.5,-0.29,155.34,53.938480000000055
2023-03-23 21-51-32-176304,0,0,1535,1465,0.088,0.176,0.02,-0.28,-9.78,1.5,-0.31,155.41,54.00848000000005
2023-03-23 21-51-32-190995,0,0,1535,1465,0.088,0.176,0.01,-0.28,-9.8,1.5,-0.32,155.49,54.08848000000006
2023-03-23 21-51-32-208229,0,0,1535,1465,0.088,0.176,0.02,-0.29,-9.79,1.5,-0.34,155.57,54.168480000000045
2023-03-23 21-51-32-223852,0,0,1535,1465,0.088,0.176,0.04,-0.3,-9.8,1.5,-0.35,155.65,54.24848000000006
2023-03-23 21-51-32-240568,0,0,1535,1465,0.0,0.176,0.05,-0.28,-9.81,1.5,-0.37,155.73,54.32848000000004
2023-03-23 21-51-32-255255,0,0,1535,1465,0.088,0.176,0.06,-0.29,-9.81,1.5,-0.38,155.81,54.408480000000054
2023-03-23 21-51-32-271602,0,0,1535,1465,0.088,0.176,-0.01,-0.28,-9.81,1.5,-0.4,155.9,54.49848000000006
2023-03-23 21-51-32-288499,0,0,1535,1465,0.088,0.176,-0.05,-0.27,-9.77,1.51,-0.41,155.99,54.58848000000006
2023-03-23 21-51-32-304485,0,0,1535,1465,0.088,0.176,-0.06,-0.27,-9.77,1.51,-0.43,156.07,54.668480000000045
2023-03-23 21-51-32-318902,0,0,1535,1465,0.088,0.176,-0.05,-0.28,-9.77,1.51,-0.45,156.15,54.74848000000006
2023-03-23 21-51-32-334963,0,0,1535,1465,0.088,0.176,-0.06,-0.27,-9.78,1.51,-0.46,156.23,54.82848000000004
2023-03-23 21-51-32-351227,0,0,1535,1465,0.088,0.176,-0.05,-0.27,-9.78,1.51,-0.48,156.31,54.908480000000054
2023-03-23 21-51-32-367968,0,0,1535,1465,0.088,0.176,-0.07,-0.28,-9.78,1.52,-0.5,156.38,54.97848000000005
2023-03-23 21-51-32-383053,0,0,1535,1465,0.088,0.176,-0.08,-0.29,-9.78,1.52,-0.52,156.46,55.05848000000006
2023-03-23 21-51-32-399741,0,0,1535,1465,0.088,0.176,-0.08,-0.28,-9.78,1.52,-0.53,156.53,55.12848000000005
2023-03-23 21-51-32-415233,0,0,1535,1465,0.0,0.176,-0.06,-0.26,-9.77,1.52,-0.55,156.6,55.198480000000046
2023-03-23 21-51-32-431653,0,0,1535,1465,0.088,0.176,-0.07,-0.27,-9.78,1.52,-0.56,156.66,55.25848000000005
2023-03-23 21-51-32-448862,0,0,1535,1465,0.088,0.176,-0.08,-0.28,-9.77,1.52,-0.58,156.73,55.32848000000004
2023-03-23 21-51-32-463673,0,0,1535,1465,0.088,0.176,-0.09,-0.3,-9.79,1.51,-0.59,156.79,55.388480000000044
2023-03-23 21-51-32-479360,0,0,1535,1465,0.088,0.176,-0.09,-0.27,-9.76,1.51,-0.61,156.85,55.448480000000046
2023-03-23 21-51-32-495422,0,0,1535,1465,0.088,0.176,-0.08,-0.27,-9.75,1.5,-0.62,156.91,55.50848000000005
2023-03-23 21-51-32-513517,0,0,1535,1465,0.088,0.176,-0.1,-0.25,-9.78,1.5,-0.64,156.97,55.56848000000005
2023-03-23 21-51-32-528379,0,0,1535,1465,0.088,0.176,-0.09,-0.27,-9.78,1.5,-0.65,157.03,55.62848000000005
2023-03-23 21-51-32-543358,0,0,1535,1465,0.088,0.176,-0.09,-0.27,-9.78,1.5,-0.67,157.09,55.688480000000055
2023-03-23 21-51-32-559082,0,0,1535,1465,0.088,0.176,-0.1,-0.27,-9.78,1.49,-0.69,157.15,55.74848000000006
2023-03-23 21-51-32-575967,0,0,1535,1465,0.088,0.176,-0.09,-0.28,-9.75,1.48,-0.7,157.21,55.80848000000006
2023-03-23 21-51-32-591238,0,0,1535,1465,0.088,0.176,-0.1,-0.28,-9.78,1.48,-0.72,157.27,55.86848000000006
2023-03-23 21-51-32-608405,0,0,1535,1465,0.088,0.176,-0.1,-0.27,-9.77,1.47,-0.73,157.33,55.928480000000064
2023-03-23 21-51-32-622995,0,0,1535,1465,0.088,0.176,-0.09,-0.27,-9.77,1.47,-0.74,157.38,55.97848000000005
2023-03-23 21-51-32-639458,0,0,1535,1465,0.088,0.176,-0.1,-0.26,-9.78,1.46,-0.75,157.44,56.03848000000005
2023-03-23 21-51-32-654865,0,0,1535,1465,0.088,0.176,-0.1,-0.25,-9.76,1.46,-0.77,157.5,56.09848000000005
2023-03-23 21-51-32-672175,0,0,1535,1465,0.088,0.176,-0.1,-0.25,-9.77,1.45,-0.78,157.55,56.14848000000006
2023-03-23 21-51-32-687090,0,0,1535,1465,0.088,0.176,-0.1,-0.26,-9.77,1.44,-0.79,157.61,56.208480000000066
2023-03-23 21-51-32-704189,0,0,1535,1465,0.088,0.176,-0.11,-0.26,-9.77,1.44,-0.8,157.66,56.25848000000005
2023-03-23 21-51-32-718711,0,0,1535,1465,0.088,0.176,-0.09,-0.26,-9.77,1.42,-0.81,157.71,56.30848000000006
2023-03-23 21-51-32-735994,0,0,1535,1465,0.0,0.176,-0.11,-0.26,-9.78,1.42,-0.82,157.76,56.35848000000004
2023-03-23 21-51-32-750970,0,0,1535,1465,0.088,0.176,-0.09,-0.25,-9.77,1.41,-0.83,157.82,56.418480000000045
2023-03-23 21-51-32-783811,0,0,1535,1465,0.088,0.176,-0.1,-0.24,-9.78,1.4,-0.84,157.86,56.458480000000066
2023-03-23 21-51-32-799070,0,0,1535,1465,0.088,0.176,-0.1,-0.24,-9.77,1.39,-0.85,157.92,56.51848000000004
2023-03-23 21-51-32-814900,0,0,1535,1465,0.088,0.176,-0.1,-0.24,-9.77,1.38,-0.86,157.97,56.56848000000005
2023-03-23 21-51-32-832084,0,0,1535,1465,0.088,0.176,-0.1,-0.23,-9.77,1.37,-0.87,158.02,56.61848000000006
2023-03-23 21-51-32-849079,0,0,1535,1465,0.088,0.176,-0.12,-0.24,-9.77,1.36,-0.87,158.07,56.668480000000045
2023-03-23 21-51-32-881716,0,0,1535,1465,0.088,0.176,-0.12,-0.25,-9.77,1.35,-0.88,158.11,56.708480000000066
2023-03-23 21-51-32-895712,0,0,1535,1465,0.088,0.176,-0.12,-0.25,-9.76,1.34,-0.9,158.16,56.75848000000005
2023-03-23 21-51-32-930400,0,0,1535,1465,0.088,0.176,-0.13,-0.26,-9.77,1.33,-0.9,158.21,56.80848000000006
2023-03-23 21-51-32-964503,0,0,1535,1465,0.088,0.176,-0.13,-0.23,-9.8,1.32,-0.91,158.26,56.85848000000004
2023-03-23 21-51-32-995082,0,0,1535,1465,0.088,0.176,-0.12,-0.23,-9.77,1.31,-0.92,158.31,56.908480000000054
2023-03-23 21-51-33-025882,0,0,1535,1465,0.088,0.176,-0.14,-0.24,-9.78,1.3,-0.93,158.36,56.958480000000066
2023-03-23 21-51-33-043114,0,0,1535,1465,0.0,0.176,-0.11,-0.23,-9.76,1.29,-0.93,158.41,57.00848000000005
2023-03-23 21-51-33-074458,0,0,1535,1465,0.088,0.176,-0.13,-0.23,-9.79,1.27,-0.94,158.46,57.05848000000006
2023-03-23 21-51-33-108222,0,0,1535,1465,0.088,0.176,-0.13,-0.22,-9.77,1.27,-0.94,158.51,57.10848000000004
2023-03-23 21-51-33-138230,0,0,1535,1465,0.0,0.176,-0.13,-0.22,-9.78,1.26,-0.95,158.55,57.14848000000006
2023-03-23 21-51-33-171213,0,0,1535,1465,0.088,0.176,-0.13,-0.21,-9.78,1.25,-0.96,158.6,57.198480000000046
2023-03-23 21-51-33-201645,0,0,1535,1465,0.088,0.176,-0.12,-0.21,-9.76,1.23,-0.97,158.65,57.24848000000006
2023-03-23 21-51-33-220684,0,0,1535,1465,0.088,0.176,-0.13,-0.22,-9.79,1.22,-0.98,158.69,57.28848000000005
2023-03-23 21-51-33-251736,0,0,1535,1465,0.088,0.176,-0.13,-0.23,-9.8,1.21,-0.98,158.74,57.33848000000006
2023-03-23 21-51-33-284867,0,0,1535,1465,0.088,0.176,-0.13,-0.22,-9.77,1.2,-0.99,158.78,57.37848000000005
2023-03-23 21-51-33-314872,0,0,1535,1465,0.088,0.176,-0.12,-0.21,-9.76,1.19,-1.0,158.83,57.428480000000064
2023-03-23 21-51-33-347775,0,0,1535,1465,0.088,0.176,-0.13,-0.21,-9.78,1.18,-1.01,158.87,57.468480000000056
2023-03-23 21-51-33-379348,0,0,1535,1465,0.088,0.176,-0.12,-0.2,-9.76,1.17,-1.02,158.91,57.50848000000005
2023-03-23 21-51-33-411680,0,0,1535,1465,0.088,0.176,-0.13,-0.2,-9.78,1.15,-1.03,158.95,57.54848000000004
2023-03-23 21-51-33-444462,0,0,1535,1465,0.088,0.176,-0.12,-0.21,-9.77,1.14,-1.03,158.99,57.58848000000006
2023-03-23 21-51-33-476598,0,0,1535,1465,0.088,0.176,-0.14,-0.21,-9.78,1.13,-1.04,159.02,57.61848000000006
2023-03-23 21-51-33-505719,0,0,1535,1465,0.088,0.176,-0.13,-0.2,-9.78,1.11,-1.05,159.06,57.658480000000054
2023-03-23 21-51-33-524305,0,0,1535,1465,0.088,0.176,-0.15,-0.19,-9.79,1.1,-1.06,159.1,57.698480000000046
2023-03-23 21-51-33-555291,0,0,1535,1465,0.088,0.176,-0.15,-0.2,-9.78,1.09,-1.07,159.14,57.73848000000004
2023-03-23 21-51-33-587908,0,0,1535,1465,0.088,0.176,-0.16,-0.2,-9.77,1.07,-1.08,159.17,57.76848000000004
2023-03-23 21-51-33-619476,0,0,1535,1465,0.088,0.176,-0.16,-0.2,-9.77,1.06,-1.09,159.21,57.80848000000006
2023-03-23 21-51-33-651709,0,0,1535,1465,0.088,0.176,-0.16,-0.2,-9.77,1.05,-1.1,159.24,57.83848000000006
2023-03-23 21-51-33-684783,0,0,1535,1465,0.088,0.176,-0.15,-0.2,-9.77,1.04,-1.1,159.28,57.87848000000005
2023-03-23 21-51-33-713942,0,0,1535,1465,0.088,0.176,-0.14,-0.19,-9.75,1.03,-1.11,159.32,57.918480000000045
2023-03-23 21-51-33-746079,0,0,1535,1465,0.088,0.176,-0.17,-0.19,-9.77,1.01,-1.12,159.36,57.958480000000066
2023-03-23 21-51-33-782459,0,0,1535,1465,0.088,0.176,-0.17,-0.18,-9.78,1.0,-1.13,159.4,57.99848000000006
2023-03-23 21-51-33-810163,0,0,1535,1465,0.088,0.176,-0.16,-0.17,-9.77,0.99,-1.14,159.43,58.02848000000006
2023-03-23 21-51-33-844076,0,0,1535,1465,0.088,0.176,-0.16,-0.17,-9.78,0.98,-1.15,159.47,58.06848000000005
2023-03-23 21-51-33-876424,0,0,1535,1465,0.0,0.176,-0.15,-0.16,-9.75,0.96,-1.16,159.51,58.10848000000004
2023-03-23 21-51-33-912079,0,0,1535,1465,0.088,0.176,-0.17,-0.17,-9.78,0.95,-1.17,159.54,58.138480000000044
2023-03-23 21-51-33-937561,0,0,1535,1465,0.088,0.176,-0.16,-0.15,-9.76,0.94,-1.18,159.58,58.178480000000064
2023-03-23 21-51-33-957034,0,0,1535,1465,0.088,0.176,-0.16,-0.16,-9.76,0.93,-1.19,159.62,58.218480000000056
2023-03-23 21-51-33-983513,0,0,1535,1465,0.088,0.176,-0.17,-0.15,-9.75,0.91,-1.19,159.65,58.24848000000006
2023-03-23 21-51-34-002394,0,0,1535,1465,0.088,0.176,-0.15,-0.16,-9.77,0.9,-1.21,159.69,58.28848000000005
2023-03-23 21-51-34-037337,0,0,1535,1465,0.088,0.176,-0.16,-0.16,-9.78,0.88,-1.22,159.72,58.31848000000005
2023-03-23 21-51-34-067711,0,0,1535,1465,0.088,0.176,-0.16,-0.16,-9.77,0.87,-1.22,159.76,58.35848000000004
2023-03-23 21-51-34-099511,0,0,1535,1465,0.088,0.176,-0.19,-0.15,-9.76,0.86,-1.24,159.79,58.388480000000044
2023-03-23 21-51-34-131434,0,0,1535,1465,0.088,0.176,-0.2,-0.15,-9.76,0.85,-1.25,159.82,58.418480000000045
2023-03-23 21-51-34-164194,0,0,1535,1465,0.088,0.176,-0.22,-0.13,-9.76,0.83,-1.26,159.85,58.448480000000046
2023-03-23 21-51-34-194988,0,0,1535,1465,0.088,0.176,-0.23,-0.12,-9.75,0.81,-1.27,159.88,58.47848000000005
2023-03-23 21-51-34-226519,0,0,1535,1465,0.088,0.176,-0.24,-0.13,-9.76,0.8,-1.28,159.9,58.49848000000006
2023-03-23 21-51-34-257998,0,0,1535,1465,0.088,0.176,-0.23,-0.13,-9.76,0.78,-1.29,159.92,58.51848000000004
2023-03-23 21-51-34-289953,0,0,1535,1465,0.088,0.176,-0.22,-0.13,-9.78,0.76,-1.3,159.94,58.53848000000005
2023-03-23 21-51-34-322398,0,0,1535,1465,0.088,0.176,-0.23,-0.12,-9.77,0.75,-1.31,159.96,58.55848000000006
2023-03-23 21-51-34-354070,0,0,1535,1465,0.088,0.176,-0.22,-0.12,-9.76,0.72,-1.32,159.97,58.56848000000005
2023-03-23 21-51-34-387800,0,0,1535,1465,0.088,0.176,-0.24,-0.12,-9.77,0.7,-1.33,159.98,58.57848000000004
2023-03-23 21-51-34-418457,0,0,1535,1465,0.088,0.176,-0.23,-0.12,-9.76,0.68,-1.34,159.99,58.58848000000006
2023-03-23 21-51-34-453388,0,0,1535,1465,0.088,0.176,-0.23,-0.1,-9.77,0.66,-1.36,160.0,58.59848000000005
2023-03-23 21-51-34-482655,0,0,1535,1465,0.088,0.176,-0.23,-0.12,-9.75,0.63,-1.36,160.01,58.60848000000004
2023-03-23 21-51-34-516365,0,0,1535,1465,0.088,0.176,-0.24,-0.1,-9.76,0.61,-1.37,160.01,58.60848000000004
2023-03-23 21-51-34-546642,0,0,1535,1465,0.088,0.176,-0.24,-0.11,-9.76,0.59,-1.38,160.02,58.61848000000006
2023-03-23 21-51-34-580534,0,0,1535,1465,0.088,0.176,-0.24,-0.08,-9.76,0.56,-1.39,160.02,58.61848000000006
2023-03-23 21-51-34-610131,0,0,1535,1465,0.088,0.176,-0.23,-0.09,-9.79,0.54,-1.4,160.02,58.61848000000006
2023-03-23 21-51-34-644903,0,0,1535,1465,0.088,0.176,-0.23,-0.08,-9.77,0.51,-1.41,160.02,58.61848000000006
2023-03-23 21-51-34-674370,0,0,1535,1465,0.088,0.176,-0.21,-0.08,-9.77,0.48,-1.42,160.02,58.61848000000006
2023-03-23 21-51-34-708762,0,0,1535,1465,0.088,0.176,-0.23,-0.06,-9.77,0.45,-1.43,160.02,58.61848000000006
2023-03-23 21-51-34-735408,0,0,1535,1465,0.088,0.176,-0.21,-0.07,-9.77,0.42,-1.44,160.01,58.60848000000004
2023-03-23 21-51-34-756573,0,0,1535,1465,0.088,0.176,-0.23,-0.07,-9.79,0.39,-1.44,160.01,58.60848000000004
2023-03-23 21-51-34-788401,0,0,1535,1465,0.088,0.176,-0.24,-0.06,-9.77,0.36,-1.45,160.0,58.59848000000005
2023-03-23 21-51-34-818439,0,0,1535,1465,0.088,0.176,-0.23,-0.06,-9.76,0.33,-1.46,159.99,58.58848000000006
2023-03-23 21-51-34-847276,0,0,1535,1465,0.088,0.176,-0.23,-0.05,-9.76,0.3,-1.46,159.98,58.57848000000004
2023-03-23 21-51-34-867255,0,0,1535,1465,0.088,0.176,-0.22,-0.05,-9.78,0.27,-1.47,159.97,58.56848000000005
2023-03-23 21-51-34-897837,0,0,1535,1465,0.088,0.176,-0.21,-0.05,-9.77,0.24,-1.47,159.96,58.55848000000006
2023-03-23 21-51-34-914541,0,0,1535,1465,0.088,0.176,-0.24,-0.02,-9.77,0.21,-1.48,159.95,58.54848000000004
2023-03-23 21-51-34-946237,0,0,1535,1465,0.088,0.176,-0.23,-0.01,-9.76,0.18,-1.48,159.93,58.52848000000006
2023-03-23 21-51-34-982340,0,0,1535,1465,0.088,0.176,-0.24,-0.02,-9.77,0.15,-1.49,159.92,58.51848000000004
2023-03-23 21-51-35-007601,0,0,1535,1465,0.088,0.176,-0.23,-0.01,-9.78,0.11,-1.49,159.9,58.49848000000006
2023-03-23 21-51-35-028310,0,0,1535,1465,0.088,0.176,-0.22,-0.01,-9.76,0.08,-1.5,159.88,58.47848000000005
2023-03-23 21-51-35-059464,0,0,1535,1465,0.088,0.176,-0.24,-0.01,-9.76,0.05,-1.5,159.86,58.458480000000066
2023-03-23 21-51-35-090579,0,0,1535,1465,0.088,0.176,-0.24,-0.0,-9.75,0.02,-1.5,159.84,58.438480000000055
2023-03-23 21-51-35-124739,0,0,1535,1465,0.088,0.176,-0.25,0.01,-9.76,-0.02,-1.51,159.82,58.418480000000045
2023-03-23 21-51-35-154655,0,0,1535,1465,0.088,0.176,-0.25,0.02,-9.76,-0.05,-1.51,159.8,58.39848000000006
2023-03-23 21-51-35-188872,0,0,1535,1465,0.088,0.176,-0.24,0.03,-9.74,-0.09,-1.51,159.78,58.37848000000005
2023-03-23 21-51-35-218239,0,0,1535,1465,0.088,0.176,-0.25,0.01,-9.75,-0.12,-1.51,159.76,58.35848000000004
2023-03-23 21-51-35-252755,0,0,1535,1465,0.088,0.176,-0.27,0.02,-9.76,-0.16,-1.52,159.74,58.33848000000006
2023-03-23 21-51-35-279279,0,0,1535,1465,0.088,0.176,-0.26,0.04,-9.77,-0.19,-1.53,159.72,58.31848000000005
2023-03-23 21-51-35-299242,0,0,1535,1465,0.088,0.176,-0.24,0.05,-9.76,-0.24,-1.53,159.7,58.29848000000004
2023-03-23 21-51-35-328765,0,0,1535,1465,0.088,0.176,-0.24,0.05,-9.76,-0.27,-1.53,159.68,58.27848000000006
2023-03-23 21-51-35-351357,0,0,1535,1465,0.088,0.176,-0.24,0.06,-9.75,-0.31,-1.54,159.66,58.25848000000005
2023-03-23 21-51-35-378142,0,0,1535,1465,0.088,0.176,-0.24,0.07,-9.75,-0.35,-1.54,159.63,58.22848000000005
2023-03-23 21-51-35-410678,0,0,1535,1465,0.088,0.176,-0.25,0.09,-9.76,-0.38,-1.54,159.61,58.208480000000066
2023-03-23 21-51-35-441319,0,0,1535,1465,0.088,0.176,-0.24,0.09,-9.76,-0.42,-1.54,159.58,58.178480000000064
2023-03-23 21-51-35-459956,0,0,1535,1465,0.088,0.176,-0.25,0.09,-9.77,-0.46,-1.54,159.56,58.158480000000054
2023-03-23 21-51-35-492132,0,0,1535,1465,0.088,0.176,-0.23,0.09,-9.77,-0.49,-1.54,159.53,58.12848000000005
2023-03-23 21-51-35-524230,0,0,1535,1465,0.088,0.176,-0.23,0.1,-9.77,-0.53,-1.53,159.5,58.09848000000005
2023-03-23 21-51-35-554190,0,0,1535,1465,0.088,0.176,-0.23,0.1,-9.75,-0.57,-1.53,159.48,58.07848000000004
2023-03-23 21-51-35-588843,0,0,1535,1465,0.088,0.176,-0.23,0.11,-9.76,-0.61,-1.53,159.45,58.04848000000004
2023-03-23 21-51-35-616893,0,0,1535,1465,0.088,0.176,-0.23,0.12,-9.75,-0.65,-1.53,159.42,58.01848000000004
2023-03-23 21-51-35-633479,0,0,1535,1465,0.088,0.176,-0.24,0.13,-9.76,-0.69,-1.54,159.38,57.97848000000005
2023-03-23 21-51-35-652065,0,0,1535,1465,0.088,0.176,-0.23,0.13,-9.77,-0.73,-1.54,159.35,57.948480000000046
2023-03-23 21-51-35-682397,0,0,1535,1465,0.088,0.176,-0.24,0.14,-9.75,-0.77,-1.54,159.32,57.918480000000045
2023-03-23 21-51-35-717074,0,0,1535,1465,0.088,0.176,-0.24,0.15,-9.76,-0.8,-1.53,159.28,57.87848000000005
2023-03-23 21-51-35-747027,0,0,1535,1465,0.088,0.176,-0.25,0.18,-9.74,-0.84,-1.53,159.25,57.84848000000005
2023-03-23 21-51-35-777619,0,0,1535,1465,0.088,0.176,-0.25,0.18,-9.75,-0.88,-1.53,159.21,57.80848000000006
2023-03-23 21-51-35-795343,0,0,1535,1465,0.088,0.176,-0.24,0.17,-9.77,-0.92,-1.53,159.17,57.76848000000004
2023-03-23 21-51-35-825386,0,0,1535,1465,0.088,0.176,-0.24,0.17,-9.73,-0.96,-1.53,159.14,57.73848000000004
2023-03-23 21-51-35-843477,0,0,1535,1465,0.0,0.176,-0.24,0.17,-9.75,-1.0,-1.53,159.1,57.698480000000046
2023-03-23 21-51-35-875445,0,0,1535,1465,0.088,0.176,-0.25,0.18,-9.74,-1.04,-1.53,159.07,57.668480000000045
2023-03-23 21-51-35-907251,0,0,1535,1465,0.088,0.176,-0.25,0.2,-9.77,-1.08,-1.53,159.03,57.62848000000005
2023-03-23 21-51-35-937958,0,0,1535,1465,0.088,0.176,-0.25,0.21,-9.75,-1.12,-1.53,159.0,57.59848000000005
2023-03-23 21-51-35-972409,0,0,1535,1465,0.088,0.176,-0.25,0.21,-9.75,-1.16,-1.53,158.97,57.56848000000005
2023-03-23 21-51-36-001108,0,0,1535,1465,0.088,0.176,-0.25,0.22,-9.75,-1.2,-1.53,158.93,57.52848000000006
2023-03-23 21-51-36-022532,0,0,1535,1465,0.088,0.176,-0.25,0.23,-9.77,-1.25,-1.53,158.89,57.48848000000004
2023-03-23 21-51-36-050581,0,0,1535,1465,0.088,0.176,-0.24,0.24,-9.77,-1.29,-1.53,158.85,57.448480000000046
2023-03-23 21-51-36-082011,0,0,1535,1465,0.088,0.176,-0.24,0.24,-9.75,-1.33,-1.53,158.82,57.418480000000045
2023-03-23 21-51-36-114134,0,0,1535,1465,0.088,0.176,-0.25,0.25,-9.76,-1.37,-1.53,158.78,57.37848000000005
2023-03-23 21-51-36-147985,0,0,1535,1465,0.088,0.176,-0.23,0.25,-9.75,-1.41,-1.53,158.74,57.33848000000006
2023-03-23 21-51-36-177718,0,0,1535,1465,0.088,0.176,-0.25,0.27,-9.77,-1.45,-1.53,158.71,57.30848000000006
2023-03-23 21-51-36-212191,0,0,1535,1465,0.088,0.176,-0.24,0.27,-9.76,-1.5,-1.53,158.67,57.26848000000004
2023-03-23 21-51-36-242185,0,0,1535,1465,0.088,0.176,-0.24,0.28,-9.76,-1.54,-1.53,158.63,57.22848000000005
2023-03-23 21-51-36-278315,0,0,1535,1465,0.088,0.176,-0.24,0.29,-9.76,-1.58,-1.53,158.59,57.188480000000055
2023-03-23 21-51-36-308103,0,0,1535,1465,0.088,0.176,-0.24,0.29,-9.77,-1.63,-1.53,158.55,57.14848000000006
2023-03-23 21-51-36-340523,0,0,1535,1465,0.088,0.176,-0.24,0.31,-9.76,-1.68,-1.53,158.51,57.10848000000004
2023-03-23 21-51-36-371333,0,0,1535,1465,0.088,0.176,-0.21,0.32,-9.76,-1.72,-1.52,158.47,57.06848000000005
2023-03-23 21-51-36-404050,0,0,1535,1465,0.088,0.176,-0.21,0.32,-9.77,-1.76,-1.52,158.42,57.01848000000004
2023-03-23 21-51-36-434278,0,0,1535,1465,0.088,0.176,-0.23,0.32,-9.77,-1.81,-1.52,158.38,56.97848000000005
2023-03-23 21-51-36-468021,0,0,1535,1465,0.088,0.176,-0.22,0.32,-9.75,-1.85,-1.52,158.34,56.938480000000055
2023-03-23 21-51-36-497947,0,0,1535,1465,0.088,0.176,-0.24,0.33,-9.78,-1.9,-1.52,158.3,56.89848000000006
2023-03-23 21-51-36-529197,0,0,1535,1465,0.088,0.176,-0.23,0.34,-9.76,-1.94,-1.52,158.26,56.85848000000004
2023-03-23 21-51-36-549450,0,0,1535,1465,0.088,0.176,-0.23,0.35,-9.77,-1.99,-1.52,158.21,56.80848000000006
2023-03-23 21-51-36-579714,0,0,1535,1465,0.088,0.176,-0.23,0.35,-9.77,-2.03,-1.52,158.17,56.76848000000004
2023-03-23 21-51-36-611637,0,0,1535,1465,0.088,0.176,-0.24,0.37,-9.77,-2.08,-1.52,158.13,56.72848000000005
2023-03-23 21-51-36-643970,0,0,1535,1465,0.088,0.176,-0.22,0.37,-9.74,-2.12,-1.52,158.09,56.688480000000055
2023-03-23 21-51-36-676179,0,0,1535,1465,0.088,0.176,-0.24,0.38,-9.79,-2.17,-1.52,158.05,56.64848000000006
2023-03-23 21-51-36-706376,0,0,1535,1465,0.0,0.176,-0.23,0.38,-9.77,-2.22,-1.52,158.01,56.60848000000004
2023-03-23 21-51-36-739299,0,0,1535,1465,0.088,0.176,-0.23,0.4,-9.79,-2.26,-1.52,157.97,56.56848000000005
2023-03-23 21-51-36-771006,0,0,1535,1465,0.088,0.176,-0.23,0.41,-9.77,-2.31,-1.51,157.94,56.53848000000005
2023-03-23 21-51-36-802268,0,0,1535,1465,0.088,0.176,-0.24,0.41,-9.75,-2.35,-1.52,157.9,56.49848000000006
2023-03-23 21-51-36-834286,0,0,1535,1465,0.088,0.176,-0.25,0.41,-9.79,-2.4,-1.52,157.86,56.458480000000066
2023-03-23 21-51-36-867086,0,0,1535,1465,0.088,0.176,-0.23,0.43,-9.75,-2.45,-1.51,157.83,56.428480000000064
2023-03-23 21-51-36-898264,0,0,1535,1465,0.088,0.176,-0.24,0.44,-9.78,-2.5,-1.51,157.79,56.388480000000044
2023-03-23 21-51-36-930716,0,0,1535,1465,0.088,0.176,-0.23,0.44,-9.77,-2.54,-1.51,157.75,56.34848000000005
2023-03-23 21-51-36-963028,0,0,1535,1465,0.088,0.176,-0.22,0.46,-9.77,-2.59,-1.51,157.72,56.31848000000005
2023-03-23 21-51-36-993724,0,0,1535,1465,0.088,0.176,-0.22,0.45,-9.78,-2.64,-1.51,157.68,56.27848000000006
2023-03-23 21-51-37-026003,0,0,1535,1465,0.088,0.176,-0.22,0.47,-9.75,-2.68,-1.51,157.64,56.23848000000004
2023-03-23 21-51-37-058182,0,0,1535,1465,0.088,0.176,-0.24,0.46,-9.77,-2.73,-1.51,157.6,56.198480000000046
2023-03-23 21-51-37-090395,0,0,1535,1465,0.088,0.176,-0.23,0.48,-9.76,-2.77,-1.5,157.56,56.158480000000054
2023-03-23 21-51-37-121671,0,0,1535,1465,0.088,0.176,-0.22,0.48,-9.76,-2.82,-1.5,157.52,56.11848000000006
2023-03-23 21-51-37-152728,0,0,1535,1465,0.088,0.176,-0.22,0.5,-9.75,-2.86,-1.5,157.48,56.07848000000004
2023-03-23 21-51-37-171143,0,0,1535,1465,0.088,0.176,-0.22,0.49,-9.76,-2.91,-1.5,157.44,56.03848000000005
2023-03-23 21-51-37-202050,0,0,1535,1465,0.088,0.176,-0.22,0.5,-9.77,-2.96,-1.5,157.39,55.98848000000004
2023-03-23 21-51-37-234550,0,0,1535,1465,0.088,0.176,-0.22,0.51,-9.77,-3.0,-1.49,157.35,55.948480000000046
2023-03-23 21-51-37-266409,0,0,1535,1465,0.088,0.176,-0.22,0.51,-9.77,-3.05,-1.49,157.32,55.918480000000045
2023-03-23 21-51-37-297286,0,0,1535,1465,0.0,0.176,-0.22,0.53,-9.76,-3.1,-1.49,157.28,55.87848000000005
2023-03-23 21-51-37-330405,0,0,1535,1465,0.088,0.176,-0.22,0.53,-9.75,-3.14,-1.49,157.24,55.83848000000006
2023-03-23 21-51-37-358951,0,0,1535,1465,0.088,0.176,-0.23,0.56,-9.74,-3.19,-1.48,157.2,55.79848000000004
2023-03-23 21-51-37-376009,0,0,1535,1465,0.088,0.176,-0.23,0.56,-9.74,-3.23,-1.48,157.17,55.76848000000004
2023-03-23 21-51-37-410775,0,0,1535,1465,0.088,0.176,-0.23,0.58,-9.77,-3.28,-1.48,157.13,55.72848000000005
2023-03-23 21-51-37-445659,0,0,1535,1465,0.088,0.176,-0.22,0.57,-9.75,-3.33,-1.48,157.1,55.698480000000046
2023-03-23 21-51-37-474324,0,0,1535,1465,0.088,0.176,-0.23,0.56,-9.76,-3.38,-1.48,157.07,55.668480000000045
2023-03-23 21-51-37-506613,0,0,1535,1465,0.088,0.176,-0.22,0.59,-9.74,-3.42,-1.48,157.04,55.638480000000044
2023-03-23 21-51-37-537738,0,0,1535,1465,0.088,0.176,-0.24,0.59,-9.75,-3.47,-1.48,157.0,55.59848000000005
2023-03-23 21-51-37-568175,0,0,1535,1465,0.088,0.176,-0.23,0.61,-9.77,-3.51,-1.48,156.97,55.56848000000005
2023-03-23 21-51-37-583538,0,0,1535,1465,0.088,0.176,-0.22,0.61,-9.75,-3.55,-1.47,156.94,55.53848000000005
2023-03-23 21-51-37-599618,0,0,1535,1465,0.088,0.176,-0.22,0.63,-9.75,-3.59,-1.47,156.91,55.50848000000005
2023-03-23 21-51-37-614551,0,0,1535,1465,0.088,0.176,-0.23,0.64,-9.74,-3.63,-1.47,156.88,55.47848000000005
2023-03-23 21-51-37-631756,0,0,1535,1465,0.088,0.176,-0.22,0.65,-9.71,-3.68,-1.47,156.85,55.448480000000046
2023-03-23 21-51-37-662252,0,0,1535,1465,0.088,0.176,-0.24,0.64,-9.75,-3.72,-1.47,156.81,55.408480000000054
2023-03-23 21-51-37-679646,0,0,1535,1465,0.088,0.176,-0.22,0.65,-9.74,-3.76,-1.46,156.78,55.37848000000005
2023-03-23 21-51-37-695253,0,0,1535,1465,0.088,0.176,-0.21,0.67,-9.74,-3.81,-1.46,156.74,55.33848000000006
2023-03-23 21-51-37-710520,0,0,1535,1465,0.088,0.176,-0.21,0.69,-9.75,-3.85,-1.46,156.71,55.30848000000006
2023-03-23 21-51-37-726394,0,0,1535,1465,0.088,0.176,-0.21,0.69,-9.73,-3.89,-1.46,156.67,55.26848000000004
2023-03-23 21-51-37-743767,0,0,1535,1465,0.088,0.176,-0.21,0.69,-9.74,-3.94,-1.45,156.64,55.23848000000004
2023-03-23 21-51-37-759421,0,0,1535,1465,0.088,0.176,-0.21,0.69,-9.75,-3.98,-1.45,156.6,55.198480000000046
2023-03-23 21-51-37-774116,0,0,1535,1465,0.088,0.176,-0.2,0.7,-9.75,-4.02,-1.45,156.57,55.168480000000045
2023-03-23 21-51-37-790341,0,0,1535,1465,0.088,0.176,-0.22,0.7,-9.75,-4.07,-1.44,156.53,55.12848000000005
2023-03-23 21-51-37-806554,0,0,1535,1465,0.088,0.176,-0.21,0.72,-9.74,-4.11,-1.44,156.5,55.09848000000005
2023-03-23 21-51-37-823978,0,0,1535,1465,0.088,0.176,-0.22,0.73,-9.74,-4.15,-1.44,156.46,55.05848000000006
2023-03-23 21-51-37-839101,0,0,1535,1465,0.088,0.176,-0.23,0.73,-9.75,-4.19,-1.43,156.43,55.02848000000006
2023-03-23 21-51-37-854401,0,0,1535,1465,0.088,0.176,-0.22,0.73,-9.74,-4.23,-1.43,156.39,54.98848000000004
2023-03-23 21-51-37-871683,0,0,1535,1465,0.088,0.176,-0.22,0.73,-9.72,-4.27,-1.43,156.36,54.958480000000066
2023-03-23 21-51-37-888721,0,0,1535,1465,0.088,0.176,-0.25,0.76,-9.77,-4.31,-1.42,156.32,54.918480000000045
2023-03-23 21-51-37-902801,0,0,1535,1465,0.0,0.176,-0.21,0.75,-9.74,-4.36,-1.42,156.28,54.87848000000005
2023-03-23 21-51-37-919630,0,0,1535,1465,0.088,0.176,-0.22,0.75,-9.77,-4.4,-1.42,156.25,54.84848000000005
2023-03-23 21-51-37-935865,0,0,1535,1465,0.088,0.176,-0.2,0.77,-9.74,-4.44,-1.41,156.21,54.80848000000006
2023-03-23 21-51-37-952736,0,0,1535,1465,0.088,0.176,-0.21,0.77,-9.75,-4.47,-1.41,156.17,54.76848000000004
2023-03-23 21-51-37-969369,0,0,1535,1465,0.088,0.176,-0.21,0.78,-9.76,-4.52,-1.4,156.14,54.73848000000004
2023-03-23 21-51-38-001200,0,0,1535,1465,0.088,0.176,-0.2,0.79,-9.73,-4.56,-1.4,156.1,54.698480000000046
2023-03-23 21-51-38-031407,0,0,1535,1465,0.0,0.176,-0.21,0.79,-9.76,-4.6,-1.39,156.07,54.668480000000045
2023-03-23 21-51-38-046374,0,0,1535,1465,0.088,0.176,-0.21,0.81,-9.74,-4.64,-1.38,156.03,54.62848000000005
2023-03-23 21-51-38-062209,0,0,1535,1465,0.088,0.176,-0.19,0.81,-9.73,-4.68,-1.38,156.0,54.59848000000005
2023-03-23 21-51-38-079559,0,0,1535,1465,0.088,0.176,-0.2,0.82,-9.77,-4.73,-1.38,155.96,54.55848000000006
2023-03-23 21-51-38-095241,0,0,1535,1465,0.088,0.176,-0.17,0.84,-9.75,-4.77,-1.38,155.92,54.51848000000004
2023-03-23 21-51-38-110281,0,0,1535,1465,0.088,0.176,-0.17,0.85,-9.75,-4.81,-1.37,155.89,54.48848000000004
2023-03-23 21-51-38-126316,0,0,1535,1465,0.0,0.176,-0.18,0.84,-9.74,-4.85,-1.37,155.85,54.448480000000046
2023-03-23 21-51-38-143181,0,0,1535,1465,0.088,0.176,-0.19,0.85,-9.74,-4.89,-1.37,155.82,54.418480000000045
2023-03-23 21-51-38-159485,0,0,1535,1465,0.088,0.176,-0.19,0.86,-9.76,-4.93,-1.36,155.79,54.388480000000044
2023-03-23 21-51-38-175372,0,0,1535,1465,0.088,0.176,-0.2,0.86,-9.76,-4.97,-1.36,155.75,54.34848000000005
2023-03-23 21-51-38-190292,0,0,1535,1465,0.088,0.176,-0.2,0.87,-9.74,-5.01,-1.36,155.71,54.30848000000006
2023-03-23 21-51-38-207047,0,0,1535,1465,0.088,0.176,-0.19,0.88,-9.74,-5.05,-1.35,155.67,54.26848000000004
2023-03-23 21-51-38-222427,0,0,1535,1465,0.0,0.176,-0.19,0.89,-9.73,-5.1,-1.35,155.64,54.23848000000004
2023-03-23 21-51-38-239790,0,0,1535,1465,0.088,0.176,-0.2,0.88,-9.74,-5.14,-1.35,155.61,54.208480000000066
2023-03-23 21-51-38-254691,0,0,1535,1465,0.088,0.176,-0.2,0.89,-9.75,-5.18,-1.34,155.58,54.178480000000064
2023-03-23 21-51-38-278979,0,0,1535,1465,0.088,0.176,-0.19,0.92,-9.74,-5.22,-1.34,155.55,54.14848000000006
2023-03-23 21-51-38-303722,0,0,1535,1465,0.088,0.176,-0.19,0.91,-9.76,-5.26,-1.33,155.52,54.11848000000006
2023-03-23 21-51-38-318150,0,0,1535,1465,0.088,0.176,-0.2,0.94,-9.77,-5.3,-1.33,155.48,54.07848000000004
2023-03-23 21-51-38-334107,0,0,1535,1465,0.088,0.176,-0.19,0.92,-9.74,-5.34,-1.33,155.45,54.04848000000004
2023-03-23 21-51-38-350392,0,0,1535,1465,0.088,0.176,-0.21,0.94,-9.72,-5.38,-1.33,155.42,54.01848000000004
2023-03-23 21-51-38-366832,0,0,1535,1465,0.088,0.176,-0.21,0.94,-9.71,-5.42,-1.33,155.39,53.98848000000004
2023-03-23 21-51-38-382416,0,0,1535,1465,0.088,0.176,-0.21,0.95,-9.73,-5.46,-1.33,155.37,53.968480000000056
2023-03-23 21-51-38-398737,0,0,1535,1465,0.088,0.176,-0.19,0.96,-9.73,-5.5,-1.32,155.34,53.938480000000055
2023-03-23 21-51-38-415588,0,0,1535,1465,0.088,0.176,-0.19,0.98,-9.73,-5.54,-1.32,155.31,53.908480000000054
2023-03-23 21-51-38-431331,0,0,1535,1465,0.088,0.176,-0.19,0.97,-9.73,-5.58,-1.32,155.28,53.87848000000005
2023-03-23 21-51-38-446462,0,0,1535,1465,0.088,0.176,-0.2,0.98,-9.73,-5.62,-1.32,155.25,53.84848000000005
2023-03-23 21-51-38-462267,0,0,1535,1465,0.088,0.176,-0.19,0.99,-9.73,-5.67,-1.32,155.21,53.80848000000006
2023-03-23 21-51-38-478668,0,0,1535,1465,0.088,0.176,-0.18,1.0,-9.74,-5.71,-1.32,155.18,53.77848000000006
2023-03-23 21-51-38-495203,0,0,1535,1465,0.088,0.176,-0.19,1.01,-9.73,-5.75,-1.32,155.15,53.74848000000006
2023-03-23 21-51-38-512035,0,0,1535,1465,0.088,0.176,-0.18,1.02,-9.71,-5.79,-1.32,155.11,53.708480000000066
2023-03-23 21-51-38-526362,0,0,1535,1465,0.088,0.176,-0.19,1.02,-9.73,-5.83,-1.32,155.07,53.668480000000045
2023-03-23 21-51-38-543563,0,0,1535,1465,0.088,0.176,-0.18,1.02,-9.74,-5.87,-1.32,155.04,53.638480000000044
2023-03-23 21-51-38-558131,0,0,1535,1465,0.088,0.176,-0.18,1.02,-9.72,-5.91,-1.33,155.01,53.60848000000004
2023-03-23 21-51-38-574673,0,0,1535,1465,0.088,0.176,-0.18,1.04,-9.71,-5.95,-1.33,154.97,53.56848000000005
2023-03-23 21-51-38-591850,0,0,1535,1465,0.088,0.176,-0.19,1.05,-9.72,-6.0,-1.33,154.93,53.52848000000006
2023-03-23 21-51-38-607862,0,0,1535,1465,0.088,0.176,-0.18,1.05,-9.71,-6.04,-1.33,154.9,53.49848000000006
2023-03-23 21-51-38-623806,0,0,1535,1465,0.088,0.176,-0.19,1.05,-9.72,-6.08,-1.34,154.87,53.468480000000056
2023-03-23 21-51-38-638264,0,0,1535,1465,0.088,0.176,-0.18,1.05,-9.72,-6.11,-1.34,154.84,53.438480000000055
2023-03-23 21-51-38-656078,0,0,1535,1465,0.088,0.176,-0.19,1.07,-9.7,-6.15,-1.34,154.8,53.39848000000006
2023-03-23 21-51-38-671909,0,0,1535,1465,0.088,0.176,-0.2,1.06,-9.72,-6.19,-1.35,154.76,53.35848000000004
2023-03-23 21-51-38-688365,0,0,1535,1465,0.088,0.176,-0.19,1.08,-9.7,-6.22,-1.36,154.73,53.32848000000004
2023-03-23 21-51-38-702188,0,0,1535,1465,0.088,0.176,-0.19,1.1,-9.7,-6.26,-1.36,154.7,53.29848000000004
2023-03-23 21-51-38-718164,0,0,1535,1465,0.088,0.176,-0.21,1.1,-9.73,-6.3,-1.36,154.67,53.26848000000004
2023-03-23 21-51-38-737678,0,0,1535,1465,0.088,0.176,-0.2,1.09,-9.71,-6.33,-1.37,154.65,53.24848000000006
2023-03-23 21-51-38-765839,0,0,1535,1465,0.088,0.176,-0.21,1.09,-9.74,-6.37,-1.38,154.61,53.208480000000066
2023-03-23 21-51-38-783363,0,0,1535,1465,0.088,0.176,-0.19,1.11,-9.69,-6.41,-1.38,154.58,53.178480000000064
2023-03-23 21-51-38-798421,0,0,1535,1465,0.088,0.176,-0.2,1.11,-9.71,-6.45,-1.38,154.55,53.14848000000006
2023-03-23 21-51-38-815937,0,0,1535,1465,0.088,0.176,-0.19,1.12,-9.71,-6.49,-1.39,154.52,53.11848000000006
2023-03-23 21-51-38-832353,0,0,1535,1465,0.088,0.176,-0.2,1.12,-9.7,-6.52,-1.39,154.49,53.08848000000006
2023-03-23 21-51-38-846480,0,0,1535,1465,0.088,0.176,-0.2,1.13,-9.71,-6.56,-1.4,154.47,53.06848000000005
2023-03-23 21-51-38-862167,0,0,1535,1465,0.088,0.176,-0.2,1.14,-9.73,-6.6,-1.4,154.43,53.02848000000006
2023-03-23 21-51-38-878501,0,0,1535,1465,0.088,0.176,-0.2,1.15,-9.71,-6.63,-1.41,154.4,52.99848000000006
2023-03-23 21-51-38-895133,0,0,1535,1465,0.088,0.176,-0.2,1.15,-9.72,-6.67,-1.41,154.37,52.968480000000056
2023-03-23 21-51-38-911734,0,0,1535,1465,0.088,0.176,-0.2,1.16,-9.72,-6.7,-1.42,154.34,52.938480000000055
2023-03-23 21-51-38-926167,0,0,1535,1465,0.088,0.176,-0.19,1.17,-9.71,-6.74,-1.42,154.31,52.908480000000054
2023-03-23 21-51-38-942457,0,0,1535,1465,0.088,0.176,-0.18,1.17,-9.72,-6.78,-1.43,154.28,52.87848000000005
2023-03-23 21-51-38-979845,0,0,1535,1465,0.088,0.176,-0.19,1.17,-9.72,-6.81,-1.44,154.24,52.83848000000006
2023-03-23 21-51-39-008344,0,0,1535,1465,0.088,0.176,-0.2,1.18,-9.72,-6.85,-1.44,154.21,52.80848000000006
2023-03-23 21-51-39-037681,0,0,1535,1465,0.088,0.176,-0.2,1.19,-9.7,-6.88,-1.45,154.17,52.76848000000004
2023-03-23 21-51-39-054971,0,0,1535,1465,0.088,0.176,-0.19,1.19,-9.69,-6.91,-1.45,154.14,52.73848000000004
2023-03-23 21-51-39-071021,0,0,1535,1465,0.088,0.176,-0.19,1.2,-9.7,-6.95,-1.46,154.11,52.708480000000066
2023-03-23 21-51-39-087945,0,0,1535,1465,0.088,0.176,-0.19,1.2,-9.71,-6.99,-1.46,154.07,52.668480000000045
2023-03-23 21-51-39-106366,0,0,1535,1465,0.088,0.176,-0.2,1.21,-9.72,-7.02,-1.47,154.04,52.638480000000044
2023-03-23 21-51-39-134205,0,0,1535,1465,0.088,0.176,-0.21,1.2,-9.72,-7.05,-1.47,154.01,52.60848000000004
2023-03-23 21-51-39-153370,0,0,1535,1465,0.088,0.176,-0.21,1.22,-9.71,-7.08,-1.48,153.98,52.57848000000004
2023-03-23 21-51-39-183909,0,0,1535,1465,0.088,0.176,-0.22,1.23,-9.71,-7.12,-1.49,153.94,52.53848000000005
2023-03-23 21-51-39-198171,0,0,1535,1465,0.088,0.176,-0.21,1.24,-9.68,-7.16,-1.5,153.92,52.51848000000004
2023-03-23 21-51-39-215551,0,0,1535,1465,0.088,0.176,-0.22,1.25,-9.74,-7.19,-1.51,153.89,52.48848000000004
2023-03-23 21-51-39-231620,0,0,1535,1465,0.088,0.176,-0.21,1.26,-9.7,-7.22,-1.52,153.86,52.458480000000066
2023-03-23 21-51-39-248437,0,0,1535,1465,0.088,0.176,-0.24,1.25,-9.72,-7.25,-1.52,153.83,52.428480000000064
2023-03-23 21-51-39-262183,0,0,1535,1465,0.088,0.176,-0.22,1.25,-9.7,-7.29,-1.53,153.8,52.39848000000006
2023-03-23 21-51-39-278155,0,0,1535,1465,0.088,0.176,-0.22,1.25,-9.72,-7.32,-1.54,153.77,52.36848000000006
2023-03-23 21-51-39-310339,0,0,1535,1465,0.088,0.176,-0.22,1.27,-9.73,-7.35,-1.55,153.74,52.33848000000006
2023-03-23 21-51-39-326877,0,0,1535,1465,0.0,0.176,-0.22,1.26,-9.71,-7.39,-1.56,153.71,52.30848000000006
2023-03-23 21-51-39-342045,0,0,1535,1465,0.088,0.176,-0.24,1.28,-9.71,-7.42,-1.58,153.68,52.27848000000006
2023-03-23 21-51-39-377788,0,0,1535,1465,0.088,0.176,-0.23,1.28,-9.72,-7.45,-1.59,153.65,52.24848000000006
2023-03-23 21-51-39-406021,0,0,1535,1465,0.088,0.176,-0.22,1.28,-9.69,-7.48,-1.59,153.62,52.218480000000056
2023-03-23 21-51-39-422617,0,0,1535,1465,0.0,0.176,-0.22,1.28,-9.71,-7.51,-1.61,153.59,52.188480000000055
2023-03-23 21-51-39-438249,0,0,1535,1465,0.088,0.176,-0.24,1.29,-9.72,-7.55,-1.62,153.56,52.158480000000054
2023-03-23 21-51-39-455202,0,0,1535,1465,0.088,0.176,-0.23,1.3,-9.69,-7.58,-1.63,153.53,52.12848000000005
2023-03-23 21-51-39-470243,0,0,1535,1465,0.088,0.176,-0.23,1.31,-9.71,-7.62,-1.64,153.5,52.09848000000005
2023-03-23 21-51-39-487116,0,0,1535,1465,0.088,0.176,-0.24,1.33,-9.7,-7.65,-1.65,153.47,52.06848000000005
2023-03-23 21-51-39-503046,0,0,1535,1465,0.088,0.176,-0.25,1.34,-9.68,-7.68,-1.67,153.44,52.03848000000005
2023-03-23 21-51-39-519016,0,0,1535,1465,0.088,0.176,-0.25,1.33,-9.69,-7.71,-1.68,153.41,52.00848000000005
2023-03-23 21-51-39-534199,0,0,1535,1465,0.088,0.176,-0.24,1.32,-9.66,-7.75,-1.69,153.39,51.98848000000004
2023-03-23 21-51-39-550096,0,0,1535,1465,0.0,0.176,-0.25,1.33,-9.69,-7.78,-1.71,153.36,51.958480000000066
2023-03-23 21-51-39-581482,0,0,1535,1465,0.088,0.176,-0.26,1.34,-9.69,-7.81,-1.72,153.33,51.928480000000064
2023-03-23 21-51-39-598100,0,0,1535,1465,0.088,0.176,-0.26,1.36,-9.67,-7.84,-1.74,153.3,51.89848000000006
2023-03-23 21-51-39-614226,0,0,1535,1465,0.088,0.176,-0.26,1.36,-9.69,-7.88,-1.75,153.27,51.86848000000006
2023-03-23 21-51-39-630892,0,0,1535,1465,0.088,0.176,-0.26,1.38,-9.66,-7.91,-1.77,153.24,51.83848000000006
2023-03-23 21-51-39-647522,0,0,1535,1465,0.088,0.176,-0.26,1.37,-9.67,-7.95,-1.78,153.2,51.79848000000004
2023-03-23 21-51-39-662602,0,0,1535,1465,0.088,0.176,-0.26,1.36,-9.66,-7.98,-1.8,153.18,51.77848000000006
2023-03-23 21-51-39-678276,0,0,1535,1465,0.0,0.176,-0.27,1.39,-9.7,-8.01,-1.82,153.15,51.74848000000006
2023-03-23 21-51-39-694508,0,0,1535,1465,0.088,0.176,-0.26,1.4,-9.68,-8.05,-1.84,153.11,51.708480000000066
2023-03-23 21-51-39-710354,0,0,1535,1465,0.0,0.176,-0.29,1.37,-9.69,-8.08,-1.85,153.09,51.688480000000055
2023-03-23 21-51-39-726321,0,0,1535,1465,0.088,0.176,-0.29,1.39,-9.67,-8.11,-1.87,153.06,51.658480000000054
2023-03-23 21-51-39-742655,0,0,1535,1465,0.088,0.176,-0.3,1.38,-9.67,-8.14,-1.89,153.03,51.62848000000005
2023-03-23 21-51-39-758083,0,0,1535,1465,0.088,0.176,-0.29,1.4,-9.68,-8.17,-1.91,153.01,51.60848000000004
2023-03-23 21-51-39-776068,0,0,1535,1465,0.088,0.176,-0.29,1.4,-9.67,-8.2,-1.92,152.98,51.57848000000004
2023-03-23 21-51-39-791966,0,0,1535,1465,0.088,0.264,-0.29,1.41,-9.68,-8.23,-1.95,152.95,51.54848000000004
2023-03-23 21-51-39-806713,0,0,1535,1465,0.088,0.176,-0.29,1.41,-9.66,-8.26,-1.96,152.92,51.51848000000004
2023-03-23 21-51-39-822105,0,0,1535,1465,0.088,0.176,-0.28,1.42,-9.67,-8.29,-1.98,152.89,51.48848000000004
2023-03-23 21-51-39-838633,0,0,1535,1465,0.088,0.176,-0.3,1.43,-9.67,-8.32,-1.99,152.86,51.458480000000066
2023-03-23 21-51-39-855211,0,0,1535,1465,0.088,0.176,-0.3,1.43,-9.67,-8.35,-2.01,152.84,51.438480000000055
2023-03-23 21-51-39-870140,0,0,1535,1465,0.088,0.176,-0.3,1.43,-9.66,-8.38,-2.03,152.81,51.408480000000054
2023-03-23 21-51-39-886125,0,0,1535,1465,0.088,0.176,-0.29,1.44,-9.64,-8.41,-2.05,152.78,51.37848000000005
2023-03-23 21-51-39-902860,0,0,1535,1465,0.088,0.176,-0.32,1.43,-9.66,-8.44,-2.06,152.75,51.34848000000005
2023-03-23 21-51-39-919466,0,0,1535,1465,0.088,0.176,-0.32,1.46,-9.65,-8.47,-2.08,152.72,51.31848000000005
2023-03-23 21-51-39-936648,0,0,1535,1465,0.0,0.176,-0.32,1.48,-9.64,-8.5,-2.1,152.69,51.28848000000005
2023-03-23 21-51-39-950010,0,0,1535,1465,0.088,0.176,-0.33,1.47,-9.66,-8.52,-2.11,152.66,51.25848000000005
2023-03-23 21-51-39-967298,0,0,1535,1465,0.088,0.176,-0.33,1.47,-9.64,-8.55,-2.13,152.64,51.23848000000004
2023-03-23 21-51-39-997792,0,0,1535,1465,0.0,0.176,-0.34,1.47,-9.64,-8.58,-2.14,152.61,51.208480000000066
2023-03-23 21-51-40-015419,0,0,1535,1465,0.088,0.176,-0.33,1.48,-9.65,-8.61,-2.16,152.58,51.178480000000064
2023-03-23 21-51-40-029948,0,0,1535,1465,0.088,0.176,-0.33,1.48,-9.65,-8.64,-2.17,152.55,51.14848000000006
2023-03-23 21-51-40-046959,0,0,1535,1465,0.088,0.176,-0.34,1.46,-9.66,-8.67,-2.19,152.53,51.12848000000005
2023-03-23 21-51-40-063457,0,0,1535,1465,0.088,0.176,-0.35,1.49,-9.65,-8.69,-2.21,152.5,51.09848000000005
2023-03-23 21-51-40-078023,0,0,1535,1465,0.088,0.176,-0.34,1.5,-9.63,-8.72,-2.22,152.48,51.07848000000004
