Timestamp_log,left_angle,right_angle,left_thrust,right_thrust,read_left_angle,read_right_angle,accel_x,accel_y,accel_z,roll,pitch,yaw,e_alpha
2023-03-23 22-20-10-616519,0,0,1536,1464,0.088,-12.662,0.16,-0.81,-9.74,4.68,0.82,141.66,30.013080000000002
2023-03-23 22-20-10-640209,0,0,1545,1455,0.176,-12.662,0.17,-0.82,-9.75,4.67,0.82,141.66,30.013080000000002
2023-03-23 22-20-10-656556,0,0,1545,1455,0.088,-12.662,0.16,-0.81,-9.74,4.67,0.82,141.66,30.013080000000002
2023-03-23 22-20-10-672014,0,0,1545,1455,0.088,-12.662,0.17,-0.81,-9.73,4.67,0.82,141.66,30.013080000000002
2023-03-23 22-20-10-687383,0,0,1545,1455,0.088,-12.662,0.16,-0.81,-9.74,4.67,0.82,141.66,30.013080000000002
2023-03-23 22-20-10-703228,0,0,1545,1455,0.088,-12.662,0.16,-0.8,-9.74,4.67,0.83,141.66,30.013080000000002
2023-03-23 22-20-10-719357,0,0,1545,1455,0.088,-12.662,0.17,-0.8,-9.75,4.68,0.83,141.66,30.013080000000002
2023-03-23 22-20-10-753307,0,0,1545,1455,0.088,-12.662,0.16,-0.81,-9.74,4.68,0.84,141.66,30.013080000000002
2023-03-23 22-20-10-767518,0,0,1545,1455,0.088,-12.662,0.17,-0.81,-9.74,4.68,0.84,141.66,30.013080000000002
2023-03-23 22-20-10-784462,0,0,1545,1455,0.088,-12.662,0.17,-0.81,-9.74,4.68,0.85,141.66,30.013080000000002
2023-03-23 22-20-10-799195,0,0,1545,1455,0.088,-12.662,0.16,-0.81,-9.74,4.68,0.85,141.66,30.013080000000002
2023-03-23 22-20-10-815111,0,0,1545,1455,0.088,-12.662,0.16,-0.81,-9.73,4.69,0.85,141.66,30.013080000000002
2023-03-23 22-20-10-832159,0,0,1545,1455,0.088,-12.662,0.11,-0.79,-9.74,4.69,0.85,141.66,30.013080000000002
2023-03-23 22-20-10-848229,0,0,1545,1455,0.088,-12.662,0.14,-0.79,-9.76,4.69,0.85,141.65,30.00308000000001
2023-03-23 22-20-10-863415,0,0,1545,1455,0.088,-12.662,0.23,-0.81,-9.73,4.69,0.85,141.65,30.00308000000001
2023-03-23 22-20-10-879161,0,0,1545,1455,0.088,-12.662,0.16,-0.82,-9.71,4.69,0.85,141.66,30.013080000000002
2023-03-23 22-20-10-895638,0,0,1545,1455,0.088,-12.662,0.02,-0.82,-9.77,4.69,0.85,141.66,30.013080000000002
2023-03-23 22-20-10-912662,0,0,1545,1455,0.088,-12.662,-0.07,-0.81,-9.69,4.69,0.84,141.66,30.013080000000002
2023-03-23 22-20-10-943519,0,0,1545,1455,0.176,-12.662,-0.19,-0.8,-9.71,4.69,0.83,141.65,30.00308000000001
2023-03-23 22-20-10-960054,0,0,1545,1455,0.088,-12.662,-0.28,-0.78,-9.67,4.69,0.82,141.65,30.00308000000001
2023-03-23 22-20-10-978001,0,0,1544,1456,0.088,-12.662,-0.32,-0.79,-9.68,4.68,0.8,141.64,29.993079999999992
2023-03-23 22-20-11-008633,0,0,1544,1456,0.088,-12.662,-0.29,-0.79,-9.66,4.68,0.78,141.63,29.98308
2023-03-23 22-20-11-023409,0,0,1544,1456,0.088,-12.662,-0.21,-0.8,-9.7,4.68,0.77,141.62,29.97308000000001
2023-03-23 22-20-11-041088,0,0,1544,1456,0.088,-12.662,-0.14,-0.8,-9.73,4.67,0.75,141.61,29.96308000000002
2023-03-23 22-20-11-056341,0,0,1544,1456,0.088,-12.662,-0.1,-0.79,-9.72,4.67,0.73,141.59,29.94308000000001
2023-03-23 22-20-11-072423,0,0,1544,1456,0.088,-12.662,-0.12,-0.8,-9.71,4.66,0.71,141.57,29.92308
2023-03-23 22-20-11-087254,0,0,1544,1456,0.088,-12.662,-0.1,-0.83,-9.69,4.65,0.7,141.56,29.913080000000008
2023-03-23 22-20-11-103162,0,0,1544,1456,0.088,-12.662,-0.07,-0.78,-9.73,4.65,0.69,141.54,29.893079999999998
2023-03-23 22-20-11-120419,0,0,1544,1456,0.088,-12.662,-0.06,-0.8,-9.72,4.64,0.67,141.52,29.873080000000016
2023-03-23 22-20-11-136979,0,0,1544,1456,0.088,-12.662,-0.05,-0.8,-9.73,4.63,0.66,141.5,29.853080000000006
2023-03-23 22-20-11-151338,0,0,1544,1456,0.088,-12.662,-0.04,-0.77,-9.69,4.62,0.65,141.48,29.833079999999995
2023-03-23 22-20-11-167219,0,0,1544,1456,0.088,-12.662,-0.06,-0.76,-9.7,4.61,0.64,141.47,29.823080000000004
2023-03-23 22-20-11-183999,0,0,1544,1456,0.088,-12.662,-0.08,-0.78,-9.68,4.6,0.64,141.45,29.803079999999994
2023-03-23 22-20-11-199636,0,0,1544,1456,0.088,-12.662,-0.06,-0.78,-9.69,4.59,0.63,141.43,29.783080000000012
2023-03-23 22-20-11-215812,0,0,1544,1456,0.088,-12.662,-0.04,-0.77,-9.71,4.58,0.63,141.41,29.763080000000002
2023-03-23 22-20-11-233858,0,0,1544,1456,0.088,-12.662,-0.03,-0.77,-9.71,4.57,0.63,141.39,29.743079999999992
2023-03-23 22-20-11-263496,0,0,1544,1456,0.088,-12.662,-0.02,-0.76,-9.72,4.55,0.63,141.36,29.71308000000002
2023-03-23 22-20-11-280923,0,0,1544,1456,0.088,-12.662,0.0,-0.75,-9.72,4.54,0.63,141.34,29.69308000000001
2023-03-23 22-20-11-296649,0,0,1544,1456,0.088,-12.662,0.03,-0.75,-9.69,4.52,0.63,141.31,29.663080000000008
2023-03-23 22-20-11-311181,0,0,1544,1456,0.088,-12.662,0.07,-0.76,-9.7,4.51,0.64,141.28,29.633080000000007
2023-03-23 22-20-11-343980,0,0,1544,1456,0.088,-12.662,0.08,-0.79,-9.73,4.5,0.66,141.26,29.613079999999997
2023-03-23 22-20-11-365728,0,0,1544,1456,0.088,-12.662,0.08,-0.75,-9.7,4.48,0.67,141.23,29.583079999999995
2023-03-23 22-20-11-396737,0,0,1544,1456,0.088,-12.662,0.08,-0.74,-9.74,4.47,0.68,141.21,29.563080000000014
2023-03-23 22-20-11-425692,0,0,1544,1456,0.088,-12.662,0.1,-0.76,-9.7,4.45,0.69,141.19,29.543080000000003
2023-03-23 22-20-11-460470,0,0,1544,1456,0.088,-12.662,0.1,-0.77,-9.73,4.44,0.71,141.17,29.523079999999993
2023-03-23 22-20-11-490081,0,0,1544,1456,0.088,-12.662,0.12,-0.75,-9.74,4.43,0.72,141.16,29.513080000000002
2023-03-23 22-20-11-522456,0,0,1544,1456,0.088,-12.662,0.11,-0.75,-9.73,4.43,0.74,141.15,29.50308000000001
2023-03-23 22-20-11-550743,0,0,1544,1456,0.088,-12.662,0.12,-0.73,-9.72,4.42,0.75,141.14,29.493079999999992
2023-03-23 22-20-11-569798,0,0,1544,1456,0.088,-12.662,0.13,-0.76,-9.74,4.41,0.77,141.14,29.493079999999992
2023-03-23 22-20-11-600816,0,0,1544,1456,0.088,-12.662,0.13,-0.75,-9.72,4.4,0.79,141.13,29.48308
2023-03-23 22-20-11-616073,0,0,1544,1456,0.088,-12.662,0.14,-0.74,-9.73,4.39,0.81,141.12,29.47308000000001
2023-03-23 22-20-11-633169,0,0,1544,1456,0.088,-12.662,0.14,-0.74,-9.74,4.38,0.83,141.12,29.47308000000001
2023-03-23 22-20-11-669255,0,0,1544,1456,0.088,-12.662,0.12,-0.74,-9.74,4.37,0.85,141.11,29.46308000000002
2023-03-23 22-20-11-697063,0,0,1544,1456,0.088,-12.662,0.13,-0.75,-9.74,4.36,0.88,141.11,29.46308000000002
2023-03-23 22-20-11-712645,0,0,1544,1456,0.088,-12.662,0.14,-0.75,-9.72,4.34,0.9,141.1,29.45308
2023-03-23 22-20-11-729463,0,0,1544,1456,0.088,-12.662,0.14,-0.75,-9.72,4.34,0.93,141.1,29.45308
2023-03-23 22-20-11-744025,0,0,1544,1456,0.088,-12.662,0.14,-0.73,-9.75,4.33,0.96,141.1,29.45308
2023-03-23 22-20-11-777472,0,0,1544,1456,0.088,-12.662,0.15,-0.75,-9.75,4.32,0.99,141.1,29.45308
2023-03-23 22-20-11-796171,0,0,1544,1456,0.088,-12.662,0.15,-0.73,-9.72,4.32,1.02,141.1,29.45308
2023-03-23 22-20-11-824417,0,0,1544,1456,0.088,-12.662,0.15,-0.72,-9.72,4.31,1.04,141.1,29.45308
2023-03-23 22-20-11-841377,0,0,1544,1456,0.088,-12.662,0.15,-0.7,-9.75,4.31,1.08,141.1,29.45308
2023-03-23 22-20-11-854888,0,0,1544,1456,0.088,-12.662,0.17,-0.71,-9.74,4.3,1.11,141.1,29.45308
2023-03-23 22-20-11-872848,0,0,1544,1456,0.088,-12.662,0.19,-0.71,-9.73,4.29,1.15,141.1,29.45308
2023-03-23 22-20-11-890698,0,0,1544,1456,0.088,-12.662,0.2,-0.74,-9.71,4.29,1.18,141.11,29.46308000000002
2023-03-23 22-20-11-919763,0,0,1544,1456,0.088,-12.662,0.22,-0.74,-9.73,4.28,1.22,141.12,29.47308000000001
2023-03-23 22-20-11-937003,0,0,1544,1456,0.088,-12.662,0.23,-0.74,-9.72,4.28,1.26,141.13,29.48308
2023-03-23 22-20-11-951602,0,0,1544,1456,0.088,-12.662,0.23,-0.74,-9.72,4.28,1.3,141.14,29.493079999999992
2023-03-23 22-20-11-968170,0,0,1544,1456,0.088,-12.662,0.24,-0.74,-9.74,4.28,1.34,141.15,29.50308000000001
2023-03-23 22-20-11-986132,0,0,1544,1456,0.088,-12.662,0.23,-0.73,-9.74,4.27,1.38,141.17,29.523079999999993
2023-03-23 22-20-12-014871,0,0,1544,1456,0.088,-12.662,0.23,-0.74,-9.74,4.27,1.42,141.18,29.533080000000012
2023-03-23 22-20-12-031143,0,0,1544,1456,0.088,-12.662,0.22,-0.71,-9.71,4.26,1.46,141.19,29.543080000000003
2023-03-23 22-20-12-048292,0,0,1544,1456,0.088,-12.662,0.24,-0.7,-9.75,4.26,1.51,141.21,29.563080000000014
2023-03-23 22-20-12-063474,0,0,1544,1456,0.088,-12.662,0.25,-0.74,-9.71,4.25,1.55,141.23,29.583079999999995
2023-03-23 22-20-12-079129,0,0,1544,1456,0.176,-12.662,0.26,-0.73,-9.75,4.25,1.6,141.25,29.603080000000006
2023-03-23 22-20-12-097416,0,0,1544,1456,0.088,-12.662,0.29,-0.74,-9.74,4.25,1.65,141.26,29.613079999999997
2023-03-23 22-20-12-112516,0,0,1544,1456,0.088,-12.662,0.31,-0.72,-9.74,4.25,1.7,141.28,29.633080000000007
2023-03-23 22-20-12-138105,0,0,1544,1456,0.088,-12.662,0.33,-0.73,-9.75,4.25,1.75,141.3,29.653080000000017
2023-03-23 22-20-12-160780,0,0,1544,1456,0.088,-12.662,0.33,-0.73,-9.74,4.25,1.81,141.31,29.663080000000008
2023-03-23 22-20-12-175130,0,0,1544,1456,0.088,-12.662,0.34,-0.75,-9.74,4.25,1.86,141.33,29.683080000000018
2023-03-23 22-20-12-191286,0,0,1544,1456,0.088,-12.662,0.38,-0.71,-9.73,4.25,1.92,141.35,29.70308
2023-03-23 22-20-12-207641,0,0,1544,1456,0.088,-12.662,0.38,-0.72,-9.75,4.25,1.98,141.37,29.72308000000001
2023-03-23 22-20-12-223325,0,0,1544,1456,0.176,-12.662,0.37,-0.72,-9.75,4.25,2.04,141.39,29.743079999999992
2023-03-23 22-20-12-240512,0,0,1544,1456,0.088,-12.662,0.38,-0.74,-9.75,4.25,2.09,141.41,29.763080000000002
2023-03-23 22-20-12-255431,0,0,1544,1456,0.088,-12.662,0.39,-0.76,-9.74,4.24,2.15,141.43,29.783080000000012
2023-03-23 22-20-12-271582,0,0,1544,1456,0.088,-12.662,0.39,-0.76,-9.74,4.24,2.21,141.44,29.793080000000003
2023-03-23 22-20-12-287597,0,0,1544,1456,0.088,-12.662,0.4,-0.72,-9.78,4.25,2.27,141.47,29.823080000000004
2023-03-23 22-20-12-304721,0,0,1544,1456,0.088,-12.662,0.42,-0.76,-9.75,4.25,2.33,141.49,29.843080000000015
2023-03-23 22-20-12-319362,0,0,1544,1456,0.088,-12.662,0.42,-0.78,-9.77,4.25,2.39,141.51,29.863079999999997
2023-03-23 22-20-12-334980,0,0,1544,1456,0.088,-12.662,0.44,-0.79,-9.76,4.25,2.45,141.54,29.893079999999998
2023-03-23 22-20-12-351628,0,0,1544,1456,0.088,-12.662,0.45,-0.76,-9.75,4.25,2.5,141.56,29.913080000000008
2023-03-23 22-20-12-368083,0,0,1544,1456,0.088,-12.662,0.46,-0.74,-9.73,4.25,2.56,141.59,29.94308000000001
2023-03-23 22-20-12-383289,0,0,1544,1456,0.088,-12.662,0.47,-0.73,-9.74,4.26,2.61,141.61,29.96308000000002
2023-03-23 22-20-12-399231,0,0,1544,1456,0.088,-12.662,0.48,-0.76,-9.74,4.26,2.66,141.64,29.993079999999992
2023-03-23 22-20-12-447054,0,0,1545,1455,0.088,-12.662,0.5,-0.77,-9.75,4.27,2.71,141.66,30.013080000000002
2023-03-23 22-20-12-463208,0,0,1545,1455,0.088,-12.662,0.51,-0.77,-9.76,4.27,2.76,141.69,30.043080000000003
2023-03-23 22-20-12-479191,0,0,1545,1455,0.088,-12.662,0.53,-0.76,-9.75,4.28,2.8,141.71,30.063080000000014
2023-03-23 22-20-12-495716,0,0,1545,1455,0.088,-12.662,0.54,-0.74,-9.76,4.28,2.84,141.74,30.093080000000015
2023-03-23 22-20-12-511159,0,0,1545,1455,0.088,-12.662,0.55,-0.74,-9.74,4.28,2.88,141.76,30.113079999999997
2023-03-23 22-20-12-526838,0,0,1545,1455,0.176,-12.662,0.56,-0.77,-9.73,4.29,2.91,141.79,30.143079999999998
2023-03-23 22-20-12-543071,0,0,1545,1455,0.088,-12.662,0.55,-0.75,-9.74,4.29,2.94,141.82,30.17308
2023-03-23 22-20-12-561076,0,0,1545,1455,0.088,-12.662,0.55,-0.76,-9.75,4.29,2.97,141.85,30.20308
2023-03-23 22-20-12-576005,0,0,1545,1455,0.088,-12.662,0.56,-0.76,-9.73,4.29,2.99,141.88,30.23308
2023-03-23 22-20-12-591076,0,0,1545,1455,0.088,-12.662,0.56,-0.75,-9.73,4.3,3.02,141.91,30.263080000000002
2023-03-23 22-20-12-608490,0,0,1545,1455,0.088,-12.662,0.57,-0.74,-9.73,4.3,3.03,141.94,30.293080000000003
2023-03-23 22-20-12-643108,0,0,1545,1455,0.088,-12.662,0.57,-0.76,-9.73,4.3,3.05,141.97,30.323080000000004
2023-03-23 22-20-12-670717,0,0,1545,1455,0.176,-12.662,0.58,-0.74,-9.76,4.3,3.07,142.0,30.353080000000006
2023-03-23 22-20-12-686815,0,0,1545,1455,0.088,-12.662,0.61,-0.76,-9.77,4.3,3.08,142.04,30.393079999999998
2023-03-23 22-20-12-702908,0,0,1545,1455,0.088,-12.662,0.61,-0.75,-9.77,4.31,3.09,142.07,30.42308
2023-03-23 22-20-12-718901,0,0,1545,1455,0.088,-12.662,0.61,-0.75,-9.74,4.31,3.1,142.09,30.44308000000001
2023-03-23 22-20-12-739170,0,0,1545,1455,0.088,-12.662,0.6,-0.75,-9.76,4.31,3.11,142.12,30.47308000000001
2023-03-23 22-20-12-768782,0,0,1545,1455,0.088,-12.662,0.62,-0.75,-9.76,4.31,3.11,142.15,30.50308000000001
2023-03-23 22-20-12-783398,0,0,1545,1455,0.088,-12.662,0.6,-0.75,-9.77,4.31,3.11,142.18,30.533080000000012
2023-03-23 22-20-12-801278,0,0,1545,1455,0.088,-12.662,0.58,-0.78,-9.75,4.31,3.1,142.2,30.553079999999994
2023-03-23 22-20-12-834412,0,0,1545,1455,0.088,-12.662,0.59,-0.75,-9.74,4.31,3.09,142.22,30.573080000000004
2023-03-23 22-20-12-863185,0,0,1545,1455,0.088,-12.662,0.58,-0.75,-9.78,4.31,3.09,142.25,30.603080000000006
2023-03-23 22-20-12-880195,0,0,1545,1455,0.088,-12.662,0.59,-0.77,-9.73,4.31,3.08,142.27,30.623080000000016
2023-03-23 22-20-12-896932,0,0,1545,1455,0.088,-12.662,0.58,-0.77,-9.77,4.31,3.06,142.3,30.653080000000017
2023-03-23 22-20-12-912503,0,0,1545,1455,0.088,-12.662,0.58,-0.77,-9.77,4.31,3.05,142.33,30.683080000000018
2023-03-23 22-20-12-928284,0,0,1545,1455,0.088,-12.662,0.59,-0.76,-9.77,4.3,3.03,142.35,30.70308
2023-03-23 22-20-12-943040,0,0,1545,1455,0.088,-12.662,0.6,-0.77,-9.78,4.3,3.0,142.38,30.73308
2023-03-23 22-20-12-962884,0,0,1545,1455,0.088,-12.662,0.6,-0.78,-9.77,4.3,2.98,142.41,30.763080000000002
2023-03-23 22-20-12-991857,0,0,1545,1455,0.088,-12.662,0.59,-0.78,-9.77,4.3,2.95,142.44,30.793080000000003
2023-03-23 22-20-13-007274,0,0,1545,1455,0.088,-12.662,0.59,-0.76,-9.76,4.3,2.93,142.46,30.813080000000014
2023-03-23 22-20-13-023668,0,0,1545,1455,0.088,-12.662,0.56,-0.75,-9.75,4.3,2.9,142.48,30.833079999999995
2023-03-23 22-20-13-039454,0,0,1545,1455,0.088,-12.662,0.55,-0.77,-9.78,4.29,2.86,142.51,30.863079999999997
2023-03-23 22-20-13-055991,0,0,1545,1455,0.088,-12.662,0.55,-0.77,-9.78,4.29,2.83,142.53,30.883080000000007
2023-03-23 22-20-13-071081,0,0,1545,1455,0.088,-12.662,0.55,-0.78,-9.75,4.29,2.8,142.56,30.913080000000008
2023-03-23 22-20-13-089613,0,0,1545,1455,0.088,-12.662,0.54,-0.8,-9.75,4.29,2.75,142.58,30.933080000000018
2023-03-23 22-20-13-103516,0,0,1545,1455,0.088,-12.662,0.52,-0.73,-9.78,4.29,2.71,142.6,30.95308
2023-03-23 22-20-13-122204,0,0,1545,1455,0.088,-12.662,0.51,-0.78,-9.79,4.29,2.66,142.62,30.97308000000001
2023-03-23 22-20-13-152881,0,0,1545,1455,0.088,-12.662,0.51,-0.79,-9.78,4.29,2.61,142.64,30.993079999999992
2023-03-23 22-20-13-168947,0,0,1545,1455,0.088,-12.662,0.51,-0.79,-9.77,4.28,2.55,142.66,31.013080000000002
2023-03-23 22-20-13-198646,0,0,1545,1455,0.088,-12.662,0.51,-0.78,-9.77,4.28,2.5,142.68,31.033080000000012
2023-03-23 22-20-13-215781,0,0,1545,1455,0.088,-12.662,0.5,-0.77,-9.78,4.27,2.44,142.69,31.043080000000003
2023-03-23 22-20-13-232875,0,0,1545,1455,0.088,-12.662,0.5,-0.76,-9.78,4.27,2.38,142.71,31.063080000000014
2023-03-23 22-20-13-247882,0,0,1545,1455,0.088,-12.662,0.49,-0.75,-9.78,4.26,2.32,142.72,31.073080000000004
2023-03-23 22-20-13-263939,0,0,1545,1455,0.088,-12.662,0.48,-0.75,-9.77,4.25,2.26,142.74,31.093080000000015
2023-03-23 22-20-13-278796,0,0,1545,1455,0.176,-12.662,0.48,-0.76,-9.77,4.25,2.19,142.75,31.103080000000006
2023-03-23 22-20-13-296299,0,0,1545,1455,0.176,-12.662,0.46,-0.76,-9.78,4.24,2.12,142.76,31.113079999999997
2023-03-23 22-20-13-310658,0,0,1545,1455,0.088,-12.662,0.47,-0.77,-9.8,4.24,2.05,142.78,31.133080000000007
2023-03-23 22-20-13-328232,0,0,1545,1455,0.088,-12.662,0.44,-0.77,-9.81,4.23,1.97,142.79,31.143079999999998
2023-03-23 22-20-13-343847,0,0,1545,1455,0.088,-12.662,0.42,-0.81,-9.79,4.22,1.9,142.8,31.153080000000017
2023-03-23 22-20-13-360779,0,0,1545,1455,0.088,-12.662,0.39,-0.76,-9.76,4.21,1.82,142.81,31.163080000000008
2023-03-23 22-20-13-378011,0,0,1545,1455,0.088,-12.662,0.36,-0.73,-9.81,4.2,1.73,142.82,31.17308
2023-03-23 22-20-13-392398,0,0,1545,1455,0.088,-12.662,0.36,-0.76,-9.77,4.19,1.65,142.84,31.19308000000001
2023-03-23 22-20-13-407027,0,0,1545,1455,0.088,-12.662,0.35,-0.75,-9.82,4.18,1.56,142.85,31.20308
2023-03-23 22-20-13-422955,0,0,1545,1455,0.088,-12.662,0.35,-0.75,-9.79,4.17,1.47,142.86,31.21308000000002
2023-03-23 22-20-13-438906,0,0,1545,1455,0.088,-12.662,0.34,-0.75,-9.8,4.16,1.38,142.87,31.22308000000001
2023-03-23 22-20-13-456474,0,0,1545,1455,0.176,-12.662,0.32,-0.73,-9.79,4.15,1.28,142.89,31.243079999999992
2023-03-23 22-20-13-470880,0,0,1545,1455,0.176,-12.662,0.31,-0.73,-9.79,4.13,1.19,142.9,31.25308000000001
2023-03-23 22-20-13-487488,0,0,1545,1455,0.088,-12.662,0.3,-0.73,-9.79,4.12,1.09,142.91,31.263080000000002
2023-03-23 22-20-13-503409,0,0,1545,1455,0.088,-12.662,0.28,-0.73,-9.8,4.11,1.0,142.91,31.263080000000002
2023-03-23 22-20-13-519854,0,0,1545,1455,0.088,-12.662,0.25,-0.73,-9.8,4.09,0.9,142.91,31.263080000000002
2023-03-23 22-20-13-534611,0,0,1545,1455,0.088,-12.662,0.24,-0.73,-9.79,4.08,0.8,142.92,31.273079999999993
2023-03-23 22-20-13-550732,0,0,1545,1455,0.088,-12.662,0.24,-0.75,-9.78,4.06,0.7,142.92,31.273079999999993
2023-03-23 22-20-13-569127,0,0,1545,1455,0.088,-12.662,0.21,-0.73,-9.79,4.04,0.6,142.92,31.273079999999993
2023-03-23 22-20-13-582640,0,0,1545,1455,0.088,-12.662,0.19,-0.75,-9.78,4.03,0.5,142.92,31.273079999999993
2023-03-23 22-20-13-598814,0,0,1545,1455,0.088,-12.662,0.17,-0.73,-9.79,4.01,0.39,142.93,31.283080000000012
2023-03-23 22-20-13-615412,0,0,1545,1455,0.088,-12.662,0.14,-0.76,-9.79,3.99,0.29,142.93,31.283080000000012
2023-03-23 22-20-13-631818,0,0,1545,1455,0.088,-12.662,0.11,-0.74,-9.77,3.98,0.18,142.93,31.283080000000012
2023-03-23 22-20-13-662829,0,0,1545,1455,0.176,-12.662,0.09,-0.72,-9.77,3.96,0.08,142.93,31.283080000000012
2023-03-23 22-20-13-679128,0,0,1545,1455,0.088,-12.662,0.08,-0.69,-9.79,3.94,-0.03,142.93,31.283080000000012
2023-03-23 22-20-13-697347,0,0,1545,1455,0.088,-12.662,0.08,-0.71,-9.79,3.92,-0.14,142.93,31.283080000000012
2023-03-23 22-20-13-712126,0,0,1545,1455,0.176,-12.662,0.07,-0.69,-9.81,3.9,-0.24,142.93,31.283080000000012
2023-03-23 22-20-13-727340,0,0,1545,1455,0.088,-12.662,0.06,-0.7,-9.81,3.88,-0.34,142.93,31.283080000000012
2023-03-23 22-20-13-742770,0,0,1545,1455,0.088,-12.662,0.05,-0.69,-9.8,3.86,-0.45,142.93,31.283080000000012
2023-03-23 22-20-13-758851,0,0,1545,1455,0.176,-12.662,0.04,-0.68,-9.79,3.83,-0.56,142.93,31.283080000000012
2023-03-23 22-20-13-776144,0,0,1545,1455,0.088,-12.662,0.01,-0.68,-9.8,3.81,-0.66,142.93,31.283080000000012
2023-03-23 22-20-13-791837,0,0,1545,1455,0.088,-12.662,0.0,-0.68,-9.81,3.79,-0.77,142.93,31.283080000000012
2023-03-23 22-20-13-808426,0,0,1545,1455,0.088,-12.662,-0.02,-0.69,-9.82,3.77,-0.88,142.92,31.273079999999993
2023-03-23 22-20-13-822993,0,0,1545,1455,0.088,-12.662,-0.06,-0.72,-9.81,3.74,-0.98,142.92,31.273079999999993
2023-03-23 22-20-13-839345,0,0,1545,1455,0.088,-12.662,-0.07,-0.68,-9.8,3.72,-1.09,142.92,31.273079999999993
2023-03-23 22-20-13-855046,0,0,1545,1455,0.088,-12.662,-0.09,-0.66,-9.83,3.7,-1.2,142.91,31.263080000000002
2023-03-23 22-20-13-872286,0,0,1545,1455,0.088,-12.662,-0.11,-0.68,-9.78,3.67,-1.31,142.91,31.263080000000002
2023-03-23 22-20-13-887454,0,0,1545,1455,0.176,-12.662,-0.13,-0.68,-9.8,3.65,-1.42,142.9,31.25308000000001
2023-03-23 22-20-13-903062,0,0,1545,1455,0.088,-12.662,-0.14,-0.7,-9.8,3.62,-1.53,142.89,31.243079999999992
2023-03-23 22-20-13-920317,0,0,1545,1455,0.088,-12.662,-0.16,-0.69,-9.81,3.6,-1.64,142.89,31.243079999999992
2023-03-23 22-20-13-936155,0,0,1545,1455,0.088,-12.662,-0.18,-0.65,-9.81,3.57,-1.75,142.88,31.23308
2023-03-23 22-20-13-950968,0,0,1545,1455,0.088,-12.662,-0.2,-0.64,-9.81,3.55,-1.86,142.87,31.22308000000001
2023-03-23 22-20-13-967443,0,0,1545,1455,0.088,-12.662,-0.22,-0.64,-9.81,3.52,-1.96,142.86,31.21308000000002
2023-03-23 22-20-13-984248,0,0,1545,1455,0.088,-12.662,-0.24,-0.63,-9.81,3.48,-2.07,142.86,31.21308000000002
2023-03-23 22-20-14-000068,0,0,1545,1455,0.088,-12.662,-0.26,-0.63,-9.81,3.46,-2.18,142.85,31.20308
2023-03-23 22-20-14-015228,0,0,1545,1455,0.088,-12.662,-0.27,-0.62,-9.81,3.42,-2.29,142.84,31.19308000000001
2023-03-23 22-20-14-030846,0,0,1545,1455,0.088,-12.662,-0.27,-0.62,-9.8,3.39,-2.4,142.84,31.19308000000001
2023-03-23 22-20-14-049042,0,0,1545,1455,0.088,-12.662,-0.29,-0.62,-9.79,3.36,-2.52,142.83,31.183080000000018
2023-03-23 22-20-14-079405,0,0,1545,1455,0.088,-12.662,-0.33,-0.61,-9.79,3.32,-2.63,142.82,31.17308
2023-03-23 22-20-14-094870,0,0,1545,1455,0.088,-12.662,-0.39,-0.58,-9.8,3.29,-2.75,142.81,31.163080000000008
2023-03-23 22-20-14-112839,0,0,1545,1455,0.088,-12.662,-0.43,-0.58,-9.82,3.25,-2.87,142.8,31.153080000000017
2023-03-23 22-20-14-126978,0,0,1545,1455,0.088,-12.662,-0.44,-0.56,-9.79,3.21,-2.99,142.78,31.133080000000007
2023-03-23 22-20-14-144120,0,0,1545,1455,0.176,-12.662,-0.48,-0.54,-9.77,3.17,-3.11,142.76,31.113079999999997
2023-03-23 22-20-14-158981,0,0,1545,1455,0.088,-12.662,-0.52,-0.53,-9.79,3.13,-3.23,142.74,31.093080000000015
2023-03-23 22-20-14-176514,0,0,1545,1455,0.088,-12.662,-0.52,-0.53,-9.79,3.09,-3.35,142.71,31.063080000000014
2023-03-23 22-20-14-190822,0,0,1545,1455,0.176,-12.662,-0.54,-0.51,-9.79,3.05,-3.47,142.68,31.033080000000012
2023-03-23 22-20-14-208999,0,0,1545,1455,0.088,-12.662,-0.56,-0.5,-9.76,3.01,-3.59,142.65,31.00308000000001
2023-03-23 22-20-14-239597,0,0,1545,1455,0.088,-12.662,-0.56,-0.5,-9.75,2.96,-3.71,142.6,30.95308
2023-03-23 22-20-14-254576,0,0,1545,1455,0.088,-12.662,-0.57,-0.48,-9.77,2.92,-3.83,142.56,30.913080000000008
2023-03-23 22-20-14-271331,0,0,1545,1455,0.088,-12.662,-0.58,-0.49,-9.79,2.87,-3.94,142.51,30.863079999999997
2023-03-23 22-20-14-286950,0,0,1545,1455,0.088,-12.662,-0.61,-0.49,-9.79,2.83,-4.06,142.46,30.813080000000014
2023-03-23 22-20-14-302711,0,0,1545,1455,0.088,-12.662,-0.64,-0.48,-9.78,2.78,-4.17,142.4,30.75308000000001
2023-03-23 22-20-14-320814,0,0,1545,1455,0.088,-12.662,-0.66,-0.49,-9.77,2.74,-4.29,142.34,30.69308000000001
2023-03-23 22-20-14-335871,0,0,1545,1455,0.088,-12.662,-0.68,-0.48,-9.75,2.69,-4.4,142.29,30.643079999999998
2023-03-23 22-20-14-350764,0,0,1545,1455,0.088,-12.662,-0.72,-0.44,-9.79,2.64,-4.51,142.23,30.583079999999995
2023-03-23 22-20-14-368247,0,0,1545,1455,0.088,-12.662,-0.74,-0.45,-9.74,2.59,-4.62,142.17,30.523079999999993
2023-03-23 22-20-14-384821,0,0,1545,1455,0.088,-12.662,-0.77,-0.45,-9.76,2.54,-4.73,142.1,30.45308
2023-03-23 22-20-14-416070,0,0,1545,1455,0.088,-12.662,-0.8,-0.44,-9.75,2.49,-4.83,142.03,30.383080000000007
2023-03-23 22-20-14-430752,0,0,1545,1455,0.088,-12.662,-0.81,-0.41,-9.76,2.44,-4.93,141.96,30.313080000000014
2023-03-23 22-20-14-447083,0,0,1545,1455,0.176,-12.662,-0.83,-0.37,-9.77,2.38,-5.03,141.89,30.243079999999992
2023-03-23 22-20-14-464403,0,0,1545,1455,0.176,-12.662,-0.83,-0.38,-9.76,2.32,-5.12,141.82,30.17308
2023-03-23 22-20-14-479929,0,0,1545,1455,0.176,-12.662,-0.84,-0.38,-9.74,2.27,-5.21,141.75,30.103080000000006
2023-03-23 22-20-14-517599,0,0,1545,1455,0.088,-12.662,-0.86,-0.35,-9.75,2.21,-5.29,141.67,30.023079999999993
2023-03-23 22-20-14-548604,0,0,1544,1456,0.088,-12.662,-0.86,-0.34,-9.75,2.16,-5.36,141.59,29.94308000000001
2023-03-23 22-20-14-579479,0,0,1544,1456,0.088,-12.662,-0.86,-0.36,-9.76,2.1,-5.43,141.51,29.863079999999997
2023-03-23 22-20-14-613374,0,0,1544,1456,0.088,-12.662,-0.87,-0.35,-9.75,2.04,-5.5,141.44,29.793080000000003
2023-03-23 22-20-14-643937,0,0,1544,1456,0.088,-12.662,-0.9,-0.33,-9.74,1.99,-5.56,141.36,29.71308000000002
2023-03-23 22-20-14-677338,0,0,1544,1456,0.088,-12.662,-0.92,-0.32,-9.72,1.93,-5.62,141.28,29.633080000000007
2023-03-23 22-20-14-708420,0,0,1544,1456,0.088,-12.662,-0.94,-0.29,-9.7,1.88,-5.68,141.21,29.563080000000014
2023-03-23 22-20-14-741144,0,0,1544,1456,0.088,-12.662,-0.96,-0.29,-9.74,1.83,-5.73,141.13,29.48308
2023-03-23 22-20-14-766688,0,0,1544,1456,0.088,-12.662,-0.94,-0.28,-9.72,1.77,-5.77,141.05,29.403080000000017
2023-03-23 22-20-14-783505,0,0,1544,1456,0.176,-12.662,-0.96,-0.26,-9.71,1.71,-5.81,140.97,29.323080000000004
2023-03-23 22-20-14-798607,0,0,1544,1456,0.088,-12.662,-0.95,-0.2,-9.73,1.65,-5.84,140.89,29.243079999999992
2023-03-23 22-20-14-815752,0,0,1544,1456,0.088,-12.662,-0.93,-0.2,-9.73,1.59,-5.87,140.81,29.163080000000008
2023-03-23 22-20-14-831813,0,0,1544,1456,0.088,-12.662,-0.94,-0.22,-9.77,1.54,-5.89,140.73,29.083079999999995
2023-03-23 22-20-14-847099,0,0,1544,1456,0.088,-12.662,-0.95,-0.21,-9.73,1.48,-5.91,140.65,29.00308000000001
2023-03-23 22-20-14-863580,0,0,1544,1456,0.088,-12.662,-0.94,-0.21,-9.72,1.42,-5.93,140.57,28.92308
2023-03-23 22-20-14-879693,0,0,1544,1456,0.088,-12.662,-0.95,-0.2,-9.73,1.36,-5.94,140.48,28.833079999999995
2023-03-23 22-20-14-894763,0,0,1544,1456,0.088,-12.662,-0.98,-0.18,-9.73,1.3,-5.94,140.4,28.75308000000001
2023-03-23 22-20-14-912386,0,0,1544,1456,0.088,-12.662,-1.0,-0.19,-9.74,1.25,-5.94,140.31,28.663080000000008
2023-03-23 22-20-14-943138,0,0,1544,1456,0.088,-12.662,-1.0,-0.17,-9.73,1.19,-5.94,140.22,28.573080000000004
2023-03-23 22-20-14-959147,0,0,1544,1456,0.088,-12.662,-1.0,-0.17,-9.71,1.13,-5.93,140.14,28.493079999999992
2023-03-23 22-20-14-975997,0,0,1544,1456,0.088,-12.662,-0.99,-0.17,-9.71,1.08,-5.92,140.05,28.403080000000017
2023-03-23 22-20-15-007374,0,0,1544,1456,0.088,-12.662,-1.01,-0.11,-9.73,1.02,-5.9,139.96,28.313080000000014
2023-03-23 22-20-15-022971,0,0,1544,1456,0.088,-12.662,-1.01,-0.12,-9.69,0.96,-5.89,139.87,28.22308000000001
2023-03-23 22-20-15-040207,0,0,1544,1456,0.088,-12.662,-1.0,-0.09,-9.72,0.9,-5.87,139.79,28.143079999999998
2023-03-23 22-20-15-057556,0,0,1544,1456,0.088,-12.662,-0.98,-0.08,-9.7,0.84,-5.84,139.7,28.053079999999994
2023-03-23 22-20-15-088139,0,0,1543,1457,0.088,-12.662,-0.96,-0.08,-9.72,0.78,-5.81,139.61,27.96308000000002
2023-03-23 22-20-15-103992,0,0,1543,1457,0.088,-12.662,-0.95,-0.07,-9.72,0.72,-5.78,139.52,27.873080000000016
2023-03-23 22-20-15-120627,0,0,1543,1457,0.088,-12.662,-0.94,-0.06,-9.73,0.66,-5.75,139.44,27.793080000000003
2023-03-23 22-20-15-134692,0,0,1543,1457,0.088,-12.662,-0.93,-0.07,-9.72,0.6,-5.71,139.35,27.70308
2023-03-23 22-20-15-152483,0,0,1543,1457,0.088,-12.662,-0.93,-0.04,-9.71,0.53,-5.67,139.26,27.613079999999997
2023-03-23 22-20-15-167214,0,0,1543,1457,0.088,-12.662,-0.92,-0.03,-9.72,0.47,-5.63,139.18,27.533080000000012
2023-03-23 22-20-15-183127,0,0,1543,1457,0.088,-12.662,-0.92,-0.02,-9.72,0.41,-5.59,139.09,27.44308000000001
2023-03-23 22-20-15-201346,0,0,1543,1457,0.088,-12.662,-0.9,-0.0,-9.71,0.35,-5.55,139.0,27.353080000000006
2023-03-23 22-20-15-231767,0,0,1543,1457,0.088,-12.662,-0.91,0.01,-9.72,0.29,-5.5,138.91,27.263080000000002
2023-03-23 22-20-15-246737,0,0,1543,1457,0.088,-12.662,-0.92,-0.01,-9.73,0.23,-5.45,138.82,27.17308
2023-03-23 22-20-15-263453,0,0,1543,1457,0.088,-12.662,-0.9,0.04,-9.7,0.17,-5.41,138.73,27.083079999999995
2023-03-23 22-20-15-279311,0,0,1543,1457,0.088,-12.662,-0.88,0.08,-9.75,0.1,-5.35,138.64,26.993079999999992
2023-03-23 22-20-15-296093,0,0,1543,1457,0.088,-12.662,-0.85,0.05,-9.71,0.04,-5.3,138.55,26.903080000000017
2023-03-23 22-20-15-310991,0,0,1543,1457,0.088,-12.662,-0.84,0.05,-9.76,-0.02,-5.25,138.46,26.813080000000014
2023-03-23 22-20-15-327786,0,0,1543,1457,0.088,-12.574,-0.82,0.07,-9.75,-0.08,-5.19,138.37,26.72308000000001
2023-03-23 22-20-15-344181,0,0,1543,1457,0.088,-12.662,-0.83,0.07,-9.76,-0.14,-5.14,138.28,26.633080000000007
2023-03-23 22-20-15-374652,0,0,1543,1457,0.088,-12.662,-0.82,0.08,-9.75,-0.21,-5.08,138.2,26.553079999999994
2023-03-23 22-20-15-410991,0,0,1543,1457,0.088,-12.662,-0.8,0.1,-9.71,-0.27,-5.01,138.11,26.46308000000002
2023-03-23 22-20-15-438419,0,0,1543,1457,0.088,-12.662,-0.79,0.1,-9.72,-0.33,-4.95,138.02,26.373080000000016
2023-03-23 22-20-15-468337,0,0,1543,1457,0.088,-12.662,-0.8,0.14,-9.74,-0.39,-4.89,137.93,26.283080000000012
2023-03-23 22-20-15-486619,0,0,1543,1457,0.088,-12.662,-0.8,0.15,-9.74,-0.45,-4.83,137.85,26.20308
2023-03-23 22-20-15-502608,0,0,1543,1457,0.176,-12.662,-0.78,0.16,-9.75,-0.51,-4.77,137.76,26.113079999999997
2023-03-23 22-20-15-519324,0,0,1542,1458,0.088,-12.662,-0.77,0.17,-9.72,-0.58,-4.71,137.66,26.013080000000002
2023-03-23 22-20-15-556390,0,0,1542,1458,0.088,-12.574,-0.77,0.18,-9.72,-0.64,-4.65,137.57,25.92308
2023-03-23 22-20-15-588075,0,0,1542,1458,0.088,-12.662,-0.76,0.18,-9.74,-0.71,-4.59,137.48,25.833079999999995
2023-03-23 22-20-15-619733,0,0,1542,1458,0.088,-12.662,-0.74,0.2,-9.75,-0.77,-4.53,137.39,25.743079999999992
2023-03-23 22-20-15-652042,0,0,1542,1458,0.088,-12.662,-0.74,0.21,-9.75,-0.83,-4.47,137.3,25.653080000000017
2023-03-23 22-20-15-684025,0,0,1542,1458,0.088,-12.662,-0.73,0.23,-9.74,-0.9,-4.41,137.2,25.553079999999994
2023-03-23 22-20-15-711037,0,0,1542,1458,0.088,-12.662,-0.71,0.24,-9.74,-0.96,-4.36,137.11,25.46308000000002
2023-03-23 22-20-15-727426,0,0,1542,1458,0.088,-12.662,-0.71,0.27,-9.75,-1.03,-4.31,137.02,25.373080000000016
2023-03-23 22-20-15-744035,0,0,1542,1458,0.088,-12.662,-0.7,0.26,-9.75,-1.09,-4.25,136.93,25.283080000000012
2023-03-23 22-20-15-759515,0,0,1542,1458,0.088,-12.662,-0.68,0.27,-9.77,-1.16,-4.2,136.84,25.19308000000001
2023-03-23 22-20-15-775916,0,0,1542,1458,0.088,-12.662,-0.67,0.27,-9.76,-1.22,-4.15,136.74,25.093080000000015
2023-03-23 22-20-15-793272,0,0,1542,1458,0.088,-12.662,-0.65,0.29,-9.75,-1.28,-4.1,136.65,25.00308000000001
2023-03-23 22-20-15-828071,0,0,1542,1458,0.088,-12.662,-0.65,0.3,-9.77,-1.34,-4.06,136.55,24.903080000000017
2023-03-23 22-20-15-856083,0,0,1542,1458,0.088,-12.662,-0.65,0.3,-9.75,-1.4,-4.01,136.45,24.803079999999994
2023-03-23 22-20-15-871486,0,0,1542,1458,0.088,-12.662,-0.64,0.31,-9.77,-1.47,-3.96,136.36,24.71308000000002
2023-03-23 22-20-15-902610,0,0,1542,1458,0.088,-12.574,-0.65,0.31,-9.78,-1.53,-3.92,136.26,24.613079999999997
2023-03-23 22-20-15-920208,0,0,1542,1458,0.088,-12.662,-0.65,0.3,-9.77,-1.59,-3.88,136.16,24.513080000000002
2023-03-23 22-20-15-939775,0,0,1542,1458,0.088,-12.662,-0.65,0.31,-9.77,-1.65,-3.85,136.07,24.42308
2023-03-23 22-20-15-968193,0,0,1542,1458,0.088,-12.662,-0.67,0.37,-9.78,-1.71,-3.81,135.98,24.333079999999995
2023-03-23 22-20-15-987931,0,0,1542,1458,0.088,-12.662,-0.66,0.36,-9.77,-1.77,-3.78,135.88,24.23308
2023-03-23 22-20-16-015888,0,0,1542,1458,0.088,-12.662,-0.67,0.38,-9.77,-1.84,-3.76,135.79,24.143079999999998
2023-03-23 22-20-16-034402,0,0,1542,1458,0.088,-12.662,-0.67,0.35,-9.74,-1.9,-3.73,135.7,24.053079999999994
2023-03-23 22-20-16-062929,0,0,1541,1459,0.088,-12.662,-0.65,0.38,-9.75,-1.96,-3.71,135.61,23.96308000000002
2023-03-23 22-20-16-083900,0,0,1541,1459,0.088,-12.662,-0.64,0.39,-9.75,-2.02,-3.68,135.52,23.873080000000016
2023-03-23 22-20-16-112029,0,0,1541,1459,0.088,-12.662,-0.61,0.41,-9.77,-2.07,-3.66,135.43,23.783080000000012
2023-03-23 22-20-16-133069,0,0,1541,1459,0.088,-12.662,-0.6,0.42,-9.75,-2.13,-3.64,135.35,23.70308
2023-03-23 22-20-16-158621,0,0,1541,1459,0.088,-12.662,-0.58,0.42,-9.74,-2.19,-3.62,135.26,23.613079999999997
2023-03-23 22-20-16-176163,0,0,1541,1459,0.176,-12.662,-0.58,0.45,-9.75,-2.25,-3.6,135.18,23.533080000000012
2023-03-23 22-20-16-190675,0,0,1541,1459,0.088,-12.662,-0.56,0.46,-9.76,-2.31,-3.59,135.09,23.44308000000001
2023-03-23 22-20-16-207938,0,0,1541,1459,0.088,-12.662,-0.55,0.45,-9.76,-2.37,-3.58,135.01,23.363079999999997
2023-03-23 22-20-16-222736,0,0,1541,1459,0.088,-12.662,-0.54,0.46,-9.77,-2.42,-3.57,134.93,23.283080000000012
2023-03-23 22-20-16-240335,0,0,1541,1459,0.088,-12.662,-0.58,0.47,-9.76,-2.48,-3.57,134.85,23.20308
2023-03-23 22-20-16-254869,0,0,1541,1459,0.088,-12.662,-0.58,0.51,-9.76,-2.54,-3.56,134.77,23.123080000000016
2023-03-23 22-20-16-271916,0,0,1541,1459,0.088,-12.662,-0.58,0.55,-9.75,-2.59,-3.56,134.69,23.043080000000003
2023-03-23 22-20-16-287988,0,0,1541,1459,0.088,-12.662,-0.58,0.52,-9.7,-2.65,-3.56,134.61,22.96308000000002
2023-03-23 22-20-16-303591,0,0,1541,1459,0.088,-12.662,-0.57,0.54,-9.72,-2.71,-3.56,134.52,22.873080000000016
2023-03-23 22-20-16-318667,0,0,1541,1459,0.088,-12.662,-0.55,0.56,-9.73,-2.77,-3.56,134.44,22.793080000000003
2023-03-23 22-20-16-334912,0,0,1541,1459,0.088,-12.662,-0.54,0.58,-9.74,-2.82,-3.56,134.36,22.71308000000002
2023-03-23 22-20-16-352067,0,0,1541,1459,0.088,-12.662,-0.55,0.57,-9.75,-2.88,-3.56,134.28,22.633080000000007
2023-03-23 22-20-16-368801,0,0,1541,1459,0.088,-12.662,-0.55,0.55,-9.73,-2.93,-3.56,134.2,22.553079999999994
2023-03-23 22-20-16-383650,0,0,1541,1459,0.088,-12.662,-0.53,0.56,-9.74,-2.98,-3.57,134.13,22.48308
2023-03-23 22-20-16-399020,0,0,1541,1459,0.088,-12.662,-0.52,0.59,-9.76,-3.04,-3.58,134.05,22.403080000000017
2023-03-23 22-20-16-415420,0,0,1541,1459,0.088,-12.662,-0.54,0.59,-9.75,-3.1,-3.58,133.97,22.323080000000004
2023-03-23 22-20-16-430914,0,0,1541,1459,0.088,-12.662,-0.55,0.6,-9.75,-3.15,-3.59,133.89,22.243079999999992
2023-03-23 22-20-16-447972,0,0,1541,1459,0.088,-12.662,-0.57,0.61,-9.73,-3.2,-3.6,133.82,22.17308
2023-03-23 22-20-16-464261,0,0,1541,1459,0.088,-12.662,-0.58,0.6,-9.72,-3.26,-3.61,133.74,22.093080000000015
2023-03-23 22-20-16-480156,0,0,1541,1459,0.088,-12.662,-0.58,0.61,-9.71,-3.31,-3.61,133.67,22.023079999999993
2023-03-23 22-20-16-495768,0,0,1540,1460,0.088,-12.662,-0.6,0.63,-9.76,-3.36,-3.62,133.59,21.94308000000001
2023-03-23 22-20-16-511365,0,0,1540,1460,0.088,-12.662,-0.6,0.62,-9.77,-3.41,-3.63,133.52,21.873080000000016
2023-03-23 22-20-16-527027,0,0,1540,1460,0.088,-12.662,-0.61,0.62,-9.76,-3.46,-3.64,133.45,21.803079999999994
2023-03-23 22-20-16-543738,0,0,1540,1460,0.088,-12.662,-0.6,0.62,-9.73,-3.51,-3.66,133.39,21.743079999999992
2023-03-23 22-20-16-575144,0,0,1540,1460,0.176,-12.662,-0.6,0.65,-9.7,-3.56,-3.66,133.32,21.67308
2023-03-23 22-20-16-591541,0,0,1540,1460,0.088,-12.662,-0.59,0.68,-9.7,-3.61,-3.68,133.26,21.613079999999997
2023-03-23 22-20-16-606601,0,0,1540,1460,0.176,-12.662,-0.6,0.68,-9.72,-3.66,-3.69,133.19,21.543080000000003
2023-03-23 22-20-16-623322,0,0,1540,1460,0.088,-12.662,-0.61,0.69,-9.73,-3.71,-3.7,133.13,21.48308
2023-03-23 22-20-16-639154,0,0,1540,1460,0.088,-12.662,-0.6,0.7,-9.73,-3.76,-3.72,133.07,21.42308
2023-03-23 22-20-16-655939,0,0,1540,1460,0.088,-12.662,-0.61,0.71,-9.72,-3.81,-3.73,133.01,21.363079999999997
2023-03-23 22-20-16-670614,0,0,1540,1460,0.088,-12.662,-0.61,0.72,-9.72,-3.85,-3.74,132.94,21.293080000000003
2023-03-23 22-20-16-687663,0,0,1540,1460,0.088,-12.662,-0.61,0.73,-9.71,-3.9,-3.75,132.88,21.23308
2023-03-23 22-20-16-705031,0,0,1540,1460,0.088,-12.662,-0.6,0.73,-9.71,-3.95,-3.77,132.82,21.17308
2023-03-23 22-20-16-720081,0,0,1540,1460,0.176,-12.662,-0.61,0.72,-9.71,-3.99,-3.78,132.77,21.123080000000016
2023-03-23 22-20-16-734486,0,0,1540,1460,0.088,-12.662,-0.62,0.75,-9.74,-4.03,-3.79,132.71,21.063080000000014
2023-03-23 22-20-16-751438,0,0,1540,1460,0.088,-12.662,-0.62,0.72,-9.73,-4.08,-3.81,132.65,21.00308000000001
2023-03-23 22-20-16-768589,0,0,1540,1460,0.088,-12.662,-0.63,0.72,-9.72,-4.13,-3.83,132.6,20.95308
2023-03-23 22-20-16-783410,0,0,1540,1460,0.088,-12.662,-0.65,0.72,-9.7,-4.17,-3.85,132.54,20.893079999999998
2023-03-23 22-20-16-798330,0,0,1540,1460,0.176,-12.662,-0.65,0.72,-9.71,-4.21,-3.87,132.49,20.843080000000015
2023-03-23 22-20-16-815839,0,0,1540,1460,0.088,-12.662,-0.65,0.77,-9.72,-4.26,-3.89,132.44,20.793080000000003
2023-03-23 22-20-16-831641,0,0,1540,1460,0.088,-12.662,-0.65,0.81,-9.73,-4.3,-3.92,132.38,20.73308
2023-03-23 22-20-16-847382,0,0,1540,1460,0.088,-12.662,-0.65,0.81,-9.74,-4.34,-3.95,132.33,20.683080000000018
2023-03-23 22-20-16-862609,0,0,1540,1460,0.088,-12.662,-0.64,0.8,-9.73,-4.38,-3.97,132.28,20.633080000000007
2023-03-23 22-20-16-880403,0,0,1540,1460,0.088,-12.662,-0.63,0.8,-9.74,-4.43,-4.01,132.22,20.573080000000004
2023-03-23 22-20-16-895312,0,0,1540,1460,0.176,-12.662,-0.63,0.8,-9.75,-4.47,-4.04,132.17,20.523079999999993
2023-03-23 22-20-16-910901,0,0,1540,1460,0.088,-12.662,-0.63,0.81,-9.75,-4.51,-4.07,132.11,20.46308000000002
2023-03-23 22-20-16-927927,0,0,1540,1460,0.088,-12.662,-0.64,0.8,-9.75,-4.54,-4.11,132.06,20.413080000000008
2023-03-23 22-20-16-944450,0,0,1540,1460,0.088,-12.662,-0.65,0.8,-9.74,-4.58,-4.15,132.01,20.363079999999997
2023-03-23 22-20-16-974220,0,0,1540,1460,0.088,-12.662,-0.68,0.83,-9.75,-4.62,-4.2,131.96,20.313080000000014
2023-03-23 22-20-16-990965,0,0,1540,1460,0.088,-12.662,-0.7,0.85,-9.76,-4.66,-4.25,131.91,20.263080000000002
2023-03-23 22-20-17-008223,0,0,1540,1460,0.088,-12.662,-0.69,0.84,-9.71,-4.69,-4.3,131.86,20.21308000000002
2023-03-23 22-20-17-024047,0,0,1540,1460,0.088,-12.662,-0.71,0.86,-9.74,-4.73,-4.35,131.81,20.163080000000008
2023-03-23 22-20-17-038427,0,0,1540,1460,0.176,-12.662,-0.71,0.88,-9.73,-4.77,-4.41,131.76,20.113079999999997
2023-03-23 22-20-17-054628,0,0,1540,1460,0.088,-12.662,-0.72,0.89,-9.73,-4.8,-4.46,131.71,20.063080000000014
2023-03-23 22-20-17-072648,0,0,1540,1460,0.088,-12.662,-0.72,0.89,-9.75,-4.83,-4.53,131.66,20.013080000000002
2023-03-23 22-20-17-102393,0,0,1539,1461,0.088,-12.662,-0.71,0.87,-9.73,-4.87,-4.59,131.61,19.96308000000002
2023-03-23 22-20-17-119032,0,0,1539,1461,0.176,-12.662,-0.71,0.87,-9.73,-4.9,-4.65,131.55,19.903080000000017
2023-03-23 22-20-17-136358,0,0,1539,1461,0.088,-12.662,-0.72,0.9,-9.73,-4.93,-4.71,131.49,19.843080000000015
2023-03-23 22-20-17-151662,0,0,1539,1461,0.088,-12.662,-0.74,0.9,-9.74,-4.96,-4.78,131.44,19.793080000000003
2023-03-23 22-20-17-166503,0,0,1539,1461,0.088,-12.662,-0.77,0.9,-9.72,-4.99,-4.84,131.38,19.73308
2023-03-23 22-20-17-183441,0,0,1539,1461,0.088,-12.662,-0.77,0.89,-9.72,-5.03,-4.91,131.32,19.67308
2023-03-23 22-20-17-200158,0,0,1539,1461,0.088,-12.662,-0.8,0.88,-9.73,-5.05,-4.97,131.25,19.603080000000006
2023-03-23 22-20-17-215767,0,0,1539,1461,0.088,-12.662,-0.81,0.9,-9.7,-5.08,-5.04,131.19,19.543080000000003
2023-03-23 22-20-17-230747,0,0,1539,1461,0.088,-12.662,-0.84,0.93,-9.71,-5.11,-5.11,131.12,19.47308000000001
2023-03-23 22-20-17-247310,0,0,1539,1461,0.088,-12.662,-0.87,0.91,-9.69,-5.14,-5.18,131.06,19.413080000000008
2023-03-23 22-20-17-264416,0,0,1539,1461,0.088,-12.662,-0.87,0.9,-9.69,-5.17,-5.25,130.99,19.343080000000015
2023-03-23 22-20-17-278766,0,0,1539,1461,0.088,-12.662,-0.87,0.92,-9.69,-5.19,-5.31,130.92,19.273079999999993
2023-03-23 22-20-17-296253,0,0,1539,1461,0.088,-12.662,-0.88,0.93,-9.69,-5.21,-5.38,130.85,19.20308
2023-03-23 22-20-17-313870,0,0,1539,1461,0.088,-12.662,-0.89,0.93,-9.67,-5.24,-5.44,130.78,19.133080000000007
2023-03-23 22-20-17-342863,0,0,1539,1461,0.088,-12.662,-0.9,0.94,-9.68,-5.26,-5.51,130.71,19.063080000000014
2023-03-23 22-20-17-360030,0,0,1539,1461,0.088,-12.662,-0.89,0.94,-9.68,-5.28,-5.57,130.64,18.993079999999992
2023-03-23 22-20-17-376507,0,0,1539,1461,0.088,-12.662,-0.91,0.94,-9.68,-5.3,-5.64,130.57,18.92308
2023-03-23 22-20-17-406274,0,0,1539,1461,0.088,-12.662,-0.94,0.95,-9.68,-5.32,-5.7,130.49,18.843080000000015
2023-03-23 22-20-17-424457,0,0,1539,1461,0.088,-12.662,-0.97,0.95,-9.67,-5.34,-5.77,130.41,18.763080000000002
2023-03-23 22-20-17-440211,0,0,1539,1461,0.088,-12.662,-0.98,0.95,-9.65,-5.35,-5.84,130.33,18.683080000000018
2023-03-23 22-20-17-470469,0,0,1539,1461,0.088,-12.662,-0.96,0.95,-9.64,-5.37,-5.9,130.25,18.603080000000006
2023-03-23 22-20-17-488288,0,0,1539,1461,0.088,-12.662,-0.96,0.93,-9.64,-5.38,-5.97,130.17,18.523079999999993
2023-03-23 22-20-17-505267,0,0,1539,1461,0.088,-12.662,-0.99,1.0,-9.67,-5.39,-6.03,130.1,18.45308
2023-03-23 22-20-17-536233,0,0,1539,1461,0.088,-12.662,-1.02,0.96,-9.66,-5.4,-6.1,130.02,18.373080000000016
2023-03-23 22-20-17-552599,0,0,1539,1461,0.088,-12.662,-1.02,0.96,-9.65,-5.42,-6.16,129.93,18.283080000000012
2023-03-23 22-20-17-567945,0,0,1539,1461,0.088,-12.662,-1.01,0.95,-9.62,-5.43,-6.23,129.85,18.20308
2023-03-23 22-20-17-582491,0,0,1539,1461,0.088,-12.662,-1.03,0.96,-9.61,-5.43,-6.29,129.77,18.123080000000016
2023-03-23 22-20-17-600277,0,0,1539,1461,0.176,-12.662,-1.05,0.96,-9.61,-5.44,-6.35,129.68,18.033080000000012
2023-03-23 22-20-17-616427,0,0,1538,1462,0.088,-12.662,-1.07,0.96,-9.63,-5.44,-6.41,129.59,17.94308000000001
2023-03-23 22-20-17-631044,0,0,1538,1462,0.088,-12.662,-1.06,0.97,-9.64,-5.44,-6.46,129.5,17.853080000000006
2023-03-23 22-20-17-647549,0,0,1538,1462,0.088,-12.662,-1.07,0.96,-9.61,-5.45,-6.51,129.41,17.763080000000002
2023-03-23 22-20-17-662786,0,0,1538,1462,0.088,-12.662,-1.09,0.97,-9.6,-5.45,-6.56,129.32,17.67308
2023-03-23 22-20-17-679274,0,0,1538,1462,0.088,-12.662,-1.1,0.97,-9.62,-5.45,-6.61,129.22,17.573080000000004
2023-03-23 22-20-17-694292,0,0,1538,1462,0.088,-12.662,-1.11,0.97,-9.63,-5.45,-6.66,129.13,17.48308
2023-03-23 22-20-17-712096,0,0,1538,1462,0.088,-12.662,-1.1,0.98,-9.63,-5.45,-6.7,129.03,17.383080000000007
2023-03-23 22-20-17-726752,0,0,1538,1462,0.088,-12.662,-1.11,0.97,-9.6,-5.44,-6.73,128.92,17.273079999999993
2023-03-23 22-20-17-743526,0,0,1538,1462,0.088,-12.662,-1.14,0.99,-9.59,-5.43,-6.77,128.82,17.17308
2023-03-23 22-20-17-759401,0,0,1538,1462,0.088,-12.662,-1.14,0.96,-9.6,-5.42,-6.81,128.72,17.073080000000004
2023-03-23 22-20-17-776270,0,0,1538,1462,0.088,-12.662,-1.14,1.01,-9.61,-5.41,-6.84,128.62,16.97308000000001
2023-03-23 22-20-17-790790,0,0,1538,1462,0.088,-12.662,-1.15,0.96,-9.62,-5.4,-6.87,128.51,16.863079999999997
2023-03-23 22-20-17-807172,0,0,1538,1462,0.088,-12.662,-1.15,0.95,-9.59,-5.39,-6.9,128.4,16.75308000000001
2023-03-23 22-20-17-822563,0,0,1538,1462,0.088,-12.662,-1.17,0.95,-9.6,-5.37,-6.92,128.28,16.633080000000007
2023-03-23 22-20-17-839449,0,0,1538,1462,0.088,-12.662,-1.18,0.96,-9.63,-5.36,-6.94,128.17,16.523079999999993
2023-03-23 22-20-17-854344,0,0,1538,1462,0.088,-12.662,-1.16,0.97,-9.62,-5.34,-6.96,128.04,16.393079999999998
2023-03-23 22-20-17-871779,0,0,1538,1462,0.176,-12.662,-1.15,0.94,-9.62,-5.32,-6.98,127.92,16.273080000000007
2023-03-23 22-20-17-887288,0,0,1538,1462,0.088,-12.662,-1.15,0.93,-9.62,-5.29,-6.99,127.8,16.153080000000003
2023-03-23 22-20-17-902467,0,0,1538,1462,0.088,-12.662,-1.15,0.93,-9.63,-5.27,-7.0,127.68,16.033080000000012
2023-03-23 22-20-17-919943,0,0,1537,1463,0.088,-12.662,-1.15,0.93,-9.64,-5.25,-7.02,127.55,15.903080000000003
2023-03-23 22-20-17-934811,0,0,1537,1463,0.088,-12.662,-1.13,0.92,-9.63,-5.22,-7.02,127.43,15.783080000000012
2023-03-23 22-20-17-951450,0,0,1537,1463,0.088,-12.662,-1.15,0.92,-9.62,-5.19,-7.02,127.3,15.653080000000003
2023-03-23 22-20-17-967014,0,0,1537,1463,0.088,-12.662,-1.17,0.91,-9.64,-5.16,-7.02,127.17,15.523080000000007
2023-03-23 22-20-17-982938,0,0,1537,1463,0.088,-12.662,-1.16,0.93,-9.63,-5.13,-7.03,127.04,15.393080000000012
2023-03-23 22-20-18-000532,0,0,1537,1463,0.088,-12.662,-1.17,0.91,-9.64,-5.1,-7.03,126.91,15.263080000000002
2023-03-23 22-20-18-015585,0,0,1537,1463,0.088,-12.662,-1.18,0.93,-9.61,-5.06,-7.03,126.78,15.133080000000007
2023-03-23 22-20-18-039124,0,0,1537,1463,0.088,-12.662,-1.19,0.92,-9.62,-5.03,-7.04,126.65,15.003080000000011
2023-03-23 22-20-18-063653,0,0,1537,1463,0.088,-12.662,-1.19,0.9,-9.62,-5.0,-7.03,126.51,14.86308000000001
2023-03-23 22-20-18-078600,0,0,1537,1463,0.088,-12.662,-1.17,0.88,-9.63,-4.96,-7.03,126.38,14.733080000000001
2023-03-23 22-20-18-095745,0,0,1537,1463,0.088,-12.662,-1.15,0.87,-9.64,-4.92,-7.02,126.24,14.59308
2023-03-23 22-20-18-110458,0,0,1537,1463,0.088,-12.662,-1.11,0.85,-9.63,-4.88,-7.01,126.1,14.45308
2023-03-23 22-20-18-127796,0,0,1537,1463,0.088,-12.662,-1.1,0.83,-9.64,-4.83,-6.99,125.96,14.31308
2023-03-23 22-20-18-143408,0,0,1537,1463,0.088,-12.662,-1.09,0.8,-9.64,-4.79,-6.98,125.81,14.163080000000008
2023-03-23 22-20-18-159115,0,0,1537,1463,0.088,-12.662,-1.08,0.82,-9.63,-4.74,-6.96,125.68,14.033080000000012
2023-03-23 22-20-18-174364,0,0,1536,1464,0.088,-12.662,-1.08,0.78,-9.67,-4.7,-6.95,125.55,13.903080000000003
2023-03-23 22-20-18-190486,0,0,1536,1464,0.088,-12.662,-1.1,0.75,-9.65,-4.65,-6.92,125.42,13.773080000000007
2023-03-23 22-20-18-208217,0,0,1536,1464,0.088,-12.662,-1.1,0.76,-9.64,-4.6,-6.9,125.29,13.643080000000012
2023-03-23 22-20-18-223848,0,0,1536,1464,0.088,-12.662,-1.11,0.78,-9.64,-4.55,-6.89,125.17,13.523080000000007
2023-03-23 22-20-18-238554,0,0,1536,1464,0.088,-12.662,-1.11,0.77,-9.63,-4.5,-6.86,125.06,13.413080000000008
2023-03-23 22-20-18-256140,0,0,1536,1464,0.088,-12.662,-1.1,0.79,-9.62,-4.45,-6.84,124.94,13.293080000000003
2023-03-23 22-20-18-271744,0,0,1536,1464,0.088,-12.662,-1.1,0.78,-9.63,-4.4,-6.82,124.83,13.183080000000004
2023-03-23 22-20-18-302512,0,0,1536,1464,0.088,-12.662,-1.1,0.76,-9.65,-4.35,-6.79,124.72,13.073080000000004
2023-03-23 22-20-18-319427,0,0,1536,1464,0.088,-12.662,-1.09,0.74,-9.65,-4.29,-6.77,124.61,12.963080000000005
2023-03-23 22-20-18-335981,0,0,1536,1464,0.088,-12.662,-1.08,0.73,-9.66,-4.23,-6.75,124.51,12.86308000000001
2023-03-23 22-20-18-351415,0,0,1536,1464,0.176,-12.662,-1.07,0.72,-9.66,-4.18,-6.72,124.4,12.753080000000011
2023-03-23 22-20-18-367874,0,0,1536,1464,0.088,-12.662,-1.07,0.7,-9.66,-4.12,-6.7,124.3,12.653080000000003
2023-03-23 22-20-18-382525,0,0,1536,1464,0.088,-12.662,-1.09,0.7,-9.64,-4.06,-6.68,124.19,12.543080000000003
2023-03-23 22-20-18-398563,0,0,1536,1464,0.088,-12.662,-1.09,0.69,-9.67,-3.99,-6.66,124.09,12.443080000000009
2023-03-23 22-20-18-414142,0,0,1536,1464,0.088,-12.662,-1.09,0.68,-9.7,-3.93,-6.64,123.99,12.34308
2023-03-23 22-20-18-431152,0,0,1536,1464,0.088,-12.662,-1.08,0.62,-9.68,-3.87,-6.62,123.89,12.243080000000006
2023-03-23 22-20-18-446547,0,0,1536,1464,0.088,-12.662,-1.11,0.63,-9.65,-3.8,-6.6,123.79,12.143080000000012
2023-03-23 22-20-18-463149,0,0,1536,1464,0.088,-12.662,-1.12,0.66,-9.67,-3.73,-6.58,123.69,12.043080000000003
2023-03-23 22-20-18-478287,0,0,1535,1465,0.088,-12.662,-1.09,0.66,-9.66,-3.66,-6.56,123.6,11.95308
2023-03-23 22-20-18-495243,0,0,1535,1465,0.088,-12.662,-1.09,0.66,-9.69,-3.6,-6.55,123.51,11.86308000000001
2023-03-23 22-20-18-510469,0,0,1535,1465,0.088,-12.662,-1.08,0.64,-9.65,-3.54,-6.53,123.43,11.783080000000012
2023-03-23 22-20-18-526528,0,0,1535,1465,0.088,-12.662,-1.09,0.62,-9.65,-3.47,-6.51,123.34,11.693080000000009
2023-03-23 22-20-18-543762,0,0,1535,1465,0.088,-12.662,-1.1,0.61,-9.67,-3.41,-6.5,123.25,11.603080000000006
2023-03-23 22-20-18-558772,0,0,1535,1465,0.176,-12.662,-1.08,0.59,-9.7,-3.35,-6.48,123.16,11.513080000000002
2023-03-23 22-20-18-575118,0,0,1535,1465,0.088,-12.662,-1.05,0.57,-9.7,-3.28,-6.47,123.07,11.423079999999999
2023-03-23 22-20-18-590321,0,0,1535,1465,0.088,-12.662,-1.07,0.57,-9.67,-3.22,-6.45,122.99,11.34308
2023-03-23 22-20-18-606541,0,0,1535,1465,0.088,-12.662,-1.07,0.56,-9.68,-3.16,-6.43,122.9,11.253080000000011
2023-03-23 22-20-18-624560,0,0,1535,1465,0.088,-12.662,-1.08,0.54,-9.69,-3.09,-6.41,122.82,11.173079999999999
2023-03-23 22-20-18-638318,0,0,1535,1465,0.088,-12.662,-1.07,0.52,-9.7,-3.03,-6.4,122.73,11.08308000000001
2023-03-23 22-20-18-654311,0,0,1535,1465,0.088,-12.662,-1.07,0.5,-9.67,-2.97,-6.38,122.65,11.003080000000011
2023-03-23 22-20-18-671083,0,0,1535,1465,0.088,-12.662,-1.07,0.49,-9.64,-2.91,-6.36,122.57,10.923079999999999
2023-03-23 22-20-18-686380,0,0,1535,1465,0.088,-12.662,-1.08,0.5,-9.7,-2.85,-6.34,122.49,10.84308
2023-03-23 22-20-18-702754,0,0,1535,1465,0.088,-12.662,-1.08,0.49,-9.69,-2.78,-6.32,122.41,10.763080000000002
2023-03-23 22-20-18-718306,0,0,1535,1465,0.088,-12.662,-1.07,0.47,-9.71,-2.72,-6.3,122.34,10.693080000000009
2023-03-23 22-20-18-735803,0,0,1535,1465,0.088,-12.662,-1.05,0.46,-9.68,-2.66,-6.28,122.26,10.61308000000001
2023-03-23 22-20-18-751152,0,0,1535,1465,0.088,-12.662,-1.04,0.43,-9.69,-2.6,-6.26,122.18,10.533080000000012
2023-03-23 22-20-18-767893,0,0,1535,1465,0.088,-12.662,-1.05,0.42,-9.68,-2.53,-6.24,122.11,10.463080000000005
2023-03-23 22-20-18-787252,0,0,1535,1465,0.088,-12.662,-1.05,0.43,-9.69,-2.47,-6.23,122.04,10.393080000000012
2023-03-23 22-20-18-815290,0,0,1535,1465,0.088,-12.662,-1.04,0.43,-9.72,-2.41,-6.21,121.96,10.31308
2023-03-23 22-20-18-830727,0,0,1535,1465,0.088,-12.662,-1.05,0.42,-9.71,-2.35,-6.19,121.89,10.243080000000006
2023-03-23 22-20-18-847591,0,0,1535,1465,0.088,-12.662,-1.06,0.42,-9.69,-2.29,-6.18,121.82,10.173079999999999
2023-03-23 22-20-18-862362,0,0,1535,1465,0.088,-12.662,-1.05,0.39,-9.69,-2.23,-6.17,121.75,10.103080000000006
2023-03-23 22-20-18-879271,0,0,1535,1465,0.088,-12.662,-1.06,0.35,-9.71,-2.17,-6.15,121.69,10.043080000000003
2023-03-23 22-20-18-894620,0,0,1534,1466,0.088,-12.662,-1.04,0.35,-9.7,-2.12,-6.13,121.62,9.97308000000001
2023-03-23 22-20-18-911050,0,0,1534,1466,0.088,-12.662,-1.03,0.34,-9.68,-2.06,-6.11,121.56,9.913080000000008
2023-03-23 22-20-18-926403,0,0,1534,1466,0.088,-12.662,-1.04,0.36,-9.69,-2.0,-6.1,121.49,9.84308
2023-03-23 22-20-18-943053,0,0,1534,1466,0.088,-12.662,-1.06,0.32,-9.68,-1.94,-6.08,121.43,9.783080000000012
2023-03-23 22-20-18-959826,0,0,1534,1466,0.176,-12.662,-1.04,0.34,-9.72,-1.89,-6.07,121.37,9.72308000000001
2023-03-23 22-20-18-975669,0,0,1534,1466,0.088,-12.662,-1.02,0.32,-9.7,-1.83,-6.06,121.32,9.673079999999999
2023-03-23 22-20-18-990325,0,0,1534,1466,0.088,-12.662,-1.02,0.31,-9.69,-1.77,-6.05,121.26,9.61308000000001
2023-03-23 22-20-19-007188,0,0,1534,1466,0.088,-12.662,-1.02,0.32,-9.67,-1.71,-6.04,121.21,9.56308
2023-03-23 22-20-19-023705,0,0,1534,1466,0.176,-12.662,-1.04,0.29,-9.72,-1.66,-6.03,121.15,9.503080000000011
2023-03-23 22-20-19-038608,0,0,1534,1466,0.088,-12.662,-1.02,0.28,-9.72,-1.61,-6.02,121.1,9.45308
2023-03-23 22-20-19-054419,0,0,1534,1466,0.088,-12.662,-1.02,0.26,-9.71,-1.56,-6.02,121.05,9.403080000000003
2023-03-23 22-20-19-070847,0,0,1534,1466,0.088,-12.662,-1.0,0.26,-9.7,-1.51,-6.01,121.0,9.353080000000006
2023-03-23 22-20-19-088199,0,0,1534,1466,0.088,-12.662,-1.02,0.26,-9.7,-1.45,-6.01,120.94,9.293080000000003
2023-03-23 22-20-19-117961,0,0,1534,1466,0.088,-12.662,-1.02,0.25,-9.7,-1.4,-6.0,120.89,9.243080000000006
2023-03-23 22-20-19-134640,0,0,1534,1466,0.088,-12.662,-1.01,0.23,-9.7,-1.36,-6.0,120.84,9.193080000000009
2023-03-23 22-20-19-150981,0,0,1534,1466,0.088,-12.662,-1.01,0.21,-9.71,-1.31,-6.0,120.79,9.143080000000012
2023-03-23 22-20-19-166451,0,0,1534,1466,0.088,-12.662,-1.03,0.2,-9.71,-1.26,-6.0,120.74,9.09308
2023-03-23 22-20-19-183159,0,0,1534,1466,0.088,-12.662,-1.02,0.2,-9.71,-1.21,-6.01,120.69,9.043080000000003
2023-03-23 22-20-19-215066,0,0,1534,1466,0.088,-12.662,-1.02,0.19,-9.68,-1.16,-6.02,120.65,9.003080000000011
2023-03-23 22-20-19-230156,0,0,1534,1466,0.088,-12.662,-1.01,0.18,-9.69,-1.11,-6.04,120.61,8.963080000000005
2023-03-23 22-20-19-247643,0,0,1534,1466,0.088,-12.662,-1.01,0.2,-9.71,-1.07,-6.05,120.56,8.913080000000008
2023-03-23 22-20-19-262940,0,0,1534,1466,0.088,-12.662,-1.01,0.19,-9.71,-1.02,-6.08,120.52,8.873080000000002
2023-03-23 22-20-19-278943,0,0,1534,1466,0.176,-12.662,-1.04,0.18,-9.72,-0.97,-6.1,120.48,8.83308000000001
2023-03-23 22-20-19-294339,0,0,1534,1466,0.088,-12.662,-1.04,0.17,-9.71,-0.92,-6.13,120.44,8.793080000000003
2023-03-23 22-20-19-311035,0,0,1534,1466,0.088,-12.662,-1.01,0.16,-9.71,-0.87,-6.16,120.4,8.753080000000011
2023-03-23 22-20-19-326532,0,0,1534,1466,0.088,-12.662,-1.01,0.15,-9.7,-0.83,-6.19,120.36,8.713080000000005
2023-03-23 22-20-19-342425,0,0,1534,1466,0.088,-12.662,-1.03,0.12,-9.71,-0.78,-6.23,120.33,8.683080000000004
2023-03-23 22-20-19-358068,0,0,1534,1466,0.088,-12.662,-1.04,0.12,-9.73,-0.73,-6.26,120.28,8.633080000000007
2023-03-23 22-20-19-375405,0,0,1534,1466,0.088,-12.662,-1.04,0.1,-9.71,-0.69,-6.3,120.24,8.59308
2023-03-23 22-20-19-390427,0,0,1534,1466,0.088,-12.662,-1.05,0.08,-9.72,-0.64,-6.33,120.2,8.553080000000008
2023-03-23 22-20-19-406423,0,0,1534,1466,0.088,-12.662,-1.06,0.09,-9.69,-0.6,-6.37,120.17,8.523080000000007
2023-03-23 22-20-19-422646,0,0,1534,1466,0.088,-12.662,-1.09,0.08,-9.72,-0.55,-6.41,120.13,8.483080000000001
2023-03-23 22-20-19-438559,0,0,1534,1466,0.088,-12.662,-1.09,0.06,-9.71,-0.5,-6.45,120.09,8.443080000000009
2023-03-23 22-20-19-454077,0,0,1534,1466,0.088,-12.662,-1.07,0.05,-9.72,-0.45,-6.49,120.05,8.403080000000003
2023-03-23 22-20-19-470169,0,0,1534,1466,0.088,-12.662,-1.07,0.03,-9.7,-0.41,-6.52,120.01,8.36308000000001
2023-03-23 22-20-19-487560,0,0,1534,1466,0.088,-12.662,-1.07,0.04,-9.68,-0.36,-6.56,119.97,8.323080000000004
2023-03-23 22-20-19-503398,0,0,1534,1466,0.088,-12.662,-1.1,0.05,-9.71,-0.31,-6.59,119.93,8.283080000000012
2023-03-23 22-20-19-520862,0,0,1534,1466,0.088,-12.662,-1.1,0.04,-9.71,-0.27,-6.62,119.89,8.243080000000006
2023-03-23 22-20-19-534626,0,0,1534,1466,0.088,-12.662,-1.1,0.04,-9.72,-0.22,-6.65,119.86,8.213080000000005
2023-03-23 22-20-19-551272,0,0,1534,1466,0.088,-12.662,-1.1,0.02,-9.69,-0.19,-6.68,119.82,8.173079999999999
2023-03-23 22-20-19-566276,0,0,1534,1466,0.088,-12.662,-1.12,0.01,-9.71,-0.14,-6.71,119.78,8.133080000000007
2023-03-23 22-20-19-583046,0,0,1534,1466,0.088,-12.662,-1.13,0.01,-9.7,-0.1,-6.73,119.75,8.103080000000006
2023-03-23 22-20-19-598150,0,0,1534,1466,0.088,-12.662,-1.12,-0.02,-9.69,-0.05,-6.75,119.71,8.06308
2023-03-23 22-20-19-614291,0,0,1534,1466,0.088,-12.662,-1.11,-0.03,-9.7,-0.01,-6.76,119.67,8.023080000000007
2023-03-23 22-20-19-629986,0,0,1533,1467,0.088,-12.662,-1.12,-0.04,-9.71,0.03,-6.78,119.64,7.993080000000006
2023-03-23 22-20-19-652603,0,0,1533,1467,0.088,-12.662,-1.12,-0.01,-9.72,0.07,-6.79,119.6,7.95308
2023-03-23 22-20-19-681377,0,0,1533,1467,0.088,-12.662,-1.13,-0.03,-9.72,0.11,-6.81,119.57,7.923079999999999
2023-03-23 22-20-19-714247,0,0,1533,1467,0.088,-12.662,-1.11,-0.05,-9.7,0.14,-6.83,119.54,7.893080000000012
2023-03-23 22-20-19-748996,0,0,1533,1467,0.088,-12.662,-1.12,-0.05,-9.71,0.18,-6.84,119.51,7.863080000000011
2023-03-23 22-20-19-778247,0,0,1533,1467,0.088,-12.662,-1.12,-0.05,-9.71,0.22,-6.85,119.49,7.8430800000000005
2023-03-23 22-20-19-813964,0,0,1533,1467,0.088,-12.662,-1.14,-0.04,-9.72,0.25,-6.86,119.46,7.813079999999999
2023-03-23 22-20-19-844360,0,0,1533,1467,0.088,-12.662,-1.15,-0.05,-9.71,0.29,-6.87,119.44,7.793080000000003
2023-03-23 22-20-19-875906,0,0,1533,1467,0.088,-12.662,-1.14,-0.08,-9.71,0.33,-6.88,119.41,7.763080000000002
2023-03-23 22-20-19-907091,0,0,1533,1467,0.088,-12.662,-1.12,-0.06,-9.71,0.37,-6.89,119.39,7.743080000000006
2023-03-23 22-20-19-938126,0,0,1533,1467,0.088,-12.662,-1.1,-0.07,-9.72,0.4,-6.9,119.36,7.713080000000005
2023-03-23 22-20-19-970972,0,0,1533,1467,0.088,-12.662,-1.11,-0.08,-9.7,0.44,-6.91,119.34,7.693080000000009
2023-03-23 22-20-20-004924,0,0,1533,1467,0.088,-12.662,-1.13,-0.09,-9.73,0.47,-6.93,119.31,7.663080000000008
2023-03-23 22-20-20-035413,0,0,1533,1467,0.088,-12.662,-1.16,-0.11,-9.73,0.51,-6.94,119.29,7.643080000000012
2023-03-23 22-20-20-067054,0,0,1533,1467,0.176,-12.662,-1.15,-0.14,-9.72,0.54,-6.95,119.27,7.623080000000002
2023-03-23 22-20-20-099022,0,0,1533,1467,0.088,-12.662,-1.16,-0.12,-9.71,0.58,-6.97,119.24,7.5930800000000005
2023-03-23 22-20-20-131361,0,0,1533,1467,0.088,-12.662,-1.18,-0.1,-9.75,0.61,-6.98,119.22,7.5730800000000045
2023-03-23 22-20-20-163119,0,0,1533,1467,0.088,-12.662,-1.15,-0.13,-9.7,0.64,-7.0,119.2,7.5530800000000085
2023-03-23 22-20-20-195408,0,0,1533,1467,0.088,-12.662,-1.15,-0.16,-9.72,0.68,-7.02,119.17,7.523080000000007
2023-03-23 22-20-20-226771,0,0,1533,1467,0.088,-12.662,-1.15,-0.18,-9.72,0.71,-7.04,119.15,7.503080000000011
2023-03-23 22-20-20-259394,0,0,1533,1467,0.088,-12.662,-1.18,-0.17,-9.72,0.75,-7.06,119.13,7.483080000000001
2023-03-23 22-20-20-290294,0,0,1533,1467,0.088,-12.662,-1.18,-0.17,-9.73,0.78,-7.08,119.11,7.463080000000005
2023-03-23 22-20-20-322513,0,0,1533,1467,0.088,-12.662,-1.18,-0.17,-9.7,0.81,-7.11,119.09,7.443080000000009
2023-03-23 22-20-20-353858,0,0,1533,1467,0.088,-12.662,-1.19,-0.18,-9.7,0.85,-7.13,119.06,7.413080000000008
2023-03-23 22-20-20-386293,0,0,1533,1467,0.088,-12.662,-1.19,-0.16,-9.72,0.88,-7.15,119.04,7.393080000000012
2023-03-23 22-20-20-418180,0,0,1533,1467,0.088,-12.662,-1.21,-0.17,-9.73,0.91,-7.18,119.01,7.363080000000011
2023-03-23 22-20-20-449326,0,0,1533,1467,0.088,-12.662,-1.21,-0.16,-9.71,0.94,-7.21,118.99,7.3430800000000005
2023-03-23 22-20-20-478960,0,0,1533,1467,0.176,-12.662,-1.22,-0.17,-9.67,0.96,-7.24,118.97,7.3230800000000045
2023-03-23 22-20-20-495182,0,0,1533,1467,0.088,-12.662,-1.22,-0.2,-9.69,0.99,-7.27,118.94,7.293080000000003
2023-03-23 22-20-20-511337,0,0,1533,1467,0.088,-12.662,-1.21,-0.21,-9.67,1.02,-7.31,118.92,7.273080000000007
2023-03-23 22-20-20-525973,0,0,1533,1467,0.088,-12.662,-1.23,-0.17,-9.7,1.05,-7.35,118.9,7.253080000000011
2023-03-23 22-20-20-542137,0,0,1533,1467,0.088,-12.662,-1.23,-0.21,-9.68,1.08,-7.39,118.88,7.233080000000001
2023-03-23 22-20-20-559052,0,0,1533,1467,0.088,-12.662,-1.23,-0.23,-9.7,1.1,-7.42,118.86,7.213080000000005
2023-03-23 22-20-20-575062,0,0,1533,1467,0.088,-12.662,-1.24,-0.23,-9.69,1.12,-7.46,118.84,7.193080000000009
2023-03-23 22-20-20-590839,0,0,1533,1467,0.088,-12.662,-1.24,-0.21,-9.67,1.15,-7.51,118.82,7.173079999999999
2023-03-23 22-20-20-606135,0,0,1533,1467,0.088,-12.662,-1.25,-0.21,-9.67,1.18,-7.55,118.81,7.163080000000008
2023-03-23 22-20-20-622953,0,0,1533,1467,0.088,-12.662,-1.23,-0.22,-9.69,1.2,-7.59,118.79,7.143080000000012
2023-03-23 22-20-20-638608,0,0,1533,1467,0.088,-12.662,-1.24,-0.24,-9.68,1.23,-7.63,118.77,7.123080000000002
2023-03-23 22-20-20-653912,0,0,1533,1467,0.088,-12.662,-1.25,-0.23,-9.65,1.25,-7.67,118.76,7.113080000000011
2023-03-23 22-20-20-670021,0,0,1533,1467,0.088,-12.662,-1.26,-0.23,-9.66,1.27,-7.7,118.74,7.0930800000000005
2023-03-23 22-20-20-686939,0,0,1533,1467,0.088,-12.662,-1.27,-0.24,-9.68,1.3,-7.73,118.72,7.0730800000000045
2023-03-23 22-20-20-703229,0,0,1533,1467,0.088,-12.662,-1.25,-0.24,-9.66,1.32,-7.77,118.71,7.063079999999999
2023-03-23 22-20-20-719820,0,0,1533,1467,0.088,-12.662,-1.25,-0.28,-9.66,1.34,-7.81,118.69,7.043080000000003
2023-03-23 22-20-20-734245,0,0,1533,1467,0.088,-12.662,-1.25,-0.26,-9.64,1.36,-7.84,118.68,7.033080000000012
2023-03-23 22-20-20-750105,0,0,1533,1467,0.088,-12.662,-1.29,-0.22,-9.7,1.38,-7.88,118.67,7.023080000000007
2023-03-23 22-20-20-768613,0,0,1533,1467,0.088,-12.662,-1.31,-0.26,-9.66,1.4,-7.92,118.65,7.003080000000011
2023-03-23 22-20-20-783169,0,0,1533,1467,0.088,-12.662,-1.33,-0.27,-9.64,1.41,-7.95,118.65,7.003080000000011
2023-03-23 22-20-20-798875,0,0,1533,1467,0.088,-12.662,-1.32,-0.27,-9.65,1.43,-7.99,118.64,6.993080000000006
2023-03-23 22-20-20-814454,0,0,1533,1467,0.088,-12.662,-1.31,-0.26,-9.64,1.44,-8.02,118.63,6.983080000000001
2023-03-23 22-20-20-830086,0,0,1533,1467,0.088,-12.662,-1.34,-0.25,-9.65,1.46,-8.06,118.62,6.97308000000001
2023-03-23 22-20-20-846253,0,0,1533,1467,0.088,-12.662,-1.35,-0.25,-9.64,1.48,-8.09,118.61,6.963080000000005
2023-03-23 22-20-20-862460,0,0,1533,1467,0.088,-12.662,-1.35,-0.27,-9.64,1.5,-8.13,118.6,6.95308
2023-03-23 22-20-20-878679,0,0,1533,1467,0.088,-12.662,-1.33,-0.27,-9.65,1.51,-8.16,118.59,6.943080000000009
2023-03-23 22-20-20-894031,0,0,1533,1467,0.088,-12.662,-1.33,-0.28,-9.65,1.53,-8.19,118.58,6.933080000000004
2023-03-23 22-20-20-911558,0,0,1533,1467,0.088,-12.662,-1.34,-0.29,-9.67,1.54,-8.22,118.56,6.913080000000008
2023-03-23 22-20-20-927401,0,0,1533,1467,0.088,-12.662,-1.35,-0.29,-9.66,1.55,-8.24,118.55,6.903080000000003
2023-03-23 22-20-20-942308,0,0,1533,1467,0.088,-12.662,-1.34,-0.3,-9.65,1.57,-8.27,118.53,6.883080000000007
2023-03-23 22-20-20-958029,0,0,1533,1467,0.088,-12.662,-1.35,-0.33,-9.64,1.58,-8.29,118.52,6.873080000000002
2023-03-23 22-20-20-974143,0,0,1533,1467,0.176,-12.662,-1.38,-0.28,-9.63,1.59,-8.32,118.5,6.853080000000006
2023-03-23 22-20-20-990263,0,0,1533,1467,0.088,-12.662,-1.4,-0.26,-9.65,1.6,-8.34,118.48,6.83308000000001
2023-03-23 22-20-21-007042,0,0,1533,1467,0.088,-12.662,-1.39,-0.28,-9.64,1.6,-8.36,118.47,6.8230800000000045
2023-03-23 22-20-21-035368,0,0,1533,1467,0.088,-12.662,-1.38,-0.3,-9.64,1.62,-8.38,118.46,6.813079999999999
2023-03-23 22-20-21-097596,0,0,1533,1467,0.088,-12.662,-1.37,-0.29,-9.65,1.63,-8.4,118.44,6.793080000000003
2023-03-23 22-20-21-118764,0,0,1533,1467,0.088,-12.662,-1.39,-0.29,-9.66,1.63,-8.41,118.42,6.773080000000007
2023-03-23 22-20-21-136695,0,0,1533,1467,0.088,-12.662,-1.4,-0.3,-9.67,1.64,-8.43,118.4,6.753080000000011
2023-03-23 22-20-21-151713,0,0,1533,1467,0.088,-12.662,-1.39,-0.3,-9.66,1.65,-8.45,118.39,6.743080000000006
