Timestamp_log,left_angle,right_angle,left_thrust,right_thrust,read_left_angle,read_right_angle,accel_x,accel_y,accel_z,roll,pitch,yaw,e_alpha
2023-03-23 22-53-28-440708,0,0,1535,1465,178.681,-12.662,-4.43,-0.19,-8.71,1.24,-27.09,150.81,30.07328000000001
2023-03-23 22-53-28-541509,0,0,1535,1465,178.681,-12.662,-4.45,-0.18,-8.7,1.23,-27.08,150.81,30.07328000000001
2023-03-23 22-53-28-647120,0,0,1535,1465,178.681,-12.662,-4.45,-0.11,-8.68,1.23,-27.08,150.77,30.03328000000002
2023-03-23 22-53-28-740460,0,0,1535,1465,178.681,-12.662,-4.47,-0.2,-8.7,1.47,-27.02,149.89,29.153279999999995
2023-03-23 22-53-28-840581,0,0,1535,1465,178.681,-12.662,-4.41,-0.26,-8.73,1.87,-26.84,148.36,27.623280000000022
2023-03-23 22-53-28-940650,0,0,1535,1465,178.681,-12.662,-4.38,-0.33,-8.73,2.38,-26.68,146.41,25.673280000000005
2023-03-23 22-53-29-041202,0,0,1535,1465,178.681,-12.75,-4.38,-0.43,-8.74,2.93,-26.51,144.22,23.483280000000008
2023-03-23 22-53-29-141001,0,0,1535,1465,178.681,-12.662,-4.31,-0.52,-8.78,3.5,-26.25,141.86,21.123280000000022
2023-03-23 22-53-29-240597,0,0,1535,1465,178.681,-12.662,-4.29,-0.62,-8.78,4.1,-25.95,139.34,18.603280000000012
2023-03-23 22-53-29-340608,0,0,1535,1465,178.681,-12.75,-4.19,-0.69,-8.79,4.71,-25.64,136.74,16.003280000000018
2023-03-23 22-53-29-440333,0,0,1535,1465,178.681,-12.75,-4.19,-0.8,-8.81,5.31,-25.36,134.08,13.343280000000021
2023-03-23 22-53-29-540687,0,0,1535,1465,178.681,-12.75,-4.15,-0.89,-8.81,5.91,-25.1,131.39,10.653279999999995
2023-03-23 22-53-29-640568,0,0,1533,1467,178.681,-12.75,-4.07,-0.99,-8.83,6.5,-24.83,128.68,7.943280000000016
2023-03-23 22-53-29-740543,0,0,1532,1468,178.681,-12.662,-4.04,-1.09,-8.81,7.04,-24.52,126.05,5.313280000000006
2023-03-23 22-53-29-840509,0,0,1531,1469,178.681,-12.75,-3.94,-1.13,-8.84,7.53,-24.18,123.65,2.9132800000000145
2023-03-23 22-53-29-941134,0,0,1531,1469,178.681,-12.662,-3.94,-1.25,-8.85,7.96,-23.75,121.4,0.6632800000000145
2023-03-23 22-53-30-042323,0,0,1531,1469,178.681,-12.75,-3.85,-1.31,-8.89,8.35,-23.27,119.29,-1.446719999999985
2023-03-23 22-53-30-140464,0,0,1531,1469,178.681,-12.75,-3.76,-1.38,-8.92,8.72,-22.77,117.28,-3.45671999999999
2023-03-23 22-53-30-240581,0,0,1531,1469,178.681,-12.662,-3.71,-1.42,-8.95,9.05,-22.27,115.36,-5.376719999999992
2023-03-23 22-53-30-340782,0,0,1531,1469,178.681,-12.75,-3.6,-1.46,-8.96,9.34,-21.8,113.55,-7.186719999999994
2023-03-23 22-53-30-441785,0,0,1531,1469,178.681,-12.75,-3.56,-1.52,-8.98,9.56,-21.33,111.8,-8.936719999999994
2023-03-23 22-53-30-540606,0,0,1531,1469,178.681,-12.662,-3.47,-1.54,-9.0,9.75,-20.85,110.19,-10.546719999999993
2023-03-23 22-53-30-646407,0,0,1531,1469,178.681,-12.75,-3.41,-1.58,-9.03,9.9,-20.37,108.64,-12.09671999999999
2023-03-23 22-53-30-741143,0,0,1531,1469,178.681,-12.75,-3.32,-1.61,-9.04,10.01,-19.9,107.17,-13.56671999999999
2023-03-23 22-53-30-840676,0,0,1531,1469,178.681,-12.662,-3.25,-1.6,-9.05,10.11,-19.44,105.81,-14.926719999999989
2023-03-23 22-53-30-940934,0,0,1531,1469,178.681,-12.75,-3.18,-1.64,-9.1,10.18,-18.97,104.52,-16.216719999999995
2023-03-23 22-53-31-042172,0,0,1531,1469,178.681,-12.662,-3.11,-1.67,-9.16,10.21,-18.53,103.32,-17.416719999999998
2023-03-23 22-53-31-140966,0,0,1531,1469,178.681,-12.662,-3.01,-1.66,-9.15,10.21,-18.15,102.18,-18.556719999999984
2023-03-23 22-53-31-240584,0,0,1531,1469,178.681,-12.662,-2.96,-1.66,-9.15,10.17,-17.76,101.24,-19.496719999999996
2023-03-23 22-53-31-340614,0,0,1531,1469,178.681,-12.75,-2.83,-1.67,-9.19,10.1,-17.26,100.58,-20.156719999999993
2023-03-23 22-53-31-440653,0,0,1531,1469,178.681,-12.662,-2.84,-1.62,-9.21,10.03,-16.72,100.08,-20.656719999999993
2023-03-23 22-53-31-540668,0,0,1531,1469,178.681,-12.75,-2.73,-1.57,-9.24,9.96,-16.22,99.53,-21.20671999999999
2023-03-23 22-53-31-641605,0,0,1531,1469,178.681,-12.662,-2.68,-1.63,-9.27,9.88,-15.85,98.9,-21.836719999999985
2023-03-23 22-53-31-740622,0,0,1531,1469,178.681,-12.75,-2.63,-1.6,-9.29,9.78,-15.57,98.33,-22.406719999999993
2023-03-23 22-53-31-840645,0,0,1531,1469,178.681,-12.662,-2.57,-1.6,-9.3,9.67,-15.32,97.83,-22.906719999999993
2023-03-23 22-53-31-940825,0,0,1531,1469,178.681,-12.662,-2.55,-1.57,-9.3,9.54,-15.09,97.38,-23.356719999999996
2023-03-23 22-53-32-040869,0,0,1531,1469,178.681,-12.75,-2.53,-1.49,-9.34,9.41,-14.9,97.06,-23.67671999999999
2023-03-23 22-53-32-141338,0,0,1531,1469,178.681,-12.662,-2.49,-1.52,-9.33,9.28,-14.71,96.81,-23.92671999999999
2023-03-23 22-53-32-240744,0,0,1531,1469,178.681,-12.662,-2.44,-1.5,-9.33,9.15,-14.53,96.67,-24.06671999999999
2023-03-23 22-53-32-346584,0,0,1531,1469,178.681,-12.75,-2.44,-1.45,-9.36,9.02,-14.35,96.59,-24.146719999999988
2023-03-23 22-53-32-442679,0,0,1531,1469,178.681,-12.662,-2.41,-1.45,-9.37,8.89,-14.22,96.58,-24.156719999999993
2023-03-23 22-53-32-541203,0,0,1531,1469,178.681,-12.75,-2.39,-1.46,-9.37,8.77,-14.1,96.68,-24.056719999999984
2023-03-23 22-53-32-640738,0,0,1531,1469,178.681,-12.662,-2.36,-1.43,-9.38,8.67,-13.96,96.86,-23.87671999999999
2023-03-23 22-53-32-740780,0,0,1531,1469,178.681,-12.75,-2.33,-1.41,-9.39,8.56,-13.83,97.16,-23.576719999999995
2023-03-23 22-53-32-840884,0,0,1531,1469,178.681,-12.75,-2.34,-1.39,-9.41,8.47,-13.69,97.55,-23.186719999999994
2023-03-23 22-53-32-941838,0,0,1531,1469,178.681,-12.75,-2.29,-1.38,-9.42,8.4,-13.55,98.06,-22.67671999999999
2023-03-23 22-53-33-040939,0,0,1531,1469,178.681,-12.75,-2.23,-1.35,-9.4,8.33,-13.4,98.72,-22.016719999999992
2023-03-23 22-53-33-141012,0,0,1531,1469,178.681,-12.662,-2.25,-1.35,-9.42,8.25,-13.25,99.5,-21.23671999999999
2023-03-23 22-53-33-241277,0,0,1531,1469,178.681,-12.75,-2.18,-1.38,-9.44,8.16,-13.12,100.43,-20.306719999999984
2023-03-23 22-53-33-346848,0,0,1531,1469,178.681,-12.75,-2.18,-1.35,-9.43,8.08,-12.98,101.59,-19.146719999999988
2023-03-23 22-53-33-442339,0,0,1531,1469,178.681,-12.75,-2.15,-1.33,-9.45,8.02,-12.8,103.1,-17.636719999999997
2023-03-23 22-53-33-542331,0,0,1531,1469,178.681,-12.662,-2.15,-1.29,-9.44,7.98,-12.57,104.78,-15.95671999999999
2023-03-23 22-53-33-641247,0,0,1531,1469,178.681,-12.75,-2.09,-1.31,-9.45,7.96,-12.34,106.45,-14.286719999999988
2023-03-23 22-53-33-740850,0,0,1531,1469,178.681,-12.75,-2.09,-1.3,-9.46,7.92,-12.19,108.18,-12.556719999999984
2023-03-23 22-53-33-846390,0,0,1531,1469,178.681,-12.75,-2.05,-1.31,-9.47,7.87,-12.14,109.96,-10.776719999999997
2023-03-23 22-53-33-942014,0,0,1531,1469,178.681,-12.662,-2.05,-1.3,-9.47,7.81,-12.14,111.86,-8.876719999999992
2023-03-23 22-53-34-041019,0,0,1531,1469,178.681,-12.662,-2.08,-1.28,-9.47,7.76,-12.15,113.85,-6.886719999999997
2023-03-23 22-53-34-142234,0,0,1531,1469,178.681,-12.662,-2.07,-1.29,-9.47,7.7,-12.14,115.93,-4.806719999999984
2023-03-23 22-53-34-246430,0,0,1531,1469,178.681,-12.662,-2.05,-1.22,-9.45,7.62,-12.17,118.14,-2.5967199999999906
2023-03-23 22-53-34-340882,0,0,1531,1469,178.681,-12.75,-2.06,-1.25,-9.47,7.54,-12.21,120.37,-0.3667199999999866
2023-03-23 22-53-34-441339,0,0,1531,1469,178.681,-12.662,-2.08,-1.23,-9.48,7.46,-12.27,122.66,1.9232800000000054
2023-03-23 22-53-34-541824,0,0,1532,1468,178.681,-12.662,-2.09,-1.21,-9.47,7.37,-12.33,124.98,4.243280000000013
2023-03-23 22-53-34-640963,0,0,1533,1467,178.681,-12.662,-2.09,-1.21,-9.48,7.29,-12.41,127.29,6.553280000000015
2023-03-23 22-53-34-740930,0,0,1534,1466,178.681,-12.75,-2.11,-1.17,-9.47,7.2,-12.48,129.64,8.903279999999995
2023-03-23 22-53-34-840956,0,0,1535,1465,178.681,-12.662,-2.12,-1.17,-9.46,7.12,-12.57,131.96,11.223280000000017
2023-03-23 22-53-34-940940,0,0,1535,1465,178.681,-12.75,-2.16,-1.15,-9.45,7.04,-12.66,134.22,13.483280000000008
2023-03-23 22-53-35-042036,0,0,1535,1465,178.681,-12.75,-2.17,-1.14,-9.47,6.95,-12.77,136.23,15.493279999999999
2023-03-23 22-53-35-141143,0,0,1535,1465,178.681,-12.75,-2.2,-1.13,-9.46,6.86,-12.93,138.07,17.333280000000002
2023-03-23 22-53-35-241419,0,0,1535,1465,178.681,-12.75,-2.17,-1.09,-9.46,6.78,-13.17,139.82,19.083280000000002
2023-03-23 22-53-35-342768,0,0,1535,1465,178.681,-12.75,-2.27,-1.11,-9.45,6.71,-13.46,141.43,20.693280000000016
2023-03-23 22-53-35-440996,0,0,1535,1465,178.681,-12.75,-2.33,-1.1,-9.44,6.64,-13.72,142.98,22.24328
2023-03-23 22-53-35-541119,0,0,1535,1465,178.681,-12.75,-2.33,-1.09,-9.44,6.57,-13.98,144.42,23.683279999999996
2023-03-23 22-53-35-642260,0,0,1535,1465,178.681,-12.75,-2.4,-1.07,-9.42,6.53,-14.16,145.78,25.04328000000001
2023-03-23 22-53-35-741068,0,0,1535,1465,178.681,-12.662,-2.42,-1.06,-9.41,6.48,-14.39,147.05,26.31328000000002
2023-03-23 22-53-35-840921,0,0,1535,1465,178.681,-12.662,-2.47,-1.09,-9.39,6.46,-14.66,148.24,27.503280000000018
2023-03-23 22-53-35-941192,0,0,1535,1465,178.681,-12.662,-2.51,-1.07,-9.39,6.47,-14.97,149.41,28.673280000000005
2023-03-23 22-53-36-041495,0,0,1535,1465,178.681,-12.75,-2.58,-1.08,-9.39,6.48,-15.27,150.49,29.753280000000018
2023-03-23 22-53-36-141254,0,0,1535,1465,178.681,-12.662,-2.61,-1.07,-9.36,6.51,-15.5,151.56,30.82328000000001
2023-03-23 22-53-36-241182,0,0,1535,1465,178.681,-12.75,-2.64,-1.06,-9.36,6.56,-15.68,152.58,31.84328000000002
2023-03-23 22-53-36-341263,0,0,1535,1465,178.681,-12.75,-2.66,-1.08,-9.33,6.62,-15.85,153.58,32.84328000000002
2023-03-23 22-53-36-441281,0,0,1535,1465,178.681,-12.75,-2.69,-1.06,-9.34,6.7,-16.02,154.58,33.84328000000002
2023-03-23 22-53-36-541184,0,0,1535,1465,178.681,-12.75,-2.73,-1.1,-9.31,6.81,-16.21,155.49,34.75328000000002
2023-03-23 22-53-36-641092,0,0,1535,1465,178.681,-12.75,-2.75,-1.12,-9.31,6.9,-16.41,156.38,35.643280000000004
2023-03-23 22-53-36-741278,0,0,1535,1465,178.681,-12.75,-2.79,-1.13,-9.28,6.99,-16.61,157.24,36.50328000000002
2023-03-23 22-53-36-841917,0,0,1535,1465,178.681,-12.662,-2.81,-1.15,-9.28,7.09,-16.78,158.05,37.31328000000002
2023-03-23 22-53-36-942592,0,0,1535,1465,178.681,-12.662,-2.79,-1.12,-9.28,7.17,-16.91,158.88,38.143280000000004
2023-03-23 22-53-37-041985,0,0,1535,1465,178.681,-12.75,-2.85,-1.17,-9.28,7.28,-17.02,159.62,38.88328000000001
2023-03-23 22-53-37-141236,0,0,1535,1465,178.681,-12.662,-2.88,-1.16,-9.25,7.36,-17.12,160.36,39.62328000000002
2023-03-23 22-53-37-241299,0,0,1535,1465,178.681,-12.75,-2.87,-1.23,-9.25,7.43,-17.23,161.04,40.30328
2023-03-23 22-53-37-341482,0,0,1535,1465,178.681,-12.75,-2.92,-1.22,-9.24,7.51,-17.34,161.65,40.913280000000015
2023-03-23 22-53-37-441204,0,0,1535,1465,178.681,-12.75,-2.87,-1.2,-9.25,7.58,-17.43,162.28,41.54328000000001
2023-03-23 22-53-37-541336,0,0,1535,1465,178.681,-12.662,-2.93,-1.25,-9.23,7.64,-17.5,162.86,42.12328000000002
2023-03-23 22-53-37-641749,0,0,1535,1465,178.681,-12.75,-2.94,-1.25,-9.24,7.67,-17.55,163.46,42.72328000000002
2023-03-23 22-53-37-741326,0,0,1535,1465,178.681,-12.75,-2.96,-1.23,-9.22,7.67,-17.57,164.01,43.27328
2023-03-23 22-53-37-841271,0,0,1535,1465,178.681,-12.75,-2.94,-1.25,-9.24,7.67,-17.62,164.52,43.78328000000002
2023-03-23 22-53-37-941322,0,0,1535,1465,178.681,-12.75,-2.98,-1.26,-9.22,7.65,-17.7,165.04,44.30328
2023-03-23 22-53-38-041327,0,0,1535,1465,178.681,-12.75,-2.98,-1.23,-9.22,7.65,-17.8,165.52,44.78328000000002
2023-03-23 22-53-38-141516,0,0,1535,1465,178.681,-12.662,-2.98,-1.25,-9.22,7.64,-17.89,166.02,45.28328000000002
2023-03-23 22-53-38-242619,0,0,1535,1465,178.681,-12.662,-3.0,-1.23,-9.22,7.65,-17.96,166.47,45.73328000000001
2023-03-23 22-53-38-341427,0,0,1535,1465,178.681,-12.662,-3.01,-1.24,-9.23,7.63,-18.01,166.92,46.183279999999996
2023-03-23 22-53-38-441707,0,0,1535,1465,178.681,-12.75,-3.05,-1.22,-9.21,7.61,-18.07,167.38,46.643280000000004
2023-03-23 22-53-38-541676,0,0,1535,1465,178.681,-12.75,-3.03,-1.23,-9.2,7.61,-18.18,167.81,47.07328000000001
2023-03-23 22-53-38-642117,0,0,1535,1465,178.681,-12.662,-3.06,-1.25,-9.18,7.62,-18.33,168.25,47.51328000000001
2023-03-23 22-53-38-741418,0,0,1535,1465,178.681,-12.75,-3.09,-1.23,-9.19,7.64,-18.46,168.61,47.87328000000002
2023-03-23 22-53-38-841782,0,0,1535,1465,178.681,-12.662,-3.11,-1.24,-9.2,7.66,-18.56,168.98,48.24328
2023-03-23 22-53-38-941349,0,0,1535,1465,178.681,-12.75,-3.12,-1.24,-9.17,7.65,-18.67,169.33,48.59328000000002
2023-03-23 22-53-39-041383,0,0,1535,1465,178.681,-12.662,-3.15,-1.24,-9.14,7.66,-18.77,169.62,48.88328000000001
2023-03-23 22-53-39-141529,0,0,1535,1465,178.681,-12.75,-3.15,-1.23,-9.15,7.68,-18.91,169.93,49.193280000000016
2023-03-23 22-53-39-241464,0,0,1535,1465,178.681,-12.662,-3.18,-1.23,-9.15,7.71,-19.07,170.21,49.47328000000002
2023-03-23 22-53-39-343227,0,0,1535,1465,178.681,-12.75,-3.2,-1.25,-9.15,7.74,-19.23,170.49,49.75328000000002
2023-03-23 22-53-39-441522,0,0,1535,1465,178.681,-12.75,-3.25,-1.25,-9.13,7.76,-19.38,170.75,50.01328000000001
2023-03-23 22-53-39-541466,0,0,1535,1465,178.681,-12.75,-3.25,-1.25,-9.13,7.79,-19.52,170.98,50.24328
2023-03-23 22-53-39-641542,0,0,1535,1465,178.681,-12.75,-3.27,-1.23,-9.14,7.81,-19.63,171.24,50.50328000000002
2023-03-23 22-53-39-741310,0,0,1535,1465,178.681,-12.75,-3.37,-1.22,-9.09,7.85,-19.73,171.89,51.153279999999995
2023-03-23 22-53-39-841333,0,0,1535,1465,178.681,-12.662,-3.33,-1.21,-9.09,7.83,-19.75,173.18,52.443280000000016
2023-03-23 22-53-39-946399,0,0,1535,1465,178.681,-12.75,-3.29,-1.21,-9.12,7.83,-19.55,174.23,53.49328
2023-03-23 22-53-40-041826,0,0,1535,1465,178.681,-12.662,-3.25,-1.24,-9.15,7.84,-19.44,175.06,54.32328000000001
2023-03-23 22-53-40-142015,0,0,1535,1465,178.681,-12.662,-3.27,-1.2,-9.13,7.89,-19.54,175.76,55.02328
2023-03-23 22-53-40-241546,0,0,1535,1465,178.681,-12.75,-3.26,-1.27,-9.12,7.95,-19.65,176.37,55.63328000000001
2023-03-23 22-53-40-341599,0,0,1535,1465,178.681,-12.662,-3.31,-1.25,-9.12,7.98,-19.67,177.25,56.51328000000001
2023-03-23 22-53-40-442252,0,0,1535,1465,178.681,-12.662,-3.32,-1.27,-9.12,8.01,-19.64,177.92,57.183279999999996
2023-03-23 22-53-40-541417,0,0,1535,1465,178.681,-12.662,-3.31,-1.27,-9.13,8.01,-19.66,178.64,57.903279999999995
2023-03-23 22-53-40-641536,0,0,1535,1465,178.681,-12.662,-3.29,-1.27,-9.12,8.0,-19.67,179.3,58.56328000000002
2023-03-23 22-53-40-741572,0,0,1535,1465,178.681,-12.662,-3.2,-1.33,-9.16,7.99,-19.66,179.93,59.193280000000016
2023-03-23 22-53-40-842860,0,0,1535,1465,178.681,-12.75,-3.28,-1.27,-9.1,7.97,-19.65,-179.44,-300.17672
2023-03-23 22-53-40-945227,0,0,1535,1465,178.681,-12.75,-3.29,-1.25,-9.1,7.96,-19.64,-178.87,-299.60672
2023-03-23 22-53-41-042115,0,0,1535,1465,178.681,-12.662,-3.23,-1.29,-9.14,7.96,-19.6,-178.32,-299.05672
2023-03-23 22-53-41-141564,0,0,1535,1465,178.681,-12.662,-3.25,-1.25,-9.12,7.95,-19.55,-177.78,-298.51671999999996
2023-03-23 22-53-41-241687,0,0,1535,1465,178.681,-12.662,-3.25,-1.27,-9.12,7.97,-19.53,-177.3,-298.03672
2023-03-23 22-53-41-341543,0,0,1535,1465,178.681,-12.75,-3.23,-1.29,-9.14,7.99,-19.48,-176.84,-297.57672
2023-03-23 22-53-41-441559,0,0,1535,1465,178.681,-12.75,-3.25,-1.28,-9.13,7.99,-19.44,-176.41,-297.14671999999996
2023-03-23 22-53-41-541727,0,0,1535,1465,178.681,-12.662,-3.23,-1.31,-9.13,8.0,-19.36,-176.0,-296.73672
2023-03-23 22-53-41-642988,0,0,1535,1465,178.681,-12.662,-3.21,-1.29,-9.13,7.99,-19.31,-175.6,-296.33672
2023-03-23 22-53-41-741965,0,0,1535,1465,178.681,-12.75,-3.2,-1.29,-9.13,8.01,-19.23,-175.24,-295.97672
2023-03-23 22-53-41-842054,0,0,1535,1465,178.681,-12.662,-3.17,-1.24,-9.15,8.0,-19.13,-174.89,-295.62672
2023-03-23 22-53-41-942001,0,0,1535,1465,178.681,-12.662,-3.19,-1.28,-9.14,8.03,-19.0,-174.6,-295.33672
2023-03-23 22-53-42-042089,0,0,1535,1465,178.681,-12.662,-3.16,-1.28,-9.14,8.04,-18.85,-174.3,-295.03672
2023-03-23 22-53-42-142146,0,0,1535,1465,178.681,-12.662,-3.12,-1.3,-9.19,8.06,-18.74,-174.02,-294.75672
2023-03-23 22-53-42-242106,0,0,1535,1465,178.681,-12.662,-3.13,-1.31,-9.18,8.09,-18.63,-173.74,-294.47672
2023-03-23 22-53-42-341790,0,0,1535,1465,178.681,-12.662,-3.09,-1.26,-9.19,8.1,-18.54,-173.45,-294.18672
2023-03-23 22-53-42-442106,0,0,1535,1465,178.681,-12.75,-3.12,-1.32,-9.17,8.12,-18.49,-173.2,-293.93672
2023-03-23 22-53-42-541721,0,0,1535,1465,178.681,-12.662,-3.1,-1.3,-9.17,8.12,-18.43,-172.92,-293.65671999999995
2023-03-23 22-53-42-641688,0,0,1535,1465,178.681,-12.662,-3.08,-1.29,-9.18,8.14,-18.41,-172.67,-293.40671999999995
2023-03-23 22-53-42-741843,0,0,1535,1465,178.681,-12.662,-3.1,-1.3,-9.19,8.13,-18.4,-172.4,-293.13671999999997
2023-03-23 22-53-42-842714,0,0,1535,1465,178.681,-12.75,-3.08,-1.28,-9.2,8.14,-18.43,-172.13,-292.86672
2023-03-23 22-53-42-942177,0,0,1535,1465,178.681,-12.75,-3.1,-1.3,-9.17,8.14,-18.46,-171.9,-292.63671999999997
2023-03-23 22-53-43-042329,0,0,1535,1465,178.681,-12.662,-3.08,-1.32,-9.2,8.13,-18.48,-171.65,-292.38671999999997
2023-03-23 22-53-43-142166,0,0,1535,1465,178.681,-12.662,-3.11,-1.3,-9.18,8.13,-18.52,-171.41,-292.14671999999996
2023-03-23 22-53-43-244185,0,0,1535,1465,178.681,-12.662,-3.1,-1.32,-9.16,8.14,-18.55,-171.2,-291.93672
2023-03-23 22-53-43-342243,0,0,1535,1465,178.681,-12.662,-3.1,-1.33,-9.19,8.15,-18.57,-170.99,-291.72672
2023-03-23 22-53-43-442439,0,0,1535,1465,178.681,-12.662,-3.11,-1.3,-9.16,8.15,-18.57,-170.81,-291.54672
2023-03-23 22-53-43-542191,0,0,1535,1465,178.681,-12.662,-3.1,-1.3,-9.18,8.14,-18.57,-170.61,-291.34672
2023-03-23 22-53-43-642271,0,0,1535,1465,178.681,-12.662,-3.12,-1.3,-9.17,8.13,-18.62,-170.44,-291.17672
2023-03-23 22-53-43-742778,0,0,1535,1465,178.681,-12.662,-3.09,-1.3,-9.18,8.13,-18.64,-170.25,-290.98672
2023-03-23 22-53-43-841727,0,0,1535,1465,178.681,-12.662,-3.12,-1.31,-9.17,8.12,-18.64,-170.09,-290.82672
2023-03-23 22-53-43-942318,0,0,1535,1465,178.681,-12.662,-3.12,-1.32,-9.17,8.12,-18.63,-169.95,-290.68672
2023-03-23 22-53-44-041825,0,0,1535,1465,178.681,-12.662,-3.13,-1.28,-9.21,8.11,-18.62,-169.79,-290.52671999999995
2023-03-23 22-53-44-141780,0,0,1535,1465,178.681,-12.75,-3.13,-1.3,-9.17,8.09,-18.62,-169.65,-290.38671999999997
2023-03-23 22-53-44-241912,0,0,1535,1465,178.681,-12.662,-3.12,-1.29,-9.17,8.09,-18.6,-169.5,-290.23672
2023-03-23 22-53-44-342044,0,0,1535,1465,178.681,-12.662,-3.11,-1.29,-9.19,8.08,-18.62,-169.36,-290.09672
2023-03-23 22-53-44-442010,0,0,1535,1465,178.681,-12.75,-3.12,-1.3,-9.17,8.1,-18.64,-169.24,-289.97672
2023-03-23 22-53-44-547275,0,0,1535,1465,178.681,-12.662,-3.12,-1.26,-9.22,8.11,-18.64,-169.1,-289.83672
2023-03-23 22-53-44-643299,0,0,1535,1465,178.681,-12.662,-3.14,-1.31,-9.17,8.13,-18.69,-168.99,-289.72672
2023-03-23 22-53-44-744206,0,0,1535,1465,178.681,-12.75,-3.11,-1.31,-9.17,8.15,-18.7,-168.86,-289.59672
2023-03-23 22-53-44-841898,0,0,1535,1465,178.681,-12.662,-3.13,-1.3,-9.18,8.16,-18.73,-168.75,-289.48672
2023-03-23 22-53-44-942009,0,0,1535,1465,178.681,-12.662,-3.14,-1.33,-9.16,8.15,-18.74,-168.64,-289.37672
2023-03-23 22-53-45-042895,0,0,1535,1465,178.681,-12.662,-3.14,-1.27,-9.21,8.14,-18.77,-168.51,-289.24672
2023-03-23 22-53-45-142119,0,0,1535,1465,178.681,-12.662,-3.17,-1.31,-9.16,8.16,-18.82,-168.41,-289.14671999999996
2023-03-23 22-53-45-242093,0,0,1535,1465,178.681,-12.75,-3.15,-1.31,-9.17,8.15,-18.85,-168.31,-289.04672
2023-03-23 22-53-45-341917,0,0,1535,1465,178.681,-12.75,-3.15,-1.3,-9.17,8.16,-18.88,-168.2,-288.93672
2023-03-23 22-53-45-441959,0,0,1535,1465,178.681,-12.75,-3.17,-1.32,-9.15,8.15,-18.91,-168.11,-288.84672
2023-03-23 22-53-45-542079,0,0,1535,1465,178.681,-12.75,-3.16,-1.28,-9.2,8.15,-18.9,-168.02,-288.75672
2023-03-23 22-53-45-642397,0,0,1535,1465,178.681,-12.75,-3.17,-1.32,-9.18,8.16,-18.89,-167.95,-288.68672
2023-03-23 22-53-45-742468,0,0,1535,1465,178.681,-12.75,-3.15,-1.31,-9.17,8.17,-18.85,-167.88,-288.61672
2023-03-23 22-53-45-842027,0,0,1535,1465,178.681,-12.75,-3.15,-1.32,-9.18,8.18,-18.85,-167.8,-288.53672
2023-03-23 22-53-45-942042,0,0,1535,1465,178.681,-12.75,-3.16,-1.32,-9.14,8.2,-18.84,-167.74,-288.47672
2023-03-23 22-53-46-045375,0,0,1535,1465,178.681,-12.662,-3.12,-1.34,-9.16,8.21,-18.81,-167.68,-288.41672
2023-03-23 22-53-46-142528,0,0,1535,1465,178.681,-12.75,-3.14,-1.33,-9.16,8.23,-18.81,-167.65,-288.38671999999997
2023-03-23 22-53-46-242564,0,0,1535,1465,178.681,-12.662,-3.13,-1.33,-9.15,8.26,-18.72,-167.61,-288.34672
2023-03-23 22-53-46-343314,0,0,1535,1465,178.681,-12.662,-3.12,-1.35,-9.17,8.29,-18.62,-167.59,-288.32672
2023-03-23 22-53-46-442746,0,0,1535,1465,178.681,-12.662,-3.09,-1.34,-9.16,8.31,-18.54,-167.57,-288.30672
2023-03-23 22-53-46-542425,0,0,1535,1465,178.681,-12.75,-3.05,-1.34,-9.18,8.32,-18.48,-167.52,-288.25672
2023-03-23 22-53-46-641959,0,0,1535,1465,178.681,-12.662,-3.1,-1.37,-9.19,8.35,-18.41,-167.51,-288.24672
2023-03-23 22-53-46-741983,0,0,1535,1465,178.681,-12.75,-3.08,-1.35,-9.18,8.37,-18.37,-167.46,-288.19672
2023-03-23 22-53-46-842038,0,0,1535,1465,178.681,-12.662,-3.07,-1.35,-9.18,8.4,-18.36,-167.42,-288.15671999999995
2023-03-23 22-53-46-942009,0,0,1535,1465,178.681,-12.75,-3.07,-1.35,-9.18,8.43,-18.35,-167.39,-288.12672
2023-03-23 22-53-47-042590,0,0,1535,1465,178.681,-12.662,-3.03,-1.32,-9.16,8.45,-18.32,-167.32,-288.05672
2023-03-23 22-53-47-142484,0,0,1535,1465,178.681,-12.662,-3.08,-1.37,-9.19,8.46,-18.36,-167.27,-288.00672
2023-03-23 22-53-47-244000,0,0,1535,1465,178.681,-12.75,-3.09,-1.36,-9.18,8.5,-18.39,-167.22,-287.95672
2023-03-23 22-53-47-342046,0,0,1535,1465,178.681,-12.75,-3.08,-1.37,-9.18,8.52,-18.4,-167.18,-287.91672
2023-03-23 22-53-47-442128,0,0,1535,1465,178.681,-12.662,-3.07,-1.38,-9.16,8.56,-18.4,-167.14,-287.87672
2023-03-23 22-53-47-542435,0,0,1535,1465,178.681,-12.75,-3.02,-1.38,-9.18,8.6,-18.41,-167.1,-287.83672
2023-03-23 22-53-47-642281,0,0,1535,1465,178.681,-12.662,-3.09,-1.39,-9.18,8.62,-18.45,-167.06,-287.79672
2023-03-23 22-53-47-742104,0,0,1535,1465,178.681,-12.75,-3.07,-1.41,-9.18,8.63,-18.42,-167.02,-287.75672
2023-03-23 22-53-47-842120,0,0,1535,1465,178.681,-12.75,-3.08,-1.38,-9.16,8.65,-18.43,-166.98,-287.71672
2023-03-23 22-53-47-942305,0,0,1535,1465,178.681,-12.662,-3.08,-1.4,-9.14,8.68,-18.42,-166.96,-287.69672
2023-03-23 22-53-48-046886,0,0,1535,1465,178.681,-12.75,-3.07,-1.38,-9.15,8.7,-18.38,-166.92,-287.65671999999995
2023-03-23 22-53-48-143599,0,0,1535,1465,178.681,-12.75,-3.06,-1.4,-9.17,8.73,-18.34,-166.92,-287.65671999999995
2023-03-23 22-53-48-242554,0,0,1535,1465,178.681,-12.75,-3.04,-1.43,-9.17,8.74,-18.28,-166.91,-287.64671999999996
2023-03-23 22-53-48-344029,0,0,1535,1465,178.681,-12.75,-3.05,-1.41,-9.17,8.76,-18.19,-166.92,-287.65671999999995
2023-03-23 22-53-48-443693,0,0,1535,1465,178.681,-12.75,-3.02,-1.43,-9.2,8.78,-18.1,-166.9,-287.63671999999997
2023-03-23 22-53-48-542192,0,0,1535,1465,178.681,-12.75,-3.02,-1.42,-9.2,8.81,-18.04,-166.88,-287.61672
2023-03-23 22-53-48-642195,0,0,1535,1465,178.681,-12.75,-3.01,-1.41,-9.19,8.83,-18.0,-166.87,-287.60672
2023-03-23 22-53-48-742374,0,0,1535,1465,178.681,-12.75,-3.0,-1.4,-9.16,8.83,-17.96,-166.85,-287.58672
2023-03-23 22-53-48-842611,0,0,1535,1465,178.681,-12.75,-3.01,-1.44,-9.21,8.84,-17.94,-166.84,-287.57672
2023-03-23 22-53-48-942234,0,0,1535,1465,178.681,-12.75,-2.99,-1.44,-9.2,8.86,-17.89,-166.82,-287.55672
2023-03-23 22-53-49-042837,0,0,1535,1465,178.681,-12.662,-3.0,-1.42,-9.19,8.88,-17.89,-166.78,-287.51671999999996
2023-03-23 22-53-49-142841,0,0,1535,1465,178.681,-12.662,-3.01,-1.44,-9.17,8.91,-17.92,-166.76,-287.49672
2023-03-23 22-53-49-242587,0,0,1535,1465,178.681,-12.662,-3.0,-1.42,-9.2,8.93,-17.97,-166.7,-287.43672
2023-03-23 22-53-49-342256,0,0,1535,1465,178.681,-12.662,-3.03,-1.44,-9.18,8.95,-18.04,-166.67,-287.40671999999995
2023-03-23 22-53-49-442281,0,0,1535,1465,178.681,-12.662,-3.01,-1.45,-9.18,8.95,-18.03,-166.63,-287.36672
2023-03-23 22-53-49-542616,0,0,1535,1465,178.681,-12.662,-3.04,-1.47,-9.2,8.96,-18.07,-166.59,-287.32672
2023-03-23 22-53-49-643360,0,0,1535,1465,178.681,-12.75,-3.03,-1.46,-9.16,8.98,-18.13,-166.58,-287.31672000000003
2023-03-23 22-53-49-742426,0,0,1535,1465,178.681,-12.662,-3.01,-1.49,-9.16,8.99,-18.14,-166.54,-287.27671999999995
2023-03-23 22-53-49-842338,0,0,1535,1465,178.681,-12.662,-3.05,-1.44,-9.19,9.0,-18.14,-166.52,-287.25672
2023-03-23 22-53-49-942911,0,0,1535,1465,178.681,-12.75,-3.04,-1.46,-9.19,9.0,-18.12,-166.5,-287.23672
2023-03-23 22-53-50-043271,0,0,1535,1465,178.681,-12.75,-3.03,-1.45,-9.19,9.01,-18.1,-166.48,-287.21672
2023-03-23 22-53-50-142338,0,0,1535,1465,178.681,-12.662,-3.04,-1.45,-9.18,9.02,-18.1,-166.46,-287.19672
2023-03-23 22-53-50-242289,0,0,1535,1465,178.681,-12.662,-3.0,-1.42,-9.18,9.02,-18.1,-166.44,-287.17672
2023-03-23 22-53-50-342356,0,0,1535,1465,178.681,-12.75,-3.02,-1.46,-9.18,9.04,-18.11,-166.44,-287.17672
2023-03-23 22-53-50-442384,0,0,1535,1465,178.681,-12.75,-3.01,-1.46,-9.18,9.05,-18.05,-166.44,-287.17672
2023-03-23 22-53-50-542345,0,0,1535,1465,178.681,-12.662,-3.01,-1.47,-9.19,9.07,-17.98,-166.44,-287.17672
2023-03-23 22-53-50-642369,0,0,1535,1465,178.681,-12.662,-3.01,-1.46,-9.2,9.09,-17.92,-166.45,-287.18672
2023-03-23 22-53-50-743515,0,0,1535,1465,178.681,-12.75,-3.01,-1.46,-9.19,9.09,-17.89,-166.44,-287.17672
2023-03-23 22-53-50-842498,0,0,1535,1465,178.681,-12.75,-3.0,-1.47,-9.18,9.09,-17.87,-166.44,-287.17672
2023-03-23 22-53-50-942518,0,0,1535,1465,178.681,-12.75,-2.98,-1.47,-9.19,9.1,-17.82,-166.42,-287.15671999999995
2023-03-23 22-53-51-042303,0,0,1535,1465,178.681,-12.662,-2.98,-1.49,-9.2,9.12,-17.82,-166.42,-287.15671999999995
2023-03-23 22-53-51-142738,0,0,1535,1465,178.681,-12.662,-2.98,-1.47,-9.17,9.14,-17.79,-166.42,-287.15671999999995
2023-03-23 22-53-51-242424,0,0,1535,1465,178.681,-12.662,-2.97,-1.44,-9.2,9.16,-17.76,-166.41,-287.14671999999996
2023-03-23 22-53-51-343506,0,0,1535,1465,178.681,-12.662,-2.98,-1.47,-9.2,9.17,-17.75,-166.42,-287.15671999999995
2023-03-23 22-53-51-442868,0,0,1535,1465,178.681,-12.75,-2.96,-1.49,-9.2,9.18,-17.75,-166.4,-287.13671999999997
2023-03-23 22-53-51-553568,0,0,1535,1465,178.681,-12.75,-2.98,-1.45,-9.18,9.19,-17.73,-166.39,-287.12672
2023-03-23 22-53-51-646616,0,0,1535,1465,178.681,-12.662,-2.96,-1.5,-9.2,9.2,-17.72,-166.39,-287.12672
2023-03-23 22-53-51-742521,0,0,1535,1465,178.681,-12.662,-2.98,-1.54,-9.19,9.22,-17.71,-166.38,-287.11672
2023-03-23 22-53-51-842399,0,0,1535,1465,178.681,-12.662,-2.98,-1.49,-9.2,9.23,-17.72,-166.38,-287.11672
2023-03-23 22-53-51-942550,0,0,1535,1465,178.681,-12.75,-2.95,-1.5,-9.2,9.23,-17.69,-166.36,-287.09672
2023-03-23 22-53-52-042555,0,0,1535,1465,178.681,-12.662,-2.98,-1.5,-9.19,9.25,-17.71,-166.36,-287.09672
2023-03-23 22-53-52-142502,0,0,1535,1465,178.681,-12.662,-2.96,-1.49,-9.18,9.28,-17.67,-166.36,-287.09672
2023-03-23 22-53-52-242527,0,0,1535,1465,178.681,-12.75,-2.91,-1.48,-9.18,9.29,-17.65,-166.34,-287.07672
2023-03-23 22-53-52-343045,0,0,1535,1465,178.681,-12.75,-2.97,-1.51,-9.2,9.31,-17.61,-166.37,-287.10672
2023-03-23 22-53-52-443097,0,0,1535,1465,178.681,-12.75,-2.93,-1.49,-9.24,9.32,-17.53,-166.35,-287.08672
2023-03-23 22-53-52-542525,0,0,1535,1465,178.681,-12.75,-2.94,-1.51,-9.19,9.34,-17.43,-166.39,-287.12672
2023-03-23 22-53-52-642561,0,0,1535,1465,178.681,-12.75,-2.9,-1.53,-9.21,9.36,-17.3,-166.41,-287.14671999999996
2023-03-23 22-53-52-742735,0,0,1535,1465,178.681,-12.75,-2.89,-1.53,-9.22,9.37,-17.21,-166.44,-287.17672
2023-03-23 22-53-52-843201,0,0,1535,1465,178.681,-12.662,-2.88,-1.54,-9.21,9.39,-17.14,-166.47,-287.20672
2023-03-23 22-53-52-942534,0,0,1535,1465,178.681,-12.662,-2.87,-1.51,-9.21,9.41,-17.06,-166.47,-287.20672
2023-03-23 22-53-53-042582,0,0,1535,1465,178.681,-12.662,-2.87,-1.54,-9.2,9.43,-17.03,-166.48,-287.21672
2023-03-23 22-53-53-142825,0,0,1535,1465,178.681,-12.75,-2.85,-1.55,-9.22,9.44,-16.99,-166.47,-287.20672
2023-03-23 22-53-53-243249,0,0,1535,1465,178.681,-12.75,-2.84,-1.53,-9.22,9.45,-16.95,-166.48,-287.21672
2023-03-23 22-53-53-343134,0,0,1535,1465,178.681,-12.662,-2.84,-1.53,-9.22,9.46,-16.94,-166.48,-287.21672
2023-03-23 22-53-53-443172,0,0,1535,1465,178.681,-12.662,-2.84,-1.59,-9.24,9.47,-16.93,-166.45,-287.18672
2023-03-23 22-53-53-543032,0,0,1535,1465,178.681,-12.75,-2.85,-1.54,-9.23,9.46,-16.95,-166.44,-287.17672
2023-03-23 22-53-53-642967,0,0,1535,1465,178.681,-12.662,-2.84,-1.56,-9.22,9.47,-16.96,-166.41,-287.14671999999996
2023-03-23 22-53-53-742635,0,0,1535,1465,178.681,-12.662,-2.85,-1.54,-9.21,9.49,-16.98,-166.4,-287.13671999999997
2023-03-23 22-53-53-842729,0,0,1535,1465,178.681,-12.75,-2.85,-1.56,-9.22,9.52,-16.96,-166.38,-287.11672
2023-03-23 22-53-53-942770,0,0,1535,1465,178.681,-12.75,-2.82,-1.56,-9.24,9.52,-16.98,-166.37,-287.10672
2023-03-23 22-53-54-043227,0,0,1535,1465,178.681,-12.662,-2.86,-1.55,-9.2,9.53,-17.0,-166.37,-287.10672
2023-03-23 22-53-54-142712,0,0,1535,1465,178.681,-12.75,-2.84,-1.54,-9.23,9.52,-17.0,-166.34,-287.07672
2023-03-23 22-53-54-242713,0,0,1535,1465,178.681,-12.75,-2.85,-1.55,-9.23,9.53,-17.0,-166.34,-287.07672
2023-03-23 22-53-54-343231,0,0,1535,1465,178.681,-12.662,-2.85,-1.54,-9.21,9.54,-16.97,-166.33,-287.06672000000003
2023-03-23 22-53-54-443256,0,0,1535,1465,178.681,-12.662,-2.83,-1.55,-9.22,9.55,-16.96,-166.31,-287.04672
2023-03-23 22-53-54-544675,0,0,1535,1465,178.681,-12.75,-2.85,-1.55,-9.22,9.57,-16.96,-166.32,-287.05672
2023-03-23 22-53-54-642966,0,0,1535,1465,178.681,-12.75,-2.79,-1.52,-9.22,9.56,-16.95,-166.32,-287.05672
2023-03-23 22-53-54-742888,0,0,1535,1465,178.681,-12.662,-2.85,-1.56,-9.22,9.57,-16.92,-166.34,-287.07672
2023-03-23 22-53-54-843185,0,0,1535,1465,178.681,-12.662,-2.84,-1.55,-9.23,9.56,-16.85,-166.34,-287.07672
2023-03-23 22-53-54-946376,0,0,1535,1465,178.681,-12.75,-2.82,-1.55,-9.23,9.58,-16.83,-166.34,-287.07672
2023-03-23 22-53-55-042934,0,0,1535,1465,178.681,-12.662,-2.81,-1.56,-9.23,9.59,-16.81,-166.35,-287.08672
2023-03-23 22-53-55-142956,0,0,1535,1465,178.681,-12.662,-2.82,-1.6,-9.21,9.58,-16.8,-166.33,-287.06672000000003
2023-03-23 22-53-55-243509,0,0,1535,1465,178.681,-12.75,-2.81,-1.55,-9.22,9.59,-16.83,-166.34,-287.07672
2023-03-23 22-53-55-344286,0,0,1535,1465,178.681,-12.662,-2.83,-1.57,-9.24,9.6,-16.78,-166.33,-287.06672000000003
2023-03-23 22-53-55-443042,0,0,1535,1465,178.681,-12.662,-2.82,-1.55,-9.22,9.61,-16.76,-166.31,-287.04672
2023-03-23 22-53-55-543024,0,0,1535,1465,178.681,-12.75,-2.83,-1.55,-9.22,9.61,-16.77,-166.31,-287.04672
2023-03-23 22-53-55-646468,0,0,1535,1465,178.681,-12.75,-2.81,-1.54,-9.21,9.6,-16.82,-166.27,-287.00672
2023-03-23 22-53-55-742827,0,0,1535,1465,178.681,-12.662,-2.85,-1.56,-9.22,9.61,-16.86,-166.26,-286.99672
2023-03-23 22-53-55-842858,0,0,1535,1465,178.681,-12.662,-2.83,-1.56,-9.22,9.62,-16.87,-166.23,-286.96672
2023-03-23 22-53-55-943661,0,0,1535,1465,178.681,-12.662,-2.84,-1.55,-9.21,9.63,-16.9,-166.23,-286.96672
2023-03-23 22-53-56-043416,0,0,1535,1465,178.681,-12.75,-2.83,-1.57,-9.23,9.64,-16.92,-166.21,-286.94672
2023-03-23 22-53-56-143416,0,0,1535,1465,178.681,-12.75,-2.82,-1.57,-9.23,9.64,-16.91,-166.19,-286.92672
2023-03-23 22-53-56-246903,0,0,1535,1465,178.681,-12.662,-2.86,-1.56,-9.22,9.64,-16.93,-166.19,-286.92672
2023-03-23 22-53-56-343827,0,0,1535,1465,178.681,-12.75,-2.85,-1.58,-9.22,9.63,-16.92,-166.17,-286.90671999999995
2023-03-23 22-53-56-443319,0,0,1535,1465,178.681,-12.75,-2.83,-1.54,-9.22,9.64,-16.95,-166.17,-286.90671999999995
2023-03-23 22-53-56-546081,0,0,1535,1465,178.681,-12.75,-2.86,-1.59,-9.23,9.66,-16.94,-166.16,-286.89671999999996
2023-03-23 22-53-56-643133,0,0,1535,1465,178.681,-12.75,-2.84,-1.55,-9.2,9.67,-16.92,-166.15,-286.88671999999997
2023-03-23 22-53-56-742947,0,0,1535,1465,178.681,-12.75,-2.84,-1.58,-9.21,9.68,-16.91,-166.16,-286.89671999999996
2023-03-23 22-53-56-845323,0,0,1535,1465,178.681,-12.75,-2.83,-1.59,-9.23,9.69,-16.89,-166.16,-286.89671999999996
2023-03-23 22-53-56-942894,0,0,1535,1465,178.681,-12.75,-2.85,-1.58,-9.24,9.71,-16.85,-166.18,-286.91672
2023-03-23 22-53-57-043372,0,0,1535,1465,178.681,-12.75,-2.81,-1.59,-9.24,9.71,-16.81,-166.18,-286.91672
2023-03-23 22-53-57-146785,0,0,1535,1465,178.681,-12.662,-2.83,-1.57,-9.23,9.72,-16.8,-166.18,-286.91672
2023-03-23 22-53-57-243239,0,0,1535,1465,178.681,-12.662,-2.83,-1.59,-9.23,9.73,-16.79,-166.18,-286.91672
2023-03-23 22-53-57-343167,0,0,1535,1465,178.681,-12.662,-2.83,-1.62,-9.24,9.74,-16.8,-166.14,-286.87672
2023-03-23 22-53-57-443137,0,0,1535,1465,178.681,-12.662,-2.83,-1.59,-9.22,9.76,-16.82,-166.16,-286.89671999999996
2023-03-23 22-53-57-543258,0,0,1535,1465,178.681,-12.75,-2.81,-1.61,-9.21,9.78,-16.83,-166.15,-286.88671999999997
2023-03-23 22-53-57-643090,0,0,1535,1465,178.681,-12.662,-2.84,-1.61,-9.21,9.8,-16.86,-166.16,-286.89671999999996
2023-03-23 22-53-57-743008,0,0,1535,1465,178.681,-12.662,-2.86,-1.59,-9.2,9.82,-16.87,-166.16,-286.89671999999996
2023-03-23 22-53-57-843039,0,0,1535,1465,178.681,-12.75,-2.82,-1.59,-9.23,9.82,-16.9,-166.13,-286.86672
2023-03-23 22-53-57-944483,0,0,1535,1465,178.681,-12.75,-2.85,-1.6,-9.23,9.83,-16.92,-166.13,-286.86672
2023-03-23 22-53-58-043268,0,0,1535,1465,178.681,-12.662,-2.86,-1.61,-9.23,9.85,-16.93,-166.11,-286.84672
2023-03-23 22-53-58-143051,0,0,1535,1465,178.681,-12.662,-2.86,-1.61,-9.21,9.86,-16.95,-166.11,-286.84672
2023-03-23 22-53-58-243105,0,0,1535,1465,178.681,-12.662,-2.86,-1.6,-9.21,9.87,-16.95,-166.1,-286.83672
2023-03-23 22-53-58-343259,0,0,1535,1465,178.681,-12.75,-2.82,-1.62,-9.22,9.88,-16.96,-166.09,-286.82672
2023-03-23 22-53-58-443934,0,0,1535,1465,178.681,-12.75,-2.85,-1.61,-9.21,9.89,-16.96,-166.1,-286.83672
2023-03-23 22-53-58-543127,0,0,1535,1465,178.681,-12.662,-2.84,-1.57,-9.25,9.92,-16.94,-166.1,-286.83672
2023-03-23 22-53-58-643103,0,0,1535,1465,178.681,-12.75,-2.85,-1.62,-9.21,9.94,-16.96,-166.11,-286.84672
2023-03-23 22-53-58-743897,0,0,1535,1465,178.681,-12.75,-2.84,-1.62,-9.2,9.95,-16.95,-166.1,-286.83672
2023-03-23 22-53-58-843570,0,0,1535,1465,178.681,-12.662,-2.81,-1.62,-9.21,9.96,-16.94,-166.11,-286.84672
2023-03-23 22-53-58-944125,0,0,1535,1465,178.681,-12.75,-2.81,-1.61,-9.21,9.96,-16.87,-166.15,-286.88671999999997
2023-03-23 22-53-59-043500,0,0,1535,1465,178.681,-12.662,-2.81,-1.59,-9.22,9.97,-16.72,-166.18,-286.91672
2023-03-23 22-53-59-143373,0,0,1535,1465,178.681,-12.75,-2.79,-1.61,-9.2,9.98,-16.62,-166.22,-286.95672
2023-03-23 22-53-59-243424,0,0,1535,1465,178.681,-12.662,-2.78,-1.61,-9.23,9.98,-16.55,-166.23,-286.96672
2023-03-23 22-53-59-343122,0,0,1535,1465,178.681,-12.75,-2.76,-1.63,-9.24,10.0,-16.5,-166.26,-286.99672
2023-03-23 22-53-59-443200,0,0,1535,1465,178.681,-12.662,-2.76,-1.63,-9.24,10.01,-16.43,-166.26,-286.99672
2023-03-23 22-53-59-543277,0,0,1535,1465,178.681,-12.75,-2.75,-1.63,-9.23,10.02,-16.41,-166.26,-286.99672
2023-03-23 22-53-59-644263,0,0,1535,1465,178.681,-12.662,-2.77,-1.63,-9.22,10.04,-16.39,-166.27,-287.00672
2023-03-23 22-53-59-743215,0,0,1535,1465,178.681,-12.75,-2.75,-1.67,-9.25,10.05,-16.35,-166.25,-286.98672
2023-03-23 22-53-59-843768,0,0,1535,1465,178.681,-12.75,-2.76,-1.64,-9.23,10.07,-16.35,-166.26,-286.99672
2023-03-23 22-53-59-944562,0,0,1535,1465,178.681,-12.75,-2.74,-1.64,-9.24,10.08,-16.4,-166.23,-286.96672
2023-03-23 22-54-00-043722,0,0,1535,1465,178.681,-12.75,-2.74,-1.66,-9.24,10.08,-16.47,-166.22,-286.95672
2023-03-23 22-54-00-143708,0,0,1535,1465,178.681,-12.75,-2.77,-1.63,-9.23,10.08,-16.54,-166.21,-286.94672
2023-03-23 22-54-00-245064,0,0,1535,1465,178.681,-12.662,-2.77,-1.65,-9.24,10.07,-16.55,-166.18,-286.91672
2023-03-23 22-54-00-343836,0,0,1535,1465,178.681,-12.662,-2.79,-1.64,-9.22,10.06,-16.59,-166.17,-286.90671999999995
2023-03-23 22-54-00-445197,0,0,1535,1465,178.681,-12.75,-2.79,-1.63,-9.22,10.06,-16.59,-166.15,-286.88671999999997
2023-03-23 22-54-00-546452,0,0,1535,1465,178.681,-12.75,-2.8,-1.62,-9.22,10.07,-16.62,-166.15,-286.88671999999997
2023-03-23 22-54-00-643539,0,0,1535,1465,178.681,-12.75,-2.8,-1.64,-9.22,10.08,-16.63,-166.16,-286.89671999999996
2023-03-23 22-54-00-743530,0,0,1535,1465,178.681,-12.662,-2.79,-1.6,-9.22,10.07,-16.64,-166.13,-286.86672
2023-03-23 22-54-00-845930,0,0,1535,1465,178.681,-12.662,-2.79,-1.63,-9.21,10.07,-16.7,-166.12,-286.85672
2023-03-23 22-54-00-943305,0,0,1535,1465,178.681,-12.662,-2.8,-1.63,-9.22,10.07,-16.7,-166.11,-286.84672
2023-03-23 22-54-01-043328,0,0,1535,1465,178.681,-12.75,-2.77,-1.63,-9.22,10.07,-16.69,-166.1,-286.83672
2023-03-23 22-54-01-143533,0,0,1535,1465,178.681,-12.75,-2.81,-1.63,-9.23,10.08,-16.67,-166.11,-286.84672
2023-03-23 22-54-01-243387,0,0,1535,1465,178.681,-12.662,-2.79,-1.7,-9.24,10.09,-16.62,-166.12,-286.85672
2023-03-23 22-54-01-343962,0,0,1535,1465,178.681,-12.662,-2.78,-1.63,-9.23,10.1,-16.58,-166.13,-286.86672
2023-03-23 22-54-01-443853,0,0,1535,1465,178.681,-12.75,-2.76,-1.63,-9.23,10.11,-16.54,-166.12,-286.85672
2023-03-23 22-54-01-543878,0,0,1535,1465,178.681,-12.662,-2.77,-1.63,-9.24,10.13,-16.52,-166.14,-286.87672
2023-03-23 22-54-01-643908,0,0,1535,1465,178.681,-12.75,-2.78,-1.63,-9.24,10.12,-16.47,-166.15,-286.88671999999997
2023-03-23 22-54-01-746836,0,0,1535,1465,178.681,-12.662,-2.74,-1.64,-9.24,10.12,-16.45,-166.15,-286.88671999999997
2023-03-23 22-54-01-844611,0,0,1535,1465,178.681,-12.662,-2.76,-1.65,-9.23,10.12,-16.42,-166.16,-286.89671999999996
2023-03-23 22-54-01-946506,0,0,1535,1465,178.681,-12.75,-2.74,-1.69,-9.25,10.13,-16.38,-166.15,-286.88671999999997
2023-03-23 22-54-02-043735,0,0,1535,1465,178.681,-12.662,-2.76,-1.64,-9.23,10.14,-16.39,-166.17,-286.90671999999995
2023-03-23 22-54-02-143914,0,0,1535,1465,178.681,-12.75,-2.76,-1.65,-9.23,10.16,-16.4,-166.16,-286.89671999999996
2023-03-23 22-54-02-243486,0,0,1535,1465,178.681,-12.662,-2.77,-1.67,-9.24,10.17,-16.4,-166.17,-286.90671999999995
2023-03-23 22-54-02-343714,0,0,1535,1465,178.681,-12.662,-2.74,-1.64,-9.24,10.18,-16.38,-166.17,-286.90671999999995
2023-03-23 22-54-02-443548,0,0,1535,1465,178.681,-12.75,-2.75,-1.64,-9.23,10.18,-16.38,-166.16,-286.89671999999996
2023-03-23 22-54-02-544307,0,0,1535,1465,178.681,-12.75,-2.74,-1.66,-9.22,10.19,-16.4,-166.19,-286.92672
2023-03-23 22-54-02-644960,0,0,1535,1465,178.681,-12.662,-2.73,-1.65,-9.24,10.19,-16.39,-166.19,-286.92672
2023-03-23 22-54-02-746386,0,0,1535,1465,178.681,-12.75,-2.76,-1.68,-9.23,10.19,-16.37,-166.18,-286.91672
2023-03-23 22-54-02-843563,0,0,1535,1465,178.681,-12.75,-2.76,-1.65,-9.24,10.2,-16.36,-166.19,-286.92672
2023-03-23 22-54-02-946741,0,0,1535,1465,178.681,-12.662,-2.75,-1.71,-9.23,10.2,-16.37,-166.17,-286.90671999999995
2023-03-23 22-54-03-043743,0,0,1535,1465,178.681,-12.662,-2.76,-1.65,-9.22,10.2,-16.39,-166.16,-286.89671999999996
2023-03-23 22-54-03-143723,0,0,1535,1465,178.681,-12.662,-2.73,-1.67,-9.22,10.19,-16.41,-166.14,-286.87672
2023-03-23 22-54-03-243596,0,0,1535,1465,178.681,-12.75,-2.75,-1.64,-9.21,10.19,-16.45,-166.15,-286.88671999999997
2023-03-23 22-54-03-343490,0,0,1535,1465,178.681,-12.662,-2.77,-1.65,-9.22,10.17,-16.41,-166.14,-286.87672
2023-03-23 22-54-03-444146,0,0,1535,1465,178.681,-12.662,-2.73,-1.64,-9.25,10.13,-16.4,-166.12,-286.85672
2023-03-23 22-54-03-543734,0,0,1535,1465,178.681,-12.75,-2.77,-1.66,-9.24,10.11,-16.45,-166.12,-286.85672
2023-03-23 22-54-03-643539,0,0,1535,1465,178.681,-12.662,-2.73,-1.64,-9.21,10.1,-16.5,-166.09,-286.82672
2023-03-23 22-54-03-743680,0,0,1535,1465,178.681,-12.75,-2.91,-1.55,-9.12,9.96,-16.96,-166.08,-286.81672000000003
2023-03-23 22-54-03-843609,0,0,1535,1465,178.681,-12.662,-3.03,-1.34,-9.14,9.37,-18.33,-165.97,-286.70672
2023-03-23 22-54-03-943904,0,0,1535,1465,178.681,-12.75,-3.15,-1.12,-9.27,8.8,-18.99,-165.67,-286.40671999999995
2023-03-23 22-54-04-044210,0,0,1535,1465,178.681,-12.75,-3.43,-0.91,-9.03,8.52,-20.36,-165.39,-286.12672
2023-03-23 22-54-04-143588,0,0,1535,1465,178.681,-12.75,-3.48,-0.92,-9.02,8.67,-20.56,-165.09,-285.82672
2023-03-23 22-54-04-244261,0,0,1535,1465,178.681,-12.75,-3.43,-1.31,-9.09,9.21,-20.16,-165.22,-285.95672
2023-03-23 22-54-04-343804,0,0,1535,1465,178.681,-12.662,-3.35,-1.54,-8.99,10.26,-19.29,-165.87,-286.60672
2023-03-23 22-54-04-443796,0,0,1535,1465,178.681,-12.662,-3.01,-2.13,-9.11,11.48,-17.61,-167.08,-287.81672000000003
2023-03-23 22-54-04-543632,0,0,1535,1465,178.681,-12.75,-2.62,-2.4,-9.22,12.55,-16.07,-168.47,-289.20672
2023-03-23 22-54-04-643679,0,0,1535,1465,178.681,-12.662,-2.52,-2.51,-9.22,13.35,-15.6,-169.76,-290.49672
2023-03-23 22-54-04-746217,0,0,1535,1465,178.681,-12.75,-2.66,-2.53,-9.16,13.89,-16.09,-171.06,-291.79672
2023-03-23 22-54-04-843682,0,0,1535,1465,178.681,-12.75,-2.82,-2.54,-9.04,14.18,-17.18,-172.3,-293.03672
2023-03-23 22-54-04-943751,0,0,1535,1465,178.681,-12.662,-3.03,-2.51,-8.94,14.24,-18.28,-173.37,-294.10672
2023-03-23 22-54-05-044484,0,0,1535,1465,178.681,-12.75,-3.12,-2.38,-8.88,14.11,-18.9,-174.17,-294.90671999999995
2023-03-23 22-54-05-144237,0,0,1535,1465,178.681,-12.75,-3.13,-2.31,-8.91,13.89,-18.79,-174.74,-295.47672
2023-03-23 22-54-05-243702,0,0,1535,1465,178.681,-12.75,-3.0,-2.25,-8.96,13.62,-18.02,-175.19,-295.92672
2023-03-23 22-54-05-344752,0,0,1535,1465,178.681,-12.75,-2.79,-2.14,-9.06,13.31,-16.88,-175.52,-296.25672
2023-03-23 22-54-05-443922,0,0,1535,1465,178.681,-12.662,-2.61,-2.13,-9.14,12.99,-15.64,-175.86,-296.59672
2023-03-23 22-54-05-543974,0,0,1535,1465,178.681,-12.662,-2.42,-2.05,-9.22,12.69,-14.48,-176.21,-296.94672
2023-03-23 22-54-05-643725,0,0,1535,1465,178.681,-12.75,-2.26,-2.03,-9.3,12.4,-13.52,-176.61,-297.34672
2023-03-23 22-54-05-743707,0,0,1535,1465,178.681,-12.75,-2.17,-1.97,-9.3,12.12,-12.78,-177.1,-297.83672
2023-03-23 22-54-05-843819,0,0,1535,1465,178.681,-12.75,-2.04,-1.95,-9.35,11.87,-12.23,-177.61,-298.34672
2023-03-23 22-54-05-944336,0,0,1535,1465,178.681,-12.75,-1.99,-1.91,-9.38,11.66,-11.88,-178.17,-298.90671999999995
2023-03-23 22-54-06-044416,0,0,1535,1465,178.681,-12.75,-1.96,-1.89,-9.39,11.47,-11.6,-178.7,-299.43672
2023-03-23 22-54-06-143759,0,0,1535,1465,178.681,-12.662,-1.94,-1.85,-9.42,11.29,-11.26,-179.21,-299.94672
2023-03-23 22-54-06-243805,0,0,1535,1465,178.681,-12.75,-1.86,-1.83,-9.44,11.11,-10.87,-179.68,-300.41672
2023-03-23 22-54-06-343884,0,0,1535,1465,178.681,-12.75,-1.78,-1.76,-9.46,10.97,-10.44,179.89,59.153279999999995
2023-03-23 22-54-06-444415,0,0,1535,1465,178.681,-12.662,-1.73,-1.77,-9.47,10.84,-10.0,179.43,58.693280000000016
2023-03-23 22-54-06-544054,0,0,1535,1465,178.681,-12.75,-1.65,-1.76,-9.5,10.71,-9.64,179.0,58.26328000000001
2023-03-23 22-54-06-643820,0,0,1535,1465,178.681,-12.75,-1.62,-1.68,-9.49,10.55,-9.31,178.56,57.82328000000001
2023-03-23 22-54-06-744025,0,0,1535,1465,178.681,-12.75,-1.55,-1.7,-9.51,10.38,-8.98,178.15,57.413280000000015
2023-03-23 22-54-06-844699,0,0,1535,1465,178.681,-12.662,-1.47,-1.66,-9.53,10.2,-8.64,177.78,57.04328000000001
2023-03-23 22-54-06-945023,0,0,1535,1465,178.681,-12.662,-1.46,-1.65,-9.54,10.01,-8.33,177.4,56.663280000000015
2023-03-23 22-54-07-043962,0,0,1535,1465,178.681,-12.75,-1.36,-1.62,-9.53,9.84,-8.03,177.08,56.34328000000002
2023-03-23 22-54-07-143960,0,0,1535,1465,178.681,-12.662,-1.32,-1.61,-9.55,9.69,-7.74,176.73,55.99328
2023-03-23 22-54-07-244502,0,0,1535,1465,178.681,-12.75,-1.3,-1.59,-9.57,9.5,-7.48,176.43,55.693280000000016
2023-03-23 22-54-07-345694,0,0,1535,1465,178.681,-12.75,-1.26,-1.56,-9.56,9.3,-7.32,176.15,55.413280000000015
2023-03-23 22-54-07-446847,0,0,1535,1465,178.681,-12.662,-1.25,-1.54,-9.57,9.08,-7.23,175.88,55.143280000000004
2023-03-23 22-54-07-544443,0,0,1535,1465,178.681,-12.75,-1.21,-1.51,-9.57,8.88,-7.17,175.67,54.933279999999996
2023-03-23 22-54-07-645968,0,0,1535,1465,178.681,-12.75,-1.24,-1.46,-9.6,8.7,-7.1,175.42,54.683279999999996
2023-03-23 22-54-07-749303,0,0,1535,1465,178.681,-12.75,-1.21,-1.43,-9.59,8.49,-7.04,175.17,54.433279999999996
2023-03-23 22-54-07-844266,0,0,1535,1465,178.681,-12.75,-1.21,-1.39,-9.6,8.23,-7.08,174.89,54.153279999999995
2023-03-23 22-54-07-945841,0,0,1535,1465,178.681,-12.662,-1.25,-1.35,-9.58,7.96,-7.18,174.6,53.86328
2023-03-23 22-54-08-044324,0,0,1535,1465,178.681,-12.662,-1.26,-1.32,-9.61,7.72,-7.28,174.31,53.57328000000001
2023-03-23 22-54-08-144633,0,0,1535,1465,178.681,-12.662,-1.26,-1.27,-9.6,7.48,-7.36,174.02,53.28328000000002
2023-03-23 22-54-08-256717,0,0,1535,1465,178.681,-12.662,-1.25,-1.18,-9.62,7.26,-7.47,173.77,53.03328000000002
2023-03-23 22-54-08-344819,0,0,1535,1465,178.681,-12.662,-1.31,-1.17,-9.62,7.05,-7.62,173.5,52.76328000000001
2023-03-23 22-54-08-444843,0,0,1535,1465,178.681,-12.662,-1.31,-1.14,-9.6,6.84,-7.71,173.26,52.52328
2023-03-23 22-54-08-544784,0,0,1535,1465,178.681,-12.75,-1.33,-1.1,-9.61,6.64,-7.78,173.05,52.31328000000002
2023-03-23 22-54-08-650752,0,0,1535,1465,178.681,-12.662,-1.33,-1.08,-9.62,6.44,-7.89,172.84,52.10328000000001
2023-03-23 22-54-08-746433,0,0,1535,1465,178.681,-12.75,-1.4,-1.05,-9.59,6.25,-8.05,172.66,51.923280000000005
2023-03-23 22-54-08-844515,0,0,1535,1465,178.681,-12.662,-1.42,-1.0,-9.61,6.04,-8.26,172.44,51.70328000000001
2023-03-23 22-54-08-947913,0,0,1535,1465,178.681,-12.75,-1.46,-0.99,-9.62,5.87,-8.53,172.25,51.51328000000001
2023-03-23 22-54-09-044037,0,0,1535,1465,178.681,-12.662,-1.49,-0.98,-9.61,5.69,-8.85,172.07,51.33328
2023-03-23 22-54-09-147612,0,0,1535,1465,178.681,-12.75,-1.58,-0.94,-9.6,5.52,-9.14,171.9,51.163280000000015
2023-03-23 22-54-09-244911,0,0,1535,1465,178.681,-12.75,-1.58,-0.92,-9.61,5.36,-9.4,171.75,51.01328000000001
2023-03-23 22-54-09-346662,0,0,1535,1465,178.681,-12.662,-1.65,-0.88,-9.57,5.23,-9.63,171.59,50.85328000000001
2023-03-23 22-54-09-444120,0,0,1535,1465,178.681,-12.75,-1.67,-0.89,-9.6,5.12,-9.81,171.45,50.71328
2023-03-23 22-54-09-545100,0,0,1535,1465,178.681,-12.662,-1.7,-0.86,-9.6,5.03,-9.97,171.27,50.53328000000002
2023-03-23 22-54-09-644673,0,0,1535,1465,178.681,-12.662,-1.71,-0.82,-9.58,4.95,-10.12,171.15,50.413280000000015
2023-03-23 22-54-09-744749,0,0,1535,1465,178.681,-12.75,-1.75,-0.83,-9.58,4.88,-10.21,171.02,50.28328000000002
2023-03-23 22-54-09-844734,0,0,1535,1465,178.681,-12.662,-1.75,-0.8,-9.59,4.8,-10.23,170.88,50.143280000000004
2023-03-23 22-54-09-947245,0,0,1535,1465,178.681,-12.75,-1.74,-0.81,-9.56,4.75,-10.3,170.77,50.03328000000002
2023-03-23 22-54-10-045115,0,0,1535,1465,178.681,-12.662,-1.76,-0.78,-9.58,4.72,-10.35,170.61,49.87328000000002
2023-03-23 22-54-10-146251,0,0,1535,1465,178.681,-12.662,-1.78,-0.78,-9.59,4.68,-10.41,170.5,49.76328000000001
2023-03-23 22-54-10-244954,0,0,1535,1465,178.681,-12.75,-1.82,-0.78,-9.58,4.66,-10.55,170.37,49.63328000000001
2023-03-23 22-54-10-346388,0,0,1535,1465,178.681,-12.75,-1.84,-0.76,-9.57,4.63,-10.7,170.24,49.50328000000002
2023-03-23 22-54-10-444509,0,0,1535,1465,178.681,-12.75,-1.84,-0.76,-9.56,4.61,-10.87,170.11,49.37328000000002
2023-03-23 22-54-10-544231,0,0,1535,1465,178.681,-12.75,-1.89,-0.76,-9.56,4.6,-11.02,169.95,49.21328
2023-03-23 22-54-10-646495,0,0,1535,1465,178.681,-12.75,-1.89,-0.76,-9.58,4.58,-11.22,169.85,49.11328
2023-03-23 22-54-10-744423,0,0,1535,1465,178.681,-12.75,-1.97,-0.74,-9.54,4.54,-11.5,169.73,48.99328
2023-03-23 22-54-10-845263,0,0,1535,1465,178.681,-12.75,-2.0,-0.75,-9.51,4.48,-11.81,169.57,48.83328
2023-03-23 22-54-10-944478,0,0,1535,1465,178.681,-12.662,-2.04,-0.76,-9.53,4.43,-12.15,169.41,48.673280000000005
2023-03-23 22-54-11-044453,0,0,1535,1465,178.681,-12.662,-2.07,-0.74,-9.51,4.4,-12.36,169.24,48.50328000000002
2023-03-23 22-54-11-145191,0,0,1535,1465,178.681,-12.75,-2.06,-0.75,-9.49,4.39,-12.5,169.11,48.37328000000002
2023-03-23 22-54-11-245566,0,0,1535,1465,178.681,-12.662,-2.12,-0.74,-9.51,4.38,-12.5,168.97,48.23328000000001
2023-03-23 22-54-11-346028,0,0,1535,1465,178.681,-12.662,-2.09,-0.73,-9.52,4.37,-12.4,168.84,48.10328000000001
2023-03-23 22-54-11-444732,0,0,1535,1465,178.681,-12.75,-2.11,-0.71,-9.51,4.38,-12.3,168.66,47.923280000000005
2023-03-23 22-54-11-546895,0,0,1535,1465,178.681,-12.75,-2.08,-0.73,-9.54,4.38,-12.17,168.48,47.74328
2023-03-23 22-54-11-644501,0,0,1535,1465,178.681,-12.662,-2.06,-0.72,-9.53,4.4,-12.1,168.33,47.59328000000002
2023-03-23 22-54-11-744262,0,0,1535,1465,178.681,-12.75,-2.05,-0.73,-9.52,4.4,-12.07,168.18,47.443280000000016
2023-03-23 22-54-11-844544,0,0,1535,1465,178.681,-12.662,-2.06,-0.73,-9.53,4.4,-12.06,168.07,47.33328
2023-03-23 22-54-11-944446,0,0,1535,1465,178.681,-12.75,-2.06,-0.74,-9.52,4.43,-12.14,167.94,47.20328000000001
2023-03-23 22-54-12-044554,0,0,1535,1465,178.681,-12.662,-2.12,-0.74,-9.53,4.45,-12.29,167.79,47.05328
2023-03-23 22-54-12-149093,0,0,1535,1465,178.681,-12.75,-2.09,-0.73,-9.5,4.49,-12.49,167.64,46.903279999999995
2023-03-23 22-54-12-259987,0,0,1535,1465,178.681,-12.75,-2.16,-0.75,-9.49,4.52,-12.65,167.49,46.75328000000002
2023-03-23 22-54-12-345023,0,0,1535,1465,178.681,-12.75,-2.15,-0.74,-9.5,4.54,-12.82,167.43,46.693280000000016
2023-03-23 22-54-12-448295,0,0,1535,1465,178.681,-12.662,-2.14,-0.77,-9.51,4.54,-12.96,167.37,46.63328000000001
2023-03-23 22-54-12-545809,0,0,1535,1465,178.681,-12.75,-2.19,-0.76,-9.5,4.54,-13.0,167.29,46.55328
2023-03-23 22-54-12-645339,0,0,1535,1465,178.681,-12.662,-2.2,-0.76,-9.49,4.53,-13.0,167.25,46.51328000000001
2023-03-23 22-54-12-745277,0,0,1535,1465,178.681,-12.662,-2.19,-0.77,-9.48,4.54,-12.98,167.22,46.48328000000001
2023-03-23 22-54-12-844692,0,0,1535,1465,178.681,-12.662,-2.17,-0.79,-9.5,4.56,-12.96,167.25,46.51328000000001
2023-03-23 22-54-12-944872,0,0,1535,1465,178.681,-12.75,-2.19,-0.77,-9.49,4.56,-12.94,167.26,46.52328
2023-03-23 22-54-13-046273,0,0,1535,1465,178.681,-12.662,-2.17,-0.77,-9.47,4.56,-12.87,167.29,46.55328
2023-03-23 22-54-13-146212,0,0,1535,1465,178.681,-12.662,-2.17,-0.76,-9.47,4.55,-12.72,167.32,46.58328
2023-03-23 22-54-13-244616,0,0,1535,1465,178.681,-12.75,-2.1,-0.77,-9.51,4.54,-12.5,167.36,46.62328000000002
2023-03-23 22-54-13-349115,0,0,1535,1465,178.681,-12.662,-2.11,-0.71,-9.54,4.55,-12.34,167.43,46.693280000000016
2023-03-23 22-54-13-445191,0,0,1535,1465,178.681,-12.75,-2.11,-0.76,-9.54,4.55,-12.29,167.46,46.72328000000002
2023-03-23 22-54-13-544551,0,0,1535,1465,178.681,-12.662,-2.09,-0.74,-9.51,4.52,-12.39,167.51,46.77328
2023-03-23 22-54-13-644378,0,0,1535,1465,178.681,-12.662,-2.13,-0.72,-9.48,4.5,-12.56,167.55,46.81328000000002
2023-03-23 22-54-13-745053,0,0,1535,1465,178.681,-12.75,-2.14,-0.74,-9.49,4.49,-12.68,167.62,46.88328000000001
2023-03-23 22-54-13-844452,0,0,1535,1465,178.681,-12.75,-2.16,-0.74,-9.51,4.51,-12.79,167.69,46.95328000000001
2023-03-23 22-54-13-944610,0,0,1535,1465,178.681,-12.75,-2.18,-0.76,-9.52,4.53,-12.89,167.73,46.99328
2023-03-23 22-54-14-044609,0,0,1535,1465,178.681,-12.662,-2.21,-0.76,-9.53,4.55,-13.01,167.79,47.05328
2023-03-23 22-54-14-144516,0,0,1535,1465,178.681,-12.662,-2.22,-0.78,-9.48,4.57,-13.12,167.82,47.08328
2023-03-23 22-54-14-244408,0,0,1535,1465,178.681,-12.662,-2.25,-0.77,-9.48,4.56,-13.21,167.86,47.12328000000002
2023-03-23 22-54-14-344517,0,0,1535,1465,178.681,-12.75,-2.26,-0.77,-9.48,4.53,-13.32,167.9,47.163280000000015
2023-03-23 22-54-14-444490,0,0,1535,1465,178.681,-12.75,-2.26,-0.77,-9.49,4.51,-13.4,167.91,47.173280000000005
2023-03-23 22-54-14-546479,0,0,1535,1465,178.681,-12.662,-2.28,-0.75,-9.45,4.5,-13.56,167.94,47.20328000000001
2023-03-23 22-54-14-644704,0,0,1535,1465,178.681,-12.662,-2.29,-0.75,-9.45,4.51,-13.67,167.94,47.20328000000001
2023-03-23 22-54-14-744715,0,0,1535,1465,178.681,-12.662,-2.32,-0.75,-9.45,4.52,-13.75,167.97,47.23328000000001
2023-03-23 22-54-14-845166,0,0,1535,1465,178.681,-12.662,-2.35,-0.74,-9.45,4.53,-13.81,168.01,47.27328
2023-03-23 22-54-14-945009,0,0,1535,1465,178.681,-12.75,-2.33,-0.76,-9.45,4.54,-13.88,168.04,47.30328
2023-03-23 22-54-15-045093,0,0,1535,1465,178.681,-12.75,-2.35,-0.68,-9.43,4.56,-14.01,168.09,47.35328000000001
2023-03-23 22-54-15-144756,0,0,1535,1465,178.681,-12.75,-2.38,-0.75,-9.46,4.58,-14.11,168.1,47.36328
2023-03-23 22-54-15-244715,0,0,1535,1465,178.681,-12.75,-2.38,-0.76,-9.44,4.59,-14.21,168.13,47.393280000000004
2023-03-23 22-54-15-344587,0,0,1535,1465,178.681,-12.75,-2.43,-0.76,-9.44,4.6,-14.3,168.16,47.423280000000005
2023-03-23 22-54-15-444889,0,0,1535,1465,178.681,-12.75,-2.43,-0.75,-9.42,4.59,-14.33,168.18,47.443280000000016
2023-03-23 22-54-15-544723,0,0,1535,1465,178.681,-12.75,-2.45,-0.78,-9.42,4.59,-14.38,168.2,47.46328
2023-03-23 22-54-15-644717,0,0,1535,1465,178.681,-12.75,-2.45,-0.78,-9.45,4.58,-14.46,168.22,47.48328000000001
2023-03-23 22-54-15-744631,0,0,1535,1465,178.681,-12.75,-2.47,-0.77,-9.41,4.55,-14.66,168.26,47.52328
2023-03-23 22-54-15-845417,0,0,1535,1465,178.681,-12.75,-2.5,-0.76,-9.42,4.52,-14.9,168.28,47.54328000000001
2023-03-23 22-54-15-945075,0,0,1535,1465,178.681,-12.75,-2.55,-0.75,-9.41,4.49,-15.07,168.3,47.56328000000002
2023-03-23 22-54-16-045198,0,0,1535,1465,178.681,-12.662,-2.5,-0.75,-9.41,4.47,-15.2,168.33,47.59328000000002
2023-03-23 22-54-16-144944,0,0,1535,1465,178.681,-12.662,-2.57,-0.74,-9.4,4.48,-15.17,168.35,47.61328
2023-03-23 22-54-16-246489,0,0,1535,1465,178.681,-12.75,-2.56,-0.76,-9.37,4.5,-15.11,168.38,47.643280000000004
2023-03-23 22-54-16-344953,0,0,1535,1465,178.681,-12.75,-2.53,-0.75,-9.4,4.52,-15.07,168.38,47.643280000000004
2023-03-23 22-54-16-445810,0,0,1535,1465,178.681,-12.75,-2.51,-0.74,-9.42,4.52,-15.03,168.41,47.673280000000005
2023-03-23 22-54-16-544814,0,0,1535,1465,178.681,-12.662,-2.51,-0.77,-9.4,4.53,-14.99,168.42,47.683279999999996
2023-03-23 22-54-16-644853,0,0,1535,1465,178.681,-12.662,-2.51,-0.77,-9.42,4.56,-14.89,168.46,47.72328000000002
2023-03-23 22-54-16-744855,0,0,1535,1465,178.681,-12.75,-2.52,-0.74,-9.41,4.63,-14.82,168.54,47.80328
2023-03-23 22-54-16-846229,0,0,1535,1465,178.681,-12.75,-2.51,-0.79,-9.43,4.71,-14.77,168.58,47.84328000000002
2023-03-23 22-54-16-945065,0,0,1535,1465,178.681,-12.662,-2.5,-0.81,-9.41,4.8,-14.82,168.67,47.933279999999996
2023-03-23 22-54-17-045316,0,0,1535,1465,178.681,-12.75,-2.54,-0.81,-9.4,4.87,-14.96,168.76,48.02328
2023-03-23 22-54-17-145018,0,0,1535,1465,178.681,-12.75,-2.54,-0.83,-9.41,4.95,-15.1,168.88,48.143280000000004
2023-03-23 22-54-17-246056,0,0,1535,1465,178.681,-12.75,-2.56,-0.85,-9.38,5.05,-15.26,169.02,48.28328000000002
2023-03-23 22-54-17-344790,0,0,1535,1465,178.681,-12.662,-2.6,-0.87,-9.4,5.17,-15.36,169.14,48.403279999999995
2023-03-23 22-54-17-445402,0,0,1535,1465,178.681,-12.662,-2.59,-0.87,-9.4,5.27,-15.48,169.27,48.53328000000002
2023-03-23 22-54-17-544948,0,0,1535,1465,178.681,-12.662,-2.59,-0.9,-9.39,5.34,-15.61,169.41,48.673280000000005
2023-03-23 22-54-17-644808,0,0,1535,1465,178.681,-12.75,-2.63,-0.89,-9.37,5.4,-15.7,169.55,48.81328000000002
2023-03-23 22-54-17-746743,0,0,1535,1465,178.681,-12.75,-2.61,-0.9,-9.35,5.49,-15.78,169.68,48.943280000000016
2023-03-23 22-54-17-846262,0,0,1535,1465,178.681,-12.75,-2.64,-0.92,-9.35,5.6,-15.75,169.76,49.02328
2023-03-23 22-54-17-945012,0,0,1535,1465,178.681,-12.75,-2.6,-0.93,-9.36,5.73,-15.68,169.89,49.153279999999995
2023-03-23 22-54-18-044952,0,0,1535,1465,178.681,-12.75,-2.62,-0.95,-9.36,5.86,-15.56,169.97,49.23328000000001
2023-03-23 22-54-18-144837,0,0,1535,1465,178.681,-12.75,-2.57,-0.98,-9.37,5.98,-15.41,170.09,49.35328000000001
2023-03-23 22-54-18-245042,0,0,1535,1465,178.681,-12.662,-2.58,-1.0,-9.38,6.09,-15.24,170.22,49.48328000000001
2023-03-23 22-54-18-345026,0,0,1535,1465,178.681,-12.662,-2.55,-1.03,-9.39,6.22,-15.01,170.35,49.61328
2023-03-23 22-54-18-448535,0,0,1535,1465,178.681,-12.75,-2.46,-1.02,-9.41,6.34,-14.85,170.49,49.75328000000002
2023-03-23 22-54-18-544903,0,0,1535,1465,178.681,-12.662,-2.5,-1.07,-9.38,6.46,-14.75,170.59,49.85328000000001
2023-03-23 22-54-18-645649,0,0,1535,1465,178.681,-12.662,-2.46,-1.08,-9.4,6.57,-14.74,170.72,49.98328000000001
2023-03-23 22-54-18-745292,0,0,1535,1465,178.681,-12.75,-2.5,-1.09,-9.38,6.65,-14.83,170.83,50.09328000000002
2023-03-23 22-54-18-847512,0,0,1535,1465,178.681,-12.75,-2.54,-1.1,-9.38,6.72,-14.99,170.93,50.193280000000016
2023-03-23 22-54-18-946190,0,0,1535,1465,178.681,-12.662,-2.52,-1.08,-9.36,6.78,-15.26,171.04,50.30328
2023-03-23 22-54-19-045030,0,0,1535,1465,178.681,-12.75,-2.59,-1.12,-9.36,6.85,-15.45,171.12,50.38328000000001
2023-03-23 22-54-19-145119,0,0,1535,1465,178.681,-12.662,-2.6,-1.17,-9.35,6.93,-15.6,171.23,50.49328
2023-03-23 22-54-19-245735,0,0,1535,1465,178.681,-12.75,-2.65,-1.14,-9.34,7.01,-15.69,171.31,50.57328000000001
2023-03-23 22-54-19-345019,0,0,1535,1465,178.681,-12.662,-2.62,-1.16,-9.34,7.07,-15.69,171.39,50.653279999999995
2023-03-23 22-54-19-445062,0,0,1535,1465,178.681,-12.75,-2.61,-1.18,-9.36,7.11,-15.67,171.49,50.75328000000002
2023-03-23 22-54-19-546697,0,0,1535,1465,178.681,-12.662,-2.61,-1.17,-9.36,7.13,-15.55,171.59,50.85328000000001
2023-03-23 22-54-19-646660,0,0,1535,1465,178.681,-12.75,-2.61,-1.16,-9.35,7.17,-15.47,171.71,50.97328000000002
2023-03-23 22-54-19-745659,0,0,1535,1465,178.681,-12.75,-2.56,-1.19,-9.36,7.21,-15.37,171.77,51.03328000000002
2023-03-23 22-54-19-845386,0,0,1535,1465,178.681,-12.75,-2.58,-1.19,-9.33,7.28,-15.3,171.84,51.10328000000001
2023-03-23 22-54-19-947625,0,0,1535,1465,178.681,-12.662,-2.57,-1.2,-9.36,7.36,-15.25,171.91,51.173280000000005
2023-03-23 22-54-20-045446,0,0,1535,1465,178.681,-12.75,-2.56,-1.22,-9.35,7.46,-15.18,172.0,51.26328000000001
2023-03-23 22-54-20-145397,0,0,1535,1465,178.681,-12.75,-2.52,-1.25,-9.35,7.55,-15.12,172.12,51.38328000000001
2023-03-23 22-54-20-246047,0,0,1535,1465,178.681,-12.75,-2.54,-1.24,-9.36,7.65,-15.04,172.2,51.46328
2023-03-23 22-54-20-345223,0,0,1535,1465,178.681,-12.75,-2.52,-1.26,-9.36,7.74,-15.03,172.32,51.58328
2023-03-23 22-54-20-445877,0,0,1535,1465,178.681,-12.75,-2.57,-1.26,-9.34,7.84,-15.06,172.41,51.673280000000005
2023-03-23 22-54-20-545187,0,0,1535,1465,178.681,-12.662,-2.54,-1.28,-9.34,7.91,-15.09,172.49,51.75328000000002
2023-03-23 22-54-20-645131,0,0,1535,1465,178.681,-12.75,-2.54,-1.32,-9.34,7.98,-15.15,172.56,51.82328000000001
2023-03-23 22-54-20-746697,0,0,1535,1465,178.681,-12.75,-2.57,-1.32,-9.35,8.03,-15.17,172.61,51.87328000000002
2023-03-23 22-54-20-845635,0,0,1535,1465,178.681,-12.75,-2.57,-1.28,-9.38,8.08,-15.23,172.67,51.933279999999996
2023-03-23 22-54-20-945314,0,0,1535,1465,178.681,-12.662,-2.56,-1.34,-9.34,8.11,-15.28,172.72,51.98328000000001
2023-03-23 22-54-21-045185,0,0,1535,1465,178.681,-12.662,-2.58,-1.34,-9.33,8.14,-15.32,172.77,52.03328000000002
2023-03-23 22-54-21-145519,0,0,1535,1465,178.681,-12.75,-2.58,-1.36,-9.33,8.17,-15.38,172.82,52.08328
2023-03-23 22-54-21-246436,0,0,1535,1465,178.681,-12.662,-2.59,-1.35,-9.34,8.19,-15.35,172.85,52.11328
2023-03-23 22-54-21-346223,0,0,1535,1465,178.681,-12.75,-2.57,-1.31,-9.3,8.19,-15.33,172.93,52.193280000000016
2023-03-23 22-54-21-445080,0,0,1535,1465,178.681,-12.662,-2.57,-1.34,-9.34,8.2,-15.28,172.99,52.25328000000002
2023-03-23 22-54-21-545364,0,0,1535,1465,178.681,-12.662,-2.54,-1.3,-9.33,8.21,-15.24,173.05,52.31328000000002
2023-03-23 22-54-21-648537,0,0,1535,1465,178.681,-12.75,-2.55,-1.37,-9.34,8.23,-15.2,173.1,52.36328
2023-03-23 22-54-21-746723,0,0,1535,1465,178.681,-12.75,-2.54,-1.35,-9.33,8.27,-15.14,173.13,52.393280000000004
2023-03-23 22-54-21-845556,0,0,1535,1465,178.681,-12.662,-2.54,-1.33,-9.34,8.33,-15.12,173.15,52.413280000000015
2023-03-23 22-54-21-945328,0,0,1535,1465,178.681,-12.75,-2.53,-1.38,-9.34,8.4,-15.04,173.15,52.413280000000015
2023-03-23 22-54-22-045307,0,0,1535,1465,178.681,-12.662,-2.55,-1.38,-9.34,8.44,-15.07,173.16,52.423280000000005
2023-03-23 22-54-22-145214,0,0,1535,1465,178.681,-12.662,-2.52,-1.39,-9.35,8.48,-15.12,173.16,52.423280000000005
2023-03-23 22-54-22-245518,0,0,1535,1465,178.681,-12.662,-2.55,-1.39,-9.34,8.5,-15.19,173.16,52.423280000000005
2023-03-23 22-54-22-345400,0,0,1535,1465,178.681,-12.75,-2.57,-1.42,-9.34,8.5,-15.29,173.18,52.443280000000016
