Timestamp_log,left_angle,right_angle,left_thrust,right_thrust,read_left_angle,read_right_angle,accel_x,accel_y,accel_z,roll,pitch,yaw,e_alpha
2023-03-24 17-25-49-203480,0,0,1575,1575,178.593,-12.838,2.6,1.35,-9.3,-8.28,15.33,81.83,44.9786
2023-03-24 17-25-49-425471,0,0,1575,1575,178.593,-12.838,2.62,1.35,-9.31,-8.29,15.33,81.8,44.9486
2023-03-24 17-25-49-649378,0,0,1575,1575,178.593,-12.838,2.61,1.34,-9.31,-8.3,15.32,81.8,44.9486
2023-03-24 17-25-49-873365,0,0,1575,1575,178.593,-12.838,2.62,1.36,-9.31,-8.29,15.32,81.8,44.9486
2023-03-24 17-25-50-097438,0,0,1575,1575,178.593,-12.838,2.63,1.34,-9.3,-8.32,15.31,81.72,44.8686
2023-03-24 17-25-50-321448,0,0,1575,1575,178.593,-12.838,2.59,1.41,-9.33,-8.53,15.27,80.1,43.248599999999996
2023-03-24 17-25-50-545659,0,0,1575,1575,178.593,-12.838,2.64,1.44,-9.33,-8.84,15.36,77.1,40.248599999999996
2023-03-24 17-25-50-769493,0,0,1575,1575,178.593,-12.838,2.65,1.55,-9.29,-9.17,15.61,73.91,37.0586
2023-03-24 17-25-50-993396,0,0,1569,1569,178.593,-12.838,2.67,1.57,-9.26,-9.51,15.77,70.12,33.268600000000006
2023-03-24 17-25-51-217377,0,0,1564,1564,178.593,-12.838,2.72,1.61,-9.25,-9.79,15.93,66.9,30.048600000000008
2023-03-24 17-25-51-441333,0,0,1560,1560,178.593,-12.838,2.73,1.65,-9.23,-10.0,16.16,64.07,27.218599999999995
2023-03-24 17-25-51-665530,0,0,1557,1557,178.593,-12.838,2.79,1.66,-9.22,-10.06,16.44,62.11,25.2586
2023-03-24 17-25-51-889316,0,0,1556,1556,178.593,-12.838,2.83,1.65,-9.2,-10.05,16.64,60.94,24.0886
2023-03-24 17-25-52-113306,0,0,1555,1555,178.505,-12.838,2.82,1.64,-9.21,-9.97,16.68,60.34,23.488600000000005
2023-03-24 17-25-52-337271,0,0,1553,1553,178.593,-12.838,2.79,1.59,-9.3,-10.02,16.54,58.96,22.108600000000003
2023-03-24 17-25-52-561304,0,0,1548,1548,178.593,-12.838,2.82,1.69,-9.2,-10.22,16.53,56.34,19.488600000000005
2023-03-24 17-25-52-785372,0,0,1545,1545,178.593,-12.838,2.86,1.75,-9.25,-10.44,16.72,53.73,16.8786
2023-03-24 17-25-53-009282,0,0,1540,1540,178.593,-12.75,2.85,1.82,-9.25,-10.72,16.98,50.58,13.7286
2023-03-24 17-25-53-233265,0,0,1536,1536,178.593,-12.838,2.92,1.67,-9.29,-10.96,17.24,47.95,11.098600000000005
2023-03-24 17-25-53-457211,0,0,1531,1531,178.593,-12.838,2.96,1.85,-9.14,-11.29,17.34,44.69,7.8386
2023-03-24 17-25-53-681171,0,0,1528,1528,178.593,-12.838,2.97,1.86,-9.13,-11.44,17.47,42.85,5.998600000000003
2023-03-24 17-25-53-905491,0,0,1527,1527,178.593,-12.838,2.97,1.87,-9.12,-11.5,17.5,42.0,5.148600000000002
2023-03-24 17-25-54-129194,0,0,1527,1527,178.593,-12.838,2.93,1.84,-9.12,-11.53,17.35,41.61,4.758600000000001
2023-03-24 17-25-54-352919,0,0,1523,1523,178.593,-12.838,2.88,1.94,-9.13,-11.88,17.01,39.12,2.2685999999999993
2023-03-24 17-25-54-576929,0,0,1523,1523,178.593,-12.838,2.89,2.01,-9.11,-12.36,17.05,35.43,-1.4213999999999984
2023-03-24 17-25-54-912872,0,0,1523,1523,178.593,-12.838,2.96,2.04,-9.08,-12.77,17.49,32.35,-4.501399999999997
2023-03-24 17-25-55-248778,0,0,1523,1523,178.593,-12.838,3.02,2.17,-9.04,-13.28,17.8,28.61,-8.241399999999999
2023-03-24 17-25-55-584909,0,0,1523,1523,178.593,-12.838,2.82,2.14,-9.0,-13.64,18.07,26.03,-10.821399999999997
2023-03-24 17-25-55-920868,0,0,1523,1523,178.593,-12.838,3.11,2.23,-9.0,-13.91,18.2,24.26,-12.591399999999997
2023-03-24 17-25-56-272775,0,0,1523,1523,178.593,-12.838,3.09,2.26,-8.99,-14.05,18.2,23.66,-13.191399999999998
2023-03-24 17-25-56-608700,0,0,1523,1523,178.593,-12.838,3.1,2.27,-9.0,-14.12,18.09,23.87,-12.981399999999997
2023-03-24 17-25-56-944691,0,0,1523,1523,178.593,-12.838,3.11,2.28,-8.99,-14.13,17.91,24.65,-12.2014
2023-03-24 17-25-57-280748,0,0,1523,1523,178.593,-12.838,3.01,2.29,-9.0,-14.23,17.66,24.86,-11.991399999999999
2023-03-24 17-25-57-616750,0,0,1523,1523,178.593,-12.838,2.96,2.33,-9.02,-14.4,17.42,24.64,-12.211399999999998
2023-03-24 17-25-57-953080,0,0,1523,1523,178.593,-12.838,2.9,2.37,-8.99,-14.73,17.22,23.65,-13.2014
2023-03-24 17-25-58-288655,0,0,1523,1523,178.593,-12.838,2.95,2.45,-9.02,-15.19,17.22,21.46,-15.391399999999997
2023-03-24 17-25-58-624565,0,0,1523,1523,178.505,-12.838,3.02,2.48,-8.97,-15.54,17.44,19.87,-16.981399999999997
2023-03-24 17-25-58-960696,0,0,1523,1523,178.593,-12.838,2.95,2.55,-8.95,-15.89,17.49,18.4,-18.4514
2023-03-24 17-25-59-296665,0,0,1523,1523,178.593,-12.838,2.95,2.59,-8.95,-16.18,17.41,17.75,-19.101399999999998
2023-03-24 17-25-59-632665,0,0,1523,1523,178.593,-12.838,2.96,2.65,-8.94,-16.43,17.2,17.53,-19.321399999999997
2023-03-24 17-25-59-968699,0,0,1523,1523,178.593,-12.838,2.95,2.65,-8.92,-16.56,17.01,18.08,-18.7714
2023-03-24 17-26-00-304730,0,0,1523,1523,178.593,-12.838,2.91,2.7,-8.95,-16.71,16.75,18.66,-18.191399999999998
2023-03-24 17-26-00-640646,0,0,1523,1523,178.593,-12.838,2.83,2.73,-8.95,-16.86,16.48,19.21,-17.641399999999997
2023-03-24 17-26-00-976747,0,0,1523,1523,178.593,-12.838,2.76,2.75,-8.95,-17.02,16.23,19.58,-17.2714
2023-03-24 17-26-01-312648,0,0,1523,1523,178.593,-12.838,2.75,2.77,-8.97,-17.22,16.08,19.56,-17.2914
2023-03-24 17-26-01-648582,0,0,1523,1523,178.593,-12.838,2.75,2.8,-8.96,-17.41,16.0,19.49,-17.3614
2023-03-24 17-26-01-984782,0,0,1523,1523,178.593,-12.838,2.68,2.84,-8.94,-17.57,15.85,19.47,-17.3814
2023-03-24 17-26-02-320535,0,0,1523,1523,178.593,-12.838,2.64,2.94,-9.01,-17.7,15.65,19.79,-17.0614
2023-03-24 17-26-02-656473,0,0,1523,1523,178.593,-12.838,2.62,2.89,-8.96,-17.78,15.38,20.46,-16.391399999999997
2023-03-24 17-26-02-992680,0,0,1523,1523,178.593,-12.838,2.61,2.91,-8.96,-17.86,15.09,21.46,-15.391399999999997
2023-03-24 17-26-03-328565,0,0,1523,1523,178.593,-12.838,2.57,2.91,-8.96,-17.86,14.86,22.95,-13.901399999999999
2023-03-24 17-26-03-664471,0,0,1523,1523,178.593,-12.838,2.55,2.9,-8.99,-17.81,14.59,24.96,-11.891399999999997
2023-03-24 17-26-04-000409,0,0,1523,1523,178.593,-12.838,2.48,2.88,-9.0,-17.78,14.13,26.94,-9.911399999999997
2023-03-24 17-26-04-336150,0,0,1523,1523,178.505,-12.838,2.38,2.88,-9.04,-17.73,13.66,28.75,-8.101399999999998
2023-03-24 17-26-04-672169,0,0,1523,1523,178.593,-12.838,2.28,2.88,-9.06,-17.7,13.28,30.2,-6.651399999999999
2023-03-24 17-26-05-008816,0,0,1523,1523,178.593,-12.838,2.22,2.91,-9.03,-17.7,12.98,31.11,-5.741399999999999
2023-03-24 17-26-05-344065,0,0,1523,1523,178.593,-12.838,2.22,2.88,-9.06,-17.7,12.83,31.63,-5.221399999999999
2023-03-24 17-26-05-683875,0,0,1523,1523,178.593,-12.838,2.2,2.9,-9.06,-17.72,12.74,31.94,-4.911399999999997
2023-03-24 17-26-06-032147,0,0,1523,1523,178.593,-12.838,2.15,2.92,-9.15,-17.74,12.67,32.18,-4.671399999999998
2023-03-24 17-26-06-369411,0,0,1523,1523,178.593,-12.838,2.15,2.91,-9.06,-17.76,12.6,32.61,-4.241399999999999
2023-03-24 17-26-06-703957,0,0,1523,1523,178.505,-12.838,2.13,2.91,-9.07,-17.77,12.47,33.34,-3.5113999999999947
2023-03-24 17-26-07-039914,0,0,1523,1523,178.593,-12.838,2.15,2.92,-9.08,-17.78,12.35,34.39,-2.4613999999999976
2023-03-24 17-26-07-375868,0,0,1523,1523,178.593,-12.838,2.06,2.93,-9.04,-17.76,12.26,35.86,-0.9913999999999987
2023-03-24 17-26-07-711918,0,0,1521,1521,178.593,-12.838,2.06,2.9,-9.09,-17.68,12.15,38.01,1.1585999999999999
2023-03-24 17-26-07-935862,0,0,1526,1526,178.593,-12.838,2.07,2.88,-9.1,-17.55,12.0,40.92,4.0686000000000035
2023-03-24 17-26-08-159865,0,0,1531,1531,178.593,-12.838,2.0,2.84,-9.12,-17.4,11.75,44.25,7.398600000000002
2023-03-24 17-26-08-383773,0,0,1536,1536,178.593,-12.838,1.99,2.84,-9.13,-17.24,11.49,47.85,10.998600000000003
2023-03-24 17-26-08-607887,0,0,1542,1542,178.593,-12.838,1.95,2.82,-9.14,-17.08,11.26,51.62,14.7686
2023-03-24 17-26-08-831856,0,0,1548,1548,178.593,-12.838,1.92,2.79,-9.16,-16.95,11.07,55.49,18.638600000000004
2023-03-24 17-26-09-055768,0,0,1554,1554,178.593,-12.838,1.92,2.75,-9.17,-16.83,10.91,59.43,22.5786
2023-03-24 17-26-09-280807,0,0,1559,1559,178.593,-12.838,1.88,2.75,-9.19,-16.8,10.73,63.12,26.2686
2023-03-24 17-26-09-504330,0,0,1564,1564,178.593,-12.838,1.85,2.76,-9.2,-16.81,10.54,66.52,29.668599999999998
2023-03-24 17-26-09-728022,0,0,1569,1569,178.505,-12.838,1.86,2.76,-9.19,-16.86,10.36,69.52,32.6686
2023-03-24 17-26-09-951880,0,0,1572,1572,178.505,-12.838,1.8,2.8,-9.17,-16.99,10.23,71.62,34.768600000000006
2023-03-24 17-26-10-175770,0,0,1574,1574,178.593,-12.838,1.78,2.82,-9.17,-17.13,10.18,73.1,36.248599999999996
2023-03-24 17-26-10-399749,0,0,1575,1575,178.505,-12.838,1.77,2.85,-9.17,-17.27,10.17,74.2,37.348600000000005
2023-03-24 17-26-10-623642,0,0,1575,1575,178.505,-12.838,1.76,2.87,-9.18,-17.41,10.12,75.05,38.1986
2023-03-24 17-26-10-847649,0,0,1575,1575,178.593,-12.838,1.74,2.9,-9.16,-17.49,10.1,75.65,38.79860000000001
2023-03-24 17-26-11-071758,0,0,1575,1575,178.593,-12.838,1.76,2.9,-9.15,-17.56,10.18,76.02,39.1686
2023-03-24 17-26-11-295700,0,0,1575,1575,178.593,-12.838,1.72,2.92,-9.15,-17.56,10.34,76.34,39.488600000000005
2023-03-24 17-26-11-519608,0,0,1575,1575,178.505,-12.838,1.79,2.89,-9.14,-17.49,10.57,76.94,40.0886
2023-03-24 17-26-11-743699,0,0,1575,1575,178.593,-12.838,1.85,2.89,-9.13,-17.35,10.87,77.81,40.958600000000004
2023-03-24 17-26-11-967690,0,0,1575,1575,178.593,-12.838,1.95,2.84,-9.14,-17.16,11.22,79.0,42.1486
2023-03-24 17-26-12-192100,0,0,1575,1575,178.593,-12.838,2.0,2.8,-9.13,-16.95,11.53,80.08,43.2286
2023-03-24 17-26-12-415836,0,0,1575,1575,178.593,-12.838,2.03,2.77,-9.14,-16.72,11.83,80.83,43.9786
2023-03-24 17-26-12-640451,0,0,1575,1575,178.593,-12.838,2.1,2.73,-9.14,-16.48,12.2,81.36,44.5086
2023-03-24 17-26-12-863638,0,0,1575,1575,178.505,-12.838,2.16,2.69,-9.15,-16.21,12.64,81.76,44.90860000000001
2023-03-24 17-26-13-087489,0,0,1575,1575,178.593,-12.838,2.23,2.63,-9.14,-15.93,13.07,82.11,45.2586
2023-03-24 17-26-13-311458,0,0,1575,1575,178.593,-12.838,2.31,2.59,-9.15,-15.65,13.46,82.42,45.5686
2023-03-24 17-26-13-535384,0,0,1575,1575,178.505,-12.838,2.32,2.52,-9.15,-15.37,13.83,82.68,45.82860000000001
2023-03-24 17-26-13-759375,0,0,1575,1575,178.505,-12.838,2.4,2.48,-9.14,-15.04,14.22,83.24,46.3886
2023-03-24 17-26-13-983360,0,0,1575,1575,178.593,-12.838,2.47,2.41,-9.14,-14.68,14.58,84.18,47.32860000000001
2023-03-24 17-26-14-207669,0,0,1575,1575,178.505,-12.838,2.53,2.33,-9.16,-14.29,14.88,85.43,48.57860000000001
2023-03-24 17-26-14-431430,0,0,1575,1575,178.505,-12.838,2.61,2.27,-9.14,-13.89,15.1,86.79,49.93860000000001
2023-03-24 17-26-14-655345,0,0,1575,1575,178.593,-12.838,2.61,2.21,-9.17,-13.55,15.27,87.75,50.8986
2023-03-24 17-26-14-879375,0,0,1575,1575,178.593,-12.838,2.65,2.16,-9.17,-13.26,15.48,88.45,51.598600000000005
2023-03-24 17-26-15-103263,0,0,1575,1575,178.505,-12.838,2.69,2.12,-9.16,-13.01,15.73,88.99,52.1386
2023-03-24 17-26-15-327219,0,0,1575,1575,178.593,-12.838,2.73,2.08,-9.15,-12.79,15.97,89.41,52.5586
2023-03-24 17-26-15-551349,0,0,1575,1575,178.505,-12.838,2.74,2.06,-9.17,-12.6,16.13,89.79,52.93860000000001
2023-03-24 17-26-15-775419,0,0,1575,1575,178.505,-12.838,2.76,2.02,-9.15,-12.45,16.24,90.09,53.238600000000005
