Timestamp_log,left_angle,right_angle,left_thrust,right_thrust,read_left_angle,read_right_angle,accel_x,accel_y,accel_z,roll,pitch,yaw,e_alpha
2023-03-24 16-33-23-193007,0,0,1531,1469,178.769,-12.926,0.56,-0.22,-9.75,1.36,3.17,35.57,29.86208
2023-03-24 16-33-23-415662,0,0,1528,1472,178.769,-12.926,0.56,-0.22,-9.75,1.37,3.17,35.57,29.86208
2023-03-24 16-33-23-639195,0,0,1528,1472,178.769,-12.926,0.56,-0.22,-9.75,1.37,3.18,35.57,29.86208
2023-03-24 16-33-23-863760,0,0,1528,1472,178.769,-12.838,0.56,-0.22,-9.74,1.37,3.18,35.57,29.86208
2023-03-24 16-33-24-087207,0,0,1528,1472,178.769,-12.926,0.58,-0.23,-9.74,1.37,3.18,35.57,29.86208
2023-03-24 16-33-24-311869,0,0,1528,1472,178.769,-12.926,0.58,-0.22,-9.75,1.37,3.19,35.57,29.86208
2023-03-24 16-33-24-535273,0,0,1528,1472,178.769,-12.926,0.57,-0.22,-9.74,1.37,3.19,35.56,29.85208
2023-03-24 16-33-24-759200,0,0,1528,1472,178.769,-12.926,0.57,-0.23,-9.75,1.37,3.2,35.56,29.85208
2023-03-24 16-33-24-983265,0,0,1528,1472,178.769,-12.926,0.57,-0.22,-9.75,1.37,3.2,35.56,29.85208
2023-03-24 16-33-25-206967,0,0,1528,1472,178.769,-12.926,0.58,-0.22,-9.75,1.37,3.21,35.56,29.85208
2023-03-24 16-33-25-432277,0,0,1528,1472,178.769,-12.926,0.58,-0.23,-9.74,1.37,3.21,35.56,29.85208
2023-03-24 16-33-25-655417,0,0,1528,1472,178.769,-12.838,0.58,-0.22,-9.74,1.37,3.21,35.55,29.842079999999996
2023-03-24 16-33-25-878971,0,0,1528,1472,178.769,-12.926,0.58,-0.22,-9.74,1.37,3.22,35.55,29.842079999999996
2023-03-24 16-33-26-103280,0,0,1528,1472,178.769,-12.926,0.58,-0.22,-9.73,1.37,3.23,35.55,29.842079999999996
2023-03-24 16-33-26-326698,0,0,1528,1472,178.681,-12.926,0.59,-0.23,-9.74,1.37,3.23,35.54,29.832079999999998
2023-03-24 16-33-26-551052,0,0,1528,1472,178.769,-12.926,0.58,-0.24,-9.75,1.36,3.23,35.54,29.832079999999998
2023-03-24 16-33-26-775083,0,0,1528,1472,178.769,-12.926,0.59,-0.23,-9.74,1.36,3.24,35.54,29.832079999999998
2023-03-24 16-33-26-999185,0,0,1528,1472,178.769,-12.926,0.58,-0.22,-9.75,1.36,3.24,35.53,29.82208
2023-03-24 16-33-27-223119,0,0,1528,1472,178.769,-12.926,0.59,-0.23,-9.75,1.36,3.24,35.53,29.82208
2023-03-24 16-33-27-446667,0,0,1528,1472,178.769,-12.926,0.59,-0.23,-9.74,1.35,3.24,35.52,29.81208
2023-03-24 16-33-27-672793,0,0,1528,1472,178.769,-12.926,0.58,-0.24,-9.74,1.35,3.24,35.52,29.81208
2023-03-24 16-33-27-895038,0,0,1528,1472,178.769,-12.926,0.59,-0.23,-9.74,1.35,3.24,35.51,29.802079999999997
2023-03-24 16-33-28-119230,0,0,1528,1472,178.769,-12.926,0.58,-0.24,-9.75,1.35,3.25,35.51,29.802079999999997
2023-03-24 16-33-28-342873,0,0,1528,1472,178.769,-12.926,0.58,-0.24,-9.76,1.35,3.25,35.5,29.79208
2023-03-24 16-33-28-566677,0,0,1528,1472,178.769,-12.926,0.58,-0.24,-9.76,1.35,3.25,35.5,29.79208
2023-03-24 16-33-28-790830,0,0,1528,1472,178.769,-12.926,0.58,-0.24,-9.76,1.35,3.25,35.5,29.79208
2023-03-24 16-33-29-014947,0,0,1528,1472,178.769,-12.926,0.58,-0.24,-9.76,1.35,3.25,35.49,29.78208
2023-03-24 16-33-29-238904,0,0,1528,1472,178.769,-12.926,0.59,-0.23,-9.76,1.35,3.26,35.49,29.78208
2023-03-24 16-33-29-462873,0,0,1528,1472,178.769,-12.926,0.59,-0.23,-9.76,1.35,3.26,35.49,29.78208
2023-03-24 16-33-29-686537,0,0,1528,1472,178.769,-12.926,0.6,-0.23,-9.75,1.34,3.26,35.48,29.772079999999995
2023-03-24 16-33-29-911163,0,0,1528,1472,178.769,-12.926,0.59,-0.23,-9.75,1.34,3.26,35.48,29.772079999999995
2023-03-24 16-33-30-134493,0,0,1528,1472,178.769,-12.926,0.6,-0.23,-9.75,1.34,3.25,35.47,29.762079999999997
2023-03-24 16-33-30-358360,0,0,1528,1472,178.769,-12.926,0.6,-0.23,-9.7,1.34,3.25,35.46,29.75208
2023-03-24 16-33-30-582274,0,0,1528,1472,178.769,-12.926,0.59,-0.24,-9.76,1.34,3.25,35.46,29.75208
2023-03-24 16-33-30-806159,0,0,1528,1472,178.769,-12.926,0.53,-0.24,-9.76,1.33,3.24,35.45,29.74208
2023-03-24 16-33-31-030037,0,0,1528,1472,178.769,-12.926,0.59,-0.22,-9.73,1.33,3.24,35.44,29.732079999999996
2023-03-24 16-33-31-254062,0,0,1528,1472,178.769,-12.838,0.58,-0.22,-9.79,1.33,3.23,35.43,29.72208
2023-03-24 16-33-31-478000,0,0,1528,1472,178.769,-12.926,0.57,-0.22,-9.71,1.33,3.23,35.42,29.71208
2023-03-24 16-33-31-702123,0,0,1528,1472,178.769,-12.926,0.57,-0.24,-9.76,1.32,3.22,35.4,29.692079999999997
2023-03-24 16-33-31-930913,0,0,1528,1472,178.769,-12.926,0.56,-0.22,-9.72,1.32,3.21,35.38,29.67208
2023-03-24 16-33-32-152176,0,0,1528,1472,178.769,-12.926,0.58,-0.24,-9.77,1.32,3.2,35.35,29.64208
2023-03-24 16-33-32-374787,0,0,1528,1472,178.769,-12.926,0.58,-0.23,-9.75,1.31,3.2,35.32,29.61208
2023-03-24 16-33-32-600108,0,0,1528,1472,178.769,-12.926,0.58,-0.24,-9.75,1.31,3.19,35.28,29.57208
2023-03-24 16-33-32-822750,0,0,1528,1472,178.769,-12.926,0.59,-0.24,-9.76,1.31,3.18,35.24,29.53208
2023-03-24 16-33-33-045993,0,0,1528,1472,178.769,-12.926,0.58,-0.22,-9.76,1.3,3.17,35.19,29.482079999999996
2023-03-24 16-33-33-270655,0,0,1528,1472,178.769,-12.926,0.57,-0.21,-9.75,1.29,3.16,35.13,29.42208
2023-03-24 16-33-33-494513,0,0,1528,1472,178.769,-12.926,0.58,-0.21,-9.75,1.29,3.16,35.07,29.36208
2023-03-24 16-33-33-718529,0,0,1528,1472,178.769,-12.926,0.58,-0.2,-9.74,1.28,3.15,35.0,29.29208
2023-03-24 16-33-33-942603,0,0,1528,1472,178.769,-12.926,0.57,-0.21,-9.73,1.28,3.14,34.93,29.22208
2023-03-24 16-33-34-165925,0,0,1528,1472,178.769,-12.926,0.56,-0.2,-9.74,1.27,3.13,34.86,29.152079999999998
2023-03-24 16-33-34-389988,0,0,1528,1472,178.769,-12.926,0.57,-0.24,-9.83,1.26,3.13,34.79,29.082079999999998
2023-03-24 16-33-34-614110,0,0,1528,1472,178.769,-12.926,0.53,-0.25,-9.69,1.25,3.12,34.71,29.00208
2023-03-24 16-33-34-838215,0,0,1528,1472,178.769,-12.926,0.56,-0.16,-9.74,1.25,3.11,34.63,28.92208
2023-03-24 16-33-35-062225,0,0,1528,1472,178.769,-12.926,0.56,-0.24,-9.64,1.25,3.11,34.54,28.832079999999998
2023-03-24 16-33-35-285668,0,0,1528,1472,178.769,-12.926,0.6,-0.2,-9.82,1.24,3.1,34.45,28.74208
2023-03-24 16-33-35-510138,0,0,1528,1472,178.681,-12.926,0.6,-0.18,-9.73,1.23,3.1,34.36,28.652079999999998
2023-03-24 16-33-35-734954,0,0,1528,1472,178.769,-12.926,0.59,-0.2,-9.74,1.23,3.09,34.27,28.56208
2023-03-24 16-33-35-958515,0,0,1528,1472,178.769,-12.926,0.57,-0.22,-9.74,1.22,3.09,34.18,28.47208
2023-03-24 16-33-36-181648,0,0,1528,1472,178.769,-12.926,0.55,-0.21,-9.75,1.22,3.09,34.09,28.382080000000002
2023-03-24 16-33-36-406012,0,0,1528,1472,178.769,-12.926,0.55,-0.2,-9.73,1.22,3.09,33.99,28.28208
2023-03-24 16-33-36-629898,0,0,1528,1472,178.769,-12.926,0.56,-0.19,-9.74,1.21,3.09,33.9,28.192079999999997
2023-03-24 16-33-36-853986,0,0,1528,1472,178.769,-12.926,0.55,-0.18,-9.73,1.2,3.09,33.8,28.092079999999996
2023-03-24 16-33-37-077696,0,0,1528,1472,178.769,-12.926,0.55,-0.19,-9.74,1.2,3.09,33.7,27.99208
2023-03-24 16-33-37-301629,0,0,1528,1472,178.769,-12.926,0.56,-0.2,-9.73,1.2,3.09,33.61,27.902079999999998
2023-03-24 16-33-37-532985,0,0,1528,1472,178.769,-12.926,0.56,-0.19,-9.73,1.2,3.1,33.51,27.802079999999997
2023-03-24 16-33-37-757246,0,0,1528,1472,178.769,-12.926,0.57,-0.19,-9.74,1.2,3.1,33.41,27.702079999999995
2023-03-24 16-33-37-980435,0,0,1528,1472,178.769,-12.926,0.58,-0.19,-9.72,1.2,3.11,33.31,27.60208
2023-03-24 16-33-38-200754,0,0,1528,1472,178.769,-12.926,0.58,-0.19,-9.72,1.2,3.12,33.22,27.512079999999997
2023-03-24 16-33-38-429534,0,0,1528,1472,178.769,-12.926,0.59,-0.18,-9.74,1.2,3.13,33.12,27.412079999999996
2023-03-24 16-33-38-644991,0,0,1528,1472,178.769,-12.926,0.59,-0.19,-9.74,1.2,3.14,33.02,27.31208
2023-03-24 16-33-38-869051,0,0,1528,1472,178.769,-12.926,0.58,-0.18,-9.72,1.2,3.15,32.93,27.22208
2023-03-24 16-33-39-093800,0,0,1528,1472,178.769,-12.926,0.59,-0.19,-9.74,1.19,3.16,32.83,27.122079999999997
2023-03-24 16-33-39-317042,0,0,1528,1472,178.769,-12.926,0.58,-0.19,-9.74,1.19,3.18,32.73,27.022079999999995
2023-03-24 16-33-39-541215,0,0,1528,1472,178.769,-12.926,0.58,-0.19,-9.74,1.19,3.19,32.63,26.92208
2023-03-24 16-33-39-765015,0,0,1528,1472,178.769,-12.926,0.6,-0.19,-9.74,1.19,3.21,32.54,26.832079999999998
2023-03-24 16-33-39-988874,0,0,1528,1472,178.769,-12.926,0.59,-0.18,-9.75,1.18,3.23,32.44,26.732079999999996
2023-03-24 16-33-40-212899,0,0,1527,1473,178.769,-12.926,0.59,-0.18,-9.74,1.18,3.24,32.34,26.632080000000002
2023-03-24 16-33-40-442102,0,0,1527,1473,178.769,-12.838,0.6,-0.19,-9.73,1.18,3.26,32.24,26.53208
2023-03-24 16-33-40-660737,0,0,1527,1473,178.769,-12.926,0.59,-0.18,-9.73,1.18,3.28,32.15,26.442079999999997
2023-03-24 16-33-40-884891,0,0,1527,1473,178.769,-12.926,0.6,-0.19,-9.73,1.18,3.3,32.05,26.342079999999996
2023-03-24 16-33-41-109085,0,0,1527,1473,178.769,-12.926,0.61,-0.18,-9.74,1.18,3.32,31.95,26.242079999999998
2023-03-24 16-33-41-333009,0,0,1527,1473,178.769,-12.926,0.61,-0.18,-9.73,1.18,3.35,31.85,26.14208
2023-03-24 16-33-41-556717,0,0,1527,1473,178.769,-12.926,0.6,-0.18,-9.73,1.19,3.37,31.75,26.04208
2023-03-24 16-33-41-780677,0,0,1527,1473,178.769,-12.926,0.62,-0.21,-9.77,1.19,3.39,31.65,25.942079999999997
2023-03-24 16-33-42-004603,0,0,1527,1473,178.769,-12.926,0.61,-0.2,-9.82,1.2,3.41,31.56,25.852079999999997
2023-03-24 16-33-42-228635,0,0,1527,1473,178.769,-12.926,0.64,-0.25,-9.71,1.21,3.43,31.46,25.75208
2023-03-24 16-33-42-452587,0,0,1527,1473,178.769,-12.926,0.63,-0.2,-9.75,1.21,3.45,31.36,25.652079999999998
2023-03-24 16-33-42-676478,0,0,1527,1473,178.769,-12.926,0.62,-0.14,-9.65,1.22,3.47,31.26,25.55208
2023-03-24 16-33-42-900482,0,0,1527,1473,178.769,-12.926,0.64,-0.22,-9.72,1.23,3.5,31.16,25.45208
2023-03-24 16-33-43-124480,0,0,1527,1473,178.769,-12.926,0.65,-0.19,-9.77,1.24,3.52,31.06,25.352079999999997
2023-03-24 16-33-43-348620,0,0,1527,1473,178.769,-12.926,0.64,-0.2,-9.77,1.25,3.55,30.96,25.25208
2023-03-24 16-33-43-572470,0,0,1527,1473,178.769,-12.926,0.63,-0.18,-9.75,1.26,3.57,30.86,25.152079999999998
2023-03-24 16-33-43-796437,0,0,1527,1473,178.769,-12.926,0.62,-0.19,-9.72,1.26,3.6,30.76,25.05208
2023-03-24 16-33-44-020377,0,0,1527,1473,178.681,-12.926,0.63,-0.19,-9.72,1.28,3.62,30.67,24.96208
2023-03-24 16-33-44-252503,0,0,1527,1473,178.769,-12.926,0.64,-0.19,-9.73,1.29,3.65,30.57,24.86208
2023-03-24 16-33-44-471646,0,0,1527,1473,178.769,-12.926,0.64,-0.2,-9.73,1.3,3.67,30.47,24.762079999999997
2023-03-24 16-33-44-699176,0,0,1527,1473,178.769,-12.926,0.65,-0.2,-9.73,1.32,3.69,30.37,24.66208
2023-03-24 16-33-44-930328,0,0,1527,1473,178.769,-12.926,0.66,-0.2,-9.72,1.33,3.72,30.28,24.57208
2023-03-24 16-33-45-156944,0,0,1527,1473,178.769,-12.926,0.67,-0.2,-9.71,1.35,3.74,30.18,24.47208
2023-03-24 16-33-45-381550,0,0,1527,1473,178.769,-12.838,0.68,-0.2,-9.75,1.36,3.76,30.09,24.38208
2023-03-24 16-33-45-605614,0,0,1527,1473,178.769,-12.926,0.67,-0.21,-9.74,1.38,3.78,29.99,24.282079999999997
2023-03-24 16-33-45-828030,0,0,1527,1473,178.769,-12.926,0.68,-0.21,-9.72,1.4,3.8,29.9,24.192079999999997
2023-03-24 16-33-46-052181,0,0,1527,1473,178.769,-12.926,0.7,-0.21,-9.73,1.41,3.82,29.81,24.102079999999997
2023-03-24 16-33-46-276345,0,0,1527,1473,178.769,-12.926,0.69,-0.22,-9.72,1.43,3.84,29.71,24.00208
2023-03-24 16-33-46-500266,0,0,1527,1473,178.769,-12.926,0.69,-0.22,-9.74,1.44,3.87,29.62,23.91208
2023-03-24 16-33-46-724011,0,0,1527,1473,178.769,-12.926,0.67,-0.21,-9.73,1.46,3.89,29.53,23.82208
2023-03-24 16-33-46-948000,0,0,1527,1473,178.769,-12.926,0.67,-0.22,-9.72,1.48,3.91,29.44,23.73208
2023-03-24 16-33-47-173501,0,0,1527,1473,178.769,-12.926,0.67,-0.23,-9.74,1.49,3.93,29.36,23.652079999999998
2023-03-24 16-33-47-395748,0,0,1527,1473,178.769,-12.926,0.68,-0.21,-9.73,1.51,3.94,29.28,23.57208
2023-03-24 16-33-47-619899,0,0,1527,1473,178.769,-12.926,0.69,-0.21,-9.71,1.53,3.96,29.2,23.492079999999998
2023-03-24 16-33-47-843880,0,0,1527,1473,178.769,-12.926,0.71,-0.23,-9.73,1.55,3.98,29.13,23.422079999999998
2023-03-24 16-33-48-073663,0,0,1526,1474,178.769,-12.926,0.72,-0.23,-9.73,1.57,4.0,29.06,23.352079999999997
2023-03-24 16-33-48-292127,0,0,1526,1474,178.769,-12.926,0.74,-0.24,-9.73,1.6,4.01,29.0,23.29208
2023-03-24 16-33-48-515991,0,0,1526,1474,178.769,-12.926,0.73,-0.24,-9.73,1.62,4.02,28.94,23.23208
2023-03-24 16-33-48-739858,0,0,1526,1474,178.769,-12.926,0.72,-0.24,-9.74,1.64,4.04,28.88,23.172079999999998
2023-03-24 16-33-48-963798,0,0,1526,1474,178.769,-12.926,0.72,-0.24,-9.73,1.66,4.06,28.83,23.122079999999997
2023-03-24 16-33-49-188743,0,0,1526,1474,178.769,-12.926,0.72,-0.25,-9.73,1.68,4.07,28.79,23.082079999999998
2023-03-24 16-33-49-412232,0,0,1526,1474,178.769,-12.926,0.74,-0.25,-9.74,1.7,4.09,28.74,23.032079999999997
2023-03-24 16-33-49-636326,0,0,1526,1474,178.769,-12.926,0.73,-0.25,-9.74,1.72,4.11,28.7,22.992079999999998
2023-03-24 16-33-49-860140,0,0,1526,1474,178.769,-12.926,0.74,-0.25,-9.74,1.74,4.12,28.66,22.95208
2023-03-24 16-33-50-084151,0,0,1526,1474,178.769,-12.926,0.74,-0.25,-9.74,1.76,4.14,28.62,22.91208
2023-03-24 16-33-50-307498,0,0,1526,1474,178.769,-12.926,0.75,-0.26,-9.73,1.77,4.16,28.59,22.88208
2023-03-24 16-33-50-531901,0,0,1526,1474,178.769,-12.926,0.75,-0.26,-9.73,1.8,4.17,28.56,22.852079999999997
2023-03-24 16-33-50-755616,0,0,1526,1474,178.769,-12.926,0.77,-0.27,-9.74,1.82,4.19,28.53,22.82208
2023-03-24 16-33-50-979579,0,0,1526,1474,178.769,-12.926,0.77,-0.28,-9.74,1.84,4.21,28.51,22.80208
2023-03-24 16-33-51-203423,0,0,1526,1474,178.769,-12.926,0.76,-0.28,-9.74,1.86,4.23,28.49,22.782079999999997
2023-03-24 16-33-51-427477,0,0,1526,1474,178.769,-12.926,0.76,-0.28,-9.74,1.88,4.25,28.47,22.762079999999997
2023-03-24 16-33-51-651583,0,0,1526,1474,178.769,-12.926,0.78,-0.28,-9.74,1.89,4.27,28.45,22.742079999999998
2023-03-24 16-33-51-875228,0,0,1526,1474,178.769,-12.926,0.78,-0.29,-9.73,1.91,4.29,28.44,22.73208
2023-03-24 16-33-52-100016,0,0,1526,1474,178.769,-12.926,0.79,-0.29,-9.74,1.93,4.32,28.43,22.72208
