Timestamp_log,left_angle,right_angle,left_thrust,right_thrust,read_left_angle,read_right_angle,accel_x,accel_y,accel_z,roll,pitch,yaw,e_alpha
2023-03-24 17-31-12-580308,0,0,1554,1554,178.593,-12.838,2.58,1.8,-9.24,-11.08,15.12,38.62,30.033
2023-03-24 17-31-12-796932,0,0,1565,1565,178.593,-12.838,2.58,1.8,-9.26,-11.09,15.12,38.62,30.033
2023-03-24 17-31-13-020879,0,0,1565,1565,178.593,-12.838,2.57,1.81,-9.24,-11.11,15.11,38.61,30.023000000000003
2023-03-24 17-31-13-244868,0,0,1565,1565,178.593,-12.838,2.59,1.82,-9.25,-11.11,15.1,38.61,30.023000000000003
2023-03-24 17-31-13-468840,0,0,1564,1564,178.593,-12.838,2.57,1.82,-9.23,-11.14,15.08,38.54,29.953000000000003
2023-03-24 17-31-13-692685,0,0,1564,1564,178.593,-12.838,2.53,1.89,-9.25,-11.37,14.99,37.65,29.063000000000002
2023-03-24 17-31-13-916559,0,0,1562,1562,178.593,-12.75,2.57,1.93,-9.24,-11.68,15.02,36.15,27.563000000000002
2023-03-24 17-31-14-141582,0,0,1559,1559,178.593,-12.838,2.6,1.94,-9.28,-11.98,15.12,34.52,25.933000000000007
2023-03-24 17-31-14-364575,0,0,1556,1556,178.593,-12.838,2.57,2.01,-9.19,-12.32,15.16,32.57,23.983000000000004
2023-03-24 17-31-14-588943,0,0,1554,1554,178.593,-12.838,2.62,2.03,-9.21,-12.55,15.31,30.91,22.323000000000004
2023-03-24 17-31-14-812438,0,0,1551,1551,178.593,-12.838,2.64,2.13,-9.17,-12.86,15.39,28.85,20.263000000000005
2023-03-24 17-31-15-036689,0,0,1548,1548,178.593,-12.75,2.67,2.14,-9.16,-12.98,15.59,27.43,18.843000000000004
2023-03-24 17-31-15-260393,0,0,1547,1547,178.593,-12.838,2.69,2.14,-9.13,-13.0,15.81,26.55,17.963000000000005
2023-03-24 17-31-15-485131,0,0,1546,1546,178.593,-12.838,2.7,2.1,-9.14,-12.95,15.9,26.0,17.413000000000004
2023-03-24 17-31-15-708281,0,0,1545,1545,178.593,-12.838,2.65,2.12,-9.25,-13.06,15.72,24.91,16.323000000000004
2023-03-24 17-31-15-932419,0,0,1542,1542,178.593,-12.838,2.66,2.18,-9.15,-13.26,15.6,23.35,14.763000000000005
2023-03-24 17-31-16-156329,0,0,1540,1540,178.593,-12.838,2.65,2.23,-9.1,-13.47,15.74,21.88,13.293000000000003
2023-03-24 17-31-16-380556,0,0,1538,1538,178.593,-12.838,2.71,2.27,-9.1,-13.73,15.98,20.13,11.543000000000003
2023-03-24 17-31-16-604254,0,0,1535,1535,178.593,-12.838,2.77,2.25,-9.07,-13.96,16.24,18.75,10.163000000000004
2023-03-24 17-31-16-828181,0,0,1533,1533,178.593,-12.838,2.77,2.36,-9.07,-14.27,16.32,17.13,8.543000000000003
2023-03-24 17-31-17-052256,0,0,1531,1531,178.593,-12.838,2.79,2.36,-9.06,-14.42,16.46,16.22,7.633000000000003
2023-03-24 17-31-17-276255,0,0,1531,1531,178.593,-12.838,2.8,2.36,-9.05,-14.49,16.51,15.86,7.273000000000003
2023-03-24 17-31-17-500406,0,0,1530,1530,178.593,-12.838,2.79,2.41,-9.07,-14.5,16.41,15.89,7.303000000000004
2023-03-24 17-31-17-724116,0,0,1530,1530,178.505,-12.838,2.75,2.39,-9.07,-14.66,16.1,15.51,6.923000000000004
2023-03-24 17-31-17-948138,0,0,1529,1529,178.593,-12.838,2.73,2.42,-9.08,-14.89,15.91,14.72,6.1330000000000044
2023-03-24 17-31-18-172277,0,0,1528,1528,178.593,-12.838,2.74,2.39,-9.0,-15.16,15.97,13.89,5.303000000000004
2023-03-24 17-31-18-396183,0,0,1526,1526,178.593,-12.838,2.71,2.53,-9.03,-15.52,15.98,12.72,4.1330000000000044
2023-03-24 17-31-18-620107,0,0,1525,1525,178.593,-12.838,2.76,2.55,-9.02,-15.84,16.01,11.83,3.243000000000004
2023-03-24 17-31-18-844096,0,0,1523,1523,178.593,-12.838,2.73,2.63,-9.02,-16.19,15.96,10.92,2.3330000000000037
2023-03-24 17-31-19-068083,0,0,1523,1523,178.593,-12.838,2.74,2.66,-8.99,-16.4,15.98,10.55,1.9630000000000045
2023-03-24 17-31-19-292288,0,0,1523,1523,178.593,-12.838,2.73,2.69,-8.99,-16.52,15.94,10.61,2.0230000000000032
2023-03-24 17-31-19-516191,0,0,1523,1523,178.593,-12.838,2.74,2.69,-9.01,-16.62,15.74,10.96,2.3730000000000047
2023-03-24 17-31-19-740246,0,0,1523,1523,178.593,-12.838,2.66,2.72,-8.99,-16.75,15.46,11.18,2.5930000000000035
2023-03-24 17-31-19-964150,0,0,1523,1523,178.593,-12.838,2.58,2.75,-9.02,-16.9,15.23,11.27,2.6830000000000034
2023-03-24 17-31-20-187945,0,0,1523,1523,178.593,-12.838,2.55,2.77,-9.02,-17.12,15.06,11.24,2.653000000000004
2023-03-24 17-31-20-411895,0,0,1523,1523,178.593,-12.838,2.53,2.83,-9.0,-17.42,14.94,10.81,2.2230000000000043
2023-03-24 17-31-20-639542,0,0,1522,1522,178.593,-12.75,2.53,2.84,-8.92,-17.71,14.89,10.46,1.8730000000000047
2023-03-24 17-31-20-860048,0,0,1522,1522,178.593,-12.838,2.49,2.91,-8.97,-18.03,14.75,10.03,1.4430000000000032
2023-03-24 17-31-21-085332,0,0,1522,1522,178.593,-12.838,2.45,2.96,-8.97,-18.27,14.62,9.94,1.3530000000000033
2023-03-24 17-31-21-308011,0,0,1522,1522,178.593,-12.838,2.47,2.97,-8.92,-18.5,14.43,10.02,1.4330000000000034
2023-03-24 17-31-21-531939,0,0,1522,1522,178.593,-12.838,2.51,3.04,-8.94,-18.71,14.28,10.2,1.613000000000003
2023-03-24 17-31-21-755975,0,0,1522,1522,178.593,-12.838,2.47,3.09,-8.94,-18.93,14.15,10.41,1.823000000000004
2023-03-24 17-31-21-980395,0,0,1522,1522,178.505,-12.838,2.43,3.11,-8.92,-19.14,14.05,10.65,2.063000000000004
2023-03-24 17-31-22-203798,0,0,1523,1523,178.593,-12.838,2.42,3.15,-8.92,-19.34,13.96,10.9,2.313000000000004
2023-03-24 17-31-22-428948,0,0,1523,1523,178.505,-12.838,2.35,3.17,-8.94,-19.5,13.85,11.17,2.5830000000000037
2023-03-24 17-31-22-652568,0,0,1524,1524,178.593,-12.838,2.33,3.2,-8.92,-19.65,13.68,11.39,2.8030000000000044
2023-03-24 17-31-22-875867,0,0,1524,1524,178.593,-12.838,2.27,3.22,-8.93,-19.81,13.49,11.55,2.9630000000000045
2023-03-24 17-31-23-099962,0,0,1524,1524,178.593,-12.838,2.25,3.24,-8.97,-19.92,13.33,11.83,3.243000000000004
2023-03-24 17-31-23-323798,0,0,1525,1525,178.593,-12.838,2.24,3.27,-8.92,-20.04,13.16,12.23,3.6430000000000042
2023-03-24 17-31-23-547807,0,0,1525,1525,178.505,-12.838,2.26,3.29,-8.91,-20.14,13.08,12.7,4.113000000000003
2023-03-24 17-31-23-771948,0,0,1526,1526,178.593,-12.838,2.23,3.24,-8.87,-20.27,12.99,13.0,4.413000000000004
2023-03-24 17-31-23-996225,0,0,1526,1526,178.593,-12.838,2.26,3.34,-8.89,-20.4,12.91,13.13,4.543000000000005
2023-03-24 17-31-24-219765,0,0,1526,1526,178.505,-12.75,2.25,3.34,-8.89,-20.49,12.92,13.27,4.683000000000003
2023-03-24 17-31-24-443778,0,0,1527,1527,178.593,-12.838,2.25,3.34,-8.9,-20.53,12.94,13.53,4.943000000000003
2023-03-24 17-31-24-667651,0,0,1527,1527,178.593,-12.838,2.24,3.34,-8.9,-20.52,12.87,13.92,5.333000000000004
2023-03-24 17-31-24-892114,0,0,1528,1528,178.593,-12.838,2.12,3.28,-8.91,-20.45,12.73,14.41,5.823000000000004
2023-03-24 17-31-25-116191,0,0,1529,1529,178.593,-12.838,2.06,3.33,-8.93,-20.39,12.48,14.76,6.173000000000004
2023-03-24 17-31-25-340157,0,0,1529,1529,178.593,-12.838,2.04,3.31,-8.93,-20.38,12.31,14.79,6.203000000000003
2023-03-24 17-31-25-563613,0,0,1529,1529,178.505,-12.838,2.06,3.33,-8.94,-20.4,12.39,14.63,6.043000000000005
2023-03-24 17-31-25-788174,0,0,1528,1528,178.593,-12.838,2.11,3.34,-8.93,-20.44,12.64,14.34,5.753000000000004
2023-03-24 17-31-26-011574,0,0,1528,1528,178.505,-12.838,2.32,3.32,-8.9,-20.46,12.96,14.06,5.473000000000004
2023-03-24 17-31-26-235793,0,0,1528,1528,178.593,-12.838,2.33,3.33,-8.9,-20.41,13.25,14.08,5.493000000000004
2023-03-24 17-31-26-459500,0,0,1528,1528,178.593,-12.838,2.34,3.32,-8.89,-20.3,13.29,14.27,5.683000000000003
2023-03-24 17-31-26-683411,0,0,1528,1528,178.593,-12.838,2.3,3.29,-8.91,-20.15,13.2,14.57,5.983000000000004
2023-03-24 17-31-26-907633,0,0,1529,1529,178.593,-12.75,2.25,3.25,-8.93,-19.98,13.08,14.98,6.393000000000004
2023-03-24 17-31-27-131458,0,0,1529,1529,178.593,-12.838,2.19,3.25,-8.93,-19.83,12.95,15.31,6.723000000000004
2023-03-24 17-31-27-355417,0,0,1530,1530,178.593,-12.75,2.2,3.23,-8.97,-19.71,12.89,15.46,6.873000000000005
2023-03-24 17-31-27-579600,0,0,1530,1530,178.593,-12.838,2.19,3.21,-8.94,-19.58,12.95,15.59,7.003000000000004
2023-03-24 17-31-27-803546,0,0,1530,1530,178.593,-12.838,2.2,3.16,-8.96,-19.4,13.04,15.88,7.293000000000005
2023-03-24 17-31-28-027428,0,0,1531,1531,178.505,-12.838,2.19,3.17,-8.95,-19.2,12.99,16.32,7.733000000000004
2023-03-24 17-31-28-251403,0,0,1532,1532,178.593,-12.838,2.2,3.11,-8.99,-19.01,12.91,16.83,8.243000000000002
2023-03-24 17-31-28-475361,0,0,1532,1532,178.593,-12.838,2.24,3.08,-9.0,-18.82,12.89,17.44,8.853000000000005
2023-03-24 17-31-28-699345,0,0,1533,1533,178.505,-12.838,2.27,3.05,-8.99,-18.67,12.84,18.02,9.433000000000003
2023-03-24 17-31-28-923412,0,0,1534,1534,178.593,-12.838,2.21,3.01,-9.02,-18.49,12.71,18.6,10.013000000000005
2023-03-24 17-31-29-147372,0,0,1535,1535,178.505,-12.838,2.17,3.0,-9.04,-18.32,12.56,19.19,10.603000000000005
2023-03-24 17-31-29-371504,0,0,1536,1536,178.505,-12.838,2.14,2.95,-9.05,-18.11,12.47,19.8,11.213000000000005
2023-03-24 17-31-29-595658,0,0,1537,1537,178.593,-12.838,2.11,2.93,-9.05,-17.88,12.36,20.45,11.863000000000003
2023-03-24 17-31-29-819340,0,0,1538,1538,178.593,-12.838,2.09,2.88,-9.09,-17.66,12.23,21.14,12.553000000000004
2023-03-24 17-31-30-043288,0,0,1539,1539,178.593,-12.838,2.04,2.86,-9.11,-17.43,12.12,21.87,13.283000000000005
2023-03-24 17-31-30-267246,0,0,1540,1540,178.593,-12.838,2.03,2.82,-9.12,-17.18,12.03,22.81,14.223000000000003
2023-03-24 17-31-30-491289,0,0,1542,1542,178.593,-12.838,2.03,2.78,-9.13,-16.9,11.92,23.93,15.343000000000004
2023-03-24 17-31-30-715801,0,0,1544,1544,178.505,-12.838,2.01,2.73,-9.16,-16.62,11.76,25.18,16.593000000000004
2023-03-24 17-31-30-939484,0,0,1546,1546,178.505,-12.838,2.01,2.67,-9.2,-16.35,11.6,26.53,17.943000000000005
2023-03-24 17-31-31-163630,0,0,1548,1548,178.593,-12.838,2.01,2.64,-9.19,-16.13,11.52,27.81,19.223000000000003
2023-03-24 17-31-31-388426,0,0,1549,1549,178.505,-12.838,2.0,2.61,-9.18,-15.94,11.57,28.83,20.243000000000002
2023-03-24 17-31-31-611027,0,0,1551,1551,178.505,-12.838,2.01,2.58,-9.18,-15.74,11.74,29.73,21.143000000000004
2023-03-24 17-31-31-835112,0,0,1552,1552,178.505,-12.838,2.04,2.56,-9.19,-15.55,11.92,30.55,21.963000000000005
2023-03-24 17-31-32-059030,0,0,1553,1553,178.593,-12.838,2.07,2.53,-9.2,-15.35,12.08,31.29,22.703000000000003
2023-03-24 17-31-32-283093,0,0,1554,1554,178.505,-12.838,2.1,2.5,-9.19,-15.17,12.27,31.96,23.373000000000005
2023-03-24 17-31-32-507134,0,0,1555,1555,178.505,-12.838,2.13,2.45,-9.21,-14.99,12.52,32.59,24.003000000000007
2023-03-24 17-31-32-730993,0,0,1556,1556,178.593,-12.838,2.17,2.42,-9.2,-14.79,12.78,33.34,24.753000000000007
2023-03-24 17-31-32-955052,0,0,1558,1558,178.505,-12.838,2.21,2.4,-9.2,-14.58,12.99,34.25,25.663000000000004
2023-03-24 17-31-33-179243,0,0,1559,1559,178.505,-12.838,2.24,2.36,-9.21,-14.37,13.16,35.27,26.683000000000007
2023-03-24 17-31-33-403086,0,0,1561,1561,178.505,-12.838,2.26,2.32,-9.22,-14.15,13.34,36.36,27.773000000000003
2023-03-24 17-31-33-628302,0,0,1562,1562,178.505,-12.838,2.34,2.29,-9.22,-13.96,13.51,37.45,28.863000000000007
2023-03-24 17-31-33-851028,0,0,1564,1564,178.505,-12.75,2.36,2.26,-9.23,-13.83,13.64,38.3,29.713
2023-03-24 17-31-34-075127,0,0,1565,1565,178.505,-12.838,2.38,2.26,-9.2,-13.74,13.81,39.01,30.423000000000002
2023-03-24 17-31-34-299031,0,0,1566,1566,178.593,-12.838,2.4,2.23,-9.2,-13.67,14.01,39.62,31.033
2023-03-24 17-31-34-523079,0,0,1567,1567,178.593,-12.838,2.44,2.22,-9.19,-13.6,14.21,40.16,31.573
2023-03-24 17-31-34-747497,0,0,1567,1567,178.505,-12.838,2.46,2.22,-9.19,-13.5,14.38,40.64,32.053000000000004
