Timestamp_log,left_angle,right_angle,left_thrust,right_thrust,read_left_angle,read_right_angle,accel_x,accel_y,accel_z,roll,pitch,yaw,e_alpha
2023-03-23 22-15-50-106839,0,0,1548,1452,0.088,-12.662,0.29,-0.68,-9.77,3.95,1.54,144.56,46.51788000000002
2023-03-23 22-15-50-127363,0,0,1550,1450,0.088,-12.662,0.3,-0.68,-9.76,3.94,1.55,144.56,46.51788000000002
2023-03-23 22-15-50-159375,0,0,1550,1450,0.088,-12.662,0.3,-0.68,-9.76,3.94,1.57,144.56,46.51788000000002
2023-03-23 22-15-50-191651,0,0,1550,1450,0.088,-12.662,0.31,-0.67,-9.77,3.93,1.58,144.56,46.51788000000002
2023-03-23 22-15-50-223322,0,0,1550,1450,0.088,-12.662,0.3,-0.68,-9.77,3.93,1.59,144.57,46.52788000000001
2023-03-23 22-15-50-238602,0,0,1550,1450,0.088,-12.662,0.3,-0.68,-9.76,3.92,1.6,144.57,46.52788000000001
2023-03-23 22-15-50-252897,0,0,1550,1450,0.088,-12.662,0.31,-0.68,-9.76,3.92,1.62,144.57,46.52788000000001
2023-03-23 22-15-50-270677,0,0,1550,1450,0.088,-12.662,0.31,-0.69,-9.76,3.92,1.63,144.57,46.52788000000001
2023-03-23 22-15-50-286148,0,0,1550,1450,0.088,-12.662,0.32,-0.69,-9.76,3.92,1.65,144.57,46.52788000000001
2023-03-23 22-15-50-303321,0,0,1550,1450,0.088,-12.662,0.3,-0.68,-9.76,3.92,1.66,144.56,46.51788000000002
2023-03-23 22-15-50-317075,0,0,1550,1450,0.088,-12.662,0.32,-0.69,-9.75,3.92,1.67,144.57,46.52788000000001
2023-03-23 22-15-50-335429,0,0,1550,1450,0.088,-12.662,0.33,-0.69,-9.76,3.92,1.68,144.57,46.52788000000001
2023-03-23 22-15-50-365296,0,0,1550,1450,0.088,-12.662,0.29,-0.68,-9.72,3.93,1.69,144.57,46.52788000000001
2023-03-23 22-15-50-381531,0,0,1550,1450,0.176,-12.662,0.26,-0.66,-9.75,3.93,1.7,144.58,46.53788000000003
2023-03-23 22-15-50-398817,0,0,1550,1450,0.088,-12.662,0.4,-0.7,-9.73,3.94,1.71,144.57,46.52788000000001
2023-03-23 22-15-50-414155,0,0,1550,1450,0.088,-12.662,0.4,-0.73,-9.74,3.95,1.72,144.57,46.52788000000001
2023-03-23 22-15-50-429928,0,0,1550,1450,0.088,-12.662,0.17,-0.7,-9.8,3.96,1.73,144.57,46.52788000000001
2023-03-23 22-15-50-446309,0,0,1550,1450,0.088,-12.662,0.02,-0.69,-9.7,3.96,1.74,144.58,46.53788000000003
2023-03-23 22-15-50-461290,0,0,1550,1450,0.088,-12.662,-0.15,-0.67,-9.66,3.97,1.74,144.58,46.53788000000003
2023-03-23 22-15-50-480089,0,0,1550,1450,0.176,-12.662,-0.26,-0.68,-9.64,3.98,1.73,144.58,46.53788000000003
2023-03-23 22-15-50-510517,0,0,1550,1450,0.088,-12.662,-0.29,-0.69,-9.64,3.98,1.72,144.58,46.53788000000003
2023-03-23 22-15-50-525920,0,0,1550,1450,0.088,-12.662,-0.25,-0.68,-9.66,3.99,1.7,144.58,46.53788000000003
2023-03-23 22-15-50-541463,0,0,1550,1450,0.088,-12.662,-0.1,-0.67,-9.67,3.99,1.69,144.58,46.53788000000003
2023-03-23 22-15-50-558085,0,0,1550,1450,0.088,-12.662,0.01,-0.67,-9.67,3.99,1.68,144.57,46.52788000000001
2023-03-23 22-15-50-574349,0,0,1550,1450,0.088,-12.662,-0.05,-0.69,-9.67,3.99,1.66,144.56,46.51788000000002
2023-03-23 22-15-50-589633,0,0,1550,1450,0.176,-12.662,-0.06,-0.69,-9.68,3.99,1.64,144.55,46.50788000000003
2023-03-23 22-15-50-605704,0,0,1550,1450,0.088,-12.574,0.02,-0.69,-9.67,3.99,1.62,144.54,46.49788000000001
2023-03-23 22-15-50-622189,0,0,1550,1450,0.088,-12.662,-0.01,-0.69,-9.67,4.0,1.61,144.54,46.49788000000001
2023-03-23 22-15-50-637128,0,0,1550,1450,0.176,-12.662,0.04,-0.7,-9.72,3.99,1.59,144.53,46.48788000000002
2023-03-23 22-15-50-654891,0,0,1550,1450,0.088,-12.662,0.0,-0.68,-9.67,3.99,1.58,144.52,46.47788000000003
2023-03-23 22-15-50-669468,0,0,1550,1450,0.088,-12.662,-0.01,-0.66,-9.68,3.99,1.56,144.51,46.46788000000001
2023-03-23 22-15-50-684899,0,0,1550,1450,0.088,-12.662,0.05,-0.65,-9.69,3.98,1.54,144.5,46.45788000000002
2023-03-23 22-15-50-700917,0,0,1550,1450,0.088,-12.574,0.04,-0.64,-9.69,3.97,1.53,144.49,46.447880000000026
2023-03-23 22-15-50-717320,0,0,1550,1450,0.088,-12.574,0.06,-0.65,-9.7,3.96,1.51,144.47,46.427880000000016
2023-03-23 22-15-50-734258,0,0,1550,1450,0.088,-12.574,0.07,-0.64,-9.72,3.95,1.49,144.46,46.417880000000025
2023-03-23 22-15-50-749596,0,0,1550,1450,0.088,-12.662,0.07,-0.64,-9.69,3.94,1.47,144.44,46.397880000000015
2023-03-23 22-15-50-765384,0,0,1550,1450,0.088,-12.662,0.07,-0.64,-9.72,3.93,1.46,144.42,46.377880000000005
2023-03-23 22-15-50-781237,0,0,1550,1450,0.176,-12.662,0.08,-0.65,-9.73,3.91,1.45,144.4,46.35788000000002
2023-03-23 22-15-50-797012,0,0,1550,1450,0.088,-12.662,0.08,-0.68,-9.72,3.9,1.43,144.38,46.33788000000001
2023-03-23 22-15-50-814065,0,0,1550,1450,0.176,-12.574,0.07,-0.66,-9.7,3.88,1.42,144.35,46.30788000000001
2023-03-23 22-15-50-830105,0,0,1550,1450,0.088,-12.662,0.06,-0.64,-9.7,3.86,1.41,144.32,46.27788000000001
2023-03-23 22-15-50-845630,0,0,1550,1450,0.088,-12.662,0.1,-0.62,-9.68,3.84,1.39,144.29,46.24788000000001
2023-03-23 22-15-50-862324,0,0,1550,1450,0.088,-12.662,0.1,-0.67,-9.72,3.81,1.38,144.27,46.22788000000003
2023-03-23 22-15-50-888091,0,0,1550,1450,0.088,-12.574,0.11,-0.64,-9.74,3.79,1.38,144.23,46.18788000000001
2023-03-23 22-15-50-914161,0,0,1550,1450,0.088,-12.662,0.12,-0.63,-9.73,3.76,1.37,144.2,46.157880000000006
2023-03-23 22-15-50-948872,0,0,1550,1450,0.088,-12.662,0.15,-0.63,-9.72,3.73,1.36,144.17,46.127880000000005
2023-03-23 22-15-50-979297,0,0,1550,1450,0.088,-12.662,0.16,-0.6,-9.71,3.7,1.36,144.13,46.08788000000001
2023-03-23 22-15-51-012596,0,0,1550,1450,0.088,-12.662,0.15,-0.63,-9.73,3.67,1.36,144.09,46.04788000000002
2023-03-23 22-15-51-042130,0,0,1550,1450,0.088,-12.662,0.15,-0.62,-9.76,3.64,1.36,144.05,46.00788000000003
2023-03-23 22-15-51-075644,0,0,1550,1450,0.088,-12.662,0.15,-0.64,-9.73,3.61,1.37,144.01,45.96788000000001
2023-03-23 22-15-51-107114,0,0,1550,1450,0.176,-12.662,0.14,-0.65,-9.71,3.58,1.38,143.98,45.93788000000001
2023-03-23 22-15-51-139785,0,0,1550,1450,0.088,-12.662,0.15,-0.6,-9.72,3.55,1.39,143.94,45.897880000000015
2023-03-23 22-15-51-174857,0,0,1550,1450,0.088,-12.662,0.13,-0.54,-9.77,3.52,1.4,143.91,45.867880000000014
2023-03-23 22-15-51-197097,0,0,1550,1450,0.088,-12.662,0.15,-0.58,-9.71,3.48,1.41,143.88,45.83788000000001
2023-03-23 22-15-51-213486,0,0,1550,1450,0.088,-12.662,0.15,-0.57,-9.73,3.45,1.42,143.84,45.79788000000002
2023-03-23 22-15-51-228692,0,0,1550,1450,0.176,-12.662,0.16,-0.58,-9.73,3.41,1.43,143.81,45.76788000000002
2023-03-23 22-15-51-245517,0,0,1550,1450,0.088,-12.574,0.17,-0.55,-9.75,3.37,1.45,143.77,45.72788000000003
2023-03-23 22-15-51-268130,0,0,1550,1450,0.088,-12.662,0.18,-0.59,-9.77,3.34,1.47,143.73,45.68788000000001
2023-03-23 22-15-51-292733,0,0,1550,1450,0.088,-12.662,0.2,-0.58,-9.73,3.3,1.49,143.69,45.647880000000015
2023-03-23 22-15-51-309344,0,0,1550,1450,0.088,-12.662,0.21,-0.56,-9.74,3.26,1.51,143.64,45.59788
2023-03-23 22-15-51-326708,0,0,1550,1450,0.176,-12.662,0.2,-0.56,-9.75,3.22,1.53,143.6,45.55788000000001
2023-03-23 22-15-51-342111,0,0,1550,1450,0.088,-12.662,0.21,-0.57,-9.76,3.18,1.56,143.56,45.51788000000002
2023-03-23 22-15-51-356857,0,0,1550,1450,0.088,-12.662,0.21,-0.54,-9.74,3.15,1.58,143.51,45.46788000000001
2023-03-23 22-15-51-373416,0,0,1550,1450,0.088,-12.662,0.21,-0.52,-9.73,3.11,1.61,143.47,45.427880000000016
2023-03-23 22-15-51-389997,0,0,1550,1450,0.088,-12.662,0.2,-0.49,-9.78,3.07,1.63,143.42,45.377880000000005
2023-03-23 22-15-51-404958,0,0,1550,1450,0.088,-12.574,0.24,-0.51,-9.73,3.03,1.65,143.37,45.32788000000002
2023-03-23 22-15-51-421427,0,0,1550,1450,0.176,-12.662,0.25,-0.52,-9.77,2.99,1.68,143.33,45.28788000000003
2023-03-23 22-15-51-437093,0,0,1550,1450,0.088,-12.574,0.28,-0.5,-9.75,2.96,1.71,143.28,45.23788000000002
2023-03-23 22-15-51-453180,0,0,1550,1450,0.088,-12.662,0.28,-0.51,-9.74,2.92,1.74,143.23,45.18788000000001
2023-03-23 22-15-51-469573,0,0,1550,1450,0.088,-12.662,0.28,-0.52,-9.72,2.88,1.77,143.19,45.147880000000015
2023-03-23 22-15-51-484973,0,0,1550,1450,0.088,-12.662,0.29,-0.5,-9.76,2.85,1.8,143.15,45.10788000000002
2023-03-23 22-15-51-505267,0,0,1550,1450,0.088,-12.662,0.31,-0.49,-9.76,2.81,1.84,143.1,45.05788000000001
2023-03-23 22-15-51-534835,0,0,1550,1450,0.088,-12.662,0.31,-0.48,-9.74,2.77,1.88,143.05,45.00788000000003
2023-03-23 22-15-51-550073,0,0,1550,1450,0.088,-12.662,0.31,-0.47,-9.74,2.74,1.92,143.01,44.96788000000001
2023-03-23 22-15-51-564843,0,0,1550,1450,0.088,-12.662,0.3,-0.48,-9.77,2.7,1.96,142.96,44.917880000000025
2023-03-23 22-15-51-582129,0,0,1550,1450,0.088,-12.574,0.32,-0.45,-9.77,2.67,2.0,142.92,44.877880000000005
2023-03-23 22-15-51-596787,0,0,1550,1450,0.088,-12.662,0.3,-0.43,-9.79,2.64,2.05,142.87,44.82788000000002
2023-03-23 22-15-51-613126,0,0,1550,1450,0.088,-12.662,0.32,-0.42,-9.76,2.6,2.1,142.82,44.77788000000001
2023-03-23 22-15-51-635195,0,0,1550,1450,0.088,-12.662,0.33,-0.43,-9.74,2.57,2.14,142.77,44.72788000000003
2023-03-23 22-15-51-660644,0,0,1550,1450,0.088,-12.662,0.35,-0.45,-9.75,2.53,2.19,142.73,44.68788000000001
2023-03-23 22-15-51-677306,0,0,1550,1450,0.088,-12.662,0.36,-0.43,-9.77,2.5,2.24,142.68,44.637880000000024
2023-03-23 22-15-51-696843,0,0,1550,1450,0.088,-12.662,0.38,-0.44,-9.77,2.47,2.28,142.63,44.58788000000001
2023-03-23 22-15-51-728068,0,0,1550,1450,0.088,-12.662,0.38,-0.43,-9.76,2.44,2.33,142.58,44.53788000000003
2023-03-23 22-15-51-768759,0,0,1550,1450,0.176,-12.662,0.4,-0.43,-9.8,2.42,2.37,142.54,44.49788000000001
2023-03-23 22-15-51-795208,0,0,1550,1450,0.088,-12.662,0.4,-0.41,-9.77,2.39,2.41,142.49,44.447880000000026
2023-03-23 22-15-51-822743,0,0,1550,1450,0.088,-12.574,0.41,-0.39,-9.77,2.36,2.45,142.45,44.407880000000006
2023-03-23 22-15-51-837606,0,0,1550,1450,0.088,-12.662,0.42,-0.37,-9.75,2.33,2.48,142.4,44.35788000000002
2023-03-23 22-15-51-858814,0,0,1550,1450,0.088,-12.574,0.42,-0.42,-9.76,2.3,2.51,142.35,44.30788000000001
2023-03-23 22-15-51-884708,0,0,1550,1450,0.088,-12.662,0.41,-0.36,-9.81,2.27,2.54,142.3,44.25788000000003
2023-03-23 22-15-51-900696,0,0,1550,1450,0.088,-12.662,0.42,-0.43,-9.79,2.24,2.56,142.25,44.20788000000002
2023-03-23 22-15-51-918293,0,0,1550,1450,0.088,-12.662,0.44,-0.42,-9.77,2.21,2.58,142.21,44.167880000000025
2023-03-23 22-15-51-932822,0,0,1550,1450,0.088,-12.662,0.43,-0.4,-9.75,2.18,2.6,142.16,44.117880000000014
2023-03-23 22-15-51-949541,0,0,1550,1450,0.088,-12.662,0.43,-0.39,-9.77,2.15,2.61,142.11,44.06788000000003
2023-03-23 22-15-51-965866,0,0,1550,1450,0.088,-12.662,0.44,-0.37,-9.78,2.12,2.62,142.05,44.00788000000003
2023-03-23 22-15-51-996887,0,0,1550,1450,0.088,-12.662,0.47,-0.36,-9.8,2.09,2.63,142.0,43.95788000000002
2023-03-23 22-15-52-016455,0,0,1550,1450,0.088,-12.662,0.46,-0.36,-9.77,2.05,2.64,141.95,43.907880000000006
2023-03-23 22-15-52-045825,0,0,1550,1450,0.088,-12.662,0.47,-0.34,-9.78,2.02,2.64,141.9,43.85788000000002
2023-03-23 22-15-52-080757,0,0,1550,1450,0.088,-12.662,0.48,-0.36,-9.78,1.99,2.64,141.85,43.80788000000001
2023-03-23 22-15-52-118333,0,0,1550,1450,0.088,-12.662,0.49,-0.36,-9.81,1.95,2.64,141.8,43.75788000000003
2023-03-23 22-15-52-143100,0,0,1550,1450,0.176,-12.662,0.48,-0.34,-9.77,1.92,2.64,141.75,43.70788000000002
2023-03-23 22-15-52-161916,0,0,1550,1450,0.088,-12.662,0.46,-0.32,-9.79,1.89,2.64,141.69,43.647880000000015
2023-03-23 22-15-52-193071,0,0,1550,1450,0.088,-12.662,0.45,-0.34,-9.77,1.85,2.63,141.64,43.59788
2023-03-23 22-15-52-221363,0,0,1550,1450,0.088,-12.662,0.48,-0.34,-9.81,1.81,2.62,141.59,43.54788000000002
2023-03-23 22-15-52-242916,0,0,1550,1450,0.088,-12.574,0.48,-0.3,-9.77,1.78,2.61,141.54,43.49788000000001
2023-03-23 22-15-52-269641,0,0,1550,1450,0.088,-12.574,0.48,-0.29,-9.77,1.74,2.6,141.49,43.447880000000026
2023-03-23 22-15-52-285390,0,0,1550,1450,0.088,-12.662,0.48,-0.31,-9.79,1.7,2.58,141.44,43.397880000000015
2023-03-23 22-15-52-301500,0,0,1550,1450,0.088,-12.662,0.49,-0.3,-9.81,1.67,2.56,141.39,43.34788
2023-03-23 22-15-52-319144,0,0,1550,1450,0.088,-12.662,0.48,-0.28,-9.77,1.63,2.54,141.35,43.30788000000001
2023-03-23 22-15-52-350410,0,0,1550,1450,0.088,-12.662,0.48,-0.26,-9.77,1.59,2.51,141.3,43.25788000000003
2023-03-23 22-15-52-364997,0,0,1550,1450,0.088,-12.574,0.47,-0.25,-9.8,1.55,2.49,141.26,43.21788000000001
2023-03-23 22-15-52-382856,0,0,1550,1450,0.088,-12.662,0.45,-0.25,-9.79,1.51,2.46,141.21,43.167880000000025
2023-03-23 22-15-52-397892,0,0,1550,1450,0.088,-12.662,0.45,-0.24,-9.78,1.47,2.43,141.16,43.117880000000014
2023-03-23 22-15-52-414288,0,0,1550,1450,0.088,-12.662,0.44,-0.24,-9.81,1.44,2.39,141.11,43.06788000000003
2023-03-23 22-15-52-428897,0,0,1550,1450,0.176,-12.662,0.46,-0.28,-9.82,1.39,2.36,141.05,43.00788000000003
2023-03-23 22-15-52-458978,0,0,1550,1450,0.088,-12.662,0.46,-0.26,-9.83,1.35,2.32,141.0,42.95788000000002
2023-03-23 22-15-52-477675,0,0,1550,1450,0.088,-12.662,0.45,-0.24,-9.79,1.31,2.28,140.94,42.897880000000015
2023-03-23 22-15-52-492921,0,0,1550,1450,0.088,-12.574,0.45,-0.22,-9.78,1.26,2.25,140.89,42.84788
2023-03-23 22-15-52-510237,0,0,1550,1450,0.088,-12.662,0.46,-0.21,-9.8,1.22,2.2,140.84,42.79788000000002
2023-03-23 22-15-52-545759,0,0,1550,1450,0.088,-12.662,0.46,-0.2,-9.82,1.17,2.16,140.78,42.73788000000002
2023-03-23 22-15-52-574088,0,0,1550,1450,0.088,-12.662,0.47,-0.17,-9.78,1.12,2.12,140.72,42.677880000000016
2023-03-23 22-15-52-591251,0,0,1550,1450,0.088,-12.662,0.44,-0.2,-9.78,1.08,2.07,140.66,42.617880000000014
2023-03-23 22-15-52-606198,0,0,1550,1450,0.088,-12.662,0.43,-0.2,-9.81,1.03,2.03,140.59,42.54788000000002
2023-03-23 22-15-52-621165,0,0,1550,1450,0.088,-12.662,0.44,-0.18,-9.83,0.98,1.98,140.53,42.48788000000002
2023-03-23 22-15-52-637396,0,0,1550,1450,0.088,-12.662,0.44,-0.2,-9.8,0.93,1.92,140.46,42.417880000000025
2023-03-23 22-15-52-654252,0,0,1550,1450,0.088,-12.574,0.43,-0.17,-9.78,0.88,1.87,140.4,42.35788000000002
2023-03-23 22-15-52-670000,0,0,1550,1450,0.088,-12.662,0.43,-0.16,-9.86,0.83,1.81,140.33,42.28788000000003
2023-03-23 22-15-52-686641,0,0,1550,1450,0.088,-12.662,0.45,-0.2,-9.83,0.78,1.75,140.27,42.22788000000003
2023-03-23 22-15-52-700857,0,0,1550,1450,0.088,-12.662,0.43,-0.19,-9.87,0.73,1.68,140.2,42.157880000000006
2023-03-23 22-15-52-718101,0,0,1550,1450,0.088,-12.662,0.41,-0.17,-9.8,0.68,1.6,140.13,42.08788000000001
2023-03-23 22-15-52-735649,0,0,1550,1450,0.088,-12.662,0.41,-0.16,-9.84,0.62,1.52,140.06,42.01788000000002
2023-03-23 22-15-52-764923,0,0,1550,1450,0.088,-12.662,0.41,-0.11,-9.85,0.57,1.43,139.99,41.947880000000026
2023-03-23 22-15-52-781083,0,0,1550,1450,0.088,-12.662,0.4,-0.16,-9.88,0.52,1.34,139.93,41.887880000000024
2023-03-23 22-15-52-800183,0,0,1550,1450,0.176,-12.662,0.4,-0.12,-9.87,0.46,1.24,139.85,41.80788000000001
2023-03-23 22-15-52-829308,0,0,1550,1450,0.088,-12.662,0.39,-0.11,-9.88,0.4,1.12,139.78,41.73788000000002
2023-03-23 22-15-52-844885,0,0,1550,1450,0.088,-12.662,0.38,-0.13,-9.9,0.35,1.0,139.7,41.657880000000006
2023-03-23 22-15-52-862053,0,0,1550,1450,0.088,-12.662,0.37,-0.14,-9.91,0.29,0.87,139.63,41.58788000000001
2023-03-23 22-15-52-878562,0,0,1550,1450,0.088,-12.662,0.35,-0.12,-9.91,0.23,0.72,139.55,41.50788000000003
2023-03-23 22-15-52-894678,0,0,1550,1450,0.088,-12.662,0.31,-0.07,-9.93,0.17,0.57,139.48,41.43788000000001
2023-03-23 22-15-52-908776,0,0,1550,1450,0.088,-12.662,0.31,-0.08,-9.92,0.11,0.4,139.4,41.35788000000002
2023-03-23 22-15-52-925829,0,0,1550,1450,0.088,-12.662,0.28,-0.08,-9.95,0.04,0.21,139.32,41.27788000000001
2023-03-23 22-15-52-942734,0,0,1550,1450,0.088,-12.662,0.25,-0.06,-9.93,-0.02,0.02,139.24,41.197880000000026
2023-03-23 22-15-52-957851,0,0,1550,1450,0.176,-12.662,0.21,-0.05,-9.95,-0.08,-0.19,139.15,41.10788000000002
2023-03-23 22-15-52-973088,0,0,1550,1450,0.088,-12.662,0.19,-0.05,-9.95,-0.15,-0.41,139.07,41.02788000000001
2023-03-23 22-15-52-989311,0,0,1550,1450,0.176,-12.662,0.16,-0.05,-9.96,-0.22,-0.64,138.97,40.927880000000016
2023-03-23 22-15-53-005691,0,0,1550,1450,0.176,-12.574,0.11,-0.03,-9.98,-0.29,-0.88,138.88,40.83788000000001
2023-03-23 22-15-53-021817,0,0,1550,1450,0.088,-12.662,0.08,0.02,-9.97,-0.36,-1.14,138.79,40.74788000000001
2023-03-23 22-15-53-036796,0,0,1550,1450,0.176,-12.662,0.05,-0.0,-9.96,-0.43,-1.41,138.69,40.647880000000015
2023-03-23 22-15-53-054254,0,0,1550,1450,0.088,-12.574,0.0,-0.01,-9.95,-0.5,-1.68,138.59,40.54788000000002
2023-03-23 22-15-53-068892,0,0,1550,1450,0.088,-12.662,-0.06,-0.01,-9.98,-0.58,-1.97,138.48,40.43788000000001
2023-03-23 22-15-53-085543,0,0,1550,1450,0.088,-12.662,-0.13,0.06,-10.0,-0.66,-2.27,138.38,40.33788000000001
2023-03-23 22-15-53-100800,0,0,1550,1450,0.088,-12.662,-0.18,0.03,-9.97,-0.74,-2.58,138.28,40.23788000000002
2023-03-23 22-15-53-118277,0,0,1550,1450,0.088,-12.574,-0.24,0.06,-9.94,-0.81,-2.89,138.17,40.127880000000005
2023-03-23 22-15-53-132833,0,0,1550,1450,0.088,-12.662,-0.32,0.09,-9.93,-0.9,-3.22,138.07,40.02788000000001
2023-03-23 22-15-53-150219,0,0,1549,1451,0.088,-12.662,-0.35,0.16,-9.95,-0.98,-3.55,137.97,39.927880000000016
2023-03-23 22-15-53-165162,0,0,1549,1451,0.088,-12.662,-0.41,0.16,-9.93,-1.06,-3.89,137.86,39.81788000000003
2023-03-23 22-15-53-205016,0,0,1549,1451,0.088,-12.662,-0.46,0.17,-9.93,-1.15,-4.22,137.75,39.70788000000002
2023-03-23 22-15-53-243358,0,0,1549,1451,0.088,-12.662,-0.53,0.2,-9.87,-1.24,-4.56,137.65,39.60788000000002
2023-03-23 22-15-53-260736,0,0,1549,1451,0.088,-12.662,-0.61,0.21,-9.89,-1.32,-4.9,137.53,39.48788000000002
2023-03-23 22-15-53-277046,0,0,1549,1451,0.088,-12.662,-0.67,0.23,-9.89,-1.41,-5.23,137.42,39.377880000000005
2023-03-23 22-15-53-295212,0,0,1549,1451,0.088,-12.662,-0.73,0.24,-9.86,-1.5,-5.57,137.31,39.26788000000002
2023-03-23 22-15-53-309284,0,0,1549,1451,0.088,-12.662,-0.78,0.25,-9.84,-1.59,-5.9,137.2,39.157880000000006
2023-03-23 22-15-53-328481,0,0,1549,1451,0.088,-12.662,-0.86,0.29,-9.83,-1.68,-6.22,137.09,39.04788000000002
2023-03-23 22-15-53-356620,0,0,1549,1451,0.088,-12.662,-0.92,0.27,-9.85,-1.77,-6.54,136.98,38.93788000000001
2023-03-23 22-15-53-373704,0,0,1549,1451,0.088,-12.662,-0.97,0.32,-9.78,-1.86,-6.85,136.87,38.82788000000002
2023-03-23 22-15-53-388712,0,0,1549,1451,0.176,-12.662,-1.05,0.36,-9.8,-1.95,-7.16,136.76,38.71788000000001
2023-03-23 22-15-53-406070,0,0,1549,1451,0.088,-12.662,-1.12,0.38,-9.79,-2.04,-7.47,136.65,38.60788000000002
2023-03-23 22-15-53-421210,0,0,1549,1451,0.088,-12.662,-1.16,0.42,-9.75,-2.13,-7.76,136.54,38.49788000000001
2023-03-23 22-15-53-437678,0,0,1549,1451,0.088,-12.574,-1.2,0.42,-9.73,-2.22,-8.04,136.43,38.387880000000024
2023-03-23 22-15-53-452716,0,0,1549,1451,0.088,-12.662,-1.26,0.45,-9.73,-2.32,-8.31,136.31,38.26788000000002
2023-03-23 22-15-53-469247,0,0,1549,1451,0.088,-12.662,-1.32,0.46,-9.74,-2.41,-8.57,136.2,38.157880000000006
2023-03-23 22-15-53-484772,0,0,1549,1451,0.176,-12.662,-1.37,0.48,-9.74,-2.51,-8.82,136.09,38.04788000000002
2023-03-23 22-15-53-503983,0,0,1548,1452,0.088,-12.662,-1.4,0.5,-9.69,-2.6,-9.06,135.98,37.93788000000001
2023-03-23 22-15-53-533666,0,0,1548,1452,0.176,-12.574,-1.46,0.49,-9.66,-2.69,-9.29,135.86,37.81788000000003
2023-03-23 22-15-53-548549,0,0,1548,1452,0.088,-12.662,-1.51,0.54,-9.65,-2.78,-9.5,135.75,37.70788000000002
2023-03-23 22-15-53-566366,0,0,1548,1452,0.088,-12.662,-1.55,0.59,-9.7,-2.87,-9.71,135.63,37.58788000000001
2023-03-23 22-15-53-582126,0,0,1548,1452,0.088,-12.662,-1.57,0.58,-9.62,-2.96,-9.9,135.52,37.47788000000003
2023-03-23 22-15-53-596775,0,0,1548,1452,0.176,-12.662,-1.63,0.63,-9.6,-3.05,-10.08,135.41,37.367880000000014
2023-03-23 22-15-53-613086,0,0,1548,1452,0.088,-12.574,-1.74,0.69,-9.54,-3.14,-10.25,135.3,37.25788000000003
2023-03-23 22-15-53-630162,0,0,1548,1452,0.088,-12.662,-1.77,0.67,-9.55,-3.23,-10.39,135.19,37.147880000000015
2023-03-23 22-15-53-646293,0,0,1548,1452,0.088,-12.662,-1.79,0.66,-9.56,-3.32,-10.52,135.09,37.04788000000002
2023-03-23 22-15-53-660706,0,0,1548,1452,0.088,-12.662,-1.81,0.68,-9.49,-3.41,-10.63,134.98,36.93788000000001
2023-03-23 22-15-53-677215,0,0,1548,1452,0.088,-12.574,-1.84,0.69,-9.56,-3.5,-10.72,134.87,36.82788000000002
2023-03-23 22-15-53-694035,0,0,1548,1452,0.088,-12.662,-1.88,0.71,-9.54,-3.58,-10.79,134.77,36.72788000000003
2023-03-23 22-15-53-724565,0,0,1548,1452,0.088,-12.662,-1.9,0.68,-9.49,-3.67,-10.86,134.67,36.627880000000005
2023-03-23 22-15-53-740673,0,0,1548,1452,0.176,-12.662,-1.9,0.69,-9.48,-3.75,-10.91,134.57,36.52788000000001
2023-03-23 22-15-53-757711,0,0,1548,1452,0.088,-12.662,-1.89,0.73,-9.49,-3.84,-10.94,134.47,36.427880000000016
2023-03-23 22-15-53-773114,0,0,1548,1452,0.176,-12.662,-1.89,0.82,-9.51,-3.92,-10.96,134.37,36.32788000000002
2023-03-23 22-15-53-788549,0,0,1548,1452,0.088,-12.662,-1.88,0.81,-9.49,-4.0,-10.96,134.27,36.22788000000003
2023-03-23 22-15-53-804824,0,0,1548,1452,0.176,-12.662,-1.87,0.83,-9.5,-4.08,-10.93,134.16,36.117880000000014
2023-03-23 22-15-53-822137,0,0,1547,1453,0.176,-12.662,-1.85,0.86,-9.49,-4.16,-10.89,134.06,36.01788000000002
2023-03-23 22-15-53-837679,0,0,1547,1453,0.176,-12.574,-1.83,0.83,-9.55,-4.23,-10.83,133.96,35.917880000000025
2023-03-23 22-15-53-853830,0,0,1547,1453,0.088,-12.662,-1.81,0.83,-9.54,-4.31,-10.75,133.87,35.82788000000002
2023-03-23 22-15-53-869054,0,0,1547,1453,0.088,-12.662,-1.79,0.84,-9.55,-4.39,-10.66,133.77,35.72788000000003
2023-03-23 22-15-53-884818,0,0,1547,1453,0.088,-12.662,-1.77,0.89,-9.54,-4.46,-10.56,133.67,35.627880000000005
2023-03-23 22-15-53-901425,0,0,1547,1453,0.088,-12.662,-1.76,0.9,-9.54,-4.53,-10.44,133.57,35.52788000000001
2023-03-23 22-15-53-918356,0,0,1547,1453,0.088,-12.662,-1.75,0.89,-9.56,-4.61,-10.31,133.48,35.43788000000001
2023-03-23 22-15-53-933324,0,0,1547,1453,0.088,-12.662,-1.72,0.91,-9.54,-4.68,-10.17,133.38,35.33788000000001
2023-03-23 22-15-53-948610,0,0,1547,1453,0.088,-12.662,-1.69,0.92,-9.52,-4.75,-10.01,133.28,35.23788000000002
2023-03-23 22-15-53-965951,0,0,1547,1453,0.088,-12.662,-1.68,0.95,-9.59,-4.82,-9.85,133.19,35.147880000000015
2023-03-23 22-15-53-980991,0,0,1547,1453,0.088,-12.662,-1.64,0.93,-9.62,-4.89,-9.68,133.09,35.04788000000002
2023-03-23 22-15-53-997568,0,0,1547,1453,0.088,-12.662,-1.59,0.96,-9.61,-4.95,-9.5,133.0,34.95788000000002
2023-03-23 22-15-54-014484,0,0,1547,1453,0.088,-12.662,-1.54,0.97,-9.58,-5.02,-9.32,132.9,34.85788000000002
2023-03-23 22-15-54-028539,0,0,1547,1453,0.088,-12.662,-1.51,1.0,-9.6,-5.09,-9.13,132.81,34.76788000000002
2023-03-23 22-15-54-045174,0,0,1547,1453,0.088,-12.662,-1.47,1.0,-9.65,-5.16,-8.93,132.71,34.667880000000025
2023-03-23 22-15-54-060815,0,0,1547,1453,0.088,-12.662,-1.45,1.01,-9.64,-5.22,-8.73,132.62,34.57788000000002
2023-03-23 22-15-54-077556,0,0,1547,1453,0.088,-12.574,-1.4,1.03,-9.63,-5.29,-8.53,132.52,34.47788000000003
2023-03-23 22-15-54-092605,0,0,1547,1453,0.088,-12.574,-1.38,1.04,-9.61,-5.35,-8.33,132.43,34.387880000000024
2023-03-23 22-15-54-109326,0,0,1547,1453,0.088,-12.574,-1.35,1.05,-9.64,-5.41,-8.13,132.33,34.28788000000003
2023-03-23 22-15-54-124405,0,0,1547,1453,0.088,-12.662,-1.3,1.06,-9.66,-5.48,-7.92,132.24,34.197880000000026
2023-03-23 22-15-54-141617,0,0,1547,1453,0.088,-12.662,-1.28,1.04,-9.65,-5.54,-7.73,132.15,34.10788000000002
2023-03-23 22-15-54-156757,0,0,1546,1454,0.088,-12.662,-1.26,1.07,-9.65,-5.61,-7.53,132.06,34.01788000000002
2023-03-23 22-15-54-173714,0,0,1546,1454,0.176,-12.662,-1.22,1.07,-9.65,-5.67,-7.33,131.97,33.927880000000016
2023-03-23 22-15-54-188814,0,0,1546,1454,0.088,-12.662,-1.17,1.09,-9.68,-5.74,-7.13,131.89,33.84788
2023-03-23 22-15-54-206048,0,0,1546,1454,0.088,-12.662,-1.14,1.1,-9.66,-5.8,-6.94,131.8,33.75788000000003
2023-03-23 22-15-54-220564,0,0,1546,1454,0.088,-12.662,-1.13,1.09,-9.7,-5.87,-6.75,131.72,33.677880000000016
2023-03-23 22-15-54-237651,0,0,1546,1454,0.088,-12.662,-1.09,1.13,-9.65,-5.93,-6.57,131.64,33.59788
2023-03-23 22-15-54-253402,0,0,1546,1454,0.088,-12.662,-1.05,1.14,-9.67,-5.99,-6.39,131.55,33.50788000000003
2023-03-23 22-15-54-269984,0,0,1546,1454,0.088,-12.574,-1.01,1.14,-9.69,-6.05,-6.22,131.47,33.427880000000016
2023-03-23 22-15-54-284698,0,0,1546,1454,0.088,-12.662,-0.98,1.16,-9.68,-6.11,-6.05,131.39,33.34788
2023-03-23 22-15-54-301282,0,0,1546,1454,0.088,-12.662,-0.93,1.17,-9.68,-6.16,-5.89,131.31,33.26788000000002
2023-03-23 22-15-54-317514,0,0,1546,1454,0.088,-12.662,-0.92,1.16,-9.68,-6.22,-5.74,131.24,33.197880000000026
2023-03-23 22-15-54-333950,0,0,1546,1454,0.088,-12.574,-0.91,1.14,-9.68,-6.28,-5.6,131.16,33.117880000000014
2023-03-23 22-15-54-349874,0,0,1546,1454,0.088,-12.662,-0.88,1.16,-9.7,-6.33,-5.46,131.08,33.03788000000003
2023-03-23 22-15-54-364694,0,0,1546,1454,0.088,-12.662,-0.86,1.2,-9.69,-6.39,-5.33,131.01,32.96788000000001
2023-03-23 22-15-54-381775,0,0,1546,1454,0.176,-12.662,-0.84,1.18,-9.68,-6.44,-5.2,130.94,32.897880000000015
2023-03-23 22-15-54-396892,0,0,1546,1454,0.088,-12.662,-0.82,1.16,-9.71,-6.49,-5.09,130.88,32.83788000000001
2023-03-23 22-15-54-412793,0,0,1546,1454,0.088,-12.662,-0.8,1.18,-9.71,-6.55,-4.98,130.81,32.76788000000002
2023-03-23 22-15-54-429252,0,0,1546,1454,0.088,-12.662,-0.77,1.19,-9.67,-6.6,-4.88,130.74,32.697880000000026
2023-03-23 22-15-54-444865,0,0,1546,1454,0.088,-12.662,-0.75,1.21,-9.68,-6.65,-4.79,130.68,32.637880000000024
2023-03-23 22-15-54-461953,0,0,1546,1454,0.088,-12.574,-0.74,1.2,-9.69,-6.7,-4.7,130.62,32.57788000000002
2023-03-23 22-15-54-477365,0,0,1546,1454,0.088,-12.662,-0.73,1.22,-9.69,-6.75,-4.62,130.55,32.50788000000003
2023-03-23 22-15-54-492686,0,0,1546,1454,0.088,-12.662,-0.71,1.24,-9.69,-6.8,-4.55,130.49,32.447880000000026
2023-03-23 22-15-54-509704,0,0,1546,1454,0.088,-12.662,-0.69,1.22,-9.69,-6.84,-4.49,130.44,32.397880000000015
2023-03-23 22-15-54-527973,0,0,1546,1454,0.088,-12.662,-0.7,1.22,-9.72,-6.89,-4.43,130.38,32.33788000000001
2023-03-23 22-15-54-556375,0,0,1546,1454,0.088,-12.662,-0.69,1.25,-9.65,-6.94,-4.38,130.32,32.27788000000001
2023-03-23 22-15-54-573819,0,0,1546,1454,0.088,-12.662,-0.69,1.27,-9.72,-6.99,-4.35,130.27,32.22788000000003
2023-03-23 22-15-54-589653,0,0,1546,1454,0.088,-12.662,-0.67,1.25,-9.69,-7.03,-4.31,130.22,32.177880000000016
2023-03-23 22-15-54-605250,0,0,1546,1454,0.088,-12.662,-0.67,1.27,-9.69,-7.08,-4.29,130.17,32.127880000000005
2023-03-23 22-15-54-620401,0,0,1546,1454,0.088,-12.662,-0.65,1.29,-9.7,-7.13,-4.27,130.12,32.07788000000002
2023-03-23 22-15-54-638233,0,0,1546,1454,0.088,-12.662,-0.65,1.28,-9.68,-7.17,-4.26,130.07,32.02788000000001
2023-03-23 22-15-54-654317,0,0,1545,1455,0.088,-12.662,-0.65,1.28,-9.67,-7.22,-4.26,130.02,31.977880000000027
2023-03-23 22-15-54-685553,0,0,1545,1455,0.088,-12.662,-0.65,1.29,-9.71,-7.26,-4.26,129.98,31.937880000000007
2023-03-23 22-15-54-700621,0,0,1545,1455,0.176,-12.574,-0.65,1.32,-9.69,-7.3,-4.28,129.93,31.887880000000024
2023-03-23 22-15-54-718804,0,0,1545,1455,0.176,-12.662,-0.66,1.32,-9.68,-7.34,-4.3,129.88,31.837880000000013
2023-03-23 22-15-54-732455,0,0,1545,1455,0.088,-12.662,-0.67,1.31,-9.7,-7.39,-4.34,129.83,31.78788000000003
2023-03-23 22-15-54-748800,0,0,1545,1455,0.088,-12.662,-0.69,1.32,-9.73,-7.43,-4.38,129.78,31.73788000000002
2023-03-23 22-15-54-765896,0,0,1545,1455,0.088,-12.662,-0.71,1.36,-9.66,-7.47,-4.43,129.73,31.687880000000007
2023-03-23 22-15-54-780607,0,0,1545,1455,0.088,-12.662,-0.72,1.36,-9.66,-7.52,-4.49,129.68,31.637880000000024
2023-03-23 22-15-54-798177,0,0,1545,1455,0.088,-12.662,-0.72,1.33,-9.71,-7.56,-4.55,129.63,31.587880000000013
2023-03-23 22-15-54-813253,0,0,1545,1455,0.088,-12.662,-0.71,1.35,-9.69,-7.6,-4.63,129.58,31.53788000000003
2023-03-23 22-15-54-828686,0,0,1545,1455,0.088,-12.662,-0.72,1.38,-9.67,-7.64,-4.71,129.52,31.477880000000027
2023-03-23 22-15-54-844560,0,0,1545,1455,0.088,-12.662,-0.75,1.38,-9.64,-7.68,-4.79,129.46,31.417880000000025
2023-03-23 22-15-54-864775,0,0,1545,1455,0.088,-12.574,-0.75,1.37,-9.69,-7.72,-4.88,129.41,31.367880000000014
2023-03-23 22-15-54-893949,0,0,1545,1455,0.088,-12.662,-0.75,1.41,-9.67,-7.76,-4.97,129.34,31.29788000000002
2023-03-23 22-15-54-908441,0,0,1545,1455,0.088,-12.662,-0.77,1.4,-9.69,-7.8,-5.07,129.28,31.23788000000002
2023-03-23 22-15-54-925146,0,0,1545,1455,0.088,-12.662,-0.81,1.41,-9.65,-7.84,-5.17,129.22,31.177880000000016
2023-03-23 22-15-54-942058,0,0,1545,1455,0.088,-12.662,-0.83,1.4,-9.7,-7.88,-5.28,129.15,31.107880000000023
2023-03-23 22-15-54-957873,0,0,1545,1455,0.088,-12.662,-0.82,1.43,-9.66,-7.92,-5.39,129.08,31.03788000000003
2023-03-23 22-15-54-973105,0,0,1545,1455,0.176,-12.662,-0.85,1.43,-9.63,-7.96,-5.5,129.01,30.967880000000008
2023-03-23 22-15-54-989915,0,0,1545,1455,0.088,-12.662,-0.9,1.4,-9.65,-7.99,-5.62,128.95,30.907880000000006
2023-03-23 22-15-55-006018,0,0,1545,1455,0.088,-12.574,-0.91,1.42,-9.68,-8.02,-5.74,128.88,30.837880000000013
2023-03-23 22-15-55-020641,0,0,1545,1455,0.088,-12.574,-0.92,1.44,-9.64,-8.06,-5.86,128.81,30.76788000000002
2023-03-23 22-15-55-036782,0,0,1545,1455,0.088,-12.662,-0.95,1.45,-9.64,-8.09,-5.98,128.74,30.697880000000026
2023-03-23 22-15-55-052742,0,0,1545,1455,0.088,-12.662,-0.98,1.44,-9.63,-8.12,-6.1,128.67,30.627880000000005
2023-03-23 22-15-55-069569,0,0,1545,1455,0.088,-12.662,-1.01,1.48,-9.65,-8.15,-6.23,128.6,30.55788000000001
2023-03-23 22-15-55-085815,0,0,1545,1455,0.088,-12.662,-1.04,1.49,-9.64,-8.19,-6.35,128.52,30.477880000000027
2023-03-23 22-15-55-101694,0,0,1545,1455,0.088,-12.662,-1.06,1.47,-9.61,-8.22,-6.48,128.44,30.397880000000015
2023-03-23 22-15-55-116679,0,0,1545,1455,0.088,-12.662,-1.09,1.46,-9.64,-8.25,-6.61,128.35,30.30788000000001
2023-03-23 22-15-55-132921,0,0,1545,1455,0.088,-12.662,-1.08,1.48,-9.63,-8.28,-6.75,128.26,30.217880000000008
2023-03-23 22-15-55-148645,0,0,1545,1455,0.088,-12.662,-1.1,1.47,-9.57,-8.3,-6.88,128.17,30.127880000000005
2023-03-23 22-15-55-166082,0,0,1545,1455,0.088,-12.662,-1.16,1.48,-9.58,-8.32,-7.01,128.08,30.03788000000003
2023-03-23 22-15-55-180652,0,0,1544,1456,0.088,-12.662,-1.2,1.45,-9.61,-8.34,-7.14,127.99,29.947880000000012
2023-03-23 22-15-55-197327,0,0,1544,1456,0.176,-12.662,-1.19,1.48,-9.6,-8.36,-7.27,127.89,29.847880000000018
2023-03-23 22-15-55-212671,0,0,1544,1456,0.088,-12.662,-1.21,1.47,-9.6,-8.37,-7.4,127.8,29.757880000000014
2023-03-23 22-15-55-229807,0,0,1544,1456,0.088,-12.662,-1.26,1.49,-9.57,-8.39,-7.53,127.7,29.65788000000002
2023-03-23 22-15-55-244959,0,0,1544,1456,0.088,-12.662,-1.28,1.5,-9.57,-8.39,-7.65,127.6,29.55788000000001
2023-03-23 22-15-55-261702,0,0,1544,1456,0.176,-12.662,-1.3,1.53,-9.57,-8.41,-7.78,127.5,29.457880000000017
2023-03-23 22-15-55-276591,0,0,1544,1456,0.088,-12.662,-1.31,1.51,-9.57,-8.42,-7.9,127.39,29.347880000000018
2023-03-23 22-15-55-293417,0,0,1544,1456,0.088,-12.574,-1.33,1.5,-9.55,-8.42,-8.01,127.28,29.23788000000002
2023-03-23 22-15-55-308584,0,0,1544,1456,0.088,-12.574,-1.33,1.5,-9.58,-8.42,-8.13,127.16,29.117880000000014
2023-03-23 22-15-55-325677,0,0,1544,1456,0.088,-12.662,-1.35,1.49,-9.56,-8.41,-8.24,127.04,28.997880000000023
2023-03-23 22-15-55-341353,0,0,1544,1456,0.088,-12.662,-1.39,1.47,-9.53,-8.41,-8.35,126.92,28.87788000000002
2023-03-23 22-15-55-357600,0,0,1544,1456,0.088,-12.662,-1.43,1.49,-9.53,-8.4,-8.44,126.8,28.757880000000014
2023-03-23 22-15-55-373136,0,0,1544,1456,0.088,-12.662,-1.42,1.47,-9.53,-8.39,-8.54,126.67,28.62788000000002
2023-03-23 22-15-55-388847,0,0,1544,1456,0.088,-12.662,-1.42,1.48,-9.55,-8.38,-8.63,126.54,28.497880000000023
2023-03-23 22-15-55-405119,0,0,1544,1456,0.088,-12.662,-1.45,1.49,-9.5,-8.36,-8.72,126.41,28.367880000000014
2023-03-23 22-15-55-420824,0,0,1544,1456,0.088,-12.662,-1.47,1.47,-9.49,-8.35,-8.81,126.28,28.23788000000002
2023-03-23 22-15-55-437013,0,0,1544,1456,0.088,-12.662,-1.46,1.49,-9.52,-8.33,-8.88,126.15,28.107880000000023
2023-03-23 22-15-55-452627,0,0,1543,1457,0.088,-12.662,-1.47,1.49,-9.51,-8.3,-8.96,126.01,27.967880000000022
2023-03-23 22-15-55-468772,0,0,1543,1457,0.088,-12.662,-1.5,1.47,-9.51,-8.28,-9.03,125.87,27.82788000000002
2023-03-23 22-15-55-484537,0,0,1543,1457,0.088,-12.662,-1.52,1.47,-9.46,-8.25,-9.1,125.72,27.677880000000016
2023-03-23 22-15-55-501580,0,0,1543,1457,0.088,-12.662,-1.5,1.44,-9.48,-8.22,-9.16,125.57,27.52788000000001
2023-03-23 22-15-55-516715,0,0,1543,1457,0.088,-12.662,-1.53,1.46,-9.49,-8.18,-9.21,125.41,27.367880000000014
2023-03-23 22-15-55-532767,0,0,1543,1457,0.088,-12.662,-1.53,1.43,-9.48,-8.14,-9.26,125.26,27.217880000000022
2023-03-23 22-15-55-549001,0,0,1543,1457,0.088,-12.662,-1.55,1.43,-9.47,-8.1,-9.3,125.1,27.05788000000001
2023-03-23 22-15-55-564684,0,0,1543,1457,0.088,-12.662,-1.54,1.42,-9.48,-8.06,-9.34,124.93,26.887880000000024
2023-03-23 22-15-55-580513,0,0,1543,1457,0.088,-12.662,-1.57,1.44,-9.48,-8.01,-9.37,124.77,26.727880000000013
2023-03-23 22-15-55-596772,0,0,1543,1457,0.088,-12.662,-1.58,1.42,-9.45,-7.96,-9.4,124.6,26.55788000000001
2023-03-23 22-15-55-612320,0,0,1543,1457,0.088,-12.574,-1.58,1.39,-9.47,-7.91,-9.43,124.43,26.387880000000024
2023-03-23 22-15-55-629097,0,0,1543,1457,0.088,-12.662,-1.56,1.4,-9.42,-7.86,-9.45,124.26,26.217880000000022
2023-03-23 22-15-55-647061,0,0,1542,1458,0.088,-12.662,-1.56,1.4,-9.45,-7.8,-9.46,124.07,26.02788000000001
2023-03-23 22-15-55-660655,0,0,1542,1458,0.088,-12.662,-1.56,1.35,-9.45,-7.74,-9.46,123.89,25.847880000000018
2023-03-23 22-15-55-677777,0,0,1542,1458,0.088,-12.662,-1.56,1.31,-9.46,-7.68,-9.46,123.71,25.66788000000001
2023-03-23 22-15-55-693421,0,0,1542,1458,0.088,-12.662,-1.55,1.33,-9.45,-7.62,-9.45,123.51,25.467880000000022
2023-03-23 22-15-55-710905,0,0,1542,1458,0.088,-12.662,-1.57,1.34,-9.42,-7.55,-9.43,123.32,25.27788000000001
2023-03-23 22-15-55-724602,0,0,1542,1458,0.088,-12.662,-1.57,1.31,-9.45,-7.49,-9.4,123.12,25.07788000000002
2023-03-23 22-15-55-753084,0,0,1542,1458,0.088,-12.662,-1.54,1.29,-9.45,-7.41,-9.38,122.92,24.87788000000002
2023-03-23 22-15-55-774767,0,0,1542,1458,0.088,-12.662,-1.49,1.26,-9.44,-7.34,-9.34,122.72,24.677880000000016
2023-03-23 22-15-55-807438,0,0,1542,1458,0.088,-12.662,-1.48,1.26,-9.5,-7.27,-9.3,122.52,24.477880000000013
2023-03-23 22-15-55-820760,0,0,1542,1458,0.088,-12.662,-1.47,1.2,-9.41,-7.19,-9.25,122.32,24.27788000000001
2023-03-23 22-15-55-838220,0,0,1542,1458,0.088,-12.662,-1.45,1.18,-9.49,-7.12,-9.2,122.13,24.087880000000013
2023-03-23 22-15-55-852573,0,0,1541,1459,0.088,-12.662,-1.44,1.2,-9.48,-7.03,-9.14,121.94,23.897880000000015
2023-03-23 22-15-55-869666,0,0,1541,1459,0.088,-12.662,-1.46,1.22,-9.49,-6.95,-9.08,121.74,23.697880000000012
2023-03-23 22-15-55-884398,0,0,1541,1459,0.088,-12.574,-1.44,1.19,-9.5,-6.87,-9.01,121.55,23.507880000000014
2023-03-23 22-15-55-900828,0,0,1541,1459,0.088,-12.662,-1.44,1.16,-9.49,-6.78,-8.94,121.37,23.32788000000002
2023-03-23 22-15-55-916354,0,0,1541,1459,0.088,-12.662,-1.43,1.17,-9.54,-6.7,-8.86,121.18,23.137880000000024
2023-03-23 22-15-55-933675,0,0,1541,1459,0.088,-12.662,-1.43,1.16,-9.51,-6.61,-8.78,121.0,22.957880000000017
2023-03-23 22-15-55-969420,0,0,1541,1459,0.088,-12.662,-1.43,1.11,-9.51,-6.53,-8.69,120.81,22.76788000000002
2023-03-23 22-15-55-997615,0,0,1541,1459,0.088,-12.662,-1.41,1.09,-9.54,-6.43,-8.6,120.63,22.587880000000013
2023-03-23 22-15-56-013672,0,0,1541,1459,0.088,-12.574,-1.37,1.1,-9.54,-6.34,-8.51,120.45,22.40788000000002
2023-03-23 22-15-56-028668,0,0,1541,1459,0.088,-12.662,-1.37,1.07,-9.58,-6.25,-8.41,120.27,22.227880000000013
2023-03-23 22-15-56-045101,0,0,1541,1459,0.088,-12.574,-1.37,1.06,-9.56,-6.16,-8.32,120.1,22.05788000000001
2023-03-23 22-15-56-060593,0,0,1540,1460,0.088,-12.662,-1.32,1.04,-9.57,-6.06,-8.23,119.92,21.87788000000002
2023-03-23 22-15-56-077721,0,0,1540,1460,0.088,-12.574,-1.33,1.04,-9.59,-5.97,-8.13,119.75,21.707880000000017
2023-03-23 22-15-56-092758,0,0,1540,1460,0.176,-12.662,-1.33,1.03,-9.61,-5.87,-8.04,119.58,21.537880000000015
2023-03-23 22-15-56-108955,0,0,1540,1460,0.088,-12.662,-1.33,0.99,-9.6,-5.78,-7.95,119.41,21.367880000000014
2023-03-23 22-15-56-124426,0,0,1540,1460,0.088,-12.662,-1.29,0.98,-9.64,-5.68,-7.86,119.24,21.197880000000012
2023-03-23 22-15-56-140622,0,0,1540,1460,0.088,-12.662,-1.28,0.98,-9.62,-5.59,-7.77,119.08,21.037880000000015
2023-03-23 22-15-56-156871,0,0,1540,1460,0.088,-12.662,-1.27,0.94,-9.62,-5.49,-7.68,118.91,20.867880000000014
2023-03-23 22-15-56-173033,0,0,1540,1460,0.088,-12.662,-1.3,0.92,-9.63,-5.39,-7.59,118.75,20.707880000000017
2023-03-23 22-15-56-189872,0,0,1540,1460,0.088,-12.662,-1.25,0.89,-9.65,-5.3,-7.49,118.59,20.54788000000002
2023-03-23 22-15-56-204710,0,0,1540,1460,0.088,-12.662,-1.24,0.9,-9.7,-5.2,-7.4,118.43,20.387880000000024
2023-03-23 22-15-56-221520,0,0,1540,1460,0.088,-12.662,-1.21,0.88,-9.63,-5.11,-7.32,118.27,20.227880000000013
2023-03-23 22-15-56-237714,0,0,1540,1460,0.088,-12.662,-1.21,0.85,-9.64,-5.02,-7.23,118.12,20.07788000000002
2023-03-23 22-15-56-253771,0,0,1539,1461,0.176,-12.662,-1.17,0.86,-9.63,-4.92,-7.15,117.97,19.927880000000016
2023-03-23 22-15-56-268493,0,0,1539,1461,0.088,-12.662,-1.15,0.83,-9.67,-4.83,-7.06,117.82,19.77788000000001
2023-03-23 22-15-56-285873,0,0,1539,1461,0.088,-12.662,-1.15,0.8,-9.65,-4.74,-6.98,117.67,19.62788000000002
2023-03-23 22-15-56-300853,0,0,1539,1461,0.176,-12.662,-1.15,0.76,-9.68,-4.64,-6.89,117.53,19.48788000000002
2023-03-23 22-15-56-316626,0,0,1539,1461,0.088,-12.662,-1.14,0.75,-9.69,-4.55,-6.8,117.38,19.337880000000013
2023-03-23 22-15-56-333037,0,0,1539,1461,0.088,-12.662,-1.14,0.8,-9.7,-4.46,-6.72,117.24,19.197880000000012
2023-03-23 22-15-56-349941,0,0,1539,1461,0.176,-12.662,-1.13,0.74,-9.67,-4.37,-6.64,117.1,19.05788000000001
2023-03-23 22-15-56-365142,0,0,1539,1461,0.088,-12.662,-1.15,0.73,-9.68,-4.27,-6.56,116.96,18.91788000000001
2023-03-23 22-15-56-380713,0,0,1539,1461,0.088,-12.662,-1.15,0.7,-9.75,-4.18,-6.49,116.83,18.787880000000015
2023-03-23 22-15-56-397776,0,0,1539,1461,0.088,-12.662,-1.09,0.72,-9.74,-4.09,-6.42,116.7,18.65788000000002
2023-03-23 22-15-56-413200,0,0,1539,1461,0.088,-12.662,-1.09,0.7,-9.68,-3.99,-6.36,116.57,18.52788000000001
2023-03-23 22-15-56-429095,0,0,1539,1461,0.088,-12.662,-1.09,0.68,-9.69,-3.9,-6.3,116.44,18.397880000000015
2023-03-23 22-15-56-444113,0,0,1539,1461,0.088,-12.662,-1.05,0.67,-9.68,-3.81,-6.24,116.32,18.27788000000001
2023-03-23 22-15-56-460482,0,0,1539,1461,0.088,-12.662,-1.05,0.63,-9.73,-3.71,-6.18,116.19,18.147880000000015
2023-03-23 22-15-56-476623,0,0,1539,1461,0.176,-12.662,-1.02,0.6,-9.69,-3.62,-6.12,116.07,18.02788000000001
2023-03-23 22-15-56-493376,0,0,1538,1462,0.088,-12.662,-1.02,0.58,-9.72,-3.53,-6.07,115.95,17.90788000000002
2023-03-23 22-15-56-509944,0,0,1538,1462,0.088,-12.662,-1.01,0.59,-9.71,-3.44,-6.02,115.83,17.787880000000015
2023-03-23 22-15-56-524728,0,0,1538,1462,0.088,-12.662,-1.01,0.57,-9.71,-3.35,-5.98,115.72,17.677880000000016
2023-03-23 22-15-56-541239,0,0,1538,1462,0.088,-12.574,-1.01,0.57,-9.7,-3.26,-5.94,115.6,17.55788000000001
2023-03-23 22-15-56-557112,0,0,1538,1462,0.088,-12.662,-1.03,0.56,-9.69,-3.17,-5.91,115.49,17.447880000000012
2023-03-23 22-15-56-574269,0,0,1538,1462,0.088,-12.574,-1.01,0.54,-9.73,-3.09,-5.88,115.38,17.337880000000013
2023-03-23 22-15-56-596201,0,0,1538,1462,0.088,-12.662,-1.0,0.53,-9.73,-3.0,-5.86,115.28,17.23788000000002
2023-03-23 22-15-56-620603,0,0,1538,1462,0.088,-12.662,-1.0,0.48,-9.71,-2.91,-5.84,115.18,17.137880000000024
2023-03-23 22-15-56-657483,0,0,1538,1462,0.176,-12.662,-0.99,0.47,-9.74,-2.83,-5.82,115.08,17.037880000000015
2023-03-23 22-15-56-684404,0,0,1538,1462,0.088,-12.662,-0.98,0.47,-9.73,-2.74,-5.82,114.98,16.93788000000002
2023-03-23 22-15-56-700957,0,0,1538,1462,0.088,-12.662,-0.98,0.46,-9.73,-2.65,-5.82,114.88,16.837880000000013
2023-03-23 22-15-56-717976,0,0,1538,1462,0.088,-12.662,-1.0,0.43,-9.68,-2.57,-5.82,114.79,16.747880000000023
2023-03-23 22-15-56-733635,0,0,1538,1462,0.088,-12.662,-1.0,0.46,-9.72,-2.49,-5.83,114.7,16.65788000000002
2023-03-23 22-15-56-748460,0,0,1538,1462,0.088,-12.662,-1.02,0.42,-9.74,-2.41,-5.85,114.6,16.55788000000001
2023-03-23 22-15-56-764707,0,0,1538,1462,0.088,-12.662,-1.03,0.4,-9.74,-2.33,-5.87,114.51,16.467880000000022
2023-03-23 22-15-56-781005,0,0,1538,1462,0.088,-12.662,-1.04,0.41,-9.68,-2.25,-5.89,114.42,16.37788000000002
2023-03-23 22-15-56-797348,0,0,1538,1462,0.088,-12.662,-1.04,0.39,-9.72,-2.18,-5.92,114.33,16.287880000000015
2023-03-23 22-15-56-812591,0,0,1538,1462,0.088,-12.662,-1.03,0.37,-9.75,-2.1,-5.95,114.24,16.197880000000012
2023-03-23 22-15-56-828401,0,0,1538,1462,0.088,-12.662,-1.01,0.36,-9.69,-2.03,-5.99,114.16,16.117880000000014
2023-03-23 22-15-56-845563,0,0,1538,1462,0.088,-12.662,-1.04,0.32,-9.71,-1.96,-6.03,114.07,16.02788000000001
2023-03-23 22-15-56-861458,0,0,1537,1463,0.088,-12.662,-1.02,0.32,-9.68,-1.89,-6.07,113.99,15.947880000000012
2023-03-23 22-15-56-877203,0,0,1537,1463,0.176,-12.662,-1.0,0.31,-9.74,-1.82,-6.11,113.91,15.867880000000014
2023-03-23 22-15-56-892578,0,0,1537,1463,0.088,-12.662,-1.02,0.3,-9.69,-1.76,-6.15,113.83,15.787880000000015
2023-03-23 22-15-56-909370,0,0,1537,1463,0.088,-12.662,-1.04,0.26,-9.7,-1.7,-6.19,113.75,15.707880000000017
2023-03-23 22-15-56-925304,0,0,1537,1463,0.088,-12.662,-1.07,0.27,-9.68,-1.63,-6.22,113.67,15.627880000000019
2023-03-23 22-15-56-940799,0,0,1537,1463,0.088,-12.662,-1.07,0.3,-9.72,-1.57,-6.26,113.58,15.537880000000015
2023-03-23 22-15-56-956575,0,0,1537,1463,0.088,-12.662,-1.07,0.25,-9.67,-1.51,-6.3,113.51,15.467880000000022
2023-03-23 22-15-56-972467,0,0,1537,1463,0.088,-12.574,-1.1,0.23,-9.66,-1.46,-6.34,113.42,15.377880000000019
2023-03-23 22-15-56-989208,0,0,1537,1463,0.088,-12.662,-1.11,0.24,-9.67,-1.4,-6.37,113.35,15.307880000000011
2023-03-23 22-15-57-005231,0,0,1537,1463,0.176,-12.662,-1.09,0.23,-9.69,-1.34,-6.41,113.27,15.227880000000013
2023-03-23 22-15-57-032982,0,0,1537,1463,0.088,-12.662,-1.06,0.2,-9.7,-1.29,-6.44,113.2,15.15788000000002
2023-03-23 22-15-57-052521,0,0,1537,1463,0.088,-12.662,-1.09,0.2,-9.68,-1.24,-6.47,113.12,15.077880000000022
2023-03-23 22-15-57-068448,0,0,1537,1463,0.088,-12.574,-1.11,0.18,-9.68,-1.19,-6.49,113.05,15.007880000000014
2023-03-23 22-15-57-084398,0,0,1537,1463,0.176,-12.662,-1.1,0.2,-9.69,-1.13,-6.51,112.98,14.937880000000021
2023-03-23 22-15-57-100509,0,0,1537,1463,0.088,-12.574,-1.07,0.19,-9.66,-1.09,-6.52,112.91,14.867880000000014
2023-03-23 22-15-57-117102,0,0,1537,1463,0.088,-12.662,-1.09,0.16,-9.67,-1.04,-6.53,112.84,14.79788000000002
2023-03-23 22-15-57-132283,0,0,1537,1463,0.088,-12.574,-1.12,0.17,-9.66,-0.99,-6.54,112.77,14.727880000000013
2023-03-23 22-15-57-150299,0,0,1537,1463,0.088,-12.662,-1.11,0.18,-9.7,-0.94,-6.55,112.71,14.667880000000011
2023-03-23 22-15-57-165031,0,0,1537,1463,0.088,-12.662,-1.09,0.15,-9.64,-0.9,-6.55,112.64,14.597880000000018
2023-03-23 22-15-57-180737,0,0,1537,1463,0.088,-12.662,-1.12,0.16,-9.7,-0.85,-6.55,112.57,14.52788000000001
2023-03-23 22-15-57-198002,0,0,1537,1463,0.088,-12.662,-1.12,0.14,-9.69,-0.81,-6.55,112.51,14.467880000000022
2023-03-23 22-15-57-213660,0,0,1537,1463,0.088,-12.662,-1.11,0.14,-9.69,-0.76,-6.55,112.44,14.397880000000015
2023-03-23 22-15-57-230571,0,0,1537,1463,0.088,-12.662,-1.11,0.12,-9.68,-0.72,-6.54,112.38,14.337880000000013
2023-03-23 22-15-57-245219,0,0,1537,1463,0.088,-12.662,-1.11,0.12,-9.66,-0.68,-6.54,112.32,14.27788000000001
2023-03-23 22-15-57-261002,0,0,1537,1463,0.088,-12.662,-1.12,0.1,-9.67,-0.63,-6.54,112.26,14.217880000000022
2023-03-23 22-15-57-276461,0,0,1537,1463,0.088,-12.662,-1.13,0.08,-9.67,-0.59,-6.54,112.2,14.15788000000002
2023-03-23 22-15-57-293283,0,0,1537,1463,0.088,-12.662,-1.11,0.07,-9.69,-0.54,-6.54,112.14,14.097880000000018
2023-03-23 22-15-57-309673,0,0,1537,1463,0.088,-12.662,-1.13,0.04,-9.67,-0.5,-6.54,112.08,14.037880000000015
2023-03-23 22-15-57-324299,0,0,1536,1464,0.088,-12.662,-1.15,0.05,-9.68,-0.45,-6.53,112.02,13.977880000000013
2023-03-23 22-15-57-340352,0,0,1536,1464,0.088,-12.662,-1.15,0.04,-9.69,-0.41,-6.54,111.97,13.927880000000016
2023-03-23 22-15-57-357875,0,0,1536,1464,0.088,-12.662,-1.18,0.02,-9.66,-0.36,-6.54,111.91,13.867880000000014
2023-03-23 22-15-57-373152,0,0,1536,1464,0.088,-12.662,-1.19,0.04,-9.73,-0.32,-6.54,111.85,13.807880000000011
2023-03-23 22-15-57-390208,0,0,1536,1464,0.088,-12.574,-1.17,0.07,-9.69,-0.27,-6.55,111.8,13.757880000000014
2023-03-23 22-15-57-405500,0,0,1536,1464,0.088,-12.662,-1.12,0.06,-9.71,-0.23,-6.56,111.75,13.707880000000017
2023-03-23 22-15-57-420722,0,0,1536,1464,0.088,-12.662,-1.12,0.03,-9.67,-0.19,-6.57,111.7,13.65788000000002
2023-03-23 22-15-57-437819,0,0,1536,1464,0.088,-12.662,-1.13,0.01,-9.7,-0.14,-6.58,111.65,13.607880000000023
2023-03-23 22-15-57-453970,0,0,1536,1464,0.176,-12.662,-1.14,-0.01,-9.7,-0.09,-6.58,111.59,13.54788000000002
2023-03-23 22-15-57-471360,0,0,1536,1464,0.176,-12.662,-1.09,-0.02,-9.69,-0.05,-6.59,111.54,13.497880000000023
2023-03-23 22-15-57-485332,0,0,1536,1464,0.088,-12.662,-1.1,-0.04,-9.68,-0.01,-6.6,111.5,13.457880000000017
2023-03-23 22-15-57-501207,0,0,1536,1464,0.176,-12.574,-1.14,-0.05,-9.7,0.03,-6.6,111.44,13.397880000000015
2023-03-23 22-15-57-516968,0,0,1536,1464,0.088,-12.662,-1.16,-0.05,-9.7,0.08,-6.61,111.39,13.347880000000018
2023-03-23 22-15-57-535094,0,0,1536,1464,0.088,-12.662,-1.13,-0.08,-9.69,0.12,-6.62,111.34,13.29788000000002
2023-03-23 22-15-57-548931,0,0,1536,1464,0.088,-12.662,-1.14,-0.08,-9.65,0.16,-6.63,111.29,13.247880000000023
2023-03-23 22-15-57-565108,0,0,1536,1464,0.088,-12.662,-1.17,-0.05,-9.72,0.2,-6.64,111.24,13.197880000000012
2023-03-23 22-15-57-581295,0,0,1536,1464,0.088,-12.662,-1.16,-0.06,-9.72,0.24,-6.64,111.19,13.147880000000015
2023-03-23 22-15-57-597558,0,0,1536,1464,0.088,-12.662,-1.12,-0.05,-9.71,0.28,-6.65,111.14,13.097880000000018
2023-03-23 22-15-57-614106,0,0,1536,1464,0.088,-12.662,-1.11,-0.1,-9.72,0.32,-6.66,111.1,13.057880000000011
2023-03-23 22-15-57-629150,0,0,1536,1464,0.176,-12.662,-1.11,-0.08,-9.7,0.35,-6.66,111.05,13.007880000000014
2023-03-23 22-15-57-645279,0,0,1536,1464,0.088,-12.662,-1.11,-0.09,-9.74,0.39,-6.67,111.0,12.957880000000017
2023-03-23 22-15-57-661114,0,0,1536,1464,0.088,-12.662,-1.1,-0.11,-9.69,0.43,-6.67,110.96,12.917880000000011
2023-03-23 22-15-57-677487,0,0,1536,1464,0.176,-12.574,-1.1,-0.1,-9.71,0.46,-6.68,110.91,12.867880000000014
2023-03-23 22-15-57-693035,0,0,1536,1464,0.088,-12.662,-1.11,-0.14,-9.72,0.5,-6.68,110.86,12.817880000000017
2023-03-23 22-15-57-710718,0,0,1536,1464,0.088,-12.662,-1.09,-0.15,-9.74,0.53,-6.69,110.82,12.77788000000001
2023-03-23 22-15-57-740553,0,0,1536,1464,0.088,-12.574,-1.06,-0.16,-9.71,0.56,-6.69,110.77,12.727880000000013
2023-03-23 22-15-57-756810,0,0,1536,1464,0.088,-12.662,-1.09,-0.15,-9.67,0.6,-6.69,110.72,12.677880000000016
2023-03-23 22-15-57-773030,0,0,1536,1464,0.176,-12.662,-1.13,-0.12,-9.71,0.63,-6.7,110.68,12.637880000000024
2023-03-23 22-15-57-788637,0,0,1536,1464,0.088,-12.662,-1.14,-0.15,-9.71,0.65,-6.7,110.63,12.587880000000013
2023-03-23 22-15-57-805546,0,0,1536,1464,0.088,-12.662,-1.11,-0.11,-9.7,0.68,-6.71,110.59,12.54788000000002
2023-03-23 22-15-57-843481,0,0,1536,1464,0.088,-12.662,-1.1,-0.16,-9.73,0.71,-6.72,110.54,12.497880000000023
2023-03-23 22-15-57-873934,0,0,1536,1464,0.088,-12.662,-1.13,-0.15,-9.7,0.73,-6.73,110.5,12.457880000000017
2023-03-23 22-15-57-901104,0,0,1536,1464,0.088,-12.662,-1.12,-0.17,-9.75,0.76,-6.74,110.45,12.40788000000002
2023-03-23 22-15-57-917575,0,0,1536,1464,0.176,-12.662,-1.09,-0.18,-9.7,0.78,-6.75,110.41,12.367880000000014
2023-03-23 22-15-57-932739,0,0,1536,1464,0.088,-12.662,-1.08,-0.18,-9.72,0.8,-6.77,110.37,12.327880000000022
2023-03-23 22-15-57-948401,0,0,1536,1464,0.088,-12.662,-1.09,-0.2,-9.72,0.83,-6.79,110.32,12.27788000000001
2023-03-23 22-15-57-966451,0,0,1536,1464,0.088,-12.662,-1.11,-0.23,-9.73,0.85,-6.81,110.27,12.227880000000013
2023-03-23 22-15-57-984148,0,0,1536,1464,0.176,-12.662,-1.07,-0.23,-9.71,0.87,-6.83,110.23,12.187880000000021
2023-03-23 22-15-58-013937,0,0,1536,1464,0.088,-12.574,-1.07,-0.21,-9.7,0.89,-6.85,110.18,12.137880000000024
2023-03-23 22-15-58-029605,0,0,1536,1464,0.088,-12.662,-1.1,-0.18,-9.71,0.91,-6.88,110.14,12.097880000000018
2023-03-23 22-15-58-047184,0,0,1536,1464,0.088,-12.662,-1.12,-0.2,-9.72,0.93,-6.91,110.09,12.04788000000002
2023-03-23 22-15-58-061420,0,0,1536,1464,0.088,-12.662,-1.1,-0.22,-9.71,0.94,-6.94,110.06,12.01788000000002
2023-03-23 22-15-58-080378,0,0,1535,1465,0.088,-12.662,-1.07,-0.2,-9.7,0.96,-6.97,110.02,11.977880000000013
2023-03-23 22-15-58-113255,0,0,1535,1465,0.088,-12.662,-1.12,-0.22,-9.74,0.98,-7.01,109.98,11.937880000000021
2023-03-23 22-15-58-147049,0,0,1535,1465,0.088,-12.662,-1.12,-0.23,-9.71,0.99,-7.05,109.94,11.897880000000015
2023-03-23 22-15-58-181125,0,0,1535,1465,0.088,-12.662,-1.09,-0.22,-9.72,1.01,-7.09,109.91,11.867880000000014
2023-03-23 22-15-58-204525,0,0,1535,1465,0.088,-12.662,-1.12,-0.23,-9.7,1.02,-7.14,109.88,11.837880000000013
2023-03-23 22-15-58-221612,0,0,1535,1465,0.088,-12.662,-1.15,-0.22,-9.76,1.04,-7.18,109.84,11.79788000000002
2023-03-23 22-15-58-237101,0,0,1535,1465,0.088,-12.662,-1.16,-0.22,-9.71,1.06,-7.24,109.81,11.76788000000002
2023-03-23 22-15-58-256666,0,0,1535,1465,0.088,-12.662,-1.16,-0.26,-9.71,1.07,-7.28,109.78,11.737880000000018
2023-03-23 22-15-58-285319,0,0,1535,1465,0.088,-12.662,-1.17,-0.24,-9.64,1.09,-7.34,109.74,11.697880000000012
2023-03-23 22-15-58-301302,0,0,1535,1465,0.088,-12.662,-1.23,-0.22,-9.73,1.11,-7.39,109.71,11.667880000000011
2023-03-23 22-15-58-316623,0,0,1535,1465,0.088,-12.662,-1.23,-0.24,-9.67,1.12,-7.45,109.67,11.627880000000019
2023-03-23 22-15-58-334247,0,0,1535,1465,0.088,-12.662,-1.19,-0.25,-9.68,1.14,-7.5,109.64,11.597880000000018
2023-03-23 22-15-58-348558,0,0,1535,1465,0.088,-12.662,-1.23,-0.26,-9.7,1.15,-7.55,109.62,11.577880000000022
2023-03-23 22-15-58-364411,0,0,1535,1465,0.088,-12.662,-1.25,-0.25,-9.69,1.17,-7.61,109.59,11.54788000000002
2023-03-23 22-15-58-383621,0,0,1535,1465,0.088,-12.662,-1.24,-0.24,-9.72,1.18,-7.67,109.56,11.51788000000002
2023-03-23 22-15-58-415454,0,0,1535,1465,0.088,-12.662,-1.22,-0.26,-9.67,1.19,-7.73,109.53,11.487880000000018
2023-03-23 22-15-58-428589,0,0,1535,1465,0.088,-12.662,-1.23,-0.27,-9.69,1.2,-7.78,109.49,11.447880000000012
2023-03-23 22-15-58-451937,0,0,1535,1465,0.088,-12.662,-1.29,-0.24,-9.68,1.22,-7.84,109.46,11.417880000000011
2023-03-23 22-15-58-487879,0,0,1535,1465,0.088,-12.662,-1.28,-0.25,-9.69,1.23,-7.9,109.43,11.387880000000024
2023-03-23 22-15-58-517694,0,0,1535,1465,0.088,-12.662,-1.25,-0.27,-9.67,1.24,-7.95,109.4,11.357880000000023
2023-03-23 22-15-58-541845,0,0,1535,1465,0.088,-12.662,-1.25,-0.26,-9.64,1.25,-8.0,109.37,11.327880000000022
2023-03-23 22-15-58-556951,0,0,1535,1465,0.088,-12.662,-1.28,-0.24,-9.69,1.27,-8.05,109.34,11.29788000000002
2023-03-23 22-15-58-574241,0,0,1535,1465,0.088,-12.662,-1.26,-0.25,-9.69,1.28,-8.1,109.31,11.26788000000002
2023-03-23 22-15-58-589172,0,0,1535,1465,0.088,-12.662,-1.24,-0.24,-9.68,1.3,-8.15,109.27,11.227880000000013
2023-03-23 22-15-58-605568,0,0,1535,1465,0.088,-12.662,-1.24,-0.21,-9.65,1.31,-8.2,109.23,11.187880000000021
2023-03-23 22-15-58-625331,0,0,1535,1465,0.088,-12.662,-1.28,-0.23,-9.64,1.33,-8.24,109.18,11.137880000000024
2023-03-23 22-15-58-657112,0,0,1535,1465,0.088,-12.662,-1.28,-0.22,-9.65,1.34,-8.28,109.13,11.087880000000013
2023-03-23 22-15-58-691460,0,0,1535,1465,0.088,-12.662,-1.27,-0.23,-9.64,1.36,-8.31,109.08,11.037880000000015
2023-03-23 22-15-58-721931,0,0,1535,1465,0.088,-12.662,-1.28,-0.28,-9.65,1.37,-8.34,109.02,10.977880000000013
2023-03-23 22-15-58-755726,0,0,1535,1465,0.088,-12.662,-1.3,-0.27,-9.64,1.39,-8.36,108.96,10.917880000000011
2023-03-23 22-15-58-780537,0,0,1535,1465,0.088,-12.662,-1.32,-0.25,-9.66,1.41,-8.38,108.9,10.857880000000023
2023-03-23 22-15-58-805023,0,0,1535,1465,0.088,-12.662,-1.32,-0.27,-9.64,1.42,-8.4,108.83,10.787880000000015
2023-03-23 22-15-58-828969,0,0,1535,1465,0.176,-12.662,-1.33,-0.31,-9.66,1.44,-8.41,108.76,10.717880000000022
2023-03-23 22-15-58-844234,0,0,1535,1465,0.088,-12.662,-1.34,-0.34,-9.65,1.46,-8.42,108.7,10.65788000000002
2023-03-23 22-15-58-860609,0,0,1535,1465,0.088,-12.662,-1.36,-0.28,-9.63,1.48,-8.42,108.63,10.587880000000013
2023-03-23 22-15-58-877841,0,0,1535,1465,0.088,-12.662,-1.39,-0.24,-9.68,1.5,-8.43,108.55,10.507880000000014
2023-03-23 22-15-58-895909,0,0,1535,1465,0.088,-12.662,-1.36,-0.28,-9.65,1.52,-8.43,108.48,10.437880000000021
2023-03-23 22-15-58-926224,0,0,1535,1465,0.088,-12.662,-1.36,-0.29,-9.65,1.53,-8.43,108.41,10.367880000000014
2023-03-23 22-15-58-941028,0,0,1535,1465,0.088,-12.662,-1.35,-0.32,-9.65,1.55,-8.43,108.34,10.29788000000002
2023-03-23 22-15-58-958794,0,0,1535,1465,0.088,-12.662,-1.35,-0.31,-9.64,1.57,-8.42,108.25,10.207880000000017
2023-03-23 22-15-58-974013,0,0,1535,1465,0.176,-12.662,-1.34,-0.31,-9.65,1.59,-8.41,108.18,10.137880000000024
2023-03-23 22-15-58-988278,0,0,1535,1465,0.088,-12.662,-1.35,-0.31,-9.63,1.61,-8.39,108.09,10.04788000000002
2023-03-23 22-15-59-005798,0,0,1534,1466,0.088,-12.662,-1.36,-0.34,-9.64,1.63,-8.37,108.01,9.967880000000022
2023-03-23 22-15-59-022258,0,0,1534,1466,0.088,-12.662,-1.37,-0.34,-9.66,1.65,-8.35,107.93,9.887880000000024
2023-03-23 22-15-59-039701,0,0,1534,1466,0.088,-12.662,-1.37,-0.3,-9.65,1.67,-8.34,107.85,9.807880000000011
2023-03-23 22-15-59-068986,0,0,1534,1466,0.088,-12.662,-1.39,-0.3,-9.65,1.69,-8.31,107.76,9.717880000000022
2023-03-23 22-15-59-087747,0,0,1534,1466,0.088,-12.662,-1.37,-0.34,-9.65,1.72,-8.29,107.68,9.637880000000024
2023-03-23 22-15-59-116047,0,0,1534,1466,0.088,-12.662,-1.37,-0.35,-9.66,1.74,-8.26,107.59,9.54788000000002
2023-03-23 22-15-59-148436,0,0,1534,1466,0.088,-12.662,-1.36,-0.35,-9.64,1.76,-8.24,107.51,9.467880000000022
2023-03-23 22-15-59-166254,0,0,1534,1466,0.088,-12.662,-1.38,-0.3,-9.72,1.78,-8.22,107.42,9.377880000000019
2023-03-23 22-15-59-180428,0,0,1534,1466,0.088,-12.662,-1.38,-0.31,-9.68,1.8,-8.19,107.34,9.29788000000002
2023-03-23 22-15-59-198129,0,0,1534,1466,0.088,-12.662,-1.36,-0.33,-9.64,1.82,-8.17,107.26,9.217880000000022
2023-03-23 22-15-59-212090,0,0,1534,1466,0.176,-12.574,-1.36,-0.33,-9.65,1.84,-8.14,107.17,9.127880000000019
2023-03-23 22-15-59-229172,0,0,1534,1466,0.088,-12.662,-1.33,-0.31,-9.64,1.86,-8.12,107.08,9.037880000000015
2023-03-23 22-15-59-244297,0,0,1534,1466,0.088,-12.662,-1.34,-0.31,-9.66,1.88,-8.1,107.0,8.957880000000017
2023-03-23 22-15-59-261838,0,0,1534,1466,0.088,-12.662,-1.36,-0.32,-9.66,1.9,-8.08,106.91,8.867880000000014
2023-03-23 22-15-59-278444,0,0,1534,1466,0.088,-12.662,-1.36,-0.34,-9.66,1.92,-8.07,106.82,8.77788000000001
2023-03-23 22-15-59-294053,0,0,1534,1466,0.088,-12.662,-1.32,-0.33,-9.66,1.94,-8.05,106.73,8.687880000000021
2023-03-23 22-15-59-309528,0,0,1534,1466,0.088,-12.662,-1.3,-0.34,-9.65,1.95,-8.03,106.64,8.597880000000018
2023-03-23 22-15-59-325789,0,0,1534,1466,0.088,-12.662,-1.33,-0.35,-9.68,1.97,-8.01,106.55,8.507880000000014
2023-03-23 22-15-59-342168,0,0,1534,1466,0.088,-12.662,-1.32,-0.35,-9.67,1.99,-8.0,106.46,8.417880000000011
2023-03-23 22-15-59-357878,0,0,1534,1466,0.088,-12.662,-1.35,-0.35,-9.68,2.0,-7.98,106.37,8.327880000000022
2023-03-23 22-15-59-374777,0,0,1534,1466,0.088,-12.662,-1.34,-0.37,-9.69,2.02,-7.97,106.29,8.247880000000023
2023-03-23 22-15-59-404283,0,0,1534,1466,0.088,-12.662,-1.34,-0.33,-9.65,2.03,-7.96,106.21,8.167880000000011
2023-03-23 22-15-59-420341,0,0,1534,1466,0.088,-12.662,-1.35,-0.32,-9.67,2.05,-7.94,106.12,8.077880000000022
2023-03-23 22-15-59-437486,0,0,1533,1467,0.088,-12.574,-1.34,-0.36,-9.64,2.06,-7.93,106.03,7.987880000000018
2023-03-23 22-15-59-452507,0,0,1533,1467,0.176,-12.662,-1.31,-0.36,-9.65,2.08,-7.92,105.95,7.90788000000002
2023-03-23 22-15-59-484224,0,0,1533,1467,0.088,-12.662,-1.3,-0.37,-9.68,2.09,-7.9,105.87,7.827880000000022
2023-03-23 22-15-59-500220,0,0,1533,1467,0.088,-12.662,-1.33,-0.36,-9.68,2.11,-7.89,105.78,7.737880000000018
2023-03-23 22-15-59-517654,0,0,1533,1467,0.088,-12.662,-1.33,-0.36,-9.69,2.12,-7.88,105.7,7.65788000000002
2023-03-23 22-15-59-533472,0,0,1533,1467,0.088,-12.662,-1.33,-0.36,-9.67,2.13,-7.86,105.62,7.577880000000022
2023-03-23 22-15-59-548397,0,0,1533,1467,0.088,-12.662,-1.3,-0.39,-9.68,2.14,-7.84,105.54,7.497880000000023
2023-03-23 22-15-59-565365,0,0,1533,1467,0.088,-12.574,-1.27,-0.4,-9.7,2.16,-7.83,105.47,7.427880000000016
2023-03-23 22-15-59-580344,0,0,1533,1467,0.088,-12.662,-1.27,-0.39,-9.7,2.17,-7.81,105.39,7.347880000000018
2023-03-23 22-15-59-597023,0,0,1533,1467,0.088,-12.662,-1.28,-0.39,-9.68,2.18,-7.79,105.32,7.27788000000001
2023-03-23 22-15-59-612280,0,0,1533,1467,0.088,-12.662,-1.28,-0.41,-9.66,2.19,-7.77,105.25,7.207880000000017
2023-03-23 22-15-59-629634,0,0,1533,1467,0.088,-12.662,-1.26,-0.43,-9.67,2.2,-7.74,105.19,7.147880000000015
2023-03-23 22-15-59-644697,0,0,1533,1467,0.088,-12.662,-1.28,-0.42,-9.69,2.21,-7.72,105.13,7.087880000000013
2023-03-23 22-15-59-674285,0,0,1533,1467,0.088,-12.662,-1.29,-0.36,-9.74,2.22,-7.7,105.07,7.02788000000001
2023-03-23 22-15-59-695323,0,0,1533,1467,0.088,-12.662,-1.28,-0.4,-9.69,2.22,-7.67,105.02,6.977880000000013
2023-03-23 22-15-59-725198,0,0,1533,1467,0.088,-12.662,-1.27,-0.39,-9.66,2.23,-7.65,104.98,6.937880000000021
2023-03-23 22-15-59-741584,0,0,1533,1467,0.088,-12.662,-1.27,-0.43,-9.7,2.24,-7.63,104.94,6.897880000000015
2023-03-23 22-15-59-758135,0,0,1533,1467,0.088,-12.662,-1.27,-0.42,-9.71,2.24,-7.6,104.9,6.857880000000023
2023-03-23 22-15-59-774388,0,0,1533,1467,0.088,-12.662,-1.27,-0.4,-9.7,2.25,-7.58,104.86,6.817880000000017
2023-03-23 22-15-59-788931,0,0,1533,1467,0.088,-12.574,-1.27,-0.38,-9.67,2.25,-7.55,104.83,6.7878800000000155
2023-03-23 22-15-59-805025,0,0,1533,1467,0.088,-12.662,-1.27,-0.39,-9.69,2.26,-7.52,104.8,6.757880000000014
2023-03-23 22-15-59-820391,0,0,1533,1467,0.088,-12.662,-1.26,-0.39,-9.69,2.26,-7.49,104.77,6.727880000000013
2023-03-23 22-15-59-836339,0,0,1533,1467,0.088,-12.662,-1.26,-0.38,-9.69,2.26,-7.47,104.74,6.697880000000012
2023-03-23 22-15-59-869003,0,0,1533,1467,0.088,-12.662,-1.23,-0.39,-9.7,2.26,-7.45,104.71,6.667880000000011
2023-03-23 22-15-59-885338,0,0,1533,1467,0.088,-12.662,-1.23,-0.42,-9.71,2.27,-7.42,104.68,6.637880000000024
2023-03-23 22-15-59-901450,0,0,1533,1467,0.088,-12.662,-1.23,-0.42,-9.69,2.27,-7.39,104.66,6.617880000000014
2023-03-23 22-15-59-916472,0,0,1533,1467,0.088,-12.574,-1.23,-0.42,-9.67,2.27,-7.37,104.64,6.597880000000018
2023-03-23 22-15-59-932565,0,0,1533,1467,0.088,-12.662,-1.25,-0.4,-9.7,2.27,-7.34,104.62,6.577880000000022
2023-03-23 22-15-59-950238,0,0,1533,1467,0.088,-12.662,-1.25,-0.41,-9.7,2.27,-7.32,104.61,6.567880000000017
2023-03-23 22-15-59-967525,0,0,1533,1467,0.088,-12.662,-1.25,-0.41,-9.68,2.27,-7.29,104.59,6.547880000000021
2023-03-23 22-15-59-980892,0,0,1533,1467,0.088,-12.662,-1.25,-0.41,-9.67,2.26,-7.26,104.58,6.5378800000000155
2023-03-23 22-15-59-998426,0,0,1533,1467,0.088,-12.662,-1.22,-0.37,-9.67,2.26,-7.24,104.58,6.5378800000000155
2023-03-23 22-16-00-028521,0,0,1533,1467,0.088,-12.662,-1.2,-0.38,-9.73,2.25,-7.22,104.57,6.52788000000001
2023-03-23 22-16-00-060584,0,0,1533,1467,0.088,-12.662,-1.19,-0.4,-9.71,2.25,-7.19,104.56,6.517880000000019
2023-03-23 22-16-00-076564,0,0,1533,1467,0.088,-12.662,-1.19,-0.41,-9.69,2.24,-7.16,104.55,6.507880000000014
2023-03-23 22-16-00-094383,0,0,1533,1467,0.088,-12.662,-1.18,-0.42,-9.69,2.23,-7.13,104.55,6.507880000000014
2023-03-23 22-16-00-109452,0,0,1533,1467,0.088,-12.574,-1.17,-0.4,-9.71,2.23,-7.11,104.55,6.507880000000014
2023-03-23 22-16-00-125934,0,0,1533,1467,0.088,-12.662,-1.18,-0.38,-9.72,2.22,-7.08,104.55,6.507880000000014
2023-03-23 22-16-00-140459,0,0,1533,1467,0.088,-12.662,-1.17,-0.41,-9.71,2.21,-7.05,104.55,6.507880000000014
2023-03-23 22-16-00-157584,0,0,1533,1467,0.176,-12.574,-1.18,-0.42,-9.71,2.2,-7.03,104.55,6.507880000000014
2023-03-23 22-16-00-189266,0,0,1533,1467,0.088,-12.662,-1.21,-0.42,-9.7,2.19,-7.0,104.54,6.497880000000023
2023-03-23 22-16-00-204497,0,0,1533,1467,0.088,-12.662,-1.2,-0.42,-9.69,2.19,-6.97,104.55,6.507880000000014
2023-03-23 22-16-00-221015,0,0,1533,1467,0.088,-12.662,-1.21,-0.38,-9.74,2.18,-6.95,104.55,6.507880000000014
