Timestamp_log,left_angle,right_angle,left_thrust,right_thrust,read_left_angle,read_right_angle,accel_x,accel_y,accel_z,roll,pitch,yaw,e_alpha
2023-03-23 23-27-27-946088,0,0,1530,1470,178.857,-12.926,0.45,1.51,-9.64,-8.98,2.51,155.11,29.90784000000005
2023-03-23 23-27-28-175309,0,0,1530,1470,178.857,-12.926,0.44,1.51,-9.64,-8.95,2.47,155.14,29.937840000000023
2023-03-23 23-27-28-393719,0,0,1530,1470,178.857,-12.926,0.43,1.51,-9.65,-8.95,2.38,155.17,29.967840000000024
2023-03-23 23-27-28-618082,0,0,1530,1470,178.857,-12.926,0.42,1.51,-9.65,-8.98,2.27,155.2,29.997840000000025
2023-03-23 23-27-28-842436,0,0,1530,1470,178.769,-12.926,0.38,1.52,-9.64,-9.0,2.2,155.18,29.977840000000043
2023-03-23 23-27-29-066008,0,0,1530,1470,178.769,-12.926,0.4,1.54,-9.65,-9.09,2.22,153.92,28.717840000000024
2023-03-23 23-27-29-290071,0,0,1530,1470,178.857,-12.926,0.48,1.58,-9.56,-9.22,2.59,151.85,26.64784000000003
2023-03-23 23-27-29-514033,0,0,1530,1470,178.857,-12.926,0.6,1.6,-9.62,-9.41,3.4,149.27,24.067840000000047
2023-03-23 23-27-29-738112,0,0,1530,1470,178.857,-12.838,0.74,1.59,-9.6,-9.57,4.18,146.75,21.547840000000036
2023-03-23 23-27-29-961972,0,0,1530,1470,178.769,-12.926,0.77,1.6,-9.61,-9.58,4.41,145.85,20.64784000000003
2023-03-23 23-27-30-186104,0,0,1530,1470,178.769,-12.838,0.78,1.61,-9.62,-9.51,4.53,145.18,19.977840000000043
2023-03-23 23-27-30-410050,0,0,1530,1470,178.857,-12.926,0.7,1.66,-9.59,-9.44,4.37,143.82,18.61784000000003
2023-03-23 23-27-30-634656,0,0,1530,1470,178.857,-12.926,0.63,1.65,-9.6,-9.64,3.8,140.73,15.527840000000026
2023-03-23 23-27-30-858546,0,0,1530,1470,178.857,-12.926,0.64,1.66,-9.61,-9.81,3.3,137.1,11.89784000000003
2023-03-23 23-27-31-082459,0,0,1530,1470,178.857,-12.926,0.63,1.69,-9.61,-9.94,3.38,134.41,9.207840000000033
2023-03-23 23-27-31-306718,0,0,1530,1470,178.857,-12.838,0.62,1.69,-9.6,-9.91,3.72,132.4,7.197840000000042
2023-03-23 23-27-31-530388,0,0,1530,1470,178.857,-12.926,0.62,1.66,-9.64,-9.74,3.5,130.91,5.707840000000033
2023-03-23 23-27-31-754376,0,0,1530,1470,178.769,-12.926,0.48,1.62,-9.63,-9.58,2.72,129.93,4.727840000000043
2023-03-23 23-27-31-977976,0,0,1530,1470,178.769,-12.926,-0.1,1.6,-9.65,-9.47,-0.83,129.97,4.767840000000035
2023-03-23 23-27-32-201945,0,0,1530,1470,178.769,-12.926,-0.42,1.58,-9.63,-9.42,-2.71,130.88,5.677840000000032
2023-03-23 23-27-32-426029,0,0,1530,1470,178.857,-12.926,-0.7,1.59,-9.61,-9.29,-4.09,131.79,6.587840000000028
2023-03-23 23-27-32-650376,0,0,1530,1470,178.769,-12.926,-0.81,1.55,-9.6,-9.07,-4.94,131.61,6.40784000000005
2023-03-23 23-27-32-875365,0,0,1530,1470,178.857,-12.926,-0.78,1.47,-9.61,-8.6,-4.77,130.22,5.017840000000035
2023-03-23 23-27-33-098059,0,0,1530,1470,178.857,-12.926,-0.46,1.32,-9.67,-7.82,-2.96,127.15,1.947840000000042
2023-03-23 23-27-33-322076,0,0,1530,1470,178.857,-12.926,-0.39,1.32,-9.67,-7.6,-2.46,126.31,1.1078400000000386
2023-03-23 23-27-33-545674,0,0,1530,1470,174.988,-9.233,-0.34,1.19,-9.69,-7.04,-2.0,125.12,-0.08215999999995915
2023-03-23 23-27-33-786118,0,0,1530,1470,45.198,121.172,-0.32,1.1,-9.7,-6.47,-1.69,124.63,-0.5721599999999682
2023-03-23 23-27-34-027052,0,0,1530,1470,0.0,165.931,-0.22,1.04,-9.68,-6.1,-1.49,123.96,-1.24215999999997
2023-03-23 23-27-34-266524,0,0,1530,1470,0.0,165.931,-0.16,0.99,-9.72,-5.85,-1.0,122.81,-2.3921599999999614
2023-03-23 23-27-34-506922,0,0,1530,1470,0.0,165.843,-0.08,0.96,-9.72,-5.71,-0.56,121.66,-3.542159999999967
2023-03-23 23-27-34-745932,0,0,1530,1470,0.088,165.931,-0.01,0.95,-9.72,-5.65,-0.21,120.96,-4.24215999999997
2023-03-23 23-27-34-987143,0,0,1530,1470,0.0,165.931,0.01,0.95,-9.73,-5.65,0.02,120.86,-4.342159999999964
2023-03-23 23-27-35-226157,0,0,1530,1470,0.0,165.931,-0.02,0.95,-9.73,-5.65,0.15,120.96,-4.24215999999997
2023-03-23 23-27-35-465510,0,0,1530,1470,0.0,165.843,-0.15,0.97,-9.5,-5.98,-1.03,119.51,-5.692159999999959
2023-03-23 23-27-35-705573,0,0,1530,1470,0.0,165.843,-0.71,0.93,-9.75,-6.03,-4.12,119.99,-5.212159999999969
2023-03-23 23-27-35-945636,0,0,1530,1470,0.088,165.843,-1.0,1.0,-9.64,-6.02,-5.89,122.77,-2.4321599999999677
2023-03-23 23-27-36-185671,0,0,1530,1470,103.41,62.96,-1.13,1.02,-9.63,-6.15,-6.61,125.76,0.5578400000000414
2023-03-23 23-27-36-409609,0,0,1530,1470,178.945,-12.926,-1.15,1.06,-9.65,-6.27,-6.77,128.46,3.2578400000000443
2023-03-23 23-27-36-633559,0,0,1530,1470,178.857,-12.926,-1.18,1.09,-9.65,-6.36,-6.89,129.6,4.397840000000031
2023-03-23 23-27-36-857645,0,0,1530,1470,178.857,-12.926,-1.1,1.1,-9.63,-6.48,-6.92,130.59,5.38784000000004
2023-03-23 23-27-37-082079,0,0,1530,1470,178.857,-12.926,-1.11,1.1,-9.64,-6.7,-6.63,132.74,7.537840000000045
2023-03-23 23-27-37-305723,0,0,1530,1470,178.857,-12.926,-1.07,1.16,-9.65,-6.87,-6.35,135.49,10.287840000000045
2023-03-23 23-27-37-529722,0,0,1530,1470,178.857,-12.926,-1.05,1.21,-9.66,-6.98,-6.21,138.51,13.307840000000027
2023-03-23 23-27-37-756907,0,0,1530,1470,178.857,-12.926,-1.04,1.19,-9.66,-7.05,-6.2,141.52,16.317840000000047
2023-03-23 23-27-37-986360,0,0,1530,1470,178.857,-12.926,-1.08,1.2,-9.64,-7.12,-6.56,143.98,18.777840000000026
2023-03-23 23-27-38-208396,0,0,1530,1470,178.857,-12.926,-1.15,1.22,-9.63,-7.1,-6.83,144.92,19.717840000000024
2023-03-23 23-27-38-435618,0,0,1530,1470,178.857,-12.926,-1.14,1.19,-9.63,-7.08,-7.06,145.69,20.487840000000034
2023-03-23 23-27-38-657363,0,0,1530,1470,178.857,-13.014,-1.18,1.23,-9.5,-7.26,-7.01,148.4,23.197840000000042
2023-03-23 23-27-38-881470,0,0,1530,1470,178.857,-12.926,-1.09,1.36,-10.06,-7.89,-6.79,150.85,25.64784000000003
2023-03-23 23-27-39-105562,0,0,1530,1470,178.857,-12.926,-1.19,1.39,-9.68,-7.95,-7.31,149.75,24.547840000000036
2023-03-23 23-27-39-328455,0,0,1530,1470,178.857,-12.926,-1.18,1.38,-9.63,-8.16,-7.35,148.22,23.017840000000035
2023-03-23 23-27-39-552687,0,0,1530,1470,178.857,-12.926,-1.27,1.44,-9.58,-8.44,-7.65,146.92,21.717840000000024
2023-03-23 23-27-39-770213,0,0,1530,1470,178.857,-12.926,-1.47,1.47,-9.55,-8.58,-8.34,146.15,20.947840000000042
2023-03-23 23-27-39-996622,0,0,1530,1470,178.857,-12.926,-1.29,1.42,-9.58,-8.33,-7.58,143.12,17.91784000000004
2023-03-23 23-27-40-219148,0,0,1530,1470,178.857,-12.926,-1.04,1.34,-9.58,-7.77,-6.15,140.89,15.687840000000023
2023-03-23 23-27-40-442936,0,0,1530,1470,178.857,-12.926,-0.68,1.21,-9.66,-7.17,-4.17,138.98,13.777840000000026
2023-03-23 23-27-40-667857,0,0,1530,1470,178.857,-12.926,-0.47,1.13,-9.72,-6.63,-2.57,137.74,12.537840000000045
2023-03-23 23-27-40-891156,0,0,1530,1470,178.945,-12.926,-0.33,1.02,-9.69,-5.94,-1.74,137.12,11.91784000000004
2023-03-23 23-27-41-114666,0,0,1530,1470,178.945,-12.926,-0.17,0.81,-9.71,-4.69,-1.12,135.23,10.027840000000026
2023-03-23 23-27-41-337507,0,0,1530,1470,178.857,-12.926,-0.06,0.71,-9.73,-4.22,-0.61,133.92,8.717840000000024
2023-03-23 23-27-41-562818,0,0,1530,1470,178.857,-12.926,0.01,0.64,-9.75,-3.79,-0.11,133.08,7.877840000000049
2023-03-23 23-27-41-786711,0,0,1530,1470,178.857,-12.926,0.04,0.6,-9.77,-3.49,0.28,132.88,7.677840000000032
2023-03-23 23-27-42-011263,0,0,1530,1470,178.857,-12.926,0.05,0.58,-9.77,-3.28,0.09,132.71,7.507840000000044
2023-03-23 23-27-42-235267,0,0,1530,1470,178.857,-12.926,-0.03,0.62,-9.68,-3.24,-0.48,132.04,6.837840000000028
2023-03-23 23-27-42-458371,0,0,1530,1470,178.857,-12.926,-0.02,0.57,-9.77,-3.27,-0.29,130.93,5.727840000000043
2023-03-23 23-27-42-681526,0,0,1530,1470,178.857,-12.926,0.06,0.58,-9.75,-3.41,0.01,129.91,4.707840000000033
2023-03-23 23-27-42-906726,0,0,1530,1470,178.857,-12.926,0.04,0.62,-9.76,-3.64,0.2,129.42,4.217840000000024
2023-03-23 23-27-43-131318,0,0,1530,1470,178.857,-12.926,-0.01,0.67,-9.76,-3.87,0.03,129.42,4.217840000000024
2023-03-23 23-27-43-354139,0,0,1530,1470,178.945,-12.926,-0.11,0.72,-9.74,-4.16,-0.73,129.28,4.077840000000037
2023-03-23 23-27-43-577608,0,0,1530,1470,178.857,-12.926,-0.16,0.78,-9.74,-4.49,-1.0,128.54,3.3378400000000283
2023-03-23 23-27-43-801495,0,0,1530,1470,178.857,-12.926,-0.12,0.84,-9.74,-4.86,-1.03,127.7,2.497840000000039
2023-03-23 23-27-44-027241,0,0,1530,1470,178.857,-12.926,-0.15,0.88,-9.72,-5.1,-1.11,127.19,1.987840000000034
2023-03-23 23-27-44-251066,0,0,1530,1470,178.857,-12.926,-0.23,0.94,-9.74,-5.3,-1.1,127.41,2.207840000000033
2023-03-23 23-27-44-473978,0,0,1530,1470,178.857,-12.926,-0.26,0.96,-9.71,-5.57,-1.68,127.96,2.75784000000003
2023-03-23 23-27-44-698617,0,0,1530,1470,178.857,-12.926,-0.36,0.99,-9.71,-5.78,-2.29,127.93,2.727840000000043
2023-03-23 23-27-44-921511,0,0,1530,1470,178.857,-12.926,-0.39,1.02,-9.7,-6.01,-2.43,127.44,2.237840000000034
2023-03-23 23-27-45-147177,0,0,1530,1470,178.857,-12.926,-0.37,1.08,-9.72,-6.29,-2.35,126.9,1.697840000000042
2023-03-23 23-27-45-371317,0,0,1530,1470,178.857,-12.926,-0.4,1.09,-9.69,-6.47,-2.22,126.94,1.737840000000034
2023-03-23 23-27-45-593598,0,0,1530,1470,178.857,-12.926,-0.41,1.14,-9.7,-6.62,-2.3,127.7,2.497840000000039
2023-03-23 23-27-45-817676,0,0,1530,1470,178.857,-12.926,-0.46,1.13,-9.69,-6.84,-2.87,128.33,3.127840000000049
2023-03-23 23-27-46-041739,0,0,1530,1470,178.857,-12.926,-0.56,1.19,-9.69,-6.99,-3.3,128.29,3.0878400000000283
2023-03-23 23-27-46-265824,0,0,1530,1470,178.857,-12.926,-0.5,1.21,-9.61,-7.12,-3.27,127.96,2.75784000000003
2023-03-23 23-27-46-489996,0,0,1530,1470,178.857,-12.926,-0.53,1.24,-9.65,-7.26,-3.31,127.93,2.727840000000043
2023-03-23 23-27-46-713755,0,0,1530,1470,178.857,-12.926,-0.53,1.22,-9.69,-7.26,-3.19,128.5,3.2978400000000363
2023-03-23 23-27-46-937770,0,0,1530,1470,178.857,-12.926,-0.52,1.27,-9.62,-7.23,-3.23,129.57,4.3678400000000295
2023-03-23 23-27-47-161785,0,0,1530,1470,178.857,-12.926,-0.63,1.25,-9.66,-7.31,-3.76,130.24,5.037840000000045
2023-03-23 23-27-47-385990,0,0,1530,1470,178.857,-12.926,-0.63,1.21,-9.65,-7.34,-3.67,130.25,5.047840000000036
2023-03-23 23-27-47-609849,0,0,1530,1470,178.857,-12.926,-0.55,1.25,-9.68,-7.39,-3.44,130.19,4.987840000000034
2023-03-23 23-27-47-833731,0,0,1530,1470,178.857,-12.926,-0.55,1.26,-9.72,-7.45,-3.27,130.66,5.457840000000033
2023-03-23 23-27-48-057742,0,0,1530,1470,178.945,-12.926,-0.64,1.28,-9.65,-7.44,-3.27,131.65,6.447840000000042
2023-03-23 23-27-48-281740,0,0,1530,1470,178.857,-12.926,-0.6,1.31,-9.69,-7.5,-3.55,131.57,6.3678400000000295
2023-03-23 23-27-48-507311,0,0,1530,1470,178.857,-12.926,-0.59,1.31,-9.66,-7.63,-4.03,130.53,5.327840000000037
2023-03-23 23-27-48-730711,0,0,1530,1470,178.857,-12.926,-0.63,1.32,-9.67,-7.64,-3.94,130.08,4.877840000000049
2023-03-23 23-27-48-953680,0,0,1530,1470,178.857,-12.926,-0.68,1.33,-9.65,-7.61,-3.97,130.44,5.237840000000034
2023-03-23 23-27-49-178252,0,0,1530,1470,178.945,-12.926,-0.68,1.27,-9.67,-7.42,-3.88,130.81,5.607840000000039
2023-03-23 23-27-49-401456,0,0,1530,1470,178.945,-12.926,-0.67,1.23,-9.69,-7.22,-3.98,131.41,6.207840000000033
2023-03-23 23-27-49-625983,0,0,1530,1470,178.945,-12.926,-0.73,1.23,-9.65,-7.19,-4.47,132.24,7.037840000000045
2023-03-23 23-27-49-849541,0,0,1530,1470,178.945,-12.926,-0.8,1.21,-9.66,-7.14,-4.79,132.72,7.517840000000035
2023-03-23 23-27-50-073664,0,0,1530,1470,178.945,-12.926,-0.74,1.19,-9.67,-7.04,-4.44,133.39,8.187840000000023
2023-03-23 23-27-50-297693,0,0,1530,1470,178.945,-12.926,-0.75,1.18,-9.67,-6.89,-4.16,134.84,9.63784000000004
2023-03-23 23-27-50-521873,0,0,1530,1470,178.857,-12.926,-0.66,1.15,-9.7,-6.78,-4.4,134.56,9.357840000000039
2023-03-23 23-27-50-745896,0,0,1530,1470,178.857,-12.926,-0.78,1.18,-9.67,-6.77,-4.87,134.72,9.517840000000035
2023-03-23 23-27-50-970095,0,0,1530,1470,178.857,-12.926,-0.77,1.13,-9.66,-6.68,-4.95,135.37,10.16784000000004
2023-03-23 23-27-51-193744,0,0,1530,1470,178.857,-12.926,-0.83,1.12,-9.66,-6.46,-4.8,136.09,10.88784000000004
2023-03-23 23-27-51-418012,0,0,1530,1470,178.857,-12.926,-0.76,1.05,-9.71,-6.14,-4.62,137.65,12.447840000000042
2023-03-23 23-27-51-642089,0,0,1530,1470,178.945,-12.926,-0.78,1.07,-9.76,-6.12,-4.9,138.89,13.687840000000023
2023-03-23 23-27-51-865718,0,0,1530,1470,178.857,-12.926,-0.88,1.06,-9.63,-6.22,-5.3,140.27,15.067840000000047
2023-03-23 23-27-52-090022,0,0,1530,1470,178.857,-12.926,-0.84,1.05,-9.63,-6.21,-5.03,141.84,16.63784000000004
2023-03-23 23-27-52-313749,0,0,1530,1470,178.857,-12.926,-0.83,1.05,-9.67,-6.13,-4.83,142.98,17.777840000000026
2023-03-23 23-27-52-538068,0,0,1530,1470,178.857,-12.926,-0.78,1.04,-9.7,-6.1,-4.54,144.04,18.83784000000003
2023-03-23 23-27-52-761921,0,0,1530,1470,178.857,-12.926,-0.79,1.07,-9.69,-6.11,-4.72,145.48,20.277840000000026
2023-03-23 23-27-52-985989,0,0,1530,1470,178.945,-12.926,-0.8,1.07,-9.67,-6.19,-5.03,147.01,21.807840000000027
2023-03-23 23-27-53-209792,0,0,1530,1470,178.857,-12.926,-0.81,1.07,-9.66,-6.24,-5.0,148.55,23.347840000000048
2023-03-23 23-27-53-433481,0,0,1530,1470,178.857,-12.926,-0.77,1.04,-9.69,-6.15,-4.42,150.78,25.577840000000037
2023-03-23 23-27-53-657517,0,0,1530,1470,178.857,-12.926,-0.69,1.06,-9.68,-6.09,-4.14,151.79,26.58784000000003
2023-03-23 23-27-53-881575,0,0,1530,1470,178.857,-12.926,-0.63,1.05,-9.72,-6.12,-4.18,152.99,27.787840000000045
2023-03-23 23-27-54-105500,0,0,1530,1470,178.945,-12.926,-0.75,1.06,-9.68,-6.23,-4.61,154.14,28.937840000000023
2023-03-23 23-27-54-329827,0,0,1530,1470,178.857,-12.926,-0.76,1.11,-9.64,-6.33,-4.48,155.35,30.14784000000003
2023-03-23 23-27-54-553342,0,0,1530,1470,178.857,-12.926,-0.66,1.06,-9.71,-6.26,-3.82,156.72,31.517840000000035
2023-03-23 23-27-54-777555,0,0,1530,1470,178.857,-12.926,-0.64,1.08,-9.69,-6.27,-3.88,157.5,32.297840000000036
2023-03-23 23-27-55-001647,0,0,1530,1470,178.857,-12.926,-0.67,1.08,-9.68,-6.27,-4.3,158.19,32.987840000000034
2023-03-23 23-27-55-225844,0,0,1530,1470,178.945,-12.926,-0.71,1.09,-9.66,-6.33,-4.22,158.92,33.717840000000024
2023-03-23 23-27-55-450090,0,0,1530,1470,178.945,-12.926,-0.69,1.09,-9.68,-6.38,-4.02,159.73,34.527840000000026
2023-03-23 23-27-55-673884,0,0,1530,1470,178.857,-12.926,-0.62,1.07,-9.7,-6.31,-3.72,159.99,34.787840000000045
2023-03-23 23-27-55-897689,0,0,1530,1470,178.857,-12.926,-0.61,1.08,-9.68,-6.26,-3.54,160.18,34.97784000000004
2023-03-23 23-27-56-121675,0,0,1530,1470,178.857,-12.926,-0.59,1.09,-9.7,-6.37,-3.73,160.65,35.44784000000004
2023-03-23 23-27-56-345794,0,0,1530,1470,178.857,-12.926,-0.69,1.09,-9.66,-6.51,-4.38,161.05,35.84784000000005
2023-03-23 23-27-56-569474,0,0,1530,1470,178.857,-12.926,-0.61,1.11,-9.68,-6.54,-3.98,161.41,36.20784000000003
2023-03-23 23-27-56-793563,0,0,1530,1470,178.857,-12.926,-0.63,1.14,-9.67,-6.6,-3.69,161.61,36.40784000000005
2023-03-23 23-27-57-017665,0,0,1530,1470,178.857,-12.926,-0.61,1.11,-9.7,-6.55,-3.44,161.39,36.18784000000002
2023-03-23 23-27-57-241849,0,0,1530,1470,178.857,-12.926,-0.59,1.12,-9.71,-6.52,-3.45,161.52,36.31784000000005
2023-03-23 23-27-57-465699,0,0,1530,1470,178.857,-12.926,-0.59,1.11,-9.71,-6.54,-4.09,161.81,36.60784000000004
2023-03-23 23-27-57-690115,0,0,1530,1470,178.945,-12.926,-0.69,1.12,-9.67,-6.61,-4.29,161.96,36.757840000000044
2023-03-23 23-27-57-913486,0,0,1530,1470,178.857,-12.926,-0.69,1.15,-9.66,-6.61,-3.87,162.23,37.027840000000026
2023-03-23 23-27-58-137585,0,0,1530,1470,178.857,-12.926,-0.6,1.12,-9.69,-6.52,-3.56,162.07,36.86784000000003
2023-03-23 23-27-58-361546,0,0,1530,1470,178.857,-12.926,-0.57,1.08,-9.7,-6.47,-3.27,161.74,36.537840000000045
2023-03-23 23-27-58-585608,0,0,1530,1470,178.857,-12.926,-0.53,1.12,-9.71,-6.49,-3.29,161.75,36.547840000000036
2023-03-23 23-27-58-809830,0,0,1530,1470,178.857,-12.926,-0.58,1.14,-9.66,-6.57,-3.81,161.78,36.57784000000004
2023-03-23 23-27-59-033854,0,0,1530,1470,178.857,-12.926,-0.63,1.13,-9.67,-6.68,-3.76,161.88,36.67784000000003
2023-03-23 23-27-59-257485,0,0,1530,1470,178.857,-12.926,-0.58,1.16,-9.68,-6.73,-3.32,162.0,36.797840000000036
2023-03-23 23-27-59-481787,0,0,1530,1470,178.857,-12.926,-0.57,1.14,-9.67,-6.69,-3.22,161.68,36.47784000000004
2023-03-23 23-27-59-705938,0,0,1530,1470,178.857,-12.926,-0.53,1.14,-9.7,-6.68,-3.13,161.46,36.257840000000044
2023-03-23 23-27-59-929870,0,0,1530,1470,178.945,-12.926,-0.52,1.16,-9.68,-6.75,-3.6,161.58,36.37784000000005
2023-03-23 23-28-00-153849,0,0,1530,1470,178.857,-12.926,-0.67,1.2,-9.57,-6.8,-4.18,161.78,36.57784000000004
2023-03-23 23-28-00-377618,0,0,1530,1470,178.945,-12.926,-0.67,1.16,-9.68,-6.76,-3.81,161.9,36.69784000000004
2023-03-23 23-28-00-601592,0,0,1530,1470,178.857,-12.926,-0.61,1.14,-9.64,-6.69,-3.35,161.8,36.59784000000005
2023-03-23 23-28-00-825428,0,0,1530,1470,178.857,-12.926,-0.53,1.13,-9.7,-6.59,-3.1,161.36,36.15784000000005
2023-03-23 23-28-01-049490,0,0,1530,1470,178.857,-12.926,-0.52,1.13,-9.7,-6.57,-3.09,161.27,36.06784000000005
2023-03-23 23-28-01-273863,0,0,1530,1470,178.857,-12.926,-0.56,1.14,-9.67,-6.63,-3.65,161.34,36.13784000000004
2023-03-23 23-28-01-497430,0,0,1530,1470,178.857,-12.926,-0.6,1.14,-9.68,-6.72,-3.76,161.39,36.18784000000002
2023-03-23 23-28-01-721556,0,0,1530,1470,178.857,-12.926,-0.58,1.12,-9.67,-6.75,-3.33,161.54,36.33784000000003
2023-03-23 23-28-01-945535,0,0,1530,1470,178.857,-12.926,-0.55,1.14,-9.7,-6.67,-3.1,161.18,35.97784000000004
2023-03-23 23-28-02-169618,0,0,1530,1470,178.857,-12.926,-0.53,1.13,-9.71,-6.69,-3.13,160.96,35.757840000000044
2023-03-23 23-28-02-393590,0,0,1530,1470,178.857,-12.926,-0.64,1.15,-9.67,-6.74,-4.07,161.22,36.017840000000035
2023-03-23 23-28-02-617707,0,0,1530,1470,178.945,-12.926,-0.63,1.14,-9.67,-6.75,-3.9,161.32,36.11784000000003
2023-03-23 23-28-02-841623,0,0,1530,1470,178.857,-12.926,-0.59,1.13,-9.68,-6.71,-3.4,161.29,36.08784000000003
2023-03-23 23-28-03-065542,0,0,1530,1470,178.857,-12.926,-0.56,1.12,-9.69,-6.64,-3.11,160.84,35.63784000000004
2023-03-23 23-28-03-289659,0,0,1530,1470,178.857,-12.926,-0.5,1.12,-9.72,-6.6,-2.98,160.69,35.487840000000034
2023-03-23 23-28-03-513580,0,0,1530,1470,178.945,-12.926,-0.61,1.14,-9.67,-6.77,-3.69,160.7,35.497840000000025
2023-03-23 23-28-03-737489,0,0,1530,1470,178.857,-12.926,-0.56,1.16,-9.73,-6.78,-3.34,160.9,35.69784000000004
2023-03-23 23-28-03-961482,0,0,1530,1470,178.945,-12.926,-0.54,1.15,-9.68,-6.77,-3.16,160.71,35.507840000000044
2023-03-23 23-28-04-186380,0,0,1530,1470,178.857,-12.926,-0.51,1.13,-9.7,-6.7,-2.9,160.36,35.15784000000005
2023-03-23 23-28-04-416696,0,0,1530,1470,178.857,-12.926,-0.49,1.14,-9.72,-6.65,-2.97,160.41,35.20784000000003
2023-03-23 23-28-04-641061,0,0,1530,1470,178.857,-12.926,-0.55,1.14,-9.67,-6.75,-3.58,160.53,35.32784000000004
2023-03-23 23-28-04-864701,0,0,1530,1470,178.857,-12.926,-0.61,1.12,-9.69,-6.78,-3.62,160.7,35.497840000000025
2023-03-23 23-28-05-089166,0,0,1530,1470,178.945,-12.926,-0.56,1.15,-9.71,-6.77,-3.32,160.72,35.517840000000035
2023-03-23 23-28-05-312671,0,0,1530,1470,178.857,-12.926,-0.49,1.12,-9.67,-6.76,-3.01,160.29,35.08784000000003
2023-03-23 23-28-05-537187,0,0,1530,1470,178.857,-12.926,-0.49,1.14,-9.7,-6.73,-2.87,160.0,34.797840000000036
2023-03-23 23-28-05-761299,0,0,1530,1470,178.857,-12.926,-0.44,1.16,-9.71,-6.77,-3.1,160.06,34.85784000000004
2023-03-23 23-28-05-984731,0,0,1530,1470,178.857,-12.926,-0.54,1.2,-9.65,-6.9,-3.56,160.21,35.007840000000044
2023-03-23 23-28-06-208199,0,0,1530,1470,178.857,-12.926,-0.58,1.19,-9.69,-6.93,-3.33,160.38,35.17784000000003
2023-03-23 23-28-06-427543,0,0,1530,1470,178.857,-12.926,-0.5,1.19,-9.71,-6.85,-3.04,160.33,35.12784000000005
2023-03-23 23-28-06-650328,0,0,1530,1470,178.857,-12.926,-0.5,1.15,-9.71,-6.77,-2.86,159.98,34.777840000000026
2023-03-23 23-28-06-875718,0,0,1530,1470,178.857,-12.926,-0.49,1.14,-9.71,-6.7,-2.93,159.99,34.787840000000045
2023-03-23 23-28-07-097502,0,0,1530,1470,178.857,-12.926,-0.54,1.14,-9.68,-6.73,-3.6,160.24,35.037840000000045
2023-03-23 23-28-07-321626,0,0,1530,1470,178.945,-12.926,-0.6,1.13,-9.66,-6.75,-3.84,160.43,35.22784000000004
2023-03-23 23-28-07-545604,0,0,1530,1470,178.857,-12.926,-0.57,1.12,-9.67,-6.74,-3.24,160.67,35.467840000000024
2023-03-23 23-28-07-769607,0,0,1530,1470,178.945,-12.926,-0.5,1.14,-9.67,-6.74,-2.91,160.42,35.217840000000024
2023-03-23 23-28-07-995316,0,0,1530,1470,178.857,-12.926,-0.48,1.13,-9.71,-6.68,-2.75,160.26,35.05784000000003
2023-03-23 23-28-08-217556,0,0,1530,1470,178.857,-12.926,-0.48,1.16,-9.71,-6.77,-3.0,160.47,35.267840000000035
2023-03-23 23-28-08-442930,0,0,1530,1470,178.857,-12.926,-0.6,1.16,-9.65,-6.88,-3.77,160.64,35.43784000000002
2023-03-23 23-28-08-665600,0,0,1530,1470,178.857,-12.926,-0.6,1.18,-9.67,-6.95,-3.75,160.74,35.537840000000045
2023-03-23 23-28-08-889665,0,0,1530,1470,178.857,-12.926,-0.53,1.18,-9.68,-6.87,-3.1,160.78,35.57784000000004
2023-03-23 23-28-09-113295,0,0,1530,1470,178.857,-12.926,-0.51,1.15,-9.69,-6.77,-2.89,160.46,35.257840000000044
2023-03-23 23-28-09-337205,0,0,1530,1470,178.945,-12.926,-0.46,1.14,-9.71,-6.7,-2.86,160.5,35.297840000000036
2023-03-23 23-28-09-572174,0,0,1530,1470,178.857,-12.926,-0.52,1.2,-9.68,-6.69,-3.29,160.66,35.45784000000003
2023-03-23 23-28-09-801647,0,0,1530,1470,178.857,-12.926,-0.59,1.16,-9.67,-6.74,-3.68,160.62,35.41784000000004
2023-03-23 23-28-10-025308,0,0,1530,1470,178.857,-12.926,-0.55,1.14,-9.7,-6.77,-3.25,160.76,35.55784000000003
2023-03-23 23-28-10-249578,0,0,1530,1470,178.945,-12.926,-0.48,1.15,-9.69,-6.69,-2.8,160.54,35.33784000000003
2023-03-23 23-28-10-474346,0,0,1530,1470,178.945,-12.926,-0.46,1.12,-9.7,-6.67,-2.6,160.24,35.037840000000045
2023-03-23 23-28-10-698190,0,0,1530,1470,178.857,-12.926,-0.45,1.15,-9.69,-6.74,-2.83,160.35,35.14784000000003
