Timestamp_log,left_angle,right_angle,left_thrust,right_thrust,read_left_angle,read_right_angle,accel_x,accel_y,accel_z,roll,pitch,yaw,e_alpha
2023-03-23 22-17-38-285017,0,0,1536,1464,0.176,-12.662,-0.05,-0.72,-9.75,4.25,-0.33,142.98,30.012200000000007
2023-03-23 22-17-38-302053,0,0,1545,1455,0.088,-12.662,-0.04,-0.72,-9.75,4.25,-0.33,142.98,30.012200000000007
2023-03-23 22-17-38-334219,0,0,1545,1455,0.088,-12.662,-0.04,-0.72,-9.76,4.25,-0.32,142.98,30.012200000000007
2023-03-23 22-17-38-350452,0,0,1545,1455,0.088,-12.662,-0.04,-0.72,-9.77,4.25,-0.32,142.98,30.012200000000007
2023-03-23 22-17-38-366686,0,0,1545,1455,0.088,-12.662,-0.03,-0.72,-9.75,4.25,-0.32,142.98,30.012200000000007
2023-03-23 22-17-38-382990,0,0,1545,1455,0.088,-12.662,-0.03,-0.72,-9.74,4.25,-0.32,142.98,30.012200000000007
2023-03-23 22-17-38-398534,0,0,1545,1455,0.088,-12.662,-0.04,-0.71,-9.75,4.25,-0.32,142.98,30.012200000000007
2023-03-23 22-17-38-414603,0,0,1545,1455,0.088,-12.662,-0.04,-0.72,-9.76,4.25,-0.32,142.98,30.012200000000007
2023-03-23 22-17-38-430759,0,0,1545,1455,0.088,-12.662,-0.04,-0.73,-9.75,4.25,-0.32,142.98,30.012200000000007
2023-03-23 22-17-38-462144,0,0,1545,1455,0.088,-12.662,-0.04,-0.72,-9.76,4.25,-0.31,142.97,30.002200000000016
2023-03-23 22-17-38-479456,0,0,1545,1455,0.088,-12.662,-0.03,-0.71,-9.75,4.25,-0.31,142.97,30.002200000000016
2023-03-23 22-17-38-496047,0,0,1545,1455,0.088,-12.574,-0.03,-0.71,-9.74,4.25,-0.31,142.97,30.002200000000016
2023-03-23 22-17-38-510476,0,0,1545,1455,0.088,-12.662,-0.09,-0.71,-9.74,4.25,-0.31,142.97,30.002200000000016
2023-03-23 22-17-38-526253,0,0,1545,1455,0.088,-12.662,-0.1,-0.72,-9.78,4.25,-0.31,142.97,30.002200000000016
2023-03-23 22-17-38-543040,0,0,1544,1456,0.088,-12.662,0.05,-0.73,-9.73,4.25,-0.31,142.96,29.992200000000025
2023-03-23 22-17-38-558100,0,0,1544,1456,0.088,-12.662,-0.01,-0.73,-9.66,4.25,-0.3,142.96,29.992200000000025
2023-03-23 22-17-38-576325,0,0,1544,1456,0.088,-12.662,-0.19,-0.7,-9.79,4.26,-0.3,142.96,29.992200000000025
2023-03-23 22-17-38-592273,0,0,1544,1456,0.088,-12.662,-0.27,-0.7,-9.68,4.25,-0.31,142.96,29.992200000000025
2023-03-23 22-17-38-622461,0,0,1544,1456,0.088,-12.662,-0.39,-0.71,-9.7,4.25,-0.31,142.96,29.992200000000025
2023-03-23 22-17-38-637982,0,0,1544,1456,0.088,-12.662,-0.46,-0.69,-9.66,4.25,-0.33,142.95,29.982200000000006
2023-03-23 22-17-38-655094,0,0,1544,1456,0.088,-12.662,-0.5,-0.68,-9.68,4.25,-0.34,142.93,29.962200000000024
2023-03-23 22-17-38-671204,0,0,1544,1456,0.088,-12.662,-0.49,-0.71,-9.69,4.25,-0.35,142.92,29.952200000000005
2023-03-23 22-17-38-687486,0,0,1544,1456,0.088,-12.662,-0.42,-0.73,-9.72,4.24,-0.37,142.9,29.932200000000023
2023-03-23 22-17-38-703556,0,0,1544,1456,0.088,-12.662,-0.34,-0.72,-9.73,4.23,-0.38,142.89,29.922200000000004
2023-03-23 22-17-38-719013,0,0,1544,1456,0.088,-12.662,-0.3,-0.69,-9.72,4.23,-0.39,142.87,29.902200000000022
2023-03-23 22-17-38-734135,0,0,1544,1456,0.088,-12.662,-0.29,-0.69,-9.68,4.22,-0.4,142.85,29.88220000000001
2023-03-23 22-17-38-751757,0,0,1544,1456,0.088,-12.662,-0.27,-0.72,-9.69,4.21,-0.42,142.83,29.86220000000003
2023-03-23 22-17-38-767090,0,0,1544,1456,0.088,-12.662,-0.26,-0.73,-9.74,4.2,-0.43,142.81,29.84220000000002
2023-03-23 22-17-38-783430,0,0,1544,1456,0.088,-12.662,-0.23,-0.7,-9.74,4.18,-0.43,142.79,29.82220000000001
2023-03-23 22-17-38-798662,0,0,1544,1456,0.088,-12.662,-0.18,-0.7,-9.74,4.18,-0.44,142.77,29.802200000000028
2023-03-23 22-17-38-814313,0,0,1544,1456,0.088,-12.662,-0.17,-0.7,-9.72,4.17,-0.45,142.75,29.782200000000017
2023-03-23 22-17-38-830333,0,0,1544,1456,0.088,-12.662,-0.18,-0.69,-9.69,4.15,-0.45,142.73,29.762200000000007
2023-03-23 22-17-38-847440,0,0,1544,1456,0.088,-12.662,-0.19,-0.69,-9.7,4.14,-0.46,142.71,29.742200000000025
2023-03-23 22-17-38-862320,0,0,1544,1456,0.088,-12.662,-0.17,-0.66,-9.71,4.13,-0.47,142.7,29.732200000000006
2023-03-23 22-17-38-879708,0,0,1544,1456,0.176,-12.662,-0.17,-0.69,-9.73,4.12,-0.47,142.69,29.722200000000015
2023-03-23 22-17-38-895751,0,0,1544,1456,0.088,-12.662,-0.17,-0.68,-9.72,4.11,-0.47,142.68,29.712200000000024
2023-03-23 22-17-38-910079,0,0,1544,1456,0.088,-12.662,-0.15,-0.69,-9.72,4.1,-0.47,142.67,29.702200000000005
2023-03-23 22-17-38-926141,0,0,1544,1456,0.088,-12.662,-0.14,-0.7,-9.74,4.08,-0.47,142.67,29.702200000000005
2023-03-23 22-17-38-942516,0,0,1544,1456,0.088,-12.662,-0.14,-0.68,-9.75,4.07,-0.47,142.66,29.692200000000014
2023-03-23 22-17-38-959859,0,0,1544,1456,0.088,-12.662,-0.15,-0.69,-9.74,4.06,-0.47,142.66,29.692200000000014
2023-03-23 22-17-38-975026,0,0,1544,1456,0.088,-12.662,-0.15,-0.7,-9.73,4.05,-0.47,142.66,29.692200000000014
2023-03-23 22-17-38-990931,0,0,1544,1456,0.088,-12.662,-0.15,-0.7,-9.74,4.04,-0.46,142.66,29.692200000000014
2023-03-23 22-17-39-006197,0,0,1544,1456,0.088,-12.662,-0.16,-0.7,-9.74,4.02,-0.46,142.67,29.702200000000005
2023-03-23 22-17-39-023208,0,0,1544,1456,0.088,-12.662,-0.15,-0.69,-9.71,4.01,-0.45,142.68,29.712200000000024
2023-03-23 22-17-39-039240,0,0,1544,1456,0.088,-12.662,-0.15,-0.68,-9.74,4.0,-0.44,142.69,29.722200000000015
2023-03-23 22-17-39-056543,0,0,1544,1456,0.088,-12.662,-0.14,-0.7,-9.74,4.0,-0.43,142.7,29.732200000000006
2023-03-23 22-17-39-069994,0,0,1544,1456,0.088,-12.662,-0.13,-0.71,-9.76,3.99,-0.42,142.71,29.742200000000025
2023-03-23 22-17-39-087067,0,0,1544,1456,0.176,-12.662,-0.13,-0.7,-9.75,3.97,-0.41,142.73,29.762200000000007
2023-03-23 22-17-39-102292,0,0,1544,1456,0.088,-12.662,-0.12,-0.7,-9.75,3.96,-0.4,142.74,29.772200000000026
2023-03-23 22-17-39-119722,0,0,1544,1456,0.088,-12.662,-0.1,-0.65,-9.73,3.95,-0.39,142.75,29.782200000000017
2023-03-23 22-17-39-134440,0,0,1544,1456,0.088,-12.662,-0.11,-0.66,-9.75,3.93,-0.37,142.76,29.79220000000001
2023-03-23 22-17-39-150126,0,0,1544,1456,0.088,-12.662,-0.1,-0.67,-9.73,3.92,-0.36,142.77,29.802200000000028
2023-03-23 22-17-39-166759,0,0,1544,1456,0.088,-12.662,-0.09,-0.67,-9.73,3.9,-0.34,142.79,29.82220000000001
2023-03-23 22-17-39-182626,0,0,1544,1456,0.088,-12.662,-0.09,-0.66,-9.74,3.89,-0.32,142.8,29.83220000000003
2023-03-23 22-17-39-198214,0,0,1544,1456,0.088,-12.662,-0.07,-0.67,-9.76,3.87,-0.3,142.82,29.85220000000001
2023-03-23 22-17-39-214145,0,0,1544,1456,0.088,-12.662,-0.07,-0.67,-9.74,3.86,-0.28,142.83,29.86220000000003
2023-03-23 22-17-39-231032,0,0,1544,1456,0.088,-12.662,-0.07,-0.67,-9.74,3.84,-0.27,142.86,29.89220000000003
2023-03-23 22-17-39-249024,0,0,1544,1456,0.088,-12.662,-0.07,-0.68,-9.77,3.84,-0.25,142.88,29.912200000000013
2023-03-23 22-17-39-281484,0,0,1544,1456,0.088,-12.662,-0.09,-0.65,-9.77,3.82,-0.23,142.91,29.942200000000014
2023-03-23 22-17-39-310754,0,0,1544,1456,0.088,-12.662,-0.08,-0.66,-9.76,3.81,-0.21,142.93,29.962200000000024
2023-03-23 22-17-39-342564,0,0,1544,1456,0.176,-12.662,-0.07,-0.65,-9.73,3.8,-0.19,142.96,29.992200000000025
2023-03-23 22-17-39-358239,0,0,1545,1455,0.088,-12.662,-0.06,-0.62,-9.73,3.79,-0.17,142.99,30.022200000000026
2023-03-23 22-17-39-375509,0,0,1545,1455,0.088,-12.662,-0.04,-0.63,-9.75,3.78,-0.15,143.02,30.052200000000028
2023-03-23 22-17-39-391211,0,0,1545,1455,0.088,-12.662,-0.04,-0.64,-9.75,3.77,-0.12,143.05,30.08220000000003
2023-03-23 22-17-39-406215,0,0,1545,1455,0.088,-12.662,-0.03,-0.64,-9.75,3.76,-0.09,143.09,30.12220000000002
2023-03-23 22-17-39-422184,0,0,1545,1455,0.176,-12.662,-0.02,-0.65,-9.75,3.75,-0.07,143.11,30.14220000000003
2023-03-23 22-17-39-438580,0,0,1545,1455,0.088,-12.662,-0.0,-0.64,-9.76,3.74,-0.04,143.14,30.172200000000004
2023-03-23 22-17-39-454760,0,0,1545,1455,0.088,-12.662,0.02,-0.64,-9.75,3.72,-0.01,143.17,30.202200000000005
2023-03-23 22-17-39-470269,0,0,1545,1455,0.088,-12.662,0.02,-0.64,-9.77,3.71,0.02,143.19,30.222200000000015
2023-03-23 22-17-39-488363,0,0,1545,1455,0.088,-12.662,-0.0,-0.64,-9.76,3.7,0.05,143.22,30.252200000000016
2023-03-23 22-17-39-503644,0,0,1545,1455,0.088,-12.662,0.0,-0.63,-9.76,3.69,0.08,143.25,30.282200000000017
2023-03-23 22-17-39-518515,0,0,1545,1455,0.088,-12.662,0.02,-0.64,-9.73,3.68,0.11,143.28,30.31220000000002
2023-03-23 22-17-39-535679,0,0,1545,1455,0.088,-12.662,0.02,-0.65,-9.73,3.67,0.14,143.3,30.33220000000003
2023-03-23 22-17-39-566157,0,0,1545,1455,0.088,-12.662,0.01,-0.63,-9.77,3.66,0.18,143.33,30.36220000000003
2023-03-23 22-17-39-590934,0,0,1545,1455,0.088,-12.662,0.03,-0.65,-9.77,3.65,0.21,143.36,30.39220000000003
2023-03-23 22-17-39-618460,0,0,1545,1455,0.088,-12.662,0.03,-0.65,-9.77,3.65,0.24,143.39,30.422200000000004
2023-03-23 22-17-39-645885,0,0,1545,1455,0.088,-12.662,0.04,-0.65,-9.75,3.64,0.28,143.43,30.462200000000024
2023-03-23 22-17-39-665171,0,0,1545,1455,0.088,-12.662,0.05,-0.65,-9.76,3.63,0.31,143.47,30.502200000000016
2023-03-23 22-17-39-699083,0,0,1545,1455,0.088,-12.662,0.07,-0.65,-9.76,3.62,0.34,143.5,30.532200000000017
2023-03-23 22-17-39-726567,0,0,1545,1455,0.088,-12.662,0.06,-0.65,-9.75,3.61,0.38,143.53,30.56220000000002
2023-03-23 22-17-39-743747,0,0,1545,1455,0.088,-12.662,0.07,-0.62,-9.74,3.6,0.42,143.56,30.59220000000002
2023-03-23 22-17-39-758465,0,0,1545,1455,0.088,-12.662,0.07,-0.61,-9.74,3.6,0.45,143.59,30.62220000000002
2023-03-23 22-17-39-774134,0,0,1545,1455,0.088,-12.662,0.09,-0.61,-9.75,3.59,0.49,143.63,30.662200000000013
2023-03-23 22-17-39-789993,0,0,1545,1455,0.176,-12.662,0.1,-0.63,-9.77,3.58,0.52,143.65,30.682200000000023
2023-03-23 22-17-39-807284,0,0,1545,1455,0.088,-12.662,0.12,-0.61,-9.76,3.57,0.56,143.69,30.722200000000015
2023-03-23 22-17-39-823115,0,0,1545,1455,0.088,-12.662,0.14,-0.6,-9.76,3.56,0.59,143.72,30.752200000000016
2023-03-23 22-17-39-838439,0,0,1545,1455,0.088,-12.662,0.13,-0.63,-9.77,3.55,0.62,143.75,30.782200000000017
2023-03-23 22-17-39-854856,0,0,1545,1455,0.088,-12.662,0.13,-0.6,-9.74,3.54,0.65,143.78,30.81220000000002
2023-03-23 22-17-39-870276,0,0,1545,1455,0.088,-12.662,0.13,-0.59,-9.78,3.53,0.68,143.81,30.84220000000002
2023-03-23 22-17-39-887575,0,0,1545,1455,0.088,-12.662,0.16,-0.63,-9.76,3.52,0.7,143.84,30.87220000000002
2023-03-23 22-17-39-903251,0,0,1545,1455,0.088,-12.662,0.16,-0.62,-9.78,3.51,0.73,143.87,30.902200000000022
2023-03-23 22-17-39-918628,0,0,1545,1455,0.088,-12.662,0.16,-0.62,-9.78,3.5,0.75,143.9,30.932200000000023
2023-03-23 22-17-39-933874,0,0,1545,1455,0.088,-12.662,0.17,-0.62,-9.79,3.5,0.77,143.93,30.962200000000024
2023-03-23 22-17-39-951150,0,0,1545,1455,0.088,-12.662,0.17,-0.63,-9.79,3.49,0.79,143.96,30.992200000000025
2023-03-23 22-17-39-967151,0,0,1545,1455,0.176,-12.662,0.18,-0.62,-9.77,3.48,0.81,143.99,31.022200000000026
2023-03-23 22-17-39-982499,0,0,1545,1455,0.088,-12.662,0.17,-0.62,-9.76,3.47,0.83,144.02,31.052200000000028
2023-03-23 22-17-39-998667,0,0,1545,1455,0.088,-12.662,0.16,-0.61,-9.78,3.46,0.84,144.05,31.08220000000003
2023-03-23 22-17-40-013995,0,0,1545,1455,0.088,-12.662,0.14,-0.6,-9.76,3.45,0.86,144.07,31.10220000000001
2023-03-23 22-17-40-030308,0,0,1545,1455,0.088,-12.662,0.16,-0.58,-9.77,3.44,0.87,144.1,31.13220000000001
2023-03-23 22-17-40-046637,0,0,1545,1455,0.088,-12.662,0.17,-0.6,-9.77,3.43,0.88,144.13,31.162200000000013
2023-03-23 22-17-40-062569,0,0,1545,1455,0.088,-12.662,0.19,-0.6,-9.73,3.41,0.89,144.16,31.192200000000014
2023-03-23 22-17-40-078644,0,0,1545,1455,0.088,-12.662,0.18,-0.61,-9.75,3.41,0.89,144.19,31.222200000000015
2023-03-23 22-17-40-095033,0,0,1545,1455,0.088,-12.662,0.18,-0.58,-9.78,3.4,0.9,144.21,31.242200000000025
2023-03-23 22-17-40-111005,0,0,1545,1455,0.088,-12.662,0.19,-0.62,-9.79,3.38,0.9,144.25,31.282200000000017
2023-03-23 22-17-40-126612,0,0,1545,1455,0.088,-12.662,0.2,-0.61,-9.78,3.37,0.9,144.28,31.31220000000002
2023-03-23 22-17-40-142196,0,0,1545,1455,0.088,-12.662,0.19,-0.57,-9.77,3.36,0.9,144.31,31.34220000000002
2023-03-23 22-17-40-158974,0,0,1545,1455,0.088,-12.662,0.19,-0.58,-9.77,3.34,0.9,144.35,31.38220000000001
2023-03-23 22-17-40-176699,0,0,1545,1455,0.088,-12.662,0.2,-0.57,-9.77,3.33,0.9,144.38,31.412200000000013
2023-03-23 22-17-40-205846,0,0,1545,1455,0.088,-12.662,0.2,-0.58,-9.78,3.32,0.89,144.41,31.442200000000014
2023-03-23 22-17-40-222760,0,0,1545,1455,0.088,-12.662,0.21,-0.58,-9.78,3.31,0.89,144.44,31.472200000000015
2023-03-23 22-17-40-239808,0,0,1545,1455,0.088,-12.662,0.2,-0.56,-9.76,3.3,0.88,144.47,31.502200000000016
2023-03-23 22-17-40-254057,0,0,1545,1455,0.088,-12.662,0.17,-0.56,-9.76,3.29,0.87,144.5,31.532200000000017
2023-03-23 22-17-40-269843,0,0,1545,1455,0.088,-12.662,0.15,-0.56,-9.77,3.27,0.86,144.53,31.56220000000002
2023-03-23 22-17-40-287079,0,0,1545,1455,0.088,-12.662,0.13,-0.57,-9.79,3.26,0.85,144.55,31.58220000000003
2023-03-23 22-17-40-302329,0,0,1545,1455,0.088,-12.662,0.13,-0.55,-9.78,3.24,0.83,144.57,31.60220000000001
2023-03-23 22-17-40-318281,0,0,1545,1455,0.088,-12.662,0.13,-0.57,-9.77,3.22,0.81,144.58,31.61220000000003
2023-03-23 22-17-40-349776,0,0,1545,1455,0.088,-12.662,0.13,-0.54,-9.75,3.2,0.79,144.58,31.61220000000003
2023-03-23 22-17-40-367424,0,0,1545,1455,0.088,-12.662,0.12,-0.54,-9.79,3.18,0.77,144.59,31.62220000000002
2023-03-23 22-17-40-383468,0,0,1545,1455,0.088,-12.662,0.13,-0.55,-9.76,3.17,0.75,144.6,31.63220000000001
2023-03-23 22-17-40-398483,0,0,1545,1455,0.088,-12.662,0.13,-0.56,-9.78,3.15,0.72,144.6,31.63220000000001
2023-03-23 22-17-40-413885,0,0,1545,1455,0.088,-12.662,0.14,-0.58,-9.76,3.12,0.7,144.6,31.63220000000001
2023-03-23 22-17-40-430885,0,0,1545,1455,0.176,-12.662,0.12,-0.56,-9.78,3.1,0.67,144.59,31.62220000000002
2023-03-23 22-17-40-446137,0,0,1545,1455,0.088,-12.662,0.13,-0.54,-9.8,3.08,0.64,144.59,31.62220000000002
2023-03-23 22-17-40-462896,0,0,1545,1455,0.088,-12.662,0.14,-0.53,-9.8,3.06,0.62,144.58,31.61220000000003
2023-03-23 22-17-40-477999,0,0,1545,1455,0.176,-12.662,0.14,-0.53,-9.77,3.03,0.59,144.57,31.60220000000001
2023-03-23 22-17-40-494433,0,0,1545,1455,0.176,-12.662,0.13,-0.51,-9.75,3.01,0.56,144.55,31.58220000000003
2023-03-23 22-17-40-511651,0,0,1545,1455,0.088,-12.662,0.13,-0.52,-9.79,2.98,0.53,144.53,31.56220000000002
2023-03-23 22-17-40-526155,0,0,1545,1455,0.088,-12.662,0.12,-0.52,-9.77,2.95,0.5,144.51,31.54220000000001
2023-03-23 22-17-40-541865,0,0,1545,1455,0.088,-12.662,0.12,-0.51,-9.76,2.92,0.47,144.49,31.522200000000026
2023-03-23 22-17-40-557972,0,0,1545,1455,0.088,-12.662,0.12,-0.5,-9.75,2.89,0.44,144.46,31.492200000000025
2023-03-23 22-17-40-574565,0,0,1545,1455,0.088,-12.662,0.11,-0.51,-9.78,2.86,0.41,144.44,31.472200000000015
2023-03-23 22-17-40-590780,0,0,1545,1455,0.088,-12.662,0.09,-0.49,-9.79,2.83,0.37,144.41,31.442200000000014
2023-03-23 22-17-40-605983,0,0,1545,1455,0.088,-12.574,0.1,-0.5,-9.78,2.79,0.34,144.38,31.412200000000013
2023-03-23 22-17-40-622824,0,0,1545,1455,0.176,-12.662,0.11,-0.5,-9.76,2.76,0.3,144.36,31.39220000000003
2023-03-23 22-17-40-639709,0,0,1545,1455,0.088,-12.662,0.12,-0.49,-9.77,2.73,0.26,144.33,31.36220000000003
2023-03-23 22-17-40-656406,0,0,1545,1455,0.088,-12.662,0.12,-0.47,-9.78,2.69,0.23,144.3,31.33220000000003
2023-03-23 22-17-40-689788,0,0,1545,1455,0.088,-12.662,0.12,-0.46,-9.79,2.66,0.19,144.26,31.29220000000001
2023-03-23 22-17-40-719799,0,0,1545,1455,0.088,-12.662,0.11,-0.47,-9.8,2.62,0.15,144.24,31.272200000000026
2023-03-23 22-17-40-734386,0,0,1545,1455,0.088,-12.662,0.09,-0.46,-9.79,2.58,0.12,144.21,31.242200000000025
2023-03-23 22-17-40-754712,0,0,1545,1455,0.088,-12.662,0.09,-0.47,-9.78,2.54,0.08,144.18,31.212200000000024
2023-03-23 22-17-40-781913,0,0,1545,1455,0.088,-12.662,0.09,-0.43,-9.76,2.5,0.04,144.15,31.182200000000023
2023-03-23 22-17-40-798614,0,0,1545,1455,0.088,-12.574,0.06,-0.44,-9.78,2.47,-0.01,144.12,31.152200000000022
2023-03-23 22-17-40-815335,0,0,1545,1455,0.088,-12.662,0.06,-0.44,-9.78,2.43,-0.05,144.09,31.12220000000002
2023-03-23 22-17-40-830128,0,0,1545,1455,0.088,-12.574,0.04,-0.44,-9.8,2.39,-0.09,144.06,31.09220000000002
2023-03-23 22-17-40-846035,0,0,1545,1455,0.088,-12.662,0.02,-0.45,-9.8,2.36,-0.14,144.03,31.06220000000002
2023-03-23 22-17-40-862299,0,0,1545,1455,0.088,-12.662,0.02,-0.41,-9.77,2.32,-0.19,143.99,31.022200000000026
2023-03-23 22-17-40-878605,0,0,1545,1455,0.088,-12.662,0.0,-0.39,-9.81,2.27,-0.23,143.96,30.992200000000025
2023-03-23 22-17-40-894846,0,0,1545,1455,0.176,-12.662,0.02,-0.41,-9.78,2.24,-0.28,143.93,30.962200000000024
2023-03-23 22-17-40-910196,0,0,1545,1455,0.088,-12.662,0.03,-0.4,-9.81,2.19,-0.33,143.89,30.922200000000004
2023-03-23 22-17-40-925873,0,0,1545,1455,0.088,-12.662,0.02,-0.39,-9.79,2.15,-0.38,143.86,30.89220000000003
2023-03-23 22-17-40-942437,0,0,1545,1455,0.088,-12.662,0.0,-0.37,-9.79,2.12,-0.43,143.83,30.86220000000003
2023-03-23 22-17-40-957655,0,0,1545,1455,0.088,-12.662,-0.01,-0.37,-9.8,2.08,-0.48,143.79,30.82220000000001
2023-03-23 22-17-40-975207,0,0,1545,1455,0.088,-12.662,-0.01,-0.37,-9.78,2.03,-0.53,143.76,30.79220000000001
2023-03-23 22-17-40-989769,0,0,1545,1455,0.088,-12.662,-0.01,-0.36,-9.78,1.99,-0.59,143.72,30.752200000000016
2023-03-23 22-17-41-005745,0,0,1545,1455,0.088,-12.662,-0.01,-0.36,-9.81,1.95,-0.64,143.67,30.702200000000005
2023-03-23 22-17-41-024486,0,0,1545,1455,0.088,-12.662,-0.03,-0.35,-9.81,1.9,-0.69,143.62,30.652200000000022
2023-03-23 22-17-41-054548,0,0,1545,1455,0.088,-12.662,-0.04,-0.33,-9.83,1.85,-0.74,143.57,30.60220000000001
2023-03-23 22-17-41-069791,0,0,1545,1455,0.088,-12.662,-0.07,-0.34,-9.8,1.81,-0.79,143.52,30.552200000000028
2023-03-23 22-17-41-087679,0,0,1545,1455,0.088,-12.662,-0.08,-0.34,-9.79,1.76,-0.85,143.47,30.502200000000016
2023-03-23 22-17-41-101722,0,0,1545,1455,0.088,-12.662,-0.09,-0.32,-9.78,1.71,-0.91,143.41,30.442200000000014
2023-03-23 22-17-41-117773,0,0,1545,1455,0.088,-12.662,-0.11,-0.29,-9.8,1.67,-0.96,143.35,30.38220000000001
2023-03-23 22-17-41-134717,0,0,1545,1455,0.088,-12.662,-0.12,-0.3,-9.81,1.62,-1.02,143.29,30.32220000000001
2023-03-23 22-17-41-151687,0,0,1545,1455,0.088,-12.662,-0.11,-0.3,-9.8,1.57,-1.08,143.23,30.262200000000007
2023-03-23 22-17-41-167227,0,0,1545,1455,0.088,-12.662,-0.1,-0.27,-9.82,1.52,-1.15,143.17,30.202200000000005
2023-03-23 22-17-41-182801,0,0,1545,1455,0.088,-12.662,-0.11,-0.27,-9.82,1.46,-1.22,143.11,30.14220000000003
2023-03-23 22-17-41-197822,0,0,1545,1455,0.088,-12.662,-0.11,-0.27,-9.81,1.41,-1.29,143.04,30.07220000000001
2023-03-23 22-17-41-215018,0,0,1545,1455,0.088,-12.662,-0.11,-0.24,-9.82,1.36,-1.36,142.98,30.012200000000007
2023-03-23 22-17-41-231943,0,0,1544,1456,0.088,-12.662,-0.12,-0.24,-9.81,1.31,-1.43,142.91,29.942200000000014
2023-03-23 22-17-41-261451,0,0,1544,1456,0.088,-12.662,-0.11,-0.24,-9.82,1.25,-1.5,142.84,29.87220000000002
2023-03-23 22-17-41-279372,0,0,1544,1456,0.088,-12.662,-0.12,-0.23,-9.82,1.2,-1.58,142.77,29.802200000000028
2023-03-23 22-17-41-301437,0,0,1544,1456,0.088,-12.662,-0.14,-0.22,-9.82,1.14,-1.66,142.69,29.722200000000015
2023-03-23 22-17-41-328013,0,0,1544,1456,0.088,-12.662,-0.17,-0.22,-9.85,1.09,-1.74,142.62,29.652200000000022
2023-03-23 22-17-41-348593,0,0,1544,1456,0.088,-12.662,-0.19,-0.21,-9.86,1.03,-1.83,142.55,29.58220000000003
2023-03-23 22-17-41-379258,0,0,1544,1456,0.088,-12.662,-0.21,-0.22,-9.84,0.98,-1.92,142.47,29.502200000000016
2023-03-23 22-17-41-410568,0,0,1544,1456,0.088,-12.662,-0.21,-0.2,-9.81,0.92,-2.02,142.4,29.432200000000023
2023-03-23 22-17-41-437702,0,0,1544,1456,0.088,-12.662,-0.25,-0.17,-9.85,0.87,-2.11,142.33,29.36220000000003
2023-03-23 22-17-41-455650,0,0,1544,1456,0.088,-12.662,-0.26,-0.18,-9.83,0.81,-2.22,142.25,29.282200000000017
2023-03-23 22-17-41-469747,0,0,1544,1456,0.088,-12.662,-0.25,-0.17,-9.83,0.76,-2.33,142.17,29.202200000000005
2023-03-23 22-17-41-487242,0,0,1544,1456,0.088,-12.662,-0.27,-0.16,-9.83,0.7,-2.44,142.09,29.12220000000002
2023-03-23 22-17-41-501796,0,0,1544,1456,0.088,-12.662,-0.3,-0.15,-9.83,0.64,-2.55,142.02,29.052200000000028
2023-03-23 22-17-41-517909,0,0,1544,1456,0.088,-12.662,-0.33,-0.13,-9.81,0.58,-2.67,141.94,28.972200000000015
2023-03-23 22-17-41-547419,0,0,1544,1456,0.088,-12.662,-0.35,-0.08,-9.82,0.52,-2.79,141.86,28.89220000000003
2023-03-23 22-17-41-566140,0,0,1544,1456,0.088,-12.662,-0.38,-0.09,-9.82,0.45,-2.92,141.77,28.802200000000028
2023-03-23 22-17-41-604161,0,0,1544,1456,0.088,-12.662,-0.4,-0.08,-9.84,0.39,-3.05,141.68,28.712200000000024
2023-03-23 22-17-41-629853,0,0,1544,1456,0.088,-12.662,-0.41,-0.06,-9.83,0.33,-3.19,141.6,28.63220000000001
2023-03-23 22-17-41-654688,0,0,1544,1456,0.088,-12.662,-0.43,-0.06,-9.8,0.27,-3.32,141.5,28.532200000000017
2023-03-23 22-17-41-677788,0,0,1544,1456,0.088,-12.662,-0.43,-0.05,-9.82,0.2,-3.46,141.41,28.442200000000014
2023-03-23 22-17-41-698947,0,0,1544,1456,0.176,-12.662,-0.46,-0.04,-9.84,0.14,-3.61,141.32,28.35220000000001
2023-03-23 22-17-41-745690,0,0,1544,1456,0.088,-12.662,-0.48,-0.04,-9.85,0.07,-3.76,141.22,28.252200000000016
2023-03-23 22-17-41-773682,0,0,1544,1456,0.088,-12.662,-0.51,0.0,-9.82,0.01,-3.91,141.13,28.162200000000013
2023-03-23 22-17-41-813119,0,0,1544,1456,0.088,-12.662,-0.54,0.04,-9.81,-0.06,-4.06,141.04,28.07220000000001
2023-03-23 22-17-41-843209,0,0,1543,1457,0.088,-12.662,-0.56,0.03,-9.77,-0.12,-4.22,140.94,27.972200000000015
2023-03-23 22-17-41-883792,0,0,1543,1457,0.088,-12.662,-0.61,0.03,-9.8,-0.19,-4.38,140.85,27.88220000000001
2023-03-23 22-17-41-909237,0,0,1543,1457,0.088,-12.662,-0.63,0.06,-9.8,-0.26,-4.54,140.75,27.782200000000017
2023-03-23 22-17-41-939348,0,0,1543,1457,0.088,-12.662,-0.66,0.07,-9.81,-0.33,-4.69,140.65,27.682200000000023
2023-03-23 22-17-41-968846,0,0,1543,1457,0.088,-12.662,-0.69,0.08,-9.77,-0.4,-4.85,140.55,27.58220000000003
2023-03-23 22-17-41-997912,0,0,1543,1457,0.088,-12.662,-0.71,0.09,-9.77,-0.47,-5.0,140.45,27.482200000000006
2023-03-23 22-17-42-030577,0,0,1543,1457,0.088,-12.662,-0.76,0.1,-9.78,-0.54,-5.15,140.35,27.38220000000001
2023-03-23 22-17-42-046169,0,0,1543,1457,0.088,-12.662,-0.78,0.12,-9.8,-0.61,-5.3,140.25,27.282200000000017
2023-03-23 22-17-42-062965,0,0,1543,1457,0.088,-12.662,-0.83,0.14,-9.79,-0.68,-5.45,140.14,27.172200000000004
2023-03-23 22-17-42-099117,0,0,1543,1457,0.088,-12.662,-0.85,0.14,-9.79,-0.75,-5.6,140.04,27.07220000000001
2023-03-23 22-17-42-125431,0,0,1543,1457,0.088,-12.662,-0.85,0.16,-9.79,-0.82,-5.74,139.94,26.972200000000015
2023-03-23 22-17-42-141799,0,0,1543,1457,0.088,-12.662,-0.87,0.19,-9.77,-0.89,-5.88,139.83,26.86220000000003
2023-03-23 22-17-42-161150,0,0,1543,1457,0.088,-12.662,-0.92,0.19,-9.75,-0.96,-6.02,139.73,26.762200000000007
2023-03-23 22-17-42-190155,0,0,1543,1457,0.088,-12.662,-0.96,0.21,-9.74,-1.03,-6.16,139.62,26.652200000000022
2023-03-23 22-17-42-206020,0,0,1543,1457,0.088,-12.662,-0.99,0.22,-9.76,-1.1,-6.29,139.52,26.552200000000028
2023-03-23 22-17-42-225347,0,0,1543,1457,0.088,-12.662,-1.01,0.28,-9.73,-1.18,-6.42,139.42,26.452200000000005
2023-03-23 22-17-42-253839,0,0,1543,1457,0.176,-12.662,-1.04,0.27,-9.74,-1.26,-6.54,139.32,26.35220000000001
2023-03-23 22-17-42-271062,0,0,1543,1457,0.176,-12.662,-1.05,0.3,-9.7,-1.33,-6.66,139.22,26.252200000000016
2023-03-23 22-17-42-288219,0,0,1543,1457,0.088,-12.662,-1.05,0.29,-9.71,-1.41,-6.77,139.12,26.152200000000022
2023-03-23 22-17-42-317697,0,0,1543,1457,0.088,-12.662,-1.08,0.3,-9.74,-1.48,-6.88,139.02,26.052200000000028
2023-03-23 22-17-42-334808,0,0,1542,1458,0.176,-12.662,-1.09,0.32,-9.74,-1.55,-6.98,138.93,25.962200000000024
2023-03-23 22-17-42-351113,0,0,1542,1458,0.088,-12.662,-1.09,0.32,-9.71,-1.63,-7.07,138.83,25.86220000000003
2023-03-23 22-17-42-368355,0,0,1542,1458,0.088,-12.662,-1.1,0.34,-9.71,-1.71,-7.16,138.73,25.762200000000007
2023-03-23 22-17-42-381944,0,0,1542,1458,0.088,-12.662,-1.14,0.36,-9.72,-1.78,-7.23,138.62,25.652200000000022
2023-03-23 22-17-42-397872,0,0,1542,1458,0.088,-12.662,-1.15,0.36,-9.73,-1.85,-7.31,138.52,25.552200000000028
2023-03-23 22-17-42-414257,0,0,1542,1458,0.088,-12.662,-1.17,0.37,-9.7,-1.92,-7.38,138.42,25.452200000000005
2023-03-23 22-17-42-429589,0,0,1542,1458,0.088,-12.662,-1.18,0.38,-9.69,-1.99,-7.44,138.31,25.34220000000002
2023-03-23 22-17-42-446669,0,0,1542,1458,0.088,-12.662,-1.22,0.38,-9.69,-2.06,-7.5,138.21,25.242200000000025
2023-03-23 22-17-42-462770,0,0,1542,1458,0.088,-12.662,-1.25,0.46,-9.71,-2.14,-7.55,138.11,25.14220000000003
2023-03-23 22-17-42-493920,0,0,1542,1458,0.088,-12.662,-1.27,0.42,-9.71,-2.21,-7.6,138.01,25.04220000000001
2023-03-23 22-17-42-510668,0,0,1542,1458,0.088,-12.662,-1.27,0.43,-9.71,-2.28,-7.64,137.91,24.942200000000014
2023-03-23 22-17-42-529874,0,0,1542,1458,0.088,-12.662,-1.27,0.44,-9.69,-2.36,-7.67,137.81,24.84220000000002
2023-03-23 22-17-42-557925,0,0,1542,1458,0.088,-12.662,-1.27,0.46,-9.68,-2.43,-7.7,137.72,24.752200000000016
2023-03-23 22-17-42-581050,0,0,1542,1458,0.088,-12.662,-1.25,0.48,-9.67,-2.5,-7.72,137.62,24.652200000000022
2023-03-23 22-17-42-607480,0,0,1542,1458,0.088,-12.662,-1.27,0.5,-9.66,-2.57,-7.74,137.52,24.552200000000028
2023-03-23 22-17-42-639356,0,0,1542,1458,0.088,-12.662,-1.26,0.49,-9.68,-2.64,-7.75,137.43,24.462200000000024
2023-03-23 22-17-42-672047,0,0,1542,1458,0.088,-12.662,-1.26,0.51,-9.69,-2.71,-7.75,137.33,24.36220000000003
2023-03-23 22-17-42-704519,0,0,1542,1458,0.176,-12.662,-1.27,0.53,-9.68,-2.78,-7.75,137.24,24.272200000000026
2023-03-23 22-17-42-739411,0,0,1542,1458,0.088,-12.662,-1.26,0.52,-9.66,-2.85,-7.74,137.14,24.172200000000004
2023-03-23 22-17-42-767068,0,0,1542,1458,0.088,-12.662,-1.27,0.55,-9.66,-2.92,-7.73,137.05,24.08220000000003
2023-03-23 22-17-42-799227,0,0,1541,1459,0.176,-12.662,-1.28,0.58,-9.66,-2.99,-7.71,136.95,23.982200000000006
2023-03-23 22-17-42-830982,0,0,1541,1459,0.088,-12.662,-1.29,0.57,-9.67,-3.05,-7.69,136.86,23.89220000000003
2023-03-23 22-17-42-864203,0,0,1541,1459,0.088,-12.662,-1.27,0.62,-9.68,-3.13,-7.67,136.76,23.79220000000001
2023-03-23 22-17-42-895062,0,0,1541,1459,0.088,-12.662,-1.26,0.63,-9.7,-3.2,-7.64,136.67,23.702200000000005
2023-03-23 22-17-42-930235,0,0,1541,1459,0.088,-12.662,-1.25,0.6,-9.68,-3.27,-7.61,136.57,23.60220000000001
2023-03-23 22-17-42-959690,0,0,1541,1459,0.088,-12.662,-1.24,0.63,-9.68,-3.33,-7.57,136.48,23.512200000000007
2023-03-23 22-17-42-995940,0,0,1541,1459,0.088,-12.662,-1.23,0.64,-9.66,-3.4,-7.54,136.39,23.422200000000004
2023-03-23 22-17-43-023755,0,0,1541,1459,0.088,-12.662,-1.22,0.63,-9.68,-3.47,-7.49,136.3,23.33220000000003
2023-03-23 22-17-43-060424,0,0,1541,1459,0.176,-12.662,-1.21,0.67,-9.66,-3.53,-7.45,136.21,23.242200000000025
2023-03-23 22-17-43-091873,0,0,1541,1459,0.088,-12.662,-1.21,0.67,-9.67,-3.6,-7.4,136.12,23.152200000000022
2023-03-23 22-17-43-125892,0,0,1541,1459,0.088,-12.662,-1.23,0.69,-9.67,-3.67,-7.35,136.03,23.06220000000002
2023-03-23 22-17-43-156396,0,0,1541,1459,0.088,-12.662,-1.22,0.72,-9.65,-3.73,-7.29,135.94,22.972200000000015
2023-03-23 22-17-43-190638,0,0,1541,1459,0.088,-12.662,-1.22,0.72,-9.66,-3.79,-7.23,135.85,22.88220000000001
2023-03-23 22-17-43-220089,0,0,1541,1459,0.176,-12.662,-1.21,0.72,-9.69,-3.85,-7.18,135.75,22.782200000000017
2023-03-23 22-17-43-247500,0,0,1541,1459,0.088,-12.662,-1.19,0.73,-9.67,-3.92,-7.12,135.66,22.692200000000014
2023-03-23 22-17-43-262724,0,0,1541,1459,0.088,-12.662,-1.18,0.75,-9.7,-3.98,-7.06,135.58,22.61220000000003
2023-03-23 22-17-43-279515,0,0,1541,1459,0.176,-12.574,-1.16,0.74,-9.68,-4.05,-7.0,135.48,22.512200000000007
2023-03-23 22-17-43-294939,0,0,1541,1459,0.088,-12.662,-1.15,0.78,-9.67,-4.11,-6.94,135.39,22.422200000000004
2023-03-23 22-17-43-309573,0,0,1541,1459,0.088,-12.662,-1.14,0.8,-9.71,-4.17,-6.88,135.31,22.34220000000002
2023-03-23 22-17-43-327149,0,0,1541,1459,0.088,-12.662,-1.12,0.78,-9.67,-4.24,-6.82,135.22,22.252200000000016
2023-03-23 22-17-43-343084,0,0,1541,1459,0.088,-12.662,-1.12,0.81,-9.66,-4.3,-6.76,135.13,22.162200000000013
2023-03-23 22-17-43-361474,0,0,1541,1459,0.088,-12.662,-1.1,0.81,-9.65,-4.36,-6.7,135.04,22.07220000000001
2023-03-23 22-17-43-391670,0,0,1540,1460,0.088,-12.662,-1.08,0.83,-9.67,-4.41,-6.64,134.96,21.992200000000025
2023-03-23 22-17-43-408044,0,0,1540,1460,0.088,-12.662,-1.06,0.84,-9.71,-4.47,-6.57,134.88,21.912200000000013
2023-03-23 22-17-43-422432,0,0,1540,1460,0.088,-12.662,-1.04,0.84,-9.7,-4.53,-6.51,134.79,21.82220000000001
2023-03-23 22-17-43-438083,0,0,1540,1460,0.088,-12.662,-1.03,0.84,-9.71,-4.58,-6.45,134.71,21.742200000000025
2023-03-23 22-17-43-455225,0,0,1540,1460,0.176,-12.662,-1.04,0.86,-9.67,-4.64,-6.4,134.62,21.652200000000022
2023-03-23 22-17-43-470902,0,0,1540,1460,0.088,-12.662,-1.04,0.87,-9.69,-4.7,-6.34,134.54,21.57220000000001
2023-03-23 22-17-43-487477,0,0,1540,1460,0.088,-12.662,-1.04,0.88,-9.68,-4.75,-6.28,134.45,21.482200000000006
2023-03-23 22-17-43-501783,0,0,1540,1460,0.088,-12.662,-1.02,0.88,-9.69,-4.81,-6.23,134.36,21.39220000000003
2023-03-23 22-17-43-521641,0,0,1540,1460,0.088,-12.662,-1.02,0.87,-9.69,-4.87,-6.17,134.28,21.31220000000002
2023-03-23 22-17-43-551112,0,0,1540,1460,0.088,-12.662,-1.02,0.88,-9.68,-4.92,-6.12,134.19,21.222200000000015
2023-03-23 22-17-43-569704,0,0,1540,1460,0.088,-12.662,-1.03,0.93,-9.72,-4.97,-6.07,134.11,21.14220000000003
2023-03-23 22-17-43-599351,0,0,1540,1460,0.088,-12.662,-1.02,0.91,-9.7,-5.03,-6.02,134.03,21.06220000000002
2023-03-23 22-17-43-630455,0,0,1540,1460,0.176,-12.662,-1.0,0.89,-9.7,-5.08,-5.96,133.95,20.982200000000006
2023-03-23 22-17-43-645842,0,0,1540,1460,0.088,-12.662,-1.0,0.92,-9.67,-5.13,-5.92,133.87,20.902200000000022
2023-03-23 22-17-43-663408,0,0,1540,1460,0.088,-12.662,-0.98,0.94,-9.67,-5.18,-5.87,133.8,20.83220000000003
2023-03-23 22-17-43-679314,0,0,1540,1460,0.088,-12.662,-0.96,0.96,-9.68,-5.23,-5.82,133.73,20.762200000000007
2023-03-23 22-17-43-693960,0,0,1540,1460,0.088,-12.662,-0.96,0.97,-9.7,-5.28,-5.78,133.65,20.682200000000023
2023-03-23 22-17-43-710042,0,0,1540,1460,0.088,-12.662,-0.94,0.97,-9.69,-5.33,-5.74,133.58,20.61220000000003
2023-03-23 22-17-43-725906,0,0,1540,1460,0.088,-12.662,-0.93,0.99,-9.69,-5.38,-5.7,133.5,20.532200000000017
2023-03-23 22-17-43-741469,0,0,1540,1460,0.088,-12.662,-0.92,0.97,-9.69,-5.43,-5.66,133.43,20.462200000000024
2023-03-23 22-17-43-757390,0,0,1540,1460,0.088,-12.662,-0.9,0.98,-9.69,-5.48,-5.63,133.35,20.38220000000001
2023-03-23 22-17-43-774689,0,0,1540,1460,0.088,-12.662,-0.91,0.99,-9.69,-5.53,-5.59,133.28,20.31220000000002
2023-03-23 22-17-43-791179,0,0,1540,1460,0.088,-12.662,-0.9,0.99,-9.7,-5.57,-5.57,133.21,20.242200000000025
2023-03-23 22-17-43-806115,0,0,1540,1460,0.088,-12.662,-0.91,1.01,-9.69,-5.62,-5.54,133.13,20.162200000000013
2023-03-23 22-17-43-821729,0,0,1540,1460,0.088,-12.662,-0.91,1.03,-9.68,-5.67,-5.51,133.06,20.09220000000002
2023-03-23 22-17-43-837754,0,0,1539,1461,0.088,-12.662,-0.92,1.04,-9.72,-5.71,-5.49,132.98,20.012200000000007
2023-03-23 22-17-43-871179,0,0,1539,1461,0.088,-12.662,-0.91,1.03,-9.7,-5.75,-5.47,132.91,19.942200000000014
2023-03-23 22-17-43-885532,0,0,1539,1461,0.088,-12.662,-0.92,1.01,-9.7,-5.79,-5.46,132.84,19.87220000000002
2023-03-23 22-17-43-902340,0,0,1539,1461,0.088,-12.662,-0.91,1.02,-9.7,-5.83,-5.44,132.77,19.802200000000028
2023-03-23 22-17-43-934693,0,0,1539,1461,0.088,-12.662,-0.91,1.04,-9.71,-5.88,-5.43,132.71,19.742200000000025
2023-03-23 22-17-43-949483,0,0,1539,1461,0.088,-12.662,-0.88,1.07,-9.7,-5.92,-5.43,132.64,19.672200000000004
2023-03-23 22-17-43-967027,0,0,1539,1461,0.088,-12.662,-0.89,1.05,-9.7,-5.96,-5.43,132.58,19.61220000000003
2023-03-23 22-17-43-982754,0,0,1539,1461,0.088,-12.662,-0.9,1.07,-9.7,-6.0,-5.44,132.52,19.552200000000028
2023-03-23 22-17-43-997924,0,0,1539,1461,0.088,-12.662,-0.9,1.09,-9.69,-6.04,-5.46,132.46,19.492200000000025
2023-03-23 22-17-44-013619,0,0,1539,1461,0.088,-12.662,-0.92,1.11,-9.67,-6.08,-5.47,132.4,19.432200000000023
2023-03-23 22-17-44-032870,0,0,1539,1461,0.088,-12.662,-0.92,1.12,-9.69,-6.12,-5.49,132.33,19.36220000000003
2023-03-23 22-17-44-061467,0,0,1539,1461,0.176,-12.662,-0.91,1.1,-9.69,-6.16,-5.52,132.27,19.302200000000028
2023-03-23 22-17-44-079134,0,0,1539,1461,0.088,-12.662,-0.9,1.1,-9.66,-6.19,-5.54,132.21,19.242200000000025
2023-03-23 22-17-44-094132,0,0,1539,1461,0.088,-12.574,-0.89,1.11,-9.67,-6.22,-5.57,132.14,19.172200000000004
2023-03-23 22-17-44-109807,0,0,1539,1461,0.088,-12.662,-0.91,1.14,-9.69,-6.26,-5.6,132.08,19.11220000000003
2023-03-23 22-17-44-126145,0,0,1539,1461,0.088,-12.662,-0.93,1.13,-9.66,-6.29,-5.64,132.02,19.052200000000028
2023-03-23 22-17-44-144865,0,0,1539,1461,0.088,-12.662,-0.94,1.12,-9.64,-6.32,-5.68,131.96,18.992200000000025
2023-03-23 22-17-44-173870,0,0,1539,1461,0.088,-12.662,-0.94,1.14,-9.64,-6.35,-5.72,131.9,18.932200000000023
2023-03-23 22-17-44-191021,0,0,1539,1461,0.088,-12.574,-0.95,1.15,-9.65,-6.38,-5.77,131.84,18.87220000000002
2023-03-23 22-17-44-205685,0,0,1539,1461,0.088,-12.662,-0.94,1.15,-9.66,-6.41,-5.82,131.77,18.802200000000028
2023-03-23 22-17-44-222147,0,0,1539,1461,0.088,-12.662,-0.95,1.16,-9.65,-6.44,-5.87,131.71,18.742200000000025
2023-03-23 22-17-44-239817,0,0,1539,1461,0.088,-12.662,-0.93,1.13,-9.66,-6.46,-5.92,131.66,18.692200000000014
2023-03-23 22-17-44-254008,0,0,1539,1461,0.088,-12.662,-0.93,1.15,-9.65,-6.49,-5.98,131.6,18.63220000000001
2023-03-23 22-17-44-269577,0,0,1539,1461,0.088,-12.662,-0.93,1.14,-9.66,-6.51,-6.04,131.55,18.58220000000003
2023-03-23 22-17-44-286358,0,0,1539,1461,0.176,-12.662,-0.93,1.15,-9.66,-6.54,-6.09,131.5,18.532200000000017
2023-03-23 22-17-44-302687,0,0,1539,1461,0.088,-12.662,-0.94,1.14,-9.66,-6.56,-6.15,131.45,18.482200000000006
2023-03-23 22-17-44-317747,0,0,1539,1461,0.088,-12.662,-0.96,1.15,-9.68,-6.57,-6.21,131.41,18.442200000000014
2023-03-23 22-17-44-335105,0,0,1539,1461,0.088,-12.662,-0.97,1.15,-9.66,-6.59,-6.28,131.37,18.402200000000022
2023-03-23 22-17-44-349709,0,0,1539,1461,0.088,-12.662,-1.0,1.17,-9.63,-6.6,-6.34,131.33,18.36220000000003
2023-03-23 22-17-44-366371,0,0,1539,1461,0.088,-12.662,-1.01,1.18,-9.64,-6.62,-6.41,131.3,18.33220000000003
2023-03-23 22-17-44-381456,0,0,1539,1461,0.088,-12.662,-1.03,1.17,-9.62,-6.63,-6.47,131.26,18.29220000000001
2023-03-23 22-17-44-397615,0,0,1539,1461,0.088,-12.662,-1.02,1.19,-9.63,-6.64,-6.54,131.23,18.262200000000007
2023-03-23 22-17-44-414985,0,0,1539,1461,0.088,-12.662,-1.03,1.2,-9.62,-6.65,-6.6,131.2,18.232200000000006
2023-03-23 22-17-44-432401,0,0,1539,1461,0.088,-12.662,-1.05,1.18,-9.61,-6.66,-6.67,131.17,18.202200000000005
2023-03-23 22-17-44-461469,0,0,1539,1461,0.088,-12.662,-1.08,1.15,-9.64,-6.66,-6.74,131.14,18.172200000000004
2023-03-23 22-17-44-479307,0,0,1539,1461,0.088,-12.662,-1.09,1.16,-9.63,-6.67,-6.8,131.1,18.13220000000001
2023-03-23 22-17-44-510877,0,0,1539,1461,0.088,-12.662,-1.09,1.18,-9.64,-6.68,-6.87,131.07,18.10220000000001
2023-03-23 22-17-44-525537,0,0,1539,1461,0.088,-12.662,-1.11,1.17,-9.63,-6.68,-6.93,131.04,18.07220000000001
2023-03-23 22-17-44-542590,0,0,1539,1461,0.088,-12.662,-1.13,1.19,-9.6,-6.68,-7.0,131.01,18.04220000000001
2023-03-23 22-17-44-573825,0,0,1539,1461,0.088,-12.662,-1.17,1.18,-9.61,-6.68,-7.06,130.98,18.012200000000007
2023-03-23 22-17-44-589521,0,0,1538,1462,0.088,-12.662,-1.18,1.17,-9.63,-6.68,-7.13,130.94,17.972200000000015
2023-03-23 22-17-44-610774,0,0,1538,1462,0.088,-12.662,-1.17,1.17,-9.61,-6.68,-7.19,130.91,17.942200000000014
2023-03-23 22-17-44-637425,0,0,1538,1462,0.088,-12.662,-1.2,1.17,-9.58,-6.68,-7.25,130.87,17.902200000000022
2023-03-23 22-17-44-653248,0,0,1538,1462,0.088,-12.662,-1.22,1.19,-9.62,-6.67,-7.31,130.85,17.88220000000001
2023-03-23 22-17-44-671782,0,0,1538,1462,0.088,-12.662,-1.22,1.14,-9.63,-6.66,-7.37,130.82,17.85220000000001
2023-03-23 22-17-44-684967,0,0,1538,1462,0.088,-12.662,-1.24,1.15,-9.64,-6.65,-7.43,130.79,17.82220000000001
2023-03-23 22-17-44-714212,0,0,1538,1462,0.088,-12.662,-1.25,1.14,-9.63,-6.64,-7.48,130.76,17.79220000000001
2023-03-23 22-17-44-735196,0,0,1538,1462,0.088,-12.662,-1.26,1.14,-9.61,-6.63,-7.53,130.73,17.762200000000007
2023-03-23 22-17-44-750162,0,0,1538,1462,0.088,-12.662,-1.25,1.14,-9.58,-6.63,-7.58,130.7,17.732200000000006
2023-03-23 22-17-44-771086,0,0,1538,1462,0.176,-12.662,-1.26,1.14,-9.59,-6.61,-7.63,130.67,17.702200000000005
2023-03-23 22-17-44-798693,0,0,1538,1462,0.088,-12.662,-1.28,1.15,-9.6,-6.6,-7.67,130.63,17.662200000000013
2023-03-23 22-17-44-814817,0,0,1538,1462,0.176,-12.662,-1.29,1.14,-9.6,-6.58,-7.72,130.6,17.63220000000001
2023-03-23 22-17-44-830401,0,0,1538,1462,0.088,-12.662,-1.3,1.15,-9.59,-6.57,-7.75,130.56,17.59220000000002
2023-03-23 22-17-44-846727,0,0,1538,1462,0.176,-12.662,-1.29,1.15,-9.57,-6.55,-7.79,130.53,17.56220000000002
2023-03-23 22-17-44-861436,0,0,1538,1462,0.088,-12.662,-1.29,1.13,-9.58,-6.53,-7.82,130.49,17.522200000000026
2023-03-23 22-17-44-878428,0,0,1538,1462,0.088,-12.662,-1.28,1.13,-9.59,-6.51,-7.85,130.45,17.482200000000006
2023-03-23 22-17-44-893516,0,0,1538,1462,0.176,-12.662,-1.3,1.11,-9.59,-6.49,-7.88,130.42,17.452200000000005
2023-03-23 22-17-44-910444,0,0,1538,1462,0.088,-12.662,-1.32,1.15,-9.61,-6.46,-7.91,130.38,17.412200000000013
2023-03-23 22-17-44-925522,0,0,1538,1462,0.176,-12.662,-1.31,1.12,-9.6,-6.44,-7.93,130.35,17.38220000000001
2023-03-23 22-17-44-942257,0,0,1538,1462,0.088,-12.662,-1.33,1.11,-9.63,-6.41,-7.96,130.32,17.35220000000001
2023-03-23 22-17-44-957301,0,0,1538,1462,0.088,-12.662,-1.33,1.1,-9.6,-6.38,-7.98,130.28,17.31220000000002
2023-03-23 22-17-44-974240,0,0,1538,1462,0.088,-12.662,-1.34,1.08,-9.6,-6.35,-8.0,130.24,17.272200000000026
2023-03-23 22-17-44-989340,0,0,1538,1462,0.088,-12.662,-1.34,1.09,-9.59,-6.32,-8.02,130.2,17.232200000000006
2023-03-23 22-17-45-006112,0,0,1538,1462,0.176,-12.662,-1.35,1.09,-9.59,-6.29,-8.04,130.17,17.202200000000005
2023-03-23 22-17-45-023780,0,0,1538,1462,0.176,-12.662,-1.35,1.09,-9.57,-6.26,-8.06,130.13,17.162200000000013
2023-03-23 22-17-45-038786,0,0,1538,1462,0.088,-12.662,-1.34,1.09,-9.58,-6.22,-8.07,130.09,17.12220000000002
2023-03-23 22-17-45-053811,0,0,1538,1462,0.088,-12.662,-1.35,1.09,-9.58,-6.18,-8.08,130.05,17.08220000000003
2023-03-23 22-17-45-070368,0,0,1538,1462,0.088,-12.662,-1.37,1.07,-9.58,-6.14,-8.09,130.0,17.032200000000017
2023-03-23 22-17-45-085101,0,0,1538,1462,0.088,-12.662,-1.35,1.05,-9.57,-6.1,-8.09,129.96,16.992200000000025
2023-03-23 22-17-45-101614,0,0,1538,1462,0.088,-12.662,-1.34,1.03,-9.59,-6.06,-8.1,129.92,16.952200000000005
2023-03-23 22-17-45-117572,0,0,1538,1462,0.176,-12.662,-1.35,1.02,-9.57,-6.02,-8.1,129.87,16.902200000000022
2023-03-23 22-17-45-133818,0,0,1538,1462,0.088,-12.662,-1.37,1.03,-9.58,-5.97,-8.11,129.83,16.86220000000003
2023-03-23 22-17-45-153845,0,0,1538,1462,0.088,-12.662,-1.37,1.0,-9.58,-5.92,-8.11,129.79,16.82220000000001
2023-03-23 22-17-45-181383,0,0,1538,1462,0.088,-12.662,-1.38,1.01,-9.62,-5.87,-8.11,129.75,16.782200000000017
2023-03-23 22-17-45-198266,0,0,1538,1462,0.088,-12.662,-1.36,1.0,-9.6,-5.82,-8.11,129.71,16.742200000000025
2023-03-23 22-17-45-215716,0,0,1538,1462,0.176,-12.662,-1.37,0.98,-9.56,-5.77,-8.12,129.67,16.702200000000005
2023-03-23 22-17-45-229288,0,0,1538,1462,0.088,-12.662,-1.37,0.98,-9.54,-5.72,-8.11,129.62,16.652200000000022
2023-03-23 22-17-45-245271,0,0,1538,1462,0.088,-12.662,-1.36,0.98,-9.57,-5.66,-8.11,129.58,16.61220000000003
2023-03-23 22-17-45-262972,0,0,1538,1462,0.088,-12.662,-1.36,0.96,-9.59,-5.6,-8.1,129.53,16.56220000000002
2023-03-23 22-17-45-284800,0,0,1538,1462,0.088,-12.662,-1.35,0.96,-9.6,-5.55,-8.09,129.49,16.522200000000026
2023-03-23 22-17-45-310633,0,0,1538,1462,0.088,-12.662,-1.37,0.92,-9.62,-5.49,-8.08,129.45,16.482200000000006
2023-03-23 22-17-45-355691,0,0,1538,1462,0.088,-12.662,-1.36,0.91,-9.6,-5.43,-8.07,129.41,16.442200000000014
2023-03-23 22-17-45-373379,0,0,1538,1462,0.088,-12.662,-1.37,0.92,-9.59,-5.37,-8.06,129.37,16.402200000000022
2023-03-23 22-17-45-398915,0,0,1538,1462,0.088,-12.662,-1.37,0.9,-9.58,-5.31,-8.05,129.33,16.36220000000003
2023-03-23 22-17-45-422562,0,0,1538,1462,0.088,-12.662,-1.37,0.88,-9.58,-5.24,-8.04,129.29,16.32220000000001
2023-03-23 22-17-45-437626,0,0,1538,1462,0.088,-12.662,-1.4,0.9,-9.6,-5.18,-8.03,129.25,16.282200000000017
2023-03-23 22-17-45-455340,0,0,1538,1462,0.088,-12.662,-1.38,0.87,-9.62,-5.11,-8.02,129.21,16.242200000000025
2023-03-23 22-17-45-487212,0,0,1538,1462,0.088,-12.662,-1.37,0.86,-9.63,-5.05,-8.01,129.18,16.212200000000024
2023-03-23 22-17-45-502598,0,0,1538,1462,0.088,-12.662,-1.34,0.82,-9.6,-4.98,-8.0,129.14,16.172200000000004
2023-03-23 22-17-45-517166,0,0,1538,1462,0.088,-12.662,-1.35,0.81,-9.61,-4.91,-7.99,129.1,16.13220000000001
2023-03-23 22-17-45-549241,0,0,1538,1462,0.088,-12.662,-1.36,0.83,-9.59,-4.84,-7.98,129.06,16.09220000000002
2023-03-23 22-17-45-566527,0,0,1538,1462,0.088,-12.662,-1.36,0.84,-9.61,-4.77,-7.97,129.02,16.052200000000028
2023-03-23 22-17-45-583178,0,0,1538,1462,0.088,-12.662,-1.34,0.83,-9.62,-4.71,-7.95,128.98,16.012200000000007
2023-03-23 22-17-45-597698,0,0,1537,1463,0.088,-12.662,-1.34,0.81,-9.62,-4.64,-7.94,128.94,15.972200000000015
2023-03-23 22-17-45-614887,0,0,1537,1463,0.088,-12.662,-1.35,0.78,-9.64,-4.57,-7.93,128.9,15.932200000000023
2023-03-23 22-17-45-629850,0,0,1537,1463,0.176,-12.662,-1.36,0.77,-9.64,-4.5,-7.91,128.86,15.892200000000031
2023-03-23 22-17-45-646055,0,0,1537,1463,0.088,-12.662,-1.36,0.78,-9.63,-4.43,-7.9,128.81,15.84220000000002
2023-03-23 22-17-45-661085,0,0,1537,1463,0.088,-12.662,-1.35,0.76,-9.6,-4.36,-7.88,128.77,15.802200000000028
2023-03-23 22-17-45-694119,0,0,1537,1463,0.088,-12.662,-1.34,0.74,-9.62,-4.29,-7.87,128.73,15.762200000000007
2023-03-23 22-17-45-710026,0,0,1537,1463,0.088,-12.662,-1.35,0.76,-9.64,-4.23,-7.85,128.69,15.722200000000015
2023-03-23 22-17-45-726458,0,0,1537,1463,0.088,-12.662,-1.34,0.72,-9.65,-4.16,-7.83,128.66,15.692200000000014
2023-03-23 22-17-45-741996,0,0,1537,1463,0.088,-12.662,-1.34,0.71,-9.65,-4.09,-7.81,128.62,15.652200000000022
2023-03-23 22-17-45-757496,0,0,1537,1463,0.088,-12.662,-1.32,0.69,-9.63,-4.02,-7.79,128.58,15.61220000000003
2023-03-23 22-17-45-790809,0,0,1537,1463,0.088,-12.662,-1.33,0.67,-9.62,-3.95,-7.77,128.54,15.57220000000001
2023-03-23 22-17-45-806419,0,0,1537,1463,0.088,-12.662,-1.31,0.66,-9.63,-3.89,-7.75,128.49,15.522200000000026
2023-03-23 22-17-45-821387,0,0,1537,1463,0.088,-12.662,-1.32,0.67,-9.64,-3.82,-7.73,128.45,15.482200000000006
2023-03-23 22-17-45-838965,0,0,1537,1463,0.088,-12.662,-1.32,0.66,-9.65,-3.75,-7.71,128.41,15.442200000000014
2023-03-23 22-17-45-855850,0,0,1537,1463,0.088,-12.662,-1.31,0.63,-9.65,-3.68,-7.68,128.38,15.412200000000013
2023-03-23 22-17-45-869132,0,0,1537,1463,0.088,-12.662,-1.29,0.62,-9.65,-3.62,-7.65,128.34,15.37220000000002
2023-03-23 22-17-45-886410,0,0,1537,1463,0.088,-12.662,-1.3,0.6,-9.64,-3.55,-7.63,128.3,15.332200000000029
2023-03-23 22-17-45-933265,0,0,1537,1463,0.088,-12.662,-1.29,0.6,-9.66,-3.48,-7.61,128.26,15.292200000000008
2023-03-23 22-17-45-950382,0,0,1537,1463,0.088,-12.662,-1.29,0.59,-9.66,-3.42,-7.58,128.22,15.252200000000016
2023-03-23 22-17-45-965033,0,0,1537,1463,0.088,-12.662,-1.28,0.57,-9.66,-3.35,-7.56,128.19,15.222200000000015
2023-03-23 22-17-45-981135,0,0,1537,1463,0.088,-12.662,-1.29,0.58,-9.68,-3.29,-7.53,128.16,15.192200000000014
2023-03-23 22-17-45-997295,0,0,1537,1463,0.088,-12.662,-1.29,0.54,-9.67,-3.22,-7.51,128.12,15.152200000000022
2023-03-23 22-17-46-013637,0,0,1537,1463,0.088,-12.662,-1.28,0.53,-9.67,-3.15,-7.48,128.08,15.11220000000003
2023-03-23 22-17-46-029882,0,0,1537,1463,0.088,-12.662,-1.28,0.53,-9.66,-3.09,-7.46,128.05,15.082200000000029
2023-03-23 22-17-46-045679,0,0,1537,1463,0.088,-12.662,-1.27,0.51,-9.68,-3.02,-7.43,128.01,15.042200000000008
2023-03-23 22-17-46-061221,0,0,1537,1463,0.088,-12.662,-1.26,0.51,-9.69,-2.96,-7.41,127.98,15.012200000000021
2023-03-23 22-17-46-077818,0,0,1537,1463,0.088,-12.662,-1.27,0.5,-9.69,-2.9,-7.39,127.95,14.98220000000002
2023-03-23 22-17-46-094740,0,0,1537,1463,0.088,-12.662,-1.27,0.51,-9.7,-2.84,-7.37,127.91,14.942200000000014
2023-03-23 22-17-46-110024,0,0,1537,1463,0.088,-12.662,-1.24,0.48,-9.69,-2.78,-7.35,127.88,14.912200000000013
2023-03-23 22-17-46-125351,0,0,1537,1463,0.088,-12.662,-1.23,0.46,-9.69,-2.72,-7.34,127.85,14.882200000000012
2023-03-23 22-17-46-141812,0,0,1537,1463,0.088,-12.662,-1.23,0.45,-9.68,-2.66,-7.32,127.82,14.85220000000001
2023-03-23 22-17-46-158354,0,0,1537,1463,0.088,-12.662,-1.25,0.45,-9.68,-2.59,-7.31,127.79,14.822200000000024
2023-03-23 22-17-46-173297,0,0,1537,1463,0.088,-12.662,-1.25,0.44,-9.71,-2.53,-7.31,127.76,14.792200000000022
2023-03-23 22-17-46-189138,0,0,1537,1463,0.088,-12.662,-1.24,0.41,-9.69,-2.47,-7.3,127.73,14.762200000000021
2023-03-23 22-17-46-205871,0,0,1537,1463,0.088,-12.662,-1.26,0.41,-9.67,-2.41,-7.31,127.7,14.73220000000002
2023-03-23 22-17-46-222006,0,0,1537,1463,0.088,-12.662,-1.27,0.42,-9.7,-2.35,-7.32,127.68,14.712200000000024
2023-03-23 22-17-46-237200,0,0,1537,1463,0.088,-12.662,-1.26,0.39,-9.69,-2.29,-7.33,127.65,14.682200000000023
2023-03-23 22-17-46-254698,0,0,1537,1463,0.176,-12.662,-1.26,0.39,-9.67,-2.23,-7.34,127.63,14.662200000000013
2023-03-23 22-17-46-270270,0,0,1537,1463,0.088,-12.662,-1.26,0.37,-9.65,-2.17,-7.36,127.61,14.642200000000017
2023-03-23 22-17-46-285823,0,0,1537,1463,0.088,-12.662,-1.28,0.37,-9.66,-2.11,-7.38,127.59,14.62220000000002
2023-03-23 22-17-46-301334,0,0,1537,1463,0.088,-12.574,-1.29,0.35,-9.68,-2.05,-7.4,127.56,14.59220000000002
2023-03-23 22-17-46-318912,0,0,1537,1463,0.088,-12.662,-1.29,0.35,-9.67,-1.99,-7.43,127.55,14.582200000000014
2023-03-23 22-17-46-334731,0,0,1537,1463,0.088,-12.662,-1.26,0.34,-9.65,-1.93,-7.46,127.53,14.562200000000018
2023-03-23 22-17-46-349272,0,0,1537,1463,0.088,-12.662,-1.27,0.32,-9.66,-1.87,-7.49,127.51,14.542200000000022
2023-03-23 22-17-46-365150,0,0,1537,1463,0.088,-12.662,-1.27,0.31,-9.69,-1.81,-7.52,127.48,14.512200000000021
2023-03-23 22-17-46-381122,0,0,1537,1463,0.088,-12.662,-1.3,0.3,-9.7,-1.75,-7.55,127.46,14.492200000000011
2023-03-23 22-17-46-397949,0,0,1537,1463,0.088,-12.662,-1.3,0.29,-9.7,-1.69,-7.59,127.44,14.472200000000015
2023-03-23 22-17-46-414152,0,0,1537,1463,0.088,-12.662,-1.3,0.27,-9.68,-1.64,-7.62,127.42,14.452200000000019
2023-03-23 22-17-46-430251,0,0,1537,1463,0.088,-12.662,-1.3,0.24,-9.66,-1.58,-7.66,127.4,14.432200000000023
2023-03-23 22-17-46-445108,0,0,1537,1463,0.088,-12.662,-1.33,0.26,-9.68,-1.52,-7.7,127.39,14.422200000000018
2023-03-23 22-17-46-461648,0,0,1537,1463,0.088,-12.662,-1.34,0.25,-9.68,-1.47,-7.74,127.37,14.402200000000022
2023-03-23 22-17-46-477714,0,0,1537,1463,0.088,-12.662,-1.32,0.22,-9.69,-1.41,-7.77,127.35,14.382200000000012
2023-03-23 22-17-46-494389,0,0,1537,1463,0.088,-12.662,-1.3,0.19,-9.68,-1.35,-7.81,127.33,14.362200000000016
2023-03-23 22-17-46-509072,0,0,1537,1463,0.088,-12.662,-1.3,0.18,-9.65,-1.29,-7.85,127.32,14.35220000000001
2023-03-23 22-17-46-525759,0,0,1537,1463,0.088,-12.662,-1.33,0.2,-9.65,-1.24,-7.89,127.3,14.332200000000014
2023-03-23 22-17-46-540955,0,0,1537,1463,0.088,-12.662,-1.34,0.2,-9.66,-1.19,-7.92,127.29,14.322200000000024
2023-03-23 22-17-46-557808,0,0,1537,1463,0.088,-12.662,-1.34,0.18,-9.67,-1.13,-7.96,127.27,14.302200000000013
2023-03-23 22-17-46-575280,0,0,1537,1463,0.088,-12.662,-1.35,0.17,-9.64,-1.08,-7.99,127.26,14.292200000000022
2023-03-23 22-17-46-589220,0,0,1537,1463,0.088,-12.662,-1.36,0.18,-9.65,-1.03,-8.03,127.25,14.282200000000017
2023-03-23 22-17-46-605655,0,0,1537,1463,0.088,-12.662,-1.38,0.17,-9.68,-0.98,-8.06,127.23,14.262200000000021
2023-03-23 22-17-46-621199,0,0,1537,1463,0.088,-12.662,-1.39,0.15,-9.68,-0.92,-8.09,127.22,14.252200000000016
2023-03-23 22-17-46-637229,0,0,1537,1463,0.088,-12.662,-1.38,0.14,-9.67,-0.87,-8.13,127.2,14.23220000000002
2023-03-23 22-17-46-653432,0,0,1537,1463,0.088,-12.662,-1.38,0.12,-9.64,-0.82,-8.16,127.19,14.222200000000015
2023-03-23 22-17-46-668951,0,0,1537,1463,0.088,-12.662,-1.41,0.14,-9.67,-0.77,-8.19,127.18,14.212200000000024
2023-03-23 22-17-46-686313,0,0,1537,1463,0.088,-12.662,-1.44,0.11,-9.67,-0.72,-8.22,127.16,14.192200000000014
2023-03-23 22-17-46-701210,0,0,1537,1463,0.088,-12.574,-1.41,0.09,-9.67,-0.67,-8.26,127.15,14.182200000000023
2023-03-23 22-17-46-719641,0,0,1537,1463,0.088,-12.662,-1.41,0.07,-9.67,-0.61,-8.29,127.14,14.172200000000018
2023-03-23 22-17-46-735334,0,0,1537,1463,0.088,-12.662,-1.4,0.06,-9.65,-0.56,-8.32,127.12,14.152200000000022
2023-03-23 22-17-46-749214,0,0,1537,1463,0.088,-12.662,-1.41,0.08,-9.64,-0.51,-8.35,127.11,14.142200000000017
2023-03-23 22-17-46-765443,0,0,1537,1463,0.088,-12.662,-1.43,0.08,-9.64,-0.46,-8.38,127.09,14.12220000000002
2023-03-23 22-17-46-781413,0,0,1537,1463,0.088,-12.662,-1.42,0.06,-9.66,-0.41,-8.42,127.08,14.112200000000016
2023-03-23 22-17-46-798131,0,0,1537,1463,0.088,-12.662,-1.42,0.05,-9.65,-0.36,-8.45,127.06,14.09220000000002
2023-03-23 22-17-46-815754,0,0,1537,1463,0.088,-12.662,-1.43,0.06,-9.66,-0.31,-8.48,127.04,14.072200000000024
2023-03-23 22-17-46-830678,0,0,1537,1463,0.088,-12.662,-1.44,0.05,-9.65,-0.26,-8.52,127.02,14.052200000000013
2023-03-23 22-17-46-861098,0,0,1537,1463,0.088,-12.662,-1.44,0.03,-9.65,-0.22,-8.55,127.01,14.042200000000022
2023-03-23 22-17-46-876981,0,0,1537,1463,0.088,-12.662,-1.42,0.02,-9.65,-0.17,-8.59,126.99,14.022200000000012
2023-03-23 22-17-46-894255,0,0,1537,1463,0.088,-12.662,-1.44,-0.0,-9.66,-0.12,-8.62,126.98,14.012200000000021
2023-03-23 22-17-46-909018,0,0,1537,1463,0.088,-12.662,-1.46,0.03,-9.65,-0.07,-8.65,126.97,14.002200000000016
2023-03-23 22-17-46-925152,0,0,1536,1464,0.088,-12.75,-1.49,0.02,-9.67,-0.03,-8.68,126.95,13.98220000000002
2023-03-23 22-17-46-941827,0,0,1536,1464,0.088,-12.662,-1.49,-0.02,-9.65,0.02,-8.72,126.94,13.972200000000015
2023-03-23 22-17-46-957422,0,0,1536,1464,0.088,-12.662,-1.48,-0.02,-9.65,0.07,-8.75,126.93,13.962200000000024
2023-03-23 22-17-46-973948,0,0,1536,1464,0.088,-12.662,-1.49,-0.02,-9.64,0.11,-8.79,126.92,13.952200000000019
2023-03-23 22-17-46-989293,0,0,1536,1464,0.088,-12.662,-1.5,-0.02,-9.68,0.15,-8.82,126.91,13.942200000000014
2023-03-23 22-17-47-006236,0,0,1536,1464,0.176,-12.662,-1.5,-0.04,-9.69,0.19,-8.85,126.9,13.932200000000023
2023-03-23 22-17-47-022574,0,0,1536,1464,0.088,-12.662,-1.5,-0.06,-9.64,0.24,-8.88,126.89,13.922200000000018
2023-03-23 22-17-47-042008,0,0,1536,1464,0.176,-12.662,-1.5,-0.08,-9.63,0.28,-8.91,126.88,13.912200000000013
2023-03-23 22-17-47-074293,0,0,1536,1464,0.088,-12.662,-1.51,-0.05,-9.66,0.32,-8.94,126.87,13.902200000000022
2023-03-23 22-17-47-106281,0,0,1536,1464,0.088,-12.662,-1.53,-0.05,-9.68,0.36,-8.97,126.86,13.892200000000017
2023-03-23 22-17-47-138113,0,0,1536,1464,0.088,-12.662,-1.55,-0.06,-9.67,0.4,-9.0,126.85,13.882200000000012
2023-03-23 22-17-47-169698,0,0,1536,1464,0.088,-12.662,-1.55,-0.07,-9.64,0.44,-9.02,126.84,13.87220000000002
2023-03-23 22-17-47-200987,0,0,1536,1464,0.088,-12.662,-1.53,-0.11,-9.66,0.47,-9.05,126.83,13.862200000000016
2023-03-23 22-17-47-233540,0,0,1536,1464,0.088,-12.662,-1.53,-0.11,-9.63,0.51,-9.08,126.82,13.85220000000001
2023-03-23 22-17-47-265276,0,0,1536,1464,0.176,-12.662,-1.56,-0.09,-9.68,0.54,-9.1,126.81,13.84220000000002
2023-03-23 22-17-47-292815,0,0,1536,1464,0.088,-12.662,-1.54,-0.12,-9.66,0.58,-9.14,126.8,13.832200000000014
2023-03-23 22-17-47-309696,0,0,1536,1464,0.088,-12.662,-1.56,-0.14,-9.67,0.62,-9.16,126.79,13.822200000000024
2023-03-23 22-17-47-325414,0,0,1536,1464,0.088,-12.662,-1.55,-0.15,-9.67,0.65,-9.19,126.78,13.812200000000018
2023-03-23 22-17-47-345886,0,0,1536,1464,0.088,-12.662,-1.55,-0.14,-9.66,0.68,-9.21,126.77,13.802200000000013
2023-03-23 22-17-47-373217,0,0,1536,1464,0.088,-12.662,-1.56,-0.14,-9.67,0.72,-9.24,126.75,13.782200000000017
2023-03-23 22-17-47-389246,0,0,1536,1464,0.088,-12.662,-1.58,-0.15,-9.65,0.75,-9.26,126.74,13.772200000000012
2023-03-23 22-17-47-405115,0,0,1536,1464,0.088,-12.662,-1.57,-0.16,-9.65,0.78,-9.29,126.73,13.762200000000021
2023-03-23 22-17-47-422265,0,0,1536,1464,0.088,-12.662,-1.56,-0.15,-9.63,0.81,-9.31,126.72,13.752200000000016
2023-03-23 22-17-47-437915,0,0,1536,1464,0.176,-12.662,-1.56,-0.14,-9.62,0.84,-9.34,126.71,13.742200000000011
2023-03-23 22-17-47-454040,0,0,1536,1464,0.088,-12.662,-1.57,-0.14,-9.67,0.87,-9.36,126.69,13.722200000000015
2023-03-23 22-17-47-469250,0,0,1536,1464,0.088,-12.662,-1.56,-0.17,-9.64,0.9,-9.38,126.67,13.702200000000019
2023-03-23 22-17-47-485995,0,0,1536,1464,0.088,-12.662,-1.57,-0.18,-9.63,0.93,-9.39,126.65,13.682200000000023
2023-03-23 22-17-47-500796,0,0,1536,1464,0.088,-12.662,-1.56,-0.17,-9.62,0.96,-9.41,126.63,13.662200000000013
2023-03-23 22-17-47-518718,0,0,1536,1464,0.088,-12.662,-1.57,-0.15,-9.63,0.99,-9.43,126.61,13.642200000000017
2023-03-23 22-17-47-536044,0,0,1536,1464,0.088,-12.662,-1.58,-0.15,-9.64,1.02,-9.45,126.6,13.632200000000012
2023-03-23 22-17-47-549495,0,0,1536,1464,0.088,-12.662,-1.57,-0.21,-9.6,1.04,-9.47,126.58,13.612200000000016
2023-03-23 22-17-47-567187,0,0,1536,1464,0.088,-12.662,-1.56,-0.18,-9.6,1.07,-9.48,126.57,13.60220000000001
2023-03-23 22-17-47-581369,0,0,1536,1464,0.088,-12.662,-1.56,-0.18,-9.6,1.1,-9.5,126.55,13.582200000000014
2023-03-23 22-17-47-597365,0,0,1536,1464,0.088,-12.662,-1.58,-0.18,-9.62,1.12,-9.52,126.53,13.562200000000018
2023-03-23 22-17-47-614229,0,0,1536,1464,0.088,-12.662,-1.58,-0.2,-9.64,1.15,-9.53,126.52,13.552200000000013
2023-03-23 22-17-47-646892,0,0,1536,1464,0.088,-12.662,-1.57,-0.22,-9.62,1.17,-9.55,126.52,13.552200000000013
2023-03-23 22-17-47-661584,0,0,1536,1464,0.088,-12.662,-1.57,-0.23,-9.62,1.2,-9.56,126.51,13.542200000000022
2023-03-23 22-17-47-677178,0,0,1536,1464,0.088,-12.662,-1.57,-0.24,-9.63,1.23,-9.57,126.49,13.522200000000012
2023-03-23 22-17-47-697253,0,0,1536,1464,0.088,-12.662,-1.59,-0.23,-9.64,1.25,-9.58,126.48,13.512200000000021
2023-03-23 22-17-47-731972,0,0,1536,1464,0.088,-12.662,-1.6,-0.21,-9.63,1.28,-9.59,126.47,13.502200000000016
2023-03-23 22-17-47-764431,0,0,1536,1464,0.088,-12.662,-1.6,-0.27,-9.63,1.3,-9.6,126.45,13.48220000000002
2023-03-23 22-17-47-793555,0,0,1536,1464,0.088,-12.662,-1.61,-0.28,-9.61,1.32,-9.61,126.44,13.472200000000015
2023-03-23 22-17-47-828188,0,0,1536,1464,0.088,-12.662,-1.62,-0.27,-9.6,1.35,-9.61,126.42,13.452200000000019
2023-03-23 22-17-47-857895,0,0,1536,1464,0.088,-12.662,-1.65,-0.24,-9.65,1.37,-9.62,126.41,13.442200000000014
2023-03-23 22-17-47-891555,0,0,1536,1464,0.176,-12.662,-1.65,-0.26,-9.65,1.39,-9.62,126.4,13.432200000000023
2023-03-23 22-17-47-924150,0,0,1536,1464,0.088,-12.662,-1.63,-0.27,-9.62,1.41,-9.63,126.39,13.422200000000018
2023-03-23 22-17-47-954868,0,0,1536,1464,0.088,-12.662,-1.61,-0.28,-9.61,1.43,-9.63,126.38,13.412200000000013
2023-03-23 22-17-47-981342,0,0,1536,1464,0.088,-12.662,-1.62,-0.27,-9.63,1.46,-9.63,126.36,13.392200000000017
2023-03-23 22-17-48-018109,0,0,1536,1464,0.088,-12.662,-1.62,-0.27,-9.65,1.47,-9.63,126.35,13.382200000000012
2023-03-23 22-17-48-046614,0,0,1536,1464,0.088,-12.662,-1.6,-0.27,-9.62,1.49,-9.63,126.33,13.362200000000016
2023-03-23 22-17-48-065873,0,0,1536,1464,0.176,-12.662,-1.61,-0.28,-9.61,1.51,-9.63,126.31,13.34220000000002
2023-03-23 22-17-48-098359,0,0,1536,1464,0.088,-12.662,-1.6,-0.27,-9.62,1.53,-9.62,126.3,13.332200000000014
2023-03-23 22-17-48-130519,0,0,1536,1464,0.176,-12.662,-1.59,-0.26,-9.63,1.55,-9.62,126.28,13.312200000000018
2023-03-23 22-17-48-161579,0,0,1536,1464,0.088,-12.662,-1.6,-0.28,-9.62,1.57,-9.62,126.26,13.292200000000022
2023-03-23 22-17-48-191038,0,0,1536,1464,0.088,-12.662,-1.59,-0.28,-9.62,1.59,-9.62,126.24,13.272200000000012
2023-03-23 22-17-48-205133,0,0,1536,1464,0.088,-12.662,-1.59,-0.3,-9.64,1.61,-9.61,126.22,13.252200000000016
2023-03-23 22-17-48-223876,0,0,1536,1464,0.088,-12.662,-1.59,-0.32,-9.62,1.63,-9.61,126.2,13.23220000000002
2023-03-23 22-17-48-237037,0,0,1536,1464,0.088,-12.662,-1.61,-0.29,-9.59,1.65,-9.61,126.18,13.212200000000024
2023-03-23 22-17-48-257828,0,0,1536,1464,0.088,-12.662,-1.62,-0.28,-9.62,1.66,-9.61,126.17,13.202200000000019
2023-03-23 22-17-48-285814,0,0,1536,1464,0.088,-12.662,-1.62,-0.3,-9.61,1.67,-9.61,126.16,13.192200000000014
2023-03-23 22-17-48-301099,0,0,1536,1464,0.088,-12.662,-1.6,-0.27,-9.63,1.69,-9.61,126.14,13.172200000000018
2023-03-23 22-17-48-317271,0,0,1536,1464,0.088,-12.662,-1.58,-0.28,-9.62,1.7,-9.61,126.13,13.162200000000013
2023-03-23 22-17-48-334540,0,0,1536,1464,0.088,-12.662,-1.58,-0.27,-9.63,1.71,-9.62,126.11,13.142200000000017
2023-03-23 22-17-48-366877,0,0,1536,1464,0.088,-12.662,-1.58,-0.29,-9.64,1.73,-9.62,126.09,13.12220000000002
2023-03-23 22-17-48-382959,0,0,1536,1464,0.088,-12.662,-1.6,-0.31,-9.64,1.74,-9.62,126.07,13.10220000000001
2023-03-23 22-17-48-399426,0,0,1536,1464,0.088,-12.662,-1.58,-0.31,-9.65,1.75,-9.63,126.06,13.09220000000002
2023-03-23 22-17-48-428921,0,0,1536,1464,0.088,-12.662,-1.56,-0.31,-9.67,1.76,-9.63,126.04,13.072200000000024
2023-03-23 22-17-48-448687,0,0,1536,1464,0.088,-12.662,-1.57,-0.29,-9.65,1.77,-9.63,126.02,13.052200000000013
2023-03-23 22-17-48-477879,0,0,1536,1464,0.088,-12.662,-1.56,-0.31,-9.65,1.78,-9.63,126.0,13.032200000000017
2023-03-23 22-17-48-492994,0,0,1536,1464,0.088,-12.662,-1.56,-0.3,-9.64,1.79,-9.63,125.97,13.002200000000016
2023-03-23 22-17-48-510820,0,0,1536,1464,0.088,-12.662,-1.56,-0.28,-9.63,1.8,-9.63,125.94,12.972200000000015
2023-03-23 22-17-48-524936,0,0,1536,1464,0.088,-12.662,-1.57,-0.3,-9.63,1.81,-9.63,125.9,12.932200000000023
2023-03-23 22-17-48-541299,0,0,1536,1464,0.088,-12.662,-1.6,-0.32,-9.62,1.82,-9.63,125.86,12.892200000000017
2023-03-23 22-17-48-557404,0,0,1536,1464,0.088,-12.662,-1.61,-0.3,-9.61,1.83,-9.62,125.82,12.85220000000001
2023-03-23 22-17-48-574274,0,0,1536,1464,0.088,-12.662,-1.6,-0.28,-9.62,1.83,-9.62,125.78,12.812200000000018
2023-03-23 22-17-48-589466,0,0,1536,1464,0.088,-12.662,-1.59,-0.32,-9.61,1.84,-9.61,125.74,12.772200000000012
2023-03-23 22-17-48-606403,0,0,1536,1464,0.176,-12.662,-1.59,-0.32,-9.64,1.84,-9.6,125.7,12.73220000000002
2023-03-23 22-17-48-622336,0,0,1536,1464,0.088,-12.662,-1.59,-0.34,-9.64,1.85,-9.59,125.65,12.682200000000023
2023-03-23 22-17-48-637829,0,0,1536,1464,0.088,-12.662,-1.59,-0.33,-9.65,1.86,-9.58,125.6,12.632200000000012
2023-03-23 22-17-48-652746,0,0,1536,1464,0.176,-12.662,-1.58,-0.32,-9.64,1.87,-9.57,125.55,12.582200000000014
2023-03-23 22-17-48-670406,0,0,1536,1464,0.088,-12.662,-1.58,-0.33,-9.63,1.87,-9.56,125.5,12.532200000000017
2023-03-23 22-17-48-688152,0,0,1536,1464,0.088,-12.662,-1.58,-0.32,-9.61,1.88,-9.54,125.45,12.48220000000002
2023-03-23 22-17-48-717863,0,0,1536,1464,0.088,-12.662,-1.58,-0.32,-9.61,1.89,-9.52,125.39,12.422200000000018
2023-03-23 22-17-48-734228,0,0,1536,1464,0.088,-12.662,-1.57,-0.32,-9.62,1.89,-9.5,125.34,12.37220000000002
2023-03-23 22-17-48-750080,0,0,1536,1464,0.088,-12.662,-1.57,-0.32,-9.63,1.9,-9.49,125.28,12.312200000000018
2023-03-23 22-17-48-766347,0,0,1536,1464,0.088,-12.662,-1.57,-0.32,-9.64,1.91,-9.46,125.22,12.252200000000016
2023-03-23 22-17-48-781193,0,0,1536,1464,0.088,-12.662,-1.58,-0.34,-9.65,1.92,-9.44,125.17,12.202200000000019
2023-03-23 22-17-48-797168,0,0,1536,1464,0.088,-12.662,-1.57,-0.34,-9.65,1.92,-9.42,125.11,12.142200000000017
2023-03-23 22-17-48-823797,0,0,1536,1464,0.088,-12.662,-1.56,-0.34,-9.63,1.93,-9.4,125.05,12.082200000000014
2023-03-23 22-17-48-844848,0,0,1536,1464,0.088,-12.662,-1.57,-0.33,-9.64,1.94,-9.37,125.0,12.032200000000017
2023-03-23 22-17-48-861335,0,0,1535,1465,0.088,-12.662,-1.57,-0.33,-9.63,1.94,-9.34,124.94,11.972200000000015
2023-03-23 22-17-48-889052,0,0,1535,1465,0.088,-12.662,-1.55,-0.31,-9.62,1.95,-9.31,124.88,11.912200000000013
2023-03-23 22-17-48-912586,0,0,1535,1465,0.176,-12.662,-1.55,-0.3,-9.6,1.95,-9.28,124.83,11.862200000000016
2023-03-23 22-17-48-946448,0,0,1535,1465,0.088,-12.662,-1.55,-0.34,-9.63,1.95,-9.25,124.77,11.802200000000013
2023-03-23 22-17-48-977702,0,0,1535,1465,0.088,-12.662,-1.54,-0.34,-9.63,1.96,-9.22,124.71,11.742200000000011
