Timestamp_log,left_angle,right_angle,left_thrust,right_thrust,read_left_angle,read_right_angle,accel_x,accel_y,accel_z,roll,pitch,yaw,e_alpha
2023-03-23 22-28-22-792652,0,0,1544,1456,0.088,-12.662,0.37,-1.28,-9.68,7.49,1.97,146.28,28.884119999999996
2023-03-23 22-28-22-815268,0,0,1553,1447,0.088,-12.662,0.36,-1.27,-9.7,7.5,1.97,146.27,28.874120000000005
2023-03-23 22-28-22-851739,0,0,1553,1447,0.088,-12.662,0.36,-1.27,-9.71,7.49,1.98,146.27,28.874120000000005
2023-03-23 22-28-22-880112,0,0,1553,1447,0.088,-12.662,0.36,-1.26,-9.7,7.5,1.98,146.26,28.864119999999986
2023-03-23 22-28-22-910465,0,0,1553,1447,0.088,-12.662,0.37,-1.27,-9.71,7.5,1.99,146.26,28.864119999999986
2023-03-23 22-28-22-926144,0,0,1553,1447,0.088,-12.662,0.37,-1.28,-9.71,7.51,1.99,146.25,28.854119999999995
2023-03-23 22-28-22-943934,0,0,1553,1447,0.088,-12.662,0.38,-1.27,-9.7,7.51,1.99,146.25,28.854119999999995
2023-03-23 22-28-22-974900,0,0,1553,1447,0.088,-12.574,0.39,-1.27,-9.69,7.52,2.0,146.24,28.844120000000004
2023-03-23 22-28-22-989209,0,0,1553,1447,0.088,-12.662,0.4,-1.27,-9.7,7.52,2.01,146.24,28.844120000000004
2023-03-23 22-28-23-004601,0,0,1553,1447,0.088,-12.662,0.39,-1.27,-9.71,7.53,2.02,146.24,28.844120000000004
2023-03-23 22-28-23-021666,0,0,1553,1447,0.088,-12.662,0.39,-1.27,-9.7,7.53,2.03,146.23,28.834119999999984
2023-03-23 22-28-23-037599,0,0,1553,1447,0.088,-12.662,0.38,-1.27,-9.7,7.54,2.05,146.23,28.834119999999984
2023-03-23 22-28-23-053707,0,0,1553,1447,0.088,-12.662,0.36,-1.27,-9.64,7.54,2.06,146.23,28.834119999999984
2023-03-23 22-28-23-068859,0,0,1553,1447,0.088,-12.662,0.32,-1.23,-9.69,7.55,2.07,146.23,28.834119999999984
2023-03-23 22-28-23-084881,0,0,1553,1447,0.088,-12.662,0.48,-1.3,-9.65,7.56,2.08,146.22,28.824119999999994
2023-03-23 22-28-23-100571,0,0,1553,1447,0.088,-12.662,0.45,-1.3,-9.65,7.56,2.09,146.22,28.824119999999994
2023-03-23 22-28-23-122802,0,0,1553,1447,0.088,-12.662,0.28,-1.24,-9.61,7.57,2.11,146.22,28.824119999999994
2023-03-23 22-28-23-153248,0,0,1553,1447,0.088,-12.662,0.1,-1.26,-9.6,7.57,2.12,146.21,28.814120000000003
2023-03-23 22-28-23-181606,0,0,1553,1447,0.088,-12.662,-0.06,-1.25,-9.61,7.58,2.13,146.2,28.804119999999983
2023-03-23 22-28-23-198737,0,0,1553,1447,0.088,-12.662,-0.2,-1.25,-9.59,7.58,2.13,146.19,28.794119999999992
2023-03-23 22-28-23-213832,0,0,1553,1447,0.088,-12.662,-0.22,-1.27,-9.58,7.58,2.13,146.17,28.774119999999982
2023-03-23 22-28-23-229403,0,0,1553,1447,0.088,-12.662,-0.18,-1.34,-9.57,7.58,2.12,146.16,28.76411999999999
2023-03-23 22-28-23-245018,0,0,1553,1447,0.088,-12.662,-0.07,-1.29,-9.69,7.58,2.11,146.15,28.75412
2023-03-23 22-28-23-260586,0,0,1553,1447,0.088,-12.662,0.01,-1.3,-9.65,7.58,2.1,146.15,28.75412
2023-03-23 22-28-23-277804,0,0,1552,1448,0.088,-12.662,-0.01,-1.27,-9.57,7.57,2.1,146.14,28.74411999999998
2023-03-23 22-28-23-294504,0,0,1552,1448,0.088,-12.662,0.02,-1.29,-9.59,7.57,2.09,146.14,28.74411999999998
2023-03-23 22-28-23-310282,0,0,1552,1448,0.088,-12.662,0.07,-1.26,-9.64,7.56,2.08,146.14,28.74411999999998
2023-03-23 22-28-23-324829,0,0,1552,1448,0.088,-12.662,0.08,-1.3,-9.64,7.55,2.08,146.14,28.74411999999998
2023-03-23 22-28-23-342176,0,0,1552,1448,0.088,-12.662,0.11,-1.28,-9.6,7.54,2.07,146.14,28.74411999999998
2023-03-23 22-28-23-357088,0,0,1553,1447,0.088,-12.662,0.05,-1.28,-9.63,7.54,2.07,146.15,28.75412
2023-03-23 22-28-23-373918,0,0,1553,1447,0.088,-12.662,0.11,-1.26,-9.66,7.52,2.06,146.15,28.75412
2023-03-23 22-28-23-390009,0,0,1553,1447,0.088,-12.662,0.1,-1.29,-9.63,7.51,2.06,146.16,28.76411999999999
2023-03-23 22-28-23-404872,0,0,1553,1447,0.088,-12.662,0.1,-1.28,-9.6,7.49,2.06,146.16,28.76411999999999
2023-03-23 22-28-23-420524,0,0,1553,1447,0.088,-12.662,0.09,-1.23,-9.65,7.48,2.05,146.17,28.774119999999982
2023-03-23 22-28-23-436491,0,0,1553,1447,0.088,-12.662,0.11,-1.26,-9.64,7.46,2.05,146.18,28.78412
2023-03-23 22-28-23-453936,0,0,1553,1447,0.088,-12.662,0.14,-1.25,-9.62,7.44,2.05,146.19,28.794119999999992
2023-03-23 22-28-23-470010,0,0,1553,1447,0.088,-12.662,0.16,-1.28,-9.57,7.42,2.04,146.2,28.804119999999983
2023-03-23 22-28-23-485989,0,0,1553,1447,0.088,-12.662,0.16,-1.26,-9.64,7.4,2.04,146.21,28.814120000000003
2023-03-23 22-28-23-501807,0,0,1553,1447,0.088,-12.662,0.16,-1.26,-9.65,7.38,2.04,146.22,28.824119999999994
2023-03-23 22-28-23-517364,0,0,1553,1447,0.088,-12.662,0.17,-1.26,-9.62,7.36,2.04,146.23,28.834119999999984
2023-03-23 22-28-23-532974,0,0,1553,1447,0.088,-12.662,0.17,-1.24,-9.62,7.33,2.04,146.24,28.844120000000004
2023-03-23 22-28-23-549310,0,0,1553,1447,0.088,-12.662,0.18,-1.24,-9.63,7.31,2.04,146.25,28.854119999999995
2023-03-23 22-28-23-564446,0,0,1553,1447,0.088,-12.662,0.17,-1.25,-9.63,7.29,2.04,146.26,28.864119999999986
2023-03-23 22-28-23-581918,0,0,1553,1447,0.088,-12.662,0.17,-1.23,-9.62,7.26,2.04,146.27,28.874120000000005
2023-03-23 22-28-23-597955,0,0,1553,1447,0.088,-12.662,0.16,-1.22,-9.66,7.24,2.03,146.28,28.884119999999996
2023-03-23 22-28-23-613402,0,0,1553,1447,0.176,-12.662,0.17,-1.23,-9.64,7.21,2.02,146.29,28.894119999999987
2023-03-23 22-28-23-628960,0,0,1553,1447,0.088,-12.662,0.17,-1.22,-9.65,7.19,2.01,146.3,28.904120000000006
2023-03-23 22-28-23-645576,0,0,1553,1447,0.088,-12.662,0.18,-1.22,-9.65,7.17,2.0,146.31,28.914119999999997
2023-03-23 22-28-23-660807,0,0,1553,1447,0.088,-12.662,0.2,-1.21,-9.68,7.15,1.99,146.32,28.924119999999988
2023-03-23 22-28-23-677212,0,0,1553,1447,0.088,-12.662,0.21,-1.24,-9.66,7.12,1.97,146.33,28.934120000000007
2023-03-23 22-28-23-693084,0,0,1553,1447,0.176,-12.662,0.2,-1.24,-9.63,7.1,1.96,146.34,28.944119999999998
2023-03-23 22-28-23-708459,0,0,1553,1447,0.088,-12.662,0.19,-1.23,-9.66,7.08,1.95,146.35,28.95411999999999
2023-03-23 22-28-23-725612,0,0,1553,1447,0.088,-12.662,0.19,-1.23,-9.69,7.05,1.93,146.36,28.96412000000001
2023-03-23 22-28-23-740782,0,0,1553,1447,0.088,-12.662,0.18,-1.25,-9.65,7.03,1.92,146.37,28.97412
2023-03-23 22-28-23-757340,0,0,1553,1447,0.088,-12.662,0.18,-1.21,-9.69,7.01,1.9,146.38,28.98411999999999
2023-03-23 22-28-23-772588,0,0,1553,1447,0.088,-12.662,0.19,-1.23,-9.67,6.98,1.89,146.39,28.99411999999998
2023-03-23 22-28-23-789200,0,0,1553,1447,0.088,-12.662,0.21,-1.19,-9.66,6.96,1.87,146.41,29.01411999999999
2023-03-23 22-28-23-804309,0,0,1553,1447,0.088,-12.662,0.2,-1.23,-9.68,6.94,1.85,146.42,29.024119999999982
2023-03-23 22-28-23-822204,0,0,1553,1447,0.088,-12.662,0.2,-1.24,-9.72,6.92,1.84,146.44,29.044119999999992
2023-03-23 22-28-23-836919,0,0,1553,1447,0.088,-12.662,0.21,-1.24,-9.72,6.9,1.83,146.45,29.054119999999983
2023-03-23 22-28-23-854114,0,0,1553,1447,0.088,-12.662,0.21,-1.22,-9.7,6.88,1.81,146.46,29.064120000000003
2023-03-23 22-28-23-869971,0,0,1553,1447,0.088,-12.662,0.22,-1.2,-9.68,6.86,1.8,146.48,29.084119999999984
2023-03-23 22-28-23-884882,0,0,1553,1447,0.088,-12.662,0.21,-1.18,-9.69,6.84,1.79,146.49,29.094120000000004
2023-03-23 22-28-23-900545,0,0,1553,1447,0.176,-12.662,0.21,-1.2,-9.72,6.82,1.79,146.51,29.114119999999986
2023-03-23 22-28-23-917890,0,0,1553,1447,0.088,-12.662,0.22,-1.17,-9.69,6.81,1.79,146.52,29.124120000000005
2023-03-23 22-28-23-934026,0,0,1553,1447,0.088,-12.662,0.21,-1.18,-9.75,6.79,1.79,146.53,29.134119999999996
2023-03-23 22-28-23-951152,0,0,1553,1447,0.088,-12.662,0.22,-1.19,-9.7,6.77,1.78,146.55,29.154120000000006
2023-03-23 22-28-23-965407,0,0,1553,1447,0.088,-12.662,0.23,-1.17,-9.73,6.76,1.78,146.56,29.164119999999997
2023-03-23 22-28-23-981145,0,0,1553,1447,0.088,-12.662,0.25,-1.17,-9.71,6.75,1.78,146.58,29.184120000000007
2023-03-23 22-28-23-996648,0,0,1553,1447,0.088,-12.662,0.28,-1.15,-9.75,6.73,1.78,146.59,29.194119999999998
2023-03-23 22-28-24-012973,0,0,1553,1447,0.088,-12.662,0.29,-1.18,-9.76,6.72,1.78,146.62,29.22412
2023-03-23 22-28-24-029264,0,0,1553,1447,0.088,-12.662,0.3,-1.16,-9.71,6.7,1.78,146.63,29.23411999999999
2023-03-23 22-28-24-044568,0,0,1553,1447,0.088,-12.662,0.29,-1.18,-9.74,6.69,1.77,146.65,29.25412
2023-03-23 22-28-24-063602,0,0,1553,1447,0.088,-12.662,0.29,-1.18,-9.75,6.68,1.77,146.67,29.274119999999982
2023-03-23 22-28-24-093996,0,0,1553,1447,0.088,-12.662,0.28,-1.19,-9.75,6.67,1.76,146.68,29.28412
2023-03-23 22-28-24-113889,0,0,1553,1447,0.088,-12.662,0.28,-1.13,-9.72,6.66,1.75,146.7,29.304119999999983
2023-03-23 22-28-24-140609,0,0,1553,1447,0.088,-12.574,0.26,-1.18,-9.73,6.65,1.74,146.73,29.334119999999984
2023-03-23 22-28-24-157832,0,0,1553,1447,0.088,-12.662,0.29,-1.16,-9.73,6.64,1.72,146.74,29.344120000000004
2023-03-23 22-28-24-172946,0,0,1553,1447,0.088,-12.662,0.3,-1.16,-9.76,6.62,1.71,146.77,29.374120000000005
2023-03-23 22-28-24-190393,0,0,1553,1447,0.088,-12.662,0.3,-1.14,-9.74,6.61,1.7,146.79,29.394119999999987
2023-03-23 22-28-24-204555,0,0,1553,1447,0.088,-12.662,0.31,-1.13,-9.7,6.6,1.68,146.8,29.404120000000006
2023-03-23 22-28-24-220646,0,0,1553,1447,0.088,-12.662,0.32,-1.15,-9.72,6.59,1.67,146.82,29.424119999999988
2023-03-23 22-28-24-242206,0,0,1553,1447,0.088,-12.662,0.34,-1.13,-9.74,6.58,1.66,146.84,29.444119999999998
2023-03-23 22-28-24-268808,0,0,1553,1447,0.088,-12.662,0.32,-1.14,-9.75,6.57,1.64,146.86,29.46412000000001
2023-03-23 22-28-24-296888,0,0,1553,1447,0.088,-12.662,0.3,-1.14,-9.73,6.56,1.63,146.87,29.47412
2023-03-23 22-28-24-317450,0,0,1553,1447,0.088,-12.662,0.31,-1.15,-9.68,6.54,1.61,146.89,29.49411999999998
2023-03-23 22-28-24-332687,0,0,1553,1447,0.088,-12.662,0.29,-1.06,-9.75,6.53,1.59,146.91,29.51411999999999
2023-03-23 22-28-24-355679,0,0,1553,1447,0.088,-12.662,0.29,-1.11,-9.74,6.51,1.57,146.93,29.53412
2023-03-23 22-28-24-381580,0,0,1553,1447,0.088,-12.662,0.3,-1.11,-9.71,6.5,1.54,146.95,29.554119999999983
2023-03-23 22-28-24-396435,0,0,1553,1447,0.088,-12.662,0.31,-1.13,-9.69,6.48,1.52,146.98,29.584119999999984
2023-03-23 22-28-24-420638,0,0,1553,1447,0.088,-12.662,0.31,-1.1,-9.71,6.46,1.49,147.0,29.604119999999995
2023-03-23 22-28-24-444518,0,0,1553,1447,0.088,-12.662,0.31,-1.1,-9.74,6.44,1.46,147.02,29.624120000000005
2023-03-23 22-28-24-461966,0,0,1553,1447,0.088,-12.662,0.3,-1.12,-9.74,6.42,1.43,147.04,29.644119999999987
2023-03-23 22-28-24-476772,0,0,1553,1447,0.088,-12.662,0.29,-1.11,-9.72,6.4,1.4,147.06,29.664119999999997
2023-03-23 22-28-24-493968,0,0,1553,1447,0.088,-12.662,0.3,-1.11,-9.7,6.38,1.37,147.08,29.684120000000007
2023-03-23 22-28-24-508547,0,0,1553,1447,0.088,-12.662,0.29,-1.14,-9.7,6.36,1.34,147.1,29.70411999999999
2023-03-23 22-28-24-526094,0,0,1553,1447,0.088,-12.662,0.27,-1.11,-9.7,6.33,1.3,147.12,29.72412
2023-03-23 22-28-24-540661,0,0,1553,1447,0.088,-12.662,0.25,-1.09,-9.72,6.31,1.26,147.14,29.74411999999998
2023-03-23 22-28-24-556471,0,0,1553,1447,0.088,-12.662,0.27,-1.11,-9.69,6.28,1.22,147.16,29.76411999999999
2023-03-23 22-28-24-572826,0,0,1553,1447,0.088,-12.662,0.26,-1.09,-9.72,6.25,1.17,147.18,29.78412
2023-03-23 22-28-24-591342,0,0,1553,1447,0.088,-12.662,0.25,-1.08,-9.76,6.23,1.12,147.2,29.804119999999983
2023-03-23 22-28-24-620307,0,0,1553,1447,0.088,-12.662,0.27,-1.06,-9.72,6.2,1.07,147.22,29.824119999999994
2023-03-23 22-28-24-638382,0,0,1553,1447,0.088,-12.662,0.26,-1.09,-9.71,6.17,1.02,147.24,29.844120000000004
2023-03-23 22-28-24-654568,0,0,1553,1447,0.088,-12.662,0.24,-1.08,-9.72,6.15,0.97,147.26,29.864119999999986
2023-03-23 22-28-24-668799,0,0,1553,1447,0.176,-12.662,0.24,-1.07,-9.76,6.12,0.91,147.27,29.874120000000005
2023-03-23 22-28-24-684463,0,0,1553,1447,0.088,-12.662,0.23,-1.08,-9.76,6.1,0.84,147.29,29.894119999999987
2023-03-23 22-28-24-701748,0,0,1553,1447,0.088,-12.662,0.21,-1.11,-9.71,6.07,0.78,147.3,29.904120000000006
2023-03-23 22-28-24-717645,0,0,1553,1447,0.088,-12.662,0.16,-1.03,-9.77,6.04,0.72,147.31,29.914119999999997
2023-03-23 22-28-24-734462,0,0,1553,1447,0.088,-12.662,0.16,-1.07,-9.75,6.01,0.65,147.32,29.924119999999988
2023-03-23 22-28-24-748693,0,0,1553,1447,0.088,-12.662,0.15,-1.03,-9.74,5.98,0.57,147.34,29.944119999999998
2023-03-23 22-28-24-766054,0,0,1553,1447,0.088,-12.662,0.15,-1.08,-9.72,5.95,0.5,147.35,29.95411999999999
2023-03-23 22-28-24-780405,0,0,1553,1447,0.088,-12.662,0.14,-1.06,-9.76,5.92,0.42,147.36,29.96412000000001
2023-03-23 22-28-24-796703,0,0,1553,1447,0.088,-12.662,0.11,-1.05,-9.74,5.89,0.33,147.37,29.97412
2023-03-23 22-28-24-813906,0,0,1553,1447,0.088,-12.662,0.11,-1.05,-9.76,5.86,0.25,147.38,29.98411999999999
2023-03-23 22-28-24-830665,0,0,1553,1447,0.088,-12.662,0.11,-1.06,-9.78,5.83,0.17,147.39,29.99411999999998
2023-03-23 22-28-24-846838,0,0,1553,1447,0.088,-12.662,0.11,-1.07,-9.76,5.8,0.09,147.39,29.99411999999998
2023-03-23 22-28-24-876772,0,0,1554,1446,0.088,-12.662,0.12,-1.07,-9.76,5.77,0.0,147.4,30.00412
2023-03-23 22-28-24-892988,0,0,1554,1446,0.088,-12.662,0.12,-1.05,-9.75,5.74,-0.09,147.4,30.00412
2023-03-23 22-28-24-909651,0,0,1554,1446,0.088,-12.662,0.11,-1.04,-9.84,5.71,-0.18,147.4,30.00412
2023-03-23 22-28-24-924535,0,0,1554,1446,0.088,-12.662,0.12,-1.07,-9.81,5.68,-0.28,147.41,30.01411999999999
2023-03-23 22-28-24-943913,0,0,1554,1446,0.088,-12.662,0.11,-1.02,-9.84,5.65,-0.39,147.41,30.01411999999999
2023-03-23 22-28-24-972662,0,0,1554,1446,0.088,-12.662,0.11,-1.03,-9.83,5.62,-0.5,147.4,30.00412
2023-03-23 22-28-24-988888,0,0,1553,1447,0.088,-12.662,0.12,-1.01,-9.85,5.58,-0.62,147.39,29.99411999999998
2023-03-23 22-28-25-006324,0,0,1553,1447,0.088,-12.662,0.1,-1.04,-9.87,5.55,-0.75,147.39,29.99411999999998
2023-03-23 22-28-25-022809,0,0,1553,1447,0.088,-12.662,0.09,-1.08,-9.91,5.51,-0.89,147.37,29.97412
2023-03-23 22-28-25-052332,0,0,1553,1447,0.088,-12.662,0.08,-1.07,-9.92,5.47,-1.04,147.36,29.96412000000001
2023-03-23 22-28-25-068459,0,0,1553,1447,0.088,-12.662,0.06,-1.1,-9.91,5.44,-1.21,147.34,29.944119999999998
2023-03-23 22-28-25-084357,0,0,1553,1447,0.088,-12.662,0.03,-1.1,-9.92,5.4,-1.38,147.33,29.934120000000007
2023-03-23 22-28-25-101042,0,0,1553,1447,0.088,-12.662,0.01,-1.07,-9.93,5.36,-1.59,147.31,29.914119999999997
2023-03-23 22-28-25-116872,0,0,1553,1447,0.088,-12.662,-0.03,-1.09,-9.99,5.32,-1.8,147.28,29.884119999999996
2023-03-23 22-28-25-133235,0,0,1553,1447,0.088,-12.662,-0.05,-1.08,-9.97,5.27,-2.05,147.25,29.854119999999995
2023-03-23 22-28-25-148198,0,0,1553,1447,0.088,-12.662,-0.07,-1.05,-9.96,5.23,-2.31,147.21,29.814120000000003
2023-03-23 22-28-25-165400,0,0,1553,1447,0.088,-12.662,-0.1,-1.06,-9.99,5.18,-2.59,147.18,29.78412
2023-03-23 22-28-25-181829,0,0,1553,1447,0.088,-12.662,-0.13,-1.06,-10.01,5.13,-2.89,147.13,29.73411999999999
2023-03-23 22-28-25-197065,0,0,1553,1447,0.088,-12.662,-0.19,-1.06,-9.99,5.07,-3.2,147.09,29.694119999999998
2023-03-23 22-28-25-212344,0,0,1553,1447,0.088,-12.662,-0.25,-1.03,-9.98,5.02,-3.54,147.03,29.634119999999996
2023-03-23 22-28-25-228734,0,0,1553,1447,0.088,-12.662,-0.33,-1.01,-10.01,4.96,-3.9,146.97,29.574119999999994
2023-03-23 22-28-25-245451,0,0,1553,1447,0.088,-12.662,-0.41,-1.01,-10.02,4.9,-4.28,146.91,29.51411999999999
2023-03-23 22-28-25-261615,0,0,1553,1447,0.088,-12.662,-0.63,-0.87,-9.81,4.84,-4.68,146.84,29.444119999999998
2023-03-23 22-28-25-276306,0,0,1553,1447,0.088,-12.662,-0.84,-0.74,-9.71,4.77,-5.08,146.78,29.384119999999996
2023-03-23 22-28-25-293252,0,0,1553,1447,0.088,-12.662,-0.89,-0.83,-9.72,4.7,-5.46,146.71,29.314120000000003
2023-03-23 22-28-25-308670,0,0,1553,1447,0.088,-12.662,-0.97,-0.76,-9.66,4.64,-5.83,146.65,29.25412
2023-03-23 22-28-25-324235,0,0,1553,1447,0.088,-12.662,-0.99,-0.76,-9.66,4.58,-6.17,146.59,29.194119999999998
2023-03-23 22-28-25-343293,0,0,1553,1447,0.088,-12.662,-1.01,-0.79,-9.69,4.52,-6.5,146.53,29.134119999999996
2023-03-23 22-28-25-356826,0,0,1553,1447,0.088,-12.662,-1.05,-0.79,-9.72,4.45,-6.82,146.48,29.084119999999984
2023-03-23 22-28-25-372458,0,0,1553,1447,0.088,-12.662,-1.12,-0.77,-9.67,4.39,-7.12,146.43,29.03412
2023-03-23 22-28-25-388248,0,0,1553,1447,0.088,-12.662,-1.19,-0.76,-9.64,4.33,-7.4,146.38,28.98411999999999
2023-03-23 22-28-25-420432,0,0,1553,1447,0.088,-12.662,-1.22,-0.76,-9.66,4.26,-7.67,146.34,28.944119999999998
2023-03-23 22-28-25-437451,0,0,1553,1447,0.088,-12.662,-1.25,-0.76,-9.67,4.2,-7.92,146.29,28.894119999999987
2023-03-23 22-28-25-452205,0,0,1553,1447,0.088,-12.662,-1.29,-0.73,-9.64,4.14,-8.17,146.25,28.854119999999995
2023-03-23 22-28-25-468165,0,0,1553,1447,0.088,-12.662,-1.35,-0.7,-9.67,4.09,-8.39,146.21,28.814120000000003
2023-03-23 22-28-25-485437,0,0,1553,1447,0.088,-12.662,-1.39,-0.71,-9.67,4.03,-8.61,146.18,28.78412
2023-03-23 22-28-25-502142,0,0,1553,1447,0.088,-12.662,-1.42,-0.66,-9.68,3.97,-8.81,146.15,28.75412
2023-03-23 22-28-25-516367,0,0,1552,1448,0.088,-12.662,-1.46,-0.65,-9.64,3.91,-8.99,146.11,28.71412000000001
2023-03-23 22-28-25-532833,0,0,1552,1448,0.088,-12.662,-1.46,-0.62,-9.64,3.85,-9.16,146.08,28.684120000000007
2023-03-23 22-28-25-548337,0,0,1552,1448,0.088,-12.662,-1.46,-0.64,-9.67,3.79,-9.31,146.05,28.654120000000006
2023-03-23 22-28-25-564101,0,0,1552,1448,0.088,-12.662,-1.48,-0.63,-9.68,3.73,-9.46,146.02,28.624120000000005
2023-03-23 22-28-25-581345,0,0,1552,1448,0.088,-12.662,-1.5,-0.63,-9.67,3.67,-9.59,146.0,28.604119999999995
2023-03-23 22-28-25-616610,0,0,1552,1448,0.088,-12.662,-1.53,-0.64,-9.66,3.61,-9.7,145.98,28.584119999999984
2023-03-23 22-28-25-643911,0,0,1552,1448,0.088,-12.662,-1.55,-0.64,-9.67,3.56,-9.81,145.95,28.554119999999983
2023-03-23 22-28-25-662020,0,0,1552,1448,0.088,-12.662,-1.58,-0.6,-9.67,3.5,-9.9,145.93,28.53412
2023-03-23 22-28-25-692099,0,0,1552,1448,0.088,-12.662,-1.59,-0.62,-9.63,3.44,-9.98,145.91,28.51411999999999
2023-03-23 22-28-25-709863,0,0,1552,1448,0.088,-12.662,-1.59,-0.59,-9.62,3.37,-10.06,145.89,28.49411999999998
2023-03-23 22-28-25-739856,0,0,1552,1448,0.088,-12.662,-1.6,-0.59,-9.66,3.31,-10.12,145.87,28.47412
2023-03-23 22-28-25-756209,0,0,1552,1448,0.088,-12.662,-1.61,-0.56,-9.66,3.25,-10.17,145.85,28.45411999999999
2023-03-23 22-28-25-772604,0,0,1552,1448,0.088,-12.662,-1.6,-0.57,-9.64,3.19,-10.22,145.84,28.444119999999998
2023-03-23 22-28-25-788441,0,0,1552,1448,0.088,-12.662,-1.63,-0.54,-9.64,3.12,-10.26,145.82,28.424119999999988
2023-03-23 22-28-25-804682,0,0,1552,1448,0.088,-12.662,-1.61,-0.5,-9.69,3.06,-10.29,145.81,28.414119999999997
2023-03-23 22-28-25-822436,0,0,1552,1448,0.088,-12.662,-1.61,-0.51,-9.67,3.0,-10.31,145.79,28.394119999999987
2023-03-23 22-28-25-836243,0,0,1552,1448,0.088,-12.662,-1.62,-0.51,-9.63,2.94,-10.32,145.77,28.374120000000005
2023-03-23 22-28-25-852439,0,0,1552,1448,0.088,-12.662,-1.61,-0.5,-9.67,2.88,-10.32,145.75,28.354119999999995
2023-03-23 22-28-25-869892,0,0,1552,1448,0.088,-12.662,-1.63,-0.45,-9.73,2.82,-10.32,145.74,28.344120000000004
2023-03-23 22-28-25-884811,0,0,1552,1448,0.088,-12.662,-1.62,-0.46,-9.65,2.76,-10.31,145.72,28.324119999999994
2023-03-23 22-28-25-900954,0,0,1552,1448,0.088,-12.662,-1.63,-0.46,-9.64,2.7,-10.3,145.71,28.314120000000003
2023-03-23 22-28-25-921834,0,0,1552,1448,0.088,-12.662,-1.64,-0.44,-9.66,2.63,-10.28,145.7,28.304119999999983
2023-03-23 22-28-25-949059,0,0,1552,1448,0.088,-12.662,-1.62,-0.4,-9.69,2.57,-10.26,145.68,28.28412
2023-03-23 22-28-25-966316,0,0,1552,1448,0.088,-12.662,-1.61,-0.4,-9.7,2.51,-10.24,145.67,28.274119999999982
2023-03-23 22-28-25-980791,0,0,1552,1448,0.088,-12.662,-1.6,-0.39,-9.68,2.44,-10.21,145.65,28.25412
2023-03-23 22-28-26-000108,0,0,1552,1448,0.088,-12.662,-1.6,-0.4,-9.7,2.39,-10.19,145.63,28.23411999999999
2023-03-23 22-28-26-033737,0,0,1552,1448,0.088,-12.662,-1.58,-0.38,-9.68,2.32,-10.17,145.61,28.21412000000001
2023-03-23 22-28-26-061070,0,0,1552,1448,0.088,-12.662,-1.57,-0.4,-9.68,2.26,-10.15,145.59,28.194119999999998
2023-03-23 22-28-26-097423,0,0,1552,1448,0.088,-12.662,-1.59,-0.39,-9.7,2.19,-10.13,145.57,28.174119999999988
2023-03-23 22-28-26-130622,0,0,1552,1448,0.088,-12.662,-1.58,-0.36,-9.7,2.13,-10.11,145.55,28.154120000000006
2023-03-23 22-28-26-163973,0,0,1552,1448,0.088,-12.662,-1.58,-0.37,-9.69,2.07,-10.09,145.53,28.134119999999996
2023-03-23 22-28-26-193462,0,0,1552,1448,0.088,-12.662,-1.58,-0.34,-9.71,2.01,-10.07,145.51,28.114119999999986
2023-03-23 22-28-26-223047,0,0,1552,1448,0.088,-12.662,-1.58,-0.31,-9.71,1.95,-10.06,145.5,28.104119999999995
2023-03-23 22-28-26-257153,0,0,1552,1448,0.088,-12.662,-1.57,-0.32,-9.7,1.89,-10.05,145.48,28.084119999999984
2023-03-23 22-28-26-288196,0,0,1552,1448,0.088,-12.662,-1.55,-0.28,-9.72,1.83,-10.04,145.47,28.074119999999994
2023-03-23 22-28-26-321350,0,0,1552,1448,0.088,-12.662,-1.55,-0.3,-9.71,1.77,-10.02,145.45,28.054119999999983
2023-03-23 22-28-26-355308,0,0,1552,1448,0.088,-12.662,-1.56,-0.27,-9.7,1.71,-10.02,145.44,28.044119999999992
2023-03-23 22-28-26-385194,0,0,1552,1448,0.088,-12.662,-1.56,-0.28,-9.72,1.64,-10.01,145.42,28.024119999999982
2023-03-23 22-28-26-418861,0,0,1552,1448,0.088,-12.662,-1.57,-0.29,-9.72,1.58,-10.01,145.4,28.00412
2023-03-23 22-28-26-450306,0,0,1552,1448,0.088,-12.662,-1.57,-0.2,-9.72,1.52,-10.01,145.39,27.99411999999998
2023-03-23 22-28-26-478768,0,0,1552,1448,0.088,-12.662,-1.57,-0.24,-9.71,1.45,-10.02,145.38,27.98411999999999
2023-03-23 22-28-26-512098,0,0,1552,1448,0.088,-12.662,-1.56,-0.23,-9.72,1.39,-10.03,145.36,27.96412000000001
2023-03-23 22-28-26-544994,0,0,1552,1448,0.088,-12.662,-1.58,-0.22,-9.69,1.33,-10.04,145.35,27.95411999999999
2023-03-23 22-28-26-576628,0,0,1552,1448,0.088,-12.662,-1.58,-0.21,-9.7,1.27,-10.06,145.34,27.944119999999998
2023-03-23 22-28-26-609397,0,0,1552,1448,0.088,-12.662,-1.57,-0.17,-9.71,1.21,-10.07,145.32,27.924119999999988
2023-03-23 22-28-26-637540,0,0,1552,1448,0.088,-12.662,-1.58,-0.16,-9.69,1.15,-10.09,145.31,27.914119999999997
2023-03-23 22-28-26-673132,0,0,1552,1448,0.088,-12.662,-1.58,-0.15,-9.7,1.09,-10.11,145.29,27.894119999999987
2023-03-23 22-28-26-704509,0,0,1552,1448,0.088,-12.662,-1.58,-0.15,-9.68,1.02,-10.13,145.27,27.874120000000005
2023-03-23 22-28-26-736190,0,0,1552,1448,0.088,-12.662,-1.59,-0.14,-9.69,0.96,-10.16,145.26,27.864119999999986
2023-03-23 22-28-26-769474,0,0,1552,1448,0.088,-12.662,-1.6,-0.11,-9.69,0.89,-10.19,145.24,27.844120000000004
2023-03-23 22-28-26-800028,0,0,1552,1448,0.088,-12.662,-1.61,-0.12,-9.73,0.83,-10.22,145.22,27.824119999999994
2023-03-23 22-28-26-834631,0,0,1552,1448,0.088,-12.662,-1.61,-0.13,-9.68,0.78,-10.25,145.21,27.814120000000003
2023-03-23 22-28-26-864288,0,0,1552,1448,0.088,-12.662,-1.63,-0.1,-9.67,0.72,-10.29,145.19,27.794119999999992
2023-03-23 22-28-26-898770,0,0,1552,1448,0.088,-12.662,-1.62,-0.08,-9.68,0.66,-10.33,145.17,27.774119999999982
2023-03-23 22-28-26-930061,0,0,1552,1448,0.088,-12.662,-1.62,-0.07,-9.71,0.6,-10.37,145.16,27.76411999999999
2023-03-23 22-28-26-963474,0,0,1552,1448,0.176,-12.662,-1.62,-0.07,-9.68,0.53,-10.41,145.14,27.74411999999998
2023-03-23 22-28-26-994218,0,0,1552,1448,0.088,-12.662,-1.64,-0.06,-9.63,0.47,-10.46,145.13,27.73411999999999
2023-03-23 22-28-27-025407,0,0,1552,1448,0.088,-12.662,-1.64,-0.05,-9.69,0.41,-10.5,145.11,27.71412000000001
2023-03-23 22-28-27-058026,0,0,1552,1448,0.088,-12.662,-1.65,-0.06,-9.7,0.35,-10.55,145.09,27.694119999999998
2023-03-23 22-28-27-088743,0,0,1552,1448,0.088,-12.662,-1.67,-0.05,-9.68,0.3,-10.6,145.07,27.674119999999988
2023-03-23 22-28-27-117559,0,0,1552,1448,0.088,-12.662,-1.69,-0.01,-9.64,0.24,-10.65,145.06,27.664119999999997
2023-03-23 22-28-27-133918,0,0,1552,1448,0.088,-12.662,-1.69,-0.04,-9.67,0.18,-10.71,145.05,27.654120000000006
2023-03-23 22-28-27-153460,0,0,1552,1448,0.088,-12.662,-1.68,-0.02,-9.65,0.11,-10.76,145.03,27.634119999999996
2023-03-23 22-28-27-185292,0,0,1552,1448,0.088,-12.662,-1.69,0.0,-9.65,0.05,-10.81,145.02,27.624120000000005
2023-03-23 22-28-27-217268,0,0,1552,1448,0.088,-12.662,-1.72,0.01,-9.66,-0.01,-10.87,145.01,27.614119999999986
2023-03-23 22-28-27-247902,0,0,1552,1448,0.088,-12.662,-1.73,0.03,-9.64,-0.07,-10.92,145.01,27.614119999999986
2023-03-23 22-28-27-280077,0,0,1552,1448,0.088,-12.662,-1.76,0.06,-9.63,-0.13,-10.97,145.0,27.604119999999995
2023-03-23 22-28-27-313400,0,0,1552,1448,0.088,-12.662,-1.77,0.13,-9.59,-0.19,-11.03,144.99,27.594120000000004
2023-03-23 22-28-27-344699,0,0,1552,1448,0.088,-12.662,-1.78,0.08,-9.64,-0.25,-11.08,144.98,27.584119999999984
2023-03-23 22-28-27-378171,0,0,1552,1448,0.088,-12.662,-1.77,0.09,-9.66,-0.31,-11.13,144.96,27.564120000000003
2023-03-23 22-28-27-408583,0,0,1552,1448,0.088,-12.662,-1.78,0.08,-9.63,-0.38,-11.18,144.95,27.554119999999983
2023-03-23 22-28-27-449133,0,0,1552,1448,0.088,-12.662,-1.81,0.12,-9.65,-0.44,-11.24,144.94,27.544119999999992
2023-03-23 22-28-27-472793,0,0,1552,1448,0.088,-12.662,-1.81,0.12,-9.64,-0.5,-11.29,144.93,27.53412
2023-03-23 22-28-27-504492,0,0,1552,1448,0.088,-12.662,-1.83,0.13,-9.61,-0.56,-11.34,144.93,27.53412
2023-03-23 22-28-27-539416,0,0,1552,1448,0.088,-12.662,-1.83,0.17,-9.6,-0.62,-11.4,144.92,27.524119999999982
2023-03-23 22-28-27-568137,0,0,1552,1448,0.088,-12.662,-1.84,0.18,-9.64,-0.68,-11.45,144.92,27.524119999999982
2023-03-23 22-28-27-603949,0,0,1552,1448,0.088,-12.662,-1.84,0.18,-9.59,-0.74,-11.5,144.92,27.524119999999982
2023-03-23 22-28-27-632394,0,0,1552,1448,0.088,-12.662,-1.85,0.2,-9.57,-0.8,-11.55,144.92,27.524119999999982
2023-03-23 22-28-27-679544,0,0,1552,1448,0.088,-12.662,-1.87,0.19,-9.59,-0.87,-11.6,144.91,27.51411999999999
2023-03-23 22-28-27-707658,0,0,1552,1448,0.088,-12.662,-1.87,0.22,-9.63,-0.93,-11.65,144.91,27.51411999999999
2023-03-23 22-28-27-724261,0,0,1552,1448,0.088,-12.662,-1.88,0.2,-9.58,-0.99,-11.7,144.9,27.50412
2023-03-23 22-28-27-740166,0,0,1552,1448,0.088,-12.662,-1.91,0.23,-9.59,-1.05,-11.75,144.9,27.50412
2023-03-23 22-28-27-756269,0,0,1552,1448,0.088,-12.662,-1.94,0.22,-9.63,-1.1,-11.8,144.9,27.50412
2023-03-23 22-28-27-773405,0,0,1552,1448,0.088,-12.662,-1.93,0.21,-9.62,-1.16,-11.85,144.9,27.50412
2023-03-23 22-28-27-789190,0,0,1552,1448,0.088,-12.662,-1.94,0.26,-9.58,-1.23,-11.9,144.9,27.50412
2023-03-23 22-28-27-804117,0,0,1552,1448,0.088,-12.662,-1.95,0.26,-9.59,-1.29,-11.94,144.9,27.50412
2023-03-23 22-28-27-823904,0,0,1552,1448,0.088,-12.662,-1.96,0.26,-9.61,-1.35,-11.98,144.91,27.51411999999999
2023-03-23 22-28-27-853232,0,0,1552,1448,0.088,-12.662,-1.96,0.28,-9.58,-1.41,-12.03,144.9,27.50412
2023-03-23 22-28-27-868025,0,0,1552,1448,0.088,-12.662,-1.98,0.31,-9.56,-1.46,-12.07,144.9,27.50412
2023-03-23 22-28-27-885380,0,0,1552,1448,0.088,-12.662,-1.98,0.32,-9.58,-1.53,-12.11,144.9,27.50412
2023-03-23 22-28-27-917202,0,0,1552,1448,0.088,-12.662,-2.01,0.31,-9.57,-1.58,-12.16,144.9,27.50412
2023-03-23 22-28-27-948531,0,0,1552,1448,0.088,-12.662,-2.01,0.31,-9.57,-1.64,-12.21,144.9,27.50412
2023-03-23 22-28-27-965328,0,0,1552,1448,0.088,-12.662,-2.03,0.37,-9.59,-1.7,-12.25,144.9,27.50412
2023-03-23 22-28-27-980076,0,0,1552,1448,0.088,-12.662,-2.02,0.33,-9.59,-1.76,-12.3,144.91,27.51411999999999
2023-03-23 22-28-27-996357,0,0,1552,1448,0.088,-12.662,-2.03,0.37,-9.57,-1.81,-12.34,144.92,27.524119999999982
2023-03-23 22-28-28-014153,0,0,1552,1448,0.088,-12.662,-2.04,0.37,-9.53,-1.87,-12.39,144.93,27.53412
2023-03-23 22-28-28-028585,0,0,1552,1448,0.088,-12.662,-2.04,0.4,-9.59,-1.93,-12.43,144.95,27.554119999999983
2023-03-23 22-28-28-044101,0,0,1552,1448,0.088,-12.662,-2.04,0.41,-9.57,-1.98,-12.48,144.95,27.554119999999983
2023-03-23 22-28-28-061503,0,0,1552,1448,0.088,-12.662,-2.03,0.4,-9.53,-2.04,-12.52,144.96,27.564120000000003
2023-03-23 22-28-28-077324,0,0,1552,1448,0.088,-12.662,-2.05,0.41,-9.55,-2.09,-12.56,144.97,27.574119999999994
2023-03-23 22-28-28-092139,0,0,1552,1448,0.088,-12.662,-2.05,0.39,-9.58,-2.15,-12.61,144.98,27.584119999999984
2023-03-23 22-28-28-107978,0,0,1552,1448,0.088,-12.662,-2.08,0.41,-9.53,-2.2,-12.65,144.98,27.584119999999984
2023-03-23 22-28-28-125569,0,0,1552,1448,0.088,-12.662,-2.09,0.41,-9.51,-2.26,-12.69,144.99,27.594120000000004
2023-03-23 22-28-28-156177,0,0,1552,1448,0.088,-12.662,-2.12,0.44,-9.54,-2.31,-12.73,145.0,27.604119999999995
2023-03-23 22-28-28-173372,0,0,1552,1448,0.088,-12.662,-2.12,0.43,-9.54,-2.36,-12.77,145.01,27.614119999999986
2023-03-23 22-28-28-188653,0,0,1552,1448,0.088,-12.662,-2.12,0.45,-9.56,-2.41,-12.81,145.01,27.614119999999986
2023-03-23 22-28-28-203992,0,0,1552,1448,0.088,-12.662,-2.11,0.47,-9.56,-2.46,-12.84,145.02,27.624120000000005
2023-03-23 22-28-28-219993,0,0,1552,1448,0.088,-12.662,-2.12,0.46,-9.54,-2.51,-12.88,145.03,27.634119999999996
2023-03-23 22-28-28-236622,0,0,1552,1448,0.088,-12.662,-2.11,0.48,-9.52,-2.56,-12.91,145.03,27.634119999999996
2023-03-23 22-28-28-252806,0,0,1552,1448,0.088,-12.662,-2.11,0.5,-9.52,-2.61,-12.94,145.04,27.644119999999987
2023-03-23 22-28-28-269049,0,0,1552,1448,0.088,-12.662,-2.14,0.51,-9.54,-2.66,-12.98,145.04,27.644119999999987
2023-03-23 22-28-28-284137,0,0,1552,1448,0.088,-12.662,-2.14,0.49,-9.57,-2.71,-13.01,145.05,27.654120000000006
2023-03-23 22-28-28-300583,0,0,1552,1448,0.088,-12.662,-2.14,0.52,-9.54,-2.76,-13.05,145.04,27.644119999999987
2023-03-23 22-28-28-316785,0,0,1552,1448,0.088,-12.662,-2.15,0.57,-9.57,-2.81,-13.09,145.04,27.644119999999987
2023-03-23 22-28-28-331808,0,0,1552,1448,0.088,-12.662,-2.15,0.55,-9.53,-2.86,-13.13,145.04,27.644119999999987
2023-03-23 22-28-28-348485,0,0,1552,1448,0.088,-12.662,-2.15,0.56,-9.55,-2.91,-13.17,145.03,27.634119999999996
2023-03-23 22-28-28-364056,0,0,1552,1448,0.088,-12.662,-2.14,0.56,-9.52,-2.96,-13.21,145.03,27.634119999999996
2023-03-23 22-28-28-388297,0,0,1552,1448,0.088,-12.662,-2.17,0.56,-9.54,-3.01,-13.25,145.02,27.624120000000005
2023-03-23 22-28-28-419407,0,0,1552,1448,0.088,-12.662,-2.17,0.57,-9.54,-3.06,-13.29,145.0,27.604119999999995
2023-03-23 22-28-28-453344,0,0,1552,1448,0.088,-12.662,-2.17,0.61,-9.54,-3.11,-13.34,144.99,27.594120000000004
2023-03-23 22-28-28-478738,0,0,1552,1448,0.088,-12.662,-2.22,0.59,-9.53,-3.16,-13.38,144.97,27.574119999999994
2023-03-23 22-28-28-509989,0,0,1552,1448,0.088,-12.662,-2.24,0.58,-9.49,-3.21,-13.43,144.95,27.554119999999983
2023-03-23 22-28-28-539931,0,0,1552,1448,0.088,-12.662,-2.25,0.58,-9.45,-3.26,-13.47,144.93,27.53412
2023-03-23 22-28-28-568457,0,0,1552,1448,0.088,-12.662,-2.27,0.64,-9.46,-3.3,-13.52,144.91,27.51411999999999
2023-03-23 22-28-28-590850,0,0,1551,1449,0.088,-12.662,-2.28,0.65,-9.53,-3.35,-13.57,144.88,27.48411999999999
2023-03-23 22-28-28-604129,0,0,1551,1449,0.088,-12.662,-2.24,0.64,-9.47,-3.39,-13.62,144.85,27.45411999999999
2023-03-23 22-28-28-626227,0,0,1551,1449,0.088,-12.662,-2.26,0.66,-9.44,-3.44,-13.67,144.82,27.424119999999988
2023-03-23 22-28-28-658988,0,0,1551,1449,0.088,-12.662,-2.27,0.69,-9.44,-3.48,-13.71,144.79,27.394119999999987
2023-03-23 22-28-28-694836,0,0,1551,1449,0.088,-12.662,-2.26,0.66,-9.47,-3.52,-13.76,144.75,27.354119999999995
2023-03-23 22-28-28-716202,0,0,1551,1449,0.088,-12.662,-2.26,0.68,-9.44,-3.56,-13.79,144.71,27.314120000000003
2023-03-23 22-28-28-732221,0,0,1551,1449,0.088,-12.662,-2.28,0.67,-9.42,-3.6,-13.83,144.66,27.26411999999999
2023-03-23 22-28-28-749019,0,0,1551,1449,0.088,-12.662,-2.32,0.66,-9.42,-3.64,-13.87,144.61,27.21412000000001
2023-03-23 22-28-28-765968,0,0,1551,1449,0.088,-12.662,-2.32,0.68,-9.4,-3.67,-13.91,144.55,27.154120000000006
2023-03-23 22-28-28-796165,0,0,1551,1449,0.088,-12.662,-2.35,0.69,-9.36,-3.71,-13.95,144.5,27.104119999999995
2023-03-23 22-28-28-814614,0,0,1551,1449,0.088,-12.662,-2.38,0.69,-9.39,-3.73,-13.99,144.43,27.03412
2023-03-23 22-28-28-844501,0,0,1551,1449,0.088,-12.662,-2.38,0.73,-9.37,-3.76,-14.02,144.37,26.97412
2023-03-23 22-28-28-859884,0,0,1551,1449,0.088,-12.662,-2.37,0.71,-9.33,-3.79,-14.06,144.3,26.904120000000006
2023-03-23 22-28-28-878328,0,0,1551,1449,0.088,-12.662,-2.36,0.67,-9.36,-3.81,-14.1,144.23,26.834119999999984
2023-03-23 22-28-28-892967,0,0,1551,1449,0.088,-12.662,-2.37,0.72,-9.34,-3.82,-14.13,144.16,26.76411999999999
2023-03-23 22-28-28-910639,0,0,1551,1449,0.088,-12.662,-2.38,0.69,-9.31,-3.84,-14.16,144.08,26.684120000000007
2023-03-23 22-28-28-925610,0,0,1551,1449,0.088,-12.662,-2.36,0.67,-9.28,-3.85,-14.19,143.99,26.594120000000004
2023-03-23 22-28-28-945728,0,0,1551,1449,0.088,-12.662,-2.35,0.67,-9.32,-3.86,-14.21,143.9,26.50412
2023-03-23 22-28-28-977706,0,0,1551,1449,0.088,-12.662,-2.33,0.72,-9.34,-3.86,-14.23,143.81,26.414119999999997
2023-03-23 22-28-29-004605,0,0,1551,1449,0.088,-12.662,-2.36,0.68,-9.27,-3.85,-14.25,143.72,26.324119999999994
2023-03-23 22-28-29-036163,0,0,1550,1450,0.088,-12.662,-2.38,0.69,-9.27,-3.85,-14.26,143.62,26.22412
2023-03-23 22-28-29-052215,0,0,1550,1450,0.088,-12.662,-2.35,0.7,-9.29,-3.84,-14.26,143.52,26.124120000000005
2023-03-23 22-28-29-070366,0,0,1550,1450,0.088,-12.662,-2.36,0.72,-9.3,-3.83,-14.26,143.41,26.01411999999999
2023-03-23 22-28-29-085091,0,0,1550,1450,0.088,-12.662,-2.34,0.65,-9.29,-3.81,-14.25,143.3,25.904120000000006
2023-03-23 22-28-29-100282,0,0,1550,1450,0.088,-12.662,-2.32,0.7,-9.31,-3.79,-14.23,143.19,25.794119999999992
2023-03-23 22-28-29-116258,0,0,1550,1450,0.088,-12.662,-2.32,0.69,-9.25,-3.77,-14.21,143.07,25.674119999999988
2023-03-23 22-28-29-133339,0,0,1550,1450,0.088,-12.662,-2.31,0.62,-9.27,-3.74,-14.19,142.95,25.554119999999983
2023-03-23 22-28-29-148341,0,0,1550,1450,0.088,-12.662,-2.28,0.64,-9.29,-3.7,-14.15,142.83,25.434120000000007
2023-03-23 22-28-29-165015,0,0,1550,1450,0.088,-12.662,-2.27,0.65,-9.29,-3.67,-14.11,142.69,25.294119999999992
2023-03-23 22-28-29-180141,0,0,1550,1450,0.088,-12.662,-2.28,0.63,-9.27,-3.62,-14.06,142.56,25.164119999999997
2023-03-23 22-28-29-205094,0,0,1550,1450,0.088,-12.662,-2.26,0.64,-9.32,-3.57,-14.01,142.42,25.024119999999982
2023-03-23 22-28-29-228129,0,0,1549,1451,0.088,-12.662,-2.24,0.61,-9.34,-3.52,-13.94,142.27,24.874120000000005
2023-03-23 22-28-29-244713,0,0,1549,1451,0.088,-12.662,-2.25,0.65,-9.26,-3.46,-13.87,142.13,24.73411999999999
2023-03-23 22-28-29-275837,0,0,1549,1451,0.088,-12.662,-2.23,0.58,-9.25,-3.4,-13.79,141.97,24.574119999999994
2023-03-23 22-28-29-293348,0,0,1549,1451,0.088,-12.662,-2.22,0.57,-9.34,-3.34,-13.71,141.82,24.424119999999988
2023-03-23 22-28-29-308659,0,0,1549,1451,0.088,-12.662,-2.23,0.6,-9.35,-3.27,-13.61,141.65,24.25412
2023-03-23 22-28-29-324153,0,0,1549,1451,0.088,-12.662,-2.22,0.59,-9.31,-3.2,-13.51,141.49,24.094120000000004
2023-03-23 22-28-29-341619,0,0,1549,1451,0.088,-12.662,-2.19,0.53,-9.33,-3.12,-13.41,141.32,23.924119999999988
2023-03-23 22-28-29-372411,0,0,1548,1452,0.088,-12.662,-2.15,0.53,-9.39,-3.04,-13.29,141.15,23.75412
2023-03-23 22-28-29-403683,0,0,1548,1452,0.088,-12.662,-2.16,0.53,-9.39,-2.96,-13.17,140.97,23.574119999999994
2023-03-23 22-28-29-422177,0,0,1548,1452,0.088,-12.662,-2.14,0.5,-9.37,-2.87,-13.04,140.8,23.404120000000006
2023-03-23 22-28-29-437069,0,0,1548,1452,0.088,-12.662,-2.11,0.5,-9.39,-2.78,-12.91,140.61,23.21412000000001
2023-03-23 22-28-29-453312,0,0,1548,1452,0.088,-12.662,-2.09,0.52,-9.4,-2.69,-12.77,140.43,23.03412
2023-03-23 22-28-29-467926,0,0,1548,1452,0.088,-12.662,-2.07,0.49,-9.42,-2.6,-12.63,140.25,22.854119999999995
2023-03-23 22-28-29-484061,0,0,1548,1452,0.088,-12.662,-2.03,0.43,-9.46,-2.5,-12.48,140.06,22.664119999999997
2023-03-23 22-28-29-503379,0,0,1547,1453,0.088,-12.662,-2.0,0.47,-9.48,-2.4,-12.33,139.87,22.47412
2023-03-23 22-28-29-531950,0,0,1547,1453,0.088,-12.662,-1.98,0.43,-9.45,-2.31,-12.18,139.68,22.28412
2023-03-23 22-28-29-549377,0,0,1547,1453,0.088,-12.662,-1.94,0.41,-9.5,-2.21,-12.02,139.49,22.094120000000004
2023-03-23 22-28-29-564392,0,0,1547,1453,0.088,-12.662,-1.91,0.41,-9.56,-2.12,-11.86,139.3,21.904120000000006
2023-03-23 22-28-29-580620,0,0,1547,1453,0.088,-12.662,-1.9,0.38,-9.51,-2.02,-11.7,139.11,21.71412000000001
2023-03-23 22-28-29-596944,0,0,1547,1453,0.088,-12.662,-1.9,0.37,-9.52,-1.92,-11.53,138.93,21.53412
2023-03-23 22-28-29-627853,0,0,1547,1453,0.088,-12.662,-1.89,0.34,-9.6,-1.82,-11.37,138.74,21.344120000000004
2023-03-23 22-28-29-644667,0,0,1546,1454,0.088,-12.662,-1.85,0.33,-9.58,-1.72,-11.2,138.56,21.164119999999997
2023-03-23 22-28-29-661263,0,0,1546,1454,0.088,-12.662,-1.82,0.33,-9.54,-1.63,-11.04,138.38,20.98411999999999
2023-03-23 22-28-29-677136,0,0,1546,1454,0.088,-12.662,-1.82,0.29,-9.59,-1.54,-10.87,138.2,20.804119999999983
2023-03-23 22-28-29-692106,0,0,1546,1454,0.088,-12.662,-1.77,0.32,-9.63,-1.44,-10.71,138.02,20.624120000000005
2023-03-23 22-28-29-708461,0,0,1546,1454,0.088,-12.662,-1.74,0.27,-9.6,-1.35,-10.54,137.84,20.444119999999998
2023-03-23 22-28-29-725676,0,0,1546,1454,0.088,-12.662,-1.73,0.25,-9.61,-1.25,-10.38,137.66,20.26411999999999
2023-03-23 22-28-29-741176,0,0,1546,1454,0.088,-12.662,-1.7,0.24,-9.68,-1.16,-10.22,137.49,20.094120000000004
2023-03-23 22-28-29-756002,0,0,1545,1455,0.088,-12.662,-1.68,0.22,-9.66,-1.07,-10.07,137.32,19.924119999999988
2023-03-23 22-28-29-772045,0,0,1545,1455,0.088,-12.662,-1.63,0.23,-9.59,-0.98,-9.92,137.15,19.75412
2023-03-23 22-28-29-789010,0,0,1545,1455,0.088,-12.662,-1.7,0.2,-9.7,-0.89,-9.77,136.98,19.584119999999984
2023-03-23 22-28-29-804773,0,0,1545,1455,0.088,-12.662,-1.63,0.18,-9.72,-0.81,-9.62,136.82,19.424119999999988
2023-03-23 22-28-29-820567,0,0,1545,1455,0.088,-12.662,-1.62,0.17,-9.66,-0.73,-9.49,136.65,19.25412
2023-03-23 22-28-29-836084,0,0,1545,1455,0.088,-12.662,-1.6,0.17,-9.63,-0.65,-9.36,136.49,19.094120000000004
2023-03-23 22-28-29-853572,0,0,1545,1455,0.088,-12.662,-1.61,0.17,-9.71,-0.56,-9.23,136.33,18.934120000000007
2023-03-23 22-28-29-870680,0,0,1545,1455,0.088,-12.662,-1.56,0.15,-9.71,-0.49,-9.11,136.18,18.78412
2023-03-23 22-28-29-899626,0,0,1544,1456,0.088,-12.662,-1.55,0.12,-9.7,-0.42,-8.99,136.02,18.624120000000005
2023-03-23 22-28-29-915961,0,0,1544,1456,0.088,-12.662,-1.51,0.13,-9.67,-0.35,-8.88,135.87,18.47412
2023-03-23 22-28-29-933629,0,0,1544,1456,0.088,-12.662,-1.48,0.09,-9.72,-0.28,-8.76,135.72,18.324119999999994
2023-03-23 22-28-29-948250,0,0,1544,1456,0.088,-12.662,-1.46,0.09,-9.69,-0.21,-8.65,135.57,18.174119999999988
2023-03-23 22-28-29-966287,0,0,1544,1456,0.088,-12.662,-1.47,0.07,-9.7,-0.15,-8.55,135.43,18.03412
2023-03-23 22-28-29-980484,0,0,1544,1456,0.088,-12.662,-1.46,0.05,-9.7,-0.09,-8.45,135.29,17.894119999999987
2023-03-23 22-28-29-996637,0,0,1544,1456,0.088,-12.662,-1.42,0.04,-9.72,-0.03,-8.35,135.16,17.76411999999999
2023-03-23 22-28-30-012735,0,0,1544,1456,0.088,-12.662,-1.41,0.05,-9.69,0.02,-8.26,135.02,17.624120000000005
2023-03-23 22-28-30-029034,0,0,1543,1457,0.088,-12.662,-1.42,0.08,-9.67,0.08,-8.17,134.89,17.49411999999998
2023-03-23 22-28-30-043927,0,0,1543,1457,0.088,-12.662,-1.38,0.05,-9.69,0.13,-8.08,134.76,17.364119999999986
2023-03-23 22-28-30-062106,0,0,1543,1457,0.088,-12.662,-1.37,0.01,-9.69,0.18,-8.0,134.63,17.23411999999999
2023-03-23 22-28-30-076950,0,0,1543,1457,0.088,-12.662,-1.38,0.01,-9.74,0.23,-7.93,134.5,17.104119999999995
2023-03-23 22-28-30-092974,0,0,1543,1457,0.088,-12.662,-1.35,-0.02,-9.73,0.27,-7.86,134.37,16.97412
2023-03-23 22-28-30-109755,0,0,1543,1457,0.088,-12.662,-1.33,-0.01,-9.68,0.31,-7.8,134.25,16.854119999999995
2023-03-23 22-28-30-123928,0,0,1543,1457,0.088,-12.662,-1.35,0.0,-9.73,0.36,-7.75,134.12,16.72412
2023-03-23 22-28-30-141029,0,0,1543,1457,0.088,-12.662,-1.33,-0.04,-9.76,0.4,-7.71,134.0,16.604119999999995
2023-03-23 22-28-30-155989,0,0,1543,1457,0.088,-12.662,-1.3,-0.05,-9.7,0.44,-7.67,133.88,16.48411999999999
2023-03-23 22-28-30-173425,0,0,1543,1457,0.088,-12.662,-1.31,-0.07,-9.66,0.49,-7.65,133.76,16.364119999999986
2023-03-23 22-28-30-188474,0,0,1542,1458,0.088,-12.662,-1.31,-0.08,-9.71,0.53,-7.63,133.65,16.25412
2023-03-23 22-28-30-204052,0,0,1542,1458,0.088,-12.662,-1.29,-0.09,-9.72,0.56,-7.63,133.54,16.144119999999987
2023-03-23 22-28-30-223089,0,0,1542,1458,0.088,-12.662,-1.26,-0.1,-9.7,0.6,-7.62,133.43,16.03412
2023-03-23 22-28-30-252840,0,0,1542,1458,0.088,-12.662,-1.28,-0.09,-9.68,0.64,-7.63,133.32,15.924119999999988
2023-03-23 22-28-30-268131,0,0,1542,1458,0.088,-12.662,-1.28,-0.11,-9.69,0.68,-7.65,133.21,15.814120000000003
2023-03-23 22-28-30-284202,0,0,1542,1458,0.088,-12.662,-1.25,-0.14,-9.66,0.72,-7.67,133.11,15.714120000000008
2023-03-23 22-28-30-300835,0,0,1542,1458,0.088,-12.662,-1.29,-0.13,-9.68,0.76,-7.7,133.0,15.604119999999995
2023-03-23 22-28-30-315932,0,0,1542,1458,0.088,-12.662,-1.29,-0.14,-9.7,0.81,-7.74,132.9,15.50412
2023-03-23 22-28-30-332132,0,0,1542,1458,0.088,-12.662,-1.26,-0.16,-9.66,0.85,-7.77,132.81,15.414119999999997
2023-03-23 22-28-30-349096,0,0,1542,1458,0.088,-12.662,-1.29,-0.15,-9.64,0.89,-7.81,132.71,15.314120000000003
2023-03-23 22-28-30-365636,0,0,1542,1458,0.088,-12.662,-1.33,-0.17,-9.66,0.93,-7.86,132.61,15.214120000000008
2023-03-23 22-28-30-382115,0,0,1542,1458,0.088,-12.662,-1.31,-0.17,-9.68,0.98,-7.91,132.52,15.124120000000005
2023-03-23 22-28-30-396053,0,0,1542,1458,0.088,-12.662,-1.29,-0.17,-9.64,1.02,-7.97,132.43,15.034120000000001
2023-03-23 22-28-30-413585,0,0,1541,1459,0.088,-12.662,-1.34,-0.18,-9.63,1.06,-8.03,132.34,14.944119999999998
2023-03-23 22-28-30-431654,0,0,1541,1459,0.088,-12.662,-1.34,-0.16,-9.67,1.11,-8.08,132.25,14.854119999999995
2023-03-23 22-28-30-460241,0,0,1541,1459,0.088,-12.662,-1.31,-0.22,-9.65,1.15,-8.13,132.16,14.764119999999991
2023-03-23 22-28-30-476775,0,0,1541,1459,0.088,-12.662,-1.31,-0.19,-9.61,1.19,-8.18,132.07,14.674119999999988
2023-03-23 22-28-30-493076,0,0,1541,1459,0.088,-12.662,-1.39,-0.18,-9.62,1.23,-8.23,131.99,14.594120000000004
2023-03-23 22-28-30-526032,0,0,1541,1459,0.088,-12.662,-1.36,-0.21,-9.65,1.28,-8.28,131.91,14.514119999999991
2023-03-23 22-28-30-539839,0,0,1541,1459,0.088,-12.662,-1.33,-0.22,-9.66,1.32,-8.32,131.83,14.434120000000007
2023-03-23 22-28-30-557634,0,0,1541,1459,0.088,-12.662,-1.37,-0.23,-9.65,1.36,-8.36,131.76,14.364119999999986
2023-03-23 22-28-30-572914,0,0,1541,1459,0.088,-12.662,-1.38,-0.22,-9.61,1.4,-8.4,131.69,14.294119999999992
2023-03-23 22-28-30-588011,0,0,1541,1459,0.088,-12.662,-1.33,-0.24,-9.63,1.44,-8.43,131.62,14.22412
2023-03-23 22-28-30-603910,0,0,1541,1459,0.088,-12.662,-1.33,-0.25,-9.61,1.48,-8.46,131.55,14.154120000000006
2023-03-23 22-28-30-619891,0,0,1541,1459,0.088,-12.662,-1.39,-0.25,-9.63,1.52,-8.5,131.48,14.084119999999984
2023-03-23 22-28-30-639070,0,0,1541,1459,0.088,-12.662,-1.39,-0.24,-9.65,1.55,-8.53,131.42,14.024119999999982
2023-03-23 22-28-30-669430,0,0,1541,1459,0.088,-12.662,-1.37,-0.28,-9.59,1.59,-8.55,131.35,13.954119999999989
2023-03-23 22-28-30-683804,0,0,1541,1459,0.088,-12.662,-1.42,-0.23,-9.64,1.62,-8.57,131.29,13.894119999999987
2023-03-23 22-28-30-700134,0,0,1541,1459,0.088,-12.662,-1.44,-0.27,-9.63,1.65,-8.59,131.23,13.834119999999984
2023-03-23 22-28-30-736654,0,0,1541,1459,0.088,-12.662,-1.39,-0.26,-9.65,1.68,-8.61,131.17,13.774119999999982
2023-03-23 22-28-30-767375,0,0,1540,1460,0.088,-12.662,-1.37,-0.26,-9.62,1.71,-8.62,131.12,13.72412
2023-03-23 22-28-30-801530,0,0,1540,1460,0.088,-12.662,-1.41,-0.3,-9.64,1.75,-8.63,131.06,13.664119999999997
2023-03-23 22-28-30-835071,0,0,1540,1460,0.088,-12.662,-1.38,-0.28,-9.63,1.78,-8.64,131.0,13.604119999999995
2023-03-23 22-28-30-866421,0,0,1540,1460,0.088,-12.662,-1.37,-0.3,-9.64,1.81,-8.64,130.95,13.554119999999983
2023-03-23 22-28-30-897502,0,0,1540,1460,0.088,-12.662,-1.43,-0.32,-9.65,1.84,-8.64,130.89,13.494119999999981
2023-03-23 22-28-30-930206,0,0,1540,1460,0.088,-12.662,-1.43,-0.32,-9.67,1.87,-8.64,130.85,13.454119999999989
2023-03-23 22-28-30-961983,0,0,1540,1460,0.088,-12.662,-1.42,-0.29,-9.63,1.89,-8.63,130.8,13.404120000000006
2023-03-23 22-28-30-996727,0,0,1540,1460,0.176,-12.662,-1.44,-0.31,-9.58,1.91,-8.62,130.75,13.354119999999995
2023-03-23 22-28-31-022026,0,0,1540,1460,0.088,-12.662,-1.47,-0.29,-9.62,1.93,-8.61,130.71,13.314120000000003
2023-03-23 22-28-31-037436,0,0,1540,1460,0.088,-12.662,-1.46,-0.31,-9.66,1.96,-8.6,130.66,13.264119999999991
2023-03-23 22-28-31-089614,0,0,1540,1460,0.088,-12.662,-1.42,-0.32,-9.69,1.98,-8.58,130.62,13.22412
2023-03-23 22-28-31-115676,0,0,1540,1460,0.088,-12.662,-1.45,-0.32,-9.7,2.0,-8.56,130.58,13.184120000000007
2023-03-23 22-28-31-148861,0,0,1540,1460,0.088,-12.662,-1.44,-0.37,-9.67,2.01,-8.54,130.54,13.144119999999987
2023-03-23 22-28-31-164561,0,0,1540,1460,0.088,-12.662,-1.39,-0.33,-9.67,2.03,-8.51,130.5,13.104119999999995
2023-03-23 22-28-31-179713,0,0,1540,1460,0.088,-12.662,-1.41,-0.35,-9.65,2.04,-8.49,130.46,13.064120000000003
2023-03-23 22-28-31-196843,0,0,1540,1460,0.088,-12.662,-1.42,-0.33,-9.65,2.05,-8.46,130.43,13.034120000000001
2023-03-23 22-28-31-211735,0,0,1540,1460,0.088,-12.662,-1.42,-0.35,-9.7,2.07,-8.44,130.39,12.994119999999981
2023-03-23 22-28-31-228651,0,0,1540,1460,0.088,-12.662,-1.4,-0.32,-9.69,2.08,-8.41,130.36,12.964120000000008
2023-03-23 22-28-31-243761,0,0,1540,1460,0.088,-12.662,-1.44,-0.33,-9.68,2.09,-8.38,130.33,12.934120000000007
2023-03-23 22-28-31-260190,0,0,1540,1460,0.088,-12.662,-1.44,-0.36,-9.67,2.1,-8.36,130.3,12.904120000000006
2023-03-23 22-28-31-276163,0,0,1540,1460,0.088,-12.662,-1.42,-0.34,-9.68,2.1,-8.34,130.27,12.874120000000005
2023-03-23 22-28-31-292932,0,0,1540,1460,0.088,-12.662,-1.43,-0.32,-9.7,2.11,-8.33,130.24,12.844120000000004
2023-03-23 22-28-31-309352,0,0,1540,1460,0.088,-12.662,-1.41,-0.34,-9.7,2.12,-8.32,130.21,12.814120000000003
2023-03-23 22-28-31-324228,0,0,1540,1460,0.088,-12.662,-1.37,-0.38,-9.7,2.12,-8.31,130.18,12.784120000000001
2023-03-23 22-28-31-340479,0,0,1540,1460,0.088,-12.662,-1.38,-0.38,-9.67,2.13,-8.31,130.15,12.75412
2023-03-23 22-28-31-356139,0,0,1540,1460,0.088,-12.662,-1.42,-0.37,-9.69,2.13,-8.31,130.12,12.72412
2023-03-23 22-28-31-371726,0,0,1540,1460,0.088,-12.662,-1.43,-0.38,-9.69,2.13,-8.32,130.09,12.694119999999998
2023-03-23 22-28-31-389024,0,0,1540,1460,0.088,-12.662,-1.42,-0.4,-9.68,2.13,-8.33,130.06,12.664119999999997
2023-03-23 22-28-31-405364,0,0,1540,1460,0.088,-12.662,-1.49,-0.35,-9.72,2.14,-8.35,130.02,12.624120000000005
2023-03-23 22-28-31-420259,0,0,1540,1460,0.088,-12.574,-1.48,-0.38,-9.63,2.14,-8.38,129.99,12.594120000000004
2023-03-23 22-28-31-443631,0,0,1540,1460,0.088,-12.662,-1.47,-0.4,-9.64,2.14,-8.41,129.96,12.564120000000003
2023-03-23 22-28-31-468796,0,0,1540,1460,0.088,-12.662,-1.47,-0.41,-9.67,2.14,-8.45,129.93,12.534120000000001
2023-03-23 22-28-31-484352,0,0,1540,1460,0.088,-12.662,-1.48,-0.38,-9.72,2.14,-8.49,129.9,12.50412
2023-03-23 22-28-31-503774,0,0,1539,1461,0.088,-12.662,-1.46,-0.38,-9.67,2.14,-8.54,129.86,12.464120000000008
2023-03-23 22-28-31-532625,0,0,1539,1461,0.088,-12.662,-1.46,-0.4,-9.67,2.14,-8.59,129.83,12.434120000000007
2023-03-23 22-28-31-547490,0,0,1539,1461,0.088,-12.662,-1.5,-0.4,-9.66,2.15,-8.64,129.8,12.404120000000006
2023-03-23 22-28-31-564197,0,0,1539,1461,0.088,-12.662,-1.5,-0.41,-9.62,2.14,-8.7,129.77,12.374120000000005
2023-03-23 22-28-31-579779,0,0,1539,1461,0.088,-12.662,-1.48,-0.43,-9.62,2.14,-8.75,129.74,12.344120000000004
2023-03-23 22-28-31-595394,0,0,1539,1461,0.088,-12.662,-1.52,-0.43,-9.64,2.14,-8.81,129.7,12.304119999999983
2023-03-23 22-28-31-612764,0,0,1539,1461,0.088,-12.662,-1.56,-0.38,-9.68,2.14,-8.88,129.68,12.284120000000001
2023-03-23 22-28-31-627779,0,0,1539,1461,0.088,-12.662,-1.52,-0.43,-9.59,2.14,-8.94,129.65,12.25412
2023-03-23 22-28-31-643785,0,0,1539,1461,0.088,-12.662,-1.52,-0.39,-9.6,2.14,-9.0,129.63,12.23411999999999
2023-03-23 22-28-31-661486,0,0,1539,1461,0.088,-12.662,-1.57,-0.4,-9.64,2.14,-9.06,129.6,12.204119999999989
2023-03-23 22-28-31-676360,0,0,1539,1461,0.088,-12.662,-1.56,-0.38,-9.66,2.14,-9.12,129.58,12.184120000000007
2023-03-23 22-28-31-691947,0,0,1539,1461,0.088,-12.662,-1.5,-0.39,-9.61,2.13,-9.18,129.55,12.154120000000006
2023-03-23 22-28-31-708195,0,0,1539,1461,0.088,-12.662,-1.56,-0.42,-9.58,2.13,-9.24,129.53,12.134119999999996
2023-03-23 22-28-31-724716,0,0,1539,1461,0.088,-12.662,-1.62,-0.37,-9.63,2.13,-9.29,129.51,12.114119999999986
2023-03-23 22-28-31-742011,0,0,1539,1461,0.088,-12.662,-1.58,-0.41,-9.65,2.13,-9.35,129.49,12.094120000000004
2023-03-23 22-28-31-756413,0,0,1539,1461,0.088,-12.662,-1.6,-0.42,-9.57,2.13,-9.41,129.46,12.064120000000003
2023-03-23 22-28-31-771928,0,0,1539,1461,0.088,-12.662,-1.65,-0.38,-9.63,2.12,-9.47,129.44,12.044119999999992
2023-03-23 22-28-31-787684,0,0,1539,1461,0.088,-12.662,-1.64,-0.41,-9.63,2.12,-9.53,129.42,12.024119999999982
2023-03-23 22-28-31-803993,0,0,1539,1461,0.088,-12.662,-1.59,-0.41,-9.61,2.12,-9.58,129.4,12.00412
2023-03-23 22-28-31-821634,0,0,1539,1461,0.088,-12.662,-1.6,-0.38,-9.59,2.11,-9.65,129.37,11.97412
2023-03-23 22-28-31-836024,0,0,1539,1461,0.088,-12.662,-1.67,-0.37,-9.63,2.11,-9.71,129.36,11.964120000000008
2023-03-23 22-28-31-852602,0,0,1539,1461,0.088,-12.662,-1.61,-0.39,-9.66,2.11,-9.78,129.34,11.944119999999998
2023-03-23 22-28-31-868971,0,0,1539,1461,0.088,-12.662,-1.59,-0.41,-9.63,2.11,-9.84,129.32,11.924119999999988
2023-03-23 22-28-31-884107,0,0,1539,1461,0.088,-12.662,-1.65,-0.41,-9.61,2.11,-9.9,129.3,11.904120000000006
2023-03-23 22-28-31-899541,0,0,1539,1461,0.088,-12.662,-1.66,-0.37,-9.61,2.11,-9.97,129.29,11.894119999999987
2023-03-23 22-28-31-916892,0,0,1539,1461,0.088,-12.662,-1.65,-0.41,-9.63,2.1,-10.02,129.27,11.874120000000005
2023-03-23 22-28-31-933232,0,0,1539,1461,0.088,-12.662,-1.72,-0.39,-9.59,2.1,-10.08,129.26,11.864119999999986
2023-03-23 22-28-31-948599,0,0,1539,1461,0.088,-12.662,-1.74,-0.39,-9.59,2.1,-10.14,129.25,11.854119999999995
2023-03-23 22-28-31-963568,0,0,1539,1461,0.088,-12.662,-1.71,-0.41,-9.65,2.1,-10.18,129.24,11.844120000000004
2023-03-23 22-28-31-980430,0,0,1539,1461,0.088,-12.662,-1.71,-0.39,-9.6,2.1,-10.23,129.22,11.824119999999994
2023-03-23 22-28-31-997500,0,0,1539,1461,0.088,-12.662,-1.72,-0.41,-9.63,2.09,-10.28,129.21,11.814120000000003
2023-03-23 22-28-32-011998,0,0,1539,1461,0.088,-12.662,-1.68,-0.39,-9.59,2.09,-10.32,129.2,11.804119999999983
2023-03-23 22-28-32-027652,0,0,1539,1461,0.088,-12.662,-1.68,-0.39,-9.62,2.08,-10.35,129.18,11.784120000000001
2023-03-23 22-28-32-044133,0,0,1539,1461,0.088,-12.662,-1.71,-0.38,-9.64,2.08,-10.39,129.17,11.774119999999982
2023-03-23 22-28-32-061905,0,0,1539,1461,0.088,-12.662,-1.7,-0.42,-9.64,2.07,-10.42,129.15,11.75412
2023-03-23 22-28-32-075719,0,0,1539,1461,0.088,-12.662,-1.69,-0.41,-9.61,2.07,-10.45,129.13,11.73411999999999
2023-03-23 22-28-32-092140,0,0,1539,1461,0.088,-12.662,-1.71,-0.42,-9.6,2.06,-10.48,129.1,11.704119999999989
2023-03-23 22-28-32-108857,0,0,1539,1461,0.088,-12.662,-1.76,-0.41,-9.65,2.06,-10.51,129.08,11.684120000000007
2023-03-23 22-28-32-125119,0,0,1539,1461,0.088,-12.662,-1.76,-0.41,-9.64,2.06,-10.54,129.05,11.654120000000006
2023-03-23 22-28-32-139392,0,0,1539,1461,0.088,-12.662,-1.77,-0.42,-9.66,2.05,-10.57,129.03,11.634119999999996
2023-03-23 22-28-32-156825,0,0,1539,1461,0.088,-12.662,-1.78,-0.35,-9.63,2.05,-10.59,129.0,11.604119999999995
2023-03-23 22-28-32-172155,0,0,1539,1461,0.088,-12.662,-1.77,-0.4,-9.64,2.05,-10.63,128.97,11.574119999999994
2023-03-23 22-28-32-187495,0,0,1539,1461,0.088,-12.662,-1.77,-0.4,-9.62,2.05,-10.65,128.94,11.544119999999992
2023-03-23 22-28-32-205289,0,0,1539,1461,0.088,-12.662,-1.78,-0.41,-9.65,2.04,-10.68,128.91,11.514119999999991
2023-03-23 22-28-32-219554,0,0,1539,1461,0.176,-12.662,-1.78,-0.4,-9.66,2.04,-10.71,128.87,11.47412
2023-03-23 22-28-32-236082,0,0,1539,1461,0.088,-12.662,-1.77,-0.4,-9.64,2.04,-10.74,128.84,11.444119999999998
2023-03-23 22-28-32-254375,0,0,1539,1461,0.088,-12.662,-1.8,-0.42,-9.65,2.03,-10.77,128.8,11.404120000000006
2023-03-23 22-28-32-268358,0,0,1539,1461,0.088,-12.662,-1.82,-0.37,-9.66,2.03,-10.8,128.75,11.354119999999995
2023-03-23 22-28-32-283683,0,0,1539,1461,0.088,-12.662,-1.83,-0.4,-9.62,2.03,-10.83,128.71,11.314120000000003
2023-03-23 22-28-32-300043,0,0,1539,1461,0.088,-12.662,-1.81,-0.4,-9.61,2.03,-10.87,128.67,11.274119999999982
2023-03-23 22-28-32-317010,0,0,1538,1462,0.088,-12.662,-1.83,-0.4,-9.6,2.02,-10.9,128.62,11.22412
2023-03-23 22-28-32-331652,0,0,1538,1462,0.088,-12.662,-1.84,-0.36,-9.6,2.02,-10.94,128.58,11.184120000000007
2023-03-23 22-28-32-348987,0,0,1538,1462,0.088,-12.662,-1.81,-0.37,-9.63,2.01,-10.98,128.53,11.134119999999996
2023-03-23 22-28-32-363672,0,0,1538,1462,0.088,-12.662,-1.82,-0.38,-9.61,2.01,-11.02,128.48,11.084119999999984
2023-03-23 22-28-32-380114,0,0,1538,1462,0.088,-12.662,-1.86,-0.4,-9.64,2.01,-11.06,128.43,11.034120000000001
2023-03-23 22-28-32-397639,0,0,1538,1462,0.088,-12.662,-1.8,-0.38,-9.62,2.0,-11.1,128.37,10.97412
2023-03-23 22-28-32-412013,0,0,1538,1462,0.088,-12.662,-1.8,-0.42,-9.58,2.0,-11.14,128.32,10.924119999999988
2023-03-23 22-28-32-428640,0,0,1538,1462,0.088,-12.662,-1.84,-0.4,-9.59,2.0,-11.18,128.26,10.864119999999986
2023-03-23 22-28-32-445186,0,0,1538,1462,0.088,-12.662,-1.87,-0.39,-9.61,1.99,-11.23,128.2,10.804119999999983
2023-03-23 22-28-32-460053,0,0,1538,1462,0.088,-12.662,-1.85,-0.4,-9.59,1.99,-11.27,128.14,10.744119999999981
2023-03-23 22-28-32-475884,0,0,1538,1462,0.088,-12.662,-1.88,-0.37,-9.58,1.99,-11.32,128.08,10.684120000000007
2023-03-23 22-28-32-491966,0,0,1538,1462,0.088,-12.662,-1.9,-0.36,-9.55,1.98,-11.36,128.02,10.624120000000005
2023-03-23 22-28-32-508826,0,0,1538,1462,0.088,-12.662,-1.88,-0.38,-9.54,1.98,-11.4,127.96,10.564119999999988
2023-03-23 22-28-32-524867,0,0,1538,1462,0.088,-12.662,-1.87,-0.38,-9.55,1.97,-11.44,127.9,10.50412
2023-03-23 22-28-32-541206,0,0,1538,1462,0.088,-12.662,-1.93,-0.38,-9.54,1.97,-11.48,127.83,10.434119999999993
2023-03-23 22-28-32-555702,0,0,1538,1462,0.088,-12.662,-1.93,-0.35,-9.58,1.97,-11.52,127.76,10.36412
2023-03-23 22-28-32-573141,0,0,1538,1462,0.088,-12.662,-1.87,-0.36,-9.56,1.96,-11.55,127.69,10.294119999999992
2023-03-23 22-28-32-587807,0,0,1538,1462,0.088,-12.662,-1.9,-0.4,-9.52,1.96,-11.58,127.62,10.22412
2023-03-23 22-28-32-604989,0,0,1538,1462,0.088,-12.662,-1.99,-0.36,-9.53,1.96,-11.62,127.55,10.154119999999992
2023-03-23 22-28-32-619748,0,0,1538,1462,0.088,-12.662,-1.94,-0.37,-9.53,1.96,-11.65,127.48,10.084119999999999
2023-03-23 22-28-32-637077,0,0,1537,1463,0.088,-12.662,-1.91,-0.39,-9.51,1.96,-11.68,127.4,10.00412
2023-03-23 22-28-32-651903,0,0,1537,1463,0.088,-12.662,-1.97,-0.39,-9.55,1.96,-11.71,127.33,9.934119999999993
2023-03-23 22-28-32-668314,0,0,1537,1463,0.088,-12.662,-1.98,-0.34,-9.54,1.96,-11.74,127.26,9.86412
2023-03-23 22-28-32-683979,0,0,1537,1463,0.088,-12.574,-1.93,-0.4,-9.5,1.96,-11.77,127.19,9.794119999999992
2023-03-23 22-28-32-701227,0,0,1537,1463,0.088,-12.662,-1.93,-0.38,-9.48,1.97,-11.8,127.11,9.714119999999994
2023-03-23 22-28-32-715749,0,0,1537,1463,0.088,-12.662,-2.0,-0.38,-9.5,1.97,-11.83,127.04,9.644120000000001
2023-03-23 22-28-32-732879,0,0,1537,1463,0.088,-12.662,-1.98,-0.37,-9.55,1.97,-11.85,126.97,9.574119999999994
2023-03-23 22-28-32-747766,0,0,1537,1463,0.088,-12.662,-1.92,-0.4,-9.52,1.97,-11.87,126.9,9.50412
2023-03-23 22-28-32-764945,0,0,1537,1463,0.088,-12.662,-1.97,-0.36,-9.52,1.97,-11.89,126.83,9.434119999999993
2023-03-23 22-28-32-779639,0,0,1537,1463,0.088,-12.662,-1.99,-0.35,-9.52,1.98,-11.91,126.76,9.36412
2023-03-23 22-28-32-796244,0,0,1537,1463,0.088,-12.662,-1.96,-0.37,-9.49,1.98,-11.92,126.69,9.294119999999992
2023-03-23 22-28-32-812205,0,0,1537,1463,0.088,-12.662,-1.96,-0.42,-9.45,1.99,-11.93,126.62,9.22412
2023-03-23 22-28-32-827691,0,0,1537,1463,0.088,-12.662,-2.02,-0.38,-9.48,2.0,-11.94,126.54,9.144120000000001
2023-03-23 22-28-32-844225,0,0,1537,1463,0.088,-12.662,-2.02,-0.36,-9.51,2.0,-11.94,126.47,9.074119999999994
2023-03-23 22-28-32-859922,0,0,1537,1463,0.088,-12.662,-1.98,-0.36,-9.48,2.01,-11.94,126.4,9.00412
2023-03-23 22-28-32-876766,0,0,1537,1463,0.088,-12.662,-2.03,-0.38,-9.52,2.02,-11.94,126.32,8.924119999999988
2023-03-23 22-28-32-891678,0,0,1537,1463,0.088,-12.662,-2.02,-0.39,-9.52,2.02,-11.94,126.25,8.854119999999995
2023-03-23 22-28-32-908376,0,0,1537,1463,0.088,-12.662,-1.99,-0.38,-9.51,2.03,-11.92,126.17,8.774119999999996
2023-03-23 22-28-32-923884,0,0,1536,1464,0.088,-12.662,-1.98,-0.41,-9.51,2.04,-11.91,126.1,8.704119999999989
2023-03-23 22-28-32-940543,0,0,1536,1464,0.088,-12.662,-2.01,-0.39,-9.51,2.06,-11.89,126.02,8.62411999999999
2023-03-23 22-28-32-956112,0,0,1536,1464,0.088,-12.662,-1.97,-0.37,-9.53,2.07,-11.87,125.94,8.544119999999992
2023-03-23 22-28-32-972126,0,0,1536,1464,0.088,-12.662,-1.98,-0.4,-9.53,2.08,-11.85,125.87,8.47412
2023-03-23 22-28-32-989239,0,0,1536,1464,0.088,-12.662,-1.99,-0.4,-9.53,2.1,-11.81,125.79,8.394120000000001
2023-03-23 22-28-33-004780,0,0,1536,1464,0.088,-12.662,-1.97,-0.38,-9.51,2.11,-11.78,125.72,8.324119999999994
2023-03-23 22-28-33-020243,0,0,1536,1464,0.088,-12.662,-1.93,-0.39,-9.51,2.12,-11.74,125.64,8.244119999999995
2023-03-23 22-28-33-037188,0,0,1536,1464,0.088,-12.662,-1.95,-0.38,-9.51,2.14,-11.69,125.56,8.164119999999997
2023-03-23 22-28-33-054350,0,0,1536,1464,0.088,-12.662,-1.97,-0.39,-9.55,2.15,-11.64,125.48,8.084119999999999
2023-03-23 22-28-33-085018,0,0,1536,1464,0.088,-12.662,-1.95,-0.4,-9.56,2.17,-11.59,125.41,8.014119999999991
2023-03-23 22-28-33-099867,0,0,1536,1464,0.088,-12.574,-1.94,-0.37,-9.53,2.19,-11.55,125.32,7.924119999999988
2023-03-23 22-28-33-117270,0,0,1536,1464,0.088,-12.662,-1.95,-0.36,-9.58,2.2,-11.5,125.25,7.854119999999995
2023-03-23 22-28-33-134032,0,0,1536,1464,0.088,-12.662,-1.92,-0.42,-9.56,2.22,-11.45,125.17,7.774119999999996
2023-03-23 22-28-33-148060,0,0,1536,1464,0.088,-12.662,-1.89,-0.4,-9.61,2.24,-11.4,125.1,7.704119999999989
2023-03-23 22-28-33-163721,0,0,1536,1464,0.176,-12.662,-1.89,-0.37,-9.59,2.26,-11.36,125.03,7.634119999999996
2023-03-23 22-28-33-181329,0,0,1536,1464,0.088,-12.662,-1.89,-0.37,-9.57,2.28,-11.32,124.95,7.5541199999999975
2023-03-23 22-28-33-196117,0,0,1535,1465,0.088,-12.662,-1.89,-0.39,-9.6,2.3,-11.28,124.88,7.48411999999999
2023-03-23 22-28-33-212682,0,0,1535,1465,0.088,-12.662,-1.9,-0.42,-9.6,2.31,-11.24,124.81,7.414119999999997
2023-03-23 22-28-33-228100,0,0,1535,1465,0.088,-12.662,-1.88,-0.36,-9.6,2.33,-11.21,124.74,7.3441199999999895
2023-03-23 22-28-33-244727,0,0,1535,1465,0.088,-12.662,-1.88,-0.41,-9.63,2.35,-11.19,124.66,7.264119999999991
2023-03-23 22-28-33-259855,0,0,1535,1465,0.088,-12.662,-1.85,-0.44,-9.58,2.37,-11.17,124.59,7.194119999999998
2023-03-23 22-28-33-276315,0,0,1535,1465,0.088,-12.662,-1.91,-0.37,-9.64,2.39,-11.15,124.51,7.11412
2023-03-23 22-28-33-292199,0,0,1535,1465,0.088,-12.662,-1.85,-0.4,-9.63,2.4,-11.13,124.43,7.0341200000000015
2023-03-23 22-28-33-309353,0,0,1535,1465,0.088,-12.662,-1.82,-0.43,-9.62,2.42,-11.11,124.36,6.964119999999994
2023-03-23 22-28-33-324173,0,0,1535,1465,0.088,-12.662,-1.88,-0.44,-9.61,2.44,-11.09,124.28,6.884119999999996
2023-03-23 22-28-33-341952,0,0,1535,1465,0.088,-12.662,-1.88,-0.42,-9.6,2.45,-11.08,124.2,6.8041199999999975
2023-03-23 22-28-33-355806,0,0,1535,1465,0.088,-12.662,-1.84,-0.44,-9.59,2.47,-11.06,124.13,6.73411999999999
2023-03-23 22-28-33-372518,0,0,1535,1465,0.088,-12.662,-1.82,-0.43,-9.61,2.48,-11.05,124.05,6.654119999999992
2023-03-23 22-28-33-390112,0,0,1535,1465,0.088,-12.662,-1.9,-0.45,-9.63,2.5,-11.03,123.98,6.584119999999999
2023-03-23 22-28-33-419491,0,0,1535,1465,0.088,-12.662,-1.87,-0.41,-9.6,2.51,-11.02,123.9,6.50412
2023-03-23 22-28-33-436974,0,0,1535,1465,0.088,-12.662,-1.82,-0.47,-9.62,2.53,-11.01,123.82,6.424119999999988
2023-03-23 22-28-33-453870,0,0,1535,1465,0.088,-12.662,-1.86,-0.45,-9.6,2.54,-10.99,123.74,6.3441199999999895
2023-03-23 22-28-33-467975,0,0,1535,1465,0.088,-12.662,-1.9,-0.42,-9.64,2.56,-10.98,123.66,6.264119999999991
2023-03-23 22-28-33-484548,0,0,1534,1466,0.088,-12.662,-1.84,-0.46,-9.62,2.57,-10.97,123.59,6.194119999999998
2023-03-23 22-28-33-499739,0,0,1534,1466,0.088,-12.662,-1.84,-0.48,-9.65,2.58,-10.96,123.51,6.11412
2023-03-23 22-28-33-517300,0,0,1534,1466,0.088,-12.662,-1.87,-0.43,-9.66,2.59,-10.96,123.44,6.044119999999992
2023-03-23 22-28-33-531918,0,0,1534,1466,0.088,-12.662,-1.86,-0.44,-9.62,2.6,-10.96,123.37,5.974119999999999
2023-03-23 22-28-33-548869,0,0,1534,1466,0.088,-12.662,-1.8,-0.49,-9.62,2.61,-10.95,123.29,5.894120000000001
