Timestamp_log,left_angle,right_angle,left_thrust,right_thrust,read_left_angle,read_right_angle,accel_x,accel_y,accel_z,roll,pitch,yaw,e_alpha
2023-03-23 22-00-31-988334,0,0,1560,1440,0.088,0.176,0.24,0.21,-9.77,-1.26,1.29,140.4,45.00030000000001
2023-03-23 22-00-32-007200,0,0,1560,1440,0.088,0.176,0.23,0.22,-9.78,-1.26,1.3,140.39,44.99029999999999
2023-03-23 22-00-32-021879,0,0,1560,1440,0.088,0.176,0.24,0.21,-9.77,-1.26,1.3,140.4,45.00030000000001
2023-03-23 22-00-32-038390,0,0,1560,1440,0.088,0.176,0.24,0.21,-9.76,-1.26,1.31,140.4,45.00030000000001
2023-03-23 22-00-32-053122,0,0,1560,1440,0.088,0.176,0.24,0.21,-9.77,-1.26,1.31,140.4,45.00030000000001
2023-03-23 22-00-32-069754,0,0,1560,1440,0.088,0.176,0.23,0.21,-9.77,-1.26,1.32,140.4,45.00030000000001
2023-03-23 22-00-32-103204,0,0,1560,1440,0.088,0.176,0.25,0.22,-9.75,-1.25,1.32,140.4,45.00030000000001
2023-03-23 22-00-32-119998,0,0,1560,1440,0.088,0.176,0.24,0.21,-9.77,-1.25,1.33,140.4,45.00030000000001
2023-03-23 22-00-32-150456,0,0,1560,1440,0.088,0.176,0.23,0.21,-9.76,-1.25,1.34,140.4,45.00030000000001
2023-03-23 22-00-32-188326,0,0,1560,1440,0.088,0.176,0.25,0.22,-9.77,-1.25,1.35,140.4,45.00030000000001
2023-03-23 22-00-32-217709,0,0,1560,1440,0.088,0.176,0.26,0.21,-9.78,-1.24,1.35,140.4,45.00030000000001
2023-03-23 22-00-32-249249,0,0,1560,1440,0.088,0.176,0.25,0.22,-9.77,-1.24,1.36,140.4,45.00030000000001
2023-03-23 22-00-32-280184,0,0,1560,1440,0.088,0.176,0.23,0.19,-9.75,-1.23,1.37,140.4,45.00030000000001
2023-03-23 22-00-32-310797,0,0,1560,1440,0.088,0.176,0.17,0.2,-9.8,-1.23,1.37,140.4,45.00030000000001
2023-03-23 22-00-32-325836,0,0,1560,1440,0.088,0.176,0.38,0.2,-9.71,-1.23,1.37,140.4,45.00030000000001
2023-03-23 22-00-32-343090,0,0,1560,1440,0.088,0.176,0.34,0.19,-9.8,-1.23,1.38,140.4,45.00030000000001
2023-03-23 22-00-32-357650,0,0,1560,1440,0.088,0.176,0.04,0.23,-9.74,-1.22,1.38,140.4,45.00030000000001
2023-03-23 22-00-32-374794,0,0,1560,1440,0.088,0.176,-0.15,0.24,-9.67,-1.22,1.38,140.4,45.00030000000001
2023-03-23 22-00-32-389083,0,0,1560,1440,0.088,0.176,-0.33,0.22,-9.63,-1.23,1.38,140.4,45.00030000000001
2023-03-23 22-00-32-405815,0,0,1560,1440,0.088,0.176,-0.47,0.24,-9.54,-1.24,1.36,140.39,44.99029999999999
2023-03-23 22-00-32-423179,0,0,1560,1440,0.088,0.176,-0.51,0.22,-9.61,-1.26,1.34,140.39,44.99029999999999
2023-03-23 22-00-32-453322,0,0,1560,1440,0.088,0.176,-0.39,0.2,-9.6,-1.28,1.32,140.38,44.9803
2023-03-23 22-00-32-471128,0,0,1560,1440,0.088,0.176,-0.24,0.18,-9.64,-1.31,1.3,140.38,44.9803
2023-03-23 22-00-32-487587,0,0,1560,1440,0.088,0.176,-0.21,0.26,-9.63,-1.34,1.27,140.38,44.9803
2023-03-23 22-00-32-502430,0,0,1560,1440,0.088,0.176,-0.25,0.28,-9.68,-1.38,1.25,140.37,44.97030000000001
2023-03-23 22-00-32-517713,0,0,1560,1440,0.088,0.176,-0.21,0.22,-9.63,-1.42,1.21,140.37,44.97030000000001
2023-03-23 22-00-32-533642,0,0,1560,1440,0.088,0.176,-0.21,0.26,-9.66,-1.46,1.18,140.36,44.96030000000002
2023-03-23 22-00-32-549529,0,0,1560,1440,0.088,0.176,-0.24,0.29,-9.65,-1.51,1.15,140.36,44.96030000000002
2023-03-23 22-00-32-566254,0,0,1560,1440,0.088,0.176,-0.32,0.26,-9.61,-1.56,1.11,140.34,44.94030000000001
2023-03-23 22-00-32-582306,0,0,1560,1440,0.088,0.176,-0.31,0.27,-9.62,-1.62,1.08,140.32,44.9203
2023-03-23 22-00-32-596903,0,0,1560,1440,0.088,0.176,-0.3,0.3,-9.62,-1.69,1.04,140.3,44.900300000000016
2023-03-23 22-00-32-613448,0,0,1560,1440,0.088,0.176,-0.3,0.31,-9.64,-1.76,1.01,140.28,44.880300000000005
2023-03-23 22-00-32-629097,0,0,1560,1440,0.088,0.176,-0.26,0.29,-9.71,-1.83,0.97,140.26,44.860299999999995
2023-03-23 22-00-32-646468,0,0,1560,1440,0.088,0.176,-0.26,0.32,-9.66,-1.91,0.92,140.24,44.84030000000001
2023-03-23 22-00-32-660980,0,0,1560,1440,0.088,0.176,-0.23,0.35,-9.7,-1.99,0.88,140.22,44.8203
2023-03-23 22-00-32-677769,0,0,1560,1440,0.088,0.176,-0.23,0.3,-9.71,-2.07,0.83,140.19,44.7903
2023-03-23 22-00-32-692732,0,0,1560,1440,0.088,0.176,-0.2,0.36,-9.71,-2.16,0.78,140.16,44.7603
2023-03-23 22-00-32-709962,0,0,1560,1440,0.088,0.176,-0.17,0.39,-9.72,-2.25,0.74,140.14,44.74029999999999
2023-03-23 22-00-32-728044,0,0,1560,1440,0.088,0.176,-0.18,0.42,-9.68,-2.34,0.7,140.11,44.71030000000002
2023-03-23 22-00-32-759381,0,0,1560,1440,0.088,0.176,-0.18,0.44,-9.66,-2.43,0.65,140.08,44.68030000000002
2023-03-23 22-00-32-789261,0,0,1560,1440,0.088,0.176,-0.17,0.45,-9.68,-2.53,0.61,140.05,44.650300000000016
2023-03-23 22-00-32-807327,0,0,1560,1440,0.088,0.176,-0.15,0.43,-9.72,-2.62,0.56,140.02,44.620300000000015
2023-03-23 22-00-32-824933,0,0,1560,1440,0.088,0.176,-0.15,0.44,-9.73,-2.72,0.52,139.99,44.59030000000001
2023-03-23 22-00-32-853334,0,0,1560,1440,0.088,0.176,-0.16,0.5,-9.77,-2.82,0.48,139.97,44.5703
2023-03-23 22-00-32-869215,0,0,1560,1440,0.088,0.176,-0.17,0.52,-9.7,-2.92,0.43,139.94,44.5403
2023-03-23 22-00-32-886206,0,0,1560,1440,0.088,0.176,-0.17,0.54,-9.71,-3.02,0.39,139.92,44.52029999999999
2023-03-23 22-00-32-904308,0,0,1560,1440,0.088,0.176,-0.18,0.56,-9.66,-3.13,0.34,139.89,44.49029999999999
2023-03-23 22-00-32-933613,0,0,1560,1440,0.088,0.176,-0.17,0.56,-9.73,-3.23,0.3,139.87,44.47030000000001
2023-03-23 22-00-32-950531,0,0,1560,1440,0.088,0.176,-0.15,0.6,-9.68,-3.35,0.26,139.84,44.44030000000001
2023-03-23 22-00-32-978667,0,0,1560,1440,0.088,0.176,-0.14,0.58,-9.7,-3.47,0.22,139.81,44.41030000000001
2023-03-23 22-00-32-998692,0,0,1560,1440,0.088,0.176,-0.16,0.62,-9.72,-3.58,0.18,139.78,44.380300000000005
2023-03-23 22-00-33-013741,0,0,1560,1440,0.088,0.176,-0.17,0.6,-9.64,-3.7,0.15,139.74,44.34030000000001
2023-03-23 22-00-33-029685,0,0,1560,1440,0.088,0.176,-0.19,0.64,-9.66,-3.82,0.11,139.71,44.31030000000001
2023-03-23 22-00-33-046587,0,0,1560,1440,0.088,0.176,-0.18,0.68,-9.68,-3.94,0.08,139.68,44.28030000000001
2023-03-23 22-00-33-062104,0,0,1560,1440,0.088,0.176,-0.13,0.68,-9.68,-4.05,0.05,139.64,44.24029999999999
2023-03-23 22-00-33-078505,0,0,1560,1440,0.088,0.176,-0.14,0.71,-9.69,-4.17,0.02,139.61,44.21030000000002
2023-03-23 22-00-33-092926,0,0,1560,1440,0.088,0.176,-0.11,0.76,-9.74,-4.3,-0.01,139.57,44.1703
2023-03-23 22-00-33-109794,0,0,1560,1440,0.088,0.176,-0.12,0.76,-9.68,-4.42,-0.03,139.54,44.140299999999996
2023-03-23 22-00-33-130908,0,0,1560,1440,0.0,0.176,-0.13,0.8,-9.69,-4.54,-0.05,139.5,44.100300000000004
2023-03-23 22-00-33-157493,0,0,1560,1440,0.088,0.176,-0.13,0.82,-9.71,-4.67,-0.07,139.46,44.06030000000001
2023-03-23 22-00-33-173634,0,0,1560,1440,0.088,0.176,-0.14,0.82,-9.67,-4.79,-0.09,139.42,44.02029999999999
2023-03-23 22-00-33-189363,0,0,1560,1440,0.088,0.176,-0.16,0.84,-9.71,-4.91,-0.1,139.38,43.9803
2023-03-23 22-00-33-205855,0,0,1560,1440,0.088,0.176,-0.16,0.87,-9.76,-5.03,-0.12,139.34,43.94030000000001
2023-03-23 22-00-33-221361,0,0,1560,1440,0.088,0.176,-0.11,0.88,-9.74,-5.16,-0.13,139.3,43.900300000000016
2023-03-23 22-00-33-239176,0,0,1560,1440,0.088,0.176,-0.12,0.94,-9.73,-5.29,-0.14,139.27,43.870300000000015
2023-03-23 22-00-33-253642,0,0,1560,1440,0.088,0.176,-0.1,0.97,-9.69,-5.41,-0.15,139.23,43.830299999999994
2023-03-23 22-00-33-269777,0,0,1560,1440,0.088,0.176,-0.1,0.98,-9.68,-5.53,-0.16,139.19,43.7903
2023-03-23 22-00-33-286793,0,0,1560,1440,0.088,0.176,-0.08,0.99,-9.68,-5.66,-0.17,139.15,43.75030000000001
2023-03-23 22-00-33-301206,0,0,1560,1440,0.088,0.176,-0.06,1.03,-9.71,-5.79,-0.17,139.1,43.7003
2023-03-23 22-00-33-318485,0,0,1560,1440,0.088,0.176,-0.07,1.0,-9.71,-5.92,-0.18,139.05,43.650300000000016
2023-03-23 22-00-33-334597,0,0,1560,1440,0.088,0.176,-0.08,1.02,-9.69,-6.04,-0.19,139.01,43.610299999999995
2023-03-23 22-00-33-350740,0,0,1560,1440,0.088,0.176,-0.08,1.05,-9.7,-6.17,-0.19,138.97,43.5703
2023-03-23 22-00-33-365083,0,0,1560,1440,0.088,0.176,-0.08,1.05,-9.71,-6.3,-0.2,138.92,43.52029999999999
2023-03-23 22-00-33-382347,0,0,1560,1440,0.088,0.176,-0.07,1.06,-9.71,-6.42,-0.22,138.89,43.49029999999999
2023-03-23 22-00-33-397814,0,0,1560,1440,0.088,0.176,-0.07,1.13,-9.71,-6.55,-0.23,138.85,43.4503
2023-03-23 22-00-33-414472,0,0,1560,1440,0.088,0.176,-0.07,1.15,-9.72,-6.68,-0.25,138.81,43.41030000000001
2023-03-23 22-00-33-429101,0,0,1560,1440,0.088,0.176,-0.06,1.19,-9.71,-6.81,-0.27,138.78,43.380300000000005
2023-03-23 22-00-33-447016,0,0,1560,1440,0.088,0.176,-0.07,1.23,-9.7,-6.93,-0.29,138.74,43.34030000000001
2023-03-23 22-00-33-461452,0,0,1560,1440,0.088,0.176,-0.07,1.22,-9.71,-7.07,-0.31,138.7,43.30029999999999
2023-03-23 22-00-33-478029,0,0,1560,1440,0.088,0.176,-0.06,1.23,-9.73,-7.2,-0.33,138.67,43.27029999999999
2023-03-23 22-00-33-493505,0,0,1560,1440,0.088,0.176,-0.07,1.27,-9.69,-7.34,-0.36,138.63,43.2303
2023-03-23 22-00-33-510434,0,0,1560,1440,0.088,0.176,-0.08,1.31,-9.78,-7.47,-0.39,138.6,43.2003
2023-03-23 22-00-33-525391,0,0,1560,1440,0.088,0.176,-0.06,1.31,-9.69,-7.61,-0.42,138.57,43.1703
2023-03-23 22-00-33-542204,0,0,1560,1440,0.088,0.176,-0.07,1.35,-9.71,-7.74,-0.45,138.54,43.140299999999996
2023-03-23 22-00-33-557314,0,0,1560,1440,0.088,0.176,-0.07,1.39,-9.66,-7.88,-0.48,138.5,43.100300000000004
2023-03-23 22-00-33-573877,0,0,1560,1440,0.088,0.176,-0.06,1.41,-9.69,-8.02,-0.51,138.47,43.0703
2023-03-23 22-00-33-589229,0,0,1560,1440,0.088,0.176,-0.06,1.41,-9.66,-8.16,-0.53,138.44,43.0403
2023-03-23 22-00-33-606966,0,0,1560,1440,0.088,0.176,-0.05,1.43,-9.72,-8.29,-0.57,138.41,43.0103
2023-03-23 22-00-33-621441,0,0,1560,1440,0.088,0.176,-0.04,1.46,-9.74,-8.43,-0.6,138.38,42.9803
2023-03-23 22-00-33-638531,0,0,1560,1440,0.088,0.176,-0.06,1.45,-9.7,-8.57,-0.63,138.35,42.9503
2023-03-23 22-00-33-653193,0,0,1560,1440,0.088,0.176,-0.08,1.55,-9.71,-8.7,-0.66,138.32,42.9203
2023-03-23 22-00-33-669806,0,0,1560,1440,0.088,0.176,-0.08,1.55,-9.66,-8.85,-0.69,138.29,42.890299999999996
2023-03-23 22-00-33-685227,0,0,1560,1440,0.0,0.176,-0.09,1.56,-9.66,-8.98,-0.72,138.26,42.860299999999995
2023-03-23 22-00-33-701324,0,0,1560,1440,0.088,0.176,-0.1,1.61,-9.65,-9.12,-0.75,138.23,42.830299999999994
2023-03-23 22-00-33-718009,0,0,1560,1440,0.088,0.176,-0.06,1.58,-9.71,-9.26,-0.78,138.2,42.80029999999999
2023-03-23 22-00-33-733689,0,0,1560,1440,0.088,0.176,-0.06,1.63,-9.69,-9.4,-0.8,138.17,42.77029999999999
2023-03-23 22-00-33-749056,0,0,1560,1440,0.088,0.088,-0.06,1.64,-9.7,-9.54,-0.83,138.14,42.74029999999999
2023-03-23 22-00-33-765324,0,0,1560,1440,0.088,0.176,-0.08,1.64,-9.7,-9.68,-0.85,138.11,42.71030000000002
2023-03-23 22-00-33-782139,0,0,1560,1440,0.088,0.176,-0.1,1.67,-9.64,-9.82,-0.88,138.07,42.6703
2023-03-23 22-00-33-798090,0,0,1560,1440,0.0,0.176,-0.09,1.73,-9.65,-9.96,-0.9,138.03,42.630300000000005
2023-03-23 22-00-33-813458,0,0,1560,1440,0.088,0.176,-0.09,1.76,-9.69,-10.11,-0.93,138.0,42.600300000000004
2023-03-23 22-00-33-833622,0,0,1560,1440,0.088,0.176,-0.07,1.74,-9.66,-10.25,-0.94,137.97,42.5703
2023-03-23 22-00-33-861497,0,0,1560,1440,0.088,0.176,-0.08,1.77,-9.64,-10.4,-0.96,137.93,42.53030000000001
2023-03-23 22-00-33-878698,0,0,1560,1440,0.088,0.176,-0.07,1.82,-9.63,-10.54,-0.97,137.9,42.50030000000001
2023-03-23 22-00-33-893164,0,0,1560,1440,0.088,0.088,-0.09,1.83,-9.62,-10.68,-0.98,137.87,42.47030000000001
2023-03-23 22-00-33-915804,0,0,1560,1440,0.088,0.176,-0.06,1.88,-9.64,-10.82,-0.99,137.83,42.43030000000002
2023-03-23 22-00-33-943160,0,0,1560,1440,0.088,0.176,-0.03,1.89,-9.65,-10.96,-0.99,137.8,42.400300000000016
2023-03-23 22-00-33-957227,0,0,1560,1440,0.088,0.176,-0.03,1.91,-9.66,-11.1,-0.99,137.76,42.360299999999995
2023-03-23 22-00-33-973035,0,0,1560,1440,0.088,0.176,-0.02,1.91,-9.62,-11.24,-0.97,137.72,42.3203
2023-03-23 22-00-33-990255,0,0,1560,1440,0.088,0.176,-0.0,2.01,-9.61,-11.38,-0.95,137.68,42.28030000000001
2023-03-23 22-00-34-007287,0,0,1560,1440,0.088,0.176,-0.01,1.97,-9.6,-11.53,-0.93,137.64,42.24029999999999
2023-03-23 22-00-34-021488,0,0,1560,1440,0.088,0.176,-0.01,2.05,-9.57,-11.67,-0.89,137.6,42.2003
2023-03-23 22-00-34-037927,0,0,1560,1440,0.088,0.088,0.05,2.03,-9.59,-11.81,-0.84,137.56,42.16030000000001
2023-03-23 22-00-34-053218,0,0,1560,1440,0.088,0.176,0.1,2.08,-9.62,-11.95,-0.79,137.52,42.120300000000015
2023-03-23 22-00-34-070638,0,0,1560,1440,0.088,0.176,0.14,2.08,-9.62,-12.09,-0.73,137.47,42.0703
2023-03-23 22-00-34-085198,0,0,1560,1440,0.088,0.176,0.15,2.09,-9.58,-12.23,-0.66,137.42,42.02029999999999
2023-03-23 22-00-34-102878,0,0,1560,1440,0.088,0.176,0.18,2.12,-9.61,-12.37,-0.57,137.37,41.97030000000001
2023-03-23 22-00-34-117810,0,0,1560,1440,0.088,0.176,0.19,2.15,-9.56,-12.51,-0.47,137.31,41.91030000000001
2023-03-23 22-00-34-135138,0,0,1560,1440,0.088,0.176,0.24,2.18,-9.6,-12.65,-0.36,137.25,41.850300000000004
2023-03-23 22-00-34-150330,0,0,1560,1440,0.088,0.176,0.29,2.23,-9.64,-12.79,-0.24,137.18,41.78030000000001
2023-03-23 22-00-34-166874,0,0,1560,1440,0.088,0.176,0.37,2.2,-9.6,-12.93,-0.1,137.12,41.72030000000001
2023-03-23 22-00-34-181642,0,0,1560,1440,0.088,0.176,0.4,2.22,-9.6,-13.07,0.05,137.05,41.650300000000016
2023-03-23 22-00-34-198491,0,0,1560,1440,0.088,0.176,0.45,2.25,-9.64,-13.21,0.21,136.97,41.5703
2023-03-23 22-00-34-213826,0,0,1560,1440,0.088,0.176,0.52,2.27,-9.59,-13.35,0.38,136.89,41.49029999999999
2023-03-23 22-00-34-231009,0,0,1560,1440,0.088,0.176,0.58,2.29,-9.64,-13.5,0.57,136.8,41.400300000000016
2023-03-23 22-00-34-245221,0,0,1560,1440,0.088,0.176,0.65,2.35,-9.66,-13.64,0.77,136.71,41.31030000000001
2023-03-23 22-00-34-262671,0,0,1560,1440,0.088,0.176,0.75,2.34,-9.67,-13.79,0.98,136.61,41.21030000000002
2023-03-23 22-00-34-279330,0,0,1560,1440,0.088,0.176,0.85,2.34,-9.66,-13.94,1.21,136.5,41.100300000000004
2023-03-23 22-00-34-295027,0,0,1560,1440,0.088,0.176,0.9,2.37,-9.68,-14.09,1.45,136.38,40.9803
2023-03-23 22-00-34-309846,0,0,1560,1440,0.088,0.176,0.96,2.41,-9.67,-14.24,1.71,136.26,40.860299999999995
2023-03-23 22-00-34-326244,0,0,1560,1440,0.088,0.176,1.04,2.43,-9.69,-14.39,1.99,136.14,40.74029999999999
2023-03-23 22-00-34-342817,0,0,1560,1440,0.088,0.176,1.15,2.47,-9.68,-14.54,2.29,135.99,40.59030000000001
2023-03-23 22-00-34-359279,0,0,1560,1440,0.088,0.176,1.19,2.47,-9.64,-14.7,2.59,135.84,40.44030000000001
2023-03-23 22-00-34-373690,0,0,1560,1440,0.088,0.176,1.26,2.5,-9.68,-14.86,2.9,135.69,40.2903
2023-03-23 22-00-34-389149,0,0,1560,1440,0.088,0.176,1.34,2.53,-9.69,-15.03,3.23,135.52,40.120300000000015
2023-03-23 22-00-34-406522,0,0,1560,1440,0.088,0.176,1.43,2.52,-9.7,-15.2,3.56,135.35,39.9503
2023-03-23 22-00-34-422826,0,0,1560,1440,0.088,0.176,1.48,2.51,-9.69,-15.38,3.89,135.17,39.77029999999999
2023-03-23 22-00-34-448258,0,0,1560,1440,0.088,0.176,1.55,2.64,-9.7,-15.55,4.23,135.0,39.600300000000004
2023-03-23 22-00-34-469426,0,0,1560,1440,0.088,0.176,1.61,2.61,-9.67,-15.73,4.57,134.82,39.4203
2023-03-23 22-00-34-487325,0,0,1560,1440,0.088,0.176,1.68,2.66,-9.66,-15.91,4.92,134.64,39.24029999999999
2023-03-23 22-00-34-503137,0,0,1560,1440,0.088,0.176,1.7,2.72,-9.62,-16.1,5.27,134.44,39.0403
2023-03-23 22-00-34-520856,0,0,1560,1440,0.088,0.176,1.69,2.72,-9.63,-16.29,5.6,134.25,38.850300000000004
2023-03-23 22-00-34-550770,0,0,1560,1440,0.088,0.176,1.66,2.76,-9.61,-16.48,5.93,134.04,38.640299999999996
2023-03-23 22-00-34-565670,0,0,1560,1440,0.088,0.176,1.63,2.83,-9.56,-16.68,6.24,133.84,38.44030000000001
2023-03-23 22-00-34-595296,0,0,1560,1440,0.088,0.176,1.59,2.84,-9.5,-16.89,6.54,133.64,38.24029999999999
2023-03-23 22-00-34-629240,0,0,1560,1440,0.088,0.176,1.5,2.89,-9.46,-17.09,6.81,133.44,38.0403
2023-03-23 22-00-34-645368,0,0,1560,1440,0.088,0.176,1.46,2.94,-9.37,-17.3,7.06,133.25,37.850300000000004
2023-03-23 22-00-34-662164,0,0,1560,1440,0.088,0.176,1.42,2.96,-9.45,-17.5,7.28,133.07,37.6703
2023-03-23 22-00-34-678569,0,0,1560,1440,0.088,0.176,1.39,2.98,-9.35,-17.71,7.47,132.9,37.50030000000001
2023-03-23 22-00-34-693317,0,0,1560,1440,0.088,0.176,1.37,3.02,-9.32,-17.92,7.64,132.73,37.330299999999994
2023-03-23 22-00-34-710474,0,0,1560,1440,0.088,0.176,1.37,3.07,-9.27,-18.12,7.78,132.58,37.18030000000002
2023-03-23 22-00-34-726528,0,0,1560,1440,0.088,0.176,1.37,3.1,-9.28,-18.33,7.89,132.43,37.03030000000001
2023-03-23 22-00-34-742378,0,0,1560,1440,0.088,0.176,1.39,3.14,-9.29,-18.54,7.97,132.3,36.900300000000016
2023-03-23 22-00-34-758000,0,0,1560,1440,0.088,0.176,1.38,3.16,-9.23,-18.74,8.03,132.17,36.77029999999999
2023-03-23 22-00-34-774201,0,0,1560,1440,0.088,0.176,1.37,3.17,-9.23,-18.95,8.07,132.05,36.650300000000016
2023-03-23 22-00-34-789298,0,0,1560,1440,0.088,0.176,1.35,3.2,-9.17,-19.15,8.09,131.94,36.5403
2023-03-23 22-00-34-806696,0,0,1560,1440,0.088,0.176,1.33,3.26,-9.15,-19.35,8.09,131.84,36.44030000000001
2023-03-23 22-00-34-822361,0,0,1560,1440,0.088,0.176,1.31,3.28,-9.18,-19.55,8.07,131.75,36.350300000000004
2023-03-23 22-00-34-838248,0,0,1560,1440,0.088,0.176,1.32,3.29,-9.1,-19.74,8.03,131.67,36.27029999999999
2023-03-23 22-00-34-854385,0,0,1560,1440,0.088,0.176,1.3,3.32,-9.13,-19.93,7.97,131.59,36.19030000000001
2023-03-23 22-00-34-869272,0,0,1560,1440,0.088,0.176,1.3,3.41,-9.07,-20.12,7.9,131.53,36.130300000000005
2023-03-23 22-00-34-886546,0,0,1560,1440,0.088,0.176,1.28,3.42,-9.06,-20.32,7.81,131.47,36.0703
2023-03-23 22-00-34-903247,0,0,1560,1440,0.088,0.176,1.28,3.48,-9.08,-20.51,7.71,131.42,36.02029999999999
2023-03-23 22-00-34-919518,0,0,1560,1440,0.088,0.176,1.27,3.55,-9.1,-20.7,7.6,131.37,35.97030000000001
2023-03-23 22-00-34-933361,0,0,1560,1440,0.088,0.176,1.25,3.52,-9.06,-20.89,7.47,131.33,35.93030000000002
2023-03-23 22-00-34-963546,0,0,1560,1440,0.088,0.176,1.24,3.59,-9.07,-21.08,7.32,131.29,35.890299999999996
2023-03-23 22-00-34-981599,0,0,1560,1440,0.0,0.176,1.21,3.65,-9.09,-21.27,7.16,131.26,35.860299999999995
2023-03-23 22-00-34-997473,0,0,1560,1440,0.088,0.176,1.19,3.63,-9.03,-21.45,6.99,131.24,35.84030000000001
2023-03-23 22-00-35-014613,0,0,1560,1440,0.088,0.176,1.17,3.7,-9.07,-21.64,6.81,131.22,35.8203
2023-03-23 22-00-35-030579,0,0,1560,1440,0.0,0.176,1.13,3.78,-9.04,-21.84,6.61,131.2,35.80029999999999
2023-03-23 22-00-35-047441,0,0,1560,1440,0.088,0.176,1.17,3.79,-9.06,-22.03,6.4,131.17,35.77029999999999
2023-03-23 22-00-35-061562,0,0,1560,1440,0.088,0.176,1.12,3.84,-9.05,-22.22,6.17,131.15,35.75030000000001
2023-03-23 22-00-35-077848,0,0,1560,1440,0.088,0.176,1.09,3.88,-9.02,-22.42,5.94,131.13,35.7303
2023-03-23 22-00-35-093999,0,0,1560,1440,0.088,0.176,1.04,3.9,-9.0,-22.62,5.69,131.11,35.71030000000002
2023-03-23 22-00-35-109473,0,0,1560,1440,0.088,0.176,0.99,3.91,-9.0,-22.82,5.42,131.09,35.69030000000001
2023-03-23 22-00-35-126428,0,0,1560,1440,0.088,0.176,0.95,3.97,-8.98,-23.02,5.15,131.07,35.6703
2023-03-23 22-00-35-142113,0,0,1560,1440,0.088,0.176,0.92,3.99,-8.99,-23.22,4.87,131.04,35.640299999999996
2023-03-23 22-00-35-157973,0,0,1560,1440,0.088,0.176,0.87,4.05,-8.96,-23.42,4.57,131.02,35.620300000000015
2023-03-23 22-00-35-173800,0,0,1560,1440,0.088,0.176,0.83,4.09,-8.96,-23.62,4.27,131.0,35.600300000000004
2023-03-23 22-00-35-191749,0,0,1560,1440,0.088,0.176,0.79,4.08,-8.95,-23.82,3.97,130.98,35.580299999999994
2023-03-23 22-00-35-206125,0,0,1560,1440,0.088,0.176,0.71,4.14,-8.88,-24.02,3.65,130.95,35.55029999999999
2023-03-23 22-00-35-221529,0,0,1560,1440,0.088,0.176,0.66,4.17,-8.87,-24.23,3.34,130.93,35.53030000000001
2023-03-23 22-00-35-239272,0,0,1560,1440,0.088,0.176,0.59,4.16,-8.9,-24.43,3.02,130.9,35.50030000000001
2023-03-23 22-00-35-253582,0,0,1560,1440,0.088,0.176,0.53,4.2,-8.88,-24.63,2.69,130.87,35.47030000000001
2023-03-23 22-00-35-270957,0,0,1560,1440,0.088,0.176,0.47,4.25,-8.85,-24.83,2.36,130.84,35.44030000000001
2023-03-23 22-00-35-288188,0,0,1560,1440,0.088,0.176,0.42,4.24,-8.85,-25.03,2.03,130.81,35.41030000000001
2023-03-23 22-00-35-314561,0,0,1560,1440,0.088,0.176,0.37,4.34,-8.77,-25.23,1.7,130.77,35.370300000000015
2023-03-23 22-00-35-333700,0,0,1560,1440,0.088,0.176,0.28,4.32,-8.75,-25.42,1.35,130.73,35.330299999999994
2023-03-23 22-00-35-351311,0,0,1560,1440,0.088,0.176,0.25,4.36,-8.78,-25.62,1.02,130.69,35.2903
2023-03-23 22-00-35-366850,0,0,1560,1440,0.088,0.176,0.19,4.41,-8.77,-25.81,0.68,130.65,35.25030000000001
2023-03-23 22-00-35-384240,0,0,1560,1440,0.088,0.176,0.13,4.39,-8.76,-26.0,0.34,130.6,35.2003
2023-03-23 22-00-35-414005,0,0,1560,1440,0.088,0.176,0.1,4.44,-8.76,-26.18,-0.0,130.56,35.16030000000001
2023-03-23 22-00-35-432252,0,0,1560,1440,0.088,0.176,0.04,4.44,-8.7,-26.36,-0.34,130.5,35.100300000000004
2023-03-23 22-00-35-446080,0,0,1560,1440,0.088,0.176,-0.03,4.48,-8.64,-26.54,-0.67,130.44,35.0403
2023-03-23 22-00-35-461634,0,0,1560,1440,0.088,0.176,-0.08,4.53,-8.65,-26.71,-1.01,130.37,34.97030000000001
2023-03-23 22-00-35-479322,0,0,1560,1440,0.0,0.176,-0.18,4.57,-8.59,-26.88,-1.34,130.29,34.890299999999996
2023-03-23 22-00-35-494378,0,0,1560,1440,0.088,0.176,-0.22,4.6,-8.59,-27.04,-1.67,130.21,34.81030000000001
2023-03-23 22-00-35-509643,0,0,1560,1440,0.088,0.176,-0.23,4.6,-8.61,-27.21,-1.99,130.12,34.72030000000001
2023-03-23 22-00-35-525975,0,0,1560,1440,0.088,0.176,-0.28,4.61,-8.56,-27.36,-2.31,130.03,34.630300000000005
2023-03-23 22-00-35-541724,0,0,1560,1440,0.088,0.176,-0.31,4.62,-8.57,-27.5,-2.61,129.92,34.52029999999999
2023-03-23 22-00-35-562298,0,0,1560,1440,0.088,0.176,-0.42,4.61,-8.55,-27.64,-2.91,129.8,34.400300000000016
2023-03-23 22-00-35-589588,0,0,1560,1440,0.088,0.176,-0.48,4.63,-8.49,-27.77,-3.21,129.67,34.27029999999999
2023-03-23 22-00-35-606069,0,0,1560,1440,0.088,0.176,-0.51,4.67,-8.51,-27.9,-3.49,129.53,34.130300000000005
2023-03-23 22-00-35-625548,0,0,1560,1440,0.088,0.176,-0.6,4.65,-8.46,-28.02,-3.76,129.38,33.9803
2023-03-23 22-00-35-653550,0,0,1560,1440,0.088,0.176,-0.62,4.71,-8.43,-28.13,-4.03,129.21,33.81030000000001
2023-03-23 22-00-35-670091,0,0,1560,1440,0.088,0.176,-0.66,4.69,-8.41,-28.24,-4.28,129.03,33.630300000000005
2023-03-23 22-00-35-686758,0,0,1560,1440,0.088,0.176,-0.73,4.74,-8.38,-28.35,-4.51,128.83,33.43030000000002
2023-03-23 22-00-35-701517,0,0,1560,1440,0.088,0.176,-0.73,4.72,-8.36,-28.44,-4.74,128.63,33.2303
2023-03-23 22-00-35-717872,0,0,1560,1440,0.088,0.176,-0.73,4.71,-8.41,-28.53,-4.95,128.4,33.00030000000001
2023-03-23 22-00-35-734946,0,0,1560,1440,0.088,0.176,-0.8,4.7,-8.36,-28.61,-5.15,128.17,32.77029999999999
2023-03-23 22-00-35-752847,0,0,1560,1440,0.088,0.176,-0.8,4.71,-8.34,-28.69,-5.35,127.92,32.520300000000006
2023-03-23 22-00-35-781554,0,0,1560,1440,0.088,0.176,-0.85,4.73,-8.31,-28.75,-5.52,127.66,32.2603
2023-03-23 22-00-35-799254,0,0,1560,1440,0.088,0.176,-0.88,4.76,-8.26,-28.81,-5.68,127.38,31.9803
2023-03-23 22-00-35-815659,0,0,1560,1440,0.088,0.176,-0.93,4.77,-8.3,-28.86,-5.83,127.08,31.680300000000003
2023-03-23 22-00-35-830348,0,0,1560,1440,0.088,0.176,-0.97,4.75,-8.33,-28.9,-5.97,126.77,31.3703
2023-03-23 22-00-35-845774,0,0,1560,1440,0.088,0.176,-0.99,4.71,-8.33,-28.94,-6.09,126.44,31.040300000000002
2023-03-23 22-00-35-862035,0,0,1560,1440,0.088,0.176,-0.92,4.74,-8.35,-28.97,-6.2,126.1,30.7003
2023-03-23 22-00-35-879347,0,0,1560,1440,0.088,0.176,-0.9,4.72,-8.35,-28.99,-6.31,125.75,30.350300000000004
2023-03-23 22-00-35-897005,0,0,1559,1441,0.088,0.176,-0.96,4.72,-8.32,-29.0,-6.4,125.38,29.9803
2023-03-23 22-00-35-925691,0,0,1559,1441,0.088,0.176,-1.0,4.77,-8.33,-29.01,-6.47,124.98,29.58030000000001
2023-03-23 22-00-35-942504,0,0,1559,1441,0.088,0.176,-1.04,4.75,-8.3,-29.01,-6.54,124.58,29.180300000000003
2023-03-23 22-00-35-960080,0,0,1558,1442,0.088,0.176,-1.06,4.74,-8.29,-29.0,-6.6,124.15,28.75030000000001
2023-03-23 22-00-35-973679,0,0,1558,1442,0.088,0.176,-1.06,4.73,-8.28,-28.98,-6.64,123.72,28.320300000000003
2023-03-23 22-00-35-989797,0,0,1557,1443,0.0,0.176,-1.06,4.65,-8.33,-28.96,-6.68,123.26,27.86030000000001
2023-03-23 22-00-36-007702,0,0,1557,1443,0.088,0.176,-1.05,4.69,-8.36,-28.92,-6.71,122.8,27.4003
2023-03-23 22-00-36-023398,0,0,1556,1444,0.088,0.176,-1.05,4.69,-8.33,-28.88,-6.72,122.32,26.920299999999997
2023-03-23 22-00-36-037893,0,0,1556,1444,0.088,0.088,-1.06,4.63,-8.32,-28.83,-6.74,121.83,26.430300000000003
2023-03-23 22-00-36-053714,0,0,1555,1445,0.088,0.176,-1.03,4.65,-8.31,-28.78,-6.74,121.34,25.940300000000008
2023-03-23 22-00-36-071058,0,0,1555,1445,0.088,0.176,-1.1,4.69,-8.31,-28.71,-6.73,120.82,25.420299999999997
2023-03-23 22-00-36-087467,0,0,1554,1446,0.088,0.176,-1.11,4.66,-8.31,-28.64,-6.72,120.31,24.910300000000007
2023-03-23 22-00-36-101642,0,0,1554,1446,0.088,0.176,-1.08,4.68,-8.34,-28.57,-6.71,119.79,24.39030000000001
2023-03-23 22-00-36-117993,0,0,1553,1447,0.088,0.176,-1.06,4.62,-8.33,-28.49,-6.69,119.25,23.850300000000004
2023-03-23 22-00-36-136019,0,0,1553,1447,0.088,0.176,-1.06,4.61,-8.37,-28.4,-6.66,118.71,23.310299999999998
2023-03-23 22-00-36-150710,0,0,1552,1448,0.088,0.176,-1.02,4.65,-8.37,-28.3,-6.62,118.16,22.7603
2023-03-23 22-00-36-166044,0,0,1552,1448,0.088,0.176,-1.1,4.57,-8.34,-28.2,-6.58,117.61,22.210300000000004
2023-03-23 22-00-36-183057,0,0,1551,1449,0.088,0.176,-1.11,4.55,-8.38,-28.09,-6.53,117.04,21.64030000000001
2023-03-23 22-00-36-198824,0,0,1551,1449,0.088,0.176,-1.09,4.57,-8.42,-27.97,-6.48,116.48,21.08030000000001
2023-03-23 22-00-36-214258,0,0,1550,1450,0.088,0.176,-1.09,4.5,-8.45,-27.85,-6.43,115.91,20.5103
2023-03-23 22-00-36-230381,0,0,1549,1451,0.088,0.176,-1.08,4.53,-8.49,-27.73,-6.37,115.34,19.940300000000008
2023-03-23 22-00-36-245756,0,0,1549,1451,0.088,0.176,-1.11,4.53,-8.47,-27.6,-6.31,114.77,19.3703
2023-03-23 22-00-36-262526,0,0,1548,1452,0.088,0.176,-1.15,4.49,-8.42,-27.46,-6.25,114.2,18.800300000000007
2023-03-23 22-00-36-278636,0,0,1548,1452,0.088,0.176,-1.12,4.5,-8.44,-27.31,-6.19,113.63,18.2303
2023-03-23 22-00-36-293681,0,0,1547,1453,0.088,0.176,-1.12,4.43,-8.48,-27.16,-6.12,113.06,17.660300000000007
2023-03-23 22-00-36-310455,0,0,1547,1453,0.088,0.176,-1.09,4.37,-8.54,-27.0,-6.05,112.5,17.100300000000004
2023-03-23 22-00-36-327246,0,0,1546,1454,-0.088,0.176,-1.05,4.46,-8.59,-26.84,-5.98,111.94,16.540300000000002
2023-03-23 22-00-36-341842,0,0,1545,1455,-0.088,0.176,-1.04,4.4,-8.54,-26.67,-5.91,111.38,15.9803
2023-03-23 22-00-36-358242,0,0,1545,1455,-0.088,0.176,-1.01,4.39,-8.55,-26.5,-5.83,110.83,15.430300000000003
2023-03-23 22-00-36-373687,0,0,1544,1456,-0.088,0.176,-1.0,4.41,-8.59,-26.34,-5.75,110.28,14.880300000000005
2023-03-23 22-00-36-391503,0,0,1544,1456,0.0,0.176,-1.02,4.34,-8.56,-26.17,-5.66,109.74,14.3403
2023-03-23 22-00-36-406018,0,0,1543,1457,-0.088,0.176,-0.98,4.3,-8.63,-25.99,-5.57,109.2,13.800300000000007
2023-03-23 22-00-36-438045,0,0,1543,1457,-0.088,0.176,-0.91,4.29,-8.7,-25.82,-5.47,108.67,13.270300000000006
2023-03-23 22-00-36-453813,0,0,1542,1458,-0.088,0.176,-0.92,4.23,-8.7,-25.64,-5.37,108.14,12.740300000000005
2023-03-23 22-00-36-470883,0,0,1542,1458,0.0,0.176,-0.93,4.27,-8.7,-25.46,-5.27,107.62,12.220300000000009
2023-03-23 22-00-36-502213,0,0,1541,1459,0.0,0.176,-0.88,4.26,-8.73,-25.28,-5.16,107.11,11.710300000000004
2023-03-23 22-00-36-527952,0,0,1541,1459,0.0,0.176,-0.86,4.15,-8.71,-25.1,-5.04,106.6,11.200299999999999
2023-03-23 22-00-36-558924,0,0,1540,1460,0.0,0.176,-0.87,4.22,-8.8,-24.92,-4.92,106.09,10.690300000000008
2023-03-23 22-00-36-589533,0,0,1540,1460,0.0,0.176,-0.86,4.2,-8.84,-24.74,-4.79,105.6,10.200299999999999
2023-03-23 22-00-36-616089,0,0,1539,1461,0.0,0.176,-0.87,4.12,-8.8,-24.56,-4.67,105.12,9.720300000000009
2023-03-23 22-00-36-646939,0,0,1539,1461,0.0,0.176,-0.83,4.18,-8.82,-24.39,-4.53,104.64,9.240300000000005
2023-03-23 22-00-36-662454,0,0,1538,1462,-0.088,0.176,-0.77,4.1,-8.8,-24.22,-4.39,104.17,8.770300000000006
2023-03-23 22-00-36-680354,0,0,1538,1462,0.0,0.176,-0.78,4.05,-8.82,-24.05,-4.25,103.7,8.300300000000007
2023-03-23 22-00-36-694294,0,0,1537,1463,0.0,0.176,-0.77,4.14,-8.86,-23.88,-4.1,103.23,7.830300000000008
2023-03-23 22-00-36-728466,0,0,1537,1463,0.0,0.176,-0.72,4.05,-8.84,-23.72,-3.95,102.78,7.380300000000005
2023-03-23 22-00-36-757709,0,0,1536,1464,0.0,0.176,-0.73,4.02,-8.82,-23.55,-3.8,102.33,6.930300000000003
2023-03-23 22-00-36-789806,0,0,1536,1464,0.0,0.176,-0.72,4.05,-8.86,-23.39,-3.64,101.89,6.490300000000005
2023-03-23 22-00-36-821910,0,0,1536,1464,-0.088,0.176,-0.7,3.96,-8.9,-23.24,-3.49,101.46,6.060299999999998
2023-03-23 22-00-36-837720,0,0,1535,1465,-0.088,0.176,-0.68,3.96,-8.9,-23.08,-3.33,101.04,5.6403000000000105
2023-03-23 22-00-36-869433,0,0,1535,1465,0.0,0.176,-0.59,3.91,-8.96,-22.93,-3.17,100.63,5.2303
2023-03-23 22-00-36-903538,0,0,1534,1466,-0.088,0.176,-0.54,3.88,-8.98,-22.79,-3.01,100.23,4.830300000000008
2023-03-23 22-00-36-922150,0,0,1534,1466,-0.088,0.176,-0.59,3.86,-8.97,-22.64,-2.86,99.84,4.440300000000008
2023-03-23 22-00-36-952591,0,0,1534,1466,0.0,0.176,-0.51,3.87,-9.02,-22.5,-2.7,99.46,4.060299999999998
2023-03-23 22-00-36-969001,0,0,1533,1467,0.0,0.176,-0.48,3.79,-9.0,-22.36,-2.54,99.09,3.6903000000000077
2023-03-23 22-00-36-999008,0,0,1533,1467,-0.088,0.176,-0.48,3.79,-8.98,-22.23,-2.39,98.72,3.320300000000003
2023-03-23 22-00-37-015717,0,0,1532,1468,0.0,0.176,-0.43,3.79,-9.01,-22.11,-2.23,98.37,2.970300000000009
2023-03-23 22-00-37-039902,0,0,1532,1468,-0.088,0.176,-0.41,3.78,-9.03,-21.98,-2.08,98.03,2.6303000000000054
2023-03-23 22-00-37-062719,0,0,1532,1468,0.0,0.176,-0.42,3.77,-9.03,-21.86,-1.92,97.69,2.290300000000002
2023-03-23 22-00-37-090846,0,0,1531,1469,0.0,0.176,-0.32,3.76,-9.07,-21.74,-1.77,97.36,1.9603000000000037
2023-03-23 22-00-37-111972,0,0,1531,1469,0.0,0.176,-0.3,3.72,-9.05,-21.63,-1.63,97.04,1.6403000000000105
2023-03-23 22-00-37-127303,0,0,1531,1469,0.0,0.176,-0.35,3.71,-9.03,-21.52,-1.49,96.73,1.3303000000000083
2023-03-23 22-00-37-145937,0,0,1531,1469,0.0,0.176,-0.25,3.71,-9.1,-21.41,-1.35,96.43,1.030300000000011
2023-03-23 22-00-37-177074,0,0,1530,1470,0.0,0.176,-0.22,3.64,-9.11,-21.31,-1.22,96.14,0.7403000000000048
