Timestamp_cmd,imu_cmd,roll_delta,pitch_delta,yaw_delta,voice_type,voice_length
2023-03-15 14:27:28:339,0,3.71105,-5.13526,-9.68962,Q,Q
2023-03-15 14:27:28:347,0,3.7173,-5.08978,-9.68094,Q,Q
2023-03-15 14:27:28:357,0,3.71874,-5.04668,-9.66166,Q,Q
2023-03-15 14:27:28:367,0,3.71458,-5.00643,-9.63692,Q,Q
2023-03-15 14:27:28:378,0,3.70847,-4.96591,-9.60532,Q,Q
2023-03-15 14:27:28:388,0,3.70027,-4.92678,-9.56342,Q,Q
2023-03-15 14:27:28:398,0,3.69263,-4.89276,-9.51645,Q,Q
2023-03-15 14:27:28:408,0,3.68551,-4.85761,-9.46811,Q,Q
2023-03-15 14:27:28:417,0,3.68272,-4.82495,-9.41631,Q,Q
2023-03-15 14:27:28:427,0,3.68029,-4.79233,-9.3616,Q,Q
2023-03-15 14:27:28:437,0,3.6791,-4.75651,-9.30409,Q,Q
2023-03-15 14:27:28:448,0,3.68089,-4.72643,-9.24486,Q,Q
2023-03-15 14:27:28:457,0,3.68217,-4.69838,-9.18091,Q,Q
2023-03-15 14:27:28:468,0,3.68715,-4.6733,-9.11998,Q,Q
2023-03-15 14:27:28:478,0,3.68716,-4.64646,-9.05774,Q,Q
2023-03-15 14:27:28:487,0,3.6948,-4.61867,-8.99202,Q,Q
2023-03-15 14:27:28:498,0,3.70914,-4.58852,-8.9257,Q,Q
2023-03-15 14:27:28:508,0,3.73122,-4.55783,-8.84921,Q,Q
2023-03-15 14:27:28:518,0,3.76503,-4.53458,-8.76506,Q,Q
2023-03-15 14:27:28:528,0,3.81248,-4.51539,-8.67056,Q,Q
2023-03-15 14:27:28:538,0,3.85496,-4.49456,-8.57361,Q,Q
2023-03-15 14:27:28:548,0,3.89825,-4.47799,-8.47047,Q,Q
2023-03-15 14:27:28:558,0,3.933,-4.45955,-8.36461,Q,Q
2023-03-15 14:27:28:568,0,3.96336,-4.44113,-8.25981,Q,Q
2023-03-15 14:27:28:578,0,3.9877,-4.42249,-8.15362,Q,Q
2023-03-15 14:27:28:588,0,4.00481,-4.40028,-8.04977,Q,Q
2023-03-15 14:27:28:598,0,4.01542,-4.37909,-7.95232,Q,Q
2023-03-15 14:27:28:607,0,4.02208,-4.35915,-7.85477,Q,Q
2023-03-15 14:27:28:618,0,4.02978,-4.34313,-7.76307,Q,Q
2023-03-15 14:27:28:628,0,4.04451,-4.32781,-7.67738,Q,Q
2023-03-15 14:27:28:638,0,4.06308,-4.32149,-7.59436,Q,Q
2023-03-15 14:27:28:648,0,4.08537,-4.31587,-7.51466,Q,Q
2023-03-15 14:27:28:658,0,4.10466,-4.31233,-7.4388,Q,Q
2023-03-15 14:27:28:668,0,4.12455,-4.30785,-7.36667,Q,Q
2023-03-15 14:27:28:677,0,4.14515,-4.2994,-7.29657,Q,Q
2023-03-15 14:27:28:688,0,4.16586,-4.28996,-7.23137,Q,Q
2023-03-15 14:27:28:698,0,4.18046,-4.27976,-7.16815,Q,Q
2023-03-15 14:27:28:708,0,4.19435,-4.27616,-7.11219,Q,Q
2023-03-15 14:27:28:717,0,4.20552,-4.2755,-7.06399,Q,Q
2023-03-15 14:27:28:728,0,4.21535,-4.28016,-7.02032,Q,Q
2023-03-15 14:27:28:738,0,4.225,-4.28134,-6.98444,Q,Q
2023-03-15 14:27:28:747,0,4.2315,-4.28011,-6.95386,Q,Q
2023-03-15 14:27:28:757,0,4.23976,-4.28048,-6.93141,Q,Q
2023-03-15 14:27:28:768,0,4.25074,-4.281,-6.9152,Q,Q
2023-03-15 14:27:28:778,0,4.26656,-4.28173,-6.90341,Q,Q
2023-03-15 14:27:28:788,0,4.27969,-4.28626,-6.89522,Q,Q
2023-03-15 14:27:28:798,0,4.29292,-4.29461,-6.89018,Q,Q
2023-03-15 14:27:28:808,0,4.30387,-4.30186,-6.89342,Q,Q
2023-03-15 14:27:28:818,0,4.30564,-4.30924,-6.90155,Q,Q
2023-03-15 14:27:28:827,0,4.3042,-4.31509,-6.91852,Q,Q
2023-03-15 14:27:28:838,0,4.30301,-4.3223,-6.93819,Q,Q
2023-03-15 14:27:28:848,0,4.29643,-4.32723,-6.96525,Q,Q
2023-03-15 14:27:28:857,0,4.28721,-4.32801,-6.99442,Q,Q
2023-03-15 14:27:28:868,0,4.28003,-4.32523,-7.02966,Q,Q
2023-03-15 14:27:28:878,0,4.26956,-4.32631,-7.0682,Q,Q
2023-03-15 14:27:28:888,0,4.26517,-4.33086,-7.10901,Q,Q
2023-03-15 14:27:28:898,0,4.25706,-4.33702,-7.15182,Q,Q
2023-03-15 14:27:28:908,0,4.24867,-4.34357,-7.20475,Q,Q
2023-03-15 14:27:28:918,0,4.24106,-4.35108,-7.25998,Q,Q
2023-03-15 14:27:28:927,0,4.23049,-4.36218,-7.32509,Q,Q
2023-03-15 14:27:28:937,0,4.22172,-4.37395,-7.39891,Q,Q
2023-03-15 14:27:28:947,0,4.21541,-4.39345,-7.4856,Q,Q
2023-03-15 14:27:28:957,0,4.20549,-4.41293,-7.58912,Q,Q
2023-03-15 14:27:28:967,0,4.199,-4.43418,-7.70953,Q,Q
2023-03-15 14:27:28:977,0,4.19882,-4.45735,-7.84032,Q,Q
2023-03-15 14:27:28:987,0,4.20989,-4.48405,-7.98527,Q,Q
2023-03-15 14:27:28:997,0,4.22094,-4.51332,-8.13773,Q,Q
2023-03-15 14:27:29:7,0,4.23767,-4.54414,-8.3055,Q,Q
2023-03-15 14:27:29:17,0,4.25755,-4.57633,-8.48452,Q,Q
2023-03-15 14:27:29:27,0,4.2886,-4.60877,-8.67009,Q,Q
2023-03-15 14:27:29:37,0,4.31806,-4.64267,-8.86471,Q,Q
2023-03-15 14:27:29:47,0,4.34627,-4.67901,-9.06283,Q,Q
2023-03-15 14:27:29:57,0,4.37369,-4.71845,-9.26871,Q,Q
2023-03-15 14:27:29:67,0,4.40878,-4.75107,-9.48331,Q,Q
2023-03-15 14:27:29:77,0,4.44713,-4.78351,-9.70294,Q,Q
2023-03-15 14:27:29:87,0,4.4841,-4.81511,-9.92634,Q,Q
2023-03-15 14:27:29:97,0,4.52045,-4.84175,-10.148,Q,Q
2023-03-15 14:27:29:107,0,4.5499,-4.87012,-10.3683,Q,Q
2023-03-15 14:27:29:117,0,4.57856,-4.88975,-10.5878,Q,Q
2023-03-15 14:27:29:127,0,4.60598,-4.91108,-10.806,Q,Q
2023-03-15 14:27:29:137,0,4.6305,-4.92754,-11.0107,Q,Q
2023-03-15 14:27:29:147,0,4.65128,-4.94477,-11.2079,Q,Q
2023-03-15 14:27:29:157,0,4.67299,-4.96355,-11.3943,Q,Q
2023-03-15 14:27:29:167,0,4.69424,-4.98182,-11.5727,Q,Q
2023-03-15 14:27:29:177,0,4.71885,-4.99905,-11.7391,Q,Q
2023-03-15 14:27:29:187,0,4.74159,-5.00947,-11.8918,Q,Q
2023-03-15 14:27:29:197,0,4.76335,-5.02033,-12.0359,Q,Q
2023-03-15 14:27:29:207,0,4.79237,-5.0256,-12.1688,Q,Q
2023-03-15 14:27:29:218,0,4.82745,-5.02326,-12.2919,Q,Q
2023-03-15 14:27:29:227,0,4.86632,-5.01542,-12.4022,Q,Q
2023-03-15 14:27:29:238,0,4.91408,-5.0042,-12.4999,Q,Q
2023-03-15 14:27:29:248,0,4.96868,-4.98632,-12.5929,Q,Q
2023-03-15 14:27:29:257,0,5.03795,-4.96654,-12.6803,Q,Q
2023-03-15 14:27:29:267,0,5.12895,-4.93785,-12.7641,Q,Q
2023-03-15 14:27:29:277,0,5.22465,-4.90627,-12.8383,Q,Q
2023-03-15 14:27:29:288,0,5.31997,-4.86943,-12.9038,Q,Q
2023-03-15 14:27:29:298,0,5.40995,-4.83573,-12.9634,Q,Q
2023-03-15 14:27:29:307,0,5.49733,-4.8047,-13.0192,Q,Q
2023-03-15 14:27:29:317,0,5.58541,-4.78882,-13.0758,Q,Q
2023-03-15 14:27:29:327,0,5.68188,-4.77365,-13.1346,Q,Q
2023-03-15 14:27:29:338,0,5.78661,-4.76554,-13.1918,Q,Q
2023-03-15 14:27:29:347,0,5.89175,-4.75922,-13.2537,Q,Q
2023-03-15 14:27:29:358,0,5.98815,-4.76091,-13.3196,Q,Q
2023-03-15 14:27:29:368,0,6.08314,-4.76364,-13.3937,Q,Q
2023-03-15 14:27:29:378,0,6.17438,-4.77205,-13.4823,Q,Q
2023-03-15 14:27:29:388,0,6.27393,-4.78392,-13.5813,Q,Q
2023-03-15 14:27:29:398,0,6.38151,-4.80211,-13.6911,Q,Q
2023-03-15 14:27:29:407,0,6.50547,-4.82532,-13.8078,Q,Q
2023-03-15 14:27:29:417,0,6.63099,-4.84572,-13.9296,Q,Q
2023-03-15 14:27:29:427,0,6.75698,-4.86708,-14.0592,Q,Q
2023-03-15 14:27:29:437,0,6.88685,-4.88828,-14.1977,Q,Q
2023-03-15 14:27:29:448,0,7.02209,-4.91349,-14.3378,Q,Q
2023-03-15 14:27:29:457,0,7.16399,-4.9365,-14.4875,Q,Q
2023-03-15 14:27:29:467,0,7.31455,-4.95434,-14.6479,Q,Q
2023-03-15 14:27:29:477,0,7.47069,-4.97162,-14.8143,Q,Q
2023-03-15 14:27:29:487,0,7.62542,-4.98996,-14.9889,Q,Q
2023-03-15 14:27:29:497,0,7.79144,-5.01054,-15.1778,Q,Q
2023-03-15 14:27:29:508,0,7.96808,-5.03364,-15.379,Q,Q
2023-03-15 14:27:29:517,0,8.16159,-5.05552,-15.5836,Q,Q
2023-03-15 14:27:29:527,0,8.35625,-5.07838,-15.7847,Q,Q
2023-03-15 14:27:29:537,0,8.53239,-5.10671,-15.9986,Q,Q
2023-03-15 14:27:29:547,0,8.70273,-5.13365,-16.2261,Q,Q
2023-03-15 14:27:29:557,0,8.8739,-5.16526,-16.4707,Q,Q
2023-03-15 14:27:29:567,0,9.04525,-5.19494,-16.7263,Q,Q
2023-03-15 14:27:29:577,0,9.20745,-5.22723,-16.9961,Q,Q
2023-03-15 14:27:29:587,0,9.36996,-5.25959,-17.2788,Q,Q
2023-03-15 14:27:29:597,0,9.52699,-5.29183,-17.5672,Q,Q
2023-03-15 14:27:29:607,0,9.67228,-5.32153,-17.8579,Q,Q
2023-03-15 14:27:29:617,0,9.80134,-5.3444,-18.1504,Q,Q
2023-03-15 14:27:29:627,0,9.91199,-5.36872,-18.4462,Q,Q
2023-03-15 14:27:29:637,0,10.0058,-5.39563,-18.747,Q,Q
2023-03-15 14:27:29:647,0,10.0899,-5.41812,-19.0516,Q,Q
2023-03-15 14:27:29:657,0,10.1618,-5.43151,-19.3512,Q,Q
2023-03-15 14:27:29:667,0,10.2243,-5.43781,-19.6396,Q,Q
2023-03-15 14:27:29:677,0,10.2627,-5.43771,-19.9177,Q,Q
2023-03-15 14:27:29:687,0,10.2797,-5.43559,-20.1871,Q,Q
2023-03-15 14:27:29:697,0,10.275,-5.4303,-20.4408,Q,Q
2023-03-15 14:27:29:707,0,10.2565,-5.42079,-20.6893,Q,Q
2023-03-15 14:27:29:717,0,10.2304,-5.40287,-20.929,Q,Q
2023-03-15 14:27:29:727,0,10.1979,-5.37456,-21.151,Q,Q
2023-03-15 14:27:29:737,0,10.1613,-5.33862,-21.3617,Q,Q
2023-03-15 14:27:29:747,0,10.1157,-5.2993,-21.5591,Q,Q
2023-03-15 14:27:29:757,0,10.0757,-5.261,-21.745,Q,Q
2023-03-15 14:27:29:767,0,10.0434,-5.22087,-21.9221,Q,Q
2023-03-15 14:27:29:777,0,10.0133,-5.18139,-22.094,Q,Q
2023-03-15 14:27:29:787,0,9.98664,-5.14343,-22.2525,Q,Q
2023-03-15 14:27:29:797,0,9.9675,-5.10937,-22.4014,Q,Q
2023-03-15 14:27:29:807,0,9.95833,-5.07305,-22.5441,Q,Q
2023-03-15 14:27:29:817,0,9.9625,-5.03362,-22.6779,Q,Q
2023-03-15 14:27:29:827,0,9.97342,-4.99496,-22.8021,Q,Q
2023-03-15 14:27:29:837,0,9.98061,-4.95502,-22.9239,Q,Q
2023-03-15 14:27:29:847,0,9.98243,-4.91588,-23.0411,Q,Q
2023-03-15 14:27:29:857,0,9.98169,-4.87678,-23.1491,Q,Q
2023-03-15 14:27:29:867,0,9.98201,-4.83994,-23.2504,Q,Q
2023-03-15 14:27:29:877,0,9.98901,-4.80503,-23.3514,Q,Q
2023-03-15 14:27:29:887,0,10.0092,-4.77048,-23.4458,Q,Q
2023-03-15 14:27:29:897,0,10.028,-4.73355,-23.5379,Q,Q
2023-03-15 14:27:29:907,0,10.0506,-4.69193,-23.6247,Q,Q
2023-03-15 14:27:29:917,0,10.0695,-4.64514,-23.7058,Q,Q
2023-03-15 14:27:29:927,0,10.0788,-4.59783,-23.7789,Q,Q
2023-03-15 14:27:29:937,0,10.0873,-4.55176,-23.8523,Q,Q
2023-03-15 14:27:29:947,0,10.094,-4.50933,-23.9234,Q,Q
2023-03-15 14:27:29:957,0,10.1081,-4.46436,-23.993,Q,Q
2023-03-15 14:27:29:967,0,10.1294,-4.4143,-24.0585,Q,Q
2023-03-15 14:27:29:977,0,10.1506,-4.36187,-24.1202,Q,Q
2023-03-15 14:27:29:987,0,10.1739,-4.31278,-24.1743,Q,Q
2023-03-15 14:27:29:997,0,10.1888,-4.2655,-24.2275,Q,Q
2023-03-15 14:27:30:7,0,10.2009,-4.22052,-24.2751,Q,Q
2023-03-15 14:27:30:18,0,10.2057,-4.17343,-24.3129,Q,Q
2023-03-15 14:27:30:27,0,10.2069,-4.12474,-24.3462,Q,Q
2023-03-15 14:27:30:37,0,10.2101,-4.07651,-24.3749,Q,Q
2023-03-15 14:27:30:47,0,10.213,-4.03085,-24.4028,Q,Q
2023-03-15 14:27:30:57,0,10.22,-3.99126,-24.4223,Q,Q
2023-03-15 14:27:30:67,0,10.2349,-3.95484,-24.436,Q,Q
2023-03-15 14:27:30:77,0,10.2476,-3.91768,-24.4421,Q,Q
2023-03-15 14:27:30:87,0,10.2589,-3.88369,-24.4411,Q,Q
2023-03-15 14:27:30:97,0,10.2645,-3.84692,-24.4399,Q,Q
2023-03-15 14:27:30:107,0,10.2619,-3.81373,-24.4331,Q,Q
2023-03-15 14:27:30:117,0,10.2518,-3.78142,-24.4189,Q,Q
2023-03-15 14:27:30:127,0,10.2379,-3.74908,-24.4019,Q,Q
2023-03-15 14:27:30:137,0,10.2202,-3.72082,-24.3837,Q,Q
2023-03-15 14:27:30:147,0,10.2042,-3.69208,-24.3649,Q,Q
2023-03-15 14:27:30:157,0,10.1932,-3.66155,-24.3426,Q,Q
2023-03-15 14:27:30:167,0,10.1897,-3.63625,-24.317,Q,Q
2023-03-15 14:27:30:177,0,10.1884,-3.61037,-24.2907,Q,Q
2023-03-15 14:27:30:187,0,10.1849,-3.58564,-24.2616,Q,Q
2023-03-15 14:27:30:197,0,10.1752,-3.56132,-24.2309,Q,Q
2023-03-15 14:27:30:207,0,10.1642,-3.53457,-24.1951,Q,Q
2023-03-15 14:27:30:217,0,10.1482,-3.50791,-24.1599,Q,Q
2023-03-15 14:27:30:227,0,10.1308,-3.48859,-24.1248,Q,Q
2023-03-15 14:27:30:237,0,10.1139,-3.47036,-24.0944,Q,Q
2023-03-15 14:27:30:247,0,10.0997,-3.45198,-24.0699,Q,Q
2023-03-15 14:27:30:257,0,10.0909,-3.43494,-24.0474,Q,Q
2023-03-15 14:27:30:267,0,10.0873,-3.42563,-24.031,Q,Q
2023-03-15 14:27:30:277,0,10.0842,-3.41423,-24.0132,Q,Q
2023-03-15 14:27:30:287,0,10.0816,-3.40547,-24.0,Q,Q
2023-03-15 14:27:30:297,0,10.0735,-3.39664,-23.9904,Q,Q
2023-03-15 14:27:30:307,0,10.0709,-3.38997,-23.9857,Q,Q
2023-03-15 14:27:30:317,0,10.0656,-3.39271,-23.9805,Q,Q
2023-03-15 14:27:30:327,0,10.0667,-3.39111,-23.9838,Q,Q
2023-03-15 14:27:30:337,0,10.0693,-3.38996,-23.9862,Q,Q
2023-03-15 14:27:30:347,0,10.0747,-3.38953,-23.9932,Q,Q
2023-03-15 14:27:30:357,0,10.0768,-3.3885,-24.0043,Q,Q
2023-03-15 14:27:30:367,0,10.077,-3.38454,-24.0151,Q,Q
2023-03-15 14:27:30:377,0,10.0735,-3.38305,-24.0274,Q,Q
2023-03-15 14:27:30:387,0,10.0674,-3.37983,-24.0402,Q,Q
2023-03-15 14:27:30:397,0,10.06,-3.37779,-24.0474,Q,Q
2023-03-15 14:27:30:407,0,10.0522,-3.37939,-24.0553,Q,Q
2023-03-15 14:27:30:418,0,10.0437,-3.38636,-24.0587,Q,Q
2023-03-15 14:27:30:427,0,10.0403,-3.395,-24.0607,Q,Q
2023-03-15 14:27:30:437,0,10.0343,-3.40614,-24.0602,Q,Q
2023-03-15 14:27:30:447,0,10.0252,-3.41704,-24.0601,Q,Q
2023-03-15 14:27:30:457,0,10.0198,-3.43064,-24.0573,Q,Q
2023-03-15 14:27:30:467,0,10.0143,-3.44996,-24.0437,Q,Q
2023-03-15 14:27:30:477,0,10.0181,-3.47913,-24.0232,Q,Q
2023-03-15 14:27:30:488,0,10.0188,-3.51268,-23.9944,Q,Q
2023-03-15 14:27:30:497,0,10.0141,-3.53868,-23.9656,Q,Q
2023-03-15 14:27:30:507,0,9.99943,-3.56095,-23.9324,Q,Q
2023-03-15 14:27:30:517,0,9.9737,-3.58029,-23.8958,Q,Q
2023-03-15 14:27:30:527,0,9.94845,-3.60113,-23.8578,Q,Q
2023-03-15 14:27:30:537,0,9.9185,-3.6145,-23.824,Q,Q
2023-03-15 14:27:30:547,0,9.8973,-3.61841,-23.7884,Q,Q
2023-03-15 14:27:30:557,0,9.88003,-3.62157,-23.7542,Q,Q
2023-03-15 14:27:30:567,0,9.8641,-3.62226,-23.715,Q,Q
2023-03-15 14:27:30:577,0,9.84485,-3.6213,-23.6714,Q,Q
2023-03-15 14:27:30:587,0,9.82749,-3.62152,-23.6294,Q,Q
2023-03-15 14:27:30:597,0,9.80648,-3.62157,-23.5876,Q,Q
2023-03-15 14:27:30:607,0,9.78698,-3.62401,-23.5509,Q,Q
2023-03-15 14:27:30:618,0,9.76495,-3.62825,-23.5143,Q,Q
2023-03-15 14:27:30:627,0,9.7398,-3.63866,-23.4821,Q,Q
2023-03-15 14:27:30:637,0,9.7099,-3.64542,-23.4477,Q,Q
2023-03-15 14:27:30:647,0,9.68811,-3.64754,-23.415,Q,Q
2023-03-15 14:27:30:657,0,9.65556,-3.64913,-23.3822,Q,Q
2023-03-15 14:27:30:667,0,9.62191,-3.64893,-23.3488,Q,Q
2023-03-15 14:27:30:677,0,9.58434,-3.65254,-23.3153,Q,Q
2023-03-15 14:27:30:687,0,9.55329,-3.65928,-23.2825,Q,Q
2023-03-15 14:27:30:697,0,9.53137,-3.66814,-23.2478,Q,Q
2023-03-15 14:27:30:707,0,9.51091,-3.67912,-23.2177,Q,Q
2023-03-15 14:27:30:718,0,9.48772,-3.68496,-23.1936,Q,Q
2023-03-15 14:27:30:727,0,9.46684,-3.68837,-23.173,Q,Q
2023-03-15 14:27:30:738,0,9.44954,-3.69301,-23.1495,Q,Q
2023-03-15 14:27:30:747,0,9.42783,-3.70697,-23.1249,Q,Q
2023-03-15 14:27:30:757,0,9.40985,-3.72384,-23.106,Q,Q
2023-03-15 14:27:30:767,0,9.38954,-3.74752,-23.095,Q,Q
2023-03-15 14:27:30:777,0,9.3875,-3.77175,-23.1,Q,Q
2023-03-15 14:27:30:787,0,9.40789,-3.7981,-23.1188,Q,Q
2023-03-15 14:27:30:797,0,9.44311,-3.82027,-23.1512,Q,Q
2023-03-15 14:27:30:807,0,9.48473,-3.83902,-23.19,Q,Q
2023-03-15 14:27:30:817,0,9.51626,-3.85744,-23.2362,Q,Q
2023-03-15 14:27:30:827,0,9.541,-3.87579,-23.2918,Q,Q
2023-03-15 14:27:30:837,0,9.56094,-3.88836,-23.3475,Q,Q
2023-03-15 14:27:30:847,0,9.57568,-3.89689,-23.4027,Q,Q
2023-03-15 14:27:30:857,0,9.58558,-3.90065,-23.4592,Q,Q
2023-03-15 14:27:30:867,0,9.59447,-3.90571,-23.5136,Q,Q
2023-03-15 14:27:30:877,0,9.59868,-3.9078,-23.5633,Q,Q
2023-03-15 14:27:30:887,0,9.59693,-3.91367,-23.6077,Q,Q
2023-03-15 14:27:30:897,0,9.59351,-3.92125,-23.6507,Q,Q
2023-03-15 14:27:30:907,0,9.58871,-3.9272,-23.6882,Q,Q
2023-03-15 14:27:30:917,0,9.58196,-3.92603,-23.7217,Q,Q
2023-03-15 14:27:30:927,0,9.57003,-3.92617,-23.7466,Q,Q
2023-03-15 14:27:30:937,0,9.55433,-3.92694,-23.7683,Q,Q
2023-03-15 14:27:30:947,0,9.54003,-3.92695,-23.7814,Q,Q
2023-03-15 14:27:30:957,0,9.51861,-3.92524,-23.7912,Q,Q
2023-03-15 14:27:30:967,0,9.49518,-3.92179,-23.795,Q,Q
2023-03-15 14:27:30:977,0,9.46963,-3.91835,-23.7936,Q,Q
2023-03-15 14:27:30:987,0,9.43885,-3.92473,-23.7888,Q,Q
2023-03-15 14:27:30:997,0,9.41329,-3.93398,-23.7822,Q,Q
2023-03-15 14:27:31:7,0,9.38542,-3.94309,-23.7735,Q,Q
2023-03-15 14:27:31:17,0,9.36095,-3.95772,-23.7646,Q,Q
2023-03-15 14:27:31:27,0,9.33937,-3.96766,-23.7536,Q,Q
2023-03-15 14:27:31:37,0,9.31876,-3.98306,-23.7397,Q,Q
2023-03-15 14:27:31:47,0,9.29327,-3.99596,-23.723,Q,Q
2023-03-15 14:27:31:57,0,9.26232,-4.00829,-23.7092,Q,Q
2023-03-15 14:27:31:67,0,9.23397,-4.02431,-23.6973,Q,Q
2023-03-15 14:27:31:78,0,9.20943,-4.03893,-23.6871,Q,Q
2023-03-15 14:27:31:87,0,9.19033,-4.05151,-23.6788,Q,Q
2023-03-15 14:27:31:97,0,9.17016,-4.06138,-23.6746,Q,Q
2023-03-15 14:27:31:108,0,9.15864,-4.07121,-23.6737,Q,Q
2023-03-15 14:27:31:118,0,9.15042,-4.08166,-23.6774,Q,Q
2023-03-15 14:27:31:128,0,9.1432,-4.08889,-23.6788,Q,Q
2023-03-15 14:27:31:138,0,9.13831,-4.09264,-23.6726,Q,Q
2023-03-15 14:27:31:148,0,9.12999,-4.09251,-23.666,Q,Q
2023-03-15 14:27:31:157,0,9.12003,-4.09372,-23.6591,Q,Q
2023-03-15 14:27:31:167,0,9.10886,-4.0999,-23.6542,Q,Q
2023-03-15 14:27:31:178,0,9.10616,-4.10922,-23.6508,Q,Q
2023-03-15 14:27:31:187,0,9.10319,-4.12288,-23.6492,Q,Q
2023-03-15 14:27:31:198,0,9.1031,-4.13498,-23.6468,Q,Q
2023-03-15 14:27:31:208,0,9.10379,-4.14728,-23.6494,Q,Q
2023-03-15 14:27:31:218,0,9.10263,-4.15652,-23.6502,Q,Q
2023-03-15 14:27:31:228,0,9.0969,-4.16501,-23.6491,Q,Q
2023-03-15 14:27:31:237,0,9.09214,-4.17274,-23.6482,Q,Q
2023-03-15 14:27:31:247,0,9.08388,-4.18074,-23.6407,Q,Q
2023-03-15 14:27:31:258,0,9.07635,-4.18655,-23.6324,Q,Q
2023-03-15 14:27:31:268,0,9.06782,-4.19173,-23.6218,Q,Q
2023-03-15 14:27:31:278,0,9.05835,-4.20003,-23.6045,Q,Q
2023-03-15 14:27:31:288,0,9.04806,-4.20274,-23.5868,Q,Q
2023-03-15 14:27:31:298,0,9.0364,-4.2056,-23.5671,Q,Q
2023-03-15 14:27:31:308,0,9.02471,-4.20669,-23.539,Q,Q
2023-03-15 14:27:31:318,0,9.01067,-4.2043,-23.5054,Q,Q
2023-03-15 14:27:31:328,0,8.99024,-4.1972,-23.4683,Q,Q
2023-03-15 14:27:31:338,0,8.96821,-4.18794,-23.4294,Q,Q
2023-03-15 14:27:31:348,0,8.94641,-4.18208,-23.3907,Q,Q
2023-03-15 14:27:31:358,0,8.92981,-4.1763,-23.3564,Q,Q
2023-03-15 14:27:31:367,0,8.92387,-4.17357,-23.3212,Q,Q
2023-03-15 14:27:31:378,0,8.91857,-4.16971,-23.2923,Q,Q
2023-03-15 14:27:31:388,0,8.91501,-4.16312,-23.2707,Q,Q
2023-03-15 14:27:31:398,0,8.90734,-4.15675,-23.26,Q,Q
2023-03-15 14:27:31:407,0,8.90208,-4.15574,-23.2574,Q,Q
2023-03-15 14:27:31:418,0,8.89546,-4.15135,-23.266,Q,Q
2023-03-15 14:27:31:428,0,8.88739,-4.15339,-23.2768,Q,Q
2023-03-15 14:27:31:438,0,8.88595,-4.16036,-23.2943,Q,Q
2023-03-15 14:27:31:447,0,8.88953,-4.17628,-23.3195,Q,Q
2023-03-15 14:27:31:457,0,8.90144,-4.19068,-23.3483,Q,Q
2023-03-15 14:27:31:467,0,8.91204,-4.2088,-23.3799,Q,Q
2023-03-15 14:27:31:478,0,8.91949,-4.22382,-23.4172,Q,Q
2023-03-15 14:27:31:488,0,8.92516,-4.23457,-23.4567,Q,Q
2023-03-15 14:27:31:498,0,8.92719,-4.24516,-23.496,Q,Q
2023-03-15 14:27:31:508,0,8.93072,-4.24932,-23.5353,Q,Q
2023-03-15 14:27:31:518,0,8.92722,-4.25145,-23.5752,Q,Q
2023-03-15 14:27:31:528,0,8.91886,-4.25038,-23.6112,Q,Q
2023-03-15 14:27:31:538,0,8.91054,-4.2485,-23.6465,Q,Q
2023-03-15 14:27:31:548,0,8.90273,-4.24445,-23.6817,Q,Q
2023-03-15 14:27:31:558,0,8.89349,-4.23922,-23.7158,Q,Q
2023-03-15 14:27:31:568,0,8.88524,-4.23271,-23.7453,Q,Q
2023-03-15 14:27:31:578,0,8.87824,-4.22888,-23.7768,Q,Q
2023-03-15 14:27:31:587,0,8.87667,-4.22342,-23.8063,Q,Q
2023-03-15 14:27:31:597,0,8.87949,-4.22109,-23.8318,Q,Q
2023-03-15 14:27:31:607,0,8.88495,-4.21845,-23.8581,Q,Q
2023-03-15 14:27:31:618,0,8.88935,-4.21486,-23.879,Q,Q
2023-03-15 14:27:31:628,0,8.90104,-4.21792,-23.9008,Q,Q
2023-03-15 14:27:31:638,0,8.90821,-4.2196,-23.9177,Q,Q
2023-03-15 14:27:31:648,0,8.91157,-4.21641,-23.9342,Q,Q
2023-03-15 14:27:31:658,0,8.91082,-4.21305,-23.9526,Q,Q
2023-03-15 14:27:31:668,0,8.91149,-4.20891,-23.9694,Q,Q
2023-03-15 14:27:31:678,0,8.9081,-4.20501,-23.9793,Q,Q
2023-03-15 14:27:31:688,0,8.9082,-4.20642,-23.9946,Q,Q
2023-03-15 14:27:31:697,0,8.91033,-4.20742,-24.0067,Q,Q
2023-03-15 14:27:31:707,0,8.90922,-4.21045,-24.0173,Q,Q
2023-03-15 14:27:31:717,0,8.90666,-4.21781,-24.0293,Q,Q
2023-03-15 14:27:31:728,0,8.90514,-4.22015,-24.0388,Q,Q
2023-03-15 14:27:31:737,0,8.90632,-4.22016,-24.049,Q,Q
2023-03-15 14:27:31:747,0,8.90426,-4.2212,-24.0628,Q,Q
2023-03-15 14:27:31:757,0,8.90138,-4.21894,-24.074,Q,Q
2023-03-15 14:27:31:767,0,8.90035,-4.2205,-24.0819,Q,Q
2023-03-15 14:27:31:777,0,8.89574,-4.22267,-24.0921,Q,Q
2023-03-15 14:27:31:787,0,8.89157,-4.21994,-24.1032,Q,Q
2023-03-15 14:27:31:798,0,8.88253,-4.21882,-24.1184,Q,Q
2023-03-15 14:27:31:807,0,8.87713,-4.22245,-24.1324,Q,Q
2023-03-15 14:27:31:818,0,8.86893,-4.22322,-24.1456,Q,Q
2023-03-15 14:27:31:827,0,8.86348,-4.22608,-24.1575,Q,Q
2023-03-15 14:27:31:838,0,8.86146,-4.22863,-24.17,Q,Q
2023-03-15 14:27:31:847,0,8.86075,-4.2299,-24.1798,Q,Q
2023-03-15 14:27:31:858,0,8.86071,-4.23271,-24.1888,Q,Q
2023-03-15 14:27:31:868,0,8.8683,-4.23559,-24.1958,Q,Q
2023-03-15 14:27:31:878,0,8.8732,-4.23945,-24.2008,Q,Q
2023-03-15 14:27:31:888,0,8.87898,-4.23868,-24.2074,Q,Q
2023-03-15 14:27:31:897,0,8.88301,-4.24205,-24.208,Q,Q
2023-03-15 14:27:31:907,0,8.89064,-4.24566,-24.2069,Q,Q
2023-03-15 14:27:31:917,0,8.8942,-4.24693,-24.2084,Q,Q
2023-03-15 14:27:31:927,0,8.89828,-4.24706,-24.2125,Q,Q
2023-03-15 14:27:31:937,0,8.90249,-4.24117,-24.2156,Q,Q
2023-03-15 14:27:31:947,0,8.90681,-4.23989,-24.2185,Q,Q
2023-03-15 14:27:31:957,0,8.91021,-4.23958,-24.2238,Q,Q
2023-03-15 14:27:31:967,0,8.91795,-4.2357,-24.2278,Q,Q
2023-03-15 14:27:31:977,0,8.92015,-4.23427,-24.2373,Q,Q
2023-03-15 14:27:31:987,0,8.92476,-4.23178,-24.2462,Q,Q
2023-03-15 14:27:31:997,0,8.92721,-4.2307,-24.256,Q,Q
2023-03-15 14:27:32:7,0,8.92617,-4.22739,-24.2649,Q,Q
2023-03-15 14:27:32:17,0,8.92569,-4.22482,-24.2773,Q,Q
2023-03-15 14:27:32:28,0,8.92245,-4.22373,-24.2845,Q,Q
2023-03-15 14:27:32:38,0,8.91984,-4.22149,-24.2953,Q,Q
2023-03-15 14:27:32:47,0,8.92069,-4.22101,-24.3029,Q,Q
2023-03-15 14:27:32:58,0,8.91929,-4.22465,-24.3124,Q,Q
2023-03-15 14:27:32:67,0,8.92071,-4.22304,-24.323,Q,Q
2023-03-15 14:27:32:77,0,8.92173,-4.21807,-24.3312,Q,Q
2023-03-15 14:27:32:87,0,8.92528,-4.2129,-24.3424,Q,Q
2023-03-15 14:27:32:98,0,8.93144,-4.20524,-24.3498,Q,Q
2023-03-15 14:27:32:107,0,8.9331,-4.1983,-24.3572,Q,Q
2023-03-15 14:27:32:118,0,8.9332,-4.19347,-24.3646,Q,Q
2023-03-15 14:27:32:128,0,8.93704,-4.18938,-24.3757,Q,Q
2023-03-15 14:27:32:138,0,8.94213,-4.18574,-24.385,Q,Q
2023-03-15 14:27:32:148,0,8.94476,-4.18349,-24.3964,Q,Q
2023-03-15 14:27:32:158,0,8.95056,-4.18296,-24.4128,Q,Q
2023-03-15 14:27:32:167,0,8.95856,-4.18323,-24.4258,Q,Q
2023-03-15 14:27:32:178,0,8.97253,-4.18133,-24.4418,Q,Q
2023-03-15 14:27:32:188,0,8.98438,-4.1781,-24.4568,Q,Q
2023-03-15 14:27:32:197,0,8.99535,-4.16507,-24.4742,Q,Q
2023-03-15 14:27:32:208,0,9.00303,-4.15445,-24.4934,Q,Q
2023-03-15 14:27:32:218,0,9.00923,-4.14373,-24.513,Q,Q
2023-03-15 14:27:32:228,0,9.01481,-4.13507,-24.5327,Q,Q
2023-03-15 14:27:32:238,0,9.02539,-4.13674,-24.5496,Q,Q
2023-03-15 14:27:32:247,0,9.03641,-4.14387,-24.5669,Q,Q
2023-03-15 14:27:32:258,0,9.04664,-4.15084,-24.5847,Q,Q
2023-03-15 14:27:32:268,0,9.05206,-4.15669,-24.5999,Q,Q
2023-03-15 14:27:32:278,0,9.0556,-4.15861,-24.6194,Q,Q
2023-03-15 14:27:32:288,0,9.05452,-4.16122,-24.6373,Q,Q
2023-03-15 14:27:32:298,0,9.04505,-4.1608,-24.6611,Q,Q
2023-03-15 14:27:32:308,0,9.03773,-4.16066,-24.6809,Q,Q
2023-03-15 14:27:32:318,0,9.02333,-4.15728,-24.6985,Q,Q
2023-03-15 14:27:32:328,0,9.00741,-4.15396,-24.7166,Q,Q
2023-03-15 14:27:32:338,0,8.98919,-4.14797,-24.738,Q,Q
2023-03-15 14:27:32:348,0,8.97015,-4.1434,-24.758,Q,Q
2023-03-15 14:27:32:358,0,8.95275,-4.14218,-24.7765,Q,Q
2023-03-15 14:27:32:368,0,8.93761,-4.14028,-24.7969,Q,Q
2023-03-15 14:27:32:378,0,8.91874,-4.13742,-24.8213,Q,Q
2023-03-15 14:27:32:388,0,8.90478,-4.13745,-24.8402,Q,Q
2023-03-15 14:27:32:398,0,8.89087,-4.13777,-24.8587,Q,Q
2023-03-15 14:27:32:408,0,8.88018,-4.13596,-24.877,Q,Q
2023-03-15 14:27:32:418,0,8.87212,-4.13506,-24.8957,Q,Q
2023-03-15 14:27:32:428,0,8.86652,-4.13433,-24.9058,Q,Q
2023-03-15 14:27:32:437,0,8.86121,-4.13391,-24.9108,Q,Q
2023-03-15 14:27:32:448,0,8.85482,-4.13305,-24.9125,Q,Q
2023-03-15 14:27:32:457,0,8.85187,-4.12962,-24.9154,Q,Q
2023-03-15 14:27:32:467,0,8.84904,-4.12568,-24.914,Q,Q
2023-03-15 14:27:32:477,0,8.85244,-4.12426,-24.9151,Q,Q
2023-03-15 14:27:32:487,0,8.85447,-4.12539,-24.9097,Q,Q
2023-03-15 14:27:32:498,0,8.86001,-4.12775,-24.9012,Q,Q
2023-03-15 14:27:32:508,0,8.86547,-4.13075,-24.8935,Q,Q
2023-03-15 14:27:32:518,0,8.87124,-4.13669,-24.8833,Q,Q
2023-03-15 14:27:32:527,0,8.87509,-4.14194,-24.8783,Q,Q
2023-03-15 14:27:32:538,0,8.87828,-4.1471,-24.8725,Q,Q
2023-03-15 14:27:32:547,0,8.88105,-4.14795,-24.8687,Q,Q
2023-03-15 14:27:32:558,0,8.88445,-4.14612,-24.8684,Q,Q
2023-03-15 14:27:32:568,0,8.88693,-4.14212,-24.8646,Q,Q
2023-03-15 14:27:32:577,0,8.88638,-4.13996,-24.8595,Q,Q
2023-03-15 14:27:32:587,0,8.88765,-4.14282,-24.8539,Q,Q
2023-03-15 14:27:32:597,0,8.88564,-4.14558,-24.852,Q,Q
2023-03-15 14:27:32:607,0,8.87954,-4.1449,-24.8526,Q,Q
2023-03-15 14:27:32:617,0,8.87684,-4.14389,-24.8534,Q,Q
2023-03-15 14:27:32:627,0,8.87104,-4.14398,-24.8558,Q,Q
2023-03-15 14:27:32:637,0,8.8667,-4.14319,-24.858,Q,Q
2023-03-15 14:27:32:647,0,8.86429,-4.14431,-24.8625,Q,Q
2023-03-15 14:27:32:658,0,8.86367,-4.1427,-24.8636,Q,Q
2023-03-15 14:27:32:667,0,8.86247,-4.14362,-24.8639,Q,Q
2023-03-15 14:27:32:678,0,8.86454,-4.14395,-24.8645,Q,Q
2023-03-15 14:27:32:687,0,8.86633,-4.14354,-24.865,Q,Q
2023-03-15 14:27:32:698,0,8.8733,-4.14354,-24.8642,Q,Q
2023-03-15 14:27:32:707,0,8.87852,-4.1416,-24.8595,Q,Q
2023-03-15 14:27:32:718,0,8.88518,-4.14154,-24.8541,Q,Q
2023-03-15 14:27:32:728,0,8.88621,-4.14092,-24.8512,Q,Q
2023-03-15 14:27:32:738,0,8.88948,-4.14162,-24.8455,Q,Q
2023-03-15 14:27:32:748,0,8.88865,-4.14289,-24.8453,Q,Q
2023-03-15 14:27:32:758,0,8.88774,-4.14392,-24.8453,Q,Q
2023-03-15 14:27:32:768,0,8.88501,-4.14793,-24.8439,Q,Q
2023-03-15 14:27:32:778,0,8.88509,-4.1486,-24.8467,Q,Q
2023-03-15 14:27:32:788,0,8.88589,-4.15116,-24.8487,Q,Q
2023-03-15 14:27:32:798,0,8.88657,-4.1543,-24.8501,Q,Q
2023-03-15 14:27:32:808,0,8.88671,-4.1558,-24.8529,Q,Q
2023-03-15 14:27:32:817,0,8.88885,-4.15749,-24.8562,Q,Q
2023-03-15 14:27:32:828,0,8.88986,-4.15799,-24.8557,Q,Q
2023-03-15 14:27:32:838,0,8.88792,-4.15789,-24.8535,Q,Q
2023-03-15 14:27:32:848,0,8.88462,-4.16047,-24.8545,Q,Q
2023-03-15 14:27:32:857,0,8.88229,-4.16394,-24.8556,Q,Q
2023-03-15 14:27:32:868,0,8.87586,-4.16755,-24.8586,Q,Q
2023-03-15 14:27:32:878,0,8.86519,-4.17196,-24.8576,Q,Q
2023-03-15 14:27:32:888,0,8.85428,-4.17997,-24.8562,Q,Q
2023-03-15 14:27:32:898,0,8.83743,-4.1912,-24.8546,Q,Q
2023-03-15 14:27:32:908,0,8.82192,-4.19468,-24.8566,Q,Q
2023-03-15 14:27:32:918,0,8.81052,-4.19786,-24.8616,Q,Q
2023-03-15 14:27:32:927,0,8.80232,-4.19595,-24.86,Q,Q
2023-03-15 14:27:32:938,0,8.79495,-4.19629,-24.8623,Q,Q
2023-03-15 14:27:32:948,0,8.78457,-4.1949,-24.8628,Q,Q
2023-03-15 14:27:32:957,0,8.77633,-4.19706,-24.8658,Q,Q
2023-03-15 14:27:32:967,0,8.76988,-4.19214,-24.8681,Q,Q
2023-03-15 14:27:32:978,0,8.76458,-4.18667,-24.869,Q,Q
2023-03-15 14:27:32:987,0,8.75986,-4.18311,-24.8726,Q,Q
2023-03-15 14:27:32:997,0,8.75122,-4.1808,-24.8745,Q,Q
2023-03-15 14:27:33:7,0,8.74259,-4.18259,-24.8755,Q,Q
2023-03-15 14:27:33:18,0,8.73246,-4.18326,-24.8774,Q,Q
2023-03-15 14:27:33:27,0,8.72141,-4.18769,-24.8827,Q,Q
2023-03-15 14:27:33:37,0,8.71294,-4.18746,-24.8869,Q,Q
2023-03-15 14:27:33:47,0,8.70516,-4.18969,-24.8893,Q,Q
2023-03-15 14:27:33:58,0,8.69829,-4.19406,-24.8905,Q,Q
2023-03-15 14:27:33:68,0,8.69088,-4.19803,-24.8901,Q,Q
2023-03-15 14:27:33:77,0,8.68555,-4.19716,-24.8928,Q,Q
2023-03-15 14:27:33:87,0,8.68307,-4.19258,-24.8929,Q,Q
2023-03-15 14:27:33:97,0,8.67382,-4.18562,-24.8957,Q,Q
2023-03-15 14:27:33:107,0,8.66283,-4.17769,-24.9012,Q,Q
2023-03-15 14:27:33:118,0,8.65745,-4.16987,-24.9032,Q,Q
2023-03-15 14:27:33:127,0,8.65747,-4.16769,-24.9016,Q,Q
2023-03-15 14:27:33:138,0,8.66019,-4.17349,-24.8981,Q,Q
2023-03-15 14:27:33:148,0,8.66249,-4.18522,-24.8907,Q,Q
2023-03-15 14:27:33:158,0,8.66713,-4.19426,-24.8854,Q,Q
2023-03-15 14:27:33:167,0,8.67103,-4.20643,-24.8837,Q,Q
2023-03-15 14:27:33:177,0,8.67336,-4.21683,-24.8814,Q,Q
2023-03-15 14:27:33:188,0,8.67047,-4.22492,-24.8798,Q,Q
2023-03-15 14:27:33:198,0,8.66578,-4.23852,-24.8771,Q,Q
2023-03-15 14:27:33:207,0,8.66263,-4.24733,-24.8673,Q,Q
2023-03-15 14:27:33:217,0,8.66229,-4.25814,-24.8619,Q,Q
2023-03-15 14:27:33:227,0,8.66324,-4.26523,-24.8516,Q,Q
2023-03-15 14:27:33:238,0,8.66858,-4.27049,-24.8394,Q,Q
2023-03-15 14:27:33:247,0,8.67274,-4.27487,-24.822,Q,Q
2023-03-15 14:27:33:258,0,8.68053,-4.27447,-24.8048,Q,Q
2023-03-15 14:27:33:267,0,8.68758,-4.27646,-24.7864,Q,Q
2023-03-15 14:27:33:278,0,8.69571,-4.27742,-24.7675,Q,Q
2023-03-15 14:27:33:288,0,8.70062,-4.2761,-24.7496,Q,Q
2023-03-15 14:27:33:298,0,8.71118,-4.2736,-24.7279,Q,Q
2023-03-15 14:27:33:308,0,8.72383,-4.27336,-24.7003,Q,Q
2023-03-15 14:27:33:317,0,8.73875,-4.27191,-24.6751,Q,Q
2023-03-15 14:27:33:327,0,8.75049,-4.26989,-24.6498,Q,Q
2023-03-15 14:27:33:338,0,8.75985,-4.27131,-24.6241,Q,Q
2023-03-15 14:27:33:348,0,8.77227,-4.27458,-24.6008,Q,Q
2023-03-15 14:27:33:358,0,8.7817,-4.2796,-24.5755,Q,Q
2023-03-15 14:27:33:368,0,8.79192,-4.27909,-24.5511,Q,Q
2023-03-15 14:27:33:378,0,8.80226,-4.27715,-24.5289,Q,Q
2023-03-15 14:27:33:388,0,8.81495,-4.27773,-24.5039,Q,Q
2023-03-15 14:27:33:398,0,8.81977,-4.2788,-24.4817,Q,Q
2023-03-15 14:27:33:408,0,8.82638,-4.28571,-24.4599,Q,Q
2023-03-15 14:27:33:417,0,8.83175,-4.29492,-24.4363,Q,Q
2023-03-15 14:27:33:427,0,8.8366,-4.30321,-24.4193,Q,Q
2023-03-15 14:27:33:438,0,8.84716,-4.31157,-24.4028,Q,Q
2023-03-15 14:27:33:447,0,8.85474,-4.31853,-24.3885,Q,Q
2023-03-15 14:27:33:457,0,8.86115,-4.32262,-24.3772,Q,Q
2023-03-15 14:27:33:467,0,8.8675,-4.32778,-24.3699,Q,Q
2023-03-15 14:27:33:478,0,8.87079,-4.33333,-24.3659,Q,Q
2023-03-15 14:27:33:488,0,8.87295,-4.33424,-24.3641,Q,Q
2023-03-15 14:27:33:498,0,8.87491,-4.33342,-24.3647,Q,Q
2023-03-15 14:27:33:507,0,8.87743,-4.3339,-24.3664,Q,Q
2023-03-15 14:27:33:517,0,8.87769,-4.33695,-24.3717,Q,Q
2023-03-15 14:27:33:527,0,8.87944,-4.34207,-24.377,Q,Q
2023-03-15 14:27:33:537,0,8.88213,-4.35091,-24.3825,Q,Q
2023-03-15 14:27:33:547,0,8.88924,-4.36354,-24.3832,Q,Q
2023-03-15 14:27:33:557,0,8.89939,-4.37705,-24.3876,Q,Q
2023-03-15 14:27:33:567,0,8.90875,-4.39111,-24.3973,Q,Q
2023-03-15 14:27:33:577,0,8.91567,-4.40579,-24.4098,Q,Q
2023-03-15 14:27:33:587,0,8.91878,-4.42121,-24.4231,Q,Q
2023-03-15 14:27:33:597,0,8.91987,-4.43654,-24.4383,Q,Q
2023-03-15 14:27:33:607,0,8.92442,-4.4559,-24.4508,Q,Q
2023-03-15 14:27:33:617,0,8.92667,-4.47052,-24.465,Q,Q
2023-03-15 14:27:33:627,0,8.92553,-4.48424,-24.4806,Q,Q
2023-03-15 14:27:33:637,0,8.92518,-4.49657,-24.4991,Q,Q
2023-03-15 14:27:33:647,0,8.92587,-4.5058,-24.5159,Q,Q
2023-03-15 14:27:33:658,0,8.92991,-4.51256,-24.5317,Q,Q
2023-03-15 14:27:33:667,0,8.92946,-4.51574,-24.5449,Q,Q
2023-03-15 14:27:33:678,0,8.93317,-4.51475,-24.5576,Q,Q
2023-03-15 14:27:33:688,0,8.93529,-4.51251,-24.5725,Q,Q
2023-03-15 14:27:33:698,0,8.94059,-4.51453,-24.5881,Q,Q
2023-03-15 14:27:33:708,0,8.94563,-4.51269,-24.6023,Q,Q
2023-03-15 14:27:33:717,0,8.9471,-4.51122,-24.6167,Q,Q
2023-03-15 14:27:33:728,0,8.94269,-4.50884,-24.6294,Q,Q
2023-03-15 14:27:33:737,0,8.93628,-4.50612,-24.6443,Q,Q
2023-03-15 14:27:33:748,0,8.93302,-4.50714,-24.6608,Q,Q
2023-03-15 14:27:33:757,0,8.92685,-4.50584,-24.6761,Q,Q
2023-03-15 14:27:33:767,0,8.92051,-4.50397,-24.6943,Q,Q
2023-03-15 14:27:33:777,0,8.9114,-4.50083,-24.7182,Q,Q
2023-03-15 14:27:33:787,0,8.90128,-4.49747,-24.7383,Q,Q
2023-03-15 14:27:33:797,0,8.89047,-4.49354,-24.7617,Q,Q
2023-03-15 14:27:33:807,0,8.87545,-4.4874,-24.7865,Q,Q
2023-03-15 14:27:33:818,0,8.86617,-4.48312,-24.8111,Q,Q
2023-03-15 14:27:33:828,0,8.85497,-4.48362,-24.8358,Q,Q
2023-03-15 14:27:33:838,0,8.84912,-4.48323,-24.8663,Q,Q
2023-03-15 14:27:33:848,0,8.84427,-4.47861,-24.8991,Q,Q
2023-03-15 14:27:33:858,0,8.83784,-4.47917,-24.9335,Q,Q
2023-03-15 14:27:33:868,0,8.83242,-4.4775,-24.966,Q,Q
2023-03-15 14:27:33:878,0,8.82679,-4.48202,-25.0003,Q,Q
2023-03-15 14:27:33:888,0,8.82006,-4.48334,-25.035,Q,Q
2023-03-15 14:27:33:897,0,8.81266,-4.48673,-25.068,Q,Q
2023-03-15 14:27:33:908,0,8.80581,-4.48951,-25.0983,Q,Q
2023-03-15 14:27:33:917,0,8.79812,-4.49483,-25.1354,Q,Q
2023-03-15 14:27:33:928,0,8.79133,-4.49855,-25.168,Q,Q
2023-03-15 14:27:33:938,0,8.78773,-4.50332,-25.2031,Q,Q
2023-03-15 14:27:33:948,0,8.78199,-4.50529,-25.2359,Q,Q
2023-03-15 14:27:33:958,0,8.77756,-4.50874,-25.2682,Q,Q
2023-03-15 14:27:33:967,0,8.76969,-4.50867,-25.3014,Q,Q
2023-03-15 14:27:33:977,0,8.76284,-4.50773,-25.337,Q,Q
2023-03-15 14:27:33:988,0,8.7571,-4.50697,-25.3653,Q,Q
2023-03-15 14:27:33:997,0,8.75203,-4.50725,-25.3888,Q,Q
2023-03-15 14:27:34:8,0,8.74834,-4.50744,-25.4113,Q,Q
2023-03-15 14:27:34:18,0,8.74236,-4.50654,-25.4293,Q,Q
2023-03-15 14:27:34:28,0,8.73649,-4.505,-25.4468,Q,Q
2023-03-15 14:27:34:38,0,8.72529,-4.49929,-25.4641,Q,Q
2023-03-15 14:27:34:48,0,8.70837,-4.49093,-25.4783,Q,Q
2023-03-15 14:27:34:58,0,8.69969,-4.4845,-25.4874,Q,Q
2023-03-15 14:27:34:68,0,8.69382,-4.48267,-25.4951,Q,Q
2023-03-15 14:27:34:77,0,8.69055,-4.48841,-25.5013,Q,Q
2023-03-15 14:27:34:87,0,8.68894,-4.4945,-25.5045,Q,Q
2023-03-15 14:27:34:98,0,8.68993,-4.49734,-25.5059,Q,Q
2023-03-15 14:27:34:108,0,8.68368,-4.50088,-25.5093,Q,Q
2023-03-15 14:27:34:118,0,8.67655,-4.50292,-25.51,Q,Q
2023-03-15 14:27:34:127,0,8.66877,-4.50802,-25.51,Q,Q
2023-03-15 14:27:34:138,0,8.65777,-4.50815,-25.5104,Q,Q
2023-03-15 14:27:34:147,0,8.65011,-4.50605,-25.5081,Q,Q
2023-03-15 14:27:34:158,0,8.64399,-4.50477,-25.5055,Q,Q
2023-03-15 14:27:34:168,0,8.63809,-4.51138,-25.5073,Q,Q
2023-03-15 14:27:34:178,0,8.62895,-4.51418,-25.5102,Q,Q
2023-03-15 14:27:34:188,0,8.61897,-4.51182,-25.5139,Q,Q
2023-03-15 14:27:34:198,0,8.61526,-4.51033,-25.5215,Q,Q
2023-03-15 14:27:34:208,0,8.61262,-4.50988,-25.5319,Q,Q
2023-03-15 14:27:34:218,0,8.61016,-4.51432,-25.5424,Q,Q
2023-03-15 14:27:34:227,0,8.60835,-4.51599,-25.5509,Q,Q
2023-03-15 14:27:34:238,0,8.6072,-4.51776,-25.5638,Q,Q
2023-03-15 14:27:34:247,0,8.60682,-4.51763,-25.5767,Q,Q
2023-03-15 14:27:34:257,0,8.60681,-4.52025,-25.5881,Q,Q
2023-03-15 14:27:34:268,0,8.6047,-4.52404,-25.5985,Q,Q
2023-03-15 14:27:34:278,0,8.6044,-4.52894,-25.6061,Q,Q
2023-03-15 14:27:34:288,0,8.60217,-4.53369,-25.6129,Q,Q
2023-03-15 14:27:34:298,0,8.60014,-4.53463,-25.6234,Q,Q
2023-03-15 14:27:34:308,0,8.59574,-4.53121,-25.6314,Q,Q
2023-03-15 14:27:34:318,0,8.59213,-4.52736,-25.641,Q,Q
2023-03-15 14:27:34:328,0,8.59226,-4.52912,-25.6447,Q,Q
2023-03-15 14:27:34:338,0,8.59052,-4.53043,-25.6463,Q,Q
2023-03-15 14:27:34:348,0,8.59267,-4.531,-25.6509,Q,Q
2023-03-15 14:27:34:358,0,8.5901,-4.52927,-25.6514,Q,Q
2023-03-15 14:27:34:368,0,8.58636,-4.53214,-25.6555,Q,Q
2023-03-15 14:27:34:377,0,8.5812,-4.53505,-25.6578,Q,Q
2023-03-15 14:27:34:387,0,8.57752,-4.53492,-25.663,Q,Q
2023-03-15 14:27:34:398,0,8.57157,-4.53264,-25.6668,Q,Q
2023-03-15 14:27:34:407,0,8.56805,-4.53292,-25.6735,Q,Q
2023-03-15 14:27:34:418,0,8.56266,-4.53317,-25.6793,Q,Q
2023-03-15 14:27:34:428,0,8.55378,-4.53802,-25.6875,Q,Q
2023-03-15 14:27:34:438,0,8.54475,-4.5418,-25.6936,Q,Q
2023-03-15 14:27:34:447,0,8.53847,-4.54156,-25.6991,Q,Q
2023-03-15 14:27:34:458,0,8.53521,-4.5382,-25.7063,Q,Q
2023-03-15 14:27:34:468,0,8.52884,-4.54035,-25.7065,Q,Q
2023-03-15 14:27:34:477,0,8.51897,-4.54133,-25.7084,Q,Q
2023-03-15 14:27:34:488,0,8.51551,-4.54287,-25.7121,Q,Q
2023-03-15 14:27:34:497,0,8.51111,-4.54307,-25.7158,Q,Q
2023-03-15 14:27:34:508,0,8.5059,-4.54524,-25.7162,Q,Q
2023-03-15 14:27:34:518,0,8.50224,-4.546,-25.722,Q,Q
2023-03-15 14:27:34:527,0,8.49936,-4.54964,-25.7198,Q,Q
2023-03-15 14:27:34:538,0,8.49872,-4.55756,-25.7218,Q,Q
2023-03-15 14:27:34:548,0,8.49842,-4.56505,-25.7212,Q,Q
2023-03-15 14:27:34:558,0,8.49994,-4.56975,-25.7258,Q,Q
2023-03-15 14:27:34:567,0,8.49698,-4.5696,-25.7273,Q,Q
2023-03-15 14:27:34:577,0,8.49765,-4.56811,-25.7264,Q,Q
2023-03-15 14:27:34:587,0,8.50081,-4.56766,-25.7293,Q,Q
2023-03-15 14:27:34:597,0,8.50131,-4.56454,-25.7329,Q,Q
2023-03-15 14:27:34:607,0,8.50333,-4.56535,-25.7348,Q,Q
2023-03-15 14:27:34:617,0,8.50449,-4.56281,-25.7373,Q,Q
2023-03-15 14:27:34:627,0,8.49973,-4.5627,-25.739,Q,Q
2023-03-15 14:27:34:637,0,8.49577,-4.55975,-25.7435,Q,Q
2023-03-15 14:27:34:647,0,8.49159,-4.56154,-25.749,Q,Q
2023-03-15 14:27:34:657,0,8.4837,-4.5619,-25.7546,Q,Q
2023-03-15 14:27:34:667,0,8.47495,-4.5635,-25.7606,Q,Q
2023-03-15 14:27:34:677,0,8.46034,-4.56709,-25.7659,Q,Q
2023-03-15 14:27:34:688,0,8.44373,-4.57154,-25.7763,Q,Q
2023-03-15 14:27:34:698,0,8.43077,-4.57378,-25.7889,Q,Q
2023-03-15 14:27:34:707,0,8.42255,-4.56993,-25.8021,Q,Q
2023-03-15 14:27:34:718,0,8.4107,-4.56832,-25.8104,Q,Q
2023-03-15 14:27:34:728,0,8.39846,-4.56867,-25.8194,Q,Q
2023-03-15 14:27:34:738,0,8.38231,-4.56794,-25.8288,Q,Q
2023-03-15 14:27:34:748,0,8.37213,-4.57134,-25.8384,Q,Q
2023-03-15 14:27:34:757,0,8.36286,-4.5696,-25.8496,Q,Q
2023-03-15 14:27:34:767,0,8.3557,-4.56923,-25.8582,Q,Q
2023-03-15 14:27:34:777,0,8.34712,-4.57072,-25.8664,Q,Q
2023-03-15 14:27:34:787,0,8.3348,-4.57154,-25.8765,Q,Q
2023-03-15 14:27:34:797,0,8.32775,-4.57386,-25.8845,Q,Q
2023-03-15 14:27:34:808,0,8.31874,-4.57797,-25.8974,Q,Q
2023-03-15 14:27:34:817,0,8.31171,-4.57709,-25.9113,Q,Q
2023-03-15 14:27:34:828,0,8.31254,-4.5747,-25.923,Q,Q
2023-03-15 14:27:34:838,0,8.31584,-4.57236,-25.9361,Q,Q
2023-03-15 14:27:34:848,0,8.3174,-4.56874,-25.9443,Q,Q
2023-03-15 14:27:34:858,0,8.31841,-4.5661,-25.9533,Q,Q
2023-03-15 14:27:34:868,0,8.31716,-4.5632,-25.9628,Q,Q
2023-03-15 14:27:34:878,0,8.31675,-4.55708,-25.9694,Q,Q
2023-03-15 14:27:34:887,0,8.31337,-4.55825,-25.9769,Q,Q
2023-03-15 14:27:34:898,0,8.3059,-4.55486,-25.9808,Q,Q
2023-03-15 14:27:34:908,0,8.30342,-4.55484,-25.9846,Q,Q
2023-03-15 14:27:34:917,0,8.29872,-4.55304,-25.9869,Q,Q
2023-03-15 14:27:34:928,0,8.29549,-4.55107,-25.9865,Q,Q
2023-03-15 14:27:34:938,0,8.29249,-4.54611,-25.9836,Q,Q
2023-03-15 14:27:34:948,0,8.2918,-4.54499,-25.9801,Q,Q
2023-03-15 14:27:34:958,0,8.29294,-4.54476,-25.9779,Q,Q
2023-03-15 14:27:34:968,0,8.29384,-4.54032,-25.9752,Q,Q
2023-03-15 14:27:34:977,0,8.29369,-4.5364,-25.9685,Q,Q
2023-03-15 14:27:34:987,0,8.28602,-4.52855,-25.9637,Q,Q
2023-03-15 14:27:34:998,0,8.27432,-4.52349,-25.961,Q,Q
2023-03-15 14:27:35:7,0,8.26569,-4.52002,-25.952,Q,Q
2023-03-15 14:27:35:17,0,8.25307,-4.52742,-25.9377,Q,Q
2023-03-15 14:27:35:28,0,8.24534,-4.53996,-25.9219,Q,Q
2023-03-15 14:27:35:37,0,8.23427,-4.55739,-25.9092,Q,Q
2023-03-15 14:27:35:48,0,8.22202,-4.5693,-25.8951,Q,Q
2023-03-15 14:27:35:58,0,8.21422,-4.57348,-25.8847,Q,Q
2023-03-15 14:27:35:68,0,8.20269,-4.57374,-25.8736,Q,Q
2023-03-15 14:27:35:77,0,8.1985,-4.57357,-25.8634,Q,Q
2023-03-15 14:27:35:87,0,8.18516,-4.57156,-25.8505,Q,Q
2023-03-15 14:27:35:97,0,8.16959,-4.5706,-25.8382,Q,Q
2023-03-15 14:27:35:107,0,8.15592,-4.56752,-25.8236,Q,Q
2023-03-15 14:27:35:117,0,8.14305,-4.56188,-25.8116,Q,Q
2023-03-15 14:27:35:127,0,8.12627,-4.55745,-25.8006,Q,Q
2023-03-15 14:27:35:137,0,8.10649,-4.55403,-25.7914,Q,Q
2023-03-15 14:27:35:147,0,8.08756,-4.54861,-25.7814,Q,Q
2023-03-15 14:27:35:158,0,8.06842,-4.53855,-25.7752,Q,Q
2023-03-15 14:27:35:167,0,8.05181,-4.52688,-25.7701,Q,Q
2023-03-15 14:27:35:177,0,8.03538,-4.51054,-25.7663,Q,Q
2023-03-15 14:27:35:187,0,8.02347,-4.49445,-25.7667,Q,Q
2023-03-15 14:27:35:198,0,8.01412,-4.47896,-25.7724,Q,Q
2023-03-15 14:27:35:208,0,8.0004,-4.46386,-25.7805,Q,Q
2023-03-15 14:27:35:218,0,7.98925,-4.44789,-25.7931,Q,Q
2023-03-15 14:27:35:228,0,7.9739,-4.43021,-25.806,Q,Q
2023-03-15 14:27:35:238,0,7.95916,-4.41288,-25.8179,Q,Q
2023-03-15 14:27:35:248,0,7.93972,-4.39878,-25.8339,Q,Q
2023-03-15 14:27:35:258,0,7.92367,-4.38046,-25.8527,Q,Q
2023-03-15 14:27:35:267,0,7.90335,-4.35949,-25.8697,Q,Q
2023-03-15 14:27:35:277,0,7.88717,-4.34461,-25.886,Q,Q
2023-03-15 14:27:35:287,0,7.87351,-4.33065,-25.8997,Q,Q
2023-03-15 14:27:35:297,0,7.85851,-4.31873,-25.9124,Q,Q
2023-03-15 14:27:35:307,0,7.84317,-4.30567,-25.9159,Q,Q
2023-03-15 14:27:35:318,0,7.82961,-4.29486,-25.9213,Q,Q
2023-03-15 14:27:35:327,0,7.8154,-4.28239,-25.9257,Q,Q
2023-03-15 14:27:35:337,0,7.80469,-4.27449,-25.9303,Q,Q
2023-03-15 14:27:35:348,0,7.79544,-4.26156,-25.9289,Q,Q
2023-03-15 14:27:35:358,0,7.78296,-4.24771,-25.9276,Q,Q
2023-03-15 14:27:35:367,0,7.76919,-4.24195,-25.9228,Q,Q
2023-03-15 14:27:35:377,0,7.75388,-4.23572,-25.9127,Q,Q
2023-03-15 14:27:35:387,0,7.74438,-4.23037,-25.9015,Q,Q
2023-03-15 14:27:35:398,0,7.72996,-4.22946,-25.8874,Q,Q
2023-03-15 14:27:35:407,0,7.71165,-4.22982,-25.8725,Q,Q
2023-03-15 14:27:35:418,0,7.69531,-4.23105,-25.8617,Q,Q
2023-03-15 14:27:35:427,0,7.68156,-4.23179,-25.8463,Q,Q
2023-03-15 14:27:35:438,0,7.67178,-4.22792,-25.8304,Q,Q
2023-03-15 14:27:35:448,0,7.66197,-4.22614,-25.8114,Q,Q
2023-03-15 14:27:35:458,0,7.6554,-4.22931,-25.7915,Q,Q
2023-03-15 14:27:35:468,0,7.64948,-4.23202,-25.7687,Q,Q
2023-03-15 14:27:35:477,0,7.64388,-4.23215,-25.7447,Q,Q
2023-03-15 14:27:35:487,0,7.643,-4.22875,-25.7164,Q,Q
2023-03-15 14:27:35:498,0,7.64325,-4.229,-25.6881,Q,Q
2023-03-15 14:27:35:507,0,7.64215,-4.23435,-25.6625,Q,Q
2023-03-15 14:27:35:518,0,7.63706,-4.23553,-25.6328,Q,Q
2023-03-15 14:27:35:527,0,7.63336,-4.23246,-25.6071,Q,Q
2023-03-15 14:27:35:537,0,7.63107,-4.22875,-25.5805,Q,Q
2023-03-15 14:27:35:547,0,7.63179,-4.22325,-25.5541,Q,Q
2023-03-15 14:27:35:557,0,7.6298,-4.2202,-25.5244,Q,Q
2023-03-15 14:27:35:568,0,7.62678,-4.21653,-25.4989,Q,Q
2023-03-15 14:27:35:577,0,7.62337,-4.21541,-25.4773,Q,Q
2023-03-15 14:27:35:587,0,7.61813,-4.21489,-25.4597,Q,Q
2023-03-15 14:27:35:598,0,7.6173,-4.2118,-25.4415,Q,Q
2023-03-15 14:27:35:608,0,7.615,-4.21307,-25.4257,Q,Q
2023-03-15 14:27:35:618,0,7.61272,-4.21665,-25.4126,Q,Q
2023-03-15 14:27:35:627,0,7.6089,-4.22795,-25.4032,Q,Q
2023-03-15 14:27:35:637,0,7.60409,-4.2369,-25.3956,Q,Q
2023-03-15 14:27:35:648,0,7.60492,-4.24564,-25.3926,Q,Q
2023-03-15 14:27:35:658,0,7.60894,-4.2514,-25.3944,Q,Q
2023-03-15 14:27:35:668,0,7.61179,-4.2631,-25.3934,Q,Q
2023-03-15 14:27:35:677,0,7.61485,-4.2745,-25.3918,Q,Q
2023-03-15 14:27:35:688,0,7.61525,-4.2868,-25.3931,Q,Q
2023-03-15 14:27:35:698,0,7.613,-4.29893,-25.393,Q,Q
2023-03-15 14:27:35:708,0,7.6138,-4.30993,-25.3979,Q,Q
2023-03-15 14:27:35:718,0,7.61815,-4.31721,-25.4018,Q,Q
2023-03-15 14:27:35:728,0,7.62167,-4.32458,-25.4059,Q,Q
2023-03-15 14:27:35:738,0,7.62395,-4.32919,-25.4081,Q,Q
2023-03-15 14:27:35:748,0,7.62984,-4.33705,-25.4127,Q,Q
2023-03-15 14:27:35:758,0,7.63287,-4.34544,-25.4137,Q,Q
2023-03-15 14:27:35:768,0,7.63384,-4.34756,-25.4116,Q,Q
2023-03-15 14:27:35:777,0,7.63454,-4.35187,-25.4112,Q,Q
2023-03-15 14:27:35:787,0,7.63421,-4.35645,-25.4096,Q,Q
2023-03-15 14:27:35:798,0,7.63197,-4.35481,-25.4101,Q,Q
2023-03-15 14:27:35:808,0,7.62929,-4.35413,-25.4048,Q,Q
2023-03-15 14:27:35:818,0,7.63097,-4.35502,-25.3993,Q,Q
2023-03-15 14:27:35:828,0,7.6317,-4.3569,-25.3935,Q,Q
2023-03-15 14:27:35:838,0,7.6341,-4.35658,-25.3871,Q,Q
2023-03-15 14:27:35:848,0,7.64035,-4.35572,-25.3805,Q,Q
2023-03-15 14:27:35:857,0,7.64621,-4.35407,-25.3744,Q,Q
2023-03-15 14:27:35:867,0,7.65034,-4.35516,-25.3683,Q,Q
2023-03-15 14:27:35:878,0,7.66035,-4.35381,-25.3615,Q,Q
2023-03-15 14:27:35:888,0,7.6698,-4.35718,-25.3577,Q,Q
2023-03-15 14:27:35:898,0,7.67931,-4.3557,-25.3578,Q,Q
2023-03-15 14:27:35:908,0,7.69181,-4.34996,-25.364,Q,Q
2023-03-15 14:27:35:918,0,7.70249,-4.34918,-25.372,Q,Q
2023-03-15 14:27:35:928,0,7.70591,-4.34318,-25.3817,Q,Q
2023-03-15 14:27:35:938,0,7.70768,-4.33807,-25.3914,Q,Q
2023-03-15 14:27:35:948,0,7.71322,-4.33317,-25.4019,Q,Q
2023-03-15 14:27:35:957,0,7.72055,-4.33592,-25.4056,Q,Q
2023-03-15 14:27:35:967,0,7.72416,-4.3395,-25.4096,Q,Q
2023-03-15 14:27:35:978,0,7.72208,-4.34514,-25.4128,Q,Q
2023-03-15 14:27:35:987,0,7.71536,-4.35096,-25.4118,Q,Q
2023-03-15 14:27:35:998,0,7.70798,-4.35429,-25.4113,Q,Q
2023-03-15 14:27:36:8,0,7.69613,-4.35406,-25.4071,Q,Q
2023-03-15 14:27:36:18,0,7.68067,-4.35172,-25.3994,Q,Q
2023-03-15 14:27:36:28,0,7.66059,-4.35327,-25.3867,Q,Q
2023-03-15 14:27:36:38,0,7.63396,-4.35516,-25.3713,Q,Q
2023-03-15 14:27:36:48,0,7.60727,-4.35107,-25.36,Q,Q
2023-03-15 14:27:36:58,0,7.58368,-4.3499,-25.3438,Q,Q
2023-03-15 14:27:36:67,0,7.55612,-4.35656,-25.3293,Q,Q
2023-03-15 14:27:36:77,0,7.52493,-4.35893,-25.3167,Q,Q
2023-03-15 14:27:36:87,0,7.49464,-4.36165,-25.3061,Q,Q
2023-03-15 14:27:36:98,0,7.47518,-4.36083,-25.2995,Q,Q
2023-03-15 14:27:36:107,0,7.46256,-4.36264,-25.2909,Q,Q
2023-03-15 14:27:36:118,0,7.45043,-4.36621,-25.2795,Q,Q
2023-03-15 14:27:36:127,0,7.4378,-4.36869,-25.2724,Q,Q
2023-03-15 14:27:36:137,0,7.42938,-4.37105,-25.2664,Q,Q
2023-03-15 14:27:36:148,0,7.42621,-4.37311,-25.259,Q,Q
2023-03-15 14:27:36:158,0,7.42331,-4.3785,-25.249,Q,Q
2023-03-15 14:27:36:168,0,7.41883,-4.38321,-25.2401,Q,Q
2023-03-15 14:27:36:178,0,7.40933,-4.38685,-25.2349,Q,Q
2023-03-15 14:27:36:188,0,7.39664,-4.39145,-25.2318,Q,Q
2023-03-15 14:27:36:197,0,7.391,-4.38749,-25.2311,Q,Q
2023-03-15 14:27:36:207,0,7.38265,-4.38908,-25.2265,Q,Q
2023-03-15 14:27:36:218,0,7.37984,-4.39343,-25.2252,Q,Q
2023-03-15 14:27:36:227,0,7.37762,-4.39849,-25.22,Q,Q
2023-03-15 14:27:36:238,0,7.38085,-4.40062,-25.2162,Q,Q
2023-03-15 14:27:36:247,0,7.38403,-4.40571,-25.2112,Q,Q
2023-03-15 14:27:36:258,0,7.38923,-4.41042,-25.2085,Q,Q
2023-03-15 14:27:36:267,0,7.39114,-4.4164,-25.2058,Q,Q
2023-03-15 14:27:36:278,0,7.39352,-4.42037,-25.2031,Q,Q
2023-03-15 14:27:36:288,0,7.39245,-4.42112,-25.2036,Q,Q
2023-03-15 14:27:36:297,0,7.38934,-4.42066,-25.2068,Q,Q
2023-03-15 14:27:36:307,0,7.38522,-4.4202,-25.2037,Q,Q
2023-03-15 14:27:36:317,0,7.38115,-4.42326,-25.2033,Q,Q
2023-03-15 14:27:36:327,0,7.37361,-4.42479,-25.2044,Q,Q
2023-03-15 14:27:36:338,0,7.36441,-4.42449,-25.2065,Q,Q
2023-03-15 14:27:36:347,0,7.3528,-4.42236,-25.2118,Q,Q
2023-03-15 14:27:36:357,0,7.34895,-4.4248,-25.2144,Q,Q
2023-03-15 14:27:36:368,0,7.3459,-4.42455,-25.2175,Q,Q
2023-03-15 14:27:36:377,0,7.34184,-4.4278,-25.2208,Q,Q
2023-03-15 14:27:36:388,0,7.33877,-4.42782,-25.2272,Q,Q
2023-03-15 14:27:36:398,0,7.33535,-4.42916,-25.2321,Q,Q
2023-03-15 14:27:36:408,0,7.33186,-4.43002,-25.2343,Q,Q
2023-03-15 14:27:36:418,0,7.32988,-4.43185,-25.2388,Q,Q
2023-03-15 14:27:36:427,0,7.3251,-4.43417,-25.237,Q,Q
2023-03-15 14:27:36:438,0,7.32578,-4.43348,-25.2402,Q,Q
2023-03-15 14:27:36:448,0,7.32018,-4.43329,-25.2433,Q,Q
2023-03-15 14:27:36:458,0,7.31687,-4.43129,-25.2421,Q,Q
2023-03-15 14:27:36:468,0,7.31116,-4.42469,-25.2391,Q,Q
2023-03-15 14:27:36:478,0,7.31099,-4.41956,-25.2416,Q,Q
2023-03-15 14:27:36:487,0,7.31068,-4.42112,-25.243,Q,Q
2023-03-15 14:27:36:497,0,7.3062,-4.42153,-25.2428,Q,Q
2023-03-15 14:27:36:508,0,7.30247,-4.41944,-25.2453,Q,Q
2023-03-15 14:27:36:518,0,7.29924,-4.41846,-25.2486,Q,Q
2023-03-15 14:27:36:528,0,7.29589,-4.42029,-25.2468,Q,Q
2023-03-15 14:27:36:537,0,7.29221,-4.42019,-25.2472,Q,Q
2023-03-15 14:27:36:548,0,7.28764,-4.42037,-25.2501,Q,Q
2023-03-15 14:27:36:558,0,7.28281,-4.42092,-25.2497,Q,Q
2023-03-15 14:27:36:568,0,7.27628,-4.41965,-25.2528,Q,Q
2023-03-15 14:27:36:578,0,7.2701,-4.42053,-25.2551,Q,Q
2023-03-15 14:27:36:587,0,7.26278,-4.42392,-25.2555,Q,Q
2023-03-15 14:27:36:598,0,7.25436,-4.42458,-25.256,Q,Q
2023-03-15 14:27:36:607,0,7.24584,-4.42746,-25.2605,Q,Q
2023-03-15 14:27:36:618,0,7.23438,-4.43627,-25.2642,Q,Q
2023-03-15 14:27:36:627,0,7.22625,-4.4356,-25.271,Q,Q
2023-03-15 14:27:36:637,0,7.22007,-4.43271,-25.2762,Q,Q
2023-03-15 14:27:36:647,0,7.21737,-4.42928,-25.2791,Q,Q
2023-03-15 14:27:36:657,0,7.2136,-4.42762,-25.28,Q,Q
2023-03-15 14:27:36:667,0,7.21021,-4.42528,-25.2842,Q,Q
2023-03-15 14:27:36:678,0,7.20744,-4.42583,-25.2831,Q,Q
2023-03-15 14:27:36:687,0,7.20592,-4.42661,-25.2885,Q,Q
2023-03-15 14:27:36:697,0,7.20286,-4.43095,-25.2887,Q,Q
2023-03-15 14:27:36:707,0,7.20158,-4.43777,-25.2913,Q,Q
2023-03-15 14:27:36:718,0,7.20048,-4.44219,-25.2941,Q,Q
2023-03-15 14:27:36:727,0,7.20067,-4.44415,-25.2934,Q,Q
2023-03-15 14:27:36:738,0,7.19855,-4.44643,-25.2991,Q,Q
2023-03-15 14:27:36:748,0,7.20119,-4.44572,-25.299,Q,Q
2023-03-15 14:27:36:758,0,7.20069,-4.446,-25.2996,Q,Q
2023-03-15 14:27:36:768,0,7.20062,-4.44542,-25.2982,Q,Q
2023-03-15 14:27:36:778,0,7.20115,-4.4453,-25.2976,Q,Q
2023-03-15 14:27:36:787,0,7.20705,-4.44189,-25.2971,Q,Q
2023-03-15 14:27:36:798,0,7.21399,-4.44378,-25.2967,Q,Q
2023-03-15 14:27:36:807,0,7.21891,-4.44421,-25.2932,Q,Q
2023-03-15 14:27:36:817,0,7.22449,-4.44284,-25.2945,Q,Q
2023-03-15 14:27:36:827,0,7.22517,-4.442,-25.2935,Q,Q
2023-03-15 14:27:36:838,0,7.22469,-4.4402,-25.2951,Q,Q
2023-03-15 14:27:36:848,0,7.22392,-4.43944,-25.3007,Q,Q
2023-03-15 14:27:36:857,0,7.23078,-4.44434,-25.3036,Q,Q
2023-03-15 14:27:36:867,0,7.23482,-4.45286,-25.3043,Q,Q
2023-03-15 14:27:36:878,0,7.2431,-4.46493,-25.3076,Q,Q
2023-03-15 14:27:36:887,0,7.25175,-4.47733,-25.3114,Q,Q
2023-03-15 14:27:36:898,0,7.253,-4.48669,-25.3175,Q,Q
2023-03-15 14:27:36:907,0,7.25639,-4.49324,-25.3247,Q,Q
2023-03-15 14:27:36:917,0,7.25598,-4.49517,-25.3342,Q,Q
2023-03-15 14:27:36:927,0,7.25327,-4.49612,-25.34,Q,Q
2023-03-15 14:27:36:937,0,7.24646,-4.49815,-25.341,Q,Q
2023-03-15 14:27:36:947,0,7.24355,-4.50029,-25.3437,Q,Q
2023-03-15 14:27:36:957,0,7.24001,-4.49881,-25.3436,Q,Q
2023-03-15 14:27:36:967,0,7.23969,-4.4984,-25.3457,Q,Q
2023-03-15 14:27:36:977,0,7.23916,-4.4937,-25.3505,Q,Q
2023-03-15 14:27:36:987,0,7.23593,-4.49091,-25.3558,Q,Q
2023-03-15 14:27:36:997,0,7.23161,-4.49012,-25.3612,Q,Q
2023-03-15 14:27:37:7,0,7.23129,-4.49339,-25.3694,Q,Q
2023-03-15 14:27:37:17,0,7.22975,-4.49768,-25.3789,Q,Q
2023-03-15 14:27:37:27,0,7.23399,-4.50285,-25.3879,Q,Q
2023-03-15 14:27:37:38,0,7.23506,-4.50702,-25.3988,Q,Q
2023-03-15 14:27:37:47,0,7.23458,-4.51148,-25.4139,Q,Q
2023-03-15 14:27:37:58,0,7.23787,-4.51644,-25.4301,Q,Q
2023-03-15 14:27:37:68,0,7.24419,-4.51939,-25.4442,Q,Q
2023-03-15 14:27:37:77,0,7.25346,-4.5229,-25.4551,Q,Q
2023-03-15 14:27:37:87,0,7.25457,-4.5269,-25.4652,Q,Q
2023-03-15 14:27:37:98,0,7.25691,-4.52416,-25.473,Q,Q
2023-03-15 14:27:37:108,0,7.25829,-4.52208,-25.4758,Q,Q
2023-03-15 14:27:37:118,0,7.2552,-4.51569,-25.4748,Q,Q
2023-03-15 14:27:37:127,0,7.25612,-4.50945,-25.472,Q,Q
2023-03-15 14:27:37:138,0,7.25865,-4.51055,-25.4713,Q,Q
2023-03-15 14:27:37:147,0,7.26526,-4.51165,-25.4671,Q,Q
2023-03-15 14:27:37:158,0,7.26936,-4.51322,-25.4663,Q,Q
2023-03-15 14:27:37:168,0,7.27519,-4.51606,-25.467,Q,Q
2023-03-15 14:27:37:178,0,7.27883,-4.51821,-25.4699,Q,Q
2023-03-15 14:27:37:188,0,7.28247,-4.51923,-25.475,Q,Q
2023-03-15 14:27:37:198,0,7.28469,-4.51742,-25.4837,Q,Q
2023-03-15 14:27:37:208,0,7.28434,-4.51529,-25.4896,Q,Q
2023-03-15 14:27:37:218,0,7.28472,-4.5163,-25.4915,Q,Q
2023-03-15 14:27:37:228,0,7.28431,-4.51976,-25.4955,Q,Q
2023-03-15 14:27:37:238,0,7.28087,-4.51789,-25.4997,Q,Q
2023-03-15 14:27:37:248,0,7.27207,-4.51726,-25.5023,Q,Q
2023-03-15 14:27:37:257,0,7.25949,-4.51556,-25.5044,Q,Q
2023-03-15 14:27:37:267,0,7.24933,-4.51378,-25.5087,Q,Q
2023-03-15 14:27:37:278,0,7.24054,-4.51135,-25.512,Q,Q
2023-03-15 14:27:37:288,0,7.23634,-4.51016,-25.5139,Q,Q
2023-03-15 14:27:37:298,0,7.2311,-4.50949,-25.5132,Q,Q
2023-03-15 14:27:37:308,0,7.22476,-4.51101,-25.5114,Q,Q
2023-03-15 14:27:37:318,0,7.21935,-4.51244,-25.5078,Q,Q
2023-03-15 14:27:37:327,0,7.21703,-4.51261,-25.4995,Q,Q
2023-03-15 14:27:37:337,0,7.22005,-4.5079,-25.4877,Q,Q
2023-03-15 14:27:37:347,0,7.22358,-4.50315,-25.4767,Q,Q
2023-03-15 14:27:37:357,0,7.22453,-4.50232,-25.4603,Q,Q
2023-03-15 14:27:37:367,0,7.22535,-4.50143,-25.4442,Q,Q
2023-03-15 14:27:37:377,0,7.22631,-4.49976,-25.4338,Q,Q
2023-03-15 14:27:37:387,0,7.2267,-4.49662,-25.4292,Q,Q
2023-03-15 14:27:37:398,0,7.23233,-4.48895,-25.4273,Q,Q
2023-03-15 14:27:37:408,0,7.24677,-4.47477,-25.4306,Q,Q
2023-03-15 14:27:37:418,0,7.26984,-4.45309,-25.436,Q,Q
2023-03-15 14:27:37:428,0,7.29301,-4.42964,-25.441,Q,Q
2023-03-15 14:27:37:438,0,7.31827,-4.40401,-25.4441,Q,Q
2023-03-15 14:27:37:447,0,7.33885,-4.38126,-25.4479,Q,Q
2023-03-15 14:27:37:458,0,7.35751,-4.36245,-25.4554,Q,Q
2023-03-15 14:27:37:468,0,7.36668,-4.34553,-25.4618,Q,Q
2023-03-15 14:27:37:478,0,7.36795,-4.33701,-25.4696,Q,Q
2023-03-15 14:27:37:487,0,7.36218,-4.33439,-25.4846,Q,Q
2023-03-15 14:27:37:498,0,7.35685,-4.33055,-25.5082,Q,Q
2023-03-15 14:27:37:507,0,7.35238,-4.32375,-25.5414,Q,Q
2023-03-15 14:27:37:517,0,7.3528,-4.31023,-25.5851,Q,Q
2023-03-15 14:27:37:527,0,7.34745,-4.29693,-25.6391,Q,Q
2023-03-15 14:27:37:537,0,7.3349,-4.27248,-25.7056,Q,Q
2023-03-15 14:27:37:548,0,7.31301,-4.24453,-25.7849,Q,Q
2023-03-15 14:27:37:558,0,7.2755,-4.21173,-25.8737,Q,Q
2023-03-15 14:27:37:567,0,7.23228,-4.17174,-25.9758,Q,Q
2023-03-15 14:27:37:577,0,7.17764,-4.1264,-26.0792,Q,Q
2023-03-15 14:27:37:587,0,7.11885,-4.08403,-26.1812,Q,Q
2023-03-15 14:27:37:598,0,7.05407,-4.05553,-26.2815,Q,Q
2023-03-15 14:27:37:608,0,6.98213,-4.03765,-26.3785,Q,Q
2023-03-15 14:27:37:618,0,6.89774,-4.02922,-26.4701,Q,Q
2023-03-15 14:27:37:627,0,6.81142,-4.02527,-26.5663,Q,Q
2023-03-15 14:27:37:638,0,6.72438,-4.02301,-26.6573,Q,Q
2023-03-15 14:27:37:648,0,6.64057,-4.02334,-26.7458,Q,Q
2023-03-15 14:27:37:658,0,6.56599,-4.02494,-26.8296,Q,Q
2023-03-15 14:27:37:668,0,6.49885,-4.03526,-26.9027,Q,Q
2023-03-15 14:27:37:678,0,6.4442,-4.05618,-26.9672,Q,Q
2023-03-15 14:27:37:688,0,6.39875,-4.07572,-27.026,Q,Q
2023-03-15 14:27:37:697,0,6.36296,-4.08515,-27.0784,Q,Q
2023-03-15 14:27:37:708,0,6.33708,-4.09725,-27.1198,Q,Q
2023-03-15 14:27:37:718,0,6.31511,-4.11675,-27.1457,Q,Q
2023-03-15 14:27:37:728,0,6.294,-4.13559,-27.1685,Q,Q
2023-03-15 14:27:37:737,0,6.26923,-4.15241,-27.1847,Q,Q
2023-03-15 14:27:37:748,0,6.2399,-4.15967,-27.1949,Q,Q
2023-03-15 14:27:37:758,0,6.21271,-4.1629,-27.2052,Q,Q
2023-03-15 14:27:37:768,0,6.1914,-4.16231,-27.2128,Q,Q
2023-03-15 14:27:37:778,0,6.18796,-4.15376,-27.2153,Q,Q
2023-03-15 14:27:37:788,0,6.19989,-4.14478,-27.2129,Q,Q
2023-03-15 14:27:37:798,0,6.23421,-4.13401,-27.206,Q,Q
2023-03-15 14:27:37:808,0,6.28371,-4.12168,-27.1888,Q,Q
2023-03-15 14:27:37:818,0,6.33825,-4.11035,-27.1639,Q,Q
2023-03-15 14:27:37:828,0,6.38466,-4.09386,-27.1316,Q,Q
2023-03-15 14:27:37:837,0,6.43233,-4.06755,-27.0982,Q,Q
2023-03-15 14:27:37:847,0,6.47261,-4.03454,-27.0614,Q,Q
2023-03-15 14:27:37:857,0,6.50776,-4.00537,-27.0207,Q,Q
2023-03-15 14:27:37:868,0,6.54007,-3.97446,-26.9801,Q,Q
2023-03-15 14:27:37:878,0,6.56457,-3.94016,-26.9394,Q,Q
2023-03-15 14:27:37:887,0,6.58755,-3.90505,-26.9001,Q,Q
2023-03-15 14:27:37:898,0,6.60046,-3.8628,-26.8612,Q,Q
2023-03-15 14:27:37:908,0,6.6012,-3.8237,-26.8244,Q,Q
2023-03-15 14:27:37:918,0,6.58785,-3.78854,-26.7976,Q,Q
2023-03-15 14:27:37:928,0,6.56332,-3.75102,-26.7765,Q,Q
2023-03-15 14:27:37:938,0,6.54187,-3.71565,-26.7613,Q,Q
2023-03-15 14:27:37:948,0,6.52325,-3.68095,-26.7494,Q,Q
2023-03-15 14:27:37:958,0,6.51217,-3.65243,-26.7423,Q,Q
2023-03-15 14:27:37:967,0,6.50736,-3.62476,-26.7356,Q,Q
2023-03-15 14:27:37:977,0,6.49952,-3.59939,-26.7243,Q,Q
2023-03-15 14:27:37:987,0,6.49046,-3.58001,-26.712,Q,Q
2023-03-15 14:27:37:998,0,6.47499,-3.56855,-26.6952,Q,Q
2023-03-15 14:27:38:7,0,6.44973,-3.55799,-26.6846,Q,Q
2023-03-15 14:27:38:17,0,6.42027,-3.54037,-26.6854,Q,Q
2023-03-15 14:27:38:28,0,6.38469,-3.52178,-26.6916,Q,Q
2023-03-15 14:27:38:38,0,6.35651,-3.5051,-26.6964,Q,Q
2023-03-15 14:27:38:48,0,6.33086,-3.49874,-26.7014,Q,Q
2023-03-15 14:27:38:58,0,6.31517,-3.50454,-26.7097,Q,Q
2023-03-15 14:27:38:68,0,6.30629,-3.5149,-26.721,Q,Q
2023-03-15 14:27:38:77,0,6.29409,-3.52581,-26.739,Q,Q
2023-03-15 14:27:38:87,0,6.28265,-3.53707,-26.7637,Q,Q
2023-03-15 14:27:38:97,0,6.25805,-3.55231,-26.7948,Q,Q
2023-03-15 14:27:38:107,0,6.22937,-3.57794,-26.8287,Q,Q
2023-03-15 14:27:38:118,0,6.19566,-3.60621,-26.8709,Q,Q
2023-03-15 14:27:38:127,0,6.16587,-3.63646,-26.9201,Q,Q
2023-03-15 14:27:38:138,0,6.13824,-3.66692,-26.9753,Q,Q
2023-03-15 14:27:38:148,0,6.11513,-3.69521,-27.0319,Q,Q
2023-03-15 14:27:38:158,0,6.0931,-3.72291,-27.0962,Q,Q
2023-03-15 14:27:38:168,0,6.07665,-3.74716,-27.169,Q,Q
2023-03-15 14:27:38:178,0,6.06478,-3.76843,-27.2462,Q,Q
2023-03-15 14:27:38:188,0,6.05529,-3.79235,-27.3203,Q,Q
2023-03-15 14:27:38:198,0,6.05578,-3.81796,-27.3928,Q,Q
2023-03-15 14:27:38:208,0,6.0546,-3.84042,-27.4615,Q,Q
2023-03-15 14:27:38:217,0,6.05203,-3.86325,-27.5229,Q,Q
2023-03-15 14:27:38:228,0,6.0488,-3.88247,-27.5819,Q,Q
2023-03-15 14:27:38:238,0,6.03693,-3.90252,-27.6375,Q,Q
2023-03-15 14:27:38:248,0,6.02722,-3.92358,-27.697,Q,Q
2023-03-15 14:27:38:258,0,6.01316,-3.94454,-27.7534,Q,Q
2023-03-15 14:27:38:268,0,5.99516,-3.96478,-27.8133,Q,Q
2023-03-15 14:27:38:278,0,5.97565,-3.98052,-27.868,Q,Q
2023-03-15 14:27:38:288,0,5.95576,-3.9977,-27.9228,Q,Q
2023-03-15 14:27:38:298,0,5.9284,-4.01812,-27.9763,Q,Q
2023-03-15 14:27:38:308,0,5.90469,-4.0347,-28.0252,Q,Q
2023-03-15 14:27:38:318,0,5.88242,-4.04521,-28.073,Q,Q
2023-03-15 14:27:38:327,0,5.86331,-4.05705,-28.1188,Q,Q
2023-03-15 14:27:38:338,0,5.85239,-4.06539,-28.1578,Q,Q
2023-03-15 14:27:38:347,0,5.85441,-4.06768,-28.1875,Q,Q
2023-03-15 14:27:38:357,0,5.86891,-4.06598,-28.2146,Q,Q
2023-03-15 14:27:38:367,0,5.89333,-4.07002,-28.2339,Q,Q
2023-03-15 14:27:38:378,0,5.92226,-4.07412,-28.2508,Q,Q
2023-03-15 14:27:38:388,0,5.95538,-4.08209,-28.2624,Q,Q
2023-03-15 14:27:38:398,0,5.98392,-4.08553,-28.2724,Q,Q
2023-03-15 14:27:38:407,0,6.00734,-4.08447,-28.2805,Q,Q
2023-03-15 14:27:38:418,0,6.02637,-4.08119,-28.29,Q,Q
2023-03-15 14:27:38:427,0,6.03861,-4.07244,-28.3024,Q,Q
2023-03-15 14:27:38:437,0,6.04541,-4.06343,-28.3118,Q,Q
2023-03-15 14:27:38:447,0,6.04746,-4.05504,-28.3137,Q,Q
2023-03-15 14:27:38:458,0,6.04337,-4.04875,-28.3185,Q,Q
2023-03-15 14:27:38:468,0,6.03293,-4.04113,-28.3206,Q,Q
2023-03-15 14:27:38:478,0,6.0154,-4.03562,-28.3211,Q,Q
2023-03-15 14:27:38:488,0,5.99451,-4.02682,-28.3192,Q,Q
2023-03-15 14:27:38:498,0,5.96799,-4.01782,-28.3157,Q,Q
2023-03-15 14:27:38:507,0,5.9439,-4.0103,-28.3128,Q,Q
2023-03-15 14:27:38:517,0,5.92462,-4.00097,-28.3015,Q,Q
2023-03-15 14:27:38:527,0,5.9156,-3.98938,-28.295,Q,Q
2023-03-15 14:27:38:537,0,5.91056,-3.97857,-28.2839,Q,Q
2023-03-15 14:27:38:547,0,5.9097,-3.97105,-28.2767,Q,Q
2023-03-15 14:27:38:557,0,5.90176,-3.96046,-28.2685,Q,Q
2023-03-15 14:27:38:567,0,5.89187,-3.94467,-28.2608,Q,Q
2023-03-15 14:27:38:577,0,5.88152,-3.9287,-28.2569,Q,Q
2023-03-15 14:27:38:587,0,5.87686,-3.90845,-28.2543,Q,Q
2023-03-15 14:27:38:597,0,5.8751,-3.89212,-28.2476,Q,Q
2023-03-15 14:27:38:607,0,5.87996,-3.8768,-28.2433,Q,Q
2023-03-15 14:27:38:617,0,5.88911,-3.8632,-28.2349,Q,Q
2023-03-15 14:27:38:627,0,5.90017,-3.85379,-28.2231,Q,Q
2023-03-15 14:27:38:637,0,5.89831,-3.8408,-28.2093,Q,Q
2023-03-15 14:27:38:647,0,5.89089,-3.83256,-28.1932,Q,Q
2023-03-15 14:27:38:657,0,5.88721,-3.82539,-28.172,Q,Q
2023-03-15 14:27:38:667,0,5.88256,-3.82438,-28.1455,Q,Q
2023-03-15 14:27:38:677,0,5.88176,-3.82393,-28.1112,Q,Q
2023-03-15 14:27:38:687,0,5.87584,-3.83152,-28.0739,Q,Q
2023-03-15 14:27:38:697,0,5.8635,-3.84058,-28.0343,Q,Q
2023-03-15 14:27:38:707,0,5.84904,-3.84979,-27.995,Q,Q
2023-03-15 14:27:38:717,0,5.83596,-3.86302,-27.9523,Q,Q
2023-03-15 14:27:38:727,0,5.83291,-3.87853,-27.9101,Q,Q
2023-03-15 14:27:38:737,0,5.82675,-3.89728,-27.8605,Q,Q
2023-03-15 14:27:38:747,0,5.81492,-3.9163,-27.8041,Q,Q
2023-03-15 14:27:38:757,0,5.79962,-3.93571,-27.7492,Q,Q
2023-03-15 14:27:38:767,0,5.78111,-3.95876,-27.6921,Q,Q
2023-03-15 14:27:38:777,0,5.75649,-3.9815,-27.6424,Q,Q
2023-03-15 14:27:38:787,0,5.72752,-3.99758,-27.6032,Q,Q
2023-03-15 14:27:38:797,0,5.69505,-4.01143,-27.5676,Q,Q
2023-03-15 14:27:38:807,0,5.67281,-4.02395,-27.5335,Q,Q
2023-03-15 14:27:38:817,0,5.65526,-4.03641,-27.5051,Q,Q
2023-03-15 14:27:38:827,0,5.63898,-4.04694,-27.4846,Q,Q
2023-03-15 14:27:38:837,0,5.61907,-4.05245,-27.4664,Q,Q
2023-03-15 14:27:38:847,0,5.59238,-4.05865,-27.4519,Q,Q
2023-03-15 14:27:38:857,0,5.56136,-4.06329,-27.4394,Q,Q
2023-03-15 14:27:38:867,0,5.53137,-4.06796,-27.4321,Q,Q
2023-03-15 14:27:38:877,0,5.49425,-4.07076,-27.4203,Q,Q
2023-03-15 14:27:38:887,0,5.4598,-4.07687,-27.4131,Q,Q
2023-03-15 14:27:38:897,0,5.42817,-4.07885,-27.405,Q,Q
2023-03-15 14:27:38:907,0,5.40176,-4.07727,-27.3984,Q,Q
2023-03-15 14:27:38:917,0,5.38351,-4.07146,-27.3916,Q,Q
