Timestamp_cmd,imu_cmd,roll_delta,pitch_delta,yaw_delta,voice_type,voice_length
2023-03-14 21:25:12:351,0,-14.0705,6.5308,24.4736,Q,Q
2023-03-14 21:25:12:359,0,-14.0665,6.52867,24.4735,Q,Q
2023-03-14 21:25:12:369,0,-14.0641,6.52852,24.4749,Q,Q
2023-03-14 21:25:12:379,0,-14.0602,6.52895,24.4779,Q,Q
2023-03-14 21:25:12:390,0,-14.0579,6.52447,24.4791,Q,Q
2023-03-14 21:25:12:400,0,-14.0534,6.51752,24.4805,Q,Q
2023-03-14 21:25:12:409,0,-14.0449,6.51405,24.4866,Q,Q
2023-03-14 21:25:12:420,0,-14.0376,6.5064,24.4913,Q,Q
2023-03-14 21:25:12:429,0,-14.0311,6.49606,24.4984,Q,Q
2023-03-14 21:25:12:440,0,-14.0265,6.48704,24.5061,Q,Q
2023-03-14 21:25:12:449,0,-14.0212,6.48252,24.5151,Q,Q
2023-03-14 21:25:12:459,0,-14.0232,6.47378,24.5244,Q,Q
2023-03-14 21:25:12:470,0,-14.0224,6.4695,24.5332,Q,Q
2023-03-14 21:25:12:480,0,-14.0223,6.462,24.5445,Q,Q
2023-03-14 21:25:12:489,0,-14.0272,6.45577,24.5558,Q,Q
2023-03-14 21:25:12:500,0,-14.0282,6.4525,24.5642,Q,Q
2023-03-14 21:25:12:509,0,-14.0307,6.44787,24.5721,Q,Q
2023-03-14 21:25:12:519,0,-14.032,6.44466,24.5749,Q,Q
2023-03-14 21:25:12:529,0,-14.0361,6.443,24.5795,Q,Q
2023-03-14 21:25:12:539,0,-14.0374,6.44493,24.5776,Q,Q
2023-03-14 21:25:12:550,0,-14.0336,6.44578,24.5748,Q,Q
2023-03-14 21:25:12:560,0,-14.0291,6.44972,24.571,Q,Q
2023-03-14 21:25:12:569,0,-14.0271,6.45176,24.5632,Q,Q
2023-03-14 21:25:12:579,0,-14.0255,6.45933,24.5535,Q,Q
2023-03-14 21:25:12:590,0,-14.0233,6.46283,24.5387,Q,Q
2023-03-14 21:25:12:600,0,-14.0173,6.47042,24.5254,Q,Q
2023-03-14 21:25:12:609,0,-14.0199,6.47844,24.5064,Q,Q
2023-03-14 21:25:12:620,0,-14.0209,6.483,24.4918,Q,Q
2023-03-14 21:25:12:630,0,-14.0203,6.48964,24.4758,Q,Q
2023-03-14 21:25:12:640,0,-14.0235,6.49628,24.4605,Q,Q
2023-03-14 21:25:12:649,0,-14.0266,6.50335,24.4507,Q,Q
2023-03-14 21:25:12:660,0,-14.0286,6.50798,24.439,Q,Q
2023-03-14 21:25:12:670,0,-14.0294,6.51596,24.4309,Q,Q
2023-03-14 21:25:12:680,0,-14.0341,6.52262,24.4259,Q,Q
2023-03-14 21:25:12:690,0,-14.0374,6.5259,24.4206,Q,Q
2023-03-14 21:25:12:700,0,-14.0405,6.52636,24.4198,Q,Q
2023-03-14 21:25:12:709,0,-14.0438,6.52875,24.4139,Q,Q
2023-03-14 21:25:12:720,0,-14.0517,6.52653,24.4062,Q,Q
2023-03-14 21:25:12:730,0,-14.0599,6.52907,24.3986,Q,Q
2023-03-14 21:25:12:740,0,-14.0652,6.53341,24.3913,Q,Q
2023-03-14 21:25:12:750,0,-14.0707,6.53233,24.385,Q,Q
2023-03-14 21:25:12:760,0,-14.075,6.5319,24.3787,Q,Q
2023-03-14 21:25:12:770,0,-14.0776,6.53011,24.3738,Q,Q
2023-03-14 21:25:12:779,0,-14.0809,6.52699,24.3706,Q,Q
2023-03-14 21:25:12:789,0,-14.0816,6.52542,24.3673,Q,Q
2023-03-14 21:25:12:799,0,-14.0776,6.52303,24.3594,Q,Q
2023-03-14 21:25:12:809,0,-14.0761,6.52111,24.3539,Q,Q
2023-03-14 21:25:12:819,0,-14.0722,6.52223,24.345,Q,Q
2023-03-14 21:25:12:829,0,-14.0725,6.52313,24.3303,Q,Q
2023-03-14 21:25:12:839,0,-14.0737,6.52342,24.3128,Q,Q
2023-03-14 21:25:12:849,0,-14.0784,6.52307,24.2972,Q,Q
2023-03-14 21:25:12:859,0,-14.0812,6.52142,24.2866,Q,Q
2023-03-14 21:25:12:869,0,-14.0863,6.52228,24.2803,Q,Q
2023-03-14 21:25:12:879,0,-14.092,6.52503,24.2742,Q,Q
2023-03-14 21:25:12:889,0,-14.0949,6.5262,24.2737,Q,Q
2023-03-14 21:25:12:899,0,-14.0992,6.52702,24.275,Q,Q
2023-03-14 21:25:12:909,0,-14.1016,6.52885,24.2791,Q,Q
2023-03-14 21:25:12:919,0,-14.1104,6.53197,24.2827,Q,Q
2023-03-14 21:25:12:929,0,-14.1158,6.52906,24.2917,Q,Q
2023-03-14 21:25:12:939,0,-14.1209,6.52515,24.2982,Q,Q
2023-03-14 21:25:12:949,0,-14.1273,6.51947,24.3066,Q,Q
2023-03-14 21:25:12:959,0,-14.1378,6.51645,24.306,Q,Q
2023-03-14 21:25:12:969,0,-14.1516,6.51439,24.3068,Q,Q
2023-03-14 21:25:12:979,0,-14.1559,6.51166,24.3057,Q,Q
2023-03-14 21:25:12:989,0,-14.1628,6.49732,24.3068,Q,Q
2023-03-14 21:25:12:999,0,-14.1742,6.48147,24.314,Q,Q
2023-03-14 21:25:13:9,0,-14.1939,6.4675,24.3208,Q,Q
2023-03-14 21:25:13:19,0,-14.2066,6.45796,24.319,Q,Q
2023-03-14 21:25:13:29,0,-14.2129,6.45154,24.3175,Q,Q
2023-03-14 21:25:13:39,0,-14.2168,6.44698,24.3137,Q,Q
2023-03-14 21:25:13:49,0,-14.2201,6.44827,24.3089,Q,Q
2023-03-14 21:25:13:59,0,-14.2219,6.44903,24.3025,Q,Q
2023-03-14 21:25:13:69,0,-14.2178,6.45271,24.3013,Q,Q
2023-03-14 21:25:13:79,0,-14.2109,6.45974,24.2991,Q,Q
2023-03-14 21:25:13:89,0,-14.206,6.46702,24.3015,Q,Q
2023-03-14 21:25:13:99,0,-14.2088,6.47443,24.2966,Q,Q
2023-03-14 21:25:13:109,0,-14.213,6.47939,24.2925,Q,Q
2023-03-14 21:25:13:119,0,-14.2165,6.48983,24.2893,Q,Q
2023-03-14 21:25:13:129,0,-14.2208,6.49925,24.2868,Q,Q
2023-03-14 21:25:13:139,0,-14.23,6.50358,24.2824,Q,Q
2023-03-14 21:25:13:149,0,-14.2376,6.51324,24.2787,Q,Q
2023-03-14 21:25:13:159,0,-14.2482,6.52247,24.2731,Q,Q
2023-03-14 21:25:13:169,0,-14.2621,6.52733,24.2678,Q,Q
2023-03-14 21:25:13:179,0,-14.2791,6.5297,24.2601,Q,Q
2023-03-14 21:25:13:189,0,-14.2932,6.5288,24.2535,Q,Q
2023-03-14 21:25:13:199,0,-14.3074,6.52887,24.2477,Q,Q
2023-03-14 21:25:13:209,0,-14.3202,6.53007,24.2459,Q,Q
2023-03-14 21:25:13:219,0,-14.3313,6.53139,24.2414,Q,Q
2023-03-14 21:25:13:229,0,-14.3452,6.53139,24.2367,Q,Q
2023-03-14 21:25:13:239,0,-14.3575,6.53389,24.2324,Q,Q
2023-03-14 21:25:13:249,0,-14.3654,6.53221,24.2262,Q,Q
2023-03-14 21:25:13:259,0,-14.3768,6.53016,24.2264,Q,Q
2023-03-14 21:25:13:269,0,-14.3938,6.52221,24.2321,Q,Q
2023-03-14 21:25:13:280,0,-14.4261,6.50513,24.2394,Q,Q
2023-03-14 21:25:13:290,0,-14.4628,6.47537,24.2516,Q,Q
2023-03-14 21:25:13:300,0,-14.5128,6.43591,24.2676,Q,Q
2023-03-14 21:25:13:309,0,-14.5742,6.39093,24.2912,Q,Q
2023-03-14 21:25:13:320,0,-14.6385,6.34345,24.3148,Q,Q
2023-03-14 21:25:13:330,0,-14.7059,6.30651,24.3261,Q,Q
2023-03-14 21:25:13:340,0,-14.767,6.2893,24.3301,Q,Q
2023-03-14 21:25:13:350,0,-14.8212,6.29514,24.3132,Q,Q
2023-03-14 21:25:13:360,0,-14.8694,6.31876,24.2843,Q,Q
2023-03-14 21:25:13:369,0,-14.9139,6.36555,24.2415,Q,Q
2023-03-14 21:25:13:380,0,-14.9633,6.42784,24.1877,Q,Q
2023-03-14 21:25:13:390,0,-15.0026,6.50126,24.131,Q,Q
2023-03-14 21:25:13:400,0,-15.0285,6.5828,24.0758,Q,Q
2023-03-14 21:25:13:410,0,-15.0322,6.66699,24.0299,Q,Q
2023-03-14 21:25:13:420,0,-14.9963,6.75401,24.0037,Q,Q
2023-03-14 21:25:13:429,0,-14.9257,6.82809,24.0004,Q,Q
2023-03-14 21:25:13:439,0,-14.8377,6.89343,24.0185,Q,Q
2023-03-14 21:25:13:450,0,-14.7411,6.93769,24.0493,Q,Q
2023-03-14 21:25:13:460,0,-14.6601,6.9583,24.0907,Q,Q
2023-03-14 21:25:13:469,0,-14.6023,6.94621,24.1333,Q,Q
2023-03-14 21:25:13:480,0,-14.5749,6.90275,24.1746,Q,Q
2023-03-14 21:25:13:490,0,-14.5702,6.82881,24.2083,Q,Q
2023-03-14 21:25:13:500,0,-14.5889,6.73507,24.234,Q,Q
2023-03-14 21:25:13:510,0,-14.6265,6.66008,24.2577,Q,Q
2023-03-14 21:25:13:520,0,-14.6512,6.59247,24.2776,Q,Q
2023-03-14 21:25:13:530,0,-14.6464,6.51587,24.3236,Q,Q
2023-03-14 21:25:13:540,0,-14.6204,6.4436,24.3921,Q,Q
2023-03-14 21:25:13:550,0,-14.5926,6.36322,24.4717,Q,Q
2023-03-14 21:25:13:560,0,-14.5764,6.2605,24.561,Q,Q
2023-03-14 21:25:13:569,0,-14.5999,6.1381,24.6497,Q,Q
2023-03-14 21:25:13:580,0,-14.6701,5.99622,24.7192,Q,Q
2023-03-14 21:25:13:589,0,-14.7804,5.83492,24.7636,Q,Q
2023-03-14 21:25:13:600,0,-14.925,5.6784,24.783,Q,Q
2023-03-14 21:25:13:609,0,-15.0796,5.53638,24.793,Q,Q
2023-03-14 21:25:13:619,0,-15.2288,5.40682,24.8077,Q,Q
2023-03-14 21:25:13:630,0,-15.3689,5.27588,24.8386,Q,Q
2023-03-14 21:25:13:640,0,-15.4989,5.13166,24.8912,Q,Q
2023-03-14 21:25:13:650,0,-15.6326,4.9681,24.9631,Q,Q
2023-03-14 21:25:13:660,0,-15.7753,4.78586,25.0418,Q,Q
2023-03-14 21:25:13:670,0,-15.9304,4.54873,25.1379,Q,Q
2023-03-14 21:25:13:680,0,-16.1354,4.26205,25.2553,Q,Q
2023-03-14 21:25:13:690,0,-16.4259,3.94392,25.3576,Q,Q
2023-03-14 21:25:13:700,0,-16.7943,3.63304,25.3801,Q,Q
2023-03-14 21:25:13:710,0,-17.2162,3.37778,25.2857,Q,Q
2023-03-14 21:25:13:719,0,-17.6606,3.20364,25.0827,Q,Q
2023-03-14 21:25:13:730,0,-18.0788,3.092,24.8039,Q,Q
2023-03-14 21:25:13:740,0,-18.455,3.01265,24.4947,Q,Q
2023-03-14 21:25:13:750,0,-18.7722,2.93821,24.1915,Q,Q
2023-03-14 21:25:13:759,0,-19.0235,2.85737,23.9053,Q,Q
2023-03-14 21:25:13:770,0,-19.2247,2.75816,23.6443,Q,Q
2023-03-14 21:25:13:780,0,-19.3964,2.63196,23.4125,Q,Q
2023-03-14 21:25:13:790,0,-19.5433,2.48009,23.2192,Q,Q
2023-03-14 21:25:13:800,0,-19.6635,2.30053,23.0738,Q,Q
2023-03-14 21:25:13:810,0,-19.76,2.10707,22.9718,Q,Q
2023-03-14 21:25:13:820,0,-19.8209,1.90954,22.9131,Q,Q
2023-03-14 21:25:13:830,0,-19.8561,1.71245,22.8877,Q,Q
2023-03-14 21:25:13:840,0,-19.8719,1.52261,22.8931,Q,Q
2023-03-14 21:25:13:850,0,-19.8865,1.33349,22.9195,Q,Q
2023-03-14 21:25:13:860,0,-19.9139,1.14851,22.9461,Q,Q
2023-03-14 21:25:13:870,0,-19.9627,0.967372,22.9488,Q,Q
2023-03-14 21:25:13:879,0,-20.03,0.79022,22.9093,Q,Q
2023-03-14 21:25:13:890,0,-20.1115,0.609569,22.8446,Q,Q
2023-03-14 21:25:13:900,0,-20.1928,0.41935,22.7803,Q,Q
2023-03-14 21:25:13:909,0,-20.2573,0.222692,22.7272,Q,Q
2023-03-14 21:25:13:920,0,-20.299,0.034952,22.6859,Q,Q
2023-03-14 21:25:13:930,0,-20.319,-0.137998,22.6577,Q,Q
2023-03-14 21:25:13:939,0,-20.3302,-0.286589,22.6417,Q,Q
2023-03-14 21:25:13:950,0,-20.341,-0.414048,22.6382,Q,Q
2023-03-14 21:25:13:960,0,-20.3606,-0.523022,22.6387,Q,Q
2023-03-14 21:25:13:970,0,-20.3985,-0.609601,22.6364,Q,Q
2023-03-14 21:25:13:980,0,-20.4436,-0.682105,22.6261,Q,Q
2023-03-14 21:25:13:990,0,-20.4831,-0.736599,22.601,Q,Q
2023-03-14 21:25:14:0,0,-20.5159,-0.776002,22.5657,Q,Q
2023-03-14 21:25:14:10,0,-20.5343,-0.801946,22.5273,Q,Q
2023-03-14 21:25:14:19,0,-20.5376,-0.818829,22.4901,Q,Q
2023-03-14 21:25:14:29,0,-20.5303,-0.827722,22.4531,Q,Q
2023-03-14 21:25:14:40,0,-20.5204,-0.827113,22.424,Q,Q
2023-03-14 21:25:14:50,0,-20.5102,-0.816494,22.3962,Q,Q
2023-03-14 21:25:14:60,0,-20.4965,-0.791949,22.3658,Q,Q
2023-03-14 21:25:14:70,0,-20.4784,-0.762777,22.3334,Q,Q
2023-03-14 21:25:14:80,0,-20.4576,-0.72094,22.3049,Q,Q
2023-03-14 21:25:14:90,0,-20.4373,-0.667206,22.2853,Q,Q
2023-03-14 21:25:14:100,0,-20.4213,-0.606637,22.2759,Q,Q
2023-03-14 21:25:14:110,0,-20.4048,-0.536658,22.2754,Q,Q
2023-03-14 21:25:14:120,0,-20.3885,-0.443764,22.2858,Q,Q
2023-03-14 21:25:14:129,0,-20.3629,-0.334384,22.3003,Q,Q
2023-03-14 21:25:14:140,0,-20.3247,-0.212653,22.3172,Q,Q
2023-03-14 21:25:14:150,0,-20.2782,-0.0853752,22.3468,Q,Q
2023-03-14 21:25:14:160,0,-20.225,0.0386879,22.3809,Q,Q
2023-03-14 21:25:14:170,0,-20.1665,0.15667,22.4116,Q,Q
2023-03-14 21:25:14:180,0,-20.1089,0.263139,22.4372,Q,Q
2023-03-14 21:25:14:190,0,-20.0461,0.358138,22.4551,Q,Q
2023-03-14 21:25:14:200,0,-19.9738,0.444322,22.4631,Q,Q
2023-03-14 21:25:14:210,0,-19.8986,0.52335,22.4547,Q,Q
2023-03-14 21:25:14:220,0,-19.8124,0.595878,22.4291,Q,Q
2023-03-14 21:25:14:230,0,-19.7126,0.671387,22.3795,Q,Q
2023-03-14 21:25:14:240,0,-19.6086,0.746663,22.3139,Q,Q
2023-03-14 21:25:14:249,0,-19.4974,0.817342,22.2318,Q,Q
2023-03-14 21:25:14:259,0,-19.3865,0.881829,22.1384,Q,Q
2023-03-14 21:25:14:270,0,-19.2662,0.94412,22.0397,Q,Q
2023-03-14 21:25:14:280,0,-19.1413,1.00732,21.9413,Q,Q
2023-03-14 21:25:14:290,0,-19.0078,1.07016,21.8427,Q,Q
2023-03-14 21:25:14:300,0,-18.8617,1.13481,21.7476,Q,Q
2023-03-14 21:25:14:310,0,-18.71,1.19951,21.6671,Q,Q
2023-03-14 21:25:14:320,0,-18.5583,1.26381,21.5951,Q,Q
2023-03-14 21:25:14:330,0,-18.4142,1.32621,21.53,Q,Q
2023-03-14 21:25:14:340,0,-18.2757,1.38478,21.4811,Q,Q
2023-03-14 21:25:14:350,0,-18.1498,1.43638,21.4441,Q,Q
2023-03-14 21:25:14:360,0,-18.0332,1.48094,21.4137,Q,Q
2023-03-14 21:25:14:369,0,-17.9236,1.52261,21.3936,Q,Q
2023-03-14 21:25:14:380,0,-17.8137,1.56745,21.3825,Q,Q
2023-03-14 21:25:14:390,0,-17.7108,1.60553,21.3872,Q,Q
2023-03-14 21:25:14:400,0,-17.6072,1.64629,21.3988,Q,Q
2023-03-14 21:25:14:410,0,-17.5093,1.68999,21.4145,Q,Q
2023-03-14 21:25:14:420,0,-17.4165,1.73008,21.4463,Q,Q
2023-03-14 21:25:14:430,0,-17.332,1.77141,21.4797,Q,Q
2023-03-14 21:25:14:440,0,-17.2486,1.81401,21.5129,Q,Q
2023-03-14 21:25:14:450,0,-17.1645,1.85214,21.5372,Q,Q
2023-03-14 21:25:14:460,0,-17.0762,1.88955,21.5503,Q,Q
2023-03-14 21:25:14:470,0,-16.9872,1.93185,21.5426,Q,Q
2023-03-14 21:25:14:480,0,-16.8937,1.97058,21.5202,Q,Q
2023-03-14 21:25:14:490,0,-16.8041,2.00377,21.4755,Q,Q
2023-03-14 21:25:14:500,0,-16.7168,2.03639,21.4177,Q,Q
2023-03-14 21:25:14:510,0,-16.6295,2.06421,21.3485,Q,Q
2023-03-14 21:25:14:520,0,-16.5439,2.08964,21.2606,Q,Q
2023-03-14 21:25:14:530,0,-16.4526,2.11271,21.1567,Q,Q
2023-03-14 21:25:14:540,0,-16.3575,2.13398,21.0353,Q,Q
2023-03-14 21:25:14:550,0,-16.2588,2.15756,20.9,Q,Q
2023-03-14 21:25:14:560,0,-16.1546,2.18248,20.7494,Q,Q
2023-03-14 21:25:14:570,0,-16.055,2.2077,20.5832,Q,Q
2023-03-14 21:25:14:580,0,-15.9562,2.23609,20.4126,Q,Q
2023-03-14 21:25:14:590,0,-15.859,2.26127,20.2361,Q,Q
2023-03-14 21:25:14:600,0,-15.7654,2.28544,20.0598,Q,Q
2023-03-14 21:25:14:610,0,-15.6673,2.31064,19.8826,Q,Q
2023-03-14 21:25:14:620,0,-15.5705,2.34243,19.698,Q,Q
2023-03-14 21:25:14:630,0,-15.4638,2.3746,19.5059,Q,Q
2023-03-14 21:25:14:639,0,-15.3668,2.41462,19.3049,Q,Q
2023-03-14 21:25:14:649,0,-15.2679,2.45304,19.1092,Q,Q
2023-03-14 21:25:14:659,0,-15.1758,2.48997,18.911,Q,Q
2023-03-14 21:25:14:669,0,-15.0844,2.52702,18.7204,Q,Q
2023-03-14 21:25:14:679,0,-14.9984,2.56749,18.5378,Q,Q
2023-03-14 21:25:14:689,0,-14.9158,2.60509,18.3625,Q,Q
2023-03-14 21:25:14:700,0,-14.8348,2.64834,18.1962,Q,Q
2023-03-14 21:25:14:710,0,-14.7551,2.69168,18.0357,Q,Q
2023-03-14 21:25:14:720,0,-14.6829,2.74059,17.8803,Q,Q
2023-03-14 21:25:14:730,0,-14.6086,2.79239,17.7275,Q,Q
2023-03-14 21:25:14:739,0,-14.5394,2.84211,17.5882,Q,Q
2023-03-14 21:25:14:749,0,-14.4777,2.89018,17.4589,Q,Q
2023-03-14 21:25:14:760,0,-14.4208,2.93672,17.3459,Q,Q
2023-03-14 21:25:14:770,0,-14.3694,2.9805,17.244,Q,Q
2023-03-14 21:25:14:780,0,-14.3179,3.02104,17.1551,Q,Q
2023-03-14 21:25:14:789,0,-14.266,3.05828,17.0811,Q,Q
2023-03-14 21:25:14:800,0,-14.219,3.089,17.0239,Q,Q
2023-03-14 21:25:14:810,0,-14.1759,3.11472,16.9766,Q,Q
2023-03-14 21:25:14:820,0,-14.139,3.14065,16.9418,Q,Q
2023-03-14 21:25:14:830,0,-14.1091,3.16765,16.9213,Q,Q
2023-03-14 21:25:14:840,0,-14.0849,3.18785,16.9104,Q,Q
2023-03-14 21:25:14:850,0,-14.0691,3.20987,16.9048,Q,Q
2023-03-14 21:25:14:859,0,-14.0596,3.22695,16.9028,Q,Q
2023-03-14 21:25:14:870,0,-14.0518,3.24336,16.9064,Q,Q
2023-03-14 21:25:14:880,0,-14.0464,3.25548,16.9139,Q,Q
2023-03-14 21:25:14:889,0,-14.0417,3.26842,16.9171,Q,Q
2023-03-14 21:25:14:899,0,-14.0388,3.2795,16.9193,Q,Q
2023-03-14 21:25:14:910,0,-14.0326,3.28588,16.9225,Q,Q
2023-03-14 21:25:14:920,0,-14.0266,3.29077,16.922,Q,Q
2023-03-14 21:25:14:930,0,-14.0173,3.29209,16.9119,Q,Q
2023-03-14 21:25:14:940,0,-14.0039,3.29656,16.8996,Q,Q
2023-03-14 21:25:14:949,0,-13.9938,3.30077,16.8783,Q,Q
2023-03-14 21:25:14:959,0,-13.9881,3.30304,16.854,Q,Q
2023-03-14 21:25:14:969,0,-13.9797,3.30143,16.833,Q,Q
2023-03-14 21:25:14:979,0,-13.9768,3.29867,16.8131,Q,Q
2023-03-14 21:25:14:989,0,-13.9715,3.2974,16.7958,Q,Q
2023-03-14 21:25:15:0,0,-13.9621,3.29564,16.7764,Q,Q
2023-03-14 21:25:15:10,0,-13.9493,3.29529,16.7473,Q,Q
2023-03-14 21:25:15:19,0,-13.936,3.29812,16.7083,Q,Q
2023-03-14 21:25:15:30,0,-13.9242,3.30326,16.6596,Q,Q
2023-03-14 21:25:15:40,0,-13.9126,3.30642,16.6061,Q,Q
2023-03-14 21:25:15:50,0,-13.8921,3.30695,16.5537,Q,Q
2023-03-14 21:25:15:60,0,-13.8715,3.30727,16.5009,Q,Q
2023-03-14 21:25:15:70,0,-13.8521,3.30738,16.4517,Q,Q
2023-03-14 21:25:15:80,0,-13.8339,3.30627,16.4046,Q,Q
2023-03-14 21:25:15:90,0,-13.8198,3.30753,16.3597,Q,Q
2023-03-14 21:25:15:100,0,-13.8009,3.31053,16.3163,Q,Q
2023-03-14 21:25:15:110,0,-13.7817,3.3195,16.2739,Q,Q
2023-03-14 21:25:15:120,0,-13.7594,3.33283,16.2362,Q,Q
2023-03-14 21:25:15:129,0,-13.7385,3.34526,16.1992,Q,Q
2023-03-14 21:25:15:140,0,-13.7164,3.36273,16.1734,Q,Q
2023-03-14 21:25:15:150,0,-13.697,3.37873,16.1552,Q,Q
2023-03-14 21:25:15:159,0,-13.6817,3.39457,16.1416,Q,Q
2023-03-14 21:25:15:169,0,-13.6657,3.41053,16.1263,Q,Q
2023-03-14 21:25:15:180,0,-13.6476,3.42433,16.1174,Q,Q
2023-03-14 21:25:15:190,0,-13.6298,3.43815,16.1102,Q,Q
2023-03-14 21:25:15:200,0,-13.6099,3.45244,16.1077,Q,Q
2023-03-14 21:25:15:209,0,-13.5912,3.46459,16.1087,Q,Q
2023-03-14 21:25:15:220,0,-13.5714,3.47467,16.1187,Q,Q
2023-03-14 21:25:15:229,0,-13.5434,3.47835,16.133,Q,Q
2023-03-14 21:25:15:239,0,-13.504,3.48255,16.1585,Q,Q
2023-03-14 21:25:15:249,0,-13.4628,3.48187,16.1901,Q,Q
2023-03-14 21:25:15:260,0,-13.4269,3.48668,16.2237,Q,Q
2023-03-14 21:25:15:270,0,-13.399,3.48615,16.2662,Q,Q
2023-03-14 21:25:15:280,0,-13.374,3.49144,16.314,Q,Q
2023-03-14 21:25:15:290,0,-13.3585,3.49817,16.3694,Q,Q
2023-03-14 21:25:15:299,0,-13.3499,3.50633,16.4249,Q,Q
2023-03-14 21:25:15:310,0,-13.3447,3.51701,16.4849,Q,Q
2023-03-14 21:25:15:320,0,-13.3415,3.53545,16.5467,Q,Q
2023-03-14 21:25:15:330,0,-13.342,3.55618,16.6117,Q,Q
2023-03-14 21:25:15:340,0,-13.3452,3.57882,16.6772,Q,Q
2023-03-14 21:25:15:349,0,-13.3512,3.60606,16.7528,Q,Q
2023-03-14 21:25:15:360,0,-13.3601,3.63431,16.8287,Q,Q
2023-03-14 21:25:15:370,0,-13.3735,3.6513,16.8995,Q,Q
2023-03-14 21:25:15:380,0,-13.3974,3.65641,16.9577,Q,Q
2023-03-14 21:25:15:390,0,-13.4095,3.69248,16.9961,Q,Q
2023-03-14 21:25:15:400,0,-13.3994,3.72369,17.0234,Q,Q
2023-03-14 21:25:15:410,0,-13.3814,3.75395,17.0451,Q,Q
2023-03-14 21:25:15:420,0,-13.3676,3.7815,17.0608,Q,Q
2023-03-14 21:25:15:429,0,-13.3554,3.78767,17.0615,Q,Q
2023-03-14 21:25:15:439,0,-13.3488,3.7909,17.049,Q,Q
2023-03-14 21:25:15:449,0,-13.345,3.79141,17.0378,Q,Q
2023-03-14 21:25:15:459,0,-13.3381,3.79394,17.023,Q,Q
2023-03-14 21:25:15:469,0,-13.3284,3.79681,17.0058,Q,Q
2023-03-14 21:25:15:479,0,-13.3096,3.80415,16.992,Q,Q
2023-03-14 21:25:15:489,0,-13.2899,3.81476,16.988,Q,Q
2023-03-14 21:25:15:499,0,-13.2711,3.82313,16.9894,Q,Q
2023-03-14 21:25:15:509,0,-13.2566,3.82583,16.9978,Q,Q
2023-03-14 21:25:15:520,0,-13.2423,3.82575,17.0028,Q,Q
2023-03-14 21:25:15:530,0,-13.2318,3.82475,17.0109,Q,Q
2023-03-14 21:25:15:539,0,-13.2202,3.82266,17.0116,Q,Q
2023-03-14 21:25:15:550,0,-13.2133,3.80914,17.0089,Q,Q
2023-03-14 21:25:15:559,0,-13.2115,3.80796,17.0052,Q,Q
2023-03-14 21:25:15:569,0,-13.2006,3.80886,16.9945,Q,Q
2023-03-14 21:25:15:579,0,-13.1944,3.80143,16.9872,Q,Q
2023-03-14 21:25:15:590,0,-13.1914,3.79406,16.9751,Q,Q
2023-03-14 21:25:15:600,0,-13.1917,3.78351,16.9591,Q,Q
2023-03-14 21:25:15:610,0,-13.1997,3.76498,16.9498,Q,Q
2023-03-14 21:25:15:620,0,-13.2086,3.76499,16.9457,Q,Q
2023-03-14 21:25:15:630,0,-13.2117,3.77279,16.943,Q,Q
2023-03-14 21:25:15:640,0,-13.2037,3.78997,16.9414,Q,Q
2023-03-14 21:25:15:650,0,-13.19,3.80846,16.9397,Q,Q
2023-03-14 21:25:15:660,0,-13.1725,3.82904,16.9404,Q,Q
2023-03-14 21:25:15:669,0,-13.1546,3.85709,16.9427,Q,Q
2023-03-14 21:25:15:679,0,-13.1322,3.89199,16.9484,Q,Q
2023-03-14 21:25:15:689,0,-13.0994,3.92757,16.9558,Q,Q
2023-03-14 21:25:15:700,0,-13.0669,3.96395,16.9638,Q,Q
2023-03-14 21:25:15:709,0,-13.041,3.98991,16.9751,Q,Q
2023-03-14 21:25:15:719,0,-13.0136,4.01045,16.9813,Q,Q
2023-03-14 21:25:15:730,0,-12.9877,4.02229,16.9835,Q,Q
2023-03-14 21:25:15:740,0,-12.9618,4.02923,16.982,Q,Q
2023-03-14 21:25:15:750,0,-12.9341,4.03705,16.9736,Q,Q
2023-03-14 21:25:15:760,0,-12.9083,4.04238,16.9676,Q,Q
2023-03-14 21:25:15:770,0,-12.8825,4.05111,16.9616,Q,Q
2023-03-14 21:25:15:780,0,-12.8596,4.06238,16.9559,Q,Q
2023-03-14 21:25:15:790,0,-12.8372,4.06851,16.9531,Q,Q
2023-03-14 21:25:15:800,0,-12.8174,4.0811,16.95,Q,Q
2023-03-14 21:25:15:810,0,-12.7971,4.09381,16.9481,Q,Q
2023-03-14 21:25:15:820,0,-12.7718,4.09737,16.9497,Q,Q
2023-03-14 21:25:15:829,0,-12.7557,4.10787,16.9524,Q,Q
2023-03-14 21:25:15:840,0,-12.7429,4.11484,16.9601,Q,Q
2023-03-14 21:25:15:850,0,-12.7333,4.11842,16.9644,Q,Q
2023-03-14 21:25:15:860,0,-12.7234,4.12155,16.9713,Q,Q
2023-03-14 21:25:15:870,0,-12.7155,4.12587,16.9812,Q,Q
2023-03-14 21:25:15:879,0,-12.7088,4.12784,16.992,Q,Q
2023-03-14 21:25:15:889,0,-12.7028,4.13303,16.9977,Q,Q
2023-03-14 21:25:15:900,0,-12.6969,4.135,17.0061,Q,Q
2023-03-14 21:25:15:910,0,-12.6912,4.13633,17.0103,Q,Q
2023-03-14 21:25:15:920,0,-12.6801,4.13686,17.0107,Q,Q
2023-03-14 21:25:15:930,0,-12.6655,4.13692,17.0052,Q,Q
2023-03-14 21:25:15:939,0,-12.6501,4.12931,16.9901,Q,Q
2023-03-14 21:25:15:950,0,-12.6392,4.12471,16.9677,Q,Q
2023-03-14 21:25:15:960,0,-12.6257,4.12077,16.9426,Q,Q
2023-03-14 21:25:15:969,0,-12.6104,4.11353,16.9168,Q,Q
2023-03-14 21:25:15:980,0,-12.5926,4.10569,16.8916,Q,Q
2023-03-14 21:25:15:990,0,-12.5679,4.09387,16.8673,Q,Q
2023-03-14 21:25:16:0,0,-12.544,4.08371,16.8496,Q,Q
2023-03-14 21:25:16:10,0,-12.5214,4.08021,16.8281,Q,Q
2023-03-14 21:25:16:20,0,-12.5006,4.08016,16.8102,Q,Q
2023-03-14 21:25:16:30,0,-12.4776,4.08384,16.7867,Q,Q
2023-03-14 21:25:16:40,0,-12.4543,4.08476,16.758,Q,Q
2023-03-14 21:25:16:50,0,-12.43,4.09089,16.722,Q,Q
2023-03-14 21:25:16:60,0,-12.4057,4.09447,16.6857,Q,Q
2023-03-14 21:25:16:70,0,-12.3829,4.09514,16.6455,Q,Q
2023-03-14 21:25:16:80,0,-12.3651,4.09333,16.5955,Q,Q
2023-03-14 21:25:16:90,0,-12.3477,4.08969,16.5438,Q,Q
2023-03-14 21:25:16:100,0,-12.3265,4.0851,16.4821,Q,Q
2023-03-14 21:25:16:110,0,-12.3026,4.08245,16.4112,Q,Q
2023-03-14 21:25:16:120,0,-12.2743,4.08327,16.3324,Q,Q
2023-03-14 21:25:16:130,0,-12.2459,4.08146,16.2542,Q,Q
2023-03-14 21:25:16:140,0,-12.2194,4.08788,16.173,Q,Q
2023-03-14 21:25:16:150,0,-12.1912,4.09435,16.0906,Q,Q
2023-03-14 21:25:16:159,0,-12.1635,4.1165,16.0084,Q,Q
2023-03-14 21:25:16:169,0,-12.1345,4.12443,15.9338,Q,Q
2023-03-14 21:25:16:179,0,-12.1171,4.14281,15.8625,Q,Q
2023-03-14 21:25:16:189,0,-12.103,4.1637,15.801,Q,Q
2023-03-14 21:25:16:200,0,-12.0819,4.18314,15.7478,Q,Q
2023-03-14 21:25:16:210,0,-12.0665,4.20481,15.7084,Q,Q
2023-03-14 21:25:16:220,0,-12.0562,4.23323,15.6739,Q,Q
2023-03-14 21:25:16:230,0,-12.0478,4.26817,15.6495,Q,Q
2023-03-14 21:25:16:240,0,-12.0462,4.29282,15.6359,Q,Q
2023-03-14 21:25:16:250,0,-12.0452,4.31876,15.6233,Q,Q
2023-03-14 21:25:16:260,0,-12.0413,4.34272,15.6146,Q,Q
2023-03-14 21:25:16:270,0,-12.036,4.36388,15.6082,Q,Q
2023-03-14 21:25:16:280,0,-12.0282,4.38362,15.5999,Q,Q
2023-03-14 21:25:16:290,0,-12.0208,4.40398,15.5966,Q,Q
2023-03-14 21:25:16:300,0,-12.0117,4.42267,15.5979,Q,Q
2023-03-14 21:25:16:310,0,-12.002,4.43911,15.5979,Q,Q
2023-03-14 21:25:16:320,0,-11.9898,4.45358,15.6046,Q,Q
2023-03-14 21:25:16:330,0,-11.9788,4.46162,15.6103,Q,Q
2023-03-14 21:25:16:340,0,-11.9715,4.46862,15.6083,Q,Q
2023-03-14 21:25:16:350,0,-11.97,4.47787,15.6072,Q,Q
2023-03-14 21:25:16:360,0,-11.9648,4.4859,15.6073,Q,Q
2023-03-14 21:25:16:370,0,-11.9564,4.4932,15.6029,Q,Q
2023-03-14 21:25:16:380,0,-11.9441,4.50009,15.5976,Q,Q
2023-03-14 21:25:16:390,0,-11.9359,4.50877,15.5925,Q,Q
2023-03-14 21:25:16:400,0,-11.9246,4.51721,15.5917,Q,Q
2023-03-14 21:25:16:410,0,-11.913,4.52643,15.5946,Q,Q
2023-03-14 21:25:16:420,0,-11.9079,4.53488,15.5976,Q,Q
2023-03-14 21:25:16:430,0,-11.9015,4.54475,15.5985,Q,Q
2023-03-14 21:25:16:440,0,-11.8963,4.55225,15.6012,Q,Q
2023-03-14 21:25:16:449,0,-11.8909,4.56204,15.6069,Q,Q
2023-03-14 21:25:16:459,0,-11.8809,4.56793,15.6193,Q,Q
2023-03-14 21:25:16:469,0,-11.8727,4.57031,15.6346,Q,Q
2023-03-14 21:25:16:480,0,-11.8683,4.57144,15.6515,Q,Q
2023-03-14 21:25:16:490,0,-11.861,4.57077,15.6648,Q,Q
2023-03-14 21:25:16:500,0,-11.8532,4.56595,15.6817,Q,Q
2023-03-14 21:25:16:510,0,-11.8464,4.55922,15.6987,Q,Q
2023-03-14 21:25:16:520,0,-11.8363,4.55147,15.7145,Q,Q
2023-03-14 21:25:16:530,0,-11.8225,4.55505,15.7317,Q,Q
2023-03-14 21:25:16:540,0,-11.7996,4.55522,15.7511,Q,Q
2023-03-14 21:25:16:550,0,-11.7812,4.55215,15.7717,Q,Q
2023-03-14 21:25:16:560,0,-11.7668,4.55793,15.799,Q,Q
2023-03-14 21:25:16:570,0,-11.7412,4.59672,15.8255,Q,Q
2023-03-14 21:25:16:580,0,-11.6702,4.71893,15.8492,Q,Q
2023-03-14 21:25:16:590,0,-11.5742,4.79049,15.8671,Q,Q
2023-03-14 21:25:16:600,0,-11.5024,4.83449,15.9021,Q,Q
2023-03-14 21:25:16:610,0,-11.4755,4.8688,15.948,Q,Q
2023-03-14 21:25:16:620,0,-11.4792,4.89237,15.992,Q,Q
2023-03-14 21:25:16:630,0,-11.4832,4.90292,16.0277,Q,Q
2023-03-14 21:25:16:640,0,-11.4901,4.91248,16.0657,Q,Q
2023-03-14 21:25:16:650,0,-11.4924,4.92065,16.1049,Q,Q
2023-03-14 21:25:16:660,0,-11.4928,4.93295,16.1506,Q,Q
2023-03-14 21:25:16:670,0,-11.4896,4.95478,16.1982,Q,Q
2023-03-14 21:25:16:680,0,-11.4846,4.96986,16.2496,Q,Q
2023-03-14 21:25:16:689,0,-11.4868,4.98629,16.3001,Q,Q
2023-03-14 21:25:16:699,0,-11.4916,5.00231,16.3449,Q,Q
2023-03-14 21:25:16:710,0,-11.4923,5.01458,16.3951,Q,Q
2023-03-14 21:25:16:719,0,-11.4904,5.02441,16.4466,Q,Q
2023-03-14 21:25:16:730,0,-11.4846,5.03074,16.4988,Q,Q
2023-03-14 21:25:16:740,0,-11.474,5.03476,16.5523,Q,Q
2023-03-14 21:25:16:750,0,-11.4599,5.03812,16.6063,Q,Q
2023-03-14 21:25:16:760,0,-11.4508,5.03931,16.6572,Q,Q
2023-03-14 21:25:16:769,0,-11.4431,5.0446,16.7095,Q,Q
2023-03-14 21:25:16:779,0,-11.4346,5.04667,16.7594,Q,Q
2023-03-14 21:25:16:790,0,-11.4236,5.04932,16.8135,Q,Q
2023-03-14 21:25:16:800,0,-11.4114,5.05041,16.8774,Q,Q
2023-03-14 21:25:16:810,0,-11.4045,5.04675,16.9433,Q,Q
2023-03-14 21:25:16:820,0,-11.3915,5.04931,17.0089,Q,Q
2023-03-14 21:25:16:830,0,-11.3795,5.05246,17.0775,Q,Q
2023-03-14 21:25:16:840,0,-11.3612,5.05687,17.1525,Q,Q
2023-03-14 21:25:16:850,0,-11.3447,5.06249,17.2311,Q,Q
2023-03-14 21:25:16:860,0,-11.3276,5.06308,17.311,Q,Q
2023-03-14 21:25:16:870,0,-11.315,5.06777,17.3923,Q,Q
2023-03-14 21:25:16:880,0,-11.3068,5.069,17.4797,Q,Q
2023-03-14 21:25:16:890,0,-11.2998,5.06994,17.5708,Q,Q
2023-03-14 21:25:16:900,0,-11.2924,5.07502,17.6632,Q,Q
2023-03-14 21:25:16:909,0,-11.288,5.07837,17.7541,Q,Q
2023-03-14 21:25:16:920,0,-11.2787,5.08733,17.8426,Q,Q
2023-03-14 21:25:16:930,0,-11.2669,5.10158,17.9286,Q,Q
2023-03-14 21:25:16:940,0,-11.2548,5.11172,18.0126,Q,Q
2023-03-14 21:25:16:950,0,-11.2496,5.12388,18.0914,Q,Q
2023-03-14 21:25:16:960,0,-11.2484,5.14021,18.1645,Q,Q
2023-03-14 21:25:16:970,0,-11.2435,5.15968,18.2333,Q,Q
2023-03-14 21:25:16:979,0,-11.2377,5.18027,18.3025,Q,Q
2023-03-14 21:25:16:990,0,-11.2275,5.20422,18.3733,Q,Q
2023-03-14 21:25:17:0,0,-11.2194,5.22192,18.4356,Q,Q
2023-03-14 21:25:17:10,0,-11.2182,5.2398,18.4942,Q,Q
2023-03-14 21:25:17:20,0,-11.2166,5.25994,18.5505,Q,Q
2023-03-14 21:25:17:30,0,-11.2153,5.27954,18.6004,Q,Q
2023-03-14 21:25:17:40,0,-11.2121,5.29412,18.6486,Q,Q
2023-03-14 21:25:17:50,0,-11.2062,5.3136,18.6939,Q,Q
2023-03-14 21:25:17:60,0,-11.1951,5.33204,18.7377,Q,Q
2023-03-14 21:25:17:69,0,-11.1803,5.35179,18.7838,Q,Q
2023-03-14 21:25:17:80,0,-11.1661,5.36821,18.8303,Q,Q
2023-03-14 21:25:17:90,0,-11.1532,5.38276,18.8756,Q,Q
2023-03-14 21:25:17:99,0,-11.1416,5.39366,18.9257,Q,Q
2023-03-14 21:25:17:109,0,-11.132,5.40567,18.9804,Q,Q
2023-03-14 21:25:17:120,0,-11.1223,5.41177,19.0349,Q,Q
2023-03-14 21:25:17:129,0,-11.1182,5.41091,19.0887,Q,Q
2023-03-14 21:25:17:140,0,-11.1206,5.40653,19.1472,Q,Q
2023-03-14 21:25:17:150,0,-11.1169,5.40652,19.205,Q,Q
2023-03-14 21:25:17:160,0,-11.1028,5.40931,19.2673,Q,Q
2023-03-14 21:25:17:170,0,-11.0866,5.41436,19.3375,Q,Q
2023-03-14 21:25:17:180,0,-11.0672,5.42253,19.4093,Q,Q
2023-03-14 21:25:17:190,0,-11.0522,5.42824,19.4864,Q,Q
2023-03-14 21:25:17:200,0,-11.0457,5.43234,19.5651,Q,Q
2023-03-14 21:25:17:210,0,-11.0395,5.43665,19.6427,Q,Q
2023-03-14 21:25:17:219,0,-11.0332,5.44242,19.7221,Q,Q
2023-03-14 21:25:17:230,0,-11.0283,5.44994,19.8037,Q,Q
2023-03-14 21:25:17:240,0,-11.0242,5.45716,19.8913,Q,Q
2023-03-14 21:25:17:249,0,-11.0214,5.46292,19.981,Q,Q
2023-03-14 21:25:17:260,0,-11.0213,5.46814,20.0752,Q,Q
2023-03-14 21:25:17:270,0,-11.0215,5.46905,20.1703,Q,Q
2023-03-14 21:25:17:280,0,-11.02,5.46707,20.2729,Q,Q
2023-03-14 21:25:17:289,0,-11.0233,5.46937,20.3793,Q,Q
2023-03-14 21:25:17:300,0,-11.0273,5.47149,20.4875,Q,Q
2023-03-14 21:25:17:309,0,-11.0418,5.47829,20.5961,Q,Q
2023-03-14 21:25:17:320,0,-11.0651,5.47962,20.6979,Q,Q
2023-03-14 21:25:17:330,0,-11.0939,5.48419,20.8005,Q,Q
2023-03-14 21:25:17:340,0,-11.1282,5.49223,20.8992,Q,Q
2023-03-14 21:25:17:350,0,-11.1634,5.50861,20.9908,Q,Q
2023-03-14 21:25:17:360,0,-11.195,5.5297,21.0813,Q,Q
2023-03-14 21:25:17:369,0,-11.2267,5.54695,21.1599,Q,Q
2023-03-14 21:25:17:379,0,-11.2634,5.56841,21.2345,Q,Q
2023-03-14 21:25:17:390,0,-11.2949,5.58968,21.3014,Q,Q
2023-03-14 21:25:17:399,0,-11.3186,5.61404,21.3641,Q,Q
2023-03-14 21:25:17:410,0,-11.3322,5.63612,21.4232,Q,Q
2023-03-14 21:25:17:420,0,-11.3392,5.65977,21.4772,Q,Q
2023-03-14 21:25:17:430,0,-11.3394,5.68589,21.5208,Q,Q
2023-03-14 21:25:17:440,0,-11.3354,5.70913,21.557,Q,Q
2023-03-14 21:25:17:450,0,-11.3405,5.71444,21.5826,Q,Q
2023-03-14 21:25:17:460,0,-11.3558,5.73777,21.5945,Q,Q
2023-03-14 21:25:17:470,0,-11.3587,5.75526,21.5946,Q,Q
2023-03-14 21:25:17:480,0,-11.3602,5.77279,21.5989,Q,Q
2023-03-14 21:25:17:489,0,-11.3676,5.79008,21.6044,Q,Q
2023-03-14 21:25:17:499,0,-11.371,5.80483,21.5973,Q,Q
2023-03-14 21:25:17:510,0,-11.3782,5.81374,21.5799,Q,Q
2023-03-14 21:25:17:520,0,-11.3823,5.82961,21.5652,Q,Q
2023-03-14 21:25:17:530,0,-11.3794,5.83857,21.5469,Q,Q
2023-03-14 21:25:17:540,0,-11.378,5.83625,21.5245,Q,Q
2023-03-14 21:25:17:550,0,-11.3851,5.83447,21.4985,Q,Q
2023-03-14 21:25:17:560,0,-11.3992,5.83152,21.4723,Q,Q
2023-03-14 21:25:17:570,0,-11.4139,5.82663,21.4424,Q,Q
2023-03-14 21:25:17:580,0,-11.4247,5.82208,21.4119,Q,Q
2023-03-14 21:25:17:590,0,-11.4394,5.8115,21.3868,Q,Q
2023-03-14 21:25:17:600,0,-11.4668,5.79812,21.3625,Q,Q
2023-03-14 21:25:17:610,0,-11.4958,5.78808,21.3339,Q,Q
2023-03-14 21:25:17:620,0,-11.5235,5.77749,21.3125,Q,Q
2023-03-14 21:25:17:630,0,-11.5533,5.76882,21.2952,Q,Q
2023-03-14 21:25:17:640,0,-11.5796,5.76455,21.2795,Q,Q
2023-03-14 21:25:17:650,0,-11.5978,5.7619,21.2636,Q,Q
2023-03-14 21:25:17:660,0,-11.6161,5.76494,21.2569,Q,Q
2023-03-14 21:25:17:670,0,-11.6298,5.7771,21.251,Q,Q
2023-03-14 21:25:17:680,0,-11.6449,5.79031,21.2461,Q,Q
2023-03-14 21:25:17:690,0,-11.6566,5.80387,21.2483,Q,Q
2023-03-14 21:25:17:700,0,-11.6714,5.8232,21.2503,Q,Q
2023-03-14 21:25:17:710,0,-11.6826,5.84524,21.2547,Q,Q
2023-03-14 21:25:17:720,0,-11.695,5.86778,21.2636,Q,Q
2023-03-14 21:25:17:729,0,-11.7093,5.89338,21.2748,Q,Q
2023-03-14 21:25:17:740,0,-11.7283,5.91615,21.2959,Q,Q
2023-03-14 21:25:17:750,0,-11.7682,5.91984,21.3237,Q,Q
2023-03-14 21:25:17:760,0,-11.8137,5.95388,21.3522,Q,Q
2023-03-14 21:25:17:770,0,-11.8409,5.99074,21.3776,Q,Q
2023-03-14 21:25:17:780,0,-11.8627,6.01877,21.4169,Q,Q
2023-03-14 21:25:17:790,0,-11.8902,6.04825,21.4692,Q,Q
2023-03-14 21:25:17:800,0,-11.9233,6.07454,21.5097,Q,Q
2023-03-14 21:25:17:810,0,-11.9567,6.0993,21.5472,Q,Q
2023-03-14 21:25:17:820,0,-11.9861,6.1293,21.585,Q,Q
2023-03-14 21:25:17:830,0,-12.0062,6.15685,21.624,Q,Q
2023-03-14 21:25:17:840,0,-12.0207,6.17736,21.6629,Q,Q
2023-03-14 21:25:17:850,0,-12.0382,6.19826,21.7041,Q,Q
2023-03-14 21:25:17:860,0,-12.0516,6.22034,21.7515,Q,Q
2023-03-14 21:25:17:870,0,-12.061,6.23232,21.8027,Q,Q
2023-03-14 21:25:17:880,0,-12.0637,6.25311,21.855,Q,Q
2023-03-14 21:25:17:890,0,-12.0621,6.27957,21.9065,Q,Q
2023-03-14 21:25:17:900,0,-12.0536,6.30913,21.9558,Q,Q
2023-03-14 21:25:17:910,0,-12.0401,6.34469,22.0059,Q,Q
2023-03-14 21:25:17:919,0,-12.0272,6.3865,22.0526,Q,Q
2023-03-14 21:25:17:930,0,-12.0115,6.42975,22.0921,Q,Q
2023-03-14 21:25:17:940,0,-11.9975,6.46982,22.1369,Q,Q
2023-03-14 21:25:17:950,0,-11.9858,6.50732,22.1856,Q,Q
2023-03-14 21:25:17:960,0,-11.9767,6.53319,22.231,Q,Q
2023-03-14 21:25:17:969,0,-11.9697,6.56162,22.2782,Q,Q
2023-03-14 21:25:17:980,0,-11.9604,6.58556,22.3247,Q,Q
2023-03-14 21:25:17:989,0,-11.9436,6.60851,22.3711,Q,Q
2023-03-14 21:25:18:0,0,-11.9273,6.63015,22.4193,Q,Q
2023-03-14 21:25:18:10,0,-11.9139,6.65681,22.4628,Q,Q
2023-03-14 21:25:18:20,0,-11.8983,6.68863,22.5004,Q,Q
2023-03-14 21:25:18:30,0,-11.8875,6.71974,22.5315,Q,Q
2023-03-14 21:25:18:40,0,-11.877,6.75446,22.5553,Q,Q
2023-03-14 21:25:18:50,0,-11.8713,6.7934,22.5692,Q,Q
2023-03-14 21:25:18:60,0,-11.8654,6.83831,22.5703,Q,Q
2023-03-14 21:25:18:70,0,-11.8586,6.88083,22.5623,Q,Q
2023-03-14 21:25:18:80,0,-11.8485,6.92055,22.5526,Q,Q
2023-03-14 21:25:18:90,0,-11.8306,6.95317,22.5468,Q,Q
2023-03-14 21:25:18:100,0,-11.8047,6.97026,22.5444,Q,Q
2023-03-14 21:25:18:110,0,-11.7586,6.97061,22.5588,Q,Q
2023-03-14 21:25:18:120,0,-11.7048,6.95688,22.5814,Q,Q
2023-03-14 21:25:18:130,0,-11.6381,6.93137,22.6142,Q,Q
2023-03-14 21:25:18:139,0,-11.5732,6.89256,22.653,Q,Q
2023-03-14 21:25:18:150,0,-11.5088,6.84974,22.6996,Q,Q
2023-03-14 21:25:18:160,0,-11.4515,6.80179,22.7458,Q,Q
2023-03-14 21:25:18:170,0,-11.4035,6.75646,22.791,Q,Q
2023-03-14 21:25:18:180,0,-11.3686,6.72128,22.8318,Q,Q
2023-03-14 21:25:18:190,0,-11.3428,6.69998,22.8624,Q,Q
2023-03-14 21:25:18:199,0,-11.325,6.684,22.8962,Q,Q
2023-03-14 21:25:18:210,0,-11.3143,6.66922,22.928,Q,Q
2023-03-14 21:25:18:220,0,-11.3095,6.6539,22.9557,Q,Q
2023-03-14 21:25:18:230,0,-11.3052,6.64444,22.9837,Q,Q
2023-03-14 21:25:18:240,0,-11.3061,6.64356,23.0028,Q,Q
2023-03-14 21:25:18:249,0,-11.3056,6.65994,23.0179,Q,Q
2023-03-14 21:25:18:260,0,-11.3046,6.69037,23.0227,Q,Q
2023-03-14 21:25:18:269,0,-11.2975,6.74078,23.0225,Q,Q
2023-03-14 21:25:18:280,0,-11.2914,6.80295,23.0218,Q,Q
2023-03-14 21:25:18:290,0,-11.282,6.86974,23.0273,Q,Q
2023-03-14 21:25:18:300,0,-11.2804,6.94287,23.0245,Q,Q
2023-03-14 21:25:18:310,0,-11.292,7.01997,23.0194,Q,Q
2023-03-14 21:25:18:320,0,-11.3139,7.09602,23.0117,Q,Q
2023-03-14 21:25:18:330,0,-11.3475,7.16637,23.004,Q,Q
2023-03-14 21:25:18:340,0,-11.3894,7.23457,22.9879,Q,Q
2023-03-14 21:25:18:349,0,-11.4358,7.30097,22.9645,Q,Q
2023-03-14 21:25:18:360,0,-11.4835,7.36349,22.9387,Q,Q
2023-03-14 21:25:18:370,0,-11.5328,7.4139,22.9217,Q,Q
2023-03-14 21:25:18:380,0,-11.5796,7.43956,22.9242,Q,Q
2023-03-14 21:25:18:390,0,-11.6123,7.43203,22.9526,Q,Q
2023-03-14 21:25:18:400,0,-11.6369,7.39964,23.0067,Q,Q
2023-03-14 21:25:18:410,0,-11.6639,7.36147,23.0753,Q,Q
2023-03-14 21:25:18:420,0,-11.6862,7.33031,23.1448,Q,Q
2023-03-14 21:25:18:430,0,-11.7089,7.32322,23.2087,Q,Q
2023-03-14 21:25:18:440,0,-11.7205,7.33811,23.2703,Q,Q
2023-03-14 21:25:18:450,0,-11.7268,7.37581,23.3255,Q,Q
2023-03-14 21:25:18:460,0,-11.7215,7.4123,23.3881,Q,Q
2023-03-14 21:25:18:470,0,-11.7065,7.43499,23.4663,Q,Q
2023-03-14 21:25:18:480,0,-11.6865,7.42922,23.558,Q,Q
2023-03-14 21:25:18:490,0,-11.6707,7.40355,23.6588,Q,Q
2023-03-14 21:25:18:499,0,-11.6629,7.35871,23.7642,Q,Q
2023-03-14 21:25:18:510,0,-11.6545,7.29831,23.8684,Q,Q
2023-03-14 21:25:18:520,0,-11.6468,7.23331,23.9711,Q,Q
2023-03-14 21:25:18:530,0,-11.6411,7.17282,24.062,Q,Q
2023-03-14 21:25:18:539,0,-11.6398,7.11517,24.1413,Q,Q
2023-03-14 21:25:18:550,0,-11.6415,7.06617,24.208,Q,Q
2023-03-14 21:25:18:560,0,-11.6318,7.0056,24.2735,Q,Q
2023-03-14 21:25:18:569,0,-11.6138,6.93518,24.3369,Q,Q
2023-03-14 21:25:18:579,0,-11.5799,6.85122,24.4107,Q,Q
2023-03-14 21:25:18:590,0,-11.5504,6.75862,24.4852,Q,Q
2023-03-14 21:25:18:600,0,-11.5191,6.66247,24.5547,Q,Q
2023-03-14 21:25:18:610,0,-11.4921,6.5632,24.6208,Q,Q
2023-03-14 21:25:18:620,0,-11.4656,6.46707,24.6859,Q,Q
2023-03-14 21:25:18:630,0,-11.4379,6.38743,24.747,Q,Q
2023-03-14 21:25:18:640,0,-11.4114,6.32556,24.8046,Q,Q
2023-03-14 21:25:18:650,0,-11.3867,6.29292,24.8592,Q,Q
2023-03-14 21:25:18:660,0,-11.3574,6.28185,24.9079,Q,Q
2023-03-14 21:25:18:670,0,-11.3288,6.295,24.9503,Q,Q
2023-03-14 21:25:18:680,0,-11.2971,6.33593,24.9868,Q,Q
2023-03-14 21:25:18:690,0,-11.2682,6.40346,25.0115,Q,Q
2023-03-14 21:25:18:700,0,-11.2452,6.4934,25.0177,Q,Q
2023-03-14 21:25:18:710,0,-11.2315,6.59776,25.0003,Q,Q
2023-03-14 21:25:18:720,0,-11.2219,6.71626,24.964,Q,Q
2023-03-14 21:25:18:730,0,-11.2193,6.83398,24.9069,Q,Q
2023-03-14 21:25:18:740,0,-11.2309,6.94248,24.8364,Q,Q
2023-03-14 21:25:18:750,0,-11.2621,7.03263,24.7564,Q,Q
2023-03-14 21:25:18:759,0,-11.3146,7.09534,24.673,Q,Q
2023-03-14 21:25:18:769,0,-11.3849,7.1357,24.5981,Q,Q
2023-03-14 21:25:18:779,0,-11.4612,7.1385,24.5319,Q,Q
2023-03-14 21:25:18:790,0,-11.5449,7.11473,24.4803,Q,Q
2023-03-14 21:25:18:800,0,-11.6275,7.07026,24.4433,Q,Q
2023-03-14 21:25:18:810,0,-11.711,7.01079,24.4229,Q,Q
2023-03-14 21:25:18:820,0,-11.7895,6.93405,24.422,Q,Q
2023-03-14 21:25:18:830,0,-11.8576,6.84634,24.4413,Q,Q
2023-03-14 21:25:18:840,0,-11.9148,6.75066,24.4795,Q,Q
2023-03-14 21:25:18:850,0,-11.958,6.65534,24.5377,Q,Q
2023-03-14 21:25:18:860,0,-11.982,6.56513,24.6077,Q,Q
2023-03-14 21:25:18:870,0,-11.9864,6.48416,24.6937,Q,Q
2023-03-14 21:25:18:880,0,-11.9834,6.40762,24.7913,Q,Q
2023-03-14 21:25:18:890,0,-11.9767,6.3327,24.8977,Q,Q
2023-03-14 21:25:18:900,0,-11.973,6.25963,25.007,Q,Q
2023-03-14 21:25:18:910,0,-11.9743,6.19248,25.121,Q,Q
2023-03-14 21:25:18:920,0,-11.9819,6.12309,25.2466,Q,Q
2023-03-14 21:25:18:930,0,-12.001,6.06075,25.3827,Q,Q
2023-03-14 21:25:18:940,0,-12.0376,6.00344,25.5193,Q,Q
2023-03-14 21:25:18:950,0,-12.089,5.95242,25.6522,Q,Q
2023-03-14 21:25:18:960,0,-12.1603,5.90622,25.7907,Q,Q
2023-03-14 21:25:18:970,0,-12.2477,5.85599,25.9326,Q,Q
2023-03-14 21:25:18:980,0,-12.3446,5.81519,26.0719,Q,Q
2023-03-14 21:25:18:989,0,-12.4527,5.78087,26.2131,Q,Q
2023-03-14 21:25:18:999,0,-12.5654,5.75868,26.3513,Q,Q
2023-03-14 21:25:19:9,0,-12.683,5.74498,26.4906,Q,Q
2023-03-14 21:25:19:19,0,-12.8008,5.73987,26.6205,Q,Q
2023-03-14 21:25:19:30,0,-12.9235,5.7399,26.7472,Q,Q
2023-03-14 21:25:19:40,0,-13.0528,5.73719,26.8668,Q,Q
2023-03-14 21:25:19:49,0,-13.1966,5.73854,26.9772,Q,Q
2023-03-14 21:25:19:60,0,-13.3485,5.73635,27.0764,Q,Q
2023-03-14 21:25:19:69,0,-13.4948,5.72693,27.1743,Q,Q
2023-03-14 21:25:19:80,0,-13.6367,5.71371,27.2732,Q,Q
2023-03-14 21:25:19:90,0,-13.7673,5.69948,27.3654,Q,Q
2023-03-14 21:25:19:100,0,-13.8882,5.6735,27.4531,Q,Q
2023-03-14 21:25:19:110,0,-14.007,5.65756,27.5381,Q,Q
2023-03-14 21:25:19:119,0,-14.1115,5.64341,27.6127,Q,Q
2023-03-14 21:25:19:130,0,-14.2032,5.63484,27.6761,Q,Q
2023-03-14 21:25:19:140,0,-14.2798,5.63608,27.7339,Q,Q
2023-03-14 21:25:19:149,0,-14.3475,5.6388,27.7857,Q,Q
2023-03-14 21:25:19:160,0,-14.4085,5.64251,27.8245,Q,Q
2023-03-14 21:25:19:169,0,-14.457,5.65388,27.859,Q,Q
2023-03-14 21:25:19:180,0,-14.5055,5.66863,27.8968,Q,Q
2023-03-14 21:25:19:190,0,-14.5612,5.68784,27.9343,Q,Q
2023-03-14 21:25:19:200,0,-14.6198,5.71348,27.9702,Q,Q
2023-03-14 21:25:19:210,0,-14.687,5.73863,27.9986,Q,Q
2023-03-14 21:25:19:220,0,-14.7654,5.76774,28.0195,Q,Q
2023-03-14 21:25:19:230,0,-14.8516,5.79546,28.0366,Q,Q
2023-03-14 21:25:19:240,0,-14.9419,5.82105,28.0414,Q,Q
2023-03-14 21:25:19:250,0,-15.0289,5.84771,28.0414,Q,Q
2023-03-14 21:25:19:260,0,-15.1043,5.8752,28.0288,Q,Q
2023-03-14 21:25:19:269,0,-15.1717,5.89727,28.0219,Q,Q
2023-03-14 21:25:19:279,0,-15.2319,5.913,28.0188,Q,Q
2023-03-14 21:25:19:289,0,-15.2926,5.91443,28.0193,Q,Q
2023-03-14 21:25:19:299,0,-15.3501,5.91169,28.0071,Q,Q
2023-03-14 21:25:19:309,0,-15.397,5.90962,27.9989,Q,Q
2023-03-14 21:25:19:320,0,-15.4287,5.90502,27.9939,Q,Q
2023-03-14 21:25:19:330,0,-15.4497,5.89931,27.9851,Q,Q
2023-03-14 21:25:19:340,0,-15.4543,5.8868,27.9653,Q,Q
2023-03-14 21:25:19:350,0,-15.4449,5.87272,27.9299,Q,Q
2023-03-14 21:25:19:360,0,-15.4125,5.86483,27.8812,Q,Q
2023-03-14 21:25:19:370,0,-15.3522,5.86379,27.8087,Q,Q
2023-03-14 21:25:19:380,0,-15.2716,5.86819,27.7194,Q,Q
2023-03-14 21:25:19:390,0,-15.1776,5.8761,27.6242,Q,Q
2023-03-14 21:25:19:400,0,-15.0653,5.88961,27.5282,Q,Q
2023-03-14 21:25:19:410,0,-14.9393,5.91451,27.4279,Q,Q
2023-03-14 21:25:19:420,0,-14.801,5.94679,27.3357,Q,Q
2023-03-14 21:25:19:430,0,-14.6602,5.98254,27.2477,Q,Q
2023-03-14 21:25:19:440,0,-14.5185,6.01886,27.151,Q,Q
2023-03-14 21:25:19:450,0,-14.378,6.0563,27.0407,Q,Q
2023-03-14 21:25:19:460,0,-14.2377,6.09448,26.9188,Q,Q
2023-03-14 21:25:19:470,0,-14.099,6.13122,26.7803,Q,Q
2023-03-14 21:25:19:480,0,-13.9694,6.16197,26.6224,Q,Q
2023-03-14 21:25:19:490,0,-13.8466,6.19567,26.43,Q,Q
2023-03-14 21:25:19:499,0,-13.7183,6.22976,26.2146,Q,Q
2023-03-14 21:25:19:510,0,-13.5805,6.265,25.975,Q,Q
2023-03-14 21:25:19:520,0,-13.4414,6.29299,25.7229,Q,Q
2023-03-14 21:25:19:530,0,-13.3067,6.3139,25.4532,Q,Q
2023-03-14 21:25:19:540,0,-13.1861,6.32667,25.1757,Q,Q
2023-03-14 21:25:19:550,0,-13.086,6.32488,24.9008,Q,Q
2023-03-14 21:25:19:560,0,-13.0003,6.31575,24.6346,Q,Q
2023-03-14 21:25:19:570,0,-12.9311,6.30283,24.3813,Q,Q
2023-03-14 21:25:19:580,0,-12.8705,6.29977,24.1416,Q,Q
2023-03-14 21:25:19:590,0,-12.8147,6.29713,23.9211,Q,Q
2023-03-14 21:25:19:600,0,-12.7706,6.30418,23.7164,Q,Q
2023-03-14 21:25:19:610,0,-12.7377,6.31522,23.5342,Q,Q
2023-03-14 21:25:19:620,0,-12.7162,6.3342,23.3771,Q,Q
2023-03-14 21:25:19:630,0,-12.7067,6.3652,23.2594,Q,Q
2023-03-14 21:25:19:639,0,-12.7056,6.3971,23.189,Q,Q
2023-03-14 21:25:19:650,0,-12.7067,6.43076,23.1606,Q,Q
2023-03-14 21:25:19:660,0,-12.7026,6.45982,23.163,Q,Q
2023-03-14 21:25:19:670,0,-12.6989,6.48621,23.1967,Q,Q
2023-03-14 21:25:19:680,0,-12.7019,6.51334,23.2566,Q,Q
2023-03-14 21:25:19:690,0,-12.7137,6.53901,23.3271,Q,Q
2023-03-14 21:25:19:700,0,-12.7277,6.55942,23.394,Q,Q
2023-03-14 21:25:19:710,0,-12.7431,6.5786,23.4643,Q,Q
2023-03-14 21:25:19:720,0,-12.754,6.59401,23.5339,Q,Q
2023-03-14 21:25:19:730,0,-12.7607,6.6034,23.5974,Q,Q
2023-03-14 21:25:19:740,0,-12.7554,6.60552,23.6542,Q,Q
2023-03-14 21:25:19:749,0,-12.7465,6.60526,23.6995,Q,Q
2023-03-14 21:25:19:760,0,-12.733,6.61274,23.7315,Q,Q
2023-03-14 21:25:19:769,0,-12.7171,6.61681,23.7571,Q,Q
2023-03-14 21:25:19:779,0,-12.6984,6.61305,23.7781,Q,Q
2023-03-14 21:25:19:789,0,-12.6787,6.60929,23.7955,Q,Q
2023-03-14 21:25:19:799,0,-12.6656,6.59821,23.8077,Q,Q
2023-03-14 21:25:19:810,0,-12.647,6.58552,23.815,Q,Q
2023-03-14 21:25:19:820,0,-12.6132,6.5736,23.825,Q,Q
2023-03-14 21:25:19:830,0,-12.5743,6.55574,23.8412,Q,Q
2023-03-14 21:25:19:840,0,-12.5449,6.52782,23.8451,Q,Q
2023-03-14 21:25:19:850,0,-12.5181,6.49463,23.8425,Q,Q
2023-03-14 21:25:19:859,0,-12.4924,6.45276,23.8351,Q,Q
2023-03-14 21:25:19:870,0,-12.4679,6.40823,23.8267,Q,Q
2023-03-14 21:25:19:880,0,-12.4482,6.36304,23.815,Q,Q
2023-03-14 21:25:19:890,0,-12.4321,6.32119,23.8002,Q,Q
2023-03-14 21:25:19:900,0,-12.418,6.27599,23.7835,Q,Q
2023-03-14 21:25:19:910,0,-12.4129,6.2254,23.771,Q,Q
2023-03-14 21:25:19:920,0,-12.4057,6.17389,23.7635,Q,Q
2023-03-14 21:25:19:930,0,-12.408,6.12318,23.7645,Q,Q
2023-03-14 21:25:19:940,0,-12.4277,6.06985,23.7601,Q,Q
2023-03-14 21:25:19:950,0,-12.4603,6.02607,23.7525,Q,Q
2023-03-14 21:25:19:960,0,-12.5049,5.99213,23.7447,Q,Q
2023-03-14 21:25:19:970,0,-12.5449,5.96352,23.7397,Q,Q
2023-03-14 21:25:19:980,0,-12.5801,5.94166,23.7473,Q,Q
2023-03-14 21:25:19:990,0,-12.616,5.9213,23.7576,Q,Q
2023-03-14 21:25:20:0,0,-12.658,5.89766,23.7753,Q,Q
2023-03-14 21:25:20:10,0,-12.6983,5.8759,23.7962,Q,Q
2023-03-14 21:25:20:20,0,-12.7457,5.8596,23.8138,Q,Q
2023-03-14 21:25:20:30,0,-12.7957,5.84297,23.8379,Q,Q
2023-03-14 21:25:20:40,0,-12.8421,5.83398,23.8675,Q,Q
2023-03-14 21:25:20:50,0,-12.8791,5.82131,23.9003,Q,Q
2023-03-14 21:25:20:60,0,-12.8964,5.8061,23.9363,Q,Q
2023-03-14 21:25:20:70,0,-12.8986,5.79114,23.9668,Q,Q
2023-03-14 21:25:20:80,0,-12.894,5.77954,23.9929,Q,Q
2023-03-14 21:25:20:90,0,-12.8812,5.77382,24.0055,Q,Q
2023-03-14 21:25:20:100,0,-12.8669,5.77283,24.0044,Q,Q
2023-03-14 21:25:20:110,0,-12.8502,5.77645,23.9953,Q,Q
2023-03-14 21:25:20:120,0,-12.8273,5.78845,23.9816,Q,Q
2023-03-14 21:25:20:130,0,-12.7913,5.81031,23.965,Q,Q
2023-03-14 21:25:20:140,0,-12.7419,5.84712,23.9529,Q,Q
2023-03-14 21:25:20:150,0,-12.6851,5.89212,23.9463,Q,Q
2023-03-14 21:25:20:160,0,-12.6241,5.94445,23.949,Q,Q
2023-03-14 21:25:20:170,0,-12.5636,6.00157,23.9545,Q,Q
2023-03-14 21:25:20:180,0,-12.5044,6.05688,23.9652,Q,Q
2023-03-14 21:25:20:189,0,-12.4625,6.10687,23.9743,Q,Q
2023-03-14 21:25:20:200,0,-12.4325,6.14902,23.9899,Q,Q
2023-03-14 21:25:20:210,0,-12.4158,6.18023,24.0122,Q,Q
2023-03-14 21:25:20:220,0,-12.4048,6.20351,24.0299,Q,Q
2023-03-14 21:25:20:230,0,-12.3932,6.21607,24.0468,Q,Q
2023-03-14 21:25:20:240,0,-12.3834,6.22909,24.0602,Q,Q
2023-03-14 21:25:20:250,0,-12.3763,6.24252,24.0662,Q,Q
2023-03-14 21:25:20:260,0,-12.3686,6.25743,24.0626,Q,Q
2023-03-14 21:25:20:270,0,-12.3601,6.27608,24.0491,Q,Q
2023-03-14 21:25:20:280,0,-12.3492,6.29287,24.0297,Q,Q
2023-03-14 21:25:20:290,0,-12.3386,6.30633,24.0053,Q,Q
2023-03-14 21:25:20:299,0,-12.3287,6.31794,23.9704,Q,Q
2023-03-14 21:25:20:310,0,-12.3162,6.32102,23.9325,Q,Q
2023-03-14 21:25:20:320,0,-12.2982,6.32434,23.8895,Q,Q
2023-03-14 21:25:20:330,0,-12.2662,6.32882,23.8411,Q,Q
2023-03-14 21:25:20:340,0,-12.2261,6.34834,23.7827,Q,Q
2023-03-14 21:25:20:350,0,-12.1775,6.37072,23.7143,Q,Q
2023-03-14 21:25:20:360,0,-12.1311,6.4007,23.6384,Q,Q
2023-03-14 21:25:20:369,0,-12.0915,6.42497,23.5574,Q,Q
2023-03-14 21:25:20:379,0,-12.0598,6.44141,23.4712,Q,Q
2023-03-14 21:25:20:390,0,-12.0408,6.44327,23.3811,Q,Q
2023-03-14 21:25:20:400,0,-12.0271,6.44138,23.2879,Q,Q
2023-03-14 21:25:20:410,0,-12.0124,6.44418,23.1898,Q,Q
2023-03-14 21:25:20:420,0,-11.9908,6.45613,23.0849,Q,Q
2023-03-14 21:25:20:430,0,-11.9617,6.47748,22.968,Q,Q
2023-03-14 21:25:20:440,0,-11.9279,6.50597,22.8453,Q,Q
2023-03-14 21:25:20:450,0,-11.893,6.54503,22.7144,Q,Q
2023-03-14 21:25:20:460,0,-11.8707,6.58706,22.5727,Q,Q
2023-03-14 21:25:20:470,0,-11.8561,6.63249,22.423,Q,Q
2023-03-14 21:25:20:480,0,-11.8455,6.69251,22.265,Q,Q
2023-03-14 21:25:20:490,0,-11.8381,6.76462,22.0944,Q,Q
2023-03-14 21:25:20:500,0,-11.8271,6.85623,21.9252,Q,Q
2023-03-14 21:25:20:510,0,-11.8105,6.96275,21.7584,Q,Q
2023-03-14 21:25:20:520,0,-11.7968,7.08597,21.6069,Q,Q
2023-03-14 21:25:20:530,0,-11.7801,7.22409,21.4847,Q,Q
2023-03-14 21:25:20:540,0,-11.7733,7.36895,21.3803,Q,Q
2023-03-14 21:25:20:550,0,-11.7703,7.5144,21.272,Q,Q
2023-03-14 21:25:20:560,0,-11.7674,7.66402,21.1365,Q,Q
2023-03-14 21:25:20:570,0,-11.7579,7.81455,20.9735,Q,Q
2023-03-14 21:25:20:580,0,-11.7489,7.95515,20.7826,Q,Q
2023-03-14 21:25:20:590,0,-11.7299,8.07869,20.5634,Q,Q
2023-03-14 21:25:20:600,0,-11.6983,8.17947,20.3102,Q,Q
2023-03-14 21:25:20:610,0,-11.6564,8.25764,20.0257,Q,Q
2023-03-14 21:25:20:620,0,-11.604,8.31626,19.7003,Q,Q
2023-03-14 21:25:20:630,0,-11.5378,8.35712,19.3152,Q,Q
2023-03-14 21:25:20:640,0,-11.4571,8.3747,18.8766,Q,Q
2023-03-14 21:25:20:650,0,-11.3738,8.36845,18.37,Q,Q
2023-03-14 21:25:20:660,0,-11.2954,8.33691,17.7985,Q,Q
2023-03-14 21:25:20:670,0,-11.2394,8.27015,17.1695,Q,Q
2023-03-14 21:25:20:680,0,-11.2115,8.156,16.4846,Q,Q
2023-03-14 21:25:20:690,0,-11.1885,8.00897,15.7456,Q,Q
2023-03-14 21:25:20:700,0,-11.15,7.82521,14.9591,Q,Q
2023-03-14 21:25:20:710,0,-11.08,7.61218,14.138,Q,Q
2023-03-14 21:25:20:720,0,-11.0018,7.38423,13.2852,Q,Q
2023-03-14 21:25:20:730,0,-10.9242,7.13981,12.3939,Q,Q
2023-03-14 21:25:20:740,0,-10.8479,6.88353,11.4565,Q,Q
2023-03-14 21:25:20:750,0,-10.773,6.61952,10.4911,Q,Q
2023-03-14 21:25:20:760,0,-10.7147,6.34007,9.52095,Q,Q
2023-03-14 21:25:20:770,0,-10.6763,6.03874,8.56076,Q,Q
2023-03-14 21:25:20:780,0,-10.64,5.70884,7.62496,Q,Q
2023-03-14 21:25:20:790,0,-10.5958,5.3588,6.71699,Q,Q
2023-03-14 21:25:20:800,0,-10.5314,5.0178,5.82828,Q,Q
2023-03-14 21:25:20:810,0,-10.4388,4.69959,4.95953,Q,Q
2023-03-14 21:25:20:819,0,-10.3143,4.40321,4.14098,Q,Q
2023-03-14 21:25:20:830,0,-10.167,4.13268,3.39052,Q,Q
2023-03-14 21:25:20:840,0,-10.0127,3.87957,2.71576,Q,Q
2023-03-14 21:25:20:850,0,-9.87494,3.64163,2.11202,Q,Q
2023-03-14 21:25:20:860,0,-9.75698,3.42992,1.56238,Q,Q
2023-03-14 21:25:20:870,0,-9.65614,3.23846,1.06897,Q,Q
2023-03-14 21:25:20:880,0,-9.57582,3.06368,0.623564,Q,Q
2023-03-14 21:25:20:890,0,-9.51015,2.906,0.220165,Q,Q
2023-03-14 21:25:20:900,0,-9.4625,2.75495,-0.113685,Q,Q
2023-03-14 21:25:20:910,0,-9.44056,2.60947,-0.373289,Q,Q
2023-03-14 21:25:20:920,0,-9.44026,2.45351,-0.567897,Q,Q
2023-03-14 21:25:20:930,0,-9.45597,2.29623,-0.706968,Q,Q
2023-03-14 21:25:20:940,0,-9.4775,2.14911,-0.815938,Q,Q
2023-03-14 21:25:20:950,0,-9.50127,2.0287,-0.93421,Q,Q
2023-03-14 21:25:20:960,0,-9.51612,1.95503,-1.08465,Q,Q
2023-03-14 21:25:20:970,0,-9.51708,1.91277,-1.24246,Q,Q
2023-03-14 21:25:20:980,0,-9.49497,1.88225,-1.37799,Q,Q
2023-03-14 21:25:20:990,0,-9.45944,1.83591,-1.47446,Q,Q
2023-03-14 21:25:21:0,0,-9.42009,1.77113,-1.5388,Q,Q
2023-03-14 21:25:21:10,0,-9.3815,1.69638,-1.57795,Q,Q
2023-03-14 21:25:21:20,0,-9.33667,1.60998,-1.59007,Q,Q
2023-03-14 21:25:21:30,0,-9.28269,1.52659,-1.58519,Q,Q
2023-03-14 21:25:21:40,0,-9.22072,1.45518,-1.58196,Q,Q
2023-03-14 21:25:21:50,0,-9.1524,1.40824,-1.5923,Q,Q
2023-03-14 21:25:21:60,0,-9.08531,1.37142,-1.61028,Q,Q
2023-03-14 21:25:21:70,0,-9.02726,1.33659,-1.61844,Q,Q
2023-03-14 21:25:21:80,0,-8.98223,1.28841,-1.61736,Q,Q
2023-03-14 21:25:21:90,0,-8.95387,1.23447,-1.60779,Q,Q
2023-03-14 21:25:21:100,0,-8.9348,1.17821,-1.60281,Q,Q
2023-03-14 21:25:21:110,0,-8.9142,1.13109,-1.60132,Q,Q
2023-03-14 21:25:21:120,0,-8.87885,1.09693,-1.59126,Q,Q
2023-03-14 21:25:21:130,0,-8.82475,1.06224,-1.56149,Q,Q
2023-03-14 21:25:21:140,0,-8.76761,1.02336,-1.51389,Q,Q
2023-03-14 21:25:21:150,0,-8.71669,0.981085,-1.45792,Q,Q
2023-03-14 21:25:21:160,0,-8.67655,0.940138,-1.39484,Q,Q
2023-03-14 21:25:21:170,0,-8.64636,0.903907,-1.33226,Q,Q
2023-03-14 21:25:21:180,0,-8.62133,0.870801,-1.25382,Q,Q
2023-03-14 21:25:21:190,0,-8.59446,0.842298,-1.14743,Q,Q
2023-03-14 21:25:21:200,0,-8.56868,0.811476,-1.01361,Q,Q
2023-03-14 21:25:21:210,0,-8.54968,0.784874,-0.852808,Q,Q
2023-03-14 21:25:21:220,0,-8.54247,0.771829,-0.676845,Q,Q
2023-03-14 21:25:21:230,0,-8.5467,0.764336,-0.472468,Q,Q
2023-03-14 21:25:21:240,0,-8.56509,0.759021,-0.226994,Q,Q
2023-03-14 21:25:21:250,0,-8.60286,0.746014,0.065514,Q,Q
2023-03-14 21:25:21:260,0,-8.666,0.722769,0.405995,Q,Q
2023-03-14 21:25:21:270,0,-8.76663,0.699432,0.786108,Q,Q
2023-03-14 21:25:21:280,0,-8.86752,0.690982,1.19391,Q,Q
2023-03-14 21:25:21:290,0,-8.94181,0.708435,1.64107,Q,Q
2023-03-14 21:25:21:300,0,-8.98878,0.740301,2.124,Q,Q
2023-03-14 21:25:21:310,0,-9.03386,0.788203,2.624,Q,Q
2023-03-14 21:25:21:320,0,-9.09813,0.850499,3.12765,Q,Q
2023-03-14 21:25:21:330,0,-9.18419,0.913996,3.64297,Q,Q
2023-03-14 21:25:21:339,0,-9.28024,0.96533,4.1773,Q,Q
2023-03-14 21:25:21:349,0,-9.37935,1.005,4.72087,Q,Q
2023-03-14 21:25:21:360,0,-9.48229,1.03167,5.27169,Q,Q
2023-03-14 21:25:21:370,0,-9.59014,1.06213,5.80966,Q,Q
2023-03-14 21:25:21:380,0,-9.69624,1.08369,6.32966,Q,Q
2023-03-14 21:25:21:390,0,-9.79196,1.10208,6.84731,Q,Q
2023-03-14 21:25:21:400,0,-9.88316,1.11398,7.37574,Q,Q
2023-03-14 21:25:21:410,0,-9.97145,1.12557,7.89369,Q,Q
2023-03-14 21:25:21:420,0,-10.0469,1.12922,8.40262,Q,Q
2023-03-14 21:25:21:430,0,-10.1167,1.13294,8.91075,Q,Q
2023-03-14 21:25:21:440,0,-10.1849,1.14755,9.38776,Q,Q
2023-03-14 21:25:21:450,0,-10.2532,1.18456,9.81513,Q,Q
2023-03-14 21:25:21:460,0,-10.312,1.23711,10.1911,Q,Q
2023-03-14 21:25:21:470,0,-10.3646,1.30146,10.5375,Q,Q
2023-03-14 21:25:21:480,0,-10.4146,1.36789,10.8523,Q,Q
2023-03-14 21:25:21:490,0,-10.4596,1.4363,11.1299,Q,Q
2023-03-14 21:25:21:500,0,-10.4968,1.50436,11.3741,Q,Q
2023-03-14 21:25:21:510,0,-10.5213,1.56267,11.607,Q,Q
2023-03-14 21:25:21:520,0,-10.5401,1.60931,11.8279,Q,Q
2023-03-14 21:25:21:530,0,-10.5541,1.64806,12.0384,Q,Q
2023-03-14 21:25:21:540,0,-10.5717,1.67774,12.2385,Q,Q
2023-03-14 21:25:21:550,0,-10.5926,1.70988,12.4189,Q,Q
2023-03-14 21:25:21:560,0,-10.6142,1.73337,12.5883,Q,Q
2023-03-14 21:25:21:570,0,-10.6325,1.74565,12.7636,Q,Q
2023-03-14 21:25:21:580,0,-10.6499,1.75313,12.9452,Q,Q
2023-03-14 21:25:21:590,0,-10.6689,1.76374,13.1196,Q,Q
2023-03-14 21:25:21:600,0,-10.6877,1.77564,13.2884,Q,Q
2023-03-14 21:25:21:610,0,-10.7042,1.79623,13.4613,Q,Q
2023-03-14 21:25:21:620,0,-10.7158,1.82487,13.6371,Q,Q
2023-03-14 21:25:21:630,0,-10.7205,1.85553,13.8214,Q,Q
2023-03-14 21:25:21:640,0,-10.7337,1.88974,14.0086,Q,Q
2023-03-14 21:25:21:650,0,-10.7577,1.9309,14.186,Q,Q
2023-03-14 21:25:21:660,0,-10.7954,1.97741,14.3461,Q,Q
2023-03-14 21:25:21:670,0,-10.8334,2.0349,14.491,Q,Q
2023-03-14 21:25:21:680,0,-10.8657,2.09704,14.6218,Q,Q
2023-03-14 21:25:21:690,0,-10.8958,2.16474,14.7402,Q,Q
2023-03-14 21:25:21:700,0,-10.9304,2.23167,14.8419,Q,Q
2023-03-14 21:25:21:710,0,-10.9642,2.29412,14.9297,Q,Q
2023-03-14 21:25:21:720,0,-10.9964,2.35345,15.0021,Q,Q
2023-03-14 21:25:21:730,0,-11.0244,2.40826,15.058,Q,Q
2023-03-14 21:25:21:740,0,-11.0418,2.4557,15.1001,Q,Q
2023-03-14 21:25:21:750,0,-11.0541,2.49894,15.1296,Q,Q
2023-03-14 21:25:21:760,0,-11.0605,2.53726,15.1508,Q,Q
2023-03-14 21:25:21:770,0,-11.066,2.56593,15.1732,Q,Q
2023-03-14 21:25:21:780,0,-11.0663,2.58463,15.1936,Q,Q
2023-03-14 21:25:21:790,0,-11.0631,2.59479,15.2156,Q,Q
2023-03-14 21:25:21:800,0,-11.0579,2.60248,15.24,Q,Q
2023-03-14 21:25:21:810,0,-11.0585,2.60993,15.2598,Q,Q
2023-03-14 21:25:21:819,0,-11.0531,2.62682,15.2674,Q,Q
2023-03-14 21:25:21:829,0,-11.0386,2.6475,15.2715,Q,Q
2023-03-14 21:25:21:840,0,-11.0123,2.67527,15.2765,Q,Q
2023-03-14 21:25:21:849,0,-10.9858,2.70342,15.2866,Q,Q
2023-03-14 21:25:21:860,0,-10.9609,2.72992,15.3031,Q,Q
2023-03-14 21:25:21:870,0,-10.9443,2.75494,15.3283,Q,Q
2023-03-14 21:25:21:880,0,-10.9353,2.77759,15.3664,Q,Q
2023-03-14 21:25:21:890,0,-10.9348,2.80342,15.4088,Q,Q
2023-03-14 21:25:21:900,0,-10.9351,2.82845,15.4603,Q,Q
2023-03-14 21:25:21:910,0,-10.9345,2.85691,15.5161,Q,Q
2023-03-14 21:25:21:920,0,-10.9434,2.88643,15.5733,Q,Q
2023-03-14 21:25:21:930,0,-10.9602,2.92319,15.6144,Q,Q
2023-03-14 21:25:21:940,0,-10.973,2.96682,15.6432,Q,Q
2023-03-14 21:25:21:950,0,-10.9723,3.01356,15.6846,Q,Q
2023-03-14 21:25:21:960,0,-10.9592,3.05285,15.7428,Q,Q
2023-03-14 21:25:21:970,0,-10.9527,3.0858,15.8036,Q,Q
2023-03-14 21:25:21:980,0,-10.9584,3.12074,15.8505,Q,Q
2023-03-14 21:25:21:990,0,-10.9828,3.15295,15.8933,Q,Q
2023-03-14 21:25:22:0,0,-11.0102,3.18904,15.9397,Q,Q
2023-03-14 21:25:22:10,0,-11.043,3.22922,15.9871,Q,Q
2023-03-14 21:25:22:20,0,-11.0773,3.26839,16.0438,Q,Q
2023-03-14 21:25:22:30,0,-11.1129,3.30597,16.1169,Q,Q
2023-03-14 21:25:22:40,0,-11.1473,3.34018,16.1934,Q,Q
2023-03-14 21:25:22:50,0,-11.1911,3.37473,16.2747,Q,Q
2023-03-14 21:25:22:60,0,-11.237,3.41302,16.3618,Q,Q
2023-03-14 21:25:22:70,0,-11.2818,3.45747,16.455,Q,Q
2023-03-14 21:25:22:80,0,-11.3175,3.50957,16.5538,Q,Q
2023-03-14 21:25:22:90,0,-11.3467,3.56991,16.6653,Q,Q
2023-03-14 21:25:22:100,0,-11.3779,3.64018,16.7959,Q,Q
2023-03-14 21:25:22:110,0,-11.4134,3.71012,16.9478,Q,Q
2023-03-14 21:25:22:120,0,-11.465,3.78354,17.1189,Q,Q
2023-03-14 21:25:22:130,0,-11.5328,3.85581,17.3054,Q,Q
2023-03-14 21:25:22:140,0,-11.6162,3.9346,17.5088,Q,Q
2023-03-14 21:25:22:150,0,-11.7128,4.0266,17.7174,Q,Q
2023-03-14 21:25:22:160,0,-11.8118,4.12546,17.9227,Q,Q
2023-03-14 21:25:22:170,0,-11.9039,4.23512,18.116,Q,Q
2023-03-14 21:25:22:180,0,-11.9872,4.35076,18.2992,Q,Q
2023-03-14 21:25:22:189,0,-12.0572,4.46744,18.4755,Q,Q
2023-03-14 21:25:22:200,0,-12.113,4.5847,18.6518,Q,Q
2023-03-14 21:25:22:210,0,-12.156,4.68807,18.8286,Q,Q
2023-03-14 21:25:22:220,0,-12.1964,4.77894,18.9987,Q,Q
2023-03-14 21:25:22:230,0,-12.2345,4.85766,19.1581,Q,Q
2023-03-14 21:25:22:239,0,-12.2775,4.92629,19.3052,Q,Q
2023-03-14 21:25:22:250,0,-12.3276,4.98931,19.4378,Q,Q
2023-03-14 21:25:22:260,0,-12.3875,5.0445,19.5474,Q,Q
2023-03-14 21:25:22:270,0,-12.4502,5.09504,19.6431,Q,Q
2023-03-14 21:25:22:280,0,-12.5119,5.14263,19.715,Q,Q
2023-03-14 21:25:22:290,0,-12.5638,5.19338,19.7471,Q,Q
2023-03-14 21:25:22:300,0,-12.6001,5.24639,19.7412,Q,Q
2023-03-14 21:25:22:310,0,-12.6247,5.2982,19.7081,Q,Q
2023-03-14 21:25:22:320,0,-12.6447,5.34271,19.6587,Q,Q
2023-03-14 21:25:22:330,0,-12.664,5.38049,19.5844,Q,Q
2023-03-14 21:25:22:340,0,-12.677,5.4179,19.4937,Q,Q
2023-03-14 21:25:22:350,0,-12.6803,5.45038,19.3966,Q,Q
2023-03-14 21:25:22:359,0,-12.687,5.47528,19.2989,Q,Q
2023-03-14 21:25:22:369,0,-12.7006,5.49821,19.2076,Q,Q
2023-03-14 21:25:22:379,0,-12.7238,5.51715,19.1151,Q,Q
2023-03-14 21:25:22:390,0,-12.7469,5.53956,19.0237,Q,Q
2023-03-14 21:25:22:399,0,-12.7706,5.55913,18.9447,Q,Q
2023-03-14 21:25:22:409,0,-12.792,5.58323,18.8754,Q,Q
2023-03-14 21:25:22:419,0,-12.8101,5.61245,18.8142,Q,Q
2023-03-14 21:25:22:429,0,-12.8199,5.63722,18.7663,Q,Q
2023-03-14 21:25:22:440,0,-12.8303,5.65676,18.7348,Q,Q
2023-03-14 21:25:22:450,0,-12.8494,5.67372,18.7037,Q,Q
2023-03-14 21:25:22:459,0,-12.8771,5.69157,18.6717,Q,Q
2023-03-14 21:25:22:470,0,-12.9282,5.72409,18.6332,Q,Q
2023-03-14 21:25:22:480,0,-12.9895,5.76443,18.5971,Q,Q
2023-03-14 21:25:22:490,0,-13.0654,5.80934,18.562,Q,Q
2023-03-14 21:25:22:499,0,-13.142,5.85761,18.5385,Q,Q
2023-03-14 21:25:22:509,0,-13.2264,5.90409,18.5306,Q,Q
2023-03-14 21:25:22:519,0,-13.3132,5.94958,18.5345,Q,Q
2023-03-14 21:25:22:529,0,-13.4058,6.00685,18.5364,Q,Q
2023-03-14 21:25:22:540,0,-13.5021,6.07933,18.5267,Q,Q
2023-03-14 21:25:22:550,0,-13.593,6.16786,18.5051,Q,Q
2023-03-14 21:25:22:560,0,-13.6831,6.27083,18.4704,Q,Q
2023-03-14 21:25:22:570,0,-13.761,6.3806,18.4181,Q,Q
2023-03-14 21:25:22:580,0,-13.8336,6.49525,18.338,Q,Q
2023-03-14 21:25:22:590,0,-13.9071,6.59926,18.236,Q,Q
2023-03-14 21:25:22:600,0,-13.9772,6.68427,18.1148,Q,Q
2023-03-14 21:25:22:609,0,-14.0556,6.74493,17.9734,Q,Q
2023-03-14 21:25:22:620,0,-14.1463,6.77658,17.8146,Q,Q
2023-03-14 21:25:22:630,0,-14.2328,6.78307,17.6398,Q,Q
2023-03-14 21:25:22:640,0,-14.3135,6.7711,17.4491,Q,Q
2023-03-14 21:25:22:650,0,-14.384,6.74917,17.2414,Q,Q
2023-03-14 21:25:22:659,0,-14.4378,6.7219,17.0168,Q,Q
2023-03-14 21:25:22:670,0,-14.4756,6.68403,16.7769,Q,Q
2023-03-14 21:25:22:680,0,-14.4958,6.63154,16.5298,Q,Q
2023-03-14 21:25:22:690,0,-14.5007,6.55202,16.2898,Q,Q
2023-03-14 21:25:22:700,0,-14.5157,6.44038,16.0701,Q,Q
2023-03-14 21:25:22:710,0,-14.5464,6.30693,15.8609,Q,Q
2023-03-14 21:25:22:720,0,-14.5971,6.16306,15.6476,Q,Q
2023-03-14 21:25:22:730,0,-14.6593,6.01718,15.4398,Q,Q
2023-03-14 21:25:22:740,0,-14.7257,5.87784,15.2488,Q,Q
2023-03-14 21:25:22:750,0,-14.7834,5.74969,15.0853,Q,Q
2023-03-14 21:25:22:760,0,-14.825,5.63039,14.9433,Q,Q
2023-03-14 21:25:22:770,0,-14.8556,5.53402,14.8161,Q,Q
2023-03-14 21:25:22:780,0,-14.871,5.4642,14.703,Q,Q
2023-03-14 21:25:22:790,0,-14.8836,5.41971,14.6022,Q,Q
2023-03-14 21:25:22:800,0,-14.895,5.3967,14.51,Q,Q
2023-03-14 21:25:22:810,0,-14.9092,5.39011,14.4352,Q,Q
2023-03-14 21:25:22:820,0,-14.914,5.39114,14.375,Q,Q
2023-03-14 21:25:22:830,0,-14.9149,5.40519,14.3271,Q,Q
2023-03-14 21:25:22:840,0,-14.8987,5.42481,14.2969,Q,Q
2023-03-14 21:25:22:850,0,-14.8775,5.45301,14.2723,Q,Q
2023-03-14 21:25:22:860,0,-14.8543,5.48299,14.2498,Q,Q
2023-03-14 21:25:22:870,0,-14.8392,5.51892,14.2237,Q,Q
2023-03-14 21:25:22:880,0,-14.8335,5.55196,14.1917,Q,Q
2023-03-14 21:25:22:890,0,-14.8419,5.58787,14.1518,Q,Q
2023-03-14 21:25:22:900,0,-14.8488,5.62241,14.1205,Q,Q
2023-03-14 21:25:22:910,0,-14.8554,5.65169,14.1113,Q,Q
2023-03-14 21:25:22:920,0,-14.8601,5.68669,14.1155,Q,Q
2023-03-14 21:25:22:930,0,-14.8665,5.72805,14.1298,Q,Q
2023-03-14 21:25:22:940,0,-14.8814,5.78194,14.146,Q,Q
2023-03-14 21:25:22:950,0,-14.9068,5.84433,14.1654,Q,Q
2023-03-14 21:25:22:960,0,-14.9303,5.89412,14.2042,Q,Q
2023-03-14 21:25:22:970,0,-14.9597,5.93024,14.2673,Q,Q
2023-03-14 21:25:22:980,0,-14.9934,5.94765,14.3573,Q,Q
2023-03-14 21:25:22:990,0,-15.0268,5.94431,14.4793,Q,Q
2023-03-14 21:25:22:999,0,-15.0651,5.91378,14.6222,Q,Q
2023-03-14 21:25:23:10,0,-15.1123,5.87315,14.7708,Q,Q
2023-03-14 21:25:23:20,0,-15.1782,5.83378,14.9016,Q,Q
2023-03-14 21:25:23:29,0,-15.2448,5.80313,14.9968,Q,Q
2023-03-14 21:25:23:39,0,-15.3041,5.78178,15.0585,Q,Q
2023-03-14 21:25:23:50,0,-15.3529,5.75871,15.0939,Q,Q
2023-03-14 21:25:23:59,0,-15.3875,5.7297,15.108,Q,Q
2023-03-14 21:25:23:70,0,-15.4133,5.70124,15.1038,Q,Q
2023-03-14 21:25:23:80,0,-15.4297,5.65956,15.081,Q,Q
2023-03-14 21:25:23:90,0,-15.4438,5.61998,15.0517,Q,Q
2023-03-14 21:25:23:100,0,-15.4545,5.57807,15.0159,Q,Q
