Timestamp_cmd,imu_cmd,roll_delta,pitch_delta,yaw_delta,voice_type,voice_length
2023-03-14 16:21:42:474,0,-9.58827,-3.68157,69.7798,Q,Q
2023-03-14 16:21:42:482,0,-9.5863,-3.67395,69.785,Q,Q
2023-03-14 16:21:42:492,0,-9.58011,-3.66386,69.7905,Q,Q
2023-03-14 16:21:42:502,0,-9.56993,-3.65606,69.7981,Q,Q
2023-03-14 16:21:42:512,0,-9.55911,-3.65106,69.8065,Q,Q
2023-03-14 16:21:42:523,0,-9.54403,-3.64596,69.8124,Q,Q
2023-03-14 16:21:42:532,0,-9.52722,-3.64226,69.8192,Q,Q
2023-03-14 16:21:42:543,0,-9.51145,-3.64017,69.8237,Q,Q
2023-03-14 16:21:42:553,0,-9.49928,-3.63672,69.8259,Q,Q
2023-03-14 16:21:42:562,0,-9.48598,-3.63031,69.827,Q,Q
2023-03-14 16:21:42:573,0,-9.4727,-3.62958,69.8257,Q,Q
2023-03-14 16:21:42:583,0,-9.46183,-3.62997,69.8259,Q,Q
2023-03-14 16:21:42:592,0,-9.44745,-3.63075,69.8188,Q,Q
2023-03-14 16:21:42:602,0,-9.43587,-3.63248,69.8174,Q,Q
2023-03-14 16:21:42:612,0,-9.42765,-3.62882,69.8125,Q,Q
2023-03-14 16:21:42:623,0,-9.42039,-3.63218,69.8101,Q,Q
2023-03-14 16:21:42:632,0,-9.41263,-3.63422,69.8081,Q,Q
2023-03-14 16:21:42:643,0,-9.41181,-3.63323,69.8059,Q,Q
2023-03-14 16:21:42:652,0,-9.41623,-3.63025,69.8054,Q,Q
2023-03-14 16:21:42:663,0,-9.41805,-3.62345,69.8021,Q,Q
2023-03-14 16:21:42:673,0,-9.41523,-3.62602,69.7964,Q,Q
2023-03-14 16:21:42:683,0,-9.40827,-3.63111,69.7941,Q,Q
2023-03-14 16:21:42:693,0,-9.39735,-3.63985,69.7925,Q,Q
2023-03-14 16:21:42:703,0,-9.39118,-3.64552,69.7906,Q,Q
2023-03-14 16:21:42:713,0,-9.39025,-3.64237,69.783,Q,Q
2023-03-14 16:21:42:723,0,-9.3847,-3.64166,69.7723,Q,Q
2023-03-14 16:21:42:733,0,-9.38573,-3.63954,69.7614,Q,Q
2023-03-14 16:21:42:743,0,-9.38688,-3.6346,69.7508,Q,Q
2023-03-14 16:21:42:753,0,-9.38732,-3.6323,69.7387,Q,Q
2023-03-14 16:21:42:763,0,-9.38799,-3.62703,69.7283,Q,Q
2023-03-14 16:21:42:773,0,-9.38546,-3.62229,69.7191,Q,Q
2023-03-14 16:21:42:783,0,-9.37912,-3.61853,69.7079,Q,Q
2023-03-14 16:21:42:793,0,-9.37436,-3.6158,69.7026,Q,Q
2023-03-14 16:21:42:803,0,-9.36809,-3.61634,69.6941,Q,Q
2023-03-14 16:21:42:813,0,-9.36462,-3.61753,69.6898,Q,Q
2023-03-14 16:21:42:823,0,-9.36075,-3.6172,69.6893,Q,Q
2023-03-14 16:21:42:833,0,-9.35775,-3.6206,69.6923,Q,Q
2023-03-14 16:21:42:843,0,-9.35673,-3.62306,69.6954,Q,Q
2023-03-14 16:21:42:853,0,-9.35905,-3.62862,69.7048,Q,Q
2023-03-14 16:21:42:862,0,-9.36971,-3.63612,69.7194,Q,Q
2023-03-14 16:21:42:872,0,-9.38335,-3.64341,69.7354,Q,Q
2023-03-14 16:21:42:882,0,-9.39861,-3.65729,69.7527,Q,Q
2023-03-14 16:21:42:892,0,-9.40757,-3.6727,69.7698,Q,Q
2023-03-14 16:21:42:902,0,-9.4093,-3.68746,69.7853,Q,Q
2023-03-14 16:21:42:912,0,-9.40792,-3.70284,69.7961,Q,Q
2023-03-14 16:21:42:922,0,-9.40772,-3.71649,69.8025,Q,Q
2023-03-14 16:21:42:932,0,-9.40513,-3.72831,69.8036,Q,Q
2023-03-14 16:21:42:942,0,-9.40662,-3.73584,69.8005,Q,Q
2023-03-14 16:21:42:952,0,-9.40946,-3.74437,69.7947,Q,Q
2023-03-14 16:21:42:962,0,-9.41499,-3.74946,69.7859,Q,Q
2023-03-14 16:21:42:972,0,-9.42362,-3.75419,69.7766,Q,Q
2023-03-14 16:21:42:982,0,-9.43169,-3.75961,69.7688,Q,Q
2023-03-14 16:21:42:992,0,-9.43852,-3.76148,69.7609,Q,Q
2023-03-14 16:21:43:2,0,-9.44686,-3.7619,69.754,Q,Q
2023-03-14 16:21:43:12,0,-9.44648,-3.76251,69.7461,Q,Q
2023-03-14 16:21:43:22,0,-9.44146,-3.76336,69.7407,Q,Q
2023-03-14 16:21:43:32,0,-9.4369,-3.76164,69.7395,Q,Q
2023-03-14 16:21:43:42,0,-9.43,-3.76083,69.7364,Q,Q
2023-03-14 16:21:43:52,0,-9.42656,-3.76421,69.7356,Q,Q
2023-03-14 16:21:43:62,0,-9.42442,-3.76322,69.7336,Q,Q
2023-03-14 16:21:43:72,0,-9.42246,-3.76394,69.7333,Q,Q
2023-03-14 16:21:43:82,0,-9.41683,-3.76171,69.7336,Q,Q
2023-03-14 16:21:43:92,0,-9.41687,-3.75897,69.731,Q,Q
2023-03-14 16:21:43:102,0,-9.41688,-3.75903,69.7285,Q,Q
2023-03-14 16:21:43:112,0,-9.41495,-3.75911,69.7234,Q,Q
2023-03-14 16:21:43:122,0,-9.41387,-3.75514,69.7159,Q,Q
2023-03-14 16:21:43:132,0,-9.4119,-3.75068,69.7098,Q,Q
2023-03-14 16:21:43:142,0,-9.41027,-3.75072,69.7019,Q,Q
2023-03-14 16:21:43:152,0,-9.41127,-3.74703,69.6949,Q,Q
2023-03-14 16:21:43:162,0,-9.41319,-3.74729,69.6875,Q,Q
2023-03-14 16:21:43:172,0,-9.41716,-3.74633,69.6818,Q,Q
2023-03-14 16:21:43:182,0,-9.42386,-3.7477,69.6803,Q,Q
2023-03-14 16:21:43:192,0,-9.4313,-3.74962,69.6781,Q,Q
2023-03-14 16:21:43:202,0,-9.44285,-3.75741,69.6838,Q,Q
2023-03-14 16:21:43:212,0,-9.45187,-3.77161,69.6925,Q,Q
2023-03-14 16:21:43:222,0,-9.45978,-3.7847,69.699,Q,Q
2023-03-14 16:21:43:232,0,-9.4722,-3.79341,69.7086,Q,Q
2023-03-14 16:21:43:242,0,-9.48384,-3.80382,69.7137,Q,Q
2023-03-14 16:21:43:252,0,-9.49929,-3.8094,69.7212,Q,Q
2023-03-14 16:21:43:262,0,-9.50883,-3.8155,69.727,Q,Q
2023-03-14 16:21:43:272,0,-9.51672,-3.82352,69.7328,Q,Q
2023-03-14 16:21:43:282,0,-9.5196,-3.8284,69.7378,Q,Q
2023-03-14 16:21:43:292,0,-9.51754,-3.8304,69.744,Q,Q
2023-03-14 16:21:43:302,0,-9.51588,-3.82611,69.7484,Q,Q
2023-03-14 16:21:43:312,0,-9.51664,-3.81975,69.7482,Q,Q
2023-03-14 16:21:43:323,0,-9.51882,-3.81568,69.7486,Q,Q
2023-03-14 16:21:43:332,0,-9.5216,-3.80886,69.7458,Q,Q
2023-03-14 16:21:43:343,0,-9.51974,-3.80623,69.7405,Q,Q
2023-03-14 16:21:43:352,0,-9.5185,-3.79807,69.7319,Q,Q
2023-03-14 16:21:43:363,0,-9.51734,-3.791,69.7206,Q,Q
2023-03-14 16:21:43:372,0,-9.51551,-3.78323,69.7066,Q,Q
2023-03-14 16:21:43:383,0,-9.51172,-3.77423,69.6944,Q,Q
2023-03-14 16:21:43:392,0,-9.50805,-3.76772,69.6764,Q,Q
2023-03-14 16:21:43:403,0,-9.4998,-3.76266,69.6585,Q,Q
2023-03-14 16:21:43:413,0,-9.49956,-3.75426,69.6442,Q,Q
2023-03-14 16:21:43:423,0,-9.49514,-3.74737,69.6326,Q,Q
2023-03-14 16:21:43:432,0,-9.48725,-3.73957,69.6193,Q,Q
2023-03-14 16:21:43:443,0,-9.47595,-3.73406,69.6092,Q,Q
2023-03-14 16:21:43:452,0,-9.46786,-3.73797,69.6027,Q,Q
2023-03-14 16:21:43:463,0,-9.45624,-3.74221,69.6028,Q,Q
2023-03-14 16:21:43:472,0,-9.45291,-3.74175,69.6026,Q,Q
2023-03-14 16:21:43:482,0,-9.44792,-3.74238,69.6028,Q,Q
2023-03-14 16:21:43:492,0,-9.44242,-3.73903,69.6035,Q,Q
2023-03-14 16:21:43:502,0,-9.43906,-3.73736,69.603,Q,Q
2023-03-14 16:21:43:512,0,-9.43749,-3.73471,69.6056,Q,Q
2023-03-14 16:21:43:523,0,-9.43314,-3.73723,69.607,Q,Q
2023-03-14 16:21:43:532,0,-9.42579,-3.74128,69.608,Q,Q
2023-03-14 16:21:43:543,0,-9.41915,-3.74422,69.609,Q,Q
2023-03-14 16:21:43:553,0,-9.41097,-3.74719,69.6091,Q,Q
2023-03-14 16:21:43:562,0,-9.40618,-3.75143,69.6105,Q,Q
2023-03-14 16:21:43:572,0,-9.40319,-3.75701,69.6107,Q,Q
2023-03-14 16:21:43:582,0,-9.40196,-3.76245,69.6125,Q,Q
2023-03-14 16:21:43:592,0,-9.40473,-3.76777,69.6134,Q,Q
2023-03-14 16:21:43:602,0,-9.40812,-3.7741,69.615,Q,Q
2023-03-14 16:21:43:612,0,-9.4083,-3.78013,69.6181,Q,Q
2023-03-14 16:21:43:622,0,-9.40914,-3.7813,69.6187,Q,Q
2023-03-14 16:21:43:632,0,-9.40964,-3.78477,69.6249,Q,Q
2023-03-14 16:21:43:642,0,-9.40992,-3.78145,69.6291,Q,Q
2023-03-14 16:21:43:652,0,-9.40576,-3.77948,69.6352,Q,Q
2023-03-14 16:21:43:662,0,-9.40357,-3.77511,69.6416,Q,Q
2023-03-14 16:21:43:672,0,-9.39848,-3.76842,69.6464,Q,Q
2023-03-14 16:21:43:682,0,-9.39045,-3.76297,69.6525,Q,Q
2023-03-14 16:21:43:692,0,-9.37969,-3.75703,69.6543,Q,Q
2023-03-14 16:21:43:703,0,-9.36973,-3.7547,69.6583,Q,Q
2023-03-14 16:21:43:712,0,-9.35871,-3.75384,69.6584,Q,Q
2023-03-14 16:21:43:723,0,-9.34598,-3.75278,69.6588,Q,Q
2023-03-14 16:21:43:732,0,-9.32806,-3.74847,69.6609,Q,Q
2023-03-14 16:21:43:743,0,-9.30584,-3.74885,69.6592,Q,Q
2023-03-14 16:21:43:752,0,-9.28191,-3.75091,69.6633,Q,Q
2023-03-14 16:21:43:763,0,-9.25467,-3.7569,69.6648,Q,Q
2023-03-14 16:21:43:773,0,-9.22805,-3.76073,69.6643,Q,Q
2023-03-14 16:21:43:783,0,-9.20477,-3.76548,69.6601,Q,Q
2023-03-14 16:21:43:792,0,-9.18784,-3.76774,69.6531,Q,Q
2023-03-14 16:21:43:803,0,-9.17134,-3.76967,69.6433,Q,Q
2023-03-14 16:21:43:813,0,-9.16203,-3.77192,69.6263,Q,Q
2023-03-14 16:21:43:823,0,-9.15769,-3.76804,69.6047,Q,Q
2023-03-14 16:21:43:833,0,-9.16213,-3.76127,69.5776,Q,Q
2023-03-14 16:21:43:843,0,-9.16392,-3.75615,69.5559,Q,Q
2023-03-14 16:21:43:853,0,-9.16219,-3.75236,69.5393,Q,Q
2023-03-14 16:21:43:863,0,-9.15713,-3.74707,69.5272,Q,Q
2023-03-14 16:21:43:873,0,-9.14326,-3.74767,69.5247,Q,Q
2023-03-14 16:21:43:883,0,-9.12418,-3.75048,69.5294,Q,Q
2023-03-14 16:21:43:892,0,-9.10761,-3.75227,69.5339,Q,Q
2023-03-14 16:21:43:903,0,-9.0948,-3.75348,69.5379,Q,Q
2023-03-14 16:21:43:913,0,-9.08348,-3.74761,69.5458,Q,Q
2023-03-14 16:21:43:923,0,-9.07589,-3.7442,69.5538,Q,Q
2023-03-14 16:21:43:933,0,-9.07773,-3.74206,69.56,Q,Q
2023-03-14 16:21:43:943,0,-9.08481,-3.7463,69.5661,Q,Q
2023-03-14 16:21:43:953,0,-9.0926,-3.75635,69.5754,Q,Q
2023-03-14 16:21:43:963,0,-9.09125,-3.77277,69.5899,Q,Q
2023-03-14 16:21:43:973,0,-9.08285,-3.79791,69.6074,Q,Q
2023-03-14 16:21:43:983,0,-9.06909,-3.82973,69.6256,Q,Q
2023-03-14 16:21:43:993,0,-9.05726,-3.86952,69.6469,Q,Q
2023-03-14 16:21:44:3,0,-9.05658,-3.90829,69.6714,Q,Q
2023-03-14 16:21:44:13,0,-9.06691,-3.94286,69.693,Q,Q
2023-03-14 16:21:44:23,0,-9.08888,-3.97433,69.7153,Q,Q
2023-03-14 16:21:44:32,0,-9.12077,-3.99939,69.7346,Q,Q
2023-03-14 16:21:44:43,0,-9.16169,-4.01857,69.7506,Q,Q
2023-03-14 16:21:44:53,0,-9.2001,-4.03115,69.7659,Q,Q
2023-03-14 16:21:44:63,0,-9.23816,-4.04055,69.7824,Q,Q
2023-03-14 16:21:44:73,0,-9.26608,-4.04529,69.7978,Q,Q
2023-03-14 16:21:44:83,0,-9.28142,-4.0506,69.8118,Q,Q
2023-03-14 16:21:44:93,0,-9.28228,-4.05703,69.8283,Q,Q
2023-03-14 16:21:44:103,0,-9.27041,-4.06686,69.85,Q,Q
2023-03-14 16:21:44:113,0,-9.25762,-4.084,69.8753,Q,Q
2023-03-14 16:21:44:123,0,-9.24961,-4.0983,69.8993,Q,Q
2023-03-14 16:21:44:133,0,-9.2506,-4.11031,69.9202,Q,Q
2023-03-14 16:21:44:143,0,-9.25528,-4.11972,69.9371,Q,Q
2023-03-14 16:21:44:153,0,-9.27021,-4.12873,69.9462,Q,Q
2023-03-14 16:21:44:163,0,-9.2986,-4.13933,69.9473,Q,Q
2023-03-14 16:21:44:173,0,-9.32943,-4.14868,69.9417,Q,Q
2023-03-14 16:21:44:183,0,-9.36041,-4.15434,69.9298,Q,Q
2023-03-14 16:21:44:193,0,-9.38926,-4.1573,69.9144,Q,Q
2023-03-14 16:21:44:203,0,-9.40571,-4.16174,69.903,Q,Q
2023-03-14 16:21:44:213,0,-9.41378,-4.16872,69.8978,Q,Q
2023-03-14 16:21:44:223,0,-9.42181,-4.17856,69.8954,Q,Q
2023-03-14 16:21:44:233,0,-9.42979,-4.18411,69.8962,Q,Q
2023-03-14 16:21:44:243,0,-9.44725,-4.18086,69.8956,Q,Q
2023-03-14 16:21:44:253,0,-9.47495,-4.17531,69.8932,Q,Q
2023-03-14 16:21:44:263,0,-9.51153,-4.16283,69.8836,Q,Q
2023-03-14 16:21:44:273,0,-9.55292,-4.14871,69.8758,Q,Q
2023-03-14 16:21:44:283,0,-9.59471,-4.12963,69.8568,Q,Q
2023-03-14 16:21:44:293,0,-9.63526,-4.10809,69.8298,Q,Q
2023-03-14 16:21:44:303,0,-9.66926,-4.08527,69.804,Q,Q
2023-03-14 16:21:44:313,0,-9.69632,-4.05977,69.7744,Q,Q
2023-03-14 16:21:44:323,0,-9.71786,-4.0343,69.7487,Q,Q
2023-03-14 16:21:44:333,0,-9.72512,-4.00966,69.7243,Q,Q
2023-03-14 16:21:44:343,0,-9.7202,-3.98866,69.7025,Q,Q
2023-03-14 16:21:44:352,0,-9.71237,-3.97041,69.6866,Q,Q
2023-03-14 16:21:44:363,0,-9.70487,-3.95649,69.6753,Q,Q
2023-03-14 16:21:44:373,0,-9.70203,-3.94503,69.6614,Q,Q
2023-03-14 16:21:44:383,0,-9.71069,-3.93265,69.6544,Q,Q
2023-03-14 16:21:44:392,0,-9.72613,-3.92575,69.6398,Q,Q
2023-03-14 16:21:44:402,0,-9.74725,-3.91414,69.6224,Q,Q
2023-03-14 16:21:44:412,0,-9.77189,-3.90298,69.6001,Q,Q
2023-03-14 16:21:44:423,0,-9.79458,-3.89375,69.5763,Q,Q
2023-03-14 16:21:44:432,0,-9.80753,-3.88526,69.5541,Q,Q
2023-03-14 16:21:44:443,0,-9.80971,-3.87671,69.5397,Q,Q
2023-03-14 16:21:44:453,0,-9.80641,-3.87311,69.5296,Q,Q
2023-03-14 16:21:44:463,0,-9.80219,-3.87221,69.5258,Q,Q
2023-03-14 16:21:44:472,0,-9.80074,-3.86572,69.524,Q,Q
2023-03-14 16:21:44:483,0,-9.80521,-3.86079,69.5204,Q,Q
2023-03-14 16:21:44:493,0,-9.8219,-3.8565,69.5158,Q,Q
2023-03-14 16:21:44:503,0,-9.84517,-3.85562,69.5005,Q,Q
2023-03-14 16:21:44:513,0,-9.87395,-3.86261,69.4885,Q,Q
2023-03-14 16:21:44:522,0,-9.89941,-3.87564,69.4744,Q,Q
2023-03-14 16:21:44:533,0,-9.9164,-3.89561,69.4674,Q,Q
2023-03-14 16:21:44:542,0,-9.92615,-3.92246,69.469,Q,Q
2023-03-14 16:21:44:552,0,-9.92916,-3.95301,69.4826,Q,Q
2023-03-14 16:21:44:563,0,-9.93623,-3.98454,69.5093,Q,Q
2023-03-14 16:21:44:573,0,-9.94591,-4.01597,69.5444,Q,Q
2023-03-14 16:21:44:583,0,-9.96166,-4.04242,69.5809,Q,Q
2023-03-14 16:21:44:593,0,-9.98873,-4.05837,69.6172,Q,Q
2023-03-14 16:21:44:603,0,-10.0255,-4.07084,69.6483,Q,Q
2023-03-14 16:21:44:613,0,-10.0612,-4.07944,69.6674,Q,Q
2023-03-14 16:21:44:623,0,-10.089,-4.08283,69.6758,Q,Q
2023-03-14 16:21:44:633,0,-10.1095,-4.08565,69.6789,Q,Q
2023-03-14 16:21:44:643,0,-10.1187,-4.08632,69.6793,Q,Q
2023-03-14 16:21:44:653,0,-10.1187,-4.0895,69.6741,Q,Q
2023-03-14 16:21:44:663,0,-10.1143,-4.09048,69.6673,Q,Q
2023-03-14 16:21:44:673,0,-10.1118,-4.09131,69.6548,Q,Q
2023-03-14 16:21:44:683,0,-10.1132,-4.08642,69.6409,Q,Q
2023-03-14 16:21:44:693,0,-10.1242,-4.08059,69.6277,Q,Q
2023-03-14 16:21:44:703,0,-10.1414,-4.07102,69.6114,Q,Q
2023-03-14 16:21:44:713,0,-10.1521,-4.06164,69.5879,Q,Q
2023-03-14 16:21:44:723,0,-10.1586,-4.05527,69.5655,Q,Q
2023-03-14 16:21:44:733,0,-10.1594,-4.04504,69.5465,Q,Q
2023-03-14 16:21:44:743,0,-10.1545,-4.04018,69.5326,Q,Q
2023-03-14 16:21:44:753,0,-10.1362,-4.0332,69.5212,Q,Q
2023-03-14 16:21:44:763,0,-10.1075,-4.02465,69.5139,Q,Q
2023-03-14 16:21:44:773,0,-10.0683,-4.0222,69.5083,Q,Q
2023-03-14 16:21:44:783,0,-10.0304,-4.02346,69.5111,Q,Q
2023-03-14 16:21:44:792,0,-9.99077,-4.02916,69.5209,Q,Q
2023-03-14 16:21:44:803,0,-9.95255,-4.03917,69.5313,Q,Q
2023-03-14 16:21:44:812,0,-9.92306,-4.05707,69.546,Q,Q
2023-03-14 16:21:44:823,0,-9.9038,-4.08122,69.5647,Q,Q
2023-03-14 16:21:44:832,0,-9.89107,-4.10912,69.5788,Q,Q
2023-03-14 16:21:44:843,0,-9.87965,-4.13636,69.5954,Q,Q
2023-03-14 16:21:44:853,0,-9.86897,-4.16659,69.6069,Q,Q
2023-03-14 16:21:44:863,0,-9.85932,-4.19945,69.618,Q,Q
2023-03-14 16:21:44:872,0,-9.84701,-4.23697,69.6318,Q,Q
2023-03-14 16:21:44:883,0,-9.83512,-4.27238,69.644,Q,Q
2023-03-14 16:21:44:893,0,-9.82079,-4.30518,69.657,Q,Q
2023-03-14 16:21:44:903,0,-9.8103,-4.33407,69.6708,Q,Q
2023-03-14 16:21:44:912,0,-9.80685,-4.35942,69.6821,Q,Q
2023-03-14 16:21:44:923,0,-9.81556,-4.3761,69.6911,Q,Q
2023-03-14 16:21:44:932,0,-9.83438,-4.38253,69.6912,Q,Q
2023-03-14 16:21:44:943,0,-9.86317,-4.37568,69.6788,Q,Q
2023-03-14 16:21:44:952,0,-9.88254,-4.36425,69.6527,Q,Q
2023-03-14 16:21:44:963,0,-9.90014,-4.34729,69.6233,Q,Q
2023-03-14 16:21:44:973,0,-9.91066,-4.32728,69.5799,Q,Q
2023-03-14 16:21:44:983,0,-9.92226,-4.31241,69.5317,Q,Q
2023-03-14 16:21:44:992,0,-9.92575,-4.29537,69.4799,Q,Q
2023-03-14 16:21:45:3,0,-9.92647,-4.28191,69.4258,Q,Q
2023-03-14 16:21:45:12,0,-9.91966,-4.27419,69.3796,Q,Q
2023-03-14 16:21:45:23,0,-9.91077,-4.27131,69.3423,Q,Q
2023-03-14 16:21:45:32,0,-9.89767,-4.27402,69.3114,Q,Q
2023-03-14 16:21:45:43,0,-9.8822,-4.27728,69.2944,Q,Q
2023-03-14 16:21:45:52,0,-9.86327,-4.2835,69.2899,Q,Q
2023-03-14 16:21:45:63,0,-9.84038,-4.29573,69.2965,Q,Q
2023-03-14 16:21:45:72,0,-9.82068,-4.31004,69.3136,Q,Q
2023-03-14 16:21:45:83,0,-9.80172,-4.32724,69.3358,Q,Q
2023-03-14 16:21:45:93,0,-9.78782,-4.34592,69.3645,Q,Q
2023-03-14 16:21:45:103,0,-9.78065,-4.36536,69.3918,Q,Q
2023-03-14 16:21:45:112,0,-9.77333,-4.38097,69.4161,Q,Q
2023-03-14 16:21:45:123,0,-9.76633,-4.39688,69.4306,Q,Q
2023-03-14 16:21:45:133,0,-9.76128,-4.41128,69.4438,Q,Q
2023-03-14 16:21:45:143,0,-9.76026,-4.42776,69.4492,Q,Q
2023-03-14 16:21:45:152,0,-9.7663,-4.44228,69.449,Q,Q
2023-03-14 16:21:45:163,0,-9.77371,-4.45359,69.4469,Q,Q
2023-03-14 16:21:45:172,0,-9.7815,-4.45703,69.4451,Q,Q
2023-03-14 16:21:45:183,0,-9.79235,-4.45837,69.4365,Q,Q
2023-03-14 16:21:45:192,0,-9.80242,-4.45236,69.4285,Q,Q
2023-03-14 16:21:45:203,0,-9.81348,-4.43944,69.4153,Q,Q
2023-03-14 16:21:45:213,0,-9.82247,-4.42275,69.399,Q,Q
2023-03-14 16:21:45:223,0,-9.83085,-4.40193,69.3791,Q,Q
2023-03-14 16:21:45:232,0,-9.83804,-4.3777,69.3574,Q,Q
2023-03-14 16:21:45:243,0,-9.84245,-4.35625,69.3344,Q,Q
2023-03-14 16:21:45:253,0,-9.84535,-4.33853,69.3143,Q,Q
2023-03-14 16:21:45:263,0,-9.84886,-4.31838,69.2925,Q,Q
2023-03-14 16:21:45:273,0,-9.85041,-4.30386,69.271,Q,Q
2023-03-14 16:21:45:283,0,-9.8552,-4.29315,69.2541,Q,Q
2023-03-14 16:21:45:293,0,-9.85969,-4.27719,69.2319,Q,Q
2023-03-14 16:21:45:303,0,-9.86267,-4.26469,69.2127,Q,Q
2023-03-14 16:21:45:313,0,-9.86712,-4.25546,69.2002,Q,Q
2023-03-14 16:21:45:323,0,-9.86376,-4.24436,69.1843,Q,Q
2023-03-14 16:21:45:333,0,-9.85047,-4.23893,69.1706,Q,Q
2023-03-14 16:21:45:343,0,-9.82762,-4.23492,69.1572,Q,Q
2023-03-14 16:21:45:353,0,-9.79923,-4.23614,69.1442,Q,Q
2023-03-14 16:21:45:363,0,-9.76892,-4.23974,69.1293,Q,Q
2023-03-14 16:21:45:373,0,-9.74034,-4.24304,69.1151,Q,Q
2023-03-14 16:21:45:383,0,-9.71283,-4.24935,69.1025,Q,Q
2023-03-14 16:21:45:393,0,-9.69,-4.25562,69.091,Q,Q
2023-03-14 16:21:45:403,0,-9.6688,-4.26186,69.0814,Q,Q
2023-03-14 16:21:45:412,0,-9.6466,-4.26384,69.0736,Q,Q
2023-03-14 16:21:45:423,0,-9.61967,-4.26864,69.0669,Q,Q
2023-03-14 16:21:45:432,0,-9.58993,-4.27312,69.0577,Q,Q
2023-03-14 16:21:45:443,0,-9.55786,-4.28094,69.0516,Q,Q
2023-03-14 16:21:45:453,0,-9.52802,-4.28818,69.0492,Q,Q
2023-03-14 16:21:45:463,0,-9.50236,-4.29255,69.0502,Q,Q
2023-03-14 16:21:45:473,0,-9.48414,-4.29709,69.0564,Q,Q
2023-03-14 16:21:45:483,0,-9.47102,-4.29934,69.0618,Q,Q
2023-03-14 16:21:45:493,0,-9.46433,-4.30418,69.071,Q,Q
2023-03-14 16:21:45:503,0,-9.46115,-4.30972,69.0863,Q,Q
2023-03-14 16:21:45:513,0,-9.46509,-4.31356,69.1045,Q,Q
2023-03-14 16:21:45:523,0,-9.46898,-4.3142,69.1231,Q,Q
2023-03-14 16:21:45:533,0,-9.47174,-4.31565,69.1387,Q,Q
2023-03-14 16:21:45:543,0,-9.47622,-4.31832,69.1539,Q,Q
2023-03-14 16:21:45:553,0,-9.48064,-4.3179,69.1657,Q,Q
2023-03-14 16:21:45:563,0,-9.48604,-4.31423,69.1723,Q,Q
2023-03-14 16:21:45:572,0,-9.49319,-4.31187,69.1734,Q,Q
2023-03-14 16:21:45:583,0,-9.50416,-4.31177,69.1716,Q,Q
2023-03-14 16:21:45:593,0,-9.51348,-4.3089,69.1627,Q,Q
2023-03-14 16:21:45:603,0,-9.52342,-4.30903,69.1525,Q,Q
2023-03-14 16:21:45:613,0,-9.5376,-4.30898,69.1362,Q,Q
2023-03-14 16:21:45:623,0,-9.5588,-4.30489,69.1177,Q,Q
2023-03-14 16:21:45:633,0,-9.57735,-4.29927,69.0983,Q,Q
2023-03-14 16:21:45:643,0,-9.59294,-4.28794,69.0793,Q,Q
2023-03-14 16:21:45:653,0,-9.60752,-4.27417,69.0571,Q,Q
2023-03-14 16:21:45:663,0,-9.61353,-4.26578,69.0302,Q,Q
2023-03-14 16:21:45:673,0,-9.61312,-4.25487,69.0072,Q,Q
2023-03-14 16:21:45:683,0,-9.60758,-4.24306,68.9856,Q,Q
2023-03-14 16:21:45:693,0,-9.60397,-4.229,68.9669,Q,Q
2023-03-14 16:21:45:703,0,-9.60205,-4.21218,68.9491,Q,Q
2023-03-14 16:21:45:713,0,-9.59878,-4.19321,68.9324,Q,Q
2023-03-14 16:21:45:723,0,-9.59794,-4.17398,68.9155,Q,Q
2023-03-14 16:21:45:733,0,-9.5955,-4.15596,68.9048,Q,Q
2023-03-14 16:21:45:743,0,-9.59167,-4.13901,68.8921,Q,Q
2023-03-14 16:21:45:753,0,-9.58606,-4.12155,68.8816,Q,Q
2023-03-14 16:21:45:763,0,-9.57936,-4.10827,68.8725,Q,Q
2023-03-14 16:21:45:772,0,-9.57341,-4.09511,68.8663,Q,Q
2023-03-14 16:21:45:783,0,-9.56531,-4.0877,68.859,Q,Q
2023-03-14 16:21:45:792,0,-9.55652,-4.07969,68.8513,Q,Q
2023-03-14 16:21:45:803,0,-9.54997,-4.07643,68.8446,Q,Q
2023-03-14 16:21:45:813,0,-9.54283,-4.07271,68.8373,Q,Q
2023-03-14 16:21:45:823,0,-9.54228,-4.07273,68.8339,Q,Q
2023-03-14 16:21:45:833,0,-9.53482,-4.07247,68.8319,Q,Q
2023-03-14 16:21:45:843,0,-9.52883,-4.07139,68.8276,Q,Q
2023-03-14 16:21:45:853,0,-9.52333,-4.07217,68.823,Q,Q
2023-03-14 16:21:45:863,0,-9.51789,-4.07432,68.8199,Q,Q
2023-03-14 16:21:45:873,0,-9.51649,-4.07716,68.8211,Q,Q
2023-03-14 16:21:45:883,0,-9.50968,-4.07769,68.8198,Q,Q
2023-03-14 16:21:45:893,0,-9.50841,-4.07782,68.8187,Q,Q
2023-03-14 16:21:45:903,0,-9.51461,-4.07309,68.8184,Q,Q
2023-03-14 16:21:45:913,0,-9.5254,-4.06699,68.8225,Q,Q
2023-03-14 16:21:45:923,0,-9.5441,-4.06132,68.823,Q,Q
2023-03-14 16:21:45:933,0,-9.56304,-4.05561,68.8245,Q,Q
2023-03-14 16:21:45:943,0,-9.57609,-4.0524,68.8212,Q,Q
2023-03-14 16:21:45:953,0,-9.59295,-4.04782,68.8169,Q,Q
2023-03-14 16:21:45:963,0,-9.60798,-4.04243,68.8161,Q,Q
2023-03-14 16:21:45:972,0,-9.62308,-4.03617,68.8112,Q,Q
2023-03-14 16:21:45:983,0,-9.63416,-4.02625,68.8032,Q,Q
2023-03-14 16:21:45:993,0,-9.64399,-4.01844,68.7935,Q,Q
2023-03-14 16:21:46:3,0,-9.64685,-4.0109,68.7816,Q,Q
2023-03-14 16:21:46:13,0,-9.65322,-3.99942,68.7699,Q,Q
2023-03-14 16:21:46:23,0,-9.66306,-3.9853,68.7605,Q,Q
2023-03-14 16:21:46:33,0,-9.67443,-3.97574,68.7515,Q,Q
2023-03-14 16:21:46:43,0,-9.68512,-3.96401,68.742,Q,Q
2023-03-14 16:21:46:53,0,-9.69376,-3.95385,68.7335,Q,Q
2023-03-14 16:21:46:63,0,-9.70128,-3.93996,68.7232,Q,Q
2023-03-14 16:21:46:73,0,-9.70068,-3.92422,68.7124,Q,Q
2023-03-14 16:21:46:82,0,-9.69804,-3.91298,68.7013,Q,Q
2023-03-14 16:21:46:92,0,-9.696,-3.90212,68.691,Q,Q
2023-03-14 16:21:46:102,0,-9.69195,-3.88859,68.6797,Q,Q
2023-03-14 16:21:46:112,0,-9.69129,-3.87617,68.6675,Q,Q
2023-03-14 16:21:46:123,0,-9.69473,-3.86841,68.6592,Q,Q
2023-03-14 16:21:46:132,0,-9.69817,-3.86673,68.6525,Q,Q
2023-03-14 16:21:46:143,0,-9.70775,-3.87101,68.6498,Q,Q
2023-03-14 16:21:46:152,0,-9.7201,-3.87526,68.6502,Q,Q
2023-03-14 16:21:46:163,0,-9.73838,-3.87867,68.6511,Q,Q
2023-03-14 16:21:46:173,0,-9.75192,-3.88416,68.6501,Q,Q
2023-03-14 16:21:46:183,0,-9.76305,-3.88673,68.6478,Q,Q
2023-03-14 16:21:46:192,0,-9.77744,-3.8881,68.6473,Q,Q
2023-03-14 16:21:46:203,0,-9.79192,-3.88806,68.6501,Q,Q
2023-03-14 16:21:46:212,0,-9.80507,-3.88736,68.6522,Q,Q
2023-03-14 16:21:46:222,0,-9.81719,-3.88537,68.6509,Q,Q
2023-03-14 16:21:46:233,0,-9.83141,-3.88005,68.6457,Q,Q
2023-03-14 16:21:46:243,0,-9.84394,-3.87293,68.6402,Q,Q
2023-03-14 16:21:46:252,0,-9.85858,-3.86693,68.6326,Q,Q
2023-03-14 16:21:46:262,0,-9.87492,-3.86168,68.6227,Q,Q
2023-03-14 16:21:46:273,0,-9.88714,-3.85632,68.611,Q,Q
2023-03-14 16:21:46:282,0,-9.90102,-3.85462,68.5988,Q,Q
2023-03-14 16:21:46:293,0,-9.91421,-3.84554,68.5832,Q,Q
2023-03-14 16:21:46:303,0,-9.91953,-3.8396,68.5661,Q,Q
2023-03-14 16:21:46:312,0,-9.92265,-3.83512,68.5492,Q,Q
2023-03-14 16:21:46:323,0,-9.92454,-3.83176,68.5251,Q,Q
2023-03-14 16:21:46:332,0,-9.93029,-3.83371,68.4971,Q,Q
2023-03-14 16:21:46:342,0,-9.93696,-3.8306,68.4675,Q,Q
2023-03-14 16:21:46:352,0,-9.93899,-3.82724,68.4357,Q,Q
2023-03-14 16:21:46:363,0,-9.9398,-3.82623,68.3983,Q,Q
2023-03-14 16:21:46:372,0,-9.93829,-3.83278,68.365,Q,Q
2023-03-14 16:21:46:383,0,-9.93641,-3.84472,68.3377,Q,Q
2023-03-14 16:21:46:393,0,-9.93473,-3.85872,68.3114,Q,Q
2023-03-14 16:21:46:403,0,-9.93076,-3.86804,68.285,Q,Q
2023-03-14 16:21:46:412,0,-9.93091,-3.87488,68.2619,Q,Q
2023-03-14 16:21:46:422,0,-9.93206,-3.88079,68.2414,Q,Q
2023-03-14 16:21:46:432,0,-9.93383,-3.88793,68.2232,Q,Q
2023-03-14 16:21:46:443,0,-9.93847,-3.89409,68.212,Q,Q
2023-03-14 16:21:46:452,0,-9.94476,-3.89872,68.2055,Q,Q
2023-03-14 16:21:46:463,0,-9.94856,-3.90797,68.2027,Q,Q
2023-03-14 16:21:46:472,0,-9.95269,-3.91429,68.2026,Q,Q
2023-03-14 16:21:46:483,0,-9.95841,-3.92093,68.2033,Q,Q
2023-03-14 16:21:46:492,0,-9.96547,-3.93256,68.2092,Q,Q
2023-03-14 16:21:46:503,0,-9.9715,-3.9418,68.2136,Q,Q
2023-03-14 16:21:46:513,0,-9.98135,-3.95178,68.2221,Q,Q
2023-03-14 16:21:46:523,0,-9.99174,-3.96042,68.233,Q,Q
2023-03-14 16:21:46:532,0,-9.99866,-3.96659,68.2436,Q,Q
2023-03-14 16:21:46:543,0,-10.0021,-3.96963,68.2544,Q,Q
2023-03-14 16:21:46:553,0,-9.9913,-3.96667,68.2602,Q,Q
2023-03-14 16:21:46:563,0,-9.97276,-3.96485,68.2641,Q,Q
2023-03-14 16:21:46:573,0,-9.96229,-3.95889,68.2648,Q,Q
2023-03-14 16:21:46:583,0,-9.96311,-3.95002,68.2655,Q,Q
2023-03-14 16:21:46:592,0,-9.96562,-3.94575,68.264,Q,Q
2023-03-14 16:21:46:602,0,-9.96813,-3.93783,68.2603,Q,Q
2023-03-14 16:21:46:612,0,-9.97128,-3.93151,68.2513,Q,Q
2023-03-14 16:21:46:623,0,-9.97424,-3.92347,68.242,Q,Q
2023-03-14 16:21:46:633,0,-9.97989,-3.91273,68.2275,Q,Q
2023-03-14 16:21:46:643,0,-9.98745,-3.90197,68.2137,Q,Q
2023-03-14 16:21:46:652,0,-9.9938,-3.89417,68.1979,Q,Q
2023-03-14 16:21:46:663,0,-10.0006,-3.89031,68.1817,Q,Q
2023-03-14 16:21:46:672,0,-10.0063,-3.88694,68.1675,Q,Q
2023-03-14 16:21:46:682,0,-10.0164,-3.884,68.1542,Q,Q
2023-03-14 16:21:46:692,0,-10.0267,-3.87831,68.1431,Q,Q
2023-03-14 16:21:46:702,0,-10.0347,-3.87324,68.135,Q,Q
2023-03-14 16:21:46:712,0,-10.0447,-3.86624,68.1291,Q,Q
2023-03-14 16:21:46:722,0,-10.054,-3.86224,68.1251,Q,Q
2023-03-14 16:21:46:732,0,-10.0633,-3.86143,68.1241,Q,Q
2023-03-14 16:21:46:742,0,-10.0751,-3.85079,68.1214,Q,Q
2023-03-14 16:21:46:752,0,-10.0816,-3.84224,68.1171,Q,Q
2023-03-14 16:21:46:762,0,-10.0855,-3.83205,68.1127,Q,Q
2023-03-14 16:21:46:772,0,-10.0782,-3.82511,68.1074,Q,Q
2023-03-14 16:21:46:782,0,-10.0669,-3.81563,68.1033,Q,Q
2023-03-14 16:21:46:792,0,-10.0512,-3.80484,68.0986,Q,Q
2023-03-14 16:21:46:802,0,-10.0342,-3.79155,68.0972,Q,Q
2023-03-14 16:21:46:812,0,-10.0181,-3.78079,68.0939,Q,Q
2023-03-14 16:21:46:822,0,-9.9995,-3.77353,68.0903,Q,Q
2023-03-14 16:21:46:832,0,-9.98505,-3.76714,68.0872,Q,Q
2023-03-14 16:21:46:842,0,-9.97416,-3.76506,68.0869,Q,Q
2023-03-14 16:21:46:852,0,-9.9675,-3.76007,68.0873,Q,Q
2023-03-14 16:21:46:862,0,-9.96003,-3.75795,68.0836,Q,Q
2023-03-14 16:21:46:872,0,-9.95235,-3.75983,68.0813,Q,Q
2023-03-14 16:21:46:882,0,-9.94121,-3.7617,68.0769,Q,Q
2023-03-14 16:21:46:892,0,-9.93161,-3.76451,68.077,Q,Q
2023-03-14 16:21:46:902,0,-9.92357,-3.76856,68.077,Q,Q
2023-03-14 16:21:46:912,0,-9.913,-3.7761,68.0777,Q,Q
2023-03-14 16:21:46:922,0,-9.90495,-3.78167,68.0791,Q,Q
2023-03-14 16:21:46:932,0,-9.89769,-3.78649,68.0779,Q,Q
2023-03-14 16:21:46:942,0,-9.89474,-3.79113,68.0789,Q,Q
2023-03-14 16:21:46:952,0,-9.89395,-3.79275,68.0816,Q,Q
2023-03-14 16:21:46:962,0,-9.89377,-3.79361,68.0831,Q,Q
2023-03-14 16:21:46:972,0,-9.8939,-3.79709,68.085,Q,Q
2023-03-14 16:21:46:982,0,-9.89791,-3.79714,68.082,Q,Q
2023-03-14 16:21:46:992,0,-9.90634,-3.79842,68.0809,Q,Q
2023-03-14 16:21:47:2,0,-9.92133,-3.80356,68.083,Q,Q
2023-03-14 16:21:47:12,0,-9.93765,-3.80401,68.0875,Q,Q
2023-03-14 16:21:47:22,0,-9.95984,-3.80356,68.0888,Q,Q
2023-03-14 16:21:47:32,0,-9.97934,-3.80006,68.0887,Q,Q
2023-03-14 16:21:47:42,0,-9.99535,-3.79743,68.0869,Q,Q
2023-03-14 16:21:47:52,0,-10.0117,-3.79962,68.0847,Q,Q
2023-03-14 16:21:47:62,0,-10.0247,-3.80555,68.0869,Q,Q
2023-03-14 16:21:47:72,0,-10.0406,-3.81101,68.0869,Q,Q
2023-03-14 16:21:47:82,0,-10.053,-3.81237,68.0846,Q,Q
2023-03-14 16:21:47:92,0,-10.0577,-3.81507,68.081,Q,Q
2023-03-14 16:21:47:102,0,-10.062,-3.81578,68.0788,Q,Q
2023-03-14 16:21:47:112,0,-10.0648,-3.81371,68.0776,Q,Q
2023-03-14 16:21:47:122,0,-10.0613,-3.81134,68.0742,Q,Q
2023-03-14 16:21:47:132,0,-10.0604,-3.81195,68.0698,Q,Q
2023-03-14 16:21:47:142,0,-10.0583,-3.81365,68.0664,Q,Q
2023-03-14 16:21:47:152,0,-10.0612,-3.81679,68.0682,Q,Q
2023-03-14 16:21:47:162,0,-10.069,-3.81865,68.066,Q,Q
2023-03-14 16:21:47:172,0,-10.0748,-3.82325,68.0677,Q,Q
2023-03-14 16:21:47:182,0,-10.0761,-3.8275,68.0689,Q,Q
2023-03-14 16:21:47:192,0,-10.0738,-3.83212,68.0692,Q,Q
2023-03-14 16:21:47:202,0,-10.0718,-3.84058,68.0723,Q,Q
2023-03-14 16:21:47:212,0,-10.0674,-3.84708,68.0783,Q,Q
2023-03-14 16:21:47:222,0,-10.0612,-3.85805,68.0856,Q,Q
2023-03-14 16:21:47:232,0,-10.0568,-3.86728,68.093,Q,Q
2023-03-14 16:21:47:242,0,-10.0517,-3.87995,68.105,Q,Q
2023-03-14 16:21:47:252,0,-10.0513,-3.8915,68.1167,Q,Q
2023-03-14 16:21:47:262,0,-10.0547,-3.9035,68.126,Q,Q
2023-03-14 16:21:47:272,0,-10.0591,-3.91246,68.1336,Q,Q
2023-03-14 16:21:47:282,0,-10.0631,-3.91871,68.142,Q,Q
2023-03-14 16:21:47:292,0,-10.0674,-3.92565,68.1495,Q,Q
2023-03-14 16:21:47:303,0,-10.0692,-3.9311,68.1557,Q,Q
2023-03-14 16:21:47:313,0,-10.0744,-3.93523,68.1628,Q,Q
2023-03-14 16:21:47:323,0,-10.0758,-3.93585,68.1634,Q,Q
2023-03-14 16:21:47:333,0,-10.0731,-3.93765,68.1671,Q,Q
2023-03-14 16:21:47:343,0,-10.0666,-3.93356,68.1707,Q,Q
2023-03-14 16:21:47:353,0,-10.0527,-3.9287,68.171,Q,Q
2023-03-14 16:21:47:363,0,-10.0347,-3.91863,68.1704,Q,Q
2023-03-14 16:21:47:373,0,-10.02,-3.90883,68.1702,Q,Q
2023-03-14 16:21:47:383,0,-10.0085,-3.89953,68.1679,Q,Q
2023-03-14 16:21:47:393,0,-9.99919,-3.88956,68.1639,Q,Q
2023-03-14 16:21:47:403,0,-9.9898,-3.87868,68.1594,Q,Q
2023-03-14 16:21:47:413,0,-9.98724,-3.86801,68.1559,Q,Q
2023-03-14 16:21:47:423,0,-9.98339,-3.85374,68.1456,Q,Q
2023-03-14 16:21:47:433,0,-9.97753,-3.84248,68.1269,Q,Q
2023-03-14 16:21:47:443,0,-9.97431,-3.83051,68.1083,Q,Q
2023-03-14 16:21:47:452,0,-9.97156,-3.82076,68.0895,Q,Q
2023-03-14 16:21:47:463,0,-9.97358,-3.81332,68.0765,Q,Q
2023-03-14 16:21:47:472,0,-9.97801,-3.80784,68.0627,Q,Q
2023-03-14 16:21:47:483,0,-9.98131,-3.80609,68.0508,Q,Q
2023-03-14 16:21:47:493,0,-9.98744,-3.8063,68.0408,Q,Q
2023-03-14 16:21:47:503,0,-9.99761,-3.81054,68.0394,Q,Q
2023-03-14 16:21:47:513,0,-10.0117,-3.81642,68.0407,Q,Q
2023-03-14 16:21:47:523,0,-10.0291,-3.82249,68.045,Q,Q
2023-03-14 16:21:47:533,0,-10.0411,-3.82584,68.0491,Q,Q
2023-03-14 16:21:47:543,0,-10.0589,-3.82819,68.0573,Q,Q
2023-03-14 16:21:47:553,0,-10.0807,-3.83306,68.064,Q,Q
2023-03-14 16:21:47:563,0,-10.0972,-3.83803,68.0722,Q,Q
2023-03-14 16:21:47:572,0,-10.1122,-3.84331,68.0792,Q,Q
2023-03-14 16:21:47:583,0,-10.1259,-3.84776,68.0851,Q,Q
2023-03-14 16:21:47:592,0,-10.1362,-3.84937,68.0926,Q,Q
2023-03-14 16:21:47:602,0,-10.1463,-3.85194,68.0976,Q,Q
2023-03-14 16:21:47:612,0,-10.1563,-3.85014,68.0992,Q,Q
2023-03-14 16:21:47:622,0,-10.1659,-3.84857,68.0996,Q,Q
2023-03-14 16:21:47:632,0,-10.1711,-3.84287,68.0989,Q,Q
2023-03-14 16:21:47:643,0,-10.1799,-3.83715,68.0943,Q,Q
2023-03-14 16:21:47:653,0,-10.1918,-3.83114,68.0852,Q,Q
2023-03-14 16:21:47:663,0,-10.1983,-3.82388,68.0769,Q,Q
2023-03-14 16:21:47:672,0,-10.2093,-3.8223,68.0718,Q,Q
2023-03-14 16:21:47:683,0,-10.2197,-3.81797,68.0652,Q,Q
2023-03-14 16:21:47:692,0,-10.2342,-3.81282,68.0544,Q,Q
2023-03-14 16:21:47:703,0,-10.244,-3.80483,68.042,Q,Q
2023-03-14 16:21:47:713,0,-10.2474,-3.7997,68.0317,Q,Q
2023-03-14 16:21:47:723,0,-10.2433,-3.79795,68.0257,Q,Q
2023-03-14 16:21:47:733,0,-10.2383,-3.79705,68.0213,Q,Q
2023-03-14 16:21:47:743,0,-10.2303,-3.79725,68.0168,Q,Q
2023-03-14 16:21:47:753,0,-10.2222,-3.79355,68.0124,Q,Q
2023-03-14 16:21:47:763,0,-10.2116,-3.78921,68.0085,Q,Q
2023-03-14 16:21:47:773,0,-10.2021,-3.78493,68.0084,Q,Q
2023-03-14 16:21:47:783,0,-10.1947,-3.78034,68.0093,Q,Q
2023-03-14 16:21:47:793,0,-10.1886,-3.77639,68.0083,Q,Q
2023-03-14 16:21:47:803,0,-10.188,-3.77579,68.0052,Q,Q
2023-03-14 16:21:47:812,0,-10.1852,-3.77839,68.0064,Q,Q
2023-03-14 16:21:47:822,0,-10.1816,-3.7811,68.0055,Q,Q
2023-03-14 16:21:47:833,0,-10.1774,-3.78632,68.0047,Q,Q
2023-03-14 16:21:47:843,0,-10.1782,-3.79271,68.0074,Q,Q
2023-03-14 16:21:47:853,0,-10.1729,-3.80074,68.0064,Q,Q
2023-03-14 16:21:47:863,0,-10.1711,-3.81091,68.0088,Q,Q
2023-03-14 16:21:47:873,0,-10.1687,-3.82214,68.0139,Q,Q
2023-03-14 16:21:47:883,0,-10.1713,-3.83218,68.0211,Q,Q
2023-03-14 16:21:47:893,0,-10.1711,-3.8439,68.0276,Q,Q
2023-03-14 16:21:47:903,0,-10.1767,-3.84889,68.0349,Q,Q
2023-03-14 16:21:47:913,0,-10.1808,-3.85847,68.043,Q,Q
2023-03-14 16:21:47:923,0,-10.1872,-3.8697,68.0527,Q,Q
2023-03-14 16:21:47:933,0,-10.1949,-3.88167,68.0593,Q,Q
2023-03-14 16:21:47:943,0,-10.1973,-3.89232,68.0633,Q,Q
2023-03-14 16:21:47:953,0,-10.1988,-3.90112,68.0657,Q,Q
2023-03-14 16:21:47:963,0,-10.1972,-3.91127,68.0672,Q,Q
2023-03-14 16:21:47:973,0,-10.1912,-3.92499,68.0613,Q,Q
2023-03-14 16:21:47:983,0,-10.1806,-3.93684,68.0536,Q,Q
2023-03-14 16:21:47:993,0,-10.1729,-3.945,68.0492,Q,Q
2023-03-14 16:21:48:3,0,-10.1674,-3.95562,68.043,Q,Q
2023-03-14 16:21:48:13,0,-10.1654,-3.9635,68.0378,Q,Q
2023-03-14 16:21:48:23,0,-10.1647,-3.96987,68.0362,Q,Q
2023-03-14 16:21:48:33,0,-10.1623,-3.97309,68.0335,Q,Q
2023-03-14 16:21:48:43,0,-10.1622,-3.97653,68.0352,Q,Q
2023-03-14 16:21:48:53,0,-10.1629,-3.97716,68.0361,Q,Q
2023-03-14 16:21:48:63,0,-10.1602,-3.97659,68.0341,Q,Q
2023-03-14 16:21:48:72,0,-10.1583,-3.97618,68.0337,Q,Q
2023-03-14 16:21:48:83,0,-10.1532,-3.97357,68.0316,Q,Q
2023-03-14 16:21:48:93,0,-10.145,-3.97081,68.0286,Q,Q
2023-03-14 16:21:48:103,0,-10.1349,-3.96418,68.0204,Q,Q
2023-03-14 16:21:48:112,0,-10.1249,-3.9588,68.016,Q,Q
2023-03-14 16:21:48:122,0,-10.1157,-3.95228,68.0096,Q,Q
2023-03-14 16:21:48:132,0,-10.11,-3.94338,68.0048,Q,Q
2023-03-14 16:21:48:142,0,-10.1031,-3.93871,68.0006,Q,Q
2023-03-14 16:21:48:153,0,-10.0932,-3.93425,67.9926,Q,Q
2023-03-14 16:21:48:163,0,-10.0797,-3.93497,67.9863,Q,Q
2023-03-14 16:21:48:172,0,-10.07,-3.93594,67.9817,Q,Q
2023-03-14 16:21:48:183,0,-10.067,-3.93953,67.9795,Q,Q
2023-03-14 16:21:48:193,0,-10.0618,-3.94358,67.9798,Q,Q
2023-03-14 16:21:48:203,0,-10.0591,-3.94778,67.979,Q,Q
2023-03-14 16:21:48:212,0,-10.0566,-3.95128,67.9768,Q,Q
2023-03-14 16:21:48:222,0,-10.057,-3.95549,67.9753,Q,Q
2023-03-14 16:21:48:233,0,-10.0563,-3.96061,67.9773,Q,Q
2023-03-14 16:21:48:243,0,-10.0569,-3.96779,67.9814,Q,Q
2023-03-14 16:21:48:253,0,-10.0562,-3.97351,67.9843,Q,Q
2023-03-14 16:21:48:263,0,-10.0562,-3.9771,67.9862,Q,Q
2023-03-14 16:21:48:273,0,-10.0562,-3.98093,67.9892,Q,Q
2023-03-14 16:21:48:283,0,-10.0531,-3.98368,67.9974,Q,Q
2023-03-14 16:21:48:293,0,-10.053,-3.98525,68.0007,Q,Q
2023-03-14 16:21:48:303,0,-10.0541,-3.9879,68.0035,Q,Q
2023-03-14 16:21:48:313,0,-10.058,-3.98773,68.0048,Q,Q
2023-03-14 16:21:48:323,0,-10.0632,-3.98565,68.0047,Q,Q
2023-03-14 16:21:48:333,0,-10.0671,-3.98582,68.001,Q,Q
2023-03-14 16:21:48:343,0,-10.076,-3.9879,67.9951,Q,Q
2023-03-14 16:21:48:353,0,-10.0829,-3.98891,67.9916,Q,Q
2023-03-14 16:21:48:363,0,-10.0886,-3.99206,67.9848,Q,Q
2023-03-14 16:21:48:373,0,-10.0929,-3.9916,67.9779,Q,Q
2023-03-14 16:21:48:383,0,-10.0908,-3.987,67.9726,Q,Q
2023-03-14 16:21:48:393,0,-10.0889,-3.98831,67.9656,Q,Q
2023-03-14 16:21:48:403,0,-10.0862,-3.99189,67.9595,Q,Q
2023-03-14 16:21:48:412,0,-10.0797,-3.99186,67.9566,Q,Q
2023-03-14 16:21:48:423,0,-10.074,-3.98985,67.9496,Q,Q
2023-03-14 16:21:48:432,0,-10.0728,-3.9865,67.945,Q,Q
2023-03-14 16:21:48:442,0,-10.072,-3.98174,67.9387,Q,Q
2023-03-14 16:21:48:452,0,-10.0783,-3.97355,67.935,Q,Q
2023-03-14 16:21:48:462,0,-10.08,-3.96985,67.931,Q,Q
2023-03-14 16:21:48:472,0,-10.0781,-3.96313,67.9287,Q,Q
2023-03-14 16:21:48:482,0,-10.0746,-3.95722,67.9292,Q,Q
2023-03-14 16:21:48:492,0,-10.0694,-3.95094,67.9281,Q,Q
2023-03-14 16:21:48:502,0,-10.0635,-3.94487,67.9267,Q,Q
2023-03-14 16:21:48:513,0,-10.0581,-3.94385,67.9248,Q,Q
2023-03-14 16:21:48:523,0,-10.0501,-3.94131,67.9202,Q,Q
2023-03-14 16:21:48:533,0,-10.0415,-3.94024,67.9182,Q,Q
2023-03-14 16:21:48:543,0,-10.0356,-3.93991,67.9143,Q,Q
2023-03-14 16:21:48:553,0,-10.0298,-3.94204,67.91,Q,Q
2023-03-14 16:21:48:563,0,-10.0247,-3.94565,67.9078,Q,Q
2023-03-14 16:21:48:573,0,-10.0245,-3.94794,67.9069,Q,Q
2023-03-14 16:21:48:583,0,-10.021,-3.95294,67.907,Q,Q
2023-03-14 16:21:48:593,0,-10.017,-3.9553,67.9104,Q,Q
2023-03-14 16:21:48:603,0,-10.0214,-3.96075,67.9155,Q,Q
2023-03-14 16:21:48:613,0,-10.0269,-3.96537,67.9181,Q,Q
2023-03-14 16:21:48:623,0,-10.0297,-3.96661,67.9236,Q,Q
2023-03-14 16:21:48:632,0,-10.0364,-3.96773,67.9287,Q,Q
2023-03-14 16:21:48:643,0,-10.0517,-3.97182,67.9366,Q,Q
2023-03-14 16:21:48:652,0,-10.0627,-3.97194,67.9436,Q,Q
2023-03-14 16:21:48:663,0,-10.0662,-3.97473,67.9516,Q,Q
2023-03-14 16:21:48:672,0,-10.0721,-3.97887,67.9598,Q,Q
2023-03-14 16:21:48:683,0,-10.0789,-3.98405,67.9662,Q,Q
2023-03-14 16:21:48:693,0,-10.0814,-3.98949,67.9707,Q,Q
2023-03-14 16:21:48:703,0,-10.0854,-3.99835,67.9772,Q,Q
2023-03-14 16:21:48:712,0,-10.0891,-4.00249,67.9851,Q,Q
2023-03-14 16:21:48:723,0,-10.094,-4.00541,67.9905,Q,Q
2023-03-14 16:21:48:733,0,-10.1032,-4.00832,67.9972,Q,Q
2023-03-14 16:21:48:743,0,-10.1055,-4.00961,68.0031,Q,Q
2023-03-14 16:21:48:753,0,-10.1122,-4.0089,68.0049,Q,Q
2023-03-14 16:21:48:763,0,-10.1158,-4.01023,68.0062,Q,Q
2023-03-14 16:21:48:773,0,-10.1229,-4.01063,68.0071,Q,Q
2023-03-14 16:21:48:783,0,-10.1308,-4.00687,68.003,Q,Q
2023-03-14 16:21:48:793,0,-10.1351,-4.00344,67.9946,Q,Q
2023-03-14 16:21:48:803,0,-10.1361,-3.99959,67.9854,Q,Q
2023-03-14 16:21:48:813,0,-10.1406,-3.99229,67.9767,Q,Q
2023-03-14 16:21:48:823,0,-10.1427,-3.98385,67.9681,Q,Q
2023-03-14 16:21:48:833,0,-10.1482,-3.97567,67.9622,Q,Q
2023-03-14 16:21:48:843,0,-10.1478,-3.97166,67.9529,Q,Q
2023-03-14 16:21:48:853,0,-10.1417,-3.97354,67.9459,Q,Q
2023-03-14 16:21:48:863,0,-10.1375,-3.97532,67.9391,Q,Q
2023-03-14 16:21:48:873,0,-10.1344,-3.97831,67.9362,Q,Q
2023-03-14 16:21:48:883,0,-10.1348,-3.98091,67.9368,Q,Q
2023-03-14 16:21:48:893,0,-10.1386,-3.98342,67.9367,Q,Q
2023-03-14 16:21:48:903,0,-10.1387,-3.98602,67.9371,Q,Q
2023-03-14 16:21:48:913,0,-10.1322,-3.9886,67.9369,Q,Q
2023-03-14 16:21:48:923,0,-10.1265,-3.99409,67.9396,Q,Q
2023-03-14 16:21:48:933,0,-10.1175,-3.99545,67.9424,Q,Q
2023-03-14 16:21:48:943,0,-10.1099,-4.00066,67.9461,Q,Q
2023-03-14 16:21:48:953,0,-10.1037,-4.00129,67.948,Q,Q
2023-03-14 16:21:48:963,0,-10.0993,-4.00508,67.9467,Q,Q
2023-03-14 16:21:48:973,0,-10.1003,-4.00698,67.9467,Q,Q
2023-03-14 16:21:48:983,0,-10.1037,-4.00648,67.9463,Q,Q
2023-03-14 16:21:48:993,0,-10.1047,-4.00542,67.9441,Q,Q
2023-03-14 16:21:49:3,0,-10.1133,-4.00148,67.9388,Q,Q
2023-03-14 16:21:49:12,0,-10.1203,-3.99643,67.9345,Q,Q
2023-03-14 16:21:49:23,0,-10.1306,-3.99436,67.9295,Q,Q
2023-03-14 16:21:49:33,0,-10.1365,-3.991,67.926,Q,Q
2023-03-14 16:21:49:43,0,-10.1454,-3.99245,67.9219,Q,Q
2023-03-14 16:21:49:53,0,-10.1513,-3.99024,67.9201,Q,Q
2023-03-14 16:21:49:63,0,-10.1594,-3.98826,67.9167,Q,Q
2023-03-14 16:21:49:73,0,-10.1655,-3.98229,67.9144,Q,Q
2023-03-14 16:21:49:83,0,-10.1686,-3.98281,67.9126,Q,Q
2023-03-14 16:21:49:93,0,-10.1687,-3.98608,67.9118,Q,Q
2023-03-14 16:21:49:103,0,-10.1612,-3.99193,67.9102,Q,Q
2023-03-14 16:21:49:113,0,-10.1575,-3.99471,67.9112,Q,Q
2023-03-14 16:21:49:123,0,-10.1562,-3.99868,67.9133,Q,Q
2023-03-14 16:21:49:132,0,-10.1528,-4.00309,67.9131,Q,Q
2023-03-14 16:21:49:142,0,-10.1543,-4.00598,67.9124,Q,Q
2023-03-14 16:21:49:152,0,-10.1532,-4.00958,67.9123,Q,Q
2023-03-14 16:21:49:162,0,-10.1516,-4.01472,67.9142,Q,Q
2023-03-14 16:21:49:172,0,-10.1533,-4.01654,67.9156,Q,Q
2023-03-14 16:21:49:183,0,-10.1534,-4.02045,67.9199,Q,Q
2023-03-14 16:21:49:192,0,-10.1569,-4.02433,67.9236,Q,Q
2023-03-14 16:21:49:203,0,-10.1585,-4.02746,67.9274,Q,Q
2023-03-14 16:21:49:213,0,-10.159,-4.03286,67.9322,Q,Q
2023-03-14 16:21:49:223,0,-10.1561,-4.03771,67.9321,Q,Q
2023-03-14 16:21:49:233,0,-10.1538,-4.04459,67.9362,Q,Q
2023-03-14 16:21:49:243,0,-10.155,-4.0532,67.9393,Q,Q
2023-03-14 16:21:49:252,0,-10.1613,-4.05656,67.9437,Q,Q
2023-03-14 16:21:49:263,0,-10.1684,-4.0623,67.9481,Q,Q
2023-03-14 16:21:49:272,0,-10.1743,-4.06877,67.9532,Q,Q
2023-03-14 16:21:49:283,0,-10.1792,-4.07374,67.9596,Q,Q
2023-03-14 16:21:49:292,0,-10.1889,-4.07943,67.9649,Q,Q
2023-03-14 16:21:49:303,0,-10.2023,-4.0835,67.9719,Q,Q
2023-03-14 16:21:49:313,0,-10.2118,-4.08688,67.9785,Q,Q
2023-03-14 16:21:49:323,0,-10.2235,-4.08549,67.9836,Q,Q
2023-03-14 16:21:49:332,0,-10.2351,-4.08684,67.9872,Q,Q
2023-03-14 16:21:49:343,0,-10.245,-4.08527,67.9885,Q,Q
2023-03-14 16:21:49:353,0,-10.2573,-4.08609,67.988,Q,Q
2023-03-14 16:21:49:363,0,-10.2678,-4.08976,67.9893,Q,Q
2023-03-14 16:21:49:373,0,-10.2745,-4.09212,67.9875,Q,Q
2023-03-14 16:21:49:383,0,-10.2812,-4.09273,67.9861,Q,Q
2023-03-14 16:21:49:392,0,-10.2832,-4.09312,67.981,Q,Q
2023-03-14 16:21:49:403,0,-10.2828,-4.09269,67.9801,Q,Q
2023-03-14 16:21:49:413,0,-10.2831,-4.09345,67.9746,Q,Q
2023-03-14 16:21:49:423,0,-10.2864,-4.09206,67.9722,Q,Q
2023-03-14 16:21:49:432,0,-10.287,-4.09053,67.9691,Q,Q
2023-03-14 16:21:49:443,0,-10.2826,-4.08991,67.9659,Q,Q
2023-03-14 16:21:49:453,0,-10.275,-4.09141,67.9628,Q,Q
2023-03-14 16:21:49:463,0,-10.2688,-4.09373,67.9625,Q,Q
2023-03-14 16:21:49:473,0,-10.2639,-4.09819,67.9651,Q,Q
2023-03-14 16:21:49:483,0,-10.2621,-4.10217,67.9661,Q,Q
2023-03-14 16:21:49:493,0,-10.2597,-4.10475,67.9697,Q,Q
2023-03-14 16:21:49:503,0,-10.255,-4.10747,67.9673,Q,Q
2023-03-14 16:21:49:513,0,-10.2562,-4.10911,67.9672,Q,Q
2023-03-14 16:21:49:523,0,-10.2621,-4.11159,67.9678,Q,Q
2023-03-14 16:21:49:533,0,-10.2728,-4.10744,67.9681,Q,Q
2023-03-14 16:21:49:543,0,-10.2833,-4.10374,67.9714,Q,Q
2023-03-14 16:21:49:553,0,-10.2913,-4.10199,67.9717,Q,Q
2023-03-14 16:21:49:563,0,-10.3025,-4.09988,67.971,Q,Q
2023-03-14 16:21:49:573,0,-10.3068,-4.10023,67.9701,Q,Q
2023-03-14 16:21:49:583,0,-10.3165,-4.10272,67.9707,Q,Q
2023-03-14 16:21:49:593,0,-10.3439,-4.10867,67.9765,Q,Q
2023-03-14 16:21:49:603,0,-10.3956,-4.1155,67.9867,Q,Q
2023-03-14 16:21:49:613,0,-10.4606,-4.13098,67.998,Q,Q
2023-03-14 16:21:49:623,0,-10.5025,-4.1524,68.0044,Q,Q
2023-03-14 16:21:49:633,0,-10.5192,-4.16812,68.0105,Q,Q
2023-03-14 16:21:49:643,0,-10.5223,-4.18213,68.0143,Q,Q
2023-03-14 16:21:49:653,0,-10.5261,-4.19055,68.02,Q,Q
2023-03-14 16:21:49:663,0,-10.5406,-4.20139,68.0252,Q,Q
2023-03-14 16:21:49:673,0,-10.5651,-4.20916,68.0289,Q,Q
2023-03-14 16:21:49:683,0,-10.5938,-4.21588,68.0349,Q,Q
2023-03-14 16:21:49:692,0,-10.6249,-4.22565,68.0381,Q,Q
2023-03-14 16:21:49:703,0,-10.6546,-4.23435,68.0391,Q,Q
2023-03-14 16:21:49:713,0,-10.6826,-4.23726,68.0405,Q,Q
2023-03-14 16:21:49:723,0,-10.7068,-4.23915,68.0383,Q,Q
2023-03-14 16:21:49:733,0,-10.7302,-4.23878,68.0354,Q,Q
2023-03-14 16:21:49:743,0,-10.7569,-4.23492,68.0278,Q,Q
2023-03-14 16:21:49:752,0,-10.7876,-4.23224,68.0226,Q,Q
2023-03-14 16:21:49:763,0,-10.8201,-4.22822,68.0154,Q,Q
2023-03-14 16:21:49:773,0,-10.8518,-4.22703,68.007,Q,Q
2023-03-14 16:21:49:783,0,-10.8867,-4.22817,68.0016,Q,Q
2023-03-14 16:21:49:793,0,-10.9254,-4.22584,67.9943,Q,Q
2023-03-14 16:21:49:803,0,-10.9606,-4.22145,67.9835,Q,Q
2023-03-14 16:21:49:813,0,-10.997,-4.21653,67.9747,Q,Q
2023-03-14 16:21:49:823,0,-11.0264,-4.21629,67.9666,Q,Q
2023-03-14 16:21:49:833,0,-11.0506,-4.21554,67.9585,Q,Q
2023-03-14 16:21:49:843,0,-11.0658,-4.21538,67.9546,Q,Q
2023-03-14 16:21:49:853,0,-11.0845,-4.21271,67.9562,Q,Q
2023-03-14 16:21:49:863,0,-11.1127,-4.21323,67.9567,Q,Q
2023-03-14 16:21:49:873,0,-11.1437,-4.21966,67.9558,Q,Q
2023-03-14 16:21:49:883,0,-11.1694,-4.2222,67.9552,Q,Q
2023-03-14 16:21:49:893,0,-11.178,-4.22245,67.9538,Q,Q
2023-03-14 16:21:49:903,0,-11.168,-4.21873,67.9501,Q,Q
2023-03-14 16:21:49:913,0,-11.152,-4.21406,67.9469,Q,Q
2023-03-14 16:21:49:923,0,-11.1514,-4.21358,67.9439,Q,Q
2023-03-14 16:21:49:933,0,-11.1708,-4.21489,67.9469,Q,Q
2023-03-14 16:21:49:943,0,-11.1882,-4.21451,67.9515,Q,Q
2023-03-14 16:21:49:953,0,-11.2011,-4.21912,67.9514,Q,Q
2023-03-14 16:21:49:963,0,-11.2013,-4.22667,67.9476,Q,Q
2023-03-14 16:21:49:973,0,-11.1851,-4.23378,67.9472,Q,Q
2023-03-14 16:21:49:983,0,-11.1561,-4.24044,67.945,Q,Q
2023-03-14 16:21:49:993,0,-11.1221,-4.24854,67.9452,Q,Q
2023-03-14 16:21:50:3,0,-11.0903,-4.25298,67.9497,Q,Q
2023-03-14 16:21:50:13,0,-11.0668,-4.25599,67.9566,Q,Q
2023-03-14 16:21:50:23,0,-11.048,-4.25868,67.9681,Q,Q
2023-03-14 16:21:50:33,0,-11.0366,-4.25816,67.9825,Q,Q
2023-03-14 16:21:50:43,0,-11.0337,-4.26166,67.9942,Q,Q
2023-03-14 16:21:50:53,0,-11.0319,-4.26845,68.0052,Q,Q
2023-03-14 16:21:50:63,0,-11.0236,-4.27731,68.0138,Q,Q
2023-03-14 16:21:50:72,0,-11.0048,-4.28624,68.0182,Q,Q
2023-03-14 16:21:50:83,0,-10.9745,-4.29615,68.0192,Q,Q
2023-03-14 16:21:50:93,0,-10.9341,-4.3042,68.0125,Q,Q
2023-03-14 16:21:50:103,0,-10.8888,-4.30884,67.9984,Q,Q
2023-03-14 16:21:50:113,0,-10.8435,-4.31537,67.9831,Q,Q
2023-03-14 16:21:50:123,0,-10.8033,-4.32049,67.9697,Q,Q
2023-03-14 16:21:50:133,0,-10.7659,-4.32069,67.9503,Q,Q
2023-03-14 16:21:50:143,0,-10.7368,-4.32176,67.927,Q,Q
2023-03-14 16:21:50:152,0,-10.7257,-4.32658,67.9108,Q,Q
2023-03-14 16:21:50:163,0,-10.7257,-4.3344,67.8984,Q,Q
2023-03-14 16:21:50:172,0,-10.7296,-4.34503,67.8852,Q,Q
2023-03-14 16:21:50:183,0,-10.7185,-4.35503,67.8789,Q,Q
2023-03-14 16:21:50:193,0,-10.6952,-4.36323,67.8669,Q,Q
2023-03-14 16:21:50:203,0,-10.6679,-4.37034,67.8642,Q,Q
2023-03-14 16:21:50:213,0,-10.6427,-4.3725,67.8681,Q,Q
2023-03-14 16:21:50:223,0,-10.6192,-4.36964,67.8755,Q,Q
2023-03-14 16:21:50:233,0,-10.5977,-4.36584,67.8873,Q,Q
2023-03-14 16:21:50:243,0,-10.5809,-4.36222,67.9002,Q,Q
2023-03-14 16:21:50:253,0,-10.5721,-4.35434,67.9157,Q,Q
2023-03-14 16:21:50:263,0,-10.5696,-4.35318,67.9323,Q,Q
2023-03-14 16:21:50:273,0,-10.5699,-4.35438,67.9472,Q,Q
2023-03-14 16:21:50:283,0,-10.5702,-4.35076,67.9625,Q,Q
2023-03-14 16:21:50:293,0,-10.5656,-4.34796,67.9792,Q,Q
2023-03-14 16:21:50:303,0,-10.5557,-4.34353,67.9959,Q,Q
2023-03-14 16:21:50:313,0,-10.545,-4.33979,68.0042,Q,Q
2023-03-14 16:21:50:323,0,-10.5361,-4.3348,68.0126,Q,Q
2023-03-14 16:21:50:333,0,-10.5259,-4.32668,68.016,Q,Q
2023-03-14 16:21:50:343,0,-10.5084,-4.31924,68.0184,Q,Q
2023-03-14 16:21:50:352,0,-10.4873,-4.31201,68.0228,Q,Q
2023-03-14 16:21:50:363,0,-10.4722,-4.3058,68.0248,Q,Q
2023-03-14 16:21:50:373,0,-10.474,-4.30564,68.0312,Q,Q
2023-03-14 16:21:50:383,0,-10.4911,-4.30561,68.041,Q,Q
2023-03-14 16:21:50:393,0,-10.5124,-4.30719,68.0499,Q,Q
2023-03-14 16:21:50:403,0,-10.5268,-4.30702,68.0565,Q,Q
2023-03-14 16:21:50:413,0,-10.5375,-4.307,68.0646,Q,Q
2023-03-14 16:21:50:423,0,-10.5541,-4.30464,68.0725,Q,Q
2023-03-14 16:21:50:433,0,-10.5817,-4.29889,68.0785,Q,Q
2023-03-14 16:21:50:443,0,-10.6095,-4.29699,68.0854,Q,Q
2023-03-14 16:21:50:453,0,-10.6243,-4.2939,68.0854,Q,Q
2023-03-14 16:21:50:463,0,-10.6247,-4.29203,68.0821,Q,Q
2023-03-14 16:21:50:473,0,-10.6177,-4.28819,68.0799,Q,Q
2023-03-14 16:21:50:483,0,-10.6257,-4.28438,68.0726,Q,Q
2023-03-14 16:21:50:493,0,-10.644,-4.27727,68.0632,Q,Q
2023-03-14 16:21:50:503,0,-10.6644,-4.27105,68.0515,Q,Q
2023-03-14 16:21:50:513,0,-10.6739,-4.25738,68.0342,Q,Q
2023-03-14 16:21:50:523,0,-10.6759,-4.24732,68.0198,Q,Q
2023-03-14 16:21:50:533,0,-10.6757,-4.23918,68.0072,Q,Q
2023-03-14 16:21:50:543,0,-10.6771,-4.22928,67.9954,Q,Q
2023-03-14 16:21:50:553,0,-10.6794,-4.21915,67.9894,Q,Q
2023-03-14 16:21:50:563,0,-10.6809,-4.2094,67.987,Q,Q
2023-03-14 16:21:50:573,0,-10.6891,-4.20218,67.9859,Q,Q
2023-03-14 16:21:50:583,0,-10.6972,-4.19508,67.9871,Q,Q
2023-03-14 16:21:50:593,0,-10.6995,-4.18427,67.9875,Q,Q
2023-03-14 16:21:50:603,0,-10.7006,-4.177,67.9873,Q,Q
2023-03-14 16:21:50:613,0,-10.6951,-4.1751,67.9877,Q,Q
2023-03-14 16:21:50:623,0,-10.6871,-4.17605,67.9915,Q,Q
2023-03-14 16:21:50:633,0,-10.6759,-4.18043,67.9923,Q,Q
2023-03-14 16:21:50:643,0,-10.6603,-4.18386,67.9912,Q,Q
2023-03-14 16:21:50:653,0,-10.6406,-4.18692,67.9888,Q,Q
2023-03-14 16:21:50:663,0,-10.6203,-4.18657,67.9848,Q,Q
2023-03-14 16:21:50:673,0,-10.6041,-4.18278,67.9807,Q,Q
2023-03-14 16:21:50:682,0,-10.5933,-4.17811,67.9803,Q,Q
2023-03-14 16:21:50:692,0,-10.5837,-4.17598,67.9798,Q,Q
2023-03-14 16:21:50:702,0,-10.5706,-4.17559,67.9782,Q,Q
2023-03-14 16:21:50:713,0,-10.5563,-4.1759,67.9765,Q,Q
2023-03-14 16:21:50:723,0,-10.5467,-4.17624,67.9719,Q,Q
2023-03-14 16:21:50:733,0,-10.5311,-4.17913,67.9696,Q,Q
2023-03-14 16:21:50:743,0,-10.5171,-4.18051,67.9658,Q,Q
2023-03-14 16:21:50:753,0,-10.5031,-4.18053,67.962,Q,Q
2023-03-14 16:21:50:763,0,-10.4922,-4.18062,67.9555,Q,Q
2023-03-14 16:21:50:773,0,-10.4838,-4.18424,67.9531,Q,Q
2023-03-14 16:21:50:783,0,-10.4792,-4.18873,67.957,Q,Q
2023-03-14 16:21:50:793,0,-10.4744,-4.19489,67.9614,Q,Q
2023-03-14 16:21:50:803,0,-10.4774,-4.20011,67.9702,Q,Q
2023-03-14 16:21:50:813,0,-10.4928,-4.20382,67.9797,Q,Q
2023-03-14 16:21:50:823,0,-10.5135,-4.20908,67.9917,Q,Q
2023-03-14 16:21:50:833,0,-10.5354,-4.21447,68.0021,Q,Q
2023-03-14 16:21:50:843,0,-10.5526,-4.21638,68.0083,Q,Q
2023-03-14 16:21:50:852,0,-10.5712,-4.21852,68.0173,Q,Q
2023-03-14 16:21:50:863,0,-10.5901,-4.21548,68.024,Q,Q
2023-03-14 16:21:50:873,0,-10.615,-4.21463,68.0329,Q,Q
2023-03-14 16:21:50:883,0,-10.6397,-4.2121,68.04,Q,Q
2023-03-14 16:21:50:893,0,-10.6685,-4.20758,68.0466,Q,Q
2023-03-14 16:21:50:903,0,-10.6995,-4.20522,68.0527,Q,Q
2023-03-14 16:21:50:913,0,-10.728,-4.20244,68.0579,Q,Q
2023-03-14 16:21:50:923,0,-10.7496,-4.20261,68.062,Q,Q
2023-03-14 16:21:50:933,0,-10.7644,-4.19638,68.0628,Q,Q
2023-03-14 16:21:50:943,0,-10.7744,-4.19026,68.0614,Q,Q
2023-03-14 16:21:50:953,0,-10.7858,-4.18441,68.0626,Q,Q
2023-03-14 16:21:50:963,0,-10.8002,-4.17797,68.0599,Q,Q
2023-03-14 16:21:50:973,0,-10.8132,-4.17169,68.0581,Q,Q
2023-03-14 16:21:50:982,0,-10.8249,-4.16768,68.0558,Q,Q
2023-03-14 16:21:50:993,0,-10.8363,-4.16432,68.056,Q,Q
2023-03-14 16:21:51:3,0,-10.8398,-4.16336,68.0527,Q,Q
2023-03-14 16:21:51:13,0,-10.8413,-4.16571,68.05,Q,Q
2023-03-14 16:21:51:23,0,-10.8325,-4.17605,68.0498,Q,Q
2023-03-14 16:21:51:33,0,-10.8033,-4.179,68.0473,Q,Q
2023-03-14 16:21:51:43,0,-10.7708,-4.18427,68.0429,Q,Q
2023-03-14 16:21:51:53,0,-10.73,-4.18657,68.0473,Q,Q
2023-03-14 16:21:51:63,0,-10.6881,-4.18906,68.0499,Q,Q
2023-03-14 16:21:51:73,0,-10.6559,-4.19238,68.0581,Q,Q
2023-03-14 16:21:51:83,0,-10.6434,-4.19644,68.0667,Q,Q
2023-03-14 16:21:51:93,0,-10.6497,-4.19617,68.07,Q,Q
2023-03-14 16:21:51:103,0,-10.6653,-4.18867,68.076,Q,Q
2023-03-14 16:21:51:112,0,-10.7032,-4.18391,68.0831,Q,Q
2023-03-14 16:21:51:123,0,-10.7668,-4.19162,68.0918,Q,Q
2023-03-14 16:21:51:132,0,-10.8406,-4.212,68.0948,Q,Q
2023-03-14 16:21:51:143,0,-10.9022,-4.22903,68.0919,Q,Q
2023-03-14 16:21:51:152,0,-10.9325,-4.2401,68.0854,Q,Q
2023-03-14 16:21:51:163,0,-10.9239,-4.24178,68.0778,Q,Q
2023-03-14 16:21:51:173,0,-10.8743,-4.23615,68.0701,Q,Q
2023-03-14 16:21:51:183,0,-10.8351,-4.23028,68.0581,Q,Q
2023-03-14 16:21:51:192,0,-10.8249,-4.22705,68.0507,Q,Q
2023-03-14 16:21:51:202,0,-10.8353,-4.22444,68.0509,Q,Q
2023-03-14 16:21:51:212,0,-10.8394,-4.22366,68.0487,Q,Q
2023-03-14 16:21:51:223,0,-10.8321,-4.22435,68.0454,Q,Q
2023-03-14 16:21:51:233,0,-10.8135,-4.22492,68.0416,Q,Q
2023-03-14 16:21:51:243,0,-10.7873,-4.22732,68.0426,Q,Q
2023-03-14 16:21:51:252,0,-10.7641,-4.22567,68.0458,Q,Q
2023-03-14 16:21:51:263,0,-10.7392,-4.22038,68.0546,Q,Q
2023-03-14 16:21:51:272,0,-10.7072,-4.21743,68.0675,Q,Q
2023-03-14 16:21:51:283,0,-10.6672,-4.21747,68.0764,Q,Q
2023-03-14 16:21:51:292,0,-10.624,-4.22285,68.082,Q,Q
2023-03-14 16:21:51:303,0,-10.5714,-4.22371,68.0869,Q,Q
2023-03-14 16:21:51:313,0,-10.5112,-4.22133,68.0824,Q,Q
2023-03-14 16:21:51:323,0,-10.4892,-4.22003,68.0833,Q,Q
2023-03-14 16:21:51:333,0,-10.4981,-4.2224,68.0809,Q,Q
2023-03-14 16:21:51:343,0,-10.526,-4.22292,68.081,Q,Q
2023-03-14 16:21:51:352,0,-10.5592,-4.21993,68.0822,Q,Q
2023-03-14 16:21:51:363,0,-10.603,-4.21627,68.0842,Q,Q
2023-03-14 16:21:51:373,0,-10.6606,-4.21583,68.0897,Q,Q
2023-03-14 16:21:51:383,0,-10.7231,-4.22374,68.0989,Q,Q
2023-03-14 16:21:51:393,0,-10.7773,-4.2364,68.1075,Q,Q
2023-03-14 16:21:51:403,0,-10.8057,-4.2485,68.1145,Q,Q
2023-03-14 16:21:51:413,0,-10.8028,-4.25419,68.1227,Q,Q
2023-03-14 16:21:51:423,0,-10.7774,-4.26102,68.1197,Q,Q
2023-03-14 16:21:51:433,0,-10.7401,-4.2643,68.1163,Q,Q
2023-03-14 16:21:51:443,0,-10.7098,-4.26348,68.1191,Q,Q
2023-03-14 16:21:51:453,0,-10.7008,-4.25858,68.1254,Q,Q
2023-03-14 16:21:51:463,0,-10.7293,-4.2581,68.1349,Q,Q
2023-03-14 16:21:51:473,0,-10.778,-4.26817,68.142,Q,Q
2023-03-14 16:21:51:483,0,-10.8092,-4.27375,68.1451,Q,Q
2023-03-14 16:21:51:493,0,-10.8107,-4.27351,68.1511,Q,Q
2023-03-14 16:21:51:503,0,-10.8009,-4.27491,68.1526,Q,Q
2023-03-14 16:21:51:513,0,-10.7983,-4.2729,68.1609,Q,Q
2023-03-14 16:21:51:523,0,-10.8058,-4.26937,68.1681,Q,Q
2023-03-14 16:21:51:533,0,-10.8229,-4.26095,68.1737,Q,Q
2023-03-14 16:21:51:543,0,-10.8482,-4.2507,68.183,Q,Q
2023-03-14 16:21:51:553,0,-10.8884,-4.24588,68.1962,Q,Q
2023-03-14 16:21:51:563,0,-10.935,-4.24543,68.2098,Q,Q
2023-03-14 16:21:51:573,0,-10.9802,-4.25727,68.2237,Q,Q
2023-03-14 16:21:51:583,0,-11.0174,-4.27352,68.2399,Q,Q
2023-03-14 16:21:51:593,0,-11.0445,-4.28767,68.2533,Q,Q
2023-03-14 16:21:51:603,0,-11.0631,-4.29817,68.2612,Q,Q
2023-03-14 16:21:51:613,0,-11.075,-4.30961,68.2687,Q,Q
2023-03-14 16:21:51:623,0,-11.0828,-4.32204,68.2729,Q,Q
2023-03-14 16:21:51:633,0,-11.0923,-4.3326,68.2796,Q,Q
2023-03-14 16:21:51:643,0,-11.1,-4.34668,68.2798,Q,Q
2023-03-14 16:21:51:653,0,-11.1079,-4.36095,68.2799,Q,Q
2023-03-14 16:21:51:662,0,-11.1094,-4.37068,68.275,Q,Q
2023-03-14 16:21:51:673,0,-11.102,-4.37844,68.2657,Q,Q
2023-03-14 16:21:51:683,0,-11.0882,-4.38276,68.2539,Q,Q
2023-03-14 16:21:51:693,0,-11.0717,-4.38744,68.2446,Q,Q
2023-03-14 16:21:51:703,0,-11.0565,-4.3895,68.2378,Q,Q
2023-03-14 16:21:51:712,0,-11.0429,-4.38693,68.2308,Q,Q
2023-03-14 16:21:51:723,0,-11.0246,-4.38416,68.2254,Q,Q
2023-03-14 16:21:51:732,0,-11.0031,-4.37984,68.2254,Q,Q
2023-03-14 16:21:51:743,0,-10.9911,-4.37664,68.2276,Q,Q
2023-03-14 16:21:51:752,0,-10.9747,-4.37331,68.2266,Q,Q
2023-03-14 16:21:51:763,0,-10.96,-4.36639,68.2241,Q,Q
2023-03-14 16:21:51:773,0,-10.9419,-4.36229,68.217,Q,Q
2023-03-14 16:21:51:783,0,-10.9251,-4.35349,68.2031,Q,Q
2023-03-14 16:21:51:792,0,-10.9116,-4.34301,68.1835,Q,Q
2023-03-14 16:21:51:803,0,-10.9019,-4.33144,68.1569,Q,Q
2023-03-14 16:21:51:812,0,-10.8944,-4.31881,68.1297,Q,Q
2023-03-14 16:21:51:823,0,-10.8864,-4.30753,68.0975,Q,Q
2023-03-14 16:21:51:832,0,-10.8768,-4.29334,68.0651,Q,Q
2023-03-14 16:21:51:843,0,-10.8668,-4.28179,68.0316,Q,Q
2023-03-14 16:21:51:853,0,-10.8575,-4.26774,68.0027,Q,Q
2023-03-14 16:21:51:863,0,-10.85,-4.25625,67.9777,Q,Q
2023-03-14 16:21:51:873,0,-10.8485,-4.24562,67.9581,Q,Q
2023-03-14 16:21:51:883,0,-10.8451,-4.23298,67.9464,Q,Q
2023-03-14 16:21:51:893,0,-10.844,-4.22572,67.9369,Q,Q
2023-03-14 16:21:51:902,0,-10.8386,-4.22002,67.9326,Q,Q
2023-03-14 16:21:51:913,0,-10.8329,-4.21371,67.9356,Q,Q
2023-03-14 16:21:51:923,0,-10.8261,-4.20837,67.9392,Q,Q
2023-03-14 16:21:51:933,0,-10.8227,-4.20537,67.9433,Q,Q
2023-03-14 16:21:51:943,0,-10.82,-4.199,67.9496,Q,Q
2023-03-14 16:21:51:953,0,-10.8106,-4.19294,67.9557,Q,Q
2023-03-14 16:21:51:963,0,-10.7963,-4.1901,67.9609,Q,Q
2023-03-14 16:21:51:973,0,-10.7798,-4.18663,67.9579,Q,Q
2023-03-14 16:21:51:983,0,-10.7636,-4.18437,67.9559,Q,Q
2023-03-14 16:21:51:993,0,-10.7484,-4.18401,67.9552,Q,Q
2023-03-14 16:21:52:3,0,-10.733,-4.18092,67.951,Q,Q
2023-03-14 16:21:52:13,0,-10.713,-4.17673,67.9435,Q,Q
2023-03-14 16:21:52:23,0,-10.6932,-4.17491,67.9341,Q,Q
2023-03-14 16:21:52:33,0,-10.6721,-4.17748,67.9263,Q,Q
2023-03-14 16:21:52:43,0,-10.6515,-4.18533,67.9202,Q,Q
2023-03-14 16:21:52:53,0,-10.6307,-4.18941,67.914,Q,Q
2023-03-14 16:21:52:63,0,-10.612,-4.1966,67.9153,Q,Q
2023-03-14 16:21:52:73,0,-10.5991,-4.20211,67.9143,Q,Q
2023-03-14 16:21:52:83,0,-10.5851,-4.20464,67.9184,Q,Q
2023-03-14 16:21:52:93,0,-10.5682,-4.20501,67.9231,Q,Q
2023-03-14 16:21:52:103,0,-10.5463,-4.20521,67.9322,Q,Q
2023-03-14 16:21:52:113,0,-10.5273,-4.20512,67.9418,Q,Q
2023-03-14 16:21:52:123,0,-10.5169,-4.20745,67.9522,Q,Q
2023-03-14 16:21:52:133,0,-10.5126,-4.20252,67.9618,Q,Q
2023-03-14 16:21:52:143,0,-10.5062,-4.20258,67.9664,Q,Q
2023-03-14 16:21:52:153,0,-10.5052,-4.20278,67.9695,Q,Q
2023-03-14 16:21:52:163,0,-10.5066,-4.19973,67.9686,Q,Q
2023-03-14 16:21:52:173,0,-10.5077,-4.19762,67.9647,Q,Q
2023-03-14 16:21:52:183,0,-10.5097,-4.19493,67.9558,Q,Q
2023-03-14 16:21:52:193,0,-10.5161,-4.19208,67.9474,Q,Q
2023-03-14 16:21:52:203,0,-10.523,-4.18516,67.9373,Q,Q
2023-03-14 16:21:52:213,0,-10.5311,-4.1792,67.9214,Q,Q
2023-03-14 16:21:52:223,0,-10.5379,-4.17589,67.9081,Q,Q
