Timestamp_cmd,imu_cmd,roll_delta,pitch_delta,yaw_delta,voice_type,voice_length
2023-03-15 15:03:57:252,0,8.50915,-3.90696,1.71036,Q,Q
2023-03-15 15:03:57:261,0,8.49545,-3.9098,1.64998,Q,Q
2023-03-15 15:03:57:271,0,8.49648,-3.91439,1.57406,Q,Q
2023-03-15 15:03:57:281,0,8.49293,-3.91966,1.50127,Q,Q
2023-03-15 15:03:57:291,0,8.47785,-3.92776,1.43494,Q,Q
2023-03-15 15:03:57:301,0,8.46533,-3.94289,1.3841,Q,Q
2023-03-15 15:03:57:311,0,8.45412,-3.97589,1.34626,Q,Q
2023-03-15 15:03:57:321,0,8.43599,-4.03532,1.31841,Q,Q
2023-03-15 15:03:57:331,0,8.39446,-4.10373,1.30462,Q,Q
2023-03-15 15:03:57:341,0,8.34462,-4.16434,1.30149,Q,Q
2023-03-15 15:03:57:351,0,8.29659,-4.21767,1.30199,Q,Q
2023-03-15 15:03:57:361,0,8.25633,-4.25809,1.30942,Q,Q
2023-03-15 15:03:57:371,0,8.21689,-4.28539,1.32327,Q,Q
2023-03-15 15:03:57:381,0,8.1706,-4.30433,1.34384,Q,Q
2023-03-15 15:03:57:391,0,8.12601,-4.30687,1.37143,Q,Q
2023-03-15 15:03:57:401,0,8.08808,-4.30088,1.40368,Q,Q
2023-03-15 15:03:57:411,0,8.06105,-4.29115,1.44228,Q,Q
2023-03-15 15:03:57:421,0,8.03757,-4.27893,1.4985,Q,Q
2023-03-15 15:03:57:431,0,8.00777,-4.26479,1.56439,Q,Q
2023-03-15 15:03:57:441,0,7.97935,-4.25201,1.6316,Q,Q
2023-03-15 15:03:57:451,0,7.96089,-4.23416,1.69804,Q,Q
2023-03-15 15:03:57:461,0,7.93773,-4.22132,1.76365,Q,Q
2023-03-15 15:03:57:471,0,7.91385,-4.21073,1.8238,Q,Q
2023-03-15 15:03:57:481,0,7.89211,-4.1976,1.87517,Q,Q
2023-03-15 15:03:57:491,0,7.87092,-4.18884,1.91866,Q,Q
2023-03-15 15:03:57:501,0,7.84652,-4.19058,1.95084,Q,Q
2023-03-15 15:03:57:511,0,7.81009,-4.21308,1.97655,Q,Q
2023-03-15 15:03:57:521,0,7.75404,-4.22947,1.99103,Q,Q
2023-03-15 15:03:57:531,0,7.69928,-4.24055,1.98011,Q,Q
2023-03-15 15:03:57:541,0,7.65517,-4.23277,1.95253,Q,Q
2023-03-15 15:03:57:551,0,7.61989,-4.22472,1.92257,Q,Q
2023-03-15 15:03:57:561,0,7.5635,-4.2266,1.8962,Q,Q
2023-03-15 15:03:57:571,0,7.48327,-4.22945,1.87203,Q,Q
2023-03-15 15:03:57:581,0,7.38914,-4.22469,1.84407,Q,Q
2023-03-15 15:03:57:591,0,7.28124,-4.22637,1.81048,Q,Q
2023-03-15 15:03:57:601,0,7.1604,-4.23325,1.78283,Q,Q
2023-03-15 15:03:57:611,0,7.02604,-4.2509,1.75492,Q,Q
2023-03-15 15:03:57:621,0,6.89645,-4.27107,1.72552,Q,Q
2023-03-15 15:03:57:631,0,6.7799,-4.28942,1.69687,Q,Q
2023-03-15 15:03:57:641,0,6.67045,-4.31859,1.67718,Q,Q
2023-03-15 15:03:57:651,0,6.56263,-4.35034,1.66697,Q,Q
2023-03-15 15:03:57:661,0,6.45163,-4.394,1.66692,Q,Q
2023-03-15 15:03:57:671,0,6.34223,-4.43248,1.67063,Q,Q
2023-03-15 15:03:57:681,0,6.23622,-4.47996,1.67779,Q,Q
2023-03-15 15:03:57:691,0,6.13781,-4.52792,1.68643,Q,Q
2023-03-15 15:03:57:701,0,6.05029,-4.56983,1.70007,Q,Q
2023-03-15 15:03:57:711,0,5.98591,-4.61241,1.71389,Q,Q
2023-03-15 15:03:57:721,0,5.92974,-4.66591,1.7406,Q,Q
2023-03-15 15:03:57:731,0,5.87413,-4.71678,1.77201,Q,Q
2023-03-15 15:03:57:741,0,5.81907,-4.75516,1.79597,Q,Q
2023-03-15 15:03:57:751,0,5.77492,-4.80341,1.81364,Q,Q
2023-03-15 15:03:57:761,0,5.73426,-4.84264,1.83171,Q,Q
2023-03-15 15:03:57:771,0,5.70124,-4.88752,1.83791,Q,Q
2023-03-15 15:03:57:781,0,5.67115,-4.93204,1.84558,Q,Q
2023-03-15 15:03:57:791,0,5.6475,-4.9606,1.85269,Q,Q
2023-03-15 15:03:57:801,0,5.63696,-4.97892,1.84793,Q,Q
2023-03-15 15:03:57:811,0,5.64063,-4.97911,1.83737,Q,Q
2023-03-15 15:03:57:821,0,5.6364,-4.97729,1.82856,Q,Q
2023-03-15 15:03:57:831,0,5.62004,-4.97909,1.8181,Q,Q
2023-03-15 15:03:57:841,0,5.59449,-4.98384,1.80006,Q,Q
2023-03-15 15:03:57:851,0,5.5654,-4.99109,1.77728,Q,Q
2023-03-15 15:03:57:861,0,5.54375,-4.99014,1.75047,Q,Q
2023-03-15 15:03:57:871,0,5.53198,-4.98304,1.72167,Q,Q
2023-03-15 15:03:57:880,0,5.52383,-4.97293,1.69616,Q,Q
2023-03-15 15:03:57:890,0,5.51806,-4.9682,1.67782,Q,Q
2023-03-15 15:03:57:900,0,5.50968,-4.96831,1.65932,Q,Q
2023-03-15 15:03:57:911,0,5.50161,-4.96362,1.64684,Q,Q
2023-03-15 15:03:57:921,0,5.48639,-4.95899,1.63196,Q,Q
2023-03-15 15:03:57:931,0,5.4721,-4.95089,1.61124,Q,Q
2023-03-15 15:03:57:941,0,5.46016,-4.94412,1.586,Q,Q
2023-03-15 15:03:57:951,0,5.44733,-4.93801,1.55858,Q,Q
2023-03-15 15:03:57:961,0,5.43173,-4.92984,1.52811,Q,Q
2023-03-15 15:03:57:971,0,5.42083,-4.9236,1.49724,Q,Q
2023-03-15 15:03:57:981,0,5.41239,-4.91245,1.46009,Q,Q
2023-03-15 15:03:57:991,0,5.40773,-4.89808,1.42137,Q,Q
2023-03-15 15:03:58:1,0,5.39719,-4.87961,1.38064,Q,Q
2023-03-15 15:03:58:11,0,5.37582,-4.86677,1.33936,Q,Q
2023-03-15 15:03:58:21,0,5.34516,-4.85335,1.2976,Q,Q
2023-03-15 15:03:58:31,0,5.31746,-4.84492,1.25083,Q,Q
2023-03-15 15:03:58:41,0,5.28316,-4.83597,1.20279,Q,Q
2023-03-15 15:03:58:51,0,5.24965,-4.82735,1.15472,Q,Q
2023-03-15 15:03:58:61,0,5.21121,-4.82296,1.10365,Q,Q
2023-03-15 15:03:58:71,0,5.17459,-4.81886,1.05288,Q,Q
2023-03-15 15:03:58:81,0,5.13748,-4.81027,1.00083,Q,Q
2023-03-15 15:03:58:91,0,5.09787,-4.80783,0.947404,Q,Q
2023-03-15 15:03:58:101,0,5.05954,-4.80463,0.894438,Q,Q
2023-03-15 15:03:58:111,0,5.02154,-4.79946,0.84327,Q,Q
2023-03-15 15:03:58:121,0,4.98829,-4.79682,0.790258,Q,Q
2023-03-15 15:03:58:131,0,4.96089,-4.7829,0.741425,Q,Q
2023-03-15 15:03:58:141,0,4.93711,-4.78576,0.698228,Q,Q
2023-03-15 15:03:58:151,0,4.89789,-4.80124,0.667178,Q,Q
2023-03-15 15:03:58:161,0,4.85135,-4.81755,0.636469,Q,Q
2023-03-15 15:03:58:171,0,4.80674,-4.81072,0.602031,Q,Q
2023-03-15 15:03:58:181,0,4.77705,-4.80538,0.564964,Q,Q
2023-03-15 15:03:58:191,0,4.75156,-4.80047,0.535669,Q,Q
2023-03-15 15:03:58:201,0,4.72819,-4.79193,0.515981,Q,Q
2023-03-15 15:03:58:211,0,4.70444,-4.78643,0.49884,Q,Q
2023-03-15 15:03:58:221,0,4.67824,-4.77854,0.485127,Q,Q
2023-03-15 15:03:58:231,0,4.65056,-4.77619,0.469725,Q,Q
2023-03-15 15:03:58:241,0,4.6128,-4.77078,0.457018,Q,Q
2023-03-15 15:03:58:251,0,4.57279,-4.76552,0.447046,Q,Q
2023-03-15 15:03:58:261,0,4.53082,-4.74383,0.43412,Q,Q
2023-03-15 15:03:58:271,0,4.49202,-4.71915,0.416782,Q,Q
2023-03-15 15:03:58:281,0,4.45106,-4.69756,0.400698,Q,Q
2023-03-15 15:03:58:291,0,4.40613,-4.67247,0.388298,Q,Q
2023-03-15 15:03:58:301,0,4.35113,-4.64761,0.377978,Q,Q
2023-03-15 15:03:58:311,0,4.2835,-4.61929,0.374633,Q,Q
2023-03-15 15:03:58:321,0,4.19065,-4.5964,0.383552,Q,Q
2023-03-15 15:03:58:331,0,4.06238,-4.58381,0.400439,Q,Q
2023-03-15 15:03:58:341,0,3.90167,-4.57283,0.404965,Q,Q
2023-03-15 15:03:58:351,0,3.74151,-4.55199,0.391352,Q,Q
2023-03-15 15:03:58:361,0,3.59825,-4.52052,0.367716,Q,Q
2023-03-15 15:03:58:371,0,3.46937,-4.47914,0.346345,Q,Q
2023-03-15 15:03:58:381,0,3.34864,-4.43176,0.331878,Q,Q
2023-03-15 15:03:58:391,0,3.23333,-4.39096,0.317457,Q,Q
2023-03-15 15:03:58:401,0,3.12277,-4.35539,0.300828,Q,Q
2023-03-15 15:03:58:411,0,3.03186,-4.31463,0.277919,Q,Q
2023-03-15 15:03:58:421,0,2.95704,-4.27689,0.248538,Q,Q
2023-03-15 15:03:58:431,0,2.89923,-4.23682,0.219008,Q,Q
2023-03-15 15:03:58:441,0,2.85563,-4.2016,0.183655,Q,Q
2023-03-15 15:03:58:451,0,2.81949,-4.16993,0.151666,Q,Q
2023-03-15 15:03:58:461,0,2.79324,-4.14333,0.122752,Q,Q
2023-03-15 15:03:58:471,0,2.76647,-4.12261,0.0904443,Q,Q
2023-03-15 15:03:58:481,0,2.73878,-4.10513,0.0591702,Q,Q
2023-03-15 15:03:58:491,0,2.70779,-4.09379,0.0197262,Q,Q
2023-03-15 15:03:58:501,0,2.6863,-4.08845,-0.0189951,Q,Q
2023-03-15 15:03:58:511,0,2.67682,-4.08788,-0.0591346,Q,Q
2023-03-15 15:03:58:521,0,2.67509,-4.08819,-0.0975012,Q,Q
2023-03-15 15:03:58:531,0,2.67953,-4.09235,-0.128849,Q,Q
2023-03-15 15:03:58:541,0,2.68542,-4.09067,-0.158486,Q,Q
2023-03-15 15:03:58:551,0,2.69281,-4.08154,-0.183846,Q,Q
2023-03-15 15:03:58:561,0,2.69583,-4.08377,-0.212749,Q,Q
2023-03-15 15:03:58:571,0,2.69951,-4.08005,-0.23472,Q,Q
2023-03-15 15:03:58:581,0,2.69395,-4.07684,-0.253377,Q,Q
2023-03-15 15:03:58:591,0,2.69106,-4.07642,-0.272017,Q,Q
2023-03-15 15:03:58:601,0,2.69721,-4.07506,-0.289248,Q,Q
2023-03-15 15:03:58:611,0,2.70676,-4.07348,-0.310048,Q,Q
2023-03-15 15:03:58:621,0,2.71916,-4.07304,-0.332671,Q,Q
2023-03-15 15:03:58:631,0,2.73394,-4.07223,-0.353489,Q,Q
2023-03-15 15:03:58:641,0,2.75281,-4.07297,-0.371677,Q,Q
2023-03-15 15:03:58:651,0,2.77719,-4.07564,-0.385225,Q,Q
2023-03-15 15:03:58:661,0,2.80543,-4.08246,-0.402071,Q,Q
2023-03-15 15:03:58:671,0,2.84095,-4.08687,-0.418304,Q,Q
2023-03-15 15:03:58:681,0,2.87736,-4.09288,-0.436698,Q,Q
2023-03-15 15:03:58:691,0,2.91759,-4.10212,-0.453141,Q,Q
2023-03-15 15:03:58:701,0,2.95558,-4.10591,-0.470998,Q,Q
2023-03-15 15:03:58:711,0,2.99574,-4.10902,-0.484966,Q,Q
2023-03-15 15:03:58:721,0,3.03588,-4.11798,-0.497591,Q,Q
2023-03-15 15:03:58:731,0,3.08191,-4.12555,-0.503097,Q,Q
2023-03-15 15:03:58:741,0,3.12583,-4.12949,-0.508111,Q,Q
2023-03-15 15:03:58:751,0,3.1778,-4.12962,-0.51328,Q,Q
2023-03-15 15:03:58:761,0,3.23755,-4.12668,-0.515254,Q,Q
2023-03-15 15:03:58:771,0,3.29919,-4.12774,-0.518169,Q,Q
2023-03-15 15:03:58:781,0,3.36745,-4.12729,-0.51616,Q,Q
2023-03-15 15:03:58:791,0,3.44207,-4.12241,-0.520114,Q,Q
2023-03-15 15:03:58:801,0,3.52684,-4.11388,-0.522072,Q,Q
2023-03-15 15:03:58:811,0,3.61747,-4.1085,-0.519292,Q,Q
2023-03-15 15:03:58:821,0,3.70313,-4.10281,-0.511595,Q,Q
2023-03-15 15:03:58:831,0,3.78889,-4.09861,-0.506091,Q,Q
2023-03-15 15:03:58:841,0,3.87052,-4.09656,-0.497778,Q,Q
2023-03-15 15:03:58:851,0,3.95101,-4.0981,-0.491361,Q,Q
2023-03-15 15:03:58:861,0,4.02852,-4.10459,-0.480746,Q,Q
2023-03-15 15:03:58:871,0,4.10544,-4.10839,-0.471686,Q,Q
2023-03-15 15:03:58:881,0,4.17834,-4.11511,-0.466485,Q,Q
2023-03-15 15:03:58:891,0,4.24609,-4.12562,-0.465684,Q,Q
2023-03-15 15:03:58:901,0,4.31439,-4.13687,-0.465889,Q,Q
2023-03-15 15:03:58:911,0,4.38944,-4.15067,-0.468182,Q,Q
2023-03-15 15:03:58:921,0,4.45906,-4.16767,-0.473228,Q,Q
2023-03-15 15:03:58:931,0,4.52703,-4.18728,-0.473001,Q,Q
2023-03-15 15:03:58:941,0,4.59425,-4.2044,-0.479111,Q,Q
2023-03-15 15:03:58:951,0,4.66032,-4.22193,-0.484637,Q,Q
2023-03-15 15:03:58:961,0,4.72659,-4.24416,-0.491026,Q,Q
2023-03-15 15:03:58:971,0,4.78756,-4.26446,-0.494998,Q,Q
2023-03-15 15:03:58:981,0,4.8458,-4.28686,-0.500872,Q,Q
2023-03-15 15:03:58:991,0,4.90028,-4.30988,-0.505278,Q,Q
2023-03-15 15:03:59:1,0,4.95481,-4.32934,-0.516175,Q,Q
2023-03-15 15:03:59:11,0,5.00568,-4.34472,-0.524012,Q,Q
2023-03-15 15:03:59:21,0,5.05381,-4.35315,-0.535835,Q,Q
2023-03-15 15:03:59:31,0,5.10317,-4.35953,-0.548735,Q,Q
2023-03-15 15:03:59:41,0,5.15594,-4.36367,-0.561566,Q,Q
2023-03-15 15:03:59:51,0,5.20999,-4.36703,-0.570423,Q,Q
2023-03-15 15:03:59:61,0,5.26124,-4.37134,-0.573206,Q,Q
2023-03-15 15:03:59:71,0,5.30424,-4.37174,-0.571236,Q,Q
2023-03-15 15:03:59:81,0,5.33761,-4.37316,-0.5685,Q,Q
2023-03-15 15:03:59:91,0,5.36854,-4.37186,-0.567876,Q,Q
2023-03-15 15:03:59:101,0,5.39396,-4.36551,-0.570962,Q,Q
2023-03-15 15:03:59:111,0,5.4156,-4.35434,-0.57869,Q,Q
2023-03-15 15:03:59:121,0,5.43379,-4.33949,-0.586008,Q,Q
2023-03-15 15:03:59:131,0,5.4505,-4.3211,-0.597889,Q,Q
2023-03-15 15:03:59:141,0,5.47299,-4.30665,-0.612653,Q,Q
2023-03-15 15:03:59:151,0,5.48921,-4.2945,-0.625751,Q,Q
2023-03-15 15:03:59:161,0,5.50367,-4.27878,-0.641255,Q,Q
2023-03-15 15:03:59:171,0,5.5181,-4.26089,-0.661537,Q,Q
2023-03-15 15:03:59:181,0,5.52857,-4.2438,-0.67855,Q,Q
2023-03-15 15:03:59:191,0,5.53373,-4.22562,-0.698661,Q,Q
2023-03-15 15:03:59:201,0,5.53664,-4.20936,-0.71964,Q,Q
2023-03-15 15:03:59:211,0,5.53694,-4.19577,-0.735488,Q,Q
2023-03-15 15:03:59:221,0,5.5349,-4.18413,-0.754354,Q,Q
2023-03-15 15:03:59:231,0,5.52546,-4.16914,-0.773259,Q,Q
2023-03-15 15:03:59:241,0,5.51506,-4.15301,-0.791855,Q,Q
2023-03-15 15:03:59:251,0,5.50235,-4.13331,-0.813141,Q,Q
2023-03-15 15:03:59:261,0,5.49043,-4.11356,-0.831189,Q,Q
2023-03-15 15:03:59:271,0,5.47781,-4.09549,-0.852449,Q,Q
2023-03-15 15:03:59:281,0,5.46922,-4.07564,-0.862135,Q,Q
2023-03-15 15:03:59:291,0,5.46135,-4.05478,-0.869726,Q,Q
2023-03-15 15:03:59:301,0,5.45176,-4.03883,-0.871812,Q,Q
2023-03-15 15:03:59:311,0,5.44272,-4.02635,-0.869422,Q,Q
2023-03-15 15:03:59:321,0,5.42751,-4.01146,-0.866257,Q,Q
2023-03-15 15:03:59:331,0,5.41364,-3.991,-0.861945,Q,Q
2023-03-15 15:03:59:341,0,5.39703,-3.97193,-0.851997,Q,Q
2023-03-15 15:03:59:351,0,5.37664,-3.9537,-0.8463,Q,Q
2023-03-15 15:03:59:361,0,5.35675,-3.93782,-0.837855,Q,Q
2023-03-15 15:03:59:371,0,5.34036,-3.91426,-0.829188,Q,Q
2023-03-15 15:03:59:381,0,5.32492,-3.8953,-0.816846,Q,Q
2023-03-15 15:03:59:391,0,5.30813,-3.8737,-0.800293,Q,Q
2023-03-15 15:03:59:401,0,5.29101,-3.8605,-0.785688,Q,Q
2023-03-15 15:03:59:411,0,5.27909,-3.8498,-0.774727,Q,Q
2023-03-15 15:03:59:421,0,5.26572,-3.84497,-0.767954,Q,Q
2023-03-15 15:03:59:431,0,5.25778,-3.84213,-0.761327,Q,Q
2023-03-15 15:03:59:441,0,5.25742,-3.84682,-0.754464,Q,Q
2023-03-15 15:03:59:451,0,5.2662,-3.85822,-0.750869,Q,Q
2023-03-15 15:03:59:461,0,5.27288,-3.87843,-0.743505,Q,Q
2023-03-15 15:03:59:471,0,5.27728,-3.90312,-0.734385,Q,Q
2023-03-15 15:03:59:481,0,5.27889,-3.93397,-0.72721,Q,Q
2023-03-15 15:03:59:491,0,5.27894,-3.96289,-0.721172,Q,Q
2023-03-15 15:03:59:501,0,5.28,-3.99776,-0.716708,Q,Q
2023-03-15 15:03:59:511,0,5.28648,-4.03503,-0.716764,Q,Q
2023-03-15 15:03:59:521,0,5.29561,-4.06909,-0.71841,Q,Q
2023-03-15 15:03:59:531,0,5.30854,-4.10176,-0.725717,Q,Q
2023-03-15 15:03:59:541,0,5.32551,-4.12858,-0.734246,Q,Q
2023-03-15 15:03:59:551,0,5.34391,-4.14693,-0.742099,Q,Q
2023-03-15 15:03:59:561,0,5.35912,-4.1649,-0.747012,Q,Q
2023-03-15 15:03:59:571,0,5.3729,-4.17867,-0.753304,Q,Q
2023-03-15 15:03:59:581,0,5.38548,-4.18629,-0.757962,Q,Q
2023-03-15 15:03:59:591,0,5.40416,-4.18946,-0.760033,Q,Q
2023-03-15 15:03:59:601,0,5.41977,-4.18828,-0.764562,Q,Q
2023-03-15 15:03:59:611,0,5.43461,-4.18051,-0.766319,Q,Q
2023-03-15 15:03:59:621,0,5.45122,-4.16921,-0.766031,Q,Q
2023-03-15 15:03:59:631,0,5.46751,-4.15644,-0.763766,Q,Q
2023-03-15 15:03:59:641,0,5.48193,-4.14229,-0.762129,Q,Q
2023-03-15 15:03:59:651,0,5.50143,-4.13265,-0.757635,Q,Q
2023-03-15 15:03:59:661,0,5.51548,-4.12622,-0.749458,Q,Q
2023-03-15 15:03:59:671,0,5.52855,-4.12365,-0.73868,Q,Q
2023-03-15 15:03:59:681,0,5.53754,-4.12697,-0.726174,Q,Q
2023-03-15 15:03:59:691,0,5.54418,-4.13095,-0.714644,Q,Q
2023-03-15 15:03:59:701,0,5.5551,-4.13784,-0.705405,Q,Q
2023-03-15 15:03:59:711,0,5.5648,-4.15135,-0.699569,Q,Q
2023-03-15 15:03:59:721,0,5.57884,-4.1641,-0.694625,Q,Q
2023-03-15 15:03:59:731,0,5.59528,-4.17927,-0.687892,Q,Q
2023-03-15 15:03:59:741,0,5.61324,-4.1989,-0.67947,Q,Q
2023-03-15 15:03:59:751,0,5.62927,-4.21913,-0.672499,Q,Q
2023-03-15 15:03:59:761,0,5.64862,-4.23806,-0.668679,Q,Q
2023-03-15 15:03:59:771,0,5.67346,-4.2582,-0.671008,Q,Q
2023-03-15 15:03:59:781,0,5.70097,-4.28209,-0.669748,Q,Q
2023-03-15 15:03:59:791,0,5.73002,-4.30927,-0.669904,Q,Q
2023-03-15 15:03:59:801,0,5.75861,-4.34085,-0.667553,Q,Q
2023-03-15 15:03:59:811,0,5.78662,-4.37071,-0.668168,Q,Q
2023-03-15 15:03:59:821,0,5.81053,-4.39937,-0.667021,Q,Q
2023-03-15 15:03:59:831,0,5.83884,-4.42873,-0.664133,Q,Q
2023-03-15 15:03:59:841,0,5.86439,-4.44874,-0.66832,Q,Q
2023-03-15 15:03:59:851,0,5.88823,-4.46144,-0.669475,Q,Q
2023-03-15 15:03:59:861,0,5.92013,-4.4663,-0.668757,Q,Q
2023-03-15 15:03:59:871,0,5.9563,-4.46706,-0.672489,Q,Q
2023-03-15 15:03:59:881,0,5.99713,-4.46346,-0.671841,Q,Q
2023-03-15 15:03:59:891,0,6.03592,-4.45936,-0.671769,Q,Q
2023-03-15 15:03:59:901,0,6.07507,-4.45579,-0.66939,Q,Q
2023-03-15 15:03:59:911,0,6.10842,-4.4465,-0.665209,Q,Q
2023-03-15 15:03:59:921,0,6.13217,-4.43862,-0.661167,Q,Q
2023-03-15 15:03:59:931,0,6.15026,-4.4302,-0.660487,Q,Q
2023-03-15 15:03:59:941,0,6.16711,-4.41936,-0.665588,Q,Q
2023-03-15 15:03:59:951,0,6.17815,-4.4074,-0.670442,Q,Q
2023-03-15 15:03:59:961,0,6.18498,-4.39624,-0.681324,Q,Q
2023-03-15 15:03:59:971,0,6.18888,-4.38214,-0.693573,Q,Q
2023-03-15 15:03:59:981,0,6.18331,-4.36958,-0.706667,Q,Q
2023-03-15 15:03:59:991,0,6.16828,-4.35417,-0.724674,Q,Q
2023-03-15 15:04:00:1,0,6.14925,-4.33477,-0.743822,Q,Q
2023-03-15 15:04:00:11,0,6.11385,-4.3173,-0.765752,Q,Q
2023-03-15 15:04:00:21,0,6.0676,-4.30414,-0.786034,Q,Q
2023-03-15 15:04:00:31,0,6.01457,-4.2938,-0.811806,Q,Q
2023-03-15 15:04:00:41,0,5.94441,-4.28438,-0.840751,Q,Q
2023-03-15 15:04:00:51,0,5.87602,-4.27149,-0.875426,Q,Q
2023-03-15 15:04:00:61,0,5.80919,-4.25405,-0.912822,Q,Q
2023-03-15 15:04:00:71,0,5.74122,-4.23653,-0.947087,Q,Q
2023-03-15 15:04:00:81,0,5.67391,-4.21999,-0.979846,Q,Q
2023-03-15 15:04:00:91,0,5.60768,-4.20441,-1.01265,Q,Q
2023-03-15 15:04:00:101,0,5.54083,-4.19427,-1.04057,Q,Q
2023-03-15 15:04:00:111,0,5.47027,-4.1844,-1.06329,Q,Q
2023-03-15 15:04:00:121,0,5.40411,-4.17885,-1.08984,Q,Q
2023-03-15 15:04:00:131,0,5.34116,-4.17721,-1.11727,Q,Q
2023-03-15 15:04:00:141,0,5.28992,-4.16982,-1.14796,Q,Q
2023-03-15 15:04:00:151,0,5.24369,-4.15974,-1.179,Q,Q
2023-03-15 15:04:00:161,0,5.19215,-4.14666,-1.2071,Q,Q
2023-03-15 15:04:00:171,0,5.13996,-4.13381,-1.23304,Q,Q
2023-03-15 15:04:00:181,0,5.08204,-4.12223,-1.25829,Q,Q
2023-03-15 15:04:00:191,0,5.0277,-4.10494,-1.28684,Q,Q
2023-03-15 15:04:00:201,0,4.97038,-4.09193,-1.31164,Q,Q
2023-03-15 15:04:00:211,0,4.9161,-4.0859,-1.3354,Q,Q
2023-03-15 15:04:00:221,0,4.86333,-4.08437,-1.35868,Q,Q
2023-03-15 15:04:00:231,0,4.81433,-4.08702,-1.37902,Q,Q
2023-03-15 15:04:00:241,0,4.76582,-4.09106,-1.39819,Q,Q
2023-03-15 15:04:00:251,0,4.71702,-4.09814,-1.41709,Q,Q
2023-03-15 15:04:00:261,0,4.67262,-4.10327,-1.43558,Q,Q
2023-03-15 15:04:00:271,0,4.62996,-4.11018,-1.45541,Q,Q
2023-03-15 15:04:00:281,0,4.59671,-4.11158,-1.47605,Q,Q
2023-03-15 15:04:00:291,0,4.56767,-4.1141,-1.49715,Q,Q
2023-03-15 15:04:00:301,0,4.54319,-4.11497,-1.5184,Q,Q
2023-03-15 15:04:00:311,0,4.52544,-4.11774,-1.5327,Q,Q
2023-03-15 15:04:00:321,0,4.50879,-4.12049,-1.54412,Q,Q
2023-03-15 15:04:00:331,0,4.49504,-4.12926,-1.55022,Q,Q
2023-03-15 15:04:00:341,0,4.48582,-4.13914,-1.55384,Q,Q
2023-03-15 15:04:00:351,0,4.47612,-4.15041,-1.55572,Q,Q
2023-03-15 15:04:00:361,0,4.4645,-4.16634,-1.55049,Q,Q
2023-03-15 15:04:00:371,0,4.45076,-4.17837,-1.54679,Q,Q
2023-03-15 15:04:00:381,0,4.43153,-4.18985,-1.53936,Q,Q
2023-03-15 15:04:00:391,0,4.41059,-4.20132,-1.53673,Q,Q
2023-03-15 15:04:00:401,0,4.38826,-4.21585,-1.53424,Q,Q
2023-03-15 15:04:00:411,0,4.35846,-4.22549,-1.5354,Q,Q
2023-03-15 15:04:00:421,0,4.32454,-4.23138,-1.54149,Q,Q
2023-03-15 15:04:00:431,0,4.28755,-4.23332,-1.54994,Q,Q
2023-03-15 15:04:00:441,0,4.25154,-4.2343,-1.56361,Q,Q
2023-03-15 15:04:00:451,0,4.22088,-4.23734,-1.57894,Q,Q
2023-03-15 15:04:00:461,0,4.19688,-4.23843,-1.59126,Q,Q
2023-03-15 15:04:00:471,0,4.16416,-4.24074,-1.60002,Q,Q
2023-03-15 15:04:00:481,0,4.11831,-4.24364,-1.60868,Q,Q
2023-03-15 15:04:00:491,0,4.0634,-4.24363,-1.6202,Q,Q
2023-03-15 15:04:00:501,0,4.01842,-4.2548,-1.64735,Q,Q
2023-03-15 15:04:00:511,0,3.98692,-4.26433,-1.6796,Q,Q
2023-03-15 15:04:00:521,0,3.95891,-4.27325,-1.71312,Q,Q
2023-03-15 15:04:00:531,0,3.93294,-4.27627,-1.74997,Q,Q
2023-03-15 15:04:00:541,0,3.91733,-4.28657,-1.78568,Q,Q
2023-03-15 15:04:00:551,0,3.91297,-4.30573,-1.81522,Q,Q
2023-03-15 15:04:00:561,0,3.91636,-4.324,-1.83473,Q,Q
2023-03-15 15:04:00:571,0,3.91534,-4.34104,-1.84757,Q,Q
2023-03-15 15:04:00:581,0,3.91893,-4.35968,-1.86301,Q,Q
2023-03-15 15:04:00:591,0,3.92452,-4.37162,-1.87961,Q,Q
2023-03-15 15:04:00:601,0,3.93635,-4.37035,-1.89098,Q,Q
2023-03-15 15:04:00:611,0,3.94026,-4.36525,-1.89991,Q,Q
2023-03-15 15:04:00:621,0,3.9429,-4.35498,-1.915,Q,Q
2023-03-15 15:04:00:631,0,3.95855,-4.34499,-1.93182,Q,Q
2023-03-15 15:04:00:641,0,3.98292,-4.3375,-1.95034,Q,Q
2023-03-15 15:04:00:651,0,4.02265,-4.32777,-1.96903,Q,Q
2023-03-15 15:04:00:661,0,4.08324,-4.32104,-1.98966,Q,Q
2023-03-15 15:04:00:671,0,4.15481,-4.31597,-2.00801,Q,Q
2023-03-15 15:04:00:681,0,4.22933,-4.30609,-2.02909,Q,Q
2023-03-15 15:04:00:691,0,4.30431,-4.29236,-2.05467,Q,Q
2023-03-15 15:04:00:701,0,4.38137,-4.26732,-2.0875,Q,Q
2023-03-15 15:04:00:711,0,4.45636,-4.23403,-2.11889,Q,Q
2023-03-15 15:04:00:721,0,4.53001,-4.19315,-2.14923,Q,Q
2023-03-15 15:04:00:731,0,4.59243,-4.1498,-2.18355,Q,Q
2023-03-15 15:04:00:741,0,4.64858,-4.10805,-2.21599,Q,Q
2023-03-15 15:04:00:751,0,4.70292,-4.06439,-2.24846,Q,Q
2023-03-15 15:04:00:761,0,4.74979,-4.02134,-2.2793,Q,Q
2023-03-15 15:04:00:771,0,4.80052,-3.97725,-2.30634,Q,Q
2023-03-15 15:04:00:781,0,4.85038,-3.93665,-2.32129,Q,Q
2023-03-15 15:04:00:791,0,4.89938,-3.9033,-2.33196,Q,Q
2023-03-15 15:04:00:801,0,4.94726,-3.87192,-2.3379,Q,Q
2023-03-15 15:04:00:811,0,4.99601,-3.84671,-2.34116,Q,Q
2023-03-15 15:04:00:821,0,5.04798,-3.82624,-2.34278,Q,Q
2023-03-15 15:04:00:831,0,5.10164,-3.80972,-2.33913,Q,Q
2023-03-15 15:04:00:841,0,5.15633,-3.79291,-2.3346,Q,Q
2023-03-15 15:04:00:851,0,5.20807,-3.78507,-2.32111,Q,Q
2023-03-15 15:04:00:860,0,5.2583,-3.77883,-2.31098,Q,Q
2023-03-15 15:04:00:871,0,5.30422,-3.77367,-2.29709,Q,Q
2023-03-15 15:04:00:881,0,5.34552,-3.77457,-2.28246,Q,Q
2023-03-15 15:04:00:891,0,5.38064,-3.78226,-2.26737,Q,Q
2023-03-15 15:04:00:901,0,5.41384,-3.79278,-2.25093,Q,Q
2023-03-15 15:04:00:911,0,5.4549,-3.8042,-2.23727,Q,Q
2023-03-15 15:04:00:921,0,5.49079,-3.81902,-2.2232,Q,Q
2023-03-15 15:04:00:931,0,5.52458,-3.83895,-2.21015,Q,Q
2023-03-15 15:04:00:941,0,5.55903,-3.86633,-2.19987,Q,Q
2023-03-15 15:04:00:951,0,5.59172,-3.89999,-2.19308,Q,Q
2023-03-15 15:04:00:961,0,5.62464,-3.93677,-2.19056,Q,Q
2023-03-15 15:04:00:971,0,5.65621,-3.97239,-2.18914,Q,Q
2023-03-15 15:04:00:981,0,5.68843,-4.01209,-2.18829,Q,Q
2023-03-15 15:04:00:991,0,5.7129,-4.05316,-2.18721,Q,Q
2023-03-15 15:04:01:1,0,5.73578,-4.09138,-2.18602,Q,Q
2023-03-15 15:04:01:11,0,5.75402,-4.12676,-2.18814,Q,Q
2023-03-15 15:04:01:20,0,5.77399,-4.1593,-2.18544,Q,Q
2023-03-15 15:04:01:31,0,5.79027,-4.18808,-2.18432,Q,Q
2023-03-15 15:04:01:40,0,5.81063,-4.20915,-2.17771,Q,Q
2023-03-15 15:04:01:50,0,5.83318,-4.22624,-2.16878,Q,Q
2023-03-15 15:04:01:61,0,5.85064,-4.23472,-2.15629,Q,Q
2023-03-15 15:04:01:71,0,5.87012,-4.24232,-2.14255,Q,Q
2023-03-15 15:04:01:81,0,5.89631,-4.24982,-2.12756,Q,Q
2023-03-15 15:04:01:90,0,5.93049,-4.25129,-2.11339,Q,Q
2023-03-15 15:04:01:101,0,5.97205,-4.24906,-2.09704,Q,Q
2023-03-15 15:04:01:110,0,6.02105,-4.24362,-2.07651,Q,Q
2023-03-15 15:04:01:121,0,6.06967,-4.24258,-2.05711,Q,Q
2023-03-15 15:04:01:131,0,6.11165,-4.23834,-2.03674,Q,Q
2023-03-15 15:04:01:141,0,6.15646,-4.23451,-2.01941,Q,Q
2023-03-15 15:04:01:151,0,6.19703,-4.23528,-2.0008,Q,Q
2023-03-15 15:04:01:161,0,6.24025,-4.23652,-1.98573,Q,Q
2023-03-15 15:04:01:170,0,6.28233,-4.23589,-1.97231,Q,Q
2023-03-15 15:04:01:180,0,6.32923,-4.23477,-1.95781,Q,Q
2023-03-15 15:04:01:190,0,6.3786,-4.23642,-1.94122,Q,Q
2023-03-15 15:04:01:200,0,6.42602,-4.24062,-1.92385,Q,Q
2023-03-15 15:04:01:210,0,6.47642,-4.24423,-1.91081,Q,Q
2023-03-15 15:04:01:220,0,6.52829,-4.24318,-1.8963,Q,Q
2023-03-15 15:04:01:230,0,6.57481,-4.24425,-1.88264,Q,Q
2023-03-15 15:04:01:241,0,6.62226,-4.24511,-1.86789,Q,Q
2023-03-15 15:04:01:251,0,6.66754,-4.24969,-1.8458,Q,Q
2023-03-15 15:04:01:261,0,6.70882,-4.25359,-1.82329,Q,Q
2023-03-15 15:04:01:271,0,6.74953,-4.26478,-1.79454,Q,Q
2023-03-15 15:04:01:281,0,6.78728,-4.28129,-1.76269,Q,Q
2023-03-15 15:04:01:291,0,6.82419,-4.30192,-1.72523,Q,Q
2023-03-15 15:04:01:301,0,6.8611,-4.32568,-1.67923,Q,Q
2023-03-15 15:04:01:311,0,6.89639,-4.35692,-1.62586,Q,Q
2023-03-15 15:04:01:321,0,6.93023,-4.39214,-1.56445,Q,Q
2023-03-15 15:04:01:331,0,6.95586,-4.43209,-1.49933,Q,Q
2023-03-15 15:04:01:341,0,6.9827,-4.46804,-1.4299,Q,Q
2023-03-15 15:04:01:351,0,7.00265,-4.50448,-1.35288,Q,Q
2023-03-15 15:04:01:361,0,7.0198,-4.53588,-1.27237,Q,Q
2023-03-15 15:04:01:371,0,7.04271,-4.56328,-1.19284,Q,Q
2023-03-15 15:04:01:381,0,7.06498,-4.58529,-1.11529,Q,Q
2023-03-15 15:04:01:391,0,7.08513,-4.60864,-1.03551,Q,Q
2023-03-15 15:04:01:401,0,7.10207,-4.631,-0.960745,Q,Q
2023-03-15 15:04:01:411,0,7.1208,-4.65096,-0.887364,Q,Q
2023-03-15 15:04:01:421,0,7.13468,-4.67654,-0.823602,Q,Q
2023-03-15 15:04:01:431,0,7.15185,-4.70259,-0.763154,Q,Q
2023-03-15 15:04:01:441,0,7.16744,-4.73395,-0.706596,Q,Q
2023-03-15 15:04:01:451,0,7.17738,-4.76351,-0.652175,Q,Q
2023-03-15 15:04:01:461,0,7.17629,-4.79997,-0.606467,Q,Q
2023-03-15 15:04:01:471,0,7.16974,-4.83814,-0.565627,Q,Q
2023-03-15 15:04:01:481,0,7.15787,-4.87654,-0.535291,Q,Q
2023-03-15 15:04:01:491,0,7.1434,-4.91663,-0.508754,Q,Q
2023-03-15 15:04:01:501,0,7.12439,-4.95037,-0.488797,Q,Q
2023-03-15 15:04:01:511,0,7.10659,-4.98096,-0.482262,Q,Q
2023-03-15 15:04:01:521,0,7.09015,-5.00818,-0.47785,Q,Q
2023-03-15 15:04:01:531,0,7.07922,-5.02899,-0.475942,Q,Q
2023-03-15 15:04:01:541,0,7.06891,-5.04547,-0.480336,Q,Q
2023-03-15 15:04:01:551,0,7.06347,-5.05345,-0.481727,Q,Q
2023-03-15 15:04:01:561,0,7.05402,-5.05889,-0.482715,Q,Q
2023-03-15 15:04:01:571,0,7.04267,-5.06091,-0.484625,Q,Q
2023-03-15 15:04:01:581,0,7.03244,-5.05403,-0.488957,Q,Q
2023-03-15 15:04:01:591,0,7.02785,-5.04551,-0.494962,Q,Q
2023-03-15 15:04:01:601,0,7.02863,-5.02872,-0.501407,Q,Q
2023-03-15 15:04:01:611,0,7.03313,-5.01165,-0.510357,Q,Q
2023-03-15 15:04:01:621,0,7.03964,-4.99486,-0.518408,Q,Q
2023-03-15 15:04:01:631,0,7.04544,-4.9785,-0.529097,Q,Q
2023-03-15 15:04:01:641,0,7.05194,-4.9622,-0.534061,Q,Q
2023-03-15 15:04:01:651,0,7.0554,-4.952,-0.545234,Q,Q
2023-03-15 15:04:01:661,0,7.05603,-4.94314,-0.558144,Q,Q
2023-03-15 15:04:01:671,0,7.05546,-4.93317,-0.570626,Q,Q
2023-03-15 15:04:01:681,0,7.05368,-4.92143,-0.585245,Q,Q
2023-03-15 15:04:01:691,0,7.05223,-4.91025,-0.60175,Q,Q
2023-03-15 15:04:01:701,0,7.05266,-4.89998,-0.622989,Q,Q
2023-03-15 15:04:01:711,0,7.05305,-4.892,-0.640865,Q,Q
2023-03-15 15:04:01:721,0,7.05391,-4.88241,-0.652704,Q,Q
2023-03-15 15:04:01:731,0,7.04924,-4.88305,-0.663308,Q,Q
2023-03-15 15:04:01:741,0,7.04142,-4.88575,-0.669301,Q,Q
2023-03-15 15:04:01:751,0,7.02783,-4.8917,-0.676379,Q,Q
2023-03-15 15:04:01:761,0,7.01298,-4.90125,-0.680194,Q,Q
2023-03-15 15:04:01:771,0,6.99753,-4.91693,-0.687969,Q,Q
2023-03-15 15:04:01:781,0,6.97757,-4.93414,-0.689231,Q,Q
2023-03-15 15:04:01:791,0,6.9581,-4.95206,-0.692467,Q,Q
2023-03-15 15:04:01:801,0,6.939,-4.97413,-0.694913,Q,Q
2023-03-15 15:04:01:811,0,6.91546,-4.99746,-0.695448,Q,Q
2023-03-15 15:04:01:820,0,6.89823,-5.0249,-0.693883,Q,Q
2023-03-15 15:04:01:831,0,6.87641,-5.04875,-0.689373,Q,Q
2023-03-15 15:04:01:841,0,6.85659,-5.06757,-0.684094,Q,Q
2023-03-15 15:04:01:851,0,6.8335,-5.082,-0.677413,Q,Q
2023-03-15 15:04:01:861,0,6.81253,-5.09088,-0.666752,Q,Q
2023-03-15 15:04:01:871,0,6.79597,-5.09596,-0.661689,Q,Q
2023-03-15 15:04:01:881,0,6.78161,-5.09638,-0.660825,Q,Q
2023-03-15 15:04:01:891,0,6.772,-5.09372,-0.661724,Q,Q
2023-03-15 15:04:01:901,0,6.76084,-5.08087,-0.666224,Q,Q
2023-03-15 15:04:01:911,0,6.75376,-5.06431,-0.672417,Q,Q
2023-03-15 15:04:01:921,0,6.74736,-5.04906,-0.687883,Q,Q
2023-03-15 15:04:01:931,0,6.74083,-5.04123,-0.705484,Q,Q
2023-03-15 15:04:01:941,0,6.72655,-5.03959,-0.727443,Q,Q
2023-03-15 15:04:01:951,0,6.71032,-5.04144,-0.751121,Q,Q
2023-03-15 15:04:01:961,0,6.69754,-5.03665,-0.777323,Q,Q
2023-03-15 15:04:01:971,0,6.68815,-5.03875,-0.806736,Q,Q
2023-03-15 15:04:01:981,0,6.68049,-5.04315,-0.835523,Q,Q
2023-03-15 15:04:01:991,0,6.6695,-5.04962,-0.860681,Q,Q
2023-03-15 15:04:02:1,0,6.65572,-5.05974,-0.880131,Q,Q
2023-03-15 15:04:02:11,0,6.64005,-5.07017,-0.901489,Q,Q
2023-03-15 15:04:02:21,0,6.62609,-5.0786,-0.923984,Q,Q
2023-03-15 15:04:02:31,0,6.61723,-5.08491,-0.943361,Q,Q
2023-03-15 15:04:02:41,0,6.61001,-5.09608,-0.959393,Q,Q
2023-03-15 15:04:02:51,0,6.59436,-5.104,-0.971556,Q,Q
2023-03-15 15:04:02:61,0,6.57843,-5.11086,-0.985886,Q,Q
2023-03-15 15:04:02:71,0,6.56577,-5.11893,-1.00024,Q,Q
2023-03-15 15:04:02:81,0,6.55372,-5.12147,-1.01534,Q,Q
2023-03-15 15:04:02:91,0,6.54169,-5.1208,-1.031,Q,Q
2023-03-15 15:04:02:101,0,6.53223,-5.12084,-1.04888,Q,Q
2023-03-15 15:04:02:111,0,6.53015,-5.12207,-1.06656,Q,Q
2023-03-15 15:04:02:121,0,6.52951,-5.13056,-1.07459,Q,Q
2023-03-15 15:04:02:131,0,6.53352,-5.14365,-1.07929,Q,Q
2023-03-15 15:04:02:141,0,6.5344,-5.15782,-1.07519,Q,Q
2023-03-15 15:04:02:151,0,6.54084,-5.17366,-1.06785,Q,Q
2023-03-15 15:04:02:161,0,6.54993,-5.18707,-1.06264,Q,Q
2023-03-15 15:04:02:171,0,6.56042,-5.20501,-1.05251,Q,Q
2023-03-15 15:04:02:181,0,6.57857,-5.21557,-1.04,Q,Q
2023-03-15 15:04:02:191,0,6.60382,-5.22769,-1.02639,Q,Q
2023-03-15 15:04:02:201,0,6.63163,-5.24332,-1.00804,Q,Q
2023-03-15 15:04:02:211,0,6.66916,-5.25969,-0.994595,Q,Q
2023-03-15 15:04:02:221,0,6.7129,-5.27636,-0.982839,Q,Q
2023-03-15 15:04:02:231,0,6.76061,-5.29023,-0.969298,Q,Q
2023-03-15 15:04:02:241,0,6.82008,-5.30471,-0.956958,Q,Q
2023-03-15 15:04:02:251,0,6.88527,-5.31637,-0.944508,Q,Q
2023-03-15 15:04:02:261,0,6.95158,-5.32466,-0.92708,Q,Q
2023-03-15 15:04:02:271,0,7.01917,-5.33247,-0.907401,Q,Q
2023-03-15 15:04:02:281,0,7.08742,-5.34426,-0.885318,Q,Q
2023-03-15 15:04:02:291,0,7.15379,-5.35007,-0.862801,Q,Q
2023-03-15 15:04:02:301,0,7.21526,-5.35253,-0.834103,Q,Q
2023-03-15 15:04:02:311,0,7.27569,-5.35468,-0.803138,Q,Q
2023-03-15 15:04:02:321,0,7.33135,-5.361,-0.771866,Q,Q
2023-03-15 15:04:02:331,0,7.38144,-5.36523,-0.739398,Q,Q
2023-03-15 15:04:02:341,0,7.42329,-5.36627,-0.711214,Q,Q
2023-03-15 15:04:02:351,0,7.46273,-5.3682,-0.686573,Q,Q
2023-03-15 15:04:02:361,0,7.50059,-5.36814,-0.662155,Q,Q
2023-03-15 15:04:02:371,0,7.53201,-5.3742,-0.637125,Q,Q
2023-03-15 15:04:02:381,0,7.56192,-5.37749,-0.615778,Q,Q
2023-03-15 15:04:02:391,0,7.58842,-5.38217,-0.596375,Q,Q
2023-03-15 15:04:02:401,0,7.61562,-5.39013,-0.582618,Q,Q
2023-03-15 15:04:02:411,0,7.6382,-5.39952,-0.571018,Q,Q
2023-03-15 15:04:02:421,0,7.6623,-5.40727,-0.556975,Q,Q
2023-03-15 15:04:02:431,0,7.6817,-5.41982,-0.543714,Q,Q
2023-03-15 15:04:02:441,0,7.69821,-5.43056,-0.53233,Q,Q
2023-03-15 15:04:02:451,0,7.70798,-5.4402,-0.520025,Q,Q
2023-03-15 15:04:02:461,0,7.71661,-5.44691,-0.508691,Q,Q
2023-03-15 15:04:02:471,0,7.72289,-5.45245,-0.496758,Q,Q
2023-03-15 15:04:02:481,0,7.72412,-5.45414,-0.483165,Q,Q
2023-03-15 15:04:02:491,0,7.72284,-5.45891,-0.466586,Q,Q
2023-03-15 15:04:02:501,0,7.71495,-5.46236,-0.447128,Q,Q
2023-03-15 15:04:02:511,0,7.70409,-5.46174,-0.420035,Q,Q
2023-03-15 15:04:02:521,0,7.6857,-5.46389,-0.396334,Q,Q
2023-03-15 15:04:02:531,0,7.66121,-5.46705,-0.375352,Q,Q
2023-03-15 15:04:02:541,0,7.63394,-5.46632,-0.358735,Q,Q
2023-03-15 15:04:02:551,0,7.60451,-5.4653,-0.343041,Q,Q
2023-03-15 15:04:02:561,0,7.57527,-5.4657,-0.334331,Q,Q
2023-03-15 15:04:02:571,0,7.54658,-5.46273,-0.329059,Q,Q
2023-03-15 15:04:02:581,0,7.51792,-5.45745,-0.329313,Q,Q
2023-03-15 15:04:02:591,0,7.49225,-5.4525,-0.337144,Q,Q
2023-03-15 15:04:02:601,0,7.46482,-5.44417,-0.345464,Q,Q
2023-03-15 15:04:02:611,0,7.44181,-5.43704,-0.35677,Q,Q
2023-03-15 15:04:02:621,0,7.41662,-5.43109,-0.365369,Q,Q
2023-03-15 15:04:02:631,0,7.3962,-5.42506,-0.379595,Q,Q
2023-03-15 15:04:02:641,0,7.37272,-5.41592,-0.397376,Q,Q
2023-03-15 15:04:02:651,0,7.35042,-5.40991,-0.412198,Q,Q
2023-03-15 15:04:02:661,0,7.32251,-5.40436,-0.43104,Q,Q
2023-03-15 15:04:02:671,0,7.29212,-5.39905,-0.458349,Q,Q
2023-03-15 15:04:02:681,0,7.26722,-5.38698,-0.487396,Q,Q
2023-03-15 15:04:02:691,0,7.24135,-5.37592,-0.519682,Q,Q
2023-03-15 15:04:02:701,0,7.21583,-5.36484,-0.55662,Q,Q
2023-03-15 15:04:02:711,0,7.19505,-5.35354,-0.601275,Q,Q
2023-03-15 15:04:02:721,0,7.17406,-5.33747,-0.646545,Q,Q
2023-03-15 15:04:02:731,0,7.15612,-5.31849,-0.692551,Q,Q
2023-03-15 15:04:02:741,0,7.14073,-5.30385,-0.73379,Q,Q
2023-03-15 15:04:02:751,0,7.12988,-5.29085,-0.774954,Q,Q
2023-03-15 15:04:02:761,0,7.11382,-5.27714,-0.805446,Q,Q
2023-03-15 15:04:02:771,0,7.10066,-5.26229,-0.829867,Q,Q
2023-03-15 15:04:02:781,0,7.08512,-5.25224,-0.848013,Q,Q
2023-03-15 15:04:02:791,0,7.07025,-5.24832,-0.857313,Q,Q
2023-03-15 15:04:02:801,0,7.05809,-5.246,-0.855528,Q,Q
2023-03-15 15:04:02:811,0,7.04948,-5.24696,-0.83885,Q,Q
2023-03-15 15:04:02:821,0,7.04615,-5.24024,-0.814028,Q,Q
2023-03-15 15:04:02:831,0,7.03973,-5.22927,-0.777645,Q,Q
2023-03-15 15:04:02:841,0,7.0341,-5.21173,-0.730617,Q,Q
2023-03-15 15:04:02:851,0,7.02201,-5.19296,-0.678344,Q,Q
2023-03-15 15:04:02:861,0,7.00044,-5.17317,-0.625003,Q,Q
2023-03-15 15:04:02:871,0,6.97864,-5.15709,-0.571182,Q,Q
2023-03-15 15:04:02:881,0,6.95722,-5.1428,-0.51786,Q,Q
2023-03-15 15:04:02:891,0,6.93169,-5.1302,-0.472796,Q,Q
2023-03-15 15:04:02:901,0,6.90973,-5.11928,-0.439353,Q,Q
2023-03-15 15:04:02:911,0,6.88641,-5.11358,-0.41988,Q,Q
2023-03-15 15:04:02:921,0,6.86462,-5.10558,-0.417655,Q,Q
2023-03-15 15:04:02:931,0,6.84144,-5.10076,-0.43094,Q,Q
2023-03-15 15:04:02:941,0,6.8228,-5.09445,-0.45852,Q,Q
2023-03-15 15:04:02:951,0,6.80256,-5.08875,-0.500501,Q,Q
2023-03-15 15:04:02:961,0,6.79065,-5.0825,-0.550447,Q,Q
2023-03-15 15:04:02:971,0,6.78303,-5.07804,-0.600443,Q,Q
2023-03-15 15:04:02:981,0,6.77179,-5.07687,-0.640662,Q,Q
2023-03-15 15:04:02:991,0,6.76357,-5.08634,-0.680249,Q,Q
2023-03-15 15:04:03:1,0,6.74836,-5.0967,-0.710318,Q,Q
2023-03-15 15:04:03:11,0,6.72953,-5.10793,-0.737821,Q,Q
2023-03-15 15:04:03:21,0,6.7057,-5.11646,-0.757773,Q,Q
2023-03-15 15:04:03:31,0,6.6805,-5.1227,-0.783162,Q,Q
2023-03-15 15:04:03:41,0,6.65976,-5.12616,-0.805846,Q,Q
2023-03-15 15:04:03:51,0,6.64968,-5.1237,-0.825316,Q,Q
2023-03-15 15:04:03:61,0,6.63978,-5.11543,-0.833435,Q,Q
2023-03-15 15:04:03:71,0,6.63411,-5.10703,-0.831494,Q,Q
2023-03-15 15:04:03:81,0,6.63357,-5.09279,-0.823762,Q,Q
2023-03-15 15:04:03:91,0,6.63847,-5.07524,-0.807462,Q,Q
2023-03-15 15:04:03:101,0,6.63606,-5.05214,-0.784325,Q,Q
2023-03-15 15:04:03:111,0,6.62527,-5.0197,-0.758199,Q,Q
2023-03-15 15:04:03:121,0,6.60757,-4.98705,-0.73145,Q,Q
2023-03-15 15:04:03:131,0,6.58322,-4.95579,-0.705909,Q,Q
2023-03-15 15:04:03:141,0,6.55502,-4.92654,-0.677925,Q,Q
2023-03-15 15:04:03:151,0,6.52525,-4.89807,-0.651007,Q,Q
2023-03-15 15:04:03:161,0,6.49766,-4.8784,-0.629893,Q,Q
2023-03-15 15:04:03:171,0,6.46416,-4.86316,-0.612931,Q,Q
2023-03-15 15:04:03:181,0,6.43416,-4.84868,-0.600374,Q,Q
2023-03-15 15:04:03:191,0,6.40225,-4.84171,-0.602481,Q,Q
2023-03-15 15:04:03:201,0,6.37528,-4.8373,-0.615318,Q,Q
2023-03-15 15:04:03:211,0,6.34941,-4.84334,-0.635277,Q,Q
2023-03-15 15:04:03:221,0,6.32238,-4.86007,-0.65777,Q,Q
2023-03-15 15:04:03:231,0,6.29731,-4.87998,-0.690465,Q,Q
2023-03-15 15:04:03:241,0,6.27897,-4.91106,-0.723304,Q,Q
2023-03-15 15:04:03:251,0,6.26496,-4.93891,-0.76083,Q,Q
2023-03-15 15:04:03:261,0,6.25984,-4.96717,-0.794854,Q,Q
2023-03-15 15:04:03:271,0,6.25861,-4.98945,-0.826306,Q,Q
2023-03-15 15:04:03:281,0,6.26539,-5.00551,-0.856051,Q,Q
2023-03-15 15:04:03:291,0,6.27328,-5.01567,-0.882021,Q,Q
2023-03-15 15:04:03:301,0,6.28299,-5.01967,-0.906275,Q,Q
2023-03-15 15:04:03:311,0,6.29433,-5.01976,-0.926838,Q,Q
2023-03-15 15:04:03:321,0,6.30986,-5.01719,-0.946867,Q,Q
2023-03-15 15:04:03:331,0,6.32776,-5.00839,-0.963653,Q,Q
2023-03-15 15:04:03:341,0,6.3489,-4.99456,-0.976206,Q,Q
2023-03-15 15:04:03:351,0,6.36541,-4.98223,-0.981339,Q,Q
2023-03-15 15:04:03:361,0,6.37963,-4.9732,-0.981892,Q,Q
2023-03-15 15:04:03:371,0,6.38982,-4.95879,-0.979816,Q,Q
2023-03-15 15:04:03:381,0,6.39531,-4.94956,-0.974551,Q,Q
2023-03-15 15:04:03:391,0,6.39438,-4.94052,-0.963099,Q,Q
2023-03-15 15:04:03:401,0,6.38269,-4.93562,-0.947397,Q,Q
2023-03-15 15:04:03:411,0,6.36047,-4.93058,-0.931811,Q,Q
2023-03-15 15:04:03:421,0,6.33024,-4.92256,-0.912737,Q,Q
2023-03-15 15:04:03:431,0,6.30391,-4.9128,-0.895822,Q,Q
2023-03-15 15:04:03:441,0,6.28244,-4.90161,-0.877311,Q,Q
2023-03-15 15:04:03:451,0,6.26221,-4.88779,-0.855062,Q,Q
2023-03-15 15:04:03:461,0,6.24211,-4.87175,-0.829527,Q,Q
2023-03-15 15:04:03:471,0,6.2245,-4.86054,-0.808074,Q,Q
2023-03-15 15:04:03:481,0,6.2085,-4.84774,-0.788292,Q,Q
2023-03-15 15:04:03:491,0,6.19644,-4.83803,-0.773508,Q,Q
2023-03-15 15:04:03:501,0,6.18265,-4.82457,-0.763135,Q,Q
2023-03-15 15:04:03:511,0,6.17565,-4.80833,-0.764467,Q,Q
2023-03-15 15:04:03:521,0,6.16776,-4.79098,-0.775503,Q,Q
2023-03-15 15:04:03:531,0,6.16113,-4.76989,-0.792675,Q,Q
2023-03-15 15:04:03:541,0,6.15719,-4.75161,-0.812818,Q,Q
2023-03-15 15:04:03:551,0,6.15313,-4.7363,-0.838798,Q,Q
2023-03-15 15:04:03:561,0,6.15316,-4.72395,-0.865594,Q,Q
2023-03-15 15:04:03:571,0,6.1569,-4.71177,-0.892656,Q,Q
2023-03-15 15:04:03:581,0,6.16724,-4.70985,-0.915274,Q,Q
2023-03-15 15:04:03:591,0,6.1798,-4.70295,-0.93161,Q,Q
2023-03-15 15:04:03:601,0,6.19306,-4.70057,-0.94307,Q,Q
2023-03-15 15:04:03:611,0,6.20295,-4.70295,-0.95383,Q,Q
2023-03-15 15:04:03:621,0,6.21469,-4.70293,-0.958794,Q,Q
2023-03-15 15:04:03:631,0,6.22708,-4.70393,-0.959105,Q,Q
2023-03-15 15:04:03:641,0,6.2383,-4.71419,-0.959733,Q,Q
2023-03-15 15:04:03:651,0,6.2432,-4.72342,-0.957159,Q,Q
2023-03-15 15:04:03:661,0,6.24899,-4.73526,-0.951371,Q,Q
2023-03-15 15:04:03:671,0,6.25067,-4.74897,-0.945196,Q,Q
2023-03-15 15:04:03:681,0,6.25127,-4.76091,-0.934263,Q,Q
2023-03-15 15:04:03:691,0,6.25401,-4.77301,-0.927953,Q,Q
2023-03-15 15:04:03:701,0,6.25639,-4.78603,-0.916058,Q,Q
2023-03-15 15:04:03:711,0,6.25744,-4.79942,-0.897903,Q,Q
2023-03-15 15:04:03:721,0,6.25549,-4.80766,-0.881562,Q,Q
2023-03-15 15:04:03:731,0,6.25243,-4.81438,-0.864684,Q,Q
2023-03-15 15:04:03:741,0,6.24583,-4.82337,-0.844494,Q,Q
2023-03-15 15:04:03:751,0,6.23338,-4.8266,-0.831635,Q,Q
2023-03-15 15:04:03:761,0,6.22133,-4.82864,-0.821383,Q,Q
2023-03-15 15:04:03:771,0,6.20792,-4.82975,-0.810306,Q,Q
2023-03-15 15:04:03:781,0,6.1885,-4.83505,-0.798365,Q,Q
2023-03-15 15:04:03:791,0,6.16404,-4.83682,-0.790983,Q,Q
2023-03-15 15:04:03:801,0,6.14349,-4.83689,-0.783161,Q,Q
2023-03-15 15:04:03:811,0,6.12681,-4.83248,-0.776847,Q,Q
2023-03-15 15:04:03:821,0,6.10954,-4.83546,-0.771104,Q,Q
2023-03-15 15:04:03:831,0,6.09147,-4.84312,-0.756765,Q,Q
2023-03-15 15:04:03:841,0,6.07155,-4.85226,-0.739549,Q,Q
2023-03-15 15:04:03:851,0,6.04578,-4.86,-0.721249,Q,Q
2023-03-15 15:04:03:861,0,6.02168,-4.86399,-0.704657,Q,Q
2023-03-15 15:04:03:871,0,5.99769,-4.86595,-0.691128,Q,Q
2023-03-15 15:04:03:881,0,5.97618,-4.86609,-0.680868,Q,Q
2023-03-15 15:04:03:891,0,5.95728,-4.86728,-0.67032,Q,Q
2023-03-15 15:04:03:901,0,5.94296,-4.87196,-0.660314,Q,Q
2023-03-15 15:04:03:911,0,5.93003,-4.88073,-0.647512,Q,Q
2023-03-15 15:04:03:921,0,5.92549,-4.8905,-0.632689,Q,Q
2023-03-15 15:04:03:931,0,5.91405,-4.89945,-0.624274,Q,Q
2023-03-15 15:04:03:941,0,5.90225,-4.90872,-0.612485,Q,Q
2023-03-15 15:04:03:951,0,5.88903,-4.91091,-0.609644,Q,Q
2023-03-15 15:04:03:961,0,5.87949,-4.91262,-0.612265,Q,Q
2023-03-15 15:04:03:971,0,5.87577,-4.91077,-0.618292,Q,Q
2023-03-15 15:04:03:981,0,5.88056,-4.90727,-0.626775,Q,Q
2023-03-15 15:04:03:991,0,5.89441,-4.90108,-0.641008,Q,Q
2023-03-15 15:04:04:1,0,5.91394,-4.89404,-0.659732,Q,Q
2023-03-15 15:04:04:11,0,5.93408,-4.8881,-0.676752,Q,Q
2023-03-15 15:04:04:21,0,5.95014,-4.88323,-0.696795,Q,Q
2023-03-15 15:04:04:31,0,5.95965,-4.87682,-0.72867,Q,Q
2023-03-15 15:04:04:41,0,5.95596,-4.86981,-0.760056,Q,Q
2023-03-15 15:04:04:51,0,5.94327,-4.86499,-0.790176,Q,Q
2023-03-15 15:04:04:61,0,5.92303,-4.8635,-0.819543,Q,Q
2023-03-15 15:04:04:71,0,5.89173,-4.86986,-0.848235,Q,Q
2023-03-15 15:04:04:81,0,5.85562,-4.8747,-0.882986,Q,Q
2023-03-15 15:04:04:91,0,5.82713,-4.88643,-0.924957,Q,Q
2023-03-15 15:04:04:101,0,5.80581,-4.89683,-0.968614,Q,Q
2023-03-15 15:04:04:111,0,5.79613,-4.92157,-1.00739,Q,Q
2023-03-15 15:04:04:121,0,5.80042,-4.96107,-1.03561,Q,Q
2023-03-15 15:04:04:131,0,5.82902,-5.01253,-1.05057,Q,Q
2023-03-15 15:04:04:141,0,5.87907,-5.06473,-1.05726,Q,Q
2023-03-15 15:04:04:151,0,5.9444,-5.11332,-1.05397,Q,Q
2023-03-15 15:04:04:161,0,6.01095,-5.15228,-1.03331,Q,Q
2023-03-15 15:04:04:171,0,6.0587,-5.19214,-0.992164,Q,Q
2023-03-15 15:04:04:181,0,6.0827,-5.23864,-0.943193,Q,Q
2023-03-15 15:04:04:191,0,6.0812,-5.29377,-0.881016,Q,Q
2023-03-15 15:04:04:201,0,6.06476,-5.35293,-0.816795,Q,Q
2023-03-15 15:04:04:211,0,6.03998,-5.41163,-0.75632,Q,Q
2023-03-15 15:04:04:221,0,6.00997,-5.46781,-0.701444,Q,Q
2023-03-15 15:04:04:231,0,5.97701,-5.52162,-0.655366,Q,Q
2023-03-15 15:04:04:241,0,5.94148,-5.57042,-0.622934,Q,Q
2023-03-15 15:04:04:251,0,5.90643,-5.60893,-0.610215,Q,Q
2023-03-15 15:04:04:261,0,5.86964,-5.63498,-0.613659,Q,Q
2023-03-15 15:04:04:271,0,5.84366,-5.65256,-0.630846,Q,Q
2023-03-15 15:04:04:281,0,5.81843,-5.65907,-0.653759,Q,Q
2023-03-15 15:04:04:291,0,5.79281,-5.6602,-0.682164,Q,Q
2023-03-15 15:04:04:301,0,5.76949,-5.65198,-0.71803,Q,Q
2023-03-15 15:04:04:311,0,5.7526,-5.63804,-0.75795,Q,Q
2023-03-15 15:04:04:321,0,5.74131,-5.61087,-0.802556,Q,Q
2023-03-15 15:04:04:331,0,5.73223,-5.57366,-0.851122,Q,Q
2023-03-15 15:04:04:341,0,5.72356,-5.52355,-0.905364,Q,Q
2023-03-15 15:04:04:351,0,5.71102,-5.4675,-0.96549,Q,Q
2023-03-15 15:04:04:361,0,5.69731,-5.40404,-1.0267,Q,Q
2023-03-15 15:04:04:371,0,5.67282,-5.3488,-1.08328,Q,Q
2023-03-15 15:04:04:381,0,5.63765,-5.29278,-1.13557,Q,Q
2023-03-15 15:04:04:391,0,5.59185,-5.24326,-1.19035,Q,Q
2023-03-15 15:04:04:401,0,5.55154,-5.20049,-1.24491,Q,Q
2023-03-15 15:04:04:411,0,5.50922,-5.15904,-1.29779,Q,Q
2023-03-15 15:04:04:421,0,5.47235,-5.12745,-1.34685,Q,Q
2023-03-15 15:04:04:431,0,5.43508,-5.09809,-1.39092,Q,Q
2023-03-15 15:04:04:441,0,5.40508,-5.07238,-1.43304,Q,Q
2023-03-15 15:04:04:451,0,5.36768,-5.0539,-1.46697,Q,Q
2023-03-15 15:04:04:461,0,5.33836,-5.03817,-1.50133,Q,Q
2023-03-15 15:04:04:471,0,5.31347,-5.02389,-1.53467,Q,Q
2023-03-15 15:04:04:481,0,5.30171,-5.003,-1.5653,Q,Q
2023-03-15 15:04:04:491,0,5.29774,-4.98801,-1.58435,Q,Q
2023-03-15 15:04:04:501,0,5.29913,-4.97878,-1.59977,Q,Q
2023-03-15 15:04:04:511,0,5.29722,-4.97523,-1.60693,Q,Q
2023-03-15 15:04:04:521,0,5.29559,-4.97346,-1.61133,Q,Q
2023-03-15 15:04:04:531,0,5.29954,-4.97869,-1.60775,Q,Q
2023-03-15 15:04:04:541,0,5.3046,-4.98851,-1.59413,Q,Q
2023-03-15 15:04:04:551,0,5.30626,-5.00114,-1.57759,Q,Q
2023-03-15 15:04:04:561,0,5.31516,-5.01039,-1.562,Q,Q
2023-03-15 15:04:04:571,0,5.33145,-5.01333,-1.55363,Q,Q
2023-03-15 15:04:04:581,0,5.35243,-5.00665,-1.55204,Q,Q
2023-03-15 15:04:04:591,0,5.37519,-5.00208,-1.55452,Q,Q
2023-03-15 15:04:04:601,0,5.40287,-4.99852,-1.55667,Q,Q
2023-03-15 15:04:04:611,0,5.43761,-5.0028,-1.56029,Q,Q
2023-03-15 15:04:04:621,0,5.4809,-5.01484,-1.56619,Q,Q
2023-03-15 15:04:04:631,0,5.5415,-5.02843,-1.57641,Q,Q
2023-03-15 15:04:04:641,0,5.612,-5.04818,-1.59097,Q,Q
2023-03-15 15:04:04:651,0,5.69746,-5.06645,-1.60881,Q,Q
2023-03-15 15:04:04:661,0,5.79032,-5.0853,-1.62783,Q,Q
2023-03-15 15:04:04:671,0,5.88295,-5.10713,-1.64337,Q,Q
2023-03-15 15:04:04:681,0,5.9657,-5.12931,-1.65626,Q,Q
2023-03-15 15:04:04:691,0,6.03802,-5.15729,-1.66622,Q,Q
2023-03-15 15:04:04:701,0,6.09935,-5.18288,-1.6788,Q,Q
2023-03-15 15:04:04:711,0,6.15047,-5.20629,-1.6952,Q,Q
2023-03-15 15:04:04:721,0,6.19372,-5.2241,-1.70825,Q,Q
2023-03-15 15:04:04:731,0,6.23073,-5.23259,-1.73119,Q,Q
2023-03-15 15:04:04:741,0,6.26077,-5.23517,-1.75692,Q,Q
2023-03-15 15:04:04:751,0,6.27934,-5.22284,-1.79155,Q,Q
2023-03-15 15:04:04:761,0,6.29273,-5.20591,-1.8369,Q,Q
2023-03-15 15:04:04:771,0,6.30799,-5.17964,-1.88893,Q,Q
2023-03-15 15:04:04:781,0,6.32827,-5.15467,-1.95333,Q,Q
2023-03-15 15:04:04:791,0,6.35456,-5.12466,-2.02668,Q,Q
2023-03-15 15:04:04:801,0,6.38864,-5.0961,-2.11094,Q,Q
2023-03-15 15:04:04:811,0,6.43118,-5.07712,-2.19572,Q,Q
2023-03-15 15:04:04:821,0,6.47271,-5.06778,-2.28271,Q,Q
2023-03-15 15:04:04:831,0,6.50737,-5.07667,-2.36809,Q,Q
2023-03-15 15:04:04:841,0,6.53641,-5.10453,-2.45556,Q,Q
2023-03-15 15:04:04:851,0,6.56101,-5.14901,-2.54191,Q,Q
2023-03-15 15:04:04:861,0,6.57834,-5.2084,-2.62725,Q,Q
2023-03-15 15:04:04:871,0,6.59331,-5.27919,-2.71611,Q,Q
2023-03-15 15:04:04:881,0,6.61206,-5.35393,-2.80599,Q,Q
2023-03-15 15:04:04:891,0,6.62998,-5.4384,-2.88754,Q,Q
2023-03-15 15:04:04:901,0,6.6514,-5.53111,-2.96662,Q,Q
2023-03-15 15:04:04:911,0,6.68192,-5.62813,-3.03642,Q,Q
2023-03-15 15:04:04:921,0,6.7207,-5.72669,-3.10713,Q,Q
2023-03-15 15:04:04:931,0,6.77271,-5.82519,-3.17313,Q,Q
2023-03-15 15:04:04:941,0,6.83131,-5.9126,-3.23798,Q,Q
2023-03-15 15:04:04:951,0,6.90555,-5.98567,-3.30269,Q,Q
2023-03-15 15:04:04:961,0,6.98854,-6.03922,-3.37066,Q,Q
2023-03-15 15:04:04:971,0,7.07404,-6.0802,-3.43399,Q,Q
2023-03-15 15:04:04:981,0,7.15432,-6.10965,-3.4975,Q,Q
2023-03-15 15:04:04:991,0,7.23025,-6.1363,-3.5542,Q,Q
2023-03-15 15:04:05:1,0,7.29466,-6.16125,-3.60937,Q,Q
2023-03-15 15:04:05:11,0,7.34561,-6.19599,-3.66202,Q,Q
2023-03-15 15:04:05:21,0,7.37996,-6.2343,-3.71555,Q,Q
2023-03-15 15:04:05:31,0,7.41021,-6.27127,-3.77555,Q,Q
2023-03-15 15:04:05:41,0,7.43664,-6.29265,-3.84175,Q,Q
2023-03-15 15:04:05:51,0,7.45698,-6.30319,-3.90452,Q,Q
2023-03-15 15:04:05:61,0,7.47409,-6.29347,-3.97241,Q,Q
2023-03-15 15:04:05:71,0,7.48279,-6.26709,-4.03372,Q,Q
2023-03-15 15:04:05:81,0,7.48185,-6.22367,-4.09044,Q,Q
2023-03-15 15:04:05:91,0,7.46418,-6.16792,-4.13481,Q,Q
2023-03-15 15:04:05:101,0,7.42839,-6.1018,-4.17017,Q,Q
2023-03-15 15:04:05:111,0,7.3834,-6.02343,-4.19591,Q,Q
2023-03-15 15:04:05:121,0,7.32675,-5.93786,-4.20726,Q,Q
2023-03-15 15:04:05:131,0,7.26214,-5.83862,-4.21256,Q,Q
2023-03-15 15:04:05:141,0,7.19667,-5.72509,-4.20632,Q,Q
2023-03-15 15:04:05:151,0,7.13644,-5.60783,-4.19398,Q,Q
2023-03-15 15:04:05:161,0,7.0745,-5.48923,-4.17115,Q,Q
2023-03-15 15:04:05:171,0,7.0121,-5.37203,-4.1473,Q,Q
2023-03-15 15:04:05:181,0,6.95875,-5.26052,-4.12684,Q,Q
2023-03-15 15:04:05:191,0,6.91942,-5.14721,-4.11675,Q,Q
2023-03-15 15:04:05:201,0,6.8901,-5.02099,-4.13412,Q,Q
2023-03-15 15:04:05:211,0,6.88095,-4.87771,-4.17948,Q,Q
2023-03-15 15:04:05:221,0,6.88352,-4.72533,-4.24438,Q,Q
2023-03-15 15:04:05:231,0,6.88785,-4.5823,-4.32387,Q,Q
2023-03-15 15:04:05:241,0,6.88584,-4.45566,-4.4086,Q,Q
2023-03-15 15:04:05:251,0,6.87656,-4.35644,-4.49671,Q,Q
2023-03-15 15:04:05:261,0,6.85617,-4.28886,-4.58847,Q,Q
2023-03-15 15:04:05:271,0,6.82818,-4.24856,-4.68476,Q,Q
2023-03-15 15:04:05:281,0,6.79586,-4.21665,-4.78516,Q,Q
2023-03-15 15:04:05:291,0,6.77037,-4.18486,-4.89472,Q,Q
2023-03-15 15:04:05:301,0,6.75373,-4.15779,-5.00214,Q,Q
2023-03-15 15:04:05:311,0,6.74704,-4.14767,-5.09108,Q,Q
2023-03-15 15:04:05:321,0,6.7419,-4.17088,-5.15595,Q,Q
2023-03-15 15:04:05:331,0,6.73239,-4.2313,-5.1942,Q,Q
2023-03-15 15:04:05:341,0,6.71684,-4.30955,-5.21908,Q,Q
2023-03-15 15:04:05:351,0,6.70913,-4.38389,-5.24293,Q,Q
2023-03-15 15:04:05:361,0,6.71085,-4.43708,-5.27099,Q,Q
2023-03-15 15:04:05:371,0,6.72288,-4.47306,-5.30091,Q,Q
2023-03-15 15:04:05:381,0,6.74947,-4.47744,-5.33728,Q,Q
2023-03-15 15:04:05:391,0,6.79342,-4.45943,-5.37807,Q,Q
2023-03-15 15:04:05:401,0,6.84571,-4.43116,-5.42674,Q,Q
2023-03-15 15:04:05:411,0,6.90244,-4.39915,-5.47449,Q,Q
2023-03-15 15:04:05:421,0,6.95941,-4.3679,-5.5254,Q,Q
2023-03-15 15:04:05:431,0,7.01043,-4.34346,-5.57848,Q,Q
2023-03-15 15:04:05:441,0,7.05024,-4.32739,-5.62928,Q,Q
2023-03-15 15:04:05:451,0,7.07596,-4.33211,-5.67406,Q,Q
2023-03-15 15:04:05:461,0,7.08547,-4.35974,-5.72031,Q,Q
2023-03-15 15:04:05:471,0,7.07089,-4.39882,-5.76514,Q,Q
2023-03-15 15:04:05:481,0,7.03834,-4.44395,-5.81225,Q,Q
2023-03-15 15:04:05:491,0,6.99099,-4.48876,-5.85958,Q,Q
2023-03-15 15:04:05:501,0,6.93719,-4.52909,-5.91116,Q,Q
2023-03-15 15:04:05:511,0,6.87991,-4.55949,-5.96598,Q,Q
2023-03-15 15:04:05:521,0,6.82277,-4.57965,-6.02233,Q,Q
2023-03-15 15:04:05:531,0,6.7724,-4.59686,-6.07798,Q,Q
2023-03-15 15:04:05:541,0,6.73385,-4.61027,-6.13096,Q,Q
2023-03-15 15:04:05:551,0,6.70031,-4.61894,-6.17241,Q,Q
2023-03-15 15:04:05:561,0,6.68267,-4.61697,-6.21017,Q,Q
2023-03-15 15:04:05:571,0,6.66889,-4.60864,-6.23768,Q,Q
2023-03-15 15:04:05:581,0,6.66643,-4.59171,-6.26076,Q,Q
2023-03-15 15:04:05:591,0,6.67475,-4.57065,-6.27431,Q,Q
2023-03-15 15:04:05:601,0,6.68612,-4.5472,-6.27454,Q,Q
2023-03-15 15:04:05:611,0,6.70204,-4.52223,-6.26773,Q,Q
2023-03-15 15:04:05:621,0,6.71351,-4.49889,-6.24621,Q,Q
2023-03-15 15:04:05:631,0,6.71984,-4.47812,-6.2116,Q,Q
2023-03-15 15:04:05:641,0,6.73035,-4.46599,-6.17128,Q,Q
2023-03-15 15:04:05:651,0,6.73647,-4.46035,-6.12082,Q,Q
2023-03-15 15:04:05:661,0,6.73958,-4.45696,-6.06794,Q,Q
2023-03-15 15:04:05:671,0,6.74851,-4.4501,-6.01852,Q,Q
2023-03-15 15:04:05:681,0,6.76022,-4.43557,-5.97429,Q,Q
2023-03-15 15:04:05:691,0,6.76969,-4.41415,-5.93529,Q,Q
2023-03-15 15:04:05:701,0,6.78049,-4.39844,-5.90126,Q,Q
2023-03-15 15:04:05:711,0,6.78921,-4.38427,-5.87169,Q,Q
2023-03-15 15:04:05:721,0,6.79722,-4.37214,-5.8418,Q,Q
2023-03-15 15:04:05:731,0,6.80985,-4.36981,-5.8101,Q,Q
2023-03-15 15:04:05:741,0,6.83244,-4.37329,-5.78149,Q,Q
2023-03-15 15:04:05:751,0,6.85481,-4.37719,-5.75711,Q,Q
2023-03-15 15:04:05:761,0,6.88362,-4.37785,-5.73489,Q,Q
2023-03-15 15:04:05:771,0,6.91528,-4.37873,-5.71309,Q,Q
2023-03-15 15:04:05:781,0,6.946,-4.38035,-5.69289,Q,Q
2023-03-15 15:04:05:791,0,6.97299,-4.37892,-5.66829,Q,Q
2023-03-15 15:04:05:801,0,6.99527,-4.37923,-5.64519,Q,Q
2023-03-15 15:04:05:811,0,7.0148,-4.38384,-5.62004,Q,Q
2023-03-15 15:04:05:821,0,7.02932,-4.39563,-5.59568,Q,Q
2023-03-15 15:04:05:831,0,7.04041,-4.40763,-5.56809,Q,Q
2023-03-15 15:04:05:841,0,7.04552,-4.41823,-5.54519,Q,Q
2023-03-15 15:04:05:851,0,7.05533,-4.42914,-5.52052,Q,Q
2023-03-15 15:04:05:861,0,7.0684,-4.4409,-5.49413,Q,Q
2023-03-15 15:04:05:871,0,7.08307,-4.45384,-5.47009,Q,Q
2023-03-15 15:04:05:881,0,7.09933,-4.46508,-5.44661,Q,Q
2023-03-15 15:04:05:891,0,7.11905,-4.47551,-5.43172,Q,Q
2023-03-15 15:04:05:901,0,7.13821,-4.4813,-5.42058,Q,Q
2023-03-15 15:04:05:911,0,7.15689,-4.48734,-5.41427,Q,Q
2023-03-15 15:04:05:921,0,7.17164,-4.49675,-5.40908,Q,Q
2023-03-15 15:04:05:931,0,7.18063,-4.51008,-5.40316,Q,Q
2023-03-15 15:04:05:941,0,7.18505,-4.53148,-5.39271,Q,Q
2023-03-15 15:04:05:951,0,7.18099,-4.56691,-5.37022,Q,Q
2023-03-15 15:04:05:961,0,7.17123,-4.61931,-5.32415,Q,Q
2023-03-15 15:04:05:971,0,7.15485,-4.69559,-5.25846,Q,Q
2023-03-15 15:04:05:981,0,7.12958,-4.78688,-5.18697,Q,Q
2023-03-15 15:04:05:991,0,7.10265,-4.8761,-5.10708,Q,Q
2023-03-15 15:04:06:1,0,7.07391,-4.96034,-5.02865,Q,Q
2023-03-15 15:04:06:11,0,7.04838,-5.03169,-4.95167,Q,Q
2023-03-15 15:04:06:21,0,7.02598,-5.08597,-4.88963,Q,Q
2023-03-15 15:04:06:31,0,7.01025,-5.11836,-4.8564,Q,Q
2023-03-15 15:04:06:41,0,7.00654,-5.12407,-4.85143,Q,Q
2023-03-15 15:04:06:51,0,7.00812,-5.11177,-4.86667,Q,Q
2023-03-15 15:04:06:61,0,7.00817,-5.09927,-4.8931,Q,Q
2023-03-15 15:04:06:71,0,7.00868,-5.08738,-4.9291,Q,Q
2023-03-15 15:04:06:81,0,7.00703,-5.09046,-4.97232,Q,Q
2023-03-15 15:04:06:91,0,7.00548,-5.10183,-5.02335,Q,Q
2023-03-15 15:04:06:101,0,7.00104,-5.12314,-5.07303,Q,Q
2023-03-15 15:04:06:111,0,6.99248,-5.14789,-5.12232,Q,Q
2023-03-15 15:04:06:121,0,6.97827,-5.17424,-5.17037,Q,Q
2023-03-15 15:04:06:131,0,6.95944,-5.19167,-5.22189,Q,Q
2023-03-15 15:04:06:141,0,6.93355,-5.19909,-5.27414,Q,Q
2023-03-15 15:04:06:151,0,6.90602,-5.20267,-5.3251,Q,Q
2023-03-15 15:04:06:161,0,6.87535,-5.20194,-5.37568,Q,Q
2023-03-15 15:04:06:171,0,6.84191,-5.19862,-5.42102,Q,Q
2023-03-15 15:04:06:181,0,6.81587,-5.20026,-5.46493,Q,Q
2023-03-15 15:04:06:191,0,6.79622,-5.19819,-5.50507,Q,Q
2023-03-15 15:04:06:201,0,6.77968,-5.20537,-5.53874,Q,Q
2023-03-15 15:04:06:211,0,6.77001,-5.21339,-5.57219,Q,Q
2023-03-15 15:04:06:221,0,6.76892,-5.22264,-5.60439,Q,Q
2023-03-15 15:04:06:231,0,6.77605,-5.23393,-5.63588,Q,Q
2023-03-15 15:04:06:241,0,6.7886,-5.24624,-5.6645,Q,Q
2023-03-15 15:04:06:251,0,6.80461,-5.25979,-5.69727,Q,Q
2023-03-15 15:04:06:261,0,6.82273,-5.27198,-5.73231,Q,Q
2023-03-15 15:04:06:271,0,6.84575,-5.27954,-5.76413,Q,Q
2023-03-15 15:04:06:281,0,6.87383,-5.28956,-5.79646,Q,Q
2023-03-15 15:04:06:291,0,6.90058,-5.30205,-5.83169,Q,Q
2023-03-15 15:04:06:301,0,6.9313,-5.31524,-5.86106,Q,Q
2023-03-15 15:04:06:311,0,6.9648,-5.32897,-5.89627,Q,Q
2023-03-15 15:04:06:321,0,6.99871,-5.34603,-5.9328,Q,Q
2023-03-15 15:04:06:331,0,7.03905,-5.36407,-5.96968,Q,Q
2023-03-15 15:04:06:341,0,7.08537,-5.38056,-6.00294,Q,Q
2023-03-15 15:04:06:351,0,7.13547,-5.40016,-6.03614,Q,Q
2023-03-15 15:04:06:361,0,7.18324,-5.41973,-6.06556,Q,Q
2023-03-15 15:04:06:371,0,7.22814,-5.43366,-6.09929,Q,Q
2023-03-15 15:04:06:381,0,7.2628,-5.44249,-6.13312,Q,Q
2023-03-15 15:04:06:391,0,7.29075,-5.44994,-6.16898,Q,Q
2023-03-15 15:04:06:401,0,7.3114,-5.4535,-6.21052,Q,Q
2023-03-15 15:04:06:411,0,7.32558,-5.45089,-6.25831,Q,Q
2023-03-15 15:04:06:421,0,7.33826,-5.43521,-6.31055,Q,Q
2023-03-15 15:04:06:431,0,7.3437,-5.41275,-6.37166,Q,Q
2023-03-15 15:04:06:441,0,7.3479,-5.38794,-6.44089,Q,Q
2023-03-15 15:04:06:451,0,7.34991,-5.36305,-6.51534,Q,Q
2023-03-15 15:04:06:461,0,7.34607,-5.33453,-6.59699,Q,Q
2023-03-15 15:04:06:471,0,7.34323,-5.30545,-6.68255,Q,Q
2023-03-15 15:04:06:481,0,7.3362,-5.279,-6.77423,Q,Q
2023-03-15 15:04:06:491,0,7.32631,-5.25474,-6.87041,Q,Q
2023-03-15 15:04:06:501,0,7.3137,-5.23296,-6.97185,Q,Q
2023-03-15 15:04:06:511,0,7.30384,-5.20816,-7.07893,Q,Q
2023-03-15 15:04:06:521,0,7.3044,-5.15627,-7.18894,Q,Q
2023-03-15 15:04:06:531,0,7.31871,-5.10759,-7.30939,Q,Q
2023-03-15 15:04:06:541,0,7.33273,-5.07664,-7.41972,Q,Q
2023-03-15 15:04:06:551,0,7.33842,-5.05075,-7.5277,Q,Q
2023-03-15 15:04:06:561,0,7.34887,-5.0194,-7.64279,Q,Q
2023-03-15 15:04:06:571,0,7.37141,-4.98208,-7.75726,Q,Q
2023-03-15 15:04:06:581,0,7.40583,-4.94285,-7.85968,Q,Q
2023-03-15 15:04:06:591,0,7.44201,-4.90728,-7.95279,Q,Q
2023-03-15 15:04:06:601,0,7.47621,-4.86865,-8.0404,Q,Q
2023-03-15 15:04:06:611,0,7.50651,-4.82549,-8.12102,Q,Q
2023-03-15 15:04:06:621,0,7.54944,-4.78024,-8.1952,Q,Q
2023-03-15 15:04:06:631,0,7.59626,-4.73814,-8.25973,Q,Q
2023-03-15 15:04:06:641,0,7.64488,-4.6967,-8.31347,Q,Q
2023-03-15 15:04:06:651,0,7.68853,-4.66714,-8.35149,Q,Q
2023-03-15 15:04:06:661,0,7.72654,-4.64146,-8.38325,Q,Q
2023-03-15 15:04:06:671,0,7.76512,-4.61364,-8.40498,Q,Q
2023-03-15 15:04:06:681,0,7.8028,-4.59008,-8.41963,Q,Q
2023-03-15 15:04:06:691,0,7.84088,-4.56689,-8.42612,Q,Q
2023-03-15 15:04:06:701,0,7.8669,-4.55139,-8.42771,Q,Q
2023-03-15 15:04:06:711,0,7.88883,-4.53581,-8.42484,Q,Q
2023-03-15 15:04:06:721,0,7.90125,-4.52003,-8.42067,Q,Q
2023-03-15 15:04:06:731,0,7.91757,-4.50876,-8.41808,Q,Q
2023-03-15 15:04:06:741,0,7.93239,-4.49691,-8.41339,Q,Q
2023-03-15 15:04:06:751,0,7.95001,-4.48325,-8.41209,Q,Q
2023-03-15 15:04:06:761,0,7.97048,-4.46366,-8.40704,Q,Q
2023-03-15 15:04:06:771,0,7.98953,-4.44844,-8.40308,Q,Q
2023-03-15 15:04:06:781,0,8.01019,-4.4416,-8.38784,Q,Q
2023-03-15 15:04:06:791,0,8.01887,-4.44186,-8.37092,Q,Q
2023-03-15 15:04:06:801,0,8.03449,-4.4504,-8.35946,Q,Q
2023-03-15 15:04:06:811,0,8.05569,-4.45471,-8.35265,Q,Q
2023-03-15 15:04:06:821,0,8.08152,-4.46198,-8.34444,Q,Q
2023-03-15 15:04:06:831,0,8.10696,-4.47765,-8.33174,Q,Q
2023-03-15 15:04:06:841,0,8.13316,-4.50283,-8.31224,Q,Q
2023-03-15 15:04:06:851,0,8.15314,-4.52948,-8.29485,Q,Q
2023-03-15 15:04:06:861,0,8.17121,-4.54896,-8.27762,Q,Q
2023-03-15 15:04:06:871,0,8.18761,-4.56678,-8.26625,Q,Q
2023-03-15 15:04:06:881,0,8.2065,-4.57841,-8.25147,Q,Q
2023-03-15 15:04:06:891,0,8.22483,-4.58855,-8.24121,Q,Q
2023-03-15 15:04:06:901,0,8.23774,-4.59163,-8.23199,Q,Q
2023-03-15 15:04:06:911,0,8.25222,-4.58927,-8.22683,Q,Q
2023-03-15 15:04:06:921,0,8.26531,-4.58498,-8.22373,Q,Q
2023-03-15 15:04:06:931,0,8.27925,-4.58062,-8.22206,Q,Q
2023-03-15 15:04:06:941,0,8.29504,-4.57351,-8.22544,Q,Q
2023-03-15 15:04:06:951,0,8.31424,-4.56291,-8.23154,Q,Q
2023-03-15 15:04:06:961,0,8.33211,-4.55508,-8.23753,Q,Q
2023-03-15 15:04:06:971,0,8.34706,-4.54551,-8.24703,Q,Q
2023-03-15 15:04:06:981,0,8.35924,-4.53287,-8.25192,Q,Q
2023-03-15 15:04:06:991,0,8.36301,-4.52375,-8.25816,Q,Q
2023-03-15 15:04:07:1,0,8.3626,-4.51589,-8.26673,Q,Q
2023-03-15 15:04:07:11,0,8.36123,-4.50522,-8.27678,Q,Q
2023-03-15 15:04:07:21,0,8.3541,-4.5009,-8.29018,Q,Q
2023-03-15 15:04:07:31,0,8.34139,-4.50089,-8.30703,Q,Q
2023-03-15 15:04:07:41,0,8.32803,-4.49635,-8.32086,Q,Q
2023-03-15 15:04:07:51,0,8.31361,-4.49319,-8.33412,Q,Q
2023-03-15 15:04:07:61,0,8.30003,-4.49658,-8.34159,Q,Q
2023-03-15 15:04:07:71,0,8.28464,-4.50063,-8.35026,Q,Q
2023-03-15 15:04:07:81,0,8.26673,-4.50468,-8.35477,Q,Q
2023-03-15 15:04:07:91,0,8.24512,-4.50068,-8.36224,Q,Q
2023-03-15 15:04:07:101,0,8.21812,-4.49585,-8.36197,Q,Q
2023-03-15 15:04:07:111,0,8.19177,-4.48849,-8.3568,Q,Q
2023-03-15 15:04:07:121,0,8.163,-4.48388,-8.35078,Q,Q
2023-03-15 15:04:07:131,0,8.13364,-4.4789,-8.34586,Q,Q
2023-03-15 15:04:07:141,0,8.10548,-4.47512,-8.33906,Q,Q
2023-03-15 15:04:07:151,0,8.08254,-4.47231,-8.33035,Q,Q
2023-03-15 15:04:07:161,0,8.06031,-4.46814,-8.32099,Q,Q
2023-03-15 15:04:07:171,0,8.0457,-4.46808,-8.30995,Q,Q
2023-03-15 15:04:07:181,0,8.03631,-4.46985,-8.29925,Q,Q
2023-03-15 15:04:07:191,0,8.03316,-4.46907,-8.28589,Q,Q
2023-03-15 15:04:07:201,0,8.03238,-4.48108,-8.27051,Q,Q
2023-03-15 15:04:07:211,0,8.02708,-4.49517,-8.25932,Q,Q
2023-03-15 15:04:07:221,0,8.02437,-4.51477,-8.24865,Q,Q
2023-03-15 15:04:07:231,0,8.0258,-4.53926,-8.24045,Q,Q
2023-03-15 15:04:07:241,0,8.02598,-4.56869,-8.22495,Q,Q
2023-03-15 15:04:07:251,0,8.02578,-4.60477,-8.208,Q,Q
2023-03-15 15:04:07:261,0,8.02805,-4.63796,-8.19108,Q,Q
2023-03-15 15:04:07:271,0,8.03026,-4.67235,-8.16592,Q,Q
2023-03-15 15:04:07:281,0,8.02677,-4.7078,-8.14359,Q,Q
2023-03-15 15:04:07:291,0,8.02667,-4.74466,-8.11953,Q,Q
2023-03-15 15:04:07:301,0,8.02781,-4.77935,-8.09851,Q,Q
2023-03-15 15:04:07:311,0,8.03003,-4.81086,-8.0743,Q,Q
2023-03-15 15:04:07:321,0,8.02832,-4.83505,-8.05281,Q,Q
2023-03-15 15:04:07:331,0,8.02549,-4.85465,-8.02666,Q,Q
2023-03-15 15:04:07:341,0,8.01762,-4.86931,-8.00292,Q,Q
2023-03-15 15:04:07:351,0,8.00754,-4.88121,-7.97915,Q,Q
2023-03-15 15:04:07:361,0,7.98546,-4.89125,-7.95444,Q,Q
2023-03-15 15:04:07:371,0,7.96132,-4.89962,-7.93067,Q,Q
2023-03-15 15:04:07:381,0,7.93572,-4.90843,-7.90958,Q,Q
2023-03-15 15:04:07:391,0,7.90456,-4.91758,-7.88351,Q,Q
2023-03-15 15:04:07:401,0,7.87478,-4.9301,-7.85745,Q,Q
2023-03-15 15:04:07:411,0,7.8421,-4.94783,-7.83727,Q,Q
2023-03-15 15:04:07:421,0,7.81114,-4.96723,-7.8173,Q,Q
2023-03-15 15:04:07:431,0,7.77944,-4.98924,-7.80025,Q,Q
2023-03-15 15:04:07:441,0,7.75164,-5.01079,-7.78639,Q,Q
2023-03-15 15:04:07:451,0,7.72422,-5.03475,-7.77403,Q,Q
2023-03-15 15:04:07:461,0,7.69776,-5.06149,-7.76131,Q,Q
2023-03-15 15:04:07:471,0,7.67512,-5.08837,-7.75033,Q,Q
2023-03-15 15:04:07:481,0,7.65117,-5.11795,-7.73425,Q,Q
2023-03-15 15:04:07:491,0,7.63116,-5.14717,-7.71563,Q,Q
2023-03-15 15:04:07:501,0,7.61866,-5.17636,-7.70289,Q,Q
2023-03-15 15:04:07:511,0,7.62234,-5.20698,-7.6898,Q,Q
2023-03-15 15:04:07:521,0,7.62961,-5.23986,-7.67123,Q,Q
2023-03-15 15:04:07:531,0,7.64133,-5.27597,-7.64427,Q,Q
2023-03-15 15:04:07:541,0,7.65907,-5.31539,-7.61736,Q,Q
2023-03-15 15:04:07:551,0,7.68161,-5.36196,-7.5865,Q,Q
2023-03-15 15:04:07:561,0,7.70464,-5.41054,-7.5541,Q,Q
2023-03-15 15:04:07:571,0,7.73003,-5.45746,-7.51916,Q,Q
2023-03-15 15:04:07:581,0,7.75884,-5.50537,-7.48604,Q,Q
2023-03-15 15:04:07:591,0,7.79061,-5.54374,-7.45161,Q,Q
2023-03-15 15:04:07:601,0,7.82611,-5.57991,-7.41732,Q,Q
2023-03-15 15:04:07:611,0,7.86875,-5.60748,-7.38053,Q,Q
2023-03-15 15:04:07:621,0,7.91393,-5.62997,-7.34328,Q,Q
2023-03-15 15:04:07:631,0,7.95543,-5.64694,-7.30654,Q,Q
2023-03-15 15:04:07:641,0,7.99772,-5.66114,-7.26821,Q,Q
2023-03-15 15:04:07:651,0,8.03422,-5.67503,-7.22786,Q,Q
2023-03-15 15:04:07:661,0,8.05741,-5.69057,-7.18224,Q,Q
2023-03-15 15:04:07:671,0,8.07749,-5.70722,-7.13429,Q,Q
2023-03-15 15:04:07:681,0,8.09586,-5.7167,-7.09291,Q,Q
2023-03-15 15:04:07:691,0,8.12016,-5.7223,-7.04858,Q,Q
2023-03-15 15:04:07:701,0,8.15057,-5.72343,-7.00097,Q,Q
2023-03-15 15:04:07:711,0,8.16871,-5.71975,-6.94826,Q,Q
2023-03-15 15:04:07:721,0,8.1794,-5.71236,-6.89529,Q,Q
2023-03-15 15:04:07:731,0,8.18769,-5.70304,-6.84484,Q,Q
2023-03-15 15:04:07:741,0,8.19231,-5.68859,-6.79946,Q,Q
2023-03-15 15:04:07:751,0,8.19981,-5.66858,-6.75289,Q,Q
2023-03-15 15:04:07:761,0,8.2116,-5.6473,-6.70394,Q,Q
2023-03-15 15:04:07:771,0,8.21889,-5.62203,-6.65101,Q,Q
