Timestamp_cmd,imu_cmd,roll_delta,pitch_delta,yaw_delta,voice_type,voice_length
2023-03-15 13:03:44:989,0,-8.71361,0.710335,44.8898,Q,Q
2023-03-15 13:03:44:997,0,-8.73688,0.738793,44.9221,Q,Q
2023-03-15 13:03:45:7,0,-8.75306,0.763373,44.9535,Q,Q
2023-03-15 13:03:45:17,0,-8.76287,0.786821,44.985,Q,Q
2023-03-15 13:03:45:27,0,-8.77369,0.805396,45.0086,Q,Q
2023-03-15 13:03:45:37,0,-8.78221,0.824465,45.0319,Q,Q
2023-03-15 13:03:45:48,0,-8.7908,0.842184,45.0517,Q,Q
2023-03-15 13:03:45:58,0,-8.80397,0.853972,45.073,Q,Q
2023-03-15 13:03:45:68,0,-8.81936,0.858344,45.0952,Q,Q
2023-03-15 13:03:45:77,0,-8.83769,0.860613,45.1219,Q,Q
2023-03-15 13:03:45:88,0,-8.8609,0.862043,45.1473,Q,Q
2023-03-15 13:03:45:98,0,-8.88544,0.860803,45.1803,Q,Q
2023-03-15 13:03:45:108,0,-8.91493,0.85938,45.2074,Q,Q
2023-03-15 13:03:45:117,0,-8.94208,0.861045,45.2313,Q,Q
2023-03-15 13:03:45:128,0,-8.96785,0.859858,45.2545,Q,Q
2023-03-15 13:03:45:138,0,-9.00114,0.866124,45.2782,Q,Q
2023-03-15 13:03:45:148,0,-9.03712,0.870997,45.3013,Q,Q
2023-03-15 13:03:45:158,0,-9.06913,0.87592,45.3209,Q,Q
2023-03-15 13:03:45:168,0,-9.10123,0.88144,45.3406,Q,Q
2023-03-15 13:03:45:178,0,-9.13877,0.887079,45.3595,Q,Q
2023-03-15 13:03:45:188,0,-9.17313,0.895005,45.3736,Q,Q
2023-03-15 13:03:45:197,0,-9.21102,0.903276,45.3816,Q,Q
2023-03-15 13:03:45:208,0,-9.24421,0.91253,45.3928,Q,Q
2023-03-15 13:03:45:218,0,-9.27442,0.923823,45.4027,Q,Q
2023-03-15 13:03:45:228,0,-9.3068,0.936035,45.4101,Q,Q
2023-03-15 13:03:45:238,0,-9.34104,0.953704,45.4183,Q,Q
2023-03-15 13:03:45:248,0,-9.36737,0.967111,45.4243,Q,Q
2023-03-15 13:03:45:257,0,-9.389,0.979495,45.4304,Q,Q
2023-03-15 13:03:45:268,0,-9.40587,0.992237,45.4387,Q,Q
2023-03-15 13:03:45:278,0,-9.41821,1.00909,45.4452,Q,Q
2023-03-15 13:03:45:287,0,-9.42946,1.02646,45.4536,Q,Q
2023-03-15 13:03:45:297,0,-9.43673,1.04221,45.4619,Q,Q
2023-03-15 13:03:45:307,0,-9.44006,1.05597,45.4693,Q,Q
2023-03-15 13:03:45:317,0,-9.44305,1.06948,45.4757,Q,Q
2023-03-15 13:03:45:327,0,-9.44192,1.08282,45.4805,Q,Q
2023-03-15 13:03:45:337,0,-9.43751,1.08952,45.4858,Q,Q
2023-03-15 13:03:45:347,0,-9.43636,1.09862,45.4927,Q,Q
2023-03-15 13:03:45:357,0,-9.43736,1.10283,45.4997,Q,Q
2023-03-15 13:03:45:367,0,-9.43819,1.10921,45.5009,Q,Q
2023-03-15 13:03:45:377,0,-9.43281,1.11517,45.5017,Q,Q
2023-03-15 13:03:45:387,0,-9.42977,1.11991,45.5012,Q,Q
2023-03-15 13:03:45:397,0,-9.43224,1.12522,45.5015,Q,Q
2023-03-15 13:03:45:407,0,-9.42903,1.12587,45.5021,Q,Q
2023-03-15 13:03:45:417,0,-9.43079,1.12879,45.5047,Q,Q
2023-03-15 13:03:45:427,0,-9.43079,1.13383,45.509,Q,Q
2023-03-15 13:03:45:437,0,-9.4307,1.13314,45.514,Q,Q
2023-03-15 13:03:45:447,0,-9.43166,1.1338,45.52,Q,Q
2023-03-15 13:03:45:457,0,-9.43484,1.13511,45.5305,Q,Q
2023-03-15 13:03:45:467,0,-9.44228,1.13432,45.5404,Q,Q
2023-03-15 13:03:45:477,0,-9.45013,1.13423,45.554,Q,Q
2023-03-15 13:03:45:487,0,-9.45714,1.12956,45.5694,Q,Q
2023-03-15 13:03:45:497,0,-9.46789,1.12941,45.5814,Q,Q
2023-03-15 13:03:45:507,0,-9.47608,1.13034,45.5939,Q,Q
2023-03-15 13:03:45:517,0,-9.48403,1.12936,45.6026,Q,Q
2023-03-15 13:03:45:527,0,-9.48933,1.12403,45.611,Q,Q
2023-03-15 13:03:45:537,0,-9.49206,1.1221,45.6198,Q,Q
2023-03-15 13:03:45:547,0,-9.4937,1.12216,45.6225,Q,Q
2023-03-15 13:03:45:557,0,-9.49686,1.12033,45.6274,Q,Q
2023-03-15 13:03:45:567,0,-9.50178,1.11633,45.6285,Q,Q
2023-03-15 13:03:45:577,0,-9.51002,1.11366,45.6317,Q,Q
2023-03-15 13:03:45:587,0,-9.52006,1.10993,45.6308,Q,Q
2023-03-15 13:03:45:597,0,-9.52851,1.10293,45.6311,Q,Q
2023-03-15 13:03:45:607,0,-9.53426,1.0964,45.6329,Q,Q
2023-03-15 13:03:45:617,0,-9.53993,1.09277,45.635,Q,Q
2023-03-15 13:03:45:627,0,-9.5441,1.09267,45.6401,Q,Q
2023-03-15 13:03:45:637,0,-9.54095,1.09526,45.6426,Q,Q
2023-03-15 13:03:45:647,0,-9.53914,1.09433,45.6501,Q,Q
2023-03-15 13:03:45:657,0,-9.5384,1.09536,45.6579,Q,Q
2023-03-15 13:03:45:667,0,-9.5349,1.09666,45.6651,Q,Q
2023-03-15 13:03:45:677,0,-9.52897,1.10083,45.6746,Q,Q
2023-03-15 13:03:45:687,0,-9.52475,1.105,45.6835,Q,Q
2023-03-15 13:03:45:697,0,-9.52282,1.11254,45.6963,Q,Q
2023-03-15 13:03:45:707,0,-9.52272,1.11435,45.7058,Q,Q
2023-03-15 13:03:45:717,0,-9.52354,1.11501,45.713,Q,Q
2023-03-15 13:03:45:727,0,-9.52253,1.12014,45.7179,Q,Q
2023-03-15 13:03:45:737,0,-9.52811,1.12199,45.7178,Q,Q
2023-03-15 13:03:45:747,0,-9.5295,1.11691,45.7209,Q,Q
2023-03-15 13:03:45:757,0,-9.53096,1.11237,45.7158,Q,Q
2023-03-15 13:03:45:767,0,-9.53259,1.10527,45.709,Q,Q
2023-03-15 13:03:45:777,0,-9.53542,1.0994,45.702,Q,Q
2023-03-15 13:03:45:787,0,-9.53449,1.09641,45.6941,Q,Q
2023-03-15 13:03:45:797,0,-9.53451,1.09251,45.686,Q,Q
2023-03-15 13:03:45:807,0,-9.53975,1.0874,45.6777,Q,Q
2023-03-15 13:03:45:817,0,-9.54845,1.07722,45.6698,Q,Q
2023-03-15 13:03:45:827,0,-9.55764,1.07072,45.6649,Q,Q
2023-03-15 13:03:45:837,0,-9.56492,1.06873,45.6582,Q,Q
2023-03-15 13:03:45:847,0,-9.57132,1.07145,45.6553,Q,Q
2023-03-15 13:03:45:857,0,-9.57589,1.07265,45.6526,Q,Q
2023-03-15 13:03:45:867,0,-9.57981,1.07562,45.6499,Q,Q
2023-03-15 13:03:45:877,0,-9.58372,1.07608,45.651,Q,Q
2023-03-15 13:03:45:887,0,-9.58492,1.082,45.6516,Q,Q
2023-03-15 13:03:45:897,0,-9.58799,1.08507,45.6601,Q,Q
2023-03-15 13:03:45:907,0,-9.5917,1.08895,45.6689,Q,Q
2023-03-15 13:03:45:917,0,-9.59288,1.09019,45.6811,Q,Q
2023-03-15 13:03:45:927,0,-9.59484,1.09369,45.6899,Q,Q
2023-03-15 13:03:45:937,0,-9.59678,1.10563,45.6989,Q,Q
2023-03-15 13:03:45:947,0,-9.60043,1.11309,45.7127,Q,Q
2023-03-15 13:03:45:957,0,-9.60111,1.11772,45.7278,Q,Q
2023-03-15 13:03:45:967,0,-9.59974,1.12539,45.7512,Q,Q
2023-03-15 13:03:45:977,0,-9.59488,1.13324,45.7754,Q,Q
2023-03-15 13:03:45:987,0,-9.58672,1.14729,45.8037,Q,Q
2023-03-15 13:03:45:997,0,-9.57343,1.16049,45.838,Q,Q
2023-03-15 13:03:46:7,0,-9.55658,1.17221,45.8783,Q,Q
2023-03-15 13:03:46:17,0,-9.53938,1.18716,45.9224,Q,Q
2023-03-15 13:03:46:27,0,-9.51873,1.20307,45.97,Q,Q
2023-03-15 13:03:46:37,0,-9.49896,1.22205,46.0269,Q,Q
2023-03-15 13:03:46:47,0,-9.47766,1.23965,46.0853,Q,Q
2023-03-15 13:03:46:57,0,-9.45512,1.25403,46.1494,Q,Q
2023-03-15 13:03:46:67,0,-9.43707,1.27022,46.2164,Q,Q
2023-03-15 13:03:46:77,0,-9.4144,1.27873,46.2808,Q,Q
2023-03-15 13:03:46:87,0,-9.39559,1.28794,46.3452,Q,Q
2023-03-15 13:03:46:97,0,-9.37891,1.29523,46.4032,Q,Q
2023-03-15 13:03:46:107,0,-9.36327,1.29616,46.4566,Q,Q
2023-03-15 13:03:46:117,0,-9.35105,1.29522,46.5066,Q,Q
2023-03-15 13:03:46:127,0,-9.33916,1.29687,46.5519,Q,Q
2023-03-15 13:03:46:137,0,-9.3325,1.3013,46.5934,Q,Q
2023-03-15 13:03:46:147,0,-9.32745,1.30609,46.6344,Q,Q
2023-03-15 13:03:46:157,0,-9.3275,1.30862,46.674,Q,Q
2023-03-15 13:03:46:167,0,-9.32897,1.31307,46.7131,Q,Q
2023-03-15 13:03:46:177,0,-9.33633,1.31762,46.7497,Q,Q
2023-03-15 13:03:46:187,0,-9.33983,1.3203,46.7862,Q,Q
2023-03-15 13:03:46:197,0,-9.34962,1.31766,46.8226,Q,Q
2023-03-15 13:03:46:207,0,-9.36084,1.31248,46.8615,Q,Q
2023-03-15 13:03:46:217,0,-9.36674,1.30145,46.9027,Q,Q
2023-03-15 13:03:46:228,0,-9.36808,1.29157,46.9425,Q,Q
2023-03-15 13:03:46:237,0,-9.37199,1.28052,46.9824,Q,Q
2023-03-15 13:03:46:247,0,-9.37391,1.27064,47.0182,Q,Q
2023-03-15 13:03:46:258,0,-9.37541,1.26372,47.0566,Q,Q
2023-03-15 13:03:46:268,0,-9.37928,1.25937,47.0903,Q,Q
2023-03-15 13:03:46:277,0,-9.38698,1.25562,47.1242,Q,Q
2023-03-15 13:03:46:288,0,-9.39457,1.25355,47.1582,Q,Q
2023-03-15 13:03:46:297,0,-9.40309,1.25059,47.1885,Q,Q
2023-03-15 13:03:46:308,0,-9.40946,1.25155,47.2153,Q,Q
2023-03-15 13:03:46:318,0,-9.41517,1.25144,47.2404,Q,Q
2023-03-15 13:03:46:328,0,-9.41991,1.25162,47.264,Q,Q
2023-03-15 13:03:46:338,0,-9.42458,1.25502,47.2857,Q,Q
2023-03-15 13:03:46:348,0,-9.43174,1.25733,47.3056,Q,Q
2023-03-15 13:03:46:357,0,-9.4328,1.25723,47.3212,Q,Q
2023-03-15 13:03:46:368,0,-9.42896,1.25783,47.3383,Q,Q
2023-03-15 13:03:46:377,0,-9.42212,1.25657,47.3534,Q,Q
2023-03-15 13:03:46:387,0,-9.41906,1.25012,47.3715,Q,Q
2023-03-15 13:03:46:397,0,-9.41711,1.24569,47.3888,Q,Q
2023-03-15 13:03:46:408,0,-9.41649,1.24141,47.4115,Q,Q
2023-03-15 13:03:46:418,0,-9.42023,1.23454,47.4308,Q,Q
2023-03-15 13:03:46:428,0,-9.42362,1.23214,47.4452,Q,Q
2023-03-15 13:03:46:437,0,-9.42832,1.23255,47.4615,Q,Q
2023-03-15 13:03:46:448,0,-9.42914,1.23361,47.4752,Q,Q
2023-03-15 13:03:46:457,0,-9.42935,1.23943,47.4935,Q,Q
2023-03-15 13:03:46:468,0,-9.42593,1.24269,47.5124,Q,Q
2023-03-15 13:03:46:477,0,-9.42411,1.24476,47.5314,Q,Q
2023-03-15 13:03:46:488,0,-9.42136,1.24803,47.5512,Q,Q
2023-03-15 13:03:46:497,0,-9.42435,1.25584,47.5686,Q,Q
2023-03-15 13:03:46:508,0,-9.42937,1.26118,47.5829,Q,Q
2023-03-15 13:03:46:517,0,-9.43781,1.27045,47.5905,Q,Q
2023-03-15 13:03:46:527,0,-9.45134,1.2764,47.596,Q,Q
2023-03-15 13:03:46:537,0,-9.4673,1.28356,47.6023,Q,Q
2023-03-15 13:03:46:547,0,-9.48473,1.28593,47.6068,Q,Q
2023-03-15 13:03:46:557,0,-9.5007,1.2896,47.6088,Q,Q
2023-03-15 13:03:46:567,0,-9.51744,1.29723,47.6138,Q,Q
2023-03-15 13:03:46:577,0,-9.53442,1.3023,47.6111,Q,Q
2023-03-15 13:03:46:587,0,-9.55403,1.30228,47.6032,Q,Q
2023-03-15 13:03:46:597,0,-9.57772,1.29221,47.5844,Q,Q
2023-03-15 13:03:46:607,0,-9.59876,1.2707,47.5402,Q,Q
2023-03-15 13:03:46:617,0,-9.62194,1.23003,47.47,Q,Q
2023-03-15 13:03:46:627,0,-9.64888,1.16693,47.3608,Q,Q
2023-03-15 13:03:46:637,0,-9.67355,1.07789,47.1993,Q,Q
2023-03-15 13:03:46:647,0,-9.69637,0.9575,46.9787,Q,Q
2023-03-15 13:03:46:657,0,-9.71433,0.80507,46.6876,Q,Q
2023-03-15 13:03:46:667,0,-9.73079,0.61776,46.3153,Q,Q
2023-03-15 13:03:46:677,0,-9.73407,0.402366,45.8534,Q,Q
2023-03-15 13:03:46:687,0,-9.71631,0.151692,45.3044,Q,Q
2023-03-15 13:03:46:697,0,-9.68349,-0.129426,44.6726,Q,Q
2023-03-15 13:03:46:707,0,-9.63817,-0.43887,43.9606,Q,Q
2023-03-15 13:03:46:717,0,-9.57886,-0.778915,43.1826,Q,Q
2023-03-15 13:03:46:727,0,-9.51525,-1.1514,42.3376,Q,Q
2023-03-15 13:03:46:737,0,-9.44864,-1.55431,41.4267,Q,Q
2023-03-15 13:03:46:747,0,-9.37772,-1.97955,40.4556,Q,Q
2023-03-15 13:03:46:757,0,-9.29888,-2.4195,39.4347,Q,Q
2023-03-15 13:03:46:767,0,-9.20878,-2.87974,38.3769,Q,Q
2023-03-15 13:03:46:778,0,-9.10278,-3.35125,37.2957,Q,Q
2023-03-15 13:03:46:787,0,-8.98818,-3.83541,36.2028,Q,Q
2023-03-15 13:03:46:797,0,-8.85968,-4.32264,35.1144,Q,Q
2023-03-15 13:03:46:808,0,-8.72523,-4.8053,34.036,Q,Q
2023-03-15 13:03:46:818,0,-8.584,-5.2768,32.9704,Q,Q
2023-03-15 13:03:46:828,0,-8.44413,-5.72794,31.918,Q,Q
2023-03-15 13:03:46:838,0,-8.30319,-6.16205,30.8821,Q,Q
2023-03-15 13:03:46:848,0,-8.16242,-6.56923,29.8693,Q,Q
2023-03-15 13:03:46:858,0,-8.02301,-6.95,28.8846,Q,Q
2023-03-15 13:03:46:868,0,-7.88077,-7.30918,27.9311,Q,Q
2023-03-15 13:03:46:878,0,-7.73295,-7.64713,27.0198,Q,Q
2023-03-15 13:03:46:888,0,-7.58063,-7.96449,26.1615,Q,Q
2023-03-15 13:03:46:898,0,-7.42108,-8.25817,25.36,Q,Q
2023-03-15 13:03:46:908,0,-7.26212,-8.52968,24.6115,Q,Q
2023-03-15 13:03:46:918,0,-7.10643,-8.77124,23.9164,Q,Q
2023-03-15 13:03:46:928,0,-6.9551,-8.98948,23.2753,Q,Q
2023-03-15 13:03:46:938,0,-6.81292,-9.17859,22.6861,Q,Q
2023-03-15 13:03:46:948,0,-6.67813,-9.33558,22.1465,Q,Q
2023-03-15 13:03:46:958,0,-6.55507,-9.47464,21.6576,Q,Q
2023-03-15 13:03:46:968,0,-6.43972,-9.59143,21.2096,Q,Q
2023-03-15 13:03:46:978,0,-6.32869,-9.68821,20.8068,Q,Q
2023-03-15 13:03:46:988,0,-6.22287,-9.77074,20.4437,Q,Q
2023-03-15 13:03:46:998,0,-6.12766,-9.84323,20.1186,Q,Q
2023-03-15 13:03:47:8,0,-6.0401,-9.8991,19.8348,Q,Q
2023-03-15 13:03:47:18,0,-5.95422,-9.94029,19.589,Q,Q
2023-03-15 13:03:47:28,0,-5.86821,-9.9736,19.3772,Q,Q
2023-03-15 13:03:47:38,0,-5.78134,-9.99687,19.1977,Q,Q
2023-03-15 13:03:47:48,0,-5.69983,-10.0118,19.0495,Q,Q
2023-03-15 13:03:47:57,0,-5.62437,-10.0237,18.926,Q,Q
2023-03-15 13:03:47:68,0,-5.55493,-10.0315,18.8257,Q,Q
2023-03-15 13:03:47:78,0,-5.4867,-10.0285,18.7415,Q,Q
2023-03-15 13:03:47:88,0,-5.42225,-10.0183,18.6701,Q,Q
2023-03-15 13:03:47:98,0,-5.3576,-10.0042,18.6097,Q,Q
2023-03-15 13:03:47:108,0,-5.30319,-9.99178,18.5621,Q,Q
2023-03-15 13:03:47:118,0,-5.25721,-9.9811,18.5295,Q,Q
2023-03-15 13:03:47:128,0,-5.21702,-9.97753,18.5125,Q,Q
2023-03-15 13:03:47:138,0,-5.18096,-9.97551,18.4986,Q,Q
2023-03-15 13:03:47:148,0,-5.14983,-9.96769,18.4923,Q,Q
2023-03-15 13:03:47:158,0,-5.13021,-9.96096,18.4899,Q,Q
2023-03-15 13:03:47:168,0,-5.1105,-9.95393,18.4882,Q,Q
2023-03-15 13:03:47:178,0,-5.09803,-9.94564,18.481,Q,Q
2023-03-15 13:03:47:188,0,-5.08356,-9.9378,18.4761,Q,Q
2023-03-15 13:03:47:198,0,-5.07422,-9.93188,18.4694,Q,Q
2023-03-15 13:03:47:208,0,-5.06342,-9.9242,18.4586,Q,Q
2023-03-15 13:03:47:218,0,-5.05281,-9.91434,18.4468,Q,Q
2023-03-15 13:03:47:228,0,-5.04279,-9.90702,18.4353,Q,Q
2023-03-15 13:03:47:238,0,-5.02924,-9.89662,18.4236,Q,Q
2023-03-15 13:03:47:248,0,-5.01632,-9.89331,18.4136,Q,Q
2023-03-15 13:03:47:258,0,-5.0042,-9.89119,18.4023,Q,Q
2023-03-15 13:03:47:268,0,-4.99327,-9.88874,18.3981,Q,Q
2023-03-15 13:03:47:278,0,-4.98381,-9.8908,18.3936,Q,Q
2023-03-15 13:03:47:288,0,-4.97549,-9.88969,18.3919,Q,Q
2023-03-15 13:03:47:298,0,-4.97252,-9.88343,18.3942,Q,Q
2023-03-15 13:03:47:308,0,-4.97203,-9.8784,18.401,Q,Q
2023-03-15 13:03:47:318,0,-4.97731,-9.87535,18.4129,Q,Q
2023-03-15 13:03:47:328,0,-4.9886,-9.86736,18.428,Q,Q
2023-03-15 13:03:47:338,0,-5.0013,-9.86103,18.4409,Q,Q
2023-03-15 13:03:47:347,0,-5.01494,-9.85817,18.4594,Q,Q
2023-03-15 13:03:47:357,0,-5.02152,-9.8475,18.4775,Q,Q
2023-03-15 13:03:47:368,0,-5.02654,-9.83323,18.4925,Q,Q
2023-03-15 13:03:47:378,0,-5.03136,-9.82068,18.5123,Q,Q
2023-03-15 13:03:47:388,0,-5.02806,-9.80864,18.5327,Q,Q
2023-03-15 13:03:47:398,0,-5.02411,-9.80142,18.5543,Q,Q
2023-03-15 13:03:47:408,0,-5.01671,-9.79261,18.5818,Q,Q
2023-03-15 13:03:47:418,0,-5.01749,-9.78974,18.6131,Q,Q
2023-03-15 13:03:47:428,0,-5.02398,-9.78098,18.6471,Q,Q
2023-03-15 13:03:47:438,0,-5.03184,-9.77446,18.6805,Q,Q
2023-03-15 13:03:47:448,0,-5.04791,-9.76834,18.7119,Q,Q
2023-03-15 13:03:47:458,0,-5.05989,-9.76327,18.7459,Q,Q
2023-03-15 13:03:47:468,0,-5.07296,-9.75154,18.7778,Q,Q
2023-03-15 13:03:47:478,0,-5.08788,-9.74137,18.8141,Q,Q
2023-03-15 13:03:47:488,0,-5.10287,-9.73495,18.8512,Q,Q
2023-03-15 13:03:47:498,0,-5.12187,-9.73127,18.8891,Q,Q
2023-03-15 13:03:47:508,0,-5.13359,-9.73148,18.9243,Q,Q
2023-03-15 13:03:47:517,0,-5.14933,-9.72748,18.9596,Q,Q
2023-03-15 13:03:47:527,0,-5.16652,-9.72438,19.0012,Q,Q
2023-03-15 13:03:47:537,0,-5.18062,-9.72309,19.0387,Q,Q
2023-03-15 13:03:47:547,0,-5.19874,-9.72253,19.0809,Q,Q
2023-03-15 13:03:47:557,0,-5.21948,-9.72327,19.1215,Q,Q
2023-03-15 13:03:47:567,0,-5.24535,-9.72334,19.1636,Q,Q
2023-03-15 13:03:47:577,0,-5.27004,-9.728,19.2046,Q,Q
2023-03-15 13:03:47:587,0,-5.29646,-9.7273,19.2436,Q,Q
2023-03-15 13:03:47:597,0,-5.32347,-9.72629,19.2785,Q,Q
2023-03-15 13:03:47:607,0,-5.35172,-9.72647,19.3107,Q,Q
2023-03-15 13:03:47:617,0,-5.37708,-9.72705,19.3416,Q,Q
2023-03-15 13:03:47:628,0,-5.39772,-9.72961,19.3736,Q,Q
2023-03-15 13:03:47:638,0,-5.41766,-9.72873,19.4036,Q,Q
2023-03-15 13:03:47:648,0,-5.43473,-9.72527,19.4306,Q,Q
2023-03-15 13:03:47:658,0,-5.45381,-9.71949,19.4591,Q,Q
2023-03-15 13:03:47:668,0,-5.46955,-9.71295,19.4839,Q,Q
2023-03-15 13:03:47:678,0,-5.48382,-9.70518,19.5075,Q,Q
2023-03-15 13:03:47:688,0,-5.49664,-9.70041,19.5295,Q,Q
2023-03-15 13:03:47:698,0,-5.50693,-9.69289,19.5503,Q,Q
2023-03-15 13:03:47:708,0,-5.51695,-9.68236,19.5724,Q,Q
2023-03-15 13:03:47:718,0,-5.52938,-9.67164,19.5908,Q,Q
2023-03-15 13:03:47:728,0,-5.53827,-9.66398,19.6095,Q,Q
2023-03-15 13:03:47:738,0,-5.55442,-9.65873,19.6321,Q,Q
2023-03-15 13:03:47:748,0,-5.56798,-9.65228,19.6502,Q,Q
2023-03-15 13:03:47:758,0,-5.58134,-9.64643,19.6661,Q,Q
2023-03-15 13:03:47:768,0,-5.59412,-9.63818,19.681,Q,Q
2023-03-15 13:03:47:778,0,-5.60731,-9.62654,19.696,Q,Q
2023-03-15 13:03:47:788,0,-5.61767,-9.6146,19.7138,Q,Q
2023-03-15 13:03:47:798,0,-5.62601,-9.60471,19.7253,Q,Q
2023-03-15 13:03:47:808,0,-5.6363,-9.59471,19.7377,Q,Q
2023-03-15 13:03:47:818,0,-5.64683,-9.58543,19.7462,Q,Q
2023-03-15 13:03:47:827,0,-5.66095,-9.5763,19.7611,Q,Q
2023-03-15 13:03:47:838,0,-5.67317,-9.56885,19.7768,Q,Q
2023-03-15 13:03:47:848,0,-5.68459,-9.56269,19.7883,Q,Q
2023-03-15 13:03:47:858,0,-5.69858,-9.56023,19.8062,Q,Q
2023-03-15 13:03:47:868,0,-5.71409,-9.5558,19.8242,Q,Q
2023-03-15 13:03:47:878,0,-5.72638,-9.55106,19.8411,Q,Q
2023-03-15 13:03:47:888,0,-5.73848,-9.54058,19.8578,Q,Q
2023-03-15 13:03:47:898,0,-5.7536,-9.53385,19.8764,Q,Q
2023-03-15 13:03:47:908,0,-5.76892,-9.5272,19.8938,Q,Q
2023-03-15 13:03:47:918,0,-5.78034,-9.52356,19.9145,Q,Q
2023-03-15 13:03:47:928,0,-5.79168,-9.51924,19.9383,Q,Q
2023-03-15 13:03:47:938,0,-5.80552,-9.51232,19.9647,Q,Q
2023-03-15 13:03:47:948,0,-5.81793,-9.50788,19.9899,Q,Q
2023-03-15 13:03:47:958,0,-5.83004,-9.50319,20.0144,Q,Q
2023-03-15 13:03:47:968,0,-5.83837,-9.5003,20.0392,Q,Q
2023-03-15 13:03:47:978,0,-5.85057,-9.49272,20.0667,Q,Q
2023-03-15 13:03:47:988,0,-5.86078,-9.49198,20.0906,Q,Q
2023-03-15 13:03:47:998,0,-5.86852,-9.48806,20.1168,Q,Q
2023-03-15 13:03:48:8,0,-5.87688,-9.48385,20.1403,Q,Q
2023-03-15 13:03:48:18,0,-5.88456,-9.4785,20.1636,Q,Q
2023-03-15 13:03:48:28,0,-5.89868,-9.47304,20.1868,Q,Q
2023-03-15 13:03:48:38,0,-5.90896,-9.46903,20.2099,Q,Q
2023-03-15 13:03:48:48,0,-5.91029,-9.46994,20.2332,Q,Q
2023-03-15 13:03:48:58,0,-5.91525,-9.47028,20.2522,Q,Q
2023-03-15 13:03:48:68,0,-5.91909,-9.47565,20.2676,Q,Q
2023-03-15 13:03:48:78,0,-5.91395,-9.47493,20.2811,Q,Q
2023-03-15 13:03:48:88,0,-5.91023,-9.47542,20.2919,Q,Q
2023-03-15 13:03:48:98,0,-5.90507,-9.4758,20.3016,Q,Q
2023-03-15 13:03:48:108,0,-5.9002,-9.47785,20.3119,Q,Q
2023-03-15 13:03:48:118,0,-5.89752,-9.48015,20.3258,Q,Q
2023-03-15 13:03:48:128,0,-5.89477,-9.48854,20.335,Q,Q
2023-03-15 13:03:48:138,0,-5.90151,-9.49705,20.3443,Q,Q
2023-03-15 13:03:48:148,0,-5.91302,-9.50473,20.3538,Q,Q
2023-03-15 13:03:48:158,0,-5.92227,-9.51387,20.3563,Q,Q
2023-03-15 13:03:48:168,0,-5.93266,-9.52054,20.36,Q,Q
2023-03-15 13:03:48:178,0,-5.94468,-9.52845,20.3625,Q,Q
2023-03-15 13:03:48:188,0,-5.95443,-9.53799,20.362,Q,Q
2023-03-15 13:03:48:198,0,-5.9628,-9.54363,20.3625,Q,Q
2023-03-15 13:03:48:208,0,-5.96945,-9.54656,20.3578,Q,Q
2023-03-15 13:03:48:218,0,-5.97425,-9.54467,20.3538,Q,Q
2023-03-15 13:03:48:228,0,-5.97358,-9.54439,20.3461,Q,Q
2023-03-15 13:03:48:238,0,-5.97774,-9.54439,20.3435,Q,Q
2023-03-15 13:03:48:248,0,-5.98376,-9.54256,20.3406,Q,Q
2023-03-15 13:03:48:258,0,-5.9884,-9.54083,20.3387,Q,Q
2023-03-15 13:03:48:268,0,-5.99864,-9.54092,20.3349,Q,Q
2023-03-15 13:03:48:278,0,-6.00555,-9.53827,20.3352,Q,Q
2023-03-15 13:03:48:288,0,-6.00989,-9.53746,20.33,Q,Q
2023-03-15 13:03:48:298,0,-6.01393,-9.53772,20.3272,Q,Q
2023-03-15 13:03:48:308,0,-6.02032,-9.53503,20.3231,Q,Q
2023-03-15 13:03:48:318,0,-6.02396,-9.53255,20.319,Q,Q
2023-03-15 13:03:48:328,0,-6.03158,-9.53159,20.3175,Q,Q
2023-03-15 13:03:48:337,0,-6.03527,-9.53163,20.315,Q,Q
2023-03-15 13:03:48:347,0,-6.03794,-9.52519,20.3119,Q,Q
2023-03-15 13:03:48:358,0,-6.0411,-9.51729,20.3066,Q,Q
2023-03-15 13:03:48:368,0,-6.04214,-9.51338,20.3053,Q,Q
2023-03-15 13:03:48:378,0,-6.04898,-9.51011,20.3072,Q,Q
2023-03-15 13:03:48:388,0,-6.05265,-9.5073,20.3081,Q,Q
2023-03-15 13:03:48:398,0,-6.05514,-9.50529,20.3139,Q,Q
2023-03-15 13:03:48:408,0,-6.0616,-9.50215,20.3171,Q,Q
2023-03-15 13:03:48:418,0,-6.07219,-9.49471,20.3271,Q,Q
2023-03-15 13:03:48:428,0,-6.08554,-9.48447,20.3382,Q,Q
2023-03-15 13:03:48:438,0,-6.10133,-9.47321,20.3531,Q,Q
2023-03-15 13:03:48:448,0,-6.12217,-9.46402,20.3688,Q,Q
2023-03-15 13:03:48:458,0,-6.143,-9.45419,20.3878,Q,Q
2023-03-15 13:03:48:468,0,-6.16617,-9.44088,20.4073,Q,Q
2023-03-15 13:03:48:478,0,-6.19528,-9.43095,20.4265,Q,Q
2023-03-15 13:03:48:488,0,-6.22582,-9.42335,20.4503,Q,Q
2023-03-15 13:03:48:498,0,-6.25739,-9.41558,20.4803,Q,Q
2023-03-15 13:03:48:508,0,-6.29255,-9.41031,20.5177,Q,Q
2023-03-15 13:03:48:518,0,-6.3315,-9.40489,20.5558,Q,Q
2023-03-15 13:03:48:528,0,-6.36976,-9.39462,20.5947,Q,Q
2023-03-15 13:03:48:538,0,-6.40076,-9.38715,20.633,Q,Q
2023-03-15 13:03:48:548,0,-6.43349,-9.37661,20.6718,Q,Q
2023-03-15 13:03:48:558,0,-6.46806,-9.36522,20.7078,Q,Q
2023-03-15 13:03:48:568,0,-6.50596,-9.35536,20.7484,Q,Q
2023-03-15 13:03:48:578,0,-6.54177,-9.34532,20.7818,Q,Q
2023-03-15 13:03:48:588,0,-6.57189,-9.33112,20.8121,Q,Q
2023-03-15 13:03:48:597,0,-6.60122,-9.3147,20.8382,Q,Q
2023-03-15 13:03:48:608,0,-6.62857,-9.30088,20.8612,Q,Q
2023-03-15 13:03:48:618,0,-6.65563,-9.28691,20.8782,Q,Q
2023-03-15 13:03:48:628,0,-6.68014,-9.27537,20.8866,Q,Q
2023-03-15 13:03:48:638,0,-6.70613,-9.25852,20.8952,Q,Q
2023-03-15 13:03:48:648,0,-6.73188,-9.24653,20.8975,Q,Q
2023-03-15 13:03:48:658,0,-6.75497,-9.23369,20.8949,Q,Q
2023-03-15 13:03:48:668,0,-6.7779,-9.21689,20.8853,Q,Q
2023-03-15 13:03:48:678,0,-6.80272,-9.20355,20.8779,Q,Q
2023-03-15 13:03:48:688,0,-6.82301,-9.19337,20.8661,Q,Q
2023-03-15 13:03:48:698,0,-6.84098,-9.18456,20.8504,Q,Q
2023-03-15 13:03:48:708,0,-6.85785,-9.17986,20.8341,Q,Q
2023-03-15 13:03:48:718,0,-6.86862,-9.17279,20.8147,Q,Q
2023-03-15 13:03:48:728,0,-6.87755,-9.16899,20.7919,Q,Q
2023-03-15 13:03:48:738,0,-6.8861,-9.16358,20.7671,Q,Q
2023-03-15 13:03:48:748,0,-6.89112,-9.15849,20.744,Q,Q
2023-03-15 13:03:48:758,0,-6.89459,-9.15379,20.7159,Q,Q
2023-03-15 13:03:48:768,0,-6.89721,-9.14742,20.6879,Q,Q
2023-03-15 13:03:48:778,0,-6.89575,-9.13922,20.6603,Q,Q
2023-03-15 13:03:48:788,0,-6.89704,-9.1314,20.6304,Q,Q
2023-03-15 13:03:48:798,0,-6.90091,-9.12222,20.6042,Q,Q
2023-03-15 13:03:48:808,0,-6.8998,-9.11028,20.5772,Q,Q
2023-03-15 13:03:48:817,0,-6.90117,-9.09784,20.5468,Q,Q
2023-03-15 13:03:48:827,0,-6.90008,-9.08071,20.5169,Q,Q
2023-03-15 13:03:48:837,0,-6.89375,-9.06578,20.4874,Q,Q
2023-03-15 13:03:48:847,0,-6.89477,-9.05513,20.4605,Q,Q
2023-03-15 13:03:48:857,0,-6.88771,-9.04017,20.4272,Q,Q
2023-03-15 13:03:48:867,0,-6.87963,-9.02794,20.395,Q,Q
2023-03-15 13:03:48:877,0,-6.87069,-9.01522,20.3602,Q,Q
2023-03-15 13:03:48:887,0,-6.864,-9.00176,20.3227,Q,Q
2023-03-15 13:03:48:897,0,-6.85702,-8.98708,20.2868,Q,Q
2023-03-15 13:03:48:907,0,-6.84931,-8.97355,20.2507,Q,Q
2023-03-15 13:03:48:918,0,-6.843,-8.96115,20.2078,Q,Q
2023-03-15 13:03:48:928,0,-6.83784,-8.9466,20.1661,Q,Q
2023-03-15 13:03:48:938,0,-6.83514,-8.93193,20.1174,Q,Q
2023-03-15 13:03:48:948,0,-6.827,-8.91754,20.0651,Q,Q
2023-03-15 13:03:48:958,0,-6.81528,-8.9013,20.0083,Q,Q
2023-03-15 13:03:48:968,0,-6.79339,-8.88186,19.9419,Q,Q
2023-03-15 13:03:48:978,0,-6.7678,-8.86568,19.8695,Q,Q
2023-03-15 13:03:48:988,0,-6.73595,-8.84658,19.7913,Q,Q
2023-03-15 13:03:48:998,0,-6.70353,-8.82992,19.7092,Q,Q
2023-03-15 13:03:49:8,0,-6.66913,-8.80901,19.6219,Q,Q
2023-03-15 13:03:49:18,0,-6.62509,-8.78997,19.5268,Q,Q
2023-03-15 13:03:49:28,0,-6.58083,-8.766,19.4194,Q,Q
2023-03-15 13:03:49:38,0,-6.53365,-8.74781,19.2985,Q,Q
2023-03-15 13:03:49:48,0,-6.48025,-8.72928,19.1647,Q,Q
2023-03-15 13:03:49:58,0,-6.42075,-8.71534,19.0126,Q,Q
2023-03-15 13:03:49:68,0,-6.35094,-8.70111,18.8484,Q,Q
2023-03-15 13:03:49:78,0,-6.27501,-8.68454,18.6668,Q,Q
2023-03-15 13:03:49:88,0,-6.19671,-8.67231,18.4683,Q,Q
2023-03-15 13:03:49:97,0,-6.10025,-8.66677,18.2512,Q,Q
2023-03-15 13:03:49:108,0,-5.98622,-8.66105,18.0103,Q,Q
2023-03-15 13:03:49:118,0,-5.85682,-8.65679,17.7467,Q,Q
2023-03-15 13:03:49:128,0,-5.70813,-8.65653,17.466,Q,Q
2023-03-15 13:03:49:138,0,-5.53674,-8.6637,17.1672,Q,Q
2023-03-15 13:03:49:148,0,-5.33964,-8.67992,16.8633,Q,Q
2023-03-15 13:03:49:158,0,-5.11793,-8.70956,16.5589,Q,Q
2023-03-15 13:03:49:168,0,-4.87994,-8.75706,16.2612,Q,Q
2023-03-15 13:03:49:178,0,-4.63254,-8.82636,15.9817,Q,Q
2023-03-15 13:03:49:188,0,-4.3872,-8.91325,15.7202,Q,Q
2023-03-15 13:03:49:198,0,-4.15927,-9.01502,15.4791,Q,Q
2023-03-15 13:03:49:208,0,-3.95957,-9.12656,15.261,Q,Q
2023-03-15 13:03:49:218,0,-3.79132,-9.23929,15.0593,Q,Q
2023-03-15 13:03:49:228,0,-3.65597,-9.34454,14.8687,Q,Q
2023-03-15 13:03:49:238,0,-3.54694,-9.4276,14.6854,Q,Q
2023-03-15 13:03:49:248,0,-3.46505,-9.49381,14.5086,Q,Q
2023-03-15 13:03:49:258,0,-3.40253,-9.53667,14.3368,Q,Q
2023-03-15 13:03:49:268,0,-3.35647,-9.55286,14.1657,Q,Q
2023-03-15 13:03:49:278,0,-3.31971,-9.54719,13.992,Q,Q
2023-03-15 13:03:49:288,0,-3.29587,-9.51853,13.82,Q,Q
2023-03-15 13:03:49:298,0,-3.2728,-9.46747,13.6436,Q,Q
2023-03-15 13:03:49:308,0,-3.25715,-9.39687,13.4581,Q,Q
2023-03-15 13:03:49:318,0,-3.24677,-9.30642,13.2669,Q,Q
2023-03-15 13:03:49:328,0,-3.24482,-9.20416,13.0707,Q,Q
2023-03-15 13:03:49:338,0,-3.2439,-9.08955,12.8639,Q,Q
2023-03-15 13:03:49:347,0,-3.24084,-8.96573,12.6442,Q,Q
2023-03-15 13:03:49:357,0,-3.23405,-8.83141,12.4148,Q,Q
2023-03-15 13:03:49:367,0,-3.21516,-8.68887,12.1746,Q,Q
2023-03-15 13:03:49:378,0,-3.1908,-8.53722,11.9236,Q,Q
2023-03-15 13:03:49:388,0,-3.15727,-8.38272,11.6659,Q,Q
2023-03-15 13:03:49:398,0,-3.12132,-8.2216,11.4042,Q,Q
2023-03-15 13:03:49:408,0,-3.08976,-8.05126,11.1376,Q,Q
2023-03-15 13:03:49:418,0,-3.05952,-7.87625,10.8654,Q,Q
2023-03-15 13:03:49:428,0,-3.03343,-7.69536,10.5906,Q,Q
2023-03-15 13:03:49:438,0,-3.0156,-7.51289,10.3122,Q,Q
2023-03-15 13:03:49:448,0,-2.99951,-7.32509,10.0364,Q,Q
2023-03-15 13:03:49:458,0,-2.98522,-7.13346,9.76099,Q,Q
2023-03-15 13:03:49:468,0,-2.97503,-6.93591,9.48803,Q,Q
2023-03-15 13:03:49:478,0,-2.96116,-6.73522,9.22366,Q,Q
2023-03-15 13:03:49:488,0,-2.94321,-6.52791,8.9662,Q,Q
2023-03-15 13:03:49:498,0,-2.91189,-6.32255,8.71976,Q,Q
2023-03-15 13:03:49:508,0,-2.87217,-6.11185,8.47708,Q,Q
2023-03-15 13:03:49:518,0,-2.82555,-5.89968,8.24551,Q,Q
2023-03-15 13:03:49:528,0,-2.77329,-5.68508,8.02168,Q,Q
2023-03-15 13:03:49:538,0,-2.71326,-5.46312,7.80591,Q,Q
2023-03-15 13:03:49:548,0,-2.64032,-5.23272,7.58418,Q,Q
2023-03-15 13:03:49:558,0,-2.55054,-4.98973,7.36075,Q,Q
2023-03-15 13:03:49:568,0,-2.44483,-4.73841,7.13177,Q,Q
2023-03-15 13:03:49:578,0,-2.33231,-4.4796,6.9041,Q,Q
2023-03-15 13:03:49:588,0,-2.20927,-4.22133,6.67432,Q,Q
2023-03-15 13:03:49:598,0,-2.08473,-3.9616,6.43839,Q,Q
2023-03-15 13:03:49:608,0,-1.9576,-3.69556,6.19274,Q,Q
2023-03-15 13:03:49:618,0,-1.83208,-3.43228,5.93987,Q,Q
2023-03-15 13:03:49:628,0,-1.7058,-3.17757,5.679,Q,Q
2023-03-15 13:03:49:638,0,-1.57762,-2.92595,5.4083,Q,Q
2023-03-15 13:03:49:648,0,-1.44389,-2.6854,5.13776,Q,Q
2023-03-15 13:03:49:658,0,-1.30958,-2.46201,4.8725,Q,Q
2023-03-15 13:03:49:668,0,-1.17746,-2.2587,4.61823,Q,Q
2023-03-15 13:03:49:678,0,-1.0439,-2.07717,4.376,Q,Q
2023-03-15 13:03:49:688,0,-0.906566,-1.91334,4.14878,Q,Q
2023-03-15 13:03:49:698,0,-0.771001,-1.76859,3.93731,Q,Q
2023-03-15 13:03:49:708,0,-0.637818,-1.64025,3.73963,Q,Q
2023-03-15 13:03:49:718,0,-0.50985,-1.53167,3.55986,Q,Q
2023-03-15 13:03:49:728,0,-0.379324,-1.43677,3.39714,Q,Q
2023-03-15 13:03:49:738,0,-0.252406,-1.35349,3.25271,Q,Q
2023-03-15 13:03:49:748,0,-0.128108,-1.29067,3.13172,Q,Q
2023-03-15 13:03:49:758,0,-0.00528803,-1.23906,3.03547,Q,Q
2023-03-15 13:03:49:768,0,0.109642,-1.19636,2.95561,Q,Q
2023-03-15 13:03:49:778,0,0.213102,-1.15536,2.8931,Q,Q
2023-03-15 13:03:49:788,0,0.30629,-1.11981,2.8461,Q,Q
2023-03-15 13:03:49:798,0,0.391538,-1.08797,2.8157,Q,Q
2023-03-15 13:03:49:808,0,0.461805,-1.06881,2.79856,Q,Q
2023-03-15 13:03:49:818,0,0.525332,-1.05464,2.79457,Q,Q
2023-03-15 13:03:49:828,0,0.582483,-1.05058,2.80094,Q,Q
2023-03-15 13:03:49:838,0,0.636889,-1.05357,2.81494,Q,Q
2023-03-15 13:03:49:847,0,0.684742,-1.06671,2.8389,Q,Q
2023-03-15 13:03:49:857,0,0.727781,-1.08466,2.86977,Q,Q
2023-03-15 13:03:49:867,0,0.768057,-1.11007,2.90443,Q,Q
2023-03-15 13:03:49:877,0,0.802165,-1.141,2.94561,Q,Q
2023-03-15 13:03:49:887,0,0.830068,-1.18306,2.98996,Q,Q
2023-03-15 13:03:49:898,0,0.849799,-1.22723,3.03825,Q,Q
2023-03-15 13:03:49:908,0,0.87058,-1.27298,3.09095,Q,Q
2023-03-15 13:03:49:918,0,0.888947,-1.32426,3.1433,Q,Q
2023-03-15 13:03:49:928,0,0.907671,-1.38398,3.19815,Q,Q
2023-03-15 13:03:49:938,0,0.9217,-1.46079,3.25572,Q,Q
2023-03-15 13:03:49:948,0,0.9356,-1.53627,3.31722,Q,Q
2023-03-15 13:03:49:958,0,0.945091,-1.61119,3.37695,Q,Q
2023-03-15 13:03:49:967,0,0.953862,-1.68334,3.43892,Q,Q
2023-03-15 13:03:49:978,0,0.960905,-1.75729,3.5028,Q,Q
2023-03-15 13:03:49:988,0,0.9694,-1.83338,3.5675,Q,Q
2023-03-15 13:03:49:997,0,0.979438,-1.91263,3.63426,Q,Q
2023-03-15 13:03:50:8,0,0.993023,-1.99699,3.70729,Q,Q
2023-03-15 13:03:50:18,0,1.00659,-2.08279,3.78637,Q,Q
2023-03-15 13:03:50:28,0,1.01494,-2.16759,3.87305,Q,Q
2023-03-15 13:03:50:38,0,1.01641,-2.25163,3.96019,Q,Q
2023-03-15 13:03:50:48,0,1.00747,-2.33486,4.04743,Q,Q
2023-03-15 13:03:50:58,0,0.992078,-2.4112,4.13744,Q,Q
2023-03-15 13:03:50:68,0,0.968253,-2.48096,4.22632,Q,Q
2023-03-15 13:03:50:78,0,0.940454,-2.54194,4.31613,Q,Q
2023-03-15 13:03:50:88,0,0.905083,-2.59353,4.40361,Q,Q
2023-03-15 13:03:50:98,0,0.871687,-2.63495,4.49183,Q,Q
2023-03-15 13:03:50:108,0,0.834123,-2.665,4.57825,Q,Q
2023-03-15 13:03:50:118,0,0.796499,-2.68844,4.66443,Q,Q
2023-03-15 13:03:50:128,0,0.757254,-2.70628,4.74923,Q,Q
2023-03-15 13:03:50:138,0,0.716324,-2.71763,4.8304,Q,Q
2023-03-15 13:03:50:148,0,0.674584,-2.72076,4.90757,Q,Q
2023-03-15 13:03:50:158,0,0.631257,-2.71981,4.97969,Q,Q
2023-03-15 13:03:50:168,0,0.584807,-2.71964,5.05665,Q,Q
2023-03-15 13:03:50:178,0,0.539926,-2.71617,5.12873,Q,Q
2023-03-15 13:03:50:188,0,0.49544,-2.71302,5.20229,Q,Q
2023-03-15 13:03:50:198,0,0.452374,-2.70593,5.26781,Q,Q
2023-03-15 13:03:50:208,0,0.408526,-2.69893,5.33501,Q,Q
2023-03-15 13:03:50:218,0,0.362843,-2.69488,5.39651,Q,Q
2023-03-15 13:03:50:228,0,0.319502,-2.69031,5.45367,Q,Q
2023-03-15 13:03:50:238,0,0.279485,-2.66215,5.50716,Q,Q
2023-03-15 13:03:50:248,0,0.261054,-2.59647,5.55711,Q,Q
2023-03-15 13:03:50:258,0,0.24915,-2.58128,5.59166,Q,Q
2023-03-15 13:03:50:268,0,0.207286,-2.56947,5.63214,Q,Q
2023-03-15 13:03:50:278,0,0.1528,-2.58099,5.66693,Q,Q
2023-03-15 13:03:50:288,0,0.0959148,-2.58955,5.69509,Q,Q
2023-03-15 13:03:50:298,0,0.051832,-2.58281,5.7191,Q,Q
2023-03-15 13:03:50:308,0,0.0260996,-2.57151,5.7357,Q,Q
2023-03-15 13:03:50:318,0,-0.00500237,-2.56982,5.75183,Q,Q
2023-03-15 13:03:50:328,0,-0.0454376,-2.56444,5.76673,Q,Q
2023-03-15 13:03:50:338,0,-0.0896411,-2.5575,5.77356,Q,Q
2023-03-15 13:03:50:348,0,-0.129767,-2.55017,5.77984,Q,Q
2023-03-15 13:03:50:358,0,-0.170801,-2.52937,5.7886,Q,Q
2023-03-15 13:03:50:368,0,-0.204086,-2.52052,5.79257,Q,Q
2023-03-15 13:03:50:378,0,-0.257888,-2.53492,5.79538,Q,Q
2023-03-15 13:03:50:388,0,-0.315213,-2.50789,5.81006,Q,Q
2023-03-15 13:03:50:398,0,-0.348616,-2.47857,5.80802,Q,Q
2023-03-15 13:03:50:408,0,-0.380548,-2.47834,5.81047,Q,Q
2023-03-15 13:03:50:418,0,-0.43475,-2.47876,5.83232,Q,Q
2023-03-15 13:03:50:428,0,-0.502877,-2.46478,5.85196,Q,Q
2023-03-15 13:03:50:438,0,-0.564916,-2.45471,5.86551,Q,Q
2023-03-15 13:03:50:448,0,-0.6162,-2.43151,5.88381,Q,Q
2023-03-15 13:03:50:458,0,-0.668624,-2.41486,5.91195,Q,Q
2023-03-15 13:03:50:468,0,-0.723944,-2.40693,5.94508,Q,Q
2023-03-15 13:03:50:477,0,-0.78779,-2.40558,5.98224,Q,Q
2023-03-15 13:03:50:488,0,-0.851812,-2.39277,6.0231,Q,Q
2023-03-15 13:03:50:498,0,-0.90471,-2.36031,6.06204,Q,Q
2023-03-15 13:03:50:508,0,-0.943812,-2.32278,6.10032,Q,Q
2023-03-15 13:03:50:518,0,-0.991713,-2.29438,6.1382,Q,Q
2023-03-15 13:03:50:528,0,-1.04767,-2.26063,6.17702,Q,Q
2023-03-15 13:03:50:538,0,-1.09097,-2.22203,6.20222,Q,Q
2023-03-15 13:03:50:548,0,-1.1266,-2.1899,6.22009,Q,Q
2023-03-15 13:03:50:558,0,-1.16143,-2.15724,6.24031,Q,Q
2023-03-15 13:03:50:568,0,-1.19976,-2.12818,6.24667,Q,Q
2023-03-15 13:03:50:578,0,-1.23988,-2.10487,6.24241,Q,Q
2023-03-15 13:03:50:588,0,-1.28175,-2.08887,6.23096,Q,Q
2023-03-15 13:03:50:598,0,-1.31949,-2.06627,6.2126,Q,Q
2023-03-15 13:03:50:608,0,-1.35146,-2.04491,6.18537,Q,Q
2023-03-15 13:03:50:618,0,-1.37403,-2.02769,6.15175,Q,Q
2023-03-15 13:03:50:628,0,-1.39489,-2.01389,6.11495,Q,Q
2023-03-15 13:03:50:638,0,-1.41559,-2.00282,6.07481,Q,Q
2023-03-15 13:03:50:648,0,-1.42868,-1.99552,6.0282,Q,Q
2023-03-15 13:03:50:658,0,-1.44158,-1.98794,5.98147,Q,Q
2023-03-15 13:03:50:668,0,-1.45343,-1.98171,5.93476,Q,Q
2023-03-15 13:03:50:678,0,-1.46456,-1.97731,5.88849,Q,Q
2023-03-15 13:03:50:688,0,-1.47893,-1.96348,5.83962,Q,Q
2023-03-15 13:03:50:698,0,-1.49907,-1.9528,5.79339,Q,Q
2023-03-15 13:03:50:708,0,-1.51334,-1.94067,5.75038,Q,Q
2023-03-15 13:03:50:718,0,-1.52573,-1.93226,5.70477,Q,Q
2023-03-15 13:03:50:728,0,-1.5357,-1.92019,5.65822,Q,Q
2023-03-15 13:03:50:738,0,-1.54114,-1.9069,5.60684,Q,Q
2023-03-15 13:03:50:748,0,-1.54316,-1.89367,5.5527,Q,Q
2023-03-15 13:03:50:758,0,-1.54785,-1.88245,5.50077,Q,Q
2023-03-15 13:03:50:768,0,-1.55282,-1.87388,5.45045,Q,Q
2023-03-15 13:03:50:778,0,-1.55511,-1.8642,5.39511,Q,Q
2023-03-15 13:03:50:788,0,-1.55815,-1.857,5.3374,Q,Q
2023-03-15 13:03:50:798,0,-1.56258,-1.84625,5.2723,Q,Q
2023-03-15 13:03:50:808,0,-1.56804,-1.83155,5.19433,Q,Q
2023-03-15 13:03:50:818,0,-1.5688,-1.81949,5.10764,Q,Q
2023-03-15 13:03:50:828,0,-1.5652,-1.80816,5.01566,Q,Q
2023-03-15 13:03:50:838,0,-1.55896,-1.80066,4.91678,Q,Q
2023-03-15 13:03:50:847,0,-1.55311,-1.79501,4.80382,Q,Q
2023-03-15 13:03:50:857,0,-1.54524,-1.78944,4.67816,Q,Q
2023-03-15 13:03:50:868,0,-1.53922,-1.78217,4.54428,Q,Q
2023-03-15 13:03:50:878,0,-1.52644,-1.77668,4.39643,Q,Q
2023-03-15 13:03:50:888,0,-1.51089,-1.76915,4.2495,Q,Q
2023-03-15 13:03:50:897,0,-1.50273,-1.75988,4.09846,Q,Q
2023-03-15 13:03:50:907,0,-1.49982,-1.75668,3.93925,Q,Q
2023-03-15 13:03:50:918,0,-1.49701,-1.75262,3.78289,Q,Q
2023-03-15 13:03:50:927,0,-1.49954,-1.75043,3.61882,Q,Q
2023-03-15 13:03:50:938,0,-1.50176,-1.75161,3.44921,Q,Q
2023-03-15 13:03:50:948,0,-1.50104,-1.75091,3.27767,Q,Q
2023-03-15 13:03:50:958,0,-1.49753,-1.74864,3.10874,Q,Q
2023-03-15 13:03:50:968,0,-1.49807,-1.74774,2.93626,Q,Q
2023-03-15 13:03:50:978,0,-1.49608,-1.74425,2.76802,Q,Q
2023-03-15 13:03:50:988,0,-1.4964,-1.74366,2.60116,Q,Q
2023-03-15 13:03:50:998,0,-1.49154,-1.7387,2.44007,Q,Q
2023-03-15 13:03:51:8,0,-1.49298,-1.73263,2.28306,Q,Q
2023-03-15 13:03:51:18,0,-1.49331,-1.71995,2.1275,Q,Q
2023-03-15 13:03:51:28,0,-1.48942,-1.70038,1.98065,Q,Q
2023-03-15 13:03:51:38,0,-1.48169,-1.67533,1.83957,Q,Q
2023-03-15 13:03:51:48,0,-1.47146,-1.64604,1.70054,Q,Q
2023-03-15 13:03:51:58,0,-1.46109,-1.6146,1.57054,Q,Q
2023-03-15 13:03:51:68,0,-1.45213,-1.58232,1.44768,Q,Q
2023-03-15 13:03:51:78,0,-1.43753,-1.54843,1.33014,Q,Q
2023-03-15 13:03:51:88,0,-1.42485,-1.51798,1.21616,Q,Q
2023-03-15 13:03:51:98,0,-1.40789,-1.48725,1.1101,Q,Q
2023-03-15 13:03:51:108,0,-1.39263,-1.46078,1.01149,Q,Q
2023-03-15 13:03:51:118,0,-1.37857,-1.42974,0.916372,Q,Q
2023-03-15 13:03:51:128,0,-1.36783,-1.39884,0.825628,Q,Q
2023-03-15 13:03:51:138,0,-1.35611,-1.36855,0.742383,Q,Q
2023-03-15 13:03:51:148,0,-1.34378,-1.33891,0.659181,Q,Q
2023-03-15 13:03:51:158,0,-1.33073,-1.31295,0.581731,Q,Q
2023-03-15 13:03:51:168,0,-1.31201,-1.29199,0.507344,Q,Q
2023-03-15 13:03:51:178,0,-1.29321,-1.27383,0.445512,Q,Q
2023-03-15 13:03:51:188,0,-1.27204,-1.25202,0.389896,Q,Q
2023-03-15 13:03:51:198,0,-1.2476,-1.2364,0.33948,Q,Q
2023-03-15 13:03:51:208,0,-1.22258,-1.22326,0.294804,Q,Q
2023-03-15 13:03:51:218,0,-1.19862,-1.21026,0.254062,Q,Q
2023-03-15 13:03:51:228,0,-1.16936,-1.19766,0.222389,Q,Q
2023-03-15 13:03:51:238,0,-1.14403,-1.19138,0.195525,Q,Q
2023-03-15 13:03:51:248,0,-1.12046,-1.18261,0.176737,Q,Q
2023-03-15 13:03:51:258,0,-1.10438,-1.17913,0.162867,Q,Q
2023-03-15 13:03:51:268,0,-1.09711,-1.18019,0.155326,Q,Q
2023-03-15 13:03:51:278,0,-1.09274,-1.18393,0.153422,Q,Q
2023-03-15 13:03:51:288,0,-1.08776,-1.19123,0.156917,Q,Q
2023-03-15 13:03:51:298,0,-1.0873,-1.19867,0.166736,Q,Q
2023-03-15 13:03:51:308,0,-1.08642,-1.20873,0.17935,Q,Q
2023-03-15 13:03:51:318,0,-1.0886,-1.22688,0.197299,Q,Q
2023-03-15 13:03:51:328,0,-1.0885,-1.2422,0.221546,Q,Q
2023-03-15 13:03:51:338,0,-1.08833,-1.25897,0.246855,Q,Q
2023-03-15 13:03:51:347,0,-1.08851,-1.28097,0.274361,Q,Q
2023-03-15 13:03:51:357,0,-1.09348,-1.30316,0.301832,Q,Q
2023-03-15 13:03:51:368,0,-1.1021,-1.33122,0.326056,Q,Q
2023-03-15 13:03:51:378,0,-1.11516,-1.35676,0.350877,Q,Q
2023-03-15 13:03:51:388,0,-1.13231,-1.38852,0.373593,Q,Q
2023-03-15 13:03:51:398,0,-1.1566,-1.42466,0.397362,Q,Q
2023-03-15 13:03:51:407,0,-1.18476,-1.46369,0.420988,Q,Q
2023-03-15 13:03:51:418,0,-1.20847,-1.50056,0.442805,Q,Q
2023-03-15 13:03:51:428,0,-1.23355,-1.53539,0.463295,Q,Q
2023-03-15 13:03:51:438,0,-1.25976,-1.567,0.483372,Q,Q
2023-03-15 13:03:51:448,0,-1.28194,-1.60151,0.505755,Q,Q
2023-03-15 13:03:51:458,0,-1.2994,-1.64092,0.527351,Q,Q
2023-03-15 13:03:51:468,0,-1.32026,-1.68286,0.550826,Q,Q
2023-03-15 13:03:51:478,0,-1.34611,-1.72981,0.574515,Q,Q
2023-03-15 13:03:51:488,0,-1.36591,-1.77983,0.597197,Q,Q
2023-03-15 13:03:51:498,0,-1.37983,-1.83328,0.621665,Q,Q
2023-03-15 13:03:51:508,0,-1.39017,-1.88932,0.643069,Q,Q
2023-03-15 13:03:51:518,0,-1.39932,-1.94094,0.662038,Q,Q
2023-03-15 13:03:51:528,0,-1.41166,-1.99222,0.67946,Q,Q
2023-03-15 13:03:51:538,0,-1.41803,-2.03749,0.699089,Q,Q
2023-03-15 13:03:51:548,0,-1.42128,-2.08039,0.715073,Q,Q
2023-03-15 13:03:51:558,0,-1.42319,-2.12066,0.73124,Q,Q
2023-03-15 13:03:51:568,0,-1.42055,-2.15801,0.745302,Q,Q
2023-03-15 13:03:51:578,0,-1.41319,-2.19841,0.763829,Q,Q
2023-03-15 13:03:51:588,0,-1.4028,-2.23554,0.776717,Q,Q
2023-03-15 13:03:51:598,0,-1.39277,-2.27304,0.792384,Q,Q
2023-03-15 13:03:51:607,0,-1.38606,-2.30326,0.809158,Q,Q
2023-03-15 13:03:51:618,0,-1.38002,-2.33247,0.827066,Q,Q
2023-03-15 13:03:51:628,0,-1.37346,-2.36333,0.845369,Q,Q
2023-03-15 13:03:51:638,0,-1.36657,-2.39417,0.861679,Q,Q
2023-03-15 13:03:51:648,0,-1.36016,-2.42255,0.880395,Q,Q
2023-03-15 13:03:51:658,0,-1.35577,-2.44837,0.889571,Q,Q
2023-03-15 13:03:51:668,0,-1.35216,-2.47456,0.900985,Q,Q
2023-03-15 13:03:51:678,0,-1.34671,-2.49858,0.910992,Q,Q
2023-03-15 13:03:51:688,0,-1.34506,-2.51701,0.922054,Q,Q
2023-03-15 13:03:51:698,0,-1.34741,-2.5361,0.935342,Q,Q
2023-03-15 13:03:51:708,0,-1.35337,-2.55588,0.945727,Q,Q
2023-03-15 13:03:51:718,0,-1.37167,-2.57321,0.962292,Q,Q
2023-03-15 13:03:51:728,0,-1.39868,-2.59257,0.980305,Q,Q
2023-03-15 13:03:51:738,0,-1.42461,-2.61426,0.998171,Q,Q
2023-03-15 13:03:51:748,0,-1.44956,-2.63943,1.01396,Q,Q
2023-03-15 13:03:51:758,0,-1.46808,-2.66464,1.03264,Q,Q
2023-03-15 13:03:51:768,0,-1.4877,-2.68966,1.0526,Q,Q
2023-03-15 13:03:51:778,0,-1.51074,-2.70996,1.06953,Q,Q
2023-03-15 13:03:51:788,0,-1.5365,-2.72769,1.08653,Q,Q
2023-03-15 13:03:51:798,0,-1.56044,-2.74306,1.09904,Q,Q
2023-03-15 13:03:51:808,0,-1.58476,-2.75845,1.10861,Q,Q
2023-03-15 13:03:51:818,0,-1.60818,-2.77414,1.11975,Q,Q
2023-03-15 13:03:51:828,0,-1.63558,-2.79292,1.13381,Q,Q
2023-03-15 13:03:51:838,0,-1.66127,-2.82017,1.15418,Q,Q
2023-03-15 13:03:51:847,0,-1.68527,-2.85181,1.16941,Q,Q
2023-03-15 13:03:51:857,0,-1.71046,-2.88329,1.18594,Q,Q
2023-03-15 13:03:51:868,0,-1.73307,-2.9114,1.20202,Q,Q
2023-03-15 13:03:51:878,0,-1.75381,-2.93745,1.21518,Q,Q
2023-03-15 13:03:51:888,0,-1.77117,-2.95609,1.2284,Q,Q
2023-03-15 13:03:51:898,0,-1.78363,-2.97614,1.24059,Q,Q
2023-03-15 13:03:51:908,0,-1.79241,-2.99374,1.25713,Q,Q
2023-03-15 13:03:51:918,0,-1.79987,-3.01179,1.27407,Q,Q
2023-03-15 13:03:51:927,0,-1.80609,-3.02856,1.29306,Q,Q
2023-03-15 13:03:51:938,0,-1.81338,-3.04727,1.31606,Q,Q
2023-03-15 13:03:51:948,0,-1.82368,-3.06634,1.34259,Q,Q
2023-03-15 13:03:51:958,0,-1.83957,-3.08584,1.36722,Q,Q
2023-03-15 13:03:51:968,0,-1.85793,-3.10142,1.3958,Q,Q
2023-03-15 13:03:51:978,0,-1.87499,-3.11788,1.42174,Q,Q
2023-03-15 13:03:51:988,0,-1.89027,-3.13335,1.44879,Q,Q
2023-03-15 13:03:51:998,0,-1.90322,-3.14886,1.47814,Q,Q
2023-03-15 13:03:52:8,0,-1.91708,-3.16165,1.5073,Q,Q
2023-03-15 13:03:52:18,0,-1.92883,-3.17616,1.52977,Q,Q
2023-03-15 13:03:52:28,0,-1.93728,-3.19287,1.55427,Q,Q
2023-03-15 13:03:52:38,0,-1.93894,-3.20861,1.57431,Q,Q
2023-03-15 13:03:52:48,0,-1.94247,-3.22303,1.59593,Q,Q
2023-03-15 13:03:52:58,0,-1.94341,-3.2336,1.60802,Q,Q
2023-03-15 13:03:52:68,0,-1.9465,-3.24351,1.61484,Q,Q
2023-03-15 13:03:52:78,0,-1.95353,-3.25271,1.61895,Q,Q
2023-03-15 13:03:52:88,0,-1.95783,-3.25985,1.6152,Q,Q
2023-03-15 13:03:52:98,0,-1.95617,-3.26815,1.61022,Q,Q
2023-03-15 13:03:52:108,0,-1.95327,-3.28005,1.60023,Q,Q
2023-03-15 13:03:52:118,0,-1.94877,-3.28855,1.58786,Q,Q
2023-03-15 13:03:52:128,0,-1.94128,-3.30125,1.57433,Q,Q
2023-03-15 13:03:52:138,0,-1.9344,-3.31157,1.55569,Q,Q
2023-03-15 13:03:52:148,0,-1.93023,-3.31963,1.5378,Q,Q
2023-03-15 13:03:52:158,0,-1.92788,-3.32543,1.51898,Q,Q
2023-03-15 13:03:52:168,0,-1.92532,-3.32597,1.50723,Q,Q
2023-03-15 13:03:52:178,0,-1.92686,-3.32688,1.49647,Q,Q
2023-03-15 13:03:52:188,0,-1.9255,-3.327,1.48733,Q,Q
2023-03-15 13:03:52:198,0,-1.92816,-3.33136,1.47679,Q,Q
2023-03-15 13:03:52:208,0,-1.92848,-3.33351,1.46626,Q,Q
2023-03-15 13:03:52:218,0,-1.93493,-3.33486,1.45436,Q,Q
2023-03-15 13:03:52:228,0,-1.93959,-3.33608,1.43944,Q,Q
2023-03-15 13:03:52:238,0,-1.94813,-3.33704,1.42582,Q,Q
2023-03-15 13:03:52:248,0,-1.95488,-3.34039,1.41334,Q,Q
2023-03-15 13:03:52:258,0,-1.96165,-3.34274,1.39819,Q,Q
2023-03-15 13:03:52:268,0,-1.96853,-3.35097,1.38469,Q,Q
2023-03-15 13:03:52:278,0,-1.98201,-3.35861,1.36992,Q,Q
2023-03-15 13:03:52:288,0,-1.99252,-3.36321,1.3519,Q,Q
2023-03-15 13:03:52:298,0,-1.99778,-3.36227,1.33638,Q,Q
2023-03-15 13:03:52:308,0,-1.99961,-3.36059,1.32174,Q,Q
2023-03-15 13:03:52:318,0,-2.00172,-3.35904,1.30636,Q,Q
2023-03-15 13:03:52:328,0,-2.00293,-3.3555,1.29579,Q,Q
2023-03-15 13:03:52:338,0,-2.00142,-3.35116,1.28389,Q,Q
2023-03-15 13:03:52:347,0,-2.00354,-3.34819,1.27376,Q,Q
2023-03-15 13:03:52:357,0,-2.00439,-3.3463,1.26603,Q,Q
2023-03-15 13:03:52:368,0,-2.00882,-3.35009,1.25733,Q,Q
2023-03-15 13:03:52:378,0,-2.01548,-3.35536,1.24474,Q,Q
2023-03-15 13:03:52:388,0,-2.02059,-3.36294,1.23423,Q,Q
2023-03-15 13:03:52:398,0,-2.02556,-3.36901,1.22464,Q,Q
2023-03-15 13:03:52:408,0,-2.02904,-3.37205,1.21683,Q,Q
2023-03-15 13:03:52:417,0,-2.02692,-3.37996,1.20525,Q,Q
2023-03-15 13:03:52:428,0,-2.0207,-3.38159,1.19358,Q,Q
2023-03-15 13:03:52:437,0,-2.02124,-3.38446,1.18521,Q,Q
2023-03-15 13:03:52:447,0,-2.01947,-3.38974,1.17333,Q,Q
2023-03-15 13:03:52:457,0,-2.01796,-3.3916,1.16249,Q,Q
2023-03-15 13:03:52:468,0,-2.01854,-3.39457,1.15372,Q,Q
2023-03-15 13:03:52:477,0,-2.01939,-3.39631,1.1451,Q,Q
2023-03-15 13:03:52:488,0,-2.02159,-3.3978,1.1359,Q,Q
2023-03-15 13:03:52:498,0,-2.02748,-3.39926,1.12827,Q,Q
2023-03-15 13:03:52:508,0,-2.03403,-3.40296,1.11959,Q,Q
2023-03-15 13:03:52:518,0,-2.03375,-3.40518,1.10656,Q,Q
2023-03-15 13:03:52:528,0,-2.02697,-3.40131,1.09448,Q,Q
2023-03-15 13:03:52:538,0,-2.02574,-3.39388,1.08155,Q,Q
2023-03-15 13:03:52:548,0,-2.025,-3.38475,1.07369,Q,Q
2023-03-15 13:03:52:558,0,-2.028,-3.37911,1.06307,Q,Q
2023-03-15 13:03:52:567,0,-2.03322,-3.37494,1.05578,Q,Q
2023-03-15 13:03:52:578,0,-2.04178,-3.37003,1.04967,Q,Q
2023-03-15 13:03:52:588,0,-2.05954,-3.36355,1.04216,Q,Q
2023-03-15 13:03:52:598,0,-2.076,-3.35458,1.02929,Q,Q
2023-03-15 13:03:52:608,0,-2.09275,-3.34828,1.01576,Q,Q
2023-03-15 13:03:52:617,0,-2.10332,-3.3431,1.00015,Q,Q
2023-03-15 13:03:52:628,0,-2.10982,-3.34584,0.986441,Q,Q
2023-03-15 13:03:52:638,0,-2.11896,-3.34395,0.976494,Q,Q
2023-03-15 13:03:52:648,0,-2.12527,-3.33744,0.960247,Q,Q
2023-03-15 13:03:52:658,0,-2.126,-3.33356,0.944739,Q,Q
2023-03-15 13:03:52:668,0,-2.13141,-3.33215,0.933462,Q,Q
2023-03-15 13:03:52:678,0,-2.13672,-3.32636,0.923301,Q,Q
2023-03-15 13:03:52:688,0,-2.13986,-3.32299,0.91491,Q,Q
2023-03-15 13:03:52:697,0,-2.14335,-3.31957,0.909771,Q,Q
2023-03-15 13:03:52:708,0,-2.14307,-3.31148,0.904322,Q,Q
2023-03-15 13:03:52:718,0,-2.13922,-3.30612,0.896864,Q,Q
2023-03-15 13:03:52:728,0,-2.13357,-3.30111,0.883647,Q,Q
2023-03-15 13:03:52:737,0,-2.13228,-3.30022,0.871157,Q,Q
2023-03-15 13:03:52:748,0,-2.12788,-3.30288,0.862377,Q,Q
2023-03-15 13:03:52:758,0,-2.12112,-3.30544,0.849024,Q,Q
2023-03-15 13:03:52:768,0,-2.116,-3.31277,0.837884,Q,Q
2023-03-15 13:03:52:778,0,-2.11123,-3.31697,0.822957,Q,Q
2023-03-15 13:03:52:788,0,-2.11334,-3.32018,0.80831,Q,Q
2023-03-15 13:03:52:798,0,-2.11718,-3.3247,0.795411,Q,Q
2023-03-15 13:03:52:808,0,-2.1231,-3.32676,0.778292,Q,Q
2023-03-15 13:03:52:818,0,-2.12565,-3.32909,0.765212,Q,Q
2023-03-15 13:03:52:828,0,-2.12533,-3.33393,0.753466,Q,Q
2023-03-15 13:03:52:838,0,-2.12189,-3.33718,0.74135,Q,Q
2023-03-15 13:03:52:847,0,-2.11789,-3.34205,0.730896,Q,Q
2023-03-15 13:03:52:857,0,-2.11061,-3.3436,0.722255,Q,Q
2023-03-15 13:03:52:867,0,-2.10659,-3.34813,0.714957,Q,Q
2023-03-15 13:03:52:878,0,-2.10876,-3.34745,0.712663,Q,Q
2023-03-15 13:03:52:888,0,-2.11849,-3.34842,0.710467,Q,Q
2023-03-15 13:03:52:898,0,-2.13014,-3.35111,0.705195,Q,Q
2023-03-15 13:03:52:908,0,-2.14491,-3.35404,0.697713,Q,Q
2023-03-15 13:03:52:918,0,-2.15576,-3.35693,0.685609,Q,Q
2023-03-15 13:03:52:928,0,-2.16661,-3.36291,0.669492,Q,Q
2023-03-15 13:03:52:938,0,-2.18404,-3.36958,0.655601,Q,Q
2023-03-15 13:03:52:947,0,-2.19629,-3.37225,0.638091,Q,Q
2023-03-15 13:03:52:957,0,-2.20544,-3.37139,0.623052,Q,Q
2023-03-15 13:03:52:968,0,-2.20786,-3.37102,0.606688,Q,Q
2023-03-15 13:03:52:978,0,-2.20853,-3.36894,0.592644,Q,Q
2023-03-15 13:03:52:988,0,-2.20925,-3.36776,0.579021,Q,Q
2023-03-15 13:03:52:998,0,-2.2087,-3.36641,0.564535,Q,Q
2023-03-15 13:03:53:8,0,-2.20787,-3.36624,0.549227,Q,Q
2023-03-15 13:03:53:17,0,-2.20483,-3.37172,0.539676,Q,Q
2023-03-15 13:03:53:28,0,-2.19931,-3.37568,0.533058,Q,Q
2023-03-15 13:03:53:38,0,-2.19297,-3.37837,0.528889,Q,Q
2023-03-15 13:03:53:48,0,-2.18209,-3.38706,0.525524,Q,Q
2023-03-15 13:03:53:58,0,-2.17449,-3.39557,0.521654,Q,Q
2023-03-15 13:03:53:68,0,-2.16851,-3.40158,0.518363,Q,Q
2023-03-15 13:03:53:78,0,-2.16227,-3.40462,0.515451,Q,Q
2023-03-15 13:03:53:88,0,-2.16113,-3.40748,0.509129,Q,Q
2023-03-15 13:03:53:98,0,-2.16469,-3.41078,0.500976,Q,Q
2023-03-15 13:03:53:108,0,-2.16905,-3.41635,0.487958,Q,Q
2023-03-15 13:03:53:117,0,-2.17139,-3.41974,0.477036,Q,Q
2023-03-15 13:03:53:127,0,-2.17561,-3.42723,0.468421,Q,Q
2023-03-15 13:03:53:138,0,-2.17739,-3.4386,0.459196,Q,Q
2023-03-15 13:03:53:148,0,-2.17483,-3.44871,0.448399,Q,Q
2023-03-15 13:03:53:158,0,-2.17002,-3.45849,0.435728,Q,Q
2023-03-15 13:03:53:168,0,-2.16723,-3.46692,0.426421,Q,Q
2023-03-15 13:03:53:178,0,-2.15916,-3.47756,0.414185,Q,Q
2023-03-15 13:03:53:188,0,-2.15251,-3.48926,0.406235,Q,Q
2023-03-15 13:03:53:198,0,-2.14436,-3.50399,0.403592,Q,Q
2023-03-15 13:03:53:208,0,-2.13709,-3.51855,0.401085,Q,Q
2023-03-15 13:03:53:218,0,-2.13108,-3.52872,0.404873,Q,Q
2023-03-15 13:03:53:228,0,-2.12479,-3.54324,0.410867,Q,Q
2023-03-15 13:03:53:238,0,-2.12099,-3.55644,0.418612,Q,Q
2023-03-15 13:03:53:248,0,-2.12366,-3.5667,0.4279,Q,Q
2023-03-15 13:03:53:258,0,-2.13288,-3.57332,0.437112,Q,Q
2023-03-15 13:03:53:268,0,-2.14794,-3.58127,0.449456,Q,Q
2023-03-15 13:03:53:278,0,-2.16071,-3.59138,0.460877,Q,Q
2023-03-15 13:03:53:287,0,-2.17023,-3.6048,0.46928,Q,Q
2023-03-15 13:03:53:297,0,-2.17892,-3.61445,0.475978,Q,Q
2023-03-15 13:03:53:307,0,-2.18767,-3.63107,0.478724,Q,Q
2023-03-15 13:03:53:317,0,-2.19729,-3.64639,0.479338,Q,Q
2023-03-15 13:03:53:327,0,-2.19308,-3.65682,0.475834,Q,Q
2023-03-15 13:03:53:337,0,-2.18759,-3.66387,0.475784,Q,Q
2023-03-15 13:03:53:347,0,-2.1886,-3.66675,0.474267,Q,Q
2023-03-15 13:03:53:357,0,-2.19416,-3.66817,0.47447,Q,Q
2023-03-15 13:03:53:367,0,-2.20939,-3.67077,0.473569,Q,Q
2023-03-15 13:03:53:378,0,-2.23114,-3.67149,0.47298,Q,Q
2023-03-15 13:03:53:388,0,-2.23113,-3.67698,0.463129,Q,Q
2023-03-15 13:03:53:398,0,-2.22583,-3.68184,0.44776,Q,Q
2023-03-15 13:03:53:408,0,-2.22883,-3.68694,0.4306,Q,Q
2023-03-15 13:03:53:418,0,-2.24022,-3.69456,0.407845,Q,Q
2023-03-15 13:03:53:428,0,-2.24953,-3.69885,0.377273,Q,Q
2023-03-15 13:03:53:438,0,-2.24982,-3.70002,0.344691,Q,Q
2023-03-15 13:03:53:448,0,-2.24815,-3.70555,0.311218,Q,Q
2023-03-15 13:03:53:457,0,-2.24383,-3.71435,0.2755,Q,Q
2023-03-15 13:03:53:467,0,-2.24112,-3.72738,0.239544,Q,Q
2023-03-15 13:03:53:477,0,-2.22995,-3.73679,0.201265,Q,Q
2023-03-15 13:03:53:488,0,-2.2184,-3.74313,0.166349,Q,Q
2023-03-15 13:03:53:498,0,-2.207,-3.75144,0.131224,Q,Q
2023-03-15 13:03:53:508,0,-2.19112,-3.76424,0.0930621,Q,Q
2023-03-15 13:03:53:518,0,-2.17915,-3.77554,0.0581181,Q,Q
2023-03-15 13:03:53:528,0,-2.16809,-3.78964,0.0254073,Q,Q
2023-03-15 13:03:53:538,0,-2.15142,-3.80404,-0.0114734,Q,Q
2023-03-15 13:03:53:548,0,-2.13927,-3.82212,-0.0478792,Q,Q
2023-03-15 13:03:53:557,0,-2.12853,-3.84323,-0.0844609,Q,Q
2023-03-15 13:03:53:568,0,-2.11992,-3.86554,-0.122361,Q,Q
2023-03-15 13:03:53:578,0,-2.11313,-3.88534,-0.161006,Q,Q
2023-03-15 13:03:53:588,0,-2.10761,-3.90467,-0.195022,Q,Q
2023-03-15 13:03:53:598,0,-2.10615,-3.92532,-0.230155,Q,Q
2023-03-15 13:03:53:608,0,-2.10641,-3.94593,-0.260392,Q,Q
2023-03-15 13:03:53:618,0,-2.10619,-3.97015,-0.288252,Q,Q
2023-03-15 13:03:53:628,0,-2.10526,-3.99419,-0.316169,Q,Q
2023-03-15 13:03:53:638,0,-2.10369,-4.01606,-0.3452,Q,Q
2023-03-15 13:03:53:648,0,-2.10161,-4.02931,-0.37645,Q,Q
2023-03-15 13:03:53:658,0,-2.10268,-4.04257,-0.408044,Q,Q
2023-03-15 13:03:53:668,0,-2.10818,-4.05539,-0.437698,Q,Q
2023-03-15 13:03:53:678,0,-2.11642,-4.0721,-0.464282,Q,Q
2023-03-15 13:03:53:688,0,-2.12263,-4.09693,-0.488837,Q,Q
2023-03-15 13:03:53:698,0,-2.1322,-4.1222,-0.514519,Q,Q
2023-03-15 13:03:53:708,0,-2.14081,-4.1516,-0.540377,Q,Q
2023-03-15 13:03:53:718,0,-2.14697,-4.18787,-0.573282,Q,Q
2023-03-15 13:03:53:728,0,-2.14806,-4.21995,-0.612388,Q,Q
2023-03-15 13:03:53:738,0,-2.13927,-4.24985,-0.65474,Q,Q
2023-03-15 13:03:53:748,0,-2.12167,-4.27953,-0.703155,Q,Q
2023-03-15 13:03:53:758,0,-2.10035,-4.31577,-0.759025,Q,Q
2023-03-15 13:03:53:768,0,-2.07874,-4.35258,-0.82752,Q,Q
2023-03-15 13:03:53:778,0,-2.05701,-4.39233,-0.904888,Q,Q
2023-03-15 13:03:53:788,0,-2.0435,-4.43466,-0.993734,Q,Q
2023-03-15 13:03:53:798,0,-2.03628,-4.48048,-1.09208,Q,Q
2023-03-15 13:03:53:808,0,-2.04181,-4.52639,-1.20098,Q,Q
2023-03-15 13:03:53:818,0,-2.05642,-4.5741,-1.32186,Q,Q
2023-03-15 13:03:53:828,0,-2.07306,-4.61521,-1.4547,Q,Q
2023-03-15 13:03:53:837,0,-2.09123,-4.65419,-1.60263,Q,Q
2023-03-15 13:03:53:848,0,-2.10533,-4.69096,-1.76045,Q,Q
2023-03-15 13:03:53:858,0,-2.10374,-4.7233,-1.93229,Q,Q
2023-03-15 13:03:53:868,0,-2.09557,-4.74934,-2.11065,Q,Q
2023-03-15 13:03:53:878,0,-2.07999,-4.7719,-2.29793,Q,Q
2023-03-15 13:03:53:888,0,-2.0684,-4.78781,-2.49024,Q,Q
2023-03-15 13:03:53:898,0,-2.06653,-4.78972,-2.68571,Q,Q
2023-03-15 13:03:53:908,0,-2.08094,-4.78238,-2.87757,Q,Q
2023-03-15 13:03:53:918,0,-2.10735,-4.77195,-3.07148,Q,Q
2023-03-15 13:03:53:928,0,-2.15535,-4.76075,-3.26755,Q,Q
2023-03-15 13:03:53:938,0,-2.2166,-4.75097,-3.46123,Q,Q
2023-03-15 13:03:53:948,0,-2.28968,-4.74077,-3.65883,Q,Q
2023-03-15 13:03:53:958,0,-2.35632,-4.72417,-3.85605,Q,Q
2023-03-15 13:03:53:967,0,-2.41033,-4.7005,-4.05243,Q,Q
2023-03-15 13:03:53:977,0,-2.45264,-4.67375,-4.24937,Q,Q
2023-03-15 13:03:53:987,0,-2.47878,-4.64203,-4.44469,Q,Q
2023-03-15 13:03:53:998,0,-2.49003,-4.60749,-4.64031,Q,Q
2023-03-15 13:03:54:8,0,-2.49513,-4.56783,-4.82989,Q,Q
2023-03-15 13:03:54:18,0,-2.49366,-4.5274,-5.01984,Q,Q
2023-03-15 13:03:54:27,0,-2.49475,-4.48739,-5.20805,Q,Q
2023-03-15 13:03:54:37,0,-2.49782,-4.44481,-5.39372,Q,Q
2023-03-15 13:03:54:48,0,-2.4987,-4.39974,-5.5809,Q,Q
2023-03-15 13:03:54:58,0,-2.4947,-4.35717,-5.76889,Q,Q
2023-03-15 13:03:54:68,0,-2.48,-4.30635,-5.96172,Q,Q
2023-03-15 13:03:54:78,0,-2.44999,-4.2521,-6.15207,Q,Q
2023-03-15 13:03:54:88,0,-2.40837,-4.19641,-6.33908,Q,Q
2023-03-15 13:03:54:98,0,-2.3517,-4.13772,-6.52709,Q,Q
2023-03-15 13:03:54:108,0,-2.29051,-4.08316,-6.70822,Q,Q
2023-03-15 13:03:54:118,0,-2.22922,-4.03358,-6.88549,Q,Q
2023-03-15 13:03:54:128,0,-2.16742,-3.98944,-7.05717,Q,Q
2023-03-15 13:03:54:137,0,-2.10811,-3.9409,-7.22079,Q,Q
2023-03-15 13:03:54:147,0,-2.04661,-3.89631,-7.38292,Q,Q
2023-03-15 13:03:54:158,0,-1.9788,-3.84428,-7.53908,Q,Q
2023-03-15 13:03:54:168,0,-1.90292,-3.78809,-7.69179,Q,Q
2023-03-15 13:03:54:178,0,-1.8148,-3.72746,-7.83414,Q,Q
2023-03-15 13:03:54:188,0,-1.72199,-3.66097,-7.97219,Q,Q
2023-03-15 13:03:54:198,0,-1.62024,-3.59381,-8.1072,Q,Q
2023-03-15 13:03:54:208,0,-1.52471,-3.52363,-8.23787,Q,Q
2023-03-15 13:03:54:218,0,-1.43172,-3.45127,-8.36576,Q,Q
2023-03-15 13:03:54:228,0,-1.34074,-3.37885,-8.4962,Q,Q
2023-03-15 13:03:54:238,0,-1.2467,-3.30382,-8.62271,Q,Q
2023-03-15 13:03:54:248,0,-1.15519,-3.23153,-8.74653,Q,Q
2023-03-15 13:03:54:258,0,-1.05527,-3.16896,-8.86865,Q,Q
2023-03-15 13:03:54:268,0,-0.955831,-3.10275,-8.98783,Q,Q
2023-03-15 13:03:54:278,0,-0.845931,-3.03065,-9.10683,Q,Q
2023-03-15 13:03:54:288,0,-0.72003,-2.9591,-9.23047,Q,Q
2023-03-15 13:03:54:298,0,-0.595001,-2.88617,-9.35232,Q,Q
2023-03-15 13:03:54:308,0,-0.462826,-2.81033,-9.47536,Q,Q
2023-03-15 13:03:54:318,0,-0.331127,-2.73809,-9.60388,Q,Q
2023-03-15 13:03:54:328,0,-0.185008,-2.67236,-9.7374,Q,Q
2023-03-15 13:03:54:338,0,-0.0255622,-2.61658,-9.87657,Q,Q
2023-03-15 13:03:54:348,0,0.156957,-2.56816,-10.0211,Q,Q
2023-03-15 13:03:54:357,0,0.358251,-2.52999,-10.1617,Q,Q
2023-03-15 13:03:54:367,0,0.577337,-2.50105,-10.2933,Q,Q
2023-03-15 13:03:54:378,0,0.820182,-2.48085,-10.4216,Q,Q
2023-03-15 13:03:54:387,0,1.08208,-2.4747,-10.5407,Q,Q
2023-03-15 13:03:54:398,0,1.3528,-2.4749,-10.6472,Q,Q
2023-03-15 13:03:54:408,0,1.62395,-2.47496,-10.7453,Q,Q
2023-03-15 13:03:54:418,0,1.8918,-2.47864,-10.8384,Q,Q
2023-03-15 13:03:54:428,0,2.15691,-2.48297,-10.918,Q,Q
2023-03-15 13:03:54:438,0,2.40737,-2.47891,-10.9813,Q,Q
2023-03-15 13:03:54:448,0,2.63029,-2.4715,-11.0322,Q,Q
2023-03-15 13:03:54:458,0,2.82913,-2.46782,-11.0655,Q,Q
2023-03-15 13:03:54:468,0,3.00175,-2.45948,-11.0839,Q,Q
2023-03-15 13:03:54:477,0,3.1578,-2.44281,-11.0996,Q,Q
2023-03-15 13:03:54:488,0,3.30371,-2.42058,-11.1004,Q,Q
2023-03-15 13:03:54:497,0,3.44332,-2.39259,-11.0922,Q,Q
2023-03-15 13:03:54:508,0,3.56743,-2.36343,-11.074,Q,Q
2023-03-15 13:03:54:518,0,3.67656,-2.32944,-11.0465,Q,Q
2023-03-15 13:03:54:528,0,3.77263,-2.29116,-11.0147,Q,Q
2023-03-15 13:03:54:538,0,3.86307,-2.25003,-10.9841,Q,Q
2023-03-15 13:03:54:548,0,3.93542,-2.20096,-10.9525,Q,Q
2023-03-15 13:03:54:558,0,3.98597,-2.1411,-10.9215,Q,Q
2023-03-15 13:03:54:568,0,4.01779,-2.0762,-10.8984,Q,Q
2023-03-15 13:03:54:578,0,4.01978,-2.00002,-10.8743,Q,Q
2023-03-15 13:03:54:588,0,4.00835,-1.92131,-10.8544,Q,Q
2023-03-15 13:03:54:598,0,3.98398,-1.84118,-10.8411,Q,Q
2023-03-15 13:03:54:608,0,3.94947,-1.76234,-10.8341,Q,Q
2023-03-15 13:03:54:618,0,3.90287,-1.68188,-10.8315,Q,Q
2023-03-15 13:03:54:628,0,3.84242,-1.59927,-10.8339,Q,Q
2023-03-15 13:03:54:638,0,3.77897,-1.51753,-10.8476,Q,Q
2023-03-15 13:03:54:647,0,3.71891,-1.43412,-10.8678,Q,Q
2023-03-15 13:03:54:657,0,3.65954,-1.34341,-10.8953,Q,Q
2023-03-15 13:03:54:668,0,3.59927,-1.2458,-10.9285,Q,Q
2023-03-15 13:03:54:678,0,3.53813,-1.14383,-10.9633,Q,Q
2023-03-15 13:03:54:688,0,3.47132,-1.04272,-11.0002,Q,Q
2023-03-15 13:03:54:698,0,3.39773,-0.941689,-11.0335,Q,Q
2023-03-15 13:03:54:708,0,3.31558,-0.83014,-11.0668,Q,Q
2023-03-15 13:03:54:718,0,3.22341,-0.725893,-11.0943,Q,Q
2023-03-15 13:03:54:728,0,3.12859,-0.624824,-11.1192,Q,Q
2023-03-15 13:03:54:738,0,3.04019,-0.527337,-11.1418,Q,Q
2023-03-15 13:03:54:747,0,2.95887,-0.434355,-11.1606,Q,Q
2023-03-15 13:03:54:758,0,2.88561,-0.341964,-11.1666,Q,Q
2023-03-15 13:03:54:768,0,2.8176,-0.252153,-11.1692,Q,Q
2023-03-15 13:03:54:778,0,2.75429,-0.16652,-11.1705,Q,Q
2023-03-15 13:03:54:788,0,2.68593,-0.0849583,-11.1676,Q,Q
2023-03-15 13:03:54:798,0,2.6121,-0.0159609,-11.1687,Q,Q
2023-03-15 13:03:54:808,0,2.54185,0.0369877,-11.1718,Q,Q
2023-03-15 13:03:54:818,0,2.47967,0.0789938,-11.1774,Q,Q
2023-03-15 13:03:54:828,0,2.4347,0.109606,-11.1804,Q,Q
2023-03-15 13:03:54:837,0,2.39034,0.120713,-11.1815,Q,Q
2023-03-15 13:03:54:847,0,2.33669,0.128436,-11.1821,Q,Q
2023-03-15 13:03:54:857,0,2.27959,0.131763,-11.1804,Q,Q
2023-03-15 13:03:54:868,0,2.21809,0.130925,-11.1778,Q,Q
2023-03-15 13:03:54:878,0,2.15469,0.113861,-11.1826,Q,Q
2023-03-15 13:03:54:887,0,2.08723,0.0733752,-11.1962,Q,Q
2023-03-15 13:03:54:898,0,2.01511,0.0398555,-11.2174,Q,Q
2023-03-15 13:03:54:908,0,1.94893,0.00606961,-11.25,Q,Q
2023-03-15 13:03:54:918,0,1.88809,-0.0417313,-11.2955,Q,Q
2023-03-15 13:03:54:928,0,1.83043,-0.090364,-11.3463,Q,Q
2023-03-15 13:03:54:938,0,1.78082,-0.135699,-11.4028,Q,Q
2023-03-15 13:03:54:948,0,1.75506,-0.19303,-11.4659,Q,Q
2023-03-15 13:03:54:958,0,1.75941,-0.271683,-11.5253,Q,Q
2023-03-15 13:03:54:968,0,1.79661,-0.36989,-11.5721,Q,Q
2023-03-15 13:03:54:978,0,1.86156,-0.479872,-11.6205,Q,Q
2023-03-15 13:03:54:987,0,1.95091,-0.586341,-11.6697,Q,Q
2023-03-15 13:03:54:997,0,2.05402,-0.668574,-11.7114,Q,Q
2023-03-15 13:03:55:7,0,2.168,-0.735204,-11.7404,Q,Q
2023-03-15 13:03:55:18,0,2.287,-0.792736,-11.7576,Q,Q
2023-03-15 13:03:55:28,0,2.39929,-0.844484,-11.7565,Q,Q
2023-03-15 13:03:55:38,0,2.49186,-0.895571,-11.7358,Q,Q
2023-03-15 13:03:55:48,0,2.57137,-0.954197,-11.6938,Q,Q
2023-03-15 13:03:55:58,0,2.62313,-1.02644,-11.633,Q,Q
2023-03-15 13:03:55:68,0,2.65016,-1.1158,-11.5484,Q,Q
2023-03-15 13:03:55:78,0,2.65301,-1.21803,-11.4363,Q,Q
2023-03-15 13:03:55:88,0,2.63266,-1.33033,-11.3062,Q,Q
2023-03-15 13:03:55:98,0,2.59375,-1.44649,-11.1587,Q,Q
2023-03-15 13:03:55:108,0,2.53864,-1.56593,-10.9953,Q,Q
2023-03-15 13:03:55:118,0,2.47167,-1.69318,-10.82,Q,Q
2023-03-15 13:03:55:128,0,2.39567,-1.82493,-10.6326,Q,Q
2023-03-15 13:03:55:138,0,2.31015,-1.95752,-10.4427,Q,Q
2023-03-15 13:03:55:147,0,2.22622,-2.09505,-10.2524,Q,Q
2023-03-15 13:03:55:158,0,2.13988,-2.2294,-10.0551,Q,Q
2023-03-15 13:03:55:168,0,2.06101,-2.36068,-9.86304,Q,Q
2023-03-15 13:03:55:177,0,1.99259,-2.48961,-9.66885,Q,Q
2023-03-15 13:03:55:188,0,1.92618,-2.61518,-9.47476,Q,Q
2023-03-15 13:03:55:198,0,1.86455,-2.7386,-9.27956,Q,Q
2023-03-15 13:03:55:208,0,1.79976,-2.85481,-9.08661,Q,Q
2023-03-15 13:03:55:218,0,1.72504,-2.9704,-8.89805,Q,Q
2023-03-15 13:03:55:227,0,1.64236,-3.083,-8.71596,Q,Q
2023-03-15 13:03:55:238,0,1.55264,-3.19338,-8.54245,Q,Q
2023-03-15 13:03:55:248,0,1.45761,-3.29973,-8.3772,Q,Q
2023-03-15 13:03:55:258,0,1.35881,-3.40106,-8.22467,Q,Q
2023-03-15 13:03:55:268,0,1.26654,-3.49292,-8.08043,Q,Q
2023-03-15 13:03:55:278,0,1.18071,-3.58103,-7.94758,Q,Q
2023-03-15 13:03:55:287,0,1.09632,-3.65949,-7.82359,Q,Q
2023-03-15 13:03:55:298,0,1.01327,-3.7285,-7.71015,Q,Q
2023-03-15 13:03:55:308,0,0.934334,-3.78211,-7.60827,Q,Q
2023-03-15 13:03:55:318,0,0.853409,-3.82785,-7.5134,Q,Q
2023-03-15 13:03:55:328,0,0.771718,-3.87178,-7.42783,Q,Q
2023-03-15 13:03:55:337,0,0.69267,-3.91148,-7.3469,Q,Q
2023-03-15 13:03:55:347,0,0.615621,-3.95068,-7.27625,Q,Q
2023-03-15 13:03:55:357,0,0.532942,-3.98783,-7.2129,Q,Q
2023-03-15 13:03:55:368,0,0.450865,-4.0165,-7.15212,Q,Q
2023-03-15 13:03:55:378,0,0.368646,-4.04057,-7.10053,Q,Q
2023-03-15 13:03:55:388,0,0.284042,-4.05706,-7.05329,Q,Q
2023-03-15 13:03:55:398,0,0.2051,-4.07577,-7.01528,Q,Q
2023-03-15 13:03:55:408,0,0.129319,-4.08978,-6.97863,Q,Q
2023-03-15 13:03:55:417,0,0.0577961,-4.10113,-6.9401,Q,Q
2023-03-15 13:03:55:428,0,-0.014212,-4.11167,-6.90028,Q,Q
2023-03-15 13:03:55:438,0,-0.0893033,-4.11397,-6.86203,Q,Q
2023-03-15 13:03:55:448,0,-0.162153,-4.11148,-6.82221,Q,Q
2023-03-15 13:03:55:458,0,-0.232124,-4.10008,-6.77858,Q,Q
2023-03-15 13:03:55:468,0,-0.296095,-4.08521,-6.73159,Q,Q
2023-03-15 13:03:55:478,0,-0.357078,-4.07203,-6.6798,Q,Q
2023-03-15 13:03:55:488,0,-0.407568,-4.05883,-6.61788,Q,Q
2023-03-15 13:03:55:498,0,-0.44787,-4.0451,-6.54621,Q,Q
2023-03-15 13:03:55:507,0,-0.485182,-4.03819,-6.4734,Q,Q
2023-03-15 13:03:55:517,0,-0.522928,-4.03314,-6.39414,Q,Q
2023-03-15 13:03:55:527,0,-0.555587,-4.02884,-6.31668,Q,Q
