Timestamp_cmd,imu_cmd,roll_delta,pitch_delta,yaw_delta,voice_type,voice_length
2023-03-14 22:07:00:739,0,-9.42014,-3.64402,7.52736,Q,Q
2023-03-14 22:07:00:748,0,-9.43398,-3.64571,7.53611,Q,Q
2023-03-14 22:07:00:757,0,-9.44338,-3.64386,7.53747,Q,Q
2023-03-14 22:07:00:768,0,-9.44753,-3.64656,7.53614,Q,Q
2023-03-14 22:07:00:778,0,-9.446,-3.64936,7.5332,Q,Q
2023-03-14 22:07:00:788,0,-9.44756,-3.65599,7.53003,Q,Q
2023-03-14 22:07:00:798,0,-9.45058,-3.66873,7.52839,Q,Q
2023-03-14 22:07:00:808,0,-9.45836,-3.67696,7.52653,Q,Q
2023-03-14 22:07:00:818,0,-9.46931,-3.68785,7.52766,Q,Q
2023-03-14 22:07:00:828,0,-9.47967,-3.69828,7.53265,Q,Q
2023-03-14 22:07:00:838,0,-9.48594,-3.70828,7.54036,Q,Q
2023-03-14 22:07:00:848,0,-9.48443,-3.71874,7.549,Q,Q
2023-03-14 22:07:00:858,0,-9.48147,-3.72643,7.5623,Q,Q
2023-03-14 22:07:00:868,0,-9.47187,-3.73711,7.58124,Q,Q
2023-03-14 22:07:00:878,0,-9.45752,-3.74384,7.59579,Q,Q
2023-03-14 22:07:00:888,0,-9.44516,-3.74974,7.61298,Q,Q
2023-03-14 22:07:00:898,0,-9.43319,-3.75802,7.62885,Q,Q
2023-03-14 22:07:00:908,0,-9.42382,-3.76425,7.64404,Q,Q
2023-03-14 22:07:00:918,0,-9.41358,-3.76716,7.65417,Q,Q
2023-03-14 22:07:00:928,0,-9.40364,-3.77322,7.65941,Q,Q
2023-03-14 22:07:00:938,0,-9.39062,-3.77905,7.65959,Q,Q
2023-03-14 22:07:00:948,0,-9.37554,-3.78505,7.65575,Q,Q
2023-03-14 22:07:00:958,0,-9.35117,-3.7932,7.64655,Q,Q
2023-03-14 22:07:00:968,0,-9.32909,-3.79888,7.63809,Q,Q
2023-03-14 22:07:00:978,0,-9.30744,-3.80041,7.62479,Q,Q
2023-03-14 22:07:00:988,0,-9.29461,-3.79731,7.60919,Q,Q
2023-03-14 22:07:00:998,0,-9.28426,-3.79107,7.58779,Q,Q
2023-03-14 22:07:01:8,0,-9.27475,-3.78362,7.57099,Q,Q
2023-03-14 22:07:01:18,0,-9.26803,-3.77566,7.55866,Q,Q
2023-03-14 22:07:01:28,0,-9.26745,-3.76616,7.54711,Q,Q
2023-03-14 22:07:01:38,0,-9.26836,-3.75561,7.54173,Q,Q
2023-03-14 22:07:01:48,0,-9.26898,-3.75033,7.53636,Q,Q
2023-03-14 22:07:01:58,0,-9.27235,-3.74535,7.53507,Q,Q
2023-03-14 22:07:01:68,0,-9.27769,-3.74356,7.54282,Q,Q
2023-03-14 22:07:01:78,0,-9.28731,-3.74228,7.55527,Q,Q
2023-03-14 22:07:01:88,0,-9.29968,-3.74854,7.57533,Q,Q
2023-03-14 22:07:01:98,0,-9.31489,-3.75679,7.60096,Q,Q
2023-03-14 22:07:01:108,0,-9.33751,-3.76633,7.63234,Q,Q
2023-03-14 22:07:01:118,0,-9.3611,-3.77816,7.66982,Q,Q
2023-03-14 22:07:01:128,0,-9.39047,-3.78995,7.7124,Q,Q
2023-03-14 22:07:01:138,0,-9.4255,-3.80408,7.76045,Q,Q
2023-03-14 22:07:01:148,0,-9.46065,-3.82329,7.81185,Q,Q
2023-03-14 22:07:01:158,0,-9.4918,-3.85085,7.86747,Q,Q
2023-03-14 22:07:01:168,0,-9.51971,-3.87685,7.92331,Q,Q
2023-03-14 22:07:01:178,0,-9.54194,-3.90749,7.97452,Q,Q
2023-03-14 22:07:01:188,0,-9.55969,-3.93643,8.01946,Q,Q
2023-03-14 22:07:01:198,0,-9.57485,-3.96662,8.06229,Q,Q
2023-03-14 22:07:01:208,0,-9.58724,-3.99631,8.09739,Q,Q
2023-03-14 22:07:01:218,0,-9.59554,-4.02613,8.13557,Q,Q
2023-03-14 22:07:01:228,0,-9.60691,-4.0568,8.172,Q,Q
2023-03-14 22:07:01:238,0,-9.6158,-4.08053,8.20761,Q,Q
2023-03-14 22:07:01:248,0,-9.62664,-4.10091,8.24231,Q,Q
2023-03-14 22:07:01:258,0,-9.63614,-4.11719,8.27637,Q,Q
2023-03-14 22:07:01:268,0,-9.64489,-4.13106,8.31211,Q,Q
2023-03-14 22:07:01:278,0,-9.65391,-4.13535,8.34721,Q,Q
2023-03-14 22:07:01:288,0,-9.66075,-4.14101,8.38352,Q,Q
2023-03-14 22:07:01:298,0,-9.662,-4.13706,8.41333,Q,Q
2023-03-14 22:07:01:308,0,-9.66596,-4.1311,8.44452,Q,Q
2023-03-14 22:07:01:318,0,-9.6736,-4.12201,8.46991,Q,Q
2023-03-14 22:07:01:328,0,-9.67824,-4.10938,8.49254,Q,Q
2023-03-14 22:07:01:338,0,-9.68141,-4.09551,8.51649,Q,Q
2023-03-14 22:07:01:348,0,-9.68368,-4.0784,8.53245,Q,Q
2023-03-14 22:07:01:358,0,-9.68571,-4.06408,8.54849,Q,Q
2023-03-14 22:07:01:368,0,-9.6883,-4.04438,8.55826,Q,Q
2023-03-14 22:07:01:378,0,-9.6891,-4.02437,8.56844,Q,Q
2023-03-14 22:07:01:388,0,-9.69272,-4.00809,8.57958,Q,Q
2023-03-14 22:07:01:398,0,-9.69762,-3.99353,8.58389,Q,Q
2023-03-14 22:07:01:408,0,-9.7052,-3.98331,8.58749,Q,Q
2023-03-14 22:07:01:418,0,-9.71596,-3.98466,8.59386,Q,Q
2023-03-14 22:07:01:428,0,-9.72637,-3.98837,8.60273,Q,Q
2023-03-14 22:07:01:438,0,-9.73789,-3.99607,8.60856,Q,Q
2023-03-14 22:07:01:448,0,-9.75253,-4.00427,8.61501,Q,Q
2023-03-14 22:07:01:458,0,-9.76908,-4.0121,8.62691,Q,Q
2023-03-14 22:07:01:468,0,-9.78588,-4.01647,8.63925,Q,Q
2023-03-14 22:07:01:478,0,-9.80558,-4.02619,8.65682,Q,Q
2023-03-14 22:07:01:488,0,-9.8282,-4.03487,8.68076,Q,Q
2023-03-14 22:07:01:498,0,-9.8483,-4.0397,8.70413,Q,Q
2023-03-14 22:07:01:508,0,-9.86415,-4.04499,8.73374,Q,Q
2023-03-14 22:07:01:518,0,-9.87482,-4.04911,8.76188,Q,Q
2023-03-14 22:07:01:528,0,-9.8864,-4.05129,8.79107,Q,Q
2023-03-14 22:07:01:538,0,-9.89605,-4.05482,8.82347,Q,Q
2023-03-14 22:07:01:548,0,-9.90879,-4.05736,8.85412,Q,Q
2023-03-14 22:07:01:558,0,-9.92578,-4.0569,8.8803,Q,Q
2023-03-14 22:07:01:568,0,-9.94066,-4.06124,8.90546,Q,Q
2023-03-14 22:07:01:578,0,-9.95887,-4.0654,8.92916,Q,Q
2023-03-14 22:07:01:588,0,-9.974,-4.07022,8.95002,Q,Q
2023-03-14 22:07:01:598,0,-9.98836,-4.07374,8.96349,Q,Q
2023-03-14 22:07:01:608,0,-10.0017,-4.0773,8.97329,Q,Q
2023-03-14 22:07:01:618,0,-10.0129,-4.08123,8.98276,Q,Q
2023-03-14 22:07:01:628,0,-10.0219,-4.08965,8.99094,Q,Q
2023-03-14 22:07:01:638,0,-10.0289,-4.09909,8.99957,Q,Q
2023-03-14 22:07:01:648,0,-10.0345,-4.10476,9.00485,Q,Q
2023-03-14 22:07:01:658,0,-10.0442,-4.10869,9.00666,Q,Q
2023-03-14 22:07:01:668,0,-10.0542,-4.11131,9.00961,Q,Q
2023-03-14 22:07:01:678,0,-10.0635,-4.11636,9.01644,Q,Q
2023-03-14 22:07:01:688,0,-10.0705,-4.12603,9.02438,Q,Q
2023-03-14 22:07:01:698,0,-10.0812,-4.13033,9.02775,Q,Q
2023-03-14 22:07:01:708,0,-10.089,-4.13398,9.03094,Q,Q
2023-03-14 22:07:01:718,0,-10.0962,-4.13582,9.03294,Q,Q
2023-03-14 22:07:01:728,0,-10.1035,-4.13576,9.03694,Q,Q
2023-03-14 22:07:01:738,0,-10.1106,-4.13398,9.04509,Q,Q
2023-03-14 22:07:01:748,0,-10.1193,-4.13107,9.05004,Q,Q
2023-03-14 22:07:01:758,0,-10.1249,-4.12884,9.05655,Q,Q
2023-03-14 22:07:01:768,0,-10.1317,-4.12279,9.06289,Q,Q
2023-03-14 22:07:01:778,0,-10.136,-4.11828,9.06826,Q,Q
2023-03-14 22:07:01:788,0,-10.1385,-4.12101,9.07577,Q,Q
2023-03-14 22:07:01:798,0,-10.1419,-4.12049,9.07862,Q,Q
2023-03-14 22:07:01:808,0,-10.1424,-4.12082,9.07937,Q,Q
2023-03-14 22:07:01:818,0,-10.1433,-4.12817,9.07718,Q,Q
2023-03-14 22:07:01:828,0,-10.1434,-4.12623,9.07334,Q,Q
2023-03-14 22:07:01:838,0,-10.1441,-4.12701,9.06639,Q,Q
2023-03-14 22:07:01:848,0,-10.1437,-4.12856,9.06177,Q,Q
2023-03-14 22:07:01:858,0,-10.1392,-4.13172,9.05811,Q,Q
2023-03-14 22:07:01:868,0,-10.1386,-4.13092,9.0563,Q,Q
2023-03-14 22:07:01:878,0,-10.1443,-4.13231,9.05983,Q,Q
2023-03-14 22:07:01:888,0,-10.1441,-4.13322,9.06283,Q,Q
2023-03-14 22:07:01:898,0,-10.1495,-4.13414,9.06856,Q,Q
2023-03-14 22:07:01:908,0,-10.1567,-4.13155,9.07868,Q,Q
2023-03-14 22:07:01:918,0,-10.1638,-4.12805,9.08759,Q,Q
2023-03-14 22:07:01:928,0,-10.1682,-4.12574,9.09623,Q,Q
2023-03-14 22:07:01:938,0,-10.1739,-4.12549,9.10358,Q,Q
2023-03-14 22:07:01:948,0,-10.173,-4.12653,9.10736,Q,Q
2023-03-14 22:07:01:958,0,-10.1739,-4.12837,9.11122,Q,Q
2023-03-14 22:07:01:968,0,-10.1736,-4.12905,9.11131,Q,Q
2023-03-14 22:07:01:978,0,-10.1768,-4.13334,9.10643,Q,Q
2023-03-14 22:07:01:988,0,-10.181,-4.13841,9.09947,Q,Q
2023-03-14 22:07:01:998,0,-10.1824,-4.14206,9.09285,Q,Q
2023-03-14 22:07:02:8,0,-10.1872,-4.14418,9.08508,Q,Q
2023-03-14 22:07:02:18,0,-10.189,-4.14945,9.07599,Q,Q
2023-03-14 22:07:02:28,0,-10.1884,-4.15753,9.0676,Q,Q
2023-03-14 22:07:02:38,0,-10.1875,-4.16579,9.05505,Q,Q
2023-03-14 22:07:02:48,0,-10.1826,-4.17426,9.04239,Q,Q
2023-03-14 22:07:02:58,0,-10.1788,-4.18079,9.02614,Q,Q
2023-03-14 22:07:02:68,0,-10.1716,-4.18381,9.00313,Q,Q
2023-03-14 22:07:02:78,0,-10.1606,-4.18036,8.9719,Q,Q
2023-03-14 22:07:02:88,0,-10.1537,-4.16805,8.94359,Q,Q
2023-03-14 22:07:02:98,0,-10.1469,-4.15139,8.9166,Q,Q
2023-03-14 22:07:02:108,0,-10.1523,-4.1378,8.8945,Q,Q
2023-03-14 22:07:02:118,0,-10.1669,-4.1251,8.88026,Q,Q
2023-03-14 22:07:02:128,0,-10.187,-4.1169,8.87587,Q,Q
2023-03-14 22:07:02:138,0,-10.2115,-4.11572,8.87871,Q,Q
2023-03-14 22:07:02:148,0,-10.2353,-4.118,8.89091,Q,Q
2023-03-14 22:07:02:158,0,-10.261,-4.11612,8.90941,Q,Q
2023-03-14 22:07:02:168,0,-10.2829,-4.11527,8.93473,Q,Q
2023-03-14 22:07:02:178,0,-10.3012,-4.11536,8.96144,Q,Q
2023-03-14 22:07:02:188,0,-10.3163,-4.11334,8.99158,Q,Q
2023-03-14 22:07:02:198,0,-10.329,-4.11093,9.02277,Q,Q
2023-03-14 22:07:02:208,0,-10.3417,-4.10839,9.04443,Q,Q
2023-03-14 22:07:02:218,0,-10.3506,-4.10223,9.05383,Q,Q
2023-03-14 22:07:02:228,0,-10.3581,-4.09724,9.05019,Q,Q
2023-03-14 22:07:02:238,0,-10.3718,-4.09028,9.03705,Q,Q
2023-03-14 22:07:02:248,0,-10.3873,-4.07824,9.01766,Q,Q
2023-03-14 22:07:02:258,0,-10.4036,-4.0645,8.98752,Q,Q
2023-03-14 22:07:02:268,0,-10.4218,-4.05449,8.94956,Q,Q
2023-03-14 22:07:02:278,0,-10.4414,-4.04371,8.9041,Q,Q
2023-03-14 22:07:02:288,0,-10.4645,-4.03598,8.85573,Q,Q
2023-03-14 22:07:02:298,0,-10.4886,-4.02584,8.80788,Q,Q
2023-03-14 22:07:02:308,0,-10.5207,-4.02188,8.76068,Q,Q
2023-03-14 22:07:02:318,0,-10.553,-4.02297,8.71813,Q,Q
2023-03-14 22:07:02:328,0,-10.5878,-4.03253,8.68274,Q,Q
2023-03-14 22:07:02:338,0,-10.621,-4.05784,8.65754,Q,Q
2023-03-14 22:07:02:348,0,-10.653,-4.08914,8.64162,Q,Q
2023-03-14 22:07:02:358,0,-10.6818,-4.13039,8.63288,Q,Q
2023-03-14 22:07:02:368,0,-10.704,-4.17449,8.62589,Q,Q
2023-03-14 22:07:02:378,0,-10.7223,-4.2147,8.61419,Q,Q
2023-03-14 22:07:02:388,0,-10.7316,-4.25275,8.60469,Q,Q
2023-03-14 22:07:02:397,0,-10.7256,-4.28637,8.59094,Q,Q
2023-03-14 22:07:02:407,0,-10.7052,-4.31701,8.57473,Q,Q
2023-03-14 22:07:02:417,0,-10.6726,-4.34047,8.55708,Q,Q
2023-03-14 22:07:02:427,0,-10.6347,-4.35401,8.53718,Q,Q
2023-03-14 22:07:02:437,0,-10.596,-4.35961,8.51321,Q,Q
2023-03-14 22:07:02:447,0,-10.5599,-4.35889,8.48366,Q,Q
2023-03-14 22:07:02:458,0,-10.5231,-4.34545,8.45016,Q,Q
2023-03-14 22:07:02:467,0,-10.4935,-4.32695,8.41115,Q,Q
2023-03-14 22:07:02:477,0,-10.4687,-4.30109,8.36688,Q,Q
2023-03-14 22:07:02:488,0,-10.4529,-4.26629,8.32266,Q,Q
2023-03-14 22:07:02:497,0,-10.4491,-4.22941,8.27413,Q,Q
2023-03-14 22:07:02:508,0,-10.4552,-4.19051,8.2339,Q,Q
2023-03-14 22:07:02:517,0,-10.4748,-4.15013,8.19502,Q,Q
2023-03-14 22:07:02:527,0,-10.5043,-4.11583,8.15911,Q,Q
2023-03-14 22:07:02:538,0,-10.5442,-4.08487,8.12324,Q,Q
2023-03-14 22:07:02:547,0,-10.5813,-4.06267,8.08261,Q,Q
2023-03-14 22:07:02:557,0,-10.6105,-4.03905,8.03408,Q,Q
2023-03-14 22:07:02:567,0,-10.6392,-4.009,7.97658,Q,Q
2023-03-14 22:07:02:577,0,-10.6595,-3.97358,7.90184,Q,Q
2023-03-14 22:07:02:588,0,-10.6736,-3.93462,7.81426,Q,Q
2023-03-14 22:07:02:598,0,-10.6803,-3.89817,7.72201,Q,Q
2023-03-14 22:07:02:607,0,-10.6857,-3.86638,7.62702,Q,Q
2023-03-14 22:07:02:618,0,-10.6863,-3.83841,7.52596,Q,Q
2023-03-14 22:07:02:628,0,-10.693,-3.81447,7.41899,Q,Q
2023-03-14 22:07:02:638,0,-10.6951,-3.79393,7.30839,Q,Q
2023-03-14 22:07:02:648,0,-10.6938,-3.78103,7.19953,Q,Q
2023-03-14 22:07:02:658,0,-10.6877,-3.77346,7.08957,Q,Q
2023-03-14 22:07:02:668,0,-10.6693,-3.7636,6.98402,Q,Q
2023-03-14 22:07:02:678,0,-10.6454,-3.75607,6.8774,Q,Q
2023-03-14 22:07:02:688,0,-10.6145,-3.74032,6.77484,Q,Q
2023-03-14 22:07:02:698,0,-10.5729,-3.72065,6.67376,Q,Q
2023-03-14 22:07:02:708,0,-10.5308,-3.70096,6.57518,Q,Q
2023-03-14 22:07:02:718,0,-10.4811,-3.67818,6.48055,Q,Q
2023-03-14 22:07:02:728,0,-10.4334,-3.65778,6.38606,Q,Q
2023-03-14 22:07:02:738,0,-10.3871,-3.639,6.29777,Q,Q
2023-03-14 22:07:02:748,0,-10.3476,-3.61586,6.21665,Q,Q
2023-03-14 22:07:02:758,0,-10.3144,-3.5948,6.14472,Q,Q
2023-03-14 22:07:02:768,0,-10.2893,-3.5756,6.07966,Q,Q
2023-03-14 22:07:02:778,0,-10.2655,-3.56283,6.02716,Q,Q
2023-03-14 22:07:02:788,0,-10.2464,-3.55142,5.98011,Q,Q
2023-03-14 22:07:02:798,0,-10.2309,-3.53986,5.94418,Q,Q
2023-03-14 22:07:02:808,0,-10.2107,-3.53012,5.91503,Q,Q
2023-03-14 22:07:02:818,0,-10.1958,-3.52265,5.89652,Q,Q
2023-03-14 22:07:02:828,0,-10.1813,-3.51663,5.88441,Q,Q
2023-03-14 22:07:02:838,0,-10.1717,-3.50864,5.87909,Q,Q
2023-03-14 22:07:02:848,0,-10.1621,-3.50254,5.8792,Q,Q
2023-03-14 22:07:02:858,0,-10.1576,-3.49518,5.88137,Q,Q
2023-03-14 22:07:02:868,0,-10.1546,-3.48907,5.88699,Q,Q
2023-03-14 22:07:02:878,0,-10.1522,-3.48933,5.89239,Q,Q
2023-03-14 22:07:02:888,0,-10.1544,-3.48962,5.9023,Q,Q
2023-03-14 22:07:02:898,0,-10.1562,-3.49288,5.91355,Q,Q
2023-03-14 22:07:02:908,0,-10.1619,-3.4991,5.9225,Q,Q
2023-03-14 22:07:02:918,0,-10.1706,-3.51292,5.93465,Q,Q
2023-03-14 22:07:02:928,0,-10.1806,-3.52942,5.94792,Q,Q
2023-03-14 22:07:02:938,0,-10.1919,-3.54453,5.9616,Q,Q
2023-03-14 22:07:02:948,0,-10.2018,-3.56095,5.97765,Q,Q
2023-03-14 22:07:02:958,0,-10.2114,-3.57586,5.99405,Q,Q
2023-03-14 22:07:02:968,0,-10.2199,-3.58955,6.01272,Q,Q
2023-03-14 22:07:02:978,0,-10.228,-3.60463,6.03066,Q,Q
2023-03-14 22:07:02:987,0,-10.2324,-3.61602,6.04344,Q,Q
2023-03-14 22:07:02:997,0,-10.2337,-3.62953,6.05623,Q,Q
2023-03-14 22:07:03:8,0,-10.2315,-3.63881,6.06674,Q,Q
2023-03-14 22:07:03:18,0,-10.2276,-3.64327,6.07259,Q,Q
2023-03-14 22:07:03:28,0,-10.2242,-3.64702,6.0807,Q,Q
2023-03-14 22:07:03:38,0,-10.2209,-3.6522,6.09198,Q,Q
2023-03-14 22:07:03:48,0,-10.2196,-3.6579,6.10292,Q,Q
2023-03-14 22:07:03:58,0,-10.2119,-3.66123,6.112,Q,Q
2023-03-14 22:07:03:68,0,-10.2017,-3.66359,6.11085,Q,Q
2023-03-14 22:07:03:78,0,-10.1828,-3.65949,6.10232,Q,Q
2023-03-14 22:07:03:88,0,-10.1605,-3.6523,6.08599,Q,Q
2023-03-14 22:07:03:98,0,-10.133,-3.64227,6.05794,Q,Q
2023-03-14 22:07:03:108,0,-10.1069,-3.62502,6.0207,Q,Q
2023-03-14 22:07:03:118,0,-10.0808,-3.60439,5.97581,Q,Q
2023-03-14 22:07:03:128,0,-10.0595,-3.58467,5.92834,Q,Q
2023-03-14 22:07:03:138,0,-10.0411,-3.56754,5.88133,Q,Q
2023-03-14 22:07:03:148,0,-10.0237,-3.55726,5.84407,Q,Q
2023-03-14 22:07:03:158,0,-10.0066,-3.55164,5.81462,Q,Q
2023-03-14 22:07:03:168,0,-9.9887,-3.5466,5.79293,Q,Q
2023-03-14 22:07:03:178,0,-9.9661,-3.53374,5.76542,Q,Q
2023-03-14 22:07:03:188,0,-9.93635,-3.50966,5.73751,Q,Q
2023-03-14 22:07:03:198,0,-9.91018,-3.47339,5.70716,Q,Q
2023-03-14 22:07:03:208,0,-9.89132,-3.43449,5.67422,Q,Q
2023-03-14 22:07:03:218,0,-9.87934,-3.3989,5.6419,Q,Q
2023-03-14 22:07:03:228,0,-9.87557,-3.37381,5.6097,Q,Q
2023-03-14 22:07:03:238,0,-9.87023,-3.36712,5.58721,Q,Q
2023-03-14 22:07:03:248,0,-9.86844,-3.37839,5.57366,Q,Q
2023-03-14 22:07:03:258,0,-9.88374,-3.40537,5.57485,Q,Q
2023-03-14 22:07:03:268,0,-9.91282,-3.44106,5.59274,Q,Q
2023-03-14 22:07:03:278,0,-9.94778,-3.47838,5.61682,Q,Q
2023-03-14 22:07:03:288,0,-9.97018,-3.51096,5.64351,Q,Q
2023-03-14 22:07:03:298,0,-9.97424,-3.53467,5.6751,Q,Q
2023-03-14 22:07:03:308,0,-9.96094,-3.55868,5.70849,Q,Q
2023-03-14 22:07:03:318,0,-9.92932,-3.5868,5.73885,Q,Q
2023-03-14 22:07:03:328,0,-9.89667,-3.6148,5.76173,Q,Q
2023-03-14 22:07:03:338,0,-9.8678,-3.64609,5.77345,Q,Q
2023-03-14 22:07:03:348,0,-9.85097,-3.67514,5.77095,Q,Q
2023-03-14 22:07:03:358,0,-9.84555,-3.70276,5.76476,Q,Q
2023-03-14 22:07:03:368,0,-9.8506,-3.73614,5.77209,Q,Q
2023-03-14 22:07:03:378,0,-9.87078,-3.77854,5.79148,Q,Q
2023-03-14 22:07:03:388,0,-9.91025,-3.82759,5.82021,Q,Q
2023-03-14 22:07:03:398,0,-9.95331,-3.87411,5.85272,Q,Q
2023-03-14 22:07:03:408,0,-10.0006,-3.91574,5.88901,Q,Q
2023-03-14 22:07:03:418,0,-10.0499,-3.95164,5.92731,Q,Q
2023-03-14 22:07:03:428,0,-10.1011,-3.98637,5.97038,Q,Q
2023-03-14 22:07:03:438,0,-10.1535,-4.01904,6.02609,Q,Q
2023-03-14 22:07:03:448,0,-10.2123,-4.0536,6.09527,Q,Q
2023-03-14 22:07:03:458,0,-10.2809,-4.0906,6.18162,Q,Q
2023-03-14 22:07:03:468,0,-10.3562,-4.13581,6.27586,Q,Q
2023-03-14 22:07:03:478,0,-10.4298,-4.18242,6.36882,Q,Q
2023-03-14 22:07:03:488,0,-10.4898,-4.22761,6.46047,Q,Q
2023-03-14 22:07:03:498,0,-10.5295,-4.26791,6.5355,Q,Q
2023-03-14 22:07:03:508,0,-10.5517,-4.30491,6.60423,Q,Q
2023-03-14 22:07:03:518,0,-10.5633,-4.32874,6.66553,Q,Q
2023-03-14 22:07:03:528,0,-10.5716,-4.34179,6.71458,Q,Q
2023-03-14 22:07:03:538,0,-10.584,-4.34767,6.75511,Q,Q
2023-03-14 22:07:03:548,0,-10.6137,-4.34861,6.79987,Q,Q
2023-03-14 22:07:03:558,0,-10.6581,-4.34732,6.84325,Q,Q
2023-03-14 22:07:03:568,0,-10.7097,-4.34606,6.88486,Q,Q
2023-03-14 22:07:03:578,0,-10.7621,-4.34485,6.92484,Q,Q
2023-03-14 22:07:03:588,0,-10.8124,-4.34366,6.95937,Q,Q
2023-03-14 22:07:03:598,0,-10.8639,-4.34398,6.98648,Q,Q
2023-03-14 22:07:03:608,0,-10.9059,-4.3439,7.009,Q,Q
2023-03-14 22:07:03:618,0,-10.9489,-4.33771,7.02691,Q,Q
2023-03-14 22:07:03:628,0,-10.9978,-4.33443,7.04359,Q,Q
2023-03-14 22:07:03:638,0,-11.058,-4.33602,7.06258,Q,Q
2023-03-14 22:07:03:648,0,-11.1301,-4.34691,7.08214,Q,Q
2023-03-14 22:07:03:658,0,-11.2039,-4.3634,7.10523,Q,Q
2023-03-14 22:07:03:668,0,-11.2601,-4.38433,7.12498,Q,Q
2023-03-14 22:07:03:678,0,-11.2953,-4.40175,7.14132,Q,Q
2023-03-14 22:07:03:688,0,-11.3182,-4.41078,7.15422,Q,Q
2023-03-14 22:07:03:698,0,-11.334,-4.4165,7.17018,Q,Q
2023-03-14 22:07:03:708,0,-11.3556,-4.41964,7.19643,Q,Q
2023-03-14 22:07:03:718,0,-11.3813,-4.42389,7.22477,Q,Q
2023-03-14 22:07:03:728,0,-11.4178,-4.43014,7.26275,Q,Q
2023-03-14 22:07:03:738,0,-11.4643,-4.4326,7.29953,Q,Q
2023-03-14 22:07:03:748,0,-11.5135,-4.43463,7.32746,Q,Q
2023-03-14 22:07:03:758,0,-11.5623,-4.43707,7.35524,Q,Q
2023-03-14 22:07:03:768,0,-11.6114,-4.44548,7.38286,Q,Q
2023-03-14 22:07:03:778,0,-11.6531,-4.458,7.40183,Q,Q
2023-03-14 22:07:03:788,0,-11.6865,-4.47748,7.41572,Q,Q
2023-03-14 22:07:03:798,0,-11.7134,-4.49678,7.42654,Q,Q
2023-03-14 22:07:03:808,0,-11.7347,-4.51685,7.43391,Q,Q
2023-03-14 22:07:03:818,0,-11.7538,-4.53853,7.44167,Q,Q
2023-03-14 22:07:03:827,0,-11.7715,-4.56566,7.44987,Q,Q
2023-03-14 22:07:03:838,0,-11.787,-4.59648,7.45624,Q,Q
2023-03-14 22:07:03:848,0,-11.8016,-4.62465,7.45823,Q,Q
2023-03-14 22:07:03:858,0,-11.815,-4.65157,7.46017,Q,Q
2023-03-14 22:07:03:868,0,-11.8238,-4.67882,7.45889,Q,Q
2023-03-14 22:07:03:878,0,-11.8288,-4.6997,7.45395,Q,Q
2023-03-14 22:07:03:888,0,-11.8272,-4.71865,7.44838,Q,Q
2023-03-14 22:07:03:898,0,-11.8269,-4.7332,7.44273,Q,Q
2023-03-14 22:07:03:908,0,-11.8349,-4.75055,7.44015,Q,Q
2023-03-14 22:07:03:918,0,-11.8525,-4.77103,7.43985,Q,Q
2023-03-14 22:07:03:928,0,-11.8776,-4.79416,7.43929,Q,Q
2023-03-14 22:07:03:938,0,-11.8978,-4.82228,7.44164,Q,Q
2023-03-14 22:07:03:948,0,-11.9166,-4.85049,7.44331,Q,Q
2023-03-14 22:07:03:958,0,-11.9342,-4.87386,7.44878,Q,Q
2023-03-14 22:07:03:968,0,-11.9466,-4.89387,7.45635,Q,Q
2023-03-14 22:07:03:978,0,-11.9675,-4.9067,7.46493,Q,Q
2023-03-14 22:07:03:988,0,-11.9931,-4.91658,7.47351,Q,Q
2023-03-14 22:07:03:998,0,-12.0175,-4.9257,7.47995,Q,Q
2023-03-14 22:07:04:8,0,-12.0384,-4.93323,7.48776,Q,Q
2023-03-14 22:07:04:18,0,-12.0545,-4.93886,7.49012,Q,Q
2023-03-14 22:07:04:28,0,-12.0636,-4.94675,7.49193,Q,Q
2023-03-14 22:07:04:38,0,-12.0696,-4.95357,7.49055,Q,Q
2023-03-14 22:07:04:48,0,-12.0757,-4.9551,7.49384,Q,Q
2023-03-14 22:07:04:58,0,-12.0835,-4.95603,7.49213,Q,Q
2023-03-14 22:07:04:68,0,-12.1024,-4.95175,7.49155,Q,Q
2023-03-14 22:07:04:78,0,-12.1365,-4.94461,7.48982,Q,Q
2023-03-14 22:07:04:88,0,-12.1704,-4.94044,7.48559,Q,Q
2023-03-14 22:07:04:98,0,-12.1966,-4.93964,7.48025,Q,Q
2023-03-14 22:07:04:108,0,-12.2116,-4.94038,7.4693,Q,Q
2023-03-14 22:07:04:118,0,-12.2198,-4.93564,7.45657,Q,Q
2023-03-14 22:07:04:128,0,-12.2249,-4.92906,7.44244,Q,Q
2023-03-14 22:07:04:138,0,-12.233,-4.9131,7.42743,Q,Q
2023-03-14 22:07:04:148,0,-12.2414,-4.90154,7.4159,Q,Q
2023-03-14 22:07:04:158,0,-12.2486,-4.89148,7.39868,Q,Q
2023-03-14 22:07:04:168,0,-12.2527,-4.88188,7.38664,Q,Q
2023-03-14 22:07:04:178,0,-12.2464,-4.8752,7.37425,Q,Q
2023-03-14 22:07:04:188,0,-12.2349,-4.87105,7.35919,Q,Q
2023-03-14 22:07:04:198,0,-12.2174,-4.86326,7.34708,Q,Q
2023-03-14 22:07:04:208,0,-12.1989,-4.85862,7.33271,Q,Q
2023-03-14 22:07:04:218,0,-12.1767,-4.8528,7.31828,Q,Q
2023-03-14 22:07:04:228,0,-12.1528,-4.84181,7.29852,Q,Q
2023-03-14 22:07:04:238,0,-12.1279,-4.83151,7.27527,Q,Q
2023-03-14 22:07:04:248,0,-12.104,-4.82016,7.25809,Q,Q
2023-03-14 22:07:04:258,0,-12.0776,-4.81494,7.2372,Q,Q
2023-03-14 22:07:04:268,0,-12.0544,-4.81322,7.21467,Q,Q
2023-03-14 22:07:04:278,0,-12.0321,-4.81109,7.19315,Q,Q
2023-03-14 22:07:04:288,0,-12.0118,-4.80597,7.17115,Q,Q
2023-03-14 22:07:04:298,0,-11.9902,-4.80289,7.14336,Q,Q
2023-03-14 22:07:04:308,0,-11.9645,-4.80073,7.11362,Q,Q
2023-03-14 22:07:04:318,0,-11.9355,-4.79905,7.08575,Q,Q
2023-03-14 22:07:04:328,0,-11.9061,-4.79562,7.05853,Q,Q
2023-03-14 22:07:04:338,0,-11.8775,-4.7903,7.02777,Q,Q
2023-03-14 22:07:04:348,0,-11.8487,-4.78417,6.99555,Q,Q
2023-03-14 22:07:04:358,0,-11.8145,-4.78174,6.96917,Q,Q
2023-03-14 22:07:04:368,0,-11.7802,-4.77823,6.94587,Q,Q
2023-03-14 22:07:04:378,0,-11.7527,-4.77628,6.92529,Q,Q
2023-03-14 22:07:04:388,0,-11.7295,-4.7757,6.90622,Q,Q
2023-03-14 22:07:04:398,0,-11.7101,-4.77267,6.88761,Q,Q
2023-03-14 22:07:04:408,0,-11.6949,-4.76578,6.87047,Q,Q
2023-03-14 22:07:04:418,0,-11.6807,-4.7635,6.85451,Q,Q
2023-03-14 22:07:04:428,0,-11.6693,-4.75588,6.83801,Q,Q
2023-03-14 22:07:04:438,0,-11.6604,-4.74496,6.82407,Q,Q
2023-03-14 22:07:04:448,0,-11.6559,-4.73712,6.81266,Q,Q
2023-03-14 22:07:04:458,0,-11.6502,-4.73142,6.79744,Q,Q
2023-03-14 22:07:04:468,0,-11.6448,-4.72619,6.78247,Q,Q
2023-03-14 22:07:04:478,0,-11.6383,-4.72082,6.76499,Q,Q
2023-03-14 22:07:04:488,0,-11.6269,-4.71447,6.74586,Q,Q
2023-03-14 22:07:04:498,0,-11.6143,-4.71215,6.7222,Q,Q
2023-03-14 22:07:04:508,0,-11.5956,-4.71257,6.70341,Q,Q
2023-03-14 22:07:04:518,0,-11.579,-4.71291,6.68308,Q,Q
2023-03-14 22:07:04:528,0,-11.563,-4.71204,6.66464,Q,Q
2023-03-14 22:07:04:538,0,-11.5512,-4.71088,6.65198,Q,Q
2023-03-14 22:07:04:548,0,-11.541,-4.70816,6.63786,Q,Q
2023-03-14 22:07:04:558,0,-11.532,-4.70798,6.62394,Q,Q
2023-03-14 22:07:04:568,0,-11.5283,-4.70342,6.61149,Q,Q
2023-03-14 22:07:04:578,0,-11.5247,-4.69692,6.59812,Q,Q
2023-03-14 22:07:04:588,0,-11.5217,-4.68819,6.5839,Q,Q
2023-03-14 22:07:04:598,0,-11.525,-4.68073,6.56842,Q,Q
2023-03-14 22:07:04:608,0,-11.5266,-4.67451,6.55329,Q,Q
2023-03-14 22:07:04:618,0,-11.5252,-4.66428,6.53853,Q,Q
2023-03-14 22:07:04:628,0,-11.5249,-4.65497,6.52288,Q,Q
2023-03-14 22:07:04:638,0,-11.5206,-4.64824,6.51065,Q,Q
2023-03-14 22:07:04:648,0,-11.5175,-4.63734,6.50079,Q,Q
2023-03-14 22:07:04:658,0,-11.5124,-4.62477,6.49217,Q,Q
2023-03-14 22:07:04:668,0,-11.5071,-4.61009,6.48556,Q,Q
2023-03-14 22:07:04:678,0,-11.5059,-4.5989,6.48681,Q,Q
2023-03-14 22:07:04:688,0,-11.5064,-4.58633,6.48575,Q,Q
2023-03-14 22:07:04:698,0,-11.5077,-4.57246,6.48395,Q,Q
2023-03-14 22:07:04:708,0,-11.5073,-4.561,6.48262,Q,Q
2023-03-14 22:07:04:718,0,-11.5067,-4.55382,6.48224,Q,Q
2023-03-14 22:07:04:728,0,-11.5058,-4.55075,6.47794,Q,Q
2023-03-14 22:07:04:738,0,-11.5019,-4.54596,6.47066,Q,Q
2023-03-14 22:07:04:748,0,-11.4921,-4.54461,6.45698,Q,Q
2023-03-14 22:07:04:758,0,-11.4869,-4.53824,6.4414,Q,Q
2023-03-14 22:07:04:768,0,-11.4823,-4.5349,6.42322,Q,Q
2023-03-14 22:07:04:778,0,-11.4825,-4.53004,6.41058,Q,Q
2023-03-14 22:07:04:788,0,-11.4884,-4.5295,6.39607,Q,Q
2023-03-14 22:07:04:798,0,-11.4951,-4.52595,6.38274,Q,Q
2023-03-14 22:07:04:808,0,-11.502,-4.52245,6.37407,Q,Q
2023-03-14 22:07:04:818,0,-11.5095,-4.51497,6.36546,Q,Q
2023-03-14 22:07:04:828,0,-11.5112,-4.50462,6.35105,Q,Q
2023-03-14 22:07:04:838,0,-11.513,-4.496,6.33851,Q,Q
2023-03-14 22:07:04:848,0,-11.5156,-4.48935,6.32347,Q,Q
2023-03-14 22:07:04:858,0,-11.5177,-4.48515,6.31166,Q,Q
2023-03-14 22:07:04:868,0,-11.52,-4.47802,6.29822,Q,Q
2023-03-14 22:07:04:878,0,-11.5217,-4.47309,6.28436,Q,Q
2023-03-14 22:07:04:888,0,-11.5255,-4.472,6.2714,Q,Q
2023-03-14 22:07:04:898,0,-11.5269,-4.47108,6.25626,Q,Q
2023-03-14 22:07:04:908,0,-11.524,-4.46794,6.24253,Q,Q
2023-03-14 22:07:04:918,0,-11.5191,-4.46134,6.226,Q,Q
2023-03-14 22:07:04:928,0,-11.5165,-4.45454,6.21281,Q,Q
2023-03-14 22:07:04:938,0,-11.5074,-4.44818,6.1975,Q,Q
2023-03-14 22:07:04:948,0,-11.5015,-4.43865,6.18469,Q,Q
2023-03-14 22:07:04:958,0,-11.4925,-4.43123,6.17166,Q,Q
2023-03-14 22:07:04:968,0,-11.484,-4.42134,6.15792,Q,Q
2023-03-14 22:07:04:978,0,-11.4793,-4.4136,6.14604,Q,Q
2023-03-14 22:07:04:988,0,-11.4727,-4.40308,6.13654,Q,Q
2023-03-14 22:07:04:998,0,-11.4659,-4.39632,6.12415,Q,Q
2023-03-14 22:07:05:8,0,-11.4573,-4.39493,6.11227,Q,Q
2023-03-14 22:07:05:18,0,-11.4502,-4.39868,6.10688,Q,Q
2023-03-14 22:07:05:28,0,-11.4393,-4.40651,6.10242,Q,Q
2023-03-14 22:07:05:38,0,-11.4331,-4.41327,6.09629,Q,Q
2023-03-14 22:07:05:48,0,-11.426,-4.42108,6.09305,Q,Q
2023-03-14 22:07:05:58,0,-11.4233,-4.42297,6.09059,Q,Q
2023-03-14 22:07:05:68,0,-11.4164,-4.42554,6.09232,Q,Q
2023-03-14 22:07:05:78,0,-11.4122,-4.43154,6.09714,Q,Q
2023-03-14 22:07:05:88,0,-11.4076,-4.44012,6.10305,Q,Q
2023-03-14 22:07:05:98,0,-11.4011,-4.44724,6.10674,Q,Q
2023-03-14 22:07:05:108,0,-11.3912,-4.45325,6.11145,Q,Q
2023-03-14 22:07:05:118,0,-11.383,-4.45542,6.11381,Q,Q
2023-03-14 22:07:05:128,0,-11.3781,-4.45993,6.11451,Q,Q
2023-03-14 22:07:05:138,0,-11.3772,-4.46567,6.11247,Q,Q
2023-03-14 22:07:05:148,0,-11.3764,-4.46755,6.11095,Q,Q
2023-03-14 22:07:05:158,0,-11.3811,-4.47018,6.11025,Q,Q
2023-03-14 22:07:05:168,0,-11.3823,-4.47469,6.10861,Q,Q
2023-03-14 22:07:05:178,0,-11.3865,-4.47265,6.10602,Q,Q
2023-03-14 22:07:05:188,0,-11.3904,-4.47229,6.1013,Q,Q
2023-03-14 22:07:05:198,0,-11.396,-4.47125,6.0961,Q,Q
2023-03-14 22:07:05:208,0,-11.4029,-4.47179,6.08756,Q,Q
2023-03-14 22:07:05:218,0,-11.4083,-4.47081,6.07995,Q,Q
2023-03-14 22:07:05:228,0,-11.4153,-4.46902,6.07025,Q,Q
2023-03-14 22:07:05:238,0,-11.424,-4.46352,6.05896,Q,Q
2023-03-14 22:07:05:248,0,-11.4351,-4.45435,6.04395,Q,Q
2023-03-14 22:07:05:258,0,-11.4426,-4.44325,6.02381,Q,Q
2023-03-14 22:07:05:268,0,-11.4464,-4.4379,6.0066,Q,Q
2023-03-14 22:07:05:278,0,-11.4498,-4.43677,5.98975,Q,Q
2023-03-14 22:07:05:288,0,-11.4536,-4.43718,5.97441,Q,Q
2023-03-14 22:07:05:298,0,-11.4583,-4.43438,5.9546,Q,Q
2023-03-14 22:07:05:308,0,-11.4664,-4.43092,5.93697,Q,Q
2023-03-14 22:07:05:318,0,-11.4813,-4.42343,5.91883,Q,Q
2023-03-14 22:07:05:328,0,-11.4988,-4.41929,5.90665,Q,Q
2023-03-14 22:07:05:338,0,-11.5142,-4.41245,5.89791,Q,Q
2023-03-14 22:07:05:348,0,-11.527,-4.40723,5.89262,Q,Q
2023-03-14 22:07:05:358,0,-11.5386,-4.40514,5.88888,Q,Q
2023-03-14 22:07:05:367,0,-11.5471,-4.40159,5.88677,Q,Q
2023-03-14 22:07:05:378,0,-11.5545,-4.40152,5.88109,Q,Q
2023-03-14 22:07:05:388,0,-11.5629,-4.40103,5.88278,Q,Q
2023-03-14 22:07:05:398,0,-11.5657,-4.40377,5.8828,Q,Q
2023-03-14 22:07:05:408,0,-11.5726,-4.40544,5.88067,Q,Q
2023-03-14 22:07:05:418,0,-11.5744,-4.4096,5.88305,Q,Q
2023-03-14 22:07:05:428,0,-11.5786,-4.41509,5.88893,Q,Q
2023-03-14 22:07:05:437,0,-11.584,-4.42342,5.89462,Q,Q
2023-03-14 22:07:05:447,0,-11.5926,-4.43442,5.90149,Q,Q
2023-03-14 22:07:05:458,0,-11.601,-4.43971,5.90858,Q,Q
2023-03-14 22:07:05:468,0,-11.6088,-4.44865,5.91586,Q,Q
2023-03-14 22:07:05:478,0,-11.6134,-4.45764,5.92603,Q,Q
2023-03-14 22:07:05:488,0,-11.6188,-4.46152,5.92982,Q,Q
2023-03-14 22:07:05:498,0,-11.6251,-4.4656,5.93308,Q,Q
2023-03-14 22:07:05:508,0,-11.6296,-4.47018,5.93672,Q,Q
2023-03-14 22:07:05:518,0,-11.6317,-4.47671,5.94476,Q,Q
2023-03-14 22:07:05:528,0,-11.6343,-4.47922,5.95139,Q,Q
2023-03-14 22:07:05:538,0,-11.6358,-4.47328,5.9621,Q,Q
2023-03-14 22:07:05:548,0,-11.6395,-4.46448,5.96544,Q,Q
2023-03-14 22:07:05:558,0,-11.6403,-4.45694,5.96608,Q,Q
2023-03-14 22:07:05:568,0,-11.6379,-4.44339,5.9609,Q,Q
2023-03-14 22:07:05:578,0,-11.6381,-4.43245,5.94926,Q,Q
2023-03-14 22:07:05:588,0,-11.6412,-4.42263,5.93582,Q,Q
2023-03-14 22:07:05:598,0,-11.644,-4.41561,5.91447,Q,Q
2023-03-14 22:07:05:608,0,-11.6474,-4.40853,5.88684,Q,Q
2023-03-14 22:07:05:618,0,-11.6522,-4.40722,5.85576,Q,Q
2023-03-14 22:07:05:628,0,-11.6508,-4.40147,5.82378,Q,Q
2023-03-14 22:07:05:638,0,-11.6528,-4.39342,5.78798,Q,Q
2023-03-14 22:07:05:648,0,-11.6517,-4.38639,5.75468,Q,Q
2023-03-14 22:07:05:658,0,-11.6515,-4.38186,5.72358,Q,Q
2023-03-14 22:07:05:668,0,-11.6514,-4.37413,5.69664,Q,Q
2023-03-14 22:07:05:678,0,-11.6531,-4.37288,5.67239,Q,Q
2023-03-14 22:07:05:688,0,-11.6528,-4.37366,5.64628,Q,Q
2023-03-14 22:07:05:698,0,-11.6453,-4.37469,5.6225,Q,Q
2023-03-14 22:07:05:708,0,-11.6328,-4.37787,5.60204,Q,Q
2023-03-14 22:07:05:718,0,-11.6265,-4.38426,5.58887,Q,Q
2023-03-14 22:07:05:728,0,-11.6202,-4.39164,5.57825,Q,Q
2023-03-14 22:07:05:738,0,-11.6169,-4.39626,5.5663,Q,Q
2023-03-14 22:07:05:748,0,-11.6156,-4.40189,5.55461,Q,Q
2023-03-14 22:07:05:758,0,-11.6082,-4.40622,5.54135,Q,Q
2023-03-14 22:07:05:768,0,-11.5979,-4.41708,5.53229,Q,Q
2023-03-14 22:07:05:778,0,-11.5861,-4.43011,5.52335,Q,Q
2023-03-14 22:07:05:788,0,-11.577,-4.44548,5.5184,Q,Q
2023-03-14 22:07:05:798,0,-11.5677,-4.46323,5.51482,Q,Q
2023-03-14 22:07:05:808,0,-11.5609,-4.48339,5.51872,Q,Q
2023-03-14 22:07:05:818,0,-11.5526,-4.50753,5.5281,Q,Q
2023-03-14 22:07:05:828,0,-11.5474,-4.53166,5.54336,Q,Q
2023-03-14 22:07:05:838,0,-11.5445,-4.55661,5.55604,Q,Q
2023-03-14 22:07:05:848,0,-11.546,-4.58362,5.56931,Q,Q
2023-03-14 22:07:05:858,0,-11.5466,-4.61039,5.58278,Q,Q
2023-03-14 22:07:05:868,0,-11.547,-4.63561,5.59769,Q,Q
2023-03-14 22:07:05:878,0,-11.5472,-4.66677,5.61512,Q,Q
2023-03-14 22:07:05:888,0,-11.5491,-4.69306,5.62896,Q,Q
2023-03-14 22:07:05:898,0,-11.5542,-4.72153,5.64493,Q,Q
2023-03-14 22:07:05:908,0,-11.5591,-4.74563,5.65978,Q,Q
2023-03-14 22:07:05:918,0,-11.5668,-4.76605,5.67778,Q,Q
2023-03-14 22:07:05:928,0,-11.5799,-4.78128,5.69883,Q,Q
2023-03-14 22:07:05:938,0,-11.5946,-4.79834,5.72375,Q,Q
2023-03-14 22:07:05:948,0,-11.6136,-4.81502,5.7536,Q,Q
2023-03-14 22:07:05:958,0,-11.6396,-4.82769,5.78081,Q,Q
2023-03-14 22:07:05:968,0,-11.6675,-4.84036,5.80856,Q,Q
2023-03-14 22:07:05:978,0,-11.688,-4.85112,5.83424,Q,Q
2023-03-14 22:07:05:988,0,-11.7044,-4.85594,5.85084,Q,Q
2023-03-14 22:07:05:998,0,-11.718,-4.85928,5.87057,Q,Q
2023-03-14 22:07:06:8,0,-11.7287,-4.86199,5.89078,Q,Q
2023-03-14 22:07:06:18,0,-11.7388,-4.86727,5.91124,Q,Q
2023-03-14 22:07:06:28,0,-11.7511,-4.87628,5.93653,Q,Q
2023-03-14 22:07:06:38,0,-11.7578,-4.88664,5.95811,Q,Q
2023-03-14 22:07:06:53,0,-11.7613,-4.89556,5.97673,Q,Q
2023-03-14 22:07:06:58,0,-11.7608,-4.90404,5.98709,Q,Q
2023-03-14 22:07:06:68,0,-11.7545,-4.91306,5.99009,Q,Q
2023-03-14 22:07:06:78,0,-11.7442,-4.91969,5.98253,Q,Q
2023-03-14 22:07:06:88,0,-11.7286,-4.92162,5.96608,Q,Q
2023-03-14 22:07:06:98,0,-11.7108,-4.91707,5.93644,Q,Q
2023-03-14 22:07:06:108,0,-11.6935,-4.90938,5.90352,Q,Q
2023-03-14 22:07:06:118,0,-11.6807,-4.89877,5.86447,Q,Q
2023-03-14 22:07:06:128,0,-11.6722,-4.89034,5.82646,Q,Q
2023-03-14 22:07:06:138,0,-11.6602,-4.88121,5.78905,Q,Q
2023-03-14 22:07:06:148,0,-11.6506,-4.87363,5.75265,Q,Q
2023-03-14 22:07:06:158,0,-11.6387,-4.86265,5.71969,Q,Q
2023-03-14 22:07:06:168,0,-11.6273,-4.85191,5.68941,Q,Q
2023-03-14 22:07:06:178,0,-11.6183,-4.8339,5.65669,Q,Q
2023-03-14 22:07:06:188,0,-11.6111,-4.80975,5.62813,Q,Q
2023-03-14 22:07:06:198,0,-11.6008,-4.78426,5.60175,Q,Q
2023-03-14 22:07:06:208,0,-11.5897,-4.76781,5.57285,Q,Q
2023-03-14 22:07:06:218,0,-11.5777,-4.75391,5.54373,Q,Q
2023-03-14 22:07:06:228,0,-11.5639,-4.74345,5.5148,Q,Q
2023-03-14 22:07:06:238,0,-11.5485,-4.7363,5.48482,Q,Q
2023-03-14 22:07:06:248,0,-11.5352,-4.72645,5.45212,Q,Q
2023-03-14 22:07:06:258,0,-11.5208,-4.72378,5.42112,Q,Q
2023-03-14 22:07:06:268,0,-11.5058,-4.71754,5.38997,Q,Q
2023-03-14 22:07:06:278,0,-11.4959,-4.71221,5.35718,Q,Q
2023-03-14 22:07:06:288,0,-11.4837,-4.7051,5.32164,Q,Q
2023-03-14 22:07:06:298,0,-11.47,-4.69948,5.29185,Q,Q
2023-03-14 22:07:06:308,0,-11.452,-4.69672,5.26098,Q,Q
2023-03-14 22:07:06:318,0,-11.4326,-4.69589,5.23088,Q,Q
2023-03-14 22:07:06:328,0,-11.4068,-4.69654,5.20037,Q,Q
2023-03-14 22:07:06:338,0,-11.3824,-4.69477,5.17189,Q,Q
2023-03-14 22:07:06:348,0,-11.3554,-4.69855,5.14633,Q,Q
2023-03-14 22:07:06:358,0,-11.3316,-4.70066,5.12731,Q,Q
2023-03-14 22:07:06:368,0,-11.3159,-4.70149,5.11443,Q,Q
2023-03-14 22:07:06:378,0,-11.3112,-4.71033,5.10976,Q,Q
2023-03-14 22:07:06:388,0,-11.3109,-4.72586,5.10753,Q,Q
2023-03-14 22:07:06:398,0,-11.3138,-4.74563,5.10868,Q,Q
2023-03-14 22:07:06:408,0,-11.3152,-4.7673,5.10852,Q,Q
2023-03-14 22:07:06:418,0,-11.3162,-4.78727,5.11228,Q,Q
2023-03-14 22:07:06:428,0,-11.3108,-4.8048,5.11274,Q,Q
2023-03-14 22:07:06:438,0,-11.3043,-4.81527,5.10867,Q,Q
2023-03-14 22:07:06:448,0,-11.2958,-4.82279,5.10708,Q,Q
2023-03-14 22:07:06:458,0,-11.2863,-4.82977,5.10228,Q,Q
2023-03-14 22:07:06:468,0,-11.2879,-4.8376,5.10774,Q,Q
2023-03-14 22:07:06:478,0,-11.301,-4.84869,5.1187,Q,Q
2023-03-14 22:07:06:488,0,-11.311,-4.85964,5.12998,Q,Q
2023-03-14 22:07:06:498,0,-11.322,-4.86608,5.14634,Q,Q
2023-03-14 22:07:06:508,0,-11.3315,-4.86485,5.16071,Q,Q
2023-03-14 22:07:06:518,0,-11.3378,-4.86109,5.17955,Q,Q
2023-03-14 22:07:06:528,0,-11.3383,-4.85046,5.19869,Q,Q
2023-03-14 22:07:06:538,0,-11.3379,-4.83749,5.22005,Q,Q
2023-03-14 22:07:06:548,0,-11.3381,-4.81924,5.23818,Q,Q
2023-03-14 22:07:06:558,0,-11.3406,-4.79818,5.2502,Q,Q
2023-03-14 22:07:06:568,0,-11.3458,-4.78008,5.26321,Q,Q
2023-03-14 22:07:06:578,0,-11.3484,-4.76514,5.27458,Q,Q
2023-03-14 22:07:06:588,0,-11.3561,-4.75203,5.28773,Q,Q
2023-03-14 22:07:06:598,0,-11.3655,-4.7452,5.30046,Q,Q
2023-03-14 22:07:06:608,0,-11.3713,-4.73854,5.31082,Q,Q
2023-03-14 22:07:06:618,0,-11.3742,-4.73432,5.31744,Q,Q
2023-03-14 22:07:06:628,0,-11.3648,-4.73175,5.32064,Q,Q
2023-03-14 22:07:06:638,0,-11.3475,-4.72613,5.32162,Q,Q
2023-03-14 22:07:06:648,0,-11.3255,-4.72113,5.31619,Q,Q
2023-03-14 22:07:06:658,0,-11.3057,-4.70781,5.30757,Q,Q
2023-03-14 22:07:06:668,0,-11.2854,-4.69187,5.29845,Q,Q
2023-03-14 22:07:06:678,0,-11.2712,-4.68208,5.28413,Q,Q
2023-03-14 22:07:06:688,0,-11.2606,-4.67144,5.2711,Q,Q
2023-03-14 22:07:06:698,0,-11.2443,-4.66194,5.25738,Q,Q
2023-03-14 22:07:06:708,0,-11.2334,-4.65709,5.24179,Q,Q
2023-03-14 22:07:06:718,0,-11.2208,-4.65385,5.2221,Q,Q
2023-03-14 22:07:06:728,0,-11.2061,-4.6528,5.19643,Q,Q
2023-03-14 22:07:06:738,0,-11.1882,-4.65355,5.16794,Q,Q
2023-03-14 22:07:06:748,0,-11.1647,-4.65322,5.12652,Q,Q
2023-03-14 22:07:06:758,0,-11.1365,-4.65322,5.07574,Q,Q
2023-03-14 22:07:06:768,0,-11.1045,-4.65577,5.01872,Q,Q
2023-03-14 22:07:06:778,0,-11.073,-4.65721,4.95276,Q,Q
2023-03-14 22:07:06:788,0,-11.0472,-4.65952,4.88344,Q,Q
2023-03-14 22:07:06:798,0,-11.0253,-4.66401,4.81223,Q,Q
2023-03-14 22:07:06:808,0,-11.0083,-4.66478,4.73555,Q,Q
2023-03-14 22:07:06:818,0,-10.9989,-4.66617,4.66242,Q,Q
2023-03-14 22:07:06:828,0,-10.9925,-4.66597,4.5932,Q,Q
2023-03-14 22:07:06:838,0,-10.9832,-4.66743,4.53495,Q,Q
2023-03-14 22:07:06:848,0,-10.9782,-4.67115,4.49458,Q,Q
2023-03-14 22:07:06:858,0,-10.9843,-4.68043,4.47629,Q,Q
2023-03-14 22:07:06:868,0,-10.9978,-4.69169,4.4728,Q,Q
2023-03-14 22:07:06:878,0,-11.0207,-4.70586,4.47712,Q,Q
2023-03-14 22:07:06:888,0,-11.0534,-4.71554,4.48783,Q,Q
2023-03-14 22:07:06:898,0,-11.0879,-4.71701,4.51438,Q,Q
2023-03-14 22:07:06:908,0,-11.1222,-4.71866,4.55072,Q,Q
2023-03-14 22:07:06:918,0,-11.1572,-4.71319,4.59026,Q,Q
2023-03-14 22:07:06:928,0,-11.1914,-4.70189,4.62443,Q,Q
2023-03-14 22:07:06:938,0,-11.2208,-4.68358,4.65612,Q,Q
2023-03-14 22:07:06:948,0,-11.2469,-4.65871,4.67625,Q,Q
2023-03-14 22:07:06:958,0,-11.2714,-4.63045,4.6915,Q,Q
2023-03-14 22:07:06:968,0,-11.298,-4.60187,4.69029,Q,Q
2023-03-14 22:07:06:978,0,-11.3273,-4.57642,4.68478,Q,Q
2023-03-14 22:07:06:988,0,-11.3637,-4.54947,4.67431,Q,Q
2023-03-14 22:07:06:998,0,-11.4027,-4.52446,4.65969,Q,Q
2023-03-14 22:07:07:8,0,-11.443,-4.49498,4.64471,Q,Q
2023-03-14 22:07:07:18,0,-11.4833,-4.46319,4.62383,Q,Q
2023-03-14 22:07:07:28,0,-11.5201,-4.43213,4.60077,Q,Q
2023-03-14 22:07:07:38,0,-11.5476,-4.4012,4.58288,Q,Q
2023-03-14 22:07:07:48,0,-11.5737,-4.37676,4.56788,Q,Q
2023-03-14 22:07:07:58,0,-11.5949,-4.35592,4.55516,Q,Q
2023-03-14 22:07:07:68,0,-11.6176,-4.3416,4.55075,Q,Q
2023-03-14 22:07:07:78,0,-11.6394,-4.32932,4.54907,Q,Q
2023-03-14 22:07:07:88,0,-11.6602,-4.31715,4.54498,Q,Q
2023-03-14 22:07:07:98,0,-11.6731,-4.31478,4.54568,Q,Q
2023-03-14 22:07:07:108,0,-11.6774,-4.32057,4.54985,Q,Q
2023-03-14 22:07:07:118,0,-11.6753,-4.32732,4.5641,Q,Q
2023-03-14 22:07:07:128,0,-11.6703,-4.33623,4.58223,Q,Q
2023-03-14 22:07:07:138,0,-11.6628,-4.34349,4.60244,Q,Q
2023-03-14 22:07:07:148,0,-11.6504,-4.35092,4.62377,Q,Q
2023-03-14 22:07:07:158,0,-11.6341,-4.35427,4.64572,Q,Q
2023-03-14 22:07:07:168,0,-11.6179,-4.3582,4.66328,Q,Q
2023-03-14 22:07:07:178,0,-11.6026,-4.35973,4.67988,Q,Q
2023-03-14 22:07:07:188,0,-11.5878,-4.35671,4.68851,Q,Q
2023-03-14 22:07:07:198,0,-11.5706,-4.3566,4.69267,Q,Q
2023-03-14 22:07:07:208,0,-11.5558,-4.35262,4.69145,Q,Q
2023-03-14 22:07:07:218,0,-11.5432,-4.34697,4.68377,Q,Q
2023-03-14 22:07:07:228,0,-11.5322,-4.33806,4.67117,Q,Q
2023-03-14 22:07:07:238,0,-11.5261,-4.32996,4.65652,Q,Q
2023-03-14 22:07:07:248,0,-11.5245,-4.31725,4.63401,Q,Q
2023-03-14 22:07:07:258,0,-11.5248,-4.30457,4.60763,Q,Q
2023-03-14 22:07:07:268,0,-11.5268,-4.2909,4.58061,Q,Q
2023-03-14 22:07:07:278,0,-11.5277,-4.27167,4.55007,Q,Q
2023-03-14 22:07:07:288,0,-11.528,-4.2558,4.51783,Q,Q
2023-03-14 22:07:07:298,0,-11.526,-4.23942,4.48479,Q,Q
2023-03-14 22:07:07:308,0,-11.5177,-4.23258,4.45645,Q,Q
2023-03-14 22:07:07:318,0,-11.5079,-4.22804,4.43638,Q,Q
2023-03-14 22:07:07:328,0,-11.5042,-4.22406,4.42615,Q,Q
2023-03-14 22:07:07:338,0,-11.4968,-4.22495,4.42316,Q,Q
2023-03-14 22:07:07:348,0,-11.4929,-4.22709,4.4248,Q,Q
2023-03-14 22:07:07:358,0,-11.4881,-4.23103,4.42617,Q,Q
2023-03-14 22:07:07:368,0,-11.4757,-4.23496,4.43244,Q,Q
2023-03-14 22:07:07:378,0,-11.4552,-4.243,4.43897,Q,Q
2023-03-14 22:07:07:388,0,-11.4322,-4.25441,4.44771,Q,Q
2023-03-14 22:07:07:398,0,-11.4122,-4.26409,4.45217,Q,Q
2023-03-14 22:07:07:408,0,-11.3942,-4.27618,4.45176,Q,Q
2023-03-14 22:07:07:418,0,-11.3765,-4.28373,4.44354,Q,Q
2023-03-14 22:07:07:428,0,-11.3576,-4.2947,4.42612,Q,Q
2023-03-14 22:07:07:438,0,-11.3337,-4.30135,4.40551,Q,Q
2023-03-14 22:07:07:448,0,-11.3136,-4.31041,4.3825,Q,Q
2023-03-14 22:07:07:458,0,-11.2918,-4.31901,4.36278,Q,Q
2023-03-14 22:07:07:468,0,-11.2696,-4.32946,4.34516,Q,Q
2023-03-14 22:07:07:478,0,-11.2386,-4.34372,4.327,Q,Q
2023-03-14 22:07:07:488,0,-11.2041,-4.36136,4.30767,Q,Q
2023-03-14 22:07:07:498,0,-11.1656,-4.37611,4.2904,Q,Q
2023-03-14 22:07:07:508,0,-11.1319,-4.39482,4.27295,Q,Q
2023-03-14 22:07:07:518,0,-11.104,-4.41437,4.25081,Q,Q
2023-03-14 22:07:07:528,0,-11.0819,-4.43558,4.22037,Q,Q
2023-03-14 22:07:07:538,0,-11.0644,-4.4573,4.18599,Q,Q
2023-03-14 22:07:07:548,0,-11.0419,-4.48408,4.14865,Q,Q
2023-03-14 22:07:07:558,0,-11.0153,-4.51772,4.11285,Q,Q
2023-03-14 22:07:07:568,0,-10.9872,-4.55225,4.07713,Q,Q
2023-03-14 22:07:07:578,0,-10.9608,-4.57987,4.03235,Q,Q
2023-03-14 22:07:07:588,0,-10.9363,-4.60332,3.9881,Q,Q
2023-03-14 22:07:07:598,0,-10.9236,-4.62494,3.94976,Q,Q
2023-03-14 22:07:07:608,0,-10.9221,-4.64509,3.91643,Q,Q
2023-03-14 22:07:07:618,0,-10.9305,-4.66632,3.89179,Q,Q
2023-03-14 22:07:07:628,0,-10.9477,-4.68379,3.87331,Q,Q
2023-03-14 22:07:07:638,0,-10.9678,-4.69522,3.85865,Q,Q
2023-03-14 22:07:07:648,0,-10.9897,-4.70083,3.85317,Q,Q
2023-03-14 22:07:07:658,0,-11.0124,-4.70515,3.85387,Q,Q
2023-03-14 22:07:07:668,0,-11.034,-4.70732,3.8608,Q,Q
2023-03-14 22:07:07:678,0,-11.0578,-4.70478,3.87738,Q,Q
2023-03-14 22:07:07:688,0,-11.0839,-4.70614,3.89926,Q,Q
2023-03-14 22:07:07:698,0,-11.1068,-4.70816,3.92792,Q,Q
2023-03-14 22:07:07:708,0,-11.1256,-4.71133,3.95807,Q,Q
2023-03-14 22:07:07:718,0,-11.1488,-4.71781,3.98406,Q,Q
2023-03-14 22:07:07:728,0,-11.1713,-4.7217,4.00299,Q,Q
2023-03-14 22:07:07:738,0,-11.1904,-4.72172,4.01192,Q,Q
2023-03-14 22:07:07:748,0,-11.1983,-4.72348,4.01088,Q,Q
2023-03-14 22:07:07:758,0,-11.1993,-4.73217,3.99424,Q,Q
2023-03-14 22:07:07:768,0,-11.1927,-4.74581,3.96614,Q,Q
2023-03-14 22:07:07:778,0,-11.1722,-4.76488,3.92569,Q,Q
2023-03-14 22:07:07:788,0,-11.146,-4.78513,3.87543,Q,Q
2023-03-14 22:07:07:798,0,-11.1168,-4.80366,3.81783,Q,Q
2023-03-14 22:07:07:808,0,-11.09,-4.82073,3.75559,Q,Q
2023-03-14 22:07:07:818,0,-11.0721,-4.83715,3.69544,Q,Q
2023-03-14 22:07:07:828,0,-11.0646,-4.85122,3.63825,Q,Q
2023-03-14 22:07:07:838,0,-11.0624,-4.86592,3.58123,Q,Q
2023-03-14 22:07:07:848,0,-11.062,-4.87602,3.52675,Q,Q
2023-03-14 22:07:07:858,0,-11.0543,-4.88287,3.47518,Q,Q
2023-03-14 22:07:07:868,0,-11.0405,-4.88766,3.42888,Q,Q
2023-03-14 22:07:07:878,0,-11.0227,-4.89438,3.38735,Q,Q
2023-03-14 22:07:07:888,0,-10.9973,-4.90615,3.35436,Q,Q
2023-03-14 22:07:07:898,0,-10.9675,-4.92369,3.33418,Q,Q
2023-03-14 22:07:07:908,0,-10.9383,-4.94757,3.32295,Q,Q
2023-03-14 22:07:07:918,0,-10.9136,-4.97388,3.32124,Q,Q
2023-03-14 22:07:07:928,0,-10.8914,-5.0014,3.32461,Q,Q
2023-03-14 22:07:07:938,0,-10.8747,-5.02964,3.33518,Q,Q
2023-03-14 22:07:07:948,0,-10.8622,-5.06041,3.34547,Q,Q
2023-03-14 22:07:07:958,0,-10.8544,-5.09295,3.36061,Q,Q
2023-03-14 22:07:07:968,0,-10.8519,-5.12016,3.37275,Q,Q
2023-03-14 22:07:07:978,0,-10.8466,-5.14681,3.3795,Q,Q
2023-03-14 22:07:07:988,0,-10.8414,-5.16923,3.38435,Q,Q
2023-03-14 22:07:07:998,0,-10.8408,-5.18749,3.38164,Q,Q
2023-03-14 22:07:08:8,0,-10.8452,-5.20538,3.37664,Q,Q
2023-03-14 22:07:08:18,0,-10.8546,-5.21945,3.37027,Q,Q
2023-03-14 22:07:08:28,0,-10.8668,-5.23086,3.3554,Q,Q
2023-03-14 22:07:08:38,0,-10.8817,-5.23283,3.33772,Q,Q
2023-03-14 22:07:08:48,0,-10.9015,-5.2276,3.31496,Q,Q
2023-03-14 22:07:08:58,0,-10.921,-5.21606,3.28366,Q,Q
2023-03-14 22:07:08:68,0,-10.9414,-5.20039,3.25119,Q,Q
2023-03-14 22:07:08:78,0,-10.9598,-5.18323,3.21981,Q,Q
2023-03-14 22:07:08:88,0,-10.9768,-5.16037,3.18629,Q,Q
2023-03-14 22:07:08:98,0,-10.9857,-5.13712,3.15565,Q,Q
2023-03-14 22:07:08:108,0,-10.9953,-5.10668,3.12622,Q,Q
2023-03-14 22:07:08:118,0,-11.0046,-5.07371,3.10419,Q,Q
2023-03-14 22:07:08:128,0,-11.0089,-5.0397,3.08826,Q,Q
2023-03-14 22:07:08:138,0,-11.0117,-5.00788,3.07464,Q,Q
2023-03-14 22:07:08:148,0,-11.0156,-4.97769,3.06325,Q,Q
2023-03-14 22:07:08:158,0,-11.0178,-4.95048,3.05012,Q,Q
2023-03-14 22:07:08:168,0,-11.0186,-4.92454,3.03756,Q,Q
2023-03-14 22:07:08:178,0,-11.0192,-4.90467,3.02695,Q,Q
2023-03-14 22:07:08:188,0,-11.0131,-4.88896,3.01729,Q,Q
2023-03-14 22:07:08:198,0,-11.0048,-4.87832,3.00621,Q,Q
2023-03-14 22:07:08:208,0,-10.9988,-4.87136,2.99372,Q,Q
2023-03-14 22:07:08:218,0,-10.9928,-4.86993,2.98206,Q,Q
2023-03-14 22:07:08:228,0,-10.995,-4.87299,2.97306,Q,Q
2023-03-14 22:07:08:238,0,-10.9981,-4.87616,2.96392,Q,Q
2023-03-14 22:07:08:248,0,-11.0,-4.87899,2.95493,Q,Q
2023-03-14 22:07:08:258,0,-11.0043,-4.88236,2.9533,Q,Q
2023-03-14 22:07:08:268,0,-11.0141,-4.88786,2.95484,Q,Q
2023-03-14 22:07:08:278,0,-11.0253,-4.89398,2.95974,Q,Q
2023-03-14 22:07:08:288,0,-11.0411,-4.89986,2.96981,Q,Q
2023-03-14 22:07:08:298,0,-11.0565,-4.90387,2.98329,Q,Q
2023-03-14 22:07:08:308,0,-11.0729,-4.90447,2.99603,Q,Q
2023-03-14 22:07:08:318,0,-11.0932,-4.90252,3.01076,Q,Q
2023-03-14 22:07:08:328,0,-11.1144,-4.90372,3.02277,Q,Q
2023-03-14 22:07:08:338,0,-11.136,-4.90553,3.03308,Q,Q
2023-03-14 22:07:08:348,0,-11.1573,-4.90932,3.03837,Q,Q
2023-03-14 22:07:08:358,0,-11.1781,-4.91315,3.03678,Q,Q
2023-03-14 22:07:08:368,0,-11.2,-4.91579,3.03526,Q,Q
2023-03-14 22:07:08:378,0,-11.2172,-4.92226,3.02568,Q,Q
2023-03-14 22:07:08:388,0,-11.2311,-4.93141,3.00778,Q,Q
2023-03-14 22:07:08:398,0,-11.2445,-4.93579,2.99072,Q,Q
2023-03-14 22:07:08:408,0,-11.2594,-4.94092,2.96936,Q,Q
2023-03-14 22:07:08:418,0,-11.2715,-4.94691,2.95184,Q,Q
2023-03-14 22:07:08:428,0,-11.284,-4.94982,2.93912,Q,Q
2023-03-14 22:07:08:438,0,-11.2966,-4.94971,2.93131,Q,Q
2023-03-14 22:07:08:448,0,-11.3187,-4.95127,2.93111,Q,Q
2023-03-14 22:07:08:458,0,-11.3412,-4.95277,2.93125,Q,Q
2023-03-14 22:07:08:468,0,-11.3658,-4.95776,2.93675,Q,Q
2023-03-14 22:07:08:478,0,-11.3955,-4.96587,2.94297,Q,Q
2023-03-14 22:07:08:488,0,-11.4201,-4.97577,2.94676,Q,Q
2023-03-14 22:07:08:498,0,-11.4451,-4.99143,2.95169,Q,Q
2023-03-14 22:07:08:508,0,-11.4679,-5.00583,2.95413,Q,Q
2023-03-14 22:07:08:518,0,-11.4862,-5.02081,2.95089,Q,Q
2023-03-14 22:07:08:528,0,-11.5016,-5.03364,2.94947,Q,Q
2023-03-14 22:07:08:538,0,-11.5166,-5.04542,2.95135,Q,Q
2023-03-14 22:07:08:548,0,-11.5402,-5.05936,2.95545,Q,Q
2023-03-14 22:07:08:558,0,-11.5656,-5.07455,2.95989,Q,Q
2023-03-14 22:07:08:568,0,-11.592,-5.08607,2.96174,Q,Q
2023-03-14 22:07:08:578,0,-11.6213,-5.09919,2.96558,Q,Q
2023-03-14 22:07:08:588,0,-11.6548,-5.11035,2.97153,Q,Q
2023-03-14 22:07:08:598,0,-11.6806,-5.12227,2.9783,Q,Q
2023-03-14 22:07:08:608,0,-11.7079,-5.13183,2.98602,Q,Q
2023-03-14 22:07:08:618,0,-11.732,-5.14496,2.99073,Q,Q
2023-03-14 22:07:08:628,0,-11.7577,-5.15496,2.99445,Q,Q
2023-03-14 22:07:08:638,0,-11.7779,-5.16651,2.99183,Q,Q
2023-03-14 22:07:08:648,0,-11.8006,-5.18388,2.98872,Q,Q
2023-03-14 22:07:08:658,0,-11.8167,-5.20601,2.97933,Q,Q
2023-03-14 22:07:08:668,0,-11.8336,-5.23126,2.96255,Q,Q
2023-03-14 22:07:08:678,0,-11.8456,-5.25615,2.9375,Q,Q
2023-03-14 22:07:08:688,0,-11.8502,-5.27656,2.90592,Q,Q
2023-03-14 22:07:08:698,0,-11.8513,-5.29246,2.87504,Q,Q
2023-03-14 22:07:08:708,0,-11.8474,-5.31199,2.84014,Q,Q
2023-03-14 22:07:08:718,0,-11.8323,-5.33039,2.80791,Q,Q
2023-03-14 22:07:08:728,0,-11.8171,-5.34722,2.77982,Q,Q
2023-03-14 22:07:08:738,0,-11.8011,-5.36331,2.75603,Q,Q
2023-03-14 22:07:08:748,0,-11.7855,-5.38193,2.73636,Q,Q
2023-03-14 22:07:08:758,0,-11.7683,-5.38972,2.72256,Q,Q
2023-03-14 22:07:08:768,0,-11.757,-5.38989,2.71154,Q,Q
2023-03-14 22:07:08:778,0,-11.7434,-5.39438,2.70372,Q,Q
2023-03-14 22:07:08:788,0,-11.7296,-5.39676,2.70135,Q,Q
2023-03-14 22:07:08:798,0,-11.7164,-5.39597,2.70548,Q,Q
2023-03-14 22:07:08:808,0,-11.7046,-5.39625,2.71857,Q,Q
2023-03-14 22:07:08:818,0,-11.6918,-5.39468,2.7348,Q,Q
2023-03-14 22:07:08:828,0,-11.6787,-5.38803,2.74805,Q,Q
2023-03-14 22:07:08:838,0,-11.6658,-5.3818,2.76603,Q,Q
2023-03-14 22:07:08:848,0,-11.6538,-5.3742,2.78468,Q,Q
2023-03-14 22:07:08:858,0,-11.6432,-5.36705,2.80384,Q,Q
2023-03-14 22:07:08:868,0,-11.6337,-5.36102,2.82536,Q,Q
2023-03-14 22:07:08:878,0,-11.6293,-5.35956,2.85005,Q,Q
2023-03-14 22:07:08:888,0,-11.6254,-5.36106,2.87785,Q,Q
2023-03-14 22:07:08:898,0,-11.6233,-5.36334,2.90115,Q,Q
2023-03-14 22:07:08:908,0,-11.6282,-5.37142,2.92945,Q,Q
2023-03-14 22:07:08:918,0,-11.6398,-5.37946,2.95908,Q,Q
2023-03-14 22:07:08:928,0,-11.6521,-5.38961,2.99078,Q,Q
2023-03-14 22:07:08:938,0,-11.6672,-5.40104,3.02197,Q,Q
2023-03-14 22:07:08:948,0,-11.6844,-5.40925,3.05132,Q,Q
2023-03-14 22:07:08:957,0,-11.6983,-5.41539,3.07735,Q,Q
2023-03-14 22:07:08:968,0,-11.7082,-5.42641,3.10241,Q,Q
2023-03-14 22:07:08:978,0,-11.7183,-5.43933,3.12624,Q,Q
2023-03-14 22:07:08:988,0,-11.7285,-5.45912,3.15305,Q,Q
2023-03-14 22:07:08:998,0,-11.7371,-5.48134,3.17965,Q,Q
2023-03-14 22:07:09:8,0,-11.734,-5.49672,3.19959,Q,Q
2023-03-14 22:07:09:18,0,-11.7186,-5.50435,3.21576,Q,Q
2023-03-14 22:07:09:28,0,-11.696,-5.50657,3.23445,Q,Q
2023-03-14 22:07:09:38,0,-11.6748,-5.50471,3.2541,Q,Q
2023-03-14 22:07:09:48,0,-11.6587,-5.50448,3.27446,Q,Q
2023-03-14 22:07:09:58,0,-11.648,-5.50398,3.29971,Q,Q
2023-03-14 22:07:09:68,0,-11.6402,-5.50375,3.32502,Q,Q
2023-03-14 22:07:09:78,0,-11.6399,-5.51115,3.35166,Q,Q
2023-03-14 22:07:09:88,0,-11.6398,-5.51846,3.37066,Q,Q
2023-03-14 22:07:09:98,0,-11.6461,-5.5321,3.39156,Q,Q
2023-03-14 22:07:09:108,0,-11.6505,-5.54464,3.40898,Q,Q
2023-03-14 22:07:09:118,0,-11.6541,-5.55737,3.4232,Q,Q
2023-03-14 22:07:09:128,0,-11.6593,-5.57193,3.43988,Q,Q
2023-03-14 22:07:09:138,0,-11.6608,-5.59055,3.45466,Q,Q
2023-03-14 22:07:09:148,0,-11.6669,-5.60925,3.4712,Q,Q
2023-03-14 22:07:09:158,0,-11.6781,-5.62838,3.48962,Q,Q
2023-03-14 22:07:09:168,0,-11.6881,-5.65011,3.51365,Q,Q
2023-03-14 22:07:09:178,0,-11.7058,-5.67546,3.53791,Q,Q
2023-03-14 22:07:09:188,0,-11.7225,-5.70131,3.56323,Q,Q
2023-03-14 22:07:09:198,0,-11.7363,-5.72943,3.58859,Q,Q
2023-03-14 22:07:09:208,0,-11.7527,-5.75634,3.60953,Q,Q
2023-03-14 22:07:09:218,0,-11.7671,-5.78509,3.63955,Q,Q
2023-03-14 22:07:09:228,0,-11.777,-5.81331,3.66788,Q,Q
2023-03-14 22:07:09:238,0,-11.7875,-5.84095,3.69952,Q,Q
2023-03-14 22:07:09:248,0,-11.7975,-5.87045,3.733,Q,Q
2023-03-14 22:07:09:258,0,-11.8109,-5.90048,3.76938,Q,Q
2023-03-14 22:07:09:268,0,-11.8229,-5.93359,3.80353,Q,Q
2023-03-14 22:07:09:278,0,-11.8335,-5.95701,3.83876,Q,Q
2023-03-14 22:07:09:288,0,-11.845,-5.98204,3.87666,Q,Q
2023-03-14 22:07:09:298,0,-11.8585,-6.00669,3.91483,Q,Q
2023-03-14 22:07:09:308,0,-11.8748,-6.02629,3.95262,Q,Q
2023-03-14 22:07:09:318,0,-11.8892,-6.04677,3.99061,Q,Q
2023-03-14 22:07:09:328,0,-11.9091,-6.06652,4.02582,Q,Q
2023-03-14 22:07:09:338,0,-11.9285,-6.08742,4.06437,Q,Q
2023-03-14 22:07:09:348,0,-11.9468,-6.10898,4.09464,Q,Q
2023-03-14 22:07:09:358,0,-11.96,-6.12917,4.12844,Q,Q
2023-03-14 22:07:09:368,0,-11.9752,-6.14614,4.15858,Q,Q
2023-03-14 22:07:09:378,0,-11.9848,-6.16158,4.18866,Q,Q
2023-03-14 22:07:09:388,0,-11.9924,-6.17967,4.21787,Q,Q
2023-03-14 22:07:09:398,0,-11.9953,-6.19831,4.24604,Q,Q
2023-03-14 22:07:09:408,0,-11.9977,-6.21273,4.27371,Q,Q
2023-03-14 22:07:09:418,0,-11.9948,-6.23049,4.30014,Q,Q
2023-03-14 22:07:09:428,0,-11.9934,-6.24674,4.3284,Q,Q
2023-03-14 22:07:09:438,0,-11.991,-6.26195,4.35422,Q,Q
2023-03-14 22:07:09:448,0,-11.9959,-6.277,4.37986,Q,Q
2023-03-14 22:07:09:458,0,-11.9973,-6.29243,4.40467,Q,Q
2023-03-14 22:07:09:468,0,-11.9974,-6.30758,4.43046,Q,Q
2023-03-14 22:07:09:478,0,-11.9996,-6.32501,4.45561,Q,Q
2023-03-14 22:07:09:488,0,-12.0038,-6.33935,4.47992,Q,Q
2023-03-14 22:07:09:498,0,-12.0041,-6.3493,4.50449,Q,Q
2023-03-14 22:07:09:508,0,-12.0041,-6.3608,4.52501,Q,Q
2023-03-14 22:07:09:518,0,-12.0028,-6.37395,4.54673,Q,Q
2023-03-14 22:07:09:528,0,-12.0013,-6.38201,4.56606,Q,Q
2023-03-14 22:07:09:538,0,-11.9969,-6.39067,4.58168,Q,Q
2023-03-14 22:07:09:548,0,-11.9952,-6.40086,4.59755,Q,Q
2023-03-14 22:07:09:558,0,-11.9967,-6.40633,4.61293,Q,Q
2023-03-14 22:07:09:568,0,-11.9988,-6.4145,4.6273,Q,Q
2023-03-14 22:07:09:578,0,-12.004,-6.42104,4.63855,Q,Q
2023-03-14 22:07:09:588,0,-12.0149,-6.42631,4.65143,Q,Q
2023-03-14 22:07:09:598,0,-12.0244,-6.43837,4.66414,Q,Q
2023-03-14 22:07:09:608,0,-12.036,-6.44849,4.67923,Q,Q
2023-03-14 22:07:09:618,0,-12.0455,-6.46446,4.69718,Q,Q
2023-03-14 22:07:09:628,0,-12.051,-6.48319,4.71885,Q,Q
2023-03-14 22:07:09:638,0,-12.062,-6.49624,4.74459,Q,Q
2023-03-14 22:07:09:648,0,-12.0714,-6.50468,4.7677,Q,Q
2023-03-14 22:07:09:658,0,-12.0839,-6.51553,4.79449,Q,Q
2023-03-14 22:07:09:668,0,-12.099,-6.52168,4.82479,Q,Q
2023-03-14 22:07:09:678,0,-12.1126,-6.52863,4.85495,Q,Q
2023-03-14 22:07:09:688,0,-12.1239,-6.53145,4.88719,Q,Q
2023-03-14 22:07:09:698,0,-12.1296,-6.53491,4.92264,Q,Q
2023-03-14 22:07:09:708,0,-12.1351,-6.53847,4.95251,Q,Q
2023-03-14 22:07:09:718,0,-12.1423,-6.53677,4.98311,Q,Q
2023-03-14 22:07:09:728,0,-12.1456,-6.53053,5.01152,Q,Q
2023-03-14 22:07:09:738,0,-12.1511,-6.52359,5.03554,Q,Q
2023-03-14 22:07:09:748,0,-12.1552,-6.51737,5.05753,Q,Q
2023-03-14 22:07:09:758,0,-12.159,-6.51521,5.08021,Q,Q
2023-03-14 22:07:09:768,0,-12.1643,-6.50697,5.10092,Q,Q
2023-03-14 22:07:09:778,0,-12.1658,-6.50251,5.11876,Q,Q
2023-03-14 22:07:09:788,0,-12.1744,-6.49258,5.13474,Q,Q
2023-03-14 22:07:09:798,0,-12.1827,-6.48537,5.1422,Q,Q
2023-03-14 22:07:09:808,0,-12.195,-6.47815,5.15148,Q,Q
2023-03-14 22:07:09:818,0,-12.21,-6.47077,5.15737,Q,Q
2023-03-14 22:07:09:828,0,-12.2308,-6.46595,5.16167,Q,Q
2023-03-14 22:07:09:838,0,-12.2499,-6.4716,5.16439,Q,Q
2023-03-14 22:07:09:848,0,-12.2671,-6.4872,5.16929,Q,Q
2023-03-14 22:07:09:858,0,-12.2769,-6.50675,5.17017,Q,Q
2023-03-14 22:07:09:868,0,-12.2791,-6.53478,5.16987,Q,Q
2023-03-14 22:07:09:878,0,-12.2733,-6.56504,5.16343,Q,Q
2023-03-14 22:07:09:888,0,-12.2609,-6.59596,5.1536,Q,Q
2023-03-14 22:07:09:898,0,-12.2426,-6.62468,5.13358,Q,Q
2023-03-14 22:07:09:908,0,-12.2253,-6.64831,5.11183,Q,Q
2023-03-14 22:07:09:918,0,-12.2089,-6.66917,5.08733,Q,Q
2023-03-14 22:07:09:928,0,-12.1944,-6.68358,5.05092,Q,Q
2023-03-14 22:07:09:938,0,-12.1776,-6.69074,5.009,Q,Q
2023-03-14 22:07:09:948,0,-12.1593,-6.69055,4.96705,Q,Q
2023-03-14 22:07:09:958,0,-12.1356,-6.6877,4.92058,Q,Q
2023-03-14 22:07:09:968,0,-12.1102,-6.6817,4.87028,Q,Q
2023-03-14 22:07:09:978,0,-12.084,-6.67055,4.82101,Q,Q
2023-03-14 22:07:09:988,0,-12.0613,-6.65325,4.77154,Q,Q
2023-03-14 22:07:09:998,0,-12.0461,-6.63635,4.72625,Q,Q
2023-03-14 22:07:10:8,0,-12.044,-6.61515,4.69215,Q,Q
2023-03-14 22:07:10:18,0,-12.0501,-6.59592,4.66375,Q,Q
2023-03-14 22:07:10:28,0,-12.0641,-6.57142,4.64441,Q,Q
2023-03-14 22:07:10:38,0,-12.0895,-6.55216,4.63793,Q,Q
2023-03-14 22:07:10:48,0,-12.1159,-6.53039,4.63806,Q,Q
2023-03-14 22:07:10:58,0,-12.1477,-6.50256,4.64675,Q,Q
2023-03-14 22:07:10:68,0,-12.1839,-6.47385,4.66322,Q,Q
2023-03-14 22:07:10:78,0,-12.2262,-6.44568,4.68457,Q,Q
2023-03-14 22:07:10:88,0,-12.2575,-6.41628,4.70768,Q,Q
2023-03-14 22:07:10:98,0,-12.2905,-6.3841,4.7278,Q,Q
2023-03-14 22:07:10:108,0,-12.3257,-6.34989,4.75271,Q,Q
2023-03-14 22:07:10:118,0,-12.3691,-6.30968,4.77733,Q,Q
2023-03-14 22:07:10:128,0,-12.4172,-6.27189,4.80688,Q,Q
2023-03-14 22:07:10:138,0,-12.4752,-6.23379,4.84348,Q,Q
2023-03-14 22:07:10:148,0,-12.5425,-6.19621,4.88343,Q,Q
2023-03-14 22:07:10:158,0,-12.6123,-6.15639,4.92877,Q,Q
2023-03-14 22:07:10:168,0,-12.6811,-6.12561,4.9818,Q,Q
2023-03-14 22:07:10:178,0,-12.7507,-6.09501,5.03862,Q,Q
2023-03-14 22:07:10:188,0,-12.8231,-6.06427,5.10455,Q,Q
2023-03-14 22:07:10:198,0,-12.8952,-6.02951,5.17957,Q,Q
2023-03-14 22:07:10:208,0,-12.9733,-5.99143,5.26639,Q,Q
2023-03-14 22:07:10:218,0,-13.0588,-5.95088,5.36804,Q,Q
2023-03-14 22:07:10:228,0,-13.1552,-5.91405,5.49015,Q,Q
2023-03-14 22:07:10:238,0,-13.254,-5.87867,5.62413,Q,Q
2023-03-14 22:07:10:248,0,-13.3542,-5.84822,5.77885,Q,Q
2023-03-14 22:07:10:258,0,-13.4573,-5.81795,5.94853,Q,Q
2023-03-14 22:07:10:268,0,-13.5431,-5.77958,6.12883,Q,Q
2023-03-14 22:07:10:278,0,-13.6159,-5.74112,6.3052,Q,Q
2023-03-14 22:07:10:288,0,-13.675,-5.69608,6.49182,Q,Q
2023-03-14 22:07:10:298,0,-13.7234,-5.64183,6.68152,Q,Q
2023-03-14 22:07:10:308,0,-13.7688,-5.58431,6.87454,Q,Q
2023-03-14 22:07:10:318,0,-13.82,-5.52208,7.06838,Q,Q
2023-03-14 22:07:10:328,0,-13.8753,-5.46007,7.26454,Q,Q
2023-03-14 22:07:10:338,0,-13.935,-5.39789,7.4603,Q,Q
2023-03-14 22:07:10:348,0,-13.9933,-5.33694,7.65033,Q,Q
2023-03-14 22:07:10:358,0,-14.0411,-5.27638,7.83139,Q,Q
2023-03-14 22:07:10:368,0,-14.0802,-5.21331,8.00248,Q,Q
2023-03-14 22:07:10:378,0,-14.1095,-5.14823,8.16336,Q,Q
2023-03-14 22:07:10:388,0,-14.1284,-5.0791,8.3104,Q,Q
2023-03-14 22:07:10:398,0,-14.1477,-5.01136,8.44649,Q,Q
2023-03-14 22:07:10:408,0,-14.1696,-4.95246,8.57339,Q,Q
2023-03-14 22:07:10:418,0,-14.2013,-4.89737,8.69574,Q,Q
2023-03-14 22:07:10:428,0,-14.2412,-4.84723,8.80904,Q,Q
2023-03-14 22:07:10:438,0,-14.2818,-4.79463,8.90849,Q,Q
2023-03-14 22:07:10:448,0,-14.3116,-4.73591,8.99327,Q,Q
2023-03-14 22:07:10:458,0,-14.3303,-4.67732,9.06367,Q,Q
2023-03-14 22:07:10:468,0,-14.3423,-4.61668,9.12091,Q,Q
2023-03-14 22:07:10:478,0,-14.3478,-4.54934,9.17196,Q,Q
2023-03-14 22:07:10:488,0,-14.3462,-4.48376,9.21953,Q,Q
2023-03-14 22:07:10:498,0,-14.3456,-4.42463,9.27064,Q,Q
2023-03-14 22:07:10:508,0,-14.339,-4.37276,9.31353,Q,Q
2023-03-14 22:07:10:518,0,-14.3268,-4.31921,9.34378,Q,Q
2023-03-14 22:07:10:528,0,-14.308,-4.2639,9.35537,Q,Q
2023-03-14 22:07:10:538,0,-14.284,-4.20581,9.35985,Q,Q
2023-03-14 22:07:10:548,0,-14.2654,-4.1477,9.35977,Q,Q
2023-03-14 22:07:10:558,0,-14.2666,-4.09781,9.36117,Q,Q
2023-03-14 22:07:10:568,0,-14.2936,-4.06747,9.36764,Q,Q
2023-03-14 22:07:10:578,0,-14.3503,-4.05054,9.38136,Q,Q
2023-03-14 22:07:10:588,0,-14.434,-4.05099,9.40994,Q,Q
2023-03-14 22:07:10:598,0,-14.528,-4.06673,9.45252,Q,Q
2023-03-14 22:07:10:608,0,-14.6254,-4.09076,9.50844,Q,Q
2023-03-14 22:07:10:618,0,-14.7192,-4.11732,9.57463,Q,Q
2023-03-14 22:07:10:628,0,-14.81,-4.14026,9.65142,Q,Q
2023-03-14 22:07:10:638,0,-14.8945,-4.16029,9.73568,Q,Q
2023-03-14 22:07:10:648,0,-14.9805,-4.18414,9.83537,Q,Q
2023-03-14 22:07:10:658,0,-15.0622,-4.21177,9.93937,Q,Q
2023-03-14 22:07:10:668,0,-15.1382,-4.24967,10.0459,Q,Q
2023-03-14 22:07:10:678,0,-15.1972,-4.29011,10.1501,Q,Q
2023-03-14 22:07:10:688,0,-15.2393,-4.3391,10.2436,Q,Q
2023-03-14 22:07:10:698,0,-15.2567,-4.38538,10.3277,Q,Q
2023-03-14 22:07:10:708,0,-15.2517,-4.42636,10.3934,Q,Q
2023-03-14 22:07:10:718,0,-15.2298,-4.45314,10.44,Q,Q
2023-03-14 22:07:10:728,0,-15.1976,-4.46718,10.4647,Q,Q
2023-03-14 22:07:10:738,0,-15.162,-4.47169,10.4734,Q,Q
2023-03-14 22:07:10:748,0,-15.1293,-4.46696,10.4613,Q,Q
2023-03-14 22:07:10:758,0,-15.1105,-4.4576,10.4315,Q,Q
2023-03-14 22:07:10:768,0,-15.1035,-4.43985,10.389,Q,Q
2023-03-14 22:07:10:778,0,-15.1029,-4.42108,10.3416,Q,Q
2023-03-14 22:07:10:788,0,-15.1068,-4.39661,10.2874,Q,Q
2023-03-14 22:07:10:798,0,-15.1153,-4.36707,10.2273,Q,Q
2023-03-14 22:07:10:808,0,-15.1157,-4.32646,10.163,Q,Q
2023-03-14 22:07:10:818,0,-15.1182,-4.27898,10.0933,Q,Q
2023-03-14 22:07:10:828,0,-15.1193,-4.22597,10.0227,Q,Q
2023-03-14 22:07:10:838,0,-15.1156,-4.16725,9.94635,Q,Q
2023-03-14 22:07:10:848,0,-15.1055,-4.10991,9.86746,Q,Q
2023-03-14 22:07:10:858,0,-15.0901,-4.05752,9.78429,Q,Q
2023-03-14 22:07:10:868,0,-15.0708,-4.01084,9.703,Q,Q
2023-03-14 22:07:10:878,0,-15.0479,-3.96817,9.62243,Q,Q
2023-03-14 22:07:10:888,0,-15.0351,-3.93293,9.54152,Q,Q
2023-03-14 22:07:10:898,0,-15.0209,-3.89905,9.45965,Q,Q
2023-03-14 22:07:10:908,0,-15.0018,-3.86994,9.37354,Q,Q
2023-03-14 22:07:10:918,0,-14.9846,-3.84186,9.28163,Q,Q
2023-03-14 22:07:10:928,0,-14.9662,-3.81476,9.19007,Q,Q
2023-03-14 22:07:10:938,0,-14.947,-3.79117,9.09686,Q,Q
2023-03-14 22:07:10:948,0,-14.9287,-3.77236,9.00341,Q,Q
2023-03-14 22:07:10:958,0,-14.9145,-3.75436,8.91072,Q,Q
2023-03-14 22:07:10:968,0,-14.907,-3.74499,8.82584,Q,Q
2023-03-14 22:07:10:978,0,-14.8997,-3.73775,8.74047,Q,Q
2023-03-14 22:07:10:988,0,-14.8863,-3.73755,8.65605,Q,Q
2023-03-14 22:07:10:998,0,-14.8726,-3.7457,8.5687,Q,Q
2023-03-14 22:07:11:7,0,-14.8551,-3.75135,8.48406,Q,Q
2023-03-14 22:07:11:18,0,-14.8396,-3.76301,8.40088,Q,Q
2023-03-14 22:07:11:28,0,-14.8266,-3.77714,8.31731,Q,Q
2023-03-14 22:07:11:38,0,-14.815,-3.79045,8.23289,Q,Q
2023-03-14 22:07:11:48,0,-14.7999,-3.80331,8.14756,Q,Q
2023-03-14 22:07:11:58,0,-14.7849,-3.8188,8.06318,Q,Q
2023-03-14 22:07:11:68,0,-14.7683,-3.83645,7.98063,Q,Q
2023-03-14 22:07:11:78,0,-14.7521,-3.86087,7.90327,Q,Q
2023-03-14 22:07:11:88,0,-14.7387,-3.87945,7.82915,Q,Q
2023-03-14 22:07:11:98,0,-14.7263,-3.8966,7.7571,Q,Q
2023-03-14 22:07:11:108,0,-14.7116,-3.90989,7.69123,Q,Q
2023-03-14 22:07:11:118,0,-14.6934,-3.91749,7.6312,Q,Q
2023-03-14 22:07:11:128,0,-14.6764,-3.92468,7.57599,Q,Q
2023-03-14 22:07:11:138,0,-14.6529,-3.92541,7.52836,Q,Q
2023-03-14 22:07:11:148,0,-14.6302,-3.92416,7.47939,Q,Q
2023-03-14 22:07:11:158,0,-14.6063,-3.92146,7.43861,Q,Q
2023-03-14 22:07:11:168,0,-14.5844,-3.91619,7.39908,Q,Q
2023-03-14 22:07:11:178,0,-14.5608,-3.91004,7.36807,Q,Q
2023-03-14 22:07:11:188,0,-14.5416,-3.90459,7.34108,Q,Q
2023-03-14 22:07:11:198,0,-14.5254,-3.90365,7.31628,Q,Q
2023-03-14 22:07:11:208,0,-14.5121,-3.90265,7.29415,Q,Q
2023-03-14 22:07:11:218,0,-14.5013,-3.90257,7.2795,Q,Q
2023-03-14 22:07:11:228,0,-14.4954,-3.9087,7.27183,Q,Q
2023-03-14 22:07:11:238,0,-14.4861,-3.91634,7.26795,Q,Q
2023-03-14 22:07:11:248,0,-14.4725,-3.92843,7.26988,Q,Q
2023-03-14 22:07:11:258,0,-14.456,-3.94334,7.27765,Q,Q
2023-03-14 22:07:11:268,0,-14.4398,-3.96058,7.29179,Q,Q
2023-03-14 22:07:11:278,0,-14.4214,-3.97513,7.30793,Q,Q
2023-03-14 22:07:11:288,0,-14.4019,-3.98698,7.3253,Q,Q
2023-03-14 22:07:11:298,0,-14.3791,-4.00129,7.34209,Q,Q
2023-03-14 22:07:11:308,0,-14.3536,-4.01066,7.35441,Q,Q
2023-03-14 22:07:11:318,0,-14.3269,-4.01686,7.366,Q,Q
