Timestamp_cmd,imu_cmd,roll_delta,pitch_delta,yaw_delta,voice_type,voice_length
2023-03-14 18:02:25:958,0,-7.57729,-2.29531,63.3217,Q,Q
2023-03-14 18:02:25:966,0,-7.58098,-2.29277,63.3372,Q,Q
2023-03-14 18:02:25:977,0,-7.58164,-2.28767,63.3499,Q,Q
2023-03-14 18:02:25:987,0,-7.58788,-2.28536,63.3572,Q,Q
2023-03-14 18:02:25:997,0,-7.59184,-2.28421,63.3616,Q,Q
2023-03-14 18:02:26:7,0,-7.59476,-2.28439,63.3679,Q,Q
2023-03-14 18:02:26:17,0,-7.59347,-2.28665,63.3681,Q,Q
2023-03-14 18:02:26:27,0,-7.59077,-2.29308,63.3697,Q,Q
2023-03-14 18:02:26:37,0,-7.58298,-2.29667,63.3709,Q,Q
2023-03-14 18:02:26:47,0,-7.57877,-2.30823,63.3716,Q,Q
2023-03-14 18:02:26:57,0,-7.57276,-2.31636,63.3736,Q,Q
2023-03-14 18:02:26:67,0,-7.57182,-2.32435,63.3789,Q,Q
2023-03-14 18:02:26:77,0,-7.57529,-2.33551,63.3864,Q,Q
2023-03-14 18:02:26:87,0,-7.58005,-2.34717,63.3945,Q,Q
2023-03-14 18:02:26:97,0,-7.58343,-2.35225,63.4063,Q,Q
2023-03-14 18:02:26:107,0,-7.58345,-2.35918,63.4201,Q,Q
2023-03-14 18:02:26:117,0,-7.58269,-2.36235,63.4333,Q,Q
2023-03-14 18:02:26:127,0,-7.58216,-2.36201,63.4485,Q,Q
2023-03-14 18:02:26:137,0,-7.57594,-2.36085,63.4603,Q,Q
2023-03-14 18:02:26:147,0,-7.57257,-2.3604,63.4697,Q,Q
2023-03-14 18:02:26:157,0,-7.57164,-2.35789,63.4761,Q,Q
2023-03-14 18:02:26:167,0,-7.57004,-2.35447,63.4789,Q,Q
2023-03-14 18:02:26:177,0,-7.5664,-2.35144,63.4841,Q,Q
2023-03-14 18:02:26:187,0,-7.56558,-2.34931,63.4835,Q,Q
2023-03-14 18:02:26:197,0,-7.56782,-2.34259,63.4814,Q,Q
2023-03-14 18:02:26:207,0,-7.56829,-2.34152,63.4766,Q,Q
2023-03-14 18:02:26:217,0,-7.5709,-2.34037,63.4725,Q,Q
2023-03-14 18:02:26:227,0,-7.57311,-2.33583,63.4683,Q,Q
2023-03-14 18:02:26:237,0,-7.57528,-2.33092,63.4621,Q,Q
2023-03-14 18:02:26:247,0,-7.57646,-2.32218,63.4509,Q,Q
2023-03-14 18:02:26:257,0,-7.57896,-2.31359,63.4373,Q,Q
2023-03-14 18:02:26:267,0,-7.58087,-2.3041,63.4231,Q,Q
2023-03-14 18:02:26:277,0,-7.5826,-2.2988,63.4107,Q,Q
2023-03-14 18:02:26:287,0,-7.58369,-2.29762,63.4004,Q,Q
2023-03-14 18:02:26:297,0,-7.58578,-2.29743,63.3915,Q,Q
2023-03-14 18:02:26:307,0,-7.59052,-2.29748,63.3888,Q,Q
2023-03-14 18:02:26:317,0,-7.59183,-2.2955,63.3845,Q,Q
2023-03-14 18:02:26:327,0,-7.59146,-2.29291,63.3816,Q,Q
2023-03-14 18:02:26:337,0,-7.58645,-2.29174,63.3772,Q,Q
2023-03-14 18:02:26:347,0,-7.57678,-2.28597,63.3757,Q,Q
2023-03-14 18:02:26:357,0,-7.5677,-2.28181,63.3752,Q,Q
2023-03-14 18:02:26:367,0,-7.5639,-2.27823,63.3761,Q,Q
2023-03-14 18:02:26:377,0,-7.55561,-2.27726,63.3768,Q,Q
2023-03-14 18:02:26:386,0,-7.54788,-2.27392,63.3754,Q,Q
2023-03-14 18:02:26:396,0,-7.53632,-2.27457,63.3778,Q,Q
2023-03-14 18:02:26:406,0,-7.52662,-2.27788,63.3782,Q,Q
2023-03-14 18:02:26:416,0,-7.51457,-2.28241,63.3806,Q,Q
2023-03-14 18:02:26:426,0,-7.50285,-2.29065,63.3815,Q,Q
2023-03-14 18:02:26:436,0,-7.48977,-2.29874,63.3812,Q,Q
2023-03-14 18:02:26:446,0,-7.47994,-2.30497,63.379,Q,Q
2023-03-14 18:02:26:457,0,-7.46957,-2.31119,63.3816,Q,Q
2023-03-14 18:02:26:466,0,-7.46491,-2.31804,63.3871,Q,Q
2023-03-14 18:02:26:476,0,-7.45897,-2.3238,63.3968,Q,Q
2023-03-14 18:02:26:486,0,-7.45403,-2.32939,63.4071,Q,Q
2023-03-14 18:02:26:496,0,-7.44916,-2.3354,63.4163,Q,Q
2023-03-14 18:02:26:507,0,-7.44993,-2.34057,63.4269,Q,Q
2023-03-14 18:02:26:516,0,-7.448,-2.344,63.4343,Q,Q
2023-03-14 18:02:26:526,0,-7.44808,-2.34724,63.4414,Q,Q
2023-03-14 18:02:26:537,0,-7.45223,-2.34864,63.4515,Q,Q
2023-03-14 18:02:26:546,0,-7.45042,-2.34749,63.455,Q,Q
2023-03-14 18:02:26:557,0,-7.4517,-2.34507,63.4572,Q,Q
2023-03-14 18:02:26:566,0,-7.45656,-2.34056,63.455,Q,Q
2023-03-14 18:02:26:576,0,-7.45698,-2.33697,63.45,Q,Q
2023-03-14 18:02:26:586,0,-7.45813,-2.33317,63.4448,Q,Q
2023-03-14 18:02:26:596,0,-7.45943,-2.32622,63.4411,Q,Q
2023-03-14 18:02:26:606,0,-7.4601,-2.32294,63.4371,Q,Q
2023-03-14 18:02:26:617,0,-7.46503,-2.31785,63.4325,Q,Q
2023-03-14 18:02:26:626,0,-7.47171,-2.31267,63.4277,Q,Q
2023-03-14 18:02:26:636,0,-7.47745,-2.30496,63.4242,Q,Q
2023-03-14 18:02:26:647,0,-7.47764,-2.29797,63.418,Q,Q
2023-03-14 18:02:26:657,0,-7.48082,-2.28823,63.4136,Q,Q
2023-03-14 18:02:26:667,0,-7.48191,-2.2806,63.407,Q,Q
2023-03-14 18:02:26:676,0,-7.48026,-2.27332,63.399,Q,Q
2023-03-14 18:02:26:687,0,-7.48218,-2.2629,63.3944,Q,Q
2023-03-14 18:02:26:696,0,-7.48564,-2.25719,63.3884,Q,Q
2023-03-14 18:02:26:706,0,-7.48976,-2.25292,63.3908,Q,Q
2023-03-14 18:02:26:716,0,-7.49352,-2.2553,63.3906,Q,Q
2023-03-14 18:02:26:726,0,-7.49728,-2.25817,63.3931,Q,Q
2023-03-14 18:02:26:736,0,-7.50193,-2.26464,63.3995,Q,Q
2023-03-14 18:02:26:747,0,-7.50988,-2.26908,63.4084,Q,Q
2023-03-14 18:02:26:757,0,-7.51831,-2.27264,63.4211,Q,Q
2023-03-14 18:02:26:767,0,-7.52882,-2.27308,63.4305,Q,Q
2023-03-14 18:02:26:777,0,-7.54193,-2.27403,63.446,Q,Q
2023-03-14 18:02:26:787,0,-7.55809,-2.2659,63.4642,Q,Q
2023-03-14 18:02:26:797,0,-7.57568,-2.25363,63.4785,Q,Q
2023-03-14 18:02:26:807,0,-7.5931,-2.23211,63.4962,Q,Q
2023-03-14 18:02:26:817,0,-7.61548,-2.20756,63.514,Q,Q
2023-03-14 18:02:26:827,0,-7.6413,-2.18028,63.5369,Q,Q
2023-03-14 18:02:26:837,0,-7.6691,-2.15372,63.5736,Q,Q
2023-03-14 18:02:26:847,0,-7.69257,-2.12557,63.6172,Q,Q
2023-03-14 18:02:26:857,0,-7.71123,-2.09856,63.6592,Q,Q
2023-03-14 18:02:26:867,0,-7.7256,-2.06632,63.697,Q,Q
2023-03-14 18:02:26:877,0,-7.73172,-2.02316,63.7202,Q,Q
2023-03-14 18:02:26:887,0,-7.74063,-1.9736,63.7254,Q,Q
2023-03-14 18:02:26:897,0,-7.74863,-1.92182,63.6985,Q,Q
2023-03-14 18:02:26:907,0,-7.75912,-1.87061,63.6453,Q,Q
2023-03-14 18:02:26:917,0,-7.77118,-1.82974,63.5807,Q,Q
2023-03-14 18:02:26:927,0,-7.79033,-1.8003,63.51,Q,Q
2023-03-14 18:02:26:937,0,-7.82026,-1.77811,63.4215,Q,Q
2023-03-14 18:02:26:947,0,-7.86229,-1.75989,63.3218,Q,Q
2023-03-14 18:02:26:957,0,-7.9153,-1.75204,63.219,Q,Q
2023-03-14 18:02:26:967,0,-7.97969,-1.75774,63.1187,Q,Q
2023-03-14 18:02:26:977,0,-8.06121,-1.76685,63.013,Q,Q
2023-03-14 18:02:26:987,0,-8.16031,-1.79276,62.9118,Q,Q
2023-03-14 18:02:26:997,0,-8.28671,-1.83455,62.8235,Q,Q
2023-03-14 18:02:27:7,0,-8.43467,-1.88843,62.7547,Q,Q
2023-03-14 18:02:27:17,0,-8.58529,-1.93549,62.7144,Q,Q
2023-03-14 18:02:27:27,0,-8.72484,-1.98535,62.6968,Q,Q
2023-03-14 18:02:27:37,0,-8.85335,-2.03779,62.7049,Q,Q
2023-03-14 18:02:27:47,0,-8.98189,-2.08971,62.736,Q,Q
2023-03-14 18:02:27:57,0,-9.11816,-2.14781,62.7962,Q,Q
2023-03-14 18:02:27:67,0,-9.2453,-2.21005,62.8688,Q,Q
2023-03-14 18:02:27:77,0,-9.35797,-2.26956,62.9443,Q,Q
2023-03-14 18:02:27:87,0,-9.44762,-2.31812,63.0222,Q,Q
2023-03-14 18:02:27:97,0,-9.53693,-2.3624,63.1,Q,Q
2023-03-14 18:02:27:107,0,-9.63066,-2.40396,63.1736,Q,Q
2023-03-14 18:02:27:117,0,-9.73037,-2.44175,63.2416,Q,Q
2023-03-14 18:02:27:127,0,-9.83459,-2.47365,63.3096,Q,Q
2023-03-14 18:02:27:137,0,-9.93453,-2.5044,63.3779,Q,Q
2023-03-14 18:02:27:147,0,-10.0234,-2.53341,63.4468,Q,Q
2023-03-14 18:02:27:157,0,-10.1038,-2.55827,63.517,Q,Q
2023-03-14 18:02:27:167,0,-10.1719,-2.58172,63.5857,Q,Q
2023-03-14 18:02:27:177,0,-10.2112,-2.59907,63.6391,Q,Q
2023-03-14 18:02:27:187,0,-10.227,-2.60058,63.675,Q,Q
2023-03-14 18:02:27:197,0,-10.2276,-2.58609,63.6883,Q,Q
2023-03-14 18:02:27:207,0,-10.2222,-2.56367,63.685,Q,Q
2023-03-14 18:02:27:217,0,-10.222,-2.53578,63.6604,Q,Q
2023-03-14 18:02:27:227,0,-10.2308,-2.50272,63.6231,Q,Q
2023-03-14 18:02:27:237,0,-10.2563,-2.4735,63.5752,Q,Q
2023-03-14 18:02:27:247,0,-10.2911,-2.45206,63.5319,Q,Q
2023-03-14 18:02:27:257,0,-10.337,-2.43747,63.498,Q,Q
2023-03-14 18:02:27:267,0,-10.3919,-2.42594,63.4782,Q,Q
2023-03-14 18:02:27:277,0,-10.4531,-2.42053,63.4644,Q,Q
2023-03-14 18:02:27:287,0,-10.522,-2.42345,63.4624,Q,Q
2023-03-14 18:02:27:297,0,-10.6076,-2.41718,63.4715,Q,Q
2023-03-14 18:02:27:307,0,-10.6974,-2.39914,63.4918,Q,Q
2023-03-14 18:02:27:317,0,-10.7865,-2.37893,63.5236,Q,Q
2023-03-14 18:02:27:327,0,-10.8805,-2.36755,63.5697,Q,Q
2023-03-14 18:02:27:337,0,-10.9832,-2.3676,63.6224,Q,Q
2023-03-14 18:02:27:347,0,-11.0952,-2.37161,63.6857,Q,Q
2023-03-14 18:02:27:357,0,-11.1973,-2.38244,63.7491,Q,Q
2023-03-14 18:02:27:367,0,-11.2871,-2.38857,63.8109,Q,Q
2023-03-14 18:02:27:377,0,-11.3614,-2.38559,63.8681,Q,Q
2023-03-14 18:02:27:387,0,-11.4238,-2.38176,63.9181,Q,Q
2023-03-14 18:02:27:397,0,-11.4809,-2.37977,63.9607,Q,Q
2023-03-14 18:02:27:407,0,-11.5363,-2.38118,63.9935,Q,Q
2023-03-14 18:02:27:417,0,-11.5854,-2.38505,64.0174,Q,Q
2023-03-14 18:02:27:427,0,-11.6311,-2.39326,64.0254,Q,Q
2023-03-14 18:02:27:436,0,-11.6742,-2.40582,64.0254,Q,Q
2023-03-14 18:02:27:447,0,-11.7189,-2.42069,64.0135,Q,Q
2023-03-14 18:02:27:457,0,-11.7692,-2.4375,63.9941,Q,Q
2023-03-14 18:02:27:467,0,-11.8255,-2.463,63.9659,Q,Q
2023-03-14 18:02:27:477,0,-11.8824,-2.50604,63.9405,Q,Q
2023-03-14 18:02:27:487,0,-11.9354,-2.56054,63.9153,Q,Q
2023-03-14 18:02:27:497,0,-11.9788,-2.607,63.8943,Q,Q
2023-03-14 18:02:27:507,0,-12.0068,-2.6362,63.8766,Q,Q
2023-03-14 18:02:27:517,0,-12.0247,-2.66051,63.864,Q,Q
2023-03-14 18:02:27:527,0,-12.0495,-2.67701,63.8606,Q,Q
2023-03-14 18:02:27:537,0,-12.0801,-2.68981,63.8695,Q,Q
2023-03-14 18:02:27:547,0,-12.1226,-2.69986,63.8859,Q,Q
2023-03-14 18:02:27:557,0,-12.1724,-2.70549,63.9106,Q,Q
2023-03-14 18:02:27:567,0,-12.2184,-2.70823,63.9308,Q,Q
2023-03-14 18:02:27:577,0,-12.2569,-2.70527,63.9513,Q,Q
2023-03-14 18:02:27:587,0,-12.2977,-2.69163,63.9798,Q,Q
2023-03-14 18:02:27:597,0,-12.3421,-2.66628,64.0108,Q,Q
2023-03-14 18:02:27:607,0,-12.3913,-2.63558,64.0463,Q,Q
2023-03-14 18:02:27:617,0,-12.4452,-2.60616,64.0828,Q,Q
2023-03-14 18:02:27:627,0,-12.5042,-2.58482,64.1204,Q,Q
2023-03-14 18:02:27:637,0,-12.5629,-2.56578,64.1568,Q,Q
2023-03-14 18:02:27:647,0,-12.6186,-2.5486,64.1821,Q,Q
2023-03-14 18:02:27:657,0,-12.6714,-2.54208,64.1992,Q,Q
2023-03-14 18:02:27:667,0,-12.7309,-2.54821,64.2115,Q,Q
2023-03-14 18:02:27:677,0,-12.8019,-2.56163,64.222,Q,Q
2023-03-14 18:02:27:687,0,-12.8765,-2.57421,64.2234,Q,Q
2023-03-14 18:02:27:697,0,-12.9388,-2.58107,64.2155,Q,Q
2023-03-14 18:02:27:707,0,-12.9977,-2.58531,64.2049,Q,Q
2023-03-14 18:02:27:717,0,-13.0537,-2.59169,64.192,Q,Q
2023-03-14 18:02:27:727,0,-13.1102,-2.60014,64.1777,Q,Q
2023-03-14 18:02:27:737,0,-13.1647,-2.60629,64.1609,Q,Q
2023-03-14 18:02:27:747,0,-13.2175,-2.60629,64.1434,Q,Q
2023-03-14 18:02:27:757,0,-13.2676,-2.60582,64.1321,Q,Q
2023-03-14 18:02:27:767,0,-13.3225,-2.60535,64.1258,Q,Q
2023-03-14 18:02:27:777,0,-13.3808,-2.60982,64.1178,Q,Q
2023-03-14 18:02:27:787,0,-13.4431,-2.61655,64.1164,Q,Q
2023-03-14 18:02:27:797,0,-13.5008,-2.62448,64.1145,Q,Q
2023-03-14 18:02:27:807,0,-13.5524,-2.63214,64.1107,Q,Q
2023-03-14 18:02:27:817,0,-13.5958,-2.63374,64.1092,Q,Q
2023-03-14 18:02:27:827,0,-13.639,-2.6366,64.1042,Q,Q
2023-03-14 18:02:27:837,0,-13.6854,-2.63826,64.108,Q,Q
2023-03-14 18:02:27:847,0,-13.7415,-2.64075,64.1116,Q,Q
2023-03-14 18:02:27:857,0,-13.8039,-2.64692,64.1161,Q,Q
2023-03-14 18:02:27:867,0,-13.8673,-2.65384,64.128,Q,Q
2023-03-14 18:02:27:877,0,-13.9207,-2.66306,64.1322,Q,Q
2023-03-14 18:02:27:887,0,-13.9626,-2.67666,64.1328,Q,Q
2023-03-14 18:02:27:897,0,-13.996,-2.6922,64.1291,Q,Q
2023-03-14 18:02:27:907,0,-14.0211,-2.70739,64.1172,Q,Q
2023-03-14 18:02:27:917,0,-14.033,-2.72218,64.1017,Q,Q
2023-03-14 18:02:27:927,0,-14.0493,-2.74402,64.0831,Q,Q
2023-03-14 18:02:27:937,0,-14.0723,-2.76697,64.0673,Q,Q
2023-03-14 18:02:27:947,0,-14.0914,-2.7902,64.0521,Q,Q
2023-03-14 18:02:27:957,0,-14.1104,-2.81048,64.0361,Q,Q
2023-03-14 18:02:27:967,0,-14.1177,-2.8316,64.0207,Q,Q
2023-03-14 18:02:27:977,0,-14.1186,-2.84895,64.0042,Q,Q
2023-03-14 18:02:27:987,0,-14.1149,-2.86111,63.9941,Q,Q
2023-03-14 18:02:27:997,0,-14.1055,-2.87353,63.9833,Q,Q
2023-03-14 18:02:28:7,0,-14.0989,-2.88166,63.9801,Q,Q
2023-03-14 18:02:28:17,0,-14.0925,-2.89124,63.9785,Q,Q
2023-03-14 18:02:28:27,0,-14.0873,-2.89769,63.9817,Q,Q
2023-03-14 18:02:28:37,0,-14.0802,-2.90306,63.9822,Q,Q
2023-03-14 18:02:28:47,0,-14.0727,-2.90648,63.9844,Q,Q
2023-03-14 18:02:28:57,0,-14.0594,-2.90971,63.9909,Q,Q
2023-03-14 18:02:28:67,0,-14.0385,-2.91067,63.9952,Q,Q
2023-03-14 18:02:28:77,0,-14.0155,-2.91267,63.9944,Q,Q
2023-03-14 18:02:28:87,0,-13.9815,-2.91733,63.9948,Q,Q
2023-03-14 18:02:28:97,0,-13.9415,-2.9233,63.9893,Q,Q
2023-03-14 18:02:28:107,0,-13.8985,-2.9351,63.9777,Q,Q
2023-03-14 18:02:28:117,0,-13.8481,-2.9424,63.9629,Q,Q
2023-03-14 18:02:28:127,0,-13.7955,-2.95748,63.9447,Q,Q
2023-03-14 18:02:28:137,0,-13.7409,-2.96799,63.9218,Q,Q
2023-03-14 18:02:28:147,0,-13.6758,-2.98237,63.8947,Q,Q
2023-03-14 18:02:28:157,0,-13.6077,-2.99222,63.8666,Q,Q
2023-03-14 18:02:28:167,0,-13.536,-3.00315,63.8387,Q,Q
2023-03-14 18:02:28:177,0,-13.464,-3.01011,63.8095,Q,Q
2023-03-14 18:02:28:187,0,-13.3936,-3.0154,63.7865,Q,Q
2023-03-14 18:02:28:197,0,-13.3205,-3.02056,63.7622,Q,Q
2023-03-14 18:02:28:207,0,-13.2468,-3.02517,63.7363,Q,Q
2023-03-14 18:02:28:217,0,-13.1703,-3.03362,63.7169,Q,Q
2023-03-14 18:02:28:227,0,-13.0986,-3.03862,63.7023,Q,Q
2023-03-14 18:02:28:237,0,-13.0209,-3.04547,63.6901,Q,Q
2023-03-14 18:02:28:247,0,-12.9461,-3.04992,63.6824,Q,Q
2023-03-14 18:02:28:257,0,-12.8751,-3.05419,63.6788,Q,Q
2023-03-14 18:02:28:267,0,-12.809,-3.06373,63.6797,Q,Q
2023-03-14 18:02:28:277,0,-12.7428,-3.07306,63.688,Q,Q
2023-03-14 18:02:28:287,0,-12.6786,-3.08327,63.6935,Q,Q
2023-03-14 18:02:28:297,0,-12.6136,-3.0877,63.6983,Q,Q
2023-03-14 18:02:28:307,0,-12.5525,-3.09313,63.704,Q,Q
2023-03-14 18:02:28:317,0,-12.4906,-3.09643,63.7098,Q,Q
2023-03-14 18:02:28:327,0,-12.4334,-3.10238,63.7124,Q,Q
2023-03-14 18:02:28:337,0,-12.3817,-3.10738,63.7132,Q,Q
2023-03-14 18:02:28:347,0,-12.3368,-3.11559,63.715,Q,Q
2023-03-14 18:02:28:357,0,-12.2941,-3.12172,63.7172,Q,Q
2023-03-14 18:02:28:367,0,-12.2534,-3.12912,63.7169,Q,Q
2023-03-14 18:02:28:377,0,-12.2135,-3.13636,63.7141,Q,Q
2023-03-14 18:02:28:387,0,-12.1774,-3.14558,63.7098,Q,Q
2023-03-14 18:02:28:397,0,-12.1426,-3.15455,63.7052,Q,Q
2023-03-14 18:02:28:407,0,-12.1097,-3.15728,63.7001,Q,Q
2023-03-14 18:02:28:417,0,-12.0782,-3.1619,63.6929,Q,Q
2023-03-14 18:02:28:427,0,-12.0526,-3.1692,63.6829,Q,Q
2023-03-14 18:02:28:437,0,-12.0316,-3.17904,63.6732,Q,Q
2023-03-14 18:02:28:447,0,-12.0172,-3.19262,63.6679,Q,Q
2023-03-14 18:02:28:457,0,-12.0068,-3.20702,63.6673,Q,Q
2023-03-14 18:02:28:467,0,-11.9956,-3.22338,63.6718,Q,Q
2023-03-14 18:02:28:477,0,-11.9884,-3.23686,63.678,Q,Q
2023-03-14 18:02:28:487,0,-11.9801,-3.24744,63.6868,Q,Q
2023-03-14 18:02:28:497,0,-11.9754,-3.25976,63.6957,Q,Q
2023-03-14 18:02:28:507,0,-11.9698,-3.26709,63.706,Q,Q
2023-03-14 18:02:28:517,0,-11.9605,-3.276,63.718,Q,Q
2023-03-14 18:02:28:527,0,-11.953,-3.28577,63.73,Q,Q
2023-03-14 18:02:28:537,0,-11.9484,-3.29332,63.7408,Q,Q
2023-03-14 18:02:28:547,0,-11.9465,-3.29821,63.7495,Q,Q
2023-03-14 18:02:28:557,0,-11.947,-3.30559,63.7606,Q,Q
2023-03-14 18:02:28:567,0,-11.9476,-3.31561,63.774,Q,Q
2023-03-14 18:02:28:577,0,-11.9478,-3.32058,63.7828,Q,Q
2023-03-14 18:02:28:587,0,-11.9456,-3.32923,63.7905,Q,Q
2023-03-14 18:02:28:597,0,-11.9408,-3.33777,63.7964,Q,Q
2023-03-14 18:02:28:607,0,-11.9391,-3.34379,63.8048,Q,Q
2023-03-14 18:02:28:617,0,-11.9368,-3.3546,63.8093,Q,Q
2023-03-14 18:02:28:627,0,-11.9273,-3.36473,63.8098,Q,Q
2023-03-14 18:02:28:637,0,-11.9231,-3.37382,63.8133,Q,Q
2023-03-14 18:02:28:647,0,-11.9147,-3.37791,63.8111,Q,Q
2023-03-14 18:02:28:657,0,-11.9031,-3.38051,63.8063,Q,Q
2023-03-14 18:02:28:667,0,-11.8942,-3.37849,63.7987,Q,Q
2023-03-14 18:02:28:677,0,-11.8849,-3.37954,63.7869,Q,Q
2023-03-14 18:02:28:687,0,-11.8707,-3.38383,63.777,Q,Q
2023-03-14 18:02:28:697,0,-11.8566,-3.39254,63.7678,Q,Q
2023-03-14 18:02:28:707,0,-11.8432,-3.39821,63.7625,Q,Q
2023-03-14 18:02:28:717,0,-11.8301,-3.41133,63.7559,Q,Q
2023-03-14 18:02:28:727,0,-11.8113,-3.42526,63.7585,Q,Q
2023-03-14 18:02:28:737,0,-11.7931,-3.43638,63.7619,Q,Q
2023-03-14 18:02:28:747,0,-11.7794,-3.44374,63.7625,Q,Q
2023-03-14 18:02:28:757,0,-11.7599,-3.45136,63.7697,Q,Q
2023-03-14 18:02:28:767,0,-11.7389,-3.45729,63.7713,Q,Q
2023-03-14 18:02:28:777,0,-11.7209,-3.46428,63.7742,Q,Q
2023-03-14 18:02:28:787,0,-11.7048,-3.47398,63.7778,Q,Q
2023-03-14 18:02:28:797,0,-11.689,-3.48234,63.7841,Q,Q
2023-03-14 18:02:28:807,0,-11.6768,-3.49223,63.7895,Q,Q
2023-03-14 18:02:28:817,0,-11.663,-3.5014,63.7918,Q,Q
2023-03-14 18:02:28:827,0,-11.6499,-3.5061,63.7949,Q,Q
2023-03-14 18:02:28:837,0,-11.6409,-3.51387,63.7974,Q,Q
2023-03-14 18:02:28:847,0,-11.6344,-3.52122,63.8001,Q,Q
2023-03-14 18:02:28:857,0,-11.6276,-3.52724,63.8027,Q,Q
2023-03-14 18:02:28:867,0,-11.6195,-3.53434,63.8049,Q,Q
2023-03-14 18:02:28:877,0,-11.6142,-3.54277,63.8094,Q,Q
2023-03-14 18:02:28:887,0,-11.6107,-3.55281,63.8137,Q,Q
2023-03-14 18:02:28:897,0,-11.6072,-3.56425,63.8171,Q,Q
2023-03-14 18:02:28:907,0,-11.602,-3.57284,63.8192,Q,Q
2023-03-14 18:02:28:917,0,-11.5982,-3.583,63.8203,Q,Q
2023-03-14 18:02:28:927,0,-11.5904,-3.59321,63.8197,Q,Q
2023-03-14 18:02:28:937,0,-11.5878,-3.5963,63.8193,Q,Q
2023-03-14 18:02:28:947,0,-11.5828,-3.59958,63.8165,Q,Q
2023-03-14 18:02:28:957,0,-11.5823,-3.60363,63.8176,Q,Q
2023-03-14 18:02:28:967,0,-11.5823,-3.603,63.8162,Q,Q
2023-03-14 18:02:28:977,0,-11.5796,-3.60318,63.8167,Q,Q
2023-03-14 18:02:28:987,0,-11.5759,-3.6047,63.8188,Q,Q
2023-03-14 18:02:28:997,0,-11.5684,-3.6048,63.8219,Q,Q
2023-03-14 18:02:29:7,0,-11.5625,-3.60207,63.8213,Q,Q
2023-03-14 18:02:29:17,0,-11.556,-3.60098,63.8164,Q,Q
2023-03-14 18:02:29:27,0,-11.5475,-3.59776,63.8127,Q,Q
2023-03-14 18:02:29:37,0,-11.5402,-3.59639,63.8031,Q,Q
2023-03-14 18:02:29:47,0,-11.5314,-3.6019,63.7929,Q,Q
2023-03-14 18:02:29:57,0,-11.5217,-3.60579,63.7819,Q,Q
2023-03-14 18:02:29:67,0,-11.51,-3.61079,63.7721,Q,Q
2023-03-14 18:02:29:77,0,-11.4972,-3.61529,63.7619,Q,Q
2023-03-14 18:02:29:87,0,-11.4876,-3.61771,63.7535,Q,Q
2023-03-14 18:02:29:97,0,-11.4765,-3.62144,63.7452,Q,Q
2023-03-14 18:02:29:107,0,-11.4659,-3.62891,63.7409,Q,Q
2023-03-14 18:02:29:117,0,-11.4516,-3.62856,63.7424,Q,Q
2023-03-14 18:02:29:127,0,-11.4353,-3.62766,63.7421,Q,Q
2023-03-14 18:02:29:137,0,-11.4218,-3.61586,63.746,Q,Q
2023-03-14 18:02:29:147,0,-11.3964,-3.59228,63.7473,Q,Q
2023-03-14 18:02:29:157,0,-11.3718,-3.58667,63.7467,Q,Q
2023-03-14 18:02:29:167,0,-11.3619,-3.59228,63.7482,Q,Q
2023-03-14 18:02:29:177,0,-11.3611,-3.59362,63.755,Q,Q
2023-03-14 18:02:29:187,0,-11.3572,-3.5953,63.76,Q,Q
2023-03-14 18:02:29:197,0,-11.3457,-3.59895,63.7583,Q,Q
2023-03-14 18:02:29:207,0,-11.3383,-3.60357,63.7578,Q,Q
2023-03-14 18:02:29:217,0,-11.3263,-3.60365,63.7569,Q,Q
2023-03-14 18:02:29:227,0,-11.3146,-3.60443,63.7541,Q,Q
2023-03-14 18:02:29:237,0,-11.3036,-3.60322,63.7488,Q,Q
2023-03-14 18:02:29:247,0,-11.293,-3.60536,63.7451,Q,Q
2023-03-14 18:02:29:257,0,-11.2855,-3.60244,63.741,Q,Q
2023-03-14 18:02:29:267,0,-11.2816,-3.60129,63.7374,Q,Q
2023-03-14 18:02:29:277,0,-11.276,-3.60029,63.7319,Q,Q
2023-03-14 18:02:29:287,0,-11.2678,-3.59967,63.7258,Q,Q
2023-03-14 18:02:29:297,0,-11.26,-3.59717,63.7161,Q,Q
2023-03-14 18:02:29:307,0,-11.2513,-3.59506,63.7073,Q,Q
2023-03-14 18:02:29:317,0,-11.2408,-3.59667,63.6967,Q,Q
2023-03-14 18:02:29:327,0,-11.2309,-3.59688,63.6899,Q,Q
2023-03-14 18:02:29:337,0,-11.2245,-3.59862,63.6847,Q,Q
2023-03-14 18:02:29:347,0,-11.2214,-3.59792,63.6806,Q,Q
2023-03-14 18:02:29:357,0,-11.2172,-3.60432,63.6772,Q,Q
2023-03-14 18:02:29:367,0,-11.2131,-3.61145,63.674,Q,Q
2023-03-14 18:02:29:377,0,-11.2111,-3.61623,63.6719,Q,Q
2023-03-14 18:02:29:387,0,-11.2072,-3.62085,63.6702,Q,Q
2023-03-14 18:02:29:397,0,-11.2011,-3.62614,63.6675,Q,Q
2023-03-14 18:02:29:407,0,-11.1905,-3.62935,63.6681,Q,Q
2023-03-14 18:02:29:417,0,-11.1797,-3.63195,63.665,Q,Q
2023-03-14 18:02:29:427,0,-11.1726,-3.6321,63.6623,Q,Q
2023-03-14 18:02:29:437,0,-11.1647,-3.63524,63.6603,Q,Q
2023-03-14 18:02:29:447,0,-11.1629,-3.63827,63.6542,Q,Q
2023-03-14 18:02:29:457,0,-11.1618,-3.63924,63.6508,Q,Q
2023-03-14 18:02:29:467,0,-11.1609,-3.63934,63.6448,Q,Q
2023-03-14 18:02:29:477,0,-11.1624,-3.63418,63.6408,Q,Q
2023-03-14 18:02:29:487,0,-11.1616,-3.63296,63.6364,Q,Q
2023-03-14 18:02:29:497,0,-11.1604,-3.6333,63.633,Q,Q
2023-03-14 18:02:29:507,0,-11.1565,-3.62931,63.628,Q,Q
2023-03-14 18:02:29:517,0,-11.1524,-3.62601,63.6228,Q,Q
2023-03-14 18:02:29:527,0,-11.1483,-3.62296,63.6177,Q,Q
2023-03-14 18:02:29:537,0,-11.1411,-3.62143,63.61,Q,Q
2023-03-14 18:02:29:547,0,-11.1371,-3.61588,63.5974,Q,Q
2023-03-14 18:02:29:557,0,-11.1289,-3.60874,63.5793,Q,Q
2023-03-14 18:02:29:567,0,-11.1149,-3.60326,63.5578,Q,Q
2023-03-14 18:02:29:577,0,-11.1013,-3.60228,63.536,Q,Q
2023-03-14 18:02:29:587,0,-11.087,-3.60087,63.5147,Q,Q
2023-03-14 18:02:29:597,0,-11.0776,-3.60226,63.4967,Q,Q
2023-03-14 18:02:29:607,0,-11.0717,-3.60489,63.4784,Q,Q
2023-03-14 18:02:29:617,0,-11.0691,-3.61063,63.4595,Q,Q
2023-03-14 18:02:29:627,0,-11.0675,-3.61432,63.4427,Q,Q
2023-03-14 18:02:29:637,0,-11.0666,-3.61703,63.4274,Q,Q
2023-03-14 18:02:29:647,0,-11.0627,-3.62052,63.4172,Q,Q
2023-03-14 18:02:29:657,0,-11.0597,-3.62129,63.4092,Q,Q
2023-03-14 18:02:29:667,0,-11.0522,-3.61973,63.4022,Q,Q
2023-03-14 18:02:29:677,0,-11.0389,-3.61774,63.3915,Q,Q
2023-03-14 18:02:29:687,0,-11.0285,-3.60979,63.3837,Q,Q
2023-03-14 18:02:29:697,0,-11.0217,-3.60513,63.377,Q,Q
2023-03-14 18:02:29:707,0,-11.0208,-3.59737,63.3683,Q,Q
2023-03-14 18:02:29:717,0,-11.0229,-3.59144,63.3574,Q,Q
2023-03-14 18:02:29:727,0,-11.0287,-3.58666,63.3516,Q,Q
2023-03-14 18:02:29:737,0,-11.0311,-3.58238,63.345,Q,Q
2023-03-14 18:02:29:747,0,-11.036,-3.57723,63.3409,Q,Q
2023-03-14 18:02:29:757,0,-11.0427,-3.57504,63.3399,Q,Q
2023-03-14 18:02:29:767,0,-11.0449,-3.56958,63.3396,Q,Q
2023-03-14 18:02:29:777,0,-11.0436,-3.56837,63.3353,Q,Q
2023-03-14 18:02:29:787,0,-11.0452,-3.56547,63.3304,Q,Q
2023-03-14 18:02:29:797,0,-11.0468,-3.55967,63.3293,Q,Q
2023-03-14 18:02:29:807,0,-11.0482,-3.55798,63.3282,Q,Q
2023-03-14 18:02:29:817,0,-11.0499,-3.55482,63.3249,Q,Q
2023-03-14 18:02:29:827,0,-11.0524,-3.55153,63.3178,Q,Q
2023-03-14 18:02:29:837,0,-11.0521,-3.5462,63.3089,Q,Q
2023-03-14 18:02:29:847,0,-11.0485,-3.54176,63.2947,Q,Q
2023-03-14 18:02:29:857,0,-11.0442,-3.53718,63.278,Q,Q
2023-03-14 18:02:29:867,0,-11.0392,-3.5355,63.2547,Q,Q
2023-03-14 18:02:29:877,0,-11.0281,-3.53407,63.2241,Q,Q
2023-03-14 18:02:29:887,0,-11.0206,-3.52991,63.1874,Q,Q
2023-03-14 18:02:29:897,0,-11.0141,-3.53191,63.1353,Q,Q
2023-03-14 18:02:29:907,0,-11.003,-3.54139,63.0659,Q,Q
2023-03-14 18:02:29:917,0,-10.9843,-3.55313,62.9718,Q,Q
2023-03-14 18:02:29:927,0,-10.9586,-3.57034,62.8519,Q,Q
2023-03-14 18:02:29:937,0,-10.9335,-3.58831,62.6931,Q,Q
2023-03-14 18:02:29:947,0,-10.9066,-3.6091,62.5003,Q,Q
2023-03-14 18:02:29:957,0,-10.8784,-3.63544,62.2707,Q,Q
2023-03-14 18:02:29:967,0,-10.8435,-3.6718,62.0005,Q,Q
2023-03-14 18:02:29:977,0,-10.8005,-3.71897,61.6755,Q,Q
2023-03-14 18:02:29:987,0,-10.7569,-3.77332,61.2894,Q,Q
2023-03-14 18:02:29:997,0,-10.7031,-3.84496,60.8253,Q,Q
2023-03-14 18:02:30:7,0,-10.6413,-3.9232,60.2454,Q,Q
2023-03-14 18:02:30:17,0,-10.5621,-4.00783,59.5186,Q,Q
2023-03-14 18:02:30:27,0,-10.4684,-4.10582,58.6661,Q,Q
2023-03-14 18:02:30:37,0,-10.3628,-4.23504,57.716,Q,Q
2023-03-14 18:02:30:47,0,-10.2514,-4.40259,56.6685,Q,Q
2023-03-14 18:02:30:57,0,-10.1341,-4.59273,55.5019,Q,Q
2023-03-14 18:02:30:67,0,-10.0019,-4.79762,54.1828,Q,Q
2023-03-14 18:02:30:77,0,-9.84452,-5.0075,52.704,Q,Q
2023-03-14 18:02:30:87,0,-9.66806,-5.21995,51.1,Q,Q
2023-03-14 18:02:30:97,0,-9.4812,-5.43771,49.4111,Q,Q
2023-03-14 18:02:30:107,0,-9.28755,-5.65739,47.6604,Q,Q
2023-03-14 18:02:30:117,0,-9.10314,-5.87833,45.8673,Q,Q
2023-03-14 18:02:30:127,0,-8.91851,-6.08858,44.0395,Q,Q
2023-03-14 18:02:30:137,0,-8.73189,-6.2814,42.1954,Q,Q
2023-03-14 18:02:30:147,0,-8.53883,-6.45408,40.3676,Q,Q
2023-03-14 18:02:30:157,0,-8.34786,-6.61675,38.5819,Q,Q
2023-03-14 18:02:30:167,0,-8.15828,-6.76097,36.8519,Q,Q
2023-03-14 18:02:30:177,0,-7.97117,-6.87769,35.1794,Q,Q
2023-03-14 18:02:30:187,0,-7.79008,-6.96611,33.57,Q,Q
2023-03-14 18:02:30:197,0,-7.60686,-7.0287,32.0404,Q,Q
2023-03-14 18:02:30:207,0,-7.43207,-7.06802,30.6174,Q,Q
2023-03-14 18:02:30:217,0,-7.27476,-7.0902,29.3126,Q,Q
2023-03-14 18:02:30:227,0,-7.14734,-7.09172,28.13,Q,Q
2023-03-14 18:02:30:237,0,-7.04276,-7.06899,27.067,Q,Q
2023-03-14 18:02:30:247,0,-6.95903,-7.02823,26.122,Q,Q
2023-03-14 18:02:30:257,0,-6.89457,-6.96236,25.2824,Q,Q
2023-03-14 18:02:30:267,0,-6.84104,-6.88083,24.5342,Q,Q
2023-03-14 18:02:30:277,0,-6.79726,-6.78903,23.8707,Q,Q
2023-03-14 18:02:30:287,0,-6.76377,-6.69481,23.294,Q,Q
2023-03-14 18:02:30:297,0,-6.74924,-6.60283,22.802,Q,Q
2023-03-14 18:02:30:307,0,-6.7551,-6.52304,22.3729,Q,Q
2023-03-14 18:02:30:317,0,-6.77687,-6.45822,21.9959,Q,Q
2023-03-14 18:02:30:327,0,-6.80602,-6.40008,21.6642,Q,Q
2023-03-14 18:02:30:337,0,-6.83754,-6.35224,21.3549,Q,Q
2023-03-14 18:02:30:347,0,-6.86744,-6.32072,21.0641,Q,Q
2023-03-14 18:02:30:357,0,-6.89353,-6.30557,20.7912,Q,Q
2023-03-14 18:02:30:367,0,-6.92586,-6.31214,20.5342,Q,Q
2023-03-14 18:02:30:377,0,-6.96188,-6.33143,20.2781,Q,Q
2023-03-14 18:02:30:387,0,-6.9956,-6.35869,20.0092,Q,Q
2023-03-14 18:02:30:397,0,-7.02423,-6.39293,19.7226,Q,Q
2023-03-14 18:02:30:407,0,-7.0398,-6.43606,19.418,Q,Q
2023-03-14 18:02:30:417,0,-7.05321,-6.48244,19.0941,Q,Q
2023-03-14 18:02:30:427,0,-7.06338,-6.53527,18.7394,Q,Q
2023-03-14 18:02:30:437,0,-7.06913,-6.59076,18.3545,Q,Q
2023-03-14 18:02:30:447,0,-7.07085,-6.65021,17.9489,Q,Q
2023-03-14 18:02:30:457,0,-7.0659,-6.70745,17.5286,Q,Q
2023-03-14 18:02:30:467,0,-7.06424,-6.76142,17.0944,Q,Q
2023-03-14 18:02:30:477,0,-7.06758,-6.80262,16.6524,Q,Q
2023-03-14 18:02:30:487,0,-7.0745,-6.84001,16.2166,Q,Q
2023-03-14 18:02:30:497,0,-7.08959,-6.87465,15.8028,Q,Q
2023-03-14 18:02:30:507,0,-7.10677,-6.905,15.409,Q,Q
2023-03-14 18:02:30:517,0,-7.1271,-6.92633,15.0382,Q,Q
2023-03-14 18:02:30:527,0,-7.15549,-6.93776,14.6877,Q,Q
2023-03-14 18:02:30:537,0,-7.18816,-6.94281,14.3702,Q,Q
2023-03-14 18:02:30:547,0,-7.22302,-6.93442,14.0851,Q,Q
2023-03-14 18:02:30:557,0,-7.26457,-6.91349,13.8454,Q,Q
2023-03-14 18:02:30:567,0,-7.31835,-6.89013,13.6501,Q,Q
2023-03-14 18:02:30:577,0,-7.37983,-6.86106,13.4995,Q,Q
2023-03-14 18:02:30:587,0,-7.43868,-6.81859,13.3799,Q,Q
2023-03-14 18:02:30:597,0,-7.48928,-6.76431,13.2912,Q,Q
2023-03-14 18:02:30:607,0,-7.5373,-6.69869,13.2307,Q,Q
2023-03-14 18:02:30:617,0,-7.58235,-6.62906,13.2004,Q,Q
2023-03-14 18:02:30:627,0,-7.63147,-6.55394,13.2029,Q,Q
2023-03-14 18:02:30:637,0,-7.68492,-6.48299,13.2414,Q,Q
2023-03-14 18:02:30:647,0,-7.74198,-6.40957,13.3096,Q,Q
2023-03-14 18:02:30:657,0,-7.80355,-6.33913,13.4037,Q,Q
2023-03-14 18:02:30:667,0,-7.8675,-6.27416,13.5261,Q,Q
2023-03-14 18:02:30:677,0,-7.92241,-6.21434,13.6536,Q,Q
2023-03-14 18:02:30:687,0,-7.96265,-6.16026,13.7832,Q,Q
2023-03-14 18:02:30:697,0,-7.98862,-6.11779,13.9163,Q,Q
2023-03-14 18:02:30:707,0,-8.01325,-6.09059,14.0566,Q,Q
2023-03-14 18:02:30:717,0,-8.04086,-6.07393,14.1979,Q,Q
2023-03-14 18:02:30:727,0,-8.05752,-6.07254,14.332,Q,Q
2023-03-14 18:02:30:737,0,-8.07045,-6.08274,14.4577,Q,Q
2023-03-14 18:02:30:747,0,-8.08753,-6.10254,14.5509,Q,Q
2023-03-14 18:02:30:757,0,-8.09988,-6.12267,14.6006,Q,Q
2023-03-14 18:02:30:767,0,-8.09859,-6.14941,14.6051,Q,Q
2023-03-14 18:02:30:777,0,-8.0847,-6.17991,14.5665,Q,Q
2023-03-14 18:02:30:787,0,-8.06447,-6.21915,14.4969,Q,Q
2023-03-14 18:02:30:797,0,-8.04361,-6.26287,14.3916,Q,Q
2023-03-14 18:02:30:807,0,-8.01578,-6.31205,14.2566,Q,Q
2023-03-14 18:02:30:817,0,-7.98333,-6.35989,14.0919,Q,Q
2023-03-14 18:02:30:827,0,-7.95219,-6.40365,13.9109,Q,Q
2023-03-14 18:02:30:837,0,-7.92826,-6.43719,13.7135,Q,Q
2023-03-14 18:02:30:847,0,-7.91017,-6.46496,13.5095,Q,Q
2023-03-14 18:02:30:857,0,-7.89366,-6.48742,13.3033,Q,Q
2023-03-14 18:02:30:867,0,-7.88034,-6.50173,13.0941,Q,Q
2023-03-14 18:02:30:877,0,-7.87602,-6.51519,12.8872,Q,Q
2023-03-14 18:02:30:887,0,-7.87772,-6.52482,12.6835,Q,Q
2023-03-14 18:02:30:897,0,-7.88806,-6.53074,12.4783,Q,Q
2023-03-14 18:02:30:907,0,-7.90435,-6.53417,12.2629,Q,Q
2023-03-14 18:02:30:917,0,-7.91772,-6.53703,12.0374,Q,Q
2023-03-14 18:02:30:927,0,-7.92987,-6.53994,11.802,Q,Q
2023-03-14 18:02:30:937,0,-7.93931,-6.54795,11.5513,Q,Q
2023-03-14 18:02:30:947,0,-7.9458,-6.56225,11.2839,Q,Q
2023-03-14 18:02:30:957,0,-7.95285,-6.58243,10.9981,Q,Q
2023-03-14 18:02:30:967,0,-7.96099,-6.61484,10.6955,Q,Q
2023-03-14 18:02:30:977,0,-7.97717,-6.65488,10.3567,Q,Q
2023-03-14 18:02:30:987,0,-7.98779,-6.70465,9.98249,Q,Q
2023-03-14 18:02:30:997,0,-7.99687,-6.75614,9.5699,Q,Q
2023-03-14 18:02:31:7,0,-7.99788,-6.81205,9.11739,Q,Q
2023-03-14 18:02:31:17,0,-7.99286,-6.8722,8.63891,Q,Q
2023-03-14 18:02:31:27,0,-7.98404,-6.94537,8.14495,Q,Q
2023-03-14 18:02:31:37,0,-7.97952,-7.02349,7.62339,Q,Q
2023-03-14 18:02:31:47,0,-7.9845,-7.09408,7.06959,Q,Q
2023-03-14 18:02:31:57,0,-7.99797,-7.15948,6.48828,Q,Q
2023-03-14 18:02:31:67,0,-8.04131,-7.2246,5.89953,Q,Q
2023-03-14 18:02:31:77,0,-8.09761,-7.28574,5.30827,Q,Q
2023-03-14 18:02:31:87,0,-8.15389,-7.36313,4.72317,Q,Q
2023-03-14 18:02:31:97,0,-8.20096,-7.46325,4.15773,Q,Q
2023-03-14 18:02:31:107,0,-8.2524,-7.58236,3.61817,Q,Q
2023-03-14 18:02:31:117,0,-8.32294,-7.71247,3.09975,Q,Q
2023-03-14 18:02:31:127,0,-8.41617,-7.84867,2.60295,Q,Q
2023-03-14 18:02:31:137,0,-8.53336,-7.99697,2.13626,Q,Q
2023-03-14 18:02:31:147,0,-8.66856,-8.16216,1.70971,Q,Q
2023-03-14 18:02:31:157,0,-8.81941,-8.33321,1.31977,Q,Q
2023-03-14 18:02:31:167,0,-8.97836,-8.51289,0.963742,Q,Q
2023-03-14 18:02:31:177,0,-9.14354,-8.69325,0.64146,Q,Q
2023-03-14 18:02:31:187,0,-9.29621,-8.86928,0.341454,Q,Q
2023-03-14 18:02:31:197,0,-9.43239,-9.04136,0.066044,Q,Q
2023-03-14 18:02:31:207,0,-9.56005,-9.22087,-0.175937,Q,Q
2023-03-14 18:02:31:217,0,-9.68152,-9.40387,-0.389325,Q,Q
2023-03-14 18:02:31:227,0,-9.80751,-9.58998,-0.577724,Q,Q
2023-03-14 18:02:31:237,0,-9.94779,-9.76696,-0.762072,Q,Q
2023-03-14 18:02:31:247,0,-10.0941,-9.93064,-0.949437,Q,Q
2023-03-14 18:02:31:257,0,-10.2371,-10.0812,-1.1373,Q,Q
2023-03-14 18:02:31:267,0,-10.362,-10.2384,-1.31662,Q,Q
2023-03-14 18:02:31:277,0,-10.468,-10.4082,-1.48558,Q,Q
2023-03-14 18:02:31:287,0,-10.5516,-10.5851,-1.62619,Q,Q
2023-03-14 18:02:31:297,0,-10.6005,-10.7349,-1.75615,Q,Q
2023-03-14 18:02:31:307,0,-10.5944,-10.8348,-1.89836,Q,Q
2023-03-14 18:02:31:317,0,-10.5375,-10.9217,-2.05737,Q,Q
2023-03-14 18:02:31:327,0,-10.4726,-11.0543,-2.20633,Q,Q
2023-03-14 18:02:31:337,0,-10.4467,-11.2424,-2.32096,Q,Q
2023-03-14 18:02:31:347,0,-10.4795,-11.4618,-2.41814,Q,Q
2023-03-14 18:02:31:357,0,-10.5284,-11.6722,-2.53022,Q,Q
2023-03-14 18:02:31:367,0,-10.5586,-11.854,-2.6686,Q,Q
2023-03-14 18:02:31:377,0,-10.5519,-12.0036,-2.82664,Q,Q
2023-03-14 18:02:31:387,0,-10.5236,-12.1457,-2.97988,Q,Q
2023-03-14 18:02:31:397,0,-10.4849,-12.2858,-3.12046,Q,Q
2023-03-14 18:02:31:407,0,-10.4272,-12.4339,-3.24982,Q,Q
2023-03-14 18:02:31:417,0,-10.3335,-12.5792,-3.38702,Q,Q
2023-03-14 18:02:31:427,0,-10.2052,-12.7245,-3.54172,Q,Q
2023-03-14 18:02:31:437,0,-10.0572,-12.8744,-3.72009,Q,Q
2023-03-14 18:02:31:447,0,-9.91454,-13.033,-3.91355,Q,Q
2023-03-14 18:02:31:457,0,-9.8077,-13.2072,-4.11724,Q,Q
2023-03-14 18:02:31:467,0,-9.74294,-13.4003,-4.32028,Q,Q
2023-03-14 18:02:31:477,0,-9.71771,-13.6034,-4.52604,Q,Q
2023-03-14 18:02:31:487,0,-9.71529,-13.7948,-4.74676,Q,Q
2023-03-14 18:02:31:497,0,-9.71876,-13.9552,-4.98336,Q,Q
2023-03-14 18:02:31:507,0,-9.72164,-14.0724,-5.21596,Q,Q
2023-03-14 18:02:31:517,0,-9.71996,-14.1622,-5.42285,Q,Q
2023-03-14 18:02:31:527,0,-9.7108,-14.2319,-5.5956,Q,Q
2023-03-14 18:02:31:537,0,-9.69271,-14.278,-5.74202,Q,Q
2023-03-14 18:02:31:547,0,-9.6826,-14.3065,-5.87362,Q,Q
2023-03-14 18:02:31:557,0,-9.68583,-14.3232,-5.98179,Q,Q
2023-03-14 18:02:31:567,0,-9.70215,-14.3267,-6.06474,Q,Q
2023-03-14 18:02:31:577,0,-9.73113,-14.3348,-6.13363,Q,Q
2023-03-14 18:02:31:587,0,-9.77946,-14.3466,-6.19344,Q,Q
2023-03-14 18:02:31:597,0,-9.8178,-14.3285,-6.23796,Q,Q
2023-03-14 18:02:31:607,0,-9.82306,-14.3086,-6.29031,Q,Q
2023-03-14 18:02:31:617,0,-9.79661,-14.2971,-6.32994,Q,Q
2023-03-14 18:02:31:627,0,-9.76714,-14.2962,-6.36308,Q,Q
2023-03-14 18:02:31:637,0,-9.74742,-14.3203,-6.40752,Q,Q
2023-03-14 18:02:31:647,0,-9.73871,-14.3572,-6.46838,Q,Q
2023-03-14 18:02:31:657,0,-9.73509,-14.4039,-6.53549,Q,Q
2023-03-14 18:02:31:667,0,-9.72916,-14.4562,-6.60769,Q,Q
2023-03-14 18:02:31:677,0,-9.72934,-14.5132,-6.6845,Q,Q
2023-03-14 18:02:31:687,0,-9.73159,-14.5711,-6.76543,Q,Q
2023-03-14 18:02:31:697,0,-9.72572,-14.627,-6.8471,Q,Q
2023-03-14 18:02:31:707,0,-9.71077,-14.6783,-6.93087,Q,Q
2023-03-14 18:02:31:717,0,-9.69195,-14.724,-7.01249,Q,Q
2023-03-14 18:02:31:727,0,-9.67108,-14.761,-7.09361,Q,Q
2023-03-14 18:02:31:737,0,-9.65921,-14.7941,-7.16994,Q,Q
2023-03-14 18:02:31:747,0,-9.66373,-14.8192,-7.23935,Q,Q
2023-03-14 18:02:31:757,0,-9.67763,-14.8399,-7.29966,Q,Q
2023-03-14 18:02:31:767,0,-9.69528,-14.8482,-7.35991,Q,Q
2023-03-14 18:02:31:777,0,-9.71427,-14.8541,-7.41902,Q,Q
2023-03-14 18:02:31:787,0,-9.74588,-14.8603,-7.46966,Q,Q
2023-03-14 18:02:31:797,0,-9.7841,-14.8672,-7.50941,Q,Q
2023-03-14 18:02:31:807,0,-9.83182,-14.8727,-7.53733,Q,Q
2023-03-14 18:02:31:817,0,-9.87492,-14.8794,-7.55305,Q,Q
2023-03-14 18:02:31:827,0,-9.91362,-14.8789,-7.56094,Q,Q
2023-03-14 18:02:31:837,0,-9.94451,-14.8733,-7.55555,Q,Q
2023-03-14 18:02:31:847,0,-9.96717,-14.8725,-7.5394,Q,Q
2023-03-14 18:02:31:857,0,-9.97892,-14.8677,-7.50928,Q,Q
2023-03-14 18:02:31:867,0,-9.98255,-14.8625,-7.4727,Q,Q
2023-03-14 18:02:31:877,0,-9.97502,-14.8556,-7.43691,Q,Q
2023-03-14 18:02:31:887,0,-9.96501,-14.849,-7.39738,Q,Q
2023-03-14 18:02:31:897,0,-9.94959,-14.8475,-7.35008,Q,Q
2023-03-14 18:02:31:907,0,-9.93359,-14.8484,-7.30441,Q,Q
2023-03-14 18:02:31:917,0,-9.92291,-14.8552,-7.255,Q,Q
2023-03-14 18:02:31:927,0,-9.9095,-14.8693,-7.20719,Q,Q
2023-03-14 18:02:31:937,0,-9.89914,-14.887,-7.15206,Q,Q
2023-03-14 18:02:31:947,0,-9.88968,-14.9145,-7.09694,Q,Q
2023-03-14 18:02:31:957,0,-9.88558,-14.9439,-7.04214,Q,Q
2023-03-14 18:02:31:967,0,-9.8933,-14.9749,-6.98973,Q,Q
2023-03-14 18:02:31:977,0,-9.90701,-15.0026,-6.94514,Q,Q
2023-03-14 18:02:31:987,0,-9.91806,-15.0301,-6.90972,Q,Q
2023-03-14 18:02:31:997,0,-9.937,-15.0602,-6.87758,Q,Q
2023-03-14 18:02:32:7,0,-9.95368,-15.0932,-6.85282,Q,Q
2023-03-14 18:02:32:17,0,-9.97517,-15.1359,-6.83687,Q,Q
2023-03-14 18:02:32:27,0,-9.999,-15.1796,-6.82742,Q,Q
2023-03-14 18:02:32:37,0,-10.0292,-15.2241,-6.83274,Q,Q
2023-03-14 18:02:32:47,0,-10.0673,-15.2615,-6.8489,Q,Q
2023-03-14 18:02:32:57,0,-10.1114,-15.2985,-6.87022,Q,Q
2023-03-14 18:02:32:67,0,-10.1613,-15.3394,-6.87652,Q,Q
2023-03-14 18:02:32:77,0,-10.2168,-15.3827,-6.86515,Q,Q
2023-03-14 18:02:32:87,0,-10.2685,-15.4283,-6.84476,Q,Q
2023-03-14 18:02:32:97,0,-10.3146,-15.4669,-6.82084,Q,Q
2023-03-14 18:02:32:107,0,-10.3502,-15.4951,-6.81006,Q,Q
2023-03-14 18:02:32:117,0,-10.3675,-15.5157,-6.81188,Q,Q
2023-03-14 18:02:32:127,0,-10.3702,-15.5338,-6.81584,Q,Q
2023-03-14 18:02:32:137,0,-10.3727,-15.5574,-6.8088,Q,Q
2023-03-14 18:02:32:147,0,-10.3647,-15.5845,-6.7928,Q,Q
2023-03-14 18:02:32:157,0,-10.3432,-15.6088,-6.78496,Q,Q
2023-03-14 18:02:32:167,0,-10.2887,-15.6283,-6.7853,Q,Q
2023-03-14 18:02:32:177,0,-10.1976,-15.6451,-6.78625,Q,Q
2023-03-14 18:02:32:187,0,-10.0743,-15.6624,-6.79025,Q,Q
2023-03-14 18:02:32:197,0,-9.94049,-15.6835,-6.79921,Q,Q
2023-03-14 18:02:32:207,0,-9.81309,-15.7122,-6.81401,Q,Q
2023-03-14 18:02:32:217,0,-9.70202,-15.7492,-6.8345,Q,Q
2023-03-14 18:02:32:227,0,-9.61193,-15.79,-6.85378,Q,Q
2023-03-14 18:02:32:237,0,-9.52528,-15.833,-6.8831,Q,Q
2023-03-14 18:02:32:247,0,-9.43751,-15.8692,-6.91481,Q,Q
2023-03-14 18:02:32:257,0,-9.34927,-15.8905,-6.94296,Q,Q
2023-03-14 18:02:32:267,0,-9.25151,-15.904,-6.95953,Q,Q
2023-03-14 18:02:32:277,0,-9.15385,-15.9072,-6.95261,Q,Q
2023-03-14 18:02:32:287,0,-9.06151,-15.9077,-6.91811,Q,Q
2023-03-14 18:02:32:297,0,-8.98394,-15.9045,-6.84255,Q,Q
2023-03-14 18:02:32:307,0,-8.91648,-15.8888,-6.72835,Q,Q
2023-03-14 18:02:32:317,0,-8.8593,-15.8621,-6.56842,Q,Q
2023-03-14 18:02:32:327,0,-8.80706,-15.8093,-6.35154,Q,Q
2023-03-14 18:02:32:337,0,-8.75926,-15.7277,-6.06596,Q,Q
2023-03-14 18:02:32:347,0,-8.70339,-15.6095,-5.70292,Q,Q
2023-03-14 18:02:32:357,0,-8.63652,-15.4425,-5.26365,Q,Q
2023-03-14 18:02:32:367,0,-8.57017,-15.218,-4.75249,Q,Q
2023-03-14 18:02:32:377,0,-8.51836,-14.9423,-4.16685,Q,Q
2023-03-14 18:02:32:387,0,-8.49744,-14.6215,-3.48574,Q,Q
2023-03-14 18:02:32:397,0,-8.50887,-14.2845,-2.6816,Q,Q
2023-03-14 18:02:32:407,0,-8.55631,-13.9327,-1.73745,Q,Q
2023-03-14 18:02:32:417,0,-8.63155,-13.576,-0.632827,Q,Q
2023-03-14 18:02:32:427,0,-8.74384,-13.2117,0.636029,Q,Q
2023-03-14 18:02:32:437,0,-8.90366,-12.8515,2.07402,Q,Q
2023-03-14 18:02:32:447,0,-9.10929,-12.4929,3.66138,Q,Q
2023-03-14 18:02:32:457,0,-9.34744,-12.1117,5.32828,Q,Q
2023-03-14 18:02:32:467,0,-9.59379,-11.6742,7.00843,Q,Q
2023-03-14 18:02:32:477,0,-9.81829,-11.1817,8.69009,Q,Q
2023-03-14 18:02:32:487,0,-10.0158,-10.6411,10.4026,Q,Q
2023-03-14 18:02:32:497,0,-10.1962,-10.0791,12.1627,Q,Q
2023-03-14 18:02:32:507,0,-10.3758,-9.51262,13.9712,Q,Q
2023-03-14 18:02:32:517,0,-10.5423,-8.94922,15.7897,Q,Q
2023-03-14 18:02:32:527,0,-10.673,-8.38608,17.5954,Q,Q
2023-03-14 18:02:32:537,0,-10.7662,-7.82328,19.3908,Q,Q
2023-03-14 18:02:32:547,0,-10.845,-7.27498,21.1714,Q,Q
2023-03-14 18:02:32:557,0,-10.9212,-6.75573,22.9356,Q,Q
2023-03-14 18:02:32:567,0,-10.9876,-6.24998,24.6757,Q,Q
2023-03-14 18:02:32:577,0,-11.0363,-5.76936,26.3956,Q,Q
2023-03-14 18:02:32:587,0,-11.0677,-5.33422,28.1105,Q,Q
2023-03-14 18:02:32:597,0,-11.0713,-4.93164,29.8097,Q,Q
2023-03-14 18:02:32:607,0,-11.0384,-4.54512,31.4781,Q,Q
2023-03-14 18:02:32:617,0,-10.9665,-4.17253,33.0879,Q,Q
2023-03-14 18:02:32:627,0,-10.8646,-3.8018,34.6247,Q,Q
2023-03-14 18:02:32:637,0,-10.7383,-3.44586,36.0926,Q,Q
2023-03-14 18:02:32:647,0,-10.6063,-3.12331,37.5084,Q,Q
2023-03-14 18:02:32:657,0,-10.4725,-2.84938,38.8761,Q,Q
2023-03-14 18:02:32:667,0,-10.3314,-2.61451,40.1842,Q,Q
2023-03-14 18:02:32:677,0,-10.1832,-2.41979,41.4221,Q,Q
2023-03-14 18:02:32:687,0,-10.0325,-2.25867,42.5896,Q,Q
2023-03-14 18:02:32:697,0,-9.87878,-2.12755,43.6878,Q,Q
2023-03-14 18:02:32:707,0,-9.7313,-2.02384,44.7132,Q,Q
2023-03-14 18:02:32:717,0,-9.59368,-1.95312,45.6787,Q,Q
2023-03-14 18:02:32:727,0,-9.46203,-1.90868,46.5836,Q,Q
2023-03-14 18:02:32:737,0,-9.3327,-1.89124,47.4289,Q,Q
2023-03-14 18:02:32:747,0,-9.19631,-1.90438,48.2281,Q,Q
2023-03-14 18:02:32:757,0,-9.0499,-1.94246,48.9844,Q,Q
2023-03-14 18:02:32:767,0,-8.89307,-1.99698,49.7028,Q,Q
2023-03-14 18:02:32:777,0,-8.72063,-2.07476,50.3897,Q,Q
2023-03-14 18:02:32:787,0,-8.53948,-2.16067,51.0497,Q,Q
2023-03-14 18:02:32:797,0,-8.34906,-2.25169,51.6883,Q,Q
2023-03-14 18:02:32:807,0,-8.15558,-2.3513,52.3033,Q,Q
2023-03-14 18:02:32:817,0,-7.97405,-2.45592,52.9032,Q,Q
2023-03-14 18:02:32:827,0,-7.81174,-2.55559,53.4839,Q,Q
2023-03-14 18:02:32:837,0,-7.67342,-2.64985,54.0344,Q,Q
2023-03-14 18:02:32:847,0,-7.55395,-2.72287,54.5451,Q,Q
2023-03-14 18:02:32:857,0,-7.46014,-2.78911,55.0177,Q,Q
2023-03-14 18:02:32:867,0,-7.38963,-2.85399,55.4683,Q,Q
2023-03-14 18:02:32:877,0,-7.34257,-2.92112,55.9014,Q,Q
2023-03-14 18:02:32:887,0,-7.30816,-2.99557,56.3217,Q,Q
2023-03-14 18:02:32:897,0,-7.25543,-3.07319,56.7211,Q,Q
2023-03-14 18:02:32:907,0,-7.16934,-3.14132,57.0926,Q,Q
2023-03-14 18:02:32:917,0,-7.06293,-3.19959,57.4351,Q,Q
2023-03-14 18:02:32:927,0,-6.95388,-3.24062,57.7594,Q,Q
2023-03-14 18:02:32:937,0,-6.84084,-3.27773,58.0588,Q,Q
2023-03-14 18:02:32:947,0,-6.72774,-3.30896,58.3388,Q,Q
2023-03-14 18:02:32:957,0,-6.61307,-3.33525,58.601,Q,Q
2023-03-14 18:02:32:967,0,-6.48395,-3.35638,58.8498,Q,Q
2023-03-14 18:02:32:977,0,-6.33765,-3.38049,59.0954,Q,Q
2023-03-14 18:02:32:987,0,-6.17478,-3.4018,59.3475,Q,Q
2023-03-14 18:02:32:997,0,-6.00694,-3.41541,59.6033,Q,Q
2023-03-14 18:02:33:7,0,-5.84397,-3.424,59.8644,Q,Q
2023-03-14 18:02:33:17,0,-5.68535,-3.42801,60.128,Q,Q
2023-03-14 18:02:33:27,0,-5.53785,-3.42417,60.3952,Q,Q
2023-03-14 18:02:33:37,0,-5.40137,-3.4187,60.6598,Q,Q
2023-03-14 18:02:33:47,0,-5.27754,-3.40219,60.9179,Q,Q
2023-03-14 18:02:33:57,0,-5.16696,-3.37997,61.1692,Q,Q
2023-03-14 18:02:33:67,0,-5.06507,-3.35459,61.4101,Q,Q
2023-03-14 18:02:33:77,0,-4.96093,-3.32884,61.6379,Q,Q
2023-03-14 18:02:33:87,0,-4.8575,-3.2925,61.8481,Q,Q
2023-03-14 18:02:33:97,0,-4.7611,-3.25643,62.0412,Q,Q
2023-03-14 18:02:33:107,0,-4.66709,-3.21869,62.2166,Q,Q
2023-03-14 18:02:33:117,0,-4.58007,-3.18393,62.3775,Q,Q
2023-03-14 18:02:33:127,0,-4.49498,-3.15556,62.5278,Q,Q
2023-03-14 18:02:33:137,0,-4.40922,-3.13112,62.6702,Q,Q
2023-03-14 18:02:33:147,0,-4.3143,-3.10875,62.802,Q,Q
2023-03-14 18:02:33:157,0,-4.21268,-3.08726,62.9227,Q,Q
2023-03-14 18:02:33:167,0,-4.10085,-3.06176,63.0368,Q,Q
2023-03-14 18:02:33:177,0,-3.98086,-3.03758,63.1403,Q,Q
2023-03-14 18:02:33:187,0,-3.85756,-3.01755,63.2437,Q,Q
2023-03-14 18:02:33:197,0,-3.72864,-3.0028,63.3514,Q,Q
2023-03-14 18:02:33:207,0,-3.59929,-2.9986,63.4569,Q,Q
2023-03-14 18:02:33:217,0,-3.47244,-2.99484,63.5671,Q,Q
2023-03-14 18:02:33:227,0,-3.34879,-2.99969,63.674,Q,Q
2023-03-14 18:02:33:237,0,-3.23451,-3.00428,63.7807,Q,Q
2023-03-14 18:02:33:247,0,-3.12456,-3.00114,63.8779,Q,Q
2023-03-14 18:02:33:257,0,-3.01977,-2.99059,63.9645,Q,Q
2023-03-14 18:02:33:267,0,-2.92346,-2.97916,64.0457,Q,Q
2023-03-14 18:02:33:277,0,-2.84687,-2.97413,64.129,Q,Q
2023-03-14 18:02:33:287,0,-2.79201,-2.97884,64.2183,Q,Q
2023-03-14 18:02:33:297,0,-2.74969,-2.99585,64.318,Q,Q
2023-03-14 18:02:33:307,0,-2.71995,-3.02149,64.4207,Q,Q
2023-03-14 18:02:33:317,0,-2.70113,-3.04785,64.5194,Q,Q
2023-03-14 18:02:33:327,0,-2.69064,-3.07476,64.607,Q,Q
2023-03-14 18:02:33:337,0,-2.68204,-3.09211,64.6841,Q,Q
2023-03-14 18:02:33:347,0,-2.67643,-3.11028,64.7589,Q,Q
2023-03-14 18:02:33:357,0,-2.67592,-3.12844,64.8239,Q,Q
2023-03-14 18:02:33:367,0,-2.68031,-3.14774,64.8846,Q,Q
2023-03-14 18:02:33:377,0,-2.68657,-3.17091,64.9458,Q,Q
2023-03-14 18:02:33:387,0,-2.69739,-3.19345,65.0095,Q,Q
2023-03-14 18:02:33:397,0,-2.71617,-3.20844,65.0687,Q,Q
2023-03-14 18:02:33:407,0,-2.73326,-3.21675,65.1254,Q,Q
2023-03-14 18:02:33:417,0,-2.74836,-3.21985,65.1811,Q,Q
2023-03-14 18:02:33:427,0,-2.76425,-3.21994,65.2409,Q,Q
2023-03-14 18:02:33:437,0,-2.78863,-3.21766,65.3051,Q,Q
2023-03-14 18:02:33:447,0,-2.8195,-3.20829,65.3745,Q,Q
2023-03-14 18:02:33:457,0,-2.84956,-3.18289,65.4434,Q,Q
2023-03-14 18:02:33:467,0,-2.86924,-3.14292,65.5067,Q,Q
2023-03-14 18:02:33:477,0,-2.88115,-3.09773,65.5647,Q,Q
2023-03-14 18:02:33:487,0,-2.89442,-3.05684,65.6291,Q,Q
2023-03-14 18:02:33:497,0,-2.9182,-3.01855,65.6987,Q,Q
2023-03-14 18:02:33:507,0,-2.95365,-2.98869,65.7849,Q,Q
2023-03-14 18:02:33:517,0,-2.98929,-2.95612,65.8765,Q,Q
2023-03-14 18:02:33:527,0,-3.01078,-2.91897,65.9586,Q,Q
2023-03-14 18:02:33:537,0,-3.02206,-2.87329,66.0344,Q,Q
2023-03-14 18:02:33:547,0,-3.03179,-2.83074,66.1146,Q,Q
2023-03-14 18:02:33:557,0,-3.04796,-2.79605,66.2019,Q,Q
2023-03-14 18:02:33:567,0,-3.07345,-2.76603,66.2916,Q,Q
2023-03-14 18:02:33:577,0,-3.09594,-2.73663,66.3772,Q,Q
2023-03-14 18:02:33:587,0,-3.11327,-2.7063,66.4562,Q,Q
2023-03-14 18:02:33:597,0,-3.12799,-2.67782,66.5274,Q,Q
2023-03-14 18:02:33:607,0,-3.12669,-2.65359,66.5927,Q,Q
2023-03-14 18:02:33:617,0,-3.11561,-2.63956,66.6591,Q,Q
2023-03-14 18:02:33:627,0,-3.09279,-2.63056,66.7216,Q,Q
2023-03-14 18:02:33:637,0,-3.05786,-2.62649,66.7712,Q,Q
2023-03-14 18:02:33:647,0,-3.0252,-2.62306,66.8129,Q,Q
2023-03-14 18:02:33:657,0,-2.99722,-2.61681,66.8419,Q,Q
2023-03-14 18:02:33:667,0,-2.97127,-2.60819,66.8597,Q,Q
2023-03-14 18:02:33:677,0,-2.94581,-2.6007,66.8667,Q,Q
2023-03-14 18:02:33:687,0,-2.92795,-2.60199,66.8618,Q,Q
2023-03-14 18:02:33:697,0,-2.92035,-2.60697,66.853,Q,Q
2023-03-14 18:02:33:707,0,-2.9267,-2.62484,66.8478,Q,Q
2023-03-14 18:02:33:717,0,-2.94302,-2.64765,66.8529,Q,Q
2023-03-14 18:02:33:727,0,-2.96787,-2.67565,66.8639,Q,Q
2023-03-14 18:02:33:737,0,-3.00481,-2.70722,66.8846,Q,Q
2023-03-14 18:02:33:747,0,-3.05476,-2.74243,66.9164,Q,Q
2023-03-14 18:02:33:757,0,-3.11039,-2.78655,66.9551,Q,Q
2023-03-14 18:02:33:767,0,-3.17357,-2.83386,66.9985,Q,Q
2023-03-14 18:02:33:777,0,-3.23536,-2.88499,67.0383,Q,Q
2023-03-14 18:02:33:787,0,-3.28752,-2.93036,67.0769,Q,Q
2023-03-14 18:02:33:797,0,-3.32117,-2.96069,67.117,Q,Q
2023-03-14 18:02:33:807,0,-3.34186,-2.97953,67.1527,Q,Q
2023-03-14 18:02:33:817,0,-3.3564,-2.99451,67.1851,Q,Q
2023-03-14 18:02:33:827,0,-3.36634,-3.00485,67.2169,Q,Q
2023-03-14 18:02:33:837,0,-3.37272,-3.01604,67.2537,Q,Q
2023-03-14 18:02:33:847,0,-3.37594,-3.03087,67.2967,Q,Q
2023-03-14 18:02:33:857,0,-3.3696,-3.0419,67.3412,Q,Q
2023-03-14 18:02:33:867,0,-3.36132,-3.04846,67.3828,Q,Q
2023-03-14 18:02:33:877,0,-3.34841,-3.05965,67.4255,Q,Q
2023-03-14 18:02:33:887,0,-3.34591,-3.07037,67.4761,Q,Q
2023-03-14 18:02:33:897,0,-3.35297,-3.07219,67.5267,Q,Q
2023-03-14 18:02:33:907,0,-3.36395,-3.06915,67.5729,Q,Q
2023-03-14 18:02:33:917,0,-3.36762,-3.06243,67.6096,Q,Q
2023-03-14 18:02:33:927,0,-3.36167,-3.04815,67.6479,Q,Q
2023-03-14 18:02:33:937,0,-3.35359,-3.03701,67.6885,Q,Q
2023-03-14 18:02:33:947,0,-3.3486,-3.02758,67.73,Q,Q
2023-03-14 18:02:33:957,0,-3.3422,-3.01904,67.7731,Q,Q
2023-03-14 18:02:33:967,0,-3.33798,-3.0022,67.8134,Q,Q
2023-03-14 18:02:33:977,0,-3.33508,-2.98403,67.8456,Q,Q
2023-03-14 18:02:33:987,0,-3.32645,-2.96435,67.8742,Q,Q
2023-03-14 18:02:33:997,0,-3.3187,-2.9496,67.9004,Q,Q
2023-03-14 18:02:34:7,0,-3.31668,-2.94023,67.9292,Q,Q
2023-03-14 18:02:34:17,0,-3.3205,-2.94206,67.9666,Q,Q
2023-03-14 18:02:34:27,0,-3.33652,-2.95228,68.0144,Q,Q
2023-03-14 18:02:34:37,0,-3.3672,-2.96749,68.0728,Q,Q
2023-03-14 18:02:34:47,0,-3.4018,-2.97961,68.1355,Q,Q
2023-03-14 18:02:34:57,0,-3.43703,-2.981,68.196,Q,Q
2023-03-14 18:02:34:67,0,-3.47121,-2.96894,68.25,Q,Q
2023-03-14 18:02:34:77,0,-3.49619,-2.94337,68.2843,Q,Q
2023-03-14 18:02:34:87,0,-3.51876,-2.91127,68.3083,Q,Q
2023-03-14 18:02:34:97,0,-3.5362,-2.874,68.3218,Q,Q
2023-03-14 18:02:34:107,0,-3.53528,-2.84001,68.3282,Q,Q
2023-03-14 18:02:34:117,0,-3.52786,-2.80456,68.3347,Q,Q
2023-03-14 18:02:34:127,0,-3.51252,-2.76671,68.3389,Q,Q
2023-03-14 18:02:34:137,0,-3.49352,-2.73222,68.339,Q,Q
2023-03-14 18:02:34:147,0,-3.47272,-2.69632,68.3396,Q,Q
2023-03-14 18:02:34:157,0,-3.45052,-2.65797,68.3425,Q,Q
2023-03-14 18:02:34:167,0,-3.43077,-2.62206,68.3424,Q,Q
2023-03-14 18:02:34:177,0,-3.42412,-2.58594,68.3421,Q,Q
2023-03-14 18:02:34:187,0,-3.42213,-2.54877,68.34,Q,Q
2023-03-14 18:02:34:197,0,-3.42277,-2.5215,68.3367,Q,Q
2023-03-14 18:02:34:207,0,-3.42561,-2.49928,68.3317,Q,Q
2023-03-14 18:02:34:217,0,-3.42634,-2.48509,68.324,Q,Q
2023-03-14 18:02:34:227,0,-3.43219,-2.47689,68.3182,Q,Q
2023-03-14 18:02:34:237,0,-3.43716,-2.47513,68.3172,Q,Q
2023-03-14 18:02:34:247,0,-3.44307,-2.48044,68.3171,Q,Q
2023-03-14 18:02:34:257,0,-3.44997,-2.48727,68.3212,Q,Q
2023-03-14 18:02:34:267,0,-3.45779,-2.49845,68.3243,Q,Q
2023-03-14 18:02:34:277,0,-3.46939,-2.50892,68.3266,Q,Q
2023-03-14 18:02:34:287,0,-3.48289,-2.5189,68.328,Q,Q
2023-03-14 18:02:34:297,0,-3.4993,-2.53009,68.3328,Q,Q
2023-03-14 18:02:34:307,0,-3.52464,-2.54255,68.3339,Q,Q
2023-03-14 18:02:34:317,0,-3.56231,-2.55862,68.342,Q,Q
2023-03-14 18:02:34:327,0,-3.60135,-2.57676,68.348,Q,Q
2023-03-14 18:02:34:337,0,-3.6478,-2.59176,68.3582,Q,Q
2023-03-14 18:02:34:347,0,-3.69731,-2.59962,68.3678,Q,Q
2023-03-14 18:02:34:357,0,-3.75253,-2.60658,68.3725,Q,Q
2023-03-14 18:02:34:367,0,-3.80808,-2.612,68.3839,Q,Q
2023-03-14 18:02:34:377,0,-3.86867,-2.61935,68.3966,Q,Q
2023-03-14 18:02:34:387,0,-3.93538,-2.62918,68.4122,Q,Q
2023-03-14 18:02:34:397,0,-4.00858,-2.63871,68.4285,Q,Q
2023-03-14 18:02:34:407,0,-4.0848,-2.64797,68.4497,Q,Q
2023-03-14 18:02:34:417,0,-4.15998,-2.65817,68.475,Q,Q
2023-03-14 18:02:34:427,0,-4.23483,-2.66373,68.5021,Q,Q
2023-03-14 18:02:34:437,0,-4.30546,-2.65889,68.5161,Q,Q
2023-03-14 18:02:34:447,0,-4.36338,-2.63717,68.51,Q,Q
2023-03-14 18:02:34:457,0,-4.40527,-2.60875,68.4985,Q,Q
2023-03-14 18:02:34:467,0,-4.43794,-2.58033,68.4778,Q,Q
2023-03-14 18:02:34:477,0,-4.4622,-2.54502,68.4486,Q,Q
2023-03-14 18:02:34:487,0,-4.47899,-2.5025,68.4035,Q,Q
2023-03-14 18:02:34:497,0,-4.49474,-2.45258,68.3471,Q,Q
2023-03-14 18:02:34:507,0,-4.50572,-2.39469,68.2738,Q,Q
2023-03-14 18:02:34:517,0,-4.51776,-2.33343,68.178,Q,Q
2023-03-14 18:02:34:527,0,-4.53354,-2.27051,68.0697,Q,Q
2023-03-14 18:02:34:537,0,-4.55875,-2.22584,67.9628,Q,Q
2023-03-14 18:02:34:547,0,-4.60275,-2.2157,67.8753,Q,Q
2023-03-14 18:02:34:557,0,-4.67844,-2.24027,67.807,Q,Q
2023-03-14 18:02:34:567,0,-4.78859,-2.3064,67.7697,Q,Q
2023-03-14 18:02:34:577,0,-4.93792,-2.41088,67.7677,Q,Q
2023-03-14 18:02:34:587,0,-5.11392,-2.54112,67.7928,Q,Q
2023-03-14 18:02:34:597,0,-5.30701,-2.67641,67.8346,Q,Q
2023-03-14 18:02:34:607,0,-5.48336,-2.79522,67.8726,Q,Q
2023-03-14 18:02:34:617,0,-5.6211,-2.87297,67.9063,Q,Q
2023-03-14 18:02:34:627,0,-5.71064,-2.9142,67.9179,Q,Q
2023-03-14 18:02:34:637,0,-5.7514,-2.92066,67.9097,Q,Q
2023-03-14 18:02:34:647,0,-5.75224,-2.89983,67.8883,Q,Q
2023-03-14 18:02:34:657,0,-5.72766,-2.87154,67.8544,Q,Q
2023-03-14 18:02:34:667,0,-5.69589,-2.83834,67.8116,Q,Q
2023-03-14 18:02:34:677,0,-5.6721,-2.80491,67.7673,Q,Q
2023-03-14 18:02:34:687,0,-5.65707,-2.77685,67.713,Q,Q
2023-03-14 18:02:34:697,0,-5.65515,-2.74481,67.6503,Q,Q
2023-03-14 18:02:34:707,0,-5.67608,-2.71783,67.5851,Q,Q
2023-03-14 18:02:34:717,0,-5.7074,-2.69727,67.5193,Q,Q
2023-03-14 18:02:34:727,0,-5.74318,-2.68322,67.4589,Q,Q
2023-03-14 18:02:34:737,0,-5.77997,-2.66859,67.4065,Q,Q
2023-03-14 18:02:34:747,0,-5.8122,-2.65815,67.3625,Q,Q
2023-03-14 18:02:34:757,0,-5.8443,-2.64838,67.3275,Q,Q
2023-03-14 18:02:34:767,0,-5.87321,-2.63599,67.3097,Q,Q
2023-03-14 18:02:34:777,0,-5.89454,-2.62443,67.3024,Q,Q
2023-03-14 18:02:34:787,0,-5.91258,-2.61147,67.3106,Q,Q
2023-03-14 18:02:34:797,0,-5.92976,-2.599,67.3326,Q,Q
2023-03-14 18:02:34:807,0,-5.94537,-2.58224,67.3669,Q,Q
2023-03-14 18:02:34:817,0,-5.96351,-2.56856,67.405,Q,Q
2023-03-14 18:02:34:827,0,-5.97729,-2.54803,67.4446,Q,Q
2023-03-14 18:02:34:837,0,-5.98996,-2.52439,67.4876,Q,Q
2023-03-14 18:02:34:847,0,-6.00613,-2.49677,67.5242,Q,Q
2023-03-14 18:02:34:857,0,-6.02943,-2.46824,67.5557,Q,Q
2023-03-14 18:02:34:867,0,-6.05665,-2.44159,67.5836,Q,Q
2023-03-14 18:02:34:877,0,-6.08963,-2.41508,67.6035,Q,Q
2023-03-14 18:02:34:887,0,-6.12592,-2.39326,67.6136,Q,Q
2023-03-14 18:02:34:897,0,-6.16015,-2.37075,67.6174,Q,Q
2023-03-14 18:02:34:907,0,-6.18078,-2.35026,67.6123,Q,Q
2023-03-14 18:02:34:917,0,-6.19583,-2.3308,67.5953,Q,Q
2023-03-14 18:02:34:927,0,-6.19939,-2.31101,67.5675,Q,Q
2023-03-14 18:02:34:937,0,-6.196,-2.28915,67.5267,Q,Q
2023-03-14 18:02:34:947,0,-6.18957,-2.26565,67.4792,Q,Q
2023-03-14 18:02:34:957,0,-6.18263,-2.24169,67.4268,Q,Q
2023-03-14 18:02:34:967,0,-6.17065,-2.21508,67.371,Q,Q
2023-03-14 18:02:34:977,0,-6.15796,-2.18779,67.3174,Q,Q
2023-03-14 18:02:34:987,0,-6.14095,-2.15889,67.2616,Q,Q
2023-03-14 18:02:34:997,0,-6.12627,-2.13482,67.2111,Q,Q
2023-03-14 18:02:35:7,0,-6.11242,-2.11252,67.1688,Q,Q
2023-03-14 18:02:35:17,0,-6.09804,-2.08916,67.133,Q,Q
2023-03-14 18:02:35:27,0,-6.0899,-2.06254,67.1049,Q,Q
2023-03-14 18:02:35:37,0,-6.08572,-2.0343,67.0807,Q,Q
2023-03-14 18:02:35:47,0,-6.08842,-2.01211,67.065,Q,Q
2023-03-14 18:02:35:57,0,-6.09038,-1.99133,67.0541,Q,Q
2023-03-14 18:02:35:67,0,-6.09408,-1.97205,67.05,Q,Q
2023-03-14 18:02:35:77,0,-6.10111,-1.95823,67.0489,Q,Q
2023-03-14 18:02:35:87,0,-6.11713,-1.95177,67.052,Q,Q
2023-03-14 18:02:35:97,0,-6.13866,-1.94722,67.0577,Q,Q
2023-03-14 18:02:35:107,0,-6.14931,-1.94038,67.0637,Q,Q
2023-03-14 18:02:35:117,0,-6.1589,-1.93361,67.066,Q,Q
2023-03-14 18:02:35:127,0,-6.16398,-1.92932,67.0636,Q,Q
2023-03-14 18:02:35:137,0,-6.17177,-1.92163,67.0599,Q,Q
2023-03-14 18:02:35:147,0,-6.17796,-1.92303,67.0526,Q,Q
2023-03-14 18:02:35:157,0,-6.18623,-1.93171,67.0418,Q,Q
2023-03-14 18:02:35:167,0,-6.19567,-1.93779,67.0322,Q,Q
2023-03-14 18:02:35:177,0,-6.20289,-1.94508,67.0168,Q,Q
2023-03-14 18:02:35:187,0,-6.2085,-1.95547,66.9967,Q,Q
2023-03-14 18:02:35:197,0,-6.21609,-1.96397,66.9756,Q,Q
2023-03-14 18:02:35:207,0,-6.21968,-1.97576,66.9556,Q,Q
2023-03-14 18:02:35:217,0,-6.2206,-1.98641,66.936,Q,Q
2023-03-14 18:02:35:227,0,-6.2194,-1.99677,66.9174,Q,Q
2023-03-14 18:02:35:237,0,-6.21689,-2.00628,66.9037,Q,Q
2023-03-14 18:02:35:247,0,-6.21588,-2.01356,66.8897,Q,Q
2023-03-14 18:02:35:257,0,-6.21751,-2.02094,66.8753,Q,Q
2023-03-14 18:02:35:267,0,-6.21899,-2.02581,66.8667,Q,Q
2023-03-14 18:02:35:277,0,-6.21901,-2.02617,66.8528,Q,Q
2023-03-14 18:02:35:287,0,-6.22424,-2.03054,66.8406,Q,Q
2023-03-14 18:02:35:297,0,-6.22521,-2.03109,66.8328,Q,Q
2023-03-14 18:02:35:307,0,-6.22711,-2.03133,66.826,Q,Q
2023-03-14 18:02:35:317,0,-6.22739,-2.03053,66.8204,Q,Q
2023-03-14 18:02:35:327,0,-6.22767,-2.03178,66.8161,Q,Q
2023-03-14 18:02:35:337,0,-6.227,-2.03423,66.8139,Q,Q
2023-03-14 18:02:35:347,0,-6.2323,-2.03639,66.8085,Q,Q
2023-03-14 18:02:35:357,0,-6.23439,-2.03373,66.8066,Q,Q
2023-03-14 18:02:35:367,0,-6.24259,-2.03143,66.8039,Q,Q
2023-03-14 18:02:35:377,0,-6.24992,-2.03097,66.8014,Q,Q
2023-03-14 18:02:35:387,0,-6.25824,-2.0257,66.7988,Q,Q
2023-03-14 18:02:35:397,0,-6.26017,-2.01444,66.7924,Q,Q
2023-03-14 18:02:35:407,0,-6.25687,-2.00172,66.7836,Q,Q
2023-03-14 18:02:35:417,0,-6.25365,-1.99407,66.7756,Q,Q
2023-03-14 18:02:35:427,0,-6.25154,-1.98796,66.7666,Q,Q
2023-03-14 18:02:35:437,0,-6.25405,-1.98754,66.7617,Q,Q
2023-03-14 18:02:35:447,0,-6.25503,-1.98534,66.7537,Q,Q
2023-03-14 18:02:35:457,0,-6.25496,-1.9837,66.7417,Q,Q
2023-03-14 18:02:35:467,0,-6.25606,-1.98704,66.7365,Q,Q
2023-03-14 18:02:35:477,0,-6.25538,-1.98914,66.7284,Q,Q
2023-03-14 18:02:35:487,0,-6.2515,-1.99356,66.7235,Q,Q
2023-03-14 18:02:35:497,0,-6.24512,-1.99493,66.7165,Q,Q
2023-03-14 18:02:35:507,0,-6.2374,-1.99726,66.7101,Q,Q
2023-03-14 18:02:35:517,0,-6.22383,-1.99998,66.7066,Q,Q
2023-03-14 18:02:35:527,0,-6.21278,-2.00063,66.6981,Q,Q
2023-03-14 18:02:35:537,0,-6.19803,-2.00305,66.6914,Q,Q
2023-03-14 18:02:35:547,0,-6.18085,-2.0076,66.6878,Q,Q
2023-03-14 18:02:35:557,0,-6.16176,-2.01395,66.6856,Q,Q
2023-03-14 18:02:35:567,0,-6.14418,-2.02052,66.6884,Q,Q
2023-03-14 18:02:35:577,0,-6.13016,-2.02615,66.6881,Q,Q
2023-03-14 18:02:35:587,0,-6.11782,-2.03175,66.6935,Q,Q
2023-03-14 18:02:35:597,0,-6.11095,-2.03505,66.6979,Q,Q
2023-03-14 18:02:35:607,0,-6.10103,-2.04038,66.703,Q,Q
2023-03-14 18:02:35:617,0,-6.09301,-2.04629,66.7095,Q,Q
2023-03-14 18:02:35:627,0,-6.09041,-2.05338,66.7192,Q,Q
2023-03-14 18:02:35:637,0,-6.08621,-2.05604,66.7268,Q,Q
2023-03-14 18:02:35:647,0,-6.08659,-2.05814,66.7401,Q,Q
2023-03-14 18:02:35:657,0,-6.08796,-2.06057,66.752,Q,Q
2023-03-14 18:02:35:667,0,-6.08855,-2.06184,66.7632,Q,Q
2023-03-14 18:02:35:677,0,-6.09773,-2.06242,66.7745,Q,Q
2023-03-14 18:02:35:687,0,-6.10117,-2.06321,66.7844,Q,Q
2023-03-14 18:02:35:697,0,-6.10581,-2.06079,66.7928,Q,Q
2023-03-14 18:02:35:707,0,-6.11008,-2.05769,66.7944,Q,Q
2023-03-14 18:02:35:717,0,-6.11776,-2.05269,66.7987,Q,Q
2023-03-14 18:02:35:727,0,-6.12447,-2.0493,66.8008,Q,Q
2023-03-14 18:02:35:737,0,-6.13043,-2.0471,66.7959,Q,Q
2023-03-14 18:02:35:747,0,-6.13432,-2.05076,66.788,Q,Q
2023-03-14 18:02:35:757,0,-6.12976,-2.05395,66.7755,Q,Q
2023-03-14 18:02:35:767,0,-6.11751,-2.06641,66.7571,Q,Q
2023-03-14 18:02:35:777,0,-6.09363,-2.08546,66.7359,Q,Q
2023-03-14 18:02:35:787,0,-6.06551,-2.10867,66.7092,Q,Q
2023-03-14 18:02:35:797,0,-6.0394,-2.13116,66.6793,Q,Q
2023-03-14 18:02:35:807,0,-6.01021,-2.15254,66.6421,Q,Q
2023-03-14 18:02:35:817,0,-5.98074,-2.17406,66.5992,Q,Q
2023-03-14 18:02:35:827,0,-5.95164,-2.19565,66.5571,Q,Q
2023-03-14 18:02:35:837,0,-5.92681,-2.2144,66.5097,Q,Q
2023-03-14 18:02:35:847,0,-5.89567,-2.2275,66.4605,Q,Q
2023-03-14 18:02:35:857,0,-5.86972,-2.24309,66.4103,Q,Q
2023-03-14 18:02:35:867,0,-5.84283,-2.25637,66.3654,Q,Q
2023-03-14 18:02:35:877,0,-5.81639,-2.26814,66.3217,Q,Q
2023-03-14 18:02:35:887,0,-5.79058,-2.27832,66.2798,Q,Q
2023-03-14 18:02:35:897,0,-5.76751,-2.28829,66.2456,Q,Q
2023-03-14 18:02:35:907,0,-5.751,-2.29795,66.2165,Q,Q
2023-03-14 18:02:35:917,0,-5.74217,-2.30576,66.1965,Q,Q
2023-03-14 18:02:35:927,0,-5.73834,-2.31398,66.1803,Q,Q
2023-03-14 18:02:35:937,0,-5.73835,-2.3208,66.1732,Q,Q
2023-03-14 18:02:35:947,0,-5.73601,-2.3253,66.1659,Q,Q
2023-03-14 18:02:35:957,0,-5.73979,-2.32964,66.1679,Q,Q
2023-03-14 18:02:35:967,0,-5.74434,-2.33286,66.1773,Q,Q
2023-03-14 18:02:35:977,0,-5.75028,-2.33174,66.1918,Q,Q
2023-03-14 18:02:35:987,0,-5.75457,-2.33449,66.2098,Q,Q
2023-03-14 18:02:35:997,0,-5.76384,-2.33407,66.2268,Q,Q
2023-03-14 18:02:36:7,0,-5.77339,-2.33458,66.2443,Q,Q
2023-03-14 18:02:36:17,0,-5.78539,-2.33738,66.2653,Q,Q
2023-03-14 18:02:36:27,0,-5.80321,-2.33995,66.2858,Q,Q
2023-03-14 18:02:36:37,0,-5.81957,-2.34066,66.305,Q,Q
2023-03-14 18:02:36:47,0,-5.83336,-2.34578,66.3249,Q,Q
2023-03-14 18:02:36:57,0,-5.84866,-2.34746,66.3411,Q,Q
2023-03-14 18:02:36:67,0,-5.8606,-2.34786,66.3554,Q,Q
2023-03-14 18:02:36:77,0,-5.87149,-2.34628,66.3685,Q,Q
2023-03-14 18:02:36:87,0,-5.87768,-2.34409,66.3766,Q,Q
2023-03-14 18:02:36:97,0,-5.88002,-2.34053,66.3807,Q,Q
2023-03-14 18:02:36:107,0,-5.88306,-2.33383,66.3848,Q,Q
2023-03-14 18:02:36:117,0,-5.88372,-2.32504,66.3872,Q,Q
2023-03-14 18:02:36:127,0,-5.88152,-2.31437,66.3862,Q,Q
2023-03-14 18:02:36:137,0,-5.88043,-2.30785,66.384,Q,Q
2023-03-14 18:02:36:147,0,-5.87405,-2.29783,66.3801,Q,Q
2023-03-14 18:02:36:157,0,-5.87022,-2.2884,66.3768,Q,Q
2023-03-14 18:02:36:167,0,-5.86019,-2.27276,66.3701,Q,Q
2023-03-14 18:02:36:177,0,-5.85063,-2.25906,66.3609,Q,Q
2023-03-14 18:02:36:187,0,-5.84038,-2.24243,66.3523,Q,Q
2023-03-14 18:02:36:197,0,-5.82895,-2.23174,66.3463,Q,Q
2023-03-14 18:02:36:207,0,-5.81935,-2.22551,66.3411,Q,Q
2023-03-14 18:02:36:217,0,-5.81119,-2.22125,66.3393,Q,Q
2023-03-14 18:02:36:227,0,-5.80465,-2.21523,66.3388,Q,Q
2023-03-14 18:02:36:237,0,-5.80217,-2.20773,66.3398,Q,Q
2023-03-14 18:02:36:247,0,-5.79894,-2.20457,66.3443,Q,Q
2023-03-14 18:02:36:257,0,-5.79389,-2.2004,66.3473,Q,Q
2023-03-14 18:02:36:267,0,-5.78821,-2.19441,66.3479,Q,Q
2023-03-14 18:02:36:277,0,-5.78064,-2.18903,66.3478,Q,Q
2023-03-14 18:02:36:287,0,-5.77549,-2.18733,66.3482,Q,Q
2023-03-14 18:02:36:297,0,-5.77234,-2.17941,66.3488,Q,Q
2023-03-14 18:02:36:307,0,-5.77204,-2.17405,66.3482,Q,Q
2023-03-14 18:02:36:317,0,-5.77338,-2.17042,66.3486,Q,Q
2023-03-14 18:02:36:327,0,-5.78097,-2.167,66.3482,Q,Q
2023-03-14 18:02:36:337,0,-5.78778,-2.16469,66.3469,Q,Q
2023-03-14 18:02:36:347,0,-5.80135,-2.16152,66.3444,Q,Q
2023-03-14 18:02:36:357,0,-5.81175,-2.15915,66.3447,Q,Q
2023-03-14 18:02:36:367,0,-5.82159,-2.15444,66.3417,Q,Q
2023-03-14 18:02:36:377,0,-5.83449,-2.14636,66.3396,Q,Q
2023-03-14 18:02:36:387,0,-5.84776,-2.14156,66.3359,Q,Q
2023-03-14 18:02:36:397,0,-5.86228,-2.13634,66.3371,Q,Q
2023-03-14 18:02:36:407,0,-5.86854,-2.13107,66.3347,Q,Q
2023-03-14 18:02:36:417,0,-5.87704,-2.12541,66.3324,Q,Q
2023-03-14 18:02:36:427,0,-5.88632,-2.12596,66.3327,Q,Q
2023-03-14 18:02:36:437,0,-5.89295,-2.12034,66.3355,Q,Q
2023-03-14 18:02:36:447,0,-5.89779,-2.11117,66.3342,Q,Q
2023-03-14 18:02:36:457,0,-5.8991,-2.1038,66.3281,Q,Q
2023-03-14 18:02:36:467,0,-5.89587,-2.10004,66.3227,Q,Q
2023-03-14 18:02:36:477,0,-5.89147,-2.09535,66.3155,Q,Q
2023-03-14 18:02:36:487,0,-5.88461,-2.09452,66.3134,Q,Q
2023-03-14 18:02:36:497,0,-5.87895,-2.09563,66.3092,Q,Q
2023-03-14 18:02:36:507,0,-5.87255,-2.09689,66.3064,Q,Q
2023-03-14 18:02:36:517,0,-5.86821,-2.10127,66.3039,Q,Q
