Timestamp_cmd,imu_cmd,roll_delta,pitch_delta,yaw_delta,voice_type,voice_length
2023-03-14 21:49:19:5,0,-0.00746651,-3.78249,16.1702,Q,Q
2023-03-14 21:49:19:8,0,-0.0337986,-3.78635,16.1845,Q,Q
2023-03-14 21:49:19:18,0,-0.0529583,-3.78275,16.1966,Q,Q
2023-03-14 21:49:19:28,0,-0.0620248,-3.78028,16.2077,Q,Q
2023-03-14 21:49:19:38,0,-0.0683383,-3.78328,16.2166,Q,Q
2023-03-14 21:49:19:48,0,-0.0715959,-3.78774,16.232,Q,Q
2023-03-14 21:49:19:58,0,-0.0732811,-3.78831,16.2459,Q,Q
2023-03-14 21:49:19:68,0,-0.075566,-3.78835,16.2514,Q,Q
2023-03-14 21:49:19:78,0,-0.0759517,-3.7853,16.2509,Q,Q
2023-03-14 21:49:19:88,0,-0.0756872,-3.78194,16.2514,Q,Q
2023-03-14 21:49:19:98,0,-0.0706592,-3.78217,16.2553,Q,Q
2023-03-14 21:49:19:108,0,-0.0676905,-3.78042,16.2587,Q,Q
2023-03-14 21:49:19:118,0,-0.0669677,-3.77902,16.2669,Q,Q
2023-03-14 21:49:19:128,0,-0.0615918,-3.77507,16.2739,Q,Q
2023-03-14 21:49:19:138,0,-0.0571979,-3.76764,16.2833,Q,Q
2023-03-14 21:49:19:148,0,-0.0496269,-3.76466,16.2943,Q,Q
2023-03-14 21:49:19:158,0,-0.0456162,-3.75861,16.3083,Q,Q
2023-03-14 21:49:19:168,0,-0.039847,-3.74835,16.3259,Q,Q
2023-03-14 21:49:19:178,0,-0.0375326,-3.73463,16.346,Q,Q
2023-03-14 21:49:19:188,0,-0.0403073,-3.71504,16.3707,Q,Q
2023-03-14 21:49:19:198,0,-0.0443152,-3.69352,16.3953,Q,Q
2023-03-14 21:49:19:208,0,-0.0512424,-3.66589,16.4222,Q,Q
2023-03-14 21:49:19:218,0,-0.0578074,-3.63604,16.4449,Q,Q
2023-03-14 21:49:19:228,0,-0.0721858,-3.60028,16.4737,Q,Q
2023-03-14 21:49:19:238,0,-0.0843083,-3.56446,16.4999,Q,Q
2023-03-14 21:49:19:248,0,-0.0931752,-3.5251,16.5251,Q,Q
2023-03-14 21:49:19:258,0,-0.104343,-3.48248,16.5467,Q,Q
2023-03-14 21:49:19:268,0,-0.115223,-3.44392,16.5687,Q,Q
2023-03-14 21:49:19:278,0,-0.1275,-3.41111,16.5937,Q,Q
2023-03-14 21:49:19:288,0,-0.145076,-3.39089,16.6198,Q,Q
2023-03-14 21:49:19:298,0,-0.174296,-3.37492,16.6468,Q,Q
2023-03-14 21:49:19:308,0,-0.211086,-3.37039,16.6768,Q,Q
2023-03-14 21:49:19:318,0,-0.248518,-3.37534,16.7078,Q,Q
2023-03-14 21:49:19:328,0,-0.282712,-3.38556,16.7332,Q,Q
2023-03-14 21:49:19:338,0,-0.324019,-3.41826,16.7576,Q,Q
2023-03-14 21:49:19:348,0,-0.373327,-3.45724,16.7889,Q,Q
2023-03-14 21:49:19:358,0,-0.416475,-3.50411,16.8164,Q,Q
2023-03-14 21:49:19:368,0,-0.44851,-3.5511,16.8415,Q,Q
2023-03-14 21:49:19:378,0,-0.462074,-3.59479,16.8686,Q,Q
2023-03-14 21:49:19:388,0,-0.466984,-3.63553,16.898,Q,Q
2023-03-14 21:49:19:398,0,-0.466951,-3.6744,16.9273,Q,Q
2023-03-14 21:49:19:408,0,-0.471034,-3.70961,16.9525,Q,Q
2023-03-14 21:49:19:418,0,-0.475851,-3.73855,16.9746,Q,Q
2023-03-14 21:49:19:428,0,-0.474906,-3.76127,16.9935,Q,Q
2023-03-14 21:49:19:438,0,-0.464364,-3.77818,17.007,Q,Q
2023-03-14 21:49:19:448,0,-0.456807,-3.78289,17.0175,Q,Q
2023-03-14 21:49:19:458,0,-0.44321,-3.78656,17.0211,Q,Q
2023-03-14 21:49:19:468,0,-0.424745,-3.78045,17.0236,Q,Q
2023-03-14 21:49:19:478,0,-0.408105,-3.76972,17.0238,Q,Q
2023-03-14 21:49:19:488,0,-0.38989,-3.75994,17.0224,Q,Q
2023-03-14 21:49:19:498,0,-0.366188,-3.74713,17.0245,Q,Q
2023-03-14 21:49:19:508,0,-0.340561,-3.73484,17.0321,Q,Q
2023-03-14 21:49:19:518,0,-0.317188,-3.72072,17.0408,Q,Q
2023-03-14 21:49:19:528,0,-0.296449,-3.70571,17.0512,Q,Q
2023-03-14 21:49:19:538,0,-0.276564,-3.69551,17.0638,Q,Q
2023-03-14 21:49:19:548,0,-0.254001,-3.68277,17.0845,Q,Q
2023-03-14 21:49:19:558,0,-0.234687,-3.68079,17.1117,Q,Q
2023-03-14 21:49:19:568,0,-0.219313,-3.68174,17.1439,Q,Q
2023-03-14 21:49:19:578,0,-0.210366,-3.67822,17.1741,Q,Q
2023-03-14 21:49:19:588,0,-0.204164,-3.67732,17.2028,Q,Q
2023-03-14 21:49:19:598,0,-0.202051,-3.67525,17.2288,Q,Q
2023-03-14 21:49:19:608,0,-0.203203,-3.67444,17.2527,Q,Q
2023-03-14 21:49:19:618,0,-0.204979,-3.67111,17.2825,Q,Q
2023-03-14 21:49:19:628,0,-0.213641,-3.67085,17.3068,Q,Q
2023-03-14 21:49:19:638,0,-0.223178,-3.67501,17.329,Q,Q
2023-03-14 21:49:19:648,0,-0.231413,-3.67603,17.3459,Q,Q
2023-03-14 21:49:19:658,0,-0.23946,-3.6778,17.3629,Q,Q
2023-03-14 21:49:19:668,0,-0.246192,-3.67872,17.3778,Q,Q
2023-03-14 21:49:19:678,0,-0.252035,-3.67865,17.3915,Q,Q
2023-03-14 21:49:19:688,0,-0.259759,-3.67911,17.4025,Q,Q
2023-03-14 21:49:19:698,0,-0.265748,-3.67712,17.4101,Q,Q
2023-03-14 21:49:19:708,0,-0.275599,-3.67572,17.416,Q,Q
2023-03-14 21:49:19:718,0,-0.287746,-3.67653,17.418,Q,Q
2023-03-14 21:49:19:728,0,-0.301992,-3.67621,17.4186,Q,Q
2023-03-14 21:49:19:738,0,-0.31424,-3.67573,17.4168,Q,Q
2023-03-14 21:49:19:748,0,-0.328596,-3.67597,17.4143,Q,Q
2023-03-14 21:49:19:758,0,-0.341845,-3.67669,17.4086,Q,Q
2023-03-14 21:49:19:768,0,-0.356497,-3.67143,17.3997,Q,Q
2023-03-14 21:49:19:778,0,-0.36322,-3.66492,17.3933,Q,Q
2023-03-14 21:49:19:788,0,-0.361761,-3.66342,17.3844,Q,Q
2023-03-14 21:49:19:798,0,-0.360287,-3.66402,17.385,Q,Q
2023-03-14 21:49:19:808,0,-0.358145,-3.67286,17.3923,Q,Q
2023-03-14 21:49:19:818,0,-0.354243,-3.68454,17.4062,Q,Q
2023-03-14 21:49:19:828,0,-0.348045,-3.69344,17.4216,Q,Q
2023-03-14 21:49:19:838,0,-0.341793,-3.69781,17.4368,Q,Q
2023-03-14 21:49:19:848,0,-0.340264,-3.70161,17.4481,Q,Q
2023-03-14 21:49:19:858,0,-0.336086,-3.70377,17.4631,Q,Q
2023-03-14 21:49:19:868,0,-0.337624,-3.70262,17.4761,Q,Q
2023-03-14 21:49:19:878,0,-0.338447,-3.69926,17.4873,Q,Q
2023-03-14 21:49:19:888,0,-0.33875,-3.69513,17.4985,Q,Q
2023-03-14 21:49:19:898,0,-0.335813,-3.69227,17.5065,Q,Q
2023-03-14 21:49:19:908,0,-0.335965,-3.68907,17.5168,Q,Q
2023-03-14 21:49:19:918,0,-0.332751,-3.68581,17.523,Q,Q
2023-03-14 21:49:19:928,0,-0.330745,-3.68219,17.5317,Q,Q
2023-03-14 21:49:19:938,0,-0.330867,-3.67953,17.5362,Q,Q
2023-03-14 21:49:19:948,0,-0.333241,-3.67672,17.5396,Q,Q
2023-03-14 21:49:19:958,0,-0.334254,-3.67524,17.5336,Q,Q
2023-03-14 21:49:19:968,0,-0.332852,-3.67632,17.528,Q,Q
2023-03-14 21:49:19:978,0,-0.330118,-3.67804,17.519,Q,Q
2023-03-14 21:49:19:988,0,-0.32591,-3.67878,17.5071,Q,Q
2023-03-14 21:49:19:998,0,-0.328338,-3.67633,17.4936,Q,Q
2023-03-14 21:49:20:8,0,-0.335509,-3.66747,17.4766,Q,Q
2023-03-14 21:49:20:18,0,-0.350461,-3.65912,17.4581,Q,Q
2023-03-14 21:49:20:28,0,-0.369643,-3.64151,17.441,Q,Q
2023-03-14 21:49:20:38,0,-0.396614,-3.62646,17.4224,Q,Q
2023-03-14 21:49:20:48,0,-0.427951,-3.6177,17.4044,Q,Q
2023-03-14 21:49:20:58,0,-0.468103,-3.6144,17.3936,Q,Q
2023-03-14 21:49:20:68,0,-0.505904,-3.60789,17.3857,Q,Q
2023-03-14 21:49:20:78,0,-0.529637,-3.59228,17.3753,Q,Q
2023-03-14 21:49:20:88,0,-0.535833,-3.57911,17.3683,Q,Q
2023-03-14 21:49:20:98,0,-0.536388,-3.56811,17.3619,Q,Q
2023-03-14 21:49:20:108,0,-0.542173,-3.56904,17.3568,Q,Q
2023-03-14 21:49:20:118,0,-0.54568,-3.58381,17.3337,Q,Q
2023-03-14 21:49:20:128,0,-0.552394,-3.61009,17.2848,Q,Q
2023-03-14 21:49:20:138,0,-0.554859,-3.64444,17.2227,Q,Q
2023-03-14 21:49:20:148,0,-0.557386,-3.69329,17.1663,Q,Q
2023-03-14 21:49:20:158,0,-0.559487,-3.75085,17.129,Q,Q
2023-03-14 21:49:20:168,0,-0.555805,-3.79876,17.1018,Q,Q
2023-03-14 21:49:20:178,0,-0.55287,-3.83323,17.0904,Q,Q
2023-03-14 21:49:20:188,0,-0.55254,-3.85319,17.0929,Q,Q
2023-03-14 21:49:20:198,0,-0.552484,-3.85477,17.1079,Q,Q
2023-03-14 21:49:20:208,0,-0.558205,-3.83798,17.1198,Q,Q
2023-03-14 21:49:20:218,0,-0.561254,-3.81043,17.1184,Q,Q
2023-03-14 21:49:20:228,0,-0.559007,-3.77553,17.1094,Q,Q
2023-03-14 21:49:20:238,0,-0.554107,-3.74306,17.086,Q,Q
2023-03-14 21:49:20:248,0,-0.545904,-3.7167,17.0531,Q,Q
2023-03-14 21:49:20:258,0,-0.538078,-3.70252,17.0126,Q,Q
2023-03-14 21:49:20:268,0,-0.530815,-3.70434,16.9734,Q,Q
2023-03-14 21:49:20:278,0,-0.533375,-3.71905,16.9421,Q,Q
2023-03-14 21:49:20:288,0,-0.540185,-3.74353,16.9145,Q,Q
2023-03-14 21:49:20:298,0,-0.550983,-3.77213,16.8941,Q,Q
2023-03-14 21:49:20:308,0,-0.568007,-3.80229,16.8806,Q,Q
2023-03-14 21:49:20:318,0,-0.585059,-3.83688,16.8756,Q,Q
2023-03-14 21:49:20:328,0,-0.606189,-3.87144,16.8836,Q,Q
2023-03-14 21:49:20:338,0,-0.62579,-3.90793,16.9038,Q,Q
2023-03-14 21:49:20:348,0,-0.642263,-3.95297,16.9355,Q,Q
2023-03-14 21:49:20:358,0,-0.657019,-4.00165,16.9793,Q,Q
2023-03-14 21:49:20:368,0,-0.673053,-4.05539,17.0411,Q,Q
2023-03-14 21:49:20:378,0,-0.689404,-4.09784,17.1119,Q,Q
2023-03-14 21:49:20:388,0,-0.701797,-4.1317,17.1849,Q,Q
2023-03-14 21:49:20:398,0,-0.708414,-4.15601,17.2553,Q,Q
2023-03-14 21:49:20:408,0,-0.711515,-4.16995,17.3206,Q,Q
2023-03-14 21:49:20:418,0,-0.71022,-4.17525,17.3738,Q,Q
2023-03-14 21:49:20:428,0,-0.695859,-4.17178,17.4187,Q,Q
2023-03-14 21:49:20:438,0,-0.675633,-4.16123,17.4506,Q,Q
2023-03-14 21:49:20:448,0,-0.650662,-4.13993,17.4733,Q,Q
2023-03-14 21:49:20:458,0,-0.628953,-4.10918,17.4823,Q,Q
2023-03-14 21:49:20:468,0,-0.619382,-4.06716,17.4825,Q,Q
2023-03-14 21:49:20:478,0,-0.620589,-4.01925,17.4763,Q,Q
2023-03-14 21:49:20:488,0,-0.634641,-3.96675,17.4662,Q,Q
2023-03-14 21:49:20:498,0,-0.654657,-3.91375,17.4509,Q,Q
2023-03-14 21:49:20:508,0,-0.68731,-3.87923,17.436,Q,Q
2023-03-14 21:49:20:518,0,-0.740708,-3.86578,17.4227,Q,Q
2023-03-14 21:49:20:528,0,-0.817827,-3.86622,17.4203,Q,Q
2023-03-14 21:49:20:538,0,-0.907418,-3.86961,17.4165,Q,Q
2023-03-14 21:49:20:548,0,-0.990937,-3.87529,17.4127,Q,Q
2023-03-14 21:49:20:558,0,-1.06513,-3.87643,17.4106,Q,Q
2023-03-14 21:49:20:568,0,-1.12619,-3.8711,17.4078,Q,Q
2023-03-14 21:49:20:578,0,-1.17607,-3.86859,17.3988,Q,Q
2023-03-14 21:49:20:588,0,-1.22447,-3.86746,17.3892,Q,Q
2023-03-14 21:49:20:598,0,-1.26437,-3.87363,17.3743,Q,Q
2023-03-14 21:49:20:608,0,-1.30053,-3.89026,17.3582,Q,Q
2023-03-14 21:49:20:618,0,-1.32872,-3.9155,17.3411,Q,Q
2023-03-14 21:49:20:628,0,-1.34208,-3.93547,17.3202,Q,Q
2023-03-14 21:49:20:638,0,-1.34803,-3.95251,17.2944,Q,Q
2023-03-14 21:49:20:648,0,-1.34429,-3.96139,17.2679,Q,Q
2023-03-14 21:49:20:658,0,-1.3434,-3.96035,17.2359,Q,Q
2023-03-14 21:49:20:668,0,-1.34292,-3.95162,17.2015,Q,Q
2023-03-14 21:49:20:678,0,-1.34516,-3.93829,17.1655,Q,Q
2023-03-14 21:49:20:688,0,-1.35013,-3.92108,17.1271,Q,Q
2023-03-14 21:49:20:698,0,-1.35402,-3.90115,17.0893,Q,Q
2023-03-14 21:49:20:708,0,-1.35573,-3.88316,17.0501,Q,Q
2023-03-14 21:49:20:718,0,-1.36067,-3.86361,17.0171,Q,Q
2023-03-14 21:49:20:728,0,-1.35938,-3.84413,16.9841,Q,Q
2023-03-14 21:49:20:738,0,-1.35474,-3.82279,16.9559,Q,Q
2023-03-14 21:49:20:748,0,-1.34758,-3.80514,16.9325,Q,Q
2023-03-14 21:49:20:758,0,-1.34012,-3.7926,16.9147,Q,Q
2023-03-14 21:49:20:768,0,-1.32913,-3.77926,16.8968,Q,Q
2023-03-14 21:49:20:778,0,-1.32176,-3.76957,16.8847,Q,Q
2023-03-14 21:49:20:788,0,-1.32273,-3.75608,16.8818,Q,Q
2023-03-14 21:49:20:798,0,-1.32774,-3.74202,16.8814,Q,Q
2023-03-14 21:49:20:808,0,-1.33741,-3.72996,16.8865,Q,Q
2023-03-14 21:49:20:818,0,-1.34847,-3.72609,16.8932,Q,Q
2023-03-14 21:49:20:828,0,-1.36141,-3.73317,16.9028,Q,Q
2023-03-14 21:49:20:838,0,-1.38035,-3.75057,16.9167,Q,Q
2023-03-14 21:49:20:848,0,-1.40475,-3.76729,16.933,Q,Q
2023-03-14 21:49:20:858,0,-1.43665,-3.78219,16.948,Q,Q
2023-03-14 21:49:20:868,0,-1.46547,-3.79106,16.9626,Q,Q
2023-03-14 21:49:20:878,0,-1.48996,-3.80207,16.9786,Q,Q
2023-03-14 21:49:20:888,0,-1.5129,-3.81154,16.9897,Q,Q
2023-03-14 21:49:20:898,0,-1.53721,-3.82519,16.9987,Q,Q
2023-03-14 21:49:20:908,0,-1.56291,-3.8425,17.0028,Q,Q
2023-03-14 21:49:20:918,0,-1.59364,-3.85909,17.006,Q,Q
2023-03-14 21:49:20:928,0,-1.62072,-3.87471,17.0085,Q,Q
2023-03-14 21:49:20:938,0,-1.65117,-3.88763,17.0132,Q,Q
2023-03-14 21:49:20:948,0,-1.68089,-3.9011,17.0126,Q,Q
2023-03-14 21:49:20:958,0,-1.71008,-3.91477,17.01,Q,Q
2023-03-14 21:49:20:968,0,-1.73497,-3.927,17.0078,Q,Q
2023-03-14 21:49:20:978,0,-1.75901,-3.9463,17.0032,Q,Q
2023-03-14 21:49:20:988,0,-1.78365,-3.96821,16.998,Q,Q
2023-03-14 21:49:20:998,0,-1.8081,-3.98895,16.9949,Q,Q
2023-03-14 21:49:21:8,0,-1.83427,-4.00271,16.9909,Q,Q
2023-03-14 21:49:21:18,0,-1.85229,-4.02103,16.9872,Q,Q
2023-03-14 21:49:21:28,0,-1.86567,-4.0359,16.987,Q,Q
2023-03-14 21:49:21:38,0,-1.87449,-4.05754,16.9878,Q,Q
2023-03-14 21:49:21:48,0,-1.87392,-4.07346,16.9937,Q,Q
2023-03-14 21:49:21:58,0,-1.87154,-4.09062,16.9994,Q,Q
2023-03-14 21:49:21:68,0,-1.8689,-4.10792,17.0086,Q,Q
2023-03-14 21:49:21:78,0,-1.86615,-4.12265,17.0156,Q,Q
2023-03-14 21:49:21:88,0,-1.86357,-4.13599,17.0194,Q,Q
2023-03-14 21:49:21:98,0,-1.8585,-4.14237,17.0231,Q,Q
2023-03-14 21:49:21:108,0,-1.85369,-4.14646,17.0241,Q,Q
2023-03-14 21:49:21:118,0,-1.84602,-4.15093,17.0205,Q,Q
2023-03-14 21:49:21:128,0,-1.83851,-4.15425,17.0148,Q,Q
2023-03-14 21:49:21:138,0,-1.83322,-4.15595,17.0072,Q,Q
2023-03-14 21:49:21:148,0,-1.82891,-4.15764,16.9971,Q,Q
2023-03-14 21:49:21:158,0,-1.82343,-4.16598,16.9845,Q,Q
2023-03-14 21:49:21:168,0,-1.81121,-4.17443,16.971,Q,Q
2023-03-14 21:49:21:178,0,-1.7928,-4.18195,16.9619,Q,Q
2023-03-14 21:49:21:188,0,-1.77935,-4.19046,16.9528,Q,Q
2023-03-14 21:49:21:198,0,-1.76933,-4.20004,16.9486,Q,Q
2023-03-14 21:49:21:208,0,-1.76568,-4.20282,16.9492,Q,Q
2023-03-14 21:49:21:218,0,-1.77084,-4.20294,16.9531,Q,Q
2023-03-14 21:49:21:228,0,-1.77936,-4.20354,16.9676,Q,Q
2023-03-14 21:49:21:238,0,-1.8007,-4.20908,16.988,Q,Q
2023-03-14 21:49:21:248,0,-1.82283,-4.21462,17.0171,Q,Q
2023-03-14 21:49:21:258,0,-1.84282,-4.21657,17.0502,Q,Q
2023-03-14 21:49:21:268,0,-1.86175,-4.22401,17.0881,Q,Q
2023-03-14 21:49:21:278,0,-1.88441,-4.2373,17.1251,Q,Q
2023-03-14 21:49:21:288,0,-1.91641,-4.24424,17.1616,Q,Q
2023-03-14 21:49:21:298,0,-1.95158,-4.24298,17.1959,Q,Q
2023-03-14 21:49:21:308,0,-1.98399,-4.23117,17.2326,Q,Q
2023-03-14 21:49:21:318,0,-2.00929,-4.21486,17.2616,Q,Q
2023-03-14 21:49:21:328,0,-2.04242,-4.19294,17.2911,Q,Q
2023-03-14 21:49:21:338,0,-2.08092,-4.16299,17.3132,Q,Q
2023-03-14 21:49:21:348,0,-2.12962,-4.12853,17.327,Q,Q
2023-03-14 21:49:21:358,0,-2.181,-4.09268,17.3322,Q,Q
2023-03-14 21:49:21:368,0,-2.22968,-4.06615,17.3193,Q,Q
2023-03-14 21:49:21:378,0,-2.28181,-4.04776,17.2987,Q,Q
2023-03-14 21:49:21:388,0,-2.32486,-4.0261,17.2624,Q,Q
2023-03-14 21:49:21:398,0,-2.35311,-4.00233,17.2069,Q,Q
2023-03-14 21:49:21:408,0,-2.36887,-3.97521,17.1367,Q,Q
2023-03-14 21:49:21:418,0,-2.38807,-3.9462,17.0563,Q,Q
2023-03-14 21:49:21:428,0,-2.41402,-3.92616,16.9724,Q,Q
2023-03-14 21:49:21:438,0,-2.46027,-3.91311,16.8806,Q,Q
2023-03-14 21:49:21:448,0,-2.51511,-3.90639,16.7951,Q,Q
2023-03-14 21:49:21:458,0,-2.57402,-3.9067,16.7117,Q,Q
2023-03-14 21:49:21:468,0,-2.62584,-3.90506,16.6368,Q,Q
2023-03-14 21:49:21:478,0,-2.66671,-3.90017,16.5748,Q,Q
2023-03-14 21:49:21:488,0,-2.69936,-3.89053,16.5175,Q,Q
2023-03-14 21:49:21:498,0,-2.73419,-3.86611,16.4707,Q,Q
2023-03-14 21:49:21:508,0,-2.77659,-3.84284,16.4255,Q,Q
2023-03-14 21:49:21:518,0,-2.83242,-3.81916,16.3895,Q,Q
2023-03-14 21:49:21:528,0,-2.91353,-3.79945,16.3632,Q,Q
2023-03-14 21:49:21:538,0,-3.01955,-3.78801,16.3422,Q,Q
2023-03-14 21:49:21:548,0,-3.14891,-3.78518,16.3335,Q,Q
2023-03-14 21:49:21:558,0,-3.30539,-3.78945,16.3352,Q,Q
2023-03-14 21:49:21:568,0,-3.47344,-3.80269,16.349,Q,Q
2023-03-14 21:49:21:578,0,-3.6489,-3.82256,16.3714,Q,Q
2023-03-14 21:49:21:588,0,-3.82125,-3.85026,16.4079,Q,Q
2023-03-14 21:49:21:598,0,-3.98853,-3.8838,16.4599,Q,Q
2023-03-14 21:49:21:608,0,-4.14664,-3.91145,16.5228,Q,Q
2023-03-14 21:49:21:618,0,-4.30066,-3.93361,16.5939,Q,Q
2023-03-14 21:49:21:628,0,-4.44855,-3.94623,16.6665,Q,Q
2023-03-14 21:49:21:638,0,-4.58159,-3.95003,16.7362,Q,Q
2023-03-14 21:49:21:648,0,-4.69786,-3.94221,16.8048,Q,Q
2023-03-14 21:49:21:658,0,-4.78842,-3.92042,16.8707,Q,Q
2023-03-14 21:49:21:668,0,-4.86664,-3.89675,16.9386,Q,Q
2023-03-14 21:49:21:678,0,-4.93884,-3.86411,17.0027,Q,Q
2023-03-14 21:49:21:688,0,-4.99913,-3.83228,17.0604,Q,Q
2023-03-14 21:49:21:698,0,-5.04127,-3.79187,17.1134,Q,Q
2023-03-14 21:49:21:708,0,-5.06321,-3.75362,17.158,Q,Q
2023-03-14 21:49:21:718,0,-5.0717,-3.70332,17.1836,Q,Q
2023-03-14 21:49:21:728,0,-5.08023,-3.64479,17.1974,Q,Q
2023-03-14 21:49:21:738,0,-5.09624,-3.5795,17.1989,Q,Q
2023-03-14 21:49:21:748,0,-5.12704,-3.51087,17.1867,Q,Q
2023-03-14 21:49:21:758,0,-5.16218,-3.44342,17.1609,Q,Q
2023-03-14 21:49:21:768,0,-5.19819,-3.38216,17.1196,Q,Q
2023-03-14 21:49:21:778,0,-5.22502,-3.33222,17.0644,Q,Q
2023-03-14 21:49:21:788,0,-5.24201,-3.2921,17.0028,Q,Q
2023-03-14 21:49:21:798,0,-5.25272,-3.26413,16.9413,Q,Q
2023-03-14 21:49:21:808,0,-5.25911,-3.24853,16.8865,Q,Q
2023-03-14 21:49:21:818,0,-5.265,-3.23864,16.8347,Q,Q
2023-03-14 21:49:21:828,0,-5.27127,-3.23168,16.7885,Q,Q
2023-03-14 21:49:21:838,0,-5.2799,-3.22526,16.7474,Q,Q
2023-03-14 21:49:21:848,0,-5.29374,-3.22122,16.7121,Q,Q
2023-03-14 21:49:21:858,0,-5.30851,-3.21702,16.687,Q,Q
2023-03-14 21:49:21:868,0,-5.33213,-3.21315,16.6719,Q,Q
2023-03-14 21:49:21:878,0,-5.35708,-3.21383,16.6643,Q,Q
2023-03-14 21:49:21:888,0,-5.39268,-3.22,16.6686,Q,Q
2023-03-14 21:49:21:898,0,-5.43044,-3.2275,16.6808,Q,Q
2023-03-14 21:49:21:908,0,-5.46484,-3.23773,16.7024,Q,Q
2023-03-14 21:49:21:918,0,-5.50612,-3.24784,16.7276,Q,Q
2023-03-14 21:49:21:928,0,-5.55067,-3.25866,16.7614,Q,Q
2023-03-14 21:49:21:938,0,-5.59935,-3.27324,16.7979,Q,Q
2023-03-14 21:49:21:948,0,-5.65806,-3.28485,16.8367,Q,Q
2023-03-14 21:49:21:958,0,-5.71539,-3.28992,16.8741,Q,Q
2023-03-14 21:49:21:968,0,-5.76144,-3.2842,16.906,Q,Q
2023-03-14 21:49:21:978,0,-5.78975,-3.27219,16.9347,Q,Q
2023-03-14 21:49:21:988,0,-5.81282,-3.25798,16.957,Q,Q
2023-03-14 21:49:21:998,0,-5.83178,-3.2437,16.9715,Q,Q
2023-03-14 21:49:22:8,0,-5.8553,-3.23208,16.9803,Q,Q
2023-03-14 21:49:22:18,0,-5.87936,-3.22187,16.9841,Q,Q
2023-03-14 21:49:22:28,0,-5.9065,-3.21102,16.9806,Q,Q
2023-03-14 21:49:22:38,0,-5.9379,-3.1995,16.9755,Q,Q
2023-03-14 21:49:22:48,0,-5.97745,-3.18708,16.9576,Q,Q
2023-03-14 21:49:22:58,0,-6.01297,-3.17315,16.9302,Q,Q
2023-03-14 21:49:22:68,0,-6.02767,-3.15705,16.8909,Q,Q
2023-03-14 21:49:22:78,0,-6.02425,-3.14351,16.8438,Q,Q
2023-03-14 21:49:22:88,0,-6.00437,-3.13481,16.7975,Q,Q
2023-03-14 21:49:22:98,0,-5.97873,-3.12,16.7532,Q,Q
2023-03-14 21:49:22:108,0,-5.95368,-3.09984,16.7082,Q,Q
2023-03-14 21:49:22:118,0,-5.93433,-3.08578,16.6689,Q,Q
2023-03-14 21:49:22:128,0,-5.92197,-3.07443,16.6302,Q,Q
2023-03-14 21:49:22:138,0,-5.9192,-3.06829,16.5969,Q,Q
2023-03-14 21:49:22:148,0,-5.91947,-3.0647,16.5699,Q,Q
2023-03-14 21:49:22:158,0,-5.92093,-3.07326,16.5368,Q,Q
2023-03-14 21:49:22:168,0,-5.92458,-3.08969,16.4987,Q,Q
2023-03-14 21:49:22:178,0,-5.92266,-3.10334,16.4619,Q,Q
2023-03-14 21:49:22:188,0,-5.90881,-3.11324,16.4265,Q,Q
2023-03-14 21:49:22:198,0,-5.88315,-3.11879,16.3902,Q,Q
2023-03-14 21:49:22:208,0,-5.85672,-3.12619,16.3567,Q,Q
2023-03-14 21:49:22:218,0,-5.84023,-3.1384,16.3338,Q,Q
2023-03-14 21:49:22:228,0,-5.83579,-3.1515,16.3121,Q,Q
2023-03-14 21:49:22:238,0,-5.82661,-3.1619,16.2854,Q,Q
2023-03-14 21:49:22:248,0,-5.81045,-3.18131,16.2538,Q,Q
2023-03-14 21:49:22:258,0,-5.78801,-3.20187,16.2228,Q,Q
2023-03-14 21:49:22:268,0,-5.75489,-3.22756,16.192,Q,Q
2023-03-14 21:49:22:278,0,-5.7095,-3.25499,16.1595,Q,Q
2023-03-14 21:49:22:288,0,-5.65574,-3.27604,16.1296,Q,Q
2023-03-14 21:49:22:298,0,-5.59246,-3.29667,16.0998,Q,Q
2023-03-14 21:49:22:308,0,-5.5261,-3.31737,16.0699,Q,Q
2023-03-14 21:49:22:318,0,-5.45927,-3.33653,16.0394,Q,Q
2023-03-14 21:49:22:328,0,-5.39709,-3.35696,16.0071,Q,Q
2023-03-14 21:49:22:338,0,-5.34015,-3.38331,15.9736,Q,Q
2023-03-14 21:49:22:348,0,-5.28188,-3.40894,15.9436,Q,Q
2023-03-14 21:49:22:358,0,-5.22386,-3.44046,15.9094,Q,Q
2023-03-14 21:49:22:368,0,-5.16157,-3.46415,15.878,Q,Q
2023-03-14 21:49:22:378,0,-5.09276,-3.48605,15.8523,Q,Q
2023-03-14 21:49:22:388,0,-5.02304,-3.50769,15.8309,Q,Q
2023-03-14 21:49:22:398,0,-4.95395,-3.5327,15.8088,Q,Q
2023-03-14 21:49:22:408,0,-4.88361,-3.5603,15.7897,Q,Q
2023-03-14 21:49:22:418,0,-4.81981,-3.58602,15.7755,Q,Q
2023-03-14 21:49:22:428,0,-4.76008,-3.61563,15.7674,Q,Q
2023-03-14 21:49:22:438,0,-4.70368,-3.64024,15.7639,Q,Q
2023-03-14 21:49:22:448,0,-4.65367,-3.66425,15.7611,Q,Q
2023-03-14 21:49:22:458,0,-4.61446,-3.6891,15.7673,Q,Q
2023-03-14 21:49:22:468,0,-4.57969,-3.71146,15.7766,Q,Q
2023-03-14 21:49:22:478,0,-4.55566,-3.73386,15.7859,Q,Q
2023-03-14 21:49:22:488,0,-4.53867,-3.75541,15.8016,Q,Q
2023-03-14 21:49:22:498,0,-4.53222,-3.77621,15.8191,Q,Q
2023-03-14 21:49:22:508,0,-4.53402,-3.79837,15.8415,Q,Q
2023-03-14 21:49:22:518,0,-4.53496,-3.81941,15.8632,Q,Q
2023-03-14 21:49:22:528,0,-4.53369,-3.82966,15.8822,Q,Q
2023-03-14 21:49:22:538,0,-4.52657,-3.83975,15.9009,Q,Q
2023-03-14 21:49:22:548,0,-4.51457,-3.85362,15.9197,Q,Q
2023-03-14 21:49:22:558,0,-4.50515,-3.87155,15.9389,Q,Q
2023-03-14 21:49:22:568,0,-4.5031,-3.88472,15.9499,Q,Q
2023-03-14 21:49:22:578,0,-4.49644,-3.89752,15.959,Q,Q
2023-03-14 21:49:22:588,0,-4.4899,-3.91037,15.9604,Q,Q
2023-03-14 21:49:22:598,0,-4.48526,-3.92612,15.9585,Q,Q
2023-03-14 21:49:22:608,0,-4.48769,-3.94251,15.9553,Q,Q
2023-03-14 21:49:22:618,0,-4.48927,-3.94913,15.9472,Q,Q
2023-03-14 21:49:22:628,0,-4.48452,-3.95533,15.934,Q,Q
2023-03-14 21:49:22:638,0,-4.47652,-3.96522,15.9173,Q,Q
2023-03-14 21:49:22:648,0,-4.47215,-3.9813,15.8971,Q,Q
2023-03-14 21:49:22:658,0,-4.47212,-3.99319,15.8775,Q,Q
2023-03-14 21:49:22:668,0,-4.47331,-4.00819,15.8515,Q,Q
2023-03-14 21:49:22:678,0,-4.47439,-4.02099,15.8252,Q,Q
2023-03-14 21:49:22:688,0,-4.47339,-4.0363,15.7965,Q,Q
2023-03-14 21:49:22:698,0,-4.471,-4.05119,15.7756,Q,Q
2023-03-14 21:49:22:708,0,-4.46885,-4.06368,15.7539,Q,Q
2023-03-14 21:49:22:718,0,-4.45997,-4.07055,15.7365,Q,Q
2023-03-14 21:49:22:728,0,-4.44626,-4.07573,15.7205,Q,Q
2023-03-14 21:49:22:738,0,-4.42552,-4.07955,15.7067,Q,Q
2023-03-14 21:49:22:748,0,-4.40597,-4.08628,15.6935,Q,Q
2023-03-14 21:49:22:758,0,-4.38324,-4.09237,15.6801,Q,Q
2023-03-14 21:49:22:768,0,-4.35528,-4.09703,15.6699,Q,Q
2023-03-14 21:49:22:778,0,-4.33011,-4.10261,15.6577,Q,Q
2023-03-14 21:49:22:788,0,-4.30539,-4.10826,15.6487,Q,Q
2023-03-14 21:49:22:798,0,-4.28421,-4.11304,15.6426,Q,Q
2023-03-14 21:49:22:808,0,-4.26199,-4.11633,15.6357,Q,Q
2023-03-14 21:49:22:818,0,-4.23567,-4.12435,15.6273,Q,Q
2023-03-14 21:49:22:828,0,-4.21188,-4.13145,15.6231,Q,Q
2023-03-14 21:49:22:838,0,-4.19282,-4.1433,15.6185,Q,Q
2023-03-14 21:49:22:848,0,-4.17866,-4.15415,15.6149,Q,Q
2023-03-14 21:49:22:858,0,-4.16813,-4.1688,15.6112,Q,Q
2023-03-14 21:49:22:868,0,-4.15495,-4.18224,15.6048,Q,Q
2023-03-14 21:49:22:878,0,-4.14524,-4.19613,15.6006,Q,Q
2023-03-14 21:49:22:888,0,-4.1409,-4.20472,15.5975,Q,Q
2023-03-14 21:49:22:898,0,-4.13587,-4.21973,15.5969,Q,Q
2023-03-14 21:49:22:908,0,-4.1363,-4.22956,15.5988,Q,Q
2023-03-14 21:49:22:918,0,-4.13231,-4.24103,15.6023,Q,Q
2023-03-14 21:49:22:928,0,-4.12865,-4.25109,15.6057,Q,Q
2023-03-14 21:49:22:938,0,-4.12542,-4.26277,15.6058,Q,Q
2023-03-14 21:49:22:948,0,-4.12203,-4.27397,15.6069,Q,Q
2023-03-14 21:49:22:958,0,-4.12108,-4.28108,15.6108,Q,Q
2023-03-14 21:49:22:968,0,-4.12511,-4.2933,15.6126,Q,Q
2023-03-14 21:49:22:978,0,-4.12953,-4.30165,15.6155,Q,Q
2023-03-14 21:49:22:988,0,-4.13266,-4.30773,15.6167,Q,Q
2023-03-14 21:49:22:998,0,-4.14066,-4.3144,15.6123,Q,Q
2023-03-14 21:49:23:8,0,-4.15017,-4.32064,15.6085,Q,Q
2023-03-14 21:49:23:18,0,-4.16211,-4.32901,15.6059,Q,Q
2023-03-14 21:49:23:28,0,-4.16894,-4.34211,15.5983,Q,Q
2023-03-14 21:49:23:38,0,-4.17648,-4.35867,15.5914,Q,Q
2023-03-14 21:49:23:48,0,-4.18817,-4.3776,15.5797,Q,Q
2023-03-14 21:49:23:58,0,-4.19662,-4.39697,15.5686,Q,Q
2023-03-14 21:49:23:68,0,-4.20369,-4.40969,15.5553,Q,Q
2023-03-14 21:49:23:78,0,-4.19832,-4.41862,15.5455,Q,Q
2023-03-14 21:49:23:88,0,-4.18551,-4.43273,15.5366,Q,Q
2023-03-14 21:49:23:98,0,-4.17308,-4.44399,15.5338,Q,Q
2023-03-14 21:49:23:108,0,-4.16066,-4.45241,15.5354,Q,Q
2023-03-14 21:49:23:118,0,-4.15109,-4.4573,15.5349,Q,Q
2023-03-14 21:49:23:128,0,-4.14049,-4.46349,15.5382,Q,Q
2023-03-14 21:49:23:138,0,-4.12829,-4.47343,15.5426,Q,Q
2023-03-14 21:49:23:148,0,-4.11872,-4.4844,15.5465,Q,Q
2023-03-14 21:49:23:158,0,-4.10732,-4.49166,15.549,Q,Q
2023-03-14 21:49:23:168,0,-4.08821,-4.49687,15.5528,Q,Q
2023-03-14 21:49:23:178,0,-4.06476,-4.50712,15.5556,Q,Q
2023-03-14 21:49:23:188,0,-4.04198,-4.51527,15.5626,Q,Q
2023-03-14 21:49:23:198,0,-4.0253,-4.52401,15.5682,Q,Q
2023-03-14 21:49:23:208,0,-4.0139,-4.53312,15.5773,Q,Q
2023-03-14 21:49:23:218,0,-4.00152,-4.54221,15.585,Q,Q
2023-03-14 21:49:23:228,0,-4.00013,-4.54606,15.5953,Q,Q
2023-03-14 21:49:23:238,0,-4.00366,-4.55322,15.6058,Q,Q
2023-03-14 21:49:23:248,0,-4.01131,-4.55773,15.6149,Q,Q
2023-03-14 21:49:23:258,0,-4.02141,-4.56442,15.6227,Q,Q
2023-03-14 21:49:23:268,0,-4.03616,-4.56383,15.6338,Q,Q
2023-03-14 21:49:23:278,0,-4.05752,-4.56134,15.6452,Q,Q
2023-03-14 21:49:23:288,0,-4.08576,-4.55354,15.6567,Q,Q
2023-03-14 21:49:23:298,0,-4.11741,-4.54518,15.6708,Q,Q
2023-03-14 21:49:23:308,0,-4.14802,-4.53386,15.6819,Q,Q
2023-03-14 21:49:23:318,0,-4.17493,-4.52121,15.6954,Q,Q
2023-03-14 21:49:23:328,0,-4.19411,-4.51161,15.7074,Q,Q
2023-03-14 21:49:23:338,0,-4.21028,-4.4984,15.7188,Q,Q
2023-03-14 21:49:23:348,0,-4.22617,-4.48686,15.7296,Q,Q
2023-03-14 21:49:23:358,0,-4.24141,-4.47592,15.738,Q,Q
2023-03-14 21:49:23:368,0,-4.25655,-4.46462,15.7455,Q,Q
2023-03-14 21:49:23:378,0,-4.26588,-4.45437,15.7504,Q,Q
2023-03-14 21:49:23:388,0,-4.27367,-4.44381,15.7555,Q,Q
2023-03-14 21:49:23:398,0,-4.27845,-4.43602,15.7559,Q,Q
2023-03-14 21:49:23:408,0,-4.27789,-4.42493,15.7568,Q,Q
2023-03-14 21:49:23:418,0,-4.27682,-4.41611,15.7576,Q,Q
2023-03-14 21:49:23:428,0,-4.27497,-4.40925,15.7563,Q,Q
2023-03-14 21:49:23:438,0,-4.27226,-4.40145,15.7566,Q,Q
2023-03-14 21:49:23:448,0,-4.26662,-4.39496,15.7549,Q,Q
2023-03-14 21:49:23:458,0,-4.26143,-4.38777,15.7518,Q,Q
2023-03-14 21:49:23:468,0,-4.25465,-4.38063,15.747,Q,Q
2023-03-14 21:49:23:478,0,-4.25026,-4.37484,15.7402,Q,Q
2023-03-14 21:49:23:488,0,-4.24673,-4.37324,15.7333,Q,Q
2023-03-14 21:49:23:498,0,-4.24282,-4.37175,15.7251,Q,Q
2023-03-14 21:49:23:508,0,-4.23789,-4.36845,15.7182,Q,Q
2023-03-14 21:49:23:518,0,-4.23024,-4.36729,15.7109,Q,Q
2023-03-14 21:49:23:528,0,-4.22593,-4.36636,15.7038,Q,Q
2023-03-14 21:49:23:538,0,-4.22894,-4.36836,15.6974,Q,Q
2023-03-14 21:49:23:548,0,-4.23811,-4.36623,15.7008,Q,Q
2023-03-14 21:49:23:558,0,-4.25161,-4.37039,15.7047,Q,Q
2023-03-14 21:49:23:568,0,-4.26717,-4.37216,15.7086,Q,Q
2023-03-14 21:49:23:578,0,-4.2841,-4.37113,15.7122,Q,Q
2023-03-14 21:49:23:588,0,-4.30208,-4.36483,15.7148,Q,Q
2023-03-14 21:49:23:598,0,-4.32067,-4.35395,15.7149,Q,Q
2023-03-14 21:49:23:608,0,-4.33642,-4.34403,15.7095,Q,Q
2023-03-14 21:49:23:618,0,-4.35636,-4.33008,15.6986,Q,Q
2023-03-14 21:49:23:628,0,-4.38135,-4.31036,15.6891,Q,Q
2023-03-14 21:49:23:638,0,-4.4093,-4.29366,15.6805,Q,Q
2023-03-14 21:49:23:648,0,-4.43883,-4.28186,15.6736,Q,Q
2023-03-14 21:49:23:658,0,-4.4639,-4.27934,15.6666,Q,Q
2023-03-14 21:49:23:668,0,-4.48456,-4.27695,15.6614,Q,Q
2023-03-14 21:49:23:678,0,-4.50424,-4.27623,15.659,Q,Q
2023-03-14 21:49:23:688,0,-4.5194,-4.27458,15.6547,Q,Q
2023-03-14 21:49:23:698,0,-4.53791,-4.27874,15.6515,Q,Q
2023-03-14 21:49:23:708,0,-4.56034,-4.28521,15.6529,Q,Q
2023-03-14 21:49:23:718,0,-4.58662,-4.29417,15.6606,Q,Q
2023-03-14 21:49:23:728,0,-4.61062,-4.30125,15.6728,Q,Q
2023-03-14 21:49:23:738,0,-4.63234,-4.30606,15.6915,Q,Q
2023-03-14 21:49:23:748,0,-4.65158,-4.31633,15.7147,Q,Q
2023-03-14 21:49:23:758,0,-4.6744,-4.32494,15.7457,Q,Q
2023-03-14 21:49:23:768,0,-4.70005,-4.33507,15.7759,Q,Q
2023-03-14 21:49:23:778,0,-4.7247,-4.34879,15.8068,Q,Q
2023-03-14 21:49:23:788,0,-4.74651,-4.36344,15.8356,Q,Q
2023-03-14 21:49:23:798,0,-4.76341,-4.37891,15.8632,Q,Q
2023-03-14 21:49:23:808,0,-4.77244,-4.38857,15.8857,Q,Q
2023-03-14 21:49:23:818,0,-4.77092,-4.38888,15.9026,Q,Q
2023-03-14 21:49:23:828,0,-4.7664,-4.3852,15.9132,Q,Q
2023-03-14 21:49:23:838,0,-4.76339,-4.38451,15.9216,Q,Q
2023-03-14 21:49:23:848,0,-4.76344,-4.38617,15.9329,Q,Q
2023-03-14 21:49:23:858,0,-4.76271,-4.39163,15.9444,Q,Q
2023-03-14 21:49:23:868,0,-4.76784,-4.39883,15.9512,Q,Q
2023-03-14 21:49:23:878,0,-4.76968,-4.40339,15.9526,Q,Q
2023-03-14 21:49:23:888,0,-4.77322,-4.39988,15.9469,Q,Q
2023-03-14 21:49:23:898,0,-4.77092,-4.39531,15.9375,Q,Q
2023-03-14 21:49:23:908,0,-4.76261,-4.39958,15.9244,Q,Q
2023-03-14 21:49:23:918,0,-4.75902,-4.40727,15.9141,Q,Q
2023-03-14 21:49:23:928,0,-4.75494,-4.41739,15.9076,Q,Q
2023-03-14 21:49:23:938,0,-4.75521,-4.42589,15.8981,Q,Q
2023-03-14 21:49:23:948,0,-4.7516,-4.43459,15.8883,Q,Q
2023-03-14 21:49:23:958,0,-4.75035,-4.43872,15.8803,Q,Q
2023-03-14 21:49:23:968,0,-4.75436,-4.44697,15.8702,Q,Q
2023-03-14 21:49:23:978,0,-4.75574,-4.4536,15.8543,Q,Q
2023-03-14 21:49:23:988,0,-4.75975,-4.45472,15.8396,Q,Q
2023-03-14 21:49:23:998,0,-4.76372,-4.45051,15.8281,Q,Q
2023-03-14 21:49:24:8,0,-4.76591,-4.44721,15.8248,Q,Q
2023-03-14 21:49:24:18,0,-4.76392,-4.43843,15.8217,Q,Q
2023-03-14 21:49:24:28,0,-4.76381,-4.43256,15.8207,Q,Q
2023-03-14 21:49:24:38,0,-4.77176,-4.42535,15.828,Q,Q
2023-03-14 21:49:24:48,0,-4.78102,-4.42427,15.8367,Q,Q
2023-03-14 21:49:24:58,0,-4.7919,-4.43045,15.8529,Q,Q
2023-03-14 21:49:24:68,0,-4.79803,-4.43627,15.8618,Q,Q
2023-03-14 21:49:24:78,0,-4.7927,-4.442,15.8631,Q,Q
2023-03-14 21:49:24:88,0,-4.77945,-4.45359,15.8671,Q,Q
2023-03-14 21:49:24:98,0,-4.75066,-4.47107,15.8802,Q,Q
2023-03-14 21:49:24:108,0,-4.72013,-4.48858,15.9055,Q,Q
2023-03-14 21:49:24:118,0,-4.68832,-4.50749,15.9304,Q,Q
2023-03-14 21:49:24:128,0,-4.66427,-4.53264,15.9453,Q,Q
2023-03-14 21:49:24:138,0,-4.64119,-4.56347,15.9434,Q,Q
2023-03-14 21:49:24:148,0,-4.61209,-4.60102,15.9285,Q,Q
2023-03-14 21:49:24:158,0,-4.56591,-4.64421,15.9021,Q,Q
2023-03-14 21:49:24:168,0,-4.50976,-4.68725,15.8722,Q,Q
2023-03-14 21:49:24:178,0,-4.44292,-4.72501,15.8373,Q,Q
2023-03-14 21:49:24:188,0,-4.37346,-4.75695,15.8001,Q,Q
2023-03-14 21:49:24:198,0,-4.30594,-4.78077,15.7554,Q,Q
2023-03-14 21:49:24:208,0,-4.24655,-4.79267,15.7048,Q,Q
2023-03-14 21:49:24:218,0,-4.20333,-4.79784,15.6518,Q,Q
2023-03-14 21:49:24:228,0,-4.17251,-4.79806,15.6013,Q,Q
2023-03-14 21:49:24:238,0,-4.14806,-4.80232,15.5528,Q,Q
2023-03-14 21:49:24:248,0,-4.13576,-4.80017,15.5054,Q,Q
2023-03-14 21:49:24:258,0,-4.13146,-4.78591,15.4494,Q,Q
2023-03-14 21:49:24:268,0,-4.12762,-4.76414,15.3875,Q,Q
2023-03-14 21:49:24:278,0,-4.12963,-4.73223,15.3208,Q,Q
2023-03-14 21:49:24:288,0,-4.13817,-4.69734,15.2547,Q,Q
2023-03-14 21:49:24:298,0,-4.1557,-4.66073,15.1907,Q,Q
2023-03-14 21:49:24:308,0,-4.17774,-4.62163,15.1271,Q,Q
2023-03-14 21:49:24:318,0,-4.20355,-4.58507,15.0604,Q,Q
2023-03-14 21:49:24:328,0,-4.23733,-4.54816,14.9991,Q,Q
2023-03-14 21:49:24:338,0,-4.28053,-4.51981,14.9473,Q,Q
2023-03-14 21:49:24:348,0,-4.33059,-4.48981,14.911,Q,Q
2023-03-14 21:49:24:358,0,-4.37912,-4.46289,14.8848,Q,Q
2023-03-14 21:49:24:368,0,-4.42763,-4.44147,14.8682,Q,Q
2023-03-14 21:49:24:378,0,-4.47525,-4.42246,14.8634,Q,Q
2023-03-14 21:49:24:388,0,-4.51928,-4.40188,14.8595,Q,Q
2023-03-14 21:49:24:398,0,-4.54818,-4.39118,14.8587,Q,Q
2023-03-14 21:49:24:408,0,-4.56778,-4.38526,14.865,Q,Q
2023-03-14 21:49:24:418,0,-4.57528,-4.3876,14.8721,Q,Q
2023-03-14 21:49:24:428,0,-4.57755,-4.39212,14.8786,Q,Q
2023-03-14 21:49:24:438,0,-4.57475,-4.40187,14.8889,Q,Q
2023-03-14 21:49:24:448,0,-4.56565,-4.41156,14.8991,Q,Q
2023-03-14 21:49:24:458,0,-4.55297,-4.41689,14.9089,Q,Q
2023-03-14 21:49:24:468,0,-4.54165,-4.41265,14.9213,Q,Q
2023-03-14 21:49:24:478,0,-4.53096,-4.3958,14.938,Q,Q
2023-03-14 21:49:24:488,0,-4.52074,-4.35989,14.9526,Q,Q
2023-03-14 21:49:24:498,0,-4.5061,-4.31324,14.9659,Q,Q
2023-03-14 21:49:24:508,0,-4.48783,-4.2602,14.9748,Q,Q
2023-03-14 21:49:24:518,0,-4.45725,-4.19806,14.9811,Q,Q
2023-03-14 21:49:24:528,0,-4.42217,-4.13431,14.9818,Q,Q
2023-03-14 21:49:24:538,0,-4.38749,-4.06082,14.9733,Q,Q
2023-03-14 21:49:24:548,0,-4.35294,-3.98926,14.9553,Q,Q
2023-03-14 21:49:24:558,0,-4.32794,-3.91737,14.9325,Q,Q
2023-03-14 21:49:24:568,0,-4.31453,-3.85492,14.8974,Q,Q
2023-03-14 21:49:24:578,0,-4.31448,-3.79917,14.8525,Q,Q
2023-03-14 21:49:24:588,0,-4.32858,-3.75043,14.7959,Q,Q
2023-03-14 21:49:24:598,0,-4.34807,-3.70423,14.7363,Q,Q
2023-03-14 21:49:24:608,0,-4.37483,-3.66268,14.6663,Q,Q
2023-03-14 21:49:24:618,0,-4.41081,-3.6265,14.5936,Q,Q
2023-03-14 21:49:24:628,0,-4.45279,-3.59602,14.5182,Q,Q
2023-03-14 21:49:24:638,0,-4.5057,-3.56729,14.4423,Q,Q
2023-03-14 21:49:24:648,0,-4.55373,-3.54716,14.3687,Q,Q
2023-03-14 21:49:24:658,0,-4.59818,-3.53617,14.3032,Q,Q
2023-03-14 21:49:24:668,0,-4.63051,-3.53274,14.2424,Q,Q
2023-03-14 21:49:24:678,0,-4.65385,-3.52869,14.1843,Q,Q
2023-03-14 21:49:24:688,0,-4.67355,-3.52807,14.1304,Q,Q
2023-03-14 21:49:24:698,0,-4.6881,-3.52815,14.0877,Q,Q
2023-03-14 21:49:24:708,0,-4.69927,-3.53612,14.0468,Q,Q
2023-03-14 21:49:24:718,0,-4.70605,-3.5499,14.0155,Q,Q
2023-03-14 21:49:24:728,0,-4.70212,-3.55424,13.9877,Q,Q
2023-03-14 21:49:24:738,0,-4.69025,-3.55267,13.9704,Q,Q
2023-03-14 21:49:24:748,0,-4.66914,-3.54613,13.9528,Q,Q
2023-03-14 21:49:24:758,0,-4.64351,-3.53834,13.9342,Q,Q
2023-03-14 21:49:24:768,0,-4.61518,-3.53254,13.9169,Q,Q
2023-03-14 21:49:24:778,0,-4.59654,-3.531,13.9011,Q,Q
2023-03-14 21:49:24:788,0,-4.58399,-3.53328,13.8835,Q,Q
2023-03-14 21:49:24:798,0,-4.57223,-3.53866,13.8633,Q,Q
2023-03-14 21:49:24:808,0,-4.56397,-3.55003,13.8416,Q,Q
2023-03-14 21:49:24:818,0,-4.55793,-3.56241,13.8103,Q,Q
2023-03-14 21:49:24:828,0,-4.55282,-3.57655,13.7736,Q,Q
2023-03-14 21:49:24:838,0,-4.54892,-3.58902,13.7243,Q,Q
2023-03-14 21:49:24:848,0,-4.55121,-3.5998,13.6648,Q,Q
2023-03-14 21:49:24:858,0,-4.55344,-3.60838,13.5942,Q,Q
2023-03-14 21:49:24:868,0,-4.55034,-3.62108,13.5171,Q,Q
2023-03-14 21:49:24:878,0,-4.54357,-3.63685,13.434,Q,Q
2023-03-14 21:49:24:888,0,-4.53583,-3.65338,13.349,Q,Q
2023-03-14 21:49:24:898,0,-4.51992,-3.67277,13.2616,Q,Q
2023-03-14 21:49:24:908,0,-4.49395,-3.69513,13.1749,Q,Q
2023-03-14 21:49:24:918,0,-4.45049,-3.7208,13.0979,Q,Q
2023-03-14 21:49:24:928,0,-4.40107,-3.74736,13.028,Q,Q
2023-03-14 21:49:24:938,0,-4.34704,-3.77223,12.9656,Q,Q
2023-03-14 21:49:24:948,0,-4.29633,-3.79388,12.9162,Q,Q
2023-03-14 21:49:24:958,0,-4.25332,-3.8135,12.8742,Q,Q
2023-03-14 21:49:24:968,0,-4.21767,-3.83887,12.8424,Q,Q
2023-03-14 21:49:24:978,0,-4.18798,-3.86672,12.8227,Q,Q
2023-03-14 21:49:24:988,0,-4.16558,-3.90031,12.811,Q,Q
2023-03-14 21:49:24:998,0,-4.14052,-3.93446,12.803,Q,Q
2023-03-14 21:49:25:8,0,-4.1122,-3.97009,12.802,Q,Q
2023-03-14 21:49:25:18,0,-4.08472,-4.0002,12.8037,Q,Q
2023-03-14 21:49:25:28,0,-4.06668,-4.0276,12.7944,Q,Q
2023-03-14 21:49:25:38,0,-4.04956,-4.0478,12.7817,Q,Q
2023-03-14 21:49:25:48,0,-4.02837,-4.06842,12.769,Q,Q
2023-03-14 21:49:25:58,0,-4.00347,-4.09454,12.762,Q,Q
2023-03-14 21:49:25:68,0,-3.97233,-4.12435,12.7648,Q,Q
2023-03-14 21:49:25:78,0,-3.93145,-4.16475,12.7826,Q,Q
2023-03-14 21:49:25:88,0,-3.8849,-4.21066,12.8157,Q,Q
2023-03-14 21:49:25:98,0,-3.84077,-4.25645,12.874,Q,Q
2023-03-14 21:49:25:108,0,-3.80426,-4.3068,12.9451,Q,Q
2023-03-14 21:49:25:118,0,-3.78078,-4.34851,13.0205,Q,Q
2023-03-14 21:49:25:128,0,-3.76808,-4.38775,13.0956,Q,Q
2023-03-14 21:49:25:138,0,-3.76705,-4.41971,13.1609,Q,Q
2023-03-14 21:49:25:148,0,-3.7703,-4.44403,13.2134,Q,Q
2023-03-14 21:49:25:158,0,-3.77508,-4.46482,13.2525,Q,Q
2023-03-14 21:49:25:168,0,-3.78097,-4.4866,13.2868,Q,Q
2023-03-14 21:49:25:178,0,-3.78962,-4.50921,13.3162,Q,Q
2023-03-14 21:49:25:188,0,-3.80709,-4.53409,13.3334,Q,Q
2023-03-14 21:49:25:198,0,-3.83394,-4.5583,13.3486,Q,Q
2023-03-14 21:49:25:208,0,-3.86016,-4.58147,13.3546,Q,Q
2023-03-14 21:49:25:218,0,-3.88074,-4.59668,13.3485,Q,Q
2023-03-14 21:49:25:228,0,-3.89487,-4.60769,13.3403,Q,Q
2023-03-14 21:49:25:238,0,-3.90349,-4.6211,13.3228,Q,Q
2023-03-14 21:49:25:248,0,-3.90325,-4.63011,13.2975,Q,Q
2023-03-14 21:49:25:258,0,-3.90407,-4.62867,13.2657,Q,Q
2023-03-14 21:49:25:268,0,-3.89787,-4.61557,13.2228,Q,Q
2023-03-14 21:49:25:278,0,-3.89079,-4.5955,13.1766,Q,Q
2023-03-14 21:49:25:288,0,-3.89642,-4.56816,13.141,Q,Q
2023-03-14 21:49:25:298,0,-3.91281,-4.53205,13.1074,Q,Q
2023-03-14 21:49:25:308,0,-3.94672,-4.49121,13.0835,Q,Q
2023-03-14 21:49:25:318,0,-3.98155,-4.44163,13.0634,Q,Q
2023-03-14 21:49:25:328,0,-4.00996,-4.38589,13.0551,Q,Q
2023-03-14 21:49:25:338,0,-4.0484,-4.34158,13.0661,Q,Q
2023-03-14 21:49:25:348,0,-4.07266,-4.34275,13.1025,Q,Q
2023-03-14 21:49:25:358,0,-4.07471,-4.39057,13.1671,Q,Q
2023-03-14 21:49:25:368,0,-4.05703,-4.45686,13.2406,Q,Q
2023-03-14 21:49:25:378,0,-4.01156,-4.49813,13.3001,Q,Q
2023-03-14 21:49:25:388,0,-3.96181,-4.5108,13.3383,Q,Q
2023-03-14 21:49:25:398,0,-3.91133,-4.49207,13.3541,Q,Q
2023-03-14 21:49:25:408,0,-3.85946,-4.46161,13.3579,Q,Q
2023-03-14 21:49:25:418,0,-3.80303,-4.42531,13.3557,Q,Q
2023-03-14 21:49:25:428,0,-3.74024,-4.38518,13.3447,Q,Q
2023-03-14 21:49:25:438,0,-3.69918,-4.33169,13.3239,Q,Q
2023-03-14 21:49:25:448,0,-3.68545,-4.26911,13.2852,Q,Q
2023-03-14 21:49:25:458,0,-3.70766,-4.20725,13.2467,Q,Q
2023-03-14 21:49:25:468,0,-3.74471,-4.17159,13.2256,Q,Q
2023-03-14 21:49:25:478,0,-3.7836,-4.17451,13.2312,Q,Q
2023-03-14 21:49:25:489,0,-3.81633,-4.20549,13.2523,Q,Q
2023-03-14 21:49:25:498,0,-3.8511,-4.24192,13.2786,Q,Q
2023-03-14 21:49:25:508,0,-3.88565,-4.25499,13.2939,Q,Q
2023-03-14 21:49:25:518,0,-3.90749,-4.2484,13.2999,Q,Q
2023-03-14 21:49:25:528,0,-3.92142,-4.23878,13.3127,Q,Q
2023-03-14 21:49:25:538,0,-3.93527,-4.24479,13.3394,Q,Q
2023-03-14 21:49:25:548,0,-3.95234,-4.27813,13.3827,Q,Q
2023-03-14 21:49:25:558,0,-3.9756,-4.33645,13.4456,Q,Q
2023-03-14 21:49:25:568,0,-4.00374,-4.4201,13.5096,Q,Q
2023-03-14 21:49:25:578,0,-4.04882,-4.51671,13.5691,Q,Q
2023-03-14 21:49:25:588,0,-4.10078,-4.60517,13.6215,Q,Q
2023-03-14 21:49:25:598,0,-4.15864,-4.67039,13.6575,Q,Q
2023-03-14 21:49:25:608,0,-4.20742,-4.70744,13.6862,Q,Q
2023-03-14 21:49:25:618,0,-4.24283,-4.71474,13.7008,Q,Q
2023-03-14 21:49:25:628,0,-4.26201,-4.69555,13.7,Q,Q
2023-03-14 21:49:25:638,0,-4.26641,-4.65104,13.6817,Q,Q
2023-03-14 21:49:25:648,0,-4.25847,-4.59732,13.6519,Q,Q
2023-03-14 21:49:25:658,0,-4.25207,-4.5457,13.6186,Q,Q
2023-03-14 21:49:25:668,0,-4.25122,-4.50708,13.5935,Q,Q
2023-03-14 21:49:25:678,0,-4.26279,-4.47997,13.5826,Q,Q
2023-03-14 21:49:25:688,0,-4.28988,-4.4597,13.5749,Q,Q
2023-03-14 21:49:25:698,0,-4.3212,-4.43943,13.562,Q,Q
2023-03-14 21:49:25:708,0,-4.34455,-4.41141,13.5418,Q,Q
2023-03-14 21:49:25:718,0,-4.35266,-4.37808,13.5124,Q,Q
2023-03-14 21:49:25:728,0,-4.34394,-4.34346,13.4816,Q,Q
2023-03-14 21:49:25:738,0,-4.32634,-4.30886,13.4466,Q,Q
2023-03-14 21:49:25:748,0,-4.30637,-4.28252,13.4116,Q,Q
2023-03-14 21:49:25:758,0,-4.28817,-4.26135,13.3818,Q,Q
2023-03-14 21:49:25:768,0,-4.27194,-4.25273,13.3566,Q,Q
2023-03-14 21:49:25:778,0,-4.26635,-4.25228,13.3391,Q,Q
2023-03-14 21:49:25:788,0,-4.25821,-4.25644,13.3227,Q,Q
2023-03-14 21:49:25:798,0,-4.24785,-4.2647,13.3003,Q,Q
2023-03-14 21:49:25:808,0,-4.24108,-4.27211,13.2822,Q,Q
2023-03-14 21:49:25:818,0,-4.23472,-4.27881,13.2701,Q,Q
2023-03-14 21:49:25:828,0,-4.23508,-4.28414,13.2576,Q,Q
2023-03-14 21:49:25:838,0,-4.23924,-4.28495,13.2414,Q,Q
2023-03-14 21:49:25:848,0,-4.24061,-4.27578,13.2209,Q,Q
2023-03-14 21:49:25:858,0,-4.24668,-4.25584,13.2044,Q,Q
2023-03-14 21:49:25:868,0,-4.24821,-4.23663,13.1853,Q,Q
2023-03-14 21:49:25:878,0,-4.2417,-4.21522,13.1593,Q,Q
2023-03-14 21:49:25:888,0,-4.2212,-4.20633,13.1439,Q,Q
2023-03-14 21:49:25:898,0,-4.20086,-4.21176,13.144,Q,Q
2023-03-14 21:49:25:908,0,-4.20685,-4.23318,13.1567,Q,Q
2023-03-14 21:49:25:918,0,-4.233,-4.26099,13.1715,Q,Q
2023-03-14 21:49:25:928,0,-4.27435,-4.28228,13.171,Q,Q
2023-03-14 21:49:25:938,0,-4.31571,-4.29215,13.1525,Q,Q
2023-03-14 21:49:25:948,0,-4.3452,-4.29073,13.1178,Q,Q
2023-03-14 21:49:25:958,0,-4.36075,-4.28812,13.0726,Q,Q
2023-03-14 21:49:25:968,0,-4.36055,-4.29066,13.0242,Q,Q
2023-03-14 21:49:25:978,0,-4.3506,-4.30798,12.9879,Q,Q
2023-03-14 21:49:25:988,0,-4.33863,-4.3283,12.9553,Q,Q
2023-03-14 21:49:25:998,0,-4.3234,-4.35267,12.9214,Q,Q
2023-03-14 21:49:26:8,0,-4.30235,-4.36643,12.8846,Q,Q
2023-03-14 21:49:26:18,0,-4.28709,-4.38078,12.8622,Q,Q
2023-03-14 21:49:26:28,0,-4.28571,-4.40254,12.8501,Q,Q
2023-03-14 21:49:26:38,0,-4.2929,-4.4238,12.8434,Q,Q
2023-03-14 21:49:26:48,0,-4.30233,-4.44398,12.83,Q,Q
2023-03-14 21:49:26:58,0,-4.30705,-4.45743,12.8141,Q,Q
2023-03-14 21:49:26:68,0,-4.30532,-4.47087,12.7971,Q,Q
2023-03-14 21:49:26:78,0,-4.30529,-4.48598,12.778,Q,Q
2023-03-14 21:49:26:88,0,-4.30165,-4.49475,12.751,Q,Q
2023-03-14 21:49:26:98,0,-4.2963,-4.4986,12.7244,Q,Q
2023-03-14 21:49:26:108,0,-4.28731,-4.50558,12.7021,Q,Q
2023-03-14 21:49:26:118,0,-4.28597,-4.51382,12.692,Q,Q
2023-03-14 21:49:26:128,0,-4.27598,-4.51819,12.679,Q,Q
2023-03-14 21:49:26:138,0,-4.25372,-4.52392,12.6658,Q,Q
2023-03-14 21:49:26:148,0,-4.22487,-4.5329,12.6671,Q,Q
2023-03-14 21:49:26:158,0,-4.19872,-4.54455,12.6823,Q,Q
2023-03-14 21:49:26:168,0,-4.18442,-4.56352,12.706,Q,Q
2023-03-14 21:49:26:178,0,-4.18023,-4.5789,12.7335,Q,Q
2023-03-14 21:49:26:188,0,-4.18932,-4.59017,12.7585,Q,Q
2023-03-14 21:49:26:198,0,-4.20676,-4.59386,12.7762,Q,Q
2023-03-14 21:49:26:208,0,-4.222,-4.58744,12.785,Q,Q
2023-03-14 21:49:26:218,0,-4.23396,-4.57871,12.7874,Q,Q
2023-03-14 21:49:26:228,0,-4.23791,-4.57659,12.7814,Q,Q
2023-03-14 21:49:26:238,0,-4.22692,-4.57967,12.7757,Q,Q
2023-03-14 21:49:26:248,0,-4.19932,-4.58298,12.7664,Q,Q
2023-03-14 21:49:26:258,0,-4.15529,-4.58878,12.7545,Q,Q
2023-03-14 21:49:26:268,0,-4.10935,-4.59702,12.7509,Q,Q
2023-03-14 21:49:26:278,0,-4.06846,-4.6046,12.7491,Q,Q
2023-03-14 21:49:26:288,0,-4.03174,-4.60788,12.7512,Q,Q
2023-03-14 21:49:26:298,0,-3.99383,-4.61019,12.7465,Q,Q
2023-03-14 21:49:26:308,0,-3.95142,-4.61576,12.7336,Q,Q
2023-03-14 21:49:26:318,0,-3.91898,-4.62241,12.7113,Q,Q
2023-03-14 21:49:26:328,0,-3.90605,-4.63186,12.6793,Q,Q
2023-03-14 21:49:26:338,0,-3.90493,-4.63896,12.6404,Q,Q
2023-03-14 21:49:26:348,0,-3.90856,-4.64683,12.599,Q,Q
2023-03-14 21:49:26:358,0,-3.90586,-4.66022,12.5641,Q,Q
2023-03-14 21:49:26:368,0,-3.88187,-4.68345,12.5413,Q,Q
2023-03-14 21:49:26:378,0,-3.83935,-4.70704,12.5291,Q,Q
2023-03-14 21:49:26:388,0,-3.77924,-4.71959,12.5246,Q,Q
2023-03-14 21:49:26:398,0,-3.72045,-4.71818,12.5246,Q,Q
2023-03-14 21:49:26:408,0,-3.67737,-4.70275,12.5229,Q,Q
2023-03-14 21:49:26:418,0,-3.65191,-4.67978,12.5156,Q,Q
2023-03-14 21:49:26:428,0,-3.64289,-4.65519,12.5064,Q,Q
2023-03-14 21:49:26:438,0,-3.64675,-4.64363,12.4948,Q,Q
2023-03-14 21:49:26:448,0,-3.65139,-4.6417,12.4813,Q,Q
2023-03-14 21:49:26:458,0,-3.64614,-4.63961,12.4656,Q,Q
2023-03-14 21:49:26:468,0,-3.63209,-4.63076,12.4483,Q,Q
2023-03-14 21:49:26:478,0,-3.61039,-4.61618,12.4238,Q,Q
2023-03-14 21:49:26:488,0,-3.5938,-4.58949,12.3968,Q,Q
2023-03-14 21:49:26:498,0,-3.57855,-4.5537,12.3683,Q,Q
2023-03-14 21:49:26:508,0,-3.56577,-4.51681,12.3376,Q,Q
2023-03-14 21:49:26:518,0,-3.56008,-4.48372,12.3033,Q,Q
2023-03-14 21:49:26:528,0,-3.56187,-4.4472,12.2616,Q,Q
2023-03-14 21:49:26:538,0,-3.56996,-4.41137,12.2139,Q,Q
2023-03-14 21:49:26:548,0,-3.58431,-4.3782,12.1636,Q,Q
2023-03-14 21:49:26:558,0,-3.59358,-4.35936,12.1216,Q,Q
2023-03-14 21:49:26:568,0,-3.59178,-4.35691,12.092,Q,Q
2023-03-14 21:49:26:578,0,-3.58209,-4.36416,12.0803,Q,Q
2023-03-14 21:49:26:588,0,-3.56115,-4.37482,12.0821,Q,Q
2023-03-14 21:49:26:598,0,-3.52086,-4.38872,12.0971,Q,Q
2023-03-14 21:49:26:608,0,-3.47234,-4.40362,12.1302,Q,Q
2023-03-14 21:49:26:618,0,-3.42291,-4.42243,12.1744,Q,Q
2023-03-14 21:49:26:628,0,-3.36606,-4.44603,12.2295,Q,Q
2023-03-14 21:49:26:638,0,-3.31401,-4.47851,12.2982,Q,Q
2023-03-14 21:49:26:648,0,-3.2719,-4.52578,12.379,Q,Q
2023-03-14 21:49:26:658,0,-3.25279,-4.59076,12.4729,Q,Q
2023-03-14 21:49:26:668,0,-3.25297,-4.66376,12.5693,Q,Q
2023-03-14 21:49:26:678,0,-3.26698,-4.72562,12.6547,Q,Q
2023-03-14 21:49:26:688,0,-3.28566,-4.77509,12.7217,Q,Q
2023-03-14 21:49:26:698,0,-3.30587,-4.8126,12.7768,Q,Q
2023-03-14 21:49:26:708,0,-3.33532,-4.84713,12.8244,Q,Q
2023-03-14 21:49:26:718,0,-3.36639,-4.8878,12.8611,Q,Q
2023-03-14 21:49:26:728,0,-3.39894,-4.92698,12.8965,Q,Q
2023-03-14 21:49:26:738,0,-3.42052,-4.96176,12.9293,Q,Q
2023-03-14 21:49:26:748,0,-3.42986,-4.99374,12.9634,Q,Q
2023-03-14 21:49:26:758,0,-3.4256,-5.03014,12.9948,Q,Q
2023-03-14 21:49:26:768,0,-3.42869,-5.05187,13.0263,Q,Q
2023-03-14 21:49:26:778,0,-3.44266,-5.06507,13.0506,Q,Q
2023-03-14 21:49:26:788,0,-3.46444,-5.0651,13.0591,Q,Q
2023-03-14 21:49:26:798,0,-3.49085,-5.05562,13.0524,Q,Q
2023-03-14 21:49:26:808,0,-3.51856,-5.04965,13.0398,Q,Q
2023-03-14 21:49:26:818,0,-3.53983,-5.04616,13.0256,Q,Q
2023-03-14 21:49:26:828,0,-3.55372,-5.05162,13.0259,Q,Q
2023-03-14 21:49:26:838,0,-3.5645,-5.05779,13.0344,Q,Q
2023-03-14 21:49:26:848,0,-3.57723,-5.05728,13.0523,Q,Q
2023-03-14 21:49:26:858,0,-3.59648,-5.06235,13.0759,Q,Q
2023-03-14 21:49:26:868,0,-3.62494,-5.06828,13.1005,Q,Q
2023-03-14 21:49:26:878,0,-3.65807,-5.07259,13.1318,Q,Q
2023-03-14 21:49:26:888,0,-3.69516,-5.06935,13.1686,Q,Q
2023-03-14 21:49:26:898,0,-3.72398,-5.0662,13.2087,Q,Q
2023-03-14 21:49:26:908,0,-3.74978,-5.07087,13.2608,Q,Q
2023-03-14 21:49:26:918,0,-3.77258,-5.0861,13.3213,Q,Q
2023-03-14 21:49:26:928,0,-3.7881,-5.10935,13.3852,Q,Q
2023-03-14 21:49:26:938,0,-3.8072,-5.14178,13.4492,Q,Q
2023-03-14 21:49:26:948,0,-3.82561,-5.17509,13.5074,Q,Q
2023-03-14 21:49:26:958,0,-3.84191,-5.20808,13.559,Q,Q
2023-03-14 21:49:26:968,0,-3.85957,-5.23881,13.6023,Q,Q
2023-03-14 21:49:26:978,0,-3.8681,-5.2708,13.638,Q,Q
2023-03-14 21:49:26:988,0,-3.87056,-5.30535,13.6645,Q,Q
2023-03-14 21:49:26:998,0,-3.87313,-5.34429,13.6806,Q,Q
2023-03-14 21:49:27:8,0,-3.87573,-5.38291,13.6904,Q,Q
2023-03-14 21:49:27:18,0,-3.88013,-5.42337,13.6885,Q,Q
2023-03-14 21:49:27:28,0,-3.88827,-5.4617,13.6663,Q,Q
2023-03-14 21:49:27:38,0,-3.89436,-5.49843,13.6332,Q,Q
2023-03-14 21:49:27:48,0,-3.90191,-5.52989,13.5903,Q,Q
2023-03-14 21:49:27:58,0,-3.91011,-5.56078,13.5406,Q,Q
2023-03-14 21:49:27:68,0,-3.92079,-5.58759,13.4822,Q,Q
2023-03-14 21:49:27:78,0,-3.93118,-5.60446,13.4199,Q,Q
2023-03-14 21:49:27:88,0,-3.94416,-5.61332,13.352,Q,Q
2023-03-14 21:49:27:98,0,-3.95847,-5.61408,13.2835,Q,Q
2023-03-14 21:49:27:108,0,-3.97186,-5.61029,13.2129,Q,Q
2023-03-14 21:49:27:118,0,-3.98493,-5.60118,13.1388,Q,Q
2023-03-14 21:49:27:128,0,-3.99376,-5.58496,13.0667,Q,Q
2023-03-14 21:49:27:138,0,-3.99617,-5.56682,13.0012,Q,Q
2023-03-14 21:49:27:148,0,-3.98918,-5.54818,12.9476,Q,Q
2023-03-14 21:49:27:158,0,-3.9805,-5.52843,12.9033,Q,Q
2023-03-14 21:49:27:168,0,-3.96631,-5.507,12.8605,Q,Q
2023-03-14 21:49:27:178,0,-3.94582,-5.46853,12.8274,Q,Q
2023-03-14 21:49:27:188,0,-3.90525,-5.42288,12.7989,Q,Q
2023-03-14 21:49:27:198,0,-3.85921,-5.37484,12.7827,Q,Q
2023-03-14 21:49:27:208,0,-3.81461,-5.33016,12.7753,Q,Q
2023-03-14 21:49:27:218,0,-3.7797,-5.28965,12.7756,Q,Q
2023-03-14 21:49:27:228,0,-3.75172,-5.2488,12.7822,Q,Q
2023-03-14 21:49:27:238,0,-3.73209,-5.21068,12.7907,Q,Q
2023-03-14 21:49:27:248,0,-3.72015,-5.17492,12.8043,Q,Q
2023-03-14 21:49:27:258,0,-3.71608,-5.1458,12.8177,Q,Q
2023-03-14 21:49:27:268,0,-3.72019,-5.12202,12.8322,Q,Q
2023-03-14 21:49:27:278,0,-3.72723,-5.10135,12.8417,Q,Q
2023-03-14 21:49:27:288,0,-3.73178,-5.08549,12.8502,Q,Q
2023-03-14 21:49:27:298,0,-3.74147,-5.07745,12.849,Q,Q
2023-03-14 21:49:27:308,0,-3.75067,-5.06859,12.8392,Q,Q
2023-03-14 21:49:27:318,0,-3.75863,-5.05974,12.8239,Q,Q
2023-03-14 21:49:27:328,0,-3.76228,-5.05026,12.8046,Q,Q
2023-03-14 21:49:27:338,0,-3.76,-5.04537,12.7768,Q,Q
2023-03-14 21:49:27:348,0,-3.76173,-5.0516,12.7461,Q,Q
2023-03-14 21:49:27:358,0,-3.75837,-5.05681,12.7098,Q,Q
2023-03-14 21:49:27:368,0,-3.75225,-5.06161,12.6686,Q,Q
2023-03-14 21:49:27:378,0,-3.74235,-5.0699,12.6239,Q,Q
2023-03-14 21:49:27:388,0,-3.72597,-5.07516,12.5781,Q,Q
2023-03-14 21:49:27:398,0,-3.70896,-5.07772,12.5376,Q,Q
2023-03-14 21:49:27:408,0,-3.68989,-5.07594,12.4979,Q,Q
2023-03-14 21:49:27:418,0,-3.67559,-5.07495,12.4626,Q,Q
2023-03-14 21:49:27:428,0,-3.66355,-5.06917,12.4252,Q,Q
2023-03-14 21:49:27:438,0,-3.65704,-5.05918,12.3867,Q,Q
2023-03-14 21:49:27:448,0,-3.64742,-5.04554,12.3515,Q,Q
2023-03-14 21:49:27:458,0,-3.63378,-5.03048,12.316,Q,Q
2023-03-14 21:49:27:468,0,-3.60581,-5.01536,12.285,Q,Q
2023-03-14 21:49:27:478,0,-3.56917,-4.99988,12.257,Q,Q
2023-03-14 21:49:27:488,0,-3.51576,-4.98294,12.2404,Q,Q
2023-03-14 21:49:27:498,0,-3.45642,-4.96323,12.2342,Q,Q
2023-03-14 21:49:27:508,0,-3.39741,-4.94213,12.2362,Q,Q
2023-03-14 21:49:27:518,0,-3.34337,-4.91943,12.2434,Q,Q
2023-03-14 21:49:27:528,0,-3.29371,-4.89669,12.2582,Q,Q
2023-03-14 21:49:27:538,0,-3.25122,-4.87194,12.278,Q,Q
2023-03-14 21:49:27:548,0,-3.21159,-4.84415,12.2989,Q,Q
2023-03-14 21:49:27:558,0,-3.17962,-4.81606,12.3184,Q,Q
2023-03-14 21:49:27:568,0,-3.14995,-4.7831,12.3356,Q,Q
2023-03-14 21:49:27:578,0,-3.12504,-4.7473,12.3476,Q,Q
2023-03-14 21:49:27:588,0,-3.10465,-4.7047,12.3562,Q,Q
2023-03-14 21:49:27:598,0,-3.08832,-4.66282,12.362,Q,Q
2023-03-14 21:49:27:608,0,-3.06685,-4.62512,12.3644,Q,Q
2023-03-14 21:49:27:618,0,-3.04541,-4.59234,12.3634,Q,Q
2023-03-14 21:49:27:628,0,-3.029,-4.56784,12.3584,Q,Q
2023-03-14 21:49:27:638,0,-3.01173,-4.5459,12.3551,Q,Q
2023-03-14 21:49:27:648,0,-2.99675,-4.52688,12.3453,Q,Q
2023-03-14 21:49:27:658,0,-2.98735,-4.50819,12.3298,Q,Q
2023-03-14 21:49:27:668,0,-2.98612,-4.49552,12.3088,Q,Q
2023-03-14 21:49:27:678,0,-2.98613,-4.4801,12.2832,Q,Q
2023-03-14 21:49:27:688,0,-2.98676,-4.47002,12.2535,Q,Q
2023-03-14 21:49:27:698,0,-2.99018,-4.46042,12.2202,Q,Q
2023-03-14 21:49:27:708,0,-2.9951,-4.45428,12.1789,Q,Q
2023-03-14 21:49:27:718,0,-2.98776,-4.45158,12.1402,Q,Q
2023-03-14 21:49:27:728,0,-2.97906,-4.45291,12.1022,Q,Q
2023-03-14 21:49:27:738,0,-2.96403,-4.46057,12.066,Q,Q
2023-03-14 21:49:27:748,0,-2.95233,-4.46612,12.0318,Q,Q
2023-03-14 21:49:27:758,0,-2.93843,-4.46814,11.9996,Q,Q
2023-03-14 21:49:27:768,0,-2.91869,-4.46803,11.9648,Q,Q
2023-03-14 21:49:27:778,0,-2.89514,-4.4631,11.93,Q,Q
2023-03-14 21:49:27:788,0,-2.8746,-4.45712,11.8936,Q,Q
2023-03-14 21:49:27:798,0,-2.84972,-4.44531,11.8543,Q,Q
2023-03-14 21:49:27:808,0,-2.82038,-4.42708,11.8158,Q,Q
2023-03-14 21:49:27:818,0,-2.79303,-4.40417,11.776,Q,Q
2023-03-14 21:49:27:828,0,-2.76801,-4.38088,11.7378,Q,Q
2023-03-14 21:49:27:838,0,-2.75443,-4.36267,11.7047,Q,Q
2023-03-14 21:49:27:848,0,-2.75102,-4.3544,11.6738,Q,Q
2023-03-14 21:49:27:858,0,-2.75095,-4.35039,11.6482,Q,Q
2023-03-14 21:49:27:868,0,-2.75155,-4.35189,11.619,Q,Q
2023-03-14 21:49:27:878,0,-2.75023,-4.35398,11.5907,Q,Q
2023-03-14 21:49:27:888,0,-2.74817,-4.35873,11.5582,Q,Q
2023-03-14 21:49:27:898,0,-2.74667,-4.3652,11.5223,Q,Q
2023-03-14 21:49:27:908,0,-2.75084,-4.36771,11.4812,Q,Q
2023-03-14 21:49:27:918,0,-2.75878,-4.36835,11.4386,Q,Q
2023-03-14 21:49:27:928,0,-2.76685,-4.37406,11.3939,Q,Q
2023-03-14 21:49:27:938,0,-2.78245,-4.38762,11.356,Q,Q
2023-03-14 21:49:27:948,0,-2.80221,-4.39553,11.3197,Q,Q
2023-03-14 21:49:27:958,0,-2.82584,-4.40468,11.2834,Q,Q
2023-03-14 21:49:27:968,0,-2.85049,-4.41626,11.2514,Q,Q
2023-03-14 21:49:27:978,0,-2.87715,-4.43065,11.2165,Q,Q
2023-03-14 21:49:27:988,0,-2.90517,-4.44477,11.1842,Q,Q
2023-03-14 21:49:27:998,0,-2.93302,-4.45997,11.1538,Q,Q
2023-03-14 21:49:28:8,0,-2.9614,-4.47188,11.119,Q,Q
2023-03-14 21:49:28:18,0,-2.98061,-4.47373,11.0753,Q,Q
2023-03-14 21:49:28:28,0,-2.99121,-4.46627,11.0286,Q,Q
2023-03-14 21:49:28:38,0,-2.99142,-4.45658,10.9753,Q,Q
2023-03-14 21:49:28:48,0,-2.98754,-4.44654,10.9237,Q,Q
2023-03-14 21:49:28:58,0,-2.99459,-4.43659,10.8696,Q,Q
2023-03-14 21:49:28:68,0,-3.00069,-4.42659,10.8183,Q,Q
2023-03-14 21:49:28:78,0,-3.00732,-4.4169,10.7634,Q,Q
2023-03-14 21:49:28:88,0,-3.01213,-4.4101,10.7082,Q,Q
2023-03-14 21:49:28:98,0,-3.01113,-4.4039,10.6504,Q,Q
2023-03-14 21:49:28:108,0,-3.00381,-4.39914,10.5922,Q,Q
2023-03-14 21:49:28:118,0,-2.99104,-4.39546,10.5319,Q,Q
2023-03-14 21:49:28:128,0,-2.97156,-4.39303,10.4729,Q,Q
2023-03-14 21:49:28:138,0,-2.95396,-4.39534,10.4167,Q,Q
2023-03-14 21:49:28:148,0,-2.93105,-4.39946,10.3632,Q,Q
2023-03-14 21:49:28:158,0,-2.91819,-4.4049,10.3128,Q,Q
2023-03-14 21:49:28:168,0,-2.90436,-4.40791,10.2631,Q,Q
2023-03-14 21:49:28:178,0,-2.89676,-4.40735,10.2135,Q,Q
2023-03-14 21:49:28:188,0,-2.89237,-4.40748,10.1637,Q,Q
2023-03-14 21:49:28:198,0,-2.89477,-4.40474,10.1178,Q,Q
2023-03-14 21:49:28:208,0,-2.89341,-4.40303,10.0731,Q,Q
2023-03-14 21:49:28:218,0,-2.89317,-4.39414,10.031,Q,Q
2023-03-14 21:49:28:228,0,-2.89425,-4.38217,9.99125,Q,Q
2023-03-14 21:49:28:238,0,-2.89765,-4.37374,9.95527,Q,Q
2023-03-14 21:49:28:248,0,-2.90408,-4.36128,9.92382,Q,Q
2023-03-14 21:49:28:258,0,-2.91572,-4.34499,9.89472,Q,Q
2023-03-14 21:49:28:268,0,-2.92866,-4.32897,9.86619,Q,Q
2023-03-14 21:49:28:278,0,-2.94108,-4.31116,9.846,Q,Q
2023-03-14 21:49:28:288,0,-2.95225,-4.29478,9.82987,Q,Q
2023-03-14 21:49:28:298,0,-2.96233,-4.27986,9.81849,Q,Q
2023-03-14 21:49:28:308,0,-2.96926,-4.26335,9.80477,Q,Q
2023-03-14 21:49:28:318,0,-2.97308,-4.25116,9.79433,Q,Q
2023-03-14 21:49:28:328,0,-2.97887,-4.2399,9.78475,Q,Q
2023-03-14 21:49:28:338,0,-2.98636,-4.23282,9.77561,Q,Q
2023-03-14 21:49:28:348,0,-2.99181,-4.22873,9.76505,Q,Q
2023-03-14 21:49:28:358,0,-2.99311,-4.22765,9.75376,Q,Q
2023-03-14 21:49:28:368,0,-2.991,-4.22816,9.74033,Q,Q
2023-03-14 21:49:28:378,0,-2.98671,-4.23421,9.7245,Q,Q
2023-03-14 21:49:28:388,0,-2.97477,-4.24112,9.70602,Q,Q
2023-03-14 21:49:28:398,0,-2.9615,-4.24316,9.68557,Q,Q
2023-03-14 21:49:28:408,0,-2.94869,-4.24631,9.66899,Q,Q
2023-03-14 21:49:28:418,0,-2.93698,-4.25418,9.6496,Q,Q
2023-03-14 21:49:28:428,0,-2.92411,-4.26152,9.62594,Q,Q
2023-03-14 21:49:28:438,0,-2.90923,-4.27121,9.60596,Q,Q
2023-03-14 21:49:28:448,0,-2.88999,-4.27801,9.58829,Q,Q
2023-03-14 21:49:28:458,0,-2.87436,-4.2889,9.57894,Q,Q
2023-03-14 21:49:28:468,0,-2.86371,-4.30009,9.56238,Q,Q
2023-03-14 21:49:28:478,0,-2.85046,-4.31008,9.54833,Q,Q
2023-03-14 21:49:28:488,0,-2.83336,-4.32008,9.53784,Q,Q
2023-03-14 21:49:28:498,0,-2.8175,-4.33378,9.52575,Q,Q
2023-03-14 21:49:28:508,0,-2.804,-4.35141,9.52721,Q,Q
2023-03-14 21:49:28:518,0,-2.78855,-4.36987,9.52968,Q,Q
2023-03-14 21:49:28:528,0,-2.77541,-4.38593,9.53465,Q,Q
2023-03-14 21:49:28:538,0,-2.76561,-4.40661,9.54439,Q,Q
2023-03-14 21:49:28:548,0,-2.75558,-4.41824,9.55953,Q,Q
2023-03-14 21:49:28:558,0,-2.75392,-4.43303,9.58007,Q,Q
2023-03-14 21:49:28:568,0,-2.7574,-4.45118,9.60468,Q,Q
2023-03-14 21:49:28:578,0,-2.76265,-4.46852,9.63109,Q,Q
2023-03-14 21:49:28:588,0,-2.76558,-4.48928,9.65675,Q,Q
2023-03-14 21:49:28:598,0,-2.77081,-4.50869,9.68471,Q,Q
2023-03-14 21:49:28:608,0,-2.77447,-4.52914,9.71141,Q,Q
2023-03-14 21:49:28:618,0,-2.77846,-4.54588,9.73778,Q,Q
2023-03-14 21:49:28:628,0,-2.78493,-4.56558,9.76163,Q,Q
2023-03-14 21:49:28:638,0,-2.79733,-4.58533,9.77884,Q,Q
2023-03-14 21:49:28:648,0,-2.81309,-4.6055,9.79198,Q,Q
2023-03-14 21:49:28:658,0,-2.82854,-4.62418,9.79836,Q,Q
2023-03-14 21:49:28:668,0,-2.85239,-4.64329,9.80068,Q,Q
2023-03-14 21:49:28:678,0,-2.87809,-4.66081,9.79471,Q,Q
2023-03-14 21:49:28:688,0,-2.89892,-4.67463,9.7889,Q,Q
2023-03-14 21:49:28:698,0,-2.91356,-4.68715,9.78627,Q,Q
2023-03-14 21:49:28:708,0,-2.92427,-4.701,9.78483,Q,Q
2023-03-14 21:49:28:718,0,-2.93504,-4.71248,9.78272,Q,Q
2023-03-14 21:49:28:728,0,-2.94218,-4.71949,9.77822,Q,Q
2023-03-14 21:49:28:738,0,-2.94794,-4.72445,9.77969,Q,Q
2023-03-14 21:49:28:748,0,-2.9507,-4.73444,9.78118,Q,Q
2023-03-14 21:49:28:758,0,-2.95259,-4.7466,9.78924,Q,Q
2023-03-14 21:49:28:768,0,-2.95571,-4.756,9.79731,Q,Q
2023-03-14 21:49:28:778,0,-2.95266,-4.75704,9.80999,Q,Q
2023-03-14 21:49:28:788,0,-2.95117,-4.7552,9.82205,Q,Q
2023-03-14 21:49:28:798,0,-2.95346,-4.75545,9.83831,Q,Q
2023-03-14 21:49:28:808,0,-2.95737,-4.75544,9.8536,Q,Q
2023-03-14 21:49:28:818,0,-2.96253,-4.75552,9.86668,Q,Q
2023-03-14 21:49:28:828,0,-2.9644,-4.75215,9.87932,Q,Q
2023-03-14 21:49:28:838,0,-2.96414,-4.75215,9.88831,Q,Q
2023-03-14 21:49:28:848,0,-2.96179,-4.75008,9.89611,Q,Q
2023-03-14 21:49:28:858,0,-2.95657,-4.75101,9.90618,Q,Q
2023-03-14 21:49:28:868,0,-2.94917,-4.75335,9.91608,Q,Q
2023-03-14 21:49:28:878,0,-2.9453,-4.75539,9.92696,Q,Q
2023-03-14 21:49:28:888,0,-2.93744,-4.75422,9.93821,Q,Q
2023-03-14 21:49:28:898,0,-2.93172,-4.75515,9.94841,Q,Q
2023-03-14 21:49:28:908,0,-2.92692,-4.75896,9.95976,Q,Q
2023-03-14 21:49:28:918,0,-2.92473,-4.76115,9.97039,Q,Q
2023-03-14 21:49:28:928,0,-2.92437,-4.76821,9.98448,Q,Q
2023-03-14 21:49:28:938,0,-2.92432,-4.77267,10.0016,Q,Q
2023-03-14 21:49:28:948,0,-2.92373,-4.7791,10.0168,Q,Q
2023-03-14 21:49:28:958,0,-2.92526,-4.78475,10.0331,Q,Q
2023-03-14 21:49:28:968,0,-2.93334,-4.78789,10.0514,Q,Q
2023-03-14 21:49:28:978,0,-2.93717,-4.78694,10.0684,Q,Q
2023-03-14 21:49:28:988,0,-2.94644,-4.78452,10.0806,Q,Q
2023-03-14 21:49:28:998,0,-2.95587,-4.77876,10.0882,Q,Q
2023-03-14 21:49:29:8,0,-2.96514,-4.7727,10.0937,Q,Q
2023-03-14 21:49:29:18,0,-2.97452,-4.76875,10.0971,Q,Q
2023-03-14 21:49:29:28,0,-2.98243,-4.76087,10.1023,Q,Q
2023-03-14 21:49:29:38,0,-2.9876,-4.75539,10.1058,Q,Q
2023-03-14 21:49:29:48,0,-2.99531,-4.74821,10.1091,Q,Q
2023-03-14 21:49:29:58,0,-3.00089,-4.74412,10.112,Q,Q
2023-03-14 21:49:29:68,0,-3.00581,-4.74189,10.113,Q,Q
2023-03-14 21:49:29:78,0,-3.0132,-4.73698,10.1089,Q,Q
2023-03-14 21:49:29:88,0,-3.01825,-4.73557,10.1028,Q,Q
2023-03-14 21:49:29:98,0,-3.02293,-4.73381,10.0976,Q,Q
2023-03-14 21:49:29:108,0,-3.02505,-4.73113,10.0903,Q,Q
2023-03-14 21:49:29:118,0,-3.02602,-4.73312,10.0878,Q,Q
2023-03-14 21:49:29:128,0,-3.02781,-4.73283,10.0867,Q,Q
2023-03-14 21:49:29:138,0,-3.03277,-4.73349,10.0821,Q,Q
2023-03-14 21:49:29:148,0,-3.03489,-4.73358,10.0807,Q,Q
2023-03-14 21:49:29:158,0,-3.03555,-4.73531,10.0811,Q,Q
2023-03-14 21:49:29:168,0,-3.04049,-4.73718,10.0793,Q,Q
2023-03-14 21:49:29:178,0,-3.04457,-4.73876,10.0776,Q,Q
2023-03-14 21:49:29:188,0,-3.04835,-4.74412,10.0745,Q,Q
2023-03-14 21:49:29:198,0,-3.05614,-4.74661,10.0747,Q,Q
2023-03-14 21:49:29:208,0,-3.05742,-4.74441,10.0719,Q,Q
2023-03-14 21:49:29:218,0,-3.0573,-4.73988,10.0691,Q,Q
2023-03-14 21:49:29:228,0,-3.05316,-4.73599,10.0658,Q,Q
2023-03-14 21:49:29:238,0,-3.05003,-4.73087,10.0646,Q,Q
2023-03-14 21:49:29:248,0,-3.04812,-4.72337,10.0651,Q,Q
2023-03-14 21:49:29:258,0,-3.05022,-4.71451,10.0643,Q,Q
2023-03-14 21:49:29:268,0,-3.05016,-4.70585,10.0598,Q,Q
2023-03-14 21:49:29:278,0,-3.04803,-4.70399,10.0565,Q,Q
2023-03-14 21:49:29:288,0,-3.0486,-4.70343,10.0589,Q,Q
2023-03-14 21:49:29:298,0,-3.04425,-4.70584,10.0648,Q,Q
2023-03-14 21:49:29:308,0,-3.04131,-4.70712,10.0705,Q,Q
2023-03-14 21:49:29:318,0,-3.04169,-4.71461,10.0781,Q,Q
2023-03-14 21:49:29:328,0,-3.0452,-4.72495,10.0892,Q,Q
2023-03-14 21:49:29:338,0,-3.05113,-4.72789,10.0947,Q,Q
2023-03-14 21:49:29:348,0,-3.05334,-4.7349,10.096,Q,Q
2023-03-14 21:49:29:358,0,-3.05722,-4.74413,10.1032,Q,Q
2023-03-14 21:49:29:368,0,-3.05784,-4.75362,10.108,Q,Q
2023-03-14 21:49:29:378,0,-3.05625,-4.76114,10.1112,Q,Q
2023-03-14 21:49:29:388,0,-3.0489,-4.76763,10.1139,Q,Q
2023-03-14 21:49:29:398,0,-3.04398,-4.77187,10.1166,Q,Q
2023-03-14 21:49:29:408,0,-3.04327,-4.77376,10.1164,Q,Q
2023-03-14 21:49:29:418,0,-3.04816,-4.7749,10.112,Q,Q
2023-03-14 21:49:29:428,0,-3.05094,-4.77341,10.1041,Q,Q
2023-03-14 21:49:29:438,0,-3.0536,-4.76718,10.0936,Q,Q
2023-03-14 21:49:29:448,0,-3.05152,-4.76226,10.0815,Q,Q
2023-03-14 21:49:29:458,0,-3.05287,-4.75618,10.0694,Q,Q
2023-03-14 21:49:29:468,0,-3.0544,-4.75052,10.0549,Q,Q
2023-03-14 21:49:29:478,0,-3.05779,-4.74535,10.0384,Q,Q
2023-03-14 21:49:29:488,0,-3.06088,-4.74221,10.0243,Q,Q
2023-03-14 21:49:29:498,0,-3.06905,-4.74049,10.0144,Q,Q
2023-03-14 21:49:29:508,0,-3.07409,-4.73682,10.0019,Q,Q
2023-03-14 21:49:29:518,0,-3.08514,-4.73132,9.98919,Q,Q
2023-03-14 21:49:29:528,0,-3.09724,-4.72158,9.97165,Q,Q
2023-03-14 21:49:29:538,0,-3.10527,-4.71343,9.96148,Q,Q
2023-03-14 21:49:29:548,0,-3.11309,-4.7091,9.95182,Q,Q
