Timestamp_cmd,imu_cmd,roll_delta,pitch_delta,yaw_delta,voice_type,voice_length
2023-03-15 21:15:16:14,0,-54.7395,1.85466,148.049,Q,Q
2023-03-15 21:15:16:23,0,-54.7398,1.85676,148.048,Q,Q
2023-03-15 21:15:16:33,0,-54.7423,1.85678,148.05,Q,Q
2023-03-15 21:15:16:43,0,-54.7429,1.85456,148.049,Q,Q
2023-03-15 21:15:16:53,0,-54.7441,1.85155,148.052,Q,Q
2023-03-15 21:15:16:63,0,-54.7472,1.85428,148.053,Q,Q
2023-03-15 21:15:16:73,0,-54.7477,1.85851,148.051,Q,Q
2023-03-15 21:15:16:83,0,-54.7463,1.85682,148.051,Q,Q
2023-03-15 21:15:16:93,0,-54.7428,1.85759,148.052,Q,Q
2023-03-15 21:15:16:103,0,-54.7452,1.85858,148.053,Q,Q
2023-03-15 21:15:16:113,0,-54.7473,1.85771,148.053,Q,Q
2023-03-15 21:15:16:123,0,-54.7491,1.8588,148.051,Q,Q
2023-03-15 21:15:16:133,0,-54.7468,1.85918,148.05,Q,Q
2023-03-15 21:15:16:143,0,-54.744,1.85905,148.048,Q,Q
2023-03-15 21:15:16:153,0,-54.7414,1.85619,148.049,Q,Q
2023-03-15 21:15:16:163,0,-54.7405,1.85725,148.049,Q,Q
2023-03-15 21:15:16:173,0,-54.739,1.85882,148.049,Q,Q
2023-03-15 21:15:16:183,0,-54.7409,1.85756,148.05,Q,Q
2023-03-15 21:15:16:193,0,-54.7355,1.85614,148.053,Q,Q
2023-03-15 21:15:16:203,0,-54.7382,1.85811,148.055,Q,Q
2023-03-15 21:15:16:213,0,-54.7365,1.85749,148.056,Q,Q
2023-03-15 21:15:16:223,0,-54.7381,1.85852,148.059,Q,Q
2023-03-15 21:15:16:233,0,-54.7373,1.85677,148.06,Q,Q
2023-03-15 21:15:16:243,0,-54.7362,1.85414,148.064,Q,Q
2023-03-15 21:15:16:253,0,-54.7373,1.8525,148.065,Q,Q
2023-03-15 21:15:16:263,0,-54.7349,1.85267,148.064,Q,Q
2023-03-15 21:15:16:273,0,-54.7346,1.85191,148.063,Q,Q
2023-03-15 21:15:16:283,0,-54.7346,1.8516,148.063,Q,Q
2023-03-15 21:15:16:293,0,-54.7375,1.8528,148.063,Q,Q
2023-03-15 21:15:16:303,0,-54.7374,1.85015,148.063,Q,Q
2023-03-15 21:15:16:313,0,-54.7372,1.84874,148.064,Q,Q
2023-03-15 21:15:16:323,0,-54.7375,1.84966,148.066,Q,Q
2023-03-15 21:15:16:333,0,-54.7379,1.85087,148.066,Q,Q
2023-03-15 21:15:16:343,0,-54.7367,1.84849,148.066,Q,Q
2023-03-15 21:15:16:353,0,-54.7369,1.85188,148.068,Q,Q
2023-03-15 21:15:16:363,0,-54.7402,1.85066,148.069,Q,Q
2023-03-15 21:15:16:373,0,-54.7419,1.84876,148.069,Q,Q
2023-03-15 21:15:16:383,0,-54.744,1.84938,148.07,Q,Q
2023-03-15 21:15:16:393,0,-54.7448,1.84828,148.073,Q,Q
2023-03-15 21:15:16:403,0,-54.7448,1.84609,148.074,Q,Q
2023-03-15 21:15:16:413,0,-54.743,1.84632,148.074,Q,Q
2023-03-15 21:15:16:423,0,-54.7425,1.84688,148.072,Q,Q
2023-03-15 21:15:16:433,0,-54.7433,1.84605,148.073,Q,Q
2023-03-15 21:15:16:443,0,-54.7417,1.84424,148.075,Q,Q
2023-03-15 21:15:16:453,0,-54.7431,1.84527,148.077,Q,Q
2023-03-15 21:15:16:463,0,-54.7449,1.84728,148.078,Q,Q
2023-03-15 21:15:16:473,0,-54.7466,1.84427,148.077,Q,Q
2023-03-15 21:15:16:483,0,-54.7473,1.84066,148.079,Q,Q
2023-03-15 21:15:16:493,0,-54.7475,1.84278,148.078,Q,Q
2023-03-15 21:15:16:503,0,-54.7452,1.84629,148.076,Q,Q
2023-03-15 21:15:16:513,0,-54.7454,1.84721,148.074,Q,Q
2023-03-15 21:15:16:523,0,-54.7456,1.84741,148.072,Q,Q
2023-03-15 21:15:16:533,0,-54.743,1.84719,148.072,Q,Q
2023-03-15 21:15:16:543,0,-54.743,1.84368,148.073,Q,Q
2023-03-15 21:15:16:553,0,-54.7431,1.84475,148.072,Q,Q
2023-03-15 21:15:16:563,0,-54.7407,1.84511,148.071,Q,Q
2023-03-15 21:15:16:573,0,-54.743,1.84571,148.071,Q,Q
2023-03-15 21:15:16:583,0,-54.741,1.84208,148.07,Q,Q
2023-03-15 21:15:16:593,0,-54.7385,1.84043,148.069,Q,Q
2023-03-15 21:15:16:603,0,-54.7394,1.84178,148.067,Q,Q
2023-03-15 21:15:16:613,0,-54.7357,1.8417,148.064,Q,Q
2023-03-15 21:15:16:623,0,-54.7319,1.84284,148.064,Q,Q
2023-03-15 21:15:16:633,0,-54.7287,1.84215,148.063,Q,Q
2023-03-15 21:15:16:643,0,-54.7288,1.84418,148.065,Q,Q
2023-03-15 21:15:16:653,0,-54.7291,1.8441,148.065,Q,Q
2023-03-15 21:15:16:663,0,-54.7259,1.8414,148.066,Q,Q
2023-03-15 21:15:16:673,0,-54.7278,1.84425,148.067,Q,Q
2023-03-15 21:15:16:683,0,-54.7293,1.84681,148.069,Q,Q
2023-03-15 21:15:16:693,0,-54.7298,1.84812,148.071,Q,Q
2023-03-15 21:15:16:703,0,-54.731,1.84881,148.072,Q,Q
2023-03-15 21:15:16:713,0,-54.7328,1.8455,148.074,Q,Q
2023-03-15 21:15:16:723,0,-54.737,1.84563,148.074,Q,Q
2023-03-15 21:15:16:733,0,-54.7353,1.84649,148.071,Q,Q
2023-03-15 21:15:16:743,0,-54.7334,1.84363,148.072,Q,Q
2023-03-15 21:15:16:753,0,-54.7326,1.84395,148.069,Q,Q
2023-03-15 21:15:16:763,0,-54.7297,1.84525,148.067,Q,Q
2023-03-15 21:15:16:773,0,-54.7295,1.84817,148.066,Q,Q
2023-03-15 21:15:16:783,0,-54.7295,1.85191,148.066,Q,Q
2023-03-15 21:15:16:793,0,-54.7283,1.85458,148.064,Q,Q
2023-03-15 21:15:16:803,0,-54.7263,1.85247,148.063,Q,Q
2023-03-15 21:15:16:813,0,-54.7248,1.85073,148.064,Q,Q
2023-03-15 21:15:16:823,0,-54.7241,1.85183,148.066,Q,Q
2023-03-15 21:15:16:833,0,-54.7211,1.85173,148.065,Q,Q
2023-03-15 21:15:16:843,0,-54.7188,1.85058,148.065,Q,Q
2023-03-15 21:15:16:853,0,-54.7146,1.85131,148.065,Q,Q
2023-03-15 21:15:16:863,0,-54.7156,1.8505,148.066,Q,Q
2023-03-15 21:15:16:873,0,-54.7142,1.84758,148.065,Q,Q
2023-03-15 21:15:16:883,0,-54.7126,1.84826,148.065,Q,Q
2023-03-15 21:15:16:893,0,-54.7107,1.84877,148.062,Q,Q
2023-03-15 21:15:16:903,0,-54.7119,1.8485,148.063,Q,Q
2023-03-15 21:15:16:913,0,-54.7115,1.84914,148.064,Q,Q
2023-03-15 21:15:16:923,0,-54.7122,1.8498,148.062,Q,Q
2023-03-15 21:15:16:933,0,-54.7141,1.84678,148.063,Q,Q
2023-03-15 21:15:16:943,0,-54.7132,1.84556,148.065,Q,Q
2023-03-15 21:15:16:953,0,-54.7147,1.8464,148.064,Q,Q
2023-03-15 21:15:16:963,0,-54.714,1.84793,148.068,Q,Q
2023-03-15 21:15:16:973,0,-54.7127,1.84759,148.068,Q,Q
2023-03-15 21:15:16:983,0,-54.7111,1.84656,148.069,Q,Q
2023-03-15 21:15:16:993,0,-54.7101,1.84593,148.069,Q,Q
2023-03-15 21:15:17:3,0,-54.7122,1.84148,148.07,Q,Q
2023-03-15 21:15:17:13,0,-54.7121,1.83941,148.07,Q,Q
2023-03-15 21:15:17:23,0,-54.7124,1.83928,148.069,Q,Q
2023-03-15 21:15:17:33,0,-54.711,1.84068,148.068,Q,Q
2023-03-15 21:15:17:43,0,-54.7095,1.83943,148.068,Q,Q
2023-03-15 21:15:17:53,0,-54.7077,1.8394,148.067,Q,Q
2023-03-15 21:15:17:63,0,-54.7069,1.84326,148.066,Q,Q
2023-03-15 21:15:17:73,0,-54.707,1.84079,148.064,Q,Q
2023-03-15 21:15:17:83,0,-54.7085,1.8403,148.068,Q,Q
2023-03-15 21:15:17:93,0,-54.7068,1.84106,148.066,Q,Q
2023-03-15 21:15:17:103,0,-54.7053,1.84003,148.066,Q,Q
2023-03-15 21:15:17:113,0,-54.7017,1.84108,148.066,Q,Q
2023-03-15 21:15:17:123,0,-54.6996,1.84103,148.064,Q,Q
2023-03-15 21:15:17:133,0,-54.6956,1.83844,148.063,Q,Q
2023-03-15 21:15:17:143,0,-54.6998,1.83692,148.062,Q,Q
2023-03-15 21:15:17:153,0,-54.6993,1.83513,148.061,Q,Q
2023-03-15 21:15:17:163,0,-54.7002,1.83433,148.063,Q,Q
2023-03-15 21:15:17:173,0,-54.6981,1.83358,148.063,Q,Q
2023-03-15 21:15:17:183,0,-54.6965,1.83533,148.059,Q,Q
2023-03-15 21:15:17:193,0,-54.6971,1.83588,148.058,Q,Q
2023-03-15 21:15:17:203,0,-54.6993,1.83613,148.057,Q,Q
2023-03-15 21:15:17:213,0,-54.7029,1.83769,148.059,Q,Q
2023-03-15 21:15:17:223,0,-54.7049,1.83608,148.057,Q,Q
2023-03-15 21:15:17:233,0,-54.7079,1.83575,148.055,Q,Q
2023-03-15 21:15:17:243,0,-54.7058,1.83787,148.057,Q,Q
2023-03-15 21:15:17:253,0,-54.7022,1.83942,148.055,Q,Q
2023-03-15 21:15:17:263,0,-54.7051,1.84076,148.057,Q,Q
2023-03-15 21:15:17:273,0,-54.7072,1.84342,148.059,Q,Q
2023-03-15 21:15:17:283,0,-54.7076,1.84107,148.052,Q,Q
2023-03-15 21:15:17:293,0,-54.7096,1.83933,148.051,Q,Q
2023-03-15 21:15:17:303,0,-54.7101,1.83929,148.05,Q,Q
2023-03-15 21:15:17:313,0,-54.7116,1.83743,148.051,Q,Q
2023-03-15 21:15:17:323,0,-54.7105,1.83501,148.052,Q,Q
2023-03-15 21:15:17:333,0,-54.7119,1.83479,148.05,Q,Q
2023-03-15 21:15:17:343,0,-54.7137,1.8344,148.054,Q,Q
2023-03-15 21:15:17:353,0,-54.716,1.83512,148.053,Q,Q
2023-03-15 21:15:17:363,0,-54.7168,1.83431,148.053,Q,Q
2023-03-15 21:15:17:373,0,-54.7174,1.83775,148.055,Q,Q
2023-03-15 21:15:17:383,0,-54.7157,1.84111,148.058,Q,Q
2023-03-15 21:15:17:393,0,-54.7159,1.84022,148.057,Q,Q
2023-03-15 21:15:17:403,0,-54.7133,1.84179,148.056,Q,Q
2023-03-15 21:15:17:413,0,-54.7105,1.84168,148.059,Q,Q
2023-03-15 21:15:17:423,0,-54.7131,1.84239,148.06,Q,Q
2023-03-15 21:15:17:434,0,-54.7144,1.84202,148.059,Q,Q
2023-03-15 21:15:17:443,0,-54.7154,1.84151,148.058,Q,Q
2023-03-15 21:15:17:453,0,-54.7134,1.8395,148.06,Q,Q
2023-03-15 21:15:17:463,0,-54.7166,1.84073,148.06,Q,Q
2023-03-15 21:15:17:473,0,-54.7172,1.84238,148.062,Q,Q
2023-03-15 21:15:17:483,0,-54.7174,1.84,148.063,Q,Q
2023-03-15 21:15:17:494,0,-54.7153,1.83709,148.065,Q,Q
2023-03-15 21:15:17:503,0,-54.7124,1.83852,148.065,Q,Q
2023-03-15 21:15:17:514,0,-54.7112,1.83621,148.067,Q,Q
2023-03-15 21:15:17:523,0,-54.711,1.83756,148.068,Q,Q
2023-03-15 21:15:17:533,0,-54.7103,1.8399,148.067,Q,Q
2023-03-15 21:15:17:543,0,-54.7109,1.83982,148.069,Q,Q
2023-03-15 21:15:17:553,0,-54.7109,1.8411,148.069,Q,Q
2023-03-15 21:15:17:563,0,-54.7081,1.84336,148.068,Q,Q
2023-03-15 21:15:17:574,0,-54.7114,1.84288,148.069,Q,Q
2023-03-15 21:15:17:583,0,-54.711,1.84278,148.067,Q,Q
2023-03-15 21:15:17:593,0,-54.7106,1.84571,148.07,Q,Q
2023-03-15 21:15:17:603,0,-54.7128,1.84601,148.07,Q,Q
2023-03-15 21:15:17:613,0,-54.712,1.8476,148.069,Q,Q
2023-03-15 21:15:17:623,0,-54.7155,1.84847,148.067,Q,Q
2023-03-15 21:15:17:633,0,-54.7153,1.84795,148.066,Q,Q
2023-03-15 21:15:17:643,0,-54.7167,1.8489,148.064,Q,Q
2023-03-15 21:15:17:653,0,-54.7168,1.84709,148.064,Q,Q
2023-03-15 21:15:17:663,0,-54.7178,1.84639,148.062,Q,Q
2023-03-15 21:15:17:673,0,-54.7188,1.84668,148.062,Q,Q
2023-03-15 21:15:17:683,0,-54.7194,1.84786,148.062,Q,Q
2023-03-15 21:15:17:694,0,-54.7215,1.85159,148.061,Q,Q
2023-03-15 21:15:17:703,0,-54.7166,1.85239,148.061,Q,Q
2023-03-15 21:15:17:714,0,-54.7164,1.84843,148.061,Q,Q
2023-03-15 21:15:17:724,0,-54.7173,1.85149,148.057,Q,Q
2023-03-15 21:15:17:734,0,-54.7168,1.84993,148.058,Q,Q
2023-03-15 21:15:17:743,0,-54.7213,1.85025,148.06,Q,Q
2023-03-15 21:15:17:753,0,-54.7195,1.84745,148.059,Q,Q
2023-03-15 21:15:17:763,0,-54.719,1.8482,148.057,Q,Q
2023-03-15 21:15:17:773,0,-54.7183,1.84899,148.055,Q,Q
2023-03-15 21:15:17:783,0,-54.7173,1.84971,148.054,Q,Q
2023-03-15 21:15:17:793,0,-54.716,1.85116,148.052,Q,Q
2023-03-15 21:15:17:803,0,-54.7152,1.84911,148.051,Q,Q
2023-03-15 21:15:17:814,0,-54.7133,1.85185,148.05,Q,Q
2023-03-15 21:15:17:823,0,-54.7107,1.85137,148.048,Q,Q
2023-03-15 21:15:17:834,0,-54.7111,1.85249,148.046,Q,Q
2023-03-15 21:15:17:844,0,-54.7104,1.85332,148.046,Q,Q
2023-03-15 21:15:17:853,0,-54.71,1.85327,148.041,Q,Q
2023-03-15 21:15:17:864,0,-54.7094,1.85024,148.041,Q,Q
2023-03-15 21:15:17:873,0,-54.7089,1.84841,148.039,Q,Q
2023-03-15 21:15:17:883,0,-54.7118,1.84847,148.041,Q,Q
2023-03-15 21:15:17:894,0,-54.711,1.84798,148.045,Q,Q
2023-03-15 21:15:17:903,0,-54.7124,1.84802,148.044,Q,Q
2023-03-15 21:15:17:913,0,-54.7141,1.84812,148.044,Q,Q
2023-03-15 21:15:17:924,0,-54.7146,1.8458,148.04,Q,Q
2023-03-15 21:15:17:934,0,-54.7119,1.84667,148.04,Q,Q
2023-03-15 21:15:17:944,0,-54.7113,1.84891,148.037,Q,Q
2023-03-15 21:15:17:953,0,-54.7114,1.85007,148.035,Q,Q
2023-03-15 21:15:17:963,0,-54.7088,1.84923,148.037,Q,Q
2023-03-15 21:15:17:974,0,-54.7078,1.85113,148.036,Q,Q
2023-03-15 21:15:17:983,0,-54.7065,1.85185,148.035,Q,Q
2023-03-15 21:15:17:994,0,-54.7039,1.84867,148.036,Q,Q
2023-03-15 21:15:18:4,0,-54.7022,1.84805,148.038,Q,Q
2023-03-15 21:15:18:13,0,-54.7038,1.84743,148.034,Q,Q
2023-03-15 21:15:18:23,0,-54.7051,1.84868,148.033,Q,Q
2023-03-15 21:15:18:34,0,-54.7025,1.84702,148.033,Q,Q
2023-03-15 21:15:18:44,0,-54.6991,1.84778,148.033,Q,Q
2023-03-15 21:15:18:54,0,-54.698,1.8433,148.034,Q,Q
2023-03-15 21:15:18:64,0,-54.6954,1.84492,148.036,Q,Q
2023-03-15 21:15:18:74,0,-54.6964,1.84592,148.039,Q,Q
2023-03-15 21:15:18:83,0,-54.7015,1.84952,148.041,Q,Q
2023-03-15 21:15:18:94,0,-54.7005,1.85366,148.041,Q,Q
2023-03-15 21:15:18:104,0,-54.7105,1.85028,148.041,Q,Q
2023-03-15 21:15:18:114,0,-54.6987,1.85787,148.043,Q,Q
2023-03-15 21:15:18:123,0,-54.7077,1.85287,148.043,Q,Q
2023-03-15 21:15:18:134,0,-54.7089,1.85295,148.046,Q,Q
2023-03-15 21:15:18:143,0,-54.7007,1.85719,148.046,Q,Q
2023-03-15 21:15:18:154,0,-54.7088,1.85336,148.045,Q,Q
2023-03-15 21:15:18:163,0,-54.7013,1.85879,148.047,Q,Q
2023-03-15 21:15:18:174,0,-54.7024,1.85603,148.045,Q,Q
2023-03-15 21:15:18:183,0,-54.7046,1.8564,148.046,Q,Q
2023-03-15 21:15:18:194,0,-54.6988,1.85868,148.049,Q,Q
2023-03-15 21:15:18:204,0,-54.7035,1.85891,148.053,Q,Q
2023-03-15 21:15:18:214,0,-54.7,1.85764,148.052,Q,Q
2023-03-15 21:15:18:224,0,-54.6975,1.86104,148.054,Q,Q
2023-03-15 21:15:18:234,0,-54.6983,1.86043,148.054,Q,Q
2023-03-15 21:15:18:244,0,-54.6978,1.86139,148.055,Q,Q
2023-03-15 21:15:18:254,0,-54.7003,1.86127,148.056,Q,Q
2023-03-15 21:15:18:264,0,-54.7002,1.8612,148.059,Q,Q
2023-03-15 21:15:18:274,0,-54.7,1.86246,148.058,Q,Q
2023-03-15 21:15:18:284,0,-54.7017,1.86136,148.056,Q,Q
2023-03-15 21:15:18:294,0,-54.7029,1.86184,148.055,Q,Q
2023-03-15 21:15:18:304,0,-54.7039,1.86306,148.057,Q,Q
2023-03-15 21:15:18:314,0,-54.7047,1.86189,148.056,Q,Q
2023-03-15 21:15:18:324,0,-54.7064,1.8655,148.054,Q,Q
2023-03-15 21:15:18:334,0,-54.707,1.86646,148.057,Q,Q
2023-03-15 21:15:18:344,0,-54.7049,1.86632,148.055,Q,Q
2023-03-15 21:15:18:354,0,-54.7095,1.8634,148.052,Q,Q
2023-03-15 21:15:18:364,0,-54.7145,1.86406,148.053,Q,Q
2023-03-15 21:15:18:374,0,-54.7074,1.86274,148.056,Q,Q
2023-03-15 21:15:18:384,0,-54.73,1.86002,148.054,Q,Q
2023-03-15 21:15:18:394,0,-54.7122,1.8631,148.055,Q,Q
2023-03-15 21:15:18:404,0,-54.7316,1.85562,148.051,Q,Q
2023-03-15 21:15:18:414,0,-54.7231,1.85766,148.052,Q,Q
2023-03-15 21:15:18:424,0,-54.7264,1.85329,148.053,Q,Q
2023-03-15 21:15:18:434,0,-54.7422,1.85146,148.051,Q,Q
2023-03-15 21:15:18:444,0,-54.7277,1.85747,148.053,Q,Q
2023-03-15 21:15:18:454,0,-54.7474,1.85147,148.053,Q,Q
2023-03-15 21:15:18:464,0,-54.7301,1.85723,148.051,Q,Q
2023-03-15 21:15:18:474,0,-54.7363,1.85556,148.051,Q,Q
2023-03-15 21:15:18:484,0,-54.7284,1.85669,148.052,Q,Q
2023-03-15 21:15:18:494,0,-54.7261,1.8559,148.054,Q,Q
2023-03-15 21:15:18:504,0,-54.7298,1.85506,148.057,Q,Q
2023-03-15 21:15:18:514,0,-54.7198,1.85888,148.056,Q,Q
2023-03-15 21:15:18:524,0,-54.7323,1.85827,148.055,Q,Q
2023-03-15 21:15:18:534,0,-54.7197,1.86581,148.053,Q,Q
2023-03-15 21:15:18:544,0,-54.7286,1.86249,148.053,Q,Q
2023-03-15 21:15:18:554,0,-54.7239,1.86645,148.055,Q,Q
2023-03-15 21:15:18:564,0,-54.7238,1.8653,148.057,Q,Q
2023-03-15 21:15:18:574,0,-54.7237,1.86638,148.055,Q,Q
2023-03-15 21:15:18:584,0,-54.7183,1.86833,148.056,Q,Q
2023-03-15 21:15:18:594,0,-54.7192,1.86765,148.056,Q,Q
2023-03-15 21:15:18:604,0,-54.7175,1.86677,148.056,Q,Q
2023-03-15 21:15:18:614,0,-54.7131,1.86773,148.058,Q,Q
2023-03-15 21:15:18:624,0,-54.711,1.8644,148.056,Q,Q
2023-03-15 21:15:18:634,0,-54.712,1.8655,148.055,Q,Q
2023-03-15 21:15:18:644,0,-54.7116,1.86454,148.055,Q,Q
2023-03-15 21:15:18:654,0,-54.7105,1.86388,148.055,Q,Q
2023-03-15 21:15:18:664,0,-54.7126,1.86503,148.054,Q,Q
2023-03-15 21:15:18:674,0,-54.7101,1.86642,148.054,Q,Q
2023-03-15 21:15:18:684,0,-54.7127,1.86476,148.054,Q,Q
2023-03-15 21:15:18:694,0,-54.7096,1.86908,148.055,Q,Q
2023-03-15 21:15:18:704,0,-54.7112,1.86691,148.056,Q,Q
2023-03-15 21:15:18:714,0,-54.7086,1.86632,148.058,Q,Q
2023-03-15 21:15:18:724,0,-54.7074,1.86643,148.055,Q,Q
2023-03-15 21:15:18:734,0,-54.7039,1.86699,148.053,Q,Q
2023-03-15 21:15:18:744,0,-54.7004,1.86692,148.053,Q,Q
2023-03-15 21:15:18:754,0,-54.701,1.86554,148.051,Q,Q
2023-03-15 21:15:18:764,0,-54.7006,1.86471,148.05,Q,Q
2023-03-15 21:15:18:774,0,-54.6999,1.86414,148.049,Q,Q
2023-03-15 21:15:18:784,0,-54.702,1.86813,148.047,Q,Q
2023-03-15 21:15:18:794,0,-54.7025,1.86621,148.046,Q,Q
2023-03-15 21:15:18:804,0,-54.7019,1.8629,148.043,Q,Q
2023-03-15 21:15:18:814,0,-54.704,1.86466,148.039,Q,Q
2023-03-15 21:15:18:824,0,-54.7058,1.86715,148.036,Q,Q
2023-03-15 21:15:18:834,0,-54.707,1.86616,148.037,Q,Q
2023-03-15 21:15:18:844,0,-54.7049,1.86613,148.036,Q,Q
2023-03-15 21:15:18:854,0,-54.7036,1.86416,148.036,Q,Q
2023-03-15 21:15:18:864,0,-54.705,1.86273,148.035,Q,Q
2023-03-15 21:15:18:874,0,-54.7029,1.86464,148.032,Q,Q
2023-03-15 21:15:18:884,0,-54.7036,1.86429,148.033,Q,Q
2023-03-15 21:15:18:894,0,-54.7037,1.86578,148.033,Q,Q
2023-03-15 21:15:18:904,0,-54.7037,1.86622,148.034,Q,Q
2023-03-15 21:15:18:914,0,-54.7056,1.8632,148.034,Q,Q
2023-03-15 21:15:18:924,0,-54.7057,1.86242,148.036,Q,Q
2023-03-15 21:15:18:934,0,-54.7064,1.86306,148.036,Q,Q
2023-03-15 21:15:18:944,0,-54.7055,1.86364,148.035,Q,Q
2023-03-15 21:15:18:954,0,-54.7053,1.86519,148.037,Q,Q
2023-03-15 21:15:18:964,0,-54.7025,1.86464,148.037,Q,Q
2023-03-15 21:15:18:974,0,-54.7035,1.86268,148.038,Q,Q
2023-03-15 21:15:18:984,0,-54.704,1.86548,148.038,Q,Q
2023-03-15 21:15:18:994,0,-54.7061,1.86047,148.042,Q,Q
2023-03-15 21:15:19:4,0,-54.7084,1.85826,148.043,Q,Q
2023-03-15 21:15:19:14,0,-54.7107,1.85548,148.045,Q,Q
2023-03-15 21:15:19:24,0,-54.7103,1.85609,148.044,Q,Q
2023-03-15 21:15:19:34,0,-54.7109,1.85628,148.045,Q,Q
2023-03-15 21:15:19:44,0,-54.7092,1.85781,148.044,Q,Q
2023-03-15 21:15:19:54,0,-54.7081,1.85662,148.045,Q,Q
2023-03-15 21:15:19:64,0,-54.7078,1.85765,148.045,Q,Q
2023-03-15 21:15:19:74,0,-54.7077,1.8571,148.046,Q,Q
2023-03-15 21:15:19:84,0,-54.7073,1.85647,148.047,Q,Q
2023-03-15 21:15:19:94,0,-54.7044,1.85639,148.048,Q,Q
2023-03-15 21:15:19:104,0,-54.7055,1.85234,148.048,Q,Q
2023-03-15 21:15:19:114,0,-54.7076,1.85388,148.047,Q,Q
2023-03-15 21:15:19:124,0,-54.708,1.8527,148.046,Q,Q
2023-03-15 21:15:19:134,0,-54.7065,1.85546,148.043,Q,Q
2023-03-15 21:15:19:144,0,-54.7053,1.85389,148.042,Q,Q
2023-03-15 21:15:19:154,0,-54.7017,1.8574,148.043,Q,Q
2023-03-15 21:15:19:164,0,-54.7008,1.85771,148.044,Q,Q
2023-03-15 21:15:19:174,0,-54.6992,1.85923,148.042,Q,Q
2023-03-15 21:15:19:184,0,-54.6991,1.86284,148.043,Q,Q
2023-03-15 21:15:19:194,0,-54.6973,1.86158,148.042,Q,Q
2023-03-15 21:15:19:204,0,-54.697,1.86248,148.038,Q,Q
2023-03-15 21:15:19:214,0,-54.6949,1.86156,148.038,Q,Q
2023-03-15 21:15:19:224,0,-54.693,1.86006,148.037,Q,Q
2023-03-15 21:15:19:234,0,-54.6914,1.8603,148.036,Q,Q
2023-03-15 21:15:19:244,0,-54.6924,1.85864,148.037,Q,Q
2023-03-15 21:15:19:254,0,-54.6925,1.85688,148.038,Q,Q
2023-03-15 21:15:19:264,0,-54.6889,1.85687,148.04,Q,Q
2023-03-15 21:15:19:274,0,-54.6891,1.85621,148.041,Q,Q
2023-03-15 21:15:19:284,0,-54.6892,1.85678,148.039,Q,Q
2023-03-15 21:15:19:294,0,-54.6926,1.85686,148.039,Q,Q
2023-03-15 21:15:19:304,0,-54.6919,1.8581,148.039,Q,Q
2023-03-15 21:15:19:314,0,-54.6936,1.85698,148.04,Q,Q
2023-03-15 21:15:19:324,0,-54.6925,1.85865,148.04,Q,Q
2023-03-15 21:15:19:334,0,-54.6911,1.85834,148.04,Q,Q
2023-03-15 21:15:19:344,0,-54.6918,1.85868,148.039,Q,Q
2023-03-15 21:15:19:354,0,-54.6913,1.85995,148.037,Q,Q
2023-03-15 21:15:19:364,0,-54.6916,1.86209,148.039,Q,Q
2023-03-15 21:15:19:374,0,-54.6919,1.86239,148.039,Q,Q
2023-03-15 21:15:19:384,0,-54.6918,1.85873,148.04,Q,Q
2023-03-15 21:15:19:394,0,-54.693,1.85685,148.043,Q,Q
2023-03-15 21:15:19:404,0,-54.6886,1.8574,148.041,Q,Q
2023-03-15 21:15:19:414,0,-54.6887,1.85734,148.041,Q,Q
2023-03-15 21:15:19:424,0,-54.6882,1.85787,148.044,Q,Q
2023-03-15 21:15:19:434,0,-54.6864,1.85931,148.045,Q,Q
2023-03-15 21:15:19:444,0,-54.6866,1.86104,148.044,Q,Q
2023-03-15 21:15:19:454,0,-54.6872,1.85941,148.045,Q,Q
2023-03-15 21:15:19:464,0,-54.6881,1.86073,148.046,Q,Q
2023-03-15 21:15:19:474,0,-54.6892,1.86298,148.044,Q,Q
2023-03-15 21:15:19:484,0,-54.6888,1.86224,148.043,Q,Q
2023-03-15 21:15:19:494,0,-54.687,1.86339,148.044,Q,Q
2023-03-15 21:15:19:504,0,-54.6886,1.86639,148.044,Q,Q
2023-03-15 21:15:19:514,0,-54.6893,1.86801,148.044,Q,Q
2023-03-15 21:15:19:524,0,-54.6875,1.86715,148.044,Q,Q
2023-03-15 21:15:19:534,0,-54.6855,1.86761,148.046,Q,Q
2023-03-15 21:15:19:544,0,-54.6842,1.87037,148.045,Q,Q
2023-03-15 21:15:19:554,0,-54.6837,1.87177,148.047,Q,Q
2023-03-15 21:15:19:564,0,-54.681,1.87125,148.048,Q,Q
2023-03-15 21:15:19:574,0,-54.6825,1.87252,148.045,Q,Q
2023-03-15 21:15:19:584,0,-54.68,1.87435,148.044,Q,Q
2023-03-15 21:15:19:594,0,-54.6812,1.87407,148.042,Q,Q
2023-03-15 21:15:19:604,0,-54.6806,1.87362,148.043,Q,Q
2023-03-15 21:15:19:614,0,-54.6807,1.87111,148.044,Q,Q
2023-03-15 21:15:19:623,0,-54.6843,1.87281,148.046,Q,Q
2023-03-15 21:15:19:634,0,-54.6818,1.87716,148.048,Q,Q
2023-03-15 21:15:19:644,0,-54.6822,1.87739,148.048,Q,Q
2023-03-15 21:15:19:654,0,-54.6849,1.87778,148.044,Q,Q
2023-03-15 21:15:19:664,0,-54.6842,1.87703,148.047,Q,Q
2023-03-15 21:15:19:674,0,-54.6854,1.87825,148.044,Q,Q
2023-03-15 21:15:19:684,0,-54.687,1.87721,148.042,Q,Q
2023-03-15 21:15:19:694,0,-54.6867,1.87537,148.045,Q,Q
2023-03-15 21:15:19:704,0,-54.688,1.87134,148.044,Q,Q
2023-03-15 21:15:19:714,0,-54.689,1.869,148.042,Q,Q
2023-03-15 21:15:19:724,0,-54.6906,1.869,148.04,Q,Q
2023-03-15 21:15:19:734,0,-54.6906,1.86791,148.04,Q,Q
2023-03-15 21:15:19:744,0,-54.6904,1.86888,148.041,Q,Q
2023-03-15 21:15:19:754,0,-54.6909,1.86816,148.04,Q,Q
2023-03-15 21:15:19:764,0,-54.6918,1.86674,148.039,Q,Q
2023-03-15 21:15:19:774,0,-54.6928,1.86608,148.037,Q,Q
2023-03-15 21:15:19:784,0,-54.6908,1.86416,148.038,Q,Q
2023-03-15 21:15:19:794,0,-54.6912,1.8639,148.039,Q,Q
2023-03-15 21:15:19:804,0,-54.6928,1.86464,148.039,Q,Q
2023-03-15 21:15:19:814,0,-54.6891,1.86554,148.038,Q,Q
2023-03-15 21:15:19:824,0,-54.688,1.86821,148.038,Q,Q
2023-03-15 21:15:19:834,0,-54.6846,1.86766,148.038,Q,Q
2023-03-15 21:15:19:844,0,-54.6842,1.86691,148.037,Q,Q
2023-03-15 21:15:19:854,0,-54.682,1.86682,148.039,Q,Q
2023-03-15 21:15:19:864,0,-54.6809,1.8661,148.038,Q,Q
2023-03-15 21:15:19:874,0,-54.6801,1.86562,148.039,Q,Q
2023-03-15 21:15:19:884,0,-54.6828,1.8676,148.037,Q,Q
2023-03-15 21:15:19:894,0,-54.6862,1.86547,148.034,Q,Q
2023-03-15 21:15:19:904,0,-54.6871,1.86873,148.036,Q,Q
2023-03-15 21:15:19:914,0,-54.688,1.8676,148.035,Q,Q
2023-03-15 21:15:19:924,0,-54.6886,1.86828,148.036,Q,Q
2023-03-15 21:15:19:934,0,-54.6881,1.86718,148.037,Q,Q
2023-03-15 21:15:19:944,0,-54.6863,1.86869,148.035,Q,Q
2023-03-15 21:15:19:954,0,-54.6871,1.87241,148.033,Q,Q
2023-03-15 21:15:19:964,0,-54.6868,1.8706,148.033,Q,Q
2023-03-15 21:15:19:974,0,-54.691,1.86686,148.033,Q,Q
2023-03-15 21:15:19:984,0,-54.6934,1.86616,148.032,Q,Q
2023-03-15 21:15:19:994,0,-54.6937,1.86396,148.034,Q,Q
2023-03-15 21:15:20:4,0,-54.6937,1.86067,148.034,Q,Q
2023-03-15 21:15:20:14,0,-54.6946,1.86012,148.035,Q,Q
2023-03-15 21:15:20:24,0,-54.6963,1.86084,148.035,Q,Q
2023-03-15 21:15:20:34,0,-54.6988,1.85836,148.036,Q,Q
2023-03-15 21:15:20:44,0,-54.7025,1.85717,148.035,Q,Q
2023-03-15 21:15:20:54,0,-54.7013,1.85772,148.036,Q,Q
2023-03-15 21:15:20:64,0,-54.6995,1.85807,148.036,Q,Q
2023-03-15 21:15:20:74,0,-54.7022,1.85791,148.038,Q,Q
2023-03-15 21:15:20:84,0,-54.6999,1.85846,148.038,Q,Q
2023-03-15 21:15:20:94,0,-54.6975,1.85913,148.039,Q,Q
2023-03-15 21:15:20:104,0,-54.6989,1.86087,148.041,Q,Q
2023-03-15 21:15:20:114,0,-54.7016,1.86194,148.042,Q,Q
2023-03-15 21:15:20:124,0,-54.7013,1.86,148.042,Q,Q
2023-03-15 21:15:20:134,0,-54.7019,1.86168,148.043,Q,Q
2023-03-15 21:15:20:144,0,-54.7039,1.86475,148.045,Q,Q
2023-03-15 21:15:20:154,0,-54.7011,1.8631,148.046,Q,Q
2023-03-15 21:15:20:164,0,-54.7003,1.86238,148.048,Q,Q
2023-03-15 21:15:20:174,0,-54.6996,1.8651,148.047,Q,Q
2023-03-15 21:15:20:184,0,-54.7009,1.86389,148.048,Q,Q
2023-03-15 21:15:20:194,0,-54.703,1.86523,148.047,Q,Q
2023-03-15 21:15:20:204,0,-54.7038,1.86402,148.043,Q,Q
2023-03-15 21:15:20:214,0,-54.7046,1.86532,148.042,Q,Q
2023-03-15 21:15:20:224,0,-54.699,1.86535,148.044,Q,Q
2023-03-15 21:15:20:234,0,-54.7008,1.86741,148.045,Q,Q
2023-03-15 21:15:20:244,0,-54.7015,1.86619,148.046,Q,Q
2023-03-15 21:15:20:254,0,-54.7015,1.86812,148.049,Q,Q
2023-03-15 21:15:20:264,0,-54.7046,1.86771,148.048,Q,Q
2023-03-15 21:15:20:274,0,-54.7029,1.86648,148.047,Q,Q
2023-03-15 21:15:20:284,0,-54.7033,1.86829,148.049,Q,Q
2023-03-15 21:15:20:294,0,-54.7032,1.8681,148.047,Q,Q
2023-03-15 21:15:20:304,0,-54.7026,1.86637,148.047,Q,Q
2023-03-15 21:15:20:314,0,-54.7027,1.86975,148.049,Q,Q
2023-03-15 21:15:20:324,0,-54.7028,1.87072,148.05,Q,Q
2023-03-15 21:15:20:334,0,-54.7038,1.87126,148.052,Q,Q
2023-03-15 21:15:20:344,0,-54.7042,1.87176,148.053,Q,Q
2023-03-15 21:15:20:354,0,-54.7024,1.87244,148.052,Q,Q
2023-03-15 21:15:20:364,0,-54.6995,1.87299,148.053,Q,Q
2023-03-15 21:15:20:374,0,-54.6984,1.87126,148.052,Q,Q
2023-03-15 21:15:20:384,0,-54.6942,1.86868,148.053,Q,Q
2023-03-15 21:15:20:394,0,-54.6912,1.86774,148.054,Q,Q
2023-03-15 21:15:20:404,0,-54.6929,1.86772,148.055,Q,Q
2023-03-15 21:15:20:414,0,-54.6929,1.86572,148.055,Q,Q
2023-03-15 21:15:20:424,0,-54.6951,1.86567,148.056,Q,Q
2023-03-15 21:15:20:434,0,-54.695,1.86398,148.056,Q,Q
2023-03-15 21:15:20:444,0,-54.6959,1.86282,148.055,Q,Q
2023-03-15 21:15:20:454,0,-54.6975,1.86408,148.056,Q,Q
2023-03-15 21:15:20:464,0,-54.702,1.86418,148.056,Q,Q
2023-03-15 21:15:20:474,0,-54.7025,1.86462,148.056,Q,Q
2023-03-15 21:15:20:484,0,-54.7035,1.86267,148.057,Q,Q
2023-03-15 21:15:20:494,0,-54.7051,1.86128,148.058,Q,Q
2023-03-15 21:15:20:504,0,-54.7053,1.86273,148.055,Q,Q
2023-03-15 21:15:20:514,0,-54.7054,1.86283,148.055,Q,Q
2023-03-15 21:15:20:524,0,-54.705,1.86432,148.055,Q,Q
2023-03-15 21:15:20:534,0,-54.7064,1.86683,148.057,Q,Q
2023-03-15 21:15:20:544,0,-54.7083,1.86435,148.055,Q,Q
2023-03-15 21:15:20:554,0,-54.7108,1.86429,148.055,Q,Q
2023-03-15 21:15:20:564,0,-54.7092,1.86004,148.052,Q,Q
2023-03-15 21:15:20:574,0,-54.7063,1.86072,148.051,Q,Q
2023-03-15 21:15:20:584,0,-54.7063,1.86106,148.048,Q,Q
2023-03-15 21:15:20:594,0,-54.7064,1.85983,148.044,Q,Q
2023-03-15 21:15:20:604,0,-54.7068,1.85921,148.042,Q,Q
2023-03-15 21:15:20:614,0,-54.7096,1.85911,148.042,Q,Q
2023-03-15 21:15:20:624,0,-54.711,1.85897,148.039,Q,Q
2023-03-15 21:15:20:634,0,-54.713,1.85932,148.035,Q,Q
2023-03-15 21:15:20:644,0,-54.711,1.8586,148.033,Q,Q
2023-03-15 21:15:20:654,0,-54.71,1.8571,148.034,Q,Q
2023-03-15 21:15:20:664,0,-54.7108,1.85882,148.036,Q,Q
2023-03-15 21:15:20:674,0,-54.7141,1.86025,148.038,Q,Q
2023-03-15 21:15:20:684,0,-54.718,1.86037,148.035,Q,Q
2023-03-15 21:15:20:694,0,-54.7154,1.86049,148.038,Q,Q
2023-03-15 21:15:20:704,0,-54.7172,1.86009,148.037,Q,Q
2023-03-15 21:15:20:714,0,-54.7222,1.8589,148.035,Q,Q
2023-03-15 21:15:20:724,0,-54.7205,1.85777,148.037,Q,Q
2023-03-15 21:15:20:734,0,-54.7243,1.85573,148.036,Q,Q
2023-03-15 21:15:20:744,0,-54.7228,1.8566,148.034,Q,Q
2023-03-15 21:15:20:754,0,-54.7222,1.85857,148.033,Q,Q
2023-03-15 21:15:20:764,0,-54.7218,1.85916,148.036,Q,Q
2023-03-15 21:15:20:775,0,-54.7226,1.85979,148.033,Q,Q
2023-03-15 21:15:20:784,0,-54.7211,1.85946,148.033,Q,Q
2023-03-15 21:15:20:794,0,-54.7211,1.86143,148.033,Q,Q
2023-03-15 21:15:20:804,0,-54.7188,1.86331,148.034,Q,Q
2023-03-15 21:15:20:815,0,-54.721,1.8696,148.031,Q,Q
2023-03-15 21:15:20:824,0,-54.7196,1.87194,148.028,Q,Q
2023-03-15 21:15:20:834,0,-54.7193,1.86946,148.03,Q,Q
2023-03-15 21:15:20:844,0,-54.7195,1.86645,148.031,Q,Q
2023-03-15 21:15:20:854,0,-54.721,1.86706,148.027,Q,Q
2023-03-15 21:15:20:864,0,-54.719,1.86559,148.026,Q,Q
2023-03-15 21:15:20:875,0,-54.7229,1.86606,148.026,Q,Q
2023-03-15 21:15:20:884,0,-54.7221,1.86467,148.023,Q,Q
2023-03-15 21:15:20:894,0,-54.7207,1.86548,148.024,Q,Q
2023-03-15 21:15:20:904,0,-54.7175,1.86458,148.021,Q,Q
2023-03-15 21:15:20:914,0,-54.7157,1.866,148.022,Q,Q
2023-03-15 21:15:20:924,0,-54.7176,1.86812,148.025,Q,Q
2023-03-15 21:15:20:935,0,-54.7209,1.86864,148.024,Q,Q
2023-03-15 21:15:20:944,0,-54.7217,1.86779,148.023,Q,Q
2023-03-15 21:15:20:954,0,-54.7239,1.86665,148.025,Q,Q
2023-03-15 21:15:20:964,0,-54.7255,1.86769,148.021,Q,Q
2023-03-15 21:15:20:974,0,-54.7283,1.86461,148.022,Q,Q
2023-03-15 21:15:20:984,0,-54.7261,1.86625,148.025,Q,Q
2023-03-15 21:15:20:994,0,-54.7253,1.86414,148.027,Q,Q
2023-03-15 21:15:21:4,0,-54.7273,1.8658,148.028,Q,Q
2023-03-15 21:15:21:14,0,-54.7272,1.86464,148.027,Q,Q
2023-03-15 21:15:21:24,0,-54.7294,1.86612,148.029,Q,Q
2023-03-15 21:15:21:34,0,-54.7298,1.86424,148.029,Q,Q
2023-03-15 21:15:21:44,0,-54.7315,1.8649,148.027,Q,Q
2023-03-15 21:15:21:54,0,-54.7327,1.86451,148.027,Q,Q
2023-03-15 21:15:21:64,0,-54.7334,1.86507,148.025,Q,Q
2023-03-15 21:15:21:74,0,-54.7338,1.86793,148.025,Q,Q
2023-03-15 21:15:21:84,0,-54.7328,1.86718,148.022,Q,Q
2023-03-15 21:15:21:94,0,-54.7355,1.86819,148.023,Q,Q
2023-03-15 21:15:21:104,0,-54.7355,1.86656,148.021,Q,Q
2023-03-15 21:15:21:114,0,-54.7366,1.86378,148.018,Q,Q
2023-03-15 21:15:21:124,0,-54.7393,1.86498,148.019,Q,Q
2023-03-15 21:15:21:134,0,-54.7401,1.8654,148.018,Q,Q
2023-03-15 21:15:21:144,0,-54.7422,1.86664,148.02,Q,Q
2023-03-15 21:15:21:154,0,-54.7448,1.86789,148.02,Q,Q
2023-03-15 21:15:21:164,0,-54.7431,1.86576,148.02,Q,Q
2023-03-15 21:15:21:174,0,-54.7415,1.86485,148.02,Q,Q
2023-03-15 21:15:21:184,0,-54.741,1.86208,148.022,Q,Q
2023-03-15 21:15:21:195,0,-54.7388,1.86454,148.025,Q,Q
2023-03-15 21:15:21:204,0,-54.7394,1.86211,148.024,Q,Q
2023-03-15 21:15:21:214,0,-54.7406,1.86215,148.025,Q,Q
2023-03-15 21:15:21:224,0,-54.74,1.85988,148.027,Q,Q
2023-03-15 21:15:21:234,0,-54.7403,1.8604,148.025,Q,Q
2023-03-15 21:15:21:244,0,-54.7414,1.86276,148.024,Q,Q
2023-03-15 21:15:21:255,0,-54.7385,1.86263,148.022,Q,Q
2023-03-15 21:15:21:264,0,-54.7376,1.86423,148.021,Q,Q
2023-03-15 21:15:21:274,0,-54.7369,1.86315,148.02,Q,Q
2023-03-15 21:15:21:284,0,-54.7375,1.86496,148.019,Q,Q
2023-03-15 21:15:21:295,0,-54.7392,1.86509,148.018,Q,Q
2023-03-15 21:15:21:304,0,-54.7417,1.86618,148.018,Q,Q
2023-03-15 21:15:21:315,0,-54.7406,1.86554,148.018,Q,Q
2023-03-15 21:15:21:324,0,-54.7433,1.86467,148.019,Q,Q
2023-03-15 21:15:21:335,0,-54.7461,1.8642,148.02,Q,Q
2023-03-15 21:15:21:344,0,-54.7454,1.86415,148.021,Q,Q
2023-03-15 21:15:21:354,0,-54.7446,1.86326,148.021,Q,Q
2023-03-15 21:15:21:364,0,-54.7456,1.86514,148.019,Q,Q
2023-03-15 21:15:21:375,0,-54.745,1.86546,148.019,Q,Q
2023-03-15 21:15:21:384,0,-54.744,1.87045,148.018,Q,Q
2023-03-15 21:15:21:394,0,-54.7385,1.87212,148.017,Q,Q
2023-03-15 21:15:21:404,0,-54.7398,1.87177,148.018,Q,Q
2023-03-15 21:15:21:414,0,-54.7424,1.87249,148.017,Q,Q
2023-03-15 21:15:21:424,0,-54.7405,1.86947,148.015,Q,Q
2023-03-15 21:15:21:435,0,-54.741,1.87007,148.013,Q,Q
2023-03-15 21:15:21:444,0,-54.7386,1.8724,148.012,Q,Q
2023-03-15 21:15:21:455,0,-54.7407,1.8735,148.014,Q,Q
2023-03-15 21:15:21:464,0,-54.7396,1.872,148.013,Q,Q
2023-03-15 21:15:21:475,0,-54.7419,1.86998,148.013,Q,Q
2023-03-15 21:15:21:484,0,-54.7432,1.87175,148.013,Q,Q
2023-03-15 21:15:21:495,0,-54.746,1.87199,148.013,Q,Q
2023-03-15 21:15:21:504,0,-54.7474,1.87186,148.013,Q,Q
2023-03-15 21:15:21:514,0,-54.7474,1.871,148.013,Q,Q
2023-03-15 21:15:21:524,0,-54.7499,1.87429,148.01,Q,Q
2023-03-15 21:15:21:535,0,-54.7515,1.87483,148.007,Q,Q
2023-03-15 21:15:21:544,0,-54.7523,1.87381,148.007,Q,Q
2023-03-15 21:15:21:555,0,-54.7517,1.87455,148.006,Q,Q
2023-03-15 21:15:21:564,0,-54.7497,1.87378,148.006,Q,Q
2023-03-15 21:15:21:575,0,-54.7522,1.87322,148.007,Q,Q
2023-03-15 21:15:21:584,0,-54.752,1.87237,148.009,Q,Q
2023-03-15 21:15:21:595,0,-54.7539,1.87204,148.009,Q,Q
2023-03-15 21:15:21:604,0,-54.7561,1.87408,148.01,Q,Q
2023-03-15 21:15:21:615,0,-54.7547,1.87299,148.011,Q,Q
2023-03-15 21:15:21:624,0,-54.7542,1.87166,148.014,Q,Q
2023-03-15 21:15:21:634,0,-54.7558,1.87696,148.015,Q,Q
2023-03-15 21:15:21:645,0,-54.7556,1.88091,148.016,Q,Q
2023-03-15 21:15:21:655,0,-54.7533,1.88337,148.018,Q,Q
2023-03-15 21:15:21:664,0,-54.7523,1.8856,148.018,Q,Q
2023-03-15 21:15:21:675,0,-54.7527,1.8833,148.016,Q,Q
2023-03-15 21:15:21:685,0,-54.752,1.88329,148.015,Q,Q
2023-03-15 21:15:21:695,0,-54.7514,1.88199,148.014,Q,Q
2023-03-15 21:15:21:704,0,-54.7522,1.88145,148.017,Q,Q
2023-03-15 21:15:21:714,0,-54.7525,1.88405,148.017,Q,Q
2023-03-15 21:15:21:724,0,-54.7525,1.88456,148.018,Q,Q
2023-03-15 21:15:21:735,0,-54.754,1.88618,148.019,Q,Q
2023-03-15 21:15:21:744,0,-54.7557,1.88634,148.021,Q,Q
2023-03-15 21:15:21:755,0,-54.7552,1.88691,148.02,Q,Q
2023-03-15 21:15:21:765,0,-54.755,1.88791,148.02,Q,Q
2023-03-15 21:15:21:775,0,-54.7549,1.8875,148.019,Q,Q
2023-03-15 21:15:21:785,0,-54.7522,1.88587,148.018,Q,Q
2023-03-15 21:15:21:795,0,-54.7518,1.88529,148.019,Q,Q
2023-03-15 21:15:21:805,0,-54.7504,1.88424,148.019,Q,Q
2023-03-15 21:15:21:815,0,-54.7527,1.88295,148.017,Q,Q
2023-03-15 21:15:21:825,0,-54.7521,1.88147,148.013,Q,Q
2023-03-15 21:15:21:835,0,-54.7513,1.88322,148.011,Q,Q
2023-03-15 21:15:21:845,0,-54.7505,1.88271,148.01,Q,Q
2023-03-15 21:15:21:855,0,-54.7516,1.88216,148.012,Q,Q
2023-03-15 21:15:21:864,0,-54.753,1.88228,148.014,Q,Q
2023-03-15 21:15:21:875,0,-54.7544,1.88467,148.014,Q,Q
2023-03-15 21:15:21:885,0,-54.7537,1.88545,148.013,Q,Q
2023-03-15 21:15:21:895,0,-54.7536,1.88552,148.009,Q,Q
2023-03-15 21:15:21:905,0,-54.752,1.88573,148.013,Q,Q
2023-03-15 21:15:21:914,0,-54.7503,1.889,148.013,Q,Q
2023-03-15 21:15:21:924,0,-54.7473,1.89118,148.014,Q,Q
2023-03-15 21:15:21:934,0,-54.7463,1.89123,148.014,Q,Q
2023-03-15 21:15:21:944,0,-54.7503,1.89064,148.014,Q,Q
2023-03-15 21:15:21:954,0,-54.75,1.88828,148.014,Q,Q
2023-03-15 21:15:21:965,0,-54.7511,1.88888,148.015,Q,Q
2023-03-15 21:15:21:975,0,-54.7506,1.89029,148.018,Q,Q
2023-03-15 21:15:21:984,0,-54.7511,1.8917,148.02,Q,Q
2023-03-15 21:15:21:994,0,-54.7492,1.89071,148.022,Q,Q
2023-03-15 21:15:22:5,0,-54.7501,1.89114,148.021,Q,Q
2023-03-15 21:15:22:15,0,-54.7524,1.89296,148.02,Q,Q
2023-03-15 21:15:22:25,0,-54.7539,1.89098,148.02,Q,Q
2023-03-15 21:15:22:35,0,-54.7547,1.89134,148.02,Q,Q
2023-03-15 21:15:22:45,0,-54.7564,1.8922,148.021,Q,Q
2023-03-15 21:15:22:55,0,-54.7565,1.89228,148.021,Q,Q
2023-03-15 21:15:22:65,0,-54.7605,1.89323,148.023,Q,Q
2023-03-15 21:15:22:75,0,-54.7624,1.89243,148.026,Q,Q
2023-03-15 21:15:22:85,0,-54.7609,1.89175,148.027,Q,Q
2023-03-15 21:15:22:95,0,-54.7629,1.89295,148.026,Q,Q
2023-03-15 21:15:22:105,0,-54.7632,1.89023,148.024,Q,Q
2023-03-15 21:15:22:115,0,-54.7616,1.88925,148.021,Q,Q
2023-03-15 21:15:22:124,0,-54.7588,1.88994,148.02,Q,Q
2023-03-15 21:15:22:135,0,-54.7605,1.89273,148.022,Q,Q
2023-03-15 21:15:22:144,0,-54.7615,1.89352,148.022,Q,Q
2023-03-15 21:15:22:154,0,-54.762,1.89564,148.02,Q,Q
2023-03-15 21:15:22:165,0,-54.7612,1.89739,148.021,Q,Q
2023-03-15 21:15:22:175,0,-54.7645,1.89936,148.02,Q,Q
2023-03-15 21:15:22:185,0,-54.7624,1.89879,148.016,Q,Q
2023-03-15 21:15:22:195,0,-54.7614,1.9006,148.015,Q,Q
2023-03-15 21:15:22:205,0,-54.7612,1.89973,148.012,Q,Q
2023-03-15 21:15:22:215,0,-54.7623,1.8998,148.01,Q,Q
2023-03-15 21:15:22:224,0,-54.7626,1.89643,148.012,Q,Q
2023-03-15 21:15:22:234,0,-54.7605,1.89575,148.014,Q,Q
2023-03-15 21:15:22:244,0,-54.7608,1.89955,148.016,Q,Q
2023-03-15 21:15:22:254,0,-54.7612,1.89605,148.018,Q,Q
2023-03-15 21:15:22:265,0,-54.76,1.89621,148.021,Q,Q
2023-03-15 21:15:22:274,0,-54.7563,1.89425,148.023,Q,Q
2023-03-15 21:15:22:285,0,-54.7563,1.89331,148.02,Q,Q
2023-03-15 21:15:22:295,0,-54.7549,1.89799,148.019,Q,Q
2023-03-15 21:15:22:305,0,-54.7541,1.90202,148.018,Q,Q
2023-03-15 21:15:22:315,0,-54.7541,1.89948,148.016,Q,Q
2023-03-15 21:15:22:325,0,-54.7501,1.89983,148.015,Q,Q
2023-03-15 21:15:22:335,0,-54.7492,1.89905,148.015,Q,Q
2023-03-15 21:15:22:345,0,-54.7494,1.8984,148.013,Q,Q
2023-03-15 21:15:22:355,0,-54.7492,1.89942,148.011,Q,Q
2023-03-15 21:15:22:365,0,-54.7477,1.90001,148.011,Q,Q
2023-03-15 21:15:22:375,0,-54.747,1.90035,148.01,Q,Q
2023-03-15 21:15:22:384,0,-54.7479,1.8999,148.012,Q,Q
2023-03-15 21:15:22:394,0,-54.7511,1.89615,148.016,Q,Q
2023-03-15 21:15:22:405,0,-54.7513,1.89473,148.016,Q,Q
2023-03-15 21:15:22:415,0,-54.7515,1.89527,148.017,Q,Q
2023-03-15 21:15:22:425,0,-54.7487,1.89502,148.017,Q,Q
2023-03-15 21:15:22:435,0,-54.7462,1.89481,148.019,Q,Q
2023-03-15 21:15:22:445,0,-54.7448,1.89368,148.018,Q,Q
2023-03-15 21:15:22:455,0,-54.7456,1.89262,148.018,Q,Q
2023-03-15 21:15:22:464,0,-54.7478,1.89102,148.018,Q,Q
2023-03-15 21:15:22:475,0,-54.746,1.88928,148.02,Q,Q
2023-03-15 21:15:22:485,0,-54.7482,1.89024,148.02,Q,Q
2023-03-15 21:15:22:495,0,-54.7468,1.89259,148.019,Q,Q
2023-03-15 21:15:22:505,0,-54.7458,1.89256,148.019,Q,Q
2023-03-15 21:15:22:515,0,-54.7425,1.89406,148.02,Q,Q
2023-03-15 21:15:22:525,0,-54.7388,1.89099,148.02,Q,Q
2023-03-15 21:15:22:535,0,-54.7394,1.88938,148.023,Q,Q
2023-03-15 21:15:22:545,0,-54.7397,1.89068,148.02,Q,Q
2023-03-15 21:15:22:555,0,-54.7384,1.89442,148.019,Q,Q
2023-03-15 21:15:22:565,0,-54.7401,1.89385,148.021,Q,Q
2023-03-15 21:15:22:575,0,-54.7394,1.8952,148.021,Q,Q
2023-03-15 21:15:22:584,0,-54.739,1.89543,148.021,Q,Q
2023-03-15 21:15:22:595,0,-54.737,1.89814,148.022,Q,Q
2023-03-15 21:15:22:605,0,-54.737,1.90081,148.026,Q,Q
2023-03-15 21:15:22:615,0,-54.738,1.90108,148.029,Q,Q
2023-03-15 21:15:22:624,0,-54.7361,1.90282,148.031,Q,Q
2023-03-15 21:15:22:635,0,-54.7377,1.90262,148.029,Q,Q
2023-03-15 21:15:22:645,0,-54.7373,1.8983,148.029,Q,Q
2023-03-15 21:15:22:655,0,-54.7345,1.89494,148.03,Q,Q
2023-03-15 21:15:22:664,0,-54.7337,1.89301,148.029,Q,Q
2023-03-15 21:15:22:675,0,-54.7353,1.89146,148.03,Q,Q
2023-03-15 21:15:22:684,0,-54.737,1.89521,148.028,Q,Q
2023-03-15 21:15:22:695,0,-54.7354,1.89395,148.028,Q,Q
2023-03-15 21:15:22:705,0,-54.7356,1.89513,148.028,Q,Q
2023-03-15 21:15:22:715,0,-54.7371,1.89647,148.028,Q,Q
2023-03-15 21:15:22:725,0,-54.7399,1.8971,148.029,Q,Q
2023-03-15 21:15:22:735,0,-54.7368,1.89916,148.03,Q,Q
2023-03-15 21:15:22:745,0,-54.734,1.90054,148.027,Q,Q
2023-03-15 21:15:22:755,0,-54.7349,1.89899,148.027,Q,Q
2023-03-15 21:15:22:765,0,-54.7381,1.89886,148.026,Q,Q
2023-03-15 21:15:22:775,0,-54.7357,1.89954,148.028,Q,Q
2023-03-15 21:15:22:785,0,-54.7332,1.89874,148.029,Q,Q
2023-03-15 21:15:22:795,0,-54.7314,1.89739,148.028,Q,Q
2023-03-15 21:15:22:805,0,-54.7351,1.89334,148.028,Q,Q
2023-03-15 21:15:22:815,0,-54.734,1.89242,148.029,Q,Q
2023-03-15 21:15:22:825,0,-54.7357,1.89411,148.03,Q,Q
2023-03-15 21:15:22:835,0,-54.7339,1.89677,148.029,Q,Q
2023-03-15 21:15:22:845,0,-54.7323,1.89675,148.03,Q,Q
2023-03-15 21:15:22:855,0,-54.7277,1.89638,148.031,Q,Q
2023-03-15 21:15:22:865,0,-54.725,1.89789,148.031,Q,Q
2023-03-15 21:15:22:875,0,-54.7227,1.89847,148.031,Q,Q
2023-03-15 21:15:22:885,0,-54.7233,1.89651,148.032,Q,Q
2023-03-15 21:15:22:895,0,-54.724,1.89535,148.033,Q,Q
2023-03-15 21:15:22:905,0,-54.7251,1.89676,148.032,Q,Q
2023-03-15 21:15:22:915,0,-54.7251,1.89745,148.035,Q,Q
2023-03-15 21:15:22:925,0,-54.7254,1.90136,148.034,Q,Q
2023-03-15 21:15:22:935,0,-54.7236,1.90234,148.034,Q,Q
2023-03-15 21:15:22:945,0,-54.723,1.90229,148.035,Q,Q
2023-03-15 21:15:22:955,0,-54.723,1.89958,148.037,Q,Q
2023-03-15 21:15:22:965,0,-54.7266,1.89965,148.039,Q,Q
2023-03-15 21:15:22:975,0,-54.7288,1.90059,148.039,Q,Q
2023-03-15 21:15:22:985,0,-54.729,1.90388,148.039,Q,Q
2023-03-15 21:15:22:995,0,-54.7291,1.90462,148.039,Q,Q
2023-03-15 21:15:23:5,0,-54.7288,1.90421,148.039,Q,Q
2023-03-15 21:15:23:15,0,-54.7305,1.90343,148.044,Q,Q
2023-03-15 21:15:23:25,0,-54.7306,1.90398,148.045,Q,Q
2023-03-15 21:15:23:35,0,-54.7335,1.90418,148.044,Q,Q
2023-03-15 21:15:23:45,0,-54.7358,1.90578,148.043,Q,Q
2023-03-15 21:15:23:55,0,-54.7358,1.90491,148.045,Q,Q
2023-03-15 21:15:23:65,0,-54.7365,1.90561,148.046,Q,Q
2023-03-15 21:15:23:75,0,-54.7357,1.90868,148.048,Q,Q
2023-03-15 21:15:23:85,0,-54.7371,1.91309,148.047,Q,Q
2023-03-15 21:15:23:95,0,-54.7379,1.9122,148.045,Q,Q
2023-03-15 21:15:23:105,0,-54.7391,1.91281,148.049,Q,Q
2023-03-15 21:15:23:115,0,-54.7395,1.91208,148.052,Q,Q
2023-03-15 21:15:23:125,0,-54.7395,1.91396,148.054,Q,Q
2023-03-15 21:15:23:135,0,-54.7424,1.91373,148.055,Q,Q
2023-03-15 21:15:23:145,0,-54.7414,1.91243,148.055,Q,Q
2023-03-15 21:15:23:155,0,-54.7432,1.91292,148.055,Q,Q
2023-03-15 21:15:23:165,0,-54.7452,1.91226,148.054,Q,Q
2023-03-15 21:15:23:175,0,-54.7424,1.9131,148.051,Q,Q
2023-03-15 21:15:23:185,0,-54.7392,1.91271,148.051,Q,Q
2023-03-15 21:15:23:195,0,-54.7388,1.91805,148.049,Q,Q
2023-03-15 21:15:23:205,0,-54.7394,1.91835,148.047,Q,Q
2023-03-15 21:15:23:215,0,-54.7382,1.9208,148.047,Q,Q
2023-03-15 21:15:23:225,0,-54.7394,1.92038,148.049,Q,Q
2023-03-15 21:15:23:235,0,-54.7384,1.92426,148.05,Q,Q
2023-03-15 21:15:23:245,0,-54.7376,1.92333,148.051,Q,Q
2023-03-15 21:15:23:255,0,-54.7365,1.92285,148.047,Q,Q
2023-03-15 21:15:23:265,0,-54.7353,1.92329,148.043,Q,Q
2023-03-15 21:15:23:275,0,-54.7345,1.92441,148.043,Q,Q
2023-03-15 21:15:23:285,0,-54.7346,1.92381,148.041,Q,Q
2023-03-15 21:15:23:295,0,-54.7353,1.92437,148.039,Q,Q
2023-03-15 21:15:23:305,0,-54.7364,1.92443,148.041,Q,Q
2023-03-15 21:15:23:315,0,-54.7365,1.92834,148.04,Q,Q
2023-03-15 21:15:23:325,0,-54.7358,1.92812,148.037,Q,Q
2023-03-15 21:15:23:335,0,-54.7393,1.92636,148.034,Q,Q
2023-03-15 21:15:23:345,0,-54.7399,1.92817,148.031,Q,Q
2023-03-15 21:15:23:355,0,-54.7421,1.92741,148.031,Q,Q
2023-03-15 21:15:23:365,0,-54.7414,1.92546,148.029,Q,Q
2023-03-15 21:15:23:375,0,-54.7397,1.92461,148.029,Q,Q
2023-03-15 21:15:23:385,0,-54.7397,1.92634,148.029,Q,Q
2023-03-15 21:15:23:395,0,-54.7401,1.9269,148.031,Q,Q
2023-03-15 21:15:23:405,0,-54.7419,1.92828,148.03,Q,Q
2023-03-15 21:15:23:415,0,-54.7438,1.92862,148.033,Q,Q
2023-03-15 21:15:23:425,0,-54.7456,1.92698,148.031,Q,Q
2023-03-15 21:15:23:435,0,-54.744,1.92488,148.032,Q,Q
2023-03-15 21:15:23:445,0,-54.7448,1.92572,148.034,Q,Q
2023-03-15 21:15:23:455,0,-54.7455,1.92657,148.031,Q,Q
2023-03-15 21:15:23:465,0,-54.7442,1.92749,148.029,Q,Q
2023-03-15 21:15:23:475,0,-54.7445,1.92963,148.032,Q,Q
2023-03-15 21:15:23:485,0,-54.7455,1.9327,148.033,Q,Q
2023-03-15 21:15:23:495,0,-54.7447,1.93279,148.034,Q,Q
2023-03-15 21:15:23:505,0,-54.7427,1.93331,148.033,Q,Q
2023-03-15 21:15:23:515,0,-54.7396,1.9361,148.031,Q,Q
2023-03-15 21:15:23:525,0,-54.7393,1.93522,148.029,Q,Q
2023-03-15 21:15:23:535,0,-54.7428,1.93433,148.031,Q,Q
2023-03-15 21:15:23:545,0,-54.7461,1.9322,148.03,Q,Q
2023-03-15 21:15:23:555,0,-54.7427,1.93268,148.027,Q,Q
2023-03-15 21:15:23:565,0,-54.7445,1.93339,148.031,Q,Q
2023-03-15 21:15:23:575,0,-54.7441,1.93321,148.029,Q,Q
2023-03-15 21:15:23:585,0,-54.7427,1.93494,148.028,Q,Q
2023-03-15 21:15:23:595,0,-54.7441,1.93538,148.031,Q,Q
2023-03-15 21:15:23:605,0,-54.742,1.9314,148.031,Q,Q
2023-03-15 21:15:23:615,0,-54.7421,1.93371,148.03,Q,Q
2023-03-15 21:15:23:625,0,-54.7432,1.93461,148.027,Q,Q
2023-03-15 21:15:23:635,0,-54.7403,1.93321,148.029,Q,Q
2023-03-15 21:15:23:645,0,-54.7424,1.93451,148.029,Q,Q
2023-03-15 21:15:23:655,0,-54.7406,1.93831,148.028,Q,Q
2023-03-15 21:15:23:665,0,-54.7404,1.94037,148.026,Q,Q
2023-03-15 21:15:23:675,0,-54.7408,1.94426,148.027,Q,Q
2023-03-15 21:15:23:685,0,-54.7401,1.94376,148.027,Q,Q
2023-03-15 21:15:23:695,0,-54.7376,1.94494,148.024,Q,Q
2023-03-15 21:15:23:705,0,-54.7374,1.94321,148.024,Q,Q
2023-03-15 21:15:23:715,0,-54.738,1.94218,148.023,Q,Q
2023-03-15 21:15:23:725,0,-54.7358,1.94078,148.024,Q,Q
2023-03-15 21:15:23:735,0,-54.736,1.93917,148.024,Q,Q
2023-03-15 21:15:23:745,0,-54.7332,1.9394,148.024,Q,Q
2023-03-15 21:15:23:755,0,-54.7352,1.93969,148.023,Q,Q
2023-03-15 21:15:23:765,0,-54.7373,1.93652,148.023,Q,Q
2023-03-15 21:15:23:775,0,-54.7351,1.93383,148.023,Q,Q
2023-03-15 21:15:23:785,0,-54.735,1.93352,148.023,Q,Q
2023-03-15 21:15:23:795,0,-54.7371,1.93169,148.025,Q,Q
2023-03-15 21:15:23:805,0,-54.737,1.93028,148.023,Q,Q
2023-03-15 21:15:23:815,0,-54.7357,1.93178,148.026,Q,Q
2023-03-15 21:15:23:825,0,-54.737,1.93132,148.027,Q,Q
2023-03-15 21:15:23:835,0,-54.7392,1.92987,148.028,Q,Q
2023-03-15 21:15:23:845,0,-54.7383,1.92954,148.027,Q,Q
2023-03-15 21:15:23:855,0,-54.7377,1.92707,148.025,Q,Q
2023-03-15 21:15:23:865,0,-54.7354,1.92821,148.025,Q,Q
2023-03-15 21:15:23:875,0,-54.7355,1.92906,148.026,Q,Q
2023-03-15 21:15:23:885,0,-54.7374,1.92946,148.023,Q,Q
2023-03-15 21:15:23:895,0,-54.7367,1.92798,148.02,Q,Q
2023-03-15 21:15:23:905,0,-54.7353,1.92804,148.02,Q,Q
2023-03-15 21:15:23:915,0,-54.7342,1.92702,148.017,Q,Q
2023-03-15 21:15:23:925,0,-54.7325,1.92478,148.014,Q,Q
2023-03-15 21:15:23:935,0,-54.7315,1.92511,148.013,Q,Q
2023-03-15 21:15:23:945,0,-54.7309,1.92405,148.011,Q,Q
2023-03-15 21:15:23:955,0,-54.7304,1.92418,148.011,Q,Q
2023-03-15 21:15:23:965,0,-54.7297,1.92518,148.01,Q,Q
2023-03-15 21:15:23:975,0,-54.7286,1.92475,148.007,Q,Q
2023-03-15 21:15:23:985,0,-54.7283,1.92092,148.007,Q,Q
2023-03-15 21:15:23:995,0,-54.7326,1.91968,148.008,Q,Q
2023-03-15 21:15:24:5,0,-54.7311,1.91818,148.008,Q,Q
2023-03-15 21:15:24:15,0,-54.7308,1.91914,148.007,Q,Q
2023-03-15 21:15:24:25,0,-54.7278,1.91937,148.006,Q,Q
2023-03-15 21:15:24:35,0,-54.7299,1.9219,148.006,Q,Q
2023-03-15 21:15:24:45,0,-54.727,1.92323,148.006,Q,Q
2023-03-15 21:15:24:55,0,-54.7253,1.92151,148.006,Q,Q
2023-03-15 21:15:24:65,0,-54.7218,1.92264,148.008,Q,Q
2023-03-15 21:15:24:75,0,-54.7211,1.91954,148.01,Q,Q
2023-03-15 21:15:24:85,0,-54.7211,1.91441,148.007,Q,Q
2023-03-15 21:15:24:95,0,-54.7213,1.91507,148.009,Q,Q
2023-03-15 21:15:24:105,0,-54.721,1.91454,148.01,Q,Q
2023-03-15 21:15:24:115,0,-54.7213,1.91317,148.008,Q,Q
2023-03-15 21:15:24:125,0,-54.7216,1.91261,148.007,Q,Q
2023-03-15 21:15:24:135,0,-54.7215,1.91111,148.009,Q,Q
2023-03-15 21:15:24:145,0,-54.7231,1.91225,148.01,Q,Q
2023-03-15 21:15:24:155,0,-54.7226,1.91619,148.011,Q,Q
2023-03-15 21:15:24:165,0,-54.7219,1.91082,148.009,Q,Q
2023-03-15 21:15:24:175,0,-54.7232,1.91438,148.009,Q,Q
2023-03-15 21:15:24:185,0,-54.7246,1.91441,148.009,Q,Q
2023-03-15 21:15:24:195,0,-54.7237,1.91737,148.009,Q,Q
2023-03-15 21:15:24:205,0,-54.722,1.916,148.007,Q,Q
2023-03-15 21:15:24:215,0,-54.724,1.91244,148.007,Q,Q
2023-03-15 21:15:24:225,0,-54.7245,1.91563,148.007,Q,Q
2023-03-15 21:15:24:235,0,-54.7232,1.91587,148.008,Q,Q
2023-03-15 21:15:24:245,0,-54.7191,1.91636,148.009,Q,Q
2023-03-15 21:15:24:255,0,-54.7203,1.91637,148.007,Q,Q
2023-03-15 21:15:24:265,0,-54.7193,1.91728,148.007,Q,Q
2023-03-15 21:15:24:275,0,-54.7219,1.91809,148.006,Q,Q
2023-03-15 21:15:24:285,0,-54.7236,1.9213,148.005,Q,Q
2023-03-15 21:15:24:295,0,-54.7229,1.92314,148.007,Q,Q
2023-03-15 21:15:24:305,0,-54.7235,1.9256,148.009,Q,Q
2023-03-15 21:15:24:315,0,-54.7254,1.92622,148.007,Q,Q
2023-03-15 21:15:24:325,0,-54.7222,1.92762,148.007,Q,Q
2023-03-15 21:15:24:335,0,-54.7246,1.92669,148.01,Q,Q
2023-03-15 21:15:24:345,0,-54.7294,1.92499,148.012,Q,Q
2023-03-15 21:15:24:355,0,-54.7286,1.92812,148.011,Q,Q
2023-03-15 21:15:24:365,0,-54.7289,1.92879,148.009,Q,Q
2023-03-15 21:15:24:375,0,-54.7333,1.92909,148.01,Q,Q
2023-03-15 21:15:24:385,0,-54.7331,1.93124,148.011,Q,Q
2023-03-15 21:15:24:395,0,-54.7306,1.93172,148.011,Q,Q
2023-03-15 21:15:24:405,0,-54.7309,1.9366,148.012,Q,Q
2023-03-15 21:15:24:415,0,-54.7296,1.93773,148.016,Q,Q
2023-03-15 21:15:24:425,0,-54.7296,1.93736,148.021,Q,Q
2023-03-15 21:15:24:435,0,-54.7294,1.93707,148.021,Q,Q
2023-03-15 21:15:24:445,0,-54.7289,1.93689,148.022,Q,Q
2023-03-15 21:15:24:455,0,-54.7274,1.93497,148.025,Q,Q
2023-03-15 21:15:24:465,0,-54.7272,1.93339,148.025,Q,Q
2023-03-15 21:15:24:475,0,-54.7282,1.93165,148.022,Q,Q
2023-03-15 21:15:24:485,0,-54.7278,1.93285,148.021,Q,Q
2023-03-15 21:15:24:495,0,-54.7277,1.93277,148.02,Q,Q
2023-03-15 21:15:24:505,0,-54.7293,1.93123,148.02,Q,Q
2023-03-15 21:15:24:515,0,-54.7272,1.93026,148.02,Q,Q
2023-03-15 21:15:24:525,0,-54.7259,1.92977,148.02,Q,Q
2023-03-15 21:15:24:535,0,-54.7272,1.92877,148.021,Q,Q
2023-03-15 21:15:24:545,0,-54.7271,1.92868,148.024,Q,Q
2023-03-15 21:15:24:555,0,-54.727,1.92573,148.025,Q,Q
2023-03-15 21:15:24:565,0,-54.7253,1.92088,148.025,Q,Q
2023-03-15 21:15:24:575,0,-54.7275,1.91881,148.024,Q,Q
2023-03-15 21:15:24:585,0,-54.7242,1.91643,148.019,Q,Q
2023-03-15 21:15:24:595,0,-54.7245,1.91841,148.02,Q,Q
2023-03-15 21:15:24:605,0,-54.7246,1.9189,148.022,Q,Q
2023-03-15 21:15:24:615,0,-54.723,1.91523,148.02,Q,Q
2023-03-15 21:15:24:625,0,-54.7255,1.91353,148.021,Q,Q
2023-03-15 21:15:24:635,0,-54.7265,1.91412,148.024,Q,Q
2023-03-15 21:15:24:645,0,-54.7278,1.913,148.022,Q,Q
2023-03-15 21:15:24:655,0,-54.724,1.9151,148.022,Q,Q
2023-03-15 21:15:24:665,0,-54.7249,1.91648,148.025,Q,Q
2023-03-15 21:15:24:675,0,-54.726,1.9142,148.028,Q,Q
2023-03-15 21:15:24:685,0,-54.7244,1.91181,148.03,Q,Q
2023-03-15 21:15:24:695,0,-54.7237,1.90928,148.031,Q,Q
2023-03-15 21:15:24:705,0,-54.7235,1.91192,148.028,Q,Q
2023-03-15 21:15:24:715,0,-54.7237,1.91423,148.03,Q,Q
2023-03-15 21:15:24:725,0,-54.7203,1.91389,148.033,Q,Q
2023-03-15 21:15:24:735,0,-54.7218,1.91615,148.032,Q,Q
2023-03-15 21:15:24:745,0,-54.72,1.91543,148.034,Q,Q
2023-03-15 21:15:24:755,0,-54.7176,1.91723,148.035,Q,Q
2023-03-15 21:15:24:765,0,-54.7218,1.92037,148.037,Q,Q
2023-03-15 21:15:24:775,0,-54.7204,1.91979,148.034,Q,Q
2023-03-15 21:15:24:785,0,-54.7212,1.91639,148.035,Q,Q
2023-03-15 21:15:24:795,0,-54.7206,1.91745,148.033,Q,Q
2023-03-15 21:15:24:805,0,-54.7202,1.91569,148.031,Q,Q
2023-03-15 21:15:24:815,0,-54.7195,1.918,148.028,Q,Q
2023-03-15 21:15:24:825,0,-54.7169,1.91926,148.026,Q,Q
2023-03-15 21:15:24:835,0,-54.7176,1.91848,148.028,Q,Q
2023-03-15 21:15:24:845,0,-54.7174,1.92089,148.023,Q,Q
2023-03-15 21:15:24:855,0,-54.7158,1.92138,148.023,Q,Q
2023-03-15 21:15:24:865,0,-54.7138,1.9231,148.021,Q,Q
2023-03-15 21:15:24:875,0,-54.7117,1.92284,148.022,Q,Q
2023-03-15 21:15:24:885,0,-54.7107,1.92105,148.023,Q,Q
2023-03-15 21:15:24:895,0,-54.7115,1.92176,148.022,Q,Q
2023-03-15 21:15:24:905,0,-54.71,1.9198,148.021,Q,Q
2023-03-15 21:15:24:915,0,-54.7116,1.91714,148.021,Q,Q
2023-03-15 21:15:24:925,0,-54.7111,1.9175,148.022,Q,Q
2023-03-15 21:15:24:935,0,-54.7089,1.92092,148.023,Q,Q
2023-03-15 21:15:24:945,0,-54.7103,1.92208,148.021,Q,Q
2023-03-15 21:15:24:955,0,-54.7104,1.92021,148.023,Q,Q
2023-03-15 21:15:24:965,0,-54.7116,1.91928,148.025,Q,Q
2023-03-15 21:15:24:975,0,-54.7101,1.92102,148.024,Q,Q
2023-03-15 21:15:24:985,0,-54.7105,1.92159,148.024,Q,Q
2023-03-15 21:15:24:995,0,-54.7108,1.92094,148.025,Q,Q
2023-03-15 21:15:25:5,0,-54.712,1.92012,148.023,Q,Q
2023-03-15 21:15:25:15,0,-54.7148,1.91957,148.021,Q,Q
2023-03-15 21:15:25:25,0,-54.7137,1.92116,148.02,Q,Q
2023-03-15 21:15:25:35,0,-54.713,1.92254,148.017,Q,Q
2023-03-15 21:15:25:45,0,-54.714,1.92313,148.017,Q,Q
2023-03-15 21:15:25:55,0,-54.7144,1.92081,148.018,Q,Q
2023-03-15 21:15:25:65,0,-54.7141,1.91895,148.016,Q,Q
2023-03-15 21:15:25:75,0,-54.713,1.91766,148.016,Q,Q
2023-03-15 21:15:25:85,0,-54.7116,1.91563,148.014,Q,Q
2023-03-15 21:15:25:95,0,-54.7123,1.91521,148.016,Q,Q
2023-03-15 21:15:25:105,0,-54.711,1.91673,148.013,Q,Q
2023-03-15 21:15:25:115,0,-54.7111,1.91873,148.013,Q,Q
2023-03-15 21:15:25:125,0,-54.7099,1.91938,148.012,Q,Q
2023-03-15 21:15:25:135,0,-54.7115,1.91661,148.01,Q,Q
2023-03-15 21:15:25:145,0,-54.7105,1.91594,148.009,Q,Q
2023-03-15 21:15:25:155,0,-54.7131,1.91295,148.007,Q,Q
2023-03-15 21:15:25:165,0,-54.7124,1.90937,148.007,Q,Q
2023-03-15 21:15:25:175,0,-54.7128,1.90954,148.007,Q,Q
2023-03-15 21:15:25:185,0,-54.712,1.90675,148.009,Q,Q
2023-03-15 21:15:25:195,0,-54.7133,1.90882,148.009,Q,Q
2023-03-15 21:15:25:205,0,-54.7133,1.90957,148.011,Q,Q
2023-03-15 21:15:25:215,0,-54.7157,1.90918,148.013,Q,Q
2023-03-15 21:15:25:225,0,-54.7159,1.91092,148.011,Q,Q
2023-03-15 21:15:25:235,0,-54.7153,1.9118,148.012,Q,Q
2023-03-15 21:15:25:245,0,-54.7143,1.9104,148.013,Q,Q
2023-03-15 21:15:25:255,0,-54.7136,1.90993,148.014,Q,Q
2023-03-15 21:15:25:265,0,-54.7151,1.91072,148.015,Q,Q
2023-03-15 21:15:25:275,0,-54.7124,1.91721,148.015,Q,Q
2023-03-15 21:15:25:285,0,-54.7139,1.91598,148.015,Q,Q
2023-03-15 21:15:25:295,0,-54.7131,1.91372,148.014,Q,Q
2023-03-15 21:15:25:305,0,-54.7137,1.913,148.015,Q,Q
2023-03-15 21:15:25:315,0,-54.7128,1.91324,148.015,Q,Q
2023-03-15 21:15:25:325,0,-54.7106,1.91493,148.015,Q,Q
2023-03-15 21:15:25:335,0,-54.712,1.91524,148.016,Q,Q
2023-03-15 21:15:25:345,0,-54.7116,1.91216,148.015,Q,Q
2023-03-15 21:15:25:355,0,-54.7133,1.91175,148.016,Q,Q
2023-03-15 21:15:25:365,0,-54.7132,1.91199,148.016,Q,Q
2023-03-15 21:15:25:375,0,-54.7138,1.91144,148.019,Q,Q
2023-03-15 21:15:25:385,0,-54.7116,1.91001,148.02,Q,Q
2023-03-15 21:15:25:395,0,-54.7116,1.91108,148.022,Q,Q
2023-03-15 21:15:25:405,0,-54.7142,1.91333,148.02,Q,Q
2023-03-15 21:15:25:415,0,-54.7162,1.91533,148.021,Q,Q
2023-03-15 21:15:25:425,0,-54.7175,1.91477,148.018,Q,Q
2023-03-15 21:15:25:435,0,-54.7166,1.91211,148.016,Q,Q
2023-03-15 21:15:25:445,0,-54.716,1.90786,148.016,Q,Q
2023-03-15 21:15:25:455,0,-54.7174,1.90961,148.017,Q,Q
2023-03-15 21:15:25:465,0,-54.7168,1.91125,148.014,Q,Q
2023-03-15 21:15:25:475,0,-54.719,1.91263,148.014,Q,Q
2023-03-15 21:15:25:485,0,-54.7175,1.91286,148.013,Q,Q
2023-03-15 21:15:25:495,0,-54.7145,1.91229,148.014,Q,Q
2023-03-15 21:15:25:505,0,-54.7138,1.90798,148.016,Q,Q
2023-03-15 21:15:25:515,0,-54.7134,1.91067,148.016,Q,Q
2023-03-15 21:15:25:525,0,-54.7097,1.90974,148.015,Q,Q
2023-03-15 21:15:25:535,0,-54.711,1.90906,148.018,Q,Q
2023-03-15 21:15:25:545,0,-54.711,1.91015,148.016,Q,Q
2023-03-15 21:15:25:555,0,-54.7112,1.91236,148.013,Q,Q
2023-03-15 21:15:25:565,0,-54.7142,1.91292,148.014,Q,Q
2023-03-15 21:15:25:575,0,-54.7159,1.91251,148.015,Q,Q
2023-03-15 21:15:25:585,0,-54.7177,1.9105,148.014,Q,Q
2023-03-15 21:15:25:596,0,-54.7162,1.90907,148.012,Q,Q
2023-03-15 21:15:25:606,0,-54.7206,1.90971,148.012,Q,Q
2023-03-15 21:15:25:616,0,-54.7197,1.90861,148.011,Q,Q
2023-03-15 21:15:25:626,0,-54.7187,1.91106,148.012,Q,Q
2023-03-15 21:15:25:635,0,-54.7166,1.90771,148.011,Q,Q
2023-03-15 21:15:25:645,0,-54.7184,1.90625,148.012,Q,Q
2023-03-15 21:15:25:655,0,-54.7188,1.90714,148.009,Q,Q
2023-03-15 21:15:25:666,0,-54.7197,1.90934,148.01,Q,Q
2023-03-15 21:15:25:675,0,-54.7182,1.90978,148.01,Q,Q
2023-03-15 21:15:25:686,0,-54.7232,1.90686,148.007,Q,Q
2023-03-15 21:15:25:695,0,-54.7228,1.90727,148.007,Q,Q
2023-03-15 21:15:25:705,0,-54.7238,1.90996,148.01,Q,Q
2023-03-15 21:15:25:715,0,-54.7209,1.90652,148.008,Q,Q
2023-03-15 21:15:25:725,0,-54.7219,1.90573,148.011,Q,Q
2023-03-15 21:15:25:735,0,-54.7223,1.90785,148.009,Q,Q
2023-03-15 21:15:25:745,0,-54.7213,1.9099,148.01,Q,Q
2023-03-15 21:15:25:755,0,-54.7202,1.91289,148.01,Q,Q
2023-03-15 21:15:25:765,0,-54.72,1.91298,148.012,Q,Q
2023-03-15 21:15:25:775,0,-54.72,1.91344,148.011,Q,Q
2023-03-15 21:15:25:786,0,-54.7228,1.91295,148.013,Q,Q
2023-03-15 21:15:25:795,0,-54.7236,1.91492,148.012,Q,Q
2023-03-15 21:15:25:805,0,-54.7214,1.91541,148.011,Q,Q
2023-03-15 21:15:25:815,0,-54.7223,1.91608,148.011,Q,Q
2023-03-15 21:15:25:826,0,-54.7229,1.91573,148.01,Q,Q
2023-03-15 21:15:25:835,0,-54.7203,1.91231,148.009,Q,Q
2023-03-15 21:15:25:846,0,-54.7194,1.91022,148.008,Q,Q
2023-03-15 21:15:25:855,0,-54.7184,1.90588,148.01,Q,Q
2023-03-15 21:15:25:866,0,-54.717,1.90722,148.012,Q,Q
2023-03-15 21:15:25:875,0,-54.7152,1.90615,148.012,Q,Q
2023-03-15 21:15:25:886,0,-54.7137,1.9028,148.009,Q,Q
2023-03-15 21:15:25:895,0,-54.7133,1.90342,148.013,Q,Q
2023-03-15 21:15:25:905,0,-54.7144,1.90231,148.014,Q,Q
2023-03-15 21:15:25:915,0,-54.7142,1.90451,148.013,Q,Q
2023-03-15 21:15:25:925,0,-54.7139,1.90551,148.011,Q,Q
2023-03-15 21:15:25:935,0,-54.7115,1.90431,148.011,Q,Q
2023-03-15 21:15:25:946,0,-54.7122,1.90666,148.009,Q,Q
2023-03-15 21:15:25:955,0,-54.7096,1.9057,148.007,Q,Q
2023-03-15 21:15:25:966,0,-54.71,1.90462,148.005,Q,Q
2023-03-15 21:15:25:975,0,-54.7085,1.90255,148.004,Q,Q
2023-03-15 21:15:25:985,0,-54.7122,1.90356,148.004,Q,Q
2023-03-15 21:15:25:996,0,-54.7124,1.9032,148.004,Q,Q
2023-03-15 21:15:26:6,0,-54.7134,1.90607,148.002,Q,Q
2023-03-15 21:15:26:16,0,-54.7143,1.90433,148.002,Q,Q
2023-03-15 21:15:26:26,0,-54.7119,1.90335,148.0,Q,Q
2023-03-15 21:15:26:36,0,-54.7145,1.90129,148.0,Q,Q
2023-03-15 21:15:26:46,0,-54.7121,1.90133,147.999,Q,Q
2023-03-15 21:15:26:55,0,-54.7135,1.90243,148.002,Q,Q
2023-03-15 21:15:26:66,0,-54.7104,1.9014,148.001,Q,Q
2023-03-15 21:15:26:76,0,-54.7072,1.89889,148.001,Q,Q
2023-03-15 21:15:26:86,0,-54.7105,1.89815,148.002,Q,Q
2023-03-15 21:15:26:96,0,-54.7079,1.89377,148.003,Q,Q
2023-03-15 21:15:26:106,0,-54.7077,1.89245,148.004,Q,Q
2023-03-15 21:15:26:116,0,-54.7074,1.8911,148.007,Q,Q
2023-03-15 21:15:26:125,0,-54.7064,1.89079,148.008,Q,Q
2023-03-15 21:15:26:136,0,-54.7091,1.8877,148.007,Q,Q
2023-03-15 21:15:26:146,0,-54.71,1.88638,148.007,Q,Q
2023-03-15 21:15:26:155,0,-54.7104,1.88555,148.007,Q,Q
2023-03-15 21:15:26:165,0,-54.7116,1.88413,148.006,Q,Q
2023-03-15 21:15:26:175,0,-54.7102,1.88419,148.009,Q,Q
2023-03-15 21:15:26:185,0,-54.7097,1.88189,148.012,Q,Q
2023-03-15 21:15:26:195,0,-54.7069,1.88104,148.013,Q,Q
2023-03-15 21:15:26:206,0,-54.7054,1.88023,148.011,Q,Q
2023-03-15 21:15:26:215,0,-54.7038,1.87929,148.01,Q,Q
2023-03-15 21:15:26:226,0,-54.7024,1.87977,148.009,Q,Q
2023-03-15 21:15:26:235,0,-54.7025,1.88035,148.011,Q,Q
2023-03-15 21:15:26:246,0,-54.6989,1.88067,148.01,Q,Q
2023-03-15 21:15:26:256,0,-54.702,1.88069,148.011,Q,Q
2023-03-15 21:15:26:266,0,-54.7016,1.87963,148.013,Q,Q
2023-03-15 21:15:26:275,0,-54.7035,1.87993,148.012,Q,Q
2023-03-15 21:15:26:286,0,-54.7028,1.87789,148.012,Q,Q
2023-03-15 21:15:26:296,0,-54.7017,1.87917,148.011,Q,Q
2023-03-15 21:15:26:306,0,-54.703,1.87848,148.011,Q,Q
2023-03-15 21:15:26:315,0,-54.7022,1.88342,148.007,Q,Q
2023-03-15 21:15:26:326,0,-54.701,1.88272,148.005,Q,Q
2023-03-15 21:15:26:336,0,-54.6988,1.88119,148.003,Q,Q
2023-03-15 21:15:26:346,0,-54.6993,1.88433,148.001,Q,Q
2023-03-15 21:15:26:356,0,-54.701,1.88491,148.002,Q,Q
2023-03-15 21:15:26:366,0,-54.7018,1.88443,148.004,Q,Q
2023-03-15 21:15:26:376,0,-54.7046,1.88444,148.005,Q,Q
2023-03-15 21:15:26:386,0,-54.7015,1.88394,148.003,Q,Q
2023-03-15 21:15:26:396,0,-54.7027,1.88508,148.0,Q,Q
2023-03-15 21:15:26:406,0,-54.7041,1.8851,148.001,Q,Q
2023-03-15 21:15:26:416,0,-54.7038,1.88905,148.001,Q,Q
2023-03-15 21:15:26:426,0,-54.7032,1.88999,148.004,Q,Q
2023-03-15 21:15:26:436,0,-54.7006,1.89075,148.002,Q,Q
2023-03-15 21:15:26:446,0,-54.6976,1.89192,148.0,Q,Q
2023-03-15 21:15:26:456,0,-54.6963,1.89172,147.999,Q,Q
2023-03-15 21:15:26:466,0,-54.6948,1.89462,148.001,Q,Q
2023-03-15 21:15:26:475,0,-54.6913,1.89438,148.001,Q,Q
2023-03-15 21:15:26:485,0,-54.6906,1.89264,148.001,Q,Q
2023-03-15 21:15:26:496,0,-54.6885,1.88911,148.003,Q,Q
2023-03-15 21:15:26:506,0,-54.6863,1.88884,148.002,Q,Q
2023-03-15 21:15:26:515,0,-54.6851,1.88668,148.002,Q,Q
2023-03-15 21:15:26:526,0,-54.6839,1.88459,148.0,Q,Q
2023-03-15 21:15:26:536,0,-54.681,1.88586,148.0,Q,Q
2023-03-15 21:15:26:546,0,-54.6808,1.88641,147.998,Q,Q
2023-03-15 21:15:26:556,0,-54.6787,1.88764,147.996,Q,Q
2023-03-15 21:15:26:566,0,-54.6794,1.88626,147.993,Q,Q
2023-03-15 21:15:26:576,0,-54.6788,1.88641,147.993,Q,Q
2023-03-15 21:15:26:586,0,-54.6777,1.88682,147.99,Q,Q
2023-03-15 21:15:26:596,0,-54.6785,1.88592,147.989,Q,Q
2023-03-15 21:15:26:606,0,-54.677,1.88481,147.988,Q,Q
2023-03-15 21:15:26:615,0,-54.6759,1.88502,147.989,Q,Q
2023-03-15 21:15:26:626,0,-54.6759,1.88364,147.987,Q,Q
2023-03-15 21:15:26:636,0,-54.6764,1.8837,147.986,Q,Q
2023-03-15 21:15:26:646,0,-54.6757,1.88288,147.989,Q,Q
2023-03-15 21:15:26:655,0,-54.6731,1.88326,147.99,Q,Q
2023-03-15 21:15:26:665,0,-54.6736,1.88351,147.996,Q,Q
2023-03-15 21:15:26:675,0,-54.6726,1.88771,147.995,Q,Q
2023-03-15 21:15:26:686,0,-54.6698,1.88917,147.994,Q,Q
2023-03-15 21:15:26:696,0,-54.6678,1.88754,147.993,Q,Q
2023-03-15 21:15:26:706,0,-54.67,1.8894,147.995,Q,Q
2023-03-15 21:15:26:716,0,-54.6696,1.88959,147.995,Q,Q
2023-03-15 21:15:26:726,0,-54.6695,1.88806,147.997,Q,Q
2023-03-15 21:15:26:736,0,-54.668,1.89028,147.995,Q,Q
2023-03-15 21:15:26:746,0,-54.6668,1.89219,147.994,Q,Q
2023-03-15 21:15:26:756,0,-54.6659,1.89221,147.996,Q,Q
2023-03-15 21:15:26:766,0,-54.6665,1.8932,147.992,Q,Q
2023-03-15 21:15:26:776,0,-54.6653,1.89408,147.99,Q,Q
2023-03-15 21:15:26:786,0,-54.6665,1.89246,147.988,Q,Q
2023-03-15 21:15:26:796,0,-54.6686,1.89108,147.988,Q,Q
