Timestamp_cmd,imu_cmd,roll_delta,pitch_delta,yaw_delta
2023-03-11 16:31:30:626,0,-4.00981,-3.69145,85.5162
2023-03-11 16:31:30:633,0,-3.987,-3.68486,85.5189
2023-03-11 16:31:30:643,0,-3.97501,-3.67863,85.5144
2023-03-11 16:31:30:653,0,-3.97082,-3.66902,85.5059
2023-03-11 16:31:30:663,0,-3.97064,-3.65434,85.4927
2023-03-11 16:31:30:673,0,-3.97781,-3.64048,85.4795
2023-03-11 16:31:30:683,0,-3.98727,-3.62408,85.4673
2023-03-11 16:31:30:693,0,-3.9994,-3.60433,85.4567
2023-03-11 16:31:30:703,0,-4.00859,-3.58812,85.4465
2023-03-11 16:31:30:713,0,-4.02332,-3.57101,85.4419
2023-03-11 16:31:30:723,0,-4.0354,-3.55895,85.4377
2023-03-11 16:31:30:733,0,-4.05045,-3.53723,85.4389
2023-03-11 16:31:30:743,0,-4.06468,-3.51246,85.4387
2023-03-11 16:31:30:754,0,-4.07679,-3.48817,85.4385
2023-03-11 16:31:30:764,0,-4.08829,-3.46483,85.4379
2023-03-11 16:31:30:773,0,-4.0968,-3.44179,85.4384
2023-03-11 16:31:30:783,0,-4.10748,-3.41158,85.44
2023-03-11 16:31:30:794,0,-4.11476,-3.37935,85.4422
2023-03-11 16:31:30:803,0,-4.12138,-3.346,85.444
2023-03-11 16:31:30:813,0,-4.11976,-3.31678,85.447
2023-03-11 16:31:30:823,0,-4.11173,-3.28495,85.4528
2023-03-11 16:31:30:834,0,-4.1013,-3.25822,85.4623
2023-03-11 16:31:30:843,0,-4.08208,-3.22842,85.4771
2023-03-11 16:31:30:853,0,-4.05955,-3.19509,85.4893
2023-03-11 16:31:30:863,0,-4.03573,-3.15808,85.4982
2023-03-11 16:31:30:873,0,-4.01495,-3.12669,85.5057
2023-03-11 16:31:30:883,0,-3.99553,-3.10636,85.5132
2023-03-11 16:31:30:894,0,-3.97867,-3.10379,85.5165
2023-03-11 16:31:30:903,0,-3.96728,-3.11392,85.5178
2023-03-11 16:31:30:913,0,-3.95781,-3.13765,85.5156
2023-03-11 16:31:30:923,0,-3.96211,-3.17225,85.5074
2023-03-11 16:31:30:933,0,-3.97494,-3.21063,85.4933
2023-03-11 16:31:30:943,0,-4.00472,-3.25812,85.4719
2023-03-11 16:31:30:953,0,-4.05209,-3.31632,85.4523
2023-03-11 16:31:30:963,0,-4.10675,-3.38065,85.4329
2023-03-11 16:31:30:973,0,-4.16518,-3.44777,85.408
2023-03-11 16:31:30:983,0,-4.222,-3.51304,85.3849
2023-03-11 16:31:30:993,0,-4.28047,-3.5764,85.3649
2023-03-11 16:31:31:3,0,-4.34185,-3.63163,85.3428
2023-03-11 16:31:31:13,0,-4.40716,-3.67659,85.3278
2023-03-11 16:31:31:23,0,-4.47523,-3.71788,85.3152
2023-03-11 16:31:31:33,0,-4.54122,-3.75137,85.3101
2023-03-11 16:31:31:43,0,-4.6031,-3.78153,85.3093
2023-03-11 16:31:31:53,0,-4.66154,-3.80656,85.3184
2023-03-11 16:31:31:63,0,-4.71493,-3.82289,85.335
2023-03-11 16:31:31:73,0,-4.76478,-3.83209,85.3538
2023-03-11 16:31:31:83,0,-4.81004,-3.83208,85.3806
2023-03-11 16:31:31:93,0,-4.84969,-3.82409,85.4079
2023-03-11 16:31:31:103,0,-4.88625,-3.81511,85.4398
2023-03-11 16:31:31:113,0,-4.91577,-3.8058,85.4722
2023-03-11 16:31:31:123,0,-4.93623,-3.79808,85.504
2023-03-11 16:31:31:133,0,-4.94744,-3.79426,85.5329
2023-03-11 16:31:31:143,0,-4.95229,-3.79029,85.5554
2023-03-11 16:31:31:153,0,-4.9536,-3.79136,85.5741
2023-03-11 16:31:31:163,0,-4.95081,-3.79677,85.5874
2023-03-11 16:31:31:173,0,-4.94618,-3.80465,85.5973
2023-03-11 16:31:31:183,0,-4.93855,-3.81058,85.5988
2023-03-11 16:31:31:193,0,-4.93005,-3.81895,85.5896
2023-03-11 16:31:31:203,0,-4.91981,-3.82533,85.577
2023-03-11 16:31:31:213,0,-4.90926,-3.82779,85.5599
2023-03-11 16:31:31:223,0,-4.89686,-3.82542,85.5346
2023-03-11 16:31:31:233,0,-4.88261,-3.82025,85.5115
2023-03-11 16:31:31:243,0,-4.86047,-3.81501,85.4874
2023-03-11 16:31:31:253,0,-4.83242,-3.81234,85.4635
2023-03-11 16:31:31:263,0,-4.79842,-3.8105,85.4428
2023-03-11 16:31:31:273,0,-4.76671,-3.81197,85.4258
2023-03-11 16:31:31:283,0,-4.73665,-3.81468,85.4151
2023-03-11 16:31:31:293,0,-4.71447,-3.81875,85.4064
2023-03-11 16:31:31:303,0,-4.70137,-3.82708,85.397
2023-03-11 16:31:31:313,0,-4.69783,-3.83616,85.3903
2023-03-11 16:31:31:323,0,-4.70811,-3.853,85.3915
2023-03-11 16:31:31:333,0,-4.73041,-3.87175,85.3939
2023-03-11 16:31:31:343,0,-4.75135,-3.89413,85.401
2023-03-11 16:31:31:353,0,-4.78122,-3.91478,85.4029
2023-03-11 16:31:31:363,0,-4.81444,-3.93366,85.4063
2023-03-11 16:31:31:373,0,-4.84924,-3.95019,85.4063
2023-03-11 16:31:31:383,0,-4.8843,-3.96321,85.408
2023-03-11 16:31:31:393,0,-4.91995,-3.97533,85.41
2023-03-11 16:31:31:403,0,-4.95813,-3.98625,85.412
2023-03-11 16:31:31:413,0,-4.99218,-3.99514,85.417
2023-03-11 16:31:31:423,0,-5.02347,-4.00339,85.4219
2023-03-11 16:31:31:433,0,-5.05526,-4.00605,85.4297
2023-03-11 16:31:31:443,0,-5.08056,-4.00369,85.4398
2023-03-11 16:31:31:454,0,-5.10645,-3.99514,85.4491
2023-03-11 16:31:31:464,0,-5.12876,-3.98173,85.4561
2023-03-11 16:31:31:473,0,-5.14789,-3.97154,85.4684
2023-03-11 16:31:31:483,0,-5.16371,-3.96257,85.4838
2023-03-11 16:31:31:493,0,-5.18087,-3.95099,85.5
2023-03-11 16:31:31:503,0,-5.19444,-3.9411,85.5155
2023-03-11 16:31:31:513,0,-5.20743,-3.92874,85.5269
2023-03-11 16:31:31:523,0,-5.22451,-3.91375,85.5396
2023-03-11 16:31:31:533,0,-5.23673,-3.89861,85.5543
2023-03-11 16:31:31:543,0,-5.24788,-3.88279,85.5683
2023-03-11 16:31:31:553,0,-5.25794,-3.86941,85.5816
2023-03-11 16:31:31:564,0,-5.26244,-3.86334,85.5916
2023-03-11 16:31:31:573,0,-5.26196,-3.85187,85.6009
2023-03-11 16:31:31:583,0,-5.25384,-3.83828,85.615
2023-03-11 16:31:31:593,0,-5.24809,-3.82142,85.6255
2023-03-11 16:31:31:603,0,-5.23882,-3.80678,85.6412
2023-03-11 16:31:31:613,0,-5.23193,-3.79135,85.6607
2023-03-11 16:31:31:623,0,-5.21964,-3.77911,85.6817
2023-03-11 16:31:31:634,0,-5.20327,-3.76508,85.706
2023-03-11 16:31:31:643,0,-5.18499,-3.75713,85.7351
2023-03-11 16:31:31:654,0,-5.16654,-3.74504,85.762
2023-03-11 16:31:31:664,0,-5.14601,-3.73697,85.7934
2023-03-11 16:31:31:674,0,-5.12895,-3.73091,85.8224
2023-03-11 16:31:31:683,0,-5.11096,-3.72897,85.8524
2023-03-11 16:31:31:693,0,-5.09226,-3.72733,85.8795
2023-03-11 16:31:31:703,0,-5.07481,-3.72935,85.8999
2023-03-11 16:31:31:713,0,-5.06073,-3.73308,85.9178
2023-03-11 16:31:31:723,0,-5.04592,-3.73699,85.9318
2023-03-11 16:31:31:733,0,-5.03634,-3.73893,85.9341
2023-03-11 16:31:31:743,0,-5.02073,-3.74184,85.9299
2023-03-11 16:31:31:753,0,-5.00849,-3.74575,85.9214
2023-03-11 16:31:31:763,0,-5.00048,-3.7568,85.9117
2023-03-11 16:31:31:773,0,-4.99578,-3.76985,85.9046
2023-03-11 16:31:31:783,0,-4.9864,-3.78912,85.8988
2023-03-11 16:31:31:793,0,-4.97746,-3.81307,85.9011
2023-03-11 16:31:31:803,0,-4.97124,-3.84377,85.9096
2023-03-11 16:31:31:813,0,-4.96337,-3.87705,85.9259
2023-03-11 16:31:31:823,0,-4.95716,-3.91342,85.9482
2023-03-11 16:31:31:833,0,-4.9592,-3.95035,85.9707
2023-03-11 16:31:31:843,0,-4.96644,-3.97963,85.9993
2023-03-11 16:31:31:853,0,-4.9798,-4.00645,86.0317
2023-03-11 16:31:31:863,0,-4.99474,-4.02875,86.06
2023-03-11 16:31:31:873,0,-5.01038,-4.04917,86.0888
2023-03-11 16:31:31:883,0,-5.02979,-4.06678,86.113
2023-03-11 16:31:31:893,0,-5.0518,-4.08453,86.134
2023-03-11 16:31:31:903,0,-5.07608,-4.09419,86.154
2023-03-11 16:31:31:913,0,-5.10342,-4.10139,86.1683
2023-03-11 16:31:31:923,0,-5.13145,-4.09944,86.1767
2023-03-11 16:31:31:933,0,-5.16223,-4.09145,86.1865
2023-03-11 16:31:31:943,0,-5.18886,-4.0714,86.199
2023-03-11 16:31:31:953,0,-5.20526,-4.04978,86.2161
2023-03-11 16:31:31:963,0,-5.20653,-4.0178,86.2422
2023-03-11 16:31:31:973,0,-5.19522,-3.98282,86.2756
2023-03-11 16:31:31:983,0,-5.1754,-3.94775,86.3159
2023-03-11 16:31:31:993,0,-5.14646,-3.91014,86.3602
2023-03-11 16:31:32:3,0,-5.10479,-3.86885,86.409
2023-03-11 16:31:32:13,0,-5.05401,-3.82523,86.458
2023-03-11 16:31:32:23,0,-5.00362,-3.78215,86.5183
2023-03-11 16:31:32:33,0,-4.94386,-3.73813,86.5766
2023-03-11 16:31:32:43,0,-4.87951,-3.69506,86.6366
2023-03-11 16:31:32:53,0,-4.81194,-3.64734,86.6974
2023-03-11 16:31:32:63,0,-4.73669,-3.60151,86.7506
2023-03-11 16:31:32:73,0,-4.65653,-3.55826,86.8003
2023-03-11 16:31:32:83,0,-4.56973,-3.52123,86.8411
2023-03-11 16:31:32:93,0,-4.48382,-3.49176,86.8764
2023-03-11 16:31:32:103,0,-4.40396,-3.47526,86.8965
2023-03-11 16:31:32:113,0,-4.32625,-3.46311,86.9052
2023-03-11 16:31:32:123,0,-4.25778,-3.45902,86.9045
2023-03-11 16:31:32:133,0,-4.19702,-3.46534,86.8887
2023-03-11 16:31:32:143,0,-4.14801,-3.47844,86.8633
2023-03-11 16:31:32:153,0,-4.1126,-3.49514,86.8263
2023-03-11 16:31:32:163,0,-4.08345,-3.51397,86.7756
2023-03-11 16:31:32:173,0,-4.05582,-3.52893,86.7186
2023-03-11 16:31:32:183,0,-4.03206,-3.54045,86.6589
2023-03-11 16:31:32:193,0,-4.0062,-3.55243,86.5972
2023-03-11 16:31:32:203,0,-3.98257,-3.56188,86.536
2023-03-11 16:31:32:213,0,-3.96298,-3.56869,86.48
2023-03-11 16:31:32:223,0,-3.94441,-3.56909,86.4277
2023-03-11 16:31:32:233,0,-3.93033,-3.56961,86.3783
2023-03-11 16:31:32:243,0,-3.92048,-3.56069,86.3324
2023-03-11 16:31:32:253,0,-3.91887,-3.55301,86.29
2023-03-11 16:31:32:263,0,-3.91857,-3.5423,86.263
2023-03-11 16:31:32:273,0,-3.92571,-3.52975,86.2387
2023-03-11 16:31:32:283,0,-3.93477,-3.51871,86.2226
2023-03-11 16:31:32:293,0,-3.9441,-3.50538,86.2152
2023-03-11 16:31:32:303,0,-3.95891,-3.50009,86.2165
2023-03-11 16:31:32:313,0,-3.96983,-3.5001,86.2221
2023-03-11 16:31:32:323,0,-3.97224,-3.49973,86.2276
2023-03-11 16:31:32:333,0,-3.96279,-3.50455,86.2391
2023-03-11 16:31:32:343,0,-3.951,-3.50768,86.2504
2023-03-11 16:31:32:353,0,-3.93485,-3.513,86.2587
2023-03-11 16:31:32:363,0,-3.9195,-3.5149,86.2621
2023-03-11 16:31:32:373,0,-3.90757,-3.5136,86.2584
2023-03-11 16:31:32:383,0,-3.90203,-3.51183,86.2516
2023-03-11 16:31:32:393,0,-3.89516,-3.50841,86.2432
2023-03-11 16:31:32:403,0,-3.89739,-3.50665,86.2277
2023-03-11 16:31:32:413,0,-3.9028,-3.50419,86.2073
2023-03-11 16:31:32:423,0,-3.90769,-3.50662,86.1881
2023-03-11 16:31:32:433,0,-3.91267,-3.50579,86.1641
2023-03-11 16:31:32:443,0,-3.91797,-3.50553,86.1357
2023-03-11 16:31:32:453,0,-3.92565,-3.50231,86.1001
2023-03-11 16:31:32:463,0,-3.93553,-3.49806,86.0614
2023-03-11 16:31:32:473,0,-3.94906,-3.4941,86.0209
2023-03-11 16:31:32:483,0,-3.96805,-3.4869,85.9767
2023-03-11 16:31:32:493,0,-3.99106,-3.47564,85.9273
2023-03-11 16:31:32:503,0,-4.01504,-3.46743,85.8776
2023-03-11 16:31:32:513,0,-4.04116,-3.45829,85.8306
2023-03-11 16:31:32:523,0,-4.07171,-3.44501,85.7827
2023-03-11 16:31:32:533,0,-4.09826,-3.43685,85.7351
2023-03-11 16:31:32:543,0,-4.12126,-3.43114,85.6932
2023-03-11 16:31:32:553,0,-4.13657,-3.43109,85.6516
2023-03-11 16:31:32:563,0,-4.14677,-3.43082,85.6116
2023-03-11 16:31:32:573,0,-4.15255,-3.43213,85.5782
2023-03-11 16:31:32:583,0,-4.15219,-3.43212,85.5497
2023-03-11 16:31:32:593,0,-4.15282,-3.42316,85.5232
2023-03-11 16:31:32:604,0,-4.14839,-3.41192,85.5032
2023-03-11 16:31:32:613,0,-4.14648,-3.40158,85.4909
2023-03-11 16:31:32:623,0,-4.14021,-3.38744,85.4852
2023-03-11 16:31:32:633,0,-4.12674,-3.37336,85.4842
2023-03-11 16:31:32:643,0,-4.10338,-3.36163,85.4848
2023-03-11 16:31:32:653,0,-4.07183,-3.3541,85.4902
2023-03-11 16:31:32:663,0,-4.03775,-3.35558,85.4943
2023-03-11 16:31:32:673,0,-4.00254,-3.36134,85.4957
2023-03-11 16:31:32:683,0,-3.96686,-3.36585,85.4967
2023-03-11 16:31:32:693,0,-3.93321,-3.37222,85.4983
2023-03-11 16:31:32:703,0,-3.90565,-3.37607,85.5041
2023-03-11 16:31:32:713,0,-3.87808,-3.38699,85.5106
2023-03-11 16:31:32:723,0,-3.85478,-3.39868,85.5187
2023-03-11 16:31:32:733,0,-3.82958,-3.41803,85.5388
2023-03-11 16:31:32:743,0,-3.80018,-3.43988,85.5661
2023-03-11 16:31:32:753,0,-3.76779,-3.46121,85.5967
2023-03-11 16:31:32:763,0,-3.73242,-3.47843,85.6238
2023-03-11 16:31:32:774,0,-3.70198,-3.49282,85.6497
2023-03-11 16:31:32:784,0,-3.67565,-3.50427,85.6767
2023-03-11 16:31:32:794,0,-3.65406,-3.5074,85.702
2023-03-11 16:31:32:804,0,-3.63773,-3.50864,85.7276
2023-03-11 16:31:32:813,0,-3.62409,-3.50772,85.7534
2023-03-11 16:31:32:823,0,-3.61118,-3.50474,85.7785
2023-03-11 16:31:32:833,0,-3.59585,-3.50557,85.8085
2023-03-11 16:31:32:843,0,-3.57583,-3.50165,85.8348
2023-03-11 16:31:32:853,0,-3.55861,-3.49269,85.8613
2023-03-11 16:31:32:863,0,-3.54374,-3.48166,85.8805
2023-03-11 16:31:32:873,0,-3.53054,-3.47789,85.9013
2023-03-11 16:31:32:884,0,-3.52125,-3.47303,85.9223
2023-03-11 16:31:32:894,0,-3.51357,-3.4685,85.9392
2023-03-11 16:31:32:903,0,-3.51,-3.46169,85.9618
2023-03-11 16:31:32:913,0,-3.50734,-3.45789,85.9795
2023-03-11 16:31:32:923,0,-3.50398,-3.45349,86.005
2023-03-11 16:31:32:933,0,-3.50064,-3.45623,86.0292
2023-03-11 16:31:32:943,0,-3.49766,-3.4634,86.0528
2023-03-11 16:31:32:954,0,-3.49717,-3.47691,86.0684
2023-03-11 16:31:32:964,0,-3.50051,-3.49295,86.0808
2023-03-11 16:31:32:974,0,-3.50903,-3.51099,86.0839
2023-03-11 16:31:32:984,0,-3.5268,-3.52899,86.0779
2023-03-11 16:31:32:994,0,-3.5551,-3.54804,86.0628
2023-03-11 16:31:33:4,0,-3.59351,-3.56568,86.0423
2023-03-11 16:31:33:14,0,-3.63926,-3.58328,86.0199
2023-03-11 16:31:33:24,0,-3.68828,-3.5981,85.9928
2023-03-11 16:31:33:34,0,-3.73888,-3.61671,85.9759
2023-03-11 16:31:33:44,0,-3.78429,-3.64357,85.9611
2023-03-11 16:31:33:54,0,-3.82341,-3.6725,85.958
2023-03-11 16:31:33:64,0,-3.84877,-3.69861,85.9514
2023-03-11 16:31:33:74,0,-3.86759,-3.72319,85.9413
2023-03-11 16:31:33:84,0,-3.88807,-3.73904,85.9281
2023-03-11 16:31:33:94,0,-3.91193,-3.75559,85.9127
2023-03-11 16:31:33:104,0,-3.94605,-3.76835,85.8909
2023-03-11 16:31:33:114,0,-3.98959,-3.7742,85.869
2023-03-11 16:31:33:124,0,-4.04019,-3.78369,85.8431
2023-03-11 16:31:33:134,0,-4.09691,-3.79054,85.8207
2023-03-11 16:31:33:144,0,-4.1537,-3.79514,85.8008
2023-03-11 16:31:33:154,0,-4.20671,-3.79584,85.7843
2023-03-11 16:31:33:164,0,-4.25881,-3.79402,85.7723
2023-03-11 16:31:33:174,0,-4.30614,-3.79064,85.7678
2023-03-11 16:31:33:183,0,-4.34939,-3.78343,85.7716
2023-03-11 16:31:33:194,0,-4.39175,-3.77096,85.7793
2023-03-11 16:31:33:203,0,-4.43426,-3.75711,85.7939
2023-03-11 16:31:33:214,0,-4.47946,-3.74215,85.8097
2023-03-11 16:31:33:224,0,-4.52596,-3.72249,85.8298
2023-03-11 16:31:33:234,0,-4.57616,-3.70165,85.8462
2023-03-11 16:31:33:244,0,-4.62037,-3.68179,85.8628
2023-03-11 16:31:33:254,0,-4.66192,-3.66454,85.8797
2023-03-11 16:31:33:264,0,-4.70309,-3.64799,85.8923
2023-03-11 16:31:33:274,0,-4.73315,-3.63137,85.8963
2023-03-11 16:31:33:284,0,-4.76111,-3.61729,85.8962
2023-03-11 16:31:33:294,0,-4.78391,-3.60821,85.8935
2023-03-11 16:31:33:303,0,-4.80694,-3.60363,85.8854
2023-03-11 16:31:33:314,0,-4.83143,-3.60197,85.8739
2023-03-11 16:31:33:324,0,-4.8577,-3.60352,85.8646
2023-03-11 16:31:33:333,0,-4.88431,-3.60287,85.8408
2023-03-11 16:31:33:344,0,-4.91317,-3.60545,85.8197
2023-03-11 16:31:33:354,0,-4.94476,-3.60728,85.7942
2023-03-11 16:31:33:364,0,-4.97419,-3.61107,85.7718
2023-03-11 16:31:33:374,0,-5.00155,-3.61691,85.7458
2023-03-11 16:31:33:384,0,-5.02494,-3.62635,85.7229
2023-03-11 16:31:33:394,0,-5.03719,-3.63206,85.7027
2023-03-11 16:31:33:403,0,-5.04205,-3.63548,85.6853
2023-03-11 16:31:33:414,0,-5.03844,-3.63963,85.6694
2023-03-11 16:31:33:424,0,-5.03176,-3.64284,85.6577
2023-03-11 16:31:33:434,0,-5.02486,-3.64394,85.6483
2023-03-11 16:31:33:444,0,-5.01233,-3.64424,85.6384
2023-03-11 16:31:33:453,0,-4.99859,-3.64696,85.6287
2023-03-11 16:31:33:464,0,-4.97467,-3.65197,85.6228
2023-03-11 16:31:33:473,0,-4.95403,-3.6573,85.6202
2023-03-11 16:31:33:483,0,-4.9313,-3.66863,85.6243
2023-03-11 16:31:33:493,0,-4.91146,-3.67449,85.6344
2023-03-11 16:31:33:503,0,-4.89543,-3.67897,85.6471
2023-03-11 16:31:33:513,0,-4.87871,-3.68559,85.6617
2023-03-11 16:31:33:524,0,-4.86954,-3.68622,85.6806
2023-03-11 16:31:33:534,0,-4.86016,-3.68577,85.6966
2023-03-11 16:31:33:544,0,-4.85462,-3.68317,85.7119
2023-03-11 16:31:33:554,0,-4.84565,-3.68228,85.7234
2023-03-11 16:31:33:564,0,-4.8362,-3.6741,85.7341
2023-03-11 16:31:33:574,0,-4.82535,-3.66845,85.7406
2023-03-11 16:31:33:584,0,-4.81572,-3.65904,85.7393
2023-03-11 16:31:33:594,0,-4.80668,-3.6529,85.7354
2023-03-11 16:31:33:604,0,-4.79636,-3.64171,85.7285
2023-03-11 16:31:33:613,0,-4.7873,-3.63041,85.7174
2023-03-11 16:31:33:623,0,-4.78352,-3.61331,85.7016
2023-03-11 16:31:33:634,0,-4.77558,-3.59681,85.686
2023-03-11 16:31:33:644,0,-4.77508,-3.58258,85.6695
2023-03-11 16:31:33:654,0,-4.77332,-3.56227,85.6565
2023-03-11 16:31:33:664,0,-4.76968,-3.54292,85.6387
2023-03-11 16:31:33:674,0,-4.76625,-3.52083,85.62
2023-03-11 16:31:33:684,0,-4.7569,-3.49588,85.6039
2023-03-11 16:31:33:693,0,-4.74809,-3.47614,85.5878
2023-03-11 16:31:33:703,0,-4.73972,-3.45713,85.5735
2023-03-11 16:31:33:714,0,-4.73147,-3.44282,85.5634
2023-03-11 16:31:33:724,0,-4.71815,-3.42599,85.5537
2023-03-11 16:31:33:734,0,-4.71027,-3.40722,85.5443
2023-03-11 16:31:33:743,0,-4.69984,-3.39372,85.5387
2023-03-11 16:31:33:754,0,-4.68948,-3.38159,85.5362
2023-03-11 16:31:33:764,0,-4.6779,-3.37348,85.5337
2023-03-11 16:31:33:774,0,-4.66681,-3.36859,85.5394
2023-03-11 16:31:33:784,0,-4.65173,-3.36666,85.5438
2023-03-11 16:31:33:794,0,-4.63429,-3.37133,85.5456
2023-03-11 16:31:33:804,0,-4.62078,-3.37201,85.5504
2023-03-11 16:31:33:814,0,-4.60437,-3.37699,85.5545
2023-03-11 16:31:33:824,0,-4.59119,-3.38041,85.5591
2023-03-11 16:31:33:834,0,-4.58433,-3.38656,85.5666
2023-03-11 16:31:33:844,0,-4.58006,-3.39351,85.5729
2023-03-11 16:31:33:854,0,-4.58416,-3.40007,85.5811
2023-03-11 16:31:33:864,0,-4.58766,-3.40575,85.5878
2023-03-11 16:31:33:874,0,-4.59004,-3.41578,85.5964
2023-03-11 16:31:33:883,0,-4.59644,-3.42325,85.6048
2023-03-11 16:31:33:894,0,-4.60446,-3.43058,85.613
2023-03-11 16:31:33:904,0,-4.61077,-3.43215,85.6233
2023-03-11 16:31:33:914,0,-4.61779,-3.43838,85.6328
2023-03-11 16:31:33:924,0,-4.62543,-3.44404,85.6375
2023-03-11 16:31:33:934,0,-4.6367,-3.44762,85.6458
2023-03-11 16:31:33:944,0,-4.64915,-3.44741,85.6477
2023-03-11 16:31:33:954,0,-4.66471,-3.44748,85.6481
2023-03-11 16:31:33:964,0,-4.68117,-3.44958,85.6476
2023-03-11 16:31:33:973,0,-4.69717,-3.45114,85.6479
2023-03-11 16:31:33:984,0,-4.71536,-3.45108,85.6476
2023-03-11 16:31:33:994,0,-4.73134,-3.44766,85.6442
2023-03-11 16:31:34:4,0,-4.74931,-3.44678,85.6417
2023-03-11 16:31:34:14,0,-4.76378,-3.44945,85.6396
2023-03-11 16:31:34:24,0,-4.78015,-3.4493,85.6379
2023-03-11 16:31:34:34,0,-4.79511,-3.45372,85.637
2023-03-11 16:31:34:44,0,-4.81374,-3.45582,85.6434
2023-03-11 16:31:34:54,0,-4.82831,-3.46014,85.647
2023-03-11 16:31:34:63,0,-4.84255,-3.45882,85.6512
2023-03-11 16:31:34:73,0,-4.857,-3.45762,85.6534
2023-03-11 16:31:34:83,0,-4.87282,-3.4586,85.6603
2023-03-11 16:31:34:94,0,-4.88646,-3.45912,85.6659
2023-03-11 16:31:34:103,0,-4.8961,-3.46283,85.6712
2023-03-11 16:31:34:113,0,-4.90244,-3.46839,85.6746
2023-03-11 16:31:34:124,0,-4.90624,-3.4702,85.6722
2023-03-11 16:31:34:133,0,-4.90897,-3.47336,85.6688
2023-03-11 16:31:34:144,0,-4.91171,-3.4801,85.6635
2023-03-11 16:31:34:154,0,-4.9125,-3.48858,85.6598
2023-03-11 16:31:34:164,0,-4.91795,-3.49642,85.6533
2023-03-11 16:31:34:174,0,-4.92656,-3.507,85.6487
2023-03-11 16:31:34:184,0,-4.93783,-3.5144,85.6467
2023-03-11 16:31:34:194,0,-4.94008,-3.52255,85.6465
2023-03-11 16:31:34:204,0,-4.94053,-3.53941,85.6489
2023-03-11 16:31:34:214,0,-4.93493,-3.55623,85.6506
2023-03-11 16:31:34:223,0,-4.92705,-3.57211,85.6556
2023-03-11 16:31:34:233,0,-4.91753,-3.59303,85.6632
2023-03-11 16:31:34:244,0,-4.91655,-3.60989,85.672
2023-03-11 16:31:34:254,0,-4.91054,-3.61773,85.6807
2023-03-11 16:31:34:264,0,-4.90615,-3.62275,85.6842
2023-03-11 16:31:34:274,0,-4.90139,-3.62388,85.688
2023-03-11 16:31:34:284,0,-4.89643,-3.62066,85.6888
2023-03-11 16:31:34:294,0,-4.89279,-3.61293,85.6829
2023-03-11 16:31:34:304,0,-4.88587,-3.60295,85.6752
2023-03-11 16:31:34:314,0,-4.88088,-3.596,85.6635
2023-03-11 16:31:34:324,0,-4.87536,-3.58808,85.6517
2023-03-11 16:31:34:334,0,-4.86998,-3.58018,85.6376
2023-03-11 16:31:34:343,0,-4.86433,-3.57078,85.6275
2023-03-11 16:31:34:353,0,-4.8587,-3.56371,85.6173
2023-03-11 16:31:34:364,0,-4.85404,-3.55619,85.6082
2023-03-11 16:31:34:374,0,-4.84973,-3.55316,85.6002
2023-03-11 16:31:34:384,0,-4.8483,-3.54692,85.5959
2023-03-11 16:31:34:394,0,-4.84751,-3.54102,85.5916
2023-03-11 16:31:34:404,0,-4.84728,-3.53057,85.5856
2023-03-11 16:31:34:414,0,-4.84948,-3.51946,85.5775
2023-03-11 16:31:34:424,0,-4.84959,-3.5083,85.5719
2023-03-11 16:31:34:434,0,-4.84678,-3.50088,85.5628
2023-03-11 16:31:34:444,0,-4.84575,-3.49451,85.5555
2023-03-11 16:31:34:454,0,-4.84516,-3.4893,85.5435
2023-03-11 16:31:34:464,0,-4.84339,-3.48682,85.5305
2023-03-11 16:31:34:473,0,-4.84112,-3.48113,85.5189
2023-03-11 16:31:34:484,0,-4.83576,-3.47694,85.5091
2023-03-11 16:31:34:494,0,-4.82916,-3.47651,85.4987
2023-03-11 16:31:34:504,0,-4.82333,-3.47518,85.4906
2023-03-11 16:31:34:514,0,-4.81506,-3.4725,85.4897
2023-03-11 16:31:34:524,0,-4.80447,-3.46785,85.4863
2023-03-11 16:31:34:534,0,-4.79299,-3.46223,85.4854
2023-03-11 16:31:34:544,0,-4.78243,-3.45935,85.4884
2023-03-11 16:31:34:554,0,-4.76764,-3.46013,85.4881
2023-03-11 16:31:34:564,0,-4.75733,-3.45599,85.4868
2023-03-11 16:31:34:574,0,-4.74499,-3.45312,85.4831
2023-03-11 16:31:34:584,0,-4.73912,-3.45065,85.481
2023-03-11 16:31:34:594,0,-4.7317,-3.44978,85.4767
2023-03-11 16:31:34:604,0,-4.72298,-3.45011,85.4736
2023-03-11 16:31:34:614,0,-4.71602,-3.45408,85.4692
2023-03-11 16:31:34:624,0,-4.71229,-3.45482,85.4677
2023-03-11 16:31:34:634,0,-4.70859,-3.4506,85.4662
2023-03-11 16:31:34:644,0,-4.70868,-3.44965,85.4639
2023-03-11 16:31:34:654,0,-4.70888,-3.4499,85.4625
2023-03-11 16:31:34:664,0,-4.7155,-3.44803,85.4588
2023-03-11 16:31:34:674,0,-4.7197,-3.44662,85.4551
2023-03-11 16:31:34:684,0,-4.72399,-3.44013,85.4529
2023-03-11 16:31:34:694,0,-4.72904,-3.43496,85.4515
2023-03-11 16:31:34:703,0,-4.73413,-3.4301,85.4444
2023-03-11 16:31:34:714,0,-4.74258,-3.4212,85.4375
2023-03-11 16:31:34:723,0,-4.74441,-3.41708,85.4295
2023-03-11 16:31:34:733,0,-4.75175,-3.41047,85.4232
2023-03-11 16:31:34:744,0,-4.758,-3.40364,85.4138
2023-03-11 16:31:34:754,0,-4.76246,-3.39906,85.404
2023-03-11 16:31:34:764,0,-4.76717,-3.39569,85.3982
2023-03-11 16:31:34:774,0,-4.76994,-3.39447,85.3889
2023-03-11 16:31:34:784,0,-4.76845,-3.39635,85.3824
2023-03-11 16:31:34:794,0,-4.76637,-3.39581,85.3797
2023-03-11 16:31:34:804,0,-4.76172,-3.39988,85.3785
2023-03-11 16:31:34:814,0,-4.75508,-3.40651,85.381
2023-03-11 16:31:34:824,0,-4.74841,-3.40823,85.3834
2023-03-11 16:31:34:834,0,-4.73745,-3.4101,85.3895
2023-03-11 16:31:34:844,0,-4.72884,-3.41352,85.395
2023-03-11 16:31:34:854,0,-4.7204,-3.41857,85.4011
2023-03-11 16:31:34:864,0,-4.7096,-3.4232,85.4069
2023-03-11 16:31:34:874,0,-4.69603,-3.42314,85.4069
2023-03-11 16:31:34:884,0,-4.68377,-3.42167,85.4029
2023-03-11 16:31:34:894,0,-4.6752,-3.42543,85.399
2023-03-11 16:31:34:904,0,-4.66998,-3.42623,85.3942
2023-03-11 16:31:34:914,0,-4.66301,-3.42603,85.3882
2023-03-11 16:31:34:924,0,-4.65826,-3.42907,85.3848
2023-03-11 16:31:34:934,0,-4.65435,-3.42928,85.3763
2023-03-11 16:31:34:944,0,-4.64642,-3.43048,85.3664
2023-03-11 16:31:34:954,0,-4.63928,-3.43939,85.3609
2023-03-11 16:31:34:964,0,-4.62859,-3.44539,85.3596
2023-03-11 16:31:34:974,0,-4.62149,-3.45488,85.3611
2023-03-11 16:31:34:984,0,-4.61441,-3.46243,85.3678
2023-03-11 16:31:34:994,0,-4.61341,-3.46676,85.3737
2023-03-11 16:31:35:4,0,-4.61267,-3.47118,85.3798
2023-03-11 16:31:35:14,0,-4.61704,-3.47535,85.3897
2023-03-11 16:31:35:24,0,-4.62183,-3.47679,85.3976
2023-03-11 16:31:35:34,0,-4.63134,-3.48068,85.4073
2023-03-11 16:31:35:44,0,-4.63838,-3.47906,85.4124
2023-03-11 16:31:35:54,0,-4.64922,-3.47631,85.4108
2023-03-11 16:31:35:64,0,-4.65966,-3.47299,85.4082
2023-03-11 16:31:35:74,0,-4.66623,-3.4674,85.4012
2023-03-11 16:31:35:84,0,-4.67482,-3.46093,85.3921
2023-03-11 16:31:35:94,0,-4.68159,-3.45333,85.3804
2023-03-11 16:31:35:104,0,-4.68611,-3.44684,85.3654
2023-03-11 16:31:35:114,0,-4.69513,-3.43849,85.3509
2023-03-11 16:31:35:124,0,-4.69936,-3.43258,85.3356
2023-03-11 16:31:35:134,0,-4.7023,-3.43045,85.3238
2023-03-11 16:31:35:144,0,-4.70531,-3.4251,85.3108
2023-03-11 16:31:35:154,0,-4.70704,-3.42071,85.3047
2023-03-11 16:31:35:164,0,-4.70432,-3.41427,85.2949
2023-03-11 16:31:35:174,0,-4.70129,-3.41301,85.2872
2023-03-11 16:31:35:184,0,-4.69408,-3.41592,85.2828
2023-03-11 16:31:35:194,0,-4.68603,-3.42201,85.2828
2023-03-11 16:31:35:204,0,-4.67957,-3.42824,85.2852
2023-03-11 16:31:35:214,0,-4.66828,-3.43523,85.2862
2023-03-11 16:31:35:224,0,-4.65857,-3.44211,85.2886
2023-03-11 16:31:35:234,0,-4.64625,-3.44271,85.2961
2023-03-11 16:31:35:243,0,-4.63657,-3.44891,85.3003
2023-03-11 16:31:35:253,0,-4.62415,-3.45692,85.3042
2023-03-11 16:31:35:264,0,-4.61084,-3.46832,85.3133
2023-03-11 16:31:35:274,0,-4.60027,-3.47626,85.3229
2023-03-11 16:31:35:284,0,-4.59254,-3.4851,85.3307
2023-03-11 16:31:35:294,0,-4.58365,-3.49473,85.3354
2023-03-11 16:31:35:303,0,-4.57334,-3.49893,85.3362
2023-03-11 16:31:35:314,0,-4.56774,-3.50089,85.3422
2023-03-11 16:31:35:324,0,-4.5615,-3.50146,85.3422
2023-03-11 16:31:35:334,0,-4.55659,-3.49921,85.3435
2023-03-11 16:31:35:344,0,-4.55253,-3.49973,85.3407
2023-03-11 16:31:35:354,0,-4.54429,-3.49911,85.3341
2023-03-11 16:31:35:364,0,-4.54091,-3.50122,85.3289
2023-03-11 16:31:35:374,0,-4.53758,-3.50537,85.3255
2023-03-11 16:31:35:384,0,-4.53112,-3.50565,85.3234
2023-03-11 16:31:35:394,0,-4.52362,-3.503,85.3256
2023-03-11 16:31:35:403,0,-4.52141,-3.49906,85.3271
2023-03-11 16:31:35:414,0,-4.5219,-3.49195,85.3315
2023-03-11 16:31:35:424,0,-4.52435,-3.48341,85.3381
2023-03-11 16:31:35:434,0,-4.52618,-3.47437,85.3405
2023-03-11 16:31:35:444,0,-4.53047,-3.46747,85.3383
2023-03-11 16:31:35:454,0,-4.53595,-3.46181,85.338
2023-03-11 16:31:35:463,0,-4.53911,-3.45771,85.3337
2023-03-11 16:31:35:473,0,-4.54275,-3.45004,85.3284
2023-03-11 16:31:35:483,0,-4.5441,-3.44382,85.3204
2023-03-11 16:31:35:494,0,-4.54618,-3.44356,85.312
2023-03-11 16:31:35:503,0,-4.54943,-3.44464,85.3065
2023-03-11 16:31:35:514,0,-4.54864,-3.44814,85.3023
2023-03-11 16:31:35:524,0,-4.54858,-3.45517,85.298
2023-03-11 16:31:35:533,0,-4.54624,-3.45957,85.2943
2023-03-11 16:31:35:543,0,-4.54686,-3.46277,85.2944
2023-03-11 16:31:35:554,0,-4.54652,-3.4663,85.2981
2023-03-11 16:31:35:564,0,-4.54772,-3.46696,85.3023
2023-03-11 16:31:35:574,0,-4.54542,-3.46994,85.3091
2023-03-11 16:31:35:583,0,-4.54167,-3.47666,85.3201
2023-03-11 16:31:35:594,0,-4.54326,-3.48117,85.3263
2023-03-11 16:31:35:604,0,-4.54328,-3.48484,85.3381
2023-03-11 16:31:35:614,0,-4.53955,-3.48962,85.3499
2023-03-11 16:31:35:623,0,-4.53969,-3.49014,85.3621
2023-03-11 16:31:35:634,0,-4.53958,-3.49183,85.371
2023-03-11 16:31:35:643,0,-4.54313,-3.49507,85.3791
2023-03-11 16:31:35:654,0,-4.54799,-3.50181,85.3925
2023-03-11 16:31:35:664,0,-4.56193,-3.50521,85.4078
2023-03-11 16:31:35:674,0,-4.58174,-3.51094,85.424
2023-03-11 16:31:35:684,0,-4.60412,-3.51567,85.4393
2023-03-11 16:31:35:694,0,-4.62602,-3.51934,85.4516
2023-03-11 16:31:35:703,0,-4.64733,-3.52483,85.4665
2023-03-11 16:31:35:714,0,-4.66907,-3.53999,85.4814
2023-03-11 16:31:35:724,0,-4.69227,-3.55575,85.4974
2023-03-11 16:31:35:733,0,-4.71195,-3.56769,85.5193
2023-03-11 16:31:35:743,0,-4.72701,-3.57502,85.5435
2023-03-11 16:31:35:754,0,-4.74428,-3.58687,85.5698
2023-03-11 16:31:35:763,0,-4.76401,-3.59578,85.6011
2023-03-11 16:31:35:773,0,-4.78743,-3.60763,85.6376
2023-03-11 16:31:35:784,0,-4.8093,-3.61976,85.6749
2023-03-11 16:31:35:793,0,-4.83067,-3.62436,85.7118
2023-03-11 16:31:35:804,0,-4.84745,-3.63063,85.7495
2023-03-11 16:31:35:813,0,-4.8648,-3.63184,85.7818
2023-03-11 16:31:35:824,0,-4.88245,-3.63884,85.8108
2023-03-11 16:31:35:834,0,-4.89699,-3.64155,85.8354
2023-03-11 16:31:35:844,0,-4.91097,-3.64556,85.8564
2023-03-11 16:31:35:854,0,-4.92415,-3.64956,85.873
2023-03-11 16:31:35:864,0,-4.93743,-3.65383,85.8889
2023-03-11 16:31:35:874,0,-4.94285,-3.65804,85.9011
2023-03-11 16:31:35:884,0,-4.95249,-3.66652,85.9125
2023-03-11 16:31:35:894,0,-4.95836,-3.67602,85.9181
2023-03-11 16:31:35:904,0,-4.9702,-3.68469,85.9251
2023-03-11 16:31:35:914,0,-4.98046,-3.68961,85.9275
2023-03-11 16:31:35:924,0,-4.98552,-3.69137,85.9316
2023-03-11 16:31:35:934,0,-4.98384,-3.69852,85.9322
2023-03-11 16:31:35:944,0,-4.97942,-3.70409,85.9345
2023-03-11 16:31:35:954,0,-4.97202,-3.7112,85.9371
2023-03-11 16:31:35:964,0,-4.96752,-3.72032,85.9357
2023-03-11 16:31:35:974,0,-4.95919,-3.72489,85.9365
2023-03-11 16:31:35:984,0,-4.95307,-3.72445,85.9324
2023-03-11 16:31:35:994,0,-4.94776,-3.72328,85.9325
2023-03-11 16:31:36:4,0,-4.94153,-3.72494,85.9333
2023-03-11 16:31:36:14,0,-4.9355,-3.72689,85.933
2023-03-11 16:31:36:24,0,-4.92907,-3.73131,85.9291
2023-03-11 16:31:36:34,0,-4.9212,-3.73653,85.9297
2023-03-11 16:31:36:44,0,-4.91028,-3.74009,85.9288
2023-03-11 16:31:36:54,0,-4.89912,-3.74137,85.925
2023-03-11 16:31:36:64,0,-4.89023,-3.74134,85.9233
2023-03-11 16:31:36:74,0,-4.87796,-3.73937,85.9204
2023-03-11 16:31:36:84,0,-4.86901,-3.736,85.9172
2023-03-11 16:31:36:94,0,-4.86037,-3.73451,85.9131
2023-03-11 16:31:36:104,0,-4.85161,-3.73565,85.9112
2023-03-11 16:31:36:114,0,-4.8413,-3.73492,85.9123
2023-03-11 16:31:36:124,0,-4.83252,-3.73473,85.9128
2023-03-11 16:31:36:134,0,-4.82223,-3.73507,85.9094
2023-03-11 16:31:36:143,0,-4.81433,-3.73139,85.9064
2023-03-11 16:31:36:154,0,-4.80629,-3.72863,85.907
2023-03-11 16:31:36:164,0,-4.79691,-3.7293,85.9065
2023-03-11 16:31:36:174,0,-4.78573,-3.72754,85.9043
2023-03-11 16:31:36:184,0,-4.78106,-3.72294,85.9015
2023-03-11 16:31:36:194,0,-4.77434,-3.72121,85.8975
2023-03-11 16:31:36:204,0,-4.7687,-3.71718,85.8905
2023-03-11 16:31:36:214,0,-4.76386,-3.71404,85.8829
2023-03-11 16:31:36:224,0,-4.7584,-3.70793,85.8734
2023-03-11 16:31:36:234,0,-4.75376,-3.70035,85.8628
2023-03-11 16:31:36:244,0,-4.74554,-3.69323,85.8497
2023-03-11 16:31:36:253,0,-4.74434,-3.68666,85.842
2023-03-11 16:31:36:264,0,-4.73681,-3.68172,85.8318
2023-03-11 16:31:36:274,0,-4.73242,-3.67767,85.8222
2023-03-11 16:31:36:283,0,-4.72824,-3.6726,85.8145
2023-03-11 16:31:36:293,0,-4.7226,-3.67152,85.8013
2023-03-11 16:31:36:303,0,-4.71549,-3.67344,85.7901
2023-03-11 16:31:36:314,0,-4.71058,-3.6725,85.785
2023-03-11 16:31:36:323,0,-4.70279,-3.67248,85.7823
2023-03-11 16:31:36:334,0,-4.69679,-3.6728,85.7776
2023-03-11 16:31:36:343,0,-4.69325,-3.67308,85.7732
2023-03-11 16:31:36:354,0,-4.6928,-3.67044,85.7705
2023-03-11 16:31:36:363,0,-4.6919,-3.66828,85.7694
2023-03-11 16:31:36:374,0,-4.69579,-3.66514,85.7726
2023-03-11 16:31:36:384,0,-4.699,-3.66216,85.775
2023-03-11 16:31:36:393,0,-4.70134,-3.65634,85.7791
2023-03-11 16:31:36:404,0,-4.705,-3.64985,85.7873
2023-03-11 16:31:36:414,0,-4.70687,-3.64819,85.7937
2023-03-11 16:31:36:424,0,-4.71293,-3.64975,85.7987
2023-03-11 16:31:36:434,0,-4.72118,-3.64843,85.8035
2023-03-11 16:31:36:444,0,-4.73396,-3.65114,85.8067
2023-03-11 16:31:36:453,0,-4.7462,-3.65906,85.8092
2023-03-11 16:31:36:464,0,-4.75728,-3.6713,85.8117
2023-03-11 16:31:36:474,0,-4.76888,-3.68822,85.8154
2023-03-11 16:31:36:484,0,-4.77567,-3.70659,85.8224
2023-03-11 16:31:36:494,0,-4.78616,-3.73003,85.8274
2023-03-11 16:31:36:503,0,-4.79658,-3.75405,85.8399
2023-03-11 16:31:36:514,0,-4.80954,-3.776,85.8606
2023-03-11 16:31:36:523,0,-4.82727,-3.79434,85.8793
2023-03-11 16:31:36:534,0,-4.84583,-3.81215,85.9004
2023-03-11 16:31:36:544,0,-4.86551,-3.82682,85.9201
2023-03-11 16:31:36:554,0,-4.88329,-3.83906,85.9401
2023-03-11 16:31:36:564,0,-4.90057,-3.85096,85.957
2023-03-11 16:31:36:574,0,-4.9156,-3.85812,85.9724
2023-03-11 16:31:36:584,0,-4.93167,-3.85918,85.98
2023-03-11 16:31:36:594,0,-4.95074,-3.8569,85.9882
2023-03-11 16:31:36:604,0,-4.96661,-3.85814,85.9879
2023-03-11 16:31:36:614,0,-4.98494,-3.85462,85.9833
2023-03-11 16:31:36:623,0,-5.00411,-3.85219,85.9785
2023-03-11 16:31:36:633,0,-5.01785,-3.85577,85.9736
2023-03-11 16:31:36:644,0,-5.03682,-3.85936,85.9711
2023-03-11 16:31:36:654,0,-5.05739,-3.86385,85.9666
2023-03-11 16:31:36:664,0,-5.07551,-3.8602,85.9636
2023-03-11 16:31:36:674,0,-5.09574,-3.8572,85.9613
2023-03-11 16:31:36:684,0,-5.10875,-3.85335,85.9562
2023-03-11 16:31:36:693,0,-5.12346,-3.84974,85.954
2023-03-11 16:31:36:704,0,-5.13616,-3.84875,85.9525
2023-03-11 16:31:36:714,0,-5.14802,-3.84885,85.953
2023-03-11 16:31:36:724,0,-5.1602,-3.84727,85.9524
2023-03-11 16:31:36:733,0,-5.1692,-3.8456,85.9544
2023-03-11 16:31:36:743,0,-5.17814,-3.84603,85.9533
2023-03-11 16:31:36:754,0,-5.18686,-3.84672,85.9606
2023-03-11 16:31:36:763,0,-5.19262,-3.84902,85.9623
2023-03-11 16:31:36:774,0,-5.19543,-3.85034,85.9626
2023-03-11 16:31:36:783,0,-5.19736,-3.85441,85.9659
2023-03-11 16:31:36:793,0,-5.20048,-3.85648,85.9684
2023-03-11 16:31:36:804,0,-5.20432,-3.86289,85.9718
2023-03-11 16:31:36:813,0,-5.20824,-3.8667,85.9739
2023-03-11 16:31:36:823,0,-5.21273,-3.87104,85.9747
2023-03-11 16:31:36:833,0,-5.21891,-3.87642,85.9777
2023-03-11 16:31:36:844,0,-5.22723,-3.88484,85.9789
2023-03-11 16:31:36:854,0,-5.2336,-3.88999,85.9843
2023-03-11 16:31:36:864,0,-5.24039,-3.89578,85.9888
2023-03-11 16:31:36:874,0,-5.25041,-3.90175,85.9929
2023-03-11 16:31:36:884,0,-5.26396,-3.90881,85.9982
2023-03-11 16:31:36:894,0,-5.27816,-3.91125,86.0036
2023-03-11 16:31:36:904,0,-5.2918,-3.91377,86.0091
2023-03-11 16:31:36:914,0,-5.30354,-3.91422,86.0102
2023-03-11 16:31:36:923,0,-5.31407,-3.91079,86.0118
2023-03-11 16:31:36:934,0,-5.32561,-3.90771,86.0153
2023-03-11 16:31:36:943,0,-5.33965,-3.90278,86.0157
2023-03-11 16:31:36:954,0,-5.35177,-3.89284,86.0104
2023-03-11 16:31:36:964,0,-5.36615,-3.88533,86.0057
2023-03-11 16:31:36:974,0,-5.38193,-3.87483,86.0007
2023-03-11 16:31:36:984,0,-5.40028,-3.86368,85.9943
2023-03-11 16:31:36:994,0,-5.41941,-3.85189,85.9831
2023-03-11 16:31:37:4,0,-5.43403,-3.84074,85.9745
2023-03-11 16:31:37:14,0,-5.44816,-3.8297,85.963
2023-03-11 16:31:37:24,0,-5.46008,-3.82089,85.95
2023-03-11 16:31:37:34,0,-5.47097,-3.81423,85.9405
2023-03-11 16:31:37:44,0,-5.48044,-3.80573,85.9332
2023-03-11 16:31:37:54,0,-5.49117,-3.79994,85.924
2023-03-11 16:31:37:63,0,-5.5008,-3.79445,85.9195
2023-03-11 16:31:37:74,0,-5.51148,-3.79044,85.9159
2023-03-11 16:31:37:84,0,-5.52,-3.78853,85.9117
2023-03-11 16:31:37:94,0,-5.52849,-3.78962,85.909
2023-03-11 16:31:37:104,0,-5.53537,-3.78515,85.9124
2023-03-11 16:31:37:113,0,-5.54241,-3.78411,85.9169
2023-03-11 16:31:37:123,0,-5.54641,-3.78767,85.9182
2023-03-11 16:31:37:133,0,-5.54844,-3.79332,85.922
2023-03-11 16:31:37:144,0,-5.55021,-3.79367,85.9222
2023-03-11 16:31:37:154,0,-5.55296,-3.79337,85.9219
2023-03-11 16:31:37:164,0,-5.55873,-3.79418,85.9224
2023-03-11 16:31:37:174,0,-5.56529,-3.79378,85.9227
2023-03-11 16:31:37:184,0,-5.57143,-3.79999,85.9186
2023-03-11 16:31:37:194,0,-5.57847,-3.80451,85.9163
2023-03-11 16:31:37:204,0,-5.57727,-3.81035,85.9144
2023-03-11 16:31:37:213,0,-5.57341,-3.81747,85.9111
2023-03-11 16:31:37:224,0,-5.56878,-3.82594,85.9134
2023-03-11 16:31:37:234,0,-5.565,-3.83253,85.9191
2023-03-11 16:31:37:244,0,-5.566,-3.84177,85.9247
2023-03-11 16:31:37:253,0,-5.56539,-3.84889,85.9355
2023-03-11 16:31:37:263,0,-5.57095,-3.85623,85.9417
2023-03-11 16:31:37:273,0,-5.5695,-3.86251,85.9507
2023-03-11 16:31:37:283,0,-5.57393,-3.86869,85.9571
2023-03-11 16:31:37:293,0,-5.57865,-3.87892,85.9662
2023-03-11 16:31:37:303,0,-5.58114,-3.88385,85.9729
2023-03-11 16:31:37:313,0,-5.58796,-3.88543,85.9757
2023-03-11 16:31:37:323,0,-5.59063,-3.88648,85.9764
2023-03-11 16:31:37:334,0,-5.60059,-3.88839,85.9771
2023-03-11 16:31:37:344,0,-5.60435,-3.88497,85.9771
2023-03-11 16:31:37:354,0,-5.6069,-3.88123,85.9792
2023-03-11 16:31:37:364,0,-5.61487,-3.88008,85.977
2023-03-11 16:31:37:374,0,-5.61891,-3.87807,85.9776
2023-03-11 16:31:37:384,0,-5.6197,-3.87946,85.9763
2023-03-11 16:31:37:394,0,-5.62067,-3.88234,85.977
2023-03-11 16:31:37:403,0,-5.62291,-3.87697,85.9767
2023-03-11 16:31:37:414,0,-5.61994,-3.87021,85.9761
2023-03-11 16:31:37:424,0,-5.61761,-3.86266,85.9707
2023-03-11 16:31:37:434,0,-5.60927,-3.86127,85.9683
2023-03-11 16:31:37:444,0,-5.60411,-3.86038,85.9654
2023-03-11 16:31:37:453,0,-5.59078,-3.86075,85.9647
2023-03-11 16:31:37:463,0,-5.58123,-3.86127,85.9621
2023-03-11 16:31:37:474,0,-5.5689,-3.86354,85.961
2023-03-11 16:31:37:484,0,-5.55623,-3.86556,85.9618
2023-03-11 16:31:37:494,0,-5.54237,-3.86849,85.965
2023-03-11 16:31:37:504,0,-5.53062,-3.87355,85.9688
2023-03-11 16:31:37:514,0,-5.51742,-3.88036,85.9715
2023-03-11 16:31:37:524,0,-5.50892,-3.88549,85.9782
2023-03-11 16:31:37:534,0,-5.49696,-3.89029,85.9844
2023-03-11 16:31:37:544,0,-5.48748,-3.89356,85.9892
2023-03-11 16:31:37:554,0,-5.47431,-3.89864,85.9961
2023-03-11 16:31:37:564,0,-5.46144,-3.90482,86.0021
2023-03-11 16:31:37:574,0,-5.45102,-3.90734,86.0074
2023-03-11 16:31:37:584,0,-5.44034,-3.91098,86.0096
2023-03-11 16:31:37:594,0,-5.43154,-3.91388,86.0136
2023-03-11 16:31:37:604,0,-5.42508,-3.92002,86.0174
2023-03-11 16:31:37:614,0,-5.42111,-3.92529,86.0234
2023-03-11 16:31:37:624,0,-5.4189,-3.93244,86.0305
2023-03-11 16:31:37:634,0,-5.41903,-3.93753,86.0355
2023-03-11 16:31:37:644,0,-5.42184,-3.94102,86.0446
2023-03-11 16:31:37:654,0,-5.42429,-3.94324,86.0515
2023-03-11 16:31:37:664,0,-5.43347,-3.94306,86.0574
2023-03-11 16:31:37:674,0,-5.43752,-3.93637,86.0598
2023-03-11 16:31:37:684,0,-5.44432,-3.93361,86.0627
2023-03-11 16:31:37:693,0,-5.45098,-3.9254,86.0611
2023-03-11 16:31:37:704,0,-5.45933,-3.9208,86.0604
2023-03-11 16:31:37:713,0,-5.46945,-3.91467,86.0569
2023-03-11 16:31:37:723,0,-5.47889,-3.90623,86.052
2023-03-11 16:31:37:734,0,-5.48523,-3.89951,86.046
2023-03-11 16:31:37:744,0,-5.49371,-3.89499,86.0415
2023-03-11 16:31:37:754,0,-5.50158,-3.88975,86.038
2023-03-11 16:31:37:764,0,-5.50468,-3.88217,86.0301
2023-03-11 16:31:37:774,0,-5.50754,-3.8774,86.0262
2023-03-11 16:31:37:783,0,-5.51339,-3.87079,86.0244
2023-03-11 16:31:37:794,0,-5.51873,-3.8695,86.0255
2023-03-11 16:31:37:804,0,-5.52305,-3.86693,86.0246
2023-03-11 16:31:37:813,0,-5.52518,-3.86216,86.0296
2023-03-11 16:31:37:824,0,-5.52907,-3.85501,86.0327
2023-03-11 16:31:37:834,0,-5.52862,-3.85196,86.0343
2023-03-11 16:31:37:844,0,-5.52867,-3.84887,86.0368
2023-03-11 16:31:37:854,0,-5.52349,-3.84287,86.0351
2023-03-11 16:31:37:864,0,-5.51958,-3.83966,86.031
2023-03-11 16:31:37:874,0,-5.51549,-3.837,86.0247
2023-03-11 16:31:37:883,0,-5.51335,-3.83212,86.016
2023-03-11 16:31:37:893,0,-5.51747,-3.83039,86.0117
2023-03-11 16:31:37:904,0,-5.52182,-3.82677,86.0035
2023-03-11 16:31:37:914,0,-5.5285,-3.82324,85.997
2023-03-11 16:31:37:923,0,-5.5278,-3.8232,85.9918
2023-03-11 16:31:37:934,0,-5.53202,-3.82794,85.9832
2023-03-11 16:31:37:944,0,-5.53336,-3.83258,85.9847
2023-03-11 16:31:37:954,0,-5.53819,-3.84188,85.9862
2023-03-11 16:31:37:964,0,-5.54795,-3.8528,85.9922
2023-03-11 16:31:37:974,0,-5.55327,-3.8618,86.0024
2023-03-11 16:31:37:984,0,-5.56248,-3.87101,86.0126
2023-03-11 16:31:37:994,0,-5.56978,-3.88009,86.0274
2023-03-11 16:31:38:3,0,-5.57859,-3.88629,86.0393
2023-03-11 16:31:38:14,0,-5.59195,-3.88702,86.0485
2023-03-11 16:31:38:24,0,-5.60018,-3.88885,86.0551
2023-03-11 16:31:38:34,0,-5.61234,-3.88836,86.0612
2023-03-11 16:31:38:44,0,-5.62127,-3.88357,86.0647
2023-03-11 16:31:38:54,0,-5.63276,-3.8807,86.0604
2023-03-11 16:31:38:64,0,-5.6417,-3.87446,86.0578
2023-03-11 16:31:38:74,0,-5.65118,-3.87302,86.0505
2023-03-11 16:31:38:84,0,-5.6624,-3.86709,86.0417
2023-03-11 16:31:38:94,0,-5.67103,-3.86413,86.0326
2023-03-11 16:31:38:104,0,-5.67823,-3.86659,86.0239
2023-03-11 16:31:38:114,0,-5.68872,-3.86634,86.0207
2023-03-11 16:31:38:124,0,-5.69704,-3.86723,86.0169
2023-03-11 16:31:38:134,0,-5.70421,-3.86765,86.0145
2023-03-11 16:31:38:144,0,-5.70693,-3.86439,86.0126
2023-03-11 16:31:38:154,0,-5.70437,-3.86467,86.0113
2023-03-11 16:31:38:164,0,-5.69664,-3.86792,86.0116
2023-03-11 16:31:38:174,0,-5.68943,-3.87079,86.0134
2023-03-11 16:31:38:184,0,-5.68075,-3.8769,86.0162
2023-03-11 16:31:38:194,0,-5.67394,-3.88049,86.0199
2023-03-11 16:31:38:203,0,-5.66482,-3.88551,86.0241
2023-03-11 16:31:38:214,0,-5.65526,-3.89369,86.0268
2023-03-11 16:31:38:224,0,-5.64502,-3.90067,86.0296
2023-03-11 16:31:38:234,0,-5.63927,-3.90967,86.0321
2023-03-11 16:31:38:244,0,-5.63756,-3.91876,86.0357
2023-03-11 16:31:38:254,0,-5.63748,-3.92413,86.0417
2023-03-11 16:31:38:264,0,-5.63859,-3.92865,86.0452
2023-03-11 16:31:38:274,0,-5.64066,-3.93393,86.0505
2023-03-11 16:31:38:284,0,-5.64267,-3.93916,86.0531
2023-03-11 16:31:38:294,0,-5.64474,-3.94233,86.0544
2023-03-11 16:31:38:304,0,-5.64586,-3.9488,86.0553
2023-03-11 16:31:38:314,0,-5.64201,-3.95654,86.0538
2023-03-11 16:31:38:323,0,-5.64199,-3.96488,86.0502
2023-03-11 16:31:38:333,0,-5.63769,-3.97446,86.0426
2023-03-11 16:31:38:344,0,-5.63896,-3.98119,86.0336
2023-03-11 16:31:38:354,0,-5.64506,-3.98577,86.0253
2023-03-11 16:31:38:364,0,-5.65139,-3.98716,86.0139
2023-03-11 16:31:38:374,0,-5.65835,-3.98987,86.001
2023-03-11 16:31:38:384,0,-5.66436,-3.98492,85.9891
2023-03-11 16:31:38:394,0,-5.6714,-3.97866,85.9784
2023-03-11 16:31:38:404,0,-5.68034,-3.96723,85.9698
2023-03-11 16:31:38:414,0,-5.68771,-3.95718,85.964
2023-03-11 16:31:38:424,0,-5.69652,-3.94567,85.9566
2023-03-11 16:31:38:433,0,-5.70337,-3.94251,85.9558
2023-03-11 16:31:38:444,0,-5.71235,-3.94308,85.9603
2023-03-11 16:31:38:454,0,-5.71692,-3.9454,85.9689
2023-03-11 16:31:38:463,0,-5.71608,-3.95148,85.9771
2023-03-11 16:31:38:473,0,-5.71581,-3.95566,85.9925
2023-03-11 16:31:38:484,0,-5.71417,-3.96125,86.0084
2023-03-11 16:31:38:494,0,-5.71559,-3.96167,86.0228
2023-03-11 16:31:38:504,0,-5.71397,-3.96542,86.0375
2023-03-11 16:31:38:514,0,-5.71576,-3.9651,86.0486
2023-03-11 16:31:38:524,0,-5.71568,-3.96497,86.0551
2023-03-11 16:31:38:534,0,-5.71584,-3.96212,86.0605
2023-03-11 16:31:38:544,0,-5.71461,-3.95264,86.0606
2023-03-11 16:31:38:554,0,-5.71729,-3.94361,86.0552
2023-03-11 16:31:38:564,0,-5.72183,-3.93146,86.049
2023-03-11 16:31:38:574,0,-5.72788,-3.91991,86.0405
2023-03-11 16:31:38:584,0,-5.7337,-3.9033,86.0281
2023-03-11 16:31:38:594,0,-5.74304,-3.88383,86.0194
2023-03-11 16:31:38:604,0,-5.75666,-3.86154,86.0109
2023-03-11 16:31:38:614,0,-5.77036,-3.83614,86.0044
2023-03-11 16:31:38:624,0,-5.78873,-3.81146,86.0003
2023-03-11 16:31:38:634,0,-5.81264,-3.78912,85.9962
2023-03-11 16:31:38:644,0,-5.83417,-3.76482,85.9943
2023-03-11 16:31:38:654,0,-5.85199,-3.75018,85.9928
2023-03-11 16:31:38:664,0,-5.86821,-3.74077,85.9963
2023-03-11 16:31:38:674,0,-5.87773,-3.73954,86.0056
2023-03-11 16:31:38:684,0,-5.88435,-3.74696,86.0183
2023-03-11 16:31:38:694,0,-5.88556,-3.75823,86.0341
2023-03-11 16:31:38:704,0,-5.88942,-3.77176,86.0564
2023-03-11 16:31:38:714,0,-5.89394,-3.78372,86.0795
2023-03-11 16:31:38:724,0,-5.89509,-3.79353,86.1038
2023-03-11 16:31:38:734,0,-5.90086,-3.80118,86.1342
2023-03-11 16:31:38:744,0,-5.90219,-3.80669,86.1733
2023-03-11 16:31:38:754,0,-5.90264,-3.80899,86.2219
2023-03-11 16:31:38:763,0,-5.90125,-3.81108,86.2779
2023-03-11 16:31:38:774,0,-5.89953,-3.80881,86.3405
2023-03-11 16:31:38:784,0,-5.89714,-3.80898,86.4106
2023-03-11 16:31:38:794,0,-5.89555,-3.80996,86.4884
2023-03-11 16:31:38:804,0,-5.89466,-3.81085,86.5734
2023-03-11 16:31:38:814,0,-5.89851,-3.81078,86.6591
2023-03-11 16:31:38:823,0,-5.90654,-3.80905,86.7515
2023-03-11 16:31:38:834,0,-5.91952,-3.80473,86.8477
2023-03-11 16:31:38:844,0,-5.93346,-3.80258,86.9507
2023-03-11 16:31:38:853,0,-5.95373,-3.79921,87.0587
2023-03-11 16:31:38:864,0,-5.97488,-3.79515,87.1786
2023-03-11 16:31:38:874,0,-6.00194,-3.79128,87.2982
2023-03-11 16:31:38:884,0,-6.02853,-3.78634,87.4219
2023-03-11 16:31:38:894,0,-6.05073,-3.7828,87.5472
2023-03-11 16:31:38:903,0,-6.07436,-3.7879,87.6738
2023-03-11 16:31:38:913,0,-6.0913,-3.79588,87.803
2023-03-11 16:31:38:923,0,-6.10343,-3.80647,87.9307
2023-03-11 16:31:38:934,0,-6.11584,-3.81823,88.0587
2023-03-11 16:31:38:944,0,-6.12682,-3.83284,88.1848
2023-03-11 16:31:38:954,0,-6.1408,-3.85049,88.3085
2023-03-11 16:31:38:964,0,-6.15743,-3.87515,88.4297
2023-03-11 16:31:38:974,0,-6.17494,-3.90335,88.5473
2023-03-11 16:31:38:984,0,-6.19519,-3.93094,88.6588
2023-03-11 16:31:38:994,0,-6.2133,-3.96061,88.7603
2023-03-11 16:31:39:4,0,-6.23139,-3.98981,88.8559
2023-03-11 16:31:39:14,0,-6.24914,-4.01919,88.9447
2023-03-11 16:31:39:24,0,-6.26557,-4.0498,89.0205
2023-03-11 16:31:39:34,0,-6.28023,-4.08169,89.0871
2023-03-11 16:31:39:44,0,-6.29591,-4.11035,89.1432
2023-03-11 16:31:39:54,0,-6.31631,-4.14336,89.1862
2023-03-11 16:31:39:64,0,-6.33732,-4.17379,89.2233
2023-03-11 16:31:39:74,0,-6.35818,-4.20155,89.2469
2023-03-11 16:31:39:84,0,-6.38136,-4.22654,89.2611
2023-03-11 16:31:39:94,0,-6.40617,-4.25023,89.2657
2023-03-11 16:31:39:104,0,-6.42737,-4.27228,89.267
2023-03-11 16:31:39:114,0,-6.44832,-4.29036,89.2558
2023-03-11 16:31:39:124,0,-6.466,-4.30493,89.2365
2023-03-11 16:31:39:134,0,-6.47756,-4.31716,89.2122
2023-03-11 16:31:39:144,0,-6.48931,-4.32322,89.186
2023-03-11 16:31:39:154,0,-6.50463,-4.32718,89.1597
2023-03-11 16:31:39:164,0,-6.51673,-4.32525,89.1328
2023-03-11 16:31:39:174,0,-6.53018,-4.32079,89.1038
2023-03-11 16:31:39:184,0,-6.53882,-4.31389,89.0791
2023-03-11 16:31:39:194,0,-6.54881,-4.30647,89.0559
2023-03-11 16:31:39:204,0,-6.56006,-4.29881,89.0348
2023-03-11 16:31:39:214,0,-6.56778,-4.28931,89.0128
2023-03-11 16:31:39:224,0,-6.57594,-4.27735,88.9927
2023-03-11 16:31:39:234,0,-6.58468,-4.26785,88.9726
2023-03-11 16:31:39:244,0,-6.59513,-4.25793,88.9554
2023-03-11 16:31:39:254,0,-6.60476,-4.25254,88.9415
2023-03-11 16:31:39:263,0,-6.61185,-4.24537,88.9264
2023-03-11 16:31:39:274,0,-6.62003,-4.2382,88.916
2023-03-11 16:31:39:284,0,-6.62985,-4.23603,88.9068
2023-03-11 16:31:39:294,0,-6.63515,-4.24062,88.9018
2023-03-11 16:31:39:303,0,-6.64025,-4.24189,88.8977
2023-03-11 16:31:39:314,0,-6.64702,-4.2421,88.8957
2023-03-11 16:31:39:324,0,-6.65275,-4.24561,88.8943
2023-03-11 16:31:39:334,0,-6.65664,-4.24465,88.8946
2023-03-11 16:31:39:344,0,-6.65988,-4.24359,88.8958
2023-03-11 16:31:39:354,0,-6.66633,-4.24406,88.8944
2023-03-11 16:31:39:364,0,-6.66698,-4.24147,88.8947
2023-03-11 16:31:39:374,0,-6.66955,-4.24135,88.8945
2023-03-11 16:31:39:384,0,-6.67366,-4.2429,88.8983
2023-03-11 16:31:39:394,0,-6.68146,-4.24252,88.896
2023-03-11 16:31:39:403,0,-6.68864,-4.24058,88.8972
2023-03-11 16:31:39:414,0,-6.69923,-4.24284,88.8994
2023-03-11 16:31:39:423,0,-6.70865,-4.25067,88.9032
2023-03-11 16:31:39:433,0,-6.71615,-4.26663,88.9108
2023-03-11 16:31:39:443,0,-6.72097,-4.2846,88.9217
2023-03-11 16:31:39:453,0,-6.72625,-4.29895,88.9391
2023-03-11 16:31:39:463,0,-6.7339,-4.31378,88.959
2023-03-11 16:31:39:474,0,-6.7388,-4.32075,88.9784
2023-03-11 16:31:39:484,0,-6.74978,-4.32838,88.9969
2023-03-11 16:31:39:494,0,-6.75955,-4.33469,89.0175
2023-03-11 16:31:39:504,0,-6.77241,-4.33702,89.0354
2023-03-11 16:31:39:513,0,-6.7831,-4.34147,89.0552
2023-03-11 16:31:39:524,0,-6.79377,-4.3425,89.0702
2023-03-11 16:31:39:534,0,-6.80726,-4.34222,89.0829
2023-03-11 16:31:39:544,0,-6.82239,-4.34451,89.0916
2023-03-11 16:31:39:554,0,-6.83849,-4.34446,89.0902
2023-03-11 16:31:39:564,0,-6.8517,-4.34394,89.0878
2023-03-11 16:31:39:574,0,-6.86528,-4.34136,89.0843
2023-03-11 16:31:39:584,0,-6.87973,-4.33906,89.0794
2023-03-11 16:31:39:594,0,-6.89249,-4.34184,89.0717
2023-03-11 16:31:39:604,0,-6.90492,-4.34183,89.0681
2023-03-11 16:31:39:614,0,-6.91901,-4.34393,89.0645
2023-03-11 16:31:39:624,0,-6.92943,-4.34608,89.0644
2023-03-11 16:31:39:634,0,-6.9358,-4.34687,89.0613
2023-03-11 16:31:39:644,0,-6.93338,-4.35043,89.058
2023-03-11 16:31:39:654,0,-6.93211,-4.35572,89.0574
2023-03-11 16:31:39:664,0,-6.92183,-4.35999,89.057
2023-03-11 16:31:39:674,0,-6.90916,-4.36188,89.0562
2023-03-11 16:31:39:684,0,-6.89545,-4.36112,89.0564
2023-03-11 16:31:39:694,0,-6.88543,-4.3581,89.0576
2023-03-11 16:31:39:704,0,-6.87628,-4.35776,89.0567
2023-03-11 16:31:39:714,0,-6.8633,-4.35762,89.059
2023-03-11 16:31:39:724,0,-6.8543,-4.35887,89.0602
2023-03-11 16:31:39:734,0,-6.84777,-4.36403,89.0587
2023-03-11 16:31:39:744,0,-6.84135,-4.37016,89.0577
2023-03-11 16:31:39:754,0,-6.83437,-4.37941,89.0562
2023-03-11 16:31:39:764,0,-6.8258,-4.38839,89.0516
2023-03-11 16:31:39:774,0,-6.81826,-4.39684,89.0485
2023-03-11 16:31:39:784,0,-6.81041,-4.40383,89.0459
2023-03-11 16:31:39:794,0,-6.80552,-4.40886,89.0442
2023-03-11 16:31:39:804,0,-6.79753,-4.41375,89.0389
2023-03-11 16:31:39:813,0,-6.79329,-4.4185,89.0392
2023-03-11 16:31:39:824,0,-6.78829,-4.42357,89.0411
2023-03-11 16:31:39:833,0,-6.78701,-4.42738,89.0438
2023-03-11 16:31:39:843,0,-6.78292,-4.43165,89.0503
2023-03-11 16:31:39:854,0,-6.78485,-4.43412,89.0563
2023-03-11 16:31:39:864,0,-6.78799,-4.43748,89.0629
2023-03-11 16:31:39:874,0,-6.79523,-4.43659,89.074
2023-03-11 16:31:39:883,0,-6.80639,-4.43958,89.0843
2023-03-11 16:31:39:893,0,-6.8178,-4.44068,89.0946
2023-03-11 16:31:39:903,0,-6.83265,-4.44447,89.1012
2023-03-11 16:31:39:914,0,-6.84621,-4.44622,89.1075
2023-03-11 16:31:39:924,0,-6.85868,-4.4439,89.1151
2023-03-11 16:31:39:934,0,-6.87347,-4.44169,89.1202
2023-03-11 16:31:39:944,0,-6.8873,-4.44164,89.126
2023-03-11 16:31:39:954,0,-6.9006,-4.44224,89.1261
2023-03-11 16:31:39:963,0,-6.91275,-4.44274,89.1277
2023-03-11 16:31:39:974,0,-6.92253,-4.44556,89.1253
2023-03-11 16:31:39:983,0,-6.93337,-4.44818,89.1223
2023-03-11 16:31:39:994,0,-6.9435,-4.45061,89.1174
2023-03-11 16:31:40:4,0,-6.95631,-4.45126,89.1156
2023-03-11 16:31:40:14,0,-6.9639,-4.45602,89.1152
2023-03-11 16:31:40:24,0,-6.97409,-4.45708,89.1154
2023-03-11 16:31:40:34,0,-6.98077,-4.45829,89.1223
2023-03-11 16:31:40:43,0,-6.99036,-4.46312,89.1298
2023-03-11 16:31:40:54,0,-6.99639,-4.46831,89.1434
2023-03-11 16:31:40:64,0,-6.99545,-4.46905,89.1658
2023-03-11 16:31:40:74,0,-6.99424,-4.47575,89.1982
2023-03-11 16:31:40:84,0,-6.98568,-4.49055,89.2431
2023-03-11 16:31:40:94,0,-6.96759,-4.50602,89.3001
2023-03-11 16:31:40:104,0,-6.94426,-4.52296,89.3624
2023-03-11 16:31:40:114,0,-6.91397,-4.54109,89.4318
2023-03-11 16:31:40:124,0,-6.88403,-4.54753,89.508
2023-03-11 16:31:40:134,0,-6.85158,-4.55139,89.5894
2023-03-11 16:31:40:144,0,-6.81359,-4.55456,89.6815
2023-03-11 16:31:40:154,0,-6.77924,-4.56277,89.7788
2023-03-11 16:31:40:164,0,-6.7422,-4.57916,89.8847
2023-03-11 16:31:40:174,0,-6.70207,-4.59583,89.9951
2023-03-11 16:31:40:184,0,-6.65953,-4.61844,90.1117
2023-03-11 16:31:40:194,0,-6.61453,-4.64666,90.2333
2023-03-11 16:31:40:204,0,-6.5634,-4.67818,90.3535
2023-03-11 16:31:40:214,0,-6.50983,-4.7121,90.4722
2023-03-11 16:31:40:224,0,-6.45743,-4.74422,90.5914
2023-03-11 16:31:40:234,0,-6.40978,-4.77468,90.704
2023-03-11 16:31:40:244,0,-6.36644,-4.80168,90.8128
2023-03-11 16:31:40:254,0,-6.32162,-4.82527,90.9128
2023-03-11 16:31:40:264,0,-6.2856,-4.84505,91.0094
2023-03-11 16:31:40:274,0,-6.25833,-4.86019,91.1029
2023-03-11 16:31:40:284,0,-6.2402,-4.87827,91.1927
2023-03-11 16:31:40:294,0,-6.23492,-4.89067,91.2814
2023-03-11 16:31:40:304,0,-6.23932,-4.90666,91.3688
2023-03-11 16:31:40:314,0,-6.25312,-4.91563,91.4549
2023-03-11 16:31:40:323,0,-6.2756,-4.92126,91.5392
2023-03-11 16:31:40:334,0,-6.30094,-4.92513,91.6251
2023-03-11 16:31:40:344,0,-6.31962,-4.92703,91.7124
2023-03-11 16:31:40:354,0,-6.33391,-4.93008,91.8062
2023-03-11 16:31:40:363,0,-6.34096,-4.9385,91.9019
2023-03-11 16:31:40:374,0,-6.33503,-4.94626,92.0009
2023-03-11 16:31:40:384,0,-6.32069,-4.95319,92.1008
2023-03-11 16:31:40:393,0,-6.3041,-4.95686,92.2013
2023-03-11 16:31:40:403,0,-6.28577,-4.9548,92.2979
2023-03-11 16:31:40:413,0,-6.26871,-4.94254,92.3917
2023-03-11 16:31:40:423,0,-6.25417,-4.92722,92.4799
2023-03-11 16:31:40:434,0,-6.2433,-4.91678,92.5641
2023-03-11 16:31:40:444,0,-6.23439,-4.90807,92.6527
2023-03-11 16:31:40:453,0,-6.23533,-4.89762,92.7427
2023-03-11 16:31:40:463,0,-6.24134,-4.88287,92.8303
2023-03-11 16:31:40:474,0,-6.24772,-4.86485,92.9198
2023-03-11 16:31:40:483,0,-6.25495,-4.83969,93.0078
2023-03-11 16:31:40:494,0,-6.25899,-4.81531,93.0969
2023-03-11 16:31:40:504,0,-6.26072,-4.79034,93.1805
2023-03-11 16:31:40:514,0,-6.26374,-4.76896,93.2586
2023-03-11 16:31:40:524,0,-6.25825,-4.75006,93.3353
2023-03-11 16:31:40:534,0,-6.25523,-4.72632,93.4125
2023-03-11 16:31:40:544,0,-6.25542,-4.70397,93.4855
2023-03-11 16:31:40:554,0,-6.25999,-4.67741,93.5487
2023-03-11 16:31:40:564,0,-6.27221,-4.64822,93.6069
2023-03-11 16:31:40:574,0,-6.28985,-4.61988,93.6616
2023-03-11 16:31:40:584,0,-6.30837,-4.5957,93.7143
2023-03-11 16:31:40:594,0,-6.32539,-4.58147,93.7616
2023-03-11 16:31:40:604,0,-6.34099,-4.56992,93.8078
2023-03-11 16:31:40:614,0,-6.35138,-4.56613,93.8542
2023-03-11 16:31:40:624,0,-6.35546,-4.56599,93.901
2023-03-11 16:31:40:634,0,-6.36105,-4.56994,93.9505
2023-03-11 16:31:40:644,0,-6.36455,-4.577,94.0031
2023-03-11 16:31:40:654,0,-6.36945,-4.57979,94.0637
2023-03-11 16:31:40:663,0,-6.37694,-4.57905,94.1285
2023-03-11 16:31:40:674,0,-6.38969,-4.57279,94.2029
2023-03-11 16:31:40:684,0,-6.39945,-4.56551,94.2823
2023-03-11 16:31:40:694,0,-6.40837,-4.55162,94.3705
2023-03-11 16:31:40:704,0,-6.42237,-4.55021,94.4637
2023-03-11 16:31:40:713,0,-6.44258,-4.55744,94.5678
2023-03-11 16:31:40:723,0,-6.46209,-4.57178,94.6806
2023-03-11 16:31:40:733,0,-6.48625,-4.58841,94.7983
2023-03-11 16:31:40:744,0,-6.51291,-4.59759,94.922
2023-03-11 16:31:40:754,0,-6.53883,-4.60883,95.0445
2023-03-11 16:31:40:764,0,-6.56125,-4.61491,95.1676
2023-03-11 16:31:40:774,0,-6.57763,-4.61688,95.2831
2023-03-11 16:31:40:784,0,-6.58761,-4.61527,95.3925
2023-03-11 16:31:40:794,0,-6.57856,-4.61302,95.4951
2023-03-11 16:31:40:804,0,-6.55945,-4.61604,95.5922
2023-03-11 16:31:40:814,0,-6.5271,-4.62221,95.6864
2023-03-11 16:31:40:823,0,-6.48014,-4.63663,95.7708
2023-03-11 16:31:40:833,0,-6.42657,-4.6569,95.8547
2023-03-11 16:31:40:844,0,-6.36704,-4.67009,95.9307
2023-03-11 16:31:40:854,0,-6.30059,-4.67984,95.9959
2023-03-11 16:31:40:864,0,-6.23637,-4.68519,96.054
2023-03-11 16:31:40:874,0,-6.17553,-4.68726,96.1005
2023-03-11 16:31:40:884,0,-6.12282,-4.67908,96.1365
2023-03-11 16:31:40:894,0,-6.08339,-4.66174,96.1562
2023-03-11 16:31:40:904,0,-6.0541,-4.63652,96.1582
2023-03-11 16:31:40:913,0,-6.03541,-4.59833,96.1419
2023-03-11 16:31:40:924,0,-6.02736,-4.55901,96.1075
2023-03-11 16:31:40:934,0,-6.0295,-4.52304,96.0533
2023-03-11 16:31:40:944,0,-6.04623,-4.48994,95.9785
2023-03-11 16:31:40:954,0,-6.07525,-4.4656,95.8846
2023-03-11 16:31:40:964,0,-6.11323,-4.4512,95.7761
2023-03-11 16:31:40:974,0,-6.16248,-4.44825,95.652
2023-03-11 16:31:40:984,0,-6.21974,-4.45615,95.5191
2023-03-11 16:31:40:994,0,-6.2819,-4.4718,95.3814
2023-03-11 16:31:41:4,0,-6.35145,-4.49979,95.2491
2023-03-11 16:31:41:14,0,-6.4255,-4.53618,95.1211
2023-03-11 16:31:41:24,0,-6.50353,-4.58518,95.0031
2023-03-11 16:31:41:34,0,-6.5938,-4.63969,94.8978
2023-03-11 16:31:41:44,0,-6.68823,-4.70005,94.8079
2023-03-11 16:31:41:53,0,-6.78885,-4.76662,94.7334
2023-03-11 16:31:41:63,0,-6.89267,-4.84336,94.6726
2023-03-11 16:31:41:74,0,-7.00074,-4.92766,94.6284
2023-03-11 16:31:41:84,0,-7.10522,-5.0255,94.6067
2023-03-11 16:31:41:94,0,-7.21588,-5.13313,94.6032
2023-03-11 16:31:41:104,0,-7.323,-5.25038,94.6165
2023-03-11 16:31:41:114,0,-7.43806,-5.37008,94.6401
2023-03-11 16:31:41:124,0,-7.55535,-5.49225,94.666
2023-03-11 16:31:41:134,0,-7.67593,-5.61185,94.6903
2023-03-11 16:31:41:143,0,-7.80085,-5.7215,94.7143
2023-03-11 16:31:41:154,0,-7.93345,-5.8318,94.7407
2023-03-11 16:31:41:164,0,-8.0716,-5.93336,94.7638
2023-03-11 16:31:41:174,0,-8.21945,-6.02964,94.7778
2023-03-11 16:31:41:184,0,-8.36887,-6.11527,94.7801
2023-03-11 16:31:41:193,0,-8.51204,-6.19452,94.7692
2023-03-11 16:31:41:204,0,-8.64733,-6.26663,94.7447
2023-03-11 16:31:41:214,0,-8.78186,-6.33969,94.7091
2023-03-11 16:31:41:224,0,-8.92059,-6.40815,94.6613
2023-03-11 16:31:41:234,0,-9.06382,-6.47124,94.5993
2023-03-11 16:31:41:244,0,-9.20944,-6.52214,94.5205
2023-03-11 16:31:41:254,0,-9.36178,-6.56154,94.4263
2023-03-11 16:31:41:264,0,-9.50689,-6.58694,94.32
2023-03-11 16:31:41:274,0,-9.64603,-6.60164,94.2002
2023-03-11 16:31:41:284,0,-9.77315,-6.60748,94.0759
2023-03-11 16:31:41:294,0,-9.88446,-6.605,93.9467
2023-03-11 16:31:41:304,0,-9.98439,-6.60256,93.8264
2023-03-11 16:31:41:314,0,-10.0681,-6.59992,93.7198
2023-03-11 16:31:41:324,0,-10.1306,-6.59479,93.6258
2023-03-11 16:31:41:334,0,-10.175,-6.58094,93.5384
2023-03-11 16:31:41:344,0,-10.2038,-6.554,93.4608
2023-03-11 16:31:41:354,0,-10.2228,-6.51622,93.3908
2023-03-11 16:31:41:364,0,-10.2313,-6.47324,93.3289
2023-03-11 16:31:41:374,0,-10.2293,-6.43124,93.2718
2023-03-11 16:31:41:384,0,-10.2195,-6.38736,93.2134
2023-03-11 16:31:41:394,0,-10.2032,-6.35224,93.1576
2023-03-11 16:31:41:404,0,-10.1793,-6.3166,93.0991
2023-03-11 16:31:41:414,0,-10.1477,-6.28693,93.0395
2023-03-11 16:31:41:423,0,-10.1053,-6.26023,92.982
2023-03-11 16:31:41:433,0,-10.0552,-6.2372,92.9277
2023-03-11 16:31:41:443,0,-10.0008,-6.21467,92.8726
2023-03-11 16:31:41:453,0,-9.94172,-6.19395,92.8173
2023-03-11 16:31:41:463,0,-9.87773,-6.16978,92.7614
2023-03-11 16:31:41:473,0,-9.8148,-6.14719,92.7037
2023-03-11 16:31:41:483,0,-9.75023,-6.12022,92.644
2023-03-11 16:31:41:493,0,-9.68743,-6.09305,92.5863
2023-03-11 16:31:41:503,0,-9.63561,-6.06825,92.5312
2023-03-11 16:31:41:513,0,-9.58476,-6.04104,92.4807
2023-03-11 16:31:41:523,0,-9.54316,-6.01998,92.4433
2023-03-11 16:31:41:533,0,-9.51145,-6.00001,92.413
2023-03-11 16:31:41:543,0,-9.49031,-5.98006,92.3873
2023-03-11 16:31:41:554,0,-9.47951,-5.96317,92.3656
2023-03-11 16:31:41:564,0,-9.48123,-5.95118,92.352
2023-03-11 16:31:41:573,0,-9.48941,-5.94126,92.3484
2023-03-11 16:31:41:583,0,-9.51521,-5.9381,92.3438
2023-03-11 16:31:41:593,0,-9.54545,-5.93923,92.3487
2023-03-11 16:31:41:604,0,-9.57505,-5.93951,92.3518
2023-03-11 16:31:41:613,0,-9.60785,-5.93765,92.3571
2023-03-11 16:31:41:623,0,-9.64085,-5.94221,92.362
2023-03-11 16:31:41:633,0,-9.66965,-5.94603,92.3642
2023-03-11 16:31:41:644,0,-9.69992,-5.95531,92.3649
2023-03-11 16:31:41:654,0,-9.72657,-5.96563,92.367
2023-03-11 16:31:41:663,0,-9.75675,-5.98141,92.365
2023-03-11 16:31:41:674,0,-9.78734,-5.99809,92.365
2023-03-11 16:31:41:683,0,-9.82589,-6.01418,92.367
2023-03-11 16:31:41:694,0,-9.86408,-6.03014,92.368
2023-03-11 16:31:41:704,0,-9.90566,-6.04084,92.3742
2023-03-11 16:31:41:714,0,-9.94769,-6.05717,92.3768
2023-03-11 16:31:41:723,0,-9.98057,-6.07345,92.3824
2023-03-11 16:31:41:733,0,-10.0107,-6.0904,92.3893
2023-03-11 16:31:41:743,0,-10.04,-6.11011,92.3992
2023-03-11 16:31:41:753,0,-10.0654,-6.1311,92.4117
2023-03-11 16:31:41:763,0,-10.0897,-6.15609,92.4262
2023-03-11 16:31:41:774,0,-10.1108,-6.18281,92.4477
2023-03-11 16:31:41:784,0,-10.1293,-6.20814,92.4725
2023-03-11 16:31:41:794,0,-10.1466,-6.23473,92.5028
2023-03-11 16:31:41:803,0,-10.166,-6.26216,92.537
2023-03-11 16:31:41:814,0,-10.1894,-6.28826,92.5706
2023-03-11 16:31:41:824,0,-10.2077,-6.31817,92.6059
2023-03-11 16:31:41:834,0,-10.2274,-6.34272,92.6409
2023-03-11 16:31:41:844,0,-10.2477,-6.36941,92.6734
2023-03-11 16:31:41:853,0,-10.2694,-6.39377,92.7045
2023-03-11 16:31:41:863,0,-10.2905,-6.41557,92.7369
2023-03-11 16:31:41:873,0,-10.3099,-6.43909,92.7675
2023-03-11 16:31:41:883,0,-10.3273,-6.4635,92.7932
2023-03-11 16:31:41:894,0,-10.3444,-6.48812,92.8193
2023-03-11 16:31:41:904,0,-10.3565,-6.51339,92.8429
2023-03-11 16:31:41:914,0,-10.3724,-6.53926,92.8675
2023-03-11 16:31:41:924,0,-10.39,-6.56485,92.8907
2023-03-11 16:31:41:933,0,-10.4079,-6.59121,92.9121
2023-03-11 16:31:41:943,0,-10.4254,-6.61768,92.9311
2023-03-11 16:31:41:954,0,-10.4397,-6.64495,92.9495
2023-03-11 16:31:41:964,0,-10.4586,-6.67364,92.9698
2023-03-11 16:31:41:974,0,-10.4768,-6.70579,92.9873
2023-03-11 16:31:41:984,0,-10.4945,-6.73814,93.0071
2023-03-11 16:31:41:994,0,-10.5127,-6.76697,93.0266
2023-03-11 16:31:42:4,0,-10.5274,-6.79041,93.0489
2023-03-11 16:31:42:14,0,-10.545,-6.81451,93.0687
