Timestamp_cmd,imu_cmd,roll_delta,pitch_delta,yaw_delta,voice_type,voice_length
2023-03-15 22:06:11:825,0,-2.70752,-2.89274,-22.0835,Q,Q
2023-03-15 22:06:11:832,0,-2.70929,-2.90573,-22.0799,Q,Q
2023-03-15 22:06:11:842,0,-2.71914,-2.92208,-22.0769,Q,Q
2023-03-15 22:06:11:852,0,-2.72487,-2.93389,-22.0701,Q,Q
2023-03-15 22:06:11:862,0,-2.74017,-2.94255,-22.0623,Q,Q
2023-03-15 22:06:11:873,0,-2.75862,-2.95208,-22.0495,Q,Q
2023-03-15 22:06:11:882,0,-2.77947,-2.9625,-22.0325,Q,Q
2023-03-15 22:06:11:893,0,-2.80381,-2.97002,-22.0171,Q,Q
2023-03-15 22:06:11:902,0,-2.826,-2.97644,-22.0012,Q,Q
2023-03-15 22:06:11:912,0,-2.84703,-2.97818,-21.9807,Q,Q
2023-03-15 22:06:11:922,0,-2.86693,-2.98026,-21.9642,Q,Q
2023-03-15 22:06:11:932,0,-2.88376,-2.9829,-21.9529,Q,Q
2023-03-15 22:06:11:943,0,-2.8999,-2.98213,-21.9413,Q,Q
2023-03-15 22:06:11:953,0,-2.91071,-2.98082,-21.9338,Q,Q
2023-03-15 22:06:11:962,0,-2.91979,-2.98059,-21.931,Q,Q
2023-03-15 22:06:11:973,0,-2.92889,-2.97921,-21.9271,Q,Q
2023-03-15 22:06:11:983,0,-2.93485,-2.97784,-21.9306,Q,Q
2023-03-15 22:06:11:993,0,-2.93676,-2.97607,-21.9355,Q,Q
2023-03-15 22:06:12:2,0,-2.93903,-2.97522,-21.9457,Q,Q
2023-03-15 22:06:12:13,0,-2.94104,-2.96905,-21.9598,Q,Q
2023-03-15 22:06:12:23,0,-2.93784,-2.96327,-21.9774,Q,Q
2023-03-15 22:06:12:33,0,-2.93177,-2.95821,-21.9932,Q,Q
2023-03-15 22:06:12:42,0,-2.92376,-2.95134,-22.0098,Q,Q
2023-03-15 22:06:12:53,0,-2.9091,-2.94904,-22.0264,Q,Q
2023-03-15 22:06:12:63,0,-2.8907,-2.94469,-22.0439,Q,Q
2023-03-15 22:06:12:73,0,-2.87315,-2.93735,-22.0608,Q,Q
2023-03-15 22:06:12:83,0,-2.85495,-2.92723,-22.0737,Q,Q
2023-03-15 22:06:12:92,0,-2.83184,-2.91499,-22.0906,Q,Q
2023-03-15 22:06:12:103,0,-2.81555,-2.90089,-22.1021,Q,Q
2023-03-15 22:06:12:113,0,-2.7973,-2.88311,-22.11,Q,Q
2023-03-15 22:06:12:122,0,-2.78137,-2.86928,-22.1196,Q,Q
2023-03-15 22:06:12:133,0,-2.76673,-2.85773,-22.1284,Q,Q
2023-03-15 22:06:12:143,0,-2.74801,-2.84712,-22.1346,Q,Q
2023-03-15 22:06:12:153,0,-2.73417,-2.83717,-22.1389,Q,Q
2023-03-15 22:06:12:163,0,-2.71896,-2.82884,-22.1465,Q,Q
2023-03-15 22:06:12:172,0,-2.70091,-2.81716,-22.1497,Q,Q
2023-03-15 22:06:12:183,0,-2.68333,-2.80749,-22.1514,Q,Q
2023-03-15 22:06:12:192,0,-2.66295,-2.79803,-22.1517,Q,Q
2023-03-15 22:06:12:203,0,-2.64578,-2.7886,-22.1487,Q,Q
2023-03-15 22:06:12:212,0,-2.63067,-2.77537,-22.148,Q,Q
2023-03-15 22:06:12:222,0,-2.61606,-2.76839,-22.1425,Q,Q
2023-03-15 22:06:12:232,0,-2.59964,-2.76169,-22.141,Q,Q
2023-03-15 22:06:12:242,0,-2.58508,-2.75127,-22.1345,Q,Q
2023-03-15 22:06:12:252,0,-2.57647,-2.74749,-22.1321,Q,Q
2023-03-15 22:06:12:262,0,-2.56713,-2.74765,-22.1278,Q,Q
2023-03-15 22:06:12:272,0,-2.55856,-2.74753,-22.1207,Q,Q
2023-03-15 22:06:12:282,0,-2.54644,-2.74944,-22.1127,Q,Q
2023-03-15 22:06:12:292,0,-2.53665,-2.75265,-22.1032,Q,Q
2023-03-15 22:06:12:302,0,-2.5262,-2.75532,-22.0924,Q,Q
2023-03-15 22:06:12:312,0,-2.51478,-2.76284,-22.08,Q,Q
2023-03-15 22:06:12:322,0,-2.50714,-2.76871,-22.0684,Q,Q
2023-03-15 22:06:12:332,0,-2.50303,-2.77439,-22.0554,Q,Q
2023-03-15 22:06:12:342,0,-2.50035,-2.77895,-22.0415,Q,Q
2023-03-15 22:06:12:352,0,-2.49991,-2.77976,-22.0292,Q,Q
2023-03-15 22:06:12:362,0,-2.49919,-2.78084,-22.0208,Q,Q
2023-03-15 22:06:12:372,0,-2.49981,-2.78525,-22.0125,Q,Q
2023-03-15 22:06:12:382,0,-2.50147,-2.79464,-22.0026,Q,Q
2023-03-15 22:06:12:392,0,-2.49815,-2.79946,-21.9969,Q,Q
2023-03-15 22:06:12:402,0,-2.49204,-2.80197,-21.9966,Q,Q
2023-03-15 22:06:12:412,0,-2.4891,-2.80305,-21.9955,Q,Q
2023-03-15 22:06:12:422,0,-2.48348,-2.80464,-22.0023,Q,Q
2023-03-15 22:06:12:432,0,-2.47077,-2.80837,-22.0096,Q,Q
2023-03-15 22:06:12:442,0,-2.4604,-2.81016,-22.0162,Q,Q
2023-03-15 22:06:12:452,0,-2.45283,-2.81797,-22.0294,Q,Q
2023-03-15 22:06:12:462,0,-2.45362,-2.82611,-22.04,Q,Q
2023-03-15 22:06:12:472,0,-2.45446,-2.83494,-22.0521,Q,Q
2023-03-15 22:06:12:482,0,-2.46128,-2.83856,-22.0605,Q,Q
2023-03-15 22:06:12:492,0,-2.47544,-2.84055,-22.0694,Q,Q
2023-03-15 22:06:12:502,0,-2.48979,-2.84021,-22.08,Q,Q
2023-03-15 22:06:12:512,0,-2.50342,-2.83663,-22.0859,Q,Q
2023-03-15 22:06:12:522,0,-2.51827,-2.83519,-22.092,Q,Q
2023-03-15 22:06:12:532,0,-2.5317,-2.83378,-22.0957,Q,Q
2023-03-15 22:06:12:542,0,-2.54673,-2.83236,-22.0937,Q,Q
2023-03-15 22:06:12:552,0,-2.56026,-2.82697,-22.0929,Q,Q
2023-03-15 22:06:12:562,0,-2.57142,-2.81959,-22.0924,Q,Q
2023-03-15 22:06:12:572,0,-2.58172,-2.81588,-22.0876,Q,Q
2023-03-15 22:06:12:582,0,-2.5946,-2.80935,-22.0827,Q,Q
2023-03-15 22:06:12:592,0,-2.60474,-2.80272,-22.0796,Q,Q
2023-03-15 22:06:12:602,0,-2.61601,-2.80031,-22.076,Q,Q
2023-03-15 22:06:12:612,0,-2.62743,-2.79813,-22.0764,Q,Q
2023-03-15 22:06:12:622,0,-2.63659,-2.79416,-22.0792,Q,Q
2023-03-15 22:06:12:632,0,-2.64632,-2.78881,-22.0787,Q,Q
2023-03-15 22:06:12:642,0,-2.65425,-2.78498,-22.0831,Q,Q
2023-03-15 22:06:12:652,0,-2.66113,-2.77871,-22.0869,Q,Q
2023-03-15 22:06:12:662,0,-2.6665,-2.77372,-22.0918,Q,Q
2023-03-15 22:06:12:672,0,-2.67161,-2.77019,-22.099,Q,Q
2023-03-15 22:06:12:682,0,-2.67082,-2.76949,-22.1063,Q,Q
2023-03-15 22:06:12:693,0,-2.66905,-2.77012,-22.1099,Q,Q
2023-03-15 22:06:12:703,0,-2.66864,-2.7707,-22.1116,Q,Q
2023-03-15 22:06:12:713,0,-2.67022,-2.77477,-22.1094,Q,Q
2023-03-15 22:06:12:723,0,-2.66909,-2.77573,-22.109,Q,Q
2023-03-15 22:06:12:732,0,-2.6712,-2.77598,-22.1056,Q,Q
2023-03-15 22:06:12:743,0,-2.67106,-2.77378,-22.0984,Q,Q
2023-03-15 22:06:12:753,0,-2.67037,-2.772,-22.0856,Q,Q
2023-03-15 22:06:12:763,0,-2.67012,-2.77286,-22.0749,Q,Q
2023-03-15 22:06:12:772,0,-2.66869,-2.77347,-22.0646,Q,Q
2023-03-15 22:06:12:783,0,-2.66544,-2.77646,-22.0525,Q,Q
2023-03-15 22:06:12:792,0,-2.66112,-2.77814,-22.042,Q,Q
2023-03-15 22:06:12:803,0,-2.65573,-2.78172,-22.0324,Q,Q
2023-03-15 22:06:12:813,0,-2.64749,-2.78725,-22.0246,Q,Q
2023-03-15 22:06:12:823,0,-2.63977,-2.79454,-22.0213,Q,Q
2023-03-15 22:06:12:832,0,-2.63193,-2.80125,-22.0191,Q,Q
2023-03-15 22:06:12:843,0,-2.62443,-2.8112,-22.018,Q,Q
2023-03-15 22:06:12:853,0,-2.61511,-2.81694,-22.0196,Q,Q
2023-03-15 22:06:12:863,0,-2.60771,-2.82303,-22.0162,Q,Q
2023-03-15 22:06:12:873,0,-2.60496,-2.82513,-22.0144,Q,Q
2023-03-15 22:06:12:883,0,-2.60141,-2.82971,-22.0129,Q,Q
2023-03-15 22:06:12:893,0,-2.6004,-2.83301,-22.0084,Q,Q
2023-03-15 22:06:12:902,0,-2.59999,-2.8352,-22.011,Q,Q
2023-03-15 22:06:12:913,0,-2.60028,-2.83802,-22.008,Q,Q
2023-03-15 22:06:12:923,0,-2.60208,-2.84059,-22.0035,Q,Q
2023-03-15 22:06:12:933,0,-2.60648,-2.84091,-22.0019,Q,Q
2023-03-15 22:06:12:942,0,-2.61238,-2.84289,-22.0027,Q,Q
2023-03-15 22:06:12:952,0,-2.61947,-2.84549,-22.002,Q,Q
2023-03-15 22:06:12:963,0,-2.63057,-2.84524,-22.0013,Q,Q
2023-03-15 22:06:12:973,0,-2.63533,-2.84434,-22.0,Q,Q
2023-03-15 22:06:12:982,0,-2.64461,-2.84422,-22.0025,Q,Q
2023-03-15 22:06:12:992,0,-2.65412,-2.845,-22.0035,Q,Q
2023-03-15 22:06:13:2,0,-2.66082,-2.84557,-22.0075,Q,Q
2023-03-15 22:06:13:12,0,-2.66981,-2.8473,-22.0114,Q,Q
2023-03-15 22:06:13:22,0,-2.67677,-2.84603,-22.0186,Q,Q
2023-03-15 22:06:13:32,0,-2.68123,-2.84351,-22.0246,Q,Q
2023-03-15 22:06:13:43,0,-2.67999,-2.83745,-22.0313,Q,Q
2023-03-15 22:06:13:53,0,-2.67748,-2.83296,-22.0375,Q,Q
2023-03-15 22:06:13:62,0,-2.67161,-2.83321,-22.0425,Q,Q
2023-03-15 22:06:13:73,0,-2.66807,-2.82853,-22.0442,Q,Q
2023-03-15 22:06:13:82,0,-2.66537,-2.82487,-22.0443,Q,Q
2023-03-15 22:06:13:92,0,-2.65919,-2.81392,-22.0457,Q,Q
2023-03-15 22:06:13:102,0,-2.65703,-2.80457,-22.0466,Q,Q
2023-03-15 22:06:13:112,0,-2.65627,-2.80202,-22.0429,Q,Q
2023-03-15 22:06:13:123,0,-2.65562,-2.79921,-22.0374,Q,Q
2023-03-15 22:06:13:133,0,-2.66056,-2.79708,-22.0295,Q,Q
2023-03-15 22:06:13:143,0,-2.66661,-2.78914,-22.0208,Q,Q
2023-03-15 22:06:13:152,0,-2.68143,-2.77934,-22.0116,Q,Q
2023-03-15 22:06:13:162,0,-2.69855,-2.77094,-22.0026,Q,Q
2023-03-15 22:06:13:172,0,-2.7189,-2.76231,-21.9947,Q,Q
2023-03-15 22:06:13:182,0,-2.74011,-2.75707,-21.9846,Q,Q
2023-03-15 22:06:13:192,0,-2.75893,-2.75188,-21.9743,Q,Q
2023-03-15 22:06:13:202,0,-2.77813,-2.74675,-21.9657,Q,Q
2023-03-15 22:06:13:212,0,-2.79748,-2.74696,-21.959,Q,Q
2023-03-15 22:06:13:222,0,-2.81267,-2.74488,-21.954,Q,Q
2023-03-15 22:06:13:233,0,-2.82955,-2.73822,-21.9501,Q,Q
2023-03-15 22:06:13:242,0,-2.83907,-2.73574,-21.9455,Q,Q
2023-03-15 22:06:13:253,0,-2.84081,-2.73345,-21.9438,Q,Q
2023-03-15 22:06:13:262,0,-2.84752,-2.72766,-21.9389,Q,Q
2023-03-15 22:06:13:273,0,-2.84734,-2.72563,-21.9369,Q,Q
2023-03-15 22:06:13:283,0,-2.84195,-2.71708,-21.9311,Q,Q
2023-03-15 22:06:13:293,0,-2.83633,-2.71335,-21.9276,Q,Q
2023-03-15 22:06:13:303,0,-2.82866,-2.70864,-21.9236,Q,Q
2023-03-15 22:06:13:312,0,-2.82116,-2.69968,-21.9204,Q,Q
2023-03-15 22:06:13:323,0,-2.81276,-2.6913,-21.9177,Q,Q
2023-03-15 22:06:13:333,0,-2.8044,-2.6856,-21.9161,Q,Q
2023-03-15 22:06:13:343,0,-2.79787,-2.68181,-21.9184,Q,Q
2023-03-15 22:06:13:353,0,-2.78785,-2.67965,-21.9229,Q,Q
2023-03-15 22:06:13:362,0,-2.77972,-2.67846,-21.9263,Q,Q
2023-03-15 22:06:13:372,0,-2.77594,-2.67058,-21.9274,Q,Q
2023-03-15 22:06:13:382,0,-2.77618,-2.66714,-21.9316,Q,Q
2023-03-15 22:06:13:393,0,-2.77678,-2.65781,-21.9339,Q,Q
2023-03-15 22:06:13:402,0,-2.77375,-2.6522,-21.9369,Q,Q
2023-03-15 22:06:13:412,0,-2.77214,-2.64304,-21.9387,Q,Q
2023-03-15 22:06:13:422,0,-2.7725,-2.63777,-21.9381,Q,Q
2023-03-15 22:06:13:432,0,-2.77008,-2.63105,-21.9376,Q,Q
2023-03-15 22:06:13:442,0,-2.77012,-2.62878,-21.9371,Q,Q
2023-03-15 22:06:13:452,0,-2.76605,-2.62332,-21.9365,Q,Q
2023-03-15 22:06:13:463,0,-2.76119,-2.61824,-21.9342,Q,Q
2023-03-15 22:06:13:473,0,-2.75482,-2.61652,-21.9356,Q,Q
2023-03-15 22:06:13:482,0,-2.74364,-2.61246,-21.9324,Q,Q
2023-03-15 22:06:13:493,0,-2.73113,-2.60826,-21.9306,Q,Q
2023-03-15 22:06:13:502,0,-2.72122,-2.60696,-21.9237,Q,Q
2023-03-15 22:06:13:512,0,-2.71089,-2.60463,-21.9182,Q,Q
2023-03-15 22:06:13:522,0,-2.69976,-2.60366,-21.9122,Q,Q
2023-03-15 22:06:13:532,0,-2.69158,-2.60436,-21.9066,Q,Q
2023-03-15 22:06:13:542,0,-2.68356,-2.6085,-21.8993,Q,Q
2023-03-15 22:06:13:553,0,-2.67629,-2.60797,-21.8914,Q,Q
2023-03-15 22:06:13:562,0,-2.67605,-2.60804,-21.8816,Q,Q
2023-03-15 22:06:13:573,0,-2.67163,-2.60821,-21.8727,Q,Q
2023-03-15 22:06:13:582,0,-2.67091,-2.60591,-21.8647,Q,Q
2023-03-15 22:06:13:592,0,-2.6703,-2.60621,-21.8552,Q,Q
2023-03-15 22:06:13:602,0,-2.67054,-2.60564,-21.847,Q,Q
2023-03-15 22:06:13:612,0,-2.67357,-2.60528,-21.8398,Q,Q
2023-03-15 22:06:13:623,0,-2.67493,-2.60364,-21.8323,Q,Q
2023-03-15 22:06:13:632,0,-2.68109,-2.60186,-21.8272,Q,Q
2023-03-15 22:06:13:642,0,-2.68426,-2.59925,-21.8233,Q,Q
2023-03-15 22:06:13:652,0,-2.68912,-2.59752,-21.822,Q,Q
2023-03-15 22:06:13:662,0,-2.697,-2.59261,-21.8251,Q,Q
2023-03-15 22:06:13:672,0,-2.70016,-2.58735,-21.8242,Q,Q
2023-03-15 22:06:13:682,0,-2.70527,-2.5786,-21.8279,Q,Q
2023-03-15 22:06:13:692,0,-2.70843,-2.56915,-21.8321,Q,Q
2023-03-15 22:06:13:702,0,-2.71248,-2.56186,-21.8338,Q,Q
2023-03-15 22:06:13:712,0,-2.71341,-2.55759,-21.8388,Q,Q
2023-03-15 22:06:13:722,0,-2.71766,-2.55235,-21.8448,Q,Q
2023-03-15 22:06:13:732,0,-2.72158,-2.54259,-21.8485,Q,Q
2023-03-15 22:06:13:742,0,-2.72597,-2.53165,-21.8552,Q,Q
2023-03-15 22:06:13:752,0,-2.72713,-2.52109,-21.8598,Q,Q
2023-03-15 22:06:13:762,0,-2.72761,-2.50919,-21.8634,Q,Q
2023-03-15 22:06:13:773,0,-2.72696,-2.5071,-21.8687,Q,Q
2023-03-15 22:06:13:782,0,-2.72702,-2.5029,-21.8751,Q,Q
2023-03-15 22:06:13:793,0,-2.72996,-2.50231,-21.8774,Q,Q
2023-03-15 22:06:13:802,0,-2.74007,-2.50227,-21.883,Q,Q
2023-03-15 22:06:13:812,0,-2.75292,-2.49988,-21.8857,Q,Q
2023-03-15 22:06:13:823,0,-2.77137,-2.49675,-21.8887,Q,Q
2023-03-15 22:06:13:833,0,-2.79208,-2.49221,-21.8898,Q,Q
2023-03-15 22:06:13:842,0,-2.81511,-2.49186,-21.8862,Q,Q
2023-03-15 22:06:13:852,0,-2.84006,-2.49203,-21.8826,Q,Q
2023-03-15 22:06:13:862,0,-2.86843,-2.49695,-21.8801,Q,Q
2023-03-15 22:06:13:872,0,-2.89461,-2.50198,-21.8761,Q,Q
2023-03-15 22:06:13:882,0,-2.91891,-2.50799,-21.8726,Q,Q
2023-03-15 22:06:13:892,0,-2.94194,-2.51224,-21.8691,Q,Q
2023-03-15 22:06:13:902,0,-2.96223,-2.52446,-21.8659,Q,Q
2023-03-15 22:06:13:912,0,-2.97852,-2.53348,-21.864,Q,Q
2023-03-15 22:06:13:922,0,-2.99419,-2.54652,-21.8639,Q,Q
2023-03-15 22:06:13:932,0,-3.00821,-2.55645,-21.8706,Q,Q
2023-03-15 22:06:13:942,0,-3.01853,-2.56706,-21.8761,Q,Q
2023-03-15 22:06:13:952,0,-3.02349,-2.57187,-21.8857,Q,Q
2023-03-15 22:06:13:962,0,-3.03036,-2.57726,-21.8989,Q,Q
2023-03-15 22:06:13:972,0,-3.02873,-2.57827,-21.9151,Q,Q
2023-03-15 22:06:13:982,0,-3.02689,-2.57639,-21.9307,Q,Q
2023-03-15 22:06:13:992,0,-3.02618,-2.57441,-21.9486,Q,Q
2023-03-15 22:06:14:2,0,-3.02163,-2.57454,-21.9697,Q,Q
2023-03-15 22:06:14:12,0,-3.01483,-2.57679,-21.9867,Q,Q
2023-03-15 22:06:14:22,0,-3.0086,-2.5782,-22.0023,Q,Q
2023-03-15 22:06:14:32,0,-3.00517,-2.57951,-22.0183,Q,Q
2023-03-15 22:06:14:42,0,-3.00246,-2.57747,-22.0327,Q,Q
2023-03-15 22:06:14:52,0,-3.00163,-2.57441,-22.0447,Q,Q
2023-03-15 22:06:14:62,0,-3.00157,-2.57182,-22.0557,Q,Q
2023-03-15 22:06:14:72,0,-2.99889,-2.5651,-22.0645,Q,Q
2023-03-15 22:06:14:82,0,-3.00072,-2.5634,-22.0713,Q,Q
2023-03-15 22:06:14:92,0,-2.9997,-2.55955,-22.0789,Q,Q
2023-03-15 22:06:14:102,0,-2.99545,-2.55672,-22.0821,Q,Q
2023-03-15 22:06:14:112,0,-2.99181,-2.56052,-22.0834,Q,Q
2023-03-15 22:06:14:122,0,-2.9871,-2.55744,-22.0853,Q,Q
2023-03-15 22:06:14:132,0,-2.985,-2.5597,-22.0877,Q,Q
2023-03-15 22:06:14:142,0,-2.9802,-2.56297,-22.086,Q,Q
2023-03-15 22:06:14:152,0,-2.97282,-2.56866,-22.0847,Q,Q
2023-03-15 22:06:14:162,0,-2.96713,-2.5747,-22.0832,Q,Q
2023-03-15 22:06:14:172,0,-2.95703,-2.58442,-22.0783,Q,Q
2023-03-15 22:06:14:183,0,-2.9482,-2.59328,-22.0749,Q,Q
2023-03-15 22:06:14:193,0,-2.94053,-2.60423,-22.0685,Q,Q
2023-03-15 22:06:14:202,0,-2.92854,-2.61244,-22.0607,Q,Q
2023-03-15 22:06:14:212,0,-2.91558,-2.62392,-22.0515,Q,Q
2023-03-15 22:06:14:223,0,-2.90257,-2.63497,-22.0376,Q,Q
2023-03-15 22:06:14:232,0,-2.89121,-2.64753,-22.0243,Q,Q
2023-03-15 22:06:14:243,0,-2.8804,-2.66157,-22.0115,Q,Q
2023-03-15 22:06:14:253,0,-2.86593,-2.67742,-21.9953,Q,Q
2023-03-15 22:06:14:262,0,-2.85171,-2.6895,-21.9807,Q,Q
2023-03-15 22:06:14:273,0,-2.84342,-2.70084,-21.9683,Q,Q
2023-03-15 22:06:14:282,0,-2.83231,-2.71209,-21.9516,Q,Q
2023-03-15 22:06:14:293,0,-2.81701,-2.72429,-21.9402,Q,Q
2023-03-15 22:06:14:303,0,-2.80011,-2.73423,-21.9276,Q,Q
2023-03-15 22:06:14:313,0,-2.77963,-2.74302,-21.9176,Q,Q
2023-03-15 22:06:14:323,0,-2.76288,-2.75534,-21.9097,Q,Q
2023-03-15 22:06:14:332,0,-2.75008,-2.76773,-21.8988,Q,Q
2023-03-15 22:06:14:343,0,-2.73745,-2.77544,-21.8886,Q,Q
2023-03-15 22:06:14:352,0,-2.72417,-2.78153,-21.8846,Q,Q
2023-03-15 22:06:14:362,0,-2.71234,-2.78835,-21.8791,Q,Q
2023-03-15 22:06:14:372,0,-2.70482,-2.7937,-21.8715,Q,Q
2023-03-15 22:06:14:383,0,-2.69173,-2.7978,-21.8691,Q,Q
2023-03-15 22:06:14:393,0,-2.68244,-2.80312,-21.861,Q,Q
2023-03-15 22:06:14:403,0,-2.67262,-2.80458,-21.8619,Q,Q
2023-03-15 22:06:14:413,0,-2.65981,-2.80206,-21.8596,Q,Q
2023-03-15 22:06:14:423,0,-2.64658,-2.7975,-21.8624,Q,Q
2023-03-15 22:06:14:433,0,-2.63363,-2.79842,-21.869,Q,Q
2023-03-15 22:06:14:443,0,-2.6263,-2.80042,-21.8758,Q,Q
2023-03-15 22:06:14:452,0,-2.62289,-2.80766,-21.8787,Q,Q
2023-03-15 22:06:14:462,0,-2.62223,-2.81976,-21.886,Q,Q
2023-03-15 22:06:14:472,0,-2.62633,-2.83468,-21.8937,Q,Q
2023-03-15 22:06:14:482,0,-2.63906,-2.84795,-21.9024,Q,Q
2023-03-15 22:06:14:492,0,-2.65697,-2.85392,-21.9077,Q,Q
2023-03-15 22:06:14:502,0,-2.67506,-2.86008,-21.9126,Q,Q
2023-03-15 22:06:14:512,0,-2.69158,-2.86439,-21.9134,Q,Q
2023-03-15 22:06:14:522,0,-2.71262,-2.87196,-21.9135,Q,Q
2023-03-15 22:06:14:532,0,-2.73122,-2.87727,-21.912,Q,Q
2023-03-15 22:06:14:542,0,-2.7523,-2.87876,-21.9052,Q,Q
2023-03-15 22:06:14:552,0,-2.77224,-2.87819,-21.9009,Q,Q
2023-03-15 22:06:14:562,0,-2.78899,-2.87949,-21.894,Q,Q
2023-03-15 22:06:14:572,0,-2.80226,-2.87896,-21.8873,Q,Q
2023-03-15 22:06:14:582,0,-2.81402,-2.87279,-21.8822,Q,Q
2023-03-15 22:06:14:592,0,-2.82426,-2.86942,-21.8848,Q,Q
2023-03-15 22:06:14:602,0,-2.83155,-2.86901,-21.8851,Q,Q
2023-03-15 22:06:14:612,0,-2.83557,-2.86794,-21.89,Q,Q
2023-03-15 22:06:14:623,0,-2.8385,-2.86549,-21.8957,Q,Q
2023-03-15 22:06:14:632,0,-2.84193,-2.86481,-21.907,Q,Q
2023-03-15 22:06:14:642,0,-2.84372,-2.86071,-21.9214,Q,Q
2023-03-15 22:06:14:653,0,-2.8456,-2.85461,-21.9315,Q,Q
2023-03-15 22:06:14:662,0,-2.8452,-2.85332,-21.9455,Q,Q
2023-03-15 22:06:14:672,0,-2.84837,-2.85409,-21.9607,Q,Q
2023-03-15 22:06:14:683,0,-2.84441,-2.85679,-21.971,Q,Q
2023-03-15 22:06:14:692,0,-2.84247,-2.86226,-21.9829,Q,Q
2023-03-15 22:06:14:702,0,-2.83984,-2.86458,-21.9904,Q,Q
2023-03-15 22:06:14:712,0,-2.83715,-2.86563,-21.9963,Q,Q
2023-03-15 22:06:14:722,0,-2.8338,-2.86894,-21.9989,Q,Q
2023-03-15 22:06:14:732,0,-2.83126,-2.87472,-21.9968,Q,Q
2023-03-15 22:06:14:742,0,-2.82794,-2.87739,-21.9905,Q,Q
2023-03-15 22:06:14:752,0,-2.82562,-2.88476,-21.9839,Q,Q
2023-03-15 22:06:14:762,0,-2.81995,-2.89742,-21.9697,Q,Q
2023-03-15 22:06:14:773,0,-2.81039,-2.90944,-21.954,Q,Q
2023-03-15 22:06:14:782,0,-2.79851,-2.91829,-21.9373,Q,Q
2023-03-15 22:06:14:792,0,-2.7866,-2.92531,-21.9222,Q,Q
2023-03-15 22:06:14:802,0,-2.77263,-2.93497,-21.9103,Q,Q
2023-03-15 22:06:14:812,0,-2.75542,-2.93866,-21.8974,Q,Q
2023-03-15 22:06:14:823,0,-2.73572,-2.94336,-21.8856,Q,Q
2023-03-15 22:06:14:832,0,-2.71433,-2.94743,-21.8767,Q,Q
2023-03-15 22:06:14:843,0,-2.68862,-2.94619,-21.8693,Q,Q
2023-03-15 22:06:14:853,0,-2.66596,-2.94134,-21.8682,Q,Q
2023-03-15 22:06:14:862,0,-2.64582,-2.93541,-21.8696,Q,Q
2023-03-15 22:06:14:872,0,-2.62586,-2.93157,-21.8718,Q,Q
2023-03-15 22:06:14:882,0,-2.60519,-2.92569,-21.8788,Q,Q
2023-03-15 22:06:14:892,0,-2.5837,-2.92093,-21.8928,Q,Q
2023-03-15 22:06:14:902,0,-2.56774,-2.91614,-21.9124,Q,Q
2023-03-15 22:06:14:912,0,-2.5552,-2.91184,-21.9324,Q,Q
2023-03-15 22:06:14:922,0,-2.54554,-2.91127,-21.9536,Q,Q
2023-03-15 22:06:14:932,0,-2.53481,-2.90916,-21.9761,Q,Q
2023-03-15 22:06:14:942,0,-2.5246,-2.90597,-21.9937,Q,Q
2023-03-15 22:06:14:952,0,-2.51849,-2.90524,-22.0138,Q,Q
2023-03-15 22:06:14:963,0,-2.51316,-2.90521,-22.0307,Q,Q
2023-03-15 22:06:14:973,0,-2.50221,-2.9066,-22.0417,Q,Q
2023-03-15 22:06:14:982,0,-2.49509,-2.91098,-22.0502,Q,Q
2023-03-15 22:06:14:992,0,-2.48937,-2.91498,-22.0499,Q,Q
2023-03-15 22:06:15:2,0,-2.48407,-2.92082,-22.0422,Q,Q
2023-03-15 22:06:15:13,0,-2.48321,-2.92632,-22.032,Q,Q
2023-03-15 22:06:15:23,0,-2.48428,-2.93465,-22.0189,Q,Q
2023-03-15 22:06:15:32,0,-2.48703,-2.9468,-21.9957,Q,Q
2023-03-15 22:06:15:43,0,-2.49127,-2.96575,-21.9648,Q,Q
2023-03-15 22:06:15:52,0,-2.49268,-2.98797,-21.9314,Q,Q
2023-03-15 22:06:15:63,0,-2.49569,-3.01361,-21.891,Q,Q
2023-03-15 22:06:15:73,0,-2.49816,-3.0429,-21.8456,Q,Q
2023-03-15 22:06:15:82,0,-2.49864,-3.07276,-21.7935,Q,Q
2023-03-15 22:06:15:93,0,-2.50187,-3.10906,-21.7239,Q,Q
2023-03-15 22:06:15:103,0,-2.50353,-3.14428,-21.6536,Q,Q
2023-03-15 22:06:15:113,0,-2.51155,-3.16392,-21.5761,Q,Q
2023-03-15 22:06:15:123,0,-2.51827,-3.17636,-21.4883,Q,Q
2023-03-15 22:06:15:132,0,-2.51149,-3.19461,-21.3766,Q,Q
2023-03-15 22:06:15:143,0,-2.49476,-3.22627,-21.2441,Q,Q
2023-03-15 22:06:15:153,0,-2.47393,-3.27256,-21.0925,Q,Q
2023-03-15 22:06:15:163,0,-2.45592,-3.3301,-20.9202,Q,Q
2023-03-15 22:06:15:173,0,-2.44428,-3.39367,-20.7248,Q,Q
2023-03-15 22:06:15:182,0,-2.45173,-3.47839,-20.5042,Q,Q
2023-03-15 22:06:15:193,0,-2.48538,-3.57386,-20.2595,Q,Q
2023-03-15 22:06:15:203,0,-2.54036,-3.69046,-19.9912,Q,Q
2023-03-15 22:06:15:213,0,-2.6174,-3.82304,-19.7067,Q,Q
2023-03-15 22:06:15:223,0,-2.71507,-3.9682,-19.4111,Q,Q
2023-03-15 22:06:15:232,0,-2.82816,-4.13245,-19.1039,Q,Q
2023-03-15 22:06:15:243,0,-2.95009,-4.30924,-18.7906,Q,Q
2023-03-15 22:06:15:253,0,-3.08149,-4.50121,-18.47,Q,Q
2023-03-15 22:06:15:263,0,-3.21865,-4.70717,-18.1437,Q,Q
2023-03-15 22:06:15:273,0,-3.36251,-4.92807,-17.82,Q,Q
2023-03-15 22:06:15:282,0,-3.5085,-5.16446,-17.504,Q,Q
2023-03-15 22:06:15:293,0,-3.66304,-5.42015,-17.1957,Q,Q
2023-03-15 22:06:15:302,0,-3.82651,-5.6972,-16.9004,Q,Q
2023-03-15 22:06:15:313,0,-3.99129,-5.99738,-16.6278,Q,Q
2023-03-15 22:06:15:323,0,-4.15263,-6.32081,-16.3854,Q,Q
2023-03-15 22:06:15:332,0,-4.30275,-6.65568,-16.1703,Q,Q
2023-03-15 22:06:15:343,0,-4.43394,-6.99078,-15.97,Q,Q
2023-03-15 22:06:15:353,0,-4.55185,-7.32171,-15.7764,Q,Q
2023-03-15 22:06:15:363,0,-4.66047,-7.65601,-15.5713,Q,Q
2023-03-15 22:06:15:373,0,-4.76764,-7.97547,-15.3439,Q,Q
2023-03-15 22:06:15:383,0,-4.86958,-8.28232,-15.0912,Q,Q
2023-03-15 22:06:15:393,0,-4.96312,-8.56601,-14.8043,Q,Q
2023-03-15 22:06:15:403,0,-5.0603,-8.83128,-14.4832,Q,Q
2023-03-15 22:06:15:413,0,-5.1657,-9.09215,-14.1315,Q,Q
2023-03-15 22:06:15:423,0,-5.29535,-9.35233,-13.7553,Q,Q
2023-03-15 22:06:15:433,0,-5.44819,-9.61885,-13.354,Q,Q
2023-03-15 22:06:15:443,0,-5.62996,-9.89602,-12.9367,Q,Q
2023-03-15 22:06:15:452,0,-5.83885,-10.183,-12.5098,Q,Q
2023-03-15 22:06:15:463,0,-6.08128,-10.4778,-12.0801,Q,Q
2023-03-15 22:06:15:473,0,-6.34684,-10.7779,-11.6525,Q,Q
2023-03-15 22:06:15:483,0,-6.62632,-11.0727,-11.2233,Q,Q
2023-03-15 22:06:15:493,0,-6.9173,-11.3524,-10.7949,Q,Q
2023-03-15 22:06:15:503,0,-7.21738,-11.6214,-10.3687,Q,Q
2023-03-15 22:06:15:512,0,-7.53204,-11.8757,-9.94701,Q,Q
2023-03-15 22:06:15:523,0,-7.86344,-12.1269,-9.53053,Q,Q
2023-03-15 22:06:15:533,0,-8.21042,-12.375,-9.12145,Q,Q
2023-03-15 22:06:15:543,0,-8.57001,-12.6234,-8.71421,Q,Q
2023-03-15 22:06:15:553,0,-8.92646,-12.8782,-8.31119,Q,Q
2023-03-15 22:06:15:563,0,-9.26218,-13.1367,-7.90207,Q,Q
2023-03-15 22:06:15:573,0,-9.56829,-13.3931,-7.48771,Q,Q
2023-03-15 22:06:15:583,0,-9.84288,-13.6488,-7.06071,Q,Q
2023-03-15 22:06:15:593,0,-10.1054,-13.9044,-6.6163,Q,Q
2023-03-15 22:06:15:603,0,-10.3661,-14.1569,-6.16254,Q,Q
2023-03-15 22:06:15:612,0,-10.6334,-14.4143,-5.7102,Q,Q
2023-03-15 22:06:15:622,0,-10.9208,-14.6741,-5.24826,Q,Q
2023-03-15 22:06:15:632,0,-11.2255,-14.9268,-4.7877,Q,Q
2023-03-15 22:06:15:642,0,-11.5406,-15.1854,-4.31637,Q,Q
2023-03-15 22:06:15:652,0,-11.8653,-15.4587,-3.84366,Q,Q
2023-03-15 22:06:15:662,0,-12.2049,-15.7329,-3.3571,Q,Q
2023-03-15 22:06:15:673,0,-12.5514,-16.0214,-2.85038,Q,Q
2023-03-15 22:06:15:682,0,-12.913,-16.3231,-2.33028,Q,Q
2023-03-15 22:06:15:692,0,-13.29,-16.6231,-1.80264,Q,Q
2023-03-15 22:06:15:703,0,-13.6773,-16.9167,-1.28076,Q,Q
2023-03-15 22:06:15:713,0,-14.0774,-17.1842,-0.774185,Q,Q
2023-03-15 22:06:15:723,0,-14.4843,-17.4185,-0.279207,Q,Q
2023-03-15 22:06:15:733,0,-14.907,-17.6278,0.199667,Q,Q
2023-03-15 22:06:15:743,0,-15.3456,-17.8172,0.67071,Q,Q
2023-03-15 22:06:15:753,0,-15.8071,-17.9983,1.13473,Q,Q
2023-03-15 22:06:15:763,0,-16.2793,-18.1764,1.58245,Q,Q
2023-03-15 22:06:15:773,0,-16.7549,-18.3505,2.02195,Q,Q
2023-03-15 22:06:15:783,0,-17.2316,-18.511,2.45079,Q,Q
2023-03-15 22:06:15:793,0,-17.6939,-18.6581,2.86273,Q,Q
2023-03-15 22:06:15:803,0,-18.1433,-18.7853,3.25356,Q,Q
2023-03-15 22:06:15:813,0,-18.5757,-18.8853,3.62297,Q,Q
2023-03-15 22:06:15:823,0,-18.9936,-18.963,3.97071,Q,Q
2023-03-15 22:06:15:833,0,-19.3967,-19.0169,4.29304,Q,Q
2023-03-15 22:06:15:843,0,-19.7793,-19.0531,4.5942,Q,Q
2023-03-15 22:06:15:853,0,-20.139,-19.0771,4.87387,Q,Q
2023-03-15 22:06:15:863,0,-20.4831,-19.0977,5.13911,Q,Q
2023-03-15 22:06:15:873,0,-20.8097,-19.1161,5.39081,Q,Q
2023-03-15 22:06:15:883,0,-21.1095,-19.1347,5.62793,Q,Q
2023-03-15 22:06:15:893,0,-21.3888,-19.1508,5.85826,Q,Q
2023-03-15 22:06:15:903,0,-21.6335,-19.1685,6.07192,Q,Q
2023-03-15 22:06:15:913,0,-21.85,-19.1775,6.27613,Q,Q
2023-03-15 22:06:15:923,0,-22.0427,-19.1777,6.47044,Q,Q
2023-03-15 22:06:15:933,0,-22.219,-19.1651,6.65426,Q,Q
2023-03-15 22:06:15:943,0,-22.3859,-19.1432,6.83577,Q,Q
2023-03-15 22:06:15:953,0,-22.5499,-19.1225,7.01262,Q,Q
2023-03-15 22:06:15:963,0,-22.717,-19.1032,7.18974,Q,Q
2023-03-15 22:06:15:973,0,-22.8908,-19.0906,7.36858,Q,Q
2023-03-15 22:06:15:983,0,-23.0664,-19.0856,7.54394,Q,Q
2023-03-15 22:06:15:993,0,-23.2377,-19.0861,7.71489,Q,Q
2023-03-15 22:06:16:3,0,-23.4087,-19.0912,7.88066,Q,Q
2023-03-15 22:06:16:13,0,-23.5723,-19.097,8.0342,Q,Q
2023-03-15 22:06:16:23,0,-23.7261,-19.101,8.17182,Q,Q
2023-03-15 22:06:16:33,0,-23.8666,-19.0949,8.29477,Q,Q
2023-03-15 22:06:16:43,0,-23.9968,-19.0746,8.39817,Q,Q
2023-03-15 22:06:16:53,0,-24.1154,-19.0439,8.48995,Q,Q
2023-03-15 22:06:16:63,0,-24.2364,-18.9968,8.56973,Q,Q
2023-03-15 22:06:16:73,0,-24.3632,-18.9425,8.64136,Q,Q
2023-03-15 22:06:16:83,0,-24.4922,-18.8848,8.70601,Q,Q
2023-03-15 22:06:16:93,0,-24.6155,-18.8208,8.76824,Q,Q
2023-03-15 22:06:16:103,0,-24.7424,-18.7556,8.82725,Q,Q
2023-03-15 22:06:16:113,0,-24.8603,-18.6855,8.88372,Q,Q
2023-03-15 22:06:16:123,0,-24.9646,-18.6115,8.93943,Q,Q
2023-03-15 22:06:16:133,0,-25.0556,-18.5402,8.99938,Q,Q
2023-03-15 22:06:16:143,0,-25.1263,-18.4722,9.06026,Q,Q
2023-03-15 22:06:16:153,0,-25.1825,-18.4083,9.11992,Q,Q
2023-03-15 22:06:16:163,0,-25.2342,-18.3442,9.18276,Q,Q
2023-03-15 22:06:16:173,0,-25.2877,-18.2907,9.23931,Q,Q
2023-03-15 22:06:16:183,0,-25.352,-18.2481,9.30145,Q,Q
2023-03-15 22:06:16:193,0,-25.43,-18.2172,9.36515,Q,Q
2023-03-15 22:06:16:203,0,-25.5122,-18.2034,9.43361,Q,Q
2023-03-15 22:06:16:213,0,-25.5962,-18.2003,9.49994,Q,Q
2023-03-15 22:06:16:223,0,-25.6788,-18.2011,9.56173,Q,Q
2023-03-15 22:06:16:233,0,-25.7553,-18.2089,9.62042,Q,Q
2023-03-15 22:06:16:243,0,-25.8289,-18.2254,9.67201,Q,Q
2023-03-15 22:06:16:253,0,-25.9041,-18.2443,9.71579,Q,Q
2023-03-15 22:06:16:263,0,-25.9791,-18.2672,9.75792,Q,Q
2023-03-15 22:06:16:273,0,-26.0609,-18.2972,9.7953,Q,Q
2023-03-15 22:06:16:283,0,-26.1487,-18.3397,9.82726,Q,Q
2023-03-15 22:06:16:293,0,-26.2402,-18.3896,9.8555,Q,Q
2023-03-15 22:06:16:303,0,-26.3363,-18.4426,9.88003,Q,Q
2023-03-15 22:06:16:313,0,-26.4306,-18.5022,9.89244,Q,Q
2023-03-15 22:06:16:323,0,-26.5272,-18.5568,9.89905,Q,Q
2023-03-15 22:06:16:333,0,-26.6174,-18.6108,9.8904,Q,Q
2023-03-15 22:06:16:343,0,-26.7056,-18.6607,9.86758,Q,Q
2023-03-15 22:06:16:353,0,-26.7736,-18.6996,9.82665,Q,Q
2023-03-15 22:06:16:363,0,-26.8293,-18.7287,9.76704,Q,Q
2023-03-15 22:06:16:373,0,-26.8665,-18.7525,9.69194,Q,Q
2023-03-15 22:06:16:383,0,-26.8851,-18.7695,9.59435,Q,Q
2023-03-15 22:06:16:393,0,-26.8887,-18.7821,9.48325,Q,Q
2023-03-15 22:06:16:403,0,-26.8755,-18.7882,9.35469,Q,Q
2023-03-15 22:06:16:413,0,-26.8504,-18.794,9.20272,Q,Q
2023-03-15 22:06:16:423,0,-26.8122,-18.7999,9.03061,Q,Q
2023-03-15 22:06:16:433,0,-26.7549,-18.8007,8.84235,Q,Q
2023-03-15 22:06:16:443,0,-26.6771,-18.8059,8.63607,Q,Q
2023-03-15 22:06:16:452,0,-26.5755,-18.8123,8.41157,Q,Q
2023-03-15 22:06:16:463,0,-26.4541,-18.8234,8.16931,Q,Q
2023-03-15 22:06:16:473,0,-26.3239,-18.8377,7.90286,Q,Q
2023-03-15 22:06:16:483,0,-26.1854,-18.8642,7.62091,Q,Q
2023-03-15 22:06:16:493,0,-26.0426,-18.9051,7.32173,Q,Q
2023-03-15 22:06:16:503,0,-25.8936,-18.9586,7.01237,Q,Q
2023-03-15 22:06:16:513,0,-25.7403,-19.0205,6.69534,Q,Q
2023-03-15 22:06:16:523,0,-25.5773,-19.0954,6.37442,Q,Q
2023-03-15 22:06:16:533,0,-25.3972,-19.17,6.05106,Q,Q
2023-03-15 22:06:16:543,0,-25.1992,-19.2447,5.72921,Q,Q
2023-03-15 22:06:16:553,0,-24.9805,-19.3088,5.4117,Q,Q
2023-03-15 22:06:16:563,0,-24.7366,-19.3563,5.09767,Q,Q
2023-03-15 22:06:16:573,0,-24.4722,-19.3907,4.78566,Q,Q
2023-03-15 22:06:16:583,0,-24.1916,-19.4058,4.48238,Q,Q
2023-03-15 22:06:16:593,0,-23.8963,-19.4101,4.1834,Q,Q
2023-03-15 22:06:16:603,0,-23.5879,-19.4002,3.88599,Q,Q
2023-03-15 22:06:16:613,0,-23.2659,-19.3851,3.59113,Q,Q
2023-03-15 22:06:16:623,0,-22.9335,-19.3595,3.29483,Q,Q
2023-03-15 22:06:16:633,0,-22.5875,-19.3243,2.99383,Q,Q
2023-03-15 22:06:16:643,0,-22.2308,-19.2799,2.68333,Q,Q
2023-03-15 22:06:16:653,0,-21.8578,-19.2298,2.36007,Q,Q
2023-03-15 22:06:16:663,0,-21.4622,-19.1675,2.02962,Q,Q
2023-03-15 22:06:16:673,0,-21.0436,-19.0938,1.68835,Q,Q
2023-03-15 22:06:16:683,0,-20.6096,-19.008,1.33939,Q,Q
2023-03-15 22:06:16:693,0,-20.155,-18.9158,0.978093,Q,Q
2023-03-15 22:06:16:703,0,-19.6879,-18.8178,0.614481,Q,Q
2023-03-15 22:06:16:713,0,-19.2093,-18.7161,0.247839,Q,Q
2023-03-15 22:06:16:723,0,-18.7254,-18.6104,-0.117414,Q,Q
2023-03-15 22:06:16:732,0,-18.2357,-18.4977,-0.493479,Q,Q
2023-03-15 22:06:16:742,0,-17.7427,-18.3976,-0.870613,Q,Q
2023-03-15 22:06:16:752,0,-17.2376,-18.2672,-1.25923,Q,Q
2023-03-15 22:06:16:762,0,-16.7231,-18.1386,-1.65328,Q,Q
2023-03-15 22:06:16:772,0,-16.1971,-17.9852,-2.04943,Q,Q
2023-03-15 22:06:16:782,0,-15.6494,-17.8164,-2.44467,Q,Q
2023-03-15 22:06:16:792,0,-15.0836,-17.6447,-2.82914,Q,Q
2023-03-15 22:06:16:802,0,-14.5086,-17.4749,-3.20545,Q,Q
2023-03-15 22:06:16:812,0,-13.9319,-17.3039,-3.57972,Q,Q
2023-03-15 22:06:16:822,0,-13.3671,-17.1309,-3.96402,Q,Q
2023-03-15 22:06:16:832,0,-12.8217,-16.9445,-4.36891,Q,Q
2023-03-15 22:06:16:842,0,-12.295,-16.7357,-4.79105,Q,Q
2023-03-15 22:06:16:853,0,-11.7934,-16.5101,-5.23367,Q,Q
2023-03-15 22:06:16:862,0,-11.3048,-16.2653,-5.7,Q,Q
2023-03-15 22:06:16:872,0,-10.8309,-16.0065,-6.18006,Q,Q
2023-03-15 22:06:16:883,0,-10.372,-15.7311,-6.67075,Q,Q
2023-03-15 22:06:16:893,0,-9.924,-15.4434,-7.17234,Q,Q
2023-03-15 22:06:16:902,0,-9.47243,-15.1476,-7.68326,Q,Q
2023-03-15 22:06:16:912,0,-9.02214,-14.8405,-8.191,Q,Q
2023-03-15 22:06:16:923,0,-8.58228,-14.5251,-8.69573,Q,Q
2023-03-15 22:06:16:933,0,-8.16006,-14.2051,-9.20146,Q,Q
2023-03-15 22:06:16:943,0,-7.75381,-13.889,-9.70074,Q,Q
2023-03-15 22:06:16:953,0,-7.37004,-13.5786,-10.1894,Q,Q
2023-03-15 22:06:16:963,0,-7.00997,-13.278,-10.672,Q,Q
2023-03-15 22:06:16:973,0,-6.66706,-12.9767,-11.1575,Q,Q
2023-03-15 22:06:16:983,0,-6.3256,-12.6656,-11.6539,Q,Q
2023-03-15 22:06:16:993,0,-5.98021,-12.3256,-12.1435,Q,Q
2023-03-15 22:06:17:3,0,-5.63926,-11.9756,-12.6197,Q,Q
2023-03-15 22:06:17:13,0,-5.31194,-11.6191,-13.0888,Q,Q
2023-03-15 22:06:17:23,0,-4.99484,-11.268,-13.5497,Q,Q
2023-03-15 22:06:17:33,0,-4.68872,-10.9175,-13.9926,Q,Q
2023-03-15 22:06:17:43,0,-4.39495,-10.5648,-14.423,Q,Q
2023-03-15 22:06:17:53,0,-4.111,-10.2058,-14.8346,Q,Q
2023-03-15 22:06:17:63,0,-3.84251,-9.83978,-15.2294,Q,Q
2023-03-15 22:06:17:73,0,-3.58512,-9.47536,-15.5983,Q,Q
2023-03-15 22:06:17:83,0,-3.34501,-9.11665,-15.9424,Q,Q
2023-03-15 22:06:17:93,0,-3.11844,-8.76196,-16.2639,Q,Q
2023-03-15 22:06:17:103,0,-2.89867,-8.4113,-16.5648,Q,Q
2023-03-15 22:06:17:113,0,-2.6779,-8.06582,-16.8543,Q,Q
2023-03-15 22:06:17:123,0,-2.45746,-7.73297,-17.1345,Q,Q
2023-03-15 22:06:17:133,0,-2.23688,-7.37178,-17.3878,Q,Q
2023-03-15 22:06:17:143,0,-2.01359,-7.03642,-17.6236,Q,Q
2023-03-15 22:06:17:153,0,-1.79951,-6.7057,-17.8307,Q,Q
2023-03-15 22:06:17:163,0,-1.57829,-6.392,-18.0277,Q,Q
2023-03-15 22:06:17:173,0,-1.35952,-6.09441,-18.2073,Q,Q
2023-03-15 22:06:17:183,0,-1.13888,-5.81922,-18.3697,Q,Q
2023-03-15 22:06:17:193,0,-0.91985,-5.5682,-18.524,Q,Q
2023-03-15 22:06:17:203,0,-0.700618,-5.33231,-18.6707,Q,Q
2023-03-15 22:06:17:213,0,-0.474489,-5.10889,-18.807,Q,Q
2023-03-15 22:06:17:223,0,-0.239525,-4.9004,-18.9337,Q,Q
2023-03-15 22:06:17:233,0,0.00591364,-4.70639,-19.0524,Q,Q
2023-03-15 22:06:17:243,0,0.255331,-4.53797,-19.1601,Q,Q
2023-03-15 22:06:17:253,0,0.505282,-4.38711,-19.2597,Q,Q
2023-03-15 22:06:17:263,0,0.755784,-4.24664,-19.3495,Q,Q
2023-03-15 22:06:17:273,0,1.00141,-4.11507,-19.4278,Q,Q
2023-03-15 22:06:17:283,0,1.22765,-3.98536,-19.4965,Q,Q
2023-03-15 22:06:17:293,0,1.43489,-3.8565,-19.5584,Q,Q
2023-03-15 22:06:17:303,0,1.61956,-3.73337,-19.6114,Q,Q
2023-03-15 22:06:17:313,0,1.7837,-3.61563,-19.6536,Q,Q
2023-03-15 22:06:17:322,0,1.92861,-3.49907,-19.6932,Q,Q
2023-03-15 22:06:17:333,0,2.05801,-3.39157,-19.7316,Q,Q
2023-03-15 22:06:17:343,0,2.17096,-3.30023,-19.7598,Q,Q
2023-03-15 22:06:17:353,0,2.26861,-3.22031,-19.7881,Q,Q
2023-03-15 22:06:17:363,0,2.35977,-3.15432,-19.8087,Q,Q
2023-03-15 22:06:17:373,0,2.43548,-3.09868,-19.8198,Q,Q
2023-03-15 22:06:17:383,0,2.49241,-3.05121,-19.8232,Q,Q
2023-03-15 22:06:17:393,0,2.5283,-3.01614,-19.8211,Q,Q
2023-03-15 22:06:17:403,0,2.54151,-2.98971,-19.8112,Q,Q
2023-03-15 22:06:17:413,0,2.5282,-2.97904,-19.7948,Q,Q
2023-03-15 22:06:17:423,0,2.49085,-2.97656,-19.7768,Q,Q
2023-03-15 22:06:17:433,0,2.42163,-2.9837,-19.7515,Q,Q
2023-03-15 22:06:17:443,0,2.33362,-3.00578,-19.7229,Q,Q
2023-03-15 22:06:17:453,0,2.22775,-3.04085,-19.6868,Q,Q
2023-03-15 22:06:17:463,0,2.11114,-3.09269,-19.6467,Q,Q
2023-03-15 22:06:17:473,0,1.98244,-3.16934,-19.5987,Q,Q
2023-03-15 22:06:17:483,0,1.84124,-3.27202,-19.5448,Q,Q
2023-03-15 22:06:17:493,0,1.68199,-3.40502,-19.4829,Q,Q
2023-03-15 22:06:17:503,0,1.49963,-3.56289,-19.4167,Q,Q
2023-03-15 22:06:17:513,0,1.29365,-3.73471,-19.3477,Q,Q
2023-03-15 22:06:17:523,0,1.06679,-3.90625,-19.2726,Q,Q
2023-03-15 22:06:17:533,0,0.822707,-4.07402,-19.2019,Q,Q
2023-03-15 22:06:17:543,0,0.56496,-4.22061,-19.1386,Q,Q
2023-03-15 22:06:17:553,0,0.298768,-4.34089,-19.0839,Q,Q
2023-03-15 22:06:17:563,0,0.0332684,-4.43732,-19.0389,Q,Q
2023-03-15 22:06:17:573,0,-0.22609,-4.48504,-19.0036,Q,Q
2023-03-15 22:06:17:583,0,-0.465097,-4.50679,-18.983,Q,Q
2023-03-15 22:06:17:593,0,-0.689095,-4.51413,-18.9716,Q,Q
2023-03-15 22:06:17:603,0,-0.893408,-4.50055,-18.97,Q,Q
2023-03-15 22:06:17:613,0,-1.07409,-4.47561,-18.9798,Q,Q
2023-03-15 22:06:17:623,0,-1.23913,-4.44801,-18.9973,Q,Q
2023-03-15 22:06:17:633,0,-1.38921,-4.41394,-19.0171,Q,Q
2023-03-15 22:06:17:643,0,-1.52485,-4.37486,-19.0422,Q,Q
2023-03-15 22:06:17:653,0,-1.64932,-4.33867,-19.0732,Q,Q
2023-03-15 22:06:17:663,0,-1.75834,-4.29785,-19.1096,Q,Q
2023-03-15 22:06:17:673,0,-1.85433,-4.25504,-19.1496,Q,Q
2023-03-15 22:06:17:683,0,-1.94081,-4.2139,-19.1916,Q,Q
2023-03-15 22:06:17:693,0,-2.02081,-4.16883,-19.2339,Q,Q
2023-03-15 22:06:17:702,0,-2.0896,-4.13002,-19.2767,Q,Q
2023-03-15 22:06:17:713,0,-2.15713,-4.09165,-19.3191,Q,Q
2023-03-15 22:06:17:722,0,-2.21755,-4.05507,-19.363,Q,Q
2023-03-15 22:06:17:732,0,-2.27026,-4.02244,-19.4108,Q,Q
2023-03-15 22:06:17:742,0,-2.31955,-3.99385,-19.4571,Q,Q
2023-03-15 22:06:17:752,0,-2.36338,-3.97344,-19.5068,Q,Q
2023-03-15 22:06:17:762,0,-2.40274,-3.95103,-19.5581,Q,Q
2023-03-15 22:06:17:773,0,-2.43544,-3.93253,-19.6087,Q,Q
2023-03-15 22:06:17:783,0,-2.46899,-3.91918,-19.657,Q,Q
2023-03-15 22:06:17:793,0,-2.49772,-3.90845,-19.7076,Q,Q
2023-03-15 22:06:17:803,0,-2.51975,-3.89929,-19.7601,Q,Q
2023-03-15 22:06:17:813,0,-2.53214,-3.89227,-19.809,Q,Q
2023-03-15 22:06:17:823,0,-2.5295,-3.88313,-19.8633,Q,Q
2023-03-15 22:06:17:833,0,-2.51284,-3.86782,-19.9169,Q,Q
2023-03-15 22:06:17:843,0,-2.47297,-3.84043,-19.982,Q,Q
2023-03-15 22:06:17:853,0,-2.4107,-3.80595,-20.049,Q,Q
2023-03-15 22:06:17:863,0,-2.33129,-3.76514,-20.1186,Q,Q
2023-03-15 22:06:17:873,0,-2.23857,-3.72023,-20.1888,Q,Q
2023-03-15 22:06:17:883,0,-2.14333,-3.67941,-20.2545,Q,Q
2023-03-15 22:06:17:893,0,-2.04674,-3.64781,-20.3128,Q,Q
2023-03-15 22:06:17:903,0,-1.96566,-3.61825,-20.367,Q,Q
2023-03-15 22:06:17:913,0,-1.90851,-3.59185,-20.4139,Q,Q
2023-03-15 22:06:17:923,0,-1.88128,-3.56896,-20.4586,Q,Q
2023-03-15 22:06:17:933,0,-1.88516,-3.54539,-20.4952,Q,Q
2023-03-15 22:06:17:943,0,-1.9231,-3.52342,-20.5293,Q,Q
2023-03-15 22:06:17:953,0,-1.98448,-3.49786,-20.5567,Q,Q
2023-03-15 22:06:17:963,0,-2.06342,-3.47047,-20.5842,Q,Q
2023-03-15 22:06:17:973,0,-2.1546,-3.4378,-20.606,Q,Q
2023-03-15 22:06:17:983,0,-2.26037,-3.40899,-20.6206,Q,Q
2023-03-15 22:06:17:993,0,-2.37217,-3.38856,-20.6311,Q,Q
2023-03-15 22:06:18:3,0,-2.49179,-3.37055,-20.6348,Q,Q
2023-03-15 22:06:18:13,0,-2.61846,-3.35673,-20.6348,Q,Q
2023-03-15 22:06:18:23,0,-2.75577,-3.35273,-20.6304,Q,Q
2023-03-15 22:06:18:33,0,-2.89561,-3.35924,-20.6239,Q,Q
2023-03-15 22:06:18:43,0,-3.03558,-3.37196,-20.6145,Q,Q
2023-03-15 22:06:18:53,0,-3.16524,-3.38977,-20.6034,Q,Q
2023-03-15 22:06:18:63,0,-3.27964,-3.40973,-20.5919,Q,Q
2023-03-15 22:06:18:73,0,-3.37503,-3.42731,-20.5782,Q,Q
2023-03-15 22:06:18:83,0,-3.44585,-3.44287,-20.5698,Q,Q
2023-03-15 22:06:18:93,0,-3.4977,-3.46024,-20.5595,Q,Q
2023-03-15 22:06:18:103,0,-3.52753,-3.47512,-20.5447,Q,Q
2023-03-15 22:06:18:113,0,-3.53689,-3.48953,-20.5306,Q,Q
2023-03-15 22:06:18:123,0,-3.53077,-3.49563,-20.5156,Q,Q
2023-03-15 22:06:18:133,0,-3.5077,-3.4994,-20.5054,Q,Q
2023-03-15 22:06:18:143,0,-3.47134,-3.50434,-20.4912,Q,Q
2023-03-15 22:06:18:153,0,-3.42572,-3.50183,-20.477,Q,Q
2023-03-15 22:06:18:163,0,-3.36968,-3.49467,-20.4644,Q,Q
2023-03-15 22:06:18:173,0,-3.30612,-3.48464,-20.446,Q,Q
2023-03-15 22:06:18:183,0,-3.23743,-3.46597,-20.4261,Q,Q
2023-03-15 22:06:18:193,0,-3.162,-3.45114,-20.4027,Q,Q
2023-03-15 22:06:18:203,0,-3.08633,-3.43651,-20.3806,Q,Q
2023-03-15 22:06:18:213,0,-3.01425,-3.42127,-20.3514,Q,Q
2023-03-15 22:06:18:223,0,-2.95438,-3.40752,-20.3214,Q,Q
2023-03-15 22:06:18:233,0,-2.90345,-3.40173,-20.2955,Q,Q
2023-03-15 22:06:18:243,0,-2.85774,-3.39638,-20.2681,Q,Q
2023-03-15 22:06:18:253,0,-2.82252,-3.3962,-20.2419,Q,Q
2023-03-15 22:06:18:263,0,-2.78962,-3.39485,-20.2162,Q,Q
2023-03-15 22:06:18:273,0,-2.75863,-3.38913,-20.1893,Q,Q
2023-03-15 22:06:18:283,0,-2.73508,-3.38061,-20.1683,Q,Q
2023-03-15 22:06:18:293,0,-2.71118,-3.37628,-20.1496,Q,Q
2023-03-15 22:06:18:303,0,-2.69108,-3.37273,-20.132,Q,Q
2023-03-15 22:06:18:313,0,-2.67613,-3.36971,-20.114,Q,Q
2023-03-15 22:06:18:323,0,-2.65537,-3.36627,-20.1009,Q,Q
2023-03-15 22:06:18:333,0,-2.62629,-3.37017,-20.088,Q,Q
2023-03-15 22:06:18:343,0,-2.5946,-3.37517,-20.0749,Q,Q
2023-03-15 22:06:18:353,0,-2.55511,-3.3835,-20.0672,Q,Q
2023-03-15 22:06:18:363,0,-2.5018,-3.39169,-20.0589,Q,Q
2023-03-15 22:06:18:373,0,-2.44401,-3.40203,-20.0534,Q,Q
2023-03-15 22:06:18:383,0,-2.38468,-3.40767,-20.0475,Q,Q
2023-03-15 22:06:18:393,0,-2.32139,-3.41467,-20.0401,Q,Q
2023-03-15 22:06:18:403,0,-2.25268,-3.42389,-20.0306,Q,Q
2023-03-15 22:06:18:413,0,-2.18615,-3.43187,-20.0253,Q,Q
2023-03-15 22:06:18:423,0,-2.12572,-3.4463,-20.0209,Q,Q
2023-03-15 22:06:18:433,0,-2.07199,-3.46362,-20.0143,Q,Q
2023-03-15 22:06:18:443,0,-2.02219,-3.48191,-20.0121,Q,Q
2023-03-15 22:06:18:453,0,-1.9828,-3.50138,-20.0094,Q,Q
2023-03-15 22:06:18:463,0,-1.95362,-3.52396,-20.0045,Q,Q
2023-03-15 22:06:18:473,0,-1.94156,-3.54333,-20.0051,Q,Q
2023-03-15 22:06:18:483,0,-1.93357,-3.56465,-20.0099,Q,Q
2023-03-15 22:06:18:493,0,-1.93557,-3.58345,-20.0189,Q,Q
2023-03-15 22:06:18:503,0,-1.94516,-3.60585,-20.0304,Q,Q
2023-03-15 22:06:18:513,0,-1.95146,-3.63424,-20.0478,Q,Q
2023-03-15 22:06:18:523,0,-1.95279,-3.6601,-20.0691,Q,Q
2023-03-15 22:06:18:533,0,-1.94538,-3.6844,-20.0919,Q,Q
2023-03-15 22:06:18:543,0,-1.92832,-3.70369,-20.1178,Q,Q
2023-03-15 22:06:18:553,0,-1.89305,-3.71993,-20.1406,Q,Q
2023-03-15 22:06:18:563,0,-1.84488,-3.73378,-20.1658,Q,Q
2023-03-15 22:06:18:573,0,-1.7906,-3.74626,-20.1854,Q,Q
2023-03-15 22:06:18:583,0,-1.73288,-3.75994,-20.2029,Q,Q
2023-03-15 22:06:18:593,0,-1.67049,-3.77556,-20.2201,Q,Q
2023-03-15 22:06:18:603,0,-1.61014,-3.79443,-20.2339,Q,Q
2023-03-15 22:06:18:613,0,-1.55166,-3.8134,-20.2422,Q,Q
2023-03-15 22:06:18:623,0,-1.49605,-3.83537,-20.2452,Q,Q
2023-03-15 22:06:18:633,0,-1.45514,-3.86196,-20.2467,Q,Q
2023-03-15 22:06:18:643,0,-1.41466,-3.89582,-20.2415,Q,Q
2023-03-15 22:06:18:653,0,-1.38209,-3.93676,-20.232,Q,Q
2023-03-15 22:06:18:663,0,-1.35428,-3.97897,-20.2179,Q,Q
2023-03-15 22:06:18:673,0,-1.33393,-4.0241,-20.1983,Q,Q
2023-03-15 22:06:18:683,0,-1.31983,-4.06949,-20.1734,Q,Q
2023-03-15 22:06:18:693,0,-1.31045,-4.11511,-20.146,Q,Q
2023-03-15 22:06:18:703,0,-1.30385,-4.15371,-20.1164,Q,Q
2023-03-15 22:06:18:713,0,-1.30425,-4.18271,-20.0877,Q,Q
2023-03-15 22:06:18:723,0,-1.30643,-4.20773,-20.0624,Q,Q
2023-03-15 22:06:18:733,0,-1.31366,-4.22335,-20.0385,Q,Q
2023-03-15 22:06:18:743,0,-1.32676,-4.23661,-20.0148,Q,Q
2023-03-15 22:06:18:753,0,-1.33922,-4.2523,-19.995,Q,Q
2023-03-15 22:06:18:763,0,-1.34351,-4.2668,-19.9808,Q,Q
2023-03-15 22:06:18:773,0,-1.34104,-4.27816,-19.9723,Q,Q
2023-03-15 22:06:18:783,0,-1.33125,-4.27151,-19.9728,Q,Q
2023-03-15 22:06:18:793,0,-1.31332,-4.25375,-19.9821,Q,Q
2023-03-15 22:06:18:803,0,-1.28726,-4.22447,-19.9978,Q,Q
2023-03-15 22:06:18:813,0,-1.25149,-4.18872,-20.0174,Q,Q
2023-03-15 22:06:18:823,0,-1.20676,-4.15442,-20.041,Q,Q
2023-03-15 22:06:18:833,0,-1.15723,-4.12455,-20.0655,Q,Q
2023-03-15 22:06:18:843,0,-1.10334,-4.1013,-20.0955,Q,Q
2023-03-15 22:06:18:853,0,-1.0538,-4.08857,-20.1276,Q,Q
2023-03-15 22:06:18:863,0,-1.00486,-4.07924,-20.1619,Q,Q
2023-03-15 22:06:18:873,0,-0.958122,-4.07222,-20.1988,Q,Q
2023-03-15 22:06:18:883,0,-0.913216,-4.05972,-20.2359,Q,Q
2023-03-15 22:06:18:893,0,-0.865523,-4.04445,-20.2763,Q,Q
2023-03-15 22:06:18:903,0,-0.809757,-4.02564,-20.3156,Q,Q
2023-03-15 22:06:18:913,0,-0.748687,-4.01435,-20.3471,Q,Q
2023-03-15 22:06:18:923,0,-0.679393,-4.0055,-20.3716,Q,Q
2023-03-15 22:06:18:933,0,-0.606058,-4.0031,-20.3874,Q,Q
2023-03-15 22:06:18:943,0,-0.523719,-4.00528,-20.3938,Q,Q
2023-03-15 22:06:18:953,0,-0.444824,-4.0164,-20.3912,Q,Q
2023-03-15 22:06:18:963,0,-0.36836,-4.02685,-20.3847,Q,Q
2023-03-15 22:06:18:973,0,-0.297543,-4.0416,-20.3632,Q,Q
2023-03-15 22:06:18:983,0,-0.236532,-4.05711,-20.3362,Q,Q
2023-03-15 22:06:18:993,0,-0.177416,-4.06849,-20.3082,Q,Q
2023-03-15 22:06:19:3,0,-0.125036,-4.07754,-20.2763,Q,Q
2023-03-15 22:06:19:13,0,-0.0749504,-4.08856,-20.2394,Q,Q
2023-03-15 22:06:19:23,0,-0.0235033,-4.09432,-20.1989,Q,Q
2023-03-15 22:06:19:33,0,0.0264227,-4.09855,-20.1559,Q,Q
2023-03-15 22:06:19:43,0,0.0709767,-4.10462,-20.1155,Q,Q
2023-03-15 22:06:19:53,0,0.111629,-4.10854,-20.0754,Q,Q
2023-03-15 22:06:19:63,0,0.146694,-4.11652,-20.0352,Q,Q
2023-03-15 22:06:19:73,0,0.179947,-4.12631,-19.9986,Q,Q
2023-03-15 22:06:19:83,0,0.202292,-4.13144,-19.9667,Q,Q
2023-03-15 22:06:19:93,0,0.222519,-4.13552,-19.9428,Q,Q
2023-03-15 22:06:19:103,0,0.243339,-4.14173,-19.9278,Q,Q
2023-03-15 22:06:19:113,0,0.27111,-4.1437,-19.9205,Q,Q
2023-03-15 22:06:19:123,0,0.308795,-4.14342,-19.9161,Q,Q
2023-03-15 22:06:19:133,0,0.349636,-4.14652,-19.9164,Q,Q
2023-03-15 22:06:19:143,0,0.390441,-4.14811,-19.92,Q,Q
2023-03-15 22:06:19:153,0,0.428541,-4.1549,-19.9281,Q,Q
2023-03-15 22:06:19:163,0,0.463662,-4.15859,-19.944,Q,Q
2023-03-15 22:06:19:173,0,0.496453,-4.15787,-19.962,Q,Q
2023-03-15 22:06:19:183,0,0.530836,-4.15625,-19.9856,Q,Q
2023-03-15 22:06:19:193,0,0.571783,-4.15719,-20.0084,Q,Q
2023-03-15 22:06:19:203,0,0.621049,-4.15983,-20.0257,Q,Q
2023-03-15 22:06:19:213,0,0.677371,-4.16166,-20.0418,Q,Q
2023-03-15 22:06:19:223,0,0.743168,-4.16547,-20.0587,Q,Q
2023-03-15 22:06:19:233,0,0.816594,-4.17411,-20.0662,Q,Q
2023-03-15 22:06:19:243,0,0.895834,-4.18699,-20.069,Q,Q
2023-03-15 22:06:19:253,0,0.974187,-4.20274,-20.0628,Q,Q
2023-03-15 22:06:19:263,0,1.04842,-4.21602,-20.0508,Q,Q
2023-03-15 22:06:19:273,0,1.11673,-4.23051,-20.0323,Q,Q
2023-03-15 22:06:19:283,0,1.17821,-4.25205,-20.0038,Q,Q
2023-03-15 22:06:19:293,0,1.23686,-4.27784,-19.9703,Q,Q
2023-03-15 22:06:19:303,0,1.29578,-4.3076,-19.9316,Q,Q
2023-03-15 22:06:19:313,0,1.3592,-4.33602,-19.8904,Q,Q
2023-03-15 22:06:19:323,0,1.42556,-4.36139,-19.8477,Q,Q
2023-03-15 22:06:19:333,0,1.49462,-4.38323,-19.8093,Q,Q
2023-03-15 22:06:19:343,0,1.57235,-4.39607,-19.771,Q,Q
2023-03-15 22:06:19:353,0,1.64984,-4.40587,-19.7301,Q,Q
2023-03-15 22:06:19:363,0,1.72792,-4.41785,-19.6919,Q,Q
2023-03-15 22:06:19:373,0,1.8007,-4.43171,-19.6521,Q,Q
2023-03-15 22:06:19:383,0,1.8627,-4.44118,-19.6143,Q,Q
2023-03-15 22:06:19:393,0,1.91921,-4.45166,-19.5798,Q,Q
2023-03-15 22:06:19:403,0,1.97349,-4.46361,-19.5541,Q,Q
2023-03-15 22:06:19:413,0,2.0246,-4.47205,-19.5319,Q,Q
2023-03-15 22:06:19:423,0,2.07407,-4.47841,-19.5122,Q,Q
2023-03-15 22:06:19:433,0,2.12501,-4.48376,-19.5003,Q,Q
2023-03-15 22:06:19:443,0,2.1699,-4.48469,-19.4815,Q,Q
2023-03-15 22:06:19:453,0,2.20579,-4.49045,-19.4636,Q,Q
2023-03-15 22:06:19:463,0,2.23228,-4.50434,-19.4455,Q,Q
2023-03-15 22:06:19:473,0,2.24472,-4.52112,-19.4198,Q,Q
2023-03-15 22:06:19:483,0,2.2437,-4.54797,-19.395,Q,Q
2023-03-15 22:06:19:493,0,2.23571,-4.57728,-19.3699,Q,Q
2023-03-15 22:06:19:503,0,2.22093,-4.61374,-19.3494,Q,Q
2023-03-15 22:06:19:513,0,2.20411,-4.64987,-19.3279,Q,Q
2023-03-15 22:06:19:523,0,2.18702,-4.68662,-19.308,Q,Q
2023-03-15 22:06:19:533,0,2.17146,-4.72206,-19.2891,Q,Q
2023-03-15 22:06:19:543,0,2.16171,-4.75881,-19.2712,Q,Q
2023-03-15 22:06:19:553,0,2.15363,-4.79488,-19.2528,Q,Q
2023-03-15 22:06:19:563,0,2.1483,-4.83074,-19.2336,Q,Q
2023-03-15 22:06:19:573,0,2.13633,-4.86163,-19.2133,Q,Q
2023-03-15 22:06:19:583,0,2.11807,-4.89481,-19.1944,Q,Q
2023-03-15 22:06:19:593,0,2.09573,-4.92972,-19.1763,Q,Q
2023-03-15 22:06:19:603,0,2.0652,-4.96745,-19.1592,Q,Q
2023-03-15 22:06:19:613,0,2.03019,-5.01193,-19.1406,Q,Q
2023-03-15 22:06:19:623,0,1.99226,-5.07556,-19.1198,Q,Q
2023-03-15 22:06:19:633,0,1.95174,-5.1537,-19.1052,Q,Q
2023-03-15 22:06:19:643,0,1.9087,-5.22767,-19.1039,Q,Q
2023-03-15 22:06:19:653,0,1.86602,-5.27861,-19.1206,Q,Q
2023-03-15 22:06:19:663,0,1.83419,-5.29058,-19.1546,Q,Q
2023-03-15 22:06:19:673,0,1.80986,-5.26166,-19.2008,Q,Q
2023-03-15 22:06:19:683,0,1.8014,-5.20283,-19.2569,Q,Q
2023-03-15 22:06:19:693,0,1.7968,-5.11552,-19.3125,Q,Q
2023-03-15 22:06:19:703,0,1.79109,-5.00247,-19.3653,Q,Q
2023-03-15 22:06:19:713,0,1.78525,-4.87297,-19.4108,Q,Q
2023-03-15 22:06:19:723,0,1.78075,-4.74593,-19.4491,Q,Q
2023-03-15 22:06:19:733,0,1.77514,-4.63491,-19.4799,Q,Q
2023-03-15 22:06:19:743,0,1.76642,-4.53964,-19.5022,Q,Q
2023-03-15 22:06:19:753,0,1.75385,-4.45543,-19.5222,Q,Q
2023-03-15 22:06:19:763,0,1.73558,-4.37716,-19.5444,Q,Q
2023-03-15 22:06:19:773,0,1.71768,-4.30022,-19.5669,Q,Q
2023-03-15 22:06:19:783,0,1.69752,-4.22379,-19.5961,Q,Q
2023-03-15 22:06:19:793,0,1.67953,-4.15253,-19.6328,Q,Q
2023-03-15 22:06:19:803,0,1.66871,-4.08823,-19.6696,Q,Q
2023-03-15 22:06:19:813,0,1.66262,-4.0322,-19.7111,Q,Q
2023-03-15 22:06:19:823,0,1.66454,-3.98952,-19.7535,Q,Q
2023-03-15 22:06:19:833,0,1.66936,-3.96127,-19.8037,Q,Q
2023-03-15 22:06:19:843,0,1.67636,-3.93775,-19.8583,Q,Q
2023-03-15 22:06:19:853,0,1.67983,-3.91668,-19.9218,Q,Q
2023-03-15 22:06:19:863,0,1.68536,-3.89304,-19.9948,Q,Q
2023-03-15 22:06:19:873,0,1.68862,-3.87146,-20.0671,Q,Q
2023-03-15 22:06:19:882,0,1.68178,-3.8547,-20.135,Q,Q
2023-03-15 22:06:19:893,0,1.67168,-3.85207,-20.1991,Q,Q
2023-03-15 22:06:19:903,0,1.65855,-3.86224,-20.261,Q,Q
2023-03-15 22:06:19:913,0,1.64877,-3.87649,-20.3221,Q,Q
2023-03-15 22:06:19:923,0,1.64266,-3.8902,-20.3754,Q,Q
2023-03-15 22:06:19:933,0,1.63934,-3.91116,-20.4276,Q,Q
2023-03-15 22:06:19:943,0,1.6383,-3.92431,-20.4743,Q,Q
2023-03-15 22:06:19:953,0,1.63612,-3.9365,-20.5158,Q,Q
2023-03-15 22:06:19:963,0,1.63584,-3.94634,-20.5519,Q,Q
2023-03-15 22:06:19:973,0,1.63662,-3.96144,-20.5788,Q,Q
2023-03-15 22:06:19:983,0,1.63093,-3.98448,-20.5939,Q,Q
2023-03-15 22:06:19:993,0,1.62163,-4.00839,-20.6051,Q,Q
2023-03-15 22:06:20:3,0,1.61221,-4.03403,-20.6164,Q,Q
2023-03-15 22:06:20:13,0,1.59336,-4.06637,-20.616,Q,Q
2023-03-15 22:06:20:23,0,1.57616,-4.09594,-20.6183,Q,Q
2023-03-15 22:06:20:33,0,1.56076,-4.1272,-20.6195,Q,Q
2023-03-15 22:06:20:43,0,1.54292,-4.15736,-20.6188,Q,Q
2023-03-15 22:06:20:53,0,1.53066,-4.18435,-20.6141,Q,Q
2023-03-15 22:06:20:63,0,1.519,-4.21129,-20.6079,Q,Q
2023-03-15 22:06:20:73,0,1.50648,-4.2421,-20.5965,Q,Q
2023-03-15 22:06:20:83,0,1.49476,-4.27802,-20.585,Q,Q
2023-03-15 22:06:20:93,0,1.4822,-4.31786,-20.5724,Q,Q
2023-03-15 22:06:20:103,0,1.46521,-4.35982,-20.5582,Q,Q
2023-03-15 22:06:20:113,0,1.4488,-4.40831,-20.5374,Q,Q
2023-03-15 22:06:20:123,0,1.4311,-4.46081,-20.5159,Q,Q
2023-03-15 22:06:20:133,0,1.41519,-4.51835,-20.4904,Q,Q
2023-03-15 22:06:20:143,0,1.39944,-4.57307,-20.4641,Q,Q
2023-03-15 22:06:20:153,0,1.38491,-4.62763,-20.4358,Q,Q
2023-03-15 22:06:20:163,0,1.37177,-4.68413,-20.4037,Q,Q
2023-03-15 22:06:20:173,0,1.3577,-4.735,-20.3743,Q,Q
2023-03-15 22:06:20:183,0,1.35013,-4.78375,-20.3438,Q,Q
2023-03-15 22:06:20:193,0,1.34371,-4.82741,-20.3178,Q,Q
2023-03-15 22:06:20:203,0,1.33839,-4.86607,-20.2866,Q,Q
2023-03-15 22:06:20:213,0,1.34274,-4.90178,-20.2579,Q,Q
2023-03-15 22:06:20:223,0,1.35221,-4.93658,-20.2307,Q,Q
2023-03-15 22:06:20:233,0,1.36077,-4.97213,-20.1997,Q,Q
2023-03-15 22:06:20:243,0,1.37261,-5.01394,-20.1741,Q,Q
2023-03-15 22:06:20:253,0,1.39005,-5.05673,-20.1552,Q,Q
2023-03-15 22:06:20:263,0,1.40401,-5.09107,-20.1438,Q,Q
2023-03-15 22:06:20:273,0,1.42542,-5.11217,-20.1415,Q,Q
2023-03-15 22:06:20:283,0,1.44223,-5.12146,-20.1526,Q,Q
2023-03-15 22:06:20:293,0,1.46411,-5.1171,-20.17,Q,Q
2023-03-15 22:06:20:303,0,1.48804,-5.09706,-20.1946,Q,Q
2023-03-15 22:06:20:313,0,1.5172,-5.07252,-20.2259,Q,Q
2023-03-15 22:06:20:323,0,1.55289,-5.04997,-20.2586,Q,Q
2023-03-15 22:06:20:333,0,1.59397,-5.03309,-20.2867,Q,Q
2023-03-15 22:06:20:343,0,1.6359,-5.02625,-20.3216,Q,Q
2023-03-15 22:06:20:353,0,1.67402,-5.02318,-20.3623,Q,Q
2023-03-15 22:06:20:363,0,1.71245,-5.02302,-20.3971,Q,Q
2023-03-15 22:06:20:373,0,1.74606,-5.02456,-20.4298,Q,Q
2023-03-15 22:06:20:383,0,1.77489,-5.02954,-20.4605,Q,Q
2023-03-15 22:06:20:393,0,1.79154,-5.03906,-20.4893,Q,Q
2023-03-15 22:06:20:403,0,1.8027,-5.04975,-20.5125,Q,Q
2023-03-15 22:06:20:413,0,1.80918,-5.05966,-20.5297,Q,Q
2023-03-15 22:06:20:423,0,1.81202,-5.07412,-20.5473,Q,Q
2023-03-15 22:06:20:433,0,1.81748,-5.08819,-20.5572,Q,Q
2023-03-15 22:06:20:443,0,1.82388,-5.10064,-20.566,Q,Q
2023-03-15 22:06:20:453,0,1.83263,-5.11432,-20.5727,Q,Q
2023-03-15 22:06:20:463,0,1.84015,-5.12955,-20.5739,Q,Q
2023-03-15 22:06:20:473,0,1.84917,-5.15341,-20.5688,Q,Q
2023-03-15 22:06:20:483,0,1.8613,-5.18459,-20.5581,Q,Q
2023-03-15 22:06:20:493,0,1.86975,-5.21542,-20.5406,Q,Q
2023-03-15 22:06:20:503,0,1.8786,-5.25282,-20.5197,Q,Q
2023-03-15 22:06:20:513,0,1.8887,-5.29541,-20.4952,Q,Q
2023-03-15 22:06:20:523,0,1.89957,-5.3355,-20.4668,Q,Q
2023-03-15 22:06:20:533,0,1.91046,-5.37457,-20.4363,Q,Q
2023-03-15 22:06:20:543,0,1.92718,-5.41275,-20.406,Q,Q
2023-03-15 22:06:20:553,0,1.95004,-5.45218,-20.3704,Q,Q
2023-03-15 22:06:20:563,0,1.97757,-5.49062,-20.3318,Q,Q
2023-03-15 22:06:20:573,0,2.00627,-5.52267,-20.2957,Q,Q
2023-03-15 22:06:20:583,0,2.04246,-5.55699,-20.2568,Q,Q
2023-03-15 22:06:20:593,0,2.07429,-5.58688,-20.2197,Q,Q
2023-03-15 22:06:20:603,0,2.10544,-5.61004,-20.1792,Q,Q
2023-03-15 22:06:20:613,0,2.13788,-5.63083,-20.1386,Q,Q
2023-03-15 22:06:20:623,0,2.16987,-5.6485,-20.0998,Q,Q
2023-03-15 22:06:20:633,0,2.19864,-5.66987,-20.0625,Q,Q
2023-03-15 22:06:20:643,0,2.22783,-5.68899,-20.0275,Q,Q
2023-03-15 22:06:20:653,0,2.25786,-5.7062,-19.9968,Q,Q
2023-03-15 22:06:20:663,0,2.28714,-5.72619,-19.9655,Q,Q
2023-03-15 22:06:20:673,0,2.31717,-5.7428,-19.9382,Q,Q
2023-03-15 22:06:20:683,0,2.34457,-5.76053,-19.9094,Q,Q
2023-03-15 22:06:20:693,0,2.37179,-5.77243,-19.884,Q,Q
2023-03-15 22:06:20:703,0,2.39551,-5.78478,-19.8571,Q,Q
2023-03-15 22:06:20:713,0,2.41842,-5.79559,-19.834,Q,Q
2023-03-15 22:06:20:723,0,2.43319,-5.80809,-19.8132,Q,Q
2023-03-15 22:06:20:733,0,2.44663,-5.81299,-19.7919,Q,Q
2023-03-15 22:06:20:743,0,2.45694,-5.81884,-19.7758,Q,Q
2023-03-15 22:06:20:753,0,2.46672,-5.82144,-19.7611,Q,Q
2023-03-15 22:06:20:763,0,2.47557,-5.81929,-19.7487,Q,Q
2023-03-15 22:06:20:773,0,2.48501,-5.81567,-19.737,Q,Q
2023-03-15 22:06:20:783,0,2.49611,-5.81049,-19.7298,Q,Q
2023-03-15 22:06:20:793,0,2.5068,-5.80131,-19.7222,Q,Q
2023-03-15 22:06:20:803,0,2.51438,-5.79244,-19.7159,Q,Q
2023-03-15 22:06:20:813,0,2.51935,-5.78158,-19.7119,Q,Q
2023-03-15 22:06:20:823,0,2.52353,-5.76812,-19.7121,Q,Q
2023-03-15 22:06:20:833,0,2.52486,-5.75729,-19.7134,Q,Q
2023-03-15 22:06:20:843,0,2.52502,-5.73774,-19.7147,Q,Q
2023-03-15 22:06:20:853,0,2.52359,-5.71778,-19.7213,Q,Q
2023-03-15 22:06:20:863,0,2.52086,-5.69827,-19.7298,Q,Q
2023-03-15 22:06:20:873,0,2.51617,-5.67772,-19.7404,Q,Q
2023-03-15 22:06:20:883,0,2.50944,-5.65961,-19.7501,Q,Q
2023-03-15 22:06:20:893,0,2.50748,-5.64441,-19.7637,Q,Q
2023-03-15 22:06:20:903,0,2.50131,-5.62807,-19.7756,Q,Q
2023-03-15 22:06:20:913,0,2.50228,-5.61108,-19.7924,Q,Q
2023-03-15 22:06:20:923,0,2.50248,-5.59748,-19.8092,Q,Q
2023-03-15 22:06:20:933,0,2.50447,-5.58344,-19.8257,Q,Q
2023-03-15 22:06:20:943,0,2.50924,-5.57708,-19.8406,Q,Q
2023-03-15 22:06:20:953,0,2.51405,-5.57704,-19.8539,Q,Q
2023-03-15 22:06:20:963,0,2.52021,-5.57745,-19.8675,Q,Q
2023-03-15 22:06:20:973,0,2.5261,-5.57452,-19.8798,Q,Q
2023-03-15 22:06:20:983,0,2.52799,-5.57298,-19.8839,Q,Q
2023-03-15 22:06:20:993,0,2.5239,-5.57102,-19.887,Q,Q
2023-03-15 22:06:21:3,0,2.51628,-5.56653,-19.8939,Q,Q
2023-03-15 22:06:21:13,0,2.50395,-5.56357,-19.8958,Q,Q
2023-03-15 22:06:21:23,0,2.48936,-5.55942,-19.8944,Q,Q
2023-03-15 22:06:21:33,0,2.47094,-5.55669,-19.8942,Q,Q
2023-03-15 22:06:21:43,0,2.44788,-5.5518,-19.8963,Q,Q
2023-03-15 22:06:21:53,0,2.42564,-5.54327,-19.8977,Q,Q
2023-03-15 22:06:21:63,0,2.40089,-5.53166,-19.9013,Q,Q
2023-03-15 22:06:21:73,0,2.37769,-5.52199,-19.9059,Q,Q
2023-03-15 22:06:21:83,0,2.35935,-5.50867,-19.9135,Q,Q
2023-03-15 22:06:21:93,0,2.33685,-5.50145,-19.9195,Q,Q
2023-03-15 22:06:21:103,0,2.30817,-5.49403,-19.9274,Q,Q
2023-03-15 22:06:21:113,0,2.27644,-5.48824,-19.9339,Q,Q
2023-03-15 22:06:21:123,0,2.24193,-5.48565,-19.9372,Q,Q
2023-03-15 22:06:21:133,0,2.20299,-5.48578,-19.9434,Q,Q
2023-03-15 22:06:21:143,0,2.1618,-5.49011,-19.9507,Q,Q
2023-03-15 22:06:21:153,0,2.12099,-5.49123,-19.9599,Q,Q
2023-03-15 22:06:21:163,0,2.0812,-5.49293,-19.9694,Q,Q
2023-03-15 22:06:21:173,0,2.04704,-5.49503,-19.9803,Q,Q
2023-03-15 22:06:21:183,0,2.01775,-5.50221,-19.9864,Q,Q
2023-03-15 22:06:21:193,0,1.98911,-5.50817,-19.9951,Q,Q
2023-03-15 22:06:21:203,0,1.96842,-5.51688,-20.0032,Q,Q
2023-03-15 22:06:21:213,0,1.95097,-5.51997,-20.0124,Q,Q
2023-03-15 22:06:21:223,0,1.93406,-5.51959,-20.0202,Q,Q
2023-03-15 22:06:21:233,0,1.92078,-5.51939,-20.0274,Q,Q
2023-03-15 22:06:21:243,0,1.90885,-5.52016,-20.0336,Q,Q
2023-03-15 22:06:21:253,0,1.902,-5.52042,-20.0393,Q,Q
2023-03-15 22:06:21:263,0,1.89543,-5.52127,-20.0491,Q,Q
2023-03-15 22:06:21:273,0,1.8914,-5.52435,-20.0608,Q,Q
2023-03-15 22:06:21:283,0,1.88838,-5.52501,-20.0702,Q,Q
2023-03-15 22:06:21:293,0,1.89086,-5.52993,-20.0823,Q,Q
2023-03-15 22:06:21:303,0,1.89169,-5.54346,-20.096,Q,Q
2023-03-15 22:06:21:313,0,1.88442,-5.55125,-20.1025,Q,Q
2023-03-15 22:06:21:323,0,1.87333,-5.56511,-20.1128,Q,Q
2023-03-15 22:06:21:333,0,1.86299,-5.57273,-20.1157,Q,Q
2023-03-15 22:06:21:343,0,1.85403,-5.58268,-20.1204,Q,Q
2023-03-15 22:06:21:353,0,1.85013,-5.59379,-20.124,Q,Q
2023-03-15 22:06:21:363,0,1.85821,-5.60015,-20.1252,Q,Q
2023-03-15 22:06:21:373,0,1.87198,-5.60912,-20.1203,Q,Q
2023-03-15 22:06:21:383,0,1.88685,-5.62143,-20.1146,Q,Q
2023-03-15 22:06:21:393,0,1.90418,-5.63585,-20.1071,Q,Q
2023-03-15 22:06:21:403,0,1.92046,-5.65534,-20.0951,Q,Q
2023-03-15 22:06:21:413,0,1.9347,-5.67362,-20.076,Q,Q
2023-03-15 22:06:21:423,0,1.94578,-5.69466,-20.059,Q,Q
2023-03-15 22:06:21:433,0,1.95501,-5.7164,-20.0398,Q,Q
2023-03-15 22:06:21:443,0,1.96258,-5.74207,-20.0199,Q,Q
2023-03-15 22:06:21:453,0,1.96524,-5.76434,-19.9999,Q,Q
2023-03-15 22:06:21:463,0,1.97721,-5.78502,-19.9836,Q,Q
2023-03-15 22:06:21:473,0,2.00229,-5.80297,-19.9717,Q,Q
2023-03-15 22:06:21:483,0,2.03223,-5.81538,-19.9571,Q,Q
2023-03-15 22:06:21:493,0,2.06857,-5.82868,-19.946,Q,Q
2023-03-15 22:06:21:503,0,2.10562,-5.83812,-19.9336,Q,Q
2023-03-15 22:06:21:513,0,2.13826,-5.8447,-19.9197,Q,Q
2023-03-15 22:06:21:523,0,2.15535,-5.84346,-19.907,Q,Q
2023-03-15 22:06:21:533,0,2.16399,-5.8339,-19.9037,Q,Q
2023-03-15 22:06:21:543,0,2.16203,-5.8167,-19.9048,Q,Q
2023-03-15 22:06:21:553,0,2.15889,-5.79275,-19.9082,Q,Q
2023-03-15 22:06:21:563,0,2.14991,-5.76547,-19.9203,Q,Q
2023-03-15 22:06:21:573,0,2.14476,-5.73675,-19.9348,Q,Q
2023-03-15 22:06:21:583,0,2.14962,-5.70868,-19.9506,Q,Q
2023-03-15 22:06:21:593,0,2.15867,-5.68039,-19.9649,Q,Q
2023-03-15 22:06:21:603,0,2.17795,-5.64974,-19.9746,Q,Q
2023-03-15 22:06:21:613,0,2.19796,-5.61769,-19.9824,Q,Q
2023-03-15 22:06:21:623,0,2.2197,-5.58538,-19.9806,Q,Q
2023-03-15 22:06:21:633,0,2.23624,-5.56157,-19.9789,Q,Q
2023-03-15 22:06:21:643,0,2.24327,-5.54084,-19.9721,Q,Q
2023-03-15 22:06:21:653,0,2.24236,-5.52779,-19.9607,Q,Q
2023-03-15 22:06:21:663,0,2.23646,-5.51799,-19.9548,Q,Q
2023-03-15 22:06:21:673,0,2.23024,-5.51166,-19.9516,Q,Q
2023-03-15 22:06:21:683,0,2.22956,-5.50054,-19.9502,Q,Q
2023-03-15 22:06:21:693,0,2.22909,-5.48789,-19.9487,Q,Q
2023-03-15 22:06:21:703,0,2.22745,-5.47017,-19.9505,Q,Q
2023-03-15 22:06:21:713,0,2.22381,-5.45107,-19.9552,Q,Q
2023-03-15 22:06:21:723,0,2.22146,-5.43929,-19.9631,Q,Q
2023-03-15 22:06:21:733,0,2.21066,-5.42963,-19.9694,Q,Q
2023-03-15 22:06:21:743,0,2.19356,-5.42065,-19.9787,Q,Q
2023-03-15 22:06:21:753,0,2.17367,-5.41285,-19.9922,Q,Q
2023-03-15 22:06:21:763,0,2.16395,-5.40814,-20.0095,Q,Q
2023-03-15 22:06:21:773,0,2.1608,-5.40181,-20.0296,Q,Q
2023-03-15 22:06:21:783,0,2.16554,-5.39077,-20.0505,Q,Q
2023-03-15 22:06:21:793,0,2.17296,-5.37884,-20.0707,Q,Q
2023-03-15 22:06:21:803,0,2.18969,-5.37143,-20.0908,Q,Q
2023-03-15 22:06:21:813,0,2.20901,-5.3627,-20.1043,Q,Q
2023-03-15 22:06:21:823,0,2.23126,-5.35574,-20.1148,Q,Q
2023-03-15 22:06:21:833,0,2.24913,-5.35257,-20.1207,Q,Q
2023-03-15 22:06:21:843,0,2.26319,-5.34438,-20.1229,Q,Q
2023-03-15 22:06:21:853,0,2.27789,-5.34052,-20.1221,Q,Q
2023-03-15 22:06:21:863,0,2.29352,-5.33408,-20.1196,Q,Q
2023-03-15 22:06:21:873,0,2.30492,-5.32456,-20.1109,Q,Q
2023-03-15 22:06:21:883,0,2.3181,-5.31939,-20.0991,Q,Q
2023-03-15 22:06:21:893,0,2.33723,-5.31514,-20.0827,Q,Q
2023-03-15 22:06:21:903,0,2.35721,-5.31027,-20.0654,Q,Q
2023-03-15 22:06:21:913,0,2.38079,-5.30452,-20.0473,Q,Q
2023-03-15 22:06:21:923,0,2.39606,-5.3004,-20.0255,Q,Q
2023-03-15 22:06:21:933,0,2.41401,-5.29232,-20.012,Q,Q
2023-03-15 22:06:21:943,0,2.42619,-5.27611,-19.9996,Q,Q
2023-03-15 22:06:21:953,0,2.43658,-5.26085,-19.9909,Q,Q
2023-03-15 22:06:21:963,0,2.44174,-5.24658,-19.9843,Q,Q
2023-03-15 22:06:21:973,0,2.44895,-5.23334,-19.9827,Q,Q
2023-03-15 22:06:21:983,0,2.45628,-5.221,-19.9889,Q,Q
2023-03-15 22:06:21:993,0,2.47298,-5.21115,-20.0058,Q,Q
2023-03-15 22:06:22:3,0,2.49898,-5.2017,-20.0233,Q,Q
2023-03-15 22:06:22:12,0,2.53489,-5.1906,-20.042,Q,Q
2023-03-15 22:06:22:23,0,2.5805,-5.18372,-20.0627,Q,Q
2023-03-15 22:06:22:33,0,2.62737,-5.17581,-20.0777,Q,Q
2023-03-15 22:06:22:43,0,2.67125,-5.17158,-20.0915,Q,Q
2023-03-15 22:06:22:53,0,2.7157,-5.16884,-20.1005,Q,Q
2023-03-15 22:06:22:63,0,2.7563,-5.1713,-20.101,Q,Q
2023-03-15 22:06:22:73,0,2.79578,-5.17607,-20.0964,Q,Q
2023-03-15 22:06:22:83,0,2.83206,-5.18283,-20.0868,Q,Q
2023-03-15 22:06:22:93,0,2.86573,-5.19232,-20.0713,Q,Q
2023-03-15 22:06:22:103,0,2.89731,-5.20929,-20.0511,Q,Q
2023-03-15 22:06:22:113,0,2.93142,-5.22957,-20.0305,Q,Q
2023-03-15 22:06:22:123,0,2.96773,-5.25346,-20.0018,Q,Q
2023-03-15 22:06:22:133,0,3.00462,-5.27573,-19.9722,Q,Q
2023-03-15 22:06:22:143,0,3.04329,-5.29709,-19.9438,Q,Q
2023-03-15 22:06:22:153,0,3.08386,-5.31228,-19.9188,Q,Q
2023-03-15 22:06:22:163,0,3.12737,-5.32691,-19.8984,Q,Q
2023-03-15 22:06:22:173,0,3.17078,-5.33058,-19.888,Q,Q
2023-03-15 22:06:22:183,0,3.2209,-5.32905,-19.8826,Q,Q
2023-03-15 22:06:22:193,0,3.27283,-5.32957,-19.8888,Q,Q
2023-03-15 22:06:22:203,0,3.32852,-5.32898,-19.8958,Q,Q
2023-03-15 22:06:22:213,0,3.38935,-5.32833,-19.9073,Q,Q
2023-03-15 22:06:22:223,0,3.44981,-5.32874,-19.921,Q,Q
2023-03-15 22:06:22:233,0,3.51427,-5.33187,-19.9396,Q,Q
2023-03-15 22:06:22:243,0,3.57428,-5.33368,-19.9628,Q,Q
2023-03-15 22:06:22:253,0,3.63488,-5.33509,-19.9864,Q,Q
2023-03-15 22:06:22:263,0,3.68693,-5.33456,-20.0084,Q,Q
2023-03-15 22:06:22:273,0,3.73193,-5.33054,-20.0311,Q,Q
2023-03-15 22:06:22:283,0,3.77114,-5.32246,-20.0499,Q,Q
