Timestamp_cmd,imu_cmd,roll_delta,pitch_delta,yaw_delta,voice_type,voice_length
2023-03-15 12:09:05:17,0,-6.16559,0.710724,4.51626,Q,Q
2023-03-15 12:09:05:25,0,-6.1645,0.703582,4.53071,Q,Q
2023-03-15 12:09:05:35,0,-6.16268,0.695518,4.54762,Q,Q
2023-03-15 12:09:05:45,0,-6.16727,0.686364,4.56336,Q,Q
2023-03-15 12:09:05:55,0,-6.16672,0.679681,4.57961,Q,Q
2023-03-15 12:09:05:65,0,-6.16942,0.670092,4.59814,Q,Q
2023-03-15 12:09:05:75,0,-6.17053,0.661068,4.61481,Q,Q
2023-03-15 12:09:05:85,0,-6.17072,0.656195,4.63253,Q,Q
2023-03-15 12:09:05:95,0,-6.17785,0.649908,4.6493,Q,Q
2023-03-15 12:09:05:105,0,-6.17857,0.646827,4.66388,Q,Q
2023-03-15 12:09:05:115,0,-6.17844,0.644595,4.6802,Q,Q
2023-03-15 12:09:05:125,0,-6.18149,0.64116,4.69633,Q,Q
2023-03-15 12:09:05:135,0,-6.18642,0.635585,4.70883,Q,Q
2023-03-15 12:09:05:145,0,-6.18448,0.635182,4.71869,Q,Q
2023-03-15 12:09:05:155,0,-6.17703,0.638837,4.72933,Q,Q
2023-03-15 12:09:05:165,0,-6.1718,0.643585,4.74375,Q,Q
2023-03-15 12:09:05:175,0,-6.1738,0.645153,4.75736,Q,Q
2023-03-15 12:09:05:185,0,-6.18537,0.646858,4.77263,Q,Q
2023-03-15 12:09:05:195,0,-6.203,0.647549,4.7844,Q,Q
2023-03-15 12:09:05:205,0,-6.21635,0.648393,4.79667,Q,Q
2023-03-15 12:09:05:215,0,-6.22496,0.651024,4.80495,Q,Q
2023-03-15 12:09:05:225,0,-6.225,0.650849,4.81484,Q,Q
2023-03-15 12:09:05:235,0,-6.22163,0.65439,4.82724,Q,Q
2023-03-15 12:09:05:245,0,-6.21622,0.652172,4.84502,Q,Q
2023-03-15 12:09:05:255,0,-6.21464,0.652507,4.86568,Q,Q
2023-03-15 12:09:05:265,0,-6.21556,0.652667,4.88471,Q,Q
2023-03-15 12:09:05:275,0,-6.21804,0.657462,4.90057,Q,Q
2023-03-15 12:09:05:285,0,-6.22199,0.659953,4.91766,Q,Q
2023-03-15 12:09:05:295,0,-6.21847,0.663584,4.93198,Q,Q
2023-03-15 12:09:05:305,0,-6.219,0.665097,4.94523,Q,Q
2023-03-15 12:09:05:315,0,-6.21902,0.66761,4.95679,Q,Q
2023-03-15 12:09:05:325,0,-6.21746,0.670383,4.96935,Q,Q
2023-03-15 12:09:05:335,0,-6.21629,0.67527,4.98262,Q,Q
2023-03-15 12:09:05:345,0,-6.20684,0.673075,4.99212,Q,Q
2023-03-15 12:09:05:355,0,-6.19986,0.669074,5.00225,Q,Q
2023-03-15 12:09:05:365,0,-6.19098,0.663706,5.01256,Q,Q
2023-03-15 12:09:05:375,0,-6.18203,0.662446,5.02212,Q,Q
2023-03-15 12:09:05:385,0,-6.16994,0.65896,5.029,Q,Q
2023-03-15 12:09:05:395,0,-6.16264,0.655396,5.03902,Q,Q
2023-03-15 12:09:05:405,0,-6.15701,0.654072,5.05024,Q,Q
2023-03-15 12:09:05:415,0,-6.14373,0.649143,5.05964,Q,Q
2023-03-15 12:09:05:425,0,-6.13367,0.647809,5.07347,Q,Q
2023-03-15 12:09:05:435,0,-6.13036,0.638568,5.08692,Q,Q
2023-03-15 12:09:05:445,0,-6.1343,0.632433,5.10429,Q,Q
2023-03-15 12:09:05:455,0,-6.14174,0.625933,5.11787,Q,Q
2023-03-15 12:09:05:465,0,-6.15611,0.614906,5.12664,Q,Q
2023-03-15 12:09:05:475,0,-6.17176,0.605423,5.12957,Q,Q
2023-03-15 12:09:05:485,0,-6.18266,0.59462,5.13128,Q,Q
2023-03-15 12:09:05:495,0,-6.19303,0.582953,5.12733,Q,Q
2023-03-15 12:09:05:505,0,-6.19909,0.570816,5.12212,Q,Q
2023-03-15 12:09:05:515,0,-6.20774,0.55594,5.11439,Q,Q
2023-03-15 12:09:05:525,0,-6.2151,0.541715,5.10512,Q,Q
2023-03-15 12:09:05:535,0,-6.22038,0.529399,5.09288,Q,Q
2023-03-15 12:09:05:545,0,-6.22036,0.51549,5.08577,Q,Q
2023-03-15 12:09:05:555,0,-6.21625,0.501084,5.07251,Q,Q
2023-03-15 12:09:05:565,0,-6.21073,0.484334,5.06108,Q,Q
2023-03-15 12:09:05:575,0,-6.20693,0.475157,5.05347,Q,Q
2023-03-15 12:09:05:585,0,-6.2082,0.466554,5.04491,Q,Q
2023-03-15 12:09:05:595,0,-6.21043,0.456576,5.03907,Q,Q
2023-03-15 12:09:05:605,0,-6.21321,0.449995,5.03821,Q,Q
2023-03-15 12:09:05:615,0,-6.21851,0.440252,5.04038,Q,Q
2023-03-15 12:09:05:625,0,-6.22218,0.430637,5.04454,Q,Q
2023-03-15 12:09:05:635,0,-6.22142,0.426748,5.0498,Q,Q
2023-03-15 12:09:05:645,0,-6.22602,0.424354,5.06114,Q,Q
2023-03-15 12:09:05:655,0,-6.22685,0.422378,5.07163,Q,Q
2023-03-15 12:09:05:665,0,-6.22524,0.426385,5.08326,Q,Q
2023-03-15 12:09:05:675,0,-6.21953,0.433658,5.0942,Q,Q
2023-03-15 12:09:05:685,0,-6.21561,0.443219,5.10525,Q,Q
2023-03-15 12:09:05:695,0,-6.21143,0.448233,5.11942,Q,Q
2023-03-15 12:09:05:705,0,-6.20764,0.455052,5.13586,Q,Q
2023-03-15 12:09:05:715,0,-6.2043,0.461908,5.14935,Q,Q
2023-03-15 12:09:05:725,0,-6.19835,0.46696,5.16232,Q,Q
2023-03-15 12:09:05:735,0,-6.1936,0.469196,5.17396,Q,Q
2023-03-15 12:09:05:745,0,-6.18918,0.473404,5.18361,Q,Q
2023-03-15 12:09:05:755,0,-6.18282,0.473921,5.19386,Q,Q
2023-03-15 12:09:05:765,0,-6.176,0.473165,5.20708,Q,Q
2023-03-15 12:09:05:775,0,-6.17019,0.474911,5.22228,Q,Q
2023-03-15 12:09:05:785,0,-6.17169,0.471579,5.23388,Q,Q
2023-03-15 12:09:05:795,0,-6.17334,0.473111,5.2463,Q,Q
2023-03-15 12:09:05:805,0,-6.17923,0.470851,5.25384,Q,Q
2023-03-15 12:09:05:815,0,-6.18296,0.471234,5.25773,Q,Q
2023-03-15 12:09:05:825,0,-6.18765,0.472614,5.26222,Q,Q
2023-03-15 12:09:05:835,0,-6.19478,0.475762,5.27139,Q,Q
2023-03-15 12:09:05:845,0,-6.20194,0.47502,5.28498,Q,Q
2023-03-15 12:09:05:855,0,-6.2048,0.472296,5.30246,Q,Q
2023-03-15 12:09:05:865,0,-6.20288,0.469844,5.31829,Q,Q
2023-03-15 12:09:05:875,0,-6.20484,0.473116,5.33763,Q,Q
2023-03-15 12:09:05:885,0,-6.20753,0.477403,5.35931,Q,Q
2023-03-15 12:09:05:895,0,-6.21305,0.482625,5.38577,Q,Q
2023-03-15 12:09:05:905,0,-6.21922,0.486359,5.41817,Q,Q
2023-03-15 12:09:05:915,0,-6.21926,0.486804,5.44836,Q,Q
2023-03-15 12:09:05:925,0,-6.21529,0.483327,5.48179,Q,Q
2023-03-15 12:09:05:935,0,-6.21461,0.478653,5.51754,Q,Q
2023-03-15 12:09:05:945,0,-6.22084,0.474317,5.55245,Q,Q
2023-03-15 12:09:05:955,0,-6.22804,0.471542,5.58007,Q,Q
2023-03-15 12:09:05:965,0,-6.22537,0.463743,5.6027,Q,Q
2023-03-15 12:09:05:975,0,-6.22218,0.455355,5.62612,Q,Q
2023-03-15 12:09:05:985,0,-6.2175,0.449261,5.64501,Q,Q
2023-03-15 12:09:05:995,0,-6.21364,0.44526,5.66116,Q,Q
2023-03-15 12:09:06:5,0,-6.20771,0.447355,5.67561,Q,Q
2023-03-15 12:09:06:15,0,-6.20208,0.450731,5.68939,Q,Q
2023-03-15 12:09:06:25,0,-6.19715,0.455949,5.703,Q,Q
2023-03-15 12:09:06:35,0,-6.19077,0.456345,5.72034,Q,Q
2023-03-15 12:09:06:45,0,-6.18527,0.459636,5.73745,Q,Q
2023-03-15 12:09:06:55,0,-6.18,0.463956,5.75611,Q,Q
2023-03-15 12:09:06:65,0,-6.17242,0.469206,5.77564,Q,Q
2023-03-15 12:09:06:75,0,-6.16372,0.477184,5.79844,Q,Q
2023-03-15 12:09:06:85,0,-6.15567,0.486029,5.82239,Q,Q
2023-03-15 12:09:06:95,0,-6.15169,0.491831,5.84977,Q,Q
2023-03-15 12:09:06:105,0,-6.14266,0.496213,5.87401,Q,Q
2023-03-15 12:09:06:115,0,-6.13381,0.496226,5.89726,Q,Q
2023-03-15 12:09:06:125,0,-6.12429,0.502706,5.92016,Q,Q
2023-03-15 12:09:06:135,0,-6.11054,0.507662,5.94433,Q,Q
2023-03-15 12:09:06:145,0,-6.10142,0.512184,5.97112,Q,Q
2023-03-15 12:09:06:155,0,-6.09306,0.518169,5.99602,Q,Q
2023-03-15 12:09:06:165,0,-6.08898,0.524854,6.01993,Q,Q
2023-03-15 12:09:06:175,0,-6.08841,0.531674,6.04217,Q,Q
2023-03-15 12:09:06:185,0,-6.08342,0.540917,6.06416,Q,Q
2023-03-15 12:09:06:195,0,-6.07882,0.542634,6.08996,Q,Q
2023-03-15 12:09:06:205,0,-6.07724,0.538202,6.11765,Q,Q
2023-03-15 12:09:06:215,0,-6.07368,0.535186,6.14693,Q,Q
2023-03-15 12:09:06:225,0,-6.08018,0.52949,6.17477,Q,Q
2023-03-15 12:09:06:235,0,-6.08824,0.528518,6.20248,Q,Q
2023-03-15 12:09:06:245,0,-6.10173,0.530342,6.2304,Q,Q
2023-03-15 12:09:06:255,0,-6.11429,0.523317,6.25738,Q,Q
2023-03-15 12:09:06:265,0,-6.11408,0.517191,6.28508,Q,Q
2023-03-15 12:09:06:275,0,-6.10666,0.51076,6.31899,Q,Q
2023-03-15 12:09:06:285,0,-6.10536,0.503643,6.35385,Q,Q
2023-03-15 12:09:06:295,0,-6.11434,0.498956,6.38439,Q,Q
2023-03-15 12:09:06:305,0,-6.12484,0.488704,6.41329,Q,Q
2023-03-15 12:09:06:315,0,-6.13303,0.479114,6.44245,Q,Q
2023-03-15 12:09:06:325,0,-6.13022,0.467815,6.47047,Q,Q
2023-03-15 12:09:06:335,0,-6.12307,0.460105,6.49827,Q,Q
2023-03-15 12:09:06:345,0,-6.11913,0.454002,6.52816,Q,Q
2023-03-15 12:09:06:355,0,-6.11779,0.448093,6.55809,Q,Q
2023-03-15 12:09:06:365,0,-6.12143,0.439305,6.59114,Q,Q
2023-03-15 12:09:06:375,0,-6.12317,0.42903,6.62251,Q,Q
2023-03-15 12:09:06:385,0,-6.12464,0.428003,6.65473,Q,Q
2023-03-15 12:09:06:395,0,-6.12348,0.427936,6.69162,Q,Q
2023-03-15 12:09:06:405,0,-6.12539,0.430515,6.72904,Q,Q
2023-03-15 12:09:06:415,0,-6.12693,0.430081,6.76627,Q,Q
2023-03-15 12:09:06:425,0,-6.13244,0.43265,6.8071,Q,Q
2023-03-15 12:09:06:435,0,-6.14013,0.434379,6.85249,Q,Q
2023-03-15 12:09:06:445,0,-6.14911,0.435876,6.89917,Q,Q
2023-03-15 12:09:06:455,0,-6.16546,0.441819,6.94502,Q,Q
2023-03-15 12:09:06:465,0,-6.17618,0.444419,6.99755,Q,Q
2023-03-15 12:09:06:475,0,-6.19262,0.439344,7.04872,Q,Q
2023-03-15 12:09:06:485,0,-6.19848,0.426265,7.10406,Q,Q
2023-03-15 12:09:06:495,0,-6.19695,0.411285,7.16036,Q,Q
2023-03-15 12:09:06:505,0,-6.19083,0.392582,7.22285,Q,Q
2023-03-15 12:09:06:515,0,-6.18553,0.367231,7.28682,Q,Q
2023-03-15 12:09:06:525,0,-6.17617,0.343647,7.35189,Q,Q
2023-03-15 12:09:06:535,0,-6.16217,0.319663,7.42271,Q,Q
2023-03-15 12:09:06:545,0,-6.14919,0.294745,7.49279,Q,Q
2023-03-15 12:09:06:555,0,-6.13647,0.265659,7.56126,Q,Q
2023-03-15 12:09:06:565,0,-6.12723,0.238264,7.63232,Q,Q
2023-03-15 12:09:06:575,0,-6.1209,0.21079,7.69924,Q,Q
2023-03-15 12:09:06:585,0,-6.11676,0.18783,7.76579,Q,Q
2023-03-15 12:09:06:595,0,-6.11691,0.164055,7.82484,Q,Q
2023-03-15 12:09:06:605,0,-6.12597,0.138463,7.87988,Q,Q
2023-03-15 12:09:06:615,0,-6.13487,0.11265,7.9248,Q,Q
2023-03-15 12:09:06:625,0,-6.14612,0.0909035,7.96924,Q,Q
2023-03-15 12:09:06:635,0,-6.14968,0.0719781,8.00382,Q,Q
2023-03-15 12:09:06:645,0,-6.14564,0.0544387,8.03451,Q,Q
2023-03-15 12:09:06:655,0,-6.13114,0.0412223,8.06536,Q,Q
2023-03-15 12:09:06:665,0,-6.11151,0.0272511,8.09662,Q,Q
2023-03-15 12:09:06:675,0,-6.08709,0.0143817,8.1257,Q,Q
2023-03-15 12:09:06:685,0,-6.06133,0.00411816,8.15555,Q,Q
2023-03-15 12:09:06:695,0,-6.03976,-0.00797859,8.18244,Q,Q
2023-03-15 12:09:06:705,0,-6.02192,-0.0161239,8.20616,Q,Q
2023-03-15 12:09:06:715,0,-6.0031,-0.0214815,8.22609,Q,Q
2023-03-15 12:09:06:725,0,-5.98982,-0.0258136,8.2399,Q,Q
2023-03-15 12:09:06:735,0,-5.98023,-0.0280434,8.25412,Q,Q
2023-03-15 12:09:06:745,0,-5.96754,-0.0295136,8.26066,Q,Q
2023-03-15 12:09:06:755,0,-5.95424,-0.0308116,8.26531,Q,Q
2023-03-15 12:09:06:765,0,-5.9369,-0.0304198,8.27227,Q,Q
2023-03-15 12:09:06:775,0,-5.92783,-0.0235658,8.27806,Q,Q
2023-03-15 12:09:06:785,0,-5.92262,-0.0157627,8.2833,Q,Q
2023-03-15 12:09:06:796,0,-5.92129,-0.00945305,8.286,Q,Q
2023-03-15 12:09:06:805,0,-5.92609,0.000872229,8.28609,Q,Q
2023-03-15 12:09:06:815,0,-5.93409,0.00703191,8.28364,Q,Q
2023-03-15 12:09:06:825,0,-5.95081,0.011449,8.27382,Q,Q
2023-03-15 12:09:06:835,0,-5.96842,0.0176285,8.263,Q,Q
2023-03-15 12:09:06:845,0,-5.98572,0.0186138,8.24181,Q,Q
2023-03-15 12:09:06:855,0,-6.00226,0.0225371,8.21662,Q,Q
2023-03-15 12:09:06:865,0,-6.01997,0.0187292,8.18182,Q,Q
2023-03-15 12:09:06:875,0,-6.03458,0.0125851,8.13423,Q,Q
2023-03-15 12:09:06:885,0,-6.03736,-0.00107889,8.07593,Q,Q
2023-03-15 12:09:06:895,0,-6.03341,-0.0166703,8.00768,Q,Q
2023-03-15 12:09:06:905,0,-6.02526,-0.0388689,7.9307,Q,Q
2023-03-15 12:09:06:915,0,-6.01874,-0.0624252,7.84745,Q,Q
2023-03-15 12:09:06:925,0,-6.01577,-0.0910652,7.75893,Q,Q
2023-03-15 12:09:06:935,0,-6.02141,-0.118405,7.66074,Q,Q
2023-03-15 12:09:06:945,0,-6.03177,-0.150649,7.55995,Q,Q
2023-03-15 12:09:06:955,0,-6.0449,-0.18609,7.45506,Q,Q
2023-03-15 12:09:06:965,0,-6.06276,-0.220827,7.35271,Q,Q
2023-03-15 12:09:06:975,0,-6.07661,-0.256534,7.24867,Q,Q
2023-03-15 12:09:06:985,0,-6.09053,-0.290229,7.1539,Q,Q
2023-03-15 12:09:06:995,0,-6.10164,-0.322896,7.064,Q,Q
2023-03-15 12:09:07:5,0,-6.11002,-0.3526,6.98065,Q,Q
2023-03-15 12:09:07:15,0,-6.11966,-0.377995,6.90573,Q,Q
2023-03-15 12:09:07:25,0,-6.12847,-0.403698,6.83645,Q,Q
2023-03-15 12:09:07:35,0,-6.13774,-0.427242,6.77956,Q,Q
2023-03-15 12:09:07:45,0,-6.15001,-0.446279,6.72581,Q,Q
2023-03-15 12:09:07:55,0,-6.15613,-0.464469,6.68211,Q,Q
2023-03-15 12:09:07:65,0,-6.16529,-0.481833,6.6424,Q,Q
2023-03-15 12:09:07:75,0,-6.17438,-0.4956,6.60683,Q,Q
2023-03-15 12:09:07:85,0,-6.18155,-0.515301,6.57945,Q,Q
2023-03-15 12:09:07:95,0,-6.18882,-0.523553,6.55474,Q,Q
2023-03-15 12:09:07:105,0,-6.18061,-0.530007,6.53572,Q,Q
2023-03-15 12:09:07:115,0,-6.1547,-0.539305,6.52717,Q,Q
2023-03-15 12:09:07:125,0,-6.11767,-0.55226,6.52298,Q,Q
2023-03-15 12:09:07:135,0,-6.09082,-0.56597,6.52382,Q,Q
2023-03-15 12:09:07:145,0,-6.0835,-0.570844,6.52831,Q,Q
2023-03-15 12:09:07:155,0,-6.09939,-0.584336,6.53226,Q,Q
2023-03-15 12:09:07:165,0,-6.1185,-0.60141,6.52721,Q,Q
2023-03-15 12:09:07:175,0,-6.12449,-0.623507,6.51747,Q,Q
2023-03-15 12:09:07:185,0,-6.11681,-0.644258,6.51034,Q,Q
2023-03-15 12:09:07:195,0,-6.09567,-0.661167,6.50352,Q,Q
2023-03-15 12:09:07:205,0,-6.07655,-0.678877,6.4976,Q,Q
2023-03-15 12:09:07:215,0,-6.06473,-0.695344,6.48393,Q,Q
2023-03-15 12:09:07:225,0,-6.05985,-0.708967,6.46941,Q,Q
2023-03-15 12:09:07:235,0,-6.05121,-0.723883,6.45058,Q,Q
2023-03-15 12:09:07:245,0,-6.04045,-0.736195,6.43545,Q,Q
2023-03-15 12:09:07:255,0,-6.02967,-0.747138,6.41688,Q,Q
2023-03-15 12:09:07:265,0,-6.01505,-0.760204,6.39662,Q,Q
2023-03-15 12:09:07:275,0,-5.99737,-0.777607,6.38048,Q,Q
2023-03-15 12:09:07:285,0,-5.98133,-0.789044,6.36724,Q,Q
2023-03-15 12:09:07:295,0,-5.97107,-0.808538,6.35201,Q,Q
2023-03-15 12:09:07:305,0,-5.9667,-0.830662,6.33233,Q,Q
2023-03-15 12:09:07:315,0,-5.95696,-0.851858,6.31697,Q,Q
2023-03-15 12:09:07:325,0,-5.93792,-0.873947,6.29968,Q,Q
2023-03-15 12:09:07:335,0,-5.91368,-0.898046,6.28735,Q,Q
2023-03-15 12:09:07:345,0,-5.88988,-0.924099,6.26981,Q,Q
2023-03-15 12:09:07:355,0,-5.86487,-0.952205,6.24912,Q,Q
2023-03-15 12:09:07:365,0,-5.84065,-0.982003,6.22427,Q,Q
2023-03-15 12:09:07:375,0,-5.81315,-1.0102,6.19398,Q,Q
2023-03-15 12:09:07:385,0,-5.78783,-1.03669,6.16127,Q,Q
2023-03-15 12:09:07:395,0,-5.76517,-1.07116,6.12714,Q,Q
2023-03-15 12:09:07:405,0,-5.73859,-1.1094,6.08766,Q,Q
2023-03-15 12:09:07:415,0,-5.71102,-1.15068,6.04342,Q,Q
2023-03-15 12:09:07:425,0,-5.68215,-1.19842,5.99266,Q,Q
2023-03-15 12:09:07:435,0,-5.65076,-1.2569,5.94142,Q,Q
2023-03-15 12:09:07:445,0,-5.61257,-1.32292,5.88954,Q,Q
2023-03-15 12:09:07:455,0,-5.57366,-1.39681,5.83494,Q,Q
2023-03-15 12:09:07:465,0,-5.53704,-1.48015,5.77716,Q,Q
2023-03-15 12:09:07:475,0,-5.48442,-1.56937,5.71124,Q,Q
2023-03-15 12:09:07:485,0,-5.41252,-1.6626,5.6481,Q,Q
2023-03-15 12:09:07:495,0,-5.33487,-1.76038,5.58538,Q,Q
2023-03-15 12:09:07:505,0,-5.26111,-1.86191,5.52906,Q,Q
2023-03-15 12:09:07:515,0,-5.2018,-1.96865,5.4721,Q,Q
2023-03-15 12:09:07:525,0,-5.15252,-2.08404,5.41606,Q,Q
2023-03-15 12:09:07:535,0,-5.10532,-2.2061,5.35256,Q,Q
2023-03-15 12:09:07:545,0,-5.04737,-2.33009,5.28925,Q,Q
2023-03-15 12:09:07:555,0,-4.97544,-2.45334,5.22651,Q,Q
2023-03-15 12:09:07:565,0,-4.89738,-2.57668,5.16741,Q,Q
2023-03-15 12:09:07:575,0,-4.8116,-2.69949,5.1087,Q,Q
2023-03-15 12:09:07:585,0,-4.73014,-2.8187,5.05224,Q,Q
2023-03-15 12:09:07:595,0,-4.64707,-2.9395,4.99729,Q,Q
2023-03-15 12:09:07:605,0,-4.55964,-3.05864,4.94442,Q,Q
2023-03-15 12:09:07:615,0,-4.4701,-3.17577,4.89781,Q,Q
2023-03-15 12:09:07:625,0,-4.37835,-3.29088,4.8536,Q,Q
2023-03-15 12:09:07:635,0,-4.29402,-3.40642,4.8143,Q,Q
2023-03-15 12:09:07:645,0,-4.20279,-3.51868,4.77222,Q,Q
2023-03-15 12:09:07:655,0,-4.10324,-3.63066,4.72814,Q,Q
2023-03-15 12:09:07:665,0,-3.99691,-3.73806,4.68721,Q,Q
2023-03-15 12:09:07:675,0,-3.89027,-3.84399,4.65588,Q,Q
2023-03-15 12:09:07:685,0,-3.78215,-3.94224,4.62609,Q,Q
2023-03-15 12:09:07:695,0,-3.67058,-4.04316,4.60198,Q,Q
2023-03-15 12:09:07:705,0,-3.55015,-4.14093,4.58006,Q,Q
2023-03-15 12:09:07:715,0,-3.42659,-4.23872,4.56372,Q,Q
2023-03-15 12:09:07:725,0,-3.30229,-4.3358,4.54948,Q,Q
2023-03-15 12:09:07:735,0,-3.17945,-4.42909,4.54036,Q,Q
2023-03-15 12:09:07:745,0,-3.05299,-4.5268,4.53244,Q,Q
2023-03-15 12:09:07:755,0,-2.92987,-4.62349,4.5247,Q,Q
2023-03-15 12:09:07:765,0,-2.80895,-4.72277,4.51954,Q,Q
2023-03-15 12:09:07:775,0,-2.68425,-4.82198,4.51644,Q,Q
2023-03-15 12:09:07:785,0,-2.56143,-4.91646,4.51795,Q,Q
2023-03-15 12:09:07:795,0,-2.43381,-5.01366,4.51911,Q,Q
2023-03-15 12:09:07:805,0,-2.30243,-5.11049,4.52415,Q,Q
2023-03-15 12:09:07:815,0,-2.173,-5.20978,4.52996,Q,Q
2023-03-15 12:09:07:825,0,-2.04096,-5.3099,4.5325,Q,Q
2023-03-15 12:09:07:835,0,-1.90415,-5.41333,4.53829,Q,Q
2023-03-15 12:09:07:845,0,-1.76426,-5.51574,4.54916,Q,Q
2023-03-15 12:09:07:855,0,-1.61966,-5.62278,4.56101,Q,Q
2023-03-15 12:09:07:865,0,-1.46203,-5.72693,4.57497,Q,Q
2023-03-15 12:09:07:875,0,-1.29768,-5.83552,4.59335,Q,Q
2023-03-15 12:09:07:885,0,-1.12864,-5.94299,4.61144,Q,Q
2023-03-15 12:09:07:895,0,-0.955991,-6.0504,4.63329,Q,Q
2023-03-15 12:09:07:905,0,-0.786045,-6.15587,4.65664,Q,Q
2023-03-15 12:09:07:915,0,-0.622664,-6.25951,4.67853,Q,Q
2023-03-15 12:09:07:925,0,-0.46548,-6.3619,4.69956,Q,Q
2023-03-15 12:09:07:935,0,-0.314303,-6.45916,4.72536,Q,Q
2023-03-15 12:09:07:945,0,-0.165186,-6.55218,4.75175,Q,Q
2023-03-15 12:09:07:955,0,-0.0182316,-6.64802,4.77575,Q,Q
2023-03-15 12:09:07:965,0,0.123238,-6.74239,4.80127,Q,Q
2023-03-15 12:09:07:975,0,0.267453,-6.83008,4.82294,Q,Q
2023-03-15 12:09:07:985,0,0.409469,-6.91566,4.84898,Q,Q
2023-03-15 12:09:07:995,0,0.540393,-7.00028,4.87218,Q,Q
2023-03-15 12:09:08:5,0,0.659894,-7.07834,4.89518,Q,Q
2023-03-15 12:09:08:15,0,0.765785,-7.15384,4.91549,Q,Q
2023-03-15 12:09:08:25,0,0.851578,-7.22615,4.93927,Q,Q
2023-03-15 12:09:08:35,0,0.926797,-7.29504,4.96291,Q,Q
2023-03-15 12:09:08:45,0,0.995377,-7.36373,4.98323,Q,Q
2023-03-15 12:09:08:55,0,1.06455,-7.43147,4.99829,Q,Q
2023-03-15 12:09:08:65,0,1.13168,-7.48971,5.01685,Q,Q
2023-03-15 12:09:08:75,0,1.19904,-7.54654,5.03244,Q,Q
2023-03-15 12:09:08:85,0,1.26531,-7.59637,5.04877,Q,Q
2023-03-15 12:09:08:95,0,1.32473,-7.63304,5.06097,Q,Q
2023-03-15 12:09:08:105,0,1.37616,-7.6651,5.07439,Q,Q
2023-03-15 12:09:08:115,0,1.42821,-7.69512,5.09206,Q,Q
2023-03-15 12:09:08:125,0,1.47585,-7.72115,5.11568,Q,Q
2023-03-15 12:09:08:135,0,1.52447,-7.75097,5.14433,Q,Q
2023-03-15 12:09:08:145,0,1.57127,-7.78646,5.17931,Q,Q
2023-03-15 12:09:08:155,0,1.61778,-7.82188,5.22188,Q,Q
2023-03-15 12:09:08:165,0,1.67865,-7.85468,5.26883,Q,Q
2023-03-15 12:09:08:175,0,1.75443,-7.88288,5.32011,Q,Q
2023-03-15 12:09:08:185,0,1.83653,-7.91021,5.38405,Q,Q
2023-03-15 12:09:08:195,0,1.90641,-7.92944,5.45975,Q,Q
2023-03-15 12:09:08:205,0,1.96063,-7.94886,5.54177,Q,Q
2023-03-15 12:09:08:215,0,2.00264,-7.96821,5.62957,Q,Q
2023-03-15 12:09:08:225,0,2.04207,-7.99114,5.72242,Q,Q
2023-03-15 12:09:08:235,0,2.08024,-8.00965,5.81739,Q,Q
2023-03-15 12:09:08:245,0,2.11425,-8.02955,5.91904,Q,Q
2023-03-15 12:09:08:255,0,2.14397,-8.04961,6.01863,Q,Q
2023-03-15 12:09:08:265,0,2.16665,-8.07059,6.11955,Q,Q
2023-03-15 12:09:08:275,0,2.18429,-8.08948,6.22016,Q,Q
2023-03-15 12:09:08:285,0,2.19432,-8.10644,6.31457,Q,Q
2023-03-15 12:09:08:295,0,2.195,-8.12259,6.40686,Q,Q
2023-03-15 12:09:08:305,0,2.18694,-8.13642,6.49384,Q,Q
2023-03-15 12:09:08:315,0,2.177,-8.14346,6.57494,Q,Q
2023-03-15 12:09:08:325,0,2.16402,-8.14837,6.64407,Q,Q
2023-03-15 12:09:08:335,0,2.15273,-8.14362,6.70345,Q,Q
2023-03-15 12:09:08:345,0,2.15564,-8.13516,6.75837,Q,Q
2023-03-15 12:09:08:355,0,2.16083,-8.12067,6.80675,Q,Q
2023-03-15 12:09:08:365,0,2.16058,-8.09718,6.84945,Q,Q
2023-03-15 12:09:08:375,0,2.14623,-8.06617,6.88333,Q,Q
2023-03-15 12:09:08:385,0,2.11383,-8.0293,6.91302,Q,Q
2023-03-15 12:09:08:395,0,2.07987,-7.98676,6.93487,Q,Q
2023-03-15 12:09:08:405,0,2.04828,-7.93977,6.95151,Q,Q
2023-03-15 12:09:08:415,0,2.02033,-7.89293,6.96605,Q,Q
2023-03-15 12:09:08:425,0,1.99915,-7.84704,6.98417,Q,Q
2023-03-15 12:09:08:435,0,1.98899,-7.7959,7.00798,Q,Q
2023-03-15 12:09:08:445,0,1.98469,-7.7412,7.02914,Q,Q
2023-03-15 12:09:08:455,0,1.98635,-7.68163,7.05415,Q,Q
2023-03-15 12:09:08:465,0,1.9931,-7.61177,7.08238,Q,Q
2023-03-15 12:09:08:475,0,2.01216,-7.5326,7.11416,Q,Q
2023-03-15 12:09:08:485,0,2.0422,-7.44989,7.15157,Q,Q
2023-03-15 12:09:08:495,0,2.0757,-7.35244,7.19606,Q,Q
2023-03-15 12:09:08:505,0,2.10779,-7.25129,7.24546,Q,Q
2023-03-15 12:09:08:515,0,2.13976,-7.1389,7.29824,Q,Q
2023-03-15 12:09:08:525,0,2.16441,-7.02995,7.35605,Q,Q
2023-03-15 12:09:08:535,0,2.18069,-6.91717,7.41887,Q,Q
2023-03-15 12:09:08:545,0,2.19016,-6.80313,7.48498,Q,Q
2023-03-15 12:09:08:555,0,2.18559,-6.68739,7.54881,Q,Q
2023-03-15 12:09:08:565,0,2.17086,-6.57063,7.61296,Q,Q
2023-03-15 12:09:08:575,0,2.16689,-6.45753,7.6721,Q,Q
2023-03-15 12:09:08:585,0,2.1842,-6.33798,7.72956,Q,Q
2023-03-15 12:09:08:595,0,2.21125,-6.21527,7.78898,Q,Q
2023-03-15 12:09:08:605,0,2.22635,-6.09251,7.85251,Q,Q
2023-03-15 12:09:08:615,0,2.21034,-5.97033,7.91154,Q,Q
2023-03-15 12:09:08:625,0,2.16877,-5.85192,7.96177,Q,Q
2023-03-15 12:09:08:635,0,2.12275,-5.73635,8.0008,Q,Q
2023-03-15 12:09:08:645,0,2.08444,-5.6236,8.02574,Q,Q
2023-03-15 12:09:08:655,0,2.05516,-5.50529,8.0436,Q,Q
2023-03-15 12:09:08:665,0,2.03287,-5.38661,8.05554,Q,Q
2023-03-15 12:09:08:675,0,2.00194,-5.2671,8.06225,Q,Q
2023-03-15 12:09:08:685,0,1.95813,-5.15125,8.06024,Q,Q
2023-03-15 12:09:08:695,0,1.9034,-5.03748,8.04917,Q,Q
2023-03-15 12:09:08:705,0,1.84539,-4.9278,8.03333,Q,Q
2023-03-15 12:09:08:715,0,1.78886,-4.82016,8.01716,Q,Q
2023-03-15 12:09:08:725,0,1.73732,-4.70923,8.00075,Q,Q
2023-03-15 12:09:08:735,0,1.68714,-4.59818,7.98814,Q,Q
2023-03-15 12:09:08:745,0,1.64176,-4.48619,7.97717,Q,Q
2023-03-15 12:09:08:755,0,1.58985,-4.37884,7.96569,Q,Q
2023-03-15 12:09:08:765,0,1.52798,-4.26815,7.95498,Q,Q
2023-03-15 12:09:08:775,0,1.45364,-4.15929,7.94978,Q,Q
2023-03-15 12:09:08:785,0,1.36685,-4.05159,7.94857,Q,Q
2023-03-15 12:09:08:795,0,1.26843,-3.9453,7.95499,Q,Q
2023-03-15 12:09:08:805,0,1.15575,-3.84346,7.97333,Q,Q
2023-03-15 12:09:08:815,0,1.03075,-3.73914,8.00486,Q,Q
2023-03-15 12:09:08:825,0,0.890919,-3.63888,8.04367,Q,Q
2023-03-15 12:09:08:835,0,0.741249,-3.5407,8.09032,Q,Q
2023-03-15 12:09:08:845,0,0.578963,-3.43902,8.14351,Q,Q
2023-03-15 12:09:08:855,0,0.40635,-3.32741,8.20276,Q,Q
2023-03-15 12:09:08:865,0,0.239718,-3.20649,8.27069,Q,Q
2023-03-15 12:09:08:875,0,0.0797952,-3.07447,8.34567,Q,Q
2023-03-15 12:09:08:885,0,-0.0744389,-2.9289,8.4429,Q,Q
2023-03-15 12:09:08:895,0,-0.231193,-2.7724,8.55805,Q,Q
2023-03-15 12:09:08:905,0,-0.408147,-2.61492,8.69785,Q,Q
2023-03-15 12:09:08:915,0,-0.619267,-2.46245,8.86311,Q,Q
2023-03-15 12:09:08:925,0,-0.869245,-2.30977,9.04853,Q,Q
2023-03-15 12:09:08:935,0,-1.17793,-2.15556,9.25329,Q,Q
2023-03-15 12:09:08:945,0,-1.53726,-2.0036,9.47302,Q,Q
2023-03-15 12:09:08:955,0,-1.9496,-1.85755,9.6923,Q,Q
2023-03-15 12:09:08:965,0,-2.39595,-1.72432,9.90825,Q,Q
2023-03-15 12:09:08:975,0,-2.8609,-1.60238,10.1144,Q,Q
2023-03-15 12:09:08:985,0,-3.31567,-1.49332,10.3022,Q,Q
2023-03-15 12:09:08:995,0,-3.73395,-1.40072,10.4759,Q,Q
2023-03-15 12:09:09:5,0,-4.10393,-1.3138,10.6357,Q,Q
2023-03-15 12:09:09:15,0,-4.41353,-1.23035,10.7801,Q,Q
2023-03-15 12:09:09:25,0,-4.66822,-1.1468,10.9174,Q,Q
2023-03-15 12:09:09:35,0,-4.8745,-1.06024,11.0429,Q,Q
2023-03-15 12:09:09:45,0,-5.05048,-0.964656,11.1561,Q,Q
2023-03-15 12:09:09:55,0,-5.21415,-0.869754,11.2555,Q,Q
2023-03-15 12:09:09:65,0,-5.37518,-0.777222,11.3454,Q,Q
2023-03-15 12:09:09:75,0,-5.53663,-0.695746,11.4229,Q,Q
2023-03-15 12:09:09:85,0,-5.69822,-0.625394,11.4903,Q,Q
2023-03-15 12:09:09:95,0,-5.84748,-0.567428,11.5497,Q,Q
2023-03-15 12:09:09:105,0,-5.98894,-0.522365,11.6038,Q,Q
2023-03-15 12:09:09:115,0,-6.12393,-0.481172,11.6554,Q,Q
2023-03-15 12:09:09:125,0,-6.25506,-0.450181,11.7036,Q,Q
2023-03-15 12:09:09:135,0,-6.38328,-0.421461,11.7461,Q,Q
2023-03-15 12:09:09:145,0,-6.5072,-0.39157,11.7864,Q,Q
2023-03-15 12:09:09:155,0,-6.62982,-0.365685,11.8228,Q,Q
2023-03-15 12:09:09:165,0,-6.74938,-0.335192,11.8593,Q,Q
2023-03-15 12:09:09:175,0,-6.86936,-0.30201,11.8935,Q,Q
2023-03-15 12:09:09:185,0,-6.98673,-0.268937,11.9261,Q,Q
2023-03-15 12:09:09:195,0,-7.10109,-0.237141,11.9561,Q,Q
2023-03-15 12:09:09:205,0,-7.21392,-0.209883,11.9879,Q,Q
2023-03-15 12:09:09:215,0,-7.32071,-0.186276,12.0183,Q,Q
2023-03-15 12:09:09:225,0,-7.42618,-0.169289,12.0482,Q,Q
2023-03-15 12:09:09:235,0,-7.52736,-0.16366,12.0778,Q,Q
2023-03-15 12:09:09:245,0,-7.61378,-0.160063,12.1091,Q,Q
2023-03-15 12:09:09:255,0,-7.69228,-0.160094,12.1414,Q,Q
2023-03-15 12:09:09:265,0,-7.75919,-0.161451,12.1698,Q,Q
2023-03-15 12:09:09:275,0,-7.82412,-0.160312,12.2007,Q,Q
2023-03-15 12:09:09:285,0,-7.88231,-0.159505,12.223,Q,Q
2023-03-15 12:09:09:295,0,-7.93684,-0.161595,12.2409,Q,Q
2023-03-15 12:09:09:305,0,-7.98703,-0.162716,12.2532,Q,Q
2023-03-15 12:09:09:315,0,-8.03439,-0.168321,12.2625,Q,Q
2023-03-15 12:09:09:325,0,-8.08247,-0.176034,12.2669,Q,Q
2023-03-15 12:09:09:335,0,-8.13297,-0.189778,12.2647,Q,Q
2023-03-15 12:09:09:345,0,-8.17895,-0.208816,12.2559,Q,Q
2023-03-15 12:09:09:355,0,-8.21983,-0.231397,12.2438,Q,Q
2023-03-15 12:09:09:365,0,-8.25361,-0.256658,12.2273,Q,Q
2023-03-15 12:09:09:375,0,-8.29451,-0.282257,12.2065,Q,Q
2023-03-15 12:09:09:385,0,-8.33427,-0.307651,12.1775,Q,Q
2023-03-15 12:09:09:395,0,-8.36684,-0.336165,12.1462,Q,Q
2023-03-15 12:09:09:405,0,-8.39318,-0.36412,12.1195,Q,Q
2023-03-15 12:09:09:415,0,-8.41473,-0.387882,12.0882,Q,Q
2023-03-15 12:09:09:425,0,-8.43552,-0.411275,12.0585,Q,Q
2023-03-15 12:09:09:435,0,-8.45759,-0.432904,12.0392,Q,Q
2023-03-15 12:09:09:445,0,-8.48325,-0.455601,12.0258,Q,Q
2023-03-15 12:09:09:455,0,-8.50883,-0.4808,12.0163,Q,Q
2023-03-15 12:09:09:465,0,-8.52906,-0.50743,12.0086,Q,Q
2023-03-15 12:09:09:475,0,-8.54354,-0.541787,12.0004,Q,Q
2023-03-15 12:09:09:485,0,-8.54896,-0.578204,11.9939,Q,Q
2023-03-15 12:09:09:495,0,-8.55002,-0.617254,11.9868,Q,Q
2023-03-15 12:09:09:505,0,-8.53871,-0.659494,11.9859,Q,Q
2023-03-15 12:09:09:515,0,-8.5238,-0.707192,11.9868,Q,Q
2023-03-15 12:09:09:525,0,-8.50635,-0.758691,11.994,Q,Q
2023-03-15 12:09:09:535,0,-8.49724,-0.811898,11.9975,Q,Q
2023-03-15 12:09:09:545,0,-8.4807,-0.868878,11.9931,Q,Q
2023-03-15 12:09:09:555,0,-8.42717,-0.916555,11.9721,Q,Q
2023-03-15 12:09:09:565,0,-8.32702,-0.949293,11.9398,Q,Q
2023-03-15 12:09:09:575,0,-8.1701,-0.964431,11.9042,Q,Q
2023-03-15 12:09:09:585,0,-7.97366,-0.960395,11.8724,Q,Q
2023-03-15 12:09:09:595,0,-7.754,-0.945842,11.8508,Q,Q
2023-03-15 12:09:09:605,0,-7.53748,-0.920904,11.8359,Q,Q
2023-03-15 12:09:09:615,0,-7.33848,-0.893963,11.8319,Q,Q
2023-03-15 12:09:09:625,0,-7.16701,-0.871576,11.8318,Q,Q
2023-03-15 12:09:09:635,0,-7.03085,-0.856888,11.8362,Q,Q
2023-03-15 12:09:09:645,0,-6.93037,-0.851529,11.8388,Q,Q
2023-03-15 12:09:09:655,0,-6.86519,-0.856324,11.8377,Q,Q
2023-03-15 12:09:09:665,0,-6.82244,-0.869665,11.8263,Q,Q
2023-03-15 12:09:09:675,0,-6.78978,-0.890398,11.8047,Q,Q
2023-03-15 12:09:09:685,0,-6.75082,-0.910789,11.7803,Q,Q
2023-03-15 12:09:09:695,0,-6.69097,-0.926983,11.7523,Q,Q
2023-03-15 12:09:09:705,0,-6.61949,-0.93361,11.7249,Q,Q
2023-03-15 12:09:09:715,0,-6.53753,-0.938458,11.7009,Q,Q
2023-03-15 12:09:09:725,0,-6.46426,-0.937932,11.6753,Q,Q
2023-03-15 12:09:09:735,0,-6.40385,-0.93463,11.6448,Q,Q
2023-03-15 12:09:09:745,0,-6.34688,-0.937267,11.613,Q,Q
2023-03-15 12:09:09:755,0,-6.28793,-0.945527,11.5807,Q,Q
2023-03-15 12:09:09:765,0,-6.21504,-0.954034,11.5432,Q,Q
2023-03-15 12:09:09:775,0,-6.12249,-0.969163,11.5009,Q,Q
2023-03-15 12:09:09:785,0,-6.01165,-0.983777,11.4549,Q,Q
2023-03-15 12:09:09:795,0,-5.88755,-0.990653,11.4052,Q,Q
2023-03-15 12:09:09:805,0,-5.7577,-0.991419,11.3532,Q,Q
2023-03-15 12:09:09:815,0,-5.62193,-0.990713,11.2977,Q,Q
2023-03-15 12:09:09:825,0,-5.47688,-0.987367,11.2366,Q,Q
2023-03-15 12:09:09:835,0,-5.3198,-0.982248,11.1725,Q,Q
2023-03-15 12:09:09:845,0,-5.14872,-0.975338,11.1082,Q,Q
2023-03-15 12:09:09:855,0,-4.96398,-0.970833,11.0451,Q,Q
2023-03-15 12:09:09:865,0,-4.76974,-0.960783,10.9808,Q,Q
2023-03-15 12:09:09:875,0,-4.57004,-0.951084,10.9183,Q,Q
2023-03-15 12:09:09:885,0,-4.37345,-0.937504,10.8596,Q,Q
2023-03-15 12:09:09:895,0,-4.19134,-0.924968,10.8059,Q,Q
2023-03-15 12:09:09:905,0,-4.02526,-0.909828,10.7543,Q,Q
2023-03-15 12:09:09:915,0,-3.88405,-0.894234,10.7036,Q,Q
2023-03-15 12:09:09:925,0,-3.76084,-0.879186,10.6553,Q,Q
2023-03-15 12:09:09:935,0,-3.65374,-0.868744,10.6042,Q,Q
2023-03-15 12:09:09:945,0,-3.56225,-0.856257,10.5582,Q,Q
2023-03-15 12:09:09:955,0,-3.48059,-0.847686,10.5129,Q,Q
2023-03-15 12:09:09:965,0,-3.41015,-0.836011,10.4692,Q,Q
2023-03-15 12:09:09:975,0,-3.35651,-0.824913,10.4304,Q,Q
2023-03-15 12:09:09:985,0,-3.31962,-0.806525,10.3912,Q,Q
2023-03-15 12:09:09:995,0,-3.29639,-0.783764,10.3552,Q,Q
2023-03-15 12:09:10:5,0,-3.28249,-0.754981,10.3165,Q,Q
2023-03-15 12:09:10:15,0,-3.27028,-0.720248,10.279,Q,Q
2023-03-15 12:09:10:25,0,-3.26129,-0.687959,10.2512,Q,Q
2023-03-15 12:09:10:35,0,-3.2556,-0.657808,10.2231,Q,Q
2023-03-15 12:09:10:45,0,-3.25336,-0.628694,10.2031,Q,Q
2023-03-15 12:09:10:55,0,-3.26023,-0.598828,10.1896,Q,Q
2023-03-15 12:09:10:65,0,-3.27881,-0.571435,10.1791,Q,Q
2023-03-15 12:09:10:75,0,-3.30283,-0.545867,10.1713,Q,Q
2023-03-15 12:09:10:85,0,-3.33101,-0.523252,10.1637,Q,Q
2023-03-15 12:09:10:95,0,-3.36433,-0.496153,10.1564,Q,Q
2023-03-15 12:09:10:105,0,-3.39962,-0.464041,10.1506,Q,Q
2023-03-15 12:09:10:115,0,-3.44032,-0.429354,10.1465,Q,Q
2023-03-15 12:09:10:125,0,-3.4769,-0.390318,10.1457,Q,Q
2023-03-15 12:09:10:135,0,-3.52144,-0.353435,10.1454,Q,Q
2023-03-15 12:09:10:145,0,-3.57203,-0.313301,10.1491,Q,Q
2023-03-15 12:09:10:155,0,-3.62806,-0.279516,10.1524,Q,Q
2023-03-15 12:09:10:165,0,-3.68516,-0.246048,10.1531,Q,Q
2023-03-15 12:09:10:175,0,-3.73852,-0.214569,10.1545,Q,Q
2023-03-15 12:09:10:185,0,-3.7935,-0.190864,10.1557,Q,Q
2023-03-15 12:09:10:195,0,-3.84154,-0.1684,10.1579,Q,Q
2023-03-15 12:09:10:205,0,-3.88279,-0.155186,10.1626,Q,Q
2023-03-15 12:09:10:215,0,-3.92639,-0.143332,10.1676,Q,Q
2023-03-15 12:09:10:225,0,-3.96177,-0.136833,10.1695,Q,Q
2023-03-15 12:09:10:235,0,-3.99371,-0.131876,10.1736,Q,Q
2023-03-15 12:09:10:245,0,-4.02105,-0.126414,10.1777,Q,Q
2023-03-15 12:09:10:255,0,-4.04514,-0.1215,10.1815,Q,Q
2023-03-15 12:09:10:265,0,-4.05985,-0.114293,10.1851,Q,Q
2023-03-15 12:09:10:275,0,-4.07162,-0.106542,10.1838,Q,Q
2023-03-15 12:09:10:285,0,-4.07677,-0.106702,10.1803,Q,Q
2023-03-15 12:09:10:295,0,-4.07621,-0.104039,10.1772,Q,Q
2023-03-15 12:09:10:305,0,-4.07899,-0.101298,10.1717,Q,Q
2023-03-15 12:09:10:315,0,-4.08558,-0.0971117,10.1654,Q,Q
2023-03-15 12:09:10:325,0,-4.08397,-0.0976622,10.1507,Q,Q
2023-03-15 12:09:10:335,0,-4.07672,-0.103855,10.1336,Q,Q
2023-03-15 12:09:10:345,0,-4.0727,-0.109772,10.1166,Q,Q
2023-03-15 12:09:10:355,0,-4.06543,-0.112469,10.1002,Q,Q
2023-03-15 12:09:10:365,0,-4.06314,-0.115813,10.0782,Q,Q
2023-03-15 12:09:10:375,0,-4.0648,-0.117475,10.0496,Q,Q
2023-03-15 12:09:10:385,0,-4.07252,-0.116867,10.0136,Q,Q
2023-03-15 12:09:10:395,0,-4.08944,-0.119653,9.96981,Q,Q
2023-03-15 12:09:10:405,0,-4.10118,-0.124198,9.92071,Q,Q
2023-03-15 12:09:10:415,0,-4.11086,-0.133504,9.86575,Q,Q
2023-03-15 12:09:10:425,0,-4.11628,-0.139115,9.8103,Q,Q
2023-03-15 12:09:10:435,0,-4.11223,-0.146994,9.75288,Q,Q
2023-03-15 12:09:10:445,0,-4.10443,-0.155721,9.69421,Q,Q
2023-03-15 12:09:10:455,0,-4.09968,-0.166078,9.63909,Q,Q
2023-03-15 12:09:10:465,0,-4.09698,-0.177855,9.58439,Q,Q
2023-03-15 12:09:10:475,0,-4.09843,-0.189963,9.52314,Q,Q
2023-03-15 12:09:10:485,0,-4.10457,-0.202969,9.46484,Q,Q
2023-03-15 12:09:10:495,0,-4.11425,-0.220561,9.40493,Q,Q
2023-03-15 12:09:10:505,0,-4.126,-0.238761,9.34564,Q,Q
2023-03-15 12:09:10:515,0,-4.13696,-0.260024,9.28634,Q,Q
2023-03-15 12:09:10:525,0,-4.15351,-0.276214,9.2282,Q,Q
2023-03-15 12:09:10:535,0,-4.16496,-0.293423,9.16705,Q,Q
2023-03-15 12:09:10:545,0,-4.15781,-0.316415,9.10506,Q,Q
2023-03-15 12:09:10:555,0,-4.13184,-0.336769,9.0444,Q,Q
2023-03-15 12:09:10:565,0,-4.10322,-0.353505,8.99166,Q,Q
2023-03-15 12:09:10:575,0,-4.09727,-0.366033,8.94068,Q,Q
2023-03-15 12:09:10:585,0,-4.12394,-0.380248,8.89279,Q,Q
2023-03-15 12:09:10:595,0,-4.15827,-0.397523,8.84582,Q,Q
2023-03-15 12:09:10:605,0,-4.19164,-0.422303,8.79362,Q,Q
2023-03-15 12:09:10:615,0,-4.2117,-0.448047,8.74541,Q,Q
2023-03-15 12:09:10:625,0,-4.21788,-0.472274,8.69969,Q,Q
2023-03-15 12:09:10:635,0,-4.22521,-0.489672,8.65482,Q,Q
2023-03-15 12:09:10:645,0,-4.2354,-0.503326,8.61654,Q,Q
2023-03-15 12:09:10:655,0,-4.25485,-0.517508,8.57989,Q,Q
2023-03-15 12:09:10:665,0,-4.27431,-0.530978,8.54436,Q,Q
2023-03-15 12:09:10:675,0,-4.28751,-0.548714,8.51494,Q,Q
2023-03-15 12:09:10:685,0,-4.29332,-0.566461,8.48949,Q,Q
2023-03-15 12:09:10:695,0,-4.29189,-0.586724,8.46513,Q,Q
2023-03-15 12:09:10:705,0,-4.28776,-0.605781,8.44528,Q,Q
2023-03-15 12:09:10:715,0,-4.28573,-0.622593,8.43063,Q,Q
2023-03-15 12:09:10:725,0,-4.29203,-0.644287,8.41545,Q,Q
2023-03-15 12:09:10:735,0,-4.30616,-0.670201,8.40154,Q,Q
2023-03-15 12:09:10:745,0,-4.32561,-0.693689,8.38288,Q,Q
2023-03-15 12:09:10:755,0,-4.34243,-0.722294,8.3627,Q,Q
2023-03-15 12:09:10:765,0,-4.35939,-0.747178,8.34138,Q,Q
2023-03-15 12:09:10:775,0,-4.3722,-0.770827,8.31638,Q,Q
2023-03-15 12:09:10:785,0,-4.38194,-0.796813,8.28878,Q,Q
2023-03-15 12:09:10:795,0,-4.39156,-0.819598,8.26381,Q,Q
2023-03-15 12:09:10:805,0,-4.3947,-0.842631,8.2351,Q,Q
2023-03-15 12:09:10:815,0,-4.38761,-0.870281,8.20743,Q,Q
2023-03-15 12:09:10:825,0,-4.37248,-0.893304,8.18305,Q,Q
2023-03-15 12:09:10:835,0,-4.35741,-0.915539,8.15821,Q,Q
2023-03-15 12:09:10:845,0,-4.34383,-0.941915,8.13516,Q,Q
2023-03-15 12:09:10:855,0,-4.33401,-0.971045,8.11152,Q,Q
2023-03-15 12:09:10:865,0,-4.31831,-1.00177,8.0886,Q,Q
2023-03-15 12:09:10:875,0,-4.29691,-1.0312,8.06664,Q,Q
2023-03-15 12:09:10:885,0,-4.27581,-1.06249,8.04597,Q,Q
2023-03-15 12:09:10:895,0,-4.25695,-1.09012,8.0255,Q,Q
2023-03-15 12:09:10:905,0,-4.24236,-1.11946,8.00728,Q,Q
2023-03-15 12:09:10:915,0,-4.22973,-1.14725,7.99066,Q,Q
2023-03-15 12:09:10:925,0,-4.22234,-1.17538,7.97699,Q,Q
2023-03-15 12:09:10:935,0,-4.21209,-1.20127,7.96193,Q,Q
2023-03-15 12:09:10:945,0,-4.19775,-1.22479,7.9476,Q,Q
2023-03-15 12:09:10:955,0,-4.17847,-1.24939,7.93565,Q,Q
2023-03-15 12:09:10:965,0,-4.15959,-1.27027,7.92271,Q,Q
2023-03-15 12:09:10:975,0,-4.14285,-1.29768,7.91593,Q,Q
2023-03-15 12:09:10:985,0,-4.13289,-1.32582,7.90676,Q,Q
2023-03-15 12:09:10:995,0,-4.12491,-1.35523,7.89908,Q,Q
2023-03-15 12:09:11:5,0,-4.12608,-1.37996,7.89078,Q,Q
2023-03-15 12:09:11:15,0,-4.11385,-1.40031,7.87648,Q,Q
2023-03-15 12:09:11:25,0,-4.07666,-1.42219,7.86217,Q,Q
2023-03-15 12:09:11:35,0,-4.0321,-1.4426,7.85599,Q,Q
2023-03-15 12:09:11:45,0,-4.00059,-1.45749,7.85571,Q,Q
2023-03-15 12:09:11:55,0,-3.99434,-1.47257,7.85619,Q,Q
2023-03-15 12:09:11:65,0,-4.01191,-1.48939,7.85654,Q,Q
2023-03-15 12:09:11:75,0,-4.03579,-1.51104,7.85218,Q,Q
2023-03-15 12:09:11:85,0,-4.04682,-1.53374,7.83966,Q,Q
2023-03-15 12:09:11:95,0,-4.04839,-1.55009,7.82764,Q,Q
2023-03-15 12:09:11:105,0,-4.04748,-1.56197,7.81804,Q,Q
2023-03-15 12:09:11:115,0,-4.0462,-1.57295,7.80693,Q,Q
2023-03-15 12:09:11:125,0,-4.05876,-1.58632,7.78998,Q,Q
2023-03-15 12:09:11:135,0,-4.0764,-1.59902,7.77323,Q,Q
2023-03-15 12:09:11:145,0,-4.09073,-1.60897,7.75494,Q,Q
2023-03-15 12:09:11:155,0,-4.10361,-1.61768,7.73388,Q,Q
2023-03-15 12:09:11:165,0,-4.10421,-1.62427,7.71014,Q,Q
2023-03-15 12:09:11:175,0,-4.0933,-1.63502,7.68984,Q,Q
2023-03-15 12:09:11:185,0,-4.0826,-1.64544,7.67466,Q,Q
2023-03-15 12:09:11:195,0,-4.07947,-1.65488,7.66172,Q,Q
2023-03-15 12:09:11:205,0,-4.08814,-1.66281,7.65093,Q,Q
2023-03-15 12:09:11:215,0,-4.09493,-1.68034,7.63341,Q,Q
2023-03-15 12:09:11:225,0,-4.09765,-1.69767,7.61264,Q,Q
2023-03-15 12:09:11:235,0,-4.09527,-1.71286,7.59327,Q,Q
2023-03-15 12:09:11:245,0,-4.09011,-1.7246,7.57494,Q,Q
2023-03-15 12:09:11:255,0,-4.08317,-1.73884,7.55548,Q,Q
2023-03-15 12:09:11:265,0,-4.07677,-1.74856,7.53673,Q,Q
2023-03-15 12:09:11:275,0,-4.06935,-1.76244,7.51798,Q,Q
2023-03-15 12:09:11:285,0,-4.06089,-1.776,7.49805,Q,Q
2023-03-15 12:09:11:295,0,-4.05236,-1.79053,7.47784,Q,Q
2023-03-15 12:09:11:305,0,-4.03767,-1.80543,7.45786,Q,Q
2023-03-15 12:09:11:315,0,-4.02308,-1.81723,7.43728,Q,Q
2023-03-15 12:09:11:325,0,-4.00231,-1.83544,7.41911,Q,Q
2023-03-15 12:09:11:335,0,-3.98699,-1.84999,7.40195,Q,Q
2023-03-15 12:09:11:345,0,-3.97342,-1.86346,7.38861,Q,Q
2023-03-15 12:09:11:355,0,-3.95895,-1.8781,7.36975,Q,Q
2023-03-15 12:09:11:365,0,-3.94442,-1.89605,7.35207,Q,Q
2023-03-15 12:09:11:375,0,-3.93578,-1.91639,7.33281,Q,Q
2023-03-15 12:09:11:385,0,-3.92737,-1.93577,7.31261,Q,Q
2023-03-15 12:09:11:395,0,-3.92083,-1.9561,7.29528,Q,Q
2023-03-15 12:09:11:405,0,-3.92413,-1.97321,7.27636,Q,Q
2023-03-15 12:09:11:415,0,-3.91453,-1.9874,7.25498,Q,Q
2023-03-15 12:09:11:425,0,-3.87944,-1.99833,7.23379,Q,Q
2023-03-15 12:09:11:435,0,-3.82138,-2.00742,7.21541,Q,Q
2023-03-15 12:09:11:445,0,-3.76763,-2.01603,7.204,Q,Q
2023-03-15 12:09:11:455,0,-3.74366,-2.02564,7.20007,Q,Q
2023-03-15 12:09:11:465,0,-3.74949,-2.04066,7.19433,Q,Q
2023-03-15 12:09:11:475,0,-3.77546,-2.06162,7.18212,Q,Q
2023-03-15 12:09:11:485,0,-3.79404,-2.09037,7.16462,Q,Q
2023-03-15 12:09:11:495,0,-3.79798,-2.11657,7.14699,Q,Q
2023-03-15 12:09:11:505,0,-3.78175,-2.1423,7.12562,Q,Q
2023-03-15 12:09:11:515,0,-3.75947,-2.16961,7.10968,Q,Q
2023-03-15 12:09:11:525,0,-3.74028,-2.19633,7.09113,Q,Q
2023-03-15 12:09:11:535,0,-3.72775,-2.22673,7.07704,Q,Q
2023-03-15 12:09:11:545,0,-3.72168,-2.25622,7.0552,Q,Q
2023-03-15 12:09:11:555,0,-3.71898,-2.28113,7.03233,Q,Q
2023-03-15 12:09:11:565,0,-3.71524,-2.30176,7.00199,Q,Q
2023-03-15 12:09:11:575,0,-3.70672,-2.32388,6.96753,Q,Q
2023-03-15 12:09:11:585,0,-3.69587,-2.34692,6.92871,Q,Q
2023-03-15 12:09:11:595,0,-3.68525,-2.36463,6.89192,Q,Q
2023-03-15 12:09:11:605,0,-3.66877,-2.38859,6.85227,Q,Q
2023-03-15 12:09:11:615,0,-3.65133,-2.41505,6.81261,Q,Q
2023-03-15 12:09:11:625,0,-3.62749,-2.44112,6.7756,Q,Q
2023-03-15 12:09:11:635,0,-3.60123,-2.4728,6.73272,Q,Q
2023-03-15 12:09:11:645,0,-3.57684,-2.5035,6.68893,Q,Q
2023-03-15 12:09:11:655,0,-3.55342,-2.52558,6.63865,Q,Q
2023-03-15 12:09:11:665,0,-3.5309,-2.5489,6.58463,Q,Q
2023-03-15 12:09:11:675,0,-3.50614,-2.56871,6.52689,Q,Q
2023-03-15 12:09:11:685,0,-3.47903,-2.58792,6.46719,Q,Q
2023-03-15 12:09:11:695,0,-3.45562,-2.61011,6.4052,Q,Q
2023-03-15 12:09:11:705,0,-3.43011,-2.63535,6.33795,Q,Q
2023-03-15 12:09:11:715,0,-3.40132,-2.66103,6.26827,Q,Q
2023-03-15 12:09:11:725,0,-3.37427,-2.68289,6.19306,Q,Q
2023-03-15 12:09:11:735,0,-3.34026,-2.69974,6.11352,Q,Q
2023-03-15 12:09:11:745,0,-3.30749,-2.71591,6.02883,Q,Q
2023-03-15 12:09:11:755,0,-3.2697,-2.73212,5.94689,Q,Q
2023-03-15 12:09:11:765,0,-3.23456,-2.74827,5.8647,Q,Q
2023-03-15 12:09:11:775,0,-3.19931,-2.766,5.77974,Q,Q
2023-03-15 12:09:11:785,0,-3.16276,-2.78215,5.6926,Q,Q
2023-03-15 12:09:11:795,0,-3.12631,-2.79775,5.6021,Q,Q
2023-03-15 12:09:11:805,0,-3.08772,-2.82044,5.50795,Q,Q
2023-03-15 12:09:11:815,0,-3.052,-2.8414,5.40742,Q,Q
2023-03-15 12:09:11:825,0,-3.02284,-2.86522,5.30005,Q,Q
2023-03-15 12:09:11:835,0,-3.00349,-2.88683,5.17814,Q,Q
2023-03-15 12:09:11:845,0,-2.98754,-2.91103,5.04619,Q,Q
2023-03-15 12:09:11:855,0,-2.97101,-2.9349,4.90452,Q,Q
2023-03-15 12:09:11:865,0,-2.95108,-2.96204,4.752,Q,Q
2023-03-15 12:09:11:875,0,-2.92677,-2.9941,4.59183,Q,Q
2023-03-15 12:09:11:885,0,-2.89973,-3.03615,4.42407,Q,Q
2023-03-15 12:09:11:895,0,-2.8737,-3.08214,4.24071,Q,Q
2023-03-15 12:09:11:905,0,-2.84974,-3.12917,4.03831,Q,Q
2023-03-15 12:09:11:915,0,-2.83176,-3.17754,3.81427,Q,Q
2023-03-15 12:09:11:925,0,-2.81912,-3.22182,3.5658,Q,Q
2023-03-15 12:09:11:935,0,-2.80428,-3.27718,3.28317,Q,Q
2023-03-15 12:09:11:945,0,-2.78968,-3.33447,2.9613,Q,Q
2023-03-15 12:09:11:955,0,-2.76707,-3.3932,2.58822,Q,Q
2023-03-15 12:09:11:965,0,-2.74024,-3.45535,2.16255,Q,Q
2023-03-15 12:09:11:975,0,-2.70236,-3.52815,1.67631,Q,Q
2023-03-15 12:09:11:985,0,-2.66368,-3.61718,1.13003,Q,Q
2023-03-15 12:09:11:995,0,-2.62716,-3.71998,0.524445,Q,Q
2023-03-15 12:09:12:5,0,-2.58982,-3.84779,-0.140065,Q,Q
2023-03-15 12:09:12:15,0,-2.5573,-3.99759,-0.862348,Q,Q
2023-03-15 12:09:12:25,0,-2.52135,-4.17401,-1.63116,Q,Q
2023-03-15 12:09:12:35,0,-2.47192,-4.37445,-2.43399,Q,Q
2023-03-15 12:09:12:45,0,-2.39471,-4.58363,-3.25844,Q,Q
2023-03-15 12:09:12:55,0,-2.27546,-4.79637,-4.09589,Q,Q
2023-03-15 12:09:12:65,0,-2.11817,-5.00367,-4.92856,Q,Q
2023-03-15 12:09:12:75,0,-1.92735,-5.19441,-5.74745,Q,Q
2023-03-15 12:09:12:85,0,-1.71111,-5.36683,-6.54925,Q,Q
2023-03-15 12:09:12:95,0,-1.48049,-5.51514,-7.33,Q,Q
2023-03-15 12:09:12:105,0,-1.25018,-5.63797,-8.0875,Q,Q
2023-03-15 12:09:12:115,0,-1.02954,-5.73933,-8.81884,Q,Q
2023-03-15 12:09:12:125,0,-0.826184,-5.81539,-9.52635,Q,Q
2023-03-15 12:09:12:136,0,-0.636495,-5.87432,-10.1986,Q,Q
2023-03-15 12:09:12:145,0,-0.464875,-5.92564,-10.8319,Q,Q
2023-03-15 12:09:12:156,0,-0.30575,-5.973,-11.4224,Q,Q
2023-03-15 12:09:12:165,0,-0.166379,-6.01335,-11.9711,Q,Q
2023-03-15 12:09:12:175,0,-0.0417731,-6.0492,-12.4791,Q,Q
2023-03-15 12:09:12:185,0,0.0674414,-6.07618,-12.951,Q,Q
2023-03-15 12:09:12:195,0,0.168157,-6.09435,-13.3821,Q,Q
2023-03-15 12:09:12:205,0,0.252564,-6.09819,-13.7704,Q,Q
2023-03-15 12:09:12:215,0,0.332068,-6.0898,-14.1346,Q,Q
2023-03-15 12:09:12:225,0,0.412365,-6.07601,-14.46,Q,Q
2023-03-15 12:09:12:235,0,0.491402,-6.05719,-14.7501,Q,Q
2023-03-15 12:09:12:245,0,0.563789,-6.0343,-15.0003,Q,Q
2023-03-15 12:09:12:255,0,0.624253,-6.00797,-15.2162,Q,Q
2023-03-15 12:09:12:265,0,0.67481,-5.98489,-15.4023,Q,Q
2023-03-15 12:09:12:275,0,0.715931,-5.95793,-15.5622,Q,Q
2023-03-15 12:09:12:285,0,0.75216,-5.94106,-15.7006,Q,Q
2023-03-15 12:09:12:295,0,0.784819,-5.9228,-15.8206,Q,Q
2023-03-15 12:09:12:305,0,0.814367,-5.90224,-15.9277,Q,Q
2023-03-15 12:09:12:315,0,0.838925,-5.88863,-16.0149,Q,Q
2023-03-15 12:09:12:325,0,0.861805,-5.87273,-16.0861,Q,Q
2023-03-15 12:09:12:335,0,0.882871,-5.85763,-16.1411,Q,Q
2023-03-15 12:09:12:345,0,0.906277,-5.84272,-16.1834,Q,Q
2023-03-15 12:09:12:355,0,0.927033,-5.82839,-16.2075,Q,Q
2023-03-15 12:09:12:365,0,0.949508,-5.81105,-16.2143,Q,Q
2023-03-15 12:09:12:375,0,0.972227,-5.79239,-16.203,Q,Q
2023-03-15 12:09:12:385,0,0.988717,-5.76558,-16.176,Q,Q
2023-03-15 12:09:12:396,0,0.993019,-5.73453,-16.1304,Q,Q
2023-03-15 12:09:12:405,0,0.992835,-5.69983,-16.0701,Q,Q
2023-03-15 12:09:12:415,0,0.989677,-5.66397,-15.991,Q,Q
2023-03-15 12:09:12:425,0,0.988769,-5.63285,-15.9059,Q,Q
2023-03-15 12:09:12:435,0,0.998467,-5.60361,-15.806,Q,Q
2023-03-15 12:09:12:446,0,1.01026,-5.57612,-15.6975,Q,Q
2023-03-15 12:09:12:455,0,1.03295,-5.54642,-15.581,Q,Q
2023-03-15 12:09:12:465,0,1.05414,-5.51946,-15.4527,Q,Q
2023-03-15 12:09:12:476,0,1.07428,-5.50104,-15.3189,Q,Q
2023-03-15 12:09:12:485,0,1.09154,-5.48428,-15.1869,Q,Q
2023-03-15 12:09:12:495,0,1.1028,-5.46699,-15.0564,Q,Q
2023-03-15 12:09:12:506,0,1.1162,-5.44491,-14.9337,Q,Q
2023-03-15 12:09:12:516,0,1.12508,-5.4231,-14.824,Q,Q
2023-03-15 12:09:12:525,0,1.13181,-5.39621,-14.7315,Q,Q
2023-03-15 12:09:12:535,0,1.13105,-5.3658,-14.6501,Q,Q
2023-03-15 12:09:12:545,0,1.12086,-5.33133,-14.5871,Q,Q
2023-03-15 12:09:12:555,0,1.10687,-5.30117,-14.5358,Q,Q
2023-03-15 12:09:12:565,0,1.09152,-5.27197,-14.492,Q,Q
2023-03-15 12:09:12:575,0,1.07744,-5.25221,-14.4602,Q,Q
2023-03-15 12:09:12:585,0,1.06555,-5.23304,-14.4444,Q,Q
2023-03-15 12:09:12:595,0,1.05052,-5.21506,-14.439,Q,Q
2023-03-15 12:09:12:605,0,1.03254,-5.20107,-14.4434,Q,Q
2023-03-15 12:09:12:616,0,1.00167,-5.18109,-14.4619,Q,Q
2023-03-15 12:09:12:625,0,0.956715,-5.15588,-14.4932,Q,Q
2023-03-15 12:09:12:635,0,0.900813,-5.12279,-14.5343,Q,Q
2023-03-15 12:09:12:645,0,0.840033,-5.08673,-14.5875,Q,Q
2023-03-15 12:09:12:656,0,0.776008,-5.04735,-14.642,Q,Q
2023-03-15 12:09:12:665,0,0.717341,-5.01173,-14.7013,Q,Q
2023-03-15 12:09:12:675,0,0.665328,-4.97752,-14.7635,Q,Q
2023-03-15 12:09:12:685,0,0.617229,-4.94746,-14.826,Q,Q
2023-03-15 12:09:12:695,0,0.56837,-4.91894,-14.8878,Q,Q
2023-03-15 12:09:12:705,0,0.517403,-4.89768,-14.9515,Q,Q
2023-03-15 12:09:12:715,0,0.465014,-4.87634,-15.0172,Q,Q
2023-03-15 12:09:12:725,0,0.412543,-4.85642,-15.0813,Q,Q
2023-03-15 12:09:12:735,0,0.358941,-4.84017,-15.1402,Q,Q
2023-03-15 12:09:12:746,0,0.302525,-4.82492,-15.1996,Q,Q
2023-03-15 12:09:12:756,0,0.253019,-4.81315,-15.2554,Q,Q
2023-03-15 12:09:12:765,0,0.207107,-4.80311,-15.3046,Q,Q
2023-03-15 12:09:12:776,0,0.167846,-4.80443,-15.3442,Q,Q
2023-03-15 12:09:12:785,0,0.145353,-4.82714,-15.3729,Q,Q
2023-03-15 12:09:12:795,0,0.140707,-4.86033,-15.4015,Q,Q
2023-03-15 12:09:12:805,0,0.146266,-4.89519,-15.4251,Q,Q
2023-03-15 12:09:12:815,0,0.149211,-4.92527,-15.448,Q,Q
2023-03-15 12:09:12:825,0,0.139141,-4.95301,-15.4641,Q,Q
2023-03-15 12:09:12:835,0,0.106137,-4.97999,-15.4785,Q,Q
2023-03-15 12:09:12:845,0,0.0544772,-5.00811,-15.4916,Q,Q
2023-03-15 12:09:12:856,0,0.000457343,-5.04016,-15.5042,Q,Q
2023-03-15 12:09:12:866,0,-0.0531518,-5.07614,-15.5165,Q,Q
2023-03-15 12:09:12:875,0,-0.102318,-5.11092,-15.5257,Q,Q
2023-03-15 12:09:12:885,0,-0.144067,-5.14388,-15.5316,Q,Q
2023-03-15 12:09:12:896,0,-0.183246,-5.16832,-15.5445,Q,Q
2023-03-15 12:09:12:905,0,-0.228092,-5.17806,-15.5548,Q,Q
2023-03-15 12:09:12:916,0,-0.26272,-5.17381,-15.5802,Q,Q
2023-03-15 12:09:12:925,0,-0.291129,-5.15173,-15.6006,Q,Q
2023-03-15 12:09:12:936,0,-0.32302,-5.12046,-15.618,Q,Q
2023-03-15 12:09:12:945,0,-0.358722,-5.08287,-15.6292,Q,Q
2023-03-15 12:09:12:955,0,-0.40507,-5.04503,-15.6355,Q,Q
2023-03-15 12:09:12:965,0,-0.4639,-5.00142,-15.641,Q,Q
2023-03-15 12:09:12:976,0,-0.516051,-4.9494,-15.648,Q,Q
2023-03-15 12:09:12:985,0,-0.56893,-4.88851,-15.6623,Q,Q
2023-03-15 12:09:12:996,0,-0.616725,-4.81316,-15.6771,Q,Q
2023-03-15 12:09:13:5,0,-0.65916,-4.72574,-15.6925,Q,Q
2023-03-15 12:09:13:16,0,-0.696711,-4.63936,-15.7061,Q,Q
2023-03-15 12:09:13:26,0,-0.73045,-4.55504,-15.7174,Q,Q
2023-03-15 12:09:13:36,0,-0.751538,-4.47528,-15.7241,Q,Q
2023-03-15 12:09:13:46,0,-0.766542,-4.39562,-15.728,Q,Q
2023-03-15 12:09:13:56,0,-0.783923,-4.3174,-15.7311,Q,Q
2023-03-15 12:09:13:65,0,-0.80499,-4.24468,-15.7398,Q,Q
2023-03-15 12:09:13:75,0,-0.831382,-4.17305,-15.7537,Q,Q
2023-03-15 12:09:13:85,0,-0.85719,-4.09328,-15.78,Q,Q
2023-03-15 12:09:13:96,0,-0.864558,-4.01654,-15.8181,Q,Q
2023-03-15 12:09:13:105,0,-0.855047,-3.95869,-15.8639,Q,Q
2023-03-15 12:09:13:116,0,-0.834389,-3.91314,-15.9031,Q,Q
2023-03-15 12:09:13:126,0,-0.806969,-3.87583,-15.9394,Q,Q
2023-03-15 12:09:13:136,0,-0.783933,-3.84564,-15.9795,Q,Q
2023-03-15 12:09:13:146,0,-0.764783,-3.81546,-16.0216,Q,Q
2023-03-15 12:09:13:156,0,-0.750462,-3.78957,-16.0674,Q,Q
2023-03-15 12:09:13:166,0,-0.739886,-3.76797,-16.1104,Q,Q
2023-03-15 12:09:13:175,0,-0.731534,-3.75136,-16.1544,Q,Q
2023-03-15 12:09:13:185,0,-0.732058,-3.74729,-16.2,Q,Q
2023-03-15 12:09:13:195,0,-0.742253,-3.74535,-16.2395,Q,Q
2023-03-15 12:09:13:205,0,-0.767652,-3.74626,-16.2798,Q,Q
2023-03-15 12:09:13:215,0,-0.803971,-3.75143,-16.3224,Q,Q
2023-03-15 12:09:13:225,0,-0.850088,-3.75111,-16.363,Q,Q
2023-03-15 12:09:13:235,0,-0.902098,-3.7478,-16.4012,Q,Q
2023-03-15 12:09:13:245,0,-0.954486,-3.73888,-16.4382,Q,Q
2023-03-15 12:09:13:256,0,-0.998731,-3.72571,-16.4711,Q,Q
2023-03-15 12:09:13:265,0,-1.03182,-3.70947,-16.5035,Q,Q
2023-03-15 12:09:13:275,0,-1.05728,-3.69436,-16.5248,Q,Q
2023-03-15 12:09:13:285,0,-1.07993,-3.68331,-16.54,Q,Q
2023-03-15 12:09:13:296,0,-1.09643,-3.68379,-16.5481,Q,Q
2023-03-15 12:09:13:305,0,-1.12696,-3.69632,-16.5555,Q,Q
2023-03-15 12:09:13:315,0,-1.16829,-3.72003,-16.558,Q,Q
2023-03-15 12:09:13:325,0,-1.21951,-3.75248,-16.5639,Q,Q
2023-03-15 12:09:13:335,0,-1.28207,-3.78372,-16.5695,Q,Q
2023-03-15 12:09:13:346,0,-1.3515,-3.81522,-16.583,Q,Q
2023-03-15 12:09:13:356,0,-1.41968,-3.84835,-16.5956,Q,Q
2023-03-15 12:09:13:366,0,-1.48081,-3.87847,-16.6138,Q,Q
2023-03-15 12:09:13:376,0,-1.53829,-3.90679,-16.6309,Q,Q
2023-03-15 12:09:13:386,0,-1.58539,-3.93145,-16.6494,Q,Q
2023-03-15 12:09:13:396,0,-1.62691,-3.95585,-16.6743,Q,Q
2023-03-15 12:09:13:406,0,-1.65911,-3.97104,-16.7003,Q,Q
2023-03-15 12:09:13:416,0,-1.69074,-3.98304,-16.728,Q,Q
2023-03-15 12:09:13:426,0,-1.72593,-3.99239,-16.7549,Q,Q
2023-03-15 12:09:13:435,0,-1.76362,-3.99268,-16.7872,Q,Q
2023-03-15 12:09:13:445,0,-1.7978,-3.99318,-16.8162,Q,Q
2023-03-15 12:09:13:455,0,-1.82958,-3.98869,-16.8477,Q,Q
2023-03-15 12:09:13:465,0,-1.86414,-3.98601,-16.8777,Q,Q
2023-03-15 12:09:13:475,0,-1.89379,-3.98315,-16.9006,Q,Q
2023-03-15 12:09:13:485,0,-1.92799,-3.98069,-16.9244,Q,Q
2023-03-15 12:09:13:495,0,-1.97259,-3.97648,-16.9477,Q,Q
2023-03-15 12:09:13:505,0,-2.02177,-3.96828,-16.9662,Q,Q
2023-03-15 12:09:13:515,0,-2.07468,-3.96208,-16.9918,Q,Q
2023-03-15 12:09:13:525,0,-2.13032,-3.95427,-17.0176,Q,Q
2023-03-15 12:09:13:535,0,-2.18706,-3.94351,-17.0463,Q,Q
2023-03-15 12:09:13:545,0,-2.24264,-3.9351,-17.0801,Q,Q
2023-03-15 12:09:13:556,0,-2.29821,-3.92487,-17.1213,Q,Q
2023-03-15 12:09:13:565,0,-2.35516,-3.91437,-17.1665,Q,Q
2023-03-15 12:09:13:576,0,-2.42163,-3.90442,-17.2246,Q,Q
2023-03-15 12:09:13:586,0,-2.49718,-3.8907,-17.2913,Q,Q
2023-03-15 12:09:13:596,0,-2.5837,-3.8761,-17.3649,Q,Q
2023-03-15 12:09:13:606,0,-2.67579,-3.85738,-17.4424,Q,Q
2023-03-15 12:09:13:616,0,-2.77161,-3.84271,-17.5165,Q,Q
2023-03-15 12:09:13:626,0,-2.86553,-3.83082,-17.5919,Q,Q
2023-03-15 12:09:13:635,0,-2.95193,-3.82255,-17.6643,Q,Q
2023-03-15 12:09:13:646,0,-3.02429,-3.81886,-17.7378,Q,Q
2023-03-15 12:09:13:656,0,-3.0786,-3.8135,-17.8075,Q,Q
2023-03-15 12:09:13:665,0,-3.1139,-3.80453,-17.8782,Q,Q
2023-03-15 12:09:13:675,0,-3.13621,-3.78792,-17.9431,Q,Q
2023-03-15 12:09:13:685,0,-3.14836,-3.76395,-18.0021,Q,Q
2023-03-15 12:09:13:696,0,-3.1533,-3.73501,-18.0484,Q,Q
2023-03-15 12:09:13:706,0,-3.15621,-3.70611,-18.086,Q,Q
2023-03-15 12:09:13:716,0,-3.15992,-3.67924,-18.1191,Q,Q
2023-03-15 12:09:13:726,0,-3.16519,-3.65432,-18.1486,Q,Q
2023-03-15 12:09:13:736,0,-3.17217,-3.63171,-18.1755,Q,Q
2023-03-15 12:09:13:745,0,-3.18533,-3.61126,-18.1975,Q,Q
2023-03-15 12:09:13:756,0,-3.20856,-3.58832,-18.2158,Q,Q
2023-03-15 12:09:13:766,0,-3.24664,-3.56871,-18.2293,Q,Q
2023-03-15 12:09:13:776,0,-3.29764,-3.55383,-18.2419,Q,Q
2023-03-15 12:09:13:785,0,-3.35805,-3.53154,-18.2526,Q,Q
2023-03-15 12:09:13:795,0,-3.41567,-3.50959,-18.2654,Q,Q
2023-03-15 12:09:13:805,0,-3.46986,-3.48328,-18.2818,Q,Q
2023-03-15 12:09:13:815,0,-3.50866,-3.45139,-18.2905,Q,Q
2023-03-15 12:09:13:826,0,-3.53519,-3.41822,-18.2957,Q,Q
2023-03-15 12:09:13:836,0,-3.55098,-3.37948,-18.2939,Q,Q
2023-03-15 12:09:13:846,0,-3.57044,-3.34171,-18.2881,Q,Q
2023-03-15 12:09:13:856,0,-3.58166,-3.30555,-18.2767,Q,Q
2023-03-15 12:09:13:866,0,-3.60097,-3.27195,-18.2633,Q,Q
2023-03-15 12:09:13:876,0,-3.6217,-3.24187,-18.245,Q,Q
2023-03-15 12:09:13:885,0,-3.65009,-3.21819,-18.2231,Q,Q
2023-03-15 12:09:13:896,0,-3.69013,-3.19597,-18.2035,Q,Q
2023-03-15 12:09:13:906,0,-3.73333,-3.18145,-18.1809,Q,Q
2023-03-15 12:09:13:916,0,-3.78379,-3.16968,-18.1533,Q,Q
2023-03-15 12:09:13:925,0,-3.83633,-3.15848,-18.1247,Q,Q
2023-03-15 12:09:13:935,0,-3.89699,-3.15494,-18.0987,Q,Q
2023-03-15 12:09:13:946,0,-3.95804,-3.14899,-18.073,Q,Q
2023-03-15 12:09:13:956,0,-4.00919,-3.14248,-18.0482,Q,Q
2023-03-15 12:09:13:966,0,-4.05386,-3.13472,-18.0192,Q,Q
2023-03-15 12:09:13:976,0,-4.09841,-3.12833,-17.9861,Q,Q
2023-03-15 12:09:13:986,0,-4.15048,-3.12174,-17.947,Q,Q
2023-03-15 12:09:13:996,0,-4.21595,-3.12401,-17.9088,Q,Q
2023-03-15 12:09:14:6,0,-4.28976,-3.12885,-17.8741,Q,Q
2023-03-15 12:09:14:16,0,-4.36707,-3.14217,-17.8432,Q,Q
2023-03-15 12:09:14:26,0,-4.44482,-3.16136,-17.816,Q,Q
2023-03-15 12:09:14:35,0,-4.51759,-3.18226,-17.7974,Q,Q
2023-03-15 12:09:14:46,0,-4.58338,-3.20525,-17.7795,Q,Q
2023-03-15 12:09:14:56,0,-4.6524,-3.23132,-17.7697,Q,Q
2023-03-15 12:09:14:66,0,-4.7097,-3.25546,-17.7621,Q,Q
2023-03-15 12:09:14:76,0,-4.76226,-3.28001,-17.7561,Q,Q
2023-03-15 12:09:14:86,0,-4.81389,-3.30491,-17.7543,Q,Q
2023-03-15 12:09:14:96,0,-4.85912,-3.32662,-17.7553,Q,Q
2023-03-15 12:09:14:106,0,-4.90759,-3.34038,-17.7626,Q,Q
2023-03-15 12:09:14:116,0,-4.94615,-3.34602,-17.7751,Q,Q
2023-03-15 12:09:14:126,0,-4.97715,-3.34656,-17.7897,Q,Q
2023-03-15 12:09:14:135,0,-4.99829,-3.3445,-17.7999,Q,Q
2023-03-15 12:09:14:145,0,-5.0022,-3.33711,-17.8024,Q,Q
2023-03-15 12:09:14:156,0,-4.99728,-3.32584,-17.7995,Q,Q
2023-03-15 12:09:14:166,0,-4.98862,-3.30628,-17.7928,Q,Q
2023-03-15 12:09:14:175,0,-4.9872,-3.28717,-17.7766,Q,Q
2023-03-15 12:09:14:185,0,-4.99074,-3.26167,-17.7567,Q,Q
2023-03-15 12:09:14:195,0,-4.99069,-3.23486,-17.7336,Q,Q
2023-03-15 12:09:14:206,0,-4.9927,-3.20372,-17.7002,Q,Q
2023-03-15 12:09:14:216,0,-5.00403,-3.16753,-17.6585,Q,Q
2023-03-15 12:09:14:226,0,-5.03026,-3.12733,-17.6098,Q,Q
2023-03-15 12:09:14:236,0,-5.06694,-3.08466,-17.563,Q,Q
2023-03-15 12:09:14:246,0,-5.09444,-3.04429,-17.5159,Q,Q
2023-03-15 12:09:14:255,0,-5.12565,-3.00515,-17.4657,Q,Q
2023-03-15 12:09:14:266,0,-5.15823,-2.95931,-17.4238,Q,Q
2023-03-15 12:09:14:276,0,-5.19243,-2.9076,-17.3868,Q,Q
2023-03-15 12:09:14:285,0,-5.24495,-2.84876,-17.3579,Q,Q
2023-03-15 12:09:14:295,0,-5.30093,-2.78528,-17.3347,Q,Q
2023-03-15 12:09:14:305,0,-5.36477,-2.72497,-17.3148,Q,Q
2023-03-15 12:09:14:316,0,-5.42775,-2.66074,-17.2979,Q,Q
2023-03-15 12:09:14:325,0,-5.49877,-2.59601,-17.2749,Q,Q
2023-03-15 12:09:14:335,0,-5.57802,-2.53878,-17.2556,Q,Q
2023-03-15 12:09:14:346,0,-5.66809,-2.48383,-17.2391,Q,Q
2023-03-15 12:09:14:355,0,-5.76134,-2.42848,-17.2258,Q,Q
2023-03-15 12:09:14:366,0,-5.85579,-2.37434,-17.2145,Q,Q
2023-03-15 12:09:14:375,0,-5.95096,-2.32287,-17.2,Q,Q
2023-03-15 12:09:14:385,0,-6.05021,-2.2686,-17.1842,Q,Q
2023-03-15 12:09:14:396,0,-6.15122,-2.22374,-17.169,Q,Q
2023-03-15 12:09:14:406,0,-6.24491,-2.17749,-17.1516,Q,Q
2023-03-15 12:09:14:416,0,-6.33047,-2.13561,-17.1367,Q,Q
2023-03-15 12:09:14:426,0,-6.4112,-2.09988,-17.1205,Q,Q
2023-03-15 12:09:14:436,0,-6.48891,-2.07044,-17.1086,Q,Q
2023-03-15 12:09:14:445,0,-6.56413,-2.05043,-17.1049,Q,Q
2023-03-15 12:09:14:456,0,-6.62816,-2.03025,-17.1076,Q,Q
2023-03-15 12:09:14:466,0,-6.67989,-2.01693,-17.1265,Q,Q
2023-03-15 12:09:14:476,0,-6.70118,-2.00562,-17.1561,Q,Q
2023-03-15 12:09:14:485,0,-6.68954,-1.99531,-17.1957,Q,Q
2023-03-15 12:09:14:495,0,-6.65354,-1.97936,-17.2462,Q,Q
2023-03-15 12:09:14:505,0,-6.60054,-1.96017,-17.3039,Q,Q
2023-03-15 12:09:14:515,0,-6.53488,-1.93672,-17.3656,Q,Q
2023-03-15 12:09:14:526,0,-6.45271,-1.91365,-17.4366,Q,Q
2023-03-15 12:09:14:536,0,-6.35418,-1.88772,-17.5096,Q,Q
2023-03-15 12:09:14:545,0,-6.25264,-1.85274,-17.577,Q,Q
2023-03-15 12:09:14:555,0,-6.16669,-1.80865,-17.636,Q,Q
2023-03-15 12:09:14:565,0,-6.09728,-1.77191,-17.6867,Q,Q
2023-03-15 12:09:14:576,0,-6.02762,-1.74636,-17.7325,Q,Q
2023-03-15 12:09:14:586,0,-5.94406,-1.72482,-17.7761,Q,Q
2023-03-15 12:09:14:596,0,-5.83157,-1.70707,-17.8115,Q,Q
2023-03-15 12:09:14:605,0,-5.69815,-1.68378,-17.835,Q,Q
2023-03-15 12:09:14:616,0,-5.55338,-1.65755,-17.8474,Q,Q
2023-03-15 12:09:14:626,0,-5.41328,-1.63099,-17.8446,Q,Q
2023-03-15 12:09:14:636,0,-5.28744,-1.60586,-17.829,Q,Q
2023-03-15 12:09:14:646,0,-5.19142,-1.58296,-17.8047,Q,Q
2023-03-15 12:09:14:656,0,-5.11696,-1.5734,-17.7717,Q,Q
2023-03-15 12:09:14:666,0,-5.05238,-1.56826,-17.7369,Q,Q
2023-03-15 12:09:14:675,0,-4.97679,-1.57011,-17.7012,Q,Q
2023-03-15 12:09:14:686,0,-4.87784,-1.57398,-17.6666,Q,Q
2023-03-15 12:09:14:695,0,-4.75773,-1.57318,-17.6296,Q,Q
2023-03-15 12:09:14:706,0,-4.62953,-1.56596,-17.5885,Q,Q
2023-03-15 12:09:14:716,0,-4.51149,-1.55759,-17.5427,Q,Q
2023-03-15 12:09:14:725,0,-4.40157,-1.54702,-17.4931,Q,Q
2023-03-15 12:09:14:736,0,-4.30112,-1.53166,-17.4424,Q,Q
2023-03-15 12:09:14:746,0,-4.20606,-1.51953,-17.3935,Q,Q
2023-03-15 12:09:14:756,0,-4.11895,-1.50716,-17.3423,Q,Q
2023-03-15 12:09:14:766,0,-4.04305,-1.49898,-17.2915,Q,Q
2023-03-15 12:09:14:776,0,-3.9761,-1.49665,-17.2414,Q,Q
2023-03-15 12:09:14:785,0,-3.92084,-1.50173,-17.192,Q,Q
2023-03-15 12:09:14:795,0,-3.87412,-1.50644,-17.1489,Q,Q
2023-03-15 12:09:14:806,0,-3.83157,-1.50788,-17.1038,Q,Q
2023-03-15 12:09:14:816,0,-3.79426,-1.51116,-17.0679,Q,Q
2023-03-15 12:09:14:826,0,-3.75837,-1.5071,-17.0309,Q,Q
2023-03-15 12:09:14:836,0,-3.72486,-1.50101,-16.9924,Q,Q
2023-03-15 12:09:14:845,0,-3.69715,-1.49324,-16.9566,Q,Q
2023-03-15 12:09:14:855,0,-3.67703,-1.49214,-16.9209,Q,Q
2023-03-15 12:09:14:866,0,-3.66316,-1.4941,-16.8855,Q,Q
2023-03-15 12:09:14:876,0,-3.65518,-1.49636,-16.8519,Q,Q
2023-03-15 12:09:14:886,0,-3.6554,-1.50031,-16.8224,Q,Q
2023-03-15 12:09:14:896,0,-3.66705,-1.50776,-16.7983,Q,Q
2023-03-15 12:09:14:906,0,-3.6809,-1.514,-16.7765,Q,Q
2023-03-15 12:09:14:916,0,-3.69384,-1.51995,-16.759,Q,Q
2023-03-15 12:09:14:926,0,-3.69655,-1.52687,-16.7412,Q,Q
2023-03-15 12:09:14:936,0,-3.6948,-1.53627,-16.7301,Q,Q
2023-03-15 12:09:14:946,0,-3.688,-1.54338,-16.7211,Q,Q
2023-03-15 12:09:14:955,0,-3.68151,-1.55001,-16.7147,Q,Q
2023-03-15 12:09:14:966,0,-3.67263,-1.55811,-16.7078,Q,Q
2023-03-15 12:09:14:976,0,-3.66709,-1.56577,-16.6923,Q,Q
2023-03-15 12:09:14:986,0,-3.65733,-1.57995,-16.6733,Q,Q
2023-03-15 12:09:14:996,0,-3.64742,-1.58749,-16.6535,Q,Q
2023-03-15 12:09:15:6,0,-3.64442,-1.59219,-16.626,Q,Q
2023-03-15 12:09:15:16,0,-3.64621,-1.58944,-16.5971,Q,Q
2023-03-15 12:09:15:26,0,-3.65509,-1.58024,-16.5693,Q,Q
2023-03-15 12:09:15:36,0,-3.67761,-1.56452,-16.542,Q,Q
2023-03-15 12:09:15:45,0,-3.70506,-1.54242,-16.5161,Q,Q
2023-03-15 12:09:15:56,0,-3.73247,-1.52224,-16.4884,Q,Q
2023-03-15 12:09:15:66,0,-3.75707,-1.49867,-16.4684,Q,Q
2023-03-15 12:09:15:75,0,-3.77247,-1.47865,-16.4476,Q,Q
2023-03-15 12:09:15:85,0,-3.77401,-1.46359,-16.4292,Q,Q
2023-03-15 12:09:15:96,0,-3.76576,-1.45569,-16.4129,Q,Q
2023-03-15 12:09:15:106,0,-3.76034,-1.45328,-16.399,Q,Q
2023-03-15 12:09:15:116,0,-3.76657,-1.44971,-16.3892,Q,Q
2023-03-15 12:09:15:126,0,-3.78475,-1.44552,-16.389,Q,Q
2023-03-15 12:09:15:136,0,-3.80691,-1.44246,-16.3934,Q,Q
2023-03-15 12:09:15:146,0,-3.83225,-1.44091,-16.4106,Q,Q
2023-03-15 12:09:15:156,0,-3.85031,-1.43762,-16.4286,Q,Q
2023-03-15 12:09:15:166,0,-3.86341,-1.43682,-16.4511,Q,Q
2023-03-15 12:09:15:176,0,-3.86469,-1.436,-16.4797,Q,Q
2023-03-15 12:09:15:186,0,-3.85794,-1.43492,-16.5157,Q,Q
2023-03-15 12:09:15:195,0,-3.84368,-1.42975,-16.5517,Q,Q
2023-03-15 12:09:15:205,0,-3.82624,-1.41858,-16.5889,Q,Q
2023-03-15 12:09:15:216,0,-3.80747,-1.40725,-16.627,Q,Q
2023-03-15 12:09:15:226,0,-3.7861,-1.39325,-16.6647,Q,Q
2023-03-15 12:09:15:236,0,-3.7634,-1.37808,-16.6976,Q,Q
2023-03-15 12:09:15:246,0,-3.73649,-1.35744,-16.7222,Q,Q
2023-03-15 12:09:15:256,0,-3.70652,-1.343,-16.7478,Q,Q
2023-03-15 12:09:15:265,0,-3.67435,-1.32595,-16.7676,Q,Q
2023-03-15 12:09:15:275,0,-3.6395,-1.30964,-16.7841,Q,Q
2023-03-15 12:09:15:285,0,-3.60785,-1.28938,-16.7937,Q,Q
2023-03-15 12:09:15:295,0,-3.58381,-1.26984,-16.798,Q,Q
2023-03-15 12:09:15:306,0,-3.56209,-1.2492,-16.7967,Q,Q
2023-03-15 12:09:15:316,0,-3.54405,-1.23072,-16.7897,Q,Q
2023-03-15 12:09:15:326,0,-3.53342,-1.21208,-16.7824,Q,Q
2023-03-15 12:09:15:336,0,-3.52547,-1.19359,-16.7756,Q,Q
2023-03-15 12:09:15:346,0,-3.52074,-1.17883,-16.7648,Q,Q
2023-03-15 12:09:15:355,0,-3.51654,-1.1647,-16.7529,Q,Q
2023-03-15 12:09:15:366,0,-3.51723,-1.15014,-16.742,Q,Q
2023-03-15 12:09:15:376,0,-3.52543,-1.13798,-16.73,Q,Q
2023-03-15 12:09:15:385,0,-3.53835,-1.12436,-16.7232,Q,Q
2023-03-15 12:09:15:396,0,-3.55758,-1.11103,-16.7173,Q,Q
2023-03-15 12:09:15:406,0,-3.58274,-1.09038,-16.7139,Q,Q
2023-03-15 12:09:15:416,0,-3.60664,-1.07179,-16.7145,Q,Q
2023-03-15 12:09:15:426,0,-3.62768,-1.0524,-16.7144,Q,Q
2023-03-15 12:09:15:436,0,-3.64804,-1.03522,-16.7171,Q,Q
2023-03-15 12:09:15:446,0,-3.66823,-1.01938,-16.7213,Q,Q
2023-03-15 12:09:15:456,0,-3.68995,-1.00351,-16.7256,Q,Q
2023-03-15 12:09:15:466,0,-3.70679,-0.991631,-16.7309,Q,Q
2023-03-15 12:09:15:476,0,-3.72359,-0.983454,-16.7397,Q,Q
2023-03-15 12:09:15:486,0,-3.73879,-0.977587,-16.7501,Q,Q
