Timestamp_cmd,imu_cmd,roll_delta,pitch_delta,yaw_delta,voice_type,voice_length
2023-03-15 22:00:26:858,0,-3.33129,-3.97384,-18.3568,Q,Q
2023-03-15 22:00:26:867,0,-3.32072,-3.973,-18.3359,Q,Q
2023-03-15 22:00:26:877,0,-3.31188,-3.97133,-18.317,Q,Q
2023-03-15 22:00:26:887,0,-3.30644,-3.96908,-18.3014,Q,Q
2023-03-15 22:00:26:897,0,-3.30074,-3.96675,-18.2849,Q,Q
2023-03-15 22:00:26:907,0,-3.29745,-3.96202,-18.2641,Q,Q
2023-03-15 22:00:26:917,0,-3.29635,-3.96004,-18.2466,Q,Q
2023-03-15 22:00:26:927,0,-3.29439,-3.95582,-18.2291,Q,Q
2023-03-15 22:00:26:937,0,-3.29107,-3.9528,-18.2145,Q,Q
2023-03-15 22:00:26:947,0,-3.28485,-3.9521,-18.1984,Q,Q
2023-03-15 22:00:26:957,0,-3.28222,-3.95464,-18.1815,Q,Q
2023-03-15 22:00:26:967,0,-3.28049,-3.95369,-18.1647,Q,Q
2023-03-15 22:00:26:977,0,-3.28188,-3.95503,-18.1465,Q,Q
2023-03-15 22:00:26:986,0,-3.28104,-3.95815,-18.1298,Q,Q
2023-03-15 22:00:26:996,0,-3.28241,-3.95931,-18.1175,Q,Q
2023-03-15 22:00:27:7,0,-3.2836,-3.9613,-18.1023,Q,Q
2023-03-15 22:00:27:17,0,-3.28739,-3.96541,-18.0897,Q,Q
2023-03-15 22:00:27:27,0,-3.29214,-3.97085,-18.0779,Q,Q
2023-03-15 22:00:27:37,0,-3.29901,-3.97316,-18.069,Q,Q
2023-03-15 22:00:27:47,0,-3.30215,-3.97484,-18.0581,Q,Q
2023-03-15 22:00:27:57,0,-3.30462,-3.97605,-18.0521,Q,Q
2023-03-15 22:00:27:67,0,-3.30821,-3.9843,-18.0468,Q,Q
2023-03-15 22:00:27:77,0,-3.30787,-3.98999,-18.0457,Q,Q
2023-03-15 22:00:27:87,0,-3.30736,-3.99021,-18.0437,Q,Q
2023-03-15 22:00:27:97,0,-3.30631,-3.99553,-18.0422,Q,Q
2023-03-15 22:00:27:107,0,-3.30854,-4.00455,-18.0466,Q,Q
2023-03-15 22:00:27:117,0,-3.30882,-4.01302,-18.0518,Q,Q
2023-03-15 22:00:27:127,0,-3.30552,-4.02278,-18.0593,Q,Q
2023-03-15 22:00:27:137,0,-3.30224,-4.03366,-18.0657,Q,Q
2023-03-15 22:00:27:147,0,-3.29827,-4.049,-18.0748,Q,Q
2023-03-15 22:00:27:157,0,-3.29402,-4.06694,-18.0805,Q,Q
2023-03-15 22:00:27:167,0,-3.28526,-4.08387,-18.0873,Q,Q
2023-03-15 22:00:27:177,0,-3.27737,-4.10064,-18.0963,Q,Q
2023-03-15 22:00:27:187,0,-3.27305,-4.1203,-18.1009,Q,Q
2023-03-15 22:00:27:197,0,-3.26729,-4.13943,-18.1061,Q,Q
2023-03-15 22:00:27:207,0,-3.26311,-4.15492,-18.1105,Q,Q
2023-03-15 22:00:27:217,0,-3.25986,-4.16705,-18.1151,Q,Q
2023-03-15 22:00:27:227,0,-3.25869,-4.18058,-18.1163,Q,Q
2023-03-15 22:00:27:237,0,-3.25739,-4.19028,-18.1185,Q,Q
2023-03-15 22:00:27:247,0,-3.25574,-4.1985,-18.1283,Q,Q
2023-03-15 22:00:27:257,0,-3.25105,-4.21496,-18.1461,Q,Q
2023-03-15 22:00:27:267,0,-3.23765,-4.23382,-18.1788,Q,Q
2023-03-15 22:00:27:277,0,-3.2158,-4.25551,-18.228,Q,Q
2023-03-15 22:00:27:287,0,-3.1872,-4.28288,-18.2959,Q,Q
2023-03-15 22:00:27:297,0,-3.15826,-4.31175,-18.392,Q,Q
2023-03-15 22:00:27:307,0,-3.12923,-4.34095,-18.5083,Q,Q
2023-03-15 22:00:27:317,0,-3.09422,-4.36436,-18.6325,Q,Q
2023-03-15 22:00:27:327,0,-3.05912,-4.38634,-18.7485,Q,Q
2023-03-15 22:00:27:337,0,-3.02037,-4.40088,-18.8514,Q,Q
2023-03-15 22:00:27:347,0,-2.98999,-4.41347,-18.9408,Q,Q
2023-03-15 22:00:27:357,0,-2.9657,-4.41505,-19.0071,Q,Q
2023-03-15 22:00:27:367,0,-2.9524,-4.40736,-19.0511,Q,Q
2023-03-15 22:00:27:377,0,-2.95017,-4.38862,-19.0677,Q,Q
2023-03-15 22:00:27:387,0,-2.96442,-4.36493,-19.0599,Q,Q
2023-03-15 22:00:27:397,0,-2.98717,-4.34192,-19.032,Q,Q
2023-03-15 22:00:27:407,0,-3.02009,-4.31787,-18.9903,Q,Q
2023-03-15 22:00:27:417,0,-3.0583,-4.29847,-18.9389,Q,Q
2023-03-15 22:00:27:427,0,-3.10018,-4.28543,-18.8825,Q,Q
2023-03-15 22:00:27:437,0,-3.14102,-4.27534,-18.8229,Q,Q
2023-03-15 22:00:27:447,0,-3.17789,-4.26887,-18.7703,Q,Q
2023-03-15 22:00:27:457,0,-3.21733,-4.26842,-18.7182,Q,Q
2023-03-15 22:00:27:467,0,-3.25505,-4.27171,-18.67,Q,Q
2023-03-15 22:00:27:477,0,-3.28737,-4.27669,-18.6306,Q,Q
2023-03-15 22:00:27:487,0,-3.31463,-4.28836,-18.5981,Q,Q
2023-03-15 22:00:27:497,0,-3.33836,-4.30315,-18.5738,Q,Q
2023-03-15 22:00:27:507,0,-3.35814,-4.31752,-18.5523,Q,Q
2023-03-15 22:00:27:517,0,-3.37478,-4.33194,-18.5429,Q,Q
2023-03-15 22:00:27:527,0,-3.39052,-4.34949,-18.5395,Q,Q
2023-03-15 22:00:27:537,0,-3.40708,-4.36673,-18.5399,Q,Q
2023-03-15 22:00:27:547,0,-3.42618,-4.37707,-18.5472,Q,Q
2023-03-15 22:00:27:557,0,-3.44286,-4.38625,-18.561,Q,Q
2023-03-15 22:00:27:567,0,-3.4576,-4.39633,-18.5766,Q,Q
2023-03-15 22:00:27:577,0,-3.46676,-4.39829,-18.5923,Q,Q
2023-03-15 22:00:27:587,0,-3.47652,-4.40016,-18.6069,Q,Q
2023-03-15 22:00:27:597,0,-3.48296,-4.3986,-18.6245,Q,Q
2023-03-15 22:00:27:607,0,-3.48642,-4.3936,-18.6406,Q,Q
2023-03-15 22:00:27:617,0,-3.4879,-4.3812,-18.6551,Q,Q
2023-03-15 22:00:27:627,0,-3.48425,-4.36972,-18.6711,Q,Q
2023-03-15 22:00:27:637,0,-3.47957,-4.35746,-18.6865,Q,Q
2023-03-15 22:00:27:647,0,-3.4709,-4.34642,-18.7,Q,Q
2023-03-15 22:00:27:657,0,-3.46463,-4.3362,-18.7139,Q,Q
2023-03-15 22:00:27:667,0,-3.4602,-4.32928,-18.7263,Q,Q
2023-03-15 22:00:27:677,0,-3.44772,-4.32646,-18.7382,Q,Q
2023-03-15 22:00:27:687,0,-3.43548,-4.32413,-18.7473,Q,Q
2023-03-15 22:00:27:697,0,-3.41981,-4.32397,-18.7552,Q,Q
2023-03-15 22:00:27:707,0,-3.40367,-4.32327,-18.759,Q,Q
2023-03-15 22:00:27:717,0,-3.38924,-4.32212,-18.7586,Q,Q
2023-03-15 22:00:27:727,0,-3.36985,-4.32428,-18.7571,Q,Q
2023-03-15 22:00:27:737,0,-3.35032,-4.32585,-18.7524,Q,Q
2023-03-15 22:00:27:747,0,-3.33406,-4.32855,-18.743,Q,Q
2023-03-15 22:00:27:757,0,-3.31985,-4.3307,-18.7293,Q,Q
2023-03-15 22:00:27:767,0,-3.30858,-4.3336,-18.714,Q,Q
2023-03-15 22:00:27:777,0,-3.29931,-4.33809,-18.6979,Q,Q
2023-03-15 22:00:27:787,0,-3.29345,-4.34387,-18.6809,Q,Q
2023-03-15 22:00:27:797,0,-3.29211,-4.3492,-18.6644,Q,Q
2023-03-15 22:00:27:807,0,-3.2921,-4.35092,-18.6502,Q,Q
2023-03-15 22:00:27:817,0,-3.29341,-4.35287,-18.637,Q,Q
2023-03-15 22:00:27:827,0,-3.29498,-4.35601,-18.6264,Q,Q
2023-03-15 22:00:27:837,0,-3.30284,-4.35928,-18.6152,Q,Q
2023-03-15 22:00:27:847,0,-3.31227,-4.36496,-18.6099,Q,Q
2023-03-15 22:00:27:857,0,-3.32396,-4.36784,-18.6056,Q,Q
2023-03-15 22:00:27:867,0,-3.33357,-4.364,-18.6048,Q,Q
2023-03-15 22:00:27:877,0,-3.33935,-4.36543,-18.6056,Q,Q
2023-03-15 22:00:27:887,0,-3.34541,-4.36405,-18.6118,Q,Q
2023-03-15 22:00:27:897,0,-3.35005,-4.35708,-18.6144,Q,Q
2023-03-15 22:00:27:907,0,-3.35076,-4.34956,-18.6175,Q,Q
2023-03-15 22:00:27:917,0,-3.35392,-4.33884,-18.6215,Q,Q
2023-03-15 22:00:27:927,0,-3.35522,-4.32869,-18.6281,Q,Q
2023-03-15 22:00:27:937,0,-3.35407,-4.3167,-18.6363,Q,Q
2023-03-15 22:00:27:947,0,-3.35996,-4.31111,-18.6448,Q,Q
2023-03-15 22:00:27:957,0,-3.36584,-4.3064,-18.6557,Q,Q
2023-03-15 22:00:27:967,0,-3.36839,-4.30244,-18.6642,Q,Q
2023-03-15 22:00:27:977,0,-3.37328,-4.29911,-18.6713,Q,Q
2023-03-15 22:00:27:987,0,-3.37397,-4.29665,-18.6838,Q,Q
2023-03-15 22:00:27:997,0,-3.37417,-4.29722,-18.6983,Q,Q
2023-03-15 22:00:28:7,0,-3.37237,-4.29636,-18.7148,Q,Q
2023-03-15 22:00:28:17,0,-3.37086,-4.29068,-18.7266,Q,Q
2023-03-15 22:00:28:27,0,-3.36254,-4.28831,-18.7375,Q,Q
2023-03-15 22:00:28:37,0,-3.35443,-4.28603,-18.745,Q,Q
2023-03-15 22:00:28:47,0,-3.34595,-4.28263,-18.7478,Q,Q
2023-03-15 22:00:28:57,0,-3.33442,-4.28291,-18.7498,Q,Q
2023-03-15 22:00:28:67,0,-3.32315,-4.28024,-18.7486,Q,Q
2023-03-15 22:00:28:77,0,-3.31464,-4.27919,-18.7479,Q,Q
2023-03-15 22:00:28:87,0,-3.30602,-4.27858,-18.742,Q,Q
2023-03-15 22:00:28:97,0,-3.29679,-4.27186,-18.7407,Q,Q
2023-03-15 22:00:28:107,0,-3.28521,-4.26748,-18.7409,Q,Q
2023-03-15 22:00:28:117,0,-3.27375,-4.26926,-18.741,Q,Q
2023-03-15 22:00:28:127,0,-3.25971,-4.27109,-18.7467,Q,Q
2023-03-15 22:00:28:137,0,-3.24617,-4.27442,-18.7514,Q,Q
2023-03-15 22:00:28:147,0,-3.23549,-4.274,-18.7579,Q,Q
2023-03-15 22:00:28:157,0,-3.23073,-4.27559,-18.7685,Q,Q
2023-03-15 22:00:28:167,0,-3.23118,-4.27519,-18.7809,Q,Q
2023-03-15 22:00:28:177,0,-3.23154,-4.27013,-18.7931,Q,Q
2023-03-15 22:00:28:187,0,-3.23503,-4.25987,-18.7996,Q,Q
2023-03-15 22:00:28:197,0,-3.24351,-4.24885,-18.8066,Q,Q
2023-03-15 22:00:28:207,0,-3.24775,-4.23665,-18.8074,Q,Q
2023-03-15 22:00:28:217,0,-3.25672,-4.22339,-18.8072,Q,Q
2023-03-15 22:00:28:227,0,-3.26417,-4.20703,-18.8042,Q,Q
2023-03-15 22:00:28:237,0,-3.26866,-4.19263,-18.7961,Q,Q
2023-03-15 22:00:28:247,0,-3.27464,-4.17963,-18.7886,Q,Q
2023-03-15 22:00:28:257,0,-3.28193,-4.17048,-18.7788,Q,Q
2023-03-15 22:00:28:267,0,-3.28945,-4.16511,-18.7696,Q,Q
2023-03-15 22:00:28:277,0,-3.2938,-4.16231,-18.7613,Q,Q
2023-03-15 22:00:28:287,0,-3.29618,-4.16029,-18.7582,Q,Q
2023-03-15 22:00:28:297,0,-3.29556,-4.16427,-18.7574,Q,Q
2023-03-15 22:00:28:307,0,-3.29199,-4.16727,-18.7591,Q,Q
2023-03-15 22:00:28:317,0,-3.28832,-4.17193,-18.7651,Q,Q
2023-03-15 22:00:28:327,0,-3.28707,-4.17797,-18.772,Q,Q
2023-03-15 22:00:28:337,0,-3.28698,-4.1824,-18.7818,Q,Q
2023-03-15 22:00:28:347,0,-3.28961,-4.18547,-18.7957,Q,Q
2023-03-15 22:00:28:357,0,-3.28824,-4.18795,-18.8057,Q,Q
2023-03-15 22:00:28:367,0,-3.29077,-4.19512,-18.8139,Q,Q
2023-03-15 22:00:28:377,0,-3.29593,-4.20257,-18.8185,Q,Q
2023-03-15 22:00:28:387,0,-3.30052,-4.20697,-18.825,Q,Q
2023-03-15 22:00:28:397,0,-3.30626,-4.2104,-18.8298,Q,Q
2023-03-15 22:00:28:407,0,-3.31148,-4.20738,-18.8317,Q,Q
2023-03-15 22:00:28:417,0,-3.31852,-4.20363,-18.8322,Q,Q
2023-03-15 22:00:28:427,0,-3.32436,-4.19511,-18.8331,Q,Q
2023-03-15 22:00:28:437,0,-3.3276,-4.18791,-18.837,Q,Q
2023-03-15 22:00:28:447,0,-3.33469,-4.18526,-18.8379,Q,Q
2023-03-15 22:00:28:457,0,-3.33732,-4.17952,-18.8449,Q,Q
2023-03-15 22:00:28:467,0,-3.33931,-4.17799,-18.8535,Q,Q
2023-03-15 22:00:28:477,0,-3.33691,-4.17231,-18.8627,Q,Q
2023-03-15 22:00:28:487,0,-3.33102,-4.16899,-18.8714,Q,Q
2023-03-15 22:00:28:497,0,-3.3258,-4.16764,-18.8841,Q,Q
2023-03-15 22:00:28:507,0,-3.32328,-4.16417,-18.8948,Q,Q
2023-03-15 22:00:28:517,0,-3.31887,-4.1614,-18.902,Q,Q
2023-03-15 22:00:28:527,0,-3.31738,-4.15963,-18.905,Q,Q
2023-03-15 22:00:28:537,0,-3.31968,-4.15834,-18.9089,Q,Q
2023-03-15 22:00:28:547,0,-3.31902,-4.15808,-18.9073,Q,Q
2023-03-15 22:00:28:557,0,-3.31874,-4.15785,-18.9015,Q,Q
2023-03-15 22:00:28:567,0,-3.32479,-4.15683,-18.8883,Q,Q
2023-03-15 22:00:28:577,0,-3.33004,-4.15619,-18.8735,Q,Q
2023-03-15 22:00:28:587,0,-3.33751,-4.15589,-18.8591,Q,Q
2023-03-15 22:00:28:597,0,-3.34194,-4.15599,-18.8449,Q,Q
2023-03-15 22:00:28:607,0,-3.34801,-4.15882,-18.8282,Q,Q
2023-03-15 22:00:28:617,0,-3.35246,-4.16397,-18.8153,Q,Q
2023-03-15 22:00:28:627,0,-3.35801,-4.16307,-18.8058,Q,Q
2023-03-15 22:00:28:637,0,-3.36176,-4.16069,-18.7979,Q,Q
2023-03-15 22:00:28:647,0,-3.36442,-4.16087,-18.7996,Q,Q
2023-03-15 22:00:28:657,0,-3.37128,-4.16346,-18.7996,Q,Q
2023-03-15 22:00:28:667,0,-3.37532,-4.16431,-18.8013,Q,Q
2023-03-15 22:00:28:677,0,-3.37911,-4.16851,-18.8075,Q,Q
2023-03-15 22:00:28:687,0,-3.38668,-4.17296,-18.8198,Q,Q
2023-03-15 22:00:28:697,0,-3.38854,-4.17503,-18.8369,Q,Q
2023-03-15 22:00:28:707,0,-3.38869,-4.17931,-18.8532,Q,Q
2023-03-15 22:00:28:717,0,-3.38688,-4.18283,-18.8691,Q,Q
2023-03-15 22:00:28:727,0,-3.38651,-4.18495,-18.8859,Q,Q
2023-03-15 22:00:28:737,0,-3.38436,-4.1878,-18.9049,Q,Q
2023-03-15 22:00:28:747,0,-3.37992,-4.19035,-18.9186,Q,Q
2023-03-15 22:00:28:757,0,-3.37584,-4.19289,-18.9292,Q,Q
2023-03-15 22:00:28:767,0,-3.37711,-4.19453,-18.9366,Q,Q
2023-03-15 22:00:28:777,0,-3.3805,-4.19602,-18.9424,Q,Q
2023-03-15 22:00:28:787,0,-3.37929,-4.19888,-18.946,Q,Q
2023-03-15 22:00:28:797,0,-3.37966,-4.20005,-18.9468,Q,Q
2023-03-15 22:00:28:807,0,-3.37991,-4.19786,-18.9443,Q,Q
2023-03-15 22:00:28:817,0,-3.38098,-4.19501,-18.9403,Q,Q
2023-03-15 22:00:28:827,0,-3.38216,-4.19566,-18.934,Q,Q
2023-03-15 22:00:28:837,0,-3.38398,-4.19294,-18.9292,Q,Q
2023-03-15 22:00:28:847,0,-3.38516,-4.18892,-18.924,Q,Q
2023-03-15 22:00:28:857,0,-3.3888,-4.18558,-18.9196,Q,Q
2023-03-15 22:00:28:867,0,-3.39244,-4.17947,-18.92,Q,Q
2023-03-15 22:00:28:877,0,-3.39542,-4.16997,-18.9222,Q,Q
2023-03-15 22:00:28:887,0,-3.40166,-4.16913,-18.9283,Q,Q
2023-03-15 22:00:28:897,0,-3.4006,-4.17045,-18.9338,Q,Q
2023-03-15 22:00:28:907,0,-3.40171,-4.17364,-18.9437,Q,Q
2023-03-15 22:00:28:917,0,-3.40613,-4.18001,-18.9567,Q,Q
2023-03-15 22:00:28:927,0,-3.41137,-4.18526,-18.9683,Q,Q
2023-03-15 22:00:28:937,0,-3.42367,-4.18363,-18.9812,Q,Q
2023-03-15 22:00:28:947,0,-3.43608,-4.18583,-18.9934,Q,Q
2023-03-15 22:00:28:957,0,-3.45468,-4.1896,-19.0025,Q,Q
2023-03-15 22:00:28:967,0,-3.47484,-4.19546,-19.0037,Q,Q
2023-03-15 22:00:28:977,0,-3.49764,-4.19891,-19.0018,Q,Q
2023-03-15 22:00:28:987,0,-3.51746,-4.20111,-18.9949,Q,Q
2023-03-15 22:00:28:997,0,-3.53691,-4.19939,-18.984,Q,Q
2023-03-15 22:00:29:7,0,-3.5521,-4.19715,-18.9688,Q,Q
2023-03-15 22:00:29:17,0,-3.5629,-4.19321,-18.9514,Q,Q
2023-03-15 22:00:29:27,0,-3.57143,-4.18648,-18.9353,Q,Q
2023-03-15 22:00:29:37,0,-3.5803,-4.17973,-18.9194,Q,Q
2023-03-15 22:00:29:47,0,-3.5843,-4.17743,-18.9087,Q,Q
2023-03-15 22:00:29:57,0,-3.58918,-4.17838,-18.8992,Q,Q
2023-03-15 22:00:29:67,0,-3.59294,-4.17787,-18.8957,Q,Q
2023-03-15 22:00:29:77,0,-3.60193,-4.18297,-18.8936,Q,Q
2023-03-15 22:00:29:87,0,-3.60768,-4.19378,-18.8978,Q,Q
2023-03-15 22:00:29:97,0,-3.61553,-4.20579,-18.9018,Q,Q
2023-03-15 22:00:29:107,0,-3.62706,-4.21466,-18.9138,Q,Q
2023-03-15 22:00:29:117,0,-3.63349,-4.21727,-18.9216,Q,Q
2023-03-15 22:00:29:127,0,-3.63785,-4.21615,-18.9308,Q,Q
2023-03-15 22:00:29:137,0,-3.64032,-4.21828,-18.9391,Q,Q
2023-03-15 22:00:29:147,0,-3.64268,-4.21835,-18.9464,Q,Q
2023-03-15 22:00:29:157,0,-3.64206,-4.21789,-18.9558,Q,Q
2023-03-15 22:00:29:167,0,-3.64039,-4.21675,-18.9611,Q,Q
2023-03-15 22:00:29:177,0,-3.63797,-4.2137,-18.9607,Q,Q
2023-03-15 22:00:29:187,0,-3.63866,-4.20804,-18.9637,Q,Q
2023-03-15 22:00:29:197,0,-3.63998,-4.19837,-18.9688,Q,Q
2023-03-15 22:00:29:207,0,-3.64108,-4.19193,-18.968,Q,Q
2023-03-15 22:00:29:217,0,-3.64705,-4.18309,-18.9659,Q,Q
2023-03-15 22:00:29:227,0,-3.64886,-4.17722,-18.9678,Q,Q
2023-03-15 22:00:29:237,0,-3.64782,-4.17436,-18.9715,Q,Q
2023-03-15 22:00:29:247,0,-3.643,-4.17026,-18.9752,Q,Q
2023-03-15 22:00:29:257,0,-3.63517,-4.16604,-18.9812,Q,Q
2023-03-15 22:00:29:267,0,-3.62386,-4.16465,-18.9926,Q,Q
2023-03-15 22:00:29:277,0,-3.61489,-4.16359,-19.0005,Q,Q
2023-03-15 22:00:29:287,0,-3.60066,-4.16269,-19.0088,Q,Q
2023-03-15 22:00:29:297,0,-3.58501,-4.16278,-19.0167,Q,Q
2023-03-15 22:00:29:307,0,-3.56997,-4.16098,-19.0238,Q,Q
2023-03-15 22:00:29:317,0,-3.55842,-4.16265,-19.0302,Q,Q
2023-03-15 22:00:29:327,0,-3.54874,-4.16122,-19.0386,Q,Q
2023-03-15 22:00:29:337,0,-3.53986,-4.16879,-19.0392,Q,Q
2023-03-15 22:00:29:347,0,-3.53296,-4.17304,-19.0436,Q,Q
2023-03-15 22:00:29:357,0,-3.52718,-4.17614,-19.0434,Q,Q
2023-03-15 22:00:29:367,0,-3.52117,-4.17892,-19.0421,Q,Q
2023-03-15 22:00:29:377,0,-3.5194,-4.1789,-19.0406,Q,Q
2023-03-15 22:00:29:387,0,-3.51315,-4.17782,-19.0387,Q,Q
2023-03-15 22:00:29:397,0,-3.50905,-4.17318,-19.0383,Q,Q
2023-03-15 22:00:29:407,0,-3.50466,-4.16566,-19.0374,Q,Q
2023-03-15 22:00:29:417,0,-3.50521,-4.16173,-19.0382,Q,Q
2023-03-15 22:00:29:427,0,-3.50262,-4.16078,-19.0401,Q,Q
2023-03-15 22:00:29:437,0,-3.4987,-4.15458,-19.0411,Q,Q
2023-03-15 22:00:29:447,0,-3.49157,-4.15353,-19.0441,Q,Q
2023-03-15 22:00:29:457,0,-3.48908,-4.15243,-19.054,Q,Q
2023-03-15 22:00:29:467,0,-3.48775,-4.1506,-19.0655,Q,Q
2023-03-15 22:00:29:477,0,-3.4854,-4.14482,-19.0745,Q,Q
2023-03-15 22:00:29:487,0,-3.47755,-4.1432,-19.0816,Q,Q
2023-03-15 22:00:29:497,0,-3.47019,-4.14157,-19.0902,Q,Q
2023-03-15 22:00:29:507,0,-3.46285,-4.14312,-19.0982,Q,Q
2023-03-15 22:00:29:518,0,-3.45542,-4.1399,-19.1033,Q,Q
2023-03-15 22:00:29:527,0,-3.45395,-4.13352,-19.1064,Q,Q
2023-03-15 22:00:29:538,0,-3.44739,-4.133,-19.1044,Q,Q
2023-03-15 22:00:29:547,0,-3.44703,-4.13174,-19.1003,Q,Q
2023-03-15 22:00:29:557,0,-3.44635,-4.12668,-19.0958,Q,Q
2023-03-15 22:00:29:567,0,-3.44694,-4.12461,-19.0869,Q,Q
2023-03-15 22:00:29:577,0,-3.4484,-4.11726,-19.0767,Q,Q
2023-03-15 22:00:29:587,0,-3.44797,-4.10884,-19.0655,Q,Q
2023-03-15 22:00:29:597,0,-3.44555,-4.10103,-19.0566,Q,Q
2023-03-15 22:00:29:607,0,-3.4427,-4.09091,-19.0502,Q,Q
2023-03-15 22:00:29:617,0,-3.43457,-4.07978,-19.0399,Q,Q
2023-03-15 22:00:29:627,0,-3.42538,-4.06711,-19.0326,Q,Q
2023-03-15 22:00:29:637,0,-3.41881,-4.05694,-19.0302,Q,Q
2023-03-15 22:00:29:647,0,-3.41081,-4.04645,-19.0335,Q,Q
2023-03-15 22:00:29:658,0,-3.40065,-4.04134,-19.04,Q,Q
2023-03-15 22:00:29:667,0,-3.3937,-4.04395,-19.052,Q,Q
2023-03-15 22:00:29:678,0,-3.3872,-4.05275,-19.0643,Q,Q
2023-03-15 22:00:29:688,0,-3.38462,-4.06159,-19.0794,Q,Q
2023-03-15 22:00:29:697,0,-3.38868,-4.06596,-19.095,Q,Q
2023-03-15 22:00:29:708,0,-3.39631,-4.06948,-19.1144,Q,Q
2023-03-15 22:00:29:718,0,-3.40482,-4.0714,-19.1327,Q,Q
2023-03-15 22:00:29:728,0,-3.41331,-4.0737,-19.147,Q,Q
2023-03-15 22:00:29:738,0,-3.42769,-4.07469,-19.1572,Q,Q
2023-03-15 22:00:29:748,0,-3.44232,-4.07751,-19.1619,Q,Q
2023-03-15 22:00:29:758,0,-3.45946,-4.0791,-19.1668,Q,Q
2023-03-15 22:00:29:768,0,-3.47562,-4.08047,-19.1659,Q,Q
2023-03-15 22:00:29:778,0,-3.49206,-4.07913,-19.1664,Q,Q
2023-03-15 22:00:29:788,0,-3.51105,-4.08112,-19.1646,Q,Q
2023-03-15 22:00:29:798,0,-3.52752,-4.08381,-19.1638,Q,Q
2023-03-15 22:00:29:808,0,-3.53883,-4.08095,-19.1666,Q,Q
2023-03-15 22:00:29:818,0,-3.55342,-4.08515,-19.1743,Q,Q
2023-03-15 22:00:29:828,0,-3.56158,-4.08895,-19.1867,Q,Q
2023-03-15 22:00:29:838,0,-3.56804,-4.09245,-19.2027,Q,Q
2023-03-15 22:00:29:847,0,-3.56565,-4.09627,-19.2251,Q,Q
2023-03-15 22:00:29:858,0,-3.56046,-4.10449,-19.2482,Q,Q
2023-03-15 22:00:29:867,0,-3.55375,-4.10938,-19.2706,Q,Q
2023-03-15 22:00:29:878,0,-3.54508,-4.11237,-19.2933,Q,Q
2023-03-15 22:00:29:888,0,-3.53542,-4.114,-19.3178,Q,Q
2023-03-15 22:00:29:898,0,-3.52629,-4.11439,-19.3354,Q,Q
2023-03-15 22:00:29:908,0,-3.51711,-4.11482,-19.3503,Q,Q
2023-03-15 22:00:29:918,0,-3.5103,-4.11467,-19.362,Q,Q
2023-03-15 22:00:29:928,0,-3.50163,-4.11752,-19.3721,Q,Q
2023-03-15 22:00:29:938,0,-3.49414,-4.11663,-19.3773,Q,Q
2023-03-15 22:00:29:947,0,-3.48871,-4.10828,-19.3779,Q,Q
2023-03-15 22:00:29:957,0,-3.48565,-4.10207,-19.3813,Q,Q
2023-03-15 22:00:29:967,0,-3.4854,-4.09234,-19.3777,Q,Q
2023-03-15 22:00:29:977,0,-3.48609,-4.07988,-19.3782,Q,Q
2023-03-15 22:00:29:987,0,-3.48607,-4.06861,-19.3807,Q,Q
2023-03-15 22:00:29:997,0,-3.4875,-4.06053,-19.383,Q,Q
2023-03-15 22:00:30:7,0,-3.49132,-4.0553,-19.3803,Q,Q
2023-03-15 22:00:30:18,0,-3.49629,-4.04665,-19.3852,Q,Q
2023-03-15 22:00:30:27,0,-3.50271,-4.04038,-19.3912,Q,Q
2023-03-15 22:00:30:38,0,-3.50381,-4.03517,-19.3979,Q,Q
2023-03-15 22:00:30:47,0,-3.50365,-4.02943,-19.4053,Q,Q
2023-03-15 22:00:30:58,0,-3.50244,-4.02527,-19.4135,Q,Q
2023-03-15 22:00:30:67,0,-3.49778,-4.01907,-19.4214,Q,Q
2023-03-15 22:00:30:77,0,-3.4898,-4.0086,-19.4311,Q,Q
2023-03-15 22:00:30:87,0,-3.48441,-4.00153,-19.439,Q,Q
2023-03-15 22:00:30:97,0,-3.48062,-3.99735,-19.4437,Q,Q
2023-03-15 22:00:30:107,0,-3.48017,-3.98967,-19.4499,Q,Q
2023-03-15 22:00:30:117,0,-3.47552,-3.98429,-19.4533,Q,Q
2023-03-15 22:00:30:127,0,-3.47897,-3.9807,-19.4567,Q,Q
2023-03-15 22:00:30:137,0,-3.48054,-3.97972,-19.4591,Q,Q
2023-03-15 22:00:30:147,0,-3.4789,-3.97622,-19.4615,Q,Q
2023-03-15 22:00:30:157,0,-3.48395,-3.97454,-19.4595,Q,Q
2023-03-15 22:00:30:167,0,-3.48808,-3.97122,-19.4568,Q,Q
2023-03-15 22:00:30:177,0,-3.48725,-3.96709,-19.4549,Q,Q
2023-03-15 22:00:30:187,0,-3.4848,-3.96343,-19.4536,Q,Q
2023-03-15 22:00:30:197,0,-3.48108,-3.96158,-19.4497,Q,Q
2023-03-15 22:00:30:207,0,-3.47716,-3.96022,-19.4508,Q,Q
2023-03-15 22:00:30:217,0,-3.47509,-3.96029,-19.4513,Q,Q
2023-03-15 22:00:30:227,0,-3.47055,-3.95684,-19.452,Q,Q
2023-03-15 22:00:30:237,0,-3.46856,-3.95783,-19.455,Q,Q
2023-03-15 22:00:30:247,0,-3.46605,-3.95738,-19.4619,Q,Q
2023-03-15 22:00:30:257,0,-3.46273,-3.95572,-19.466,Q,Q
2023-03-15 22:00:30:267,0,-3.45807,-3.95486,-19.472,Q,Q
2023-03-15 22:00:30:277,0,-3.45465,-3.95227,-19.4803,Q,Q
2023-03-15 22:00:30:287,0,-3.45064,-3.95057,-19.4874,Q,Q
2023-03-15 22:00:30:297,0,-3.44678,-3.9481,-19.4933,Q,Q
2023-03-15 22:00:30:307,0,-3.44092,-3.94872,-19.5007,Q,Q
2023-03-15 22:00:30:317,0,-3.43811,-3.95188,-19.5053,Q,Q
2023-03-15 22:00:30:327,0,-3.43248,-3.95176,-19.5086,Q,Q
2023-03-15 22:00:30:337,0,-3.42744,-3.95173,-19.5123,Q,Q
2023-03-15 22:00:30:347,0,-3.42389,-3.95142,-19.5152,Q,Q
2023-03-15 22:00:30:357,0,-3.41764,-3.9518,-19.5149,Q,Q
2023-03-15 22:00:30:367,0,-3.41217,-3.94971,-19.516,Q,Q
2023-03-15 22:00:30:377,0,-3.40349,-3.94789,-19.5118,Q,Q
2023-03-15 22:00:30:387,0,-3.39554,-3.94772,-19.5122,Q,Q
2023-03-15 22:00:30:397,0,-3.38885,-3.94417,-19.5105,Q,Q
2023-03-15 22:00:30:407,0,-3.38323,-3.93946,-19.5129,Q,Q
2023-03-15 22:00:30:417,0,-3.38267,-3.93724,-19.5162,Q,Q
2023-03-15 22:00:30:427,0,-3.38207,-3.93129,-19.5211,Q,Q
2023-03-15 22:00:30:437,0,-3.38162,-3.92336,-19.5269,Q,Q
2023-03-15 22:00:30:447,0,-3.38248,-3.92652,-19.5337,Q,Q
2023-03-15 22:00:30:457,0,-3.38326,-3.93006,-19.5452,Q,Q
2023-03-15 22:00:30:467,0,-3.38553,-3.93363,-19.5546,Q,Q
2023-03-15 22:00:30:477,0,-3.38728,-3.93978,-19.5634,Q,Q
2023-03-15 22:00:30:487,0,-3.39349,-3.94723,-19.5732,Q,Q
2023-03-15 22:00:30:497,0,-3.40051,-3.95141,-19.5848,Q,Q
2023-03-15 22:00:30:507,0,-3.40941,-3.95585,-19.5903,Q,Q
2023-03-15 22:00:30:517,0,-3.42348,-3.95967,-19.5899,Q,Q
2023-03-15 22:00:30:527,0,-3.435,-3.96222,-19.5907,Q,Q
2023-03-15 22:00:30:537,0,-3.45142,-3.96504,-19.5866,Q,Q
2023-03-15 22:00:30:547,0,-3.46695,-3.9671,-19.5836,Q,Q
2023-03-15 22:00:30:557,0,-3.48005,-3.97153,-19.5827,Q,Q
2023-03-15 22:00:30:567,0,-3.49119,-3.9741,-19.5841,Q,Q
2023-03-15 22:00:30:577,0,-3.50332,-3.97568,-19.5877,Q,Q
2023-03-15 22:00:30:587,0,-3.50907,-3.97762,-19.5958,Q,Q
2023-03-15 22:00:30:597,0,-3.51504,-3.97839,-19.6069,Q,Q
2023-03-15 22:00:30:607,0,-3.51537,-3.9839,-19.622,Q,Q
2023-03-15 22:00:30:617,0,-3.51404,-3.98681,-19.6359,Q,Q
2023-03-15 22:00:30:627,0,-3.51336,-3.99136,-19.6522,Q,Q
2023-03-15 22:00:30:637,0,-3.51349,-3.99633,-19.6711,Q,Q
2023-03-15 22:00:30:647,0,-3.51715,-3.99929,-19.6829,Q,Q
2023-03-15 22:00:30:657,0,-3.52551,-4.00227,-19.6972,Q,Q
2023-03-15 22:00:30:667,0,-3.53673,-4.00508,-19.7102,Q,Q
2023-03-15 22:00:30:677,0,-3.55122,-4.0033,-19.7189,Q,Q
2023-03-15 22:00:30:687,0,-3.56276,-4.00621,-19.7291,Q,Q
2023-03-15 22:00:30:697,0,-3.5738,-4.00653,-19.7328,Q,Q
2023-03-15 22:00:30:707,0,-3.58459,-4.01202,-19.7368,Q,Q
2023-03-15 22:00:30:717,0,-3.59358,-4.01427,-19.7391,Q,Q
2023-03-15 22:00:30:727,0,-3.60311,-4.01785,-19.7448,Q,Q
2023-03-15 22:00:30:737,0,-3.61479,-4.02031,-19.7481,Q,Q
2023-03-15 22:00:30:747,0,-3.6229,-4.01899,-19.7575,Q,Q
2023-03-15 22:00:30:757,0,-3.62664,-4.01707,-19.7656,Q,Q
2023-03-15 22:00:30:767,0,-3.62501,-4.01195,-19.7718,Q,Q
2023-03-15 22:00:30:777,0,-3.61564,-4.00752,-19.7797,Q,Q
2023-03-15 22:00:30:787,0,-3.6018,-4.00156,-19.7893,Q,Q
2023-03-15 22:00:30:797,0,-3.58485,-3.9951,-19.7948,Q,Q
2023-03-15 22:00:30:807,0,-3.56217,-3.98852,-19.8011,Q,Q
2023-03-15 22:00:30:817,0,-3.53647,-3.97713,-19.8044,Q,Q
2023-03-15 22:00:30:827,0,-3.51164,-3.97013,-19.8067,Q,Q
2023-03-15 22:00:30:837,0,-3.48876,-3.96727,-19.8105,Q,Q
2023-03-15 22:00:30:847,0,-3.46607,-3.96481,-19.8146,Q,Q
2023-03-15 22:00:30:857,0,-3.45109,-3.96275,-19.8145,Q,Q
2023-03-15 22:00:30:867,0,-3.43739,-3.96286,-19.8141,Q,Q
2023-03-15 22:00:30:877,0,-3.43018,-3.96465,-19.813,Q,Q
2023-03-15 22:00:30:887,0,-3.42768,-3.97129,-19.8032,Q,Q
2023-03-15 22:00:30:897,0,-3.4298,-3.97591,-19.7927,Q,Q
2023-03-15 22:00:30:907,0,-3.43605,-3.98608,-19.7835,Q,Q
2023-03-15 22:00:30:917,0,-3.44461,-3.9964,-19.7705,Q,Q
2023-03-15 22:00:30:927,0,-3.45619,-4.00626,-19.7581,Q,Q
2023-03-15 22:00:30:937,0,-3.46794,-4.00944,-19.7453,Q,Q
2023-03-15 22:00:30:947,0,-3.48389,-4.01564,-19.7307,Q,Q
2023-03-15 22:00:30:957,0,-3.50392,-4.02462,-19.7156,Q,Q
2023-03-15 22:00:30:967,0,-3.52434,-4.02856,-19.7031,Q,Q
2023-03-15 22:00:30:977,0,-3.54907,-4.03547,-19.6873,Q,Q
2023-03-15 22:00:30:987,0,-3.57336,-4.04292,-19.6778,Q,Q
2023-03-15 22:00:30:997,0,-3.59872,-4.05035,-19.6695,Q,Q
2023-03-15 22:00:31:7,0,-3.6197,-4.05975,-19.6648,Q,Q
2023-03-15 22:00:31:17,0,-3.63639,-4.06372,-19.6611,Q,Q
2023-03-15 22:00:31:27,0,-3.65063,-4.06754,-19.6633,Q,Q
2023-03-15 22:00:31:37,0,-3.65897,-4.07158,-19.668,Q,Q
2023-03-15 22:00:31:47,0,-3.66404,-4.07529,-19.6729,Q,Q
2023-03-15 22:00:31:58,0,-3.66957,-4.0813,-19.6776,Q,Q
2023-03-15 22:00:31:67,0,-3.67525,-4.08756,-19.6829,Q,Q
2023-03-15 22:00:31:77,0,-3.6832,-4.09452,-19.6921,Q,Q
2023-03-15 22:00:31:88,0,-3.69403,-4.10064,-19.6994,Q,Q
2023-03-15 22:00:31:98,0,-3.70495,-4.10514,-19.7041,Q,Q
2023-03-15 22:00:31:108,0,-3.72098,-4.10721,-19.7083,Q,Q
2023-03-15 22:00:31:118,0,-3.73367,-4.11097,-19.7106,Q,Q
2023-03-15 22:00:31:128,0,-3.74714,-4.11258,-19.7079,Q,Q
2023-03-15 22:00:31:138,0,-3.75667,-4.11044,-19.7082,Q,Q
2023-03-15 22:00:31:148,0,-3.7636,-4.11051,-19.7057,Q,Q
2023-03-15 22:00:31:158,0,-3.76851,-4.11417,-19.7054,Q,Q
2023-03-15 22:00:31:167,0,-3.76932,-4.11003,-19.7032,Q,Q
2023-03-15 22:00:31:178,0,-3.772,-4.10539,-19.7046,Q,Q
2023-03-15 22:00:31:187,0,-3.77119,-4.09708,-19.706,Q,Q
2023-03-15 22:00:31:197,0,-3.77184,-4.09015,-19.7115,Q,Q
2023-03-15 22:00:31:207,0,-3.76628,-4.08408,-19.7149,Q,Q
2023-03-15 22:00:31:217,0,-3.75812,-4.07872,-19.7244,Q,Q
2023-03-15 22:00:31:227,0,-3.74984,-4.07493,-19.731,Q,Q
2023-03-15 22:00:31:237,0,-3.7398,-4.07477,-19.7459,Q,Q
2023-03-15 22:00:31:247,0,-3.7327,-4.07403,-19.7583,Q,Q
2023-03-15 22:00:31:258,0,-3.72845,-4.06962,-19.7694,Q,Q
2023-03-15 22:00:31:268,0,-3.72591,-4.06596,-19.7842,Q,Q
2023-03-15 22:00:31:278,0,-3.7266,-4.05645,-19.7956,Q,Q
2023-03-15 22:00:31:288,0,-3.72491,-4.04817,-19.8063,Q,Q
2023-03-15 22:00:31:298,0,-3.72455,-4.04362,-19.818,Q,Q
2023-03-15 22:00:31:308,0,-3.71908,-4.03685,-19.8279,Q,Q
2023-03-15 22:00:31:318,0,-3.71393,-4.02796,-19.8374,Q,Q
2023-03-15 22:00:31:328,0,-3.71061,-4.01894,-19.8426,Q,Q
2023-03-15 22:00:31:338,0,-3.70671,-4.01258,-19.8504,Q,Q
2023-03-15 22:00:31:348,0,-3.69863,-4.00573,-19.8571,Q,Q
2023-03-15 22:00:31:358,0,-3.69036,-3.99925,-19.8652,Q,Q
2023-03-15 22:00:31:368,0,-3.68276,-3.9907,-19.8761,Q,Q
2023-03-15 22:00:31:378,0,-3.67094,-3.9856,-19.8874,Q,Q
2023-03-15 22:00:31:388,0,-3.65469,-3.97753,-19.8969,Q,Q
2023-03-15 22:00:31:397,0,-3.6376,-3.9763,-19.9049,Q,Q
2023-03-15 22:00:31:407,0,-3.62295,-3.97368,-19.912,Q,Q
2023-03-15 22:00:31:417,0,-3.60392,-3.96968,-19.9202,Q,Q
2023-03-15 22:00:31:428,0,-3.58334,-3.96385,-19.9286,Q,Q
2023-03-15 22:00:31:438,0,-3.56328,-3.95922,-19.9376,Q,Q
2023-03-15 22:00:31:448,0,-3.54013,-3.95319,-19.9415,Q,Q
2023-03-15 22:00:31:458,0,-3.52217,-3.94612,-19.9492,Q,Q
2023-03-15 22:00:31:468,0,-3.50258,-3.94371,-19.9546,Q,Q
2023-03-15 22:00:31:478,0,-3.48445,-3.93998,-19.9588,Q,Q
2023-03-15 22:00:31:488,0,-3.46149,-3.93566,-19.9625,Q,Q
2023-03-15 22:00:31:498,0,-3.44576,-3.93462,-19.9671,Q,Q
2023-03-15 22:00:31:508,0,-3.42859,-3.93541,-19.9697,Q,Q
2023-03-15 22:00:31:518,0,-3.41584,-3.9342,-19.9715,Q,Q
2023-03-15 22:00:31:528,0,-3.40234,-3.93089,-19.9698,Q,Q
2023-03-15 22:00:31:538,0,-3.38766,-3.93025,-19.9653,Q,Q
2023-03-15 22:00:31:548,0,-3.3785,-3.93292,-19.9607,Q,Q
2023-03-15 22:00:31:558,0,-3.37186,-3.93698,-19.9535,Q,Q
2023-03-15 22:00:31:568,0,-3.36285,-3.94054,-19.9496,Q,Q
2023-03-15 22:00:31:578,0,-3.3544,-3.94563,-19.9424,Q,Q
2023-03-15 22:00:31:588,0,-3.34307,-3.95127,-19.9352,Q,Q
2023-03-15 22:00:31:598,0,-3.33437,-3.9584,-19.9201,Q,Q
2023-03-15 22:00:31:608,0,-3.325,-3.96387,-19.9103,Q,Q
2023-03-15 22:00:31:618,0,-3.31778,-3.96971,-19.8985,Q,Q
2023-03-15 22:00:31:628,0,-3.31259,-3.97746,-19.8908,Q,Q
2023-03-15 22:00:31:638,0,-3.3079,-3.98164,-19.8794,Q,Q
2023-03-15 22:00:31:648,0,-3.3052,-3.98949,-19.8713,Q,Q
2023-03-15 22:00:31:658,0,-3.30881,-3.99554,-19.8594,Q,Q
2023-03-15 22:00:31:668,0,-3.30943,-4.00369,-19.8518,Q,Q
2023-03-15 22:00:31:678,0,-3.3115,-4.00725,-19.8459,Q,Q
2023-03-15 22:00:31:688,0,-3.31495,-4.01067,-19.8361,Q,Q
2023-03-15 22:00:31:698,0,-3.32246,-4.01161,-19.8325,Q,Q
2023-03-15 22:00:31:708,0,-3.32644,-4.0136,-19.8327,Q,Q
2023-03-15 22:00:31:718,0,-3.33336,-4.01242,-19.8315,Q,Q
2023-03-15 22:00:31:728,0,-3.33667,-4.00887,-19.8323,Q,Q
2023-03-15 22:00:31:738,0,-3.34036,-4.00969,-19.8348,Q,Q
2023-03-15 22:00:31:748,0,-3.34095,-4.01022,-19.8416,Q,Q
2023-03-15 22:00:31:758,0,-3.3419,-4.00844,-19.8497,Q,Q
2023-03-15 22:00:31:768,0,-3.34113,-4.00384,-19.8579,Q,Q
2023-03-15 22:00:31:778,0,-3.34422,-3.99874,-19.8681,Q,Q
2023-03-15 22:00:31:788,0,-3.3445,-3.99561,-19.8819,Q,Q
2023-03-15 22:00:31:798,0,-3.34514,-3.98928,-19.8896,Q,Q
2023-03-15 22:00:31:808,0,-3.34825,-3.98107,-19.901,Q,Q
2023-03-15 22:00:31:818,0,-3.34993,-3.97014,-19.9108,Q,Q
2023-03-15 22:00:31:828,0,-3.34923,-3.96264,-19.9227,Q,Q
2023-03-15 22:00:31:838,0,-3.34883,-3.95087,-19.9318,Q,Q
2023-03-15 22:00:31:848,0,-3.3484,-3.94092,-19.9405,Q,Q
2023-03-15 22:00:31:858,0,-3.3406,-3.93109,-19.948,Q,Q
2023-03-15 22:00:31:868,0,-3.33735,-3.91903,-19.9516,Q,Q
2023-03-15 22:00:31:878,0,-3.3349,-3.90742,-19.9583,Q,Q
2023-03-15 22:00:31:888,0,-3.33229,-3.89325,-19.9626,Q,Q
2023-03-15 22:00:31:898,0,-3.32907,-3.88758,-19.9674,Q,Q
2023-03-15 22:00:31:908,0,-3.32622,-3.88282,-19.9709,Q,Q
2023-03-15 22:00:31:918,0,-3.3223,-3.8845,-19.9715,Q,Q
2023-03-15 22:00:31:928,0,-3.32355,-3.88717,-19.9711,Q,Q
2023-03-15 22:00:31:938,0,-3.32555,-3.89143,-19.9692,Q,Q
2023-03-15 22:00:31:948,0,-3.33185,-3.89123,-19.9722,Q,Q
2023-03-15 22:00:31:958,0,-3.34243,-3.89025,-19.9712,Q,Q
2023-03-15 22:00:31:968,0,-3.35671,-3.88897,-19.9681,Q,Q
2023-03-15 22:00:31:978,0,-3.37552,-3.88492,-19.9632,Q,Q
2023-03-15 22:00:31:988,0,-3.39186,-3.88473,-19.9595,Q,Q
2023-03-15 22:00:31:998,0,-3.4063,-3.88096,-19.9559,Q,Q
2023-03-15 22:00:32:8,0,-3.41809,-3.87941,-19.952,Q,Q
2023-03-15 22:00:32:18,0,-3.42542,-3.87558,-19.9463,Q,Q
2023-03-15 22:00:32:28,0,-3.43436,-3.87466,-19.9423,Q,Q
2023-03-15 22:00:32:38,0,-3.43806,-3.87333,-19.9416,Q,Q
2023-03-15 22:00:32:48,0,-3.44253,-3.8726,-19.9421,Q,Q
2023-03-15 22:00:32:58,0,-3.44671,-3.86765,-19.9423,Q,Q
2023-03-15 22:00:32:68,0,-3.44846,-3.86966,-19.9492,Q,Q
2023-03-15 22:00:32:78,0,-3.44933,-3.86765,-19.957,Q,Q
2023-03-15 22:00:32:87,0,-3.44908,-3.87003,-19.9624,Q,Q
2023-03-15 22:00:32:97,0,-3.44913,-3.8708,-19.9731,Q,Q
2023-03-15 22:00:32:108,0,-3.44568,-3.87317,-19.9833,Q,Q
2023-03-15 22:00:32:118,0,-3.44506,-3.87457,-19.9943,Q,Q
2023-03-15 22:00:32:128,0,-3.44273,-3.87384,-20.0044,Q,Q
2023-03-15 22:00:32:138,0,-3.43972,-3.87359,-20.0125,Q,Q
2023-03-15 22:00:32:148,0,-3.44047,-3.87513,-20.0188,Q,Q
2023-03-15 22:00:32:158,0,-3.43585,-3.88263,-20.0202,Q,Q
2023-03-15 22:00:32:168,0,-3.42973,-3.88752,-20.0207,Q,Q
2023-03-15 22:00:32:178,0,-3.42392,-3.89154,-20.0232,Q,Q
2023-03-15 22:00:32:188,0,-3.42106,-3.89645,-20.0205,Q,Q
2023-03-15 22:00:32:198,0,-3.41685,-3.89925,-20.0145,Q,Q
2023-03-15 22:00:32:208,0,-3.4129,-3.90357,-20.0064,Q,Q
2023-03-15 22:00:32:218,0,-3.40326,-3.90606,-20.0003,Q,Q
2023-03-15 22:00:32:228,0,-3.39603,-3.90786,-19.9917,Q,Q
2023-03-15 22:00:32:238,0,-3.38579,-3.90998,-19.9897,Q,Q
2023-03-15 22:00:32:248,0,-3.37744,-3.91202,-19.9806,Q,Q
2023-03-15 22:00:32:258,0,-3.36598,-3.91362,-19.9792,Q,Q
2023-03-15 22:00:32:268,0,-3.35286,-3.91706,-19.9812,Q,Q
2023-03-15 22:00:32:278,0,-3.33867,-3.9233,-19.9846,Q,Q
2023-03-15 22:00:32:288,0,-3.32189,-3.92951,-19.9877,Q,Q
2023-03-15 22:00:32:298,0,-3.30661,-3.93363,-19.9942,Q,Q
2023-03-15 22:00:32:308,0,-3.28626,-3.93732,-19.9973,Q,Q
2023-03-15 22:00:32:318,0,-3.27165,-3.94034,-20.0008,Q,Q
2023-03-15 22:00:32:328,0,-3.25839,-3.94279,-20.0019,Q,Q
2023-03-15 22:00:32:338,0,-3.24952,-3.94973,-20.0028,Q,Q
2023-03-15 22:00:32:348,0,-3.24054,-3.95236,-19.9989,Q,Q
2023-03-15 22:00:32:358,0,-3.23907,-3.96239,-19.9921,Q,Q
2023-03-15 22:00:32:368,0,-3.23587,-3.96435,-19.9899,Q,Q
2023-03-15 22:00:32:378,0,-3.23231,-3.96699,-19.984,Q,Q
2023-03-15 22:00:32:388,0,-3.23145,-3.97476,-19.9754,Q,Q
2023-03-15 22:00:32:398,0,-3.22851,-3.98147,-19.964,Q,Q
2023-03-15 22:00:32:408,0,-3.22905,-3.99062,-19.9532,Q,Q
2023-03-15 22:00:32:418,0,-3.22653,-3.99631,-19.9427,Q,Q
2023-03-15 22:00:32:428,0,-3.22587,-4.00343,-19.931,Q,Q
2023-03-15 22:00:32:438,0,-3.22403,-4.01297,-19.9263,Q,Q
2023-03-15 22:00:32:448,0,-3.22254,-4.01912,-19.9191,Q,Q
2023-03-15 22:00:32:458,0,-3.22143,-4.02386,-19.9124,Q,Q
2023-03-15 22:00:32:468,0,-3.22059,-4.03081,-19.9107,Q,Q
2023-03-15 22:00:32:478,0,-3.21885,-4.03642,-19.908,Q,Q
2023-03-15 22:00:32:488,0,-3.2169,-4.04519,-19.9087,Q,Q
2023-03-15 22:00:32:498,0,-3.21173,-4.05142,-19.9075,Q,Q
2023-03-15 22:00:32:508,0,-3.20639,-4.05914,-19.9072,Q,Q
2023-03-15 22:00:32:518,0,-3.20406,-4.06604,-19.9089,Q,Q
2023-03-15 22:00:32:528,0,-3.20161,-4.07067,-19.908,Q,Q
2023-03-15 22:00:32:538,0,-3.19811,-4.07671,-19.9059,Q,Q
2023-03-15 22:00:32:548,0,-3.19457,-4.08249,-19.9046,Q,Q
2023-03-15 22:00:32:558,0,-3.19816,-4.08718,-19.9,Q,Q
2023-03-15 22:00:32:568,0,-3.1953,-4.09135,-19.8967,Q,Q
2023-03-15 22:00:32:578,0,-3.19484,-4.09523,-19.8946,Q,Q
2023-03-15 22:00:32:588,0,-3.19445,-4.09654,-19.8885,Q,Q
2023-03-15 22:00:32:598,0,-3.19569,-4.09579,-19.8824,Q,Q
2023-03-15 22:00:32:608,0,-3.19358,-4.09513,-19.8791,Q,Q
2023-03-15 22:00:32:618,0,-3.19412,-4.0874,-19.8792,Q,Q
2023-03-15 22:00:32:627,0,-3.19257,-4.08056,-19.8786,Q,Q
2023-03-15 22:00:32:638,0,-3.18793,-4.0713,-19.879,Q,Q
2023-03-15 22:00:32:648,0,-3.18624,-4.06249,-19.8837,Q,Q
2023-03-15 22:00:32:658,0,-3.18135,-4.05518,-19.8854,Q,Q
2023-03-15 22:00:32:668,0,-3.17822,-4.05758,-19.8879,Q,Q
2023-03-15 22:00:32:678,0,-3.17671,-4.06162,-19.8934,Q,Q
2023-03-15 22:00:32:688,0,-3.17668,-4.06819,-19.8974,Q,Q
2023-03-15 22:00:32:698,0,-3.17695,-4.07551,-19.9026,Q,Q
2023-03-15 22:00:32:708,0,-3.17852,-4.07804,-19.9015,Q,Q
2023-03-15 22:00:32:718,0,-3.18639,-4.0795,-19.9016,Q,Q
2023-03-15 22:00:32:728,0,-3.19618,-4.08023,-19.8986,Q,Q
2023-03-15 22:00:32:738,0,-3.20408,-4.08125,-19.8935,Q,Q
2023-03-15 22:00:32:748,0,-3.21193,-4.08142,-19.8842,Q,Q
2023-03-15 22:00:32:758,0,-3.22068,-4.07925,-19.8747,Q,Q
2023-03-15 22:00:32:768,0,-3.23084,-4.07316,-19.8713,Q,Q
2023-03-15 22:00:32:778,0,-3.24264,-4.06779,-19.8703,Q,Q
2023-03-15 22:00:32:788,0,-3.25066,-4.06509,-19.8702,Q,Q
2023-03-15 22:00:32:798,0,-3.25346,-4.05744,-19.8727,Q,Q
2023-03-15 22:00:32:808,0,-3.25753,-4.05191,-19.8803,Q,Q
2023-03-15 22:00:32:818,0,-3.2598,-4.0473,-19.8878,Q,Q
2023-03-15 22:00:32:828,0,-3.26316,-4.04196,-19.9004,Q,Q
2023-03-15 22:00:32:838,0,-3.26711,-4.03882,-19.9179,Q,Q
2023-03-15 22:00:32:848,0,-3.27065,-4.03381,-19.9363,Q,Q
2023-03-15 22:00:32:858,0,-3.27223,-4.03102,-19.9526,Q,Q
2023-03-15 22:00:32:868,0,-3.27262,-4.02767,-19.9679,Q,Q
2023-03-15 22:00:32:878,0,-3.27509,-4.02195,-19.9816,Q,Q
2023-03-15 22:00:32:888,0,-3.27989,-4.01335,-19.9956,Q,Q
2023-03-15 22:00:32:898,0,-3.2814,-4.00623,-20.0032,Q,Q
2023-03-15 22:00:32:908,0,-3.28574,-4.00007,-20.0072,Q,Q
2023-03-15 22:00:32:918,0,-3.28749,-3.99608,-20.0111,Q,Q
2023-03-15 22:00:32:928,0,-3.29052,-3.99352,-20.0119,Q,Q
2023-03-15 22:00:32:938,0,-3.29387,-3.9941,-20.012,Q,Q
2023-03-15 22:00:32:948,0,-3.297,-3.98885,-20.0134,Q,Q
2023-03-15 22:00:32:958,0,-3.29856,-3.98262,-20.0153,Q,Q
2023-03-15 22:00:32:968,0,-3.30245,-3.97631,-20.0118,Q,Q
2023-03-15 22:00:32:978,0,-3.30177,-3.97494,-20.0081,Q,Q
2023-03-15 22:00:32:988,0,-3.30361,-3.97092,-20.0014,Q,Q
2023-03-15 22:00:32:998,0,-3.30257,-3.96841,-19.9926,Q,Q
2023-03-15 22:00:33:8,0,-3.29992,-3.96714,-19.9839,Q,Q
2023-03-15 22:00:33:18,0,-3.29682,-3.96355,-19.9782,Q,Q
2023-03-15 22:00:33:28,0,-3.28656,-3.96123,-19.9731,Q,Q
2023-03-15 22:00:33:38,0,-3.27975,-3.96177,-19.9657,Q,Q
2023-03-15 22:00:33:48,0,-3.26798,-3.96215,-19.9595,Q,Q
2023-03-15 22:00:33:58,0,-3.25874,-3.96335,-19.9511,Q,Q
2023-03-15 22:00:33:68,0,-3.24574,-3.96855,-19.9419,Q,Q
2023-03-15 22:00:33:78,0,-3.23775,-3.96904,-19.9305,Q,Q
2023-03-15 22:00:33:88,0,-3.22874,-3.97407,-19.9173,Q,Q
2023-03-15 22:00:33:98,0,-3.22435,-3.97551,-19.9025,Q,Q
2023-03-15 22:00:33:108,0,-3.22262,-3.97358,-19.8893,Q,Q
2023-03-15 22:00:33:118,0,-3.22452,-3.97583,-19.8773,Q,Q
2023-03-15 22:00:33:128,0,-3.2287,-3.97311,-19.8662,Q,Q
2023-03-15 22:00:33:138,0,-3.23694,-3.96937,-19.8548,Q,Q
2023-03-15 22:00:33:148,0,-3.24662,-3.9687,-19.8471,Q,Q
2023-03-15 22:00:33:158,0,-3.25337,-3.96912,-19.8383,Q,Q
2023-03-15 22:00:33:168,0,-3.25802,-3.96859,-19.8336,Q,Q
2023-03-15 22:00:33:178,0,-3.26169,-3.96398,-19.8341,Q,Q
2023-03-15 22:00:33:188,0,-3.26699,-3.96309,-19.8403,Q,Q
2023-03-15 22:00:33:198,0,-3.26676,-3.96125,-19.8474,Q,Q
2023-03-15 22:00:33:208,0,-3.26859,-3.95638,-19.8542,Q,Q
2023-03-15 22:00:33:218,0,-3.27126,-3.95404,-19.8631,Q,Q
2023-03-15 22:00:33:228,0,-3.26715,-3.95033,-19.8731,Q,Q
2023-03-15 22:00:33:238,0,-3.2635,-3.94746,-19.8817,Q,Q
2023-03-15 22:00:33:248,0,-3.26021,-3.94309,-19.8927,Q,Q
2023-03-15 22:00:33:258,0,-3.25359,-3.94051,-19.905,Q,Q
2023-03-15 22:00:33:268,0,-3.25131,-3.93728,-19.9168,Q,Q
2023-03-15 22:00:33:278,0,-3.24795,-3.93204,-19.925,Q,Q
2023-03-15 22:00:33:288,0,-3.24308,-3.92935,-19.9344,Q,Q
2023-03-15 22:00:33:298,0,-3.23533,-3.92379,-19.9388,Q,Q
2023-03-15 22:00:33:308,0,-3.22815,-3.91982,-19.9427,Q,Q
2023-03-15 22:00:33:318,0,-3.2242,-3.91606,-19.9383,Q,Q
2023-03-15 22:00:33:328,0,-3.21884,-3.91275,-19.9409,Q,Q
2023-03-15 22:00:33:338,0,-3.21595,-3.91264,-19.9426,Q,Q
2023-03-15 22:00:33:348,0,-3.21293,-3.9102,-19.943,Q,Q
2023-03-15 22:00:33:358,0,-3.21142,-3.90503,-19.9457,Q,Q
2023-03-15 22:00:33:368,0,-3.2105,-3.90045,-19.9477,Q,Q
2023-03-15 22:00:33:378,0,-3.21288,-3.8975,-19.9485,Q,Q
2023-03-15 22:00:33:388,0,-3.21298,-3.89534,-19.9512,Q,Q
2023-03-15 22:00:33:398,0,-3.21526,-3.89714,-19.9528,Q,Q
2023-03-15 22:00:33:408,0,-3.21882,-3.90659,-19.9526,Q,Q
2023-03-15 22:00:33:418,0,-3.22719,-3.91677,-19.9548,Q,Q
2023-03-15 22:00:33:428,0,-3.23886,-3.92547,-19.9553,Q,Q
2023-03-15 22:00:33:438,0,-3.25864,-3.93232,-19.9618,Q,Q
2023-03-15 22:00:33:448,0,-3.27833,-3.93797,-19.9645,Q,Q
2023-03-15 22:00:33:458,0,-3.29556,-3.93909,-19.9621,Q,Q
2023-03-15 22:00:33:468,0,-3.31158,-3.93941,-19.9606,Q,Q
2023-03-15 22:00:33:478,0,-3.32967,-3.93772,-19.9571,Q,Q
2023-03-15 22:00:33:488,0,-3.34398,-3.93826,-19.9558,Q,Q
2023-03-15 22:00:33:498,0,-3.35174,-3.93259,-19.9588,Q,Q
2023-03-15 22:00:33:508,0,-3.3572,-3.9292,-19.9636,Q,Q
2023-03-15 22:00:33:518,0,-3.35918,-3.92092,-19.9649,Q,Q
2023-03-15 22:00:33:528,0,-3.35878,-3.91648,-19.9713,Q,Q
2023-03-15 22:00:33:538,0,-3.35657,-3.91484,-19.9815,Q,Q
2023-03-15 22:00:33:548,0,-3.35482,-3.91477,-19.9934,Q,Q
2023-03-15 22:00:33:558,0,-3.35038,-3.91181,-20.0053,Q,Q
2023-03-15 22:00:33:568,0,-3.34524,-3.91078,-20.0189,Q,Q
2023-03-15 22:00:33:578,0,-3.33999,-3.91149,-20.0294,Q,Q
2023-03-15 22:00:33:588,0,-3.33413,-3.90793,-20.0382,Q,Q
2023-03-15 22:00:33:598,0,-3.32705,-3.90316,-20.0496,Q,Q
2023-03-15 22:00:33:608,0,-3.31836,-3.89423,-20.0618,Q,Q
2023-03-15 22:00:33:618,0,-3.30813,-3.88734,-20.0692,Q,Q
2023-03-15 22:00:33:628,0,-3.29855,-3.88269,-20.0753,Q,Q
2023-03-15 22:00:33:638,0,-3.29021,-3.88319,-20.0807,Q,Q
2023-03-15 22:00:33:648,0,-3.27859,-3.88401,-20.0838,Q,Q
2023-03-15 22:00:33:658,0,-3.27186,-3.88891,-20.0843,Q,Q
2023-03-15 22:00:33:668,0,-3.26642,-3.89176,-20.0893,Q,Q
2023-03-15 22:00:33:678,0,-3.26041,-3.89233,-20.0931,Q,Q
2023-03-15 22:00:33:688,0,-3.25582,-3.89318,-20.0923,Q,Q
2023-03-15 22:00:33:698,0,-3.24998,-3.89622,-20.0892,Q,Q
2023-03-15 22:00:33:708,0,-3.24287,-3.89774,-20.0887,Q,Q
2023-03-15 22:00:33:718,0,-3.23013,-3.90247,-20.0829,Q,Q
2023-03-15 22:00:33:728,0,-3.21594,-3.90437,-20.0803,Q,Q
2023-03-15 22:00:33:738,0,-3.19763,-3.91111,-20.0755,Q,Q
2023-03-15 22:00:33:748,0,-3.17926,-3.91329,-20.0744,Q,Q
2023-03-15 22:00:33:758,0,-3.15614,-3.91704,-20.0676,Q,Q
2023-03-15 22:00:33:768,0,-3.13147,-3.92156,-20.0673,Q,Q
2023-03-15 22:00:33:778,0,-3.10914,-3.92454,-20.0662,Q,Q
2023-03-15 22:00:33:788,0,-3.08226,-3.93008,-20.0617,Q,Q
2023-03-15 22:00:33:798,0,-3.05868,-3.93638,-20.0575,Q,Q
2023-03-15 22:00:33:808,0,-3.0361,-3.948,-20.0546,Q,Q
2023-03-15 22:00:33:818,0,-3.01303,-3.95436,-20.0496,Q,Q
2023-03-15 22:00:33:828,0,-2.99007,-3.96101,-20.0412,Q,Q
2023-03-15 22:00:33:838,0,-2.97145,-3.97081,-20.0285,Q,Q
2023-03-15 22:00:33:848,0,-2.95824,-3.97793,-20.0207,Q,Q
2023-03-15 22:00:33:858,0,-2.94498,-3.98483,-20.0108,Q,Q
2023-03-15 22:00:33:868,0,-2.93768,-3.98794,-20.0005,Q,Q
2023-03-15 22:00:33:878,0,-2.93198,-3.9916,-19.9911,Q,Q
2023-03-15 22:00:33:888,0,-2.92407,-3.99681,-19.9818,Q,Q
2023-03-15 22:00:33:898,0,-2.91919,-4.00102,-19.9747,Q,Q
2023-03-15 22:00:33:908,0,-2.91683,-4.00481,-19.9685,Q,Q
2023-03-15 22:00:33:918,0,-2.91084,-4.01002,-19.9638,Q,Q
2023-03-15 22:00:33:928,0,-2.90628,-4.01399,-19.96,Q,Q
2023-03-15 22:00:33:938,0,-2.90207,-4.02029,-19.9593,Q,Q
2023-03-15 22:00:33:948,0,-2.89998,-4.02282,-19.9587,Q,Q
2023-03-15 22:00:33:958,0,-2.89456,-4.02682,-19.9571,Q,Q
2023-03-15 22:00:33:968,0,-2.88943,-4.03146,-19.9564,Q,Q
2023-03-15 22:00:33:978,0,-2.88772,-4.03658,-19.9579,Q,Q
2023-03-15 22:00:33:988,0,-2.89334,-4.04002,-19.9591,Q,Q
2023-03-15 22:00:33:998,0,-2.89407,-4.04048,-19.9591,Q,Q
2023-03-15 22:00:34:8,0,-2.89509,-4.04158,-19.9571,Q,Q
2023-03-15 22:00:34:18,0,-2.89418,-4.03753,-19.9567,Q,Q
2023-03-15 22:00:34:28,0,-2.88781,-4.03489,-19.9585,Q,Q
2023-03-15 22:00:34:38,0,-2.88024,-4.03434,-19.9597,Q,Q
2023-03-15 22:00:34:48,0,-2.87063,-4.03454,-19.9562,Q,Q
2023-03-15 22:00:34:58,0,-2.8629,-4.03109,-19.9546,Q,Q
2023-03-15 22:00:34:68,0,-2.85865,-4.0275,-19.9558,Q,Q
2023-03-15 22:00:34:78,0,-2.85363,-4.02437,-19.9564,Q,Q
2023-03-15 22:00:34:88,0,-2.84809,-4.01887,-19.9563,Q,Q
2023-03-15 22:00:34:98,0,-2.84379,-4.01759,-19.9537,Q,Q
2023-03-15 22:00:34:108,0,-2.83735,-4.02218,-19.9504,Q,Q
2023-03-15 22:00:34:118,0,-2.83151,-4.03036,-19.9486,Q,Q
2023-03-15 22:00:34:128,0,-2.82724,-4.03784,-19.9454,Q,Q
2023-03-15 22:00:34:138,0,-2.82516,-4.04631,-19.9435,Q,Q
2023-03-15 22:00:34:148,0,-2.82758,-4.05635,-19.9404,Q,Q
2023-03-15 22:00:34:158,0,-2.83003,-4.0638,-19.936,Q,Q
2023-03-15 22:00:34:168,0,-2.83849,-4.07479,-19.93,Q,Q
2023-03-15 22:00:34:178,0,-2.84819,-4.08676,-19.9206,Q,Q
2023-03-15 22:00:34:188,0,-2.86194,-4.09741,-19.9072,Q,Q
2023-03-15 22:00:34:198,0,-2.87249,-4.10883,-19.8999,Q,Q
2023-03-15 22:00:34:208,0,-2.88371,-4.12006,-19.8896,Q,Q
2023-03-15 22:00:34:218,0,-2.89718,-4.12733,-19.882,Q,Q
2023-03-15 22:00:34:228,0,-2.9091,-4.13865,-19.8772,Q,Q
2023-03-15 22:00:34:238,0,-2.91567,-4.14781,-19.8788,Q,Q
2023-03-15 22:00:34:248,0,-2.91814,-4.15631,-19.8845,Q,Q
2023-03-15 22:00:34:258,0,-2.92022,-4.16601,-19.8905,Q,Q
2023-03-15 22:00:34:268,0,-2.91657,-4.18044,-19.9041,Q,Q
2023-03-15 22:00:34:278,0,-2.91175,-4.19477,-19.919,Q,Q
2023-03-15 22:00:34:288,0,-2.90499,-4.20762,-19.9382,Q,Q
2023-03-15 22:00:34:298,0,-2.89792,-4.22091,-19.9571,Q,Q
2023-03-15 22:00:34:308,0,-2.89062,-4.23104,-19.9766,Q,Q
2023-03-15 22:00:34:318,0,-2.88552,-4.2358,-19.9932,Q,Q
2023-03-15 22:00:34:328,0,-2.87983,-4.23899,-20.0165,Q,Q
2023-03-15 22:00:34:338,0,-2.8797,-4.24501,-20.0367,Q,Q
2023-03-15 22:00:34:348,0,-2.87676,-4.24805,-20.053,Q,Q
2023-03-15 22:00:34:358,0,-2.87684,-4.25472,-20.0684,Q,Q
2023-03-15 22:00:34:368,0,-2.87504,-4.25736,-20.0813,Q,Q
2023-03-15 22:00:34:378,0,-2.87103,-4.26404,-20.0914,Q,Q
2023-03-15 22:00:34:388,0,-2.8683,-4.2621,-20.1019,Q,Q
2023-03-15 22:00:34:398,0,-2.86556,-4.26508,-20.1056,Q,Q
2023-03-15 22:00:34:408,0,-2.86618,-4.26489,-20.1052,Q,Q
2023-03-15 22:00:34:418,0,-2.86777,-4.26291,-20.1041,Q,Q
2023-03-15 22:00:34:428,0,-2.87152,-4.26416,-20.098,Q,Q
2023-03-15 22:00:34:438,0,-2.87576,-4.26667,-20.0914,Q,Q
2023-03-15 22:00:34:448,0,-2.87794,-4.27299,-20.0854,Q,Q
2023-03-15 22:00:34:458,0,-2.88308,-4.2752,-20.0777,Q,Q
2023-03-15 22:00:34:468,0,-2.88565,-4.27823,-20.0695,Q,Q
2023-03-15 22:00:34:478,0,-2.88689,-4.27909,-20.062,Q,Q
2023-03-15 22:00:34:488,0,-2.89165,-4.28284,-20.0598,Q,Q
2023-03-15 22:00:34:498,0,-2.89698,-4.2889,-20.0526,Q,Q
2023-03-15 22:00:34:508,0,-2.90098,-4.29349,-20.0439,Q,Q
2023-03-15 22:00:34:518,0,-2.90739,-4.29635,-20.0392,Q,Q
2023-03-15 22:00:34:528,0,-2.92089,-4.30353,-20.0349,Q,Q
2023-03-15 22:00:34:538,0,-2.93577,-4.31117,-20.0316,Q,Q
2023-03-15 22:00:34:548,0,-2.95021,-4.3182,-20.0239,Q,Q
2023-03-15 22:00:34:558,0,-2.97052,-4.3219,-20.0224,Q,Q
2023-03-15 22:00:34:568,0,-2.98932,-4.32707,-20.0174,Q,Q
2023-03-15 22:00:34:578,0,-3.01485,-4.33138,-20.0101,Q,Q
2023-03-15 22:00:34:588,0,-3.04079,-4.33298,-20.003,Q,Q
2023-03-15 22:00:34:598,0,-3.06913,-4.33862,-19.9999,Q,Q
2023-03-15 22:00:34:608,0,-3.09816,-4.34299,-19.9972,Q,Q
2023-03-15 22:00:34:618,0,-3.12427,-4.34238,-19.9992,Q,Q
2023-03-15 22:00:34:628,0,-3.15474,-4.34484,-19.9986,Q,Q
2023-03-15 22:00:34:638,0,-3.17621,-4.34091,-20.0028,Q,Q
2023-03-15 22:00:34:648,0,-3.19573,-4.34082,-20.0104,Q,Q
2023-03-15 22:00:34:658,0,-3.21216,-4.33726,-20.0223,Q,Q
2023-03-15 22:00:34:668,0,-3.22845,-4.33634,-20.0386,Q,Q
2023-03-15 22:00:34:678,0,-3.23828,-4.33014,-20.0585,Q,Q
2023-03-15 22:00:34:688,0,-3.24286,-4.32274,-20.0808,Q,Q
2023-03-15 22:00:34:698,0,-3.24585,-4.31601,-20.1044,Q,Q
2023-03-15 22:00:34:708,0,-3.24615,-4.31194,-20.1266,Q,Q
2023-03-15 22:00:34:718,0,-3.24428,-4.30414,-20.1503,Q,Q
2023-03-15 22:00:34:728,0,-3.24245,-4.29817,-20.1748,Q,Q
2023-03-15 22:00:34:738,0,-3.23698,-4.29281,-20.1971,Q,Q
2023-03-15 22:00:34:748,0,-3.22868,-4.28561,-20.2124,Q,Q
2023-03-15 22:00:34:758,0,-3.21584,-4.27865,-20.2277,Q,Q
2023-03-15 22:00:34:768,0,-3.1986,-4.2751,-20.2397,Q,Q
2023-03-15 22:00:34:778,0,-3.17952,-4.2698,-20.2433,Q,Q
2023-03-15 22:00:34:788,0,-3.15725,-4.26658,-20.2466,Q,Q
2023-03-15 22:00:34:798,0,-3.13519,-4.26131,-20.2451,Q,Q
2023-03-15 22:00:34:808,0,-3.10722,-4.25116,-20.2452,Q,Q
2023-03-15 22:00:34:818,0,-3.08216,-4.24465,-20.2427,Q,Q
2023-03-15 22:00:34:828,0,-3.05601,-4.23442,-20.2405,Q,Q
2023-03-15 22:00:34:838,0,-3.03035,-4.22419,-20.2437,Q,Q
2023-03-15 22:00:34:848,0,-3.0039,-4.21986,-20.242,Q,Q
2023-03-15 22:00:34:858,0,-2.97604,-4.21979,-20.2432,Q,Q
2023-03-15 22:00:34:868,0,-2.9574,-4.22743,-20.2464,Q,Q
2023-03-15 22:00:34:878,0,-2.93892,-4.23883,-20.2491,Q,Q
2023-03-15 22:00:34:888,0,-2.92561,-4.24917,-20.2533,Q,Q
2023-03-15 22:00:34:898,0,-2.91936,-4.25529,-20.2566,Q,Q
2023-03-15 22:00:34:908,0,-2.9197,-4.25754,-20.2608,Q,Q
2023-03-15 22:00:34:918,0,-2.92344,-4.25751,-20.2624,Q,Q
2023-03-15 22:00:34:928,0,-2.92698,-4.2512,-20.2602,Q,Q
2023-03-15 22:00:34:938,0,-2.93168,-4.24504,-20.256,Q,Q
2023-03-15 22:00:34:948,0,-2.93902,-4.24044,-20.2504,Q,Q
2023-03-15 22:00:34:958,0,-2.94802,-4.23554,-20.2451,Q,Q
2023-03-15 22:00:34:968,0,-2.95507,-4.2288,-20.2426,Q,Q
2023-03-15 22:00:34:978,0,-2.96319,-4.21887,-20.242,Q,Q
2023-03-15 22:00:34:988,0,-2.97207,-4.2075,-20.2412,Q,Q
2023-03-15 22:00:34:999,0,-2.97775,-4.19437,-20.2449,Q,Q
2023-03-15 22:00:35:8,0,-2.98184,-4.18182,-20.252,Q,Q
2023-03-15 22:00:35:19,0,-2.97925,-4.17365,-20.2594,Q,Q
2023-03-15 22:00:35:28,0,-2.97895,-4.16282,-20.2733,Q,Q
2023-03-15 22:00:35:39,0,-2.9844,-4.15534,-20.2869,Q,Q
2023-03-15 22:00:35:48,0,-2.98897,-4.14651,-20.3018,Q,Q
2023-03-15 22:00:35:58,0,-2.99146,-4.13958,-20.3186,Q,Q
2023-03-15 22:00:35:68,0,-2.99145,-4.13058,-20.3347,Q,Q
2023-03-15 22:00:35:79,0,-2.9936,-4.12015,-20.3488,Q,Q
2023-03-15 22:00:35:88,0,-2.99483,-4.11054,-20.3646,Q,Q
2023-03-15 22:00:35:99,0,-2.99234,-4.10409,-20.3771,Q,Q
2023-03-15 22:00:35:108,0,-2.98958,-4.09959,-20.389,Q,Q
2023-03-15 22:00:35:119,0,-2.97976,-4.09648,-20.3947,Q,Q
2023-03-15 22:00:35:128,0,-2.9739,-4.09145,-20.4001,Q,Q
2023-03-15 22:00:35:139,0,-2.9685,-4.08622,-20.4058,Q,Q
2023-03-15 22:00:35:148,0,-2.96215,-4.08337,-20.4108,Q,Q
2023-03-15 22:00:35:159,0,-2.9586,-4.0806,-20.415,Q,Q
2023-03-15 22:00:35:168,0,-2.95022,-4.07611,-20.4159,Q,Q
2023-03-15 22:00:35:179,0,-2.94521,-4.07439,-20.4175,Q,Q
2023-03-15 22:00:35:188,0,-2.93946,-4.06576,-20.4187,Q,Q
2023-03-15 22:00:35:199,0,-2.93226,-4.06272,-20.4169,Q,Q
2023-03-15 22:00:35:209,0,-2.91958,-4.06355,-20.4174,Q,Q
2023-03-15 22:00:35:219,0,-2.91311,-4.06246,-20.4116,Q,Q
2023-03-15 22:00:35:229,0,-2.90835,-4.06113,-20.4077,Q,Q
2023-03-15 22:00:35:239,0,-2.9014,-4.06171,-20.4038,Q,Q
2023-03-15 22:00:35:249,0,-2.89962,-4.06439,-20.406,Q,Q
2023-03-15 22:00:35:259,0,-2.90178,-4.06831,-20.4053,Q,Q
2023-03-15 22:00:35:269,0,-2.90025,-4.06804,-20.4063,Q,Q
2023-03-15 22:00:35:279,0,-2.89683,-4.06466,-20.4105,Q,Q
2023-03-15 22:00:35:288,0,-2.89202,-4.06106,-20.4067,Q,Q
2023-03-15 22:00:35:299,0,-2.88381,-4.05751,-20.4001,Q,Q
2023-03-15 22:00:35:309,0,-2.87613,-4.05389,-20.3969,Q,Q
2023-03-15 22:00:35:319,0,-2.86793,-4.05213,-20.3924,Q,Q
2023-03-15 22:00:35:329,0,-2.86485,-4.04948,-20.3878,Q,Q
2023-03-15 22:00:35:339,0,-2.86517,-4.04141,-20.3806,Q,Q
2023-03-15 22:00:35:349,0,-2.8695,-4.03583,-20.3753,Q,Q
2023-03-15 22:00:35:359,0,-2.87477,-4.02904,-20.367,Q,Q
2023-03-15 22:00:35:369,0,-2.88626,-4.02318,-20.3611,Q,Q
2023-03-15 22:00:35:379,0,-2.89814,-4.02172,-20.3545,Q,Q
2023-03-15 22:00:35:389,0,-2.90846,-4.02207,-20.3496,Q,Q
2023-03-15 22:00:35:399,0,-2.92627,-4.02417,-20.3478,Q,Q
2023-03-15 22:00:35:408,0,-2.94037,-4.02524,-20.3497,Q,Q
2023-03-15 22:00:35:419,0,-2.95383,-4.028,-20.3511,Q,Q
2023-03-15 22:00:35:429,0,-2.96726,-4.02413,-20.3548,Q,Q
2023-03-15 22:00:35:439,0,-2.97895,-4.0213,-20.3569,Q,Q
2023-03-15 22:00:35:449,0,-2.99502,-4.01213,-20.3598,Q,Q
2023-03-15 22:00:35:459,0,-3.00816,-4.00515,-20.3663,Q,Q
2023-03-15 22:00:35:469,0,-3.02192,-4.0019,-20.3683,Q,Q
2023-03-15 22:00:35:478,0,-3.03436,-4.00152,-20.371,Q,Q
2023-03-15 22:00:35:488,0,-3.04611,-4.00333,-20.3743,Q,Q
2023-03-15 22:00:35:499,0,-3.05745,-4.00628,-20.3806,Q,Q
2023-03-15 22:00:35:509,0,-3.06448,-4.00824,-20.3837,Q,Q
2023-03-15 22:00:35:519,0,-3.06966,-4.00729,-20.3893,Q,Q
2023-03-15 22:00:35:529,0,-3.07531,-4.007,-20.397,Q,Q
2023-03-15 22:00:35:539,0,-3.08226,-4.00986,-20.4021,Q,Q
2023-03-15 22:00:35:549,0,-3.08319,-4.01207,-20.4046,Q,Q
2023-03-15 22:00:35:558,0,-3.08903,-4.0117,-20.4041,Q,Q
2023-03-15 22:00:35:568,0,-3.09653,-4.00861,-20.4045,Q,Q
2023-03-15 22:00:35:578,0,-3.10739,-4.00585,-20.3997,Q,Q
2023-03-15 22:00:35:589,0,-3.11583,-4.00425,-20.4001,Q,Q
2023-03-15 22:00:35:599,0,-3.1182,-4.00182,-20.4031,Q,Q
2023-03-15 22:00:35:609,0,-3.11322,-3.99796,-20.4026,Q,Q
2023-03-15 22:00:35:618,0,-3.10862,-3.99747,-20.3978,Q,Q
2023-03-15 22:00:35:629,0,-3.09911,-4.00084,-20.3949,Q,Q
2023-03-15 22:00:35:639,0,-3.0911,-4.00759,-20.3938,Q,Q
2023-03-15 22:00:35:649,0,-3.08253,-4.01092,-20.3907,Q,Q
2023-03-15 22:00:35:659,0,-3.07911,-4.00652,-20.3898,Q,Q
2023-03-15 22:00:35:669,0,-3.08218,-4.00448,-20.391,Q,Q
2023-03-15 22:00:35:679,0,-3.09215,-4.00448,-20.3903,Q,Q
2023-03-15 22:00:35:689,0,-3.10689,-4.00265,-20.3876,Q,Q
2023-03-15 22:00:35:699,0,-3.12535,-4.00692,-20.3811,Q,Q
2023-03-15 22:00:35:709,0,-3.14514,-4.01075,-20.3726,Q,Q
2023-03-15 22:00:35:719,0,-3.16685,-4.01348,-20.3678,Q,Q
2023-03-15 22:00:35:728,0,-3.18623,-4.01082,-20.3634,Q,Q
2023-03-15 22:00:35:739,0,-3.20389,-4.007,-20.3574,Q,Q
2023-03-15 22:00:35:749,0,-3.21493,-3.99943,-20.3577,Q,Q
2023-03-15 22:00:35:759,0,-3.22929,-3.99568,-20.3594,Q,Q
2023-03-15 22:00:35:769,0,-3.24433,-3.99463,-20.3605,Q,Q
2023-03-15 22:00:35:779,0,-3.25387,-3.99099,-20.3638,Q,Q
2023-03-15 22:00:35:789,0,-3.26072,-3.98906,-20.3723,Q,Q
2023-03-15 22:00:35:799,0,-3.2631,-3.9875,-20.3826,Q,Q
2023-03-15 22:00:35:809,0,-3.26717,-3.98527,-20.3919,Q,Q
2023-03-15 22:00:35:819,0,-3.27217,-3.98462,-20.4011,Q,Q
2023-03-15 22:00:35:829,0,-3.27466,-3.98497,-20.4131,Q,Q
2023-03-15 22:00:35:839,0,-3.27458,-3.98,-20.4253,Q,Q
2023-03-15 22:00:35:849,0,-3.26825,-3.97443,-20.4387,Q,Q
2023-03-15 22:00:35:859,0,-3.25755,-3.97144,-20.4499,Q,Q
2023-03-15 22:00:35:869,0,-3.24267,-3.96567,-20.4619,Q,Q
2023-03-15 22:00:35:879,0,-3.22244,-3.95881,-20.4695,Q,Q
2023-03-15 22:00:35:889,0,-3.20226,-3.95874,-20.4788,Q,Q
2023-03-15 22:00:35:899,0,-3.17518,-3.95872,-20.4853,Q,Q
2023-03-15 22:00:35:909,0,-3.14933,-3.95526,-20.4911,Q,Q
2023-03-15 22:00:35:919,0,-3.13096,-3.95029,-20.4965,Q,Q
2023-03-15 22:00:35:929,0,-3.11648,-3.94452,-20.4999,Q,Q
2023-03-15 22:00:35:939,0,-3.10671,-3.94292,-20.5017,Q,Q
2023-03-15 22:00:35:949,0,-3.09302,-3.94239,-20.5031,Q,Q
2023-03-15 22:00:35:959,0,-3.07931,-3.93898,-20.5053,Q,Q
2023-03-15 22:00:35:969,0,-3.06834,-3.93526,-20.5079,Q,Q
2023-03-15 22:00:35:979,0,-3.06052,-3.93115,-20.51,Q,Q
2023-03-15 22:00:35:988,0,-3.04915,-3.92646,-20.5124,Q,Q
2023-03-15 22:00:35:998,0,-3.0429,-3.92128,-20.5159,Q,Q
2023-03-15 22:00:36:9,0,-3.03224,-3.91639,-20.5236,Q,Q
2023-03-15 22:00:36:18,0,-3.02518,-3.91614,-20.5278,Q,Q
2023-03-15 22:00:36:29,0,-3.01347,-3.91341,-20.5295,Q,Q
2023-03-15 22:00:36:39,0,-3.00388,-3.91343,-20.5319,Q,Q
2023-03-15 22:00:36:48,0,-2.99589,-3.91394,-20.5328,Q,Q
2023-03-15 22:00:36:58,0,-2.99205,-3.91232,-20.5374,Q,Q
2023-03-15 22:00:36:68,0,-2.9883,-3.91289,-20.5365,Q,Q
2023-03-15 22:00:36:78,0,-2.98824,-3.91693,-20.5366,Q,Q
2023-03-15 22:00:36:88,0,-2.98923,-3.92195,-20.5349,Q,Q
2023-03-15 22:00:36:99,0,-2.9957,-3.921,-20.5336,Q,Q
2023-03-15 22:00:36:109,0,-2.99842,-3.91703,-20.5347,Q,Q
2023-03-15 22:00:36:119,0,-3.00479,-3.91547,-20.5356,Q,Q
2023-03-15 22:00:36:129,0,-3.00925,-3.91179,-20.5345,Q,Q
2023-03-15 22:00:36:139,0,-3.01694,-3.9072,-20.5345,Q,Q
2023-03-15 22:00:36:149,0,-3.02215,-3.90532,-20.5323,Q,Q
2023-03-15 22:00:36:159,0,-3.02656,-3.90472,-20.5325,Q,Q
2023-03-15 22:00:36:169,0,-3.03066,-3.90408,-20.5366,Q,Q
2023-03-15 22:00:36:179,0,-3.03609,-3.90617,-20.5414,Q,Q
2023-03-15 22:00:36:189,0,-3.04159,-3.90487,-20.5473,Q,Q
2023-03-15 22:00:36:199,0,-3.04694,-3.90641,-20.5513,Q,Q
2023-03-15 22:00:36:209,0,-3.04583,-3.90295,-20.5543,Q,Q
2023-03-15 22:00:36:219,0,-3.04407,-3.90374,-20.5574,Q,Q
2023-03-15 22:00:36:229,0,-3.0424,-3.90629,-20.5614,Q,Q
2023-03-15 22:00:36:239,0,-3.04138,-3.9062,-20.5634,Q,Q
2023-03-15 22:00:36:249,0,-3.03815,-3.90785,-20.5627,Q,Q
2023-03-15 22:00:36:259,0,-3.03304,-3.90479,-20.5592,Q,Q
2023-03-15 22:00:36:269,0,-3.02994,-3.89904,-20.5589,Q,Q
2023-03-15 22:00:36:279,0,-3.02528,-3.89485,-20.5584,Q,Q
2023-03-15 22:00:36:289,0,-3.02207,-3.89303,-20.5577,Q,Q
2023-03-15 22:00:36:299,0,-3.01395,-3.89731,-20.5564,Q,Q
2023-03-15 22:00:36:309,0,-3.00663,-3.90469,-20.5511,Q,Q
2023-03-15 22:00:36:319,0,-3.00186,-3.91408,-20.5492,Q,Q
2023-03-15 22:00:36:329,0,-3.00141,-3.91976,-20.545,Q,Q
2023-03-15 22:00:36:339,0,-3.00096,-3.92618,-20.5385,Q,Q
2023-03-15 22:00:36:349,0,-3.00831,-3.92958,-20.5313,Q,Q
2023-03-15 22:00:36:359,0,-3.01303,-3.93379,-20.5236,Q,Q
2023-03-15 22:00:36:368,0,-3.02159,-3.93749,-20.5138,Q,Q
2023-03-15 22:00:36:378,0,-3.03324,-3.94137,-20.5062,Q,Q
2023-03-15 22:00:36:388,0,-3.04314,-3.94303,-20.5011,Q,Q
2023-03-15 22:00:36:398,0,-3.05693,-3.94129,-20.492,Q,Q
2023-03-15 22:00:36:408,0,-3.06909,-3.93936,-20.484,Q,Q
2023-03-15 22:00:36:418,0,-3.07601,-3.93747,-20.4819,Q,Q
2023-03-15 22:00:36:428,0,-3.08286,-3.93236,-20.483,Q,Q
2023-03-15 22:00:36:439,0,-3.08736,-3.92467,-20.4886,Q,Q
2023-03-15 22:00:36:449,0,-3.09354,-3.92041,-20.4983,Q,Q
2023-03-15 22:00:36:459,0,-3.09854,-3.91644,-20.5084,Q,Q
2023-03-15 22:00:36:469,0,-3.10067,-3.91384,-20.5252,Q,Q
2023-03-15 22:00:36:479,0,-3.10374,-3.91025,-20.5414,Q,Q
2023-03-15 22:00:36:489,0,-3.10526,-3.90768,-20.5552,Q,Q
2023-03-15 22:00:36:499,0,-3.10888,-3.9025,-20.5676,Q,Q
2023-03-15 22:00:36:509,0,-3.11005,-3.89665,-20.5811,Q,Q
2023-03-15 22:00:36:519,0,-3.11175,-3.88962,-20.5921,Q,Q
2023-03-15 22:00:36:529,0,-3.11509,-3.8863,-20.6002,Q,Q
2023-03-15 22:00:36:539,0,-3.11771,-3.883,-20.6118,Q,Q
2023-03-15 22:00:36:549,0,-3.11839,-3.88041,-20.6195,Q,Q
2023-03-15 22:00:36:559,0,-3.12265,-3.87947,-20.621,Q,Q
2023-03-15 22:00:36:569,0,-3.12738,-3.87849,-20.6192,Q,Q
2023-03-15 22:00:36:578,0,-3.13577,-3.87829,-20.6145,Q,Q
2023-03-15 22:00:36:589,0,-3.14119,-3.8739,-20.6104,Q,Q
2023-03-15 22:00:36:598,0,-3.15105,-3.87028,-20.6026,Q,Q
2023-03-15 22:00:36:609,0,-3.15944,-3.86918,-20.5925,Q,Q
2023-03-15 22:00:36:619,0,-3.16503,-3.86659,-20.5858,Q,Q
2023-03-15 22:00:36:629,0,-3.16446,-3.86283,-20.5757,Q,Q
2023-03-15 22:00:36:639,0,-3.15985,-3.85894,-20.5681,Q,Q
2023-03-15 22:00:36:649,0,-3.15632,-3.86045,-20.555,Q,Q
2023-03-15 22:00:36:659,0,-3.14769,-3.86036,-20.5448,Q,Q
2023-03-15 22:00:36:669,0,-3.13544,-3.86133,-20.5318,Q,Q
2023-03-15 22:00:36:679,0,-3.12433,-3.86593,-20.5191,Q,Q
2023-03-15 22:00:36:689,0,-3.11218,-3.8697,-20.5044,Q,Q
2023-03-15 22:00:36:699,0,-3.09873,-3.87243,-20.4949,Q,Q
2023-03-15 22:00:36:709,0,-3.08775,-3.87493,-20.4807,Q,Q
2023-03-15 22:00:36:719,0,-3.07685,-3.8781,-20.4651,Q,Q
2023-03-15 22:00:36:729,0,-3.0661,-3.88177,-20.4504,Q,Q
2023-03-15 22:00:36:739,0,-3.0589,-3.88513,-20.437,Q,Q
2023-03-15 22:00:36:749,0,-3.05524,-3.88902,-20.4195,Q,Q
2023-03-15 22:00:36:759,0,-3.05203,-3.89447,-20.4043,Q,Q
2023-03-15 22:00:36:769,0,-3.05378,-3.89957,-20.391,Q,Q
2023-03-15 22:00:36:779,0,-3.05347,-3.9081,-20.3848,Q,Q
2023-03-15 22:00:36:789,0,-3.05689,-3.91435,-20.3777,Q,Q
2023-03-15 22:00:36:799,0,-3.06088,-3.91857,-20.3712,Q,Q
2023-03-15 22:00:36:809,0,-3.06319,-3.92575,-20.3717,Q,Q
2023-03-15 22:00:36:819,0,-3.06734,-3.92983,-20.3676,Q,Q
2023-03-15 22:00:36:829,0,-3.07001,-3.93489,-20.3696,Q,Q
2023-03-15 22:00:36:839,0,-3.07652,-3.94516,-20.3737,Q,Q
2023-03-15 22:00:36:849,0,-3.08332,-3.94974,-20.3781,Q,Q
2023-03-15 22:00:36:859,0,-3.09161,-3.95303,-20.3837,Q,Q
2023-03-15 22:00:36:869,0,-3.09838,-3.95341,-20.3893,Q,Q
2023-03-15 22:00:36:879,0,-3.109,-3.95439,-20.3996,Q,Q
2023-03-15 22:00:36:889,0,-3.1151,-3.95458,-20.4068,Q,Q
2023-03-15 22:00:36:899,0,-3.12026,-3.95086,-20.4196,Q,Q
2023-03-15 22:00:36:909,0,-3.12159,-3.94324,-20.4355,Q,Q
2023-03-15 22:00:36:919,0,-3.12216,-3.93173,-20.4477,Q,Q
2023-03-15 22:00:36:929,0,-3.12463,-3.92034,-20.4593,Q,Q
2023-03-15 22:00:36:939,0,-3.12639,-3.90697,-20.4721,Q,Q
2023-03-15 22:00:36:949,0,-3.12608,-3.89647,-20.4789,Q,Q
2023-03-15 22:00:36:959,0,-3.1287,-3.88807,-20.4886,Q,Q
2023-03-15 22:00:36:969,0,-3.13279,-3.8833,-20.4985,Q,Q
2023-03-15 22:00:36:979,0,-3.14247,-3.88054,-20.5039,Q,Q
2023-03-15 22:00:36:989,0,-3.15404,-3.87217,-20.5111,Q,Q
2023-03-15 22:00:36:999,0,-3.16931,-3.86323,-20.5146,Q,Q
2023-03-15 22:00:37:9,0,-3.1867,-3.85266,-20.5154,Q,Q
2023-03-15 22:00:37:19,0,-3.20578,-3.84358,-20.5155,Q,Q
2023-03-15 22:00:37:29,0,-3.22543,-3.83222,-20.5147,Q,Q
2023-03-15 22:00:37:39,0,-3.2447,-3.82208,-20.5106,Q,Q
2023-03-15 22:00:37:49,0,-3.26123,-3.81436,-20.5069,Q,Q
2023-03-15 22:00:37:59,0,-3.2765,-3.80745,-20.4994,Q,Q
2023-03-15 22:00:37:69,0,-3.29524,-3.80223,-20.495,Q,Q
2023-03-15 22:00:37:79,0,-3.30889,-3.79948,-20.4925,Q,Q
2023-03-15 22:00:37:88,0,-3.31524,-3.7939,-20.4856,Q,Q
2023-03-15 22:00:37:99,0,-3.32162,-3.79174,-20.486,Q,Q
2023-03-15 22:00:37:109,0,-3.32591,-3.78706,-20.482,Q,Q
2023-03-15 22:00:37:119,0,-3.32958,-3.78678,-20.4794,Q,Q
2023-03-15 22:00:37:129,0,-3.3319,-3.78873,-20.4788,Q,Q
2023-03-15 22:00:37:139,0,-3.33566,-3.78945,-20.4782,Q,Q
2023-03-15 22:00:37:149,0,-3.33737,-3.79359,-20.478,Q,Q
2023-03-15 22:00:37:159,0,-3.34325,-3.79437,-20.4801,Q,Q
2023-03-15 22:00:37:169,0,-3.34881,-3.79613,-20.4799,Q,Q
2023-03-15 22:00:37:179,0,-3.35404,-3.79897,-20.4809,Q,Q
2023-03-15 22:00:37:189,0,-3.35782,-3.80302,-20.4811,Q,Q
2023-03-15 22:00:37:199,0,-3.36273,-3.81072,-20.4792,Q,Q
2023-03-15 22:00:37:209,0,-3.36378,-3.81722,-20.4791,Q,Q
2023-03-15 22:00:37:219,0,-3.36752,-3.82101,-20.4801,Q,Q
2023-03-15 22:00:37:229,0,-3.37344,-3.82581,-20.4805,Q,Q
2023-03-15 22:00:37:239,0,-3.38136,-3.82783,-20.4819,Q,Q
2023-03-15 22:00:37:249,0,-3.38705,-3.82885,-20.4854,Q,Q
