Timestamp_cmd,imu_cmd,roll_delta,pitch_delta,yaw_delta,voice_type,voice_length
2023-03-15 12:48:48:235,0,-54.3876,2.6936,11.9822,Q,Q
2023-03-15 12:48:48:244,0,-54.385,2.69607,11.9797,Q,Q
2023-03-15 12:48:48:254,0,-54.3828,2.69824,11.9792,Q,Q
2023-03-15 12:48:48:264,0,-54.3832,2.69674,11.9774,Q,Q
2023-03-15 12:48:48:274,0,-54.383,2.69675,11.9793,Q,Q
2023-03-15 12:48:48:284,0,-54.3817,2.69873,11.9806,Q,Q
2023-03-15 12:48:48:294,0,-54.381,2.70019,11.9781,Q,Q
2023-03-15 12:48:48:304,0,-54.3789,2.70075,11.9813,Q,Q
2023-03-15 12:48:48:314,0,-54.3795,2.70423,11.9825,Q,Q
2023-03-15 12:48:48:324,0,-54.3797,2.706,11.9824,Q,Q
2023-03-15 12:48:48:334,0,-54.3792,2.70798,11.9824,Q,Q
2023-03-15 12:48:48:344,0,-54.379,2.70782,11.9855,Q,Q
2023-03-15 12:48:48:354,0,-54.3802,2.70849,11.9824,Q,Q
2023-03-15 12:48:48:364,0,-54.3818,2.71042,11.9829,Q,Q
2023-03-15 12:48:48:374,0,-54.3852,2.70851,11.9846,Q,Q
2023-03-15 12:48:48:384,0,-54.3878,2.70719,11.985,Q,Q
2023-03-15 12:48:48:394,0,-54.386,2.70553,11.9851,Q,Q
2023-03-15 12:48:48:404,0,-54.3817,2.70486,11.9839,Q,Q
2023-03-15 12:48:48:414,0,-54.3812,2.70652,11.9814,Q,Q
2023-03-15 12:48:48:424,0,-54.3791,2.70547,11.9805,Q,Q
2023-03-15 12:48:48:434,0,-54.3783,2.70454,11.9802,Q,Q
2023-03-15 12:48:48:444,0,-54.3789,2.7037,11.9786,Q,Q
2023-03-15 12:48:48:454,0,-54.3793,2.70239,11.9836,Q,Q
2023-03-15 12:48:48:464,0,-54.3784,2.6996,11.9827,Q,Q
2023-03-15 12:48:48:474,0,-54.377,2.70069,11.9811,Q,Q
2023-03-15 12:48:48:484,0,-54.3781,2.6976,11.9815,Q,Q
2023-03-15 12:48:48:494,0,-54.3778,2.69599,11.9785,Q,Q
2023-03-15 12:48:48:504,0,-54.3793,2.6954,11.9796,Q,Q
2023-03-15 12:48:48:514,0,-54.3825,2.69131,11.9783,Q,Q
2023-03-15 12:48:48:524,0,-54.3805,2.68954,11.9764,Q,Q
2023-03-15 12:48:48:534,0,-54.3809,2.68937,11.9783,Q,Q
2023-03-15 12:48:48:544,0,-54.3813,2.6899,11.9774,Q,Q
2023-03-15 12:48:48:554,0,-54.3802,2.69303,11.9764,Q,Q
2023-03-15 12:48:48:564,0,-54.3809,2.69192,11.9769,Q,Q
2023-03-15 12:48:48:574,0,-54.3785,2.6925,11.9764,Q,Q
2023-03-15 12:48:48:584,0,-54.378,2.69174,11.9762,Q,Q
2023-03-15 12:48:48:594,0,-54.3773,2.69216,11.9728,Q,Q
2023-03-15 12:48:48:604,0,-54.3764,2.68756,11.974,Q,Q
2023-03-15 12:48:48:614,0,-54.3778,2.68975,11.9756,Q,Q
2023-03-15 12:48:48:624,0,-54.3769,2.69007,11.9766,Q,Q
2023-03-15 12:48:48:634,0,-54.3767,2.6913,11.9741,Q,Q
2023-03-15 12:48:48:644,0,-54.3776,2.69195,11.9718,Q,Q
2023-03-15 12:48:48:654,0,-54.3794,2.69472,11.9727,Q,Q
2023-03-15 12:48:48:664,0,-54.3817,2.69418,11.9724,Q,Q
2023-03-15 12:48:48:674,0,-54.3811,2.69455,11.9713,Q,Q
2023-03-15 12:48:48:684,0,-54.3795,2.69497,11.9687,Q,Q
2023-03-15 12:48:48:694,0,-54.3787,2.69537,11.9659,Q,Q
2023-03-15 12:48:48:704,0,-54.3809,2.69609,11.9628,Q,Q
2023-03-15 12:48:48:714,0,-54.3804,2.69623,11.9615,Q,Q
2023-03-15 12:48:48:724,0,-54.3826,2.69302,11.9591,Q,Q
2023-03-15 12:48:48:734,0,-54.3841,2.69367,11.9591,Q,Q
2023-03-15 12:48:48:744,0,-54.3828,2.69479,11.9594,Q,Q
2023-03-15 12:48:48:754,0,-54.3839,2.69292,11.9559,Q,Q
2023-03-15 12:48:48:764,0,-54.3851,2.69198,11.953,Q,Q
2023-03-15 12:48:48:774,0,-54.3881,2.69371,11.9504,Q,Q
2023-03-15 12:48:48:784,0,-54.3885,2.69539,11.9483,Q,Q
2023-03-15 12:48:48:794,0,-54.3938,2.69815,11.9477,Q,Q
2023-03-15 12:48:48:804,0,-54.3967,2.69902,11.946,Q,Q
2023-03-15 12:48:48:814,0,-54.3972,2.69756,11.9446,Q,Q
2023-03-15 12:48:48:824,0,-54.3994,2.69681,11.9468,Q,Q
2023-03-15 12:48:48:834,0,-54.4027,2.69659,11.9469,Q,Q
2023-03-15 12:48:48:844,0,-54.4047,2.69578,11.947,Q,Q
2023-03-15 12:48:48:854,0,-54.4079,2.69501,11.9461,Q,Q
2023-03-15 12:48:48:864,0,-54.4097,2.69583,11.943,Q,Q
2023-03-15 12:48:48:874,0,-54.4091,2.69473,11.9414,Q,Q
2023-03-15 12:48:48:884,0,-54.4122,2.69586,11.9375,Q,Q
2023-03-15 12:48:48:894,0,-54.4133,2.69872,11.9346,Q,Q
2023-03-15 12:48:48:904,0,-54.4147,2.69844,11.9364,Q,Q
2023-03-15 12:48:48:914,0,-54.4139,2.69742,11.9351,Q,Q
2023-03-15 12:48:48:924,0,-54.4129,2.69621,11.9344,Q,Q
2023-03-15 12:48:48:934,0,-54.4123,2.69607,11.933,Q,Q
2023-03-15 12:48:48:944,0,-54.4142,2.69568,11.928,Q,Q
2023-03-15 12:48:48:954,0,-54.4145,2.69485,11.9296,Q,Q
2023-03-15 12:48:48:964,0,-54.4113,2.69623,11.9286,Q,Q
2023-03-15 12:48:48:974,0,-54.4117,2.69647,11.9327,Q,Q
2023-03-15 12:48:48:984,0,-54.4099,2.69656,11.9317,Q,Q
2023-03-15 12:48:48:994,0,-54.4099,2.69439,11.9308,Q,Q
2023-03-15 12:48:49:4,0,-54.4099,2.69518,11.9286,Q,Q
2023-03-15 12:48:49:14,0,-54.4094,2.69543,11.9293,Q,Q
2023-03-15 12:48:49:24,0,-54.4088,2.69331,11.9277,Q,Q
2023-03-15 12:48:49:34,0,-54.412,2.69601,11.9293,Q,Q
2023-03-15 12:48:49:44,0,-54.4139,2.69654,11.9261,Q,Q
2023-03-15 12:48:49:54,0,-54.4131,2.69461,11.9247,Q,Q
2023-03-15 12:48:49:64,0,-54.4111,2.69762,11.9232,Q,Q
2023-03-15 12:48:49:74,0,-54.4107,2.69901,11.9269,Q,Q
2023-03-15 12:48:49:84,0,-54.4088,2.69872,11.9266,Q,Q
2023-03-15 12:48:49:94,0,-54.4069,2.69948,11.9261,Q,Q
2023-03-15 12:48:49:104,0,-54.4101,2.70318,11.9253,Q,Q
2023-03-15 12:48:49:114,0,-54.4105,2.70482,11.927,Q,Q
2023-03-15 12:48:49:124,0,-54.413,2.70746,11.9279,Q,Q
2023-03-15 12:48:49:134,0,-54.4127,2.70992,11.9271,Q,Q
2023-03-15 12:48:49:144,0,-54.4134,2.70981,11.925,Q,Q
2023-03-15 12:48:49:154,0,-54.4164,2.70958,11.9201,Q,Q
2023-03-15 12:48:49:164,0,-54.4173,2.70771,11.9187,Q,Q
2023-03-15 12:48:49:174,0,-54.4165,2.70846,11.9185,Q,Q
2023-03-15 12:48:49:184,0,-54.4186,2.70797,11.9155,Q,Q
2023-03-15 12:48:49:194,0,-54.4197,2.7084,11.9122,Q,Q
2023-03-15 12:48:49:204,0,-54.4204,2.70774,11.9118,Q,Q
2023-03-15 12:48:49:214,0,-54.4218,2.70833,11.9081,Q,Q
2023-03-15 12:48:49:224,0,-54.4203,2.70561,11.9107,Q,Q
2023-03-15 12:48:49:234,0,-54.423,2.70632,11.9081,Q,Q
2023-03-15 12:48:49:244,0,-54.4224,2.70755,11.9036,Q,Q
2023-03-15 12:48:49:254,0,-54.4201,2.70469,11.9042,Q,Q
2023-03-15 12:48:49:264,0,-54.4183,2.70441,11.9048,Q,Q
2023-03-15 12:48:49:274,0,-54.4187,2.70569,11.9029,Q,Q
2023-03-15 12:48:49:284,0,-54.4188,2.70467,11.9022,Q,Q
2023-03-15 12:48:49:294,0,-54.4214,2.70511,11.898,Q,Q
2023-03-15 12:48:49:304,0,-54.4225,2.70489,11.8953,Q,Q
2023-03-15 12:48:49:314,0,-54.4239,2.70394,11.8943,Q,Q
2023-03-15 12:48:49:324,0,-54.4218,2.70108,11.8944,Q,Q
2023-03-15 12:48:49:334,0,-54.4219,2.70171,11.8938,Q,Q
2023-03-15 12:48:49:344,0,-54.4222,2.70233,11.8945,Q,Q
2023-03-15 12:48:49:354,0,-54.4212,2.70104,11.8942,Q,Q
2023-03-15 12:48:49:364,0,-54.4227,2.70021,11.8928,Q,Q
2023-03-15 12:48:49:374,0,-54.4242,2.69961,11.8895,Q,Q
2023-03-15 12:48:49:384,0,-54.4255,2.69561,11.8914,Q,Q
2023-03-15 12:48:49:394,0,-54.4248,2.69597,11.8909,Q,Q
2023-03-15 12:48:49:404,0,-54.4264,2.69349,11.8921,Q,Q
2023-03-15 12:48:49:414,0,-54.4289,2.69076,11.8921,Q,Q
2023-03-15 12:48:49:424,0,-54.4273,2.69349,11.8946,Q,Q
2023-03-15 12:48:49:434,0,-54.4277,2.6931,11.8954,Q,Q
2023-03-15 12:48:49:444,0,-54.4256,2.69038,11.8946,Q,Q
2023-03-15 12:48:49:454,0,-54.4255,2.69331,11.8932,Q,Q
2023-03-15 12:48:49:464,0,-54.4252,2.69332,11.8918,Q,Q
2023-03-15 12:48:49:474,0,-54.4235,2.69476,11.8916,Q,Q
2023-03-15 12:48:49:484,0,-54.4218,2.69512,11.8922,Q,Q
2023-03-15 12:48:49:494,0,-54.4225,2.69497,11.893,Q,Q
2023-03-15 12:48:49:504,0,-54.423,2.69345,11.8944,Q,Q
2023-03-15 12:48:49:514,0,-54.4217,2.69216,11.8962,Q,Q
2023-03-15 12:48:49:524,0,-54.422,2.69276,11.8969,Q,Q
2023-03-15 12:48:49:534,0,-54.4251,2.69253,11.8994,Q,Q
2023-03-15 12:48:49:544,0,-54.4236,2.6933,11.9025,Q,Q
2023-03-15 12:48:49:554,0,-54.4232,2.6903,11.9022,Q,Q
2023-03-15 12:48:49:564,0,-54.4218,2.68656,11.9009,Q,Q
2023-03-15 12:48:49:574,0,-54.4206,2.68499,11.9023,Q,Q
2023-03-15 12:48:49:584,0,-54.4226,2.68452,11.9008,Q,Q
2023-03-15 12:48:49:594,0,-54.4248,2.68663,11.8994,Q,Q
2023-03-15 12:48:49:604,0,-54.4274,2.68649,11.9008,Q,Q
2023-03-15 12:48:49:614,0,-54.4279,2.68573,11.8989,Q,Q
2023-03-15 12:48:49:624,0,-54.4293,2.68763,11.8967,Q,Q
2023-03-15 12:48:49:634,0,-54.4306,2.68733,11.8981,Q,Q
2023-03-15 12:48:49:644,0,-54.4328,2.69105,11.8935,Q,Q
2023-03-15 12:48:49:654,0,-54.431,2.6926,11.8939,Q,Q
2023-03-15 12:48:49:664,0,-54.4294,2.68958,11.8948,Q,Q
2023-03-15 12:48:49:674,0,-54.4285,2.69047,11.8961,Q,Q
2023-03-15 12:48:49:684,0,-54.4304,2.69285,11.8936,Q,Q
2023-03-15 12:48:49:694,0,-54.432,2.68955,11.8931,Q,Q
2023-03-15 12:48:49:704,0,-54.4296,2.68789,11.8962,Q,Q
2023-03-15 12:48:49:714,0,-54.4288,2.68616,11.8945,Q,Q
2023-03-15 12:48:49:724,0,-54.4267,2.68665,11.8941,Q,Q
2023-03-15 12:48:49:734,0,-54.4282,2.68577,11.8909,Q,Q
2023-03-15 12:48:49:744,0,-54.4244,2.68436,11.8901,Q,Q
2023-03-15 12:48:49:754,0,-54.4287,2.6862,11.8865,Q,Q
2023-03-15 12:48:49:764,0,-54.4299,2.68846,11.8859,Q,Q
2023-03-15 12:48:49:774,0,-54.4312,2.69035,11.8841,Q,Q
2023-03-15 12:48:49:784,0,-54.4337,2.69067,11.8867,Q,Q
2023-03-15 12:48:49:794,0,-54.4308,2.69184,11.8827,Q,Q
2023-03-15 12:48:49:804,0,-54.4276,2.6931,11.8827,Q,Q
2023-03-15 12:48:49:814,0,-54.4245,2.69384,11.8805,Q,Q
2023-03-15 12:48:49:824,0,-54.4259,2.69159,11.8803,Q,Q
2023-03-15 12:48:49:834,0,-54.4269,2.69283,11.8816,Q,Q
2023-03-15 12:48:49:844,0,-54.4293,2.6941,11.8826,Q,Q
2023-03-15 12:48:49:854,0,-54.4312,2.6924,11.8841,Q,Q
2023-03-15 12:48:49:864,0,-54.4282,2.69247,11.8839,Q,Q
2023-03-15 12:48:49:874,0,-54.4279,2.69268,11.883,Q,Q
2023-03-15 12:48:49:884,0,-54.428,2.69042,11.8849,Q,Q
2023-03-15 12:48:49:894,0,-54.4254,2.68905,11.8851,Q,Q
2023-03-15 12:48:49:904,0,-54.429,2.6864,11.8849,Q,Q
2023-03-15 12:48:49:914,0,-54.4307,2.68706,11.8847,Q,Q
2023-03-15 12:48:49:924,0,-54.4297,2.68373,11.8849,Q,Q
2023-03-15 12:48:49:934,0,-54.4337,2.68378,11.8877,Q,Q
2023-03-15 12:48:49:944,0,-54.4357,2.68532,11.8852,Q,Q
2023-03-15 12:48:49:954,0,-54.4374,2.68562,11.8814,Q,Q
2023-03-15 12:48:49:964,0,-54.4374,2.68662,11.8824,Q,Q
2023-03-15 12:48:49:974,0,-54.4345,2.68927,11.8818,Q,Q
2023-03-15 12:48:49:984,0,-54.4376,2.68899,11.8816,Q,Q
2023-03-15 12:48:49:994,0,-54.4365,2.68926,11.8797,Q,Q
2023-03-15 12:48:50:4,0,-54.4343,2.69005,11.8804,Q,Q
2023-03-15 12:48:50:14,0,-54.433,2.68955,11.8766,Q,Q
2023-03-15 12:48:50:24,0,-54.4325,2.69232,11.8767,Q,Q
2023-03-15 12:48:50:34,0,-54.4306,2.69288,11.8763,Q,Q
2023-03-15 12:48:50:44,0,-54.4293,2.69395,11.8789,Q,Q
2023-03-15 12:48:50:54,0,-54.4289,2.69368,11.8804,Q,Q
2023-03-15 12:48:50:64,0,-54.4295,2.6927,11.8808,Q,Q
2023-03-15 12:48:50:74,0,-54.43,2.69353,11.8824,Q,Q
2023-03-15 12:48:50:84,0,-54.4283,2.6937,11.8827,Q,Q
2023-03-15 12:48:50:94,0,-54.4281,2.69502,11.8807,Q,Q
2023-03-15 12:48:50:104,0,-54.4286,2.69495,11.8814,Q,Q
2023-03-15 12:48:50:114,0,-54.4301,2.69159,11.8796,Q,Q
2023-03-15 12:48:50:124,0,-54.4282,2.69319,11.8787,Q,Q
2023-03-15 12:48:50:134,0,-54.4293,2.69516,11.8763,Q,Q
2023-03-15 12:48:50:144,0,-54.4273,2.69576,11.8735,Q,Q
2023-03-15 12:48:50:154,0,-54.4287,2.69527,11.8725,Q,Q
2023-03-15 12:48:50:164,0,-54.4281,2.69724,11.8731,Q,Q
2023-03-15 12:48:50:174,0,-54.4282,2.69703,11.8709,Q,Q
2023-03-15 12:48:50:184,0,-54.4299,2.70118,11.8719,Q,Q
2023-03-15 12:48:50:194,0,-54.428,2.69815,11.8727,Q,Q
2023-03-15 12:48:50:204,0,-54.4307,2.69559,11.8713,Q,Q
2023-03-15 12:48:50:214,0,-54.4307,2.69371,11.8689,Q,Q
2023-03-15 12:48:50:224,0,-54.4314,2.69177,11.8681,Q,Q
2023-03-15 12:48:50:234,0,-54.4286,2.69114,11.8715,Q,Q
2023-03-15 12:48:50:244,0,-54.4286,2.69041,11.8712,Q,Q
2023-03-15 12:48:50:254,0,-54.4292,2.69068,11.8735,Q,Q
2023-03-15 12:48:50:264,0,-54.4285,2.68785,11.8725,Q,Q
2023-03-15 12:48:50:274,0,-54.4303,2.68801,11.8743,Q,Q
2023-03-15 12:48:50:284,0,-54.4282,2.6907,11.8745,Q,Q
2023-03-15 12:48:50:294,0,-54.4278,2.69079,11.8767,Q,Q
2023-03-15 12:48:50:304,0,-54.4306,2.69021,11.875,Q,Q
2023-03-15 12:48:50:314,0,-54.4313,2.6901,11.8773,Q,Q
2023-03-15 12:48:50:324,0,-54.4336,2.69364,11.8785,Q,Q
2023-03-15 12:48:50:334,0,-54.4353,2.69468,11.8801,Q,Q
2023-03-15 12:48:50:344,0,-54.434,2.69402,11.8797,Q,Q
2023-03-15 12:48:50:354,0,-54.4331,2.69349,11.8819,Q,Q
2023-03-15 12:48:50:364,0,-54.4314,2.69559,11.8794,Q,Q
2023-03-15 12:48:50:374,0,-54.4295,2.69649,11.8814,Q,Q
2023-03-15 12:48:50:384,0,-54.4302,2.69312,11.8823,Q,Q
2023-03-15 12:48:50:394,0,-54.4311,2.69,11.8812,Q,Q
2023-03-15 12:48:50:404,0,-54.4326,2.69082,11.8816,Q,Q
2023-03-15 12:48:50:414,0,-54.4329,2.69507,11.8827,Q,Q
2023-03-15 12:48:50:424,0,-54.4314,2.69622,11.8855,Q,Q
2023-03-15 12:48:50:434,0,-54.4342,2.69666,11.8884,Q,Q
2023-03-15 12:48:50:444,0,-54.4356,2.70063,11.8903,Q,Q
2023-03-15 12:48:50:454,0,-54.4355,2.70068,11.8918,Q,Q
2023-03-15 12:48:50:464,0,-54.4371,2.70001,11.891,Q,Q
2023-03-15 12:48:50:474,0,-54.4371,2.70031,11.8919,Q,Q
2023-03-15 12:48:50:484,0,-54.4373,2.70437,11.8908,Q,Q
2023-03-15 12:48:50:494,0,-54.4387,2.70629,11.8894,Q,Q
2023-03-15 12:48:50:504,0,-54.4386,2.70706,11.8899,Q,Q
2023-03-15 12:48:50:514,0,-54.4391,2.70551,11.8897,Q,Q
2023-03-15 12:48:50:524,0,-54.4395,2.70354,11.8872,Q,Q
2023-03-15 12:48:50:534,0,-54.4368,2.70435,11.8904,Q,Q
2023-03-15 12:48:50:544,0,-54.4362,2.70462,11.891,Q,Q
2023-03-15 12:48:50:554,0,-54.4352,2.70358,11.892,Q,Q
2023-03-15 12:48:50:564,0,-54.4355,2.70198,11.8915,Q,Q
2023-03-15 12:48:50:574,0,-54.4363,2.69894,11.8939,Q,Q
2023-03-15 12:48:50:584,0,-54.4388,2.69769,11.8935,Q,Q
2023-03-15 12:48:50:594,0,-54.4396,2.69948,11.8931,Q,Q
2023-03-15 12:48:50:604,0,-54.4421,2.70094,11.8925,Q,Q
2023-03-15 12:48:50:614,0,-54.4421,2.70129,11.8918,Q,Q
2023-03-15 12:48:50:624,0,-54.437,2.7021,11.8943,Q,Q
2023-03-15 12:48:50:634,0,-54.4341,2.70571,11.8962,Q,Q
2023-03-15 12:48:50:644,0,-54.4368,2.70349,11.8984,Q,Q
2023-03-15 12:48:50:654,0,-54.4347,2.70335,11.8975,Q,Q
2023-03-15 12:48:50:664,0,-54.4366,2.70179,11.8986,Q,Q
2023-03-15 12:48:50:674,0,-54.4379,2.69657,11.9004,Q,Q
2023-03-15 12:48:50:684,0,-54.4376,2.69719,11.9,Q,Q
2023-03-15 12:48:50:694,0,-54.4362,2.69565,11.9011,Q,Q
2023-03-15 12:48:50:704,0,-54.4389,2.69409,11.9018,Q,Q
2023-03-15 12:48:50:714,0,-54.4404,2.69062,11.905,Q,Q
2023-03-15 12:48:50:724,0,-54.4406,2.6916,11.9037,Q,Q
2023-03-15 12:48:50:734,0,-54.4438,2.69291,11.9034,Q,Q
2023-03-15 12:48:50:744,0,-54.4433,2.69296,11.9025,Q,Q
2023-03-15 12:48:50:754,0,-54.4432,2.69299,11.9052,Q,Q
2023-03-15 12:48:50:764,0,-54.444,2.69221,11.9035,Q,Q
2023-03-15 12:48:50:774,0,-54.4452,2.69377,11.9047,Q,Q
2023-03-15 12:48:50:784,0,-54.4452,2.69248,11.9052,Q,Q
2023-03-15 12:48:50:794,0,-54.447,2.6945,11.9039,Q,Q
2023-03-15 12:48:50:804,0,-54.4453,2.69375,11.904,Q,Q
2023-03-15 12:48:50:814,0,-54.4461,2.69161,11.9023,Q,Q
2023-03-15 12:48:50:824,0,-54.4491,2.69288,11.901,Q,Q
2023-03-15 12:48:50:834,0,-54.45,2.69281,11.9007,Q,Q
2023-03-15 12:48:50:844,0,-54.449,2.69328,11.9006,Q,Q
2023-03-15 12:48:50:854,0,-54.451,2.69476,11.9002,Q,Q
2023-03-15 12:48:50:864,0,-54.4481,2.69412,11.9007,Q,Q
2023-03-15 12:48:50:874,0,-54.4462,2.69125,11.9039,Q,Q
2023-03-15 12:48:50:884,0,-54.4423,2.69247,11.9044,Q,Q
2023-03-15 12:48:50:894,0,-54.44,2.69352,11.9033,Q,Q
2023-03-15 12:48:50:904,0,-54.4395,2.69359,11.8997,Q,Q
2023-03-15 12:48:50:914,0,-54.439,2.69172,11.8982,Q,Q
2023-03-15 12:48:50:924,0,-54.442,2.69033,11.8966,Q,Q
2023-03-15 12:48:50:934,0,-54.4429,2.68946,11.8941,Q,Q
2023-03-15 12:48:50:944,0,-54.4403,2.68793,11.896,Q,Q
2023-03-15 12:48:50:954,0,-54.439,2.69093,11.8958,Q,Q
2023-03-15 12:48:50:964,0,-54.4411,2.69032,11.8961,Q,Q
2023-03-15 12:48:50:974,0,-54.4419,2.69151,11.8994,Q,Q
2023-03-15 12:48:50:984,0,-54.4443,2.69098,11.9019,Q,Q
2023-03-15 12:48:50:994,0,-54.4454,2.69032,11.9034,Q,Q
2023-03-15 12:48:51:4,0,-54.4497,2.69225,11.9055,Q,Q
2023-03-15 12:48:51:14,0,-54.4492,2.69172,11.9065,Q,Q
2023-03-15 12:48:51:24,0,-54.4474,2.69248,11.9073,Q,Q
2023-03-15 12:48:51:34,0,-54.4504,2.69828,11.9086,Q,Q
2023-03-15 12:48:51:44,0,-54.4502,2.69998,11.9104,Q,Q
2023-03-15 12:48:51:54,0,-54.4493,2.69783,11.9086,Q,Q
2023-03-15 12:48:51:64,0,-54.4481,2.69753,11.9125,Q,Q
2023-03-15 12:48:51:74,0,-54.4495,2.6979,11.9147,Q,Q
2023-03-15 12:48:51:84,0,-54.4507,2.69667,11.9161,Q,Q
2023-03-15 12:48:51:94,0,-54.4525,2.69564,11.9178,Q,Q
2023-03-15 12:48:51:104,0,-54.4519,2.69752,11.9199,Q,Q
2023-03-15 12:48:51:114,0,-54.452,2.69997,11.9171,Q,Q
2023-03-15 12:48:51:124,0,-54.4496,2.69727,11.9165,Q,Q
2023-03-15 12:48:51:134,0,-54.4502,2.69595,11.9145,Q,Q
2023-03-15 12:48:51:144,0,-54.4485,2.69393,11.9157,Q,Q
2023-03-15 12:48:51:154,0,-54.447,2.69376,11.9136,Q,Q
2023-03-15 12:48:51:164,0,-54.4446,2.69361,11.9158,Q,Q
2023-03-15 12:48:51:174,0,-54.4452,2.6903,11.9177,Q,Q
2023-03-15 12:48:51:184,0,-54.4435,2.68785,11.9204,Q,Q
2023-03-15 12:48:51:194,0,-54.4452,2.68826,11.9192,Q,Q
2023-03-15 12:48:51:204,0,-54.4464,2.68495,11.9181,Q,Q
2023-03-15 12:48:51:214,0,-54.4444,2.68552,11.9196,Q,Q
2023-03-15 12:48:51:224,0,-54.4421,2.68379,11.9214,Q,Q
2023-03-15 12:48:51:234,0,-54.4427,2.68219,11.9169,Q,Q
2023-03-15 12:48:51:244,0,-54.4433,2.6816,11.9184,Q,Q
2023-03-15 12:48:51:254,0,-54.4437,2.67858,11.9156,Q,Q
2023-03-15 12:48:51:264,0,-54.4459,2.67701,11.9154,Q,Q
2023-03-15 12:48:51:274,0,-54.4471,2.67537,11.9151,Q,Q
2023-03-15 12:48:51:284,0,-54.4486,2.67256,11.9152,Q,Q
2023-03-15 12:48:51:294,0,-54.444,2.67126,11.9154,Q,Q
2023-03-15 12:48:51:304,0,-54.4456,2.67243,11.9168,Q,Q
2023-03-15 12:48:51:314,0,-54.4437,2.67098,11.9203,Q,Q
2023-03-15 12:48:51:324,0,-54.44,2.66934,11.9235,Q,Q
2023-03-15 12:48:51:334,0,-54.4394,2.66956,11.9291,Q,Q
2023-03-15 12:48:51:344,0,-54.439,2.66957,11.9278,Q,Q
2023-03-15 12:48:51:354,0,-54.4406,2.66951,11.9295,Q,Q
2023-03-15 12:48:51:364,0,-54.4415,2.67063,11.927,Q,Q
2023-03-15 12:48:51:374,0,-54.4397,2.67404,11.9259,Q,Q
2023-03-15 12:48:51:384,0,-54.4374,2.67489,11.9287,Q,Q
2023-03-15 12:48:51:394,0,-54.4382,2.67478,11.9275,Q,Q
2023-03-15 12:48:51:404,0,-54.4347,2.6746,11.9294,Q,Q
2023-03-15 12:48:51:414,0,-54.4339,2.67311,11.9307,Q,Q
2023-03-15 12:48:51:424,0,-54.4344,2.6719,11.9316,Q,Q
2023-03-15 12:48:51:434,0,-54.4348,2.67126,11.9343,Q,Q
2023-03-15 12:48:51:444,0,-54.4357,2.67225,11.9346,Q,Q
2023-03-15 12:48:51:454,0,-54.4358,2.67387,11.9365,Q,Q
2023-03-15 12:48:51:464,0,-54.4369,2.6768,11.9371,Q,Q
2023-03-15 12:48:51:474,0,-54.437,2.67737,11.9375,Q,Q
2023-03-15 12:48:51:484,0,-54.4389,2.67544,11.9388,Q,Q
2023-03-15 12:48:51:494,0,-54.4389,2.67567,11.939,Q,Q
2023-03-15 12:48:51:504,0,-54.4371,2.67462,11.9401,Q,Q
2023-03-15 12:48:51:514,0,-54.4337,2.67134,11.9384,Q,Q
2023-03-15 12:48:51:524,0,-54.4312,2.67289,11.9389,Q,Q
2023-03-15 12:48:51:534,0,-54.43,2.67363,11.9348,Q,Q
2023-03-15 12:48:51:544,0,-54.4308,2.67371,11.9343,Q,Q
2023-03-15 12:48:51:554,0,-54.4296,2.67421,11.9396,Q,Q
2023-03-15 12:48:51:564,0,-54.4303,2.67415,11.94,Q,Q
2023-03-15 12:48:51:574,0,-54.4292,2.67332,11.939,Q,Q
2023-03-15 12:48:51:584,0,-54.4294,2.67657,11.9369,Q,Q
2023-03-15 12:48:51:594,0,-54.4318,2.67692,11.9348,Q,Q
2023-03-15 12:48:51:604,0,-54.4293,2.67774,11.9353,Q,Q
2023-03-15 12:48:51:614,0,-54.431,2.67645,11.9329,Q,Q
2023-03-15 12:48:51:624,0,-54.429,2.67926,11.9304,Q,Q
2023-03-15 12:48:51:634,0,-54.4261,2.67922,11.9322,Q,Q
2023-03-15 12:48:51:644,0,-54.4248,2.67933,11.9334,Q,Q
2023-03-15 12:48:51:654,0,-54.4253,2.67858,11.9322,Q,Q
2023-03-15 12:48:51:664,0,-54.4258,2.68103,11.9322,Q,Q
2023-03-15 12:48:51:674,0,-54.425,2.68119,11.9309,Q,Q
2023-03-15 12:48:51:684,0,-54.426,2.68326,11.9324,Q,Q
2023-03-15 12:48:51:694,0,-54.4269,2.68343,11.9346,Q,Q
2023-03-15 12:48:51:704,0,-54.4262,2.68307,11.9326,Q,Q
2023-03-15 12:48:51:714,0,-54.4263,2.68121,11.9346,Q,Q
2023-03-15 12:48:51:724,0,-54.4261,2.67962,11.9362,Q,Q
2023-03-15 12:48:51:734,0,-54.4268,2.68223,11.9345,Q,Q
2023-03-15 12:48:51:744,0,-54.4274,2.68304,11.9339,Q,Q
2023-03-15 12:48:51:754,0,-54.4284,2.68234,11.9333,Q,Q
2023-03-15 12:48:51:764,0,-54.4308,2.68284,11.9339,Q,Q
2023-03-15 12:48:51:774,0,-54.4337,2.68009,11.9321,Q,Q
2023-03-15 12:48:51:784,0,-54.4366,2.6762,11.9308,Q,Q
2023-03-15 12:48:51:794,0,-54.438,2.67289,11.9321,Q,Q
2023-03-15 12:48:51:804,0,-54.4411,2.6717,11.9326,Q,Q
2023-03-15 12:48:51:814,0,-54.4374,2.67371,11.9353,Q,Q
2023-03-15 12:48:51:824,0,-54.4372,2.67541,11.9364,Q,Q
2023-03-15 12:48:51:834,0,-54.4382,2.67381,11.9357,Q,Q
2023-03-15 12:48:51:844,0,-54.4393,2.67258,11.9389,Q,Q
2023-03-15 12:48:51:854,0,-54.4404,2.66995,11.9406,Q,Q
2023-03-15 12:48:51:864,0,-54.4384,2.66951,11.943,Q,Q
2023-03-15 12:48:51:874,0,-54.4394,2.66755,11.9431,Q,Q
2023-03-15 12:48:51:884,0,-54.4402,2.66665,11.9447,Q,Q
2023-03-15 12:48:51:894,0,-54.4395,2.6644,11.9457,Q,Q
2023-03-15 12:48:51:904,0,-54.4404,2.66129,11.9453,Q,Q
2023-03-15 12:48:51:914,0,-54.4405,2.6598,11.9437,Q,Q
2023-03-15 12:48:51:924,0,-54.4402,2.66185,11.9461,Q,Q
2023-03-15 12:48:51:934,0,-54.4411,2.66087,11.9466,Q,Q
2023-03-15 12:48:51:944,0,-54.4414,2.66073,11.9469,Q,Q
2023-03-15 12:48:51:954,0,-54.4371,2.65969,11.9466,Q,Q
2023-03-15 12:48:51:964,0,-54.4385,2.65946,11.9488,Q,Q
2023-03-15 12:48:51:974,0,-54.4382,2.65579,11.9503,Q,Q
2023-03-15 12:48:51:984,0,-54.4388,2.65236,11.9497,Q,Q
2023-03-15 12:48:51:994,0,-54.4372,2.64914,11.9504,Q,Q
2023-03-15 12:48:52:4,0,-54.4352,2.65049,11.9517,Q,Q
2023-03-15 12:48:52:14,0,-54.4352,2.64979,11.9506,Q,Q
2023-03-15 12:48:52:24,0,-54.4351,2.64639,11.9528,Q,Q
2023-03-15 12:48:52:34,0,-54.4345,2.64755,11.9542,Q,Q
2023-03-15 12:48:52:44,0,-54.4367,2.64491,11.9554,Q,Q
2023-03-15 12:48:52:54,0,-54.4345,2.64438,11.9571,Q,Q
2023-03-15 12:48:52:64,0,-54.4313,2.64406,11.9573,Q,Q
2023-03-15 12:48:52:74,0,-54.427,2.64465,11.9556,Q,Q
2023-03-15 12:48:52:84,0,-54.4277,2.64447,11.9559,Q,Q
2023-03-15 12:48:52:94,0,-54.4236,2.64382,11.957,Q,Q
2023-03-15 12:48:52:104,0,-54.4247,2.64157,11.9562,Q,Q
2023-03-15 12:48:52:114,0,-54.4252,2.64243,11.9541,Q,Q
2023-03-15 12:48:52:124,0,-54.4268,2.64388,11.9529,Q,Q
2023-03-15 12:48:52:134,0,-54.4249,2.64562,11.953,Q,Q
2023-03-15 12:48:52:144,0,-54.4272,2.64495,11.9533,Q,Q
2023-03-15 12:48:52:154,0,-54.4288,2.64386,11.9467,Q,Q
2023-03-15 12:48:52:164,0,-54.4286,2.64468,11.9475,Q,Q
2023-03-15 12:48:52:174,0,-54.4313,2.6447,11.9462,Q,Q
2023-03-15 12:48:52:184,0,-54.4311,2.64541,11.9475,Q,Q
2023-03-15 12:48:52:194,0,-54.4301,2.64475,11.9479,Q,Q
2023-03-15 12:48:52:204,0,-54.4323,2.642,11.9501,Q,Q
2023-03-15 12:48:52:214,0,-54.4347,2.64196,11.9509,Q,Q
2023-03-15 12:48:52:224,0,-54.4338,2.64046,11.9491,Q,Q
2023-03-15 12:48:52:234,0,-54.4323,2.63786,11.9523,Q,Q
2023-03-15 12:48:52:244,0,-54.433,2.63784,11.9499,Q,Q
2023-03-15 12:48:52:254,0,-54.4341,2.6388,11.952,Q,Q
2023-03-15 12:48:52:264,0,-54.4341,2.63703,11.9526,Q,Q
2023-03-15 12:48:52:274,0,-54.4356,2.63981,11.9492,Q,Q
2023-03-15 12:48:52:284,0,-54.4332,2.64176,11.9464,Q,Q
2023-03-15 12:48:52:294,0,-54.4335,2.64413,11.9442,Q,Q
2023-03-15 12:48:52:304,0,-54.432,2.64603,11.9414,Q,Q
2023-03-15 12:48:52:314,0,-54.4306,2.64886,11.9375,Q,Q
2023-03-15 12:48:52:324,0,-54.4317,2.64809,11.9362,Q,Q
2023-03-15 12:48:52:334,0,-54.4323,2.64962,11.9324,Q,Q
2023-03-15 12:48:52:344,0,-54.4315,2.64999,11.9299,Q,Q
2023-03-15 12:48:52:354,0,-54.4323,2.64918,11.9298,Q,Q
2023-03-15 12:48:52:364,0,-54.432,2.64747,11.931,Q,Q
2023-03-15 12:48:52:374,0,-54.4315,2.64661,11.9335,Q,Q
2023-03-15 12:48:52:384,0,-54.4329,2.64445,11.9364,Q,Q
2023-03-15 12:48:52:394,0,-54.4291,2.64654,11.9369,Q,Q
2023-03-15 12:48:52:404,0,-54.4274,2.64418,11.9353,Q,Q
2023-03-15 12:48:52:414,0,-54.4276,2.64265,11.9367,Q,Q
2023-03-15 12:48:52:424,0,-54.4221,2.64062,11.935,Q,Q
2023-03-15 12:48:52:434,0,-54.422,2.63965,11.934,Q,Q
2023-03-15 12:48:52:444,0,-54.4227,2.63983,11.9322,Q,Q
2023-03-15 12:48:52:454,0,-54.4189,2.63749,11.9322,Q,Q
2023-03-15 12:48:52:464,0,-54.4199,2.63638,11.9308,Q,Q
2023-03-15 12:48:52:474,0,-54.4197,2.63812,11.9302,Q,Q
2023-03-15 12:48:52:484,0,-54.4198,2.63646,11.9275,Q,Q
2023-03-15 12:48:52:494,0,-54.4169,2.63514,11.9275,Q,Q
2023-03-15 12:48:52:504,0,-54.419,2.63456,11.9295,Q,Q
2023-03-15 12:48:52:514,0,-54.4191,2.63902,11.9263,Q,Q
2023-03-15 12:48:52:524,0,-54.4189,2.63521,11.9257,Q,Q
2023-03-15 12:48:52:534,0,-54.4176,2.63201,11.9254,Q,Q
2023-03-15 12:48:52:544,0,-54.4174,2.62929,11.9243,Q,Q
2023-03-15 12:48:52:554,0,-54.4159,2.62571,11.9226,Q,Q
2023-03-15 12:48:52:564,0,-54.4173,2.626,11.9245,Q,Q
2023-03-15 12:48:52:574,0,-54.4188,2.6249,11.9253,Q,Q
2023-03-15 12:48:52:584,0,-54.4212,2.62402,11.9254,Q,Q
2023-03-15 12:48:52:594,0,-54.4239,2.62185,11.9251,Q,Q
2023-03-15 12:48:52:604,0,-54.4251,2.62359,11.9246,Q,Q
2023-03-15 12:48:52:614,0,-54.4289,2.62145,11.926,Q,Q
2023-03-15 12:48:52:624,0,-54.4292,2.62191,11.9261,Q,Q
2023-03-15 12:48:52:634,0,-54.4296,2.62325,11.9243,Q,Q
2023-03-15 12:48:52:644,0,-54.4285,2.62198,11.9257,Q,Q
2023-03-15 12:48:52:654,0,-54.4266,2.62401,11.9247,Q,Q
2023-03-15 12:48:52:664,0,-54.4268,2.626,11.9234,Q,Q
2023-03-15 12:48:52:674,0,-54.4265,2.62703,11.9256,Q,Q
2023-03-15 12:48:52:684,0,-54.4266,2.62828,11.9262,Q,Q
2023-03-15 12:48:52:694,0,-54.4283,2.62986,11.9236,Q,Q
2023-03-15 12:48:52:704,0,-54.4277,2.63196,11.9211,Q,Q
2023-03-15 12:48:52:714,0,-54.4268,2.63032,11.9201,Q,Q
2023-03-15 12:48:52:724,0,-54.4266,2.63003,11.9194,Q,Q
2023-03-15 12:48:52:734,0,-54.43,2.63098,11.9218,Q,Q
2023-03-15 12:48:52:744,0,-54.4291,2.6314,11.9253,Q,Q
2023-03-15 12:48:52:754,0,-54.4284,2.63411,11.9257,Q,Q
2023-03-15 12:48:52:764,0,-54.4294,2.63304,11.9243,Q,Q
2023-03-15 12:48:52:774,0,-54.43,2.63407,11.9217,Q,Q
2023-03-15 12:48:52:784,0,-54.4282,2.63779,11.9224,Q,Q
2023-03-15 12:48:52:794,0,-54.4269,2.63512,11.9248,Q,Q
2023-03-15 12:48:52:804,0,-54.4286,2.63486,11.9266,Q,Q
2023-03-15 12:48:52:814,0,-54.429,2.63497,11.927,Q,Q
2023-03-15 12:48:52:824,0,-54.4299,2.63829,11.9284,Q,Q
2023-03-15 12:48:52:834,0,-54.4292,2.63786,11.928,Q,Q
2023-03-15 12:48:52:844,0,-54.4289,2.63705,11.9247,Q,Q
2023-03-15 12:48:52:854,0,-54.4322,2.63712,11.924,Q,Q
2023-03-15 12:48:52:864,0,-54.4356,2.63835,11.9228,Q,Q
2023-03-15 12:48:52:874,0,-54.4357,2.63942,11.9204,Q,Q
2023-03-15 12:48:52:884,0,-54.436,2.64022,11.9221,Q,Q
2023-03-15 12:48:52:894,0,-54.4345,2.64079,11.9201,Q,Q
2023-03-15 12:48:52:904,0,-54.4317,2.64003,11.9164,Q,Q
2023-03-15 12:48:52:914,0,-54.4314,2.64018,11.9168,Q,Q
2023-03-15 12:48:52:924,0,-54.4307,2.63918,11.9153,Q,Q
2023-03-15 12:48:52:934,0,-54.4316,2.63772,11.9138,Q,Q
2023-03-15 12:48:52:944,0,-54.4315,2.63708,11.9165,Q,Q
2023-03-15 12:48:52:954,0,-54.4333,2.63946,11.9165,Q,Q
2023-03-15 12:48:52:964,0,-54.4345,2.63924,11.9128,Q,Q
2023-03-15 12:48:52:974,0,-54.4394,2.63753,11.9132,Q,Q
2023-03-15 12:48:52:984,0,-54.4393,2.63527,11.9143,Q,Q
2023-03-15 12:48:52:994,0,-54.4372,2.63726,11.9155,Q,Q
2023-03-15 12:48:53:4,0,-54.435,2.63764,11.916,Q,Q
2023-03-15 12:48:53:14,0,-54.4356,2.63884,11.9168,Q,Q
2023-03-15 12:48:53:24,0,-54.4344,2.63707,11.9146,Q,Q
2023-03-15 12:48:53:34,0,-54.434,2.63493,11.9158,Q,Q
2023-03-15 12:48:53:44,0,-54.4384,2.63284,11.9145,Q,Q
2023-03-15 12:48:53:54,0,-54.4381,2.63328,11.9148,Q,Q
2023-03-15 12:48:53:64,0,-54.4363,2.63541,11.9141,Q,Q
2023-03-15 12:48:53:74,0,-54.4335,2.6324,11.9157,Q,Q
2023-03-15 12:48:53:84,0,-54.4345,2.6323,11.9156,Q,Q
2023-03-15 12:48:53:94,0,-54.4324,2.63335,11.9115,Q,Q
2023-03-15 12:48:53:104,0,-54.4313,2.63333,11.9095,Q,Q
2023-03-15 12:48:53:114,0,-54.4312,2.63419,11.9091,Q,Q
2023-03-15 12:48:53:124,0,-54.4282,2.63757,11.9081,Q,Q
2023-03-15 12:48:53:134,0,-54.4288,2.63773,11.9093,Q,Q
2023-03-15 12:48:53:144,0,-54.426,2.63587,11.9081,Q,Q
2023-03-15 12:48:53:154,0,-54.4253,2.63219,11.9093,Q,Q
2023-03-15 12:48:53:164,0,-54.4238,2.63276,11.9121,Q,Q
2023-03-15 12:48:53:174,0,-54.4268,2.62927,11.9163,Q,Q
2023-03-15 12:48:53:184,0,-54.4286,2.62937,11.916,Q,Q
2023-03-15 12:48:53:194,0,-54.4305,2.62891,11.917,Q,Q
2023-03-15 12:48:53:204,0,-54.433,2.63011,11.9198,Q,Q
2023-03-15 12:48:53:214,0,-54.4319,2.6284,11.9221,Q,Q
2023-03-15 12:48:53:224,0,-54.4344,2.62993,11.9228,Q,Q
2023-03-15 12:48:53:234,0,-54.4319,2.63153,11.9211,Q,Q
2023-03-15 12:48:53:244,0,-54.4324,2.63123,11.9194,Q,Q
2023-03-15 12:48:53:254,0,-54.432,2.62903,11.9192,Q,Q
2023-03-15 12:48:53:264,0,-54.4327,2.63175,11.9245,Q,Q
2023-03-15 12:48:53:274,0,-54.4352,2.63183,11.9254,Q,Q
2023-03-15 12:48:53:284,0,-54.4336,2.63124,11.9273,Q,Q
2023-03-15 12:48:53:294,0,-54.4349,2.6299,11.929,Q,Q
2023-03-15 12:48:53:304,0,-54.4319,2.62942,11.9278,Q,Q
2023-03-15 12:48:53:314,0,-54.4325,2.63005,11.9275,Q,Q
2023-03-15 12:48:53:324,0,-54.4339,2.62863,11.9252,Q,Q
2023-03-15 12:48:53:334,0,-54.4335,2.62864,11.9258,Q,Q
2023-03-15 12:48:53:344,0,-54.4325,2.62716,11.9277,Q,Q
2023-03-15 12:48:53:354,0,-54.4298,2.62708,11.9248,Q,Q
2023-03-15 12:48:53:364,0,-54.4311,2.62733,11.9241,Q,Q
2023-03-15 12:48:53:374,0,-54.4321,2.62793,11.9248,Q,Q
2023-03-15 12:48:53:384,0,-54.4318,2.62966,11.929,Q,Q
2023-03-15 12:48:53:394,0,-54.4328,2.62644,11.9298,Q,Q
2023-03-15 12:48:53:404,0,-54.4317,2.62583,11.9304,Q,Q
2023-03-15 12:48:53:414,0,-54.4337,2.62482,11.9301,Q,Q
2023-03-15 12:48:53:424,0,-54.4315,2.62656,11.9278,Q,Q
2023-03-15 12:48:53:434,0,-54.4316,2.62775,11.927,Q,Q
2023-03-15 12:48:53:444,0,-54.4322,2.62856,11.9242,Q,Q
2023-03-15 12:48:53:454,0,-54.4336,2.62897,11.9274,Q,Q
2023-03-15 12:48:53:464,0,-54.435,2.62812,11.9302,Q,Q
2023-03-15 12:48:53:474,0,-54.4326,2.62801,11.932,Q,Q
2023-03-15 12:48:53:484,0,-54.4338,2.62788,11.931,Q,Q
2023-03-15 12:48:53:494,0,-54.4331,2.62975,11.9337,Q,Q
2023-03-15 12:48:53:504,0,-54.4337,2.63038,11.9341,Q,Q
2023-03-15 12:48:53:514,0,-54.4346,2.63082,11.9315,Q,Q
2023-03-15 12:48:53:524,0,-54.4346,2.63008,11.9344,Q,Q
2023-03-15 12:48:53:534,0,-54.4356,2.6295,11.9357,Q,Q
2023-03-15 12:48:53:544,0,-54.4361,2.62945,11.9358,Q,Q
2023-03-15 12:48:53:554,0,-54.4364,2.63075,11.9375,Q,Q
2023-03-15 12:48:53:564,0,-54.4375,2.63046,11.937,Q,Q
2023-03-15 12:48:53:574,0,-54.4372,2.62832,11.9403,Q,Q
2023-03-15 12:48:53:584,0,-54.4349,2.62884,11.9422,Q,Q
2023-03-15 12:48:53:594,0,-54.4332,2.62693,11.9421,Q,Q
2023-03-15 12:48:53:604,0,-54.4345,2.62839,11.9406,Q,Q
2023-03-15 12:48:53:614,0,-54.4345,2.62803,11.9413,Q,Q
2023-03-15 12:48:53:624,0,-54.4329,2.62629,11.9442,Q,Q
2023-03-15 12:48:53:634,0,-54.4347,2.62736,11.9445,Q,Q
2023-03-15 12:48:53:644,0,-54.4358,2.6258,11.9436,Q,Q
2023-03-15 12:48:53:654,0,-54.4342,2.62728,11.9432,Q,Q
2023-03-15 12:48:53:664,0,-54.433,2.62608,11.9467,Q,Q
2023-03-15 12:48:53:674,0,-54.4328,2.62567,11.9439,Q,Q
2023-03-15 12:48:53:684,0,-54.4341,2.62849,11.9457,Q,Q
2023-03-15 12:48:53:694,0,-54.4333,2.62792,11.9501,Q,Q
2023-03-15 12:48:53:704,0,-54.4326,2.62592,11.9484,Q,Q
2023-03-15 12:48:53:714,0,-54.4331,2.62737,11.952,Q,Q
2023-03-15 12:48:53:724,0,-54.4327,2.628,11.9493,Q,Q
2023-03-15 12:48:53:734,0,-54.4305,2.62708,11.9495,Q,Q
2023-03-15 12:48:53:744,0,-54.4293,2.62903,11.9503,Q,Q
2023-03-15 12:48:53:754,0,-54.4284,2.62933,11.9495,Q,Q
2023-03-15 12:48:53:764,0,-54.4279,2.63019,11.9514,Q,Q
2023-03-15 12:48:53:774,0,-54.4292,2.62993,11.9541,Q,Q
2023-03-15 12:48:53:784,0,-54.431,2.63321,11.9501,Q,Q
2023-03-15 12:48:53:794,0,-54.4323,2.63201,11.9536,Q,Q
2023-03-15 12:48:53:804,0,-54.4317,2.63251,11.9519,Q,Q
2023-03-15 12:48:53:814,0,-54.4303,2.63403,11.95,Q,Q
2023-03-15 12:48:53:824,0,-54.4309,2.63521,11.9497,Q,Q
2023-03-15 12:48:53:834,0,-54.4325,2.63893,11.9518,Q,Q
2023-03-15 12:48:53:844,0,-54.431,2.6352,11.9576,Q,Q
2023-03-15 12:48:53:854,0,-54.4314,2.63385,11.9547,Q,Q
2023-03-15 12:48:53:864,0,-54.4324,2.63366,11.9591,Q,Q
2023-03-15 12:48:53:874,0,-54.4322,2.63074,11.9576,Q,Q
2023-03-15 12:48:53:884,0,-54.4323,2.62955,11.9583,Q,Q
2023-03-15 12:48:53:894,0,-54.4319,2.63094,11.958,Q,Q
2023-03-15 12:48:53:904,0,-54.4342,2.63203,11.9589,Q,Q
2023-03-15 12:48:53:914,0,-54.4325,2.62943,11.9613,Q,Q
2023-03-15 12:48:53:924,0,-54.4339,2.63117,11.9605,Q,Q
2023-03-15 12:48:53:934,0,-54.4378,2.63167,11.9607,Q,Q
2023-03-15 12:48:53:944,0,-54.4367,2.6346,11.9637,Q,Q
2023-03-15 12:48:53:954,0,-54.4344,2.63764,11.9634,Q,Q
2023-03-15 12:48:53:964,0,-54.4333,2.6385,11.9617,Q,Q
2023-03-15 12:48:53:974,0,-54.4312,2.63906,11.9609,Q,Q
2023-03-15 12:48:53:984,0,-54.4307,2.63773,11.9628,Q,Q
2023-03-15 12:48:53:994,0,-54.4278,2.6401,11.9651,Q,Q
2023-03-15 12:48:54:4,0,-54.429,2.63849,11.9666,Q,Q
2023-03-15 12:48:54:14,0,-54.4283,2.63511,11.9677,Q,Q
2023-03-15 12:48:54:24,0,-54.4263,2.63599,11.9682,Q,Q
2023-03-15 12:48:54:34,0,-54.4252,2.63091,11.9693,Q,Q
2023-03-15 12:48:54:44,0,-54.427,2.63045,11.9694,Q,Q
2023-03-15 12:48:54:54,0,-54.4284,2.63171,11.9699,Q,Q
2023-03-15 12:48:54:64,0,-54.4267,2.63144,11.9699,Q,Q
2023-03-15 12:48:54:74,0,-54.4248,2.63209,11.972,Q,Q
2023-03-15 12:48:54:84,0,-54.4269,2.63099,11.9742,Q,Q
2023-03-15 12:48:54:94,0,-54.4282,2.62918,11.9771,Q,Q
2023-03-15 12:48:54:104,0,-54.4258,2.62709,11.9774,Q,Q
2023-03-15 12:48:54:114,0,-54.4262,2.62607,11.9802,Q,Q
2023-03-15 12:48:54:124,0,-54.4257,2.62654,11.9777,Q,Q
2023-03-15 12:48:54:134,0,-54.4236,2.62785,11.9756,Q,Q
2023-03-15 12:48:54:144,0,-54.4225,2.62743,11.9758,Q,Q
2023-03-15 12:48:54:154,0,-54.4238,2.62849,11.9722,Q,Q
2023-03-15 12:48:54:164,0,-54.4247,2.63282,11.9719,Q,Q
2023-03-15 12:48:54:174,0,-54.4246,2.63557,11.9721,Q,Q
2023-03-15 12:48:54:184,0,-54.4265,2.63549,11.9728,Q,Q
2023-03-15 12:48:54:194,0,-54.4273,2.63703,11.9705,Q,Q
2023-03-15 12:48:54:204,0,-54.4257,2.63414,11.9733,Q,Q
2023-03-15 12:48:54:214,0,-54.4251,2.63272,11.9726,Q,Q
2023-03-15 12:48:54:224,0,-54.4236,2.6296,11.9724,Q,Q
2023-03-15 12:48:54:234,0,-54.4228,2.62766,11.9723,Q,Q
2023-03-15 12:48:54:244,0,-54.4224,2.62756,11.9738,Q,Q
2023-03-15 12:48:54:254,0,-54.4239,2.62788,11.979,Q,Q
2023-03-15 12:48:54:264,0,-54.4205,2.62651,11.9777,Q,Q
2023-03-15 12:48:54:274,0,-54.4196,2.62645,11.9761,Q,Q
2023-03-15 12:48:54:284,0,-54.4171,2.62731,11.9758,Q,Q
2023-03-15 12:48:54:294,0,-54.4197,2.62876,11.9764,Q,Q
2023-03-15 12:48:54:304,0,-54.419,2.63053,11.9762,Q,Q
2023-03-15 12:48:54:314,0,-54.4192,2.62762,11.9797,Q,Q
2023-03-15 12:48:54:324,0,-54.4198,2.62912,11.9776,Q,Q
2023-03-15 12:48:54:334,0,-54.417,2.63321,11.9792,Q,Q
2023-03-15 12:48:54:344,0,-54.4156,2.63201,11.9812,Q,Q
2023-03-15 12:48:54:354,0,-54.4154,2.63395,11.9816,Q,Q
2023-03-15 12:48:54:364,0,-54.4149,2.6363,11.9832,Q,Q
2023-03-15 12:48:54:374,0,-54.4179,2.63492,11.9842,Q,Q
2023-03-15 12:48:54:384,0,-54.4187,2.636,11.9832,Q,Q
2023-03-15 12:48:54:394,0,-54.4183,2.63434,11.9838,Q,Q
2023-03-15 12:48:54:404,0,-54.4177,2.63749,11.9838,Q,Q
2023-03-15 12:48:54:414,0,-54.4175,2.63978,11.9831,Q,Q
2023-03-15 12:48:54:424,0,-54.4217,2.64059,11.9826,Q,Q
2023-03-15 12:48:54:434,0,-54.4237,2.63999,11.9826,Q,Q
2023-03-15 12:48:54:444,0,-54.4254,2.6402,11.9812,Q,Q
2023-03-15 12:48:54:454,0,-54.4271,2.63779,11.9815,Q,Q
2023-03-15 12:48:54:464,0,-54.4294,2.64023,11.9847,Q,Q
2023-03-15 12:48:54:474,0,-54.4345,2.63984,11.9835,Q,Q
2023-03-15 12:48:54:484,0,-54.4352,2.64073,11.9834,Q,Q
2023-03-15 12:48:54:494,0,-54.4353,2.63845,11.984,Q,Q
2023-03-15 12:48:54:504,0,-54.4359,2.63937,11.9835,Q,Q
2023-03-15 12:48:54:514,0,-54.437,2.63423,11.9805,Q,Q
2023-03-15 12:48:54:524,0,-54.4396,2.63341,11.9799,Q,Q
2023-03-15 12:48:54:534,0,-54.4445,2.63441,11.981,Q,Q
2023-03-15 12:48:54:544,0,-54.4455,2.63558,11.9778,Q,Q
2023-03-15 12:48:54:554,0,-54.4445,2.63481,11.9771,Q,Q
2023-03-15 12:48:54:564,0,-54.4456,2.63264,11.9767,Q,Q
2023-03-15 12:48:54:574,0,-54.4469,2.63377,11.9744,Q,Q
2023-03-15 12:48:54:584,0,-54.4488,2.638,11.9731,Q,Q
2023-03-15 12:48:54:594,0,-54.4449,2.63873,11.9722,Q,Q
2023-03-15 12:48:54:604,0,-54.4452,2.64065,11.9701,Q,Q
2023-03-15 12:48:54:614,0,-54.445,2.64214,11.9734,Q,Q
2023-03-15 12:48:54:624,0,-54.4436,2.64182,11.9751,Q,Q
2023-03-15 12:48:54:634,0,-54.4474,2.64223,11.9766,Q,Q
2023-03-15 12:48:54:644,0,-54.4468,2.64322,11.9778,Q,Q
2023-03-15 12:48:54:654,0,-54.4469,2.64418,11.9764,Q,Q
2023-03-15 12:48:54:664,0,-54.4485,2.64552,11.978,Q,Q
2023-03-15 12:48:54:674,0,-54.4472,2.64925,11.9788,Q,Q
2023-03-15 12:48:54:684,0,-54.4456,2.65071,11.9799,Q,Q
2023-03-15 12:48:54:694,0,-54.4437,2.64893,11.9801,Q,Q
2023-03-15 12:48:54:704,0,-54.4436,2.65015,11.9818,Q,Q
2023-03-15 12:48:54:714,0,-54.4463,2.65079,11.9804,Q,Q
2023-03-15 12:48:54:724,0,-54.4457,2.65295,11.9814,Q,Q
2023-03-15 12:48:54:734,0,-54.4456,2.6526,11.9798,Q,Q
2023-03-15 12:48:54:744,0,-54.4495,2.65528,11.9781,Q,Q
2023-03-15 12:48:54:754,0,-54.4514,2.65349,11.9791,Q,Q
2023-03-15 12:48:54:764,0,-54.4557,2.65122,11.9808,Q,Q
2023-03-15 12:48:54:774,0,-54.4557,2.65258,11.9796,Q,Q
2023-03-15 12:48:54:784,0,-54.4544,2.65457,11.9772,Q,Q
2023-03-15 12:48:54:794,0,-54.4577,2.65404,11.9798,Q,Q
2023-03-15 12:48:54:804,0,-54.4616,2.6549,11.9769,Q,Q
2023-03-15 12:48:54:814,0,-54.462,2.65229,11.9781,Q,Q
2023-03-15 12:48:54:824,0,-54.461,2.64984,11.9774,Q,Q
2023-03-15 12:48:54:834,0,-54.4593,2.64973,11.9775,Q,Q
2023-03-15 12:48:54:844,0,-54.4606,2.64946,11.9776,Q,Q
2023-03-15 12:48:54:854,0,-54.4597,2.64969,11.9733,Q,Q
2023-03-15 12:48:54:864,0,-54.4611,2.64825,11.9723,Q,Q
2023-03-15 12:48:54:874,0,-54.4591,2.6473,11.9716,Q,Q
2023-03-15 12:48:54:884,0,-54.4593,2.64802,11.9699,Q,Q
2023-03-15 12:48:54:894,0,-54.4566,2.64886,11.9709,Q,Q
2023-03-15 12:48:54:904,0,-54.4582,2.64988,11.967,Q,Q
2023-03-15 12:48:54:914,0,-54.457,2.64724,11.9693,Q,Q
2023-03-15 12:48:54:924,0,-54.4565,2.64805,11.9709,Q,Q
2023-03-15 12:48:54:934,0,-54.4597,2.64709,11.9715,Q,Q
2023-03-15 12:48:54:944,0,-54.4603,2.64505,11.9702,Q,Q
2023-03-15 12:48:54:954,0,-54.4615,2.64583,11.97,Q,Q
2023-03-15 12:48:54:964,0,-54.4596,2.64835,11.9709,Q,Q
2023-03-15 12:48:54:974,0,-54.4584,2.64821,11.9703,Q,Q
2023-03-15 12:48:54:984,0,-54.457,2.65047,11.9675,Q,Q
2023-03-15 12:48:54:994,0,-54.4595,2.65066,11.9666,Q,Q
2023-03-15 12:48:55:4,0,-54.4588,2.64931,11.9679,Q,Q
2023-03-15 12:48:55:14,0,-54.4586,2.65032,11.9674,Q,Q
2023-03-15 12:48:55:24,0,-54.4546,2.64967,11.9685,Q,Q
2023-03-15 12:48:55:34,0,-54.4535,2.64805,11.9656,Q,Q
2023-03-15 12:48:55:44,0,-54.4499,2.64826,11.9679,Q,Q
2023-03-15 12:48:55:54,0,-54.4487,2.64724,11.9666,Q,Q
2023-03-15 12:48:55:64,0,-54.4453,2.64893,11.9667,Q,Q
2023-03-15 12:48:55:74,0,-54.4442,2.64769,11.9671,Q,Q
2023-03-15 12:48:55:84,0,-54.4417,2.64928,11.9662,Q,Q
2023-03-15 12:48:55:94,0,-54.4426,2.65189,11.9682,Q,Q
2023-03-15 12:48:55:104,0,-54.4438,2.65164,11.9679,Q,Q
2023-03-15 12:48:55:114,0,-54.4415,2.65051,11.9704,Q,Q
2023-03-15 12:48:55:124,0,-54.4412,2.64819,11.9687,Q,Q
2023-03-15 12:48:55:134,0,-54.4424,2.64743,11.9694,Q,Q
2023-03-15 12:48:55:144,0,-54.4443,2.64576,11.9679,Q,Q
2023-03-15 12:48:55:154,0,-54.4453,2.64676,11.968,Q,Q
2023-03-15 12:48:55:164,0,-54.4431,2.64686,11.9683,Q,Q
2023-03-15 12:48:55:174,0,-54.4454,2.64976,11.9674,Q,Q
2023-03-15 12:48:55:184,0,-54.446,2.65343,11.9676,Q,Q
2023-03-15 12:48:55:194,0,-54.4473,2.65121,11.9681,Q,Q
2023-03-15 12:48:55:204,0,-54.4472,2.64939,11.9689,Q,Q
2023-03-15 12:48:55:214,0,-54.4493,2.64653,11.9719,Q,Q
2023-03-15 12:48:55:224,0,-54.4533,2.64949,11.9713,Q,Q
2023-03-15 12:48:55:233,0,-54.4536,2.64832,11.9694,Q,Q
2023-03-15 12:48:55:244,0,-54.4569,2.64996,11.9676,Q,Q
2023-03-15 12:48:55:254,0,-54.4555,2.65028,11.9636,Q,Q
2023-03-15 12:48:55:264,0,-54.4562,2.65242,11.9616,Q,Q
2023-03-15 12:48:55:274,0,-54.4561,2.65482,11.9631,Q,Q
2023-03-15 12:48:55:284,0,-54.4568,2.65672,11.9621,Q,Q
2023-03-15 12:48:55:294,0,-54.4567,2.65624,11.9621,Q,Q
2023-03-15 12:48:55:304,0,-54.4556,2.65803,11.9606,Q,Q
2023-03-15 12:48:55:314,0,-54.4561,2.65544,11.9613,Q,Q
2023-03-15 12:48:55:324,0,-54.4556,2.65877,11.9585,Q,Q
2023-03-15 12:48:55:334,0,-54.4533,2.65976,11.9586,Q,Q
2023-03-15 12:48:55:344,0,-54.4509,2.66173,11.9585,Q,Q
2023-03-15 12:48:55:354,0,-54.4496,2.66136,11.9581,Q,Q
2023-03-15 12:48:55:364,0,-54.4503,2.663,11.96,Q,Q
2023-03-15 12:48:55:374,0,-54.4482,2.66227,11.9609,Q,Q
2023-03-15 12:48:55:384,0,-54.4463,2.66166,11.9632,Q,Q
2023-03-15 12:48:55:394,0,-54.446,2.65771,11.9656,Q,Q
2023-03-15 12:48:55:404,0,-54.444,2.65823,11.9649,Q,Q
2023-03-15 12:48:55:414,0,-54.4439,2.6578,11.9681,Q,Q
2023-03-15 12:48:55:424,0,-54.4465,2.65716,11.9654,Q,Q
2023-03-15 12:48:55:434,0,-54.4482,2.65561,11.9648,Q,Q
2023-03-15 12:48:55:444,0,-54.4488,2.65466,11.9654,Q,Q
2023-03-15 12:48:55:454,0,-54.4495,2.65314,11.965,Q,Q
2023-03-15 12:48:55:464,0,-54.4493,2.6526,11.9641,Q,Q
2023-03-15 12:48:55:474,0,-54.4499,2.64995,11.964,Q,Q
2023-03-15 12:48:55:484,0,-54.45,2.65052,11.9653,Q,Q
2023-03-15 12:48:55:494,0,-54.4502,2.64834,11.9629,Q,Q
2023-03-15 12:48:55:504,0,-54.4504,2.64863,11.9594,Q,Q
2023-03-15 12:48:55:514,0,-54.453,2.64812,11.961,Q,Q
2023-03-15 12:48:55:524,0,-54.4535,2.64725,11.9612,Q,Q
2023-03-15 12:48:55:534,0,-54.4517,2.64847,11.9593,Q,Q
2023-03-15 12:48:55:544,0,-54.453,2.6489,11.9598,Q,Q
2023-03-15 12:48:55:554,0,-54.4533,2.64877,11.9606,Q,Q
2023-03-15 12:48:55:564,0,-54.4539,2.6499,11.9621,Q,Q
2023-03-15 12:48:55:574,0,-54.4529,2.64843,11.961,Q,Q
2023-03-15 12:48:55:584,0,-54.4545,2.64589,11.9612,Q,Q
2023-03-15 12:48:55:594,0,-54.4554,2.64318,11.9632,Q,Q
2023-03-15 12:48:55:604,0,-54.4526,2.64364,11.9655,Q,Q
2023-03-15 12:48:55:614,0,-54.4514,2.64378,11.9678,Q,Q
2023-03-15 12:48:55:624,0,-54.4514,2.64831,11.9697,Q,Q
2023-03-15 12:48:55:634,0,-54.4535,2.64522,11.9722,Q,Q
2023-03-15 12:48:55:644,0,-54.4529,2.6459,11.9749,Q,Q
2023-03-15 12:48:55:654,0,-54.45,2.64368,11.9753,Q,Q
2023-03-15 12:48:55:664,0,-54.4508,2.64554,11.9778,Q,Q
2023-03-15 12:48:55:674,0,-54.451,2.64571,11.9753,Q,Q
2023-03-15 12:48:55:684,0,-54.4502,2.64566,11.977,Q,Q
2023-03-15 12:48:55:694,0,-54.4488,2.64862,11.9772,Q,Q
2023-03-15 12:48:55:704,0,-54.4494,2.64728,11.9753,Q,Q
2023-03-15 12:48:55:714,0,-54.4493,2.65009,11.974,Q,Q
2023-03-15 12:48:55:724,0,-54.4503,2.64708,11.9725,Q,Q
2023-03-15 12:48:55:734,0,-54.4482,2.64844,11.9725,Q,Q
2023-03-15 12:48:55:744,0,-54.447,2.64808,11.9738,Q,Q
2023-03-15 12:48:55:754,0,-54.4479,2.648,11.9731,Q,Q
2023-03-15 12:48:55:764,0,-54.4477,2.65073,11.9712,Q,Q
2023-03-15 12:48:55:774,0,-54.4512,2.65224,11.9706,Q,Q
2023-03-15 12:48:55:784,0,-54.4519,2.6524,11.9714,Q,Q
2023-03-15 12:48:55:794,0,-54.4535,2.6536,11.9698,Q,Q
2023-03-15 12:48:55:804,0,-54.453,2.65288,11.9705,Q,Q
2023-03-15 12:48:55:814,0,-54.4512,2.65198,11.9736,Q,Q
2023-03-15 12:48:55:823,0,-54.4483,2.65199,11.976,Q,Q
2023-03-15 12:48:55:833,0,-54.4469,2.65105,11.9796,Q,Q
2023-03-15 12:48:55:843,0,-54.4469,2.65277,11.9755,Q,Q
2023-03-15 12:48:55:853,0,-54.4477,2.65244,11.9735,Q,Q
2023-03-15 12:48:55:863,0,-54.4451,2.65522,11.9771,Q,Q
2023-03-15 12:48:55:874,0,-54.4434,2.65277,11.9769,Q,Q
2023-03-15 12:48:55:884,0,-54.4444,2.65526,11.9778,Q,Q
2023-03-15 12:48:55:894,0,-54.4442,2.65655,11.9769,Q,Q
2023-03-15 12:48:55:904,0,-54.4403,2.65533,11.982,Q,Q
2023-03-15 12:48:55:914,0,-54.4391,2.65648,11.9812,Q,Q
2023-03-15 12:48:55:924,0,-54.437,2.6562,11.9793,Q,Q
2023-03-15 12:48:55:934,0,-54.4344,2.6526,11.9793,Q,Q
2023-03-15 12:48:55:944,0,-54.4336,2.65175,11.98,Q,Q
2023-03-15 12:48:55:954,0,-54.4335,2.6518,11.9779,Q,Q
2023-03-15 12:48:55:964,0,-54.4327,2.65192,11.9788,Q,Q
2023-03-15 12:48:55:974,0,-54.4314,2.6548,11.9811,Q,Q
2023-03-15 12:48:55:984,0,-54.4322,2.65347,11.9823,Q,Q
2023-03-15 12:48:55:994,0,-54.4342,2.65282,11.9822,Q,Q
2023-03-15 12:48:56:4,0,-54.4345,2.65055,11.9824,Q,Q
2023-03-15 12:48:56:14,0,-54.4356,2.64912,11.9838,Q,Q
2023-03-15 12:48:56:24,0,-54.4388,2.64985,11.9848,Q,Q
2023-03-15 12:48:56:34,0,-54.4423,2.64805,11.9857,Q,Q
2023-03-15 12:48:56:44,0,-54.442,2.64638,11.9857,Q,Q
2023-03-15 12:48:56:54,0,-54.4414,2.6456,11.9869,Q,Q
2023-03-15 12:48:56:64,0,-54.4424,2.64521,11.9902,Q,Q
2023-03-15 12:48:56:74,0,-54.4442,2.64807,11.9871,Q,Q
2023-03-15 12:48:56:84,0,-54.4436,2.64718,11.9866,Q,Q
2023-03-15 12:48:56:94,0,-54.4457,2.64845,11.9854,Q,Q
2023-03-15 12:48:56:104,0,-54.4455,2.64946,11.9875,Q,Q
2023-03-15 12:48:56:114,0,-54.446,2.64874,11.9857,Q,Q
2023-03-15 12:48:56:124,0,-54.4462,2.64661,11.9886,Q,Q
2023-03-15 12:48:56:134,0,-54.4457,2.6448,11.9886,Q,Q
2023-03-15 12:48:56:144,0,-54.4472,2.64551,11.9884,Q,Q
2023-03-15 12:48:56:154,0,-54.4481,2.64449,11.9869,Q,Q
2023-03-15 12:48:56:164,0,-54.4481,2.64357,11.9886,Q,Q
2023-03-15 12:48:56:174,0,-54.4502,2.64522,11.989,Q,Q
2023-03-15 12:48:56:184,0,-54.4513,2.64416,11.9879,Q,Q
2023-03-15 12:48:56:194,0,-54.4515,2.6451,11.9859,Q,Q
2023-03-15 12:48:56:204,0,-54.4515,2.64604,11.9864,Q,Q
2023-03-15 12:48:56:214,0,-54.4519,2.64393,11.9888,Q,Q
2023-03-15 12:48:56:224,0,-54.4528,2.64393,11.9887,Q,Q
2023-03-15 12:48:56:233,0,-54.4496,2.64395,11.9888,Q,Q
2023-03-15 12:48:56:243,0,-54.4475,2.64628,11.9897,Q,Q
2023-03-15 12:48:56:254,0,-54.4477,2.64648,11.9913,Q,Q
2023-03-15 12:48:56:264,0,-54.4485,2.64459,11.9899,Q,Q
2023-03-15 12:48:56:274,0,-54.4454,2.64459,11.9901,Q,Q
2023-03-15 12:48:56:284,0,-54.4439,2.64605,11.9876,Q,Q
2023-03-15 12:48:56:294,0,-54.444,2.64664,11.9868,Q,Q
2023-03-15 12:48:56:304,0,-54.4441,2.64907,11.9862,Q,Q
2023-03-15 12:48:56:314,0,-54.4419,2.65011,11.9843,Q,Q
2023-03-15 12:48:56:324,0,-54.4412,2.65072,11.9863,Q,Q
2023-03-15 12:48:56:334,0,-54.4407,2.65199,11.9841,Q,Q
2023-03-15 12:48:56:344,0,-54.4416,2.65003,11.9854,Q,Q
2023-03-15 12:48:56:353,0,-54.4393,2.65143,11.986,Q,Q
2023-03-15 12:48:56:364,0,-54.4366,2.64835,11.9857,Q,Q
2023-03-15 12:48:56:374,0,-54.4342,2.64915,11.9837,Q,Q
2023-03-15 12:48:56:384,0,-54.4357,2.65181,11.9816,Q,Q
2023-03-15 12:48:56:394,0,-54.4364,2.65119,11.9803,Q,Q
2023-03-15 12:48:56:404,0,-54.4342,2.65088,11.9766,Q,Q
2023-03-15 12:48:56:414,0,-54.432,2.65187,11.9766,Q,Q
2023-03-15 12:48:56:424,0,-54.4301,2.65008,11.9766,Q,Q
2023-03-15 12:48:56:434,0,-54.4284,2.65012,11.9751,Q,Q
2023-03-15 12:48:56:444,0,-54.4317,2.65049,11.9742,Q,Q
2023-03-15 12:48:56:454,0,-54.432,2.64993,11.9696,Q,Q
2023-03-15 12:48:56:464,0,-54.4314,2.65222,11.9695,Q,Q
2023-03-15 12:48:56:474,0,-54.4293,2.65186,11.9691,Q,Q
2023-03-15 12:48:56:484,0,-54.4294,2.64901,11.9702,Q,Q
2023-03-15 12:48:56:494,0,-54.4236,2.64935,11.9705,Q,Q
2023-03-15 12:48:56:504,0,-54.4219,2.64774,11.9715,Q,Q
2023-03-15 12:48:56:514,0,-54.4234,2.64521,11.9738,Q,Q
2023-03-15 12:48:56:524,0,-54.422,2.64572,11.9795,Q,Q
2023-03-15 12:48:56:534,0,-54.4207,2.64733,11.9783,Q,Q
2023-03-15 12:48:56:544,0,-54.419,2.64671,11.9782,Q,Q
2023-03-15 12:48:56:554,0,-54.4178,2.64954,11.9784,Q,Q
2023-03-15 12:48:56:564,0,-54.4173,2.65024,11.9757,Q,Q
2023-03-15 12:48:56:574,0,-54.4179,2.65012,11.977,Q,Q
2023-03-15 12:48:56:584,0,-54.4183,2.65095,11.976,Q,Q
2023-03-15 12:48:56:594,0,-54.4182,2.65021,11.9784,Q,Q
2023-03-15 12:48:56:603,0,-54.419,2.64971,11.9749,Q,Q
2023-03-15 12:48:56:614,0,-54.4209,2.64798,11.9771,Q,Q
2023-03-15 12:48:56:624,0,-54.4213,2.64797,11.9776,Q,Q
2023-03-15 12:48:56:634,0,-54.4224,2.64802,11.9773,Q,Q
2023-03-15 12:48:56:644,0,-54.4205,2.64584,11.9757,Q,Q
2023-03-15 12:48:56:654,0,-54.4177,2.6475,11.9758,Q,Q
2023-03-15 12:48:56:664,0,-54.416,2.64816,11.9787,Q,Q
2023-03-15 12:48:56:674,0,-54.4155,2.65039,11.9808,Q,Q
2023-03-15 12:48:56:684,0,-54.4151,2.65087,11.9814,Q,Q
2023-03-15 12:48:56:694,0,-54.4148,2.64809,11.9792,Q,Q
2023-03-15 12:48:56:704,0,-54.4142,2.64958,11.9798,Q,Q
2023-03-15 12:48:56:714,0,-54.4164,2.6515,11.9813,Q,Q
2023-03-15 12:48:56:724,0,-54.4177,2.6575,11.9809,Q,Q
2023-03-15 12:48:56:733,0,-54.4157,2.65892,11.9791,Q,Q
2023-03-15 12:48:56:744,0,-54.4135,2.65842,11.9788,Q,Q
2023-03-15 12:48:56:754,0,-54.417,2.66014,11.9782,Q,Q
2023-03-15 12:48:56:764,0,-54.4174,2.66167,11.9783,Q,Q
2023-03-15 12:48:56:774,0,-54.4169,2.66016,11.9761,Q,Q
2023-03-15 12:48:56:784,0,-54.4168,2.65736,11.9763,Q,Q
2023-03-15 12:48:56:794,0,-54.4176,2.65509,11.9774,Q,Q
2023-03-15 12:48:56:804,0,-54.4209,2.65241,11.9765,Q,Q
2023-03-15 12:48:56:814,0,-54.4215,2.64859,11.9791,Q,Q
2023-03-15 12:48:56:824,0,-54.4218,2.64766,11.9802,Q,Q
2023-03-15 12:48:56:834,0,-54.4221,2.65091,11.9789,Q,Q
2023-03-15 12:48:56:844,0,-54.4251,2.64917,11.9782,Q,Q
2023-03-15 12:48:56:854,0,-54.4261,2.64746,11.9754,Q,Q
2023-03-15 12:48:56:864,0,-54.4273,2.64813,11.9752,Q,Q
2023-03-15 12:48:56:874,0,-54.4244,2.64392,11.9737,Q,Q
2023-03-15 12:48:56:883,0,-54.4204,2.64173,11.9737,Q,Q
2023-03-15 12:48:56:894,0,-54.4184,2.64183,11.975,Q,Q
2023-03-15 12:48:56:904,0,-54.4165,2.64181,11.9789,Q,Q
2023-03-15 12:48:56:914,0,-54.4175,2.64079,11.9803,Q,Q
2023-03-15 12:48:56:924,0,-54.4191,2.63942,11.9807,Q,Q
2023-03-15 12:48:56:934,0,-54.4189,2.64107,11.981,Q,Q
2023-03-15 12:48:56:944,0,-54.4172,2.64311,11.9817,Q,Q
2023-03-15 12:48:56:954,0,-54.418,2.64444,11.9815,Q,Q
2023-03-15 12:48:56:964,0,-54.4168,2.64589,11.9807,Q,Q
2023-03-15 12:48:56:974,0,-54.4174,2.6446,11.9807,Q,Q
2023-03-15 12:48:56:984,0,-54.4205,2.64303,11.9753,Q,Q
2023-03-15 12:48:56:994,0,-54.4169,2.64453,11.9762,Q,Q
2023-03-15 12:48:57:4,0,-54.4205,2.64338,11.9792,Q,Q
2023-03-15 12:48:57:14,0,-54.4198,2.64298,11.9814,Q,Q
2023-03-15 12:48:57:24,0,-54.4167,2.64369,11.982,Q,Q
2023-03-15 12:48:57:34,0,-54.4172,2.64476,11.9797,Q,Q
2023-03-15 12:48:57:44,0,-54.4169,2.64477,11.9784,Q,Q
2023-03-15 12:48:57:54,0,-54.4172,2.6444,11.9749,Q,Q
2023-03-15 12:48:57:64,0,-54.4177,2.64257,11.9731,Q,Q
2023-03-15 12:48:57:74,0,-54.4172,2.64608,11.9727,Q,Q
2023-03-15 12:48:57:84,0,-54.4147,2.646,11.9739,Q,Q
2023-03-15 12:48:57:94,0,-54.4149,2.64845,11.9798,Q,Q
2023-03-15 12:48:57:104,0,-54.4148,2.64912,11.9807,Q,Q
2023-03-15 12:48:57:113,0,-54.4149,2.64772,11.9805,Q,Q
2023-03-15 12:48:57:124,0,-54.4148,2.64824,11.9775,Q,Q
2023-03-15 12:48:57:134,0,-54.4159,2.65158,11.9766,Q,Q
2023-03-15 12:48:57:144,0,-54.4168,2.65251,11.9763,Q,Q
2023-03-15 12:48:57:154,0,-54.4211,2.65246,11.9736,Q,Q
2023-03-15 12:48:57:164,0,-54.4204,2.6541,11.9742,Q,Q
2023-03-15 12:48:57:174,0,-54.4202,2.65384,11.9746,Q,Q
2023-03-15 12:48:57:184,0,-54.4223,2.65421,11.9766,Q,Q
2023-03-15 12:48:57:194,0,-54.4252,2.65544,11.973,Q,Q
2023-03-15 12:48:57:204,0,-54.4242,2.65722,11.9722,Q,Q
2023-03-15 12:48:57:214,0,-54.4226,2.65557,11.9721,Q,Q
2023-03-15 12:48:57:224,0,-54.424,2.65461,11.9723,Q,Q
2023-03-15 12:48:57:233,0,-54.4228,2.65501,11.9731,Q,Q
2023-03-15 12:48:57:244,0,-54.4243,2.65464,11.9786,Q,Q
2023-03-15 12:48:57:254,0,-54.4266,2.65702,11.9786,Q,Q
2023-03-15 12:48:57:264,0,-54.4236,2.6597,11.9773,Q,Q
2023-03-15 12:48:57:274,0,-54.4235,2.66039,11.9771,Q,Q
2023-03-15 12:48:57:284,0,-54.425,2.66196,11.9798,Q,Q
2023-03-15 12:48:57:294,0,-54.428,2.66378,11.9806,Q,Q
2023-03-15 12:48:57:304,0,-54.4233,2.66118,11.9812,Q,Q
2023-03-15 12:48:57:314,0,-54.4217,2.66173,11.9816,Q,Q
2023-03-15 12:48:57:324,0,-54.4206,2.66214,11.979,Q,Q
2023-03-15 12:48:57:334,0,-54.4225,2.66283,11.9756,Q,Q
2023-03-15 12:48:57:344,0,-54.4243,2.66142,11.9759,Q,Q
2023-03-15 12:48:57:354,0,-54.4242,2.66025,11.9785,Q,Q
2023-03-15 12:48:57:364,0,-54.4269,2.65991,11.9796,Q,Q
2023-03-15 12:48:57:374,0,-54.4256,2.66093,11.9799,Q,Q
2023-03-15 12:48:57:384,0,-54.4279,2.66068,11.98,Q,Q
2023-03-15 12:48:57:394,0,-54.43,2.66002,11.9834,Q,Q
2023-03-15 12:48:57:404,0,-54.4292,2.65891,11.9828,Q,Q
2023-03-15 12:48:57:414,0,-54.4288,2.65671,11.9811,Q,Q
2023-03-15 12:48:57:424,0,-54.4288,2.65672,11.9805,Q,Q
2023-03-15 12:48:57:434,0,-54.4309,2.65598,11.9837,Q,Q
2023-03-15 12:48:57:444,0,-54.4302,2.65773,11.9823,Q,Q
2023-03-15 12:48:57:454,0,-54.4322,2.65906,11.9838,Q,Q
2023-03-15 12:48:57:464,0,-54.4304,2.65934,11.9864,Q,Q
2023-03-15 12:48:57:474,0,-54.4286,2.66009,11.9856,Q,Q
2023-03-15 12:48:57:484,0,-54.4284,2.66192,11.9853,Q,Q
2023-03-15 12:48:57:494,0,-54.4312,2.66256,11.9845,Q,Q
2023-03-15 12:48:57:504,0,-54.4297,2.66656,11.9834,Q,Q
2023-03-15 12:48:57:514,0,-54.4286,2.66553,11.9837,Q,Q
2023-03-15 12:48:57:524,0,-54.4267,2.66828,11.9827,Q,Q
2023-03-15 12:48:57:534,0,-54.4287,2.66796,11.9824,Q,Q
2023-03-15 12:48:57:544,0,-54.4306,2.66609,11.9875,Q,Q
2023-03-15 12:48:57:554,0,-54.4323,2.66583,11.9883,Q,Q
2023-03-15 12:48:57:564,0,-54.4341,2.66548,11.9866,Q,Q
2023-03-15 12:48:57:574,0,-54.4367,2.66848,11.9871,Q,Q
2023-03-15 12:48:57:584,0,-54.4379,2.66526,11.9923,Q,Q
2023-03-15 12:48:57:594,0,-54.4411,2.66503,11.9895,Q,Q
2023-03-15 12:48:57:604,0,-54.4421,2.66616,11.9894,Q,Q
2023-03-15 12:48:57:614,0,-54.4407,2.66531,11.9919,Q,Q
2023-03-15 12:48:57:623,0,-54.4389,2.6632,11.992,Q,Q
2023-03-15 12:48:57:634,0,-54.4375,2.66053,11.993,Q,Q
2023-03-15 12:48:57:644,0,-54.437,2.66155,11.99,Q,Q
2023-03-15 12:48:57:654,0,-54.4384,2.6636,11.9915,Q,Q
2023-03-15 12:48:57:664,0,-54.4383,2.66508,11.9913,Q,Q
2023-03-15 12:48:57:674,0,-54.4374,2.66373,11.988,Q,Q
2023-03-15 12:48:57:684,0,-54.4378,2.66481,11.9856,Q,Q
2023-03-15 12:48:57:694,0,-54.4393,2.66447,11.9849,Q,Q
2023-03-15 12:48:57:704,0,-54.4387,2.66388,11.9849,Q,Q
2023-03-15 12:48:57:714,0,-54.4373,2.66177,11.986,Q,Q
2023-03-15 12:48:57:724,0,-54.4365,2.66435,11.9868,Q,Q
2023-03-15 12:48:57:733,0,-54.4363,2.66189,11.9889,Q,Q
2023-03-15 12:48:57:744,0,-54.4355,2.66094,11.9894,Q,Q
2023-03-15 12:48:57:754,0,-54.4347,2.6633,11.9916,Q,Q
2023-03-15 12:48:57:764,0,-54.4334,2.66422,11.9976,Q,Q
2023-03-15 12:48:57:774,0,-54.4323,2.66369,11.9985,Q,Q
2023-03-15 12:48:57:784,0,-54.4322,2.66375,12.0,Q,Q
2023-03-15 12:48:57:794,0,-54.4333,2.66404,11.9972,Q,Q
2023-03-15 12:48:57:804,0,-54.438,2.66332,11.9959,Q,Q
2023-03-15 12:48:57:814,0,-54.4374,2.66297,11.9966,Q,Q
2023-03-15 12:48:57:824,0,-54.436,2.66362,11.996,Q,Q
2023-03-15 12:48:57:834,0,-54.4348,2.66439,11.9962,Q,Q
2023-03-15 12:48:57:844,0,-54.4376,2.66256,11.9969,Q,Q
2023-03-15 12:48:57:854,0,-54.4364,2.66426,11.9999,Q,Q
2023-03-15 12:48:57:864,0,-54.4328,2.66363,12.0005,Q,Q
2023-03-15 12:48:57:874,0,-54.4346,2.66224,12.003,Q,Q
2023-03-15 12:48:57:884,0,-54.4352,2.66254,12.0045,Q,Q
2023-03-15 12:48:57:894,0,-54.4358,2.66313,12.0035,Q,Q
2023-03-15 12:48:57:904,0,-54.439,2.65972,12.0071,Q,Q
2023-03-15 12:48:57:914,0,-54.4387,2.66082,12.006,Q,Q
2023-03-15 12:48:57:924,0,-54.4396,2.66157,12.0059,Q,Q
2023-03-15 12:48:57:934,0,-54.4374,2.66359,12.0062,Q,Q
2023-03-15 12:48:57:944,0,-54.4391,2.66478,12.0056,Q,Q
2023-03-15 12:48:57:953,0,-54.4362,2.66693,12.0083,Q,Q
2023-03-15 12:48:57:964,0,-54.4306,2.66837,12.008,Q,Q
2023-03-15 12:48:57:974,0,-54.4327,2.66957,12.011,Q,Q
2023-03-15 12:48:57:984,0,-54.4345,2.67004,12.0116,Q,Q
2023-03-15 12:48:57:994,0,-54.4358,2.67457,12.0127,Q,Q
2023-03-15 12:48:58:4,0,-54.4345,2.67539,12.0124,Q,Q
2023-03-15 12:48:58:14,0,-54.4388,2.67519,12.0107,Q,Q
2023-03-15 12:48:58:24,0,-54.4415,2.67434,12.0123,Q,Q
2023-03-15 12:48:58:34,0,-54.4408,2.6735,12.0153,Q,Q
2023-03-15 12:48:58:44,0,-54.4404,2.67284,12.0158,Q,Q
2023-03-15 12:48:58:54,0,-54.4397,2.67559,12.0191,Q,Q
2023-03-15 12:48:58:64,0,-54.4389,2.67412,12.0188,Q,Q
2023-03-15 12:48:58:74,0,-54.4403,2.67256,12.0161,Q,Q
2023-03-15 12:48:58:84,0,-54.443,2.67312,12.0176,Q,Q
2023-03-15 12:48:58:94,0,-54.4412,2.67375,12.0196,Q,Q
2023-03-15 12:48:58:104,0,-54.4378,2.67461,12.0197,Q,Q
2023-03-15 12:48:58:114,0,-54.4397,2.67445,12.0199,Q,Q
2023-03-15 12:48:58:124,0,-54.4401,2.67381,12.0214,Q,Q
2023-03-15 12:48:58:133,0,-54.4409,2.67085,12.0212,Q,Q
2023-03-15 12:48:58:143,0,-54.4374,2.67271,12.0246,Q,Q
2023-03-15 12:48:58:154,0,-54.4333,2.67573,12.0254,Q,Q
2023-03-15 12:48:58:164,0,-54.4345,2.67544,12.0297,Q,Q
2023-03-15 12:48:58:174,0,-54.4376,2.67332,12.0317,Q,Q
2023-03-15 12:48:58:184,0,-54.4352,2.67168,12.0358,Q,Q
2023-03-15 12:48:58:194,0,-54.4343,2.66922,12.0364,Q,Q
2023-03-15 12:48:58:204,0,-54.4339,2.66575,12.0364,Q,Q
2023-03-15 12:48:58:214,0,-54.4353,2.66763,12.0359,Q,Q
2023-03-15 12:48:58:223,0,-54.4342,2.67037,12.0349,Q,Q
2023-03-15 12:48:58:233,0,-54.4316,2.67017,12.0354,Q,Q
2023-03-15 12:48:58:244,0,-54.4322,2.67035,12.0356,Q,Q
2023-03-15 12:48:58:254,0,-54.4338,2.67023,12.0344,Q,Q
2023-03-15 12:48:58:264,0,-54.4336,2.67121,12.0309,Q,Q
2023-03-15 12:48:58:274,0,-54.4357,2.66939,12.0312,Q,Q
2023-03-15 12:48:58:283,0,-54.4344,2.66991,12.0326,Q,Q
2023-03-15 12:48:58:293,0,-54.4319,2.66925,12.0336,Q,Q
2023-03-15 12:48:58:303,0,-54.4321,2.66859,12.0346,Q,Q
2023-03-15 12:48:58:313,0,-54.4314,2.6696,12.0342,Q,Q
2023-03-15 12:48:58:324,0,-54.4324,2.67194,12.0352,Q,Q
2023-03-15 12:48:58:333,0,-54.4309,2.66775,12.0318,Q,Q
2023-03-15 12:48:58:343,0,-54.4291,2.6651,12.0294,Q,Q
2023-03-15 12:48:58:354,0,-54.4295,2.66539,12.0301,Q,Q
2023-03-15 12:48:58:364,0,-54.4281,2.66684,12.0317,Q,Q
2023-03-15 12:48:58:374,0,-54.4302,2.67045,12.0321,Q,Q
2023-03-15 12:48:58:384,0,-54.4331,2.67119,12.0322,Q,Q
2023-03-15 12:48:58:394,0,-54.4294,2.67031,12.0338,Q,Q
2023-03-15 12:48:58:404,0,-54.43,2.67103,12.0353,Q,Q
2023-03-15 12:48:58:414,0,-54.4302,2.66932,12.0359,Q,Q
2023-03-15 12:48:58:424,0,-54.4278,2.66893,12.0357,Q,Q
2023-03-15 12:48:58:434,0,-54.4271,2.67041,12.0371,Q,Q
2023-03-15 12:48:58:444,0,-54.4273,2.66931,12.0385,Q,Q
2023-03-15 12:48:58:454,0,-54.4289,2.67046,12.039,Q,Q
2023-03-15 12:48:58:464,0,-54.429,2.6719,12.0413,Q,Q
2023-03-15 12:48:58:474,0,-54.4306,2.67113,12.0415,Q,Q
2023-03-15 12:48:58:484,0,-54.4318,2.66949,12.0405,Q,Q
2023-03-15 12:48:58:494,0,-54.4307,2.67177,12.0391,Q,Q
2023-03-15 12:48:58:504,0,-54.4316,2.67276,12.0396,Q,Q
2023-03-15 12:48:58:514,0,-54.4327,2.67192,12.0412,Q,Q
2023-03-15 12:48:58:524,0,-54.4311,2.66976,12.042,Q,Q
2023-03-15 12:48:58:534,0,-54.4331,2.66983,12.0395,Q,Q
2023-03-15 12:48:58:544,0,-54.4334,2.67146,12.0395,Q,Q
2023-03-15 12:48:58:554,0,-54.4303,2.66728,12.0391,Q,Q
2023-03-15 12:48:58:564,0,-54.4285,2.66448,12.0405,Q,Q
2023-03-15 12:48:58:574,0,-54.4282,2.66447,12.0392,Q,Q
2023-03-15 12:48:58:584,0,-54.43,2.66202,12.0402,Q,Q
2023-03-15 12:48:58:594,0,-54.4284,2.66218,12.0397,Q,Q
2023-03-15 12:48:58:604,0,-54.4314,2.66586,12.0401,Q,Q
2023-03-15 12:48:58:614,0,-54.43,2.66437,12.0391,Q,Q
2023-03-15 12:48:58:624,0,-54.4286,2.66539,12.0397,Q,Q
2023-03-15 12:48:58:634,0,-54.4306,2.66367,12.0421,Q,Q
2023-03-15 12:48:58:643,0,-54.4293,2.66516,12.0446,Q,Q
2023-03-15 12:48:58:654,0,-54.4309,2.66297,12.0471,Q,Q
2023-03-15 12:48:58:664,0,-54.4309,2.66219,12.0485,Q,Q
2023-03-15 12:48:58:674,0,-54.4312,2.66247,12.0511,Q,Q
2023-03-15 12:48:58:684,0,-54.432,2.66369,12.052,Q,Q
2023-03-15 12:48:58:694,0,-54.4302,2.66037,12.0513,Q,Q
2023-03-15 12:48:58:704,0,-54.4299,2.6582,12.0498,Q,Q
2023-03-15 12:48:58:714,0,-54.4333,2.65807,12.0494,Q,Q
2023-03-15 12:48:58:724,0,-54.4341,2.65633,12.0497,Q,Q
2023-03-15 12:48:58:733,0,-54.4328,2.65618,12.0489,Q,Q
2023-03-15 12:48:58:744,0,-54.4324,2.65366,12.0464,Q,Q
2023-03-15 12:48:58:754,0,-54.4328,2.65434,12.0466,Q,Q
2023-03-15 12:48:58:764,0,-54.436,2.6565,12.0458,Q,Q
2023-03-15 12:48:58:774,0,-54.4337,2.65909,12.0442,Q,Q
2023-03-15 12:48:58:784,0,-54.4325,2.66063,12.0438,Q,Q
2023-03-15 12:48:58:794,0,-54.433,2.66193,12.0443,Q,Q
2023-03-15 12:48:58:804,0,-54.431,2.66285,12.0418,Q,Q
2023-03-15 12:48:58:814,0,-54.4319,2.66492,12.0427,Q,Q
2023-03-15 12:48:58:824,0,-54.4308,2.66364,12.0428,Q,Q
2023-03-15 12:48:58:834,0,-54.4311,2.66407,12.0396,Q,Q
2023-03-15 12:48:58:844,0,-54.4339,2.66025,12.0397,Q,Q
2023-03-15 12:48:58:854,0,-54.4352,2.65871,12.0411,Q,Q
2023-03-15 12:48:58:864,0,-54.4355,2.65812,12.0406,Q,Q
2023-03-15 12:48:58:874,0,-54.4385,2.65502,12.0429,Q,Q
2023-03-15 12:48:58:884,0,-54.4399,2.65681,12.0414,Q,Q
2023-03-15 12:48:58:894,0,-54.439,2.65747,12.0438,Q,Q
2023-03-15 12:48:58:904,0,-54.4378,2.65663,12.0443,Q,Q
2023-03-15 12:48:58:914,0,-54.4365,2.65547,12.0417,Q,Q
2023-03-15 12:48:58:924,0,-54.4343,2.654,12.0422,Q,Q
2023-03-15 12:48:58:934,0,-54.4358,2.65175,12.0444,Q,Q
2023-03-15 12:48:58:944,0,-54.438,2.65243,12.043,Q,Q
2023-03-15 12:48:58:954,0,-54.4389,2.65381,12.0431,Q,Q
2023-03-15 12:48:58:963,0,-54.4382,2.65259,12.043,Q,Q
2023-03-15 12:48:58:973,0,-54.4376,2.65348,12.0451,Q,Q
2023-03-15 12:48:58:983,0,-54.4396,2.65077,12.0486,Q,Q
2023-03-15 12:48:58:993,0,-54.4384,2.64827,12.0515,Q,Q
2023-03-15 12:48:59:4,0,-54.4377,2.64685,12.0521,Q,Q
