Timestamp_cmd,imu_cmd,roll_delta,pitch_delta,yaw_delta,voice_type,voice_length
2023-03-15 22:10:25:894,0,1.44679,-3.18392,-28.2423,Q,Q
2023-03-15 22:10:25:902,0,1.42617,-3.18196,-28.2252,Q,Q
2023-03-15 22:10:25:912,0,1.41041,-3.18212,-28.2044,Q,Q
2023-03-15 22:10:25:922,0,1.3979,-3.18091,-28.1887,Q,Q
2023-03-15 22:10:25:932,0,1.38912,-3.18379,-28.1761,Q,Q
2023-03-15 22:10:25:942,0,1.3796,-3.18865,-28.1636,Q,Q
2023-03-15 22:10:25:952,0,1.36682,-3.1875,-28.1514,Q,Q
2023-03-15 22:10:25:962,0,1.36087,-3.19041,-28.1447,Q,Q
2023-03-15 22:10:25:972,0,1.35466,-3.19311,-28.1434,Q,Q
2023-03-15 22:10:25:982,0,1.35127,-3.19405,-28.1404,Q,Q
2023-03-15 22:10:25:992,0,1.34783,-3.19682,-28.1402,Q,Q
2023-03-15 22:10:26:2,0,1.34175,-3.19727,-28.1444,Q,Q
2023-03-15 22:10:26:12,0,1.33785,-3.19465,-28.1518,Q,Q
2023-03-15 22:10:26:22,0,1.33217,-3.19142,-28.1615,Q,Q
2023-03-15 22:10:26:32,0,1.32357,-3.18908,-28.1726,Q,Q
2023-03-15 22:10:26:42,0,1.31656,-3.18739,-28.1891,Q,Q
2023-03-15 22:10:26:52,0,1.31305,-3.18358,-28.2093,Q,Q
2023-03-15 22:10:26:62,0,1.30711,-3.17769,-28.2284,Q,Q
2023-03-15 22:10:26:72,0,1.30436,-3.17435,-28.2499,Q,Q
2023-03-15 22:10:26:82,0,1.29888,-3.16785,-28.2697,Q,Q
2023-03-15 22:10:26:92,0,1.29514,-3.15575,-28.2949,Q,Q
2023-03-15 22:10:26:102,0,1.29253,-3.14269,-28.3177,Q,Q
2023-03-15 22:10:26:112,0,1.29422,-3.13221,-28.3406,Q,Q
2023-03-15 22:10:26:122,0,1.29355,-3.12676,-28.3627,Q,Q
2023-03-15 22:10:26:132,0,1.29628,-3.11815,-28.384,Q,Q
2023-03-15 22:10:26:142,0,1.30027,-3.11499,-28.4011,Q,Q
2023-03-15 22:10:26:152,0,1.30133,-3.11411,-28.4154,Q,Q
2023-03-15 22:10:26:162,0,1.29394,-3.10886,-28.4302,Q,Q
2023-03-15 22:10:26:172,0,1.28171,-3.09896,-28.4424,Q,Q
2023-03-15 22:10:26:182,0,1.26406,-3.08839,-28.4509,Q,Q
2023-03-15 22:10:26:192,0,1.24051,-3.08067,-28.4585,Q,Q
2023-03-15 22:10:26:202,0,1.208,-3.07225,-28.4659,Q,Q
2023-03-15 22:10:26:212,0,1.17439,-3.05939,-28.4713,Q,Q
2023-03-15 22:10:26:222,0,1.14358,-3.05102,-28.4742,Q,Q
2023-03-15 22:10:26:232,0,1.11067,-3.04214,-28.4763,Q,Q
2023-03-15 22:10:26:242,0,1.08189,-3.03388,-28.4777,Q,Q
2023-03-15 22:10:26:252,0,1.05215,-3.02479,-28.4794,Q,Q
2023-03-15 22:10:26:262,0,1.02404,-3.01677,-28.4834,Q,Q
2023-03-15 22:10:26:272,0,0.996836,-3.008,-28.487,Q,Q
2023-03-15 22:10:26:282,0,0.970988,-2.99928,-28.4895,Q,Q
2023-03-15 22:10:26:292,0,0.948296,-2.98483,-28.4905,Q,Q
2023-03-15 22:10:26:302,0,0.928571,-2.97547,-28.4939,Q,Q
2023-03-15 22:10:26:312,0,0.912357,-2.96489,-28.4949,Q,Q
2023-03-15 22:10:26:322,0,0.904759,-2.95586,-28.498,Q,Q
2023-03-15 22:10:26:332,0,0.898257,-2.94863,-28.5002,Q,Q
2023-03-15 22:10:26:342,0,0.89908,-2.94292,-28.5042,Q,Q
2023-03-15 22:10:26:352,0,0.907,-2.9391,-28.5017,Q,Q
2023-03-15 22:10:26:362,0,0.913895,-2.93992,-28.502,Q,Q
2023-03-15 22:10:26:372,0,0.925596,-2.93817,-28.498,Q,Q
2023-03-15 22:10:26:382,0,0.941676,-2.93745,-28.4999,Q,Q
2023-03-15 22:10:26:392,0,0.955652,-2.93287,-28.4996,Q,Q
2023-03-15 22:10:26:402,0,0.970463,-2.93299,-28.4985,Q,Q
2023-03-15 22:10:26:412,0,0.988931,-2.9319,-28.4992,Q,Q
2023-03-15 22:10:26:422,0,1.00628,-2.93418,-28.4979,Q,Q
2023-03-15 22:10:26:432,0,1.02264,-2.9314,-28.497,Q,Q
2023-03-15 22:10:26:442,0,1.03411,-2.93039,-28.4966,Q,Q
2023-03-15 22:10:26:452,0,1.04304,-2.93183,-28.4955,Q,Q
2023-03-15 22:10:26:462,0,1.05144,-2.93259,-28.4943,Q,Q
2023-03-15 22:10:26:472,0,1.06141,-2.92855,-28.4971,Q,Q
2023-03-15 22:10:26:482,0,1.06985,-2.92566,-28.5026,Q,Q
2023-03-15 22:10:26:492,0,1.07466,-2.92703,-28.5073,Q,Q
2023-03-15 22:10:26:502,0,1.08062,-2.92842,-28.5124,Q,Q
2023-03-15 22:10:26:511,0,1.08231,-2.93167,-28.5202,Q,Q
2023-03-15 22:10:26:521,0,1.08483,-2.93333,-28.5297,Q,Q
2023-03-15 22:10:26:531,0,1.09488,-2.93895,-28.5381,Q,Q
2023-03-15 22:10:26:541,0,1.10531,-2.94291,-28.5467,Q,Q
2023-03-15 22:10:26:551,0,1.12209,-2.94531,-28.5557,Q,Q
2023-03-15 22:10:26:562,0,1.1349,-2.94283,-28.5606,Q,Q
2023-03-15 22:10:26:572,0,1.15498,-2.93726,-28.5666,Q,Q
2023-03-15 22:10:26:582,0,1.17826,-2.9333,-28.5713,Q,Q
2023-03-15 22:10:26:592,0,1.19538,-2.93182,-28.5773,Q,Q
2023-03-15 22:10:26:602,0,1.21075,-2.93087,-28.5834,Q,Q
2023-03-15 22:10:26:612,0,1.22321,-2.92988,-28.5893,Q,Q
2023-03-15 22:10:26:622,0,1.23332,-2.92788,-28.5892,Q,Q
2023-03-15 22:10:26:632,0,1.24238,-2.92871,-28.5943,Q,Q
2023-03-15 22:10:26:642,0,1.24917,-2.92744,-28.6009,Q,Q
2023-03-15 22:10:26:652,0,1.25677,-2.92739,-28.6081,Q,Q
2023-03-15 22:10:26:662,0,1.26207,-2.92599,-28.6139,Q,Q
2023-03-15 22:10:26:672,0,1.26795,-2.92234,-28.618,Q,Q
2023-03-15 22:10:26:682,0,1.27205,-2.91895,-28.6183,Q,Q
2023-03-15 22:10:26:692,0,1.27794,-2.918,-28.6201,Q,Q
2023-03-15 22:10:26:702,0,1.28295,-2.91656,-28.6202,Q,Q
2023-03-15 22:10:26:712,0,1.28376,-2.9136,-28.6234,Q,Q
2023-03-15 22:10:26:722,0,1.28414,-2.90686,-28.6244,Q,Q
2023-03-15 22:10:26:732,0,1.28357,-2.89742,-28.6298,Q,Q
2023-03-15 22:10:26:742,0,1.28445,-2.88799,-28.6325,Q,Q
2023-03-15 22:10:26:752,0,1.28308,-2.88222,-28.633,Q,Q
2023-03-15 22:10:26:762,0,1.28302,-2.87793,-28.637,Q,Q
2023-03-15 22:10:26:772,0,1.28027,-2.87881,-28.6384,Q,Q
2023-03-15 22:10:26:782,0,1.27323,-2.88109,-28.6378,Q,Q
2023-03-15 22:10:26:792,0,1.25312,-2.88499,-28.6375,Q,Q
2023-03-15 22:10:26:802,0,1.22314,-2.8827,-28.6438,Q,Q
2023-03-15 22:10:26:812,0,1.17911,-2.87222,-28.6536,Q,Q
2023-03-15 22:10:26:822,0,1.12316,-2.8571,-28.6678,Q,Q
2023-03-15 22:10:26:832,0,1.05511,-2.83953,-28.6873,Q,Q
2023-03-15 22:10:26:842,0,0.986419,-2.82114,-28.7123,Q,Q
2023-03-15 22:10:26:852,0,0.920572,-2.80734,-28.7413,Q,Q
2023-03-15 22:10:26:862,0,0.853789,-2.79177,-28.7744,Q,Q
2023-03-15 22:10:26:872,0,0.791184,-2.78275,-28.8085,Q,Q
2023-03-15 22:10:26:882,0,0.729651,-2.77478,-28.8426,Q,Q
2023-03-15 22:10:26:892,0,0.668074,-2.77088,-28.8805,Q,Q
2023-03-15 22:10:26:902,0,0.612997,-2.76383,-28.9146,Q,Q
2023-03-15 22:10:26:912,0,0.562813,-2.75745,-28.9484,Q,Q
2023-03-15 22:10:26:922,0,0.521533,-2.7498,-28.9786,Q,Q
2023-03-15 22:10:26:932,0,0.486515,-2.74443,-29.0024,Q,Q
2023-03-15 22:10:26:942,0,0.461458,-2.74424,-29.0191,Q,Q
2023-03-15 22:10:26:952,0,0.440991,-2.74715,-29.0293,Q,Q
2023-03-15 22:10:26:962,0,0.424893,-2.75311,-29.0284,Q,Q
2023-03-15 22:10:26:972,0,0.424989,-2.76403,-29.0244,Q,Q
2023-03-15 22:10:26:982,0,0.433764,-2.78045,-29.0101,Q,Q
2023-03-15 22:10:26:992,0,0.442666,-2.80019,-28.9906,Q,Q
2023-03-15 22:10:27:2,0,0.455873,-2.82036,-28.9721,Q,Q
2023-03-15 22:10:27:12,0,0.469029,-2.83749,-28.9455,Q,Q
2023-03-15 22:10:27:22,0,0.482247,-2.85344,-28.9168,Q,Q
2023-03-15 22:10:27:32,0,0.49586,-2.86617,-28.8859,Q,Q
2023-03-15 22:10:27:42,0,0.509104,-2.87652,-28.8539,Q,Q
2023-03-15 22:10:27:52,0,0.518269,-2.88506,-28.8181,Q,Q
2023-03-15 22:10:27:62,0,0.519463,-2.89694,-28.7796,Q,Q
2023-03-15 22:10:27:72,0,0.515786,-2.90746,-28.7446,Q,Q
2023-03-15 22:10:27:82,0,0.514104,-2.92251,-28.7142,Q,Q
2023-03-15 22:10:27:92,0,0.509669,-2.93537,-28.6857,Q,Q
2023-03-15 22:10:27:102,0,0.50127,-2.95266,-28.6629,Q,Q
2023-03-15 22:10:27:112,0,0.492909,-2.96789,-28.6407,Q,Q
2023-03-15 22:10:27:122,0,0.482894,-2.98132,-28.6226,Q,Q
2023-03-15 22:10:27:132,0,0.468383,-2.99133,-28.6132,Q,Q
2023-03-15 22:10:27:142,0,0.451472,-2.9989,-28.6045,Q,Q
2023-03-15 22:10:27:152,0,0.434271,-3.00668,-28.5999,Q,Q
2023-03-15 22:10:27:162,0,0.413545,-3.01258,-28.5995,Q,Q
2023-03-15 22:10:27:172,0,0.39306,-3.0159,-28.5963,Q,Q
2023-03-15 22:10:27:182,0,0.370911,-3.01792,-28.6008,Q,Q
2023-03-15 22:10:27:192,0,0.351303,-3.02105,-28.608,Q,Q
2023-03-15 22:10:27:202,0,0.332641,-3.02571,-28.62,Q,Q
2023-03-15 22:10:27:212,0,0.316171,-3.02704,-28.6305,Q,Q
2023-03-15 22:10:27:222,0,0.296976,-3.02955,-28.6441,Q,Q
2023-03-15 22:10:27:232,0,0.281082,-3.02934,-28.659,Q,Q
2023-03-15 22:10:27:242,0,0.262683,-3.0269,-28.6762,Q,Q
2023-03-15 22:10:27:252,0,0.246416,-3.02787,-28.6986,Q,Q
2023-03-15 22:10:27:262,0,0.225814,-3.02969,-28.7181,Q,Q
2023-03-15 22:10:27:272,0,0.205037,-3.02876,-28.7333,Q,Q
2023-03-15 22:10:27:282,0,0.185908,-3.03079,-28.752,Q,Q
2023-03-15 22:10:27:292,0,0.164392,-3.03301,-28.7668,Q,Q
2023-03-15 22:10:27:302,0,0.149387,-3.0393,-28.783,Q,Q
2023-03-15 22:10:27:312,0,0.131943,-3.04481,-28.8,Q,Q
2023-03-15 22:10:27:322,0,0.116931,-3.04991,-28.8127,Q,Q
2023-03-15 22:10:27:332,0,0.1005,-3.05499,-28.824,Q,Q
2023-03-15 22:10:27:342,0,0.0828412,-3.061,-28.8288,Q,Q
2023-03-15 22:10:27:352,0,0.0606663,-3.06844,-28.8298,Q,Q
2023-03-15 22:10:27:362,0,0.0356482,-3.07625,-28.831,Q,Q
2023-03-15 22:10:27:371,0,0.00942302,-3.08281,-28.8304,Q,Q
2023-03-15 22:10:27:381,0,-0.00590621,-3.08912,-28.8305,Q,Q
2023-03-15 22:10:27:391,0,-0.0154858,-3.09401,-28.8258,Q,Q
2023-03-15 22:10:27:401,0,-0.0231599,-3.10563,-28.8227,Q,Q
2023-03-15 22:10:27:411,0,-0.0265888,-3.11821,-28.822,Q,Q
2023-03-15 22:10:27:421,0,-0.0328656,-3.13388,-28.8189,Q,Q
2023-03-15 22:10:27:431,0,-0.0444731,-3.1429,-28.8126,Q,Q
2023-03-15 22:10:27:442,0,-0.0653814,-3.15287,-28.8079,Q,Q
2023-03-15 22:10:27:451,0,-0.0965967,-3.15995,-28.8023,Q,Q
2023-03-15 22:10:27:462,0,-0.136287,-3.16422,-28.7969,Q,Q
2023-03-15 22:10:27:471,0,-0.184673,-3.17375,-28.7942,Q,Q
2023-03-15 22:10:27:482,0,-0.240107,-3.18023,-28.7912,Q,Q
2023-03-15 22:10:27:492,0,-0.296819,-3.18944,-28.7899,Q,Q
2023-03-15 22:10:27:501,0,-0.357871,-3.19816,-28.7885,Q,Q
2023-03-15 22:10:27:512,0,-0.416964,-3.20331,-28.7883,Q,Q
2023-03-15 22:10:27:521,0,-0.4762,-3.20667,-28.796,Q,Q
2023-03-15 22:10:27:531,0,-0.532695,-3.21161,-28.8016,Q,Q
2023-03-15 22:10:27:542,0,-0.588519,-3.21489,-28.8087,Q,Q
2023-03-15 22:10:27:552,0,-0.63587,-3.21901,-28.8184,Q,Q
2023-03-15 22:10:27:562,0,-0.676295,-3.22122,-28.8306,Q,Q
2023-03-15 22:10:27:572,0,-0.705932,-3.22086,-28.8398,Q,Q
2023-03-15 22:10:27:581,0,-0.734511,-3.2251,-28.8454,Q,Q
2023-03-15 22:10:27:591,0,-0.749237,-3.224,-28.8551,Q,Q
2023-03-15 22:10:27:601,0,-0.75688,-3.22719,-28.8568,Q,Q
2023-03-15 22:10:27:611,0,-0.763787,-3.23421,-28.8517,Q,Q
2023-03-15 22:10:27:622,0,-0.773422,-3.2473,-28.8354,Q,Q
2023-03-15 22:10:27:631,0,-0.789457,-3.278,-28.8063,Q,Q
2023-03-15 22:10:27:642,0,-0.807964,-3.31995,-28.7695,Q,Q
2023-03-15 22:10:27:652,0,-0.828297,-3.36858,-28.727,Q,Q
2023-03-15 22:10:27:661,0,-0.859527,-3.42239,-28.6784,Q,Q
2023-03-15 22:10:27:672,0,-0.894905,-3.47576,-28.6227,Q,Q
2023-03-15 22:10:27:682,0,-0.931499,-3.52827,-28.5643,Q,Q
2023-03-15 22:10:27:692,0,-0.975065,-3.57728,-28.5056,Q,Q
2023-03-15 22:10:27:702,0,-1.02407,-3.62342,-28.4429,Q,Q
2023-03-15 22:10:27:712,0,-1.07806,-3.67058,-28.3794,Q,Q
2023-03-15 22:10:27:722,0,-1.13641,-3.71471,-28.3199,Q,Q
2023-03-15 22:10:27:732,0,-1.19424,-3.75391,-28.2655,Q,Q
2023-03-15 22:10:27:742,0,-1.2541,-3.78749,-28.2176,Q,Q
2023-03-15 22:10:27:752,0,-1.31276,-3.81301,-28.1762,Q,Q
2023-03-15 22:10:27:762,0,-1.36869,-3.83367,-28.1418,Q,Q
2023-03-15 22:10:27:772,0,-1.41621,-3.84864,-28.1173,Q,Q
2023-03-15 22:10:27:782,0,-1.45735,-3.86086,-28.0996,Q,Q
2023-03-15 22:10:27:792,0,-1.49667,-3.86519,-28.0891,Q,Q
2023-03-15 22:10:27:802,0,-1.52974,-3.86785,-28.0825,Q,Q
2023-03-15 22:10:27:812,0,-1.55505,-3.86923,-28.0867,Q,Q
2023-03-15 22:10:27:822,0,-1.57362,-3.87005,-28.098,Q,Q
2023-03-15 22:10:27:832,0,-1.59185,-3.87338,-28.114,Q,Q
2023-03-15 22:10:27:842,0,-1.60109,-3.8734,-28.1382,Q,Q
2023-03-15 22:10:27:852,0,-1.60149,-3.87295,-28.1642,Q,Q
2023-03-15 22:10:27:862,0,-1.59661,-3.87391,-28.1929,Q,Q
2023-03-15 22:10:27:872,0,-1.58702,-3.87444,-28.2242,Q,Q
2023-03-15 22:10:27:882,0,-1.57281,-3.87417,-28.2582,Q,Q
2023-03-15 22:10:27:892,0,-1.5563,-3.87316,-28.2945,Q,Q
2023-03-15 22:10:27:902,0,-1.53441,-3.86675,-28.3295,Q,Q
2023-03-15 22:10:27:912,0,-1.50781,-3.85983,-28.3625,Q,Q
2023-03-15 22:10:27:922,0,-1.47984,-3.85107,-28.3917,Q,Q
2023-03-15 22:10:27:932,0,-1.45275,-3.84491,-28.4208,Q,Q
2023-03-15 22:10:27:942,0,-1.42755,-3.83777,-28.4439,Q,Q
2023-03-15 22:10:27:952,0,-1.40235,-3.83501,-28.4642,Q,Q
2023-03-15 22:10:27:962,0,-1.38298,-3.82692,-28.4849,Q,Q
2023-03-15 22:10:27:972,0,-1.36148,-3.82214,-28.4997,Q,Q
2023-03-15 22:10:27:982,0,-1.34502,-3.81241,-28.5139,Q,Q
2023-03-15 22:10:27:992,0,-1.32949,-3.80216,-28.5231,Q,Q
2023-03-15 22:10:28:2,0,-1.31473,-3.79285,-28.5352,Q,Q
2023-03-15 22:10:28:12,0,-1.30236,-3.78118,-28.5448,Q,Q
2023-03-15 22:10:28:22,0,-1.2891,-3.76813,-28.5505,Q,Q
2023-03-15 22:10:28:32,0,-1.27419,-3.76141,-28.5617,Q,Q
2023-03-15 22:10:28:42,0,-1.26196,-3.76176,-28.5703,Q,Q
2023-03-15 22:10:28:52,0,-1.24608,-3.76357,-28.5813,Q,Q
2023-03-15 22:10:28:62,0,-1.23592,-3.76492,-28.5873,Q,Q
2023-03-15 22:10:28:72,0,-1.23101,-3.76729,-28.5925,Q,Q
2023-03-15 22:10:28:82,0,-1.23443,-3.76977,-28.5988,Q,Q
2023-03-15 22:10:28:92,0,-1.23839,-3.76906,-28.6045,Q,Q
2023-03-15 22:10:28:102,0,-1.24827,-3.76732,-28.6047,Q,Q
2023-03-15 22:10:28:112,0,-1.26173,-3.76734,-28.6052,Q,Q
2023-03-15 22:10:28:122,0,-1.27638,-3.76686,-28.6009,Q,Q
2023-03-15 22:10:28:132,0,-1.29283,-3.76671,-28.5966,Q,Q
2023-03-15 22:10:28:142,0,-1.30864,-3.76487,-28.5899,Q,Q
2023-03-15 22:10:28:152,0,-1.32826,-3.76583,-28.5844,Q,Q
2023-03-15 22:10:28:162,0,-1.342,-3.76998,-28.5807,Q,Q
2023-03-15 22:10:28:172,0,-1.35757,-3.76876,-28.5771,Q,Q
2023-03-15 22:10:28:182,0,-1.36819,-3.769,-28.5749,Q,Q
2023-03-15 22:10:28:192,0,-1.38063,-3.77305,-28.5773,Q,Q
2023-03-15 22:10:28:202,0,-1.39027,-3.77619,-28.5787,Q,Q
2023-03-15 22:10:28:212,0,-1.39793,-3.78437,-28.5776,Q,Q
2023-03-15 22:10:28:222,0,-1.40829,-3.78997,-28.584,Q,Q
2023-03-15 22:10:28:232,0,-1.41703,-3.79274,-28.5969,Q,Q
2023-03-15 22:10:28:242,0,-1.42225,-3.79416,-28.6111,Q,Q
2023-03-15 22:10:28:252,0,-1.42478,-3.79547,-28.6271,Q,Q
2023-03-15 22:10:28:262,0,-1.4258,-3.7957,-28.6468,Q,Q
2023-03-15 22:10:28:272,0,-1.42516,-3.79701,-28.6664,Q,Q
2023-03-15 22:10:28:282,0,-1.42466,-3.79872,-28.6877,Q,Q
2023-03-15 22:10:28:292,0,-1.41996,-3.79833,-28.7087,Q,Q
2023-03-15 22:10:28:302,0,-1.41703,-3.79834,-28.7332,Q,Q
2023-03-15 22:10:28:312,0,-1.41281,-3.79019,-28.7578,Q,Q
2023-03-15 22:10:28:322,0,-1.40986,-3.77883,-28.7816,Q,Q
2023-03-15 22:10:28:332,0,-1.40547,-3.76863,-28.802,Q,Q
2023-03-15 22:10:28:342,0,-1.40278,-3.75832,-28.8205,Q,Q
2023-03-15 22:10:28:352,0,-1.40122,-3.74848,-28.8372,Q,Q
2023-03-15 22:10:28:362,0,-1.39444,-3.73509,-28.8532,Q,Q
2023-03-15 22:10:28:372,0,-1.39101,-3.7202,-28.8673,Q,Q
2023-03-15 22:10:28:382,0,-1.38723,-3.69902,-28.8743,Q,Q
2023-03-15 22:10:28:392,0,-1.38383,-3.6812,-28.8781,Q,Q
2023-03-15 22:10:28:402,0,-1.38197,-3.66508,-28.8758,Q,Q
2023-03-15 22:10:28:412,0,-1.38012,-3.65074,-28.8706,Q,Q
2023-03-15 22:10:28:422,0,-1.37417,-3.63484,-28.8651,Q,Q
2023-03-15 22:10:28:432,0,-1.36587,-3.6204,-28.8579,Q,Q
2023-03-15 22:10:28:442,0,-1.35232,-3.60423,-28.846,Q,Q
2023-03-15 22:10:28:452,0,-1.3337,-3.5932,-28.8327,Q,Q
2023-03-15 22:10:28:462,0,-1.31523,-3.58373,-28.8207,Q,Q
2023-03-15 22:10:28:472,0,-1.29335,-3.57225,-28.8091,Q,Q
2023-03-15 22:10:28:482,0,-1.27039,-3.56086,-28.7993,Q,Q
2023-03-15 22:10:28:492,0,-1.24829,-3.54914,-28.7922,Q,Q
2023-03-15 22:10:28:502,0,-1.22641,-3.5415,-28.7912,Q,Q
2023-03-15 22:10:28:512,0,-1.20351,-3.53268,-28.7915,Q,Q
2023-03-15 22:10:28:522,0,-1.1774,-3.52777,-28.799,Q,Q
2023-03-15 22:10:28:532,0,-1.15446,-3.52603,-28.8077,Q,Q
2023-03-15 22:10:28:542,0,-1.13236,-3.52528,-28.8158,Q,Q
2023-03-15 22:10:28:552,0,-1.11319,-3.53004,-28.8283,Q,Q
2023-03-15 22:10:28:562,0,-1.09248,-3.53845,-28.8421,Q,Q
2023-03-15 22:10:28:572,0,-1.07307,-3.54465,-28.853,Q,Q
2023-03-15 22:10:28:582,0,-1.05445,-3.55184,-28.8658,Q,Q
2023-03-15 22:10:28:592,0,-1.03775,-3.55661,-28.8768,Q,Q
2023-03-15 22:10:28:602,0,-1.02045,-3.56246,-28.885,Q,Q
2023-03-15 22:10:28:612,0,-1.00041,-3.5675,-28.8853,Q,Q
2023-03-15 22:10:28:622,0,-0.978375,-3.56562,-28.8838,Q,Q
2023-03-15 22:10:28:632,0,-0.95558,-3.56289,-28.8782,Q,Q
2023-03-15 22:10:28:642,0,-0.928754,-3.55538,-28.8682,Q,Q
2023-03-15 22:10:28:652,0,-0.901798,-3.54038,-28.8605,Q,Q
2023-03-15 22:10:28:662,0,-0.873934,-3.52884,-28.8487,Q,Q
2023-03-15 22:10:28:672,0,-0.846427,-3.51902,-28.8428,Q,Q
2023-03-15 22:10:28:682,0,-0.823843,-3.51499,-28.8361,Q,Q
2023-03-15 22:10:28:692,0,-0.803416,-3.51122,-28.8355,Q,Q
2023-03-15 22:10:28:702,0,-0.790992,-3.50688,-28.8331,Q,Q
2023-03-15 22:10:28:712,0,-0.790662,-3.50161,-28.8323,Q,Q
2023-03-15 22:10:28:722,0,-0.803164,-3.49863,-28.8384,Q,Q
2023-03-15 22:10:28:732,0,-0.821012,-3.49287,-28.8526,Q,Q
2023-03-15 22:10:28:742,0,-0.848171,-3.48725,-28.8681,Q,Q
2023-03-15 22:10:28:752,0,-0.884428,-3.4819,-28.8931,Q,Q
2023-03-15 22:10:28:762,0,-0.926523,-3.47435,-28.9205,Q,Q
2023-03-15 22:10:28:772,0,-0.97827,-3.46782,-28.9566,Q,Q
2023-03-15 22:10:28:782,0,-1.03071,-3.45646,-29.0053,Q,Q
2023-03-15 22:10:28:792,0,-1.08928,-3.44391,-29.056,Q,Q
2023-03-15 22:10:28:802,0,-1.14882,-3.43587,-29.1096,Q,Q
2023-03-15 22:10:28:812,0,-1.20872,-3.42442,-29.1675,Q,Q
2023-03-15 22:10:28:822,0,-1.26751,-3.41491,-29.227,Q,Q
2023-03-15 22:10:28:832,0,-1.31936,-3.40478,-29.2821,Q,Q
2023-03-15 22:10:28:842,0,-1.36893,-3.39333,-29.3303,Q,Q
2023-03-15 22:10:28:852,0,-1.41133,-3.38136,-29.3758,Q,Q
2023-03-15 22:10:28:862,0,-1.44349,-3.37064,-29.4159,Q,Q
2023-03-15 22:10:28:872,0,-1.46923,-3.36015,-29.4486,Q,Q
2023-03-15 22:10:28:882,0,-1.48301,-3.35005,-29.4695,Q,Q
2023-03-15 22:10:28:892,0,-1.48512,-3.33354,-29.4829,Q,Q
2023-03-15 22:10:28:902,0,-1.47532,-3.32434,-29.49,Q,Q
2023-03-15 22:10:28:912,0,-1.46146,-3.32036,-29.4868,Q,Q
2023-03-15 22:10:28:922,0,-1.44373,-3.31608,-29.4767,Q,Q
2023-03-15 22:10:28:932,0,-1.42627,-3.31439,-29.4581,Q,Q
2023-03-15 22:10:28:942,0,-1.41385,-3.3151,-29.4366,Q,Q
2023-03-15 22:10:28:952,0,-1.40644,-3.31222,-29.4189,Q,Q
2023-03-15 22:10:28:962,0,-1.40002,-3.30652,-29.4005,Q,Q
2023-03-15 22:10:28:972,0,-1.39165,-3.29824,-29.3877,Q,Q
2023-03-15 22:10:28:982,0,-1.38388,-3.28778,-29.38,Q,Q
2023-03-15 22:10:28:992,0,-1.37707,-3.27431,-29.3734,Q,Q
2023-03-15 22:10:29:2,0,-1.3655,-3.26734,-29.3714,Q,Q
2023-03-15 22:10:29:12,0,-1.36025,-3.2616,-29.3757,Q,Q
2023-03-15 22:10:29:22,0,-1.35221,-3.26109,-29.3834,Q,Q
2023-03-15 22:10:29:32,0,-1.34799,-3.26713,-29.394,Q,Q
2023-03-15 22:10:29:42,0,-1.3447,-3.27507,-29.4108,Q,Q
2023-03-15 22:10:29:52,0,-1.33813,-3.28335,-29.4357,Q,Q
2023-03-15 22:10:29:62,0,-1.33042,-3.29259,-29.4655,Q,Q
2023-03-15 22:10:29:72,0,-1.32308,-3.29933,-29.4934,Q,Q
2023-03-15 22:10:29:82,0,-1.31698,-3.31001,-29.5234,Q,Q
2023-03-15 22:10:29:92,0,-1.31048,-3.32442,-29.5568,Q,Q
2023-03-15 22:10:29:102,0,-1.30244,-3.33513,-29.5862,Q,Q
2023-03-15 22:10:29:112,0,-1.28981,-3.34679,-29.6127,Q,Q
2023-03-15 22:10:29:122,0,-1.27667,-3.36178,-29.6367,Q,Q
2023-03-15 22:10:29:132,0,-1.26698,-3.3735,-29.6584,Q,Q
2023-03-15 22:10:29:142,0,-1.26055,-3.38114,-29.6736,Q,Q
2023-03-15 22:10:29:152,0,-1.25599,-3.38556,-29.6826,Q,Q
2023-03-15 22:10:29:162,0,-1.25876,-3.38583,-29.685,Q,Q
2023-03-15 22:10:29:172,0,-1.2645,-3.38724,-29.6905,Q,Q
2023-03-15 22:10:29:182,0,-1.27661,-3.38607,-29.6882,Q,Q
2023-03-15 22:10:29:192,0,-1.29248,-3.38319,-29.6778,Q,Q
2023-03-15 22:10:29:202,0,-1.31072,-3.37802,-29.6642,Q,Q
2023-03-15 22:10:29:212,0,-1.33686,-3.3754,-29.6492,Q,Q
2023-03-15 22:10:29:222,0,-1.36157,-3.37013,-29.6335,Q,Q
2023-03-15 22:10:29:232,0,-1.38347,-3.36326,-29.6197,Q,Q
2023-03-15 22:10:29:242,0,-1.40717,-3.3586,-29.6106,Q,Q
2023-03-15 22:10:29:252,0,-1.42573,-3.34979,-29.5953,Q,Q
2023-03-15 22:10:29:262,0,-1.44167,-3.33918,-29.5854,Q,Q
2023-03-15 22:10:29:272,0,-1.45521,-3.32444,-29.5811,Q,Q
2023-03-15 22:10:29:282,0,-1.4683,-3.30622,-29.5833,Q,Q
2023-03-15 22:10:29:292,0,-1.47646,-3.28753,-29.5924,Q,Q
2023-03-15 22:10:29:302,0,-1.48301,-3.27005,-29.6,Q,Q
2023-03-15 22:10:29:312,0,-1.48701,-3.25842,-29.612,Q,Q
2023-03-15 22:10:29:322,0,-1.49123,-3.25401,-29.6225,Q,Q
2023-03-15 22:10:29:332,0,-1.49564,-3.2515,-29.6384,Q,Q
2023-03-15 22:10:29:342,0,-1.49617,-3.25132,-29.656,Q,Q
2023-03-15 22:10:29:352,0,-1.49772,-3.248,-29.6779,Q,Q
2023-03-15 22:10:29:362,0,-1.49525,-3.24455,-29.7027,Q,Q
2023-03-15 22:10:29:372,0,-1.49567,-3.23998,-29.7238,Q,Q
2023-03-15 22:10:29:382,0,-1.49765,-3.23597,-29.743,Q,Q
2023-03-15 22:10:29:392,0,-1.5035,-3.23215,-29.7589,Q,Q
2023-03-15 22:10:29:402,0,-1.51635,-3.23002,-29.7759,Q,Q
2023-03-15 22:10:29:412,0,-1.5298,-3.2278,-29.7913,Q,Q
2023-03-15 22:10:29:422,0,-1.5417,-3.22622,-29.8082,Q,Q
2023-03-15 22:10:29:432,0,-1.54861,-3.22169,-29.8251,Q,Q
2023-03-15 22:10:29:442,0,-1.54928,-3.21621,-29.8432,Q,Q
2023-03-15 22:10:29:452,0,-1.54609,-3.20718,-29.8603,Q,Q
2023-03-15 22:10:29:462,0,-1.54025,-3.19585,-29.8782,Q,Q
2023-03-15 22:10:29:472,0,-1.53444,-3.18951,-29.8906,Q,Q
2023-03-15 22:10:29:482,0,-1.52922,-3.17729,-29.9046,Q,Q
2023-03-15 22:10:29:492,0,-1.52167,-3.165,-29.9195,Q,Q
2023-03-15 22:10:29:502,0,-1.5187,-3.1533,-29.936,Q,Q
2023-03-15 22:10:29:512,0,-1.51776,-3.14376,-29.9496,Q,Q
2023-03-15 22:10:29:522,0,-1.52391,-3.14067,-29.9628,Q,Q
2023-03-15 22:10:29:532,0,-1.53275,-3.13903,-29.9769,Q,Q
2023-03-15 22:10:29:542,0,-1.54182,-3.14311,-29.9895,Q,Q
2023-03-15 22:10:29:552,0,-1.54832,-3.15268,-30.0015,Q,Q
2023-03-15 22:10:29:562,0,-1.55146,-3.158,-30.0178,Q,Q
2023-03-15 22:10:29:572,0,-1.55425,-3.16378,-30.0361,Q,Q
2023-03-15 22:10:29:582,0,-1.54692,-3.16459,-30.0613,Q,Q
2023-03-15 22:10:29:592,0,-1.52618,-3.1528,-30.0899,Q,Q
2023-03-15 22:10:29:602,0,-1.50117,-3.12903,-30.1237,Q,Q
2023-03-15 22:10:29:612,0,-1.47071,-3.09442,-30.1603,Q,Q
2023-03-15 22:10:29:622,0,-1.43591,-3.05039,-30.2018,Q,Q
2023-03-15 22:10:29:632,0,-1.39761,-2.99689,-30.2483,Q,Q
2023-03-15 22:10:29:642,0,-1.3528,-2.93805,-30.2996,Q,Q
2023-03-15 22:10:29:652,0,-1.30695,-2.87213,-30.3545,Q,Q
2023-03-15 22:10:29:662,0,-1.25845,-2.80533,-30.4074,Q,Q
2023-03-15 22:10:29:672,0,-1.20946,-2.73993,-30.4611,Q,Q
2023-03-15 22:10:29:682,0,-1.157,-2.67586,-30.5095,Q,Q
2023-03-15 22:10:29:692,0,-1.10584,-2.61599,-30.5621,Q,Q
2023-03-15 22:10:29:702,0,-1.05033,-2.56132,-30.6158,Q,Q
2023-03-15 22:10:29:712,0,-0.992164,-2.51641,-30.6665,Q,Q
2023-03-15 22:10:29:722,0,-0.937402,-2.46971,-30.7097,Q,Q
2023-03-15 22:10:29:732,0,-0.876578,-2.42978,-30.752,Q,Q
2023-03-15 22:10:29:742,0,-0.820909,-2.3954,-30.7867,Q,Q
2023-03-15 22:10:29:752,0,-0.766436,-2.3667,-30.8183,Q,Q
2023-03-15 22:10:29:762,0,-0.71471,-2.33939,-30.8433,Q,Q
2023-03-15 22:10:29:772,0,-0.664895,-2.31521,-30.8612,Q,Q
2023-03-15 22:10:29:782,0,-0.622867,-2.29833,-30.8788,Q,Q
2023-03-15 22:10:29:792,0,-0.582566,-2.28566,-30.8867,Q,Q
2023-03-15 22:10:29:802,0,-0.54839,-2.27054,-30.8874,Q,Q
2023-03-15 22:10:29:812,0,-0.516111,-2.25808,-30.8832,Q,Q
2023-03-15 22:10:29:822,0,-0.496018,-2.24627,-30.875,Q,Q
2023-03-15 22:10:29:832,0,-0.473137,-2.23442,-30.8637,Q,Q
2023-03-15 22:10:29:842,0,-0.456868,-2.22293,-30.8473,Q,Q
2023-03-15 22:10:29:852,0,-0.440486,-2.20899,-30.832,Q,Q
2023-03-15 22:10:29:862,0,-0.424635,-2.19604,-30.8152,Q,Q
2023-03-15 22:10:29:872,0,-0.414771,-2.1842,-30.7994,Q,Q
2023-03-15 22:10:29:882,0,-0.407877,-2.17399,-30.7852,Q,Q
2023-03-15 22:10:29:891,0,-0.404349,-2.1635,-30.7743,Q,Q
2023-03-15 22:10:29:901,0,-0.405681,-2.15753,-30.7654,Q,Q
2023-03-15 22:10:29:911,0,-0.414454,-2.15287,-30.7597,Q,Q
2023-03-15 22:10:29:922,0,-0.431655,-2.15434,-30.7564,Q,Q
2023-03-15 22:10:29:931,0,-0.452732,-2.15378,-30.7542,Q,Q
2023-03-15 22:10:29:941,0,-0.484061,-2.15332,-30.7604,Q,Q
2023-03-15 22:10:29:951,0,-0.524791,-2.15872,-30.7702,Q,Q
2023-03-15 22:10:29:962,0,-0.577284,-2.16663,-30.7802,Q,Q
2023-03-15 22:10:29:972,0,-0.634957,-2.17241,-30.7939,Q,Q
2023-03-15 22:10:29:982,0,-0.696053,-2.17773,-30.81,Q,Q
2023-03-15 22:10:29:992,0,-0.761764,-2.18767,-30.8279,Q,Q
2023-03-15 22:10:30:2,0,-0.828924,-2.19726,-30.8414,Q,Q
2023-03-15 22:10:30:12,0,-0.89774,-2.20584,-30.8542,Q,Q
2023-03-15 22:10:30:22,0,-0.960072,-2.2189,-30.8709,Q,Q
2023-03-15 22:10:30:32,0,-1.02323,-2.2295,-30.8847,Q,Q
2023-03-15 22:10:30:42,0,-1.08328,-2.23727,-30.8935,Q,Q
2023-03-15 22:10:30:52,0,-1.13864,-2.2413,-30.9034,Q,Q
2023-03-15 22:10:30:62,0,-1.18733,-2.24441,-30.9106,Q,Q
2023-03-15 22:10:30:72,0,-1.22838,-2.24939,-30.9149,Q,Q
2023-03-15 22:10:30:82,0,-1.26095,-2.25458,-30.9198,Q,Q
2023-03-15 22:10:30:92,0,-1.28731,-2.25842,-30.9204,Q,Q
2023-03-15 22:10:30:102,0,-1.31391,-2.26558,-30.9195,Q,Q
2023-03-15 22:10:30:112,0,-1.33549,-2.2678,-30.9182,Q,Q
2023-03-15 22:10:30:122,0,-1.35446,-2.27748,-30.9138,Q,Q
2023-03-15 22:10:30:132,0,-1.37502,-2.292,-30.91,Q,Q
2023-03-15 22:10:30:142,0,-1.3948,-2.30558,-30.9016,Q,Q
2023-03-15 22:10:30:152,0,-1.409,-2.31934,-30.8952,Q,Q
2023-03-15 22:10:30:162,0,-1.42284,-2.33535,-30.8871,Q,Q
2023-03-15 22:10:30:172,0,-1.43104,-2.34701,-30.8729,Q,Q
2023-03-15 22:10:30:182,0,-1.4382,-2.35903,-30.8584,Q,Q
2023-03-15 22:10:30:192,0,-1.44403,-2.36876,-30.8436,Q,Q
2023-03-15 22:10:30:202,0,-1.44971,-2.37981,-30.8255,Q,Q
2023-03-15 22:10:30:212,0,-1.45741,-2.38943,-30.8086,Q,Q
2023-03-15 22:10:30:222,0,-1.46327,-2.39972,-30.7907,Q,Q
2023-03-15 22:10:30:232,0,-1.47237,-2.41033,-30.7695,Q,Q
2023-03-15 22:10:30:242,0,-1.48537,-2.41557,-30.7556,Q,Q
2023-03-15 22:10:30:252,0,-1.49226,-2.42674,-30.7387,Q,Q
2023-03-15 22:10:30:262,0,-1.50031,-2.43861,-30.7227,Q,Q
2023-03-15 22:10:30:272,0,-1.50675,-2.45332,-30.7079,Q,Q
2023-03-15 22:10:30:282,0,-1.50718,-2.47052,-30.6938,Q,Q
2023-03-15 22:10:30:292,0,-1.50933,-2.48773,-30.6775,Q,Q
2023-03-15 22:10:30:302,0,-1.51244,-2.50452,-30.6627,Q,Q
2023-03-15 22:10:30:312,0,-1.51356,-2.52355,-30.6494,Q,Q
2023-03-15 22:10:30:322,0,-1.5106,-2.54677,-30.6366,Q,Q
2023-03-15 22:10:30:332,0,-1.5088,-2.56839,-30.619,Q,Q
2023-03-15 22:10:30:342,0,-1.50287,-2.58925,-30.5987,Q,Q
2023-03-15 22:10:30:352,0,-1.49483,-2.61562,-30.5812,Q,Q
2023-03-15 22:10:30:362,0,-1.47743,-2.64339,-30.5631,Q,Q
2023-03-15 22:10:30:372,0,-1.45793,-2.67287,-30.5402,Q,Q
2023-03-15 22:10:30:382,0,-1.43734,-2.70118,-30.5183,Q,Q
2023-03-15 22:10:30:392,0,-1.41192,-2.72705,-30.4969,Q,Q
2023-03-15 22:10:30:402,0,-1.38838,-2.7478,-30.4808,Q,Q
2023-03-15 22:10:30:412,0,-1.3587,-2.76992,-30.4655,Q,Q
2023-03-15 22:10:30:422,0,-1.33095,-2.78834,-30.4497,Q,Q
2023-03-15 22:10:30:432,0,-1.2997,-2.80976,-30.4335,Q,Q
2023-03-15 22:10:30:442,0,-1.26977,-2.8227,-30.4219,Q,Q
2023-03-15 22:10:30:452,0,-1.23477,-2.82983,-30.4149,Q,Q
2023-03-15 22:10:30:462,0,-1.19852,-2.82909,-30.4102,Q,Q
2023-03-15 22:10:30:472,0,-1.15726,-2.825,-30.4136,Q,Q
2023-03-15 22:10:30:482,0,-1.11085,-2.82074,-30.422,Q,Q
2023-03-15 22:10:30:492,0,-1.06786,-2.81994,-30.4314,Q,Q
2023-03-15 22:10:30:502,0,-1.02595,-2.82475,-30.4408,Q,Q
2023-03-15 22:10:30:512,0,-0.98807,-2.83004,-30.4529,Q,Q
2023-03-15 22:10:30:522,0,-0.954905,-2.83537,-30.4655,Q,Q
2023-03-15 22:10:30:532,0,-0.933896,-2.83927,-30.4811,Q,Q
2023-03-15 22:10:30:542,0,-0.921351,-2.83698,-30.4957,Q,Q
2023-03-15 22:10:30:552,0,-0.917213,-2.83777,-30.5115,Q,Q
2023-03-15 22:10:30:562,0,-0.922797,-2.83938,-30.5265,Q,Q
2023-03-15 22:10:30:572,0,-0.934827,-2.83728,-30.5422,Q,Q
2023-03-15 22:10:30:582,0,-0.944996,-2.83475,-30.5497,Q,Q
2023-03-15 22:10:30:592,0,-0.957488,-2.83496,-30.5564,Q,Q
2023-03-15 22:10:30:602,0,-0.970593,-2.83157,-30.5657,Q,Q
2023-03-15 22:10:30:612,0,-0.983043,-2.8323,-30.5698,Q,Q
2023-03-15 22:10:30:622,0,-0.993786,-2.83404,-30.5734,Q,Q
2023-03-15 22:10:30:632,0,-1.00743,-2.8374,-30.5753,Q,Q
2023-03-15 22:10:30:642,0,-1.02236,-2.83752,-30.577,Q,Q
2023-03-15 22:10:30:652,0,-1.03667,-2.84355,-30.5806,Q,Q
2023-03-15 22:10:30:662,0,-1.05472,-2.85075,-30.583,Q,Q
2023-03-15 22:10:30:672,0,-1.07196,-2.85838,-30.5879,Q,Q
2023-03-15 22:10:30:682,0,-1.08942,-2.86553,-30.5917,Q,Q
2023-03-15 22:10:30:692,0,-1.10167,-2.87196,-30.5939,Q,Q
2023-03-15 22:10:30:702,0,-1.10843,-2.87721,-30.5989,Q,Q
2023-03-15 22:10:30:712,0,-1.11302,-2.88519,-30.605,Q,Q
2023-03-15 22:10:30:722,0,-1.11753,-2.89928,-30.6084,Q,Q
2023-03-15 22:10:30:732,0,-1.12065,-2.90799,-30.6111,Q,Q
2023-03-15 22:10:30:742,0,-1.12974,-2.91488,-30.6176,Q,Q
2023-03-15 22:10:30:752,0,-1.13757,-2.9242,-30.6246,Q,Q
2023-03-15 22:10:30:762,0,-1.14836,-2.93229,-30.6289,Q,Q
2023-03-15 22:10:30:772,0,-1.1604,-2.93622,-30.6303,Q,Q
2023-03-15 22:10:30:782,0,-1.17761,-2.94415,-30.6338,Q,Q
2023-03-15 22:10:30:792,0,-1.1893,-2.95056,-30.6369,Q,Q
2023-03-15 22:10:30:802,0,-1.20828,-2.95512,-30.6403,Q,Q
2023-03-15 22:10:30:812,0,-1.2244,-2.96315,-30.643,Q,Q
2023-03-15 22:10:30:822,0,-1.24194,-2.96812,-30.6455,Q,Q
2023-03-15 22:10:30:832,0,-1.26625,-2.97715,-30.6497,Q,Q
2023-03-15 22:10:30:842,0,-1.28583,-2.98369,-30.6526,Q,Q
2023-03-15 22:10:30:852,0,-1.30708,-2.99186,-30.6574,Q,Q
2023-03-15 22:10:30:862,0,-1.32544,-3.00027,-30.663,Q,Q
2023-03-15 22:10:30:872,0,-1.34298,-3.00849,-30.6672,Q,Q
2023-03-15 22:10:30:882,0,-1.35835,-3.01677,-30.6723,Q,Q
2023-03-15 22:10:30:892,0,-1.37316,-3.02772,-30.6782,Q,Q
2023-03-15 22:10:30:902,0,-1.3862,-3.03576,-30.6826,Q,Q
2023-03-15 22:10:30:912,0,-1.3988,-3.04492,-30.6855,Q,Q
2023-03-15 22:10:30:922,0,-1.40957,-3.05402,-30.6864,Q,Q
2023-03-15 22:10:30:932,0,-1.4198,-3.06188,-30.6854,Q,Q
2023-03-15 22:10:30:942,0,-1.42436,-3.06892,-30.683,Q,Q
2023-03-15 22:10:30:952,0,-1.42749,-3.07657,-30.6837,Q,Q
2023-03-15 22:10:30:962,0,-1.42877,-3.08201,-30.6848,Q,Q
2023-03-15 22:10:30:972,0,-1.42782,-3.08679,-30.686,Q,Q
2023-03-15 22:10:30:982,0,-1.42708,-3.08811,-30.6847,Q,Q
2023-03-15 22:10:30:992,0,-1.42186,-3.09047,-30.6871,Q,Q
2023-03-15 22:10:31:2,0,-1.41155,-3.09247,-30.6838,Q,Q
2023-03-15 22:10:31:12,0,-1.39476,-3.09294,-30.6815,Q,Q
2023-03-15 22:10:31:22,0,-1.36779,-3.09472,-30.6806,Q,Q
2023-03-15 22:10:31:32,0,-1.33804,-3.0958,-30.6777,Q,Q
2023-03-15 22:10:31:42,0,-1.30003,-3.09048,-30.6764,Q,Q
2023-03-15 22:10:31:52,0,-1.25313,-3.08229,-30.6774,Q,Q
2023-03-15 22:10:31:62,0,-1.20022,-3.07458,-30.6794,Q,Q
2023-03-15 22:10:31:72,0,-1.1426,-3.06405,-30.6793,Q,Q
2023-03-15 22:10:31:82,0,-1.07744,-3.05741,-30.6804,Q,Q
2023-03-15 22:10:31:92,0,-1.0152,-3.05605,-30.685,Q,Q
2023-03-15 22:10:31:102,0,-0.955049,-3.05785,-30.6935,Q,Q
2023-03-15 22:10:31:112,0,-0.90363,-3.06094,-30.6964,Q,Q
2023-03-15 22:10:31:122,0,-0.861154,-3.06646,-30.7006,Q,Q
2023-03-15 22:10:31:132,0,-0.831493,-3.07192,-30.7064,Q,Q
2023-03-15 22:10:31:142,0,-0.807106,-3.07984,-30.7092,Q,Q
2023-03-15 22:10:31:152,0,-0.794886,-3.08625,-30.7115,Q,Q
2023-03-15 22:10:31:162,0,-0.788235,-3.09431,-30.7096,Q,Q
2023-03-15 22:10:31:172,0,-0.785785,-3.10282,-30.7044,Q,Q
2023-03-15 22:10:31:182,0,-0.788489,-3.10853,-30.6959,Q,Q
2023-03-15 22:10:31:192,0,-0.796332,-3.1109,-30.6885,Q,Q
2023-03-15 22:10:31:202,0,-0.809807,-3.11154,-30.6752,Q,Q
2023-03-15 22:10:31:212,0,-0.825498,-3.11066,-30.6644,Q,Q
2023-03-15 22:10:31:222,0,-0.837351,-3.10539,-30.6555,Q,Q
2023-03-15 22:10:31:232,0,-0.854143,-3.09639,-30.6457,Q,Q
2023-03-15 22:10:31:242,0,-0.874185,-3.08968,-30.638,Q,Q
2023-03-15 22:10:31:252,0,-0.896057,-3.08444,-30.6306,Q,Q
2023-03-15 22:10:31:262,0,-0.920192,-3.07816,-30.6258,Q,Q
2023-03-15 22:10:31:272,0,-0.945222,-3.07035,-30.6218,Q,Q
2023-03-15 22:10:31:282,0,-0.970249,-3.06916,-30.6238,Q,Q
2023-03-15 22:10:31:292,0,-0.996093,-3.06547,-30.6259,Q,Q
2023-03-15 22:10:31:302,0,-1.01978,-3.06234,-30.6324,Q,Q
2023-03-15 22:10:31:312,0,-1.04029,-3.06057,-30.6391,Q,Q
2023-03-15 22:10:31:322,0,-1.05904,-3.05965,-30.6475,Q,Q
2023-03-15 22:10:31:332,0,-1.07975,-3.0617,-30.6517,Q,Q
2023-03-15 22:10:31:342,0,-1.0972,-3.06558,-30.6591,Q,Q
2023-03-15 22:10:31:352,0,-1.11097,-3.0656,-30.6622,Q,Q
2023-03-15 22:10:31:362,0,-1.12,-3.06486,-30.6655,Q,Q
2023-03-15 22:10:31:372,0,-1.12494,-3.06661,-30.6652,Q,Q
2023-03-15 22:10:31:382,0,-1.12723,-3.0691,-30.6577,Q,Q
2023-03-15 22:10:31:392,0,-1.12275,-3.07637,-30.6486,Q,Q
2023-03-15 22:10:31:402,0,-1.11185,-3.08796,-30.6361,Q,Q
2023-03-15 22:10:31:412,0,-1.1012,-3.10642,-30.6167,Q,Q
2023-03-15 22:10:31:422,0,-1.08688,-3.12864,-30.5924,Q,Q
2023-03-15 22:10:31:432,0,-1.06661,-3.15114,-30.5636,Q,Q
2023-03-15 22:10:31:442,0,-1.04442,-3.17767,-30.5349,Q,Q
2023-03-15 22:10:31:452,0,-1.02031,-3.20854,-30.5014,Q,Q
2023-03-15 22:10:31:462,0,-0.994925,-3.23483,-30.4727,Q,Q
2023-03-15 22:10:31:472,0,-0.969306,-3.26475,-30.4396,Q,Q
2023-03-15 22:10:31:482,0,-0.941583,-3.29251,-30.4076,Q,Q
2023-03-15 22:10:31:492,0,-0.912442,-3.31909,-30.3743,Q,Q
2023-03-15 22:10:31:502,0,-0.884826,-3.34572,-30.3427,Q,Q
2023-03-15 22:10:31:512,0,-0.857829,-3.37064,-30.315,Q,Q
2023-03-15 22:10:31:522,0,-0.832973,-3.39255,-30.2876,Q,Q
2023-03-15 22:10:31:532,0,-0.810384,-3.40949,-30.2671,Q,Q
2023-03-15 22:10:31:542,0,-0.790635,-3.42167,-30.2465,Q,Q
2023-03-15 22:10:31:552,0,-0.7774,-3.43273,-30.2344,Q,Q
2023-03-15 22:10:31:562,0,-0.762665,-3.44199,-30.2252,Q,Q
2023-03-15 22:10:31:572,0,-0.752165,-3.44437,-30.2196,Q,Q
2023-03-15 22:10:31:582,0,-0.7483,-3.44889,-30.2174,Q,Q
2023-03-15 22:10:31:592,0,-0.748839,-3.44574,-30.2222,Q,Q
2023-03-15 22:10:31:602,0,-0.749089,-3.44288,-30.2296,Q,Q
2023-03-15 22:10:31:612,0,-0.756763,-3.44349,-30.2401,Q,Q
2023-03-15 22:10:31:622,0,-0.76304,-3.43948,-30.2544,Q,Q
2023-03-15 22:10:31:632,0,-0.776628,-3.43573,-30.2729,Q,Q
2023-03-15 22:10:31:642,0,-0.792105,-3.43265,-30.2921,Q,Q
2023-03-15 22:10:31:652,0,-0.809395,-3.42741,-30.3096,Q,Q
2023-03-15 22:10:31:662,0,-0.827182,-3.42088,-30.3264,Q,Q
2023-03-15 22:10:31:672,0,-0.844598,-3.41364,-30.3424,Q,Q
2023-03-15 22:10:31:682,0,-0.865645,-3.40676,-30.3557,Q,Q
2023-03-15 22:10:31:692,0,-0.885072,-3.40573,-30.3644,Q,Q
2023-03-15 22:10:31:702,0,-0.911103,-3.40367,-30.371,Q,Q
2023-03-15 22:10:31:712,0,-0.93942,-3.40042,-30.3704,Q,Q
2023-03-15 22:10:31:722,0,-0.971018,-3.39924,-30.3677,Q,Q
2023-03-15 22:10:31:732,0,-1.00536,-3.39786,-30.3628,Q,Q
2023-03-15 22:10:31:742,0,-1.03703,-3.39612,-30.3571,Q,Q
2023-03-15 22:10:31:752,0,-1.06908,-3.39664,-30.3511,Q,Q
2023-03-15 22:10:31:762,0,-1.10377,-3.40315,-30.3434,Q,Q
2023-03-15 22:10:31:772,0,-1.13689,-3.4165,-30.3352,Q,Q
2023-03-15 22:10:31:782,0,-1.17049,-3.43001,-30.3266,Q,Q
2023-03-15 22:10:31:792,0,-1.20264,-3.44571,-30.32,Q,Q
2023-03-15 22:10:31:802,0,-1.23491,-3.45818,-30.3111,Q,Q
2023-03-15 22:10:31:812,0,-1.27189,-3.46957,-30.3059,Q,Q
2023-03-15 22:10:31:822,0,-1.30911,-3.47639,-30.3028,Q,Q
2023-03-15 22:10:31:832,0,-1.34589,-3.47768,-30.2993,Q,Q
2023-03-15 22:10:31:842,0,-1.38288,-3.47786,-30.2934,Q,Q
2023-03-15 22:10:31:852,0,-1.41357,-3.47755,-30.287,Q,Q
2023-03-15 22:10:31:862,0,-1.44506,-3.47252,-30.2842,Q,Q
2023-03-15 22:10:31:872,0,-1.47019,-3.463,-30.2827,Q,Q
2023-03-15 22:10:31:882,0,-1.49312,-3.45042,-30.282,Q,Q
2023-03-15 22:10:31:892,0,-1.51349,-3.43614,-30.2885,Q,Q
2023-03-15 22:10:31:902,0,-1.5246,-3.42128,-30.2953,Q,Q
2023-03-15 22:10:31:912,0,-1.53654,-3.40248,-30.3119,Q,Q
2023-03-15 22:10:31:922,0,-1.54288,-3.38605,-30.3318,Q,Q
2023-03-15 22:10:31:932,0,-1.54557,-3.36842,-30.3511,Q,Q
2023-03-15 22:10:31:942,0,-1.54248,-3.35054,-30.3723,Q,Q
2023-03-15 22:10:31:952,0,-1.53591,-3.33451,-30.3956,Q,Q
2023-03-15 22:10:31:962,0,-1.53031,-3.32276,-30.4257,Q,Q
2023-03-15 22:10:31:972,0,-1.51941,-3.30706,-30.4524,Q,Q
2023-03-15 22:10:31:982,0,-1.50325,-3.29493,-30.4799,Q,Q
2023-03-15 22:10:31:992,0,-1.48978,-3.2842,-30.506,Q,Q
2023-03-15 22:10:32:2,0,-1.47659,-3.27868,-30.528,Q,Q
2023-03-15 22:10:32:12,0,-1.46632,-3.27522,-30.5498,Q,Q
2023-03-15 22:10:32:22,0,-1.45422,-3.2693,-30.5681,Q,Q
2023-03-15 22:10:32:32,0,-1.44377,-3.26053,-30.5824,Q,Q
2023-03-15 22:10:32:42,0,-1.43673,-3.2507,-30.5927,Q,Q
2023-03-15 22:10:32:52,0,-1.43189,-3.24259,-30.5979,Q,Q
2023-03-15 22:10:32:62,0,-1.42888,-3.23385,-30.6003,Q,Q
2023-03-15 22:10:32:72,0,-1.42574,-3.22546,-30.6035,Q,Q
2023-03-15 22:10:32:82,0,-1.42284,-3.21861,-30.6014,Q,Q
2023-03-15 22:10:32:92,0,-1.42184,-3.21376,-30.6013,Q,Q
2023-03-15 22:10:32:102,0,-1.42747,-3.21003,-30.604,Q,Q
2023-03-15 22:10:32:112,0,-1.4337,-3.20956,-30.6047,Q,Q
2023-03-15 22:10:32:122,0,-1.4385,-3.20439,-30.6055,Q,Q
2023-03-15 22:10:32:132,0,-1.44478,-3.20166,-30.6121,Q,Q
2023-03-15 22:10:32:142,0,-1.4529,-3.19972,-30.6186,Q,Q
2023-03-15 22:10:32:152,0,-1.45913,-3.19874,-30.6238,Q,Q
2023-03-15 22:10:32:162,0,-1.4589,-3.19826,-30.6306,Q,Q
2023-03-15 22:10:32:172,0,-1.45835,-3.19662,-30.6408,Q,Q
2023-03-15 22:10:32:182,0,-1.45704,-3.19789,-30.6472,Q,Q
2023-03-15 22:10:32:192,0,-1.45577,-3.19506,-30.6572,Q,Q
2023-03-15 22:10:32:202,0,-1.45497,-3.19306,-30.6647,Q,Q
2023-03-15 22:10:32:212,0,-1.45441,-3.18984,-30.672,Q,Q
2023-03-15 22:10:32:222,0,-1.45286,-3.18312,-30.6771,Q,Q
2023-03-15 22:10:32:232,0,-1.45385,-3.17987,-30.6782,Q,Q
2023-03-15 22:10:32:242,0,-1.45435,-3.17389,-30.6768,Q,Q
2023-03-15 22:10:32:252,0,-1.45313,-3.16704,-30.681,Q,Q
2023-03-15 22:10:32:262,0,-1.45408,-3.15738,-30.6825,Q,Q
2023-03-15 22:10:32:272,0,-1.45201,-3.1457,-30.6836,Q,Q
2023-03-15 22:10:32:282,0,-1.44815,-3.13615,-30.6883,Q,Q
2023-03-15 22:10:32:292,0,-1.44648,-3.13043,-30.6923,Q,Q
2023-03-15 22:10:32:302,0,-1.44205,-3.126,-30.6952,Q,Q
2023-03-15 22:10:32:312,0,-1.44017,-3.1231,-30.697,Q,Q
2023-03-15 22:10:32:322,0,-1.43774,-3.11906,-30.6996,Q,Q
2023-03-15 22:10:32:332,0,-1.43502,-3.11547,-30.7032,Q,Q
2023-03-15 22:10:32:342,0,-1.43684,-3.11457,-30.7066,Q,Q
2023-03-15 22:10:32:352,0,-1.43802,-3.11752,-30.714,Q,Q
2023-03-15 22:10:32:362,0,-1.43814,-3.11561,-30.7146,Q,Q
2023-03-15 22:10:32:372,0,-1.43645,-3.11617,-30.7137,Q,Q
2023-03-15 22:10:32:382,0,-1.4327,-3.1188,-30.7134,Q,Q
2023-03-15 22:10:32:392,0,-1.42297,-3.124,-30.7085,Q,Q
2023-03-15 22:10:32:402,0,-1.41645,-3.12448,-30.7027,Q,Q
2023-03-15 22:10:32:412,0,-1.40896,-3.1238,-30.6948,Q,Q
2023-03-15 22:10:32:422,0,-1.39957,-3.12068,-30.6862,Q,Q
2023-03-15 22:10:32:432,0,-1.38984,-3.11659,-30.6773,Q,Q
2023-03-15 22:10:32:442,0,-1.37394,-3.11376,-30.6714,Q,Q
2023-03-15 22:10:32:452,0,-1.35889,-3.11521,-30.6668,Q,Q
2023-03-15 22:10:32:462,0,-1.3421,-3.12232,-30.6616,Q,Q
2023-03-15 22:10:32:472,0,-1.33339,-3.1302,-30.6615,Q,Q
2023-03-15 22:10:32:482,0,-1.3218,-3.13971,-30.6607,Q,Q
2023-03-15 22:10:32:492,0,-1.31875,-3.1468,-30.6643,Q,Q
2023-03-15 22:10:32:502,0,-1.31721,-3.15027,-30.6658,Q,Q
2023-03-15 22:10:32:512,0,-1.31912,-3.15334,-30.6679,Q,Q
2023-03-15 22:10:32:522,0,-1.32678,-3.15375,-30.6688,Q,Q
2023-03-15 22:10:32:532,0,-1.33151,-3.1507,-30.6703,Q,Q
2023-03-15 22:10:32:542,0,-1.33976,-3.15047,-30.6728,Q,Q
2023-03-15 22:10:32:552,0,-1.34938,-3.14597,-30.6745,Q,Q
2023-03-15 22:10:32:562,0,-1.3602,-3.13955,-30.6758,Q,Q
2023-03-15 22:10:32:572,0,-1.37284,-3.13061,-30.6824,Q,Q
2023-03-15 22:10:32:582,0,-1.37829,-3.12204,-30.6904,Q,Q
2023-03-15 22:10:32:592,0,-1.38081,-3.11308,-30.6992,Q,Q
2023-03-15 22:10:32:602,0,-1.38313,-3.10346,-30.7146,Q,Q
2023-03-15 22:10:32:612,0,-1.38538,-3.09456,-30.7251,Q,Q
2023-03-15 22:10:32:622,0,-1.38413,-3.08672,-30.7403,Q,Q
2023-03-15 22:10:32:632,0,-1.38286,-3.07689,-30.7565,Q,Q
2023-03-15 22:10:32:642,0,-1.3836,-3.06532,-30.7722,Q,Q
2023-03-15 22:10:32:652,0,-1.38474,-3.05821,-30.7942,Q,Q
2023-03-15 22:10:32:662,0,-1.38437,-3.05112,-30.8133,Q,Q
2023-03-15 22:10:32:672,0,-1.38159,-3.04235,-30.8273,Q,Q
2023-03-15 22:10:32:682,0,-1.38111,-3.0374,-30.8394,Q,Q
2023-03-15 22:10:32:692,0,-1.37412,-3.03129,-30.8491,Q,Q
2023-03-15 22:10:32:702,0,-1.36643,-3.02508,-30.8555,Q,Q
2023-03-15 22:10:32:712,0,-1.35875,-3.02484,-30.8597,Q,Q
2023-03-15 22:10:32:722,0,-1.3537,-3.0237,-30.8601,Q,Q
2023-03-15 22:10:32:732,0,-1.3542,-3.026,-30.8542,Q,Q
2023-03-15 22:10:32:742,0,-1.35462,-3.02599,-30.8448,Q,Q
2023-03-15 22:10:32:752,0,-1.35698,-3.02599,-30.8351,Q,Q
2023-03-15 22:10:32:762,0,-1.35853,-3.0257,-30.8189,Q,Q
2023-03-15 22:10:32:772,0,-1.3588,-3.02527,-30.8042,Q,Q
2023-03-15 22:10:32:782,0,-1.36334,-3.02471,-30.7858,Q,Q
2023-03-15 22:10:32:792,0,-1.36529,-3.02641,-30.7692,Q,Q
2023-03-15 22:10:32:802,0,-1.36706,-3.02835,-30.7573,Q,Q
2023-03-15 22:10:32:812,0,-1.3669,-3.02856,-30.7456,Q,Q
2023-03-15 22:10:32:822,0,-1.36705,-3.02741,-30.7383,Q,Q
2023-03-15 22:10:32:832,0,-1.36852,-3.03169,-30.7346,Q,Q
2023-03-15 22:10:32:842,0,-1.36602,-3.03726,-30.7362,Q,Q
2023-03-15 22:10:32:852,0,-1.36253,-3.04261,-30.739,Q,Q
2023-03-15 22:10:32:862,0,-1.35894,-3.04588,-30.7432,Q,Q
2023-03-15 22:10:32:872,0,-1.35435,-3.04965,-30.7471,Q,Q
2023-03-15 22:10:32:882,0,-1.34936,-3.05649,-30.7523,Q,Q
2023-03-15 22:10:32:892,0,-1.34638,-3.06118,-30.7553,Q,Q
2023-03-15 22:10:32:902,0,-1.34054,-3.06851,-30.7589,Q,Q
2023-03-15 22:10:32:912,0,-1.33762,-3.07334,-30.7565,Q,Q
2023-03-15 22:10:32:922,0,-1.33255,-3.07808,-30.7519,Q,Q
2023-03-15 22:10:32:932,0,-1.32898,-3.08185,-30.7435,Q,Q
2023-03-15 22:10:32:942,0,-1.32675,-3.08611,-30.732,Q,Q
2023-03-15 22:10:32:952,0,-1.32659,-3.09277,-30.7159,Q,Q
2023-03-15 22:10:32:962,0,-1.32652,-3.09816,-30.6991,Q,Q
2023-03-15 22:10:32:972,0,-1.33058,-3.10663,-30.6816,Q,Q
2023-03-15 22:10:32:982,0,-1.33395,-3.11778,-30.6631,Q,Q
2023-03-15 22:10:32:992,0,-1.33972,-3.13161,-30.6518,Q,Q
2023-03-15 22:10:33:2,0,-1.34577,-3.14669,-30.6402,Q,Q
2023-03-15 22:10:33:12,0,-1.34502,-3.16111,-30.6297,Q,Q
2023-03-15 22:10:33:22,0,-1.34856,-3.17492,-30.6233,Q,Q
2023-03-15 22:10:33:32,0,-1.35085,-3.1898,-30.6222,Q,Q
2023-03-15 22:10:33:42,0,-1.35045,-3.19998,-30.6246,Q,Q
2023-03-15 22:10:33:52,0,-1.35436,-3.20686,-30.6289,Q,Q
2023-03-15 22:10:33:62,0,-1.36182,-3.21005,-30.6372,Q,Q
2023-03-15 22:10:33:72,0,-1.37087,-3.21448,-30.6498,Q,Q
2023-03-15 22:10:33:82,0,-1.37911,-3.21396,-30.666,Q,Q
2023-03-15 22:10:33:92,0,-1.3844,-3.20836,-30.6847,Q,Q
2023-03-15 22:10:33:102,0,-1.38838,-3.20051,-30.7051,Q,Q
2023-03-15 22:10:33:112,0,-1.39219,-3.19617,-30.7246,Q,Q
2023-03-15 22:10:33:122,0,-1.39332,-3.18736,-30.7449,Q,Q
2023-03-15 22:10:33:132,0,-1.39507,-3.17563,-30.7621,Q,Q
2023-03-15 22:10:33:142,0,-1.3928,-3.16557,-30.7795,Q,Q
2023-03-15 22:10:33:152,0,-1.38704,-3.15084,-30.7978,Q,Q
2023-03-15 22:10:33:162,0,-1.38434,-3.13887,-30.811,Q,Q
2023-03-15 22:10:33:172,0,-1.37864,-3.13002,-30.822,Q,Q
2023-03-15 22:10:33:182,0,-1.37957,-3.12351,-30.8294,Q,Q
2023-03-15 22:10:33:192,0,-1.38573,-3.11874,-30.8311,Q,Q
2023-03-15 22:10:33:202,0,-1.39395,-3.11661,-30.8325,Q,Q
2023-03-15 22:10:33:212,0,-1.40626,-3.11376,-30.8306,Q,Q
2023-03-15 22:10:33:222,0,-1.42338,-3.11009,-30.832,Q,Q
2023-03-15 22:10:33:232,0,-1.44407,-3.1084,-30.8332,Q,Q
2023-03-15 22:10:33:242,0,-1.46441,-3.11312,-30.8367,Q,Q
2023-03-15 22:10:33:252,0,-1.47779,-3.12165,-30.8425,Q,Q
2023-03-15 22:10:33:262,0,-1.49955,-3.12899,-30.8572,Q,Q
2023-03-15 22:10:33:272,0,-1.52056,-3.13695,-30.8785,Q,Q
2023-03-15 22:10:33:282,0,-1.54034,-3.14492,-30.901,Q,Q
2023-03-15 22:10:33:292,0,-1.55442,-3.15104,-30.9334,Q,Q
2023-03-15 22:10:33:302,0,-1.56837,-3.15594,-30.972,Q,Q
2023-03-15 22:10:33:312,0,-1.58189,-3.16192,-31.0137,Q,Q
2023-03-15 22:10:33:322,0,-1.59298,-3.17012,-31.0567,Q,Q
2023-03-15 22:10:33:332,0,-1.60436,-3.17258,-31.0999,Q,Q
2023-03-15 22:10:33:342,0,-1.61077,-3.17485,-31.1385,Q,Q
2023-03-15 22:10:33:352,0,-1.61496,-3.1764,-31.174,Q,Q
2023-03-15 22:10:33:362,0,-1.62279,-3.17681,-31.2084,Q,Q
2023-03-15 22:10:33:372,0,-1.62473,-3.17292,-31.2417,Q,Q
2023-03-15 22:10:33:382,0,-1.62583,-3.16369,-31.2676,Q,Q
2023-03-15 22:10:33:392,0,-1.62561,-3.15475,-31.2844,Q,Q
2023-03-15 22:10:33:402,0,-1.62311,-3.14819,-31.2989,Q,Q
2023-03-15 22:10:33:412,0,-1.61729,-3.14049,-31.3071,Q,Q
2023-03-15 22:10:33:422,0,-1.61042,-3.13615,-31.3054,Q,Q
2023-03-15 22:10:33:432,0,-1.60652,-3.12955,-31.3001,Q,Q
2023-03-15 22:10:33:442,0,-1.60225,-3.1232,-31.2898,Q,Q
2023-03-15 22:10:33:452,0,-1.59841,-3.1166,-31.2758,Q,Q
2023-03-15 22:10:33:462,0,-1.59556,-3.10968,-31.2598,Q,Q
2023-03-15 22:10:33:472,0,-1.59058,-3.10777,-31.2443,Q,Q
2023-03-15 22:10:33:482,0,-1.58824,-3.1063,-31.2287,Q,Q
2023-03-15 22:10:33:492,0,-1.58602,-3.10764,-31.219,Q,Q
2023-03-15 22:10:33:502,0,-1.5803,-3.1125,-31.2074,Q,Q
2023-03-15 22:10:33:512,0,-1.58115,-3.11564,-31.1961,Q,Q
2023-03-15 22:10:33:522,0,-1.57742,-3.12049,-31.1882,Q,Q
2023-03-15 22:10:33:532,0,-1.57764,-3.12894,-31.1832,Q,Q
2023-03-15 22:10:33:542,0,-1.57314,-3.13228,-31.1798,Q,Q
2023-03-15 22:10:33:552,0,-1.56433,-3.13703,-31.1771,Q,Q
2023-03-15 22:10:33:562,0,-1.55816,-3.1425,-31.1748,Q,Q
2023-03-15 22:10:33:572,0,-1.5497,-3.14746,-31.1726,Q,Q
2023-03-15 22:10:33:582,0,-1.54294,-3.15033,-31.1686,Q,Q
2023-03-15 22:10:33:592,0,-1.53477,-3.15129,-31.1664,Q,Q
2023-03-15 22:10:33:602,0,-1.52864,-3.15082,-31.1676,Q,Q
2023-03-15 22:10:33:612,0,-1.5253,-3.15082,-31.1632,Q,Q
2023-03-15 22:10:33:622,0,-1.52143,-3.14674,-31.1596,Q,Q
2023-03-15 22:10:33:632,0,-1.52087,-3.14429,-31.1561,Q,Q
2023-03-15 22:10:33:642,0,-1.52063,-3.13687,-31.1551,Q,Q
2023-03-15 22:10:33:652,0,-1.52206,-3.13394,-31.1524,Q,Q
2023-03-15 22:10:33:662,0,-1.52215,-3.1254,-31.1506,Q,Q
2023-03-15 22:10:33:672,0,-1.5256,-3.11568,-31.1523,Q,Q
2023-03-15 22:10:33:682,0,-1.52932,-3.10987,-31.1556,Q,Q
2023-03-15 22:10:33:692,0,-1.53617,-3.10284,-31.1556,Q,Q
2023-03-15 22:10:33:702,0,-1.54192,-3.09374,-31.1589,Q,Q
2023-03-15 22:10:33:712,0,-1.55213,-3.08579,-31.1619,Q,Q
2023-03-15 22:10:33:722,0,-1.56125,-3.0805,-31.1687,Q,Q
2023-03-15 22:10:33:732,0,-1.57349,-3.07565,-31.1748,Q,Q
2023-03-15 22:10:33:742,0,-1.58964,-3.06732,-31.1805,Q,Q
2023-03-15 22:10:33:752,0,-1.60397,-3.05937,-31.1851,Q,Q
2023-03-15 22:10:33:762,0,-1.61319,-3.05347,-31.1896,Q,Q
2023-03-15 22:10:33:772,0,-1.62107,-3.04534,-31.1948,Q,Q
2023-03-15 22:10:33:782,0,-1.62729,-3.03679,-31.2007,Q,Q
2023-03-15 22:10:33:792,0,-1.63296,-3.0363,-31.2017,Q,Q
2023-03-15 22:10:33:802,0,-1.63841,-3.03385,-31.2028,Q,Q
2023-03-15 22:10:33:812,0,-1.6428,-3.0281,-31.2047,Q,Q
2023-03-15 22:10:33:822,0,-1.64582,-3.01795,-31.208,Q,Q
2023-03-15 22:10:33:832,0,-1.64099,-3.00954,-31.2144,Q,Q
2023-03-15 22:10:33:842,0,-1.6394,-3.00433,-31.215,Q,Q
2023-03-15 22:10:33:852,0,-1.63769,-2.99957,-31.2182,Q,Q
2023-03-15 22:10:33:862,0,-1.63583,-2.99928,-31.2208,Q,Q
2023-03-15 22:10:33:872,0,-1.63545,-3.00017,-31.227,Q,Q
2023-03-15 22:10:33:882,0,-1.64325,-3.00198,-31.2334,Q,Q
2023-03-15 22:10:33:892,0,-1.65626,-2.99809,-31.2412,Q,Q
2023-03-15 22:10:33:902,0,-1.67259,-2.9932,-31.2531,Q,Q
2023-03-15 22:10:33:912,0,-1.68867,-2.98506,-31.2638,Q,Q
2023-03-15 22:10:33:922,0,-1.71052,-2.97989,-31.2714,Q,Q
2023-03-15 22:10:33:932,0,-1.73284,-2.975,-31.2777,Q,Q
2023-03-15 22:10:33:942,0,-1.74992,-2.96824,-31.2876,Q,Q
2023-03-15 22:10:33:952,0,-1.76569,-2.96303,-31.2945,Q,Q
2023-03-15 22:10:33:962,0,-1.78285,-2.95845,-31.2991,Q,Q
2023-03-15 22:10:33:972,0,-1.79833,-2.95571,-31.3075,Q,Q
2023-03-15 22:10:33:982,0,-1.8049,-2.95104,-31.3163,Q,Q
2023-03-15 22:10:33:992,0,-1.8087,-2.94237,-31.3245,Q,Q
2023-03-15 22:10:34:2,0,-1.80923,-2.93107,-31.3307,Q,Q
2023-03-15 22:10:34:12,0,-1.80909,-2.92513,-31.3359,Q,Q
2023-03-15 22:10:34:22,0,-1.80368,-2.91768,-31.342,Q,Q
2023-03-15 22:10:34:32,0,-1.79565,-2.91276,-31.3497,Q,Q
2023-03-15 22:10:34:42,0,-1.79107,-2.90571,-31.3575,Q,Q
2023-03-15 22:10:34:52,0,-1.78446,-2.8958,-31.3684,Q,Q
2023-03-15 22:10:34:62,0,-1.77577,-2.88966,-31.3755,Q,Q
2023-03-15 22:10:34:72,0,-1.76506,-2.88489,-31.3819,Q,Q
2023-03-15 22:10:34:82,0,-1.75835,-2.88376,-31.3918,Q,Q
2023-03-15 22:10:34:92,0,-1.74689,-2.88241,-31.3982,Q,Q
2023-03-15 22:10:34:102,0,-1.73836,-2.88126,-31.3985,Q,Q
2023-03-15 22:10:34:112,0,-1.73416,-2.87957,-31.3981,Q,Q
2023-03-15 22:10:34:122,0,-1.72741,-2.8824,-31.396,Q,Q
2023-03-15 22:10:34:132,0,-1.72478,-2.88152,-31.3945,Q,Q
2023-03-15 22:10:34:142,0,-1.72322,-2.87906,-31.3898,Q,Q
2023-03-15 22:10:34:152,0,-1.71797,-2.88011,-31.386,Q,Q
2023-03-15 22:10:34:162,0,-1.71733,-2.88264,-31.3805,Q,Q
2023-03-15 22:10:34:172,0,-1.71921,-2.88314,-31.3769,Q,Q
2023-03-15 22:10:34:182,0,-1.72103,-2.8819,-31.3682,Q,Q
2023-03-15 22:10:34:192,0,-1.72283,-2.88056,-31.3593,Q,Q
2023-03-15 22:10:34:202,0,-1.72151,-2.87942,-31.352,Q,Q
2023-03-15 22:10:34:212,0,-1.7203,-2.8815,-31.3483,Q,Q
2023-03-15 22:10:34:222,0,-1.72259,-2.88177,-31.3466,Q,Q
2023-03-15 22:10:34:232,0,-1.72392,-2.88759,-31.3455,Q,Q
2023-03-15 22:10:34:242,0,-1.72032,-2.89049,-31.3443,Q,Q
2023-03-15 22:10:34:252,0,-1.7167,-2.89354,-31.3457,Q,Q
2023-03-15 22:10:34:262,0,-1.71455,-2.89879,-31.3522,Q,Q
2023-03-15 22:10:34:272,0,-1.71189,-2.90659,-31.3552,Q,Q
2023-03-15 22:10:34:282,0,-1.70896,-2.90927,-31.3597,Q,Q
2023-03-15 22:10:34:292,0,-1.7068,-2.91195,-31.3622,Q,Q
2023-03-15 22:10:34:302,0,-1.70289,-2.91575,-31.3653,Q,Q
2023-03-15 22:10:34:312,0,-1.70215,-2.91843,-31.3652,Q,Q
2023-03-15 22:10:34:322,0,-1.70386,-2.91705,-31.3651,Q,Q
2023-03-15 22:10:34:332,0,-1.70424,-2.91625,-31.3677,Q,Q
2023-03-15 22:10:34:342,0,-1.70455,-2.91248,-31.3697,Q,Q
2023-03-15 22:10:34:352,0,-1.70745,-2.91176,-31.3715,Q,Q
2023-03-15 22:10:34:362,0,-1.71311,-2.90925,-31.3716,Q,Q
2023-03-15 22:10:34:372,0,-1.71979,-2.90469,-31.372,Q,Q
2023-03-15 22:10:34:382,0,-1.72734,-2.90489,-31.3755,Q,Q
2023-03-15 22:10:34:392,0,-1.73435,-2.90396,-31.3836,Q,Q
2023-03-15 22:10:34:402,0,-1.74205,-2.9025,-31.3922,Q,Q
2023-03-15 22:10:34:412,0,-1.74693,-2.90498,-31.3979,Q,Q
2023-03-15 22:10:34:422,0,-1.74776,-2.90698,-31.4077,Q,Q
2023-03-15 22:10:34:432,0,-1.74671,-2.91001,-31.4219,Q,Q
2023-03-15 22:10:34:442,0,-1.74123,-2.91963,-31.4375,Q,Q
2023-03-15 22:10:34:452,0,-1.73881,-2.92682,-31.4559,Q,Q
2023-03-15 22:10:34:462,0,-1.7375,-2.93384,-31.4775,Q,Q
2023-03-15 22:10:34:472,0,-1.73838,-2.94436,-31.5052,Q,Q
2023-03-15 22:10:34:482,0,-1.73733,-2.95375,-31.535,Q,Q
2023-03-15 22:10:34:492,0,-1.73387,-2.96053,-31.5644,Q,Q
2023-03-15 22:10:34:502,0,-1.72967,-2.96614,-31.5929,Q,Q
2023-03-15 22:10:34:512,0,-1.72263,-2.96819,-31.6152,Q,Q
2023-03-15 22:10:34:522,0,-1.71154,-2.9641,-31.6338,Q,Q
2023-03-15 22:10:34:532,0,-1.70137,-2.95356,-31.6409,Q,Q
2023-03-15 22:10:34:542,0,-1.69051,-2.93943,-31.646,Q,Q
2023-03-15 22:10:34:552,0,-1.67665,-2.92171,-31.6482,Q,Q
2023-03-15 22:10:34:562,0,-1.66469,-2.91117,-31.6451,Q,Q
2023-03-15 22:10:34:572,0,-1.65953,-2.90385,-31.6427,Q,Q
2023-03-15 22:10:34:582,0,-1.65194,-2.90661,-31.6396,Q,Q
2023-03-15 22:10:34:592,0,-1.64986,-2.91003,-31.6354,Q,Q
2023-03-15 22:10:34:602,0,-1.65477,-2.91533,-31.634,Q,Q
2023-03-15 22:10:34:612,0,-1.66113,-2.91712,-31.6355,Q,Q
2023-03-15 22:10:34:622,0,-1.67232,-2.91947,-31.6371,Q,Q
2023-03-15 22:10:34:632,0,-1.6873,-2.92173,-31.6411,Q,Q
2023-03-15 22:10:34:642,0,-1.70508,-2.92475,-31.6463,Q,Q
2023-03-15 22:10:34:652,0,-1.72665,-2.9313,-31.6463,Q,Q
2023-03-15 22:10:34:662,0,-1.7476,-2.93762,-31.6476,Q,Q
2023-03-15 22:10:34:672,0,-1.76892,-2.94293,-31.6499,Q,Q
2023-03-15 22:10:34:682,0,-1.78955,-2.94374,-31.6493,Q,Q
2023-03-15 22:10:34:692,0,-1.80615,-2.94219,-31.6512,Q,Q
2023-03-15 22:10:34:702,0,-1.82058,-2.93685,-31.6527,Q,Q
2023-03-15 22:10:34:712,0,-1.8315,-2.92901,-31.6556,Q,Q
2023-03-15 22:10:34:722,0,-1.84223,-2.92436,-31.6593,Q,Q
2023-03-15 22:10:34:732,0,-1.8497,-2.92088,-31.665,Q,Q
2023-03-15 22:10:34:742,0,-1.85528,-2.91813,-31.6688,Q,Q
2023-03-15 22:10:34:752,0,-1.86098,-2.91657,-31.6772,Q,Q
2023-03-15 22:10:34:762,0,-1.86284,-2.91666,-31.6807,Q,Q
2023-03-15 22:10:34:772,0,-1.86694,-2.91491,-31.6883,Q,Q
2023-03-15 22:10:34:782,0,-1.86833,-2.91641,-31.6956,Q,Q
2023-03-15 22:10:34:792,0,-1.86594,-2.91344,-31.7054,Q,Q
2023-03-15 22:10:34:802,0,-1.86467,-2.90962,-31.715,Q,Q
2023-03-15 22:10:34:812,0,-1.86224,-2.90754,-31.7213,Q,Q
2023-03-15 22:10:34:822,0,-1.85837,-2.90548,-31.7264,Q,Q
2023-03-15 22:10:34:832,0,-1.8501,-2.90169,-31.7287,Q,Q
2023-03-15 22:10:34:842,0,-1.84224,-2.89862,-31.7359,Q,Q
2023-03-15 22:10:34:852,0,-1.83882,-2.89197,-31.736,Q,Q
2023-03-15 22:10:34:862,0,-1.83445,-2.88632,-31.7379,Q,Q
2023-03-15 22:10:34:872,0,-1.83231,-2.87824,-31.7406,Q,Q
2023-03-15 22:10:34:882,0,-1.8337,-2.86885,-31.7478,Q,Q
2023-03-15 22:10:34:892,0,-1.83428,-2.86065,-31.7536,Q,Q
2023-03-15 22:10:34:902,0,-1.8362,-2.85403,-31.7616,Q,Q
2023-03-15 22:10:34:912,0,-1.83736,-2.8432,-31.771,Q,Q
2023-03-15 22:10:34:922,0,-1.83585,-2.83124,-31.777,Q,Q
2023-03-15 22:10:34:932,0,-1.83207,-2.82118,-31.788,Q,Q
2023-03-15 22:10:34:942,0,-1.82793,-2.8122,-31.798,Q,Q
2023-03-15 22:10:34:952,0,-1.82444,-2.7977,-31.8091,Q,Q
2023-03-15 22:10:34:962,0,-1.81708,-2.78249,-31.8198,Q,Q
2023-03-15 22:10:34:972,0,-1.80963,-2.76738,-31.8292,Q,Q
2023-03-15 22:10:34:982,0,-1.80541,-2.75445,-31.8354,Q,Q
2023-03-15 22:10:34:992,0,-1.80206,-2.7455,-31.8422,Q,Q
2023-03-15 22:10:35:2,0,-1.7984,-2.73166,-31.847,Q,Q
2023-03-15 22:10:35:12,0,-1.79891,-2.72404,-31.8465,Q,Q
2023-03-15 22:10:35:22,0,-1.80196,-2.71629,-31.8457,Q,Q
2023-03-15 22:10:35:32,0,-1.80118,-2.70624,-31.8425,Q,Q
2023-03-15 22:10:35:42,0,-1.80436,-2.69951,-31.8368,Q,Q
2023-03-15 22:10:35:52,0,-1.80539,-2.69182,-31.8274,Q,Q
2023-03-15 22:10:35:62,0,-1.81162,-2.68267,-31.82,Q,Q
2023-03-15 22:10:35:72,0,-1.82166,-2.67668,-31.8091,Q,Q
2023-03-15 22:10:35:82,0,-1.83086,-2.67133,-31.7993,Q,Q
2023-03-15 22:10:35:92,0,-1.84064,-2.66854,-31.7866,Q,Q
2023-03-15 22:10:35:102,0,-1.85565,-2.66802,-31.7764,Q,Q
2023-03-15 22:10:35:112,0,-1.8718,-2.66656,-31.7651,Q,Q
2023-03-15 22:10:35:122,0,-1.88803,-2.66418,-31.757,Q,Q
2023-03-15 22:10:35:132,0,-1.90434,-2.66418,-31.7476,Q,Q
2023-03-15 22:10:35:142,0,-1.91977,-2.66362,-31.7396,Q,Q
2023-03-15 22:10:35:152,0,-1.93555,-2.66543,-31.7328,Q,Q
2023-03-15 22:10:35:162,0,-1.95137,-2.66916,-31.727,Q,Q
2023-03-15 22:10:35:172,0,-1.96684,-2.66543,-31.7234,Q,Q
2023-03-15 22:10:35:182,0,-1.97945,-2.66436,-31.7209,Q,Q
2023-03-15 22:10:35:192,0,-1.98941,-2.65663,-31.7191,Q,Q
2023-03-15 22:10:35:202,0,-1.99489,-2.65049,-31.7167,Q,Q
2023-03-15 22:10:35:212,0,-1.99821,-2.64748,-31.7184,Q,Q
2023-03-15 22:10:35:222,0,-2.00041,-2.63899,-31.7154,Q,Q
2023-03-15 22:10:35:232,0,-1.99654,-2.62966,-31.7168,Q,Q
2023-03-15 22:10:35:242,0,-1.98685,-2.62399,-31.7182,Q,Q
2023-03-15 22:10:35:252,0,-1.979,-2.61661,-31.7231,Q,Q
2023-03-15 22:10:35:262,0,-1.96932,-2.60666,-31.7289,Q,Q
2023-03-15 22:10:35:272,0,-1.95802,-2.59768,-31.7319,Q,Q
2023-03-15 22:10:35:282,0,-1.94477,-2.59632,-31.735,Q,Q
2023-03-15 22:10:35:292,0,-1.93284,-2.59824,-31.7372,Q,Q
2023-03-15 22:10:35:302,0,-1.92455,-2.59646,-31.7372,Q,Q
2023-03-15 22:10:35:312,0,-1.91672,-2.59586,-31.7396,Q,Q
2023-03-15 22:10:35:322,0,-1.91703,-2.59499,-31.7417,Q,Q
2023-03-15 22:10:35:332,0,-1.92265,-2.59214,-31.7483,Q,Q
2023-03-15 22:10:35:342,0,-1.9313,-2.58732,-31.7532,Q,Q
2023-03-15 22:10:35:352,0,-1.94028,-2.58325,-31.7568,Q,Q
2023-03-15 22:10:35:362,0,-1.94944,-2.58039,-31.7622,Q,Q
2023-03-15 22:10:35:372,0,-1.95749,-2.57772,-31.7633,Q,Q
2023-03-15 22:10:35:382,0,-1.96502,-2.57429,-31.7654,Q,Q
2023-03-15 22:10:35:392,0,-1.9678,-2.57316,-31.7683,Q,Q
2023-03-15 22:10:35:402,0,-1.96806,-2.5694,-31.7737,Q,Q
2023-03-15 22:10:35:412,0,-1.96783,-2.56755,-31.7764,Q,Q
2023-03-15 22:10:35:422,0,-1.96419,-2.56035,-31.7809,Q,Q
2023-03-15 22:10:35:432,0,-1.95449,-2.55426,-31.7837,Q,Q
2023-03-15 22:10:35:442,0,-1.94335,-2.54999,-31.7919,Q,Q
2023-03-15 22:10:35:452,0,-1.93069,-2.54326,-31.7992,Q,Q
2023-03-15 22:10:35:462,0,-1.9172,-2.53643,-31.8076,Q,Q
2023-03-15 22:10:35:472,0,-1.90078,-2.53081,-31.8205,Q,Q
2023-03-15 22:10:35:482,0,-1.88632,-2.53005,-31.8313,Q,Q
2023-03-15 22:10:35:492,0,-1.87049,-2.52727,-31.8446,Q,Q
2023-03-15 22:10:35:502,0,-1.85643,-2.52604,-31.856,Q,Q
2023-03-15 22:10:35:512,0,-1.84382,-2.52524,-31.867,Q,Q
2023-03-15 22:10:35:522,0,-1.82858,-2.52468,-31.876,Q,Q
2023-03-15 22:10:35:532,0,-1.81618,-2.53198,-31.878,Q,Q
2023-03-15 22:10:35:542,0,-1.80503,-2.53584,-31.88,Q,Q
2023-03-15 22:10:35:552,0,-1.79878,-2.54121,-31.8779,Q,Q
2023-03-15 22:10:35:562,0,-1.79336,-2.54555,-31.874,Q,Q
2023-03-15 22:10:35:572,0,-1.78831,-2.54747,-31.8709,Q,Q
2023-03-15 22:10:35:582,0,-1.78287,-2.54902,-31.8621,Q,Q
2023-03-15 22:10:35:592,0,-1.77899,-2.55133,-31.8549,Q,Q
2023-03-15 22:10:35:602,0,-1.77369,-2.55896,-31.8467,Q,Q
2023-03-15 22:10:35:612,0,-1.77247,-2.56231,-31.8355,Q,Q
2023-03-15 22:10:35:622,0,-1.76703,-2.57032,-31.8306,Q,Q
2023-03-15 22:10:35:632,0,-1.76084,-2.57758,-31.8241,Q,Q
2023-03-15 22:10:35:642,0,-1.75354,-2.5912,-31.8185,Q,Q
2023-03-15 22:10:35:652,0,-1.74602,-2.60137,-31.8148,Q,Q
2023-03-15 22:10:35:662,0,-1.73417,-2.61398,-31.8113,Q,Q
2023-03-15 22:10:35:672,0,-1.71989,-2.62853,-31.8096,Q,Q
2023-03-15 22:10:35:682,0,-1.70675,-2.64464,-31.8116,Q,Q
2023-03-15 22:10:35:692,0,-1.6903,-2.66026,-31.8095,Q,Q
2023-03-15 22:10:35:702,0,-1.6753,-2.67424,-31.8079,Q,Q
2023-03-15 22:10:35:712,0,-1.65541,-2.69338,-31.8008,Q,Q
2023-03-15 22:10:35:722,0,-1.64183,-2.70705,-31.7934,Q,Q
2023-03-15 22:10:35:732,0,-1.62591,-2.72152,-31.79,Q,Q
2023-03-15 22:10:35:742,0,-1.61229,-2.73311,-31.7838,Q,Q
2023-03-15 22:10:35:752,0,-1.60382,-2.74472,-31.777,Q,Q
2023-03-15 22:10:35:762,0,-1.59514,-2.75462,-31.7726,Q,Q
2023-03-15 22:10:35:772,0,-1.58849,-2.76542,-31.766,Q,Q
2023-03-15 22:10:35:782,0,-1.58355,-2.77579,-31.7629,Q,Q
2023-03-15 22:10:35:792,0,-1.58394,-2.78501,-31.758,Q,Q
2023-03-15 22:10:35:802,0,-1.59021,-2.79438,-31.7589,Q,Q
2023-03-15 22:10:35:812,0,-1.59186,-2.80436,-31.7651,Q,Q
2023-03-15 22:10:35:822,0,-1.59184,-2.81802,-31.7728,Q,Q
2023-03-15 22:10:35:832,0,-1.59166,-2.8267,-31.789,Q,Q
2023-03-15 22:10:35:842,0,-1.58816,-2.83359,-31.808,Q,Q
2023-03-15 22:10:35:852,0,-1.57804,-2.8423,-31.8268,Q,Q
2023-03-15 22:10:35:862,0,-1.56556,-2.85308,-31.8436,Q,Q
2023-03-15 22:10:35:872,0,-1.55465,-2.86306,-31.8606,Q,Q
2023-03-15 22:10:35:882,0,-1.5418,-2.87688,-31.8737,Q,Q
2023-03-15 22:10:35:892,0,-1.52586,-2.88987,-31.8866,Q,Q
2023-03-15 22:10:35:902,0,-1.51001,-2.90636,-31.8941,Q,Q
2023-03-15 22:10:35:912,0,-1.49456,-2.91856,-31.8984,Q,Q
2023-03-15 22:10:35:922,0,-1.47893,-2.93052,-31.8979,Q,Q
2023-03-15 22:10:35:932,0,-1.46736,-2.94383,-31.8939,Q,Q
2023-03-15 22:10:35:942,0,-1.45179,-2.96158,-31.8869,Q,Q
2023-03-15 22:10:35:952,0,-1.43914,-2.97452,-31.8774,Q,Q
2023-03-15 22:10:35:962,0,-1.42665,-2.98722,-31.8672,Q,Q
2023-03-15 22:10:35:972,0,-1.41385,-3.00431,-31.854,Q,Q
2023-03-15 22:10:35:982,0,-1.40207,-3.02021,-31.8403,Q,Q
2023-03-15 22:10:35:992,0,-1.39569,-3.03181,-31.8313,Q,Q
2023-03-15 22:10:36:2,0,-1.3886,-3.04064,-31.8203,Q,Q
2023-03-15 22:10:36:12,0,-1.38215,-3.04682,-31.8121,Q,Q
2023-03-15 22:10:36:22,0,-1.37273,-3.05697,-31.8051,Q,Q
2023-03-15 22:10:36:32,0,-1.36496,-3.06814,-31.8018,Q,Q
2023-03-15 22:10:36:42,0,-1.35903,-3.08429,-31.7954,Q,Q
2023-03-15 22:10:36:52,0,-1.35817,-3.10538,-31.7929,Q,Q
2023-03-15 22:10:36:62,0,-1.35704,-3.12639,-31.7905,Q,Q
2023-03-15 22:10:36:72,0,-1.36529,-3.14939,-31.7879,Q,Q
2023-03-15 22:10:36:82,0,-1.37758,-3.16688,-31.7873,Q,Q
2023-03-15 22:10:36:92,0,-1.39503,-3.18338,-31.7859,Q,Q
2023-03-15 22:10:36:102,0,-1.41692,-3.19598,-31.779,Q,Q
2023-03-15 22:10:36:112,0,-1.43757,-3.20886,-31.7725,Q,Q
2023-03-15 22:10:36:122,0,-1.45556,-3.22335,-31.7664,Q,Q
2023-03-15 22:10:36:132,0,-1.474,-3.23849,-31.7568,Q,Q
2023-03-15 22:10:36:142,0,-1.48778,-3.25361,-31.7511,Q,Q
2023-03-15 22:10:36:152,0,-1.49922,-3.26369,-31.7453,Q,Q
2023-03-15 22:10:36:162,0,-1.506,-3.26966,-31.739,Q,Q
2023-03-15 22:10:36:172,0,-1.51006,-3.27302,-31.7355,Q,Q
2023-03-15 22:10:36:182,0,-1.50936,-3.27317,-31.7417,Q,Q
2023-03-15 22:10:36:192,0,-1.5016,-3.2703,-31.7445,Q,Q
2023-03-15 22:10:36:202,0,-1.49574,-3.267,-31.7495,Q,Q
2023-03-15 22:10:36:212,0,-1.48721,-3.2609,-31.7529,Q,Q
2023-03-15 22:10:36:222,0,-1.47686,-3.25813,-31.7555,Q,Q
2023-03-15 22:10:36:232,0,-1.47164,-3.25905,-31.7585,Q,Q
2023-03-15 22:10:36:242,0,-1.46276,-3.25843,-31.7626,Q,Q
2023-03-15 22:10:36:252,0,-1.4512,-3.25868,-31.7659,Q,Q
2023-03-15 22:10:36:262,0,-1.44434,-3.26513,-31.7703,Q,Q
2023-03-15 22:10:36:272,0,-1.44002,-3.27492,-31.7759,Q,Q
2023-03-15 22:10:36:282,0,-1.43903,-3.28445,-31.78,Q,Q
