Timestamp_cmd,imu_cmd,roll_delta,pitch_delta,yaw_delta
2023-03-11 20:58:13:527,0,-6.99295,-6.86228,91.6675
2023-03-11 20:58:13:536,0,-6.99738,-6.85486,91.6721
2023-03-11 20:58:13:546,0,-7.00042,-6.85318,91.6754
2023-03-11 20:58:13:556,0,-6.9995,-6.85213,91.6746
2023-03-11 20:58:13:566,0,-6.995,-6.85029,91.6724
2023-03-11 20:58:13:576,0,-6.98855,-6.85292,91.6725
2023-03-11 20:58:13:586,0,-6.97565,-6.85833,91.672
2023-03-11 20:58:13:596,0,-6.96034,-6.86871,91.6731
2023-03-11 20:58:13:606,0,-6.94399,-6.87787,91.6773
2023-03-11 20:58:13:616,0,-6.92414,-6.8867,91.6816
2023-03-11 20:58:13:626,0,-6.90592,-6.89997,91.6891
2023-03-11 20:58:13:636,0,-6.88274,-6.91216,91.6993
2023-03-11 20:58:13:646,0,-6.85667,-6.91648,91.7054
2023-03-11 20:58:13:656,0,-6.83357,-6.91841,91.711
2023-03-11 20:58:13:666,0,-6.81119,-6.91794,91.7153
2023-03-11 20:58:13:676,0,-6.78276,-6.91206,91.7189
2023-03-11 20:58:13:686,0,-6.75705,-6.89921,91.7163
2023-03-11 20:58:13:696,0,-6.7356,-6.88232,91.7069
2023-03-11 20:58:13:706,0,-6.72434,-6.86594,91.7011
2023-03-11 20:58:13:716,0,-6.71719,-6.84875,91.6934
2023-03-11 20:58:13:726,0,-6.71467,-6.83202,91.6869
2023-03-11 20:58:13:736,0,-6.7177,-6.82488,91.6807
2023-03-11 20:58:13:746,0,-6.72193,-6.8235,91.6797
2023-03-11 20:58:13:756,0,-6.72339,-6.82718,91.6832
2023-03-11 20:58:13:766,0,-6.72126,-6.82664,91.6871
2023-03-11 20:58:13:776,0,-6.71333,-6.82717,91.6902
2023-03-11 20:58:13:786,0,-6.70988,-6.82532,91.6921
2023-03-11 20:58:13:796,0,-6.70616,-6.8208,91.6948
2023-03-11 20:58:13:806,0,-6.70331,-6.81748,91.6994
2023-03-11 20:58:13:816,0,-6.70478,-6.8146,91.707
2023-03-11 20:58:13:826,0,-6.70184,-6.81454,91.7129
2023-03-11 20:58:13:836,0,-6.70156,-6.8126,91.7172
2023-03-11 20:58:13:846,0,-6.70885,-6.81086,91.7236
2023-03-11 20:58:13:856,0,-6.72246,-6.81485,91.7293
2023-03-11 20:58:13:866,0,-6.74095,-6.81778,91.7371
2023-03-11 20:58:13:876,0,-6.75847,-6.82022,91.7421
2023-03-11 20:58:13:886,0,-6.77888,-6.81853,91.7441
2023-03-11 20:58:13:896,0,-6.79581,-6.81643,91.7469
2023-03-11 20:58:13:905,0,-6.81186,-6.8151,91.7468
2023-03-11 20:58:13:915,0,-6.82576,-6.8135,91.7491
2023-03-11 20:58:13:925,0,-6.83509,-6.8106,91.7488
2023-03-11 20:58:13:935,0,-6.84256,-6.80503,91.7472
2023-03-11 20:58:13:945,0,-6.8429,-6.79659,91.7427
2023-03-11 20:58:13:956,0,-6.83409,-6.78308,91.7357
2023-03-11 20:58:13:966,0,-6.81773,-6.77,91.7272
2023-03-11 20:58:13:976,0,-6.79717,-6.7571,91.7231
2023-03-11 20:58:13:986,0,-6.77781,-6.74629,91.72
2023-03-11 20:58:13:996,0,-6.75928,-6.74082,91.7186
2023-03-11 20:58:14:6,0,-6.74349,-6.73764,91.7172
2023-03-11 20:58:14:16,0,-6.73108,-6.73718,91.7194
2023-03-11 20:58:14:26,0,-6.72151,-6.73613,91.7205
2023-03-11 20:58:14:36,0,-6.71521,-6.73648,91.7245
2023-03-11 20:58:14:46,0,-6.70763,-6.73672,91.7294
2023-03-11 20:58:14:56,0,-6.70655,-6.74253,91.7348
2023-03-11 20:58:14:66,0,-6.70438,-6.74556,91.7391
2023-03-11 20:58:14:76,0,-6.70785,-6.75155,91.7452
2023-03-11 20:58:14:86,0,-6.718,-6.75502,91.7538
2023-03-11 20:58:14:96,0,-6.72452,-6.75843,91.7626
2023-03-11 20:58:14:106,0,-6.73071,-6.76781,91.7767
2023-03-11 20:58:14:116,0,-6.73528,-6.77871,91.7888
2023-03-11 20:58:14:126,0,-6.73918,-6.79279,91.8
2023-03-11 20:58:14:136,0,-6.73764,-6.7996,91.8118
2023-03-11 20:58:14:146,0,-6.74027,-6.81002,91.8252
2023-03-11 20:58:14:156,0,-6.74146,-6.82041,91.8402
2023-03-11 20:58:14:166,0,-6.74186,-6.83321,91.8548
2023-03-11 20:58:14:176,0,-6.73746,-6.8443,91.867
2023-03-11 20:58:14:186,0,-6.73395,-6.85262,91.8791
2023-03-11 20:58:14:196,0,-6.73029,-6.85788,91.8913
2023-03-11 20:58:14:206,0,-6.72712,-6.86593,91.9024
2023-03-11 20:58:14:216,0,-6.72962,-6.87096,91.914
2023-03-11 20:58:14:226,0,-6.73112,-6.87474,91.9241
2023-03-11 20:58:14:236,0,-6.73196,-6.87956,91.9323
2023-03-11 20:58:14:246,0,-6.73362,-6.88474,91.9443
2023-03-11 20:58:14:256,0,-6.73585,-6.89119,91.955
2023-03-11 20:58:14:266,0,-6.73616,-6.89738,91.9633
2023-03-11 20:58:14:276,0,-6.73452,-6.90791,91.976
2023-03-11 20:58:14:286,0,-6.73565,-6.91382,91.987
2023-03-11 20:58:14:296,0,-6.73677,-6.91805,91.9936
2023-03-11 20:58:14:306,0,-6.73675,-6.92224,91.996
2023-03-11 20:58:14:316,0,-6.73331,-6.92441,91.9965
2023-03-11 20:58:14:326,0,-6.73274,-6.92818,91.9964
2023-03-11 20:58:14:336,0,-6.73341,-6.92924,91.9948
2023-03-11 20:58:14:346,0,-6.73887,-6.93001,91.9916
2023-03-11 20:58:14:356,0,-6.74972,-6.92668,91.9911
2023-03-11 20:58:14:366,0,-6.76558,-6.92267,91.9897
2023-03-11 20:58:14:376,0,-6.78105,-6.91853,91.9864
2023-03-11 20:58:14:386,0,-6.79354,-6.91433,91.9903
2023-03-11 20:58:14:396,0,-6.80626,-6.91363,91.995
2023-03-11 20:58:14:406,0,-6.81386,-6.91782,91.9995
2023-03-11 20:58:14:416,0,-6.82205,-6.91621,92.0043
2023-03-11 20:58:14:426,0,-6.82962,-6.91306,92.0066
2023-03-11 20:58:14:436,0,-6.83168,-6.91165,92.0081
2023-03-11 20:58:14:446,0,-6.83351,-6.91106,92.0064
2023-03-11 20:58:14:456,0,-6.84391,-6.91518,92.0088
2023-03-11 20:58:14:466,0,-6.85015,-6.91556,92.0095
2023-03-11 20:58:14:476,0,-6.85558,-6.91801,92.007
2023-03-11 20:58:14:486,0,-6.86733,-6.91605,92.0052
2023-03-11 20:58:14:496,0,-6.87935,-6.9169,92.0034
2023-03-11 20:58:14:506,0,-6.88671,-6.92094,92.0018
2023-03-11 20:58:14:516,0,-6.88853,-6.92499,92.0026
2023-03-11 20:58:14:526,0,-6.88507,-6.93906,92.0062
2023-03-11 20:58:14:536,0,-6.87874,-6.95495,92.0161
2023-03-11 20:58:14:546,0,-6.8706,-6.97053,92.0287
2023-03-11 20:58:14:556,0,-6.8625,-6.98397,92.0486
2023-03-11 20:58:14:566,0,-6.84862,-6.99791,92.0672
2023-03-11 20:58:14:576,0,-6.83754,-7.00485,92.0851
2023-03-11 20:58:14:586,0,-6.83251,-7.00938,92.1064
2023-03-11 20:58:14:596,0,-6.82952,-7.01739,92.1275
2023-03-11 20:58:14:606,0,-6.82696,-7.01605,92.1486
2023-03-11 20:58:14:616,0,-6.82854,-7.01168,92.1707
2023-03-11 20:58:14:626,0,-6.83304,-7.00234,92.1902
2023-03-11 20:58:14:636,0,-6.83925,-6.99212,92.2111
2023-03-11 20:58:14:646,0,-6.84772,-6.98142,92.2387
2023-03-11 20:58:14:656,0,-6.85495,-6.97746,92.2662
2023-03-11 20:58:14:666,0,-6.8651,-6.97424,92.2949
2023-03-11 20:58:14:676,0,-6.87037,-6.97222,92.3178
2023-03-11 20:58:14:686,0,-6.87186,-6.96391,92.3306
2023-03-11 20:58:14:696,0,-6.8752,-6.95713,92.3362
2023-03-11 20:58:14:706,0,-6.8837,-6.94994,92.3321
2023-03-11 20:58:14:716,0,-6.89537,-6.94355,92.3214
2023-03-11 20:58:14:726,0,-6.92126,-6.9357,92.3041
2023-03-11 20:58:14:736,0,-6.94867,-6.92731,92.2816
2023-03-11 20:58:14:746,0,-6.97986,-6.9169,92.2585
2023-03-11 20:58:14:756,0,-7.00905,-6.90846,92.2331
2023-03-11 20:58:14:766,0,-7.03918,-6.90629,92.2095
2023-03-11 20:58:14:776,0,-7.06385,-6.90648,92.1906
2023-03-11 20:58:14:786,0,-7.09101,-6.9097,92.1769
2023-03-11 20:58:14:796,0,-7.1096,-6.91602,92.1629
2023-03-11 20:58:14:806,0,-7.12191,-6.9192,92.1546
2023-03-11 20:58:14:816,0,-7.13206,-6.92276,92.1463
2023-03-11 20:58:14:826,0,-7.13332,-6.92216,92.1411
2023-03-11 20:58:14:836,0,-7.12652,-6.92889,92.1399
2023-03-11 20:58:14:846,0,-7.1162,-6.93884,92.1434
2023-03-11 20:58:14:856,0,-7.09871,-6.94901,92.1516
2023-03-11 20:58:14:866,0,-7.07835,-6.96342,92.1673
2023-03-11 20:58:14:876,0,-7.05247,-6.97787,92.1884
2023-03-11 20:58:14:886,0,-7.02292,-6.99954,92.2135
2023-03-11 20:58:14:896,0,-6.99395,-7.02005,92.2452
2023-03-11 20:58:14:906,0,-6.96677,-7.03579,92.2751
2023-03-11 20:58:14:916,0,-6.93444,-7.0492,92.3039
2023-03-11 20:58:14:926,0,-6.90194,-7.06485,92.3351
2023-03-11 20:58:14:936,0,-6.8707,-7.08252,92.3638
2023-03-11 20:58:14:946,0,-6.84236,-7.09234,92.3903
2023-03-11 20:58:14:956,0,-6.81602,-7.10139,92.412
2023-03-11 20:58:14:966,0,-6.78931,-7.10741,92.4288
2023-03-11 20:58:14:976,0,-6.76841,-7.10226,92.4452
2023-03-11 20:58:14:986,0,-6.74602,-7.08819,92.4547
2023-03-11 20:58:14:996,0,-6.72726,-7.07144,92.4653
2023-03-11 20:58:15:6,0,-6.71439,-7.05064,92.4743
2023-03-11 20:58:15:16,0,-6.70008,-7.03022,92.4836
2023-03-11 20:58:15:26,0,-6.67985,-7.00804,92.4894
2023-03-11 20:58:15:36,0,-6.65189,-6.98702,92.4987
2023-03-11 20:58:15:46,0,-6.62202,-6.97028,92.509
2023-03-11 20:58:15:56,0,-6.59314,-6.95616,92.5224
2023-03-11 20:58:15:66,0,-6.56365,-6.94771,92.5367
2023-03-11 20:58:15:76,0,-6.53507,-6.94179,92.556
2023-03-11 20:58:15:86,0,-6.51233,-6.94602,92.5781
2023-03-11 20:58:15:96,0,-6.50153,-6.95128,92.6051
2023-03-11 20:58:15:106,0,-6.49998,-6.95575,92.6261
2023-03-11 20:58:15:116,0,-6.49495,-6.96411,92.6468
2023-03-11 20:58:15:126,0,-6.49066,-6.97821,92.6626
2023-03-11 20:58:15:136,0,-6.49057,-6.99666,92.6813
2023-03-11 20:58:15:146,0,-6.48558,-7.01883,92.6999
2023-03-11 20:58:15:156,0,-6.47647,-7.03807,92.7264
2023-03-11 20:58:15:166,0,-6.47279,-7.06037,92.7644
2023-03-11 20:58:15:176,0,-6.46858,-7.07971,92.8095
2023-03-11 20:58:15:186,0,-6.46369,-7.10138,92.8577
2023-03-11 20:58:15:196,0,-6.45233,-7.12709,92.9051
2023-03-11 20:58:15:206,0,-6.4294,-7.14652,92.9468
2023-03-11 20:58:15:216,0,-6.39613,-7.1513,92.9715
2023-03-11 20:58:15:226,0,-6.36329,-7.14756,92.982
2023-03-11 20:58:15:236,0,-6.334,-7.11849,92.9806
2023-03-11 20:58:15:246,0,-6.31001,-7.07787,92.9713
2023-03-11 20:58:15:256,0,-6.29306,-7.02738,92.9628
2023-03-11 20:58:15:266,0,-6.28321,-6.97393,92.9632
2023-03-11 20:58:15:276,0,-6.2785,-6.9304,92.9766
2023-03-11 20:58:15:286,0,-6.27435,-6.8945,93.0035
2023-03-11 20:58:15:295,0,-6.2657,-6.87515,93.0442
2023-03-11 20:58:15:306,0,-6.26858,-6.8736,93.1045
2023-03-11 20:58:15:316,0,-6.27582,-6.8823,93.1816
2023-03-11 20:58:15:326,0,-6.29635,-6.89295,93.2662
2023-03-11 20:58:15:336,0,-6.33088,-6.90673,93.3596
2023-03-11 20:58:15:346,0,-6.37632,-6.92104,93.4565
2023-03-11 20:58:15:356,0,-6.42634,-6.93606,93.5507
2023-03-11 20:58:15:366,0,-6.47958,-6.94966,93.643
2023-03-11 20:58:15:376,0,-6.52993,-6.96791,93.7309
2023-03-11 20:58:15:386,0,-6.57615,-6.99049,93.8206
2023-03-11 20:58:15:396,0,-6.61579,-7.01635,93.9005
2023-03-11 20:58:15:406,0,-6.64069,-7.04841,93.9709
2023-03-11 20:58:15:416,0,-6.65186,-7.07502,94.0248
2023-03-11 20:58:15:426,0,-6.64783,-7.09712,94.0641
2023-03-11 20:58:15:436,0,-6.62754,-7.11808,94.0961
2023-03-11 20:58:15:446,0,-6.59936,-7.12985,94.1225
2023-03-11 20:58:15:456,0,-6.56566,-7.12757,94.1446
2023-03-11 20:58:15:466,0,-6.52873,-7.11881,94.1595
2023-03-11 20:58:15:476,0,-6.49311,-7.10801,94.1739
2023-03-11 20:58:15:486,0,-6.45243,-7.09775,94.1859
2023-03-11 20:58:15:496,0,-6.41537,-7.09478,94.1955
2023-03-11 20:58:15:506,0,-6.38661,-7.09559,94.2017
2023-03-11 20:58:15:516,0,-6.35537,-7.0929,94.2082
2023-03-11 20:58:15:526,0,-6.32159,-7.08855,94.211
2023-03-11 20:58:15:536,0,-6.28386,-7.08202,94.2014
2023-03-11 20:58:15:546,0,-6.2349,-7.07282,94.1786
2023-03-11 20:58:15:556,0,-6.1834,-7.06432,94.1443
2023-03-11 20:58:15:566,0,-6.1337,-7.05426,94.1009
2023-03-11 20:58:15:576,0,-6.09051,-7.04352,94.0525
2023-03-11 20:58:15:586,0,-6.05737,-7.03548,93.998
2023-03-11 20:58:15:596,0,-6.03449,-7.03218,93.94
2023-03-11 20:58:15:606,0,-6.02086,-7.03023,93.8831
2023-03-11 20:58:15:616,0,-6.01326,-7.02747,93.829
2023-03-11 20:58:15:626,0,-6.01146,-7.02666,93.774
2023-03-11 20:58:15:636,0,-6.01824,-7.02458,93.724
2023-03-11 20:58:15:646,0,-6.02932,-7.02044,93.6775
2023-03-11 20:58:15:656,0,-6.04635,-7.01507,93.6342
2023-03-11 20:58:15:666,0,-6.07087,-7.0065,93.5999
2023-03-11 20:58:15:676,0,-6.10131,-6.9935,93.575
2023-03-11 20:58:15:686,0,-6.13064,-6.9838,93.5575
2023-03-11 20:58:15:696,0,-6.16023,-6.98019,93.5487
2023-03-11 20:58:15:706,0,-6.1825,-6.97847,93.5442
2023-03-11 20:58:15:716,0,-6.20377,-6.98521,93.5464
2023-03-11 20:58:15:726,0,-6.21716,-6.99869,93.5521
2023-03-11 20:58:15:736,0,-6.22806,-7.01172,93.5582
2023-03-11 20:58:15:746,0,-6.2405,-7.02783,93.5632
2023-03-11 20:58:15:756,0,-6.25717,-7.04583,93.5654
2023-03-11 20:58:15:766,0,-6.27978,-7.06113,93.5654
2023-03-11 20:58:15:776,0,-6.30219,-7.07539,93.5602
2023-03-11 20:58:15:786,0,-6.32155,-7.09198,93.5484
2023-03-11 20:58:15:796,0,-6.3378,-7.10402,93.5286
2023-03-11 20:58:15:806,0,-6.3448,-7.11539,93.4957
2023-03-11 20:58:15:816,0,-6.34941,-7.12128,93.4509
2023-03-11 20:58:15:826,0,-6.35849,-7.12071,93.3965
2023-03-11 20:58:15:836,0,-6.36465,-7.11646,93.3337
2023-03-11 20:58:15:846,0,-6.37372,-7.10304,93.2661
2023-03-11 20:58:15:856,0,-6.38008,-7.08387,93.1965
2023-03-11 20:58:15:866,0,-6.38727,-7.06195,93.1298
2023-03-11 20:58:15:876,0,-6.39404,-7.03775,93.0751
2023-03-11 20:58:15:886,0,-6.40597,-7.0163,93.0309
2023-03-11 20:58:15:896,0,-6.41887,-6.99682,92.9898
2023-03-11 20:58:15:906,0,-6.43313,-6.98039,92.9578
2023-03-11 20:58:15:916,0,-6.44532,-6.95839,92.9264
2023-03-11 20:58:15:926,0,-6.45108,-6.93303,92.8897
2023-03-11 20:58:15:936,0,-6.44651,-6.90631,92.8489
2023-03-11 20:58:15:946,0,-6.43759,-6.88109,92.8031
2023-03-11 20:58:15:956,0,-6.42681,-6.85497,92.7521
2023-03-11 20:58:15:966,0,-6.41436,-6.83059,92.7021
2023-03-11 20:58:15:976,0,-6.40188,-6.80561,92.6527
2023-03-11 20:58:15:986,0,-6.39782,-6.78443,92.6107
2023-03-11 20:58:15:996,0,-6.39541,-6.76231,92.5724
2023-03-11 20:58:16:6,0,-6.38969,-6.74115,92.5392
2023-03-11 20:58:16:16,0,-6.38279,-6.71807,92.5035
2023-03-11 20:58:16:26,0,-6.37841,-6.69626,92.4688
2023-03-11 20:58:16:36,0,-6.37159,-6.67656,92.4354
2023-03-11 20:58:16:46,0,-6.36658,-6.65395,92.4049
2023-03-11 20:58:16:56,0,-6.36403,-6.64246,92.3756
2023-03-11 20:58:16:66,0,-6.36276,-6.63146,92.3508
2023-03-11 20:58:16:76,0,-6.3631,-6.61716,92.3286
2023-03-11 20:58:16:86,0,-6.36666,-6.60723,92.31
2023-03-11 20:58:16:96,0,-6.37712,-6.59375,92.2917
2023-03-11 20:58:16:106,0,-6.38839,-6.57606,92.27
2023-03-11 20:58:16:116,0,-6.40392,-6.56096,92.2503
2023-03-11 20:58:16:126,0,-6.42419,-6.54668,92.2321
2023-03-11 20:58:16:136,0,-6.44567,-6.5299,92.2131
2023-03-11 20:58:16:146,0,-6.47412,-6.51651,92.1921
2023-03-11 20:58:16:156,0,-6.50774,-6.502,92.1692
2023-03-11 20:58:16:166,0,-6.5461,-6.48922,92.1425
2023-03-11 20:58:16:176,0,-6.59009,-6.47813,92.1151
2023-03-11 20:58:16:186,0,-6.64857,-6.46984,92.0882
2023-03-11 20:58:16:196,0,-6.7102,-6.46186,92.0661
2023-03-11 20:58:16:206,0,-6.77797,-6.45699,92.0413
2023-03-11 20:58:16:216,0,-6.84966,-6.46051,92.0151
2023-03-11 20:58:16:226,0,-6.93063,-6.46491,91.9881
2023-03-11 20:58:16:236,0,-7.00737,-6.4663,91.9602
2023-03-11 20:58:16:246,0,-7.08089,-6.46706,91.9289
2023-03-11 20:58:16:256,0,-7.14311,-6.46847,91.9006
2023-03-11 20:58:16:266,0,-7.19848,-6.46795,91.8763
2023-03-11 20:58:16:276,0,-7.25162,-6.46565,91.8511
2023-03-11 20:58:16:286,0,-7.30095,-6.46766,91.826
2023-03-11 20:58:16:296,0,-7.34463,-6.47246,91.8055
2023-03-11 20:58:16:306,0,-7.3896,-6.48183,91.7876
2023-03-11 20:58:16:316,0,-7.43626,-6.49539,91.7777
2023-03-11 20:58:16:326,0,-7.48273,-6.50271,91.7724
2023-03-11 20:58:16:336,0,-7.52604,-6.50548,91.7661
2023-03-11 20:58:16:346,0,-7.56465,-6.50079,91.7617
2023-03-11 20:58:16:356,0,-7.5982,-6.48433,91.7514
2023-03-11 20:58:16:366,0,-7.62685,-6.46277,91.7336
2023-03-11 20:58:16:376,0,-7.65002,-6.43156,91.7097
2023-03-11 20:58:16:386,0,-7.66748,-6.39391,91.678
2023-03-11 20:58:16:396,0,-7.68027,-6.36007,91.64
2023-03-11 20:58:16:406,0,-7.6916,-6.32261,91.5976
2023-03-11 20:58:16:416,0,-7.70442,-6.28635,91.5514
2023-03-11 20:58:16:426,0,-7.72011,-6.25762,91.5027
2023-03-11 20:58:16:436,0,-7.73672,-6.23548,91.46
2023-03-11 20:58:16:446,0,-7.75264,-6.21556,91.4148
2023-03-11 20:58:16:456,0,-7.76854,-6.19785,91.3757
2023-03-11 20:58:16:466,0,-7.78911,-6.18756,91.3417
2023-03-11 20:58:16:476,0,-7.80333,-6.1798,91.3117
2023-03-11 20:58:16:486,0,-7.81193,-6.17506,91.2892
2023-03-11 20:58:16:496,0,-7.8216,-6.17817,91.2735
2023-03-11 20:58:16:506,0,-7.83448,-6.18281,91.265
2023-03-11 20:58:16:516,0,-7.84394,-6.18749,91.2616
2023-03-11 20:58:16:526,0,-7.85094,-6.19323,91.2642
2023-03-11 20:58:16:536,0,-7.85193,-6.19421,91.2704
2023-03-11 20:58:16:546,0,-7.85048,-6.20013,91.2814
2023-03-11 20:58:16:556,0,-7.84653,-6.20579,91.2972
2023-03-11 20:58:16:566,0,-7.84155,-6.20491,91.3194
2023-03-11 20:58:16:576,0,-7.83277,-6.20539,91.3498
2023-03-11 20:58:16:586,0,-7.82201,-6.20196,91.384
2023-03-11 20:58:16:596,0,-7.81119,-6.19767,91.4173
2023-03-11 20:58:16:606,0,-7.79402,-6.19138,91.4487
2023-03-11 20:58:16:616,0,-7.77177,-6.18637,91.478
2023-03-11 20:58:16:626,0,-7.743,-6.17944,91.5096
2023-03-11 20:58:16:636,0,-7.71499,-6.17513,91.5424
2023-03-11 20:58:16:646,0,-7.68991,-6.1808,91.5773
2023-03-11 20:58:16:656,0,-7.66543,-6.18481,91.6155
2023-03-11 20:58:16:666,0,-7.64454,-6.1958,91.657
2023-03-11 20:58:16:676,0,-7.62513,-6.20819,91.6985
2023-03-11 20:58:16:686,0,-7.60817,-6.21962,91.736
2023-03-11 20:58:16:696,0,-7.59575,-6.23186,91.7743
2023-03-11 20:58:16:706,0,-7.58391,-6.24475,91.8107
2023-03-11 20:58:16:716,0,-7.57009,-6.25708,91.8414
2023-03-11 20:58:16:726,0,-7.5514,-6.26839,91.8707
2023-03-11 20:58:16:736,0,-7.53619,-6.28134,91.9047
2023-03-11 20:58:16:746,0,-7.52006,-6.29426,91.941
2023-03-11 20:58:16:756,0,-7.50832,-6.30793,91.9743
2023-03-11 20:58:16:766,0,-7.50049,-6.32305,92.0118
2023-03-11 20:58:16:776,0,-7.50193,-6.33331,92.0532
2023-03-11 20:58:16:786,0,-7.50757,-6.35259,92.0934
2023-03-11 20:58:16:796,0,-7.51259,-6.37338,92.1336
2023-03-11 20:58:16:806,0,-7.51976,-6.39846,92.1754
2023-03-11 20:58:16:816,0,-7.52956,-6.42886,92.2214
2023-03-11 20:58:16:826,0,-7.54399,-6.45963,92.2655
2023-03-11 20:58:16:836,0,-7.56021,-6.49088,92.309
2023-03-11 20:58:16:846,0,-7.57677,-6.52286,92.352
2023-03-11 20:58:16:856,0,-7.59134,-6.55578,92.3907
2023-03-11 20:58:16:866,0,-7.60272,-6.58513,92.4324
2023-03-11 20:58:16:876,0,-7.61132,-6.62243,92.473
2023-03-11 20:58:16:886,0,-7.62522,-6.65593,92.5183
2023-03-11 20:58:16:896,0,-7.63851,-6.68805,92.5615
2023-03-11 20:58:16:906,0,-7.6514,-6.71637,92.6043
2023-03-11 20:58:16:916,0,-7.66186,-6.73877,92.6432
2023-03-11 20:58:16:926,0,-7.67135,-6.75577,92.6811
2023-03-11 20:58:16:936,0,-7.68154,-6.76647,92.7118
2023-03-11 20:58:16:946,0,-7.69337,-6.77144,92.7367
2023-03-11 20:58:16:956,0,-7.70377,-6.77124,92.7622
2023-03-11 20:58:16:966,0,-7.71697,-6.7668,92.7826
2023-03-11 20:58:16:976,0,-7.73046,-6.76275,92.8106
2023-03-11 20:58:16:986,0,-7.74452,-6.75987,92.8435
2023-03-11 20:58:16:996,0,-7.75768,-6.75985,92.8824
2023-03-11 20:58:17:6,0,-7.77293,-6.7572,92.923
2023-03-11 20:58:17:16,0,-7.7781,-6.75275,92.9654
2023-03-11 20:58:17:26,0,-7.77808,-6.74439,93.0093
2023-03-11 20:58:17:36,0,-7.77184,-6.7357,93.0497
2023-03-11 20:58:17:46,0,-7.75967,-6.73004,93.0945
2023-03-11 20:58:17:56,0,-7.73696,-6.72466,93.1402
2023-03-11 20:58:17:66,0,-7.71304,-6.71906,93.1865
2023-03-11 20:58:17:76,0,-7.68485,-6.71088,93.23
2023-03-11 20:58:17:86,0,-7.65231,-6.69914,93.2763
2023-03-11 20:58:17:96,0,-7.62356,-6.69292,93.3181
2023-03-11 20:58:17:106,0,-7.59553,-6.68516,93.3528
2023-03-11 20:58:17:116,0,-7.5718,-6.67988,93.3849
2023-03-11 20:58:17:126,0,-7.55457,-6.67184,93.419
2023-03-11 20:58:17:136,0,-7.53213,-6.66702,93.4484
2023-03-11 20:58:17:146,0,-7.51132,-6.66709,93.4745
2023-03-11 20:58:17:156,0,-7.49029,-6.66429,93.4931
2023-03-11 20:58:17:166,0,-7.46761,-6.66524,93.5117
2023-03-11 20:58:17:176,0,-7.44788,-6.66884,93.53
2023-03-11 20:58:17:186,0,-7.43139,-6.6752,93.551
2023-03-11 20:58:17:196,0,-7.42285,-6.67987,93.5793
2023-03-11 20:58:17:206,0,-7.41471,-6.6808,93.6075
2023-03-11 20:58:17:216,0,-7.40406,-6.68335,93.6344
2023-03-11 20:58:17:226,0,-7.39193,-6.68784,93.6652
2023-03-11 20:58:17:236,0,-7.3787,-6.6897,93.6991
2023-03-11 20:58:17:246,0,-7.36411,-6.69415,93.7315
2023-03-11 20:58:17:256,0,-7.35099,-6.69295,93.7614
2023-03-11 20:58:17:266,0,-7.33446,-6.69667,93.7887
2023-03-11 20:58:17:276,0,-7.32187,-6.70177,93.8183
2023-03-11 20:58:17:286,0,-7.31103,-6.70695,93.8442
2023-03-11 20:58:17:296,0,-7.3012,-6.71047,93.8735
2023-03-11 20:58:17:306,0,-7.29411,-6.71458,93.8973
2023-03-11 20:58:17:316,0,-7.28863,-6.71863,93.92
2023-03-11 20:58:17:326,0,-7.28669,-6.72316,93.9375
2023-03-11 20:58:17:336,0,-7.28734,-6.72699,93.9504
2023-03-11 20:58:17:346,0,-7.29052,-6.73322,93.9567
2023-03-11 20:58:17:356,0,-7.29614,-6.73626,93.9572
2023-03-11 20:58:17:366,0,-7.29911,-6.73663,93.9518
2023-03-11 20:58:17:376,0,-7.30484,-6.73587,93.9463
2023-03-11 20:58:17:386,0,-7.3135,-6.73555,93.9346
2023-03-11 20:58:17:396,0,-7.32443,-6.73587,93.9192
2023-03-11 20:58:17:406,0,-7.33248,-6.7344,93.9043
2023-03-11 20:58:17:416,0,-7.34333,-6.73259,93.8907
2023-03-11 20:58:17:426,0,-7.35028,-6.72815,93.8747
2023-03-11 20:58:17:436,0,-7.36237,-6.72602,93.8647
2023-03-11 20:58:17:446,0,-7.38086,-6.72369,93.8583
2023-03-11 20:58:17:456,0,-7.39948,-6.71616,93.851
2023-03-11 20:58:17:466,0,-7.4175,-6.70629,93.8415
2023-03-11 20:58:17:476,0,-7.43791,-6.69968,93.8396
2023-03-11 20:58:17:486,0,-7.46194,-6.69627,93.8412
2023-03-11 20:58:17:496,0,-7.49097,-6.69039,93.8427
2023-03-11 20:58:17:506,0,-7.5144,-6.68064,93.8435
2023-03-11 20:58:17:516,0,-7.53862,-6.67635,93.8502
2023-03-11 20:58:17:526,0,-7.55904,-6.67283,93.8581
2023-03-11 20:58:17:536,0,-7.5789,-6.66937,93.8683
2023-03-11 20:58:17:546,0,-7.59722,-6.66605,93.8778
2023-03-11 20:58:17:556,0,-7.61388,-6.6631,93.8929
2023-03-11 20:58:17:566,0,-7.62468,-6.65837,93.9068
2023-03-11 20:58:17:576,0,-7.63453,-6.65067,93.9209
2023-03-11 20:58:17:586,0,-7.64367,-6.63721,93.9391
2023-03-11 20:58:17:596,0,-7.65023,-6.62403,93.9549
2023-03-11 20:58:17:606,0,-7.65547,-6.60806,93.9709
2023-03-11 20:58:17:616,0,-7.65745,-6.58645,93.9812
2023-03-11 20:58:17:626,0,-7.65517,-6.56271,93.985
2023-03-11 20:58:17:636,0,-7.64494,-6.53451,93.9802
2023-03-11 20:58:17:646,0,-7.62909,-6.51095,93.9713
2023-03-11 20:58:17:656,0,-7.61488,-6.48222,93.9577
2023-03-11 20:58:17:666,0,-7.6031,-6.45809,93.9372
2023-03-11 20:58:17:676,0,-7.59412,-6.43513,93.913
2023-03-11 20:58:17:686,0,-7.59433,-6.41258,93.8871
2023-03-11 20:58:17:696,0,-7.60008,-6.39004,93.8598
2023-03-11 20:58:17:706,0,-7.60915,-6.36543,93.831
2023-03-11 20:58:17:716,0,-7.62236,-6.345,93.8031
2023-03-11 20:58:17:726,0,-7.63984,-6.32286,93.7752
2023-03-11 20:58:17:736,0,-7.6547,-6.30274,93.7454
2023-03-11 20:58:17:746,0,-7.66673,-6.2801,93.714
2023-03-11 20:58:17:756,0,-7.67727,-6.26119,93.6797
2023-03-11 20:58:17:766,0,-7.68725,-6.24527,93.6515
2023-03-11 20:58:17:776,0,-7.69732,-6.23049,93.6243
2023-03-11 20:58:17:786,0,-7.71264,-6.22243,93.5974
2023-03-11 20:58:17:796,0,-7.72786,-6.21442,93.5684
2023-03-11 20:58:17:806,0,-7.74309,-6.20519,93.5377
2023-03-11 20:58:17:816,0,-7.75828,-6.19741,93.5114
2023-03-11 20:58:17:826,0,-7.77484,-6.18902,93.4889
2023-03-11 20:58:17:836,0,-7.79207,-6.18356,93.4667
2023-03-11 20:58:17:846,0,-7.80647,-6.18045,93.449
2023-03-11 20:58:17:856,0,-7.82113,-6.17801,93.4354
2023-03-11 20:58:17:866,0,-7.83807,-6.17284,93.4205
2023-03-11 20:58:17:876,0,-7.85991,-6.16998,93.4108
2023-03-11 20:58:17:886,0,-7.87751,-6.1641,93.3966
2023-03-11 20:58:17:896,0,-7.89839,-6.16101,93.3838
2023-03-11 20:58:17:906,0,-7.92184,-6.15813,93.3719
2023-03-11 20:58:17:916,0,-7.9476,-6.15979,93.3622
2023-03-11 20:58:17:926,0,-7.97983,-6.1606,93.3561
2023-03-11 20:58:17:936,0,-8.01572,-6.16164,93.3489
2023-03-11 20:58:17:946,0,-8.05495,-6.16271,93.3414
2023-03-11 20:58:17:956,0,-8.09866,-6.16087,93.3334
2023-03-11 20:58:17:966,0,-8.14465,-6.16375,93.3252
2023-03-11 20:58:17:976,0,-8.19622,-6.16543,93.3185
2023-03-11 20:58:17:986,0,-8.25255,-6.16297,93.3138
2023-03-11 20:58:17:996,0,-8.3059,-6.15828,93.3099
2023-03-11 20:58:18:6,0,-8.36213,-6.14779,93.3033
2023-03-11 20:58:18:16,0,-8.42631,-6.13223,93.2941
2023-03-11 20:58:18:26,0,-8.48974,-6.11625,93.2832
2023-03-11 20:58:18:36,0,-8.56,-6.09532,93.2686
2023-03-11 20:58:18:46,0,-8.63221,-6.0712,93.2478
2023-03-11 20:58:18:56,0,-8.70992,-6.04608,93.2275
2023-03-11 20:58:18:66,0,-8.79912,-6.02403,93.2064
2023-03-11 20:58:18:76,0,-8.8924,-6.00465,93.1844
2023-03-11 20:58:18:86,0,-8.99296,-5.98703,93.1564
2023-03-11 20:58:18:96,0,-9.09735,-5.96824,93.1255
2023-03-11 20:58:18:106,0,-9.19619,-5.95054,93.0922
2023-03-11 20:58:18:116,0,-9.29248,-5.92908,93.0537
2023-03-11 20:58:18:126,0,-9.38495,-5.91197,93.0169
2023-03-11 20:58:18:136,0,-9.47463,-5.89726,92.981
2023-03-11 20:58:18:146,0,-9.55984,-5.88071,92.9434
2023-03-11 20:58:18:156,0,-9.64655,-5.869,92.9069
2023-03-11 20:58:18:166,0,-9.73377,-5.85752,92.876
2023-03-11 20:58:18:176,0,-9.82004,-5.85074,92.845
2023-03-11 20:58:18:186,0,-9.89242,-5.84774,92.812
2023-03-11 20:58:18:196,0,-9.95699,-5.84238,92.7793
2023-03-11 20:58:18:206,0,-10.0115,-5.83594,92.744
2023-03-11 20:58:18:216,0,-10.0542,-5.82718,92.7078
2023-03-11 20:58:18:226,0,-10.0868,-5.81856,92.6642
2023-03-11 20:58:18:236,0,-10.112,-5.81324,92.6248
2023-03-11 20:58:18:246,0,-10.1335,-5.81434,92.5866
2023-03-11 20:58:18:256,0,-10.1545,-5.8157,92.5545
2023-03-11 20:58:18:266,0,-10.1748,-5.82743,92.5223
2023-03-11 20:58:18:276,0,-10.1919,-5.83569,92.4914
2023-03-11 20:58:18:286,0,-10.2018,-5.84185,92.4607
2023-03-11 20:58:18:296,0,-10.1984,-5.84547,92.4334
2023-03-11 20:58:18:306,0,-10.1905,-5.84597,92.4076
2023-03-11 20:58:18:316,0,-10.1797,-5.84625,92.3825
2023-03-11 20:58:18:326,0,-10.1627,-5.83639,92.3587
2023-03-11 20:58:18:336,0,-10.1422,-5.82713,92.3332
2023-03-11 20:58:18:346,0,-10.1162,-5.81521,92.3066
2023-03-11 20:58:18:356,0,-10.0883,-5.80288,92.2854
2023-03-11 20:58:18:366,0,-10.0653,-5.78714,92.265
2023-03-11 20:58:18:376,0,-10.0462,-5.77241,92.2465
2023-03-11 20:58:18:386,0,-10.0304,-5.75754,92.227
2023-03-11 20:58:18:396,0,-10.0145,-5.74795,92.2092
2023-03-11 20:58:18:406,0,-10.0036,-5.73408,92.1939
2023-03-11 20:58:18:416,0,-9.99018,-5.71935,92.1731
2023-03-11 20:58:18:426,0,-9.98226,-5.70603,92.1557
2023-03-11 20:58:18:436,0,-9.97736,-5.69728,92.1413
2023-03-11 20:58:18:446,0,-9.97523,-5.68396,92.1271
2023-03-11 20:58:18:456,0,-9.97224,-5.66952,92.1107
2023-03-11 20:58:18:466,0,-9.9689,-5.65198,92.0903
2023-03-11 20:58:18:476,0,-9.96042,-5.64152,92.0696
2023-03-11 20:58:18:486,0,-9.95234,-5.63241,92.0502
2023-03-11 20:58:18:496,0,-9.94346,-5.62434,92.0335
2023-03-11 20:58:18:506,0,-9.93905,-5.61518,92.0148
2023-03-11 20:58:18:516,0,-9.93444,-5.60615,91.9958
2023-03-11 20:58:18:526,0,-9.93348,-5.59473,91.9768
2023-03-11 20:58:18:536,0,-9.93434,-5.58627,91.957
2023-03-11 20:58:18:546,0,-9.94161,-5.57904,91.9387
2023-03-11 20:58:18:556,0,-9.94955,-5.57215,91.9191
2023-03-11 20:58:18:566,0,-9.95705,-5.56302,91.9017
2023-03-11 20:58:18:576,0,-9.96516,-5.55632,91.8831
2023-03-11 20:58:18:586,0,-9.96866,-5.54919,91.8653
2023-03-11 20:58:18:596,0,-9.96943,-5.53661,91.8487
2023-03-11 20:58:18:606,0,-9.97128,-5.5284,91.8285
2023-03-11 20:58:18:616,0,-9.97337,-5.52235,91.8122
2023-03-11 20:58:18:626,0,-9.97211,-5.51726,91.7981
2023-03-11 20:58:18:636,0,-9.9716,-5.51301,91.7877
2023-03-11 20:58:18:646,0,-9.96208,-5.51021,91.7797
2023-03-11 20:58:18:656,0,-9.96258,-5.50816,91.7732
2023-03-11 20:58:18:666,0,-9.9613,-5.50769,91.7661
2023-03-11 20:58:18:676,0,-9.95853,-5.50504,91.7585
2023-03-11 20:58:18:686,0,-9.95423,-5.50411,91.7522
2023-03-11 20:58:18:696,0,-9.94751,-5.50105,91.7442
2023-03-11 20:58:18:706,0,-9.94034,-5.49653,91.737
2023-03-11 20:58:18:716,0,-9.93238,-5.49026,91.727
2023-03-11 20:58:18:726,0,-9.92615,-5.48603,91.7177
2023-03-11 20:58:18:736,0,-9.92161,-5.47976,91.7058
2023-03-11 20:58:18:746,0,-9.91869,-5.47255,91.6948
2023-03-11 20:58:18:756,0,-9.91186,-5.47048,91.682
2023-03-11 20:58:18:766,0,-9.90441,-5.46409,91.67
2023-03-11 20:58:18:776,0,-9.89682,-5.45861,91.6603
2023-03-11 20:58:18:786,0,-9.88897,-5.45261,91.6516
2023-03-11 20:58:18:796,0,-9.88414,-5.44601,91.6441
2023-03-11 20:58:18:806,0,-9.87819,-5.44102,91.6365
2023-03-11 20:58:18:816,0,-9.87586,-5.43784,91.6331
2023-03-11 20:58:18:826,0,-9.87782,-5.43313,91.6317
2023-03-11 20:58:18:836,0,-9.87967,-5.4332,91.6326
2023-03-11 20:58:18:846,0,-9.88191,-5.43025,91.6374
2023-03-11 20:58:18:856,0,-9.88212,-5.42997,91.6438
2023-03-11 20:58:18:866,0,-9.87773,-5.4306,91.646
2023-03-11 20:58:18:876,0,-9.8691,-5.42688,91.6483
2023-03-11 20:58:18:886,0,-9.85238,-5.42678,91.6469
2023-03-11 20:58:18:896,0,-9.83823,-5.42188,91.6442
2023-03-11 20:58:18:906,0,-9.8177,-5.41714,91.6397
2023-03-11 20:58:18:916,0,-9.79948,-5.41106,91.6303
2023-03-11 20:58:18:926,0,-9.78039,-5.40569,91.623
2023-03-11 20:58:18:936,0,-9.7584,-5.40014,91.609
2023-03-11 20:58:18:946,0,-9.74006,-5.39408,91.5926
2023-03-11 20:58:18:956,0,-9.71629,-5.39081,91.5679
2023-03-11 20:58:18:966,0,-9.68608,-5.39521,91.5409
2023-03-11 20:58:18:976,0,-9.64436,-5.40196,91.5102
2023-03-11 20:58:18:986,0,-9.59971,-5.41416,91.4739
2023-03-11 20:58:18:996,0,-9.55685,-5.42882,91.4345
2023-03-11 20:58:19:6,0,-9.51713,-5.44108,91.3934
2023-03-11 20:58:19:16,0,-9.48065,-5.44947,91.346
2023-03-11 20:58:19:26,0,-9.44389,-5.45151,91.2957
2023-03-11 20:58:19:36,0,-9.40739,-5.44977,91.2447
2023-03-11 20:58:19:46,0,-9.37151,-5.44704,91.189
2023-03-11 20:58:19:56,0,-9.33681,-5.43876,91.1337
2023-03-11 20:58:19:66,0,-9.30412,-5.42559,91.0734
2023-03-11 20:58:19:76,0,-9.27098,-5.40958,91.0117
2023-03-11 20:58:19:86,0,-9.23658,-5.39692,90.946
2023-03-11 20:58:19:96,0,-9.20194,-5.3814,90.8769
2023-03-11 20:58:19:106,0,-9.15288,-5.36363,90.8045
2023-03-11 20:58:19:116,0,-9.09802,-5.34161,90.7258
2023-03-11 20:58:19:126,0,-9.04027,-5.31621,90.6428
2023-03-11 20:58:19:136,0,-8.98881,-5.28542,90.5615
2023-03-11 20:58:19:146,0,-8.94076,-5.25438,90.4826
2023-03-11 20:58:19:156,0,-8.89203,-5.22645,90.4012
2023-03-11 20:58:19:166,0,-8.83744,-5.19465,90.3194
2023-03-11 20:58:19:176,0,-8.76941,-5.1616,90.2366
2023-03-11 20:58:19:186,0,-8.70317,-5.12891,90.1551
2023-03-11 20:58:19:196,0,-8.63065,-5.09488,90.074
2023-03-11 20:58:19:206,0,-8.55974,-5.06588,89.9939
2023-03-11 20:58:19:216,0,-8.47966,-5.0385,89.9161
2023-03-11 20:58:19:226,0,-8.39494,-5.01508,89.8432
2023-03-11 20:58:19:236,0,-8.31136,-4.99197,89.7738
2023-03-11 20:58:19:246,0,-8.23309,-4.97063,89.7074
2023-03-11 20:58:19:256,0,-8.14733,-4.95178,89.6388
2023-03-11 20:58:19:266,0,-8.04853,-4.9313,89.5738
2023-03-11 20:58:19:276,0,-7.9336,-4.91021,89.5067
2023-03-11 20:58:19:286,0,-7.81298,-4.88749,89.4407
2023-03-11 20:58:19:296,0,-7.69327,-4.86239,89.3752
2023-03-11 20:58:19:306,0,-7.57501,-4.83732,89.3129
2023-03-11 20:58:19:316,0,-7.45641,-4.81824,89.2549
2023-03-11 20:58:19:326,0,-7.3383,-4.80302,89.1996
2023-03-11 20:58:19:336,0,-7.2022,-4.78381,89.1446
2023-03-11 20:58:19:346,0,-7.06639,-4.76878,89.0964
2023-03-11 20:58:19:356,0,-6.92908,-4.75512,89.0474
2023-03-11 20:58:19:366,0,-6.79531,-4.73942,88.9999
2023-03-11 20:58:19:376,0,-6.66845,-4.72492,88.9576
2023-03-11 20:58:19:386,0,-6.54701,-4.71288,88.9218
2023-03-11 20:58:19:396,0,-6.42756,-4.69707,88.8921
2023-03-11 20:58:19:406,0,-6.31567,-4.68329,88.8668
2023-03-11 20:58:19:416,0,-6.20975,-4.6707,88.8507
2023-03-11 20:58:19:426,0,-6.11421,-4.66143,88.8424
2023-03-11 20:58:19:436,0,-6.02916,-4.65446,88.8398
2023-03-11 20:58:19:446,0,-5.955,-4.647,88.8439
2023-03-11 20:58:19:456,0,-5.88873,-4.64006,88.8568
2023-03-11 20:58:19:466,0,-5.83877,-4.6364,88.8776
2023-03-11 20:58:19:476,0,-5.80294,-4.63507,88.908
2023-03-11 20:58:19:486,0,-5.77294,-4.6352,88.9427
2023-03-11 20:58:19:496,0,-5.74465,-4.63589,88.9939
2023-03-11 20:58:19:506,0,-5.71691,-4.63746,89.0536
2023-03-11 20:58:19:516,0,-5.68395,-4.63998,89.1275
2023-03-11 20:58:19:526,0,-5.64914,-4.64445,89.217
2023-03-11 20:58:19:536,0,-5.61326,-4.64775,89.3169
2023-03-11 20:58:19:546,0,-5.58266,-4.64997,89.4343
2023-03-11 20:58:19:556,0,-5.54835,-4.6538,89.5692
2023-03-11 20:58:19:566,0,-5.50552,-4.65906,89.7171
2023-03-11 20:58:19:576,0,-5.45884,-4.65742,89.8855
2023-03-11 20:58:19:586,0,-5.41167,-4.658,90.0699
2023-03-11 20:58:19:596,0,-5.36431,-4.65583,90.2694
2023-03-11 20:58:19:606,0,-5.3187,-4.6535,90.4752
2023-03-11 20:58:19:616,0,-5.27444,-4.64644,90.6852
2023-03-11 20:58:19:626,0,-5.23254,-4.64086,90.8939
2023-03-11 20:58:19:636,0,-5.1974,-4.63336,91.1043
2023-03-11 20:58:19:646,0,-5.16621,-4.62597,91.3118
2023-03-11 20:58:19:656,0,-5.13742,-4.62411,91.514
2023-03-11 20:58:19:666,0,-5.111,-4.62263,91.7094
2023-03-11 20:58:19:676,0,-5.08462,-4.62454,91.8972
2023-03-11 20:58:19:686,0,-5.06293,-4.63067,92.0712
2023-03-11 20:58:19:696,0,-5.04324,-4.63309,92.2304
2023-03-11 20:58:19:706,0,-5.02327,-4.63914,92.3723
2023-03-11 20:58:19:716,0,-5.00344,-4.65177,92.4977
2023-03-11 20:58:19:726,0,-4.98661,-4.67044,92.6079
2023-03-11 20:58:19:736,0,-4.97393,-4.69472,92.7031
2023-03-11 20:58:19:746,0,-4.965,-4.72386,92.7804
2023-03-11 20:58:19:756,0,-4.96323,-4.75537,92.8397
2023-03-11 20:58:19:766,0,-4.9657,-4.7875,92.8802
2023-03-11 20:58:19:776,0,-4.97543,-4.81546,92.9042
2023-03-11 20:58:19:786,0,-4.98131,-4.83763,92.9114
2023-03-11 20:58:19:796,0,-4.98518,-4.85117,92.9035
2023-03-11 20:58:19:806,0,-4.98914,-4.86005,92.8894
2023-03-11 20:58:19:816,0,-4.98461,-4.86193,92.8701
2023-03-11 20:58:19:826,0,-4.97607,-4.86187,92.8497
2023-03-11 20:58:19:836,0,-4.96399,-4.86066,92.83
2023-03-11 20:58:19:846,0,-4.95828,-4.85822,92.8089
2023-03-11 20:58:19:856,0,-4.957,-4.85074,92.7861
2023-03-11 20:58:19:866,0,-4.96389,-4.84084,92.7623
2023-03-11 20:58:19:876,0,-4.97909,-4.82911,92.741
2023-03-11 20:58:19:886,0,-5.00086,-4.81396,92.7193
2023-03-11 20:58:19:896,0,-5.02549,-4.79991,92.6994
2023-03-11 20:58:19:906,0,-5.05194,-4.78836,92.6778
2023-03-11 20:58:19:916,0,-5.07912,-4.77853,92.6584
2023-03-11 20:58:19:926,0,-5.10696,-4.76903,92.6386
2023-03-11 20:58:19:936,0,-5.13198,-4.75776,92.6144
2023-03-11 20:58:19:946,0,-5.15295,-4.75016,92.5925
2023-03-11 20:58:19:956,0,-5.17421,-4.74345,92.5738
2023-03-11 20:58:19:966,0,-5.19709,-4.74456,92.5589
2023-03-11 20:58:19:976,0,-5.21966,-4.74665,92.5425
2023-03-11 20:58:19:986,0,-5.24243,-4.74682,92.5273
2023-03-11 20:58:19:996,0,-5.2583,-4.74276,92.5117
2023-03-11 20:58:20:6,0,-5.27193,-4.74301,92.4983
2023-03-11 20:58:20:16,0,-5.27955,-4.74315,92.4872
2023-03-11 20:58:20:26,0,-5.28976,-4.7452,92.4804
2023-03-11 20:58:20:36,0,-5.29792,-4.74596,92.4765
2023-03-11 20:58:20:46,0,-5.30273,-4.7436,92.4708
2023-03-11 20:58:20:56,0,-5.30687,-4.74675,92.4708
2023-03-11 20:58:20:66,0,-5.31092,-4.75566,92.4729
2023-03-11 20:58:20:76,0,-5.30975,-4.76094,92.4726
2023-03-11 20:58:20:86,0,-5.31188,-4.76908,92.474
2023-03-11 20:58:20:96,0,-5.31226,-4.77543,92.4772
2023-03-11 20:58:20:106,0,-5.31092,-4.78554,92.48
2023-03-11 20:58:20:116,0,-5.31109,-4.79258,92.482
2023-03-11 20:58:20:126,0,-5.31119,-4.79928,92.4882
2023-03-11 20:58:20:136,0,-5.31357,-4.81012,92.4918
2023-03-11 20:58:20:146,0,-5.31711,-4.81599,92.4931
2023-03-11 20:58:20:156,0,-5.31888,-4.82461,92.4951
2023-03-11 20:58:20:166,0,-5.32702,-4.82998,92.4971
2023-03-11 20:58:20:176,0,-5.33441,-4.83587,92.4921
2023-03-11 20:58:20:186,0,-5.34145,-4.83813,92.4894
2023-03-11 20:58:20:196,0,-5.34608,-4.8387,92.4842
2023-03-11 20:58:20:206,0,-5.35193,-4.83391,92.4752
2023-03-11 20:58:20:216,0,-5.35945,-4.82467,92.4621
2023-03-11 20:58:20:226,0,-5.36704,-4.81834,92.4476
2023-03-11 20:58:20:236,0,-5.3687,-4.81123,92.435
2023-03-11 20:58:20:246,0,-5.3688,-4.80333,92.4172
2023-03-11 20:58:20:256,0,-5.36572,-4.79423,92.3975
2023-03-11 20:58:20:266,0,-5.35957,-4.78211,92.3756
2023-03-11 20:58:20:276,0,-5.35836,-4.77165,92.3556
2023-03-11 20:58:20:286,0,-5.36032,-4.75953,92.3336
2023-03-11 20:58:20:296,0,-5.36104,-4.75025,92.3129
2023-03-11 20:58:20:306,0,-5.36576,-4.74072,92.2941
2023-03-11 20:58:20:316,0,-5.37559,-4.73236,92.2733
2023-03-11 20:58:20:326,0,-5.38174,-4.72523,92.2527
2023-03-11 20:58:20:336,0,-5.38284,-4.71844,92.2326
2023-03-11 20:58:20:346,0,-5.38466,-4.70939,92.2093
2023-03-11 20:58:20:356,0,-5.38729,-4.70216,92.1885
2023-03-11 20:58:20:366,0,-5.38458,-4.69557,92.1659
2023-03-11 20:58:20:376,0,-5.38183,-4.69249,92.1432
2023-03-11 20:58:20:386,0,-5.37696,-4.68442,92.1212
2023-03-11 20:58:20:396,0,-5.37005,-4.67786,92.0974
2023-03-11 20:58:20:406,0,-5.36859,-4.67343,92.074
2023-03-11 20:58:20:416,0,-5.3698,-4.67154,92.054
2023-03-11 20:58:20:426,0,-5.37388,-4.66488,92.0342
2023-03-11 20:58:20:436,0,-5.37769,-4.66159,92.0115
2023-03-11 20:58:20:446,0,-5.38398,-4.66624,91.9919
2023-03-11 20:58:20:456,0,-5.39024,-4.67526,91.9752
2023-03-11 20:58:20:466,0,-5.39474,-4.68769,91.9647
2023-03-11 20:58:20:476,0,-5.40615,-4.70018,91.9586
2023-03-11 20:58:20:486,0,-5.41985,-4.71395,91.9575
2023-03-11 20:58:20:496,0,-5.42859,-4.72291,91.9549
2023-03-11 20:58:20:506,0,-5.437,-4.73111,91.9556
2023-03-11 20:58:20:516,0,-5.44962,-4.73245,91.9573
2023-03-11 20:58:20:526,0,-5.45949,-4.73557,91.9611
2023-03-11 20:58:20:536,0,-5.46372,-4.73875,91.966
2023-03-11 20:58:20:546,0,-5.4651,-4.73719,91.9725
2023-03-11 20:58:20:556,0,-5.46726,-4.74007,91.978
2023-03-11 20:58:20:566,0,-5.47082,-4.74049,91.9806
2023-03-11 20:58:20:576,0,-5.47651,-4.73856,91.9833
2023-03-11 20:58:20:586,0,-5.486,-4.7342,91.9806
2023-03-11 20:58:20:596,0,-5.49894,-4.72938,91.9736
2023-03-11 20:58:20:606,0,-5.51314,-4.71995,91.9657
2023-03-11 20:58:20:616,0,-5.52223,-4.71068,91.9567
2023-03-11 20:58:20:626,0,-5.53243,-4.70375,91.9432
2023-03-11 20:58:20:636,0,-5.54051,-4.69884,91.932
2023-03-11 20:58:20:646,0,-5.54293,-4.69788,91.9207
2023-03-11 20:58:20:656,0,-5.5466,-4.69602,91.9121
2023-03-11 20:58:20:666,0,-5.54785,-4.69104,91.9008
2023-03-11 20:58:20:676,0,-5.55006,-4.68139,91.889
2023-03-11 20:58:20:686,0,-5.54667,-4.67642,91.8762
2023-03-11 20:58:20:696,0,-5.54605,-4.67199,91.866
2023-03-11 20:58:20:706,0,-5.54492,-4.6692,91.8605
2023-03-11 20:58:20:716,0,-5.5457,-4.66546,91.8579
2023-03-11 20:58:20:726,0,-5.54595,-4.66232,91.8597
2023-03-11 20:58:20:736,0,-5.54903,-4.66073,91.8629
2023-03-11 20:58:20:746,0,-5.5538,-4.66046,91.8672
2023-03-11 20:58:20:756,0,-5.55535,-4.65855,91.8729
2023-03-11 20:58:20:766,0,-5.55952,-4.65825,91.882
2023-03-11 20:58:20:776,0,-5.56529,-4.66256,91.8916
2023-03-11 20:58:20:786,0,-5.57196,-4.66978,91.9034
2023-03-11 20:58:20:796,0,-5.57608,-4.67844,91.9098
2023-03-11 20:58:20:806,0,-5.58148,-4.68901,91.9186
2023-03-11 20:58:20:816,0,-5.58557,-4.69949,91.9297
2023-03-11 20:58:20:826,0,-5.58584,-4.71259,91.9364
2023-03-11 20:58:20:836,0,-5.59007,-4.72252,91.945
2023-03-11 20:58:20:846,0,-5.59047,-4.73366,91.9533
2023-03-11 20:58:20:856,0,-5.58893,-4.74435,91.9631
2023-03-11 20:58:20:866,0,-5.59002,-4.75434,91.9697
2023-03-11 20:58:20:876,0,-5.58674,-4.76309,91.9789
2023-03-11 20:58:20:886,0,-5.58645,-4.77069,91.9888
2023-03-11 20:58:20:896,0,-5.58799,-4.77887,92.0002
2023-03-11 20:58:20:906,0,-5.58985,-4.78639,92.0086
2023-03-11 20:58:20:916,0,-5.59361,-4.79581,92.0204
2023-03-11 20:58:20:926,0,-5.5997,-4.80064,92.0356
2023-03-11 20:58:20:936,0,-5.60722,-4.80701,92.048
2023-03-11 20:58:20:946,0,-5.61201,-4.81246,92.0603
2023-03-11 20:58:20:956,0,-5.61674,-4.81677,92.0714
2023-03-11 20:58:20:966,0,-5.62177,-4.81959,92.0828
2023-03-11 20:58:20:976,0,-5.62619,-4.81895,92.0841
2023-03-11 20:58:20:986,0,-5.62835,-4.82281,92.0825
2023-03-11 20:58:20:996,0,-5.62669,-4.82591,92.0826
2023-03-11 20:58:21:6,0,-5.62991,-4.82409,92.0805
2023-03-11 20:58:21:16,0,-5.62862,-4.82082,92.0729
2023-03-11 20:58:21:26,0,-5.63069,-4.82194,92.0692
2023-03-11 20:58:21:36,0,-5.63468,-4.82247,92.0636
2023-03-11 20:58:21:46,0,-5.63811,-4.82178,92.0575
2023-03-11 20:58:21:56,0,-5.64157,-4.82185,92.0543
2023-03-11 20:58:21:66,0,-5.64707,-4.8232,92.0523
2023-03-11 20:58:21:76,0,-5.65631,-4.82339,92.0553
2023-03-11 20:58:21:86,0,-5.6599,-4.82129,92.0562
2023-03-11 20:58:21:96,0,-5.65855,-4.8184,92.0595
2023-03-11 20:58:21:106,0,-5.6567,-4.81683,92.0641
2023-03-11 20:58:21:116,0,-5.65546,-4.81233,92.0665
2023-03-11 20:58:21:126,0,-5.65332,-4.81136,92.0695
2023-03-11 20:58:21:136,0,-5.65137,-4.80809,92.0695
2023-03-11 20:58:21:146,0,-5.64564,-4.8053,92.0735
2023-03-11 20:58:21:156,0,-5.64568,-4.80519,92.0774
2023-03-11 20:58:21:166,0,-5.64574,-4.80111,92.0793
2023-03-11 20:58:21:176,0,-5.64945,-4.80001,92.0794
2023-03-11 20:58:21:186,0,-5.65012,-4.79999,92.0776
2023-03-11 20:58:21:196,0,-5.6477,-4.80422,92.0796
2023-03-11 20:58:21:206,0,-5.64609,-4.81122,92.0862
2023-03-11 20:58:21:216,0,-5.64428,-4.82557,92.0928
2023-03-11 20:58:21:226,0,-5.65002,-4.83838,92.0999
2023-03-11 20:58:21:236,0,-5.65675,-4.84665,92.114
2023-03-11 20:58:21:246,0,-5.66163,-4.85454,92.1249
2023-03-11 20:58:21:256,0,-5.66868,-4.85938,92.1398
2023-03-11 20:58:21:266,0,-5.67503,-4.86441,92.155
2023-03-11 20:58:21:276,0,-5.67874,-4.86675,92.1731
2023-03-11 20:58:21:286,0,-5.67956,-4.87133,92.1941
2023-03-11 20:58:21:296,0,-5.68083,-4.87616,92.2125
2023-03-11 20:58:21:306,0,-5.68079,-4.88054,92.228
2023-03-11 20:58:21:316,0,-5.67911,-4.88381,92.2411
2023-03-11 20:58:21:326,0,-5.67771,-4.88622,92.2532
2023-03-11 20:58:21:336,0,-5.67556,-4.88886,92.2641
2023-03-11 20:58:21:346,0,-5.67577,-4.88964,92.2746
2023-03-11 20:58:21:356,0,-5.67376,-4.8978,92.2842
2023-03-11 20:58:21:366,0,-5.66954,-4.90751,92.2908
2023-03-11 20:58:21:376,0,-5.66201,-4.91838,92.2983
2023-03-11 20:58:21:386,0,-5.66409,-4.9331,92.2976
2023-03-11 20:58:21:396,0,-5.66432,-4.94909,92.2967
2023-03-11 20:58:21:406,0,-5.66588,-4.96667,92.2957
2023-03-11 20:58:21:416,0,-5.66813,-4.98424,92.2894
2023-03-11 20:58:21:426,0,-5.66589,-5.00494,92.2834
2023-03-11 20:58:21:436,0,-5.66226,-5.02849,92.2838
2023-03-11 20:58:21:446,0,-5.65516,-5.05426,92.2869
2023-03-11 20:58:21:456,0,-5.64751,-5.07316,92.295
2023-03-11 20:58:21:466,0,-5.64552,-5.09118,92.3018
2023-03-11 20:58:21:476,0,-5.64474,-5.10169,92.3112
2023-03-11 20:58:21:486,0,-5.64523,-5.1083,92.3244
2023-03-11 20:58:21:496,0,-5.6511,-5.11483,92.3414
2023-03-11 20:58:21:506,0,-5.65921,-5.11783,92.3625
2023-03-11 20:58:21:516,0,-5.66863,-5.12337,92.3838
2023-03-11 20:58:21:526,0,-5.68142,-5.12625,92.4066
2023-03-11 20:58:21:536,0,-5.69302,-5.13464,92.4287
2023-03-11 20:58:21:546,0,-5.70348,-5.14015,92.449
2023-03-11 20:58:21:556,0,-5.71009,-5.14448,92.4699
2023-03-11 20:58:21:566,0,-5.71236,-5.14991,92.483
2023-03-11 20:58:21:576,0,-5.71276,-5.15559,92.4937
2023-03-11 20:58:21:586,0,-5.71232,-5.16129,92.503
2023-03-11 20:58:21:596,0,-5.71294,-5.1716,92.5085
2023-03-11 20:58:21:606,0,-5.71175,-5.1797,92.5144
2023-03-11 20:58:21:616,0,-5.71719,-5.18589,92.5174
2023-03-11 20:58:21:626,0,-5.72233,-5.19511,92.5233
2023-03-11 20:58:21:636,0,-5.7274,-5.19918,92.529
2023-03-11 20:58:21:646,0,-5.73334,-5.20658,92.5359
2023-03-11 20:58:21:656,0,-5.74135,-5.20827,92.5455
2023-03-11 20:58:21:666,0,-5.74915,-5.20761,92.554
2023-03-11 20:58:21:676,0,-5.75934,-5.20792,92.5643
2023-03-11 20:58:21:686,0,-5.76649,-5.20762,92.5717
2023-03-11 20:58:21:696,0,-5.77467,-5.20302,92.5781
2023-03-11 20:58:21:706,0,-5.78263,-5.19899,92.5793
2023-03-11 20:58:21:716,0,-5.79052,-5.20039,92.5795
2023-03-11 20:58:21:726,0,-5.79337,-5.1939,92.5776
2023-03-11 20:58:21:736,0,-5.80197,-5.19019,92.5723
2023-03-11 20:58:21:746,0,-5.80942,-5.18699,92.5663
2023-03-11 20:58:21:756,0,-5.81984,-5.18245,92.5576
2023-03-11 20:58:21:766,0,-5.82547,-5.17988,92.5532
2023-03-11 20:58:21:776,0,-5.82994,-5.17673,92.5474
2023-03-11 20:58:21:786,0,-5.83225,-5.17316,92.5434
2023-03-11 20:58:21:796,0,-5.83675,-5.17029,92.5368
2023-03-11 20:58:21:806,0,-5.84311,-5.16854,92.5322
2023-03-11 20:58:21:816,0,-5.84865,-5.16496,92.5318
2023-03-11 20:58:21:826,0,-5.8539,-5.16138,92.5331
2023-03-11 20:58:21:836,0,-5.8574,-5.15502,92.5337
2023-03-11 20:58:21:846,0,-5.85581,-5.14719,92.5367
2023-03-11 20:58:21:856,0,-5.85444,-5.138,92.534
2023-03-11 20:58:21:866,0,-5.85293,-5.12784,92.5327
2023-03-11 20:58:21:876,0,-5.85488,-5.1202,92.5289
2023-03-11 20:58:21:886,0,-5.85168,-5.11132,92.5223
2023-03-11 20:58:21:896,0,-5.85202,-5.10418,92.5132
2023-03-11 20:58:21:906,0,-5.85375,-5.09089,92.4996
2023-03-11 20:58:21:916,0,-5.85785,-5.08141,92.4868
2023-03-11 20:58:21:926,0,-5.86092,-5.07396,92.469
2023-03-11 20:58:21:936,0,-5.85747,-5.07309,92.4524
2023-03-11 20:58:21:946,0,-5.85508,-5.07387,92.4382
2023-03-11 20:58:21:956,0,-5.85491,-5.07639,92.4245
2023-03-11 20:58:21:966,0,-5.85901,-5.08152,92.4167
2023-03-11 20:58:21:976,0,-5.86734,-5.08182,92.408
2023-03-11 20:58:21:986,0,-5.87359,-5.08122,92.4007
2023-03-11 20:58:21:996,0,-5.88134,-5.07825,92.3987
2023-03-11 20:58:22:6,0,-5.88787,-5.07221,92.3966
2023-03-11 20:58:22:16,0,-5.89392,-5.06873,92.3979
2023-03-11 20:58:22:26,0,-5.89455,-5.06431,92.4004
2023-03-11 20:58:22:36,0,-5.89926,-5.05711,92.4023
2023-03-11 20:58:22:46,0,-5.89955,-5.05472,92.4019
2023-03-11 20:58:22:56,0,-5.90646,-5.0455,92.4022
2023-03-11 20:58:22:66,0,-5.9113,-5.0387,92.403
2023-03-11 20:58:22:76,0,-5.91747,-5.03065,92.4019
2023-03-11 20:58:22:86,0,-5.9243,-5.0255,92.397
2023-03-11 20:58:22:96,0,-5.92369,-5.01949,92.3894
2023-03-11 20:58:22:106,0,-5.92408,-5.01726,92.3766
2023-03-11 20:58:22:116,0,-5.92381,-5.01044,92.3641
2023-03-11 20:58:22:126,0,-5.91922,-5.00629,92.3523
2023-03-11 20:58:22:136,0,-5.9184,-5.00281,92.3431
2023-03-11 20:58:22:146,0,-5.92063,-5.00206,92.3309
2023-03-11 20:58:22:156,0,-5.92122,-4.99728,92.3186
2023-03-11 20:58:22:166,0,-5.91747,-4.99044,92.3095
2023-03-11 20:58:22:176,0,-5.90996,-4.98454,92.3016
2023-03-11 20:58:22:186,0,-5.89904,-4.97871,92.2949
2023-03-11 20:58:22:196,0,-5.89288,-4.98139,92.2905
2023-03-11 20:58:22:206,0,-5.89039,-4.98006,92.2871
2023-03-11 20:58:22:216,0,-5.88707,-4.98123,92.2853
2023-03-11 20:58:22:226,0,-5.88192,-4.97892,92.2809
2023-03-11 20:58:22:236,0,-5.87415,-4.98137,92.2786
2023-03-11 20:58:22:246,0,-5.86269,-4.98535,92.2737
2023-03-11 20:58:22:256,0,-5.85121,-4.98877,92.2696
2023-03-11 20:58:22:266,0,-5.84312,-4.99619,92.2672
2023-03-11 20:58:22:276,0,-5.83655,-5.00307,92.2637
2023-03-11 20:58:22:286,0,-5.82697,-5.01212,92.2592
2023-03-11 20:58:22:296,0,-5.81862,-5.02303,92.2517
2023-03-11 20:58:22:306,0,-5.81172,-5.03619,92.2451
2023-03-11 20:58:22:316,0,-5.80403,-5.04915,92.2423
2023-03-11 20:58:22:326,0,-5.80045,-5.06068,92.2381
2023-03-11 20:58:22:336,0,-5.79845,-5.06993,92.2351
2023-03-11 20:58:22:346,0,-5.79896,-5.07884,92.2325
2023-03-11 20:58:22:356,0,-5.80105,-5.08909,92.2329
2023-03-11 20:58:22:366,0,-5.81091,-5.09344,92.2293
2023-03-11 20:58:22:376,0,-5.81857,-5.10091,92.2344
2023-03-11 20:58:22:386,0,-5.82944,-5.10518,92.2377
2023-03-11 20:58:22:396,0,-5.83752,-5.10605,92.2425
2023-03-11 20:58:22:406,0,-5.84796,-5.10672,92.2481
2023-03-11 20:58:22:416,0,-5.85931,-5.10601,92.2534
2023-03-11 20:58:22:426,0,-5.87096,-5.10539,92.2572
2023-03-11 20:58:22:436,0,-5.8821,-5.10581,92.2626
2023-03-11 20:58:22:446,0,-5.89025,-5.10533,92.2634
2023-03-11 20:58:22:456,0,-5.89891,-5.10449,92.2632
2023-03-11 20:58:22:466,0,-5.9103,-5.10156,92.2634
2023-03-11 20:58:22:476,0,-5.91778,-5.09512,92.2616
2023-03-11 20:58:22:486,0,-5.924,-5.09093,92.2604
2023-03-11 20:58:22:496,0,-5.93203,-5.08627,92.2558
2023-03-11 20:58:22:506,0,-5.93782,-5.08806,92.2507
2023-03-11 20:58:22:516,0,-5.94426,-5.08555,92.2456
2023-03-11 20:58:22:526,0,-5.95233,-5.08394,92.2423
2023-03-11 20:58:22:536,0,-5.95802,-5.08508,92.242
2023-03-11 20:58:22:546,0,-5.96674,-5.08936,92.2445
2023-03-11 20:58:22:556,0,-5.97703,-5.08965,92.2512
2023-03-11 20:58:22:566,0,-5.98279,-5.09381,92.255
2023-03-11 20:58:22:576,0,-5.98824,-5.10069,92.2585
2023-03-11 20:58:22:586,0,-5.99302,-5.10809,92.2629
2023-03-11 20:58:22:596,0,-5.99681,-5.11449,92.2706
2023-03-11 20:58:22:606,0,-5.99346,-5.11557,92.274
2023-03-11 20:58:22:616,0,-5.99098,-5.11495,92.2756
2023-03-11 20:58:22:626,0,-5.98504,-5.11687,92.2784
2023-03-11 20:58:22:636,0,-5.98474,-5.11887,92.2814
2023-03-11 20:58:22:646,0,-5.98266,-5.12299,92.281
2023-03-11 20:58:22:656,0,-5.98273,-5.12613,92.2827
2023-03-11 20:58:22:666,0,-5.98696,-5.12709,92.2813
2023-03-11 20:58:22:676,0,-5.99002,-5.1251,92.2805
2023-03-11 20:58:22:686,0,-5.99243,-5.12506,92.2798
2023-03-11 20:58:22:696,0,-5.99253,-5.12769,92.2773
2023-03-11 20:58:22:706,0,-5.98952,-5.13616,92.2772
2023-03-11 20:58:22:716,0,-5.99129,-5.15025,92.283
2023-03-11 20:58:22:726,0,-5.99456,-5.16292,92.2936
2023-03-11 20:58:22:736,0,-5.99407,-5.17489,92.3006
2023-03-11 20:58:22:746,0,-6.00101,-5.18244,92.3146
2023-03-11 20:58:22:756,0,-6.00744,-5.18727,92.3312
2023-03-11 20:58:22:766,0,-6.0146,-5.19375,92.3433
2023-03-11 20:58:22:776,0,-6.0192,-5.19899,92.3572
2023-03-11 20:58:22:786,0,-6.01992,-5.20362,92.3704
2023-03-11 20:58:22:796,0,-6.01942,-5.2051,92.3844
2023-03-11 20:58:22:806,0,-6.01543,-5.20744,92.3927
2023-03-11 20:58:22:816,0,-6.01348,-5.20742,92.3952
2023-03-11 20:58:22:826,0,-6.0136,-5.20452,92.3978
2023-03-11 20:58:22:836,0,-6.01301,-5.20337,92.3962
2023-03-11 20:58:22:846,0,-6.01329,-5.20329,92.393
2023-03-11 20:58:22:856,0,-6.01805,-5.19926,92.3851
2023-03-11 20:58:22:866,0,-6.02368,-5.1954,92.3786
2023-03-11 20:58:22:876,0,-6.02941,-5.19523,92.3675
2023-03-11 20:58:22:886,0,-6.04024,-5.19392,92.3584
2023-03-11 20:58:22:896,0,-6.04577,-5.19316,92.3504
2023-03-11 20:58:22:906,0,-6.04585,-5.19137,92.3429
2023-03-11 20:58:22:916,0,-6.04827,-5.18447,92.3368
2023-03-11 20:58:22:926,0,-6.04717,-5.17692,92.3274
2023-03-11 20:58:22:936,0,-6.04512,-5.16997,92.32
2023-03-11 20:58:22:946,0,-6.03754,-5.16234,92.3145
2023-03-11 20:58:22:956,0,-6.03509,-5.15766,92.3124
2023-03-11 20:58:22:966,0,-6.03333,-5.15801,92.3105
2023-03-11 20:58:22:976,0,-6.03136,-5.15388,92.3113
2023-03-11 20:58:22:986,0,-6.02783,-5.15263,92.3125
2023-03-11 20:58:22:996,0,-6.02766,-5.1475,92.3178
2023-03-11 20:58:23:6,0,-6.02824,-5.14571,92.3223
2023-03-11 20:58:23:16,0,-6.02811,-5.14499,92.33
2023-03-11 20:58:23:26,0,-6.03416,-5.14597,92.3376
2023-03-11 20:58:23:36,0,-6.03479,-5.15142,92.3449
2023-03-11 20:58:23:46,0,-6.03615,-5.16285,92.3518
2023-03-11 20:58:23:56,0,-6.03661,-5.17067,92.3583
2023-03-11 20:58:23:66,0,-6.04111,-5.178,92.3648
2023-03-11 20:58:23:76,0,-6.04903,-5.18705,92.3692
2023-03-11 20:58:23:86,0,-6.05685,-5.19883,92.3752
2023-03-11 20:58:23:96,0,-6.06594,-5.20791,92.3808
2023-03-11 20:58:23:106,0,-6.07064,-5.21885,92.3879
2023-03-11 20:58:23:116,0,-6.07754,-5.22605,92.3972
2023-03-11 20:58:23:126,0,-6.08294,-5.23785,92.4105
2023-03-11 20:58:23:136,0,-6.09115,-5.24856,92.4225
2023-03-11 20:58:23:146,0,-6.09978,-5.25937,92.4369
2023-03-11 20:58:23:156,0,-6.10798,-5.2686,92.4509
2023-03-11 20:58:23:166,0,-6.12233,-5.27486,92.4633
2023-03-11 20:58:23:176,0,-6.14086,-5.27678,92.4714
2023-03-11 20:58:23:186,0,-6.15859,-5.2807,92.4755
2023-03-11 20:58:23:196,0,-6.17283,-5.28263,92.4771
2023-03-11 20:58:23:206,0,-6.18511,-5.28431,92.48
2023-03-11 20:58:23:216,0,-6.19371,-5.28493,92.4789
2023-03-11 20:58:23:226,0,-6.20341,-5.28503,92.4757
2023-03-11 20:58:23:236,0,-6.21021,-5.28242,92.4687
2023-03-11 20:58:23:246,0,-6.21898,-5.28004,92.4639
2023-03-11 20:58:23:256,0,-6.22064,-5.2778,92.4561
2023-03-11 20:58:23:266,0,-6.22405,-5.27563,92.4498
2023-03-11 20:58:23:276,0,-6.22949,-5.27286,92.4441
2023-03-11 20:58:23:286,0,-6.23356,-5.27152,92.4394
2023-03-11 20:58:23:296,0,-6.23327,-5.27096,92.4378
2023-03-11 20:58:23:306,0,-6.23337,-5.26861,92.4377
2023-03-11 20:58:23:316,0,-6.22892,-5.27074,92.4391
2023-03-11 20:58:23:326,0,-6.23033,-5.27158,92.44
2023-03-11 20:58:23:336,0,-6.23102,-5.2731,92.4391
2023-03-11 20:58:23:346,0,-6.22821,-5.27502,92.4396
2023-03-11 20:58:23:356,0,-6.22299,-5.27435,92.44
2023-03-11 20:58:23:366,0,-6.21422,-5.27372,92.444
2023-03-11 20:58:23:376,0,-6.20698,-5.27268,92.449
2023-03-11 20:58:23:386,0,-6.20049,-5.27133,92.4532
2023-03-11 20:58:23:396,0,-6.19406,-5.27502,92.4579
2023-03-11 20:58:23:406,0,-6.1867,-5.27768,92.4566
2023-03-11 20:58:23:416,0,-6.18071,-5.27471,92.4562
2023-03-11 20:58:23:426,0,-6.17848,-5.27411,92.4549
2023-03-11 20:58:23:436,0,-6.17683,-5.26963,92.4469
2023-03-11 20:58:23:446,0,-6.16849,-5.27003,92.4419
2023-03-11 20:58:23:456,0,-6.15586,-5.27417,92.438
2023-03-11 20:58:23:466,0,-6.14299,-5.28159,92.4363
2023-03-11 20:58:23:476,0,-6.13992,-5.29147,92.4359
2023-03-11 20:58:23:486,0,-6.14116,-5.29952,92.4414
2023-03-11 20:58:23:496,0,-6.14135,-5.30639,92.446
2023-03-11 20:58:23:506,0,-6.14188,-5.31011,92.4486
2023-03-11 20:58:23:516,0,-6.14231,-5.31102,92.4522
2023-03-11 20:58:23:526,0,-6.14206,-5.31117,92.4543
2023-03-11 20:58:23:536,0,-6.14059,-5.31262,92.4566
2023-03-11 20:58:23:546,0,-6.13897,-5.30924,92.4621
2023-03-11 20:58:23:556,0,-6.14018,-5.30497,92.463
2023-03-11 20:58:23:566,0,-6.14639,-5.30166,92.4622
2023-03-11 20:58:23:576,0,-6.15267,-5.29698,92.4602
2023-03-11 20:58:23:586,0,-6.16237,-5.29528,92.4522
2023-03-11 20:58:23:596,0,-6.17035,-5.28645,92.4412
2023-03-11 20:58:23:606,0,-6.18071,-5.27968,92.4348
2023-03-11 20:58:23:616,0,-6.18646,-5.27144,92.4242
2023-03-11 20:58:23:626,0,-6.19295,-5.26462,92.4088
2023-03-11 20:58:23:636,0,-6.20071,-5.26008,92.3976
2023-03-11 20:58:23:646,0,-6.20274,-5.25837,92.3846
2023-03-11 20:58:23:656,0,-6.20659,-5.25185,92.3745
2023-03-11 20:58:23:666,0,-6.2078,-5.24054,92.3622
2023-03-11 20:58:23:676,0,-6.20606,-5.22902,92.3457
2023-03-11 20:58:23:686,0,-6.20073,-5.21957,92.3344
2023-03-11 20:58:23:696,0,-6.20301,-5.21385,92.3221
2023-03-11 20:58:23:706,0,-6.19989,-5.21154,92.3153
2023-03-11 20:58:23:716,0,-6.19865,-5.20564,92.3102
2023-03-11 20:58:23:726,0,-6.19679,-5.20398,92.3073
2023-03-11 20:58:23:736,0,-6.19573,-5.19872,92.3094
2023-03-11 20:58:23:746,0,-6.1976,-5.19085,92.3117
2023-03-11 20:58:23:756,0,-6.20259,-5.18615,92.3156
2023-03-11 20:58:23:766,0,-6.20453,-5.18078,92.3175
2023-03-11 20:58:23:776,0,-6.20668,-5.1778,92.3243
2023-03-11 20:58:23:786,0,-6.21013,-5.17176,92.3282
2023-03-11 20:58:23:796,0,-6.21692,-5.16908,92.331
2023-03-11 20:58:23:806,0,-6.2247,-5.17178,92.3316
2023-03-11 20:58:23:816,0,-6.22777,-5.17462,92.3301
2023-03-11 20:58:23:826,0,-6.22735,-5.17807,92.3257
2023-03-11 20:58:23:836,0,-6.22482,-5.18197,92.3173
2023-03-11 20:58:23:846,0,-6.22179,-5.18395,92.3137
2023-03-11 20:58:23:856,0,-6.2198,-5.18517,92.3139
2023-03-11 20:58:23:866,0,-6.21835,-5.18969,92.3131
2023-03-11 20:58:23:876,0,-6.21443,-5.19091,92.3144
2023-03-11 20:58:23:886,0,-6.21183,-5.1928,92.3165
2023-03-11 20:58:23:896,0,-6.21081,-5.19695,92.3173
2023-03-11 20:58:23:906,0,-6.20899,-5.19391,92.32
2023-03-11 20:58:23:916,0,-6.21416,-5.19303,92.3216
2023-03-11 20:58:23:926,0,-6.21791,-5.19109,92.3235
2023-03-11 20:58:23:936,0,-6.21617,-5.18875,92.3217
2023-03-11 20:58:23:946,0,-6.21667,-5.18603,92.3204
2023-03-11 20:58:23:956,0,-6.21439,-5.18093,92.3181
2023-03-11 20:58:23:966,0,-6.2156,-5.17482,92.3156
2023-03-11 20:58:23:976,0,-6.21409,-5.16778,92.3069
2023-03-11 20:58:23:986,0,-6.21976,-5.16521,92.295
2023-03-11 20:58:23:996,0,-6.22373,-5.15733,92.2778
2023-03-11 20:58:24:6,0,-6.23051,-5.15196,92.2588
2023-03-11 20:58:24:16,0,-6.23879,-5.1505,92.2423
2023-03-11 20:58:24:26,0,-6.24575,-5.15117,92.2258
2023-03-11 20:58:24:36,0,-6.25768,-5.14711,92.2107
2023-03-11 20:58:24:46,0,-6.27399,-5.14761,92.1994
2023-03-11 20:58:24:56,0,-6.2907,-5.14666,92.1887
2023-03-11 20:58:24:66,0,-6.30548,-5.15106,92.1784
2023-03-11 20:58:24:76,0,-6.32485,-5.15245,92.168
2023-03-11 20:58:24:86,0,-6.33835,-5.15705,92.1564
2023-03-11 20:58:24:96,0,-6.34846,-5.16301,92.1474
2023-03-11 20:58:24:106,0,-6.35417,-5.16927,92.136
2023-03-11 20:58:24:116,0,-6.35987,-5.17281,92.126
2023-03-11 20:58:24:126,0,-6.36162,-5.17845,92.1198
2023-03-11 20:58:24:136,0,-6.36281,-5.17773,92.1144
2023-03-11 20:58:24:146,0,-6.36602,-5.17971,92.1123
2023-03-11 20:58:24:156,0,-6.37308,-5.18098,92.1151
2023-03-11 20:58:24:166,0,-6.38044,-5.18144,92.119
2023-03-11 20:58:24:176,0,-6.38381,-5.17902,92.1221
2023-03-11 20:58:24:186,0,-6.37804,-5.17566,92.1257
2023-03-11 20:58:24:196,0,-6.36254,-5.17895,92.1369
2023-03-11 20:58:24:206,0,-6.3435,-5.18304,92.1478
2023-03-11 20:58:24:216,0,-6.32726,-5.18801,92.1666
2023-03-11 20:58:24:226,0,-6.31559,-5.1927,92.1848
2023-03-11 20:58:24:236,0,-6.30687,-5.19533,92.2008
2023-03-11 20:58:24:246,0,-6.30255,-5.1977,92.2163
2023-03-11 20:58:24:256,0,-6.29954,-5.19961,92.2312
2023-03-11 20:58:24:266,0,-6.29621,-5.20036,92.241
2023-03-11 20:58:24:276,0,-6.29374,-5.19703,92.2481
2023-03-11 20:58:24:286,0,-6.28264,-5.19072,92.2477
2023-03-11 20:58:24:296,0,-6.26819,-5.18355,92.2446
2023-03-11 20:58:24:306,0,-6.2569,-5.17623,92.2387
2023-03-11 20:58:24:316,0,-6.25188,-5.16489,92.23
2023-03-11 20:58:24:326,0,-6.25263,-5.15789,92.2223
2023-03-11 20:58:24:336,0,-6.2558,-5.14865,92.2116
2023-03-11 20:58:24:346,0,-6.26285,-5.13655,92.1973
2023-03-11 20:58:24:356,0,-6.27306,-5.12557,92.1859
2023-03-11 20:58:24:366,0,-6.28044,-5.11404,92.17
2023-03-11 20:58:24:376,0,-6.2904,-5.10465,92.158
2023-03-11 20:58:24:386,0,-6.29289,-5.09098,92.146
2023-03-11 20:58:24:396,0,-6.30012,-5.07983,92.1368
2023-03-11 20:58:24:406,0,-6.30437,-5.06443,92.1267
2023-03-11 20:58:24:416,0,-6.30669,-5.04732,92.1114
2023-03-11 20:58:24:426,0,-6.30389,-5.0357,92.0961
2023-03-11 20:58:24:436,0,-6.30059,-5.02512,92.0854
2023-03-11 20:58:24:446,0,-6.29769,-5.02274,92.0805
2023-03-11 20:58:24:456,0,-6.29327,-5.02118,92.0756
2023-03-11 20:58:24:466,0,-6.28682,-5.02157,92.0735
2023-03-11 20:58:24:476,0,-6.28134,-5.01926,92.0704
2023-03-11 20:58:24:486,0,-6.27231,-5.01363,92.0667
2023-03-11 20:58:24:496,0,-6.26378,-5.00967,92.0665
2023-03-11 20:58:24:506,0,-6.2536,-5.00591,92.0685
2023-03-11 20:58:24:516,0,-6.24694,-5.00406,92.0699
2023-03-11 20:58:24:526,0,-6.23718,-5.00724,92.0748
2023-03-11 20:58:24:536,0,-6.22616,-5.00847,92.0763
2023-03-11 20:58:24:546,0,-6.216,-5.01057,92.0784
2023-03-11 20:58:24:556,0,-6.20497,-5.0149,92.0831
2023-03-11 20:58:24:566,0,-6.19162,-5.01857,92.0858
2023-03-11 20:58:24:576,0,-6.17845,-5.01857,92.0865
2023-03-11 20:58:24:586,0,-6.16703,-5.02222,92.0868
2023-03-11 20:58:24:596,0,-6.15461,-5.02411,92.0873
2023-03-11 20:58:24:606,0,-6.15025,-5.0252,92.0914
2023-03-11 20:58:24:616,0,-6.15276,-5.02624,92.099
2023-03-11 20:58:24:626,0,-6.15804,-5.02923,92.1082
2023-03-11 20:58:24:636,0,-6.16922,-5.03103,92.1143
2023-03-11 20:58:24:646,0,-6.18113,-5.03349,92.1185
2023-03-11 20:58:24:656,0,-6.19644,-5.03449,92.1292
2023-03-11 20:58:24:666,0,-6.21153,-5.03022,92.1314
2023-03-11 20:58:24:676,0,-6.22595,-5.02505,92.1315
2023-03-11 20:58:24:686,0,-6.24326,-5.01938,92.1292
2023-03-11 20:58:24:696,0,-6.26277,-5.01024,92.119
2023-03-11 20:58:24:706,0,-6.28562,-5.00141,92.111
2023-03-11 20:58:24:716,0,-6.31574,-4.98813,92.1004
2023-03-11 20:58:24:726,0,-6.34564,-4.97644,92.0827
2023-03-11 20:58:24:736,0,-6.37043,-4.96891,92.0639
2023-03-11 20:58:24:746,0,-6.3951,-4.96068,92.0468
2023-03-11 20:58:24:756,0,-6.41573,-4.94997,92.0277
2023-03-11 20:58:24:766,0,-6.43389,-4.94526,92.0109
2023-03-11 20:58:24:776,0,-6.45187,-4.93572,91.9982
2023-03-11 20:58:24:786,0,-6.46669,-4.92983,91.988
2023-03-11 20:58:24:796,0,-6.48014,-4.92275,91.9823
2023-03-11 20:58:24:806,0,-6.49353,-4.91384,91.9767
2023-03-11 20:58:24:816,0,-6.50204,-4.90786,91.9737
2023-03-11 20:58:24:826,0,-6.50922,-4.89663,91.9733
2023-03-11 20:58:24:836,0,-6.50775,-4.89001,91.9712
2023-03-11 20:58:24:846,0,-6.50631,-4.88287,91.9698
2023-03-11 20:58:24:856,0,-6.49971,-4.87704,91.9674
2023-03-11 20:58:24:866,0,-6.49032,-4.86811,91.963
2023-03-11 20:58:24:876,0,-6.47843,-4.85728,91.9572
2023-03-11 20:58:24:886,0,-6.46874,-4.85359,91.9501
2023-03-11 20:58:24:896,0,-6.46091,-4.84483,91.9423
2023-03-11 20:58:24:906,0,-6.45875,-4.83959,91.9324
2023-03-11 20:58:24:916,0,-6.45649,-4.83378,91.9249
