Timestamp_cmd,imu_cmd,roll_delta,pitch_delta,yaw_delta,voice_type,voice_length
2023-03-15 20:54:34:438,0,-54.3037,2.30963,134.371,Q,Q
2023-03-15 20:54:34:445,0,-54.3,2.31157,134.368,Q,Q
2023-03-15 20:54:34:455,0,-54.299,2.30943,134.367,Q,Q
2023-03-15 20:54:34:466,0,-54.2985,2.31252,134.367,Q,Q
2023-03-15 20:54:34:476,0,-54.2989,2.31185,134.366,Q,Q
2023-03-15 20:54:34:485,0,-54.2977,2.31238,134.366,Q,Q
2023-03-15 20:54:34:496,0,-54.2989,2.30895,134.365,Q,Q
2023-03-15 20:54:34:506,0,-54.2981,2.30859,134.362,Q,Q
2023-03-15 20:54:34:516,0,-54.2974,2.30909,134.361,Q,Q
2023-03-15 20:54:34:526,0,-54.2996,2.30604,134.358,Q,Q
2023-03-15 20:54:34:536,0,-54.3002,2.30733,134.36,Q,Q
2023-03-15 20:54:34:546,0,-54.2986,2.30508,134.363,Q,Q
2023-03-15 20:54:34:555,0,-54.2971,2.30547,134.364,Q,Q
2023-03-15 20:54:34:565,0,-54.2997,2.30241,134.365,Q,Q
2023-03-15 20:54:34:575,0,-54.2948,2.30212,134.365,Q,Q
2023-03-15 20:54:34:585,0,-54.2943,2.30313,134.367,Q,Q
2023-03-15 20:54:34:595,0,-54.2945,2.30305,134.366,Q,Q
2023-03-15 20:54:34:605,0,-54.2935,2.29981,134.364,Q,Q
2023-03-15 20:54:34:616,0,-54.2945,2.29795,134.361,Q,Q
2023-03-15 20:54:34:626,0,-54.2946,2.29872,134.361,Q,Q
2023-03-15 20:54:34:636,0,-54.2922,2.2984,134.362,Q,Q
2023-03-15 20:54:34:646,0,-54.2878,2.29609,134.364,Q,Q
2023-03-15 20:54:34:656,0,-54.2894,2.29646,134.365,Q,Q
2023-03-15 20:54:34:666,0,-54.2873,2.29776,134.361,Q,Q
2023-03-15 20:54:34:676,0,-54.2873,2.29727,134.362,Q,Q
2023-03-15 20:54:34:686,0,-54.2889,2.29671,134.363,Q,Q
2023-03-15 20:54:34:696,0,-54.2869,2.29499,134.366,Q,Q
2023-03-15 20:54:34:706,0,-54.2873,2.29466,134.367,Q,Q
2023-03-15 20:54:34:716,0,-54.2879,2.29276,134.368,Q,Q
2023-03-15 20:54:34:726,0,-54.289,2.29221,134.369,Q,Q
2023-03-15 20:54:34:736,0,-54.2904,2.28934,134.368,Q,Q
2023-03-15 20:54:34:746,0,-54.2898,2.2879,134.369,Q,Q
2023-03-15 20:54:34:756,0,-54.2876,2.28625,134.372,Q,Q
2023-03-15 20:54:34:766,0,-54.285,2.28491,134.37,Q,Q
2023-03-15 20:54:34:776,0,-54.283,2.2883,134.37,Q,Q
2023-03-15 20:54:34:785,0,-54.2799,2.29059,134.368,Q,Q
2023-03-15 20:54:34:796,0,-54.2812,2.29119,134.366,Q,Q
2023-03-15 20:54:34:806,0,-54.2849,2.28904,134.366,Q,Q
2023-03-15 20:54:34:815,0,-54.2863,2.29052,134.365,Q,Q
2023-03-15 20:54:34:825,0,-54.2878,2.291,134.366,Q,Q
2023-03-15 20:54:34:835,0,-54.2848,2.2921,134.367,Q,Q
2023-03-15 20:54:34:845,0,-54.2873,2.2942,134.365,Q,Q
2023-03-15 20:54:34:855,0,-54.2882,2.29394,134.368,Q,Q
2023-03-15 20:54:34:865,0,-54.287,2.29672,134.37,Q,Q
2023-03-15 20:54:34:875,0,-54.2869,2.29539,134.371,Q,Q
2023-03-15 20:54:34:885,0,-54.2875,2.29436,134.373,Q,Q
2023-03-15 20:54:34:895,0,-54.2866,2.29578,134.371,Q,Q
2023-03-15 20:54:34:905,0,-54.287,2.29769,134.371,Q,Q
2023-03-15 20:54:34:915,0,-54.2857,2.29703,134.369,Q,Q
2023-03-15 20:54:34:925,0,-54.2849,2.29707,134.369,Q,Q
2023-03-15 20:54:34:935,0,-54.2872,2.29841,134.369,Q,Q
2023-03-15 20:54:34:945,0,-54.2891,2.29829,134.367,Q,Q
2023-03-15 20:54:34:955,0,-54.2848,2.29782,134.369,Q,Q
2023-03-15 20:54:34:965,0,-54.2856,2.29767,134.368,Q,Q
2023-03-15 20:54:34:975,0,-54.2858,2.29885,134.367,Q,Q
2023-03-15 20:54:34:985,0,-54.2861,2.29813,134.367,Q,Q
2023-03-15 20:54:34:995,0,-54.2869,2.29809,134.368,Q,Q
2023-03-15 20:54:35:5,0,-54.2861,2.29738,134.37,Q,Q
2023-03-15 20:54:35:15,0,-54.2877,2.29451,134.371,Q,Q
2023-03-15 20:54:35:25,0,-54.2852,2.2936,134.368,Q,Q
2023-03-15 20:54:35:35,0,-54.2858,2.29434,134.371,Q,Q
2023-03-15 20:54:35:45,0,-54.288,2.29207,134.366,Q,Q
2023-03-15 20:54:35:55,0,-54.2891,2.29277,134.364,Q,Q
2023-03-15 20:54:35:65,0,-54.2931,2.29193,134.361,Q,Q
2023-03-15 20:54:35:75,0,-54.2936,2.29223,134.359,Q,Q
2023-03-15 20:54:35:86,0,-54.2929,2.29176,134.359,Q,Q
2023-03-15 20:54:35:95,0,-54.2954,2.28985,134.358,Q,Q
2023-03-15 20:54:35:105,0,-54.2959,2.28784,134.355,Q,Q
2023-03-15 20:54:35:115,0,-54.2969,2.28812,134.355,Q,Q
2023-03-15 20:54:35:125,0,-54.2962,2.2897,134.357,Q,Q
2023-03-15 20:54:35:136,0,-54.297,2.29068,134.359,Q,Q
2023-03-15 20:54:35:146,0,-54.2977,2.29392,134.361,Q,Q
2023-03-15 20:54:35:156,0,-54.2986,2.29439,134.362,Q,Q
2023-03-15 20:54:35:166,0,-54.2978,2.29498,134.36,Q,Q
2023-03-15 20:54:35:176,0,-54.3024,2.29551,134.36,Q,Q
2023-03-15 20:54:35:186,0,-54.3036,2.29634,134.358,Q,Q
2023-03-15 20:54:35:196,0,-54.3024,2.29582,134.356,Q,Q
2023-03-15 20:54:35:206,0,-54.3021,2.29802,134.357,Q,Q
2023-03-15 20:54:35:216,0,-54.3017,2.2976,134.357,Q,Q
2023-03-15 20:54:35:226,0,-54.3007,2.29579,134.359,Q,Q
2023-03-15 20:54:35:236,0,-54.3025,2.29573,134.358,Q,Q
2023-03-15 20:54:35:246,0,-54.3005,2.29469,134.359,Q,Q
2023-03-15 20:54:35:256,0,-54.2983,2.29532,134.36,Q,Q
2023-03-15 20:54:35:266,0,-54.3001,2.29569,134.359,Q,Q
2023-03-15 20:54:35:276,0,-54.3001,2.29518,134.36,Q,Q
2023-03-15 20:54:35:286,0,-54.2998,2.29596,134.365,Q,Q
2023-03-15 20:54:35:296,0,-54.299,2.29688,134.367,Q,Q
2023-03-15 20:54:35:306,0,-54.2987,2.29779,134.366,Q,Q
2023-03-15 20:54:35:316,0,-54.2996,2.2983,134.364,Q,Q
2023-03-15 20:54:35:326,0,-54.3007,2.2983,134.363,Q,Q
2023-03-15 20:54:35:336,0,-54.2989,2.29826,134.362,Q,Q
2023-03-15 20:54:35:346,0,-54.2991,2.29867,134.362,Q,Q
2023-03-15 20:54:35:356,0,-54.3009,2.29723,134.362,Q,Q
2023-03-15 20:54:35:366,0,-54.3032,2.2984,134.36,Q,Q
2023-03-15 20:54:35:376,0,-54.305,2.2951,134.361,Q,Q
2023-03-15 20:54:35:386,0,-54.3066,2.2935,134.361,Q,Q
2023-03-15 20:54:35:395,0,-54.3063,2.28916,134.363,Q,Q
2023-03-15 20:54:35:405,0,-54.3041,2.28734,134.364,Q,Q
2023-03-15 20:54:35:416,0,-54.3042,2.28477,134.365,Q,Q
2023-03-15 20:54:35:426,0,-54.3065,2.28414,134.366,Q,Q
2023-03-15 20:54:35:436,0,-54.3049,2.28127,134.362,Q,Q
2023-03-15 20:54:35:446,0,-54.3053,2.27948,134.357,Q,Q
2023-03-15 20:54:35:456,0,-54.3051,2.27925,134.357,Q,Q
2023-03-15 20:54:35:466,0,-54.308,2.2805,134.355,Q,Q
2023-03-15 20:54:35:476,0,-54.3053,2.27907,134.355,Q,Q
2023-03-15 20:54:35:486,0,-54.3029,2.28037,134.357,Q,Q
2023-03-15 20:54:35:496,0,-54.3012,2.28201,134.361,Q,Q
2023-03-15 20:54:35:506,0,-54.3023,2.28424,134.359,Q,Q
2023-03-15 20:54:35:516,0,-54.3004,2.28225,134.359,Q,Q
2023-03-15 20:54:35:526,0,-54.2994,2.28291,134.357,Q,Q
2023-03-15 20:54:35:536,0,-54.2948,2.28319,134.36,Q,Q
2023-03-15 20:54:35:546,0,-54.2934,2.2835,134.356,Q,Q
2023-03-15 20:54:35:556,0,-54.2924,2.28277,134.355,Q,Q
2023-03-15 20:54:35:566,0,-54.2938,2.28442,134.354,Q,Q
2023-03-15 20:54:35:576,0,-54.2915,2.28675,134.353,Q,Q
2023-03-15 20:54:35:586,0,-54.2882,2.28836,134.354,Q,Q
2023-03-15 20:54:35:596,0,-54.2886,2.28847,134.357,Q,Q
2023-03-15 20:54:35:606,0,-54.2886,2.29198,134.357,Q,Q
2023-03-15 20:54:35:616,0,-54.2872,2.29103,134.358,Q,Q
2023-03-15 20:54:35:626,0,-54.2853,2.29056,134.359,Q,Q
2023-03-15 20:54:35:636,0,-54.2862,2.28887,134.358,Q,Q
2023-03-15 20:54:35:646,0,-54.2862,2.28848,134.359,Q,Q
2023-03-15 20:54:35:656,0,-54.2878,2.28781,134.358,Q,Q
2023-03-15 20:54:35:666,0,-54.2891,2.28764,134.358,Q,Q
2023-03-15 20:54:35:676,0,-54.2894,2.28579,134.362,Q,Q
2023-03-15 20:54:35:686,0,-54.2902,2.28586,134.362,Q,Q
2023-03-15 20:54:35:696,0,-54.2893,2.28541,134.361,Q,Q
2023-03-15 20:54:35:706,0,-54.2867,2.28479,134.361,Q,Q
2023-03-15 20:54:35:716,0,-54.2892,2.2836,134.361,Q,Q
2023-03-15 20:54:35:726,0,-54.286,2.28271,134.36,Q,Q
2023-03-15 20:54:35:736,0,-54.2874,2.27909,134.36,Q,Q
2023-03-15 20:54:35:746,0,-54.2892,2.28178,134.362,Q,Q
2023-03-15 20:54:35:756,0,-54.2906,2.28168,134.362,Q,Q
2023-03-15 20:54:35:766,0,-54.2913,2.28325,134.361,Q,Q
2023-03-15 20:54:35:776,0,-54.2884,2.27829,134.36,Q,Q
2023-03-15 20:54:35:786,0,-54.2909,2.27852,134.361,Q,Q
2023-03-15 20:54:35:796,0,-54.2915,2.2797,134.362,Q,Q
2023-03-15 20:54:35:806,0,-54.2918,2.2793,134.364,Q,Q
2023-03-15 20:54:35:816,0,-54.2895,2.27954,134.363,Q,Q
2023-03-15 20:54:35:826,0,-54.2888,2.28061,134.363,Q,Q
2023-03-15 20:54:35:836,0,-54.2867,2.27989,134.364,Q,Q
2023-03-15 20:54:35:846,0,-54.284,2.28306,134.363,Q,Q
2023-03-15 20:54:35:856,0,-54.2871,2.28107,134.362,Q,Q
2023-03-15 20:54:35:866,0,-54.2845,2.28301,134.361,Q,Q
2023-03-15 20:54:35:876,0,-54.287,2.28202,134.364,Q,Q
2023-03-15 20:54:35:886,0,-54.2857,2.28425,134.365,Q,Q
2023-03-15 20:54:35:896,0,-54.2827,2.28351,134.364,Q,Q
2023-03-15 20:54:35:906,0,-54.2837,2.28416,134.361,Q,Q
2023-03-15 20:54:35:916,0,-54.2826,2.28504,134.359,Q,Q
2023-03-15 20:54:35:926,0,-54.2856,2.28519,134.358,Q,Q
2023-03-15 20:54:35:936,0,-54.2848,2.28317,134.358,Q,Q
2023-03-15 20:54:35:946,0,-54.2847,2.28232,134.358,Q,Q
2023-03-15 20:54:35:956,0,-54.2872,2.28326,134.357,Q,Q
2023-03-15 20:54:35:966,0,-54.2906,2.28547,134.356,Q,Q
2023-03-15 20:54:35:976,0,-54.2929,2.2853,134.353,Q,Q
2023-03-15 20:54:35:986,0,-54.2925,2.28544,134.356,Q,Q
2023-03-15 20:54:35:996,0,-54.2916,2.28799,134.36,Q,Q
2023-03-15 20:54:36:6,0,-54.2909,2.2897,134.358,Q,Q
2023-03-15 20:54:36:16,0,-54.2921,2.28733,134.356,Q,Q
2023-03-15 20:54:36:26,0,-54.29,2.28578,134.354,Q,Q
2023-03-15 20:54:36:36,0,-54.2884,2.28576,134.352,Q,Q
2023-03-15 20:54:36:46,0,-54.2882,2.28659,134.352,Q,Q
2023-03-15 20:54:36:56,0,-54.2875,2.28546,134.352,Q,Q
2023-03-15 20:54:36:66,0,-54.2866,2.28709,134.355,Q,Q
2023-03-15 20:54:36:76,0,-54.2874,2.28878,134.358,Q,Q
2023-03-15 20:54:36:86,0,-54.2894,2.29156,134.359,Q,Q
2023-03-15 20:54:36:96,0,-54.2905,2.29309,134.357,Q,Q
2023-03-15 20:54:36:106,0,-54.2905,2.29066,134.355,Q,Q
2023-03-15 20:54:36:116,0,-54.2908,2.28869,134.356,Q,Q
2023-03-15 20:54:36:126,0,-54.2889,2.28709,134.356,Q,Q
2023-03-15 20:54:36:136,0,-54.2878,2.28544,134.357,Q,Q
2023-03-15 20:54:36:146,0,-54.2907,2.28147,134.357,Q,Q
2023-03-15 20:54:36:156,0,-54.2935,2.28255,134.36,Q,Q
2023-03-15 20:54:36:166,0,-54.2963,2.2842,134.357,Q,Q
2023-03-15 20:54:36:176,0,-54.2962,2.28394,134.357,Q,Q
2023-03-15 20:54:36:186,0,-54.2983,2.28616,134.358,Q,Q
2023-03-15 20:54:36:196,0,-54.2989,2.28781,134.358,Q,Q
2023-03-15 20:54:36:206,0,-54.3007,2.28814,134.36,Q,Q
2023-03-15 20:54:36:216,0,-54.3015,2.2878,134.359,Q,Q
2023-03-15 20:54:36:226,0,-54.3038,2.28674,134.359,Q,Q
2023-03-15 20:54:36:236,0,-54.3038,2.2856,134.356,Q,Q
2023-03-15 20:54:36:246,0,-54.3014,2.28624,134.357,Q,Q
2023-03-15 20:54:36:256,0,-54.3011,2.28889,134.358,Q,Q
2023-03-15 20:54:36:266,0,-54.3033,2.29106,134.359,Q,Q
2023-03-15 20:54:36:276,0,-54.3015,2.29159,134.36,Q,Q
2023-03-15 20:54:36:286,0,-54.2989,2.29227,134.359,Q,Q
2023-03-15 20:54:36:296,0,-54.2978,2.29446,134.358,Q,Q
2023-03-15 20:54:36:306,0,-54.2958,2.29687,134.358,Q,Q
2023-03-15 20:54:36:316,0,-54.2943,2.2982,134.358,Q,Q
2023-03-15 20:54:36:326,0,-54.2916,2.29714,134.359,Q,Q
2023-03-15 20:54:36:336,0,-54.2923,2.29796,134.359,Q,Q
2023-03-15 20:54:36:346,0,-54.2914,2.29902,134.359,Q,Q
2023-03-15 20:54:36:356,0,-54.2896,2.29708,134.361,Q,Q
2023-03-15 20:54:36:366,0,-54.2871,2.30065,134.363,Q,Q
2023-03-15 20:54:36:376,0,-54.2851,2.2996,134.361,Q,Q
2023-03-15 20:54:36:386,0,-54.284,2.29989,134.36,Q,Q
2023-03-15 20:54:36:396,0,-54.2863,2.29697,134.357,Q,Q
2023-03-15 20:54:36:406,0,-54.2873,2.29543,134.357,Q,Q
2023-03-15 20:54:36:416,0,-54.287,2.2951,134.357,Q,Q
2023-03-15 20:54:36:426,0,-54.286,2.29569,134.354,Q,Q
2023-03-15 20:54:36:436,0,-54.2854,2.29566,134.355,Q,Q
2023-03-15 20:54:36:446,0,-54.286,2.29397,134.356,Q,Q
2023-03-15 20:54:36:456,0,-54.286,2.29288,134.354,Q,Q
2023-03-15 20:54:36:466,0,-54.2849,2.29282,134.354,Q,Q
2023-03-15 20:54:36:476,0,-54.2822,2.29353,134.353,Q,Q
2023-03-15 20:54:36:486,0,-54.2822,2.29254,134.353,Q,Q
2023-03-15 20:54:36:496,0,-54.2797,2.29138,134.352,Q,Q
2023-03-15 20:54:36:506,0,-54.2802,2.29103,134.351,Q,Q
2023-03-15 20:54:36:516,0,-54.2799,2.29063,134.347,Q,Q
2023-03-15 20:54:36:526,0,-54.28,2.28848,134.345,Q,Q
2023-03-15 20:54:36:536,0,-54.2793,2.28918,134.347,Q,Q
2023-03-15 20:54:36:546,0,-54.2801,2.28728,134.345,Q,Q
2023-03-15 20:54:36:556,0,-54.2816,2.28502,134.345,Q,Q
2023-03-15 20:54:36:566,0,-54.2836,2.28474,134.348,Q,Q
2023-03-15 20:54:36:576,0,-54.2831,2.28685,134.35,Q,Q
2023-03-15 20:54:36:586,0,-54.2795,2.2893,134.349,Q,Q
2023-03-15 20:54:36:596,0,-54.2785,2.28939,134.346,Q,Q
2023-03-15 20:54:36:606,0,-54.2736,2.29014,134.348,Q,Q
2023-03-15 20:54:36:616,0,-54.2728,2.28987,134.347,Q,Q
2023-03-15 20:54:36:626,0,-54.2749,2.2896,134.344,Q,Q
2023-03-15 20:54:36:636,0,-54.2759,2.28694,134.342,Q,Q
2023-03-15 20:54:36:646,0,-54.2726,2.28584,134.345,Q,Q
2023-03-15 20:54:36:656,0,-54.2758,2.28321,134.347,Q,Q
2023-03-15 20:54:36:666,0,-54.2738,2.28268,134.348,Q,Q
2023-03-15 20:54:36:676,0,-54.2667,2.28753,134.351,Q,Q
2023-03-15 20:54:36:686,0,-54.2667,2.28901,134.352,Q,Q
2023-03-15 20:54:36:696,0,-54.266,2.28649,134.354,Q,Q
2023-03-15 20:54:36:706,0,-54.265,2.28883,134.355,Q,Q
2023-03-15 20:54:36:716,0,-54.2661,2.2866,134.356,Q,Q
2023-03-15 20:54:36:726,0,-54.2671,2.28586,134.354,Q,Q
2023-03-15 20:54:36:736,0,-54.2674,2.28375,134.352,Q,Q
2023-03-15 20:54:36:746,0,-54.2686,2.28216,134.353,Q,Q
2023-03-15 20:54:36:756,0,-54.2681,2.28026,134.352,Q,Q
2023-03-15 20:54:36:766,0,-54.2665,2.28065,134.348,Q,Q
2023-03-15 20:54:36:776,0,-54.2671,2.27936,134.347,Q,Q
2023-03-15 20:54:36:786,0,-54.2667,2.27888,134.345,Q,Q
2023-03-15 20:54:36:796,0,-54.2683,2.27837,134.345,Q,Q
2023-03-15 20:54:36:806,0,-54.2725,2.27725,134.343,Q,Q
2023-03-15 20:54:36:816,0,-54.2765,2.27489,134.341,Q,Q
2023-03-15 20:54:36:826,0,-54.2747,2.27921,134.341,Q,Q
2023-03-15 20:54:36:836,0,-54.282,2.26681,134.342,Q,Q
2023-03-15 20:54:36:846,0,-54.3698,2.21794,134.336,Q,Q
2023-03-15 20:54:36:856,0,-54.3851,2.23018,134.33,Q,Q
2023-03-15 20:54:36:866,0,-54.2657,2.28705,134.343,Q,Q
2023-03-15 20:54:36:876,0,-54.2633,2.28336,134.343,Q,Q
2023-03-15 20:54:36:886,0,-54.2604,2.28298,134.346,Q,Q
2023-03-15 20:54:36:896,0,-54.2641,2.27935,134.345,Q,Q
2023-03-15 20:54:36:906,0,-54.2667,2.28439,134.344,Q,Q
2023-03-15 20:54:36:916,0,-54.2638,2.2844,134.342,Q,Q
2023-03-15 20:54:36:926,0,-54.2656,2.28398,134.342,Q,Q
2023-03-15 20:54:36:936,0,-54.2653,2.28105,134.341,Q,Q
2023-03-15 20:54:36:946,0,-54.2627,2.28305,134.345,Q,Q
2023-03-15 20:54:36:956,0,-54.2645,2.28383,134.344,Q,Q
2023-03-15 20:54:36:966,0,-54.266,2.28309,134.343,Q,Q
2023-03-15 20:54:36:976,0,-54.267,2.28231,134.344,Q,Q
2023-03-15 20:54:36:986,0,-54.2652,2.28023,134.346,Q,Q
2023-03-15 20:54:36:996,0,-54.2626,2.28012,134.345,Q,Q
2023-03-15 20:54:37:6,0,-54.2614,2.27903,134.347,Q,Q
2023-03-15 20:54:37:16,0,-54.2606,2.27578,134.347,Q,Q
2023-03-15 20:54:37:26,0,-54.2566,2.27577,134.351,Q,Q
2023-03-15 20:54:37:36,0,-54.2589,2.27427,134.349,Q,Q
2023-03-15 20:54:37:46,0,-54.2609,2.27228,134.348,Q,Q
2023-03-15 20:54:37:56,0,-54.2618,2.27048,134.346,Q,Q
2023-03-15 20:54:37:66,0,-54.2632,2.26902,134.343,Q,Q
2023-03-15 20:54:37:76,0,-54.2629,2.272,134.342,Q,Q
2023-03-15 20:54:37:86,0,-54.2635,2.27185,134.34,Q,Q
2023-03-15 20:54:37:96,0,-54.2633,2.27151,134.343,Q,Q
2023-03-15 20:54:37:106,0,-54.2611,2.27028,134.343,Q,Q
2023-03-15 20:54:37:116,0,-54.2621,2.27033,134.342,Q,Q
2023-03-15 20:54:37:126,0,-54.2628,2.26734,134.342,Q,Q
2023-03-15 20:54:37:136,0,-54.2651,2.26588,134.341,Q,Q
2023-03-15 20:54:37:146,0,-54.2648,2.26672,134.341,Q,Q
2023-03-15 20:54:37:156,0,-54.2654,2.26819,134.339,Q,Q
2023-03-15 20:54:37:166,0,-54.266,2.26683,134.339,Q,Q
2023-03-15 20:54:37:176,0,-54.266,2.26632,134.34,Q,Q
2023-03-15 20:54:37:186,0,-54.2653,2.26532,134.34,Q,Q
2023-03-15 20:54:37:196,0,-54.2644,2.26534,134.338,Q,Q
2023-03-15 20:54:37:206,0,-54.2646,2.26467,134.34,Q,Q
2023-03-15 20:54:37:216,0,-54.2668,2.26565,134.34,Q,Q
2023-03-15 20:54:37:226,0,-54.2679,2.2639,134.339,Q,Q
2023-03-15 20:54:37:236,0,-54.2654,2.26513,134.339,Q,Q
2023-03-15 20:54:37:246,0,-54.2665,2.26568,134.337,Q,Q
2023-03-15 20:54:37:256,0,-54.2655,2.26749,134.338,Q,Q
2023-03-15 20:54:37:266,0,-54.2639,2.26749,134.339,Q,Q
2023-03-15 20:54:37:276,0,-54.2637,2.26886,134.339,Q,Q
2023-03-15 20:54:37:286,0,-54.2657,2.26889,134.342,Q,Q
2023-03-15 20:54:37:296,0,-54.2686,2.26691,134.343,Q,Q
2023-03-15 20:54:37:306,0,-54.2697,2.26727,134.343,Q,Q
2023-03-15 20:54:37:316,0,-54.2707,2.26803,134.343,Q,Q
2023-03-15 20:54:37:326,0,-54.2729,2.27135,134.342,Q,Q
2023-03-15 20:54:37:336,0,-54.273,2.27233,134.347,Q,Q
2023-03-15 20:54:37:346,0,-54.2713,2.27247,134.346,Q,Q
2023-03-15 20:54:37:356,0,-54.2685,2.27046,134.346,Q,Q
2023-03-15 20:54:37:366,0,-54.2662,2.27038,134.343,Q,Q
2023-03-15 20:54:37:376,0,-54.2644,2.27035,134.344,Q,Q
2023-03-15 20:54:37:386,0,-54.2668,2.27029,134.343,Q,Q
2023-03-15 20:54:37:396,0,-54.2676,2.27044,134.342,Q,Q
2023-03-15 20:54:37:406,0,-54.2652,2.27016,134.342,Q,Q
2023-03-15 20:54:37:416,0,-54.2675,2.26909,134.343,Q,Q
2023-03-15 20:54:37:426,0,-54.2648,2.26976,134.341,Q,Q
2023-03-15 20:54:37:436,0,-54.2639,2.2714,134.343,Q,Q
2023-03-15 20:54:37:446,0,-54.2649,2.272,134.343,Q,Q
2023-03-15 20:54:37:456,0,-54.2626,2.27215,134.344,Q,Q
2023-03-15 20:54:37:466,0,-54.2612,2.27214,134.345,Q,Q
2023-03-15 20:54:37:476,0,-54.2621,2.27293,134.348,Q,Q
2023-03-15 20:54:37:486,0,-54.2621,2.27418,134.347,Q,Q
2023-03-15 20:54:37:496,0,-54.2586,2.2747,134.349,Q,Q
2023-03-15 20:54:37:506,0,-54.258,2.27456,134.35,Q,Q
2023-03-15 20:54:37:516,0,-54.2582,2.27578,134.351,Q,Q
2023-03-15 20:54:37:526,0,-54.2563,2.2764,134.353,Q,Q
2023-03-15 20:54:37:536,0,-54.2576,2.27595,134.355,Q,Q
2023-03-15 20:54:37:546,0,-54.2595,2.27632,134.353,Q,Q
2023-03-15 20:54:37:556,0,-54.2608,2.27893,134.354,Q,Q
2023-03-15 20:54:37:566,0,-54.2599,2.27829,134.355,Q,Q
2023-03-15 20:54:37:576,0,-54.2627,2.28019,134.354,Q,Q
2023-03-15 20:54:37:586,0,-54.2613,2.2809,134.356,Q,Q
2023-03-15 20:54:37:596,0,-54.2643,2.28002,134.356,Q,Q
2023-03-15 20:54:37:606,0,-54.2643,2.27991,134.356,Q,Q
2023-03-15 20:54:37:616,0,-54.2617,2.27762,134.358,Q,Q
2023-03-15 20:54:37:626,0,-54.2618,2.27827,134.354,Q,Q
2023-03-15 20:54:37:636,0,-54.2613,2.28073,134.355,Q,Q
2023-03-15 20:54:37:646,0,-54.2595,2.27872,134.354,Q,Q
2023-03-15 20:54:37:656,0,-54.2628,2.27904,134.356,Q,Q
2023-03-15 20:54:37:666,0,-54.2616,2.27949,134.357,Q,Q
2023-03-15 20:54:37:676,0,-54.261,2.28029,134.356,Q,Q
2023-03-15 20:54:37:686,0,-54.2593,2.27712,134.355,Q,Q
2023-03-15 20:54:37:696,0,-54.2609,2.27886,134.357,Q,Q
2023-03-15 20:54:37:706,0,-54.2625,2.27931,134.359,Q,Q
2023-03-15 20:54:37:716,0,-54.2638,2.28113,134.359,Q,Q
2023-03-15 20:54:37:726,0,-54.2591,2.27854,134.359,Q,Q
2023-03-15 20:54:37:736,0,-54.2608,2.27736,134.359,Q,Q
2023-03-15 20:54:37:746,0,-54.2597,2.28012,134.359,Q,Q
2023-03-15 20:54:37:756,0,-54.2581,2.2829,134.359,Q,Q
2023-03-15 20:54:37:766,0,-54.2587,2.28326,134.357,Q,Q
2023-03-15 20:54:37:776,0,-54.2579,2.28492,134.359,Q,Q
2023-03-15 20:54:37:786,0,-54.2595,2.28287,134.359,Q,Q
2023-03-15 20:54:37:796,0,-54.2605,2.2815,134.363,Q,Q
2023-03-15 20:54:37:806,0,-54.2622,2.28136,134.364,Q,Q
2023-03-15 20:54:37:816,0,-54.2625,2.2788,134.367,Q,Q
2023-03-15 20:54:37:826,0,-54.2647,2.27971,134.367,Q,Q
2023-03-15 20:54:37:836,0,-54.2679,2.27674,134.369,Q,Q
2023-03-15 20:54:37:846,0,-54.2701,2.27581,134.366,Q,Q
2023-03-15 20:54:37:856,0,-54.2699,2.27392,134.365,Q,Q
2023-03-15 20:54:37:866,0,-54.2678,2.27175,134.365,Q,Q
2023-03-15 20:54:37:876,0,-54.2645,2.26916,134.364,Q,Q
2023-03-15 20:54:37:886,0,-54.2616,2.26791,134.363,Q,Q
2023-03-15 20:54:37:896,0,-54.2606,2.26515,134.363,Q,Q
2023-03-15 20:54:37:906,0,-54.2583,2.26439,134.365,Q,Q
2023-03-15 20:54:37:916,0,-54.2582,2.26393,134.364,Q,Q
2023-03-15 20:54:37:926,0,-54.2613,2.26316,134.368,Q,Q
2023-03-15 20:54:37:936,0,-54.2606,2.26102,134.365,Q,Q
2023-03-15 20:54:37:946,0,-54.2596,2.25867,134.365,Q,Q
2023-03-15 20:54:37:956,0,-54.2591,2.25924,134.361,Q,Q
2023-03-15 20:54:37:966,0,-54.2612,2.25916,134.361,Q,Q
2023-03-15 20:54:37:976,0,-54.2639,2.26316,134.361,Q,Q
2023-03-15 20:54:37:986,0,-54.2627,2.26311,134.36,Q,Q
2023-03-15 20:54:37:996,0,-54.2642,2.26528,134.358,Q,Q
2023-03-15 20:54:38:6,0,-54.2643,2.26416,134.359,Q,Q
2023-03-15 20:54:38:16,0,-54.2651,2.26285,134.358,Q,Q
2023-03-15 20:54:38:26,0,-54.2653,2.26118,134.357,Q,Q
2023-03-15 20:54:38:36,0,-54.2668,2.2594,134.359,Q,Q
2023-03-15 20:54:38:46,0,-54.2649,2.26315,134.359,Q,Q
2023-03-15 20:54:38:56,0,-54.2635,2.26178,134.357,Q,Q
2023-03-15 20:54:38:66,0,-54.2635,2.263,134.357,Q,Q
2023-03-15 20:54:38:76,0,-54.2591,2.26305,134.359,Q,Q
2023-03-15 20:54:38:86,0,-54.2585,2.26539,134.363,Q,Q
2023-03-15 20:54:38:96,0,-54.2599,2.2662,134.359,Q,Q
2023-03-15 20:54:38:106,0,-54.2564,2.26504,134.358,Q,Q
2023-03-15 20:54:38:116,0,-54.2575,2.26595,134.359,Q,Q
2023-03-15 20:54:38:126,0,-54.2567,2.26786,134.362,Q,Q
2023-03-15 20:54:38:136,0,-54.2574,2.26653,134.362,Q,Q
2023-03-15 20:54:38:146,0,-54.259,2.26521,134.363,Q,Q
2023-03-15 20:54:38:156,0,-54.2583,2.26315,134.364,Q,Q
2023-03-15 20:54:38:166,0,-54.2578,2.2641,134.365,Q,Q
2023-03-15 20:54:38:176,0,-54.2527,2.26326,134.368,Q,Q
2023-03-15 20:54:38:186,0,-54.2529,2.26268,134.369,Q,Q
2023-03-15 20:54:38:196,0,-54.2526,2.26213,134.368,Q,Q
2023-03-15 20:54:38:206,0,-54.2512,2.26099,134.369,Q,Q
2023-03-15 20:54:38:216,0,-54.2523,2.26025,134.367,Q,Q
2023-03-15 20:54:38:226,0,-54.2568,2.25758,134.369,Q,Q
2023-03-15 20:54:38:236,0,-54.2581,2.25817,134.37,Q,Q
2023-03-15 20:54:38:246,0,-54.2583,2.25586,134.37,Q,Q
2023-03-15 20:54:38:256,0,-54.2621,2.25474,134.369,Q,Q
2023-03-15 20:54:38:266,0,-54.26,2.25854,134.368,Q,Q
2023-03-15 20:54:38:276,0,-54.2539,2.26221,134.368,Q,Q
2023-03-15 20:54:38:286,0,-54.3592,2.18559,134.366,Q,Q
2023-03-15 20:54:38:296,0,-54.5298,2.13399,134.35,Q,Q
2023-03-15 20:54:38:306,0,-54.4265,2.192,134.348,Q,Q
2023-03-15 20:54:38:316,0,-54.2413,2.27528,134.369,Q,Q
2023-03-15 20:54:38:326,0,-54.258,2.26431,134.364,Q,Q
2023-03-15 20:54:38:336,0,-54.2506,2.26855,134.366,Q,Q
2023-03-15 20:54:38:346,0,-54.2558,2.26525,134.364,Q,Q
2023-03-15 20:54:38:356,0,-54.2571,2.26648,134.365,Q,Q
2023-03-15 20:54:38:366,0,-54.2573,2.26475,134.367,Q,Q
2023-03-15 20:54:38:376,0,-54.2832,2.24013,134.365,Q,Q
2023-03-15 20:54:38:386,0,-54.3054,2.2338,134.363,Q,Q
2023-03-15 20:54:38:396,0,-54.2844,2.25169,134.366,Q,Q
2023-03-15 20:54:38:406,0,-54.2694,2.26186,134.367,Q,Q
2023-03-15 20:54:38:416,0,-54.2639,2.26346,134.37,Q,Q
2023-03-15 20:54:38:426,0,-54.2683,2.26287,134.37,Q,Q
2023-03-15 20:54:38:436,0,-54.2716,2.26294,134.367,Q,Q
2023-03-15 20:54:38:446,0,-54.2686,2.26262,134.368,Q,Q
2023-03-15 20:54:38:456,0,-54.2768,2.25522,134.366,Q,Q
2023-03-15 20:54:38:466,0,-54.2771,2.25213,134.365,Q,Q
2023-03-15 20:54:38:476,0,-54.2731,2.25715,134.366,Q,Q
2023-03-15 20:54:38:486,0,-54.2782,2.25751,134.365,Q,Q
2023-03-15 20:54:38:496,0,-54.2767,2.26027,134.368,Q,Q
2023-03-15 20:54:38:506,0,-54.2771,2.25952,134.369,Q,Q
2023-03-15 20:54:38:516,0,-54.2754,2.25871,134.369,Q,Q
2023-03-15 20:54:38:526,0,-54.2758,2.26005,134.368,Q,Q
2023-03-15 20:54:38:536,0,-54.28,2.2574,134.366,Q,Q
2023-03-15 20:54:38:546,0,-54.2788,2.25725,134.363,Q,Q
2023-03-15 20:54:38:556,0,-54.2774,2.25794,134.363,Q,Q
2023-03-15 20:54:38:566,0,-54.2769,2.25887,134.364,Q,Q
2023-03-15 20:54:38:576,0,-54.277,2.26017,134.363,Q,Q
2023-03-15 20:54:38:586,0,-54.2766,2.25936,134.366,Q,Q
2023-03-15 20:54:38:596,0,-54.278,2.25752,134.365,Q,Q
2023-03-15 20:54:38:606,0,-54.2778,2.25293,134.366,Q,Q
2023-03-15 20:54:38:616,0,-54.2789,2.25514,134.369,Q,Q
2023-03-15 20:54:38:626,0,-54.2797,2.2552,134.367,Q,Q
2023-03-15 20:54:38:636,0,-54.2811,2.25752,134.362,Q,Q
2023-03-15 20:54:38:646,0,-54.2828,2.25871,134.363,Q,Q
2023-03-15 20:54:38:656,0,-54.2822,2.25863,134.364,Q,Q
2023-03-15 20:54:38:666,0,-54.2777,2.25789,134.366,Q,Q
2023-03-15 20:54:38:676,0,-54.2783,2.25619,134.363,Q,Q
2023-03-15 20:54:38:686,0,-54.2752,2.25565,134.363,Q,Q
2023-03-15 20:54:38:696,0,-54.2776,2.25462,134.361,Q,Q
2023-03-15 20:54:38:706,0,-54.2763,2.25604,134.36,Q,Q
2023-03-15 20:54:38:716,0,-54.2771,2.2555,134.361,Q,Q
2023-03-15 20:54:38:726,0,-54.2749,2.25473,134.36,Q,Q
2023-03-15 20:54:38:736,0,-54.2755,2.25458,134.357,Q,Q
2023-03-15 20:54:38:746,0,-54.2747,2.25576,134.357,Q,Q
2023-03-15 20:54:38:756,0,-54.274,2.25554,134.357,Q,Q
2023-03-15 20:54:38:766,0,-54.2742,2.25699,134.36,Q,Q
2023-03-15 20:54:38:776,0,-54.2761,2.25737,134.361,Q,Q
2023-03-15 20:54:38:786,0,-54.2749,2.25676,134.359,Q,Q
2023-03-15 20:54:38:796,0,-54.2736,2.25622,134.359,Q,Q
2023-03-15 20:54:38:806,0,-54.2731,2.2548,134.36,Q,Q
2023-03-15 20:54:38:816,0,-54.2718,2.25716,134.359,Q,Q
2023-03-15 20:54:38:826,0,-54.2748,2.25836,134.36,Q,Q
2023-03-15 20:54:38:836,0,-54.2739,2.2553,134.363,Q,Q
2023-03-15 20:54:38:846,0,-54.2735,2.25366,134.36,Q,Q
2023-03-15 20:54:38:856,0,-54.2741,2.25334,134.362,Q,Q
2023-03-15 20:54:38:866,0,-54.2731,2.25396,134.362,Q,Q
2023-03-15 20:54:38:876,0,-54.2746,2.25442,134.359,Q,Q
2023-03-15 20:54:38:886,0,-54.2738,2.25286,134.359,Q,Q
2023-03-15 20:54:38:896,0,-54.2711,2.25302,134.36,Q,Q
2023-03-15 20:54:38:906,0,-54.2683,2.25429,134.361,Q,Q
2023-03-15 20:54:38:916,0,-54.2689,2.25443,134.36,Q,Q
2023-03-15 20:54:38:926,0,-54.2703,2.2552,134.36,Q,Q
2023-03-15 20:54:38:936,0,-54.2737,2.25826,134.357,Q,Q
2023-03-15 20:54:38:946,0,-54.274,2.25795,134.356,Q,Q
2023-03-15 20:54:38:956,0,-54.2749,2.25861,134.357,Q,Q
2023-03-15 20:54:38:966,0,-54.2765,2.25988,134.356,Q,Q
2023-03-15 20:54:38:976,0,-54.2765,2.26126,134.358,Q,Q
2023-03-15 20:54:38:986,0,-54.2773,2.2637,134.358,Q,Q
2023-03-15 20:54:38:996,0,-54.2777,2.26572,134.358,Q,Q
2023-03-15 20:54:39:6,0,-54.2755,2.26703,134.359,Q,Q
2023-03-15 20:54:39:16,0,-54.2762,2.26709,134.359,Q,Q
2023-03-15 20:54:39:26,0,-54.2767,2.26786,134.362,Q,Q
2023-03-15 20:54:39:36,0,-54.2772,2.26986,134.359,Q,Q
2023-03-15 20:54:39:46,0,-54.2779,2.27261,134.357,Q,Q
2023-03-15 20:54:39:56,0,-54.2758,2.26973,134.358,Q,Q
2023-03-15 20:54:39:66,0,-54.273,2.27246,134.357,Q,Q
2023-03-15 20:54:39:76,0,-54.2717,2.27307,134.359,Q,Q
2023-03-15 20:54:39:86,0,-54.2749,2.27275,134.361,Q,Q
2023-03-15 20:54:39:96,0,-54.2808,2.27392,134.361,Q,Q
2023-03-15 20:54:39:106,0,-54.2838,2.27384,134.36,Q,Q
2023-03-15 20:54:39:116,0,-54.2849,2.27376,134.356,Q,Q
2023-03-15 20:54:39:126,0,-54.2853,2.2721,134.36,Q,Q
2023-03-15 20:54:39:136,0,-54.2864,2.27345,134.361,Q,Q
2023-03-15 20:54:39:146,0,-54.2879,2.2755,134.363,Q,Q
2023-03-15 20:54:39:156,0,-54.2888,2.27647,134.365,Q,Q
2023-03-15 20:54:39:167,0,-54.2886,2.28053,134.364,Q,Q
2023-03-15 20:54:39:176,0,-54.2865,2.28105,134.365,Q,Q
2023-03-15 20:54:39:187,0,-54.2862,2.28052,134.365,Q,Q
2023-03-15 20:54:39:196,0,-54.2893,2.28161,134.368,Q,Q
2023-03-15 20:54:39:206,0,-54.2898,2.28126,134.37,Q,Q
2023-03-15 20:54:39:216,0,-54.2906,2.28063,134.369,Q,Q
2023-03-15 20:54:39:227,0,-54.2898,2.28035,134.368,Q,Q
2023-03-15 20:54:39:236,0,-54.293,2.28214,134.366,Q,Q
2023-03-15 20:54:39:247,0,-54.2947,2.2807,134.368,Q,Q
2023-03-15 20:54:39:256,0,-54.2929,2.28024,134.37,Q,Q
2023-03-15 20:54:39:266,0,-54.2939,2.2799,134.369,Q,Q
2023-03-15 20:54:39:276,0,-54.2927,2.27861,134.371,Q,Q
2023-03-15 20:54:39:286,0,-54.2913,2.27842,134.372,Q,Q
2023-03-15 20:54:39:296,0,-54.2932,2.2795,134.372,Q,Q
2023-03-15 20:54:39:306,0,-54.2931,2.28018,134.37,Q,Q
2023-03-15 20:54:39:316,0,-54.2958,2.2795,134.368,Q,Q
2023-03-15 20:54:39:326,0,-54.2933,2.2794,134.369,Q,Q
2023-03-15 20:54:39:336,0,-54.2919,2.27678,134.368,Q,Q
2023-03-15 20:54:39:346,0,-54.2905,2.27704,134.37,Q,Q
2023-03-15 20:54:39:356,0,-54.2915,2.27534,134.372,Q,Q
2023-03-15 20:54:39:366,0,-54.292,2.27335,134.372,Q,Q
2023-03-15 20:54:39:376,0,-54.291,2.27679,134.371,Q,Q
2023-03-15 20:54:39:386,0,-54.2916,2.27072,134.37,Q,Q
2023-03-15 20:54:39:396,0,-54.2906,2.27253,134.369,Q,Q
2023-03-15 20:54:39:406,0,-54.2924,2.27367,134.37,Q,Q
2023-03-15 20:54:39:416,0,-54.295,2.27513,134.369,Q,Q
2023-03-15 20:54:39:426,0,-54.2964,2.27819,134.368,Q,Q
2023-03-15 20:54:39:436,0,-54.2942,2.27669,134.368,Q,Q
2023-03-15 20:54:39:447,0,-54.2932,2.27612,134.367,Q,Q
2023-03-15 20:54:39:456,0,-54.2931,2.2753,134.365,Q,Q
2023-03-15 20:54:39:466,0,-54.294,2.27796,134.367,Q,Q
2023-03-15 20:54:39:476,0,-54.2939,2.27852,134.366,Q,Q
2023-03-15 20:54:39:487,0,-54.2914,2.27903,134.365,Q,Q
2023-03-15 20:54:39:496,0,-54.2882,2.27915,134.366,Q,Q
2023-03-15 20:54:39:506,0,-54.2886,2.27842,134.367,Q,Q
2023-03-15 20:54:39:516,0,-54.2874,2.27993,134.367,Q,Q
2023-03-15 20:54:39:526,0,-54.287,2.28103,134.366,Q,Q
2023-03-15 20:54:39:536,0,-54.2869,2.28245,134.366,Q,Q
2023-03-15 20:54:39:546,0,-54.2908,2.28628,134.363,Q,Q
2023-03-15 20:54:39:556,0,-54.2915,2.28695,134.361,Q,Q
2023-03-15 20:54:39:567,0,-54.2917,2.28858,134.358,Q,Q
2023-03-15 20:54:39:576,0,-54.2912,2.28788,134.358,Q,Q
2023-03-15 20:54:39:586,0,-54.2909,2.2879,134.358,Q,Q
2023-03-15 20:54:39:596,0,-54.2895,2.28515,134.359,Q,Q
2023-03-15 20:54:39:607,0,-54.2897,2.28185,134.36,Q,Q
2023-03-15 20:54:39:617,0,-54.2853,2.28584,134.362,Q,Q
2023-03-15 20:54:39:627,0,-54.2884,2.28304,134.362,Q,Q
2023-03-15 20:54:39:636,0,-54.2888,2.28467,134.361,Q,Q
2023-03-15 20:54:39:647,0,-54.2876,2.28529,134.362,Q,Q
2023-03-15 20:54:39:656,0,-54.2833,2.28442,134.363,Q,Q
2023-03-15 20:54:39:667,0,-54.2842,2.28504,134.36,Q,Q
2023-03-15 20:54:39:676,0,-54.2842,2.28601,134.362,Q,Q
2023-03-15 20:54:39:686,0,-54.2851,2.28545,134.364,Q,Q
2023-03-15 20:54:39:696,0,-54.2851,2.28417,134.365,Q,Q
2023-03-15 20:54:39:707,0,-54.2837,2.28481,134.366,Q,Q
2023-03-15 20:54:39:717,0,-54.2847,2.28834,134.367,Q,Q
2023-03-15 20:54:39:727,0,-54.2846,2.29197,134.365,Q,Q
2023-03-15 20:54:39:737,0,-54.2873,2.29145,134.364,Q,Q
2023-03-15 20:54:39:747,0,-54.2865,2.29519,134.364,Q,Q
2023-03-15 20:54:39:757,0,-54.2883,2.29566,134.366,Q,Q
2023-03-15 20:54:39:767,0,-54.2905,2.2921,134.369,Q,Q
2023-03-15 20:54:39:777,0,-54.2918,2.29044,134.369,Q,Q
2023-03-15 20:54:39:787,0,-54.2936,2.29044,134.372,Q,Q
2023-03-15 20:54:39:796,0,-54.2931,2.29074,134.372,Q,Q
2023-03-15 20:54:39:807,0,-54.2901,2.29137,134.371,Q,Q
2023-03-15 20:54:39:817,0,-54.2893,2.2895,134.368,Q,Q
2023-03-15 20:54:39:827,0,-54.2922,2.28859,134.368,Q,Q
2023-03-15 20:54:39:837,0,-54.2914,2.28721,134.369,Q,Q
2023-03-15 20:54:39:846,0,-54.2919,2.28829,134.366,Q,Q
2023-03-15 20:54:39:856,0,-54.2929,2.28813,134.366,Q,Q
2023-03-15 20:54:39:866,0,-54.2935,2.28843,134.366,Q,Q
2023-03-15 20:54:39:877,0,-54.2939,2.2858,134.366,Q,Q
2023-03-15 20:54:39:887,0,-54.296,2.28692,134.362,Q,Q
2023-03-15 20:54:39:896,0,-54.2938,2.29074,134.362,Q,Q
2023-03-15 20:54:39:906,0,-54.2943,2.28904,134.361,Q,Q
2023-03-15 20:54:39:917,0,-54.297,2.28878,134.36,Q,Q
2023-03-15 20:54:39:927,0,-54.2972,2.28615,134.359,Q,Q
2023-03-15 20:54:39:936,0,-54.2981,2.28447,134.358,Q,Q
2023-03-15 20:54:39:947,0,-54.2964,2.28373,134.359,Q,Q
2023-03-15 20:54:39:956,0,-54.2989,2.2822,134.359,Q,Q
2023-03-15 20:54:39:967,0,-54.2992,2.28351,134.359,Q,Q
2023-03-15 20:54:39:977,0,-54.2988,2.28201,134.358,Q,Q
2023-03-15 20:54:39:987,0,-54.2994,2.28238,134.359,Q,Q
2023-03-15 20:54:39:997,0,-54.2985,2.28252,134.363,Q,Q
2023-03-15 20:54:40:7,0,-54.2983,2.28234,134.365,Q,Q
2023-03-15 20:54:40:17,0,-54.2984,2.28129,134.367,Q,Q
2023-03-15 20:54:40:26,0,-54.2961,2.28334,134.363,Q,Q
2023-03-15 20:54:40:37,0,-54.2969,2.28659,134.364,Q,Q
2023-03-15 20:54:40:46,0,-54.2949,2.28953,134.36,Q,Q
2023-03-15 20:54:40:56,0,-54.2966,2.29011,134.361,Q,Q
2023-03-15 20:54:40:66,0,-54.2977,2.28847,134.364,Q,Q
2023-03-15 20:54:40:77,0,-54.2982,2.28835,134.367,Q,Q
2023-03-15 20:54:40:87,0,-54.299,2.28947,134.368,Q,Q
2023-03-15 20:54:40:97,0,-54.2981,2.29115,134.369,Q,Q
2023-03-15 20:54:40:107,0,-54.2985,2.29242,134.37,Q,Q
2023-03-15 20:54:40:117,0,-54.2994,2.29716,134.37,Q,Q
2023-03-15 20:54:40:127,0,-54.3009,2.29736,134.371,Q,Q
2023-03-15 20:54:40:137,0,-54.3032,2.29957,134.368,Q,Q
2023-03-15 20:54:40:147,0,-54.3017,2.30079,134.366,Q,Q
2023-03-15 20:54:40:157,0,-54.3023,2.29762,134.366,Q,Q
2023-03-15 20:54:40:166,0,-54.3041,2.29499,134.365,Q,Q
2023-03-15 20:54:40:176,0,-54.2989,2.29688,134.365,Q,Q
2023-03-15 20:54:40:186,0,-54.2952,2.29758,134.366,Q,Q
2023-03-15 20:54:40:197,0,-54.2968,2.29804,134.364,Q,Q
2023-03-15 20:54:40:207,0,-54.2941,2.29835,134.366,Q,Q
2023-03-15 20:54:40:216,0,-54.2933,2.30159,134.362,Q,Q
2023-03-15 20:54:40:227,0,-54.2967,2.3002,134.36,Q,Q
2023-03-15 20:54:40:237,0,-54.2979,2.3,134.358,Q,Q
2023-03-15 20:54:40:247,0,-54.2986,2.29798,134.36,Q,Q
2023-03-15 20:54:40:257,0,-54.2988,2.29652,134.36,Q,Q
2023-03-15 20:54:40:267,0,-54.295,2.29534,134.359,Q,Q
2023-03-15 20:54:40:277,0,-54.2934,2.2948,134.356,Q,Q
2023-03-15 20:54:40:287,0,-54.293,2.29636,134.355,Q,Q
2023-03-15 20:54:40:296,0,-54.2912,2.29735,134.352,Q,Q
2023-03-15 20:54:40:307,0,-54.2935,2.29944,134.351,Q,Q
2023-03-15 20:54:40:316,0,-54.2985,2.29881,134.35,Q,Q
2023-03-15 20:54:40:327,0,-54.2997,2.29876,134.349,Q,Q
2023-03-15 20:54:40:337,0,-54.3029,2.29916,134.348,Q,Q
2023-03-15 20:54:40:347,0,-54.3029,2.29956,134.351,Q,Q
2023-03-15 20:54:40:356,0,-54.3042,2.29903,134.353,Q,Q
2023-03-15 20:54:40:367,0,-54.3053,2.29764,134.353,Q,Q
2023-03-15 20:54:40:377,0,-54.3088,2.3009,134.354,Q,Q
2023-03-15 20:54:40:387,0,-54.3094,2.30298,134.353,Q,Q
2023-03-15 20:54:40:397,0,-54.3098,2.30395,134.353,Q,Q
2023-03-15 20:54:40:407,0,-54.3097,2.30434,134.354,Q,Q
2023-03-15 20:54:40:416,0,-54.3097,2.30322,134.353,Q,Q
2023-03-15 20:54:40:427,0,-54.31,2.30238,134.349,Q,Q
2023-03-15 20:54:40:437,0,-54.31,2.29759,134.349,Q,Q
2023-03-15 20:54:40:447,0,-54.3085,2.30055,134.351,Q,Q
2023-03-15 20:54:40:457,0,-54.3073,2.30046,134.349,Q,Q
2023-03-15 20:54:40:467,0,-54.3095,2.29941,134.35,Q,Q
2023-03-15 20:54:40:476,0,-54.3091,2.29867,134.353,Q,Q
2023-03-15 20:54:40:487,0,-54.3105,2.2954,134.356,Q,Q
2023-03-15 20:54:40:497,0,-54.3099,2.29516,134.356,Q,Q
2023-03-15 20:54:40:507,0,-54.3097,2.29444,134.354,Q,Q
2023-03-15 20:54:40:517,0,-54.307,2.2931,134.353,Q,Q
2023-03-15 20:54:40:526,0,-54.3082,2.29329,134.353,Q,Q
2023-03-15 20:54:40:536,0,-54.3086,2.29578,134.352,Q,Q
2023-03-15 20:54:40:547,0,-54.308,2.29733,134.35,Q,Q
2023-03-15 20:54:40:556,0,-54.3073,2.29976,134.35,Q,Q
2023-03-15 20:54:40:567,0,-54.3048,2.29994,134.349,Q,Q
2023-03-15 20:54:40:577,0,-54.3043,2.29746,134.35,Q,Q
2023-03-15 20:54:40:587,0,-54.305,2.29875,134.348,Q,Q
2023-03-15 20:54:40:597,0,-54.3059,2.29788,134.347,Q,Q
2023-03-15 20:54:40:607,0,-54.3059,2.29933,134.348,Q,Q
2023-03-15 20:54:40:617,0,-54.304,2.29935,134.347,Q,Q
2023-03-15 20:54:40:627,0,-54.3036,2.29742,134.352,Q,Q
2023-03-15 20:54:40:637,0,-54.3047,2.29697,134.353,Q,Q
2023-03-15 20:54:40:647,0,-54.3025,2.29535,134.349,Q,Q
2023-03-15 20:54:40:657,0,-54.3014,2.29704,134.353,Q,Q
2023-03-15 20:54:40:667,0,-54.2995,2.29682,134.353,Q,Q
2023-03-15 20:54:40:677,0,-54.2988,2.29885,134.354,Q,Q
2023-03-15 20:54:40:687,0,-54.3013,2.29751,134.354,Q,Q
2023-03-15 20:54:40:697,0,-54.3039,2.29746,134.352,Q,Q
2023-03-15 20:54:40:707,0,-54.3013,2.29858,134.352,Q,Q
2023-03-15 20:54:40:717,0,-54.3023,2.29967,134.352,Q,Q
2023-03-15 20:54:40:727,0,-54.3035,2.30227,134.352,Q,Q
2023-03-15 20:54:40:736,0,-54.3021,2.30283,134.35,Q,Q
2023-03-15 20:54:40:747,0,-54.3041,2.30178,134.349,Q,Q
2023-03-15 20:54:40:757,0,-54.3038,2.30351,134.351,Q,Q
2023-03-15 20:54:40:767,0,-54.3054,2.30365,134.346,Q,Q
2023-03-15 20:54:40:776,0,-54.3013,2.30482,134.345,Q,Q
2023-03-15 20:54:40:787,0,-54.3013,2.30342,134.345,Q,Q
2023-03-15 20:54:40:797,0,-54.3013,2.30138,134.347,Q,Q
2023-03-15 20:54:40:807,0,-54.3014,2.29879,134.348,Q,Q
2023-03-15 20:54:40:817,0,-54.3026,2.29767,134.346,Q,Q
2023-03-15 20:54:40:827,0,-54.3016,2.29543,134.347,Q,Q
2023-03-15 20:54:40:836,0,-54.3017,2.29188,134.348,Q,Q
2023-03-15 20:54:40:847,0,-54.2998,2.29713,134.349,Q,Q
2023-03-15 20:54:40:857,0,-54.2983,2.29506,134.353,Q,Q
2023-03-15 20:54:40:866,0,-54.2979,2.29769,134.352,Q,Q
2023-03-15 20:54:40:877,0,-54.2979,2.29804,134.353,Q,Q
2023-03-15 20:54:40:887,0,-54.2973,2.2988,134.355,Q,Q
2023-03-15 20:54:40:897,0,-54.2953,2.29587,134.355,Q,Q
2023-03-15 20:54:40:907,0,-54.2945,2.29612,134.356,Q,Q
2023-03-15 20:54:40:917,0,-54.2923,2.29606,134.358,Q,Q
2023-03-15 20:54:40:927,0,-54.2908,2.29507,134.357,Q,Q
2023-03-15 20:54:40:937,0,-54.2882,2.29361,134.353,Q,Q
2023-03-15 20:54:40:947,0,-54.2888,2.29395,134.35,Q,Q
2023-03-15 20:54:40:957,0,-54.291,2.29683,134.346,Q,Q
2023-03-15 20:54:40:966,0,-54.2875,2.29762,134.345,Q,Q
2023-03-15 20:54:40:977,0,-54.2893,2.29723,134.343,Q,Q
2023-03-15 20:54:40:987,0,-54.2936,2.29623,134.345,Q,Q
2023-03-15 20:54:40:997,0,-54.2933,2.29613,134.346,Q,Q
2023-03-15 20:54:41:7,0,-54.2947,2.29694,134.344,Q,Q
2023-03-15 20:54:41:17,0,-54.2931,2.29707,134.345,Q,Q
2023-03-15 20:54:41:27,0,-54.2961,2.29764,134.343,Q,Q
2023-03-15 20:54:41:37,0,-54.2951,2.29735,134.344,Q,Q
2023-03-15 20:54:41:47,0,-54.2956,2.29725,134.345,Q,Q
2023-03-15 20:54:41:57,0,-54.2954,2.29368,134.345,Q,Q
2023-03-15 20:54:41:66,0,-54.295,2.29218,134.347,Q,Q
2023-03-15 20:54:41:76,0,-54.2931,2.29447,134.35,Q,Q
2023-03-15 20:54:41:87,0,-54.2906,2.29567,134.35,Q,Q
2023-03-15 20:54:41:96,0,-54.2922,2.29382,134.348,Q,Q
2023-03-15 20:54:41:107,0,-54.293,2.29514,134.348,Q,Q
2023-03-15 20:54:41:116,0,-54.2946,2.295,134.351,Q,Q
2023-03-15 20:54:41:127,0,-54.295,2.29504,134.35,Q,Q
2023-03-15 20:54:41:137,0,-54.2921,2.29423,134.353,Q,Q
2023-03-15 20:54:41:147,0,-54.2954,2.29154,134.351,Q,Q
2023-03-15 20:54:41:157,0,-54.2976,2.29249,134.353,Q,Q
2023-03-15 20:54:41:167,0,-54.3006,2.29341,134.357,Q,Q
2023-03-15 20:54:41:177,0,-54.298,2.29232,134.356,Q,Q
2023-03-15 20:54:41:187,0,-54.2973,2.29253,134.358,Q,Q
2023-03-15 20:54:41:197,0,-54.2975,2.29149,134.358,Q,Q
2023-03-15 20:54:41:207,0,-54.2968,2.28944,134.358,Q,Q
2023-03-15 20:54:41:217,0,-54.2962,2.29193,134.356,Q,Q
2023-03-15 20:54:41:227,0,-54.2965,2.29107,134.358,Q,Q
2023-03-15 20:54:41:237,0,-54.2992,2.29047,134.36,Q,Q
2023-03-15 20:54:41:247,0,-54.3023,2.28916,134.361,Q,Q
2023-03-15 20:54:41:257,0,-54.3039,2.28828,134.359,Q,Q
2023-03-15 20:54:41:267,0,-54.304,2.28852,134.357,Q,Q
2023-03-15 20:54:41:277,0,-54.3032,2.28872,134.359,Q,Q
2023-03-15 20:54:41:287,0,-54.3037,2.28685,134.357,Q,Q
2023-03-15 20:54:41:297,0,-54.303,2.28716,134.358,Q,Q
2023-03-15 20:54:41:307,0,-54.3007,2.2876,134.356,Q,Q
2023-03-15 20:54:41:317,0,-54.299,2.28653,134.356,Q,Q
2023-03-15 20:54:41:327,0,-54.3018,2.2851,134.355,Q,Q
2023-03-15 20:54:41:337,0,-54.3014,2.28353,134.352,Q,Q
2023-03-15 20:54:41:347,0,-54.2998,2.28642,134.351,Q,Q
2023-03-15 20:54:41:357,0,-54.2984,2.28843,134.35,Q,Q
2023-03-15 20:54:41:367,0,-54.2984,2.28759,134.354,Q,Q
2023-03-15 20:54:41:376,0,-54.2982,2.29012,134.353,Q,Q
2023-03-15 20:54:41:386,0,-54.2977,2.28958,134.355,Q,Q
2023-03-15 20:54:41:397,0,-54.2955,2.28867,134.354,Q,Q
2023-03-15 20:54:41:407,0,-54.2954,2.28979,134.352,Q,Q
2023-03-15 20:54:41:417,0,-54.297,2.28923,134.351,Q,Q
2023-03-15 20:54:41:427,0,-54.2975,2.28898,134.348,Q,Q
2023-03-15 20:54:41:437,0,-54.2948,2.28641,134.347,Q,Q
2023-03-15 20:54:41:447,0,-54.2954,2.28552,134.347,Q,Q
2023-03-15 20:54:41:457,0,-54.2951,2.28467,134.347,Q,Q
2023-03-15 20:54:41:467,0,-54.2957,2.28402,134.346,Q,Q
2023-03-15 20:54:41:477,0,-54.2937,2.28362,134.349,Q,Q
2023-03-15 20:54:41:487,0,-54.2943,2.28362,134.351,Q,Q
2023-03-15 20:54:41:497,0,-54.2929,2.28177,134.355,Q,Q
2023-03-15 20:54:41:507,0,-54.2913,2.27899,134.353,Q,Q
2023-03-15 20:54:41:517,0,-54.2898,2.28024,134.352,Q,Q
2023-03-15 20:54:41:527,0,-54.2921,2.27793,134.353,Q,Q
2023-03-15 20:54:41:537,0,-54.29,2.27865,134.353,Q,Q
2023-03-15 20:54:41:547,0,-54.2889,2.28288,134.354,Q,Q
2023-03-15 20:54:41:557,0,-54.2907,2.27977,134.355,Q,Q
2023-03-15 20:54:41:567,0,-54.2907,2.28069,134.355,Q,Q
2023-03-15 20:54:41:577,0,-54.2927,2.27888,134.352,Q,Q
2023-03-15 20:54:41:587,0,-54.2941,2.28035,134.351,Q,Q
2023-03-15 20:54:41:597,0,-54.2964,2.28034,134.353,Q,Q
2023-03-15 20:54:41:607,0,-54.2993,2.28405,134.353,Q,Q
2023-03-15 20:54:41:617,0,-54.2984,2.28397,134.352,Q,Q
2023-03-15 20:54:41:627,0,-54.2981,2.28095,134.354,Q,Q
2023-03-15 20:54:41:637,0,-54.2966,2.27905,134.354,Q,Q
2023-03-15 20:54:41:647,0,-54.2963,2.28092,134.355,Q,Q
2023-03-15 20:54:41:657,0,-54.295,2.28055,134.357,Q,Q
2023-03-15 20:54:41:667,0,-54.2938,2.27894,134.357,Q,Q
2023-03-15 20:54:41:677,0,-54.2944,2.27928,134.357,Q,Q
2023-03-15 20:54:41:687,0,-54.2938,2.27913,134.357,Q,Q
2023-03-15 20:54:41:697,0,-54.2948,2.27899,134.356,Q,Q
2023-03-15 20:54:41:707,0,-54.2923,2.28109,134.354,Q,Q
2023-03-15 20:54:41:717,0,-54.2948,2.27918,134.355,Q,Q
2023-03-15 20:54:41:727,0,-54.2941,2.27832,134.356,Q,Q
2023-03-15 20:54:41:737,0,-54.2937,2.28171,134.356,Q,Q
2023-03-15 20:54:41:747,0,-54.2931,2.28341,134.353,Q,Q
2023-03-15 20:54:41:756,0,-54.2894,2.28323,134.352,Q,Q
2023-03-15 20:54:41:767,0,-54.2898,2.28383,134.353,Q,Q
2023-03-15 20:54:41:777,0,-54.2901,2.28444,134.354,Q,Q
2023-03-15 20:54:41:787,0,-54.2897,2.2845,134.354,Q,Q
2023-03-15 20:54:41:797,0,-54.2916,2.2842,134.354,Q,Q
2023-03-15 20:54:41:807,0,-54.2937,2.28444,134.353,Q,Q
2023-03-15 20:54:41:817,0,-54.2945,2.28254,134.351,Q,Q
2023-03-15 20:54:41:827,0,-54.2921,2.28177,134.351,Q,Q
2023-03-15 20:54:41:837,0,-54.2928,2.28028,134.352,Q,Q
2023-03-15 20:54:41:847,0,-54.2931,2.27922,134.353,Q,Q
2023-03-15 20:54:41:857,0,-54.2934,2.28078,134.353,Q,Q
2023-03-15 20:54:41:867,0,-54.2952,2.28014,134.353,Q,Q
2023-03-15 20:54:41:877,0,-54.2939,2.27915,134.356,Q,Q
2023-03-15 20:54:41:887,0,-54.2921,2.28087,134.355,Q,Q
2023-03-15 20:54:41:896,0,-54.2888,2.27854,134.356,Q,Q
2023-03-15 20:54:41:906,0,-54.286,2.27855,134.356,Q,Q
2023-03-15 20:54:41:916,0,-54.2863,2.27833,134.355,Q,Q
2023-03-15 20:54:41:927,0,-54.289,2.2806,134.356,Q,Q
2023-03-15 20:54:41:937,0,-54.2908,2.28327,134.358,Q,Q
2023-03-15 20:54:41:946,0,-54.2903,2.28444,134.357,Q,Q
2023-03-15 20:54:41:957,0,-54.2894,2.28065,134.357,Q,Q
2023-03-15 20:54:41:967,0,-54.2907,2.27878,134.358,Q,Q
2023-03-15 20:54:41:977,0,-54.2918,2.27851,134.354,Q,Q
2023-03-15 20:54:41:987,0,-54.2928,2.27702,134.351,Q,Q
2023-03-15 20:54:41:997,0,-54.2969,2.27901,134.347,Q,Q
2023-03-15 20:54:42:7,0,-54.2972,2.27967,134.347,Q,Q
2023-03-15 20:54:42:17,0,-54.2993,2.2794,134.348,Q,Q
2023-03-15 20:54:42:27,0,-54.3009,2.27895,134.346,Q,Q
2023-03-15 20:54:42:37,0,-54.3008,2.28013,134.346,Q,Q
2023-03-15 20:54:42:47,0,-54.299,2.2774,134.346,Q,Q
2023-03-15 20:54:42:57,0,-54.2988,2.27398,134.346,Q,Q
2023-03-15 20:54:42:66,0,-54.2963,2.27442,134.345,Q,Q
2023-03-15 20:54:42:77,0,-54.2964,2.27281,134.347,Q,Q
2023-03-15 20:54:42:87,0,-54.2926,2.27463,134.349,Q,Q
2023-03-15 20:54:42:97,0,-54.2896,2.27266,134.346,Q,Q
2023-03-15 20:54:42:107,0,-54.2866,2.27169,134.347,Q,Q
2023-03-15 20:54:42:117,0,-54.2881,2.2726,134.348,Q,Q
2023-03-15 20:54:42:127,0,-54.2859,2.27034,134.347,Q,Q
2023-03-15 20:54:42:137,0,-54.2822,2.27172,134.347,Q,Q
2023-03-15 20:54:42:147,0,-54.2829,2.27476,134.348,Q,Q
2023-03-15 20:54:42:157,0,-54.2835,2.27796,134.343,Q,Q
2023-03-15 20:54:42:167,0,-54.2852,2.27869,134.341,Q,Q
2023-03-15 20:54:42:177,0,-54.2822,2.27759,134.339,Q,Q
2023-03-15 20:54:42:187,0,-54.2806,2.27637,134.338,Q,Q
2023-03-15 20:54:42:196,0,-54.2796,2.27417,134.34,Q,Q
2023-03-15 20:54:42:207,0,-54.2791,2.2723,134.345,Q,Q
2023-03-15 20:54:42:217,0,-54.281,2.27376,134.346,Q,Q
2023-03-15 20:54:42:227,0,-54.2822,2.2734,134.345,Q,Q
2023-03-15 20:54:42:237,0,-54.2853,2.27608,134.347,Q,Q
2023-03-15 20:54:42:247,0,-54.2845,2.27515,134.348,Q,Q
2023-03-15 20:54:42:257,0,-54.2829,2.27629,134.349,Q,Q
2023-03-15 20:54:42:267,0,-54.2854,2.2743,134.347,Q,Q
2023-03-15 20:54:42:277,0,-54.2839,2.27388,134.348,Q,Q
2023-03-15 20:54:42:287,0,-54.2829,2.27454,134.348,Q,Q
2023-03-15 20:54:42:297,0,-54.2861,2.27436,134.349,Q,Q
2023-03-15 20:54:42:307,0,-54.2863,2.27336,134.349,Q,Q
2023-03-15 20:54:42:317,0,-54.2869,2.27157,134.35,Q,Q
2023-03-15 20:54:42:327,0,-54.2885,2.27199,134.351,Q,Q
2023-03-15 20:54:42:337,0,-54.2869,2.27255,134.347,Q,Q
2023-03-15 20:54:42:347,0,-54.2866,2.27041,134.348,Q,Q
2023-03-15 20:54:42:357,0,-54.2862,2.26975,134.343,Q,Q
2023-03-15 20:54:42:367,0,-54.2851,2.26755,134.346,Q,Q
2023-03-15 20:54:42:377,0,-54.2884,2.26801,134.348,Q,Q
2023-03-15 20:54:42:387,0,-54.2901,2.26737,134.349,Q,Q
2023-03-15 20:54:42:397,0,-54.2895,2.26738,134.346,Q,Q
2023-03-15 20:54:42:406,0,-54.288,2.26677,134.346,Q,Q
2023-03-15 20:54:42:416,0,-54.2878,2.26739,134.347,Q,Q
2023-03-15 20:54:42:427,0,-54.2874,2.26864,134.346,Q,Q
2023-03-15 20:54:42:437,0,-54.2863,2.26629,134.348,Q,Q
2023-03-15 20:54:42:447,0,-54.2863,2.26876,134.348,Q,Q
2023-03-15 20:54:42:457,0,-54.2884,2.26746,134.347,Q,Q
2023-03-15 20:54:42:467,0,-54.2875,2.26961,134.347,Q,Q
2023-03-15 20:54:42:477,0,-54.2862,2.26828,134.346,Q,Q
2023-03-15 20:54:42:487,0,-54.2869,2.26731,134.344,Q,Q
2023-03-15 20:54:42:497,0,-54.2871,2.26817,134.34,Q,Q
2023-03-15 20:54:42:507,0,-54.2879,2.26682,134.338,Q,Q
2023-03-15 20:54:42:517,0,-54.2854,2.26615,134.341,Q,Q
2023-03-15 20:54:42:527,0,-54.2872,2.26639,134.339,Q,Q
2023-03-15 20:54:42:537,0,-54.2875,2.26359,134.338,Q,Q
2023-03-15 20:54:42:547,0,-54.2844,2.26331,134.339,Q,Q
2023-03-15 20:54:42:557,0,-54.2851,2.26601,134.339,Q,Q
2023-03-15 20:54:42:567,0,-54.285,2.26611,134.34,Q,Q
2023-03-15 20:54:42:577,0,-54.2852,2.26423,134.34,Q,Q
2023-03-15 20:54:42:587,0,-54.2829,2.26188,134.341,Q,Q
2023-03-15 20:54:42:597,0,-54.2846,2.26313,134.339,Q,Q
2023-03-15 20:54:42:607,0,-54.2847,2.26386,134.336,Q,Q
2023-03-15 20:54:42:617,0,-54.287,2.26541,134.334,Q,Q
2023-03-15 20:54:42:627,0,-54.2874,2.26636,134.336,Q,Q
2023-03-15 20:54:42:637,0,-54.2884,2.26971,134.337,Q,Q
2023-03-15 20:54:42:647,0,-54.2929,2.27055,134.339,Q,Q
2023-03-15 20:54:42:657,0,-54.292,2.27075,134.339,Q,Q
2023-03-15 20:54:42:667,0,-54.2893,2.27208,134.339,Q,Q
2023-03-15 20:54:42:677,0,-54.2924,2.2709,134.34,Q,Q
2023-03-15 20:54:42:687,0,-54.2884,2.27278,134.343,Q,Q
2023-03-15 20:54:42:697,0,-54.2826,2.27132,134.343,Q,Q
2023-03-15 20:54:42:707,0,-54.2804,2.27226,134.344,Q,Q
2023-03-15 20:54:42:717,0,-54.2819,2.27282,134.345,Q,Q
2023-03-15 20:54:42:727,0,-54.2794,2.27387,134.343,Q,Q
2023-03-15 20:54:42:737,0,-54.2781,2.27346,134.342,Q,Q
2023-03-15 20:54:42:747,0,-54.2749,2.27358,134.343,Q,Q
2023-03-15 20:54:42:757,0,-54.2737,2.27309,134.343,Q,Q
2023-03-15 20:54:42:767,0,-54.2727,2.27209,134.345,Q,Q
2023-03-15 20:54:42:777,0,-54.27,2.27344,134.345,Q,Q
2023-03-15 20:54:42:787,0,-54.2708,2.27281,134.345,Q,Q
2023-03-15 20:54:42:797,0,-54.2694,2.27022,134.343,Q,Q
2023-03-15 20:54:42:807,0,-54.2694,2.2706,134.343,Q,Q
2023-03-15 20:54:42:817,0,-54.2712,2.27097,134.343,Q,Q
2023-03-15 20:54:42:827,0,-54.2691,2.26991,134.344,Q,Q
2023-03-15 20:54:42:837,0,-54.2671,2.26892,134.344,Q,Q
2023-03-15 20:54:42:847,0,-54.2685,2.27049,134.343,Q,Q
2023-03-15 20:54:42:857,0,-54.2652,2.27133,134.344,Q,Q
2023-03-15 20:54:42:867,0,-54.2624,2.27226,134.343,Q,Q
2023-03-15 20:54:42:877,0,-54.2612,2.27058,134.345,Q,Q
2023-03-15 20:54:42:887,0,-54.261,2.26976,134.346,Q,Q
2023-03-15 20:54:42:897,0,-54.263,2.26916,134.346,Q,Q
2023-03-15 20:54:42:907,0,-54.2629,2.26635,134.348,Q,Q
2023-03-15 20:54:42:916,0,-54.2664,2.26916,134.349,Q,Q
2023-03-15 20:54:42:927,0,-54.2689,2.26872,134.351,Q,Q
2023-03-15 20:54:42:937,0,-54.2698,2.26702,134.355,Q,Q
2023-03-15 20:54:42:947,0,-54.2709,2.26943,134.357,Q,Q
2023-03-15 20:54:42:957,0,-54.2715,2.26749,134.356,Q,Q
2023-03-15 20:54:42:967,0,-54.2711,2.2685,134.356,Q,Q
2023-03-15 20:54:42:977,0,-54.2725,2.26678,134.357,Q,Q
2023-03-15 20:54:42:987,0,-54.2723,2.26906,134.352,Q,Q
2023-03-15 20:54:42:997,0,-54.2735,2.27213,134.355,Q,Q
2023-03-15 20:54:43:7,0,-54.2725,2.27513,134.356,Q,Q
2023-03-15 20:54:43:17,0,-54.2722,2.27622,134.357,Q,Q
2023-03-15 20:54:43:27,0,-54.2738,2.27809,134.357,Q,Q
2023-03-15 20:54:43:37,0,-54.2729,2.27814,134.358,Q,Q
2023-03-15 20:54:43:47,0,-54.2743,2.27555,134.357,Q,Q
2023-03-15 20:54:43:57,0,-54.2711,2.27626,134.356,Q,Q
2023-03-15 20:54:43:67,0,-54.2701,2.27807,134.357,Q,Q
2023-03-15 20:54:43:77,0,-54.2693,2.27891,134.357,Q,Q
2023-03-15 20:54:43:87,0,-54.2691,2.28119,134.357,Q,Q
2023-03-15 20:54:43:97,0,-54.2702,2.2779,134.356,Q,Q
2023-03-15 20:54:43:107,0,-54.2704,2.27828,134.354,Q,Q
2023-03-15 20:54:43:117,0,-54.2732,2.2814,134.349,Q,Q
2023-03-15 20:54:43:127,0,-54.2726,2.27941,134.347,Q,Q
2023-03-15 20:54:43:137,0,-54.2737,2.2788,134.35,Q,Q
2023-03-15 20:54:43:147,0,-54.2722,2.27742,134.352,Q,Q
2023-03-15 20:54:43:157,0,-54.2692,2.28021,134.353,Q,Q
2023-03-15 20:54:43:167,0,-54.2692,2.28165,134.349,Q,Q
2023-03-15 20:54:43:177,0,-54.2709,2.28019,134.346,Q,Q
2023-03-15 20:54:43:187,0,-54.2691,2.28021,134.344,Q,Q
2023-03-15 20:54:43:197,0,-54.2677,2.27969,134.343,Q,Q
2023-03-15 20:54:43:207,0,-54.2698,2.2827,134.343,Q,Q
2023-03-15 20:54:43:217,0,-54.2719,2.28165,134.347,Q,Q
2023-03-15 20:54:43:227,0,-54.272,2.28192,134.346,Q,Q
2023-03-15 20:54:43:237,0,-54.2722,2.28171,134.347,Q,Q
2023-03-15 20:54:43:247,0,-54.2686,2.27997,134.351,Q,Q
2023-03-15 20:54:43:257,0,-54.2669,2.28095,134.351,Q,Q
2023-03-15 20:54:43:267,0,-54.2707,2.27969,134.351,Q,Q
2023-03-15 20:54:43:277,0,-54.2644,2.28147,134.351,Q,Q
2023-03-15 20:54:43:287,0,-54.2637,2.28034,134.35,Q,Q
2023-03-15 20:54:43:297,0,-54.2622,2.28186,134.352,Q,Q
2023-03-15 20:54:43:307,0,-54.265,2.28216,134.354,Q,Q
2023-03-15 20:54:43:317,0,-54.2659,2.27649,134.351,Q,Q
2023-03-15 20:54:43:327,0,-54.2687,2.2748,134.351,Q,Q
2023-03-15 20:54:43:337,0,-54.2704,2.27437,134.351,Q,Q
2023-03-15 20:54:43:347,0,-54.2706,2.27894,134.347,Q,Q
2023-03-15 20:54:43:357,0,-54.2698,2.27961,134.346,Q,Q
2023-03-15 20:54:43:367,0,-54.2692,2.28097,134.347,Q,Q
2023-03-15 20:54:43:377,0,-54.2685,2.28189,134.347,Q,Q
2023-03-15 20:54:43:387,0,-54.2719,2.28028,134.35,Q,Q
2023-03-15 20:54:43:397,0,-54.2723,2.2811,134.35,Q,Q
2023-03-15 20:54:43:407,0,-54.2782,2.28168,134.35,Q,Q
2023-03-15 20:54:43:417,0,-54.278,2.28094,134.349,Q,Q
2023-03-15 20:54:43:427,0,-54.2794,2.27864,134.348,Q,Q
2023-03-15 20:54:43:437,0,-54.2805,2.27646,134.35,Q,Q
2023-03-15 20:54:43:447,0,-54.2779,2.27406,134.351,Q,Q
2023-03-15 20:54:43:457,0,-54.2806,2.27318,134.352,Q,Q
2023-03-15 20:54:43:467,0,-54.2771,2.27066,134.353,Q,Q
2023-03-15 20:54:43:477,0,-54.2779,2.26952,134.349,Q,Q
2023-03-15 20:54:43:487,0,-54.2784,2.27146,134.352,Q,Q
2023-03-15 20:54:43:497,0,-54.2757,2.27222,134.354,Q,Q
2023-03-15 20:54:43:507,0,-54.2755,2.27098,134.357,Q,Q
2023-03-15 20:54:43:517,0,-54.2762,2.27435,134.357,Q,Q
2023-03-15 20:54:43:527,0,-54.277,2.27515,134.36,Q,Q
2023-03-15 20:54:43:537,0,-54.279,2.2753,134.363,Q,Q
2023-03-15 20:54:43:547,0,-54.2834,2.2773,134.361,Q,Q
2023-03-15 20:54:43:557,0,-54.2865,2.27492,134.36,Q,Q
2023-03-15 20:54:43:567,0,-54.2839,2.27286,134.358,Q,Q
2023-03-15 20:54:43:577,0,-54.2848,2.27217,134.359,Q,Q
2023-03-15 20:54:43:587,0,-54.2812,2.27042,134.361,Q,Q
2023-03-15 20:54:43:597,0,-54.2815,2.2717,134.363,Q,Q
2023-03-15 20:54:43:607,0,-54.2817,2.27232,134.363,Q,Q
2023-03-15 20:54:43:616,0,-54.2836,2.27382,134.36,Q,Q
2023-03-15 20:54:43:627,0,-54.2847,2.27336,134.36,Q,Q
2023-03-15 20:54:43:636,0,-54.2862,2.27526,134.358,Q,Q
2023-03-15 20:54:43:647,0,-54.2887,2.2776,134.358,Q,Q
2023-03-15 20:54:43:657,0,-54.2919,2.27875,134.355,Q,Q
2023-03-15 20:54:43:667,0,-54.2914,2.2786,134.353,Q,Q
2023-03-15 20:54:43:677,0,-54.289,2.27836,134.355,Q,Q
2023-03-15 20:54:43:687,0,-54.2888,2.28176,134.354,Q,Q
2023-03-15 20:54:43:697,0,-54.2885,2.28338,134.353,Q,Q
2023-03-15 20:54:43:707,0,-54.2915,2.28632,134.352,Q,Q
2023-03-15 20:54:43:717,0,-54.2912,2.28771,134.352,Q,Q
2023-03-15 20:54:43:727,0,-54.2898,2.28708,134.352,Q,Q
2023-03-15 20:54:43:737,0,-54.2908,2.28862,134.353,Q,Q
2023-03-15 20:54:43:747,0,-54.2911,2.28856,134.352,Q,Q
2023-03-15 20:54:43:757,0,-54.2921,2.29002,134.353,Q,Q
2023-03-15 20:54:43:767,0,-54.2978,2.28845,134.354,Q,Q
2023-03-15 20:54:43:777,0,-54.2986,2.29026,134.354,Q,Q
2023-03-15 20:54:43:787,0,-54.2997,2.28949,134.353,Q,Q
2023-03-15 20:54:43:797,0,-54.3015,2.29069,134.355,Q,Q
2023-03-15 20:54:43:807,0,-54.3004,2.29148,134.354,Q,Q
2023-03-15 20:54:43:817,0,-54.3012,2.29064,134.352,Q,Q
2023-03-15 20:54:43:827,0,-54.301,2.29093,134.354,Q,Q
2023-03-15 20:54:43:837,0,-54.3008,2.28913,134.356,Q,Q
2023-03-15 20:54:43:847,0,-54.3012,2.28975,134.356,Q,Q
2023-03-15 20:54:43:857,0,-54.3003,2.28919,134.359,Q,Q
2023-03-15 20:54:43:867,0,-54.3008,2.29041,134.36,Q,Q
2023-03-15 20:54:43:877,0,-54.3003,2.29105,134.362,Q,Q
2023-03-15 20:54:43:887,0,-54.3009,2.28698,134.362,Q,Q
2023-03-15 20:54:43:897,0,-54.3023,2.2861,134.366,Q,Q
2023-03-15 20:54:43:907,0,-54.3063,2.2853,134.364,Q,Q
2023-03-15 20:54:43:917,0,-54.3049,2.28813,134.365,Q,Q
2023-03-15 20:54:43:927,0,-54.3036,2.28878,134.365,Q,Q
2023-03-15 20:54:43:937,0,-54.3003,2.28942,134.369,Q,Q
2023-03-15 20:54:43:947,0,-54.2981,2.29398,134.37,Q,Q
2023-03-15 20:54:43:957,0,-54.3001,2.29345,134.368,Q,Q
2023-03-15 20:54:43:967,0,-54.3012,2.29876,134.37,Q,Q
2023-03-15 20:54:43:977,0,-54.301,2.29843,134.37,Q,Q
2023-03-15 20:54:43:987,0,-54.304,2.29752,134.371,Q,Q
2023-03-15 20:54:43:997,0,-54.3055,2.29524,134.369,Q,Q
2023-03-15 20:54:44:7,0,-54.3034,2.29548,134.369,Q,Q
2023-03-15 20:54:44:17,0,-54.3059,2.29623,134.37,Q,Q
2023-03-15 20:54:44:27,0,-54.3065,2.29492,134.372,Q,Q
2023-03-15 20:54:44:37,0,-54.306,2.29542,134.37,Q,Q
2023-03-15 20:54:44:47,0,-54.3078,2.29359,134.37,Q,Q
2023-03-15 20:54:44:57,0,-54.3076,2.29377,134.372,Q,Q
2023-03-15 20:54:44:67,0,-54.305,2.29158,134.373,Q,Q
2023-03-15 20:54:44:77,0,-54.3049,2.29495,134.375,Q,Q
2023-03-15 20:54:44:87,0,-54.3034,2.29969,134.375,Q,Q
2023-03-15 20:54:44:97,0,-54.3037,2.30046,134.377,Q,Q
2023-03-15 20:54:44:107,0,-54.3037,2.30127,134.378,Q,Q
2023-03-15 20:54:44:117,0,-54.3067,2.30466,134.377,Q,Q
2023-03-15 20:54:44:127,0,-54.307,2.30291,134.376,Q,Q
2023-03-15 20:54:44:137,0,-54.3071,2.3027,134.378,Q,Q
2023-03-15 20:54:44:147,0,-54.3091,2.30295,134.378,Q,Q
2023-03-15 20:54:44:157,0,-54.3083,2.29947,134.379,Q,Q
2023-03-15 20:54:44:167,0,-54.3085,2.29882,134.38,Q,Q
2023-03-15 20:54:44:177,0,-54.3096,2.30153,134.38,Q,Q
2023-03-15 20:54:44:187,0,-54.3101,2.3008,134.381,Q,Q
2023-03-15 20:54:44:197,0,-54.3094,2.30205,134.381,Q,Q
2023-03-15 20:54:44:207,0,-54.3098,2.3021,134.382,Q,Q
2023-03-15 20:54:44:217,0,-54.313,2.30351,134.38,Q,Q
2023-03-15 20:54:44:227,0,-54.3115,2.30662,134.384,Q,Q
2023-03-15 20:54:44:237,0,-54.3145,2.30755,134.381,Q,Q
2023-03-15 20:54:44:247,0,-54.3162,2.304,134.38,Q,Q
2023-03-15 20:54:44:257,0,-54.3161,2.30557,134.38,Q,Q
2023-03-15 20:54:44:267,0,-54.3154,2.3067,134.381,Q,Q
2023-03-15 20:54:44:277,0,-54.316,2.31327,134.38,Q,Q
2023-03-15 20:54:44:287,0,-54.3183,2.31385,134.378,Q,Q
2023-03-15 20:54:44:297,0,-54.3177,2.3119,134.379,Q,Q
2023-03-15 20:54:44:307,0,-54.318,2.31195,134.38,Q,Q
2023-03-15 20:54:44:317,0,-54.3183,2.31175,134.379,Q,Q
2023-03-15 20:54:44:327,0,-54.3197,2.31212,134.378,Q,Q
2023-03-15 20:54:44:337,0,-54.3196,2.31075,134.376,Q,Q
2023-03-15 20:54:44:347,0,-54.3195,2.31116,134.377,Q,Q
2023-03-15 20:54:44:357,0,-54.3222,2.30972,134.376,Q,Q
2023-03-15 20:54:44:367,0,-54.322,2.31057,134.376,Q,Q
2023-03-15 20:54:44:377,0,-54.3221,2.31064,134.375,Q,Q
2023-03-15 20:54:44:387,0,-54.3201,2.30829,134.375,Q,Q
2023-03-15 20:54:44:397,0,-54.3212,2.30943,134.375,Q,Q
2023-03-15 20:54:44:407,0,-54.3207,2.31118,134.375,Q,Q
2023-03-15 20:54:44:417,0,-54.3211,2.30976,134.372,Q,Q
2023-03-15 20:54:44:427,0,-54.3214,2.31181,134.372,Q,Q
2023-03-15 20:54:44:437,0,-54.3197,2.31485,134.37,Q,Q
2023-03-15 20:54:44:446,0,-54.3201,2.31378,134.369,Q,Q
2023-03-15 20:54:44:457,0,-54.3202,2.31097,134.369,Q,Q
2023-03-15 20:54:44:467,0,-54.3213,2.31099,134.371,Q,Q
2023-03-15 20:54:44:477,0,-54.323,2.30471,134.369,Q,Q
2023-03-15 20:54:44:487,0,-54.3242,2.30309,134.368,Q,Q
2023-03-15 20:54:44:497,0,-54.3219,2.30388,134.366,Q,Q
2023-03-15 20:54:44:507,0,-54.3236,2.30669,134.367,Q,Q
2023-03-15 20:54:44:517,0,-54.3257,2.30805,134.367,Q,Q
2023-03-15 20:54:44:527,0,-54.328,2.30825,134.363,Q,Q
2023-03-15 20:54:44:537,0,-54.3286,2.30867,134.361,Q,Q
2023-03-15 20:54:44:547,0,-54.3278,2.30768,134.361,Q,Q
2023-03-15 20:54:44:557,0,-54.3251,2.30677,134.364,Q,Q
2023-03-15 20:54:44:567,0,-54.3249,2.30342,134.364,Q,Q
2023-03-15 20:54:44:577,0,-54.3246,2.30346,134.366,Q,Q
2023-03-15 20:54:44:587,0,-54.323,2.30582,134.37,Q,Q
2023-03-15 20:54:44:597,0,-54.3228,2.30649,134.37,Q,Q
2023-03-15 20:54:44:607,0,-54.322,2.3052,134.37,Q,Q
2023-03-15 20:54:44:617,0,-54.3188,2.30566,134.373,Q,Q
2023-03-15 20:54:44:627,0,-54.3172,2.30479,134.376,Q,Q
2023-03-15 20:54:44:637,0,-54.3151,2.30507,134.375,Q,Q
2023-03-15 20:54:44:647,0,-54.3168,2.30117,134.374,Q,Q
2023-03-15 20:54:44:657,0,-54.317,2.30277,134.374,Q,Q
2023-03-15 20:54:44:667,0,-54.317,2.30174,134.375,Q,Q
2023-03-15 20:54:44:677,0,-54.3155,2.30133,134.375,Q,Q
2023-03-15 20:54:44:687,0,-54.3128,2.29806,134.376,Q,Q
2023-03-15 20:54:44:697,0,-54.313,2.30103,134.374,Q,Q
2023-03-15 20:54:44:707,0,-54.314,2.30546,134.374,Q,Q
2023-03-15 20:54:44:717,0,-54.3134,2.30495,134.373,Q,Q
2023-03-15 20:54:44:727,0,-54.3095,2.30693,134.374,Q,Q
2023-03-15 20:54:44:737,0,-54.3096,2.30789,134.373,Q,Q
2023-03-15 20:54:44:747,0,-54.3096,2.30692,134.374,Q,Q
2023-03-15 20:54:44:757,0,-54.3096,2.30571,134.374,Q,Q
2023-03-15 20:54:44:767,0,-54.3096,2.30725,134.373,Q,Q
2023-03-15 20:54:44:777,0,-54.3102,2.30641,134.372,Q,Q
2023-03-15 20:54:44:787,0,-54.3079,2.30476,134.372,Q,Q
2023-03-15 20:54:44:797,0,-54.3095,2.30624,134.369,Q,Q
2023-03-15 20:54:44:807,0,-54.3066,2.30493,134.369,Q,Q
2023-03-15 20:54:44:817,0,-54.305,2.30379,134.369,Q,Q
2023-03-15 20:54:44:827,0,-54.3047,2.3027,134.369,Q,Q
2023-03-15 20:54:44:837,0,-54.3058,2.30256,134.368,Q,Q
2023-03-15 20:54:44:847,0,-54.3041,2.30137,134.371,Q,Q
2023-03-15 20:54:44:857,0,-54.3032,2.30311,134.368,Q,Q
2023-03-15 20:54:44:867,0,-54.3036,2.30077,134.366,Q,Q
2023-03-15 20:54:44:877,0,-54.3038,2.29963,134.368,Q,Q
2023-03-15 20:54:44:887,0,-54.3024,2.29716,134.371,Q,Q
2023-03-15 20:54:44:897,0,-54.3009,2.29898,134.37,Q,Q
2023-03-15 20:54:44:907,0,-54.3004,2.29924,134.37,Q,Q
2023-03-15 20:54:44:917,0,-54.2987,2.29657,134.371,Q,Q
2023-03-15 20:54:44:927,0,-54.3024,2.29504,134.372,Q,Q
2023-03-15 20:54:44:937,0,-54.3041,2.29501,134.372,Q,Q
2023-03-15 20:54:44:947,0,-54.3029,2.29633,134.372,Q,Q
2023-03-15 20:54:44:957,0,-54.3022,2.29442,134.371,Q,Q
2023-03-15 20:54:44:967,0,-54.2995,2.29636,134.373,Q,Q
2023-03-15 20:54:44:977,0,-54.3013,2.29424,134.371,Q,Q
2023-03-15 20:54:44:987,0,-54.3006,2.29168,134.373,Q,Q
2023-03-15 20:54:44:997,0,-54.2989,2.29113,134.374,Q,Q
2023-03-15 20:54:45:7,0,-54.2996,2.28892,134.375,Q,Q
2023-03-15 20:54:45:17,0,-54.2973,2.28827,134.375,Q,Q
2023-03-15 20:54:45:27,0,-54.2963,2.28841,134.376,Q,Q
2023-03-15 20:54:45:37,0,-54.2922,2.28763,134.376,Q,Q
2023-03-15 20:54:45:47,0,-54.2905,2.28802,134.375,Q,Q
2023-03-15 20:54:45:57,0,-54.2909,2.28525,134.372,Q,Q
2023-03-15 20:54:45:67,0,-54.2928,2.28422,134.37,Q,Q
2023-03-15 20:54:45:77,0,-54.2901,2.28262,134.368,Q,Q
2023-03-15 20:54:45:87,0,-54.2878,2.28384,134.371,Q,Q
2023-03-15 20:54:45:97,0,-54.2908,2.28533,134.373,Q,Q
2023-03-15 20:54:45:107,0,-54.2907,2.28408,134.373,Q,Q
2023-03-15 20:54:45:117,0,-54.2922,2.28588,134.374,Q,Q
2023-03-15 20:54:45:127,0,-54.2902,2.28721,134.375,Q,Q
2023-03-15 20:54:45:137,0,-54.2864,2.28719,134.376,Q,Q
2023-03-15 20:54:45:147,0,-54.2862,2.28843,134.377,Q,Q
2023-03-15 20:54:45:157,0,-54.2856,2.28931,134.38,Q,Q
2023-03-15 20:54:45:167,0,-54.2889,2.28904,134.378,Q,Q
2023-03-15 20:54:45:177,0,-54.2895,2.29297,134.378,Q,Q
2023-03-15 20:54:45:187,0,-54.2893,2.29429,134.378,Q,Q
2023-03-15 20:54:45:197,0,-54.2896,2.29272,134.379,Q,Q
2023-03-15 20:54:45:207,0,-54.2863,2.29262,134.379,Q,Q
