Timestamp_cmd,imu_cmd,roll_delta,pitch_delta,yaw_delta
2023-03-11 21:42:15:460,0,0.735462,-1.44073,89.6245
2023-03-11 21:42:15:469,0,0.72135,-1.44975,89.6357
2023-03-11 21:42:15:479,0,0.707276,-1.45932,89.6377
2023-03-11 21:42:15:489,0,0.692573,-1.46946,89.636
2023-03-11 21:42:15:499,0,0.672061,-1.47321,89.6379
2023-03-11 21:42:15:509,0,0.650939,-1.47715,89.6461
2023-03-11 21:42:15:519,0,0.630965,-1.48333,89.6618
2023-03-11 21:42:15:529,0,0.610922,-1.48565,89.6762
2023-03-11 21:42:15:539,0,0.595798,-1.4822,89.6857
2023-03-11 21:42:15:549,0,0.578249,-1.47527,89.6945
2023-03-11 21:42:15:559,0,0.561843,-1.46261,89.6988
2023-03-11 21:42:15:569,0,0.550649,-1.45307,89.7034
2023-03-11 21:42:15:579,0,0.543224,-1.44802,89.7106
2023-03-11 21:42:15:589,0,0.54247,-1.44443,89.7193
2023-03-11 21:42:15:599,0,0.544671,-1.43732,89.7271
2023-03-11 21:42:15:609,0,0.545384,-1.43084,89.7464
2023-03-11 21:42:15:619,0,0.549463,-1.4207,89.77
2023-03-11 21:42:15:629,0,0.54902,-1.40554,89.7874
2023-03-11 21:42:15:639,0,0.54759,-1.38329,89.807
2023-03-11 21:42:15:649,0,0.540875,-1.36732,89.8313
2023-03-11 21:42:15:659,0,0.532538,-1.36024,89.8599
2023-03-11 21:42:15:669,0,0.526597,-1.36588,89.8866
2023-03-11 21:42:15:679,0,0.53155,-1.37858,89.916
2023-03-11 21:42:15:689,0,0.547226,-1.39071,89.9396
2023-03-11 21:42:15:699,0,0.575354,-1.40788,89.9506
2023-03-11 21:42:15:709,0,0.607971,-1.41988,89.9554
2023-03-11 21:42:15:719,0,0.642691,-1.42257,89.9503
2023-03-11 21:42:15:729,0,0.67934,-1.42439,89.94
2023-03-11 21:42:15:739,0,0.717734,-1.41295,89.9199
2023-03-11 21:42:15:749,0,0.752096,-1.39834,89.8995
2023-03-11 21:42:15:759,0,0.784796,-1.384,89.879
2023-03-11 21:42:15:769,0,0.810409,-1.37127,89.8686
2023-03-11 21:42:15:779,0,0.829593,-1.36138,89.8575
2023-03-11 21:42:15:789,0,0.857445,-1.35487,89.8479
2023-03-11 21:42:15:799,0,0.890302,-1.34821,89.8458
2023-03-11 21:42:15:809,0,0.924764,-1.33936,89.8411
2023-03-11 21:42:15:819,0,0.960835,-1.3275,89.8321
2023-03-11 21:42:15:829,0,0.998968,-1.31126,89.8169
2023-03-11 21:42:15:839,0,1.03303,-1.29495,89.7997
2023-03-11 21:42:15:849,0,1.06673,-1.28245,89.784
2023-03-11 21:42:15:859,0,1.09669,-1.2682,89.767
2023-03-11 21:42:15:869,0,1.12024,-1.25915,89.7491
2023-03-11 21:42:15:879,0,1.14446,-1.24939,89.7303
2023-03-11 21:42:15:889,0,1.16495,-1.24837,89.7136
2023-03-11 21:42:15:899,0,1.18755,-1.25742,89.6967
2023-03-11 21:42:15:909,0,1.20584,-1.26609,89.6807
2023-03-11 21:42:15:919,0,1.22221,-1.27665,89.6609
2023-03-11 21:42:15:929,0,1.23404,-1.28471,89.6442
2023-03-11 21:42:15:939,0,1.24138,-1.29615,89.6287
2023-03-11 21:42:15:949,0,1.2416,-1.30315,89.6151
2023-03-11 21:42:15:959,0,1.23567,-1.30129,89.6039
2023-03-11 21:42:15:969,0,1.22293,-1.2976,89.5957
2023-03-11 21:42:15:979,0,1.21447,-1.291,89.5936
2023-03-11 21:42:15:989,0,1.20777,-1.27293,89.5957
2023-03-11 21:42:15:999,0,1.20145,-1.25506,89.6042
2023-03-11 21:42:16:9,0,1.19844,-1.2383,89.6121
2023-03-11 21:42:16:19,0,1.19904,-1.22138,89.6202
2023-03-11 21:42:16:29,0,1.20021,-1.20237,89.6264
2023-03-11 21:42:16:39,0,1.2005,-1.17944,89.6259
2023-03-11 21:42:16:49,0,1.19581,-1.16331,89.6225
2023-03-11 21:42:16:59,0,1.19374,-1.14862,89.6157
2023-03-11 21:42:16:69,0,1.19177,-1.1304,89.6013
2023-03-11 21:42:16:79,0,1.19075,-1.11673,89.5869
2023-03-11 21:42:16:89,0,1.19237,-1.10497,89.5635
2023-03-11 21:42:16:99,0,1.19317,-1.09296,89.5316
2023-03-11 21:42:16:109,0,1.19124,-1.08154,89.4971
2023-03-11 21:42:16:119,0,1.18954,-1.07414,89.4656
2023-03-11 21:42:16:129,0,1.19126,-1.0647,89.4319
2023-03-11 21:42:16:139,0,1.19256,-1.05787,89.3989
2023-03-11 21:42:16:149,0,1.19008,-1.05403,89.3665
2023-03-11 21:42:16:159,0,1.19482,-1.04873,89.3361
2023-03-11 21:42:16:169,0,1.19825,-1.04151,89.305
2023-03-11 21:42:16:179,0,1.20064,-1.02905,89.2736
2023-03-11 21:42:16:189,0,1.20744,-1.01869,89.2445
2023-03-11 21:42:16:199,0,1.21015,-1.00487,89.2135
2023-03-11 21:42:16:209,0,1.20834,-0.989886,89.1841
2023-03-11 21:42:16:219,0,1.21323,-0.975396,89.1555
2023-03-11 21:42:16:229,0,1.21971,-0.967349,89.1317
2023-03-11 21:42:16:239,0,1.22844,-0.959656,89.1038
2023-03-11 21:42:16:249,0,1.23567,-0.949772,89.0781
2023-03-11 21:42:16:259,0,1.24025,-0.941589,89.058
2023-03-11 21:42:16:269,0,1.23701,-0.934337,89.0402
2023-03-11 21:42:16:279,0,1.2294,-0.927355,89.0333
2023-03-11 21:42:16:289,0,1.21709,-0.915281,89.0258
2023-03-11 21:42:16:299,0,1.20738,-0.899281,89.0212
2023-03-11 21:42:16:309,0,1.19949,-0.876838,89.015
2023-03-11 21:42:16:319,0,1.18928,-0.849987,89.0085
2023-03-11 21:42:16:329,0,1.18226,-0.823824,89.0
2023-03-11 21:42:16:339,0,1.175,-0.796274,88.9934
2023-03-11 21:42:16:349,0,1.16972,-0.773324,88.9877
2023-03-11 21:42:16:359,0,1.1628,-0.752214,88.9912
2023-03-11 21:42:16:369,0,1.15384,-0.737469,88.9945
2023-03-11 21:42:16:379,0,1.14304,-0.725281,88.9987
2023-03-11 21:42:16:389,0,1.12816,-0.708786,88.9971
2023-03-11 21:42:16:399,0,1.11863,-0.694121,88.9899
2023-03-11 21:42:16:409,0,1.10691,-0.684713,88.9862
2023-03-11 21:42:16:419,0,1.09045,-0.675386,88.9836
2023-03-11 21:42:16:429,0,1.0714,-0.662862,88.9827
2023-03-11 21:42:16:439,0,1.04519,-0.648671,88.9845
2023-03-11 21:42:16:449,0,1.01553,-0.632813,88.996
2023-03-11 21:42:16:459,0,0.983256,-0.61488,89.0072
2023-03-11 21:42:16:469,0,0.95343,-0.594873,89.0211
2023-03-11 21:42:16:479,0,0.923845,-0.572196,89.0404
2023-03-11 21:42:16:489,0,0.89585,-0.551658,89.0606
2023-03-11 21:42:16:499,0,0.869442,-0.536741,89.0815
2023-03-11 21:42:16:509,0,0.846675,-0.527175,89.0996
2023-03-11 21:42:16:519,0,0.828792,-0.515839,89.1162
2023-03-11 21:42:16:529,0,0.808265,-0.497531,89.1298
2023-03-11 21:42:16:539,0,0.791303,-0.475538,89.1397
2023-03-11 21:42:16:549,0,0.768983,-0.447518,89.1459
2023-03-11 21:42:16:559,0,0.744279,-0.416183,89.1562
2023-03-11 21:42:16:569,0,0.709984,-0.384952,89.1748
2023-03-11 21:42:16:579,0,0.665503,-0.354382,89.2008
2023-03-11 21:42:16:589,0,0.618468,-0.332256,89.2341
2023-03-11 21:42:16:599,0,0.571111,-0.318427,89.2763
2023-03-11 21:42:16:609,0,0.524756,-0.306526,89.3205
2023-03-11 21:42:16:619,0,0.491008,-0.300815,89.3614
2023-03-11 21:42:16:629,0,0.465357,-0.301322,89.3954
2023-03-11 21:42:16:639,0,0.454363,-0.304545,89.4236
2023-03-11 21:42:16:649,0,0.447916,-0.316228,89.4429
2023-03-11 21:42:16:659,0,0.441402,-0.332367,89.4595
2023-03-11 21:42:16:669,0,0.435477,-0.34752,89.4607
2023-03-11 21:42:16:679,0,0.421788,-0.354967,89.4471
2023-03-11 21:42:16:689,0,0.410221,-0.352278,89.4173
2023-03-11 21:42:16:699,0,0.391292,-0.346588,89.3796
2023-03-11 21:42:16:709,0,0.364624,-0.331455,89.3361
2023-03-11 21:42:16:719,0,0.333357,-0.315631,89.3012
2023-03-11 21:42:16:729,0,0.288764,-0.300352,89.2717
2023-03-11 21:42:16:739,0,0.241724,-0.285034,89.2471
2023-03-11 21:42:16:749,0,0.185617,-0.267711,89.233
2023-03-11 21:42:16:759,0,0.125522,-0.251636,89.2291
2023-03-11 21:42:16:769,0,0.0615887,-0.235841,89.2345
2023-03-11 21:42:16:779,0,0.00144978,-0.226502,89.2524
2023-03-11 21:42:16:789,0,-0.0610088,-0.219763,89.2773
2023-03-11 21:42:16:799,0,-0.11027,-0.218189,89.3083
2023-03-11 21:42:16:809,0,-0.157426,-0.223219,89.3397
2023-03-11 21:42:16:819,0,-0.192199,-0.233114,89.3744
2023-03-11 21:42:16:829,0,-0.218968,-0.24582,89.4036
2023-03-11 21:42:16:839,0,-0.236698,-0.255555,89.4343
2023-03-11 21:42:16:849,0,-0.242373,-0.268017,89.4618
2023-03-11 21:42:16:859,0,-0.236678,-0.279007,89.4845
2023-03-11 21:42:16:869,0,-0.224625,-0.292696,89.5079
2023-03-11 21:42:16:879,0,-0.204143,-0.302355,89.5249
2023-03-11 21:42:16:889,0,-0.177394,-0.319151,89.5439
2023-03-11 21:42:16:899,0,-0.140947,-0.339124,89.5493
2023-03-11 21:42:16:909,0,-0.099244,-0.35605,89.5494
2023-03-11 21:42:16:919,0,-0.0541088,-0.373465,89.5429
2023-03-11 21:42:16:929,0,-0.00849464,-0.393756,89.5333
2023-03-11 21:42:16:939,0,0.0348175,-0.410445,89.5237
2023-03-11 21:42:16:949,0,0.0814197,-0.427152,89.5144
2023-03-11 21:42:16:959,0,0.121434,-0.444582,89.5022
2023-03-11 21:42:16:969,0,0.165016,-0.464401,89.4858
2023-03-11 21:42:16:979,0,0.208538,-0.485706,89.4641
2023-03-11 21:42:16:989,0,0.247844,-0.507934,89.4363
2023-03-11 21:42:16:999,0,0.285009,-0.533362,89.4066
2023-03-11 21:42:17:9,0,0.318759,-0.55987,89.3761
2023-03-11 21:42:17:19,0,0.357874,-0.589527,89.3424
2023-03-11 21:42:17:29,0,0.39807,-0.610317,89.3042
2023-03-11 21:42:17:39,0,0.442289,-0.63771,89.2622
2023-03-11 21:42:17:49,0,0.48591,-0.663486,89.214
2023-03-11 21:42:17:59,0,0.530511,-0.689805,89.1589
2023-03-11 21:42:17:69,0,0.578411,-0.714906,89.1007
2023-03-11 21:42:17:79,0,0.626949,-0.733178,89.0352
2023-03-11 21:42:17:89,0,0.682754,-0.753376,88.9678
2023-03-11 21:42:17:99,0,0.741323,-0.768684,88.9013
2023-03-11 21:42:17:109,0,0.801471,-0.788243,88.8304
2023-03-11 21:42:17:119,0,0.866956,-0.803682,88.7534
2023-03-11 21:42:17:129,0,0.932991,-0.817552,88.6826
2023-03-11 21:42:17:139,0,0.997927,-0.831384,88.6151
2023-03-11 21:42:17:149,0,1.05922,-0.847831,88.5474
2023-03-11 21:42:17:159,0,1.1149,-0.866448,88.4863
2023-03-11 21:42:17:169,0,1.16783,-0.885672,88.431
2023-03-11 21:42:17:179,0,1.21485,-0.904883,88.3823
2023-03-11 21:42:17:189,0,1.26538,-0.921908,88.3398
2023-03-11 21:42:17:199,0,1.3159,-0.936298,88.2974
2023-03-11 21:42:17:209,0,1.36308,-0.950032,88.2617
2023-03-11 21:42:17:219,0,1.41017,-0.962669,88.2387
2023-03-11 21:42:17:229,0,1.44957,-0.973313,88.2236
2023-03-11 21:42:17:239,0,1.48495,-0.982681,88.2117
2023-03-11 21:42:17:249,0,1.51416,-0.986984,88.1996
2023-03-11 21:42:17:259,0,1.53624,-0.987817,88.1862
2023-03-11 21:42:17:269,0,1.55571,-0.990835,88.1776
2023-03-11 21:42:17:279,0,1.5703,-0.995457,88.1704
2023-03-11 21:42:17:289,0,1.58203,-1.0021,88.1715
2023-03-11 21:42:17:299,0,1.58558,-1.00621,88.1765
2023-03-11 21:42:17:309,0,1.58277,-1.00989,88.1882
2023-03-11 21:42:17:319,0,1.56881,-1.01503,88.2033
2023-03-11 21:42:17:329,0,1.54656,-1.01784,88.2179
2023-03-11 21:42:17:339,0,1.52649,-1.02257,88.2363
2023-03-11 21:42:17:349,0,1.50168,-1.01867,88.2544
2023-03-11 21:42:17:359,0,1.47796,-1.01055,88.2713
2023-03-11 21:42:17:369,0,1.45429,-1.00441,88.2924
2023-03-11 21:42:17:379,0,1.43216,-1.00436,88.318
2023-03-11 21:42:17:389,0,1.41124,-1.00546,88.3402
2023-03-11 21:42:17:399,0,1.39137,-1.00197,88.3691
2023-03-11 21:42:17:409,0,1.36498,-1.00304,88.3917
2023-03-11 21:42:17:419,0,1.33654,-1.00297,88.4138
2023-03-11 21:42:17:429,0,1.31132,-0.999992,88.434
2023-03-11 21:42:17:439,0,1.29131,-0.99614,88.4437
2023-03-11 21:42:17:449,0,1.27552,-0.988633,88.4512
2023-03-11 21:42:17:459,0,1.26289,-0.986215,88.4578
2023-03-11 21:42:17:469,0,1.25416,-0.99365,88.465
2023-03-11 21:42:17:479,0,1.24685,-0.996524,88.4702
2023-03-11 21:42:17:489,0,1.23164,-1.00555,88.4767
2023-03-11 21:42:17:499,0,1.21015,-1.01373,88.4838
2023-03-11 21:42:17:509,0,1.19015,-1.02079,88.4986
2023-03-11 21:42:17:519,0,1.17329,-1.02568,88.5095
2023-03-11 21:42:17:529,0,1.16259,-1.02933,88.5277
2023-03-11 21:42:17:539,0,1.14978,-1.03209,88.5448
2023-03-11 21:42:17:549,0,1.14284,-1.0361,88.5716
2023-03-11 21:42:17:559,0,1.13297,-1.04187,88.6028
2023-03-11 21:42:17:569,0,1.12293,-1.05186,88.6407
2023-03-11 21:42:17:579,0,1.11188,-1.06396,88.6797
2023-03-11 21:42:17:589,0,1.09904,-1.07539,88.7241
2023-03-11 21:42:17:599,0,1.08669,-1.0912,88.7681
2023-03-11 21:42:17:609,0,1.07835,-1.1092,88.8157
2023-03-11 21:42:17:619,0,1.07556,-1.13282,88.8608
2023-03-11 21:42:17:629,0,1.07876,-1.16313,88.9074
2023-03-11 21:42:17:639,0,1.08929,-1.19064,88.9484
2023-03-11 21:42:17:649,0,1.1006,-1.22032,88.9875
2023-03-11 21:42:17:659,0,1.10967,-1.25532,89.0271
2023-03-11 21:42:17:669,0,1.11233,-1.28603,89.0734
2023-03-11 21:42:17:679,0,1.11316,-1.30858,89.1235
2023-03-11 21:42:17:689,0,1.11122,-1.31833,89.1744
2023-03-11 21:42:17:699,0,1.10801,-1.32246,89.2336
2023-03-11 21:42:17:709,0,1.10237,-1.31776,89.3032
2023-03-11 21:42:17:719,0,1.10121,-1.31236,89.3719
2023-03-11 21:42:17:729,0,1.1054,-1.30968,89.4398
2023-03-11 21:42:17:739,0,1.10892,-1.30404,89.5072
2023-03-11 21:42:17:749,0,1.1153,-1.30435,89.5739
2023-03-11 21:42:17:759,0,1.12124,-1.29939,89.6387
2023-03-11 21:42:17:769,0,1.13273,-1.29886,89.7098
2023-03-11 21:42:17:779,0,1.14718,-1.29655,89.7784
2023-03-11 21:42:17:789,0,1.15994,-1.28753,89.8451
2023-03-11 21:42:17:799,0,1.17315,-1.27338,89.9047
2023-03-11 21:42:17:809,0,1.18932,-1.25696,89.9592
2023-03-11 21:42:17:819,0,1.21018,-1.2341,90.009
2023-03-11 21:42:17:829,0,1.23737,-1.21001,90.0522
2023-03-11 21:42:17:839,0,1.26637,-1.17995,90.0927
2023-03-11 21:42:17:849,0,1.29655,-1.14575,90.1278
2023-03-11 21:42:17:859,0,1.32683,-1.10968,90.1634
2023-03-11 21:42:17:869,0,1.35778,-1.06683,90.1926
2023-03-11 21:42:17:879,0,1.38747,-1.01905,90.2203
2023-03-11 21:42:17:889,0,1.40911,-0.967969,90.2499
2023-03-11 21:42:17:899,0,1.42318,-0.913751,90.2806
2023-03-11 21:42:17:909,0,1.43029,-0.865929,90.3103
2023-03-11 21:42:17:919,0,1.44413,-0.81257,90.344
2023-03-11 21:42:17:929,0,1.46139,-0.757293,90.3717
2023-03-11 21:42:17:939,0,1.48984,-0.70314,90.3964
2023-03-11 21:42:17:949,0,1.5222,-0.649097,90.4174
2023-03-11 21:42:17:959,0,1.5652,-0.596137,90.4374
2023-03-11 21:42:17:969,0,1.61013,-0.542758,90.4566
2023-03-11 21:42:17:979,0,1.64263,-0.488451,90.459
2023-03-11 21:42:17:989,0,1.67963,-0.428848,90.4522
2023-03-11 21:42:17:999,0,1.70988,-0.37592,90.4412
2023-03-11 21:42:18:9,0,1.73391,-0.32866,90.4484
2023-03-11 21:42:18:19,0,1.78196,-0.360847,90.5876
2023-03-11 21:42:18:29,0,1.79942,-0.389303,90.6695
2023-03-11 21:42:18:39,0,1.82367,-0.373535,90.6943
2023-03-11 21:42:18:49,0,1.85033,-0.345884,90.7148
2023-03-11 21:42:18:59,0,1.88036,-0.324765,90.7475
2023-03-11 21:42:18:69,0,1.91079,-0.312495,90.8054
2023-03-11 21:42:18:79,0,1.94047,-0.298361,90.8611
2023-03-11 21:42:18:89,0,1.97591,-0.279495,90.9197
2023-03-11 21:42:18:99,0,2.00894,-0.255718,90.9847
2023-03-11 21:42:18:109,0,2.04111,-0.228289,91.055
2023-03-11 21:42:18:119,0,2.06745,-0.192773,91.1323
2023-03-11 21:42:18:129,0,2.09145,-0.151471,91.2129
2023-03-11 21:42:18:139,0,2.11093,-0.0990424,91.2922
2023-03-11 21:42:18:149,0,2.12407,-0.0392091,91.3702
2023-03-11 21:42:18:159,0,2.12766,0.0266866,91.4487
2023-03-11 21:42:18:169,0,2.12774,0.0989115,91.5216
2023-03-11 21:42:18:179,0,2.12312,0.176143,91.5872
2023-03-11 21:42:18:189,0,2.11498,0.252246,91.6468
2023-03-11 21:42:18:199,0,2.10622,0.328164,91.6997
2023-03-11 21:42:18:209,0,2.09646,0.399451,91.7421
2023-03-11 21:42:18:219,0,2.08458,0.467127,91.7758
2023-03-11 21:42:18:229,0,2.07838,0.523962,91.8027
2023-03-11 21:42:18:239,0,2.07032,0.574614,91.8266
2023-03-11 21:42:18:249,0,2.06586,0.621188,91.8434
2023-03-11 21:42:18:259,0,2.05766,0.65544,91.8567
2023-03-11 21:42:18:269,0,2.05314,0.67118,91.8719
2023-03-11 21:42:18:279,0,2.04865,0.675084,91.8968
2023-03-11 21:42:18:289,0,2.04255,0.660664,91.9281
2023-03-11 21:42:18:299,0,2.03176,0.642258,91.9621
2023-03-11 21:42:18:309,0,2.0151,0.618385,91.9942
2023-03-11 21:42:18:319,0,1.9971,0.603947,92.0232
2023-03-11 21:42:18:329,0,1.97762,0.59491,92.0415
2023-03-11 21:42:18:339,0,1.97448,0.578683,92.0515
2023-03-11 21:42:18:349,0,1.98692,0.548609,92.0643
2023-03-11 21:42:18:359,0,2.0151,0.499885,92.0905
2023-03-11 21:42:18:369,0,2.05423,0.435366,92.1367
2023-03-11 21:42:18:379,0,2.09722,0.359017,92.1937
2023-03-11 21:42:18:389,0,2.13626,0.289465,92.2602
2023-03-11 21:42:18:399,0,2.16912,0.237151,92.3278
2023-03-11 21:42:18:409,0,2.18466,0.20349,92.3872
2023-03-11 21:42:18:419,0,2.18474,0.19423,92.4286
2023-03-11 21:42:18:429,0,2.1808,0.20558,92.4438
2023-03-11 21:42:18:439,0,2.17095,0.231769,92.4388
2023-03-11 21:42:18:449,0,2.15617,0.257927,92.4152
2023-03-11 21:42:18:459,0,2.15002,0.280129,92.3832
2023-03-11 21:42:18:469,0,2.14295,0.291774,92.3518
2023-03-11 21:42:18:479,0,2.1312,0.293483,92.3232
2023-03-11 21:42:18:489,0,2.11356,0.301439,92.2923
2023-03-11 21:42:18:499,0,2.08524,0.313444,92.2553
2023-03-11 21:42:18:509,0,2.04983,0.332665,92.2081
2023-03-11 21:42:18:519,0,2.01776,0.363274,92.1437
2023-03-11 21:42:18:529,0,1.98842,0.398358,92.0703
2023-03-11 21:42:18:539,0,1.96875,0.426106,91.9883
2023-03-11 21:42:18:549,0,1.9544,0.431745,91.9147
2023-03-11 21:42:18:559,0,1.94463,0.420768,91.8492
2023-03-11 21:42:18:569,0,1.93807,0.409793,91.7885
2023-03-11 21:42:18:579,0,1.93297,0.402405,91.7216
2023-03-11 21:42:18:589,0,1.92726,0.398888,91.6494
2023-03-11 21:42:18:599,0,1.91772,0.393091,91.5783
2023-03-11 21:42:18:609,0,1.90591,0.379935,91.5059
2023-03-11 21:42:18:619,0,1.89497,0.355324,91.4382
2023-03-11 21:42:18:629,0,1.88557,0.310136,91.3852
2023-03-11 21:42:18:639,0,1.87725,0.251749,91.3454
2023-03-11 21:42:18:649,0,1.86685,0.186642,91.3188
2023-03-11 21:42:18:659,0,1.85422,0.129572,91.2976
2023-03-11 21:42:18:669,0,1.8346,0.0924755,91.2707
2023-03-11 21:42:18:679,0,1.80844,0.0712529,91.2376
2023-03-11 21:42:18:689,0,1.78,0.0643969,91.198
2023-03-11 21:42:18:699,0,1.75207,0.0670009,91.1597
2023-03-11 21:42:18:709,0,1.72559,0.0733914,91.1206
2023-03-11 21:42:18:719,0,1.703,0.0832911,91.0824
2023-03-11 21:42:18:729,0,1.67466,0.0894489,91.0456
2023-03-11 21:42:18:739,0,1.64475,0.0876494,91.0156
2023-03-11 21:42:18:749,0,1.6124,0.0901704,90.9931
2023-03-11 21:42:18:759,0,1.5789,0.0972701,90.9676
2023-03-11 21:42:18:769,0,1.54611,0.111583,90.9427
2023-03-11 21:42:18:779,0,1.51935,0.12821,90.9174
2023-03-11 21:42:18:789,0,1.496,0.150974,90.8864
2023-03-11 21:42:18:799,0,1.47536,0.172493,90.8561
2023-03-11 21:42:18:809,0,1.4571,0.192406,90.8301
2023-03-11 21:42:18:819,0,1.44233,0.211532,90.8063
2023-03-11 21:42:18:829,0,1.42699,0.227344,90.7824
2023-03-11 21:42:18:839,0,1.41216,0.238086,90.7632
2023-03-11 21:42:18:849,0,1.39996,0.247516,90.7565
2023-03-11 21:42:18:859,0,1.38542,0.254902,90.7583
2023-03-11 21:42:18:869,0,1.35933,0.259421,90.7686
2023-03-11 21:42:18:879,0,1.32906,0.269468,90.7794
2023-03-11 21:42:18:889,0,1.29225,0.290986,90.7883
2023-03-11 21:42:18:899,0,1.25234,0.319824,90.7917
2023-03-11 21:42:18:909,0,1.21179,0.356405,90.7835
2023-03-11 21:42:18:919,0,1.17403,0.392438,90.7692
2023-03-11 21:42:18:929,0,1.14224,0.419145,90.7547
2023-03-11 21:42:18:939,0,1.11516,0.436165,90.7438
2023-03-11 21:42:18:949,0,1.09266,0.446229,90.7384
2023-03-11 21:42:18:959,0,1.07236,0.454376,90.7404
2023-03-11 21:42:18:969,0,1.05434,0.46215,90.7389
2023-03-11 21:42:18:979,0,1.04055,0.469597,90.7388
2023-03-11 21:42:18:989,0,1.02421,0.472151,90.7437
2023-03-11 21:42:18:999,0,1.00977,0.471441,90.7566
2023-03-11 21:42:19:9,0,0.997074,0.464078,90.7689
2023-03-11 21:42:19:19,0,0.990078,0.45926,90.7759
2023-03-11 21:42:19:29,0,0.991207,0.456579,90.7765
2023-03-11 21:42:19:39,0,0.997995,0.447004,90.7828
2023-03-11 21:42:19:49,0,1.0137,0.426513,90.7954
2023-03-11 21:42:19:59,0,1.03296,0.394417,90.8122
2023-03-11 21:42:19:69,0,1.05743,0.354433,90.8335
2023-03-11 21:42:19:79,0,1.08389,0.305871,90.8607
2023-03-11 21:42:19:89,0,1.11035,0.25838,90.8888
2023-03-11 21:42:19:99,0,1.1304,0.211102,90.9182
2023-03-11 21:42:19:109,0,1.14483,0.165039,90.9455
2023-03-11 21:42:19:119,0,1.15705,0.123434,90.9703
2023-03-11 21:42:19:129,0,1.16822,0.0920368,90.991
2023-03-11 21:42:19:139,0,1.17606,0.0590909,91.0126
2023-03-11 21:42:19:149,0,1.17634,0.0294128,91.036
2023-03-11 21:42:19:159,0,1.17467,-0.00599916,91.0629
2023-03-11 21:42:19:169,0,1.16477,-0.0398205,91.0886
2023-03-11 21:42:19:179,0,1.1506,-0.0735002,91.1168
2023-03-11 21:42:19:189,0,1.13891,-0.104438,91.1435
2023-03-11 21:42:19:199,0,1.13176,-0.139717,91.1669
2023-03-11 21:42:19:209,0,1.12905,-0.176737,91.1832
2023-03-11 21:42:19:219,0,1.12718,-0.217467,91.2052
2023-03-11 21:42:19:229,0,1.12184,-0.258399,91.2254
2023-03-11 21:42:19:239,0,1.11841,-0.292237,91.2481
2023-03-11 21:42:19:249,0,1.11649,-0.322428,91.2654
2023-03-11 21:42:19:259,0,1.10997,-0.350512,91.2832
2023-03-11 21:42:19:269,0,1.09933,-0.372991,91.2978
2023-03-11 21:42:19:279,0,1.08792,-0.393092,91.3112
2023-03-11 21:42:19:289,0,1.07636,-0.413866,91.3259
2023-03-11 21:42:19:299,0,1.07563,-0.428419,91.3386
2023-03-11 21:42:19:309,0,1.07511,-0.44385,91.3532
2023-03-11 21:42:19:319,0,1.07465,-0.458649,91.3707
2023-03-11 21:42:19:329,0,1.07348,-0.470884,91.3929
2023-03-11 21:42:19:339,0,1.07437,-0.484031,91.4164
2023-03-11 21:42:19:349,0,1.07152,-0.497043,91.4458
2023-03-11 21:42:19:359,0,1.06431,-0.508648,91.4747
2023-03-11 21:42:19:369,0,1.05456,-0.520253,91.507
2023-03-11 21:42:19:379,0,1.03883,-0.525442,91.5426
2023-03-11 21:42:19:389,0,1.02357,-0.529813,91.5742
2023-03-11 21:42:19:399,0,1.01563,-0.532642,91.6041
2023-03-11 21:42:19:409,0,1.00894,-0.537757,91.6328
2023-03-11 21:42:19:419,0,1.00398,-0.549009,91.6621
2023-03-11 21:42:19:429,0,0.996503,-0.562896,91.6942
2023-03-11 21:42:19:439,0,0.986866,-0.576309,91.7291
2023-03-11 21:42:19:449,0,0.971647,-0.589585,91.7619
2023-03-11 21:42:19:459,0,0.950249,-0.598703,91.7925
2023-03-11 21:42:19:469,0,0.926718,-0.606449,91.8257
2023-03-11 21:42:19:479,0,0.900564,-0.61596,91.863
2023-03-11 21:42:19:489,0,0.8702,-0.623115,91.9009
2023-03-11 21:42:19:499,0,0.843331,-0.625975,91.9363
2023-03-11 21:42:19:509,0,0.821137,-0.630633,91.9704
2023-03-11 21:42:19:519,0,0.795618,-0.634304,92.0002
2023-03-11 21:42:19:529,0,0.76875,-0.640186,92.0243
2023-03-11 21:42:19:539,0,0.742576,-0.645557,92.0472
2023-03-11 21:42:19:549,0,0.714404,-0.649547,92.0642
2023-03-11 21:42:19:559,0,0.68887,-0.655298,92.0796
2023-03-11 21:42:19:569,0,0.668461,-0.663488,92.095
2023-03-11 21:42:19:579,0,0.648387,-0.673668,92.1099
2023-03-11 21:42:19:589,0,0.631804,-0.687911,92.1298
2023-03-11 21:42:19:599,0,0.620974,-0.706881,92.1554
2023-03-11 21:42:19:609,0,0.613129,-0.724961,92.192
2023-03-11 21:42:19:619,0,0.605683,-0.747175,92.2305
2023-03-11 21:42:19:629,0,0.59282,-0.771017,92.2707
2023-03-11 21:42:19:639,0,0.575832,-0.789939,92.3105
2023-03-11 21:42:19:649,0,0.549894,-0.804506,92.3477
2023-03-11 21:42:19:659,0,0.519025,-0.814909,92.3808
2023-03-11 21:42:19:669,0,0.485386,-0.825131,92.4077
2023-03-11 21:42:19:679,0,0.451187,-0.830992,92.4309
2023-03-11 21:42:19:689,0,0.414708,-0.839826,92.4489
2023-03-11 21:42:19:699,0,0.382382,-0.850469,92.4605
2023-03-11 21:42:19:709,0,0.355776,-0.858915,92.4742
2023-03-11 21:42:19:719,0,0.327383,-0.864075,92.4869
2023-03-11 21:42:19:729,0,0.301713,-0.867778,92.4994
2023-03-11 21:42:19:739,0,0.280405,-0.867558,92.5125
2023-03-11 21:42:19:749,0,0.267966,-0.863904,92.5194
2023-03-11 21:42:19:759,0,0.26198,-0.85647,92.5236
2023-03-11 21:42:19:769,0,0.25709,-0.848125,92.526
2023-03-11 21:42:19:779,0,0.258234,-0.840467,92.5238
2023-03-11 21:42:19:789,0,0.26566,-0.830982,92.5202
2023-03-11 21:42:19:799,0,0.27573,-0.821254,92.5122
2023-03-11 21:42:19:809,0,0.285753,-0.811091,92.4956
2023-03-11 21:42:19:819,0,0.302648,-0.803785,92.4781
2023-03-11 21:42:19:829,0,0.319949,-0.796643,92.4586
2023-03-11 21:42:19:839,0,0.339477,-0.794333,92.4373
2023-03-11 21:42:19:849,0,0.355823,-0.786122,92.4178
2023-03-11 21:42:19:859,0,0.368681,-0.770146,92.396
2023-03-11 21:42:19:869,0,0.383035,-0.75922,92.375
2023-03-11 21:42:19:879,0,0.398762,-0.747838,92.3518
2023-03-11 21:42:19:889,0,0.410875,-0.741285,92.3361
2023-03-11 21:42:19:899,0,0.424626,-0.734268,92.3258
2023-03-11 21:42:19:909,0,0.437559,-0.725254,92.312
2023-03-11 21:42:19:919,0,0.446756,-0.716384,92.3011
2023-03-11 21:42:19:929,0,0.454372,-0.706868,92.2918
2023-03-11 21:42:19:939,0,0.462726,-0.696908,92.2839
2023-03-11 21:42:19:949,0,0.47871,-0.688767,92.2725
2023-03-11 21:42:19:959,0,0.493705,-0.681192,92.2597
2023-03-11 21:42:19:969,0,0.509992,-0.677014,92.2498
2023-03-11 21:42:19:979,0,0.522021,-0.669778,92.2368
2023-03-11 21:42:19:989,0,0.540143,-0.664585,92.2259
2023-03-11 21:42:19:999,0,0.55403,-0.656226,92.2216
2023-03-11 21:42:20:9,0,0.570163,-0.647561,92.209
2023-03-11 21:42:20:19,0,0.58533,-0.635793,92.201
2023-03-11 21:42:20:29,0,0.598214,-0.624917,92.1967
2023-03-11 21:42:20:39,0,0.609388,-0.613596,92.1884
2023-03-11 21:42:20:49,0,0.620141,-0.607197,92.1844
2023-03-11 21:42:20:59,0,0.629905,-0.603914,92.1782
2023-03-11 21:42:20:69,0,0.633145,-0.599054,92.1727
2023-03-11 21:42:20:79,0,0.634407,-0.593167,92.1701
2023-03-11 21:42:20:89,0,0.632061,-0.589452,92.1683
2023-03-11 21:42:20:99,0,0.629692,-0.584897,92.1617
2023-03-11 21:42:20:109,0,0.624566,-0.581783,92.1586
2023-03-11 21:42:20:119,0,0.621571,-0.578388,92.1501
2023-03-11 21:42:20:129,0,0.619792,-0.576091,92.1416
2023-03-11 21:42:20:139,0,0.614578,-0.574164,92.1273
2023-03-11 21:42:20:149,0,0.609597,-0.571724,92.1119
2023-03-11 21:42:20:159,0,0.603167,-0.568865,92.0952
2023-03-11 21:42:20:169,0,0.596587,-0.562286,92.0782
2023-03-11 21:42:20:179,0,0.587026,-0.559597,92.0623
2023-03-11 21:42:20:189,0,0.572889,-0.55427,92.0423
2023-03-11 21:42:20:199,0,0.552463,-0.550005,92.0245
2023-03-11 21:42:20:209,0,0.531366,-0.544089,92.0078
2023-03-11 21:42:20:219,0,0.511777,-0.53737,91.9924
2023-03-11 21:42:20:229,0,0.488589,-0.52653,91.9767
2023-03-11 21:42:20:239,0,0.468958,-0.515896,91.9602
2023-03-11 21:42:20:249,0,0.456325,-0.507403,91.9507
2023-03-11 21:42:20:259,0,0.44146,-0.499614,91.9417
2023-03-11 21:42:20:269,0,0.426027,-0.491894,91.9359
2023-03-11 21:42:20:279,0,0.410853,-0.485069,91.9333
2023-03-11 21:42:20:289,0,0.396473,-0.47968,91.9354
2023-03-11 21:42:20:299,0,0.382393,-0.476562,91.9356
2023-03-11 21:42:20:309,0,0.372728,-0.469145,91.9378
2023-03-11 21:42:20:319,0,0.36193,-0.465985,91.9405
2023-03-11 21:42:20:329,0,0.35888,-0.463468,91.9437
2023-03-11 21:42:20:339,0,0.355528,-0.463481,91.9438
2023-03-11 21:42:20:349,0,0.354567,-0.464316,91.9416
2023-03-11 21:42:20:359,0,0.353507,-0.469479,91.9362
2023-03-11 21:42:20:369,0,0.356288,-0.472242,91.9283
2023-03-11 21:42:20:379,0,0.362568,-0.477707,91.9182
2023-03-11 21:42:20:389,0,0.370727,-0.484093,91.9099
2023-03-11 21:42:20:399,0,0.380555,-0.492339,91.8985
2023-03-11 21:42:20:409,0,0.391117,-0.499438,91.8921
2023-03-11 21:42:20:419,0,0.396317,-0.506356,91.8879
2023-03-11 21:42:20:429,0,0.399657,-0.512215,91.8855
2023-03-11 21:42:20:439,0,0.405961,-0.522243,91.8873
2023-03-11 21:42:20:449,0,0.410278,-0.529974,91.8874
2023-03-11 21:42:20:459,0,0.418975,-0.535494,91.8898
2023-03-11 21:42:20:469,0,0.427239,-0.542615,91.8958
2023-03-11 21:42:20:479,0,0.433436,-0.547232,91.904
2023-03-11 21:42:20:489,0,0.441521,-0.550579,91.913
2023-03-11 21:42:20:499,0,0.456472,-0.556134,91.9185
2023-03-11 21:42:20:509,0,0.470526,-0.560962,91.927
2023-03-11 21:42:20:519,0,0.48314,-0.567242,91.9334
2023-03-11 21:42:20:529,0,0.497709,-0.575616,91.9435
2023-03-11 21:42:20:539,0,0.514379,-0.580937,91.956
2023-03-11 21:42:20:549,0,0.53004,-0.588225,91.9666
2023-03-11 21:42:20:559,0,0.53872,-0.59216,91.9783
2023-03-11 21:42:20:569,0,0.545469,-0.593754,91.9862
2023-03-11 21:42:20:579,0,0.555412,-0.601116,91.9946
2023-03-11 21:42:20:589,0,0.564936,-0.611506,92.0028
2023-03-11 21:42:20:599,0,0.571293,-0.623632,92.0164
2023-03-11 21:42:20:609,0,0.578202,-0.63265,92.0308
2023-03-11 21:42:20:619,0,0.58742,-0.640791,92.0441
2023-03-11 21:42:20:629,0,0.595337,-0.645213,92.0531
2023-03-11 21:42:20:639,0,0.60421,-0.651108,92.0647
2023-03-11 21:42:20:649,0,0.608091,-0.654215,92.0736
2023-03-11 21:42:20:659,0,0.605676,-0.65291,92.0854
2023-03-11 21:42:20:669,0,0.602434,-0.650562,92.0949
2023-03-11 21:42:20:679,0,0.59556,-0.648599,92.109
2023-03-11 21:42:20:689,0,0.584994,-0.648587,92.1178
2023-03-11 21:42:20:699,0,0.576845,-0.644165,92.1255
2023-03-11 21:42:20:709,0,0.569189,-0.643879,92.1333
2023-03-11 21:42:20:719,0,0.561989,-0.64056,92.1378
2023-03-11 21:42:20:729,0,0.558697,-0.637792,92.1426
2023-03-11 21:42:20:739,0,0.550565,-0.635495,92.145
2023-03-11 21:42:20:749,0,0.547732,-0.62972,92.143
2023-03-11 21:42:20:759,0,0.543327,-0.625813,92.1441
2023-03-11 21:42:20:769,0,0.543833,-0.626127,92.1506
2023-03-11 21:42:20:779,0,0.539061,-0.623741,92.1543
2023-03-11 21:42:20:789,0,0.535499,-0.617252,92.1563
2023-03-11 21:42:20:799,0,0.533009,-0.612442,92.1544
2023-03-11 21:42:20:809,0,0.530174,-0.606928,92.1592
2023-03-11 21:42:20:819,0,0.529457,-0.602662,92.1666
2023-03-11 21:42:20:829,0,0.522542,-0.59907,92.1719
2023-03-11 21:42:20:839,0,0.514719,-0.592875,92.1732
2023-03-11 21:42:20:849,0,0.508657,-0.581845,92.1721
2023-03-11 21:42:20:859,0,0.503,-0.572658,92.1662
2023-03-11 21:42:20:869,0,0.501693,-0.561995,92.1589
2023-03-11 21:42:20:879,0,0.499464,-0.553767,92.1487
2023-03-11 21:42:20:889,0,0.496655,-0.551677,92.1404
2023-03-11 21:42:20:899,0,0.493793,-0.551338,92.1325
2023-03-11 21:42:20:909,0,0.489995,-0.550654,92.1241
2023-03-11 21:42:20:919,0,0.487182,-0.551606,92.1172
2023-03-11 21:42:20:929,0,0.486199,-0.54816,92.1102
2023-03-11 21:42:20:939,0,0.489235,-0.545585,92.1002
2023-03-11 21:42:20:949,0,0.49004,-0.542921,92.0914
2023-03-11 21:42:20:959,0,0.497425,-0.544059,92.09
2023-03-11 21:42:20:969,0,0.50466,-0.547407,92.0974
2023-03-11 21:42:20:979,0,0.515907,-0.554923,92.1147
2023-03-11 21:42:20:989,0,0.524127,-0.560671,92.1321
2023-03-11 21:42:20:999,0,0.530441,-0.565964,92.1499
2023-03-11 21:42:21:9,0,0.53569,-0.569842,92.1704
2023-03-11 21:42:21:19,0,0.542553,-0.568074,92.1863
2023-03-11 21:42:21:29,0,0.547698,-0.57003,92.2
2023-03-11 21:42:21:39,0,0.553465,-0.574487,92.2113
2023-03-11 21:42:21:49,0,0.560633,-0.577398,92.2201
2023-03-11 21:42:21:59,0,0.56721,-0.585955,92.227
2023-03-11 21:42:21:69,0,0.571277,-0.592444,92.2321
2023-03-11 21:42:21:79,0,0.577437,-0.597194,92.2372
2023-03-11 21:42:21:89,0,0.581025,-0.602752,92.2392
2023-03-11 21:42:21:99,0,0.587114,-0.610078,92.24
2023-03-11 21:42:21:109,0,0.588141,-0.613136,92.241
2023-03-11 21:42:21:119,0,0.587504,-0.616757,92.2423
2023-03-11 21:42:21:129,0,0.574943,-0.6217,92.243
2023-03-11 21:42:21:139,0,0.55924,-0.624278,92.2467
2023-03-11 21:42:21:149,0,0.544411,-0.624688,92.2501
2023-03-11 21:42:21:159,0,0.528436,-0.621585,92.2506
2023-03-11 21:42:21:169,0,0.516524,-0.615888,92.2499
2023-03-11 21:42:21:179,0,0.507082,-0.608584,92.2541
2023-03-11 21:42:21:189,0,0.505242,-0.601142,92.2616
2023-03-11 21:42:21:199,0,0.511915,-0.588017,92.2746
2023-03-11 21:42:21:209,0,0.522459,-0.578141,92.2981
2023-03-11 21:42:21:219,0,0.535028,-0.568358,92.329
2023-03-11 21:42:21:229,0,0.548283,-0.553557,92.3635
2023-03-11 21:42:21:239,0,0.56014,-0.534055,92.4004
2023-03-11 21:42:21:249,0,0.574592,-0.511837,92.4328
2023-03-11 21:42:21:259,0,0.589092,-0.49,92.4598
2023-03-11 21:42:21:269,0,0.609263,-0.46772,92.4852
2023-03-11 21:42:21:279,0,0.63018,-0.45551,92.5092
2023-03-11 21:42:21:289,0,0.649171,-0.452953,92.5277
2023-03-11 21:42:21:299,0,0.662572,-0.452215,92.5394
2023-03-11 21:42:21:309,0,0.672195,-0.451287,92.5502
2023-03-11 21:42:21:319,0,0.677561,-0.452844,92.5584
2023-03-11 21:42:21:329,0,0.681586,-0.453615,92.5604
2023-03-11 21:42:21:339,0,0.681076,-0.455073,92.56
2023-03-11 21:42:21:349,0,0.674457,-0.452953,92.5563
2023-03-11 21:42:21:359,0,0.668,-0.455939,92.5522
2023-03-11 21:42:21:369,0,0.66201,-0.457047,92.549
2023-03-11 21:42:21:379,0,0.655918,-0.45559,92.5468
2023-03-11 21:42:21:389,0,0.647248,-0.456395,92.5481
2023-03-11 21:42:21:399,0,0.639779,-0.456741,92.5498
2023-03-11 21:42:21:409,0,0.630496,-0.454965,92.5501
2023-03-11 21:42:21:419,0,0.622132,-0.452023,92.5484
2023-03-11 21:42:21:429,0,0.610048,-0.444829,92.5478
2023-03-11 21:42:21:439,0,0.599704,-0.442463,92.5432
2023-03-11 21:42:21:449,0,0.589351,-0.44093,92.5396
2023-03-11 21:42:21:459,0,0.58124,-0.43981,92.5363
2023-03-11 21:42:21:469,0,0.571322,-0.435606,92.5298
2023-03-11 21:42:21:479,0,0.565975,-0.428861,92.5186
2023-03-11 21:42:21:489,0,0.565756,-0.425884,92.5106
2023-03-11 21:42:21:499,0,0.559939,-0.420325,92.5042
2023-03-11 21:42:21:509,0,0.554955,-0.413878,92.4977
2023-03-11 21:42:21:519,0,0.548666,-0.405324,92.4878
2023-03-11 21:42:21:529,0,0.541977,-0.398442,92.475
2023-03-11 21:42:21:539,0,0.532745,-0.391468,92.4666
2023-03-11 21:42:21:549,0,0.530083,-0.388724,92.4592
2023-03-11 21:42:21:559,0,0.529224,-0.382161,92.4517
2023-03-11 21:42:21:569,0,0.532751,-0.378291,92.4422
2023-03-11 21:42:21:579,0,0.545058,-0.376731,92.4344
2023-03-11 21:42:21:589,0,0.563093,-0.378821,92.4263
2023-03-11 21:42:21:599,0,0.582093,-0.379425,92.4137
2023-03-11 21:42:21:609,0,0.60406,-0.382439,92.404
2023-03-11 21:42:21:619,0,0.623525,-0.390504,92.3931
2023-03-11 21:42:21:629,0,0.636301,-0.396776,92.384
2023-03-11 21:42:21:639,0,0.650279,-0.403623,92.3753
2023-03-11 21:42:21:649,0,0.657793,-0.41391,92.3682
2023-03-11 21:42:21:659,0,0.658745,-0.423153,92.3633
2023-03-11 21:42:21:669,0,0.659217,-0.42879,92.3623
2023-03-11 21:42:21:679,0,0.660899,-0.43827,92.3594
2023-03-11 21:42:21:689,0,0.662013,-0.44037,92.3619
2023-03-11 21:42:21:699,0,0.661309,-0.446509,92.3665
2023-03-11 21:42:21:709,0,0.660687,-0.452252,92.3723
2023-03-11 21:42:21:719,0,0.655134,-0.460794,92.3793
2023-03-11 21:42:21:729,0,0.652127,-0.46802,92.3884
2023-03-11 21:42:21:739,0,0.646352,-0.472134,92.3994
2023-03-11 21:42:21:749,0,0.634965,-0.476144,92.4079
2023-03-11 21:42:21:759,0,0.622603,-0.478656,92.4154
2023-03-11 21:42:21:769,0,0.607285,-0.48097,92.4251
2023-03-11 21:42:21:779,0,0.59641,-0.483989,92.4319
2023-03-11 21:42:21:789,0,0.593999,-0.490384,92.4379
2023-03-11 21:42:21:799,0,0.59892,-0.498002,92.4438
2023-03-11 21:42:21:809,0,0.608334,-0.508858,92.4481
2023-03-11 21:42:21:819,0,0.622434,-0.516975,92.4488
2023-03-11 21:42:21:829,0,0.636545,-0.528005,92.4502
2023-03-11 21:42:21:839,0,0.648365,-0.54099,92.45
2023-03-11 21:42:21:849,0,0.660779,-0.553831,92.4526
2023-03-11 21:42:21:859,0,0.663892,-0.564265,92.458
2023-03-11 21:42:21:869,0,0.666632,-0.571792,92.4576
2023-03-11 21:42:21:879,0,0.671402,-0.580821,92.4605
2023-03-11 21:42:21:889,0,0.675404,-0.589893,92.4592
2023-03-11 21:42:21:899,0,0.680091,-0.602318,92.458
2023-03-11 21:42:21:909,0,0.69551,-0.614822,92.4566
2023-03-11 21:42:21:919,0,0.712237,-0.63182,92.4521
2023-03-11 21:42:21:929,0,0.727468,-0.650117,92.4484
2023-03-11 21:42:21:939,0,0.739651,-0.662213,92.4424
2023-03-11 21:42:21:949,0,0.752932,-0.675358,92.4389
2023-03-11 21:42:21:959,0,0.770084,-0.692257,92.4343
2023-03-11 21:42:21:969,0,0.776852,-0.711613,92.4329
2023-03-11 21:42:21:979,0,0.78182,-0.73129,92.4334
2023-03-11 21:42:21:989,0,0.783947,-0.747859,92.4386
2023-03-11 21:42:21:999,0,0.784495,-0.762983,92.4454
2023-03-11 21:42:22:9,0,0.789645,-0.772898,92.4482
2023-03-11 21:42:22:19,0,0.797266,-0.781401,92.4591
2023-03-11 21:42:22:29,0,0.808785,-0.786861,92.465
2023-03-11 21:42:22:39,0,0.825106,-0.792443,92.472
2023-03-11 21:42:22:49,0,0.842669,-0.795624,92.4769
2023-03-11 21:42:22:59,0,0.855612,-0.798817,92.4842
2023-03-11 21:42:22:69,0,0.869347,-0.802167,92.4877
2023-03-11 21:42:22:79,0,0.882698,-0.805621,92.4931
2023-03-11 21:42:22:89,0,0.895899,-0.80479,92.4952
2023-03-11 21:42:22:99,0,0.909134,-0.803421,92.4925
2023-03-11 21:42:22:109,0,0.92234,-0.799893,92.4838
2023-03-11 21:42:22:119,0,0.936313,-0.79704,92.4736
2023-03-11 21:42:22:129,0,0.946036,-0.792751,92.4588
2023-03-11 21:42:22:139,0,0.963146,-0.791882,92.4469
2023-03-11 21:42:22:149,0,0.978201,-0.791387,92.4359
2023-03-11 21:42:22:159,0,0.989015,-0.784354,92.4232
2023-03-11 21:42:22:169,0,0.998898,-0.778362,92.4085
2023-03-11 21:42:22:179,0,1.01266,-0.771481,92.3934
2023-03-11 21:42:22:189,0,1.0218,-0.769283,92.3825
2023-03-11 21:42:22:199,0,1.03047,-0.76431,92.3672
2023-03-11 21:42:22:209,0,1.03615,-0.759062,92.358
2023-03-11 21:42:22:219,0,1.04371,-0.7549,92.3518
2023-03-11 21:42:22:229,0,1.04737,-0.748007,92.3465
2023-03-11 21:42:22:239,0,1.05083,-0.739787,92.3491
2023-03-11 21:42:22:249,0,1.05172,-0.731206,92.3531
2023-03-11 21:42:22:259,0,1.04916,-0.722953,92.3582
2023-03-11 21:42:22:269,0,1.04603,-0.713135,92.3647
2023-03-11 21:42:22:279,0,1.04593,-0.709792,92.3731
2023-03-11 21:42:22:289,0,1.04574,-0.70498,92.3771
2023-03-11 21:42:22:299,0,1.04239,-0.705123,92.3826
2023-03-11 21:42:22:309,0,1.04036,-0.704349,92.3847
2023-03-11 21:42:22:319,0,1.03776,-0.705571,92.3813
2023-03-11 21:42:22:329,0,1.03417,-0.70617,92.374
2023-03-11 21:42:22:339,0,1.02913,-0.707313,92.371
2023-03-11 21:42:22:349,0,1.02518,-0.707657,92.3651
2023-03-11 21:42:22:359,0,1.01807,-0.705665,92.357
2023-03-11 21:42:22:369,0,1.01026,-0.705356,92.3533
2023-03-11 21:42:22:379,0,0.997751,-0.700212,92.3505
2023-03-11 21:42:22:389,0,0.989094,-0.693204,92.3494
2023-03-11 21:42:22:399,0,0.979035,-0.68462,92.3471
2023-03-11 21:42:22:409,0,0.977033,-0.67679,92.3421
2023-03-11 21:42:22:419,0,0.976321,-0.670188,92.3382
2023-03-11 21:42:22:429,0,0.975354,-0.66248,92.3264
2023-03-11 21:42:22:439,0,0.972303,-0.658411,92.3066
2023-03-11 21:42:22:449,0,0.973076,-0.650428,92.2819
2023-03-11 21:42:22:459,0,0.974558,-0.644544,92.2533
2023-03-11 21:42:22:469,0,0.970679,-0.638114,92.2198
2023-03-11 21:42:22:479,0,0.962539,-0.63222,92.184
2023-03-11 21:42:22:489,0,0.954024,-0.622548,92.1458
2023-03-11 21:42:22:499,0,0.939753,-0.614821,92.1103
2023-03-11 21:42:22:509,0,0.925289,-0.601719,92.0751
2023-03-11 21:42:22:519,0,0.911027,-0.592227,92.0422
2023-03-11 21:42:22:529,0,0.89788,-0.583833,92.0183
2023-03-11 21:42:22:539,0,0.885068,-0.571658,91.9986
2023-03-11 21:42:22:549,0,0.86501,-0.55328,91.9845
2023-03-11 21:42:22:559,0,0.845951,-0.538286,91.9667
2023-03-11 21:42:22:569,0,0.827445,-0.522161,91.9533
2023-03-11 21:42:22:579,0,0.802781,-0.507628,91.9402
2023-03-11 21:42:22:589,0,0.779959,-0.492105,91.9241
2023-03-11 21:42:22:599,0,0.755675,-0.477874,91.9099
2023-03-11 21:42:22:609,0,0.732044,-0.46795,91.8973
2023-03-11 21:42:22:619,0,0.704893,-0.458265,91.8882
2023-03-11 21:42:22:629,0,0.681021,-0.449706,91.8844
2023-03-11 21:42:22:639,0,0.657046,-0.441833,91.8805
2023-03-11 21:42:22:649,0,0.632817,-0.436381,91.8721
2023-03-11 21:42:22:659,0,0.611121,-0.433996,91.8625
2023-03-11 21:42:22:669,0,0.597286,-0.435547,91.8595
2023-03-11 21:42:22:679,0,0.582575,-0.442744,91.8618
2023-03-11 21:42:22:689,0,0.571157,-0.454922,91.8655
2023-03-11 21:42:22:699,0,0.559263,-0.464713,91.874
2023-03-11 21:42:22:709,0,0.547044,-0.473777,91.8829
2023-03-11 21:42:22:719,0,0.536458,-0.483111,91.8955
2023-03-11 21:42:22:729,0,0.528482,-0.49064,91.9092
2023-03-11 21:42:22:739,0,0.520109,-0.494111,91.9236
2023-03-11 21:42:22:749,0,0.512919,-0.497605,91.9363
2023-03-11 21:42:22:759,0,0.504854,-0.505547,91.9478
2023-03-11 21:42:22:769,0,0.499813,-0.506461,91.956
2023-03-11 21:42:22:779,0,0.493474,-0.505973,91.9695
2023-03-11 21:42:22:789,0,0.48758,-0.504783,91.9791
2023-03-11 21:42:22:799,0,0.486848,-0.506105,91.982
2023-03-11 21:42:22:809,0,0.488157,-0.503909,91.9833
2023-03-11 21:42:22:819,0,0.491166,-0.500582,91.9841
2023-03-11 21:42:22:829,0,0.506808,-0.494693,91.9914
2023-03-11 21:42:22:839,0,0.53568,-0.483638,92.0123
2023-03-11 21:42:22:849,0,0.564025,-0.468851,92.0408
2023-03-11 21:42:22:859,0,0.596806,-0.452371,92.0758
2023-03-11 21:42:22:869,0,0.629752,-0.428721,92.1153
2023-03-11 21:42:22:879,0,0.664269,-0.405038,92.1551
2023-03-11 21:42:22:889,0,0.699938,-0.385853,92.1905
2023-03-11 21:42:22:899,0,0.73662,-0.377241,92.2205
2023-03-11 21:42:22:909,0,0.771757,-0.37636,92.2413
2023-03-11 21:42:22:919,0,0.805996,-0.3802,92.2517
2023-03-11 21:42:22:929,0,0.839539,-0.391426,92.2508
2023-03-11 21:42:22:939,0,0.87631,-0.406196,92.2358
2023-03-11 21:42:22:949,0,0.910217,-0.421622,92.2129
2023-03-11 21:42:22:959,0,0.944911,-0.437889,92.1846
2023-03-11 21:42:22:969,0,0.978177,-0.457854,92.1579
2023-03-11 21:42:22:979,0,1.00903,-0.477243,92.1356
2023-03-11 21:42:22:989,0,1.04058,-0.495347,92.114
2023-03-11 21:42:22:999,0,1.07044,-0.508941,92.0959
2023-03-11 21:42:23:9,0,1.10148,-0.519264,92.0864
2023-03-11 21:42:23:19,0,1.1323,-0.52569,92.0784
2023-03-11 21:42:23:29,0,1.16288,-0.531665,92.0797
2023-03-11 21:42:23:39,0,1.18893,-0.53499,92.0837
2023-03-11 21:42:23:49,0,1.21925,-0.537317,92.0971
2023-03-11 21:42:23:59,0,1.24903,-0.537077,92.1153
2023-03-11 21:42:23:69,0,1.29211,-0.529252,92.1344
2023-03-11 21:42:23:79,0,1.34474,-0.515533,92.1475
2023-03-11 21:42:23:89,0,1.40565,-0.495144,92.1556
2023-03-11 21:42:23:99,0,1.46739,-0.468667,92.161
2023-03-11 21:42:23:109,0,1.52719,-0.439754,92.1604
2023-03-11 21:42:23:119,0,1.58672,-0.41335,92.1617
2023-03-11 21:42:23:129,0,1.64123,-0.389319,92.1611
2023-03-11 21:42:23:139,0,1.69459,-0.365856,92.1571
2023-03-11 21:42:23:149,0,1.74298,-0.348556,92.1463
2023-03-11 21:42:23:159,0,1.78616,-0.337154,92.1292
2023-03-11 21:42:23:169,0,1.82364,-0.331423,92.1044
2023-03-11 21:42:23:179,0,1.85209,-0.329064,92.0772
2023-03-11 21:42:23:189,0,1.87704,-0.329173,92.0459
2023-03-11 21:42:23:199,0,1.903,-0.334436,92.0101
2023-03-11 21:42:23:209,0,1.92722,-0.344411,91.9789
2023-03-11 21:42:23:219,0,1.9502,-0.352701,91.9465
2023-03-11 21:42:23:229,0,1.97718,-0.365741,91.9179
2023-03-11 21:42:23:239,0,2.00664,-0.377882,91.8967
2023-03-11 21:42:23:249,0,2.03214,-0.396892,91.8791
2023-03-11 21:42:23:259,0,2.05506,-0.415816,91.8683
2023-03-11 21:42:23:269,0,2.07093,-0.435427,91.8615
2023-03-11 21:42:23:279,0,2.08669,-0.457968,91.8669
2023-03-11 21:42:23:289,0,2.10036,-0.478207,91.8758
2023-03-11 21:42:23:299,0,2.11495,-0.497485,91.8878
2023-03-11 21:42:23:309,0,2.133,-0.518305,91.8992
2023-03-11 21:42:23:319,0,2.15376,-0.54084,91.9136
2023-03-11 21:42:23:329,0,2.17566,-0.568434,91.9277
2023-03-11 21:42:23:339,0,2.20062,-0.598964,91.9376
2023-03-11 21:42:23:349,0,2.22683,-0.629857,91.9486
2023-03-11 21:42:23:359,0,2.25259,-0.663147,91.9631
2023-03-11 21:42:23:369,0,2.27411,-0.692857,91.9733
2023-03-11 21:42:23:379,0,2.30505,-0.722148,91.9754
2023-03-11 21:42:23:389,0,2.34312,-0.753733,91.9752
2023-03-11 21:42:23:399,0,2.38344,-0.790079,91.9703
2023-03-11 21:42:23:409,0,2.43035,-0.828437,91.9597
2023-03-11 21:42:23:419,0,2.47632,-0.8638,91.9476
2023-03-11 21:42:23:429,0,2.52719,-0.896566,91.9294
2023-03-11 21:42:23:439,0,2.57964,-0.924668,91.909
2023-03-11 21:42:23:449,0,2.62991,-0.95012,91.8885
2023-03-11 21:42:23:459,0,2.67779,-0.972068,91.8675
2023-03-11 21:42:23:469,0,2.72309,-0.993479,91.8515
2023-03-11 21:42:23:479,0,2.76736,-1.00983,91.8386
2023-03-11 21:42:23:489,0,2.8104,-1.0204,91.8269
2023-03-11 21:42:23:499,0,2.85379,-1.0269,91.8129
2023-03-11 21:42:23:509,0,2.89987,-1.03162,91.7964
2023-03-11 21:42:23:519,0,2.94708,-1.03441,91.7751
2023-03-11 21:42:23:529,0,2.991,-1.03398,91.7489
2023-03-11 21:42:23:539,0,3.03513,-1.03269,91.7226
2023-03-11 21:42:23:549,0,3.0761,-1.03378,91.6929
2023-03-11 21:42:23:559,0,3.11375,-1.03271,91.6633
2023-03-11 21:42:23:569,0,3.1484,-1.03313,91.6302
2023-03-11 21:42:23:579,0,3.18207,-1.03689,91.5962
2023-03-11 21:42:23:589,0,3.20997,-1.03757,91.5641
2023-03-11 21:42:23:599,0,3.24142,-1.03107,91.5285
2023-03-11 21:42:23:609,0,3.27735,-1.0196,91.4898
2023-03-11 21:42:23:619,0,3.31338,-1.00961,91.4536
2023-03-11 21:42:23:629,0,3.34014,-1.00266,91.4235
2023-03-11 21:42:23:639,0,3.36807,-0.995465,91.393
2023-03-11 21:42:23:649,0,3.39641,-0.984813,91.366
2023-03-11 21:42:23:659,0,3.42144,-0.974525,91.3373
2023-03-11 21:42:23:669,0,3.44133,-0.964243,91.3098
2023-03-11 21:42:23:679,0,3.46516,-0.952195,91.2861
2023-03-11 21:42:23:689,0,3.48752,-0.939678,91.2641
2023-03-11 21:42:23:699,0,3.51217,-0.927376,91.241
2023-03-11 21:42:23:709,0,3.53569,-0.919916,91.2176
2023-03-11 21:42:23:719,0,3.55801,-0.912447,91.1924
2023-03-11 21:42:23:729,0,3.58174,-0.90973,91.167
2023-03-11 21:42:23:739,0,3.60946,-0.907544,91.1425
2023-03-11 21:42:23:749,0,3.63398,-0.910297,91.1198
2023-03-11 21:42:23:759,0,3.65948,-0.913676,91.1005
2023-03-11 21:42:23:769,0,3.68261,-0.917384,91.0828
2023-03-11 21:42:23:779,0,3.70485,-0.924376,91.0677
2023-03-11 21:42:23:789,0,3.72199,-0.933108,91.0589
2023-03-11 21:42:23:799,0,3.73966,-0.942916,91.0495
2023-03-11 21:42:23:809,0,3.75528,-0.955505,91.0436
2023-03-11 21:42:23:819,0,3.7733,-0.965456,91.0388
2023-03-11 21:42:23:829,0,3.79371,-0.9792,91.0376
2023-03-11 21:42:23:839,0,3.81111,-0.993421,91.0378
2023-03-11 21:42:23:849,0,3.82719,-1.00993,91.0385
2023-03-11 21:42:23:859,0,3.84054,-1.02052,91.04
2023-03-11 21:42:23:869,0,3.85064,-1.02471,91.04
2023-03-11 21:42:23:879,0,3.86721,-1.02853,91.0384
2023-03-11 21:42:23:889,0,3.88622,-1.02815,91.0352
2023-03-11 21:42:23:899,0,3.90729,-1.02899,91.0296
2023-03-11 21:42:23:909,0,3.92663,-1.02955,91.023
2023-03-11 21:42:23:919,0,3.94241,-1.03061,91.0143
2023-03-11 21:42:23:929,0,3.95976,-1.03057,91.0065
2023-03-11 21:42:23:939,0,3.97632,-1.02657,90.9969
2023-03-11 21:42:23:949,0,3.98666,-1.02435,90.9849
2023-03-11 21:42:23:959,0,3.99213,-1.02176,90.9779
2023-03-11 21:42:23:969,0,3.99253,-1.02119,90.9703
2023-03-11 21:42:23:979,0,3.99454,-1.01877,90.9636
2023-03-11 21:42:23:989,0,3.99693,-1.01832,90.9581
2023-03-11 21:42:23:999,0,3.99768,-1.01306,90.9558
2023-03-11 21:42:24:9,0,4.00193,-1.01174,90.9576
2023-03-11 21:42:24:19,0,4.00277,-1.00822,90.9621
2023-03-11 21:42:24:29,0,4.0004,-1.00236,90.9667
2023-03-11 21:42:24:39,0,4.00138,-0.99458,90.9718
2023-03-11 21:42:24:49,0,3.99887,-0.984459,90.9779
2023-03-11 21:42:24:59,0,3.99748,-0.980854,90.9832
2023-03-11 21:42:24:69,0,3.99288,-0.979013,90.9913
2023-03-11 21:42:24:79,0,3.9904,-0.97833,91.0004
2023-03-11 21:42:24:89,0,3.98728,-0.974358,91.0077
2023-03-11 21:42:24:99,0,3.98647,-0.975572,91.0168
2023-03-11 21:42:24:109,0,3.98768,-0.98068,91.03
2023-03-11 21:42:24:119,0,3.98503,-0.990471,91.045
2023-03-11 21:42:24:129,0,3.9834,-0.999977,91.0655
2023-03-11 21:42:24:139,0,3.97785,-1.01022,91.0855
2023-03-11 21:42:24:149,0,3.96967,-1.01602,91.1082
2023-03-11 21:42:24:159,0,3.96076,-1.01978,91.1355
2023-03-11 21:42:24:169,0,3.94729,-1.0236,91.1632
2023-03-11 21:42:24:179,0,3.93014,-1.02882,91.1925
2023-03-11 21:42:24:189,0,3.90847,-1.03162,91.2234
2023-03-11 21:42:24:199,0,3.88823,-1.03152,91.2513
2023-03-11 21:42:24:209,0,3.8735,-1.03133,91.277
2023-03-11 21:42:24:219,0,3.86292,-1.02668,91.3017
2023-03-11 21:42:24:229,0,3.85321,-1.02239,91.3214
2023-03-11 21:42:24:239,0,3.84641,-1.02009,91.3392
2023-03-11 21:42:24:249,0,3.84006,-1.01725,91.3529
2023-03-11 21:42:24:259,0,3.84025,-1.00951,91.3628
2023-03-11 21:42:24:269,0,3.83999,-1.00789,91.3724
2023-03-11 21:42:24:279,0,3.84104,-1.01013,91.3754
2023-03-11 21:42:24:289,0,3.8427,-1.01699,91.3785
2023-03-11 21:42:24:299,0,3.8452,-1.02112,91.3806
2023-03-11 21:42:24:309,0,3.85002,-1.02575,91.3805
2023-03-11 21:42:24:319,0,3.85777,-1.02602,91.3778
2023-03-11 21:42:24:329,0,3.86378,-1.02741,91.3769
2023-03-11 21:42:24:339,0,3.86672,-1.03074,91.3757
2023-03-11 21:42:24:349,0,3.87244,-1.03659,91.3746
2023-03-11 21:42:24:359,0,3.87329,-1.04343,91.3753
2023-03-11 21:42:24:369,0,3.87687,-1.04931,91.3772
2023-03-11 21:42:24:379,0,3.88202,-1.0543,91.3809
2023-03-11 21:42:24:389,0,3.88957,-1.06075,91.3816
2023-03-11 21:42:24:399,0,3.89339,-1.06399,91.387
2023-03-11 21:42:24:409,0,3.89979,-1.0637,91.3896
2023-03-11 21:42:24:419,0,3.89979,-1.06593,91.3911
2023-03-11 21:42:24:429,0,3.90049,-1.06817,91.3946
2023-03-11 21:42:24:439,0,3.89812,-1.07112,91.3944
2023-03-11 21:42:24:449,0,3.89472,-1.0722,91.3916
2023-03-11 21:42:24:459,0,3.89387,-1.07153,91.3918
2023-03-11 21:42:24:469,0,3.89173,-1.07031,91.3861
2023-03-11 21:42:24:479,0,3.89041,-1.07727,91.3864
2023-03-11 21:42:24:489,0,3.89024,-1.07895,91.3853
2023-03-11 21:42:24:499,0,3.89202,-1.08268,91.3826
2023-03-11 21:42:24:509,0,3.88788,-1.08303,91.3833
2023-03-11 21:42:24:519,0,3.88923,-1.082,91.3791
2023-03-11 21:42:24:529,0,3.89229,-1.08345,91.3777
2023-03-11 21:42:24:539,0,3.89374,-1.08065,91.3775
2023-03-11 21:42:24:549,0,3.89851,-1.07622,91.3752
2023-03-11 21:42:24:559,0,3.90233,-1.07634,91.3792
2023-03-11 21:42:24:569,0,3.9116,-1.07374,91.3785
2023-03-11 21:42:24:579,0,3.92159,-1.07055,91.3784
2023-03-11 21:42:24:589,0,3.93139,-1.06439,91.3757
2023-03-11 21:42:24:599,0,3.94235,-1.05497,91.3721
2023-03-11 21:42:24:609,0,3.95628,-1.04493,91.3653
2023-03-11 21:42:24:619,0,3.96806,-1.0353,91.3579
2023-03-11 21:42:24:629,0,3.98159,-1.02961,91.3478
2023-03-11 21:42:24:639,0,3.99302,-1.02243,91.3358
2023-03-11 21:42:24:649,0,4.0009,-1.0149,91.3281
2023-03-11 21:42:24:659,0,4.00729,-1.00652,91.3269
2023-03-11 21:42:24:669,0,4.01446,-0.999473,91.3219
2023-03-11 21:42:24:679,0,4.01545,-0.993867,91.3164
2023-03-11 21:42:24:689,0,4.01906,-0.991071,91.3115
2023-03-11 21:42:24:699,0,4.02018,-0.985611,91.3072
2023-03-11 21:42:24:709,0,4.02237,-0.980843,91.3014
2023-03-11 21:42:24:719,0,4.02401,-0.979275,91.296
2023-03-11 21:42:24:729,0,4.02077,-0.978676,91.2912
2023-03-11 21:42:24:739,0,4.01766,-0.980322,91.2867
2023-03-11 21:42:24:749,0,4.01587,-0.979255,91.2785
2023-03-11 21:42:24:759,0,4.01188,-0.977687,91.2676
2023-03-11 21:42:24:769,0,4.01161,-0.977723,91.2555
2023-03-11 21:42:24:779,0,4.00602,-0.97876,91.2439
2023-03-11 21:42:24:789,0,4.00766,-0.979261,91.2323
2023-03-11 21:42:24:799,0,4.0018,-0.975886,91.2196
2023-03-11 21:42:24:809,0,3.99757,-0.972304,91.2052
2023-03-11 21:42:24:819,0,3.99326,-0.970481,91.185
2023-03-11 21:42:24:829,0,3.98952,-0.972236,91.1678
2023-03-11 21:42:24:839,0,3.9896,-0.978514,91.1542
2023-03-11 21:42:24:849,0,3.99111,-0.983984,91.1407
2023-03-11 21:42:24:859,0,3.99008,-0.989904,91.1286
2023-03-11 21:42:24:869,0,3.99026,-0.998087,91.1167
2023-03-11 21:42:24:879,0,3.99159,-1.00144,91.1082
2023-03-11 21:42:24:889,0,3.98803,-1.00142,91.0994
2023-03-11 21:42:24:899,0,3.98777,-1.00156,91.0933
2023-03-11 21:42:24:909,0,3.98972,-1.004,91.0839
2023-03-11 21:42:24:919,0,3.9918,-1.00735,91.0736
2023-03-11 21:42:24:929,0,3.99103,-1.00817,91.0687
2023-03-11 21:42:24:939,0,3.99073,-1.00794,91.0607
2023-03-11 21:42:24:949,0,3.98772,-1.00635,91.0493
2023-03-11 21:42:24:959,0,3.98279,-1.00469,91.0365
2023-03-11 21:42:24:969,0,3.97695,-1.00571,91.0244
2023-03-11 21:42:24:979,0,3.96788,-1.00748,91.0111
2023-03-11 21:42:24:989,0,3.95623,-1.00853,91.0019
2023-03-11 21:42:24:999,0,3.94282,-1.01174,90.9868
2023-03-11 21:42:25:9,0,3.93245,-1.01873,90.9749
2023-03-11 21:42:25:19,0,3.92403,-1.02956,90.9647
2023-03-11 21:42:25:29,0,3.91288,-1.04027,90.9532
2023-03-11 21:42:25:39,0,3.90244,-1.04592,90.9317
2023-03-11 21:42:25:49,0,3.89415,-1.05486,90.9071
2023-03-11 21:42:25:59,0,3.88672,-1.07006,90.8853
2023-03-11 21:42:25:69,0,3.87927,-1.09022,90.8629
2023-03-11 21:42:25:79,0,3.87262,-1.10877,90.8382
2023-03-11 21:42:25:89,0,3.86951,-1.13032,90.8162
2023-03-11 21:42:25:99,0,3.8673,-1.15017,90.7941
2023-03-11 21:42:25:109,0,3.86539,-1.16299,90.7706
2023-03-11 21:42:25:119,0,3.86911,-1.17509,90.7474
2023-03-11 21:42:25:129,0,3.87571,-1.1813,90.7236
2023-03-11 21:42:25:139,0,3.88074,-1.1862,90.7004
2023-03-11 21:42:25:149,0,3.8931,-1.18719,90.6803
2023-03-11 21:42:25:159,0,3.90766,-1.1893,90.6644
2023-03-11 21:42:25:169,0,3.92262,-1.19129,90.6478
2023-03-11 21:42:25:179,0,3.93501,-1.19214,90.6348
2023-03-11 21:42:25:189,0,3.94412,-1.19394,90.6208
2023-03-11 21:42:25:199,0,3.9553,-1.19748,90.6056
2023-03-11 21:42:25:209,0,3.96846,-1.20259,90.593
2023-03-11 21:42:25:219,0,3.97903,-1.20562,90.5829
2023-03-11 21:42:25:229,0,3.98952,-1.21516,90.5746
2023-03-11 21:42:25:239,0,3.99175,-1.22227,90.5674
2023-03-11 21:42:25:249,0,3.99518,-1.22937,90.5667
2023-03-11 21:42:25:259,0,3.99513,-1.23586,90.5662
2023-03-11 21:42:25:269,0,3.99683,-1.24918,90.5712
2023-03-11 21:42:25:279,0,3.99357,-1.26108,90.5781
2023-03-11 21:42:25:289,0,3.9926,-1.27997,90.5871
2023-03-11 21:42:25:299,0,3.98562,-1.29352,90.599
2023-03-11 21:42:25:309,0,3.98462,-1.30347,90.6118
2023-03-11 21:42:25:319,0,3.98569,-1.31107,90.624
2023-03-11 21:42:25:329,0,3.98735,-1.31796,90.6342
2023-03-11 21:42:25:339,0,3.98623,-1.32407,90.6454
2023-03-11 21:42:25:349,0,3.98508,-1.33138,90.6574
2023-03-11 21:42:25:359,0,3.98962,-1.34016,90.6679
2023-03-11 21:42:25:369,0,3.99341,-1.34912,90.6718
2023-03-11 21:42:25:379,0,4.00182,-1.35658,90.6754
2023-03-11 21:42:25:389,0,4.0117,-1.36492,90.6791
2023-03-11 21:42:25:399,0,4.01904,-1.37624,90.6819
2023-03-11 21:42:25:409,0,4.03526,-1.38096,90.6847
2023-03-11 21:42:25:419,0,4.04685,-1.38486,90.687
2023-03-11 21:42:25:429,0,4.05981,-1.38539,90.6881
2023-03-11 21:42:25:439,0,4.07573,-1.38467,90.6914
2023-03-11 21:42:25:449,0,4.08657,-1.38145,90.6936
2023-03-11 21:42:25:459,0,4.09993,-1.37745,90.6986
2023-03-11 21:42:25:469,0,4.11256,-1.36766,90.7006
2023-03-11 21:42:25:479,0,4.12425,-1.35611,90.7052
2023-03-11 21:42:25:489,0,4.13336,-1.34907,90.7104
2023-03-11 21:42:25:499,0,4.14216,-1.34476,90.7141
2023-03-11 21:42:25:509,0,4.14966,-1.33785,90.7202
2023-03-11 21:42:25:519,0,4.15826,-1.33205,90.7258
2023-03-11 21:42:25:529,0,4.16837,-1.32868,90.7304
2023-03-11 21:42:25:539,0,4.1805,-1.32538,90.7327
2023-03-11 21:42:25:549,0,4.19202,-1.32472,90.7311
2023-03-11 21:42:25:559,0,4.20328,-1.33292,90.7333
2023-03-11 21:42:25:569,0,4.21213,-1.33975,90.7435
2023-03-11 21:42:25:579,0,4.22104,-1.34904,90.7546
2023-03-11 21:42:25:589,0,4.22284,-1.35878,90.7659
2023-03-11 21:42:25:599,0,4.22182,-1.36665,90.7757
2023-03-11 21:42:25:609,0,4.21896,-1.36843,90.7886
2023-03-11 21:42:25:619,0,4.21607,-1.37178,90.8
2023-03-11 21:42:25:629,0,4.20989,-1.37951,90.8091
2023-03-11 21:42:25:639,0,4.2009,-1.38426,90.8183
2023-03-11 21:42:25:649,0,4.19168,-1.38778,90.8268
2023-03-11 21:42:25:659,0,4.18158,-1.38691,90.832
2023-03-11 21:42:25:669,0,4.17149,-1.38312,90.8315
2023-03-11 21:42:25:679,0,4.16042,-1.37581,90.8274
2023-03-11 21:42:25:689,0,4.15416,-1.36841,90.8176
2023-03-11 21:42:25:699,0,4.14534,-1.3589,90.8071
2023-03-11 21:42:25:709,0,4.14053,-1.34715,90.7996
2023-03-11 21:42:25:719,0,4.1377,-1.33806,90.7887
2023-03-11 21:42:25:729,0,4.13559,-1.3329,90.7805
2023-03-11 21:42:25:739,0,4.13652,-1.33033,90.7779
2023-03-11 21:42:25:749,0,4.13931,-1.33061,90.7775
2023-03-11 21:42:25:759,0,4.14033,-1.32507,90.7729
2023-03-11 21:42:25:769,0,4.13945,-1.31744,90.7651
2023-03-11 21:42:25:779,0,4.13808,-1.31168,90.757
2023-03-11 21:42:25:789,0,4.13577,-1.31276,90.7557
2023-03-11 21:42:25:799,0,4.13225,-1.31207,90.754
2023-03-11 21:42:25:809,0,4.1255,-1.30573,90.7505
2023-03-11 21:42:25:819,0,4.11988,-1.29984,90.7493
2023-03-11 21:42:25:829,0,4.11419,-1.29245,90.7431
2023-03-11 21:42:25:839,0,4.10417,-1.28861,90.7401
2023-03-11 21:42:25:849,0,4.09833,-1.28535,90.7384
2023-03-11 21:42:25:859,0,4.09476,-1.28109,90.7412
2023-03-11 21:42:25:869,0,4.09692,-1.28156,90.7423
2023-03-11 21:42:25:879,0,4.09942,-1.27959,90.7393
2023-03-11 21:42:25:889,0,4.09831,-1.27884,90.7362
2023-03-11 21:42:25:899,0,4.10297,-1.27721,90.7325
2023-03-11 21:42:25:909,0,4.10386,-1.27874,90.7282
2023-03-11 21:42:25:919,0,4.10578,-1.2818,90.7245
2023-03-11 21:42:25:929,0,4.1099,-1.28771,90.7209
2023-03-11 21:42:25:939,0,4.10922,-1.29283,90.7208
2023-03-11 21:42:25:949,0,4.11234,-1.29683,90.7195
2023-03-11 21:42:25:959,0,4.11761,-1.30217,90.7235
2023-03-11 21:42:25:969,0,4.12048,-1.30895,90.7268
2023-03-11 21:42:25:979,0,4.12468,-1.31289,90.7311
2023-03-11 21:42:25:989,0,4.12969,-1.31661,90.7355
2023-03-11 21:42:25:999,0,4.13474,-1.31777,90.7453
2023-03-11 21:42:26:9,0,4.14157,-1.32106,90.7552
2023-03-11 21:42:26:19,0,4.14934,-1.32231,90.7668
2023-03-11 21:42:26:29,0,4.15504,-1.32423,90.7724
2023-03-11 21:42:26:39,0,4.16029,-1.32497,90.7796
2023-03-11 21:42:26:49,0,4.16705,-1.3257,90.7796
2023-03-11 21:42:26:59,0,4.17166,-1.32403,90.7803
2023-03-11 21:42:26:69,0,4.17793,-1.32606,90.7763
2023-03-11 21:42:26:79,0,4.18567,-1.32619,90.7659
2023-03-11 21:42:26:89,0,4.19623,-1.32459,90.7596
2023-03-11 21:42:26:99,0,4.20819,-1.32375,90.755
2023-03-11 21:42:26:109,0,4.21556,-1.32525,90.7479
2023-03-11 21:42:26:119,0,4.22207,-1.32475,90.7458
2023-03-11 21:42:26:129,0,4.22756,-1.32268,90.7474
2023-03-11 21:42:26:139,0,4.23454,-1.32169,90.7477
2023-03-11 21:42:26:149,0,4.23806,-1.32177,90.7522
2023-03-11 21:42:26:159,0,4.24225,-1.31942,90.7569
2023-03-11 21:42:26:169,0,4.24084,-1.31405,90.7608
2023-03-11 21:42:26:179,0,4.23854,-1.3138,90.7682
2023-03-11 21:42:26:189,0,4.23675,-1.31122,90.7736
2023-03-11 21:42:26:199,0,4.23366,-1.3096,90.7797
2023-03-11 21:42:26:209,0,4.2308,-1.3086,90.7844
2023-03-11 21:42:26:219,0,4.22764,-1.30778,90.789
2023-03-11 21:42:26:229,0,4.2198,-1.30982,90.7952
2023-03-11 21:42:26:239,0,4.21379,-1.31319,90.7951
2023-03-11 21:42:26:249,0,4.20575,-1.31575,90.7982
2023-03-11 21:42:26:259,0,4.19597,-1.32167,90.8022
2023-03-11 21:42:26:269,0,4.18565,-1.33471,90.8134
2023-03-11 21:42:26:279,0,4.16877,-1.34429,90.8215
2023-03-11 21:42:26:289,0,4.15268,-1.35431,90.8313
2023-03-11 21:42:26:299,0,4.13575,-1.35784,90.8451
2023-03-11 21:42:26:309,0,4.1194,-1.36034,90.8598
2023-03-11 21:42:26:319,0,4.10253,-1.35782,90.8735
2023-03-11 21:42:26:329,0,4.08595,-1.3553,90.886
2023-03-11 21:42:26:339,0,4.0686,-1.35455,90.8998
2023-03-11 21:42:26:349,0,4.05351,-1.34775,90.9071
2023-03-11 21:42:26:359,0,4.0412,-1.3438,90.9111
2023-03-11 21:42:26:369,0,4.02842,-1.3349,90.9087
2023-03-11 21:42:26:379,0,4.02033,-1.32876,90.9044
2023-03-11 21:42:26:389,0,4.0085,-1.3201,90.8972
2023-03-11 21:42:26:399,0,4.00428,-1.3134,90.8895
2023-03-11 21:42:26:409,0,4.00226,-1.30682,90.8756
2023-03-11 21:42:26:419,0,4.00331,-1.30147,90.8631
2023-03-11 21:42:26:429,0,4.00894,-1.29509,90.856
2023-03-11 21:42:26:439,0,4.01485,-1.29137,90.8508
2023-03-11 21:42:26:449,0,4.02111,-1.28873,90.8458
2023-03-11 21:42:26:459,0,4.03045,-1.27816,90.839
2023-03-11 21:42:26:469,0,4.0424,-1.27097,90.8343
2023-03-11 21:42:26:479,0,4.05499,-1.26942,90.835
2023-03-11 21:42:26:489,0,4.06224,-1.26887,90.8353
2023-03-11 21:42:26:499,0,4.06738,-1.26887,90.8395
2023-03-11 21:42:26:509,0,4.07661,-1.26544,90.8416
2023-03-11 21:42:26:519,0,4.08673,-1.26141,90.8441
2023-03-11 21:42:26:529,0,4.09108,-1.25973,90.8468
2023-03-11 21:42:26:539,0,4.09285,-1.25896,90.8481
2023-03-11 21:42:26:549,0,4.09654,-1.25892,90.8501
2023-03-11 21:42:26:559,0,4.09642,-1.2581,90.8513
2023-03-11 21:42:26:569,0,4.09389,-1.25856,90.8507
2023-03-11 21:42:26:579,0,4.08894,-1.259,90.844
2023-03-11 21:42:26:589,0,4.0881,-1.25906,90.8416
2023-03-11 21:42:26:599,0,4.08663,-1.25859,90.8404
2023-03-11 21:42:26:609,0,4.08429,-1.2608,90.838
2023-03-11 21:42:26:619,0,4.08059,-1.26376,90.8317
2023-03-11 21:42:26:629,0,4.07564,-1.2696,90.8281
2023-03-11 21:42:26:639,0,4.06611,-1.2741,90.8238
2023-03-11 21:42:26:649,0,4.05721,-1.27782,90.8196
2023-03-11 21:42:26:659,0,4.0492,-1.28063,90.8193
2023-03-11 21:42:26:669,0,4.0391,-1.2848,90.8185
2023-03-11 21:42:26:679,0,4.03057,-1.28426,90.8221
2023-03-11 21:42:26:689,0,4.02268,-1.2874,90.8235
2023-03-11 21:42:26:699,0,4.01835,-1.29204,90.8286
2023-03-11 21:42:26:709,0,4.01443,-1.29271,90.8345
2023-03-11 21:42:26:719,0,4.01549,-1.2928,90.8378
2023-03-11 21:42:26:729,0,4.01283,-1.2909,90.84
2023-03-11 21:42:26:739,0,4.01479,-1.29071,90.8403
2023-03-11 21:42:26:749,0,4.01757,-1.29147,90.8435
2023-03-11 21:42:26:759,0,4.01816,-1.28879,90.8405
2023-03-11 21:42:26:769,0,4.01916,-1.28571,90.8357
2023-03-11 21:42:26:779,0,4.01814,-1.27701,90.829
2023-03-11 21:42:26:789,0,4.01616,-1.27413,90.8206
2023-03-11 21:42:26:799,0,4.01325,-1.27271,90.8139
2023-03-11 21:42:26:809,0,4.01303,-1.27095,90.8078
2023-03-11 21:42:26:819,0,4.01183,-1.26894,90.8048
2023-03-11 21:42:26:829,0,4.00865,-1.26603,90.8006
2023-03-11 21:42:26:839,0,4.00615,-1.26058,90.7999
2023-03-11 21:42:26:849,0,4.00127,-1.25521,90.8032
2023-03-11 21:42:26:859,0,3.99797,-1.24951,90.8081
