Timestamp_cmd,imu_cmd,roll_delta,pitch_delta,yaw_delta,voice_type,voice_length
2023-03-14 21:35:31:114,0,-18.6594,2.15871,48.6703,Q,Q
2023-03-14 21:35:31:123,0,-18.6684,2.12887,48.6672,Q,Q
2023-03-14 21:35:31:133,0,-18.6734,2.09818,48.6591,Q,Q
2023-03-14 21:35:31:143,0,-18.6703,2.07156,48.6428,Q,Q
2023-03-14 21:35:31:153,0,-18.6609,2.04854,48.6183,Q,Q
2023-03-14 21:35:31:163,0,-18.6414,2.02593,48.5902,Q,Q
2023-03-14 21:35:31:173,0,-18.6153,2.00613,48.5579,Q,Q
2023-03-14 21:35:31:183,0,-18.5844,1.99028,48.5152,Q,Q
2023-03-14 21:35:31:193,0,-18.5449,1.97772,48.4739,Q,Q
2023-03-14 21:35:31:203,0,-18.5066,1.95966,48.4334,Q,Q
2023-03-14 21:35:31:213,0,-18.4703,1.93789,48.3928,Q,Q
2023-03-14 21:35:31:223,0,-18.4378,1.91885,48.3548,Q,Q
2023-03-14 21:35:31:233,0,-18.4051,1.89741,48.31,Q,Q
2023-03-14 21:35:31:243,0,-18.3763,1.88057,48.2661,Q,Q
2023-03-14 21:35:31:253,0,-18.3428,1.86322,48.2131,Q,Q
2023-03-14 21:35:31:263,0,-18.3015,1.8473,48.1556,Q,Q
2023-03-14 21:35:31:273,0,-18.2589,1.83371,48.0915,Q,Q
2023-03-14 21:35:31:283,0,-18.2077,1.82022,48.0259,Q,Q
2023-03-14 21:35:31:293,0,-18.15,1.80693,47.9555,Q,Q
2023-03-14 21:35:31:303,0,-18.0955,1.79122,47.8807,Q,Q
2023-03-14 21:35:31:313,0,-18.0415,1.77747,47.8015,Q,Q
2023-03-14 21:35:31:323,0,-17.9886,1.77246,47.7204,Q,Q
2023-03-14 21:35:31:333,0,-17.9385,1.76385,47.6332,Q,Q
2023-03-14 21:35:31:343,0,-17.8955,1.7572,47.5417,Q,Q
2023-03-14 21:35:31:353,0,-17.864,1.74551,47.4491,Q,Q
2023-03-14 21:35:31:363,0,-17.845,1.73064,47.3517,Q,Q
2023-03-14 21:35:31:373,0,-17.8349,1.71471,47.2533,Q,Q
2023-03-14 21:35:31:383,0,-17.8332,1.69704,47.1586,Q,Q
2023-03-14 21:35:31:393,0,-17.838,1.67484,47.0662,Q,Q
2023-03-14 21:35:31:403,0,-17.8441,1.64931,46.9805,Q,Q
2023-03-14 21:35:31:413,0,-17.849,1.61855,46.9106,Q,Q
2023-03-14 21:35:31:423,0,-17.8524,1.58248,46.8523,Q,Q
2023-03-14 21:35:31:433,0,-17.8559,1.54441,46.8058,Q,Q
2023-03-14 21:35:31:443,0,-17.856,1.50577,46.7725,Q,Q
2023-03-14 21:35:31:453,0,-17.8527,1.46757,46.7467,Q,Q
2023-03-14 21:35:31:463,0,-17.8422,1.43066,46.7347,Q,Q
2023-03-14 21:35:31:473,0,-17.8258,1.39921,46.7276,Q,Q
2023-03-14 21:35:31:483,0,-17.7994,1.37113,46.7264,Q,Q
2023-03-14 21:35:31:493,0,-17.7664,1.3479,46.7289,Q,Q
2023-03-14 21:35:31:503,0,-17.725,1.32967,46.7321,Q,Q
2023-03-14 21:35:31:513,0,-17.6706,1.31735,46.7364,Q,Q
2023-03-14 21:35:31:523,0,-17.6131,1.30903,46.7444,Q,Q
2023-03-14 21:35:31:533,0,-17.5463,1.30385,46.7483,Q,Q
2023-03-14 21:35:31:543,0,-17.4838,1.303,46.7502,Q,Q
2023-03-14 21:35:31:553,0,-17.4185,1.30247,46.7448,Q,Q
2023-03-14 21:35:31:563,0,-17.3458,1.30585,46.7396,Q,Q
2023-03-14 21:35:31:573,0,-17.2765,1.31011,46.7305,Q,Q
2023-03-14 21:35:31:583,0,-17.209,1.32061,46.72,Q,Q
2023-03-14 21:35:31:593,0,-17.1394,1.32911,46.703,Q,Q
2023-03-14 21:35:31:603,0,-17.0696,1.33908,46.6792,Q,Q
2023-03-14 21:35:31:613,0,-17.0047,1.34435,46.6469,Q,Q
2023-03-14 21:35:31:623,0,-16.9461,1.34632,46.6112,Q,Q
2023-03-14 21:35:31:633,0,-16.8976,1.34272,46.5679,Q,Q
2023-03-14 21:35:31:643,0,-16.8565,1.33311,46.5218,Q,Q
2023-03-14 21:35:31:653,0,-16.8202,1.3145,46.4757,Q,Q
2023-03-14 21:35:31:663,0,-16.7881,1.29673,46.4266,Q,Q
2023-03-14 21:35:31:673,0,-16.7643,1.27569,46.3789,Q,Q
2023-03-14 21:35:31:683,0,-16.7521,1.25454,46.3328,Q,Q
2023-03-14 21:35:31:693,0,-16.745,1.22949,46.287,Q,Q
2023-03-14 21:35:31:703,0,-16.7453,1.20343,46.2507,Q,Q
2023-03-14 21:35:31:713,0,-16.7513,1.17471,46.2171,Q,Q
2023-03-14 21:35:31:723,0,-16.7614,1.14651,46.1871,Q,Q
2023-03-14 21:35:31:733,0,-16.7686,1.12298,46.1598,Q,Q
2023-03-14 21:35:31:743,0,-16.7808,1.09643,46.1408,Q,Q
2023-03-14 21:35:31:753,0,-16.7911,1.07111,46.1273,Q,Q
2023-03-14 21:35:31:763,0,-16.7978,1.04663,46.1205,Q,Q
2023-03-14 21:35:31:773,0,-16.8055,1.02884,46.1165,Q,Q
2023-03-14 21:35:31:783,0,-16.8156,1.01455,46.1172,Q,Q
2023-03-14 21:35:31:793,0,-16.8199,1.00458,46.1296,Q,Q
2023-03-14 21:35:31:803,0,-16.8277,0.998145,46.141,Q,Q
2023-03-14 21:35:31:813,0,-16.8318,0.99489,46.154,Q,Q
2023-03-14 21:35:31:823,0,-16.8307,0.996678,46.1698,Q,Q
2023-03-14 21:35:31:833,0,-16.8347,0.99903,46.1807,Q,Q
2023-03-14 21:35:31:843,0,-16.8401,1.00248,46.1895,Q,Q
2023-03-14 21:35:31:853,0,-16.8441,1.00263,46.197,Q,Q
2023-03-14 21:35:31:863,0,-16.8485,0.998721,46.1972,Q,Q
2023-03-14 21:35:31:873,0,-16.8516,0.995012,46.1929,Q,Q
2023-03-14 21:35:31:883,0,-16.8515,0.98786,46.1853,Q,Q
2023-03-14 21:35:31:893,0,-16.8473,0.981647,46.1732,Q,Q
2023-03-14 21:35:31:903,0,-16.8415,0.970437,46.161,Q,Q
2023-03-14 21:35:31:913,0,-16.8312,0.956401,46.1441,Q,Q
2023-03-14 21:35:31:923,0,-16.8193,0.943189,46.1255,Q,Q
2023-03-14 21:35:31:933,0,-16.8034,0.931987,46.1042,Q,Q
2023-03-14 21:35:31:943,0,-16.7861,0.920746,46.0788,Q,Q
2023-03-14 21:35:31:953,0,-16.7655,0.907921,46.0488,Q,Q
2023-03-14 21:35:31:963,0,-16.7522,0.896875,46.0142,Q,Q
2023-03-14 21:35:31:973,0,-16.7361,0.885395,45.9818,Q,Q
2023-03-14 21:35:31:983,0,-16.7141,0.870836,45.9453,Q,Q
2023-03-14 21:35:31:993,0,-16.6902,0.858809,45.9108,Q,Q
2023-03-14 21:35:32:3,0,-16.6679,0.846192,45.8724,Q,Q
2023-03-14 21:35:32:13,0,-16.6452,0.836137,45.8417,Q,Q
2023-03-14 21:35:32:23,0,-16.6235,0.827999,45.8108,Q,Q
2023-03-14 21:35:32:33,0,-16.6015,0.817563,45.7828,Q,Q
2023-03-14 21:35:32:43,0,-16.5792,0.811623,45.7563,Q,Q
2023-03-14 21:35:32:53,0,-16.5618,0.806369,45.734,Q,Q
2023-03-14 21:35:32:63,0,-16.5443,0.801,45.715,Q,Q
2023-03-14 21:35:32:73,0,-16.5252,0.795399,45.698,Q,Q
2023-03-14 21:35:32:83,0,-16.5025,0.788966,45.6785,Q,Q
2023-03-14 21:35:32:93,0,-16.4776,0.783352,45.6609,Q,Q
2023-03-14 21:35:32:103,0,-16.4486,0.77328,45.6483,Q,Q
2023-03-14 21:35:32:113,0,-16.4228,0.762393,45.6372,Q,Q
2023-03-14 21:35:32:123,0,-16.398,0.747602,45.6297,Q,Q
2023-03-14 21:35:32:133,0,-16.3779,0.735567,45.6274,Q,Q
2023-03-14 21:35:32:143,0,-16.3598,0.722723,45.6278,Q,Q
2023-03-14 21:35:32:153,0,-16.3456,0.709386,45.6266,Q,Q
2023-03-14 21:35:32:163,0,-16.3319,0.69865,45.6267,Q,Q
2023-03-14 21:35:32:173,0,-16.3198,0.692,45.6243,Q,Q
2023-03-14 21:35:32:183,0,-16.309,0.690019,45.6224,Q,Q
2023-03-14 21:35:32:193,0,-16.2955,0.684222,45.6174,Q,Q
2023-03-14 21:35:32:203,0,-16.2771,0.681195,45.6107,Q,Q
2023-03-14 21:35:32:213,0,-16.2586,0.676155,45.6035,Q,Q
2023-03-14 21:35:32:223,0,-16.2391,0.669857,45.5997,Q,Q
2023-03-14 21:35:32:233,0,-16.2176,0.656987,45.6042,Q,Q
2023-03-14 21:35:32:243,0,-16.1937,0.639562,45.6085,Q,Q
2023-03-14 21:35:32:253,0,-16.1707,0.622442,45.6129,Q,Q
2023-03-14 21:35:32:263,0,-16.1469,0.600259,45.619,Q,Q
2023-03-14 21:35:32:273,0,-16.1265,0.576309,45.6307,Q,Q
2023-03-14 21:35:32:283,0,-16.1009,0.557506,45.6425,Q,Q
2023-03-14 21:35:32:293,0,-16.0788,0.541506,45.6536,Q,Q
2023-03-14 21:35:32:303,0,-16.0496,0.530076,45.6665,Q,Q
2023-03-14 21:35:32:313,0,-16.0148,0.518618,45.6749,Q,Q
2023-03-14 21:35:32:323,0,-15.9762,0.507264,45.6788,Q,Q
2023-03-14 21:35:32:333,0,-15.9394,0.494682,45.677,Q,Q
2023-03-14 21:35:32:343,0,-15.899,0.48686,45.6671,Q,Q
2023-03-14 21:35:32:353,0,-15.8605,0.473472,45.6498,Q,Q
2023-03-14 21:35:32:363,0,-15.8237,0.460075,45.6246,Q,Q
2023-03-14 21:35:32:373,0,-15.795,0.446766,45.5943,Q,Q
2023-03-14 21:35:32:383,0,-15.7723,0.43341,45.5612,Q,Q
2023-03-14 21:35:32:393,0,-15.7547,0.419542,45.5241,Q,Q
2023-03-14 21:35:32:403,0,-15.734,0.403029,45.4815,Q,Q
2023-03-14 21:35:32:413,0,-15.7118,0.379336,45.4381,Q,Q
2023-03-14 21:35:32:423,0,-15.6956,0.354859,45.392,Q,Q
2023-03-14 21:35:32:433,0,-15.6788,0.330506,45.3443,Q,Q
2023-03-14 21:35:32:443,0,-15.6665,0.306454,45.2911,Q,Q
2023-03-14 21:35:32:453,0,-15.6552,0.284763,45.2384,Q,Q
2023-03-14 21:35:32:463,0,-15.6495,0.263257,45.1868,Q,Q
2023-03-14 21:35:32:473,0,-15.641,0.240429,45.1371,Q,Q
2023-03-14 21:35:32:483,0,-15.6304,0.217374,45.0884,Q,Q
2023-03-14 21:35:32:493,0,-15.6207,0.191161,45.0458,Q,Q
2023-03-14 21:35:32:503,0,-15.6032,0.164167,45.0049,Q,Q
2023-03-14 21:35:32:513,0,-15.5856,0.136719,44.9657,Q,Q
2023-03-14 21:35:32:523,0,-15.5641,0.109405,44.9275,Q,Q
2023-03-14 21:35:32:533,0,-15.5381,0.0773093,44.8917,Q,Q
2023-03-14 21:35:32:543,0,-15.5123,0.0382502,44.8579,Q,Q
2023-03-14 21:35:32:552,0,-15.4869,0.00092841,44.825,Q,Q
2023-03-14 21:35:32:563,0,-15.4637,-0.0393541,44.794,Q,Q
2023-03-14 21:35:32:573,0,-15.444,-0.0831349,44.7622,Q,Q
2023-03-14 21:35:32:583,0,-15.4265,-0.124478,44.7267,Q,Q
2023-03-14 21:35:32:593,0,-15.411,-0.172185,44.6936,Q,Q
2023-03-14 21:35:32:603,0,-15.3969,-0.220122,44.6594,Q,Q
2023-03-14 21:35:32:613,0,-15.384,-0.268099,44.6269,Q,Q
2023-03-14 21:35:32:623,0,-15.3666,-0.31021,44.5968,Q,Q
2023-03-14 21:35:32:633,0,-15.3464,-0.352437,44.5677,Q,Q
2023-03-14 21:35:32:643,0,-15.3198,-0.390135,44.5426,Q,Q
2023-03-14 21:35:32:653,0,-15.296,-0.418424,44.5155,Q,Q
2023-03-14 21:35:32:663,0,-15.2669,-0.443649,44.4935,Q,Q
2023-03-14 21:35:32:673,0,-15.2345,-0.467696,44.4748,Q,Q
2023-03-14 21:35:32:683,0,-15.2043,-0.493425,44.4571,Q,Q
2023-03-14 21:35:32:693,0,-15.1802,-0.514469,44.4434,Q,Q
2023-03-14 21:35:32:703,0,-15.1615,-0.53969,44.4302,Q,Q
2023-03-14 21:35:32:713,0,-15.1431,-0.566033,44.4178,Q,Q
2023-03-14 21:35:32:723,0,-15.1287,-0.592664,44.4156,Q,Q
2023-03-14 21:35:32:733,0,-15.1219,-0.617318,44.4137,Q,Q
2023-03-14 21:35:32:743,0,-15.1195,-0.640581,44.4113,Q,Q
2023-03-14 21:35:32:753,0,-15.1153,-0.668169,44.4072,Q,Q
2023-03-14 21:35:32:763,0,-15.116,-0.691877,44.4033,Q,Q
2023-03-14 21:35:32:773,0,-15.1172,-0.71486,44.3951,Q,Q
2023-03-14 21:35:32:783,0,-15.1212,-0.739351,44.3884,Q,Q
2023-03-14 21:35:32:793,0,-15.1265,-0.762696,44.3847,Q,Q
2023-03-14 21:35:32:803,0,-15.1299,-0.793866,44.3833,Q,Q
2023-03-14 21:35:32:813,0,-15.1336,-0.828969,44.3862,Q,Q
2023-03-14 21:35:32:823,0,-15.1359,-0.861752,44.3875,Q,Q
2023-03-14 21:35:32:833,0,-15.1412,-0.89723,44.3832,Q,Q
2023-03-14 21:35:32:843,0,-15.145,-0.937648,44.3788,Q,Q
2023-03-14 21:35:32:853,0,-15.1524,-0.976383,44.371,Q,Q
2023-03-14 21:35:32:863,0,-15.1558,-1.01499,44.3641,Q,Q
2023-03-14 21:35:32:873,0,-15.1543,-1.05057,44.3578,Q,Q
2023-03-14 21:35:32:883,0,-15.156,-1.08319,44.3491,Q,Q
2023-03-14 21:35:32:893,0,-15.1561,-1.10902,44.3368,Q,Q
2023-03-14 21:35:32:903,0,-15.1581,-1.13066,44.3274,Q,Q
2023-03-14 21:35:32:913,0,-15.161,-1.15001,44.3171,Q,Q
2023-03-14 21:35:32:923,0,-15.1731,-1.16199,44.3099,Q,Q
2023-03-14 21:35:32:933,0,-15.1923,-1.17342,44.3076,Q,Q
2023-03-14 21:35:32:943,0,-15.2137,-1.18315,44.3051,Q,Q
2023-03-14 21:35:32:953,0,-15.2394,-1.19031,44.3038,Q,Q
2023-03-14 21:35:32:963,0,-15.2696,-1.19062,44.3034,Q,Q
2023-03-14 21:35:32:973,0,-15.2951,-1.19271,44.3072,Q,Q
2023-03-14 21:35:32:983,0,-15.3165,-1.19762,44.3155,Q,Q
2023-03-14 21:35:32:993,0,-15.3374,-1.20251,44.3221,Q,Q
2023-03-14 21:35:33:3,0,-15.3535,-1.21415,44.3221,Q,Q
2023-03-14 21:35:33:13,0,-15.3673,-1.22808,44.3232,Q,Q
2023-03-14 21:35:33:23,0,-15.3779,-1.23938,44.3225,Q,Q
2023-03-14 21:35:33:33,0,-15.3853,-1.25257,44.3129,Q,Q
2023-03-14 21:35:33:43,0,-15.3842,-1.26798,44.2973,Q,Q
2023-03-14 21:35:33:53,0,-15.3701,-1.28275,44.2731,Q,Q
2023-03-14 21:35:33:63,0,-15.3562,-1.30067,44.2363,Q,Q
2023-03-14 21:35:33:73,0,-15.3405,-1.31854,44.1896,Q,Q
2023-03-14 21:35:33:83,0,-15.3249,-1.3436,44.1317,Q,Q
2023-03-14 21:35:33:93,0,-15.3084,-1.37381,44.0659,Q,Q
2023-03-14 21:35:33:103,0,-15.2996,-1.40515,43.9927,Q,Q
2023-03-14 21:35:33:113,0,-15.2916,-1.44774,43.9108,Q,Q
2023-03-14 21:35:33:123,0,-15.2887,-1.49178,43.8254,Q,Q
2023-03-14 21:35:33:133,0,-15.2854,-1.53616,43.7414,Q,Q
2023-03-14 21:35:33:143,0,-15.2799,-1.57988,43.6503,Q,Q
2023-03-14 21:35:33:153,0,-15.2631,-1.61693,43.558,Q,Q
2023-03-14 21:35:33:163,0,-15.2386,-1.64713,43.4709,Q,Q
2023-03-14 21:35:33:173,0,-15.2029,-1.67223,43.3945,Q,Q
2023-03-14 21:35:33:183,0,-15.1664,-1.69539,43.3373,Q,Q
2023-03-14 21:35:33:193,0,-15.1395,-1.71649,43.2928,Q,Q
2023-03-14 21:35:33:203,0,-15.1195,-1.73388,43.2616,Q,Q
2023-03-14 21:35:33:213,0,-15.1021,-1.74414,43.236,Q,Q
2023-03-14 21:35:33:223,0,-15.0897,-1.75052,43.2212,Q,Q
2023-03-14 21:35:33:233,0,-15.0763,-1.75948,43.2111,Q,Q
2023-03-14 21:35:33:243,0,-15.0638,-1.76992,43.2054,Q,Q
2023-03-14 21:35:33:253,0,-15.0495,-1.77853,43.1997,Q,Q
2023-03-14 21:35:33:263,0,-15.0315,-1.7817,43.1909,Q,Q
2023-03-14 21:35:33:273,0,-15.0116,-1.78618,43.1767,Q,Q
2023-03-14 21:35:33:283,0,-14.9933,-1.78743,43.1616,Q,Q
2023-03-14 21:35:33:293,0,-14.9729,-1.78934,43.136,Q,Q
2023-03-14 21:35:33:303,0,-14.9534,-1.79298,43.1014,Q,Q
2023-03-14 21:35:33:313,0,-14.936,-1.79883,43.0596,Q,Q
2023-03-14 21:35:33:323,0,-14.9198,-1.80996,43.0092,Q,Q
2023-03-14 21:35:33:333,0,-14.9042,-1.82812,42.9462,Q,Q
2023-03-14 21:35:33:343,0,-14.8884,-1.84619,42.8719,Q,Q
2023-03-14 21:35:33:353,0,-14.8727,-1.86796,42.787,Q,Q
2023-03-14 21:35:33:363,0,-14.8566,-1.90105,42.6907,Q,Q
2023-03-14 21:35:33:373,0,-14.8411,-1.94095,42.583,Q,Q
2023-03-14 21:35:33:383,0,-14.8359,-1.98441,42.4596,Q,Q
2023-03-14 21:35:33:393,0,-14.8357,-2.0338,42.326,Q,Q
2023-03-14 21:35:33:403,0,-14.8375,-2.08388,42.1762,Q,Q
2023-03-14 21:35:33:413,0,-14.8416,-2.13538,42.0119,Q,Q
2023-03-14 21:35:33:423,0,-14.8478,-2.18554,41.8271,Q,Q
2023-03-14 21:35:33:433,0,-14.8549,-2.23904,41.6227,Q,Q
2023-03-14 21:35:33:443,0,-14.8577,-2.28955,41.3974,Q,Q
2023-03-14 21:35:33:453,0,-14.8542,-2.34131,41.1562,Q,Q
2023-03-14 21:35:33:463,0,-14.8526,-2.39669,40.9039,Q,Q
2023-03-14 21:35:33:473,0,-14.8457,-2.45232,40.6381,Q,Q
2023-03-14 21:35:33:483,0,-14.8318,-2.50829,40.3615,Q,Q
2023-03-14 21:35:33:493,0,-14.8088,-2.56477,40.074,Q,Q
2023-03-14 21:35:33:503,0,-14.782,-2.62183,39.7924,Q,Q
2023-03-14 21:35:33:513,0,-14.7566,-2.67999,39.5057,Q,Q
2023-03-14 21:35:33:523,0,-14.7414,-2.72795,39.211,Q,Q
2023-03-14 21:35:33:533,0,-14.7297,-2.77696,38.9253,Q,Q
2023-03-14 21:35:33:543,0,-14.7224,-2.8296,38.6553,Q,Q
2023-03-14 21:35:33:553,0,-14.7216,-2.8812,38.4125,Q,Q
2023-03-14 21:35:33:563,0,-14.7202,-2.93607,38.1928,Q,Q
2023-03-14 21:35:33:573,0,-14.7214,-2.98555,37.9863,Q,Q
2023-03-14 21:35:33:583,0,-14.7193,-3.02833,37.7904,Q,Q
2023-03-14 21:35:33:593,0,-14.7189,-3.06297,37.6099,Q,Q
2023-03-14 21:35:33:603,0,-14.7185,-3.09438,37.4385,Q,Q
2023-03-14 21:35:33:613,0,-14.7209,-3.12068,37.2765,Q,Q
2023-03-14 21:35:33:623,0,-14.7177,-3.14411,37.1299,Q,Q
2023-03-14 21:35:33:633,0,-14.7111,-3.17014,37.0011,Q,Q
2023-03-14 21:35:33:643,0,-14.7043,-3.20063,36.89,Q,Q
2023-03-14 21:35:33:653,0,-14.6973,-3.22882,36.7942,Q,Q
2023-03-14 21:35:33:663,0,-14.6942,-3.2573,36.7133,Q,Q
2023-03-14 21:35:33:673,0,-14.6892,-3.27971,36.6448,Q,Q
2023-03-14 21:35:33:683,0,-14.6947,-3.29926,36.5851,Q,Q
2023-03-14 21:35:33:693,0,-14.7021,-3.31639,36.5238,Q,Q
2023-03-14 21:35:33:703,0,-14.7092,-3.32806,36.4688,Q,Q
2023-03-14 21:35:33:713,0,-14.7233,-3.34079,36.4137,Q,Q
2023-03-14 21:35:33:723,0,-14.7389,-3.35168,36.3623,Q,Q
2023-03-14 21:35:33:733,0,-14.7511,-3.36352,36.3141,Q,Q
2023-03-14 21:35:33:743,0,-14.7587,-3.37505,36.271,Q,Q
2023-03-14 21:35:33:753,0,-14.7634,-3.38985,36.2378,Q,Q
2023-03-14 21:35:33:763,0,-14.7657,-3.40484,36.2163,Q,Q
2023-03-14 21:35:33:773,0,-14.766,-3.41845,36.1991,Q,Q
2023-03-14 21:35:33:783,0,-14.7709,-3.43118,36.1841,Q,Q
2023-03-14 21:35:33:793,0,-14.7766,-3.44272,36.1753,Q,Q
2023-03-14 21:35:33:803,0,-14.7889,-3.45409,36.1681,Q,Q
2023-03-14 21:35:33:813,0,-14.8094,-3.46417,36.1592,Q,Q
2023-03-14 21:35:33:823,0,-14.8265,-3.47126,36.1533,Q,Q
2023-03-14 21:35:33:833,0,-14.8416,-3.47875,36.1496,Q,Q
2023-03-14 21:35:33:843,0,-14.8535,-3.48382,36.148,Q,Q
2023-03-14 21:35:33:853,0,-14.864,-3.48975,36.1527,Q,Q
2023-03-14 21:35:33:863,0,-14.8715,-3.49309,36.1603,Q,Q
2023-03-14 21:35:33:873,0,-14.8803,-3.49601,36.1698,Q,Q
2023-03-14 21:35:33:883,0,-14.892,-3.49994,36.1816,Q,Q
2023-03-14 21:35:33:893,0,-14.9061,-3.49521,36.1864,Q,Q
2023-03-14 21:35:33:903,0,-14.9172,-3.49063,36.1873,Q,Q
2023-03-14 21:35:33:913,0,-14.9263,-3.48698,36.1881,Q,Q
2023-03-14 21:35:33:923,0,-14.9336,-3.4833,36.1868,Q,Q
2023-03-14 21:35:33:933,0,-14.9433,-3.47786,36.1888,Q,Q
2023-03-14 21:35:33:943,0,-14.9515,-3.47577,36.188,Q,Q
2023-03-14 21:35:33:953,0,-14.9695,-3.46966,36.1835,Q,Q
2023-03-14 21:35:33:963,0,-14.9972,-3.46343,36.1789,Q,Q
2023-03-14 21:35:33:973,0,-15.0279,-3.45387,36.174,Q,Q
2023-03-14 21:35:33:983,0,-15.0567,-3.44694,36.1683,Q,Q
2023-03-14 21:35:33:993,0,-15.08,-3.4428,36.1714,Q,Q
2023-03-14 21:35:34:3,0,-15.1014,-3.43873,36.1781,Q,Q
2023-03-14 21:35:34:13,0,-15.1203,-3.43521,36.1957,Q,Q
2023-03-14 21:35:34:23,0,-15.1471,-3.43188,36.2218,Q,Q
2023-03-14 21:35:34:33,0,-15.173,-3.42951,36.2527,Q,Q
2023-03-14 21:35:34:43,0,-15.2131,-3.42908,36.2893,Q,Q
2023-03-14 21:35:34:53,0,-15.2663,-3.43455,36.3313,Q,Q
2023-03-14 21:35:34:63,0,-15.335,-3.44027,36.3822,Q,Q
2023-03-14 21:35:34:73,0,-15.4092,-3.44651,36.4336,Q,Q
2023-03-14 21:35:34:83,0,-15.4813,-3.45176,36.4862,Q,Q
2023-03-14 21:35:34:93,0,-15.5436,-3.4563,36.5438,Q,Q
2023-03-14 21:35:34:103,0,-15.5887,-3.45905,36.6105,Q,Q
2023-03-14 21:35:34:113,0,-15.6199,-3.45936,36.6815,Q,Q
2023-03-14 21:35:34:123,0,-15.6453,-3.45515,36.7607,Q,Q
2023-03-14 21:35:34:133,0,-15.6578,-3.44674,36.8399,Q,Q
2023-03-14 21:35:34:143,0,-15.6599,-3.4365,36.9181,Q,Q
2023-03-14 21:35:34:153,0,-15.6271,-3.41799,36.9965,Q,Q
2023-03-14 21:35:34:163,0,-15.5566,-3.39833,37.0677,Q,Q
2023-03-14 21:35:34:173,0,-15.4583,-3.36997,37.1401,Q,Q
2023-03-14 21:35:34:183,0,-15.3476,-3.34047,37.2105,Q,Q
2023-03-14 21:35:34:193,0,-15.2429,-3.30857,37.2845,Q,Q
2023-03-14 21:35:34:203,0,-15.152,-3.27859,37.3586,Q,Q
2023-03-14 21:35:34:213,0,-15.0756,-3.25522,37.4309,Q,Q
2023-03-14 21:35:34:223,0,-15.0119,-3.2303,37.5039,Q,Q
2023-03-14 21:35:34:233,0,-14.9558,-3.21615,37.5772,Q,Q
2023-03-14 21:35:34:243,0,-14.9043,-3.2044,37.6464,Q,Q
2023-03-14 21:35:34:253,0,-14.858,-3.1926,37.7066,Q,Q
2023-03-14 21:35:34:263,0,-14.8136,-3.18301,37.7626,Q,Q
2023-03-14 21:35:34:273,0,-14.7748,-3.171,37.8133,Q,Q
2023-03-14 21:35:34:283,0,-14.737,-3.16154,37.8595,Q,Q
2023-03-14 21:35:34:293,0,-14.7017,-3.15972,37.9037,Q,Q
2023-03-14 21:35:34:303,0,-14.6712,-3.16262,37.9481,Q,Q
2023-03-14 21:35:34:313,0,-14.654,-3.17331,37.993,Q,Q
2023-03-14 21:35:34:323,0,-14.6522,-3.18428,38.0384,Q,Q
2023-03-14 21:35:34:333,0,-14.6579,-3.19803,38.0833,Q,Q
2023-03-14 21:35:34:343,0,-14.6636,-3.20851,38.1213,Q,Q
2023-03-14 21:35:34:353,0,-14.6707,-3.21471,38.1517,Q,Q
2023-03-14 21:35:34:363,0,-14.6822,-3.21687,38.1768,Q,Q
2023-03-14 21:35:34:373,0,-14.6901,-3.21763,38.1965,Q,Q
2023-03-14 21:35:34:383,0,-14.6951,-3.21738,38.2132,Q,Q
2023-03-14 21:35:34:393,0,-14.6911,-3.2169,38.2279,Q,Q
2023-03-14 21:35:34:403,0,-14.6817,-3.20995,38.2387,Q,Q
2023-03-14 21:35:34:413,0,-14.6687,-3.19989,38.2451,Q,Q
2023-03-14 21:35:34:423,0,-14.6581,-3.18648,38.2515,Q,Q
2023-03-14 21:35:34:433,0,-14.6503,-3.17582,38.2534,Q,Q
2023-03-14 21:35:34:443,0,-14.6437,-3.16387,38.2542,Q,Q
2023-03-14 21:35:34:453,0,-14.6361,-3.15207,38.2507,Q,Q
2023-03-14 21:35:34:463,0,-14.625,-3.14033,38.2375,Q,Q
2023-03-14 21:35:34:473,0,-14.6138,-3.12955,38.2198,Q,Q
2023-03-14 21:35:34:483,0,-14.6029,-3.11942,38.1944,Q,Q
2023-03-14 21:35:34:493,0,-14.5943,-3.11411,38.1648,Q,Q
2023-03-14 21:35:34:503,0,-14.5852,-3.10669,38.1241,Q,Q
2023-03-14 21:35:34:513,0,-14.5719,-3.10066,38.0759,Q,Q
2023-03-14 21:35:34:523,0,-14.5555,-3.09665,38.0242,Q,Q
2023-03-14 21:35:34:533,0,-14.5346,-3.09637,37.9679,Q,Q
2023-03-14 21:35:34:543,0,-14.5107,-3.09517,37.912,Q,Q
2023-03-14 21:35:34:553,0,-14.4827,-3.09785,37.8443,Q,Q
2023-03-14 21:35:34:563,0,-14.451,-3.10032,37.7778,Q,Q
2023-03-14 21:35:34:573,0,-14.4266,-3.10801,37.7074,Q,Q
2023-03-14 21:35:34:583,0,-14.4091,-3.12019,37.6336,Q,Q
2023-03-14 21:35:34:593,0,-14.3943,-3.13308,37.5547,Q,Q
2023-03-14 21:35:34:603,0,-14.3772,-3.15056,37.4752,Q,Q
2023-03-14 21:35:34:613,0,-14.3626,-3.17008,37.3996,Q,Q
2023-03-14 21:35:34:623,0,-14.3455,-3.1878,37.3306,Q,Q
2023-03-14 21:35:34:633,0,-14.3273,-3.1989,37.2643,Q,Q
2023-03-14 21:35:34:643,0,-14.3088,-3.20929,37.1969,Q,Q
2023-03-14 21:35:34:653,0,-14.2908,-3.21945,37.138,Q,Q
2023-03-14 21:35:34:663,0,-14.2721,-3.23179,37.0874,Q,Q
2023-03-14 21:35:34:673,0,-14.2546,-3.23884,37.0437,Q,Q
2023-03-14 21:35:34:683,0,-14.2419,-3.25078,37.008,Q,Q
2023-03-14 21:35:34:693,0,-14.2305,-3.26145,36.977,Q,Q
2023-03-14 21:35:34:703,0,-14.221,-3.27297,36.9592,Q,Q
2023-03-14 21:35:34:713,0,-14.2121,-3.28231,36.9443,Q,Q
2023-03-14 21:35:34:723,0,-14.2039,-3.28818,36.9406,Q,Q
2023-03-14 21:35:34:733,0,-14.1973,-3.29723,36.9454,Q,Q
2023-03-14 21:35:34:743,0,-14.1949,-3.30232,36.9538,Q,Q
2023-03-14 21:35:34:753,0,-14.198,-3.30375,36.966,Q,Q
2023-03-14 21:35:34:763,0,-14.2068,-3.30327,36.9805,Q,Q
2023-03-14 21:35:34:773,0,-14.2169,-3.29946,36.9948,Q,Q
2023-03-14 21:35:34:783,0,-14.2279,-3.29532,37.0044,Q,Q
2023-03-14 21:35:34:793,0,-14.2415,-3.29053,37.0074,Q,Q
2023-03-14 21:35:34:803,0,-14.2561,-3.28859,37.012,Q,Q
2023-03-14 21:35:34:813,0,-14.274,-3.28386,37.0209,Q,Q
2023-03-14 21:35:34:823,0,-14.286,-3.27872,37.0267,Q,Q
2023-03-14 21:35:34:833,0,-14.2996,-3.27177,37.036,Q,Q
2023-03-14 21:35:34:843,0,-14.3115,-3.25979,37.0464,Q,Q
2023-03-14 21:35:34:853,0,-14.3251,-3.2389,37.0606,Q,Q
2023-03-14 21:35:34:863,0,-14.3364,-3.21703,37.0837,Q,Q
2023-03-14 21:35:34:873,0,-14.3492,-3.18152,37.1124,Q,Q
2023-03-14 21:35:34:883,0,-14.3651,-3.13967,37.1573,Q,Q
2023-03-14 21:35:34:893,0,-14.3697,-3.09066,37.2195,Q,Q
2023-03-14 21:35:34:903,0,-14.3678,-3.03619,37.3096,Q,Q
2023-03-14 21:35:34:913,0,-14.3637,-2.97238,37.4111,Q,Q
2023-03-14 21:35:34:923,0,-14.3596,-2.90674,37.5252,Q,Q
2023-03-14 21:35:34:933,0,-14.3553,-2.8367,37.6462,Q,Q
2023-03-14 21:35:34:943,0,-14.353,-2.77216,37.7687,Q,Q
2023-03-14 21:35:34:953,0,-14.3537,-2.71185,37.8886,Q,Q
2023-03-14 21:35:34:963,0,-14.3586,-2.65657,37.9984,Q,Q
2023-03-14 21:35:34:973,0,-14.3625,-2.60477,38.0937,Q,Q
2023-03-14 21:35:34:983,0,-14.3696,-2.56582,38.18,Q,Q
2023-03-14 21:35:34:993,0,-14.3757,-2.53645,38.2484,Q,Q
2023-03-14 21:35:35:3,0,-14.379,-2.51623,38.2936,Q,Q
2023-03-14 21:35:35:13,0,-14.3829,-2.50059,38.324,Q,Q
2023-03-14 21:35:35:23,0,-14.3883,-2.4967,38.3369,Q,Q
2023-03-14 21:35:35:33,0,-14.395,-2.50051,38.3276,Q,Q
2023-03-14 21:35:35:43,0,-14.3975,-2.51149,38.304,Q,Q
2023-03-14 21:35:35:53,0,-14.3963,-2.52263,38.2651,Q,Q
2023-03-14 21:35:35:63,0,-14.392,-2.54211,38.2176,Q,Q
2023-03-14 21:35:35:73,0,-14.3869,-2.56553,38.1655,Q,Q
2023-03-14 21:35:35:83,0,-14.3795,-2.58644,38.1064,Q,Q
2023-03-14 21:35:35:93,0,-14.3731,-2.61002,38.0479,Q,Q
2023-03-14 21:35:35:103,0,-14.3705,-2.63095,37.9854,Q,Q
2023-03-14 21:35:35:113,0,-14.368,-2.65573,37.9247,Q,Q
2023-03-14 21:35:35:123,0,-14.3713,-2.67619,37.8689,Q,Q
2023-03-14 21:35:35:133,0,-14.374,-2.69411,37.818,Q,Q
2023-03-14 21:35:35:143,0,-14.3743,-2.71694,37.7655,Q,Q
2023-03-14 21:35:35:153,0,-14.3758,-2.73239,37.7154,Q,Q
2023-03-14 21:35:35:163,0,-14.3734,-2.74501,37.6708,Q,Q
2023-03-14 21:35:35:173,0,-14.3692,-2.75638,37.6324,Q,Q
2023-03-14 21:35:35:183,0,-14.3694,-2.76525,37.6043,Q,Q
2023-03-14 21:35:35:193,0,-14.3659,-2.76814,37.5831,Q,Q
2023-03-14 21:35:35:203,0,-14.3639,-2.77466,37.5696,Q,Q
2023-03-14 21:35:35:213,0,-14.3685,-2.77873,37.5591,Q,Q
2023-03-14 21:35:35:223,0,-14.3678,-2.7842,37.5523,Q,Q
2023-03-14 21:35:35:233,0,-14.3698,-2.79649,37.5516,Q,Q
2023-03-14 21:35:35:243,0,-14.3764,-2.80773,37.5553,Q,Q
2023-03-14 21:35:35:253,0,-14.3858,-2.81884,37.5569,Q,Q
2023-03-14 21:35:35:263,0,-14.3906,-2.82639,37.5499,Q,Q
2023-03-14 21:35:35:273,0,-14.3955,-2.83521,37.5421,Q,Q
2023-03-14 21:35:35:283,0,-14.3955,-2.84221,37.5279,Q,Q
2023-03-14 21:35:35:293,0,-14.3945,-2.8497,37.5092,Q,Q
2023-03-14 21:35:35:303,0,-14.3877,-2.85892,37.4904,Q,Q
2023-03-14 21:35:35:313,0,-14.3793,-2.86712,37.4644,Q,Q
2023-03-14 21:35:35:323,0,-14.3688,-2.8769,37.4423,Q,Q
2023-03-14 21:35:35:333,0,-14.3596,-2.89098,37.4165,Q,Q
2023-03-14 21:35:35:343,0,-14.3486,-2.90439,37.3946,Q,Q
2023-03-14 21:35:35:353,0,-14.3401,-2.9151,37.3661,Q,Q
2023-03-14 21:35:35:363,0,-14.3337,-2.92689,37.3358,Q,Q
2023-03-14 21:35:35:373,0,-14.3302,-2.93664,37.3023,Q,Q
2023-03-14 21:35:35:383,0,-14.324,-2.94553,37.2625,Q,Q
2023-03-14 21:35:35:393,0,-14.3231,-2.9514,37.2205,Q,Q
2023-03-14 21:35:35:403,0,-14.3248,-2.95485,37.1794,Q,Q
2023-03-14 21:35:35:413,0,-14.3239,-2.96405,37.1356,Q,Q
2023-03-14 21:35:35:423,0,-14.3243,-2.97661,37.0909,Q,Q
2023-03-14 21:35:35:433,0,-14.3205,-2.98866,37.048,Q,Q
2023-03-14 21:35:35:443,0,-14.3152,-3.00049,37.0032,Q,Q
2023-03-14 21:35:35:453,0,-14.3101,-3.00936,36.9569,Q,Q
2023-03-14 21:35:35:463,0,-14.3119,-3.02404,36.9064,Q,Q
2023-03-14 21:35:35:473,0,-14.3078,-3.03585,36.8552,Q,Q
2023-03-14 21:35:35:483,0,-14.2979,-3.0461,36.7976,Q,Q
2023-03-14 21:35:35:493,0,-14.2941,-3.0607,36.7369,Q,Q
2023-03-14 21:35:35:503,0,-14.2894,-3.07532,36.6736,Q,Q
2023-03-14 21:35:35:513,0,-14.2891,-3.09226,36.6046,Q,Q
2023-03-14 21:35:35:523,0,-14.2867,-3.1134,36.5393,Q,Q
2023-03-14 21:35:35:533,0,-14.2787,-3.13348,36.483,Q,Q
2023-03-14 21:35:35:543,0,-14.2705,-3.15525,36.4292,Q,Q
2023-03-14 21:35:35:553,0,-14.2599,-3.17611,36.3804,Q,Q
2023-03-14 21:35:35:563,0,-14.2554,-3.19472,36.334,Q,Q
2023-03-14 21:35:35:573,0,-14.2533,-3.21322,36.2913,Q,Q
2023-03-14 21:35:35:583,0,-14.2507,-3.23014,36.2495,Q,Q
2023-03-14 21:35:35:593,0,-14.2478,-3.24653,36.2038,Q,Q
2023-03-14 21:35:35:603,0,-14.2454,-3.26861,36.1516,Q,Q
2023-03-14 21:35:35:613,0,-14.2403,-3.28909,36.0968,Q,Q
2023-03-14 21:35:35:623,0,-14.2396,-3.31138,36.0353,Q,Q
2023-03-14 21:35:35:633,0,-14.2442,-3.33749,35.9669,Q,Q
2023-03-14 21:35:35:643,0,-14.2579,-3.36852,35.8887,Q,Q
2023-03-14 21:35:35:653,0,-14.2808,-3.40412,35.8026,Q,Q
2023-03-14 21:35:35:663,0,-14.3168,-3.44423,35.7094,Q,Q
2023-03-14 21:35:35:673,0,-14.3741,-3.49068,35.6072,Q,Q
2023-03-14 21:35:35:683,0,-14.4512,-3.54147,35.4974,Q,Q
2023-03-14 21:35:35:693,0,-14.5496,-3.59591,35.3809,Q,Q
2023-03-14 21:35:35:703,0,-14.667,-3.65496,35.2649,Q,Q
2023-03-14 21:35:35:713,0,-14.8087,-3.72311,35.1517,Q,Q
2023-03-14 21:35:35:723,0,-14.9751,-3.79827,35.0428,Q,Q
2023-03-14 21:35:35:733,0,-15.1666,-3.87861,34.9412,Q,Q
2023-03-14 21:35:35:743,0,-15.3998,-3.96486,34.8424,Q,Q
2023-03-14 21:35:35:753,0,-15.6663,-4.05263,34.7484,Q,Q
2023-03-14 21:35:35:763,0,-15.9883,-4.14903,34.6773,Q,Q
2023-03-14 21:35:35:773,0,-16.3834,-4.25365,34.6249,Q,Q
2023-03-14 21:35:35:783,0,-16.8274,-4.35622,34.5687,Q,Q
2023-03-14 21:35:35:793,0,-17.2753,-4.45252,34.4991,Q,Q
2023-03-14 21:35:35:803,0,-17.7038,-4.53953,34.4174,Q,Q
2023-03-14 21:35:35:813,0,-18.1168,-4.61666,34.3381,Q,Q
2023-03-14 21:35:35:823,0,-18.533,-4.69432,34.2606,Q,Q
2023-03-14 21:35:35:833,0,-18.9649,-4.77889,34.1848,Q,Q
2023-03-14 21:35:35:843,0,-19.4348,-4.86735,34.1245,Q,Q
2023-03-14 21:35:35:853,0,-19.9382,-4.96564,34.0922,Q,Q
2023-03-14 21:35:35:863,0,-20.4544,-5.06491,34.0673,Q,Q
2023-03-14 21:35:35:873,0,-20.945,-5.15954,34.0351,Q,Q
2023-03-14 21:35:35:883,0,-21.412,-5.24058,33.9931,Q,Q
2023-03-14 21:35:35:893,0,-21.8534,-5.30867,33.9487,Q,Q
2023-03-14 21:35:35:903,0,-22.2866,-5.36622,33.9027,Q,Q
2023-03-14 21:35:35:913,0,-22.7131,-5.41289,33.8657,Q,Q
2023-03-14 21:35:35:923,0,-23.1104,-5.44958,33.8238,Q,Q
2023-03-14 21:35:35:933,0,-23.4498,-5.48488,33.7785,Q,Q
2023-03-14 21:35:35:943,0,-23.7118,-5.51573,33.7315,Q,Q
2023-03-14 21:35:35:953,0,-23.9094,-5.53873,33.6872,Q,Q
2023-03-14 21:35:35:963,0,-24.0652,-5.55081,33.6401,Q,Q
2023-03-14 21:35:35:973,0,-24.1974,-5.55024,33.5947,Q,Q
2023-03-14 21:35:35:983,0,-24.3305,-5.54172,33.5505,Q,Q
2023-03-14 21:35:35:993,0,-24.4632,-5.52971,33.5066,Q,Q
2023-03-14 21:35:36:3,0,-24.5855,-5.51718,33.4639,Q,Q
2023-03-14 21:35:36:13,0,-24.688,-5.50644,33.4171,Q,Q
2023-03-14 21:35:36:23,0,-24.7716,-5.49665,33.3676,Q,Q
2023-03-14 21:35:36:33,0,-24.8422,-5.48652,33.3153,Q,Q
2023-03-14 21:35:36:43,0,-24.899,-5.47181,33.2601,Q,Q
2023-03-14 21:35:36:53,0,-24.9431,-5.45539,33.2056,Q,Q
2023-03-14 21:35:36:63,0,-24.9765,-5.43585,33.1556,Q,Q
2023-03-14 21:35:36:73,0,-25.0012,-5.41478,33.1132,Q,Q
2023-03-14 21:35:36:83,0,-25.0159,-5.3971,33.0755,Q,Q
2023-03-14 21:35:36:93,0,-25.0266,-5.37862,33.0437,Q,Q
2023-03-14 21:35:36:103,0,-25.0416,-5.36256,33.0175,Q,Q
2023-03-14 21:35:36:113,0,-25.0593,-5.34823,33.004,Q,Q
2023-03-14 21:35:36:123,0,-25.0721,-5.33367,32.9943,Q,Q
2023-03-14 21:35:36:133,0,-25.082,-5.32166,32.9865,Q,Q
2023-03-14 21:35:36:143,0,-25.087,-5.30876,32.9856,Q,Q
2023-03-14 21:35:36:153,0,-25.0883,-5.29169,32.9857,Q,Q
2023-03-14 21:35:36:163,0,-25.0921,-5.27415,32.9957,Q,Q
2023-03-14 21:35:36:173,0,-25.0973,-5.25429,33.009,Q,Q
2023-03-14 21:35:36:183,0,-25.1096,-5.23375,33.0205,Q,Q
2023-03-14 21:35:36:193,0,-25.1242,-5.21617,33.0346,Q,Q
2023-03-14 21:35:36:203,0,-25.1408,-5.19346,33.0503,Q,Q
2023-03-14 21:35:36:213,0,-25.154,-5.16964,33.076,Q,Q
2023-03-14 21:35:36:223,0,-25.1636,-5.15086,33.1069,Q,Q
2023-03-14 21:35:36:233,0,-25.1699,-5.13281,33.143,Q,Q
2023-03-14 21:35:36:243,0,-25.1798,-5.1146,33.1821,Q,Q
2023-03-14 21:35:36:253,0,-25.1917,-5.09536,33.2206,Q,Q
2023-03-14 21:35:36:263,0,-25.2025,-5.07663,33.2601,Q,Q
2023-03-14 21:35:36:273,0,-25.2154,-5.06026,33.2968,Q,Q
2023-03-14 21:35:36:283,0,-25.2228,-5.04368,33.3288,Q,Q
2023-03-14 21:35:36:293,0,-25.231,-5.03206,33.3581,Q,Q
2023-03-14 21:35:36:303,0,-25.2415,-5.02584,33.383,Q,Q
2023-03-14 21:35:36:313,0,-25.2599,-5.02778,33.4062,Q,Q
2023-03-14 21:35:36:323,0,-25.2843,-5.03887,33.4264,Q,Q
2023-03-14 21:35:36:333,0,-25.3118,-5.05502,33.4464,Q,Q
2023-03-14 21:35:36:343,0,-25.3334,-5.07777,33.4623,Q,Q
2023-03-14 21:35:36:353,0,-25.361,-5.10809,33.4798,Q,Q
2023-03-14 21:35:36:363,0,-25.3848,-5.1433,33.4923,Q,Q
2023-03-14 21:35:36:373,0,-25.4104,-5.17924,33.5017,Q,Q
2023-03-14 21:35:36:383,0,-25.4357,-5.21552,33.5136,Q,Q
2023-03-14 21:35:36:393,0,-25.4647,-5.25359,33.521,Q,Q
2023-03-14 21:35:36:403,0,-25.4907,-5.29506,33.5271,Q,Q
2023-03-14 21:35:36:413,0,-25.513,-5.33829,33.531,Q,Q
2023-03-14 21:35:36:423,0,-25.5321,-5.38384,33.5354,Q,Q
2023-03-14 21:35:36:433,0,-25.5455,-5.42291,33.5393,Q,Q
2023-03-14 21:35:36:443,0,-25.5586,-5.45974,33.5383,Q,Q
2023-03-14 21:35:36:453,0,-25.5704,-5.49386,33.5402,Q,Q
2023-03-14 21:35:36:463,0,-25.5808,-5.52747,33.54,Q,Q
2023-03-14 21:35:36:473,0,-25.5909,-5.56084,33.5421,Q,Q
2023-03-14 21:35:36:483,0,-25.5959,-5.59258,33.544,Q,Q
2023-03-14 21:35:36:493,0,-25.5992,-5.6243,33.546,Q,Q
2023-03-14 21:35:36:503,0,-25.6037,-5.65284,33.5493,Q,Q
2023-03-14 21:35:36:513,0,-25.6135,-5.68479,33.5578,Q,Q
2023-03-14 21:35:36:523,0,-25.6288,-5.72122,33.5722,Q,Q
2023-03-14 21:35:36:533,0,-25.6472,-5.75419,33.5898,Q,Q
2023-03-14 21:35:36:543,0,-25.6652,-5.78545,33.607,Q,Q
2023-03-14 21:35:36:553,0,-25.6863,-5.81226,33.6273,Q,Q
2023-03-14 21:35:36:563,0,-25.7067,-5.83394,33.6463,Q,Q
2023-03-14 21:35:36:573,0,-25.7251,-5.85231,33.6624,Q,Q
2023-03-14 21:35:36:583,0,-25.7411,-5.86716,33.6822,Q,Q
2023-03-14 21:35:36:593,0,-25.7526,-5.8811,33.6968,Q,Q
2023-03-14 21:35:36:603,0,-25.7635,-5.8936,33.7108,Q,Q
2023-03-14 21:35:36:613,0,-25.7814,-5.90535,33.7237,Q,Q
2023-03-14 21:35:36:623,0,-25.8013,-5.91833,33.7319,Q,Q
2023-03-14 21:35:36:633,0,-25.8165,-5.93289,33.7356,Q,Q
2023-03-14 21:35:36:643,0,-25.8244,-5.94693,33.7343,Q,Q
2023-03-14 21:35:36:653,0,-25.8267,-5.95945,33.7308,Q,Q
2023-03-14 21:35:36:663,0,-25.8181,-5.96886,33.7279,Q,Q
2023-03-14 21:35:36:673,0,-25.8014,-5.97704,33.7281,Q,Q
2023-03-14 21:35:36:683,0,-25.7817,-5.98596,33.7285,Q,Q
2023-03-14 21:35:36:693,0,-25.7635,-5.99265,33.7311,Q,Q
2023-03-14 21:35:36:703,0,-25.7523,-5.99923,33.7355,Q,Q
2023-03-14 21:35:36:713,0,-25.7464,-6.00618,33.7424,Q,Q
2023-03-14 21:35:36:723,0,-25.7492,-6.01485,33.7477,Q,Q
2023-03-14 21:35:36:733,0,-25.7492,-6.02625,33.7521,Q,Q
2023-03-14 21:35:36:743,0,-25.7439,-6.03893,33.7553,Q,Q
2023-03-14 21:35:36:753,0,-25.73,-6.0554,33.7608,Q,Q
2023-03-14 21:35:36:763,0,-25.7139,-6.07592,33.7661,Q,Q
2023-03-14 21:35:36:773,0,-25.694,-6.09183,33.7717,Q,Q
2023-03-14 21:35:36:783,0,-25.6737,-6.10993,33.7758,Q,Q
2023-03-14 21:35:36:793,0,-25.6529,-6.12473,33.7733,Q,Q
2023-03-14 21:35:36:803,0,-25.634,-6.14331,33.7696,Q,Q
2023-03-14 21:35:36:813,0,-25.6089,-6.15986,33.7639,Q,Q
2023-03-14 21:35:36:823,0,-25.5729,-6.18354,33.7527,Q,Q
2023-03-14 21:35:36:833,0,-25.5184,-6.20514,33.73,Q,Q
2023-03-14 21:35:36:843,0,-25.4487,-6.22294,33.6992,Q,Q
2023-03-14 21:35:36:853,0,-25.3705,-6.23901,33.6623,Q,Q
2023-03-14 21:35:36:863,0,-25.294,-6.25393,33.6221,Q,Q
2023-03-14 21:35:36:873,0,-25.2186,-6.26824,33.5847,Q,Q
2023-03-14 21:35:36:883,0,-25.1347,-6.28575,33.5428,Q,Q
2023-03-14 21:35:36:893,0,-25.0273,-6.30323,33.4938,Q,Q
2023-03-14 21:35:36:903,0,-24.8822,-6.32288,33.4297,Q,Q
2023-03-14 21:35:36:913,0,-24.6985,-6.33586,33.3605,Q,Q
2023-03-14 21:35:36:923,0,-24.4914,-6.33972,33.2897,Q,Q
2023-03-14 21:35:36:933,0,-24.2691,-6.33447,33.2315,Q,Q
2023-03-14 21:35:36:943,0,-24.0384,-6.32539,33.195,Q,Q
2023-03-14 21:35:36:953,0,-23.8012,-6.31772,33.1773,Q,Q
2023-03-14 21:35:36:963,0,-23.5635,-6.31453,33.1781,Q,Q
2023-03-14 21:35:36:973,0,-23.332,-6.30952,33.1754,Q,Q
2023-03-14 21:35:36:983,0,-23.0994,-6.30339,33.1689,Q,Q
2023-03-14 21:35:36:993,0,-22.8633,-6.29642,33.154,Q,Q
2023-03-14 21:35:37:3,0,-22.6247,-6.28802,33.1388,Q,Q
2023-03-14 21:35:37:13,0,-22.3864,-6.2871,33.1304,Q,Q
2023-03-14 21:35:37:23,0,-22.1585,-6.29238,33.1342,Q,Q
2023-03-14 21:35:37:33,0,-21.9401,-6.29948,33.1528,Q,Q
2023-03-14 21:35:37:43,0,-21.7336,-6.30494,33.1794,Q,Q
2023-03-14 21:35:37:53,0,-21.5388,-6.30859,33.2107,Q,Q
2023-03-14 21:35:37:63,0,-21.3511,-6.3058,33.2353,Q,Q
2023-03-14 21:35:37:73,0,-21.1611,-6.29346,33.2524,Q,Q
2023-03-14 21:35:37:83,0,-20.9694,-6.28358,33.262,Q,Q
2023-03-14 21:35:37:93,0,-20.7849,-6.27693,33.267,Q,Q
2023-03-14 21:35:37:103,0,-20.6058,-6.26931,33.2758,Q,Q
2023-03-14 21:35:37:113,0,-20.443,-6.27,33.2877,Q,Q
2023-03-14 21:35:37:123,0,-20.2983,-6.2755,33.3036,Q,Q
2023-03-14 21:35:37:133,0,-20.1589,-6.284,33.3158,Q,Q
2023-03-14 21:35:37:143,0,-20.0294,-6.29003,33.3197,Q,Q
2023-03-14 21:35:37:153,0,-19.9047,-6.2977,33.3109,Q,Q
2023-03-14 21:35:37:163,0,-19.7865,-6.30271,33.2982,Q,Q
2023-03-14 21:35:37:173,0,-19.6815,-6.31255,33.2725,Q,Q
2023-03-14 21:35:37:183,0,-19.5875,-6.32028,33.241,Q,Q
2023-03-14 21:35:37:193,0,-19.5129,-6.33162,33.2037,Q,Q
2023-03-14 21:35:37:203,0,-19.4518,-6.34789,33.1651,Q,Q
2023-03-14 21:35:37:213,0,-19.398,-6.36332,33.1159,Q,Q
2023-03-14 21:35:37:223,0,-19.3454,-6.38216,33.0665,Q,Q
2023-03-14 21:35:37:233,0,-19.2928,-6.39566,33.0169,Q,Q
2023-03-14 21:35:37:243,0,-19.239,-6.40418,32.9662,Q,Q
2023-03-14 21:35:37:253,0,-19.1863,-6.41077,32.9108,Q,Q
2023-03-14 21:35:37:263,0,-19.1319,-6.41505,32.8539,Q,Q
2023-03-14 21:35:37:273,0,-19.0793,-6.41292,32.7968,Q,Q
2023-03-14 21:35:37:283,0,-19.0327,-6.41337,32.7455,Q,Q
2023-03-14 21:35:37:293,0,-18.9979,-6.41731,32.6987,Q,Q
2023-03-14 21:35:37:303,0,-18.9735,-6.4217,32.655,Q,Q
2023-03-14 21:35:37:313,0,-18.9535,-6.42364,32.6067,Q,Q
2023-03-14 21:35:37:323,0,-18.926,-6.41899,32.555,Q,Q
2023-03-14 21:35:37:333,0,-18.8913,-6.41402,32.4992,Q,Q
2023-03-14 21:35:37:343,0,-18.8501,-6.40349,32.4434,Q,Q
2023-03-14 21:35:37:353,0,-18.8088,-6.39419,32.388,Q,Q
2023-03-14 21:35:37:363,0,-18.7656,-6.38354,32.3389,Q,Q
2023-03-14 21:35:37:373,0,-18.7297,-6.37294,32.2952,Q,Q
2023-03-14 21:35:37:383,0,-18.6976,-6.36344,32.257,Q,Q
2023-03-14 21:35:37:393,0,-18.6623,-6.35191,32.2249,Q,Q
2023-03-14 21:35:37:403,0,-18.6218,-6.33961,32.1948,Q,Q
2023-03-14 21:35:37:413,0,-18.5701,-6.32558,32.1679,Q,Q
2023-03-14 21:35:37:423,0,-18.5156,-6.3112,32.143,Q,Q
2023-03-14 21:35:37:433,0,-18.457,-6.30184,32.1145,Q,Q
2023-03-14 21:35:37:443,0,-18.3989,-6.2947,32.0812,Q,Q
2023-03-14 21:35:37:453,0,-18.3447,-6.29218,32.0478,Q,Q
2023-03-14 21:35:37:463,0,-18.2962,-6.29202,32.0097,Q,Q
2023-03-14 21:35:37:473,0,-18.2457,-6.28966,31.9674,Q,Q
2023-03-14 21:35:37:483,0,-18.1987,-6.2874,31.9302,Q,Q
2023-03-14 21:35:37:493,0,-18.1497,-6.28276,31.898,Q,Q
2023-03-14 21:35:37:503,0,-18.1066,-6.27913,31.8707,Q,Q
2023-03-14 21:35:37:513,0,-18.063,-6.26861,31.8426,Q,Q
2023-03-14 21:35:37:523,0,-18.0198,-6.25905,31.8173,Q,Q
2023-03-14 21:35:37:533,0,-17.9808,-6.24739,31.7938,Q,Q
2023-03-14 21:35:37:543,0,-17.9471,-6.23727,31.7666,Q,Q
2023-03-14 21:35:37:553,0,-17.9212,-6.2267,31.7411,Q,Q
2023-03-14 21:35:37:563,0,-17.9004,-6.21748,31.713,Q,Q
2023-03-14 21:35:37:573,0,-17.8851,-6.21209,31.6816,Q,Q
2023-03-14 21:35:37:583,0,-17.8708,-6.20723,31.6447,Q,Q
2023-03-14 21:35:37:593,0,-17.8542,-6.20139,31.6114,Q,Q
2023-03-14 21:35:37:603,0,-17.833,-6.19616,31.5805,Q,Q
2023-03-14 21:35:37:613,0,-17.8115,-6.18694,31.5526,Q,Q
2023-03-14 21:35:37:623,0,-17.7945,-6.17908,31.5286,Q,Q
2023-03-14 21:35:37:633,0,-17.7855,-6.16924,31.5077,Q,Q
2023-03-14 21:35:37:643,0,-17.7852,-6.15591,31.4895,Q,Q
2023-03-14 21:35:37:653,0,-17.789,-6.13332,31.4714,Q,Q
2023-03-14 21:35:37:663,0,-17.7901,-6.10839,31.4461,Q,Q
2023-03-14 21:35:37:673,0,-17.7878,-6.08078,31.4099,Q,Q
2023-03-14 21:35:37:683,0,-17.7839,-6.0481,31.3662,Q,Q
2023-03-14 21:35:37:693,0,-17.7784,-6.02002,31.3126,Q,Q
2023-03-14 21:35:37:703,0,-17.7693,-5.99345,31.2479,Q,Q
2023-03-14 21:35:37:713,0,-17.7586,-5.97226,31.1817,Q,Q
2023-03-14 21:35:37:723,0,-17.7396,-5.95736,31.1113,Q,Q
2023-03-14 21:35:37:733,0,-17.7182,-5.94983,31.045,Q,Q
2023-03-14 21:35:37:743,0,-17.6978,-5.95063,30.9819,Q,Q
2023-03-14 21:35:37:753,0,-17.6856,-5.95134,30.9218,Q,Q
2023-03-14 21:35:37:763,0,-17.684,-5.9506,30.8654,Q,Q
2023-03-14 21:35:37:773,0,-17.6808,-5.94458,30.8078,Q,Q
2023-03-14 21:35:37:783,0,-17.6823,-5.92763,30.7452,Q,Q
2023-03-14 21:35:37:793,0,-17.6814,-5.89751,30.6817,Q,Q
2023-03-14 21:35:37:803,0,-17.6839,-5.85709,30.6222,Q,Q
2023-03-14 21:35:37:813,0,-17.6886,-5.80542,30.5716,Q,Q
2023-03-14 21:35:37:823,0,-17.6885,-5.7498,30.5325,Q,Q
2023-03-14 21:35:37:833,0,-17.6865,-5.6954,30.4998,Q,Q
2023-03-14 21:35:37:843,0,-17.6746,-5.64004,30.4657,Q,Q
2023-03-14 21:35:37:853,0,-17.6474,-5.59054,30.4232,Q,Q
2023-03-14 21:35:37:863,0,-17.61,-5.54098,30.3768,Q,Q
2023-03-14 21:35:37:873,0,-17.5639,-5.49036,30.3322,Q,Q
2023-03-14 21:35:37:883,0,-17.5145,-5.44686,30.2796,Q,Q
2023-03-14 21:35:37:893,0,-17.4615,-5.40303,30.2222,Q,Q
2023-03-14 21:35:37:903,0,-17.4134,-5.36599,30.1601,Q,Q
2023-03-14 21:35:37:913,0,-17.3706,-5.33556,30.0899,Q,Q
2023-03-14 21:35:37:923,0,-17.3276,-5.3154,30.018,Q,Q
2023-03-14 21:35:37:933,0,-17.2879,-5.3105,29.9515,Q,Q
2023-03-14 21:35:37:943,0,-17.2502,-5.31596,29.8863,Q,Q
2023-03-14 21:35:37:953,0,-17.2122,-5.33072,29.8254,Q,Q
2023-03-14 21:35:37:963,0,-17.1766,-5.35974,29.7818,Q,Q
2023-03-14 21:35:37:973,0,-17.1487,-5.39576,29.7474,Q,Q
2023-03-14 21:35:37:983,0,-17.1257,-5.43854,29.721,Q,Q
2023-03-14 21:35:37:993,0,-17.1084,-5.48162,29.6972,Q,Q
2023-03-14 21:35:38:3,0,-17.0942,-5.52012,29.6759,Q,Q
2023-03-14 21:35:38:13,0,-17.0831,-5.55386,29.6542,Q,Q
2023-03-14 21:35:38:23,0,-17.0743,-5.58187,29.6413,Q,Q
2023-03-14 21:35:38:33,0,-17.0666,-5.61447,29.6396,Q,Q
2023-03-14 21:35:38:43,0,-17.062,-5.64802,29.6524,Q,Q
2023-03-14 21:35:38:53,0,-17.0579,-5.68374,29.6813,Q,Q
2023-03-14 21:35:38:63,0,-17.0518,-5.72283,29.7178,Q,Q
2023-03-14 21:35:38:73,0,-17.0403,-5.76102,29.7514,Q,Q
2023-03-14 21:35:38:83,0,-17.0226,-5.78907,29.7733,Q,Q
2023-03-14 21:35:38:93,0,-17.0002,-5.81288,29.7852,Q,Q
2023-03-14 21:35:38:103,0,-16.9762,-5.83137,29.785,Q,Q
2023-03-14 21:35:38:113,0,-16.9581,-5.84491,29.7788,Q,Q
2023-03-14 21:35:38:123,0,-16.9424,-5.85569,29.7636,Q,Q
2023-03-14 21:35:38:133,0,-16.933,-5.8627,29.7425,Q,Q
2023-03-14 21:35:38:143,0,-16.9228,-5.86743,29.7167,Q,Q
2023-03-14 21:35:38:153,0,-16.9163,-5.87318,29.685,Q,Q
2023-03-14 21:35:38:163,0,-16.9145,-5.8714,29.6455,Q,Q
2023-03-14 21:35:38:173,0,-16.916,-5.86281,29.5991,Q,Q
2023-03-14 21:35:38:183,0,-16.9193,-5.84814,29.5419,Q,Q
2023-03-14 21:35:38:193,0,-16.9258,-5.82437,29.4792,Q,Q
2023-03-14 21:35:38:203,0,-16.9296,-5.7949,29.4068,Q,Q
2023-03-14 21:35:38:213,0,-16.9325,-5.76006,29.3308,Q,Q
2023-03-14 21:35:38:223,0,-16.9359,-5.73123,29.2571,Q,Q
2023-03-14 21:35:38:233,0,-16.9471,-5.71538,29.1847,Q,Q
2023-03-14 21:35:38:243,0,-16.9615,-5.68559,29.1285,Q,Q
2023-03-14 21:35:38:253,0,-16.9588,-5.64891,29.0592,Q,Q
2023-03-14 21:35:38:263,0,-16.9478,-5.62515,28.9841,Q,Q
2023-03-14 21:35:38:273,0,-16.941,-5.5995,28.9061,Q,Q
2023-03-14 21:35:38:283,0,-16.9432,-5.57215,28.8343,Q,Q
2023-03-14 21:35:38:293,0,-16.9482,-5.55064,28.7603,Q,Q
2023-03-14 21:35:38:303,0,-16.9604,-5.53307,28.6882,Q,Q
2023-03-14 21:35:38:313,0,-16.973,-5.50964,28.6071,Q,Q
2023-03-14 21:35:38:323,0,-16.9753,-5.48708,28.5247,Q,Q
2023-03-14 21:35:38:333,0,-16.9721,-5.46425,28.45,Q,Q
2023-03-14 21:35:38:343,0,-16.9623,-5.45302,28.3875,Q,Q
2023-03-14 21:35:38:353,0,-16.9429,-5.44735,28.328,Q,Q
2023-03-14 21:35:38:363,0,-16.9285,-5.4564,28.2657,Q,Q
2023-03-14 21:35:38:373,0,-16.935,-5.45952,28.2017,Q,Q
2023-03-14 21:35:38:383,0,-16.9521,-5.44958,28.1252,Q,Q
2023-03-14 21:35:38:393,0,-16.9762,-5.43812,28.0347,Q,Q
2023-03-14 21:35:38:403,0,-16.9973,-5.41851,27.9298,Q,Q
2023-03-14 21:35:38:413,0,-17.0191,-5.394,27.8248,Q,Q
2023-03-14 21:35:38:423,0,-17.035,-5.36924,27.7276,Q,Q
2023-03-14 21:35:38:433,0,-17.0341,-5.35315,27.6368,Q,Q
2023-03-14 21:35:38:443,0,-17.031,-5.34533,27.5589,Q,Q
2023-03-14 21:35:38:453,0,-17.0276,-5.33688,27.4887,Q,Q
2023-03-14 21:35:38:463,0,-17.0186,-5.3206,27.4161,Q,Q
2023-03-14 21:35:38:473,0,-17.0118,-5.30723,27.349,Q,Q
2023-03-14 21:35:38:483,0,-17.0105,-5.29817,27.2831,Q,Q
2023-03-14 21:35:38:493,0,-17.0084,-5.28944,27.2152,Q,Q
2023-03-14 21:35:38:503,0,-17.0041,-5.27746,27.1493,Q,Q
2023-03-14 21:35:38:513,0,-16.9923,-5.26531,27.0858,Q,Q
2023-03-14 21:35:38:523,0,-16.9814,-5.25539,27.0254,Q,Q
2023-03-14 21:35:38:533,0,-16.9639,-5.24683,26.9583,Q,Q
2023-03-14 21:35:38:543,0,-16.9349,-5.23844,26.8802,Q,Q
2023-03-14 21:35:38:553,0,-16.9076,-5.2356,26.8035,Q,Q
2023-03-14 21:35:38:563,0,-16.8815,-5.22707,26.7171,Q,Q
2023-03-14 21:35:38:573,0,-16.8498,-5.21748,26.6266,Q,Q
2023-03-14 21:35:38:583,0,-16.814,-5.2083,26.5401,Q,Q
2023-03-14 21:35:38:593,0,-16.771,-5.20818,26.4702,Q,Q
2023-03-14 21:35:38:603,0,-16.7266,-5.21893,26.4207,Q,Q
2023-03-14 21:35:38:613,0,-16.6767,-5.24034,26.3837,Q,Q
2023-03-14 21:35:38:623,0,-16.6248,-5.27216,26.3594,Q,Q
2023-03-14 21:35:38:633,0,-16.5791,-5.3074,26.3406,Q,Q
2023-03-14 21:35:38:643,0,-16.5379,-5.34423,26.3218,Q,Q
2023-03-14 21:35:38:653,0,-16.5276,-5.40224,26.3087,Q,Q
2023-03-14 21:35:38:663,0,-16.5344,-5.44191,26.2882,Q,Q
2023-03-14 21:35:38:673,0,-16.5541,-5.48377,26.2532,Q,Q
2023-03-14 21:35:38:683,0,-16.5846,-5.51507,26.2145,Q,Q
2023-03-14 21:35:38:693,0,-16.6164,-5.54665,26.1659,Q,Q
2023-03-14 21:35:38:703,0,-16.6422,-5.5707,26.1131,Q,Q
2023-03-14 21:35:38:713,0,-16.6626,-5.58517,26.0483,Q,Q
2023-03-14 21:35:38:723,0,-16.6731,-5.59764,25.9741,Q,Q
2023-03-14 21:35:38:733,0,-16.6733,-5.61391,25.8967,Q,Q
2023-03-14 21:35:38:743,0,-16.6668,-5.61243,25.8216,Q,Q
2023-03-14 21:35:38:753,0,-16.6521,-5.61223,25.7423,Q,Q
2023-03-14 21:35:38:763,0,-16.6278,-5.61106,25.6631,Q,Q
2023-03-14 21:35:38:773,0,-16.5984,-5.59538,25.5874,Q,Q
2023-03-14 21:35:38:783,0,-16.5607,-5.59837,25.5217,Q,Q
2023-03-14 21:35:38:793,0,-16.5243,-5.58163,25.4577,Q,Q
2023-03-14 21:35:38:803,0,-16.4741,-5.55561,25.4012,Q,Q
2023-03-14 21:35:38:813,0,-16.4285,-5.53152,25.3569,Q,Q
2023-03-14 21:35:38:823,0,-16.3883,-5.52338,25.3223,Q,Q
2023-03-14 21:35:38:833,0,-16.3638,-5.51945,25.2939,Q,Q
2023-03-14 21:35:38:843,0,-16.3466,-5.50857,25.2615,Q,Q
2023-03-14 21:35:38:853,0,-16.3256,-5.50178,25.2348,Q,Q
2023-03-14 21:35:38:863,0,-16.3225,-5.50467,25.2216,Q,Q
2023-03-14 21:35:38:873,0,-16.3326,-5.51111,25.2173,Q,Q
2023-03-14 21:35:38:883,0,-16.3534,-5.51063,25.207,Q,Q
2023-03-14 21:35:38:893,0,-16.3667,-5.51298,25.1924,Q,Q
2023-03-14 21:35:38:903,0,-16.3698,-5.49909,25.1688,Q,Q
2023-03-14 21:35:38:913,0,-16.3555,-5.49837,25.1439,Q,Q
2023-03-14 21:35:38:923,0,-16.3367,-5.48823,25.1208,Q,Q
2023-03-14 21:35:38:933,0,-16.3221,-5.48831,25.1115,Q,Q
2023-03-14 21:35:38:943,0,-16.3181,-5.48054,25.1051,Q,Q
2023-03-14 21:35:38:953,0,-16.3114,-5.46519,25.0904,Q,Q
2023-03-14 21:35:38:963,0,-16.3059,-5.43492,25.0732,Q,Q
2023-03-14 21:35:38:973,0,-16.3072,-5.39645,25.0629,Q,Q
2023-03-14 21:35:38:983,0,-16.3115,-5.3571,25.0605,Q,Q
2023-03-14 21:35:38:993,0,-16.3186,-5.32492,25.0583,Q,Q
2023-03-14 21:35:39:3,0,-16.3253,-5.30425,25.0604,Q,Q
2023-03-14 21:35:39:13,0,-16.3211,-5.29184,25.0703,Q,Q
2023-03-14 21:35:39:23,0,-16.3113,-5.28866,25.0963,Q,Q
2023-03-14 21:35:39:33,0,-16.3027,-5.29475,25.143,Q,Q
2023-03-14 21:35:39:43,0,-16.297,-5.30347,25.2016,Q,Q
2023-03-14 21:35:39:53,0,-16.2942,-5.30314,25.2587,Q,Q
2023-03-14 21:35:39:63,0,-16.2884,-5.2897,25.3078,Q,Q
2023-03-14 21:35:39:73,0,-16.2848,-5.2737,25.3421,Q,Q
2023-03-14 21:35:39:83,0,-16.2887,-5.25516,25.3577,Q,Q
2023-03-14 21:35:39:93,0,-16.3028,-5.24051,25.3597,Q,Q
2023-03-14 21:35:39:103,0,-16.313,-5.22353,25.3437,Q,Q
2023-03-14 21:35:39:113,0,-16.3222,-5.22099,25.3202,Q,Q
2023-03-14 21:35:39:123,0,-16.3339,-5.22132,25.2829,Q,Q
2023-03-14 21:35:39:133,0,-16.3473,-5.23109,25.2372,Q,Q
2023-03-14 21:35:39:143,0,-16.364,-5.24161,25.1897,Q,Q
2023-03-14 21:35:39:153,0,-16.3783,-5.25577,25.1295,Q,Q
2023-03-14 21:35:39:163,0,-16.3839,-5.26287,25.0538,Q,Q
2023-03-14 21:35:39:173,0,-16.376,-5.25782,24.9534,Q,Q
2023-03-14 21:35:39:183,0,-16.3493,-5.24118,24.8392,Q,Q
2023-03-14 21:35:39:193,0,-16.3081,-5.22537,24.7135,Q,Q
2023-03-14 21:35:39:203,0,-16.2616,-5.21948,24.58,Q,Q
2023-03-14 21:35:39:213,0,-16.229,-5.22343,24.4455,Q,Q
2023-03-14 21:35:39:223,0,-16.2178,-5.22681,24.3132,Q,Q
2023-03-14 21:35:39:233,0,-16.2119,-5.23771,24.1856,Q,Q
2023-03-14 21:35:39:243,0,-16.2038,-5.25557,24.0724,Q,Q
2023-03-14 21:35:39:253,0,-16.2026,-5.28287,23.973,Q,Q
2023-03-14 21:35:39:263,0,-16.201,-5.31429,23.8876,Q,Q
2023-03-14 21:35:39:273,0,-16.2025,-5.35822,23.8217,Q,Q
2023-03-14 21:35:39:283,0,-16.1983,-5.38874,23.7702,Q,Q
2023-03-14 21:35:39:293,0,-16.185,-5.44569,23.729,Q,Q
2023-03-14 21:35:39:303,0,-16.1839,-5.51851,23.7087,Q,Q
2023-03-14 21:35:39:313,0,-16.1955,-5.59399,23.7042,Q,Q
2023-03-14 21:35:39:323,0,-16.2055,-5.6681,23.6996,Q,Q
2023-03-14 21:35:39:333,0,-16.2077,-5.73266,23.6876,Q,Q
2023-03-14 21:35:39:343,0,-16.1953,-5.79135,23.6715,Q,Q
2023-03-14 21:35:39:353,0,-16.1617,-5.84135,23.6484,Q,Q
2023-03-14 21:35:39:363,0,-16.1198,-5.88597,23.6195,Q,Q
2023-03-14 21:35:39:373,0,-16.065,-5.93517,23.5842,Q,Q
2023-03-14 21:35:39:383,0,-16.0087,-5.99173,23.5469,Q,Q
2023-03-14 21:35:39:393,0,-15.9518,-6.05215,23.5027,Q,Q
2023-03-14 21:35:39:403,0,-15.8945,-6.11965,23.4476,Q,Q
2023-03-14 21:35:39:413,0,-15.8362,-6.19289,23.3825,Q,Q
2023-03-14 21:35:39:423,0,-15.7746,-6.27149,23.3106,Q,Q
2023-03-14 21:35:39:433,0,-15.7223,-6.34951,23.227,Q,Q
2023-03-14 21:35:39:443,0,-15.6615,-6.40159,23.1265,Q,Q
2023-03-14 21:35:39:453,0,-15.5879,-6.40801,23.0173,Q,Q
2023-03-14 21:35:39:463,0,-15.5153,-6.47754,22.9093,Q,Q
2023-03-14 21:35:39:473,0,-15.4777,-6.51104,22.7727,Q,Q
2023-03-14 21:35:39:483,0,-15.444,-6.50837,22.6238,Q,Q
2023-03-14 21:35:39:493,0,-15.4005,-6.48857,22.456,Q,Q
2023-03-14 21:35:39:503,0,-15.3594,-6.45824,22.3061,Q,Q
2023-03-14 21:35:39:513,0,-15.3295,-6.42374,22.1647,Q,Q
2023-03-14 21:35:39:523,0,-15.3187,-6.40415,22.028,Q,Q
2023-03-14 21:35:39:533,0,-15.3228,-6.36492,21.887,Q,Q
2023-03-14 21:35:39:543,0,-15.3225,-6.30768,21.7422,Q,Q
2023-03-14 21:35:39:553,0,-15.325,-6.25931,21.5957,Q,Q
2023-03-14 21:35:39:563,0,-15.3422,-6.21918,21.4601,Q,Q
2023-03-14 21:35:39:573,0,-15.3699,-6.15895,21.3248,Q,Q
2023-03-14 21:35:39:583,0,-15.3876,-6.10628,21.1859,Q,Q
2023-03-14 21:35:39:593,0,-15.4049,-6.06348,21.0519,Q,Q
2023-03-14 21:35:39:603,0,-15.4294,-6.02093,20.9325,Q,Q
2023-03-14 21:35:39:613,0,-15.4665,-5.98791,20.8265,Q,Q
2023-03-14 21:35:39:623,0,-15.5131,-5.95743,20.727,Q,Q
2023-03-14 21:35:39:633,0,-15.5672,-5.92945,20.6322,Q,Q
2023-03-14 21:35:39:643,0,-15.6242,-5.90751,20.5417,Q,Q
2023-03-14 21:35:39:653,0,-15.6811,-5.87708,20.443,Q,Q
2023-03-14 21:35:39:663,0,-15.7326,-5.83008,20.3327,Q,Q
2023-03-14 21:35:39:673,0,-15.7783,-5.7776,20.2135,Q,Q
2023-03-14 21:35:39:683,0,-15.8209,-5.72475,20.0902,Q,Q
2023-03-14 21:35:39:693,0,-15.8615,-5.67601,19.9622,Q,Q
2023-03-14 21:35:39:703,0,-15.9,-5.63299,19.834,Q,Q
2023-03-14 21:35:39:713,0,-15.9407,-5.59999,19.7085,Q,Q
2023-03-14 21:35:39:723,0,-15.9834,-5.57277,19.5845,Q,Q
2023-03-14 21:35:39:733,0,-16.0244,-5.55524,19.4717,Q,Q
2023-03-14 21:35:39:743,0,-16.0562,-5.54635,19.3639,Q,Q
2023-03-14 21:35:39:753,0,-16.0962,-5.594,19.2657,Q,Q
2023-03-14 21:35:39:763,0,-16.1717,-5.64585,19.1759,Q,Q
2023-03-14 21:35:39:773,0,-16.2635,-5.66698,19.1076,Q,Q
2023-03-14 21:35:39:783,0,-16.3506,-5.71953,19.0383,Q,Q
2023-03-14 21:35:39:793,0,-16.4304,-5.74862,18.9705,Q,Q
2023-03-14 21:35:39:803,0,-16.4757,-5.73568,18.8837,Q,Q
2023-03-14 21:35:39:813,0,-16.486,-5.68963,18.785,Q,Q
2023-03-14 21:35:39:823,0,-16.4755,-5.62996,18.6867,Q,Q
2023-03-14 21:35:39:833,0,-16.4782,-5.57546,18.6092,Q,Q
2023-03-14 21:35:39:843,0,-16.5056,-5.52814,18.5501,Q,Q
2023-03-14 21:35:39:853,0,-16.5655,-5.49237,18.502,Q,Q
2023-03-14 21:35:39:863,0,-16.6223,-5.40381,18.4565,Q,Q
2023-03-14 21:35:39:873,0,-16.66,-5.31408,18.4023,Q,Q
2023-03-14 21:35:39:883,0,-16.6837,-5.21575,18.3665,Q,Q
2023-03-14 21:35:39:893,0,-16.7156,-5.12999,18.3413,Q,Q
2023-03-14 21:35:39:903,0,-16.7561,-5.06791,18.3229,Q,Q
2023-03-14 21:35:39:913,0,-16.8026,-5.0435,18.3112,Q,Q
2023-03-14 21:35:39:923,0,-16.8626,-5.04669,18.3195,Q,Q
2023-03-14 21:35:39:933,0,-16.9281,-5.07078,18.3439,Q,Q
2023-03-14 21:35:39:943,0,-16.9928,-5.10853,18.388,Q,Q
2023-03-14 21:35:39:953,0,-17.0512,-5.15355,18.4379,Q,Q
2023-03-14 21:35:39:963,0,-17.1107,-5.20571,18.4908,Q,Q
2023-03-14 21:35:39:973,0,-17.1707,-5.26146,18.5402,Q,Q
2023-03-14 21:35:39:983,0,-17.2305,-5.32128,18.5812,Q,Q
2023-03-14 21:35:39:993,0,-17.3056,-5.42349,18.6216,Q,Q
2023-03-14 21:35:40:3,0,-17.4105,-5.49318,18.664,Q,Q
2023-03-14 21:35:40:13,0,-17.4653,-5.50254,18.6717,Q,Q
2023-03-14 21:35:40:23,0,-17.4646,-5.51366,18.6361,Q,Q
2023-03-14 21:35:40:33,0,-17.4374,-5.50836,18.585,Q,Q
2023-03-14 21:35:40:43,0,-17.4074,-5.50375,18.5158,Q,Q
2023-03-14 21:35:40:53,0,-17.3927,-5.50781,18.4306,Q,Q
2023-03-14 21:35:40:63,0,-17.4042,-5.50977,18.3479,Q,Q
2023-03-14 21:35:40:73,0,-17.4294,-5.51687,18.2618,Q,Q
2023-03-14 21:35:40:83,0,-17.47,-5.53595,18.1805,Q,Q
2023-03-14 21:35:40:93,0,-17.5227,-5.55383,18.0969,Q,Q
2023-03-14 21:35:40:103,0,-17.5775,-5.5637,18.0101,Q,Q
2023-03-14 21:35:40:113,0,-17.6249,-5.56233,17.9194,Q,Q
2023-03-14 21:35:40:123,0,-17.6695,-5.55388,17.8226,Q,Q
2023-03-14 21:35:40:133,0,-17.7048,-5.53518,17.726,Q,Q
2023-03-14 21:35:40:143,0,-17.7365,-5.51699,17.6323,Q,Q
2023-03-14 21:35:40:153,0,-17.7699,-5.50816,17.5492,Q,Q
2023-03-14 21:35:40:163,0,-17.8089,-5.5048,17.4741,Q,Q
2023-03-14 21:35:40:173,0,-17.8511,-5.51102,17.4072,Q,Q
2023-03-14 21:35:40:183,0,-17.8979,-5.52688,17.3423,Q,Q
2023-03-14 21:35:40:193,0,-17.9408,-5.5502,17.2925,Q,Q
2023-03-14 21:35:40:203,0,-17.9728,-5.56819,17.2521,Q,Q
2023-03-14 21:35:40:213,0,-17.9978,-5.58863,17.2179,Q,Q
2023-03-14 21:35:40:223,0,-18.0173,-5.60043,17.19,Q,Q
2023-03-14 21:35:40:233,0,-18.0429,-5.61147,17.1694,Q,Q
2023-03-14 21:35:40:243,0,-18.0772,-5.62652,17.1539,Q,Q
2023-03-14 21:35:40:253,0,-18.1108,-5.6437,17.1382,Q,Q
2023-03-14 21:35:40:263,0,-18.1457,-5.66938,17.119,Q,Q
2023-03-14 21:35:40:273,0,-18.1745,-5.70021,17.094,Q,Q
2023-03-14 21:35:40:283,0,-18.1971,-5.72986,17.0642,Q,Q
2023-03-14 21:35:40:293,0,-18.2138,-5.76115,17.0327,Q,Q
2023-03-14 21:35:40:303,0,-18.2254,-5.79116,17.0018,Q,Q
2023-03-14 21:35:40:313,0,-18.234,-5.81933,16.9717,Q,Q
2023-03-14 21:35:40:323,0,-18.2507,-5.85473,16.9446,Q,Q
2023-03-14 21:35:40:333,0,-18.2768,-5.89067,16.92,Q,Q
2023-03-14 21:35:40:343,0,-18.3089,-5.9303,16.8892,Q,Q
2023-03-14 21:35:40:353,0,-18.3469,-5.97214,16.8501,Q,Q
2023-03-14 21:35:40:363,0,-18.3902,-6.01623,16.804,Q,Q
2023-03-14 21:35:40:373,0,-18.4342,-6.05724,16.7526,Q,Q
2023-03-14 21:35:40:383,0,-18.4735,-6.10422,16.6944,Q,Q
2023-03-14 21:35:40:393,0,-18.511,-6.15194,16.6353,Q,Q
2023-03-14 21:35:40:403,0,-18.5441,-6.20159,16.5789,Q,Q
2023-03-14 21:35:40:413,0,-18.5771,-6.24775,16.5219,Q,Q
2023-03-14 21:35:40:423,0,-18.6134,-6.29831,16.4727,Q,Q
2023-03-14 21:35:40:433,0,-18.6535,-6.34476,16.4254,Q,Q
2023-03-14 21:35:40:443,0,-18.6909,-6.39614,16.3793,Q,Q
2023-03-14 21:35:40:453,0,-18.7286,-6.43783,16.3328,Q,Q
2023-03-14 21:35:40:463,0,-18.758,-6.47918,16.2861,Q,Q
2023-03-14 21:35:40:473,0,-18.7806,-6.51731,16.2463,Q,Q
2023-03-14 21:35:40:483,0,-18.7988,-6.55425,16.2089,Q,Q
2023-03-14 21:35:40:493,0,-18.8131,-6.58557,16.1816,Q,Q
2023-03-14 21:35:40:503,0,-18.8236,-6.61094,16.1538,Q,Q
2023-03-14 21:35:40:513,0,-18.8251,-6.62829,16.1293,Q,Q
2023-03-14 21:35:40:523,0,-18.8202,-6.63729,16.1066,Q,Q
2023-03-14 21:35:40:533,0,-18.8092,-6.64052,16.0839,Q,Q
2023-03-14 21:35:40:543,0,-18.7953,-6.63696,16.0627,Q,Q
2023-03-14 21:35:40:553,0,-18.771,-6.63,16.042,Q,Q
2023-03-14 21:35:40:563,0,-18.7388,-6.61456,16.0205,Q,Q
2023-03-14 21:35:40:573,0,-18.702,-6.59423,15.9972,Q,Q
2023-03-14 21:35:40:583,0,-18.6639,-6.57227,15.9685,Q,Q
2023-03-14 21:35:40:593,0,-18.622,-6.5453,15.9347,Q,Q
2023-03-14 21:35:40:603,0,-18.5782,-6.51644,15.8955,Q,Q
2023-03-14 21:35:40:613,0,-18.5337,-6.48663,15.8538,Q,Q
2023-03-14 21:35:40:623,0,-18.4857,-6.4538,15.8106,Q,Q
2023-03-14 21:35:40:633,0,-18.4331,-6.42436,15.7713,Q,Q
2023-03-14 21:35:40:643,0,-18.3824,-6.39624,15.7352,Q,Q
2023-03-14 21:35:40:653,0,-18.3272,-6.36708,15.7044,Q,Q
2023-03-14 21:35:40:663,0,-18.2799,-6.3417,15.6737,Q,Q
2023-03-14 21:35:40:673,0,-18.2333,-6.317,15.6496,Q,Q
2023-03-14 21:35:40:683,0,-18.1831,-6.29661,15.6258,Q,Q
2023-03-14 21:35:40:693,0,-18.1319,-6.27813,15.602,Q,Q
2023-03-14 21:35:40:703,0,-18.0871,-6.26064,15.5822,Q,Q
2023-03-14 21:35:40:713,0,-18.044,-6.24785,15.5613,Q,Q
2023-03-14 21:35:40:723,0,-18.0015,-6.2334,15.5343,Q,Q
2023-03-14 21:35:40:733,0,-17.9525,-6.21958,15.5092,Q,Q
2023-03-14 21:35:40:743,0,-17.9006,-6.20913,15.4859,Q,Q
2023-03-14 21:35:40:753,0,-17.8457,-6.20307,15.4583,Q,Q
2023-03-14 21:35:40:763,0,-17.7879,-6.19455,15.4336,Q,Q
2023-03-14 21:35:40:773,0,-17.7271,-6.18737,15.4081,Q,Q
2023-03-14 21:35:40:783,0,-17.6631,-6.18041,15.3807,Q,Q
2023-03-14 21:35:40:793,0,-17.6026,-6.16906,15.3564,Q,Q
2023-03-14 21:35:40:803,0,-17.5427,-6.15928,15.3309,Q,Q
2023-03-14 21:35:40:813,0,-17.4895,-6.14548,15.308,Q,Q
2023-03-14 21:35:40:823,0,-17.4392,-6.13692,15.2856,Q,Q
2023-03-14 21:35:40:833,0,-17.3933,-6.12674,15.2667,Q,Q
2023-03-14 21:35:40:843,0,-17.3526,-6.12539,15.2529,Q,Q
2023-03-14 21:35:40:853,0,-17.3116,-6.12015,15.2383,Q,Q
2023-03-14 21:35:40:863,0,-17.2754,-6.12004,15.2247,Q,Q
2023-03-14 21:35:40:873,0,-17.2426,-6.11916,15.2146,Q,Q
2023-03-14 21:35:40:883,0,-17.2124,-6.11431,15.1996,Q,Q
2023-03-14 21:35:40:893,0,-17.1879,-6.10946,15.1902,Q,Q
2023-03-14 21:35:40:903,0,-17.1697,-6.09688,15.1792,Q,Q
2023-03-14 21:35:40:913,0,-17.1616,-6.08136,15.1694,Q,Q
2023-03-14 21:35:40:923,0,-17.1589,-6.06413,15.1566,Q,Q
2023-03-14 21:35:40:933,0,-17.1532,-6.04581,15.1421,Q,Q
2023-03-14 21:35:40:943,0,-17.1527,-6.03259,15.1294,Q,Q
2023-03-14 21:35:40:953,0,-17.1523,-6.02386,15.1267,Q,Q
2023-03-14 21:35:40:963,0,-17.1528,-6.01674,15.1293,Q,Q
2023-03-14 21:35:40:973,0,-17.1584,-6.0135,15.1307,Q,Q
2023-03-14 21:35:40:983,0,-17.1706,-6.00876,15.1311,Q,Q
2023-03-14 21:35:40:993,0,-17.1911,-6.00241,15.1342,Q,Q
2023-03-14 21:35:41:3,0,-17.2089,-5.99846,15.1363,Q,Q
2023-03-14 21:35:41:13,0,-17.2234,-5.99089,15.1421,Q,Q
2023-03-14 21:35:41:23,0,-17.2328,-5.98301,15.1483,Q,Q
2023-03-14 21:35:41:33,0,-17.238,-5.97411,15.152,Q,Q
2023-03-14 21:35:41:43,0,-17.2354,-5.9642,15.1553,Q,Q
2023-03-14 21:35:41:53,0,-17.2259,-5.9522,15.1574,Q,Q
2023-03-14 21:35:41:63,0,-17.2095,-5.9354,15.1592,Q,Q
2023-03-14 21:35:41:73,0,-17.1839,-5.91581,15.1567,Q,Q
2023-03-14 21:35:41:83,0,-17.1553,-5.89939,15.1503,Q,Q
2023-03-14 21:35:41:93,0,-17.1235,-5.88468,15.1431,Q,Q
2023-03-14 21:35:41:103,0,-17.0941,-5.87231,15.139,Q,Q
2023-03-14 21:35:41:113,0,-17.0654,-5.86499,15.1406,Q,Q
2023-03-14 21:35:41:123,0,-17.0341,-5.86307,15.1442,Q,Q
2023-03-14 21:35:41:133,0,-17.0025,-5.86439,15.1486,Q,Q
2023-03-14 21:35:41:143,0,-16.9758,-5.86715,15.1532,Q,Q
2023-03-14 21:35:41:153,0,-16.9485,-5.86575,15.1636,Q,Q
2023-03-14 21:35:41:163,0,-16.931,-5.86565,15.1746,Q,Q
2023-03-14 21:35:41:173,0,-16.9132,-5.86789,15.1844,Q,Q
2023-03-14 21:35:41:183,0,-16.8965,-5.86659,15.1997,Q,Q
2023-03-14 21:35:41:193,0,-16.8814,-5.86814,15.2193,Q,Q
2023-03-14 21:35:41:203,0,-16.8679,-5.87156,15.2388,Q,Q
2023-03-14 21:35:41:213,0,-16.8587,-5.87402,15.2666,Q,Q
2023-03-14 21:35:41:223,0,-16.8466,-5.86977,15.3023,Q,Q
2023-03-14 21:35:41:233,0,-16.832,-5.85647,15.343,Q,Q
2023-03-14 21:35:41:243,0,-16.8139,-5.84124,15.3904,Q,Q
2023-03-14 21:35:41:253,0,-16.7977,-5.8246,15.4529,Q,Q
2023-03-14 21:35:41:263,0,-16.7885,-5.80773,15.5335,Q,Q
2023-03-14 21:35:41:273,0,-16.7867,-5.78934,15.6273,Q,Q
2023-03-14 21:35:41:283,0,-16.7899,-5.76507,15.7398,Q,Q
2023-03-14 21:35:41:293,0,-16.7916,-5.73723,15.8665,Q,Q
2023-03-14 21:35:41:303,0,-16.7861,-5.705,16.0098,Q,Q
2023-03-14 21:35:41:313,0,-16.7867,-5.66661,16.1652,Q,Q
2023-03-14 21:35:41:323,0,-16.7889,-5.62762,16.3291,Q,Q
2023-03-14 21:35:41:333,0,-16.7958,-5.58607,16.5043,Q,Q
2023-03-14 21:35:41:343,0,-16.8049,-5.54345,16.6855,Q,Q
2023-03-14 21:35:41:353,0,-16.8138,-5.502,16.8714,Q,Q
2023-03-14 21:35:41:363,0,-16.8202,-5.45815,17.0548,Q,Q
2023-03-14 21:35:41:373,0,-16.8345,-5.41499,17.2404,Q,Q
2023-03-14 21:35:41:383,0,-16.8519,-5.37663,17.4252,Q,Q
2023-03-14 21:35:41:393,0,-16.8721,-5.34179,17.6084,Q,Q
2023-03-14 21:35:41:403,0,-16.8958,-5.30329,17.7841,Q,Q
2023-03-14 21:35:41:413,0,-16.9131,-5.26373,17.9452,Q,Q
2023-03-14 21:35:41:423,0,-16.9211,-5.21725,18.0898,Q,Q
2023-03-14 21:35:41:433,0,-16.9256,-5.16596,18.2271,Q,Q
2023-03-14 21:35:41:443,0,-16.9224,-5.11263,18.3542,Q,Q
2023-03-14 21:35:41:453,0,-16.9125,-5.06044,18.4701,Q,Q
2023-03-14 21:35:41:463,0,-16.9068,-5.01421,18.5817,Q,Q
2023-03-14 21:35:41:473,0,-16.9007,-4.97264,18.6848,Q,Q
2023-03-14 21:35:41:483,0,-16.8857,-4.9336,18.7781,Q,Q
2023-03-14 21:35:41:493,0,-16.8636,-4.8959,18.858,Q,Q
2023-03-14 21:35:41:503,0,-16.8347,-4.85837,18.9301,Q,Q
2023-03-14 21:35:41:513,0,-16.8026,-4.82148,18.9939,Q,Q
2023-03-14 21:35:41:523,0,-16.7728,-4.78764,19.0482,Q,Q
2023-03-14 21:35:41:533,0,-16.7553,-4.76528,19.1028,Q,Q
2023-03-14 21:35:41:543,0,-16.7527,-4.75082,19.1546,Q,Q
2023-03-14 21:35:41:553,0,-16.765,-4.74515,19.203,Q,Q
2023-03-14 21:35:41:563,0,-16.7797,-4.74084,19.244,Q,Q
2023-03-14 21:35:41:573,0,-16.7906,-4.73894,19.2733,Q,Q
2023-03-14 21:35:41:583,0,-16.7958,-4.73382,19.2932,Q,Q
2023-03-14 21:35:41:593,0,-16.798,-4.73193,19.307,Q,Q
2023-03-14 21:35:41:603,0,-16.8051,-4.73773,19.3197,Q,Q
2023-03-14 21:35:41:613,0,-16.8167,-4.73878,19.3253,Q,Q
2023-03-14 21:35:41:623,0,-16.8303,-4.74181,19.3309,Q,Q
2023-03-14 21:35:41:633,0,-16.8459,-4.73869,19.334,Q,Q
2023-03-14 21:35:41:643,0,-16.8661,-4.7296,19.3403,Q,Q
2023-03-14 21:35:41:653,0,-16.8896,-4.71633,19.3473,Q,Q
2023-03-14 21:35:41:663,0,-16.9205,-4.69453,19.3506,Q,Q
2023-03-14 21:35:41:673,0,-16.9528,-4.6706,19.3401,Q,Q
2023-03-14 21:35:41:683,0,-16.9832,-4.64177,19.3168,Q,Q
2023-03-14 21:35:41:693,0,-17.0142,-4.61643,19.2833,Q,Q
2023-03-14 21:35:41:703,0,-17.0358,-4.59858,19.2477,Q,Q
