Timestamp_cmd,imu_cmd,roll_delta,pitch_delta,yaw_delta
2023-03-10 21:48:45:646,0,-3.46565,-3.69545,87.7533
2023-03-10 21:48:45:655,0,-3.54362,-3.72439,87.6807
2023-03-10 21:48:45:665,0,-3.60964,-3.74942,87.6163
2023-03-10 21:48:45:675,0,-3.65541,-3.76844,87.542
2023-03-10 21:48:45:685,0,-3.68805,-3.78561,87.4657
2023-03-10 21:48:45:695,0,-3.70864,-3.80128,87.3886
2023-03-10 21:48:45:705,0,-3.72787,-3.81594,87.321
2023-03-10 21:48:45:715,0,-3.74762,-3.83461,87.2609
2023-03-10 21:48:45:725,0,-3.76347,-3.85537,87.2048
2023-03-10 21:48:45:735,0,-3.77166,-3.87834,87.1552
2023-03-10 21:48:45:745,0,-3.77899,-3.8958,87.1106
2023-03-10 21:48:45:755,0,-3.78234,-3.91313,87.0707
2023-03-10 21:48:45:765,0,-3.78183,-3.9336,87.034
2023-03-10 21:48:45:775,0,-3.77908,-3.95414,87.0018
2023-03-10 21:48:45:785,0,-3.7657,-3.97957,86.9799
2023-03-10 21:48:45:795,0,-3.74427,-4.00531,86.9671
2023-03-10 21:48:45:805,0,-3.71704,-4.03997,86.9605
2023-03-10 21:48:45:815,0,-3.68894,-4.07769,86.963
2023-03-10 21:48:45:825,0,-3.66338,-4.12043,86.9718
2023-03-10 21:48:45:835,0,-3.63607,-4.16037,86.9822
2023-03-10 21:48:45:845,0,-3.60685,-4.20207,86.9971
2023-03-10 21:48:45:855,0,-3.58025,-4.24535,87.0158
2023-03-10 21:48:45:865,0,-3.5611,-4.2896,87.0351
2023-03-10 21:48:45:875,0,-3.54879,-4.33714,87.0579
2023-03-10 21:48:45:885,0,-3.54109,-4.38697,87.0844
2023-03-10 21:48:45:895,0,-3.54107,-4.43885,87.1172
2023-03-10 21:48:45:905,0,-3.5507,-4.4935,87.1565
2023-03-10 21:48:45:915,0,-3.57084,-4.55121,87.1985
2023-03-10 21:48:45:925,0,-3.59312,-4.60512,87.2395
2023-03-10 21:48:45:935,0,-3.60767,-4.65511,87.2736
2023-03-10 21:48:45:945,0,-3.60392,-4.70106,87.3024
2023-03-10 21:48:45:955,0,-3.59015,-4.74339,87.3237
2023-03-10 21:48:45:965,0,-3.57186,-4.78688,87.3468
2023-03-10 21:48:45:975,0,-3.55628,-4.82426,87.3742
2023-03-10 21:48:45:985,0,-3.55713,-4.86952,87.4117
2023-03-10 21:48:45:995,0,-3.56876,-4.92266,87.4574
2023-03-10 21:48:46:5,0,-3.57681,-4.9731,87.5039
2023-03-10 21:48:46:15,0,-3.5785,-5.01452,87.5488
2023-03-10 21:48:46:25,0,-3.57135,-5.04173,87.5867
2023-03-10 21:48:46:35,0,-3.54682,-5.05551,87.6157
2023-03-10 21:48:46:45,0,-3.51308,-5.06549,87.6389
2023-03-10 21:48:46:55,0,-3.47176,-5.07692,87.6607
2023-03-10 21:48:46:65,0,-3.43471,-5.10439,87.696
2023-03-10 21:48:46:75,0,-3.41213,-5.14559,87.7411
2023-03-10 21:48:46:85,0,-3.4054,-5.19456,87.7904
2023-03-10 21:48:46:95,0,-3.41728,-5.24135,87.8414
2023-03-10 21:48:46:105,0,-3.43785,-5.28233,87.8818
2023-03-10 21:48:46:115,0,-3.45868,-5.3083,87.9066
2023-03-10 21:48:46:125,0,-3.47068,-5.31591,87.9116
2023-03-10 21:48:46:135,0,-3.47415,-5.30308,87.892
2023-03-10 21:48:46:145,0,-3.4674,-5.26758,87.8508
2023-03-10 21:48:46:155,0,-3.45558,-5.21825,87.7939
2023-03-10 21:48:46:165,0,-3.43653,-5.15622,87.724
2023-03-10 21:48:46:175,0,-3.41662,-5.08501,87.6526
2023-03-10 21:48:46:185,0,-3.39643,-5.01164,87.5777
2023-03-10 21:48:46:195,0,-3.38374,-4.93821,87.4955
2023-03-10 21:48:46:205,0,-3.37888,-4.86629,87.4128
2023-03-10 21:48:46:215,0,-3.37591,-4.79657,87.3318
2023-03-10 21:48:46:225,0,-3.37403,-4.73664,87.2491
2023-03-10 21:48:46:235,0,-3.3766,-4.68565,87.1725
2023-03-10 21:48:46:245,0,-3.39169,-4.64232,87.0944
2023-03-10 21:48:46:255,0,-3.41552,-4.60149,87.0106
2023-03-10 21:48:46:265,0,-3.44693,-4.55833,86.9155
2023-03-10 21:48:46:275,0,-3.48704,-4.51837,86.8081
2023-03-10 21:48:46:285,0,-3.52956,-4.49174,86.692
2023-03-10 21:48:46:295,0,-3.56818,-4.47105,86.5771
2023-03-10 21:48:46:305,0,-3.60106,-4.46016,86.4672
2023-03-10 21:48:46:315,0,-3.61623,-4.46133,86.3659
2023-03-10 21:48:46:325,0,-3.60553,-4.47381,86.2771
2023-03-10 21:48:46:335,0,-3.57511,-4.50158,86.1916
2023-03-10 21:48:46:345,0,-3.53525,-4.52881,86.1116
2023-03-10 21:48:46:355,0,-3.48269,-4.56066,86.0416
2023-03-10 21:48:46:365,0,-3.42664,-4.59448,85.9796
2023-03-10 21:48:46:375,0,-3.36115,-4.62513,85.9237
2023-03-10 21:48:46:385,0,-3.28384,-4.65346,85.8742
2023-03-10 21:48:46:395,0,-3.20265,-4.68409,85.8327
2023-03-10 21:48:46:405,0,-3.11643,-4.70617,85.7959
2023-03-10 21:48:46:415,0,-3.0341,-4.72689,85.7698
2023-03-10 21:48:46:425,0,-2.96057,-4.74331,85.7472
2023-03-10 21:48:46:435,0,-2.8994,-4.75329,85.7352
2023-03-10 21:48:46:445,0,-2.85178,-4.75635,85.7288
2023-03-10 21:48:46:455,0,-2.81949,-4.7533,85.7317
2023-03-10 21:48:46:465,0,-2.8024,-4.74386,85.7397
2023-03-10 21:48:46:475,0,-2.79357,-4.73354,85.7517
2023-03-10 21:48:46:485,0,-2.7901,-4.71616,85.7674
2023-03-10 21:48:46:495,0,-2.79794,-4.69946,85.7854
2023-03-10 21:48:46:505,0,-2.81103,-4.68246,85.8059
2023-03-10 21:48:46:515,0,-2.8383,-4.66308,85.8233
2023-03-10 21:48:46:525,0,-2.86867,-4.64653,85.8408
2023-03-10 21:48:46:535,0,-2.90435,-4.63376,85.8545
2023-03-10 21:48:46:545,0,-2.94314,-4.62338,85.86
2023-03-10 21:48:46:555,0,-2.98577,-4.6168,85.858
2023-03-10 21:48:46:565,0,-3.02756,-4.61562,85.8531
2023-03-10 21:48:46:575,0,-3.06555,-4.61703,85.8341
2023-03-10 21:48:46:585,0,-3.09844,-4.61958,85.8165
2023-03-10 21:48:46:595,0,-3.11784,-4.62493,85.7915
2023-03-10 21:48:46:605,0,-3.13617,-4.63143,85.7678
2023-03-10 21:48:46:615,0,-3.15454,-4.63969,85.7479
2023-03-10 21:48:46:625,0,-3.1722,-4.64665,85.7303
2023-03-10 21:48:46:635,0,-3.18268,-4.65084,85.7182
2023-03-10 21:48:46:645,0,-3.19575,-4.65846,85.7149
2023-03-10 21:48:46:655,0,-3.21133,-4.67173,85.7156
2023-03-10 21:48:46:665,0,-3.23267,-4.68582,85.7278
2023-03-10 21:48:46:675,0,-3.26314,-4.70706,85.7515
2023-03-10 21:48:46:685,0,-3.29176,-4.72472,85.7805
2023-03-10 21:48:46:695,0,-3.32097,-4.74258,85.8097
2023-03-10 21:48:46:705,0,-3.356,-4.76024,85.843
2023-03-10 21:48:46:715,0,-3.38868,-4.77684,85.8738
2023-03-10 21:48:46:725,0,-3.42563,-4.78913,85.9059
2023-03-10 21:48:46:735,0,-3.46842,-4.79205,85.9368
2023-03-10 21:48:46:745,0,-3.50912,-4.78962,85.962
2023-03-10 21:48:46:755,0,-3.54831,-4.78226,85.9817
2023-03-10 21:48:46:765,0,-3.58934,-4.77336,85.9986
2023-03-10 21:48:46:775,0,-3.6366,-4.76406,86.0247
2023-03-10 21:48:46:785,0,-3.68421,-4.75702,86.0539
2023-03-10 21:48:46:795,0,-3.73156,-4.751,86.0852
2023-03-10 21:48:46:805,0,-3.77336,-4.74539,86.1176
2023-03-10 21:48:46:815,0,-3.81012,-4.73934,86.1515
2023-03-10 21:48:46:825,0,-3.83761,-4.73289,86.1805
2023-03-10 21:48:46:835,0,-3.86189,-4.72929,86.2158
2023-03-10 21:48:46:845,0,-3.88033,-4.73007,86.2505
2023-03-10 21:48:46:855,0,-3.8993,-4.7369,86.2848
2023-03-10 21:48:46:865,0,-3.91153,-4.74572,86.318
2023-03-10 21:48:46:875,0,-3.91239,-4.7583,86.348
2023-03-10 21:48:46:885,0,-3.90558,-4.7701,86.3724
2023-03-10 21:48:46:895,0,-3.89085,-4.77981,86.3907
2023-03-10 21:48:46:905,0,-3.87076,-4.78605,86.3958
2023-03-10 21:48:46:915,0,-3.85031,-4.78953,86.3953
2023-03-10 21:48:46:925,0,-3.83312,-4.78878,86.3839
2023-03-10 21:48:46:935,0,-3.8259,-4.78579,86.3731
2023-03-10 21:48:46:945,0,-3.83118,-4.78534,86.3576
2023-03-10 21:48:46:955,0,-3.852,-4.79072,86.3462
2023-03-10 21:48:46:965,0,-3.88422,-4.80404,86.3447
2023-03-10 21:48:46:975,0,-3.9271,-4.82907,86.3506
2023-03-10 21:48:46:985,0,-3.97393,-4.87215,86.3615
2023-03-10 21:48:46:995,0,-4.00774,-4.92008,86.3694
2023-03-10 21:48:47:5,0,-4.02523,-4.95606,86.3676
2023-03-10 21:48:47:15,0,-4.01709,-4.97511,86.3523
2023-03-10 21:48:47:25,0,-3.98949,-4.9926,86.321
2023-03-10 21:48:47:35,0,-3.96028,-5.01771,86.2828
2023-03-10 21:48:47:45,0,-3.9456,-5.04928,86.2414
2023-03-10 21:48:47:55,0,-3.94079,-5.08538,86.2013
2023-03-10 21:48:47:65,0,-3.93134,-5.11975,86.1516
2023-03-10 21:48:47:75,0,-3.90556,-5.15196,86.0939
2023-03-10 21:48:47:85,0,-3.86899,-5.18632,86.034
2023-03-10 21:48:47:95,0,-3.82562,-5.21791,85.972
2023-03-10 21:48:47:105,0,-3.77669,-5.25002,85.9109
2023-03-10 21:48:47:115,0,-3.72863,-5.27867,85.8496
2023-03-10 21:48:47:125,0,-3.68511,-5.30717,85.7908
2023-03-10 21:48:47:135,0,-3.64018,-5.33687,85.7387
2023-03-10 21:48:47:145,0,-3.60268,-5.35995,85.6916
2023-03-10 21:48:47:155,0,-3.5705,-5.38905,85.6474
2023-03-10 21:48:47:165,0,-3.53516,-5.41131,85.6037
2023-03-10 21:48:47:175,0,-3.49756,-5.42613,85.5597
2023-03-10 21:48:47:185,0,-3.45603,-5.43113,85.5109
2023-03-10 21:48:47:195,0,-3.4149,-5.42822,85.4549
2023-03-10 21:48:47:205,0,-3.37724,-5.41742,85.3984
2023-03-10 21:48:47:215,0,-3.3408,-5.40168,85.3423
2023-03-10 21:48:47:225,0,-3.31216,-5.38402,85.2855
2023-03-10 21:48:47:235,0,-3.2914,-5.36434,85.228
2023-03-10 21:48:47:245,0,-3.27246,-5.34697,85.1776
2023-03-10 21:48:47:255,0,-3.2681,-5.33311,85.1321
2023-03-10 21:48:47:265,0,-3.26574,-5.31989,85.088
2023-03-10 21:48:47:275,0,-3.25954,-5.31048,85.0506
2023-03-10 21:48:47:285,0,-3.25218,-5.29822,85.0201
2023-03-10 21:48:47:295,0,-3.24706,-5.28422,84.9915
2023-03-10 21:48:47:305,0,-3.23737,-5.26166,84.9677
2023-03-10 21:48:47:315,0,-3.22833,-5.23618,84.9477
2023-03-10 21:48:47:325,0,-3.21737,-5.20899,84.9337
2023-03-10 21:48:47:335,0,-3.21012,-5.18085,84.9244
2023-03-10 21:48:47:345,0,-3.20446,-5.15146,84.9209
2023-03-10 21:48:47:355,0,-3.20385,-5.12611,84.9242
2023-03-10 21:48:47:365,0,-3.2024,-5.10647,84.9322
2023-03-10 21:48:47:375,0,-3.20139,-5.09103,84.9438
2023-03-10 21:48:47:385,0,-3.19917,-5.07508,84.9563
2023-03-10 21:48:47:395,0,-3.19788,-5.06389,84.9683
2023-03-10 21:48:47:405,0,-3.19675,-5.0544,84.9718
2023-03-10 21:48:47:415,0,-3.19544,-5.04746,84.9756
2023-03-10 21:48:47:425,0,-3.19636,-5.04495,84.9761
2023-03-10 21:48:47:435,0,-3.19856,-5.04711,84.9761
2023-03-10 21:48:47:445,0,-3.20434,-5.0535,84.9779
2023-03-10 21:48:47:455,0,-3.21425,-5.05958,84.9795
2023-03-10 21:48:47:465,0,-3.22812,-5.06659,84.9812
2023-03-10 21:48:47:475,0,-3.23937,-5.07193,84.98
2023-03-10 21:48:47:485,0,-3.24675,-5.07689,84.9785
2023-03-10 21:48:47:495,0,-3.25034,-5.08594,84.9729
2023-03-10 21:48:47:505,0,-3.25299,-5.09108,84.9669
2023-03-10 21:48:47:515,0,-3.25288,-5.09386,84.9602
2023-03-10 21:48:47:525,0,-3.25445,-5.10079,84.9477
2023-03-10 21:48:47:535,0,-3.25678,-5.11191,84.9363
2023-03-10 21:48:47:545,0,-3.25734,-5.13189,84.9276
2023-03-10 21:48:47:555,0,-3.25479,-5.1525,84.92
2023-03-10 21:48:47:565,0,-3.25391,-5.16927,84.9089
2023-03-10 21:48:47:575,0,-3.2451,-5.18848,84.903
2023-03-10 21:48:47:585,0,-3.23497,-5.21324,84.8978
2023-03-10 21:48:47:595,0,-3.22482,-5.23078,84.8935
2023-03-10 21:48:47:605,0,-3.21249,-5.25144,84.8932
2023-03-10 21:48:47:615,0,-3.19025,-5.26911,84.8905
2023-03-10 21:48:47:625,0,-3.16304,-5.29087,84.8936
2023-03-10 21:48:47:635,0,-3.13577,-5.3182,84.8983
2023-03-10 21:48:47:645,0,-3.10946,-5.34479,84.9074
2023-03-10 21:48:47:655,0,-3.08566,-5.36788,84.9129
2023-03-10 21:48:47:665,0,-3.06463,-5.39401,84.9192
2023-03-10 21:48:47:675,0,-3.04786,-5.4144,84.9269
2023-03-10 21:48:47:685,0,-3.03127,-5.43872,84.9282
2023-03-10 21:48:47:695,0,-3.0127,-5.46425,84.93
2023-03-10 21:48:47:705,0,-2.99108,-5.48647,84.9252
2023-03-10 21:48:47:715,0,-2.96554,-5.50946,84.9175
2023-03-10 21:48:47:725,0,-2.93198,-5.5285,84.9021
2023-03-10 21:48:47:735,0,-2.89654,-5.54036,84.8836
2023-03-10 21:48:47:745,0,-2.86215,-5.5534,84.8693
2023-03-10 21:48:47:755,0,-2.82974,-5.57001,84.8574
2023-03-10 21:48:47:765,0,-2.79704,-5.58848,84.847
2023-03-10 21:48:47:775,0,-2.76063,-5.61358,84.8419
2023-03-10 21:48:47:785,0,-2.71918,-5.64253,84.8421
2023-03-10 21:48:47:795,0,-2.67604,-5.67722,84.8434
2023-03-10 21:48:47:805,0,-2.64037,-5.70942,84.8507
2023-03-10 21:48:47:815,0,-2.61237,-5.74647,84.8588
2023-03-10 21:48:47:825,0,-2.59039,-5.78385,84.8642
2023-03-10 21:48:47:835,0,-2.57537,-5.81673,84.8695
2023-03-10 21:48:47:845,0,-2.5638,-5.85044,84.8705
2023-03-10 21:48:47:855,0,-2.55422,-5.88025,84.8682
2023-03-10 21:48:47:865,0,-2.54642,-5.91052,84.86
2023-03-10 21:48:47:875,0,-2.53313,-5.94429,84.8529
2023-03-10 21:48:47:885,0,-2.51761,-5.9811,84.8403
2023-03-10 21:48:47:895,0,-2.50447,-6.01722,84.8324
2023-03-10 21:48:47:905,0,-2.48935,-6.05667,84.8245
2023-03-10 21:48:47:915,0,-2.47096,-6.0959,84.814
2023-03-10 21:48:47:925,0,-2.44878,-6.12908,84.8043
2023-03-10 21:48:47:935,0,-2.42017,-6.1587,84.7952
2023-03-10 21:48:47:945,0,-2.39396,-6.17868,84.7858
2023-03-10 21:48:47:955,0,-2.37319,-6.20176,84.7787
2023-03-10 21:48:47:965,0,-2.35444,-6.21516,84.7763
2023-03-10 21:48:47:975,0,-2.33583,-6.22618,84.7808
2023-03-10 21:48:47:985,0,-2.31423,-6.23741,84.7957
2023-03-10 21:48:47:995,0,-2.29829,-6.2541,84.8144
2023-03-10 21:48:48:5,0,-2.2894,-6.26548,84.847
2023-03-10 21:48:48:15,0,-2.28509,-6.2795,84.8843
2023-03-10 21:48:48:25,0,-2.28138,-6.29275,84.9264
2023-03-10 21:48:48:35,0,-2.28334,-6.3124,84.978
2023-03-10 21:48:48:45,0,-2.28891,-6.33614,85.0357
2023-03-10 21:48:48:55,0,-2.29204,-6.36632,85.0938
2023-03-10 21:48:48:65,0,-2.29017,-6.40105,85.1516
2023-03-10 21:48:48:75,0,-2.28026,-6.43574,85.2049
2023-03-10 21:48:48:85,0,-2.2667,-6.47481,85.2533
2023-03-10 21:48:48:95,0,-2.24863,-6.51768,85.2979
2023-03-10 21:48:48:105,0,-2.22697,-6.56263,85.3354
2023-03-10 21:48:48:115,0,-2.20279,-6.60809,85.3687
2023-03-10 21:48:48:125,0,-2.18392,-6.65045,85.393
2023-03-10 21:48:48:135,0,-2.16396,-6.69687,85.4096
2023-03-10 21:48:48:145,0,-2.13338,-6.74143,85.4222
2023-03-10 21:48:48:155,0,-2.10466,-6.78041,85.4247
2023-03-10 21:48:48:165,0,-2.06964,-6.81026,85.4189
2023-03-10 21:48:48:175,0,-2.03548,-6.83187,85.408
2023-03-10 21:48:48:185,0,-2.00283,-6.84045,85.3911
2023-03-10 21:48:48:195,0,-1.97848,-6.84541,85.3807
2023-03-10 21:48:48:205,0,-1.9587,-6.84873,85.3648
2023-03-10 21:48:48:215,0,-1.94552,-6.84989,85.3513
2023-03-10 21:48:48:225,0,-1.94442,-6.85166,85.3446
2023-03-10 21:48:48:235,0,-1.95321,-6.85584,85.339
2023-03-10 21:48:48:245,0,-1.96284,-6.86143,85.339
2023-03-10 21:48:48:255,0,-1.96718,-6.87394,85.3448
2023-03-10 21:48:48:265,0,-1.97022,-6.89378,85.3543
2023-03-10 21:48:48:275,0,-1.97117,-6.91053,85.3652
2023-03-10 21:48:48:285,0,-1.97094,-6.92757,85.3764
2023-03-10 21:48:48:295,0,-1.96602,-6.94118,85.388
2023-03-10 21:48:48:305,0,-1.9633,-6.95377,85.4047
2023-03-10 21:48:48:315,0,-1.96075,-6.96061,85.4262
2023-03-10 21:48:48:325,0,-1.96494,-6.96578,85.4454
2023-03-10 21:48:48:335,0,-1.96346,-6.9686,85.4672
2023-03-10 21:48:48:345,0,-1.95845,-6.96623,85.4931
2023-03-10 21:48:48:355,0,-1.95581,-6.96241,85.5249
2023-03-10 21:48:48:365,0,-1.95558,-6.95251,85.559
2023-03-10 21:48:48:375,0,-1.95527,-6.94117,85.5935
2023-03-10 21:48:48:385,0,-1.95253,-6.9308,85.6308
2023-03-10 21:48:48:395,0,-1.95349,-6.92277,85.6742
2023-03-10 21:48:48:405,0,-1.95414,-6.91386,85.7104
2023-03-10 21:48:48:415,0,-1.94999,-6.89972,85.7392
2023-03-10 21:48:48:425,0,-1.93478,-6.8793,85.7548
2023-03-10 21:48:48:435,0,-1.91583,-6.8554,85.7642
2023-03-10 21:48:48:445,0,-1.89038,-6.83255,85.7673
2023-03-10 21:48:48:455,0,-1.86811,-6.81001,85.7637
2023-03-10 21:48:48:465,0,-1.85508,-6.78565,85.7585
2023-03-10 21:48:48:475,0,-1.8523,-6.76222,85.7516
2023-03-10 21:48:48:485,0,-1.85775,-6.7406,85.739
2023-03-10 21:48:48:495,0,-1.86847,-6.72007,85.73
2023-03-10 21:48:48:505,0,-1.88055,-6.70387,85.7252
2023-03-10 21:48:48:515,0,-1.89013,-6.6904,85.7204
2023-03-10 21:48:48:525,0,-1.89396,-6.67333,85.7193
2023-03-10 21:48:48:535,0,-1.90461,-6.65552,85.7198
2023-03-10 21:48:48:545,0,-1.91392,-6.63141,85.7288
2023-03-10 21:48:48:555,0,-1.92629,-6.60848,85.7433
2023-03-10 21:48:48:565,0,-1.93917,-6.58641,85.7664
2023-03-10 21:48:48:575,0,-1.95391,-6.57078,85.7939
2023-03-10 21:48:48:585,0,-1.97177,-6.55151,85.8235
2023-03-10 21:48:48:595,0,-1.98169,-6.53487,85.8546
2023-03-10 21:48:48:605,0,-1.98649,-6.52213,85.8797
2023-03-10 21:48:48:615,0,-1.98493,-6.50881,85.899
2023-03-10 21:48:48:625,0,-1.97354,-6.49952,85.9132
2023-03-10 21:48:48:635,0,-1.95645,-6.4988,85.9112
2023-03-10 21:48:48:645,0,-1.93358,-6.49665,85.8989
2023-03-10 21:48:48:655,0,-1.91132,-6.49722,85.869
2023-03-10 21:48:48:665,0,-1.88917,-6.5011,85.8263
2023-03-10 21:48:48:675,0,-1.86771,-6.50761,85.7699
2023-03-10 21:48:48:685,0,-1.84457,-6.5188,85.706
2023-03-10 21:48:48:695,0,-1.82291,-6.53313,85.6357
2023-03-10 21:48:48:705,0,-1.80502,-6.54476,85.5605
2023-03-10 21:48:48:715,0,-1.78477,-6.55821,85.4791
2023-03-10 21:48:48:725,0,-1.75875,-6.57065,85.3923
2023-03-10 21:48:48:735,0,-1.73241,-6.57814,85.2978
2023-03-10 21:48:48:745,0,-1.70116,-6.58061,85.201
2023-03-10 21:48:48:755,0,-1.67068,-6.58417,85.1084
2023-03-10 21:48:48:765,0,-1.64668,-6.5951,85.0296
2023-03-10 21:48:48:775,0,-1.63776,-6.62431,84.9795
2023-03-10 21:48:48:785,0,-1.65219,-6.6763,84.9626
2023-03-10 21:48:48:795,0,-1.68669,-6.74202,84.9746
2023-03-10 21:48:48:805,0,-1.73621,-6.80935,85.0129
2023-03-10 21:48:48:815,0,-1.78745,-6.86257,85.0676
2023-03-10 21:48:48:825,0,-1.82767,-6.9089,85.1303
2023-03-10 21:48:48:835,0,-1.854,-6.93176,85.1934
2023-03-10 21:48:48:845,0,-1.85982,-6.93552,85.2513
2023-03-10 21:48:48:855,0,-1.84887,-6.92253,85.299
2023-03-10 21:48:48:865,0,-1.82995,-6.90052,85.332
2023-03-10 21:48:48:875,0,-1.80378,-6.87794,85.3611
2023-03-10 21:48:48:885,0,-1.7821,-6.85394,85.3821
2023-03-10 21:48:48:895,0,-1.75912,-6.82636,85.394
2023-03-10 21:48:48:905,0,-1.73385,-6.80592,85.3825
2023-03-10 21:48:48:915,0,-1.71319,-6.79105,85.3558
2023-03-10 21:48:48:925,0,-1.69826,-6.79079,85.3145
2023-03-10 21:48:48:935,0,-1.68888,-6.80044,85.2663
2023-03-10 21:48:48:945,0,-1.67881,-6.82033,85.2232
2023-03-10 21:48:48:955,0,-1.67235,-6.85471,85.1852
2023-03-10 21:48:48:965,0,-1.66525,-6.89692,85.1654
2023-03-10 21:48:48:975,0,-1.66923,-6.94568,85.1629
2023-03-10 21:48:48:985,0,-1.67614,-6.99108,85.1776
2023-03-10 21:48:48:995,0,-1.68056,-7.03451,85.2044
2023-03-10 21:48:49:5,0,-1.6882,-7.06604,85.2388
2023-03-10 21:48:49:15,0,-1.68489,-7.08974,85.273
2023-03-10 21:48:49:25,0,-1.66596,-7.10368,85.3092
2023-03-10 21:48:49:35,0,-1.64325,-7.1102,85.3427
2023-03-10 21:48:49:45,0,-1.61856,-7.11251,85.3628
2023-03-10 21:48:49:55,0,-1.59679,-7.11473,85.3767
2023-03-10 21:48:49:65,0,-1.58112,-7.11677,85.3814
2023-03-10 21:48:49:75,0,-1.57324,-7.12232,85.3815
2023-03-10 21:48:49:85,0,-1.5718,-7.12963,85.3725
2023-03-10 21:48:49:95,0,-1.57591,-7.143,85.3605
2023-03-10 21:48:49:105,0,-1.58104,-7.15897,85.3482
2023-03-10 21:48:49:115,0,-1.58555,-7.17393,85.3396
2023-03-10 21:48:49:125,0,-1.59293,-7.18962,85.3379
2023-03-10 21:48:49:135,0,-1.59497,-7.19978,85.3427
2023-03-10 21:48:49:145,0,-1.59619,-7.20196,85.3518
2023-03-10 21:48:49:155,0,-1.5908,-7.19916,85.3656
2023-03-10 21:48:49:165,0,-1.58282,-7.19196,85.3814
2023-03-10 21:48:49:175,0,-1.56768,-7.17987,85.4017
2023-03-10 21:48:49:185,0,-1.54717,-7.16568,85.4228
2023-03-10 21:48:49:195,0,-1.52361,-7.14926,85.446
2023-03-10 21:48:49:205,0,-1.49731,-7.13444,85.4632
2023-03-10 21:48:49:215,0,-1.47551,-7.12834,85.4756
2023-03-10 21:48:49:225,0,-1.46708,-7.12967,85.4884
2023-03-10 21:48:49:235,0,-1.46958,-7.13729,85.4964
2023-03-10 21:48:49:245,0,-1.46926,-7.14343,85.5001
2023-03-10 21:48:49:255,0,-1.46611,-7.14764,85.5006
2023-03-10 21:48:49:265,0,-1.46303,-7.15541,85.5025
2023-03-10 21:48:49:275,0,-1.45811,-7.17354,85.5053
2023-03-10 21:48:49:285,0,-1.4611,-7.19008,85.5153
2023-03-10 21:48:49:295,0,-1.4671,-7.20498,85.5223
2023-03-10 21:48:49:305,0,-1.47703,-7.22439,85.528
2023-03-10 21:48:49:315,0,-1.49732,-7.25213,85.5377
2023-03-10 21:48:49:325,0,-1.52909,-7.28087,85.5472
2023-03-10 21:48:49:335,0,-1.56283,-7.30774,85.5595
2023-03-10 21:48:49:345,0,-1.59417,-7.33704,85.5768
2023-03-10 21:48:49:355,0,-1.61473,-7.36433,85.594
2023-03-10 21:48:49:365,0,-1.62945,-7.39049,85.6098
2023-03-10 21:48:49:375,0,-1.64497,-7.41119,85.625
2023-03-10 21:48:49:385,0,-1.65472,-7.42924,85.6362
2023-03-10 21:48:49:395,0,-1.66431,-7.44631,85.6449
2023-03-10 21:48:49:405,0,-1.67428,-7.46568,85.652
2023-03-10 21:48:49:415,0,-1.68526,-7.48232,85.6556
2023-03-10 21:48:49:425,0,-1.6919,-7.499,85.6566
2023-03-10 21:48:49:435,0,-1.69704,-7.51512,85.6593
2023-03-10 21:48:49:445,0,-1.70208,-7.53213,85.6617
2023-03-10 21:48:49:455,0,-1.70838,-7.5466,85.6657
2023-03-10 21:48:49:465,0,-1.71123,-7.55597,85.6738
2023-03-10 21:48:49:475,0,-1.71645,-7.56527,85.6836
2023-03-10 21:48:49:485,0,-1.71588,-7.57274,85.6939
2023-03-10 21:48:49:495,0,-1.71257,-7.57346,85.7069
2023-03-10 21:48:49:505,0,-1.69975,-7.56742,85.7152
2023-03-10 21:48:49:515,0,-1.67934,-7.56432,85.7216
2023-03-10 21:48:49:525,0,-1.65558,-7.56331,85.7315
2023-03-10 21:48:49:535,0,-1.63046,-7.56653,85.7411
2023-03-10 21:48:49:545,0,-1.60727,-7.56431,85.7484
2023-03-10 21:48:49:555,0,-1.5884,-7.5622,85.7549
2023-03-10 21:48:49:565,0,-1.56995,-7.56537,85.7572
2023-03-10 21:48:49:575,0,-1.55142,-7.56319,85.7573
2023-03-10 21:48:49:586,0,-1.53517,-7.56193,85.7572
2023-03-10 21:48:49:595,0,-1.51597,-7.56068,85.7548
2023-03-10 21:48:49:605,0,-1.49888,-7.55764,85.7489
2023-03-10 21:48:49:615,0,-1.48744,-7.5544,85.7415
2023-03-10 21:48:49:625,0,-1.47831,-7.55632,85.7331
2023-03-10 21:48:49:635,0,-1.47908,-7.56087,85.7281
2023-03-10 21:48:49:645,0,-1.48404,-7.56251,85.7263
2023-03-10 21:48:49:655,0,-1.48947,-7.57241,85.7243
2023-03-10 21:48:49:665,0,-1.4954,-7.57557,85.7287
2023-03-10 21:48:49:675,0,-1.50027,-7.5828,85.7351
2023-03-10 21:48:49:685,0,-1.50338,-7.58604,85.7447
2023-03-10 21:48:49:695,0,-1.50841,-7.59163,85.7549
2023-03-10 21:48:49:705,0,-1.51506,-7.59119,85.7681
2023-03-10 21:48:49:715,0,-1.52338,-7.59076,85.7823
2023-03-10 21:48:49:725,0,-1.53609,-7.59148,85.7947
2023-03-10 21:48:49:735,0,-1.54677,-7.58862,85.806
2023-03-10 21:48:49:745,0,-1.56062,-7.59158,85.8118
2023-03-10 21:48:49:755,0,-1.57358,-7.5943,85.8169
2023-03-10 21:48:49:765,0,-1.58165,-7.59703,85.8179
2023-03-10 21:48:49:775,0,-1.58708,-7.59839,85.8087
2023-03-10 21:48:49:785,0,-1.59344,-7.59814,85.8019
2023-03-10 21:48:49:795,0,-1.6027,-7.59861,85.794
2023-03-10 21:48:49:805,0,-1.61116,-7.59798,85.7806
2023-03-10 21:48:49:815,0,-1.61929,-7.59594,85.7639
2023-03-10 21:48:49:825,0,-1.62828,-7.59651,85.7484
2023-03-10 21:48:49:835,0,-1.63267,-7.59578,85.7339
2023-03-10 21:48:49:845,0,-1.63826,-7.59065,85.7233
2023-03-10 21:48:49:855,0,-1.64085,-7.58879,85.7132
2023-03-10 21:48:49:865,0,-1.64379,-7.58432,85.708
2023-03-10 21:48:49:875,0,-1.64718,-7.57748,85.7074
2023-03-10 21:48:49:885,0,-1.6536,-7.56762,85.7069
2023-03-10 21:48:49:895,0,-1.66168,-7.55672,85.7081
2023-03-10 21:48:49:905,0,-1.6716,-7.54679,85.7146
2023-03-10 21:48:49:915,0,-1.67872,-7.52849,85.7256
2023-03-10 21:48:49:925,0,-1.68582,-7.51117,85.7351
2023-03-10 21:48:49:935,0,-1.68867,-7.49252,85.7524
2023-03-10 21:48:49:946,0,-1.69389,-7.47517,85.7751
2023-03-10 21:48:49:955,0,-1.69888,-7.45232,85.8062
2023-03-10 21:48:49:965,0,-1.70506,-7.43304,85.8419
2023-03-10 21:48:49:975,0,-1.72417,-7.41142,85.8851
2023-03-10 21:48:49:985,0,-1.75384,-7.39139,85.9338
2023-03-10 21:48:49:995,0,-1.78341,-7.3737,85.9866
2023-03-10 21:48:50:5,0,-1.80401,-7.35675,86.0368
2023-03-10 21:48:50:15,0,-1.80913,-7.34732,86.0875
2023-03-10 21:48:50:25,0,-1.80387,-7.34242,86.1343
2023-03-10 21:48:50:35,0,-1.78818,-7.34295,86.1844
2023-03-10 21:48:50:45,0,-1.76444,-7.34138,86.2355
2023-03-10 21:48:50:55,0,-1.74378,-7.33249,86.2893
2023-03-10 21:48:50:65,0,-1.71962,-7.31397,86.3396
2023-03-10 21:48:50:75,0,-1.69506,-7.28844,86.3927
2023-03-10 21:48:50:85,0,-1.67115,-7.27156,86.447
2023-03-10 21:48:50:95,0,-1.65404,-7.26116,86.5075
2023-03-10 21:48:50:105,0,-1.63579,-7.25563,86.5714
2023-03-10 21:48:50:115,0,-1.61597,-7.24491,86.6417
2023-03-10 21:48:50:125,0,-1.59454,-7.22656,86.7049
2023-03-10 21:48:50:135,0,-1.57028,-7.20358,86.7649
2023-03-10 21:48:50:145,0,-1.54629,-7.17924,86.8209
2023-03-10 21:48:50:155,0,-1.52538,-7.16548,86.873
2023-03-10 21:48:50:165,0,-1.51062,-7.163,86.9158
2023-03-10 21:48:50:175,0,-1.49411,-7.16769,86.9503
2023-03-10 21:48:50:185,0,-1.4699,-7.18414,86.9805
2023-03-10 21:48:50:195,0,-1.433,-7.2122,87.0
2023-03-10 21:48:50:205,0,-1.37157,-7.24692,87.0081
2023-03-10 21:48:50:215,0,-1.29996,-7.28057,87.0084
2023-03-10 21:48:50:225,0,-1.23286,-7.31067,86.9999
2023-03-10 21:48:50:235,0,-1.18081,-7.33632,86.973
2023-03-10 21:48:50:245,0,-1.13992,-7.36225,86.9289
2023-03-10 21:48:50:255,0,-1.11631,-7.39226,86.8773
2023-03-10 21:48:50:265,0,-1.10483,-7.42691,86.8334
2023-03-10 21:48:50:275,0,-1.09558,-7.4689,86.801
2023-03-10 21:48:50:285,0,-1.08044,-7.50523,86.7747
2023-03-10 21:48:50:295,0,-1.06788,-7.53426,86.7547
2023-03-10 21:48:50:305,0,-1.06582,-7.54976,86.7381
2023-03-10 21:48:50:315,0,-1.082,-7.551,86.7261
2023-03-10 21:48:50:325,0,-1.114,-7.53857,86.7068
2023-03-10 21:48:50:335,0,-1.1472,-7.50792,86.6754
2023-03-10 21:48:50:345,0,-1.18631,-7.47695,86.6441
2023-03-10 21:48:50:355,0,-1.22647,-7.45399,86.6287
2023-03-10 21:48:50:365,0,-1.25656,-7.43359,86.6233
2023-03-10 21:48:50:375,0,-1.2673,-7.40711,86.6197
2023-03-10 21:48:50:385,0,-1.26599,-7.37761,86.6146
2023-03-10 21:48:50:395,0,-1.2588,-7.34076,86.6081
2023-03-10 21:48:50:405,0,-1.25213,-7.30366,86.6002
2023-03-10 21:48:50:415,0,-1.25823,-7.26619,86.597
2023-03-10 21:48:50:425,0,-1.27588,-7.23485,86.5915
2023-03-10 21:48:50:435,0,-1.30317,-7.20967,86.5802
2023-03-10 21:48:50:446,0,-1.33318,-7.19106,86.5687
2023-03-10 21:48:50:455,0,-1.36291,-7.18451,86.561
2023-03-10 21:48:50:466,0,-1.37778,-7.18725,86.5546
2023-03-10 21:48:50:475,0,-1.37621,-7.2026,86.5509
2023-03-10 21:48:50:485,0,-1.35437,-7.21281,86.5491
2023-03-10 21:48:50:495,0,-1.32482,-7.21543,86.5422
2023-03-10 21:48:50:505,0,-1.29853,-7.2112,86.5368
2023-03-10 21:48:50:515,0,-1.28922,-7.20382,86.5416
2023-03-10 21:48:50:525,0,-1.29385,-7.19513,86.5522
2023-03-10 21:48:50:535,0,-1.30668,-7.18824,86.566
2023-03-10 21:48:50:545,0,-1.31902,-7.18166,86.5847
2023-03-10 21:48:50:555,0,-1.3198,-7.17495,86.6073
2023-03-10 21:48:50:565,0,-1.31178,-7.17256,86.628
2023-03-10 21:48:50:575,0,-1.2991,-7.16965,86.6505
2023-03-10 21:48:50:585,0,-1.28636,-7.17811,86.6703
2023-03-10 21:48:50:595,0,-1.27877,-7.19726,86.6929
2023-03-10 21:48:50:605,0,-1.27027,-7.2196,86.7147
2023-03-10 21:48:50:615,0,-1.26069,-7.24577,86.7346
2023-03-10 21:48:50:625,0,-1.25362,-7.2751,86.7484
2023-03-10 21:48:50:635,0,-1.24944,-7.30857,86.756
2023-03-10 21:48:50:645,0,-1.24898,-7.34397,86.7654
2023-03-10 21:48:50:655,0,-1.23796,-7.38332,86.7686
2023-03-10 21:48:50:665,0,-1.22277,-7.42831,86.7734
2023-03-10 21:48:50:675,0,-1.20106,-7.47114,86.7802
2023-03-10 21:48:50:685,0,-1.17726,-7.51476,86.7869
2023-03-10 21:48:50:695,0,-1.14989,-7.55094,86.7948
2023-03-10 21:48:50:705,0,-1.11591,-7.58716,86.7993
2023-03-10 21:48:50:715,0,-1.0799,-7.62771,86.8015
2023-03-10 21:48:50:725,0,-1.04763,-7.67298,86.8052
2023-03-10 21:48:50:735,0,-1.02299,-7.71283,86.8162
2023-03-10 21:48:50:746,0,-1.00096,-7.75307,86.8291
2023-03-10 21:48:50:755,0,-0.976225,-7.78966,86.8442
2023-03-10 21:48:50:765,0,-0.967081,-7.82098,86.8639
2023-03-10 21:48:50:775,0,-0.968621,-7.85557,86.8864
2023-03-10 21:48:50:786,0,-0.980997,-7.89038,86.9088
2023-03-10 21:48:50:795,0,-0.999637,-7.92553,86.9321
2023-03-10 21:48:50:806,0,-1.02371,-7.96126,86.9492
2023-03-10 21:48:50:815,0,-1.04683,-7.99554,86.9563
2023-03-10 21:48:50:825,0,-1.05942,-8.02587,86.9567
2023-03-10 21:48:50:835,0,-1.06624,-8.05364,86.9439
2023-03-10 21:48:50:845,0,-1.07069,-8.08129,86.9277
2023-03-10 21:48:50:855,0,-1.079,-8.10882,86.9149
2023-03-10 21:48:50:866,0,-1.08741,-8.14745,86.904
2023-03-10 21:48:50:875,0,-1.10291,-8.1861,86.895
2023-03-10 21:48:50:885,0,-1.12504,-8.2255,86.8882
2023-03-10 21:48:50:895,0,-1.14833,-8.25713,86.8815
2023-03-10 21:48:50:906,0,-1.17129,-8.29265,86.875
2023-03-10 21:48:50:915,0,-1.18783,-8.32762,86.8674
2023-03-10 21:48:50:926,0,-1.20547,-8.36206,86.864
2023-03-10 21:48:50:935,0,-1.2244,-8.39642,86.8608
2023-03-10 21:48:50:946,0,-1.24131,-8.42626,86.8586
2023-03-10 21:48:50:955,0,-1.25744,-8.45844,86.8581
2023-03-10 21:48:50:966,0,-1.26961,-8.48494,86.8618
2023-03-10 21:48:50:975,0,-1.2825,-8.50763,86.869
2023-03-10 21:48:50:986,0,-1.29918,-8.52495,86.8795
2023-03-10 21:48:50:995,0,-1.31683,-8.54091,86.8899
2023-03-10 21:48:51:6,0,-1.33101,-8.5554,86.8999
2023-03-10 21:48:51:15,0,-1.34151,-8.56567,86.9132
2023-03-10 21:48:51:25,0,-1.34297,-8.57064,86.9276
2023-03-10 21:48:51:35,0,-1.33971,-8.57889,86.9454
2023-03-10 21:48:51:46,0,-1.33422,-8.58594,86.9654
2023-03-10 21:48:51:55,0,-1.32996,-8.59429,86.9867
2023-03-10 21:48:51:65,0,-1.32144,-8.60844,87.013
2023-03-10 21:48:51:75,0,-1.3125,-8.62382,87.0425
2023-03-10 21:48:51:86,0,-1.30083,-8.64185,87.0774
2023-03-10 21:48:51:95,0,-1.29448,-8.66384,87.1184
2023-03-10 21:48:51:106,0,-1.2938,-8.68711,87.1622
2023-03-10 21:48:51:115,0,-1.29389,-8.71478,87.2096
2023-03-10 21:48:51:126,0,-1.302,-8.74297,87.262
2023-03-10 21:48:51:135,0,-1.31433,-8.7696,87.3166
2023-03-10 21:48:51:146,0,-1.32714,-8.79413,87.3684
2023-03-10 21:48:51:155,0,-1.34387,-8.81913,87.4188
2023-03-10 21:48:51:166,0,-1.35678,-8.84686,87.4653
2023-03-10 21:48:51:175,0,-1.3747,-8.87636,87.5068
2023-03-10 21:48:51:185,0,-1.39699,-8.91032,87.5447
2023-03-10 21:48:51:195,0,-1.42278,-8.9434,87.5772
2023-03-10 21:48:51:206,0,-1.4502,-8.97487,87.6108
2023-03-10 21:48:51:215,0,-1.48441,-9.00748,87.6404
2023-03-10 21:48:51:225,0,-1.5156,-9.03848,87.6693
2023-03-10 21:48:51:235,0,-1.54791,-9.06975,87.6979
2023-03-10 21:48:51:245,0,-1.57568,-9.10491,87.7264
2023-03-10 21:48:51:255,0,-1.598,-9.13763,87.7513
2023-03-10 21:48:51:265,0,-1.62066,-9.16639,87.7816
2023-03-10 21:48:51:275,0,-1.64678,-9.1941,87.8113
2023-03-10 21:48:51:285,0,-1.67531,-9.22303,87.8394
2023-03-10 21:48:51:295,0,-1.70411,-9.25084,87.8641
2023-03-10 21:48:51:305,0,-1.72898,-9.28086,87.8841
2023-03-10 21:48:51:315,0,-1.74552,-9.31245,87.902
2023-03-10 21:48:51:325,0,-1.75255,-9.34325,87.9164
2023-03-10 21:48:51:335,0,-1.75252,-9.37303,87.9206
2023-03-10 21:48:51:345,0,-1.74804,-9.40125,87.9185
2023-03-10 21:48:51:355,0,-1.75153,-9.42299,87.9132
2023-03-10 21:48:51:365,0,-1.76287,-9.44195,87.9016
2023-03-10 21:48:51:375,0,-1.76676,-9.45707,87.8887
2023-03-10 21:48:51:385,0,-1.77183,-9.4709,87.8751
2023-03-10 21:48:51:395,0,-1.76847,-9.4796,87.8582
2023-03-10 21:48:51:405,0,-1.76309,-9.49207,87.8467
2023-03-10 21:48:51:415,0,-1.75481,-9.50315,87.8381
2023-03-10 21:48:51:426,0,-1.74684,-9.51207,87.8356
2023-03-10 21:48:51:435,0,-1.7439,-9.52396,87.8373
2023-03-10 21:48:51:445,0,-1.73869,-9.52922,87.8456
2023-03-10 21:48:51:455,0,-1.73281,-9.53676,87.8569
2023-03-10 21:48:51:466,0,-1.7269,-9.54409,87.872
2023-03-10 21:48:51:475,0,-1.72385,-9.55219,87.8962
2023-03-10 21:48:51:486,0,-1.7241,-9.55899,87.9219
2023-03-10 21:48:51:495,0,-1.72366,-9.5631,87.951
2023-03-10 21:48:51:506,0,-1.72116,-9.56751,87.9859
2023-03-10 21:48:51:515,0,-1.71416,-9.57434,88.0223
2023-03-10 21:48:51:525,0,-1.70644,-9.5782,88.0655
2023-03-10 21:48:51:535,0,-1.69958,-9.58059,88.1109
2023-03-10 21:48:51:546,0,-1.69181,-9.58235,88.1563
2023-03-10 21:48:51:555,0,-1.67719,-9.57744,88.1989
2023-03-10 21:48:51:565,0,-1.65763,-9.57478,88.2421
2023-03-10 21:48:51:575,0,-1.64013,-9.57777,88.2823
2023-03-10 21:48:51:585,0,-1.64171,-9.5851,88.3185
2023-03-10 21:48:51:595,0,-1.6506,-9.58789,88.343
2023-03-10 21:48:51:606,0,-1.6667,-9.59005,88.3546
2023-03-10 21:48:51:615,0,-1.67272,-9.58793,88.3509
2023-03-10 21:48:51:626,0,-1.67469,-9.58328,88.3318
2023-03-10 21:48:51:635,0,-1.67399,-9.57314,88.3033
2023-03-10 21:48:51:645,0,-1.6728,-9.56511,88.2663
2023-03-10 21:48:51:655,0,-1.66666,-9.55723,88.2263
2023-03-10 21:48:51:666,0,-1.65643,-9.55295,88.1843
2023-03-10 21:48:51:675,0,-1.63565,-9.54801,88.1409
2023-03-10 21:48:51:685,0,-1.61121,-9.54421,88.1024
2023-03-10 21:48:51:695,0,-1.58134,-9.5408,88.065
2023-03-10 21:48:51:705,0,-1.55419,-9.53774,88.0335
2023-03-10 21:48:51:715,0,-1.53692,-9.53483,88.0049
2023-03-10 21:48:51:726,0,-1.52681,-9.54123,87.9831
2023-03-10 21:48:51:735,0,-1.52212,-9.55067,87.966
2023-03-10 21:48:51:746,0,-1.52041,-9.55996,87.9626
2023-03-10 21:48:51:755,0,-1.50991,-9.568,87.9615
2023-03-10 21:48:51:765,0,-1.49715,-9.57942,87.9618
2023-03-10 21:48:51:775,0,-1.48802,-9.5846,87.9673
2023-03-10 21:48:51:786,0,-1.47733,-9.58749,87.9785
2023-03-10 21:48:51:795,0,-1.46722,-9.58802,87.9861
2023-03-10 21:48:51:806,0,-1.4578,-9.58388,87.9946
2023-03-10 21:48:51:815,0,-1.45183,-9.58102,88.0014
2023-03-10 21:48:51:825,0,-1.44782,-9.57697,88.005
2023-03-10 21:48:51:835,0,-1.44735,-9.57139,88.0085
2023-03-10 21:48:51:846,0,-1.45099,-9.55671,88.0058
2023-03-10 21:48:51:855,0,-1.45034,-9.53648,87.9988
2023-03-10 21:48:51:866,0,-1.45138,-9.512,87.9921
2023-03-10 21:48:51:875,0,-1.44483,-9.48461,87.9846
2023-03-10 21:48:51:886,0,-1.43768,-9.45924,87.9734
2023-03-10 21:48:51:895,0,-1.43169,-9.43051,87.9611
2023-03-10 21:48:51:906,0,-1.42978,-9.40572,87.9472
2023-03-10 21:48:51:915,0,-1.42996,-9.3806,87.9301
2023-03-10 21:48:51:926,0,-1.43032,-9.36353,87.9109
2023-03-10 21:48:51:935,0,-1.43266,-9.34707,87.8918
2023-03-10 21:48:51:945,0,-1.43901,-9.33618,87.8704
2023-03-10 21:48:51:955,0,-1.44706,-9.33065,87.8458
2023-03-10 21:48:51:966,0,-1.46008,-9.32667,87.819
2023-03-10 21:48:51:976,0,-1.46761,-9.32183,87.7878
2023-03-10 21:48:51:986,0,-1.47933,-9.32176,87.7557
2023-03-10 21:48:51:995,0,-1.4924,-9.32251,87.7241
2023-03-10 21:48:52:6,0,-1.50013,-9.3291,87.6977
2023-03-10 21:48:52:15,0,-1.50344,-9.33102,87.6666
2023-03-10 21:48:52:26,0,-1.49422,-9.32671,87.6314
2023-03-10 21:48:52:36,0,-1.47777,-9.3231,87.5997
2023-03-10 21:48:52:46,0,-1.45946,-9.31703,87.5712
2023-03-10 21:48:52:55,0,-1.43571,-9.30966,87.5474
2023-03-10 21:48:52:65,0,-1.40861,-9.30792,87.531
2023-03-10 21:48:52:75,0,-1.38416,-9.30734,87.5182
2023-03-10 21:48:52:85,0,-1.36269,-9.3114,87.517
2023-03-10 21:48:52:95,0,-1.3503,-9.31784,87.5227
2023-03-10 21:48:52:105,0,-1.34282,-9.33048,87.5339
2023-03-10 21:48:52:115,0,-1.3421,-9.34296,87.5466
2023-03-10 21:48:52:126,0,-1.34117,-9.35809,87.5567
2023-03-10 21:48:52:135,0,-1.34007,-9.37377,87.5684
2023-03-10 21:48:52:146,0,-1.3407,-9.38706,87.5741
2023-03-10 21:48:52:155,0,-1.34209,-9.40256,87.5736
2023-03-10 21:48:52:166,0,-1.34843,-9.41877,87.5749
2023-03-10 21:48:52:175,0,-1.35493,-9.43291,87.5773
2023-03-10 21:48:52:186,0,-1.3632,-9.44809,87.5768
2023-03-10 21:48:52:196,0,-1.37601,-9.46273,87.5794
2023-03-10 21:48:52:206,0,-1.38694,-9.47702,87.5825
2023-03-10 21:48:52:215,0,-1.40318,-9.48925,87.5875
2023-03-10 21:48:52:226,0,-1.42217,-9.49719,87.5913
2023-03-10 21:48:52:235,0,-1.44756,-9.50088,87.5934
2023-03-10 21:48:52:246,0,-1.47671,-9.50138,87.5974
2023-03-10 21:48:52:256,0,-1.50603,-9.50473,87.5971
2023-03-10 21:48:52:266,0,-1.5349,-9.50142,87.5957
2023-03-10 21:48:52:276,0,-1.55995,-9.49867,87.5925
2023-03-10 21:48:52:285,0,-1.58628,-9.49476,87.5818
2023-03-10 21:48:52:295,0,-1.61148,-9.49073,87.569
2023-03-10 21:48:52:306,0,-1.63518,-9.48633,87.5556
2023-03-10 21:48:52:315,0,-1.65244,-9.48171,87.541
2023-03-10 21:48:52:326,0,-1.66726,-9.4728,87.5283
2023-03-10 21:48:52:335,0,-1.67838,-9.46445,87.5182
2023-03-10 21:48:52:346,0,-1.6881,-9.4564,87.5083
2023-03-10 21:48:52:355,0,-1.69833,-9.44653,87.5064
2023-03-10 21:48:52:366,0,-1.69733,-9.43793,87.5054
2023-03-10 21:48:52:376,0,-1.697,-9.43164,87.5069
2023-03-10 21:48:52:386,0,-1.69768,-9.42716,87.5153
2023-03-10 21:48:52:395,0,-1.70037,-9.42535,87.5207
2023-03-10 21:48:52:405,0,-1.70548,-9.42498,87.5276
2023-03-10 21:48:52:415,0,-1.7085,-9.42508,87.534
2023-03-10 21:48:52:426,0,-1.71031,-9.42702,87.5421
2023-03-10 21:48:52:436,0,-1.71233,-9.42851,87.5445
2023-03-10 21:48:52:446,0,-1.71318,-9.42985,87.5439
2023-03-10 21:48:52:455,0,-1.70965,-9.42846,87.547
2023-03-10 21:48:52:465,0,-1.70625,-9.42684,87.548
2023-03-10 21:48:52:475,0,-1.69921,-9.42553,87.5512
2023-03-10 21:48:52:486,0,-1.69031,-9.42207,87.5549
2023-03-10 21:48:52:495,0,-1.68063,-9.41371,87.554
2023-03-10 21:48:52:506,0,-1.67211,-9.40354,87.5505
2023-03-10 21:48:52:515,0,-1.66001,-9.39738,87.5444
2023-03-10 21:48:52:526,0,-1.65156,-9.38946,87.5398
2023-03-10 21:48:52:535,0,-1.63987,-9.38043,87.5318
2023-03-10 21:48:52:545,0,-1.62779,-9.37152,87.525
2023-03-10 21:48:52:555,0,-1.61061,-9.36659,87.5194
2023-03-10 21:48:52:566,0,-1.59031,-9.35987,87.516
2023-03-10 21:48:52:575,0,-1.56926,-9.3514,87.5105
2023-03-10 21:48:52:586,0,-1.55203,-9.34207,87.5073
2023-03-10 21:48:52:595,0,-1.5443,-9.33276,87.4993
2023-03-10 21:48:52:605,0,-1.5346,-9.32076,87.4926
2023-03-10 21:48:52:615,0,-1.52685,-9.30833,87.4844
2023-03-10 21:48:52:626,0,-1.51728,-9.29495,87.4755
2023-03-10 21:48:52:635,0,-1.50688,-9.28166,87.469
2023-03-10 21:48:52:645,0,-1.49276,-9.2671,87.4581
2023-03-10 21:48:52:655,0,-1.47655,-9.25222,87.4496
2023-03-10 21:48:52:666,0,-1.46233,-9.23997,87.4417
2023-03-10 21:48:52:676,0,-1.44381,-9.22519,87.4298
2023-03-10 21:48:52:686,0,-1.4315,-9.21379,87.4207
2023-03-10 21:48:52:695,0,-1.42532,-9.20496,87.4138
2023-03-10 21:48:52:705,0,-1.42157,-9.19357,87.4102
2023-03-10 21:48:52:715,0,-1.42266,-9.18573,87.4108
2023-03-10 21:48:52:726,0,-1.42661,-9.18297,87.4122
2023-03-10 21:48:52:735,0,-1.4368,-9.18081,87.4162
2023-03-10 21:48:52:746,0,-1.44614,-9.17356,87.4197
2023-03-10 21:48:52:756,0,-1.45125,-9.17282,87.4235
2023-03-10 21:48:52:766,0,-1.45486,-9.17402,87.4284
2023-03-10 21:48:52:775,0,-1.46018,-9.17135,87.432
2023-03-10 21:48:52:786,0,-1.46548,-9.16334,87.4348
2023-03-10 21:48:52:796,0,-1.46608,-9.15195,87.43
2023-03-10 21:48:52:806,0,-1.4624,-9.13984,87.423
2023-03-10 21:48:52:815,0,-1.46021,-9.13534,87.4195
2023-03-10 21:48:52:826,0,-1.45924,-9.13415,87.4208
2023-03-10 21:48:52:835,0,-1.4545,-9.1383,87.4246
2023-03-10 21:48:52:845,0,-1.45098,-9.13942,87.4288
2023-03-10 21:48:52:856,0,-1.44965,-9.13479,87.4314
2023-03-10 21:48:52:866,0,-1.44578,-9.12978,87.4364
2023-03-10 21:48:52:875,0,-1.43987,-9.12451,87.441
2023-03-10 21:48:52:886,0,-1.43271,-9.11956,87.4478
2023-03-10 21:48:52:895,0,-1.42377,-9.1124,87.4535
2023-03-10 21:48:52:906,0,-1.41492,-9.10639,87.4586
2023-03-10 21:48:52:916,0,-1.40712,-9.10345,87.462
2023-03-10 21:48:52:925,0,-1.40097,-9.10112,87.4665
2023-03-10 21:48:52:935,0,-1.3948,-9.10164,87.4726
2023-03-10 21:48:52:945,0,-1.39473,-9.10289,87.4794
2023-03-10 21:48:52:955,0,-1.39231,-9.10838,87.4864
2023-03-10 21:48:52:965,0,-1.3886,-9.11213,87.4935
2023-03-10 21:48:52:975,0,-1.38526,-9.11448,87.5009
2023-03-10 21:48:52:986,0,-1.38183,-9.1135,87.5077
2023-03-10 21:48:52:995,0,-1.38163,-9.11565,87.5163
2023-03-10 21:48:53:6,0,-1.37971,-9.12025,87.5217
2023-03-10 21:48:53:15,0,-1.37689,-9.12268,87.5281
2023-03-10 21:48:53:26,0,-1.3749,-9.12187,87.5338
2023-03-10 21:48:53:35,0,-1.37611,-9.11957,87.5392
2023-03-10 21:48:53:46,0,-1.37516,-9.11847,87.5434
2023-03-10 21:48:53:56,0,-1.37105,-9.11219,87.5485
2023-03-10 21:48:53:66,0,-1.37062,-9.10506,87.5506
2023-03-10 21:48:53:76,0,-1.36704,-9.09652,87.5513
2023-03-10 21:48:53:85,0,-1.36342,-9.08524,87.5525
2023-03-10 21:48:53:95,0,-1.36157,-9.07518,87.5502
2023-03-10 21:48:53:105,0,-1.35576,-9.06909,87.5528
2023-03-10 21:48:53:115,0,-1.35844,-9.06366,87.5573
2023-03-10 21:48:53:126,0,-1.35852,-9.05767,87.5648
2023-03-10 21:48:53:135,0,-1.35827,-9.05238,87.574
2023-03-10 21:48:53:146,0,-1.35869,-9.04445,87.5861
2023-03-10 21:48:53:156,0,-1.36117,-9.03813,87.5998
2023-03-10 21:48:53:166,0,-1.36376,-9.0352,87.6153
2023-03-10 21:48:53:175,0,-1.36634,-9.03304,87.6304
2023-03-10 21:48:53:186,0,-1.36582,-9.03252,87.6467
2023-03-10 21:48:53:196,0,-1.36427,-9.03394,87.661
2023-03-10 21:48:53:206,0,-1.36148,-9.03589,87.6736
2023-03-10 21:48:53:216,0,-1.36256,-9.03734,87.6869
2023-03-10 21:48:53:226,0,-1.36351,-9.03571,87.6992
2023-03-10 21:48:53:236,0,-1.3661,-9.03405,87.7133
2023-03-10 21:48:53:246,0,-1.37043,-9.02894,87.7231
2023-03-10 21:48:53:256,0,-1.37683,-9.02288,87.7292
2023-03-10 21:48:53:266,0,-1.38887,-9.01728,87.7334
2023-03-10 21:48:53:275,0,-1.41488,-9.00174,87.7317
2023-03-10 21:48:53:286,0,-1.44448,-8.98428,87.7291
2023-03-10 21:48:53:296,0,-1.47661,-8.96127,87.7266
2023-03-10 21:48:53:306,0,-1.50751,-8.93889,87.7218
2023-03-10 21:48:53:316,0,-1.5332,-8.91559,87.7237
2023-03-10 21:48:53:326,0,-1.54872,-8.88918,87.7284
2023-03-10 21:48:53:336,0,-1.54823,-8.86517,87.7349
2023-03-10 21:48:53:346,0,-1.53526,-8.83903,87.7408
2023-03-10 21:48:53:356,0,-1.5136,-8.8142,87.7438
2023-03-10 21:48:53:366,0,-1.49244,-8.79068,87.7477
2023-03-10 21:48:53:376,0,-1.47193,-8.77306,87.7558
2023-03-10 21:48:53:386,0,-1.44386,-8.76122,87.7612
2023-03-10 21:48:53:396,0,-1.41206,-8.75082,87.768
2023-03-10 21:48:53:406,0,-1.37329,-8.74118,87.7716
2023-03-10 21:48:53:416,0,-1.33403,-8.73969,87.7758
2023-03-10 21:48:53:426,0,-1.29938,-8.74416,87.7795
2023-03-10 21:48:53:436,0,-1.26201,-8.75023,87.7805
2023-03-10 21:48:53:446,0,-1.22117,-8.75854,87.7821
2023-03-10 21:48:53:456,0,-1.17756,-8.76722,87.7833
2023-03-10 21:48:53:466,0,-1.12611,-8.78278,87.7852
2023-03-10 21:48:53:476,0,-1.07184,-8.79701,87.7857
2023-03-10 21:48:53:486,0,-1.01347,-8.81566,87.784
2023-03-10 21:48:53:496,0,-0.950807,-8.83418,87.7831
2023-03-10 21:48:53:506,0,-0.888467,-8.85217,87.7843
2023-03-10 21:48:53:516,0,-0.823136,-8.87088,87.7891
2023-03-10 21:48:53:526,0,-0.752815,-8.88886,87.7922
2023-03-10 21:48:53:536,0,-0.678954,-8.90155,87.8055
2023-03-10 21:48:53:546,0,-0.606752,-8.91906,87.8148
2023-03-10 21:48:53:556,0,-0.544621,-8.94362,87.8244
2023-03-10 21:48:53:566,0,-0.50074,-8.96819,87.8348
2023-03-10 21:48:53:576,0,-0.461254,-8.9885,87.8382
2023-03-10 21:48:53:586,0,-0.413861,-9.01348,87.8339
2023-03-10 21:48:53:596,0,-0.355572,-9.03875,87.8237
2023-03-10 21:48:53:606,0,-0.296577,-9.06886,87.8087
2023-03-10 21:48:53:615,0,-0.245905,-9.10253,87.7953
2023-03-10 21:48:53:625,0,-0.201668,-9.1352,87.7785
2023-03-10 21:48:53:635,0,-0.170997,-9.16452,87.7717
2023-03-10 21:48:53:645,0,-0.140541,-9.18466,87.7682
2023-03-10 21:48:53:655,0,-0.117705,-9.19879,87.7758
2023-03-10 21:48:53:665,0,-0.100396,-9.20952,87.7984
2023-03-10 21:48:53:675,0,-0.0820148,-9.21781,87.8336
2023-03-10 21:48:53:685,0,-0.0605726,-9.22784,87.8762
2023-03-10 21:48:53:695,0,-0.0350302,-9.2306,87.9216
2023-03-10 21:48:53:705,0,0.00519573,-9.22809,87.9637
2023-03-10 21:48:53:716,0,0.0511997,-9.21711,88.0009
2023-03-10 21:48:53:726,0,0.0973821,-9.19736,88.0325
2023-03-10 21:48:53:736,0,0.137604,-9.17886,88.0571
2023-03-10 21:48:53:746,0,0.161407,-9.15987,88.0757
2023-03-10 21:48:53:755,0,0.172624,-9.13445,88.0963
2023-03-10 21:48:53:765,0,0.176811,-9.10496,88.1134
2023-03-10 21:48:53:775,0,0.180279,-9.07409,88.1372
2023-03-10 21:48:53:786,0,0.187943,-9.03902,88.1602
2023-03-10 21:48:53:795,0,0.198648,-9.00399,88.1808
2023-03-10 21:48:53:806,0,0.215578,-8.96897,88.1998
2023-03-10 21:48:53:815,0,0.236226,-8.93378,88.2197
2023-03-10 21:48:53:826,0,0.256533,-8.90297,88.2371
2023-03-10 21:48:53:836,0,0.273031,-8.8753,88.2498
2023-03-10 21:48:53:846,0,0.289563,-8.853,88.2549
2023-03-10 21:48:53:856,0,0.297843,-8.83608,88.2487
2023-03-10 21:48:53:865,0,0.301607,-8.82282,88.2365
2023-03-10 21:48:53:875,0,0.300704,-8.8161,88.2153
2023-03-10 21:48:53:885,0,0.293297,-8.81614,88.1909
2023-03-10 21:48:53:895,0,0.278758,-8.81615,88.1633
2023-03-10 21:48:53:905,0,0.259724,-8.82086,88.1368
2023-03-10 21:48:53:915,0,0.242847,-8.82576,88.1129
2023-03-10 21:48:53:926,0,0.231048,-8.82615,88.0903
2023-03-10 21:48:53:935,0,0.226332,-8.82669,88.0647
2023-03-10 21:48:53:946,0,0.223797,-8.82827,88.0444
2023-03-10 21:48:53:955,0,0.223586,-8.82488,88.0252
2023-03-10 21:48:53:966,0,0.213065,-8.82718,88.0099
2023-03-10 21:48:53:975,0,0.197647,-8.83201,87.9958
2023-03-10 21:48:53:985,0,0.174162,-8.83646,87.9826
2023-03-10 21:48:53:995,0,0.136111,-8.84111,87.9694
2023-03-10 21:48:54:5,0,0.0934083,-8.84835,87.9543
2023-03-10 21:48:54:15,0,0.0549885,-8.85612,87.9323
2023-03-10 21:48:54:25,0,0.016725,-8.85944,87.9057
2023-03-10 21:48:54:36,0,-0.0126313,-8.85916,87.8747
2023-03-10 21:48:54:46,0,-0.0352584,-8.85888,87.8398
2023-03-10 21:48:54:55,0,-0.0522202,-8.85692,87.8016
2023-03-10 21:48:54:65,0,-0.070209,-8.8539,87.7634
2023-03-10 21:48:54:75,0,-0.0916849,-8.84976,87.7299
2023-03-10 21:48:54:86,0,-0.118764,-8.84796,87.6995
2023-03-10 21:48:54:95,0,-0.148702,-8.85002,87.6726
2023-03-10 21:48:54:105,0,-0.182128,-8.84829,87.6491
2023-03-10 21:48:54:116,0,-0.207308,-8.8502,87.625
2023-03-10 21:48:54:125,0,-0.226759,-8.85138,87.6046
2023-03-10 21:48:54:135,0,-0.242325,-8.85973,87.5921
2023-03-10 21:48:54:145,0,-0.257864,-8.87323,87.5834
2023-03-10 21:48:54:155,0,-0.280489,-8.8866,87.5777
2023-03-10 21:48:54:165,0,-0.303523,-8.90057,87.5744
2023-03-10 21:48:54:176,0,-0.331877,-8.91571,87.5709
2023-03-10 21:48:54:185,0,-0.358238,-8.93169,87.5676
2023-03-10 21:48:54:196,0,-0.38243,-8.94852,87.5686
2023-03-10 21:48:54:206,0,-0.402532,-8.96254,87.5743
2023-03-10 21:48:54:216,0,-0.418809,-8.97641,87.582
2023-03-10 21:48:54:225,0,-0.431761,-8.98748,87.5894
2023-03-10 21:48:54:235,0,-0.443526,-8.99435,87.5984
2023-03-10 21:48:54:246,0,-0.457688,-8.9985,87.6022
2023-03-10 21:48:54:255,0,-0.473291,-9.00183,87.6053
2023-03-10 21:48:54:266,0,-0.494132,-9.00513,87.6043
2023-03-10 21:48:54:275,0,-0.505978,-9.0087,87.5987
2023-03-10 21:48:54:286,0,-0.51435,-9.01668,87.5919
2023-03-10 21:48:54:295,0,-0.520393,-9.0224,87.5865
2023-03-10 21:48:54:306,0,-0.525539,-9.02872,87.576
2023-03-10 21:48:54:316,0,-0.52358,-9.03137,87.5605
2023-03-10 21:48:54:326,0,-0.522184,-9.03854,87.5446
2023-03-10 21:48:54:335,0,-0.523404,-9.04667,87.5294
2023-03-10 21:48:54:345,0,-0.523714,-9.05375,87.5179
2023-03-10 21:48:54:355,0,-0.521718,-9.05372,87.5005
2023-03-10 21:48:54:366,0,-0.514738,-9.04927,87.4774
2023-03-10 21:48:54:375,0,-0.507991,-9.0488,87.4608
2023-03-10 21:48:54:386,0,-0.494883,-9.0515,87.445
2023-03-10 21:48:54:396,0,-0.482704,-9.05729,87.4287
2023-03-10 21:48:54:406,0,-0.470754,-9.05705,87.417
2023-03-10 21:48:54:416,0,-0.468194,-9.05619,87.4061
2023-03-10 21:48:54:426,0,-0.472593,-9.05562,87.3988
2023-03-10 21:48:54:436,0,-0.479319,-9.05589,87.3954
2023-03-10 21:48:54:446,0,-0.48411,-9.05209,87.3903
2023-03-10 21:48:54:455,0,-0.48771,-9.04751,87.3885
2023-03-10 21:48:54:465,0,-0.488405,-9.04844,87.3855
2023-03-10 21:48:54:475,0,-0.486516,-9.04986,87.3822
2023-03-10 21:48:54:485,0,-0.482382,-9.04761,87.3793
2023-03-10 21:48:54:496,0,-0.472969,-9.04591,87.3702
2023-03-10 21:48:54:506,0,-0.460379,-9.03984,87.3631
2023-03-10 21:48:54:516,0,-0.449854,-9.03077,87.3535
2023-03-10 21:48:54:526,0,-0.438026,-9.02421,87.3447
2023-03-10 21:48:54:536,0,-0.432777,-9.01513,87.3376
2023-03-10 21:48:54:546,0,-0.431725,-9.00851,87.3302
2023-03-10 21:48:54:556,0,-0.43399,-8.99975,87.3257
2023-03-10 21:48:54:565,0,-0.437032,-8.99354,87.3222
2023-03-10 21:48:54:575,0,-0.438142,-8.98102,87.3143
2023-03-10 21:48:54:585,0,-0.435519,-8.96833,87.3089
2023-03-10 21:48:54:595,0,-0.432154,-8.95928,87.3048
2023-03-10 21:48:54:605,0,-0.424256,-8.94668,87.2965
2023-03-10 21:48:54:615,0,-0.414538,-8.93346,87.2829
2023-03-10 21:48:54:626,0,-0.409401,-8.92228,87.2723
2023-03-10 21:48:54:636,0,-0.405855,-8.91201,87.2578
2023-03-10 21:48:54:645,0,-0.40833,-8.89962,87.2439
2023-03-10 21:48:54:656,0,-0.412241,-8.88791,87.2313
2023-03-10 21:48:54:666,0,-0.41737,-8.87828,87.2169
2023-03-10 21:48:54:676,0,-0.41961,-8.8677,87.2079
2023-03-10 21:48:54:685,0,-0.426382,-8.86095,87.1956
2023-03-10 21:48:54:695,0,-0.426105,-8.8578,87.1853
2023-03-10 21:48:54:705,0,-0.427084,-8.85382,87.178
2023-03-10 21:48:54:716,0,-0.427891,-8.85154,87.1699
2023-03-10 21:48:54:726,0,-0.42939,-8.85049,87.1639
2023-03-10 21:48:54:735,0,-0.435279,-8.85368,87.16
2023-03-10 21:48:54:746,0,-0.446325,-8.85493,87.1541
2023-03-10 21:48:54:756,0,-0.45324,-8.85688,87.146
2023-03-10 21:48:54:766,0,-0.458441,-8.86148,87.141
2023-03-10 21:48:54:776,0,-0.46156,-8.86179,87.1321
2023-03-10 21:48:54:786,0,-0.470098,-8.86797,87.1212
2023-03-10 21:48:54:796,0,-0.473279,-8.8715,87.1101
2023-03-10 21:48:54:805,0,-0.473958,-8.8746,87.1008
2023-03-10 21:48:54:815,0,-0.476776,-8.87663,87.0927
2023-03-10 21:48:54:826,0,-0.476947,-8.87777,87.0814
2023-03-10 21:48:54:835,0,-0.468955,-8.87597,87.0668
2023-03-10 21:48:54:846,0,-0.459255,-8.87263,87.048
2023-03-10 21:48:54:856,0,-0.448036,-8.86339,87.0255
2023-03-10 21:48:54:866,0,-0.435469,-8.85972,87.0028
2023-03-10 21:48:54:876,0,-0.422423,-8.85216,86.9782
2023-03-10 21:48:54:886,0,-0.413614,-8.84678,86.956
2023-03-10 21:48:54:896,0,-0.410324,-8.83708,86.9297
2023-03-10 21:48:54:906,0,-0.407678,-8.82509,86.8998
2023-03-10 21:48:54:916,0,-0.40434,-8.81517,86.8707
2023-03-10 21:48:54:925,0,-0.399515,-8.80705,86.84
2023-03-10 21:48:54:935,0,-0.393222,-8.80277,86.8083
2023-03-10 21:48:54:946,0,-0.387567,-8.80272,86.7795
2023-03-10 21:48:54:956,0,-0.382227,-8.80256,86.7509
2023-03-10 21:48:54:966,0,-0.377121,-8.80005,86.7203
2023-03-10 21:48:54:976,0,-0.375105,-8.79924,86.695
2023-03-10 21:48:54:986,0,-0.371905,-8.79288,86.6672
2023-03-10 21:48:54:996,0,-0.373346,-8.78448,86.6453
2023-03-10 21:48:55:6,0,-0.378662,-8.77738,86.6314
2023-03-10 21:48:55:16,0,-0.38697,-8.77448,86.6155
2023-03-10 21:48:55:26,0,-0.395995,-8.76704,86.6047
2023-03-10 21:48:55:36,0,-0.405,-8.76111,86.5974
2023-03-10 21:48:55:45,0,-0.415573,-8.75134,86.5911
2023-03-10 21:48:55:55,0,-0.427968,-8.74624,86.5876
2023-03-10 21:48:55:66,0,-0.437814,-8.74157,86.5861
2023-03-10 21:48:55:75,0,-0.447394,-8.73929,86.5879
2023-03-10 21:48:55:86,0,-0.460516,-8.73543,86.5855
2023-03-10 21:48:55:96,0,-0.471892,-8.73306,86.5857
2023-03-10 21:48:55:106,0,-0.487471,-8.72903,86.5847
2023-03-10 21:48:55:116,0,-0.498928,-8.72666,86.5863
2023-03-10 21:48:55:126,0,-0.511473,-8.73081,86.5906
2023-03-10 21:48:55:136,0,-0.523057,-8.73513,86.5957
2023-03-10 21:48:55:146,0,-0.531946,-8.73745,86.5972
2023-03-10 21:48:55:155,0,-0.53706,-8.73463,86.596
2023-03-10 21:48:55:165,0,-0.537951,-8.73522,86.5933
2023-03-10 21:48:55:175,0,-0.533412,-8.73757,86.5928
2023-03-10 21:48:55:185,0,-0.527306,-8.73911,86.5945
2023-03-10 21:48:55:196,0,-0.523269,-8.74431,86.6009
2023-03-10 21:48:55:206,0,-0.521447,-8.74748,86.6095
2023-03-10 21:48:55:216,0,-0.519364,-8.74676,86.6152
2023-03-10 21:48:55:226,0,-0.520062,-8.74969,86.6188
2023-03-10 21:48:55:236,0,-0.518146,-8.75467,86.6291
2023-03-10 21:48:55:246,0,-0.51558,-8.76147,86.6386
2023-03-10 21:48:55:256,0,-0.513277,-8.7671,86.651
2023-03-10 21:48:55:266,0,-0.510667,-8.77626,86.6625
2023-03-10 21:48:55:275,0,-0.505504,-8.78803,86.6747
2023-03-10 21:48:55:286,0,-0.496111,-8.79806,86.6862
2023-03-10 21:48:55:295,0,-0.487233,-8.80977,86.6993
2023-03-10 21:48:55:306,0,-0.477686,-8.82464,86.7146
2023-03-10 21:48:55:316,0,-0.473877,-8.83798,86.728
2023-03-10 21:48:55:326,0,-0.464823,-8.85281,86.738
2023-03-10 21:48:55:336,0,-0.456711,-8.87017,86.748
2023-03-10 21:48:55:346,0,-0.452267,-8.88577,86.7581
2023-03-10 21:48:55:356,0,-0.449451,-8.89971,86.7719
2023-03-10 21:48:55:366,0,-0.444638,-8.9155,86.7835
2023-03-10 21:48:55:376,0,-0.443588,-8.9284,86.7939
2023-03-10 21:48:55:386,0,-0.44241,-8.9398,86.8063
2023-03-10 21:48:55:395,0,-0.446448,-8.95218,86.8146
2023-03-10 21:48:55:405,0,-0.451677,-8.9628,86.8234
2023-03-10 21:48:55:416,0,-0.455442,-8.97492,86.8287
2023-03-10 21:48:55:426,0,-0.453641,-8.98401,86.831
2023-03-10 21:48:55:436,0,-0.454779,-8.99285,86.8297
2023-03-10 21:48:55:446,0,-0.451268,-9.00198,86.829
2023-03-10 21:48:55:456,0,-0.447246,-9.00651,86.8214
2023-03-10 21:48:55:466,0,-0.444,-9.01101,86.8191
2023-03-10 21:48:55:476,0,-0.439744,-9.0161,86.8119
2023-03-10 21:48:55:486,0,-0.434244,-9.02115,86.8061
2023-03-10 21:48:55:496,0,-0.432067,-9.02592,86.8018
2023-03-10 21:48:55:505,0,-0.429721,-9.02797,86.7954
2023-03-10 21:48:55:516,0,-0.432702,-9.02813,86.7904
2023-03-10 21:48:55:526,0,-0.435242,-9.03347,86.7824
2023-03-10 21:48:55:536,0,-0.431336,-9.03295,86.7702
2023-03-10 21:48:55:546,0,-0.419759,-9.03192,86.7471
2023-03-10 21:48:55:556,0,-0.403866,-9.03484,86.7211
2023-03-10 21:48:55:566,0,-0.382901,-9.03444,86.6935
2023-03-10 21:48:55:576,0,-0.358862,-9.03947,86.6643
2023-03-10 21:48:55:586,0,-0.336311,-9.04596,86.6298
2023-03-10 21:48:55:596,0,-0.317857,-9.05595,86.598
2023-03-10 21:48:55:606,0,-0.295427,-9.06753,86.5603
2023-03-10 21:48:55:616,0,-0.267526,-9.08481,86.5207
2023-03-10 21:48:55:625,0,-0.242087,-9.10721,86.4878
2023-03-10 21:48:55:636,0,-0.220882,-9.14049,86.448
2023-03-10 21:48:55:646,0,-0.200466,-9.17525,86.404
2023-03-10 21:48:55:656,0,-0.176865,-9.21387,86.3598
2023-03-10 21:48:55:666,0,-0.151457,-9.2584,86.3128
2023-03-10 21:48:55:676,0,-0.126016,-9.30754,86.2665
2023-03-10 21:48:55:686,0,-0.0998951,-9.35808,86.2253
2023-03-10 21:48:55:696,0,-0.0822697,-9.41301,86.1921
2023-03-10 21:48:55:706,0,-0.0667676,-9.47051,86.1659
2023-03-10 21:48:55:716,0,-0.0520384,-9.5291,86.1418
2023-03-10 21:48:55:726,0,-0.0334799,-9.58966,86.1235
2023-03-10 21:48:55:736,0,-0.00828612,-9.65272,86.1082
2023-03-10 21:48:55:745,0,0.0200536,-9.72356,86.0994
2023-03-10 21:48:55:756,0,0.0452477,-9.80046,86.097
2023-03-10 21:48:55:766,0,0.069541,-9.87899,86.1045
2023-03-10 21:48:55:776,0,0.0917868,-9.96458,86.1121
2023-03-10 21:48:55:786,0,0.111949,-10.0612,86.1277
2023-03-10 21:48:55:796,0,0.131505,-10.1631,86.1516
2023-03-10 21:48:55:806,0,0.154295,-10.2727,86.1803
2023-03-10 21:48:55:816,0,0.173308,-10.3902,86.2094
2023-03-10 21:48:55:826,0,0.190818,-10.5082,86.2362
2023-03-10 21:48:55:836,0,0.211471,-10.6332,86.2652
2023-03-10 21:48:55:845,0,0.233737,-10.7621,86.2881
2023-03-10 21:48:55:855,0,0.259321,-10.8965,86.2997
2023-03-10 21:48:55:866,0,0.283638,-11.0378,86.3132
2023-03-10 21:48:55:875,0,0.307818,-11.1877,86.3278
2023-03-10 21:48:55:885,0,0.324839,-11.3441,86.3419
2023-03-10 21:48:55:895,0,0.335619,-11.5063,86.3566
2023-03-10 21:48:55:906,0,0.345036,-11.6693,86.37
2023-03-10 21:48:55:916,0,0.349158,-11.8322,86.3835
2023-03-10 21:48:55:926,0,0.357844,-11.9942,86.3918
2023-03-10 21:48:55:936,0,0.367293,-12.1531,86.4003
2023-03-10 21:48:55:946,0,0.376451,-12.3101,86.4116
2023-03-10 21:48:55:956,0,0.389169,-12.4604,86.4171
2023-03-10 21:48:55:966,0,0.400205,-12.6005,86.4253
2023-03-10 21:48:55:975,0,0.414962,-12.7324,86.4306
2023-03-10 21:48:55:986,0,0.427831,-12.8663,86.4328
2023-03-10 21:48:55:996,0,0.44142,-12.998,86.4395
2023-03-10 21:48:56:6,0,0.45193,-13.1295,86.4546
2023-03-10 21:48:56:16,0,0.463439,-13.251,86.4709
2023-03-10 21:48:56:26,0,0.478743,-13.3683,86.4887
2023-03-10 21:48:56:36,0,0.490337,-13.4749,86.5059
2023-03-10 21:48:56:46,0,0.50462,-13.5778,86.5305
2023-03-10 21:48:56:56,0,0.515579,-13.6743,86.558
2023-03-10 21:48:56:66,0,0.524763,-13.7636,86.5879
2023-03-10 21:48:56:76,0,0.534026,-13.8403,86.6202
2023-03-10 21:48:56:86,0,0.545351,-13.912,86.656
2023-03-10 21:48:56:95,0,0.558746,-13.9718,86.6846
2023-03-10 21:48:56:106,0,0.569277,-14.0295,86.7184
2023-03-10 21:48:56:116,0,0.5785,-14.0749,86.7514
2023-03-10 21:48:56:126,0,0.584159,-14.1162,86.7802
2023-03-10 21:48:56:136,0,0.590287,-14.1499,86.8087
2023-03-10 21:48:56:146,0,0.594931,-14.182,86.8341
2023-03-10 21:48:56:156,0,0.596898,-14.2101,86.8568
2023-03-10 21:48:56:166,0,0.597333,-14.2351,86.8807
2023-03-10 21:48:56:176,0,0.595617,-14.253,86.9007
2023-03-10 21:48:56:186,0,0.594102,-14.2686,86.9167
2023-03-10 21:48:56:195,0,0.592753,-14.2826,86.9249
2023-03-10 21:48:56:206,0,0.592237,-14.2909,86.934
2023-03-10 21:48:56:216,0,0.590462,-14.2997,86.9397
2023-03-10 21:48:56:226,0,0.587971,-14.3029,86.9456
2023-03-10 21:48:56:236,0,0.584017,-14.3018,86.946
2023-03-10 21:48:56:246,0,0.581158,-14.2955,86.9426
2023-03-10 21:48:56:256,0,0.578286,-14.2896,86.9358
2023-03-10 21:48:56:266,0,0.572505,-14.2818,86.9263
2023-03-10 21:48:56:276,0,0.565992,-14.2686,86.9158
2023-03-10 21:48:56:286,0,0.561549,-14.2584,86.9054
2023-03-10 21:48:56:296,0,0.552906,-14.2438,86.8938
2023-03-10 21:48:56:306,0,0.539816,-14.233,86.8839
2023-03-10 21:48:56:316,0,0.524175,-14.2245,86.8798
2023-03-10 21:48:56:325,0,0.507143,-14.2163,86.871
2023-03-10 21:48:56:336,0,0.495149,-14.2012,86.8639
2023-03-10 21:48:56:346,0,0.481614,-14.1889,86.8611
2023-03-10 21:48:56:356,0,0.467105,-14.1781,86.8588
2023-03-10 21:48:56:366,0,0.449747,-14.1691,86.8575
2023-03-10 21:48:56:376,0,0.433402,-14.1628,86.8571
2023-03-10 21:48:56:386,0,0.417069,-14.153,86.8579
2023-03-10 21:48:56:396,0,0.39957,-14.1436,86.8557
2023-03-10 21:48:56:406,0,0.384039,-14.134,86.8522
2023-03-10 21:48:56:416,0,0.374633,-14.1209,86.8427
2023-03-10 21:48:56:426,0,0.370586,-14.1069,86.8288
2023-03-10 21:48:56:436,0,0.367489,-14.0897,86.8165
2023-03-10 21:48:56:446,0,0.362585,-14.0709,86.8023
2023-03-10 21:48:56:456,0,0.355759,-14.0547,86.788
2023-03-10 21:48:56:466,0,0.346667,-14.0402,86.7742
2023-03-10 21:48:56:476,0,0.335832,-14.0231,86.7578
2023-03-10 21:48:56:486,0,0.320198,-14.0083,86.7441
2023-03-10 21:48:56:496,0,0.306064,-13.9896,86.7323
2023-03-10 21:48:56:506,0,0.299833,-13.97,86.7187
2023-03-10 21:48:56:516,0,0.290609,-13.9456,86.7054
2023-03-10 21:48:56:526,0,0.279028,-13.9191,86.6963
2023-03-10 21:48:56:536,0,0.268746,-13.8961,86.6831
2023-03-10 21:48:56:546,0,0.25576,-13.8727,86.6743
2023-03-10 21:48:56:556,0,0.239184,-13.8511,86.6706
2023-03-10 21:48:56:565,0,0.22203,-13.8348,86.6693
2023-03-10 21:48:56:576,0,0.204226,-13.8159,86.6673
2023-03-10 21:48:56:586,0,0.185315,-13.7947,86.6667
2023-03-10 21:48:56:596,0,0.16639,-13.7738,86.6648
2023-03-10 21:48:56:606,0,0.145014,-13.7474,86.6604
2023-03-10 21:48:56:616,0,0.128728,-13.725,86.6557
2023-03-10 21:48:56:626,0,0.114486,-13.7006,86.6512
2023-03-10 21:48:56:636,0,0.101009,-13.6714,86.6483
2023-03-10 21:48:56:646,0,0.0840494,-13.6386,86.6391
2023-03-10 21:48:56:656,0,0.0661282,-13.6065,86.6289
2023-03-10 21:48:56:666,0,0.0480529,-13.5733,86.6157
2023-03-10 21:48:56:676,0,0.0347711,-13.541,86.6036
2023-03-10 21:48:56:685,0,0.0211536,-13.5089,86.5891
2023-03-10 21:48:56:696,0,0.0114161,-13.4776,86.569
2023-03-10 21:48:56:706,0,0.00324491,-13.4459,86.5509
2023-03-10 21:48:56:716,0,-0.00660649,-13.4163,86.5301
2023-03-10 21:48:56:726,0,-0.0158344,-13.3874,86.5093
2023-03-10 21:48:56:736,0,-0.0163632,-13.3554,86.48
2023-03-10 21:48:56:746,0,-0.0144982,-13.3289,86.458
2023-03-10 21:48:56:756,0,-0.00688685,-13.2998,86.4343
2023-03-10 21:48:56:766,0,0.00320671,-13.2633,86.4095
2023-03-10 21:48:56:776,0,0.0125434,-13.2225,86.3823
2023-03-10 21:48:56:786,0,0.031608,-13.1803,86.356
2023-03-10 21:48:56:796,0,0.0599279,-13.1383,86.3292
2023-03-10 21:48:56:806,0,0.0972553,-13.1016,86.3031
2023-03-10 21:48:56:816,0,0.139784,-13.0618,86.2791
2023-03-10 21:48:56:826,0,0.181463,-13.0252,86.2558
2023-03-10 21:48:56:836,0,0.223462,-12.9885,86.2337
2023-03-10 21:48:56:846,0,0.27152,-12.9497,86.2073
2023-03-10 21:48:56:856,0,0.328886,-12.9057,86.1753
2023-03-10 21:48:56:866,0,0.398142,-12.8604,86.1404
2023-03-10 21:48:56:876,0,0.485607,-12.813,86.093
2023-03-10 21:48:56:886,0,0.590354,-12.7623,86.041
2023-03-10 21:48:56:896,0,0.707371,-12.71,85.9871
2023-03-10 21:48:56:906,0,0.832692,-12.6548,85.9309
2023-03-10 21:48:56:916,0,0.960551,-12.6029,85.8768
2023-03-10 21:48:56:926,0,1.09856,-12.5506,85.8209
2023-03-10 21:48:56:936,0,1.24938,-12.4998,85.7588
2023-03-10 21:48:56:946,0,1.41995,-12.4421,85.6926
2023-03-10 21:48:56:956,0,1.60538,-12.3746,85.6274
2023-03-10 21:48:56:966,0,1.80138,-12.3059,85.5546
2023-03-10 21:48:56:976,0,2.01607,-12.2293,85.4822
2023-03-10 21:48:56:986,0,2.25389,-12.1581,85.4033
2023-03-10 21:48:56:996,0,2.5076,-12.0822,85.3136
