Timestamp_cmd,imu_cmd,roll_delta,pitch_delta,yaw_delta,voice_type,voice_length
2023-03-15 13:47:12:753,0,-1.74489,-5.32279,57.5263,Q,Q
2023-03-15 13:47:12:761,0,-1.78325,-5.33913,57.6281,Q,Q
2023-03-15 13:47:12:771,0,-1.82569,-5.35986,57.7293,Q,Q
2023-03-15 13:47:12:781,0,-1.87058,-5.38505,57.8343,Q,Q
2023-03-15 13:47:12:792,0,-1.91615,-5.41777,57.9465,Q,Q
2023-03-15 13:47:12:802,0,-1.95967,-5.4616,58.0604,Q,Q
2023-03-15 13:47:12:812,0,-1.99733,-5.50419,58.1702,Q,Q
2023-03-15 13:47:12:822,0,-2.0188,-5.55153,58.2729,Q,Q
2023-03-15 13:47:12:832,0,-2.02954,-5.60631,58.3728,Q,Q
2023-03-15 13:47:12:841,0,-2.02559,-5.67442,58.4679,Q,Q
2023-03-15 13:47:12:852,0,-2.01384,-5.74075,58.5612,Q,Q
2023-03-15 13:47:12:862,0,-1.99276,-5.8095,58.6432,Q,Q
2023-03-15 13:47:12:872,0,-1.96888,-5.87489,58.7173,Q,Q
2023-03-15 13:47:12:882,0,-1.93894,-5.92243,58.7831,Q,Q
2023-03-15 13:47:12:892,0,-1.90848,-5.9585,58.846,Q,Q
2023-03-15 13:47:12:902,0,-1.88146,-5.98587,58.908,Q,Q
2023-03-15 13:47:12:912,0,-1.86446,-6.0115,58.9775,Q,Q
2023-03-15 13:47:12:922,0,-1.8574,-6.02091,59.0446,Q,Q
2023-03-15 13:47:12:932,0,-1.86457,-6.01556,59.1092,Q,Q
2023-03-15 13:47:12:942,0,-1.88385,-5.99376,59.175,Q,Q
2023-03-15 13:47:12:952,0,-1.91437,-5.95744,59.2419,Q,Q
2023-03-15 13:47:12:962,0,-1.95912,-5.90497,59.3083,Q,Q
2023-03-15 13:47:12:972,0,-2.01957,-5.85057,59.3836,Q,Q
2023-03-15 13:47:12:982,0,-2.09776,-5.8015,59.4675,Q,Q
2023-03-15 13:47:12:992,0,-2.19461,-5.75915,59.5663,Q,Q
2023-03-15 13:47:13:2,0,-2.3007,-5.72418,59.668,Q,Q
2023-03-15 13:47:13:12,0,-2.4116,-5.69261,59.7743,Q,Q
2023-03-15 13:47:13:22,0,-2.53015,-5.6653,59.8771,Q,Q
2023-03-15 13:47:13:32,0,-2.65724,-5.64195,59.9716,Q,Q
2023-03-15 13:47:13:42,0,-2.7854,-5.62878,60.06,Q,Q
2023-03-15 13:47:13:52,0,-2.90196,-5.61656,60.1435,Q,Q
2023-03-15 13:47:13:62,0,-3.00538,-5.60784,60.2221,Q,Q
2023-03-15 13:47:13:72,0,-3.09559,-5.60647,60.2868,Q,Q
2023-03-15 13:47:13:82,0,-3.16877,-5.60142,60.342,Q,Q
2023-03-15 13:47:13:92,0,-3.2333,-5.59768,60.3734,Q,Q
2023-03-15 13:47:13:102,0,-3.28774,-5.59292,60.3881,Q,Q
2023-03-15 13:47:13:112,0,-3.3328,-5.59449,60.3917,Q,Q
2023-03-15 13:47:13:122,0,-3.36935,-5.60692,60.3914,Q,Q
2023-03-15 13:47:13:132,0,-3.39464,-5.62416,60.3816,Q,Q
2023-03-15 13:47:13:142,0,-3.40556,-5.63448,60.3608,Q,Q
2023-03-15 13:47:13:152,0,-3.40122,-5.63598,60.3232,Q,Q
2023-03-15 13:47:13:162,0,-3.37837,-5.61921,60.2679,Q,Q
2023-03-15 13:47:13:172,0,-3.33321,-5.57974,60.1945,Q,Q
2023-03-15 13:47:13:182,0,-3.27499,-5.52574,60.1111,Q,Q
2023-03-15 13:47:13:192,0,-3.20315,-5.45739,60.0204,Q,Q
2023-03-15 13:47:13:202,0,-3.12194,-5.37648,59.9189,Q,Q
2023-03-15 13:47:13:212,0,-3.03346,-5.2856,59.8116,Q,Q
2023-03-15 13:47:13:222,0,-2.94473,-5.18582,59.7049,Q,Q
2023-03-15 13:47:13:232,0,-2.85757,-5.08341,59.6,Q,Q
2023-03-15 13:47:13:242,0,-2.77591,-4.97467,59.4976,Q,Q
2023-03-15 13:47:13:252,0,-2.70139,-4.8666,59.4004,Q,Q
2023-03-15 13:47:13:262,0,-2.64525,-4.75949,59.302,Q,Q
2023-03-15 13:47:13:272,0,-2.61102,-4.65014,59.1935,Q,Q
2023-03-15 13:47:13:282,0,-2.59117,-4.53958,59.0719,Q,Q
2023-03-15 13:47:13:292,0,-2.57903,-4.43221,58.9395,Q,Q
2023-03-15 13:47:13:302,0,-2.57536,-4.33162,58.7964,Q,Q
2023-03-15 13:47:13:312,0,-2.57721,-4.23456,58.6454,Q,Q
2023-03-15 13:47:13:322,0,-2.58164,-4.14416,58.49,Q,Q
2023-03-15 13:47:13:332,0,-2.59154,-4.06597,58.3359,Q,Q
2023-03-15 13:47:13:342,0,-2.59584,-4.00414,58.1918,Q,Q
2023-03-15 13:47:13:352,0,-2.59837,-3.95627,58.0631,Q,Q
2023-03-15 13:47:13:361,0,-2.60172,-3.927,57.9559,Q,Q
2023-03-15 13:47:13:371,0,-2.60124,-3.91116,57.8713,Q,Q
2023-03-15 13:47:13:381,0,-2.60309,-3.90966,57.8153,Q,Q
2023-03-15 13:47:13:391,0,-2.60908,-3.92216,57.7812,Q,Q
2023-03-15 13:47:13:401,0,-2.61729,-3.93482,57.7601,Q,Q
2023-03-15 13:47:13:411,0,-2.62776,-3.94541,57.7501,Q,Q
2023-03-15 13:47:13:421,0,-2.63554,-3.95154,57.7448,Q,Q
2023-03-15 13:47:13:431,0,-2.64972,-3.95831,57.7459,Q,Q
2023-03-15 13:47:13:441,0,-2.66726,-3.95456,57.7545,Q,Q
2023-03-15 13:47:13:451,0,-2.68154,-3.94068,57.7645,Q,Q
2023-03-15 13:47:13:461,0,-2.68466,-3.92311,57.7804,Q,Q
2023-03-15 13:47:13:471,0,-2.68731,-3.9089,57.8023,Q,Q
2023-03-15 13:47:13:481,0,-2.68481,-3.89043,57.8288,Q,Q
2023-03-15 13:47:13:492,0,-2.6845,-3.87326,57.8622,Q,Q
2023-03-15 13:47:13:502,0,-2.69022,-3.8559,57.898,Q,Q
2023-03-15 13:47:13:512,0,-2.69819,-3.83044,57.9336,Q,Q
2023-03-15 13:47:13:522,0,-2.70761,-3.80588,57.9724,Q,Q
2023-03-15 13:47:13:532,0,-2.71871,-3.7745,58.0097,Q,Q
2023-03-15 13:47:13:542,0,-2.7349,-3.75069,58.0563,Q,Q
2023-03-15 13:47:13:552,0,-2.74875,-3.72866,58.1078,Q,Q
2023-03-15 13:47:13:562,0,-2.76026,-3.70791,58.1639,Q,Q
2023-03-15 13:47:13:572,0,-2.77071,-3.69703,58.2228,Q,Q
2023-03-15 13:47:13:582,0,-2.77589,-3.69065,58.2917,Q,Q
2023-03-15 13:47:13:592,0,-2.78576,-3.69064,58.3646,Q,Q
2023-03-15 13:47:13:602,0,-2.79716,-3.70087,58.4421,Q,Q
2023-03-15 13:47:13:612,0,-2.80717,-3.72608,58.5185,Q,Q
2023-03-15 13:47:13:622,0,-2.81419,-3.76766,58.6044,Q,Q
2023-03-15 13:47:13:632,0,-2.81758,-3.82127,58.6987,Q,Q
2023-03-15 13:47:13:642,0,-2.8209,-3.88922,58.7969,Q,Q
2023-03-15 13:47:13:652,0,-2.82472,-3.96204,58.8939,Q,Q
2023-03-15 13:47:13:662,0,-2.82952,-4.03814,58.9885,Q,Q
2023-03-15 13:47:13:672,0,-2.83089,-4.11289,59.0843,Q,Q
2023-03-15 13:47:13:682,0,-2.82846,-4.1842,59.1803,Q,Q
2023-03-15 13:47:13:692,0,-2.82394,-4.2557,59.2802,Q,Q
2023-03-15 13:47:13:702,0,-2.81942,-4.32075,59.3769,Q,Q
2023-03-15 13:47:13:712,0,-2.81833,-4.38457,59.4737,Q,Q
2023-03-15 13:47:13:722,0,-2.82075,-4.44821,59.5716,Q,Q
2023-03-15 13:47:13:732,0,-2.81914,-4.50377,59.6695,Q,Q
2023-03-15 13:47:13:742,0,-2.81431,-4.55018,59.7624,Q,Q
2023-03-15 13:47:13:752,0,-2.81224,-4.5917,59.8483,Q,Q
2023-03-15 13:47:13:762,0,-2.81274,-4.6272,59.9332,Q,Q
2023-03-15 13:47:13:771,0,-2.8148,-4.65954,60.0096,Q,Q
2023-03-15 13:47:13:781,0,-2.81424,-4.68521,60.0796,Q,Q
2023-03-15 13:47:13:791,0,-2.81277,-4.70381,60.1455,Q,Q
2023-03-15 13:47:13:801,0,-2.81639,-4.71743,60.2042,Q,Q
2023-03-15 13:47:13:812,0,-2.81748,-4.72894,60.2613,Q,Q
2023-03-15 13:47:13:822,0,-2.81754,-4.73866,60.3096,Q,Q
2023-03-15 13:47:13:832,0,-2.81759,-4.74821,60.353,Q,Q
2023-03-15 13:47:13:842,0,-2.81371,-4.75792,60.3978,Q,Q
2023-03-15 13:47:13:852,0,-2.81241,-4.76339,60.4404,Q,Q
2023-03-15 13:47:13:862,0,-2.80504,-4.77187,60.4795,Q,Q
2023-03-15 13:47:13:872,0,-2.8,-4.77552,60.5127,Q,Q
2023-03-15 13:47:13:882,0,-2.7967,-4.78076,60.5374,Q,Q
2023-03-15 13:47:13:892,0,-2.79265,-4.78981,60.5557,Q,Q
2023-03-15 13:47:13:902,0,-2.79067,-4.80132,60.5747,Q,Q
2023-03-15 13:47:13:912,0,-2.78774,-4.81328,60.5962,Q,Q
2023-03-15 13:47:13:922,0,-2.7834,-4.82856,60.6148,Q,Q
2023-03-15 13:47:13:932,0,-2.77893,-4.84578,60.6326,Q,Q
2023-03-15 13:47:13:942,0,-2.76704,-4.86441,60.6505,Q,Q
2023-03-15 13:47:13:952,0,-2.75747,-4.8847,60.6724,Q,Q
2023-03-15 13:47:13:962,0,-2.74309,-4.90716,60.6933,Q,Q
2023-03-15 13:47:13:972,0,-2.73318,-4.92647,60.7145,Q,Q
2023-03-15 13:47:13:982,0,-2.72611,-4.93938,60.7329,Q,Q
2023-03-15 13:47:13:992,0,-2.72039,-4.94849,60.7462,Q,Q
2023-03-15 13:47:14:2,0,-2.71912,-4.95684,60.7626,Q,Q
2023-03-15 13:47:14:12,0,-2.72565,-4.96051,60.7772,Q,Q
2023-03-15 13:47:14:22,0,-2.73119,-4.96653,60.7915,Q,Q
2023-03-15 13:47:14:32,0,-2.73644,-4.9708,60.8042,Q,Q
2023-03-15 13:47:14:42,0,-2.73742,-4.97449,60.8166,Q,Q
2023-03-15 13:47:14:52,0,-2.74146,-4.98141,60.8293,Q,Q
2023-03-15 13:47:14:62,0,-2.74333,-4.983,60.8444,Q,Q
2023-03-15 13:47:14:72,0,-2.74719,-4.9838,60.8522,Q,Q
2023-03-15 13:47:14:82,0,-2.75322,-4.98721,60.8595,Q,Q
2023-03-15 13:47:14:92,0,-2.75922,-4.99144,60.8661,Q,Q
2023-03-15 13:47:14:102,0,-2.77104,-4.99924,60.8731,Q,Q
2023-03-15 13:47:14:112,0,-2.78845,-5.00817,60.8811,Q,Q
2023-03-15 13:47:14:122,0,-2.81013,-5.01198,60.8911,Q,Q
2023-03-15 13:47:14:132,0,-2.82749,-5.01158,60.8982,Q,Q
2023-03-15 13:47:14:142,0,-2.8466,-5.00987,60.9063,Q,Q
2023-03-15 13:47:14:152,0,-2.861,-5.00927,60.9106,Q,Q
2023-03-15 13:47:14:162,0,-2.87621,-5.00325,60.9169,Q,Q
2023-03-15 13:47:14:172,0,-2.88481,-5.00067,60.9249,Q,Q
2023-03-15 13:47:14:182,0,-2.89533,-5.00253,60.936,Q,Q
2023-03-15 13:47:14:192,0,-2.90311,-5.00804,60.9425,Q,Q
2023-03-15 13:47:14:202,0,-2.91222,-5.01967,60.9491,Q,Q
2023-03-15 13:47:14:212,0,-2.91849,-5.03393,60.9479,Q,Q
2023-03-15 13:47:14:222,0,-2.92092,-5.0515,60.9443,Q,Q
2023-03-15 13:47:14:232,0,-2.92143,-5.06517,60.9342,Q,Q
2023-03-15 13:47:14:242,0,-2.92177,-5.08145,60.9251,Q,Q
2023-03-15 13:47:14:252,0,-2.92262,-5.09664,60.9158,Q,Q
2023-03-15 13:47:14:262,0,-2.92085,-5.11722,60.9059,Q,Q
2023-03-15 13:47:14:272,0,-2.91769,-5.13857,60.9048,Q,Q
2023-03-15 13:47:14:282,0,-2.91609,-5.16171,60.9082,Q,Q
2023-03-15 13:47:14:292,0,-2.91401,-5.18259,60.9144,Q,Q
2023-03-15 13:47:14:302,0,-2.91116,-5.19527,60.9189,Q,Q
2023-03-15 13:47:14:312,0,-2.90877,-5.20312,60.9237,Q,Q
2023-03-15 13:47:14:322,0,-2.90465,-5.21169,60.9293,Q,Q
2023-03-15 13:47:14:332,0,-2.90651,-5.21283,60.9298,Q,Q
2023-03-15 13:47:14:342,0,-2.90736,-5.21529,60.9326,Q,Q
2023-03-15 13:47:14:352,0,-2.91251,-5.22368,60.9342,Q,Q
2023-03-15 13:47:14:362,0,-2.91654,-5.23376,60.9378,Q,Q
2023-03-15 13:47:14:372,0,-2.9222,-5.24156,60.9371,Q,Q
2023-03-15 13:47:14:382,0,-2.93166,-5.2495,60.9409,Q,Q
2023-03-15 13:47:14:392,0,-2.93963,-5.25219,60.9418,Q,Q
2023-03-15 13:47:14:402,0,-2.94874,-5.25511,60.9379,Q,Q
2023-03-15 13:47:14:412,0,-2.96166,-5.25139,60.9353,Q,Q
2023-03-15 13:47:14:422,0,-2.97251,-5.24545,60.932,Q,Q
2023-03-15 13:47:14:432,0,-2.98527,-5.2439,60.9301,Q,Q
2023-03-15 13:47:14:442,0,-3.00252,-5.24471,60.9271,Q,Q
2023-03-15 13:47:14:452,0,-3.01826,-5.24609,60.9209,Q,Q
2023-03-15 13:47:14:462,0,-3.02956,-5.2487,60.9112,Q,Q
2023-03-15 13:47:14:472,0,-3.04167,-5.25201,60.9028,Q,Q
2023-03-15 13:47:14:482,0,-3.05134,-5.25793,60.894,Q,Q
2023-03-15 13:47:14:492,0,-3.05653,-5.2614,60.8845,Q,Q
2023-03-15 13:47:14:502,0,-3.064,-5.26459,60.8712,Q,Q
2023-03-15 13:47:14:512,0,-3.06839,-5.26909,60.8562,Q,Q
2023-03-15 13:47:14:522,0,-3.0681,-5.2715,60.84,Q,Q
2023-03-15 13:47:14:532,0,-3.06433,-5.27832,60.826,Q,Q
2023-03-15 13:47:14:542,0,-3.05601,-5.28481,60.8114,Q,Q
2023-03-15 13:47:14:552,0,-3.04394,-5.29072,60.7958,Q,Q
2023-03-15 13:47:14:562,0,-3.03224,-5.29743,60.7788,Q,Q
2023-03-15 13:47:14:572,0,-3.02361,-5.30493,60.754,Q,Q
2023-03-15 13:47:14:582,0,-3.01327,-5.31386,60.7245,Q,Q
2023-03-15 13:47:14:592,0,-3.00374,-5.3257,60.6858,Q,Q
2023-03-15 13:47:14:602,0,-2.99825,-5.33557,60.6429,Q,Q
2023-03-15 13:47:14:612,0,-2.99665,-5.34507,60.5958,Q,Q
2023-03-15 13:47:14:622,0,-2.99586,-5.35267,60.5407,Q,Q
2023-03-15 13:47:14:632,0,-2.998,-5.36535,60.4779,Q,Q
2023-03-15 13:47:14:641,0,-3.00163,-5.38299,60.4137,Q,Q
2023-03-15 13:47:14:651,0,-3.00774,-5.40461,60.3495,Q,Q
2023-03-15 13:47:14:663,0,-3.01708,-5.42777,60.2803,Q,Q
2023-03-15 13:47:14:672,0,-3.03177,-5.45296,60.2177,Q,Q
2023-03-15 13:47:14:681,0,-3.04933,-5.47084,60.1526,Q,Q
2023-03-15 13:47:14:691,0,-3.07155,-5.48567,60.087,Q,Q
2023-03-15 13:47:14:702,0,-3.08841,-5.49348,60.0183,Q,Q
2023-03-15 13:47:14:711,0,-3.10568,-5.50114,59.951,Q,Q
2023-03-15 13:47:14:722,0,-3.12807,-5.50595,59.8905,Q,Q
2023-03-15 13:47:14:732,0,-3.14063,-5.50902,59.8355,Q,Q
2023-03-15 13:47:14:742,0,-3.14268,-5.51281,59.7884,Q,Q
2023-03-15 13:47:14:752,0,-3.13932,-5.51612,59.7472,Q,Q
2023-03-15 13:47:14:762,0,-3.13027,-5.52194,59.7153,Q,Q
2023-03-15 13:47:14:772,0,-3.12135,-5.52558,59.6945,Q,Q
2023-03-15 13:47:14:782,0,-3.11038,-5.5249,59.6785,Q,Q
2023-03-15 13:47:14:792,0,-3.09921,-5.52572,59.6684,Q,Q
2023-03-15 13:47:14:802,0,-3.09057,-5.52051,59.6648,Q,Q
2023-03-15 13:47:14:812,0,-3.0845,-5.51533,59.6675,Q,Q
2023-03-15 13:47:14:822,0,-3.07994,-5.51102,59.6731,Q,Q
2023-03-15 13:47:14:832,0,-3.07448,-5.51171,59.6857,Q,Q
2023-03-15 13:47:14:842,0,-3.06936,-5.51044,59.6967,Q,Q
2023-03-15 13:47:14:852,0,-3.06715,-5.51079,59.7141,Q,Q
2023-03-15 13:47:14:862,0,-3.06857,-5.51549,59.7347,Q,Q
2023-03-15 13:47:14:872,0,-3.0627,-5.52372,59.7541,Q,Q
2023-03-15 13:47:14:882,0,-3.05769,-5.53523,59.7755,Q,Q
2023-03-15 13:47:14:892,0,-3.05254,-5.5547,59.7917,Q,Q
2023-03-15 13:47:14:902,0,-3.04645,-5.57517,59.8055,Q,Q
2023-03-15 13:47:14:912,0,-3.03793,-5.59362,59.8176,Q,Q
2023-03-15 13:47:14:922,0,-3.02389,-5.61607,59.8306,Q,Q
2023-03-15 13:47:14:932,0,-3.01251,-5.63926,59.8415,Q,Q
2023-03-15 13:47:14:942,0,-3.00345,-5.65915,59.856,Q,Q
2023-03-15 13:47:14:952,0,-2.99093,-5.67714,59.8718,Q,Q
2023-03-15 13:47:14:962,0,-2.98085,-5.6895,59.8851,Q,Q
2023-03-15 13:47:14:972,0,-2.96801,-5.70013,59.9037,Q,Q
2023-03-15 13:47:14:982,0,-2.95688,-5.70717,59.9261,Q,Q
2023-03-15 13:47:14:992,0,-2.94615,-5.71458,59.9492,Q,Q
2023-03-15 13:47:15:2,0,-2.93879,-5.72122,59.9741,Q,Q
2023-03-15 13:47:15:12,0,-2.93263,-5.7277,60.0036,Q,Q
2023-03-15 13:47:15:22,0,-2.92399,-5.73414,60.0385,Q,Q
2023-03-15 13:47:15:32,0,-2.91077,-5.73988,60.0771,Q,Q
2023-03-15 13:47:15:42,0,-2.89537,-5.74294,60.1154,Q,Q
2023-03-15 13:47:15:52,0,-2.88019,-5.74478,60.1604,Q,Q
2023-03-15 13:47:15:62,0,-2.86926,-5.7436,60.2031,Q,Q
2023-03-15 13:47:15:72,0,-2.85828,-5.74137,60.2397,Q,Q
2023-03-15 13:47:15:82,0,-2.84861,-5.73436,60.2725,Q,Q
2023-03-15 13:47:15:92,0,-2.83896,-5.73478,60.3041,Q,Q
2023-03-15 13:47:15:102,0,-2.82679,-5.73354,60.3343,Q,Q
2023-03-15 13:47:15:112,0,-2.81322,-5.7346,60.36,Q,Q
2023-03-15 13:47:15:122,0,-2.80149,-5.73996,60.3805,Q,Q
2023-03-15 13:47:15:132,0,-2.78981,-5.74498,60.3965,Q,Q
2023-03-15 13:47:15:142,0,-2.77519,-5.75395,60.4071,Q,Q
2023-03-15 13:47:15:152,0,-2.76495,-5.76263,60.4155,Q,Q
2023-03-15 13:47:15:162,0,-2.75779,-5.76681,60.42,Q,Q
2023-03-15 13:47:15:172,0,-2.74893,-5.77404,60.423,Q,Q
2023-03-15 13:47:15:182,0,-2.74429,-5.7811,60.4199,Q,Q
2023-03-15 13:47:15:192,0,-2.74122,-5.7919,60.4143,Q,Q
2023-03-15 13:47:15:202,0,-2.7404,-5.80142,60.4139,Q,Q
2023-03-15 13:47:15:212,0,-2.74239,-5.80648,60.411,Q,Q
2023-03-15 13:47:15:222,0,-2.7411,-5.80678,60.4111,Q,Q
2023-03-15 13:47:15:232,0,-2.74154,-5.80302,60.4091,Q,Q
2023-03-15 13:47:15:242,0,-2.74301,-5.7976,60.4119,Q,Q
2023-03-15 13:47:15:252,0,-2.74851,-5.79214,60.4182,Q,Q
2023-03-15 13:47:15:262,0,-2.74941,-5.78444,60.4245,Q,Q
2023-03-15 13:47:15:272,0,-2.75435,-5.77603,60.433,Q,Q
2023-03-15 13:47:15:282,0,-2.75707,-5.76924,60.4442,Q,Q
2023-03-15 13:47:15:292,0,-2.76541,-5.76131,60.4563,Q,Q
2023-03-15 13:47:15:302,0,-2.77037,-5.75685,60.4688,Q,Q
2023-03-15 13:47:15:312,0,-2.76962,-5.75664,60.4798,Q,Q
2023-03-15 13:47:15:322,0,-2.76989,-5.75698,60.4848,Q,Q
2023-03-15 13:47:15:332,0,-2.76972,-5.75517,60.487,Q,Q
2023-03-15 13:47:15:342,0,-2.76823,-5.75697,60.4823,Q,Q
2023-03-15 13:47:15:352,0,-2.76437,-5.76476,60.4741,Q,Q
2023-03-15 13:47:15:362,0,-2.76473,-5.76971,60.4661,Q,Q
2023-03-15 13:47:15:372,0,-2.76409,-5.78015,60.4608,Q,Q
2023-03-15 13:47:15:382,0,-2.76467,-5.79719,60.4512,Q,Q
2023-03-15 13:47:15:392,0,-2.77282,-5.81212,60.439,Q,Q
2023-03-15 13:47:15:402,0,-2.77923,-5.82836,60.4205,Q,Q
2023-03-15 13:47:15:412,0,-2.78834,-5.84066,60.405,Q,Q
2023-03-15 13:47:15:422,0,-2.79463,-5.84749,60.3852,Q,Q
2023-03-15 13:47:15:432,0,-2.80329,-5.85647,60.3659,Q,Q
2023-03-15 13:47:15:442,0,-2.80465,-5.85922,60.344,Q,Q
2023-03-15 13:47:15:452,0,-2.8059,-5.86257,60.3243,Q,Q
2023-03-15 13:47:15:462,0,-2.80746,-5.86483,60.3089,Q,Q
2023-03-15 13:47:15:472,0,-2.80313,-5.86325,60.2953,Q,Q
2023-03-15 13:47:15:482,0,-2.79476,-5.86249,60.2798,Q,Q
2023-03-15 13:47:15:492,0,-2.7889,-5.86068,60.2716,Q,Q
2023-03-15 13:47:15:502,0,-2.77961,-5.85952,60.2619,Q,Q
2023-03-15 13:47:15:512,0,-2.77295,-5.85229,60.2527,Q,Q
2023-03-15 13:47:15:522,0,-2.76877,-5.84615,60.246,Q,Q
2023-03-15 13:47:15:532,0,-2.76899,-5.83545,60.2408,Q,Q
2023-03-15 13:47:15:542,0,-2.76833,-5.82646,60.2324,Q,Q
2023-03-15 13:47:15:552,0,-2.77182,-5.8156,60.2234,Q,Q
2023-03-15 13:47:15:562,0,-2.77776,-5.8063,60.2141,Q,Q
2023-03-15 13:47:15:572,0,-2.7893,-5.79741,60.2021,Q,Q
2023-03-15 13:47:15:582,0,-2.79865,-5.79038,60.1868,Q,Q
2023-03-15 13:47:15:592,0,-2.81201,-5.78841,60.167,Q,Q
2023-03-15 13:47:15:602,0,-2.81923,-5.79359,60.1445,Q,Q
2023-03-15 13:47:15:612,0,-2.82635,-5.79588,60.1243,Q,Q
2023-03-15 13:47:15:622,0,-2.82356,-5.7996,60.0949,Q,Q
2023-03-15 13:47:15:632,0,-2.82452,-5.80755,60.0588,Q,Q
2023-03-15 13:47:15:642,0,-2.82708,-5.81616,60.0143,Q,Q
2023-03-15 13:47:15:652,0,-2.83282,-5.82879,59.9685,Q,Q
2023-03-15 13:47:15:662,0,-2.83969,-5.84373,59.9179,Q,Q
2023-03-15 13:47:15:672,0,-2.84645,-5.85688,59.8619,Q,Q
2023-03-15 13:47:15:682,0,-2.85101,-5.87355,59.7997,Q,Q
2023-03-15 13:47:15:692,0,-2.85317,-5.89671,59.73,Q,Q
2023-03-15 13:47:15:702,0,-2.86158,-5.91605,59.6543,Q,Q
2023-03-15 13:47:15:712,0,-2.86728,-5.93612,59.5671,Q,Q
2023-03-15 13:47:15:722,0,-2.86718,-5.95272,59.4607,Q,Q
2023-03-15 13:47:15:732,0,-2.86159,-5.97326,59.3295,Q,Q
2023-03-15 13:47:15:742,0,-2.85465,-5.99701,59.1695,Q,Q
2023-03-15 13:47:15:752,0,-2.84167,-6.0306,58.9799,Q,Q
2023-03-15 13:47:15:762,0,-2.81802,-6.07354,58.7518,Q,Q
2023-03-15 13:47:15:772,0,-2.78209,-6.12798,58.4805,Q,Q
2023-03-15 13:47:15:782,0,-2.74009,-6.18907,58.1571,Q,Q
2023-03-15 13:47:15:792,0,-2.69456,-6.25315,57.7698,Q,Q
2023-03-15 13:47:15:802,0,-2.65027,-6.31535,57.3156,Q,Q
2023-03-15 13:47:15:812,0,-2.61299,-6.37175,56.7867,Q,Q
2023-03-15 13:47:15:822,0,-2.58355,-6.41907,56.1812,Q,Q
2023-03-15 13:47:15:832,0,-2.56063,-6.45723,55.4941,Q,Q
2023-03-15 13:47:15:842,0,-2.54133,-6.49022,54.7184,Q,Q
2023-03-15 13:47:15:852,0,-2.52608,-6.52242,53.8587,Q,Q
2023-03-15 13:47:15:862,0,-2.50975,-6.55249,52.9218,Q,Q
2023-03-15 13:47:15:872,0,-2.49023,-6.57842,51.9129,Q,Q
2023-03-15 13:47:15:882,0,-2.46833,-6.59939,50.8356,Q,Q
2023-03-15 13:47:15:892,0,-2.45451,-6.61932,49.6965,Q,Q
2023-03-15 13:47:15:902,0,-2.44513,-6.64337,48.51,Q,Q
2023-03-15 13:47:15:912,0,-2.44184,-6.67451,47.2763,Q,Q
2023-03-15 13:47:15:922,0,-2.44952,-6.70535,46.0059,Q,Q
2023-03-15 13:47:15:932,0,-2.46495,-6.73186,44.6935,Q,Q
2023-03-15 13:47:15:942,0,-2.48181,-6.75478,43.3481,Q,Q
2023-03-15 13:47:15:952,0,-2.49374,-6.77732,41.9833,Q,Q
2023-03-15 13:47:15:962,0,-2.50151,-6.79964,40.6152,Q,Q
2023-03-15 13:47:15:972,0,-2.50057,-6.8352,39.2737,Q,Q
2023-03-15 13:47:15:982,0,-2.48531,-6.89892,37.9826,Q,Q
2023-03-15 13:47:15:992,0,-2.45663,-6.98776,36.7609,Q,Q
2023-03-15 13:47:16:2,0,-2.41576,-7.08923,35.6039,Q,Q
2023-03-15 13:47:16:12,0,-2.373,-7.17826,34.4962,Q,Q
2023-03-15 13:47:16:22,0,-2.32976,-7.23703,33.4229,Q,Q
2023-03-15 13:47:16:32,0,-2.29293,-7.25224,32.3854,Q,Q
2023-03-15 13:47:16:42,0,-2.25434,-7.2219,31.3827,Q,Q
2023-03-15 13:47:16:52,0,-2.20826,-7.15634,30.4145,Q,Q
2023-03-15 13:47:16:62,0,-2.14674,-7.06591,29.4908,Q,Q
2023-03-15 13:47:16:72,0,-2.06817,-6.9611,28.618,Q,Q
2023-03-15 13:47:16:82,0,-1.97992,-6.84497,27.8122,Q,Q
2023-03-15 13:47:16:92,0,-1.9015,-6.7214,27.0704,Q,Q
2023-03-15 13:47:16:102,0,-1.83363,-6.58414,26.3907,Q,Q
2023-03-15 13:47:16:112,0,-1.77672,-6.43689,25.7608,Q,Q
2023-03-15 13:47:16:122,0,-1.72835,-6.26353,25.1842,Q,Q
2023-03-15 13:47:16:132,0,-1.67459,-6.07769,24.6383,Q,Q
2023-03-15 13:47:16:142,0,-1.61738,-5.87993,24.1303,Q,Q
2023-03-15 13:47:16:152,0,-1.54104,-5.68254,23.6526,Q,Q
2023-03-15 13:47:16:162,0,-1.45016,-5.49381,23.2116,Q,Q
2023-03-15 13:47:16:172,0,-1.34928,-5.32665,22.8063,Q,Q
2023-03-15 13:47:16:182,0,-1.25249,-5.19114,22.4456,Q,Q
2023-03-15 13:47:16:192,0,-1.16232,-5.0913,22.1262,Q,Q
2023-03-15 13:47:16:202,0,-1.07594,-5.03235,21.8507,Q,Q
2023-03-15 13:47:16:212,0,-0.997566,-5.00337,21.6189,Q,Q
2023-03-15 13:47:16:222,0,-0.929048,-4.99917,21.4195,Q,Q
2023-03-15 13:47:16:232,0,-0.864596,-5.01496,21.2518,Q,Q
2023-03-15 13:47:16:242,0,-0.807947,-5.0418,21.1046,Q,Q
2023-03-15 13:47:16:252,0,-0.758893,-5.0699,20.9777,Q,Q
2023-03-15 13:47:16:262,0,-0.718973,-5.10417,20.865,Q,Q
2023-03-15 13:47:16:272,0,-0.685017,-5.14653,20.7634,Q,Q
2023-03-15 13:47:16:282,0,-0.673595,-5.19305,20.6786,Q,Q
2023-03-15 13:47:16:292,0,-0.672208,-5.2402,20.6053,Q,Q
2023-03-15 13:47:16:302,0,-0.679161,-5.28505,20.5426,Q,Q
2023-03-15 13:47:16:312,0,-0.695261,-5.32245,20.4831,Q,Q
2023-03-15 13:47:16:322,0,-0.726391,-5.35314,20.4259,Q,Q
2023-03-15 13:47:16:332,0,-0.776223,-5.37178,20.3609,Q,Q
2023-03-15 13:47:16:342,0,-0.845715,-5.36673,20.2829,Q,Q
2023-03-15 13:47:16:352,0,-0.93141,-5.34267,20.1885,Q,Q
2023-03-15 13:47:16:362,0,-1.02417,-5.31352,20.0816,Q,Q
2023-03-15 13:47:16:372,0,-1.12113,-5.27749,19.975,Q,Q
2023-03-15 13:47:16:382,0,-1.23088,-5.23532,19.8724,Q,Q
2023-03-15 13:47:16:392,0,-1.35023,-5.19416,19.7663,Q,Q
2023-03-15 13:47:16:402,0,-1.48298,-5.15557,19.6589,Q,Q
2023-03-15 13:47:16:412,0,-1.63133,-5.11246,19.5495,Q,Q
2023-03-15 13:47:16:422,0,-1.79691,-5.06997,19.4422,Q,Q
2023-03-15 13:47:16:432,0,-1.96666,-5.02535,19.3284,Q,Q
2023-03-15 13:47:16:442,0,-2.13566,-4.97661,19.2008,Q,Q
2023-03-15 13:47:16:452,0,-2.30379,-4.91986,19.0559,Q,Q
2023-03-15 13:47:16:462,0,-2.46918,-4.85868,18.8964,Q,Q
2023-03-15 13:47:16:472,0,-2.62527,-4.79167,18.7207,Q,Q
2023-03-15 13:47:16:482,0,-2.77582,-4.72394,18.5324,Q,Q
2023-03-15 13:47:16:492,0,-2.90497,-4.66248,18.3412,Q,Q
2023-03-15 13:47:16:502,0,-3.00635,-4.61465,18.1533,Q,Q
2023-03-15 13:47:16:512,0,-3.07982,-4.58447,17.9774,Q,Q
2023-03-15 13:47:16:522,0,-3.12473,-4.56317,17.81,Q,Q
2023-03-15 13:47:16:532,0,-3.14659,-4.54694,17.642,Q,Q
2023-03-15 13:47:16:542,0,-3.14304,-4.53011,17.474,Q,Q
2023-03-15 13:47:16:552,0,-3.12413,-4.51044,17.3022,Q,Q
2023-03-15 13:47:16:562,0,-3.08937,-4.49143,17.1408,Q,Q
2023-03-15 13:47:16:572,0,-3.04101,-4.48107,16.9841,Q,Q
2023-03-15 13:47:16:582,0,-2.95888,-4.493,16.833,Q,Q
2023-03-15 13:47:16:592,0,-2.82664,-4.52687,16.6817,Q,Q
2023-03-15 13:47:16:602,0,-2.62822,-4.58493,16.5375,Q,Q
2023-03-15 13:47:16:612,0,-2.37332,-4.66001,16.4048,Q,Q
2023-03-15 13:47:16:622,0,-2.08899,-4.75424,16.2847,Q,Q
2023-03-15 13:47:16:632,0,-1.80505,-4.86075,16.168,Q,Q
2023-03-15 13:47:16:642,0,-1.52933,-4.9781,16.0581,Q,Q
2023-03-15 13:47:16:652,0,-1.27617,-5.10843,15.9561,Q,Q
2023-03-15 13:47:16:662,0,-1.03562,-5.24655,15.8516,Q,Q
2023-03-15 13:47:16:672,0,-0.808101,-5.39283,15.7554,Q,Q
2023-03-15 13:47:16:682,0,-0.58077,-5.54971,15.6718,Q,Q
2023-03-15 13:47:16:692,0,-0.348141,-5.71021,15.5963,Q,Q
2023-03-15 13:47:16:702,0,-0.117211,-5.87149,15.534,Q,Q
2023-03-15 13:47:16:712,0,0.108818,-6.028,15.4803,Q,Q
2023-03-15 13:47:16:722,0,0.323294,-6.1843,15.4371,Q,Q
2023-03-15 13:47:16:732,0,0.521495,-6.33226,15.3964,Q,Q
2023-03-15 13:47:16:742,0,0.703204,-6.48256,15.3586,Q,Q
2023-03-15 13:47:16:752,0,0.870906,-6.63494,15.3329,Q,Q
2023-03-15 13:47:16:762,0,1.03071,-6.77962,15.3131,Q,Q
2023-03-15 13:47:16:772,0,1.19494,-6.92125,15.2872,Q,Q
2023-03-15 13:47:16:782,0,1.35809,-7.05898,15.2524,Q,Q
2023-03-15 13:47:16:792,0,1.52594,-7.19057,15.2151,Q,Q
2023-03-15 13:47:16:802,0,1.68684,-7.30676,15.1679,Q,Q
2023-03-15 13:47:16:812,0,1.85528,-7.40078,15.1104,Q,Q
2023-03-15 13:47:16:822,0,2.03939,-7.46555,15.0407,Q,Q
2023-03-15 13:47:16:832,0,2.24178,-7.5224,14.9663,Q,Q
2023-03-15 13:47:16:842,0,2.45717,-7.5805,14.8908,Q,Q
2023-03-15 13:47:16:852,0,2.67543,-7.63842,14.8195,Q,Q
2023-03-15 13:47:16:862,0,2.90415,-7.68603,14.7381,Q,Q
2023-03-15 13:47:16:872,0,3.15653,-7.71973,14.6419,Q,Q
2023-03-15 13:47:16:882,0,3.42675,-7.74281,14.5343,Q,Q
2023-03-15 13:47:16:892,0,3.70572,-7.75769,14.4252,Q,Q
2023-03-15 13:47:16:902,0,3.98971,-7.77722,14.3204,Q,Q
2023-03-15 13:47:16:912,0,4.26487,-7.79925,14.2208,Q,Q
2023-03-15 13:47:16:922,0,4.52148,-7.798,14.1271,Q,Q
2023-03-15 13:47:16:932,0,4.77786,-7.77525,14.0272,Q,Q
2023-03-15 13:47:16:942,0,5.02835,-7.74519,13.9137,Q,Q
2023-03-15 13:47:16:952,0,5.25362,-7.71965,13.8014,Q,Q
2023-03-15 13:47:16:962,0,5.44196,-7.6947,13.6923,Q,Q
2023-03-15 13:47:16:972,0,5.60708,-7.66241,13.5833,Q,Q
2023-03-15 13:47:16:983,0,5.75799,-7.62524,13.4668,Q,Q
2023-03-15 13:47:16:992,0,5.90659,-7.56751,13.3452,Q,Q
2023-03-15 13:47:17:3,0,6.04895,-7.49488,13.2213,Q,Q
2023-03-15 13:47:17:12,0,6.18098,-7.41334,13.1039,Q,Q
2023-03-15 13:47:17:22,0,6.2972,-7.3281,12.991,Q,Q
2023-03-15 13:47:17:33,0,6.39691,-7.24099,12.8834,Q,Q
2023-03-15 13:47:17:43,0,6.47993,-7.15329,12.7742,Q,Q
2023-03-15 13:47:17:53,0,6.54972,-7.06413,12.6693,Q,Q
2023-03-15 13:47:17:62,0,6.5975,-6.97655,12.5783,Q,Q
2023-03-15 13:47:17:73,0,6.62632,-6.89145,12.491,Q,Q
2023-03-15 13:47:17:83,0,6.63703,-6.81315,12.4154,Q,Q
2023-03-15 13:47:17:92,0,6.63471,-6.73791,12.3554,Q,Q
2023-03-15 13:47:17:102,0,6.61843,-6.67407,12.31,Q,Q
2023-03-15 13:47:17:113,0,6.58153,-6.63172,12.2831,Q,Q
2023-03-15 13:47:17:123,0,6.52454,-6.61251,12.2727,Q,Q
2023-03-15 13:47:17:132,0,6.44911,-6.60583,12.2786,Q,Q
2023-03-15 13:47:17:142,0,6.36153,-6.60548,12.2934,Q,Q
2023-03-15 13:47:17:152,0,6.26767,-6.60862,12.3064,Q,Q
2023-03-15 13:47:17:163,0,6.16752,-6.597,12.3148,Q,Q
2023-03-15 13:47:17:173,0,6.06479,-6.57479,12.321,Q,Q
2023-03-15 13:47:17:182,0,5.95532,-6.54252,12.3243,Q,Q
2023-03-15 13:47:17:193,0,5.84088,-6.49815,12.3198,Q,Q
2023-03-15 13:47:17:202,0,5.73025,-6.44094,12.3146,Q,Q
2023-03-15 13:47:17:212,0,5.62209,-6.38184,12.3081,Q,Q
2023-03-15 13:47:17:223,0,5.51813,-6.32198,12.3048,Q,Q
2023-03-15 13:47:17:233,0,5.42544,-6.25787,12.3026,Q,Q
2023-03-15 13:47:17:243,0,5.33348,-6.19247,12.2951,Q,Q
2023-03-15 13:47:17:253,0,5.24104,-6.1274,12.2921,Q,Q
2023-03-15 13:47:17:263,0,5.1487,-6.0601,12.2916,Q,Q
2023-03-15 13:47:17:273,0,5.04473,-5.99432,12.2911,Q,Q
2023-03-15 13:47:17:283,0,4.93541,-5.92979,12.2839,Q,Q
2023-03-15 13:47:17:293,0,4.82765,-5.86578,12.272,Q,Q
2023-03-15 13:47:17:303,0,4.72527,-5.81109,12.2448,Q,Q
2023-03-15 13:47:17:313,0,4.63917,-5.75782,12.2051,Q,Q
2023-03-15 13:47:17:322,0,4.57669,-5.70821,12.1466,Q,Q
2023-03-15 13:47:17:332,0,4.55447,-5.67121,12.0666,Q,Q
2023-03-15 13:47:17:342,0,4.58196,-5.65531,11.9666,Q,Q
2023-03-15 13:47:17:353,0,4.67043,-5.66265,11.8446,Q,Q
2023-03-15 13:47:17:363,0,4.82302,-5.6881,11.6981,Q,Q
2023-03-15 13:47:17:372,0,5.02622,-5.71879,11.5456,Q,Q
2023-03-15 13:47:17:382,0,5.25896,-5.73509,11.3801,Q,Q
2023-03-15 13:47:17:392,0,5.5077,-5.72539,11.2023,Q,Q
2023-03-15 13:47:17:402,0,5.75616,-5.69401,11.0164,Q,Q
2023-03-15 13:47:17:413,0,5.97461,-5.63951,10.8198,Q,Q
2023-03-15 13:47:17:423,0,6.15349,-5.57236,10.6154,Q,Q
2023-03-15 13:47:17:433,0,6.27096,-5.51441,10.4074,Q,Q
2023-03-15 13:47:17:442,0,6.32918,-5.46974,10.2055,Q,Q
2023-03-15 13:47:17:452,0,6.33918,-5.45887,10.0134,Q,Q
2023-03-15 13:47:17:463,0,6.31454,-5.48365,9.83222,Q,Q
2023-03-15 13:47:17:473,0,6.26753,-5.54634,9.65679,Q,Q
2023-03-15 13:47:17:483,0,6.21147,-5.61846,9.47974,Q,Q
2023-03-15 13:47:17:493,0,6.1566,-5.68349,9.2951,Q,Q
2023-03-15 13:47:17:503,0,6.12076,-5.73012,9.09933,Q,Q
2023-03-15 13:47:17:513,0,6.09628,-5.76013,8.89814,Q,Q
2023-03-15 13:47:17:523,0,6.08046,-5.77341,8.6941,Q,Q
2023-03-15 13:47:17:533,0,6.06002,-5.77826,8.48459,Q,Q
2023-03-15 13:47:17:543,0,6.04527,-5.78213,8.27035,Q,Q
2023-03-15 13:47:17:553,0,6.02519,-5.7784,8.05835,Q,Q
2023-03-15 13:47:17:563,0,6.0039,-5.76631,7.8498,Q,Q
2023-03-15 13:47:17:572,0,5.98082,-5.75247,7.64934,Q,Q
2023-03-15 13:47:17:582,0,5.9435,-5.73964,7.4562,Q,Q
2023-03-15 13:47:17:592,0,5.90043,-5.72395,7.28141,Q,Q
2023-03-15 13:47:17:602,0,5.84542,-5.70685,7.11901,Q,Q
2023-03-15 13:47:17:612,0,5.78335,-5.67933,6.96939,Q,Q
2023-03-15 13:47:17:622,0,5.71229,-5.63331,6.82649,Q,Q
2023-03-15 13:47:17:633,0,5.62776,-5.57263,6.69961,Q,Q
2023-03-15 13:47:17:643,0,5.52005,-5.50502,6.61141,Q,Q
2023-03-15 13:47:17:653,0,5.39429,-5.43794,6.56097,Q,Q
2023-03-15 13:47:17:663,0,5.24297,-5.38294,6.55758,Q,Q
2023-03-15 13:47:17:673,0,5.05536,-5.33896,6.59564,Q,Q
2023-03-15 13:47:17:683,0,4.83046,-5.29433,6.67028,Q,Q
2023-03-15 13:47:17:693,0,4.57247,-5.24211,6.76999,Q,Q
2023-03-15 13:47:17:703,0,4.30346,-5.18358,6.88276,Q,Q
2023-03-15 13:47:17:713,0,4.04788,-5.12816,7.00747,Q,Q
2023-03-15 13:47:17:723,0,3.81714,-5.09012,7.13292,Q,Q
2023-03-15 13:47:17:733,0,3.62327,-5.06422,7.25553,Q,Q
2023-03-15 13:47:17:743,0,3.47919,-5.04632,7.36598,Q,Q
2023-03-15 13:47:17:753,0,3.38355,-5.02748,7.46762,Q,Q
2023-03-15 13:47:17:763,0,3.32332,-5.01055,7.55902,Q,Q
2023-03-15 13:47:17:773,0,3.28116,-5.00179,7.64277,Q,Q
2023-03-15 13:47:17:783,0,3.25266,-5.00536,7.71173,Q,Q
2023-03-15 13:47:17:793,0,3.22683,-5.01909,7.77197,Q,Q
2023-03-15 13:47:17:803,0,3.19927,-5.03433,7.82424,Q,Q
2023-03-15 13:47:17:813,0,3.16974,-5.05717,7.86441,Q,Q
2023-03-15 13:47:17:823,0,3.14805,-5.08436,7.89996,Q,Q
2023-03-15 13:47:17:833,0,3.12954,-5.11401,7.93148,Q,Q
2023-03-15 13:47:17:843,0,3.10662,-5.14246,7.95559,Q,Q
2023-03-15 13:47:17:853,0,3.07835,-5.1701,7.97994,Q,Q
2023-03-15 13:47:17:863,0,3.04253,-5.19889,8.00476,Q,Q
2023-03-15 13:47:17:872,0,3.00517,-5.21886,8.02952,Q,Q
2023-03-15 13:47:17:882,0,2.96276,-5.23241,8.05734,Q,Q
2023-03-15 13:47:17:892,0,2.91786,-5.23869,8.08825,Q,Q
2023-03-15 13:47:17:902,0,2.87232,-5.23736,8.11934,Q,Q
2023-03-15 13:47:17:912,0,2.82823,-5.22762,8.15034,Q,Q
2023-03-15 13:47:17:922,0,2.78491,-5.20986,8.18524,Q,Q
2023-03-15 13:47:17:932,0,2.73673,-5.17944,8.22054,Q,Q
2023-03-15 13:47:17:942,0,2.68374,-5.13994,8.25106,Q,Q
2023-03-15 13:47:17:952,0,2.62803,-5.09244,8.27616,Q,Q
2023-03-15 13:47:17:962,0,2.57446,-5.03776,8.2983,Q,Q
2023-03-15 13:47:17:972,0,2.52005,-4.9796,8.31313,Q,Q
2023-03-15 13:47:17:982,0,2.46669,-4.91653,8.33184,Q,Q
2023-03-15 13:47:17:993,0,2.41231,-4.8647,8.35526,Q,Q
2023-03-15 13:47:18:3,0,2.35352,-4.83553,8.38597,Q,Q
2023-03-15 13:47:18:13,0,2.28824,-4.82492,8.42824,Q,Q
2023-03-15 13:47:18:23,0,2.21097,-4.83764,8.48146,Q,Q
2023-03-15 13:47:18:33,0,2.12546,-4.86967,8.54542,Q,Q
2023-03-15 13:47:18:43,0,2.03548,-4.91901,8.62409,Q,Q
2023-03-15 13:47:18:53,0,1.94145,-4.98187,8.71801,Q,Q
2023-03-15 13:47:18:63,0,1.8386,-5.06367,8.83019,Q,Q
2023-03-15 13:47:18:73,0,1.72051,-5.16408,8.95174,Q,Q
2023-03-15 13:47:18:83,0,1.59636,-5.2736,9.08494,Q,Q
2023-03-15 13:47:18:93,0,1.47154,-5.37843,9.21886,Q,Q
2023-03-15 13:47:18:103,0,1.34601,-5.46129,9.34602,Q,Q
2023-03-15 13:47:18:113,0,1.22683,-5.51289,9.46576,Q,Q
2023-03-15 13:47:18:123,0,1.11394,-5.53404,9.56848,Q,Q
2023-03-15 13:47:18:133,0,1.00854,-5.52347,9.65166,Q,Q
2023-03-15 13:47:18:143,0,0.916061,-5.48465,9.71268,Q,Q
2023-03-15 13:47:18:153,0,0.841356,-5.43245,9.75391,Q,Q
2023-03-15 13:47:18:163,0,0.78609,-5.36981,9.7835,Q,Q
2023-03-15 13:47:18:173,0,0.752259,-5.30795,9.79692,Q,Q
2023-03-15 13:47:18:183,0,0.749254,-5.25133,9.80174,Q,Q
2023-03-15 13:47:18:193,0,0.770718,-5.20324,9.80513,Q,Q
2023-03-15 13:47:18:203,0,0.805386,-5.16915,9.80744,Q,Q
2023-03-15 13:47:18:213,0,0.848077,-5.1522,9.81076,Q,Q
2023-03-15 13:47:18:223,0,0.891261,-5.14821,9.81865,Q,Q
2023-03-15 13:47:18:233,0,0.925947,-5.15308,9.82772,Q,Q
2023-03-15 13:47:18:243,0,0.953359,-5.15832,9.83673,Q,Q
2023-03-15 13:47:18:253,0,0.973433,-5.16894,9.84439,Q,Q
2023-03-15 13:47:18:263,0,0.982606,-5.18474,9.85934,Q,Q
2023-03-15 13:47:18:273,0,0.981905,-5.20623,9.87951,Q,Q
2023-03-15 13:47:18:283,0,0.966264,-5.2279,9.90117,Q,Q
2023-03-15 13:47:18:293,0,0.93663,-5.26197,9.92704,Q,Q
2023-03-15 13:47:18:303,0,0.898234,-5.304,9.94729,Q,Q
2023-03-15 13:47:18:313,0,0.857125,-5.348,9.96872,Q,Q
2023-03-15 13:47:18:323,0,0.816268,-5.39105,9.99044,Q,Q
2023-03-15 13:47:18:333,0,0.771689,-5.43381,10.0122,Q,Q
2023-03-15 13:47:18:343,0,0.727021,-5.47079,10.0337,Q,Q
2023-03-15 13:47:18:353,0,0.69056,-5.49702,10.0454,Q,Q
2023-03-15 13:47:18:363,0,0.659931,-5.51935,10.0523,Q,Q
2023-03-15 13:47:18:373,0,0.635328,-5.54241,10.0554,Q,Q
2023-03-15 13:47:18:383,0,0.62099,-5.56011,10.0558,Q,Q
2023-03-15 13:47:18:392,0,0.615831,-5.57557,10.0526,Q,Q
2023-03-15 13:47:18:402,0,0.616945,-5.58174,10.0438,Q,Q
2023-03-15 13:47:18:413,0,0.630033,-5.57707,10.0322,Q,Q
2023-03-15 13:47:18:423,0,0.658187,-5.56779,10.0145,Q,Q
2023-03-15 13:47:18:433,0,0.695455,-5.55369,9.99404,Q,Q
2023-03-15 13:47:18:443,0,0.733043,-5.53598,9.97426,Q,Q
2023-03-15 13:47:18:453,0,0.772663,-5.51997,9.95382,Q,Q
2023-03-15 13:47:18:463,0,0.818947,-5.49638,9.92852,Q,Q
2023-03-15 13:47:18:473,0,0.865467,-5.47244,9.90179,Q,Q
2023-03-15 13:47:18:483,0,0.917906,-5.44088,9.87913,Q,Q
2023-03-15 13:47:18:493,0,0.96967,-5.41717,9.8622,Q,Q
2023-03-15 13:47:18:503,0,1.01755,-5.39223,9.84817,Q,Q
2023-03-15 13:47:18:513,0,1.06273,-5.37494,9.84662,Q,Q
2023-03-15 13:47:18:523,0,1.10524,-5.36072,9.85226,Q,Q
2023-03-15 13:47:18:533,0,1.14366,-5.35377,9.8685,Q,Q
2023-03-15 13:47:18:543,0,1.17612,-5.35143,9.89546,Q,Q
2023-03-15 13:47:18:553,0,1.19571,-5.35104,9.92582,Q,Q
2023-03-15 13:47:18:563,0,1.2067,-5.34703,9.95446,Q,Q
2023-03-15 13:47:18:573,0,1.2103,-5.33102,9.98013,Q,Q
2023-03-15 13:47:18:583,0,1.21066,-5.31583,10.0099,Q,Q
2023-03-15 13:47:18:593,0,1.20775,-5.31008,10.0523,Q,Q
2023-03-15 13:47:18:603,0,1.21029,-5.31519,10.1016,Q,Q
2023-03-15 13:47:18:613,0,1.2052,-5.3257,10.1594,Q,Q
2023-03-15 13:47:18:623,0,1.20405,-5.34191,10.2148,Q,Q
2023-03-15 13:47:18:633,0,1.19732,-5.35071,10.2624,Q,Q
2023-03-15 13:47:18:643,0,1.18199,-5.34979,10.3046,Q,Q
2023-03-15 13:47:18:653,0,1.16375,-5.33845,10.3361,Q,Q
2023-03-15 13:47:18:663,0,1.13807,-5.31614,10.3596,Q,Q
2023-03-15 13:47:18:673,0,1.11287,-5.29056,10.3754,Q,Q
2023-03-15 13:47:18:683,0,1.08834,-5.26027,10.3807,Q,Q
2023-03-15 13:47:18:693,0,1.06835,-5.23454,10.3829,Q,Q
2023-03-15 13:47:18:703,0,1.05472,-5.2127,10.3837,Q,Q
2023-03-15 13:47:18:713,0,1.0523,-5.20295,10.3877,Q,Q
2023-03-15 13:47:18:723,0,1.05364,-5.20516,10.3934,Q,Q
2023-03-15 13:47:18:733,0,1.05328,-5.21568,10.4063,Q,Q
2023-03-15 13:47:18:743,0,1.05621,-5.23071,10.4157,Q,Q
2023-03-15 13:47:18:753,0,1.05458,-5.24372,10.4236,Q,Q
2023-03-15 13:47:18:763,0,1.05016,-5.25195,10.4284,Q,Q
2023-03-15 13:47:18:773,0,1.04326,-5.26206,10.4307,Q,Q
2023-03-15 13:47:18:783,0,1.04165,-5.28089,10.4368,Q,Q
2023-03-15 13:47:18:793,0,1.0426,-5.31492,10.4559,Q,Q
2023-03-15 13:47:18:803,0,1.05605,-5.36659,10.4956,Q,Q
2023-03-15 13:47:18:813,0,1.078,-5.4331,10.5446,Q,Q
2023-03-15 13:47:18:823,0,1.10836,-5.49949,10.5988,Q,Q
2023-03-15 13:47:18:833,0,1.13766,-5.56324,10.6547,Q,Q
2023-03-15 13:47:18:843,0,1.16836,-5.61716,10.7075,Q,Q
2023-03-15 13:47:18:853,0,1.19428,-5.66289,10.7665,Q,Q
2023-03-15 13:47:18:863,0,1.21768,-5.7058,10.8229,Q,Q
2023-03-15 13:47:18:873,0,1.23349,-5.74383,10.8771,Q,Q
2023-03-15 13:47:18:883,0,1.24061,-5.78142,10.9317,Q,Q
2023-03-15 13:47:18:893,0,1.24508,-5.81441,10.9782,Q,Q
2023-03-15 13:47:18:903,0,1.24445,-5.84059,11.0181,Q,Q
2023-03-15 13:47:18:913,0,1.24617,-5.87057,11.0497,Q,Q
2023-03-15 13:47:18:923,0,1.24197,-5.89588,11.0718,Q,Q
2023-03-15 13:47:18:933,0,1.23384,-5.92165,11.0853,Q,Q
2023-03-15 13:47:18:943,0,1.21717,-5.94349,11.0932,Q,Q
2023-03-15 13:47:18:953,0,1.20295,-5.96357,11.0996,Q,Q
2023-03-15 13:47:18:963,0,1.17936,-5.98729,11.1057,Q,Q
2023-03-15 13:47:18:973,0,1.14882,-6.01881,11.1155,Q,Q
2023-03-15 13:47:18:983,0,1.11292,-6.06259,11.1376,Q,Q
2023-03-15 13:47:18:993,0,1.07323,-6.11616,11.1685,Q,Q
2023-03-15 13:47:19:3,0,1.03479,-6.17207,11.2011,Q,Q
2023-03-15 13:47:19:13,0,0.998103,-6.22547,11.2375,Q,Q
2023-03-15 13:47:19:23,0,0.963159,-6.26445,11.2733,Q,Q
2023-03-15 13:47:19:33,0,0.933981,-6.29775,11.3152,Q,Q
2023-03-15 13:47:19:43,0,0.902456,-6.3308,11.368,Q,Q
2023-03-15 13:47:19:53,0,0.873448,-6.36749,11.4256,Q,Q
2023-03-15 13:47:19:63,0,0.842231,-6.39603,11.4879,Q,Q
2023-03-15 13:47:19:73,0,0.81332,-6.41961,11.5494,Q,Q
2023-03-15 13:47:19:83,0,0.788771,-6.43936,11.6087,Q,Q
2023-03-15 13:47:19:93,0,0.768254,-6.44655,11.6685,Q,Q
2023-03-15 13:47:19:103,0,0.748846,-6.44165,11.73,Q,Q
2023-03-15 13:47:19:113,0,0.729047,-6.42913,11.7941,Q,Q
2023-03-15 13:47:19:123,0,0.702812,-6.40811,11.8575,Q,Q
2023-03-15 13:47:19:133,0,0.674293,-6.37737,11.9186,Q,Q
2023-03-15 13:47:19:143,0,0.645609,-6.34974,11.9781,Q,Q
2023-03-15 13:47:19:153,0,0.60844,-6.31784,12.0368,Q,Q
2023-03-15 13:47:19:163,0,0.57222,-6.27998,12.0908,Q,Q
2023-03-15 13:47:19:173,0,0.543599,-6.23535,12.1351,Q,Q
2023-03-15 13:47:19:183,0,0.52612,-6.18449,12.1726,Q,Q
2023-03-15 13:47:19:193,0,0.515948,-6.13448,12.1976,Q,Q
2023-03-15 13:47:19:203,0,0.504673,-6.08145,12.2128,Q,Q
2023-03-15 13:47:19:213,0,0.501809,-6.03125,12.2114,Q,Q
2023-03-15 13:47:19:223,0,0.498061,-5.98405,12.1974,Q,Q
2023-03-15 13:47:19:233,0,0.498456,-5.93869,12.17,Q,Q
2023-03-15 13:47:19:243,0,0.498908,-5.89624,12.1279,Q,Q
2023-03-15 13:47:19:253,0,0.496201,-5.85403,12.0721,Q,Q
2023-03-15 13:47:19:263,0,0.493693,-5.81873,12.0054,Q,Q
2023-03-15 13:47:19:273,0,0.483194,-5.7873,11.9296,Q,Q
2023-03-15 13:47:19:283,0,0.476449,-5.76135,11.8448,Q,Q
2023-03-15 13:47:19:293,0,0.472605,-5.74026,11.7542,Q,Q
2023-03-15 13:47:19:303,0,0.472992,-5.71691,11.6591,Q,Q
2023-03-15 13:47:19:313,0,0.477046,-5.6946,11.554,Q,Q
2023-03-15 13:47:19:323,0,0.481403,-5.67298,11.4465,Q,Q
2023-03-15 13:47:19:333,0,0.48095,-5.64958,11.3333,Q,Q
2023-03-15 13:47:19:343,0,0.477813,-5.62619,11.2157,Q,Q
2023-03-15 13:47:19:353,0,0.474942,-5.59459,11.0901,Q,Q
2023-03-15 13:47:19:363,0,0.467182,-5.55729,10.957,Q,Q
2023-03-15 13:47:19:373,0,0.46048,-5.51568,10.8145,Q,Q
2023-03-15 13:47:19:383,0,0.452625,-5.47205,10.666,Q,Q
2023-03-15 13:47:19:393,0,0.454134,-5.42367,10.5132,Q,Q
2023-03-15 13:47:19:403,0,0.462088,-5.37603,10.3557,Q,Q
2023-03-15 13:47:19:413,0,0.474851,-5.32969,10.1956,Q,Q
2023-03-15 13:47:19:423,0,0.491475,-5.28842,10.0396,Q,Q
2023-03-15 13:47:19:433,0,0.510909,-5.24696,9.88393,Q,Q
2023-03-15 13:47:19:443,0,0.534139,-5.21567,9.73502,Q,Q
2023-03-15 13:47:19:453,0,0.555933,-5.1914,9.59854,Q,Q
2023-03-15 13:47:19:463,0,0.581128,-5.16879,9.47228,Q,Q
2023-03-15 13:47:19:473,0,0.602214,-5.15363,9.35552,Q,Q
2023-03-15 13:47:19:483,0,0.623449,-5.14192,9.25097,Q,Q
2023-03-15 13:47:19:493,0,0.642389,-5.13352,9.15523,Q,Q
2023-03-15 13:47:19:503,0,0.659704,-5.12902,9.07879,Q,Q
2023-03-15 13:47:19:513,0,0.671609,-5.12638,9.01195,Q,Q
2023-03-15 13:47:19:523,0,0.670956,-5.12467,8.96285,Q,Q
2023-03-15 13:47:19:533,0,0.668729,-5.12171,8.92803,Q,Q
2023-03-15 13:47:19:543,0,0.656798,-5.11251,8.90563,Q,Q
2023-03-15 13:47:19:553,0,0.63592,-5.1042,8.89855,Q,Q
2023-03-15 13:47:19:563,0,0.610996,-5.09378,8.89743,Q,Q
2023-03-15 13:47:19:573,0,0.587717,-5.08025,8.906,Q,Q
2023-03-15 13:47:19:583,0,0.562941,-5.06472,8.91948,Q,Q
2023-03-15 13:47:19:593,0,0.543599,-5.04952,8.93978,Q,Q
2023-03-15 13:47:19:603,0,0.526248,-5.03744,8.9628,Q,Q
2023-03-15 13:47:19:613,0,0.51287,-5.02196,8.99061,Q,Q
2023-03-15 13:47:19:623,0,0.503685,-5.01337,9.02585,Q,Q
2023-03-15 13:47:19:633,0,0.494472,-5.00732,9.06535,Q,Q
2023-03-15 13:47:19:643,0,0.484495,-4.9918,9.10474,Q,Q
2023-03-15 13:47:19:653,0,0.477574,-4.97413,9.14254,Q,Q
2023-03-15 13:47:19:663,0,0.472582,-4.95747,9.18118,Q,Q
2023-03-15 13:47:19:673,0,0.46125,-4.93491,9.21865,Q,Q
2023-03-15 13:47:19:683,0,0.443959,-4.91382,9.25446,Q,Q
2023-03-15 13:47:19:693,0,0.425053,-4.88822,9.28624,Q,Q
2023-03-15 13:47:19:703,0,0.407548,-4.8665,9.31684,Q,Q
2023-03-15 13:47:19:713,0,0.39557,-4.84667,9.34672,Q,Q
2023-03-15 13:47:19:723,0,0.395453,-4.83279,9.37095,Q,Q
2023-03-15 13:47:19:733,0,0.399533,-4.82448,9.402,Q,Q
2023-03-15 13:47:19:742,0,0.411506,-4.82806,9.43673,Q,Q
2023-03-15 13:47:19:753,0,0.419502,-4.83587,9.47876,Q,Q
2023-03-15 13:47:19:763,0,0.425698,-4.85729,9.52136,Q,Q
2023-03-15 13:47:19:773,0,0.43208,-4.88162,9.56552,Q,Q
2023-03-15 13:47:19:783,0,0.434363,-4.90713,9.60382,Q,Q
2023-03-15 13:47:19:793,0,0.43756,-4.93769,9.64309,Q,Q
2023-03-15 13:47:19:803,0,0.43434,-4.97068,9.68124,Q,Q
2023-03-15 13:47:19:813,0,0.429858,-5.00671,9.72034,Q,Q
2023-03-15 13:47:19:823,0,0.418553,-5.04283,9.75487,Q,Q
2023-03-15 13:47:19:833,0,0.409748,-5.07173,9.78703,Q,Q
2023-03-15 13:47:19:843,0,0.399568,-5.09319,9.81515,Q,Q
2023-03-15 13:47:19:853,0,0.394243,-5.10892,9.83971,Q,Q
2023-03-15 13:47:19:863,0,0.387872,-5.11631,9.86345,Q,Q
2023-03-15 13:47:19:873,0,0.387015,-5.12009,9.87997,Q,Q
2023-03-15 13:47:19:883,0,0.388372,-5.11872,9.89433,Q,Q
2023-03-15 13:47:19:893,0,0.39298,-5.11561,9.90729,Q,Q
2023-03-15 13:47:19:903,0,0.398678,-5.1093,9.91668,Q,Q
2023-03-15 13:47:19:913,0,0.40367,-5.09374,9.92375,Q,Q
2023-03-15 13:47:19:923,0,0.409816,-5.07548,9.93168,Q,Q
2023-03-15 13:47:19:933,0,0.413494,-5.05827,9.94337,Q,Q
2023-03-15 13:47:19:943,0,0.414421,-5.03923,9.95552,Q,Q
2023-03-15 13:47:19:953,0,0.413197,-5.01993,9.96864,Q,Q
2023-03-15 13:47:19:963,0,0.404338,-4.99991,9.98717,Q,Q
2023-03-15 13:47:19:973,0,0.390133,-4.97878,10.0034,Q,Q
2023-03-15 13:47:19:983,0,0.372037,-4.95716,10.0212,Q,Q
2023-03-15 13:47:19:993,0,0.349005,-4.93537,10.0402,Q,Q
2023-03-15 13:47:20:3,0,0.318533,-4.91293,10.0583,Q,Q
2023-03-15 13:47:20:13,0,0.279083,-4.8915,10.0743,Q,Q
2023-03-15 13:47:20:23,0,0.241239,-4.87197,10.0845,Q,Q
2023-03-15 13:47:20:33,0,0.209428,-4.86596,10.0937,Q,Q
2023-03-15 13:47:20:43,0,0.177278,-4.86289,10.1033,Q,Q
2023-03-15 13:47:20:53,0,0.14933,-4.86149,10.1063,Q,Q
2023-03-15 13:47:20:63,0,0.129819,-4.86063,10.0988,Q,Q
2023-03-15 13:47:20:73,0,0.116524,-4.86325,10.0895,Q,Q
2023-03-15 13:47:20:83,0,0.111103,-4.86166,10.0733,Q,Q
2023-03-15 13:47:20:93,0,0.104423,-4.86464,10.0492,Q,Q
2023-03-15 13:47:20:103,0,0.0951158,-4.87135,10.0209,Q,Q
2023-03-15 13:47:20:113,0,0.0903452,-4.8735,9.9872,Q,Q
2023-03-15 13:47:20:123,0,0.0905139,-4.87747,9.94934,Q,Q
2023-03-15 13:47:20:133,0,0.0953096,-4.88544,9.91243,Q,Q
2023-03-15 13:47:20:143,0,0.106273,-4.88647,9.88241,Q,Q
2023-03-15 13:47:20:153,0,0.122279,-4.89303,9.8514,Q,Q
2023-03-15 13:47:20:163,0,0.145657,-4.90381,9.82733,Q,Q
2023-03-15 13:47:20:173,0,0.16919,-4.91741,9.80794,Q,Q
2023-03-15 13:47:20:183,0,0.196248,-4.93365,9.79456,Q,Q
2023-03-15 13:47:20:193,0,0.222431,-4.95531,9.7919,Q,Q
2023-03-15 13:47:20:203,0,0.245912,-4.97717,9.7887,Q,Q
2023-03-15 13:47:20:213,0,0.268689,-4.99697,9.79001,Q,Q
2023-03-15 13:47:20:223,0,0.284354,-5.01199,9.79323,Q,Q
2023-03-15 13:47:20:233,0,0.297147,-5.02323,9.79981,Q,Q
2023-03-15 13:47:20:243,0,0.301092,-5.03292,9.80914,Q,Q
2023-03-15 13:47:20:253,0,0.302569,-5.03841,9.822,Q,Q
2023-03-15 13:47:20:263,0,0.306582,-5.04512,9.82921,Q,Q
2023-03-15 13:47:20:273,0,0.310288,-5.052,9.83877,Q,Q
2023-03-15 13:47:20:283,0,0.312464,-5.05548,9.84968,Q,Q
2023-03-15 13:47:20:293,0,0.309398,-5.05558,9.85367,Q,Q
2023-03-15 13:47:20:303,0,0.308542,-5.05184,9.85286,Q,Q
2023-03-15 13:47:20:313,0,0.302432,-5.04104,9.84244,Q,Q
2023-03-15 13:47:20:323,0,0.291914,-5.02894,9.82503,Q,Q
2023-03-15 13:47:20:333,0,0.275748,-5.01516,9.79804,Q,Q
2023-03-15 13:47:20:343,0,0.253213,-4.99782,9.76606,Q,Q
2023-03-15 13:47:20:353,0,0.232297,-4.98494,9.72429,Q,Q
2023-03-15 13:47:20:363,0,0.216452,-4.97533,9.68183,Q,Q
2023-03-15 13:47:20:373,0,0.207926,-4.97406,9.63595,Q,Q
2023-03-15 13:47:20:383,0,0.207478,-4.97479,9.5897,Q,Q
2023-03-15 13:47:20:393,0,0.210962,-4.98044,9.55171,Q,Q
2023-03-15 13:47:20:403,0,0.218218,-4.98539,9.51806,Q,Q
2023-03-15 13:47:20:413,0,0.226487,-4.99492,9.48521,Q,Q
2023-03-15 13:47:20:423,0,0.231887,-5.00567,9.45968,Q,Q
2023-03-15 13:47:20:433,0,0.237442,-5.01681,9.43051,Q,Q
2023-03-15 13:47:20:443,0,0.238722,-5.02378,9.40514,Q,Q
2023-03-15 13:47:20:453,0,0.238527,-5.03076,9.37969,Q,Q
2023-03-15 13:47:20:463,0,0.236303,-5.03486,9.35635,Q,Q
2023-03-15 13:47:20:473,0,0.236483,-5.0382,9.32922,Q,Q
2023-03-15 13:47:20:483,0,0.237321,-5.04399,9.30424,Q,Q
2023-03-15 13:47:20:493,0,0.241786,-5.05482,9.28296,Q,Q
2023-03-15 13:47:20:503,0,0.245957,-5.06825,9.26429,Q,Q
2023-03-15 13:47:20:513,0,0.245519,-5.08265,9.24727,Q,Q
2023-03-15 13:47:20:523,0,0.240257,-5.10242,9.23155,Q,Q
2023-03-15 13:47:20:533,0,0.230806,-5.12057,9.21787,Q,Q
2023-03-15 13:47:20:543,0,0.228301,-5.13935,9.19971,Q,Q
2023-03-15 13:47:20:553,0,0.221148,-5.15842,9.18425,Q,Q
2023-03-15 13:47:20:563,0,0.215427,-5.17471,9.16524,Q,Q
2023-03-15 13:47:20:573,0,0.214644,-5.18759,9.14866,Q,Q
2023-03-15 13:47:20:583,0,0.213177,-5.19446,9.12545,Q,Q
2023-03-15 13:47:20:593,0,0.213192,-5.20176,9.09771,Q,Q
2023-03-15 13:47:20:603,0,0.218309,-5.20334,9.07019,Q,Q
2023-03-15 13:47:20:613,0,0.223768,-5.20497,9.0375,Q,Q
2023-03-15 13:47:20:623,0,0.233211,-5.20422,9.00853,Q,Q
2023-03-15 13:47:20:633,0,0.241879,-5.20488,8.98036,Q,Q
2023-03-15 13:47:20:643,0,0.2477,-5.20243,8.94873,Q,Q
2023-03-15 13:47:20:653,0,0.246774,-5.19681,8.91534,Q,Q
2023-03-15 13:47:20:663,0,0.248184,-5.18846,8.88191,Q,Q
2023-03-15 13:47:20:673,0,0.248208,-5.18135,8.85122,Q,Q
2023-03-15 13:47:20:683,0,0.24469,-5.17141,8.82078,Q,Q
2023-03-15 13:47:20:693,0,0.2357,-5.16267,8.7872,Q,Q
2023-03-15 13:47:20:703,0,0.222941,-5.15118,8.75194,Q,Q
2023-03-15 13:47:20:713,0,0.217735,-5.13855,8.70945,Q,Q
2023-03-15 13:47:20:723,0,0.213068,-5.13424,8.6719,Q,Q
2023-03-15 13:47:20:733,0,0.211684,-5.12908,8.63416,Q,Q
2023-03-15 13:47:20:743,0,0.212215,-5.12768,8.60052,Q,Q
2023-03-15 13:47:20:753,0,0.215183,-5.12835,8.56596,Q,Q
2023-03-15 13:47:20:763,0,0.218734,-5.12713,8.53258,Q,Q
2023-03-15 13:47:20:773,0,0.225787,-5.12623,8.50395,Q,Q
2023-03-15 13:47:20:783,0,0.229742,-5.12983,8.47616,Q,Q
2023-03-15 13:47:20:793,0,0.233057,-5.12791,8.45021,Q,Q
2023-03-15 13:47:20:803,0,0.233678,-5.13181,8.42801,Q,Q
2023-03-15 13:47:20:813,0,0.236186,-5.13398,8.40685,Q,Q
2023-03-15 13:47:20:823,0,0.240825,-5.13437,8.3867,Q,Q
2023-03-15 13:47:20:833,0,0.239027,-5.13426,8.36759,Q,Q
2023-03-15 13:47:20:843,0,0.239623,-5.1369,8.35057,Q,Q
2023-03-15 13:47:20:853,0,0.238024,-5.141,8.33616,Q,Q
2023-03-15 13:47:20:863,0,0.230882,-5.14471,8.32131,Q,Q
2023-03-15 13:47:20:873,0,0.226471,-5.14993,8.31279,Q,Q
2023-03-15 13:47:20:883,0,0.218458,-5.1528,8.30107,Q,Q
2023-03-15 13:47:20:893,0,0.211623,-5.157,8.29439,Q,Q
2023-03-15 13:47:20:903,0,0.203224,-5.162,8.28608,Q,Q
2023-03-15 13:47:20:913,0,0.192672,-5.16518,8.27935,Q,Q
2023-03-15 13:47:20:923,0,0.182773,-5.17089,8.27215,Q,Q
2023-03-15 13:47:20:933,0,0.174054,-5.17457,8.26594,Q,Q
2023-03-15 13:47:20:943,0,0.169122,-5.17339,8.26138,Q,Q
2023-03-15 13:47:20:953,0,0.161162,-5.17323,8.25868,Q,Q
2023-03-15 13:47:20:963,0,0.148918,-5.17504,8.25298,Q,Q
2023-03-15 13:47:20:973,0,0.138418,-5.176,8.24859,Q,Q
2023-03-15 13:47:20:983,0,0.129215,-5.17952,8.23778,Q,Q
2023-03-15 13:47:20:993,0,0.119959,-5.17934,8.22626,Q,Q
2023-03-15 13:47:21:3,0,0.110539,-5.18287,8.21606,Q,Q
2023-03-15 13:47:21:13,0,0.102718,-5.18329,8.20806,Q,Q
2023-03-15 13:47:21:23,0,0.097352,-5.18447,8.19688,Q,Q
2023-03-15 13:47:21:33,0,0.0916648,-5.18463,8.18939,Q,Q
2023-03-15 13:47:21:43,0,0.0899968,-5.18543,8.17803,Q,Q
2023-03-15 13:47:21:53,0,0.0873851,-5.18486,8.17023,Q,Q
2023-03-15 13:47:21:63,0,0.0794103,-5.18167,8.15613,Q,Q
2023-03-15 13:47:21:73,0,0.0721368,-5.17814,8.14007,Q,Q
2023-03-15 13:47:21:83,0,0.0658565,-5.17333,8.12638,Q,Q
2023-03-15 13:47:21:93,0,0.0604744,-5.16677,8.11218,Q,Q
2023-03-15 13:47:21:103,0,0.0489415,-5.16022,8.09498,Q,Q
2023-03-15 13:47:21:113,0,0.0451466,-5.15365,8.07844,Q,Q
2023-03-15 13:47:21:123,0,0.0417567,-5.1441,8.06238,Q,Q
2023-03-15 13:47:21:133,0,0.0359281,-5.14214,8.04648,Q,Q
2023-03-15 13:47:21:143,0,0.0288659,-5.13701,8.0301,Q,Q
2023-03-15 13:47:21:153,0,0.023038,-5.13231,8.01641,Q,Q
2023-03-15 13:47:21:163,0,0.0217966,-5.129,7.99632,Q,Q
2023-03-15 13:47:21:173,0,0.0215857,-5.12865,7.98382,Q,Q
2023-03-15 13:47:21:183,0,0.0226029,-5.13381,7.97223,Q,Q
2023-03-15 13:47:21:193,0,0.0224502,-5.1414,7.9631,Q,Q
2023-03-15 13:47:21:203,0,0.0142155,-5.14794,7.95831,Q,Q
2023-03-15 13:47:21:213,0,0.00251244,-5.16242,7.95814,Q,Q
2023-03-15 13:47:21:223,0,-0.00837343,-5.17484,7.95714,Q,Q
2023-03-15 13:47:21:233,0,-0.018217,-5.17859,7.95546,Q,Q
2023-03-15 13:47:21:243,0,-0.0195472,-5.17919,7.95341,Q,Q
2023-03-15 13:47:21:253,0,-0.0238139,-5.17665,7.95009,Q,Q
2023-03-15 13:47:21:263,0,-0.0244186,-5.17413,7.95004,Q,Q
2023-03-15 13:47:21:273,0,-0.0236482,-5.17567,7.94876,Q,Q
2023-03-15 13:47:21:283,0,-0.0261009,-5.17391,7.94779,Q,Q
2023-03-15 13:47:21:293,0,-0.0252259,-5.17275,7.94208,Q,Q
2023-03-15 13:47:21:303,0,-0.0252351,-5.16987,7.93066,Q,Q
2023-03-15 13:47:21:313,0,-0.0279406,-5.17502,7.92357,Q,Q
2023-03-15 13:47:21:323,0,-0.0363105,-5.18065,7.91306,Q,Q
2023-03-15 13:47:21:333,0,-0.044954,-5.18704,7.89963,Q,Q
2023-03-15 13:47:21:343,0,-0.0502309,-5.19315,7.8829,Q,Q
2023-03-15 13:47:21:353,0,-0.0565573,-5.19168,7.86928,Q,Q
2023-03-15 13:47:21:363,0,-0.0605151,-5.18757,7.85104,Q,Q
2023-03-15 13:47:21:373,0,-0.0689835,-5.18048,7.83621,Q,Q
2023-03-15 13:47:21:383,0,-0.0736612,-5.17738,7.81824,Q,Q
2023-03-15 13:47:21:393,0,-0.0735046,-5.17318,7.80033,Q,Q
2023-03-15 13:47:21:403,0,-0.0750912,-5.17451,7.78327,Q,Q
2023-03-15 13:47:21:413,0,-0.0814094,-5.17894,7.77084,Q,Q
2023-03-15 13:47:21:423,0,-0.0868889,-5.18149,7.76375,Q,Q
2023-03-15 13:47:21:433,0,-0.0913019,-5.18574,7.75645,Q,Q
2023-03-15 13:47:21:443,0,-0.0925448,-5.1863,7.74652,Q,Q
2023-03-15 13:47:21:453,0,-0.0944467,-5.18431,7.73827,Q,Q
2023-03-15 13:47:21:463,0,-0.0949042,-5.1882,7.72855,Q,Q
2023-03-15 13:47:21:473,0,-0.0928833,-5.19068,7.72065,Q,Q
2023-03-15 13:47:21:483,0,-0.0933249,-5.19901,7.71297,Q,Q
2023-03-15 13:47:21:493,0,-0.0925072,-5.20463,7.707,Q,Q
2023-03-15 13:47:21:503,0,-0.0929378,-5.21106,7.69781,Q,Q
2023-03-15 13:47:21:513,0,-0.0873563,-5.21877,7.68661,Q,Q
2023-03-15 13:47:21:523,0,-0.0834224,-5.22535,7.67686,Q,Q
2023-03-15 13:47:21:533,0,-0.0762683,-5.23024,7.66583,Q,Q
2023-03-15 13:47:21:543,0,-0.068617,-5.23725,7.65788,Q,Q
2023-03-15 13:47:21:553,0,-0.0591283,-5.24511,7.64925,Q,Q
2023-03-15 13:47:21:563,0,-0.0515953,-5.24943,7.64275,Q,Q
2023-03-15 13:47:21:573,0,-0.0471057,-5.25491,7.63296,Q,Q
2023-03-15 13:47:21:583,0,-0.0438975,-5.26089,7.62305,Q,Q
2023-03-15 13:47:21:593,0,-0.042822,-5.26897,7.61231,Q,Q
2023-03-15 13:47:21:603,0,-0.0413026,-5.27745,7.60465,Q,Q
2023-03-15 13:47:21:613,0,-0.0391288,-5.28272,7.59631,Q,Q
2023-03-15 13:47:21:623,0,-0.0383297,-5.28587,7.59054,Q,Q
2023-03-15 13:47:21:633,0,-0.0350391,-5.28923,7.5828,Q,Q
2023-03-15 13:47:21:643,0,-0.0316385,-5.29207,7.57419,Q,Q
2023-03-15 13:47:21:653,0,-0.0280037,-5.2915,7.56537,Q,Q
2023-03-15 13:47:21:663,0,-0.0269415,-5.29404,7.56055,Q,Q
2023-03-15 13:47:21:673,0,-0.0216988,-5.29019,7.55473,Q,Q
2023-03-15 13:47:21:683,0,-0.0201499,-5.29137,7.55174,Q,Q
2023-03-15 13:47:21:693,0,-0.015101,-5.29429,7.54649,Q,Q
2023-03-15 13:47:21:703,0,-0.0147422,-5.29319,7.54327,Q,Q
2023-03-15 13:47:21:713,0,-0.0170626,-5.29429,7.53761,Q,Q
2023-03-15 13:47:21:723,0,-0.01809,-5.29556,7.53145,Q,Q
2023-03-15 13:47:21:733,0,-0.0163403,-5.2918,7.52651,Q,Q
2023-03-15 13:47:21:743,0,-0.0142643,-5.28908,7.51928,Q,Q
2023-03-15 13:47:21:753,0,-0.0129998,-5.28501,7.51224,Q,Q
2023-03-15 13:47:21:763,0,-0.0101494,-5.28736,7.50199,Q,Q
2023-03-15 13:47:21:773,0,-0.0115692,-5.28719,7.4931,Q,Q
2023-03-15 13:47:21:783,0,-0.0140781,-5.2861,7.48463,Q,Q
2023-03-15 13:47:21:793,0,-0.0154292,-5.28663,7.46921,Q,Q
2023-03-15 13:47:21:803,0,-0.0172174,-5.28645,7.45672,Q,Q
2023-03-15 13:47:21:813,0,-0.0171009,-5.28504,7.44197,Q,Q
2023-03-15 13:47:21:823,0,-0.0187081,-5.28453,7.42921,Q,Q
2023-03-15 13:47:21:833,0,-0.0148083,-5.28325,7.4133,Q,Q
2023-03-15 13:47:21:843,0,-0.0107021,-5.28734,7.39955,Q,Q
2023-03-15 13:47:21:853,0,-0.00193731,-5.2965,7.39385,Q,Q
2023-03-15 13:47:21:863,0,0.00426274,-5.30927,7.3937,Q,Q
2023-03-15 13:47:21:873,0,0.0102032,-5.32505,7.39901,Q,Q
2023-03-15 13:47:21:883,0,0.00862995,-5.33903,7.4038,Q,Q
2023-03-15 13:47:21:893,0,0.003341,-5.34699,7.41024,Q,Q
2023-03-15 13:47:21:903,0,-0.00101679,-5.35202,7.41727,Q,Q
2023-03-15 13:47:21:913,0,-0.00460049,-5.35668,7.42544,Q,Q
2023-03-15 13:47:21:923,0,-0.0109261,-5.35848,7.43338,Q,Q
2023-03-15 13:47:21:933,0,-0.0134901,-5.36174,7.44007,Q,Q
2023-03-15 13:47:21:943,0,-0.0116682,-5.36178,7.44879,Q,Q
2023-03-15 13:47:21:953,0,-0.00664785,-5.36255,7.45167,Q,Q
2023-03-15 13:47:21:963,0,-0.00315853,-5.36255,7.45288,Q,Q
2023-03-15 13:47:21:973,0,-0.00213869,-5.36266,7.45064,Q,Q
2023-03-15 13:47:21:983,0,0.00107784,-5.36016,7.44514,Q,Q
2023-03-15 13:47:21:993,0,0.00162132,-5.35636,7.43565,Q,Q
2023-03-15 13:47:22:3,0,-0.000924899,-5.35037,7.41992,Q,Q
2023-03-15 13:47:22:13,0,-0.00375779,-5.34336,7.40355,Q,Q
2023-03-15 13:47:22:23,0,-0.00723946,-5.33499,7.38316,Q,Q
2023-03-15 13:47:22:33,0,-0.00937049,-5.32926,7.36131,Q,Q
2023-03-15 13:47:22:43,0,-0.0110876,-5.32665,7.3447,Q,Q
2023-03-15 13:47:22:53,0,-0.0164887,-5.31915,7.32377,Q,Q
2023-03-15 13:47:22:63,0,-0.0177484,-5.31014,7.3019,Q,Q
2023-03-15 13:47:22:73,0,-0.0131045,-5.30264,7.27921,Q,Q
2023-03-15 13:47:22:83,0,-0.00993698,-5.29408,7.2613,Q,Q
2023-03-15 13:47:22:94,0,-0.00572943,-5.28908,7.24758,Q,Q
2023-03-15 13:47:22:103,0,-0.00576614,-5.28928,7.23274,Q,Q
2023-03-15 13:47:22:113,0,-0.00619798,-5.28736,7.2203,Q,Q
2023-03-15 13:47:22:123,0,-0.00471271,-5.28651,7.20854,Q,Q
2023-03-15 13:47:22:133,0,-0.000459965,-5.28395,7.19883,Q,Q
2023-03-15 13:47:22:143,0,0.00142327,-5.28749,7.19085,Q,Q
2023-03-15 13:47:22:154,0,0.00686425,-5.29135,7.18452,Q,Q
2023-03-15 13:47:22:163,0,0.0138076,-5.29311,7.17655,Q,Q
2023-03-15 13:47:22:173,0,0.0166925,-5.29687,7.17002,Q,Q
2023-03-15 13:47:22:183,0,0.0202614,-5.30229,7.16502,Q,Q
2023-03-15 13:47:22:194,0,0.0275806,-5.30673,7.1631,Q,Q
2023-03-15 13:47:22:203,0,0.0339128,-5.31623,7.16146,Q,Q
2023-03-15 13:47:22:214,0,0.0419582,-5.32783,7.15842,Q,Q
2023-03-15 13:47:22:224,0,0.0477291,-5.33845,7.15854,Q,Q
2023-03-15 13:47:22:233,0,0.053762,-5.35158,7.16104,Q,Q
2023-03-15 13:47:22:243,0,0.0572334,-5.36782,7.16551,Q,Q
2023-03-15 13:47:22:253,0,0.0583362,-5.38577,7.16578,Q,Q
2023-03-15 13:47:22:263,0,0.0576387,-5.40251,7.16781,Q,Q
2023-03-15 13:47:22:273,0,0.0530528,-5.41694,7.17277,Q,Q
2023-03-15 13:47:22:283,0,0.0493853,-5.43524,7.18092,Q,Q
2023-03-15 13:47:22:293,0,0.0458026,-5.45614,7.18979,Q,Q
2023-03-15 13:47:22:303,0,0.0414922,-5.47414,7.19999,Q,Q
2023-03-15 13:47:22:314,0,0.0385945,-5.49381,7.2089,Q,Q
2023-03-15 13:47:22:323,0,0.0353547,-5.5119,7.21949,Q,Q
2023-03-15 13:47:22:333,0,0.0341435,-5.53125,7.23251,Q,Q
2023-03-15 13:47:22:343,0,0.0320347,-5.54781,7.24506,Q,Q
2023-03-15 13:47:22:353,0,0.0352933,-5.56443,7.25744,Q,Q
2023-03-15 13:47:22:363,0,0.039157,-5.58211,7.27293,Q,Q
2023-03-15 13:47:22:374,0,0.0399777,-5.59755,7.28974,Q,Q
2023-03-15 13:47:22:383,0,0.0400895,-5.61398,7.30365,Q,Q
2023-03-15 13:47:22:393,0,0.0423452,-5.63103,7.31467,Q,Q
2023-03-15 13:47:22:403,0,0.0462272,-5.64635,7.32236,Q,Q
2023-03-15 13:47:22:413,0,0.049719,-5.66071,7.32975,Q,Q
2023-03-15 13:47:22:423,0,0.0534515,-5.67357,7.33685,Q,Q
2023-03-15 13:47:22:433,0,0.0618364,-5.68581,7.3386,Q,Q
2023-03-15 13:47:22:443,0,0.0722416,-5.69638,7.34272,Q,Q
2023-03-15 13:47:22:454,0,0.0843455,-5.70604,7.34608,Q,Q
2023-03-15 13:47:22:463,0,0.0979535,-5.71512,7.34754,Q,Q
2023-03-15 13:47:22:473,0,0.114266,-5.72309,7.35073,Q,Q
2023-03-15 13:47:22:483,0,0.13067,-5.72895,7.35173,Q,Q
2023-03-15 13:47:22:493,0,0.137586,-5.73682,7.35453,Q,Q
2023-03-15 13:47:22:503,0,0.142735,-5.74151,7.35645,Q,Q
2023-03-15 13:47:22:513,0,0.151244,-5.74432,7.35564,Q,Q
2023-03-15 13:47:22:523,0,0.165268,-5.75367,7.35483,Q,Q
2023-03-15 13:47:22:533,0,0.181586,-5.76669,7.36011,Q,Q
2023-03-15 13:47:22:543,0,0.202788,-5.78333,7.36871,Q,Q
2023-03-15 13:47:22:553,0,0.221302,-5.79884,7.38248,Q,Q
2023-03-15 13:47:22:563,0,0.232768,-5.81407,7.39847,Q,Q
2023-03-15 13:47:22:573,0,0.236364,-5.82899,7.41506,Q,Q
2023-03-15 13:47:22:583,0,0.232098,-5.84745,7.43498,Q,Q
2023-03-15 13:47:22:593,0,0.21997,-5.86195,7.4528,Q,Q
2023-03-15 13:47:22:603,0,0.212549,-5.87585,7.47366,Q,Q
2023-03-15 13:47:22:613,0,0.206884,-5.88697,7.48589,Q,Q
2023-03-15 13:47:22:623,0,0.202712,-5.89662,7.50354,Q,Q
2023-03-15 13:47:22:633,0,0.2022,-5.90909,7.51283,Q,Q
2023-03-15 13:47:22:643,0,0.2029,-5.9197,7.51906,Q,Q
2023-03-15 13:47:22:654,0,0.203451,-5.9326,7.51951,Q,Q
2023-03-15 13:47:22:663,0,0.205835,-5.94537,7.51401,Q,Q
2023-03-15 13:47:22:673,0,0.201854,-5.95516,7.50488,Q,Q
2023-03-15 13:47:22:683,0,0.195876,-5.965,7.49636,Q,Q
2023-03-15 13:47:22:693,0,0.194055,-5.97385,7.48152,Q,Q
2023-03-15 13:47:22:703,0,0.192343,-5.98277,7.46635,Q,Q
2023-03-15 13:47:22:713,0,0.189776,-5.99168,7.45168,Q,Q
2023-03-15 13:47:22:723,0,0.18237,-5.995,7.43907,Q,Q
2023-03-15 13:47:22:733,0,0.175109,-5.99775,7.42885,Q,Q
2023-03-15 13:47:22:743,0,0.17479,-5.99987,7.41785,Q,Q
2023-03-15 13:47:22:753,0,0.183781,-6.00362,7.40906,Q,Q
2023-03-15 13:47:22:763,0,0.18891,-6.0123,7.40255,Q,Q
2023-03-15 13:47:22:774,0,0.196447,-6.02043,7.40419,Q,Q
2023-03-15 13:47:22:783,0,0.203118,-6.02786,7.40685,Q,Q
2023-03-15 13:47:22:794,0,0.208471,-6.0331,7.40878,Q,Q
2023-03-15 13:47:22:803,0,0.2143,-6.04059,7.41408,Q,Q
2023-03-15 13:47:22:814,0,0.220496,-6.04625,7.41642,Q,Q
2023-03-15 13:47:22:824,0,0.227182,-6.05209,7.41841,Q,Q
2023-03-15 13:47:22:833,0,0.232882,-6.05902,7.42174,Q,Q
2023-03-15 13:47:22:843,0,0.238218,-6.07248,7.42845,Q,Q
2023-03-15 13:47:22:853,0,0.245683,-6.08742,7.43562,Q,Q
2023-03-15 13:47:22:863,0,0.251068,-6.1017,7.44224,Q,Q
2023-03-15 13:47:22:874,0,0.253277,-6.11645,7.44637,Q,Q
2023-03-15 13:47:22:884,0,0.259071,-6.13206,7.45146,Q,Q
2023-03-15 13:47:22:894,0,0.259567,-6.14682,7.45733,Q,Q
2023-03-15 13:47:22:904,0,0.260351,-6.16342,7.46581,Q,Q
2023-03-15 13:47:22:914,0,0.260566,-6.17575,7.47191,Q,Q
2023-03-15 13:47:22:923,0,0.260538,-6.18914,7.4735,Q,Q
2023-03-15 13:47:22:934,0,0.261542,-6.20029,7.47731,Q,Q
2023-03-15 13:47:22:944,0,0.258877,-6.21331,7.48184,Q,Q
2023-03-15 13:47:22:954,0,0.250103,-6.2297,7.48896,Q,Q
2023-03-15 13:47:22:963,0,0.237898,-6.23965,7.49226,Q,Q
2023-03-15 13:47:22:974,0,0.226801,-6.24893,7.49551,Q,Q
2023-03-15 13:47:22:983,0,0.221319,-6.25556,7.49954,Q,Q
2023-03-15 13:47:22:993,0,0.212882,-6.25985,7.50688,Q,Q
2023-03-15 13:47:23:3,0,0.204103,-6.26446,7.50858,Q,Q
2023-03-15 13:47:23:13,0,0.195176,-6.26867,7.51194,Q,Q
2023-03-15 13:47:23:23,0,0.187929,-6.27402,7.51654,Q,Q
2023-03-15 13:47:23:33,0,0.181513,-6.27847,7.51523,Q,Q
2023-03-15 13:47:23:43,0,0.176281,-6.2825,7.51194,Q,Q
2023-03-15 13:47:23:53,0,0.17671,-6.28469,7.50669,Q,Q
2023-03-15 13:47:23:64,0,0.17712,-6.28424,7.50498,Q,Q
2023-03-15 13:47:23:73,0,0.17489,-6.28351,7.49987,Q,Q
2023-03-15 13:47:23:83,0,0.174708,-6.28624,7.49701,Q,Q
2023-03-15 13:47:23:94,0,0.173458,-6.28183,7.493,Q,Q
2023-03-15 13:47:23:104,0,0.172515,-6.27975,7.48307,Q,Q
2023-03-15 13:47:23:113,0,0.174897,-6.27137,7.47518,Q,Q
2023-03-15 13:47:23:123,0,0.178734,-6.26498,7.46471,Q,Q
2023-03-15 13:47:23:134,0,0.181322,-6.25663,7.45087,Q,Q
2023-03-15 13:47:23:143,0,0.186304,-6.25161,7.44082,Q,Q
2023-03-15 13:47:23:154,0,0.191238,-6.24797,7.42855,Q,Q
2023-03-15 13:47:23:164,0,0.195091,-6.24411,7.41941,Q,Q
2023-03-15 13:47:23:174,0,0.198333,-6.24257,7.40587,Q,Q
2023-03-15 13:47:23:184,0,0.200291,-6.23681,7.39084,Q,Q
2023-03-15 13:47:23:194,0,0.200865,-6.2325,7.37597,Q,Q
2023-03-15 13:47:23:204,0,0.201152,-6.23015,7.36028,Q,Q
2023-03-15 13:47:23:214,0,0.206527,-6.23105,7.34322,Q,Q
2023-03-15 13:47:23:223,0,0.209154,-6.23988,7.33031,Q,Q
2023-03-15 13:47:23:234,0,0.2171,-6.24716,7.32179,Q,Q
2023-03-15 13:47:23:244,0,0.219858,-6.2646,7.32104,Q,Q
2023-03-15 13:47:23:254,0,0.211861,-6.27699,7.32155,Q,Q
2023-03-15 13:47:23:264,0,0.208102,-6.29052,7.31809,Q,Q
2023-03-15 13:47:23:274,0,0.19753,-6.30288,7.31843,Q,Q
2023-03-15 13:47:23:284,0,0.186809,-6.30929,7.31606,Q,Q
2023-03-15 13:47:23:294,0,0.175604,-6.31015,7.31214,Q,Q
2023-03-15 13:47:23:304,0,0.16831,-6.31187,7.31028,Q,Q
2023-03-15 13:47:23:314,0,0.158519,-6.31277,7.30601,Q,Q
