Timestamp_cmd,imu_cmd,roll_delta,pitch_delta,yaw_delta,voice_type,voice_length
2023-03-15 20:34:59:531,0,-54.586,2.19921,147.916,Q,Q
2023-03-15 20:34:59:540,0,-54.5825,2.2003,147.919,Q,Q
2023-03-15 20:34:59:551,0,-54.5813,2.1994,147.922,Q,Q
2023-03-15 20:34:59:561,0,-54.5809,2.20095,147.924,Q,Q
2023-03-15 20:34:59:571,0,-54.5822,2.20091,147.923,Q,Q
2023-03-15 20:34:59:581,0,-54.582,2.20212,147.921,Q,Q
2023-03-15 20:34:59:591,0,-54.5801,2.19952,147.923,Q,Q
2023-03-15 20:34:59:601,0,-54.5818,2.20105,147.922,Q,Q
2023-03-15 20:34:59:612,0,-54.5821,2.20248,147.921,Q,Q
2023-03-15 20:34:59:622,0,-54.5825,2.20469,147.92,Q,Q
2023-03-15 20:34:59:632,0,-54.5811,2.20469,147.919,Q,Q
2023-03-15 20:34:59:642,0,-54.5812,2.20392,147.922,Q,Q
2023-03-15 20:34:59:652,0,-54.5823,2.20551,147.924,Q,Q
2023-03-15 20:34:59:662,0,-54.5815,2.20475,147.924,Q,Q
2023-03-15 20:34:59:672,0,-54.5824,2.20395,147.923,Q,Q
2023-03-15 20:34:59:682,0,-54.582,2.20589,147.922,Q,Q
2023-03-15 20:34:59:693,0,-54.5808,2.20654,147.92,Q,Q
2023-03-15 20:34:59:703,0,-54.5779,2.20723,147.922,Q,Q
2023-03-15 20:34:59:713,0,-54.5766,2.20612,147.92,Q,Q
2023-03-15 20:34:59:723,0,-54.5793,2.20471,147.92,Q,Q
2023-03-15 20:34:59:733,0,-54.578,2.20591,147.922,Q,Q
2023-03-15 20:34:59:743,0,-54.5769,2.20569,147.924,Q,Q
2023-03-15 20:34:59:753,0,-54.5766,2.20865,147.924,Q,Q
2023-03-15 20:34:59:763,0,-54.5769,2.20917,147.925,Q,Q
2023-03-15 20:34:59:773,0,-54.5772,2.20738,147.922,Q,Q
2023-03-15 20:34:59:783,0,-54.5741,2.2032,147.921,Q,Q
2023-03-15 20:34:59:794,0,-54.5715,2.20231,147.921,Q,Q
2023-03-15 20:34:59:804,0,-54.5731,2.20191,147.924,Q,Q
2023-03-15 20:34:59:814,0,-54.5722,2.20283,147.925,Q,Q
2023-03-15 20:34:59:824,0,-54.5701,2.20188,147.925,Q,Q
2023-03-15 20:34:59:834,0,-54.5672,2.20239,147.928,Q,Q
2023-03-15 20:34:59:844,0,-54.5672,2.20131,147.928,Q,Q
2023-03-15 20:34:59:854,0,-54.5676,2.20101,147.927,Q,Q
2023-03-15 20:34:59:864,0,-54.5675,2.20341,147.925,Q,Q
2023-03-15 20:34:59:875,0,-54.568,2.20468,147.923,Q,Q
2023-03-15 20:34:59:885,0,-54.5676,2.20621,147.922,Q,Q
2023-03-15 20:34:59:895,0,-54.567,2.20742,147.924,Q,Q
2023-03-15 20:34:59:905,0,-54.5668,2.20735,147.925,Q,Q
2023-03-15 20:34:59:915,0,-54.5632,2.20706,147.925,Q,Q
2023-03-15 20:34:59:925,0,-54.5626,2.20745,147.925,Q,Q
2023-03-15 20:34:59:935,0,-54.5596,2.20671,147.926,Q,Q
2023-03-15 20:34:59:945,0,-54.558,2.20492,147.925,Q,Q
2023-03-15 20:34:59:955,0,-54.5594,2.2033,147.928,Q,Q
2023-03-15 20:34:59:966,0,-54.5571,2.20235,147.927,Q,Q
2023-03-15 20:34:59:976,0,-54.5559,2.20037,147.927,Q,Q
2023-03-15 20:34:59:986,0,-54.556,2.19995,147.927,Q,Q
2023-03-15 20:34:59:996,0,-54.5555,2.19852,147.928,Q,Q
2023-03-15 20:35:00:6,0,-54.553,2.20005,147.927,Q,Q
2023-03-15 20:35:00:16,0,-54.5517,2.1992,147.928,Q,Q
2023-03-15 20:35:00:26,0,-54.5522,2.1986,147.933,Q,Q
2023-03-15 20:35:00:36,0,-54.5519,2.19986,147.932,Q,Q
2023-03-15 20:35:00:46,0,-54.5536,2.20137,147.93,Q,Q
2023-03-15 20:35:00:56,0,-54.5508,2.20125,147.932,Q,Q
2023-03-15 20:35:00:67,0,-54.5508,2.19979,147.934,Q,Q
2023-03-15 20:35:00:77,0,-54.5526,2.20076,147.933,Q,Q
2023-03-15 20:35:00:87,0,-54.5505,2.20315,147.935,Q,Q
2023-03-15 20:35:00:97,0,-54.5485,2.20421,147.936,Q,Q
2023-03-15 20:35:00:107,0,-54.549,2.20377,147.936,Q,Q
2023-03-15 20:35:00:117,0,-54.549,2.20437,147.938,Q,Q
2023-03-15 20:35:00:127,0,-54.5498,2.20454,147.938,Q,Q
2023-03-15 20:35:00:137,0,-54.5507,2.20167,147.939,Q,Q
2023-03-15 20:35:00:147,0,-54.5511,2.2011,147.938,Q,Q
2023-03-15 20:35:00:158,0,-54.5497,2.20247,147.938,Q,Q
2023-03-15 20:35:00:167,0,-54.5468,2.2021,147.938,Q,Q
2023-03-15 20:35:00:178,0,-54.5451,2.20073,147.939,Q,Q
2023-03-15 20:35:00:188,0,-54.5452,2.20202,147.939,Q,Q
2023-03-15 20:35:00:198,0,-54.5425,2.20315,147.94,Q,Q
2023-03-15 20:35:00:208,0,-54.5417,2.20172,147.94,Q,Q
2023-03-15 20:35:00:218,0,-54.5383,2.20546,147.937,Q,Q
2023-03-15 20:35:00:228,0,-54.5362,2.20596,147.937,Q,Q
2023-03-15 20:35:00:238,0,-54.5348,2.2044,147.937,Q,Q
2023-03-15 20:35:00:248,0,-54.5357,2.20345,147.936,Q,Q
2023-03-15 20:35:00:258,0,-54.5368,2.20262,147.934,Q,Q
2023-03-15 20:35:00:268,0,-54.5359,2.20759,147.935,Q,Q
2023-03-15 20:35:00:279,0,-54.5337,2.20654,147.935,Q,Q
2023-03-15 20:35:00:289,0,-54.5342,2.20548,147.938,Q,Q
2023-03-15 20:35:00:299,0,-54.5332,2.20553,147.938,Q,Q
2023-03-15 20:35:00:309,0,-54.5358,2.20261,147.939,Q,Q
2023-03-15 20:35:00:319,0,-54.5377,2.20307,147.936,Q,Q
2023-03-15 20:35:00:329,0,-54.5391,2.2048,147.936,Q,Q
2023-03-15 20:35:00:339,0,-54.5395,2.20517,147.937,Q,Q
2023-03-15 20:35:00:349,0,-54.5384,2.20521,147.938,Q,Q
2023-03-15 20:35:00:359,0,-54.5361,2.20485,147.94,Q,Q
2023-03-15 20:35:00:369,0,-54.5357,2.20454,147.94,Q,Q
2023-03-15 20:35:00:379,0,-54.5346,2.20378,147.942,Q,Q
2023-03-15 20:35:00:389,0,-54.5333,2.20407,147.941,Q,Q
2023-03-15 20:35:00:400,0,-54.5325,2.20308,147.943,Q,Q
2023-03-15 20:35:00:410,0,-54.5324,2.20517,147.939,Q,Q
2023-03-15 20:35:00:420,0,-54.5308,2.20764,147.94,Q,Q
2023-03-15 20:35:00:430,0,-54.5297,2.20668,147.94,Q,Q
2023-03-15 20:35:00:440,0,-54.529,2.2059,147.94,Q,Q
2023-03-15 20:35:00:450,0,-54.5281,2.20659,147.942,Q,Q
2023-03-15 20:35:00:460,0,-54.5256,2.20776,147.944,Q,Q
2023-03-15 20:35:00:470,0,-54.5274,2.20802,147.946,Q,Q
2023-03-15 20:35:00:480,0,-54.5238,2.20712,147.945,Q,Q
2023-03-15 20:35:00:490,0,-54.5267,2.20872,147.944,Q,Q
2023-03-15 20:35:00:500,0,-54.5264,2.20924,147.945,Q,Q
2023-03-15 20:35:00:511,0,-54.5247,2.20904,147.943,Q,Q
2023-03-15 20:35:00:521,0,-54.5243,2.20977,147.941,Q,Q
2023-03-15 20:35:00:531,0,-54.5273,2.21029,147.939,Q,Q
2023-03-15 20:35:00:541,0,-54.5288,2.21359,147.94,Q,Q
2023-03-15 20:35:00:551,0,-54.53,2.21564,147.939,Q,Q
2023-03-15 20:35:00:561,0,-54.5294,2.21767,147.938,Q,Q
2023-03-15 20:35:00:571,0,-54.5295,2.21872,147.939,Q,Q
2023-03-15 20:35:00:581,0,-54.5322,2.2194,147.94,Q,Q
2023-03-15 20:35:00:592,0,-54.5335,2.21837,147.94,Q,Q
2023-03-15 20:35:00:602,0,-54.5333,2.22005,147.94,Q,Q
2023-03-15 20:35:00:612,0,-54.5354,2.22108,147.939,Q,Q
2023-03-15 20:35:00:622,0,-54.5352,2.21962,147.937,Q,Q
2023-03-15 20:35:00:632,0,-54.5354,2.21917,147.941,Q,Q
2023-03-15 20:35:00:642,0,-54.5352,2.2202,147.943,Q,Q
2023-03-15 20:35:00:652,0,-54.5336,2.21905,147.942,Q,Q
2023-03-15 20:35:00:662,0,-54.5334,2.2199,147.945,Q,Q
2023-03-15 20:35:00:672,0,-54.5314,2.2196,147.947,Q,Q
2023-03-15 20:35:00:683,0,-54.5324,2.22191,147.947,Q,Q
2023-03-15 20:35:00:692,0,-54.5338,2.22061,147.947,Q,Q
2023-03-15 20:35:00:703,0,-54.5351,2.22119,147.946,Q,Q
2023-03-15 20:35:00:713,0,-54.5332,2.22104,147.945,Q,Q
2023-03-15 20:35:00:723,0,-54.5322,2.2228,147.946,Q,Q
2023-03-15 20:35:00:733,0,-54.532,2.22592,147.946,Q,Q
2023-03-15 20:35:00:743,0,-54.5308,2.22522,147.946,Q,Q
2023-03-15 20:35:00:753,0,-54.5289,2.22468,147.948,Q,Q
2023-03-15 20:35:00:763,0,-54.5261,2.22299,147.948,Q,Q
2023-03-15 20:35:00:773,0,-54.5279,2.22317,147.944,Q,Q
2023-03-15 20:35:00:783,0,-54.5283,2.2222,147.945,Q,Q
2023-03-15 20:35:00:793,0,-54.5285,2.22268,147.945,Q,Q
2023-03-15 20:35:00:803,0,-54.5298,2.22348,147.944,Q,Q
2023-03-15 20:35:00:814,0,-54.5284,2.22138,147.942,Q,Q
2023-03-15 20:35:00:824,0,-54.5263,2.21983,147.941,Q,Q
2023-03-15 20:35:00:834,0,-54.5244,2.21808,147.942,Q,Q
2023-03-15 20:35:00:844,0,-54.5243,2.21866,147.942,Q,Q
2023-03-15 20:35:00:854,0,-54.5274,2.21948,147.942,Q,Q
2023-03-15 20:35:00:864,0,-54.5313,2.21883,147.941,Q,Q
2023-03-15 20:35:00:874,0,-54.5305,2.2181,147.939,Q,Q
2023-03-15 20:35:00:884,0,-54.528,2.2182,147.939,Q,Q
2023-03-15 20:35:00:894,0,-54.5267,2.21737,147.939,Q,Q
2023-03-15 20:35:00:904,0,-54.5279,2.21812,147.942,Q,Q
2023-03-15 20:35:00:914,0,-54.5255,2.21786,147.941,Q,Q
2023-03-15 20:35:00:924,0,-54.5273,2.2178,147.942,Q,Q
2023-03-15 20:35:00:935,0,-54.5269,2.21766,147.941,Q,Q
2023-03-15 20:35:00:945,0,-54.5294,2.21899,147.941,Q,Q
2023-03-15 20:35:00:955,0,-54.5287,2.2167,147.942,Q,Q
2023-03-15 20:35:00:965,0,-54.5271,2.21926,147.94,Q,Q
2023-03-15 20:35:00:975,0,-54.5294,2.21747,147.942,Q,Q
2023-03-15 20:35:00:985,0,-54.5269,2.21677,147.942,Q,Q
2023-03-15 20:35:00:995,0,-54.5297,2.21694,147.942,Q,Q
2023-03-15 20:35:01:5,0,-54.5291,2.21694,147.942,Q,Q
2023-03-15 20:35:01:15,0,-54.5303,2.21829,147.939,Q,Q
2023-03-15 20:35:01:25,0,-54.5343,2.21915,147.937,Q,Q
2023-03-15 20:35:01:35,0,-54.5361,2.21843,147.939,Q,Q
2023-03-15 20:35:01:46,0,-54.5358,2.21992,147.941,Q,Q
2023-03-15 20:35:01:56,0,-54.5348,2.22273,147.941,Q,Q
2023-03-15 20:35:01:66,0,-54.5337,2.22147,147.939,Q,Q
2023-03-15 20:35:01:76,0,-54.5326,2.22195,147.938,Q,Q
2023-03-15 20:35:01:86,0,-54.5307,2.22277,147.939,Q,Q
2023-03-15 20:35:01:96,0,-54.5319,2.22342,147.94,Q,Q
2023-03-15 20:35:01:106,0,-54.5294,2.2245,147.943,Q,Q
2023-03-15 20:35:01:116,0,-54.527,2.22331,147.943,Q,Q
2023-03-15 20:35:01:126,0,-54.5276,2.22022,147.943,Q,Q
2023-03-15 20:35:01:137,0,-54.5272,2.22019,147.941,Q,Q
2023-03-15 20:35:01:147,0,-54.5253,2.21942,147.942,Q,Q
2023-03-15 20:35:01:157,0,-54.5243,2.22066,147.942,Q,Q
2023-03-15 20:35:01:167,0,-54.5244,2.22014,147.942,Q,Q
2023-03-15 20:35:01:177,0,-54.5239,2.22231,147.944,Q,Q
2023-03-15 20:35:01:187,0,-54.523,2.2214,147.943,Q,Q
2023-03-15 20:35:01:197,0,-54.5223,2.22237,147.945,Q,Q
2023-03-15 20:35:01:207,0,-54.5213,2.22039,147.942,Q,Q
2023-03-15 20:35:01:217,0,-54.5222,2.21966,147.942,Q,Q
2023-03-15 20:35:01:227,0,-54.5213,2.21994,147.94,Q,Q
2023-03-15 20:35:01:237,0,-54.5218,2.21778,147.94,Q,Q
2023-03-15 20:35:01:248,0,-54.5218,2.21859,147.94,Q,Q
2023-03-15 20:35:01:258,0,-54.5228,2.21877,147.941,Q,Q
2023-03-15 20:35:01:268,0,-54.5226,2.21986,147.943,Q,Q
2023-03-15 20:35:01:278,0,-54.5216,2.21935,147.948,Q,Q
2023-03-15 20:35:01:288,0,-54.5194,2.21642,147.948,Q,Q
2023-03-15 20:35:01:298,0,-54.5176,2.21676,147.951,Q,Q
2023-03-15 20:35:01:308,0,-54.5183,2.21678,147.956,Q,Q
2023-03-15 20:35:01:318,0,-54.5201,2.21725,147.955,Q,Q
2023-03-15 20:35:01:328,0,-54.518,2.21688,147.952,Q,Q
2023-03-15 20:35:01:338,0,-54.5213,2.21665,147.951,Q,Q
2023-03-15 20:35:01:349,0,-54.5185,2.21564,147.949,Q,Q
2023-03-15 20:35:01:359,0,-54.5145,2.21721,147.946,Q,Q
2023-03-15 20:35:01:369,0,-54.5108,2.21672,147.949,Q,Q
2023-03-15 20:35:01:379,0,-54.5087,2.21741,147.949,Q,Q
2023-03-15 20:35:01:389,0,-54.5118,2.21801,147.948,Q,Q
2023-03-15 20:35:01:399,0,-54.5108,2.21957,147.947,Q,Q
2023-03-15 20:35:01:409,0,-54.5095,2.21882,147.949,Q,Q
2023-03-15 20:35:01:419,0,-54.5109,2.21911,147.949,Q,Q
2023-03-15 20:35:01:429,0,-54.5095,2.21529,147.949,Q,Q
2023-03-15 20:35:01:439,0,-54.5107,2.21524,147.949,Q,Q
2023-03-15 20:35:01:449,0,-54.5082,2.21576,147.949,Q,Q
2023-03-15 20:35:01:459,0,-54.5049,2.21615,147.949,Q,Q
2023-03-15 20:35:01:469,0,-54.5042,2.21665,147.95,Q,Q
2023-03-15 20:35:01:479,0,-54.5037,2.21305,147.951,Q,Q
2023-03-15 20:35:01:490,0,-54.5023,2.21211,147.951,Q,Q
2023-03-15 20:35:01:500,0,-54.5023,2.21557,147.953,Q,Q
2023-03-15 20:35:01:510,0,-54.504,2.21524,147.951,Q,Q
2023-03-15 20:35:01:520,0,-54.5017,2.21622,147.949,Q,Q
2023-03-15 20:35:01:530,0,-54.5006,2.21435,147.951,Q,Q
2023-03-15 20:35:01:540,0,-54.5031,2.21744,147.949,Q,Q
2023-03-15 20:35:01:550,0,-54.5046,2.22006,147.949,Q,Q
2023-03-15 20:35:01:560,0,-54.5038,2.22122,147.952,Q,Q
2023-03-15 20:35:01:570,0,-54.5018,2.22204,147.954,Q,Q
2023-03-15 20:35:01:581,0,-54.5036,2.22465,147.955,Q,Q
2023-03-15 20:35:01:591,0,-54.506,2.22323,147.954,Q,Q
2023-03-15 20:35:01:601,0,-54.5055,2.22149,147.955,Q,Q
2023-03-15 20:35:01:611,0,-54.5044,2.22177,147.954,Q,Q
2023-03-15 20:35:01:621,0,-54.5028,2.22113,147.955,Q,Q
2023-03-15 20:35:01:631,0,-54.5021,2.2199,147.953,Q,Q
2023-03-15 20:35:01:641,0,-54.501,2.21901,147.956,Q,Q
2023-03-15 20:35:01:651,0,-54.4994,2.21823,147.958,Q,Q
2023-03-15 20:35:01:661,0,-54.5005,2.21762,147.959,Q,Q
2023-03-15 20:35:01:671,0,-54.5009,2.21692,147.959,Q,Q
2023-03-15 20:35:01:681,0,-54.5025,2.21795,147.961,Q,Q
2023-03-15 20:35:01:691,0,-54.5001,2.21966,147.961,Q,Q
2023-03-15 20:35:01:702,0,-54.5003,2.21844,147.962,Q,Q
2023-03-15 20:35:01:712,0,-54.5003,2.22207,147.963,Q,Q
2023-03-15 20:35:01:722,0,-54.5008,2.2216,147.96,Q,Q
2023-03-15 20:35:01:732,0,-54.5005,2.22227,147.957,Q,Q
2023-03-15 20:35:01:742,0,-54.5004,2.2231,147.954,Q,Q
2023-03-15 20:35:01:752,0,-54.5006,2.22176,147.954,Q,Q
2023-03-15 20:35:01:762,0,-54.4992,2.22319,147.96,Q,Q
2023-03-15 20:35:01:772,0,-54.5004,2.22575,147.96,Q,Q
2023-03-15 20:35:01:782,0,-54.4969,2.22286,147.962,Q,Q
2023-03-15 20:35:01:792,0,-54.4939,2.22094,147.966,Q,Q
2023-03-15 20:35:01:802,0,-54.4917,2.22051,147.965,Q,Q
2023-03-15 20:35:01:812,0,-54.4906,2.2188,147.966,Q,Q
2023-03-15 20:35:01:823,0,-54.4901,2.21822,147.967,Q,Q
2023-03-15 20:35:01:833,0,-54.4924,2.21625,147.968,Q,Q
2023-03-15 20:35:01:843,0,-54.495,2.21779,147.967,Q,Q
2023-03-15 20:35:01:853,0,-54.4951,2.21891,147.968,Q,Q
2023-03-15 20:35:01:863,0,-54.4965,2.22031,147.969,Q,Q
2023-03-15 20:35:01:873,0,-54.4966,2.2219,147.966,Q,Q
2023-03-15 20:35:01:883,0,-54.4956,2.22215,147.966,Q,Q
2023-03-15 20:35:01:893,0,-54.4925,2.2238,147.968,Q,Q
2023-03-15 20:35:01:903,0,-54.4934,2.22333,147.966,Q,Q
2023-03-15 20:35:01:913,0,-54.4931,2.22537,147.966,Q,Q
2023-03-15 20:35:01:923,0,-54.4945,2.22755,147.969,Q,Q
2023-03-15 20:35:01:934,0,-54.4923,2.22759,147.97,Q,Q
2023-03-15 20:35:01:944,0,-54.4902,2.22831,147.97,Q,Q
2023-03-15 20:35:01:954,0,-54.4895,2.22818,147.97,Q,Q
2023-03-15 20:35:01:964,0,-54.4893,2.22823,147.97,Q,Q
2023-03-15 20:35:01:974,0,-54.4908,2.22784,147.968,Q,Q
2023-03-15 20:35:01:984,0,-54.4905,2.22411,147.968,Q,Q
2023-03-15 20:35:01:994,0,-54.4899,2.22571,147.965,Q,Q
2023-03-15 20:35:02:4,0,-54.4903,2.22713,147.966,Q,Q
2023-03-15 20:35:02:14,0,-54.4902,2.22567,147.967,Q,Q
2023-03-15 20:35:02:24,0,-54.4898,2.22586,147.966,Q,Q
2023-03-15 20:35:02:34,0,-54.491,2.22468,147.966,Q,Q
2023-03-15 20:35:02:44,0,-54.4929,2.22446,147.968,Q,Q
2023-03-15 20:35:02:55,0,-54.4956,2.22565,147.966,Q,Q
2023-03-15 20:35:02:64,0,-54.4945,2.22804,147.964,Q,Q
2023-03-15 20:35:02:74,0,-54.4934,2.22774,147.966,Q,Q
2023-03-15 20:35:02:84,0,-54.4899,2.23057,147.965,Q,Q
2023-03-15 20:35:02:95,0,-54.4885,2.23286,147.965,Q,Q
2023-03-15 20:35:02:105,0,-54.4886,2.23586,147.968,Q,Q
2023-03-15 20:35:02:115,0,-54.4869,2.2368,147.965,Q,Q
2023-03-15 20:35:02:125,0,-54.4887,2.23958,147.965,Q,Q
2023-03-15 20:35:02:135,0,-54.4887,2.2413,147.966,Q,Q
2023-03-15 20:35:02:145,0,-54.4887,2.24237,147.968,Q,Q
2023-03-15 20:35:02:155,0,-54.4913,2.24323,147.967,Q,Q
2023-03-15 20:35:02:165,0,-54.4921,2.24367,147.968,Q,Q
2023-03-15 20:35:02:175,0,-54.4941,2.24368,147.966,Q,Q
2023-03-15 20:35:02:186,0,-54.4935,2.24369,147.967,Q,Q
2023-03-15 20:35:02:195,0,-54.4951,2.2455,147.97,Q,Q
2023-03-15 20:35:02:206,0,-54.4971,2.24591,147.968,Q,Q
2023-03-15 20:35:02:216,0,-54.4967,2.24706,147.969,Q,Q
2023-03-15 20:35:02:226,0,-54.4947,2.24875,147.968,Q,Q
2023-03-15 20:35:02:236,0,-54.4951,2.24968,147.972,Q,Q
2023-03-15 20:35:02:246,0,-54.4959,2.24773,147.975,Q,Q
2023-03-15 20:35:02:256,0,-54.4939,2.24991,147.973,Q,Q
2023-03-15 20:35:02:266,0,-54.4916,2.25224,147.973,Q,Q
2023-03-15 20:35:02:276,0,-54.4908,2.25384,147.97,Q,Q
2023-03-15 20:35:02:286,0,-54.4901,2.25575,147.969,Q,Q
2023-03-15 20:35:02:296,0,-54.4886,2.25606,147.968,Q,Q
2023-03-15 20:35:02:306,0,-54.4873,2.25938,147.965,Q,Q
2023-03-15 20:35:02:316,0,-54.4857,2.26099,147.967,Q,Q
2023-03-15 20:35:02:327,0,-54.4867,2.26134,147.967,Q,Q
2023-03-15 20:35:02:337,0,-54.4896,2.26067,147.967,Q,Q
2023-03-15 20:35:02:347,0,-54.4873,2.26157,147.969,Q,Q
2023-03-15 20:35:02:357,0,-54.4879,2.26161,147.969,Q,Q
2023-03-15 20:35:02:367,0,-54.4866,2.26099,147.966,Q,Q
2023-03-15 20:35:02:377,0,-54.4836,2.25879,147.968,Q,Q
2023-03-15 20:35:02:387,0,-54.4814,2.2614,147.969,Q,Q
2023-03-15 20:35:02:397,0,-54.4783,2.2613,147.97,Q,Q
2023-03-15 20:35:02:407,0,-54.4767,2.26293,147.972,Q,Q
2023-03-15 20:35:02:417,0,-54.4771,2.26318,147.97,Q,Q
2023-03-15 20:35:02:427,0,-54.4778,2.26484,147.972,Q,Q
2023-03-15 20:35:02:437,0,-54.4785,2.26591,147.973,Q,Q
2023-03-15 20:35:02:447,0,-54.4806,2.26608,147.973,Q,Q
2023-03-15 20:35:02:458,0,-54.4822,2.26714,147.976,Q,Q
2023-03-15 20:35:02:467,0,-54.4841,2.26938,147.977,Q,Q
2023-03-15 20:35:02:478,0,-54.4863,2.26903,147.981,Q,Q
2023-03-15 20:35:02:488,0,-54.4833,2.26925,147.982,Q,Q
2023-03-15 20:35:02:498,0,-54.4833,2.26718,147.981,Q,Q
2023-03-15 20:35:02:508,0,-54.4823,2.26657,147.983,Q,Q
2023-03-15 20:35:02:518,0,-54.4787,2.2688,147.984,Q,Q
2023-03-15 20:35:02:528,0,-54.478,2.26823,147.983,Q,Q
2023-03-15 20:35:02:538,0,-54.4801,2.2679,147.981,Q,Q
2023-03-15 20:35:02:548,0,-54.476,2.2682,147.984,Q,Q
2023-03-15 20:35:02:558,0,-54.4737,2.26799,147.984,Q,Q
2023-03-15 20:35:02:568,0,-54.4752,2.27026,147.983,Q,Q
2023-03-15 20:35:02:578,0,-54.4753,2.27204,147.98,Q,Q
2023-03-15 20:35:02:588,0,-54.4751,2.27264,147.984,Q,Q
2023-03-15 20:35:02:599,0,-54.4751,2.2741,147.984,Q,Q
2023-03-15 20:35:02:609,0,-54.4714,2.27287,147.985,Q,Q
2023-03-15 20:35:02:619,0,-54.4692,2.27113,147.983,Q,Q
2023-03-15 20:35:02:629,0,-54.4699,2.26836,147.981,Q,Q
2023-03-15 20:35:02:639,0,-54.4706,2.27072,147.979,Q,Q
2023-03-15 20:35:02:649,0,-54.4714,2.26951,147.979,Q,Q
2023-03-15 20:35:02:659,0,-54.4713,2.2706,147.98,Q,Q
2023-03-15 20:35:02:669,0,-54.4695,2.27194,147.983,Q,Q
2023-03-15 20:35:02:679,0,-54.4685,2.27313,147.985,Q,Q
2023-03-15 20:35:02:689,0,-54.4698,2.27385,147.986,Q,Q
2023-03-15 20:35:02:699,0,-54.4691,2.27507,147.986,Q,Q
2023-03-15 20:35:02:709,0,-54.469,2.27258,147.987,Q,Q
2023-03-15 20:35:02:719,0,-54.4688,2.27408,147.989,Q,Q
2023-03-15 20:35:02:729,0,-54.466,2.27333,147.991,Q,Q
2023-03-15 20:35:02:739,0,-54.4641,2.27329,147.991,Q,Q
2023-03-15 20:35:02:750,0,-54.4627,2.27146,147.992,Q,Q
2023-03-15 20:35:02:760,0,-54.4607,2.26949,147.992,Q,Q
2023-03-15 20:35:02:770,0,-54.4608,2.27005,147.992,Q,Q
2023-03-15 20:35:02:780,0,-54.4585,2.26736,147.993,Q,Q
2023-03-15 20:35:02:790,0,-54.4592,2.26608,147.993,Q,Q
2023-03-15 20:35:02:800,0,-54.4623,2.26359,147.993,Q,Q
2023-03-15 20:35:02:810,0,-54.4598,2.26332,147.993,Q,Q
2023-03-15 20:35:02:820,0,-54.4615,2.26243,147.994,Q,Q
2023-03-15 20:35:02:830,0,-54.4598,2.25949,147.997,Q,Q
2023-03-15 20:35:02:840,0,-54.4614,2.26122,147.999,Q,Q
2023-03-15 20:35:02:850,0,-54.4582,2.26275,147.999,Q,Q
2023-03-15 20:35:02:860,0,-54.4577,2.26193,148.001,Q,Q
2023-03-15 20:35:02:871,0,-54.4553,2.26455,148.001,Q,Q
2023-03-15 20:35:02:881,0,-54.4571,2.26407,148.0,Q,Q
2023-03-15 20:35:02:891,0,-54.4576,2.2633,148.0,Q,Q
2023-03-15 20:35:02:901,0,-54.4575,2.2641,148.001,Q,Q
2023-03-15 20:35:02:911,0,-54.4605,2.26631,148.002,Q,Q
2023-03-15 20:35:02:921,0,-54.4644,2.26839,148.001,Q,Q
2023-03-15 20:35:02:931,0,-54.463,2.27043,147.999,Q,Q
2023-03-15 20:35:02:941,0,-54.4639,2.27338,147.997,Q,Q
2023-03-15 20:35:02:951,0,-54.4648,2.2724,147.998,Q,Q
2023-03-15 20:35:02:961,0,-54.4651,2.26979,147.997,Q,Q
2023-03-15 20:35:02:971,0,-54.4667,2.26917,148.0,Q,Q
2023-03-15 20:35:02:981,0,-54.4695,2.27098,147.999,Q,Q
2023-03-15 20:35:02:991,0,-54.466,2.27384,147.998,Q,Q
2023-03-15 20:35:03:2,0,-54.4662,2.27383,147.997,Q,Q
2023-03-15 20:35:03:12,0,-54.4677,2.27199,147.996,Q,Q
2023-03-15 20:35:03:22,0,-54.4685,2.27221,147.994,Q,Q
2023-03-15 20:35:03:32,0,-54.466,2.27004,147.994,Q,Q
2023-03-15 20:35:03:42,0,-54.4643,2.26883,147.996,Q,Q
2023-03-15 20:35:03:52,0,-54.4642,2.26815,147.994,Q,Q
2023-03-15 20:35:03:62,0,-54.4636,2.26876,147.991,Q,Q
2023-03-15 20:35:03:72,0,-54.4624,2.26963,147.991,Q,Q
2023-03-15 20:35:03:82,0,-54.4605,2.26954,147.991,Q,Q
2023-03-15 20:35:03:92,0,-54.4583,2.26654,147.991,Q,Q
2023-03-15 20:35:03:102,0,-54.4579,2.26705,147.99,Q,Q
2023-03-15 20:35:03:112,0,-54.4584,2.2645,147.99,Q,Q
2023-03-15 20:35:03:122,0,-54.4573,2.26098,147.991,Q,Q
2023-03-15 20:35:03:132,0,-54.4567,2.25918,147.989,Q,Q
2023-03-15 20:35:03:142,0,-54.4538,2.26137,147.987,Q,Q
2023-03-15 20:35:03:152,0,-54.4538,2.26182,147.989,Q,Q
2023-03-15 20:35:03:163,0,-54.4502,2.26187,147.99,Q,Q
2023-03-15 20:35:03:173,0,-54.452,2.26101,147.991,Q,Q
2023-03-15 20:35:03:182,0,-54.451,2.25899,147.991,Q,Q
2023-03-15 20:35:03:192,0,-54.4503,2.25876,147.991,Q,Q
2023-03-15 20:35:03:203,0,-54.4502,2.25951,147.993,Q,Q
2023-03-15 20:35:03:213,0,-54.4512,2.25788,147.994,Q,Q
2023-03-15 20:35:03:223,0,-54.4497,2.25695,147.994,Q,Q
2023-03-15 20:35:03:233,0,-54.4466,2.25326,147.996,Q,Q
2023-03-15 20:35:03:243,0,-54.4476,2.25495,147.996,Q,Q
2023-03-15 20:35:03:253,0,-54.4439,2.2549,147.993,Q,Q
2023-03-15 20:35:03:263,0,-54.4417,2.25346,147.995,Q,Q
2023-03-15 20:35:03:273,0,-54.4436,2.25282,147.999,Q,Q
2023-03-15 20:35:03:283,0,-54.4447,2.25138,147.997,Q,Q
2023-03-15 20:35:03:293,0,-54.4452,2.25047,147.998,Q,Q
2023-03-15 20:35:03:303,0,-54.4462,2.25153,147.997,Q,Q
2023-03-15 20:35:03:314,0,-54.4451,2.25157,147.997,Q,Q
2023-03-15 20:35:03:324,0,-54.4458,2.25192,147.999,Q,Q
2023-03-15 20:35:03:334,0,-54.4462,2.25289,147.998,Q,Q
2023-03-15 20:35:03:344,0,-54.445,2.25649,147.998,Q,Q
2023-03-15 20:35:03:354,0,-54.4419,2.25321,147.999,Q,Q
2023-03-15 20:35:03:364,0,-54.4422,2.25167,148.001,Q,Q
2023-03-15 20:35:03:374,0,-54.4444,2.25011,148.002,Q,Q
2023-03-15 20:35:03:384,0,-54.4447,2.25143,147.999,Q,Q
2023-03-15 20:35:03:394,0,-54.4448,2.25013,147.999,Q,Q
2023-03-15 20:35:03:404,0,-54.4446,2.25059,147.998,Q,Q
2023-03-15 20:35:03:414,0,-54.4435,2.25441,147.994,Q,Q
2023-03-15 20:35:03:424,0,-54.4393,2.25648,147.995,Q,Q
2023-03-15 20:35:03:434,0,-54.4399,2.25562,147.993,Q,Q
2023-03-15 20:35:03:444,0,-54.439,2.25408,147.994,Q,Q
2023-03-15 20:35:03:454,0,-54.4381,2.25334,147.991,Q,Q
2023-03-15 20:35:03:464,0,-54.4386,2.25535,147.991,Q,Q
2023-03-15 20:35:03:475,0,-54.4409,2.25759,147.994,Q,Q
2023-03-15 20:35:03:485,0,-54.4415,2.26106,147.993,Q,Q
2023-03-15 20:35:03:495,0,-54.4397,2.2602,147.991,Q,Q
2023-03-15 20:35:03:505,0,-54.4387,2.25976,147.991,Q,Q
2023-03-15 20:35:03:515,0,-54.4386,2.26248,147.99,Q,Q
2023-03-15 20:35:03:525,0,-54.4426,2.26277,147.991,Q,Q
2023-03-15 20:35:03:535,0,-54.4445,2.26233,147.99,Q,Q
2023-03-15 20:35:03:545,0,-54.4452,2.26271,147.987,Q,Q
2023-03-15 20:35:03:555,0,-54.4431,2.26063,147.991,Q,Q
2023-03-15 20:35:03:565,0,-54.4425,2.25826,147.991,Q,Q
2023-03-15 20:35:03:575,0,-54.4428,2.25973,147.993,Q,Q
2023-03-15 20:35:03:585,0,-54.442,2.26188,147.991,Q,Q
2023-03-15 20:35:03:595,0,-54.4413,2.26066,147.993,Q,Q
2023-03-15 20:35:03:606,0,-54.4426,2.26253,147.99,Q,Q
2023-03-15 20:35:03:615,0,-54.4402,2.26329,147.989,Q,Q
2023-03-15 20:35:03:626,0,-54.44,2.26314,147.992,Q,Q
2023-03-15 20:35:03:636,0,-54.442,2.26346,147.991,Q,Q
2023-03-15 20:35:03:646,0,-54.4446,2.26,147.991,Q,Q
2023-03-15 20:35:03:656,0,-54.4461,2.25896,147.987,Q,Q
2023-03-15 20:35:03:666,0,-54.4474,2.26098,147.987,Q,Q
2023-03-15 20:35:03:676,0,-54.4483,2.26222,147.989,Q,Q
2023-03-15 20:35:03:686,0,-54.4495,2.26224,147.992,Q,Q
2023-03-15 20:35:03:696,0,-54.4505,2.26401,147.991,Q,Q
2023-03-15 20:35:03:706,0,-54.4489,2.26566,147.991,Q,Q
2023-03-15 20:35:03:716,0,-54.4483,2.26598,147.99,Q,Q
2023-03-15 20:35:03:726,0,-54.4471,2.26888,147.991,Q,Q
2023-03-15 20:35:03:736,0,-54.4476,2.2696,147.992,Q,Q
2023-03-15 20:35:03:746,0,-54.4458,2.26921,147.99,Q,Q
2023-03-15 20:35:03:756,0,-54.4449,2.27102,147.988,Q,Q
2023-03-15 20:35:03:767,0,-54.4455,2.27087,147.988,Q,Q
2023-03-15 20:35:03:776,0,-54.4491,2.26949,147.989,Q,Q
2023-03-15 20:35:03:787,0,-54.4513,2.27103,147.985,Q,Q
2023-03-15 20:35:03:797,0,-54.4529,2.2689,147.986,Q,Q
2023-03-15 20:35:03:807,0,-54.4529,2.26859,147.986,Q,Q
2023-03-15 20:35:03:817,0,-54.4526,2.2687,147.986,Q,Q
2023-03-15 20:35:03:827,0,-54.4533,2.26923,147.988,Q,Q
2023-03-15 20:35:03:837,0,-54.4513,2.27051,147.985,Q,Q
2023-03-15 20:35:03:847,0,-54.448,2.26704,147.981,Q,Q
2023-03-15 20:35:03:857,0,-54.4478,2.26577,147.978,Q,Q
2023-03-15 20:35:03:867,0,-54.447,2.26547,147.977,Q,Q
2023-03-15 20:35:03:877,0,-54.4491,2.26391,147.979,Q,Q
2023-03-15 20:35:03:887,0,-54.4495,2.26497,147.979,Q,Q
2023-03-15 20:35:03:897,0,-54.4497,2.26843,147.979,Q,Q
2023-03-15 20:35:03:907,0,-54.4486,2.26799,147.98,Q,Q
2023-03-15 20:35:03:918,0,-54.4515,2.26965,147.976,Q,Q
2023-03-15 20:35:03:927,0,-54.448,2.26871,147.975,Q,Q
2023-03-15 20:35:03:938,0,-54.4481,2.26768,147.975,Q,Q
2023-03-15 20:35:03:948,0,-54.4489,2.26844,147.975,Q,Q
2023-03-15 20:35:03:958,0,-54.4531,2.2703,147.975,Q,Q
2023-03-15 20:35:03:968,0,-54.4549,2.2724,147.975,Q,Q
2023-03-15 20:35:03:978,0,-54.4556,2.27263,147.971,Q,Q
2023-03-15 20:35:03:988,0,-54.4528,2.27281,147.97,Q,Q
2023-03-15 20:35:03:998,0,-54.4488,2.27367,147.975,Q,Q
2023-03-15 20:35:04:8,0,-54.447,2.27494,147.974,Q,Q
2023-03-15 20:35:04:18,0,-54.448,2.27494,147.974,Q,Q
2023-03-15 20:35:04:28,0,-54.4504,2.27649,147.975,Q,Q
2023-03-15 20:35:04:38,0,-54.4485,2.27648,147.975,Q,Q
2023-03-15 20:35:04:48,0,-54.4456,2.27501,147.975,Q,Q
2023-03-15 20:35:04:58,0,-54.4454,2.27452,147.973,Q,Q
2023-03-15 20:35:04:68,0,-54.4445,2.27725,147.973,Q,Q
2023-03-15 20:35:04:79,0,-54.444,2.27663,147.972,Q,Q
2023-03-15 20:35:04:89,0,-54.444,2.27584,147.973,Q,Q
2023-03-15 20:35:04:98,0,-54.4449,2.27419,147.971,Q,Q
2023-03-15 20:35:04:108,0,-54.441,2.27505,147.969,Q,Q
2023-03-15 20:35:04:118,0,-54.4408,2.27471,147.967,Q,Q
2023-03-15 20:35:04:129,0,-54.4383,2.27623,147.968,Q,Q
2023-03-15 20:35:04:139,0,-54.4372,2.2785,147.968,Q,Q
2023-03-15 20:35:04:149,0,-54.438,2.27942,147.967,Q,Q
2023-03-15 20:35:04:159,0,-54.4368,2.27961,147.966,Q,Q
2023-03-15 20:35:04:169,0,-54.4369,2.27969,147.968,Q,Q
2023-03-15 20:35:04:179,0,-54.4392,2.27966,147.968,Q,Q
2023-03-15 20:35:04:189,0,-54.4407,2.27949,147.969,Q,Q
2023-03-15 20:35:04:199,0,-54.4429,2.2798,147.969,Q,Q
2023-03-15 20:35:04:209,0,-54.4393,2.28093,147.969,Q,Q
2023-03-15 20:35:04:219,0,-54.4375,2.28298,147.969,Q,Q
2023-03-15 20:35:04:229,0,-54.4367,2.28431,147.966,Q,Q
2023-03-15 20:35:04:239,0,-54.4342,2.28673,147.964,Q,Q
2023-03-15 20:35:04:249,0,-54.4356,2.28608,147.964,Q,Q
2023-03-15 20:35:04:259,0,-54.4364,2.28539,147.962,Q,Q
2023-03-15 20:35:04:270,0,-54.4344,2.28423,147.961,Q,Q
2023-03-15 20:35:04:280,0,-54.4324,2.28393,147.959,Q,Q
2023-03-15 20:35:04:290,0,-54.4303,2.28331,147.961,Q,Q
2023-03-15 20:35:04:300,0,-54.4288,2.28304,147.959,Q,Q
2023-03-15 20:35:04:310,0,-54.4256,2.28052,147.959,Q,Q
2023-03-15 20:35:04:320,0,-54.4257,2.28002,147.96,Q,Q
2023-03-15 20:35:04:330,0,-54.426,2.27985,147.962,Q,Q
2023-03-15 20:35:04:340,0,-54.4275,2.27922,147.964,Q,Q
2023-03-15 20:35:04:350,0,-54.426,2.27801,147.965,Q,Q
2023-03-15 20:35:04:360,0,-54.4235,2.27579,147.963,Q,Q
2023-03-15 20:35:04:370,0,-54.421,2.27506,147.967,Q,Q
2023-03-15 20:35:04:380,0,-54.4233,2.276,147.963,Q,Q
2023-03-15 20:35:04:390,0,-54.4242,2.27661,147.964,Q,Q
2023-03-15 20:35:04:400,0,-54.4216,2.27448,147.965,Q,Q
2023-03-15 20:35:04:410,0,-54.4221,2.27075,147.964,Q,Q
2023-03-15 20:35:04:420,0,-54.42,2.26966,147.966,Q,Q
2023-03-15 20:35:04:430,0,-54.4183,2.27193,147.968,Q,Q
2023-03-15 20:35:04:441,0,-54.4217,2.27026,147.969,Q,Q
2023-03-15 20:35:04:451,0,-54.4187,2.27187,147.968,Q,Q
2023-03-15 20:35:04:461,0,-54.4194,2.26931,147.971,Q,Q
2023-03-15 20:35:04:471,0,-54.422,2.2697,147.971,Q,Q
2023-03-15 20:35:04:481,0,-54.4235,2.26997,147.973,Q,Q
2023-03-15 20:35:04:491,0,-54.4267,2.27094,147.975,Q,Q
2023-03-15 20:35:04:501,0,-54.4301,2.27135,147.976,Q,Q
2023-03-15 20:35:04:511,0,-54.4259,2.27,147.974,Q,Q
2023-03-15 20:35:04:521,0,-54.4218,2.27115,147.976,Q,Q
2023-03-15 20:35:04:531,0,-54.4211,2.26925,147.975,Q,Q
2023-03-15 20:35:04:541,0,-54.4194,2.27141,147.977,Q,Q
2023-03-15 20:35:04:551,0,-54.4193,2.27052,147.979,Q,Q
2023-03-15 20:35:04:561,0,-54.4195,2.26816,147.982,Q,Q
2023-03-15 20:35:04:571,0,-54.4187,2.26887,147.982,Q,Q
2023-03-15 20:35:04:581,0,-54.4155,2.26827,147.986,Q,Q
2023-03-15 20:35:04:591,0,-54.4137,2.2681,147.987,Q,Q
2023-03-15 20:35:04:602,0,-54.413,2.26626,147.987,Q,Q
2023-03-15 20:35:04:611,0,-54.4113,2.26584,147.986,Q,Q
2023-03-15 20:35:04:621,0,-54.4083,2.26714,147.988,Q,Q
2023-03-15 20:35:04:631,0,-54.4119,2.2647,147.987,Q,Q
2023-03-15 20:35:04:642,0,-54.4114,2.26353,147.986,Q,Q
2023-03-15 20:35:04:652,0,-54.4129,2.26121,147.986,Q,Q
2023-03-15 20:35:04:662,0,-54.4122,2.26336,147.985,Q,Q
2023-03-15 20:35:04:672,0,-54.4127,2.26638,147.985,Q,Q
2023-03-15 20:35:04:682,0,-54.4121,2.2671,147.984,Q,Q
2023-03-15 20:35:04:692,0,-54.4108,2.26781,147.986,Q,Q
2023-03-15 20:35:04:702,0,-54.4116,2.26674,147.987,Q,Q
2023-03-15 20:35:04:712,0,-54.4102,2.26551,147.987,Q,Q
2023-03-15 20:35:04:722,0,-54.4086,2.26404,147.985,Q,Q
2023-03-15 20:35:04:732,0,-54.4083,2.26827,147.983,Q,Q
2023-03-15 20:35:04:742,0,-54.4059,2.26944,147.986,Q,Q
2023-03-15 20:35:04:752,0,-54.4079,2.26864,147.985,Q,Q
2023-03-15 20:35:04:763,0,-54.4037,2.2686,147.985,Q,Q
2023-03-15 20:35:04:772,0,-54.4051,2.26952,147.986,Q,Q
2023-03-15 20:35:04:783,0,-54.4061,2.26943,147.991,Q,Q
2023-03-15 20:35:04:793,0,-54.4053,2.26826,147.994,Q,Q
2023-03-15 20:35:04:803,0,-54.4064,2.26938,147.996,Q,Q
2023-03-15 20:35:04:813,0,-54.4076,2.26557,147.995,Q,Q
2023-03-15 20:35:04:823,0,-54.4097,2.26801,147.995,Q,Q
2023-03-15 20:35:04:833,0,-54.4087,2.26889,147.994,Q,Q
2023-03-15 20:35:04:843,0,-54.4106,2.26816,147.993,Q,Q
2023-03-15 20:35:04:853,0,-54.4112,2.2699,147.992,Q,Q
2023-03-15 20:35:04:863,0,-54.409,2.26896,147.994,Q,Q
2023-03-15 20:35:04:873,0,-54.4069,2.2718,147.994,Q,Q
2023-03-15 20:35:04:883,0,-54.4072,2.27319,147.996,Q,Q
2023-03-15 20:35:04:893,0,-54.4095,2.27318,148.0,Q,Q
2023-03-15 20:35:04:903,0,-54.411,2.27245,147.999,Q,Q
2023-03-15 20:35:04:913,0,-54.4109,2.27533,147.996,Q,Q
2023-03-15 20:35:04:923,0,-54.4085,2.27766,147.997,Q,Q
2023-03-15 20:35:04:933,0,-54.4105,2.27838,147.999,Q,Q
2023-03-15 20:35:04:943,0,-54.4095,2.27864,148.002,Q,Q
2023-03-15 20:35:04:954,0,-54.4105,2.2789,148.001,Q,Q
2023-03-15 20:35:04:964,0,-54.41,2.28007,148.0,Q,Q
2023-03-15 20:35:04:974,0,-54.4102,2.27821,148.0,Q,Q
2023-03-15 20:35:04:983,0,-54.412,2.27803,147.999,Q,Q
2023-03-15 20:35:04:994,0,-54.4125,2.28009,148.002,Q,Q
2023-03-15 20:35:05:4,0,-54.4111,2.2783,148.003,Q,Q
2023-03-15 20:35:05:14,0,-54.411,2.27852,148.005,Q,Q
2023-03-15 20:35:05:24,0,-54.4112,2.27425,148.006,Q,Q
2023-03-15 20:35:05:34,0,-54.4122,2.27483,148.007,Q,Q
2023-03-15 20:35:05:44,0,-54.4103,2.27451,148.007,Q,Q
2023-03-15 20:35:05:54,0,-54.4122,2.27619,148.009,Q,Q
2023-03-15 20:35:05:64,0,-54.4094,2.27575,148.007,Q,Q
2023-03-15 20:35:05:74,0,-54.4115,2.27549,148.008,Q,Q
2023-03-15 20:35:05:84,0,-54.4138,2.27267,148.009,Q,Q
2023-03-15 20:35:05:94,0,-54.4167,2.27367,148.008,Q,Q
2023-03-15 20:35:05:104,0,-54.4154,2.27491,148.009,Q,Q
2023-03-15 20:35:05:114,0,-54.4185,2.27781,148.01,Q,Q
2023-03-15 20:35:05:124,0,-54.4186,2.28136,148.012,Q,Q
2023-03-15 20:35:05:134,0,-54.4176,2.28054,148.011,Q,Q
2023-03-15 20:35:05:145,0,-54.4205,2.28029,148.012,Q,Q
2023-03-15 20:35:05:155,0,-54.4188,2.28055,148.012,Q,Q
2023-03-15 20:35:05:165,0,-54.42,2.28029,148.009,Q,Q
2023-03-15 20:35:05:175,0,-54.4191,2.28057,148.013,Q,Q
2023-03-15 20:35:05:185,0,-54.4169,2.2832,148.014,Q,Q
2023-03-15 20:35:05:195,0,-54.4179,2.28436,148.015,Q,Q
2023-03-15 20:35:05:205,0,-54.4164,2.28149,148.012,Q,Q
2023-03-15 20:35:05:215,0,-54.4167,2.27908,148.01,Q,Q
2023-03-15 20:35:05:225,0,-54.4176,2.28074,148.009,Q,Q
2023-03-15 20:35:05:235,0,-54.4192,2.27997,148.009,Q,Q
2023-03-15 20:35:05:245,0,-54.4205,2.27922,148.007,Q,Q
2023-03-15 20:35:05:255,0,-54.4212,2.27829,148.006,Q,Q
2023-03-15 20:35:05:265,0,-54.4215,2.2779,148.003,Q,Q
2023-03-15 20:35:05:275,0,-54.4239,2.27725,148.002,Q,Q
2023-03-15 20:35:05:285,0,-54.4235,2.27731,148.004,Q,Q
2023-03-15 20:35:05:295,0,-54.4229,2.27702,148.002,Q,Q
2023-03-15 20:35:05:305,0,-54.4212,2.27689,148.004,Q,Q
2023-03-15 20:35:05:315,0,-54.4195,2.27748,148.003,Q,Q
2023-03-15 20:35:05:325,0,-54.4187,2.27676,148.004,Q,Q
2023-03-15 20:35:05:335,0,-54.4176,2.27582,148.006,Q,Q
2023-03-15 20:35:05:345,0,-54.4155,2.27629,148.002,Q,Q
2023-03-15 20:35:05:355,0,-54.4134,2.27915,148.003,Q,Q
2023-03-15 20:35:05:366,0,-54.4165,2.27693,148.004,Q,Q
2023-03-15 20:35:05:376,0,-54.4166,2.27455,148.003,Q,Q
2023-03-15 20:35:05:386,0,-54.4156,2.27525,148.003,Q,Q
2023-03-15 20:35:05:396,0,-54.4142,2.2769,148.004,Q,Q
2023-03-15 20:35:05:406,0,-54.4146,2.27515,148.006,Q,Q
2023-03-15 20:35:05:416,0,-54.4141,2.2745,148.004,Q,Q
2023-03-15 20:35:05:426,0,-54.4099,2.27688,148.003,Q,Q
2023-03-15 20:35:05:436,0,-54.4088,2.278,148.003,Q,Q
2023-03-15 20:35:05:446,0,-54.4083,2.279,148.003,Q,Q
2023-03-15 20:35:05:456,0,-54.4079,2.27956,148.004,Q,Q
2023-03-15 20:35:05:466,0,-54.4063,2.27992,148.006,Q,Q
2023-03-15 20:35:05:476,0,-54.407,2.27972,148.008,Q,Q
2023-03-15 20:35:05:486,0,-54.4071,2.27852,148.01,Q,Q
2023-03-15 20:35:05:496,0,-54.4055,2.2759,148.012,Q,Q
2023-03-15 20:35:05:506,0,-54.4038,2.27519,148.013,Q,Q
2023-03-15 20:35:05:516,0,-54.402,2.272,148.016,Q,Q
2023-03-15 20:35:05:526,0,-54.4018,2.27338,148.016,Q,Q
2023-03-15 20:35:05:536,0,-54.4009,2.27451,148.015,Q,Q
2023-03-15 20:35:05:546,0,-54.4005,2.27583,148.015,Q,Q
2023-03-15 20:35:05:556,0,-54.3998,2.27598,148.013,Q,Q
2023-03-15 20:35:05:567,0,-54.3993,2.27553,148.012,Q,Q
2023-03-15 20:35:05:577,0,-54.4016,2.27654,148.011,Q,Q
2023-03-15 20:35:05:586,0,-54.4022,2.27513,148.009,Q,Q
2023-03-15 20:35:05:597,0,-54.4015,2.27557,148.011,Q,Q
2023-03-15 20:35:05:607,0,-54.4044,2.27628,148.012,Q,Q
2023-03-15 20:35:05:617,0,-54.4025,2.27523,148.014,Q,Q
2023-03-15 20:35:05:627,0,-54.4045,2.27479,148.013,Q,Q
2023-03-15 20:35:05:637,0,-54.4074,2.27396,148.014,Q,Q
2023-03-15 20:35:05:647,0,-54.4061,2.27661,148.014,Q,Q
2023-03-15 20:35:05:657,0,-54.4095,2.2787,148.014,Q,Q
2023-03-15 20:35:05:667,0,-54.409,2.27905,148.014,Q,Q
2023-03-15 20:35:05:677,0,-54.4094,2.28229,148.014,Q,Q
2023-03-15 20:35:05:687,0,-54.4098,2.28114,148.013,Q,Q
2023-03-15 20:35:05:697,0,-54.4103,2.28348,148.012,Q,Q
2023-03-15 20:35:05:707,0,-54.4086,2.28384,148.012,Q,Q
2023-03-15 20:35:05:717,0,-54.4076,2.28663,148.015,Q,Q
2023-03-15 20:35:05:727,0,-54.4053,2.28823,148.014,Q,Q
2023-03-15 20:35:05:737,0,-54.404,2.28896,148.017,Q,Q
2023-03-15 20:35:05:747,0,-54.4046,2.2899,148.017,Q,Q
2023-03-15 20:35:05:758,0,-54.4071,2.29019,148.014,Q,Q
2023-03-15 20:35:05:767,0,-54.4058,2.29004,148.014,Q,Q
2023-03-15 20:35:05:778,0,-54.4048,2.29102,148.014,Q,Q
2023-03-15 20:35:05:788,0,-54.4036,2.28819,148.014,Q,Q
2023-03-15 20:35:05:798,0,-54.4057,2.28591,148.015,Q,Q
2023-03-15 20:35:05:808,0,-54.406,2.28548,148.016,Q,Q
2023-03-15 20:35:05:818,0,-54.4056,2.28729,148.017,Q,Q
2023-03-15 20:35:05:828,0,-54.4067,2.28828,148.016,Q,Q
2023-03-15 20:35:05:838,0,-54.4045,2.28865,148.016,Q,Q
2023-03-15 20:35:05:848,0,-54.4049,2.28652,148.016,Q,Q
2023-03-15 20:35:05:858,0,-54.4037,2.28573,148.016,Q,Q
2023-03-15 20:35:05:868,0,-54.4016,2.28439,148.016,Q,Q
2023-03-15 20:35:05:878,0,-54.3995,2.28254,148.013,Q,Q
2023-03-15 20:35:05:888,0,-54.3996,2.28252,148.011,Q,Q
2023-03-15 20:35:05:898,0,-54.3976,2.28259,148.01,Q,Q
2023-03-15 20:35:05:908,0,-54.397,2.28386,148.007,Q,Q
2023-03-15 20:35:05:918,0,-54.3979,2.28396,148.007,Q,Q
2023-03-15 20:35:05:928,0,-54.3987,2.28258,148.004,Q,Q
2023-03-15 20:35:05:938,0,-54.4006,2.28072,148.004,Q,Q
2023-03-15 20:35:05:948,0,-54.3983,2.28136,148.002,Q,Q
2023-03-15 20:35:05:959,0,-54.3988,2.281,148.0,Q,Q
2023-03-15 20:35:05:969,0,-54.3986,2.28086,148.002,Q,Q
2023-03-15 20:35:05:979,0,-54.3988,2.28119,148.001,Q,Q
2023-03-15 20:35:05:989,0,-54.3986,2.27921,148.0,Q,Q
2023-03-15 20:35:05:999,0,-54.3998,2.27927,148.001,Q,Q
2023-03-15 20:35:06:8,0,-54.3984,2.27938,148.003,Q,Q
2023-03-15 20:35:06:19,0,-54.3984,2.28083,148.005,Q,Q
2023-03-15 20:35:06:29,0,-54.3972,2.2798,148.007,Q,Q
2023-03-15 20:35:06:39,0,-54.3956,2.28014,148.004,Q,Q
2023-03-15 20:35:06:49,0,-54.3945,2.27978,148.003,Q,Q
2023-03-15 20:35:06:59,0,-54.3932,2.27848,148.001,Q,Q
2023-03-15 20:35:06:69,0,-54.3893,2.27836,148.004,Q,Q
2023-03-15 20:35:06:79,0,-54.3883,2.27655,148.004,Q,Q
2023-03-15 20:35:06:89,0,-54.3865,2.27643,148.003,Q,Q
2023-03-15 20:35:06:99,0,-54.3864,2.27459,148.002,Q,Q
2023-03-15 20:35:06:109,0,-54.3851,2.27426,148.0,Q,Q
2023-03-15 20:35:06:119,0,-54.3847,2.27164,148.002,Q,Q
2023-03-15 20:35:06:129,0,-54.3852,2.27153,148.0,Q,Q
2023-03-15 20:35:06:139,0,-54.3839,2.27142,147.997,Q,Q
2023-03-15 20:35:06:149,0,-54.3836,2.27321,147.998,Q,Q
2023-03-15 20:35:06:159,0,-54.3836,2.27102,148.0,Q,Q
2023-03-15 20:35:06:169,0,-54.3822,2.27011,148.0,Q,Q
2023-03-15 20:35:06:179,0,-54.3804,2.27085,147.999,Q,Q
2023-03-15 20:35:06:189,0,-54.3828,2.26873,148.001,Q,Q
2023-03-15 20:35:06:200,0,-54.3812,2.2698,148.001,Q,Q
2023-03-15 20:35:06:209,0,-54.3812,2.2705,147.999,Q,Q
2023-03-15 20:35:06:219,0,-54.3829,2.27031,148.0,Q,Q
2023-03-15 20:35:06:230,0,-54.3841,2.26795,148.003,Q,Q
2023-03-15 20:35:06:240,0,-54.3842,2.26805,148.003,Q,Q
2023-03-15 20:35:06:250,0,-54.386,2.2651,148.004,Q,Q
2023-03-15 20:35:06:260,0,-54.3848,2.26634,148.004,Q,Q
2023-03-15 20:35:06:270,0,-54.3851,2.26508,148.008,Q,Q
2023-03-15 20:35:06:280,0,-54.3858,2.26555,148.006,Q,Q
2023-03-15 20:35:06:290,0,-54.3852,2.26873,148.008,Q,Q
2023-03-15 20:35:06:300,0,-54.3867,2.27075,148.011,Q,Q
2023-03-15 20:35:06:310,0,-54.388,2.27075,148.01,Q,Q
2023-03-15 20:35:06:320,0,-54.3892,2.27088,148.011,Q,Q
2023-03-15 20:35:06:330,0,-54.3893,2.27045,148.012,Q,Q
2023-03-15 20:35:06:340,0,-54.3896,2.27041,148.013,Q,Q
2023-03-15 20:35:06:350,0,-54.3888,2.27198,148.012,Q,Q
2023-03-15 20:35:06:360,0,-54.3874,2.27212,148.014,Q,Q
2023-03-15 20:35:06:370,0,-54.3873,2.27045,148.012,Q,Q
2023-03-15 20:35:06:380,0,-54.3886,2.26763,148.013,Q,Q
2023-03-15 20:35:06:391,0,-54.3881,2.26686,148.014,Q,Q
2023-03-15 20:35:06:400,0,-54.3884,2.26778,148.011,Q,Q
2023-03-15 20:35:06:411,0,-54.3884,2.26828,148.011,Q,Q
2023-03-15 20:35:06:421,0,-54.3878,2.26848,148.01,Q,Q
2023-03-15 20:35:06:431,0,-54.3867,2.26559,148.01,Q,Q
2023-03-15 20:35:06:441,0,-54.3853,2.26602,148.013,Q,Q
2023-03-15 20:35:06:451,0,-54.3857,2.26623,148.015,Q,Q
2023-03-15 20:35:06:461,0,-54.3842,2.26423,148.016,Q,Q
2023-03-15 20:35:06:471,0,-54.3836,2.26678,148.015,Q,Q
2023-03-15 20:35:06:481,0,-54.3824,2.26686,148.014,Q,Q
2023-03-15 20:35:06:491,0,-54.3836,2.26501,148.014,Q,Q
2023-03-15 20:35:06:501,0,-54.3814,2.26496,148.012,Q,Q
2023-03-15 20:35:06:511,0,-54.3829,2.26814,148.013,Q,Q
2023-03-15 20:35:06:521,0,-54.3821,2.26818,148.018,Q,Q
2023-03-15 20:35:06:531,0,-54.3821,2.26865,148.018,Q,Q
2023-03-15 20:35:06:541,0,-54.3832,2.26857,148.018,Q,Q
2023-03-15 20:35:06:551,0,-54.3818,2.26673,148.018,Q,Q
2023-03-15 20:35:06:561,0,-54.3837,2.26593,148.017,Q,Q
2023-03-15 20:35:06:571,0,-54.3834,2.26513,148.019,Q,Q
2023-03-15 20:35:06:581,0,-54.3839,2.26393,148.018,Q,Q
2023-03-15 20:35:06:591,0,-54.3832,2.266,148.017,Q,Q
2023-03-15 20:35:06:601,0,-54.3803,2.26608,148.013,Q,Q
2023-03-15 20:35:06:611,0,-54.379,2.26302,148.016,Q,Q
2023-03-15 20:35:06:621,0,-54.3789,2.26215,148.018,Q,Q
2023-03-15 20:35:06:631,0,-54.3806,2.26137,148.02,Q,Q
2023-03-15 20:35:06:642,0,-54.379,2.26347,148.022,Q,Q
2023-03-15 20:35:06:651,0,-54.3774,2.26453,148.024,Q,Q
2023-03-15 20:35:06:661,0,-54.3768,2.2658,148.021,Q,Q
2023-03-15 20:35:06:671,0,-54.3758,2.26538,148.024,Q,Q
2023-03-15 20:35:06:682,0,-54.3776,2.26678,148.024,Q,Q
2023-03-15 20:35:06:692,0,-54.3784,2.26789,148.024,Q,Q
2023-03-15 20:35:06:702,0,-54.3782,2.27095,148.023,Q,Q
2023-03-15 20:35:06:712,0,-54.3814,2.26943,148.02,Q,Q
2023-03-15 20:35:06:722,0,-54.3845,2.27064,148.022,Q,Q
2023-03-15 20:35:06:732,0,-54.3842,2.27173,148.022,Q,Q
2023-03-15 20:35:06:742,0,-54.3849,2.27088,148.022,Q,Q
2023-03-15 20:35:06:752,0,-54.3816,2.27101,148.024,Q,Q
2023-03-15 20:35:06:762,0,-54.3768,2.27184,148.025,Q,Q
2023-03-15 20:35:06:772,0,-54.3752,2.27037,148.028,Q,Q
2023-03-15 20:35:06:782,0,-54.3752,2.2688,148.029,Q,Q
2023-03-15 20:35:06:792,0,-54.376,2.26726,148.031,Q,Q
2023-03-15 20:35:06:802,0,-54.3771,2.26836,148.033,Q,Q
2023-03-15 20:35:06:812,0,-54.379,2.26653,148.032,Q,Q
2023-03-15 20:35:06:822,0,-54.3791,2.26734,148.031,Q,Q
2023-03-15 20:35:06:832,0,-54.3799,2.26571,148.032,Q,Q
2023-03-15 20:35:06:842,0,-54.3799,2.26641,148.032,Q,Q
2023-03-15 20:35:06:852,0,-54.3801,2.26696,148.029,Q,Q
2023-03-15 20:35:06:863,0,-54.3825,2.2672,148.032,Q,Q
2023-03-15 20:35:06:873,0,-54.3819,2.2657,148.03,Q,Q
2023-03-15 20:35:06:883,0,-54.3836,2.26683,148.031,Q,Q
2023-03-15 20:35:06:893,0,-54.3839,2.26815,148.028,Q,Q
2023-03-15 20:35:06:903,0,-54.3823,2.26549,148.029,Q,Q
2023-03-15 20:35:06:913,0,-54.3821,2.2654,148.029,Q,Q
2023-03-15 20:35:06:923,0,-54.3827,2.26499,148.027,Q,Q
2023-03-15 20:35:06:933,0,-54.3846,2.26322,148.026,Q,Q
2023-03-15 20:35:06:943,0,-54.3838,2.26499,148.025,Q,Q
2023-03-15 20:35:06:953,0,-54.3841,2.26293,148.024,Q,Q
2023-03-15 20:35:06:963,0,-54.3838,2.26419,148.021,Q,Q
2023-03-15 20:35:06:973,0,-54.3829,2.26522,148.022,Q,Q
2023-03-15 20:35:06:983,0,-54.3822,2.2673,148.023,Q,Q
2023-03-15 20:35:06:993,0,-54.3824,2.26702,148.025,Q,Q
2023-03-15 20:35:07:3,0,-54.3833,2.26758,148.025,Q,Q
2023-03-15 20:35:07:13,0,-54.3849,2.26818,148.026,Q,Q
2023-03-15 20:35:07:23,0,-54.3887,2.26767,148.025,Q,Q
2023-03-15 20:35:07:33,0,-54.3895,2.26733,148.027,Q,Q
2023-03-15 20:35:07:43,0,-54.3898,2.26598,148.03,Q,Q
2023-03-15 20:35:07:53,0,-54.3888,2.26689,148.028,Q,Q
2023-03-15 20:35:07:63,0,-54.389,2.26892,148.026,Q,Q
2023-03-15 20:35:07:74,0,-54.3879,2.26932,148.024,Q,Q
2023-03-15 20:35:07:83,0,-54.3868,2.27122,148.02,Q,Q
2023-03-15 20:35:07:94,0,-54.3874,2.26873,148.022,Q,Q
2023-03-15 20:35:07:104,0,-54.3876,2.26554,148.027,Q,Q
2023-03-15 20:35:07:113,0,-54.386,2.26744,148.027,Q,Q
2023-03-15 20:35:07:123,0,-54.3852,2.26807,148.027,Q,Q
2023-03-15 20:35:07:134,0,-54.3829,2.26708,148.024,Q,Q
2023-03-15 20:35:07:144,0,-54.3822,2.26512,148.027,Q,Q
2023-03-15 20:35:07:154,0,-54.3831,2.26022,148.028,Q,Q
2023-03-15 20:35:07:163,0,-54.3836,2.26137,148.026,Q,Q
2023-03-15 20:35:07:174,0,-54.3848,2.26322,148.025,Q,Q
2023-03-15 20:35:07:184,0,-54.384,2.26442,148.024,Q,Q
2023-03-15 20:35:07:194,0,-54.3862,2.2642,148.023,Q,Q
2023-03-15 20:35:07:204,0,-54.3853,2.2665,148.022,Q,Q
2023-03-15 20:35:07:214,0,-54.3841,2.26664,148.022,Q,Q
2023-03-15 20:35:07:224,0,-54.3849,2.26734,148.023,Q,Q
2023-03-15 20:35:07:234,0,-54.3843,2.26479,148.026,Q,Q
2023-03-15 20:35:07:244,0,-54.3844,2.26465,148.027,Q,Q
2023-03-15 20:35:07:254,0,-54.3844,2.26409,148.029,Q,Q
2023-03-15 20:35:07:264,0,-54.39,2.26653,148.027,Q,Q
2023-03-15 20:35:07:274,0,-54.3923,2.26893,148.026,Q,Q
2023-03-15 20:35:07:284,0,-54.3934,2.26799,148.025,Q,Q
2023-03-15 20:35:07:294,0,-54.3901,2.26503,148.027,Q,Q
2023-03-15 20:35:07:304,0,-54.3885,2.26653,148.027,Q,Q
2023-03-15 20:35:07:314,0,-54.3861,2.2689,148.025,Q,Q
2023-03-15 20:35:07:324,0,-54.3861,2.26778,148.027,Q,Q
2023-03-15 20:35:07:334,0,-54.386,2.27019,148.027,Q,Q
2023-03-15 20:35:07:344,0,-54.388,2.27058,148.026,Q,Q
2023-03-15 20:35:07:354,0,-54.3895,2.26888,148.024,Q,Q
2023-03-15 20:35:07:364,0,-54.3891,2.27169,148.026,Q,Q
2023-03-15 20:35:07:375,0,-54.3906,2.27132,148.028,Q,Q
2023-03-15 20:35:07:385,0,-54.3934,2.27147,148.031,Q,Q
2023-03-15 20:35:07:394,0,-54.392,2.27084,148.031,Q,Q
2023-03-15 20:35:07:405,0,-54.3898,2.2731,148.032,Q,Q
2023-03-15 20:35:07:415,0,-54.3923,2.27291,148.033,Q,Q
2023-03-15 20:35:07:425,0,-54.3962,2.27509,148.034,Q,Q
2023-03-15 20:35:07:435,0,-54.3968,2.27513,148.032,Q,Q
2023-03-15 20:35:07:445,0,-54.3981,2.27552,148.033,Q,Q
2023-03-15 20:35:07:455,0,-54.4001,2.27508,148.031,Q,Q
2023-03-15 20:35:07:465,0,-54.4007,2.27641,148.032,Q,Q
2023-03-15 20:35:07:475,0,-54.4014,2.27656,148.032,Q,Q
2023-03-15 20:35:07:485,0,-54.4001,2.27682,148.031,Q,Q
2023-03-15 20:35:07:495,0,-54.3994,2.27617,148.032,Q,Q
2023-03-15 20:35:07:505,0,-54.4007,2.27549,148.033,Q,Q
2023-03-15 20:35:07:515,0,-54.4007,2.27537,148.031,Q,Q
2023-03-15 20:35:07:525,0,-54.4,2.27462,148.034,Q,Q
2023-03-15 20:35:07:535,0,-54.3998,2.27706,148.033,Q,Q
2023-03-15 20:35:07:545,0,-54.3977,2.27729,148.03,Q,Q
2023-03-15 20:35:07:555,0,-54.3955,2.2763,148.034,Q,Q
2023-03-15 20:35:07:565,0,-54.3928,2.27613,148.037,Q,Q
2023-03-15 20:35:07:575,0,-54.3919,2.27687,148.038,Q,Q
2023-03-15 20:35:07:585,0,-54.3903,2.2766,148.039,Q,Q
2023-03-15 20:35:07:595,0,-54.3923,2.27918,148.037,Q,Q
2023-03-15 20:35:07:605,0,-54.3913,2.27949,148.038,Q,Q
2023-03-15 20:35:07:615,0,-54.3902,2.28047,148.038,Q,Q
2023-03-15 20:35:07:625,0,-54.3891,2.2809,148.037,Q,Q
2023-03-15 20:35:07:635,0,-54.3904,2.2808,148.034,Q,Q
2023-03-15 20:35:07:645,0,-54.3894,2.28321,148.036,Q,Q
2023-03-15 20:35:07:655,0,-54.3914,2.2831,148.037,Q,Q
2023-03-15 20:35:07:666,0,-54.3927,2.28058,148.037,Q,Q
2023-03-15 20:35:07:675,0,-54.3911,2.28363,148.039,Q,Q
2023-03-15 20:35:07:685,0,-54.3924,2.28467,148.036,Q,Q
2023-03-15 20:35:07:695,0,-54.3938,2.28228,148.035,Q,Q
2023-03-15 20:35:07:706,0,-54.3961,2.28283,148.037,Q,Q
2023-03-15 20:35:07:716,0,-54.3969,2.2853,148.038,Q,Q
2023-03-15 20:35:07:726,0,-54.3979,2.28612,148.039,Q,Q
2023-03-15 20:35:07:736,0,-54.3959,2.2857,148.039,Q,Q
2023-03-15 20:35:07:746,0,-54.3932,2.28794,148.041,Q,Q
2023-03-15 20:35:07:756,0,-54.3931,2.28563,148.041,Q,Q
2023-03-15 20:35:07:766,0,-54.3896,2.28602,148.041,Q,Q
2023-03-15 20:35:07:776,0,-54.3893,2.28398,148.042,Q,Q
2023-03-15 20:35:07:786,0,-54.3886,2.28504,148.042,Q,Q
2023-03-15 20:35:07:796,0,-54.389,2.28304,148.042,Q,Q
2023-03-15 20:35:07:806,0,-54.3908,2.28327,148.045,Q,Q
2023-03-15 20:35:07:816,0,-54.3901,2.2828,148.049,Q,Q
2023-03-15 20:35:07:826,0,-54.3886,2.28426,148.05,Q,Q
2023-03-15 20:35:07:836,0,-54.3896,2.28662,148.05,Q,Q
2023-03-15 20:35:07:846,0,-54.3913,2.28508,148.051,Q,Q
2023-03-15 20:35:07:856,0,-54.3944,2.28482,148.053,Q,Q
2023-03-15 20:35:07:866,0,-54.3922,2.2867,148.053,Q,Q
2023-03-15 20:35:07:876,0,-54.3925,2.28701,148.051,Q,Q
2023-03-15 20:35:07:886,0,-54.3931,2.2887,148.05,Q,Q
2023-03-15 20:35:07:896,0,-54.3935,2.28703,148.051,Q,Q
2023-03-15 20:35:07:907,0,-54.392,2.28765,148.053,Q,Q
2023-03-15 20:35:07:917,0,-54.3916,2.2869,148.054,Q,Q
2023-03-15 20:35:07:927,0,-54.3967,2.28738,148.055,Q,Q
2023-03-15 20:35:07:937,0,-54.3983,2.28698,148.059,Q,Q
2023-03-15 20:35:07:946,0,-54.4006,2.28683,148.057,Q,Q
2023-03-15 20:35:07:957,0,-54.4023,2.28719,148.058,Q,Q
2023-03-15 20:35:07:967,0,-54.4022,2.28637,148.057,Q,Q
2023-03-15 20:35:07:977,0,-54.4025,2.28599,148.059,Q,Q
2023-03-15 20:35:07:987,0,-54.4029,2.28457,148.059,Q,Q
2023-03-15 20:35:07:997,0,-54.4037,2.28426,148.058,Q,Q
2023-03-15 20:35:08:7,0,-54.4009,2.28398,148.058,Q,Q
2023-03-15 20:35:08:17,0,-54.4011,2.28334,148.06,Q,Q
2023-03-15 20:35:08:27,0,-54.3984,2.28516,148.062,Q,Q
2023-03-15 20:35:08:37,0,-54.3982,2.28473,148.062,Q,Q
2023-03-15 20:35:08:47,0,-54.396,2.28458,148.062,Q,Q
2023-03-15 20:35:08:57,0,-54.3941,2.28356,148.061,Q,Q
2023-03-15 20:35:08:67,0,-54.3925,2.28294,148.061,Q,Q
2023-03-15 20:35:08:77,0,-54.3924,2.28321,148.06,Q,Q
2023-03-15 20:35:08:87,0,-54.3907,2.28464,148.063,Q,Q
2023-03-15 20:35:08:97,0,-54.3923,2.28228,148.065,Q,Q
2023-03-15 20:35:08:107,0,-54.3949,2.2808,148.065,Q,Q
2023-03-15 20:35:08:117,0,-54.3949,2.28084,148.064,Q,Q
2023-03-15 20:35:08:127,0,-54.3937,2.28063,148.062,Q,Q
2023-03-15 20:35:08:137,0,-54.3937,2.27792,148.062,Q,Q
2023-03-15 20:35:08:147,0,-54.3958,2.2788,148.062,Q,Q
2023-03-15 20:35:08:157,0,-54.3956,2.27343,148.06,Q,Q
2023-03-15 20:35:08:167,0,-54.3956,2.27443,148.059,Q,Q
2023-03-15 20:35:08:177,0,-54.3944,2.27439,148.062,Q,Q
2023-03-15 20:35:08:187,0,-54.3959,2.27401,148.062,Q,Q
2023-03-15 20:35:08:197,0,-54.3976,2.27451,148.064,Q,Q
2023-03-15 20:35:08:207,0,-54.3976,2.27232,148.065,Q,Q
2023-03-15 20:35:08:218,0,-54.3992,2.27184,148.062,Q,Q
2023-03-15 20:35:08:228,0,-54.3955,2.27337,148.065,Q,Q
2023-03-15 20:35:08:237,0,-54.3943,2.27521,148.067,Q,Q
2023-03-15 20:35:08:248,0,-54.3942,2.2759,148.067,Q,Q
2023-03-15 20:35:08:258,0,-54.395,2.2767,148.069,Q,Q
2023-03-15 20:35:08:268,0,-54.3955,2.27863,148.073,Q,Q
2023-03-15 20:35:08:278,0,-54.3954,2.27941,148.074,Q,Q
2023-03-15 20:35:08:288,0,-54.3941,2.27689,148.072,Q,Q
2023-03-15 20:35:08:298,0,-54.3941,2.27506,148.072,Q,Q
2023-03-15 20:35:08:308,0,-54.3955,2.27531,148.073,Q,Q
2023-03-15 20:35:08:318,0,-54.3959,2.27511,148.075,Q,Q
2023-03-15 20:35:08:328,0,-54.3959,2.27683,148.075,Q,Q
2023-03-15 20:35:08:338,0,-54.3934,2.27451,148.075,Q,Q
2023-03-15 20:35:08:348,0,-54.392,2.27149,148.075,Q,Q
2023-03-15 20:35:08:358,0,-54.3906,2.2724,148.074,Q,Q
2023-03-15 20:35:08:368,0,-54.3921,2.27231,148.077,Q,Q
2023-03-15 20:35:08:378,0,-54.3927,2.2726,148.078,Q,Q
2023-03-15 20:35:08:388,0,-54.3933,2.27236,148.077,Q,Q
2023-03-15 20:35:08:398,0,-54.3928,2.27201,148.078,Q,Q
2023-03-15 20:35:08:408,0,-54.3933,2.27045,148.08,Q,Q
2023-03-15 20:35:08:418,0,-54.3955,2.27301,148.08,Q,Q
2023-03-15 20:35:08:428,0,-54.3932,2.27228,148.078,Q,Q
2023-03-15 20:35:08:438,0,-54.3933,2.27262,148.08,Q,Q
2023-03-15 20:35:08:448,0,-54.3921,2.27268,148.08,Q,Q
2023-03-15 20:35:08:459,0,-54.3899,2.27313,148.083,Q,Q
2023-03-15 20:35:08:469,0,-54.3903,2.27434,148.086,Q,Q
2023-03-15 20:35:08:479,0,-54.3872,2.27512,148.084,Q,Q
2023-03-15 20:35:08:489,0,-54.3871,2.27426,148.087,Q,Q
2023-03-15 20:35:08:499,0,-54.389,2.27497,148.087,Q,Q
2023-03-15 20:35:08:508,0,-54.388,2.27397,148.087,Q,Q
2023-03-15 20:35:08:519,0,-54.3866,2.27352,148.091,Q,Q
2023-03-15 20:35:08:529,0,-54.3875,2.27444,148.088,Q,Q
2023-03-15 20:35:08:539,0,-54.3875,2.27564,148.087,Q,Q
2023-03-15 20:35:08:549,0,-54.3857,2.27756,148.086,Q,Q
2023-03-15 20:35:08:559,0,-54.3844,2.27768,148.085,Q,Q
2023-03-15 20:35:08:569,0,-54.3857,2.27758,148.082,Q,Q
2023-03-15 20:35:08:579,0,-54.3841,2.27776,148.083,Q,Q
2023-03-15 20:35:08:589,0,-54.3848,2.27969,148.084,Q,Q
2023-03-15 20:35:08:599,0,-54.3848,2.2809,148.083,Q,Q
2023-03-15 20:35:08:609,0,-54.3836,2.27901,148.083,Q,Q
2023-03-15 20:35:08:619,0,-54.3841,2.27905,148.084,Q,Q
2023-03-15 20:35:08:629,0,-54.3827,2.27894,148.086,Q,Q
2023-03-15 20:35:08:639,0,-54.3819,2.28078,148.087,Q,Q
2023-03-15 20:35:08:649,0,-54.3808,2.28286,148.088,Q,Q
2023-03-15 20:35:08:659,0,-54.3794,2.28249,148.092,Q,Q
2023-03-15 20:35:08:669,0,-54.3801,2.2836,148.094,Q,Q
2023-03-15 20:35:08:679,0,-54.3811,2.28209,148.095,Q,Q
2023-03-15 20:35:08:689,0,-54.3839,2.27832,148.091,Q,Q
2023-03-15 20:35:08:699,0,-54.3832,2.27767,148.091,Q,Q
2023-03-15 20:35:08:709,0,-54.3825,2.28049,148.091,Q,Q
2023-03-15 20:35:08:719,0,-54.3845,2.28245,148.088,Q,Q
2023-03-15 20:35:08:729,0,-54.3831,2.28318,148.091,Q,Q
2023-03-15 20:35:08:739,0,-54.387,2.28417,148.089,Q,Q
2023-03-15 20:35:08:749,0,-54.3849,2.28556,148.09,Q,Q
2023-03-15 20:35:08:759,0,-54.3872,2.28482,148.089,Q,Q
2023-03-15 20:35:08:769,0,-54.3851,2.28316,148.091,Q,Q
2023-03-15 20:35:08:779,0,-54.3866,2.28265,148.091,Q,Q
2023-03-15 20:35:08:789,0,-54.3881,2.28451,148.088,Q,Q
2023-03-15 20:35:08:799,0,-54.3879,2.2834,148.089,Q,Q
2023-03-15 20:35:08:809,0,-54.3886,2.28171,148.089,Q,Q
2023-03-15 20:35:08:820,0,-54.3841,2.28317,148.088,Q,Q
2023-03-15 20:35:08:830,0,-54.3827,2.28109,148.087,Q,Q
2023-03-15 20:35:08:840,0,-54.3809,2.27951,148.089,Q,Q
2023-03-15 20:35:08:850,0,-54.3844,2.27962,148.088,Q,Q
2023-03-15 20:35:08:860,0,-54.387,2.28172,148.087,Q,Q
2023-03-15 20:35:08:870,0,-54.3865,2.28006,148.09,Q,Q
2023-03-15 20:35:08:880,0,-54.3853,2.28092,148.09,Q,Q
2023-03-15 20:35:08:890,0,-54.3834,2.28227,148.09,Q,Q
2023-03-15 20:35:08:900,0,-54.3825,2.28107,148.091,Q,Q
2023-03-15 20:35:08:910,0,-54.3816,2.28101,148.092,Q,Q
2023-03-15 20:35:08:920,0,-54.3818,2.27843,148.093,Q,Q
2023-03-15 20:35:08:930,0,-54.3828,2.27819,148.091,Q,Q
2023-03-15 20:35:08:940,0,-54.3877,2.27884,148.088,Q,Q
2023-03-15 20:35:08:950,0,-54.3897,2.27804,148.085,Q,Q
2023-03-15 20:35:08:960,0,-54.3925,2.27733,148.083,Q,Q
2023-03-15 20:35:08:970,0,-54.3938,2.27583,148.085,Q,Q
2023-03-15 20:35:08:980,0,-54.3939,2.2754,148.086,Q,Q
2023-03-15 20:35:08:990,0,-54.3941,2.27336,148.088,Q,Q
2023-03-15 20:35:09:0,0,-54.3935,2.27396,148.091,Q,Q
2023-03-15 20:35:09:10,0,-54.3907,2.27664,148.091,Q,Q
2023-03-15 20:35:09:20,0,-54.3891,2.27429,148.091,Q,Q
2023-03-15 20:35:09:30,0,-54.389,2.2728,148.094,Q,Q
2023-03-15 20:35:09:40,0,-54.3896,2.27308,148.096,Q,Q
2023-03-15 20:35:09:50,0,-54.3919,2.27353,148.095,Q,Q
2023-03-15 20:35:09:60,0,-54.3916,2.27444,148.097,Q,Q
2023-03-15 20:35:09:71,0,-54.3921,2.27553,148.097,Q,Q
2023-03-15 20:35:09:81,0,-54.3906,2.27409,148.1,Q,Q
2023-03-15 20:35:09:91,0,-54.388,2.27521,148.099,Q,Q
2023-03-15 20:35:09:101,0,-54.3907,2.27558,148.1,Q,Q
2023-03-15 20:35:09:111,0,-54.3874,2.27679,148.101,Q,Q
2023-03-15 20:35:09:121,0,-54.3897,2.27919,148.102,Q,Q
2023-03-15 20:35:09:131,0,-54.3905,2.27639,148.101,Q,Q
2023-03-15 20:35:09:141,0,-54.3912,2.2778,148.101,Q,Q
2023-03-15 20:35:09:151,0,-54.39,2.27697,148.101,Q,Q
2023-03-15 20:35:09:161,0,-54.3895,2.27705,148.102,Q,Q
2023-03-15 20:35:09:171,0,-54.3919,2.27754,148.101,Q,Q
2023-03-15 20:35:09:181,0,-54.3912,2.27706,148.101,Q,Q
2023-03-15 20:35:09:191,0,-54.3934,2.27645,148.103,Q,Q
2023-03-15 20:35:09:201,0,-54.3881,2.27617,148.105,Q,Q
2023-03-15 20:35:09:210,0,-54.3879,2.27644,148.104,Q,Q
2023-03-15 20:35:09:220,0,-54.3903,2.27548,148.101,Q,Q
2023-03-15 20:35:09:231,0,-54.3892,2.27728,148.099,Q,Q
2023-03-15 20:35:09:241,0,-54.3889,2.27559,148.099,Q,Q
2023-03-15 20:35:09:251,0,-54.39,2.27612,148.1,Q,Q
2023-03-15 20:35:09:261,0,-54.392,2.2752,148.099,Q,Q
2023-03-15 20:35:09:271,0,-54.3905,2.27647,148.099,Q,Q
2023-03-15 20:35:09:281,0,-54.3911,2.27684,148.099,Q,Q
2023-03-15 20:35:09:291,0,-54.3899,2.28024,148.101,Q,Q
2023-03-15 20:35:09:301,0,-54.3903,2.27975,148.103,Q,Q
2023-03-15 20:35:09:311,0,-54.39,2.28015,148.103,Q,Q
2023-03-15 20:35:09:321,0,-54.3887,2.28,148.102,Q,Q
2023-03-15 20:35:09:331,0,-54.3885,2.27916,148.103,Q,Q
2023-03-15 20:35:09:341,0,-54.3879,2.27988,148.103,Q,Q
2023-03-15 20:35:09:351,0,-54.388,2.27935,148.103,Q,Q
2023-03-15 20:35:09:361,0,-54.3884,2.27997,148.102,Q,Q
2023-03-15 20:35:09:371,0,-54.3908,2.27952,148.104,Q,Q
2023-03-15 20:35:09:381,0,-54.3877,2.28097,148.105,Q,Q
2023-03-15 20:35:09:391,0,-54.3871,2.28064,148.106,Q,Q
2023-03-15 20:35:09:401,0,-54.3844,2.28054,148.105,Q,Q
2023-03-15 20:35:09:411,0,-54.3814,2.28059,148.105,Q,Q
2023-03-15 20:35:09:421,0,-54.3823,2.27967,148.105,Q,Q
2023-03-15 20:35:09:431,0,-54.3808,2.27855,148.104,Q,Q
2023-03-15 20:35:09:442,0,-54.3801,2.27814,148.105,Q,Q
2023-03-15 20:35:09:451,0,-54.3812,2.27761,148.107,Q,Q
2023-03-15 20:35:09:462,0,-54.3811,2.2749,148.107,Q,Q
2023-03-15 20:35:09:472,0,-54.3791,2.27568,148.11,Q,Q
2023-03-15 20:35:09:482,0,-54.379,2.27797,148.11,Q,Q
2023-03-15 20:35:09:492,0,-54.3791,2.27765,148.111,Q,Q
2023-03-15 20:35:09:502,0,-54.3771,2.28124,148.112,Q,Q
2023-03-15 20:35:09:512,0,-54.376,2.28144,148.111,Q,Q
2023-03-15 20:35:09:522,0,-54.3759,2.28617,148.112,Q,Q
2023-03-15 20:35:09:532,0,-54.3749,2.28755,148.114,Q,Q
2023-03-15 20:35:09:542,0,-54.3756,2.2843,148.113,Q,Q
2023-03-15 20:35:09:552,0,-54.3757,2.2868,148.114,Q,Q
2023-03-15 20:35:09:562,0,-54.3744,2.28806,148.116,Q,Q
2023-03-15 20:35:09:572,0,-54.3737,2.28951,148.116,Q,Q
2023-03-15 20:35:09:582,0,-54.374,2.29149,148.115,Q,Q
2023-03-15 20:35:09:592,0,-54.371,2.29175,148.116,Q,Q
2023-03-15 20:35:09:602,0,-54.3744,2.29029,148.119,Q,Q
2023-03-15 20:35:09:612,0,-54.3749,2.29352,148.117,Q,Q
2023-03-15 20:35:09:622,0,-54.3762,2.2925,148.118,Q,Q
2023-03-15 20:35:09:632,0,-54.3773,2.29335,148.118,Q,Q
2023-03-15 20:35:09:642,0,-54.3774,2.29343,148.118,Q,Q
2023-03-15 20:35:09:652,0,-54.3769,2.2944,148.117,Q,Q
2023-03-15 20:35:09:662,0,-54.3783,2.29431,148.117,Q,Q
2023-03-15 20:35:09:672,0,-54.3771,2.292,148.12,Q,Q
2023-03-15 20:35:09:682,0,-54.3773,2.29431,148.121,Q,Q
2023-03-15 20:35:09:692,0,-54.3769,2.29131,148.121,Q,Q
2023-03-15 20:35:09:702,0,-54.376,2.28925,148.124,Q,Q
2023-03-15 20:35:09:712,0,-54.3766,2.29187,148.127,Q,Q
2023-03-15 20:35:09:722,0,-54.3778,2.29295,148.126,Q,Q
2023-03-15 20:35:09:732,0,-54.3765,2.29202,148.127,Q,Q
2023-03-15 20:35:09:743,0,-54.3751,2.29442,148.127,Q,Q
2023-03-15 20:35:09:752,0,-54.3757,2.29259,148.129,Q,Q
2023-03-15 20:35:09:763,0,-54.3762,2.29594,148.127,Q,Q
2023-03-15 20:35:09:773,0,-54.3766,2.30082,148.127,Q,Q
2023-03-15 20:35:09:783,0,-54.3767,2.30044,148.127,Q,Q
2023-03-15 20:35:09:793,0,-54.3752,2.29987,148.126,Q,Q
2023-03-15 20:35:09:802,0,-54.3766,2.30167,148.125,Q,Q
2023-03-15 20:35:09:812,0,-54.3772,2.30141,148.125,Q,Q
2023-03-15 20:35:09:823,0,-54.3763,2.30391,148.126,Q,Q
2023-03-15 20:35:09:833,0,-54.3757,2.30354,148.125,Q,Q
2023-03-15 20:35:09:843,0,-54.3774,2.30013,148.128,Q,Q
2023-03-15 20:35:09:853,0,-54.3753,2.30076,148.13,Q,Q
2023-03-15 20:35:09:863,0,-54.3778,2.30316,148.134,Q,Q
2023-03-15 20:35:09:873,0,-54.3751,2.3009,148.131,Q,Q
2023-03-15 20:35:09:883,0,-54.3755,2.30005,148.128,Q,Q
2023-03-15 20:35:09:893,0,-54.3757,2.29673,148.13,Q,Q
2023-03-15 20:35:09:903,0,-54.3762,2.29373,148.13,Q,Q
2023-03-15 20:35:09:913,0,-54.38,2.2949,148.13,Q,Q
2023-03-15 20:35:09:923,0,-54.3798,2.29441,148.129,Q,Q
2023-03-15 20:35:09:933,0,-54.3801,2.29459,148.13,Q,Q
2023-03-15 20:35:09:943,0,-54.3813,2.29204,148.13,Q,Q
2023-03-15 20:35:09:953,0,-54.3831,2.29385,148.128,Q,Q
2023-03-15 20:35:09:963,0,-54.3827,2.29489,148.131,Q,Q
2023-03-15 20:35:09:973,0,-54.3827,2.29529,148.132,Q,Q
2023-03-15 20:35:09:983,0,-54.3823,2.29825,148.131,Q,Q
2023-03-15 20:35:09:993,0,-54.3868,2.29793,148.132,Q,Q
2023-03-15 20:35:10:3,0,-54.3842,2.29977,148.135,Q,Q
2023-03-15 20:35:10:13,0,-54.3866,2.2993,148.133,Q,Q
2023-03-15 20:35:10:23,0,-54.3882,2.30038,148.135,Q,Q
2023-03-15 20:35:10:33,0,-54.3875,2.30077,148.136,Q,Q
2023-03-15 20:35:10:43,0,-54.3859,2.30312,148.138,Q,Q
2023-03-15 20:35:10:53,0,-54.3879,2.3067,148.137,Q,Q
2023-03-15 20:35:10:63,0,-54.3892,2.30703,148.137,Q,Q
2023-03-15 20:35:10:74,0,-54.3884,2.30865,148.138,Q,Q
2023-03-15 20:35:10:83,0,-54.3882,2.30965,148.136,Q,Q
2023-03-15 20:35:10:93,0,-54.3887,2.30736,148.138,Q,Q
2023-03-15 20:35:10:103,0,-54.3874,2.30581,148.14,Q,Q
2023-03-15 20:35:10:114,0,-54.3844,2.30588,148.141,Q,Q
2023-03-15 20:35:10:123,0,-54.3858,2.30624,148.139,Q,Q
2023-03-15 20:35:10:134,0,-54.3851,2.30469,148.138,Q,Q
2023-03-15 20:35:10:143,0,-54.3857,2.30511,148.137,Q,Q
2023-03-15 20:35:10:154,0,-54.3829,2.30449,148.137,Q,Q
2023-03-15 20:35:10:164,0,-54.3811,2.30519,148.137,Q,Q
2023-03-15 20:35:10:174,0,-54.3824,2.30636,148.135,Q,Q
2023-03-15 20:35:10:184,0,-54.3824,2.30758,148.135,Q,Q
2023-03-15 20:35:10:194,0,-54.3825,2.30468,148.137,Q,Q
2023-03-15 20:35:10:204,0,-54.3863,2.30259,148.136,Q,Q
2023-03-15 20:35:10:214,0,-54.3877,2.29958,148.137,Q,Q
2023-03-15 20:35:10:223,0,-54.3877,2.30164,148.135,Q,Q
2023-03-15 20:35:10:233,0,-54.3894,2.30104,148.133,Q,Q
2023-03-15 20:35:10:244,0,-54.3887,2.29939,148.135,Q,Q
2023-03-15 20:35:10:253,0,-54.389,2.3012,148.135,Q,Q
2023-03-15 20:35:10:264,0,-54.39,2.30035,148.132,Q,Q
2023-03-15 20:35:10:274,0,-54.3943,2.30153,148.131,Q,Q
2023-03-15 20:35:10:284,0,-54.3938,2.30212,148.133,Q,Q
2023-03-15 20:35:10:294,0,-54.3943,2.30247,148.134,Q,Q
2023-03-15 20:35:10:304,0,-54.3918,2.30234,148.135,Q,Q
2023-03-15 20:35:10:314,0,-54.3906,2.30132,148.138,Q,Q
2023-03-15 20:35:10:324,0,-54.3899,2.29988,148.139,Q,Q
2023-03-15 20:35:10:334,0,-54.3881,2.30143,148.139,Q,Q
2023-03-15 20:35:10:344,0,-54.3895,2.29935,148.14,Q,Q
2023-03-15 20:35:10:354,0,-54.3866,2.29842,148.14,Q,Q
2023-03-15 20:35:10:364,0,-54.3858,2.30074,148.14,Q,Q
