Timestamp_cmd,imu_cmd,roll_delta,pitch_delta,yaw_delta
2023-03-11 22:46:47:806,0,-5.17933,-2.15049,-41.5109
2023-03-11 22:46:47:815,0,-5.21476,-2.16025,-41.441
2023-03-11 22:46:47:825,0,-5.2384,-2.16692,-41.3746
2023-03-11 22:46:47:835,0,-5.25267,-2.17404,-41.3148
2023-03-11 22:46:47:845,0,-5.24766,-2.18269,-41.2649
2023-03-11 22:46:47:855,0,-5.22864,-2.19373,-41.2232
2023-03-11 22:46:47:865,0,-5.20683,-2.20473,-41.1873
2023-03-11 22:46:47:875,0,-5.18631,-2.22017,-41.149
2023-03-11 22:46:47:885,0,-5.16564,-2.23652,-41.1134
2023-03-11 22:46:47:895,0,-5.14135,-2.24858,-41.0858
2023-03-11 22:46:47:905,0,-5.11336,-2.25239,-41.0765
2023-03-11 22:46:47:915,0,-5.08325,-2.23284,-41.0874
2023-03-11 22:46:47:925,0,-5.0532,-2.19619,-41.1144
2023-03-11 22:46:47:935,0,-5.02548,-2.14888,-41.1551
2023-03-11 22:46:47:945,0,-5.00207,-2.09344,-41.2082
2023-03-11 22:46:47:955,0,-4.98871,-2.03985,-41.2686
2023-03-11 22:46:47:965,0,-4.98093,-1.98856,-41.3396
2023-03-11 22:46:47:975,0,-4.98138,-1.93584,-41.4147
2023-03-11 22:46:47:985,0,-4.99464,-1.88237,-41.4891
2023-03-11 22:46:47:995,0,-5.02245,-1.8235,-41.5514
2023-03-11 22:46:48:5,0,-5.06708,-1.77604,-41.5858
2023-03-11 22:46:48:15,0,-5.12381,-1.74176,-41.5901
2023-03-11 22:46:48:25,0,-5.19323,-1.71306,-41.5666
2023-03-11 22:46:48:35,0,-5.26742,-1.68821,-41.5219
2023-03-11 22:46:48:45,0,-5.34951,-1.66784,-41.4541
2023-03-11 22:46:48:55,0,-5.43527,-1.64441,-41.3596
2023-03-11 22:46:48:65,0,-5.5223,-1.62473,-41.2457
2023-03-11 22:46:48:75,0,-5.60252,-1.60984,-41.1181
2023-03-11 22:46:48:85,0,-5.67014,-1.60673,-40.9889
2023-03-11 22:46:48:95,0,-5.71754,-1.61042,-40.866
2023-03-11 22:46:48:105,0,-5.73758,-1.61801,-40.7522
2023-03-11 22:46:48:115,0,-5.74497,-1.63177,-40.6517
2023-03-11 22:46:48:125,0,-5.73784,-1.65111,-40.5642
2023-03-11 22:46:48:135,0,-5.71586,-1.67703,-40.4944
2023-03-11 22:46:48:145,0,-5.68564,-1.70362,-40.4425
2023-03-11 22:46:48:155,0,-5.6393,-1.72838,-40.4032
2023-03-11 22:46:48:165,0,-5.58629,-1.75438,-40.3821
2023-03-11 22:46:48:174,0,-5.52785,-1.77366,-40.3739
2023-03-11 22:46:48:184,0,-5.46557,-1.79403,-40.3764
2023-03-11 22:46:48:194,0,-5.41074,-1.819,-40.3841
2023-03-11 22:46:48:204,0,-5.36832,-1.84971,-40.3974
2023-03-11 22:46:48:214,0,-5.33588,-1.88059,-40.4189
2023-03-11 22:46:48:225,0,-5.31458,-1.909,-40.4387
2023-03-11 22:46:48:235,0,-5.29429,-1.93099,-40.456
2023-03-11 22:46:48:245,0,-5.27789,-1.94893,-40.4673
2023-03-11 22:46:48:255,0,-5.25982,-1.96368,-40.472
2023-03-11 22:46:48:265,0,-5.24345,-1.97735,-40.4687
2023-03-11 22:46:48:275,0,-5.22786,-1.99156,-40.4534
2023-03-11 22:46:48:285,0,-5.21101,-2.00302,-40.4285
2023-03-11 22:46:48:295,0,-5.19281,-2.01776,-40.3978
2023-03-11 22:46:48:305,0,-5.17348,-2.03178,-40.3613
2023-03-11 22:46:48:315,0,-5.15712,-2.04859,-40.3172
2023-03-11 22:46:48:325,0,-5.14584,-2.06617,-40.2718
2023-03-11 22:46:48:335,0,-5.14123,-2.08167,-40.2267
2023-03-11 22:46:48:345,0,-5.1387,-2.09828,-40.1881
2023-03-11 22:46:48:355,0,-5.14013,-2.11402,-40.1557
2023-03-11 22:46:48:365,0,-5.14019,-2.12953,-40.1241
2023-03-11 22:46:48:375,0,-5.14104,-2.14285,-40.0921
2023-03-11 22:46:48:385,0,-5.14596,-2.1574,-40.0664
2023-03-11 22:46:48:395,0,-5.15284,-2.16824,-40.048
2023-03-11 22:46:48:405,0,-5.15979,-2.18205,-40.0346
2023-03-11 22:46:48:415,0,-5.17197,-2.19242,-40.0327
2023-03-11 22:46:48:425,0,-5.18377,-2.20059,-40.0345
2023-03-11 22:46:48:435,0,-5.1899,-2.20524,-40.0462
2023-03-11 22:46:48:445,0,-5.19263,-2.20901,-40.0581
2023-03-11 22:46:48:455,0,-5.19075,-2.21133,-40.067
2023-03-11 22:46:48:465,0,-5.1909,-2.2121,-40.0777
2023-03-11 22:46:48:475,0,-5.18703,-2.21312,-40.0842
2023-03-11 22:46:48:485,0,-5.18576,-2.21193,-40.0879
2023-03-11 22:46:48:495,0,-5.18695,-2.2176,-40.0893
2023-03-11 22:46:48:505,0,-5.18575,-2.22065,-40.0925
2023-03-11 22:46:48:515,0,-5.18239,-2.22163,-40.0922
2023-03-11 22:46:48:525,0,-5.1781,-2.22021,-40.0898
2023-03-11 22:46:48:535,0,-5.16795,-2.21263,-40.0879
2023-03-11 22:46:48:545,0,-5.15909,-2.2053,-40.0835
2023-03-11 22:46:48:555,0,-5.15388,-2.19331,-40.0781
2023-03-11 22:46:48:565,0,-5.14926,-2.17948,-40.0714
2023-03-11 22:46:48:575,0,-5.14604,-2.16719,-40.067
2023-03-11 22:46:48:585,0,-5.14511,-2.15106,-40.0666
2023-03-11 22:46:48:595,0,-5.13965,-2.13967,-40.0674
2023-03-11 22:46:48:605,0,-5.13344,-2.12938,-40.0731
2023-03-11 22:46:48:615,0,-5.12335,-2.11869,-40.0865
2023-03-11 22:46:48:625,0,-5.11704,-2.10134,-40.1083
2023-03-11 22:46:48:635,0,-5.11628,-2.08465,-40.1346
2023-03-11 22:46:48:645,0,-5.11782,-2.07073,-40.1544
2023-03-11 22:46:48:655,0,-5.1211,-2.06426,-40.1774
2023-03-11 22:46:48:665,0,-5.12911,-2.05864,-40.2017
2023-03-11 22:46:48:675,0,-5.1394,-2.0514,-40.2235
2023-03-11 22:46:48:685,0,-5.15597,-2.04135,-40.2387
2023-03-11 22:46:48:695,0,-5.1793,-2.03525,-40.2401
2023-03-11 22:46:48:705,0,-5.20453,-2.03219,-40.2372
2023-03-11 22:46:48:715,0,-5.22724,-2.03467,-40.2266
2023-03-11 22:46:48:725,0,-5.24568,-2.03926,-40.2086
2023-03-11 22:46:48:735,0,-5.26115,-2.047,-40.1862
2023-03-11 22:46:48:745,0,-5.2673,-2.05384,-40.1698
2023-03-11 22:46:48:755,0,-5.26667,-2.06337,-40.1541
2023-03-11 22:46:48:765,0,-5.26055,-2.06677,-40.1423
2023-03-11 22:46:48:775,0,-5.25237,-2.07314,-40.1419
2023-03-11 22:46:48:785,0,-5.24555,-2.07928,-40.1435
2023-03-11 22:46:48:795,0,-5.23678,-2.08589,-40.1521
2023-03-11 22:46:48:805,0,-5.23162,-2.09531,-40.1633
2023-03-11 22:46:48:815,0,-5.231,-2.10096,-40.1689
2023-03-11 22:46:48:825,0,-5.23633,-2.10927,-40.1714
2023-03-11 22:46:48:835,0,-5.2457,-2.11974,-40.1684
2023-03-11 22:46:48:845,0,-5.26222,-2.12924,-40.1626
2023-03-11 22:46:48:855,0,-5.27567,-2.13309,-40.1563
2023-03-11 22:46:48:865,0,-5.28432,-2.13237,-40.1446
2023-03-11 22:46:48:875,0,-5.288,-2.12674,-40.1352
2023-03-11 22:46:48:885,0,-5.27976,-2.12222,-40.1267
2023-03-11 22:46:48:895,0,-5.26567,-2.11893,-40.116
2023-03-11 22:46:48:905,0,-5.25381,-2.11436,-40.1132
2023-03-11 22:46:48:915,0,-5.23973,-2.11015,-40.1182
2023-03-11 22:46:48:925,0,-5.22576,-2.10441,-40.1306
2023-03-11 22:46:48:935,0,-5.20894,-2.09496,-40.1487
2023-03-11 22:46:48:945,0,-5.18611,-2.08421,-40.1686
2023-03-11 22:46:48:955,0,-5.16498,-2.07345,-40.1912
2023-03-11 22:46:48:965,0,-5.14436,-2.06084,-40.2178
2023-03-11 22:46:48:975,0,-5.12877,-2.04778,-40.2474
2023-03-11 22:46:48:985,0,-5.11687,-2.03405,-40.2737
2023-03-11 22:46:48:995,0,-5.10539,-2.02353,-40.2944
2023-03-11 22:46:49:5,0,-5.09335,-2.01495,-40.3086
2023-03-11 22:46:49:15,0,-5.08247,-2.00856,-40.3135
2023-03-11 22:46:49:25,0,-5.06541,-2.00371,-40.3086
2023-03-11 22:46:49:34,0,-5.04326,-1.99691,-40.2915
2023-03-11 22:46:49:45,0,-5.03318,-1.98359,-40.2616
2023-03-11 22:46:49:54,0,-5.04088,-1.96066,-40.2274
2023-03-11 22:46:49:64,0,-5.05431,-1.92864,-40.1959
2023-03-11 22:46:49:74,0,-5.06117,-1.89559,-40.1723
2023-03-11 22:46:49:84,0,-5.0613,-1.85404,-40.1574
2023-03-11 22:46:49:94,0,-5.04827,-1.81024,-40.1414
2023-03-11 22:46:49:104,0,-5.01933,-1.77272,-40.126
2023-03-11 22:46:49:114,0,-4.97249,-1.74613,-40.1087
2023-03-11 22:46:49:124,0,-4.91679,-1.72468,-40.0893
2023-03-11 22:46:49:134,0,-4.8548,-1.71189,-40.0677
2023-03-11 22:46:49:145,0,-4.78977,-1.70105,-40.042
2023-03-11 22:46:49:154,0,-4.73364,-1.68825,-40.0112
2023-03-11 22:46:49:164,0,-4.68182,-1.68473,-39.9758
2023-03-11 22:46:49:174,0,-4.63881,-1.68416,-39.9399
2023-03-11 22:46:49:184,0,-4.60209,-1.69406,-39.9012
2023-03-11 22:46:49:195,0,-4.57165,-1.70462,-39.8687
2023-03-11 22:46:49:205,0,-4.53934,-1.70725,-39.837
2023-03-11 22:46:49:214,0,-4.5193,-1.70626,-39.8039
2023-03-11 22:46:49:224,0,-4.51362,-1.70497,-39.7798
2023-03-11 22:46:49:234,0,-4.52522,-1.69421,-39.7689
2023-03-11 22:46:49:245,0,-4.54854,-1.67713,-39.7667
2023-03-11 22:46:49:254,0,-4.57683,-1.65256,-39.7641
2023-03-11 22:46:49:264,0,-4.60678,-1.62703,-39.7599
2023-03-11 22:46:49:274,0,-4.62836,-1.60582,-39.7549
2023-03-11 22:46:49:284,0,-4.62164,-1.59182,-39.7385
2023-03-11 22:46:49:294,0,-4.58236,-1.57782,-39.7129
2023-03-11 22:46:49:304,0,-4.52795,-1.56237,-39.6866
2023-03-11 22:46:49:315,0,-4.46584,-1.54086,-39.6522
2023-03-11 22:46:49:325,0,-4.42988,-1.51638,-39.6082
2023-03-11 22:46:49:335,0,-4.42959,-1.49004,-39.5661
2023-03-11 22:46:49:344,0,-4.45205,-1.46825,-39.5274
2023-03-11 22:46:49:354,0,-4.48168,-1.45259,-39.4977
2023-03-11 22:46:49:365,0,-4.51028,-1.43384,-39.4724
2023-03-11 22:46:49:374,0,-4.54361,-1.41132,-39.453
2023-03-11 22:46:49:384,0,-4.57678,-1.38868,-39.4368
2023-03-11 22:46:49:394,0,-4.58027,-1.36828,-39.4257
2023-03-11 22:46:49:404,0,-4.56538,-1.34483,-39.4125
2023-03-11 22:46:49:414,0,-4.55518,-1.32199,-39.4036
2023-03-11 22:46:49:425,0,-4.5492,-1.29696,-39.3948
2023-03-11 22:46:49:434,0,-4.54617,-1.26834,-39.3971
2023-03-11 22:46:49:445,0,-4.57366,-1.23288,-39.3965
2023-03-11 22:46:49:455,0,-4.64777,-1.18713,-39.3915
2023-03-11 22:46:49:465,0,-4.74741,-1.15054,-39.3829
2023-03-11 22:46:49:475,0,-4.8404,-1.13405,-39.3714
2023-03-11 22:46:49:485,0,-4.91915,-1.12883,-39.356
2023-03-11 22:46:49:495,0,-4.98473,-1.12816,-39.3304
2023-03-11 22:46:49:505,0,-5.04561,-1.13635,-39.3055
2023-03-11 22:46:49:515,0,-5.0941,-1.14823,-39.2815
2023-03-11 22:46:49:525,0,-5.11859,-1.16045,-39.2631
2023-03-11 22:46:49:535,0,-5.12398,-1.16539,-39.2316
2023-03-11 22:46:49:545,0,-5.13351,-1.16482,-39.1874
2023-03-11 22:46:49:555,0,-5.16042,-1.16403,-39.1391
2023-03-11 22:46:49:565,0,-5.20093,-1.16195,-39.0966
2023-03-11 22:46:49:575,0,-5.2484,-1.16547,-39.061
2023-03-11 22:46:49:585,0,-5.28405,-1.16725,-39.0272
2023-03-11 22:46:49:595,0,-5.30552,-1.1726,-38.9914
2023-03-11 22:46:49:605,0,-5.3146,-1.17801,-38.9619
2023-03-11 22:46:49:615,0,-5.31661,-1.18833,-38.9335
2023-03-11 22:46:49:625,0,-5.31288,-1.20032,-38.9013
2023-03-11 22:46:49:635,0,-5.30722,-1.21249,-38.8712
2023-03-11 22:46:49:645,0,-5.29408,-1.22431,-38.842
2023-03-11 22:46:49:655,0,-5.28281,-1.23271,-38.8129
2023-03-11 22:46:49:665,0,-5.27288,-1.23315,-38.7905
2023-03-11 22:46:49:675,0,-5.27339,-1.2273,-38.7703
2023-03-11 22:46:49:685,0,-5.27974,-1.22176,-38.756
2023-03-11 22:46:49:695,0,-5.29604,-1.21658,-38.7459
2023-03-11 22:46:49:705,0,-5.31575,-1.21562,-38.7499
2023-03-11 22:46:49:715,0,-5.33564,-1.21417,-38.7609
2023-03-11 22:46:49:725,0,-5.3568,-1.22189,-38.7777
2023-03-11 22:46:49:735,0,-5.37489,-1.23668,-38.7984
2023-03-11 22:46:49:745,0,-5.39097,-1.26064,-38.8222
2023-03-11 22:46:49:755,0,-5.39857,-1.29064,-38.8507
2023-03-11 22:46:49:765,0,-5.39651,-1.326,-38.8828
2023-03-11 22:46:49:775,0,-5.3872,-1.36323,-38.9216
2023-03-11 22:46:49:785,0,-5.384,-1.40241,-38.9591
2023-03-11 22:46:49:795,0,-5.39849,-1.44293,-38.9995
2023-03-11 22:46:49:805,0,-5.42282,-1.48211,-39.0434
2023-03-11 22:46:49:815,0,-5.45164,-1.52201,-39.0923
2023-03-11 22:46:49:825,0,-5.48044,-1.56057,-39.1388
2023-03-11 22:46:49:835,0,-5.49236,-1.60278,-39.1859
2023-03-11 22:46:49:845,0,-5.48032,-1.6507,-39.2429
2023-03-11 22:46:49:855,0,-5.41544,-1.68944,-39.3111
2023-03-11 22:46:49:865,0,-5.33355,-1.71441,-39.3686
2023-03-11 22:46:49:875,0,-5.27059,-1.72703,-39.4175
2023-03-11 22:46:49:885,0,-5.2219,-1.73822,-39.4613
2023-03-11 22:46:49:895,0,-5.17724,-1.75119,-39.4955
2023-03-11 22:46:49:905,0,-5.12762,-1.762,-39.5223
2023-03-11 22:46:49:915,0,-5.06787,-1.76343,-39.5398
2023-03-11 22:46:49:925,0,-5.0046,-1.76038,-39.5499
2023-03-11 22:46:49:935,0,-4.94631,-1.74885,-39.5528
2023-03-11 22:46:49:945,0,-4.90083,-1.73453,-39.5538
2023-03-11 22:46:49:955,0,-4.86648,-1.72282,-39.5479
2023-03-11 22:46:49:965,0,-4.84491,-1.7027,-39.536
2023-03-11 22:46:49:975,0,-4.83583,-1.68386,-39.5219
2023-03-11 22:46:49:985,0,-4.83373,-1.66832,-39.5049
2023-03-11 22:46:49:995,0,-4.83079,-1.64886,-39.4913
2023-03-11 22:46:50:5,0,-4.80071,-1.62861,-39.4896
2023-03-11 22:46:50:15,0,-4.74727,-1.60411,-39.489
2023-03-11 22:46:50:25,0,-4.69851,-1.57351,-39.4878
2023-03-11 22:46:50:35,0,-4.67214,-1.55088,-39.4831
2023-03-11 22:46:50:45,0,-4.6691,-1.53745,-39.4854
2023-03-11 22:46:50:55,0,-4.67779,-1.53063,-39.4912
2023-03-11 22:46:50:65,0,-4.68862,-1.52873,-39.5032
2023-03-11 22:46:50:75,0,-4.70932,-1.52175,-39.5217
2023-03-11 22:46:50:85,0,-4.74249,-1.51562,-39.5409
2023-03-11 22:46:50:95,0,-4.77056,-1.52166,-39.5676
2023-03-11 22:46:50:105,0,-4.77966,-1.53486,-39.592
2023-03-11 22:46:50:115,0,-4.7694,-1.54825,-39.6121
2023-03-11 22:46:50:125,0,-4.7631,-1.55897,-39.6258
2023-03-11 22:46:50:135,0,-4.76047,-1.55784,-39.6379
2023-03-11 22:46:50:145,0,-4.76264,-1.55957,-39.6406
2023-03-11 22:46:50:155,0,-4.75806,-1.56138,-39.6366
2023-03-11 22:46:50:165,0,-4.74737,-1.56052,-39.6287
2023-03-11 22:46:50:175,0,-4.73504,-1.55748,-39.6189
2023-03-11 22:46:50:185,0,-4.70601,-1.55609,-39.6054
2023-03-11 22:46:50:195,0,-4.65353,-1.5601,-39.5934
2023-03-11 22:46:50:205,0,-4.59092,-1.56425,-39.5832
2023-03-11 22:46:50:215,0,-4.52641,-1.56629,-39.5764
2023-03-11 22:46:50:225,0,-4.47893,-1.56482,-39.582
2023-03-11 22:46:50:235,0,-4.43982,-1.56341,-39.588
2023-03-11 22:46:50:245,0,-4.41068,-1.56313,-39.599
2023-03-11 22:46:50:255,0,-4.40365,-1.56092,-39.6113
2023-03-11 22:46:50:265,0,-4.41231,-1.56582,-39.6205
2023-03-11 22:46:50:275,0,-4.41483,-1.57031,-39.6303
2023-03-11 22:46:50:285,0,-4.41648,-1.5755,-39.6348
2023-03-11 22:46:50:295,0,-4.42067,-1.57665,-39.634
2023-03-11 22:46:50:305,0,-4.42351,-1.57344,-39.6345
2023-03-11 22:46:50:315,0,-4.41923,-1.56918,-39.6365
2023-03-11 22:46:50:325,0,-4.40356,-1.56718,-39.6396
2023-03-11 22:46:50:335,0,-4.39107,-1.56316,-39.6472
2023-03-11 22:46:50:345,0,-4.38514,-1.55807,-39.6565
2023-03-11 22:46:50:355,0,-4.38939,-1.55063,-39.6751
2023-03-11 22:46:50:365,0,-4.40549,-1.55118,-39.6985
2023-03-11 22:46:50:375,0,-4.42602,-1.54662,-39.7326
2023-03-11 22:46:50:385,0,-4.45652,-1.542,-39.7723
2023-03-11 22:46:50:395,0,-4.49667,-1.53507,-39.8173
2023-03-11 22:46:50:405,0,-4.53543,-1.52944,-39.8605
2023-03-11 22:46:50:415,0,-4.57806,-1.52849,-39.9045
2023-03-11 22:46:50:425,0,-4.61138,-1.53091,-39.9527
2023-03-11 22:46:50:435,0,-4.63383,-1.5316,-39.9989
2023-03-11 22:46:50:445,0,-4.64545,-1.53459,-40.0398
2023-03-11 22:46:50:455,0,-4.64818,-1.53731,-40.073
2023-03-11 22:46:50:465,0,-4.64952,-1.54067,-40.1003
2023-03-11 22:46:50:475,0,-4.64883,-1.53791,-40.1239
2023-03-11 22:46:50:485,0,-4.65335,-1.53291,-40.138
2023-03-11 22:46:50:495,0,-4.6574,-1.52384,-40.1458
2023-03-11 22:46:50:505,0,-4.66585,-1.50831,-40.1466
2023-03-11 22:46:50:515,0,-4.67213,-1.48967,-40.1426
2023-03-11 22:46:50:525,0,-4.67817,-1.46847,-40.1346
2023-03-11 22:46:50:535,0,-4.68359,-1.4499,-40.1257
2023-03-11 22:46:50:544,0,-4.68756,-1.4294,-40.1216
2023-03-11 22:46:50:555,0,-4.6937,-1.40411,-40.117
2023-03-11 22:46:50:565,0,-4.69913,-1.3817,-40.1192
2023-03-11 22:46:50:575,0,-4.70651,-1.36302,-40.1244
2023-03-11 22:46:50:585,0,-4.71098,-1.3438,-40.1393
2023-03-11 22:46:50:595,0,-4.71153,-1.32821,-40.1649
2023-03-11 22:46:50:605,0,-4.71067,-1.31172,-40.1933
2023-03-11 22:46:50:615,0,-4.70929,-1.29641,-40.2242
2023-03-11 22:46:50:625,0,-4.71047,-1.2877,-40.2492
2023-03-11 22:46:50:635,0,-4.72259,-1.27815,-40.2699
2023-03-11 22:46:50:645,0,-4.73946,-1.27098,-40.2823
2023-03-11 22:46:50:655,0,-4.76574,-1.26917,-40.2842
2023-03-11 22:46:50:665,0,-4.79209,-1.27364,-40.2651
2023-03-11 22:46:50:675,0,-4.82432,-1.28126,-40.2256
2023-03-11 22:46:50:684,0,-4.86316,-1.28802,-40.1756
2023-03-11 22:46:50:694,0,-4.89635,-1.29815,-40.1232
2023-03-11 22:46:50:704,0,-4.91356,-1.30209,-40.0764
2023-03-11 22:46:50:715,0,-4.91223,-1.30513,-40.0429
2023-03-11 22:46:50:725,0,-4.89259,-1.30036,-40.0176
2023-03-11 22:46:50:735,0,-4.87019,-1.29461,-39.9976
2023-03-11 22:46:50:745,0,-4.84993,-1.29556,-39.9886
2023-03-11 22:46:50:755,0,-4.83273,-1.29923,-39.9837
2023-03-11 22:46:50:765,0,-4.82373,-1.30773,-39.9812
2023-03-11 22:46:50:775,0,-4.83264,-1.31629,-39.9777
2023-03-11 22:46:50:785,0,-4.84737,-1.32557,-39.9703
2023-03-11 22:46:50:795,0,-4.86083,-1.33403,-39.9593
2023-03-11 22:46:50:805,0,-4.86992,-1.33157,-39.9458
2023-03-11 22:46:50:815,0,-4.87688,-1.32252,-39.9246
2023-03-11 22:46:50:825,0,-4.88205,-1.30676,-39.9021
2023-03-11 22:46:50:835,0,-4.88571,-1.2922,-39.8707
2023-03-11 22:46:50:845,0,-4.88423,-1.27953,-39.8444
2023-03-11 22:46:50:855,0,-4.88297,-1.27086,-39.8126
2023-03-11 22:46:50:865,0,-4.8824,-1.26688,-39.7865
2023-03-11 22:46:50:875,0,-4.88282,-1.26688,-39.7676
2023-03-11 22:46:50:885,0,-4.88163,-1.26731,-39.7539
2023-03-11 22:46:50:895,0,-4.87667,-1.27889,-39.7476
2023-03-11 22:46:50:905,0,-4.86684,-1.29115,-39.7396
2023-03-11 22:46:50:915,0,-4.85962,-1.3019,-39.733
2023-03-11 22:46:50:925,0,-4.85272,-1.30955,-39.727
2023-03-11 22:46:50:935,0,-4.85101,-1.31393,-39.7146
2023-03-11 22:46:50:945,0,-4.85184,-1.30779,-39.6958
2023-03-11 22:46:50:955,0,-4.86065,-1.29266,-39.6678
2023-03-11 22:46:50:965,0,-4.87662,-1.27358,-39.6357
2023-03-11 22:46:50:975,0,-4.88724,-1.25801,-39.601
2023-03-11 22:46:50:985,0,-4.89335,-1.24541,-39.567
2023-03-11 22:46:50:995,0,-4.89167,-1.23769,-39.5434
2023-03-11 22:46:51:5,0,-4.88237,-1.23068,-39.5307
2023-03-11 22:46:51:15,0,-4.87029,-1.22667,-39.5314
2023-03-11 22:46:51:25,0,-4.85675,-1.22359,-39.5423
2023-03-11 22:46:51:35,0,-4.84686,-1.22403,-39.5647
2023-03-11 22:46:51:45,0,-4.84318,-1.22436,-39.5835
2023-03-11 22:46:51:55,0,-4.84527,-1.2292,-39.5984
2023-03-11 22:46:51:65,0,-4.85218,-1.23996,-39.6108
2023-03-11 22:46:51:75,0,-4.86463,-1.24996,-39.616
2023-03-11 22:46:51:85,0,-4.87958,-1.25739,-39.6158
2023-03-11 22:46:51:95,0,-4.88734,-1.25963,-39.6073
2023-03-11 22:46:51:105,0,-4.889,-1.25299,-39.5889
2023-03-11 22:46:51:115,0,-4.89538,-1.24448,-39.5526
2023-03-11 22:46:51:125,0,-4.90191,-1.24129,-39.5036
2023-03-11 22:46:51:135,0,-4.91665,-1.24311,-39.4391
2023-03-11 22:46:51:145,0,-4.92691,-1.25528,-39.3739
2023-03-11 22:46:51:155,0,-4.92712,-1.26817,-39.3149
2023-03-11 22:46:51:165,0,-4.91712,-1.27593,-39.2687
2023-03-11 22:46:51:175,0,-4.89231,-1.26849,-39.24
2023-03-11 22:46:51:185,0,-4.85895,-1.24408,-39.2193
2023-03-11 22:46:51:195,0,-4.82912,-1.22045,-39.1978
2023-03-11 22:46:51:205,0,-4.80631,-1.19862,-39.1643
2023-03-11 22:46:51:215,0,-4.79694,-1.19699,-39.1285
2023-03-11 22:46:51:225,0,-4.79099,-1.20208,-39.087
2023-03-11 22:46:51:235,0,-4.78017,-1.21006,-39.049
2023-03-11 22:46:51:245,0,-4.75903,-1.21485,-39.0182
2023-03-11 22:46:51:255,0,-4.72746,-1.20412,-38.9981
2023-03-11 22:46:51:265,0,-4.69378,-1.17672,-38.9837
2023-03-11 22:46:51:275,0,-4.66254,-1.14998,-38.9626
2023-03-11 22:46:51:285,0,-4.63836,-1.13564,-38.939
2023-03-11 22:46:51:295,0,-4.62826,-1.1354,-38.913
2023-03-11 22:46:51:305,0,-4.62465,-1.14532,-38.886
2023-03-11 22:46:51:315,0,-4.62043,-1.1589,-38.8663
2023-03-11 22:46:51:325,0,-4.61442,-1.17157,-38.8563
2023-03-11 22:46:51:335,0,-4.60561,-1.17729,-38.8527
2023-03-11 22:46:51:345,0,-4.59044,-1.18032,-38.8506
2023-03-11 22:46:51:355,0,-4.58147,-1.18988,-38.8426
2023-03-11 22:46:51:365,0,-4.57473,-1.20001,-38.8356
2023-03-11 22:46:51:374,0,-4.56802,-1.2152,-38.8294
2023-03-11 22:46:51:385,0,-4.5634,-1.23281,-38.8206
2023-03-11 22:46:51:395,0,-4.5634,-1.25131,-38.8103
2023-03-11 22:46:51:405,0,-4.56383,-1.27701,-38.7917
2023-03-11 22:46:51:415,0,-4.56808,-1.31099,-38.7716
2023-03-11 22:46:51:425,0,-4.56689,-1.34938,-38.7543
2023-03-11 22:46:51:435,0,-4.55084,-1.38889,-38.7451
2023-03-11 22:46:51:445,0,-4.52858,-1.42506,-38.7361
2023-03-11 22:46:51:455,0,-4.50169,-1.4605,-38.7293
2023-03-11 22:46:51:465,0,-4.47327,-1.49683,-38.7158
2023-03-11 22:46:51:475,0,-4.45291,-1.53296,-38.6962
2023-03-11 22:46:51:485,0,-4.44357,-1.57432,-38.6741
2023-03-11 22:46:51:495,0,-4.44016,-1.60975,-38.6553
2023-03-11 22:46:51:505,0,-4.43974,-1.6398,-38.6362
2023-03-11 22:46:51:515,0,-4.43656,-1.66914,-38.6274
2023-03-11 22:46:51:525,0,-4.43476,-1.69666,-38.6276
2023-03-11 22:46:51:535,0,-4.43133,-1.71424,-38.6391
2023-03-11 22:46:51:545,0,-4.42582,-1.72554,-38.6565
2023-03-11 22:46:51:555,0,-4.42302,-1.74114,-38.6748
2023-03-11 22:46:51:565,0,-4.423,-1.7543,-38.6891
2023-03-11 22:46:51:575,0,-4.42594,-1.77116,-38.7
2023-03-11 22:46:51:585,0,-4.43238,-1.78213,-38.7082
2023-03-11 22:46:51:595,0,-4.44324,-1.78213,-38.7106
2023-03-11 22:46:51:605,0,-4.46102,-1.77169,-38.7072
2023-03-11 22:46:51:615,0,-4.48261,-1.75419,-38.6919
2023-03-11 22:46:51:625,0,-4.50378,-1.73573,-38.6664
2023-03-11 22:46:51:635,0,-4.51183,-1.71991,-38.6345
2023-03-11 22:46:51:645,0,-4.50794,-1.69906,-38.5969
2023-03-11 22:46:51:655,0,-4.48643,-1.67644,-38.5613
2023-03-11 22:46:51:665,0,-4.44803,-1.64722,-38.5232
2023-03-11 22:46:51:675,0,-4.3942,-1.61675,-38.4814
2023-03-11 22:46:51:685,0,-4.33198,-1.58885,-38.4383
2023-03-11 22:46:51:695,0,-4.27419,-1.56268,-38.3926
2023-03-11 22:46:51:705,0,-4.2353,-1.54337,-38.3443
2023-03-11 22:46:51:715,0,-4.21289,-1.52981,-38.2959
2023-03-11 22:46:51:725,0,-4.20205,-1.51983,-38.2507
2023-03-11 22:46:51:735,0,-4.18328,-1.52456,-38.2038
2023-03-11 22:46:51:745,0,-4.16674,-1.53403,-38.1545
2023-03-11 22:46:51:755,0,-4.1476,-1.55581,-38.1049
2023-03-11 22:46:51:765,0,-4.12635,-1.58208,-38.0535
2023-03-11 22:46:51:775,0,-4.10539,-1.61495,-38.0029
2023-03-11 22:46:51:785,0,-4.08894,-1.64335,-37.9615
2023-03-11 22:46:51:795,0,-4.08405,-1.66696,-37.929
2023-03-11 22:46:51:805,0,-4.09328,-1.6806,-37.9015
2023-03-11 22:46:51:815,0,-4.11416,-1.68693,-37.8781
2023-03-11 22:46:51:825,0,-4.14316,-1.68474,-37.8564
2023-03-11 22:46:51:835,0,-4.17488,-1.67618,-37.8403
2023-03-11 22:46:51:845,0,-4.19851,-1.66128,-37.8219
2023-03-11 22:46:51:855,0,-4.20904,-1.63881,-37.7981
2023-03-11 22:46:51:865,0,-4.20701,-1.61862,-37.7667
2023-03-11 22:46:51:875,0,-4.20353,-1.59996,-37.7333
2023-03-11 22:46:51:885,0,-4.20113,-1.58209,-37.7022
2023-03-11 22:46:51:895,0,-4.21748,-1.56532,-37.679
2023-03-11 22:46:51:905,0,-4.24781,-1.55419,-37.6648
2023-03-11 22:46:51:915,0,-4.2881,-1.54977,-37.665
2023-03-11 22:46:51:925,0,-4.33349,-1.55456,-37.6779
2023-03-11 22:46:51:935,0,-4.38031,-1.56795,-37.7055
2023-03-11 22:46:51:945,0,-4.41946,-1.5901,-37.744
2023-03-11 22:46:51:955,0,-4.45071,-1.61562,-37.7864
2023-03-11 22:46:51:965,0,-4.47073,-1.64453,-37.8192
2023-03-11 22:46:51:975,0,-4.48784,-1.68228,-37.8473
2023-03-11 22:46:51:985,0,-4.50062,-1.72313,-37.8643
2023-03-11 22:46:51:995,0,-4.51258,-1.75609,-37.8703
2023-03-11 22:46:52:5,0,-4.52611,-1.77959,-37.8711
2023-03-11 22:46:52:15,0,-4.54848,-1.78884,-37.8739
2023-03-11 22:46:52:25,0,-4.56888,-1.79521,-37.8818
2023-03-11 22:46:52:35,0,-4.58706,-1.7869,-37.8949
2023-03-11 22:46:52:45,0,-4.60367,-1.76933,-37.9106
2023-03-11 22:46:52:55,0,-4.6194,-1.74493,-37.9243
2023-03-11 22:46:52:65,0,-4.64144,-1.72309,-37.9405
2023-03-11 22:46:52:75,0,-4.66466,-1.70682,-37.9563
2023-03-11 22:46:52:85,0,-4.68354,-1.69686,-37.969
2023-03-11 22:46:52:95,0,-4.69435,-1.68669,-37.9811
2023-03-11 22:46:52:105,0,-4.70275,-1.67376,-37.9875
2023-03-11 22:46:52:115,0,-4.70628,-1.65726,-37.9858
2023-03-11 22:46:52:125,0,-4.70366,-1.64385,-37.9698
2023-03-11 22:46:52:135,0,-4.70369,-1.63346,-37.94
2023-03-11 22:46:52:145,0,-4.69743,-1.62237,-37.8985
2023-03-11 22:46:52:155,0,-4.69235,-1.59877,-37.8454
2023-03-11 22:46:52:165,0,-4.69121,-1.59417,-37.7879
2023-03-11 22:46:52:175,0,-4.70226,-1.59821,-37.7237
2023-03-11 22:46:52:185,0,-4.71843,-1.60431,-37.6709
2023-03-11 22:46:52:195,0,-4.73207,-1.61648,-37.6301
2023-03-11 22:46:52:205,0,-4.74207,-1.62845,-37.6015
2023-03-11 22:46:52:215,0,-4.75632,-1.63321,-37.5878
2023-03-11 22:46:52:225,0,-4.76278,-1.64947,-37.5912
2023-03-11 22:46:52:235,0,-4.77775,-1.67415,-37.6145
2023-03-11 22:46:52:245,0,-4.79788,-1.70016,-37.6615
2023-03-11 22:46:52:255,0,-4.81758,-1.70653,-37.7344
2023-03-11 22:46:52:265,0,-4.82348,-1.69489,-37.8289
2023-03-11 22:46:52:275,0,-4.8287,-1.68147,-37.9435
2023-03-11 22:46:52:285,0,-4.84773,-1.6731,-38.0678
2023-03-11 22:46:52:295,0,-4.88438,-1.67221,-38.1942
2023-03-11 22:46:52:305,0,-4.92487,-1.67386,-38.334
2023-03-11 22:46:52:315,0,-4.94576,-1.67646,-38.4687
2023-03-11 22:46:52:325,0,-4.95972,-1.68262,-38.5963
2023-03-11 22:46:52:335,0,-4.97658,-1.69101,-38.7119
2023-03-11 22:46:52:345,0,-4.99535,-1.70176,-38.8222
2023-03-11 22:46:52:355,0,-5.01124,-1.71927,-38.9273
2023-03-11 22:46:52:365,0,-5.02347,-1.7415,-39.0411
2023-03-11 22:46:52:375,0,-5.03738,-1.76358,-39.1687
2023-03-11 22:46:52:385,0,-5.04757,-1.78341,-39.3087
2023-03-11 22:46:52:395,0,-5.06675,-1.80026,-39.4484
2023-03-11 22:46:52:405,0,-5.0943,-1.81921,-39.5853
2023-03-11 22:46:52:415,0,-5.13252,-1.83492,-39.717
2023-03-11 22:46:52:425,0,-5.17903,-1.85386,-39.8458
2023-03-11 22:46:52:435,0,-5.23891,-1.87176,-39.9705
2023-03-11 22:46:52:445,0,-5.3109,-1.88063,-40.0866
2023-03-11 22:46:52:455,0,-5.37948,-1.88147,-40.1889
2023-03-11 22:46:52:465,0,-5.44846,-1.87743,-40.2787
2023-03-11 22:46:52:475,0,-5.51694,-1.86488,-40.358
2023-03-11 22:46:52:485,0,-5.58078,-1.84316,-40.4351
2023-03-11 22:46:52:495,0,-5.63399,-1.81447,-40.5085
2023-03-11 22:46:52:505,0,-5.66704,-1.78342,-40.575
2023-03-11 22:46:52:515,0,-5.69379,-1.74592,-40.6336
2023-03-11 22:46:52:525,0,-5.72146,-1.70849,-40.6875
2023-03-11 22:46:52:535,0,-5.74716,-1.67376,-40.7431
2023-03-11 22:46:52:545,0,-5.77203,-1.63898,-40.8013
2023-03-11 22:46:52:555,0,-5.80148,-1.6034,-40.8562
2023-03-11 22:46:52:565,0,-5.84358,-1.57303,-40.9069
2023-03-11 22:46:52:575,0,-5.87646,-1.55138,-40.9585
2023-03-11 22:46:52:585,0,-5.89511,-1.53668,-41.0075
2023-03-11 22:46:52:595,0,-5.8977,-1.5273,-41.0498
2023-03-11 22:46:52:605,0,-5.88686,-1.51925,-41.0789
2023-03-11 22:46:52:615,0,-5.87169,-1.51354,-41.0967
2023-03-11 22:46:52:625,0,-5.86038,-1.50818,-41.1097
2023-03-11 22:46:52:635,0,-5.85365,-1.50251,-41.1173
2023-03-11 22:46:52:645,0,-5.85882,-1.49397,-41.1199
2023-03-11 22:46:52:655,0,-5.86126,-1.47825,-41.1186
2023-03-11 22:46:52:665,0,-5.86023,-1.46075,-41.1082
2023-03-11 22:46:52:675,0,-5.85643,-1.44748,-41.0905
2023-03-11 22:46:52:685,0,-5.85795,-1.44687,-41.0602
2023-03-11 22:46:52:695,0,-5.86701,-1.46987,-41.0231
2023-03-11 22:46:52:705,0,-5.89066,-1.51501,-40.988
2023-03-11 22:46:52:715,0,-5.93886,-1.5762,-40.967
2023-03-11 22:46:52:725,0,-6.01155,-1.63634,-40.977
2023-03-11 22:46:52:735,0,-6.09007,-1.692,-41.0222
2023-03-11 22:46:52:745,0,-6.15919,-1.73343,-41.0898
2023-03-11 22:46:52:755,0,-6.20582,-1.77117,-41.1726
2023-03-11 22:46:52:765,0,-6.24133,-1.81246,-41.2665
2023-03-11 22:46:52:775,0,-6.26874,-1.85426,-41.3671
2023-03-11 22:46:52:785,0,-6.29065,-1.8942,-41.4655
2023-03-11 22:46:52:795,0,-6.299,-1.92366,-41.561
2023-03-11 22:46:52:805,0,-6.28882,-1.94363,-41.6461
2023-03-11 22:46:52:815,0,-6.26564,-1.94507,-41.717
2023-03-11 22:46:52:825,0,-6.2364,-1.92336,-41.7921
2023-03-11 22:46:52:835,0,-6.21147,-1.88557,-41.8646
2023-03-11 22:46:52:845,0,-6.2035,-1.8331,-41.9316
2023-03-11 22:46:52:855,0,-6.2082,-1.77162,-41.996
2023-03-11 22:46:52:865,0,-6.22332,-1.71,-42.0533
2023-03-11 22:46:52:875,0,-6.24624,-1.65461,-42.1111
2023-03-11 22:46:52:885,0,-6.27447,-1.61003,-42.1623
2023-03-11 22:46:52:895,0,-6.3079,-1.57506,-42.2068
2023-03-11 22:46:52:905,0,-6.3517,-1.54919,-42.2513
2023-03-11 22:46:52:915,0,-6.40362,-1.53006,-42.2885
2023-03-11 22:46:52:925,0,-6.46715,-1.51771,-42.3261
2023-03-11 22:46:52:935,0,-6.5401,-1.5012,-42.3627
2023-03-11 22:46:52:945,0,-6.6183,-1.48598,-42.4006
2023-03-11 22:46:52:955,0,-6.71118,-1.46301,-42.4353
2023-03-11 22:46:52:965,0,-6.80607,-1.43255,-42.4759
2023-03-11 22:46:52:975,0,-6.90179,-1.39889,-42.5225
2023-03-11 22:46:52:985,0,-6.9879,-1.35612,-42.5737
2023-03-11 22:46:52:995,0,-7.05969,-1.30904,-42.633
2023-03-11 22:46:53:5,0,-7.11428,-1.25931,-42.6904
2023-03-11 22:46:53:15,0,-7.15767,-1.20972,-42.7507
2023-03-11 22:46:53:25,0,-7.19741,-1.16046,-42.8071
2023-03-11 22:46:53:35,0,-7.23395,-1.1118,-42.8569
2023-03-11 22:46:53:45,0,-7.26472,-1.07157,-42.896
2023-03-11 22:46:53:55,0,-7.29185,-1.03517,-42.9251
2023-03-11 22:46:53:65,0,-7.31071,-1.0096,-42.9461
2023-03-11 22:46:53:75,0,-7.33098,-0.99074,-42.9535
2023-03-11 22:46:53:85,0,-7.35753,-0.973429,-42.9529
2023-03-11 22:46:53:95,0,-7.38685,-0.957953,-42.9466
2023-03-11 22:46:53:105,0,-7.4162,-0.943216,-42.9317
2023-03-11 22:46:53:115,0,-7.44649,-0.925333,-42.9174
2023-03-11 22:46:53:125,0,-7.47487,-0.90187,-42.9035
2023-03-11 22:46:53:135,0,-7.50263,-0.880073,-42.8939
2023-03-11 22:46:53:145,0,-7.52305,-0.85524,-42.8857
2023-03-11 22:46:53:155,0,-7.53557,-0.831809,-42.8832
2023-03-11 22:46:53:165,0,-7.54285,-0.80691,-42.886
2023-03-11 22:46:53:175,0,-7.54966,-0.782711,-42.8853
2023-03-11 22:46:53:185,0,-7.5525,-0.764515,-42.8924
2023-03-11 22:46:53:195,0,-7.55539,-0.751617,-42.8982
2023-03-11 22:46:53:205,0,-7.55096,-0.738464,-42.9084
2023-03-11 22:46:53:215,0,-7.54112,-0.721323,-42.9215
2023-03-11 22:46:53:225,0,-7.53011,-0.701884,-42.9408
2023-03-11 22:46:53:235,0,-7.5137,-0.681568,-42.963
2023-03-11 22:46:53:245,0,-7.49805,-0.659819,-42.9866
2023-03-11 22:46:53:255,0,-7.48567,-0.63941,-43.0053
2023-03-11 22:46:53:265,0,-7.474,-0.62239,-43.0189
2023-03-11 22:46:53:275,0,-7.46183,-0.618308,-43.0237
2023-03-11 22:46:53:285,0,-7.45464,-0.621038,-43.0192
2023-03-11 22:46:53:295,0,-7.44854,-0.631336,-43.0146
2023-03-11 22:46:53:305,0,-7.45054,-0.64504,-43.0083
2023-03-11 22:46:53:315,0,-7.45338,-0.660359,-43.0065
2023-03-11 22:46:53:325,0,-7.45464,-0.675552,-43.0048
2023-03-11 22:46:53:335,0,-7.4607,-0.69769,-43.002
2023-03-11 22:46:53:345,0,-7.46525,-0.722371,-43.0041
2023-03-11 22:46:53:355,0,-7.46747,-0.750428,-43.009
2023-03-11 22:46:53:365,0,-7.46847,-0.78588,-43.0154
2023-03-11 22:46:53:375,0,-7.47288,-0.827726,-43.0234
2023-03-11 22:46:53:385,0,-7.47684,-0.870773,-43.0345
2023-03-11 22:46:53:395,0,-7.48404,-0.914288,-43.0482
2023-03-11 22:46:53:405,0,-7.49047,-0.954615,-43.0639
2023-03-11 22:46:53:415,0,-7.49462,-0.991072,-43.0838
2023-03-11 22:46:53:425,0,-7.4971,-1.02551,-43.1061
2023-03-11 22:46:53:435,0,-7.49755,-1.05687,-43.134
2023-03-11 22:46:53:445,0,-7.49361,-1.08207,-43.162
2023-03-11 22:46:53:455,0,-7.48548,-1.10952,-43.1885
2023-03-11 22:46:53:465,0,-7.47415,-1.13737,-43.2099
2023-03-11 22:46:53:475,0,-7.4604,-1.16775,-43.2265
2023-03-11 22:46:53:485,0,-7.44348,-1.19801,-43.2396
2023-03-11 22:46:53:495,0,-7.42558,-1.22401,-43.2517
2023-03-11 22:46:53:505,0,-7.40374,-1.25015,-43.2571
2023-03-11 22:46:53:515,0,-7.37593,-1.27629,-43.2493
2023-03-11 22:46:53:525,0,-7.35171,-1.30359,-43.2338
2023-03-11 22:46:53:535,0,-7.32435,-1.32711,-43.2126
2023-03-11 22:46:53:545,0,-7.29939,-1.34711,-43.1896
2023-03-11 22:46:53:555,0,-7.281,-1.36329,-43.1675
2023-03-11 22:46:53:565,0,-7.26757,-1.37571,-43.1463
2023-03-11 22:46:53:575,0,-7.25134,-1.38662,-43.13
2023-03-11 22:46:53:585,0,-7.23506,-1.39666,-43.1124
2023-03-11 22:46:53:595,0,-7.2156,-1.40738,-43.1002
2023-03-11 22:46:53:605,0,-7.19752,-1.42143,-43.0883
2023-03-11 22:46:53:615,0,-7.17974,-1.4363,-43.0805
2023-03-11 22:46:53:625,0,-7.16096,-1.4519,-43.0741
2023-03-11 22:46:53:634,0,-7.14626,-1.46725,-43.0702
2023-03-11 22:46:53:644,0,-7.12758,-1.48177,-43.0644
2023-03-11 22:46:53:655,0,-7.11566,-1.49842,-43.0562
2023-03-11 22:46:53:665,0,-7.10427,-1.51308,-43.0514
2023-03-11 22:46:53:675,0,-7.09261,-1.52632,-43.0403
2023-03-11 22:46:53:685,0,-7.08412,-1.53995,-43.0255
2023-03-11 22:46:53:695,0,-7.07138,-1.55609,-43.0118
2023-03-11 22:46:53:705,0,-7.05864,-1.57134,-42.9927
2023-03-11 22:46:53:715,0,-7.04576,-1.58236,-42.9756
2023-03-11 22:46:53:725,0,-7.03211,-1.59429,-42.9575
2023-03-11 22:46:53:735,0,-7.02421,-1.60882,-42.9422
2023-03-11 22:46:53:745,0,-7.02007,-1.62009,-42.9281
2023-03-11 22:46:53:755,0,-7.02053,-1.63248,-42.9175
2023-03-11 22:46:53:765,0,-7.02015,-1.64898,-42.9066
2023-03-11 22:46:53:775,0,-7.02009,-1.66228,-42.8994
2023-03-11 22:46:53:785,0,-7.02179,-1.67315,-42.899
2023-03-11 22:46:53:795,0,-7.0186,-1.68577,-42.8977
2023-03-11 22:46:53:805,0,-7.01688,-1.69362,-42.898
2023-03-11 22:46:53:815,0,-7.01608,-1.70151,-42.8986
2023-03-11 22:46:53:825,0,-7.01374,-1.70759,-42.9021
2023-03-11 22:46:53:835,0,-7.01153,-1.71364,-42.9053
2023-03-11 22:46:53:845,0,-7.00863,-1.71748,-42.91
2023-03-11 22:46:53:855,0,-7.00649,-1.7204,-42.9169
2023-03-11 22:46:53:865,0,-7.00216,-1.72348,-42.9225
2023-03-11 22:46:53:875,0,-6.99783,-1.72175,-42.9284
2023-03-11 22:46:53:885,0,-6.99895,-1.72026,-42.9338
2023-03-11 22:46:53:895,0,-7.0004,-1.7158,-42.9421
2023-03-11 22:46:53:905,0,-7.00676,-1.71313,-42.9458
2023-03-11 22:46:53:915,0,-7.00877,-1.70904,-42.9552
2023-03-11 22:46:53:925,0,-7.0116,-1.70371,-42.9641
2023-03-11 22:46:53:935,0,-7.0145,-1.69552,-42.97
2023-03-11 22:46:53:945,0,-7.0172,-1.68957,-42.9786
2023-03-11 22:46:53:955,0,-7.01701,-1.68127,-42.9878
2023-03-11 22:46:53:965,0,-7.01567,-1.67393,-42.9987
2023-03-11 22:46:53:975,0,-7.01244,-1.67092,-43.01
2023-03-11 22:46:53:985,0,-7.00779,-1.66747,-43.0203
2023-03-11 22:46:53:995,0,-7.00444,-1.66665,-43.0302
2023-03-11 22:46:54:5,0,-7.00123,-1.66416,-43.0423
2023-03-11 22:46:54:15,0,-7.00193,-1.66725,-43.0523
2023-03-11 22:46:54:25,0,-7.00355,-1.6684,-43.0614
2023-03-11 22:46:54:35,0,-7.0031,-1.6714,-43.0658
2023-03-11 22:46:54:45,0,-7.00021,-1.68335,-43.0688
2023-03-11 22:46:54:55,0,-7.00335,-1.69815,-43.0659
2023-03-11 22:46:54:65,0,-7.00982,-1.71579,-43.0644
2023-03-11 22:46:54:75,0,-7.01557,-1.73048,-43.0585
2023-03-11 22:46:54:85,0,-7.02653,-1.74581,-43.0539
2023-03-11 22:46:54:95,0,-7.03932,-1.75558,-43.0433
2023-03-11 22:46:54:105,0,-7.05145,-1.76451,-43.0328
2023-03-11 22:46:54:115,0,-7.06367,-1.77216,-43.0242
2023-03-11 22:46:54:125,0,-7.0744,-1.78005,-43.0182
2023-03-11 22:46:54:134,0,-7.08403,-1.78869,-43.012
2023-03-11 22:46:54:145,0,-7.09408,-1.79757,-43.0078
2023-03-11 22:46:54:155,0,-7.10353,-1.80967,-43.0095
2023-03-11 22:46:54:165,0,-7.11136,-1.82121,-43.0175
2023-03-11 22:46:54:175,0,-7.11668,-1.83157,-43.0293
2023-03-11 22:46:54:185,0,-7.12567,-1.83868,-43.0426
2023-03-11 22:46:54:195,0,-7.13248,-1.84579,-43.0601
2023-03-11 22:46:54:205,0,-7.1411,-1.84626,-43.0783
2023-03-11 22:46:54:215,0,-7.1516,-1.84715,-43.0916
2023-03-11 22:46:54:225,0,-7.16394,-1.84344,-43.104
2023-03-11 22:46:54:235,0,-7.1771,-1.84517,-43.1141
2023-03-11 22:46:54:245,0,-7.19233,-1.84223,-43.1186
2023-03-11 22:46:54:255,0,-7.20722,-1.83529,-43.1282
2023-03-11 22:46:54:265,0,-7.21826,-1.82435,-43.1366
2023-03-11 22:46:54:275,0,-7.22585,-1.813,-43.1397
2023-03-11 22:46:54:285,0,-7.22817,-1.80766,-43.1399
2023-03-11 22:46:54:295,0,-7.23037,-1.79876,-43.143
2023-03-11 22:46:54:305,0,-7.231,-1.7899,-43.1446
2023-03-11 22:46:54:315,0,-7.22968,-1.78289,-43.1496
2023-03-11 22:46:54:325,0,-7.22577,-1.77237,-43.15
2023-03-11 22:46:54:335,0,-7.22807,-1.76611,-43.1516
2023-03-11 22:46:54:345,0,-7.2313,-1.76412,-43.1528
2023-03-11 22:46:54:355,0,-7.23096,-1.76193,-43.1545
2023-03-11 22:46:54:365,0,-7.22532,-1.76144,-43.1571
2023-03-11 22:46:54:375,0,-7.22155,-1.76023,-43.1586
2023-03-11 22:46:54:385,0,-7.21101,-1.76148,-43.1602
2023-03-11 22:46:54:395,0,-7.20127,-1.76616,-43.1587
2023-03-11 22:46:54:405,0,-7.19117,-1.77275,-43.1562
2023-03-11 22:46:54:415,0,-7.18679,-1.7807,-43.1527
2023-03-11 22:46:54:425,0,-7.18225,-1.79225,-43.15
2023-03-11 22:46:54:435,0,-7.17873,-1.80245,-43.1423
2023-03-11 22:46:54:445,0,-7.17927,-1.81309,-43.1369
2023-03-11 22:46:54:455,0,-7.18252,-1.82772,-43.127
2023-03-11 22:46:54:465,0,-7.18618,-1.83879,-43.1191
2023-03-11 22:46:54:475,0,-7.19319,-1.84924,-43.1122
2023-03-11 22:46:54:485,0,-7.20227,-1.8587,-43.1029
2023-03-11 22:46:54:495,0,-7.2129,-1.86805,-43.097
2023-03-11 22:46:54:505,0,-7.22256,-1.87675,-43.0945
2023-03-11 22:46:54:515,0,-7.23157,-1.88808,-43.0921
2023-03-11 22:46:54:525,0,-7.23907,-1.89829,-43.0907
2023-03-11 22:46:54:535,0,-7.2463,-1.90941,-43.0924
2023-03-11 22:46:54:545,0,-7.25074,-1.9145,-43.0956
2023-03-11 22:46:54:555,0,-7.25228,-1.92418,-43.0976
2023-03-11 22:46:54:565,0,-7.25409,-1.93252,-43.097
2023-03-11 22:46:54:575,0,-7.25188,-1.94015,-43.1001
2023-03-11 22:46:54:585,0,-7.24622,-1.94127,-43.1025
2023-03-11 22:46:54:595,0,-7.24279,-1.94362,-43.1059
2023-03-11 22:46:54:605,0,-7.23805,-1.94571,-43.1121
2023-03-11 22:46:54:615,0,-7.22673,-1.94546,-43.1194
2023-03-11 22:46:54:625,0,-7.21697,-1.94659,-43.1304
2023-03-11 22:46:54:635,0,-7.20712,-1.94349,-43.1398
2023-03-11 22:46:54:644,0,-7.19807,-1.94343,-43.148
2023-03-11 22:46:54:655,0,-7.18765,-1.94464,-43.1566
2023-03-11 22:46:54:665,0,-7.17444,-1.94551,-43.1663
2023-03-11 22:46:54:675,0,-7.16738,-1.94681,-43.1766
2023-03-11 22:46:54:685,0,-7.15879,-1.94851,-43.1842
2023-03-11 22:46:54:695,0,-7.15332,-1.95007,-43.1896
2023-03-11 22:46:54:705,0,-7.14819,-1.95403,-43.1931
2023-03-11 22:46:54:715,0,-7.1464,-1.95715,-43.197
2023-03-11 22:46:54:725,0,-7.14389,-1.96588,-43.194
2023-03-11 22:46:54:735,0,-7.14213,-1.97137,-43.1961
2023-03-11 22:46:54:745,0,-7.13372,-1.98361,-43.196
2023-03-11 22:46:54:755,0,-7.12129,-1.99654,-43.1979
2023-03-11 22:46:54:765,0,-7.1108,-2.01421,-43.1985
2023-03-11 22:46:54:775,0,-7.10384,-2.03367,-43.2037
2023-03-11 22:46:54:785,0,-7.09805,-2.05669,-43.2095
2023-03-11 22:46:54:795,0,-7.10335,-2.0766,-43.2164
2023-03-11 22:46:54:805,0,-7.11797,-2.10111,-43.2254
2023-03-11 22:46:54:815,0,-7.13378,-2.13326,-43.2298
2023-03-11 22:46:54:825,0,-7.14427,-2.1768,-43.2383
2023-03-11 22:46:54:835,0,-7.15236,-2.21801,-43.2466
2023-03-11 22:46:54:845,0,-7.16646,-2.2522,-43.2601
2023-03-11 22:46:54:855,0,-7.18034,-2.28039,-43.2749
2023-03-11 22:46:54:865,0,-7.1981,-2.3031,-43.2861
2023-03-11 22:46:54:875,0,-7.21729,-2.31917,-43.2923
2023-03-11 22:46:54:885,0,-7.23834,-2.32767,-43.2964
2023-03-11 22:46:54:895,0,-7.26422,-2.33512,-43.298
2023-03-11 22:46:54:905,0,-7.28876,-2.33909,-43.2957
2023-03-11 22:46:54:915,0,-7.30984,-2.34148,-43.2921
2023-03-11 22:46:54:925,0,-7.32697,-2.34167,-43.2866
2023-03-11 22:46:54:935,0,-7.34033,-2.33953,-43.2845
2023-03-11 22:46:54:945,0,-7.34961,-2.33749,-43.2859
2023-03-11 22:46:54:955,0,-7.35504,-2.34079,-43.2883
2023-03-11 22:46:54:965,0,-7.36401,-2.34022,-43.2939
2023-03-11 22:46:54:975,0,-7.37471,-2.3383,-43.3065
2023-03-11 22:46:54:985,0,-7.38605,-2.3358,-43.3217
2023-03-11 22:46:54:995,0,-7.39915,-2.32844,-43.3406
2023-03-11 22:46:55:5,0,-7.41618,-2.32149,-43.3634
2023-03-11 22:46:55:15,0,-7.42968,-2.31356,-43.3857
2023-03-11 22:46:55:25,0,-7.4452,-2.30938,-43.4103
2023-03-11 22:46:55:35,0,-7.45725,-2.3009,-43.4365
2023-03-11 22:46:55:45,0,-7.46665,-2.29139,-43.4626
2023-03-11 22:46:55:55,0,-7.47022,-2.28069,-43.487
2023-03-11 22:46:55:65,0,-7.47322,-2.27276,-43.5074
2023-03-11 22:46:55:75,0,-7.47375,-2.26499,-43.5329
2023-03-11 22:46:55:85,0,-7.47742,-2.255,-43.5576
2023-03-11 22:46:55:95,0,-7.48358,-2.24684,-43.5844
2023-03-11 22:46:55:105,0,-7.49173,-2.24194,-43.6101
2023-03-11 22:46:55:115,0,-7.50245,-2.23322,-43.6313
2023-03-11 22:46:55:125,0,-7.5163,-2.22393,-43.657
2023-03-11 22:46:55:135,0,-7.52626,-2.21471,-43.6848
2023-03-11 22:46:55:145,0,-7.53139,-2.20688,-43.7133
2023-03-11 22:46:55:155,0,-7.5326,-2.19698,-43.7488
2023-03-11 22:46:55:165,0,-7.5324,-2.18776,-43.7843
2023-03-11 22:46:55:175,0,-7.53073,-2.17859,-43.8171
2023-03-11 22:46:55:185,0,-7.52876,-2.16904,-43.8508
2023-03-11 22:46:55:195,0,-7.52869,-2.16302,-43.8853
2023-03-11 22:46:55:205,0,-7.53128,-2.15792,-43.9214
2023-03-11 22:46:55:215,0,-7.53507,-2.15341,-43.954
2023-03-11 22:46:55:225,0,-7.53747,-2.14736,-43.9895
2023-03-11 22:46:55:235,0,-7.54028,-2.14389,-44.0199
2023-03-11 22:46:55:245,0,-7.54108,-2.14044,-44.0512
2023-03-11 22:46:55:255,0,-7.54525,-2.13802,-44.0839
2023-03-11 22:46:55:265,0,-7.54768,-2.13926,-44.1108
2023-03-11 22:46:55:275,0,-7.54991,-2.14088,-44.1363
2023-03-11 22:46:55:285,0,-7.55606,-2.14288,-44.1636
2023-03-11 22:46:55:295,0,-7.56534,-2.144,-44.1908
2023-03-11 22:46:55:305,0,-7.57155,-2.14393,-44.2222
2023-03-11 22:46:55:315,0,-7.57528,-2.14381,-44.2626
2023-03-11 22:46:55:324,0,-7.57777,-2.14107,-44.3042
2023-03-11 22:46:55:334,0,-7.57648,-2.14021,-44.3492
2023-03-11 22:46:55:344,0,-7.57317,-2.13375,-44.3963
2023-03-11 22:46:55:355,0,-7.56942,-2.12789,-44.4471
2023-03-11 22:46:55:365,0,-7.56595,-2.11931,-44.5002
2023-03-11 22:46:55:375,0,-7.56874,-2.10738,-44.5556
2023-03-11 22:46:55:385,0,-7.57294,-2.1004,-44.6118
2023-03-11 22:46:55:395,0,-7.5808,-2.0905,-44.6688
2023-03-11 22:46:55:405,0,-7.58526,-2.08017,-44.7254
2023-03-11 22:46:55:415,0,-7.58691,-2.06797,-44.7775
2023-03-11 22:46:55:425,0,-7.59304,-2.05943,-44.8258
2023-03-11 22:46:55:435,0,-7.60473,-2.05225,-44.8682
2023-03-11 22:46:55:445,0,-7.62121,-2.04811,-44.9078
2023-03-11 22:46:55:455,0,-7.6352,-2.0415,-44.9368
2023-03-11 22:46:55:465,0,-7.65375,-2.03732,-44.9613
2023-03-11 22:46:55:475,0,-7.67432,-2.03565,-44.9833
2023-03-11 22:46:55:485,0,-7.70009,-2.03051,-44.9987
2023-03-11 22:46:55:495,0,-7.72825,-2.02754,-45.0046
2023-03-11 22:46:55:505,0,-7.76176,-2.02557,-45.0058
2023-03-11 22:46:55:515,0,-7.79715,-2.02956,-45.0017
2023-03-11 22:46:55:525,0,-7.83557,-2.02953,-44.995
2023-03-11 22:46:55:535,0,-7.86736,-2.03182,-44.9815
2023-03-11 22:46:55:545,0,-7.89294,-2.03448,-44.9691
2023-03-11 22:46:55:555,0,-7.91519,-2.0357,-44.9512
2023-03-11 22:46:55:565,0,-7.93765,-2.04131,-44.9297
2023-03-11 22:46:55:575,0,-7.95695,-2.05405,-44.9002
2023-03-11 22:46:55:585,0,-7.98195,-2.07332,-44.8735
2023-03-11 22:46:55:595,0,-8.01183,-2.09165,-44.8486
2023-03-11 22:46:55:605,0,-8.04109,-2.10739,-44.827
2023-03-11 22:46:55:615,0,-8.06791,-2.12358,-44.8088
2023-03-11 22:46:55:625,0,-8.09123,-2.13939,-44.7971
2023-03-11 22:46:55:635,0,-8.1129,-2.15013,-44.7856
2023-03-11 22:46:55:645,0,-8.12646,-2.16333,-44.7756
2023-03-11 22:46:55:655,0,-8.13372,-2.17294,-44.7684
2023-03-11 22:46:55:665,0,-8.13829,-2.18386,-44.7621
2023-03-11 22:46:55:675,0,-8.14049,-2.19219,-44.7595
2023-03-11 22:46:55:685,0,-8.1372,-2.19971,-44.7675
2023-03-11 22:46:55:695,0,-8.13502,-2.20419,-44.7888
2023-03-11 22:46:55:705,0,-8.13523,-2.20884,-44.8129
2023-03-11 22:46:55:715,0,-8.136,-2.20952,-44.8441
2023-03-11 22:46:55:725,0,-8.13401,-2.20848,-44.8807
2023-03-11 22:46:55:735,0,-8.13617,-2.20684,-44.9246
2023-03-11 22:46:55:745,0,-8.13786,-2.20038,-44.9798
2023-03-11 22:46:55:755,0,-8.13852,-2.19194,-45.0469
2023-03-11 22:46:55:765,0,-8.13643,-2.17422,-45.1179
2023-03-11 22:46:55:775,0,-8.12552,-2.15413,-45.191
2023-03-11 22:46:55:785,0,-8.11582,-2.13963,-45.2652
2023-03-11 22:46:55:795,0,-8.10305,-2.1329,-45.3446
2023-03-11 22:46:55:805,0,-8.09138,-2.13342,-45.4341
2023-03-11 22:46:55:815,0,-8.08087,-2.1365,-45.523
2023-03-11 22:46:55:825,0,-8.06975,-2.14526,-45.6087
2023-03-11 22:46:55:835,0,-8.0603,-2.15815,-45.693
2023-03-11 22:46:55:845,0,-8.04896,-2.17049,-45.7721
2023-03-11 22:46:55:855,0,-8.03944,-2.1826,-45.8463
2023-03-11 22:46:55:865,0,-8.0288,-2.19621,-45.9114
2023-03-11 22:46:55:875,0,-8.01547,-2.204,-45.9672
2023-03-11 22:46:55:885,0,-7.99783,-2.2104,-46.0084
2023-03-11 22:46:55:895,0,-7.97986,-2.21504,-46.0396
2023-03-11 22:46:55:905,0,-7.96675,-2.22021,-46.0593
2023-03-11 22:46:55:915,0,-7.95436,-2.2216,-46.0688
2023-03-11 22:46:55:925,0,-7.93712,-2.22496,-46.0613
2023-03-11 22:46:55:935,0,-7.92477,-2.22412,-46.0408
2023-03-11 22:46:55:945,0,-7.91075,-2.22225,-46.0127
2023-03-11 22:46:55:955,0,-7.89837,-2.22198,-45.9784
2023-03-11 22:46:55:965,0,-7.88124,-2.22348,-45.9421
2023-03-11 22:46:55:975,0,-7.86143,-2.22403,-45.9021
2023-03-11 22:46:55:985,0,-7.84064,-2.23082,-45.8669
2023-03-11 22:46:55:995,0,-7.82273,-2.23347,-45.8293
2023-03-11 22:46:56:5,0,-7.80999,-2.24443,-45.7929
2023-03-11 22:46:56:15,0,-7.79312,-2.25495,-45.7596
2023-03-11 22:46:56:25,0,-7.78289,-2.26945,-45.7237
2023-03-11 22:46:56:35,0,-7.77338,-2.2835,-45.6974
2023-03-11 22:46:56:45,0,-7.76307,-2.29473,-45.6725
2023-03-11 22:46:56:55,0,-7.75095,-2.30617,-45.6498
2023-03-11 22:46:56:65,0,-7.73647,-2.31807,-45.6303
2023-03-11 22:46:56:75,0,-7.72375,-2.32827,-45.6136
2023-03-11 22:46:56:85,0,-7.70988,-2.34075,-45.5959
2023-03-11 22:46:56:95,0,-7.69854,-2.35091,-45.5804
2023-03-11 22:46:56:105,0,-7.68373,-2.35966,-45.5685
2023-03-11 22:46:56:115,0,-7.67109,-2.36824,-45.5551
2023-03-11 22:46:56:125,0,-7.66206,-2.37638,-45.5439
2023-03-11 22:46:56:135,0,-7.65461,-2.38871,-45.5338
2023-03-11 22:46:56:145,0,-7.65007,-2.39743,-45.5237
2023-03-11 22:46:56:155,0,-7.64152,-2.40599,-45.5142
2023-03-11 22:46:56:165,0,-7.63707,-2.412,-45.5063
2023-03-11 22:46:56:175,0,-7.63375,-2.41928,-45.495
2023-03-11 22:46:56:185,0,-7.62864,-2.42519,-45.4885
2023-03-11 22:46:56:195,0,-7.62896,-2.42822,-45.4805
2023-03-11 22:46:56:205,0,-7.63214,-2.43196,-45.4694
2023-03-11 22:46:56:215,0,-7.63401,-2.43904,-45.4617
2023-03-11 22:46:56:225,0,-7.63158,-2.44302,-45.454
2023-03-11 22:46:56:235,0,-7.63031,-2.44151,-45.4445
2023-03-11 22:46:56:245,0,-7.62912,-2.44465,-45.4408
2023-03-11 22:46:56:255,0,-7.6263,-2.45008,-45.4377
2023-03-11 22:46:56:265,0,-7.62457,-2.45277,-45.4331
2023-03-11 22:46:56:275,0,-7.62499,-2.461,-45.4281
2023-03-11 22:46:56:285,0,-7.62709,-2.46398,-45.4263
2023-03-11 22:46:56:295,0,-7.62434,-2.46693,-45.4249
2023-03-11 22:46:56:305,0,-7.62099,-2.47443,-45.4202
2023-03-11 22:46:56:315,0,-7.61415,-2.48807,-45.4096
2023-03-11 22:46:56:325,0,-7.60789,-2.50604,-45.3958
2023-03-11 22:46:56:335,0,-7.60128,-2.52521,-45.3836
2023-03-11 22:46:56:345,0,-7.59867,-2.54223,-45.3706
2023-03-11 22:46:56:355,0,-7.59843,-2.55418,-45.3562
2023-03-11 22:46:56:365,0,-7.60018,-2.5635,-45.3386
2023-03-11 22:46:56:375,0,-7.60151,-2.57292,-45.3203
2023-03-11 22:46:56:385,0,-7.60155,-2.57972,-45.2977
2023-03-11 22:46:56:395,0,-7.60061,-2.58599,-45.2807
2023-03-11 22:46:56:405,0,-7.59618,-2.59311,-45.2638
2023-03-11 22:46:56:415,0,-7.588,-2.59565,-45.2494
2023-03-11 22:46:56:425,0,-7.58012,-2.59657,-45.2387
2023-03-11 22:46:56:435,0,-7.56708,-2.60061,-45.2283
2023-03-11 22:46:56:445,0,-7.55968,-2.60321,-45.2208
2023-03-11 22:46:56:455,0,-7.55385,-2.60676,-45.2185
2023-03-11 22:46:56:465,0,-7.5495,-2.60791,-45.2167
2023-03-11 22:46:56:475,0,-7.54842,-2.60571,-45.2144
2023-03-11 22:46:56:485,0,-7.55001,-2.60559,-45.2165
2023-03-11 22:46:56:495,0,-7.55179,-2.60346,-45.2175
2023-03-11 22:46:56:505,0,-7.55298,-2.60297,-45.2189
2023-03-11 22:46:56:515,0,-7.5567,-2.60178,-45.2248
2023-03-11 22:46:56:525,0,-7.55723,-2.59638,-45.2307
2023-03-11 22:46:56:535,0,-7.55449,-2.59079,-45.2363
2023-03-11 22:46:56:545,0,-7.54705,-2.58655,-45.2393
2023-03-11 22:46:56:555,0,-7.54205,-2.58689,-45.2453
2023-03-11 22:46:56:565,0,-7.53798,-2.58552,-45.2497
2023-03-11 22:46:56:575,0,-7.53501,-2.58089,-45.2605
2023-03-11 22:46:56:585,0,-7.53033,-2.57374,-45.2632
2023-03-11 22:46:56:595,0,-7.52322,-2.5693,-45.2728
2023-03-11 22:46:56:605,0,-7.51526,-2.56095,-45.278
2023-03-11 22:46:56:615,0,-7.50673,-2.55406,-45.2815
2023-03-11 22:46:56:625,0,-7.49732,-2.54644,-45.2891
2023-03-11 22:46:56:635,0,-7.48933,-2.54145,-45.2941
2023-03-11 22:46:56:645,0,-7.48367,-2.53491,-45.3018
2023-03-11 22:46:56:655,0,-7.48005,-2.5273,-45.3126
2023-03-11 22:46:56:665,0,-7.4798,-2.52353,-45.3213
2023-03-11 22:46:56:675,0,-7.47856,-2.51756,-45.3334
2023-03-11 22:46:56:685,0,-7.47388,-2.51478,-45.3461
2023-03-11 22:46:56:695,0,-7.46833,-2.51286,-45.3559
2023-03-11 22:46:56:705,0,-7.45899,-2.5091,-45.3653
2023-03-11 22:46:56:715,0,-7.45294,-2.50355,-45.3721
2023-03-11 22:46:56:725,0,-7.45479,-2.49966,-45.3756
2023-03-11 22:46:56:735,0,-7.45645,-2.4986,-45.3793
2023-03-11 22:46:56:745,0,-7.46022,-2.4934,-45.3793
2023-03-11 22:46:56:755,0,-7.46563,-2.48919,-45.3787
2023-03-11 22:46:56:765,0,-7.46897,-2.4814,-45.379
2023-03-11 22:46:56:775,0,-7.47152,-2.47667,-45.3795
2023-03-11 22:46:56:785,0,-7.47199,-2.47141,-45.3839
2023-03-11 22:46:56:795,0,-7.469,-2.46865,-45.3853
2023-03-11 22:46:56:805,0,-7.46397,-2.46613,-45.3882
2023-03-11 22:46:56:815,0,-7.45609,-2.46432,-45.3904
2023-03-11 22:46:56:825,0,-7.45756,-2.46356,-45.3948
2023-03-11 22:46:56:835,0,-7.45752,-2.46414,-45.3997
2023-03-11 22:46:56:845,0,-7.45657,-2.46749,-45.4063
2023-03-11 22:46:56:855,0,-7.45278,-2.4728,-45.416
2023-03-11 22:46:56:865,0,-7.43905,-2.47738,-45.4307
2023-03-11 22:46:56:875,0,-7.42389,-2.48019,-45.4393
2023-03-11 22:46:56:885,0,-7.40722,-2.48267,-45.4472
2023-03-11 22:46:56:895,0,-7.39049,-2.48499,-45.4523
2023-03-11 22:46:56:905,0,-7.37502,-2.48608,-45.4548
2023-03-11 22:46:56:915,0,-7.3596,-2.48863,-45.4578
2023-03-11 22:46:56:925,0,-7.34793,-2.49071,-45.4561
2023-03-11 22:46:56:935,0,-7.33301,-2.48784,-45.4525
2023-03-11 22:46:56:945,0,-7.31977,-2.48589,-45.4491
2023-03-11 22:46:56:955,0,-7.30253,-2.48988,-45.4434
2023-03-11 22:46:56:965,0,-7.28566,-2.48951,-45.4389
2023-03-11 22:46:56:975,0,-7.27114,-2.48469,-45.4358
2023-03-11 22:46:56:985,0,-7.25513,-2.48153,-45.4355
2023-03-11 22:46:56:995,0,-7.23785,-2.47782,-45.4365
2023-03-11 22:46:57:5,0,-7.22153,-2.47682,-45.4376
2023-03-11 22:46:57:15,0,-7.20673,-2.47392,-45.4422
2023-03-11 22:46:57:25,0,-7.19157,-2.46919,-45.449
2023-03-11 22:46:57:35,0,-7.18007,-2.47335,-45.4526
2023-03-11 22:46:57:45,0,-7.16924,-2.48162,-45.4554
2023-03-11 22:46:57:55,0,-7.16562,-2.49382,-45.453
2023-03-11 22:46:57:65,0,-7.1671,-2.50592,-45.4452
2023-03-11 22:46:57:75,0,-7.1752,-2.51644,-45.4363
2023-03-11 22:46:57:85,0,-7.18314,-2.5261,-45.4302
2023-03-11 22:46:57:95,0,-7.19016,-2.53245,-45.4228
2023-03-11 22:46:57:105,0,-7.20071,-2.53313,-45.4146
2023-03-11 22:46:57:115,0,-7.20577,-2.53504,-45.4083
2023-03-11 22:46:57:125,0,-7.20439,-2.53669,-45.4039
2023-03-11 22:46:57:135,0,-7.20108,-2.53971,-45.4026
2023-03-11 22:46:57:145,0,-7.19322,-2.53904,-45.4013
2023-03-11 22:46:57:155,0,-7.18591,-2.53457,-45.4021
2023-03-11 22:46:57:165,0,-7.17772,-2.53279,-45.4047
2023-03-11 22:46:57:175,0,-7.17388,-2.53323,-45.409
2023-03-11 22:46:57:185,0,-7.17353,-2.53221,-45.4205
2023-03-11 22:46:57:195,0,-7.17386,-2.52935,-45.4327
2023-03-11 22:46:57:205,0,-7.1778,-2.52547,-45.4427
2023-03-11 22:46:57:215,0,-7.18209,-2.51917,-45.4572
2023-03-11 22:46:57:225,0,-7.18348,-2.51457,-45.4682
2023-03-11 22:46:57:235,0,-7.18755,-2.50722,-45.4784
2023-03-11 22:46:57:245,0,-7.18736,-2.49649,-45.4929
2023-03-11 22:46:57:255,0,-7.18679,-2.4867,-45.5039
2023-03-11 22:46:57:265,0,-7.18364,-2.4793,-45.51
2023-03-11 22:46:57:275,0,-7.17835,-2.47575,-45.5106
2023-03-11 22:46:57:285,0,-7.17438,-2.47425,-45.5081
2023-03-11 22:46:57:295,0,-7.16726,-2.47565,-45.5057
2023-03-11 22:46:57:305,0,-7.16115,-2.48032,-45.5063
2023-03-11 22:46:57:315,0,-7.14725,-2.49087,-45.5112
2023-03-11 22:46:57:325,0,-7.12606,-2.50035,-45.5172
2023-03-11 22:46:57:335,0,-7.09687,-2.50242,-45.5215
2023-03-11 22:46:57:345,0,-7.06338,-2.5021,-45.5254
2023-03-11 22:46:57:355,0,-7.03189,-2.49949,-45.5276
2023-03-11 22:46:57:365,0,-6.98834,-2.4977,-45.528
2023-03-11 22:46:57:375,0,-6.9395,-2.4948,-45.5246
2023-03-11 22:46:57:385,0,-6.89407,-2.49293,-45.5132
2023-03-11 22:46:57:395,0,-6.84114,-2.49163,-45.5003
2023-03-11 22:46:57:405,0,-6.79671,-2.49411,-45.4927
2023-03-11 22:46:57:415,0,-6.76308,-2.50224,-45.4824
2023-03-11 22:46:57:425,0,-6.74032,-2.51124,-45.4771
2023-03-11 22:46:57:435,0,-6.71316,-2.51831,-45.4725
2023-03-11 22:46:57:445,0,-6.68304,-2.52355,-45.4703
2023-03-11 22:46:57:455,0,-6.65079,-2.53137,-45.4673
2023-03-11 22:46:57:465,0,-6.60857,-2.53999,-45.4671
2023-03-11 22:46:57:475,0,-6.57052,-2.54548,-45.4723
2023-03-11 22:46:57:485,0,-6.54137,-2.55535,-45.4732
2023-03-11 22:46:57:495,0,-6.52395,-2.5593,-45.4727
2023-03-11 22:46:57:505,0,-6.52019,-2.55985,-45.4731
2023-03-11 22:46:57:515,0,-6.53124,-2.55729,-45.474
2023-03-11 22:46:57:525,0,-6.55471,-2.55761,-45.4779
2023-03-11 22:46:57:535,0,-6.58741,-2.55385,-45.4821
2023-03-11 22:46:57:545,0,-6.62332,-2.55008,-45.4894
2023-03-11 22:46:57:555,0,-6.66002,-2.54649,-45.4942
2023-03-11 22:46:57:565,0,-6.69126,-2.54304,-45.503
2023-03-11 22:46:57:575,0,-6.72184,-2.53684,-45.5132
2023-03-11 22:46:57:585,0,-6.75116,-2.52804,-45.5267
2023-03-11 22:46:57:595,0,-6.77928,-2.51934,-45.5376
2023-03-11 22:46:57:605,0,-6.80868,-2.50776,-45.547
2023-03-11 22:46:57:615,0,-6.84186,-2.496,-45.5537
2023-03-11 22:46:57:625,0,-6.8772,-2.4869,-45.5589
2023-03-11 22:46:57:635,0,-6.91424,-2.48111,-45.5637
2023-03-11 22:46:57:645,0,-6.95487,-2.47296,-45.5681
2023-03-11 22:46:57:655,0,-6.99092,-2.46667,-45.5772
2023-03-11 22:46:57:665,0,-7.01938,-2.4605,-45.5842
2023-03-11 22:46:57:675,0,-7.04167,-2.44985,-45.5879
2023-03-11 22:46:57:685,0,-7.06855,-2.44512,-45.5897
2023-03-11 22:46:57:695,0,-7.09414,-2.4374,-45.59
2023-03-11 22:46:57:705,0,-7.11994,-2.43505,-45.5889
2023-03-11 22:46:57:715,0,-7.14497,-2.43266,-45.5901
2023-03-11 22:46:57:725,0,-7.16905,-2.42571,-45.5957
2023-03-11 22:46:57:735,0,-7.18938,-2.41922,-45.6013
2023-03-11 22:46:57:745,0,-7.19928,-2.41546,-45.6074
2023-03-11 22:46:57:755,0,-7.20365,-2.41886,-45.6129
2023-03-11 22:46:57:765,0,-7.20699,-2.42256,-45.6169
2023-03-11 22:46:57:775,0,-7.21015,-2.42977,-45.6183
2023-03-11 22:46:57:785,0,-7.22008,-2.43512,-45.6219
2023-03-11 22:46:57:795,0,-7.2355,-2.4349,-45.6246
2023-03-11 22:46:57:805,0,-7.25432,-2.43365,-45.6283
2023-03-11 22:46:57:815,0,-7.26496,-2.43503,-45.6352
2023-03-11 22:46:57:825,0,-7.26771,-2.43379,-45.6409
2023-03-11 22:46:57:835,0,-7.26967,-2.43307,-45.6497
2023-03-11 22:46:57:845,0,-7.26671,-2.43066,-45.6602
2023-03-11 22:46:57:855,0,-7.26318,-2.42578,-45.6677
2023-03-11 22:46:57:865,0,-7.26813,-2.4223,-45.6727
2023-03-11 22:46:57:875,0,-7.27288,-2.42462,-45.6796
2023-03-11 22:46:57:885,0,-7.28087,-2.42136,-45.6874
2023-03-11 22:46:57:895,0,-7.28917,-2.41881,-45.698
2023-03-11 22:46:57:905,0,-7.29349,-2.41695,-45.7111
2023-03-11 22:46:57:915,0,-7.29858,-2.41163,-45.7264
2023-03-11 22:46:57:925,0,-7.30294,-2.40968,-45.7389
2023-03-11 22:46:57:935,0,-7.30922,-2.40864,-45.7525
2023-03-11 22:46:57:945,0,-7.31996,-2.41171,-45.7685
2023-03-11 22:46:57:955,0,-7.33703,-2.41475,-45.7816
2023-03-11 22:46:57:965,0,-7.34672,-2.41652,-45.7961
2023-03-11 22:46:57:975,0,-7.35145,-2.41328,-45.8078
2023-03-11 22:46:57:985,0,-7.34747,-2.41603,-45.8154
2023-03-11 22:46:57:995,0,-7.33582,-2.41658,-45.8225
2023-03-11 22:46:58:5,0,-7.32263,-2.42153,-45.8312
2023-03-11 22:46:58:15,0,-7.30129,-2.42668,-45.8389
2023-03-11 22:46:58:25,0,-7.27974,-2.43048,-45.8429
2023-03-11 22:46:58:35,0,-7.25853,-2.43492,-45.8442
2023-03-11 22:46:58:45,0,-7.23786,-2.4413,-45.8424
2023-03-11 22:46:58:55,0,-7.21819,-2.44638,-45.8414
2023-03-11 22:46:58:65,0,-7.19383,-2.45177,-45.8353
2023-03-11 22:46:58:75,0,-7.17322,-2.45889,-45.824
2023-03-11 22:46:58:85,0,-7.15202,-2.46772,-45.8133
2023-03-11 22:46:58:95,0,-7.12823,-2.47303,-45.8083
2023-03-11 22:46:58:105,0,-7.107,-2.48195,-45.8012
2023-03-11 22:46:58:115,0,-7.08625,-2.4917,-45.7949
2023-03-11 22:46:58:125,0,-7.06898,-2.50289,-45.7921
2023-03-11 22:46:58:135,0,-7.05448,-2.51838,-45.789
2023-03-11 22:46:58:145,0,-7.03878,-2.53567,-45.7873
2023-03-11 22:46:58:155,0,-7.02039,-2.55236,-45.7871
2023-03-11 22:46:58:165,0,-7.0025,-2.56701,-45.7874
2023-03-11 22:46:58:175,0,-6.98471,-2.58068,-45.787
2023-03-11 22:46:58:185,0,-6.96861,-2.59687,-45.7892
2023-03-11 22:46:58:195,0,-6.9616,-2.61067,-45.7876
2023-03-11 22:46:58:205,0,-6.95023,-2.61882,-45.7889
2023-03-11 22:46:58:215,0,-6.94307,-2.62659,-45.7948
2023-03-11 22:46:58:225,0,-6.93539,-2.63381,-45.7986
2023-03-11 22:46:58:234,0,-6.92238,-2.63704,-45.8005
2023-03-11 22:46:58:245,0,-6.90555,-2.64013,-45.804
2023-03-11 22:46:58:255,0,-6.89087,-2.63988,-45.8084
2023-03-11 22:46:58:265,0,-6.88015,-2.63888,-45.8173
2023-03-11 22:46:58:275,0,-6.86694,-2.63961,-45.8294
2023-03-11 22:46:58:285,0,-6.85373,-2.64174,-45.8403
2023-03-11 22:46:58:295,0,-6.84073,-2.64366,-45.8518
2023-03-11 22:46:58:305,0,-6.8287,-2.63994,-45.865
2023-03-11 22:46:58:315,0,-6.81363,-2.63983,-45.8747
2023-03-11 22:46:58:325,0,-6.80087,-2.63841,-45.883
2023-03-11 22:46:58:335,0,-6.78745,-2.63692,-45.8912
2023-03-11 22:46:58:345,0,-6.77875,-2.63189,-45.8981
2023-03-11 22:46:58:355,0,-6.77075,-2.62718,-45.9012
2023-03-11 22:46:58:365,0,-6.76228,-2.62228,-45.9064
2023-03-11 22:46:58:375,0,-6.75596,-2.61716,-45.9057
2023-03-11 22:46:58:385,0,-6.7513,-2.61256,-45.9072
2023-03-11 22:46:58:395,0,-6.74299,-2.608,-45.9091
2023-03-11 22:46:58:405,0,-6.7376,-2.6025,-45.9114
2023-03-11 22:46:58:415,0,-6.73234,-2.59656,-45.918
2023-03-11 22:46:58:425,0,-6.73208,-2.58923,-45.9198
2023-03-11 22:46:58:435,0,-6.73555,-2.58486,-45.927
2023-03-11 22:46:58:445,0,-6.7371,-2.58804,-45.9309
2023-03-11 22:46:58:455,0,-6.73773,-2.59268,-45.9304
2023-03-11 22:46:58:465,0,-6.73606,-2.60255,-45.929
2023-03-11 22:46:58:475,0,-6.73473,-2.61502,-45.9307
2023-03-11 22:46:58:485,0,-6.73558,-2.62333,-45.9281
2023-03-11 22:46:58:495,0,-6.736,-2.62925,-45.9229
2023-03-11 22:46:58:505,0,-6.73805,-2.63216,-45.9169
2023-03-11 22:46:58:515,0,-6.74009,-2.63402,-45.9104
2023-03-11 22:46:58:525,0,-6.7429,-2.63629,-45.9019
2023-03-11 22:46:58:535,0,-6.74516,-2.63819,-45.8934
2023-03-11 22:46:58:545,0,-6.74655,-2.63682,-45.8905
2023-03-11 22:46:58:555,0,-6.74153,-2.63852,-45.8855
2023-03-11 22:46:58:565,0,-6.73942,-2.63794,-45.885
2023-03-11 22:46:58:575,0,-6.73492,-2.637,-45.8868
2023-03-11 22:46:58:585,0,-6.72832,-2.63836,-45.8931
2023-03-11 22:46:58:595,0,-6.72418,-2.63628,-45.9027
2023-03-11 22:46:58:605,0,-6.72196,-2.63042,-45.9151
2023-03-11 22:46:58:615,0,-6.72255,-2.62522,-45.9268
2023-03-11 22:46:58:625,0,-6.72794,-2.61842,-45.9437
2023-03-11 22:46:58:635,0,-6.73226,-2.61035,-45.9524
2023-03-11 22:46:58:645,0,-6.74302,-2.601,-45.9646
2023-03-11 22:46:58:655,0,-6.75769,-2.58934,-45.975
2023-03-11 22:46:58:665,0,-6.76995,-2.57564,-45.9856
2023-03-11 22:46:58:675,0,-6.77843,-2.56797,-45.9893
2023-03-11 22:46:58:685,0,-6.78176,-2.56061,-45.9919
2023-03-11 22:46:58:695,0,-6.78194,-2.55657,-45.9937
2023-03-11 22:46:58:705,0,-6.77847,-2.55577,-45.9959
2023-03-11 22:46:58:715,0,-6.77225,-2.55537,-45.9982
2023-03-11 22:46:58:725,0,-6.76657,-2.55504,-45.9981
2023-03-11 22:46:58:735,0,-6.76074,-2.55296,-45.9966
2023-03-11 22:46:58:745,0,-6.75442,-2.55029,-45.9958
2023-03-11 22:46:58:755,0,-6.74995,-2.54961,-45.992
2023-03-11 22:46:58:765,0,-6.74231,-2.54815,-45.9844
2023-03-11 22:46:58:775,0,-6.73804,-2.54618,-45.98
2023-03-11 22:46:58:785,0,-6.7335,-2.54426,-45.9742
2023-03-11 22:46:58:795,0,-6.73225,-2.54469,-45.9679
2023-03-11 22:46:58:805,0,-6.72595,-2.54804,-45.9627
2023-03-11 22:46:58:815,0,-6.7202,-2.54918,-45.9563
2023-03-11 22:46:58:825,0,-6.71637,-2.55307,-45.9538
2023-03-11 22:46:58:835,0,-6.7133,-2.55925,-45.9455
2023-03-11 22:46:58:845,0,-6.71815,-2.56511,-45.9373
2023-03-11 22:46:58:855,0,-6.7229,-2.56977,-45.9328
2023-03-11 22:46:58:865,0,-6.72906,-2.57311,-45.9246
2023-03-11 22:46:58:875,0,-6.73522,-2.57323,-45.9182
2023-03-11 22:46:58:885,0,-6.74109,-2.57244,-45.913
2023-03-11 22:46:58:895,0,-6.75028,-2.57127,-45.9103
2023-03-11 22:46:58:905,0,-6.75654,-2.57249,-45.903
2023-03-11 22:46:58:915,0,-6.76319,-2.57199,-45.9024
2023-03-11 22:46:58:925,0,-6.76918,-2.57166,-45.8986
2023-03-11 22:46:58:935,0,-6.77613,-2.57147,-45.903
2023-03-11 22:46:58:945,0,-6.77898,-2.56686,-45.9087
2023-03-11 22:46:58:955,0,-6.78225,-2.56737,-45.9166
2023-03-11 22:46:58:965,0,-6.78595,-2.5649,-45.9208
2023-03-11 22:46:58:975,0,-6.78631,-2.56519,-45.9288
2023-03-11 22:46:58:985,0,-6.78799,-2.56413,-45.9324
