Timestamp_cmd,imu_cmd,roll_delta,pitch_delta,yaw_delta,voice_type,voice_length
2023-03-15 11:38:25:350,0,-79.857,0.479433,77.7644,Q,Q
2023-03-15 11:38:25:358,0,-79.8577,0.481589,77.7631,Q,Q
2023-03-15 11:38:25:368,0,-79.8569,0.481697,77.7621,Q,Q
2023-03-15 11:38:25:378,0,-79.8516,0.480686,77.7634,Q,Q
2023-03-15 11:38:25:388,0,-79.8517,0.481626,77.7625,Q,Q
2023-03-15 11:38:25:398,0,-79.8495,0.480801,77.7639,Q,Q
2023-03-15 11:38:25:408,0,-79.852,0.482414,77.7643,Q,Q
2023-03-15 11:38:25:419,0,-79.8553,0.480045,77.7623,Q,Q
2023-03-15 11:38:25:428,0,-79.8575,0.480455,77.7596,Q,Q
2023-03-15 11:38:25:438,0,-79.858,0.478919,77.7598,Q,Q
2023-03-15 11:38:25:449,0,-79.8578,0.478834,77.7619,Q,Q
2023-03-15 11:38:25:458,0,-79.8567,0.477165,77.7588,Q,Q
2023-03-15 11:38:25:468,0,-79.855,0.476024,77.7604,Q,Q
2023-03-15 11:38:25:478,0,-79.8519,0.47565,77.7597,Q,Q
2023-03-15 11:38:25:488,0,-79.8518,0.475014,77.7594,Q,Q
2023-03-15 11:38:25:498,0,-79.8525,0.474931,77.7594,Q,Q
2023-03-15 11:38:25:508,0,-79.8533,0.472831,77.7585,Q,Q
2023-03-15 11:38:25:518,0,-79.8509,0.474397,77.7584,Q,Q
2023-03-15 11:38:25:528,0,-79.8526,0.474317,77.7584,Q,Q
2023-03-15 11:38:25:538,0,-79.8532,0.47501,77.7565,Q,Q
2023-03-15 11:38:25:548,0,-79.853,0.4757,77.7568,Q,Q
2023-03-15 11:38:25:558,0,-79.8531,0.476735,77.7556,Q,Q
2023-03-15 11:38:25:568,0,-79.8544,0.477882,77.7542,Q,Q
2023-03-15 11:38:25:579,0,-79.8534,0.477011,77.753,Q,Q
2023-03-15 11:38:25:588,0,-79.8553,0.478047,77.7508,Q,Q
2023-03-15 11:38:25:599,0,-79.8572,0.477194,77.7494,Q,Q
2023-03-15 11:38:25:608,0,-79.8568,0.478522,77.7466,Q,Q
2023-03-15 11:38:25:618,0,-79.8556,0.481553,77.7457,Q,Q
2023-03-15 11:38:25:628,0,-79.8544,0.48297,77.7437,Q,Q
2023-03-15 11:38:25:638,0,-79.8552,0.481859,77.7402,Q,Q
2023-03-15 11:38:25:648,0,-79.8564,0.482763,77.7411,Q,Q
2023-03-15 11:38:25:658,0,-79.8584,0.48376,77.7405,Q,Q
2023-03-15 11:38:25:668,0,-79.8598,0.484765,77.7379,Q,Q
2023-03-15 11:38:25:679,0,-79.8565,0.484872,77.7409,Q,Q
2023-03-15 11:38:25:688,0,-79.8571,0.484451,77.7399,Q,Q
2023-03-15 11:38:25:699,0,-79.8566,0.485001,77.7384,Q,Q
2023-03-15 11:38:25:708,0,-79.8574,0.484047,77.7404,Q,Q
2023-03-15 11:38:25:718,0,-79.8581,0.486152,77.739,Q,Q
2023-03-15 11:38:25:728,0,-79.8601,0.483827,77.7386,Q,Q
2023-03-15 11:38:25:738,0,-79.8612,0.484972,77.7396,Q,Q
2023-03-15 11:38:25:748,0,-79.8648,0.484222,77.7369,Q,Q
2023-03-15 11:38:25:758,0,-79.8635,0.48488,77.7349,Q,Q
2023-03-15 11:38:25:768,0,-79.8685,0.48644,77.7369,Q,Q
2023-03-15 11:38:25:778,0,-79.8709,0.486558,77.7382,Q,Q
2023-03-15 11:38:25:788,0,-79.8709,0.483146,77.7378,Q,Q
2023-03-15 11:38:25:798,0,-79.8703,0.485494,77.7418,Q,Q
2023-03-15 11:38:25:808,0,-79.8697,0.488481,77.7428,Q,Q
2023-03-15 11:38:25:818,0,-79.8712,0.488361,77.7441,Q,Q
2023-03-15 11:38:25:828,0,-79.872,0.486208,77.7454,Q,Q
2023-03-15 11:38:25:838,0,-79.8695,0.488822,77.7465,Q,Q
2023-03-15 11:38:25:848,0,-79.8666,0.489874,77.7475,Q,Q
2023-03-15 11:38:25:858,0,-79.8679,0.48903,77.7479,Q,Q
2023-03-15 11:38:25:868,0,-79.8683,0.48682,77.7467,Q,Q
2023-03-15 11:38:25:878,0,-79.8636,0.489589,77.7489,Q,Q
2023-03-15 11:38:25:888,0,-79.8612,0.492424,77.7508,Q,Q
2023-03-15 11:38:25:898,0,-79.8631,0.494866,77.7508,Q,Q
2023-03-15 11:38:25:908,0,-79.8625,0.494151,77.7493,Q,Q
2023-03-15 11:38:25:918,0,-79.8629,0.493708,77.751,Q,Q
2023-03-15 11:38:25:928,0,-79.8646,0.491044,77.7492,Q,Q
2023-03-15 11:38:25:938,0,-79.8633,0.488646,77.7491,Q,Q
2023-03-15 11:38:25:948,0,-79.8622,0.487202,77.749,Q,Q
2023-03-15 11:38:25:958,0,-79.8606,0.486903,77.751,Q,Q
2023-03-15 11:38:25:968,0,-79.8563,0.487114,77.7529,Q,Q
2023-03-15 11:38:25:978,0,-79.8548,0.490256,77.7533,Q,Q
2023-03-15 11:38:25:988,0,-79.8551,0.487913,77.7522,Q,Q
2023-03-15 11:38:25:998,0,-79.8548,0.486518,77.7532,Q,Q
2023-03-15 11:38:26:8,0,-79.8556,0.484231,77.7548,Q,Q
2023-03-15 11:38:26:18,0,-79.8563,0.484257,77.7542,Q,Q
2023-03-15 11:38:26:28,0,-79.855,0.484039,77.753,Q,Q
2023-03-15 11:38:26:38,0,-79.8531,0.482769,77.7505,Q,Q
2023-03-15 11:38:26:48,0,-79.8502,0.482481,77.7485,Q,Q
2023-03-15 11:38:26:58,0,-79.8516,0.478618,77.7483,Q,Q
2023-03-15 11:38:26:68,0,-79.8504,0.479459,77.7496,Q,Q
2023-03-15 11:38:26:78,0,-79.8526,0.477777,77.7496,Q,Q
2023-03-15 11:38:26:88,0,-79.8541,0.479655,77.7485,Q,Q
2023-03-15 11:38:26:98,0,-79.8556,0.480397,77.7469,Q,Q
2023-03-15 11:38:26:108,0,-79.8565,0.480607,77.7478,Q,Q
2023-03-15 11:38:26:118,0,-79.8562,0.480836,77.7483,Q,Q
2023-03-15 11:38:26:128,0,-79.8568,0.480297,77.7481,Q,Q
2023-03-15 11:38:26:139,0,-79.8556,0.480092,77.7504,Q,Q
2023-03-15 11:38:26:148,0,-79.8563,0.480846,77.7508,Q,Q
2023-03-15 11:38:26:159,0,-79.8545,0.479991,77.7514,Q,Q
2023-03-15 11:38:26:168,0,-79.8528,0.480436,77.7529,Q,Q
2023-03-15 11:38:26:179,0,-79.8552,0.483354,77.7515,Q,Q
2023-03-15 11:38:26:189,0,-79.8539,0.483564,77.7518,Q,Q
2023-03-15 11:38:26:199,0,-79.8535,0.48308,77.7503,Q,Q
2023-03-15 11:38:26:209,0,-79.8475,0.483929,77.7502,Q,Q
2023-03-15 11:38:26:219,0,-79.8452,0.485898,77.7497,Q,Q
2023-03-15 11:38:26:229,0,-79.8481,0.486206,77.7485,Q,Q
2023-03-15 11:38:26:239,0,-79.8467,0.486788,77.7532,Q,Q
2023-03-15 11:38:26:249,0,-79.8466,0.48516,77.7526,Q,Q
2023-03-15 11:38:26:259,0,-79.8467,0.484248,77.7488,Q,Q
2023-03-15 11:38:26:269,0,-79.8473,0.485191,77.7487,Q,Q
2023-03-15 11:38:26:279,0,-79.847,0.48487,77.751,Q,Q
2023-03-15 11:38:26:289,0,-79.8472,0.485687,77.7531,Q,Q
2023-03-15 11:38:26:299,0,-79.8444,0.486789,77.7555,Q,Q
2023-03-15 11:38:26:309,0,-79.8445,0.483569,77.7587,Q,Q
2023-03-15 11:38:26:319,0,-79.8453,0.48338,77.7565,Q,Q
2023-03-15 11:38:26:329,0,-79.8457,0.482132,77.7596,Q,Q
2023-03-15 11:38:26:339,0,-79.8487,0.481433,77.7621,Q,Q
2023-03-15 11:38:26:349,0,-79.8484,0.480167,77.7627,Q,Q
2023-03-15 11:38:26:359,0,-79.849,0.480129,77.7623,Q,Q
2023-03-15 11:38:26:369,0,-79.8521,0.47903,77.7621,Q,Q
2023-03-15 11:38:26:379,0,-79.8494,0.480061,77.7607,Q,Q
2023-03-15 11:38:26:389,0,-79.8496,0.479413,77.7649,Q,Q
2023-03-15 11:38:26:399,0,-79.8506,0.481421,77.764,Q,Q
2023-03-15 11:38:26:409,0,-79.8491,0.481153,77.7622,Q,Q
2023-03-15 11:38:26:419,0,-79.8487,0.479424,77.7592,Q,Q
2023-03-15 11:38:26:429,0,-79.8461,0.477637,77.7546,Q,Q
2023-03-15 11:38:26:438,0,-79.844,0.477933,77.7576,Q,Q
2023-03-15 11:38:26:448,0,-79.8423,0.477244,77.7582,Q,Q
2023-03-15 11:38:26:459,0,-79.8422,0.475309,77.7579,Q,Q
2023-03-15 11:38:26:469,0,-79.8411,0.47588,77.7587,Q,Q
2023-03-15 11:38:26:479,0,-79.8424,0.476404,77.7568,Q,Q
2023-03-15 11:38:26:489,0,-79.84,0.47822,77.7568,Q,Q
2023-03-15 11:38:26:499,0,-79.8399,0.480209,77.7585,Q,Q
2023-03-15 11:38:26:509,0,-79.8397,0.478843,77.7582,Q,Q
2023-03-15 11:38:26:519,0,-79.8406,0.47938,77.7567,Q,Q
2023-03-15 11:38:26:529,0,-79.8415,0.480164,77.7568,Q,Q
2023-03-15 11:38:26:539,0,-79.8411,0.479888,77.7567,Q,Q
2023-03-15 11:38:26:549,0,-79.8423,0.479786,77.7544,Q,Q
2023-03-15 11:38:26:559,0,-79.8413,0.481672,77.7566,Q,Q
2023-03-15 11:38:26:569,0,-79.84,0.482424,77.7576,Q,Q
2023-03-15 11:38:26:579,0,-79.8356,0.48346,77.7555,Q,Q
2023-03-15 11:38:26:589,0,-79.8366,0.483901,77.7595,Q,Q
2023-03-15 11:38:26:599,0,-79.8359,0.480554,77.7568,Q,Q
2023-03-15 11:38:26:609,0,-79.835,0.479708,77.7592,Q,Q
2023-03-15 11:38:26:619,0,-79.8368,0.480876,77.7573,Q,Q
2023-03-15 11:38:26:629,0,-79.8412,0.480601,77.7597,Q,Q
2023-03-15 11:38:26:639,0,-79.8414,0.480546,77.7601,Q,Q
2023-03-15 11:38:26:649,0,-79.8406,0.479432,77.7602,Q,Q
2023-03-15 11:38:26:659,0,-79.8378,0.475971,77.7597,Q,Q
2023-03-15 11:38:26:669,0,-79.8354,0.475188,77.7592,Q,Q
2023-03-15 11:38:26:678,0,-79.8346,0.473047,77.7579,Q,Q
2023-03-15 11:38:26:689,0,-79.8345,0.473672,77.7558,Q,Q
2023-03-15 11:38:26:698,0,-79.8329,0.475108,77.7578,Q,Q
2023-03-15 11:38:26:708,0,-79.833,0.477546,77.7574,Q,Q
2023-03-15 11:38:26:718,0,-79.8348,0.480592,77.7571,Q,Q
2023-03-15 11:38:26:728,0,-79.8337,0.479967,77.7551,Q,Q
2023-03-15 11:38:26:738,0,-79.8335,0.476331,77.7536,Q,Q
2023-03-15 11:38:26:748,0,-79.8318,0.476775,77.7537,Q,Q
2023-03-15 11:38:26:759,0,-79.8321,0.476401,77.7573,Q,Q
2023-03-15 11:38:26:769,0,-79.832,0.475619,77.7596,Q,Q
2023-03-15 11:38:26:778,0,-79.8319,0.47495,77.7578,Q,Q
2023-03-15 11:38:26:788,0,-79.8359,0.473005,77.7561,Q,Q
2023-03-15 11:38:26:799,0,-79.835,0.472414,77.7565,Q,Q
2023-03-15 11:38:26:809,0,-79.8333,0.472444,77.7534,Q,Q
2023-03-15 11:38:26:819,0,-79.8342,0.473504,77.7545,Q,Q
2023-03-15 11:38:26:829,0,-79.8361,0.472767,77.7552,Q,Q
2023-03-15 11:38:26:839,0,-79.8371,0.473486,77.7539,Q,Q
2023-03-15 11:38:26:849,0,-79.8378,0.473691,77.7536,Q,Q
2023-03-15 11:38:26:859,0,-79.837,0.47338,77.7562,Q,Q
2023-03-15 11:38:26:869,0,-79.8376,0.470044,77.757,Q,Q
2023-03-15 11:38:26:879,0,-79.8371,0.470609,77.7568,Q,Q
2023-03-15 11:38:26:889,0,-79.8371,0.47167,77.7569,Q,Q
2023-03-15 11:38:26:899,0,-79.8319,0.475314,77.7559,Q,Q
2023-03-15 11:38:26:909,0,-79.8316,0.478683,77.756,Q,Q
2023-03-15 11:38:26:919,0,-79.8325,0.478777,77.7566,Q,Q
2023-03-15 11:38:26:929,0,-79.8315,0.480981,77.7599,Q,Q
2023-03-15 11:38:26:939,0,-79.8318,0.481085,77.762,Q,Q
2023-03-15 11:38:26:949,0,-79.8263,0.48143,77.7622,Q,Q
2023-03-15 11:38:26:959,0,-79.8254,0.480132,77.7621,Q,Q
2023-03-15 11:38:26:969,0,-79.824,0.481139,77.7614,Q,Q
2023-03-15 11:38:26:979,0,-79.8248,0.483179,77.7635,Q,Q
2023-03-15 11:38:26:989,0,-79.8214,0.483147,77.7634,Q,Q
2023-03-15 11:38:26:999,0,-79.8224,0.486084,77.7608,Q,Q
2023-03-15 11:38:27:9,0,-79.8263,0.484265,77.7567,Q,Q
2023-03-15 11:38:27:19,0,-79.8224,0.481121,77.7536,Q,Q
2023-03-15 11:38:27:29,0,-79.8216,0.480889,77.7555,Q,Q
2023-03-15 11:38:27:39,0,-79.8233,0.478298,77.7549,Q,Q
2023-03-15 11:38:27:49,0,-79.8236,0.474758,77.7559,Q,Q
2023-03-15 11:38:27:59,0,-79.8244,0.474261,77.7561,Q,Q
2023-03-15 11:38:27:69,0,-79.8217,0.471292,77.7555,Q,Q
2023-03-15 11:38:27:79,0,-79.8237,0.472181,77.7565,Q,Q
2023-03-15 11:38:27:89,0,-79.8243,0.47439,77.7573,Q,Q
2023-03-15 11:38:27:99,0,-79.8241,0.475444,77.7586,Q,Q
2023-03-15 11:38:27:109,0,-79.8227,0.475646,77.7558,Q,Q
2023-03-15 11:38:27:119,0,-79.8213,0.474073,77.7556,Q,Q
2023-03-15 11:38:27:129,0,-79.8224,0.473342,77.7521,Q,Q
2023-03-15 11:38:27:139,0,-79.8217,0.472529,77.7537,Q,Q
2023-03-15 11:38:27:149,0,-79.8226,0.476599,77.7537,Q,Q
2023-03-15 11:38:27:159,0,-79.8266,0.477824,77.7533,Q,Q
2023-03-15 11:38:27:169,0,-79.8299,0.480209,77.7517,Q,Q
2023-03-15 11:38:27:179,0,-79.8304,0.478041,77.7542,Q,Q
2023-03-15 11:38:27:189,0,-79.8295,0.479434,77.7518,Q,Q
2023-03-15 11:38:27:199,0,-79.8324,0.478767,77.7515,Q,Q
2023-03-15 11:38:27:209,0,-79.8287,0.477308,77.7506,Q,Q
2023-03-15 11:38:27:219,0,-79.8297,0.473453,77.7509,Q,Q
2023-03-15 11:38:27:229,0,-79.832,0.473453,77.7524,Q,Q
2023-03-15 11:38:27:239,0,-79.8325,0.476743,77.7507,Q,Q
2023-03-15 11:38:27:249,0,-79.8342,0.473527,77.7518,Q,Q
2023-03-15 11:38:27:259,0,-79.8342,0.474819,77.7513,Q,Q
2023-03-15 11:38:27:269,0,-79.8314,0.471982,77.7503,Q,Q
2023-03-15 11:38:27:279,0,-79.8296,0.46919,77.7507,Q,Q
2023-03-15 11:38:27:289,0,-79.829,0.467246,77.7485,Q,Q
2023-03-15 11:38:27:299,0,-79.832,0.468746,77.7482,Q,Q
2023-03-15 11:38:27:309,0,-79.8346,0.468291,77.75,Q,Q
2023-03-15 11:38:27:319,0,-79.8357,0.468101,77.7506,Q,Q
2023-03-15 11:38:27:329,0,-79.8381,0.468868,77.7537,Q,Q
2023-03-15 11:38:27:339,0,-79.838,0.467188,77.7533,Q,Q
2023-03-15 11:38:27:349,0,-79.8394,0.467552,77.7563,Q,Q
2023-03-15 11:38:27:359,0,-79.8411,0.468385,77.7574,Q,Q
2023-03-15 11:38:27:369,0,-79.8408,0.465872,77.759,Q,Q
2023-03-15 11:38:27:379,0,-79.8402,0.467686,77.7546,Q,Q
2023-03-15 11:38:27:389,0,-79.8417,0.469518,77.7517,Q,Q
2023-03-15 11:38:27:399,0,-79.8422,0.469809,77.7495,Q,Q
2023-03-15 11:38:27:409,0,-79.8464,0.467505,77.7461,Q,Q
2023-03-15 11:38:27:419,0,-79.8476,0.466649,77.7467,Q,Q
2023-03-15 11:38:27:429,0,-79.8477,0.464794,77.7469,Q,Q
2023-03-15 11:38:27:439,0,-79.85,0.465483,77.7431,Q,Q
2023-03-15 11:38:27:449,0,-79.8481,0.464272,77.7459,Q,Q
2023-03-15 11:38:27:459,0,-79.8476,0.465946,77.748,Q,Q
2023-03-15 11:38:27:469,0,-79.8463,0.464298,77.748,Q,Q
2023-03-15 11:38:27:479,0,-79.8477,0.464488,77.748,Q,Q
2023-03-15 11:38:27:489,0,-79.8457,0.462564,77.745,Q,Q
2023-03-15 11:38:27:499,0,-79.845,0.461597,77.7463,Q,Q
2023-03-15 11:38:27:509,0,-79.8471,0.46158,77.7423,Q,Q
2023-03-15 11:38:27:519,0,-79.8474,0.461677,77.7421,Q,Q
2023-03-15 11:38:27:529,0,-79.849,0.461281,77.7415,Q,Q
2023-03-15 11:38:27:539,0,-79.8495,0.460094,77.7401,Q,Q
2023-03-15 11:38:27:549,0,-79.8498,0.459411,77.7418,Q,Q
2023-03-15 11:38:27:559,0,-79.8473,0.456212,77.7399,Q,Q
2023-03-15 11:38:27:569,0,-79.8472,0.456448,77.742,Q,Q
2023-03-15 11:38:27:579,0,-79.8468,0.456496,77.7406,Q,Q
2023-03-15 11:38:27:589,0,-79.8437,0.456568,77.7379,Q,Q
2023-03-15 11:38:27:599,0,-79.8441,0.457511,77.7399,Q,Q
2023-03-15 11:38:27:609,0,-79.846,0.457868,77.7393,Q,Q
2023-03-15 11:38:27:619,0,-79.8469,0.46062,77.7402,Q,Q
2023-03-15 11:38:27:629,0,-79.8472,0.458643,77.74,Q,Q
2023-03-15 11:38:27:639,0,-79.8462,0.460559,77.7398,Q,Q
2023-03-15 11:38:27:649,0,-79.8489,0.459841,77.7422,Q,Q
2023-03-15 11:38:27:659,0,-79.8458,0.461571,77.7432,Q,Q
2023-03-15 11:38:27:669,0,-79.8428,0.460964,77.7432,Q,Q
2023-03-15 11:38:27:679,0,-79.8416,0.465228,77.7457,Q,Q
2023-03-15 11:38:27:689,0,-79.8395,0.463917,77.7435,Q,Q
2023-03-15 11:38:27:699,0,-79.841,0.46607,77.7425,Q,Q
2023-03-15 11:38:27:709,0,-79.8403,0.465974,77.7429,Q,Q
2023-03-15 11:38:27:719,0,-79.8416,0.467528,77.7423,Q,Q
2023-03-15 11:38:27:729,0,-79.8417,0.468706,77.7444,Q,Q
2023-03-15 11:38:27:739,0,-79.841,0.466471,77.7467,Q,Q
2023-03-15 11:38:27:749,0,-79.8391,0.4653,77.745,Q,Q
2023-03-15 11:38:27:759,0,-79.8401,0.465696,77.7463,Q,Q
2023-03-15 11:38:27:769,0,-79.8383,0.466138,77.7472,Q,Q
2023-03-15 11:38:27:779,0,-79.8408,0.466723,77.7473,Q,Q
2023-03-15 11:38:27:789,0,-79.8459,0.463069,77.7445,Q,Q
2023-03-15 11:38:27:799,0,-79.8494,0.463073,77.7445,Q,Q
2023-03-15 11:38:27:809,0,-79.8482,0.46349,77.747,Q,Q
2023-03-15 11:38:27:819,0,-79.8447,0.463258,77.7453,Q,Q
2023-03-15 11:38:27:829,0,-79.841,0.462779,77.7457,Q,Q
2023-03-15 11:38:27:839,0,-79.8416,0.462526,77.7415,Q,Q
2023-03-15 11:38:27:849,0,-79.8419,0.462336,77.7391,Q,Q
2023-03-15 11:38:27:859,0,-79.8425,0.461313,77.7382,Q,Q
2023-03-15 11:38:27:869,0,-79.8437,0.459925,77.7372,Q,Q
2023-03-15 11:38:27:879,0,-79.8435,0.461633,77.7378,Q,Q
2023-03-15 11:38:27:889,0,-79.8437,0.46434,77.7349,Q,Q
2023-03-15 11:38:27:899,0,-79.8413,0.465597,77.7321,Q,Q
2023-03-15 11:38:27:909,0,-79.8404,0.463515,77.7324,Q,Q
2023-03-15 11:38:27:919,0,-79.8385,0.463477,77.7294,Q,Q
2023-03-15 11:38:27:929,0,-79.8381,0.462928,77.7313,Q,Q
2023-03-15 11:38:27:939,0,-79.8398,0.461516,77.7319,Q,Q
2023-03-15 11:38:27:949,0,-79.841,0.461573,77.7331,Q,Q
2023-03-15 11:38:27:959,0,-79.8435,0.460457,77.7327,Q,Q
2023-03-15 11:38:27:969,0,-79.8419,0.460708,77.7323,Q,Q
2023-03-15 11:38:27:979,0,-79.8398,0.4613,77.7322,Q,Q
2023-03-15 11:38:27:989,0,-79.8367,0.462505,77.7329,Q,Q
2023-03-15 11:38:27:999,0,-79.8383,0.462976,77.7329,Q,Q
2023-03-15 11:38:28:9,0,-79.8404,0.460771,77.7309,Q,Q
2023-03-15 11:38:28:19,0,-79.8427,0.459391,77.7281,Q,Q
2023-03-15 11:38:28:29,0,-79.845,0.458424,77.731,Q,Q
2023-03-15 11:38:28:39,0,-79.8438,0.460629,77.7292,Q,Q
2023-03-15 11:38:28:49,0,-79.8423,0.459893,77.7258,Q,Q
2023-03-15 11:38:28:59,0,-79.8396,0.458867,77.7246,Q,Q
2023-03-15 11:38:28:69,0,-79.8385,0.455645,77.724,Q,Q
2023-03-15 11:38:28:79,0,-79.8377,0.458314,77.7239,Q,Q
2023-03-15 11:38:28:89,0,-79.8351,0.456018,77.7231,Q,Q
2023-03-15 11:38:28:99,0,-79.837,0.452371,77.7226,Q,Q
2023-03-15 11:38:28:109,0,-79.8392,0.456498,77.722,Q,Q
2023-03-15 11:38:28:119,0,-79.8413,0.459259,77.7229,Q,Q
2023-03-15 11:38:28:129,0,-79.8392,0.458347,77.7235,Q,Q
2023-03-15 11:38:28:139,0,-79.8348,0.461584,77.7214,Q,Q
2023-03-15 11:38:28:149,0,-79.8365,0.461035,77.7239,Q,Q
2023-03-15 11:38:28:159,0,-79.8416,0.459433,77.7241,Q,Q
2023-03-15 11:38:28:169,0,-79.8415,0.460444,77.7221,Q,Q
2023-03-15 11:38:28:179,0,-79.8391,0.460048,77.7219,Q,Q
2023-03-15 11:38:28:189,0,-79.8373,0.459833,77.7204,Q,Q
2023-03-15 11:38:28:199,0,-79.8397,0.457166,77.7195,Q,Q
2023-03-15 11:38:28:209,0,-79.8388,0.458352,77.7177,Q,Q
2023-03-15 11:38:28:219,0,-79.8392,0.459556,77.7123,Q,Q
2023-03-15 11:38:28:229,0,-79.8375,0.461406,77.7143,Q,Q
2023-03-15 11:38:28:239,0,-79.8395,0.463036,77.7133,Q,Q
2023-03-15 11:38:28:249,0,-79.8416,0.463495,77.715,Q,Q
2023-03-15 11:38:28:259,0,-79.842,0.466072,77.7129,Q,Q
2023-03-15 11:38:28:269,0,-79.8452,0.464356,77.7119,Q,Q
2023-03-15 11:38:28:279,0,-79.8442,0.465972,77.7098,Q,Q
2023-03-15 11:38:28:289,0,-79.8419,0.467883,77.7106,Q,Q
2023-03-15 11:38:28:299,0,-79.8395,0.468049,77.7099,Q,Q
2023-03-15 11:38:28:309,0,-79.836,0.466545,77.7105,Q,Q
2023-03-15 11:38:28:319,0,-79.8387,0.468309,77.7114,Q,Q
2023-03-15 11:38:28:329,0,-79.8415,0.468111,77.7109,Q,Q
2023-03-15 11:38:28:339,0,-79.8423,0.469627,77.712,Q,Q
2023-03-15 11:38:28:349,0,-79.8446,0.474209,77.7098,Q,Q
2023-03-15 11:38:28:359,0,-79.8472,0.474813,77.7069,Q,Q
2023-03-15 11:38:28:369,0,-79.8471,0.476923,77.7085,Q,Q
2023-03-15 11:38:28:379,0,-79.8463,0.477703,77.711,Q,Q
2023-03-15 11:38:28:389,0,-79.8462,0.481642,77.7092,Q,Q
2023-03-15 11:38:28:399,0,-79.8442,0.482846,77.7079,Q,Q
2023-03-15 11:38:28:409,0,-79.8442,0.482288,77.709,Q,Q
2023-03-15 11:38:28:419,0,-79.8427,0.482179,77.7052,Q,Q
2023-03-15 11:38:28:429,0,-79.8448,0.483523,77.7042,Q,Q
2023-03-15 11:38:28:439,0,-79.8444,0.48459,77.7025,Q,Q
2023-03-15 11:38:28:449,0,-79.8429,0.484801,77.7023,Q,Q
2023-03-15 11:38:28:459,0,-79.8415,0.484107,77.7019,Q,Q
2023-03-15 11:38:28:469,0,-79.8388,0.486034,77.7043,Q,Q
2023-03-15 11:38:28:479,0,-79.8412,0.488278,77.7042,Q,Q
2023-03-15 11:38:28:489,0,-79.8453,0.489151,77.703,Q,Q
2023-03-15 11:38:28:499,0,-79.8484,0.490481,77.7019,Q,Q
2023-03-15 11:38:28:509,0,-79.849,0.491691,77.7004,Q,Q
2023-03-15 11:38:28:519,0,-79.8474,0.492085,77.6944,Q,Q
2023-03-15 11:38:28:529,0,-79.8433,0.490829,77.6947,Q,Q
2023-03-15 11:38:28:539,0,-79.8423,0.490026,77.696,Q,Q
2023-03-15 11:38:28:549,0,-79.8452,0.490406,77.6989,Q,Q
2023-03-15 11:38:28:559,0,-79.8458,0.48916,77.7008,Q,Q
2023-03-15 11:38:28:569,0,-79.8486,0.491786,77.7009,Q,Q
2023-03-15 11:38:28:579,0,-79.8488,0.48675,77.7033,Q,Q
2023-03-15 11:38:28:589,0,-79.8483,0.486512,77.7045,Q,Q
2023-03-15 11:38:28:599,0,-79.8515,0.48701,77.7054,Q,Q
2023-03-15 11:38:28:609,0,-79.8466,0.488888,77.7081,Q,Q
2023-03-15 11:38:28:619,0,-79.8421,0.489946,77.7085,Q,Q
2023-03-15 11:38:28:629,0,-79.843,0.492201,77.7083,Q,Q
2023-03-15 11:38:28:639,0,-79.8431,0.49131,77.7138,Q,Q
2023-03-15 11:38:28:649,0,-79.8448,0.490621,77.7152,Q,Q
2023-03-15 11:38:28:659,0,-79.8455,0.489641,77.715,Q,Q
2023-03-15 11:38:28:669,0,-79.8461,0.487665,77.7139,Q,Q
2023-03-15 11:38:28:679,0,-79.8465,0.487473,77.7155,Q,Q
2023-03-15 11:38:28:689,0,-79.8439,0.488099,77.7175,Q,Q
2023-03-15 11:38:28:699,0,-79.8464,0.488562,77.7179,Q,Q
2023-03-15 11:38:28:709,0,-79.8431,0.485384,77.7183,Q,Q
2023-03-15 11:38:28:719,0,-79.8416,0.486938,77.719,Q,Q
2023-03-15 11:38:28:729,0,-79.8407,0.484572,77.7171,Q,Q
2023-03-15 11:38:28:739,0,-79.8426,0.484989,77.7158,Q,Q
2023-03-15 11:38:28:749,0,-79.8438,0.48511,77.7162,Q,Q
2023-03-15 11:38:28:759,0,-79.8449,0.48494,77.7166,Q,Q
2023-03-15 11:38:28:769,0,-79.8442,0.488947,77.7145,Q,Q
2023-03-15 11:38:28:779,0,-79.8408,0.486716,77.712,Q,Q
2023-03-15 11:38:28:789,0,-79.84,0.486794,77.7077,Q,Q
2023-03-15 11:38:28:799,0,-79.8377,0.489167,77.7077,Q,Q
2023-03-15 11:38:28:809,0,-79.8389,0.489665,77.7064,Q,Q
2023-03-15 11:38:28:819,0,-79.838,0.491286,77.7058,Q,Q
2023-03-15 11:38:28:829,0,-79.839,0.490109,77.708,Q,Q
2023-03-15 11:38:28:839,0,-79.8391,0.489257,77.7102,Q,Q
2023-03-15 11:38:28:849,0,-79.8408,0.487111,77.7083,Q,Q
2023-03-15 11:38:28:859,0,-79.8389,0.487257,77.7081,Q,Q
2023-03-15 11:38:28:869,0,-79.8366,0.485312,77.707,Q,Q
2023-03-15 11:38:28:879,0,-79.8366,0.482952,77.7085,Q,Q
2023-03-15 11:38:28:889,0,-79.8366,0.484501,77.7078,Q,Q
2023-03-15 11:38:28:899,0,-79.8412,0.485529,77.7091,Q,Q
2023-03-15 11:38:28:909,0,-79.8402,0.48341,77.7079,Q,Q
2023-03-15 11:38:28:919,0,-79.842,0.482179,77.7067,Q,Q
2023-03-15 11:38:28:929,0,-79.8424,0.480621,77.7073,Q,Q
2023-03-15 11:38:28:939,0,-79.8424,0.478636,77.7034,Q,Q
2023-03-15 11:38:28:949,0,-79.8418,0.47837,77.7049,Q,Q
2023-03-15 11:38:28:959,0,-79.8417,0.481765,77.7046,Q,Q
2023-03-15 11:38:28:969,0,-79.8417,0.480172,77.7075,Q,Q
2023-03-15 11:38:28:979,0,-79.8415,0.480856,77.7055,Q,Q
2023-03-15 11:38:28:989,0,-79.843,0.482265,77.7019,Q,Q
2023-03-15 11:38:28:999,0,-79.8426,0.482438,77.7025,Q,Q
2023-03-15 11:38:29:9,0,-79.8414,0.480747,77.7005,Q,Q
2023-03-15 11:38:29:19,0,-79.8443,0.480306,77.7006,Q,Q
2023-03-15 11:38:29:29,0,-79.8458,0.482498,77.7001,Q,Q
2023-03-15 11:38:29:39,0,-79.8449,0.481875,77.6992,Q,Q
2023-03-15 11:38:29:49,0,-79.8443,0.481508,77.6992,Q,Q
2023-03-15 11:38:29:59,0,-79.8447,0.484341,77.7013,Q,Q
2023-03-15 11:38:29:69,0,-79.8433,0.485398,77.7033,Q,Q
2023-03-15 11:38:29:79,0,-79.843,0.482809,77.7036,Q,Q
2023-03-15 11:38:29:89,0,-79.8436,0.483725,77.7051,Q,Q
2023-03-15 11:38:29:99,0,-79.8427,0.484303,77.706,Q,Q
2023-03-15 11:38:29:109,0,-79.8433,0.48356,77.7077,Q,Q
2023-03-15 11:38:29:119,0,-79.8444,0.484239,77.7075,Q,Q
2023-03-15 11:38:29:129,0,-79.8439,0.484167,77.705,Q,Q
2023-03-15 11:38:29:139,0,-79.8426,0.483826,77.7056,Q,Q
2023-03-15 11:38:29:149,0,-79.8444,0.48585,77.7048,Q,Q
2023-03-15 11:38:29:159,0,-79.8448,0.481261,77.705,Q,Q
2023-03-15 11:38:29:169,0,-79.8465,0.481154,77.7038,Q,Q
2023-03-15 11:38:29:179,0,-79.8433,0.481848,77.7031,Q,Q
2023-03-15 11:38:29:189,0,-79.8421,0.484592,77.703,Q,Q
2023-03-15 11:38:29:199,0,-79.8435,0.484686,77.7014,Q,Q
2023-03-15 11:38:29:209,0,-79.8447,0.483388,77.6991,Q,Q
2023-03-15 11:38:29:219,0,-79.8478,0.487655,77.699,Q,Q
2023-03-15 11:38:29:229,0,-79.8508,0.488296,77.6972,Q,Q
2023-03-15 11:38:29:239,0,-79.8542,0.487922,77.6959,Q,Q
2023-03-15 11:38:29:249,0,-79.8523,0.487068,77.6964,Q,Q
2023-03-15 11:38:29:259,0,-79.8504,0.484798,77.6937,Q,Q
2023-03-15 11:38:29:269,0,-79.8505,0.48685,77.6933,Q,Q
2023-03-15 11:38:29:279,0,-79.8472,0.486443,77.6913,Q,Q
2023-03-15 11:38:29:289,0,-79.8434,0.487396,77.6887,Q,Q
2023-03-15 11:38:29:299,0,-79.8458,0.486006,77.6879,Q,Q
2023-03-15 11:38:29:309,0,-79.8461,0.486519,77.6885,Q,Q
2023-03-15 11:38:29:319,0,-79.8482,0.487585,77.6889,Q,Q
2023-03-15 11:38:29:329,0,-79.849,0.486225,77.6878,Q,Q
2023-03-15 11:38:29:339,0,-79.8508,0.483686,77.6876,Q,Q
2023-03-15 11:38:29:349,0,-79.8498,0.484389,77.6897,Q,Q
2023-03-15 11:38:29:359,0,-79.8502,0.483766,77.6898,Q,Q
2023-03-15 11:38:29:369,0,-79.8475,0.481426,77.6917,Q,Q
2023-03-15 11:38:29:379,0,-79.8473,0.480589,77.6894,Q,Q
2023-03-15 11:38:29:389,0,-79.8495,0.477915,77.6891,Q,Q
2023-03-15 11:38:29:399,0,-79.85,0.479353,77.6905,Q,Q
2023-03-15 11:38:29:409,0,-79.8502,0.48114,77.6923,Q,Q
2023-03-15 11:38:29:419,0,-79.8502,0.482303,77.6905,Q,Q
2023-03-15 11:38:29:429,0,-79.849,0.481921,77.6908,Q,Q
2023-03-15 11:38:29:439,0,-79.8504,0.484862,77.6897,Q,Q
2023-03-15 11:38:29:449,0,-79.8532,0.484879,77.6892,Q,Q
2023-03-15 11:38:29:459,0,-79.8571,0.486664,77.6921,Q,Q
2023-03-15 11:38:29:469,0,-79.8599,0.486954,77.6878,Q,Q
2023-03-15 11:38:29:479,0,-79.8613,0.485824,77.6896,Q,Q
2023-03-15 11:38:29:489,0,-79.8616,0.487446,77.6893,Q,Q
2023-03-15 11:38:29:499,0,-79.8573,0.489031,77.6875,Q,Q
2023-03-15 11:38:29:509,0,-79.85,0.488422,77.6871,Q,Q
2023-03-15 11:38:29:519,0,-79.8462,0.48673,77.6871,Q,Q
2023-03-15 11:38:29:529,0,-79.8457,0.484268,77.6869,Q,Q
2023-03-15 11:38:29:539,0,-79.8482,0.487735,77.6842,Q,Q
2023-03-15 11:38:29:549,0,-79.85,0.488129,77.6845,Q,Q
2023-03-15 11:38:29:559,0,-79.8492,0.48719,77.6841,Q,Q
2023-03-15 11:38:29:569,0,-79.8492,0.488825,77.683,Q,Q
2023-03-15 11:38:29:579,0,-79.8475,0.489618,77.6823,Q,Q
2023-03-15 11:38:29:589,0,-79.8443,0.490317,77.6818,Q,Q
2023-03-15 11:38:29:599,0,-79.8441,0.487371,77.6792,Q,Q
2023-03-15 11:38:29:609,0,-79.8483,0.486554,77.6789,Q,Q
2023-03-15 11:38:29:619,0,-79.8507,0.485168,77.6785,Q,Q
2023-03-15 11:38:29:629,0,-79.852,0.488454,77.6802,Q,Q
2023-03-15 11:38:29:639,0,-79.8494,0.488507,77.6797,Q,Q
2023-03-15 11:38:29:649,0,-79.8506,0.487312,77.6809,Q,Q
2023-03-15 11:38:29:659,0,-79.8476,0.486684,77.6801,Q,Q
2023-03-15 11:38:29:669,0,-79.8461,0.488332,77.6787,Q,Q
2023-03-15 11:38:29:679,0,-79.8425,0.490458,77.6761,Q,Q
2023-03-15 11:38:29:689,0,-79.843,0.4892,77.6781,Q,Q
2023-03-15 11:38:29:699,0,-79.8459,0.490558,77.677,Q,Q
2023-03-15 11:38:29:709,0,-79.8474,0.490595,77.679,Q,Q
2023-03-15 11:38:29:719,0,-79.8482,0.489093,77.6784,Q,Q
2023-03-15 11:38:29:729,0,-79.8488,0.489464,77.6799,Q,Q
2023-03-15 11:38:29:739,0,-79.85,0.488429,77.6814,Q,Q
2023-03-15 11:38:29:749,0,-79.8501,0.489494,77.6804,Q,Q
2023-03-15 11:38:29:759,0,-79.8516,0.484957,77.6804,Q,Q
2023-03-15 11:38:29:769,0,-79.851,0.483799,77.676,Q,Q
2023-03-15 11:38:29:779,0,-79.8532,0.484638,77.6763,Q,Q
2023-03-15 11:38:29:789,0,-79.8533,0.486222,77.6767,Q,Q
2023-03-15 11:38:29:799,0,-79.8538,0.486735,77.6761,Q,Q
2023-03-15 11:38:29:809,0,-79.8512,0.484109,77.6778,Q,Q
2023-03-15 11:38:29:819,0,-79.8483,0.484515,77.6786,Q,Q
2023-03-15 11:38:29:829,0,-79.8456,0.484476,77.6795,Q,Q
2023-03-15 11:38:29:839,0,-79.849,0.487481,77.6799,Q,Q
2023-03-15 11:38:29:849,0,-79.846,0.487037,77.6803,Q,Q
2023-03-15 11:38:29:859,0,-79.8472,0.485892,77.6806,Q,Q
2023-03-15 11:38:29:869,0,-79.8475,0.485601,77.6791,Q,Q
2023-03-15 11:38:29:879,0,-79.8483,0.4814,77.6792,Q,Q
2023-03-15 11:38:29:889,0,-79.849,0.479054,77.6786,Q,Q
2023-03-15 11:38:29:899,0,-79.8465,0.479795,77.6815,Q,Q
2023-03-15 11:38:29:909,0,-79.848,0.47759,77.6806,Q,Q
2023-03-15 11:38:29:919,0,-79.8486,0.479413,77.6797,Q,Q
2023-03-15 11:38:29:929,0,-79.8501,0.481812,77.6783,Q,Q
2023-03-15 11:38:29:939,0,-79.8511,0.481582,77.6771,Q,Q
2023-03-15 11:38:29:949,0,-79.8516,0.480935,77.6756,Q,Q
2023-03-15 11:38:29:959,0,-79.8487,0.481904,77.676,Q,Q
2023-03-15 11:38:29:969,0,-79.847,0.480721,77.6763,Q,Q
2023-03-15 11:38:29:979,0,-79.8471,0.476172,77.675,Q,Q
2023-03-15 11:38:29:989,0,-79.8469,0.473471,77.6749,Q,Q
2023-03-15 11:38:29:999,0,-79.8465,0.472571,77.6763,Q,Q
2023-03-15 11:38:30:9,0,-79.8462,0.472536,77.6763,Q,Q
2023-03-15 11:38:30:19,0,-79.8457,0.472046,77.6782,Q,Q
2023-03-15 11:38:30:29,0,-79.8462,0.472218,77.6803,Q,Q
2023-03-15 11:38:30:39,0,-79.8459,0.474256,77.6763,Q,Q
2023-03-15 11:38:30:49,0,-79.8461,0.476842,77.6728,Q,Q
2023-03-15 11:38:30:59,0,-79.8486,0.475738,77.6701,Q,Q
2023-03-15 11:38:30:69,0,-79.8461,0.473406,77.6681,Q,Q
2023-03-15 11:38:30:79,0,-79.845,0.473069,77.6696,Q,Q
2023-03-15 11:38:30:89,0,-79.8471,0.476169,77.6705,Q,Q
2023-03-15 11:38:30:99,0,-79.8484,0.475633,77.6715,Q,Q
2023-03-15 11:38:30:109,0,-79.8503,0.471889,77.673,Q,Q
2023-03-15 11:38:30:119,0,-79.8519,0.470022,77.6724,Q,Q
2023-03-15 11:38:30:129,0,-79.8516,0.472204,77.667,Q,Q
2023-03-15 11:38:30:139,0,-79.8505,0.472579,77.6657,Q,Q
2023-03-15 11:38:30:149,0,-79.8522,0.470024,77.665,Q,Q
2023-03-15 11:38:30:159,0,-79.8519,0.468937,77.6637,Q,Q
2023-03-15 11:38:30:169,0,-79.8481,0.468634,77.6655,Q,Q
2023-03-15 11:38:30:179,0,-79.8481,0.467077,77.6657,Q,Q
2023-03-15 11:38:30:189,0,-79.8494,0.466341,77.6661,Q,Q
2023-03-15 11:38:30:200,0,-79.8507,0.469317,77.665,Q,Q
2023-03-15 11:38:30:209,0,-79.8517,0.469134,77.6642,Q,Q
2023-03-15 11:38:30:219,0,-79.8524,0.469513,77.6645,Q,Q
2023-03-15 11:38:30:229,0,-79.8533,0.471009,77.6655,Q,Q
2023-03-15 11:38:30:239,0,-79.8545,0.472901,77.6621,Q,Q
2023-03-15 11:38:30:249,0,-79.8558,0.47075,77.6622,Q,Q
2023-03-15 11:38:30:259,0,-79.8541,0.472054,77.6614,Q,Q
2023-03-15 11:38:30:269,0,-79.8589,0.468901,77.6579,Q,Q
2023-03-15 11:38:30:279,0,-79.8605,0.467731,77.6569,Q,Q
2023-03-15 11:38:30:289,0,-79.8624,0.467971,77.6541,Q,Q
2023-03-15 11:38:30:299,0,-79.8632,0.468688,77.6528,Q,Q
2023-03-15 11:38:30:309,0,-79.8641,0.466561,77.652,Q,Q
2023-03-15 11:38:30:319,0,-79.8633,0.470627,77.6528,Q,Q
2023-03-15 11:38:30:329,0,-79.862,0.471322,77.6549,Q,Q
2023-03-15 11:38:30:339,0,-79.8601,0.471569,77.656,Q,Q
2023-03-15 11:38:30:349,0,-79.8601,0.469812,77.6579,Q,Q
2023-03-15 11:38:30:359,0,-79.861,0.472282,77.6606,Q,Q
2023-03-15 11:38:30:369,0,-79.8612,0.471242,77.66,Q,Q
2023-03-15 11:38:30:380,0,-79.8596,0.476132,77.6584,Q,Q
2023-03-15 11:38:30:389,0,-79.8618,0.47969,77.6586,Q,Q
2023-03-15 11:38:30:399,0,-79.8623,0.481033,77.6612,Q,Q
2023-03-15 11:38:30:409,0,-79.8591,0.485538,77.6587,Q,Q
2023-03-15 11:38:30:420,0,-79.8583,0.485477,77.6574,Q,Q
2023-03-15 11:38:30:429,0,-79.8585,0.485058,77.6558,Q,Q
2023-03-15 11:38:30:439,0,-79.8592,0.484015,77.6569,Q,Q
2023-03-15 11:38:30:449,0,-79.862,0.48364,77.6547,Q,Q
2023-03-15 11:38:30:459,0,-79.8632,0.48436,77.6521,Q,Q
2023-03-15 11:38:30:469,0,-79.8631,0.482693,77.6511,Q,Q
2023-03-15 11:38:30:479,0,-79.8614,0.484468,77.6496,Q,Q
2023-03-15 11:38:30:489,0,-79.8612,0.484391,77.6478,Q,Q
2023-03-15 11:38:30:499,0,-79.861,0.479282,77.6493,Q,Q
2023-03-15 11:38:30:509,0,-79.8653,0.478742,77.651,Q,Q
2023-03-15 11:38:30:520,0,-79.8672,0.479715,77.6529,Q,Q
2023-03-15 11:38:30:529,0,-79.8686,0.480931,77.6547,Q,Q
2023-03-15 11:38:30:540,0,-79.8692,0.480829,77.6546,Q,Q
2023-03-15 11:38:30:550,0,-79.868,0.48027,77.6541,Q,Q
2023-03-15 11:38:30:560,0,-79.8695,0.479402,77.6537,Q,Q
2023-03-15 11:38:30:570,0,-79.8684,0.481011,77.6547,Q,Q
2023-03-15 11:38:30:580,0,-79.8682,0.482363,77.6566,Q,Q
2023-03-15 11:38:30:590,0,-79.8663,0.482173,77.6595,Q,Q
2023-03-15 11:38:30:599,0,-79.8678,0.478574,77.66,Q,Q
2023-03-15 11:38:30:609,0,-79.8706,0.475657,77.6615,Q,Q
2023-03-15 11:38:30:620,0,-79.8719,0.475884,77.6619,Q,Q
2023-03-15 11:38:30:630,0,-79.8753,0.477669,77.6593,Q,Q
2023-03-15 11:38:30:640,0,-79.8723,0.478852,77.6613,Q,Q
2023-03-15 11:38:30:650,0,-79.869,0.479594,77.6621,Q,Q
2023-03-15 11:38:30:660,0,-79.8704,0.482339,77.6656,Q,Q
2023-03-15 11:38:30:670,0,-79.8686,0.483126,77.6663,Q,Q
2023-03-15 11:38:30:680,0,-79.8668,0.483601,77.67,Q,Q
2023-03-15 11:38:30:689,0,-79.8648,0.48458,77.67,Q,Q
2023-03-15 11:38:30:700,0,-79.864,0.4857,77.6686,Q,Q
2023-03-15 11:38:30:710,0,-79.8643,0.48482,77.67,Q,Q
2023-03-15 11:38:30:719,0,-79.8673,0.483369,77.6676,Q,Q
2023-03-15 11:38:30:729,0,-79.8697,0.482189,77.6723,Q,Q
2023-03-15 11:38:30:739,0,-79.8716,0.479659,77.6712,Q,Q
2023-03-15 11:38:30:750,0,-79.8726,0.47867,77.668,Q,Q
2023-03-15 11:38:30:760,0,-79.8728,0.479973,77.6713,Q,Q
2023-03-15 11:38:30:769,0,-79.8733,0.477345,77.6703,Q,Q
2023-03-15 11:38:30:779,0,-79.8706,0.476818,77.6712,Q,Q
2023-03-15 11:38:30:789,0,-79.8716,0.475646,77.6711,Q,Q
2023-03-15 11:38:30:800,0,-79.8714,0.474969,77.6724,Q,Q
2023-03-15 11:38:30:810,0,-79.873,0.473984,77.6715,Q,Q
2023-03-15 11:38:30:820,0,-79.87,0.472793,77.6693,Q,Q
2023-03-15 11:38:30:830,0,-79.8706,0.474744,77.6688,Q,Q
2023-03-15 11:38:30:839,0,-79.8683,0.476101,77.6673,Q,Q
2023-03-15 11:38:30:849,0,-79.8693,0.474524,77.6718,Q,Q
2023-03-15 11:38:30:860,0,-79.8736,0.477254,77.6723,Q,Q
2023-03-15 11:38:30:869,0,-79.8755,0.475632,77.6733,Q,Q
2023-03-15 11:38:30:880,0,-79.8741,0.473726,77.6765,Q,Q
2023-03-15 11:38:30:889,0,-79.8754,0.470127,77.6766,Q,Q
2023-03-15 11:38:30:900,0,-79.8719,0.47215,77.6745,Q,Q
2023-03-15 11:38:30:910,0,-79.8706,0.471934,77.677,Q,Q
2023-03-15 11:38:30:919,0,-79.8688,0.471816,77.6761,Q,Q
2023-03-15 11:38:30:929,0,-79.8665,0.467585,77.6736,Q,Q
2023-03-15 11:38:30:940,0,-79.867,0.466714,77.6756,Q,Q
2023-03-15 11:38:30:950,0,-79.8706,0.467194,77.6741,Q,Q
2023-03-15 11:38:30:959,0,-79.8705,0.464877,77.6754,Q,Q
2023-03-15 11:38:30:970,0,-79.87,0.46745,77.6768,Q,Q
2023-03-15 11:38:30:979,0,-79.8677,0.469418,77.676,Q,Q
2023-03-15 11:38:30:990,0,-79.8643,0.468872,77.6788,Q,Q
2023-03-15 11:38:31:0,0,-79.8643,0.467492,77.6807,Q,Q
2023-03-15 11:38:31:9,0,-79.8624,0.465418,77.6808,Q,Q
2023-03-15 11:38:31:20,0,-79.8618,0.465014,77.6831,Q,Q
2023-03-15 11:38:31:30,0,-79.8633,0.463518,77.6839,Q,Q
2023-03-15 11:38:31:40,0,-79.8644,0.465718,77.6859,Q,Q
2023-03-15 11:38:31:50,0,-79.8648,0.4664,77.6887,Q,Q
2023-03-15 11:38:31:60,0,-79.8627,0.467741,77.6871,Q,Q
2023-03-15 11:38:31:70,0,-79.8659,0.469131,77.6896,Q,Q
2023-03-15 11:38:31:79,0,-79.8629,0.468368,77.6882,Q,Q
2023-03-15 11:38:31:89,0,-79.8645,0.468561,77.6872,Q,Q
2023-03-15 11:38:31:99,0,-79.8664,0.466655,77.6874,Q,Q
2023-03-15 11:38:31:109,0,-79.8656,0.467158,77.6873,Q,Q
2023-03-15 11:38:31:119,0,-79.8691,0.464004,77.6846,Q,Q
2023-03-15 11:38:31:129,0,-79.8684,0.464318,77.6865,Q,Q
2023-03-15 11:38:31:140,0,-79.8698,0.467133,77.6859,Q,Q
2023-03-15 11:38:31:150,0,-79.8696,0.468929,77.6883,Q,Q
2023-03-15 11:38:31:160,0,-79.8675,0.470324,77.6903,Q,Q
2023-03-15 11:38:31:170,0,-79.869,0.469791,77.6887,Q,Q
2023-03-15 11:38:31:179,0,-79.8702,0.468067,77.6878,Q,Q
2023-03-15 11:38:31:190,0,-79.8704,0.467267,77.6886,Q,Q
2023-03-15 11:38:31:200,0,-79.8709,0.468337,77.6889,Q,Q
2023-03-15 11:38:31:210,0,-79.8734,0.466306,77.6879,Q,Q
2023-03-15 11:38:31:220,0,-79.8756,0.467836,77.6892,Q,Q
2023-03-15 11:38:31:229,0,-79.8747,0.466835,77.6892,Q,Q
2023-03-15 11:38:31:240,0,-79.8747,0.465135,77.6887,Q,Q
2023-03-15 11:38:31:249,0,-79.8758,0.464934,77.6924,Q,Q
2023-03-15 11:38:31:260,0,-79.8748,0.466631,77.6952,Q,Q
2023-03-15 11:38:31:270,0,-79.8797,0.464139,77.6956,Q,Q
2023-03-15 11:38:31:280,0,-79.8762,0.466598,77.6953,Q,Q
2023-03-15 11:38:31:289,0,-79.8785,0.467446,77.6961,Q,Q
2023-03-15 11:38:31:299,0,-79.8786,0.465377,77.6994,Q,Q
2023-03-15 11:38:31:309,0,-79.8789,0.465674,77.7008,Q,Q
2023-03-15 11:38:31:320,0,-79.8814,0.46567,77.7,Q,Q
2023-03-15 11:38:31:330,0,-79.8826,0.467957,77.7009,Q,Q
2023-03-15 11:38:31:340,0,-79.8827,0.468807,77.7031,Q,Q
2023-03-15 11:38:31:350,0,-79.8812,0.464505,77.7056,Q,Q
2023-03-15 11:38:31:360,0,-79.8791,0.465298,77.7061,Q,Q
2023-03-15 11:38:31:370,0,-79.8746,0.465898,77.7078,Q,Q
2023-03-15 11:38:31:380,0,-79.8785,0.468209,77.7069,Q,Q
2023-03-15 11:38:31:390,0,-79.8771,0.465984,77.7057,Q,Q
2023-03-15 11:38:31:400,0,-79.8754,0.464426,77.7079,Q,Q
2023-03-15 11:38:31:410,0,-79.8762,0.464481,77.7089,Q,Q
2023-03-15 11:38:31:420,0,-79.876,0.463006,77.7091,Q,Q
2023-03-15 11:38:31:430,0,-79.873,0.463699,77.7094,Q,Q
2023-03-15 11:38:31:439,0,-79.8734,0.464082,77.7117,Q,Q
2023-03-15 11:38:31:450,0,-79.8704,0.4665,77.712,Q,Q
2023-03-15 11:38:31:459,0,-79.8701,0.465187,77.7103,Q,Q
2023-03-15 11:38:31:470,0,-79.8676,0.464664,77.7149,Q,Q
2023-03-15 11:38:31:480,0,-79.866,0.465407,77.7175,Q,Q
2023-03-15 11:38:31:490,0,-79.8667,0.465805,77.72,Q,Q
2023-03-15 11:38:31:500,0,-79.8665,0.46664,77.7182,Q,Q
2023-03-15 11:38:31:510,0,-79.8662,0.467098,77.7194,Q,Q
2023-03-15 11:38:31:519,0,-79.8643,0.465663,77.7237,Q,Q
2023-03-15 11:38:31:529,0,-79.8628,0.466564,77.725,Q,Q
2023-03-15 11:38:31:540,0,-79.8611,0.46703,77.7237,Q,Q
2023-03-15 11:38:31:550,0,-79.8609,0.467189,77.7211,Q,Q
2023-03-15 11:38:31:560,0,-79.8599,0.468043,77.7216,Q,Q
2023-03-15 11:38:31:570,0,-79.8618,0.468722,77.7201,Q,Q
2023-03-15 11:38:31:580,0,-79.8638,0.471217,77.7229,Q,Q
2023-03-15 11:38:31:590,0,-79.8643,0.472064,77.7228,Q,Q
2023-03-15 11:38:31:599,0,-79.8639,0.470525,77.7202,Q,Q
2023-03-15 11:38:31:610,0,-79.8649,0.470271,77.7197,Q,Q
2023-03-15 11:38:31:620,0,-79.8633,0.471383,77.7179,Q,Q
2023-03-15 11:38:31:629,0,-79.8636,0.472306,77.7162,Q,Q
2023-03-15 11:38:31:640,0,-79.8613,0.471598,77.7159,Q,Q
2023-03-15 11:38:31:650,0,-79.8607,0.470367,77.7165,Q,Q
2023-03-15 11:38:31:659,0,-79.8606,0.469097,77.7177,Q,Q
2023-03-15 11:38:31:669,0,-79.8656,0.468566,77.7195,Q,Q
2023-03-15 11:38:31:680,0,-79.8687,0.467841,77.7216,Q,Q
2023-03-15 11:38:31:690,0,-79.8692,0.467039,77.7248,Q,Q
2023-03-15 11:38:31:700,0,-79.8695,0.467891,77.7246,Q,Q
2023-03-15 11:38:31:709,0,-79.87,0.46696,77.7254,Q,Q
2023-03-15 11:38:31:720,0,-79.8712,0.467478,77.7231,Q,Q
2023-03-15 11:38:31:730,0,-79.87,0.469493,77.7206,Q,Q
2023-03-15 11:38:31:740,0,-79.8728,0.469276,77.7172,Q,Q
2023-03-15 11:38:31:750,0,-79.8729,0.470316,77.7158,Q,Q
2023-03-15 11:38:31:760,0,-79.8735,0.470315,77.7135,Q,Q
2023-03-15 11:38:31:770,0,-79.8736,0.470165,77.7136,Q,Q
2023-03-15 11:38:31:780,0,-79.8725,0.469922,77.7119,Q,Q
2023-03-15 11:38:31:790,0,-79.8704,0.470495,77.7125,Q,Q
2023-03-15 11:38:31:799,0,-79.8731,0.470747,77.7126,Q,Q
2023-03-15 11:38:31:810,0,-79.8718,0.469598,77.7129,Q,Q
2023-03-15 11:38:31:820,0,-79.873,0.46896,77.713,Q,Q
2023-03-15 11:38:31:830,0,-79.8739,0.468316,77.712,Q,Q
2023-03-15 11:38:31:839,0,-79.8706,0.466615,77.7123,Q,Q
2023-03-15 11:38:31:850,0,-79.8693,0.465032,77.7131,Q,Q
2023-03-15 11:38:31:860,0,-79.8689,0.463451,77.7147,Q,Q
2023-03-15 11:38:31:870,0,-79.8697,0.463851,77.7149,Q,Q
2023-03-15 11:38:31:880,0,-79.8712,0.461536,77.7137,Q,Q
2023-03-15 11:38:31:890,0,-79.8724,0.459388,77.7139,Q,Q
2023-03-15 11:38:31:900,0,-79.8746,0.460133,77.714,Q,Q
2023-03-15 11:38:31:910,0,-79.874,0.461034,77.7118,Q,Q
2023-03-15 11:38:31:920,0,-79.8712,0.461944,77.7129,Q,Q
2023-03-15 11:38:31:930,0,-79.8701,0.463434,77.7135,Q,Q
2023-03-15 11:38:31:940,0,-79.8693,0.461962,77.7104,Q,Q
2023-03-15 11:38:31:950,0,-79.8702,0.462644,77.7087,Q,Q
2023-03-15 11:38:31:960,0,-79.8706,0.464823,77.7079,Q,Q
2023-03-15 11:38:31:970,0,-79.8706,0.466854,77.711,Q,Q
2023-03-15 11:38:31:980,0,-79.8672,0.465715,77.7093,Q,Q
2023-03-15 11:38:31:990,0,-79.8681,0.466971,77.7077,Q,Q
2023-03-15 11:38:32:0,0,-79.8681,0.465391,77.7064,Q,Q
2023-03-15 11:38:32:10,0,-79.8678,0.466141,77.7068,Q,Q
2023-03-15 11:38:32:20,0,-79.8687,0.468663,77.7088,Q,Q
2023-03-15 11:38:32:30,0,-79.8689,0.467243,77.7094,Q,Q
2023-03-15 11:38:32:40,0,-79.8666,0.467968,77.7078,Q,Q
2023-03-15 11:38:32:49,0,-79.867,0.468448,77.7088,Q,Q
2023-03-15 11:38:32:59,0,-79.8655,0.46947,77.7101,Q,Q
2023-03-15 11:38:32:69,0,-79.8658,0.46913,77.7097,Q,Q
2023-03-15 11:38:32:79,0,-79.8648,0.469778,77.7116,Q,Q
2023-03-15 11:38:32:89,0,-79.8628,0.470304,77.7072,Q,Q
2023-03-15 11:38:32:99,0,-79.8632,0.470724,77.7102,Q,Q
2023-03-15 11:38:32:109,0,-79.861,0.470387,77.7088,Q,Q
2023-03-15 11:38:32:119,0,-79.8629,0.46939,77.7065,Q,Q
2023-03-15 11:38:32:129,0,-79.8636,0.46969,77.704,Q,Q
2023-03-15 11:38:32:139,0,-79.8632,0.471227,77.7044,Q,Q
2023-03-15 11:38:32:149,0,-79.8617,0.472798,77.7043,Q,Q
2023-03-15 11:38:32:159,0,-79.863,0.475907,77.704,Q,Q
2023-03-15 11:38:32:169,0,-79.8621,0.473879,77.7033,Q,Q
2023-03-15 11:38:32:180,0,-79.86,0.472736,77.7041,Q,Q
2023-03-15 11:38:32:189,0,-79.8579,0.472687,77.7028,Q,Q
2023-03-15 11:38:32:199,0,-79.858,0.472144,77.6992,Q,Q
2023-03-15 11:38:32:209,0,-79.8599,0.471298,77.6992,Q,Q
2023-03-15 11:38:32:219,0,-79.8575,0.468718,77.7012,Q,Q
2023-03-15 11:38:32:229,0,-79.8587,0.470947,77.7034,Q,Q
2023-03-15 11:38:32:239,0,-79.8629,0.470857,77.7036,Q,Q
2023-03-15 11:38:32:249,0,-79.8614,0.473663,77.7023,Q,Q
2023-03-15 11:38:32:260,0,-79.8625,0.477721,77.6996,Q,Q
2023-03-15 11:38:32:269,0,-79.8637,0.479756,77.6976,Q,Q
2023-03-15 11:38:32:279,0,-79.8594,0.480679,77.6995,Q,Q
2023-03-15 11:38:32:290,0,-79.8607,0.478293,77.7007,Q,Q
2023-03-15 11:38:32:300,0,-79.8642,0.476538,77.7027,Q,Q
2023-03-15 11:38:32:309,0,-79.8632,0.473219,77.7046,Q,Q
2023-03-15 11:38:32:319,0,-79.8639,0.474431,77.7063,Q,Q
2023-03-15 11:38:32:330,0,-79.8622,0.47545,77.7049,Q,Q
2023-03-15 11:38:32:340,0,-79.8625,0.473558,77.7056,Q,Q
2023-03-15 11:38:32:349,0,-79.861,0.475018,77.7058,Q,Q
2023-03-15 11:38:32:359,0,-79.8616,0.477475,77.7067,Q,Q
2023-03-15 11:38:32:369,0,-79.8599,0.48065,77.7009,Q,Q
2023-03-15 11:38:32:379,0,-79.8589,0.484524,77.7013,Q,Q
2023-03-15 11:38:32:389,0,-79.8582,0.484479,77.7046,Q,Q
2023-03-15 11:38:32:399,0,-79.8577,0.484517,77.7049,Q,Q
2023-03-15 11:38:32:410,0,-79.8558,0.48269,77.704,Q,Q
2023-03-15 11:38:32:420,0,-79.8541,0.482188,77.7051,Q,Q
2023-03-15 11:38:32:430,0,-79.8493,0.481049,77.7063,Q,Q
2023-03-15 11:38:32:439,0,-79.8484,0.479447,77.7087,Q,Q
2023-03-15 11:38:32:449,0,-79.8466,0.478656,77.7072,Q,Q
2023-03-15 11:38:32:459,0,-79.8476,0.479086,77.7069,Q,Q
2023-03-15 11:38:32:469,0,-79.8473,0.477913,77.7066,Q,Q
2023-03-15 11:38:32:479,0,-79.8461,0.476225,77.702,Q,Q
2023-03-15 11:38:32:489,0,-79.8436,0.474074,77.6985,Q,Q
2023-03-15 11:38:32:499,0,-79.8427,0.473239,77.6991,Q,Q
2023-03-15 11:38:32:509,0,-79.841,0.476264,77.7004,Q,Q
2023-03-15 11:38:32:519,0,-79.8395,0.474835,77.6974,Q,Q
2023-03-15 11:38:32:529,0,-79.843,0.475167,77.695,Q,Q
2023-03-15 11:38:32:540,0,-79.845,0.47715,77.6918,Q,Q
2023-03-15 11:38:32:549,0,-79.8424,0.475904,77.6946,Q,Q
2023-03-15 11:38:32:559,0,-79.8422,0.47317,77.6933,Q,Q
2023-03-15 11:38:32:569,0,-79.8423,0.471545,77.6945,Q,Q
2023-03-15 11:38:32:580,0,-79.8416,0.469724,77.6958,Q,Q
2023-03-15 11:38:32:590,0,-79.8431,0.466996,77.6959,Q,Q
2023-03-15 11:38:32:600,0,-79.8451,0.463987,77.6912,Q,Q
2023-03-15 11:38:32:610,0,-79.8452,0.461678,77.6878,Q,Q
2023-03-15 11:38:32:620,0,-79.8477,0.460429,77.6852,Q,Q
2023-03-15 11:38:32:630,0,-79.8475,0.461105,77.6856,Q,Q
2023-03-15 11:38:32:640,0,-79.8502,0.458077,77.6835,Q,Q
2023-03-15 11:38:32:650,0,-79.8489,0.458665,77.6845,Q,Q
2023-03-15 11:38:32:660,0,-79.8487,0.458606,77.6861,Q,Q
2023-03-15 11:38:32:670,0,-79.8478,0.460507,77.6869,Q,Q
2023-03-15 11:38:32:680,0,-79.8458,0.460778,77.6874,Q,Q
2023-03-15 11:38:32:690,0,-79.8468,0.45725,77.6877,Q,Q
2023-03-15 11:38:32:700,0,-79.8527,0.457518,77.6893,Q,Q
2023-03-15 11:38:32:710,0,-79.8517,0.459902,77.6865,Q,Q
2023-03-15 11:38:32:720,0,-79.8528,0.461332,77.6877,Q,Q
2023-03-15 11:38:32:730,0,-79.85,0.462279,77.6893,Q,Q
2023-03-15 11:38:32:740,0,-79.8498,0.463082,77.6891,Q,Q
2023-03-15 11:38:32:750,0,-79.8509,0.463017,77.689,Q,Q
2023-03-15 11:38:32:760,0,-79.8526,0.464945,77.6918,Q,Q
2023-03-15 11:38:32:770,0,-79.8537,0.465663,77.6925,Q,Q
2023-03-15 11:38:32:780,0,-79.854,0.465734,77.6914,Q,Q
2023-03-15 11:38:32:790,0,-79.8562,0.462512,77.6891,Q,Q
2023-03-15 11:38:32:800,0,-79.8557,0.462742,77.6906,Q,Q
2023-03-15 11:38:32:810,0,-79.8545,0.462651,77.6911,Q,Q
2023-03-15 11:38:32:820,0,-79.8548,0.463525,77.6935,Q,Q
2023-03-15 11:38:32:829,0,-79.8539,0.46401,77.6931,Q,Q
2023-03-15 11:38:32:840,0,-79.8562,0.463919,77.6945,Q,Q
2023-03-15 11:38:32:850,0,-79.855,0.46411,77.6967,Q,Q
2023-03-15 11:38:32:860,0,-79.8524,0.461313,77.6976,Q,Q
2023-03-15 11:38:32:870,0,-79.8513,0.461303,77.6993,Q,Q
2023-03-15 11:38:32:880,0,-79.85,0.460055,77.7003,Q,Q
2023-03-15 11:38:32:890,0,-79.8525,0.460502,77.7025,Q,Q
2023-03-15 11:38:32:900,0,-79.8533,0.456417,77.7041,Q,Q
2023-03-15 11:38:32:910,0,-79.8545,0.45506,77.7044,Q,Q
2023-03-15 11:38:32:920,0,-79.8558,0.455074,77.6999,Q,Q
2023-03-15 11:38:32:929,0,-79.8561,0.453503,77.7033,Q,Q
2023-03-15 11:38:32:940,0,-79.8583,0.45185,77.7024,Q,Q
2023-03-15 11:38:32:950,0,-79.8564,0.44852,77.7017,Q,Q
2023-03-15 11:38:32:960,0,-79.8559,0.449975,77.6995,Q,Q
2023-03-15 11:38:32:970,0,-79.8563,0.451831,77.6986,Q,Q
2023-03-15 11:38:32:979,0,-79.856,0.452628,77.6965,Q,Q
2023-03-15 11:38:32:990,0,-79.8587,0.454494,77.6966,Q,Q
2023-03-15 11:38:33:0,0,-79.8602,0.451947,77.6958,Q,Q
2023-03-15 11:38:33:10,0,-79.8627,0.447756,77.6944,Q,Q
2023-03-15 11:38:33:20,0,-79.8597,0.449386,77.6935,Q,Q
2023-03-15 11:38:33:29,0,-79.8606,0.451147,77.6913,Q,Q
2023-03-15 11:38:33:39,0,-79.8595,0.452966,77.691,Q,Q
2023-03-15 11:38:33:49,0,-79.8586,0.453136,77.688,Q,Q
2023-03-15 11:38:33:59,0,-79.8552,0.451249,77.6873,Q,Q
2023-03-15 11:38:33:69,0,-79.8552,0.453135,77.6847,Q,Q
2023-03-15 11:38:33:79,0,-79.8585,0.453031,77.683,Q,Q
2023-03-15 11:38:33:90,0,-79.8591,0.451754,77.6812,Q,Q
2023-03-15 11:38:33:100,0,-79.8537,0.449495,77.6807,Q,Q
2023-03-15 11:38:33:110,0,-79.8539,0.446768,77.6828,Q,Q
2023-03-15 11:38:33:120,0,-79.8549,0.446801,77.6832,Q,Q
2023-03-15 11:38:33:130,0,-79.856,0.447053,77.6831,Q,Q
2023-03-15 11:38:33:140,0,-79.8547,0.44712,77.6847,Q,Q
2023-03-15 11:38:33:150,0,-79.8545,0.445449,77.6858,Q,Q
2023-03-15 11:38:33:160,0,-79.8539,0.443534,77.6865,Q,Q
2023-03-15 11:38:33:170,0,-79.8539,0.443652,77.6863,Q,Q
2023-03-15 11:38:33:180,0,-79.8516,0.445538,77.6848,Q,Q
2023-03-15 11:38:33:190,0,-79.8509,0.443364,77.6809,Q,Q
2023-03-15 11:38:33:200,0,-79.8507,0.443675,77.682,Q,Q
2023-03-15 11:38:33:210,0,-79.8506,0.442313,77.6827,Q,Q
2023-03-15 11:38:33:220,0,-79.8506,0.443627,77.6796,Q,Q
2023-03-15 11:38:33:230,0,-79.8517,0.441813,77.676,Q,Q
2023-03-15 11:38:33:240,0,-79.8514,0.442907,77.6745,Q,Q
2023-03-15 11:38:33:250,0,-79.8507,0.44183,77.6749,Q,Q
2023-03-15 11:38:33:260,0,-79.8499,0.441248,77.673,Q,Q
2023-03-15 11:38:33:270,0,-79.8507,0.440874,77.6714,Q,Q
2023-03-15 11:38:33:280,0,-79.8521,0.443805,77.6716,Q,Q
2023-03-15 11:38:33:290,0,-79.8476,0.443479,77.6715,Q,Q
2023-03-15 11:38:33:300,0,-79.8483,0.440467,77.6718,Q,Q
2023-03-15 11:38:33:310,0,-79.8507,0.435719,77.6697,Q,Q
2023-03-15 11:38:33:320,0,-79.8529,0.437825,77.6673,Q,Q
2023-03-15 11:38:33:330,0,-79.8538,0.437777,77.6691,Q,Q
2023-03-15 11:38:33:340,0,-79.8503,0.441526,77.6688,Q,Q
2023-03-15 11:38:33:350,0,-79.8519,0.441254,77.6682,Q,Q
2023-03-15 11:38:33:360,0,-79.8543,0.43641,77.6679,Q,Q
2023-03-15 11:38:33:370,0,-79.8536,0.438501,77.6671,Q,Q
2023-03-15 11:38:33:380,0,-79.8533,0.440152,77.6685,Q,Q
2023-03-15 11:38:33:390,0,-79.8515,0.440552,77.6696,Q,Q
2023-03-15 11:38:33:400,0,-79.8508,0.440881,77.6701,Q,Q
2023-03-15 11:38:33:410,0,-79.8499,0.442984,77.6678,Q,Q
2023-03-15 11:38:33:420,0,-79.8494,0.442177,77.6675,Q,Q
2023-03-15 11:38:33:430,0,-79.8516,0.442259,77.6684,Q,Q
2023-03-15 11:38:33:440,0,-79.853,0.442202,77.6671,Q,Q
2023-03-15 11:38:33:450,0,-79.8536,0.441689,77.6673,Q,Q
2023-03-15 11:38:33:460,0,-79.8542,0.444219,77.6653,Q,Q
2023-03-15 11:38:33:470,0,-79.8562,0.44196,77.6628,Q,Q
2023-03-15 11:38:33:480,0,-79.856,0.440568,77.6627,Q,Q
2023-03-15 11:38:33:490,0,-79.8586,0.442518,77.6634,Q,Q
2023-03-15 11:38:33:500,0,-79.8551,0.444251,77.6654,Q,Q
2023-03-15 11:38:33:510,0,-79.8569,0.444411,77.666,Q,Q
2023-03-15 11:38:33:520,0,-79.8566,0.443429,77.6649,Q,Q
2023-03-15 11:38:33:530,0,-79.8541,0.440222,77.6662,Q,Q
2023-03-15 11:38:33:540,0,-79.8545,0.442151,77.6675,Q,Q
2023-03-15 11:38:33:550,0,-79.8513,0.442779,77.6689,Q,Q
2023-03-15 11:38:33:560,0,-79.8542,0.442852,77.6688,Q,Q
2023-03-15 11:38:33:570,0,-79.8532,0.444122,77.6696,Q,Q
2023-03-15 11:38:33:580,0,-79.8565,0.443419,77.6679,Q,Q
2023-03-15 11:38:33:590,0,-79.8598,0.442269,77.6675,Q,Q
2023-03-15 11:38:33:600,0,-79.8614,0.438907,77.6685,Q,Q
2023-03-15 11:38:33:610,0,-79.8624,0.437718,77.6678,Q,Q
2023-03-15 11:38:33:620,0,-79.8646,0.438456,77.666,Q,Q
2023-03-15 11:38:33:630,0,-79.8642,0.435985,77.6654,Q,Q
2023-03-15 11:38:33:640,0,-79.8615,0.435415,77.6649,Q,Q
2023-03-15 11:38:33:650,0,-79.8609,0.43821,77.664,Q,Q
2023-03-15 11:38:33:660,0,-79.8652,0.43919,77.662,Q,Q
2023-03-15 11:38:33:670,0,-79.8639,0.439314,77.6607,Q,Q
2023-03-15 11:38:33:680,0,-79.8637,0.439328,77.6595,Q,Q
2023-03-15 11:38:33:690,0,-79.8605,0.439158,77.6611,Q,Q
2023-03-15 11:38:33:700,0,-79.8601,0.441067,77.6624,Q,Q
2023-03-15 11:38:33:710,0,-79.8576,0.443708,77.6634,Q,Q
2023-03-15 11:38:33:720,0,-79.8578,0.445704,77.6645,Q,Q
2023-03-15 11:38:33:730,0,-79.8523,0.447162,77.6638,Q,Q
2023-03-15 11:38:33:740,0,-79.8542,0.445747,77.665,Q,Q
2023-03-15 11:38:33:750,0,-79.8558,0.445873,77.6647,Q,Q
2023-03-15 11:38:33:760,0,-79.8582,0.443462,77.665,Q,Q
2023-03-15 11:38:33:770,0,-79.8598,0.44573,77.6643,Q,Q
2023-03-15 11:38:33:780,0,-79.8584,0.445414,77.6652,Q,Q
2023-03-15 11:38:33:790,0,-79.8564,0.445753,77.6671,Q,Q
2023-03-15 11:38:33:800,0,-79.8545,0.447539,77.6712,Q,Q
2023-03-15 11:38:33:810,0,-79.8555,0.443858,77.6744,Q,Q
2023-03-15 11:38:33:820,0,-79.8556,0.442504,77.673,Q,Q
2023-03-15 11:38:33:830,0,-79.8587,0.441249,77.6729,Q,Q
2023-03-15 11:38:33:840,0,-79.8621,0.4377,77.6713,Q,Q
2023-03-15 11:38:33:850,0,-79.8626,0.43636,77.6686,Q,Q
2023-03-15 11:38:33:860,0,-79.8615,0.43497,77.6713,Q,Q
2023-03-15 11:38:33:870,0,-79.8609,0.433019,77.6703,Q,Q
2023-03-15 11:38:33:880,0,-79.8563,0.429403,77.671,Q,Q
2023-03-15 11:38:33:890,0,-79.8564,0.43121,77.6699,Q,Q
2023-03-15 11:38:33:900,0,-79.8544,0.4335,77.6696,Q,Q
2023-03-15 11:38:33:910,0,-79.8538,0.43555,77.6687,Q,Q
2023-03-15 11:38:33:920,0,-79.8537,0.438386,77.6701,Q,Q
2023-03-15 11:38:33:930,0,-79.8573,0.437126,77.6711,Q,Q
2023-03-15 11:38:33:940,0,-79.8578,0.437205,77.6741,Q,Q
2023-03-15 11:38:33:950,0,-79.8588,0.438079,77.6764,Q,Q
2023-03-15 11:38:33:960,0,-79.8558,0.43851,77.6758,Q,Q
2023-03-15 11:38:33:970,0,-79.857,0.440303,77.673,Q,Q
2023-03-15 11:38:33:980,0,-79.8586,0.442209,77.6722,Q,Q
2023-03-15 11:38:33:990,0,-79.8588,0.444111,77.672,Q,Q
2023-03-15 11:38:34:0,0,-79.8597,0.445366,77.6724,Q,Q
2023-03-15 11:38:34:10,0,-79.8567,0.448219,77.6722,Q,Q
2023-03-15 11:38:34:20,0,-79.855,0.448695,77.6705,Q,Q
2023-03-15 11:38:34:30,0,-79.8548,0.44798,77.6686,Q,Q
2023-03-15 11:38:34:40,0,-79.8558,0.445681,77.6677,Q,Q
2023-03-15 11:38:34:50,0,-79.8552,0.445236,77.6671,Q,Q
2023-03-15 11:38:34:60,0,-79.8552,0.440865,77.6651,Q,Q
2023-03-15 11:38:34:70,0,-79.8547,0.437721,77.6635,Q,Q
2023-03-15 11:38:34:80,0,-79.8525,0.437704,77.6635,Q,Q
2023-03-15 11:38:34:90,0,-79.853,0.437613,77.665,Q,Q
2023-03-15 11:38:34:100,0,-79.8515,0.444236,77.662,Q,Q
2023-03-15 11:38:34:110,0,-79.8508,0.445751,77.6615,Q,Q
2023-03-15 11:38:34:120,0,-79.85,0.444655,77.6598,Q,Q
2023-03-15 11:38:34:130,0,-79.851,0.44346,77.6571,Q,Q
2023-03-15 11:38:34:140,0,-79.8506,0.445811,77.656,Q,Q
2023-03-15 11:38:34:150,0,-79.8503,0.44729,77.6553,Q,Q
2023-03-15 11:38:34:160,0,-79.8481,0.445651,77.6519,Q,Q
2023-03-15 11:38:34:170,0,-79.8462,0.442775,77.6513,Q,Q
2023-03-15 11:38:34:180,0,-79.8445,0.442929,77.6494,Q,Q
2023-03-15 11:38:34:190,0,-79.8455,0.439905,77.6459,Q,Q
2023-03-15 11:38:34:200,0,-79.8448,0.441537,77.644,Q,Q
2023-03-15 11:38:34:210,0,-79.8434,0.442062,77.6412,Q,Q
2023-03-15 11:38:34:220,0,-79.8448,0.441649,77.6397,Q,Q
2023-03-15 11:38:34:230,0,-79.8428,0.438277,77.6365,Q,Q
2023-03-15 11:38:34:240,0,-79.8423,0.437237,77.6332,Q,Q
2023-03-15 11:38:34:250,0,-79.8406,0.439816,77.6319,Q,Q
2023-03-15 11:38:34:260,0,-79.8407,0.44263,77.6326,Q,Q
2023-03-15 11:38:34:270,0,-79.84,0.443515,77.6342,Q,Q
2023-03-15 11:38:34:280,0,-79.8416,0.439443,77.6354,Q,Q
2023-03-15 11:38:34:290,0,-79.8424,0.440194,77.6334,Q,Q
2023-03-15 11:38:34:300,0,-79.8411,0.437351,77.6345,Q,Q
2023-03-15 11:38:34:310,0,-79.8413,0.437339,77.6303,Q,Q
2023-03-15 11:38:34:320,0,-79.8412,0.436998,77.6274,Q,Q
2023-03-15 11:38:34:330,0,-79.8425,0.436214,77.6265,Q,Q
2023-03-15 11:38:34:340,0,-79.8392,0.43629,77.6268,Q,Q
2023-03-15 11:38:34:350,0,-79.8401,0.43527,77.6271,Q,Q
2023-03-15 11:38:34:360,0,-79.8444,0.434973,77.6239,Q,Q
2023-03-15 11:38:34:370,0,-79.8439,0.435173,77.6222,Q,Q
2023-03-15 11:38:34:380,0,-79.848,0.433127,77.6226,Q,Q
2023-03-15 11:38:34:390,0,-79.849,0.433231,77.6249,Q,Q
2023-03-15 11:38:34:400,0,-79.8519,0.434041,77.6251,Q,Q
2023-03-15 11:38:34:410,0,-79.8526,0.438722,77.6249,Q,Q
2023-03-15 11:38:34:420,0,-79.8533,0.438218,77.6253,Q,Q
2023-03-15 11:38:34:430,0,-79.8507,0.441264,77.6242,Q,Q
2023-03-15 11:38:34:440,0,-79.8508,0.442474,77.6237,Q,Q
2023-03-15 11:38:34:450,0,-79.8512,0.440337,77.6225,Q,Q
2023-03-15 11:38:34:460,0,-79.8524,0.440611,77.621,Q,Q
2023-03-15 11:38:34:470,0,-79.8527,0.440834,77.6219,Q,Q
2023-03-15 11:38:34:480,0,-79.8508,0.441551,77.6244,Q,Q
2023-03-15 11:38:34:490,0,-79.8516,0.443063,77.6242,Q,Q
2023-03-15 11:38:34:500,0,-79.8485,0.442765,77.6222,Q,Q
2023-03-15 11:38:34:510,0,-79.8467,0.443091,77.6229,Q,Q
2023-03-15 11:38:34:520,0,-79.8487,0.441966,77.6215,Q,Q
2023-03-15 11:38:34:530,0,-79.8502,0.442701,77.6229,Q,Q
2023-03-15 11:38:34:540,0,-79.8507,0.442758,77.6248,Q,Q
2023-03-15 11:38:34:550,0,-79.8525,0.446778,77.6223,Q,Q
2023-03-15 11:38:34:560,0,-79.8557,0.440309,77.6212,Q,Q
2023-03-15 11:38:34:570,0,-79.8552,0.441231,77.6206,Q,Q
2023-03-15 11:38:34:580,0,-79.8534,0.441669,77.6174,Q,Q
2023-03-15 11:38:34:590,0,-79.8498,0.442444,77.618,Q,Q
2023-03-15 11:38:34:600,0,-79.8465,0.44435,77.618,Q,Q
2023-03-15 11:38:34:610,0,-79.8479,0.446405,77.6182,Q,Q
2023-03-15 11:38:34:620,0,-79.8509,0.444441,77.6212,Q,Q
2023-03-15 11:38:34:630,0,-79.8504,0.445547,77.6231,Q,Q
2023-03-15 11:38:34:640,0,-79.8482,0.447211,77.6255,Q,Q
2023-03-15 11:38:34:650,0,-79.8467,0.445624,77.6242,Q,Q
2023-03-15 11:38:34:660,0,-79.8464,0.443907,77.6237,Q,Q
2023-03-15 11:38:34:670,0,-79.8456,0.443089,77.624,Q,Q
2023-03-15 11:38:34:680,0,-79.8448,0.443861,77.625,Q,Q
2023-03-15 11:38:34:690,0,-79.8451,0.444585,77.6233,Q,Q
2023-03-15 11:38:34:700,0,-79.8472,0.444431,77.6222,Q,Q
2023-03-15 11:38:34:710,0,-79.8508,0.445944,77.6239,Q,Q
2023-03-15 11:38:34:720,0,-79.8489,0.445368,77.6221,Q,Q
2023-03-15 11:38:34:730,0,-79.8492,0.446007,77.6228,Q,Q
2023-03-15 11:38:34:740,0,-79.8502,0.445626,77.623,Q,Q
2023-03-15 11:38:34:750,0,-79.8518,0.446269,77.6231,Q,Q
2023-03-15 11:38:34:760,0,-79.8517,0.447702,77.6214,Q,Q
2023-03-15 11:38:34:770,0,-79.8481,0.44635,77.621,Q,Q
2023-03-15 11:38:34:780,0,-79.8504,0.447532,77.6215,Q,Q
2023-03-15 11:38:34:790,0,-79.8501,0.445556,77.6231,Q,Q
2023-03-15 11:38:34:800,0,-79.8471,0.44232,77.6216,Q,Q
2023-03-15 11:38:34:810,0,-79.8468,0.442257,77.6201,Q,Q
2023-03-15 11:38:34:820,0,-79.8437,0.44325,77.6186,Q,Q
2023-03-15 11:38:34:830,0,-79.8473,0.4445,77.6177,Q,Q
2023-03-15 11:38:34:840,0,-79.8469,0.444278,77.6153,Q,Q
2023-03-15 11:38:34:850,0,-79.8464,0.446825,77.6159,Q,Q
2023-03-15 11:38:34:860,0,-79.8476,0.44567,77.6163,Q,Q
2023-03-15 11:38:34:870,0,-79.847,0.446207,77.6152,Q,Q
2023-03-15 11:38:34:880,0,-79.8451,0.446531,77.6117,Q,Q
2023-03-15 11:38:34:890,0,-79.843,0.445141,77.6118,Q,Q
2023-03-15 11:38:34:900,0,-79.8432,0.444951,77.6129,Q,Q
2023-03-15 11:38:34:910,0,-79.8438,0.444962,77.6125,Q,Q
2023-03-15 11:38:34:920,0,-79.8432,0.444766,77.614,Q,Q
2023-03-15 11:38:34:930,0,-79.8437,0.445335,77.6121,Q,Q
2023-03-15 11:38:34:940,0,-79.8447,0.445393,77.6126,Q,Q
2023-03-15 11:38:34:950,0,-79.8473,0.44577,77.6146,Q,Q
2023-03-15 11:38:34:960,0,-79.8456,0.446448,77.6139,Q,Q
2023-03-15 11:38:34:970,0,-79.8435,0.448854,77.6144,Q,Q
2023-03-15 11:38:34:980,0,-79.8435,0.449556,77.6189,Q,Q
2023-03-15 11:38:34:990,0,-79.8435,0.450145,77.6181,Q,Q
2023-03-15 11:38:35:0,0,-79.8449,0.447574,77.6176,Q,Q
2023-03-15 11:38:35:10,0,-79.847,0.448176,77.6181,Q,Q
2023-03-15 11:38:35:20,0,-79.8434,0.449348,77.6198,Q,Q
2023-03-15 11:38:35:30,0,-79.8419,0.448976,77.6184,Q,Q
2023-03-15 11:38:35:40,0,-79.8448,0.454206,77.6206,Q,Q
2023-03-15 11:38:35:50,0,-79.8439,0.454842,77.6188,Q,Q
2023-03-15 11:38:35:60,0,-79.8442,0.454935,77.6178,Q,Q
2023-03-15 11:38:35:70,0,-79.8405,0.455158,77.618,Q,Q
2023-03-15 11:38:35:80,0,-79.8383,0.455971,77.6164,Q,Q
2023-03-15 11:38:35:90,0,-79.837,0.458623,77.616,Q,Q
2023-03-15 11:38:35:100,0,-79.8365,0.459207,77.6172,Q,Q
2023-03-15 11:38:35:110,0,-79.8334,0.46106,77.6206,Q,Q
2023-03-15 11:38:35:120,0,-79.8339,0.460107,77.6219,Q,Q
2023-03-15 11:38:35:130,0,-79.8358,0.459748,77.6201,Q,Q
2023-03-15 11:38:35:140,0,-79.8368,0.457082,77.6176,Q,Q
2023-03-15 11:38:35:150,0,-79.837,0.455785,77.6137,Q,Q
2023-03-15 11:38:35:160,0,-79.839,0.455093,77.6145,Q,Q
2023-03-15 11:38:35:170,0,-79.8363,0.454724,77.6157,Q,Q
2023-03-15 11:38:35:180,0,-79.8359,0.453162,77.6169,Q,Q
2023-03-15 11:38:35:190,0,-79.8345,0.453848,77.6144,Q,Q
2023-03-15 11:38:35:200,0,-79.8351,0.455523,77.61,Q,Q
2023-03-15 11:38:35:210,0,-79.8339,0.454666,77.6082,Q,Q
2023-03-15 11:38:35:220,0,-79.8306,0.454656,77.6107,Q,Q
2023-03-15 11:38:35:230,0,-79.8324,0.453786,77.6128,Q,Q
2023-03-15 11:38:35:240,0,-79.834,0.453311,77.6131,Q,Q
2023-03-15 11:38:35:250,0,-79.8342,0.453475,77.6124,Q,Q
2023-03-15 11:38:35:260,0,-79.8338,0.454437,77.612,Q,Q
2023-03-15 11:38:35:270,0,-79.8349,0.455924,77.6097,Q,Q
2023-03-15 11:38:35:280,0,-79.834,0.453603,77.6087,Q,Q
2023-03-15 11:38:35:290,0,-79.8331,0.451888,77.6073,Q,Q
2023-03-15 11:38:35:300,0,-79.832,0.452664,77.6076,Q,Q
2023-03-15 11:38:35:310,0,-79.8302,0.451139,77.6104,Q,Q
2023-03-15 11:38:35:320,0,-79.831,0.450192,77.6098,Q,Q
2023-03-15 11:38:35:330,0,-79.8307,0.450138,77.6122,Q,Q
2023-03-15 11:38:35:340,0,-79.8332,0.444592,77.6094,Q,Q
2023-03-15 11:38:35:350,0,-79.8335,0.444104,77.6077,Q,Q
2023-03-15 11:38:35:360,0,-79.8351,0.444591,77.609,Q,Q
2023-03-15 11:38:35:370,0,-79.8364,0.441586,77.6053,Q,Q
2023-03-15 11:38:35:380,0,-79.8353,0.441492,77.6012,Q,Q
2023-03-15 11:38:35:390,0,-79.8342,0.441182,77.6012,Q,Q
2023-03-15 11:38:35:400,0,-79.8357,0.440601,77.5982,Q,Q
2023-03-15 11:38:35:410,0,-79.833,0.439656,77.5987,Q,Q
2023-03-15 11:38:35:420,0,-79.8346,0.437191,77.5943,Q,Q
2023-03-15 11:38:35:430,0,-79.8323,0.437555,77.5908,Q,Q
2023-03-15 11:38:35:440,0,-79.8276,0.434693,77.59,Q,Q
2023-03-15 11:38:35:450,0,-79.8265,0.435147,77.5914,Q,Q
2023-03-15 11:38:35:460,0,-79.8264,0.435782,77.5917,Q,Q
2023-03-15 11:38:35:470,0,-79.8263,0.437045,77.5937,Q,Q
2023-03-15 11:38:35:480,0,-79.8283,0.436315,77.5927,Q,Q
2023-03-15 11:38:35:490,0,-79.83,0.436479,77.5941,Q,Q
2023-03-15 11:38:35:500,0,-79.8285,0.435638,77.5947,Q,Q
2023-03-15 11:38:35:510,0,-79.8294,0.438129,77.5966,Q,Q
2023-03-15 11:38:35:520,0,-79.8255,0.439381,77.5954,Q,Q
2023-03-15 11:38:35:530,0,-79.8269,0.440165,77.5973,Q,Q
2023-03-15 11:38:35:540,0,-79.8261,0.438729,77.5998,Q,Q
2023-03-15 11:38:35:550,0,-79.8268,0.437889,77.5993,Q,Q
2023-03-15 11:38:35:560,0,-79.8283,0.437786,77.5979,Q,Q
2023-03-15 11:38:35:570,0,-79.8233,0.439356,77.5996,Q,Q
2023-03-15 11:38:35:580,0,-79.8257,0.436896,77.5972,Q,Q
2023-03-15 11:38:35:590,0,-79.825,0.434438,77.5965,Q,Q
2023-03-15 11:38:35:600,0,-79.8256,0.434325,77.5975,Q,Q
2023-03-15 11:38:35:610,0,-79.8235,0.435109,77.5992,Q,Q
2023-03-15 11:38:35:620,0,-79.8222,0.436183,77.5967,Q,Q
2023-03-15 11:38:35:630,0,-79.8247,0.435987,77.6014,Q,Q
2023-03-15 11:38:35:640,0,-79.8256,0.435554,77.6029,Q,Q
2023-03-15 11:38:35:650,0,-79.8244,0.432405,77.6027,Q,Q
2023-03-15 11:38:35:660,0,-79.8233,0.431946,77.6049,Q,Q
2023-03-15 11:38:35:670,0,-79.8246,0.432648,77.6058,Q,Q
2023-03-15 11:38:35:680,0,-79.8221,0.431243,77.602,Q,Q
2023-03-15 11:38:35:690,0,-79.8214,0.430754,77.6026,Q,Q
2023-03-15 11:38:35:700,0,-79.8216,0.429455,77.6008,Q,Q
2023-03-15 11:38:35:710,0,-79.8215,0.43015,77.5985,Q,Q
2023-03-15 11:38:35:720,0,-79.8265,0.434516,77.595,Q,Q
2023-03-15 11:38:35:730,0,-79.8261,0.43673,77.5971,Q,Q
2023-03-15 11:38:35:740,0,-79.8249,0.438966,77.5965,Q,Q
2023-03-15 11:38:35:750,0,-79.8233,0.4392,77.5964,Q,Q
2023-03-15 11:38:35:760,0,-79.8234,0.438802,77.5966,Q,Q
2023-03-15 11:38:35:770,0,-79.8257,0.438756,77.595,Q,Q
2023-03-15 11:38:35:780,0,-79.827,0.439795,77.5923,Q,Q
2023-03-15 11:38:35:790,0,-79.828,0.440174,77.5916,Q,Q
2023-03-15 11:38:35:800,0,-79.8284,0.441084,77.5915,Q,Q
2023-03-15 11:38:35:810,0,-79.8268,0.439693,77.5869,Q,Q
2023-03-15 11:38:35:820,0,-79.8276,0.440601,77.5899,Q,Q
2023-03-15 11:38:35:830,0,-79.8259,0.443125,77.5919,Q,Q
2023-03-15 11:38:35:840,0,-79.8265,0.441794,77.5933,Q,Q
2023-03-15 11:38:35:850,0,-79.8259,0.439681,77.5958,Q,Q
2023-03-15 11:38:35:860,0,-79.8212,0.441827,77.5959,Q,Q
2023-03-15 11:38:35:870,0,-79.8215,0.440726,77.5947,Q,Q
2023-03-15 11:38:35:880,0,-79.8206,0.441562,77.5938,Q,Q
2023-03-15 11:38:35:890,0,-79.8195,0.440897,77.5948,Q,Q
2023-03-15 11:38:35:900,0,-79.8215,0.4412,77.5968,Q,Q
2023-03-15 11:38:35:910,0,-79.8195,0.44375,77.5949,Q,Q
2023-03-15 11:38:35:920,0,-79.8209,0.443349,77.5965,Q,Q
2023-03-15 11:38:35:930,0,-79.8221,0.443069,77.5943,Q,Q
