Timestamp_cmd,imu_cmd,roll_delta,pitch_delta,yaw_delta,voice_type,voice_length
2023-03-15 13:43:17:520,0,-3.00545,-11.8695,62.7167,Q,Q
2023-03-15 13:43:17:528,0,-3.07638,-11.7503,62.7247,Q,Q
2023-03-15 13:43:17:538,0,-3.14806,-11.6455,62.7309,Q,Q
2023-03-15 13:43:17:549,0,-3.22701,-11.5554,62.7373,Q,Q
2023-03-15 13:43:17:559,0,-3.30938,-11.4793,62.7527,Q,Q
2023-03-15 13:43:17:569,0,-3.39523,-11.4122,62.7715,Q,Q
2023-03-15 13:43:17:579,0,-3.47964,-11.3584,62.8073,Q,Q
2023-03-15 13:43:17:589,0,-3.56315,-11.3172,62.8641,Q,Q
2023-03-15 13:43:17:599,0,-3.65327,-11.286,62.9323,Q,Q
2023-03-15 13:43:17:609,0,-3.74311,-11.2588,63.0086,Q,Q
2023-03-15 13:43:17:618,0,-3.82145,-11.2216,63.0823,Q,Q
2023-03-15 13:43:17:629,0,-3.89353,-11.1644,63.1558,Q,Q
2023-03-15 13:43:17:639,0,-3.96511,-11.0929,63.2321,Q,Q
2023-03-15 13:43:17:649,0,-4.03816,-11.0008,63.3092,Q,Q
2023-03-15 13:43:17:659,0,-4.11084,-10.8903,63.3826,Q,Q
2023-03-15 13:43:17:669,0,-4.18222,-10.7614,63.4494,Q,Q
2023-03-15 13:43:17:679,0,-4.24974,-10.6175,63.5084,Q,Q
2023-03-15 13:43:17:689,0,-4.30067,-10.4587,63.5545,Q,Q
2023-03-15 13:43:17:699,0,-4.32964,-10.2887,63.5817,Q,Q
2023-03-15 13:43:17:709,0,-4.32758,-10.1046,63.5825,Q,Q
2023-03-15 13:43:17:719,0,-4.29761,-9.91072,63.5602,Q,Q
2023-03-15 13:43:17:729,0,-4.24027,-9.70624,63.5252,Q,Q
2023-03-15 13:43:17:739,0,-4.17086,-9.49526,63.4831,Q,Q
2023-03-15 13:43:17:749,0,-4.10338,-9.289,63.4435,Q,Q
2023-03-15 13:43:17:759,0,-4.04858,-9.08935,63.4135,Q,Q
2023-03-15 13:43:17:769,0,-4.01118,-8.89902,63.3976,Q,Q
2023-03-15 13:43:17:779,0,-3.98834,-8.71104,63.3956,Q,Q
2023-03-15 13:43:17:789,0,-3.97543,-8.53575,63.3997,Q,Q
2023-03-15 13:43:17:799,0,-3.96967,-8.36664,63.403,Q,Q
2023-03-15 13:43:17:809,0,-3.96411,-8.20209,63.407,Q,Q
2023-03-15 13:43:17:819,0,-3.96019,-8.05115,63.4156,Q,Q
2023-03-15 13:43:17:829,0,-3.96697,-7.91818,63.4326,Q,Q
2023-03-15 13:43:17:839,0,-3.98984,-7.8007,63.4522,Q,Q
2023-03-15 13:43:17:849,0,-4.01874,-7.69627,63.472,Q,Q
2023-03-15 13:43:17:859,0,-4.05638,-7.60108,63.4905,Q,Q
2023-03-15 13:43:17:869,0,-4.09332,-7.52443,63.5194,Q,Q
2023-03-15 13:43:17:879,0,-4.12798,-7.46335,63.5634,Q,Q
2023-03-15 13:43:17:889,0,-4.15366,-7.42416,63.6165,Q,Q
2023-03-15 13:43:17:899,0,-4.17163,-7.40038,63.6727,Q,Q
2023-03-15 13:43:17:909,0,-4.17975,-7.38142,63.7257,Q,Q
2023-03-15 13:43:17:919,0,-4.1786,-7.37217,63.7814,Q,Q
2023-03-15 13:43:17:929,0,-4.16956,-7.37385,63.8418,Q,Q
2023-03-15 13:43:17:939,0,-4.15921,-7.38761,63.9102,Q,Q
2023-03-15 13:43:17:949,0,-4.13965,-7.41464,63.9853,Q,Q
2023-03-15 13:43:17:959,0,-4.11116,-7.45221,64.0646,Q,Q
2023-03-15 13:43:17:969,0,-4.07623,-7.49544,64.1474,Q,Q
2023-03-15 13:43:17:979,0,-4.02787,-7.54596,64.2347,Q,Q
2023-03-15 13:43:17:989,0,-3.9763,-7.59994,64.3264,Q,Q
2023-03-15 13:43:17:999,0,-3.92866,-7.66669,64.4335,Q,Q
2023-03-15 13:43:18:9,0,-3.89777,-7.74416,64.5629,Q,Q
2023-03-15 13:43:18:19,0,-3.90041,-7.83109,64.7126,Q,Q
2023-03-15 13:43:18:29,0,-3.9192,-7.93023,64.8784,Q,Q
2023-03-15 13:43:18:39,0,-3.95037,-8.04311,65.0432,Q,Q
2023-03-15 13:43:18:49,0,-3.97705,-8.17452,65.2095,Q,Q
2023-03-15 13:43:18:59,0,-3.98799,-8.32473,65.3787,Q,Q
2023-03-15 13:43:18:69,0,-3.96803,-8.50111,65.5582,Q,Q
2023-03-15 13:43:18:79,0,-3.91528,-8.70747,65.7395,Q,Q
2023-03-15 13:43:18:89,0,-3.82309,-8.93276,65.9217,Q,Q
2023-03-15 13:43:18:99,0,-3.70747,-9.16704,66.0932,Q,Q
2023-03-15 13:43:18:108,0,-3.58101,-9.40373,66.2542,Q,Q
2023-03-15 13:43:18:118,0,-3.4446,-9.64094,66.397,Q,Q
2023-03-15 13:43:18:128,0,-3.309,-9.87279,66.5198,Q,Q
2023-03-15 13:43:18:138,0,-3.16624,-10.0989,66.6241,Q,Q
2023-03-15 13:43:18:148,0,-3.02643,-10.3155,66.71,Q,Q
2023-03-15 13:43:18:158,0,-2.88612,-10.5277,66.7845,Q,Q
2023-03-15 13:43:18:168,0,-2.74754,-10.7408,66.8515,Q,Q
2023-03-15 13:43:18:178,0,-2.6045,-10.9509,66.9144,Q,Q
2023-03-15 13:43:18:189,0,-2.47327,-11.1475,66.9795,Q,Q
2023-03-15 13:43:18:198,0,-2.34983,-11.3293,67.039,Q,Q
2023-03-15 13:43:18:208,0,-2.23589,-11.5046,67.1027,Q,Q
2023-03-15 13:43:18:218,0,-2.12909,-11.6746,67.1779,Q,Q
2023-03-15 13:43:18:228,0,-2.0341,-11.8455,67.2725,Q,Q
2023-03-15 13:43:18:238,0,-1.94805,-12.0126,67.3881,Q,Q
2023-03-15 13:43:18:248,0,-1.87043,-12.1729,67.5165,Q,Q
2023-03-15 13:43:18:258,0,-1.80344,-12.3327,67.6592,Q,Q
2023-03-15 13:43:18:269,0,-1.74949,-12.4835,67.8271,Q,Q
2023-03-15 13:43:18:278,0,-1.70717,-12.6351,68.0141,Q,Q
2023-03-15 13:43:18:288,0,-1.67868,-12.7782,68.2122,Q,Q
2023-03-15 13:43:18:298,0,-1.66119,-12.9191,68.4192,Q,Q
2023-03-15 13:43:18:308,0,-1.66243,-13.0523,68.6306,Q,Q
2023-03-15 13:43:18:318,0,-1.67734,-13.182,68.843,Q,Q
2023-03-15 13:43:18:329,0,-1.70262,-13.3032,69.052,Q,Q
2023-03-15 13:43:18:339,0,-1.73888,-13.4222,69.2556,Q,Q
2023-03-15 13:43:18:349,0,-1.77818,-13.5373,69.4496,Q,Q
2023-03-15 13:43:18:359,0,-1.8177,-13.645,69.6279,Q,Q
2023-03-15 13:43:18:369,0,-1.85167,-13.7448,69.7907,Q,Q
2023-03-15 13:43:18:379,0,-1.87975,-13.8433,69.9322,Q,Q
2023-03-15 13:43:18:388,0,-1.90129,-13.933,70.0556,Q,Q
2023-03-15 13:43:18:399,0,-1.91297,-14.0188,70.1681,Q,Q
2023-03-15 13:43:18:409,0,-1.91716,-14.0969,70.2625,Q,Q
2023-03-15 13:43:18:418,0,-1.91869,-14.1653,70.3396,Q,Q
2023-03-15 13:43:18:429,0,-1.91406,-14.224,70.4007,Q,Q
2023-03-15 13:43:18:438,0,-1.90687,-14.2686,70.4515,Q,Q
2023-03-15 13:43:18:449,0,-1.89414,-14.3009,70.4916,Q,Q
2023-03-15 13:43:18:459,0,-1.87793,-14.3242,70.523,Q,Q
2023-03-15 13:43:18:469,0,-1.86407,-14.3319,70.5448,Q,Q
2023-03-15 13:43:18:479,0,-1.85941,-14.339,70.5656,Q,Q
2023-03-15 13:43:18:489,0,-1.86474,-14.3418,70.5893,Q,Q
2023-03-15 13:43:18:499,0,-1.87036,-14.3452,70.6203,Q,Q
2023-03-15 13:43:18:509,0,-1.87676,-14.3498,70.6565,Q,Q
2023-03-15 13:43:18:519,0,-1.88862,-14.3542,70.695,Q,Q
2023-03-15 13:43:18:529,0,-1.90374,-14.3548,70.7323,Q,Q
2023-03-15 13:43:18:539,0,-1.92821,-14.3542,70.7733,Q,Q
2023-03-15 13:43:18:549,0,-1.95883,-14.3485,70.8157,Q,Q
2023-03-15 13:43:18:559,0,-1.99689,-14.3438,70.862,Q,Q
2023-03-15 13:43:18:569,0,-2.03835,-14.3435,70.9121,Q,Q
2023-03-15 13:43:18:579,0,-2.084,-14.3421,70.9685,Q,Q
2023-03-15 13:43:18:589,0,-2.13642,-14.3383,71.0191,Q,Q
2023-03-15 13:43:18:599,0,-2.19688,-14.3336,71.0696,Q,Q
2023-03-15 13:43:18:609,0,-2.25714,-14.3314,71.1096,Q,Q
2023-03-15 13:43:18:619,0,-2.31464,-14.3337,71.1408,Q,Q
2023-03-15 13:43:18:629,0,-2.3622,-14.3346,71.1641,Q,Q
2023-03-15 13:43:18:639,0,-2.40373,-14.3318,71.1782,Q,Q
2023-03-15 13:43:18:649,0,-2.43567,-14.3338,71.1901,Q,Q
2023-03-15 13:43:18:659,0,-2.46171,-14.3374,71.1989,Q,Q
2023-03-15 13:43:18:669,0,-2.48512,-14.3411,71.2115,Q,Q
2023-03-15 13:43:18:679,0,-2.50495,-14.3387,71.2246,Q,Q
2023-03-15 13:43:18:689,0,-2.51537,-14.3341,71.24,Q,Q
2023-03-15 13:43:18:699,0,-2.53061,-14.3258,71.2564,Q,Q
2023-03-15 13:43:18:709,0,-2.54628,-14.3189,71.2726,Q,Q
2023-03-15 13:43:18:719,0,-2.55501,-14.3139,71.2918,Q,Q
2023-03-15 13:43:18:728,0,-2.56107,-14.3067,71.3076,Q,Q
2023-03-15 13:43:18:739,0,-2.56273,-14.297,71.3235,Q,Q
2023-03-15 13:43:18:749,0,-2.56042,-14.2875,71.3417,Q,Q
2023-03-15 13:43:18:759,0,-2.5595,-14.2767,71.3575,Q,Q
2023-03-15 13:43:18:769,0,-2.56054,-14.2657,71.3731,Q,Q
2023-03-15 13:43:18:779,0,-2.56109,-14.2561,71.3874,Q,Q
2023-03-15 13:43:18:789,0,-2.56554,-14.2452,71.4074,Q,Q
2023-03-15 13:43:18:799,0,-2.56636,-14.2364,71.427,Q,Q
2023-03-15 13:43:18:809,0,-2.56987,-14.229,71.4435,Q,Q
2023-03-15 13:43:18:819,0,-2.57886,-14.2214,71.4572,Q,Q
2023-03-15 13:43:18:829,0,-2.58565,-14.2179,71.4679,Q,Q
2023-03-15 13:43:18:839,0,-2.5901,-14.2121,71.4801,Q,Q
2023-03-15 13:43:18:849,0,-2.59103,-14.2101,71.4892,Q,Q
2023-03-15 13:43:18:859,0,-2.59604,-14.2128,71.4985,Q,Q
2023-03-15 13:43:18:869,0,-2.59836,-14.2209,71.5111,Q,Q
2023-03-15 13:43:18:879,0,-2.60562,-14.2281,71.5335,Q,Q
2023-03-15 13:43:18:889,0,-2.61312,-14.2351,71.5544,Q,Q
2023-03-15 13:43:18:899,0,-2.62208,-14.242,71.575,Q,Q
2023-03-15 13:43:18:909,0,-2.63469,-14.2454,71.5964,Q,Q
2023-03-15 13:43:18:919,0,-2.64377,-14.2548,71.611,Q,Q
2023-03-15 13:43:18:929,0,-2.64801,-14.2634,71.6221,Q,Q
2023-03-15 13:43:18:939,0,-2.65048,-14.2748,71.6305,Q,Q
2023-03-15 13:43:18:949,0,-2.6449,-14.2881,71.6368,Q,Q
2023-03-15 13:43:18:959,0,-2.63757,-14.3009,71.6395,Q,Q
2023-03-15 13:43:18:969,0,-2.62789,-14.3152,71.6405,Q,Q
2023-03-15 13:43:18:979,0,-2.61319,-14.3254,71.6429,Q,Q
2023-03-15 13:43:18:989,0,-2.59747,-14.3334,71.6441,Q,Q
2023-03-15 13:43:18:999,0,-2.58304,-14.331,71.6454,Q,Q
2023-03-15 13:43:19:9,0,-2.57017,-14.3319,71.65,Q,Q
2023-03-15 13:43:19:19,0,-2.56167,-14.3333,71.6555,Q,Q
2023-03-15 13:43:19:29,0,-2.55597,-14.3363,71.6608,Q,Q
2023-03-15 13:43:19:39,0,-2.55497,-14.3367,71.6732,Q,Q
2023-03-15 13:43:19:49,0,-2.55954,-14.3384,71.6828,Q,Q
2023-03-15 13:43:19:59,0,-2.5634,-14.3405,71.6837,Q,Q
2023-03-15 13:43:19:69,0,-2.56826,-14.3377,71.686,Q,Q
2023-03-15 13:43:19:79,0,-2.57015,-14.3328,71.6905,Q,Q
2023-03-15 13:43:19:89,0,-2.56661,-14.331,71.6959,Q,Q
2023-03-15 13:43:19:99,0,-2.5749,-14.3272,71.7074,Q,Q
2023-03-15 13:43:19:109,0,-2.58787,-14.322,71.7183,Q,Q
2023-03-15 13:43:19:119,0,-2.60103,-14.3132,71.7282,Q,Q
2023-03-15 13:43:19:129,0,-2.61637,-14.306,71.7369,Q,Q
2023-03-15 13:43:19:139,0,-2.63668,-14.3002,71.7454,Q,Q
2023-03-15 13:43:19:149,0,-2.65286,-14.3033,71.7551,Q,Q
2023-03-15 13:43:19:159,0,-2.66725,-14.3039,71.7651,Q,Q
2023-03-15 13:43:19:169,0,-2.68287,-14.3076,71.7736,Q,Q
2023-03-15 13:43:19:179,0,-2.69932,-14.3088,71.7837,Q,Q
2023-03-15 13:43:19:189,0,-2.7162,-14.3054,71.7908,Q,Q
2023-03-15 13:43:19:199,0,-2.73566,-14.3061,71.8008,Q,Q
2023-03-15 13:43:19:209,0,-2.75705,-14.305,71.8099,Q,Q
2023-03-15 13:43:19:219,0,-2.78052,-14.2987,71.8218,Q,Q
2023-03-15 13:43:19:229,0,-2.80178,-14.2941,71.8351,Q,Q
2023-03-15 13:43:19:239,0,-2.82706,-14.2888,71.8536,Q,Q
2023-03-15 13:43:19:249,0,-2.84545,-14.2812,71.8697,Q,Q
2023-03-15 13:43:19:259,0,-2.85842,-14.2748,71.8907,Q,Q
2023-03-15 13:43:19:269,0,-2.87118,-14.2722,71.913,Q,Q
2023-03-15 13:43:19:279,0,-2.88431,-14.2694,71.9371,Q,Q
2023-03-15 13:43:19:289,0,-2.90166,-14.2643,71.9614,Q,Q
2023-03-15 13:43:19:299,0,-2.91469,-14.2556,71.9774,Q,Q
2023-03-15 13:43:19:309,0,-2.92117,-14.25,71.9935,Q,Q
2023-03-15 13:43:19:319,0,-2.92235,-14.2438,72.0071,Q,Q
2023-03-15 13:43:19:329,0,-2.9226,-14.2381,72.0192,Q,Q
2023-03-15 13:43:19:339,0,-2.91906,-14.2365,72.0265,Q,Q
2023-03-15 13:43:19:349,0,-2.9177,-14.2332,72.0374,Q,Q
2023-03-15 13:43:19:359,0,-2.91297,-14.2274,72.0461,Q,Q
2023-03-15 13:43:19:369,0,-2.91068,-14.2215,72.0495,Q,Q
2023-03-15 13:43:19:379,0,-2.90734,-14.2182,72.0511,Q,Q
2023-03-15 13:43:19:389,0,-2.90722,-14.2123,72.0531,Q,Q
2023-03-15 13:43:19:399,0,-2.90683,-14.2041,72.0498,Q,Q
2023-03-15 13:43:19:409,0,-2.90666,-14.196,72.0432,Q,Q
2023-03-15 13:43:19:419,0,-2.90159,-14.1926,72.0336,Q,Q
2023-03-15 13:43:19:429,0,-2.89851,-14.1898,72.0276,Q,Q
2023-03-15 13:43:19:439,0,-2.8986,-14.1882,72.0222,Q,Q
2023-03-15 13:43:19:449,0,-2.89796,-14.1825,72.0165,Q,Q
2023-03-15 13:43:19:459,0,-2.89752,-14.1757,72.0085,Q,Q
2023-03-15 13:43:19:469,0,-2.89934,-14.1694,71.9981,Q,Q
2023-03-15 13:43:19:479,0,-2.90195,-14.1633,71.9869,Q,Q
2023-03-15 13:43:19:489,0,-2.90498,-14.1583,71.9743,Q,Q
2023-03-15 13:43:19:499,0,-2.90698,-14.1525,71.9665,Q,Q
2023-03-15 13:43:19:509,0,-2.90856,-14.1514,71.9609,Q,Q
2023-03-15 13:43:19:519,0,-2.90738,-14.1502,71.955,Q,Q
2023-03-15 13:43:19:529,0,-2.90542,-14.1518,71.9512,Q,Q
2023-03-15 13:43:19:539,0,-2.90725,-14.1478,71.9488,Q,Q
2023-03-15 13:43:19:549,0,-2.90524,-14.1457,71.9423,Q,Q
2023-03-15 13:43:19:559,0,-2.90331,-14.1441,71.936,Q,Q
2023-03-15 13:43:19:569,0,-2.90229,-14.1451,71.9293,Q,Q
2023-03-15 13:43:19:579,0,-2.90207,-14.1492,71.9253,Q,Q
2023-03-15 13:43:19:589,0,-2.90266,-14.153,71.918,Q,Q
2023-03-15 13:43:19:599,0,-2.89862,-14.1566,71.9126,Q,Q
2023-03-15 13:43:19:609,0,-2.89622,-14.1628,71.9087,Q,Q
2023-03-15 13:43:19:619,0,-2.8968,-14.1683,71.8997,Q,Q
2023-03-15 13:43:19:629,0,-2.89634,-14.1713,71.8892,Q,Q
2023-03-15 13:43:19:639,0,-2.90001,-14.1763,71.8776,Q,Q
2023-03-15 13:43:19:649,0,-2.89831,-14.1831,71.86,Q,Q
2023-03-15 13:43:19:659,0,-2.90138,-14.19,71.8458,Q,Q
2023-03-15 13:43:19:669,0,-2.89792,-14.1962,71.8322,Q,Q
2023-03-15 13:43:19:679,0,-2.90166,-14.1976,71.8177,Q,Q
2023-03-15 13:43:19:689,0,-2.90321,-14.195,71.799,Q,Q
2023-03-15 13:43:19:699,0,-2.90322,-14.1938,71.7811,Q,Q
2023-03-15 13:43:19:709,0,-2.90524,-14.1909,71.7656,Q,Q
2023-03-15 13:43:19:719,0,-2.90842,-14.1858,71.7547,Q,Q
2023-03-15 13:43:19:729,0,-2.91139,-14.1842,71.7458,Q,Q
2023-03-15 13:43:19:741,0,-2.91185,-14.1797,71.7356,Q,Q
2023-03-15 13:43:19:749,0,-2.91267,-14.1756,71.7309,Q,Q
2023-03-15 13:43:19:759,0,-2.91251,-14.1722,71.7277,Q,Q
2023-03-15 13:43:19:769,0,-2.91093,-14.1632,71.7265,Q,Q
2023-03-15 13:43:19:779,0,-2.9091,-14.1582,71.725,Q,Q
2023-03-15 13:43:19:789,0,-2.90549,-14.1563,71.7264,Q,Q
2023-03-15 13:43:19:799,0,-2.89909,-14.1555,71.7244,Q,Q
2023-03-15 13:43:19:809,0,-2.89439,-14.1557,71.7205,Q,Q
2023-03-15 13:43:19:819,0,-2.8881,-14.159,71.7109,Q,Q
2023-03-15 13:43:19:829,0,-2.88329,-14.1585,71.7003,Q,Q
2023-03-15 13:43:19:839,0,-2.87851,-14.157,71.6857,Q,Q
2023-03-15 13:43:19:849,0,-2.87302,-14.1515,71.6736,Q,Q
2023-03-15 13:43:19:859,0,-2.86087,-14.1487,71.6646,Q,Q
2023-03-15 13:43:19:869,0,-2.85072,-14.1482,71.6565,Q,Q
2023-03-15 13:43:19:879,0,-2.84341,-14.1479,71.6484,Q,Q
2023-03-15 13:43:19:889,0,-2.83444,-14.1495,71.634,Q,Q
2023-03-15 13:43:19:899,0,-2.81705,-14.1508,71.6247,Q,Q
2023-03-15 13:43:19:909,0,-2.79673,-14.1552,71.6164,Q,Q
2023-03-15 13:43:19:919,0,-2.77931,-14.1603,71.6069,Q,Q
2023-03-15 13:43:19:929,0,-2.75892,-14.163,71.5958,Q,Q
2023-03-15 13:43:19:939,0,-2.74297,-14.165,71.5868,Q,Q
2023-03-15 13:43:19:949,0,-2.73132,-14.1672,71.5781,Q,Q
2023-03-15 13:43:19:959,0,-2.72128,-14.1682,71.5747,Q,Q
2023-03-15 13:43:19:969,0,-2.71613,-14.1695,71.5713,Q,Q
2023-03-15 13:43:19:979,0,-2.71392,-14.167,71.5715,Q,Q
2023-03-15 13:43:19:989,0,-2.70998,-14.1617,71.5686,Q,Q
2023-03-15 13:43:19:999,0,-2.70841,-14.1579,71.5704,Q,Q
2023-03-15 13:43:20:9,0,-2.70735,-14.1567,71.5707,Q,Q
2023-03-15 13:43:20:19,0,-2.70612,-14.1542,71.5699,Q,Q
2023-03-15 13:43:20:29,0,-2.70457,-14.1574,71.5736,Q,Q
2023-03-15 13:43:20:39,0,-2.70385,-14.1665,71.5816,Q,Q
2023-03-15 13:43:20:49,0,-2.70318,-14.1762,71.594,Q,Q
2023-03-15 13:43:20:59,0,-2.70299,-14.1827,71.6027,Q,Q
2023-03-15 13:43:20:69,0,-2.70773,-14.1837,71.6056,Q,Q
2023-03-15 13:43:20:79,0,-2.70433,-14.1821,71.6049,Q,Q
2023-03-15 13:43:20:89,0,-2.70123,-14.1848,71.6016,Q,Q
2023-03-15 13:43:20:99,0,-2.69736,-14.1897,71.6006,Q,Q
2023-03-15 13:43:20:109,0,-2.69718,-14.1958,71.5988,Q,Q
2023-03-15 13:43:20:119,0,-2.69215,-14.2002,71.597,Q,Q
2023-03-15 13:43:20:129,0,-2.68795,-14.2008,71.5937,Q,Q
2023-03-15 13:43:20:139,0,-2.68291,-14.2057,71.5893,Q,Q
2023-03-15 13:43:20:149,0,-2.67895,-14.2087,71.5921,Q,Q
2023-03-15 13:43:20:159,0,-2.67778,-14.2082,71.5979,Q,Q
2023-03-15 13:43:20:169,0,-2.67512,-14.2106,71.5988,Q,Q
2023-03-15 13:43:20:179,0,-2.67349,-14.2113,71.6006,Q,Q
2023-03-15 13:43:20:189,0,-2.6773,-14.2182,71.6034,Q,Q
2023-03-15 13:43:20:199,0,-2.68155,-14.2249,71.607,Q,Q
2023-03-15 13:43:20:209,0,-2.6859,-14.2317,71.6092,Q,Q
2023-03-15 13:43:20:219,0,-2.68974,-14.2372,71.6063,Q,Q
2023-03-15 13:43:20:229,0,-2.69924,-14.2409,71.6068,Q,Q
2023-03-15 13:43:20:239,0,-2.71321,-14.2406,71.6069,Q,Q
2023-03-15 13:43:20:249,0,-2.72641,-14.2405,71.6058,Q,Q
2023-03-15 13:43:20:259,0,-2.73979,-14.2375,71.601,Q,Q
2023-03-15 13:43:20:269,0,-2.75262,-14.2354,71.5991,Q,Q
2023-03-15 13:43:20:279,0,-2.76176,-14.2294,71.5943,Q,Q
2023-03-15 13:43:20:289,0,-2.77522,-14.2224,71.5909,Q,Q
2023-03-15 13:43:20:299,0,-2.78325,-14.2127,71.5876,Q,Q
2023-03-15 13:43:20:309,0,-2.78821,-14.2038,71.5828,Q,Q
2023-03-15 13:43:20:319,0,-2.78679,-14.1935,71.5738,Q,Q
2023-03-15 13:43:20:329,0,-2.78308,-14.1832,71.5638,Q,Q
2023-03-15 13:43:20:339,0,-2.77518,-14.1764,71.543,Q,Q
2023-03-15 13:43:20:349,0,-2.76232,-14.1724,71.5192,Q,Q
2023-03-15 13:43:20:359,0,-2.75302,-14.1647,71.4865,Q,Q
2023-03-15 13:43:20:370,0,-2.73183,-14.157,71.438,Q,Q
2023-03-15 13:43:20:379,0,-2.70065,-14.1519,71.3716,Q,Q
2023-03-15 13:43:20:390,0,-2.66231,-14.1479,71.2919,Q,Q
2023-03-15 13:43:20:399,0,-2.6202,-14.1413,71.1986,Q,Q
2023-03-15 13:43:20:409,0,-2.5799,-14.1379,71.0989,Q,Q
2023-03-15 13:43:20:419,0,-2.53345,-14.1343,70.9826,Q,Q
2023-03-15 13:43:20:429,0,-2.48734,-14.1358,70.8533,Q,Q
2023-03-15 13:43:20:439,0,-2.4439,-14.1391,70.7058,Q,Q
2023-03-15 13:43:20:449,0,-2.394,-14.1432,70.5263,Q,Q
2023-03-15 13:43:20:459,0,-2.31906,-14.1422,70.3013,Q,Q
2023-03-15 13:43:20:469,0,-2.21761,-14.1361,70.0311,Q,Q
2023-03-15 13:43:20:479,0,-2.08575,-14.1275,69.7202,Q,Q
2023-03-15 13:43:20:489,0,-1.93419,-14.1213,69.3808,Q,Q
2023-03-15 13:43:20:499,0,-1.77832,-14.1186,69.0153,Q,Q
2023-03-15 13:43:20:509,0,-1.61825,-14.1172,68.613,Q,Q
2023-03-15 13:43:20:519,0,-1.45393,-14.1087,68.1517,Q,Q
2023-03-15 13:43:20:529,0,-1.28025,-14.0907,67.604,Q,Q
2023-03-15 13:43:20:539,0,-1.08843,-14.0562,66.944,Q,Q
2023-03-15 13:43:20:549,0,-0.881961,-14.0119,66.1586,Q,Q
2023-03-15 13:43:20:559,0,-0.671807,-13.9624,65.2546,Q,Q
2023-03-15 13:43:20:569,0,-0.471317,-13.9274,64.2378,Q,Q
2023-03-15 13:43:20:579,0,-0.276664,-13.9143,63.0963,Q,Q
2023-03-15 13:43:20:589,0,-0.0924223,-13.9198,61.8381,Q,Q
2023-03-15 13:43:20:599,0,0.0875441,-13.9398,60.4537,Q,Q
2023-03-15 13:43:20:609,0,0.266892,-13.9729,58.952,Q,Q
2023-03-15 13:43:20:619,0,0.450574,-14.0098,57.3438,Q,Q
2023-03-15 13:43:20:629,0,0.651245,-14.046,55.6458,Q,Q
2023-03-15 13:43:20:639,0,0.877715,-14.0807,53.8899,Q,Q
2023-03-15 13:43:20:650,0,1.12599,-14.1129,52.0974,Q,Q
2023-03-15 13:43:20:659,0,1.3973,-14.1292,50.2825,Q,Q
2023-03-15 13:43:20:670,0,1.67585,-14.1206,48.4677,Q,Q
2023-03-15 13:43:20:679,0,1.95783,-14.0844,46.6577,Q,Q
2023-03-15 13:43:20:689,0,2.23567,-14.0159,44.8568,Q,Q
2023-03-15 13:43:20:699,0,2.50645,-13.9066,43.0821,Q,Q
2023-03-15 13:43:20:709,0,2.77897,-13.7566,41.3557,Q,Q
2023-03-15 13:43:20:719,0,3.0488,-13.565,39.7029,Q,Q
2023-03-15 13:43:20:730,0,3.31266,-13.3406,38.1441,Q,Q
2023-03-15 13:43:20:740,0,3.56348,-13.0904,36.6958,Q,Q
2023-03-15 13:43:20:750,0,3.79168,-12.8127,35.3501,Q,Q
2023-03-15 13:43:20:759,0,3.99488,-12.5035,34.0963,Q,Q
2023-03-15 13:43:20:770,0,4.16731,-12.1662,32.9209,Q,Q
2023-03-15 13:43:20:779,0,4.29921,-11.8029,31.8248,Q,Q
2023-03-15 13:43:20:790,0,4.39607,-11.4238,30.7974,Q,Q
2023-03-15 13:43:20:800,0,4.45551,-11.0381,29.8434,Q,Q
2023-03-15 13:43:20:810,0,4.47892,-10.6554,28.9573,Q,Q
2023-03-15 13:43:20:820,0,4.46083,-10.2795,28.1405,Q,Q
2023-03-15 13:43:20:829,0,4.4072,-9.90844,27.3906,Q,Q
2023-03-15 13:43:20:840,0,4.331,-9.55632,26.7121,Q,Q
2023-03-15 13:43:20:850,0,4.23364,-9.21947,26.0975,Q,Q
2023-03-15 13:43:20:860,0,4.12126,-8.89036,25.537,Q,Q
2023-03-15 13:43:20:869,0,3.99266,-8.54899,25.0202,Q,Q
2023-03-15 13:43:20:879,0,3.84362,-8.20521,24.5472,Q,Q
2023-03-15 13:43:20:889,0,3.68182,-7.8736,24.1176,Q,Q
2023-03-15 13:43:20:899,0,3.50297,-7.56473,23.7299,Q,Q
2023-03-15 13:43:20:909,0,3.30676,-7.29335,23.3895,Q,Q
2023-03-15 13:43:20:919,0,3.09663,-7.07627,23.0967,Q,Q
2023-03-15 13:43:20:929,0,2.88397,-6.92307,22.8507,Q,Q
2023-03-15 13:43:20:939,0,2.68877,-6.82534,22.6522,Q,Q
2023-03-15 13:43:20:949,0,2.51757,-6.77565,22.4926,Q,Q
2023-03-15 13:43:20:959,0,2.38546,-6.7558,22.3634,Q,Q
2023-03-15 13:43:20:969,0,2.28816,-6.7436,22.2583,Q,Q
2023-03-15 13:43:20:979,0,2.21215,-6.7324,22.1696,Q,Q
2023-03-15 13:43:20:989,0,2.13969,-6.71896,22.097,Q,Q
2023-03-15 13:43:20:999,0,2.05551,-6.70668,22.0377,Q,Q
2023-03-15 13:43:21:9,0,1.94605,-6.70082,21.9904,Q,Q
2023-03-15 13:43:21:20,0,1.81395,-6.69578,21.9367,Q,Q
2023-03-15 13:43:21:30,0,1.6653,-6.67444,21.8762,Q,Q
2023-03-15 13:43:21:39,0,1.50286,-6.64119,21.7935,Q,Q
2023-03-15 13:43:21:49,0,1.33244,-6.58044,21.68,Q,Q
2023-03-15 13:43:21:60,0,1.15812,-6.48704,21.5418,Q,Q
2023-03-15 13:43:21:70,0,0.96608,-6.37295,21.3909,Q,Q
2023-03-15 13:43:21:80,0,0.745035,-6.24083,21.229,Q,Q
2023-03-15 13:43:21:89,0,0.489718,-6.09546,21.0575,Q,Q
2023-03-15 13:43:21:99,0,0.172007,-5.9366,20.8894,Q,Q
2023-03-15 13:43:21:110,0,-0.201902,-5.7656,20.7144,Q,Q
2023-03-15 13:43:21:119,0,-0.618854,-5.58836,20.5366,Q,Q
2023-03-15 13:43:21:130,0,-1.06668,-5.40698,20.3519,Q,Q
2023-03-15 13:43:21:139,0,-1.52573,-5.22321,20.1687,Q,Q
2023-03-15 13:43:21:150,0,-1.97102,-5.04313,19.9871,Q,Q
2023-03-15 13:43:21:160,0,-2.38749,-4.86715,19.8159,Q,Q
2023-03-15 13:43:21:170,0,-2.75715,-4.70069,19.6535,Q,Q
2023-03-15 13:43:21:180,0,-3.08738,-4.54162,19.5105,Q,Q
2023-03-15 13:43:21:190,0,-3.37382,-4.39265,19.389,Q,Q
2023-03-15 13:43:21:199,0,-3.62151,-4.25222,19.287,Q,Q
2023-03-15 13:43:21:209,0,-3.82694,-4.1302,19.2139,Q,Q
2023-03-15 13:43:21:219,0,-4.00006,-4.03919,19.1712,Q,Q
2023-03-15 13:43:21:230,0,-4.15266,-3.96992,19.1594,Q,Q
2023-03-15 13:43:21:240,0,-4.27984,-3.92231,19.1763,Q,Q
2023-03-15 13:43:21:250,0,-4.37016,-3.89174,19.2047,Q,Q
2023-03-15 13:43:21:259,0,-4.42485,-3.86084,19.2504,Q,Q
2023-03-15 13:43:21:270,0,-4.44106,-3.81261,19.2964,Q,Q
2023-03-15 13:43:21:280,0,-4.42743,-3.75945,19.3522,Q,Q
2023-03-15 13:43:21:290,0,-4.38704,-3.70541,19.4223,Q,Q
2023-03-15 13:43:21:300,0,-4.32448,-3.65446,19.5101,Q,Q
2023-03-15 13:43:21:310,0,-4.24386,-3.60831,19.6146,Q,Q
2023-03-15 13:43:21:320,0,-4.1426,-3.56466,19.737,Q,Q
2023-03-15 13:43:21:330,0,-4.03971,-3.51756,19.8767,Q,Q
2023-03-15 13:43:21:340,0,-3.93796,-3.46884,20.0257,Q,Q
2023-03-15 13:43:21:350,0,-3.8381,-3.40974,20.1716,Q,Q
2023-03-15 13:43:21:360,0,-3.73982,-3.34258,20.3196,Q,Q
2023-03-15 13:43:21:370,0,-3.6476,-3.27167,20.4734,Q,Q
2023-03-15 13:43:21:379,0,-3.5599,-3.19632,20.631,Q,Q
2023-03-15 13:43:21:389,0,-3.47556,-3.12402,20.7958,Q,Q
2023-03-15 13:43:21:400,0,-3.39809,-3.05169,20.9646,Q,Q
2023-03-15 13:43:21:410,0,-3.33219,-2.98101,21.1499,Q,Q
2023-03-15 13:43:21:420,0,-3.26158,-2.91256,21.3517,Q,Q
2023-03-15 13:43:21:430,0,-3.18501,-2.84684,21.5589,Q,Q
2023-03-15 13:43:21:440,0,-3.10638,-2.77835,21.7736,Q,Q
2023-03-15 13:43:21:450,0,-3.02295,-2.70658,21.9876,Q,Q
2023-03-15 13:43:21:460,0,-2.92924,-2.63041,22.1997,Q,Q
2023-03-15 13:43:21:470,0,-2.82949,-2.55194,22.4103,Q,Q
2023-03-15 13:43:21:480,0,-2.72294,-2.46627,22.6157,Q,Q
2023-03-15 13:43:21:490,0,-2.61091,-2.38341,22.8257,Q,Q
2023-03-15 13:43:21:499,0,-2.49452,-2.30433,23.0389,Q,Q
2023-03-15 13:43:21:510,0,-2.37714,-2.22317,23.2442,Q,Q
2023-03-15 13:43:21:520,0,-2.25137,-2.14101,23.4363,Q,Q
2023-03-15 13:43:21:530,0,-2.12542,-2.05144,23.6144,Q,Q
2023-03-15 13:43:21:539,0,-2.00471,-1.96538,23.7776,Q,Q
2023-03-15 13:43:21:550,0,-1.89067,-1.87268,23.9248,Q,Q
2023-03-15 13:43:21:560,0,-1.77859,-1.77649,24.0515,Q,Q
2023-03-15 13:43:21:570,0,-1.67169,-1.68688,24.1682,Q,Q
2023-03-15 13:43:21:580,0,-1.57429,-1.60341,24.2724,Q,Q
2023-03-15 13:43:21:590,0,-1.48866,-1.52461,24.3742,Q,Q
2023-03-15 13:43:21:600,0,-1.41617,-1.46021,24.4603,Q,Q
2023-03-15 13:43:21:610,0,-1.35127,-1.41131,24.5298,Q,Q
2023-03-15 13:43:21:619,0,-1.28353,-1.36184,24.5839,Q,Q
2023-03-15 13:43:21:630,0,-1.22458,-1.32678,24.6234,Q,Q
2023-03-15 13:43:21:639,0,-1.17601,-1.30063,24.6527,Q,Q
2023-03-15 13:43:21:649,0,-1.13467,-1.28131,24.6682,Q,Q
2023-03-15 13:43:21:659,0,-1.10414,-1.27135,24.6781,Q,Q
2023-03-15 13:43:21:670,0,-1.08406,-1.26654,24.6688,Q,Q
2023-03-15 13:43:21:680,0,-1.06772,-1.27346,24.6539,Q,Q
2023-03-15 13:43:21:690,0,-1.05348,-1.28925,24.6333,Q,Q
2023-03-15 13:43:21:700,0,-1.04152,-1.31252,24.6132,Q,Q
2023-03-15 13:43:21:709,0,-1.03966,-1.34561,24.5979,Q,Q
2023-03-15 13:43:21:719,0,-1.04785,-1.38661,24.5795,Q,Q
2023-03-15 13:43:21:730,0,-1.06961,-1.43721,24.5636,Q,Q
2023-03-15 13:43:21:740,0,-1.09699,-1.49183,24.54,Q,Q
2023-03-15 13:43:21:750,0,-1.12342,-1.54548,24.5169,Q,Q
2023-03-15 13:43:21:760,0,-1.15361,-1.5997,24.4877,Q,Q
2023-03-15 13:43:21:770,0,-1.18095,-1.64898,24.4599,Q,Q
2023-03-15 13:43:21:780,0,-1.19986,-1.70117,24.4309,Q,Q
2023-03-15 13:43:21:790,0,-1.21786,-1.75152,24.4071,Q,Q
2023-03-15 13:43:21:800,0,-1.23002,-1.80485,24.3875,Q,Q
2023-03-15 13:43:21:810,0,-1.24213,-1.84749,24.3661,Q,Q
2023-03-15 13:43:21:820,0,-1.25309,-1.88618,24.3397,Q,Q
2023-03-15 13:43:21:830,0,-1.27273,-1.92095,24.3121,Q,Q
2023-03-15 13:43:21:840,0,-1.29801,-1.953,24.2816,Q,Q
2023-03-15 13:43:21:850,0,-1.3274,-1.98203,24.2577,Q,Q
2023-03-15 13:43:21:860,0,-1.36504,-2.01744,24.2433,Q,Q
2023-03-15 13:43:21:870,0,-1.41159,-2.05103,24.2423,Q,Q
2023-03-15 13:43:21:880,0,-1.46649,-2.08795,24.2435,Q,Q
2023-03-15 13:43:21:890,0,-1.53258,-2.13464,24.2468,Q,Q
2023-03-15 13:43:21:900,0,-1.6136,-2.17577,24.2571,Q,Q
2023-03-15 13:43:21:910,0,-1.69902,-2.21223,24.263,Q,Q
2023-03-15 13:43:21:920,0,-1.78802,-2.24776,24.2677,Q,Q
2023-03-15 13:43:21:930,0,-1.87722,-2.2817,24.2685,Q,Q
2023-03-15 13:43:21:940,0,-1.97044,-2.30954,24.2642,Q,Q
2023-03-15 13:43:21:949,0,-2.06503,-2.33859,24.2566,Q,Q
2023-03-15 13:43:21:960,0,-2.16121,-2.38341,24.2452,Q,Q
2023-03-15 13:43:21:970,0,-2.26173,-2.43681,24.2214,Q,Q
2023-03-15 13:43:21:980,0,-2.36355,-2.48117,24.1849,Q,Q
2023-03-15 13:43:21:990,0,-2.44206,-2.5135,24.1345,Q,Q
2023-03-15 13:43:22:0,0,-2.50446,-2.54732,24.0725,Q,Q
2023-03-15 13:43:22:10,0,-2.55926,-2.58205,24.0013,Q,Q
2023-03-15 13:43:22:20,0,-2.6147,-2.60892,23.9143,Q,Q
2023-03-15 13:43:22:30,0,-2.66846,-2.62788,23.8137,Q,Q
2023-03-15 13:43:22:40,0,-2.71686,-2.6349,23.7012,Q,Q
2023-03-15 13:43:22:50,0,-2.76289,-2.63124,23.5754,Q,Q
2023-03-15 13:43:22:60,0,-2.81249,-2.61533,23.4398,Q,Q
2023-03-15 13:43:22:70,0,-2.86863,-2.57914,23.2897,Q,Q
2023-03-15 13:43:22:80,0,-2.92747,-2.52631,23.1241,Q,Q
2023-03-15 13:43:22:90,0,-2.99088,-2.4553,22.9442,Q,Q
2023-03-15 13:43:22:100,0,-3.06136,-2.37408,22.7663,Q,Q
2023-03-15 13:43:22:110,0,-3.14207,-2.28774,22.5973,Q,Q
2023-03-15 13:43:22:120,0,-3.23396,-2.20122,22.4376,Q,Q
2023-03-15 13:43:22:130,0,-3.34639,-2.11374,22.2932,Q,Q
2023-03-15 13:43:22:140,0,-3.48282,-2.03282,22.1584,Q,Q
2023-03-15 13:43:22:150,0,-3.64225,-1.95569,22.0398,Q,Q
2023-03-15 13:43:22:160,0,-3.81849,-1.88403,21.9289,Q,Q
2023-03-15 13:43:22:170,0,-3.99708,-1.81289,21.8216,Q,Q
2023-03-15 13:43:22:180,0,-4.16393,-1.74239,21.711,Q,Q
2023-03-15 13:43:22:190,0,-4.30457,-1.6693,21.6001,Q,Q
2023-03-15 13:43:22:200,0,-4.41606,-1.6031,21.4909,Q,Q
2023-03-15 13:43:22:210,0,-4.48681,-1.54736,21.3867,Q,Q
2023-03-15 13:43:22:220,0,-4.52399,-1.50151,21.2819,Q,Q
2023-03-15 13:43:22:230,0,-4.53383,-1.46946,21.1797,Q,Q
2023-03-15 13:43:22:240,0,-4.5111,-1.44769,21.0837,Q,Q
2023-03-15 13:43:22:250,0,-4.45257,-1.43634,20.988,Q,Q
2023-03-15 13:43:22:260,0,-4.36576,-1.43164,20.8966,Q,Q
2023-03-15 13:43:22:270,0,-4.26382,-1.4363,20.8049,Q,Q
2023-03-15 13:43:22:280,0,-4.15018,-1.4467,20.7091,Q,Q
2023-03-15 13:43:22:290,0,-4.0187,-1.46872,20.6133,Q,Q
2023-03-15 13:43:22:300,0,-3.87983,-1.50088,20.5148,Q,Q
2023-03-15 13:43:22:310,0,-3.74532,-1.54322,20.4203,Q,Q
2023-03-15 13:43:22:320,0,-3.61889,-1.58999,20.3265,Q,Q
2023-03-15 13:43:22:330,0,-3.50632,-1.64041,20.2332,Q,Q
2023-03-15 13:43:22:340,0,-3.42297,-1.69212,20.1344,Q,Q
2023-03-15 13:43:22:350,0,-3.36731,-1.7415,20.0267,Q,Q
2023-03-15 13:43:22:360,0,-3.33589,-1.78768,19.9017,Q,Q
2023-03-15 13:43:22:370,0,-3.31218,-1.83432,19.7574,Q,Q
2023-03-15 13:43:22:380,0,-3.29128,-1.88098,19.5917,Q,Q
2023-03-15 13:43:22:390,0,-3.27249,-1.93323,19.41,Q,Q
2023-03-15 13:43:22:400,0,-3.26666,-1.99163,19.2107,Q,Q
2023-03-15 13:43:22:410,0,-3.27827,-2.05757,18.9793,Q,Q
2023-03-15 13:43:22:420,0,-3.30407,-2.12588,18.7032,Q,Q
2023-03-15 13:43:22:430,0,-3.33759,-2.19488,18.3745,Q,Q
2023-03-15 13:43:22:440,0,-3.35927,-2.26389,17.9863,Q,Q
2023-03-15 13:43:22:450,0,-3.3634,-2.33649,17.5471,Q,Q
2023-03-15 13:43:22:460,0,-3.3617,-2.41787,17.0781,Q,Q
2023-03-15 13:43:22:470,0,-3.35757,-2.51736,16.5744,Q,Q
2023-03-15 13:43:22:480,0,-3.36816,-2.62679,16.0338,Q,Q
2023-03-15 13:43:22:489,0,-3.39928,-2.74326,15.4514,Q,Q
2023-03-15 13:43:22:500,0,-3.45078,-2.86672,14.8209,Q,Q
2023-03-15 13:43:22:510,0,-3.50864,-2.99066,14.1422,Q,Q
2023-03-15 13:43:22:520,0,-3.56183,-3.11207,13.4155,Q,Q
2023-03-15 13:43:22:530,0,-3.61215,-3.238,12.6477,Q,Q
2023-03-15 13:43:22:540,0,-3.66437,-3.37081,11.8533,Q,Q
2023-03-15 13:43:22:550,0,-3.72615,-3.50313,11.0317,Q,Q
2023-03-15 13:43:22:560,0,-3.79667,-3.63057,10.1871,Q,Q
2023-03-15 13:43:22:570,0,-3.87706,-3.75937,9.3349,Q,Q
2023-03-15 13:43:22:580,0,-3.96639,-3.89939,8.48991,Q,Q
2023-03-15 13:43:22:590,0,-4.05356,-4.05725,7.66841,Q,Q
2023-03-15 13:43:22:600,0,-4.14037,-4.23803,6.88525,Q,Q
2023-03-15 13:43:22:610,0,-4.23862,-4.43899,6.1495,Q,Q
2023-03-15 13:43:22:619,0,-4.33825,-4.65308,5.45825,Q,Q
2023-03-15 13:43:22:629,0,-4.44729,-4.87183,4.80685,Q,Q
2023-03-15 13:43:22:640,0,-4.56446,-5.08816,4.1895,Q,Q
2023-03-15 13:43:22:649,0,-4.67921,-5.29338,3.60192,Q,Q
2023-03-15 13:43:22:659,0,-4.79426,-5.49162,3.04461,Q,Q
2023-03-15 13:43:22:669,0,-4.90751,-5.68203,2.52163,Q,Q
2023-03-15 13:43:22:679,0,-5.01307,-5.87002,2.03249,Q,Q
2023-03-15 13:43:22:689,0,-5.10923,-6.05193,1.57443,Q,Q
2023-03-15 13:43:22:699,0,-5.19116,-6.23321,1.15277,Q,Q
2023-03-15 13:43:22:709,0,-5.26296,-6.4082,0.748517,Q,Q
2023-03-15 13:43:22:719,0,-5.32258,-6.57013,0.354648,Q,Q
2023-03-15 13:43:22:729,0,-5.36583,-6.72227,-0.0349984,Q,Q
2023-03-15 13:43:22:739,0,-5.39857,-6.86466,-0.420727,Q,Q
2023-03-15 13:43:22:749,0,-5.41614,-6.99484,-0.807555,Q,Q
2023-03-15 13:43:22:759,0,-5.422,-7.12892,-1.18871,Q,Q
2023-03-15 13:43:22:769,0,-5.42564,-7.26119,-1.56249,Q,Q
2023-03-15 13:43:22:779,0,-5.42727,-7.39853,-1.93428,Q,Q
2023-03-15 13:43:22:789,0,-5.42264,-7.53548,-2.31187,Q,Q
2023-03-15 13:43:22:799,0,-5.4074,-7.66207,-2.71023,Q,Q
2023-03-15 13:43:22:809,0,-5.38334,-7.77623,-3.12984,Q,Q
2023-03-15 13:43:22:819,0,-5.34298,-7.87448,-3.56132,Q,Q
2023-03-15 13:43:22:829,0,-5.28748,-7.98495,-4.00404,Q,Q
2023-03-15 13:43:22:839,0,-5.23671,-8.09807,-4.44159,Q,Q
2023-03-15 13:43:22:849,0,-5.18566,-8.19703,-4.87098,Q,Q
2023-03-15 13:43:22:859,0,-5.12303,-8.30389,-5.30343,Q,Q
2023-03-15 13:43:22:869,0,-5.06311,-8.41367,-5.72727,Q,Q
2023-03-15 13:43:22:879,0,-5.0159,-8.52845,-6.12875,Q,Q
2023-03-15 13:43:22:889,0,-4.97454,-8.64157,-6.51054,Q,Q
2023-03-15 13:43:22:899,0,-4.94301,-8.7572,-6.86324,Q,Q
2023-03-15 13:43:22:909,0,-4.92759,-8.87482,-7.17974,Q,Q
2023-03-15 13:43:22:919,0,-4.92934,-9.00148,-7.45797,Q,Q
2023-03-15 13:43:22:929,0,-4.9553,-9.13529,-7.69934,Q,Q
2023-03-15 13:43:22:939,0,-4.98748,-9.26349,-7.90284,Q,Q
2023-03-15 13:43:22:949,0,-5.01721,-9.39607,-8.07314,Q,Q
2023-03-15 13:43:22:960,0,-5.03935,-9.53076,-8.21162,Q,Q
2023-03-15 13:43:22:970,0,-5.05071,-9.67018,-8.30772,Q,Q
2023-03-15 13:43:22:980,0,-5.05538,-9.81182,-8.3765,Q,Q
2023-03-15 13:43:22:990,0,-5.0508,-9.94644,-8.41977,Q,Q
2023-03-15 13:43:23:0,0,-5.04774,-10.0865,-8.43287,Q,Q
2023-03-15 13:43:23:10,0,-5.0536,-10.228,-8.41257,Q,Q
2023-03-15 13:43:23:20,0,-5.07271,-10.3665,-8.35667,Q,Q
2023-03-15 13:43:23:30,0,-5.10272,-10.4924,-8.2834,Q,Q
2023-03-15 13:43:23:40,0,-5.14849,-10.6014,-8.19398,Q,Q
2023-03-15 13:43:23:50,0,-5.19821,-10.6908,-8.09827,Q,Q
2023-03-15 13:43:23:60,0,-5.25414,-10.7587,-7.98995,Q,Q
2023-03-15 13:43:23:70,0,-5.31282,-10.7976,-7.87153,Q,Q
2023-03-15 13:43:23:80,0,-5.36169,-10.8104,-7.74965,Q,Q
2023-03-15 13:43:23:90,0,-5.39935,-10.794,-7.61489,Q,Q
2023-03-15 13:43:23:100,0,-5.44256,-10.7444,-7.46099,Q,Q
2023-03-15 13:43:23:110,0,-5.49077,-10.6681,-7.29081,Q,Q
2023-03-15 13:43:23:120,0,-5.53517,-10.5743,-7.09133,Q,Q
2023-03-15 13:43:23:130,0,-5.57512,-10.4596,-6.85565,Q,Q
2023-03-15 13:43:23:140,0,-5.61357,-10.3312,-6.59085,Q,Q
2023-03-15 13:43:23:150,0,-5.63025,-10.1797,-6.30694,Q,Q
2023-03-15 13:43:23:160,0,-5.62438,-10.0065,-6.00102,Q,Q
2023-03-15 13:43:23:170,0,-5.59632,-9.8008,-5.67808,Q,Q
2023-03-15 13:43:23:180,0,-5.5578,-9.56278,-5.33787,Q,Q
2023-03-15 13:43:23:190,0,-5.51075,-9.30714,-4.96139,Q,Q
2023-03-15 13:43:23:200,0,-5.46421,-9.02957,-4.54508,Q,Q
2023-03-15 13:43:23:210,0,-5.4224,-8.75883,-4.10007,Q,Q
2023-03-15 13:43:23:220,0,-5.4102,-8.49097,-3.62555,Q,Q
2023-03-15 13:43:23:230,0,-5.44339,-8.2095,-3.14163,Q,Q
2023-03-15 13:43:23:240,0,-5.49592,-7.8891,-2.70627,Q,Q
2023-03-15 13:43:23:250,0,-5.54775,-7.50472,-2.34923,Q,Q
2023-03-15 13:43:23:260,0,-5.59766,-7.06529,-2.05245,Q,Q
2023-03-15 13:43:23:270,0,-5.6451,-6.61689,-1.79467,Q,Q
2023-03-15 13:43:23:280,0,-5.69621,-6.19601,-1.55511,Q,Q
2023-03-15 13:43:23:290,0,-5.75501,-5.83235,-1.31574,Q,Q
2023-03-15 13:43:23:300,0,-5.84031,-5.52881,-1.06748,Q,Q
2023-03-15 13:43:23:310,0,-5.96358,-5.29389,-0.822488,Q,Q
2023-03-15 13:43:23:320,0,-6.11226,-5.13279,-0.603385,Q,Q
2023-03-15 13:43:23:330,0,-6.26062,-5.008,-0.422397,Q,Q
2023-03-15 13:43:23:340,0,-6.41429,-4.8882,-0.293419,Q,Q
2023-03-15 13:43:23:350,0,-6.57044,-4.77791,-0.209555,Q,Q
2023-03-15 13:43:23:360,0,-6.72097,-4.69029,-0.147589,Q,Q
2023-03-15 13:43:23:370,0,-6.86433,-4.65395,-0.0683411,Q,Q
2023-03-15 13:43:23:380,0,-6.98614,-4.69167,0.0245497,Q,Q
2023-03-15 13:43:23:390,0,-7.06927,-4.77483,0.121288,Q,Q
2023-03-15 13:43:23:400,0,-7.11967,-4.87187,0.223404,Q,Q
2023-03-15 13:43:23:410,0,-7.14278,-4.9744,0.337849,Q,Q
2023-03-15 13:43:23:420,0,-7.18751,-5.08917,0.495458,Q,Q
2023-03-15 13:43:23:430,0,-7.30139,-5.22496,0.697831,Q,Q
2023-03-15 13:43:23:440,0,-7.47367,-5.36651,0.893555,Q,Q
2023-03-15 13:43:23:450,0,-7.66696,-5.49385,1.03867,Q,Q
2023-03-15 13:43:23:460,0,-7.83139,-5.58897,1.12193,Q,Q
2023-03-15 13:43:23:470,0,-7.93509,-5.66011,1.17188,Q,Q
2023-03-15 13:43:23:480,0,-7.96012,-5.72483,1.20221,Q,Q
2023-03-15 13:43:23:490,0,-7.92059,-5.77786,1.21177,Q,Q
2023-03-15 13:43:23:500,0,-7.83152,-5.82202,1.17682,Q,Q
2023-03-15 13:43:23:510,0,-7.69562,-5.82875,1.07704,Q,Q
2023-03-15 13:43:23:520,0,-7.50316,-5.79656,0.915257,Q,Q
2023-03-15 13:43:23:530,0,-7.27012,-5.74325,0.711439,Q,Q
2023-03-15 13:43:23:540,0,-7.00767,-5.68544,0.482943,Q,Q
2023-03-15 13:43:23:550,0,-6.72217,-5.62757,0.231463,Q,Q
2023-03-15 13:43:23:560,0,-6.42223,-5.56126,-0.0479673,Q,Q
2023-03-15 13:43:23:570,0,-6.11759,-5.48441,-0.362394,Q,Q
2023-03-15 13:43:23:580,0,-5.8187,-5.40801,-0.694461,Q,Q
2023-03-15 13:43:23:590,0,-5.5529,-5.36179,-1.01933,Q,Q
2023-03-15 13:43:23:600,0,-5.32564,-5.36363,-1.32783,Q,Q
2023-03-15 13:43:23:610,0,-5.12258,-5.41755,-1.62275,Q,Q
2023-03-15 13:43:23:620,0,-4.93743,-5.52113,-1.89915,Q,Q
2023-03-15 13:43:23:630,0,-4.77637,-5.66146,-2.15366,Q,Q
2023-03-15 13:43:23:640,0,-4.63902,-5.83864,-2.36798,Q,Q
2023-03-15 13:43:23:650,0,-4.54655,-6.03751,-2.53048,Q,Q
2023-03-15 13:43:23:660,0,-4.5361,-6.23734,-2.63753,Q,Q
2023-03-15 13:43:23:670,0,-4.61977,-6.41026,-2.71571,Q,Q
2023-03-15 13:43:23:680,0,-4.7948,-6.51147,-2.77944,Q,Q
2023-03-15 13:43:23:690,0,-5.09001,-6.49929,-2.85346,Q,Q
2023-03-15 13:43:23:700,0,-5.4926,-6.37645,-3.00227,Q,Q
2023-03-15 13:43:23:710,0,-5.92182,-6.15456,-3.26891,Q,Q
2023-03-15 13:43:23:720,0,-6.27577,-5.84815,-3.64642,Q,Q
2023-03-15 13:43:23:730,0,-6.51841,-5.4771,-4.09992,Q,Q
2023-03-15 13:43:23:740,0,-6.65597,-5.07402,-4.57663,Q,Q
2023-03-15 13:43:23:750,0,-6.71287,-4.68102,-5.04514,Q,Q
2023-03-15 13:43:23:760,0,-6.72189,-4.3529,-5.47898,Q,Q
2023-03-15 13:43:23:770,0,-6.72281,-4.12672,-5.85676,Q,Q
2023-03-15 13:43:23:780,0,-6.75021,-3.99999,-6.17325,Q,Q
2023-03-15 13:43:23:790,0,-6.8124,-3.95392,-6.43831,Q,Q
2023-03-15 13:43:23:800,0,-6.88383,-3.94026,-6.69398,Q,Q
2023-03-15 13:43:23:810,0,-6.91145,-3.95163,-6.97266,Q,Q
2023-03-15 13:43:23:820,0,-6.86574,-3.94423,-7.26486,Q,Q
2023-03-15 13:43:23:830,0,-6.73713,-3.8917,-7.55905,Q,Q
2023-03-15 13:43:23:840,0,-6.5405,-3.82034,-7.84674,Q,Q
2023-03-15 13:43:23:850,0,-6.31563,-3.75019,-8.11773,Q,Q
2023-03-15 13:43:23:860,0,-6.08642,-3.71134,-8.35624,Q,Q
2023-03-15 13:43:23:870,0,-5.86148,-3.70797,-8.54531,Q,Q
2023-03-15 13:43:23:880,0,-5.64429,-3.7489,-8.68416,Q,Q
2023-03-15 13:43:23:890,0,-5.41843,-3.82606,-8.78336,Q,Q
2023-03-15 13:43:23:900,0,-5.17663,-3.92784,-8.85276,Q,Q
2023-03-15 13:43:23:910,0,-4.9193,-4.03219,-8.90145,Q,Q
2023-03-15 13:43:23:920,0,-4.65659,-4.12657,-8.93957,Q,Q
2023-03-15 13:43:23:930,0,-4.39693,-4.22057,-8.96522,Q,Q
2023-03-15 13:43:23:940,0,-4.15314,-4.31846,-8.98326,Q,Q
2023-03-15 13:43:23:950,0,-3.93285,-4.41938,-8.99286,Q,Q
2023-03-15 13:43:23:960,0,-3.744,-4.53056,-8.9884,Q,Q
2023-03-15 13:43:23:970,0,-3.58914,-4.65865,-8.9658,Q,Q
2023-03-15 13:43:23:980,0,-3.4808,-4.80252,-8.92395,Q,Q
2023-03-15 13:43:23:990,0,-3.40935,-4.94681,-8.87917,Q,Q
2023-03-15 13:43:24:0,0,-3.36638,-5.07607,-8.82968,Q,Q
2023-03-15 13:43:24:10,0,-3.3407,-5.19131,-8.78647,Q,Q
2023-03-15 13:43:24:20,0,-3.32182,-5.29959,-8.7595,Q,Q
2023-03-15 13:43:24:30,0,-3.27468,-5.39605,-8.74622,Q,Q
2023-03-15 13:43:24:40,0,-3.17883,-5.47608,-8.73588,Q,Q
2023-03-15 13:43:24:50,0,-3.02891,-5.53331,-8.71793,Q,Q
2023-03-15 13:43:24:60,0,-2.82483,-5.57829,-8.69363,Q,Q
2023-03-15 13:43:24:70,0,-2.57023,-5.61785,-8.66171,Q,Q
2023-03-15 13:43:24:80,0,-2.28355,-5.64968,-8.62924,Q,Q
2023-03-15 13:43:24:90,0,-1.96719,-5.6804,-8.60409,Q,Q
2023-03-15 13:43:24:100,0,-1.63204,-5.70389,-8.58311,Q,Q
2023-03-15 13:43:24:110,0,-1.29367,-5.72624,-8.563,Q,Q
2023-03-15 13:43:24:120,0,-1.01435,-5.58848,-8.58204,Q,Q
2023-03-15 13:43:24:130,0,-0.855775,-5.44665,-8.75772,Q,Q
2023-03-15 13:43:24:140,0,-0.696628,-5.37955,-8.86773,Q,Q
2023-03-15 13:43:24:150,0,-0.506872,-5.29139,-8.84432,Q,Q
2023-03-15 13:43:24:160,0,-0.359351,-5.35858,-8.92578,Q,Q
2023-03-15 13:43:24:170,0,-0.189536,-5.40114,-9.06505,Q,Q
2023-03-15 13:43:24:180,0,-0.0160061,-5.42546,-9.21059,Q,Q
2023-03-15 13:43:24:190,0,0.168801,-5.47578,-9.20348,Q,Q
2023-03-15 13:43:24:200,0,0.366809,-5.60477,-9.1301,Q,Q
2023-03-15 13:43:24:210,0,0.560607,-5.75966,-9.04685,Q,Q
2023-03-15 13:43:24:220,0,0.755234,-5.89188,-9.00338,Q,Q
2023-03-15 13:43:24:230,0,0.956175,-6.00228,-9.01041,Q,Q
2023-03-15 13:43:24:240,0,1.16307,-6.06561,-9.03061,Q,Q
2023-03-15 13:43:24:250,0,1.36342,-6.09435,-9.04663,Q,Q
2023-03-15 13:43:24:260,0,1.54195,-6.09863,-9.03761,Q,Q
2023-03-15 13:43:24:270,0,1.69883,-6.10529,-9.00511,Q,Q
2023-03-15 13:43:24:280,0,1.85643,-6.1307,-8.96365,Q,Q
2023-03-15 13:43:24:290,0,2.03589,-6.17115,-8.93034,Q,Q
2023-03-15 13:43:24:300,0,2.24416,-6.22052,-8.90147,Q,Q
2023-03-15 13:43:24:310,0,2.45085,-6.26987,-8.86934,Q,Q
2023-03-15 13:43:24:320,0,2.63917,-6.31019,-8.83606,Q,Q
2023-03-15 13:43:24:330,0,2.80285,-6.34216,-8.80524,Q,Q
2023-03-15 13:43:24:340,0,2.92857,-6.3686,-8.77708,Q,Q
2023-03-15 13:43:24:350,0,3.02123,-6.40242,-8.75161,Q,Q
2023-03-15 13:43:24:360,0,3.09347,-6.43415,-8.73511,Q,Q
2023-03-15 13:43:24:370,0,3.14085,-6.45026,-8.72982,Q,Q
2023-03-15 13:43:24:380,0,3.14965,-6.45035,-8.7142,Q,Q
2023-03-15 13:43:24:390,0,3.13911,-6.44859,-8.68927,Q,Q
2023-03-15 13:43:24:400,0,3.11602,-6.44061,-8.65434,Q,Q
2023-03-15 13:43:24:410,0,3.07459,-6.38809,-8.60986,Q,Q
2023-03-15 13:43:24:420,0,2.99367,-6.29285,-8.5478,Q,Q
2023-03-15 13:43:24:430,0,2.86222,-6.16866,-8.4727,Q,Q
2023-03-15 13:43:24:440,0,2.70197,-6.04582,-8.39992,Q,Q
2023-03-15 13:43:24:450,0,2.51991,-5.93523,-8.34532,Q,Q
2023-03-15 13:43:24:460,0,2.34149,-5.83545,-8.30927,Q,Q
2023-03-15 13:43:24:470,0,2.15162,-5.73574,-8.28951,Q,Q
2023-03-15 13:43:24:480,0,1.93386,-5.61452,-8.27806,Q,Q
2023-03-15 13:43:24:490,0,1.671,-5.46001,-8.2793,Q,Q
2023-03-15 13:43:24:500,0,1.36027,-5.27408,-8.28446,Q,Q
2023-03-15 13:43:24:510,0,0.987525,-5.0604,-8.30767,Q,Q
2023-03-15 13:43:24:520,0,0.59135,-4.84478,-8.36046,Q,Q
2023-03-15 13:43:24:530,0,0.197493,-4.64517,-8.44366,Q,Q
2023-03-15 13:43:24:540,0,-0.176854,-4.47497,-8.54113,Q,Q
2023-03-15 13:43:24:550,0,-0.522362,-4.34533,-8.65213,Q,Q
2023-03-15 13:43:24:560,0,-0.835465,-4.25951,-8.77747,Q,Q
2023-03-15 13:43:24:570,0,-1.12335,-4.21157,-8.91594,Q,Q
2023-03-15 13:43:24:580,0,-1.39443,-4.20083,-9.05668,Q,Q
2023-03-15 13:43:24:590,0,-1.64709,-4.22341,-9.20347,Q,Q
2023-03-15 13:43:24:600,0,-1.86907,-4.2733,-9.3591,Q,Q
2023-03-15 13:43:24:610,0,-2.04772,-4.35408,-9.51514,Q,Q
2023-03-15 13:43:24:620,0,-2.17685,-4.46333,-9.67049,Q,Q
2023-03-15 13:43:24:630,0,-2.26567,-4.5966,-9.81535,Q,Q
2023-03-15 13:43:24:640,0,-2.30527,-4.775,-9.97876,Q,Q
2023-03-15 13:43:24:650,0,-2.29927,-4.96297,-10.1499,Q,Q
2023-03-15 13:43:24:660,0,-2.10437,-5.15583,-10.4185,Q,Q
2023-03-15 13:43:24:670,0,-1.96721,-5.26019,-10.5719,Q,Q
2023-03-15 13:43:24:680,0,-1.86659,-5.2887,-10.6938,Q,Q
2023-03-15 13:43:24:690,0,-1.83843,-5.32227,-10.8022,Q,Q
2023-03-15 13:43:24:700,0,-1.8648,-5.35827,-10.9082,Q,Q
2023-03-15 13:43:24:710,0,-1.9196,-5.40406,-11.0077,Q,Q
2023-03-15 13:43:24:720,0,-1.97856,-5.44881,-11.1062,Q,Q
2023-03-15 13:43:24:730,0,-2.03932,-5.48842,-11.1976,Q,Q
2023-03-15 13:43:24:740,0,-2.09566,-5.52555,-11.2906,Q,Q
2023-03-15 13:43:24:751,0,-2.15859,-5.56524,-11.3732,Q,Q
2023-03-15 13:43:24:760,0,-2.23214,-5.61228,-11.4482,Q,Q
2023-03-15 13:43:24:770,0,-2.30436,-5.65442,-11.5195,Q,Q
2023-03-15 13:43:24:780,0,-2.37079,-5.69099,-11.5902,Q,Q
2023-03-15 13:43:24:790,0,-2.42609,-5.71838,-11.6569,Q,Q
2023-03-15 13:43:24:800,0,-2.46948,-5.73331,-11.7257,Q,Q
2023-03-15 13:43:24:810,0,-2.50467,-5.73289,-11.7863,Q,Q
2023-03-15 13:43:24:820,0,-2.53824,-5.71474,-11.8524,Q,Q
2023-03-15 13:43:24:830,0,-2.57651,-5.68609,-11.9141,Q,Q
2023-03-15 13:43:24:840,0,-2.61865,-5.65604,-11.9671,Q,Q
2023-03-15 13:43:24:850,0,-2.66536,-5.62624,-12.0142,Q,Q
2023-03-15 13:43:24:860,0,-2.70863,-5.60546,-12.0573,Q,Q
2023-03-15 13:43:24:870,0,-2.74237,-5.59161,-12.1002,Q,Q
2023-03-15 13:43:24:881,0,-2.76571,-5.58867,-12.1424,Q,Q
2023-03-15 13:43:24:891,0,-2.78489,-5.59425,-12.1813,Q,Q
2023-03-15 13:43:24:901,0,-2.79378,-5.59351,-12.2248,Q,Q
2023-03-15 13:43:24:910,0,-2.78819,-5.57898,-12.2795,Q,Q
2023-03-15 13:43:24:921,0,-2.77208,-5.54714,-12.3477,Q,Q
2023-03-15 13:43:24:931,0,-2.75299,-5.50396,-12.421,Q,Q
2023-03-15 13:43:24:940,0,-2.7461,-5.45566,-12.487,Q,Q
2023-03-15 13:43:24:951,0,-2.75797,-5.4132,-12.5459,Q,Q
2023-03-15 13:43:24:961,0,-2.79969,-5.38707,-12.5895,Q,Q
2023-03-15 13:43:24:970,0,-2.86567,-5.38671,-12.6128,Q,Q
2023-03-15 13:43:24:980,0,-2.93983,-5.40446,-12.6344,Q,Q
2023-03-15 13:43:24:991,0,-3.00569,-5.43262,-12.6639,Q,Q
2023-03-15 13:43:25:1,0,-3.04512,-5.45421,-12.6997,Q,Q
2023-03-15 13:43:25:11,0,-3.06227,-5.4614,-12.7382,Q,Q
2023-03-15 13:43:25:20,0,-3.06151,-5.45677,-12.7795,Q,Q
2023-03-15 13:43:25:30,0,-3.06388,-5.44807,-12.8065,Q,Q
2023-03-15 13:43:25:40,0,-3.07981,-5.44475,-12.827,Q,Q
2023-03-15 13:43:25:50,0,-3.11337,-5.4534,-12.8369,Q,Q
2023-03-15 13:43:25:60,0,-3.16596,-5.47825,-12.839,Q,Q
2023-03-15 13:43:25:70,0,-3.22324,-5.51177,-12.8403,Q,Q
2023-03-15 13:43:25:80,0,-3.27343,-5.54697,-12.8463,Q,Q
2023-03-15 13:43:25:90,0,-3.31197,-5.5837,-12.8589,Q,Q
2023-03-15 13:43:25:100,0,-3.3441,-5.61435,-12.8731,Q,Q
2023-03-15 13:43:25:111,0,-3.36627,-5.63234,-12.8911,Q,Q
2023-03-15 13:43:25:120,0,-3.3867,-5.64485,-12.9067,Q,Q
2023-03-15 13:43:25:130,0,-3.40618,-5.65591,-12.9211,Q,Q
2023-03-15 13:43:25:140,0,-3.44099,-5.67283,-12.9294,Q,Q
2023-03-15 13:43:25:150,0,-3.48974,-5.69791,-12.9385,Q,Q
2023-03-15 13:43:25:160,0,-3.54219,-5.72637,-12.9461,Q,Q
2023-03-15 13:43:25:170,0,-3.59158,-5.75451,-12.9515,Q,Q
2023-03-15 13:43:25:180,0,-3.64092,-5.77706,-12.9611,Q,Q
2023-03-15 13:43:25:191,0,-3.68145,-5.79872,-12.9676,Q,Q
2023-03-15 13:43:25:200,0,-3.71388,-5.80896,-12.9757,Q,Q
2023-03-15 13:43:25:210,0,-3.74191,-5.81912,-12.986,Q,Q
2023-03-15 13:43:25:220,0,-3.77111,-5.81977,-13.0023,Q,Q
2023-03-15 13:43:25:231,0,-3.8014,-5.81635,-13.0208,Q,Q
2023-03-15 13:43:25:241,0,-3.82433,-5.80789,-13.0476,Q,Q
2023-03-15 13:43:25:251,0,-3.84006,-5.79947,-13.0763,Q,Q
2023-03-15 13:43:25:261,0,-3.85141,-5.79165,-13.102,Q,Q
2023-03-15 13:43:25:271,0,-3.86782,-5.78196,-13.1245,Q,Q
2023-03-15 13:43:25:281,0,-3.89171,-5.77724,-13.1524,Q,Q
2023-03-15 13:43:25:290,0,-3.91838,-5.78117,-13.1761,Q,Q
2023-03-15 13:43:25:300,0,-3.95114,-5.78571,-13.1979,Q,Q
2023-03-15 13:43:25:310,0,-3.98704,-5.80315,-13.2183,Q,Q
2023-03-15 13:43:25:320,0,-4.02232,-5.82228,-13.24,Q,Q
2023-03-15 13:43:25:330,0,-4.06014,-5.84371,-13.2615,Q,Q
2023-03-15 13:43:25:340,0,-4.09409,-5.86584,-13.2855,Q,Q
2023-03-15 13:43:25:350,0,-4.12251,-5.88904,-13.3106,Q,Q
2023-03-15 13:43:25:360,0,-4.14432,-5.9061,-13.3407,Q,Q
2023-03-15 13:43:25:370,0,-4.16479,-5.92746,-13.379,Q,Q
2023-03-15 13:43:25:381,0,-4.17708,-5.94354,-13.4256,Q,Q
2023-03-15 13:43:25:390,0,-4.17924,-5.96075,-13.4824,Q,Q
2023-03-15 13:43:25:401,0,-4.17201,-5.97848,-13.5474,Q,Q
2023-03-15 13:43:25:410,0,-4.16395,-5.99026,-13.6203,Q,Q
2023-03-15 13:43:25:420,0,-4.14873,-5.99675,-13.7062,Q,Q
2023-03-15 13:43:25:431,0,-4.1439,-6.00142,-13.7875,Q,Q
2023-03-15 13:43:25:441,0,-4.15734,-6.01592,-13.8483,Q,Q
2023-03-15 13:43:25:451,0,-4.20105,-6.04758,-13.8792,Q,Q
2023-03-15 13:43:25:460,0,-4.27506,-6.10296,-13.8779,Q,Q
2023-03-15 13:43:25:471,0,-4.37679,-6.1792,-13.8502,Q,Q
2023-03-15 13:43:25:481,0,-4.48517,-6.26222,-13.8077,Q,Q
2023-03-15 13:43:25:491,0,-4.58873,-6.34696,-13.7527,Q,Q
2023-03-15 13:43:25:501,0,-4.67612,-6.42235,-13.6898,Q,Q
2023-03-15 13:43:25:511,0,-4.73681,-6.47806,-13.6277,Q,Q
2023-03-15 13:43:25:521,0,-4.77263,-6.51095,-13.5724,Q,Q
2023-03-15 13:43:25:530,0,-4.78444,-6.51175,-13.5254,Q,Q
2023-03-15 13:43:25:541,0,-4.77183,-6.47958,-13.4914,Q,Q
2023-03-15 13:43:25:551,0,-4.74898,-6.42705,-13.4687,Q,Q
2023-03-15 13:43:25:561,0,-4.72782,-6.36397,-13.4481,Q,Q
2023-03-15 13:43:25:570,0,-4.71768,-6.29398,-13.4335,Q,Q
2023-03-15 13:43:25:580,0,-4.72685,-6.22331,-13.4278,Q,Q
2023-03-15 13:43:25:591,0,-4.74568,-6.15552,-13.4322,Q,Q
2023-03-15 13:43:25:601,0,-4.77156,-6.09006,-13.4499,Q,Q
2023-03-15 13:43:25:610,0,-4.80112,-6.03538,-13.4783,Q,Q
2023-03-15 13:43:25:621,0,-4.8286,-5.98648,-13.5235,Q,Q
2023-03-15 13:43:25:631,0,-4.85186,-5.947,-13.5807,Q,Q
2023-03-15 13:43:25:641,0,-4.87432,-5.91414,-13.6461,Q,Q
2023-03-15 13:43:25:651,0,-4.89032,-5.89282,-13.7198,Q,Q
2023-03-15 13:43:25:660,0,-4.90566,-5.88015,-13.803,Q,Q
2023-03-15 13:43:25:671,0,-4.9167,-5.88193,-13.8919,Q,Q
2023-03-15 13:43:25:681,0,-4.92413,-5.88677,-13.9867,Q,Q
2023-03-15 13:43:25:690,0,-4.92419,-5.898,-14.0868,Q,Q
2023-03-15 13:43:25:701,0,-4.9122,-5.92127,-14.1901,Q,Q
2023-03-15 13:43:25:711,0,-4.89112,-5.9472,-14.2932,Q,Q
2023-03-15 13:43:25:721,0,-4.8664,-5.98516,-14.3935,Q,Q
2023-03-15 13:43:25:731,0,-4.84315,-6.0227,-14.4858,Q,Q
2023-03-15 13:43:25:740,0,-4.81522,-6.06037,-14.5768,Q,Q
2023-03-15 13:43:25:750,0,-4.78821,-6.09313,-14.6624,Q,Q
2023-03-15 13:43:25:760,0,-4.76778,-6.12235,-14.7424,Q,Q
2023-03-15 13:43:25:770,0,-4.75424,-6.14859,-14.8125,Q,Q
2023-03-15 13:43:25:781,0,-4.74441,-6.16847,-14.8723,Q,Q
2023-03-15 13:43:25:790,0,-4.7393,-6.18596,-14.9265,Q,Q
2023-03-15 13:43:25:800,0,-4.73354,-6.20678,-14.9754,Q,Q
2023-03-15 13:43:25:810,0,-4.72858,-6.21902,-15.0219,Q,Q
2023-03-15 13:43:25:820,0,-4.71918,-6.2281,-15.0624,Q,Q
2023-03-15 13:43:25:830,0,-4.71076,-6.23865,-15.0983,Q,Q
2023-03-15 13:43:25:841,0,-4.71013,-6.24775,-15.1288,Q,Q
2023-03-15 13:43:25:851,0,-4.71501,-6.25126,-15.1507,Q,Q
2023-03-15 13:43:25:860,0,-4.72455,-6.25309,-15.1704,Q,Q
2023-03-15 13:43:25:870,0,-4.73714,-6.25359,-15.1897,Q,Q
2023-03-15 13:43:25:880,0,-4.75103,-6.24711,-15.2093,Q,Q
2023-03-15 13:43:25:890,0,-4.76853,-6.24177,-15.225,Q,Q
2023-03-15 13:43:25:900,0,-4.78665,-6.22703,-15.2395,Q,Q
2023-03-15 13:43:25:910,0,-4.80506,-6.21247,-15.2559,Q,Q
2023-03-15 13:43:25:920,0,-4.82606,-6.19768,-15.2755,Q,Q
2023-03-15 13:43:25:930,0,-4.84638,-6.18007,-15.2928,Q,Q
2023-03-15 13:43:25:940,0,-4.86012,-6.16504,-15.3201,Q,Q
2023-03-15 13:43:25:950,0,-4.86957,-6.14722,-15.3481,Q,Q
2023-03-15 13:43:25:961,0,-4.87502,-6.12929,-15.3765,Q,Q
2023-03-15 13:43:25:971,0,-4.88115,-6.11431,-15.4029,Q,Q
2023-03-15 13:43:25:981,0,-4.88577,-6.09921,-15.4309,Q,Q
2023-03-15 13:43:25:991,0,-4.88832,-6.08311,-15.4636,Q,Q
2023-03-15 13:43:26:1,0,-4.89527,-6.06388,-15.499,Q,Q
2023-03-15 13:43:26:11,0,-4.89582,-6.04808,-15.5373,Q,Q
2023-03-15 13:43:26:21,0,-4.90104,-6.03186,-15.5786,Q,Q
2023-03-15 13:43:26:31,0,-4.89843,-6.02245,-15.6232,Q,Q
2023-03-15 13:43:26:41,0,-4.89058,-6.01906,-15.671,Q,Q
2023-03-15 13:43:26:51,0,-4.88148,-6.01643,-15.7183,Q,Q
2023-03-15 13:43:26:61,0,-4.86584,-6.01435,-15.7654,Q,Q
2023-03-15 13:43:26:71,0,-4.84992,-6.01902,-15.8054,Q,Q
2023-03-15 13:43:26:81,0,-4.83577,-6.02866,-15.8463,Q,Q
2023-03-15 13:43:26:91,0,-4.82433,-6.0375,-15.8856,Q,Q
2023-03-15 13:43:26:101,0,-4.81023,-6.0442,-15.9212,Q,Q
2023-03-15 13:43:26:111,0,-4.79695,-6.05177,-15.9498,Q,Q
2023-03-15 13:43:26:121,0,-4.78854,-6.05864,-15.9732,Q,Q
2023-03-15 13:43:26:131,0,-4.77611,-6.07079,-15.9929,Q,Q
2023-03-15 13:43:26:141,0,-4.76248,-6.08103,-16.0145,Q,Q
2023-03-15 13:43:26:151,0,-4.74734,-6.09339,-16.0311,Q,Q
2023-03-15 13:43:26:161,0,-4.73309,-6.09936,-16.0469,Q,Q
2023-03-15 13:43:26:170,0,-4.71862,-6.10645,-16.0606,Q,Q
2023-03-15 13:43:26:180,0,-4.70874,-6.11333,-16.0734,Q,Q
2023-03-15 13:43:26:190,0,-4.70386,-6.11962,-16.0875,Q,Q
2023-03-15 13:43:26:201,0,-4.69477,-6.12554,-16.1011,Q,Q
2023-03-15 13:43:26:211,0,-4.68828,-6.12668,-16.1166,Q,Q
2023-03-15 13:43:26:221,0,-4.68238,-6.12953,-16.1377,Q,Q
2023-03-15 13:43:26:231,0,-4.67749,-6.13072,-16.1638,Q,Q
2023-03-15 13:43:26:241,0,-4.66953,-6.13115,-16.1909,Q,Q
2023-03-15 13:43:26:251,0,-4.65848,-6.12784,-16.2206,Q,Q
2023-03-15 13:43:26:261,0,-4.65165,-6.12517,-16.2501,Q,Q
2023-03-15 13:43:26:271,0,-4.64796,-6.12208,-16.2771,Q,Q
2023-03-15 13:43:26:281,0,-4.64174,-6.12657,-16.304,Q,Q
2023-03-15 13:43:26:291,0,-4.63938,-6.12532,-16.3316,Q,Q
2023-03-15 13:43:26:301,0,-4.63781,-6.12455,-16.3657,Q,Q
2023-03-15 13:43:26:311,0,-4.64052,-6.12566,-16.3956,Q,Q
2023-03-15 13:43:26:320,0,-4.64137,-6.12426,-16.4273,Q,Q
2023-03-15 13:43:26:331,0,-4.63876,-6.12028,-16.4582,Q,Q
2023-03-15 13:43:26:341,0,-4.63672,-6.11206,-16.4859,Q,Q
2023-03-15 13:43:26:351,0,-4.63201,-6.11113,-16.5146,Q,Q
2023-03-15 13:43:26:361,0,-4.62998,-6.11007,-16.5382,Q,Q
2023-03-15 13:43:26:371,0,-4.62276,-6.11074,-16.5628,Q,Q
2023-03-15 13:43:26:381,0,-4.6128,-6.11258,-16.5895,Q,Q
2023-03-15 13:43:26:391,0,-4.60339,-6.11401,-16.6116,Q,Q
2023-03-15 13:43:26:401,0,-4.59721,-6.11546,-16.6337,Q,Q
2023-03-15 13:43:26:411,0,-4.59161,-6.11642,-16.656,Q,Q
2023-03-15 13:43:26:421,0,-4.58403,-6.11901,-16.6756,Q,Q
2023-03-15 13:43:26:431,0,-4.57055,-6.12882,-16.6985,Q,Q
2023-03-15 13:43:26:441,0,-4.56104,-6.14036,-16.7189,Q,Q
2023-03-15 13:43:26:451,0,-4.55119,-6.15683,-16.7319,Q,Q
2023-03-15 13:43:26:461,0,-4.54646,-6.17583,-16.7444,Q,Q
2023-03-15 13:43:26:471,0,-4.55006,-6.19141,-16.7573,Q,Q
2023-03-15 13:43:26:481,0,-4.55157,-6.20321,-16.7707,Q,Q
2023-03-15 13:43:26:491,0,-4.5576,-6.21948,-16.7835,Q,Q
2023-03-15 13:43:26:501,0,-4.56778,-6.23187,-16.7953,Q,Q
2023-03-15 13:43:26:511,0,-4.57469,-6.24913,-16.8083,Q,Q
2023-03-15 13:43:26:521,0,-4.58245,-6.26311,-16.816,Q,Q
2023-03-15 13:43:26:531,0,-4.58022,-6.27826,-16.8259,Q,Q
2023-03-15 13:43:26:541,0,-4.57666,-6.28842,-16.8365,Q,Q
2023-03-15 13:43:26:551,0,-4.5721,-6.296,-16.8474,Q,Q
2023-03-15 13:43:26:561,0,-4.56882,-6.30029,-16.8593,Q,Q
2023-03-15 13:43:26:571,0,-4.56659,-6.3073,-16.8721,Q,Q
2023-03-15 13:43:26:581,0,-4.56608,-6.31273,-16.884,Q,Q
2023-03-15 13:43:26:591,0,-4.56737,-6.3177,-16.8984,Q,Q
2023-03-15 13:43:26:601,0,-4.56834,-6.32318,-16.9153,Q,Q
2023-03-15 13:43:26:611,0,-4.5728,-6.33377,-16.9362,Q,Q
2023-03-15 13:43:26:621,0,-4.5758,-6.34251,-16.9584,Q,Q
2023-03-15 13:43:26:631,0,-4.58023,-6.34761,-16.983,Q,Q
2023-03-15 13:43:26:641,0,-4.58544,-6.35331,-17.0053,Q,Q
2023-03-15 13:43:26:651,0,-4.59227,-6.35779,-17.0303,Q,Q
2023-03-15 13:43:26:661,0,-4.60101,-6.35985,-17.0525,Q,Q
2023-03-15 13:43:26:671,0,-4.60837,-6.36057,-17.0784,Q,Q
2023-03-15 13:43:26:681,0,-4.61337,-6.35492,-17.101,Q,Q
2023-03-15 13:43:26:691,0,-4.61349,-6.36007,-17.125,Q,Q
2023-03-15 13:43:26:701,0,-4.61268,-6.3638,-17.1489,Q,Q
2023-03-15 13:43:26:711,0,-4.60938,-6.36501,-17.1702,Q,Q
2023-03-15 13:43:26:721,0,-4.60178,-6.36188,-17.1944,Q,Q
2023-03-15 13:43:26:731,0,-4.59193,-6.35903,-17.2206,Q,Q
2023-03-15 13:43:26:741,0,-4.58122,-6.35904,-17.2449,Q,Q
2023-03-15 13:43:26:751,0,-4.56837,-6.35374,-17.2667,Q,Q
2023-03-15 13:43:26:761,0,-4.55952,-6.34665,-17.2876,Q,Q
2023-03-15 13:43:26:771,0,-4.55085,-6.33864,-17.3062,Q,Q
2023-03-15 13:43:26:781,0,-4.53722,-6.32997,-17.3213,Q,Q
2023-03-15 13:43:26:791,0,-4.52262,-6.32098,-17.3319,Q,Q
2023-03-15 13:43:26:801,0,-4.50392,-6.31066,-17.3388,Q,Q
2023-03-15 13:43:26:811,0,-4.48612,-6.30652,-17.3458,Q,Q
2023-03-15 13:43:26:821,0,-4.467,-6.30246,-17.3468,Q,Q
2023-03-15 13:43:26:830,0,-4.451,-6.29848,-17.3434,Q,Q
2023-03-15 13:43:26:841,0,-4.43498,-6.29174,-17.3378,Q,Q
2023-03-15 13:43:26:851,0,-4.42256,-6.28428,-17.3314,Q,Q
2023-03-15 13:43:26:861,0,-4.41229,-6.27729,-17.3255,Q,Q
2023-03-15 13:43:26:871,0,-4.40458,-6.27029,-17.3141,Q,Q
2023-03-15 13:43:26:881,0,-4.39602,-6.26058,-17.308,Q,Q
2023-03-15 13:43:26:891,0,-4.38528,-6.25272,-17.3001,Q,Q
2023-03-15 13:43:26:901,0,-4.37281,-6.24695,-17.2906,Q,Q
2023-03-15 13:43:26:911,0,-4.36298,-6.23654,-17.2805,Q,Q
2023-03-15 13:43:26:921,0,-4.35305,-6.22538,-17.2682,Q,Q
2023-03-15 13:43:26:931,0,-4.34487,-6.21508,-17.2558,Q,Q
2023-03-15 13:43:26:941,0,-4.33554,-6.20163,-17.2428,Q,Q
2023-03-15 13:43:26:951,0,-4.3277,-6.18979,-17.2282,Q,Q
2023-03-15 13:43:26:961,0,-4.32068,-6.17308,-17.2152,Q,Q
2023-03-15 13:43:26:971,0,-4.31362,-6.15531,-17.1998,Q,Q
2023-03-15 13:43:26:981,0,-4.30896,-6.13777,-17.188,Q,Q
2023-03-15 13:43:26:991,0,-4.30278,-6.12182,-17.1765,Q,Q
2023-03-15 13:43:27:1,0,-4.2985,-6.10682,-17.166,Q,Q
2023-03-15 13:43:27:11,0,-4.28777,-6.09189,-17.1542,Q,Q
2023-03-15 13:43:27:21,0,-4.27363,-6.07736,-17.1427,Q,Q
2023-03-15 13:43:27:31,0,-4.25711,-6.05784,-17.1333,Q,Q
2023-03-15 13:43:27:41,0,-4.24085,-6.04017,-17.1241,Q,Q
2023-03-15 13:43:27:51,0,-4.22408,-6.02656,-17.1171,Q,Q
2023-03-15 13:43:27:61,0,-4.21008,-6.01498,-17.1077,Q,Q
2023-03-15 13:43:27:71,0,-4.19836,-6.00263,-17.0996,Q,Q
2023-03-15 13:43:27:81,0,-4.18841,-5.99277,-17.0905,Q,Q
2023-03-15 13:43:27:91,0,-4.1806,-5.98447,-17.0839,Q,Q
2023-03-15 13:43:27:101,0,-4.17433,-5.97233,-17.0763,Q,Q
2023-03-15 13:43:27:111,0,-4.16341,-5.95695,-17.0702,Q,Q
2023-03-15 13:43:27:121,0,-4.15309,-5.94355,-17.0662,Q,Q
2023-03-15 13:43:27:131,0,-4.14292,-5.93233,-17.064,Q,Q
2023-03-15 13:43:27:141,0,-4.13043,-5.92153,-17.0555,Q,Q
2023-03-15 13:43:27:151,0,-4.11844,-5.90987,-17.0512,Q,Q
2023-03-15 13:43:27:161,0,-4.10652,-5.89687,-17.0439,Q,Q
2023-03-15 13:43:27:170,0,-4.09765,-5.88294,-17.0361,Q,Q
2023-03-15 13:43:27:181,0,-4.09124,-5.86784,-17.0316,Q,Q
2023-03-15 13:43:27:191,0,-4.08365,-5.85307,-17.0268,Q,Q
2023-03-15 13:43:27:201,0,-4.07585,-5.84272,-17.0221,Q,Q
2023-03-15 13:43:27:211,0,-4.07175,-5.83762,-17.0108,Q,Q
2023-03-15 13:43:27:221,0,-4.06922,-5.82751,-17.002,Q,Q
2023-03-15 13:43:27:231,0,-4.07216,-5.82175,-16.9947,Q,Q
2023-03-15 13:43:27:241,0,-4.07448,-5.81711,-16.9934,Q,Q
2023-03-15 13:43:27:251,0,-4.07918,-5.81052,-16.9928,Q,Q
2023-03-15 13:43:27:261,0,-4.08455,-5.80468,-16.9966,Q,Q
2023-03-15 13:43:27:271,0,-4.08744,-5.79602,-17.004,Q,Q
2023-03-15 13:43:27:281,0,-4.08857,-5.78994,-17.0093,Q,Q
2023-03-15 13:43:27:291,0,-4.08775,-5.77978,-17.0169,Q,Q
2023-03-15 13:43:27:301,0,-4.08208,-5.77171,-17.0283,Q,Q
2023-03-15 13:43:27:311,0,-4.07568,-5.76246,-17.041,Q,Q
2023-03-15 13:43:27:321,0,-4.06603,-5.74965,-17.0568,Q,Q
2023-03-15 13:43:27:331,0,-4.054,-5.7348,-17.0758,Q,Q
2023-03-15 13:43:27:341,0,-4.04056,-5.72298,-17.0919,Q,Q
2023-03-15 13:43:27:351,0,-4.03243,-5.71185,-17.1099,Q,Q
2023-03-15 13:43:27:361,0,-4.02547,-5.7026,-17.1334,Q,Q
2023-03-15 13:43:27:371,0,-4.02561,-5.6952,-17.165,Q,Q
2023-03-15 13:43:27:381,0,-4.02661,-5.68574,-17.2151,Q,Q
2023-03-15 13:43:27:391,0,-4.01881,-5.67244,-17.2847,Q,Q
2023-03-15 13:43:27:401,0,-4.00201,-5.665,-17.3726,Q,Q
2023-03-15 13:43:27:411,0,-3.97836,-5.66269,-17.4688,Q,Q
2023-03-15 13:43:27:421,0,-3.95279,-5.67069,-17.571,Q,Q
2023-03-15 13:43:27:431,0,-3.92723,-5.68268,-17.6787,Q,Q
2023-03-15 13:43:27:441,0,-3.89771,-5.70321,-17.7841,Q,Q
2023-03-15 13:43:27:451,0,-3.86763,-5.72525,-17.885,Q,Q
2023-03-15 13:43:27:461,0,-3.83824,-5.74646,-17.9825,Q,Q
2023-03-15 13:43:27:471,0,-3.81137,-5.76786,-18.0721,Q,Q
2023-03-15 13:43:27:481,0,-3.7913,-5.78553,-18.1514,Q,Q
2023-03-15 13:43:27:491,0,-3.77002,-5.79786,-18.2211,Q,Q
2023-03-15 13:43:27:501,0,-3.74939,-5.80418,-18.2792,Q,Q
2023-03-15 13:43:27:511,0,-3.72736,-5.80494,-18.3224,Q,Q
2023-03-15 13:43:27:521,0,-3.70213,-5.79519,-18.3484,Q,Q
2023-03-15 13:43:27:531,0,-3.67599,-5.78095,-18.3592,Q,Q
2023-03-15 13:43:27:541,0,-3.645,-5.75798,-18.3558,Q,Q
2023-03-15 13:43:27:551,0,-3.61578,-5.73074,-18.3376,Q,Q
2023-03-15 13:43:27:561,0,-3.58498,-5.70972,-18.3075,Q,Q
2023-03-15 13:43:27:571,0,-3.55782,-5.69541,-18.2587,Q,Q
2023-03-15 13:43:27:581,0,-3.53666,-5.6798,-18.1975,Q,Q
2023-03-15 13:43:27:591,0,-3.5176,-5.66656,-18.1242,Q,Q
2023-03-15 13:43:27:601,0,-3.49237,-5.65322,-18.0476,Q,Q
2023-03-15 13:43:27:611,0,-3.45836,-5.6369,-17.9696,Q,Q
2023-03-15 13:43:27:621,0,-3.41678,-5.61246,-17.8837,Q,Q
2023-03-15 13:43:27:631,0,-3.37289,-5.59064,-17.7933,Q,Q
2023-03-15 13:43:27:641,0,-3.3331,-5.57539,-17.702,Q,Q
2023-03-15 13:43:27:651,0,-3.30087,-5.57124,-17.6058,Q,Q
2023-03-15 13:43:27:661,0,-3.27588,-5.57301,-17.5096,Q,Q
2023-03-15 13:43:27:671,0,-3.25456,-5.57625,-17.4169,Q,Q
2023-03-15 13:43:27:681,0,-3.22743,-5.58081,-17.3277,Q,Q
2023-03-15 13:43:27:691,0,-3.20345,-5.58723,-17.2361,Q,Q
2023-03-15 13:43:27:701,0,-3.17946,-5.58454,-17.1479,Q,Q
2023-03-15 13:43:27:711,0,-3.14793,-5.58029,-17.0637,Q,Q
2023-03-15 13:43:27:721,0,-3.11063,-5.57755,-16.9845,Q,Q
2023-03-15 13:43:27:731,0,-3.07318,-5.57603,-16.9077,Q,Q
2023-03-15 13:43:27:741,0,-3.03755,-5.58185,-16.8274,Q,Q
2023-03-15 13:43:27:751,0,-3.00671,-5.58856,-16.7506,Q,Q
2023-03-15 13:43:27:761,0,-2.97343,-5.5907,-16.6723,Q,Q
2023-03-15 13:43:27:771,0,-2.9361,-5.59225,-16.5955,Q,Q
2023-03-15 13:43:27:781,0,-2.8934,-5.58208,-16.5201,Q,Q
2023-03-15 13:43:27:791,0,-2.84274,-5.57054,-16.449,Q,Q
2023-03-15 13:43:27:801,0,-2.79401,-5.56101,-16.3758,Q,Q
2023-03-15 13:43:27:811,0,-2.74251,-5.55942,-16.3049,Q,Q
2023-03-15 13:43:27:821,0,-2.69293,-5.55884,-16.2332,Q,Q
2023-03-15 13:43:27:831,0,-2.64959,-5.55834,-16.1605,Q,Q
2023-03-15 13:43:27:841,0,-2.60546,-5.55549,-16.0912,Q,Q
2023-03-15 13:43:27:851,0,-2.55572,-5.54792,-16.0219,Q,Q
2023-03-15 13:43:27:861,0,-2.49783,-5.53096,-15.9484,Q,Q
2023-03-15 13:43:27:871,0,-2.43764,-5.51005,-15.8743,Q,Q
2023-03-15 13:43:27:881,0,-2.37452,-5.49094,-15.8006,Q,Q
2023-03-15 13:43:27:891,0,-2.3106,-5.47728,-15.7253,Q,Q
2023-03-15 13:43:27:901,0,-2.25357,-5.46716,-15.6458,Q,Q
2023-03-15 13:43:27:911,0,-2.20264,-5.46364,-15.5636,Q,Q
2023-03-15 13:43:27:921,0,-2.15242,-5.45218,-15.4813,Q,Q
2023-03-15 13:43:27:931,0,-2.10165,-5.43564,-15.3991,Q,Q
2023-03-15 13:43:27:941,0,-2.04673,-5.41074,-15.316,Q,Q
2023-03-15 13:43:27:951,0,-1.99383,-5.3868,-15.2311,Q,Q
2023-03-15 13:43:27:961,0,-1.94354,-5.36806,-15.1447,Q,Q
2023-03-15 13:43:27:971,0,-1.90208,-5.35791,-15.0631,Q,Q
2023-03-15 13:43:27:981,0,-1.8733,-5.35721,-14.9809,Q,Q
2023-03-15 13:43:27:991,0,-1.85491,-5.36373,-14.9046,Q,Q
2023-03-15 13:43:28:1,0,-1.83451,-5.36458,-14.8343,Q,Q
2023-03-15 13:43:28:11,0,-1.80972,-5.3615,-14.7641,Q,Q
