Timestamp_cmd,imu_cmd,roll_delta,pitch_delta,yaw_delta,voice_type,voice_length
2023-03-15 11:42:53:0,0,-79.7431,0.503026,77.9299,Q,Q
2023-03-15 11:42:53:8,0,-79.7419,0.504836,77.9341,Q,Q
2023-03-15 11:42:53:18,0,-79.7415,0.501272,77.9319,Q,Q
2023-03-15 11:42:53:28,0,-79.7412,0.50299,77.9326,Q,Q
2023-03-15 11:42:53:38,0,-79.7449,0.503936,77.9278,Q,Q
2023-03-15 11:42:53:48,0,-79.7469,0.504139,77.926,Q,Q
2023-03-15 11:42:53:58,0,-79.7471,0.502172,77.9272,Q,Q
2023-03-15 11:42:53:68,0,-79.7428,0.502505,77.9274,Q,Q
2023-03-15 11:42:53:78,0,-79.7444,0.500311,77.9271,Q,Q
2023-03-15 11:42:53:88,0,-79.744,0.50042,77.9256,Q,Q
2023-03-15 11:42:53:98,0,-79.7479,0.497133,77.9242,Q,Q
2023-03-15 11:42:53:108,0,-79.749,0.497077,77.9222,Q,Q
2023-03-15 11:42:53:118,0,-79.7503,0.497577,77.9204,Q,Q
2023-03-15 11:42:53:128,0,-79.7542,0.495798,77.9219,Q,Q
2023-03-15 11:42:53:138,0,-79.7519,0.496096,77.9201,Q,Q
2023-03-15 11:42:53:148,0,-79.7484,0.49494,77.9237,Q,Q
2023-03-15 11:42:53:158,0,-79.7474,0.494669,77.9248,Q,Q
2023-03-15 11:42:53:168,0,-79.747,0.491393,77.9224,Q,Q
2023-03-15 11:42:53:178,0,-79.75,0.492565,77.9241,Q,Q
2023-03-15 11:42:53:188,0,-79.7561,0.496181,77.923,Q,Q
2023-03-15 11:42:53:198,0,-79.7553,0.496187,77.9244,Q,Q
2023-03-15 11:42:53:208,0,-79.7553,0.494943,77.9258,Q,Q
2023-03-15 11:42:53:218,0,-79.7519,0.493272,77.9214,Q,Q
2023-03-15 11:42:53:228,0,-79.7481,0.491745,77.9223,Q,Q
2023-03-15 11:42:53:238,0,-79.7461,0.491418,77.9243,Q,Q
2023-03-15 11:42:53:248,0,-79.747,0.492579,77.9282,Q,Q
2023-03-15 11:42:53:258,0,-79.75,0.492668,77.9253,Q,Q
2023-03-15 11:42:53:268,0,-79.7513,0.495883,77.9239,Q,Q
2023-03-15 11:42:53:278,0,-79.7533,0.497073,77.924,Q,Q
2023-03-15 11:42:53:288,0,-79.7528,0.495697,77.9254,Q,Q
2023-03-15 11:42:53:298,0,-79.7526,0.498093,77.9226,Q,Q
2023-03-15 11:42:53:308,0,-79.749,0.499578,77.9227,Q,Q
2023-03-15 11:42:53:318,0,-79.7499,0.498311,77.9206,Q,Q
2023-03-15 11:42:53:328,0,-79.7519,0.498659,77.9207,Q,Q
2023-03-15 11:42:53:338,0,-79.7526,0.499583,77.9208,Q,Q
2023-03-15 11:42:53:348,0,-79.7522,0.495888,77.918,Q,Q
2023-03-15 11:42:53:358,0,-79.7553,0.495653,77.9145,Q,Q
2023-03-15 11:42:53:368,0,-79.7559,0.495133,77.9134,Q,Q
2023-03-15 11:42:53:378,0,-79.7532,0.497774,77.9134,Q,Q
2023-03-15 11:42:53:388,0,-79.7513,0.497559,77.9135,Q,Q
2023-03-15 11:42:53:398,0,-79.7541,0.497202,77.9129,Q,Q
2023-03-15 11:42:53:408,0,-79.7532,0.497388,77.9112,Q,Q
2023-03-15 11:42:53:418,0,-79.7545,0.499763,77.91,Q,Q
2023-03-15 11:42:53:428,0,-79.756,0.501056,77.9082,Q,Q
2023-03-15 11:42:53:438,0,-79.7564,0.500402,77.9094,Q,Q
2023-03-15 11:42:53:448,0,-79.7564,0.502036,77.911,Q,Q
2023-03-15 11:42:53:458,0,-79.7602,0.502587,77.9122,Q,Q
2023-03-15 11:42:53:468,0,-79.7612,0.503635,77.912,Q,Q
2023-03-15 11:42:53:478,0,-79.7599,0.502545,77.9122,Q,Q
2023-03-15 11:42:53:488,0,-79.7587,0.502255,77.9133,Q,Q
2023-03-15 11:42:53:498,0,-79.7573,0.500551,77.9136,Q,Q
2023-03-15 11:42:53:508,0,-79.7578,0.498789,77.9137,Q,Q
2023-03-15 11:42:53:518,0,-79.759,0.495678,77.9139,Q,Q
2023-03-15 11:42:53:528,0,-79.7573,0.494685,77.9136,Q,Q
2023-03-15 11:42:53:538,0,-79.7594,0.500084,77.9156,Q,Q
2023-03-15 11:42:53:548,0,-79.7597,0.499224,77.9109,Q,Q
2023-03-15 11:42:53:558,0,-79.7606,0.499718,77.9106,Q,Q
2023-03-15 11:42:53:568,0,-79.7616,0.500811,77.9098,Q,Q
2023-03-15 11:42:53:578,0,-79.7587,0.500608,77.9116,Q,Q
2023-03-15 11:42:53:588,0,-79.7601,0.50194,77.9089,Q,Q
2023-03-15 11:42:53:598,0,-79.761,0.504898,77.9096,Q,Q
2023-03-15 11:42:53:608,0,-79.7641,0.505154,77.911,Q,Q
2023-03-15 11:42:53:618,0,-79.7636,0.505251,77.9091,Q,Q
2023-03-15 11:42:53:628,0,-79.7652,0.505782,77.9096,Q,Q
2023-03-15 11:42:53:638,0,-79.7634,0.506465,77.9099,Q,Q
2023-03-15 11:42:53:648,0,-79.7643,0.506598,77.9111,Q,Q
2023-03-15 11:42:53:658,0,-79.7646,0.508214,77.9109,Q,Q
2023-03-15 11:42:53:668,0,-79.7662,0.507635,77.9109,Q,Q
2023-03-15 11:42:53:678,0,-79.7688,0.507679,77.9109,Q,Q
2023-03-15 11:42:53:688,0,-79.7684,0.509354,77.9124,Q,Q
2023-03-15 11:42:53:698,0,-79.7693,0.511271,77.9081,Q,Q
2023-03-15 11:42:53:708,0,-79.7687,0.510893,77.9069,Q,Q
2023-03-15 11:42:53:718,0,-79.7672,0.509089,77.9069,Q,Q
2023-03-15 11:42:53:728,0,-79.7678,0.505505,77.909,Q,Q
2023-03-15 11:42:53:738,0,-79.7699,0.503427,77.9085,Q,Q
2023-03-15 11:42:53:748,0,-79.7703,0.502309,77.9071,Q,Q
2023-03-15 11:42:53:758,0,-79.7725,0.500129,77.9084,Q,Q
2023-03-15 11:42:53:768,0,-79.7725,0.501606,77.9063,Q,Q
2023-03-15 11:42:53:778,0,-79.7743,0.500966,77.9048,Q,Q
2023-03-15 11:42:53:788,0,-79.7736,0.499367,77.9034,Q,Q
2023-03-15 11:42:53:798,0,-79.7723,0.496669,77.9052,Q,Q
2023-03-15 11:42:53:808,0,-79.7721,0.495388,77.9041,Q,Q
2023-03-15 11:42:53:818,0,-79.7706,0.494343,77.9024,Q,Q
2023-03-15 11:42:53:828,0,-79.7715,0.492169,77.9043,Q,Q
2023-03-15 11:42:53:838,0,-79.7704,0.491527,77.9037,Q,Q
2023-03-15 11:42:53:848,0,-79.7715,0.491423,77.9041,Q,Q
2023-03-15 11:42:53:858,0,-79.7728,0.488894,77.9044,Q,Q
2023-03-15 11:42:53:868,0,-79.7749,0.493067,77.9058,Q,Q
2023-03-15 11:42:53:878,0,-79.776,0.493494,77.9044,Q,Q
2023-03-15 11:42:53:888,0,-79.7776,0.49123,77.9032,Q,Q
2023-03-15 11:42:53:898,0,-79.7793,0.491207,77.901,Q,Q
2023-03-15 11:42:53:908,0,-79.7804,0.49133,77.9007,Q,Q
2023-03-15 11:42:53:918,0,-79.7798,0.490739,77.9025,Q,Q
2023-03-15 11:42:53:928,0,-79.7804,0.489483,77.9014,Q,Q
2023-03-15 11:42:53:938,0,-79.7809,0.485256,77.8989,Q,Q
2023-03-15 11:42:53:948,0,-79.7804,0.488091,77.9018,Q,Q
2023-03-15 11:42:53:958,0,-79.7802,0.489219,77.9019,Q,Q
2023-03-15 11:42:53:968,0,-79.7783,0.491495,77.9048,Q,Q
2023-03-15 11:42:53:978,0,-79.7779,0.490413,77.9033,Q,Q
2023-03-15 11:42:53:988,0,-79.7787,0.490245,77.9035,Q,Q
2023-03-15 11:42:53:998,0,-79.7742,0.489617,77.9043,Q,Q
2023-03-15 11:42:54:8,0,-79.7706,0.488767,77.904,Q,Q
2023-03-15 11:42:54:18,0,-79.7711,0.48858,77.9045,Q,Q
2023-03-15 11:42:54:28,0,-79.7678,0.488386,77.903,Q,Q
2023-03-15 11:42:54:38,0,-79.7671,0.489157,77.9005,Q,Q
2023-03-15 11:42:54:48,0,-79.7683,0.491293,77.9025,Q,Q
2023-03-15 11:42:54:58,0,-79.769,0.490219,77.9018,Q,Q
2023-03-15 11:42:54:68,0,-79.7645,0.489103,77.9003,Q,Q
2023-03-15 11:42:54:78,0,-79.7625,0.493738,77.9016,Q,Q
2023-03-15 11:42:54:88,0,-79.7626,0.493109,77.9021,Q,Q
2023-03-15 11:42:54:98,0,-79.7612,0.491459,77.9004,Q,Q
2023-03-15 11:42:54:108,0,-79.7631,0.493095,77.9017,Q,Q
2023-03-15 11:42:54:118,0,-79.7638,0.493004,77.9032,Q,Q
2023-03-15 11:42:54:128,0,-79.763,0.492255,77.9015,Q,Q
2023-03-15 11:42:54:138,0,-79.7615,0.492613,77.9029,Q,Q
2023-03-15 11:42:54:148,0,-79.7609,0.489702,77.9056,Q,Q
2023-03-15 11:42:54:158,0,-79.76,0.489232,77.9031,Q,Q
2023-03-15 11:42:54:168,0,-79.7624,0.487513,77.9037,Q,Q
2023-03-15 11:42:54:178,0,-79.7611,0.489167,77.9029,Q,Q
2023-03-15 11:42:54:188,0,-79.7624,0.486935,77.9035,Q,Q
2023-03-15 11:42:54:198,0,-79.7584,0.487407,77.9051,Q,Q
2023-03-15 11:42:54:208,0,-79.7606,0.488458,77.9061,Q,Q
2023-03-15 11:42:54:218,0,-79.7595,0.484971,77.9041,Q,Q
2023-03-15 11:42:54:228,0,-79.7572,0.483757,77.9037,Q,Q
2023-03-15 11:42:54:238,0,-79.7595,0.484185,77.9016,Q,Q
2023-03-15 11:42:54:248,0,-79.7565,0.485172,77.9032,Q,Q
2023-03-15 11:42:54:258,0,-79.7586,0.486148,77.9034,Q,Q
2023-03-15 11:42:54:268,0,-79.7616,0.48747,77.9004,Q,Q
2023-03-15 11:42:54:279,0,-79.762,0.486091,77.9003,Q,Q
2023-03-15 11:42:54:288,0,-79.7655,0.486075,77.9025,Q,Q
2023-03-15 11:42:54:298,0,-79.7659,0.488641,77.9016,Q,Q
2023-03-15 11:42:54:308,0,-79.7649,0.488602,77.9015,Q,Q
2023-03-15 11:42:54:318,0,-79.7659,0.488022,77.8989,Q,Q
2023-03-15 11:42:54:328,0,-79.7697,0.487161,77.8947,Q,Q
2023-03-15 11:42:54:338,0,-79.7709,0.485154,77.8932,Q,Q
2023-03-15 11:42:54:348,0,-79.7727,0.486483,77.8889,Q,Q
2023-03-15 11:42:54:358,0,-79.7724,0.488582,77.8902,Q,Q
2023-03-15 11:42:54:368,0,-79.7708,0.486359,77.8882,Q,Q
2023-03-15 11:42:54:378,0,-79.7735,0.485505,77.8856,Q,Q
2023-03-15 11:42:54:388,0,-79.779,0.484617,77.8841,Q,Q
2023-03-15 11:42:54:398,0,-79.7811,0.483186,77.8832,Q,Q
2023-03-15 11:42:54:408,0,-79.7794,0.482657,77.8844,Q,Q
2023-03-15 11:42:54:418,0,-79.7804,0.485777,77.8835,Q,Q
2023-03-15 11:42:54:428,0,-79.778,0.485788,77.8814,Q,Q
2023-03-15 11:42:54:438,0,-79.7771,0.487211,77.8808,Q,Q
2023-03-15 11:42:54:448,0,-79.7792,0.484237,77.8814,Q,Q
2023-03-15 11:42:54:458,0,-79.7791,0.48404,77.8833,Q,Q
2023-03-15 11:42:54:468,0,-79.7796,0.48242,77.8844,Q,Q
2023-03-15 11:42:54:478,0,-79.7776,0.48116,77.8836,Q,Q
2023-03-15 11:42:54:488,0,-79.7805,0.480774,77.8823,Q,Q
2023-03-15 11:42:54:498,0,-79.7809,0.483474,77.8821,Q,Q
2023-03-15 11:42:54:508,0,-79.7811,0.481996,77.8835,Q,Q
2023-03-15 11:42:54:518,0,-79.7796,0.479671,77.8835,Q,Q
2023-03-15 11:42:54:528,0,-79.7792,0.479512,77.8838,Q,Q
2023-03-15 11:42:54:538,0,-79.7818,0.477901,77.8827,Q,Q
2023-03-15 11:42:54:548,0,-79.7817,0.475936,77.8848,Q,Q
2023-03-15 11:42:54:558,0,-79.7821,0.479324,77.8844,Q,Q
2023-03-15 11:42:54:568,0,-79.7831,0.477895,77.881,Q,Q
2023-03-15 11:42:54:578,0,-79.7827,0.477824,77.8809,Q,Q
2023-03-15 11:42:54:588,0,-79.7861,0.475885,77.8818,Q,Q
2023-03-15 11:42:54:598,0,-79.7889,0.475087,77.8791,Q,Q
2023-03-15 11:42:54:608,0,-79.7919,0.472176,77.8768,Q,Q
2023-03-15 11:42:54:618,0,-79.7879,0.472804,77.8751,Q,Q
2023-03-15 11:42:54:628,0,-79.7866,0.475472,77.8736,Q,Q
2023-03-15 11:42:54:638,0,-79.7888,0.477289,77.87,Q,Q
2023-03-15 11:42:54:648,0,-79.7888,0.476775,77.8682,Q,Q
2023-03-15 11:42:54:658,0,-79.7893,0.478114,77.8687,Q,Q
2023-03-15 11:42:54:668,0,-79.7882,0.481531,77.8709,Q,Q
2023-03-15 11:42:54:678,0,-79.7896,0.479718,77.871,Q,Q
2023-03-15 11:42:54:688,0,-79.7913,0.478988,77.8713,Q,Q
2023-03-15 11:42:54:698,0,-79.7934,0.479403,77.8725,Q,Q
2023-03-15 11:42:54:708,0,-79.7912,0.480218,77.8685,Q,Q
2023-03-15 11:42:54:718,0,-79.7915,0.481261,77.865,Q,Q
2023-03-15 11:42:54:728,0,-79.7908,0.48066,77.8603,Q,Q
2023-03-15 11:42:54:738,0,-79.7933,0.4827,77.8592,Q,Q
2023-03-15 11:42:54:748,0,-79.7951,0.482824,77.8564,Q,Q
2023-03-15 11:42:54:758,0,-79.7951,0.482659,77.8552,Q,Q
2023-03-15 11:42:54:768,0,-79.7918,0.481615,77.8531,Q,Q
2023-03-15 11:42:54:778,0,-79.792,0.483603,77.8549,Q,Q
2023-03-15 11:42:54:788,0,-79.7901,0.484201,77.8534,Q,Q
2023-03-15 11:42:54:798,0,-79.7929,0.484946,77.8507,Q,Q
2023-03-15 11:42:54:808,0,-79.7939,0.484963,77.8483,Q,Q
2023-03-15 11:42:54:818,0,-79.7978,0.486041,77.8505,Q,Q
2023-03-15 11:42:54:828,0,-79.8005,0.486547,77.8479,Q,Q
2023-03-15 11:42:54:838,0,-79.8002,0.487447,77.8463,Q,Q
2023-03-15 11:42:54:848,0,-79.8012,0.489275,77.8433,Q,Q
2023-03-15 11:42:54:858,0,-79.8,0.485094,77.8427,Q,Q
2023-03-15 11:42:54:868,0,-79.7986,0.484808,77.8439,Q,Q
2023-03-15 11:42:54:878,0,-79.7995,0.487048,77.8421,Q,Q
2023-03-15 11:42:54:888,0,-79.7962,0.486069,77.8433,Q,Q
2023-03-15 11:42:54:898,0,-79.793,0.483473,77.8438,Q,Q
2023-03-15 11:42:54:908,0,-79.7892,0.484004,77.8449,Q,Q
2023-03-15 11:42:54:918,0,-79.7845,0.484265,77.843,Q,Q
2023-03-15 11:42:54:928,0,-79.7837,0.482481,77.844,Q,Q
2023-03-15 11:42:54:938,0,-79.7801,0.480028,77.8447,Q,Q
2023-03-15 11:42:54:948,0,-79.7798,0.478853,77.844,Q,Q
2023-03-15 11:42:54:958,0,-79.7779,0.479839,77.844,Q,Q
2023-03-15 11:42:54:968,0,-79.779,0.476482,77.8427,Q,Q
2023-03-15 11:42:54:978,0,-79.7796,0.477324,77.8427,Q,Q
2023-03-15 11:42:54:988,0,-79.7775,0.48054,77.8415,Q,Q
2023-03-15 11:42:54:998,0,-79.7772,0.483524,77.8421,Q,Q
2023-03-15 11:42:55:8,0,-79.7793,0.484853,77.8453,Q,Q
2023-03-15 11:42:55:18,0,-79.779,0.486413,77.8438,Q,Q
2023-03-15 11:42:55:28,0,-79.779,0.489771,77.8427,Q,Q
2023-03-15 11:42:55:38,0,-79.7749,0.489905,77.8405,Q,Q
2023-03-15 11:42:55:48,0,-79.7782,0.493055,77.8399,Q,Q
2023-03-15 11:42:55:58,0,-79.7801,0.489331,77.839,Q,Q
2023-03-15 11:42:55:68,0,-79.7801,0.492003,77.8379,Q,Q
2023-03-15 11:42:55:78,0,-79.7802,0.491736,77.8356,Q,Q
2023-03-15 11:42:55:88,0,-79.7817,0.492644,77.8347,Q,Q
2023-03-15 11:42:55:98,0,-79.7821,0.492168,77.8357,Q,Q
2023-03-15 11:42:55:108,0,-79.7861,0.492192,77.8345,Q,Q
2023-03-15 11:42:55:118,0,-79.7844,0.49553,77.8344,Q,Q
2023-03-15 11:42:55:128,0,-79.7836,0.499294,77.8313,Q,Q
2023-03-15 11:42:55:138,0,-79.7823,0.500551,77.8295,Q,Q
2023-03-15 11:42:55:148,0,-79.7818,0.500061,77.8282,Q,Q
2023-03-15 11:42:55:158,0,-79.7813,0.499135,77.8264,Q,Q
2023-03-15 11:42:55:168,0,-79.7842,0.499822,77.827,Q,Q
2023-03-15 11:42:55:178,0,-79.7816,0.497629,77.8273,Q,Q
2023-03-15 11:42:55:188,0,-79.7804,0.496641,77.8266,Q,Q
2023-03-15 11:42:55:198,0,-79.7827,0.495325,77.8267,Q,Q
2023-03-15 11:42:55:208,0,-79.7833,0.498243,77.8287,Q,Q
2023-03-15 11:42:55:218,0,-79.7836,0.498903,77.8284,Q,Q
2023-03-15 11:42:55:228,0,-79.7824,0.4993,77.8287,Q,Q
2023-03-15 11:42:55:238,0,-79.784,0.500963,77.8297,Q,Q
2023-03-15 11:42:55:248,0,-79.7818,0.501738,77.8336,Q,Q
2023-03-15 11:42:55:258,0,-79.782,0.502016,77.8312,Q,Q
2023-03-15 11:42:55:268,0,-79.779,0.503223,77.8286,Q,Q
2023-03-15 11:42:55:278,0,-79.7756,0.504208,77.8301,Q,Q
2023-03-15 11:42:55:288,0,-79.7768,0.503419,77.8318,Q,Q
2023-03-15 11:42:55:298,0,-79.7761,0.50449,77.8321,Q,Q
2023-03-15 11:42:55:308,0,-79.7762,0.502574,77.831,Q,Q
2023-03-15 11:42:55:318,0,-79.7816,0.49983,77.8304,Q,Q
2023-03-15 11:42:55:328,0,-79.7821,0.502636,77.8293,Q,Q
2023-03-15 11:42:55:338,0,-79.7802,0.502402,77.8281,Q,Q
2023-03-15 11:42:55:348,0,-79.7827,0.502897,77.8289,Q,Q
2023-03-15 11:42:55:358,0,-79.782,0.503263,77.829,Q,Q
2023-03-15 11:42:55:368,0,-79.7775,0.502718,77.8288,Q,Q
2023-03-15 11:42:55:378,0,-79.7812,0.50523,77.827,Q,Q
2023-03-15 11:42:55:388,0,-79.7826,0.5031,77.8257,Q,Q
2023-03-15 11:42:55:398,0,-79.7863,0.501766,77.8277,Q,Q
2023-03-15 11:42:55:408,0,-79.7893,0.504617,77.8242,Q,Q
2023-03-15 11:42:55:418,0,-79.7869,0.505558,77.8223,Q,Q
2023-03-15 11:42:55:428,0,-79.787,0.507767,77.8223,Q,Q
2023-03-15 11:42:55:438,0,-79.7868,0.508853,77.8215,Q,Q
2023-03-15 11:42:55:448,0,-79.7844,0.50806,77.8217,Q,Q
2023-03-15 11:42:55:458,0,-79.7834,0.508108,77.8222,Q,Q
2023-03-15 11:42:55:468,0,-79.7885,0.508595,77.8196,Q,Q
2023-03-15 11:42:55:478,0,-79.7887,0.506223,77.8191,Q,Q
2023-03-15 11:42:55:488,0,-79.7867,0.506035,77.8196,Q,Q
2023-03-15 11:42:55:498,0,-79.7853,0.503902,77.8166,Q,Q
2023-03-15 11:42:55:508,0,-79.7872,0.50256,77.8147,Q,Q
2023-03-15 11:42:55:518,0,-79.7868,0.502255,77.8117,Q,Q
2023-03-15 11:42:55:528,0,-79.7848,0.502074,77.8119,Q,Q
2023-03-15 11:42:55:538,0,-79.7849,0.504629,77.8133,Q,Q
2023-03-15 11:42:55:548,0,-79.7865,0.504854,77.8118,Q,Q
2023-03-15 11:42:55:558,0,-79.787,0.507671,77.8125,Q,Q
2023-03-15 11:42:55:568,0,-79.7848,0.509235,77.8128,Q,Q
2023-03-15 11:42:55:578,0,-79.7848,0.507965,77.8167,Q,Q
2023-03-15 11:42:55:588,0,-79.783,0.508506,77.8172,Q,Q
2023-03-15 11:42:55:598,0,-79.7809,0.508277,77.8163,Q,Q
2023-03-15 11:42:55:608,0,-79.781,0.507988,77.8141,Q,Q
2023-03-15 11:42:55:618,0,-79.7808,0.507953,77.8151,Q,Q
2023-03-15 11:42:55:628,0,-79.7815,0.504914,77.8166,Q,Q
2023-03-15 11:42:55:638,0,-79.7846,0.502368,77.8189,Q,Q
2023-03-15 11:42:55:648,0,-79.7861,0.502404,77.8222,Q,Q
2023-03-15 11:42:55:658,0,-79.7852,0.502689,77.8209,Q,Q
2023-03-15 11:42:55:668,0,-79.783,0.503646,77.8199,Q,Q
2023-03-15 11:42:55:678,0,-79.7819,0.502095,77.8157,Q,Q
2023-03-15 11:42:55:688,0,-79.7823,0.504971,77.8137,Q,Q
2023-03-15 11:42:55:698,0,-79.7841,0.50346,77.8112,Q,Q
2023-03-15 11:42:55:708,0,-79.7847,0.505557,77.8088,Q,Q
2023-03-15 11:42:55:718,0,-79.7895,0.505159,77.8101,Q,Q
2023-03-15 11:42:55:728,0,-79.7888,0.506457,77.8114,Q,Q
2023-03-15 11:42:55:738,0,-79.7916,0.507474,77.8141,Q,Q
2023-03-15 11:42:55:748,0,-79.7977,0.505159,77.8133,Q,Q
2023-03-15 11:42:55:758,0,-79.8003,0.506694,77.8145,Q,Q
2023-03-15 11:42:55:768,0,-79.801,0.505175,77.8144,Q,Q
2023-03-15 11:42:55:778,0,-79.7998,0.503408,77.8171,Q,Q
2023-03-15 11:42:55:788,0,-79.7978,0.503627,77.8167,Q,Q
2023-03-15 11:42:55:798,0,-79.7995,0.502487,77.8147,Q,Q
2023-03-15 11:42:55:808,0,-79.7978,0.502892,77.8125,Q,Q
2023-03-15 11:42:55:818,0,-79.8023,0.502446,77.8124,Q,Q
2023-03-15 11:42:55:828,0,-79.8004,0.506514,77.811,Q,Q
2023-03-15 11:42:55:838,0,-79.799,0.504618,77.8103,Q,Q
2023-03-15 11:42:55:848,0,-79.7996,0.502123,77.8065,Q,Q
2023-03-15 11:42:55:858,0,-79.7986,0.503504,77.8083,Q,Q
2023-03-15 11:42:55:868,0,-79.7982,0.503354,77.8048,Q,Q
2023-03-15 11:42:55:878,0,-79.7981,0.504062,77.8038,Q,Q
2023-03-15 11:42:55:888,0,-79.8,0.504088,77.8029,Q,Q
2023-03-15 11:42:55:898,0,-79.8019,0.503084,77.8034,Q,Q
2023-03-15 11:42:55:908,0,-79.8032,0.506896,77.8026,Q,Q
2023-03-15 11:42:55:918,0,-79.7948,0.505991,77.8035,Q,Q
2023-03-15 11:42:55:928,0,-79.7936,0.504046,77.8038,Q,Q
2023-03-15 11:42:55:938,0,-79.7948,0.503469,77.8054,Q,Q
2023-03-15 11:42:55:948,0,-79.797,0.499765,77.8059,Q,Q
2023-03-15 11:42:55:958,0,-79.7975,0.497846,77.8061,Q,Q
2023-03-15 11:42:55:968,0,-79.7958,0.492977,77.8052,Q,Q
2023-03-15 11:42:55:978,0,-79.798,0.491223,77.8063,Q,Q
2023-03-15 11:42:55:988,0,-79.7998,0.491577,77.8055,Q,Q
2023-03-15 11:42:55:998,0,-79.8002,0.493621,77.8036,Q,Q
2023-03-15 11:42:56:8,0,-79.8008,0.493423,77.8071,Q,Q
2023-03-15 11:42:56:18,0,-79.8025,0.491627,77.804,Q,Q
2023-03-15 11:42:56:28,0,-79.8031,0.489123,77.8028,Q,Q
2023-03-15 11:42:56:38,0,-79.801,0.488411,77.805,Q,Q
2023-03-15 11:42:56:48,0,-79.801,0.488315,77.8049,Q,Q
2023-03-15 11:42:56:58,0,-79.8014,0.489173,77.8034,Q,Q
2023-03-15 11:42:56:68,0,-79.8013,0.486817,77.8038,Q,Q
2023-03-15 11:42:56:78,0,-79.8019,0.485566,77.804,Q,Q
2023-03-15 11:42:56:88,0,-79.7999,0.485871,77.8031,Q,Q
2023-03-15 11:42:56:98,0,-79.7994,0.483782,77.802,Q,Q
2023-03-15 11:42:56:108,0,-79.7978,0.486275,77.7992,Q,Q
2023-03-15 11:42:56:118,0,-79.7967,0.490903,77.801,Q,Q
2023-03-15 11:42:56:128,0,-79.7987,0.489891,77.8015,Q,Q
2023-03-15 11:42:56:138,0,-79.7988,0.489116,77.8052,Q,Q
2023-03-15 11:42:56:147,0,-79.7986,0.489917,77.8072,Q,Q
2023-03-15 11:42:56:158,0,-79.8007,0.488218,77.8047,Q,Q
2023-03-15 11:42:56:168,0,-79.8006,0.488078,77.8091,Q,Q
2023-03-15 11:42:56:178,0,-79.7963,0.489911,77.8085,Q,Q
2023-03-15 11:42:56:188,0,-79.795,0.488818,77.8116,Q,Q
2023-03-15 11:42:56:198,0,-79.7931,0.487323,77.8102,Q,Q
2023-03-15 11:42:56:208,0,-79.7945,0.48882,77.8082,Q,Q
2023-03-15 11:42:56:218,0,-79.7957,0.490418,77.809,Q,Q
2023-03-15 11:42:56:228,0,-79.7939,0.489633,77.808,Q,Q
2023-03-15 11:42:56:238,0,-79.7954,0.493434,77.8063,Q,Q
2023-03-15 11:42:56:248,0,-79.7945,0.497189,77.8039,Q,Q
2023-03-15 11:42:56:258,0,-79.7927,0.499533,77.8009,Q,Q
2023-03-15 11:42:56:268,0,-79.7879,0.502612,77.8014,Q,Q
2023-03-15 11:42:56:278,0,-79.7841,0.501837,77.8043,Q,Q
2023-03-15 11:42:56:288,0,-79.784,0.5004,77.8033,Q,Q
2023-03-15 11:42:56:298,0,-79.7858,0.499277,77.804,Q,Q
2023-03-15 11:42:56:308,0,-79.7927,0.497633,77.8036,Q,Q
2023-03-15 11:42:56:318,0,-79.7948,0.498112,77.8026,Q,Q
2023-03-15 11:42:56:328,0,-79.7951,0.498043,77.8027,Q,Q
2023-03-15 11:42:56:338,0,-79.7935,0.499308,77.8025,Q,Q
2023-03-15 11:42:56:348,0,-79.7934,0.499456,77.8019,Q,Q
2023-03-15 11:42:56:358,0,-79.7946,0.498728,77.8018,Q,Q
2023-03-15 11:42:56:368,0,-79.7954,0.498213,77.8017,Q,Q
2023-03-15 11:42:56:378,0,-79.7961,0.50028,77.8026,Q,Q
2023-03-15 11:42:56:388,0,-79.792,0.502748,77.8027,Q,Q
2023-03-15 11:42:56:398,0,-79.7917,0.501922,77.8031,Q,Q
2023-03-15 11:42:56:408,0,-79.7922,0.502603,77.8012,Q,Q
2023-03-15 11:42:56:418,0,-79.7947,0.501868,77.7996,Q,Q
2023-03-15 11:42:56:428,0,-79.7953,0.50159,77.7986,Q,Q
2023-03-15 11:42:56:438,0,-79.797,0.499975,77.799,Q,Q
2023-03-15 11:42:56:448,0,-79.7967,0.500471,77.7977,Q,Q
2023-03-15 11:42:56:458,0,-79.7998,0.498945,77.7965,Q,Q
2023-03-15 11:42:56:468,0,-79.7987,0.500887,77.8009,Q,Q
2023-03-15 11:42:56:478,0,-79.7968,0.498446,77.8006,Q,Q
2023-03-15 11:42:56:488,0,-79.7969,0.496848,77.7977,Q,Q
2023-03-15 11:42:56:498,0,-79.7956,0.496129,77.7964,Q,Q
2023-03-15 11:42:56:508,0,-79.7943,0.49662,77.7981,Q,Q
2023-03-15 11:42:56:518,0,-79.7945,0.496501,77.7991,Q,Q
2023-03-15 11:42:56:528,0,-79.7951,0.499077,77.7959,Q,Q
2023-03-15 11:42:56:538,0,-79.7959,0.499342,77.7916,Q,Q
2023-03-15 11:42:56:548,0,-79.8011,0.499624,77.7921,Q,Q
2023-03-15 11:42:56:558,0,-79.8039,0.502065,77.7941,Q,Q
2023-03-15 11:42:56:568,0,-79.8017,0.504126,77.793,Q,Q
2023-03-15 11:42:56:578,0,-79.7974,0.502224,77.7921,Q,Q
2023-03-15 11:42:56:588,0,-79.7945,0.502979,77.7906,Q,Q
2023-03-15 11:42:56:598,0,-79.7948,0.502893,77.7899,Q,Q
2023-03-15 11:42:56:608,0,-79.7944,0.499661,77.7926,Q,Q
2023-03-15 11:42:56:618,0,-79.7959,0.500636,77.7915,Q,Q
2023-03-15 11:42:56:628,0,-79.7946,0.498436,77.7921,Q,Q
2023-03-15 11:42:56:638,0,-79.7959,0.497876,77.7905,Q,Q
2023-03-15 11:42:56:648,0,-79.7948,0.497144,77.7896,Q,Q
2023-03-15 11:42:56:658,0,-79.7914,0.494778,77.7896,Q,Q
2023-03-15 11:42:56:668,0,-79.7911,0.490503,77.7905,Q,Q
2023-03-15 11:42:56:678,0,-79.7938,0.488388,77.7883,Q,Q
2023-03-15 11:42:56:688,0,-79.7948,0.490972,77.7882,Q,Q
2023-03-15 11:42:56:698,0,-79.7947,0.49006,77.7892,Q,Q
2023-03-15 11:42:56:708,0,-79.7964,0.489844,77.785,Q,Q
2023-03-15 11:42:56:718,0,-79.7978,0.488783,77.7814,Q,Q
2023-03-15 11:42:56:728,0,-79.796,0.4876,77.783,Q,Q
2023-03-15 11:42:56:738,0,-79.7947,0.490393,77.7827,Q,Q
2023-03-15 11:42:56:748,0,-79.793,0.491306,77.7816,Q,Q
2023-03-15 11:42:56:758,0,-79.7946,0.493993,77.7805,Q,Q
2023-03-15 11:42:56:768,0,-79.7959,0.492551,77.7829,Q,Q
2023-03-15 11:42:56:778,0,-79.7956,0.491868,77.7833,Q,Q
2023-03-15 11:42:56:788,0,-79.7962,0.492152,77.7804,Q,Q
2023-03-15 11:42:56:798,0,-79.7992,0.492865,77.7787,Q,Q
2023-03-15 11:42:56:808,0,-79.7981,0.490536,77.7802,Q,Q
2023-03-15 11:42:56:818,0,-79.7962,0.488025,77.7791,Q,Q
2023-03-15 11:42:56:828,0,-79.7947,0.487228,77.7781,Q,Q
2023-03-15 11:42:56:838,0,-79.793,0.486559,77.7755,Q,Q
2023-03-15 11:42:56:848,0,-79.7971,0.487582,77.7764,Q,Q
2023-03-15 11:42:56:858,0,-79.7959,0.48622,77.7747,Q,Q
2023-03-15 11:42:56:868,0,-79.7964,0.487375,77.7738,Q,Q
2023-03-15 11:42:56:878,0,-79.7943,0.487205,77.7771,Q,Q
2023-03-15 11:42:56:888,0,-79.7939,0.486885,77.7752,Q,Q
2023-03-15 11:42:56:898,0,-79.7908,0.488186,77.7702,Q,Q
2023-03-15 11:42:56:908,0,-79.7928,0.488175,77.7684,Q,Q
2023-03-15 11:42:56:918,0,-79.7912,0.485641,77.7691,Q,Q
2023-03-15 11:42:56:928,0,-79.7924,0.484638,77.7726,Q,Q
2023-03-15 11:42:56:938,0,-79.7939,0.483724,77.7741,Q,Q
2023-03-15 11:42:56:948,0,-79.7951,0.482718,77.7722,Q,Q
2023-03-15 11:42:56:958,0,-79.7944,0.48283,77.7697,Q,Q
2023-03-15 11:42:56:968,0,-79.7913,0.480617,77.7694,Q,Q
2023-03-15 11:42:56:978,0,-79.7897,0.48399,77.7692,Q,Q
2023-03-15 11:42:56:988,0,-79.7886,0.482048,77.7669,Q,Q
2023-03-15 11:42:56:998,0,-79.7898,0.483352,77.7666,Q,Q
2023-03-15 11:42:57:8,0,-79.7897,0.480856,77.7674,Q,Q
2023-03-15 11:42:57:18,0,-79.792,0.480084,77.7668,Q,Q
2023-03-15 11:42:57:28,0,-79.7909,0.48051,77.7633,Q,Q
2023-03-15 11:42:57:38,0,-79.7914,0.480591,77.7619,Q,Q
2023-03-15 11:42:57:48,0,-79.7916,0.480602,77.7626,Q,Q
2023-03-15 11:42:57:58,0,-79.7905,0.482826,77.7636,Q,Q
2023-03-15 11:42:57:68,0,-79.7874,0.4804,77.7651,Q,Q
2023-03-15 11:42:57:78,0,-79.7838,0.480033,77.7678,Q,Q
2023-03-15 11:42:57:88,0,-79.7829,0.480321,77.7683,Q,Q
2023-03-15 11:42:57:98,0,-79.7858,0.482984,77.7682,Q,Q
2023-03-15 11:42:57:108,0,-79.7898,0.484868,77.7702,Q,Q
2023-03-15 11:42:57:118,0,-79.7916,0.48429,77.7697,Q,Q
2023-03-15 11:42:57:128,0,-79.7887,0.482828,77.7736,Q,Q
2023-03-15 11:42:57:138,0,-79.7898,0.485799,77.7736,Q,Q
2023-03-15 11:42:57:148,0,-79.7908,0.487755,77.772,Q,Q
2023-03-15 11:42:57:158,0,-79.7918,0.489407,77.7729,Q,Q
2023-03-15 11:42:57:168,0,-79.7915,0.489926,77.7744,Q,Q
2023-03-15 11:42:57:178,0,-79.793,0.488175,77.7737,Q,Q
2023-03-15 11:42:57:188,0,-79.7939,0.489652,77.7711,Q,Q
2023-03-15 11:42:57:198,0,-79.7936,0.49016,77.7729,Q,Q
2023-03-15 11:42:57:208,0,-79.7886,0.490711,77.7724,Q,Q
2023-03-15 11:42:57:218,0,-79.7866,0.488263,77.7717,Q,Q
2023-03-15 11:42:57:228,0,-79.7865,0.489004,77.7717,Q,Q
2023-03-15 11:42:57:237,0,-79.7883,0.486552,77.7709,Q,Q
2023-03-15 11:42:57:247,0,-79.7865,0.488186,77.7723,Q,Q
2023-03-15 11:42:57:257,0,-79.7888,0.488076,77.7694,Q,Q
2023-03-15 11:42:57:268,0,-79.7894,0.488485,77.7681,Q,Q
2023-03-15 11:42:57:278,0,-79.7903,0.48861,77.7677,Q,Q
2023-03-15 11:42:57:287,0,-79.7916,0.489129,77.7711,Q,Q
2023-03-15 11:42:57:297,0,-79.789,0.49008,77.7709,Q,Q
2023-03-15 11:42:57:307,0,-79.7894,0.490518,77.7734,Q,Q
2023-03-15 11:42:57:318,0,-79.7879,0.490809,77.7739,Q,Q
2023-03-15 11:42:57:328,0,-79.7877,0.494863,77.7774,Q,Q
2023-03-15 11:42:57:338,0,-79.7852,0.497455,77.7767,Q,Q
2023-03-15 11:42:57:348,0,-79.7849,0.497401,77.7755,Q,Q
2023-03-15 11:42:57:358,0,-79.7855,0.496501,77.7732,Q,Q
2023-03-15 11:42:57:374,0,-79.7842,0.496744,77.7733,Q,Q
2023-03-15 11:42:57:378,0,-79.7836,0.499832,77.7742,Q,Q
2023-03-15 11:42:57:388,0,-79.7853,0.50209,77.7767,Q,Q
2023-03-15 11:42:57:398,0,-79.7795,0.503805,77.7764,Q,Q
2023-03-15 11:42:57:408,0,-79.7818,0.504013,77.7774,Q,Q
2023-03-15 11:42:57:418,0,-79.7837,0.503705,77.7768,Q,Q
2023-03-15 11:42:57:428,0,-79.7824,0.507537,77.7767,Q,Q
2023-03-15 11:42:57:438,0,-79.7828,0.506521,77.7772,Q,Q
2023-03-15 11:42:57:448,0,-79.7869,0.508037,77.7773,Q,Q
2023-03-15 11:42:57:458,0,-79.7894,0.507893,77.779,Q,Q
2023-03-15 11:42:57:468,0,-79.7873,0.506244,77.7802,Q,Q
2023-03-15 11:42:57:478,0,-79.7868,0.505579,77.7813,Q,Q
2023-03-15 11:42:57:488,0,-79.7838,0.505635,77.781,Q,Q
2023-03-15 11:42:57:498,0,-79.7853,0.505617,77.7835,Q,Q
2023-03-15 11:42:57:508,0,-79.7871,0.507442,77.7866,Q,Q
2023-03-15 11:42:57:518,0,-79.7867,0.508221,77.7851,Q,Q
2023-03-15 11:42:57:528,0,-79.7861,0.509391,77.785,Q,Q
2023-03-15 11:42:57:538,0,-79.7875,0.509823,77.7866,Q,Q
2023-03-15 11:42:57:548,0,-79.7869,0.507601,77.787,Q,Q
2023-03-15 11:42:57:558,0,-79.7861,0.505969,77.7875,Q,Q
2023-03-15 11:42:57:568,0,-79.7856,0.504824,77.7882,Q,Q
2023-03-15 11:42:57:578,0,-79.7863,0.507001,77.7899,Q,Q
2023-03-15 11:42:57:588,0,-79.7898,0.507583,77.7874,Q,Q
2023-03-15 11:42:57:598,0,-79.7914,0.508502,77.7916,Q,Q
2023-03-15 11:42:57:608,0,-79.7929,0.506908,77.7903,Q,Q
2023-03-15 11:42:57:618,0,-79.7936,0.505834,77.7918,Q,Q
2023-03-15 11:42:57:628,0,-79.7911,0.508863,77.7942,Q,Q
2023-03-15 11:42:57:637,0,-79.7865,0.50878,77.7952,Q,Q
2023-03-15 11:42:57:648,0,-79.7836,0.508518,77.7963,Q,Q
2023-03-15 11:42:57:658,0,-79.7834,0.51048,77.7946,Q,Q
2023-03-15 11:42:57:668,0,-79.7874,0.510424,77.7937,Q,Q
2023-03-15 11:42:57:678,0,-79.791,0.513604,77.7971,Q,Q
2023-03-15 11:42:57:688,0,-79.791,0.516533,77.7963,Q,Q
2023-03-15 11:42:57:698,0,-79.791,0.515936,77.7947,Q,Q
2023-03-15 11:42:57:708,0,-79.7885,0.518792,77.7947,Q,Q
2023-03-15 11:42:57:718,0,-79.7883,0.519681,77.7937,Q,Q
2023-03-15 11:42:57:728,0,-79.7923,0.522161,77.7933,Q,Q
2023-03-15 11:42:57:738,0,-79.7939,0.521629,77.7943,Q,Q
2023-03-15 11:42:57:748,0,-79.7954,0.523689,77.7964,Q,Q
2023-03-15 11:42:57:758,0,-79.7946,0.521295,77.7962,Q,Q
2023-03-15 11:42:57:768,0,-79.7953,0.51657,77.7954,Q,Q
2023-03-15 11:42:57:778,0,-79.7923,0.516448,77.7945,Q,Q
2023-03-15 11:42:57:788,0,-79.7891,0.514646,77.7941,Q,Q
2023-03-15 11:42:57:798,0,-79.789,0.5169,77.794,Q,Q
2023-03-15 11:42:57:808,0,-79.788,0.516422,77.7933,Q,Q
2023-03-15 11:42:57:818,0,-79.7887,0.519186,77.7929,Q,Q
2023-03-15 11:42:57:828,0,-79.7889,0.521147,77.7907,Q,Q
2023-03-15 11:42:57:838,0,-79.7916,0.522933,77.794,Q,Q
2023-03-15 11:42:57:848,0,-79.7941,0.52299,77.7941,Q,Q
2023-03-15 11:42:57:858,0,-79.7935,0.523379,77.7927,Q,Q
2023-03-15 11:42:57:868,0,-79.7915,0.52384,77.7911,Q,Q
2023-03-15 11:42:57:878,0,-79.7907,0.524986,77.7921,Q,Q
2023-03-15 11:42:57:888,0,-79.7913,0.524813,77.7935,Q,Q
2023-03-15 11:42:57:898,0,-79.7915,0.524922,77.7923,Q,Q
2023-03-15 11:42:57:908,0,-79.7928,0.524885,77.791,Q,Q
2023-03-15 11:42:57:918,0,-79.7966,0.523584,77.7937,Q,Q
2023-03-15 11:42:57:928,0,-79.7999,0.522967,77.792,Q,Q
2023-03-15 11:42:57:938,0,-79.8,0.51991,77.7907,Q,Q
2023-03-15 11:42:57:948,0,-79.7993,0.517222,77.7916,Q,Q
2023-03-15 11:42:57:958,0,-79.7976,0.517967,77.7932,Q,Q
2023-03-15 11:42:57:968,0,-79.7933,0.51799,77.7938,Q,Q
2023-03-15 11:42:57:978,0,-79.7922,0.518189,77.792,Q,Q
2023-03-15 11:42:57:988,0,-79.7939,0.51972,77.7944,Q,Q
2023-03-15 11:42:57:998,0,-79.7943,0.524015,77.7941,Q,Q
2023-03-15 11:42:58:8,0,-79.7948,0.522889,77.7916,Q,Q
2023-03-15 11:42:58:18,0,-79.7944,0.517924,77.7898,Q,Q
2023-03-15 11:42:58:28,0,-79.7948,0.518191,77.7889,Q,Q
2023-03-15 11:42:58:38,0,-79.7927,0.518084,77.7891,Q,Q
2023-03-15 11:42:58:48,0,-79.7912,0.517631,77.7918,Q,Q
2023-03-15 11:42:58:57,0,-79.7928,0.519229,77.7929,Q,Q
2023-03-15 11:42:58:68,0,-79.7911,0.522685,77.7936,Q,Q
2023-03-15 11:42:58:77,0,-79.7953,0.523533,77.7966,Q,Q
2023-03-15 11:42:58:88,0,-79.7916,0.525114,77.7957,Q,Q
2023-03-15 11:42:58:98,0,-79.7957,0.526572,77.7922,Q,Q
2023-03-15 11:42:58:108,0,-79.7954,0.526788,77.7923,Q,Q
2023-03-15 11:42:58:118,0,-79.7947,0.525587,77.7956,Q,Q
2023-03-15 11:42:58:128,0,-79.7941,0.525193,77.7963,Q,Q
2023-03-15 11:42:58:138,0,-79.7904,0.525921,77.7972,Q,Q
2023-03-15 11:42:58:148,0,-79.7909,0.525266,77.7956,Q,Q
2023-03-15 11:42:58:158,0,-79.7936,0.525933,77.7983,Q,Q
2023-03-15 11:42:58:167,0,-79.7936,0.530546,77.7972,Q,Q
2023-03-15 11:42:58:178,0,-79.7942,0.53263,77.798,Q,Q
2023-03-15 11:42:58:188,0,-79.7926,0.532209,77.8003,Q,Q
2023-03-15 11:42:58:198,0,-79.792,0.532625,77.803,Q,Q
2023-03-15 11:42:58:208,0,-79.7902,0.529194,77.8028,Q,Q
2023-03-15 11:42:58:218,0,-79.7853,0.528382,77.8023,Q,Q
2023-03-15 11:42:58:228,0,-79.786,0.529879,77.8014,Q,Q
2023-03-15 11:42:58:238,0,-79.7891,0.52731,77.7999,Q,Q
2023-03-15 11:42:58:248,0,-79.7886,0.530241,77.7999,Q,Q
2023-03-15 11:42:58:258,0,-79.7905,0.529651,77.8019,Q,Q
2023-03-15 11:42:58:268,0,-79.7933,0.53027,77.806,Q,Q
2023-03-15 11:42:58:278,0,-79.7936,0.531588,77.8079,Q,Q
2023-03-15 11:42:58:288,0,-79.7874,0.529671,77.8104,Q,Q
2023-03-15 11:42:58:298,0,-79.7892,0.527624,77.8079,Q,Q
2023-03-15 11:42:58:308,0,-79.791,0.525993,77.8081,Q,Q
2023-03-15 11:42:58:318,0,-79.7934,0.525789,77.8082,Q,Q
2023-03-15 11:42:58:328,0,-79.7918,0.525366,77.8077,Q,Q
2023-03-15 11:42:58:338,0,-79.7909,0.524533,77.8066,Q,Q
2023-03-15 11:42:58:348,0,-79.7896,0.525187,77.8075,Q,Q
2023-03-15 11:42:58:358,0,-79.7879,0.527715,77.807,Q,Q
2023-03-15 11:42:58:368,0,-79.7877,0.527155,77.8069,Q,Q
2023-03-15 11:42:58:378,0,-79.791,0.528743,77.8053,Q,Q
2023-03-15 11:42:58:387,0,-79.7942,0.530462,77.8088,Q,Q
2023-03-15 11:42:58:398,0,-79.797,0.528128,77.8076,Q,Q
2023-03-15 11:42:58:407,0,-79.8018,0.526351,77.8064,Q,Q
2023-03-15 11:42:58:418,0,-79.8003,0.524542,77.8087,Q,Q
2023-03-15 11:42:58:427,0,-79.7993,0.524984,77.8074,Q,Q
2023-03-15 11:42:58:438,0,-79.7945,0.523916,77.8089,Q,Q
2023-03-15 11:42:58:448,0,-79.7951,0.52233,77.8081,Q,Q
2023-03-15 11:42:58:458,0,-79.7915,0.522549,77.8112,Q,Q
2023-03-15 11:42:58:468,0,-79.7959,0.521173,77.814,Q,Q
2023-03-15 11:42:58:478,0,-79.7995,0.519963,77.8137,Q,Q
2023-03-15 11:42:58:488,0,-79.802,0.517147,77.8138,Q,Q
2023-03-15 11:42:58:498,0,-79.8006,0.515203,77.8152,Q,Q
2023-03-15 11:42:58:507,0,-79.7965,0.514973,77.8181,Q,Q
2023-03-15 11:42:58:518,0,-79.7927,0.516384,77.8171,Q,Q
2023-03-15 11:42:58:527,0,-79.7901,0.517624,77.8189,Q,Q
2023-03-15 11:42:58:538,0,-79.7918,0.517256,77.8179,Q,Q
2023-03-15 11:42:58:548,0,-79.7933,0.516798,77.8183,Q,Q
2023-03-15 11:42:58:557,0,-79.7936,0.516392,77.818,Q,Q
2023-03-15 11:42:58:568,0,-79.7943,0.516809,77.8167,Q,Q
2023-03-15 11:42:58:578,0,-79.7994,0.515804,77.8164,Q,Q
2023-03-15 11:42:58:588,0,-79.7978,0.511882,77.8187,Q,Q
2023-03-15 11:42:58:597,0,-79.7954,0.514208,77.8176,Q,Q
2023-03-15 11:42:58:608,0,-79.7941,0.513296,77.8184,Q,Q
2023-03-15 11:42:58:618,0,-79.792,0.513437,77.8205,Q,Q
2023-03-15 11:42:58:627,0,-79.7929,0.511386,77.8208,Q,Q
2023-03-15 11:42:58:637,0,-79.7986,0.508171,77.8225,Q,Q
2023-03-15 11:42:58:648,0,-79.8011,0.507522,77.8208,Q,Q
2023-03-15 11:42:58:657,0,-79.8007,0.508681,77.8224,Q,Q
2023-03-15 11:42:58:668,0,-79.8,0.510486,77.8242,Q,Q
2023-03-15 11:42:58:677,0,-79.7952,0.5133,77.8247,Q,Q
2023-03-15 11:42:58:688,0,-79.7935,0.508809,77.8245,Q,Q
2023-03-15 11:42:58:698,0,-79.7961,0.504855,77.8275,Q,Q
2023-03-15 11:42:58:707,0,-79.7984,0.506877,77.8297,Q,Q
2023-03-15 11:42:58:717,0,-79.7993,0.506447,77.8304,Q,Q
2023-03-15 11:42:58:727,0,-79.7998,0.508059,77.8318,Q,Q
2023-03-15 11:42:58:738,0,-79.8038,0.507599,77.8342,Q,Q
2023-03-15 11:42:58:747,0,-79.8022,0.506609,77.833,Q,Q
2023-03-15 11:42:58:758,0,-79.8025,0.50599,77.8342,Q,Q
2023-03-15 11:42:58:767,0,-79.8019,0.508572,77.8337,Q,Q
2023-03-15 11:42:58:777,0,-79.8016,0.506775,77.8307,Q,Q
2023-03-15 11:42:58:787,0,-79.8014,0.506268,77.83,Q,Q
2023-03-15 11:42:58:797,0,-79.8015,0.506484,77.8294,Q,Q
2023-03-15 11:42:58:807,0,-79.8016,0.508633,77.8308,Q,Q
2023-03-15 11:42:58:817,0,-79.804,0.507329,77.8284,Q,Q
2023-03-15 11:42:58:827,0,-79.8039,0.505884,77.83,Q,Q
2023-03-15 11:42:58:837,0,-79.8041,0.504861,77.8317,Q,Q
2023-03-15 11:42:58:847,0,-79.8044,0.504795,77.831,Q,Q
2023-03-15 11:42:58:857,0,-79.8044,0.502674,77.8295,Q,Q
2023-03-15 11:42:58:867,0,-79.8043,0.502503,77.8316,Q,Q
2023-03-15 11:42:58:877,0,-79.807,0.503027,77.8337,Q,Q
2023-03-15 11:42:58:887,0,-79.8084,0.502843,77.832,Q,Q
2023-03-15 11:42:58:897,0,-79.8091,0.503474,77.831,Q,Q
2023-03-15 11:42:58:907,0,-79.8057,0.505046,77.8313,Q,Q
2023-03-15 11:42:58:917,0,-79.805,0.503433,77.8278,Q,Q
2023-03-15 11:42:58:928,0,-79.8072,0.502206,77.8278,Q,Q
2023-03-15 11:42:58:937,0,-79.8048,0.499428,77.8281,Q,Q
2023-03-15 11:42:58:947,0,-79.8049,0.500056,77.8279,Q,Q
2023-03-15 11:42:58:957,0,-79.8071,0.498813,77.8269,Q,Q
2023-03-15 11:42:58:968,0,-79.8085,0.500131,77.8298,Q,Q
2023-03-15 11:42:58:977,0,-79.8082,0.500171,77.8304,Q,Q
2023-03-15 11:42:58:987,0,-79.8073,0.503312,77.8293,Q,Q
2023-03-15 11:42:58:997,0,-79.8065,0.501254,77.8284,Q,Q
2023-03-15 11:42:59:8,0,-79.8036,0.501411,77.8275,Q,Q
2023-03-15 11:42:59:17,0,-79.8034,0.502165,77.8295,Q,Q
2023-03-15 11:42:59:28,0,-79.806,0.50458,77.8295,Q,Q
2023-03-15 11:42:59:37,0,-79.8048,0.502512,77.8336,Q,Q
2023-03-15 11:42:59:47,0,-79.8067,0.505116,77.8343,Q,Q
2023-03-15 11:42:59:57,0,-79.8054,0.506045,77.833,Q,Q
2023-03-15 11:42:59:68,0,-79.804,0.50359,77.8336,Q,Q
2023-03-15 11:42:59:77,0,-79.8024,0.505327,77.8318,Q,Q
2023-03-15 11:42:59:87,0,-79.7996,0.507976,77.8341,Q,Q
2023-03-15 11:42:59:97,0,-79.7969,0.510498,77.8341,Q,Q
2023-03-15 11:42:59:107,0,-79.7954,0.509628,77.8357,Q,Q
2023-03-15 11:42:59:117,0,-79.7972,0.510396,77.8365,Q,Q
2023-03-15 11:42:59:127,0,-79.7998,0.508821,77.8356,Q,Q
2023-03-15 11:42:59:137,0,-79.7996,0.507437,77.8369,Q,Q
2023-03-15 11:42:59:147,0,-79.7987,0.506156,77.8354,Q,Q
2023-03-15 11:42:59:157,0,-79.7989,0.504482,77.8333,Q,Q
2023-03-15 11:42:59:167,0,-79.8021,0.504785,77.8332,Q,Q
2023-03-15 11:42:59:177,0,-79.8027,0.506978,77.8356,Q,Q
2023-03-15 11:42:59:187,0,-79.8021,0.507408,77.8368,Q,Q
2023-03-15 11:42:59:197,0,-79.8043,0.507305,77.8368,Q,Q
2023-03-15 11:42:59:207,0,-79.8057,0.507021,77.8356,Q,Q
2023-03-15 11:42:59:217,0,-79.8029,0.510595,77.8331,Q,Q
2023-03-15 11:42:59:227,0,-79.8031,0.515986,77.8334,Q,Q
2023-03-15 11:42:59:237,0,-79.7999,0.516276,77.8336,Q,Q
2023-03-15 11:42:59:247,0,-79.801,0.514873,77.8384,Q,Q
2023-03-15 11:42:59:257,0,-79.8023,0.514176,77.8376,Q,Q
2023-03-15 11:42:59:267,0,-79.8007,0.515362,77.8387,Q,Q
2023-03-15 11:42:59:277,0,-79.7987,0.516799,77.8404,Q,Q
2023-03-15 11:42:59:287,0,-79.7988,0.514431,77.8398,Q,Q
2023-03-15 11:42:59:297,0,-79.799,0.514022,77.8408,Q,Q
2023-03-15 11:42:59:307,0,-79.799,0.510656,77.8397,Q,Q
2023-03-15 11:42:59:317,0,-79.801,0.510475,77.8401,Q,Q
2023-03-15 11:42:59:327,0,-79.8012,0.510815,77.8381,Q,Q
2023-03-15 11:42:59:337,0,-79.8044,0.512047,77.838,Q,Q
2023-03-15 11:42:59:347,0,-79.8061,0.509789,77.8366,Q,Q
2023-03-15 11:42:59:357,0,-79.8072,0.511139,77.8353,Q,Q
2023-03-15 11:42:59:368,0,-79.8066,0.510843,77.8361,Q,Q
2023-03-15 11:42:59:377,0,-79.8037,0.511651,77.8351,Q,Q
2023-03-15 11:42:59:387,0,-79.8064,0.513053,77.835,Q,Q
2023-03-15 11:42:59:397,0,-79.8054,0.510188,77.8357,Q,Q
2023-03-15 11:42:59:407,0,-79.8037,0.511416,77.8362,Q,Q
2023-03-15 11:42:59:417,0,-79.807,0.512757,77.8347,Q,Q
2023-03-15 11:42:59:427,0,-79.8092,0.512606,77.8357,Q,Q
2023-03-15 11:42:59:437,0,-79.8098,0.510894,77.8356,Q,Q
2023-03-15 11:42:59:447,0,-79.8109,0.509827,77.8392,Q,Q
2023-03-15 11:42:59:457,0,-79.8118,0.509304,77.8449,Q,Q
2023-03-15 11:42:59:467,0,-79.8098,0.510481,77.8461,Q,Q
2023-03-15 11:42:59:477,0,-79.8117,0.509521,77.8436,Q,Q
2023-03-15 11:42:59:487,0,-79.8125,0.508341,77.8444,Q,Q
2023-03-15 11:42:59:497,0,-79.8111,0.510902,77.8456,Q,Q
2023-03-15 11:42:59:507,0,-79.8071,0.512869,77.842,Q,Q
2023-03-15 11:42:59:517,0,-79.8077,0.510637,77.8422,Q,Q
2023-03-15 11:42:59:527,0,-79.8077,0.509976,77.8437,Q,Q
2023-03-15 11:42:59:537,0,-79.8086,0.508795,77.8449,Q,Q
2023-03-15 11:42:59:548,0,-79.8065,0.509252,77.8457,Q,Q
2023-03-15 11:42:59:557,0,-79.8036,0.510416,77.8409,Q,Q
2023-03-15 11:42:59:567,0,-79.8006,0.510325,77.8426,Q,Q
2023-03-15 11:42:59:577,0,-79.7991,0.511643,77.8424,Q,Q
2023-03-15 11:42:59:587,0,-79.7982,0.512627,77.8386,Q,Q
2023-03-15 11:42:59:597,0,-79.8007,0.514328,77.8378,Q,Q
2023-03-15 11:42:59:607,0,-79.799,0.513654,77.8389,Q,Q
2023-03-15 11:42:59:617,0,-79.8,0.515804,77.8386,Q,Q
2023-03-15 11:42:59:627,0,-79.7994,0.515201,77.8374,Q,Q
2023-03-15 11:42:59:637,0,-79.8012,0.515883,77.8388,Q,Q
2023-03-15 11:42:59:647,0,-79.7947,0.516155,77.8394,Q,Q
2023-03-15 11:42:59:657,0,-79.7929,0.517608,77.8407,Q,Q
2023-03-15 11:42:59:667,0,-79.7948,0.518918,77.8404,Q,Q
2023-03-15 11:42:59:677,0,-79.7959,0.520544,77.8418,Q,Q
2023-03-15 11:42:59:687,0,-79.7962,0.520461,77.8403,Q,Q
2023-03-15 11:42:59:698,0,-79.7977,0.521003,77.8399,Q,Q
2023-03-15 11:42:59:707,0,-79.7979,0.520386,77.8411,Q,Q
2023-03-15 11:42:59:717,0,-79.7996,0.519796,77.8411,Q,Q
2023-03-15 11:42:59:727,0,-79.7995,0.520752,77.84,Q,Q
2023-03-15 11:42:59:737,0,-79.8022,0.521455,77.8396,Q,Q
2023-03-15 11:42:59:747,0,-79.8016,0.520812,77.8363,Q,Q
2023-03-15 11:42:59:757,0,-79.8004,0.519808,77.8355,Q,Q
2023-03-15 11:42:59:767,0,-79.7997,0.52003,77.8341,Q,Q
2023-03-15 11:42:59:777,0,-79.7992,0.518954,77.8321,Q,Q
2023-03-15 11:42:59:787,0,-79.7965,0.519215,77.8338,Q,Q
2023-03-15 11:42:59:797,0,-79.7938,0.518165,77.8357,Q,Q
2023-03-15 11:42:59:807,0,-79.7948,0.519164,77.838,Q,Q
2023-03-15 11:42:59:817,0,-79.792,0.518807,77.838,Q,Q
2023-03-15 11:42:59:827,0,-79.7928,0.517987,77.8366,Q,Q
2023-03-15 11:42:59:837,0,-79.7957,0.521573,77.8322,Q,Q
2023-03-15 11:42:59:847,0,-79.7969,0.522409,77.8306,Q,Q
2023-03-15 11:42:59:857,0,-79.7977,0.516987,77.8261,Q,Q
2023-03-15 11:42:59:867,0,-79.7999,0.516936,77.8262,Q,Q
2023-03-15 11:42:59:877,0,-79.7996,0.51618,77.8275,Q,Q
2023-03-15 11:42:59:887,0,-79.8012,0.517753,77.8267,Q,Q
2023-03-15 11:42:59:897,0,-79.803,0.520937,77.8264,Q,Q
2023-03-15 11:42:59:907,0,-79.8015,0.522863,77.8289,Q,Q
2023-03-15 11:42:59:917,0,-79.8019,0.524195,77.8297,Q,Q
2023-03-15 11:42:59:927,0,-79.7998,0.526474,77.8298,Q,Q
2023-03-15 11:42:59:937,0,-79.799,0.526371,77.8296,Q,Q
2023-03-15 11:42:59:947,0,-79.7997,0.526356,77.8287,Q,Q
2023-03-15 11:42:59:957,0,-79.7989,0.523178,77.8303,Q,Q
2023-03-15 11:42:59:967,0,-79.7972,0.519991,77.8305,Q,Q
2023-03-15 11:42:59:977,0,-79.7972,0.522081,77.832,Q,Q
2023-03-15 11:42:59:987,0,-79.7976,0.522835,77.833,Q,Q
2023-03-15 11:42:59:997,0,-79.7975,0.520812,77.8304,Q,Q
2023-03-15 11:43:00:7,0,-79.7956,0.520129,77.8296,Q,Q
2023-03-15 11:43:00:17,0,-79.797,0.519525,77.8293,Q,Q
2023-03-15 11:43:00:27,0,-79.7955,0.523552,77.8301,Q,Q
2023-03-15 11:43:00:37,0,-79.7958,0.523065,77.8274,Q,Q
2023-03-15 11:43:00:47,0,-79.7967,0.52522,77.8281,Q,Q
2023-03-15 11:43:00:57,0,-79.794,0.523199,77.8231,Q,Q
2023-03-15 11:43:00:67,0,-79.794,0.519674,77.8249,Q,Q
2023-03-15 11:43:00:77,0,-79.792,0.519124,77.8221,Q,Q
2023-03-15 11:43:00:87,0,-79.7927,0.518487,77.8219,Q,Q
2023-03-15 11:43:00:97,0,-79.7905,0.517163,77.8211,Q,Q
2023-03-15 11:43:00:107,0,-79.7907,0.514727,77.8204,Q,Q
2023-03-15 11:43:00:117,0,-79.7888,0.515072,77.8232,Q,Q
2023-03-15 11:43:00:127,0,-79.7856,0.517324,77.8227,Q,Q
2023-03-15 11:43:00:137,0,-79.7833,0.520558,77.8215,Q,Q
2023-03-15 11:43:00:147,0,-79.7807,0.520988,77.8209,Q,Q
2023-03-15 11:43:00:157,0,-79.775,0.521299,77.8229,Q,Q
2023-03-15 11:43:00:167,0,-79.7779,0.521863,77.8243,Q,Q
2023-03-15 11:43:00:177,0,-79.7793,0.52264,77.8242,Q,Q
2023-03-15 11:43:00:187,0,-79.7824,0.520656,77.8251,Q,Q
2023-03-15 11:43:00:197,0,-79.7812,0.51979,77.827,Q,Q
2023-03-15 11:43:00:207,0,-79.7818,0.519946,77.8271,Q,Q
2023-03-15 11:43:00:217,0,-79.7825,0.521374,77.8262,Q,Q
2023-03-15 11:43:00:227,0,-79.7829,0.518322,77.8264,Q,Q
2023-03-15 11:43:00:237,0,-79.7824,0.520681,77.825,Q,Q
2023-03-15 11:43:00:247,0,-79.7833,0.523421,77.8243,Q,Q
2023-03-15 11:43:00:257,0,-79.7856,0.523483,77.8203,Q,Q
2023-03-15 11:43:00:267,0,-79.7855,0.521565,77.8201,Q,Q
2023-03-15 11:43:00:277,0,-79.786,0.521596,77.8194,Q,Q
2023-03-15 11:43:00:287,0,-79.784,0.522128,77.8187,Q,Q
2023-03-15 11:43:00:297,0,-79.7847,0.521239,77.8215,Q,Q
2023-03-15 11:43:00:307,0,-79.7842,0.524081,77.8227,Q,Q
2023-03-15 11:43:00:317,0,-79.7813,0.524721,77.8217,Q,Q
2023-03-15 11:43:00:327,0,-79.7827,0.523958,77.8244,Q,Q
2023-03-15 11:43:00:337,0,-79.7833,0.521275,77.8239,Q,Q
2023-03-15 11:43:00:347,0,-79.784,0.52379,77.825,Q,Q
2023-03-15 11:43:00:357,0,-79.7863,0.523942,77.8243,Q,Q
2023-03-15 11:43:00:367,0,-79.7844,0.522199,77.8267,Q,Q
2023-03-15 11:43:00:377,0,-79.7833,0.518115,77.8283,Q,Q
2023-03-15 11:43:00:387,0,-79.7825,0.517652,77.83,Q,Q
2023-03-15 11:43:00:397,0,-79.7857,0.516671,77.828,Q,Q
2023-03-15 11:43:00:407,0,-79.7889,0.516697,77.8282,Q,Q
2023-03-15 11:43:00:417,0,-79.7892,0.51793,77.8273,Q,Q
2023-03-15 11:43:00:427,0,-79.7933,0.520176,77.8284,Q,Q
2023-03-15 11:43:00:437,0,-79.7943,0.522633,77.8299,Q,Q
2023-03-15 11:43:00:448,0,-79.7929,0.522788,77.8288,Q,Q
2023-03-15 11:43:00:457,0,-79.7925,0.522983,77.8296,Q,Q
2023-03-15 11:43:00:467,0,-79.7937,0.524787,77.8308,Q,Q
2023-03-15 11:43:00:477,0,-79.7934,0.524264,77.8302,Q,Q
2023-03-15 11:43:00:488,0,-79.7923,0.522889,77.8301,Q,Q
2023-03-15 11:43:00:497,0,-79.7922,0.524993,77.8311,Q,Q
2023-03-15 11:43:00:507,0,-79.7924,0.523581,77.8347,Q,Q
2023-03-15 11:43:00:517,0,-79.791,0.52436,77.8356,Q,Q
2023-03-15 11:43:00:527,0,-79.7891,0.522493,77.8353,Q,Q
2023-03-15 11:43:00:537,0,-79.7878,0.523705,77.8348,Q,Q
2023-03-15 11:43:00:547,0,-79.7898,0.524889,77.8342,Q,Q
2023-03-15 11:43:00:557,0,-79.7916,0.527042,77.8337,Q,Q
2023-03-15 11:43:00:567,0,-79.791,0.52523,77.8344,Q,Q
2023-03-15 11:43:00:577,0,-79.7906,0.526303,77.8351,Q,Q
2023-03-15 11:43:00:587,0,-79.7901,0.527675,77.8328,Q,Q
2023-03-15 11:43:00:597,0,-79.7923,0.525373,77.8326,Q,Q
2023-03-15 11:43:00:607,0,-79.7935,0.526013,77.8306,Q,Q
2023-03-15 11:43:00:617,0,-79.7939,0.523415,77.8296,Q,Q
2023-03-15 11:43:00:627,0,-79.7894,0.521661,77.8305,Q,Q
2023-03-15 11:43:00:637,0,-79.7865,0.518724,77.8332,Q,Q
2023-03-15 11:43:00:647,0,-79.7874,0.519349,77.8331,Q,Q
2023-03-15 11:43:00:657,0,-79.7839,0.518847,77.8331,Q,Q
2023-03-15 11:43:00:667,0,-79.7838,0.520756,77.8337,Q,Q
2023-03-15 11:43:00:677,0,-79.7879,0.519379,77.8323,Q,Q
2023-03-15 11:43:00:687,0,-79.786,0.520252,77.835,Q,Q
2023-03-15 11:43:00:697,0,-79.7887,0.520511,77.8378,Q,Q
2023-03-15 11:43:00:707,0,-79.7867,0.517887,77.8387,Q,Q
2023-03-15 11:43:00:717,0,-79.7883,0.51803,77.8381,Q,Q
2023-03-15 11:43:00:727,0,-79.785,0.518628,77.8388,Q,Q
2023-03-15 11:43:00:737,0,-79.785,0.517902,77.8396,Q,Q
2023-03-15 11:43:00:747,0,-79.7822,0.51681,77.8414,Q,Q
2023-03-15 11:43:00:757,0,-79.7821,0.51938,77.8425,Q,Q
2023-03-15 11:43:00:767,0,-79.7817,0.518849,77.8428,Q,Q
2023-03-15 11:43:00:777,0,-79.7848,0.518622,77.8443,Q,Q
2023-03-15 11:43:00:787,0,-79.7858,0.514609,77.8429,Q,Q
2023-03-15 11:43:00:797,0,-79.7844,0.514003,77.8437,Q,Q
2023-03-15 11:43:00:807,0,-79.7853,0.514072,77.8425,Q,Q
2023-03-15 11:43:00:817,0,-79.7887,0.515412,77.8422,Q,Q
2023-03-15 11:43:00:827,0,-79.7906,0.514982,77.8416,Q,Q
2023-03-15 11:43:00:837,0,-79.7926,0.514682,77.8373,Q,Q
2023-03-15 11:43:00:848,0,-79.7937,0.515944,77.8388,Q,Q
2023-03-15 11:43:00:857,0,-79.7937,0.514556,77.84,Q,Q
2023-03-15 11:43:00:867,0,-79.7926,0.515066,77.8375,Q,Q
2023-03-15 11:43:00:877,0,-79.7921,0.514617,77.8366,Q,Q
2023-03-15 11:43:00:887,0,-79.7922,0.516304,77.8362,Q,Q
2023-03-15 11:43:00:897,0,-79.791,0.517456,77.8371,Q,Q
2023-03-15 11:43:00:907,0,-79.7927,0.515593,77.8376,Q,Q
2023-03-15 11:43:00:917,0,-79.7924,0.518777,77.8364,Q,Q
2023-03-15 11:43:00:927,0,-79.7904,0.520222,77.8361,Q,Q
2023-03-15 11:43:00:937,0,-79.7898,0.520882,77.8341,Q,Q
2023-03-15 11:43:00:947,0,-79.7893,0.521793,77.8344,Q,Q
2023-03-15 11:43:00:957,0,-79.7878,0.519105,77.8347,Q,Q
2023-03-15 11:43:00:967,0,-79.7922,0.517946,77.8348,Q,Q
2023-03-15 11:43:00:977,0,-79.791,0.518043,77.8364,Q,Q
2023-03-15 11:43:00:987,0,-79.7914,0.517218,77.835,Q,Q
2023-03-15 11:43:00:997,0,-79.7926,0.517523,77.8363,Q,Q
2023-03-15 11:43:01:8,0,-79.7937,0.515026,77.8354,Q,Q
2023-03-15 11:43:01:17,0,-79.7912,0.516251,77.8364,Q,Q
2023-03-15 11:43:01:27,0,-79.7878,0.518141,77.8342,Q,Q
2023-03-15 11:43:01:37,0,-79.7903,0.518038,77.837,Q,Q
2023-03-15 11:43:01:47,0,-79.7901,0.515457,77.8388,Q,Q
2023-03-15 11:43:01:57,0,-79.7893,0.514601,77.8379,Q,Q
2023-03-15 11:43:01:67,0,-79.7962,0.51166,77.8384,Q,Q
2023-03-15 11:43:01:77,0,-79.7965,0.511768,77.8364,Q,Q
2023-03-15 11:43:01:87,0,-79.7956,0.512011,77.8363,Q,Q
2023-03-15 11:43:01:97,0,-79.7955,0.513117,77.8361,Q,Q
2023-03-15 11:43:01:108,0,-79.7942,0.510945,77.837,Q,Q
2023-03-15 11:43:01:117,0,-79.7945,0.509152,77.8359,Q,Q
2023-03-15 11:43:01:127,0,-79.795,0.510898,77.8357,Q,Q
2023-03-15 11:43:01:137,0,-79.7975,0.511422,77.8381,Q,Q
2023-03-15 11:43:01:148,0,-79.7977,0.509254,77.8353,Q,Q
2023-03-15 11:43:01:157,0,-79.7967,0.507771,77.8377,Q,Q
2023-03-15 11:43:01:167,0,-79.7967,0.509658,77.8362,Q,Q
2023-03-15 11:43:01:177,0,-79.7919,0.506908,77.8361,Q,Q
2023-03-15 11:43:01:188,0,-79.7921,0.507079,77.8361,Q,Q
2023-03-15 11:43:01:197,0,-79.7885,0.506531,77.8388,Q,Q
2023-03-15 11:43:01:207,0,-79.7886,0.507319,77.8379,Q,Q
2023-03-15 11:43:01:217,0,-79.7872,0.50819,77.8394,Q,Q
2023-03-15 11:43:01:227,0,-79.7864,0.507241,77.8392,Q,Q
2023-03-15 11:43:01:237,0,-79.7878,0.507679,77.8395,Q,Q
2023-03-15 11:43:01:247,0,-79.7901,0.506393,77.8405,Q,Q
2023-03-15 11:43:01:257,0,-79.786,0.502772,77.8411,Q,Q
2023-03-15 11:43:01:267,0,-79.7859,0.501931,77.8437,Q,Q
2023-03-15 11:43:01:277,0,-79.7817,0.502746,77.8435,Q,Q
2023-03-15 11:43:01:287,0,-79.7803,0.503282,77.8425,Q,Q
2023-03-15 11:43:01:297,0,-79.7812,0.503409,77.8439,Q,Q
2023-03-15 11:43:01:307,0,-79.7842,0.500345,77.8439,Q,Q
2023-03-15 11:43:01:317,0,-79.7859,0.502569,77.8435,Q,Q
2023-03-15 11:43:01:327,0,-79.788,0.502336,77.8452,Q,Q
2023-03-15 11:43:01:337,0,-79.787,0.501089,77.844,Q,Q
2023-03-15 11:43:01:347,0,-79.7885,0.50038,77.8415,Q,Q
2023-03-15 11:43:01:357,0,-79.786,0.497784,77.8427,Q,Q
2023-03-15 11:43:01:367,0,-79.7858,0.495463,77.8463,Q,Q
2023-03-15 11:43:01:377,0,-79.7852,0.492361,77.8484,Q,Q
2023-03-15 11:43:01:388,0,-79.7839,0.493362,77.848,Q,Q
2023-03-15 11:43:01:398,0,-79.7839,0.495711,77.8481,Q,Q
2023-03-15 11:43:01:407,0,-79.7847,0.495835,77.8492,Q,Q
2023-03-15 11:43:01:417,0,-79.7821,0.497844,77.8485,Q,Q
2023-03-15 11:43:01:427,0,-79.7847,0.499186,77.8466,Q,Q
2023-03-15 11:43:01:438,0,-79.7821,0.498063,77.8449,Q,Q
2023-03-15 11:43:01:447,0,-79.7817,0.497633,77.8442,Q,Q
2023-03-15 11:43:01:457,0,-79.7785,0.500262,77.8427,Q,Q
2023-03-15 11:43:01:467,0,-79.7779,0.501743,77.8448,Q,Q
2023-03-15 11:43:01:477,0,-79.7751,0.504351,77.8403,Q,Q
2023-03-15 11:43:01:487,0,-79.7757,0.504861,77.8413,Q,Q
2023-03-15 11:43:01:497,0,-79.775,0.506136,77.8423,Q,Q
2023-03-15 11:43:01:507,0,-79.7767,0.508533,77.8443,Q,Q
2023-03-15 11:43:01:517,0,-79.7762,0.507083,77.8448,Q,Q
2023-03-15 11:43:01:527,0,-79.7781,0.506864,77.8423,Q,Q
2023-03-15 11:43:01:537,0,-79.7789,0.506541,77.8425,Q,Q
2023-03-15 11:43:01:547,0,-79.7768,0.508712,77.8405,Q,Q
2023-03-15 11:43:01:557,0,-79.7739,0.508753,77.8411,Q,Q
2023-03-15 11:43:01:567,0,-79.7759,0.510172,77.8376,Q,Q
2023-03-15 11:43:01:577,0,-79.7794,0.506827,77.8347,Q,Q
2023-03-15 11:43:01:587,0,-79.7797,0.504519,77.8343,Q,Q
2023-03-15 11:43:01:597,0,-79.7798,0.503767,77.834,Q,Q
2023-03-15 11:43:01:607,0,-79.7805,0.504032,77.8301,Q,Q
2023-03-15 11:43:01:617,0,-79.781,0.503838,77.831,Q,Q
2023-03-15 11:43:01:627,0,-79.7831,0.504567,77.8301,Q,Q
2023-03-15 11:43:01:637,0,-79.7841,0.503809,77.828,Q,Q
2023-03-15 11:43:01:647,0,-79.7856,0.503398,77.827,Q,Q
2023-03-15 11:43:01:657,0,-79.7846,0.504147,77.8258,Q,Q
2023-03-15 11:43:01:667,0,-79.7852,0.501668,77.8246,Q,Q
2023-03-15 11:43:01:677,0,-79.7847,0.502939,77.8271,Q,Q
2023-03-15 11:43:01:687,0,-79.7887,0.500847,77.8291,Q,Q
2023-03-15 11:43:01:697,0,-79.7923,0.49972,77.828,Q,Q
2023-03-15 11:43:01:707,0,-79.7929,0.496559,77.8282,Q,Q
2023-03-15 11:43:01:717,0,-79.7941,0.49553,77.8303,Q,Q
2023-03-15 11:43:01:727,0,-79.7917,0.493134,77.8309,Q,Q
2023-03-15 11:43:01:737,0,-79.789,0.494326,77.8324,Q,Q
2023-03-15 11:43:01:747,0,-79.785,0.494521,77.8324,Q,Q
2023-03-15 11:43:01:757,0,-79.7882,0.49524,77.8341,Q,Q
2023-03-15 11:43:01:767,0,-79.7894,0.498932,77.8338,Q,Q
2023-03-15 11:43:01:777,0,-79.7891,0.497948,77.834,Q,Q
2023-03-15 11:43:01:787,0,-79.788,0.494806,77.8347,Q,Q
2023-03-15 11:43:01:797,0,-79.7855,0.496904,77.8372,Q,Q
2023-03-15 11:43:01:807,0,-79.7869,0.498584,77.8416,Q,Q
2023-03-15 11:43:01:817,0,-79.7857,0.499768,77.8399,Q,Q
2023-03-15 11:43:01:827,0,-79.7852,0.497439,77.8405,Q,Q
2023-03-15 11:43:01:837,0,-79.7865,0.495653,77.841,Q,Q
2023-03-15 11:43:01:847,0,-79.786,0.495833,77.838,Q,Q
2023-03-15 11:43:01:857,0,-79.7863,0.494407,77.8375,Q,Q
2023-03-15 11:43:01:867,0,-79.7891,0.495725,77.8386,Q,Q
2023-03-15 11:43:01:877,0,-79.7885,0.498688,77.8362,Q,Q
2023-03-15 11:43:01:887,0,-79.7907,0.498275,77.8349,Q,Q
2023-03-15 11:43:01:897,0,-79.7905,0.497916,77.8374,Q,Q
2023-03-15 11:43:01:907,0,-79.7896,0.495796,77.8401,Q,Q
2023-03-15 11:43:01:917,0,-79.7889,0.496343,77.8378,Q,Q
2023-03-15 11:43:01:927,0,-79.7878,0.497149,77.8387,Q,Q
2023-03-15 11:43:01:937,0,-79.7904,0.49824,77.8418,Q,Q
2023-03-15 11:43:01:947,0,-79.7913,0.496244,77.8411,Q,Q
2023-03-15 11:43:01:957,0,-79.7958,0.495135,77.8448,Q,Q
2023-03-15 11:43:01:967,0,-79.799,0.495316,77.8442,Q,Q
2023-03-15 11:43:01:977,0,-79.7987,0.494904,77.842,Q,Q
2023-03-15 11:43:01:987,0,-79.8014,0.49489,77.8438,Q,Q
2023-03-15 11:43:01:997,0,-79.8034,0.498166,77.8413,Q,Q
2023-03-15 11:43:02:7,0,-79.8038,0.497425,77.8377,Q,Q
2023-03-15 11:43:02:17,0,-79.8072,0.496515,77.839,Q,Q
2023-03-15 11:43:02:27,0,-79.8051,0.494138,77.8406,Q,Q
2023-03-15 11:43:02:37,0,-79.8062,0.493423,77.8418,Q,Q
2023-03-15 11:43:02:47,0,-79.8076,0.496171,77.8428,Q,Q
2023-03-15 11:43:02:57,0,-79.8079,0.494886,77.8448,Q,Q
2023-03-15 11:43:02:67,0,-79.8089,0.497525,77.8449,Q,Q
2023-03-15 11:43:02:77,0,-79.8077,0.4966,77.8451,Q,Q
2023-03-15 11:43:02:87,0,-79.8063,0.498088,77.8443,Q,Q
2023-03-15 11:43:02:97,0,-79.8066,0.49877,77.8443,Q,Q
2023-03-15 11:43:02:107,0,-79.8045,0.500896,77.8437,Q,Q
2023-03-15 11:43:02:117,0,-79.8034,0.501047,77.8441,Q,Q
2023-03-15 11:43:02:127,0,-79.8052,0.501191,77.8452,Q,Q
2023-03-15 11:43:02:137,0,-79.8053,0.501471,77.8437,Q,Q
2023-03-15 11:43:02:147,0,-79.803,0.504273,77.8474,Q,Q
2023-03-15 11:43:02:157,0,-79.8016,0.504309,77.8516,Q,Q
2023-03-15 11:43:02:167,0,-79.8024,0.504034,77.8543,Q,Q
2023-03-15 11:43:02:177,0,-79.8054,0.503579,77.8515,Q,Q
2023-03-15 11:43:02:187,0,-79.8031,0.502599,77.8504,Q,Q
2023-03-15 11:43:02:197,0,-79.8012,0.502598,77.8519,Q,Q
2023-03-15 11:43:02:207,0,-79.8022,0.503681,77.8518,Q,Q
2023-03-15 11:43:02:217,0,-79.7997,0.501854,77.8512,Q,Q
2023-03-15 11:43:02:227,0,-79.7983,0.501738,77.85,Q,Q
2023-03-15 11:43:02:237,0,-79.7963,0.502716,77.8513,Q,Q
2023-03-15 11:43:02:247,0,-79.7925,0.500601,77.8527,Q,Q
2023-03-15 11:43:02:257,0,-79.7885,0.500106,77.8547,Q,Q
2023-03-15 11:43:02:267,0,-79.786,0.498738,77.8497,Q,Q
2023-03-15 11:43:02:277,0,-79.7865,0.501224,77.8482,Q,Q
2023-03-15 11:43:02:287,0,-79.7868,0.49989,77.8468,Q,Q
2023-03-15 11:43:02:297,0,-79.7878,0.496392,77.8458,Q,Q
2023-03-15 11:43:02:307,0,-79.7855,0.499838,77.846,Q,Q
2023-03-15 11:43:02:317,0,-79.7865,0.499325,77.8475,Q,Q
2023-03-15 11:43:02:327,0,-79.7848,0.49968,77.8478,Q,Q
2023-03-15 11:43:02:337,0,-79.7862,0.50185,77.8508,Q,Q
2023-03-15 11:43:02:347,0,-79.7881,0.502109,77.8506,Q,Q
2023-03-15 11:43:02:357,0,-79.7869,0.496835,77.8486,Q,Q
2023-03-15 11:43:02:367,0,-79.7836,0.495706,77.8501,Q,Q
2023-03-15 11:43:02:377,0,-79.783,0.49571,77.8512,Q,Q
2023-03-15 11:43:02:387,0,-79.7838,0.497584,77.8498,Q,Q
2023-03-15 11:43:02:397,0,-79.784,0.497163,77.8509,Q,Q
2023-03-15 11:43:02:407,0,-79.7823,0.495152,77.8479,Q,Q
2023-03-15 11:43:02:417,0,-79.7819,0.496689,77.85,Q,Q
2023-03-15 11:43:02:427,0,-79.7824,0.496516,77.8495,Q,Q
2023-03-15 11:43:02:437,0,-79.7844,0.497477,77.8499,Q,Q
2023-03-15 11:43:02:447,0,-79.7862,0.500179,77.8495,Q,Q
2023-03-15 11:43:02:457,0,-79.7869,0.500161,77.8483,Q,Q
2023-03-15 11:43:02:467,0,-79.7859,0.497424,77.8464,Q,Q
2023-03-15 11:43:02:477,0,-79.7896,0.499523,77.8466,Q,Q
2023-03-15 11:43:02:487,0,-79.7888,0.498503,77.8463,Q,Q
2023-03-15 11:43:02:497,0,-79.7878,0.498475,77.849,Q,Q
2023-03-15 11:43:02:507,0,-79.7867,0.49653,77.8484,Q,Q
2023-03-15 11:43:02:517,0,-79.7846,0.498495,77.8485,Q,Q
2023-03-15 11:43:02:527,0,-79.7854,0.500047,77.8501,Q,Q
2023-03-15 11:43:02:537,0,-79.786,0.497846,77.8518,Q,Q
2023-03-15 11:43:02:547,0,-79.7859,0.500151,77.852,Q,Q
2023-03-15 11:43:02:557,0,-79.787,0.499373,77.8492,Q,Q
2023-03-15 11:43:02:567,0,-79.7863,0.49736,77.8494,Q,Q
2023-03-15 11:43:02:577,0,-79.7856,0.49971,77.847,Q,Q
2023-03-15 11:43:02:587,0,-79.785,0.498587,77.8487,Q,Q
2023-03-15 11:43:02:597,0,-79.7857,0.500748,77.8506,Q,Q
2023-03-15 11:43:02:607,0,-79.7829,0.503342,77.8497,Q,Q
2023-03-15 11:43:02:617,0,-79.7831,0.503952,77.8482,Q,Q
2023-03-15 11:43:02:627,0,-79.7837,0.50433,77.8494,Q,Q
2023-03-15 11:43:02:637,0,-79.7852,0.50595,77.8478,Q,Q
2023-03-15 11:43:02:647,0,-79.785,0.50378,77.8463,Q,Q
2023-03-15 11:43:02:657,0,-79.7832,0.501814,77.8475,Q,Q
2023-03-15 11:43:02:667,0,-79.7813,0.50188,77.8452,Q,Q
2023-03-15 11:43:02:677,0,-79.7811,0.502455,77.8441,Q,Q
2023-03-15 11:43:02:687,0,-79.7843,0.501671,77.8458,Q,Q
2023-03-15 11:43:02:697,0,-79.7832,0.499943,77.8458,Q,Q
2023-03-15 11:43:02:707,0,-79.7841,0.498001,77.8445,Q,Q
2023-03-15 11:43:02:717,0,-79.7857,0.498641,77.8493,Q,Q
2023-03-15 11:43:02:727,0,-79.784,0.499682,77.8477,Q,Q
2023-03-15 11:43:02:737,0,-79.7822,0.501003,77.8476,Q,Q
2023-03-15 11:43:02:747,0,-79.7804,0.499245,77.8468,Q,Q
2023-03-15 11:43:02:757,0,-79.7796,0.496918,77.8477,Q,Q
2023-03-15 11:43:02:767,0,-79.7775,0.495807,77.8449,Q,Q
2023-03-15 11:43:02:777,0,-79.7771,0.494784,77.8438,Q,Q
2023-03-15 11:43:02:787,0,-79.7784,0.492501,77.8429,Q,Q
2023-03-15 11:43:02:797,0,-79.7765,0.491159,77.8425,Q,Q
2023-03-15 11:43:02:807,0,-79.7774,0.49076,77.8414,Q,Q
2023-03-15 11:43:02:817,0,-79.7798,0.49014,77.8392,Q,Q
2023-03-15 11:43:02:827,0,-79.7759,0.488413,77.8411,Q,Q
2023-03-15 11:43:02:837,0,-79.7718,0.490852,77.8421,Q,Q
2023-03-15 11:43:02:847,0,-79.7718,0.489825,77.8468,Q,Q
2023-03-15 11:43:02:857,0,-79.7701,0.488943,77.8475,Q,Q
2023-03-15 11:43:02:867,0,-79.7747,0.486876,77.8487,Q,Q
2023-03-15 11:43:02:877,0,-79.7753,0.487052,77.8461,Q,Q
2023-03-15 11:43:02:887,0,-79.7732,0.486368,77.8464,Q,Q
2023-03-15 11:43:02:897,0,-79.7744,0.484537,77.8503,Q,Q
2023-03-15 11:43:02:907,0,-79.7793,0.484455,77.8486,Q,Q
2023-03-15 11:43:02:917,0,-79.7803,0.483527,77.8462,Q,Q
2023-03-15 11:43:02:927,0,-79.7801,0.483773,77.8429,Q,Q
2023-03-15 11:43:02:937,0,-79.7788,0.483322,77.8459,Q,Q
2023-03-15 11:43:02:947,0,-79.7813,0.485048,77.8462,Q,Q
2023-03-15 11:43:02:957,0,-79.7819,0.487307,77.8495,Q,Q
2023-03-15 11:43:02:967,0,-79.7825,0.485499,77.8525,Q,Q
2023-03-15 11:43:02:977,0,-79.7821,0.486441,77.8538,Q,Q
2023-03-15 11:43:02:987,0,-79.7795,0.486994,77.8569,Q,Q
2023-03-15 11:43:02:997,0,-79.7777,0.48569,77.854,Q,Q
2023-03-15 11:43:03:7,0,-79.777,0.484983,77.8546,Q,Q
2023-03-15 11:43:03:17,0,-79.7745,0.484968,77.8508,Q,Q
2023-03-15 11:43:03:27,0,-79.7712,0.482791,77.8498,Q,Q
2023-03-15 11:43:03:37,0,-79.7722,0.484972,77.8471,Q,Q
2023-03-15 11:43:03:47,0,-79.773,0.488815,77.8479,Q,Q
2023-03-15 11:43:03:57,0,-79.7722,0.489566,77.8471,Q,Q
2023-03-15 11:43:03:67,0,-79.7704,0.488418,77.8426,Q,Q
2023-03-15 11:43:03:77,0,-79.7685,0.488169,77.8434,Q,Q
2023-03-15 11:43:03:87,0,-79.7712,0.487555,77.8413,Q,Q
2023-03-15 11:43:03:97,0,-79.7732,0.487807,77.8382,Q,Q
2023-03-15 11:43:03:107,0,-79.7737,0.487537,77.8374,Q,Q
2023-03-15 11:43:03:117,0,-79.7759,0.485612,77.8399,Q,Q
2023-03-15 11:43:03:127,0,-79.7775,0.486579,77.8428,Q,Q
2023-03-15 11:43:03:137,0,-79.7778,0.486728,77.8432,Q,Q
2023-03-15 11:43:03:147,0,-79.7785,0.489577,77.8425,Q,Q
2023-03-15 11:43:03:157,0,-79.777,0.489085,77.8418,Q,Q
2023-03-15 11:43:03:167,0,-79.7763,0.488279,77.8425,Q,Q
2023-03-15 11:43:03:177,0,-79.7771,0.489668,77.8443,Q,Q
2023-03-15 11:43:03:187,0,-79.7786,0.490332,77.8446,Q,Q
2023-03-15 11:43:03:197,0,-79.7793,0.492491,77.8444,Q,Q
2023-03-15 11:43:03:207,0,-79.7786,0.491544,77.8457,Q,Q
2023-03-15 11:43:03:217,0,-79.7784,0.491418,77.847,Q,Q
2023-03-15 11:43:03:227,0,-79.7774,0.493795,77.8476,Q,Q
2023-03-15 11:43:03:237,0,-79.7755,0.492008,77.8485,Q,Q
2023-03-15 11:43:03:247,0,-79.7751,0.492107,77.8495,Q,Q
2023-03-15 11:43:03:257,0,-79.7725,0.490225,77.8528,Q,Q
2023-03-15 11:43:03:267,0,-79.7724,0.489285,77.8528,Q,Q
2023-03-15 11:43:03:277,0,-79.7716,0.489241,77.8519,Q,Q
2023-03-15 11:43:03:287,0,-79.7751,0.490512,77.8548,Q,Q
2023-03-15 11:43:03:297,0,-79.7759,0.491416,77.8532,Q,Q
2023-03-15 11:43:03:307,0,-79.7743,0.492934,77.8527,Q,Q
2023-03-15 11:43:03:317,0,-79.7726,0.491014,77.8543,Q,Q
2023-03-15 11:43:03:327,0,-79.7712,0.489728,77.8538,Q,Q
2023-03-15 11:43:03:337,0,-79.771,0.489596,77.854,Q,Q
2023-03-15 11:43:03:347,0,-79.7728,0.490716,77.8562,Q,Q
2023-03-15 11:43:03:357,0,-79.77,0.491108,77.8574,Q,Q
2023-03-15 11:43:03:367,0,-79.7723,0.488239,77.853,Q,Q
2023-03-15 11:43:03:377,0,-79.773,0.486027,77.8525,Q,Q
2023-03-15 11:43:03:387,0,-79.7745,0.486544,77.8508,Q,Q
2023-03-15 11:43:03:397,0,-79.7765,0.48753,77.8489,Q,Q
2023-03-15 11:43:03:407,0,-79.7776,0.491128,77.851,Q,Q
2023-03-15 11:43:03:417,0,-79.7781,0.492182,77.8553,Q,Q
2023-03-15 11:43:03:427,0,-79.7779,0.491928,77.8565,Q,Q
2023-03-15 11:43:03:437,0,-79.7793,0.492998,77.8574,Q,Q
2023-03-15 11:43:03:447,0,-79.781,0.494757,77.8566,Q,Q
2023-03-15 11:43:03:457,0,-79.7826,0.494864,77.8562,Q,Q
2023-03-15 11:43:03:467,0,-79.7831,0.493412,77.8535,Q,Q
2023-03-15 11:43:03:477,0,-79.7818,0.497185,77.8527,Q,Q
2023-03-15 11:43:03:487,0,-79.7818,0.498984,77.855,Q,Q
2023-03-15 11:43:03:497,0,-79.7813,0.498773,77.8518,Q,Q
2023-03-15 11:43:03:507,0,-79.7819,0.500154,77.8535,Q,Q
2023-03-15 11:43:03:517,0,-79.7776,0.499743,77.8561,Q,Q
2023-03-15 11:43:03:527,0,-79.7769,0.499222,77.8577,Q,Q
2023-03-15 11:43:03:537,0,-79.7754,0.498158,77.8541,Q,Q
2023-03-15 11:43:03:547,0,-79.7763,0.494569,77.8547,Q,Q
2023-03-15 11:43:03:557,0,-79.7768,0.494541,77.8515,Q,Q
2023-03-15 11:43:03:567,0,-79.7751,0.495653,77.8516,Q,Q
2023-03-15 11:43:03:577,0,-79.772,0.49523,77.8493,Q,Q
