Timestamp_cmd,imu_cmd,roll_delta,pitch_delta,yaw_delta
2023-03-11 20:24:14:13,0,-8.79787,-2.12593,89.9415
2023-03-11 20:24:14:15,0,-8.79384,-2.1226,89.9288
2023-03-11 20:24:14:25,0,-8.79325,-2.12445,89.9217
2023-03-11 20:24:14:35,0,-8.79896,-2.12447,89.915
2023-03-11 20:24:14:45,0,-8.80448,-2.12676,89.9115
2023-03-11 20:24:14:55,0,-8.81227,-2.13524,89.9103
2023-03-11 20:24:14:65,0,-8.8164,-2.14423,89.9142
2023-03-11 20:24:14:75,0,-8.81648,-2.14843,89.9211
2023-03-11 20:24:14:85,0,-8.80912,-2.15068,89.9285
2023-03-11 20:24:14:95,0,-8.79615,-2.14978,89.9293
2023-03-11 20:24:14:105,0,-8.77796,-2.16323,89.928
2023-03-11 20:24:14:115,0,-8.75196,-2.1811,89.9274
2023-03-11 20:24:14:125,0,-8.71947,-2.20857,89.9228
2023-03-11 20:24:14:135,0,-8.67335,-2.23809,89.9133
2023-03-11 20:24:14:145,0,-8.62815,-2.26497,89.8991
2023-03-11 20:24:14:155,0,-8.57225,-2.2885,89.8808
2023-03-11 20:24:14:165,0,-8.51428,-2.30361,89.856
2023-03-11 20:24:14:176,0,-8.44673,-2.30987,89.8208
2023-03-11 20:24:14:186,0,-8.38049,-2.3038,89.7796
2023-03-11 20:24:14:196,0,-8.31467,-2.29194,89.7352
2023-03-11 20:24:14:206,0,-8.2623,-2.27209,89.6913
2023-03-11 20:24:14:215,0,-8.22087,-2.24706,89.6478
2023-03-11 20:24:14:225,0,-8.18864,-2.21896,89.6045
2023-03-11 20:24:14:235,0,-8.16713,-2.19065,89.5643
2023-03-11 20:24:14:246,0,-8.15495,-2.16597,89.5256
2023-03-11 20:24:14:256,0,-8.14793,-2.14736,89.489
2023-03-11 20:24:14:265,0,-8.14451,-2.12593,89.4568
2023-03-11 20:24:14:275,0,-8.14341,-2.09983,89.4259
2023-03-11 20:24:14:285,0,-8.15157,-2.07924,89.4019
2023-03-11 20:24:14:296,0,-8.16733,-2.05486,89.3857
2023-03-11 20:24:14:305,0,-8.20061,-2.03327,89.3759
2023-03-11 20:24:14:316,0,-8.24264,-2.01451,89.3754
2023-03-11 20:24:14:326,0,-8.2927,-2.00027,89.3812
2023-03-11 20:24:14:335,0,-8.35326,-1.98315,89.3981
2023-03-11 20:24:14:345,0,-8.4151,-1.96904,89.4197
2023-03-11 20:24:14:355,0,-8.47227,-1.956,89.4433
2023-03-11 20:24:14:365,0,-8.52313,-1.94806,89.4694
2023-03-11 20:24:14:375,0,-8.56464,-1.94208,89.4965
2023-03-11 20:24:14:385,0,-8.60261,-1.9422,89.5248
2023-03-11 20:24:14:395,0,-8.63124,-1.94911,89.55
2023-03-11 20:24:14:405,0,-8.65121,-1.95728,89.5709
2023-03-11 20:24:14:415,0,-8.66849,-1.96921,89.5875
2023-03-11 20:24:14:425,0,-8.67983,-1.98354,89.5981
2023-03-11 20:24:14:435,0,-8.68167,-1.99431,89.5945
2023-03-11 20:24:14:445,0,-8.6784,-2.00778,89.5871
2023-03-11 20:24:14:455,0,-8.66409,-2.02211,89.5731
2023-03-11 20:24:14:465,0,-8.64529,-2.03658,89.5565
2023-03-11 20:24:14:475,0,-8.6269,-2.04783,89.5418
2023-03-11 20:24:14:485,0,-8.60093,-2.06545,89.5259
2023-03-11 20:24:14:495,0,-8.56929,-2.08171,89.5114
2023-03-11 20:24:14:505,0,-8.53535,-2.09288,89.5008
2023-03-11 20:24:14:515,0,-8.50521,-2.10493,89.4972
2023-03-11 20:24:14:525,0,-8.47672,-2.11465,89.4961
2023-03-11 20:24:14:535,0,-8.44935,-2.12051,89.4957
2023-03-11 20:24:14:545,0,-8.42196,-2.12524,89.4972
2023-03-11 20:24:14:555,0,-8.3979,-2.12819,89.4971
2023-03-11 20:24:14:565,0,-8.38013,-2.12854,89.5024
2023-03-11 20:24:14:575,0,-8.36371,-2.12893,89.5073
2023-03-11 20:24:14:585,0,-8.34762,-2.12677,89.5076
2023-03-11 20:24:14:595,0,-8.33805,-2.12813,89.5074
2023-03-11 20:24:14:605,0,-8.33363,-2.12051,89.5055
2023-03-11 20:24:14:615,0,-8.33605,-2.11179,89.5019
2023-03-11 20:24:14:625,0,-8.34287,-2.1083,89.4996
2023-03-11 20:24:14:635,0,-8.3508,-2.10758,89.4999
2023-03-11 20:24:14:645,0,-8.36322,-2.1148,89.5052
2023-03-11 20:24:14:655,0,-8.38127,-2.11864,89.5114
2023-03-11 20:24:14:665,0,-8.40046,-2.12231,89.5192
2023-03-11 20:24:14:675,0,-8.4171,-2.12726,89.5248
2023-03-11 20:24:14:685,0,-8.42939,-2.12885,89.5277
2023-03-11 20:24:14:695,0,-8.43536,-2.13164,89.5309
2023-03-11 20:24:14:705,0,-8.4397,-2.13592,89.5321
2023-03-11 20:24:14:715,0,-8.43888,-2.13976,89.5309
2023-03-11 20:24:14:725,0,-8.43585,-2.14049,89.5296
2023-03-11 20:24:14:735,0,-8.42662,-2.14366,89.5301
2023-03-11 20:24:14:745,0,-8.42056,-2.14925,89.5259
2023-03-11 20:24:14:755,0,-8.41654,-2.14873,89.5195
2023-03-11 20:24:14:765,0,-8.41357,-2.15026,89.5114
2023-03-11 20:24:14:775,0,-8.4054,-2.14879,89.5021
2023-03-11 20:24:14:785,0,-8.39201,-2.14771,89.4888
2023-03-11 20:24:14:795,0,-8.37138,-2.14311,89.4747
2023-03-11 20:24:14:805,0,-8.34962,-2.138,89.4646
2023-03-11 20:24:14:815,0,-8.33135,-2.13587,89.4574
2023-03-11 20:24:14:825,0,-8.31511,-2.13467,89.4506
2023-03-11 20:24:14:835,0,-8.30519,-2.13025,89.446
2023-03-11 20:24:14:845,0,-8.29365,-2.12203,89.4395
2023-03-11 20:24:14:855,0,-8.28561,-2.10891,89.4308
2023-03-11 20:24:14:865,0,-8.27983,-2.09529,89.4216
2023-03-11 20:24:14:875,0,-8.27062,-2.08343,89.4123
2023-03-11 20:24:14:885,0,-8.26506,-2.07785,89.4065
2023-03-11 20:24:14:895,0,-8.26188,-2.07538,89.4002
2023-03-11 20:24:14:905,0,-8.26207,-2.0753,89.3983
2023-03-11 20:24:14:915,0,-8.26452,-2.07643,89.3999
2023-03-11 20:24:14:925,0,-8.26854,-2.08267,89.4012
2023-03-11 20:24:14:935,0,-8.27532,-2.09188,89.4066
2023-03-11 20:24:14:945,0,-8.2787,-2.1059,89.4172
2023-03-11 20:24:14:955,0,-8.2737,-2.11675,89.4247
2023-03-11 20:24:14:965,0,-8.26617,-2.12974,89.4327
2023-03-11 20:24:14:976,0,-8.25674,-2.13551,89.4376
2023-03-11 20:24:14:985,0,-8.24894,-2.13891,89.4427
2023-03-11 20:24:14:995,0,-8.24969,-2.14416,89.4407
2023-03-11 20:24:15:5,0,-8.24744,-2.14489,89.4359
2023-03-11 20:24:15:15,0,-8.25082,-2.14411,89.4295
2023-03-11 20:24:15:25,0,-8.25823,-2.13834,89.4196
2023-03-11 20:24:15:35,0,-8.26564,-2.13138,89.405
2023-03-11 20:24:15:45,0,-8.28006,-2.12526,89.392
2023-03-11 20:24:15:55,0,-8.2999,-2.12054,89.3798
2023-03-11 20:24:15:65,0,-8.31961,-2.11776,89.3682
2023-03-11 20:24:15:75,0,-8.34358,-2.12039,89.3602
2023-03-11 20:24:15:85,0,-8.36279,-2.12679,89.3553
2023-03-11 20:24:15:95,0,-8.38029,-2.13865,89.3531
2023-03-11 20:24:15:105,0,-8.39163,-2.15427,89.3527
2023-03-11 20:24:15:115,0,-8.39585,-2.16764,89.3523
2023-03-11 20:24:15:125,0,-8.39362,-2.18701,89.3575
2023-03-11 20:24:15:135,0,-8.38875,-2.20595,89.3617
2023-03-11 20:24:15:145,0,-8.38379,-2.22709,89.3701
2023-03-11 20:24:15:155,0,-8.37972,-2.25241,89.3792
2023-03-11 20:24:15:165,0,-8.36622,-2.27945,89.391
2023-03-11 20:24:15:175,0,-8.35059,-2.30548,89.4074
2023-03-11 20:24:15:185,0,-8.33991,-2.32425,89.4235
2023-03-11 20:24:15:195,0,-8.32728,-2.337,89.4383
2023-03-11 20:24:15:205,0,-8.31448,-2.34517,89.4572
2023-03-11 20:24:15:215,0,-8.30268,-2.34909,89.4734
2023-03-11 20:24:15:225,0,-8.2913,-2.34671,89.4894
2023-03-11 20:24:15:235,0,-8.28202,-2.34387,89.504
2023-03-11 20:24:15:245,0,-8.27562,-2.33862,89.5164
2023-03-11 20:24:15:255,0,-8.2718,-2.3281,89.527
2023-03-11 20:24:15:265,0,-8.26546,-2.31855,89.5297
2023-03-11 20:24:15:275,0,-8.26014,-2.30263,89.528
2023-03-11 20:24:15:285,0,-8.25073,-2.28319,89.521
2023-03-11 20:24:15:295,0,-8.24621,-2.26619,89.5044
2023-03-11 20:24:15:305,0,-8.24536,-2.24919,89.4852
2023-03-11 20:24:15:315,0,-8.24957,-2.22765,89.46
2023-03-11 20:24:15:325,0,-8.25968,-2.20619,89.4319
2023-03-11 20:24:15:335,0,-8.27282,-2.18718,89.4012
2023-03-11 20:24:15:345,0,-8.28525,-2.166,89.3682
2023-03-11 20:24:15:355,0,-8.29986,-2.14578,89.3351
2023-03-11 20:24:15:365,0,-8.3127,-2.12395,89.3052
2023-03-11 20:24:15:375,0,-8.33221,-2.10357,89.2771
2023-03-11 20:24:15:385,0,-8.34617,-2.08606,89.2528
2023-03-11 20:24:15:395,0,-8.35799,-2.07371,89.2343
2023-03-11 20:24:15:405,0,-8.3676,-2.07096,89.2192
2023-03-11 20:24:15:415,0,-8.37891,-2.07336,89.2098
2023-03-11 20:24:15:425,0,-8.39051,-2.07723,89.205
2023-03-11 20:24:15:435,0,-8.40237,-2.08194,89.2038
2023-03-11 20:24:15:445,0,-8.41677,-2.08294,89.2055
2023-03-11 20:24:15:455,0,-8.43098,-2.08838,89.2067
2023-03-11 20:24:15:465,0,-8.44299,-2.09386,89.2105
2023-03-11 20:24:15:475,0,-8.45244,-2.09679,89.2161
2023-03-11 20:24:15:485,0,-8.46005,-2.10314,89.2244
2023-03-11 20:24:15:495,0,-8.47147,-2.10785,89.234
2023-03-11 20:24:15:505,0,-8.47757,-2.11165,89.241
2023-03-11 20:24:15:515,0,-8.4822,-2.11454,89.2468
2023-03-11 20:24:15:525,0,-8.48171,-2.11616,89.2467
2023-03-11 20:24:15:535,0,-8.48294,-2.11369,89.2444
2023-03-11 20:24:15:545,0,-8.48533,-2.11001,89.2377
2023-03-11 20:24:15:555,0,-8.4922,-2.10019,89.2259
2023-03-11 20:24:15:565,0,-8.50495,-2.09093,89.215
2023-03-11 20:24:15:575,0,-8.52659,-2.08283,89.2105
2023-03-11 20:24:15:585,0,-8.55213,-2.08186,89.2116
2023-03-11 20:24:15:595,0,-8.58887,-2.08733,89.2194
2023-03-11 20:24:15:605,0,-8.62592,-2.09336,89.2326
2023-03-11 20:24:15:615,0,-8.65509,-2.0978,89.2507
2023-03-11 20:24:15:625,0,-8.68019,-2.09655,89.272
2023-03-11 20:24:15:636,0,-8.69858,-2.09428,89.293
2023-03-11 20:24:15:646,0,-8.70277,-2.091,89.3085
2023-03-11 20:24:15:655,0,-8.70038,-2.09124,89.3153
2023-03-11 20:24:15:665,0,-8.69085,-2.0928,89.32
2023-03-11 20:24:15:675,0,-8.67951,-2.09597,89.3205
2023-03-11 20:24:15:686,0,-8.66336,-2.09601,89.3118
2023-03-11 20:24:15:696,0,-8.64862,-2.09412,89.298
2023-03-11 20:24:15:705,0,-8.63435,-2.09116,89.278
2023-03-11 20:24:15:716,0,-8.62012,-2.08647,89.2554
2023-03-11 20:24:15:725,0,-8.6086,-2.07358,89.2361
2023-03-11 20:24:15:735,0,-8.59833,-2.06907,89.2189
2023-03-11 20:24:15:745,0,-8.58323,-2.06086,89.2089
2023-03-11 20:24:15:756,0,-8.57329,-2.05173,89.2036
2023-03-11 20:24:15:766,0,-8.56511,-2.04451,89.2009
2023-03-11 20:24:15:775,0,-8.5547,-2.03942,89.205
2023-03-11 20:24:15:785,0,-8.54978,-2.03284,89.2125
2023-03-11 20:24:15:796,0,-8.54581,-2.02911,89.2221
2023-03-11 20:24:15:806,0,-8.54556,-2.03475,89.2388
2023-03-11 20:24:15:816,0,-8.55017,-2.0446,89.2542
2023-03-11 20:24:15:826,0,-8.55335,-2.0576,89.2695
2023-03-11 20:24:15:835,0,-8.55608,-2.06964,89.2819
2023-03-11 20:24:15:845,0,-8.56173,-2.08522,89.2955
2023-03-11 20:24:15:856,0,-8.5753,-2.09973,89.3089
2023-03-11 20:24:15:865,0,-8.58401,-2.11144,89.3214
2023-03-11 20:24:15:876,0,-8.59644,-2.12488,89.333
2023-03-11 20:24:15:885,0,-8.60522,-2.1382,89.3469
2023-03-11 20:24:15:895,0,-8.6157,-2.14814,89.3616
2023-03-11 20:24:15:905,0,-8.62626,-2.15888,89.3782
2023-03-11 20:24:15:916,0,-8.63352,-2.16486,89.3926
2023-03-11 20:24:15:926,0,-8.64357,-2.17169,89.4085
2023-03-11 20:24:15:936,0,-8.65414,-2.1734,89.4227
2023-03-11 20:24:15:945,0,-8.66157,-2.17542,89.4352
2023-03-11 20:24:15:955,0,-8.66929,-2.17613,89.4456
2023-03-11 20:24:15:965,0,-8.68223,-2.18041,89.4545
2023-03-11 20:24:15:975,0,-8.69497,-2.1794,89.4599
2023-03-11 20:24:15:986,0,-8.7061,-2.17481,89.4619
2023-03-11 20:24:15:996,0,-8.71849,-2.1675,89.4688
2023-03-11 20:24:16:6,0,-8.72739,-2.16165,89.4687
2023-03-11 20:24:16:15,0,-8.73363,-2.15777,89.4693
2023-03-11 20:24:16:26,0,-8.74107,-2.15191,89.4702
2023-03-11 20:24:16:36,0,-8.74734,-2.14384,89.4698
2023-03-11 20:24:16:46,0,-8.75385,-2.14058,89.4683
2023-03-11 20:24:16:56,0,-8.75869,-2.13461,89.4681
2023-03-11 20:24:16:65,0,-8.76503,-2.12517,89.4708
2023-03-11 20:24:16:75,0,-8.77546,-2.11765,89.4707
2023-03-11 20:24:16:85,0,-8.78732,-2.11451,89.4684
2023-03-11 20:24:16:95,0,-8.80132,-2.11393,89.472
2023-03-11 20:24:16:105,0,-8.81587,-2.11445,89.4733
2023-03-11 20:24:16:115,0,-8.82786,-2.11215,89.4742
2023-03-11 20:24:16:125,0,-8.83675,-2.10262,89.4734
2023-03-11 20:24:16:136,0,-8.84573,-2.09571,89.4763
2023-03-11 20:24:16:146,0,-8.85115,-2.0884,89.4709
2023-03-11 20:24:16:156,0,-8.85929,-2.08371,89.4662
2023-03-11 20:24:16:166,0,-8.8673,-2.07684,89.4573
2023-03-11 20:24:16:176,0,-8.87433,-2.0693,89.4501
2023-03-11 20:24:16:185,0,-8.88863,-2.06323,89.4383
2023-03-11 20:24:16:195,0,-8.89837,-2.06086,89.4272
2023-03-11 20:24:16:206,0,-8.90976,-2.06309,89.4165
2023-03-11 20:24:16:215,0,-8.92032,-2.07292,89.4111
2023-03-11 20:24:16:225,0,-8.93666,-2.08362,89.4093
2023-03-11 20:24:16:235,0,-8.94971,-2.09684,89.4138
2023-03-11 20:24:16:245,0,-8.9679,-2.10644,89.421
2023-03-11 20:24:16:255,0,-8.98586,-2.11194,89.4287
2023-03-11 20:24:16:265,0,-9.00757,-2.11483,89.4393
2023-03-11 20:24:16:275,0,-9.03188,-2.12169,89.4537
2023-03-11 20:24:16:285,0,-9.0557,-2.12351,89.47
2023-03-11 20:24:16:295,0,-9.0779,-2.12444,89.4818
2023-03-11 20:24:16:305,0,-9.09488,-2.12275,89.4973
2023-03-11 20:24:16:315,0,-9.11137,-2.12563,89.5075
2023-03-11 20:24:16:325,0,-9.12866,-2.12481,89.5129
2023-03-11 20:24:16:336,0,-9.14397,-2.12511,89.5175
2023-03-11 20:24:16:346,0,-9.16496,-2.12047,89.5174
2023-03-11 20:24:16:355,0,-9.18439,-2.12162,89.5114
2023-03-11 20:24:16:366,0,-9.20571,-2.11872,89.5046
2023-03-11 20:24:16:375,0,-9.22569,-2.11381,89.4953
2023-03-11 20:24:16:386,0,-9.24261,-2.10271,89.484
2023-03-11 20:24:16:395,0,-9.25662,-2.09146,89.4716
2023-03-11 20:24:16:406,0,-9.2716,-2.08057,89.4587
2023-03-11 20:24:16:415,0,-9.28519,-2.07035,89.4431
2023-03-11 20:24:16:426,0,-9.29936,-2.05268,89.4276
2023-03-11 20:24:16:435,0,-9.30701,-2.03343,89.4101
2023-03-11 20:24:16:445,0,-9.31396,-2.01394,89.3935
2023-03-11 20:24:16:455,0,-9.32106,-1.99915,89.377
2023-03-11 20:24:16:465,0,-9.32939,-1.98937,89.3637
2023-03-11 20:24:16:476,0,-9.33869,-1.97926,89.3511
2023-03-11 20:24:16:486,0,-9.35467,-1.96861,89.3351
2023-03-11 20:24:16:496,0,-9.37013,-1.96385,89.3173
2023-03-11 20:24:16:506,0,-9.38933,-1.9576,89.3021
2023-03-11 20:24:16:516,0,-9.40905,-1.95017,89.2835
2023-03-11 20:24:16:526,0,-9.42835,-1.94376,89.2638
2023-03-11 20:24:16:536,0,-9.44713,-1.93628,89.2428
2023-03-11 20:24:16:546,0,-9.466,-1.9266,89.2226
2023-03-11 20:24:16:556,0,-9.48082,-1.91633,89.1988
2023-03-11 20:24:16:565,0,-9.49204,-1.9037,89.1726
2023-03-11 20:24:16:575,0,-9.50308,-1.89476,89.1451
2023-03-11 20:24:16:585,0,-9.51119,-1.88843,89.1206
2023-03-11 20:24:16:595,0,-9.51999,-1.87751,89.0959
2023-03-11 20:24:16:605,0,-9.52456,-1.8728,89.0756
2023-03-11 20:24:16:615,0,-9.53085,-1.86553,89.0556
2023-03-11 20:24:16:625,0,-9.53734,-1.85551,89.0408
2023-03-11 20:24:16:636,0,-9.53702,-1.84744,89.0338
2023-03-11 20:24:16:646,0,-9.53534,-1.84499,89.0268
2023-03-11 20:24:16:656,0,-9.53036,-1.84283,89.0247
2023-03-11 20:24:16:665,0,-9.52139,-1.83984,89.0246
2023-03-11 20:24:16:675,0,-9.50954,-1.84056,89.032
2023-03-11 20:24:16:686,0,-9.49192,-1.84278,89.0424
2023-03-11 20:24:16:696,0,-9.47553,-1.84486,89.054
2023-03-11 20:24:16:706,0,-9.4571,-1.85356,89.0686
2023-03-11 20:24:16:715,0,-9.44308,-1.86453,89.0821
2023-03-11 20:24:16:725,0,-9.42822,-1.87631,89.0944
2023-03-11 20:24:16:735,0,-9.42123,-1.89203,89.107
2023-03-11 20:24:16:745,0,-9.42288,-1.90718,89.115
2023-03-11 20:24:16:755,0,-9.42909,-1.9164,89.1188
2023-03-11 20:24:16:765,0,-9.43534,-1.92881,89.1161
2023-03-11 20:24:16:775,0,-9.44208,-1.93898,89.1087
2023-03-11 20:24:16:785,0,-9.45371,-1.94912,89.0983
2023-03-11 20:24:16:795,0,-9.46593,-1.95412,89.0853
2023-03-11 20:24:16:806,0,-9.48037,-1.9591,89.0686
2023-03-11 20:24:16:815,0,-9.4941,-1.95927,89.0496
2023-03-11 20:24:16:825,0,-9.50967,-1.95896,89.0306
2023-03-11 20:24:16:835,0,-9.52582,-1.95307,89.0085
2023-03-11 20:24:16:845,0,-9.53916,-1.94428,88.9884
2023-03-11 20:24:16:855,0,-9.54795,-1.92844,88.9676
2023-03-11 20:24:16:865,0,-9.55508,-1.91668,88.945
2023-03-11 20:24:16:875,0,-9.55496,-1.90584,88.9208
2023-03-11 20:24:16:885,0,-9.55207,-1.88792,88.8997
2023-03-11 20:24:16:895,0,-9.55085,-1.87329,88.8794
2023-03-11 20:24:16:905,0,-9.54502,-1.85721,88.8615
2023-03-11 20:24:16:915,0,-9.54041,-1.84493,88.8464
2023-03-11 20:24:16:925,0,-9.53497,-1.83521,88.8324
2023-03-11 20:24:16:935,0,-9.52788,-1.82231,88.8198
2023-03-11 20:24:16:945,0,-9.51966,-1.81337,88.8111
2023-03-11 20:24:16:955,0,-9.51078,-1.80587,88.8055
2023-03-11 20:24:16:965,0,-9.49935,-1.79702,88.8013
2023-03-11 20:24:16:975,0,-9.4886,-1.78549,88.7954
2023-03-11 20:24:16:985,0,-9.47148,-1.77536,88.7879
2023-03-11 20:24:16:995,0,-9.45698,-1.76598,88.7839
2023-03-11 20:24:17:6,0,-9.4381,-1.76301,88.7831
2023-03-11 20:24:17:16,0,-9.41767,-1.7567,88.7782
2023-03-11 20:24:17:26,0,-9.39971,-1.75469,88.7741
2023-03-11 20:24:17:35,0,-9.37774,-1.75594,88.7725
2023-03-11 20:24:17:45,0,-9.35495,-1.76549,88.772
2023-03-11 20:24:17:55,0,-9.33569,-1.78078,88.7775
2023-03-11 20:24:17:65,0,-9.3222,-1.79942,88.783
2023-03-11 20:24:17:75,0,-9.31858,-1.81827,88.7954
2023-03-11 20:24:17:85,0,-9.31821,-1.83403,88.8081
2023-03-11 20:24:17:95,0,-9.31961,-1.84452,88.8226
2023-03-11 20:24:17:105,0,-9.32287,-1.85643,88.8398
2023-03-11 20:24:17:115,0,-9.32352,-1.8645,88.8608
2023-03-11 20:24:17:125,0,-9.32453,-1.87415,88.8799
2023-03-11 20:24:17:135,0,-9.32453,-1.88032,88.9024
2023-03-11 20:24:17:145,0,-9.3207,-1.8887,88.9223
2023-03-11 20:24:17:155,0,-9.31915,-1.89268,88.9339
2023-03-11 20:24:17:165,0,-9.31921,-1.89638,88.9412
2023-03-11 20:24:17:175,0,-9.32011,-1.90335,88.9415
2023-03-11 20:24:17:185,0,-9.32402,-1.90617,88.9362
2023-03-11 20:24:17:195,0,-9.32876,-1.90707,88.92
2023-03-11 20:24:17:206,0,-9.33785,-1.91036,88.9031
2023-03-11 20:24:17:215,0,-9.35105,-1.90774,88.8787
2023-03-11 20:24:17:226,0,-9.37097,-1.90387,88.8468
2023-03-11 20:24:17:236,0,-9.39052,-1.90019,88.8156
2023-03-11 20:24:17:246,0,-9.40555,-1.89394,88.7819
2023-03-11 20:24:17:256,0,-9.41583,-1.88405,88.7497
2023-03-11 20:24:17:266,0,-9.42228,-1.87524,88.7179
2023-03-11 20:24:17:276,0,-9.42394,-1.86078,88.6827
2023-03-11 20:24:17:286,0,-9.41722,-1.84352,88.6529
2023-03-11 20:24:17:295,0,-9.41266,-1.82831,88.6272
2023-03-11 20:24:17:305,0,-9.40862,-1.81463,88.6064
2023-03-11 20:24:17:316,0,-9.40655,-1.80301,88.5927
2023-03-11 20:24:17:326,0,-9.40969,-1.79215,88.5844
2023-03-11 20:24:17:335,0,-9.4139,-1.78215,88.5851
2023-03-11 20:24:17:346,0,-9.4259,-1.77908,88.5895
2023-03-11 20:24:17:355,0,-9.44035,-1.7733,88.6026
2023-03-11 20:24:17:365,0,-9.45042,-1.76918,88.6162
2023-03-11 20:24:17:376,0,-9.45572,-1.76933,88.6329
2023-03-11 20:24:17:385,0,-9.4585,-1.7716,88.6499
2023-03-11 20:24:17:396,0,-9.45877,-1.77758,88.6637
2023-03-11 20:24:17:405,0,-9.46047,-1.79176,88.6769
2023-03-11 20:24:17:415,0,-9.46065,-1.80781,88.6859
2023-03-11 20:24:17:425,0,-9.46616,-1.82672,88.6943
2023-03-11 20:24:17:435,0,-9.47715,-1.85264,88.7021
2023-03-11 20:24:17:445,0,-9.494,-1.87906,88.7064
2023-03-11 20:24:17:455,0,-9.50998,-1.90349,88.7101
2023-03-11 20:24:17:465,0,-9.51984,-1.92751,88.713
2023-03-11 20:24:17:475,0,-9.52008,-1.94885,88.7185
2023-03-11 20:24:17:486,0,-9.50317,-1.96745,88.7235
2023-03-11 20:24:17:496,0,-9.47413,-1.98467,88.7326
2023-03-11 20:24:17:506,0,-9.4361,-2.0034,88.7488
2023-03-11 20:24:17:516,0,-9.39975,-2.0158,88.7711
2023-03-11 20:24:17:526,0,-9.36605,-2.02472,88.7989
2023-03-11 20:24:17:536,0,-9.33974,-2.02088,88.8267
2023-03-11 20:24:17:546,0,-9.31648,-2.00897,88.8495
2023-03-11 20:24:17:555,0,-9.30271,-1.99338,88.8658
2023-03-11 20:24:17:566,0,-9.29981,-1.97579,88.8775
2023-03-11 20:24:17:575,0,-9.29706,-1.96377,88.8778
2023-03-11 20:24:17:586,0,-9.28726,-1.9467,88.8714
2023-03-11 20:24:17:595,0,-9.27579,-1.93223,88.8575
2023-03-11 20:24:17:606,0,-9.25686,-1.9257,88.8351
2023-03-11 20:24:17:615,0,-9.23712,-1.92353,88.8066
2023-03-11 20:24:17:626,0,-9.22117,-1.92726,88.7792
2023-03-11 20:24:17:635,0,-9.2058,-1.93609,88.7563
2023-03-11 20:24:17:645,0,-9.19106,-1.95071,88.7401
2023-03-11 20:24:17:655,0,-9.17553,-1.97146,88.7286
2023-03-11 20:24:17:665,0,-9.16105,-1.99118,88.7198
2023-03-11 20:24:17:675,0,-9.14924,-2.0082,88.7122
2023-03-11 20:24:17:685,0,-9.13635,-2.02295,88.71
2023-03-11 20:24:17:695,0,-9.1275,-2.03422,88.7119
2023-03-11 20:24:17:705,0,-9.11822,-2.04302,88.7188
2023-03-11 20:24:17:715,0,-9.11265,-2.05475,88.7296
2023-03-11 20:24:17:726,0,-9.11578,-2.06986,88.7483
2023-03-11 20:24:17:736,0,-9.11999,-2.08412,88.7706
2023-03-11 20:24:17:746,0,-9.12503,-2.09765,88.7986
2023-03-11 20:24:17:756,0,-9.12624,-2.11245,88.8311
2023-03-11 20:24:17:765,0,-9.12796,-2.1294,88.8653
2023-03-11 20:24:17:775,0,-9.13291,-2.15352,88.9024
2023-03-11 20:24:17:785,0,-9.13815,-2.17633,88.9431
2023-03-11 20:24:17:795,0,-9.14206,-2.19661,88.9837
2023-03-11 20:24:17:805,0,-9.14639,-2.21309,89.0217
2023-03-11 20:24:17:815,0,-9.14865,-2.22461,89.0568
2023-03-11 20:24:17:825,0,-9.15143,-2.2297,89.0895
2023-03-11 20:24:17:835,0,-9.15367,-2.23371,89.1217
2023-03-11 20:24:17:845,0,-9.15769,-2.2322,89.1543
2023-03-11 20:24:17:855,0,-9.1593,-2.22684,89.1837
2023-03-11 20:24:17:865,0,-9.16048,-2.21371,89.2167
2023-03-11 20:24:17:876,0,-9.16038,-2.19531,89.2475
2023-03-11 20:24:17:885,0,-9.16298,-2.17674,89.28
2023-03-11 20:24:17:896,0,-9.16895,-2.15928,89.3165
2023-03-11 20:24:17:905,0,-9.1763,-2.13706,89.3525
2023-03-11 20:24:17:915,0,-9.18337,-2.11605,89.3908
2023-03-11 20:24:17:925,0,-9.18705,-2.0979,89.4282
2023-03-11 20:24:17:935,0,-9.19629,-2.08186,89.4653
2023-03-11 20:24:17:945,0,-9.20241,-2.0696,89.5094
2023-03-11 20:24:17:955,0,-9.21209,-2.0715,89.5494
2023-03-11 20:24:17:965,0,-9.22194,-2.07791,89.5876
2023-03-11 20:24:17:975,0,-9.23523,-2.0901,89.623
2023-03-11 20:24:17:985,0,-9.25057,-2.10718,89.6485
2023-03-11 20:24:17:996,0,-9.27103,-2.12773,89.6683
2023-03-11 20:24:18:6,0,-9.28905,-2.14797,89.6834
2023-03-11 20:24:18:16,0,-9.31212,-2.17644,89.6899
2023-03-11 20:24:18:26,0,-9.34048,-2.19992,89.6947
2023-03-11 20:24:18:36,0,-9.371,-2.21468,89.6936
2023-03-11 20:24:18:46,0,-9.4008,-2.2197,89.6921
2023-03-11 20:24:18:55,0,-9.43023,-2.21774,89.6832
2023-03-11 20:24:18:66,0,-9.45656,-2.21754,89.6788
2023-03-11 20:24:18:76,0,-9.48317,-2.21667,89.6798
2023-03-11 20:24:18:86,0,-9.51011,-2.21861,89.6817
2023-03-11 20:24:18:95,0,-9.53923,-2.21808,89.6901
2023-03-11 20:24:18:105,0,-9.56421,-2.21942,89.6942
2023-03-11 20:24:18:115,0,-9.58499,-2.22106,89.6902
2023-03-11 20:24:18:125,0,-9.58957,-2.22198,89.6753
2023-03-11 20:24:18:135,0,-9.57945,-2.22589,89.6478
2023-03-11 20:24:18:145,0,-9.55176,-2.23509,89.6063
2023-03-11 20:24:18:155,0,-9.50998,-2.24914,89.5586
2023-03-11 20:24:18:165,0,-9.45105,-2.26574,89.5077
2023-03-11 20:24:18:175,0,-9.38881,-2.29056,89.4606
2023-03-11 20:24:18:185,0,-9.32891,-2.32034,89.4256
2023-03-11 20:24:18:195,0,-9.27241,-2.36117,89.4042
2023-03-11 20:24:18:205,0,-9.22306,-2.40198,89.3925
2023-03-11 20:24:18:215,0,-9.17847,-2.44324,89.3932
2023-03-11 20:24:18:225,0,-9.13453,-2.48484,89.4012
2023-03-11 20:24:18:236,0,-9.09553,-2.51633,89.4172
2023-03-11 20:24:18:246,0,-9.05696,-2.53866,89.4379
2023-03-11 20:24:18:256,0,-9.02587,-2.55135,89.4641
2023-03-11 20:24:18:266,0,-8.99471,-2.55738,89.4885
2023-03-11 20:24:18:276,0,-8.96901,-2.55434,89.514
2023-03-11 20:24:18:286,0,-8.94512,-2.5468,89.5387
2023-03-11 20:24:18:296,0,-8.92738,-2.53455,89.5675
2023-03-11 20:24:18:305,0,-8.91107,-2.52533,89.6015
2023-03-11 20:24:18:315,0,-8.89872,-2.52143,89.6352
2023-03-11 20:24:18:325,0,-8.89183,-2.52031,89.6744
2023-03-11 20:24:18:335,0,-8.88805,-2.51743,89.7102
2023-03-11 20:24:18:345,0,-8.88275,-2.5068,89.7424
2023-03-11 20:24:18:356,0,-8.88225,-2.49067,89.7697
2023-03-11 20:24:18:365,0,-8.88319,-2.46535,89.7905
2023-03-11 20:24:18:375,0,-8.88226,-2.43876,89.8009
2023-03-11 20:24:18:385,0,-8.87476,-2.41091,89.8029
2023-03-11 20:24:18:396,0,-8.86661,-2.3846,89.7924
2023-03-11 20:24:18:405,0,-8.85914,-2.36132,89.7685
2023-03-11 20:24:18:415,0,-8.85145,-2.33701,89.734
2023-03-11 20:24:18:425,0,-8.84591,-2.31114,89.6878
2023-03-11 20:24:18:435,0,-8.84758,-2.28617,89.6388
2023-03-11 20:24:18:445,0,-8.85509,-2.25977,89.5866
2023-03-11 20:24:18:455,0,-8.86952,-2.24014,89.5385
2023-03-11 20:24:18:466,0,-8.89188,-2.23342,89.4941
2023-03-11 20:24:18:476,0,-8.91855,-2.23334,89.4606
2023-03-11 20:24:18:485,0,-8.93846,-2.23645,89.4363
2023-03-11 20:24:18:496,0,-8.9477,-2.24424,89.4168
2023-03-11 20:24:18:505,0,-8.94944,-2.2522,89.4005
2023-03-11 20:24:18:516,0,-8.94506,-2.26488,89.3894
2023-03-11 20:24:18:526,0,-8.93695,-2.27585,89.3857
2023-03-11 20:24:18:536,0,-8.92755,-2.29225,89.3875
2023-03-11 20:24:18:546,0,-8.9212,-2.30552,89.396
2023-03-11 20:24:18:555,0,-8.91423,-2.3243,89.4073
2023-03-11 20:24:18:565,0,-8.91357,-2.34243,89.4222
2023-03-11 20:24:18:576,0,-8.91195,-2.36076,89.4383
2023-03-11 20:24:18:586,0,-8.90667,-2.37345,89.4532
2023-03-11 20:24:18:596,0,-8.8997,-2.37934,89.4592
2023-03-11 20:24:18:605,0,-8.88912,-2.3835,89.4638
2023-03-11 20:24:18:616,0,-8.87082,-2.37803,89.4587
2023-03-11 20:24:18:625,0,-8.85365,-2.36948,89.4459
2023-03-11 20:24:18:635,0,-8.83476,-2.36115,89.4262
2023-03-11 20:24:18:646,0,-8.8122,-2.34813,89.3982
2023-03-11 20:24:18:656,0,-8.79358,-2.34421,89.3678
2023-03-11 20:24:18:665,0,-8.77219,-2.34171,89.335
2023-03-11 20:24:18:675,0,-8.74985,-2.34794,89.3072
2023-03-11 20:24:18:685,0,-8.73455,-2.35719,89.2873
2023-03-11 20:24:18:695,0,-8.72684,-2.37466,89.277
2023-03-11 20:24:18:706,0,-8.73206,-2.39612,89.279
2023-03-11 20:24:18:716,0,-8.74284,-2.41993,89.2987
2023-03-11 20:24:18:725,0,-8.76162,-2.45123,89.3299
2023-03-11 20:24:18:735,0,-8.79351,-2.47909,89.3766
2023-03-11 20:24:18:745,0,-8.8406,-2.50458,89.4382
2023-03-11 20:24:18:755,0,-8.89593,-2.5259,89.5118
2023-03-11 20:24:18:766,0,-8.96111,-2.5391,89.5934
2023-03-11 20:24:18:775,0,-9.02931,-2.54156,89.675
2023-03-11 20:24:18:786,0,-9.10038,-2.53531,89.7548
2023-03-11 20:24:18:796,0,-9.16926,-2.51995,89.8226
2023-03-11 20:24:18:805,0,-9.23371,-2.50327,89.8764
2023-03-11 20:24:18:815,0,-9.28888,-2.48391,89.9163
2023-03-11 20:24:18:826,0,-9.33244,-2.45888,89.9396
2023-03-11 20:24:18:836,0,-9.36679,-2.43982,89.9449
2023-03-11 20:24:18:846,0,-9.38498,-2.42012,89.9325
2023-03-11 20:24:18:856,0,-9.39843,-2.40798,89.906
2023-03-11 20:24:18:866,0,-9.40085,-2.40267,89.8692
2023-03-11 20:24:18:875,0,-9.40359,-2.3973,89.8236
2023-03-11 20:24:18:886,0,-9.40268,-2.39693,89.7757
2023-03-11 20:24:18:895,0,-9.39882,-2.39462,89.7221
2023-03-11 20:24:18:906,0,-9.38799,-2.39501,89.6708
2023-03-11 20:24:18:916,0,-9.37882,-2.4039,89.6246
2023-03-11 20:24:18:926,0,-9.37109,-2.42214,89.5871
2023-03-11 20:24:18:935,0,-9.37095,-2.43376,89.5639
2023-03-11 20:24:18:945,0,-9.37017,-2.4451,89.5467
2023-03-11 20:24:18:956,0,-9.37038,-2.45894,89.5378
2023-03-11 20:24:18:966,0,-9.37718,-2.46739,89.5395
2023-03-11 20:24:18:975,0,-9.39286,-2.48037,89.5486
2023-03-11 20:24:18:986,0,-9.41043,-2.48626,89.5611
2023-03-11 20:24:18:996,0,-9.43328,-2.49511,89.5773
2023-03-11 20:24:19:6,0,-9.45326,-2.49674,89.5908
2023-03-11 20:24:19:15,0,-9.46658,-2.49462,89.6003
2023-03-11 20:24:19:26,0,-9.47505,-2.48975,89.5993
2023-03-11 20:24:19:36,0,-9.47888,-2.48132,89.5889
2023-03-11 20:24:19:45,0,-9.47747,-2.47025,89.57
2023-03-11 20:24:19:55,0,-9.46563,-2.45915,89.5408
2023-03-11 20:24:19:65,0,-9.4531,-2.44619,89.507
2023-03-11 20:24:19:75,0,-9.43866,-2.4332,89.4663
2023-03-11 20:24:19:85,0,-9.42112,-2.41759,89.4249
2023-03-11 20:24:19:95,0,-9.40589,-2.39922,89.3809
2023-03-11 20:24:19:106,0,-9.397,-2.38346,89.3348
2023-03-11 20:24:19:116,0,-9.39004,-2.36664,89.2964
2023-03-11 20:24:19:126,0,-9.3917,-2.35342,89.2624
2023-03-11 20:24:19:135,0,-9.38706,-2.34594,89.2306
2023-03-11 20:24:19:146,0,-9.38396,-2.33209,89.2075
2023-03-11 20:24:19:156,0,-9.37809,-2.32403,89.1887
2023-03-11 20:24:19:166,0,-9.3688,-2.31739,89.1778
2023-03-11 20:24:19:176,0,-9.36099,-2.31349,89.1678
2023-03-11 20:24:19:185,0,-9.34984,-2.31005,89.159
2023-03-11 20:24:19:195,0,-9.33255,-2.31021,89.1528
2023-03-11 20:24:19:205,0,-9.31796,-2.31007,89.1486
2023-03-11 20:24:19:215,0,-9.30008,-2.31374,89.1425
2023-03-11 20:24:19:225,0,-9.2855,-2.31651,89.1372
2023-03-11 20:24:19:235,0,-9.26958,-2.32202,89.1308
2023-03-11 20:24:19:246,0,-9.25279,-2.32789,89.1231
2023-03-11 20:24:19:256,0,-9.2354,-2.33352,89.1162
2023-03-11 20:24:19:266,0,-9.21837,-2.34019,89.1059
2023-03-11 20:24:19:276,0,-9.20111,-2.34471,89.0938
2023-03-11 20:24:19:286,0,-9.1856,-2.35237,89.0871
2023-03-11 20:24:19:296,0,-9.1696,-2.36004,89.0826
2023-03-11 20:24:19:306,0,-9.15235,-2.37236,89.0783
2023-03-11 20:24:19:315,0,-9.13042,-2.37935,89.074
2023-03-11 20:24:19:325,0,-9.10992,-2.385,89.0752
2023-03-11 20:24:19:335,0,-9.09051,-2.39014,89.0748
2023-03-11 20:24:19:345,0,-9.07057,-2.39457,89.073
2023-03-11 20:24:19:355,0,-9.05128,-2.39799,89.0663
2023-03-11 20:24:19:365,0,-9.02578,-2.39489,89.0611
2023-03-11 20:24:19:375,0,-9.00222,-2.39013,89.0504
2023-03-11 20:24:19:386,0,-8.97233,-2.38582,89.0319
2023-03-11 20:24:19:395,0,-8.9413,-2.3776,89.0142
2023-03-11 20:24:19:405,0,-8.91333,-2.36838,88.9949
2023-03-11 20:24:19:415,0,-8.88729,-2.35582,88.9685
2023-03-11 20:24:19:425,0,-8.86224,-2.3416,88.9422
2023-03-11 20:24:19:436,0,-8.83487,-2.33255,88.9167
2023-03-11 20:24:19:446,0,-8.80462,-2.32688,88.8905
2023-03-11 20:24:19:455,0,-8.77277,-2.32283,88.8641
2023-03-11 20:24:19:465,0,-8.7415,-2.3232,88.8409
2023-03-11 20:24:19:475,0,-8.71798,-2.32378,88.8209
2023-03-11 20:24:19:485,0,-8.69696,-2.32201,88.805
2023-03-11 20:24:19:495,0,-8.6761,-2.321,88.7851
2023-03-11 20:24:19:505,0,-8.65573,-2.31494,88.7685
2023-03-11 20:24:19:515,0,-8.63411,-2.30953,88.7514
2023-03-11 20:24:19:525,0,-8.61522,-2.30809,88.7368
2023-03-11 20:24:19:536,0,-8.59356,-2.30577,88.7252
2023-03-11 20:24:19:545,0,-8.5702,-2.29748,88.7158
2023-03-11 20:24:19:555,0,-8.55114,-2.29017,88.7036
2023-03-11 20:24:19:565,0,-8.5282,-2.28293,88.6899
2023-03-11 20:24:19:575,0,-8.5051,-2.27538,88.6775
2023-03-11 20:24:19:585,0,-8.48576,-2.263,88.6654
2023-03-11 20:24:19:595,0,-8.46654,-2.25088,88.6533
2023-03-11 20:24:19:605,0,-8.4478,-2.23933,88.6394
2023-03-11 20:24:19:615,0,-8.4306,-2.2264,88.626
2023-03-11 20:24:19:625,0,-8.41839,-2.2135,88.6126
2023-03-11 20:24:19:635,0,-8.4081,-2.20304,88.5984
2023-03-11 20:24:19:645,0,-8.3992,-2.19538,88.5864
2023-03-11 20:24:19:655,0,-8.39109,-2.18708,88.5799
2023-03-11 20:24:19:665,0,-8.38568,-2.17749,88.5714
2023-03-11 20:24:19:676,0,-8.38108,-2.16217,88.5655
2023-03-11 20:24:19:686,0,-8.3702,-2.15569,88.56
2023-03-11 20:24:19:696,0,-8.35967,-2.15102,88.5626
2023-03-11 20:24:19:705,0,-8.35112,-2.15573,88.5734
2023-03-11 20:24:19:715,0,-8.34311,-2.16192,88.594
2023-03-11 20:24:19:725,0,-8.33996,-2.16821,88.6196
2023-03-11 20:24:19:735,0,-8.34011,-2.17422,88.6541
2023-03-11 20:24:19:745,0,-8.34117,-2.18263,88.6882
2023-03-11 20:24:19:755,0,-8.3444,-2.18849,88.7274
2023-03-11 20:24:19:765,0,-8.34872,-2.19962,88.7649
2023-03-11 20:24:19:775,0,-8.34735,-2.21528,88.7991
2023-03-11 20:24:19:785,0,-8.34282,-2.22857,88.8302
2023-03-11 20:24:19:796,0,-8.33957,-2.24174,88.8587
2023-03-11 20:24:19:806,0,-8.33176,-2.25687,88.8813
2023-03-11 20:24:19:815,0,-8.32413,-2.27658,88.8984
2023-03-11 20:24:19:825,0,-8.31384,-2.2893,88.9093
2023-03-11 20:24:19:836,0,-8.3027,-2.30498,88.9158
2023-03-11 20:24:19:845,0,-8.28951,-2.31983,88.9207
2023-03-11 20:24:19:855,0,-8.27667,-2.33272,88.9245
2023-03-11 20:24:19:865,0,-8.27041,-2.34665,88.9277
2023-03-11 20:24:19:875,0,-8.25845,-2.36015,88.9341
2023-03-11 20:24:19:886,0,-8.2483,-2.37275,88.9406
2023-03-11 20:24:19:896,0,-8.23563,-2.38244,88.948
2023-03-11 20:24:19:905,0,-8.21871,-2.39058,88.9602
2023-03-11 20:24:19:916,0,-8.2053,-2.39538,88.9719
2023-03-11 20:24:19:925,0,-8.19031,-2.39825,88.9827
2023-03-11 20:24:19:935,0,-8.16938,-2.40002,88.9958
2023-03-11 20:24:19:945,0,-8.15437,-2.39646,89.0083
2023-03-11 20:24:19:955,0,-8.13444,-2.39102,89.0174
2023-03-11 20:24:19:965,0,-8.1188,-2.38599,89.0232
2023-03-11 20:24:19:975,0,-8.10597,-2.37952,89.027
2023-03-11 20:24:19:985,0,-8.09571,-2.37304,89.0277
2023-03-11 20:24:19:995,0,-8.07871,-2.36675,89.0232
2023-03-11 20:24:20:5,0,-8.0666,-2.36542,89.0194
2023-03-11 20:24:20:16,0,-8.05614,-2.36087,89.0149
2023-03-11 20:24:20:25,0,-8.05017,-2.35749,89.0086
2023-03-11 20:24:20:35,0,-8.04384,-2.35117,89.0018
2023-03-11 20:24:20:45,0,-8.03654,-2.34678,88.9972
2023-03-11 20:24:20:55,0,-8.02848,-2.34315,88.9903
2023-03-11 20:24:20:65,0,-8.01911,-2.3373,88.9843
2023-03-11 20:24:20:75,0,-8.00749,-2.33514,88.9808
2023-03-11 20:24:20:85,0,-7.99784,-2.32861,88.981
2023-03-11 20:24:20:95,0,-7.9867,-2.31922,88.9797
2023-03-11 20:24:20:105,0,-7.97488,-2.31599,88.9773
2023-03-11 20:24:20:115,0,-7.96357,-2.31161,88.9762
2023-03-11 20:24:20:125,0,-7.95295,-2.30503,88.9783
2023-03-11 20:24:20:135,0,-7.93989,-2.30105,88.9788
2023-03-11 20:24:20:145,0,-7.93047,-2.29716,88.9785
2023-03-11 20:24:20:155,0,-7.91797,-2.29363,88.9698
2023-03-11 20:24:20:165,0,-7.91054,-2.28245,88.965
2023-03-11 20:24:20:175,0,-7.90065,-2.27549,88.9585
2023-03-11 20:24:20:185,0,-7.89076,-2.27701,88.9551
2023-03-11 20:24:20:195,0,-7.88182,-2.28384,88.9517
2023-03-11 20:24:20:206,0,-7.87914,-2.29317,88.9508
2023-03-11 20:24:20:215,0,-7.87729,-2.3031,88.9555
2023-03-11 20:24:20:225,0,-7.87702,-2.31387,88.9608
2023-03-11 20:24:20:235,0,-7.88106,-2.32281,88.9669
2023-03-11 20:24:20:245,0,-7.88404,-2.32715,88.9759
2023-03-11 20:24:20:255,0,-7.88953,-2.33515,88.9882
2023-03-11 20:24:20:265,0,-7.8944,-2.3425,89.0021
2023-03-11 20:24:20:275,0,-7.90439,-2.34521,89.0223
2023-03-11 20:24:20:285,0,-7.90358,-2.34265,89.0456
2023-03-11 20:24:20:295,0,-7.90333,-2.33652,89.0731
2023-03-11 20:24:20:305,0,-7.90482,-2.33299,89.0997
2023-03-11 20:24:20:315,0,-7.91286,-2.32787,89.1252
2023-03-11 20:24:20:325,0,-7.92662,-2.32039,89.146
2023-03-11 20:24:20:335,0,-7.94421,-2.32053,89.1645
2023-03-11 20:24:20:345,0,-7.96246,-2.3181,89.1791
2023-03-11 20:24:20:355,0,-7.97471,-2.3194,89.188
2023-03-11 20:24:20:365,0,-7.98381,-2.31902,89.1916
2023-03-11 20:24:20:375,0,-7.99484,-2.3232,89.1921
2023-03-11 20:24:20:385,0,-8.00551,-2.33128,89.1899
2023-03-11 20:24:20:395,0,-8.01218,-2.33282,89.1785
2023-03-11 20:24:20:405,0,-8.01732,-2.33056,89.1684
2023-03-11 20:24:20:415,0,-8.01837,-2.32671,89.1537
2023-03-11 20:24:20:425,0,-8.0127,-2.32709,89.1354
2023-03-11 20:24:20:435,0,-8.00857,-2.33004,89.1178
2023-03-11 20:24:20:445,0,-8.01025,-2.33366,89.1035
2023-03-11 20:24:20:455,0,-8.00962,-2.33469,89.0885
2023-03-11 20:24:20:465,0,-8.00937,-2.33153,89.0773
2023-03-11 20:24:20:476,0,-8.00439,-2.32533,89.068
2023-03-11 20:24:20:486,0,-8.00001,-2.31838,89.059
2023-03-11 20:24:20:496,0,-7.99461,-2.31384,89.0542
2023-03-11 20:24:20:505,0,-7.98747,-2.31025,89.0507
2023-03-11 20:24:20:515,0,-7.97621,-2.30635,89.0504
2023-03-11 20:24:20:526,0,-7.96829,-2.30057,89.0505
2023-03-11 20:24:20:536,0,-7.9588,-2.29585,89.0509
2023-03-11 20:24:20:546,0,-7.95468,-2.29459,89.0501
2023-03-11 20:24:20:555,0,-7.9519,-2.29375,89.0517
2023-03-11 20:24:20:565,0,-7.95032,-2.30144,89.0514
2023-03-11 20:24:20:575,0,-7.94825,-2.30713,89.0524
2023-03-11 20:24:20:585,0,-7.94575,-2.31218,89.0558
2023-03-11 20:24:20:595,0,-7.94477,-2.32095,89.063
2023-03-11 20:24:20:605,0,-7.94219,-2.33239,89.0685
2023-03-11 20:24:20:615,0,-7.93925,-2.34362,89.0819
2023-03-11 20:24:20:625,0,-7.93607,-2.3564,89.0959
2023-03-11 20:24:20:635,0,-7.9364,-2.36829,89.114
2023-03-11 20:24:20:645,0,-7.94018,-2.37422,89.1315
2023-03-11 20:24:20:656,0,-7.94646,-2.38073,89.1518
2023-03-11 20:24:20:666,0,-7.95721,-2.38869,89.1673
2023-03-11 20:24:20:676,0,-7.96418,-2.39421,89.1838
2023-03-11 20:24:20:686,0,-7.96943,-2.39574,89.2001
2023-03-11 20:24:20:696,0,-7.97599,-2.394,89.213
2023-03-11 20:24:20:706,0,-7.98295,-2.39245,89.2239
2023-03-11 20:24:20:716,0,-7.98532,-2.38997,89.2293
2023-03-11 20:24:20:726,0,-7.98799,-2.38925,89.2315
2023-03-11 20:24:20:735,0,-7.99193,-2.39015,89.2307
2023-03-11 20:24:20:745,0,-7.99067,-2.39149,89.2241
2023-03-11 20:24:20:755,0,-7.98481,-2.39215,89.2149
2023-03-11 20:24:20:766,0,-7.98165,-2.39641,89.2049
2023-03-11 20:24:20:775,0,-7.97784,-2.40241,89.1936
2023-03-11 20:24:20:785,0,-7.97051,-2.40399,89.1865
2023-03-11 20:24:20:795,0,-7.96394,-2.40439,89.1792
2023-03-11 20:24:20:805,0,-7.96003,-2.40326,89.1733
2023-03-11 20:24:20:815,0,-7.95444,-2.4053,89.1678
2023-03-11 20:24:20:825,0,-7.94534,-2.40349,89.1645
2023-03-11 20:24:20:835,0,-7.93883,-2.40011,89.1631
2023-03-11 20:24:20:846,0,-7.93185,-2.39326,89.1599
2023-03-11 20:24:20:855,0,-7.92157,-2.38936,89.1605
2023-03-11 20:24:20:865,0,-7.91577,-2.38288,89.1653
2023-03-11 20:24:20:875,0,-7.91222,-2.37338,89.1687
2023-03-11 20:24:20:885,0,-7.91389,-2.36159,89.1655
2023-03-11 20:24:20:895,0,-7.917,-2.35189,89.1627
2023-03-11 20:24:20:905,0,-7.91423,-2.34841,89.1616
2023-03-11 20:24:20:915,0,-7.91163,-2.35593,89.1608
2023-03-11 20:24:20:925,0,-7.91056,-2.36437,89.1602
2023-03-11 20:24:20:935,0,-7.9101,-2.37654,89.1589
2023-03-11 20:24:20:945,0,-7.91753,-2.38709,89.1636
2023-03-11 20:24:20:955,0,-7.92684,-2.39362,89.1665
2023-03-11 20:24:20:965,0,-7.93525,-2.40411,89.1723
2023-03-11 20:24:20:975,0,-7.95207,-2.41313,89.1813
2023-03-11 20:24:20:985,0,-7.96669,-2.42541,89.1945
2023-03-11 20:24:20:995,0,-7.98006,-2.43538,89.2114
2023-03-11 20:24:21:5,0,-7.99247,-2.4441,89.2274
2023-03-11 20:24:21:16,0,-7.99963,-2.44905,89.246
2023-03-11 20:24:21:25,0,-8.00111,-2.45251,89.2641
2023-03-11 20:24:21:36,0,-8.006,-2.45456,89.2793
2023-03-11 20:24:21:46,0,-8.00389,-2.45561,89.2883
2023-03-11 20:24:21:56,0,-8.00192,-2.45807,89.2939
2023-03-11 20:24:21:66,0,-8.00408,-2.45917,89.2949
2023-03-11 20:24:21:76,0,-8.00739,-2.45417,89.2968
2023-03-11 20:24:21:86,0,-8.00881,-2.45159,89.2952
2023-03-11 20:24:21:96,0,-8.01168,-2.45139,89.291
2023-03-11 20:24:21:105,0,-8.01784,-2.45185,89.2879
2023-03-11 20:24:21:115,0,-8.02104,-2.44638,89.287
2023-03-11 20:24:21:125,0,-8.0248,-2.43672,89.2833
2023-03-11 20:24:21:135,0,-8.02978,-2.42507,89.2769
2023-03-11 20:24:21:145,0,-8.02705,-2.41653,89.2725
2023-03-11 20:24:21:155,0,-8.0272,-2.41217,89.2664
2023-03-11 20:24:21:166,0,-8.02746,-2.40766,89.2588
2023-03-11 20:24:21:175,0,-8.02523,-2.40577,89.2569
2023-03-11 20:24:21:186,0,-8.02223,-2.40097,89.2535
2023-03-11 20:24:21:196,0,-8.01739,-2.3978,89.2473
2023-03-11 20:24:21:206,0,-8.0149,-2.39663,89.2408
2023-03-11 20:24:21:216,0,-8.01064,-2.39064,89.2345
2023-03-11 20:24:21:226,0,-8.00755,-2.38953,89.2303
2023-03-11 20:24:21:235,0,-8.00167,-2.38628,89.2268
2023-03-11 20:24:21:245,0,-8.00014,-2.38537,89.2274
2023-03-11 20:24:21:255,0,-7.99673,-2.38515,89.2243
2023-03-11 20:24:21:265,0,-7.99177,-2.38554,89.2265
2023-03-11 20:24:21:275,0,-7.98625,-2.38532,89.2268
2023-03-11 20:24:21:286,0,-7.98251,-2.39068,89.2276
2023-03-11 20:24:21:295,0,-7.97402,-2.39544,89.2299
2023-03-11 20:24:21:306,0,-7.96657,-2.40173,89.2352
2023-03-11 20:24:21:316,0,-7.96013,-2.40802,89.2403
2023-03-11 20:24:21:326,0,-7.95558,-2.41709,89.2477
2023-03-11 20:24:21:335,0,-7.95156,-2.42528,89.2599
2023-03-11 20:24:21:345,0,-7.94686,-2.43686,89.272
2023-03-11 20:24:21:355,0,-7.94429,-2.44597,89.2859
2023-03-11 20:24:21:366,0,-7.94888,-2.45473,89.303
2023-03-11 20:24:21:375,0,-7.94917,-2.46282,89.3186
2023-03-11 20:24:21:385,0,-7.94921,-2.47066,89.3314
2023-03-11 20:24:21:395,0,-7.94571,-2.4783,89.3434
2023-03-11 20:24:21:405,0,-7.94323,-2.48203,89.3542
2023-03-11 20:24:21:415,0,-7.94582,-2.48768,89.3613
2023-03-11 20:24:21:425,0,-7.94737,-2.49207,89.3664
2023-03-11 20:24:21:435,0,-7.94774,-2.49068,89.3683
2023-03-11 20:24:21:445,0,-7.95026,-2.4911,89.3702
2023-03-11 20:24:21:455,0,-7.95358,-2.48847,89.3718
2023-03-11 20:24:21:466,0,-7.96128,-2.49057,89.3688
2023-03-11 20:24:21:476,0,-7.96926,-2.49332,89.3647
2023-03-11 20:24:21:486,0,-7.9765,-2.49151,89.3601
2023-03-11 20:24:21:495,0,-7.98377,-2.48727,89.3595
2023-03-11 20:24:21:506,0,-7.9896,-2.48685,89.3602
2023-03-11 20:24:21:516,0,-7.99659,-2.48446,89.3645
2023-03-11 20:24:21:526,0,-8.00196,-2.48075,89.3698
2023-03-11 20:24:21:535,0,-8.0038,-2.4785,89.377
2023-03-11 20:24:21:545,0,-8.00296,-2.47561,89.3822
2023-03-11 20:24:21:555,0,-8.0036,-2.46762,89.3824
2023-03-11 20:24:21:565,0,-8.00101,-2.46426,89.3856
2023-03-11 20:24:21:576,0,-8.00287,-2.45856,89.3843
2023-03-11 20:24:21:585,0,-8.00217,-2.45297,89.385
2023-03-11 20:24:21:595,0,-8.00055,-2.44399,89.3785
2023-03-11 20:24:21:606,0,-7.99891,-2.43363,89.3699
2023-03-11 20:24:21:616,0,-7.99837,-2.4306,89.3651
2023-03-11 20:24:21:626,0,-7.99398,-2.43408,89.3633
2023-03-11 20:24:21:636,0,-7.99135,-2.44156,89.3602
2023-03-11 20:24:21:646,0,-7.99192,-2.4524,89.3587
2023-03-11 20:24:21:655,0,-7.99609,-2.46907,89.3649
2023-03-11 20:24:21:665,0,-8.00261,-2.47785,89.3721
2023-03-11 20:24:21:675,0,-8.00865,-2.48493,89.3841
2023-03-11 20:24:21:686,0,-8.01745,-2.49015,89.4029
2023-03-11 20:24:21:695,0,-8.02351,-2.4956,89.4238
2023-03-11 20:24:21:705,0,-8.02726,-2.5017,89.4485
2023-03-11 20:24:21:715,0,-8.02731,-2.50508,89.4678
2023-03-11 20:24:21:725,0,-8.02609,-2.51135,89.4883
2023-03-11 20:24:21:736,0,-8.02495,-2.5173,89.5044
2023-03-11 20:24:21:746,0,-8.0223,-2.52098,89.5163
2023-03-11 20:24:21:755,0,-8.02186,-2.52301,89.5221
2023-03-11 20:24:21:765,0,-8.02494,-2.52582,89.5233
2023-03-11 20:24:21:775,0,-8.02642,-2.52711,89.5198
2023-03-11 20:24:21:785,0,-8.02997,-2.52828,89.5154
2023-03-11 20:24:21:795,0,-8.03218,-2.52579,89.5062
2023-03-11 20:24:21:805,0,-8.03701,-2.52314,89.4944
2023-03-11 20:24:21:815,0,-8.04366,-2.52422,89.4849
2023-03-11 20:24:21:826,0,-8.05331,-2.52688,89.4769
2023-03-11 20:24:21:835,0,-8.06332,-2.52795,89.4674
2023-03-11 20:24:21:846,0,-8.07016,-2.52085,89.4594
2023-03-11 20:24:21:855,0,-8.06844,-2.51298,89.4537
2023-03-11 20:24:21:865,0,-8.06444,-2.51078,89.4501
2023-03-11 20:24:21:876,0,-8.0619,-2.51222,89.4529
2023-03-11 20:24:21:885,0,-8.0551,-2.51719,89.4536
2023-03-11 20:24:21:895,0,-8.04998,-2.51889,89.4625
2023-03-11 20:24:21:905,0,-8.04496,-2.51737,89.4665
2023-03-11 20:24:21:915,0,-8.04004,-2.5149,89.4694
2023-03-11 20:24:21:925,0,-8.03223,-2.51221,89.4708
2023-03-11 20:24:21:935,0,-8.02623,-2.50937,89.475
2023-03-11 20:24:21:945,0,-8.01761,-2.50708,89.4775
2023-03-11 20:24:21:955,0,-8.00855,-2.50826,89.4814
2023-03-11 20:24:21:965,0,-7.99643,-2.50992,89.482
2023-03-11 20:24:21:975,0,-7.97909,-2.51498,89.4829
2023-03-11 20:24:21:985,0,-7.96521,-2.51989,89.4818
2023-03-11 20:24:21:995,0,-7.95038,-2.52708,89.4789
2023-03-11 20:24:22:5,0,-7.93761,-2.5338,89.4786
2023-03-11 20:24:22:15,0,-7.92435,-2.54197,89.4778
2023-03-11 20:24:22:25,0,-7.91561,-2.55049,89.4788
2023-03-11 20:24:22:35,0,-7.90719,-2.55583,89.4815
2023-03-11 20:24:22:45,0,-7.89887,-2.56398,89.4896
2023-03-11 20:24:22:55,0,-7.89025,-2.57233,89.5007
2023-03-11 20:24:22:65,0,-7.88398,-2.57974,89.5121
2023-03-11 20:24:22:75,0,-7.88257,-2.585,89.5253
2023-03-11 20:24:22:85,0,-7.88056,-2.58791,89.5406
2023-03-11 20:24:22:95,0,-7.88039,-2.59812,89.5544
2023-03-11 20:24:22:106,0,-7.88075,-2.60323,89.5699
2023-03-11 20:24:22:116,0,-7.88349,-2.60678,89.5793
2023-03-11 20:24:22:126,0,-7.8833,-2.61192,89.5873
2023-03-11 20:24:22:135,0,-7.88494,-2.61244,89.592
2023-03-11 20:24:22:145,0,-7.88866,-2.61455,89.6016
2023-03-11 20:24:22:155,0,-7.89196,-2.61652,89.6078
2023-03-11 20:24:22:165,0,-7.89582,-2.61408,89.6174
2023-03-11 20:24:22:176,0,-7.90228,-2.61497,89.625
2023-03-11 20:24:22:186,0,-7.90844,-2.6174,89.6318
2023-03-11 20:24:22:195,0,-7.91002,-2.6165,89.6353
2023-03-11 20:24:22:205,0,-7.91603,-2.61936,89.6363
2023-03-11 20:24:22:215,0,-7.92331,-2.62002,89.6412
2023-03-11 20:24:22:226,0,-7.92897,-2.62006,89.6428
2023-03-11 20:24:22:235,0,-7.93427,-2.62057,89.6447
2023-03-11 20:24:22:246,0,-7.93666,-2.62063,89.6487
2023-03-11 20:24:22:255,0,-7.9388,-2.62145,89.6497
2023-03-11 20:24:22:265,0,-7.93845,-2.61752,89.6513
2023-03-11 20:24:22:275,0,-7.93458,-2.6131,89.6512
2023-03-11 20:24:22:285,0,-7.93584,-2.61017,89.6513
2023-03-11 20:24:22:295,0,-7.94093,-2.60638,89.6524
2023-03-11 20:24:22:306,0,-7.94446,-2.60115,89.6497
2023-03-11 20:24:22:315,0,-7.94838,-2.59815,89.6478
2023-03-11 20:24:22:325,0,-7.95433,-2.5934,89.6411
2023-03-11 20:24:22:335,0,-7.95928,-2.58911,89.6325
2023-03-11 20:24:22:346,0,-7.96112,-2.58234,89.6256
2023-03-11 20:24:22:356,0,-7.95977,-2.5842,89.6202
2023-03-11 20:24:22:366,0,-7.95856,-2.5882,89.6159
2023-03-11 20:24:22:375,0,-7.96115,-2.59595,89.6092
2023-03-11 20:24:22:386,0,-7.97,-2.60711,89.6091
2023-03-11 20:24:22:395,0,-7.98092,-2.61427,89.6108
2023-03-11 20:24:22:405,0,-7.99212,-2.61983,89.6207
2023-03-11 20:24:22:415,0,-8.0044,-2.6207,89.629
2023-03-11 20:24:22:426,0,-8.01637,-2.62227,89.6414
2023-03-11 20:24:22:435,0,-8.02746,-2.6274,89.6516
2023-03-11 20:24:22:445,0,-8.03718,-2.62951,89.667
2023-03-11 20:24:22:455,0,-8.04318,-2.62746,89.6753
2023-03-11 20:24:22:465,0,-8.04695,-2.62181,89.6795
2023-03-11 20:24:22:475,0,-8.0493,-2.61789,89.6795
2023-03-11 20:24:22:485,0,-8.0518,-2.61207,89.6754
2023-03-11 20:24:22:495,0,-8.06092,-2.60832,89.6648
2023-03-11 20:24:22:505,0,-8.06779,-2.60548,89.6522
2023-03-11 20:24:22:515,0,-8.07205,-2.6029,89.6364
2023-03-11 20:24:22:525,0,-8.07977,-2.59517,89.6198
2023-03-11 20:24:22:535,0,-8.08781,-2.59101,89.6025
2023-03-11 20:24:22:546,0,-8.09937,-2.58694,89.5859
2023-03-11 20:24:22:555,0,-8.1092,-2.58422,89.5723
2023-03-11 20:24:22:566,0,-8.12247,-2.57662,89.5606
2023-03-11 20:24:22:575,0,-8.12399,-2.56449,89.5524
2023-03-11 20:24:22:585,0,-8.12379,-2.55461,89.5458
2023-03-11 20:24:22:595,0,-8.12042,-2.54568,89.5394
2023-03-11 20:24:22:605,0,-8.11628,-2.53962,89.5408
2023-03-11 20:24:22:615,0,-8.11408,-2.53443,89.5425
2023-03-11 20:24:22:625,0,-8.10967,-2.5262,89.5428
2023-03-11 20:24:22:635,0,-8.10899,-2.51479,89.5443
2023-03-11 20:24:22:645,0,-8.10823,-2.50647,89.5443
2023-03-11 20:24:22:655,0,-8.10828,-2.50233,89.5423
2023-03-11 20:24:22:665,0,-8.10462,-2.49807,89.5409
2023-03-11 20:24:22:675,0,-8.10231,-2.49629,89.5405
2023-03-11 20:24:22:685,0,-8.09707,-2.4942,89.5398
2023-03-11 20:24:22:695,0,-8.09105,-2.49187,89.5368
2023-03-11 20:24:22:705,0,-8.08287,-2.49162,89.5301
2023-03-11 20:24:22:715,0,-8.07136,-2.49523,89.521
2023-03-11 20:24:22:725,0,-8.06148,-2.49753,89.5152
2023-03-11 20:24:22:735,0,-8.05059,-2.50187,89.5129
2023-03-11 20:24:22:745,0,-8.04328,-2.50725,89.5084
2023-03-11 20:24:22:755,0,-8.032,-2.5109,89.5053
2023-03-11 20:24:22:765,0,-8.02425,-2.51551,89.5066
2023-03-11 20:24:22:775,0,-8.01624,-2.51953,89.5108
2023-03-11 20:24:22:785,0,-8.01078,-2.5248,89.5189
2023-03-11 20:24:22:795,0,-8.00654,-2.52891,89.5265
2023-03-11 20:24:22:805,0,-8.00405,-2.52829,89.5348
2023-03-11 20:24:22:815,0,-8.00131,-2.53093,89.5455
2023-03-11 20:24:22:825,0,-8.00179,-2.53189,89.5531
2023-03-11 20:24:22:835,0,-8.0053,-2.53251,89.5629
2023-03-11 20:24:22:845,0,-8.01158,-2.53316,89.5676
2023-03-11 20:24:22:855,0,-8.01613,-2.53195,89.5694
2023-03-11 20:24:22:865,0,-8.01775,-2.53294,89.5687
2023-03-11 20:24:22:875,0,-8.01967,-2.52803,89.5663
2023-03-11 20:24:22:885,0,-8.02141,-2.52678,89.5593
2023-03-11 20:24:22:895,0,-8.02708,-2.51958,89.5529
2023-03-11 20:24:22:905,0,-8.03237,-2.51352,89.5433
2023-03-11 20:24:22:916,0,-8.03431,-2.50687,89.5326
2023-03-11 20:24:22:925,0,-8.03712,-2.49929,89.5215
2023-03-11 20:24:22:936,0,-8.03967,-2.49481,89.515
2023-03-11 20:24:22:946,0,-8.04574,-2.49048,89.5094
2023-03-11 20:24:22:956,0,-8.04712,-2.48657,89.5025
2023-03-11 20:24:22:966,0,-8.05172,-2.48188,89.4976
2023-03-11 20:24:22:976,0,-8.05014,-2.47564,89.4981
2023-03-11 20:24:22:986,0,-8.05111,-2.46918,89.4967
2023-03-11 20:24:22:995,0,-8.05173,-2.46474,89.498
2023-03-11 20:24:23:5,0,-8.04969,-2.46113,89.4989
2023-03-11 20:24:23:16,0,-8.03713,-2.45647,89.4993
2023-03-11 20:24:23:25,0,-8.02617,-2.4557,89.4985
2023-03-11 20:24:23:35,0,-8.01526,-2.45228,89.4996
2023-03-11 20:24:23:46,0,-8.00669,-2.45127,89.4965
2023-03-11 20:24:23:56,0,-8.00021,-2.4505,89.491
2023-03-11 20:24:23:66,0,-7.99933,-2.44526,89.4835
2023-03-11 20:24:23:76,0,-7.9985,-2.43882,89.4739
2023-03-11 20:24:23:86,0,-7.99508,-2.43859,89.4661
2023-03-11 20:24:23:95,0,-7.98731,-2.44147,89.4599
2023-03-11 20:24:23:106,0,-7.97769,-2.45337,89.4571
2023-03-11 20:24:23:116,0,-7.97679,-2.46785,89.4551
2023-03-11 20:24:23:126,0,-7.97663,-2.47886,89.4536
2023-03-11 20:24:23:136,0,-7.97814,-2.487,89.4553
2023-03-11 20:24:23:146,0,-7.97803,-2.49227,89.4583
2023-03-11 20:24:23:155,0,-7.97742,-2.49732,89.4647
2023-03-11 20:24:23:165,0,-7.97991,-2.5084,89.4729
2023-03-11 20:24:23:175,0,-7.98127,-2.51598,89.4825
2023-03-11 20:24:23:185,0,-7.98118,-2.52061,89.4892
2023-03-11 20:24:23:196,0,-7.97891,-2.52581,89.4967
2023-03-11 20:24:23:206,0,-7.97398,-2.53222,89.5035
2023-03-11 20:24:23:216,0,-7.97488,-2.53539,89.5117
2023-03-11 20:24:23:226,0,-7.97505,-2.53772,89.5149
2023-03-11 20:24:23:236,0,-7.97967,-2.54186,89.5144
2023-03-11 20:24:23:246,0,-7.9824,-2.54054,89.5146
2023-03-11 20:24:23:256,0,-7.98826,-2.54019,89.5089
2023-03-11 20:24:23:266,0,-7.9943,-2.54097,89.5065
2023-03-11 20:24:23:276,0,-8.00202,-2.54045,89.5035
2023-03-11 20:24:23:286,0,-8.01021,-2.54054,89.4998
2023-03-11 20:24:23:295,0,-8.01703,-2.54031,89.4978
2023-03-11 20:24:23:306,0,-8.02327,-2.53567,89.499
2023-03-11 20:24:23:315,0,-8.02457,-2.52729,89.4998
2023-03-11 20:24:23:326,0,-8.02387,-2.52302,89.4985
2023-03-11 20:24:23:335,0,-8.02296,-2.52248,89.5007
2023-03-11 20:24:23:345,0,-8.02228,-2.52463,89.5059
2023-03-11 20:24:23:355,0,-8.02741,-2.5244,89.5139
2023-03-11 20:24:23:366,0,-8.02353,-2.52283,89.5172
2023-03-11 20:24:23:376,0,-8.02464,-2.52247,89.5244
2023-03-11 20:24:23:386,0,-8.02409,-2.52085,89.5305
2023-03-11 20:24:23:396,0,-8.02432,-2.52379,89.537
2023-03-11 20:24:23:406,0,-8.02212,-2.5267,89.545
2023-03-11 20:24:23:416,0,-8.0208,-2.52675,89.549
2023-03-11 20:24:23:426,0,-8.01887,-2.53176,89.5536
2023-03-11 20:24:23:435,0,-8.01685,-2.53817,89.5553
2023-03-11 20:24:23:446,0,-8.01162,-2.54311,89.5559
2023-03-11 20:24:23:455,0,-8.00795,-2.54887,89.5569
2023-03-11 20:24:23:466,0,-8.00123,-2.55699,89.5601
2023-03-11 20:24:23:476,0,-7.99403,-2.56596,89.5624
2023-03-11 20:24:23:485,0,-7.98612,-2.57084,89.5684
2023-03-11 20:24:23:496,0,-7.97805,-2.57837,89.5715
2023-03-11 20:24:23:506,0,-7.97092,-2.58462,89.5787
2023-03-11 20:24:23:516,0,-7.966,-2.58985,89.5854
2023-03-11 20:24:23:526,0,-7.96123,-2.5934,89.5964
2023-03-11 20:24:23:536,0,-7.95733,-2.59679,89.6077
2023-03-11 20:24:23:546,0,-7.9547,-2.59933,89.6221
2023-03-11 20:24:23:556,0,-7.95586,-2.60012,89.6336
2023-03-11 20:24:23:566,0,-7.95629,-2.59609,89.6414
2023-03-11 20:24:23:575,0,-7.95784,-2.59147,89.6479
2023-03-11 20:24:23:586,0,-7.96056,-2.58709,89.6555
2023-03-11 20:24:23:596,0,-7.96489,-2.58202,89.6584
2023-03-11 20:24:23:606,0,-7.96791,-2.57929,89.657
2023-03-11 20:24:23:616,0,-7.96823,-2.572,89.6527
2023-03-11 20:24:23:626,0,-7.96838,-2.57306,89.6399
2023-03-11 20:24:23:635,0,-7.972,-2.56671,89.6285
2023-03-11 20:24:23:646,0,-7.97895,-2.561,89.6178
2023-03-11 20:24:23:656,0,-7.98509,-2.55515,89.6084
2023-03-11 20:24:23:666,0,-7.9911,-2.55062,89.5939
2023-03-11 20:24:23:675,0,-7.9944,-2.54792,89.5851
2023-03-11 20:24:23:686,0,-7.99442,-2.54642,89.5776
2023-03-11 20:24:23:696,0,-7.99876,-2.54335,89.5714
2023-03-11 20:24:23:706,0,-7.99766,-2.53829,89.5657
2023-03-11 20:24:23:716,0,-7.99506,-2.53489,89.5639
2023-03-11 20:24:23:726,0,-7.98811,-2.53744,89.5619
2023-03-11 20:24:23:736,0,-7.98177,-2.53769,89.563
2023-03-11 20:24:23:746,0,-7.97969,-2.54038,89.5672
2023-03-11 20:24:23:755,0,-7.97257,-2.54405,89.5734
2023-03-11 20:24:23:765,0,-7.97234,-2.54574,89.5782
2023-03-11 20:24:23:776,0,-7.96971,-2.5467,89.5826
2023-03-11 20:24:23:785,0,-7.96763,-2.54287,89.5869
2023-03-11 20:24:23:795,0,-7.9697,-2.54255,89.5882
2023-03-11 20:24:23:805,0,-7.97535,-2.53759,89.592
2023-03-11 20:24:23:815,0,-7.97655,-2.53662,89.5952
2023-03-11 20:24:23:825,0,-7.97554,-2.54355,89.5964
2023-03-11 20:24:23:835,0,-7.97325,-2.55374,89.6008
2023-03-11 20:24:23:845,0,-7.97473,-2.56931,89.6059
2023-03-11 20:24:23:855,0,-7.98057,-2.58167,89.6152
2023-03-11 20:24:23:865,0,-7.98957,-2.59367,89.6212
2023-03-11 20:24:23:875,0,-8.00149,-2.60396,89.6354
2023-03-11 20:24:23:885,0,-8.01275,-2.60889,89.6435
2023-03-11 20:24:23:895,0,-8.02187,-2.61332,89.659
2023-03-11 20:24:23:906,0,-8.03244,-2.62271,89.6732
2023-03-11 20:24:23:916,0,-8.04163,-2.62774,89.686
2023-03-11 20:24:23:926,0,-8.04827,-2.63048,89.7021
2023-03-11 20:24:23:935,0,-8.04951,-2.62814,89.7117
2023-03-11 20:24:23:946,0,-8.04864,-2.62658,89.7174
2023-03-11 20:24:23:956,0,-8.05098,-2.62319,89.7184
2023-03-11 20:24:23:966,0,-8.05446,-2.62095,89.7186
2023-03-11 20:24:23:976,0,-8.06025,-2.61219,89.7144
2023-03-11 20:24:23:986,0,-8.06991,-2.60318,89.7091
2023-03-11 20:24:23:995,0,-8.07734,-2.59504,89.7007
2023-03-11 20:24:24:6,0,-8.08143,-2.58807,89.6897
2023-03-11 20:24:24:16,0,-8.08909,-2.58399,89.6782
2023-03-11 20:24:24:26,0,-8.09306,-2.57544,89.6668
2023-03-11 20:24:24:36,0,-8.09208,-2.56702,89.6565
2023-03-11 20:24:24:45,0,-8.09078,-2.55469,89.6435
2023-03-11 20:24:24:55,0,-8.08825,-2.5407,89.6298
2023-03-11 20:24:24:65,0,-8.07896,-2.53155,89.6204
2023-03-11 20:24:24:75,0,-8.07456,-2.52681,89.6143
2023-03-11 20:24:24:85,0,-8.06851,-2.52684,89.6127
2023-03-11 20:24:24:96,0,-8.06337,-2.52454,89.6134
2023-03-11 20:24:24:105,0,-8.05606,-2.51919,89.6141
2023-03-11 20:24:24:115,0,-8.04535,-2.51462,89.6193
2023-03-11 20:24:24:125,0,-8.03765,-2.51084,89.6251
2023-03-11 20:24:24:135,0,-8.02869,-2.51415,89.6343
2023-03-11 20:24:24:145,0,-8.0155,-2.51705,89.643
2023-03-11 20:24:24:156,0,-8.00102,-2.52387,89.652
2023-03-11 20:24:24:165,0,-7.99052,-2.52914,89.6613
2023-03-11 20:24:24:175,0,-7.97832,-2.53563,89.6717
2023-03-11 20:24:24:185,0,-7.96557,-2.54034,89.6804
2023-03-11 20:24:24:196,0,-7.95225,-2.54394,89.6893
2023-03-11 20:24:24:205,0,-7.94365,-2.55335,89.6949
2023-03-11 20:24:24:215,0,-7.93693,-2.5623,89.7024
2023-03-11 20:24:24:225,0,-7.92957,-2.57349,89.7044
2023-03-11 20:24:24:235,0,-7.92379,-2.58569,89.7115
2023-03-11 20:24:24:245,0,-7.91778,-2.59234,89.7154
2023-03-11 20:24:24:255,0,-7.91428,-2.60483,89.7284
2023-03-11 20:24:24:265,0,-7.91061,-2.61633,89.7379
2023-03-11 20:24:24:276,0,-7.91067,-2.62897,89.7534
2023-03-11 20:24:24:286,0,-7.90887,-2.64175,89.7676
2023-03-11 20:24:24:296,0,-7.91267,-2.64903,89.7821
2023-03-11 20:24:24:306,0,-7.91473,-2.65941,89.7967
2023-03-11 20:24:24:315,0,-7.91651,-2.66581,89.8105
2023-03-11 20:24:24:325,0,-7.92019,-2.66984,89.8216
2023-03-11 20:24:24:335,0,-7.92903,-2.67035,89.831
2023-03-11 20:24:24:345,0,-7.93274,-2.67278,89.8336
2023-03-11 20:24:24:355,0,-7.93863,-2.67059,89.8376
2023-03-11 20:24:24:365,0,-7.94349,-2.67263,89.8355
2023-03-11 20:24:24:375,0,-7.94752,-2.67131,89.8323
2023-03-11 20:24:24:385,0,-7.94818,-2.67126,89.8265
2023-03-11 20:24:24:395,0,-7.94921,-2.67052,89.8172
2023-03-11 20:24:24:405,0,-7.9537,-2.66968,89.8092
2023-03-11 20:24:24:415,0,-7.9574,-2.67043,89.8032
2023-03-11 20:24:24:425,0,-7.96166,-2.66684,89.7949
2023-03-11 20:24:24:435,0,-7.96596,-2.66231,89.7899
2023-03-11 20:24:24:445,0,-7.96895,-2.65795,89.7876
2023-03-11 20:24:24:455,0,-7.96971,-2.65311,89.7883
2023-03-11 20:24:24:465,0,-7.96778,-2.64979,89.7893
2023-03-11 20:24:24:475,0,-7.96311,-2.6479,89.7952
2023-03-11 20:24:24:485,0,-7.95994,-2.6427,89.8034
2023-03-11 20:24:24:495,0,-7.9554,-2.64033,89.8062
2023-03-11 20:24:24:505,0,-7.95187,-2.63727,89.8127
2023-03-11 20:24:24:515,0,-7.94909,-2.63155,89.8158
2023-03-11 20:24:24:525,0,-7.94212,-2.62902,89.8134
2023-03-11 20:24:24:535,0,-7.93941,-2.62726,89.8128
2023-03-11 20:24:24:545,0,-7.93927,-2.62301,89.8079
2023-03-11 20:24:24:555,0,-7.94173,-2.62066,89.7988
2023-03-11 20:24:24:566,0,-7.93638,-2.62087,89.7892
2023-03-11 20:24:24:575,0,-7.93193,-2.6282,89.7866
2023-03-11 20:24:24:585,0,-7.92792,-2.64089,89.7877
2023-03-11 20:24:24:596,0,-7.92987,-2.65721,89.7913
2023-03-11 20:24:24:605,0,-7.93817,-2.67248,89.7971
2023-03-11 20:24:24:616,0,-7.94888,-2.68408,89.805
2023-03-11 20:24:24:625,0,-7.96005,-2.69351,89.8198
2023-03-11 20:24:24:635,0,-7.96838,-2.70198,89.8387
2023-03-11 20:24:24:645,0,-7.9756,-2.70827,89.8572
2023-03-11 20:24:24:655,0,-7.981,-2.71221,89.8732
2023-03-11 20:24:24:665,0,-7.98171,-2.71537,89.8886
2023-03-11 20:24:24:675,0,-7.98026,-2.71354,89.9012
2023-03-11 20:24:24:685,0,-7.98186,-2.71105,89.9087
2023-03-11 20:24:24:695,0,-7.98238,-2.70982,89.9084
2023-03-11 20:24:24:705,0,-7.98462,-2.70782,89.9039
2023-03-11 20:24:24:715,0,-7.99006,-2.70513,89.8987
2023-03-11 20:24:24:725,0,-7.99484,-2.70233,89.89
2023-03-11 20:24:24:735,0,-7.99669,-2.69849,89.8778
2023-03-11 20:24:24:746,0,-8.00085,-2.69551,89.8667
2023-03-11 20:24:24:755,0,-8.00384,-2.69296,89.8584
2023-03-11 20:24:24:765,0,-8.00688,-2.68793,89.848
2023-03-11 20:24:24:775,0,-8.01204,-2.68128,89.8421
2023-03-11 20:24:24:786,0,-8.01638,-2.67361,89.8356
2023-03-11 20:24:24:795,0,-8.01629,-2.66493,89.8283
2023-03-11 20:24:24:806,0,-8.01095,-2.65449,89.8243
2023-03-11 20:24:24:815,0,-8.00218,-2.64525,89.8236
2023-03-11 20:24:24:825,0,-7.99355,-2.64304,89.829
2023-03-11 20:24:24:835,0,-7.98848,-2.64174,89.8326
2023-03-11 20:24:24:846,0,-7.98706,-2.63879,89.8369
2023-03-11 20:24:24:855,0,-7.98704,-2.63484,89.841
2023-03-11 20:24:24:865,0,-7.98635,-2.6333,89.8444
2023-03-11 20:24:24:876,0,-7.98409,-2.63066,89.8441
2023-03-11 20:24:24:886,0,-7.9819,-2.63177,89.844
2023-03-11 20:24:24:896,0,-7.97949,-2.63063,89.8419
2023-03-11 20:24:24:906,0,-7.97669,-2.63145,89.8382
2023-03-11 20:24:24:915,0,-7.97176,-2.63207,89.8332
2023-03-11 20:24:24:926,0,-7.96931,-2.63393,89.8281
2023-03-11 20:24:24:935,0,-7.96757,-2.63651,89.8241
2023-03-11 20:24:24:945,0,-7.96499,-2.64192,89.8195
2023-03-11 20:24:24:955,0,-7.95911,-2.64742,89.8172
2023-03-11 20:24:24:966,0,-7.9532,-2.6543,89.8182
2023-03-11 20:24:24:975,0,-7.95107,-2.65962,89.8242
2023-03-11 20:24:24:985,0,-7.94586,-2.66521,89.833
2023-03-11 20:24:24:996,0,-7.94572,-2.67054,89.8434
2023-03-11 20:24:25:5,0,-7.94604,-2.67826,89.8567
2023-03-11 20:24:25:15,0,-7.95083,-2.68516,89.8684
2023-03-11 20:24:25:25,0,-7.95073,-2.69419,89.8812
2023-03-11 20:24:25:35,0,-7.95079,-2.70222,89.8905
2023-03-11 20:24:25:45,0,-7.95445,-2.70754,89.8989
2023-03-11 20:24:25:55,0,-7.96404,-2.71457,89.9079
2023-03-11 20:24:25:65,0,-7.9707,-2.71731,89.9112
2023-03-11 20:24:25:75,0,-7.97902,-2.71417,89.9142
2023-03-11 20:24:25:86,0,-7.98776,-2.71131,89.916
2023-03-11 20:24:25:96,0,-7.99523,-2.70838,89.9139
2023-03-11 20:24:25:106,0,-8.00178,-2.70393,89.9086
2023-03-11 20:24:25:116,0,-8.00903,-2.70124,89.8997
2023-03-11 20:24:25:126,0,-8.01476,-2.69595,89.8909
2023-03-11 20:24:25:136,0,-8.02163,-2.69546,89.8807
2023-03-11 20:24:25:146,0,-8.02806,-2.69368,89.8697
2023-03-11 20:24:25:155,0,-8.03977,-2.69127,89.8563
2023-03-11 20:24:25:166,0,-8.05016,-2.69186,89.8398
2023-03-11 20:24:25:176,0,-8.06142,-2.69003,89.8238
2023-03-11 20:24:25:186,0,-8.06871,-2.68973,89.8108
2023-03-11 20:24:25:195,0,-8.07645,-2.68619,89.7992
2023-03-11 20:24:25:206,0,-8.08435,-2.68196,89.7919
2023-03-11 20:24:25:216,0,-8.09085,-2.67532,89.7868
2023-03-11 20:24:25:225,0,-8.09546,-2.67053,89.7891
2023-03-11 20:24:25:236,0,-8.09823,-2.6639,89.7906
2023-03-11 20:24:25:246,0,-8.09588,-2.65843,89.7945
2023-03-11 20:24:25:256,0,-8.09298,-2.64984,89.7966
2023-03-11 20:24:25:266,0,-8.08746,-2.64107,89.7982
2023-03-11 20:24:25:275,0,-8.08429,-2.63478,89.7977
2023-03-11 20:24:25:285,0,-8.08018,-2.62756,89.7976
2023-03-11 20:24:25:296,0,-8.07837,-2.62057,89.7972
2023-03-11 20:24:25:305,0,-8.07967,-2.60903,89.7933
2023-03-11 20:24:25:315,0,-8.07899,-2.60416,89.7829
2023-03-11 20:24:25:326,0,-8.0739,-2.60702,89.7754
2023-03-11 20:24:25:336,0,-8.06971,-2.61168,89.7705
2023-03-11 20:24:25:346,0,-8.06731,-2.62408,89.7677
2023-03-11 20:24:25:355,0,-8.06677,-2.63694,89.7706
2023-03-11 20:24:25:366,0,-8.06945,-2.65078,89.7764
2023-03-11 20:24:25:375,0,-8.07564,-2.65621,89.7839
2023-03-11 20:24:25:385,0,-8.08274,-2.6624,89.7933
2023-03-11 20:24:25:395,0,-8.08751,-2.66725,89.8078
