Timestamp_cmd,imu_cmd,roll_delta,pitch_delta,yaw_delta,voice_type,voice_length
2023-03-14 17:11:18:486,0,-3.10951,-1.90943,74.4768,Q,Q
2023-03-14 17:11:18:495,0,-3.11309,-1.90215,74.4789,Q,Q
2023-03-14 17:11:18:505,0,-3.12088,-1.88873,74.4835,Q,Q
2023-03-14 17:11:18:515,0,-3.12932,-1.87934,74.4873,Q,Q
2023-03-14 17:11:18:525,0,-3.13706,-1.86758,74.4869,Q,Q
2023-03-14 17:11:18:535,0,-3.13887,-1.85265,74.4837,Q,Q
2023-03-14 17:11:18:545,0,-3.14152,-1.84234,74.4786,Q,Q
2023-03-14 17:11:18:555,0,-3.14134,-1.8292,74.4712,Q,Q
2023-03-14 17:11:18:565,0,-3.13704,-1.81839,74.4599,Q,Q
2023-03-14 17:11:18:575,0,-3.12971,-1.80977,74.4365,Q,Q
2023-03-14 17:11:18:585,0,-3.11606,-1.79974,74.4124,Q,Q
2023-03-14 17:11:18:595,0,-3.09645,-1.80012,74.3884,Q,Q
2023-03-14 17:11:18:605,0,-3.08058,-1.80516,74.3617,Q,Q
2023-03-14 17:11:18:615,0,-3.06217,-1.81379,74.3399,Q,Q
2023-03-14 17:11:18:625,0,-3.04654,-1.82191,74.3202,Q,Q
2023-03-14 17:11:18:635,0,-3.03238,-1.83204,74.3062,Q,Q
2023-03-14 17:11:18:645,0,-3.02118,-1.84528,74.2949,Q,Q
2023-03-14 17:11:18:655,0,-3.01706,-1.8623,74.2837,Q,Q
2023-03-14 17:11:18:665,0,-3.0156,-1.8781,74.2798,Q,Q
2023-03-14 17:11:18:675,0,-3.01538,-1.89712,74.2795,Q,Q
2023-03-14 17:11:18:685,0,-3.01145,-1.9169,74.2822,Q,Q
2023-03-14 17:11:18:695,0,-3.01023,-1.9365,74.2856,Q,Q
2023-03-14 17:11:18:705,0,-3.0087,-1.95457,74.2936,Q,Q
2023-03-14 17:11:18:715,0,-3.00647,-1.97232,74.3041,Q,Q
2023-03-14 17:11:18:725,0,-3.00418,-1.98704,74.313,Q,Q
2023-03-14 17:11:18:735,0,-3.0039,-2.00092,74.321,Q,Q
2023-03-14 17:11:18:745,0,-3.00393,-2.01083,74.3273,Q,Q
2023-03-14 17:11:18:755,0,-3.00155,-2.01397,74.3373,Q,Q
2023-03-14 17:11:18:765,0,-2.99913,-2.01501,74.3442,Q,Q
2023-03-14 17:11:18:775,0,-2.99551,-2.0192,74.353,Q,Q
2023-03-14 17:11:18:785,0,-2.99674,-2.02209,74.3594,Q,Q
2023-03-14 17:11:18:795,0,-2.99853,-2.02611,74.3617,Q,Q
2023-03-14 17:11:18:805,0,-2.99528,-2.0299,74.3646,Q,Q
2023-03-14 17:11:18:815,0,-2.99109,-2.03122,74.3648,Q,Q
2023-03-14 17:11:18:825,0,-2.98238,-2.02946,74.3712,Q,Q
2023-03-14 17:11:18:835,0,-2.97005,-2.03088,74.3759,Q,Q
2023-03-14 17:11:18:845,0,-2.95926,-2.03043,74.376,Q,Q
2023-03-14 17:11:18:855,0,-2.94868,-2.02896,74.3764,Q,Q
2023-03-14 17:11:18:865,0,-2.94069,-2.02541,74.377,Q,Q
2023-03-14 17:11:18:875,0,-2.92673,-2.01905,74.3749,Q,Q
2023-03-14 17:11:18:885,0,-2.91047,-2.0148,74.373,Q,Q
2023-03-14 17:11:18:895,0,-2.8997,-2.011,74.3673,Q,Q
2023-03-14 17:11:18:905,0,-2.88994,-2.00988,74.3613,Q,Q
2023-03-14 17:11:18:915,0,-2.88116,-2.00185,74.3534,Q,Q
2023-03-14 17:11:18:925,0,-2.86865,-1.99703,74.347,Q,Q
2023-03-14 17:11:18:935,0,-2.85523,-1.99129,74.3353,Q,Q
2023-03-14 17:11:18:945,0,-2.84618,-1.9861,74.3255,Q,Q
2023-03-14 17:11:18:955,0,-2.84063,-1.981,74.3155,Q,Q
2023-03-14 17:11:18:965,0,-2.83744,-1.97352,74.3015,Q,Q
2023-03-14 17:11:18:975,0,-2.83411,-1.96504,74.2922,Q,Q
2023-03-14 17:11:18:985,0,-2.83125,-1.95837,74.2794,Q,Q
2023-03-14 17:11:18:995,0,-2.82951,-1.95248,74.2658,Q,Q
2023-03-14 17:11:19:5,0,-2.82354,-1.94811,74.2552,Q,Q
2023-03-14 17:11:19:15,0,-2.82127,-1.94307,74.2433,Q,Q
2023-03-14 17:11:19:25,0,-2.81359,-1.93853,74.2316,Q,Q
2023-03-14 17:11:19:35,0,-2.80619,-1.93534,74.2222,Q,Q
2023-03-14 17:11:19:45,0,-2.80169,-1.93237,74.2179,Q,Q
2023-03-14 17:11:19:55,0,-2.79713,-1.93186,74.2116,Q,Q
2023-03-14 17:11:19:65,0,-2.79364,-1.9321,74.2063,Q,Q
2023-03-14 17:11:19:75,0,-2.78704,-1.93,74.2027,Q,Q
2023-03-14 17:11:19:85,0,-2.78051,-1.93141,74.1981,Q,Q
2023-03-14 17:11:19:95,0,-2.77101,-1.93335,74.1937,Q,Q
2023-03-14 17:11:19:105,0,-2.76045,-1.93197,74.1885,Q,Q
2023-03-14 17:11:19:115,0,-2.74608,-1.93336,74.1812,Q,Q
2023-03-14 17:11:19:125,0,-2.72789,-1.93301,74.1738,Q,Q
2023-03-14 17:11:19:135,0,-2.70814,-1.93245,74.1672,Q,Q
2023-03-14 17:11:19:145,0,-2.68483,-1.92519,74.1576,Q,Q
2023-03-14 17:11:19:155,0,-2.66514,-1.92611,74.15,Q,Q
2023-03-14 17:11:19:164,0,-2.65043,-1.92641,74.143,Q,Q
2023-03-14 17:11:19:175,0,-2.6387,-1.9324,74.1359,Q,Q
2023-03-14 17:11:19:184,0,-2.62238,-1.93892,74.1286,Q,Q
2023-03-14 17:11:19:195,0,-2.60829,-1.94468,74.1219,Q,Q
2023-03-14 17:11:19:205,0,-2.59286,-1.95397,74.1165,Q,Q
2023-03-14 17:11:19:215,0,-2.57558,-1.95557,74.119,Q,Q
2023-03-14 17:11:19:225,0,-2.55461,-1.95989,74.1198,Q,Q
2023-03-14 17:11:19:235,0,-2.53928,-1.96052,74.1234,Q,Q
2023-03-14 17:11:19:245,0,-2.52387,-1.96279,74.1291,Q,Q
2023-03-14 17:11:19:255,0,-2.51338,-1.96573,74.1317,Q,Q
2023-03-14 17:11:19:265,0,-2.49986,-1.97187,74.1383,Q,Q
2023-03-14 17:11:19:275,0,-2.49464,-1.9781,74.1441,Q,Q
2023-03-14 17:11:19:285,0,-2.49065,-1.98155,74.147,Q,Q
2023-03-14 17:11:19:295,0,-2.48783,-1.97914,74.149,Q,Q
2023-03-14 17:11:19:305,0,-2.48386,-1.97776,74.1533,Q,Q
2023-03-14 17:11:19:314,0,-2.4807,-1.97606,74.1561,Q,Q
2023-03-14 17:11:19:324,0,-2.47512,-1.97276,74.1614,Q,Q
2023-03-14 17:11:19:334,0,-2.47348,-1.97245,74.1667,Q,Q
2023-03-14 17:11:19:345,0,-2.46344,-1.97043,74.1707,Q,Q
2023-03-14 17:11:19:355,0,-2.45693,-1.96878,74.1749,Q,Q
2023-03-14 17:11:19:365,0,-2.44832,-1.97071,74.1776,Q,Q
2023-03-14 17:11:19:375,0,-2.44161,-1.97599,74.1808,Q,Q
2023-03-14 17:11:19:385,0,-2.43887,-1.98275,74.1875,Q,Q
2023-03-14 17:11:19:395,0,-2.43155,-1.9914,74.194,Q,Q
2023-03-14 17:11:19:405,0,-2.4225,-1.99715,74.1996,Q,Q
2023-03-14 17:11:19:415,0,-2.41161,-2.00411,74.2022,Q,Q
2023-03-14 17:11:19:424,0,-2.40443,-2.0099,74.2036,Q,Q
2023-03-14 17:11:19:435,0,-2.40116,-2.0168,74.2016,Q,Q
2023-03-14 17:11:19:445,0,-2.40186,-2.02494,74.206,Q,Q
2023-03-14 17:11:19:455,0,-2.40293,-2.03592,74.2099,Q,Q
2023-03-14 17:11:19:465,0,-2.40872,-2.04872,74.2162,Q,Q
2023-03-14 17:11:19:475,0,-2.41483,-2.06399,74.2244,Q,Q
2023-03-14 17:11:19:485,0,-2.42019,-2.08048,74.2356,Q,Q
2023-03-14 17:11:19:495,0,-2.42513,-2.10052,74.2535,Q,Q
2023-03-14 17:11:19:505,0,-2.42968,-2.11654,74.2738,Q,Q
2023-03-14 17:11:19:515,0,-2.4358,-2.13096,74.2959,Q,Q
2023-03-14 17:11:19:525,0,-2.44414,-2.13669,74.3113,Q,Q
2023-03-14 17:11:19:535,0,-2.4543,-2.13241,74.3199,Q,Q
2023-03-14 17:11:19:545,0,-2.46611,-2.12613,74.3218,Q,Q
2023-03-14 17:11:19:555,0,-2.47975,-2.12015,74.3197,Q,Q
2023-03-14 17:11:19:565,0,-2.48765,-2.12494,74.3096,Q,Q
2023-03-14 17:11:19:575,0,-2.48414,-2.13417,74.2921,Q,Q
2023-03-14 17:11:19:585,0,-2.47823,-2.15117,74.2623,Q,Q
2023-03-14 17:11:19:595,0,-2.47194,-2.16977,74.2251,Q,Q
2023-03-14 17:11:19:605,0,-2.46965,-2.18658,74.1828,Q,Q
2023-03-14 17:11:19:615,0,-2.46818,-2.20574,74.1284,Q,Q
2023-03-14 17:11:19:625,0,-2.47332,-2.23205,74.0675,Q,Q
2023-03-14 17:11:19:635,0,-2.47802,-2.26526,74.0077,Q,Q
2023-03-14 17:11:19:645,0,-2.48445,-2.29973,73.9514,Q,Q
2023-03-14 17:11:19:655,0,-2.49709,-2.33531,73.8992,Q,Q
2023-03-14 17:11:19:665,0,-2.52099,-2.37272,73.8565,Q,Q
2023-03-14 17:11:19:675,0,-2.54572,-2.40959,73.8216,Q,Q
2023-03-14 17:11:19:685,0,-2.57118,-2.44054,73.7958,Q,Q
2023-03-14 17:11:19:695,0,-2.5987,-2.47095,73.7817,Q,Q
2023-03-14 17:11:19:705,0,-2.62246,-2.50834,73.7792,Q,Q
2023-03-14 17:11:19:715,0,-2.63861,-2.55203,73.7908,Q,Q
2023-03-14 17:11:19:725,0,-2.65537,-2.60553,73.8209,Q,Q
2023-03-14 17:11:19:735,0,-2.68255,-2.65802,73.858,Q,Q
2023-03-14 17:11:19:745,0,-2.71891,-2.71075,73.897,Q,Q
2023-03-14 17:11:19:755,0,-2.76377,-2.75983,73.9377,Q,Q
2023-03-14 17:11:19:765,0,-2.82123,-2.79675,73.9771,Q,Q
2023-03-14 17:11:19:775,0,-2.89051,-2.8172,74.0157,Q,Q
2023-03-14 17:11:19:785,0,-2.97001,-2.82813,74.0472,Q,Q
2023-03-14 17:11:19:795,0,-3.0451,-2.82971,74.0814,Q,Q
2023-03-14 17:11:19:805,0,-3.10857,-2.82943,74.1265,Q,Q
2023-03-14 17:11:19:815,0,-3.15711,-2.8334,74.1736,Q,Q
2023-03-14 17:11:19:825,0,-3.19355,-2.83571,74.2365,Q,Q
2023-03-14 17:11:19:835,0,-3.23387,-2.84221,74.305,Q,Q
2023-03-14 17:11:19:845,0,-3.28298,-2.84326,74.3738,Q,Q
2023-03-14 17:11:19:855,0,-3.34177,-2.83881,74.4478,Q,Q
2023-03-14 17:11:19:865,0,-3.41768,-2.8329,74.5244,Q,Q
2023-03-14 17:11:19:875,0,-3.5152,-2.8211,74.602,Q,Q
2023-03-14 17:11:19:885,0,-3.64078,-2.80159,74.6782,Q,Q
2023-03-14 17:11:19:895,0,-3.79955,-2.77682,74.7527,Q,Q
2023-03-14 17:11:19:905,0,-3.9888,-2.74983,74.8266,Q,Q
2023-03-14 17:11:19:915,0,-4.2001,-2.72595,74.8984,Q,Q
2023-03-14 17:11:19:925,0,-4.42235,-2.70266,74.9681,Q,Q
2023-03-14 17:11:19:935,0,-4.64176,-2.6788,75.0384,Q,Q
2023-03-14 17:11:19:945,0,-4.85594,-2.65721,75.1064,Q,Q
2023-03-14 17:11:19:955,0,-5.06673,-2.63501,75.1745,Q,Q
2023-03-14 17:11:19:965,0,-5.27626,-2.60917,75.2413,Q,Q
2023-03-14 17:11:19:975,0,-5.50031,-2.58633,75.3053,Q,Q
2023-03-14 17:11:19:985,0,-5.73615,-2.56709,75.3682,Q,Q
2023-03-14 17:11:19:995,0,-5.98848,-2.53963,75.4294,Q,Q
2023-03-14 17:11:20:5,0,-6.2444,-2.49983,75.4849,Q,Q
2023-03-14 17:11:20:15,0,-6.49902,-2.46352,75.53,Q,Q
2023-03-14 17:11:20:25,0,-6.73805,-2.43664,75.5664,Q,Q
2023-03-14 17:11:20:35,0,-6.94297,-2.41154,75.5954,Q,Q
2023-03-14 17:11:20:45,0,-7.11499,-2.38602,75.6245,Q,Q
2023-03-14 17:11:20:55,0,-7.25293,-2.36795,75.6507,Q,Q
2023-03-14 17:11:20:65,0,-7.37309,-2.35305,75.6809,Q,Q
2023-03-14 17:11:20:75,0,-7.47538,-2.34296,75.7136,Q,Q
2023-03-14 17:11:20:85,0,-7.57375,-2.33472,75.7495,Q,Q
2023-03-14 17:11:20:95,0,-7.67572,-2.33814,75.7895,Q,Q
2023-03-14 17:11:20:109,0,-7.78235,-2.34614,75.8249,Q,Q
2023-03-14 17:11:20:115,0,-7.89501,-2.35106,75.8613,Q,Q
2023-03-14 17:11:20:125,0,-8.00263,-2.36197,75.897,Q,Q
2023-03-14 17:11:20:135,0,-8.10481,-2.36506,75.9282,Q,Q
2023-03-14 17:11:20:145,0,-8.21052,-2.36093,75.9553,Q,Q
2023-03-14 17:11:20:155,0,-8.3157,-2.35363,75.9737,Q,Q
2023-03-14 17:11:20:165,0,-8.42339,-2.33753,75.9848,Q,Q
2023-03-14 17:11:20:175,0,-8.52115,-2.31259,75.989,Q,Q
2023-03-14 17:11:20:185,0,-8.60371,-2.2844,75.988,Q,Q
2023-03-14 17:11:20:195,0,-8.66845,-2.2513,75.9782,Q,Q
2023-03-14 17:11:20:205,0,-8.72712,-2.21569,75.9661,Q,Q
2023-03-14 17:11:20:215,0,-8.78512,-2.18164,75.9535,Q,Q
2023-03-14 17:11:20:225,0,-8.84089,-2.14977,75.9397,Q,Q
2023-03-14 17:11:20:235,0,-8.89498,-2.11726,75.9295,Q,Q
2023-03-14 17:11:20:245,0,-8.94545,-2.08725,75.9264,Q,Q
2023-03-14 17:11:20:255,0,-8.99338,-2.06002,75.9295,Q,Q
2023-03-14 17:11:20:265,0,-9.02624,-2.03214,75.9358,Q,Q
2023-03-14 17:11:20:275,0,-9.04872,-2.00908,75.9487,Q,Q
2023-03-14 17:11:20:285,0,-9.06474,-1.99573,75.9654,Q,Q
2023-03-14 17:11:20:295,0,-9.07452,-1.98572,75.9835,Q,Q
2023-03-14 17:11:20:305,0,-9.06958,-1.97906,76.0041,Q,Q
2023-03-14 17:11:20:315,0,-9.05519,-1.97746,76.0305,Q,Q
2023-03-14 17:11:20:325,0,-9.02995,-1.9759,76.0592,Q,Q
2023-03-14 17:11:20:335,0,-8.99009,-1.97932,76.0846,Q,Q
2023-03-14 17:11:20:345,0,-8.93417,-1.98729,76.1165,Q,Q
2023-03-14 17:11:20:355,0,-8.86228,-1.99739,76.1505,Q,Q
2023-03-14 17:11:20:365,0,-8.77046,-2.01223,76.1837,Q,Q
2023-03-14 17:11:20:375,0,-8.66597,-2.0317,76.2183,Q,Q
2023-03-14 17:11:20:385,0,-8.5368,-2.04565,76.252,Q,Q
2023-03-14 17:11:20:395,0,-8.38226,-2.05539,76.2794,Q,Q
2023-03-14 17:11:20:405,0,-8.21281,-2.06296,76.3054,Q,Q
2023-03-14 17:11:20:415,0,-8.02526,-2.05901,76.327,Q,Q
2023-03-14 17:11:20:425,0,-7.83277,-2.05763,76.3502,Q,Q
2023-03-14 17:11:20:435,0,-7.64316,-2.05293,76.3677,Q,Q
2023-03-14 17:11:20:445,0,-7.45242,-2.04698,76.3827,Q,Q
2023-03-14 17:11:20:455,0,-7.25017,-2.04065,76.3945,Q,Q
2023-03-14 17:11:20:465,0,-7.02728,-2.03188,76.4011,Q,Q
2023-03-14 17:11:20:475,0,-6.78768,-2.02066,76.4021,Q,Q
2023-03-14 17:11:20:485,0,-6.53652,-2.00108,76.4048,Q,Q
2023-03-14 17:11:20:495,0,-6.29226,-1.98067,76.4104,Q,Q
2023-03-14 17:11:20:505,0,-6.0623,-1.9583,76.4164,Q,Q
2023-03-14 17:11:20:515,0,-5.84609,-1.93948,76.4172,Q,Q
2023-03-14 17:11:20:525,0,-5.64635,-1.91744,76.4201,Q,Q
2023-03-14 17:11:20:535,0,-5.46148,-1.90206,76.4177,Q,Q
2023-03-14 17:11:20:545,0,-5.29096,-1.88882,76.4155,Q,Q
2023-03-14 17:11:20:555,0,-5.13537,-1.87733,76.4075,Q,Q
2023-03-14 17:11:20:565,0,-4.996,-1.86307,76.3941,Q,Q
2023-03-14 17:11:20:575,0,-4.87291,-1.84618,76.3722,Q,Q
2023-03-14 17:11:20:585,0,-4.77159,-1.8283,76.3507,Q,Q
2023-03-14 17:11:20:595,0,-4.6957,-1.80184,76.3193,Q,Q
2023-03-14 17:11:20:605,0,-4.64676,-1.77886,76.2809,Q,Q
2023-03-14 17:11:20:615,0,-4.61409,-1.75924,76.238,Q,Q
2023-03-14 17:11:20:625,0,-4.59646,-1.73828,76.1869,Q,Q
2023-03-14 17:11:20:635,0,-4.58684,-1.71798,76.1356,Q,Q
2023-03-14 17:11:20:645,0,-4.58866,-1.69852,76.0852,Q,Q
2023-03-14 17:11:20:655,0,-4.5961,-1.67456,76.0323,Q,Q
2023-03-14 17:11:20:665,0,-4.60581,-1.65214,75.9832,Q,Q
2023-03-14 17:11:20:675,0,-4.61553,-1.63365,75.9392,Q,Q
2023-03-14 17:11:20:685,0,-4.63087,-1.61063,75.8958,Q,Q
2023-03-14 17:11:20:695,0,-4.64579,-1.58377,75.8589,Q,Q
2023-03-14 17:11:20:705,0,-4.66217,-1.55235,75.8284,Q,Q
2023-03-14 17:11:20:715,0,-4.67774,-1.5231,75.8021,Q,Q
2023-03-14 17:11:20:725,0,-4.68942,-1.49862,75.7805,Q,Q
2023-03-14 17:11:20:735,0,-4.69442,-1.47931,75.7681,Q,Q
2023-03-14 17:11:20:745,0,-4.6943,-1.46065,75.7616,Q,Q
2023-03-14 17:11:20:755,0,-4.68355,-1.44847,75.7596,Q,Q
2023-03-14 17:11:20:765,0,-4.66472,-1.43999,75.7653,Q,Q
2023-03-14 17:11:20:775,0,-4.64518,-1.4367,75.7723,Q,Q
2023-03-14 17:11:20:785,0,-4.61642,-1.43586,75.7792,Q,Q
2023-03-14 17:11:20:795,0,-4.58559,-1.43626,75.7895,Q,Q
2023-03-14 17:11:20:805,0,-4.55015,-1.43999,75.7993,Q,Q
2023-03-14 17:11:20:815,0,-4.50856,-1.44247,75.8075,Q,Q
2023-03-14 17:11:20:825,0,-4.46935,-1.4515,75.816,Q,Q
2023-03-14 17:11:20:835,0,-4.42475,-1.46568,75.8182,Q,Q
2023-03-14 17:11:20:845,0,-4.38071,-1.47886,75.8169,Q,Q
2023-03-14 17:11:20:855,0,-4.33485,-1.49067,75.8067,Q,Q
2023-03-14 17:11:20:865,0,-4.2888,-1.50099,75.795,Q,Q
2023-03-14 17:11:20:875,0,-4.23877,-1.51431,75.7804,Q,Q
2023-03-14 17:11:20:885,0,-4.18831,-1.52821,75.7626,Q,Q
2023-03-14 17:11:20:895,0,-4.13905,-1.54333,75.7436,Q,Q
2023-03-14 17:11:20:905,0,-4.09109,-1.55756,75.729,Q,Q
2023-03-14 17:11:20:915,0,-4.05066,-1.56963,75.7126,Q,Q
2023-03-14 17:11:20:925,0,-4.01235,-1.58212,75.698,Q,Q
2023-03-14 17:11:20:935,0,-3.97872,-1.5997,75.691,Q,Q
2023-03-14 17:11:20:945,0,-3.95362,-1.61575,75.6864,Q,Q
2023-03-14 17:11:20:955,0,-3.93014,-1.62787,75.6907,Q,Q
2023-03-14 17:11:20:965,0,-3.91218,-1.64581,75.6953,Q,Q
2023-03-14 17:11:20:975,0,-3.89404,-1.65959,75.7053,Q,Q
2023-03-14 17:11:20:985,0,-3.8732,-1.67981,75.7212,Q,Q
2023-03-14 17:11:20:995,0,-3.85243,-1.69741,75.7378,Q,Q
2023-03-14 17:11:21:5,0,-3.83184,-1.71543,75.7561,Q,Q
2023-03-14 17:11:21:15,0,-3.81136,-1.73601,75.7781,Q,Q
2023-03-14 17:11:21:25,0,-3.79672,-1.7583,75.7981,Q,Q
2023-03-14 17:11:21:35,0,-3.78327,-1.78144,75.8161,Q,Q
2023-03-14 17:11:21:45,0,-3.77437,-1.80438,75.8338,Q,Q
2023-03-14 17:11:21:55,0,-3.7634,-1.82663,75.8451,Q,Q
2023-03-14 17:11:21:65,0,-3.75331,-1.84717,75.8519,Q,Q
2023-03-14 17:11:21:75,0,-3.74358,-1.86915,75.8554,Q,Q
2023-03-14 17:11:21:85,0,-3.73027,-1.89198,75.8562,Q,Q
2023-03-14 17:11:21:95,0,-3.71379,-1.91762,75.8581,Q,Q
2023-03-14 17:11:21:105,0,-3.69766,-1.93742,75.8555,Q,Q
2023-03-14 17:11:21:115,0,-3.68089,-1.95387,75.8547,Q,Q
2023-03-14 17:11:21:125,0,-3.66739,-1.97009,75.8557,Q,Q
2023-03-14 17:11:21:135,0,-3.65443,-1.98348,75.8542,Q,Q
2023-03-14 17:11:21:145,0,-3.63946,-1.99188,75.853,Q,Q
2023-03-14 17:11:21:155,0,-3.61761,-1.99809,75.8483,Q,Q
2023-03-14 17:11:21:165,0,-3.5975,-2.00043,75.8435,Q,Q
2023-03-14 17:11:21:175,0,-3.57412,-2.00105,75.835,Q,Q
2023-03-14 17:11:21:185,0,-3.54558,-1.99655,75.8275,Q,Q
2023-03-14 17:11:21:195,0,-3.51359,-1.99211,75.8199,Q,Q
2023-03-14 17:11:21:205,0,-3.48593,-1.98854,75.8126,Q,Q
2023-03-14 17:11:21:215,0,-3.45408,-1.98524,75.8048,Q,Q
2023-03-14 17:11:21:225,0,-3.42762,-1.97889,75.794,Q,Q
2023-03-14 17:11:21:235,0,-3.40177,-1.97522,75.7835,Q,Q
2023-03-14 17:11:21:245,0,-3.36934,-1.97343,75.7806,Q,Q
2023-03-14 17:11:21:255,0,-3.34323,-1.96897,75.7728,Q,Q
2023-03-14 17:11:21:265,0,-3.31708,-1.96612,75.7666,Q,Q
2023-03-14 17:11:21:275,0,-3.28649,-1.9628,75.7635,Q,Q
2023-03-14 17:11:21:285,0,-3.26104,-1.95779,75.7576,Q,Q
2023-03-14 17:11:21:295,0,-3.23629,-1.95109,75.748,Q,Q
2023-03-14 17:11:21:305,0,-3.21061,-1.94747,75.7382,Q,Q
2023-03-14 17:11:21:315,0,-3.1867,-1.94063,75.7275,Q,Q
2023-03-14 17:11:21:325,0,-3.16884,-1.93853,75.7209,Q,Q
2023-03-14 17:11:21:335,0,-3.15884,-1.93652,75.7158,Q,Q
2023-03-14 17:11:21:345,0,-3.15541,-1.93543,75.7118,Q,Q
2023-03-14 17:11:21:355,0,-3.15343,-1.93402,75.7139,Q,Q
2023-03-14 17:11:21:365,0,-3.16008,-1.93325,75.7149,Q,Q
2023-03-14 17:11:21:375,0,-3.17387,-1.93464,75.7174,Q,Q
2023-03-14 17:11:21:385,0,-3.18897,-1.93778,75.7256,Q,Q
2023-03-14 17:11:21:395,0,-3.20716,-1.94123,75.7345,Q,Q
2023-03-14 17:11:21:405,0,-3.22682,-1.94275,75.747,Q,Q
2023-03-14 17:11:21:415,0,-3.24746,-1.94854,75.7594,Q,Q
2023-03-14 17:11:21:425,0,-3.26124,-1.95655,75.7739,Q,Q
2023-03-14 17:11:21:435,0,-3.2689,-1.9636,75.7862,Q,Q
2023-03-14 17:11:21:445,0,-3.27929,-1.97168,75.7982,Q,Q
2023-03-14 17:11:21:455,0,-3.28574,-1.97872,75.8081,Q,Q
2023-03-14 17:11:21:465,0,-3.29914,-1.98819,75.8152,Q,Q
2023-03-14 17:11:21:475,0,-3.31101,-2.00548,75.8244,Q,Q
2023-03-14 17:11:21:485,0,-3.32619,-2.01898,75.8304,Q,Q
2023-03-14 17:11:21:495,0,-3.33982,-2.02889,75.8338,Q,Q
2023-03-14 17:11:21:505,0,-3.35999,-2.03514,75.8264,Q,Q
2023-03-14 17:11:21:515,0,-3.37773,-2.0452,75.815,Q,Q
2023-03-14 17:11:21:525,0,-3.39421,-2.05069,75.7974,Q,Q
2023-03-14 17:11:21:535,0,-3.41127,-2.05072,75.7723,Q,Q
2023-03-14 17:11:21:545,0,-3.43018,-2.04713,75.7392,Q,Q
2023-03-14 17:11:21:555,0,-3.456,-2.03721,75.6957,Q,Q
2023-03-14 17:11:21:565,0,-3.49013,-2.01991,75.6383,Q,Q
2023-03-14 17:11:21:575,0,-3.5303,-1.99889,75.5746,Q,Q
2023-03-14 17:11:21:585,0,-3.57037,-1.97705,75.5082,Q,Q
2023-03-14 17:11:21:595,0,-3.60769,-1.96701,75.4486,Q,Q
2023-03-14 17:11:21:605,0,-3.64261,-1.96749,75.3882,Q,Q
2023-03-14 17:11:21:614,0,-3.6692,-1.98027,75.3347,Q,Q
2023-03-14 17:11:21:625,0,-3.68629,-2.00376,75.2884,Q,Q
2023-03-14 17:11:21:635,0,-3.69147,-2.03808,75.2479,Q,Q
2023-03-14 17:11:21:645,0,-3.69234,-2.07893,75.2148,Q,Q
2023-03-14 17:11:21:655,0,-3.69064,-2.11987,75.1901,Q,Q
2023-03-14 17:11:21:665,0,-3.68436,-2.15936,75.1737,Q,Q
2023-03-14 17:11:21:675,0,-3.67354,-2.1967,75.1612,Q,Q
2023-03-14 17:11:21:685,0,-3.66447,-2.23616,75.1578,Q,Q
2023-03-14 17:11:21:695,0,-3.65381,-2.2699,75.1614,Q,Q
2023-03-14 17:11:21:705,0,-3.64106,-2.30317,75.1683,Q,Q
2023-03-14 17:11:21:715,0,-3.62511,-2.3301,75.1798,Q,Q
2023-03-14 17:11:21:725,0,-3.6054,-2.35143,75.1919,Q,Q
2023-03-14 17:11:21:735,0,-3.58694,-2.37082,75.2143,Q,Q
2023-03-14 17:11:21:745,0,-3.56411,-2.38622,75.2367,Q,Q
2023-03-14 17:11:21:755,0,-3.5381,-2.40072,75.2591,Q,Q
2023-03-14 17:11:21:765,0,-3.5104,-2.41223,75.2805,Q,Q
2023-03-14 17:11:21:775,0,-3.48197,-2.42025,75.2984,Q,Q
2023-03-14 17:11:21:785,0,-3.44838,-2.4217,75.3139,Q,Q
2023-03-14 17:11:21:795,0,-3.41867,-2.4248,75.3302,Q,Q
2023-03-14 17:11:21:805,0,-3.38811,-2.42809,75.3434,Q,Q
2023-03-14 17:11:21:815,0,-3.3601,-2.4291,75.3522,Q,Q
2023-03-14 17:11:21:825,0,-3.33753,-2.42561,75.3557,Q,Q
2023-03-14 17:11:21:835,0,-3.31823,-2.41538,75.3528,Q,Q
2023-03-14 17:11:21:845,0,-3.29981,-2.40271,75.3432,Q,Q
2023-03-14 17:11:21:855,0,-3.28805,-2.38443,75.3299,Q,Q
2023-03-14 17:11:21:865,0,-3.28126,-2.3644,75.3114,Q,Q
2023-03-14 17:11:21:875,0,-3.27816,-2.34458,75.2933,Q,Q
2023-03-14 17:11:21:885,0,-3.26992,-2.32992,75.272,Q,Q
2023-03-14 17:11:21:895,0,-3.25886,-2.31481,75.2552,Q,Q
2023-03-14 17:11:21:905,0,-3.2476,-2.29545,75.2419,Q,Q
2023-03-14 17:11:21:915,0,-3.23254,-2.27977,75.225,Q,Q
2023-03-14 17:11:21:925,0,-3.21236,-2.26557,75.2126,Q,Q
2023-03-14 17:11:21:935,0,-3.18303,-2.25989,75.2038,Q,Q
2023-03-14 17:11:21:945,0,-3.15415,-2.25258,75.1977,Q,Q
2023-03-14 17:11:21:955,0,-3.12147,-2.25253,75.1927,Q,Q
2023-03-14 17:11:21:965,0,-3.09116,-2.25951,75.194,Q,Q
2023-03-14 17:11:21:975,0,-3.06385,-2.27057,75.1976,Q,Q
2023-03-14 17:11:21:985,0,-3.0386,-2.28615,75.2016,Q,Q
2023-03-14 17:11:21:995,0,-3.01139,-2.30729,75.208,Q,Q
2023-03-14 17:11:22:5,0,-2.99022,-2.32777,75.2159,Q,Q
2023-03-14 17:11:22:15,0,-2.97371,-2.35519,75.2251,Q,Q
2023-03-14 17:11:22:25,0,-2.95762,-2.38575,75.2315,Q,Q
2023-03-14 17:11:22:35,0,-2.94938,-2.41536,75.234,Q,Q
2023-03-14 17:11:22:45,0,-2.94437,-2.44911,75.2355,Q,Q
2023-03-14 17:11:22:55,0,-2.94375,-2.48093,75.2355,Q,Q
2023-03-14 17:11:22:65,0,-2.9427,-2.5165,75.2378,Q,Q
2023-03-14 17:11:22:75,0,-2.94172,-2.549,75.2401,Q,Q
2023-03-14 17:11:22:85,0,-2.94459,-2.57681,75.2464,Q,Q
2023-03-14 17:11:22:95,0,-2.94501,-2.60659,75.2551,Q,Q
2023-03-14 17:11:22:105,0,-2.9471,-2.63124,75.2663,Q,Q
2023-03-14 17:11:22:115,0,-2.94832,-2.65439,75.2805,Q,Q
2023-03-14 17:11:22:125,0,-2.95275,-2.67631,75.2963,Q,Q
2023-03-14 17:11:22:135,0,-2.95837,-2.69407,75.3156,Q,Q
2023-03-14 17:11:22:145,0,-2.96632,-2.70954,75.3418,Q,Q
2023-03-14 17:11:22:155,0,-2.97283,-2.71889,75.3621,Q,Q
2023-03-14 17:11:22:165,0,-2.98197,-2.73304,75.3856,Q,Q
2023-03-14 17:11:22:175,0,-2.98777,-2.7433,75.4064,Q,Q
2023-03-14 17:11:22:185,0,-2.98966,-2.75041,75.4201,Q,Q
2023-03-14 17:11:22:195,0,-2.99479,-2.75953,75.4322,Q,Q
2023-03-14 17:11:22:205,0,-3.00163,-2.76904,75.4358,Q,Q
2023-03-14 17:11:22:215,0,-3.00378,-2.78008,75.4336,Q,Q
2023-03-14 17:11:22:225,0,-3.00721,-2.78932,75.4286,Q,Q
2023-03-14 17:11:22:235,0,-3.00861,-2.79396,75.419,Q,Q
2023-03-14 17:11:22:245,0,-3.0045,-2.7985,75.4067,Q,Q
2023-03-14 17:11:22:255,0,-2.99675,-2.80338,75.3902,Q,Q
2023-03-14 17:11:22:265,0,-2.98192,-2.81267,75.3743,Q,Q
2023-03-14 17:11:22:275,0,-2.97034,-2.82196,75.3622,Q,Q
2023-03-14 17:11:22:285,0,-2.96009,-2.83321,75.3523,Q,Q
2023-03-14 17:11:22:295,0,-2.94757,-2.83679,75.3454,Q,Q
2023-03-14 17:11:22:305,0,-2.93524,-2.84127,75.3401,Q,Q
2023-03-14 17:11:22:315,0,-2.92354,-2.84234,75.3402,Q,Q
2023-03-14 17:11:22:325,0,-2.91298,-2.84173,75.3429,Q,Q
2023-03-14 17:11:22:335,0,-2.90453,-2.84558,75.3521,Q,Q
2023-03-14 17:11:22:345,0,-2.89805,-2.85367,75.363,Q,Q
2023-03-14 17:11:22:355,0,-2.88327,-2.86322,75.3775,Q,Q
2023-03-14 17:11:22:365,0,-2.86944,-2.87246,75.3879,Q,Q
2023-03-14 17:11:22:375,0,-2.85504,-2.88321,75.401,Q,Q
2023-03-14 17:11:22:385,0,-2.84075,-2.89048,75.4092,Q,Q
2023-03-14 17:11:22:395,0,-2.82662,-2.89916,75.4179,Q,Q
2023-03-14 17:11:22:405,0,-2.81798,-2.90471,75.4217,Q,Q
2023-03-14 17:11:22:415,0,-2.81521,-2.91626,75.4214,Q,Q
2023-03-14 17:11:22:425,0,-2.819,-2.92781,75.4102,Q,Q
2023-03-14 17:11:22:435,0,-2.82564,-2.93696,75.397,Q,Q
2023-03-14 17:11:22:445,0,-2.83422,-2.94343,75.3747,Q,Q
2023-03-14 17:11:22:455,0,-2.84879,-2.95247,75.3496,Q,Q
2023-03-14 17:11:22:465,0,-2.87272,-2.96015,75.3168,Q,Q
2023-03-14 17:11:22:475,0,-2.90779,-2.9636,75.2854,Q,Q
2023-03-14 17:11:22:485,0,-2.94399,-2.96021,75.2533,Q,Q
2023-03-14 17:11:22:495,0,-2.98221,-2.95155,75.2195,Q,Q
2023-03-14 17:11:22:505,0,-3.02338,-2.93798,75.179,Q,Q
2023-03-14 17:11:22:515,0,-3.06012,-2.92542,75.1347,Q,Q
2023-03-14 17:11:22:525,0,-3.09381,-2.91463,75.0934,Q,Q
2023-03-14 17:11:22:535,0,-3.12006,-2.9004,75.0541,Q,Q
2023-03-14 17:11:22:545,0,-3.14108,-2.88451,75.0205,Q,Q
2023-03-14 17:11:22:555,0,-3.15604,-2.86952,74.9898,Q,Q
2023-03-14 17:11:22:565,0,-3.16319,-2.85551,74.9592,Q,Q
2023-03-14 17:11:22:575,0,-3.16459,-2.83973,74.9354,Q,Q
2023-03-14 17:11:22:585,0,-3.15641,-2.82359,74.9144,Q,Q
2023-03-14 17:11:22:595,0,-3.14167,-2.81074,74.9021,Q,Q
2023-03-14 17:11:22:605,0,-3.12363,-2.80076,74.9017,Q,Q
2023-03-14 17:11:22:615,0,-3.10005,-2.79631,74.9062,Q,Q
2023-03-14 17:11:22:625,0,-3.07099,-2.7954,74.9171,Q,Q
2023-03-14 17:11:22:635,0,-3.0357,-2.79504,74.9345,Q,Q
2023-03-14 17:11:22:645,0,-3.00007,-2.80249,74.9563,Q,Q
2023-03-14 17:11:22:655,0,-2.96184,-2.81423,74.9752,Q,Q
2023-03-14 17:11:22:665,0,-2.91914,-2.83225,75.0057,Q,Q
2023-03-14 17:11:22:675,0,-2.87661,-2.8548,75.0305,Q,Q
2023-03-14 17:11:22:685,0,-2.83516,-2.88426,75.0569,Q,Q
2023-03-14 17:11:22:695,0,-2.79372,-2.92035,75.0845,Q,Q
2023-03-14 17:11:22:705,0,-2.75036,-2.96302,75.1085,Q,Q
2023-03-14 17:11:22:715,0,-2.71253,-3.00976,75.1318,Q,Q
2023-03-14 17:11:22:725,0,-2.67897,-3.05553,75.1527,Q,Q
2023-03-14 17:11:22:735,0,-2.65436,-3.10392,75.1691,Q,Q
2023-03-14 17:11:22:745,0,-2.63605,-3.15409,75.1783,Q,Q
2023-03-14 17:11:22:755,0,-2.62175,-3.19863,75.1867,Q,Q
2023-03-14 17:11:22:764,0,-2.61151,-3.24438,75.1917,Q,Q
2023-03-14 17:11:22:775,0,-2.59908,-3.28136,75.1926,Q,Q
2023-03-14 17:11:22:785,0,-2.58766,-3.31743,75.1943,Q,Q
2023-03-14 17:11:22:795,0,-2.57344,-3.35105,75.1981,Q,Q
2023-03-14 17:11:22:805,0,-2.55746,-3.37823,75.2012,Q,Q
2023-03-14 17:11:22:815,0,-2.53819,-3.40759,75.2077,Q,Q
2023-03-14 17:11:22:825,0,-2.51232,-3.42877,75.211,Q,Q
2023-03-14 17:11:22:835,0,-2.48566,-3.44799,75.2164,Q,Q
2023-03-14 17:11:22:845,0,-2.46339,-3.4634,75.2197,Q,Q
2023-03-14 17:11:22:855,0,-2.43895,-3.47971,75.2228,Q,Q
2023-03-14 17:11:22:865,0,-2.41282,-3.50024,75.2257,Q,Q
2023-03-14 17:11:22:875,0,-2.38627,-3.51933,75.229,Q,Q
2023-03-14 17:11:22:885,0,-2.35292,-3.53509,75.2341,Q,Q
2023-03-14 17:11:22:895,0,-2.31441,-3.54846,75.2383,Q,Q
2023-03-14 17:11:22:905,0,-2.27409,-3.55396,75.2453,Q,Q
2023-03-14 17:11:22:915,0,-2.23619,-3.56083,75.254,Q,Q
2023-03-14 17:11:22:925,0,-2.19547,-3.56289,75.2644,Q,Q
2023-03-14 17:11:22:935,0,-2.15585,-3.56664,75.2744,Q,Q
2023-03-14 17:11:22:945,0,-2.11737,-3.57129,75.2876,Q,Q
2023-03-14 17:11:22:955,0,-2.08915,-3.58107,75.3028,Q,Q
2023-03-14 17:11:22:965,0,-2.06818,-3.5916,75.3191,Q,Q
2023-03-14 17:11:22:975,0,-2.04968,-3.59824,75.3327,Q,Q
2023-03-14 17:11:22:985,0,-2.0378,-3.60529,75.3423,Q,Q
2023-03-14 17:11:22:995,0,-2.02932,-3.6092,75.3413,Q,Q
2023-03-14 17:11:23:5,0,-2.01978,-3.61101,75.3343,Q,Q
2023-03-14 17:11:23:15,0,-2.01173,-3.61061,75.3292,Q,Q
2023-03-14 17:11:23:25,0,-1.99933,-3.60804,75.3246,Q,Q
2023-03-14 17:11:23:35,0,-1.98884,-3.60014,75.3171,Q,Q
2023-03-14 17:11:23:45,0,-1.96968,-3.58863,75.3075,Q,Q
2023-03-14 17:11:23:55,0,-1.95323,-3.58228,75.2954,Q,Q
2023-03-14 17:11:23:65,0,-1.93329,-3.57459,75.2772,Q,Q
2023-03-14 17:11:23:75,0,-1.914,-3.56539,75.2584,Q,Q
2023-03-14 17:11:23:85,0,-1.89212,-3.55705,75.237,Q,Q
2023-03-14 17:11:23:95,0,-1.86844,-3.54618,75.2133,Q,Q
2023-03-14 17:11:23:105,0,-1.8428,-3.53373,75.185,Q,Q
2023-03-14 17:11:23:115,0,-1.81177,-3.52873,75.1557,Q,Q
2023-03-14 17:11:23:125,0,-1.77981,-3.52097,75.1241,Q,Q
2023-03-14 17:11:23:135,0,-1.74527,-3.51439,75.096,Q,Q
2023-03-14 17:11:23:145,0,-1.71292,-3.50918,75.0679,Q,Q
2023-03-14 17:11:23:155,0,-1.68513,-3.50889,75.0381,Q,Q
2023-03-14 17:11:23:165,0,-1.66652,-3.51189,75.0065,Q,Q
2023-03-14 17:11:23:175,0,-1.64907,-3.51444,74.9693,Q,Q
2023-03-14 17:11:23:185,0,-1.64176,-3.52482,74.9278,Q,Q
2023-03-14 17:11:23:195,0,-1.64066,-3.53713,74.8864,Q,Q
2023-03-14 17:11:23:205,0,-1.6493,-3.54742,74.8437,Q,Q
2023-03-14 17:11:23:215,0,-1.66589,-3.55991,74.8044,Q,Q
2023-03-14 17:11:23:225,0,-1.68809,-3.57361,74.7626,Q,Q
2023-03-14 17:11:23:235,0,-1.71276,-3.58625,74.7194,Q,Q
2023-03-14 17:11:23:245,0,-1.73661,-3.59826,74.676,Q,Q
2023-03-14 17:11:23:255,0,-1.76575,-3.60713,74.6343,Q,Q
2023-03-14 17:11:23:265,0,-1.79565,-3.61724,74.5915,Q,Q
2023-03-14 17:11:23:275,0,-1.82245,-3.62386,74.5484,Q,Q
2023-03-14 17:11:23:285,0,-1.84389,-3.63028,74.5086,Q,Q
2023-03-14 17:11:23:295,0,-1.86676,-3.63522,74.47,Q,Q
2023-03-14 17:11:23:305,0,-1.89132,-3.63592,74.4355,Q,Q
2023-03-14 17:11:23:315,0,-1.91611,-3.63234,74.4027,Q,Q
2023-03-14 17:11:23:325,0,-1.93975,-3.62577,74.3743,Q,Q
2023-03-14 17:11:23:335,0,-1.96211,-3.62073,74.3475,Q,Q
2023-03-14 17:11:23:345,0,-1.9853,-3.61471,74.32,Q,Q
2023-03-14 17:11:23:355,0,-2.00608,-3.60654,74.3007,Q,Q
2023-03-14 17:11:23:365,0,-2.02368,-3.59939,74.2836,Q,Q
2023-03-14 17:11:23:375,0,-2.04579,-3.59593,74.2666,Q,Q
2023-03-14 17:11:23:385,0,-2.06657,-3.58258,74.2457,Q,Q
2023-03-14 17:11:23:395,0,-2.0838,-3.57365,74.2198,Q,Q
2023-03-14 17:11:23:405,0,-2.09601,-3.56141,74.1931,Q,Q
2023-03-14 17:11:23:415,0,-2.10223,-3.5515,74.1681,Q,Q
2023-03-14 17:11:23:425,0,-2.10869,-3.54348,74.144,Q,Q
2023-03-14 17:11:23:435,0,-2.10924,-3.53755,74.1204,Q,Q
2023-03-14 17:11:23:445,0,-2.10866,-3.53589,74.0938,Q,Q
2023-03-14 17:11:23:455,0,-2.1003,-3.53037,74.0701,Q,Q
2023-03-14 17:11:23:465,0,-2.09112,-3.5195,74.0453,Q,Q
2023-03-14 17:11:23:475,0,-2.0746,-3.50697,74.0194,Q,Q
2023-03-14 17:11:23:485,0,-2.06055,-3.49585,73.993,Q,Q
2023-03-14 17:11:23:495,0,-2.04787,-3.48551,73.9698,Q,Q
2023-03-14 17:11:23:505,0,-2.03491,-3.47301,73.9479,Q,Q
2023-03-14 17:11:23:515,0,-2.02339,-3.46395,73.9255,Q,Q
2023-03-14 17:11:23:525,0,-2.01336,-3.45829,73.906,Q,Q
2023-03-14 17:11:23:535,0,-2.0027,-3.4541,73.8856,Q,Q
2023-03-14 17:11:23:545,0,-1.9933,-3.45157,73.8627,Q,Q
2023-03-14 17:11:23:555,0,-1.98609,-3.45159,73.8394,Q,Q
2023-03-14 17:11:23:565,0,-1.98321,-3.45592,73.8184,Q,Q
2023-03-14 17:11:23:575,0,-1.9866,-3.461,73.7982,Q,Q
2023-03-14 17:11:23:585,0,-1.99062,-3.46492,73.7746,Q,Q
2023-03-14 17:11:23:595,0,-1.99638,-3.46948,73.7547,Q,Q
2023-03-14 17:11:23:605,0,-2.01084,-3.47508,73.733,Q,Q
2023-03-14 17:11:23:615,0,-2.02388,-3.48159,73.7093,Q,Q
2023-03-14 17:11:23:625,0,-2.04152,-3.48709,73.6852,Q,Q
2023-03-14 17:11:23:635,0,-2.05963,-3.49824,73.6648,Q,Q
2023-03-14 17:11:23:645,0,-2.07177,-3.51302,73.6433,Q,Q
2023-03-14 17:11:23:655,0,-2.07752,-3.52794,73.6239,Q,Q
2023-03-14 17:11:23:665,0,-2.07849,-3.54497,73.6102,Q,Q
2023-03-14 17:11:23:675,0,-2.07629,-3.56012,73.5979,Q,Q
2023-03-14 17:11:23:685,0,-2.07359,-3.57309,73.5869,Q,Q
2023-03-14 17:11:23:695,0,-2.07222,-3.58849,73.5744,Q,Q
2023-03-14 17:11:23:705,0,-2.07731,-3.60117,73.5638,Q,Q
2023-03-14 17:11:23:715,0,-2.08459,-3.61185,73.557,Q,Q
2023-03-14 17:11:23:725,0,-2.09383,-3.62181,73.5466,Q,Q
2023-03-14 17:11:23:735,0,-2.10575,-3.63488,73.5389,Q,Q
2023-03-14 17:11:23:745,0,-2.11479,-3.64613,73.531,Q,Q
2023-03-14 17:11:23:755,0,-2.12168,-3.65669,73.5231,Q,Q
2023-03-14 17:11:23:765,0,-2.12832,-3.66786,73.5142,Q,Q
2023-03-14 17:11:23:775,0,-2.13037,-3.67785,73.5071,Q,Q
2023-03-14 17:11:23:785,0,-2.13082,-3.69014,73.4996,Q,Q
2023-03-14 17:11:23:795,0,-2.13003,-3.70298,73.496,Q,Q
2023-03-14 17:11:23:805,0,-2.13032,-3.71628,73.4942,Q,Q
2023-03-14 17:11:23:815,0,-2.12571,-3.72861,73.4961,Q,Q
2023-03-14 17:11:23:825,0,-2.12442,-3.74088,73.4978,Q,Q
2023-03-14 17:11:23:835,0,-2.12175,-3.75134,73.4989,Q,Q
2023-03-14 17:11:23:845,0,-2.11884,-3.7613,73.4996,Q,Q
2023-03-14 17:11:23:855,0,-2.11499,-3.76597,73.4968,Q,Q
2023-03-14 17:11:23:865,0,-2.10945,-3.77218,73.4889,Q,Q
2023-03-14 17:11:23:875,0,-2.10662,-3.77506,73.4728,Q,Q
2023-03-14 17:11:23:885,0,-2.10256,-3.77579,73.454,Q,Q
2023-03-14 17:11:23:895,0,-2.10168,-3.77391,73.4287,Q,Q
2023-03-14 17:11:23:905,0,-2.10453,-3.77131,73.4026,Q,Q
2023-03-14 17:11:23:915,0,-2.10418,-3.76344,73.3787,Q,Q
2023-03-14 17:11:23:925,0,-2.10554,-3.75341,73.3562,Q,Q
2023-03-14 17:11:23:935,0,-2.10735,-3.7343,73.329,Q,Q
2023-03-14 17:11:23:945,0,-2.10823,-3.71337,73.3026,Q,Q
2023-03-14 17:11:23:955,0,-2.10577,-3.6885,73.2795,Q,Q
2023-03-14 17:11:23:965,0,-2.10585,-3.6601,73.2552,Q,Q
2023-03-14 17:11:23:975,0,-2.10191,-3.62992,73.2364,Q,Q
2023-03-14 17:11:23:985,0,-2.09895,-3.59592,73.2175,Q,Q
2023-03-14 17:11:23:995,0,-2.09208,-3.56315,73.1959,Q,Q
2023-03-14 17:11:24:5,0,-2.0786,-3.52741,73.1768,Q,Q
2023-03-14 17:11:24:15,0,-2.0638,-3.49797,73.1573,Q,Q
2023-03-14 17:11:24:25,0,-2.04821,-3.47129,73.1368,Q,Q
2023-03-14 17:11:24:35,0,-2.03563,-3.45208,73.1228,Q,Q
2023-03-14 17:11:24:45,0,-2.02914,-3.44027,73.105,Q,Q
2023-03-14 17:11:24:55,0,-2.02153,-3.43372,73.0851,Q,Q
2023-03-14 17:11:24:65,0,-2.01652,-3.43618,73.0659,Q,Q
2023-03-14 17:11:24:75,0,-2.01375,-3.44392,73.0466,Q,Q
2023-03-14 17:11:24:85,0,-2.00848,-3.45517,73.027,Q,Q
2023-03-14 17:11:24:95,0,-2.00126,-3.47505,73.008,Q,Q
2023-03-14 17:11:24:105,0,-1.9983,-3.495,72.9844,Q,Q
2023-03-14 17:11:24:115,0,-1.99193,-3.51805,72.9646,Q,Q
2023-03-14 17:11:24:125,0,-1.98864,-3.53985,72.9451,Q,Q
2023-03-14 17:11:24:135,0,-1.97951,-3.56356,72.9302,Q,Q
2023-03-14 17:11:24:145,0,-1.97123,-3.58909,72.9198,Q,Q
2023-03-14 17:11:24:155,0,-1.96,-3.61195,72.9137,Q,Q
2023-03-14 17:11:24:165,0,-1.95148,-3.62912,72.9111,Q,Q
2023-03-14 17:11:24:175,0,-1.94495,-3.64337,72.9084,Q,Q
2023-03-14 17:11:24:185,0,-1.94626,-3.65795,72.9074,Q,Q
2023-03-14 17:11:24:195,0,-1.94595,-3.66172,72.9047,Q,Q
2023-03-14 17:11:24:205,0,-1.95019,-3.66605,72.8986,Q,Q
2023-03-14 17:11:24:215,0,-1.95553,-3.66781,72.8919,Q,Q
2023-03-14 17:11:24:225,0,-1.95371,-3.67008,72.8858,Q,Q
2023-03-14 17:11:24:235,0,-1.94817,-3.67029,72.8813,Q,Q
2023-03-14 17:11:24:245,0,-1.93124,-3.6682,72.8786,Q,Q
2023-03-14 17:11:24:255,0,-1.90418,-3.66193,72.8775,Q,Q
2023-03-14 17:11:24:265,0,-1.86865,-3.66085,72.8763,Q,Q
2023-03-14 17:11:24:275,0,-1.82585,-3.66492,72.882,Q,Q
2023-03-14 17:11:24:285,0,-1.78177,-3.6765,72.8964,Q,Q
2023-03-14 17:11:24:295,0,-1.73889,-3.69448,72.9142,Q,Q
2023-03-14 17:11:24:305,0,-1.69692,-3.71586,72.937,Q,Q
2023-03-14 17:11:24:315,0,-1.65574,-3.73814,72.9702,Q,Q
2023-03-14 17:11:24:325,0,-1.62037,-3.75969,73.0085,Q,Q
2023-03-14 17:11:24:335,0,-1.58579,-3.78867,73.0531,Q,Q
2023-03-14 17:11:24:345,0,-1.55886,-3.81727,73.0995,Q,Q
2023-03-14 17:11:24:355,0,-1.52586,-3.84453,73.1554,Q,Q
2023-03-14 17:11:24:365,0,-1.49509,-3.87265,73.2141,Q,Q
2023-03-14 17:11:24:375,0,-1.46487,-3.89726,73.2768,Q,Q
2023-03-14 17:11:24:385,0,-1.43896,-3.92506,73.344,Q,Q
2023-03-14 17:11:24:395,0,-1.41178,-3.94376,73.4192,Q,Q
2023-03-14 17:11:24:405,0,-1.38276,-3.96163,73.5022,Q,Q
2023-03-14 17:11:24:415,0,-1.35515,-3.97271,73.5964,Q,Q
2023-03-14 17:11:24:425,0,-1.32146,-3.98276,73.6967,Q,Q
2023-03-14 17:11:24:435,0,-1.29436,-3.98506,73.8077,Q,Q
2023-03-14 17:11:24:445,0,-1.26887,-3.98796,73.9245,Q,Q
2023-03-14 17:11:24:455,0,-1.25127,-3.98214,74.0497,Q,Q
2023-03-14 17:11:24:465,0,-1.23522,-3.97528,74.1831,Q,Q
2023-03-14 17:11:24:475,0,-1.22509,-3.96017,74.3208,Q,Q
2023-03-14 17:11:24:485,0,-1.21476,-3.94216,74.4744,Q,Q
2023-03-14 17:11:24:495,0,-1.2004,-3.92575,74.6374,Q,Q
2023-03-14 17:11:24:505,0,-1.18509,-3.90735,74.8079,Q,Q
2023-03-14 17:11:24:515,0,-1.175,-3.88079,74.9964,Q,Q
2023-03-14 17:11:24:525,0,-1.17021,-3.84966,75.1927,Q,Q
2023-03-14 17:11:24:535,0,-1.16416,-3.81457,75.3904,Q,Q
2023-03-14 17:11:24:545,0,-1.16389,-3.78071,75.5853,Q,Q
2023-03-14 17:11:24:555,0,-1.16631,-3.75289,75.7794,Q,Q
2023-03-14 17:11:24:565,0,-1.17549,-3.73021,75.9673,Q,Q
2023-03-14 17:11:24:575,0,-1.18739,-3.71388,76.1503,Q,Q
2023-03-14 17:11:24:585,0,-1.20387,-3.70196,76.3229,Q,Q
2023-03-14 17:11:24:595,0,-1.2171,-3.69408,76.4902,Q,Q
2023-03-14 17:11:24:605,0,-1.22297,-3.68577,76.6402,Q,Q
2023-03-14 17:11:24:615,0,-1.22711,-3.68188,76.7818,Q,Q
2023-03-14 17:11:24:625,0,-1.22947,-3.68226,76.9184,Q,Q
2023-03-14 17:11:24:635,0,-1.22683,-3.68227,77.0431,Q,Q
2023-03-14 17:11:24:645,0,-1.23124,-3.68207,77.1567,Q,Q
2023-03-14 17:11:24:655,0,-1.2374,-3.68092,77.2557,Q,Q
2023-03-14 17:11:24:665,0,-1.24355,-3.68536,77.3403,Q,Q
2023-03-14 17:11:24:675,0,-1.24794,-3.69723,77.415,Q,Q
2023-03-14 17:11:24:685,0,-1.2461,-3.70863,77.4777,Q,Q
2023-03-14 17:11:24:695,0,-1.2467,-3.71516,77.5278,Q,Q
2023-03-14 17:11:24:705,0,-1.24524,-3.72293,77.565,Q,Q
2023-03-14 17:11:24:715,0,-1.23992,-3.73348,77.5852,Q,Q
2023-03-14 17:11:24:725,0,-1.23843,-3.74782,77.59,Q,Q
2023-03-14 17:11:24:735,0,-1.23393,-3.75288,77.5809,Q,Q
2023-03-14 17:11:24:745,0,-1.22772,-3.75869,77.5566,Q,Q
2023-03-14 17:11:24:755,0,-1.21222,-3.76505,77.5201,Q,Q
2023-03-14 17:11:24:765,0,-1.19738,-3.76922,77.4744,Q,Q
2023-03-14 17:11:24:775,0,-1.1831,-3.7742,77.424,Q,Q
2023-03-14 17:11:24:785,0,-1.17079,-3.77305,77.3711,Q,Q
2023-03-14 17:11:24:795,0,-1.15953,-3.76556,77.3191,Q,Q
2023-03-14 17:11:24:805,0,-1.14694,-3.75656,77.2642,Q,Q
2023-03-14 17:11:24:815,0,-1.13494,-3.74425,77.2111,Q,Q
2023-03-14 17:11:24:825,0,-1.12785,-3.72809,77.1621,Q,Q
2023-03-14 17:11:24:835,0,-1.12077,-3.7099,77.1106,Q,Q
2023-03-14 17:11:24:845,0,-1.11108,-3.68764,77.0615,Q,Q
2023-03-14 17:11:24:855,0,-1.10695,-3.66941,77.0112,Q,Q
2023-03-14 17:11:24:865,0,-1.10107,-3.64779,76.9571,Q,Q
2023-03-14 17:11:24:875,0,-1.097,-3.62416,76.9049,Q,Q
2023-03-14 17:11:24:885,0,-1.09635,-3.59895,76.8479,Q,Q
2023-03-14 17:11:24:895,0,-1.09479,-3.57541,76.7886,Q,Q
2023-03-14 17:11:24:905,0,-1.09564,-3.55438,76.7299,Q,Q
2023-03-14 17:11:24:915,0,-1.09929,-3.5298,76.6725,Q,Q
2023-03-14 17:11:24:925,0,-1.10124,-3.51031,76.6105,Q,Q
2023-03-14 17:11:24:935,0,-1.1002,-3.48952,76.549,Q,Q
2023-03-14 17:11:24:945,0,-1.09972,-3.47211,76.4831,Q,Q
2023-03-14 17:11:24:955,0,-1.09302,-3.45781,76.4136,Q,Q
2023-03-14 17:11:24:965,0,-1.09247,-3.44689,76.3436,Q,Q
2023-03-14 17:11:24:975,0,-1.09248,-3.43972,76.2764,Q,Q
2023-03-14 17:11:24:985,0,-1.09248,-3.43125,76.2085,Q,Q
2023-03-14 17:11:24:995,0,-1.0896,-3.42305,76.1433,Q,Q
2023-03-14 17:11:25:5,0,-1.0853,-3.41052,76.0767,Q,Q
2023-03-14 17:11:25:15,0,-1.07548,-3.39753,76.0189,Q,Q
2023-03-14 17:11:25:25,0,-1.06995,-3.38414,75.96,Q,Q
2023-03-14 17:11:25:35,0,-1.06549,-3.36904,75.9003,Q,Q
2023-03-14 17:11:25:45,0,-1.05511,-3.35654,75.844,Q,Q
2023-03-14 17:11:25:55,0,-1.04817,-3.34083,75.794,Q,Q
2023-03-14 17:11:25:65,0,-1.04369,-3.32839,75.7462,Q,Q
2023-03-14 17:11:25:75,0,-1.0426,-3.31819,75.7014,Q,Q
2023-03-14 17:11:25:85,0,-1.04508,-3.30239,75.6619,Q,Q
2023-03-14 17:11:25:95,0,-1.05029,-3.2865,75.6255,Q,Q
2023-03-14 17:11:25:105,0,-1.05562,-3.26829,75.5936,Q,Q
2023-03-14 17:11:25:115,0,-1.06386,-3.24879,75.566,Q,Q
2023-03-14 17:11:25:125,0,-1.07339,-3.22783,75.5416,Q,Q
2023-03-14 17:11:25:135,0,-1.0852,-3.20551,75.5215,Q,Q
2023-03-14 17:11:25:145,0,-1.09308,-3.18873,75.5066,Q,Q
2023-03-14 17:11:25:155,0,-1.10071,-3.16821,75.4971,Q,Q
2023-03-14 17:11:25:165,0,-1.10561,-3.15063,75.4886,Q,Q
2023-03-14 17:11:25:175,0,-1.11098,-3.13243,75.4825,Q,Q
2023-03-14 17:11:25:185,0,-1.10986,-3.11963,75.4778,Q,Q
2023-03-14 17:11:25:195,0,-1.10694,-3.10466,75.478,Q,Q
2023-03-14 17:11:25:205,0,-1.10244,-3.09066,75.4813,Q,Q
2023-03-14 17:11:25:215,0,-1.09365,-3.07707,75.4815,Q,Q
2023-03-14 17:11:25:225,0,-1.08472,-3.06587,75.4781,Q,Q
2023-03-14 17:11:25:235,0,-1.07816,-3.05762,75.4757,Q,Q
2023-03-14 17:11:25:245,0,-1.07599,-3.05818,75.4757,Q,Q
2023-03-14 17:11:25:255,0,-1.07937,-3.05657,75.4802,Q,Q
2023-03-14 17:11:25:265,0,-1.0802,-3.06032,75.4831,Q,Q
2023-03-14 17:11:25:275,0,-1.08436,-3.06625,75.4831,Q,Q
2023-03-14 17:11:25:285,0,-1.09201,-3.07476,75.4786,Q,Q
2023-03-14 17:11:25:295,0,-1.10134,-3.07889,75.4785,Q,Q
2023-03-14 17:11:25:305,0,-1.10729,-3.07956,75.474,Q,Q
2023-03-14 17:11:25:315,0,-1.11199,-3.08148,75.47,Q,Q
2023-03-14 17:11:25:325,0,-1.11726,-3.0838,75.4639,Q,Q
2023-03-14 17:11:25:335,0,-1.12591,-3.0882,75.4576,Q,Q
2023-03-14 17:11:25:345,0,-1.13419,-3.08791,75.4527,Q,Q
2023-03-14 17:11:25:355,0,-1.1419,-3.08896,75.4451,Q,Q
2023-03-14 17:11:25:365,0,-1.15337,-3.09245,75.4355,Q,Q
2023-03-14 17:11:25:375,0,-1.16603,-3.10078,75.4256,Q,Q
2023-03-14 17:11:25:385,0,-1.17586,-3.10853,75.4145,Q,Q
2023-03-14 17:11:25:395,0,-1.18518,-3.1198,75.4012,Q,Q
2023-03-14 17:11:25:405,0,-1.19783,-3.12972,75.3875,Q,Q
2023-03-14 17:11:25:415,0,-1.2049,-3.14398,75.3717,Q,Q
2023-03-14 17:11:25:425,0,-1.21234,-3.15692,75.3568,Q,Q
2023-03-14 17:11:25:435,0,-1.22138,-3.17135,75.3432,Q,Q
2023-03-14 17:11:25:445,0,-1.22813,-3.18335,75.3311,Q,Q
2023-03-14 17:11:25:455,0,-1.23113,-3.19706,75.3214,Q,Q
2023-03-14 17:11:25:465,0,-1.23762,-3.20568,75.3133,Q,Q
2023-03-14 17:11:25:475,0,-1.24208,-3.21823,75.3068,Q,Q
2023-03-14 17:11:25:485,0,-1.24759,-3.22619,75.3045,Q,Q
2023-03-14 17:11:25:495,0,-1.24777,-3.23304,75.3037,Q,Q
2023-03-14 17:11:25:505,0,-1.24383,-3.23864,75.3046,Q,Q
2023-03-14 17:11:25:515,0,-1.23943,-3.24332,75.3099,Q,Q
2023-03-14 17:11:25:525,0,-1.24021,-3.24411,75.3147,Q,Q
2023-03-14 17:11:25:535,0,-1.24006,-3.24145,75.3207,Q,Q
2023-03-14 17:11:25:545,0,-1.24162,-3.23759,75.325,Q,Q
2023-03-14 17:11:25:555,0,-1.244,-3.23033,75.3318,Q,Q
2023-03-14 17:11:25:565,0,-1.25265,-3.22013,75.334,Q,Q
2023-03-14 17:11:25:575,0,-1.26282,-3.20831,75.335,Q,Q
2023-03-14 17:11:25:585,0,-1.27133,-3.19523,75.3357,Q,Q
2023-03-14 17:11:25:595,0,-1.2811,-3.18442,75.3357,Q,Q
2023-03-14 17:11:25:605,0,-1.29188,-3.16996,75.3301,Q,Q
2023-03-14 17:11:25:615,0,-1.29734,-3.15842,75.3243,Q,Q
2023-03-14 17:11:25:625,0,-1.30646,-3.15235,75.3134,Q,Q
2023-03-14 17:11:25:635,0,-1.31235,-3.14863,75.3078,Q,Q
2023-03-14 17:11:25:645,0,-1.32363,-3.1512,75.3046,Q,Q
2023-03-14 17:11:25:655,0,-1.33412,-3.15999,75.301,Q,Q
2023-03-14 17:11:25:665,0,-1.34806,-3.17063,75.3046,Q,Q
2023-03-14 17:11:25:675,0,-1.36977,-3.18782,75.31,Q,Q
2023-03-14 17:11:25:685,0,-1.39471,-3.20357,75.3196,Q,Q
2023-03-14 17:11:25:695,0,-1.4178,-3.21968,75.3295,Q,Q
2023-03-14 17:11:25:705,0,-1.44388,-3.23456,75.3443,Q,Q
2023-03-14 17:11:25:715,0,-1.47071,-3.24691,75.3577,Q,Q
2023-03-14 17:11:25:725,0,-1.49776,-3.25313,75.3699,Q,Q
2023-03-14 17:11:25:735,0,-1.52418,-3.26094,75.382,Q,Q
2023-03-14 17:11:25:745,0,-1.54476,-3.27023,75.3896,Q,Q
2023-03-14 17:11:25:755,0,-1.56131,-3.28151,75.3955,Q,Q
2023-03-14 17:11:25:765,0,-1.5731,-3.2971,75.3953,Q,Q
2023-03-14 17:11:25:775,0,-1.57189,-3.31403,75.379,Q,Q
2023-03-14 17:11:25:785,0,-1.55065,-3.31775,75.3509,Q,Q
2023-03-14 17:11:25:795,0,-1.50742,-3.30095,75.3015,Q,Q
2023-03-14 17:11:25:805,0,-1.44842,-3.26774,75.2313,Q,Q
2023-03-14 17:11:25:815,0,-1.38602,-3.22471,75.1403,Q,Q
2023-03-14 17:11:25:825,0,-1.33498,-3.17189,75.035,Q,Q
2023-03-14 17:11:25:835,0,-1.28949,-3.11039,74.9239,Q,Q
2023-03-14 17:11:25:845,0,-1.26147,-3.04211,74.8129,Q,Q
2023-03-14 17:11:25:855,0,-1.24894,-2.97363,74.7106,Q,Q
2023-03-14 17:11:25:865,0,-1.25704,-2.90107,74.6149,Q,Q
2023-03-14 17:11:25:875,0,-1.28514,-2.82804,74.5252,Q,Q
2023-03-14 17:11:25:885,0,-1.32832,-2.7625,74.4456,Q,Q
2023-03-14 17:11:25:895,0,-1.3883,-2.711,74.3833,Q,Q
2023-03-14 17:11:25:905,0,-1.45966,-2.67707,74.3329,Q,Q
2023-03-14 17:11:25:915,0,-1.53761,-2.65255,74.2972,Q,Q
2023-03-14 17:11:25:925,0,-1.61312,-2.63289,74.2719,Q,Q
2023-03-14 17:11:25:935,0,-1.68371,-2.61903,74.2587,Q,Q
2023-03-14 17:11:25:945,0,-1.74595,-2.60895,74.2539,Q,Q
2023-03-14 17:11:25:955,0,-1.80086,-2.61194,74.2533,Q,Q
2023-03-14 17:11:25:965,0,-1.85113,-2.61887,74.2665,Q,Q
2023-03-14 17:11:25:975,0,-1.90197,-2.63079,74.2834,Q,Q
2023-03-14 17:11:25:985,0,-1.95874,-2.63931,74.3006,Q,Q
2023-03-14 17:11:25:995,0,-2.01158,-2.65397,74.3159,Q,Q
2023-03-14 17:11:26:5,0,-2.06217,-2.6653,74.3326,Q,Q
2023-03-14 17:11:26:15,0,-2.10917,-2.68086,74.3481,Q,Q
2023-03-14 17:11:26:25,0,-2.15359,-2.69472,74.3616,Q,Q
2023-03-14 17:11:26:35,0,-2.195,-2.71357,74.3721,Q,Q
2023-03-14 17:11:26:45,0,-2.23142,-2.73258,74.3856,Q,Q
2023-03-14 17:11:26:55,0,-2.26798,-2.75293,74.4013,Q,Q
2023-03-14 17:11:26:65,0,-2.30285,-2.77213,74.4169,Q,Q
2023-03-14 17:11:26:75,0,-2.33592,-2.7938,74.4289,Q,Q
2023-03-14 17:11:26:85,0,-2.36108,-2.81442,74.4465,Q,Q
2023-03-14 17:11:26:95,0,-2.37791,-2.83612,74.4674,Q,Q
2023-03-14 17:11:26:105,0,-2.38154,-2.85765,74.4836,Q,Q
2023-03-14 17:11:26:115,0,-2.37351,-2.87383,74.4984,Q,Q
2023-03-14 17:11:26:125,0,-2.3541,-2.88475,74.5053,Q,Q
2023-03-14 17:11:26:135,0,-2.32706,-2.89512,74.4983,Q,Q
2023-03-14 17:11:26:145,0,-2.29227,-2.90113,74.486,Q,Q
2023-03-14 17:11:26:155,0,-2.25268,-2.90817,74.4633,Q,Q
2023-03-14 17:11:26:165,0,-2.21269,-2.91787,74.4346,Q,Q
2023-03-14 17:11:26:175,0,-2.17774,-2.92582,74.4067,Q,Q
2023-03-14 17:11:26:185,0,-2.14856,-2.92855,74.3716,Q,Q
2023-03-14 17:11:26:195,0,-2.12093,-2.9339,74.3349,Q,Q
2023-03-14 17:11:26:205,0,-2.09443,-2.93535,74.2957,Q,Q
2023-03-14 17:11:26:215,0,-2.06787,-2.93835,74.2504,Q,Q
2023-03-14 17:11:26:225,0,-2.03652,-2.94202,74.2045,Q,Q
2023-03-14 17:11:26:235,0,-2.00493,-2.94811,74.1552,Q,Q
2023-03-14 17:11:26:245,0,-1.97026,-2.95395,74.1073,Q,Q
2023-03-14 17:11:26:255,0,-1.93893,-2.95321,74.0502,Q,Q
2023-03-14 17:11:26:265,0,-1.90958,-2.94366,73.9882,Q,Q
2023-03-14 17:11:26:275,0,-1.88535,-2.92666,73.9169,Q,Q
2023-03-14 17:11:26:285,0,-1.86579,-2.90967,73.8468,Q,Q
2023-03-14 17:11:26:295,0,-1.85248,-2.89258,73.7785,Q,Q
2023-03-14 17:11:26:305,0,-1.84507,-2.87428,73.7114,Q,Q
2023-03-14 17:11:26:315,0,-1.84758,-2.85918,73.6432,Q,Q
2023-03-14 17:11:26:325,0,-1.85286,-2.84583,73.5772,Q,Q
2023-03-14 17:11:26:335,0,-1.85946,-2.84092,73.5143,Q,Q
2023-03-14 17:11:26:345,0,-1.8654,-2.83419,73.4533,Q,Q
2023-03-14 17:11:26:355,0,-1.8648,-2.82455,73.3938,Q,Q
2023-03-14 17:11:26:365,0,-1.86193,-2.80584,73.3318,Q,Q
2023-03-14 17:11:26:375,0,-1.85996,-2.78914,73.2653,Q,Q
2023-03-14 17:11:26:385,0,-1.85962,-2.77386,73.1991,Q,Q
2023-03-14 17:11:26:395,0,-1.86756,-2.76247,73.1348,Q,Q
2023-03-14 17:11:26:405,0,-1.88204,-2.75398,73.0745,Q,Q
2023-03-14 17:11:26:415,0,-1.89905,-2.75381,73.0137,Q,Q
2023-03-14 17:11:26:425,0,-1.91688,-2.75822,72.9618,Q,Q
2023-03-14 17:11:26:435,0,-1.9304,-2.76675,72.9118,Q,Q
2023-03-14 17:11:26:445,0,-1.94568,-2.76658,72.8637,Q,Q
2023-03-14 17:11:26:455,0,-1.96202,-2.75891,72.814,Q,Q
2023-03-14 17:11:26:465,0,-1.98172,-2.74603,72.7685,Q,Q
2023-03-14 17:11:26:475,0,-2.00667,-2.73423,72.727,Q,Q
2023-03-14 17:11:26:485,0,-2.03879,-2.72203,72.6834,Q,Q
2023-03-14 17:11:26:495,0,-2.08422,-2.70842,72.6413,Q,Q
2023-03-14 17:11:26:505,0,-2.13866,-2.7006,72.6035,Q,Q
2023-03-14 17:11:26:515,0,-2.20016,-2.69241,72.5705,Q,Q
2023-03-14 17:11:26:525,0,-2.26607,-2.68664,72.5398,Q,Q
2023-03-14 17:11:26:535,0,-2.32822,-2.68606,72.5132,Q,Q
2023-03-14 17:11:26:545,0,-2.38189,-2.68853,72.4949,Q,Q
2023-03-14 17:11:26:555,0,-2.42594,-2.69288,72.4883,Q,Q
2023-03-14 17:11:26:565,0,-2.45444,-2.69835,72.4856,Q,Q
2023-03-14 17:11:26:575,0,-2.46536,-2.69653,72.49,Q,Q
2023-03-14 17:11:26:585,0,-2.45528,-2.6881,72.4916,Q,Q
2023-03-14 17:11:26:595,0,-2.44231,-2.66573,72.494,Q,Q
2023-03-14 17:11:26:605,0,-2.41329,-2.63625,72.4887,Q,Q
2023-03-14 17:11:26:615,0,-2.37544,-2.60589,72.4798,Q,Q
2023-03-14 17:11:26:625,0,-2.33385,-2.57332,72.469,Q,Q
2023-03-14 17:11:26:635,0,-2.29465,-2.54064,72.4568,Q,Q
2023-03-14 17:11:26:645,0,-2.25348,-2.50704,72.4358,Q,Q
2023-03-14 17:11:26:655,0,-2.22095,-2.47251,72.4129,Q,Q
2023-03-14 17:11:26:665,0,-2.19272,-2.43912,72.3849,Q,Q
2023-03-14 17:11:26:675,0,-2.17296,-2.40762,72.3427,Q,Q
2023-03-14 17:11:26:685,0,-2.15119,-2.37877,72.2886,Q,Q
2023-03-14 17:11:26:695,0,-2.13044,-2.35639,72.2263,Q,Q
2023-03-14 17:11:26:705,0,-2.11131,-2.34383,72.1633,Q,Q
2023-03-14 17:11:26:715,0,-2.09223,-2.33438,72.0958,Q,Q
2023-03-14 17:11:26:725,0,-2.06867,-2.33249,72.0285,Q,Q
2023-03-14 17:11:26:735,0,-2.04383,-2.3332,71.9678,Q,Q
2023-03-14 17:11:26:745,0,-2.01345,-2.33985,71.9098,Q,Q
2023-03-14 17:11:26:755,0,-1.98317,-2.34533,71.8555,Q,Q
2023-03-14 17:11:26:765,0,-1.95032,-2.35573,71.8083,Q,Q
2023-03-14 17:11:26:775,0,-1.91337,-2.36823,71.7685,Q,Q
2023-03-14 17:11:26:785,0,-1.88069,-2.38611,71.7345,Q,Q
2023-03-14 17:11:26:795,0,-1.85357,-2.40258,71.7037,Q,Q
2023-03-14 17:11:26:805,0,-1.8331,-2.42307,71.6797,Q,Q
2023-03-14 17:11:26:815,0,-1.81334,-2.43973,71.655,Q,Q
2023-03-14 17:11:26:825,0,-1.79315,-2.45496,71.6317,Q,Q
2023-03-14 17:11:26:835,0,-1.76637,-2.46071,71.611,Q,Q
2023-03-14 17:11:26:845,0,-1.74293,-2.45573,71.5924,Q,Q
2023-03-14 17:11:26:855,0,-1.72011,-2.44361,71.574,Q,Q
2023-03-14 17:11:26:865,0,-1.69395,-2.42402,71.5553,Q,Q
2023-03-14 17:11:26:875,0,-1.66383,-2.40672,71.5353,Q,Q
2023-03-14 17:11:26:885,0,-1.62531,-2.39682,71.5164,Q,Q
2023-03-14 17:11:26:895,0,-1.57688,-2.39387,71.4937,Q,Q
2023-03-14 17:11:26:905,0,-1.52159,-2.39162,71.4649,Q,Q
2023-03-14 17:11:26:915,0,-1.46335,-2.3916,71.4236,Q,Q
2023-03-14 17:11:26:925,0,-1.41277,-2.38935,71.3728,Q,Q
2023-03-14 17:11:26:935,0,-1.36167,-2.38737,71.3155,Q,Q
2023-03-14 17:11:26:945,0,-1.3135,-2.37867,71.2526,Q,Q
2023-03-14 17:11:26:955,0,-1.2679,-2.37587,71.1865,Q,Q
2023-03-14 17:11:26:965,0,-1.22442,-2.38004,71.1241,Q,Q
2023-03-14 17:11:26:975,0,-1.17862,-2.39167,71.0626,Q,Q
2023-03-14 17:11:26:985,0,-1.1284,-2.41105,71.0017,Q,Q
2023-03-14 17:11:26:995,0,-1.08184,-2.43038,70.9376,Q,Q
2023-03-14 17:11:27:5,0,-1.03975,-2.45334,70.8773,Q,Q
2023-03-14 17:11:27:15,0,-1.00119,-2.48174,70.8263,Q,Q
2023-03-14 17:11:27:25,0,-0.968743,-2.51531,70.7811,Q,Q
2023-03-14 17:11:27:35,0,-0.938495,-2.541,70.7354,Q,Q
2023-03-14 17:11:27:45,0,-0.911374,-2.56922,70.6882,Q,Q
2023-03-14 17:11:27:55,0,-0.884978,-2.59352,70.6475,Q,Q
2023-03-14 17:11:27:65,0,-0.864672,-2.6169,70.6068,Q,Q
2023-03-14 17:11:27:75,0,-0.847539,-2.64119,70.5729,Q,Q
2023-03-14 17:11:27:85,0,-0.835715,-2.66282,70.5418,Q,Q
2023-03-14 17:11:27:95,0,-0.821279,-2.68089,70.5151,Q,Q
2023-03-14 17:11:27:105,0,-0.805517,-2.69401,70.4863,Q,Q
2023-03-14 17:11:27:115,0,-0.799082,-2.70649,70.457,Q,Q
2023-03-14 17:11:27:125,0,-0.805094,-2.71982,70.4364,Q,Q
2023-03-14 17:11:27:135,0,-0.818814,-2.72929,70.4159,Q,Q
2023-03-14 17:11:27:145,0,-0.837585,-2.73919,70.4014,Q,Q
2023-03-14 17:11:27:155,0,-0.854925,-2.74702,70.3903,Q,Q
2023-03-14 17:11:27:165,0,-0.880341,-2.75118,70.384,Q,Q
2023-03-14 17:11:27:175,0,-0.910448,-2.75309,70.3789,Q,Q
2023-03-14 17:11:27:185,0,-0.948147,-2.75289,70.3787,Q,Q
2023-03-14 17:11:27:195,0,-0.990259,-2.74948,70.3839,Q,Q
2023-03-14 17:11:27:205,0,-1.04044,-2.74803,70.396,Q,Q
2023-03-14 17:11:27:215,0,-1.09566,-2.74739,70.4084,Q,Q
2023-03-14 17:11:27:225,0,-1.15436,-2.75115,70.4224,Q,Q
2023-03-14 17:11:27:235,0,-1.20955,-2.76189,70.4365,Q,Q
2023-03-14 17:11:27:245,0,-1.24652,-2.77628,70.4492,Q,Q
2023-03-14 17:11:27:255,0,-1.26731,-2.79043,70.4601,Q,Q
2023-03-14 17:11:27:265,0,-1.26943,-2.81415,70.4697,Q,Q
2023-03-14 17:11:27:275,0,-1.25152,-2.84983,70.4852,Q,Q
2023-03-14 17:11:27:285,0,-1.21741,-2.8908,70.5039,Q,Q
2023-03-14 17:11:27:295,0,-1.16943,-2.93215,70.5244,Q,Q
2023-03-14 17:11:27:305,0,-1.11915,-2.97067,70.5473,Q,Q
2023-03-14 17:11:27:315,0,-1.06484,-3.00716,70.568,Q,Q
2023-03-14 17:11:27:325,0,-1.00726,-3.03719,70.5898,Q,Q
2023-03-14 17:11:27:335,0,-0.944113,-3.06024,70.6084,Q,Q
2023-03-14 17:11:27:345,0,-0.890257,-3.07168,70.614,Q,Q
2023-03-14 17:11:27:355,0,-0.846131,-3.07497,70.608,Q,Q
2023-03-14 17:11:27:365,0,-0.80942,-3.06356,70.5959,Q,Q
2023-03-14 17:11:27:375,0,-0.768069,-3.04589,70.5783,Q,Q
2023-03-14 17:11:27:385,0,-0.727923,-3.02811,70.5612,Q,Q
2023-03-14 17:11:27:395,0,-0.681537,-3.01437,70.5412,Q,Q
2023-03-14 17:11:27:405,0,-0.627041,-2.99414,70.5246,Q,Q
2023-03-14 17:11:27:415,0,-0.56359,-2.97667,70.5134,Q,Q
2023-03-14 17:11:27:425,0,-0.490612,-2.9598,70.505,Q,Q
2023-03-14 17:11:27:435,0,-0.411203,-2.95329,70.5067,Q,Q
2023-03-14 17:11:27:445,0,-0.330486,-2.95564,70.5177,Q,Q
2023-03-14 17:11:27:455,0,-0.25404,-2.9665,70.5371,Q,Q
2023-03-14 17:11:27:465,0,-0.182872,-2.98312,70.5624,Q,Q
2023-03-14 17:11:27:475,0,-0.119569,-3.00462,70.6038,Q,Q
2023-03-14 17:11:27:485,0,-0.0725457,-3.02817,70.6517,Q,Q
2023-03-14 17:11:27:495,0,-0.0348852,-3.05499,70.7073,Q,Q
2023-03-14 17:11:27:505,0,-0.00876287,-3.08471,70.7697,Q,Q
2023-03-14 17:11:27:515,0,0.00488395,-3.11513,70.8332,Q,Q
2023-03-14 17:11:27:525,0,0.0114334,-3.15508,70.8987,Q,Q
2023-03-14 17:11:27:535,0,0.00753514,-3.20178,70.9657,Q,Q
2023-03-14 17:11:27:545,0,-0.0053572,-3.24802,71.0263,Q,Q
2023-03-14 17:11:27:555,0,-0.0266403,-3.29177,71.0774,Q,Q
2023-03-14 17:11:27:565,0,-0.0611992,-3.32908,71.1159,Q,Q
2023-03-14 17:11:27:575,0,-0.101756,-3.36437,71.1424,Q,Q
2023-03-14 17:11:27:585,0,-0.146759,-3.39475,71.1521,Q,Q
2023-03-14 17:11:27:595,0,-0.188257,-3.41382,71.14,Q,Q
2023-03-14 17:11:27:605,0,-0.22492,-3.42715,71.1128,Q,Q
2023-03-14 17:11:27:615,0,-0.258764,-3.4301,71.0699,Q,Q
2023-03-14 17:11:27:625,0,-0.298814,-3.42697,71.0115,Q,Q
2023-03-14 17:11:27:635,0,-0.338293,-3.41678,70.9449,Q,Q
2023-03-14 17:11:27:645,0,-0.383834,-3.39857,70.87,Q,Q
2023-03-14 17:11:27:655,0,-0.429167,-3.37467,70.7909,Q,Q
2023-03-14 17:11:27:665,0,-0.471487,-3.34512,70.7066,Q,Q
2023-03-14 17:11:27:675,0,-0.513646,-3.31505,70.6228,Q,Q
2023-03-14 17:11:27:685,0,-0.548004,-3.28127,70.5439,Q,Q
2023-03-14 17:11:27:695,0,-0.582135,-3.24703,70.4679,Q,Q
2023-03-14 17:11:27:705,0,-0.613488,-3.21452,70.3981,Q,Q
2023-03-14 17:11:27:715,0,-0.642338,-3.18349,70.3363,Q,Q
2023-03-14 17:11:27:725,0,-0.670193,-3.15717,70.2807,Q,Q
2023-03-14 17:11:27:735,0,-0.691654,-3.13141,70.2349,Q,Q
2023-03-14 17:11:27:745,0,-0.703651,-3.10583,70.1969,Q,Q
2023-03-14 17:11:27:755,0,-0.716218,-3.0878,70.1649,Q,Q
2023-03-14 17:11:27:765,0,-0.724464,-3.07115,70.1419,Q,Q
2023-03-14 17:11:27:775,0,-0.727257,-3.04901,70.1309,Q,Q
2023-03-14 17:11:27:785,0,-0.722516,-3.02481,70.1252,Q,Q
2023-03-14 17:11:27:795,0,-0.719304,-3.00242,70.1306,Q,Q
2023-03-14 17:11:27:805,0,-0.717728,-2.98275,70.1399,Q,Q
2023-03-14 17:11:27:815,0,-0.72111,-2.96696,70.156,Q,Q
2023-03-14 17:11:27:825,0,-0.720252,-2.95345,70.1795,Q,Q
2023-03-14 17:11:27:835,0,-0.710636,-2.94698,70.1979,Q,Q
2023-03-14 17:11:27:845,0,-0.697776,-2.93998,70.2184,Q,Q
2023-03-14 17:11:27:855,0,-0.684541,-2.9316,70.2445,Q,Q
2023-03-14 17:11:27:865,0,-0.674692,-2.92547,70.2677,Q,Q
2023-03-14 17:11:27:875,0,-0.662419,-2.92062,70.2937,Q,Q
2023-03-14 17:11:27:885,0,-0.652646,-2.91508,70.3145,Q,Q
2023-03-14 17:11:27:895,0,-0.645923,-2.91143,70.334,Q,Q
2023-03-14 17:11:27:905,0,-0.639862,-2.91101,70.3534,Q,Q
2023-03-14 17:11:27:915,0,-0.636963,-2.90976,70.3678,Q,Q
2023-03-14 17:11:27:925,0,-0.635728,-2.90809,70.381,Q,Q
2023-03-14 17:11:27:935,0,-0.637241,-2.9089,70.3931,Q,Q
2023-03-14 17:11:27:945,0,-0.64234,-2.90988,70.4055,Q,Q
2023-03-14 17:11:27:955,0,-0.648794,-2.91127,70.4163,Q,Q
2023-03-14 17:11:27:965,0,-0.659835,-2.91528,70.4224,Q,Q
2023-03-14 17:11:27:975,0,-0.667061,-2.92156,70.4278,Q,Q
2023-03-14 17:11:27:985,0,-0.673722,-2.92869,70.4337,Q,Q
2023-03-14 17:11:27:995,0,-0.685206,-2.94028,70.4412,Q,Q
2023-03-14 17:11:28:5,0,-0.693965,-2.95297,70.4469,Q,Q
2023-03-14 17:11:28:15,0,-0.704923,-2.96753,70.4544,Q,Q
2023-03-14 17:11:28:25,0,-0.717631,-2.97796,70.4641,Q,Q
2023-03-14 17:11:28:35,0,-0.728867,-2.98363,70.473,Q,Q
2023-03-14 17:11:28:45,0,-0.739263,-2.99456,70.4818,Q,Q
2023-03-14 17:11:28:55,0,-0.750982,-2.99966,70.4924,Q,Q
2023-03-14 17:11:28:65,0,-0.760062,-3.00826,70.5009,Q,Q
2023-03-14 17:11:28:75,0,-0.761319,-3.01554,70.5085,Q,Q
2023-03-14 17:11:28:85,0,-0.761326,-3.02425,70.518,Q,Q
2023-03-14 17:11:28:95,0,-0.760538,-3.03464,70.5217,Q,Q
2023-03-14 17:11:28:105,0,-0.758341,-3.0454,70.5266,Q,Q
2023-03-14 17:11:28:115,0,-0.758069,-3.05236,70.5316,Q,Q
2023-03-14 17:11:28:125,0,-0.761164,-3.05869,70.5323,Q,Q
2023-03-14 17:11:28:135,0,-0.758441,-3.05931,70.5289,Q,Q
2023-03-14 17:11:28:145,0,-0.75895,-3.0566,70.527,Q,Q
2023-03-14 17:11:28:155,0,-0.759729,-3.05782,70.526,Q,Q
2023-03-14 17:11:28:165,0,-0.76083,-3.05625,70.5222,Q,Q
2023-03-14 17:11:28:175,0,-0.764369,-3.05268,70.5178,Q,Q
2023-03-14 17:11:28:185,0,-0.773596,-3.05084,70.5146,Q,Q
2023-03-14 17:11:28:195,0,-0.782759,-3.04807,70.5137,Q,Q
2023-03-14 17:11:28:205,0,-0.795692,-3.0457,70.512,Q,Q
2023-03-14 17:11:28:215,0,-0.80589,-3.04064,70.5068,Q,Q
2023-03-14 17:11:28:225,0,-0.816245,-3.03449,70.5063,Q,Q
2023-03-14 17:11:28:235,0,-0.825348,-3.02759,70.5042,Q,Q
2023-03-14 17:11:28:245,0,-0.829357,-3.0198,70.4972,Q,Q
2023-03-14 17:11:28:255,0,-0.828927,-3.01663,70.4888,Q,Q
2023-03-14 17:11:28:265,0,-0.824547,-3.01316,70.4819,Q,Q
2023-03-14 17:11:28:275,0,-0.820392,-3.01245,70.4769,Q,Q
2023-03-14 17:11:28:284,0,-0.810673,-3.01182,70.4707,Q,Q
2023-03-14 17:11:28:295,0,-0.795235,-3.01441,70.4634,Q,Q
2023-03-14 17:11:28:305,0,-0.784755,-3.01702,70.4514,Q,Q
2023-03-14 17:11:28:315,0,-0.775161,-3.01938,70.4431,Q,Q
2023-03-14 17:11:28:325,0,-0.76521,-3.0229,70.4308,Q,Q
2023-03-14 17:11:28:335,0,-0.758192,-3.02612,70.4194,Q,Q
2023-03-14 17:11:28:345,0,-0.749152,-3.02915,70.4078,Q,Q
2023-03-14 17:11:28:355,0,-0.735797,-3.03375,70.3958,Q,Q
2023-03-14 17:11:28:365,0,-0.723336,-3.0414,70.3824,Q,Q
2023-03-14 17:11:28:375,0,-0.704116,-3.05152,70.3693,Q,Q
2023-03-14 17:11:28:385,0,-0.684151,-3.06235,70.3578,Q,Q
2023-03-14 17:11:28:395,0,-0.657457,-3.07661,70.3459,Q,Q
2023-03-14 17:11:28:405,0,-0.637622,-3.08498,70.3345,Q,Q
2023-03-14 17:11:28:415,0,-0.618015,-3.09147,70.3222,Q,Q
2023-03-14 17:11:28:425,0,-0.59865,-3.10444,70.3112,Q,Q
2023-03-14 17:11:28:435,0,-0.581656,-3.11425,70.3067,Q,Q
2023-03-14 17:11:28:445,0,-0.568481,-3.12332,70.3011,Q,Q
2023-03-14 17:11:28:455,0,-0.559669,-3.13148,70.2943,Q,Q
2023-03-14 17:11:28:465,0,-0.550973,-3.14348,70.2901,Q,Q
2023-03-14 17:11:28:475,0,-0.540462,-3.15184,70.2838,Q,Q
2023-03-14 17:11:28:485,0,-0.527367,-3.16032,70.2788,Q,Q
2023-03-14 17:11:28:495,0,-0.511869,-3.1675,70.2699,Q,Q
2023-03-14 17:11:28:505,0,-0.498483,-3.17734,70.2644,Q,Q
2023-03-14 17:11:28:515,0,-0.48465,-3.1772,70.2582,Q,Q
2023-03-14 17:11:28:525,0,-0.472574,-3.17585,70.2498,Q,Q
2023-03-14 17:11:28:535,0,-0.459529,-3.17178,70.2369,Q,Q
2023-03-14 17:11:28:545,0,-0.449182,-3.17084,70.227,Q,Q
2023-03-14 17:11:28:555,0,-0.437742,-3.16424,70.2137,Q,Q
2023-03-14 17:11:28:565,0,-0.419793,-3.15675,70.2005,Q,Q
2023-03-14 17:11:28:575,0,-0.405281,-3.14774,70.1897,Q,Q
2023-03-14 17:11:28:585,0,-0.391373,-3.13859,70.1775,Q,Q
2023-03-14 17:11:28:595,0,-0.377668,-3.13137,70.164,Q,Q
2023-03-14 17:11:28:605,0,-0.359958,-3.12381,70.1534,Q,Q
2023-03-14 17:11:28:615,0,-0.339152,-3.11525,70.1369,Q,Q
2023-03-14 17:11:28:625,0,-0.317264,-3.10334,70.1181,Q,Q
2023-03-14 17:11:28:635,0,-0.280157,-3.09183,70.0996,Q,Q
2023-03-14 17:11:28:645,0,-0.253952,-3.07853,70.0838,Q,Q
2023-03-14 17:11:28:655,0,-0.239874,-3.06902,70.06,Q,Q
2023-03-14 17:11:28:665,0,-0.235798,-3.05994,70.0356,Q,Q
2023-03-14 17:11:28:675,0,-0.225886,-3.05387,70.0085,Q,Q
2023-03-14 17:11:28:685,0,-0.207044,-3.04753,69.9805,Q,Q
2023-03-14 17:11:28:695,0,-0.194849,-3.04121,69.9527,Q,Q
2023-03-14 17:11:28:705,0,-0.18944,-3.03717,69.9284,Q,Q
2023-03-14 17:11:28:715,0,-0.186072,-3.03582,69.905,Q,Q
2023-03-14 17:11:28:725,0,-0.179994,-3.03027,69.8836,Q,Q
2023-03-14 17:11:28:735,0,-0.171805,-3.0249,69.8635,Q,Q
2023-03-14 17:11:28:745,0,-0.163152,-3.02448,69.8465,Q,Q
2023-03-14 17:11:28:755,0,-0.145692,-3.02182,69.8237,Q,Q
2023-03-14 17:11:28:765,0,-0.113282,-3.02001,69.7984,Q,Q
2023-03-14 17:11:28:775,0,-0.0751812,-3.01313,69.777,Q,Q
2023-03-14 17:11:28:785,0,-0.0444621,-3.00346,69.7574,Q,Q
2023-03-14 17:11:28:795,0,-0.0211217,-2.99784,69.7379,Q,Q
2023-03-14 17:11:28:805,0,0.00326511,-2.99244,69.7159,Q,Q
2023-03-14 17:11:28:815,0,0.0241409,-2.98503,69.6916,Q,Q
2023-03-14 17:11:28:825,0,0.0434478,-2.97445,69.6647,Q,Q
2023-03-14 17:11:28:835,0,0.0603777,-2.96448,69.6359,Q,Q
2023-03-14 17:11:28:845,0,0.0837027,-2.95413,69.6076,Q,Q
2023-03-14 17:11:28:855,0,0.109019,-2.94699,69.578,Q,Q
2023-03-14 17:11:28:865,0,0.133914,-2.94389,69.5526,Q,Q
2023-03-14 17:11:28:875,0,0.155474,-2.93548,69.5269,Q,Q
2023-03-14 17:11:28:885,0,0.167186,-2.92959,69.5085,Q,Q
2023-03-14 17:11:28:895,0,0.175678,-2.92442,69.4907,Q,Q
2023-03-14 17:11:28:905,0,0.197661,-2.91766,69.4722,Q,Q
2023-03-14 17:11:28:915,0,0.23317,-2.90959,69.453,Q,Q
2023-03-14 17:11:28:925,0,0.273645,-2.89985,69.4387,Q,Q
2023-03-14 17:11:28:935,0,0.303035,-2.8932,69.4294,Q,Q
2023-03-14 17:11:28:945,0,0.322568,-2.88268,69.4253,Q,Q
2023-03-14 17:11:28:955,0,0.338287,-2.87533,69.4182,Q,Q
2023-03-14 17:11:28:965,0,0.349828,-2.87278,69.4099,Q,Q
2023-03-14 17:11:28:975,0,0.350644,-2.8668,69.4105,Q,Q
2023-03-14 17:11:28:985,0,0.354015,-2.86454,69.413,Q,Q
2023-03-14 17:11:28:995,0,0.354383,-2.86318,69.4204,Q,Q
2023-03-14 17:11:29:5,0,0.352248,-2.86836,69.4297,Q,Q
2023-03-14 17:11:29:15,0,0.355507,-2.87298,69.4405,Q,Q
2023-03-14 17:11:29:25,0,0.351237,-2.88233,69.4488,Q,Q
2023-03-14 17:11:29:35,0,0.342138,-2.88649,69.4602,Q,Q
