Timestamp_cmd,imu_cmd,roll_delta,pitch_delta,yaw_delta,voice_type,voice_length
2023-03-15 11:48:26:349,0,-78.8218,0.458309,77.7268,Q,Q
2023-03-15 11:48:26:356,0,-78.8207,0.458099,77.725,Q,Q
2023-03-15 11:48:26:367,0,-78.824,0.458187,77.7248,Q,Q
2023-03-15 11:48:26:377,0,-78.8211,0.456241,77.7249,Q,Q
2023-03-15 11:48:26:387,0,-78.82,0.454476,77.7215,Q,Q
2023-03-15 11:48:26:397,0,-78.8199,0.454469,77.7225,Q,Q
2023-03-15 11:48:26:407,0,-78.8197,0.451709,77.7219,Q,Q
2023-03-15 11:48:26:417,0,-78.8197,0.450545,77.7243,Q,Q
2023-03-15 11:48:26:427,0,-78.8197,0.449215,77.7253,Q,Q
2023-03-15 11:48:26:437,0,-78.8217,0.44596,77.7252,Q,Q
2023-03-15 11:48:26:447,0,-78.8207,0.446105,77.7227,Q,Q
2023-03-15 11:48:26:457,0,-78.8197,0.445936,77.7231,Q,Q
2023-03-15 11:48:26:467,0,-78.8205,0.447154,77.723,Q,Q
2023-03-15 11:48:26:477,0,-78.823,0.448382,77.7191,Q,Q
2023-03-15 11:48:26:487,0,-78.8186,0.448003,77.7159,Q,Q
2023-03-15 11:48:26:497,0,-78.8156,0.449069,77.7159,Q,Q
2023-03-15 11:48:26:507,0,-78.8144,0.450708,77.7158,Q,Q
2023-03-15 11:48:26:517,0,-78.8151,0.452635,77.7132,Q,Q
2023-03-15 11:48:26:527,0,-78.8155,0.453018,77.711,Q,Q
2023-03-15 11:48:26:537,0,-78.8145,0.45477,77.7114,Q,Q
2023-03-15 11:48:26:547,0,-78.8128,0.453168,77.7146,Q,Q
2023-03-15 11:48:26:557,0,-78.8162,0.453869,77.7141,Q,Q
2023-03-15 11:48:26:567,0,-78.8156,0.455385,77.7135,Q,Q
2023-03-15 11:48:26:577,0,-78.8181,0.455554,77.7134,Q,Q
2023-03-15 11:48:26:587,0,-78.8188,0.458109,77.7161,Q,Q
2023-03-15 11:48:26:597,0,-78.8171,0.458327,77.7147,Q,Q
2023-03-15 11:48:26:607,0,-78.8188,0.462655,77.7131,Q,Q
2023-03-15 11:48:26:617,0,-78.8214,0.461241,77.715,Q,Q
2023-03-15 11:48:26:627,0,-78.8222,0.462614,77.7197,Q,Q
2023-03-15 11:48:26:637,0,-78.8218,0.463027,77.7205,Q,Q
2023-03-15 11:48:26:647,0,-78.8219,0.463439,77.7205,Q,Q
2023-03-15 11:48:26:657,0,-78.8205,0.464951,77.7221,Q,Q
2023-03-15 11:48:26:667,0,-78.8213,0.465049,77.7222,Q,Q
2023-03-15 11:48:26:677,0,-78.8229,0.463358,77.7229,Q,Q
2023-03-15 11:48:26:687,0,-78.8226,0.464363,77.7232,Q,Q
2023-03-15 11:48:26:697,0,-78.8231,0.466382,77.7247,Q,Q
2023-03-15 11:48:26:707,0,-78.8221,0.469073,77.7275,Q,Q
2023-03-15 11:48:26:717,0,-78.825,0.46948,77.7264,Q,Q
2023-03-15 11:48:26:727,0,-78.822,0.470984,77.7248,Q,Q
2023-03-15 11:48:26:737,0,-78.8226,0.469284,77.7237,Q,Q
2023-03-15 11:48:26:747,0,-78.8207,0.468317,77.724,Q,Q
2023-03-15 11:48:26:757,0,-78.8209,0.468102,77.7212,Q,Q
2023-03-15 11:48:26:767,0,-78.8178,0.467506,77.7204,Q,Q
2023-03-15 11:48:26:777,0,-78.8187,0.468265,77.7195,Q,Q
2023-03-15 11:48:26:787,0,-78.8203,0.46807,77.7188,Q,Q
2023-03-15 11:48:26:797,0,-78.8186,0.466442,77.7199,Q,Q
2023-03-15 11:48:26:807,0,-78.8209,0.467214,77.7184,Q,Q
2023-03-15 11:48:26:817,0,-78.8215,0.467292,77.7193,Q,Q
2023-03-15 11:48:26:827,0,-78.8189,0.466487,77.7208,Q,Q
2023-03-15 11:48:26:836,0,-78.8185,0.465472,77.7184,Q,Q
2023-03-15 11:48:26:847,0,-78.8188,0.465508,77.7165,Q,Q
2023-03-15 11:48:26:857,0,-78.8194,0.466028,77.7136,Q,Q
2023-03-15 11:48:26:867,0,-78.8189,0.463137,77.7147,Q,Q
2023-03-15 11:48:26:877,0,-78.8193,0.461863,77.7147,Q,Q
2023-03-15 11:48:26:887,0,-78.82,0.462241,77.718,Q,Q
2023-03-15 11:48:26:897,0,-78.8157,0.465519,77.717,Q,Q
2023-03-15 11:48:26:907,0,-78.8169,0.464939,77.7167,Q,Q
2023-03-15 11:48:26:917,0,-78.8157,0.464314,77.7186,Q,Q
2023-03-15 11:48:26:927,0,-78.8185,0.46599,77.719,Q,Q
2023-03-15 11:48:26:936,0,-78.818,0.465245,77.7199,Q,Q
2023-03-15 11:48:26:946,0,-78.8162,0.466002,77.7201,Q,Q
2023-03-15 11:48:26:956,0,-78.8158,0.468718,77.7213,Q,Q
2023-03-15 11:48:26:966,0,-78.8126,0.467006,77.7176,Q,Q
2023-03-15 11:48:26:976,0,-78.8147,0.461612,77.7163,Q,Q
2023-03-15 11:48:26:986,0,-78.8125,0.45836,77.7172,Q,Q
2023-03-15 11:48:26:996,0,-78.81,0.45545,77.7142,Q,Q
2023-03-15 11:48:27:7,0,-78.8105,0.453605,77.7133,Q,Q
2023-03-15 11:48:27:17,0,-78.8122,0.451361,77.7124,Q,Q
2023-03-15 11:48:27:27,0,-78.8119,0.449129,77.7151,Q,Q
2023-03-15 11:48:27:37,0,-78.8138,0.450615,77.7178,Q,Q
2023-03-15 11:48:27:47,0,-78.8155,0.452019,77.7165,Q,Q
2023-03-15 11:48:27:57,0,-78.8135,0.45208,77.7158,Q,Q
2023-03-15 11:48:27:67,0,-78.8138,0.452988,77.7193,Q,Q
2023-03-15 11:48:27:77,0,-78.8121,0.452893,77.7189,Q,Q
2023-03-15 11:48:27:87,0,-78.8115,0.455414,77.7225,Q,Q
2023-03-15 11:48:27:96,0,-78.8092,0.459617,77.7201,Q,Q
2023-03-15 11:48:27:107,0,-78.8103,0.457073,77.7188,Q,Q
2023-03-15 11:48:27:117,0,-78.8112,0.455511,77.7203,Q,Q
2023-03-15 11:48:27:127,0,-78.8085,0.457289,77.7223,Q,Q
2023-03-15 11:48:27:137,0,-78.8084,0.455911,77.7226,Q,Q
2023-03-15 11:48:27:147,0,-78.8096,0.454547,77.7216,Q,Q
2023-03-15 11:48:27:157,0,-78.8107,0.454834,77.7229,Q,Q
2023-03-15 11:48:27:167,0,-78.8125,0.454171,77.7216,Q,Q
2023-03-15 11:48:27:177,0,-78.8135,0.457332,77.7226,Q,Q
2023-03-15 11:48:27:187,0,-78.8126,0.456579,77.7224,Q,Q
2023-03-15 11:48:27:197,0,-78.813,0.456378,77.7218,Q,Q
2023-03-15 11:48:27:207,0,-78.8109,0.456334,77.7237,Q,Q
2023-03-15 11:48:27:217,0,-78.8082,0.457344,77.7217,Q,Q
2023-03-15 11:48:27:227,0,-78.808,0.454313,77.7234,Q,Q
2023-03-15 11:48:27:237,0,-78.8074,0.453515,77.722,Q,Q
2023-03-15 11:48:27:247,0,-78.8035,0.449439,77.7233,Q,Q
2023-03-15 11:48:27:256,0,-78.8051,0.447835,77.7221,Q,Q
2023-03-15 11:48:27:267,0,-78.801,0.450915,77.723,Q,Q
2023-03-15 11:48:27:277,0,-78.7986,0.45089,77.7229,Q,Q
2023-03-15 11:48:27:287,0,-78.7986,0.452317,77.7223,Q,Q
2023-03-15 11:48:27:297,0,-78.7971,0.454334,77.7217,Q,Q
2023-03-15 11:48:27:307,0,-78.7964,0.45329,77.7206,Q,Q
2023-03-15 11:48:27:317,0,-78.7982,0.453468,77.7228,Q,Q
2023-03-15 11:48:27:327,0,-78.7942,0.453503,77.7231,Q,Q
2023-03-15 11:48:27:337,0,-78.7932,0.453487,77.7248,Q,Q
2023-03-15 11:48:27:347,0,-78.7942,0.452802,77.7259,Q,Q
2023-03-15 11:48:27:357,0,-78.7945,0.450679,77.7276,Q,Q
2023-03-15 11:48:27:367,0,-78.7941,0.452916,77.7273,Q,Q
2023-03-15 11:48:27:377,0,-78.7967,0.454454,77.7273,Q,Q
2023-03-15 11:48:27:387,0,-78.7996,0.452094,77.7255,Q,Q
2023-03-15 11:48:27:397,0,-78.8005,0.456119,77.7266,Q,Q
2023-03-15 11:48:27:407,0,-78.8046,0.454413,77.7278,Q,Q
2023-03-15 11:48:27:417,0,-78.8084,0.454677,77.7271,Q,Q
2023-03-15 11:48:27:427,0,-78.8098,0.454252,77.7246,Q,Q
2023-03-15 11:48:27:437,0,-78.8082,0.451638,77.7257,Q,Q
2023-03-15 11:48:27:447,0,-78.8065,0.449558,77.7265,Q,Q
2023-03-15 11:48:27:457,0,-78.8069,0.450108,77.726,Q,Q
2023-03-15 11:48:27:467,0,-78.8076,0.454176,77.725,Q,Q
2023-03-15 11:48:27:476,0,-78.8092,0.45414,77.7264,Q,Q
2023-03-15 11:48:27:486,0,-78.8089,0.454099,77.7272,Q,Q
2023-03-15 11:48:27:496,0,-78.8047,0.452928,77.7246,Q,Q
2023-03-15 11:48:27:506,0,-78.8028,0.452009,77.7256,Q,Q
2023-03-15 11:48:27:516,0,-78.8035,0.451522,77.7217,Q,Q
2023-03-15 11:48:27:526,0,-78.8066,0.452517,77.7223,Q,Q
2023-03-15 11:48:27:536,0,-78.8085,0.452151,77.7233,Q,Q
2023-03-15 11:48:27:546,0,-78.8113,0.45362,77.7245,Q,Q
2023-03-15 11:48:27:556,0,-78.8119,0.453429,77.7202,Q,Q
2023-03-15 11:48:27:566,0,-78.8105,0.45027,77.7211,Q,Q
2023-03-15 11:48:27:576,0,-78.8103,0.45011,77.7214,Q,Q
2023-03-15 11:48:27:586,0,-78.8124,0.448877,77.7211,Q,Q
2023-03-15 11:48:27:596,0,-78.8148,0.449941,77.7197,Q,Q
2023-03-15 11:48:27:606,0,-78.8152,0.450758,77.7218,Q,Q
2023-03-15 11:48:27:616,0,-78.8144,0.449284,77.7232,Q,Q
2023-03-15 11:48:27:628,0,-78.8126,0.451426,77.7264,Q,Q
2023-03-15 11:48:27:636,0,-78.8149,0.451099,77.7236,Q,Q
2023-03-15 11:48:27:646,0,-78.8152,0.449435,77.7252,Q,Q
2023-03-15 11:48:27:656,0,-78.8139,0.447794,77.7221,Q,Q
2023-03-15 11:48:27:666,0,-78.8133,0.445392,77.7236,Q,Q
2023-03-15 11:48:27:676,0,-78.8127,0.441964,77.7241,Q,Q
2023-03-15 11:48:27:686,0,-78.8104,0.442387,77.7229,Q,Q
2023-03-15 11:48:27:696,0,-78.8093,0.443166,77.7202,Q,Q
2023-03-15 11:48:27:706,0,-78.8112,0.445534,77.721,Q,Q
2023-03-15 11:48:27:716,0,-78.8121,0.446669,77.7219,Q,Q
2023-03-15 11:48:27:726,0,-78.8138,0.445871,77.7192,Q,Q
2023-03-15 11:48:27:736,0,-78.813,0.445617,77.7226,Q,Q
2023-03-15 11:48:27:746,0,-78.814,0.445894,77.7217,Q,Q
2023-03-15 11:48:27:756,0,-78.8129,0.447849,77.7222,Q,Q
2023-03-15 11:48:27:766,0,-78.8118,0.446819,77.7263,Q,Q
2023-03-15 11:48:27:776,0,-78.8127,0.44632,77.7278,Q,Q
2023-03-15 11:48:27:786,0,-78.8104,0.444883,77.7257,Q,Q
2023-03-15 11:48:27:796,0,-78.8125,0.44303,77.7273,Q,Q
2023-03-15 11:48:27:806,0,-78.8106,0.441333,77.7263,Q,Q
2023-03-15 11:48:27:816,0,-78.8096,0.442846,77.7256,Q,Q
2023-03-15 11:48:27:826,0,-78.8076,0.443982,77.7269,Q,Q
2023-03-15 11:48:27:837,0,-78.8082,0.444148,77.7249,Q,Q
2023-03-15 11:48:27:847,0,-78.811,0.447132,77.7234,Q,Q
2023-03-15 11:48:27:857,0,-78.806,0.449038,77.7212,Q,Q
2023-03-15 11:48:27:867,0,-78.8047,0.44902,77.7229,Q,Q
2023-03-15 11:48:27:876,0,-78.806,0.449641,77.7234,Q,Q
2023-03-15 11:48:27:887,0,-78.8074,0.449342,77.7237,Q,Q
2023-03-15 11:48:27:897,0,-78.808,0.450149,77.7263,Q,Q
2023-03-15 11:48:27:907,0,-78.8076,0.450025,77.7261,Q,Q
2023-03-15 11:48:27:916,0,-78.8066,0.451259,77.7273,Q,Q
2023-03-15 11:48:27:927,0,-78.8046,0.454075,77.7255,Q,Q
2023-03-15 11:48:27:937,0,-78.804,0.454318,77.7231,Q,Q
2023-03-15 11:48:27:947,0,-78.8058,0.453623,77.7233,Q,Q
2023-03-15 11:48:27:957,0,-78.8055,0.457623,77.7253,Q,Q
2023-03-15 11:48:27:966,0,-78.8025,0.457149,77.7264,Q,Q
2023-03-15 11:48:27:977,0,-78.7997,0.457704,77.7244,Q,Q
2023-03-15 11:48:27:987,0,-78.7993,0.459142,77.7252,Q,Q
2023-03-15 11:48:27:997,0,-78.7999,0.458701,77.7267,Q,Q
2023-03-15 11:48:28:7,0,-78.7982,0.460612,77.727,Q,Q
2023-03-15 11:48:28:17,0,-78.7943,0.458167,77.7235,Q,Q
2023-03-15 11:48:28:27,0,-78.796,0.458712,77.7221,Q,Q
2023-03-15 11:48:28:36,0,-78.795,0.456819,77.7224,Q,Q
2023-03-15 11:48:28:46,0,-78.7934,0.455037,77.724,Q,Q
2023-03-15 11:48:28:57,0,-78.795,0.457092,77.7247,Q,Q
2023-03-15 11:48:28:67,0,-78.7934,0.456005,77.7235,Q,Q
2023-03-15 11:48:28:77,0,-78.7925,0.454139,77.7223,Q,Q
2023-03-15 11:48:28:87,0,-78.7932,0.453787,77.7246,Q,Q
2023-03-15 11:48:28:97,0,-78.7942,0.45369,77.7206,Q,Q
2023-03-15 11:48:28:107,0,-78.7952,0.452593,77.7193,Q,Q
2023-03-15 11:48:28:117,0,-78.7972,0.456096,77.7212,Q,Q
2023-03-15 11:48:28:127,0,-78.7949,0.455665,77.7234,Q,Q
2023-03-15 11:48:28:137,0,-78.7922,0.457291,77.7239,Q,Q
2023-03-15 11:48:28:147,0,-78.7918,0.461337,77.723,Q,Q
2023-03-15 11:48:28:157,0,-78.7903,0.459372,77.724,Q,Q
2023-03-15 11:48:28:167,0,-78.7889,0.458883,77.7259,Q,Q
2023-03-15 11:48:28:177,0,-78.7896,0.459179,77.7246,Q,Q
2023-03-15 11:48:28:187,0,-78.7927,0.46029,77.7254,Q,Q
2023-03-15 11:48:28:197,0,-78.7922,0.459751,77.7228,Q,Q
2023-03-15 11:48:28:207,0,-78.7903,0.459539,77.7213,Q,Q
2023-03-15 11:48:28:216,0,-78.7899,0.461241,77.7232,Q,Q
2023-03-15 11:48:28:227,0,-78.7842,0.46226,77.7252,Q,Q
2023-03-15 11:48:28:237,0,-78.7824,0.461204,77.7252,Q,Q
2023-03-15 11:48:28:247,0,-78.7802,0.463538,77.7241,Q,Q
2023-03-15 11:48:28:256,0,-78.7798,0.462672,77.7206,Q,Q
2023-03-15 11:48:28:266,0,-78.7806,0.461559,77.718,Q,Q
2023-03-15 11:48:28:277,0,-78.7826,0.459837,77.7167,Q,Q
2023-03-15 11:48:28:287,0,-78.7798,0.456984,77.7161,Q,Q
2023-03-15 11:48:28:297,0,-78.7804,0.456197,77.7175,Q,Q
2023-03-15 11:48:28:307,0,-78.7816,0.459189,77.7183,Q,Q
2023-03-15 11:48:28:317,0,-78.7805,0.457183,77.7189,Q,Q
2023-03-15 11:48:28:327,0,-78.7792,0.455801,77.7192,Q,Q
2023-03-15 11:48:28:336,0,-78.7808,0.454651,77.7186,Q,Q
2023-03-15 11:48:28:346,0,-78.7779,0.455978,77.7177,Q,Q
2023-03-15 11:48:28:357,0,-78.7781,0.454528,77.7214,Q,Q
2023-03-15 11:48:28:366,0,-78.78,0.452706,77.722,Q,Q
2023-03-15 11:48:28:377,0,-78.7804,0.448847,77.7229,Q,Q
2023-03-15 11:48:28:387,0,-78.7788,0.451027,77.724,Q,Q
2023-03-15 11:48:28:397,0,-78.7776,0.45248,77.7197,Q,Q
2023-03-15 11:48:28:407,0,-78.7786,0.45252,77.7204,Q,Q
2023-03-15 11:48:28:417,0,-78.7799,0.446309,77.72,Q,Q
2023-03-15 11:48:28:427,0,-78.7808,0.445847,77.7232,Q,Q
2023-03-15 11:48:28:437,0,-78.7836,0.44319,77.7227,Q,Q
2023-03-15 11:48:28:447,0,-78.7843,0.445691,77.7233,Q,Q
2023-03-15 11:48:28:457,0,-78.7863,0.445376,77.7224,Q,Q
2023-03-15 11:48:28:466,0,-78.7866,0.44407,77.7229,Q,Q
2023-03-15 11:48:28:477,0,-78.7861,0.445388,77.7229,Q,Q
2023-03-15 11:48:28:487,0,-78.7853,0.445446,77.7216,Q,Q
2023-03-15 11:48:28:497,0,-78.7875,0.446765,77.7188,Q,Q
2023-03-15 11:48:28:507,0,-78.787,0.448074,77.7204,Q,Q
2023-03-15 11:48:28:517,0,-78.7878,0.446193,77.7214,Q,Q
2023-03-15 11:48:28:526,0,-78.786,0.4467,77.724,Q,Q
2023-03-15 11:48:28:537,0,-78.7898,0.445435,77.7222,Q,Q
2023-03-15 11:48:28:546,0,-78.789,0.444874,77.7206,Q,Q
2023-03-15 11:48:28:557,0,-78.7887,0.445911,77.7183,Q,Q
2023-03-15 11:48:28:567,0,-78.7881,0.444869,77.7181,Q,Q
2023-03-15 11:48:28:577,0,-78.7872,0.442205,77.7147,Q,Q
2023-03-15 11:48:28:587,0,-78.7882,0.440549,77.7153,Q,Q
2023-03-15 11:48:28:597,0,-78.788,0.440855,77.716,Q,Q
2023-03-15 11:48:28:606,0,-78.7906,0.442474,77.7179,Q,Q
2023-03-15 11:48:28:617,0,-78.7884,0.444334,77.7154,Q,Q
2023-03-15 11:48:28:627,0,-78.7874,0.445844,77.7148,Q,Q
2023-03-15 11:48:28:637,0,-78.7845,0.447045,77.7148,Q,Q
2023-03-15 11:48:28:647,0,-78.7826,0.448879,77.7151,Q,Q
2023-03-15 11:48:28:657,0,-78.7819,0.449741,77.7154,Q,Q
2023-03-15 11:48:28:666,0,-78.7812,0.450922,77.7131,Q,Q
2023-03-15 11:48:28:676,0,-78.7855,0.452053,77.7101,Q,Q
2023-03-15 11:48:28:687,0,-78.7857,0.45146,77.7094,Q,Q
2023-03-15 11:48:28:697,0,-78.7838,0.453003,77.7106,Q,Q
2023-03-15 11:48:28:707,0,-78.7822,0.451542,77.7133,Q,Q
2023-03-15 11:48:28:717,0,-78.782,0.452206,77.7123,Q,Q
2023-03-15 11:48:28:727,0,-78.7807,0.451623,77.7079,Q,Q
2023-03-15 11:48:28:737,0,-78.7847,0.450319,77.7057,Q,Q
2023-03-15 11:48:28:746,0,-78.7861,0.452419,77.7072,Q,Q
2023-03-15 11:48:28:756,0,-78.7864,0.451386,77.7087,Q,Q
2023-03-15 11:48:28:767,0,-78.7833,0.452344,77.708,Q,Q
2023-03-15 11:48:28:776,0,-78.7816,0.452574,77.7093,Q,Q
2023-03-15 11:48:28:787,0,-78.7808,0.453057,77.7066,Q,Q
2023-03-15 11:48:28:796,0,-78.7816,0.45185,77.7064,Q,Q
2023-03-15 11:48:28:807,0,-78.7832,0.451619,77.707,Q,Q
2023-03-15 11:48:28:816,0,-78.7808,0.450052,77.7052,Q,Q
2023-03-15 11:48:28:826,0,-78.7773,0.449031,77.7057,Q,Q
2023-03-15 11:48:28:836,0,-78.7777,0.446971,77.7097,Q,Q
2023-03-15 11:48:28:846,0,-78.7785,0.446617,77.7124,Q,Q
2023-03-15 11:48:28:856,0,-78.7796,0.447589,77.7116,Q,Q
2023-03-15 11:48:28:867,0,-78.7799,0.44885,77.7122,Q,Q
2023-03-15 11:48:28:877,0,-78.779,0.450299,77.7125,Q,Q
2023-03-15 11:48:28:887,0,-78.7803,0.45225,77.7159,Q,Q
2023-03-15 11:48:28:896,0,-78.7791,0.452675,77.7178,Q,Q
2023-03-15 11:48:28:906,0,-78.7823,0.453543,77.7174,Q,Q
2023-03-15 11:48:28:916,0,-78.7778,0.452878,77.7211,Q,Q
2023-03-15 11:48:28:927,0,-78.7782,0.455656,77.7198,Q,Q
2023-03-15 11:48:28:937,0,-78.7795,0.45815,77.7197,Q,Q
2023-03-15 11:48:28:947,0,-78.7777,0.455772,77.7189,Q,Q
2023-03-15 11:48:28:956,0,-78.7775,0.454949,77.7213,Q,Q
2023-03-15 11:48:28:966,0,-78.774,0.455503,77.7241,Q,Q
2023-03-15 11:48:28:977,0,-78.7744,0.45726,77.7259,Q,Q
2023-03-15 11:48:28:986,0,-78.7734,0.458786,77.7266,Q,Q
2023-03-15 11:48:28:997,0,-78.7737,0.461166,77.7267,Q,Q
2023-03-15 11:48:29:7,0,-78.7747,0.461121,77.7251,Q,Q
2023-03-15 11:48:29:17,0,-78.7732,0.45835,77.7281,Q,Q
2023-03-15 11:48:29:26,0,-78.7676,0.455702,77.7266,Q,Q
2023-03-15 11:48:29:36,0,-78.7657,0.457148,77.7261,Q,Q
2023-03-15 11:48:29:46,0,-78.765,0.453444,77.7249,Q,Q
2023-03-15 11:48:29:57,0,-78.7667,0.457016,77.7222,Q,Q
2023-03-15 11:48:29:67,0,-78.7715,0.45769,77.7209,Q,Q
2023-03-15 11:48:29:77,0,-78.7769,0.458592,77.7227,Q,Q
2023-03-15 11:48:29:87,0,-78.7798,0.460114,77.7245,Q,Q
2023-03-15 11:48:29:96,0,-78.7765,0.459621,77.725,Q,Q
2023-03-15 11:48:29:106,0,-78.7776,0.459305,77.7291,Q,Q
2023-03-15 11:48:29:116,0,-78.7805,0.45761,77.7307,Q,Q
2023-03-15 11:48:29:127,0,-78.7796,0.45556,77.7295,Q,Q
2023-03-15 11:48:29:136,0,-78.7809,0.454003,77.728,Q,Q
2023-03-15 11:48:29:146,0,-78.7792,0.454281,77.7288,Q,Q
2023-03-15 11:48:29:156,0,-78.7763,0.454809,77.7276,Q,Q
2023-03-15 11:48:29:167,0,-78.7737,0.454342,77.727,Q,Q
2023-03-15 11:48:29:177,0,-78.7735,0.453049,77.7262,Q,Q
2023-03-15 11:48:29:186,0,-78.7752,0.452479,77.7257,Q,Q
2023-03-15 11:48:29:196,0,-78.7782,0.448882,77.7231,Q,Q
2023-03-15 11:48:29:206,0,-78.7785,0.450091,77.7254,Q,Q
2023-03-15 11:48:29:217,0,-78.7758,0.451732,77.7251,Q,Q
2023-03-15 11:48:29:226,0,-78.7759,0.452984,77.7251,Q,Q
2023-03-15 11:48:29:237,0,-78.7728,0.453308,77.7245,Q,Q
2023-03-15 11:48:29:247,0,-78.775,0.454831,77.7255,Q,Q
2023-03-15 11:48:29:257,0,-78.7745,0.455648,77.7224,Q,Q
2023-03-15 11:48:29:267,0,-78.7745,0.454206,77.7246,Q,Q
2023-03-15 11:48:29:277,0,-78.7738,0.455335,77.7234,Q,Q
2023-03-15 11:48:29:287,0,-78.7737,0.458594,77.7235,Q,Q
2023-03-15 11:48:29:297,0,-78.7743,0.457852,77.7224,Q,Q
2023-03-15 11:48:29:306,0,-78.7761,0.458887,77.7217,Q,Q
2023-03-15 11:48:29:316,0,-78.7779,0.460083,77.7211,Q,Q
2023-03-15 11:48:29:327,0,-78.7786,0.457326,77.7198,Q,Q
2023-03-15 11:48:29:336,0,-78.7774,0.457384,77.7234,Q,Q
2023-03-15 11:48:29:346,0,-78.777,0.458512,77.728,Q,Q
2023-03-15 11:48:29:356,0,-78.7766,0.459976,77.7267,Q,Q
2023-03-15 11:48:29:366,0,-78.7755,0.46247,77.7294,Q,Q
2023-03-15 11:48:29:376,0,-78.78,0.462145,77.727,Q,Q
2023-03-15 11:48:29:386,0,-78.7802,0.46451,77.7276,Q,Q
2023-03-15 11:48:29:396,0,-78.7799,0.461961,77.7285,Q,Q
2023-03-15 11:48:29:406,0,-78.7809,0.463703,77.7265,Q,Q
2023-03-15 11:48:29:416,0,-78.7799,0.462175,77.7273,Q,Q
2023-03-15 11:48:29:426,0,-78.778,0.462316,77.7284,Q,Q
2023-03-15 11:48:29:436,0,-78.7811,0.463282,77.7259,Q,Q
2023-03-15 11:48:29:446,0,-78.7806,0.465385,77.7278,Q,Q
2023-03-15 11:48:29:456,0,-78.7841,0.465204,77.722,Q,Q
2023-03-15 11:48:29:467,0,-78.7862,0.464736,77.7217,Q,Q
2023-03-15 11:48:29:476,0,-78.7855,0.464365,77.7199,Q,Q
2023-03-15 11:48:29:487,0,-78.7851,0.465107,77.7159,Q,Q
2023-03-15 11:48:29:497,0,-78.7854,0.463961,77.7119,Q,Q
2023-03-15 11:48:29:507,0,-78.7864,0.464676,77.7132,Q,Q
2023-03-15 11:48:29:517,0,-78.7864,0.465843,77.7118,Q,Q
2023-03-15 11:48:29:526,0,-78.7849,0.467436,77.7134,Q,Q
2023-03-15 11:48:29:537,0,-78.7849,0.467049,77.7126,Q,Q
2023-03-15 11:48:29:547,0,-78.7834,0.467806,77.7137,Q,Q
2023-03-15 11:48:29:557,0,-78.7832,0.467433,77.7132,Q,Q
2023-03-15 11:48:29:567,0,-78.7832,0.466103,77.7153,Q,Q
2023-03-15 11:48:29:577,0,-78.7876,0.464753,77.7154,Q,Q
2023-03-15 11:48:29:587,0,-78.7863,0.464705,77.7149,Q,Q
2023-03-15 11:48:29:597,0,-78.7827,0.466783,77.7162,Q,Q
2023-03-15 11:48:29:607,0,-78.7815,0.467494,77.714,Q,Q
2023-03-15 11:48:29:617,0,-78.7831,0.46483,77.7135,Q,Q
2023-03-15 11:48:29:627,0,-78.7828,0.462807,77.7087,Q,Q
2023-03-15 11:48:29:637,0,-78.784,0.46405,77.7082,Q,Q
2023-03-15 11:48:29:647,0,-78.7846,0.462691,77.7078,Q,Q
2023-03-15 11:48:29:657,0,-78.7837,0.462432,77.7062,Q,Q
2023-03-15 11:48:29:667,0,-78.7799,0.463776,77.7056,Q,Q
2023-03-15 11:48:29:677,0,-78.7795,0.465847,77.7049,Q,Q
2023-03-15 11:48:29:687,0,-78.7819,0.462523,77.7043,Q,Q
2023-03-15 11:48:29:697,0,-78.7823,0.464547,77.7047,Q,Q
2023-03-15 11:48:29:707,0,-78.7824,0.464058,77.7051,Q,Q
2023-03-15 11:48:29:717,0,-78.7804,0.467129,77.7012,Q,Q
2023-03-15 11:48:29:727,0,-78.7829,0.466105,77.7015,Q,Q
2023-03-15 11:48:29:737,0,-78.7818,0.466307,77.702,Q,Q
2023-03-15 11:48:29:747,0,-78.7778,0.465495,77.7019,Q,Q
2023-03-15 11:48:29:757,0,-78.7775,0.466708,77.7057,Q,Q
2023-03-15 11:48:29:767,0,-78.7774,0.46739,77.7058,Q,Q
2023-03-15 11:48:29:777,0,-78.78,0.466123,77.7043,Q,Q
2023-03-15 11:48:29:787,0,-78.777,0.465541,77.7076,Q,Q
2023-03-15 11:48:29:797,0,-78.7789,0.464785,77.7076,Q,Q
2023-03-15 11:48:29:807,0,-78.7772,0.467391,77.7115,Q,Q
2023-03-15 11:48:29:817,0,-78.7779,0.466527,77.712,Q,Q
2023-03-15 11:48:29:827,0,-78.7779,0.46726,77.713,Q,Q
2023-03-15 11:48:29:837,0,-78.7786,0.467938,77.7112,Q,Q
2023-03-15 11:48:29:847,0,-78.7776,0.469082,77.7103,Q,Q
2023-03-15 11:48:29:857,0,-78.7712,0.470452,77.7089,Q,Q
2023-03-15 11:48:29:866,0,-78.7679,0.470702,77.7075,Q,Q
2023-03-15 11:48:29:877,0,-78.7649,0.470895,77.7063,Q,Q
2023-03-15 11:48:29:887,0,-78.7651,0.469022,77.7047,Q,Q
2023-03-15 11:48:29:897,0,-78.7681,0.469123,77.703,Q,Q
2023-03-15 11:48:29:907,0,-78.7705,0.468009,77.6986,Q,Q
2023-03-15 11:48:29:917,0,-78.7711,0.468884,77.6967,Q,Q
2023-03-15 11:48:29:927,0,-78.77,0.467267,77.701,Q,Q
2023-03-15 11:48:29:936,0,-78.7698,0.465974,77.6994,Q,Q
2023-03-15 11:48:29:947,0,-78.7679,0.466345,77.6988,Q,Q
2023-03-15 11:48:29:957,0,-78.7688,0.467574,77.6987,Q,Q
2023-03-15 11:48:29:967,0,-78.7683,0.468332,77.7009,Q,Q
2023-03-15 11:48:29:977,0,-78.7675,0.469859,77.7003,Q,Q
2023-03-15 11:48:29:987,0,-78.7637,0.468195,77.7025,Q,Q
2023-03-15 11:48:29:996,0,-78.763,0.465577,77.702,Q,Q
2023-03-15 11:48:30:7,0,-78.7618,0.465968,77.7019,Q,Q
2023-03-15 11:48:30:17,0,-78.7578,0.465126,77.7033,Q,Q
2023-03-15 11:48:30:26,0,-78.7577,0.465125,77.7031,Q,Q
2023-03-15 11:48:30:37,0,-78.7632,0.46438,77.703,Q,Q
2023-03-15 11:48:30:47,0,-78.7638,0.464531,77.7006,Q,Q
2023-03-15 11:48:30:57,0,-78.7628,0.463624,77.6978,Q,Q
2023-03-15 11:48:30:67,0,-78.7582,0.46422,77.7003,Q,Q
2023-03-15 11:48:30:76,0,-78.7584,0.464232,77.7024,Q,Q
2023-03-15 11:48:30:87,0,-78.7615,0.464244,77.7019,Q,Q
2023-03-15 11:48:30:97,0,-78.7618,0.462195,77.7036,Q,Q
2023-03-15 11:48:30:107,0,-78.7602,0.461022,77.708,Q,Q
2023-03-15 11:48:30:117,0,-78.7598,0.461524,77.7109,Q,Q
2023-03-15 11:48:30:127,0,-78.7594,0.465294,77.7102,Q,Q
2023-03-15 11:48:30:137,0,-78.7582,0.463256,77.7111,Q,Q
2023-03-15 11:48:30:147,0,-78.7587,0.464387,77.709,Q,Q
2023-03-15 11:48:30:157,0,-78.7578,0.467253,77.7082,Q,Q
2023-03-15 11:48:30:167,0,-78.7589,0.465868,77.7113,Q,Q
2023-03-15 11:48:30:177,0,-78.7559,0.467251,77.7128,Q,Q
2023-03-15 11:48:30:187,0,-78.752,0.466957,77.7111,Q,Q
2023-03-15 11:48:30:197,0,-78.7532,0.468108,77.714,Q,Q
2023-03-15 11:48:30:207,0,-78.7563,0.469503,77.7151,Q,Q
2023-03-15 11:48:30:217,0,-78.758,0.469784,77.7154,Q,Q
2023-03-15 11:48:30:227,0,-78.7591,0.471198,77.7171,Q,Q
2023-03-15 11:48:30:237,0,-78.7604,0.470141,77.7153,Q,Q
2023-03-15 11:48:30:247,0,-78.7569,0.471554,77.7127,Q,Q
2023-03-15 11:48:30:257,0,-78.7535,0.47239,77.7119,Q,Q
2023-03-15 11:48:30:267,0,-78.7532,0.47126,77.7136,Q,Q
2023-03-15 11:48:30:277,0,-78.754,0.470856,77.7122,Q,Q
2023-03-15 11:48:30:287,0,-78.7587,0.47194,77.7082,Q,Q
2023-03-15 11:48:30:297,0,-78.7619,0.476935,77.7062,Q,Q
2023-03-15 11:48:30:307,0,-78.7642,0.476902,77.7089,Q,Q
2023-03-15 11:48:30:317,0,-78.76,0.477773,77.7087,Q,Q
2023-03-15 11:48:30:327,0,-78.7575,0.479575,77.7093,Q,Q
2023-03-15 11:48:30:337,0,-78.7598,0.480819,77.7086,Q,Q
2023-03-15 11:48:30:347,0,-78.7603,0.482131,77.7096,Q,Q
2023-03-15 11:48:30:356,0,-78.7611,0.483234,77.7094,Q,Q
2023-03-15 11:48:30:366,0,-78.7601,0.484797,77.7093,Q,Q
2023-03-15 11:48:30:376,0,-78.7619,0.48582,77.711,Q,Q
2023-03-15 11:48:30:386,0,-78.7602,0.485336,77.7142,Q,Q
2023-03-15 11:48:30:396,0,-78.7614,0.48672,77.7119,Q,Q
2023-03-15 11:48:30:406,0,-78.7617,0.487131,77.7102,Q,Q
2023-03-15 11:48:30:417,0,-78.7639,0.487559,77.7139,Q,Q
2023-03-15 11:48:30:427,0,-78.7646,0.485061,77.7109,Q,Q
2023-03-15 11:48:30:437,0,-78.7628,0.484576,77.7129,Q,Q
2023-03-15 11:48:30:446,0,-78.7643,0.482102,77.7134,Q,Q
2023-03-15 11:48:30:457,0,-78.7676,0.478545,77.7168,Q,Q
2023-03-15 11:48:30:467,0,-78.7696,0.480351,77.7192,Q,Q
2023-03-15 11:48:30:476,0,-78.7686,0.482546,77.7179,Q,Q
2023-03-15 11:48:30:487,0,-78.767,0.482613,77.7165,Q,Q
2023-03-15 11:48:30:497,0,-78.7679,0.481281,77.7142,Q,Q
2023-03-15 11:48:30:507,0,-78.7672,0.480699,77.7135,Q,Q
2023-03-15 11:48:30:517,0,-78.7663,0.479909,77.7114,Q,Q
2023-03-15 11:48:30:527,0,-78.7667,0.479092,77.7077,Q,Q
2023-03-15 11:48:30:536,0,-78.7658,0.475472,77.7069,Q,Q
2023-03-15 11:48:30:546,0,-78.7678,0.476614,77.7086,Q,Q
2023-03-15 11:48:30:556,0,-78.7703,0.477391,77.7109,Q,Q
2023-03-15 11:48:30:567,0,-78.7706,0.475449,77.7081,Q,Q
2023-03-15 11:48:30:576,0,-78.7691,0.476079,77.7111,Q,Q
2023-03-15 11:48:30:587,0,-78.7734,0.474558,77.7118,Q,Q
2023-03-15 11:48:30:597,0,-78.7766,0.47513,77.7137,Q,Q
2023-03-15 11:48:30:607,0,-78.7763,0.472727,77.7125,Q,Q
2023-03-15 11:48:30:617,0,-78.7777,0.473388,77.7135,Q,Q
2023-03-15 11:48:30:627,0,-78.7773,0.474349,77.716,Q,Q
2023-03-15 11:48:30:637,0,-78.776,0.472116,77.7136,Q,Q
2023-03-15 11:48:30:647,0,-78.7725,0.4725,77.7143,Q,Q
2023-03-15 11:48:30:657,0,-78.7717,0.473133,77.7129,Q,Q
2023-03-15 11:48:30:667,0,-78.7704,0.474567,77.7115,Q,Q
2023-03-15 11:48:30:677,0,-78.7696,0.476367,77.7088,Q,Q
2023-03-15 11:48:30:686,0,-78.7716,0.479283,77.7131,Q,Q
2023-03-15 11:48:30:697,0,-78.7716,0.481439,77.7134,Q,Q
2023-03-15 11:48:30:707,0,-78.7693,0.484097,77.7168,Q,Q
2023-03-15 11:48:30:717,0,-78.7698,0.486167,77.7143,Q,Q
2023-03-15 11:48:30:727,0,-78.7658,0.487605,77.7134,Q,Q
2023-03-15 11:48:30:737,0,-78.7665,0.490215,77.7138,Q,Q
2023-03-15 11:48:30:747,0,-78.7679,0.490113,77.7136,Q,Q
2023-03-15 11:48:30:757,0,-78.7647,0.489154,77.7153,Q,Q
2023-03-15 11:48:30:767,0,-78.7666,0.489614,77.7173,Q,Q
2023-03-15 11:48:30:777,0,-78.7644,0.486462,77.7171,Q,Q
2023-03-15 11:48:30:787,0,-78.7665,0.486498,77.7194,Q,Q
2023-03-15 11:48:30:797,0,-78.7684,0.482955,77.7168,Q,Q
2023-03-15 11:48:30:807,0,-78.767,0.482425,77.7164,Q,Q
2023-03-15 11:48:30:817,0,-78.7681,0.480936,77.7165,Q,Q
2023-03-15 11:48:30:827,0,-78.77,0.480844,77.7165,Q,Q
2023-03-15 11:48:30:837,0,-78.7721,0.477395,77.7128,Q,Q
2023-03-15 11:48:30:847,0,-78.7705,0.477318,77.7131,Q,Q
2023-03-15 11:48:30:857,0,-78.771,0.472293,77.7136,Q,Q
2023-03-15 11:48:30:867,0,-78.7725,0.471824,77.7132,Q,Q
2023-03-15 11:48:30:876,0,-78.771,0.472722,77.7103,Q,Q
2023-03-15 11:48:30:886,0,-78.7701,0.471255,77.712,Q,Q
2023-03-15 11:48:30:897,0,-78.7694,0.471759,77.713,Q,Q
2023-03-15 11:48:30:907,0,-78.7694,0.469366,77.7118,Q,Q
2023-03-15 11:48:30:917,0,-78.7698,0.467112,77.7093,Q,Q
2023-03-15 11:48:30:927,0,-78.7709,0.468099,77.709,Q,Q
2023-03-15 11:48:30:937,0,-78.7695,0.468621,77.7103,Q,Q
2023-03-15 11:48:30:947,0,-78.769,0.469245,77.7085,Q,Q
2023-03-15 11:48:30:957,0,-78.7695,0.469272,77.7099,Q,Q
2023-03-15 11:48:30:967,0,-78.768,0.469328,77.7121,Q,Q
2023-03-15 11:48:30:977,0,-78.7678,0.469116,77.711,Q,Q
2023-03-15 11:48:30:986,0,-78.7654,0.467404,77.7133,Q,Q
2023-03-15 11:48:30:996,0,-78.7627,0.463986,77.7144,Q,Q
2023-03-15 11:48:31:7,0,-78.7643,0.464751,77.7126,Q,Q
2023-03-15 11:48:31:16,0,-78.7654,0.463031,77.7115,Q,Q
2023-03-15 11:48:31:26,0,-78.7676,0.459718,77.7151,Q,Q
2023-03-15 11:48:31:36,0,-78.7679,0.460622,77.7152,Q,Q
2023-03-15 11:48:31:47,0,-78.7676,0.462016,77.7145,Q,Q
2023-03-15 11:48:31:56,0,-78.7679,0.461817,77.7145,Q,Q
2023-03-15 11:48:31:67,0,-78.7686,0.460524,77.7151,Q,Q
2023-03-15 11:48:31:76,0,-78.7677,0.461887,77.7156,Q,Q
2023-03-15 11:48:31:87,0,-78.7667,0.458752,77.7153,Q,Q
2023-03-15 11:48:31:97,0,-78.7666,0.459071,77.7158,Q,Q
2023-03-15 11:48:31:106,0,-78.7651,0.457836,77.7156,Q,Q
2023-03-15 11:48:31:116,0,-78.7659,0.45805,77.7129,Q,Q
2023-03-15 11:48:31:126,0,-78.7677,0.455634,77.7139,Q,Q
2023-03-15 11:48:31:137,0,-78.7686,0.454328,77.7157,Q,Q
2023-03-15 11:48:31:146,0,-78.7702,0.453113,77.7185,Q,Q
2023-03-15 11:48:31:156,0,-78.7707,0.455588,77.7163,Q,Q
2023-03-15 11:48:31:167,0,-78.7705,0.456418,77.7142,Q,Q
2023-03-15 11:48:31:176,0,-78.7751,0.458777,77.7123,Q,Q
2023-03-15 11:48:31:187,0,-78.7755,0.461533,77.7111,Q,Q
2023-03-15 11:48:31:196,0,-78.7759,0.461296,77.7118,Q,Q
2023-03-15 11:48:31:206,0,-78.7751,0.464149,77.7111,Q,Q
2023-03-15 11:48:31:217,0,-78.7737,0.462188,77.7136,Q,Q
2023-03-15 11:48:31:226,0,-78.7743,0.460975,77.7144,Q,Q
2023-03-15 11:48:31:236,0,-78.7758,0.462367,77.7174,Q,Q
2023-03-15 11:48:31:247,0,-78.7757,0.460191,77.718,Q,Q
2023-03-15 11:48:31:256,0,-78.7755,0.458806,77.7188,Q,Q
2023-03-15 11:48:31:267,0,-78.7755,0.460368,77.7206,Q,Q
2023-03-15 11:48:31:277,0,-78.7747,0.462198,77.7236,Q,Q
2023-03-15 11:48:31:287,0,-78.7759,0.461855,77.7227,Q,Q
2023-03-15 11:48:31:297,0,-78.7734,0.46275,77.7244,Q,Q
2023-03-15 11:48:31:307,0,-78.7733,0.462667,77.7237,Q,Q
2023-03-15 11:48:31:317,0,-78.7759,0.462912,77.7236,Q,Q
2023-03-15 11:48:31:326,0,-78.7778,0.461356,77.725,Q,Q
2023-03-15 11:48:31:336,0,-78.7772,0.458164,77.7238,Q,Q
2023-03-15 11:48:31:346,0,-78.775,0.45801,77.7233,Q,Q
2023-03-15 11:48:31:356,0,-78.7728,0.458491,77.7221,Q,Q
2023-03-15 11:48:31:367,0,-78.7741,0.457319,77.7244,Q,Q
2023-03-15 11:48:31:377,0,-78.7746,0.45511,77.7245,Q,Q
2023-03-15 11:48:31:386,0,-78.7758,0.457147,77.7237,Q,Q
2023-03-15 11:48:31:396,0,-78.778,0.454021,77.7244,Q,Q
2023-03-15 11:48:31:406,0,-78.7789,0.453553,77.727,Q,Q
2023-03-15 11:48:31:416,0,-78.7765,0.454394,77.728,Q,Q
2023-03-15 11:48:31:427,0,-78.7748,0.454067,77.7277,Q,Q
2023-03-15 11:48:31:436,0,-78.7702,0.45749,77.7256,Q,Q
2023-03-15 11:48:31:446,0,-78.7681,0.457844,77.7263,Q,Q
2023-03-15 11:48:31:456,0,-78.7714,0.455306,77.7276,Q,Q
2023-03-15 11:48:31:467,0,-78.7692,0.455077,77.7283,Q,Q
2023-03-15 11:48:31:476,0,-78.7686,0.450715,77.7267,Q,Q
2023-03-15 11:48:31:487,0,-78.7712,0.44881,77.7256,Q,Q
2023-03-15 11:48:31:497,0,-78.7695,0.44858,77.724,Q,Q
2023-03-15 11:48:31:507,0,-78.7688,0.449186,77.7259,Q,Q
2023-03-15 11:48:31:516,0,-78.768,0.450964,77.7288,Q,Q
2023-03-15 11:48:31:526,0,-78.769,0.452618,77.7296,Q,Q
2023-03-15 11:48:31:536,0,-78.7676,0.454401,77.7309,Q,Q
2023-03-15 11:48:31:547,0,-78.7695,0.454481,77.7275,Q,Q
2023-03-15 11:48:31:556,0,-78.77,0.451768,77.7309,Q,Q
2023-03-15 11:48:31:567,0,-78.771,0.454601,77.7318,Q,Q
2023-03-15 11:48:31:576,0,-78.7722,0.452341,77.7323,Q,Q
2023-03-15 11:48:31:587,0,-78.7698,0.449859,77.7271,Q,Q
2023-03-15 11:48:31:597,0,-78.7682,0.448767,77.7253,Q,Q
2023-03-15 11:48:31:607,0,-78.7718,0.451729,77.7259,Q,Q
2023-03-15 11:48:31:616,0,-78.7713,0.453911,77.725,Q,Q
2023-03-15 11:48:31:626,0,-78.7729,0.454879,77.7244,Q,Q
2023-03-15 11:48:31:637,0,-78.7721,0.453017,77.7248,Q,Q
2023-03-15 11:48:31:646,0,-78.7737,0.453608,77.7251,Q,Q
2023-03-15 11:48:31:656,0,-78.7707,0.454552,77.7254,Q,Q
2023-03-15 11:48:31:667,0,-78.7705,0.456081,77.7256,Q,Q
2023-03-15 11:48:31:676,0,-78.7701,0.458411,77.7247,Q,Q
2023-03-15 11:48:31:686,0,-78.7702,0.459489,77.7268,Q,Q
2023-03-15 11:48:31:696,0,-78.7717,0.46082,77.7269,Q,Q
2023-03-15 11:48:31:707,0,-78.771,0.459506,77.7281,Q,Q
2023-03-15 11:48:31:716,0,-78.7719,0.460133,77.7297,Q,Q
2023-03-15 11:48:31:727,0,-78.7718,0.459437,77.7317,Q,Q
2023-03-15 11:48:31:736,0,-78.7701,0.456702,77.7364,Q,Q
2023-03-15 11:48:31:747,0,-78.7699,0.458351,77.7359,Q,Q
2023-03-15 11:48:31:757,0,-78.7693,0.461372,77.7367,Q,Q
2023-03-15 11:48:31:767,0,-78.771,0.461852,77.738,Q,Q
2023-03-15 11:48:31:777,0,-78.7705,0.457889,77.7389,Q,Q
2023-03-15 11:48:31:787,0,-78.7702,0.457311,77.741,Q,Q
2023-03-15 11:48:31:796,0,-78.7701,0.457779,77.74,Q,Q
2023-03-15 11:48:31:806,0,-78.771,0.459559,77.7376,Q,Q
2023-03-15 11:48:31:816,0,-78.7703,0.458041,77.7389,Q,Q
2023-03-15 11:48:31:827,0,-78.7708,0.459868,77.7387,Q,Q
2023-03-15 11:48:31:837,0,-78.77,0.461199,77.7388,Q,Q
2023-03-15 11:48:31:847,0,-78.7693,0.462164,77.7391,Q,Q
2023-03-15 11:48:31:857,0,-78.7697,0.464498,77.7395,Q,Q
2023-03-15 11:48:31:867,0,-78.77,0.46539,77.7381,Q,Q
2023-03-15 11:48:31:876,0,-78.7687,0.465486,77.74,Q,Q
2023-03-15 11:48:31:887,0,-78.7662,0.462204,77.7394,Q,Q
2023-03-15 11:48:31:896,0,-78.7638,0.459805,77.7378,Q,Q
2023-03-15 11:48:31:906,0,-78.7667,0.460994,77.7398,Q,Q
2023-03-15 11:48:31:916,0,-78.7659,0.460176,77.7411,Q,Q
2023-03-15 11:48:31:926,0,-78.7665,0.458948,77.7402,Q,Q
2023-03-15 11:48:31:936,0,-78.7622,0.457928,77.7419,Q,Q
2023-03-15 11:48:31:947,0,-78.7595,0.457022,77.7414,Q,Q
2023-03-15 11:48:31:957,0,-78.761,0.456093,77.7422,Q,Q
2023-03-15 11:48:31:967,0,-78.7605,0.457673,77.742,Q,Q
2023-03-15 11:48:31:976,0,-78.7585,0.454845,77.746,Q,Q
2023-03-15 11:48:31:987,0,-78.7592,0.45418,77.7471,Q,Q
2023-03-15 11:48:31:996,0,-78.7572,0.454352,77.7492,Q,Q
2023-03-15 11:48:32:6,0,-78.7545,0.455542,77.7485,Q,Q
2023-03-15 11:48:32:16,0,-78.7556,0.455314,77.7491,Q,Q
2023-03-15 11:48:32:26,0,-78.7581,0.456871,77.7469,Q,Q
2023-03-15 11:48:32:36,0,-78.7574,0.457277,77.7484,Q,Q
2023-03-15 11:48:32:47,0,-78.7581,0.455625,77.7507,Q,Q
2023-03-15 11:48:32:56,0,-78.756,0.458604,77.7499,Q,Q
2023-03-15 11:48:32:67,0,-78.7568,0.458838,77.7535,Q,Q
2023-03-15 11:48:32:77,0,-78.7548,0.456887,77.7531,Q,Q
2023-03-15 11:48:32:87,0,-78.7531,0.45859,77.7505,Q,Q
2023-03-15 11:48:32:97,0,-78.751,0.460921,77.7528,Q,Q
2023-03-15 11:48:32:106,0,-78.751,0.460232,77.7537,Q,Q
2023-03-15 11:48:32:117,0,-78.7499,0.460331,77.7515,Q,Q
2023-03-15 11:48:32:127,0,-78.7473,0.462706,77.7519,Q,Q
2023-03-15 11:48:32:137,0,-78.7461,0.464555,77.7505,Q,Q
2023-03-15 11:48:32:147,0,-78.7468,0.467232,77.7517,Q,Q
2023-03-15 11:48:32:156,0,-78.7481,0.4667,77.7502,Q,Q
2023-03-15 11:48:32:167,0,-78.7503,0.467358,77.7494,Q,Q
2023-03-15 11:48:32:176,0,-78.7508,0.467305,77.75,Q,Q
2023-03-15 11:48:32:187,0,-78.7547,0.462835,77.7483,Q,Q
2023-03-15 11:48:32:197,0,-78.7557,0.460614,77.7504,Q,Q
2023-03-15 11:48:32:207,0,-78.7581,0.460255,77.7511,Q,Q
2023-03-15 11:48:32:217,0,-78.7577,0.457372,77.7531,Q,Q
2023-03-15 11:48:32:226,0,-78.756,0.45822,77.7514,Q,Q
2023-03-15 11:48:32:237,0,-78.7544,0.4603,77.7499,Q,Q
2023-03-15 11:48:32:246,0,-78.7534,0.461839,77.7521,Q,Q
2023-03-15 11:48:32:257,0,-78.7497,0.46011,77.7475,Q,Q
2023-03-15 11:48:32:267,0,-78.7505,0.45986,77.7435,Q,Q
2023-03-15 11:48:32:277,0,-78.75,0.459638,77.7464,Q,Q
2023-03-15 11:48:32:287,0,-78.7517,0.460918,77.7471,Q,Q
2023-03-15 11:48:32:297,0,-78.7551,0.460963,77.7473,Q,Q
2023-03-15 11:48:32:306,0,-78.76,0.459194,77.7478,Q,Q
2023-03-15 11:48:32:317,0,-78.7602,0.458349,77.746,Q,Q
2023-03-15 11:48:32:327,0,-78.7581,0.45822,77.7475,Q,Q
2023-03-15 11:48:32:337,0,-78.7595,0.455353,77.7462,Q,Q
2023-03-15 11:48:32:347,0,-78.7584,0.455021,77.7473,Q,Q
2023-03-15 11:48:32:357,0,-78.7588,0.452627,77.747,Q,Q
2023-03-15 11:48:32:367,0,-78.7619,0.451884,77.7481,Q,Q
2023-03-15 11:48:32:377,0,-78.7616,0.453805,77.7493,Q,Q
2023-03-15 11:48:32:386,0,-78.7603,0.448515,77.7517,Q,Q
2023-03-15 11:48:32:396,0,-78.758,0.447047,77.7507,Q,Q
2023-03-15 11:48:32:407,0,-78.7567,0.448338,77.7496,Q,Q
2023-03-15 11:48:32:416,0,-78.7539,0.449536,77.7485,Q,Q
2023-03-15 11:48:32:426,0,-78.7555,0.44934,77.7463,Q,Q
2023-03-15 11:48:32:436,0,-78.7571,0.449795,77.7477,Q,Q
2023-03-15 11:48:32:446,0,-78.7612,0.448429,77.7419,Q,Q
2023-03-15 11:48:32:456,0,-78.7635,0.449174,77.742,Q,Q
2023-03-15 11:48:32:467,0,-78.7666,0.447225,77.7395,Q,Q
2023-03-15 11:48:32:476,0,-78.767,0.449234,77.7434,Q,Q
2023-03-15 11:48:32:487,0,-78.7638,0.448576,77.7449,Q,Q
2023-03-15 11:48:32:496,0,-78.7601,0.448006,77.7463,Q,Q
2023-03-15 11:48:32:506,0,-78.7606,0.447612,77.7463,Q,Q
2023-03-15 11:48:32:516,0,-78.7637,0.449988,77.7462,Q,Q
2023-03-15 11:48:32:526,0,-78.7648,0.447991,77.7481,Q,Q
2023-03-15 11:48:32:536,0,-78.766,0.447342,77.7479,Q,Q
2023-03-15 11:48:32:546,0,-78.7681,0.445322,77.7482,Q,Q
2023-03-15 11:48:32:556,0,-78.7696,0.441586,77.7445,Q,Q
2023-03-15 11:48:32:567,0,-78.77,0.444125,77.7461,Q,Q
2023-03-15 11:48:32:576,0,-78.7698,0.44619,77.7477,Q,Q
2023-03-15 11:48:32:587,0,-78.7726,0.446086,77.7498,Q,Q
2023-03-15 11:48:32:597,0,-78.7732,0.445185,77.7483,Q,Q
2023-03-15 11:48:32:607,0,-78.773,0.444241,77.7445,Q,Q
2023-03-15 11:48:32:617,0,-78.776,0.445266,77.7441,Q,Q
2023-03-15 11:48:32:627,0,-78.7735,0.445599,77.7455,Q,Q
2023-03-15 11:48:32:637,0,-78.772,0.444791,77.7449,Q,Q
2023-03-15 11:48:32:647,0,-78.7695,0.443059,77.7437,Q,Q
2023-03-15 11:48:32:657,0,-78.767,0.441567,77.7427,Q,Q
2023-03-15 11:48:32:667,0,-78.7668,0.441925,77.7436,Q,Q
2023-03-15 11:48:32:677,0,-78.7682,0.443915,77.7423,Q,Q
2023-03-15 11:48:32:687,0,-78.7668,0.446822,77.7408,Q,Q
2023-03-15 11:48:32:696,0,-78.7659,0.450626,77.743,Q,Q
2023-03-15 11:48:32:707,0,-78.7655,0.450267,77.7439,Q,Q
2023-03-15 11:48:32:716,0,-78.7685,0.450238,77.7409,Q,Q
2023-03-15 11:48:32:727,0,-78.7708,0.449581,77.741,Q,Q
2023-03-15 11:48:32:736,0,-78.7704,0.448921,77.7429,Q,Q
2023-03-15 11:48:32:747,0,-78.7697,0.450373,77.7417,Q,Q
2023-03-15 11:48:32:757,0,-78.7673,0.450179,77.7402,Q,Q
2023-03-15 11:48:32:766,0,-78.7687,0.450885,77.7405,Q,Q
2023-03-15 11:48:32:776,0,-78.7694,0.452624,77.7372,Q,Q
2023-03-15 11:48:32:787,0,-78.7686,0.453945,77.7377,Q,Q
2023-03-15 11:48:32:796,0,-78.7699,0.452727,77.7355,Q,Q
2023-03-15 11:48:32:806,0,-78.7698,0.454181,77.7317,Q,Q
2023-03-15 11:48:32:816,0,-78.7711,0.45516,77.7335,Q,Q
2023-03-15 11:48:32:827,0,-78.7695,0.450841,77.7283,Q,Q
2023-03-15 11:48:32:836,0,-78.7688,0.453896,77.7289,Q,Q
2023-03-15 11:48:32:847,0,-78.7672,0.454832,77.7287,Q,Q
2023-03-15 11:48:32:856,0,-78.7624,0.455511,77.728,Q,Q
2023-03-15 11:48:32:866,0,-78.7619,0.455514,77.7295,Q,Q
2023-03-15 11:48:32:877,0,-78.7612,0.458115,77.7283,Q,Q
2023-03-15 11:48:32:886,0,-78.7642,0.457824,77.7268,Q,Q
2023-03-15 11:48:32:896,0,-78.7687,0.459634,77.7255,Q,Q
2023-03-15 11:48:32:906,0,-78.7682,0.461029,77.7259,Q,Q
2023-03-15 11:48:32:916,0,-78.7657,0.460371,77.7244,Q,Q
2023-03-15 11:48:32:926,0,-78.7677,0.460493,77.7232,Q,Q
2023-03-15 11:48:32:936,0,-78.7655,0.461388,77.7244,Q,Q
2023-03-15 11:48:32:946,0,-78.7633,0.459771,77.7237,Q,Q
2023-03-15 11:48:32:956,0,-78.7637,0.45926,77.726,Q,Q
2023-03-15 11:48:32:967,0,-78.7591,0.459759,77.7251,Q,Q
2023-03-15 11:48:32:976,0,-78.7595,0.459579,77.7248,Q,Q
2023-03-15 11:48:32:986,0,-78.7612,0.457197,77.7256,Q,Q
2023-03-15 11:48:32:996,0,-78.7597,0.457733,77.7229,Q,Q
2023-03-15 11:48:33:6,0,-78.7598,0.459572,77.7232,Q,Q
2023-03-15 11:48:33:16,0,-78.7567,0.462157,77.725,Q,Q
2023-03-15 11:48:33:26,0,-78.7572,0.462223,77.7274,Q,Q
2023-03-15 11:48:33:36,0,-78.756,0.463361,77.7299,Q,Q
2023-03-15 11:48:33:47,0,-78.7562,0.464126,77.7265,Q,Q
2023-03-15 11:48:33:56,0,-78.7575,0.464073,77.7271,Q,Q
2023-03-15 11:48:33:66,0,-78.7581,0.465062,77.727,Q,Q
2023-03-15 11:48:33:76,0,-78.755,0.463264,77.7253,Q,Q
2023-03-15 11:48:33:86,0,-78.7541,0.466556,77.7279,Q,Q
2023-03-15 11:48:33:96,0,-78.7532,0.468716,77.7329,Q,Q
2023-03-15 11:48:33:106,0,-78.7516,0.465291,77.7356,Q,Q
2023-03-15 11:48:33:116,0,-78.7511,0.465973,77.7351,Q,Q
2023-03-15 11:48:33:126,0,-78.7525,0.465808,77.7354,Q,Q
2023-03-15 11:48:33:136,0,-78.7515,0.468077,77.7342,Q,Q
2023-03-15 11:48:33:146,0,-78.7548,0.468831,77.7336,Q,Q
2023-03-15 11:48:33:156,0,-78.7546,0.468975,77.7345,Q,Q
2023-03-15 11:48:33:166,0,-78.7549,0.468535,77.7362,Q,Q
2023-03-15 11:48:33:176,0,-78.7552,0.466751,77.7336,Q,Q
2023-03-15 11:48:33:186,0,-78.7537,0.465822,77.7343,Q,Q
2023-03-15 11:48:33:196,0,-78.7534,0.463676,77.7355,Q,Q
2023-03-15 11:48:33:206,0,-78.7579,0.464864,77.7369,Q,Q
2023-03-15 11:48:33:216,0,-78.7576,0.465724,77.7377,Q,Q
2023-03-15 11:48:33:226,0,-78.7575,0.46872,77.7372,Q,Q
2023-03-15 11:48:33:236,0,-78.7582,0.468862,77.7374,Q,Q
2023-03-15 11:48:33:246,0,-78.7607,0.468913,77.7404,Q,Q
2023-03-15 11:48:33:256,0,-78.76,0.469459,77.7414,Q,Q
2023-03-15 11:48:33:266,0,-78.7628,0.468959,77.7423,Q,Q
2023-03-15 11:48:33:276,0,-78.7635,0.468688,77.7445,Q,Q
2023-03-15 11:48:33:286,0,-78.7641,0.469458,77.7427,Q,Q
2023-03-15 11:48:33:296,0,-78.7619,0.467671,77.7418,Q,Q
2023-03-15 11:48:33:306,0,-78.7594,0.467336,77.7434,Q,Q
2023-03-15 11:48:33:316,0,-78.7596,0.467416,77.7447,Q,Q
2023-03-15 11:48:33:326,0,-78.7605,0.467085,77.7473,Q,Q
2023-03-15 11:48:33:336,0,-78.7603,0.466377,77.7466,Q,Q
2023-03-15 11:48:33:346,0,-78.7633,0.466726,77.7487,Q,Q
2023-03-15 11:48:33:356,0,-78.7622,0.467776,77.7478,Q,Q
2023-03-15 11:48:33:366,0,-78.7635,0.467973,77.747,Q,Q
2023-03-15 11:48:33:376,0,-78.7657,0.469618,77.7468,Q,Q
2023-03-15 11:48:33:387,0,-78.7662,0.467231,77.7452,Q,Q
2023-03-15 11:48:33:396,0,-78.767,0.46614,77.7467,Q,Q
2023-03-15 11:48:33:406,0,-78.7648,0.46525,77.747,Q,Q
2023-03-15 11:48:33:416,0,-78.7642,0.465349,77.7441,Q,Q
2023-03-15 11:48:33:426,0,-78.7661,0.467352,77.7451,Q,Q
2023-03-15 11:48:33:436,0,-78.765,0.470411,77.7464,Q,Q
2023-03-15 11:48:33:446,0,-78.7647,0.469398,77.7457,Q,Q
2023-03-15 11:48:33:456,0,-78.7663,0.470136,77.7461,Q,Q
2023-03-15 11:48:33:466,0,-78.7642,0.470704,77.7469,Q,Q
2023-03-15 11:48:33:476,0,-78.762,0.473263,77.7462,Q,Q
2023-03-15 11:48:33:486,0,-78.7627,0.474752,77.7438,Q,Q
2023-03-15 11:48:33:496,0,-78.7645,0.472129,77.7447,Q,Q
2023-03-15 11:48:33:506,0,-78.767,0.471685,77.7472,Q,Q
2023-03-15 11:48:33:516,0,-78.7675,0.47257,77.7484,Q,Q
2023-03-15 11:48:33:526,0,-78.7703,0.473215,77.7462,Q,Q
2023-03-15 11:48:33:536,0,-78.7691,0.473306,77.7496,Q,Q
2023-03-15 11:48:33:546,0,-78.7678,0.47327,77.7504,Q,Q
2023-03-15 11:48:33:556,0,-78.7701,0.47468,77.7514,Q,Q
2023-03-15 11:48:33:566,0,-78.77,0.47678,77.7517,Q,Q
2023-03-15 11:48:33:576,0,-78.7685,0.476594,77.752,Q,Q
2023-03-15 11:48:33:587,0,-78.7677,0.475149,77.7541,Q,Q
2023-03-15 11:48:33:596,0,-78.7661,0.475105,77.7536,Q,Q
2023-03-15 11:48:33:606,0,-78.7631,0.474865,77.7521,Q,Q
2023-03-15 11:48:33:616,0,-78.766,0.475014,77.7548,Q,Q
2023-03-15 11:48:33:626,0,-78.7677,0.472399,77.7555,Q,Q
2023-03-15 11:48:33:636,0,-78.7706,0.474562,77.7567,Q,Q
2023-03-15 11:48:33:647,0,-78.7731,0.471436,77.7587,Q,Q
2023-03-15 11:48:33:656,0,-78.7727,0.47404,77.7585,Q,Q
2023-03-15 11:48:33:667,0,-78.7718,0.475002,77.7597,Q,Q
2023-03-15 11:48:33:676,0,-78.7694,0.474034,77.7599,Q,Q
2023-03-15 11:48:33:686,0,-78.7695,0.471246,77.7612,Q,Q
2023-03-15 11:48:33:696,0,-78.7699,0.468977,77.7631,Q,Q
2023-03-15 11:48:33:707,0,-78.769,0.468808,77.7652,Q,Q
2023-03-15 11:48:33:716,0,-78.7691,0.470277,77.7621,Q,Q
2023-03-15 11:48:33:726,0,-78.7694,0.470106,77.7632,Q,Q
2023-03-15 11:48:33:736,0,-78.7709,0.471793,77.7657,Q,Q
2023-03-15 11:48:33:747,0,-78.7696,0.47428,77.7646,Q,Q
2023-03-15 11:48:33:756,0,-78.7698,0.473823,77.7671,Q,Q
2023-03-15 11:48:33:767,0,-78.7704,0.473412,77.7687,Q,Q
2023-03-15 11:48:33:776,0,-78.7699,0.47037,77.7726,Q,Q
2023-03-15 11:48:33:786,0,-78.769,0.471446,77.7738,Q,Q
2023-03-15 11:48:33:796,0,-78.7676,0.470034,77.7745,Q,Q
2023-03-15 11:48:33:806,0,-78.7665,0.47038,77.7786,Q,Q
2023-03-15 11:48:33:816,0,-78.7647,0.471371,77.7806,Q,Q
2023-03-15 11:48:33:826,0,-78.764,0.473282,77.7794,Q,Q
2023-03-15 11:48:33:836,0,-78.7642,0.470607,77.7804,Q,Q
2023-03-15 11:48:33:846,0,-78.7679,0.471744,77.7821,Q,Q
2023-03-15 11:48:33:856,0,-78.7656,0.470262,77.7814,Q,Q
2023-03-15 11:48:33:867,0,-78.766,0.470848,77.7801,Q,Q
2023-03-15 11:48:33:876,0,-78.766,0.471268,77.7809,Q,Q
2023-03-15 11:48:33:886,0,-78.7649,0.469273,77.7821,Q,Q
2023-03-15 11:48:33:896,0,-78.7619,0.468004,77.7843,Q,Q
2023-03-15 11:48:33:907,0,-78.7615,0.46747,77.787,Q,Q
2023-03-15 11:48:33:916,0,-78.7624,0.468235,77.7856,Q,Q
2023-03-15 11:48:33:926,0,-78.7635,0.469228,77.7872,Q,Q
2023-03-15 11:48:33:936,0,-78.766,0.468646,77.7909,Q,Q
2023-03-15 11:48:33:946,0,-78.7694,0.47064,77.7912,Q,Q
2023-03-15 11:48:33:956,0,-78.7689,0.475209,77.7929,Q,Q
2023-03-15 11:48:33:966,0,-78.7673,0.474335,77.7978,Q,Q
2023-03-15 11:48:33:976,0,-78.7667,0.477419,77.7993,Q,Q
2023-03-15 11:48:33:986,0,-78.768,0.478523,77.7983,Q,Q
2023-03-15 11:48:33:996,0,-78.7659,0.479199,77.798,Q,Q
2023-03-15 11:48:34:6,0,-78.7627,0.479202,77.7987,Q,Q
2023-03-15 11:48:34:16,0,-78.7624,0.47923,77.8018,Q,Q
2023-03-15 11:48:34:26,0,-78.762,0.476586,77.8049,Q,Q
2023-03-15 11:48:34:36,0,-78.7629,0.473864,77.8062,Q,Q
2023-03-15 11:48:34:46,0,-78.7663,0.475316,77.8065,Q,Q
2023-03-15 11:48:34:56,0,-78.7652,0.476994,77.8071,Q,Q
2023-03-15 11:48:34:66,0,-78.7668,0.47952,77.8067,Q,Q
2023-03-15 11:48:34:76,0,-78.7656,0.480909,77.8101,Q,Q
2023-03-15 11:48:34:87,0,-78.7642,0.480267,77.8109,Q,Q
2023-03-15 11:48:34:96,0,-78.7682,0.480155,77.8129,Q,Q
2023-03-15 11:48:34:107,0,-78.7705,0.481229,77.8111,Q,Q
2023-03-15 11:48:34:116,0,-78.767,0.48305,77.8145,Q,Q
2023-03-15 11:48:34:127,0,-78.7662,0.482544,77.813,Q,Q
2023-03-15 11:48:34:136,0,-78.7661,0.485819,77.8146,Q,Q
2023-03-15 11:48:34:147,0,-78.7645,0.484794,77.8149,Q,Q
2023-03-15 11:48:34:156,0,-78.7651,0.484579,77.8156,Q,Q
2023-03-15 11:48:34:166,0,-78.7664,0.483934,77.8119,Q,Q
2023-03-15 11:48:34:176,0,-78.765,0.483596,77.8136,Q,Q
2023-03-15 11:48:34:186,0,-78.7621,0.483808,77.814,Q,Q
2023-03-15 11:48:34:196,0,-78.7627,0.484951,77.8167,Q,Q
2023-03-15 11:48:34:206,0,-78.7641,0.485502,77.8146,Q,Q
2023-03-15 11:48:34:216,0,-78.7648,0.486663,77.816,Q,Q
2023-03-15 11:48:34:226,0,-78.7692,0.486353,77.8141,Q,Q
2023-03-15 11:48:34:236,0,-78.7714,0.483017,77.812,Q,Q
2023-03-15 11:48:34:246,0,-78.7659,0.482654,77.8088,Q,Q
2023-03-15 11:48:34:256,0,-78.7665,0.482058,77.8072,Q,Q
2023-03-15 11:48:34:266,0,-78.7638,0.480816,77.8071,Q,Q
2023-03-15 11:48:34:276,0,-78.7639,0.478932,77.8078,Q,Q
2023-03-15 11:48:34:286,0,-78.7663,0.479429,77.8094,Q,Q
2023-03-15 11:48:34:296,0,-78.7676,0.479458,77.8071,Q,Q
2023-03-15 11:48:34:306,0,-78.767,0.475633,77.8093,Q,Q
2023-03-15 11:48:34:316,0,-78.7677,0.474921,77.8106,Q,Q
2023-03-15 11:48:34:326,0,-78.7668,0.472689,77.81,Q,Q
2023-03-15 11:48:34:336,0,-78.7652,0.473472,77.81,Q,Q
2023-03-15 11:48:34:346,0,-78.765,0.472634,77.8128,Q,Q
2023-03-15 11:48:34:356,0,-78.7625,0.471459,77.8139,Q,Q
2023-03-15 11:48:34:366,0,-78.7595,0.471855,77.8146,Q,Q
2023-03-15 11:48:34:376,0,-78.7584,0.473368,77.8122,Q,Q
2023-03-15 11:48:34:386,0,-78.7597,0.474013,77.8107,Q,Q
2023-03-15 11:48:34:396,0,-78.7594,0.472933,77.8095,Q,Q
2023-03-15 11:48:34:406,0,-78.7595,0.471595,77.81,Q,Q
2023-03-15 11:48:34:416,0,-78.7583,0.471102,77.8119,Q,Q
2023-03-15 11:48:34:426,0,-78.7604,0.47136,77.8133,Q,Q
2023-03-15 11:48:34:436,0,-78.7589,0.471573,77.813,Q,Q
2023-03-15 11:48:34:446,0,-78.7575,0.471977,77.8149,Q,Q
2023-03-15 11:48:34:456,0,-78.7601,0.47218,77.816,Q,Q
2023-03-15 11:48:34:466,0,-78.7584,0.473112,77.8182,Q,Q
2023-03-15 11:48:34:476,0,-78.756,0.47389,77.8206,Q,Q
2023-03-15 11:48:34:486,0,-78.756,0.477545,77.8215,Q,Q
2023-03-15 11:48:34:496,0,-78.7568,0.476155,77.824,Q,Q
2023-03-15 11:48:34:506,0,-78.7606,0.474721,77.8233,Q,Q
2023-03-15 11:48:34:516,0,-78.7622,0.474197,77.8252,Q,Q
2023-03-15 11:48:34:526,0,-78.764,0.474018,77.8281,Q,Q
2023-03-15 11:48:34:536,0,-78.7632,0.476874,77.8288,Q,Q
2023-03-15 11:48:34:546,0,-78.7624,0.477433,77.8282,Q,Q
2023-03-15 11:48:34:556,0,-78.7619,0.47767,77.8293,Q,Q
2023-03-15 11:48:34:566,0,-78.7582,0.476004,77.8287,Q,Q
2023-03-15 11:48:34:576,0,-78.7579,0.475767,77.8298,Q,Q
2023-03-15 11:48:34:586,0,-78.7624,0.479711,77.8306,Q,Q
2023-03-15 11:48:34:596,0,-78.7606,0.481167,77.8329,Q,Q
2023-03-15 11:48:34:606,0,-78.7645,0.480313,77.8344,Q,Q
2023-03-15 11:48:34:616,0,-78.764,0.480865,77.8355,Q,Q
2023-03-15 11:48:34:626,0,-78.7659,0.481928,77.8326,Q,Q
2023-03-15 11:48:34:636,0,-78.7688,0.479677,77.834,Q,Q
2023-03-15 11:48:34:646,0,-78.7692,0.480369,77.8319,Q,Q
2023-03-15 11:48:34:656,0,-78.7693,0.479059,77.8295,Q,Q
2023-03-15 11:48:34:666,0,-78.7653,0.477457,77.8315,Q,Q
2023-03-15 11:48:34:676,0,-78.7636,0.47585,77.8319,Q,Q
2023-03-15 11:48:34:686,0,-78.7614,0.474099,77.831,Q,Q
2023-03-15 11:48:34:696,0,-78.7665,0.47274,77.8312,Q,Q
2023-03-15 11:48:34:706,0,-78.7665,0.47322,77.8329,Q,Q
2023-03-15 11:48:34:716,0,-78.7679,0.473405,77.8324,Q,Q
2023-03-15 11:48:34:726,0,-78.7661,0.472703,77.833,Q,Q
2023-03-15 11:48:34:736,0,-78.7677,0.472603,77.8348,Q,Q
2023-03-15 11:48:34:746,0,-78.767,0.470935,77.8369,Q,Q
2023-03-15 11:48:34:756,0,-78.7675,0.470263,77.8381,Q,Q
2023-03-15 11:48:34:766,0,-78.7682,0.470715,77.8362,Q,Q
2023-03-15 11:48:34:776,0,-78.7713,0.473439,77.8355,Q,Q
2023-03-15 11:48:34:786,0,-78.7689,0.475912,77.8383,Q,Q
2023-03-15 11:48:34:796,0,-78.7694,0.474136,77.8392,Q,Q
2023-03-15 11:48:34:806,0,-78.7688,0.475396,77.8387,Q,Q
2023-03-15 11:48:34:816,0,-78.7677,0.473954,77.8399,Q,Q
2023-03-15 11:48:34:826,0,-78.7662,0.472945,77.8401,Q,Q
2023-03-15 11:48:34:836,0,-78.7655,0.471871,77.8428,Q,Q
2023-03-15 11:48:34:846,0,-78.7665,0.473165,77.8419,Q,Q
2023-03-15 11:48:34:856,0,-78.7676,0.474803,77.8446,Q,Q
2023-03-15 11:48:34:866,0,-78.7673,0.474538,77.8487,Q,Q
2023-03-15 11:48:34:876,0,-78.7692,0.478241,77.8493,Q,Q
2023-03-15 11:48:34:886,0,-78.7711,0.478853,77.849,Q,Q
2023-03-15 11:48:34:896,0,-78.7705,0.477976,77.8495,Q,Q
2023-03-15 11:48:34:906,0,-78.7722,0.477279,77.8485,Q,Q
2023-03-15 11:48:34:916,0,-78.7718,0.479604,77.852,Q,Q
2023-03-15 11:48:34:926,0,-78.7734,0.482518,77.8515,Q,Q
2023-03-15 11:48:34:936,0,-78.7685,0.484957,77.8516,Q,Q
2023-03-15 11:48:34:946,0,-78.7661,0.486049,77.8514,Q,Q
2023-03-15 11:48:34:956,0,-78.7664,0.489765,77.8511,Q,Q
2023-03-15 11:48:34:966,0,-78.7654,0.491473,77.8522,Q,Q
2023-03-15 11:48:34:976,0,-78.7644,0.490731,77.8526,Q,Q
2023-03-15 11:48:34:986,0,-78.7625,0.489375,77.8538,Q,Q
2023-03-15 11:48:34:996,0,-78.7603,0.489833,77.8547,Q,Q
2023-03-15 11:48:35:6,0,-78.7603,0.488915,77.8514,Q,Q
2023-03-15 11:48:35:16,0,-78.7563,0.488418,77.8512,Q,Q
2023-03-15 11:48:35:26,0,-78.7576,0.490719,77.8511,Q,Q
2023-03-15 11:48:35:36,0,-78.7617,0.490361,77.8506,Q,Q
2023-03-15 11:48:35:46,0,-78.7598,0.490233,77.8529,Q,Q
2023-03-15 11:48:35:56,0,-78.7582,0.491578,77.8568,Q,Q
2023-03-15 11:48:35:66,0,-78.7556,0.494937,77.859,Q,Q
2023-03-15 11:48:35:76,0,-78.7555,0.496816,77.8571,Q,Q
2023-03-15 11:48:35:86,0,-78.7528,0.496926,77.8566,Q,Q
2023-03-15 11:48:35:96,0,-78.7499,0.495763,77.8573,Q,Q
2023-03-15 11:48:35:106,0,-78.7487,0.497606,77.8598,Q,Q
2023-03-15 11:48:35:116,0,-78.748,0.497413,77.8625,Q,Q
2023-03-15 11:48:35:126,0,-78.7489,0.498711,77.8614,Q,Q
2023-03-15 11:48:35:136,0,-78.7476,0.497457,77.8592,Q,Q
2023-03-15 11:48:35:146,0,-78.7475,0.497444,77.8584,Q,Q
2023-03-15 11:48:35:156,0,-78.749,0.496087,77.8572,Q,Q
2023-03-15 11:48:35:166,0,-78.7444,0.49263,77.8584,Q,Q
2023-03-15 11:48:35:176,0,-78.7437,0.49179,77.8551,Q,Q
2023-03-15 11:48:35:186,0,-78.7429,0.488289,77.8589,Q,Q
2023-03-15 11:48:35:196,0,-78.7417,0.488927,77.8572,Q,Q
2023-03-15 11:48:35:206,0,-78.7412,0.48928,77.8562,Q,Q
2023-03-15 11:48:35:216,0,-78.7438,0.491383,77.8557,Q,Q
2023-03-15 11:48:35:226,0,-78.7443,0.490695,77.8597,Q,Q
2023-03-15 11:48:35:236,0,-78.7462,0.488947,77.8617,Q,Q
2023-03-15 11:48:35:246,0,-78.7432,0.487594,77.8632,Q,Q
2023-03-15 11:48:35:256,0,-78.7419,0.488562,77.861,Q,Q
2023-03-15 11:48:35:266,0,-78.7415,0.4891,77.861,Q,Q
2023-03-15 11:48:35:276,0,-78.7437,0.486795,77.8619,Q,Q
2023-03-15 11:48:35:286,0,-78.7414,0.488471,77.8681,Q,Q
2023-03-15 11:48:35:296,0,-78.7434,0.490116,77.8711,Q,Q
2023-03-15 11:48:35:306,0,-78.7427,0.487292,77.8723,Q,Q
2023-03-15 11:48:35:316,0,-78.7438,0.488227,77.8705,Q,Q
2023-03-15 11:48:35:326,0,-78.744,0.485609,77.8708,Q,Q
2023-03-15 11:48:35:336,0,-78.7448,0.483485,77.8723,Q,Q
2023-03-15 11:48:35:346,0,-78.7457,0.484281,77.8743,Q,Q
2023-03-15 11:48:35:356,0,-78.7451,0.482197,77.8738,Q,Q
2023-03-15 11:48:35:366,0,-78.745,0.481688,77.8761,Q,Q
2023-03-15 11:48:35:376,0,-78.7435,0.480005,77.8749,Q,Q
2023-03-15 11:48:35:386,0,-78.7419,0.477343,77.8712,Q,Q
2023-03-15 11:48:35:396,0,-78.7429,0.476482,77.8736,Q,Q
2023-03-15 11:48:35:406,0,-78.7396,0.475946,77.8736,Q,Q
2023-03-15 11:48:35:416,0,-78.7402,0.472476,77.879,Q,Q
2023-03-15 11:48:35:426,0,-78.7436,0.473328,77.8835,Q,Q
2023-03-15 11:48:35:436,0,-78.7415,0.473659,77.8854,Q,Q
2023-03-15 11:48:35:446,0,-78.7391,0.473681,77.8891,Q,Q
2023-03-15 11:48:35:456,0,-78.7369,0.474902,77.8896,Q,Q
2023-03-15 11:48:35:466,0,-78.7379,0.475391,77.8908,Q,Q
2023-03-15 11:48:35:476,0,-78.737,0.473944,77.8903,Q,Q
2023-03-15 11:48:35:486,0,-78.7353,0.470848,77.8936,Q,Q
2023-03-15 11:48:35:496,0,-78.7372,0.471049,77.8943,Q,Q
2023-03-15 11:48:35:506,0,-78.7377,0.471006,77.8971,Q,Q
2023-03-15 11:48:35:516,0,-78.738,0.470977,77.8993,Q,Q
2023-03-15 11:48:35:526,0,-78.7413,0.469571,77.9009,Q,Q
2023-03-15 11:48:35:536,0,-78.7469,0.467857,77.9027,Q,Q
2023-03-15 11:48:35:546,0,-78.7503,0.47184,77.9059,Q,Q
2023-03-15 11:48:35:556,0,-78.7495,0.471657,77.9068,Q,Q
2023-03-15 11:48:35:566,0,-78.7487,0.470697,77.909,Q,Q
2023-03-15 11:48:35:576,0,-78.7477,0.467757,77.9093,Q,Q
2023-03-15 11:48:35:586,0,-78.7502,0.466619,77.9104,Q,Q
2023-03-15 11:48:35:596,0,-78.7513,0.465833,77.9117,Q,Q
2023-03-15 11:48:35:606,0,-78.7549,0.464734,77.9167,Q,Q
2023-03-15 11:48:35:616,0,-78.7573,0.464947,77.9191,Q,Q
2023-03-15 11:48:35:626,0,-78.7556,0.465929,77.9204,Q,Q
2023-03-15 11:48:35:636,0,-78.7542,0.466172,77.9193,Q,Q
2023-03-15 11:48:35:646,0,-78.7539,0.466583,77.917,Q,Q
2023-03-15 11:48:35:656,0,-78.7551,0.468721,77.9191,Q,Q
2023-03-15 11:48:35:666,0,-78.7559,0.467881,77.921,Q,Q
2023-03-15 11:48:35:676,0,-78.7559,0.467091,77.9207,Q,Q
2023-03-15 11:48:35:686,0,-78.7574,0.468407,77.9208,Q,Q
2023-03-15 11:48:35:696,0,-78.7538,0.470667,77.9236,Q,Q
2023-03-15 11:48:35:706,0,-78.7513,0.47071,77.9231,Q,Q
2023-03-15 11:48:35:716,0,-78.752,0.470226,77.9235,Q,Q
2023-03-15 11:48:35:726,0,-78.7493,0.470171,77.9311,Q,Q
2023-03-15 11:48:35:736,0,-78.7493,0.472716,77.9282,Q,Q
2023-03-15 11:48:35:746,0,-78.7502,0.473075,77.9307,Q,Q
2023-03-15 11:48:35:756,0,-78.7476,0.472036,77.9289,Q,Q
2023-03-15 11:48:35:766,0,-78.7453,0.473379,77.9289,Q,Q
2023-03-15 11:48:35:776,0,-78.7451,0.474591,77.9263,Q,Q
2023-03-15 11:48:35:786,0,-78.7456,0.471859,77.929,Q,Q
2023-03-15 11:48:35:796,0,-78.7469,0.469935,77.927,Q,Q
2023-03-15 11:48:35:806,0,-78.7479,0.469995,77.9317,Q,Q
2023-03-15 11:48:35:816,0,-78.7489,0.471655,77.9327,Q,Q
2023-03-15 11:48:35:826,0,-78.7482,0.470991,77.9332,Q,Q
2023-03-15 11:48:35:836,0,-78.748,0.470753,77.9329,Q,Q
2023-03-15 11:48:35:846,0,-78.7475,0.471975,77.937,Q,Q
2023-03-15 11:48:35:856,0,-78.7462,0.473104,77.9361,Q,Q
2023-03-15 11:48:35:866,0,-78.7524,0.473403,77.9348,Q,Q
2023-03-15 11:48:35:876,0,-78.7481,0.471623,77.9369,Q,Q
2023-03-15 11:48:35:886,0,-78.7473,0.471244,77.9385,Q,Q
2023-03-15 11:48:35:896,0,-78.7489,0.469934,77.9367,Q,Q
2023-03-15 11:48:35:906,0,-78.7523,0.470204,77.9404,Q,Q
2023-03-15 11:48:35:916,0,-78.7533,0.470706,77.9392,Q,Q
2023-03-15 11:48:35:926,0,-78.754,0.471635,77.939,Q,Q
2023-03-15 11:48:35:936,0,-78.754,0.473356,77.9378,Q,Q
2023-03-15 11:48:35:946,0,-78.7544,0.47433,77.9394,Q,Q
2023-03-15 11:48:35:956,0,-78.7552,0.475072,77.9411,Q,Q
2023-03-15 11:48:35:966,0,-78.755,0.477428,77.9447,Q,Q
2023-03-15 11:48:35:976,0,-78.7525,0.476369,77.9435,Q,Q
2023-03-15 11:48:35:986,0,-78.7505,0.473727,77.9419,Q,Q
2023-03-15 11:48:35:996,0,-78.7507,0.472806,77.9397,Q,Q
2023-03-15 11:48:36:6,0,-78.7546,0.470647,77.9428,Q,Q
2023-03-15 11:48:36:16,0,-78.7534,0.470305,77.943,Q,Q
2023-03-15 11:48:36:26,0,-78.7496,0.467231,77.942,Q,Q
2023-03-15 11:48:36:36,0,-78.7489,0.466822,77.9432,Q,Q
2023-03-15 11:48:36:46,0,-78.7488,0.468441,77.9434,Q,Q
2023-03-15 11:48:36:56,0,-78.747,0.468025,77.9445,Q,Q
2023-03-15 11:48:36:66,0,-78.7468,0.467786,77.9471,Q,Q
2023-03-15 11:48:36:76,0,-78.7484,0.468179,77.948,Q,Q
2023-03-15 11:48:36:86,0,-78.7479,0.467999,77.9502,Q,Q
2023-03-15 11:48:36:96,0,-78.748,0.467259,77.9516,Q,Q
2023-03-15 11:48:36:106,0,-78.7493,0.465641,77.9539,Q,Q
2023-03-15 11:48:36:116,0,-78.7484,0.467707,77.9509,Q,Q
2023-03-15 11:48:36:126,0,-78.7488,0.466917,77.9505,Q,Q
2023-03-15 11:48:36:136,0,-78.7486,0.466733,77.9543,Q,Q
2023-03-15 11:48:36:146,0,-78.7457,0.466006,77.9541,Q,Q
2023-03-15 11:48:36:156,0,-78.7488,0.467281,77.9551,Q,Q
2023-03-15 11:48:36:166,0,-78.7484,0.468285,77.9574,Q,Q
2023-03-15 11:48:36:176,0,-78.7495,0.465313,77.9551,Q,Q
2023-03-15 11:48:36:186,0,-78.7513,0.465143,77.957,Q,Q
2023-03-15 11:48:36:196,0,-78.7553,0.463658,77.9575,Q,Q
2023-03-15 11:48:36:206,0,-78.7573,0.463428,77.96,Q,Q
2023-03-15 11:48:36:216,0,-78.7565,0.463114,77.9605,Q,Q
2023-03-15 11:48:36:226,0,-78.7562,0.462336,77.9624,Q,Q
2023-03-15 11:48:36:236,0,-78.7581,0.464431,77.9659,Q,Q
2023-03-15 11:48:36:246,0,-78.7584,0.466782,77.9661,Q,Q
2023-03-15 11:48:36:256,0,-78.7567,0.466372,77.9624,Q,Q
2023-03-15 11:48:36:266,0,-78.7563,0.46568,77.9613,Q,Q
2023-03-15 11:48:36:276,0,-78.7557,0.465789,77.961,Q,Q
2023-03-15 11:48:36:286,0,-78.7535,0.469936,77.9626,Q,Q
2023-03-15 11:48:36:296,0,-78.7534,0.471895,77.9622,Q,Q
2023-03-15 11:48:36:306,0,-78.7547,0.473035,77.9607,Q,Q
2023-03-15 11:48:36:316,0,-78.7551,0.475233,77.9629,Q,Q
2023-03-15 11:48:36:326,0,-78.757,0.475393,77.9627,Q,Q
2023-03-15 11:48:36:336,0,-78.7559,0.473203,77.9608,Q,Q
2023-03-15 11:48:36:346,0,-78.7564,0.470823,77.9616,Q,Q
2023-03-15 11:48:36:356,0,-78.7562,0.469727,77.9652,Q,Q
2023-03-15 11:48:36:366,0,-78.7564,0.468286,77.9669,Q,Q
2023-03-15 11:48:36:376,0,-78.7579,0.469325,77.9688,Q,Q
2023-03-15 11:48:36:386,0,-78.7609,0.470068,77.9676,Q,Q
2023-03-15 11:48:36:396,0,-78.7624,0.467203,77.9672,Q,Q
2023-03-15 11:48:36:406,0,-78.7588,0.46772,77.9708,Q,Q
2023-03-15 11:48:36:416,0,-78.7607,0.469542,77.9704,Q,Q
2023-03-15 11:48:36:426,0,-78.7611,0.471229,77.97,Q,Q
2023-03-15 11:48:36:436,0,-78.7615,0.474091,77.9697,Q,Q
2023-03-15 11:48:36:446,0,-78.7629,0.47402,77.972,Q,Q
2023-03-15 11:48:36:456,0,-78.7649,0.474765,77.971,Q,Q
2023-03-15 11:48:36:466,0,-78.7647,0.473376,77.973,Q,Q
2023-03-15 11:48:36:476,0,-78.7626,0.472594,77.9741,Q,Q
2023-03-15 11:48:36:486,0,-78.761,0.474244,77.9728,Q,Q
2023-03-15 11:48:36:496,0,-78.7596,0.475829,77.97,Q,Q
2023-03-15 11:48:36:506,0,-78.7587,0.478395,77.9701,Q,Q
2023-03-15 11:48:36:516,0,-78.7568,0.480629,77.9718,Q,Q
2023-03-15 11:48:36:526,0,-78.7555,0.47827,77.9687,Q,Q
2023-03-15 11:48:36:536,0,-78.7561,0.48077,77.9676,Q,Q
2023-03-15 11:48:36:546,0,-78.7556,0.480857,77.9661,Q,Q
2023-03-15 11:48:36:556,0,-78.7564,0.479592,77.9679,Q,Q
2023-03-15 11:48:36:566,0,-78.7552,0.481644,77.9668,Q,Q
2023-03-15 11:48:36:576,0,-78.7557,0.479883,77.9659,Q,Q
2023-03-15 11:48:36:586,0,-78.7576,0.480373,77.9655,Q,Q
2023-03-15 11:48:36:596,0,-78.7555,0.476399,77.9685,Q,Q
2023-03-15 11:48:36:606,0,-78.7587,0.475286,77.9672,Q,Q
2023-03-15 11:48:36:616,0,-78.7578,0.476046,77.9682,Q,Q
2023-03-15 11:48:36:626,0,-78.7576,0.476949,77.9692,Q,Q
2023-03-15 11:48:36:636,0,-78.7571,0.478768,77.9697,Q,Q
2023-03-15 11:48:36:646,0,-78.7608,0.47876,77.9714,Q,Q
2023-03-15 11:48:36:656,0,-78.7586,0.477735,77.9746,Q,Q
2023-03-15 11:48:36:666,0,-78.7548,0.476872,77.9744,Q,Q
2023-03-15 11:48:36:676,0,-78.7532,0.476807,77.9726,Q,Q
2023-03-15 11:48:36:686,0,-78.7563,0.476742,77.9718,Q,Q
2023-03-15 11:48:36:696,0,-78.7576,0.475095,77.969,Q,Q
2023-03-15 11:48:36:706,0,-78.7583,0.475176,77.9707,Q,Q
2023-03-15 11:48:36:716,0,-78.7568,0.474386,77.9683,Q,Q
2023-03-15 11:48:36:726,0,-78.7534,0.473868,77.9674,Q,Q
2023-03-15 11:48:36:736,0,-78.7538,0.472721,77.9651,Q,Q
2023-03-15 11:48:36:746,0,-78.7549,0.473475,77.9665,Q,Q
2023-03-15 11:48:36:756,0,-78.7563,0.473877,77.9676,Q,Q
2023-03-15 11:48:36:766,0,-78.7562,0.47319,77.9678,Q,Q
2023-03-15 11:48:36:776,0,-78.7585,0.471615,77.9679,Q,Q
2023-03-15 11:48:36:786,0,-78.7598,0.471922,77.9706,Q,Q
2023-03-15 11:48:36:796,0,-78.7587,0.474356,77.9734,Q,Q
2023-03-15 11:48:36:806,0,-78.7551,0.475268,77.9719,Q,Q
2023-03-15 11:48:36:816,0,-78.7541,0.474569,77.9676,Q,Q
2023-03-15 11:48:36:826,0,-78.7564,0.473879,77.9707,Q,Q
2023-03-15 11:48:36:836,0,-78.7543,0.474812,77.9697,Q,Q
2023-03-15 11:48:36:846,0,-78.7559,0.474677,77.9726,Q,Q
2023-03-15 11:48:36:856,0,-78.7538,0.472938,77.9741,Q,Q
2023-03-15 11:48:36:866,0,-78.7536,0.476508,77.9732,Q,Q
2023-03-15 11:48:36:876,0,-78.7534,0.474738,77.9717,Q,Q
2023-03-15 11:48:36:886,0,-78.7521,0.47333,77.9737,Q,Q
2023-03-15 11:48:36:896,0,-78.7551,0.474482,77.9762,Q,Q
2023-03-15 11:48:36:906,0,-78.7551,0.471979,77.9764,Q,Q
2023-03-15 11:48:36:916,0,-78.7536,0.471212,77.9749,Q,Q
2023-03-15 11:48:36:926,0,-78.7491,0.473238,77.9734,Q,Q
