Timestamp_cmd,imu_cmd,roll_delta,pitch_delta,yaw_delta,voice_type,voice_length
2023-03-15 21:24:12:291,0,-54.8339,1.85649,147.914,Q,Q
2023-03-15 21:24:12:298,0,-54.8379,1.85657,147.914,Q,Q
2023-03-15 21:24:12:309,0,-54.8387,1.85744,147.916,Q,Q
2023-03-15 21:24:12:318,0,-54.836,1.85864,147.918,Q,Q
2023-03-15 21:24:12:329,0,-54.8381,1.85877,147.918,Q,Q
2023-03-15 21:24:12:339,0,-54.8381,1.85998,147.921,Q,Q
2023-03-15 21:24:12:349,0,-54.8411,1.86348,147.92,Q,Q
2023-03-15 21:24:12:359,0,-54.8428,1.86751,147.918,Q,Q
2023-03-15 21:24:12:369,0,-54.8407,1.86744,147.916,Q,Q
2023-03-15 21:24:12:379,0,-54.8387,1.86732,147.914,Q,Q
2023-03-15 21:24:12:389,0,-54.8392,1.86711,147.913,Q,Q
2023-03-15 21:24:12:399,0,-54.8378,1.86733,147.916,Q,Q
2023-03-15 21:24:12:409,0,-54.842,1.86585,147.918,Q,Q
2023-03-15 21:24:12:419,0,-54.8423,1.86527,147.917,Q,Q
2023-03-15 21:24:12:429,0,-54.8385,1.86508,147.916,Q,Q
2023-03-15 21:24:12:439,0,-54.8368,1.86801,147.915,Q,Q
2023-03-15 21:24:12:449,0,-54.832,1.86932,147.917,Q,Q
2023-03-15 21:24:12:459,0,-54.8322,1.87123,147.919,Q,Q
2023-03-15 21:24:12:469,0,-54.8332,1.87362,147.922,Q,Q
2023-03-15 21:24:12:479,0,-54.8332,1.87398,147.923,Q,Q
2023-03-15 21:24:12:489,0,-54.8307,1.87319,147.923,Q,Q
2023-03-15 21:24:12:499,0,-54.8289,1.87194,147.923,Q,Q
2023-03-15 21:24:12:509,0,-54.8277,1.87305,147.922,Q,Q
2023-03-15 21:24:12:519,0,-54.828,1.87291,147.922,Q,Q
2023-03-15 21:24:12:529,0,-54.8271,1.87478,147.919,Q,Q
2023-03-15 21:24:12:539,0,-54.8268,1.87439,147.924,Q,Q
2023-03-15 21:24:12:549,0,-54.8271,1.87691,147.927,Q,Q
2023-03-15 21:24:12:559,0,-54.8261,1.87805,147.927,Q,Q
2023-03-15 21:24:12:569,0,-54.8252,1.87626,147.926,Q,Q
2023-03-15 21:24:12:579,0,-54.8295,1.87462,147.928,Q,Q
2023-03-15 21:24:12:589,0,-54.8328,1.87429,147.929,Q,Q
2023-03-15 21:24:12:598,0,-54.832,1.87278,147.929,Q,Q
2023-03-15 21:24:12:608,0,-54.8321,1.87371,147.928,Q,Q
2023-03-15 21:24:12:619,0,-54.8309,1.87373,147.928,Q,Q
2023-03-15 21:24:12:628,0,-54.8302,1.87514,147.926,Q,Q
2023-03-15 21:24:12:638,0,-54.8303,1.87307,147.928,Q,Q
2023-03-15 21:24:12:648,0,-54.8297,1.87456,147.926,Q,Q
2023-03-15 21:24:12:658,0,-54.8273,1.87519,147.924,Q,Q
2023-03-15 21:24:12:668,0,-54.8286,1.8745,147.926,Q,Q
2023-03-15 21:24:12:678,0,-54.8306,1.87279,147.927,Q,Q
2023-03-15 21:24:12:688,0,-54.8329,1.87012,147.926,Q,Q
2023-03-15 21:24:12:698,0,-54.8307,1.87212,147.925,Q,Q
2023-03-15 21:24:12:708,0,-54.833,1.8728,147.924,Q,Q
2023-03-15 21:24:12:718,0,-54.8335,1.87281,147.927,Q,Q
2023-03-15 21:24:12:729,0,-54.8318,1.87241,147.927,Q,Q
2023-03-15 21:24:12:739,0,-54.8335,1.87409,147.926,Q,Q
2023-03-15 21:24:12:748,0,-54.8341,1.87331,147.925,Q,Q
2023-03-15 21:24:12:758,0,-54.8362,1.87376,147.926,Q,Q
2023-03-15 21:24:12:768,0,-54.8337,1.87118,147.923,Q,Q
2023-03-15 21:24:12:778,0,-54.8315,1.87035,147.921,Q,Q
2023-03-15 21:24:12:788,0,-54.8325,1.87268,147.922,Q,Q
2023-03-15 21:24:12:798,0,-54.8335,1.87522,147.921,Q,Q
2023-03-15 21:24:12:808,0,-54.8334,1.87697,147.918,Q,Q
2023-03-15 21:24:12:818,0,-54.8382,1.87655,147.92,Q,Q
2023-03-15 21:24:12:828,0,-54.837,1.87611,147.918,Q,Q
2023-03-15 21:24:12:838,0,-54.8356,1.87857,147.918,Q,Q
2023-03-15 21:24:12:848,0,-54.8353,1.87894,147.915,Q,Q
2023-03-15 21:24:12:858,0,-54.8356,1.87623,147.919,Q,Q
2023-03-15 21:24:12:868,0,-54.8294,1.8742,147.919,Q,Q
2023-03-15 21:24:12:878,0,-54.8297,1.87295,147.918,Q,Q
2023-03-15 21:24:12:888,0,-54.8322,1.87058,147.917,Q,Q
2023-03-15 21:24:12:898,0,-54.8322,1.87316,147.917,Q,Q
2023-03-15 21:24:12:908,0,-54.8325,1.87444,147.919,Q,Q
2023-03-15 21:24:12:918,0,-54.8321,1.87216,147.919,Q,Q
2023-03-15 21:24:12:929,0,-54.8316,1.87165,147.92,Q,Q
2023-03-15 21:24:12:938,0,-54.8316,1.87166,147.921,Q,Q
2023-03-15 21:24:12:948,0,-54.8323,1.87384,147.919,Q,Q
2023-03-15 21:24:12:958,0,-54.8351,1.87214,147.92,Q,Q
2023-03-15 21:24:12:968,0,-54.8333,1.87155,147.92,Q,Q
2023-03-15 21:24:12:978,0,-54.8332,1.87127,147.919,Q,Q
2023-03-15 21:24:12:988,0,-54.8327,1.87109,147.92,Q,Q
2023-03-15 21:24:12:998,0,-54.8335,1.87293,147.923,Q,Q
2023-03-15 21:24:13:9,0,-54.8334,1.87387,147.921,Q,Q
2023-03-15 21:24:13:19,0,-54.8311,1.87401,147.925,Q,Q
2023-03-15 21:24:13:29,0,-54.8288,1.8741,147.923,Q,Q
2023-03-15 21:24:13:39,0,-54.8294,1.87315,147.924,Q,Q
2023-03-15 21:24:13:49,0,-54.8286,1.87241,147.922,Q,Q
2023-03-15 21:24:13:59,0,-54.8278,1.87207,147.923,Q,Q
2023-03-15 21:24:13:69,0,-54.8275,1.86999,147.921,Q,Q
2023-03-15 21:24:13:79,0,-54.8292,1.86975,147.922,Q,Q
2023-03-15 21:24:13:89,0,-54.8291,1.87001,147.919,Q,Q
2023-03-15 21:24:13:99,0,-54.8291,1.87138,147.922,Q,Q
2023-03-15 21:24:13:109,0,-54.8305,1.87315,147.919,Q,Q
2023-03-15 21:24:13:119,0,-54.8319,1.86974,147.919,Q,Q
2023-03-15 21:24:13:129,0,-54.8318,1.86746,147.918,Q,Q
2023-03-15 21:24:13:139,0,-54.8292,1.86625,147.917,Q,Q
2023-03-15 21:24:13:149,0,-54.8277,1.86819,147.916,Q,Q
2023-03-15 21:24:13:159,0,-54.8278,1.86969,147.917,Q,Q
2023-03-15 21:24:13:169,0,-54.8252,1.86981,147.919,Q,Q
2023-03-15 21:24:13:179,0,-54.8264,1.87224,147.919,Q,Q
2023-03-15 21:24:13:189,0,-54.8273,1.87486,147.918,Q,Q
2023-03-15 21:24:13:199,0,-54.8287,1.87369,147.92,Q,Q
2023-03-15 21:24:13:209,0,-54.8278,1.87425,147.922,Q,Q
2023-03-15 21:24:13:219,0,-54.824,1.87462,147.919,Q,Q
2023-03-15 21:24:13:229,0,-54.8225,1.87277,147.918,Q,Q
2023-03-15 21:24:13:239,0,-54.822,1.87122,147.919,Q,Q
2023-03-15 21:24:13:249,0,-54.8239,1.86943,147.922,Q,Q
2023-03-15 21:24:13:259,0,-54.8227,1.86861,147.925,Q,Q
2023-03-15 21:24:13:269,0,-54.8242,1.86845,147.925,Q,Q
2023-03-15 21:24:13:279,0,-54.8234,1.86763,147.926,Q,Q
2023-03-15 21:24:13:289,0,-54.8263,1.86635,147.927,Q,Q
2023-03-15 21:24:13:299,0,-54.8281,1.86836,147.929,Q,Q
2023-03-15 21:24:13:309,0,-54.8268,1.86895,147.932,Q,Q
2023-03-15 21:24:13:319,0,-54.8271,1.86661,147.932,Q,Q
2023-03-15 21:24:13:329,0,-54.8264,1.864,147.933,Q,Q
2023-03-15 21:24:13:339,0,-54.8256,1.86053,147.93,Q,Q
2023-03-15 21:24:13:349,0,-54.8234,1.86111,147.929,Q,Q
2023-03-15 21:24:13:359,0,-54.8237,1.86143,147.93,Q,Q
2023-03-15 21:24:13:369,0,-54.8248,1.86096,147.929,Q,Q
2023-03-15 21:24:13:379,0,-54.8212,1.85793,147.93,Q,Q
2023-03-15 21:24:13:389,0,-54.8192,1.86123,147.93,Q,Q
2023-03-15 21:24:13:399,0,-54.8185,1.85895,147.928,Q,Q
2023-03-15 21:24:13:409,0,-54.8176,1.85937,147.928,Q,Q
2023-03-15 21:24:13:419,0,-54.8149,1.86049,147.928,Q,Q
2023-03-15 21:24:13:429,0,-54.8144,1.86012,147.93,Q,Q
2023-03-15 21:24:13:439,0,-54.814,1.86182,147.928,Q,Q
2023-03-15 21:24:13:449,0,-54.814,1.86103,147.927,Q,Q
2023-03-15 21:24:13:459,0,-54.8136,1.8627,147.926,Q,Q
2023-03-15 21:24:13:468,0,-54.8168,1.86035,147.925,Q,Q
2023-03-15 21:24:13:479,0,-54.8175,1.86004,147.926,Q,Q
2023-03-15 21:24:13:489,0,-54.8202,1.86109,147.924,Q,Q
2023-03-15 21:24:13:499,0,-54.8221,1.86446,147.923,Q,Q
2023-03-15 21:24:13:509,0,-54.8231,1.86765,147.93,Q,Q
2023-03-15 21:24:13:519,0,-54.8223,1.86635,147.929,Q,Q
2023-03-15 21:24:13:529,0,-54.8229,1.86424,147.932,Q,Q
2023-03-15 21:24:13:539,0,-54.8249,1.86603,147.933,Q,Q
2023-03-15 21:24:13:549,0,-54.8241,1.86626,147.932,Q,Q
2023-03-15 21:24:13:559,0,-54.8248,1.86487,147.927,Q,Q
2023-03-15 21:24:13:568,0,-54.8246,1.86366,147.925,Q,Q
2023-03-15 21:24:13:579,0,-54.8245,1.86273,147.923,Q,Q
2023-03-15 21:24:13:588,0,-54.8238,1.86238,147.924,Q,Q
2023-03-15 21:24:13:598,0,-54.8235,1.86295,147.926,Q,Q
2023-03-15 21:24:13:608,0,-54.8245,1.8643,147.925,Q,Q
2023-03-15 21:24:13:618,0,-54.8251,1.86258,147.925,Q,Q
2023-03-15 21:24:13:629,0,-54.8222,1.86188,147.928,Q,Q
2023-03-15 21:24:13:639,0,-54.8212,1.86255,147.928,Q,Q
2023-03-15 21:24:13:649,0,-54.8211,1.86451,147.929,Q,Q
2023-03-15 21:24:13:659,0,-54.8154,1.86581,147.929,Q,Q
2023-03-15 21:24:13:669,0,-54.8154,1.86337,147.931,Q,Q
2023-03-15 21:24:13:679,0,-54.8167,1.86475,147.93,Q,Q
2023-03-15 21:24:13:688,0,-54.817,1.86436,147.93,Q,Q
2023-03-15 21:24:13:699,0,-54.8189,1.86562,147.93,Q,Q
2023-03-15 21:24:13:709,0,-54.8185,1.86422,147.929,Q,Q
2023-03-15 21:24:13:719,0,-54.8166,1.86487,147.928,Q,Q
2023-03-15 21:24:13:729,0,-54.8171,1.86648,147.925,Q,Q
2023-03-15 21:24:13:739,0,-54.8157,1.8675,147.922,Q,Q
2023-03-15 21:24:13:749,0,-54.8187,1.86751,147.92,Q,Q
2023-03-15 21:24:13:759,0,-54.8193,1.8683,147.925,Q,Q
2023-03-15 21:24:13:769,0,-54.8194,1.86618,147.926,Q,Q
2023-03-15 21:24:13:779,0,-54.8201,1.86562,147.925,Q,Q
2023-03-15 21:24:13:789,0,-54.8196,1.86525,147.924,Q,Q
2023-03-15 21:24:13:799,0,-54.8188,1.8635,147.927,Q,Q
2023-03-15 21:24:13:809,0,-54.818,1.85949,147.932,Q,Q
2023-03-15 21:24:13:819,0,-54.8167,1.85872,147.932,Q,Q
2023-03-15 21:24:13:829,0,-54.8175,1.85685,147.933,Q,Q
2023-03-15 21:24:13:839,0,-54.8171,1.85474,147.931,Q,Q
2023-03-15 21:24:13:849,0,-54.8176,1.85441,147.931,Q,Q
2023-03-15 21:24:13:859,0,-54.819,1.85438,147.931,Q,Q
2023-03-15 21:24:13:869,0,-54.8214,1.85665,147.929,Q,Q
2023-03-15 21:24:13:879,0,-54.8209,1.85875,147.932,Q,Q
2023-03-15 21:24:13:889,0,-54.8186,1.85805,147.934,Q,Q
2023-03-15 21:24:13:899,0,-54.8212,1.85894,147.936,Q,Q
2023-03-15 21:24:13:909,0,-54.8198,1.859,147.936,Q,Q
2023-03-15 21:24:13:919,0,-54.818,1.85626,147.938,Q,Q
2023-03-15 21:24:13:929,0,-54.8149,1.85579,147.938,Q,Q
2023-03-15 21:24:13:939,0,-54.8158,1.85712,147.94,Q,Q
2023-03-15 21:24:13:949,0,-54.8151,1.85634,147.941,Q,Q
2023-03-15 21:24:13:959,0,-54.8163,1.85601,147.941,Q,Q
2023-03-15 21:24:13:969,0,-54.817,1.85731,147.939,Q,Q
2023-03-15 21:24:13:979,0,-54.8187,1.85821,147.938,Q,Q
2023-03-15 21:24:13:989,0,-54.8185,1.85814,147.935,Q,Q
2023-03-15 21:24:13:999,0,-54.8187,1.85964,147.933,Q,Q
2023-03-15 21:24:14:9,0,-54.8165,1.85766,147.933,Q,Q
2023-03-15 21:24:14:19,0,-54.818,1.85838,147.931,Q,Q
2023-03-15 21:24:14:29,0,-54.816,1.85893,147.931,Q,Q
2023-03-15 21:24:14:39,0,-54.8127,1.85862,147.934,Q,Q
2023-03-15 21:24:14:49,0,-54.8131,1.85876,147.931,Q,Q
2023-03-15 21:24:14:59,0,-54.8147,1.85629,147.93,Q,Q
2023-03-15 21:24:14:69,0,-54.8172,1.85639,147.928,Q,Q
2023-03-15 21:24:14:79,0,-54.8145,1.85827,147.926,Q,Q
2023-03-15 21:24:14:89,0,-54.8168,1.85781,147.925,Q,Q
2023-03-15 21:24:14:99,0,-54.8165,1.8586,147.924,Q,Q
2023-03-15 21:24:14:109,0,-54.8149,1.8617,147.926,Q,Q
2023-03-15 21:24:14:119,0,-54.8155,1.85939,147.928,Q,Q
2023-03-15 21:24:14:129,0,-54.8129,1.85665,147.93,Q,Q
2023-03-15 21:24:14:139,0,-54.8127,1.85391,147.931,Q,Q
2023-03-15 21:24:14:149,0,-54.8156,1.85259,147.932,Q,Q
2023-03-15 21:24:14:159,0,-54.8177,1.85399,147.931,Q,Q
2023-03-15 21:24:14:169,0,-54.8199,1.85328,147.929,Q,Q
2023-03-15 21:24:14:179,0,-54.82,1.85527,147.927,Q,Q
2023-03-15 21:24:14:189,0,-54.8207,1.85879,147.925,Q,Q
2023-03-15 21:24:14:199,0,-54.8188,1.85828,147.926,Q,Q
2023-03-15 21:24:14:209,0,-54.819,1.85834,147.928,Q,Q
2023-03-15 21:24:14:219,0,-54.8206,1.86005,147.929,Q,Q
2023-03-15 21:24:14:228,0,-54.8224,1.8595,147.929,Q,Q
2023-03-15 21:24:14:239,0,-54.8266,1.86343,147.93,Q,Q
2023-03-15 21:24:14:249,0,-54.8268,1.86449,147.931,Q,Q
2023-03-15 21:24:14:259,0,-54.8237,1.86587,147.934,Q,Q
2023-03-15 21:24:14:269,0,-54.8239,1.86424,147.935,Q,Q
2023-03-15 21:24:14:279,0,-54.8212,1.86431,147.936,Q,Q
2023-03-15 21:24:14:289,0,-54.8182,1.86447,147.934,Q,Q
2023-03-15 21:24:14:299,0,-54.8204,1.86889,147.934,Q,Q
2023-03-15 21:24:14:309,0,-54.8203,1.86741,147.937,Q,Q
2023-03-15 21:24:14:319,0,-54.819,1.86611,147.934,Q,Q
2023-03-15 21:24:14:329,0,-54.8186,1.86693,147.934,Q,Q
2023-03-15 21:24:14:339,0,-54.8163,1.86656,147.933,Q,Q
2023-03-15 21:24:14:348,0,-54.8155,1.8669,147.932,Q,Q
2023-03-15 21:24:14:359,0,-54.8143,1.86655,147.931,Q,Q
2023-03-15 21:24:14:369,0,-54.8139,1.86366,147.935,Q,Q
2023-03-15 21:24:14:379,0,-54.8158,1.86472,147.938,Q,Q
2023-03-15 21:24:14:389,0,-54.8144,1.86226,147.935,Q,Q
2023-03-15 21:24:14:399,0,-54.8137,1.86299,147.934,Q,Q
2023-03-15 21:24:14:409,0,-54.8137,1.86246,147.937,Q,Q
2023-03-15 21:24:14:419,0,-54.8134,1.86404,147.936,Q,Q
2023-03-15 21:24:14:428,0,-54.8112,1.86634,147.936,Q,Q
2023-03-15 21:24:14:438,0,-54.8142,1.86739,147.937,Q,Q
2023-03-15 21:24:14:449,0,-54.8131,1.86564,147.935,Q,Q
2023-03-15 21:24:14:459,0,-54.8104,1.86477,147.936,Q,Q
2023-03-15 21:24:14:469,0,-54.8099,1.86444,147.934,Q,Q
2023-03-15 21:24:14:478,0,-54.8099,1.86488,147.935,Q,Q
2023-03-15 21:24:14:489,0,-54.8084,1.86379,147.937,Q,Q
2023-03-15 21:24:14:499,0,-54.8069,1.86203,147.937,Q,Q
2023-03-15 21:24:14:509,0,-54.8071,1.86142,147.941,Q,Q
2023-03-15 21:24:14:519,0,-54.8066,1.86151,147.943,Q,Q
2023-03-15 21:24:14:529,0,-54.8093,1.86105,147.941,Q,Q
2023-03-15 21:24:14:538,0,-54.8123,1.86433,147.943,Q,Q
2023-03-15 21:24:14:549,0,-54.8129,1.86487,147.942,Q,Q
2023-03-15 21:24:14:559,0,-54.8156,1.86586,147.94,Q,Q
2023-03-15 21:24:14:569,0,-54.8116,1.8657,147.94,Q,Q
2023-03-15 21:24:14:579,0,-54.8111,1.8669,147.94,Q,Q
2023-03-15 21:24:14:589,0,-54.8125,1.86662,147.939,Q,Q
2023-03-15 21:24:14:599,0,-54.8125,1.86665,147.938,Q,Q
2023-03-15 21:24:14:609,0,-54.8092,1.86495,147.939,Q,Q
2023-03-15 21:24:14:619,0,-54.8092,1.8642,147.94,Q,Q
2023-03-15 21:24:14:629,0,-54.8102,1.86106,147.943,Q,Q
2023-03-15 21:24:14:639,0,-54.8105,1.86235,147.943,Q,Q
2023-03-15 21:24:14:649,0,-54.812,1.86092,147.944,Q,Q
2023-03-15 21:24:14:659,0,-54.812,1.86113,147.947,Q,Q
2023-03-15 21:24:14:669,0,-54.8118,1.86351,147.945,Q,Q
2023-03-15 21:24:14:679,0,-54.8045,1.86442,147.945,Q,Q
2023-03-15 21:24:14:689,0,-54.8075,1.8626,147.942,Q,Q
2023-03-15 21:24:14:699,0,-54.8028,1.86409,147.944,Q,Q
2023-03-15 21:24:14:708,0,-54.7955,1.86618,147.946,Q,Q
2023-03-15 21:24:14:719,0,-54.8024,1.86512,147.943,Q,Q
2023-03-15 21:24:14:729,0,-54.7975,1.86611,147.945,Q,Q
2023-03-15 21:24:14:739,0,-54.7975,1.86178,147.945,Q,Q
2023-03-15 21:24:14:749,0,-54.7967,1.86045,147.942,Q,Q
2023-03-15 21:24:14:759,0,-54.7958,1.86038,147.938,Q,Q
2023-03-15 21:24:14:768,0,-54.7964,1.85839,147.938,Q,Q
2023-03-15 21:24:14:779,0,-54.7964,1.85694,147.936,Q,Q
2023-03-15 21:24:14:789,0,-54.798,1.8605,147.939,Q,Q
2023-03-15 21:24:14:799,0,-54.7997,1.86176,147.938,Q,Q
2023-03-15 21:24:14:808,0,-54.7968,1.86367,147.939,Q,Q
2023-03-15 21:24:14:819,0,-54.797,1.86338,147.938,Q,Q
2023-03-15 21:24:14:829,0,-54.7981,1.86268,147.939,Q,Q
2023-03-15 21:24:14:839,0,-54.7999,1.86443,147.94,Q,Q
2023-03-15 21:24:14:849,0,-54.8009,1.86668,147.94,Q,Q
2023-03-15 21:24:14:859,0,-54.7971,1.86501,147.94,Q,Q
2023-03-15 21:24:14:869,0,-54.7995,1.86492,147.939,Q,Q
2023-03-15 21:24:14:879,0,-54.7985,1.86704,147.937,Q,Q
2023-03-15 21:24:14:888,0,-54.7996,1.86473,147.936,Q,Q
2023-03-15 21:24:14:898,0,-54.7965,1.86379,147.939,Q,Q
2023-03-15 21:24:14:908,0,-54.7955,1.86516,147.942,Q,Q
2023-03-15 21:24:14:919,0,-54.7953,1.86409,147.947,Q,Q
2023-03-15 21:24:14:929,0,-54.7942,1.86459,147.948,Q,Q
2023-03-15 21:24:14:939,0,-54.7957,1.86303,147.947,Q,Q
2023-03-15 21:24:14:949,0,-54.7942,1.86131,147.948,Q,Q
2023-03-15 21:24:14:959,0,-54.794,1.86271,147.949,Q,Q
2023-03-15 21:24:14:969,0,-54.793,1.86145,147.95,Q,Q
2023-03-15 21:24:14:979,0,-54.7943,1.85988,147.949,Q,Q
2023-03-15 21:24:14:988,0,-54.7928,1.85789,147.946,Q,Q
2023-03-15 21:24:14:998,0,-54.7913,1.85554,147.946,Q,Q
2023-03-15 21:24:15:9,0,-54.7903,1.85733,147.946,Q,Q
2023-03-15 21:24:15:18,0,-54.7895,1.85745,147.947,Q,Q
2023-03-15 21:24:15:29,0,-54.7914,1.85762,147.948,Q,Q
2023-03-15 21:24:15:39,0,-54.7936,1.85821,147.949,Q,Q
2023-03-15 21:24:15:49,0,-54.7925,1.86008,147.947,Q,Q
2023-03-15 21:24:15:59,0,-54.793,1.86115,147.948,Q,Q
2023-03-15 21:24:15:69,0,-54.7932,1.86235,147.944,Q,Q
2023-03-15 21:24:15:79,0,-54.7924,1.86292,147.945,Q,Q
2023-03-15 21:24:15:89,0,-54.7921,1.86424,147.947,Q,Q
2023-03-15 21:24:15:99,0,-54.7939,1.86368,147.947,Q,Q
2023-03-15 21:24:15:109,0,-54.7931,1.86235,147.95,Q,Q
2023-03-15 21:24:15:119,0,-54.7908,1.86233,147.95,Q,Q
2023-03-15 21:24:15:128,0,-54.792,1.8605,147.949,Q,Q
2023-03-15 21:24:15:138,0,-54.7917,1.86146,147.947,Q,Q
2023-03-15 21:24:15:148,0,-54.7931,1.86108,147.946,Q,Q
2023-03-15 21:24:15:159,0,-54.7951,1.86287,147.947,Q,Q
2023-03-15 21:24:15:169,0,-54.7936,1.86334,147.947,Q,Q
2023-03-15 21:24:15:179,0,-54.7956,1.86437,147.949,Q,Q
2023-03-15 21:24:15:189,0,-54.7927,1.86281,147.949,Q,Q
2023-03-15 21:24:15:199,0,-54.7932,1.86066,147.95,Q,Q
2023-03-15 21:24:15:209,0,-54.7947,1.8585,147.951,Q,Q
2023-03-15 21:24:15:219,0,-54.7944,1.85249,147.952,Q,Q
2023-03-15 21:24:15:228,0,-54.7983,1.85307,147.949,Q,Q
2023-03-15 21:24:15:238,0,-54.7997,1.85234,147.947,Q,Q
2023-03-15 21:24:15:248,0,-54.7983,1.85096,147.945,Q,Q
2023-03-15 21:24:15:259,0,-54.7988,1.85061,147.947,Q,Q
2023-03-15 21:24:15:269,0,-54.7996,1.8498,147.95,Q,Q
2023-03-15 21:24:15:279,0,-54.7988,1.849,147.949,Q,Q
2023-03-15 21:24:15:289,0,-54.8003,1.85038,147.949,Q,Q
2023-03-15 21:24:15:299,0,-54.8022,1.8525,147.947,Q,Q
2023-03-15 21:24:15:309,0,-54.8019,1.85313,147.948,Q,Q
2023-03-15 21:24:15:319,0,-54.8022,1.85264,147.948,Q,Q
2023-03-15 21:24:15:329,0,-54.8021,1.85164,147.947,Q,Q
2023-03-15 21:24:15:339,0,-54.8004,1.85157,147.943,Q,Q
2023-03-15 21:24:15:348,0,-54.8002,1.85502,147.943,Q,Q
2023-03-15 21:24:15:358,0,-54.8019,1.85709,147.944,Q,Q
2023-03-15 21:24:15:368,0,-54.8021,1.85847,147.942,Q,Q
2023-03-15 21:24:15:379,0,-54.8018,1.85937,147.943,Q,Q
2023-03-15 21:24:15:389,0,-54.7994,1.85874,147.941,Q,Q
2023-03-15 21:24:15:398,0,-54.7998,1.86079,147.942,Q,Q
2023-03-15 21:24:15:408,0,-54.803,1.86108,147.937,Q,Q
2023-03-15 21:24:15:418,0,-54.803,1.86079,147.937,Q,Q
2023-03-15 21:24:15:428,0,-54.8101,1.85573,147.939,Q,Q
2023-03-15 21:24:15:439,0,-54.8373,1.85017,147.937,Q,Q
2023-03-15 21:24:15:448,0,-54.7965,1.86874,147.937,Q,Q
2023-03-15 21:24:15:459,0,-54.8657,1.83953,147.933,Q,Q
2023-03-15 21:24:15:469,0,-54.8234,1.8601,147.933,Q,Q
2023-03-15 21:24:15:479,0,-54.8288,1.85816,147.934,Q,Q
2023-03-15 21:24:15:488,0,-54.8398,1.85542,147.932,Q,Q
2023-03-15 21:24:15:498,0,-54.8133,1.86214,147.935,Q,Q
2023-03-15 21:24:15:508,0,-54.8317,1.8587,147.939,Q,Q
2023-03-15 21:24:15:519,0,-54.8246,1.86512,147.938,Q,Q
2023-03-15 21:24:15:529,0,-54.8224,1.86742,147.937,Q,Q
2023-03-15 21:24:15:539,0,-54.8238,1.86988,147.939,Q,Q
2023-03-15 21:24:15:549,0,-54.825,1.87083,147.937,Q,Q
2023-03-15 21:24:15:559,0,-54.823,1.87481,147.936,Q,Q
2023-03-15 21:24:15:568,0,-54.8175,1.87976,147.936,Q,Q
2023-03-15 21:24:15:579,0,-54.8176,1.88239,147.935,Q,Q
2023-03-15 21:24:15:589,0,-54.8112,1.8811,147.935,Q,Q
2023-03-15 21:24:15:598,0,-54.8204,1.87788,147.933,Q,Q
2023-03-15 21:24:15:608,0,-54.8121,1.87817,147.932,Q,Q
2023-03-15 21:24:15:619,0,-54.8168,1.87727,147.931,Q,Q
2023-03-15 21:24:15:628,0,-54.8181,1.87766,147.931,Q,Q
2023-03-15 21:24:15:638,0,-54.8159,1.87754,147.934,Q,Q
2023-03-15 21:24:15:648,0,-54.8165,1.87631,147.934,Q,Q
2023-03-15 21:24:15:658,0,-54.8128,1.8799,147.932,Q,Q
2023-03-15 21:24:15:669,0,-54.8146,1.8779,147.931,Q,Q
2023-03-15 21:24:15:678,0,-54.8133,1.87924,147.929,Q,Q
2023-03-15 21:24:15:689,0,-54.8112,1.88154,147.928,Q,Q
2023-03-15 21:24:15:699,0,-54.8103,1.88259,147.924,Q,Q
2023-03-15 21:24:15:708,0,-54.8151,1.88022,147.927,Q,Q
2023-03-15 21:24:15:719,0,-54.8125,1.88437,147.924,Q,Q
2023-03-15 21:24:15:729,0,-54.8106,1.88578,147.923,Q,Q
2023-03-15 21:24:15:739,0,-54.8103,1.8867,147.922,Q,Q
2023-03-15 21:24:15:749,0,-54.8146,1.89068,147.924,Q,Q
2023-03-15 21:24:15:759,0,-54.8169,1.89132,147.917,Q,Q
2023-03-15 21:24:15:769,0,-54.816,1.89101,147.914,Q,Q
2023-03-15 21:24:15:779,0,-54.8168,1.8922,147.917,Q,Q
2023-03-15 21:24:15:789,0,-54.8178,1.89302,147.919,Q,Q
2023-03-15 21:24:15:799,0,-54.8183,1.89346,147.918,Q,Q
2023-03-15 21:24:15:808,0,-54.8191,1.89279,147.914,Q,Q
2023-03-15 21:24:15:819,0,-54.8193,1.89155,147.913,Q,Q
2023-03-15 21:24:15:829,0,-54.8178,1.89281,147.911,Q,Q
2023-03-15 21:24:15:839,0,-54.8191,1.8923,147.912,Q,Q
2023-03-15 21:24:15:848,0,-54.8194,1.89422,147.912,Q,Q
2023-03-15 21:24:15:859,0,-54.8174,1.89226,147.912,Q,Q
2023-03-15 21:24:15:869,0,-54.815,1.89256,147.91,Q,Q
2023-03-15 21:24:15:879,0,-54.8165,1.8911,147.906,Q,Q
2023-03-15 21:24:15:889,0,-54.8178,1.88799,147.904,Q,Q
2023-03-15 21:24:15:899,0,-54.8151,1.88951,147.902,Q,Q
2023-03-15 21:24:15:908,0,-54.8142,1.89036,147.904,Q,Q
2023-03-15 21:24:15:920,0,-54.8166,1.8884,147.905,Q,Q
2023-03-15 21:24:15:928,0,-54.8166,1.89233,147.904,Q,Q
2023-03-15 21:24:15:938,0,-54.8158,1.89191,147.905,Q,Q
2023-03-15 21:24:15:948,0,-54.816,1.8931,147.903,Q,Q
2023-03-15 21:24:15:958,0,-54.816,1.89499,147.905,Q,Q
2023-03-15 21:24:15:968,0,-54.815,1.89563,147.905,Q,Q
2023-03-15 21:24:15:978,0,-54.8166,1.89424,147.903,Q,Q
2023-03-15 21:24:15:988,0,-54.8146,1.89309,147.903,Q,Q
2023-03-15 21:24:15:998,0,-54.8154,1.89178,147.9,Q,Q
2023-03-15 21:24:16:8,0,-54.8166,1.89357,147.898,Q,Q
2023-03-15 21:24:16:18,0,-54.8141,1.89399,147.896,Q,Q
2023-03-15 21:24:16:28,0,-54.8162,1.89562,147.895,Q,Q
2023-03-15 21:24:16:38,0,-54.8183,1.89671,147.896,Q,Q
2023-03-15 21:24:16:48,0,-54.8149,1.89757,147.896,Q,Q
2023-03-15 21:24:16:58,0,-54.8135,1.89497,147.896,Q,Q
2023-03-15 21:24:16:68,0,-54.8124,1.89601,147.896,Q,Q
2023-03-15 21:24:16:78,0,-54.8116,1.89589,147.893,Q,Q
2023-03-15 21:24:16:88,0,-54.812,1.8981,147.896,Q,Q
2023-03-15 21:24:16:98,0,-54.8103,1.89718,147.9,Q,Q
2023-03-15 21:24:16:108,0,-54.8102,1.89761,147.901,Q,Q
2023-03-15 21:24:16:118,0,-54.8098,1.89929,147.903,Q,Q
2023-03-15 21:24:16:128,0,-54.811,1.90129,147.904,Q,Q
2023-03-15 21:24:16:138,0,-54.812,1.90211,147.904,Q,Q
2023-03-15 21:24:16:148,0,-54.8108,1.90209,147.903,Q,Q
2023-03-15 21:24:16:158,0,-54.8095,1.90314,147.905,Q,Q
2023-03-15 21:24:16:168,0,-54.8053,1.90079,147.907,Q,Q
2023-03-15 21:24:16:178,0,-54.8058,1.9003,147.91,Q,Q
2023-03-15 21:24:16:188,0,-54.805,1.90295,147.913,Q,Q
2023-03-15 21:24:16:198,0,-54.806,1.90418,147.91,Q,Q
2023-03-15 21:24:16:208,0,-54.8084,1.90388,147.909,Q,Q
2023-03-15 21:24:16:218,0,-54.8078,1.90472,147.91,Q,Q
2023-03-15 21:24:16:228,0,-54.8046,1.90448,147.91,Q,Q
2023-03-15 21:24:16:238,0,-54.8036,1.90128,147.913,Q,Q
2023-03-15 21:24:16:248,0,-54.805,1.90111,147.913,Q,Q
2023-03-15 21:24:16:258,0,-54.8005,1.89858,147.914,Q,Q
2023-03-15 21:24:16:268,0,-54.798,1.90028,147.913,Q,Q
2023-03-15 21:24:16:278,0,-54.8002,1.90023,147.909,Q,Q
2023-03-15 21:24:16:288,0,-54.7986,1.90016,147.909,Q,Q
2023-03-15 21:24:16:298,0,-54.7978,1.90272,147.905,Q,Q
2023-03-15 21:24:16:308,0,-54.7919,1.90237,147.903,Q,Q
2023-03-15 21:24:16:318,0,-54.7939,1.89807,147.905,Q,Q
2023-03-15 21:24:16:328,0,-54.7943,1.89835,147.902,Q,Q
2023-03-15 21:24:16:338,0,-54.7968,1.90058,147.902,Q,Q
2023-03-15 21:24:16:348,0,-54.7939,1.90538,147.901,Q,Q
2023-03-15 21:24:16:358,0,-54.7964,1.90845,147.902,Q,Q
2023-03-15 21:24:16:368,0,-54.7926,1.90574,147.908,Q,Q
2023-03-15 21:24:16:378,0,-54.792,1.90922,147.91,Q,Q
2023-03-15 21:24:16:388,0,-54.7941,1.9095,147.918,Q,Q
2023-03-15 21:24:16:399,0,-54.7964,1.90894,147.922,Q,Q
2023-03-15 21:24:16:408,0,-54.7994,1.90875,147.926,Q,Q
2023-03-15 21:24:16:418,0,-54.7978,1.90926,147.926,Q,Q
2023-03-15 21:24:16:428,0,-54.7965,1.91054,147.923,Q,Q
2023-03-15 21:24:16:438,0,-54.796,1.90749,147.917,Q,Q
2023-03-15 21:24:16:448,0,-54.7937,1.90377,147.914,Q,Q
2023-03-15 21:24:16:458,0,-54.7918,1.90361,147.912,Q,Q
2023-03-15 21:24:16:468,0,-54.7918,1.9068,147.91,Q,Q
2023-03-15 21:24:16:478,0,-54.7863,1.90946,147.911,Q,Q
2023-03-15 21:24:16:488,0,-54.7849,1.91097,147.915,Q,Q
2023-03-15 21:24:16:498,0,-54.7872,1.90946,147.916,Q,Q
2023-03-15 21:24:16:508,0,-54.7876,1.91032,147.92,Q,Q
2023-03-15 21:24:16:518,0,-54.7888,1.91054,147.92,Q,Q
2023-03-15 21:24:16:528,0,-54.7887,1.91073,147.919,Q,Q
2023-03-15 21:24:16:538,0,-54.7917,1.91571,147.917,Q,Q
2023-03-15 21:24:16:548,0,-54.7898,1.91411,147.913,Q,Q
2023-03-15 21:24:16:558,0,-54.7879,1.91387,147.915,Q,Q
2023-03-15 21:24:16:568,0,-54.7857,1.91438,147.915,Q,Q
2023-03-15 21:24:16:578,0,-54.7855,1.91412,147.912,Q,Q
2023-03-15 21:24:16:588,0,-54.7835,1.91609,147.914,Q,Q
2023-03-15 21:24:16:598,0,-54.7852,1.91598,147.915,Q,Q
2023-03-15 21:24:16:608,0,-54.7882,1.91632,147.917,Q,Q
2023-03-15 21:24:16:618,0,-54.7853,1.91444,147.918,Q,Q
2023-03-15 21:24:16:628,0,-54.785,1.91502,147.916,Q,Q
2023-03-15 21:24:16:638,0,-54.7833,1.91831,147.915,Q,Q
2023-03-15 21:24:16:648,0,-54.7847,1.91939,147.911,Q,Q
2023-03-15 21:24:16:658,0,-54.7845,1.91998,147.914,Q,Q
2023-03-15 21:24:16:668,0,-54.7838,1.91974,147.916,Q,Q
2023-03-15 21:24:16:678,0,-54.7826,1.91778,147.916,Q,Q
2023-03-15 21:24:16:688,0,-54.7819,1.9193,147.917,Q,Q
2023-03-15 21:24:16:698,0,-54.7818,1.92192,147.916,Q,Q
2023-03-15 21:24:16:708,0,-54.7799,1.92208,147.913,Q,Q
2023-03-15 21:24:16:719,0,-54.7793,1.92059,147.913,Q,Q
2023-03-15 21:24:16:728,0,-54.7778,1.92153,147.909,Q,Q
2023-03-15 21:24:16:738,0,-54.7787,1.9214,147.91,Q,Q
2023-03-15 21:24:16:748,0,-54.7809,1.92131,147.908,Q,Q
2023-03-15 21:24:16:758,0,-54.781,1.91878,147.909,Q,Q
2023-03-15 21:24:16:768,0,-54.7823,1.92,147.907,Q,Q
2023-03-15 21:24:16:778,0,-54.781,1.92005,147.906,Q,Q
2023-03-15 21:24:16:788,0,-54.782,1.91861,147.906,Q,Q
2023-03-15 21:24:16:798,0,-54.7781,1.91688,147.909,Q,Q
2023-03-15 21:24:16:808,0,-54.7787,1.91508,147.91,Q,Q
2023-03-15 21:24:16:818,0,-54.7798,1.91387,147.911,Q,Q
2023-03-15 21:24:16:828,0,-54.7793,1.91563,147.908,Q,Q
2023-03-15 21:24:16:838,0,-54.7836,1.91777,147.905,Q,Q
2023-03-15 21:24:16:848,0,-54.7809,1.91548,147.905,Q,Q
2023-03-15 21:24:16:858,0,-54.7801,1.915,147.907,Q,Q
2023-03-15 21:24:16:868,0,-54.7799,1.91816,147.907,Q,Q
2023-03-15 21:24:16:878,0,-54.7777,1.91812,147.904,Q,Q
2023-03-15 21:24:16:888,0,-54.7794,1.92129,147.906,Q,Q
2023-03-15 21:24:16:898,0,-54.7787,1.92275,147.905,Q,Q
2023-03-15 21:24:16:908,0,-54.776,1.92069,147.905,Q,Q
2023-03-15 21:24:16:918,0,-54.7739,1.91936,147.905,Q,Q
2023-03-15 21:24:16:928,0,-54.7729,1.91682,147.905,Q,Q
2023-03-15 21:24:16:938,0,-54.7718,1.91609,147.903,Q,Q
2023-03-15 21:24:16:948,0,-54.7715,1.91662,147.905,Q,Q
2023-03-15 21:24:16:958,0,-54.7721,1.91563,147.908,Q,Q
2023-03-15 21:24:16:968,0,-54.7688,1.91315,147.911,Q,Q
2023-03-15 21:24:16:978,0,-54.7701,1.91144,147.914,Q,Q
2023-03-15 21:24:16:988,0,-54.7712,1.91005,147.914,Q,Q
2023-03-15 21:24:16:998,0,-54.7698,1.91149,147.914,Q,Q
2023-03-15 21:24:17:8,0,-54.7695,1.90889,147.915,Q,Q
2023-03-15 21:24:17:18,0,-54.7699,1.90967,147.915,Q,Q
2023-03-15 21:24:17:28,0,-54.7692,1.90979,147.912,Q,Q
2023-03-15 21:24:17:38,0,-54.7712,1.90998,147.909,Q,Q
2023-03-15 21:24:17:48,0,-54.7707,1.90888,147.909,Q,Q
2023-03-15 21:24:17:58,0,-54.7706,1.91011,147.912,Q,Q
2023-03-15 21:24:17:68,0,-54.7721,1.90665,147.913,Q,Q
2023-03-15 21:24:17:78,0,-54.7698,1.90582,147.912,Q,Q
2023-03-15 21:24:17:88,0,-54.7688,1.90653,147.907,Q,Q
2023-03-15 21:24:17:98,0,-54.7704,1.90742,147.908,Q,Q
2023-03-15 21:24:17:108,0,-54.7714,1.90612,147.908,Q,Q
2023-03-15 21:24:17:118,0,-54.7711,1.91,147.908,Q,Q
2023-03-15 21:24:17:128,0,-54.7692,1.90796,147.908,Q,Q
2023-03-15 21:24:17:138,0,-54.7669,1.90668,147.909,Q,Q
2023-03-15 21:24:17:148,0,-54.7687,1.90565,147.91,Q,Q
2023-03-15 21:24:17:158,0,-54.7696,1.90579,147.906,Q,Q
2023-03-15 21:24:17:168,0,-54.768,1.90527,147.902,Q,Q
2023-03-15 21:24:17:178,0,-54.7661,1.90543,147.901,Q,Q
2023-03-15 21:24:17:188,0,-54.7682,1.90699,147.901,Q,Q
2023-03-15 21:24:17:198,0,-54.7684,1.90648,147.901,Q,Q
2023-03-15 21:24:17:208,0,-54.7698,1.9041,147.899,Q,Q
2023-03-15 21:24:17:218,0,-54.7699,1.90385,147.899,Q,Q
2023-03-15 21:24:17:228,0,-54.7675,1.90072,147.9,Q,Q
2023-03-15 21:24:17:238,0,-54.7666,1.90121,147.899,Q,Q
2023-03-15 21:24:17:248,0,-54.7677,1.89898,147.898,Q,Q
2023-03-15 21:24:17:258,0,-54.7676,1.89944,147.899,Q,Q
2023-03-15 21:24:17:268,0,-54.766,1.89856,147.897,Q,Q
2023-03-15 21:24:17:278,0,-54.7636,1.89846,147.898,Q,Q
2023-03-15 21:24:17:288,0,-54.765,1.8995,147.901,Q,Q
2023-03-15 21:24:17:298,0,-54.7658,1.89585,147.901,Q,Q
2023-03-15 21:24:17:308,0,-54.765,1.89676,147.897,Q,Q
2023-03-15 21:24:17:318,0,-54.7639,1.89499,147.896,Q,Q
2023-03-15 21:24:17:328,0,-54.7646,1.8921,147.898,Q,Q
2023-03-15 21:24:17:338,0,-54.7663,1.89081,147.901,Q,Q
2023-03-15 21:24:17:348,0,-54.7694,1.89103,147.903,Q,Q
2023-03-15 21:24:17:358,0,-54.77,1.8934,147.902,Q,Q
2023-03-15 21:24:17:368,0,-54.7707,1.89282,147.9,Q,Q
2023-03-15 21:24:17:378,0,-54.7723,1.88967,147.902,Q,Q
2023-03-15 21:24:17:388,0,-54.772,1.89188,147.904,Q,Q
2023-03-15 21:24:17:398,0,-54.7723,1.89186,147.903,Q,Q
2023-03-15 21:24:17:408,0,-54.7724,1.89212,147.898,Q,Q
2023-03-15 21:24:17:418,0,-54.7723,1.89268,147.896,Q,Q
2023-03-15 21:24:17:428,0,-54.7752,1.89212,147.895,Q,Q
2023-03-15 21:24:17:438,0,-54.7739,1.89068,147.896,Q,Q
2023-03-15 21:24:17:448,0,-54.7737,1.89111,147.898,Q,Q
2023-03-15 21:24:17:458,0,-54.7728,1.89201,147.898,Q,Q
2023-03-15 21:24:17:468,0,-54.7738,1.89362,147.898,Q,Q
2023-03-15 21:24:17:478,0,-54.7754,1.89567,147.898,Q,Q
2023-03-15 21:24:17:488,0,-54.7786,1.89803,147.897,Q,Q
2023-03-15 21:24:17:498,0,-54.7826,1.89713,147.899,Q,Q
2023-03-15 21:24:17:508,0,-54.7801,1.89844,147.897,Q,Q
2023-03-15 21:24:17:518,0,-54.7816,1.89845,147.896,Q,Q
2023-03-15 21:24:17:528,0,-54.7853,1.89677,147.899,Q,Q
2023-03-15 21:24:17:538,0,-54.7852,1.89459,147.897,Q,Q
2023-03-15 21:24:17:548,0,-54.784,1.89586,147.9,Q,Q
2023-03-15 21:24:17:558,0,-54.7855,1.89661,147.899,Q,Q
2023-03-15 21:24:17:568,0,-54.7838,1.89845,147.897,Q,Q
2023-03-15 21:24:17:578,0,-54.7813,1.89883,147.895,Q,Q
2023-03-15 21:24:17:588,0,-54.7801,1.89797,147.895,Q,Q
2023-03-15 21:24:17:598,0,-54.7807,1.8987,147.894,Q,Q
2023-03-15 21:24:17:608,0,-54.782,1.89967,147.893,Q,Q
2023-03-15 21:24:17:618,0,-54.7826,1.9006,147.893,Q,Q
2023-03-15 21:24:17:628,0,-54.7824,1.90321,147.892,Q,Q
2023-03-15 21:24:17:638,0,-54.7837,1.90231,147.895,Q,Q
2023-03-15 21:24:17:648,0,-54.7848,1.90481,147.897,Q,Q
2023-03-15 21:24:17:658,0,-54.7879,1.90556,147.897,Q,Q
2023-03-15 21:24:17:668,0,-54.7882,1.90568,147.896,Q,Q
2023-03-15 21:24:17:678,0,-54.7861,1.90503,147.898,Q,Q
2023-03-15 21:24:17:688,0,-54.7889,1.9064,147.898,Q,Q
2023-03-15 21:24:17:698,0,-54.7879,1.90457,147.897,Q,Q
2023-03-15 21:24:17:708,0,-54.7853,1.90265,147.9,Q,Q
2023-03-15 21:24:17:718,0,-54.7835,1.90116,147.904,Q,Q
2023-03-15 21:24:17:728,0,-54.7842,1.90289,147.906,Q,Q
2023-03-15 21:24:17:738,0,-54.7856,1.90295,147.906,Q,Q
2023-03-15 21:24:17:748,0,-54.7829,1.90204,147.906,Q,Q
2023-03-15 21:24:17:758,0,-54.7815,1.89831,147.907,Q,Q
2023-03-15 21:24:17:768,0,-54.7849,1.89882,147.907,Q,Q
2023-03-15 21:24:17:778,0,-54.7861,1.89667,147.909,Q,Q
2023-03-15 21:24:17:788,0,-54.7868,1.89671,147.911,Q,Q
2023-03-15 21:24:17:798,0,-54.7866,1.89865,147.914,Q,Q
2023-03-15 21:24:17:808,0,-54.7884,1.89413,147.914,Q,Q
2023-03-15 21:24:17:818,0,-54.79,1.89531,147.916,Q,Q
2023-03-15 21:24:17:828,0,-54.7884,1.89796,147.917,Q,Q
2023-03-15 21:24:17:838,0,-54.7921,1.90078,147.918,Q,Q
2023-03-15 21:24:17:848,0,-54.7917,1.89902,147.918,Q,Q
2023-03-15 21:24:17:858,0,-54.7906,1.89922,147.918,Q,Q
2023-03-15 21:24:17:868,0,-54.7909,1.897,147.918,Q,Q
2023-03-15 21:24:17:878,0,-54.7921,1.89947,147.918,Q,Q
2023-03-15 21:24:17:888,0,-54.7913,1.8977,147.917,Q,Q
2023-03-15 21:24:17:898,0,-54.7903,1.89785,147.914,Q,Q
2023-03-15 21:24:17:908,0,-54.7888,1.89764,147.911,Q,Q
2023-03-15 21:24:17:918,0,-54.7915,1.89498,147.911,Q,Q
2023-03-15 21:24:17:928,0,-54.7953,1.89421,147.911,Q,Q
2023-03-15 21:24:17:938,0,-54.7976,1.89512,147.911,Q,Q
2023-03-15 21:24:17:948,0,-54.8002,1.89359,147.911,Q,Q
2023-03-15 21:24:17:958,0,-54.799,1.8942,147.912,Q,Q
2023-03-15 21:24:17:968,0,-54.7972,1.89252,147.914,Q,Q
2023-03-15 21:24:17:978,0,-54.7976,1.89252,147.915,Q,Q
2023-03-15 21:24:17:988,0,-54.7966,1.89279,147.914,Q,Q
2023-03-15 21:24:17:998,0,-54.7984,1.89409,147.915,Q,Q
2023-03-15 21:24:18:8,0,-54.7984,1.89519,147.914,Q,Q
2023-03-15 21:24:18:18,0,-54.7967,1.89766,147.913,Q,Q
2023-03-15 21:24:18:28,0,-54.7971,1.8976,147.913,Q,Q
2023-03-15 21:24:18:38,0,-54.7971,1.89754,147.91,Q,Q
2023-03-15 21:24:18:48,0,-54.7968,1.89704,147.907,Q,Q
2023-03-15 21:24:18:58,0,-54.7957,1.89771,147.908,Q,Q
2023-03-15 21:24:18:68,0,-54.7961,1.89808,147.907,Q,Q
2023-03-15 21:24:18:78,0,-54.7958,1.89842,147.908,Q,Q
2023-03-15 21:24:18:88,0,-54.7935,1.90005,147.907,Q,Q
2023-03-15 21:24:18:98,0,-54.7937,1.89682,147.909,Q,Q
2023-03-15 21:24:18:108,0,-54.7942,1.89761,147.91,Q,Q
2023-03-15 21:24:18:118,0,-54.7925,1.8975,147.91,Q,Q
2023-03-15 21:24:18:128,0,-54.7935,1.89718,147.911,Q,Q
2023-03-15 21:24:18:138,0,-54.7954,1.89369,147.915,Q,Q
2023-03-15 21:24:18:148,0,-54.798,1.8957,147.918,Q,Q
2023-03-15 21:24:18:158,0,-54.7988,1.89617,147.917,Q,Q
2023-03-15 21:24:18:168,0,-54.8009,1.89757,147.917,Q,Q
2023-03-15 21:24:18:178,0,-54.7985,1.89627,147.915,Q,Q
2023-03-15 21:24:18:188,0,-54.7979,1.89593,147.914,Q,Q
2023-03-15 21:24:18:198,0,-54.7968,1.89122,147.912,Q,Q
2023-03-15 21:24:18:208,0,-54.7988,1.89055,147.913,Q,Q
2023-03-15 21:24:18:218,0,-54.7995,1.89304,147.916,Q,Q
2023-03-15 21:24:18:228,0,-54.8009,1.89248,147.912,Q,Q
2023-03-15 21:24:18:238,0,-54.798,1.89521,147.913,Q,Q
2023-03-15 21:24:18:248,0,-54.7983,1.89568,147.911,Q,Q
2023-03-15 21:24:18:258,0,-54.7975,1.89428,147.914,Q,Q
2023-03-15 21:24:18:268,0,-54.7978,1.89407,147.914,Q,Q
2023-03-15 21:24:18:278,0,-54.7988,1.89366,147.916,Q,Q
2023-03-15 21:24:18:288,0,-54.7949,1.89049,147.916,Q,Q
2023-03-15 21:24:18:298,0,-54.7937,1.89124,147.915,Q,Q
2023-03-15 21:24:18:308,0,-54.7918,1.8921,147.917,Q,Q
2023-03-15 21:24:18:318,0,-54.7896,1.88972,147.917,Q,Q
2023-03-15 21:24:18:328,0,-54.7881,1.88817,147.915,Q,Q
2023-03-15 21:24:18:338,0,-54.7878,1.88659,147.913,Q,Q
2023-03-15 21:24:18:348,0,-54.7877,1.88707,147.913,Q,Q
2023-03-15 21:24:18:358,0,-54.7885,1.88568,147.917,Q,Q
2023-03-15 21:24:18:368,0,-54.7874,1.8857,147.914,Q,Q
2023-03-15 21:24:18:378,0,-54.7877,1.88558,147.912,Q,Q
2023-03-15 21:24:18:388,0,-54.7898,1.8866,147.914,Q,Q
2023-03-15 21:24:18:398,0,-54.7915,1.8881,147.914,Q,Q
2023-03-15 21:24:18:408,0,-54.7933,1.8884,147.915,Q,Q
2023-03-15 21:24:18:418,0,-54.7928,1.89104,147.917,Q,Q
2023-03-15 21:24:18:428,0,-54.7929,1.8927,147.915,Q,Q
2023-03-15 21:24:18:438,0,-54.7942,1.89482,147.917,Q,Q
2023-03-15 21:24:18:448,0,-54.7949,1.8924,147.918,Q,Q
2023-03-15 21:24:18:458,0,-54.7905,1.89075,147.918,Q,Q
2023-03-15 21:24:18:468,0,-54.7877,1.89427,147.919,Q,Q
2023-03-15 21:24:18:478,0,-54.7891,1.89073,147.919,Q,Q
2023-03-15 21:24:18:488,0,-54.7867,1.89158,147.919,Q,Q
2023-03-15 21:24:18:498,0,-54.7843,1.89072,147.918,Q,Q
2023-03-15 21:24:18:508,0,-54.7854,1.89034,147.919,Q,Q
2023-03-15 21:24:18:518,0,-54.7918,1.88999,147.918,Q,Q
2023-03-15 21:24:18:528,0,-54.7929,1.88966,147.917,Q,Q
2023-03-15 21:24:18:538,0,-54.7905,1.88864,147.918,Q,Q
2023-03-15 21:24:18:548,0,-54.7908,1.88681,147.918,Q,Q
2023-03-15 21:24:18:558,0,-54.7902,1.88979,147.918,Q,Q
2023-03-15 21:24:18:568,0,-54.7915,1.89262,147.919,Q,Q
2023-03-15 21:24:18:578,0,-54.7888,1.893,147.918,Q,Q
2023-03-15 21:24:18:588,0,-54.7909,1.89316,147.921,Q,Q
2023-03-15 21:24:18:598,0,-54.792,1.89257,147.922,Q,Q
2023-03-15 21:24:18:608,0,-54.7932,1.89422,147.922,Q,Q
2023-03-15 21:24:18:618,0,-54.7925,1.89407,147.924,Q,Q
2023-03-15 21:24:18:628,0,-54.7923,1.89666,147.924,Q,Q
2023-03-15 21:24:18:638,0,-54.7907,1.8972,147.925,Q,Q
2023-03-15 21:24:18:648,0,-54.7938,1.89456,147.927,Q,Q
2023-03-15 21:24:18:658,0,-54.7944,1.89337,147.926,Q,Q
2023-03-15 21:24:18:668,0,-54.7979,1.89515,147.925,Q,Q
2023-03-15 21:24:18:678,0,-54.7975,1.895,147.926,Q,Q
2023-03-15 21:24:18:688,0,-54.7987,1.89419,147.928,Q,Q
2023-03-15 21:24:18:698,0,-54.7983,1.88932,147.929,Q,Q
2023-03-15 21:24:18:708,0,-54.803,1.89057,147.931,Q,Q
2023-03-15 21:24:18:718,0,-54.8017,1.88919,147.931,Q,Q
2023-03-15 21:24:18:728,0,-54.8021,1.89135,147.932,Q,Q
2023-03-15 21:24:18:738,0,-54.8032,1.89386,147.934,Q,Q
2023-03-15 21:24:18:748,0,-54.8057,1.89387,147.935,Q,Q
2023-03-15 21:24:18:758,0,-54.8068,1.89389,147.936,Q,Q
2023-03-15 21:24:18:768,0,-54.8042,1.89666,147.934,Q,Q
2023-03-15 21:24:18:778,0,-54.8022,1.89862,147.933,Q,Q
2023-03-15 21:24:18:788,0,-54.8044,1.89889,147.934,Q,Q
2023-03-15 21:24:18:798,0,-54.8035,1.89972,147.932,Q,Q
2023-03-15 21:24:18:808,0,-54.8061,1.9026,147.93,Q,Q
2023-03-15 21:24:18:818,0,-54.807,1.9016,147.93,Q,Q
2023-03-15 21:24:18:828,0,-54.8061,1.90109,147.931,Q,Q
2023-03-15 21:24:18:838,0,-54.8068,1.90242,147.929,Q,Q
2023-03-15 21:24:18:848,0,-54.8094,1.90309,147.929,Q,Q
2023-03-15 21:24:18:858,0,-54.8124,1.90178,147.926,Q,Q
2023-03-15 21:24:18:868,0,-54.8121,1.89968,147.928,Q,Q
2023-03-15 21:24:18:878,0,-54.8107,1.90184,147.926,Q,Q
2023-03-15 21:24:18:888,0,-54.8094,1.90253,147.924,Q,Q
2023-03-15 21:24:18:898,0,-54.8132,1.90089,147.922,Q,Q
2023-03-15 21:24:18:908,0,-54.8165,1.90083,147.921,Q,Q
2023-03-15 21:24:18:918,0,-54.8147,1.89933,147.925,Q,Q
2023-03-15 21:24:18:928,0,-54.8143,1.898,147.926,Q,Q
2023-03-15 21:24:18:938,0,-54.8142,1.89665,147.927,Q,Q
2023-03-15 21:24:18:948,0,-54.8128,1.89449,147.931,Q,Q
2023-03-15 21:24:18:958,0,-54.8116,1.89516,147.929,Q,Q
2023-03-15 21:24:18:968,0,-54.8093,1.89505,147.932,Q,Q
2023-03-15 21:24:18:978,0,-54.8087,1.89437,147.931,Q,Q
2023-03-15 21:24:18:988,0,-54.8129,1.89491,147.931,Q,Q
2023-03-15 21:24:18:998,0,-54.8124,1.89265,147.932,Q,Q
2023-03-15 21:24:19:8,0,-54.815,1.89354,147.931,Q,Q
2023-03-15 21:24:19:18,0,-54.8189,1.89131,147.931,Q,Q
2023-03-15 21:24:19:28,0,-54.8176,1.89024,147.933,Q,Q
2023-03-15 21:24:19:38,0,-54.8159,1.88926,147.93,Q,Q
2023-03-15 21:24:19:48,0,-54.8155,1.88834,147.93,Q,Q
2023-03-15 21:24:19:58,0,-54.8169,1.88565,147.93,Q,Q
2023-03-15 21:24:19:68,0,-54.814,1.88672,147.932,Q,Q
2023-03-15 21:24:19:78,0,-54.8151,1.88745,147.932,Q,Q
2023-03-15 21:24:19:88,0,-54.8144,1.88911,147.928,Q,Q
2023-03-15 21:24:19:98,0,-54.8159,1.89211,147.927,Q,Q
2023-03-15 21:24:19:108,0,-54.8134,1.89107,147.924,Q,Q
2023-03-15 21:24:19:118,0,-54.8134,1.88994,147.923,Q,Q
2023-03-15 21:24:19:128,0,-54.8121,1.88888,147.921,Q,Q
2023-03-15 21:24:19:138,0,-54.8142,1.89071,147.923,Q,Q
2023-03-15 21:24:19:148,0,-54.8133,1.89089,147.924,Q,Q
2023-03-15 21:24:19:158,0,-54.8123,1.89074,147.924,Q,Q
2023-03-15 21:24:19:168,0,-54.8101,1.88804,147.926,Q,Q
2023-03-15 21:24:19:178,0,-54.8112,1.88855,147.926,Q,Q
2023-03-15 21:24:19:188,0,-54.812,1.88852,147.927,Q,Q
2023-03-15 21:24:19:198,0,-54.81,1.89071,147.929,Q,Q
2023-03-15 21:24:19:208,0,-54.8126,1.89108,147.93,Q,Q
2023-03-15 21:24:19:218,0,-54.8126,1.89017,147.929,Q,Q
2023-03-15 21:24:19:228,0,-54.8103,1.88865,147.93,Q,Q
2023-03-15 21:24:19:238,0,-54.8115,1.8902,147.929,Q,Q
2023-03-15 21:24:19:248,0,-54.8084,1.89339,147.93,Q,Q
2023-03-15 21:24:19:258,0,-54.8068,1.89479,147.931,Q,Q
2023-03-15 21:24:19:268,0,-54.8043,1.8941,147.929,Q,Q
2023-03-15 21:24:19:278,0,-54.8042,1.89631,147.926,Q,Q
2023-03-15 21:24:19:288,0,-54.8039,1.89763,147.925,Q,Q
2023-03-15 21:24:19:298,0,-54.8014,1.89735,147.925,Q,Q
2023-03-15 21:24:19:308,0,-54.805,1.89488,147.925,Q,Q
2023-03-15 21:24:19:318,0,-54.8032,1.89457,147.925,Q,Q
2023-03-15 21:24:19:328,0,-54.8025,1.89732,147.927,Q,Q
2023-03-15 21:24:19:338,0,-54.803,1.89833,147.924,Q,Q
2023-03-15 21:24:19:348,0,-54.8021,1.90108,147.926,Q,Q
2023-03-15 21:24:19:358,0,-54.8022,1.90258,147.926,Q,Q
2023-03-15 21:24:19:368,0,-54.8031,1.8999,147.925,Q,Q
2023-03-15 21:24:19:378,0,-54.8023,1.89892,147.926,Q,Q
2023-03-15 21:24:19:388,0,-54.8038,1.90283,147.924,Q,Q
2023-03-15 21:24:19:398,0,-54.8047,1.90362,147.926,Q,Q
2023-03-15 21:24:19:408,0,-54.8063,1.90115,147.929,Q,Q
2023-03-15 21:24:19:418,0,-54.8077,1.90043,147.927,Q,Q
2023-03-15 21:24:19:428,0,-54.8083,1.90038,147.927,Q,Q
2023-03-15 21:24:19:438,0,-54.8109,1.90003,147.929,Q,Q
2023-03-15 21:24:19:448,0,-54.8095,1.89846,147.929,Q,Q
2023-03-15 21:24:19:458,0,-54.8112,1.89986,147.929,Q,Q
2023-03-15 21:24:19:468,0,-54.8112,1.90128,147.929,Q,Q
2023-03-15 21:24:19:478,0,-54.8096,1.90263,147.93,Q,Q
2023-03-15 21:24:19:488,0,-54.8119,1.90073,147.929,Q,Q
2023-03-15 21:24:19:498,0,-54.8092,1.9003,147.927,Q,Q
2023-03-15 21:24:19:508,0,-54.813,1.90006,147.925,Q,Q
2023-03-15 21:24:19:518,0,-54.8134,1.90067,147.926,Q,Q
2023-03-15 21:24:19:528,0,-54.8126,1.8991,147.927,Q,Q
2023-03-15 21:24:19:538,0,-54.8123,1.89811,147.927,Q,Q
2023-03-15 21:24:19:548,0,-54.8093,1.89982,147.926,Q,Q
2023-03-15 21:24:19:558,0,-54.813,1.89981,147.927,Q,Q
2023-03-15 21:24:19:568,0,-54.8084,1.89958,147.93,Q,Q
2023-03-15 21:24:19:578,0,-54.8095,1.90062,147.933,Q,Q
2023-03-15 21:24:19:588,0,-54.8092,1.8983,147.935,Q,Q
2023-03-15 21:24:19:598,0,-54.8114,1.89791,147.934,Q,Q
2023-03-15 21:24:19:608,0,-54.8143,1.89618,147.93,Q,Q
2023-03-15 21:24:19:618,0,-54.8122,1.8978,147.931,Q,Q
2023-03-15 21:24:19:628,0,-54.8118,1.89696,147.93,Q,Q
2023-03-15 21:24:19:638,0,-54.812,1.8976,147.933,Q,Q
2023-03-15 21:24:19:648,0,-54.8129,1.89845,147.935,Q,Q
2023-03-15 21:24:19:658,0,-54.815,1.90218,147.936,Q,Q
2023-03-15 21:24:19:668,0,-54.8181,1.9019,147.936,Q,Q
2023-03-15 21:24:19:678,0,-54.8149,1.90044,147.936,Q,Q
2023-03-15 21:24:19:688,0,-54.8163,1.8988,147.935,Q,Q
2023-03-15 21:24:19:698,0,-54.8189,1.90138,147.931,Q,Q
2023-03-15 21:24:19:708,0,-54.8214,1.90204,147.931,Q,Q
2023-03-15 21:24:19:718,0,-54.8197,1.89885,147.93,Q,Q
2023-03-15 21:24:19:728,0,-54.8181,1.89958,147.932,Q,Q
2023-03-15 21:24:19:738,0,-54.8195,1.8999,147.934,Q,Q
2023-03-15 21:24:19:748,0,-54.8221,1.89663,147.932,Q,Q
2023-03-15 21:24:19:758,0,-54.823,1.89665,147.934,Q,Q
2023-03-15 21:24:19:768,0,-54.8233,1.89795,147.934,Q,Q
2023-03-15 21:24:19:778,0,-54.825,1.89754,147.935,Q,Q
2023-03-15 21:24:19:788,0,-54.8244,1.89559,147.935,Q,Q
2023-03-15 21:24:19:798,0,-54.8239,1.89366,147.934,Q,Q
2023-03-15 21:24:19:808,0,-54.8233,1.89672,147.935,Q,Q
2023-03-15 21:24:19:818,0,-54.8216,1.89779,147.938,Q,Q
2023-03-15 21:24:19:828,0,-54.8189,1.89401,147.938,Q,Q
2023-03-15 21:24:19:838,0,-54.821,1.89436,147.935,Q,Q
2023-03-15 21:24:19:848,0,-54.8259,1.89784,147.934,Q,Q
2023-03-15 21:24:19:858,0,-54.8252,1.89968,147.935,Q,Q
2023-03-15 21:24:19:868,0,-54.8241,1.90206,147.937,Q,Q
2023-03-15 21:24:19:878,0,-54.824,1.90495,147.936,Q,Q
2023-03-15 21:24:19:888,0,-54.8218,1.90537,147.936,Q,Q
2023-03-15 21:24:19:898,0,-54.8219,1.90359,147.935,Q,Q
2023-03-15 21:24:19:908,0,-54.8215,1.90702,147.936,Q,Q
2023-03-15 21:24:19:918,0,-54.8218,1.90743,147.932,Q,Q
2023-03-15 21:24:19:928,0,-54.8201,1.90766,147.93,Q,Q
2023-03-15 21:24:19:938,0,-54.8219,1.90683,147.931,Q,Q
2023-03-15 21:24:19:948,0,-54.8202,1.90309,147.933,Q,Q
2023-03-15 21:24:19:958,0,-54.8211,1.90535,147.933,Q,Q
2023-03-15 21:24:19:968,0,-54.8221,1.9019,147.932,Q,Q
2023-03-15 21:24:19:978,0,-54.8216,1.90134,147.929,Q,Q
2023-03-15 21:24:19:988,0,-54.8208,1.90023,147.933,Q,Q
2023-03-15 21:24:19:998,0,-54.8182,1.89892,147.934,Q,Q
2023-03-15 21:24:20:8,0,-54.8207,1.89975,147.934,Q,Q
2023-03-15 21:24:20:18,0,-54.8227,1.90003,147.934,Q,Q
2023-03-15 21:24:20:28,0,-54.8199,1.89954,147.934,Q,Q
2023-03-15 21:24:20:38,0,-54.8183,1.89786,147.932,Q,Q
2023-03-15 21:24:20:48,0,-54.8183,1.89701,147.933,Q,Q
2023-03-15 21:24:20:58,0,-54.8126,1.89522,147.934,Q,Q
2023-03-15 21:24:20:68,0,-54.8138,1.89323,147.932,Q,Q
2023-03-15 21:24:20:78,0,-54.8129,1.89729,147.932,Q,Q
2023-03-15 21:24:20:88,0,-54.8126,1.89978,147.932,Q,Q
2023-03-15 21:24:20:98,0,-54.8102,1.90058,147.934,Q,Q
2023-03-15 21:24:20:107,0,-54.8088,1.89965,147.938,Q,Q
2023-03-15 21:24:20:118,0,-54.8094,1.90022,147.938,Q,Q
2023-03-15 21:24:20:128,0,-54.8091,1.90065,147.937,Q,Q
2023-03-15 21:24:20:138,0,-54.809,1.90155,147.941,Q,Q
2023-03-15 21:24:20:148,0,-54.809,1.9005,147.944,Q,Q
2023-03-15 21:24:20:158,0,-54.812,1.90161,147.944,Q,Q
2023-03-15 21:24:20:168,0,-54.8122,1.90268,147.943,Q,Q
2023-03-15 21:24:20:178,0,-54.8123,1.90323,147.941,Q,Q
2023-03-15 21:24:20:188,0,-54.8125,1.90389,147.94,Q,Q
2023-03-15 21:24:20:198,0,-54.8118,1.90371,147.94,Q,Q
2023-03-15 21:24:20:208,0,-54.8102,1.90435,147.939,Q,Q
2023-03-15 21:24:20:218,0,-54.8097,1.90266,147.94,Q,Q
2023-03-15 21:24:20:228,0,-54.8122,1.90552,147.939,Q,Q
2023-03-15 21:24:20:238,0,-54.8137,1.90627,147.939,Q,Q
2023-03-15 21:24:20:248,0,-54.8137,1.90373,147.942,Q,Q
2023-03-15 21:24:20:258,0,-54.8142,1.89994,147.943,Q,Q
2023-03-15 21:24:20:268,0,-54.8131,1.90011,147.944,Q,Q
2023-03-15 21:24:20:278,0,-54.8137,1.90137,147.945,Q,Q
2023-03-15 21:24:20:288,0,-54.8147,1.90194,147.947,Q,Q
2023-03-15 21:24:20:298,0,-54.8146,1.90424,147.949,Q,Q
2023-03-15 21:24:20:308,0,-54.8115,1.905,147.951,Q,Q
2023-03-15 21:24:20:318,0,-54.8128,1.90526,147.949,Q,Q
2023-03-15 21:24:20:328,0,-54.8114,1.90388,147.947,Q,Q
2023-03-15 21:24:20:338,0,-54.8102,1.90184,147.946,Q,Q
2023-03-15 21:24:20:348,0,-54.8102,1.89915,147.947,Q,Q
2023-03-15 21:24:20:358,0,-54.8105,1.8967,147.948,Q,Q
2023-03-15 21:24:20:368,0,-54.8122,1.89865,147.949,Q,Q
2023-03-15 21:24:20:378,0,-54.812,1.90013,147.947,Q,Q
2023-03-15 21:24:20:388,0,-54.8078,1.90426,147.947,Q,Q
2023-03-15 21:24:20:398,0,-54.8071,1.90544,147.947,Q,Q
2023-03-15 21:24:20:408,0,-54.8095,1.90449,147.948,Q,Q
2023-03-15 21:24:20:418,0,-54.808,1.90236,147.944,Q,Q
2023-03-15 21:24:20:428,0,-54.808,1.90127,147.945,Q,Q
2023-03-15 21:24:20:438,0,-54.8068,1.89995,147.947,Q,Q
2023-03-15 21:24:20:448,0,-54.8068,1.89717,147.944,Q,Q
2023-03-15 21:24:20:458,0,-54.8066,1.8957,147.942,Q,Q
2023-03-15 21:24:20:468,0,-54.8043,1.89412,147.943,Q,Q
2023-03-15 21:24:20:478,0,-54.8032,1.89397,147.944,Q,Q
2023-03-15 21:24:20:488,0,-54.8017,1.89514,147.943,Q,Q
2023-03-15 21:24:20:498,0,-54.7995,1.89553,147.943,Q,Q
2023-03-15 21:24:20:508,0,-54.7994,1.89631,147.949,Q,Q
2023-03-15 21:24:20:518,0,-54.7981,1.89421,147.953,Q,Q
2023-03-15 21:24:20:528,0,-54.7967,1.89298,147.952,Q,Q
2023-03-15 21:24:20:538,0,-54.7985,1.89162,147.952,Q,Q
2023-03-15 21:24:20:548,0,-54.801,1.88954,147.95,Q,Q
2023-03-15 21:24:20:558,0,-54.8007,1.89061,147.948,Q,Q
2023-03-15 21:24:20:568,0,-54.8002,1.89182,147.944,Q,Q
2023-03-15 21:24:20:578,0,-54.7975,1.89109,147.943,Q,Q
2023-03-15 21:24:20:588,0,-54.8012,1.88775,147.941,Q,Q
2023-03-15 21:24:20:598,0,-54.8027,1.88955,147.943,Q,Q
2023-03-15 21:24:20:608,0,-54.8017,1.88617,147.941,Q,Q
2023-03-15 21:24:20:618,0,-54.7983,1.88718,147.943,Q,Q
2023-03-15 21:24:20:628,0,-54.7987,1.88723,147.942,Q,Q
2023-03-15 21:24:20:638,0,-54.7978,1.88495,147.944,Q,Q
2023-03-15 21:24:20:648,0,-54.7987,1.8835,147.942,Q,Q
2023-03-15 21:24:20:658,0,-54.8,1.88286,147.942,Q,Q
2023-03-15 21:24:20:668,0,-54.8049,1.8834,147.935,Q,Q
2023-03-15 21:24:20:678,0,-54.8061,1.88051,147.938,Q,Q
2023-03-15 21:24:20:688,0,-54.8045,1.88026,147.938,Q,Q
2023-03-15 21:24:20:698,0,-54.8059,1.87703,147.939,Q,Q
2023-03-15 21:24:20:708,0,-54.8075,1.87861,147.943,Q,Q
2023-03-15 21:24:20:718,0,-54.8066,1.87739,147.945,Q,Q
2023-03-15 21:24:20:728,0,-54.8081,1.87808,147.945,Q,Q
2023-03-15 21:24:20:738,0,-54.8085,1.87694,147.946,Q,Q
2023-03-15 21:24:20:748,0,-54.8093,1.87641,147.947,Q,Q
2023-03-15 21:24:20:758,0,-54.8092,1.87888,147.947,Q,Q
2023-03-15 21:24:20:768,0,-54.8093,1.87966,147.946,Q,Q
2023-03-15 21:24:20:778,0,-54.8061,1.88068,147.943,Q,Q
2023-03-15 21:24:20:788,0,-54.8073,1.87908,147.943,Q,Q
2023-03-15 21:24:20:798,0,-54.8114,1.88102,147.941,Q,Q
2023-03-15 21:24:20:808,0,-54.8108,1.88218,147.94,Q,Q
2023-03-15 21:24:20:818,0,-54.8135,1.88328,147.94,Q,Q
2023-03-15 21:24:20:828,0,-54.8122,1.88186,147.942,Q,Q
2023-03-15 21:24:20:838,0,-54.8134,1.881,147.942,Q,Q
2023-03-15 21:24:20:848,0,-54.8149,1.8778,147.94,Q,Q
2023-03-15 21:24:20:858,0,-54.8142,1.87949,147.941,Q,Q
2023-03-15 21:24:20:868,0,-54.8124,1.88033,147.939,Q,Q
2023-03-15 21:24:20:878,0,-54.8128,1.88037,147.938,Q,Q
2023-03-15 21:24:20:888,0,-54.8105,1.87896,147.936,Q,Q
2023-03-15 21:24:20:898,0,-54.8083,1.87853,147.935,Q,Q
2023-03-15 21:24:20:908,0,-54.8087,1.8784,147.936,Q,Q
2023-03-15 21:24:20:918,0,-54.8102,1.87804,147.938,Q,Q
2023-03-15 21:24:20:928,0,-54.81,1.87606,147.938,Q,Q
2023-03-15 21:24:20:938,0,-54.8125,1.87411,147.936,Q,Q
2023-03-15 21:24:20:948,0,-54.8113,1.87633,147.935,Q,Q
2023-03-15 21:24:20:958,0,-54.8103,1.87673,147.935,Q,Q
2023-03-15 21:24:20:968,0,-54.8126,1.8777,147.932,Q,Q
2023-03-15 21:24:20:978,0,-54.813,1.88073,147.931,Q,Q
2023-03-15 21:24:20:988,0,-54.8157,1.87886,147.933,Q,Q
2023-03-15 21:24:20:998,0,-54.8183,1.87827,147.931,Q,Q
2023-03-15 21:24:21:8,0,-54.8178,1.87651,147.93,Q,Q
2023-03-15 21:24:21:18,0,-54.8183,1.87395,147.926,Q,Q
2023-03-15 21:24:21:28,0,-54.8165,1.87388,147.924,Q,Q
2023-03-15 21:24:21:38,0,-54.8146,1.87543,147.924,Q,Q
2023-03-15 21:24:21:48,0,-54.8142,1.8761,147.925,Q,Q
2023-03-15 21:24:21:58,0,-54.8139,1.87719,147.928,Q,Q
2023-03-15 21:24:21:68,0,-54.8144,1.87736,147.927,Q,Q
2023-03-15 21:24:21:78,0,-54.8111,1.87802,147.927,Q,Q
2023-03-15 21:24:21:88,0,-54.8128,1.87486,147.927,Q,Q
2023-03-15 21:24:21:98,0,-54.8148,1.87032,147.928,Q,Q
2023-03-15 21:24:21:108,0,-54.8139,1.86922,147.93,Q,Q
2023-03-15 21:24:21:118,0,-54.8148,1.86948,147.932,Q,Q
2023-03-15 21:24:21:127,0,-54.8152,1.87056,147.931,Q,Q
2023-03-15 21:24:21:137,0,-54.8124,1.87299,147.928,Q,Q
2023-03-15 21:24:21:148,0,-54.8114,1.87467,147.927,Q,Q
2023-03-15 21:24:21:158,0,-54.8126,1.87363,147.927,Q,Q
2023-03-15 21:24:21:168,0,-54.8136,1.87288,147.924,Q,Q
2023-03-15 21:24:21:178,0,-54.8132,1.87088,147.923,Q,Q
2023-03-15 21:24:21:188,0,-54.8142,1.87214,147.922,Q,Q
2023-03-15 21:24:21:198,0,-54.8121,1.87094,147.924,Q,Q
2023-03-15 21:24:21:208,0,-54.8138,1.87082,147.922,Q,Q
2023-03-15 21:24:21:217,0,-54.8121,1.86942,147.918,Q,Q
2023-03-15 21:24:21:228,0,-54.8124,1.8696,147.917,Q,Q
2023-03-15 21:24:21:238,0,-54.8112,1.87001,147.917,Q,Q
2023-03-15 21:24:21:248,0,-54.8089,1.86893,147.918,Q,Q
2023-03-15 21:24:21:258,0,-54.8093,1.86721,147.918,Q,Q
2023-03-15 21:24:21:268,0,-54.8092,1.86743,147.919,Q,Q
2023-03-15 21:24:21:278,0,-54.8088,1.86962,147.918,Q,Q
2023-03-15 21:24:21:288,0,-54.8079,1.87002,147.918,Q,Q
2023-03-15 21:24:21:298,0,-54.8041,1.87181,147.919,Q,Q
2023-03-15 21:24:21:308,0,-54.8048,1.86835,147.922,Q,Q
2023-03-15 21:24:21:318,0,-54.8053,1.86871,147.921,Q,Q
2023-03-15 21:24:21:328,0,-54.8031,1.87065,147.923,Q,Q
2023-03-15 21:24:21:338,0,-54.7979,1.86887,147.926,Q,Q
2023-03-15 21:24:21:348,0,-54.7991,1.86696,147.927,Q,Q
2023-03-15 21:24:21:358,0,-54.7966,1.86675,147.931,Q,Q
2023-03-15 21:24:21:368,0,-54.7976,1.86606,147.933,Q,Q
2023-03-15 21:24:21:378,0,-54.7987,1.86853,147.929,Q,Q
2023-03-15 21:24:21:387,0,-54.7971,1.87031,147.93,Q,Q
2023-03-15 21:24:21:398,0,-54.7981,1.87027,147.93,Q,Q
2023-03-15 21:24:21:408,0,-54.7981,1.87038,147.928,Q,Q
2023-03-15 21:24:21:418,0,-54.7974,1.87328,147.931,Q,Q
2023-03-15 21:24:21:428,0,-54.7953,1.87688,147.931,Q,Q
2023-03-15 21:24:21:438,0,-54.7957,1.87778,147.931,Q,Q
2023-03-15 21:24:21:448,0,-54.7958,1.8764,147.927,Q,Q
2023-03-15 21:24:21:458,0,-54.7953,1.87748,147.927,Q,Q
2023-03-15 21:24:21:468,0,-54.7976,1.87944,147.927,Q,Q
2023-03-15 21:24:21:477,0,-54.7984,1.87715,147.926,Q,Q
2023-03-15 21:24:21:487,0,-54.7978,1.88121,147.927,Q,Q
2023-03-15 21:24:21:498,0,-54.7979,1.88369,147.926,Q,Q
2023-03-15 21:24:21:508,0,-54.7955,1.88008,147.927,Q,Q
2023-03-15 21:24:21:518,0,-54.7944,1.87928,147.923,Q,Q
2023-03-15 21:24:21:528,0,-54.7929,1.88024,147.928,Q,Q
2023-03-15 21:24:21:538,0,-54.7931,1.88194,147.932,Q,Q
2023-03-15 21:24:21:548,0,-54.7964,1.87967,147.928,Q,Q
2023-03-15 21:24:21:557,0,-54.7989,1.88218,147.926,Q,Q
2023-03-15 21:24:21:568,0,-54.7975,1.88318,147.924,Q,Q
2023-03-15 21:24:21:578,0,-54.799,1.88181,147.922,Q,Q
2023-03-15 21:24:21:587,0,-54.7997,1.88371,147.92,Q,Q
2023-03-15 21:24:21:598,0,-54.7999,1.88277,147.923,Q,Q
2023-03-15 21:24:21:607,0,-54.7998,1.88029,147.923,Q,Q
2023-03-15 21:24:21:618,0,-54.7985,1.8825,147.923,Q,Q
2023-03-15 21:24:21:628,0,-54.7989,1.87958,147.921,Q,Q
2023-03-15 21:24:21:637,0,-54.7997,1.87952,147.921,Q,Q
2023-03-15 21:24:21:647,0,-54.7974,1.878,147.922,Q,Q
2023-03-15 21:24:21:657,0,-54.7996,1.87621,147.923,Q,Q
2023-03-15 21:24:21:668,0,-54.7988,1.87349,147.923,Q,Q
2023-03-15 21:24:21:677,0,-54.8007,1.87322,147.921,Q,Q
2023-03-15 21:24:21:687,0,-54.7998,1.87633,147.921,Q,Q
2023-03-15 21:24:21:698,0,-54.7982,1.87848,147.922,Q,Q
2023-03-15 21:24:21:708,0,-54.7987,1.87888,147.921,Q,Q
2023-03-15 21:24:21:718,0,-54.7982,1.87831,147.922,Q,Q
2023-03-15 21:24:21:728,0,-54.7991,1.87876,147.922,Q,Q
2023-03-15 21:24:21:738,0,-54.7996,1.87987,147.922,Q,Q
2023-03-15 21:24:21:748,0,-54.7988,1.88081,147.923,Q,Q
2023-03-15 21:24:21:758,0,-54.7944,1.88265,147.923,Q,Q
2023-03-15 21:24:21:768,0,-54.7959,1.88303,147.923,Q,Q
2023-03-15 21:24:21:778,0,-54.7946,1.88472,147.922,Q,Q
2023-03-15 21:24:21:788,0,-54.7969,1.88431,147.921,Q,Q
2023-03-15 21:24:21:798,0,-54.7939,1.88248,147.922,Q,Q
2023-03-15 21:24:21:808,0,-54.7953,1.88158,147.922,Q,Q
2023-03-15 21:24:21:818,0,-54.7952,1.87906,147.922,Q,Q
2023-03-15 21:24:21:828,0,-54.7976,1.87915,147.922,Q,Q
2023-03-15 21:24:21:838,0,-54.8008,1.87922,147.921,Q,Q
2023-03-15 21:24:21:848,0,-54.802,1.8755,147.921,Q,Q
2023-03-15 21:24:21:858,0,-54.8012,1.87186,147.918,Q,Q
2023-03-15 21:24:21:868,0,-54.8039,1.87159,147.916,Q,Q
2023-03-15 21:24:21:878,0,-54.8083,1.86986,147.917,Q,Q
2023-03-15 21:24:21:888,0,-54.8094,1.86872,147.92,Q,Q
2023-03-15 21:24:21:898,0,-54.8104,1.86836,147.92,Q,Q
2023-03-15 21:24:21:908,0,-54.8118,1.86633,147.92,Q,Q
2023-03-15 21:24:21:918,0,-54.813,1.86653,147.919,Q,Q
2023-03-15 21:24:21:928,0,-54.8146,1.86342,147.921,Q,Q
2023-03-15 21:24:21:938,0,-54.8141,1.86462,147.918,Q,Q
2023-03-15 21:24:21:948,0,-54.8157,1.8669,147.914,Q,Q
2023-03-15 21:24:21:958,0,-54.8166,1.86505,147.913,Q,Q
2023-03-15 21:24:21:968,0,-54.8158,1.86489,147.914,Q,Q
2023-03-15 21:24:21:977,0,-54.8192,1.87039,147.915,Q,Q
2023-03-15 21:24:21:987,0,-54.8191,1.87321,147.913,Q,Q
2023-03-15 21:24:21:998,0,-54.8157,1.87181,147.914,Q,Q
2023-03-15 21:24:22:8,0,-54.8158,1.87446,147.915,Q,Q
2023-03-15 21:24:22:17,0,-54.8152,1.87579,147.911,Q,Q
2023-03-15 21:24:22:27,0,-54.8164,1.87358,147.913,Q,Q
2023-03-15 21:24:22:38,0,-54.8192,1.87203,147.915,Q,Q
2023-03-15 21:24:22:48,0,-54.8188,1.87263,147.914,Q,Q
2023-03-15 21:24:22:58,0,-54.82,1.87475,147.914,Q,Q
2023-03-15 21:24:22:68,0,-54.8194,1.8763,147.912,Q,Q
2023-03-15 21:24:22:78,0,-54.8182,1.87702,147.91,Q,Q
2023-03-15 21:24:22:88,0,-54.8173,1.87771,147.913,Q,Q
2023-03-15 21:24:22:98,0,-54.8177,1.87923,147.913,Q,Q
2023-03-15 21:24:22:108,0,-54.821,1.87956,147.914,Q,Q
2023-03-15 21:24:22:118,0,-54.8209,1.87778,147.912,Q,Q
2023-03-15 21:24:22:128,0,-54.82,1.87716,147.91,Q,Q
2023-03-15 21:24:22:137,0,-54.8182,1.87329,147.909,Q,Q
2023-03-15 21:24:22:147,0,-54.8159,1.87521,147.911,Q,Q
2023-03-15 21:24:22:157,0,-54.8126,1.87536,147.91,Q,Q
2023-03-15 21:24:22:167,0,-54.8096,1.87592,147.91,Q,Q
2023-03-15 21:24:22:178,0,-54.8095,1.87473,147.912,Q,Q
2023-03-15 21:24:22:187,0,-54.8066,1.87382,147.911,Q,Q
2023-03-15 21:24:22:197,0,-54.8065,1.87677,147.911,Q,Q
2023-03-15 21:24:22:207,0,-54.8072,1.8766,147.912,Q,Q
2023-03-15 21:24:22:218,0,-54.8096,1.87884,147.911,Q,Q
2023-03-15 21:24:22:228,0,-54.8048,1.87662,147.906,Q,Q
2023-03-15 21:24:22:237,0,-54.804,1.87971,147.904,Q,Q
2023-03-15 21:24:22:247,0,-54.8054,1.88039,147.902,Q,Q
2023-03-15 21:24:22:258,0,-54.8055,1.88085,147.899,Q,Q
2023-03-15 21:24:22:267,0,-54.8064,1.87978,147.898,Q,Q
2023-03-15 21:24:22:278,0,-54.8092,1.88069,147.897,Q,Q
2023-03-15 21:24:22:287,0,-54.8097,1.87977,147.896,Q,Q
2023-03-15 21:24:22:297,0,-54.809,1.87822,147.898,Q,Q
2023-03-15 21:24:22:307,0,-54.8065,1.87729,147.9,Q,Q
2023-03-15 21:24:22:317,0,-54.8099,1.87612,147.901,Q,Q
2023-03-15 21:24:22:327,0,-54.8085,1.87598,147.901,Q,Q
2023-03-15 21:24:22:337,0,-54.8068,1.8769,147.901,Q,Q
2023-03-15 21:24:22:347,0,-54.8057,1.87737,147.903,Q,Q
2023-03-15 21:24:22:358,0,-54.8058,1.87961,147.901,Q,Q
2023-03-15 21:24:22:367,0,-54.8058,1.87892,147.901,Q,Q
2023-03-15 21:24:22:377,0,-54.8073,1.87812,147.902,Q,Q
2023-03-15 21:24:22:387,0,-54.8066,1.87834,147.903,Q,Q
2023-03-15 21:24:22:397,0,-54.8079,1.87798,147.903,Q,Q
2023-03-15 21:24:22:407,0,-54.8083,1.87957,147.901,Q,Q
2023-03-15 21:24:22:417,0,-54.8085,1.87827,147.903,Q,Q
2023-03-15 21:24:22:427,0,-54.8076,1.87702,147.904,Q,Q
2023-03-15 21:24:22:437,0,-54.8083,1.877,147.906,Q,Q
2023-03-15 21:24:22:447,0,-54.8096,1.87563,147.906,Q,Q
2023-03-15 21:24:22:457,0,-54.8112,1.87558,147.908,Q,Q
2023-03-15 21:24:22:467,0,-54.8123,1.87539,147.909,Q,Q
2023-03-15 21:24:22:478,0,-54.8148,1.87766,147.904,Q,Q
2023-03-15 21:24:22:487,0,-54.8143,1.87869,147.905,Q,Q
2023-03-15 21:24:22:497,0,-54.8168,1.87925,147.903,Q,Q
2023-03-15 21:24:22:507,0,-54.8169,1.87997,147.9,Q,Q
2023-03-15 21:24:22:517,0,-54.8142,1.87811,147.899,Q,Q
2023-03-15 21:24:22:527,0,-54.8133,1.87621,147.898,Q,Q
2023-03-15 21:24:22:537,0,-54.8143,1.87819,147.899,Q,Q
2023-03-15 21:24:22:547,0,-54.8138,1.87947,147.895,Q,Q
2023-03-15 21:24:22:557,0,-54.8146,1.88034,147.895,Q,Q
2023-03-15 21:24:22:567,0,-54.8137,1.88016,147.896,Q,Q
2023-03-15 21:24:22:577,0,-54.8132,1.88014,147.895,Q,Q
2023-03-15 21:24:22:587,0,-54.8148,1.88192,147.895,Q,Q
2023-03-15 21:24:22:597,0,-54.8148,1.88273,147.894,Q,Q
2023-03-15 21:24:22:607,0,-54.8126,1.88294,147.896,Q,Q
2023-03-15 21:24:22:617,0,-54.814,1.88419,147.894,Q,Q
2023-03-15 21:24:22:627,0,-54.8161,1.88328,147.895,Q,Q
2023-03-15 21:24:22:637,0,-54.8142,1.88297,147.895,Q,Q
2023-03-15 21:24:22:647,0,-54.8148,1.88246,147.893,Q,Q
2023-03-15 21:24:22:657,0,-54.8159,1.88072,147.893,Q,Q
2023-03-15 21:24:22:667,0,-54.8126,1.88014,147.895,Q,Q
2023-03-15 21:24:22:677,0,-54.8101,1.87891,147.895,Q,Q
2023-03-15 21:24:22:687,0,-54.8086,1.8821,147.896,Q,Q
2023-03-15 21:24:22:697,0,-54.8057,1.87971,147.897,Q,Q
2023-03-15 21:24:22:707,0,-54.8052,1.88075,147.896,Q,Q
2023-03-15 21:24:22:717,0,-54.8067,1.88054,147.894,Q,Q
2023-03-15 21:24:22:727,0,-54.8078,1.87883,147.893,Q,Q
2023-03-15 21:24:22:737,0,-54.806,1.87865,147.891,Q,Q
2023-03-15 21:24:22:747,0,-54.8037,1.87721,147.89,Q,Q
2023-03-15 21:24:22:758,0,-54.8063,1.87616,147.889,Q,Q
2023-03-15 21:24:22:767,0,-54.8062,1.87639,147.891,Q,Q
2023-03-15 21:24:22:778,0,-54.8056,1.87477,147.888,Q,Q
2023-03-15 21:24:22:787,0,-54.8073,1.87345,147.89,Q,Q
2023-03-15 21:24:22:798,0,-54.8071,1.8719,147.892,Q,Q
2023-03-15 21:24:22:807,0,-54.8068,1.87119,147.893,Q,Q
2023-03-15 21:24:22:817,0,-54.8028,1.87005,147.895,Q,Q
2023-03-15 21:24:22:827,0,-54.8007,1.87349,147.895,Q,Q
2023-03-15 21:24:22:837,0,-54.8016,1.87267,147.894,Q,Q
2023-03-15 21:24:22:847,0,-54.8054,1.87124,147.892,Q,Q
2023-03-15 21:24:22:858,0,-54.8082,1.87084,147.893,Q,Q
2023-03-15 21:24:22:867,0,-54.8087,1.86949,147.893,Q,Q
2023-03-15 21:24:22:878,0,-54.8078,1.86831,147.893,Q,Q
2023-03-15 21:24:22:887,0,-54.8072,1.8668,147.894,Q,Q
2023-03-15 21:24:22:898,0,-54.8033,1.86554,147.895,Q,Q
2023-03-15 21:24:22:907,0,-54.7994,1.86302,147.894,Q,Q
2023-03-15 21:24:22:917,0,-54.7974,1.86156,147.895,Q,Q
2023-03-15 21:24:22:927,0,-54.7968,1.86116,147.896,Q,Q
2023-03-15 21:24:22:937,0,-54.7998,1.8594,147.897,Q,Q
2023-03-15 21:24:22:947,0,-54.7997,1.86132,147.895,Q,Q
2023-03-15 21:24:22:958,0,-54.7963,1.86311,147.894,Q,Q
2023-03-15 21:24:22:967,0,-54.7995,1.86372,147.893,Q,Q
2023-03-15 21:24:22:977,0,-54.8019,1.86298,147.893,Q,Q
2023-03-15 21:24:22:987,0,-54.8002,1.86071,147.894,Q,Q
2023-03-15 21:24:22:998,0,-54.7995,1.85891,147.894,Q,Q
2023-03-15 21:24:23:7,0,-54.7999,1.86059,147.894,Q,Q
2023-03-15 21:24:23:17,0,-54.7998,1.86164,147.894,Q,Q
2023-03-15 21:24:23:27,0,-54.8008,1.86316,147.894,Q,Q
2023-03-15 21:24:23:37,0,-54.8004,1.86537,147.893,Q,Q
2023-03-15 21:24:23:47,0,-54.7997,1.86573,147.893,Q,Q
2023-03-15 21:24:23:57,0,-54.7997,1.86731,147.894,Q,Q
