Timestamp_cmd,imu_cmd,roll_delta,pitch_delta,yaw_delta,voice_type,voice_length
2023-03-15 14:19:28:768,0,-0.431174,-3.96049,-20.007,Q,Q
2023-03-15 14:19:28:776,0,-0.424499,-3.95695,-20.0006,Q,Q
2023-03-15 14:19:28:786,0,-0.413096,-3.95435,-19.9936,Q,Q
2023-03-15 14:19:28:796,0,-0.398713,-3.95614,-19.9962,Q,Q
2023-03-15 14:19:28:807,0,-0.389103,-3.95717,-20.0027,Q,Q
2023-03-15 14:19:28:817,0,-0.383703,-3.95891,-20.0131,Q,Q
2023-03-15 14:19:28:827,0,-0.381335,-3.95548,-20.0244,Q,Q
2023-03-15 14:19:28:837,0,-0.380544,-3.95164,-20.0359,Q,Q
2023-03-15 14:19:28:847,0,-0.38654,-3.94457,-20.0356,Q,Q
2023-03-15 14:19:28:857,0,-0.3985,-3.94046,-20.0325,Q,Q
2023-03-15 14:19:28:867,0,-0.415955,-3.94188,-20.0317,Q,Q
2023-03-15 14:19:28:877,0,-0.422681,-3.95155,-20.031,Q,Q
2023-03-15 14:19:28:887,0,-0.412348,-3.956,-20.0328,Q,Q
2023-03-15 14:19:28:897,0,-0.392544,-3.96205,-20.0355,Q,Q
2023-03-15 14:19:28:907,0,-0.372905,-3.9654,-20.0326,Q,Q
2023-03-15 14:19:28:917,0,-0.356208,-3.96738,-20.0294,Q,Q
2023-03-15 14:19:28:927,0,-0.352551,-3.96659,-20.0238,Q,Q
2023-03-15 14:19:28:937,0,-0.348358,-3.9634,-20.0121,Q,Q
2023-03-15 14:19:28:946,0,-0.340526,-3.96883,-19.9963,Q,Q
2023-03-15 14:19:28:957,0,-0.328505,-3.97199,-19.9785,Q,Q
2023-03-15 14:19:28:967,0,-0.32109,-3.9773,-19.9552,Q,Q
2023-03-15 14:19:28:977,0,-0.31683,-3.98307,-19.9331,Q,Q
2023-03-15 14:19:28:987,0,-0.317344,-3.98975,-19.9117,Q,Q
2023-03-15 14:19:28:997,0,-0.315671,-3.99629,-19.8909,Q,Q
2023-03-15 14:19:29:7,0,-0.313636,-3.99625,-19.8738,Q,Q
2023-03-15 14:19:29:17,0,-0.309089,-4.0,-19.8529,Q,Q
2023-03-15 14:19:29:26,0,-0.308263,-4.002,-19.8279,Q,Q
2023-03-15 14:19:29:37,0,-0.302949,-4.00596,-19.8107,Q,Q
2023-03-15 14:19:29:47,0,-0.296111,-4.01309,-19.7924,Q,Q
2023-03-15 14:19:29:57,0,-0.292113,-4.02376,-19.7751,Q,Q
2023-03-15 14:19:29:67,0,-0.291847,-4.03104,-19.7569,Q,Q
2023-03-15 14:19:29:77,0,-0.291992,-4.03635,-19.7443,Q,Q
2023-03-15 14:19:29:87,0,-0.294329,-4.04534,-19.7314,Q,Q
2023-03-15 14:19:29:97,0,-0.29979,-4.05953,-19.7215,Q,Q
2023-03-15 14:19:29:107,0,-0.30946,-4.07201,-19.716,Q,Q
2023-03-15 14:19:29:117,0,-0.324237,-4.08058,-19.7069,Q,Q
2023-03-15 14:19:29:127,0,-0.331195,-4.08923,-19.7039,Q,Q
2023-03-15 14:19:29:137,0,-0.333167,-4.09954,-19.702,Q,Q
2023-03-15 14:19:29:147,0,-0.332159,-4.10088,-19.6998,Q,Q
2023-03-15 14:19:29:157,0,-0.32795,-4.10141,-19.6979,Q,Q
2023-03-15 14:19:29:167,0,-0.323004,-4.09904,-19.6963,Q,Q
2023-03-15 14:19:29:177,0,-0.322962,-4.09615,-19.6935,Q,Q
2023-03-15 14:19:29:187,0,-0.323966,-4.0981,-19.6934,Q,Q
2023-03-15 14:19:29:197,0,-0.327962,-4.0995,-19.6898,Q,Q
2023-03-15 14:19:29:207,0,-0.31531,-4.10357,-19.6934,Q,Q
2023-03-15 14:19:29:216,0,-0.304931,-4.10353,-19.6909,Q,Q
2023-03-15 14:19:29:227,0,-0.299568,-4.10744,-19.6906,Q,Q
2023-03-15 14:19:29:237,0,-0.305439,-4.11151,-19.6957,Q,Q
2023-03-15 14:19:29:247,0,-0.3123,-4.11422,-19.7033,Q,Q
2023-03-15 14:19:29:257,0,-0.319099,-4.11451,-19.7122,Q,Q
2023-03-15 14:19:29:267,0,-0.318501,-4.11542,-19.7121,Q,Q
2023-03-15 14:19:29:277,0,-0.321842,-4.11696,-19.7091,Q,Q
2023-03-15 14:19:29:287,0,-0.334409,-4.12096,-19.7041,Q,Q
2023-03-15 14:19:29:296,0,-0.346816,-4.12706,-19.6982,Q,Q
2023-03-15 14:19:29:306,0,-0.357802,-4.13426,-19.6893,Q,Q
2023-03-15 14:19:29:317,0,-0.366509,-4.14451,-19.6792,Q,Q
2023-03-15 14:19:29:327,0,-0.375095,-4.15511,-19.6697,Q,Q
2023-03-15 14:19:29:337,0,-0.383768,-4.1597,-19.6612,Q,Q
2023-03-15 14:19:29:347,0,-0.389482,-4.163,-19.6553,Q,Q
2023-03-15 14:19:29:356,0,-0.394783,-4.16792,-19.6486,Q,Q
2023-03-15 14:19:29:366,0,-0.404497,-4.17466,-19.6438,Q,Q
2023-03-15 14:19:29:376,0,-0.41867,-4.17991,-19.6355,Q,Q
2023-03-15 14:19:29:386,0,-0.427463,-4.19493,-19.627,Q,Q
2023-03-15 14:19:29:396,0,-0.432014,-4.21941,-19.6182,Q,Q
2023-03-15 14:19:29:406,0,-0.431623,-4.2431,-19.6093,Q,Q
2023-03-15 14:19:29:416,0,-0.434336,-4.26293,-19.6056,Q,Q
2023-03-15 14:19:29:426,0,-0.43285,-4.28033,-19.6109,Q,Q
2023-03-15 14:19:29:436,0,-0.432406,-4.29749,-19.6124,Q,Q
2023-03-15 14:19:29:446,0,-0.432513,-4.31363,-19.6168,Q,Q
2023-03-15 14:19:29:456,0,-0.431814,-4.32786,-19.6226,Q,Q
2023-03-15 14:19:29:466,0,-0.420021,-4.33843,-19.6322,Q,Q
2023-03-15 14:19:29:476,0,-0.403189,-4.35137,-19.6447,Q,Q
2023-03-15 14:19:29:487,0,-0.382398,-4.36137,-19.6605,Q,Q
2023-03-15 14:19:29:496,0,-0.357366,-4.36816,-19.6761,Q,Q
2023-03-15 14:19:29:507,0,-0.334589,-4.37583,-19.6937,Q,Q
2023-03-15 14:19:29:517,0,-0.315121,-4.38324,-19.7117,Q,Q
2023-03-15 14:19:29:527,0,-0.29892,-4.39396,-19.7334,Q,Q
2023-03-15 14:19:29:537,0,-0.280858,-4.40482,-19.7549,Q,Q
2023-03-15 14:19:29:547,0,-0.262312,-4.4216,-19.7757,Q,Q
2023-03-15 14:19:29:557,0,-0.244349,-4.43567,-19.8047,Q,Q
2023-03-15 14:19:29:567,0,-0.229635,-4.45478,-19.8291,Q,Q
2023-03-15 14:19:29:577,0,-0.216458,-4.47094,-19.8554,Q,Q
2023-03-15 14:19:29:586,0,-0.205855,-4.47965,-19.8827,Q,Q
2023-03-15 14:19:29:596,0,-0.197974,-4.48398,-19.9039,Q,Q
2023-03-15 14:19:29:607,0,-0.193911,-4.48481,-19.919,Q,Q
2023-03-15 14:19:29:616,0,-0.184838,-4.48747,-19.927,Q,Q
2023-03-15 14:19:29:626,0,-0.171197,-4.49326,-19.9354,Q,Q
2023-03-15 14:19:29:637,0,-0.158865,-4.50296,-19.9367,Q,Q
2023-03-15 14:19:29:646,0,-0.147556,-4.51277,-19.9369,Q,Q
2023-03-15 14:19:29:656,0,-0.138797,-4.52107,-19.9382,Q,Q
2023-03-15 14:19:29:667,0,-0.134785,-4.52838,-19.9429,Q,Q
2023-03-15 14:19:29:677,0,-0.136003,-4.53166,-19.9483,Q,Q
2023-03-15 14:19:29:687,0,-0.134488,-4.53401,-19.9538,Q,Q
2023-03-15 14:19:29:696,0,-0.137789,-4.53596,-19.9604,Q,Q
2023-03-15 14:19:29:706,0,-0.146133,-4.53571,-19.973,Q,Q
2023-03-15 14:19:29:716,0,-0.159935,-4.53373,-19.9873,Q,Q
2023-03-15 14:19:29:726,0,-0.172591,-4.53093,-20.0008,Q,Q
2023-03-15 14:19:29:736,0,-0.180749,-4.52712,-20.0144,Q,Q
2023-03-15 14:19:29:746,0,-0.18629,-4.527,-20.0243,Q,Q
2023-03-15 14:19:29:756,0,-0.187524,-4.52417,-20.036,Q,Q
2023-03-15 14:19:29:766,0,-0.181768,-4.52256,-20.0477,Q,Q
2023-03-15 14:19:29:777,0,-0.176255,-4.52098,-20.0569,Q,Q
2023-03-15 14:19:29:787,0,-0.168635,-4.52463,-20.065,Q,Q
2023-03-15 14:19:29:797,0,-0.161201,-4.52349,-20.0671,Q,Q
2023-03-15 14:19:29:807,0,-0.149893,-4.52412,-20.0671,Q,Q
2023-03-15 14:19:29:816,0,-0.144776,-4.52391,-20.067,Q,Q
2023-03-15 14:19:29:827,0,-0.135924,-4.52663,-20.0607,Q,Q
2023-03-15 14:19:29:837,0,-0.125963,-4.52791,-20.055,Q,Q
2023-03-15 14:19:29:847,0,-0.110027,-4.52981,-20.0461,Q,Q
2023-03-15 14:19:29:857,0,-0.0967675,-4.53091,-20.0396,Q,Q
2023-03-15 14:19:29:867,0,-0.0864767,-4.53185,-20.0293,Q,Q
2023-03-15 14:19:29:877,0,-0.0746819,-4.53374,-20.0212,Q,Q
2023-03-15 14:19:29:887,0,-0.0640657,-4.53766,-20.0111,Q,Q
2023-03-15 14:19:29:897,0,-0.053889,-4.54184,-20.003,Q,Q
2023-03-15 14:19:29:907,0,-0.0434911,-4.54107,-19.9901,Q,Q
2023-03-15 14:19:29:917,0,-0.0327896,-4.54202,-19.9796,Q,Q
2023-03-15 14:19:29:927,0,-0.0249252,-4.54436,-19.9648,Q,Q
2023-03-15 14:19:29:937,0,-0.0218603,-4.54983,-19.9506,Q,Q
2023-03-15 14:19:29:947,0,-0.0212195,-4.55254,-19.9366,Q,Q
2023-03-15 14:19:29:957,0,-0.0217202,-4.55588,-19.9223,Q,Q
2023-03-15 14:19:29:966,0,-0.0232048,-4.56279,-19.9073,Q,Q
2023-03-15 14:19:29:977,0,-0.0238353,-4.56579,-19.8945,Q,Q
2023-03-15 14:19:29:986,0,-0.0235381,-4.56557,-19.8786,Q,Q
2023-03-15 14:19:29:996,0,-0.0263781,-4.56623,-19.8585,Q,Q
2023-03-15 14:19:30:7,0,-0.0283054,-4.56851,-19.8352,Q,Q
2023-03-15 14:19:30:16,0,-0.0250573,-4.57253,-19.8086,Q,Q
2023-03-15 14:19:30:27,0,-0.021593,-4.57394,-19.7761,Q,Q
2023-03-15 14:19:30:37,0,-0.0140838,-4.58119,-19.7413,Q,Q
2023-03-15 14:19:30:47,0,-0.0109218,-4.58631,-19.7023,Q,Q
2023-03-15 14:19:30:57,0,-0.00544042,-4.59275,-19.6605,Q,Q
2023-03-15 14:19:30:67,0,0.00184441,-4.59611,-19.6155,Q,Q
2023-03-15 14:19:30:77,0,0.00300168,-4.59411,-19.5723,Q,Q
2023-03-15 14:19:30:87,0,0.00473543,-4.59939,-19.524,Q,Q
2023-03-15 14:19:30:96,0,0.00144239,-4.60645,-19.4763,Q,Q
2023-03-15 14:19:30:107,0,-0.00188337,-4.61473,-19.4272,Q,Q
2023-03-15 14:19:30:116,0,0.00210877,-4.62969,-19.3705,Q,Q
2023-03-15 14:19:30:126,0,0.00685585,-4.65177,-19.3136,Q,Q
2023-03-15 14:19:30:136,0,0.0146656,-4.67327,-19.2524,Q,Q
2023-03-15 14:19:30:146,0,0.0218474,-4.69444,-19.1935,Q,Q
2023-03-15 14:19:30:156,0,0.0242965,-4.71107,-19.1319,Q,Q
2023-03-15 14:19:30:166,0,0.0260882,-4.72927,-19.0725,Q,Q
2023-03-15 14:19:30:176,0,0.0207829,-4.74164,-19.0102,Q,Q
2023-03-15 14:19:30:187,0,0.010665,-4.74999,-18.9477,Q,Q
2023-03-15 14:19:30:196,0,-0.00443441,-4.76166,-18.8909,Q,Q
2023-03-15 14:19:30:206,0,-0.0234497,-4.76833,-18.8351,Q,Q
2023-03-15 14:19:30:216,0,-0.0391514,-4.77006,-18.7804,Q,Q
2023-03-15 14:19:30:226,0,-0.0480336,-4.76994,-18.7299,Q,Q
2023-03-15 14:19:30:236,0,-0.0562096,-4.76888,-18.6784,Q,Q
2023-03-15 14:19:30:246,0,-0.0640185,-4.76681,-18.6283,Q,Q
2023-03-15 14:19:30:256,0,-0.0781519,-4.7597,-18.5787,Q,Q
2023-03-15 14:19:30:266,0,-0.090942,-4.75478,-18.5323,Q,Q
2023-03-15 14:19:30:276,0,-0.0967462,-4.75219,-18.4911,Q,Q
2023-03-15 14:19:30:287,0,-0.103961,-4.74942,-18.4522,Q,Q
2023-03-15 14:19:30:297,0,-0.109544,-4.7507,-18.4134,Q,Q
2023-03-15 14:19:30:306,0,-0.112317,-4.74796,-18.3847,Q,Q
2023-03-15 14:19:30:317,0,-0.115943,-4.75371,-18.3568,Q,Q
2023-03-15 14:19:30:327,0,-0.120751,-4.7644,-18.3368,Q,Q
2023-03-15 14:19:30:337,0,-0.12815,-4.77625,-18.3186,Q,Q
2023-03-15 14:19:30:346,0,-0.133987,-4.78195,-18.307,Q,Q
2023-03-15 14:19:30:357,0,-0.138284,-4.78645,-18.2936,Q,Q
2023-03-15 14:19:30:366,0,-0.137933,-4.79141,-18.2775,Q,Q
2023-03-15 14:19:30:376,0,-0.141937,-4.79803,-18.2604,Q,Q
2023-03-15 14:19:30:387,0,-0.146253,-4.80738,-18.2433,Q,Q
2023-03-15 14:19:30:397,0,-0.151448,-4.81305,-18.2223,Q,Q
2023-03-15 14:19:30:406,0,-0.154353,-4.81853,-18.1974,Q,Q
2023-03-15 14:19:30:417,0,-0.152496,-4.81952,-18.1707,Q,Q
2023-03-15 14:19:30:426,0,-0.14917,-4.8185,-18.1475,Q,Q
2023-03-15 14:19:30:437,0,-0.150849,-4.81383,-18.1225,Q,Q
2023-03-15 14:19:30:446,0,-0.151372,-4.81249,-18.0951,Q,Q
2023-03-15 14:19:30:457,0,-0.154136,-4.80889,-18.0692,Q,Q
2023-03-15 14:19:30:466,0,-0.1617,-4.80903,-18.0422,Q,Q
2023-03-15 14:19:30:477,0,-0.176393,-4.79991,-18.0163,Q,Q
2023-03-15 14:19:30:486,0,-0.190876,-4.78781,-17.9889,Q,Q
2023-03-15 14:19:30:496,0,-0.206346,-4.7791,-17.9595,Q,Q
2023-03-15 14:19:30:507,0,-0.215984,-4.77305,-17.9309,Q,Q
2023-03-15 14:19:30:517,0,-0.229874,-4.76635,-17.9034,Q,Q
2023-03-15 14:19:30:527,0,-0.240321,-4.76143,-17.8788,Q,Q
2023-03-15 14:19:30:537,0,-0.24662,-4.7534,-17.856,Q,Q
2023-03-15 14:19:30:547,0,-0.254341,-4.74712,-17.8305,Q,Q
2023-03-15 14:19:30:557,0,-0.258826,-4.74074,-17.808,Q,Q
2023-03-15 14:19:30:567,0,-0.260706,-4.73772,-17.7838,Q,Q
2023-03-15 14:19:30:576,0,-0.263732,-4.73715,-17.763,Q,Q
2023-03-15 14:19:30:586,0,-0.264998,-4.73251,-17.7442,Q,Q
2023-03-15 14:19:30:596,0,-0.265083,-4.72885,-17.7251,Q,Q
2023-03-15 14:19:30:606,0,-0.265069,-4.72649,-17.7073,Q,Q
2023-03-15 14:19:30:616,0,-0.267358,-4.72317,-17.694,Q,Q
2023-03-15 14:19:30:626,0,-0.268055,-4.72059,-17.6792,Q,Q
2023-03-15 14:19:30:636,0,-0.266573,-4.72077,-17.6625,Q,Q
2023-03-15 14:19:30:646,0,-0.262666,-4.72234,-17.6514,Q,Q
2023-03-15 14:19:30:656,0,-0.260367,-4.7217,-17.6384,Q,Q
2023-03-15 14:19:30:666,0,-0.259831,-4.72102,-17.6279,Q,Q
2023-03-15 14:19:30:676,0,-0.260597,-4.72373,-17.6161,Q,Q
2023-03-15 14:19:30:686,0,-0.262489,-4.72559,-17.6074,Q,Q
2023-03-15 14:19:30:696,0,-0.269615,-4.727,-17.5993,Q,Q
2023-03-15 14:19:30:706,0,-0.274683,-4.7307,-17.596,Q,Q
2023-03-15 14:19:30:716,0,-0.280702,-4.73138,-17.595,Q,Q
2023-03-15 14:19:30:726,0,-0.291329,-4.72969,-17.5921,Q,Q
2023-03-15 14:19:30:736,0,-0.298665,-4.73154,-17.5917,Q,Q
2023-03-15 14:19:30:746,0,-0.305633,-4.73214,-17.589,Q,Q
2023-03-15 14:19:30:756,0,-0.314489,-4.73261,-17.5876,Q,Q
2023-03-15 14:19:30:766,0,-0.321211,-4.73325,-17.5858,Q,Q
2023-03-15 14:19:30:776,0,-0.326061,-4.72971,-17.5834,Q,Q
2023-03-15 14:19:30:786,0,-0.324784,-4.72646,-17.5833,Q,Q
2023-03-15 14:19:30:796,0,-0.323639,-4.72407,-17.5818,Q,Q
2023-03-15 14:19:30:806,0,-0.319993,-4.72239,-17.5753,Q,Q
2023-03-15 14:19:30:816,0,-0.316228,-4.71945,-17.5692,Q,Q
2023-03-15 14:19:30:826,0,-0.310788,-4.7142,-17.5647,Q,Q
2023-03-15 14:19:30:836,0,-0.310785,-4.70562,-17.5619,Q,Q
2023-03-15 14:19:30:846,0,-0.310932,-4.69765,-17.56,Q,Q
2023-03-15 14:19:30:856,0,-0.313912,-4.69027,-17.5575,Q,Q
2023-03-15 14:19:30:866,0,-0.31638,-4.68595,-17.5569,Q,Q
2023-03-15 14:19:30:876,0,-0.317851,-4.68835,-17.5507,Q,Q
2023-03-15 14:19:30:886,0,-0.316933,-4.69327,-17.5468,Q,Q
2023-03-15 14:19:30:896,0,-0.313494,-4.701,-17.5441,Q,Q
2023-03-15 14:19:30:906,0,-0.312227,-4.70862,-17.5429,Q,Q
2023-03-15 14:19:30:916,0,-0.316794,-4.70924,-17.5437,Q,Q
2023-03-15 14:19:30:926,0,-0.319068,-4.70661,-17.5479,Q,Q
2023-03-15 14:19:30:936,0,-0.320602,-4.70497,-17.5514,Q,Q
2023-03-15 14:19:30:946,0,-0.322186,-4.69818,-17.5572,Q,Q
2023-03-15 14:19:30:956,0,-0.323283,-4.69445,-17.5605,Q,Q
2023-03-15 14:19:30:967,0,-0.321333,-4.69123,-17.5642,Q,Q
2023-03-15 14:19:30:977,0,-0.326038,-4.68654,-17.5695,Q,Q
2023-03-15 14:19:30:987,0,-0.331545,-4.68423,-17.582,Q,Q
2023-03-15 14:19:30:996,0,-0.339323,-4.67584,-17.5942,Q,Q
2023-03-15 14:19:31:7,0,-0.346434,-4.66953,-17.6101,Q,Q
2023-03-15 14:19:31:17,0,-0.349712,-4.66336,-17.6281,Q,Q
2023-03-15 14:19:31:27,0,-0.357156,-4.65657,-17.6503,Q,Q
2023-03-15 14:19:31:37,0,-0.359188,-4.64802,-17.6665,Q,Q
2023-03-15 14:19:31:47,0,-0.358283,-4.64159,-17.6821,Q,Q
2023-03-15 14:19:31:57,0,-0.353473,-4.63325,-17.6954,Q,Q
2023-03-15 14:19:31:67,0,-0.347619,-4.62583,-17.7084,Q,Q
2023-03-15 14:19:31:77,0,-0.342965,-4.62036,-17.716,Q,Q
2023-03-15 14:19:31:87,0,-0.344078,-4.61828,-17.7215,Q,Q
2023-03-15 14:19:31:96,0,-0.347705,-4.61449,-17.7257,Q,Q
2023-03-15 14:19:31:106,0,-0.351772,-4.61019,-17.7284,Q,Q
2023-03-15 14:19:31:117,0,-0.352805,-4.6022,-17.7304,Q,Q
2023-03-15 14:19:31:127,0,-0.352942,-4.59759,-17.7311,Q,Q
2023-03-15 14:19:31:137,0,-0.352974,-4.59303,-17.7346,Q,Q
2023-03-15 14:19:31:147,0,-0.35275,-4.58908,-17.738,Q,Q
2023-03-15 14:19:31:157,0,-0.354644,-4.58609,-17.7432,Q,Q
2023-03-15 14:19:31:167,0,-0.354022,-4.58056,-17.7504,Q,Q
2023-03-15 14:19:31:177,0,-0.356125,-4.57419,-17.7599,Q,Q
2023-03-15 14:19:31:187,0,-0.358857,-4.56464,-17.7676,Q,Q
2023-03-15 14:19:31:197,0,-0.359797,-4.55357,-17.7712,Q,Q
2023-03-15 14:19:31:207,0,-0.36034,-4.5448,-17.7783,Q,Q
2023-03-15 14:19:31:217,0,-0.362287,-4.53912,-17.7822,Q,Q
2023-03-15 14:19:31:227,0,-0.365839,-4.53383,-17.7868,Q,Q
2023-03-15 14:19:31:237,0,-0.372555,-4.53004,-17.7908,Q,Q
2023-03-15 14:19:31:246,0,-0.381715,-4.52691,-17.7914,Q,Q
2023-03-15 14:19:31:256,0,-0.388388,-4.52402,-17.7926,Q,Q
2023-03-15 14:19:31:267,0,-0.392702,-4.52276,-17.7936,Q,Q
2023-03-15 14:19:31:277,0,-0.398464,-4.52222,-17.7948,Q,Q
2023-03-15 14:19:31:287,0,-0.406027,-4.51537,-17.7981,Q,Q
2023-03-15 14:19:31:297,0,-0.411724,-4.50756,-17.8031,Q,Q
2023-03-15 14:19:31:307,0,-0.420162,-4.50291,-17.8059,Q,Q
2023-03-15 14:19:31:316,0,-0.425922,-4.49639,-17.8073,Q,Q
2023-03-15 14:19:31:326,0,-0.430808,-4.49113,-17.8133,Q,Q
2023-03-15 14:19:31:337,0,-0.433888,-4.48563,-17.8165,Q,Q
2023-03-15 14:19:31:346,0,-0.439608,-4.48508,-17.8221,Q,Q
2023-03-15 14:19:31:357,0,-0.441126,-4.47597,-17.8267,Q,Q
2023-03-15 14:19:31:366,0,-0.444032,-4.46784,-17.8396,Q,Q
2023-03-15 14:19:31:376,0,-0.445966,-4.46086,-17.8514,Q,Q
2023-03-15 14:19:31:386,0,-0.440775,-4.45466,-17.8674,Q,Q
2023-03-15 14:19:31:397,0,-0.44321,-4.44697,-17.8862,Q,Q
2023-03-15 14:19:31:406,0,-0.446777,-4.44094,-17.9058,Q,Q
2023-03-15 14:19:31:416,0,-0.455623,-4.433,-17.9253,Q,Q
2023-03-15 14:19:31:426,0,-0.463377,-4.42338,-17.9458,Q,Q
2023-03-15 14:19:31:436,0,-0.469225,-4.41319,-17.9694,Q,Q
2023-03-15 14:19:31:446,0,-0.473986,-4.40143,-17.9948,Q,Q
2023-03-15 14:19:31:456,0,-0.48104,-4.39213,-18.0192,Q,Q
2023-03-15 14:19:31:466,0,-0.486655,-4.37825,-18.038,Q,Q
2023-03-15 14:19:31:476,0,-0.495742,-4.3654,-18.0596,Q,Q
2023-03-15 14:19:31:486,0,-0.506699,-4.35114,-18.0813,Q,Q
2023-03-15 14:19:31:496,0,-0.514442,-4.34105,-18.1004,Q,Q
2023-03-15 14:19:31:507,0,-0.517917,-4.33258,-18.1203,Q,Q
2023-03-15 14:19:31:516,0,-0.523101,-4.32879,-18.1428,Q,Q
2023-03-15 14:19:31:527,0,-0.530381,-4.32288,-18.1647,Q,Q
2023-03-15 14:19:31:537,0,-0.540232,-4.3157,-18.1879,Q,Q
2023-03-15 14:19:31:547,0,-0.552669,-4.31213,-18.2122,Q,Q
2023-03-15 14:19:31:557,0,-0.561937,-4.31034,-18.2362,Q,Q
2023-03-15 14:19:31:567,0,-0.571728,-4.30738,-18.2616,Q,Q
2023-03-15 14:19:31:577,0,-0.579434,-4.304,-18.2849,Q,Q
2023-03-15 14:19:31:587,0,-0.586878,-4.30425,-18.3105,Q,Q
2023-03-15 14:19:31:597,0,-0.595759,-4.30225,-18.3342,Q,Q
2023-03-15 14:19:31:606,0,-0.60712,-4.30215,-18.352,Q,Q
2023-03-15 14:19:31:617,0,-0.613971,-4.29913,-18.3766,Q,Q
2023-03-15 14:19:31:627,0,-0.622338,-4.28905,-18.4012,Q,Q
2023-03-15 14:19:31:637,0,-0.631966,-4.27931,-18.424,Q,Q
2023-03-15 14:19:31:647,0,-0.641701,-4.27136,-18.4482,Q,Q
2023-03-15 14:19:31:657,0,-0.650381,-4.26213,-18.4703,Q,Q
2023-03-15 14:19:31:667,0,-0.659996,-4.25751,-18.488,Q,Q
2023-03-15 14:19:31:677,0,-0.66554,-4.25571,-18.5016,Q,Q
2023-03-15 14:19:31:687,0,-0.668303,-4.2578,-18.513,Q,Q
2023-03-15 14:19:31:696,0,-0.672592,-4.25933,-18.5274,Q,Q
2023-03-15 14:19:31:706,0,-0.681483,-4.26394,-18.5366,Q,Q
2023-03-15 14:19:31:716,0,-0.689516,-4.26644,-18.5503,Q,Q
2023-03-15 14:19:31:726,0,-0.698761,-4.26452,-18.5644,Q,Q
2023-03-15 14:19:31:736,0,-0.70824,-4.26019,-18.5758,Q,Q
2023-03-15 14:19:31:747,0,-0.715022,-4.2547,-18.5849,Q,Q
2023-03-15 14:19:31:757,0,-0.720761,-4.25184,-18.5939,Q,Q
2023-03-15 14:19:31:766,0,-0.726514,-4.24839,-18.6004,Q,Q
2023-03-15 14:19:31:776,0,-0.731744,-4.24546,-18.6094,Q,Q
2023-03-15 14:19:31:787,0,-0.734816,-4.24229,-18.6197,Q,Q
2023-03-15 14:19:31:797,0,-0.734915,-4.23793,-18.6306,Q,Q
2023-03-15 14:19:31:807,0,-0.736035,-4.23452,-18.6422,Q,Q
2023-03-15 14:19:31:816,0,-0.737867,-4.23015,-18.6505,Q,Q
2023-03-15 14:19:31:827,0,-0.740668,-4.22636,-18.659,Q,Q
2023-03-15 14:19:31:836,0,-0.745458,-4.2229,-18.6656,Q,Q
2023-03-15 14:19:31:847,0,-0.754344,-4.22173,-18.6731,Q,Q
2023-03-15 14:19:31:857,0,-0.761832,-4.22161,-18.679,Q,Q
2023-03-15 14:19:31:866,0,-0.768501,-4.21995,-18.683,Q,Q
2023-03-15 14:19:31:876,0,-0.776124,-4.21675,-18.6906,Q,Q
2023-03-15 14:19:31:886,0,-0.782647,-4.21212,-18.6937,Q,Q
2023-03-15 14:19:31:896,0,-0.782345,-4.20841,-18.6984,Q,Q
2023-03-15 14:19:31:906,0,-0.785449,-4.20471,-18.702,Q,Q
2023-03-15 14:19:31:916,0,-0.788152,-4.20015,-18.7078,Q,Q
2023-03-15 14:19:31:926,0,-0.786909,-4.19798,-18.708,Q,Q
2023-03-15 14:19:31:936,0,-0.782209,-4.19915,-18.7105,Q,Q
2023-03-15 14:19:31:946,0,-0.779495,-4.19919,-18.7131,Q,Q
2023-03-15 14:19:31:956,0,-0.77748,-4.20037,-18.716,Q,Q
2023-03-15 14:19:31:966,0,-0.769825,-4.20181,-18.7217,Q,Q
2023-03-15 14:19:31:976,0,-0.764467,-4.20934,-18.7378,Q,Q
2023-03-15 14:19:31:986,0,-0.755511,-4.22301,-18.7619,Q,Q
2023-03-15 14:19:31:996,0,-0.742141,-4.24072,-18.7948,Q,Q
2023-03-15 14:19:32:6,0,-0.725748,-4.26485,-18.8313,Q,Q
2023-03-15 14:19:32:17,0,-0.71335,-4.29103,-18.8733,Q,Q
2023-03-15 14:19:32:26,0,-0.703254,-4.31972,-18.9224,Q,Q
2023-03-15 14:19:32:37,0,-0.69184,-4.35245,-18.977,Q,Q
2023-03-15 14:19:32:47,0,-0.683631,-4.3799,-19.0314,Q,Q
2023-03-15 14:19:32:57,0,-0.676912,-4.41187,-19.0888,Q,Q
2023-03-15 14:19:32:67,0,-0.672353,-4.43429,-19.1419,Q,Q
2023-03-15 14:19:32:77,0,-0.667868,-4.4532,-19.1913,Q,Q
2023-03-15 14:19:32:87,0,-0.663541,-4.47312,-19.2376,Q,Q
2023-03-15 14:19:32:97,0,-0.660188,-4.48559,-19.2811,Q,Q
2023-03-15 14:19:32:106,0,-0.659007,-4.49684,-19.3173,Q,Q
2023-03-15 14:19:32:117,0,-0.658359,-4.50356,-19.3451,Q,Q
2023-03-15 14:19:32:127,0,-0.658944,-4.51145,-19.3633,Q,Q
2023-03-15 14:19:32:137,0,-0.659255,-4.51127,-19.3722,Q,Q
2023-03-15 14:19:32:147,0,-0.655659,-4.51275,-19.3736,Q,Q
2023-03-15 14:19:32:157,0,-0.65677,-4.50978,-19.3695,Q,Q
2023-03-15 14:19:32:167,0,-0.656065,-4.50616,-19.3589,Q,Q
2023-03-15 14:19:32:177,0,-0.650977,-4.50587,-19.3462,Q,Q
2023-03-15 14:19:32:187,0,-0.650384,-4.50435,-19.3321,Q,Q
2023-03-15 14:19:32:197,0,-0.641421,-4.49746,-19.3194,Q,Q
2023-03-15 14:19:32:207,0,-0.635045,-4.49266,-19.3069,Q,Q
2023-03-15 14:19:32:217,0,-0.628153,-4.49033,-19.2973,Q,Q
2023-03-15 14:19:32:227,0,-0.622896,-4.48897,-19.2936,Q,Q
2023-03-15 14:19:32:237,0,-0.620929,-4.48586,-19.2871,Q,Q
2023-03-15 14:19:32:247,0,-0.614337,-4.48385,-19.2868,Q,Q
2023-03-15 14:19:32:257,0,-0.613098,-4.48118,-19.2859,Q,Q
2023-03-15 14:19:32:267,0,-0.60767,-4.47765,-19.2905,Q,Q
2023-03-15 14:19:32:277,0,-0.601064,-4.4775,-19.2932,Q,Q
2023-03-15 14:19:32:287,0,-0.597874,-4.47772,-19.2951,Q,Q
2023-03-15 14:19:32:297,0,-0.596936,-4.47925,-19.2974,Q,Q
2023-03-15 14:19:32:307,0,-0.595839,-4.47874,-19.2999,Q,Q
2023-03-15 14:19:32:317,0,-0.593669,-4.48021,-19.3002,Q,Q
2023-03-15 14:19:32:327,0,-0.593554,-4.48169,-19.2969,Q,Q
2023-03-15 14:19:32:337,0,-0.595125,-4.48243,-19.2945,Q,Q
2023-03-15 14:19:32:347,0,-0.596146,-4.48037,-19.2916,Q,Q
2023-03-15 14:19:32:357,0,-0.601835,-4.47967,-19.2897,Q,Q
2023-03-15 14:19:32:367,0,-0.606895,-4.47587,-19.2884,Q,Q
2023-03-15 14:19:32:377,0,-0.609141,-4.47189,-19.286,Q,Q
2023-03-15 14:19:32:386,0,-0.618614,-4.46662,-19.2831,Q,Q
2023-03-15 14:19:32:397,0,-0.622744,-4.45936,-19.2798,Q,Q
2023-03-15 14:19:32:407,0,-0.627645,-4.4568,-19.2796,Q,Q
2023-03-15 14:19:32:417,0,-0.630317,-4.45317,-19.2782,Q,Q
2023-03-15 14:19:32:427,0,-0.630174,-4.45038,-19.2749,Q,Q
2023-03-15 14:19:32:437,0,-0.630724,-4.44877,-19.2685,Q,Q
2023-03-15 14:19:32:447,0,-0.628978,-4.45123,-19.2652,Q,Q
2023-03-15 14:19:32:457,0,-0.629597,-4.44594,-19.259,Q,Q
2023-03-15 14:19:32:467,0,-0.626923,-4.44521,-19.2563,Q,Q
2023-03-15 14:19:32:477,0,-0.623445,-4.43756,-19.2572,Q,Q
2023-03-15 14:19:32:487,0,-0.619079,-4.432,-19.2598,Q,Q
2023-03-15 14:19:32:497,0,-0.618386,-4.42676,-19.2596,Q,Q
2023-03-15 14:19:32:507,0,-0.613322,-4.42258,-19.2556,Q,Q
2023-03-15 14:19:32:517,0,-0.601873,-4.42596,-19.2475,Q,Q
2023-03-15 14:19:32:527,0,-0.595306,-4.43222,-19.2422,Q,Q
2023-03-15 14:19:32:537,0,-0.590395,-4.43705,-19.2352,Q,Q
2023-03-15 14:19:32:547,0,-0.583092,-4.43976,-19.2285,Q,Q
2023-03-15 14:19:32:557,0,-0.577049,-4.44475,-19.2208,Q,Q
2023-03-15 14:19:32:567,0,-0.565699,-4.445,-19.2078,Q,Q
2023-03-15 14:19:32:577,0,-0.549242,-4.44622,-19.1918,Q,Q
2023-03-15 14:19:32:587,0,-0.520191,-4.44933,-19.1666,Q,Q
2023-03-15 14:19:32:597,0,-0.483521,-4.45448,-19.1335,Q,Q
2023-03-15 14:19:32:606,0,-0.43072,-4.45702,-19.0955,Q,Q
2023-03-15 14:19:32:617,0,-0.373627,-4.45961,-19.0473,Q,Q
2023-03-15 14:19:32:627,0,-0.312356,-4.45366,-18.9897,Q,Q
2023-03-15 14:19:32:637,0,-0.250509,-4.4507,-18.9295,Q,Q
2023-03-15 14:19:32:647,0,-0.185431,-4.45299,-18.8622,Q,Q
2023-03-15 14:19:32:657,0,-0.113127,-4.46086,-18.7834,Q,Q
2023-03-15 14:19:32:667,0,-0.0298104,-4.46988,-18.6981,Q,Q
2023-03-15 14:19:32:677,0,0.0585767,-4.48139,-18.6038,Q,Q
2023-03-15 14:19:32:687,0,0.152392,-4.49302,-18.5085,Q,Q
2023-03-15 14:19:32:697,0,0.246455,-4.50342,-18.4095,Q,Q
2023-03-15 14:19:32:707,0,0.338802,-4.51576,-18.3092,Q,Q
2023-03-15 14:19:32:717,0,0.432072,-4.52756,-18.2035,Q,Q
2023-03-15 14:19:32:727,0,0.521833,-4.53937,-18.0952,Q,Q
2023-03-15 14:19:32:737,0,0.628611,-4.52249,-17.993,Q,Q
2023-03-15 14:19:32:747,0,0.761812,-4.49546,-17.8955,Q,Q
2023-03-15 14:19:32:757,0,0.910534,-4.47326,-17.7939,Q,Q
2023-03-15 14:19:32:767,0,1.04474,-4.4547,-17.6897,Q,Q
2023-03-15 14:19:32:777,0,1.16075,-4.44061,-17.5899,Q,Q
2023-03-15 14:19:32:787,0,1.27359,-4.42574,-17.4925,Q,Q
2023-03-15 14:19:32:796,0,1.3836,-4.40821,-17.3965,Q,Q
2023-03-15 14:19:32:807,0,1.49009,-4.38685,-17.31,Q,Q
2023-03-15 14:19:32:817,0,1.59082,-4.36442,-17.2313,Q,Q
2023-03-15 14:19:32:827,0,1.68233,-4.33982,-17.1568,Q,Q
2023-03-15 14:19:32:837,0,1.76811,-4.32024,-17.0881,Q,Q
2023-03-15 14:19:32:847,0,1.84777,-4.30133,-17.0278,Q,Q
2023-03-15 14:19:32:857,0,1.92532,-4.28296,-16.9747,Q,Q
2023-03-15 14:19:32:867,0,2.00179,-4.26792,-16.9231,Q,Q
2023-03-15 14:19:32:877,0,2.07493,-4.25504,-16.8747,Q,Q
2023-03-15 14:19:32:886,0,2.13688,-4.24754,-16.8307,Q,Q
2023-03-15 14:19:32:896,0,2.18802,-4.24749,-16.7918,Q,Q
2023-03-15 14:19:32:906,0,2.22754,-4.25397,-16.7568,Q,Q
2023-03-15 14:19:32:917,0,2.2601,-4.26378,-16.7278,Q,Q
2023-03-15 14:19:32:926,0,2.2847,-4.27334,-16.7005,Q,Q
2023-03-15 14:19:32:937,0,2.30756,-4.28263,-16.6768,Q,Q
2023-03-15 14:19:32:946,0,2.32287,-4.28691,-16.6537,Q,Q
2023-03-15 14:19:32:957,0,2.33408,-4.29552,-16.6322,Q,Q
2023-03-15 14:19:32:967,0,2.33883,-4.304,-16.6112,Q,Q
2023-03-15 14:19:32:977,0,2.34003,-4.30948,-16.5919,Q,Q
2023-03-15 14:19:32:987,0,2.34148,-4.31489,-16.5736,Q,Q
2023-03-15 14:19:32:997,0,2.3403,-4.31487,-16.5517,Q,Q
2023-03-15 14:19:33:7,0,2.34073,-4.31746,-16.5322,Q,Q
2023-03-15 14:19:33:17,0,2.33898,-4.31773,-16.5145,Q,Q
2023-03-15 14:19:33:27,0,2.33765,-4.31843,-16.4921,Q,Q
2023-03-15 14:19:33:37,0,2.33431,-4.31852,-16.4739,Q,Q
2023-03-15 14:19:33:47,0,2.32306,-4.32146,-16.4574,Q,Q
2023-03-15 14:19:33:57,0,2.31563,-4.32435,-16.4395,Q,Q
2023-03-15 14:19:33:67,0,2.3037,-4.32409,-16.4242,Q,Q
2023-03-15 14:19:33:77,0,2.29392,-4.32106,-16.4091,Q,Q
2023-03-15 14:19:33:87,0,2.28582,-4.31681,-16.3933,Q,Q
2023-03-15 14:19:33:97,0,2.27615,-4.31722,-16.3826,Q,Q
2023-03-15 14:19:33:107,0,2.27137,-4.31477,-16.3661,Q,Q
2023-03-15 14:19:33:117,0,2.26173,-4.31571,-16.3556,Q,Q
2023-03-15 14:19:33:127,0,2.2556,-4.31979,-16.3436,Q,Q
2023-03-15 14:19:33:137,0,2.24718,-4.32094,-16.3368,Q,Q
2023-03-15 14:19:33:147,0,2.24166,-4.32514,-16.3332,Q,Q
2023-03-15 14:19:33:157,0,2.238,-4.32972,-16.325,Q,Q
2023-03-15 14:19:33:167,0,2.23396,-4.33713,-16.3154,Q,Q
2023-03-15 14:19:33:177,0,2.23031,-4.34092,-16.3127,Q,Q
2023-03-15 14:19:33:187,0,2.22612,-4.34416,-16.3068,Q,Q
2023-03-15 14:19:33:197,0,2.22238,-4.34619,-16.2995,Q,Q
2023-03-15 14:19:33:207,0,2.22473,-4.3484,-16.2906,Q,Q
2023-03-15 14:19:33:217,0,2.22923,-4.35134,-16.2837,Q,Q
2023-03-15 14:19:33:227,0,2.23112,-4.35577,-16.2737,Q,Q
2023-03-15 14:19:33:237,0,2.23688,-4.35572,-16.2648,Q,Q
2023-03-15 14:19:33:247,0,2.24245,-4.35826,-16.2547,Q,Q
2023-03-15 14:19:33:257,0,2.25146,-4.36288,-16.2405,Q,Q
2023-03-15 14:19:33:267,0,2.25695,-4.36962,-16.2227,Q,Q
2023-03-15 14:19:33:277,0,2.26604,-4.37665,-16.2076,Q,Q
2023-03-15 14:19:33:287,0,2.27459,-4.38414,-16.191,Q,Q
2023-03-15 14:19:33:297,0,2.28025,-4.38617,-16.1751,Q,Q
2023-03-15 14:19:33:307,0,2.28276,-4.38785,-16.16,Q,Q
2023-03-15 14:19:33:317,0,2.2882,-4.38766,-16.143,Q,Q
2023-03-15 14:19:33:327,0,2.29484,-4.38751,-16.1259,Q,Q
2023-03-15 14:19:33:337,0,2.30439,-4.38912,-16.106,Q,Q
2023-03-15 14:19:33:347,0,2.31677,-4.4001,-16.0793,Q,Q
2023-03-15 14:19:33:357,0,2.33035,-4.41098,-16.0503,Q,Q
2023-03-15 14:19:33:367,0,2.34073,-4.42094,-16.0232,Q,Q
2023-03-15 14:19:33:377,0,2.35178,-4.4332,-15.9987,Q,Q
2023-03-15 14:19:33:387,0,2.36086,-4.44002,-15.9704,Q,Q
2023-03-15 14:19:33:397,0,2.36995,-4.4486,-15.9409,Q,Q
2023-03-15 14:19:33:407,0,2.37981,-4.45696,-15.9118,Q,Q
2023-03-15 14:19:33:417,0,2.38492,-4.46141,-15.8762,Q,Q
2023-03-15 14:19:33:427,0,2.39018,-4.47154,-15.839,Q,Q
2023-03-15 14:19:33:437,0,2.40075,-4.48252,-15.8022,Q,Q
2023-03-15 14:19:33:447,0,2.41422,-4.49267,-15.769,Q,Q
2023-03-15 14:19:33:457,0,2.43815,-4.50146,-15.7331,Q,Q
2023-03-15 14:19:33:467,0,2.47802,-4.50941,-15.693,Q,Q
2023-03-15 14:19:33:477,0,2.52098,-4.51933,-15.6523,Q,Q
2023-03-15 14:19:33:487,0,2.56518,-4.52759,-15.6036,Q,Q
2023-03-15 14:19:33:497,0,2.60979,-4.52902,-15.5461,Q,Q
2023-03-15 14:19:33:507,0,2.6606,-4.52917,-15.484,Q,Q
2023-03-15 14:19:33:517,0,2.71961,-4.53368,-15.4222,Q,Q
2023-03-15 14:19:33:527,0,2.7703,-4.5393,-15.3564,Q,Q
2023-03-15 14:19:33:537,0,2.8146,-4.53247,-15.2853,Q,Q
2023-03-15 14:19:33:547,0,2.86539,-4.51345,-15.2168,Q,Q
2023-03-15 14:19:33:557,0,2.92855,-4.51059,-15.1479,Q,Q
2023-03-15 14:19:33:567,0,2.98516,-4.51105,-15.0747,Q,Q
2023-03-15 14:19:33:577,0,3.03453,-4.51311,-15.0046,Q,Q
2023-03-15 14:19:33:587,0,3.07922,-4.51955,-14.9361,Q,Q
2023-03-15 14:19:33:597,0,3.12496,-4.53085,-14.8684,Q,Q
2023-03-15 14:19:33:606,0,3.16925,-4.54597,-14.8008,Q,Q
2023-03-15 14:19:33:617,0,3.2104,-4.56086,-14.7344,Q,Q
2023-03-15 14:19:33:626,0,3.25325,-4.5714,-14.6688,Q,Q
2023-03-15 14:19:33:637,0,3.299,-4.58688,-14.6018,Q,Q
2023-03-15 14:19:33:647,0,3.34045,-4.60963,-14.5409,Q,Q
2023-03-15 14:19:33:656,0,3.37574,-4.62619,-14.4838,Q,Q
2023-03-15 14:19:33:667,0,3.40663,-4.62953,-14.4328,Q,Q
2023-03-15 14:19:33:677,0,3.46053,-4.62378,-14.3811,Q,Q
2023-03-15 14:19:33:686,0,3.52326,-4.62859,-14.3296,Q,Q
2023-03-15 14:19:33:697,0,3.57775,-4.64609,-14.274,Q,Q
2023-03-15 14:19:33:707,0,3.61258,-4.66897,-14.2197,Q,Q
2023-03-15 14:19:33:717,0,3.63519,-4.68743,-14.1673,Q,Q
2023-03-15 14:19:33:727,0,3.66395,-4.70493,-14.12,Q,Q
2023-03-15 14:19:33:737,0,3.69687,-4.71915,-14.072,Q,Q
2023-03-15 14:19:33:747,0,3.72613,-4.73468,-14.0244,Q,Q
2023-03-15 14:19:33:757,0,3.74771,-4.74995,-13.9761,Q,Q
2023-03-15 14:19:33:767,0,3.76523,-4.7652,-13.9278,Q,Q
2023-03-15 14:19:33:777,0,3.78368,-4.78725,-13.8822,Q,Q
2023-03-15 14:19:33:787,0,3.80569,-4.80834,-13.8362,Q,Q
2023-03-15 14:19:33:797,0,3.82677,-4.82792,-13.7892,Q,Q
2023-03-15 14:19:33:807,0,3.84583,-4.85044,-13.743,Q,Q
2023-03-15 14:19:33:816,0,3.86789,-4.86809,-13.6924,Q,Q
2023-03-15 14:19:33:827,0,3.8898,-4.89284,-13.6423,Q,Q
2023-03-15 14:19:33:837,0,3.90878,-4.91693,-13.5927,Q,Q
2023-03-15 14:19:33:847,0,3.92448,-4.93436,-13.544,Q,Q
2023-03-15 14:19:33:857,0,3.93881,-4.94889,-13.4944,Q,Q
2023-03-15 14:19:33:867,0,3.95848,-4.95908,-13.4467,Q,Q
2023-03-15 14:19:33:877,0,3.98029,-4.97077,-13.3977,Q,Q
2023-03-15 14:19:33:887,0,3.99971,-4.98232,-13.35,Q,Q
2023-03-15 14:19:33:897,0,4.01806,-4.99092,-13.3034,Q,Q
2023-03-15 14:19:33:907,0,4.03412,-4.99648,-13.2565,Q,Q
2023-03-15 14:19:33:916,0,4.04642,-5.00421,-13.2109,Q,Q
2023-03-15 14:19:33:926,0,4.05671,-5.01147,-13.1716,Q,Q
2023-03-15 14:19:33:937,0,4.06679,-5.02079,-13.1325,Q,Q
2023-03-15 14:19:33:947,0,4.07424,-5.02466,-13.0948,Q,Q
2023-03-15 14:19:33:957,0,4.08155,-5.02818,-13.0617,Q,Q
2023-03-15 14:19:33:967,0,4.09104,-5.03338,-13.0334,Q,Q
2023-03-15 14:19:33:977,0,4.09566,-5.03991,-13.0027,Q,Q
2023-03-15 14:19:33:987,0,4.10159,-5.03877,-12.9799,Q,Q
2023-03-15 14:19:33:997,0,4.10874,-5.0402,-12.9616,Q,Q
2023-03-15 14:19:34:7,0,4.1083,-5.04729,-12.9437,Q,Q
2023-03-15 14:19:34:17,0,4.10722,-5.04904,-12.9278,Q,Q
2023-03-15 14:19:34:27,0,4.1052,-5.05547,-12.9121,Q,Q
2023-03-15 14:19:34:37,0,4.1021,-5.06326,-12.8968,Q,Q
2023-03-15 14:19:34:47,0,4.1026,-5.07018,-12.8847,Q,Q
2023-03-15 14:19:34:57,0,4.10089,-5.07628,-12.8791,Q,Q
2023-03-15 14:19:34:67,0,4.10436,-5.08231,-12.8713,Q,Q
2023-03-15 14:19:34:77,0,4.10942,-5.08804,-12.8589,Q,Q
2023-03-15 14:19:34:87,0,4.11443,-5.0953,-12.8453,Q,Q
2023-03-15 14:19:34:97,0,4.11472,-5.10082,-12.8314,Q,Q
2023-03-15 14:19:34:106,0,4.11803,-5.10741,-12.817,Q,Q
2023-03-15 14:19:34:117,0,4.12056,-5.11231,-12.7999,Q,Q
2023-03-15 14:19:34:127,0,4.12287,-5.11701,-12.7826,Q,Q
2023-03-15 14:19:34:137,0,4.12288,-5.12484,-12.7643,Q,Q
2023-03-15 14:19:34:147,0,4.12833,-5.13679,-12.7441,Q,Q
2023-03-15 14:19:34:157,0,4.13023,-5.14224,-12.7224,Q,Q
2023-03-15 14:19:34:167,0,4.13246,-5.14582,-12.7041,Q,Q
2023-03-15 14:19:34:177,0,4.12947,-5.14991,-12.685,Q,Q
2023-03-15 14:19:34:187,0,4.12328,-5.15372,-12.6646,Q,Q
2023-03-15 14:19:34:197,0,4.11941,-5.15823,-12.6456,Q,Q
2023-03-15 14:19:34:207,0,4.11586,-5.17142,-12.6212,Q,Q
2023-03-15 14:19:34:217,0,4.11225,-5.18475,-12.5947,Q,Q
2023-03-15 14:19:34:227,0,4.11466,-5.20598,-12.5632,Q,Q
2023-03-15 14:19:34:237,0,4.1182,-5.22982,-12.5336,Q,Q
2023-03-15 14:19:34:247,0,4.12174,-5.24135,-12.5103,Q,Q
2023-03-15 14:19:34:257,0,4.12719,-5.25648,-12.4868,Q,Q
2023-03-15 14:19:34:267,0,4.12352,-5.268,-12.4598,Q,Q
2023-03-15 14:19:34:277,0,4.11671,-5.27822,-12.437,Q,Q
2023-03-15 14:19:34:287,0,4.11752,-5.28954,-12.4156,Q,Q
2023-03-15 14:19:34:297,0,4.12038,-5.30053,-12.3884,Q,Q
2023-03-15 14:19:34:307,0,4.12434,-5.31251,-12.3666,Q,Q
2023-03-15 14:19:34:317,0,4.12582,-5.32212,-12.3466,Q,Q
2023-03-15 14:19:34:327,0,4.12172,-5.33156,-12.332,Q,Q
2023-03-15 14:19:34:337,0,4.11428,-5.33731,-12.3147,Q,Q
2023-03-15 14:19:34:347,0,4.10803,-5.34475,-12.3068,Q,Q
2023-03-15 14:19:34:357,0,4.0978,-5.35408,-12.2977,Q,Q
2023-03-15 14:19:34:367,0,4.09092,-5.36285,-12.2913,Q,Q
2023-03-15 14:19:34:377,0,4.07942,-5.37029,-12.2856,Q,Q
2023-03-15 14:19:34:387,0,4.06977,-5.37659,-12.2793,Q,Q
2023-03-15 14:19:34:397,0,4.06146,-5.38205,-12.273,Q,Q
2023-03-15 14:19:34:407,0,4.05621,-5.38565,-12.268,Q,Q
2023-03-15 14:19:34:417,0,4.05163,-5.38999,-12.2602,Q,Q
2023-03-15 14:19:34:427,0,4.0472,-5.38923,-12.2481,Q,Q
2023-03-15 14:19:34:437,0,4.04137,-5.3885,-12.2362,Q,Q
2023-03-15 14:19:34:447,0,4.03767,-5.38526,-12.2254,Q,Q
2023-03-15 14:19:34:457,0,4.03715,-5.37556,-12.2172,Q,Q
2023-03-15 14:19:34:467,0,4.03519,-5.37236,-12.207,Q,Q
2023-03-15 14:19:34:477,0,4.03028,-5.36846,-12.1899,Q,Q
2023-03-15 14:19:34:487,0,4.02916,-5.36797,-12.1704,Q,Q
2023-03-15 14:19:34:497,0,4.02688,-5.36532,-12.1528,Q,Q
2023-03-15 14:19:34:507,0,4.02103,-5.36132,-12.1388,Q,Q
2023-03-15 14:19:34:517,0,4.01516,-5.35595,-12.1273,Q,Q
2023-03-15 14:19:34:527,0,4.01337,-5.34875,-12.1176,Q,Q
2023-03-15 14:19:34:537,0,4.01057,-5.3384,-12.1095,Q,Q
2023-03-15 14:19:34:547,0,4.01173,-5.33184,-12.0991,Q,Q
2023-03-15 14:19:34:557,0,4.01095,-5.32136,-12.0916,Q,Q
2023-03-15 14:19:34:567,0,4.01008,-5.31669,-12.0816,Q,Q
2023-03-15 14:19:34:577,0,4.0059,-5.3123,-12.0727,Q,Q
2023-03-15 14:19:34:587,0,4.00239,-5.30905,-12.0668,Q,Q
2023-03-15 14:19:34:597,0,3.9932,-5.30592,-12.055,Q,Q
2023-03-15 14:19:34:606,0,3.98646,-5.30311,-12.0453,Q,Q
2023-03-15 14:19:34:616,0,3.98207,-5.29903,-12.0358,Q,Q
2023-03-15 14:19:34:627,0,3.97767,-5.2986,-12.027,Q,Q
2023-03-15 14:19:34:637,0,3.97543,-5.29554,-12.0136,Q,Q
2023-03-15 14:19:34:647,0,3.97328,-5.29508,-11.9959,Q,Q
2023-03-15 14:19:34:657,0,3.97345,-5.29563,-11.9809,Q,Q
2023-03-15 14:19:34:667,0,3.97279,-5.29492,-11.9635,Q,Q
2023-03-15 14:19:34:677,0,3.96906,-5.29439,-11.942,Q,Q
2023-03-15 14:19:34:687,0,3.97211,-5.29243,-11.9202,Q,Q
2023-03-15 14:19:34:697,0,3.97514,-5.29042,-11.8969,Q,Q
2023-03-15 14:19:34:707,0,3.97983,-5.28875,-11.8739,Q,Q
2023-03-15 14:19:34:717,0,3.98196,-5.2861,-11.8477,Q,Q
2023-03-15 14:19:34:727,0,3.98885,-5.28143,-11.8255,Q,Q
2023-03-15 14:19:34:737,0,3.99628,-5.27918,-11.8033,Q,Q
2023-03-15 14:19:34:747,0,4.00222,-5.27881,-11.7835,Q,Q
2023-03-15 14:19:34:757,0,4.00342,-5.27772,-11.7661,Q,Q
2023-03-15 14:19:34:767,0,4.00609,-5.27226,-11.7479,Q,Q
2023-03-15 14:19:34:777,0,4.00875,-5.26655,-11.7349,Q,Q
2023-03-15 14:19:34:787,0,4.00495,-5.26706,-11.7241,Q,Q
2023-03-15 14:19:34:797,0,4.00139,-5.26271,-11.7151,Q,Q
2023-03-15 14:19:34:807,0,4.00008,-5.25754,-11.7039,Q,Q
2023-03-15 14:19:34:817,0,3.99971,-5.25275,-11.6985,Q,Q
2023-03-15 14:19:34:827,0,3.99637,-5.24534,-11.6894,Q,Q
2023-03-15 14:19:34:837,0,3.99082,-5.2395,-11.6792,Q,Q
2023-03-15 14:19:34:846,0,3.98738,-5.23215,-11.676,Q,Q
2023-03-15 14:19:34:857,0,3.97905,-5.22593,-11.6709,Q,Q
2023-03-15 14:19:34:867,0,3.97243,-5.22043,-11.6673,Q,Q
2023-03-15 14:19:34:877,0,3.96655,-5.20977,-11.6648,Q,Q
2023-03-15 14:19:34:887,0,3.95969,-5.19819,-11.6632,Q,Q
2023-03-15 14:19:34:897,0,3.95443,-5.19035,-11.6597,Q,Q
2023-03-15 14:19:34:907,0,3.94785,-5.18131,-11.6575,Q,Q
2023-03-15 14:19:34:917,0,3.94144,-5.17197,-11.655,Q,Q
2023-03-15 14:19:34:926,0,3.93709,-5.16091,-11.6487,Q,Q
2023-03-15 14:19:34:936,0,3.9301,-5.14571,-11.6451,Q,Q
2023-03-15 14:19:34:947,0,3.92348,-5.1395,-11.6414,Q,Q
2023-03-15 14:19:34:957,0,3.92,-5.13169,-11.6391,Q,Q
2023-03-15 14:19:34:967,0,3.91327,-5.11954,-11.6371,Q,Q
2023-03-15 14:19:34:977,0,3.9089,-5.1074,-11.6343,Q,Q
2023-03-15 14:19:34:987,0,3.89872,-5.09963,-11.6308,Q,Q
2023-03-15 14:19:34:997,0,3.89188,-5.08693,-11.6266,Q,Q
2023-03-15 14:19:35:7,0,3.88715,-5.07607,-11.6222,Q,Q
2023-03-15 14:19:35:17,0,3.88723,-5.0662,-11.6172,Q,Q
2023-03-15 14:19:35:27,0,3.88824,-5.05952,-11.6136,Q,Q
2023-03-15 14:19:35:37,0,3.88935,-5.04838,-11.6079,Q,Q
2023-03-15 14:19:35:47,0,3.88792,-5.03268,-11.6024,Q,Q
2023-03-15 14:19:35:57,0,3.88644,-5.01383,-11.5971,Q,Q
2023-03-15 14:19:35:67,0,3.88293,-4.99825,-11.5932,Q,Q
2023-03-15 14:19:35:77,0,3.88205,-4.98176,-11.5892,Q,Q
2023-03-15 14:19:35:87,0,3.88837,-4.97403,-11.5785,Q,Q
2023-03-15 14:19:35:97,0,3.89648,-4.96918,-11.5657,Q,Q
2023-03-15 14:19:35:106,0,3.89516,-4.96963,-11.5468,Q,Q
2023-03-15 14:19:35:117,0,3.88785,-4.96658,-11.5325,Q,Q
2023-03-15 14:19:35:127,0,3.87597,-4.96174,-11.5195,Q,Q
2023-03-15 14:19:35:137,0,3.86788,-4.95486,-11.5066,Q,Q
2023-03-15 14:19:35:147,0,3.86468,-4.94351,-11.4881,Q,Q
2023-03-15 14:19:35:157,0,3.86522,-4.931,-11.4721,Q,Q
2023-03-15 14:19:35:167,0,3.86028,-4.91962,-11.4536,Q,Q
2023-03-15 14:19:35:177,0,3.85373,-4.91072,-11.4329,Q,Q
2023-03-15 14:19:35:187,0,3.84547,-4.90663,-11.4157,Q,Q
2023-03-15 14:19:35:197,0,3.83834,-4.89837,-11.3999,Q,Q
2023-03-15 14:19:35:207,0,3.82679,-4.88985,-11.385,Q,Q
2023-03-15 14:19:35:217,0,3.81649,-4.87904,-11.3695,Q,Q
2023-03-15 14:19:35:227,0,3.80408,-4.86796,-11.3581,Q,Q
2023-03-15 14:19:35:237,0,3.79511,-4.85881,-11.3467,Q,Q
2023-03-15 14:19:35:247,0,3.78508,-4.85226,-11.3377,Q,Q
2023-03-15 14:19:35:257,0,3.77501,-4.84232,-11.3284,Q,Q
2023-03-15 14:19:35:267,0,3.76393,-4.83401,-11.3191,Q,Q
2023-03-15 14:19:35:277,0,3.75563,-4.82923,-11.3075,Q,Q
2023-03-15 14:19:35:287,0,3.74169,-4.82275,-11.2955,Q,Q
2023-03-15 14:19:35:297,0,3.72951,-4.81765,-11.2836,Q,Q
2023-03-15 14:19:35:307,0,3.71546,-4.80978,-11.272,Q,Q
2023-03-15 14:19:35:317,0,3.70323,-4.79943,-11.2669,Q,Q
2023-03-15 14:19:35:327,0,3.69417,-4.78784,-11.2644,Q,Q
2023-03-15 14:19:35:337,0,3.68651,-4.77668,-11.259,Q,Q
2023-03-15 14:19:35:347,0,3.68087,-4.76973,-11.2502,Q,Q
2023-03-15 14:19:35:356,0,3.6755,-4.76668,-11.243,Q,Q
2023-03-15 14:19:35:366,0,3.67113,-4.75825,-11.2309,Q,Q
2023-03-15 14:19:35:376,0,3.66799,-4.75181,-11.2216,Q,Q
2023-03-15 14:19:35:387,0,3.66463,-4.74209,-11.2161,Q,Q
2023-03-15 14:19:35:397,0,3.65729,-4.73057,-11.2104,Q,Q
2023-03-15 14:19:35:407,0,3.6521,-4.72195,-11.2057,Q,Q
2023-03-15 14:19:35:417,0,3.64463,-4.71589,-11.2011,Q,Q
2023-03-15 14:19:35:426,0,3.63672,-4.71049,-11.2,Q,Q
2023-03-15 14:19:35:437,0,3.6359,-4.70386,-11.1962,Q,Q
2023-03-15 14:19:35:447,0,3.63729,-4.69912,-11.1943,Q,Q
2023-03-15 14:19:35:457,0,3.63834,-4.69971,-11.1927,Q,Q
2023-03-15 14:19:35:467,0,3.63726,-4.69801,-11.1917,Q,Q
2023-03-15 14:19:35:477,0,3.63424,-4.69755,-11.1934,Q,Q
2023-03-15 14:19:35:487,0,3.62703,-4.69419,-11.1949,Q,Q
2023-03-15 14:19:35:497,0,3.62776,-4.69251,-11.196,Q,Q
2023-03-15 14:19:35:507,0,3.62645,-4.69009,-11.1962,Q,Q
2023-03-15 14:19:35:517,0,3.62758,-4.69035,-11.1911,Q,Q
2023-03-15 14:19:35:527,0,3.63115,-4.68735,-11.1872,Q,Q
2023-03-15 14:19:35:537,0,3.63413,-4.68716,-11.1841,Q,Q
2023-03-15 14:19:35:547,0,3.63701,-4.68719,-11.1781,Q,Q
2023-03-15 14:19:35:557,0,3.64626,-4.68875,-11.1716,Q,Q
2023-03-15 14:19:35:567,0,3.65329,-4.68832,-11.1661,Q,Q
2023-03-15 14:19:35:577,0,3.65966,-4.68739,-11.1587,Q,Q
2023-03-15 14:19:35:587,0,3.66309,-4.68347,-11.1526,Q,Q
2023-03-15 14:19:35:596,0,3.66377,-4.68179,-11.1449,Q,Q
2023-03-15 14:19:35:606,0,3.66618,-4.67844,-11.1369,Q,Q
2023-03-15 14:19:35:616,0,3.66808,-4.67471,-11.132,Q,Q
2023-03-15 14:19:35:627,0,3.66914,-4.67257,-11.1252,Q,Q
2023-03-15 14:19:35:637,0,3.66912,-4.66867,-11.1213,Q,Q
2023-03-15 14:19:35:647,0,3.66474,-4.66705,-11.118,Q,Q
2023-03-15 14:19:35:657,0,3.66266,-4.66274,-11.1112,Q,Q
2023-03-15 14:19:35:667,0,3.66182,-4.65931,-11.1112,Q,Q
2023-03-15 14:19:35:677,0,3.6589,-4.65929,-11.1122,Q,Q
2023-03-15 14:19:35:687,0,3.65213,-4.65655,-11.1146,Q,Q
2023-03-15 14:19:35:697,0,3.64533,-4.65157,-11.1206,Q,Q
2023-03-15 14:19:35:707,0,3.63853,-4.65322,-11.127,Q,Q
2023-03-15 14:19:35:717,0,3.63299,-4.65019,-11.138,Q,Q
2023-03-15 14:19:35:727,0,3.62746,-4.64613,-11.1484,Q,Q
2023-03-15 14:19:35:737,0,3.62461,-4.641,-11.1603,Q,Q
2023-03-15 14:19:35:747,0,3.62095,-4.63724,-11.1704,Q,Q
2023-03-15 14:19:35:757,0,3.61893,-4.63493,-11.1807,Q,Q
2023-03-15 14:19:35:767,0,3.61714,-4.62936,-11.1907,Q,Q
2023-03-15 14:19:35:777,0,3.61322,-4.62081,-11.2004,Q,Q
2023-03-15 14:19:35:787,0,3.61334,-4.61547,-11.2129,Q,Q
2023-03-15 14:19:35:797,0,3.61623,-4.61096,-11.2201,Q,Q
2023-03-15 14:19:35:807,0,3.61837,-4.60617,-11.2283,Q,Q
2023-03-15 14:19:35:817,0,3.62604,-4.60222,-11.2355,Q,Q
2023-03-15 14:19:35:827,0,3.62981,-4.59982,-11.2425,Q,Q
2023-03-15 14:19:35:837,0,3.63306,-4.59506,-11.2509,Q,Q
2023-03-15 14:19:35:847,0,3.63629,-4.59179,-11.2617,Q,Q
2023-03-15 14:19:35:857,0,3.6375,-4.58762,-11.2694,Q,Q
2023-03-15 14:19:35:866,0,3.64158,-4.58313,-11.2724,Q,Q
2023-03-15 14:19:35:876,0,3.64525,-4.57675,-11.2773,Q,Q
2023-03-15 14:19:35:887,0,3.65102,-4.57148,-11.2843,Q,Q
2023-03-15 14:19:35:897,0,3.65125,-4.56474,-11.2905,Q,Q
2023-03-15 14:19:35:907,0,3.65353,-4.55639,-11.2985,Q,Q
2023-03-15 14:19:35:917,0,3.65869,-4.54857,-11.3042,Q,Q
2023-03-15 14:19:35:927,0,3.66273,-4.54437,-11.3079,Q,Q
2023-03-15 14:19:35:937,0,3.67177,-4.54278,-11.3082,Q,Q
2023-03-15 14:19:35:947,0,3.68305,-4.55419,-11.3043,Q,Q
2023-03-15 14:19:35:957,0,3.68735,-4.56398,-11.3028,Q,Q
2023-03-15 14:19:35:967,0,3.68942,-4.57423,-11.3003,Q,Q
2023-03-15 14:19:35:977,0,3.69082,-4.57639,-11.296,Q,Q
2023-03-15 14:19:35:987,0,3.69048,-4.5774,-11.2927,Q,Q
2023-03-15 14:19:35:997,0,3.68823,-4.5763,-11.2848,Q,Q
2023-03-15 14:19:36:7,0,3.68556,-4.57843,-11.2725,Q,Q
2023-03-15 14:19:36:17,0,3.68063,-4.58076,-11.2605,Q,Q
2023-03-15 14:19:36:26,0,3.67592,-4.58346,-11.2454,Q,Q
2023-03-15 14:19:36:36,0,3.67254,-4.58381,-11.2299,Q,Q
2023-03-15 14:19:36:47,0,3.6693,-4.58212,-11.2193,Q,Q
2023-03-15 14:19:36:57,0,3.66529,-4.58039,-11.2084,Q,Q
2023-03-15 14:19:36:67,0,3.66126,-4.5818,-11.1996,Q,Q
2023-03-15 14:19:36:77,0,3.65364,-4.58068,-11.1916,Q,Q
2023-03-15 14:19:36:87,0,3.64914,-4.58444,-11.1864,Q,Q
2023-03-15 14:19:36:97,0,3.64217,-4.58931,-11.1828,Q,Q
2023-03-15 14:19:36:106,0,3.64053,-4.59243,-11.1804,Q,Q
2023-03-15 14:19:36:117,0,3.63886,-4.59805,-11.1837,Q,Q
2023-03-15 14:19:36:127,0,3.63892,-4.6027,-11.1803,Q,Q
2023-03-15 14:19:36:137,0,3.64543,-4.6118,-11.1798,Q,Q
2023-03-15 14:19:36:146,0,3.64883,-4.61861,-11.1822,Q,Q
2023-03-15 14:19:36:156,0,3.6499,-4.62343,-11.1808,Q,Q
2023-03-15 14:19:36:167,0,3.65009,-4.62791,-11.1798,Q,Q
2023-03-15 14:19:36:177,0,3.64876,-4.63166,-11.1781,Q,Q
2023-03-15 14:19:36:187,0,3.65197,-4.63178,-11.1753,Q,Q
2023-03-15 14:19:36:197,0,3.65794,-4.63651,-11.1669,Q,Q
2023-03-15 14:19:36:207,0,3.66425,-4.64261,-11.1547,Q,Q
2023-03-15 14:19:36:216,0,3.6653,-4.64991,-11.1448,Q,Q
2023-03-15 14:19:36:227,0,3.67045,-4.6552,-11.1341,Q,Q
2023-03-15 14:19:36:237,0,3.67137,-4.65455,-11.1263,Q,Q
2023-03-15 14:19:36:247,0,3.67178,-4.65695,-11.1174,Q,Q
2023-03-15 14:19:36:257,0,3.67128,-4.65748,-11.1117,Q,Q
2023-03-15 14:19:36:267,0,3.67307,-4.65828,-11.1047,Q,Q
2023-03-15 14:19:36:277,0,3.67456,-4.65838,-11.0975,Q,Q
2023-03-15 14:19:36:287,0,3.67551,-4.65962,-11.0906,Q,Q
2023-03-15 14:19:36:297,0,3.67833,-4.66376,-11.0842,Q,Q
2023-03-15 14:19:36:307,0,3.67987,-4.66532,-11.0775,Q,Q
2023-03-15 14:19:36:317,0,3.67442,-4.66321,-11.0712,Q,Q
2023-03-15 14:19:36:327,0,3.67171,-4.66566,-11.0643,Q,Q
2023-03-15 14:19:36:337,0,3.67165,-4.67349,-11.0569,Q,Q
2023-03-15 14:19:36:347,0,3.67087,-4.67696,-11.0524,Q,Q
2023-03-15 14:19:36:357,0,3.66726,-4.67947,-11.0463,Q,Q
2023-03-15 14:19:36:367,0,3.66953,-4.68348,-11.0397,Q,Q
2023-03-15 14:19:36:376,0,3.67542,-4.68865,-11.032,Q,Q
2023-03-15 14:19:36:386,0,3.67695,-4.69214,-11.0205,Q,Q
2023-03-15 14:19:36:397,0,3.67995,-4.69618,-11.0094,Q,Q
2023-03-15 14:19:36:407,0,3.68207,-4.69986,-10.999,Q,Q
2023-03-15 14:19:36:417,0,3.68589,-4.70634,-10.9831,Q,Q
2023-03-15 14:19:36:427,0,3.69158,-4.71037,-10.9675,Q,Q
2023-03-15 14:19:36:437,0,3.69776,-4.71354,-10.953,Q,Q
2023-03-15 14:19:36:447,0,3.70233,-4.71731,-10.9368,Q,Q
2023-03-15 14:19:36:457,0,3.70883,-4.72222,-10.9224,Q,Q
2023-03-15 14:19:36:467,0,3.7115,-4.72351,-10.9043,Q,Q
2023-03-15 14:19:36:477,0,3.71706,-4.72772,-10.8903,Q,Q
2023-03-15 14:19:36:487,0,3.71919,-4.72982,-10.8807,Q,Q
2023-03-15 14:19:36:497,0,3.72069,-4.73238,-10.8705,Q,Q
2023-03-15 14:19:36:507,0,3.72051,-4.73609,-10.8588,Q,Q
2023-03-15 14:19:36:517,0,3.72138,-4.74049,-10.8495,Q,Q
2023-03-15 14:19:36:527,0,3.71984,-4.74687,-10.8411,Q,Q
2023-03-15 14:19:36:537,0,3.71949,-4.75061,-10.8351,Q,Q
2023-03-15 14:19:36:547,0,3.71796,-4.75449,-10.8295,Q,Q
2023-03-15 14:19:36:557,0,3.71616,-4.75633,-10.8252,Q,Q
2023-03-15 14:19:36:567,0,3.71498,-4.76173,-10.8179,Q,Q
2023-03-15 14:19:36:576,0,3.7145,-4.76463,-10.8109,Q,Q
2023-03-15 14:19:36:587,0,3.71599,-4.76764,-10.7997,Q,Q
2023-03-15 14:19:36:597,0,3.71854,-4.7736,-10.7908,Q,Q
2023-03-15 14:19:36:606,0,3.71449,-4.77316,-10.7866,Q,Q
2023-03-15 14:19:36:617,0,3.71325,-4.77105,-10.7806,Q,Q
2023-03-15 14:19:36:627,0,3.71215,-4.7719,-10.7772,Q,Q
2023-03-15 14:19:36:637,0,3.71012,-4.77529,-10.7754,Q,Q
2023-03-15 14:19:36:647,0,3.70965,-4.77938,-10.7706,Q,Q
2023-03-15 14:19:36:657,0,3.70655,-4.78458,-10.7688,Q,Q
2023-03-15 14:19:36:667,0,3.70312,-4.78382,-10.7659,Q,Q
2023-03-15 14:19:36:677,0,3.6976,-4.7864,-10.7611,Q,Q
2023-03-15 14:19:36:687,0,3.6926,-4.78913,-10.759,Q,Q
2023-03-15 14:19:36:697,0,3.69136,-4.79012,-10.7492,Q,Q
2023-03-15 14:19:36:707,0,3.69205,-4.79076,-10.745,Q,Q
2023-03-15 14:19:36:717,0,3.69233,-4.791,-10.7396,Q,Q
2023-03-15 14:19:36:727,0,3.69124,-4.7924,-10.7322,Q,Q
2023-03-15 14:19:36:737,0,3.69066,-4.79356,-10.7262,Q,Q
2023-03-15 14:19:36:747,0,3.69185,-4.7935,-10.7218,Q,Q
2023-03-15 14:19:36:757,0,3.69385,-4.78983,-10.7192,Q,Q
2023-03-15 14:19:36:767,0,3.69625,-4.78646,-10.7133,Q,Q
2023-03-15 14:19:36:777,0,3.69767,-4.78155,-10.7122,Q,Q
2023-03-15 14:19:36:787,0,3.6966,-4.78044,-10.7134,Q,Q
2023-03-15 14:19:36:797,0,3.69632,-4.77928,-10.7116,Q,Q
2023-03-15 14:19:36:807,0,3.69984,-4.787,-10.7101,Q,Q
2023-03-15 14:19:36:817,0,3.70368,-4.79671,-10.7046,Q,Q
2023-03-15 14:19:36:827,0,3.7083,-4.80413,-10.6996,Q,Q
2023-03-15 14:19:36:837,0,3.70927,-4.81111,-10.6961,Q,Q
2023-03-15 14:19:36:847,0,3.70481,-4.81439,-10.6928,Q,Q
2023-03-15 14:19:36:857,0,3.70134,-4.81398,-10.6927,Q,Q
2023-03-15 14:19:36:867,0,3.70222,-4.81044,-10.6881,Q,Q
2023-03-15 14:19:36:877,0,3.70297,-4.80769,-10.6779,Q,Q
2023-03-15 14:19:36:887,0,3.7033,-4.80553,-10.6733,Q,Q
2023-03-15 14:19:36:897,0,3.69869,-4.80154,-10.6685,Q,Q
2023-03-15 14:19:36:907,0,3.69489,-4.79885,-10.6627,Q,Q
2023-03-15 14:19:36:917,0,3.69298,-4.79652,-10.6581,Q,Q
2023-03-15 14:19:36:927,0,3.68572,-4.79348,-10.6586,Q,Q
2023-03-15 14:19:36:937,0,3.68123,-4.79292,-10.6641,Q,Q
2023-03-15 14:19:36:947,0,3.67533,-4.79297,-10.6695,Q,Q
2023-03-15 14:19:36:957,0,3.67664,-4.79039,-10.6759,Q,Q
2023-03-15 14:19:36:967,0,3.67571,-4.79149,-10.6841,Q,Q
2023-03-15 14:19:36:977,0,3.67915,-4.79574,-10.6938,Q,Q
2023-03-15 14:19:36:987,0,3.68032,-4.79782,-10.7025,Q,Q
2023-03-15 14:19:36:997,0,3.68199,-4.80264,-10.7045,Q,Q
2023-03-15 14:19:37:7,0,3.6828,-4.80349,-10.707,Q,Q
2023-03-15 14:19:37:17,0,3.6842,-4.80859,-10.7086,Q,Q
2023-03-15 14:19:37:27,0,3.68482,-4.8066,-10.7069,Q,Q
2023-03-15 14:19:37:37,0,3.68867,-4.80321,-10.707,Q,Q
2023-03-15 14:19:37:47,0,3.69484,-4.80062,-10.7028,Q,Q
2023-03-15 14:19:37:57,0,3.70195,-4.79928,-10.7004,Q,Q
2023-03-15 14:19:37:67,0,3.70833,-4.80019,-10.6951,Q,Q
2023-03-15 14:19:37:77,0,3.71364,-4.80542,-10.6848,Q,Q
2023-03-15 14:19:37:87,0,3.71862,-4.81038,-10.6706,Q,Q
2023-03-15 14:19:37:97,0,3.7221,-4.81228,-10.6605,Q,Q
2023-03-15 14:19:37:106,0,3.72578,-4.81431,-10.6561,Q,Q
2023-03-15 14:19:37:117,0,3.72715,-4.81267,-10.6538,Q,Q
2023-03-15 14:19:37:127,0,3.73255,-4.81341,-10.6526,Q,Q
2023-03-15 14:19:37:137,0,3.73527,-4.81314,-10.6504,Q,Q
2023-03-15 14:19:37:147,0,3.72979,-4.81073,-10.6482,Q,Q
2023-03-15 14:19:37:157,0,3.7231,-4.81014,-10.6459,Q,Q
2023-03-15 14:19:37:167,0,3.71718,-4.81067,-10.6461,Q,Q
2023-03-15 14:19:37:177,0,3.70932,-4.80933,-10.6493,Q,Q
2023-03-15 14:19:37:187,0,3.70267,-4.80752,-10.6521,Q,Q
2023-03-15 14:19:37:197,0,3.69951,-4.80889,-10.6563,Q,Q
2023-03-15 14:19:37:207,0,3.69863,-4.80762,-10.6608,Q,Q
2023-03-15 14:19:37:217,0,3.69862,-4.80633,-10.6661,Q,Q
2023-03-15 14:19:37:227,0,3.70224,-4.80637,-10.6681,Q,Q
2023-03-15 14:19:37:237,0,3.7069,-4.80315,-10.6678,Q,Q
2023-03-15 14:19:37:247,0,3.71122,-4.80002,-10.6683,Q,Q
2023-03-15 14:19:37:257,0,3.71577,-4.79803,-10.664,Q,Q
2023-03-15 14:19:37:267,0,3.71809,-4.79794,-10.6579,Q,Q
2023-03-15 14:19:37:277,0,3.7215,-4.79562,-10.6513,Q,Q
2023-03-15 14:19:37:287,0,3.7301,-4.79326,-10.6468,Q,Q
2023-03-15 14:19:37:297,0,3.73625,-4.7856,-10.646,Q,Q
2023-03-15 14:19:37:307,0,3.74586,-4.78,-10.642,Q,Q
2023-03-15 14:19:37:317,0,3.75447,-4.77407,-10.6386,Q,Q
2023-03-15 14:19:37:327,0,3.76353,-4.76896,-10.64,Q,Q
2023-03-15 14:19:37:337,0,3.77337,-4.76423,-10.6401,Q,Q
2023-03-15 14:19:37:347,0,3.77625,-4.75848,-10.6383,Q,Q
2023-03-15 14:19:37:357,0,3.77766,-4.75625,-10.6423,Q,Q
2023-03-15 14:19:37:367,0,3.77492,-4.75042,-10.6473,Q,Q
2023-03-15 14:19:37:377,0,3.77509,-4.74432,-10.6543,Q,Q
2023-03-15 14:19:37:387,0,3.78036,-4.74164,-10.6602,Q,Q
2023-03-15 14:19:37:397,0,3.78748,-4.73803,-10.6654,Q,Q
2023-03-15 14:19:37:407,0,3.793,-4.733,-10.6725,Q,Q
2023-03-15 14:19:37:417,0,3.79657,-4.7243,-10.6746,Q,Q
2023-03-15 14:19:37:427,0,3.80119,-4.71907,-10.68,Q,Q
2023-03-15 14:19:37:437,0,3.80508,-4.71592,-10.6861,Q,Q
2023-03-15 14:19:37:447,0,3.80702,-4.7107,-10.6928,Q,Q
2023-03-15 14:19:37:457,0,3.80985,-4.70476,-10.7,Q,Q
2023-03-15 14:19:37:467,0,3.81207,-4.70222,-10.7077,Q,Q
2023-03-15 14:19:37:477,0,3.81311,-4.69685,-10.7143,Q,Q
2023-03-15 14:19:37:487,0,3.81348,-4.69193,-10.7184,Q,Q
2023-03-15 14:19:37:497,0,3.81834,-4.68676,-10.7252,Q,Q
2023-03-15 14:19:37:507,0,3.81642,-4.68379,-10.7301,Q,Q
2023-03-15 14:19:37:517,0,3.81547,-4.67969,-10.7379,Q,Q
2023-03-15 14:19:37:527,0,3.81091,-4.67482,-10.7438,Q,Q
2023-03-15 14:19:37:537,0,3.81105,-4.67019,-10.7505,Q,Q
2023-03-15 14:19:37:547,0,3.81563,-4.66316,-10.7547,Q,Q
2023-03-15 14:19:37:557,0,3.82067,-4.65985,-10.7598,Q,Q
2023-03-15 14:19:37:567,0,3.82518,-4.65562,-10.7609,Q,Q
2023-03-15 14:19:37:577,0,3.82736,-4.64896,-10.761,Q,Q
2023-03-15 14:19:37:587,0,3.82895,-4.63959,-10.765,Q,Q
2023-03-15 14:19:37:597,0,3.83247,-4.63318,-10.7713,Q,Q
2023-03-15 14:19:37:607,0,3.83413,-4.63034,-10.7739,Q,Q
2023-03-15 14:19:37:617,0,3.83699,-4.63065,-10.7805,Q,Q
2023-03-15 14:19:37:627,0,3.84111,-4.62823,-10.7906,Q,Q
2023-03-15 14:19:37:637,0,3.84427,-4.6229,-10.8045,Q,Q
2023-03-15 14:19:37:647,0,3.84663,-4.61019,-10.8233,Q,Q
2023-03-15 14:19:37:657,0,3.85212,-4.59017,-10.84,Q,Q
2023-03-15 14:19:37:667,0,3.86221,-4.58188,-10.8584,Q,Q
2023-03-15 14:19:37:677,0,3.86882,-4.57247,-10.8739,Q,Q
2023-03-15 14:19:37:687,0,3.87355,-4.56774,-10.8897,Q,Q
2023-03-15 14:19:37:697,0,3.87372,-4.56183,-10.9099,Q,Q
2023-03-15 14:19:37:707,0,3.86727,-4.55372,-10.9299,Q,Q
2023-03-15 14:19:37:717,0,3.86161,-4.55001,-10.9503,Q,Q
2023-03-15 14:19:37:727,0,3.85565,-4.53856,-10.9729,Q,Q
2023-03-15 14:19:37:737,0,3.84773,-4.5245,-10.9992,Q,Q
2023-03-15 14:19:37:747,0,3.84524,-4.50375,-11.0208,Q,Q
2023-03-15 14:19:37:757,0,3.84178,-4.49086,-11.0354,Q,Q
2023-03-15 14:19:37:767,0,3.83733,-4.47984,-11.0515,Q,Q
2023-03-15 14:19:37:777,0,3.82986,-4.46859,-11.0649,Q,Q
2023-03-15 14:19:37:787,0,3.82781,-4.45499,-11.0822,Q,Q
2023-03-15 14:19:37:797,0,3.82493,-4.44192,-11.0987,Q,Q
2023-03-15 14:19:37:807,0,3.82172,-4.42904,-11.1143,Q,Q
2023-03-15 14:19:37:817,0,3.81935,-4.4153,-11.1316,Q,Q
2023-03-15 14:19:37:827,0,3.8202,-4.40308,-11.1468,Q,Q
2023-03-15 14:19:37:837,0,3.81368,-4.39055,-11.1668,Q,Q
2023-03-15 14:19:37:847,0,3.80953,-4.38255,-11.1851,Q,Q
2023-03-15 14:19:37:857,0,3.81045,-4.37731,-11.2081,Q,Q
2023-03-15 14:19:37:866,0,3.81138,-4.3664,-11.2254,Q,Q
2023-03-15 14:19:37:876,0,3.8192,-4.36325,-11.2447,Q,Q
2023-03-15 14:19:37:886,0,3.83048,-4.36768,-11.2627,Q,Q
2023-03-15 14:19:37:896,0,3.83158,-4.36557,-11.2853,Q,Q
2023-03-15 14:19:37:906,0,3.83128,-4.36185,-11.3069,Q,Q
2023-03-15 14:19:37:916,0,3.83255,-4.3515,-11.334,Q,Q
2023-03-15 14:19:37:927,0,3.84258,-4.33856,-11.3701,Q,Q
2023-03-15 14:19:37:937,0,3.85117,-4.32544,-11.411,Q,Q
2023-03-15 14:19:37:947,0,3.85495,-4.31018,-11.465,Q,Q
2023-03-15 14:19:37:956,0,3.86026,-4.27091,-11.5292,Q,Q
2023-03-15 14:19:37:966,0,3.88577,-4.22146,-11.6015,Q,Q
2023-03-15 14:19:37:976,0,3.91365,-4.18207,-11.6813,Q,Q
2023-03-15 14:19:37:987,0,3.93213,-4.14551,-11.7734,Q,Q
2023-03-15 14:19:37:997,0,3.93297,-4.10712,-11.8761,Q,Q
2023-03-15 14:19:38:7,0,3.93361,-4.06237,-11.9922,Q,Q
2023-03-15 14:19:38:17,0,3.94224,-4.01372,-12.1197,Q,Q
2023-03-15 14:19:38:27,0,3.95659,-3.96484,-12.2481,Q,Q
2023-03-15 14:19:38:37,0,3.96805,-3.91429,-12.3816,Q,Q
2023-03-15 14:19:38:47,0,3.97561,-3.86678,-12.5214,Q,Q
2023-03-15 14:19:38:57,0,3.98062,-3.81612,-12.6616,Q,Q
2023-03-15 14:19:38:67,0,3.98742,-3.76637,-12.8113,Q,Q
2023-03-15 14:19:38:77,0,3.99929,-3.71029,-12.9624,Q,Q
2023-03-15 14:19:38:87,0,4.01141,-3.65138,-13.1183,Q,Q
2023-03-15 14:19:38:97,0,4.02189,-3.5923,-13.2737,Q,Q
2023-03-15 14:19:38:106,0,4.02736,-3.53407,-13.4309,Q,Q
2023-03-15 14:19:38:117,0,4.03055,-3.4779,-13.5814,Q,Q
2023-03-15 14:19:38:127,0,4.03364,-3.42193,-13.7284,Q,Q
2023-03-15 14:19:38:136,0,4.03939,-3.36925,-13.8736,Q,Q
2023-03-15 14:19:38:146,0,4.04583,-3.31816,-14.0088,Q,Q
2023-03-15 14:19:38:157,0,4.05257,-3.26994,-14.1365,Q,Q
2023-03-15 14:19:38:167,0,4.06019,-3.22098,-14.2569,Q,Q
2023-03-15 14:19:38:177,0,4.06589,-3.17341,-14.3677,Q,Q
2023-03-15 14:19:38:187,0,4.07718,-3.12763,-14.4691,Q,Q
2023-03-15 14:19:38:197,0,4.08258,-3.08187,-14.56,Q,Q
2023-03-15 14:19:38:207,0,4.08572,-3.03571,-14.6334,Q,Q
2023-03-15 14:19:38:217,0,4.08669,-2.99005,-14.6975,Q,Q
2023-03-15 14:19:38:227,0,4.0888,-2.95303,-14.7481,Q,Q
2023-03-15 14:19:38:237,0,4.0862,-2.92005,-14.7886,Q,Q
2023-03-15 14:19:38:247,0,4.08046,-2.89283,-14.8182,Q,Q
2023-03-15 14:19:38:257,0,4.07852,-2.86574,-14.8434,Q,Q
2023-03-15 14:19:38:267,0,4.08084,-2.84189,-14.855,Q,Q
2023-03-15 14:19:38:277,0,4.08426,-2.81938,-14.8641,Q,Q
2023-03-15 14:19:38:287,0,4.08223,-2.80329,-14.8637,Q,Q
2023-03-15 14:19:38:297,0,4.08576,-2.79049,-14.8632,Q,Q
2023-03-15 14:19:38:307,0,4.08852,-2.78364,-14.8606,Q,Q
2023-03-15 14:19:38:317,0,4.08874,-2.78064,-14.8556,Q,Q
2023-03-15 14:19:38:327,0,4.09048,-2.7788,-14.8529,Q,Q
2023-03-15 14:19:38:337,0,4.09396,-2.77721,-14.8502,Q,Q
2023-03-15 14:19:38:347,0,4.09822,-2.77141,-14.8495,Q,Q
2023-03-15 14:19:38:357,0,4.10448,-2.7696,-14.8497,Q,Q
2023-03-15 14:19:38:367,0,4.10586,-2.77112,-14.8465,Q,Q
2023-03-15 14:19:38:377,0,4.10548,-2.77522,-14.8496,Q,Q
2023-03-15 14:19:38:387,0,4.10624,-2.77792,-14.8571,Q,Q
2023-03-15 14:19:38:397,0,4.11064,-2.77636,-14.8619,Q,Q
2023-03-15 14:19:38:406,0,4.12083,-2.77475,-14.8669,Q,Q
2023-03-15 14:19:38:417,0,4.13177,-2.77339,-14.872,Q,Q
2023-03-15 14:19:38:427,0,4.14258,-2.7759,-14.8771,Q,Q
2023-03-15 14:19:38:437,0,4.14662,-2.77588,-14.8831,Q,Q
2023-03-15 14:19:38:447,0,4.14997,-2.7743,-14.889,Q,Q
2023-03-15 14:19:38:457,0,4.15226,-2.76856,-14.8947,Q,Q
2023-03-15 14:19:38:467,0,4.158,-2.76248,-14.8954,Q,Q
2023-03-15 14:19:38:476,0,4.16016,-2.75792,-14.9,Q,Q
2023-03-15 14:19:38:487,0,4.16496,-2.74827,-14.9041,Q,Q
2023-03-15 14:19:38:497,0,4.169,-2.73881,-14.9082,Q,Q
2023-03-15 14:19:38:507,0,4.17038,-2.72671,-14.9133,Q,Q
2023-03-15 14:19:38:517,0,4.16532,-2.71398,-14.9217,Q,Q
2023-03-15 14:19:38:527,0,4.16466,-2.69884,-14.934,Q,Q
2023-03-15 14:19:38:537,0,4.1652,-2.68265,-14.9412,Q,Q
2023-03-15 14:19:38:547,0,4.17011,-2.67803,-14.9482,Q,Q
2023-03-15 14:19:38:557,0,4.16954,-2.67886,-14.9501,Q,Q
2023-03-15 14:19:38:567,0,4.16849,-2.68077,-14.9497,Q,Q
2023-03-15 14:19:38:577,0,4.16371,-2.67687,-14.9484,Q,Q
2023-03-15 14:19:38:586,0,4.15593,-2.67008,-14.9477,Q,Q
2023-03-15 14:19:38:597,0,4.15235,-2.66061,-14.945,Q,Q
2023-03-15 14:19:38:606,0,4.15042,-2.65464,-14.9388,Q,Q
2023-03-15 14:19:38:617,0,4.14797,-2.64743,-14.9297,Q,Q
2023-03-15 14:19:38:627,0,4.14521,-2.6408,-14.9223,Q,Q
2023-03-15 14:19:38:637,0,4.14232,-2.63629,-14.9111,Q,Q
2023-03-15 14:19:38:647,0,4.14242,-2.63069,-14.9051,Q,Q
2023-03-15 14:19:38:657,0,4.14278,-2.62552,-14.8994,Q,Q
2023-03-15 14:19:38:667,0,4.13944,-2.62108,-14.8959,Q,Q
2023-03-15 14:19:38:677,0,4.13761,-2.61817,-14.8947,Q,Q
2023-03-15 14:19:38:687,0,4.13621,-2.61712,-14.8946,Q,Q
2023-03-15 14:19:38:697,0,4.13661,-2.61796,-14.8979,Q,Q
2023-03-15 14:19:38:707,0,4.13655,-2.62441,-14.8988,Q,Q
2023-03-15 14:19:38:717,0,4.13706,-2.62908,-14.9002,Q,Q
2023-03-15 14:19:38:727,0,4.13845,-2.63575,-14.9014,Q,Q
2023-03-15 14:19:38:737,0,4.14168,-2.64402,-14.9035,Q,Q
2023-03-15 14:19:38:747,0,4.14396,-2.65386,-14.9036,Q,Q
2023-03-15 14:19:38:757,0,4.14388,-2.66267,-14.9054,Q,Q
2023-03-15 14:19:38:767,0,4.14838,-2.66672,-14.9081,Q,Q
2023-03-15 14:19:38:777,0,4.15164,-2.66975,-14.9094,Q,Q
2023-03-15 14:19:38:787,0,4.1543,-2.67481,-14.9066,Q,Q
2023-03-15 14:19:38:797,0,4.15655,-2.67981,-14.9058,Q,Q
2023-03-15 14:19:38:807,0,4.16372,-2.68808,-14.9058,Q,Q
2023-03-15 14:19:38:817,0,4.16941,-2.69846,-14.9029,Q,Q
2023-03-15 14:19:38:827,0,4.17543,-2.70998,-14.8984,Q,Q
2023-03-15 14:19:38:837,0,4.18049,-2.71949,-14.8934,Q,Q
2023-03-15 14:19:38:847,0,4.18787,-2.72773,-14.8927,Q,Q
2023-03-15 14:19:38:857,0,4.19501,-2.73685,-14.8925,Q,Q
2023-03-15 14:19:38:867,0,4.20182,-2.74586,-14.8908,Q,Q
2023-03-15 14:19:38:877,0,4.20698,-2.75548,-14.8886,Q,Q
2023-03-15 14:19:38:887,0,4.20915,-2.7649,-14.8831,Q,Q
2023-03-15 14:19:38:897,0,4.21222,-2.77917,-14.879,Q,Q
2023-03-15 14:19:38:906,0,4.21527,-2.79177,-14.8735,Q,Q
2023-03-15 14:19:38:917,0,4.21915,-2.80096,-14.8681,Q,Q
2023-03-15 14:19:38:927,0,4.22344,-2.81686,-14.8621,Q,Q
2023-03-15 14:19:38:936,0,4.22357,-2.82942,-14.8576,Q,Q
2023-03-15 14:19:38:946,0,4.22781,-2.84147,-14.8502,Q,Q
2023-03-15 14:19:38:956,0,4.22919,-2.85163,-14.8458,Q,Q
2023-03-15 14:19:38:967,0,4.23121,-2.86576,-14.8371,Q,Q
2023-03-15 14:19:38:977,0,4.2316,-2.878,-14.8251,Q,Q
2023-03-15 14:19:38:987,0,4.23617,-2.89026,-14.8147,Q,Q
2023-03-15 14:19:38:996,0,4.23962,-2.9051,-14.8028,Q,Q
2023-03-15 14:19:39:7,0,4.24276,-2.92019,-14.7873,Q,Q
2023-03-15 14:19:39:17,0,4.24513,-2.93301,-14.7758,Q,Q
2023-03-15 14:19:39:27,0,4.24846,-2.94897,-14.7628,Q,Q
2023-03-15 14:19:39:37,0,4.24913,-2.95727,-14.7514,Q,Q
2023-03-15 14:19:39:47,0,4.24936,-2.9656,-14.7413,Q,Q
2023-03-15 14:19:39:57,0,4.25188,-2.9758,-14.7372,Q,Q
2023-03-15 14:19:39:67,0,4.25452,-2.98762,-14.7294,Q,Q
2023-03-15 14:19:39:77,0,4.25707,-2.9996,-14.7217,Q,Q
2023-03-15 14:19:39:87,0,4.25673,-3.01147,-14.712,Q,Q
2023-03-15 14:19:39:97,0,4.25655,-3.02116,-14.7047,Q,Q
2023-03-15 14:19:39:106,0,4.25618,-3.03144,-14.6975,Q,Q
2023-03-15 14:19:39:117,0,4.25514,-3.04359,-14.6907,Q,Q
2023-03-15 14:19:39:127,0,4.25305,-3.05322,-14.6836,Q,Q
2023-03-15 14:19:39:137,0,4.25812,-3.06136,-14.6792,Q,Q
2023-03-15 14:19:39:147,0,4.26067,-3.06828,-14.6745,Q,Q
2023-03-15 14:19:39:157,0,4.26214,-3.07335,-14.6679,Q,Q
2023-03-15 14:19:39:167,0,4.2626,-3.08066,-14.6606,Q,Q
2023-03-15 14:19:39:177,0,4.26175,-3.08455,-14.6544,Q,Q
2023-03-15 14:19:39:187,0,4.2577,-3.08783,-14.6493,Q,Q
2023-03-15 14:19:39:197,0,4.25124,-3.09212,-14.6433,Q,Q
