Timestamp_cmd,imu_cmd,roll_delta,pitch_delta,yaw_delta
2023-03-11 17:23:21:698,0,-0.774957,-0.425071,86.5823
2023-03-11 17:23:21:706,0,-0.809909,-0.427302,86.5787
2023-03-11 17:23:21:716,0,-0.847021,-0.42852,86.5772
2023-03-11 17:23:21:726,0,-0.88911,-0.42661,86.5731
2023-03-11 17:23:21:736,0,-0.930193,-0.425715,86.5744
2023-03-11 17:23:21:746,0,-0.971821,-0.420306,86.5747
2023-03-11 17:23:21:756,0,-1.01444,-0.415104,86.5768
2023-03-11 17:23:21:766,0,-1.0645,-0.407024,86.578
2023-03-11 17:23:21:776,0,-1.12114,-0.398803,86.5802
2023-03-11 17:23:21:786,0,-1.17804,-0.393425,86.5796
2023-03-11 17:23:21:796,0,-1.23112,-0.394442,86.5775
2023-03-11 17:23:21:806,0,-1.27571,-0.394728,86.5713
2023-03-11 17:23:21:816,0,-1.30462,-0.402876,86.557
2023-03-11 17:23:21:826,0,-1.31821,-0.40912,86.5364
2023-03-11 17:23:21:836,0,-1.32199,-0.408231,86.5059
2023-03-11 17:23:21:846,0,-1.3102,-0.393908,86.4683
2023-03-11 17:23:21:856,0,-1.293,-0.376871,86.4284
2023-03-11 17:23:21:866,0,-1.28043,-0.35681,86.3879
2023-03-11 17:23:21:876,0,-1.27489,-0.337555,86.3465
2023-03-11 17:23:21:886,0,-1.26874,-0.319679,86.3062
2023-03-11 17:23:21:896,0,-1.26476,-0.300646,86.2673
2023-03-11 17:23:21:906,0,-1.26032,-0.273537,86.2293
2023-03-11 17:23:21:916,0,-1.25243,-0.244207,86.1968
2023-03-11 17:23:21:926,0,-1.24254,-0.210816,86.1635
2023-03-11 17:23:21:936,0,-1.2294,-0.176128,86.1336
2023-03-11 17:23:21:946,0,-1.22513,-0.14331,86.1051
2023-03-11 17:23:21:956,0,-1.22754,-0.11788,86.0801
2023-03-11 17:23:21:966,0,-1.24147,-0.0977401,86.0578
2023-03-11 17:23:21:976,0,-1.26619,-0.0855361,86.0401
2023-03-11 17:23:21:986,0,-1.30237,-0.0866266,86.0267
2023-03-11 17:23:21:996,0,-1.3478,-0.0936239,86.0248
2023-03-11 17:23:22:6,0,-1.39643,-0.11039,86.024
2023-03-11 17:23:22:16,0,-1.44883,-0.131223,86.0261
2023-03-11 17:23:22:26,0,-1.50116,-0.154243,86.0312
2023-03-11 17:23:22:36,0,-1.54445,-0.173961,86.0409
2023-03-11 17:23:22:46,0,-1.58456,-0.19322,86.0499
2023-03-11 17:23:22:56,0,-1.62156,-0.216043,86.0589
2023-03-11 17:23:22:66,0,-1.65511,-0.236809,86.0717
2023-03-11 17:23:22:76,0,-1.69413,-0.259563,86.088
2023-03-11 17:23:22:86,0,-1.73651,-0.279466,86.1039
2023-03-11 17:23:22:96,0,-1.77349,-0.299343,86.1227
2023-03-11 17:23:22:106,0,-1.80531,-0.315445,86.1358
2023-03-11 17:23:22:116,0,-1.83045,-0.333383,86.1524
2023-03-11 17:23:22:126,0,-1.85078,-0.352546,86.1664
2023-03-11 17:23:22:136,0,-1.86809,-0.367401,86.1794
2023-03-11 17:23:22:146,0,-1.88535,-0.382557,86.1868
2023-03-11 17:23:22:156,0,-1.89417,-0.394595,86.1883
2023-03-11 17:23:22:166,0,-1.89646,-0.403117,86.1819
2023-03-11 17:23:22:176,0,-1.89559,-0.404948,86.1676
2023-03-11 17:23:22:186,0,-1.8903,-0.411268,86.1469
2023-03-11 17:23:22:196,0,-1.88759,-0.412131,86.1238
2023-03-11 17:23:22:206,0,-1.8893,-0.416722,86.1008
2023-03-11 17:23:22:216,0,-1.89355,-0.427038,86.0796
2023-03-11 17:23:22:226,0,-1.89731,-0.436081,86.056
2023-03-11 17:23:22:236,0,-1.89386,-0.447165,86.0371
2023-03-11 17:23:22:246,0,-1.89298,-0.462154,86.0192
2023-03-11 17:23:22:256,0,-1.89295,-0.481131,86.0098
2023-03-11 17:23:22:266,0,-1.90121,-0.494702,86.0045
2023-03-11 17:23:22:276,0,-1.91299,-0.506978,86.0068
2023-03-11 17:23:22:286,0,-1.92574,-0.514448,86.0076
2023-03-11 17:23:22:296,0,-1.95011,-0.523497,86.0159
2023-03-11 17:23:22:306,0,-1.97918,-0.529659,86.0253
2023-03-11 17:23:22:316,0,-2.00603,-0.533615,86.0388
2023-03-11 17:23:22:326,0,-2.0243,-0.539537,86.0555
2023-03-11 17:23:22:336,0,-2.02869,-0.551419,86.0773
2023-03-11 17:23:22:346,0,-2.0325,-0.561623,86.1038
2023-03-11 17:23:22:356,0,-2.03877,-0.5733,86.1302
2023-03-11 17:23:22:366,0,-2.05455,-0.580849,86.1517
2023-03-11 17:23:22:376,0,-2.07642,-0.587605,86.1714
2023-03-11 17:23:22:386,0,-2.10367,-0.594841,86.1921
2023-03-11 17:23:22:396,0,-2.13349,-0.598901,86.209
2023-03-11 17:23:22:406,0,-2.16582,-0.606369,86.2242
2023-03-11 17:23:22:416,0,-2.2037,-0.616694,86.2417
2023-03-11 17:23:22:426,0,-2.23553,-0.63281,86.2611
2023-03-11 17:23:22:436,0,-2.26055,-0.655326,86.2842
2023-03-11 17:23:22:446,0,-2.2837,-0.672257,86.3091
2023-03-11 17:23:22:456,0,-2.30446,-0.692447,86.335
2023-03-11 17:23:22:466,0,-2.32317,-0.715453,86.3649
2023-03-11 17:23:22:476,0,-2.33951,-0.740189,86.3894
2023-03-11 17:23:22:486,0,-2.35591,-0.758769,86.4169
2023-03-11 17:23:22:496,0,-2.37188,-0.776763,86.4416
2023-03-11 17:23:22:506,0,-2.38937,-0.791568,86.4589
2023-03-11 17:23:22:516,0,-2.40798,-0.796834,86.4705
2023-03-11 17:23:22:526,0,-2.42047,-0.803429,86.4767
2023-03-11 17:23:22:536,0,-2.42935,-0.807687,86.4791
2023-03-11 17:23:22:546,0,-2.43176,-0.812518,86.4738
2023-03-11 17:23:22:556,0,-2.42778,-0.816915,86.4638
2023-03-11 17:23:22:566,0,-2.41658,-0.818615,86.4499
2023-03-11 17:23:22:576,0,-2.40003,-0.818932,86.4342
2023-03-11 17:23:22:586,0,-2.38132,-0.8213,86.4198
2023-03-11 17:23:22:596,0,-2.36492,-0.820047,86.4034
2023-03-11 17:23:22:606,0,-2.352,-0.822803,86.388
2023-03-11 17:23:22:616,0,-2.3355,-0.822785,86.3756
2023-03-11 17:23:22:626,0,-2.31967,-0.817986,86.3646
2023-03-11 17:23:22:636,0,-2.30095,-0.805927,86.3541
2023-03-11 17:23:22:646,0,-2.28271,-0.789081,86.3439
2023-03-11 17:23:22:656,0,-2.26646,-0.772293,86.3358
2023-03-11 17:23:22:666,0,-2.25362,-0.76002,86.3288
2023-03-11 17:23:22:676,0,-2.24175,-0.755536,86.3267
2023-03-11 17:23:22:686,0,-2.23579,-0.757477,86.3299
2023-03-11 17:23:22:696,0,-2.24204,-0.768604,86.3426
2023-03-11 17:23:22:706,0,-2.2577,-0.787859,86.3598
2023-03-11 17:23:22:716,0,-2.27899,-0.817372,86.3829
2023-03-11 17:23:22:726,0,-2.29679,-0.847817,86.4077
2023-03-11 17:23:22:736,0,-2.31375,-0.881036,86.4313
2023-03-11 17:23:22:746,0,-2.32096,-0.915534,86.4495
2023-03-11 17:23:22:756,0,-2.32601,-0.944469,86.4596
2023-03-11 17:23:22:766,0,-2.32096,-0.972001,86.4671
2023-03-11 17:23:22:776,0,-2.31968,-0.991909,86.4626
2023-03-11 17:23:22:786,0,-2.31978,-1.00871,86.4553
2023-03-11 17:23:22:796,0,-2.32083,-1.01995,86.4402
2023-03-11 17:23:22:806,0,-2.32353,-1.0257,86.4252
2023-03-11 17:23:22:816,0,-2.3304,-1.0287,86.4098
2023-03-11 17:23:22:826,0,-2.34898,-1.02717,86.3926
2023-03-11 17:23:22:836,0,-2.36862,-1.02371,86.3829
2023-03-11 17:23:22:846,0,-2.39297,-1.02221,86.3804
2023-03-11 17:23:22:856,0,-2.41987,-1.02615,86.381
2023-03-11 17:23:22:866,0,-2.44418,-1.03294,86.3883
2023-03-11 17:23:22:876,0,-2.4638,-1.04366,86.405
2023-03-11 17:23:22:886,0,-2.47171,-1.05752,86.4171
2023-03-11 17:23:22:896,0,-2.46334,-1.07662,86.4282
2023-03-11 17:23:22:906,0,-2.44521,-1.09766,86.4414
2023-03-11 17:23:22:916,0,-2.42748,-1.12367,86.4573
2023-03-11 17:23:22:926,0,-2.41377,-1.15434,86.4739
2023-03-11 17:23:22:936,0,-2.40265,-1.18155,86.4899
2023-03-11 17:23:22:946,0,-2.39224,-1.20787,86.5056
2023-03-11 17:23:22:956,0,-2.37789,-1.23147,86.5225
2023-03-11 17:23:22:966,0,-2.36695,-1.2527,86.5395
2023-03-11 17:23:22:976,0,-2.35008,-1.26643,86.5582
2023-03-11 17:23:22:986,0,-2.3397,-1.27747,86.5756
2023-03-11 17:23:22:996,0,-2.3283,-1.28684,86.5869
2023-03-11 17:23:23:6,0,-2.31513,-1.29246,86.5943
2023-03-11 17:23:23:16,0,-2.29461,-1.29629,86.5999
2023-03-11 17:23:23:26,0,-2.26502,-1.30061,86.6056
2023-03-11 17:23:23:36,0,-2.23275,-1.29954,86.607
2023-03-11 17:23:23:46,0,-2.19952,-1.29388,86.6055
2023-03-11 17:23:23:56,0,-2.17597,-1.28683,86.6052
2023-03-11 17:23:23:66,0,-2.14905,-1.27192,86.6017
2023-03-11 17:23:23:76,0,-2.1326,-1.25377,86.6009
2023-03-11 17:23:23:86,0,-2.1219,-1.23713,86.6032
2023-03-11 17:23:23:96,0,-2.11316,-1.21399,86.6055
2023-03-11 17:23:23:106,0,-2.11713,-1.19596,86.6102
2023-03-11 17:23:23:116,0,-2.12434,-1.17277,86.6162
2023-03-11 17:23:23:126,0,-2.13868,-1.15312,86.6243
2023-03-11 17:23:23:136,0,-2.15581,-1.14224,86.6305
2023-03-11 17:23:23:146,0,-2.17336,-1.13653,86.6342
2023-03-11 17:23:23:156,0,-2.19085,-1.12947,86.6343
2023-03-11 17:23:23:166,0,-2.20877,-1.12777,86.6253
2023-03-11 17:23:23:176,0,-2.22469,-1.12356,86.6124
2023-03-11 17:23:23:186,0,-2.23949,-1.12171,86.5937
2023-03-11 17:23:23:196,0,-2.25219,-1.11566,86.5713
2023-03-11 17:23:23:206,0,-2.26855,-1.1066,86.5476
2023-03-11 17:23:23:216,0,-2.28393,-1.09388,86.5177
2023-03-11 17:23:23:226,0,-2.29723,-1.0745,86.4869
2023-03-11 17:23:23:236,0,-2.31191,-1.05785,86.4616
2023-03-11 17:23:23:246,0,-2.32512,-1.0388,86.4387
2023-03-11 17:23:23:256,0,-2.33629,-1.01858,86.4195
2023-03-11 17:23:23:266,0,-2.34695,-0.996317,86.3977
2023-03-11 17:23:23:276,0,-2.35545,-0.970347,86.3792
2023-03-11 17:23:23:286,0,-2.36453,-0.947502,86.3624
2023-03-11 17:23:23:296,0,-2.37935,-0.923705,86.35
2023-03-11 17:23:23:306,0,-2.39928,-0.90709,86.3413
2023-03-11 17:23:23:316,0,-2.41759,-0.89944,86.3346
2023-03-11 17:23:23:326,0,-2.43895,-0.887885,86.3263
2023-03-11 17:23:23:336,0,-2.4593,-0.877009,86.3217
2023-03-11 17:23:23:346,0,-2.48367,-0.869869,86.3202
2023-03-11 17:23:23:356,0,-2.50742,-0.862732,86.3164
2023-03-11 17:23:23:366,0,-2.53276,-0.860013,86.3151
2023-03-11 17:23:23:376,0,-2.55684,-0.858713,86.3148
2023-03-11 17:23:23:386,0,-2.58219,-0.864312,86.3153
2023-03-11 17:23:23:396,0,-2.61232,-0.875781,86.3186
2023-03-11 17:23:23:406,0,-2.64543,-0.88483,86.3201
2023-03-11 17:23:23:416,0,-2.67345,-0.889561,86.3214
2023-03-11 17:23:23:426,0,-2.70686,-0.892489,86.3184
2023-03-11 17:23:23:436,0,-2.74029,-0.887434,86.3149
2023-03-11 17:23:23:446,0,-2.76898,-0.883999,86.3059
2023-03-11 17:23:23:456,0,-2.79551,-0.878159,86.2912
2023-03-11 17:23:23:466,0,-2.81439,-0.87392,86.2781
2023-03-11 17:23:23:476,0,-2.82002,-0.875111,86.2661
2023-03-11 17:23:23:486,0,-2.81971,-0.878073,86.2513
2023-03-11 17:23:23:496,0,-2.80341,-0.88142,86.2384
2023-03-11 17:23:23:506,0,-2.78391,-0.889252,86.2275
2023-03-11 17:23:23:516,0,-2.75184,-0.892267,86.2179
2023-03-11 17:23:23:526,0,-2.72291,-0.892926,86.2162
2023-03-11 17:23:23:536,0,-2.69919,-0.890104,86.2151
2023-03-11 17:23:23:546,0,-2.6695,-0.880539,86.2172
2023-03-11 17:23:23:556,0,-2.64337,-0.864107,86.2201
2023-03-11 17:23:23:566,0,-2.60597,-0.841891,86.2236
2023-03-11 17:23:23:576,0,-2.56086,-0.814516,86.224
2023-03-11 17:23:23:586,0,-2.50528,-0.785347,86.2225
2023-03-11 17:23:23:596,0,-2.45012,-0.747176,86.2127
2023-03-11 17:23:23:606,0,-2.39104,-0.703583,86.1922
2023-03-11 17:23:23:616,0,-2.33864,-0.663632,86.1646
2023-03-11 17:23:23:626,0,-2.29804,-0.621756,86.1388
2023-03-11 17:23:23:636,0,-2.26539,-0.586297,86.1075
2023-03-11 17:23:23:646,0,-2.23675,-0.557038,86.0816
2023-03-11 17:23:23:656,0,-2.21418,-0.526096,86.0585
2023-03-11 17:23:23:666,0,-2.20021,-0.483724,86.0404
2023-03-11 17:23:23:676,0,-2.18768,-0.438215,86.0229
2023-03-11 17:23:23:686,0,-2.18697,-0.394596,86.0046
2023-03-11 17:23:23:696,0,-2.19982,-0.361086,85.9972
2023-03-11 17:23:23:706,0,-2.22313,-0.332968,85.9973
2023-03-11 17:23:23:716,0,-2.26106,-0.31586,86.0053
2023-03-11 17:23:23:726,0,-2.30194,-0.305375,86.0165
2023-03-11 17:23:23:736,0,-2.35267,-0.301736,86.034
2023-03-11 17:23:23:746,0,-2.41046,-0.310601,86.0582
2023-03-11 17:23:23:756,0,-2.46713,-0.327069,86.088
2023-03-11 17:23:23:766,0,-2.52317,-0.351196,86.118
2023-03-11 17:23:23:776,0,-2.57857,-0.374901,86.1465
2023-03-11 17:23:23:786,0,-2.62242,-0.400362,86.1735
2023-03-11 17:23:23:796,0,-2.66598,-0.4266,86.2001
2023-03-11 17:23:23:806,0,-2.7132,-0.459587,86.2207
2023-03-11 17:23:23:816,0,-2.76517,-0.498146,86.2424
2023-03-11 17:23:23:826,0,-2.81511,-0.542699,86.2693
2023-03-11 17:23:23:836,0,-2.86126,-0.593285,86.2977
2023-03-11 17:23:23:846,0,-2.89961,-0.640453,86.3273
2023-03-11 17:23:23:856,0,-2.92907,-0.679864,86.3522
2023-03-11 17:23:23:866,0,-2.94479,-0.704098,86.3649
2023-03-11 17:23:23:876,0,-2.94562,-0.720714,86.3668
2023-03-11 17:23:23:886,0,-2.93658,-0.726585,86.3549
2023-03-11 17:23:23:896,0,-2.92115,-0.72988,86.3315
2023-03-11 17:23:23:906,0,-2.90626,-0.732664,86.2995
2023-03-11 17:23:23:916,0,-2.89009,-0.736183,86.2596
2023-03-11 17:23:23:926,0,-2.87506,-0.738809,86.2135
2023-03-11 17:23:23:936,0,-2.86198,-0.743963,86.1685
2023-03-11 17:23:23:946,0,-2.8493,-0.751027,86.1201
2023-03-11 17:23:23:956,0,-2.8381,-0.758637,86.0751
2023-03-11 17:23:23:966,0,-2.83075,-0.766135,86.0306
2023-03-11 17:23:23:976,0,-2.82533,-0.771318,85.9968
2023-03-11 17:23:23:986,0,-2.82289,-0.768515,85.9645
2023-03-11 17:23:23:996,0,-2.8251,-0.758381,85.9335
2023-03-11 17:23:24:6,0,-2.83755,-0.750794,85.9081
2023-03-11 17:23:24:16,0,-2.86003,-0.742215,85.8918
2023-03-11 17:23:24:26,0,-2.89473,-0.73633,85.8792
2023-03-11 17:23:24:36,0,-2.94118,-0.733945,85.8769
2023-03-11 17:23:24:46,0,-2.99684,-0.722961,85.8795
2023-03-11 17:23:24:56,0,-3.05179,-0.709854,85.8847
2023-03-11 17:23:24:66,0,-3.10765,-0.692561,85.8919
2023-03-11 17:23:24:76,0,-3.15933,-0.673216,85.8975
2023-03-11 17:23:24:86,0,-3.20447,-0.65981,85.9002
2023-03-11 17:23:24:96,0,-3.2483,-0.642243,85.9047
2023-03-11 17:23:24:106,0,-3.2898,-0.628395,85.9073
2023-03-11 17:23:24:116,0,-3.33538,-0.619411,85.9061
2023-03-11 17:23:24:126,0,-3.38742,-0.611207,85.903
2023-03-11 17:23:24:136,0,-3.44578,-0.602562,85.8988
2023-03-11 17:23:24:146,0,-3.50909,-0.597465,85.8905
2023-03-11 17:23:24:156,0,-3.56923,-0.588008,85.8726
2023-03-11 17:23:24:166,0,-3.62084,-0.577135,85.8461
2023-03-11 17:23:24:176,0,-3.6731,-0.571358,85.8189
2023-03-11 17:23:24:186,0,-3.71515,-0.568976,85.7922
2023-03-11 17:23:24:196,0,-3.75479,-0.568613,85.7618
2023-03-11 17:23:24:206,0,-3.79809,-0.576381,85.7312
2023-03-11 17:23:24:216,0,-3.84415,-0.577172,85.7036
2023-03-11 17:23:24:226,0,-3.89818,-0.58185,85.6738
2023-03-11 17:23:24:236,0,-3.95021,-0.591763,85.6476
2023-03-11 17:23:24:246,0,-4.00537,-0.600816,85.6238
2023-03-11 17:23:24:256,0,-4.05525,-0.610052,85.6029
2023-03-11 17:23:24:266,0,-4.10214,-0.611833,85.5849
2023-03-11 17:23:24:276,0,-4.15079,-0.608081,85.5705
2023-03-11 17:23:24:286,0,-4.19952,-0.598256,85.5595
2023-03-11 17:23:24:296,0,-4.25664,-0.59198,85.5564
2023-03-11 17:23:24:306,0,-4.32445,-0.586622,85.5566
2023-03-11 17:23:24:316,0,-4.39396,-0.578879,85.5616
2023-03-11 17:23:24:326,0,-4.46922,-0.572284,85.5747
2023-03-11 17:23:24:336,0,-4.54023,-0.565229,85.5941
2023-03-11 17:23:24:346,0,-4.6008,-0.554858,85.6154
2023-03-11 17:23:24:356,0,-4.66624,-0.547546,85.6439
2023-03-11 17:23:24:366,0,-4.73839,-0.535009,85.6719
2023-03-11 17:23:24:376,0,-4.81743,-0.525229,85.6956
2023-03-11 17:23:24:386,0,-4.90498,-0.517681,85.7187
2023-03-11 17:23:24:396,0,-4.99517,-0.511712,85.7393
2023-03-11 17:23:24:406,0,-5.08755,-0.506844,85.7587
2023-03-11 17:23:24:416,0,-5.1762,-0.500981,85.7704
2023-03-11 17:23:24:426,0,-5.25918,-0.493397,85.778
2023-03-11 17:23:24:436,0,-5.32822,-0.486802,85.7807
2023-03-11 17:23:24:446,0,-5.39673,-0.474029,85.7781
2023-03-11 17:23:24:456,0,-5.47026,-0.463468,85.7731
2023-03-11 17:23:24:466,0,-5.54386,-0.447654,85.7639
2023-03-11 17:23:24:476,0,-5.6205,-0.432149,85.7522
2023-03-11 17:23:24:486,0,-5.69617,-0.419415,85.7389
2023-03-11 17:23:24:496,0,-5.77137,-0.415043,85.7261
2023-03-11 17:23:24:506,0,-5.86244,-0.419705,85.7133
2023-03-11 17:23:24:516,0,-5.95715,-0.43874,85.7073
2023-03-11 17:23:24:526,0,-6.04067,-0.462041,85.699
2023-03-11 17:23:24:536,0,-6.10585,-0.488537,85.6924
2023-03-11 17:23:24:546,0,-6.15219,-0.516608,85.6893
2023-03-11 17:23:24:556,0,-6.18868,-0.543584,85.6947
2023-03-11 17:23:24:566,0,-6.23201,-0.56986,85.7006
2023-03-11 17:23:24:576,0,-6.27945,-0.596282,85.7062
2023-03-11 17:23:24:586,0,-6.3323,-0.61906,85.7162
2023-03-11 17:23:24:596,0,-6.38449,-0.637313,85.7269
2023-03-11 17:23:24:606,0,-6.42633,-0.656903,85.7355
2023-03-11 17:23:24:616,0,-6.4554,-0.674932,85.7442
2023-03-11 17:23:24:626,0,-6.47394,-0.698632,85.7573
2023-03-11 17:23:24:636,0,-6.48597,-0.72172,85.77
2023-03-11 17:23:24:646,0,-6.49742,-0.750773,85.7836
2023-03-11 17:23:24:656,0,-6.50506,-0.777506,85.8003
2023-03-11 17:23:24:666,0,-6.51045,-0.806688,85.8153
2023-03-11 17:23:24:676,0,-6.52233,-0.832448,85.8323
2023-03-11 17:23:24:686,0,-6.53279,-0.857224,85.8504
2023-03-11 17:23:24:696,0,-6.55055,-0.879954,85.8668
2023-03-11 17:23:24:706,0,-6.57527,-0.898233,85.88
2023-03-11 17:23:24:716,0,-6.59149,-0.915766,85.8889
2023-03-11 17:23:24:726,0,-6.59732,-0.93258,85.8928
2023-03-11 17:23:24:736,0,-6.58675,-0.946781,85.8937
2023-03-11 17:23:24:746,0,-6.56727,-0.961374,85.8925
2023-03-11 17:23:24:756,0,-6.53309,-0.975512,85.8879
2023-03-11 17:23:24:766,0,-6.4936,-0.989388,85.886
2023-03-11 17:23:24:776,0,-6.44697,-1.00204,85.8781
2023-03-11 17:23:24:786,0,-6.39462,-1.01096,85.8698
2023-03-11 17:23:24:796,0,-6.3369,-1.01819,85.8578
2023-03-11 17:23:24:806,0,-6.27758,-1.02279,85.8393
2023-03-11 17:23:24:816,0,-6.22098,-1.02242,85.8163
2023-03-11 17:23:24:826,0,-6.15892,-1.01982,85.7925
2023-03-11 17:23:24:836,0,-6.09502,-1.01655,85.7698
2023-03-11 17:23:24:846,0,-6.0307,-1.01412,85.7416
2023-03-11 17:23:24:856,0,-5.96988,-1.01237,85.7145
2023-03-11 17:23:24:866,0,-5.91706,-1.01526,85.6904
2023-03-11 17:23:24:876,0,-5.86581,-1.01995,85.6725
2023-03-11 17:23:24:886,0,-5.82012,-1.02459,85.6583
2023-03-11 17:23:24:896,0,-5.77874,-1.02833,85.6447
2023-03-11 17:23:24:906,0,-5.7464,-1.03773,85.6345
2023-03-11 17:23:24:916,0,-5.71983,-1.04826,85.6323
2023-03-11 17:23:24:926,0,-5.69145,-1.05831,85.6298
2023-03-11 17:23:24:936,0,-5.66765,-1.06956,85.635
2023-03-11 17:23:24:946,0,-5.64494,-1.08295,85.6429
2023-03-11 17:23:24:956,0,-5.62429,-1.09539,85.6539
2023-03-11 17:23:24:966,0,-5.60367,-1.10265,85.6679
2023-03-11 17:23:24:976,0,-5.58099,-1.11043,85.6848
2023-03-11 17:23:24:986,0,-5.56155,-1.11512,85.6997
2023-03-11 17:23:24:996,0,-5.54269,-1.12001,85.7169
2023-03-11 17:23:25:6,0,-5.52516,-1.12584,85.7285
2023-03-11 17:23:25:16,0,-5.51006,-1.13393,85.739
2023-03-11 17:23:25:26,0,-5.49237,-1.13931,85.7509
2023-03-11 17:23:25:36,0,-5.47833,-1.14911,85.7577
2023-03-11 17:23:25:46,0,-5.46641,-1.15642,85.7589
2023-03-11 17:23:25:56,0,-5.45384,-1.16483,85.7578
2023-03-11 17:23:25:66,0,-5.44357,-1.17387,85.7518
2023-03-11 17:23:25:76,0,-5.43129,-1.17823,85.7425
2023-03-11 17:23:25:86,0,-5.41778,-1.18028,85.7309
2023-03-11 17:23:25:96,0,-5.41363,-1.1786,85.7178
2023-03-11 17:23:25:106,0,-5.41127,-1.18094,85.7072
2023-03-11 17:23:25:116,0,-5.41306,-1.18356,85.7002
2023-03-11 17:23:25:126,0,-5.42037,-1.19031,85.6958
2023-03-11 17:23:25:136,0,-5.4305,-1.1963,85.6925
2023-03-11 17:23:25:146,0,-5.43855,-1.20428,85.6929
2023-03-11 17:23:25:156,0,-5.44523,-1.20615,85.6955
2023-03-11 17:23:25:166,0,-5.45042,-1.21378,85.699
2023-03-11 17:23:25:176,0,-5.44973,-1.2228,85.7009
2023-03-11 17:23:25:186,0,-5.44493,-1.2325,85.6989
2023-03-11 17:23:25:196,0,-5.4332,-1.23639,85.6945
2023-03-11 17:23:25:206,0,-5.42191,-1.2453,85.6864
2023-03-11 17:23:25:216,0,-5.40682,-1.24641,85.6752
2023-03-11 17:23:25:226,0,-5.39248,-1.25099,85.6582
2023-03-11 17:23:25:236,0,-5.38022,-1.25311,85.6397
2023-03-11 17:23:25:246,0,-5.36361,-1.25509,85.6173
2023-03-11 17:23:25:256,0,-5.35397,-1.26169,85.5975
2023-03-11 17:23:25:266,0,-5.33682,-1.2599,85.5808
2023-03-11 17:23:25:276,0,-5.31798,-1.25826,85.5649
2023-03-11 17:23:25:286,0,-5.29698,-1.25756,85.5522
2023-03-11 17:23:25:296,0,-5.28025,-1.25515,85.5432
2023-03-11 17:23:25:306,0,-5.26365,-1.25507,85.5394
2023-03-11 17:23:25:316,0,-5.2434,-1.26089,85.5423
2023-03-11 17:23:25:326,0,-5.22405,-1.27033,85.5471
2023-03-11 17:23:25:336,0,-5.20262,-1.28043,85.561
2023-03-11 17:23:25:346,0,-5.18443,-1.29083,85.5747
2023-03-11 17:23:25:356,0,-5.16818,-1.29811,85.5904
2023-03-11 17:23:25:366,0,-5.15586,-1.30452,85.6062
2023-03-11 17:23:25:376,0,-5.14656,-1.30834,85.6213
2023-03-11 17:23:25:386,0,-5.1331,-1.31232,85.6348
2023-03-11 17:23:25:396,0,-5.12092,-1.3192,85.6472
2023-03-11 17:23:25:406,0,-5.11154,-1.32468,85.6596
2023-03-11 17:23:25:416,0,-5.10507,-1.33401,85.6769
2023-03-11 17:23:25:426,0,-5.09897,-1.34588,85.6895
2023-03-11 17:23:25:436,0,-5.09512,-1.35681,85.704
2023-03-11 17:23:25:446,0,-5.09233,-1.36892,85.7152
2023-03-11 17:23:25:456,0,-5.09039,-1.37868,85.7324
2023-03-11 17:23:25:466,0,-5.08979,-1.38331,85.753
2023-03-11 17:23:25:476,0,-5.09585,-1.38633,85.7744
2023-03-11 17:23:25:486,0,-5.10516,-1.38157,85.7951
2023-03-11 17:23:25:496,0,-5.11652,-1.37643,85.8129
2023-03-11 17:23:25:506,0,-5.13213,-1.36716,85.8301
2023-03-11 17:23:25:516,0,-5.14529,-1.35644,85.8464
2023-03-11 17:23:25:526,0,-5.16212,-1.3429,85.8578
2023-03-11 17:23:25:536,0,-5.17741,-1.32792,85.8645
2023-03-11 17:23:25:546,0,-5.19023,-1.31662,85.8701
2023-03-11 17:23:25:556,0,-5.20166,-1.30765,85.8683
2023-03-11 17:23:25:566,0,-5.21474,-1.30338,85.8698
2023-03-11 17:23:25:576,0,-5.22815,-1.30239,85.8677
2023-03-11 17:23:25:586,0,-5.24452,-1.29398,85.8648
2023-03-11 17:23:25:596,0,-5.25646,-1.28459,85.8592
2023-03-11 17:23:25:606,0,-5.26703,-1.27549,85.8521
2023-03-11 17:23:25:616,0,-5.27643,-1.2704,85.8462
2023-03-11 17:23:25:626,0,-5.28728,-1.26439,85.843
2023-03-11 17:23:25:636,0,-5.29631,-1.25963,85.8434
2023-03-11 17:23:25:646,0,-5.29775,-1.26003,85.8437
2023-03-11 17:23:25:656,0,-5.30051,-1.26137,85.849
2023-03-11 17:23:25:666,0,-5.29791,-1.26529,85.8537
2023-03-11 17:23:25:676,0,-5.2969,-1.27164,85.8567
2023-03-11 17:23:25:686,0,-5.29831,-1.2756,85.8608
2023-03-11 17:23:25:696,0,-5.3009,-1.28578,85.8656
2023-03-11 17:23:25:706,0,-5.30298,-1.30002,85.8706
2023-03-11 17:23:25:716,0,-5.30467,-1.31534,85.8726
2023-03-11 17:23:25:726,0,-5.30727,-1.33302,85.8773
2023-03-11 17:23:25:736,0,-5.3068,-1.35194,85.8826
2023-03-11 17:23:25:746,0,-5.30853,-1.3669,85.8897
2023-03-11 17:23:25:756,0,-5.30577,-1.37918,85.8993
2023-03-11 17:23:25:766,0,-5.3085,-1.38742,85.9059
2023-03-11 17:23:25:776,0,-5.30726,-1.39302,85.914
2023-03-11 17:23:25:786,0,-5.30723,-1.39497,85.9152
2023-03-11 17:23:25:796,0,-5.30738,-1.40107,85.916
2023-03-11 17:23:25:806,0,-5.304,-1.40845,85.9132
2023-03-11 17:23:25:816,0,-5.30013,-1.4156,85.9094
2023-03-11 17:23:25:826,0,-5.29384,-1.42172,85.9052
2023-03-11 17:23:25:836,0,-5.28804,-1.43041,85.9036
2023-03-11 17:23:25:846,0,-5.28272,-1.43564,85.9025
2023-03-11 17:23:25:856,0,-5.27882,-1.43853,85.8977
2023-03-11 17:23:25:866,0,-5.27485,-1.43736,85.8929
2023-03-11 17:23:25:876,0,-5.272,-1.43542,85.8909
2023-03-11 17:23:25:886,0,-5.26726,-1.4326,85.8892
2023-03-11 17:23:25:896,0,-5.2611,-1.42895,85.8909
2023-03-11 17:23:25:906,0,-5.25309,-1.42375,85.8916
2023-03-11 17:23:25:916,0,-5.24738,-1.41945,85.8919
2023-03-11 17:23:25:926,0,-5.2456,-1.41558,85.8912
2023-03-11 17:23:25:936,0,-5.24569,-1.41563,85.8921
2023-03-11 17:23:25:946,0,-5.25003,-1.40979,85.8893
2023-03-11 17:23:25:956,0,-5.25635,-1.40318,85.889
2023-03-11 17:23:25:966,0,-5.26317,-1.39622,85.8905
2023-03-11 17:23:25:976,0,-5.27043,-1.38953,85.8931
2023-03-11 17:23:25:986,0,-5.28087,-1.38233,85.8936
2023-03-11 17:23:25:996,0,-5.29233,-1.37337,85.8966
2023-03-11 17:23:26:6,0,-5.3018,-1.36591,85.8948
2023-03-11 17:23:26:16,0,-5.30307,-1.36064,85.8901
2023-03-11 17:23:26:26,0,-5.30186,-1.35643,85.8829
2023-03-11 17:23:26:36,0,-5.29824,-1.35091,85.8757
2023-03-11 17:23:26:46,0,-5.28913,-1.34734,85.867
2023-03-11 17:23:26:56,0,-5.28856,-1.34355,85.8527
2023-03-11 17:23:26:66,0,-5.28899,-1.33934,85.8412
2023-03-11 17:23:26:76,0,-5.29253,-1.3381,85.8339
2023-03-11 17:23:26:86,0,-5.30055,-1.33896,85.8256
2023-03-11 17:23:26:96,0,-5.31046,-1.34031,85.8168
2023-03-11 17:23:26:106,0,-5.31411,-1.34497,85.8094
2023-03-11 17:23:26:116,0,-5.31523,-1.34802,85.8022
2023-03-11 17:23:26:126,0,-5.31429,-1.35189,85.7997
2023-03-11 17:23:26:136,0,-5.31265,-1.35579,85.7992
2023-03-11 17:23:26:146,0,-5.31484,-1.35943,85.8018
2023-03-11 17:23:26:156,0,-5.32676,-1.36386,85.807
2023-03-11 17:23:26:166,0,-5.33905,-1.37041,85.8157
2023-03-11 17:23:26:176,0,-5.35258,-1.37734,85.8302
2023-03-11 17:23:26:186,0,-5.36742,-1.3803,85.8469
2023-03-11 17:23:26:196,0,-5.38681,-1.38164,85.8578
2023-03-11 17:23:26:206,0,-5.40199,-1.37984,85.8686
2023-03-11 17:23:26:216,0,-5.41388,-1.37657,85.8707
2023-03-11 17:23:26:226,0,-5.431,-1.37052,85.8712
2023-03-11 17:23:26:236,0,-5.44722,-1.36136,85.8737
2023-03-11 17:23:26:246,0,-5.46411,-1.35435,85.8784
2023-03-11 17:23:26:256,0,-5.47704,-1.35173,85.8812
2023-03-11 17:23:26:266,0,-5.4923,-1.34923,85.8859
2023-03-11 17:23:26:276,0,-5.50576,-1.34925,85.8906
2023-03-11 17:23:26:286,0,-5.51953,-1.34912,85.8963
2023-03-11 17:23:26:296,0,-5.53101,-1.34708,85.9027
2023-03-11 17:23:26:306,0,-5.54243,-1.34168,85.9087
2023-03-11 17:23:26:316,0,-5.55914,-1.33265,85.9137
2023-03-11 17:23:26:326,0,-5.57095,-1.32544,85.9189
2023-03-11 17:23:26:336,0,-5.58006,-1.31995,85.926
2023-03-11 17:23:26:346,0,-5.58524,-1.32377,85.9303
2023-03-11 17:23:26:356,0,-5.58454,-1.32668,85.9364
2023-03-11 17:23:26:366,0,-5.58003,-1.32713,85.945
2023-03-11 17:23:26:376,0,-5.57489,-1.33202,85.9479
2023-03-11 17:23:26:386,0,-5.56513,-1.33075,85.9504
2023-03-11 17:23:26:396,0,-5.55393,-1.33071,85.9508
2023-03-11 17:23:26:406,0,-5.54482,-1.32892,85.9493
2023-03-11 17:23:26:416,0,-5.53605,-1.32932,85.9506
2023-03-11 17:23:26:426,0,-5.53138,-1.33272,85.9554
2023-03-11 17:23:26:436,0,-5.53103,-1.33923,85.9629
2023-03-11 17:23:26:446,0,-5.52691,-1.34282,85.9713
2023-03-11 17:23:26:456,0,-5.52212,-1.34671,85.9838
2023-03-11 17:23:26:466,0,-5.51543,-1.35152,85.9929
2023-03-11 17:23:26:476,0,-5.5072,-1.35422,86.0022
2023-03-11 17:23:26:486,0,-5.50168,-1.35573,86.0071
2023-03-11 17:23:26:496,0,-5.49352,-1.35834,86.0102
2023-03-11 17:23:26:506,0,-5.49063,-1.35803,86.0119
2023-03-11 17:23:26:516,0,-5.4842,-1.35733,86.0122
2023-03-11 17:23:26:526,0,-5.47745,-1.35498,86.0108
2023-03-11 17:23:26:536,0,-5.47504,-1.35177,86.0074
2023-03-11 17:23:26:546,0,-5.4738,-1.34654,86.0043
2023-03-11 17:23:26:556,0,-5.47434,-1.33744,86.0045
2023-03-11 17:23:26:566,0,-5.4728,-1.33085,86.0095
2023-03-11 17:23:26:576,0,-5.47891,-1.32393,86.0133
2023-03-11 17:23:26:586,0,-5.48257,-1.31543,86.0204
2023-03-11 17:23:26:596,0,-5.48995,-1.30124,86.0283
2023-03-11 17:23:26:606,0,-5.49441,-1.29481,86.0305
2023-03-11 17:23:26:616,0,-5.50017,-1.28729,86.0324
2023-03-11 17:23:26:626,0,-5.50887,-1.28494,86.034
2023-03-11 17:23:26:636,0,-5.5185,-1.28613,86.0366
2023-03-11 17:23:26:646,0,-5.53041,-1.28659,86.0398
2023-03-11 17:23:26:656,0,-5.53773,-1.28834,86.0471
2023-03-11 17:23:26:666,0,-5.55137,-1.29023,86.0504
2023-03-11 17:23:26:676,0,-5.565,-1.28835,86.0495
2023-03-11 17:23:26:686,0,-5.58197,-1.2899,86.0474
2023-03-11 17:23:26:696,0,-5.60322,-1.29752,86.0483
2023-03-11 17:23:26:706,0,-5.62043,-1.30044,86.0496
2023-03-11 17:23:26:716,0,-5.63899,-1.30627,86.0536
2023-03-11 17:23:26:726,0,-5.65583,-1.30863,86.0579
2023-03-11 17:23:26:736,0,-5.66786,-1.31106,86.0645
2023-03-11 17:23:26:746,0,-5.68433,-1.31123,86.0727
2023-03-11 17:23:26:756,0,-5.69669,-1.31247,86.0849
2023-03-11 17:23:26:766,0,-5.70908,-1.31308,86.0969
2023-03-11 17:23:26:776,0,-5.71857,-1.31118,86.1144
2023-03-11 17:23:26:786,0,-5.72569,-1.31144,86.1301
2023-03-11 17:23:26:796,0,-5.73551,-1.30808,86.1477
2023-03-11 17:23:26:806,0,-5.74795,-1.30555,86.1676
2023-03-11 17:23:26:816,0,-5.76353,-1.30951,86.1939
2023-03-11 17:23:26:826,0,-5.77857,-1.31035,86.2227
2023-03-11 17:23:26:836,0,-5.79639,-1.3122,86.255
2023-03-11 17:23:26:846,0,-5.80887,-1.31498,86.2882
2023-03-11 17:23:26:856,0,-5.81239,-1.30345,86.3214
2023-03-11 17:23:26:866,0,-5.8179,-1.29339,86.3564
2023-03-11 17:23:26:876,0,-5.82895,-1.28472,86.3979
2023-03-11 17:23:26:886,0,-5.84437,-1.2797,86.4374
2023-03-11 17:23:26:896,0,-5.86296,-1.27787,86.474
2023-03-11 17:23:26:906,0,-5.87899,-1.27722,86.5117
2023-03-11 17:23:26:916,0,-5.88986,-1.274,86.549
2023-03-11 17:23:26:926,0,-5.89296,-1.27315,86.5713
2023-03-11 17:23:26:936,0,-5.89285,-1.26501,86.5841
2023-03-11 17:23:26:946,0,-5.89762,-1.25344,86.5867
2023-03-11 17:23:26:956,0,-5.90913,-1.23509,86.576
2023-03-11 17:23:26:966,0,-5.92762,-1.21462,86.557
2023-03-11 17:23:26:976,0,-5.9472,-1.19236,86.5372
2023-03-11 17:23:26:986,0,-5.95914,-1.17934,86.521
2023-03-11 17:23:26:996,0,-5.96486,-1.16988,86.5175
2023-03-11 17:23:27:6,0,-5.97115,-1.16757,86.5228
2023-03-11 17:23:27:16,0,-5.97787,-1.17361,86.5362
2023-03-11 17:23:27:26,0,-5.98262,-1.18714,86.5517
2023-03-11 17:23:27:36,0,-5.9935,-1.19695,86.5639
2023-03-11 17:23:27:46,0,-6.01111,-1.20881,86.5795
2023-03-11 17:23:27:56,0,-6.0396,-1.22073,86.5916
2023-03-11 17:23:27:66,0,-6.0737,-1.23778,86.6013
2023-03-11 17:23:27:76,0,-6.10748,-1.25743,86.6072
2023-03-11 17:23:27:86,0,-6.14595,-1.28171,86.6088
2023-03-11 17:23:27:96,0,-6.1866,-1.30592,86.5997
2023-03-11 17:23:27:106,0,-6.22258,-1.32341,86.5851
2023-03-11 17:23:27:116,0,-6.25636,-1.33337,86.5666
2023-03-11 17:23:27:126,0,-6.28529,-1.3339,86.5448
2023-03-11 17:23:27:136,0,-6.31171,-1.32413,86.5263
2023-03-11 17:23:27:146,0,-6.33261,-1.30937,86.5143
2023-03-11 17:23:27:156,0,-6.34086,-1.2928,86.5079
2023-03-11 17:23:27:166,0,-6.33457,-1.28076,86.507
2023-03-11 17:23:27:176,0,-6.32009,-1.27406,86.516
2023-03-11 17:23:27:186,0,-6.29913,-1.27139,86.5427
2023-03-11 17:23:27:196,0,-6.27802,-1.27348,86.5762
2023-03-11 17:23:27:206,0,-6.25713,-1.28065,86.6151
2023-03-11 17:23:27:216,0,-6.23256,-1.28431,86.6557
2023-03-11 17:23:27:226,0,-6.20753,-1.28765,86.6933
2023-03-11 17:23:27:236,0,-6.18064,-1.28821,86.7321
2023-03-11 17:23:27:246,0,-6.15067,-1.29119,86.7727
2023-03-11 17:23:27:256,0,-6.11946,-1.2993,86.8192
2023-03-11 17:23:27:266,0,-6.08411,-1.30851,86.8696
2023-03-11 17:23:27:276,0,-6.04916,-1.32888,86.9225
2023-03-11 17:23:27:286,0,-6.00852,-1.36677,86.9826
2023-03-11 17:23:27:296,0,-5.95899,-1.41012,87.0464
2023-03-11 17:23:27:306,0,-5.90894,-1.45873,87.1086
2023-03-11 17:23:27:316,0,-5.8642,-1.50807,87.1656
2023-03-11 17:23:27:326,0,-5.82942,-1.55596,87.2118
2023-03-11 17:23:27:336,0,-5.80716,-1.60065,87.2505
2023-03-11 17:23:27:346,0,-5.79661,-1.64583,87.2758
2023-03-11 17:23:27:356,0,-5.79538,-1.70075,87.2977
2023-03-11 17:23:27:366,0,-5.80354,-1.76246,87.3159
2023-03-11 17:23:27:376,0,-5.81332,-1.82474,87.3299
2023-03-11 17:23:27:386,0,-5.82491,-1.88492,87.3373
2023-03-11 17:23:27:396,0,-5.82745,-1.94844,87.333
2023-03-11 17:23:27:406,0,-5.81924,-2.00602,87.3234
2023-03-11 17:23:27:416,0,-5.80368,-2.05856,87.3108
2023-03-11 17:23:27:426,0,-5.78416,-2.1067,87.2985
2023-03-11 17:23:27:436,0,-5.77124,-2.14618,87.2942
2023-03-11 17:23:27:446,0,-5.77211,-2.17945,87.2933
2023-03-11 17:23:27:456,0,-5.7985,-2.20467,87.2917
2023-03-11 17:23:27:466,0,-5.85026,-2.2224,87.2921
2023-03-11 17:23:27:476,0,-5.91302,-2.24053,87.2953
2023-03-11 17:23:27:486,0,-5.98719,-2.26207,87.2964
2023-03-11 17:23:27:496,0,-6.06259,-2.29205,87.2974
2023-03-11 17:23:27:506,0,-6.14061,-2.33397,87.2982
2023-03-11 17:23:27:516,0,-6.21234,-2.38846,87.2995
2023-03-11 17:23:27:526,0,-6.27429,-2.45642,87.3069
2023-03-11 17:23:27:536,0,-6.32267,-2.53489,87.3253
2023-03-11 17:23:27:546,0,-6.35483,-2.62053,87.3617
2023-03-11 17:23:27:556,0,-6.38206,-2.70847,87.4115
2023-03-11 17:23:27:566,0,-6.39874,-2.79861,87.4755
2023-03-11 17:23:27:576,0,-6.40827,-2.88091,87.5551
2023-03-11 17:23:27:586,0,-6.4174,-2.96072,87.6478
2023-03-11 17:23:27:596,0,-6.42208,-3.03575,87.7522
2023-03-11 17:23:27:606,0,-6.4316,-3.1085,87.8688
2023-03-11 17:23:27:616,0,-6.44236,-3.17227,87.9913
2023-03-11 17:23:27:626,0,-6.45466,-3.22935,88.1138
2023-03-11 17:23:27:636,0,-6.47154,-3.27383,88.2314
2023-03-11 17:23:27:646,0,-6.49569,-3.30735,88.3425
2023-03-11 17:23:27:656,0,-6.51946,-3.32251,88.4387
2023-03-11 17:23:27:666,0,-6.54272,-3.3293,88.5257
2023-03-11 17:23:27:676,0,-6.56894,-3.32888,88.5977
2023-03-11 17:23:27:686,0,-6.59533,-3.32895,88.6582
2023-03-11 17:23:27:696,0,-6.62117,-3.32756,88.7098
2023-03-11 17:23:27:706,0,-6.64147,-3.32724,88.742
2023-03-11 17:23:27:716,0,-6.6631,-3.3197,88.7619
2023-03-11 17:23:27:726,0,-6.68199,-3.31533,88.7706
2023-03-11 17:23:27:736,0,-6.70261,-3.30832,88.7684
2023-03-11 17:23:27:746,0,-6.71851,-3.30521,88.7597
2023-03-11 17:23:27:756,0,-6.72854,-3.30568,88.7503
2023-03-11 17:23:27:766,0,-6.73533,-3.3091,88.7428
2023-03-11 17:23:27:776,0,-6.73913,-3.3174,88.735
2023-03-11 17:23:27:786,0,-6.74248,-3.32624,88.7297
2023-03-11 17:23:27:796,0,-6.7458,-3.33926,88.7348
2023-03-11 17:23:27:806,0,-6.74776,-3.35665,88.7441
2023-03-11 17:23:27:816,0,-6.74563,-3.37449,88.7593
2023-03-11 17:23:27:826,0,-6.74272,-3.3917,88.7775
2023-03-11 17:23:27:836,0,-6.73737,-3.41269,88.8012
2023-03-11 17:23:27:846,0,-6.72919,-3.43592,88.8341
2023-03-11 17:23:27:856,0,-6.71558,-3.45993,88.8684
2023-03-11 17:23:27:866,0,-6.70032,-3.48135,88.8995
2023-03-11 17:23:27:876,0,-6.68656,-3.50172,88.9295
2023-03-11 17:23:27:886,0,-6.67629,-3.5191,88.9535
2023-03-11 17:23:27:896,0,-6.67185,-3.53788,88.9672
2023-03-11 17:23:27:906,0,-6.6687,-3.55774,88.9735
2023-03-11 17:23:27:916,0,-6.67038,-3.57982,88.9728
2023-03-11 17:23:27:926,0,-6.66906,-3.6034,88.9615
2023-03-11 17:23:27:936,0,-6.67023,-3.62185,88.9426
2023-03-11 17:23:27:946,0,-6.66868,-3.63879,88.9165
2023-03-11 17:23:27:956,0,-6.68087,-3.6563,88.8946
2023-03-11 17:23:27:966,0,-6.69633,-3.66967,88.8664
2023-03-11 17:23:27:976,0,-6.70737,-3.68295,88.8356
2023-03-11 17:23:27:986,0,-6.71782,-3.69372,88.807
2023-03-11 17:23:27:996,0,-6.72897,-3.70824,88.7769
2023-03-11 17:23:28:6,0,-6.74146,-3.72197,88.745
2023-03-11 17:23:28:16,0,-6.75527,-3.735,88.7095
2023-03-11 17:23:28:26,0,-6.77432,-3.74804,88.6727
2023-03-11 17:23:28:36,0,-6.79844,-3.76126,88.6304
2023-03-11 17:23:28:46,0,-6.8298,-3.77198,88.5832
2023-03-11 17:23:28:56,0,-6.86576,-3.7855,88.5349
2023-03-11 17:23:28:66,0,-6.90158,-3.80533,88.4915
2023-03-11 17:23:28:76,0,-6.94213,-3.82695,88.4571
2023-03-11 17:23:28:86,0,-6.982,-3.85135,88.4288
2023-03-11 17:23:28:96,0,-7.01158,-3.8713,88.401
2023-03-11 17:23:28:106,0,-7.0405,-3.88973,88.3757
2023-03-11 17:23:28:116,0,-7.06221,-3.9003,88.3539
2023-03-11 17:23:28:126,0,-7.07961,-3.90104,88.3279
2023-03-11 17:23:28:136,0,-7.09442,-3.89657,88.3048
2023-03-11 17:23:28:146,0,-7.10506,-3.88718,88.2788
2023-03-11 17:23:28:156,0,-7.11454,-3.87498,88.2504
2023-03-11 17:23:28:166,0,-7.11955,-3.86706,88.2205
2023-03-11 17:23:28:176,0,-7.11847,-3.8596,88.1975
2023-03-11 17:23:28:186,0,-7.10573,-3.85977,88.1718
2023-03-11 17:23:28:196,0,-7.08066,-3.86952,88.155
2023-03-11 17:23:28:206,0,-7.04571,-3.88984,88.1468
2023-03-11 17:23:28:216,0,-7.01426,-3.91073,88.1503
2023-03-11 17:23:28:226,0,-6.99143,-3.9284,88.1648
2023-03-11 17:23:28:236,0,-6.98233,-3.93471,88.1866
2023-03-11 17:23:28:246,0,-6.99416,-3.933,88.2118
2023-03-11 17:23:28:256,0,-7.03594,-3.93207,88.2416
2023-03-11 17:23:28:266,0,-7.09498,-3.93053,88.2688
2023-03-11 17:23:28:276,0,-7.16557,-3.9294,88.2834
2023-03-11 17:23:28:286,0,-7.23397,-3.92789,88.2834
2023-03-11 17:23:28:296,0,-7.29196,-3.92367,88.2637
2023-03-11 17:23:28:306,0,-7.34717,-3.93116,88.2258
2023-03-11 17:23:28:316,0,-7.39735,-3.94774,88.1805
2023-03-11 17:23:28:326,0,-7.43853,-3.96322,88.123
2023-03-11 17:23:28:336,0,-7.47801,-3.98196,88.0592
2023-03-11 17:23:28:346,0,-7.5143,-3.99498,87.9876
2023-03-11 17:23:28:356,0,-7.54541,-4.0065,87.9117
2023-03-11 17:23:28:366,0,-7.57641,-4.01237,87.845
2023-03-11 17:23:28:376,0,-7.60407,-4.01565,87.7833
2023-03-11 17:23:28:386,0,-7.62783,-4.01823,87.7315
2023-03-11 17:23:28:396,0,-7.63694,-4.01627,87.6956
2023-03-11 17:23:28:406,0,-7.64156,-4.01374,87.6685
2023-03-11 17:23:28:416,0,-7.64213,-4.00649,87.6506
2023-03-11 17:23:28:426,0,-7.63697,-3.99909,87.6406
2023-03-11 17:23:28:436,0,-7.62655,-3.99412,87.636
2023-03-11 17:23:28:446,0,-7.61194,-3.98743,87.6351
2023-03-11 17:23:28:456,0,-7.59937,-3.98102,87.634
2023-03-11 17:23:28:466,0,-7.58781,-3.97154,87.6237
2023-03-11 17:23:28:476,0,-7.57679,-3.96196,87.6123
2023-03-11 17:23:28:486,0,-7.57004,-3.95408,87.5982
2023-03-11 17:23:28:496,0,-7.5639,-3.95413,87.5871
2023-03-11 17:23:28:506,0,-7.55473,-3.95814,87.5735
2023-03-11 17:23:28:516,0,-7.54194,-3.96187,87.5631
2023-03-11 17:23:28:526,0,-7.52315,-3.96857,87.554
2023-03-11 17:23:28:536,0,-7.5071,-3.97957,87.5534
2023-03-11 17:23:28:546,0,-7.49347,-3.99018,87.5592
2023-03-11 17:23:28:556,0,-7.48796,-3.9998,87.5689
2023-03-11 17:23:28:566,0,-7.48567,-4.00835,87.5822
2023-03-11 17:23:28:576,0,-7.49225,-4.01666,87.5979
2023-03-11 17:23:28:586,0,-7.50669,-4.0205,87.6105
2023-03-11 17:23:28:596,0,-7.52228,-4.01926,87.6227
2023-03-11 17:23:28:606,0,-7.53514,-4.01645,87.6293
2023-03-11 17:23:28:616,0,-7.54521,-4.01603,87.6349
2023-03-11 17:23:28:626,0,-7.54692,-4.0187,87.6428
2023-03-11 17:23:28:636,0,-7.54324,-4.02185,87.6435
2023-03-11 17:23:28:646,0,-7.53322,-4.01626,87.6413
2023-03-11 17:23:28:656,0,-7.52122,-4.00761,87.6327
2023-03-11 17:23:28:666,0,-7.50734,-3.99503,87.6259
2023-03-11 17:23:28:676,0,-7.48853,-3.98967,87.6137
2023-03-11 17:23:28:686,0,-7.4704,-3.9741,87.6028
2023-03-11 17:23:28:696,0,-7.44981,-3.96284,87.5985
2023-03-11 17:23:28:706,0,-7.43314,-3.95218,87.5929
2023-03-11 17:23:28:716,0,-7.41379,-3.94472,87.5862
2023-03-11 17:23:28:726,0,-7.39641,-3.94166,87.5796
2023-03-11 17:23:28:736,0,-7.38901,-3.93839,87.5655
2023-03-11 17:23:28:746,0,-7.3885,-3.93868,87.5535
2023-03-11 17:23:28:756,0,-7.39825,-3.93693,87.5399
2023-03-11 17:23:28:766,0,-7.41307,-3.93208,87.523
2023-03-11 17:23:28:776,0,-7.43519,-3.93454,87.5071
2023-03-11 17:23:28:786,0,-7.45572,-3.94138,87.4979
2023-03-11 17:23:28:796,0,-7.48463,-3.95321,87.4916
2023-03-11 17:23:28:806,0,-7.51349,-3.97463,87.489
2023-03-11 17:23:28:816,0,-7.54094,-3.996,87.4867
2023-03-11 17:23:28:826,0,-7.56259,-4.01906,87.4916
2023-03-11 17:23:28:836,0,-7.58017,-4.0462,87.5078
2023-03-11 17:23:28:846,0,-7.60012,-4.06458,87.5285
2023-03-11 17:23:28:856,0,-7.62423,-4.07064,87.553
2023-03-11 17:23:28:866,0,-7.6597,-4.07891,87.5737
2023-03-11 17:23:28:876,0,-7.71197,-4.07683,87.5926
2023-03-11 17:23:28:886,0,-7.77001,-4.06259,87.6082
2023-03-11 17:23:28:896,0,-7.82249,-4.05729,87.6093
2023-03-11 17:23:28:906,0,-7.87649,-4.0514,87.6013
2023-03-11 17:23:28:916,0,-7.92427,-4.03704,87.5859
2023-03-11 17:23:28:927,0,-7.95528,-4.02263,87.5599
2023-03-11 17:23:28:936,0,-7.97391,-4.01055,87.5333
2023-03-11 17:23:28:946,0,-7.98496,-3.99456,87.5073
2023-03-11 17:23:28:956,0,-7.99378,-3.97531,87.4857
2023-03-11 17:23:28:967,0,-8.00418,-3.96337,87.4694
2023-03-11 17:23:28:976,0,-8.01671,-3.958,87.4592
2023-03-11 17:23:28:987,0,-8.03458,-3.95131,87.4539
2023-03-11 17:23:28:996,0,-8.05118,-3.94172,87.4543
2023-03-11 17:23:29:6,0,-8.06482,-3.93917,87.4585
2023-03-11 17:23:29:16,0,-8.07417,-3.93468,87.4655
2023-03-11 17:23:29:27,0,-8.08047,-3.93449,87.4741
2023-03-11 17:23:29:36,0,-8.08387,-3.93494,87.481
2023-03-11 17:23:29:46,0,-8.08592,-3.93642,87.487
2023-03-11 17:23:29:56,0,-8.08675,-3.93899,87.4928
2023-03-11 17:23:29:67,0,-8.08726,-3.93931,87.4951
2023-03-11 17:23:29:76,0,-8.0886,-3.94203,87.4933
2023-03-11 17:23:29:87,0,-8.09486,-3.94275,87.4921
2023-03-11 17:23:29:96,0,-8.09768,-3.94499,87.4891
2023-03-11 17:23:29:106,0,-8.1021,-3.94195,87.4852
2023-03-11 17:23:29:116,0,-8.10073,-3.93878,87.482
2023-03-11 17:23:29:127,0,-8.09638,-3.93204,87.4791
2023-03-11 17:23:29:136,0,-8.09131,-3.92398,87.4736
2023-03-11 17:23:29:147,0,-8.08482,-3.91226,87.4656
2023-03-11 17:23:29:156,0,-8.07834,-3.90278,87.4571
2023-03-11 17:23:29:166,0,-8.07399,-3.88905,87.4454
2023-03-11 17:23:29:176,0,-8.07307,-3.87537,87.4315
2023-03-11 17:23:29:186,0,-8.07116,-3.86412,87.4204
2023-03-11 17:23:29:196,0,-8.07078,-3.85138,87.4059
2023-03-11 17:23:29:206,0,-8.0701,-3.83447,87.3948
2023-03-11 17:23:29:216,0,-8.06389,-3.81879,87.3822
2023-03-11 17:23:29:226,0,-8.05434,-3.80398,87.3727
2023-03-11 17:23:29:236,0,-8.04487,-3.78576,87.3619
2023-03-11 17:23:29:246,0,-8.03616,-3.76418,87.3584
2023-03-11 17:23:29:256,0,-8.029,-3.74583,87.3545
2023-03-11 17:23:29:266,0,-8.02362,-3.72748,87.3516
2023-03-11 17:23:29:276,0,-8.02121,-3.70542,87.3461
2023-03-11 17:23:29:286,0,-8.02271,-3.68317,87.3377
2023-03-11 17:23:29:296,0,-8.0197,-3.66433,87.3267
2023-03-11 17:23:29:306,0,-8.01919,-3.64367,87.3117
2023-03-11 17:23:29:316,0,-8.01438,-3.62682,87.2899
2023-03-11 17:23:29:326,0,-8.00788,-3.61602,87.2725
2023-03-11 17:23:29:336,0,-8.00088,-3.60552,87.2529
2023-03-11 17:23:29:346,0,-7.99685,-3.60122,87.2347
2023-03-11 17:23:29:356,0,-7.99037,-3.59743,87.2217
2023-03-11 17:23:29:366,0,-7.99279,-3.58668,87.2121
2023-03-11 17:23:29:376,0,-7.99124,-3.57484,87.2062
2023-03-11 17:23:29:386,0,-7.99417,-3.56573,87.2012
2023-03-11 17:23:29:396,0,-8.00278,-3.55588,87.2024
2023-03-11 17:23:29:406,0,-8.01573,-3.54603,87.206
2023-03-11 17:23:29:416,0,-8.03263,-3.53329,87.2119
2023-03-11 17:23:29:426,0,-8.04727,-3.52059,87.215
2023-03-11 17:23:29:436,0,-8.05928,-3.50576,87.2158
2023-03-11 17:23:29:446,0,-8.07122,-3.49054,87.2166
2023-03-11 17:23:29:456,0,-8.08133,-3.4739,87.2122
2023-03-11 17:23:29:466,0,-8.08913,-3.45836,87.2052
2023-03-11 17:23:29:476,0,-8.09964,-3.44105,87.1954
2023-03-11 17:23:29:486,0,-8.1098,-3.42506,87.1828
2023-03-11 17:23:29:496,0,-8.11814,-3.40596,87.1687
2023-03-11 17:23:29:506,0,-8.12914,-3.38949,87.1522
2023-03-11 17:23:29:516,0,-8.14054,-3.37424,87.1403
2023-03-11 17:23:29:526,0,-8.15391,-3.35827,87.1315
2023-03-11 17:23:29:536,0,-8.16909,-3.34056,87.1201
2023-03-11 17:23:29:546,0,-8.1815,-3.32646,87.1101
2023-03-11 17:23:29:556,0,-8.19084,-3.31512,87.1052
2023-03-11 17:23:29:566,0,-8.19656,-3.30332,87.1037
2023-03-11 17:23:29:576,0,-8.20062,-3.2944,87.1023
2023-03-11 17:23:29:586,0,-8.20678,-3.28591,87.0998
2023-03-11 17:23:29:596,0,-8.21568,-3.27171,87.1011
2023-03-11 17:23:29:606,0,-8.224,-3.26137,87.097
2023-03-11 17:23:29:616,0,-8.22731,-3.24921,87.0913
2023-03-11 17:23:29:626,0,-8.23727,-3.23816,87.0876
2023-03-11 17:23:29:636,0,-8.24701,-3.23307,87.0832
2023-03-11 17:23:29:646,0,-8.25926,-3.2268,87.0777
2023-03-11 17:23:29:656,0,-8.26902,-3.22337,87.0729
2023-03-11 17:23:29:666,0,-8.27839,-3.22087,87.0716
2023-03-11 17:23:29:676,0,-8.28088,-3.22061,87.0688
2023-03-11 17:23:29:686,0,-8.28547,-3.22061,87.0703
2023-03-11 17:23:29:696,0,-8.28946,-3.22295,87.0724
2023-03-11 17:23:29:706,0,-8.29701,-3.22017,87.0734
2023-03-11 17:23:29:716,0,-8.30263,-3.21603,87.0746
2023-03-11 17:23:29:726,0,-8.30551,-3.2173,87.0769
2023-03-11 17:23:29:736,0,-8.30762,-3.21473,87.0786
2023-03-11 17:23:29:746,0,-8.30753,-3.21053,87.083
2023-03-11 17:23:29:756,0,-8.30955,-3.21054,87.0884
2023-03-11 17:23:29:766,0,-8.30772,-3.20838,87.0948
2023-03-11 17:23:29:776,0,-8.30772,-3.2066,87.102
2023-03-11 17:23:29:786,0,-8.30593,-3.20585,87.1127
2023-03-11 17:23:29:796,0,-8.30754,-3.19898,87.1213
2023-03-11 17:23:29:806,0,-8.31025,-3.19234,87.1278
2023-03-11 17:23:29:816,0,-8.31158,-3.18369,87.1333
2023-03-11 17:23:29:826,0,-8.31196,-3.17338,87.1354
2023-03-11 17:23:29:836,0,-8.31115,-3.16505,87.1359
2023-03-11 17:23:29:846,0,-8.31134,-3.15406,87.1296
2023-03-11 17:23:29:856,0,-8.30809,-3.14504,87.1207
2023-03-11 17:23:29:866,0,-8.30977,-3.13355,87.1098
2023-03-11 17:23:29:876,0,-8.30773,-3.12236,87.0964
2023-03-11 17:23:29:886,0,-8.30792,-3.11226,87.0785
2023-03-11 17:23:29:896,0,-8.30727,-3.10726,87.0599
2023-03-11 17:23:29:906,0,-8.30682,-3.09638,87.0417
2023-03-11 17:23:29:916,0,-8.30246,-3.08508,87.028
2023-03-11 17:23:29:926,0,-8.29455,-3.07869,87.0176
2023-03-11 17:23:29:936,0,-8.28596,-3.07211,87.0086
2023-03-11 17:23:29:946,0,-8.27319,-3.06234,87.0065
2023-03-11 17:23:29:956,0,-8.26508,-3.05583,87.005
2023-03-11 17:23:29:966,0,-8.25718,-3.04936,86.999
2023-03-11 17:23:29:976,0,-8.24578,-3.04273,86.9933
2023-03-11 17:23:29:986,0,-8.2294,-3.03453,86.985
2023-03-11 17:23:29:996,0,-8.20568,-3.0258,86.9769
2023-03-11 17:23:30:6,0,-8.18186,-3.01695,86.9647
2023-03-11 17:23:30:16,0,-8.15687,-3.00784,86.9545
2023-03-11 17:23:30:26,0,-8.13228,-2.99911,86.9375
2023-03-11 17:23:30:36,0,-8.11055,-2.9865,86.9198
2023-03-11 17:23:30:46,0,-8.09033,-2.97007,86.8974
2023-03-11 17:23:30:56,0,-8.07138,-2.95392,86.8787
2023-03-11 17:23:30:66,0,-8.05606,-2.94179,86.8567
2023-03-11 17:23:30:76,0,-8.03847,-2.92831,86.8356
2023-03-11 17:23:30:86,0,-8.02564,-2.91708,86.8175
2023-03-11 17:23:30:96,0,-8.0145,-2.91188,86.804
2023-03-11 17:23:30:106,0,-8.00709,-2.90699,86.7941
2023-03-11 17:23:30:116,0,-7.99723,-2.89725,86.785
2023-03-11 17:23:30:126,0,-7.98429,-2.89145,86.7777
2023-03-11 17:23:30:136,0,-7.97304,-2.88433,86.7706
2023-03-11 17:23:30:146,0,-7.96464,-2.87631,86.7656
2023-03-11 17:23:30:156,0,-7.95757,-2.87139,86.7635
2023-03-11 17:23:30:166,0,-7.95107,-2.86416,86.7649
2023-03-11 17:23:30:176,0,-7.94195,-2.86098,86.7699
2023-03-11 17:23:30:186,0,-7.9382,-2.85729,86.7749
2023-03-11 17:23:30:196,0,-7.93576,-2.85241,86.7837
2023-03-11 17:23:30:206,0,-7.93692,-2.85397,86.7916
2023-03-11 17:23:30:216,0,-7.94035,-2.85834,86.8013
2023-03-11 17:23:30:226,0,-7.94869,-2.86055,86.8076
2023-03-11 17:23:30:236,0,-7.95904,-2.87024,86.8141
2023-03-11 17:23:30:246,0,-7.96941,-2.87751,86.8149
2023-03-11 17:23:30:256,0,-7.97875,-2.88559,86.8168
2023-03-11 17:23:30:266,0,-7.98274,-2.89229,86.8162
2023-03-11 17:23:30:276,0,-7.98952,-2.90268,86.8153
2023-03-11 17:23:30:286,0,-7.99727,-2.90915,86.8151
2023-03-11 17:23:30:296,0,-7.99926,-2.91661,86.8144
2023-03-11 17:23:30:306,0,-8.00332,-2.92248,86.8096
2023-03-11 17:23:30:316,0,-7.99943,-2.9292,86.813
2023-03-11 17:23:30:326,0,-7.996,-2.93707,86.8237
2023-03-11 17:23:30:336,0,-7.99287,-2.94678,86.8438
2023-03-11 17:23:30:346,0,-7.98945,-2.95469,86.8641
2023-03-11 17:23:30:356,0,-7.98748,-2.95671,86.8865
2023-03-11 17:23:30:366,0,-7.98036,-2.95841,86.9066
2023-03-11 17:23:30:376,0,-7.97241,-2.96264,86.9247
2023-03-11 17:23:30:386,0,-7.96185,-2.96373,86.9425
2023-03-11 17:23:30:396,0,-7.94781,-2.96578,86.9584
2023-03-11 17:23:30:406,0,-7.9278,-2.96665,86.9708
2023-03-11 17:23:30:416,0,-7.9089,-2.96684,86.9796
2023-03-11 17:23:30:426,0,-7.8912,-2.96633,86.9836
2023-03-11 17:23:30:436,0,-7.87549,-2.96508,86.9833
2023-03-11 17:23:30:446,0,-7.86348,-2.96138,86.9814
2023-03-11 17:23:30:456,0,-7.85749,-2.9594,86.9749
2023-03-11 17:23:30:466,0,-7.85023,-2.95352,86.9659
2023-03-11 17:23:30:476,0,-7.84346,-2.95028,86.9608
2023-03-11 17:23:30:486,0,-7.83774,-2.94856,86.9538
2023-03-11 17:23:30:496,0,-7.8303,-2.94174,86.9481
2023-03-11 17:23:30:506,0,-7.81864,-2.93213,86.9444
2023-03-11 17:23:30:516,0,-7.80462,-2.92543,86.9439
2023-03-11 17:23:30:526,0,-7.79222,-2.9214,86.9453
2023-03-11 17:23:30:536,0,-7.7847,-2.91645,86.9508
2023-03-11 17:23:30:546,0,-7.78231,-2.90692,86.9568
2023-03-11 17:23:30:556,0,-7.78289,-2.90004,86.9667
2023-03-11 17:23:30:566,0,-7.79158,-2.89196,86.974
2023-03-11 17:23:30:576,0,-7.79911,-2.88572,86.981
2023-03-11 17:23:30:586,0,-7.80301,-2.87921,86.9865
2023-03-11 17:23:30:596,0,-7.80853,-2.87246,86.9892
2023-03-11 17:23:30:606,0,-7.81143,-2.86618,86.9916
2023-03-11 17:23:30:616,0,-7.81049,-2.85979,86.9988
2023-03-11 17:23:30:626,0,-7.80978,-2.85516,87.0025
2023-03-11 17:23:30:636,0,-7.8096,-2.8483,87.0001
2023-03-11 17:23:30:646,0,-7.8098,-2.84062,86.9952
2023-03-11 17:23:30:656,0,-7.8095,-2.83398,86.9938
2023-03-11 17:23:30:666,0,-7.8068,-2.8251,86.9913
2023-03-11 17:23:30:676,0,-7.80081,-2.81867,86.9874
2023-03-11 17:23:30:686,0,-7.78737,-2.80876,86.985
2023-03-11 17:23:30:696,0,-7.77674,-2.80134,86.9812
2023-03-11 17:23:30:706,0,-7.76489,-2.79351,86.9771
2023-03-11 17:23:30:716,0,-7.75684,-2.78348,86.975
2023-03-11 17:23:30:726,0,-7.74703,-2.76877,86.9699
2023-03-11 17:23:30:736,0,-7.73302,-2.75819,86.9686
2023-03-11 17:23:30:746,0,-7.71505,-2.74642,86.9703
2023-03-11 17:23:30:756,0,-7.69628,-2.73173,86.9735
2023-03-11 17:23:30:766,0,-7.6764,-2.71537,86.9769
2023-03-11 17:23:30:776,0,-7.65738,-2.69966,86.9813
2023-03-11 17:23:30:786,0,-7.63799,-2.68526,86.9865
2023-03-11 17:23:30:796,0,-7.61907,-2.67044,86.9898
2023-03-11 17:23:30:806,0,-7.59915,-2.65501,86.99
2023-03-11 17:23:30:816,0,-7.58178,-2.63945,86.9892
2023-03-11 17:23:30:826,0,-7.5676,-2.62385,86.9893
2023-03-11 17:23:30:836,0,-7.55247,-2.6076,86.9888
2023-03-11 17:23:30:846,0,-7.53647,-2.59701,86.9841
2023-03-11 17:23:30:856,0,-7.51523,-2.59007,86.9822
2023-03-11 17:23:30:866,0,-7.48791,-2.58895,86.9814
2023-03-11 17:23:30:876,0,-7.4599,-2.59118,86.9839
2023-03-11 17:23:30:886,0,-7.43432,-2.59483,86.9872
2023-03-11 17:23:30:896,0,-7.41218,-2.6,86.9926
2023-03-11 17:23:30:906,0,-7.39512,-2.60546,87.0028
2023-03-11 17:23:30:916,0,-7.37461,-2.61017,87.0153
2023-03-11 17:23:30:926,0,-7.36263,-2.61485,87.0286
2023-03-11 17:23:30:936,0,-7.35059,-2.6189,87.0438
2023-03-11 17:23:30:946,0,-7.34567,-2.62075,87.0563
2023-03-11 17:23:30:956,0,-7.34026,-2.62309,87.0695
2023-03-11 17:23:30:966,0,-7.33052,-2.62504,87.0765
2023-03-11 17:23:30:976,0,-7.31964,-2.62788,87.0849
2023-03-11 17:23:30:986,0,-7.30552,-2.62907,87.0914
2023-03-11 17:23:30:996,0,-7.29536,-2.62676,87.0982
2023-03-11 17:23:31:6,0,-7.28346,-2.62105,87.0981
2023-03-11 17:23:31:16,0,-7.27532,-2.61583,87.0947
2023-03-11 17:23:31:26,0,-7.26861,-2.60789,87.0875
2023-03-11 17:23:31:36,0,-7.25759,-2.60199,87.0786
2023-03-11 17:23:31:46,0,-7.24776,-2.59964,87.0709
2023-03-11 17:23:31:56,0,-7.24077,-2.59244,87.0625
2023-03-11 17:23:31:66,0,-7.23301,-2.58141,87.0546
2023-03-11 17:23:31:76,0,-7.2268,-2.57319,87.0475
2023-03-11 17:23:31:86,0,-7.21908,-2.56431,87.0385
2023-03-11 17:23:31:96,0,-7.2074,-2.55816,87.0323
2023-03-11 17:23:31:106,0,-7.19497,-2.55537,87.0287
2023-03-11 17:23:31:116,0,-7.18479,-2.56035,87.0299
2023-03-11 17:23:31:126,0,-7.17422,-2.56447,87.0321
2023-03-11 17:23:31:136,0,-7.16018,-2.567,87.0341
2023-03-11 17:23:31:146,0,-7.1443,-2.56809,87.0364
2023-03-11 17:23:31:156,0,-7.13088,-2.56901,87.0401
2023-03-11 17:23:31:166,0,-7.1138,-2.57123,87.0464
2023-03-11 17:23:31:176,0,-7.09785,-2.57749,87.0536
2023-03-11 17:23:31:186,0,-7.08346,-2.59009,87.0634
2023-03-11 17:23:31:196,0,-7.07362,-2.60409,87.0719
2023-03-11 17:23:31:206,0,-7.06606,-2.61476,87.0836
2023-03-11 17:23:31:216,0,-7.06437,-2.62374,87.0903
2023-03-11 17:23:31:226,0,-7.06166,-2.63629,87.0979
2023-03-11 17:23:31:236,0,-7.05669,-2.64988,87.1057
2023-03-11 17:23:31:246,0,-7.05135,-2.66647,87.115
2023-03-11 17:23:31:256,0,-7.04708,-2.68558,87.1209
2023-03-11 17:23:31:266,0,-7.04214,-2.70188,87.126
2023-03-11 17:23:31:276,0,-7.03751,-2.71989,87.1363
2023-03-11 17:23:31:286,0,-7.03884,-2.73704,87.1461
2023-03-11 17:23:31:296,0,-7.04233,-2.74974,87.1558
2023-03-11 17:23:31:306,0,-7.05023,-2.76244,87.1693
2023-03-11 17:23:31:316,0,-7.06151,-2.77558,87.1835
2023-03-11 17:23:31:326,0,-7.07363,-2.786,87.2017
2023-03-11 17:23:31:336,0,-7.09276,-2.79288,87.2151
2023-03-11 17:23:31:346,0,-7.11081,-2.79938,87.2264
2023-03-11 17:23:31:356,0,-7.12597,-2.80109,87.2383
2023-03-11 17:23:31:366,0,-7.14438,-2.80221,87.2455
2023-03-11 17:23:31:376,0,-7.15605,-2.80051,87.2461
2023-03-11 17:23:31:386,0,-7.16571,-2.80028,87.2426
2023-03-11 17:23:31:396,0,-7.17666,-2.79702,87.2364
2023-03-11 17:23:31:406,0,-7.18945,-2.79305,87.2246
2023-03-11 17:23:31:416,0,-7.20272,-2.78692,87.2108
2023-03-11 17:23:31:426,0,-7.21445,-2.78433,87.1957
2023-03-11 17:23:31:436,0,-7.22614,-2.77549,87.1805
2023-03-11 17:23:31:446,0,-7.23345,-2.76534,87.1617
2023-03-11 17:23:31:456,0,-7.24207,-2.75911,87.145
2023-03-11 17:23:31:466,0,-7.24896,-2.75021,87.1325
2023-03-11 17:23:31:476,0,-7.25406,-2.73834,87.1212
2023-03-11 17:23:31:486,0,-7.25782,-2.73205,87.1129
2023-03-11 17:23:31:496,0,-7.2589,-2.72641,87.1056
2023-03-11 17:23:31:506,0,-7.25716,-2.71374,87.1046
2023-03-11 17:23:31:516,0,-7.25501,-2.70891,87.1007
2023-03-11 17:23:31:526,0,-7.2491,-2.70381,87.1018
2023-03-11 17:23:31:536,0,-7.2447,-2.69714,87.1
2023-03-11 17:23:31:546,0,-7.23968,-2.69772,87.1023
2023-03-11 17:23:31:556,0,-7.23759,-2.69539,87.102
2023-03-11 17:23:31:566,0,-7.23314,-2.68972,87.1028
2023-03-11 17:23:31:576,0,-7.23282,-2.68421,87.1064
2023-03-11 17:23:31:586,0,-7.236,-2.68008,87.1038
2023-03-11 17:23:31:596,0,-7.23768,-2.67377,87.0998
2023-03-11 17:23:31:606,0,-7.23668,-2.66559,87.0971
2023-03-11 17:23:31:616,0,-7.23978,-2.66492,87.0951
2023-03-11 17:23:31:626,0,-7.24361,-2.66328,87.0912
2023-03-11 17:23:31:636,0,-7.24585,-2.65816,87.0855
2023-03-11 17:23:31:646,0,-7.25777,-2.65493,87.0795
2023-03-11 17:23:31:656,0,-7.26609,-2.65242,87.0733
2023-03-11 17:23:31:666,0,-7.27309,-2.654,87.0667
2023-03-11 17:23:31:676,0,-7.28635,-2.65713,87.0672
2023-03-11 17:23:31:686,0,-7.29775,-2.66102,87.0675
2023-03-11 17:23:31:696,0,-7.31424,-2.66799,87.0722
2023-03-11 17:23:31:706,0,-7.33474,-2.67337,87.0752
2023-03-11 17:23:31:716,0,-7.36229,-2.68141,87.0861
2023-03-11 17:23:31:726,0,-7.38874,-2.68327,87.0947
2023-03-11 17:23:31:736,0,-7.41329,-2.68537,87.1063
2023-03-11 17:23:31:746,0,-7.43586,-2.68727,87.1155
2023-03-11 17:23:31:756,0,-7.46056,-2.68687,87.1238
2023-03-11 17:23:31:766,0,-7.48225,-2.68301,87.1334
2023-03-11 17:23:31:776,0,-7.50685,-2.67703,87.1377
2023-03-11 17:23:31:786,0,-7.53078,-2.66685,87.1368
2023-03-11 17:23:31:796,0,-7.55828,-2.65586,87.1314
2023-03-11 17:23:31:806,0,-7.58109,-2.64248,87.1212
2023-03-11 17:23:31:816,0,-7.60744,-2.62709,87.1077
2023-03-11 17:23:31:826,0,-7.62891,-2.60902,87.0911
2023-03-11 17:23:31:836,0,-7.65287,-2.59348,87.0703
2023-03-11 17:23:31:846,0,-7.67058,-2.57863,87.0498
2023-03-11 17:23:31:856,0,-7.68695,-2.5663,87.0276
2023-03-11 17:23:31:866,0,-7.70397,-2.54925,87.0084
2023-03-11 17:23:31:876,0,-7.71495,-2.5282,86.9899
2023-03-11 17:23:31:886,0,-7.72592,-2.50547,86.9696
2023-03-11 17:23:31:896,0,-7.72734,-2.48213,86.9488
2023-03-11 17:23:31:906,0,-7.72102,-2.46573,86.9303
2023-03-11 17:23:31:916,0,-7.70566,-2.45227,86.9176
2023-03-11 17:23:31:926,0,-7.68321,-2.44299,86.9091
2023-03-11 17:23:31:936,0,-7.65668,-2.43427,86.9019
2023-03-11 17:23:31:946,0,-7.62716,-2.4292,86.8979
2023-03-11 17:23:31:956,0,-7.58897,-2.42233,86.8948
2023-03-11 17:23:31:966,0,-7.54212,-2.41564,86.8946
2023-03-11 17:23:31:976,0,-7.48592,-2.40986,86.8952
2023-03-11 17:23:31:986,0,-7.42514,-2.40597,86.8986
2023-03-11 17:23:31:996,0,-7.35727,-2.40662,86.9008
2023-03-11 17:23:32:6,0,-7.28275,-2.40754,86.8997
2023-03-11 17:23:32:16,0,-7.20842,-2.4111,86.8991
2023-03-11 17:23:32:26,0,-7.11883,-2.42182,86.8981
2023-03-11 17:23:32:36,0,-7.01519,-2.43523,86.8997
2023-03-11 17:23:32:46,0,-6.89667,-2.44883,86.9019
2023-03-11 17:23:32:56,0,-6.76509,-2.46027,86.9027
2023-03-11 17:23:32:66,0,-6.62405,-2.47488,86.9021
2023-03-11 17:23:32:76,0,-6.46419,-2.48993,86.9033
2023-03-11 17:23:32:86,0,-6.29115,-2.50598,86.9056
2023-03-11 17:23:32:96,0,-6.10166,-2.52395,86.9095
2023-03-11 17:23:32:106,0,-5.89961,-2.54177,86.9179
2023-03-11 17:23:32:116,0,-5.67643,-2.56047,86.9245
2023-03-11 17:23:32:126,0,-5.43123,-2.57538,86.9321
2023-03-11 17:23:32:136,0,-5.16616,-2.59046,86.9391
2023-03-11 17:23:32:146,0,-4.88118,-2.60426,86.9384
2023-03-11 17:23:32:156,0,-4.58525,-2.62379,86.9416
2023-03-11 17:23:32:166,0,-4.2747,-2.64179,86.9439
2023-03-11 17:23:32:176,0,-3.94854,-2.66151,86.9484
2023-03-11 17:23:32:186,0,-3.60222,-2.68037,86.95
2023-03-11 17:23:32:196,0,-3.23694,-2.69831,86.9546
2023-03-11 17:23:32:206,0,-2.85725,-2.71097,86.9537
2023-03-11 17:23:32:216,0,-2.45897,-2.72017,86.9501
2023-03-11 17:23:32:226,0,-2.05076,-2.73297,86.9502
2023-03-11 17:23:32:236,0,-1.6277,-2.74621,86.9434
2023-03-11 17:23:32:246,0,-1.19827,-2.75843,86.9333
2023-03-11 17:23:32:256,0,-0.752286,-2.76995,86.9227
2023-03-11 17:23:32:266,0,-0.295748,-2.77861,86.9059
2023-03-11 17:23:32:276,0,0.184265,-2.7892,86.8853
2023-03-11 17:23:32:286,0,0.680365,-2.79982,86.8647
2023-03-11 17:23:32:296,0,1.19578,-2.80805,86.8458
2023-03-11 17:23:32:306,0,1.73088,-2.82172,86.8265
2023-03-11 17:23:32:316,0,2.28765,-2.83673,86.8056
2023-03-11 17:23:32:326,0,2.86029,-2.85538,86.7816
2023-03-11 17:23:32:336,0,3.44929,-2.87814,86.757
2023-03-11 17:23:32:346,0,4.05598,-2.90421,86.728
2023-03-11 17:23:32:356,0,4.68452,-2.93212,86.7014
2023-03-11 17:23:32:366,0,5.32842,-2.9681,86.6742
2023-03-11 17:23:32:376,0,5.98666,-3.00178,86.6412
2023-03-11 17:23:32:386,0,6.65447,-3.03168,86.6054
2023-03-11 17:23:32:396,0,7.33323,-3.05538,86.5643
2023-03-11 17:23:32:406,0,8.02379,-3.07701,86.5204
2023-03-11 17:23:32:416,0,8.72795,-3.10075,86.4732
2023-03-11 17:23:32:426,0,9.4464,-3.12655,86.4165
2023-03-11 17:23:32:436,0,10.1807,-3.15512,86.3561
2023-03-11 17:23:32:446,0,10.9334,-3.17787,86.2919
2023-03-11 17:23:32:456,0,11.702,-3.20007,86.2247
2023-03-11 17:23:32:466,0,12.483,-3.20996,86.1553
2023-03-11 17:23:32:476,0,13.2771,-3.21431,86.0907
2023-03-11 17:23:32:486,0,14.0738,-3.21794,86.0305
2023-03-11 17:23:32:496,3,14.8773,-3.21777,85.9702
2023-03-11 17:23:32:506,3,15.6841,-3.21816,85.9092
2023-03-11 17:23:32:516,3,16.4924,-3.21578,85.8429
2023-03-11 17:23:32:526,3,17.2994,-3.20528,85.7816
2023-03-11 17:23:32:536,3,18.1075,-3.19126,85.7193
2023-03-11 17:23:32:546,3,18.9158,-3.17716,85.6479
2023-03-11 17:23:32:556,3,19.7343,-3.17343,85.5748
2023-03-11 17:23:32:566,3,20.5605,-3.17192,85.4797
2023-03-11 17:23:32:576,3,21.3897,-3.16774,85.4013
2023-03-11 17:23:32:586,3,22.2171,-3.14817,85.3331
2023-03-11 17:23:32:596,3,23.05,-3.1177,85.263
2023-03-11 17:23:32:606,3,23.8836,-3.06592,85.1891
2023-03-11 17:23:32:616,3,24.7325,-3.00434,85.119
2023-03-11 17:23:32:626,3,25.5958,-2.94344,85.0445
2023-03-11 17:23:32:636,3,26.4678,-2.8831,84.9751
2023-03-11 17:23:32:646,3,27.353,-2.82244,84.9045
2023-03-11 17:23:32:656,3,28.2653,-2.75923,84.831
2023-03-11 17:23:32:666,3,29.2041,-2.68622,84.7613
2023-03-11 17:23:32:676,3,30.1778,-2.60327,84.6893
2023-03-11 17:23:32:686,3,31.1832,-2.51064,84.6095
2023-03-11 17:23:32:696,3,32.2209,-2.40732,84.5248
2023-03-11 17:23:32:706,3,33.2832,-2.29774,84.4411
2023-03-11 17:23:32:716,3,34.3536,-2.19129,84.3519
2023-03-11 17:23:32:726,3,35.4356,-2.09556,84.2573
2023-03-11 17:23:32:736,3,36.538,-2.00783,84.1584
2023-03-11 17:23:32:746,3,37.6597,-1.92113,84.0528
2023-03-11 17:23:32:756,3,38.7999,-1.83625,83.9436
2023-03-11 17:23:32:766,3,39.9602,-1.74747,83.8339
2023-03-11 17:23:32:776,3,41.13,-1.64827,83.7176
2023-03-11 17:23:32:786,3,42.2969,-1.54151,83.5977
2023-03-11 17:23:32:796,3,43.4649,-1.4267,83.4694
2023-03-11 17:23:32:806,3,44.6283,-1.30868,83.3355
2023-03-11 17:23:32:816,3,45.7859,-1.19696,83.193
2023-03-11 17:23:32:826,3,46.9474,-1.0893,83.0538
2023-03-11 17:23:32:836,3,48.1052,-0.986661,82.9178
2023-03-11 17:23:32:846,3,49.2522,-0.887273,82.7865
2023-03-11 17:23:32:856,3,50.3755,-0.786676,82.664
2023-03-11 17:23:32:866,3,51.4741,-0.677802,82.5481
2023-03-11 17:23:32:876,3,52.5258,-0.567273,82.4388
2023-03-11 17:23:32:886,3,53.5357,-0.452571,82.3364
2023-03-11 17:23:32:896,3,54.5025,-0.334278,82.2388
2023-03-11 17:23:32:906,3,55.4321,-0.218418,82.145
2023-03-11 17:23:32:916,3,56.317,-0.0986921,82.0516
2023-03-11 17:23:32:926,3,57.1566,0.0255093,81.9681
2023-03-11 17:23:32:936,3,57.9791,0.151041,81.8839
2023-03-11 17:23:32:946,3,58.7929,0.277165,81.8001
2023-03-11 17:23:32:956,3,59.5965,0.396984,81.7091
2023-03-11 17:23:32:966,3,60.3827,0.51036,81.6226
2023-03-11 17:23:32:976,3,61.1494,0.617143,81.534
2023-03-11 17:23:32:986,3,61.9084,0.716016,81.4461
2023-03-11 17:23:32:996,3,62.681,0.812529,81.3596
2023-03-11 17:23:33:6,3,63.4579,0.911215,81.2846
2023-03-11 17:23:33:16,3,64.2305,1.0171,81.2175
2023-03-11 17:23:33:26,3,65.0022,1.13221,81.1583
2023-03-11 17:23:33:36,3,65.7615,1.25657,81.1133
2023-03-11 17:23:33:46,3,66.5141,1.39119,81.07
