Timestamp_cmd,imu_cmd,roll_delta,pitch_delta,yaw_delta
2023-03-11 16:03:54:188,0,-17.3429,-2.71863,90.843
2023-03-11 16:03:54:196,0,-17.3706,-2.71451,90.847
2023-03-11 16:03:54:206,0,-17.3977,-2.7074,90.8496
2023-03-11 16:03:54:217,0,-17.4257,-2.69853,90.8514
2023-03-11 16:03:54:226,0,-17.452,-2.68825,90.8531
2023-03-11 16:03:54:236,0,-17.4754,-2.68008,90.8555
2023-03-11 16:03:54:246,0,-17.4899,-2.66848,90.8557
2023-03-11 16:03:54:256,0,-17.4985,-2.65733,90.8578
2023-03-11 16:03:54:266,0,-17.5036,-2.64916,90.8567
2023-03-11 16:03:54:276,0,-17.5097,-2.63859,90.8588
2023-03-11 16:03:54:286,0,-17.5082,-2.62404,90.8583
2023-03-11 16:03:54:296,0,-17.5094,-2.60706,90.8551
2023-03-11 16:03:54:306,0,-17.5131,-2.58987,90.8517
2023-03-11 16:03:54:316,0,-17.5159,-2.5693,90.8465
2023-03-11 16:03:54:326,0,-17.5191,-2.55061,90.8381
2023-03-11 16:03:54:336,0,-17.5162,-2.52778,90.8302
2023-03-11 16:03:54:346,0,-17.5102,-2.50056,90.8154
2023-03-11 16:03:54:356,0,-17.497,-2.47563,90.8017
2023-03-11 16:03:54:366,0,-17.4737,-2.45078,90.7869
2023-03-11 16:03:54:376,0,-17.4466,-2.42539,90.7716
2023-03-11 16:03:54:386,0,-17.4233,-2.40202,90.7542
2023-03-11 16:03:54:396,0,-17.4012,-2.37886,90.7423
2023-03-11 16:03:54:406,0,-17.3846,-2.35643,90.7322
2023-03-11 16:03:54:416,0,-17.3734,-2.33739,90.7281
2023-03-11 16:03:54:426,0,-17.3668,-2.32367,90.7284
2023-03-11 16:03:54:436,0,-17.3561,-2.31427,90.7333
2023-03-11 16:03:54:446,0,-17.3387,-2.31453,90.7439
2023-03-11 16:03:54:456,0,-17.3287,-2.32342,90.762
2023-03-11 16:03:54:466,0,-17.3265,-2.33452,90.7852
2023-03-11 16:03:54:476,0,-17.3312,-2.34769,90.8101
2023-03-11 16:03:54:486,0,-17.3396,-2.36124,90.8308
2023-03-11 16:03:54:496,0,-17.3507,-2.37235,90.8527
2023-03-11 16:03:54:506,0,-17.3604,-2.38509,90.8755
2023-03-11 16:03:54:516,0,-17.3749,-2.3921,90.8977
2023-03-11 16:03:54:526,0,-17.3816,-2.39688,90.9158
2023-03-11 16:03:54:536,0,-17.3799,-2.39899,90.9273
2023-03-11 16:03:54:546,0,-17.3705,-2.402,90.9335
2023-03-11 16:03:54:556,0,-17.3593,-2.40278,90.9323
2023-03-11 16:03:54:566,0,-17.3451,-2.40288,90.9246
2023-03-11 16:03:54:576,0,-17.3309,-2.39699,90.9122
2023-03-11 16:03:54:586,0,-17.3195,-2.39239,90.8966
2023-03-11 16:03:54:596,0,-17.3147,-2.38736,90.8745
2023-03-11 16:03:54:606,0,-17.3137,-2.37596,90.8504
2023-03-11 16:03:54:616,0,-17.3138,-2.36803,90.8271
2023-03-11 16:03:54:626,0,-17.3135,-2.3591,90.8067
2023-03-11 16:03:54:636,0,-17.3114,-2.35129,90.7936
2023-03-11 16:03:54:646,0,-17.3085,-2.34438,90.7812
2023-03-11 16:03:54:656,0,-17.3009,-2.33953,90.774
2023-03-11 16:03:54:666,0,-17.2889,-2.33413,90.7701
2023-03-11 16:03:54:676,0,-17.279,-2.33062,90.7717
2023-03-11 16:03:54:686,0,-17.2716,-2.32725,90.7781
2023-03-11 16:03:54:696,0,-17.2678,-2.32591,90.7917
2023-03-11 16:03:54:706,0,-17.2695,-2.3247,90.8077
2023-03-11 16:03:54:716,0,-17.2712,-2.32077,90.8248
2023-03-11 16:03:54:726,0,-17.2742,-2.31553,90.8417
2023-03-11 16:03:54:736,0,-17.2715,-2.31024,90.8606
2023-03-11 16:03:54:746,0,-17.2665,-2.30783,90.8838
2023-03-11 16:03:54:756,0,-17.2594,-2.30795,90.9119
2023-03-11 16:03:54:766,0,-17.2386,-2.30788,90.9411
2023-03-11 16:03:54:776,0,-17.221,-2.30596,90.9729
2023-03-11 16:03:54:786,0,-17.2047,-2.30468,91.0061
2023-03-11 16:03:54:796,0,-17.1846,-2.30481,91.0357
2023-03-11 16:03:54:806,0,-17.1669,-2.30285,91.0608
2023-03-11 16:03:54:816,0,-17.1552,-2.30058,91.0822
2023-03-11 16:03:54:826,0,-17.1444,-2.29699,91.0959
2023-03-11 16:03:54:836,0,-17.1387,-2.29501,91.1018
2023-03-11 16:03:54:846,0,-17.1339,-2.29474,91.1004
2023-03-11 16:03:54:856,0,-17.1326,-2.29419,91.0898
2023-03-11 16:03:54:866,0,-17.1333,-2.29429,91.0734
2023-03-11 16:03:54:876,0,-17.135,-2.293,91.0494
2023-03-11 16:03:54:886,0,-17.1362,-2.28806,91.023
2023-03-11 16:03:54:896,0,-17.1422,-2.27902,90.9973
2023-03-11 16:03:54:906,0,-17.1476,-2.26958,90.9731
2023-03-11 16:03:54:916,0,-17.1549,-2.25568,90.9504
2023-03-11 16:03:54:926,0,-17.1533,-2.24321,90.9321
2023-03-11 16:03:54:936,0,-17.1605,-2.22777,90.9251
2023-03-11 16:03:54:946,0,-17.1694,-2.21635,90.9242
2023-03-11 16:03:54:956,0,-17.1795,-2.20463,90.9267
2023-03-11 16:03:54:966,0,-17.1906,-2.19097,90.9292
2023-03-11 16:03:54:976,0,-17.2055,-2.17719,90.9377
2023-03-11 16:03:54:986,0,-17.2286,-2.16051,90.9487
2023-03-11 16:03:54:996,0,-17.2567,-2.15209,90.9604
2023-03-11 16:03:55:6,0,-17.2821,-2.14777,90.9763
2023-03-11 16:03:55:16,0,-17.3103,-2.15107,90.9921
2023-03-11 16:03:55:26,0,-17.3398,-2.15659,91.0059
2023-03-11 16:03:55:36,0,-17.3669,-2.16207,91.019
2023-03-11 16:03:55:46,0,-17.3917,-2.16896,91.0273
2023-03-11 16:03:55:56,0,-17.4154,-2.17871,91.0358
2023-03-11 16:03:55:66,0,-17.4367,-2.18097,91.041
2023-03-11 16:03:55:76,0,-17.4541,-2.18244,91.0425
2023-03-11 16:03:55:86,0,-17.4657,-2.17881,91.0372
2023-03-11 16:03:55:96,0,-17.4753,-2.17659,91.0306
2023-03-11 16:03:55:106,0,-17.4856,-2.17046,91.0213
2023-03-11 16:03:55:116,0,-17.4939,-2.16563,91.0076
2023-03-11 16:03:55:126,0,-17.5057,-2.1584,90.9947
2023-03-11 16:03:55:136,0,-17.5172,-2.1513,90.9826
2023-03-11 16:03:55:146,0,-17.5217,-2.1452,90.9706
2023-03-11 16:03:55:156,0,-17.5215,-2.14009,90.9574
2023-03-11 16:03:55:166,0,-17.5212,-2.13384,90.9511
2023-03-11 16:03:55:176,0,-17.5224,-2.12833,90.95
2023-03-11 16:03:55:186,0,-17.5225,-2.12085,90.9525
2023-03-11 16:03:55:196,0,-17.5245,-2.10981,90.96
2023-03-11 16:03:55:206,0,-17.5286,-2.09394,90.9714
2023-03-11 16:03:55:216,0,-17.5314,-2.07884,90.9859
2023-03-11 16:03:55:226,0,-17.5317,-2.05952,91.003
2023-03-11 16:03:55:236,0,-17.5296,-2.04363,91.0237
2023-03-11 16:03:55:246,0,-17.5273,-2.03031,91.0491
2023-03-11 16:03:55:256,0,-17.5266,-2.0193,91.0769
2023-03-11 16:03:55:266,0,-17.5336,-2.00905,91.106
2023-03-11 16:03:55:276,0,-17.5463,-2.00008,91.1321
2023-03-11 16:03:55:286,0,-17.5648,-1.99276,91.1549
2023-03-11 16:03:55:296,0,-17.5912,-1.9889,91.1713
2023-03-11 16:03:55:306,0,-17.6222,-1.98976,91.1794
2023-03-11 16:03:55:316,0,-17.6601,-1.99568,91.1838
2023-03-11 16:03:55:326,0,-17.6965,-2.00542,91.1795
2023-03-11 16:03:55:336,0,-17.73,-2.01704,91.1702
2023-03-11 16:03:55:346,0,-17.7603,-2.03218,91.1533
2023-03-11 16:03:55:356,0,-17.7878,-2.04717,91.1262
2023-03-11 16:03:55:367,0,-17.807,-2.06124,91.0969
2023-03-11 16:03:55:377,0,-17.8161,-2.07916,91.0677
2023-03-11 16:03:55:387,0,-17.8187,-2.09748,91.0442
2023-03-11 16:03:55:397,0,-17.8167,-2.11548,91.0251
2023-03-11 16:03:55:407,0,-17.8123,-2.13262,91.0149
2023-03-11 16:03:55:417,0,-17.8018,-2.1402,91.0029
2023-03-11 16:03:55:427,0,-17.7876,-2.14597,91.0004
2023-03-11 16:03:55:437,0,-17.7709,-2.1463,90.9943
2023-03-11 16:03:55:447,0,-17.7523,-2.14677,90.996
2023-03-11 16:03:55:457,0,-17.7379,-2.14489,91.003
2023-03-11 16:03:55:467,0,-17.7246,-2.14089,91.0121
2023-03-11 16:03:55:477,0,-17.7116,-2.13856,91.0283
2023-03-11 16:03:55:487,0,-17.7026,-2.13775,91.0454
2023-03-11 16:03:55:497,0,-17.6983,-2.14201,91.0659
2023-03-11 16:03:55:507,0,-17.6986,-2.14625,91.0864
2023-03-11 16:03:55:517,0,-17.7072,-2.15281,91.1091
2023-03-11 16:03:55:527,0,-17.7189,-2.15964,91.1257
2023-03-11 16:03:55:537,0,-17.7361,-2.16382,91.1379
2023-03-11 16:03:55:547,0,-17.7517,-2.16743,91.1461
2023-03-11 16:03:55:557,0,-17.7732,-2.17309,91.149
2023-03-11 16:03:55:567,0,-17.7941,-2.18227,91.1519
2023-03-11 16:03:55:577,0,-17.8104,-2.18909,91.1551
2023-03-11 16:03:55:587,0,-17.8256,-2.1992,91.1594
2023-03-11 16:03:55:597,0,-17.8394,-2.20622,91.1671
2023-03-11 16:03:55:607,0,-17.8465,-2.2136,91.178
2023-03-11 16:03:55:617,0,-17.8461,-2.2169,91.1946
2023-03-11 16:03:55:627,0,-17.835,-2.21675,91.211
2023-03-11 16:03:55:637,0,-17.8195,-2.21185,91.2326
2023-03-11 16:03:55:646,0,-17.8022,-2.20785,91.2506
2023-03-11 16:03:55:657,0,-17.7877,-2.20353,91.2707
2023-03-11 16:03:55:666,0,-17.7768,-2.20199,91.2863
2023-03-11 16:03:55:676,0,-17.7679,-2.20147,91.2984
2023-03-11 16:03:55:687,0,-17.7627,-2.19822,91.3009
2023-03-11 16:03:55:696,0,-17.7636,-2.20149,91.3001
2023-03-11 16:03:55:706,0,-17.7664,-2.20868,91.2931
2023-03-11 16:03:55:716,0,-17.7708,-2.21914,91.2791
2023-03-11 16:03:55:726,0,-17.7758,-2.23041,91.263
2023-03-11 16:03:55:736,0,-17.7814,-2.24594,91.2463
2023-03-11 16:03:55:746,0,-17.7873,-2.26415,91.2281
2023-03-11 16:03:55:756,0,-17.7951,-2.27785,91.2147
2023-03-11 16:03:55:766,0,-17.8037,-2.28752,91.1999
2023-03-11 16:03:55:777,0,-17.805,-2.29724,91.1874
2023-03-11 16:03:55:786,0,-17.8086,-2.30146,91.1848
2023-03-11 16:03:55:796,0,-17.8099,-2.30116,91.1881
2023-03-11 16:03:55:806,0,-17.8058,-2.3013,91.1955
2023-03-11 16:03:55:816,0,-17.7984,-2.29895,91.2103
2023-03-11 16:03:55:826,0,-17.7892,-2.2988,91.2333
2023-03-11 16:03:55:836,0,-17.7768,-2.29989,91.2599
2023-03-11 16:03:55:846,0,-17.7686,-2.2992,91.2916
2023-03-11 16:03:55:856,0,-17.764,-2.30048,91.3267
2023-03-11 16:03:55:866,0,-17.7601,-2.30301,91.3612
2023-03-11 16:03:55:876,0,-17.7557,-2.30966,91.3972
2023-03-11 16:03:55:886,0,-17.7525,-2.31771,91.4319
2023-03-11 16:03:55:896,0,-17.7528,-2.33007,91.462
2023-03-11 16:03:55:907,0,-17.7553,-2.34112,91.4902
2023-03-11 16:03:55:917,0,-17.7606,-2.35024,91.5071
2023-03-11 16:03:55:926,0,-17.7622,-2.35488,91.5157
2023-03-11 16:03:55:937,0,-17.7562,-2.35491,91.5154
2023-03-11 16:03:55:947,0,-17.7487,-2.35559,91.5074
2023-03-11 16:03:55:956,0,-17.735,-2.35176,91.4939
2023-03-11 16:03:55:967,0,-17.7205,-2.34909,91.4763
2023-03-11 16:03:55:977,0,-17.7016,-2.34622,91.4546
2023-03-11 16:03:55:986,0,-17.6773,-2.34302,91.4369
2023-03-11 16:03:55:997,0,-17.6558,-2.34099,91.4122
2023-03-11 16:03:56:6,0,-17.6332,-2.33608,91.3924
2023-03-11 16:03:56:17,0,-17.6135,-2.33345,91.3734
2023-03-11 16:03:56:26,0,-17.5958,-2.33391,91.3577
2023-03-11 16:03:56:37,0,-17.5806,-2.33428,91.342
2023-03-11 16:03:56:47,0,-17.5736,-2.33723,91.3282
2023-03-11 16:03:56:57,0,-17.5705,-2.33889,91.3159
2023-03-11 16:03:56:66,0,-17.5671,-2.34473,91.3071
2023-03-11 16:03:56:77,0,-17.5654,-2.3481,91.2976
2023-03-11 16:03:56:87,0,-17.5597,-2.34935,91.2873
2023-03-11 16:03:56:96,0,-17.5462,-2.35539,91.2823
2023-03-11 16:03:56:107,0,-17.5402,-2.36602,91.2848
2023-03-11 16:03:56:117,0,-17.5328,-2.37844,91.2899
2023-03-11 16:03:56:127,0,-17.5311,-2.39192,91.2976
2023-03-11 16:03:56:137,0,-17.5267,-2.40501,91.309
2023-03-11 16:03:56:146,0,-17.5255,-2.40641,91.317
2023-03-11 16:03:56:156,0,-17.5249,-2.40707,91.3248
2023-03-11 16:03:56:166,0,-17.5224,-2.40388,91.3292
2023-03-11 16:03:56:176,0,-17.522,-2.4027,91.3328
2023-03-11 16:03:56:187,0,-17.5204,-2.39887,91.3293
2023-03-11 16:03:56:197,0,-17.5157,-2.39377,91.3252
2023-03-11 16:03:56:207,0,-17.5122,-2.39147,91.3166
2023-03-11 16:03:56:217,0,-17.5041,-2.39331,91.3097
2023-03-11 16:03:56:227,0,-17.4958,-2.3963,91.3016
2023-03-11 16:03:56:237,0,-17.493,-2.40097,91.2926
2023-03-11 16:03:56:247,0,-17.4912,-2.40163,91.287
2023-03-11 16:03:56:257,0,-17.4899,-2.40724,91.2811
2023-03-11 16:03:56:267,0,-17.4827,-2.41283,91.278
2023-03-11 16:03:56:277,0,-17.4727,-2.42019,91.2807
2023-03-11 16:03:56:286,0,-17.4618,-2.4248,91.2848
2023-03-11 16:03:56:297,0,-17.4561,-2.43177,91.2935
2023-03-11 16:03:56:306,0,-17.4484,-2.4367,91.3031
2023-03-11 16:03:56:317,0,-17.4379,-2.44367,91.3181
2023-03-11 16:03:56:327,0,-17.4275,-2.45089,91.3307
2023-03-11 16:03:56:337,0,-17.4206,-2.45633,91.3463
2023-03-11 16:03:56:346,0,-17.4204,-2.46791,91.3625
2023-03-11 16:03:56:356,0,-17.4245,-2.47901,91.3766
2023-03-11 16:03:56:367,0,-17.4311,-2.49546,91.3955
2023-03-11 16:03:56:377,0,-17.4415,-2.50955,91.4147
2023-03-11 16:03:56:387,0,-17.4576,-2.52604,91.4358
2023-03-11 16:03:56:397,0,-17.4728,-2.53787,91.4528
2023-03-11 16:03:56:407,0,-17.4864,-2.54664,91.4616
2023-03-11 16:03:56:417,0,-17.4999,-2.55132,91.4644
2023-03-11 16:03:56:427,0,-17.509,-2.55256,91.4644
2023-03-11 16:03:56:436,0,-17.5187,-2.55347,91.4576
2023-03-11 16:03:56:446,0,-17.5287,-2.55067,91.4483
2023-03-11 16:03:56:456,0,-17.5403,-2.54856,91.437
2023-03-11 16:03:56:466,0,-17.5458,-2.54462,91.4241
2023-03-11 16:03:56:476,0,-17.5509,-2.53973,91.4105
2023-03-11 16:03:56:487,0,-17.5545,-2.52982,91.3959
2023-03-11 16:03:56:497,0,-17.5558,-2.51694,91.3782
2023-03-11 16:03:56:507,0,-17.5561,-2.49727,91.3588
2023-03-11 16:03:56:517,0,-17.5549,-2.47848,91.3347
2023-03-11 16:03:56:527,0,-17.5557,-2.4585,91.3076
2023-03-11 16:03:56:537,0,-17.5546,-2.44251,91.2784
2023-03-11 16:03:56:547,0,-17.5556,-2.42358,91.2507
2023-03-11 16:03:56:557,0,-17.5551,-2.40922,91.2242
2023-03-11 16:03:56:567,0,-17.5559,-2.3993,91.2008
2023-03-11 16:03:56:577,0,-17.5511,-2.39029,91.1826
2023-03-11 16:03:56:587,0,-17.5407,-2.38874,91.1677
2023-03-11 16:03:56:597,0,-17.528,-2.38703,91.1592
2023-03-11 16:03:56:607,0,-17.5184,-2.38953,91.156
2023-03-11 16:03:56:617,0,-17.514,-2.39326,91.159
2023-03-11 16:03:56:627,0,-17.5091,-2.39398,91.1658
2023-03-11 16:03:56:637,0,-17.5005,-2.39508,91.1672
2023-03-11 16:03:56:647,0,-17.487,-2.39866,91.1667
2023-03-11 16:03:56:657,0,-17.4724,-2.39773,91.1614
2023-03-11 16:03:56:667,0,-17.4589,-2.39508,91.1569
2023-03-11 16:03:56:677,0,-17.4432,-2.39198,91.1447
2023-03-11 16:03:56:687,0,-17.4251,-2.39083,91.128
2023-03-11 16:03:56:697,0,-17.4066,-2.38767,91.1069
2023-03-11 16:03:56:707,0,-17.3917,-2.38436,91.0804
2023-03-11 16:03:56:717,0,-17.3843,-2.38086,91.0513
2023-03-11 16:03:56:727,0,-17.374,-2.38001,91.0208
2023-03-11 16:03:56:737,0,-17.3698,-2.37635,90.9906
2023-03-11 16:03:56:747,0,-17.3664,-2.36953,90.9635
2023-03-11 16:03:56:757,0,-17.3632,-2.36316,90.9383
2023-03-11 16:03:56:767,0,-17.3602,-2.36463,90.917
2023-03-11 16:03:56:777,0,-17.3572,-2.36082,90.9048
2023-03-11 16:03:56:787,0,-17.3579,-2.35586,90.8954
2023-03-11 16:03:56:797,0,-17.3549,-2.34741,90.8945
2023-03-11 16:03:56:807,0,-17.3454,-2.34489,90.8959
2023-03-11 16:03:56:817,0,-17.3321,-2.34441,90.9044
2023-03-11 16:03:56:827,0,-17.3222,-2.3487,90.9175
2023-03-11 16:03:56:837,0,-17.3133,-2.35911,90.9358
2023-03-11 16:03:56:847,0,-17.3107,-2.36351,90.9556
2023-03-11 16:03:56:857,0,-17.3103,-2.36941,90.9752
2023-03-11 16:03:56:867,0,-17.3058,-2.37964,90.9941
2023-03-11 16:03:56:877,0,-17.3013,-2.39114,91.0123
2023-03-11 16:03:56:887,0,-17.2989,-2.40605,91.0297
2023-03-11 16:03:56:897,0,-17.2987,-2.42176,91.0483
2023-03-11 16:03:56:907,0,-17.299,-2.43836,91.0612
2023-03-11 16:03:56:916,0,-17.2996,-2.45822,91.0703
2023-03-11 16:03:56:926,0,-17.2963,-2.47727,91.0802
2023-03-11 16:03:56:937,0,-17.2927,-2.49397,91.0897
2023-03-11 16:03:56:946,0,-17.2903,-2.50754,91.0954
2023-03-11 16:03:56:956,0,-17.2897,-2.51319,91.099
2023-03-11 16:03:56:966,0,-17.2887,-2.5212,91.0982
2023-03-11 16:03:56:977,0,-17.2906,-2.52386,91.1007
2023-03-11 16:03:56:987,0,-17.2916,-2.52685,91.1005
2023-03-11 16:03:56:996,0,-17.2916,-2.52606,91.0989
2023-03-11 16:03:57:6,0,-17.2873,-2.52399,91.0985
2023-03-11 16:03:57:16,0,-17.2844,-2.51856,91.0932
2023-03-11 16:03:57:27,0,-17.2799,-2.51277,91.0876
2023-03-11 16:03:57:37,0,-17.2706,-2.50618,91.0799
2023-03-11 16:03:57:47,0,-17.2668,-2.49616,91.0729
2023-03-11 16:03:57:57,0,-17.2583,-2.48505,91.0658
2023-03-11 16:03:57:67,0,-17.2544,-2.47422,91.0551
2023-03-11 16:03:57:77,0,-17.2516,-2.46094,91.0396
2023-03-11 16:03:57:87,0,-17.2501,-2.44876,91.0293
2023-03-11 16:03:57:97,0,-17.2515,-2.43494,91.0148
2023-03-11 16:03:57:107,0,-17.2494,-2.42404,91.0045
2023-03-11 16:03:57:117,0,-17.2505,-2.41485,90.9948
2023-03-11 16:03:57:127,0,-17.2516,-2.40503,90.9876
2023-03-11 16:03:57:137,0,-17.2534,-2.39859,90.9804
2023-03-11 16:03:57:147,0,-17.2565,-2.39552,90.9738
2023-03-11 16:03:57:157,0,-17.2641,-2.39048,90.9662
2023-03-11 16:03:57:167,0,-17.2708,-2.38657,90.9631
2023-03-11 16:03:57:177,0,-17.2751,-2.38357,90.9576
2023-03-11 16:03:57:187,0,-17.2787,-2.38079,90.9553
2023-03-11 16:03:57:197,0,-17.2784,-2.37539,90.9565
2023-03-11 16:03:57:207,0,-17.2768,-2.37081,90.9566
2023-03-11 16:03:57:217,0,-17.2778,-2.36677,90.9595
2023-03-11 16:03:57:227,0,-17.2724,-2.36247,90.9563
2023-03-11 16:03:57:237,0,-17.264,-2.35976,90.9513
2023-03-11 16:03:57:247,0,-17.2582,-2.35368,90.9443
2023-03-11 16:03:57:257,0,-17.2521,-2.34963,90.9392
2023-03-11 16:03:57:267,0,-17.2508,-2.34846,90.9355
2023-03-11 16:03:57:277,0,-17.2467,-2.34858,90.9346
2023-03-11 16:03:57:287,0,-17.2371,-2.35396,90.9328
2023-03-11 16:03:57:297,0,-17.2254,-2.35533,90.9339
2023-03-11 16:03:57:306,0,-17.2232,-2.36209,90.9405
2023-03-11 16:03:57:316,0,-17.2259,-2.37031,90.9475
2023-03-11 16:03:57:326,0,-17.2278,-2.37759,90.9578
2023-03-11 16:03:57:336,0,-17.2274,-2.38599,90.9655
2023-03-11 16:03:57:346,0,-17.2243,-2.38788,90.9701
2023-03-11 16:03:57:356,0,-17.2255,-2.39125,90.9744
2023-03-11 16:03:57:366,0,-17.2256,-2.38962,90.9793
2023-03-11 16:03:57:376,0,-17.219,-2.38892,90.9817
2023-03-11 16:03:57:386,0,-17.2105,-2.39072,90.9818
2023-03-11 16:03:57:396,0,-17.1998,-2.39082,90.9817
2023-03-11 16:03:57:406,0,-17.1883,-2.39084,90.9799
2023-03-11 16:03:57:416,0,-17.1749,-2.39027,90.9766
2023-03-11 16:03:57:426,0,-17.1683,-2.39057,90.9734
2023-03-11 16:03:57:436,0,-17.1672,-2.38835,90.9661
2023-03-11 16:03:57:446,0,-17.1731,-2.38779,90.9564
2023-03-11 16:03:57:456,0,-17.1802,-2.38611,90.9481
2023-03-11 16:03:57:466,0,-17.1837,-2.39249,90.9432
2023-03-11 16:03:57:476,0,-17.1892,-2.39397,90.9404
2023-03-11 16:03:57:486,0,-17.1882,-2.39283,90.9378
2023-03-11 16:03:57:497,0,-17.1862,-2.39112,90.9336
2023-03-11 16:03:57:507,0,-17.1823,-2.3864,90.9319
2023-03-11 16:03:57:517,0,-17.1751,-2.38599,90.9292
2023-03-11 16:03:57:527,0,-17.1699,-2.39051,90.9318
2023-03-11 16:03:57:537,0,-17.168,-2.39481,90.9396
2023-03-11 16:03:57:547,0,-17.1683,-2.40003,90.9477
2023-03-11 16:03:57:557,0,-17.1701,-2.40287,90.9538
2023-03-11 16:03:57:567,0,-17.1707,-2.40159,90.958
2023-03-11 16:03:57:577,0,-17.1704,-2.40454,90.9651
2023-03-11 16:03:57:587,0,-17.1686,-2.41127,90.9678
2023-03-11 16:03:57:597,0,-17.1626,-2.41764,90.9726
2023-03-11 16:03:57:606,0,-17.1592,-2.4272,90.9774
2023-03-11 16:03:57:616,0,-17.1572,-2.43161,90.9823
2023-03-11 16:03:57:627,0,-17.1566,-2.4374,90.9906
2023-03-11 16:03:57:636,0,-17.1574,-2.44073,90.9943
2023-03-11 16:03:57:647,0,-17.154,-2.4454,90.9979
2023-03-11 16:03:57:657,0,-17.1538,-2.44937,91.0044
2023-03-11 16:03:57:667,0,-17.1506,-2.45496,91.0111
2023-03-11 16:03:57:677,0,-17.1494,-2.45639,91.0162
2023-03-11 16:03:57:687,0,-17.1432,-2.45684,91.0212
2023-03-11 16:03:57:697,0,-17.1393,-2.45973,91.0249
2023-03-11 16:03:57:707,0,-17.1353,-2.46076,91.0314
2023-03-11 16:03:57:717,0,-17.1371,-2.46651,91.0398
2023-03-11 16:03:57:727,0,-17.135,-2.46738,91.0449
2023-03-11 16:03:57:737,0,-17.1375,-2.46997,91.0449
2023-03-11 16:03:57:746,0,-17.1409,-2.47079,91.047
2023-03-11 16:03:57:756,0,-17.1434,-2.47087,91.0475
2023-03-11 16:03:57:766,0,-17.1431,-2.46826,91.0432
2023-03-11 16:03:57:776,0,-17.1382,-2.46293,91.042
2023-03-11 16:03:57:786,0,-17.1349,-2.45794,91.0385
2023-03-11 16:03:57:796,0,-17.1357,-2.45227,91.0289
2023-03-11 16:03:57:806,0,-17.137,-2.44811,91.023
2023-03-11 16:03:57:816,0,-17.1358,-2.44157,91.0162
2023-03-11 16:03:57:826,0,-17.1368,-2.43926,91.0136
2023-03-11 16:03:57:836,0,-17.1389,-2.43837,91.008
2023-03-11 16:03:57:846,0,-17.1441,-2.43584,91.0038
2023-03-11 16:03:57:856,0,-17.1486,-2.43263,91.0016
2023-03-11 16:03:57:866,0,-17.1546,-2.42959,91.0014
2023-03-11 16:03:57:876,0,-17.157,-2.42921,91.0009
2023-03-11 16:03:57:886,0,-17.1624,-2.42715,91.0014
2023-03-11 16:03:57:896,0,-17.1677,-2.42379,91.0016
2023-03-11 16:03:57:906,0,-17.1676,-2.41859,91.0069
2023-03-11 16:03:57:916,0,-17.1663,-2.41417,91.0105
2023-03-11 16:03:57:926,0,-17.1658,-2.40812,91.0081
2023-03-11 16:03:57:936,0,-17.1647,-2.40313,91.0059
2023-03-11 16:03:57:946,0,-17.1645,-2.4022,91.0019
2023-03-11 16:03:57:956,0,-17.1616,-2.39832,90.9985
2023-03-11 16:03:57:966,0,-17.1618,-2.39639,90.9974
2023-03-11 16:03:57:976,0,-17.1622,-2.39621,90.9948
2023-03-11 16:03:57:986,0,-17.1576,-2.40078,90.9912
2023-03-11 16:03:57:996,0,-17.1546,-2.4039,90.9924
2023-03-11 16:03:58:6,0,-17.1497,-2.41465,90.9932
2023-03-11 16:03:58:16,0,-17.1527,-2.42163,91.0017
2023-03-11 16:03:58:26,0,-17.1564,-2.42547,91.0102
2023-03-11 16:03:58:36,0,-17.164,-2.42972,91.0214
2023-03-11 16:03:58:46,0,-17.1719,-2.43282,91.0336
2023-03-11 16:03:58:56,0,-17.1819,-2.43082,91.0494
2023-03-11 16:03:58:66,0,-17.1903,-2.43218,91.0631
2023-03-11 16:03:58:76,0,-17.1995,-2.43351,91.0775
2023-03-11 16:03:58:86,0,-17.1981,-2.42901,91.0865
2023-03-11 16:03:58:96,0,-17.1941,-2.42589,91.0901
2023-03-11 16:03:58:106,0,-17.1911,-2.42595,91.0915
2023-03-11 16:03:58:116,0,-17.1841,-2.42406,91.0877
2023-03-11 16:03:58:126,0,-17.1739,-2.42129,91.0794
2023-03-11 16:03:58:136,0,-17.1698,-2.41738,91.0696
2023-03-11 16:03:58:146,0,-17.1703,-2.41055,91.0601
2023-03-11 16:03:58:156,0,-17.172,-2.40739,91.0469
2023-03-11 16:03:58:166,0,-17.1732,-2.40369,91.0347
2023-03-11 16:03:58:176,0,-17.1767,-2.40059,91.0253
2023-03-11 16:03:58:186,0,-17.1799,-2.3952,91.0193
2023-03-11 16:03:58:196,0,-17.1757,-2.38981,91.0128
2023-03-11 16:03:58:206,0,-17.1677,-2.38118,91.0069
2023-03-11 16:03:58:216,0,-17.154,-2.37489,91.0028
2023-03-11 16:03:58:226,0,-17.1405,-2.36886,91.0006
2023-03-11 16:03:58:236,0,-17.128,-2.36694,91.0025
2023-03-11 16:03:58:246,0,-17.1172,-2.36378,91.0091
2023-03-11 16:03:58:256,0,-17.1075,-2.36097,91.0124
2023-03-11 16:03:58:266,0,-17.1003,-2.36059,91.0175
2023-03-11 16:03:58:276,0,-17.0907,-2.35665,91.0223
2023-03-11 16:03:58:286,0,-17.088,-2.35459,91.0246
2023-03-11 16:03:58:296,0,-17.082,-2.35222,91.0277
2023-03-11 16:03:58:306,0,-17.0749,-2.35161,91.0297
2023-03-11 16:03:58:316,0,-17.07,-2.35257,91.0305
2023-03-11 16:03:58:327,0,-17.0639,-2.35077,91.0293
2023-03-11 16:03:58:337,0,-17.0604,-2.35324,91.0257
2023-03-11 16:03:58:347,0,-17.0575,-2.35891,91.0186
2023-03-11 16:03:58:357,0,-17.0547,-2.36063,91.0171
2023-03-11 16:03:58:367,0,-17.0539,-2.36399,91.0142
2023-03-11 16:03:58:377,0,-17.0544,-2.36806,91.0129
2023-03-11 16:03:58:387,0,-17.0515,-2.3705,91.0124
2023-03-11 16:03:58:397,0,-17.0501,-2.37392,91.0123
2023-03-11 16:03:58:407,0,-17.0485,-2.37355,91.0161
2023-03-11 16:03:58:417,0,-17.0499,-2.37246,91.0213
2023-03-11 16:03:58:427,0,-17.0515,-2.37274,91.0239
2023-03-11 16:03:58:437,0,-17.0525,-2.36824,91.0314
2023-03-11 16:03:58:447,0,-17.052,-2.36108,91.0375
2023-03-11 16:03:58:457,0,-17.0547,-2.35389,91.0455
2023-03-11 16:03:58:467,0,-17.0586,-2.34782,91.0543
2023-03-11 16:03:58:477,0,-17.0639,-2.33962,91.0586
2023-03-11 16:03:58:487,0,-17.0684,-2.33295,91.0606
2023-03-11 16:03:58:497,0,-17.0712,-2.3268,91.0638
2023-03-11 16:03:58:507,0,-17.0738,-2.32404,91.0606
2023-03-11 16:03:58:517,0,-17.0752,-2.32077,91.0522
2023-03-11 16:03:58:527,0,-17.0773,-2.31728,91.0441
2023-03-11 16:03:58:537,0,-17.0751,-2.31457,91.0322
2023-03-11 16:03:58:547,0,-17.0729,-2.31249,91.0176
2023-03-11 16:03:58:557,0,-17.0706,-2.31369,91.0047
2023-03-11 16:03:58:567,0,-17.0688,-2.31407,90.9936
2023-03-11 16:03:58:577,0,-17.0646,-2.31928,90.9866
2023-03-11 16:03:58:587,0,-17.0647,-2.32522,90.9837
2023-03-11 16:03:58:597,0,-17.0609,-2.3374,90.9833
2023-03-11 16:03:58:607,0,-17.0543,-2.34568,90.992
2023-03-11 16:03:58:617,0,-17.0469,-2.35609,91.0003
2023-03-11 16:03:58:627,0,-17.0361,-2.36832,91.009
2023-03-11 16:03:58:637,0,-17.0221,-2.3787,91.015
2023-03-11 16:03:58:647,0,-17.0098,-2.39182,91.0237
2023-03-11 16:03:58:657,0,-17.0007,-2.39669,91.0265
2023-03-11 16:03:58:667,0,-16.9918,-2.4034,91.0246
2023-03-11 16:03:58:677,0,-16.9825,-2.40922,91.023
2023-03-11 16:03:58:687,0,-16.9819,-2.41026,91.0154
2023-03-11 16:03:58:697,0,-16.9815,-2.4125,91.005
2023-03-11 16:03:58:707,0,-16.9792,-2.41652,90.9918
2023-03-11 16:03:58:717,0,-16.976,-2.42206,90.9768
2023-03-11 16:03:58:727,0,-16.9766,-2.42704,90.969
2023-03-11 16:03:58:737,0,-16.9834,-2.43416,90.9634
2023-03-11 16:03:58:747,0,-16.988,-2.44335,90.9597
2023-03-11 16:03:58:757,0,-16.9943,-2.44621,90.9567
2023-03-11 16:03:58:767,0,-17.0022,-2.44438,90.9588
2023-03-11 16:03:58:777,0,-17.0032,-2.44385,90.963
2023-03-11 16:03:58:787,0,-17.0064,-2.44116,90.9651
2023-03-11 16:03:58:797,0,-17.0071,-2.43882,90.969
2023-03-11 16:03:58:807,0,-17.0018,-2.43695,90.9717
2023-03-11 16:03:58:817,0,-16.999,-2.43299,90.9692
2023-03-11 16:03:58:827,0,-16.9971,-2.43481,90.967
2023-03-11 16:03:58:837,0,-17.0018,-2.43395,90.9642
2023-03-11 16:03:58:847,0,-17.007,-2.43625,90.9628
2023-03-11 16:03:58:857,0,-17.0137,-2.43931,90.9537
2023-03-11 16:03:58:867,0,-17.022,-2.44671,90.9442
2023-03-11 16:03:58:877,0,-17.0299,-2.44713,90.9405
2023-03-11 16:03:58:887,0,-17.0373,-2.45053,90.9339
2023-03-11 16:03:58:897,0,-17.0469,-2.45512,90.9265
2023-03-11 16:03:58:907,0,-17.055,-2.45757,90.9198
2023-03-11 16:03:58:917,0,-17.0631,-2.46044,90.9131
2023-03-11 16:03:58:927,0,-17.0621,-2.45725,90.9033
2023-03-11 16:03:58:937,0,-17.0569,-2.45446,90.8899
2023-03-11 16:03:58:947,0,-17.0479,-2.44854,90.8782
2023-03-11 16:03:58:957,0,-17.0383,-2.4486,90.8684
2023-03-11 16:03:58:967,0,-17.0304,-2.45205,90.863
2023-03-11 16:03:58:977,0,-17.0247,-2.4528,90.8549
2023-03-11 16:03:58:987,0,-17.0209,-2.45413,90.8453
2023-03-11 16:03:58:997,0,-17.0137,-2.45268,90.834
2023-03-11 16:03:59:7,0,-17.0022,-2.45077,90.8211
2023-03-11 16:03:59:17,0,-16.9924,-2.44905,90.8122
2023-03-11 16:03:59:27,0,-16.9792,-2.44619,90.8054
2023-03-11 16:03:59:37,0,-16.9702,-2.44873,90.7999
2023-03-11 16:03:59:47,0,-16.9624,-2.45316,90.796
2023-03-11 16:03:59:57,0,-16.9521,-2.45679,90.7942
2023-03-11 16:03:59:67,0,-16.9419,-2.46144,90.7933
2023-03-11 16:03:59:77,0,-16.9339,-2.46434,90.7928
2023-03-11 16:03:59:86,0,-16.9228,-2.47163,90.7944
2023-03-11 16:03:59:96,0,-16.9146,-2.47665,90.7908
2023-03-11 16:03:59:106,0,-16.9072,-2.47966,90.7921
2023-03-11 16:03:59:116,0,-16.8956,-2.48282,90.7919
2023-03-11 16:03:59:126,0,-16.8879,-2.48478,90.7956
2023-03-11 16:03:59:136,0,-16.8784,-2.48866,90.7983
2023-03-11 16:03:59:146,0,-16.8738,-2.49544,90.8039
2023-03-11 16:03:59:156,0,-16.8712,-2.50103,90.8133
2023-03-11 16:03:59:166,0,-16.8724,-2.50863,90.8186
2023-03-11 16:03:59:176,0,-16.8684,-2.51295,90.8273
2023-03-11 16:03:59:186,0,-16.8639,-2.51684,90.8277
2023-03-11 16:03:59:196,0,-16.8593,-2.51913,90.8317
2023-03-11 16:03:59:206,0,-16.8572,-2.5212,90.831
2023-03-11 16:03:59:216,0,-16.8589,-2.52061,90.827
2023-03-11 16:03:59:226,0,-16.8613,-2.52073,90.8203
2023-03-11 16:03:59:236,0,-16.8669,-2.51866,90.8098
2023-03-11 16:03:59:246,0,-16.8721,-2.51609,90.8022
2023-03-11 16:03:59:256,0,-16.8749,-2.51409,90.7958
2023-03-11 16:03:59:266,0,-16.8816,-2.51717,90.7884
2023-03-11 16:03:59:276,0,-16.8878,-2.52103,90.7834
2023-03-11 16:03:59:286,0,-16.8928,-2.52375,90.7812
2023-03-11 16:03:59:296,0,-16.8941,-2.52983,90.7788
2023-03-11 16:03:59:306,0,-16.8953,-2.53109,90.7786
2023-03-11 16:03:59:316,0,-16.8937,-2.5351,90.779
2023-03-11 16:03:59:326,0,-16.8913,-2.53921,90.7847
2023-03-11 16:03:59:336,0,-16.8908,-2.54287,90.7889
2023-03-11 16:03:59:346,0,-16.892,-2.54615,90.7967
2023-03-11 16:03:59:356,0,-16.8899,-2.5491,90.8033
2023-03-11 16:03:59:366,0,-16.8821,-2.55539,90.8117
2023-03-11 16:03:59:376,0,-16.8718,-2.55849,90.8196
2023-03-11 16:03:59:386,0,-16.8628,-2.5604,90.8263
2023-03-11 16:03:59:396,0,-16.8542,-2.55744,90.8325
2023-03-11 16:03:59:406,0,-16.8402,-2.55348,90.8328
2023-03-11 16:03:59:416,0,-16.8282,-2.55628,90.8328
2023-03-11 16:03:59:426,0,-16.8222,-2.55665,90.8355
2023-03-11 16:03:59:436,0,-16.8218,-2.55802,90.8355
2023-03-11 16:03:59:446,0,-16.8238,-2.56148,90.8312
2023-03-11 16:03:59:456,0,-16.8223,-2.56545,90.8267
2023-03-11 16:03:59:466,0,-16.8162,-2.57153,90.8236
2023-03-11 16:03:59:476,0,-16.8145,-2.58019,90.8221
2023-03-11 16:03:59:486,0,-16.8181,-2.59166,90.8245
2023-03-11 16:03:59:496,0,-16.8264,-2.5989,90.8287
2023-03-11 16:03:59:506,0,-16.8318,-2.60679,90.8388
2023-03-11 16:03:59:516,0,-16.8355,-2.61161,90.8488
2023-03-11 16:03:59:526,0,-16.8455,-2.61487,90.8538
2023-03-11 16:03:59:536,0,-16.8533,-2.61604,90.8606
2023-03-11 16:03:59:546,0,-16.8572,-2.61393,90.8652
2023-03-11 16:03:59:556,0,-16.8508,-2.61235,90.8679
2023-03-11 16:03:59:566,0,-16.8461,-2.60631,90.8695
2023-03-11 16:03:59:576,0,-16.8403,-2.60139,90.8635
2023-03-11 16:03:59:586,0,-16.8393,-2.59544,90.8558
2023-03-11 16:03:59:596,0,-16.8406,-2.58583,90.8472
2023-03-11 16:03:59:606,0,-16.8393,-2.57991,90.8348
2023-03-11 16:03:59:616,0,-16.8384,-2.57509,90.8235
2023-03-11 16:03:59:627,0,-16.8418,-2.5679,90.812
2023-03-11 16:03:59:637,0,-16.8435,-2.56698,90.7988
2023-03-11 16:03:59:647,0,-16.8467,-2.56946,90.7887
2023-03-11 16:03:59:656,0,-16.855,-2.56807,90.7792
2023-03-11 16:03:59:666,0,-16.8642,-2.56535,90.7731
2023-03-11 16:03:59:676,0,-16.8693,-2.55748,90.7617
2023-03-11 16:03:59:686,0,-16.8722,-2.54844,90.7521
2023-03-11 16:03:59:696,0,-16.8715,-2.54346,90.7425
2023-03-11 16:03:59:706,0,-16.8697,-2.54148,90.7395
2023-03-11 16:03:59:717,0,-16.8676,-2.54112,90.7385
2023-03-11 16:03:59:727,0,-16.8651,-2.54374,90.7385
2023-03-11 16:03:59:737,0,-16.8579,-2.54384,90.7415
2023-03-11 16:03:59:747,0,-16.8534,-2.54152,90.7431
2023-03-11 16:03:59:757,0,-16.846,-2.5398,90.7454
2023-03-11 16:03:59:767,0,-16.841,-2.54186,90.7486
2023-03-11 16:03:59:777,0,-16.8341,-2.5432,90.7578
2023-03-11 16:03:59:787,0,-16.8306,-2.5513,90.7649
2023-03-11 16:03:59:797,0,-16.8277,-2.55962,90.7736
2023-03-11 16:03:59:807,0,-16.8261,-2.56519,90.7828
2023-03-11 16:03:59:817,0,-16.8237,-2.5744,90.7923
2023-03-11 16:03:59:827,0,-16.8206,-2.58139,90.8046
2023-03-11 16:03:59:837,0,-16.8181,-2.5912,90.8173
2023-03-11 16:03:59:847,0,-16.8181,-2.59744,90.8288
2023-03-11 16:03:59:857,0,-16.8189,-2.60065,90.8442
2023-03-11 16:03:59:867,0,-16.8211,-2.61016,90.8574
2023-03-11 16:03:59:877,0,-16.822,-2.61452,90.8667
2023-03-11 16:03:59:887,0,-16.8218,-2.61487,90.8724
2023-03-11 16:03:59:897,0,-16.822,-2.61433,90.8777
2023-03-11 16:03:59:907,0,-16.8157,-2.61779,90.8795
2023-03-11 16:03:59:917,0,-16.8095,-2.61752,90.8734
2023-03-11 16:03:59:927,0,-16.8054,-2.61848,90.8694
2023-03-11 16:03:59:937,0,-16.7969,-2.62111,90.8625
2023-03-11 16:03:59:947,0,-16.792,-2.61821,90.8516
2023-03-11 16:03:59:957,0,-16.7904,-2.61331,90.8388
2023-03-11 16:03:59:967,0,-16.7915,-2.60777,90.829
2023-03-11 16:03:59:977,0,-16.7909,-2.60402,90.8135
2023-03-11 16:03:59:987,0,-16.7931,-2.59887,90.8048
2023-03-11 16:03:59:997,0,-16.7925,-2.59337,90.7972
2023-03-11 16:04:00:7,0,-16.7916,-2.58711,90.7929
2023-03-11 16:04:00:17,0,-16.7859,-2.58505,90.7879
2023-03-11 16:04:00:27,0,-16.7788,-2.58046,90.785
2023-03-11 16:04:00:37,0,-16.7737,-2.57532,90.7809
2023-03-11 16:04:00:46,0,-16.7713,-2.57511,90.7787
2023-03-11 16:04:00:56,0,-16.7674,-2.57491,90.7782
2023-03-11 16:04:00:67,0,-16.7678,-2.57341,90.7785
2023-03-11 16:04:00:76,0,-16.7654,-2.57379,90.7737
2023-03-11 16:04:00:87,0,-16.7636,-2.57541,90.7695
2023-03-11 16:04:00:97,0,-16.7624,-2.57684,90.7657
2023-03-11 16:04:00:107,0,-16.753,-2.5804,90.7591
2023-03-11 16:04:00:117,0,-16.7462,-2.58092,90.7563
2023-03-11 16:04:00:127,0,-16.7384,-2.58259,90.751
2023-03-11 16:04:00:137,0,-16.7319,-2.58314,90.7497
2023-03-11 16:04:00:147,0,-16.7232,-2.58342,90.7446
2023-03-11 16:04:00:157,0,-16.7185,-2.58162,90.7381
2023-03-11 16:04:00:166,0,-16.7163,-2.58061,90.7303
2023-03-11 16:04:00:176,0,-16.7185,-2.5734,90.7239
2023-03-11 16:04:00:187,0,-16.7182,-2.57041,90.7162
2023-03-11 16:04:00:196,0,-16.7123,-2.5681,90.7063
2023-03-11 16:04:00:206,0,-16.7032,-2.57138,90.7008
2023-03-11 16:04:00:216,0,-16.6951,-2.57051,90.6982
2023-03-11 16:04:00:226,0,-16.6992,-2.57466,90.6994
2023-03-11 16:04:00:236,0,-16.7081,-2.58258,90.707
2023-03-11 16:04:00:246,0,-16.7155,-2.59437,90.7196
2023-03-11 16:04:00:257,0,-16.7189,-2.60243,90.7301
2023-03-11 16:04:00:267,0,-16.7242,-2.61255,90.7434
2023-03-11 16:04:00:277,0,-16.7242,-2.62511,90.7546
2023-03-11 16:04:00:287,0,-16.716,-2.63526,90.7658
2023-03-11 16:04:00:297,0,-16.7064,-2.64132,90.7735
2023-03-11 16:04:00:307,0,-16.6906,-2.64882,90.7785
2023-03-11 16:04:00:317,0,-16.6773,-2.65038,90.7796
2023-03-11 16:04:00:327,0,-16.6613,-2.65624,90.7763
2023-03-11 16:04:00:337,0,-16.647,-2.65803,90.7743
2023-03-11 16:04:00:347,0,-16.638,-2.66362,90.7716
2023-03-11 16:04:00:357,0,-16.6288,-2.66635,90.769
2023-03-11 16:04:00:367,0,-16.6198,-2.67282,90.7657
2023-03-11 16:04:00:377,0,-16.6161,-2.67749,90.7632
2023-03-11 16:04:00:387,0,-16.6083,-2.68513,90.7543
2023-03-11 16:04:00:397,0,-16.594,-2.69249,90.7435
2023-03-11 16:04:00:407,0,-16.5789,-2.70569,90.7318
2023-03-11 16:04:00:417,0,-16.5669,-2.71755,90.7128
2023-03-11 16:04:00:427,0,-16.5515,-2.72766,90.6936
2023-03-11 16:04:00:437,0,-16.5331,-2.73797,90.6703
2023-03-11 16:04:00:447,0,-16.5136,-2.74843,90.6536
2023-03-11 16:04:00:457,0,-16.4944,-2.75979,90.6402
2023-03-11 16:04:00:467,0,-16.4771,-2.77296,90.6324
2023-03-11 16:04:00:477,0,-16.4598,-2.78798,90.6254
2023-03-11 16:04:00:487,0,-16.4443,-2.80016,90.6141
2023-03-11 16:04:00:497,0,-16.4291,-2.81224,90.6021
2023-03-11 16:04:00:507,0,-16.4105,-2.81859,90.5889
2023-03-11 16:04:00:517,0,-16.3977,-2.81706,90.5799
2023-03-11 16:04:00:527,0,-16.3821,-2.81679,90.5732
2023-03-11 16:04:00:537,0,-16.3674,-2.81604,90.5654
2023-03-11 16:04:00:547,0,-16.3494,-2.81291,90.5637
2023-03-11 16:04:00:557,0,-16.3333,-2.80977,90.5637
2023-03-11 16:04:00:567,0,-16.3198,-2.80993,90.5634
2023-03-11 16:04:00:577,0,-16.3089,-2.80864,90.5631
2023-03-11 16:04:00:587,0,-16.2969,-2.80686,90.5674
2023-03-11 16:04:00:597,0,-16.2867,-2.80509,90.57
2023-03-11 16:04:00:607,0,-16.2807,-2.80447,90.5723
2023-03-11 16:04:00:617,0,-16.2743,-2.80597,90.5766
2023-03-11 16:04:00:627,0,-16.2684,-2.81011,90.5801
2023-03-11 16:04:00:637,0,-16.2629,-2.81054,90.5864
2023-03-11 16:04:00:647,0,-16.2588,-2.81218,90.59
2023-03-11 16:04:00:657,0,-16.2612,-2.81332,90.5975
2023-03-11 16:04:00:667,0,-16.2666,-2.81126,90.6027
2023-03-11 16:04:00:677,0,-16.2738,-2.81085,90.6095
2023-03-11 16:04:00:687,0,-16.2761,-2.80733,90.6133
2023-03-11 16:04:00:697,0,-16.281,-2.80545,90.6167
2023-03-11 16:04:00:707,0,-16.2841,-2.80125,90.6163
2023-03-11 16:04:00:717,0,-16.2849,-2.79428,90.6098
2023-03-11 16:04:00:727,0,-16.2849,-2.78618,90.601
2023-03-11 16:04:00:737,0,-16.2809,-2.7752,90.5871
2023-03-11 16:04:00:747,0,-16.2796,-2.76499,90.5732
2023-03-11 16:04:00:757,0,-16.2818,-2.75291,90.5557
2023-03-11 16:04:00:767,0,-16.2835,-2.73851,90.5387
2023-03-11 16:04:00:777,0,-16.2851,-2.7254,90.5251
2023-03-11 16:04:00:787,0,-16.2851,-2.71563,90.5064
2023-03-11 16:04:00:797,0,-16.2824,-2.70169,90.4924
2023-03-11 16:04:00:807,0,-16.2819,-2.69293,90.4804
2023-03-11 16:04:00:817,0,-16.2786,-2.68013,90.4663
2023-03-11 16:04:00:827,0,-16.2751,-2.67097,90.453
2023-03-11 16:04:00:837,0,-16.2727,-2.65997,90.4445
2023-03-11 16:04:00:846,0,-16.2703,-2.65198,90.436
2023-03-11 16:04:00:857,0,-16.2686,-2.64619,90.4313
2023-03-11 16:04:00:867,0,-16.2667,-2.63825,90.4287
2023-03-11 16:04:00:877,0,-16.2621,-2.63501,90.4226
2023-03-11 16:04:00:887,0,-16.2575,-2.62935,90.4191
2023-03-11 16:04:00:897,0,-16.2548,-2.62708,90.4178
2023-03-11 16:04:00:907,0,-16.2542,-2.62952,90.4134
2023-03-11 16:04:00:917,0,-16.2544,-2.62816,90.4137
2023-03-11 16:04:00:927,0,-16.2511,-2.632,90.4125
2023-03-11 16:04:00:937,0,-16.2496,-2.63804,90.4164
2023-03-11 16:04:00:947,0,-16.2453,-2.6459,90.4206
2023-03-11 16:04:00:957,0,-16.2496,-2.65238,90.4282
2023-03-11 16:04:00:967,0,-16.2575,-2.66087,90.4374
2023-03-11 16:04:00:977,0,-16.262,-2.66809,90.4488
2023-03-11 16:04:00:987,0,-16.2647,-2.6732,90.4544
2023-03-11 16:04:00:997,0,-16.2711,-2.6743,90.457
2023-03-11 16:04:01:7,0,-16.2798,-2.67787,90.4607
2023-03-11 16:04:01:17,0,-16.2866,-2.68256,90.4643
2023-03-11 16:04:01:27,0,-16.2857,-2.68626,90.4695
2023-03-11 16:04:01:37,0,-16.2796,-2.68855,90.468
2023-03-11 16:04:01:47,0,-16.2756,-2.68792,90.4676
2023-03-11 16:04:01:57,0,-16.2703,-2.6884,90.4604
2023-03-11 16:04:01:67,0,-16.2664,-2.68527,90.4527
2023-03-11 16:04:01:77,0,-16.2625,-2.68199,90.4453
2023-03-11 16:04:01:87,0,-16.2609,-2.67724,90.4367
2023-03-11 16:04:01:97,0,-16.2593,-2.67184,90.4244
2023-03-11 16:04:01:107,0,-16.2616,-2.67192,90.4165
2023-03-11 16:04:01:117,0,-16.2671,-2.67168,90.4086
2023-03-11 16:04:01:127,0,-16.274,-2.67415,90.4018
2023-03-11 16:04:01:137,0,-16.2784,-2.67269,90.3967
2023-03-11 16:04:01:147,0,-16.2805,-2.67012,90.3888
2023-03-11 16:04:01:157,0,-16.2708,-2.66778,90.383
2023-03-11 16:04:01:167,0,-16.2556,-2.66727,90.3773
2023-03-11 16:04:01:177,0,-16.2447,-2.66516,90.3784
2023-03-11 16:04:01:187,0,-16.235,-2.66757,90.3818
2023-03-11 16:04:01:197,0,-16.2197,-2.66939,90.3881
2023-03-11 16:04:01:207,0,-16.2095,-2.66878,90.39
2023-03-11 16:04:01:217,0,-16.2036,-2.6672,90.3908
2023-03-11 16:04:01:227,0,-16.2009,-2.66615,90.3939
2023-03-11 16:04:01:237,0,-16.1952,-2.66579,90.3991
2023-03-11 16:04:01:247,0,-16.1897,-2.6709,90.4018
2023-03-11 16:04:01:257,0,-16.1846,-2.67845,90.4065
2023-03-11 16:04:01:267,0,-16.1793,-2.68434,90.4099
2023-03-11 16:04:01:277,0,-16.1739,-2.69067,90.4166
2023-03-11 16:04:01:287,0,-16.168,-2.69896,90.422
2023-03-11 16:04:01:297,0,-16.1631,-2.70761,90.4256
2023-03-11 16:04:01:307,0,-16.1626,-2.71461,90.4297
2023-03-11 16:04:01:317,0,-16.1619,-2.72523,90.439
2023-03-11 16:04:01:327,0,-16.1617,-2.73212,90.4466
2023-03-11 16:04:01:337,0,-16.1616,-2.73973,90.4512
2023-03-11 16:04:01:347,0,-16.1649,-2.75228,90.4579
2023-03-11 16:04:01:357,0,-16.1683,-2.7627,90.4659
2023-03-11 16:04:01:367,0,-16.1684,-2.77296,90.4715
2023-03-11 16:04:01:377,0,-16.1665,-2.78461,90.4784
2023-03-11 16:04:01:386,0,-16.164,-2.79392,90.4866
2023-03-11 16:04:01:396,0,-16.1618,-2.80215,90.4961
2023-03-11 16:04:01:406,0,-16.1629,-2.81021,90.5032
2023-03-11 16:04:01:417,0,-16.168,-2.8141,90.506
2023-03-11 16:04:01:427,0,-16.1721,-2.81599,90.5056
2023-03-11 16:04:01:437,0,-16.1785,-2.82073,90.503
2023-03-11 16:04:01:447,0,-16.1846,-2.8202,90.5031
2023-03-11 16:04:01:457,0,-16.1875,-2.82092,90.4958
2023-03-11 16:04:01:467,0,-16.1893,-2.82027,90.4871
2023-03-11 16:04:01:477,0,-16.1912,-2.81698,90.4805
2023-03-11 16:04:01:487,0,-16.1932,-2.81799,90.4724
2023-03-11 16:04:01:497,0,-16.1962,-2.82249,90.4659
2023-03-11 16:04:01:506,0,-16.1996,-2.82626,90.4603
2023-03-11 16:04:01:516,0,-16.2016,-2.83251,90.4569
2023-03-11 16:04:01:526,0,-16.2007,-2.8353,90.4587
2023-03-11 16:04:01:536,0,-16.2031,-2.83615,90.4585
2023-03-11 16:04:01:546,0,-16.2043,-2.83895,90.4622
2023-03-11 16:04:01:556,0,-16.2022,-2.84443,90.4652
2023-03-11 16:04:01:566,0,-16.2005,-2.8487,90.4695
2023-03-11 16:04:01:577,0,-16.1972,-2.85097,90.4753
2023-03-11 16:04:01:587,0,-16.1946,-2.85433,90.4819
2023-03-11 16:04:01:597,0,-16.1942,-2.85692,90.4859
2023-03-11 16:04:01:607,0,-16.1903,-2.86122,90.4853
2023-03-11 16:04:01:617,0,-16.1812,-2.86581,90.4825
2023-03-11 16:04:01:627,0,-16.1743,-2.87123,90.4773
2023-03-11 16:04:01:637,0,-16.1701,-2.8758,90.4678
2023-03-11 16:04:01:647,0,-16.1637,-2.88371,90.4585
2023-03-11 16:04:01:657,0,-16.1539,-2.89167,90.4431
2023-03-11 16:04:01:667,0,-16.1428,-2.90044,90.4353
2023-03-11 16:04:01:677,0,-16.1375,-2.9121,90.4265
2023-03-11 16:04:01:687,0,-16.1352,-2.92464,90.4222
2023-03-11 16:04:01:697,0,-16.1303,-2.93517,90.4205
2023-03-11 16:04:01:707,0,-16.1273,-2.94851,90.4148
2023-03-11 16:04:01:717,0,-16.1202,-2.96059,90.4104
2023-03-11 16:04:01:727,0,-16.1162,-2.97123,90.4056
2023-03-11 16:04:01:737,0,-16.1092,-2.97846,90.4002
2023-03-11 16:04:01:747,0,-16.1,-2.98346,90.3983
2023-03-11 16:04:01:757,0,-16.087,-2.98861,90.3972
2023-03-11 16:04:01:767,0,-16.0736,-2.99033,90.3888
2023-03-11 16:04:01:777,0,-16.0617,-2.9893,90.3789
2023-03-11 16:04:01:787,0,-16.0526,-2.99001,90.3662
2023-03-11 16:04:01:797,0,-16.0477,-2.98824,90.3572
2023-03-11 16:04:01:807,0,-16.0469,-2.98636,90.3446
2023-03-11 16:04:01:817,0,-16.0492,-2.98885,90.3325
2023-03-11 16:04:01:827,0,-16.0526,-2.99304,90.3217
2023-03-11 16:04:01:837,0,-16.0561,-2.99513,90.3123
2023-03-11 16:04:01:847,0,-16.0599,-3.00082,90.3055
2023-03-11 16:04:01:857,0,-16.0634,-3.00514,90.2982
2023-03-11 16:04:01:867,0,-16.0692,-3.00605,90.2931
2023-03-11 16:04:01:877,0,-16.0755,-3.00562,90.2879
2023-03-11 16:04:01:887,0,-16.0729,-3.00314,90.2789
2023-03-11 16:04:01:897,0,-16.0706,-3.00279,90.2712
2023-03-11 16:04:01:907,0,-16.0718,-3.00762,90.2628
2023-03-11 16:04:01:917,0,-16.0716,-3.01059,90.2576
2023-03-11 16:04:01:927,0,-16.0692,-3.0162,90.2523
2023-03-11 16:04:01:937,0,-16.0726,-3.02007,90.2477
2023-03-11 16:04:01:947,0,-16.0717,-3.01898,90.2436
2023-03-11 16:04:01:957,0,-16.0712,-3.01821,90.2372
2023-03-11 16:04:01:967,0,-16.0683,-3.01757,90.2328
2023-03-11 16:04:01:977,0,-16.0645,-3.02051,90.2296
2023-03-11 16:04:01:987,0,-16.0571,-3.02462,90.2276
2023-03-11 16:04:01:997,0,-16.0492,-3.0255,90.2252
2023-03-11 16:04:02:7,0,-16.0362,-3.03026,90.2251
2023-03-11 16:04:02:17,0,-16.0209,-3.03299,90.2247
2023-03-11 16:04:02:27,0,-16.0056,-3.04097,90.2214
2023-03-11 16:04:02:37,0,-15.9891,-3.05123,90.2183
2023-03-11 16:04:02:47,0,-15.9723,-3.06037,90.2194
2023-03-11 16:04:02:57,0,-15.9561,-3.06795,90.2202
2023-03-11 16:04:02:67,0,-15.942,-3.07677,90.2219
2023-03-11 16:04:02:77,0,-15.924,-3.08674,90.2219
2023-03-11 16:04:02:87,0,-15.9133,-3.09211,90.2246
2023-03-11 16:04:02:97,0,-15.9062,-3.09799,90.2282
2023-03-11 16:04:02:107,0,-15.8996,-3.1053,90.2329
2023-03-11 16:04:02:117,0,-15.8949,-3.10784,90.238
2023-03-11 16:04:02:127,0,-15.8951,-3.11179,90.2434
2023-03-11 16:04:02:137,0,-15.8982,-3.11111,90.2441
2023-03-11 16:04:02:147,0,-15.901,-3.10631,90.2401
2023-03-11 16:04:02:156,0,-15.9075,-3.09523,90.2322
2023-03-11 16:04:02:166,0,-15.9073,-3.08696,90.2185
2023-03-11 16:04:02:176,0,-15.9071,-3.07951,90.2043
2023-03-11 16:04:02:186,0,-15.9114,-3.06937,90.1876
2023-03-11 16:04:02:196,0,-15.915,-3.06294,90.1678
2023-03-11 16:04:02:207,0,-15.9181,-3.05589,90.15
2023-03-11 16:04:02:217,0,-15.9245,-3.04773,90.1327
2023-03-11 16:04:02:226,0,-15.9332,-3.04065,90.1147
2023-03-11 16:04:02:236,0,-15.9411,-3.03858,90.097
2023-03-11 16:04:02:247,0,-15.9439,-3.03046,90.082
2023-03-11 16:04:02:256,0,-15.9519,-3.02793,90.0699
2023-03-11 16:04:02:267,0,-15.9557,-3.02574,90.061
2023-03-11 16:04:02:277,0,-15.9604,-3.0263,90.0555
2023-03-11 16:04:02:287,0,-15.9635,-3.02415,90.0544
2023-03-11 16:04:02:297,0,-15.9643,-3.02317,90.0556
2023-03-11 16:04:02:307,0,-15.9668,-3.0252,90.0615
2023-03-11 16:04:02:317,0,-15.9721,-3.02635,90.0668
2023-03-11 16:04:02:327,0,-15.9699,-3.02881,90.075
2023-03-11 16:04:02:337,0,-15.9688,-3.03053,90.0851
2023-03-11 16:04:02:347,0,-15.9695,-3.0344,90.0954
2023-03-11 16:04:02:357,0,-15.97,-3.03614,90.1017
2023-03-11 16:04:02:367,0,-15.9731,-3.03817,90.1114
2023-03-11 16:04:02:377,0,-15.9693,-3.03854,90.1172
2023-03-11 16:04:02:387,0,-15.9651,-3.04332,90.1245
2023-03-11 16:04:02:397,0,-15.9588,-3.04735,90.1305
2023-03-11 16:04:02:407,0,-15.9599,-3.06032,90.141
2023-03-11 16:04:02:417,0,-15.966,-3.07171,90.1542
2023-03-11 16:04:02:427,0,-15.9774,-3.08325,90.1678
2023-03-11 16:04:02:437,0,-15.9825,-3.09618,90.1823
2023-03-11 16:04:02:447,0,-15.9884,-3.10818,90.1929
2023-03-11 16:04:02:457,0,-15.9937,-3.11714,90.2022
2023-03-11 16:04:02:467,0,-15.998,-3.12307,90.2146
2023-03-11 16:04:02:477,0,-15.9995,-3.131,90.2224
2023-03-11 16:04:02:487,0,-15.9999,-3.13474,90.233
2023-03-11 16:04:02:497,0,-16.0035,-3.13491,90.2383
2023-03-11 16:04:02:507,0,-16.0072,-3.1353,90.247
2023-03-11 16:04:02:517,0,-16.0121,-3.13347,90.2514
2023-03-11 16:04:02:527,0,-16.0176,-3.13641,90.2563
2023-03-11 16:04:02:537,0,-16.0248,-3.13995,90.2566
2023-03-11 16:04:02:547,0,-16.0346,-3.14191,90.2565
2023-03-11 16:04:02:557,0,-16.0442,-3.13921,90.2557
2023-03-11 16:04:02:567,0,-16.0538,-3.13323,90.2513
2023-03-11 16:04:02:577,0,-16.0659,-3.13514,90.2479
2023-03-11 16:04:02:587,0,-16.075,-3.13568,90.245
2023-03-11 16:04:02:597,0,-16.086,-3.13427,90.2414
2023-03-11 16:04:02:607,0,-16.0885,-3.12705,90.2368
2023-03-11 16:04:02:617,0,-16.0866,-3.12614,90.2346
2023-03-11 16:04:02:627,0,-16.0821,-3.125,90.2328
2023-03-11 16:04:02:637,0,-16.0834,-3.12699,90.2327
2023-03-11 16:04:02:647,0,-16.083,-3.12539,90.2351
2023-03-11 16:04:02:657,0,-16.0794,-3.12299,90.235
2023-03-11 16:04:02:667,0,-16.0733,-3.11625,90.2322
2023-03-11 16:04:02:677,0,-16.0655,-3.11322,90.2285
2023-03-11 16:04:02:687,0,-16.0567,-3.11155,90.2259
2023-03-11 16:04:02:697,0,-16.04,-3.11445,90.2249
2023-03-11 16:04:02:707,0,-16.027,-3.11696,90.2225
2023-03-11 16:04:02:717,0,-16.0165,-3.12921,90.2244
2023-03-11 16:04:02:727,0,-16.0116,-3.13997,90.2301
2023-03-11 16:04:02:737,0,-16.0045,-3.15222,90.2371
2023-03-11 16:04:02:747,0,-16.0024,-3.16259,90.2443
2023-03-11 16:04:02:757,0,-15.9984,-3.17336,90.252
2023-03-11 16:04:02:767,0,-15.9962,-3.18331,90.2646
2023-03-11 16:04:02:777,0,-15.9974,-3.19674,90.2781
2023-03-11 16:04:02:787,0,-16.0039,-3.20951,90.2903
2023-03-11 16:04:02:797,0,-16.0048,-3.22045,90.3016
2023-03-11 16:04:02:807,0,-16.0058,-3.23116,90.3152
2023-03-11 16:04:02:817,0,-16.0108,-3.23706,90.3265
2023-03-11 16:04:02:827,0,-16.0182,-3.24435,90.3389
2023-03-11 16:04:02:837,0,-16.0249,-3.25166,90.3501
2023-03-11 16:04:02:846,0,-16.0294,-3.26121,90.3571
2023-03-11 16:04:02:856,0,-16.0336,-3.26757,90.363
2023-03-11 16:04:02:866,0,-16.038,-3.27028,90.3689
2023-03-11 16:04:02:876,0,-16.046,-3.27607,90.3746
2023-03-11 16:04:02:886,0,-16.0506,-3.27668,90.3749
2023-03-11 16:04:02:896,0,-16.058,-3.27833,90.3744
2023-03-11 16:04:02:906,0,-16.062,-3.27623,90.3726
2023-03-11 16:04:02:916,0,-16.0627,-3.27136,90.3684
2023-03-11 16:04:02:926,0,-16.0607,-3.26691,90.3647
2023-03-11 16:04:02:936,0,-16.063,-3.26273,90.3634
2023-03-11 16:04:02:946,0,-16.064,-3.25947,90.3602
2023-03-11 16:04:02:956,0,-16.0675,-3.25497,90.356
2023-03-11 16:04:02:966,0,-16.0697,-3.25137,90.3498
2023-03-11 16:04:02:976,0,-16.0642,-3.24692,90.3403
2023-03-11 16:04:02:986,0,-16.0573,-3.24259,90.3319
2023-03-11 16:04:02:996,0,-16.0508,-3.23515,90.3282
2023-03-11 16:04:03:6,0,-16.0386,-3.23468,90.324
2023-03-11 16:04:03:16,0,-16.0255,-3.23742,90.3214
2023-03-11 16:04:03:26,0,-16.0113,-3.2394,90.32
2023-03-11 16:04:03:36,0,-15.9997,-3.24125,90.3199
2023-03-11 16:04:03:47,0,-15.989,-3.24393,90.3199
2023-03-11 16:04:03:57,0,-15.9819,-3.24394,90.3189
2023-03-11 16:04:03:67,0,-15.9755,-3.24275,90.3177
2023-03-11 16:04:03:77,0,-15.9691,-3.23967,90.3147
2023-03-11 16:04:03:87,0,-15.9661,-3.2342,90.3134
2023-03-11 16:04:03:97,0,-15.9708,-3.22893,90.3131
2023-03-11 16:04:03:107,0,-15.9739,-3.2261,90.3139
2023-03-11 16:04:03:117,0,-15.9735,-3.22661,90.3119
2023-03-11 16:04:03:127,0,-15.9732,-3.22924,90.3163
2023-03-11 16:04:03:137,0,-15.985,-3.23067,90.3237
2023-03-11 16:04:03:147,0,-15.9971,-3.23202,90.3308
2023-03-11 16:04:03:157,0,-16.0109,-3.23573,90.3368
2023-03-11 16:04:03:167,0,-16.0225,-3.2396,90.3445
2023-03-11 16:04:03:177,0,-16.0323,-3.24008,90.3468
2023-03-11 16:04:03:187,0,-16.0341,-3.23795,90.3523
2023-03-11 16:04:03:197,0,-16.0383,-3.23485,90.3543
2023-03-11 16:04:03:207,0,-16.0399,-3.23112,90.3548
2023-03-11 16:04:03:217,0,-16.0362,-3.22541,90.351
2023-03-11 16:04:03:227,0,-16.0349,-3.22267,90.3479
2023-03-11 16:04:03:237,0,-16.0345,-3.21777,90.3453
2023-03-11 16:04:03:247,0,-16.0337,-3.21329,90.3414
2023-03-11 16:04:03:257,0,-16.0348,-3.20898,90.3389
2023-03-11 16:04:03:267,0,-16.0391,-3.20647,90.3374
2023-03-11 16:04:03:277,0,-16.0455,-3.20397,90.336
2023-03-11 16:04:03:287,0,-16.0529,-3.20225,90.3348
2023-03-11 16:04:03:297,0,-16.0576,-3.20155,90.3318
2023-03-11 16:04:03:307,0,-16.061,-3.19661,90.3286
2023-03-11 16:04:03:316,0,-16.0646,-3.19194,90.3268
2023-03-11 16:04:03:326,0,-16.0729,-3.18617,90.3272
2023-03-11 16:04:03:336,0,-16.0762,-3.17525,90.3236
2023-03-11 16:04:03:346,0,-16.0745,-3.16647,90.3134
2023-03-11 16:04:03:356,0,-16.0717,-3.16475,90.3078
2023-03-11 16:04:03:366,0,-16.0707,-3.16413,90.3067
2023-03-11 16:04:03:376,0,-16.0661,-3.16361,90.305
2023-03-11 16:04:03:386,0,-16.0577,-3.16046,90.3022
2023-03-11 16:04:03:396,0,-16.0549,-3.15393,90.2965
2023-03-11 16:04:03:406,0,-16.0571,-3.14739,90.2966
2023-03-11 16:04:03:416,0,-16.0588,-3.14226,90.2968
2023-03-11 16:04:03:426,0,-16.0599,-3.14163,90.2985
2023-03-11 16:04:03:436,0,-16.0615,-3.13578,90.3021
2023-03-11 16:04:03:446,0,-16.0624,-3.13552,90.3081
2023-03-11 16:04:03:456,0,-16.0671,-3.13501,90.3154
2023-03-11 16:04:03:466,0,-16.0665,-3.13857,90.3174
2023-03-11 16:04:03:476,0,-16.0657,-3.14497,90.3239
2023-03-11 16:04:03:486,0,-16.066,-3.15132,90.3311
2023-03-11 16:04:03:496,0,-16.0686,-3.15395,90.3395
2023-03-11 16:04:03:506,0,-16.0707,-3.15676,90.3431
2023-03-11 16:04:03:516,0,-16.0752,-3.1609,90.3481
2023-03-11 16:04:03:526,0,-16.0797,-3.1633,90.3499
2023-03-11 16:04:03:536,0,-16.0819,-3.16645,90.3563
2023-03-11 16:04:03:546,0,-16.0841,-3.1719,90.3552
2023-03-11 16:04:03:556,0,-16.0819,-3.17281,90.3557
2023-03-11 16:04:03:566,0,-16.0828,-3.17507,90.3578
2023-03-11 16:04:03:576,0,-16.0849,-3.17625,90.3587
2023-03-11 16:04:03:586,0,-16.0905,-3.17761,90.3599
2023-03-11 16:04:03:596,0,-16.0941,-3.17629,90.3609
2023-03-11 16:04:03:606,0,-16.0974,-3.17404,90.3625
2023-03-11 16:04:03:616,0,-16.0992,-3.17269,90.3597
2023-03-11 16:04:03:631,0,-16.1007,-3.16649,90.3558
2023-03-11 16:04:03:636,0,-16.1044,-3.16087,90.3538
2023-03-11 16:04:03:646,0,-16.1006,-3.1576,90.3498
2023-03-11 16:04:03:656,0,-16.0987,-3.15768,90.3425
2023-03-11 16:04:03:666,0,-16.0976,-3.15484,90.3392
2023-03-11 16:04:03:676,0,-16.0952,-3.15415,90.3356
2023-03-11 16:04:03:686,0,-16.0954,-3.15502,90.3367
2023-03-11 16:04:03:696,0,-16.1029,-3.1529,90.3356
2023-03-11 16:04:03:706,0,-16.1071,-3.14623,90.3348
2023-03-11 16:04:03:716,0,-16.1118,-3.14242,90.3342
2023-03-11 16:04:03:726,0,-16.1164,-3.1382,90.336
2023-03-11 16:04:03:736,0,-16.1193,-3.13095,90.3354
2023-03-11 16:04:03:746,0,-16.1195,-3.1296,90.3358
2023-03-11 16:04:03:756,0,-16.1202,-3.12244,90.3371
2023-03-11 16:04:03:766,0,-16.12,-3.11588,90.3336
2023-03-11 16:04:03:776,0,-16.117,-3.10518,90.3303
2023-03-11 16:04:03:786,0,-16.1164,-3.09928,90.3277
2023-03-11 16:04:03:796,0,-16.1164,-3.09354,90.3229
2023-03-11 16:04:03:806,0,-16.1172,-3.08899,90.3178
2023-03-11 16:04:03:816,0,-16.1148,-3.083,90.3121
2023-03-11 16:04:03:826,0,-16.1124,-3.07778,90.3045
2023-03-11 16:04:03:836,0,-16.101,-3.06912,90.2978
2023-03-11 16:04:03:846,0,-16.0953,-3.06368,90.2955
2023-03-11 16:04:03:856,0,-16.0953,-3.0627,90.2967
2023-03-11 16:04:03:866,0,-16.1006,-3.06159,90.2966
2023-03-11 16:04:03:876,0,-16.105,-3.06182,90.2991
2023-03-11 16:04:03:886,0,-16.1049,-3.05726,90.3027
2023-03-11 16:04:03:897,0,-16.1041,-3.05163,90.3084
2023-03-11 16:04:03:907,0,-16.1018,-3.04865,90.3077
2023-03-11 16:04:03:917,0,-16.0932,-3.03892,90.3093
2023-03-11 16:04:03:927,0,-16.0836,-3.03066,90.3108
2023-03-11 16:04:03:937,0,-16.0721,-3.02529,90.3049
2023-03-11 16:04:03:947,0,-16.0632,-3.02174,90.2989
2023-03-11 16:04:03:957,0,-16.0563,-3.01644,90.2902
2023-03-11 16:04:03:967,0,-16.0473,-3.00902,90.2816
2023-03-11 16:04:03:977,0,-16.0418,-3.00239,90.275
2023-03-11 16:04:03:987,0,-16.0378,-2.99745,90.268
2023-03-11 16:04:03:997,0,-16.0354,-2.99117,90.262
2023-03-11 16:04:04:7,0,-16.0352,-2.98535,90.2526
2023-03-11 16:04:04:17,0,-16.0367,-2.98111,90.2484
2023-03-11 16:04:04:27,0,-16.0337,-2.97573,90.2486
2023-03-11 16:04:04:37,0,-16.0285,-2.9695,90.2455
2023-03-11 16:04:04:47,0,-16.0229,-2.9649,90.2443
2023-03-11 16:04:04:57,0,-16.0121,-2.95822,90.2397
2023-03-11 16:04:04:67,0,-15.9983,-2.95319,90.2371
2023-03-11 16:04:04:77,0,-15.982,-2.95281,90.2373
2023-03-11 16:04:04:87,0,-15.9647,-2.95643,90.2423
2023-03-11 16:04:04:97,0,-15.9491,-2.9597,90.2464
2023-03-11 16:04:04:107,0,-15.937,-2.95827,90.2517
2023-03-11 16:04:04:117,0,-15.9231,-2.95961,90.2575
2023-03-11 16:04:04:127,0,-15.9075,-2.95551,90.2617
2023-03-11 16:04:04:137,0,-15.8974,-2.95606,90.2673
2023-03-11 16:04:04:147,0,-15.8883,-2.95718,90.2739
2023-03-11 16:04:04:157,0,-15.882,-2.95654,90.2826
2023-03-11 16:04:04:167,0,-15.8726,-2.95996,90.29
2023-03-11 16:04:04:177,0,-15.8658,-2.96753,90.2992
2023-03-11 16:04:04:187,0,-15.8577,-2.9736,90.308
2023-03-11 16:04:04:197,0,-15.8513,-2.98039,90.3145
2023-03-11 16:04:04:207,0,-15.8437,-2.98713,90.3258
2023-03-11 16:04:04:217,0,-15.8366,-2.99342,90.3348
2023-03-11 16:04:04:227,0,-15.8308,-2.99593,90.3405
2023-03-11 16:04:04:237,0,-15.8227,-2.99948,90.346
2023-03-11 16:04:04:247,0,-15.8136,-3.00141,90.3523
2023-03-11 16:04:04:257,0,-15.8077,-3.00712,90.3581
2023-03-11 16:04:04:267,0,-15.8049,-3.01145,90.365
2023-03-11 16:04:04:277,0,-15.8002,-3.01507,90.3718
2023-03-11 16:04:04:287,0,-15.796,-3.01236,90.3791
2023-03-11 16:04:04:296,0,-15.7959,-3.01088,90.387
2023-03-11 16:04:04:306,0,-15.7975,-3.01329,90.3905
2023-03-11 16:04:04:316,0,-15.7975,-3.01302,90.3919
2023-03-11 16:04:04:326,0,-15.8008,-3.00896,90.3933
2023-03-11 16:04:04:336,0,-15.8022,-3.00136,90.3906
2023-03-11 16:04:04:346,0,-15.8039,-2.9918,90.389
2023-03-11 16:04:04:356,0,-15.8094,-2.98644,90.3864
2023-03-11 16:04:04:366,0,-15.8101,-2.9809,90.38
2023-03-11 16:04:04:376,0,-15.8113,-2.97798,90.3747
2023-03-11 16:04:04:386,0,-15.8107,-2.97008,90.3687
2023-03-11 16:04:04:396,0,-15.8093,-2.96504,90.3649
2023-03-11 16:04:04:406,0,-15.8066,-2.96261,90.3574
2023-03-11 16:04:04:416,0,-15.8017,-2.95813,90.3553
2023-03-11 16:04:04:426,0,-15.7911,-2.95647,90.3564
2023-03-11 16:04:04:436,0,-15.7771,-2.95467,90.3588
2023-03-11 16:04:04:446,0,-15.7681,-2.95477,90.364
2023-03-11 16:04:04:456,0,-15.7539,-2.95152,90.3708
2023-03-11 16:04:04:466,0,-15.7404,-2.94865,90.3788
2023-03-11 16:04:04:476,0,-15.7273,-2.94912,90.3844
2023-03-11 16:04:04:486,0,-15.7149,-2.94723,90.3883
2023-03-11 16:04:04:496,0,-15.709,-2.94483,90.3902
2023-03-11 16:04:04:506,0,-15.7019,-2.93991,90.3912
2023-03-11 16:04:04:516,0,-15.6944,-2.93902,90.3901
2023-03-11 16:04:04:526,0,-15.6928,-2.9378,90.39
2023-03-11 16:04:04:536,0,-15.6977,-2.94299,90.3905
2023-03-11 16:04:04:546,0,-15.7047,-2.94439,90.3883
2023-03-11 16:04:04:556,0,-15.7044,-2.94769,90.3865
2023-03-11 16:04:04:566,0,-15.7033,-2.95162,90.3852
2023-03-11 16:04:04:577,0,-15.7025,-2.95955,90.3856
2023-03-11 16:04:04:587,0,-15.7048,-2.97087,90.3891
2023-03-11 16:04:04:597,0,-15.71,-2.97975,90.3965
2023-03-11 16:04:04:606,0,-15.7177,-2.98661,90.4047
2023-03-11 16:04:04:616,0,-15.7255,-2.99371,90.4166
2023-03-11 16:04:04:626,0,-15.7363,-2.99974,90.4255
2023-03-11 16:04:04:636,0,-15.7461,-2.99751,90.4358
2023-03-11 16:04:04:646,0,-15.7561,-2.99667,90.4432
2023-03-11 16:04:04:656,0,-15.756,-2.99384,90.4506
2023-03-11 16:04:04:666,0,-15.7558,-2.9902,90.4539
2023-03-11 16:04:04:676,0,-15.7542,-2.98872,90.4532
2023-03-11 16:04:04:687,0,-15.7524,-2.98389,90.4524
2023-03-11 16:04:04:696,0,-15.7521,-2.98102,90.4451
2023-03-11 16:04:04:706,0,-15.7499,-2.97576,90.4377
2023-03-11 16:04:04:716,0,-15.752,-2.97171,90.4248
2023-03-11 16:04:04:726,0,-15.749,-2.96366,90.4115
2023-03-11 16:04:04:737,0,-15.7466,-2.95751,90.3986
2023-03-11 16:04:04:747,0,-15.7438,-2.95288,90.3853
2023-03-11 16:04:04:757,0,-15.7409,-2.94585,90.3728
2023-03-11 16:04:04:767,0,-15.7404,-2.9395,90.3649
2023-03-11 16:04:04:777,0,-15.7396,-2.92923,90.3545
2023-03-11 16:04:04:787,0,-15.7353,-2.9217,90.3509
2023-03-11 16:04:04:796,0,-15.724,-2.91755,90.3423
2023-03-11 16:04:04:806,0,-15.7137,-2.91443,90.3369
2023-03-11 16:04:04:816,0,-15.7021,-2.91481,90.3375
2023-03-11 16:04:04:826,0,-15.693,-2.9164,90.3399
2023-03-11 16:04:04:837,0,-15.6835,-2.91751,90.338
2023-03-11 16:04:04:846,0,-15.6709,-2.91779,90.3432
2023-03-11 16:04:04:857,0,-15.6604,-2.92275,90.3415
2023-03-11 16:04:04:866,0,-15.649,-2.92364,90.3468
2023-03-11 16:04:04:877,0,-15.6394,-2.92277,90.351
2023-03-11 16:04:04:886,0,-15.6346,-2.92772,90.3552
2023-03-11 16:04:04:896,0,-15.63,-2.9306,90.3612
2023-03-11 16:04:04:906,0,-15.629,-2.93892,90.3663
2023-03-11 16:04:04:916,0,-15.6272,-2.95081,90.3725
2023-03-11 16:04:04:927,0,-15.621,-2.95925,90.3766
2023-03-11 16:04:04:936,0,-15.6134,-2.96951,90.3824
2023-03-11 16:04:04:946,0,-15.603,-2.97824,90.3897
2023-03-11 16:04:04:956,0,-15.5894,-2.98651,90.3992
2023-03-11 16:04:04:967,0,-15.5727,-2.99572,90.4067
2023-03-11 16:04:04:976,0,-15.5556,-3.0049,90.4135
2023-03-11 16:04:04:987,0,-15.5403,-3.00925,90.4212
2023-03-11 16:04:04:996,0,-15.5291,-3.00964,90.429
2023-03-11 16:04:05:6,0,-15.5119,-3.01359,90.4336
2023-03-11 16:04:05:16,0,-15.4926,-3.01976,90.4406
2023-03-11 16:04:05:26,0,-15.4741,-3.02447,90.4499
2023-03-11 16:04:05:37,0,-15.4543,-3.03259,90.4586
2023-03-11 16:04:05:47,0,-15.4369,-3.03258,90.4676
2023-03-11 16:04:05:56,0,-15.4181,-3.03096,90.4758
2023-03-11 16:04:05:66,0,-15.393,-3.02968,90.4795
2023-03-11 16:04:05:76,0,-15.3705,-3.02669,90.4878
2023-03-11 16:04:05:87,0,-15.3486,-3.02628,90.4949
2023-03-11 16:04:05:96,0,-15.3294,-3.02778,90.5004
2023-03-11 16:04:05:107,0,-15.3103,-3.03085,90.5022
2023-03-11 16:04:05:116,0,-15.2872,-3.0325,90.5105
2023-03-11 16:04:05:126,0,-15.262,-3.03496,90.5162
2023-03-11 16:04:05:137,0,-15.2361,-3.03358,90.5233
2023-03-11 16:04:05:146,0,-15.2102,-3.03194,90.5323
2023-03-11 16:04:05:156,0,-15.1853,-3.03314,90.5441
2023-03-11 16:04:05:166,0,-15.1587,-3.03707,90.5584
2023-03-11 16:04:05:176,0,-15.1378,-3.03775,90.5754
2023-03-11 16:04:05:187,0,-15.1139,-3.03991,90.5938
2023-03-11 16:04:05:197,0,-15.0941,-3.04451,90.6145
2023-03-11 16:04:05:207,0,-15.0691,-3.04664,90.6351
2023-03-11 16:04:05:217,0,-15.0425,-3.04339,90.6527
2023-03-11 16:04:05:227,0,-15.014,-3.04171,90.6678
2023-03-11 16:04:05:237,0,-14.9861,-3.03903,90.683
2023-03-11 16:04:05:246,0,-14.9618,-3.03476,90.6948
2023-03-11 16:04:05:256,0,-14.9344,-3.03773,90.7017
2023-03-11 16:04:05:266,0,-14.9106,-3.04093,90.7027
2023-03-11 16:04:05:276,0,-14.8926,-3.04889,90.7022
2023-03-11 16:04:05:287,0,-14.8818,-3.05203,90.7032
2023-03-11 16:04:05:296,0,-14.8661,-3.06021,90.7021
2023-03-11 16:04:05:306,0,-14.8551,-3.07091,90.7005
2023-03-11 16:04:05:316,0,-14.8466,-3.07959,90.7009
2023-03-11 16:04:05:327,0,-14.842,-3.09665,90.7054
2023-03-11 16:04:05:337,0,-14.8352,-3.10952,90.712
2023-03-11 16:04:05:346,0,-14.8326,-3.12213,90.7171
2023-03-11 16:04:05:356,0,-14.8301,-3.13314,90.7243
2023-03-11 16:04:05:366,0,-14.8267,-3.13897,90.7337
2023-03-11 16:04:05:376,0,-14.8271,-3.14481,90.7406
2023-03-11 16:04:05:386,0,-14.8244,-3.14989,90.7495
2023-03-11 16:04:05:397,0,-14.8183,-3.1575,90.7569
2023-03-11 16:04:05:407,0,-14.8074,-3.16007,90.7634
2023-03-11 16:04:05:416,0,-14.7975,-3.16338,90.7667
2023-03-11 16:04:05:426,0,-14.7869,-3.16259,90.7727
2023-03-11 16:04:05:436,0,-14.7747,-3.1649,90.7699
2023-03-11 16:04:05:446,0,-14.7632,-3.16445,90.7639
2023-03-11 16:04:05:456,0,-14.7484,-3.16684,90.759
2023-03-11 16:04:05:466,0,-14.7381,-3.16625,90.7487
2023-03-11 16:04:05:476,0,-14.7234,-3.16619,90.7354
2023-03-11 16:04:05:487,0,-14.7116,-3.16786,90.7237
2023-03-11 16:04:05:496,0,-14.6977,-3.17288,90.7126
2023-03-11 16:04:05:506,0,-14.6818,-3.17691,90.6989
2023-03-11 16:04:05:517,0,-14.6682,-3.17681,90.6873
2023-03-11 16:04:05:526,0,-14.6468,-3.17307,90.6751
2023-03-11 16:04:05:536,0,-14.6212,-3.17221,90.6617
2023-03-11 16:04:05:547,0,-14.5924,-3.17304,90.6492
2023-03-11 16:04:05:556,0,-14.5601,-3.17578,90.6368
2023-03-11 16:04:05:566,0,-14.5246,-3.1785,90.6302
