Timestamp_cmd,imu_cmd,roll_delta,pitch_delta,yaw_delta,voice_type,voice_length
2023-03-14 16:32:34:325,0,-15.4551,-4.68207,76.4941,Q,Q
2023-03-14 16:32:34:327,0,-15.3845,-4.68492,76.2646,Q,Q
2023-03-14 16:32:34:337,0,-15.3162,-4.68811,76.0435,Q,Q
2023-03-14 16:32:34:347,0,-15.2578,-4.68257,75.8318,Q,Q
2023-03-14 16:32:34:357,0,-15.2117,-4.66792,75.6309,Q,Q
2023-03-14 16:32:34:367,0,-15.1785,-4.64981,75.4401,Q,Q
2023-03-14 16:32:34:377,0,-15.1504,-4.62942,75.2636,Q,Q
2023-03-14 16:32:34:387,0,-15.1231,-4.60624,75.0987,Q,Q
2023-03-14 16:32:34:397,0,-15.0879,-4.58054,74.954,Q,Q
2023-03-14 16:32:34:407,0,-15.0498,-4.55318,74.8209,Q,Q
2023-03-14 16:32:34:417,0,-15.0209,-4.52086,74.7038,Q,Q
2023-03-14 16:32:34:428,0,-15.0136,-4.4869,74.6054,Q,Q
2023-03-14 16:32:34:437,0,-15.0223,-4.45711,74.5329,Q,Q
2023-03-14 16:32:34:447,0,-15.0312,-4.44127,74.4795,Q,Q
2023-03-14 16:32:34:457,0,-15.0263,-4.42645,74.4414,Q,Q
2023-03-14 16:32:34:468,0,-15.0151,-4.4119,74.4249,Q,Q
2023-03-14 16:32:34:478,0,-15.0006,-4.39767,74.4203,Q,Q
2023-03-14 16:32:34:487,0,-14.9812,-4.39018,74.4292,Q,Q
2023-03-14 16:32:34:497,0,-14.9545,-4.38995,74.4444,Q,Q
2023-03-14 16:32:34:508,0,-14.9289,-4.39358,74.4669,Q,Q
2023-03-14 16:32:34:517,0,-14.8963,-4.40019,74.4898,Q,Q
2023-03-14 16:32:34:527,0,-14.8699,-4.40976,74.5091,Q,Q
2023-03-14 16:32:34:537,0,-14.8451,-4.42321,74.5229,Q,Q
2023-03-14 16:32:34:548,0,-14.8321,-4.43688,74.5302,Q,Q
2023-03-14 16:32:34:557,0,-14.8232,-4.4539,74.5315,Q,Q
2023-03-14 16:32:34:567,0,-14.8085,-4.47321,74.5277,Q,Q
2023-03-14 16:32:34:578,0,-14.7965,-4.49208,74.5231,Q,Q
2023-03-14 16:32:34:588,0,-14.785,-4.51047,74.513,Q,Q
2023-03-14 16:32:34:598,0,-14.7736,-4.52355,74.4936,Q,Q
2023-03-14 16:32:34:608,0,-14.7662,-4.53137,74.4672,Q,Q
2023-03-14 16:32:34:617,0,-14.7574,-4.53755,74.439,Q,Q
2023-03-14 16:32:34:628,0,-14.7459,-4.53702,74.4075,Q,Q
2023-03-14 16:32:34:638,0,-14.7385,-4.53273,74.384,Q,Q
2023-03-14 16:32:34:647,0,-14.7406,-4.52759,74.3647,Q,Q
2023-03-14 16:32:34:657,0,-14.7553,-4.52639,74.3533,Q,Q
2023-03-14 16:32:34:667,0,-14.7721,-4.52225,74.3493,Q,Q
2023-03-14 16:32:34:677,0,-14.7769,-4.51656,74.3483,Q,Q
2023-03-14 16:32:34:687,0,-14.7627,-4.50899,74.3492,Q,Q
2023-03-14 16:32:34:697,0,-14.7382,-4.49816,74.3528,Q,Q
2023-03-14 16:32:34:707,0,-14.7345,-4.48361,74.3625,Q,Q
2023-03-14 16:32:34:717,0,-14.7519,-4.46853,74.3718,Q,Q
2023-03-14 16:32:34:727,0,-14.7753,-4.45016,74.3823,Q,Q
2023-03-14 16:32:34:737,0,-14.8071,-4.43317,74.3951,Q,Q
2023-03-14 16:32:34:747,0,-14.8356,-4.41965,74.408,Q,Q
2023-03-14 16:32:34:757,0,-14.8595,-4.40639,74.4226,Q,Q
2023-03-14 16:32:34:767,0,-14.8829,-4.39192,74.4362,Q,Q
2023-03-14 16:32:34:777,0,-14.8921,-4.38181,74.4573,Q,Q
2023-03-14 16:32:34:787,0,-14.8949,-4.36829,74.4894,Q,Q
2023-03-14 16:32:34:797,0,-14.9119,-4.35739,74.5301,Q,Q
2023-03-14 16:32:34:807,0,-14.9451,-4.35028,74.5767,Q,Q
2023-03-14 16:32:34:817,0,-14.9851,-4.3479,74.632,Q,Q
2023-03-14 16:32:34:827,0,-15.0206,-4.3492,74.6929,Q,Q
2023-03-14 16:32:34:837,0,-15.0517,-4.35771,74.766,Q,Q
2023-03-14 16:32:34:847,0,-15.08,-4.37044,74.8409,Q,Q
2023-03-14 16:32:34:857,0,-15.0944,-4.38072,74.92,Q,Q
2023-03-14 16:32:34:867,0,-15.1105,-4.38676,75.0018,Q,Q
2023-03-14 16:32:34:877,0,-15.1492,-4.39344,75.0888,Q,Q
2023-03-14 16:32:34:887,0,-15.2048,-4.4094,75.1778,Q,Q
2023-03-14 16:32:34:897,0,-15.2525,-4.43433,75.2654,Q,Q
2023-03-14 16:32:34:907,0,-15.2676,-4.4574,75.352,Q,Q
2023-03-14 16:32:34:917,0,-15.2769,-4.48071,75.4355,Q,Q
2023-03-14 16:32:34:927,0,-15.2973,-4.49639,75.5122,Q,Q
2023-03-14 16:32:34:937,0,-15.3284,-4.50535,75.5876,Q,Q
2023-03-14 16:32:34:947,0,-15.3586,-4.51568,75.6519,Q,Q
2023-03-14 16:32:34:957,0,-15.3793,-4.52521,75.7075,Q,Q
2023-03-14 16:32:34:967,0,-15.3915,-4.53767,75.7556,Q,Q
2023-03-14 16:32:34:977,0,-15.3978,-4.54974,75.7921,Q,Q
2023-03-14 16:32:34:987,0,-15.4029,-4.56442,75.8215,Q,Q
2023-03-14 16:32:34:997,0,-15.4005,-4.57877,75.8397,Q,Q
2023-03-14 16:32:35:7,0,-15.3901,-4.59625,75.8441,Q,Q
2023-03-14 16:32:35:17,0,-15.374,-4.61189,75.8389,Q,Q
2023-03-14 16:32:35:27,0,-15.3531,-4.62673,75.823,Q,Q
2023-03-14 16:32:35:37,0,-15.3246,-4.64489,75.7991,Q,Q
2023-03-14 16:32:35:47,0,-15.2957,-4.66016,75.7686,Q,Q
2023-03-14 16:32:35:57,0,-15.2639,-4.68341,75.7352,Q,Q
2023-03-14 16:32:35:67,0,-15.2243,-4.70274,75.6998,Q,Q
2023-03-14 16:32:35:78,0,-15.1878,-4.7206,75.6639,Q,Q
2023-03-14 16:32:35:88,0,-15.1466,-4.738,75.6212,Q,Q
2023-03-14 16:32:35:98,0,-15.1073,-4.75379,75.5683,Q,Q
2023-03-14 16:32:35:108,0,-15.066,-4.7687,75.5066,Q,Q
2023-03-14 16:32:35:118,0,-15.0239,-4.78464,75.4325,Q,Q
2023-03-14 16:32:35:127,0,-14.9831,-4.79933,75.3472,Q,Q
2023-03-14 16:32:35:138,0,-14.9426,-4.81732,75.2479,Q,Q
2023-03-14 16:32:35:148,0,-14.9019,-4.83187,75.1381,Q,Q
2023-03-14 16:32:35:157,0,-14.8618,-4.84864,75.0174,Q,Q
2023-03-14 16:32:35:167,0,-14.8234,-4.86512,74.8898,Q,Q
2023-03-14 16:32:35:177,0,-14.7847,-4.87793,74.7492,Q,Q
2023-03-14 16:32:35:188,0,-14.7426,-4.88469,74.5979,Q,Q
2023-03-14 16:32:35:197,0,-14.7015,-4.89051,74.4449,Q,Q
2023-03-14 16:32:35:208,0,-14.6573,-4.89104,74.2895,Q,Q
2023-03-14 16:32:35:217,0,-14.6147,-4.8923,74.1348,Q,Q
2023-03-14 16:32:35:227,0,-14.5687,-4.8875,73.9842,Q,Q
2023-03-14 16:32:35:237,0,-14.5209,-4.88511,73.8398,Q,Q
2023-03-14 16:32:35:248,0,-14.4717,-4.87836,73.6986,Q,Q
2023-03-14 16:32:35:257,0,-14.4236,-4.87148,73.568,Q,Q
2023-03-14 16:32:35:268,0,-14.3814,-4.86412,73.4518,Q,Q
2023-03-14 16:32:35:278,0,-14.3422,-4.85658,73.3417,Q,Q
2023-03-14 16:32:35:287,0,-14.3074,-4.84933,73.2384,Q,Q
2023-03-14 16:32:35:297,0,-14.2763,-4.84006,73.1451,Q,Q
2023-03-14 16:32:35:307,0,-14.2529,-4.83009,73.0649,Q,Q
2023-03-14 16:32:35:317,0,-14.2346,-4.81649,72.9919,Q,Q
2023-03-14 16:32:35:327,0,-14.2213,-4.80533,72.9251,Q,Q
2023-03-14 16:32:35:338,0,-14.209,-4.79007,72.8699,Q,Q
2023-03-14 16:32:35:348,0,-14.2,-4.77657,72.8209,Q,Q
2023-03-14 16:32:35:358,0,-14.1943,-4.76256,72.7863,Q,Q
2023-03-14 16:32:35:368,0,-14.1908,-4.7472,72.7612,Q,Q
2023-03-14 16:32:35:378,0,-14.1989,-4.7387,72.7474,Q,Q
2023-03-14 16:32:35:388,0,-14.219,-4.72821,72.7498,Q,Q
2023-03-14 16:32:35:398,0,-14.242,-4.72182,72.7651,Q,Q
2023-03-14 16:32:35:407,0,-14.2736,-4.71966,72.7954,Q,Q
2023-03-14 16:32:35:417,0,-14.3065,-4.71842,72.8382,Q,Q
2023-03-14 16:32:35:427,0,-14.3432,-4.72016,72.8936,Q,Q
2023-03-14 16:32:35:438,0,-14.3822,-4.72505,72.9606,Q,Q
2023-03-14 16:32:35:447,0,-14.4215,-4.73047,73.0327,Q,Q
2023-03-14 16:32:35:458,0,-14.472,-4.73708,73.116,Q,Q
2023-03-14 16:32:35:468,0,-14.5237,-4.74372,73.2057,Q,Q
2023-03-14 16:32:35:478,0,-14.5852,-4.75029,73.3052,Q,Q
2023-03-14 16:32:35:488,0,-14.6483,-4.75651,73.4136,Q,Q
2023-03-14 16:32:35:498,0,-14.7135,-4.76409,73.5372,Q,Q
2023-03-14 16:32:35:507,0,-14.7793,-4.77312,73.6725,Q,Q
2023-03-14 16:32:35:518,0,-14.8482,-4.77898,73.816,Q,Q
2023-03-14 16:32:35:528,0,-14.9122,-4.78075,73.96,Q,Q
2023-03-14 16:32:35:538,0,-14.9713,-4.77947,74.1095,Q,Q
2023-03-14 16:32:35:548,0,-15.0276,-4.78059,74.261,Q,Q
2023-03-14 16:32:35:558,0,-15.0764,-4.78332,74.41,Q,Q
2023-03-14 16:32:35:568,0,-15.1198,-4.78657,74.5513,Q,Q
2023-03-14 16:32:35:578,0,-15.1552,-4.79024,74.6858,Q,Q
2023-03-14 16:32:35:588,0,-15.1853,-4.79676,74.81,Q,Q
2023-03-14 16:32:35:598,0,-15.2092,-4.80236,74.9161,Q,Q
2023-03-14 16:32:35:608,0,-15.2322,-4.80856,75.0088,Q,Q
2023-03-14 16:32:35:617,0,-15.2422,-4.81695,75.0887,Q,Q
2023-03-14 16:32:35:628,0,-15.2504,-4.82746,75.1558,Q,Q
2023-03-14 16:32:35:638,0,-15.2489,-4.83736,75.2074,Q,Q
2023-03-14 16:32:35:648,0,-15.2429,-4.85014,75.2423,Q,Q
2023-03-14 16:32:35:658,0,-15.2339,-4.86443,75.2655,Q,Q
2023-03-14 16:32:35:668,0,-15.2195,-4.87829,75.2746,Q,Q
2023-03-14 16:32:35:677,0,-15.2008,-4.88835,75.2704,Q,Q
2023-03-14 16:32:35:687,0,-15.1804,-4.89367,75.2574,Q,Q
2023-03-14 16:32:35:698,0,-15.1605,-4.89874,75.2384,Q,Q
2023-03-14 16:32:35:708,0,-15.1412,-4.90014,75.2115,Q,Q
2023-03-14 16:32:35:718,0,-15.1184,-4.8986,75.1805,Q,Q
2023-03-14 16:32:35:727,0,-15.0936,-4.89145,75.1468,Q,Q
2023-03-14 16:32:35:738,0,-15.0693,-4.88192,75.1083,Q,Q
2023-03-14 16:32:35:748,0,-15.0402,-4.87074,75.0684,Q,Q
2023-03-14 16:32:35:758,0,-15.0057,-4.86197,75.0244,Q,Q
2023-03-14 16:32:35:768,0,-14.9701,-4.85209,74.9807,Q,Q
2023-03-14 16:32:35:777,0,-14.9401,-4.84394,74.9291,Q,Q
2023-03-14 16:32:35:788,0,-14.9088,-4.83507,74.8742,Q,Q
2023-03-14 16:32:35:798,0,-14.875,-4.82822,74.8173,Q,Q
2023-03-14 16:32:35:807,0,-14.8373,-4.82949,74.7544,Q,Q
2023-03-14 16:32:35:817,0,-14.8025,-4.83696,74.683,Q,Q
2023-03-14 16:32:35:827,0,-14.7705,-4.85147,74.6063,Q,Q
2023-03-14 16:32:35:837,0,-14.7491,-4.87105,74.5226,Q,Q
2023-03-14 16:32:35:848,0,-14.7359,-4.89971,74.4389,Q,Q
2023-03-14 16:32:35:858,0,-14.7358,-4.92734,74.3562,Q,Q
2023-03-14 16:32:35:868,0,-14.7431,-4.94684,74.2694,Q,Q
2023-03-14 16:32:35:877,0,-14.7485,-4.95249,74.1744,Q,Q
2023-03-14 16:32:35:887,0,-14.747,-4.94152,74.0645,Q,Q
2023-03-14 16:32:35:897,0,-14.7295,-4.91074,73.9503,Q,Q
2023-03-14 16:32:35:907,0,-14.6836,-4.86672,73.8284,Q,Q
2023-03-14 16:32:35:917,0,-14.6061,-4.81812,73.7038,Q,Q
2023-03-14 16:32:35:927,0,-14.5041,-4.77582,73.5867,Q,Q
2023-03-14 16:32:35:937,0,-14.387,-4.74899,73.4834,Q,Q
2023-03-14 16:32:35:947,0,-14.2642,-4.7382,73.3991,Q,Q
2023-03-14 16:32:35:957,0,-14.1457,-4.73861,73.3276,Q,Q
2023-03-14 16:32:35:967,0,-14.0363,-4.76165,73.2738,Q,Q
2023-03-14 16:32:35:977,0,-13.9581,-4.79466,73.234,Q,Q
2023-03-14 16:32:35:987,0,-13.906,-4.84128,73.2111,Q,Q
2023-03-14 16:32:35:997,0,-13.8737,-4.8926,73.1946,Q,Q
2023-03-14 16:32:36:7,0,-13.8562,-4.94669,73.1896,Q,Q
2023-03-14 16:32:36:17,0,-13.8601,-5.00315,73.1913,Q,Q
2023-03-14 16:32:36:27,0,-13.877,-5.06387,73.1961,Q,Q
2023-03-14 16:32:36:37,0,-13.9071,-5.12106,73.2023,Q,Q
2023-03-14 16:32:36:47,0,-13.9428,-5.17973,73.2097,Q,Q
2023-03-14 16:32:36:57,0,-13.9865,-5.2323,73.2206,Q,Q
2023-03-14 16:32:36:67,0,-14.0381,-5.27703,73.2278,Q,Q
2023-03-14 16:32:36:77,0,-14.0979,-5.30927,73.2319,Q,Q
2023-03-14 16:32:36:87,0,-14.1571,-5.3256,73.2294,Q,Q
2023-03-14 16:32:36:97,0,-14.2167,-5.33091,73.2252,Q,Q
2023-03-14 16:32:36:107,0,-14.2732,-5.33004,73.2203,Q,Q
2023-03-14 16:32:36:117,0,-14.3232,-5.31795,73.2145,Q,Q
2023-03-14 16:32:36:127,0,-14.3674,-5.30494,73.2094,Q,Q
2023-03-14 16:32:36:137,0,-14.3998,-5.29459,73.2054,Q,Q
2023-03-14 16:32:36:147,0,-14.421,-5.28692,73.2013,Q,Q
2023-03-14 16:32:36:157,0,-14.4279,-5.28361,73.2059,Q,Q
2023-03-14 16:32:36:167,0,-14.4183,-5.28351,73.2154,Q,Q
2023-03-14 16:32:36:177,0,-14.4006,-5.28454,73.2264,Q,Q
2023-03-14 16:32:36:187,0,-14.3876,-5.28787,73.2378,Q,Q
2023-03-14 16:32:36:197,0,-14.3865,-5.29179,73.2489,Q,Q
2023-03-14 16:32:36:207,0,-14.3914,-5.29064,73.2502,Q,Q
2023-03-14 16:32:36:217,0,-14.3995,-5.28591,73.2482,Q,Q
2023-03-14 16:32:36:227,0,-14.4008,-5.27573,73.2431,Q,Q
2023-03-14 16:32:36:237,0,-14.3917,-5.27074,73.2395,Q,Q
2023-03-14 16:32:36:247,0,-14.3687,-5.26921,73.2429,Q,Q
2023-03-14 16:32:36:257,0,-14.338,-5.27867,73.2606,Q,Q
2023-03-14 16:32:36:267,0,-14.3085,-5.29063,73.2924,Q,Q
2023-03-14 16:32:36:277,0,-14.287,-5.30622,73.3277,Q,Q
2023-03-14 16:32:36:287,0,-14.2807,-5.32444,73.3669,Q,Q
2023-03-14 16:32:36:297,0,-14.2856,-5.3326,73.4035,Q,Q
2023-03-14 16:32:36:307,0,-14.2982,-5.33996,73.4275,Q,Q
2023-03-14 16:32:36:317,0,-14.3165,-5.34062,73.4419,Q,Q
2023-03-14 16:32:36:327,0,-14.3335,-5.33366,73.4432,Q,Q
2023-03-14 16:32:36:337,0,-14.3409,-5.32269,73.4402,Q,Q
2023-03-14 16:32:36:347,0,-14.3399,-5.31456,73.434,Q,Q
2023-03-14 16:32:36:357,0,-14.3352,-5.30739,73.4243,Q,Q
2023-03-14 16:32:36:367,0,-14.3271,-5.30167,73.4196,Q,Q
2023-03-14 16:32:36:377,0,-14.3216,-5.29646,73.4228,Q,Q
2023-03-14 16:32:36:387,0,-14.319,-5.29636,73.4363,Q,Q
2023-03-14 16:32:36:397,0,-14.3287,-5.29684,73.4515,Q,Q
2023-03-14 16:32:36:407,0,-14.3535,-5.29261,73.463,Q,Q
2023-03-14 16:32:36:417,0,-14.3791,-5.28526,73.4721,Q,Q
2023-03-14 16:32:36:427,0,-14.3942,-5.27848,73.4659,Q,Q
2023-03-14 16:32:36:437,0,-14.4075,-5.27293,73.4532,Q,Q
2023-03-14 16:32:36:447,0,-14.4167,-5.25957,73.4399,Q,Q
2023-03-14 16:32:36:457,0,-14.4131,-5.25244,73.4268,Q,Q
2023-03-14 16:32:36:467,0,-14.3993,-5.25853,73.4247,Q,Q
2023-03-14 16:32:36:477,0,-14.3803,-5.2712,73.4366,Q,Q
2023-03-14 16:32:36:487,0,-14.358,-5.2841,73.4665,Q,Q
2023-03-14 16:32:36:497,0,-14.3501,-5.30975,73.5044,Q,Q
2023-03-14 16:32:36:507,0,-14.3542,-5.33406,73.5511,Q,Q
2023-03-14 16:32:36:517,0,-14.3773,-5.36544,73.6002,Q,Q
2023-03-14 16:32:36:527,0,-14.4177,-5.3931,73.6488,Q,Q
2023-03-14 16:32:36:537,0,-14.4674,-5.41744,73.6879,Q,Q
2023-03-14 16:32:36:547,0,-14.5151,-5.44147,73.719,Q,Q
2023-03-14 16:32:36:558,0,-14.5624,-5.45736,73.74,Q,Q
2023-03-14 16:32:36:568,0,-14.6006,-5.46923,73.7565,Q,Q
2023-03-14 16:32:36:578,0,-14.6345,-5.4731,73.7669,Q,Q
2023-03-14 16:32:36:587,0,-14.6605,-5.46375,73.7779,Q,Q
2023-03-14 16:32:36:598,0,-14.6813,-5.45694,73.7825,Q,Q
2023-03-14 16:32:36:608,0,-14.6995,-5.44927,73.7828,Q,Q
2023-03-14 16:32:36:618,0,-14.7172,-5.43815,73.7788,Q,Q
2023-03-14 16:32:36:628,0,-14.731,-5.41824,73.7697,Q,Q
2023-03-14 16:32:36:638,0,-14.7408,-5.39183,73.7556,Q,Q
2023-03-14 16:32:36:648,0,-14.7465,-5.3691,73.7414,Q,Q
2023-03-14 16:32:36:658,0,-14.7533,-5.34433,73.7228,Q,Q
2023-03-14 16:32:36:668,0,-14.7533,-5.31926,73.7009,Q,Q
2023-03-14 16:32:36:678,0,-14.7467,-5.29729,73.6842,Q,Q
2023-03-14 16:32:36:688,0,-14.7337,-5.27954,73.6666,Q,Q
2023-03-14 16:32:36:698,0,-14.7201,-5.26681,73.6505,Q,Q
2023-03-14 16:32:36:708,0,-14.7029,-5.25941,73.634,Q,Q
2023-03-14 16:32:36:718,0,-14.6896,-5.2475,73.6154,Q,Q
2023-03-14 16:32:36:728,0,-14.6732,-5.23887,73.598,Q,Q
2023-03-14 16:32:36:738,0,-14.6563,-5.23908,73.5829,Q,Q
2023-03-14 16:32:36:748,0,-14.6409,-5.2381,73.5691,Q,Q
2023-03-14 16:32:36:758,0,-14.6283,-5.2399,73.557,Q,Q
2023-03-14 16:32:36:768,0,-14.6246,-5.2405,73.5417,Q,Q
2023-03-14 16:32:36:778,0,-14.6285,-5.24219,73.5292,Q,Q
2023-03-14 16:32:36:788,0,-14.631,-5.23978,73.5202,Q,Q
2023-03-14 16:32:36:798,0,-14.6314,-5.23871,73.5133,Q,Q
2023-03-14 16:32:36:808,0,-14.6336,-5.24,73.5111,Q,Q
2023-03-14 16:32:36:817,0,-14.6382,-5.24693,73.5229,Q,Q
2023-03-14 16:32:36:828,0,-14.6424,-5.25209,73.5392,Q,Q
2023-03-14 16:32:36:838,0,-14.6556,-5.25876,73.5618,Q,Q
2023-03-14 16:32:36:848,0,-14.6736,-5.2605,73.5952,Q,Q
2023-03-14 16:32:36:858,0,-14.6932,-5.25974,73.6332,Q,Q
2023-03-14 16:32:36:868,0,-14.7225,-5.25759,73.6862,Q,Q
2023-03-14 16:32:36:878,0,-14.7594,-5.25596,73.7475,Q,Q
2023-03-14 16:32:36:888,0,-14.7894,-5.25192,73.8247,Q,Q
2023-03-14 16:32:36:898,0,-14.8143,-5.24438,73.9156,Q,Q
2023-03-14 16:32:36:908,0,-14.8362,-5.23353,74.0101,Q,Q
2023-03-14 16:32:36:917,0,-14.8507,-5.22065,74.1081,Q,Q
2023-03-14 16:32:36:927,0,-14.8608,-5.20665,74.2045,Q,Q
2023-03-14 16:32:36:938,0,-14.8615,-5.18914,74.2936,Q,Q
2023-03-14 16:32:36:947,0,-14.8595,-5.16809,74.37,Q,Q
2023-03-14 16:32:36:957,0,-14.8562,-5.14307,74.4336,Q,Q
2023-03-14 16:32:36:967,0,-14.8393,-5.1127,74.4853,Q,Q
2023-03-14 16:32:36:978,0,-14.8119,-5.08307,74.5254,Q,Q
2023-03-14 16:32:36:988,0,-14.7775,-5.04885,74.552,Q,Q
2023-03-14 16:32:36:998,0,-14.7319,-5.01221,74.5646,Q,Q
2023-03-14 16:32:37:7,0,-14.6793,-4.97346,74.5665,Q,Q
2023-03-14 16:32:37:17,0,-14.6271,-4.93223,74.5483,Q,Q
2023-03-14 16:32:37:28,0,-14.5711,-4.89309,74.5175,Q,Q
2023-03-14 16:32:37:38,0,-14.5087,-4.85107,74.4749,Q,Q
2023-03-14 16:32:37:48,0,-14.4443,-4.80374,74.4194,Q,Q
2023-03-14 16:32:37:58,0,-14.3906,-4.75327,74.3546,Q,Q
2023-03-14 16:32:37:67,0,-14.3424,-4.69998,74.2819,Q,Q
2023-03-14 16:32:37:78,0,-14.308,-4.64798,74.2075,Q,Q
2023-03-14 16:32:37:87,0,-14.2821,-4.6032,74.1259,Q,Q
2023-03-14 16:32:37:98,0,-14.2634,-4.56413,74.0413,Q,Q
2023-03-14 16:32:37:108,0,-14.2496,-4.52712,73.9575,Q,Q
2023-03-14 16:32:37:118,0,-14.2404,-4.4903,73.8732,Q,Q
2023-03-14 16:32:37:128,0,-14.2345,-4.46796,73.7876,Q,Q
2023-03-14 16:32:37:137,0,-14.2226,-4.45283,73.6993,Q,Q
2023-03-14 16:32:37:148,0,-14.2135,-4.44259,73.6104,Q,Q
2023-03-14 16:32:37:158,0,-14.2074,-4.43557,73.5269,Q,Q
2023-03-14 16:32:37:168,0,-14.211,-4.4328,73.4482,Q,Q
2023-03-14 16:32:37:178,0,-14.2159,-4.43754,73.3762,Q,Q
2023-03-14 16:32:37:188,0,-14.2196,-4.45126,73.3118,Q,Q
2023-03-14 16:32:37:198,0,-14.2205,-4.47104,73.2594,Q,Q
2023-03-14 16:32:37:208,0,-14.2193,-4.49671,73.2223,Q,Q
2023-03-14 16:32:37:218,0,-14.2162,-4.52653,73.1926,Q,Q
2023-03-14 16:32:37:228,0,-14.2137,-4.559,73.172,Q,Q
2023-03-14 16:32:37:238,0,-14.2094,-4.59573,73.1603,Q,Q
2023-03-14 16:32:37:248,0,-14.2053,-4.63689,73.1514,Q,Q
2023-03-14 16:32:37:258,0,-14.2031,-4.68071,73.1522,Q,Q
2023-03-14 16:32:37:268,0,-14.2069,-4.72258,73.1565,Q,Q
2023-03-14 16:32:37:278,0,-14.2123,-4.76707,73.157,Q,Q
2023-03-14 16:32:37:287,0,-14.2169,-4.80558,73.162,Q,Q
2023-03-14 16:32:37:298,0,-14.2228,-4.84476,73.1564,Q,Q
2023-03-14 16:32:37:308,0,-14.2304,-4.88701,73.1448,Q,Q
2023-03-14 16:32:37:317,0,-14.2353,-4.9279,73.124,Q,Q
2023-03-14 16:32:37:328,0,-14.2434,-4.9671,73.0958,Q,Q
2023-03-14 16:32:37:338,0,-14.2535,-5.00276,73.0658,Q,Q
2023-03-14 16:32:37:348,0,-14.2682,-5.03571,73.025,Q,Q
2023-03-14 16:32:37:358,0,-14.2872,-5.0661,72.9839,Q,Q
2023-03-14 16:32:37:368,0,-14.3105,-5.09856,72.945,Q,Q
2023-03-14 16:32:37:378,0,-14.3396,-5.13135,72.9135,Q,Q
2023-03-14 16:32:37:388,0,-14.3719,-5.1607,72.8883,Q,Q
2023-03-14 16:32:37:398,0,-14.4006,-5.1916,72.8728,Q,Q
2023-03-14 16:32:37:408,0,-14.4271,-5.22618,72.8653,Q,Q
2023-03-14 16:32:37:418,0,-14.4508,-5.25874,72.865,Q,Q
2023-03-14 16:32:37:428,0,-14.4594,-5.29212,72.8633,Q,Q
2023-03-14 16:32:37:437,0,-14.4591,-5.3223,72.8581,Q,Q
2023-03-14 16:32:37:448,0,-14.4528,-5.35192,72.8437,Q,Q
2023-03-14 16:32:37:457,0,-14.4389,-5.38318,72.8231,Q,Q
2023-03-14 16:32:37:468,0,-14.4215,-5.41369,72.7951,Q,Q
2023-03-14 16:32:37:478,0,-14.4001,-5.44456,72.7678,Q,Q
2023-03-14 16:32:37:488,0,-14.381,-5.47113,72.741,Q,Q
2023-03-14 16:32:37:498,0,-14.3581,-5.49889,72.7151,Q,Q
2023-03-14 16:32:37:508,0,-14.3373,-5.52242,72.6913,Q,Q
2023-03-14 16:32:37:518,0,-14.3033,-5.54072,72.6683,Q,Q
2023-03-14 16:32:37:528,0,-14.2673,-5.55709,72.6456,Q,Q
2023-03-14 16:32:37:538,0,-14.2364,-5.57154,72.6292,Q,Q
2023-03-14 16:32:37:548,0,-14.2135,-5.57618,72.6229,Q,Q
2023-03-14 16:32:37:557,0,-14.1989,-5.57241,72.6226,Q,Q
2023-03-14 16:32:37:568,0,-14.1983,-5.55704,72.6269,Q,Q
2023-03-14 16:32:37:577,0,-14.201,-5.53027,72.6368,Q,Q
2023-03-14 16:32:37:588,0,-14.2047,-5.49676,72.6512,Q,Q
2023-03-14 16:32:37:598,0,-14.2088,-5.45202,72.6697,Q,Q
2023-03-14 16:32:37:608,0,-14.2153,-5.40585,72.6923,Q,Q
2023-03-14 16:32:37:618,0,-14.2208,-5.35461,72.7113,Q,Q
2023-03-14 16:32:37:628,0,-14.2295,-5.30424,72.7314,Q,Q
2023-03-14 16:32:37:637,0,-14.2379,-5.25727,72.7459,Q,Q
2023-03-14 16:32:37:648,0,-14.2488,-5.21572,72.7543,Q,Q
2023-03-14 16:32:37:657,0,-14.2559,-5.17825,72.7577,Q,Q
2023-03-14 16:32:37:668,0,-14.2664,-5.14368,72.759,Q,Q
2023-03-14 16:32:37:677,0,-14.2759,-5.11846,72.7522,Q,Q
2023-03-14 16:32:37:687,0,-14.2835,-5.10423,72.7466,Q,Q
2023-03-14 16:32:37:697,0,-14.2946,-5.10093,72.7359,Q,Q
2023-03-14 16:32:37:708,0,-14.3055,-5.10602,72.7258,Q,Q
2023-03-14 16:32:37:717,0,-14.3165,-5.11699,72.7196,Q,Q
2023-03-14 16:32:37:728,0,-14.326,-5.12905,72.7164,Q,Q
2023-03-14 16:32:37:737,0,-14.3333,-5.14566,72.7115,Q,Q
2023-03-14 16:32:37:748,0,-14.3455,-5.16358,72.7136,Q,Q
2023-03-14 16:32:37:757,0,-14.3608,-5.18129,72.7201,Q,Q
2023-03-14 16:32:37:768,0,-14.37,-5.19676,72.7331,Q,Q
2023-03-14 16:32:37:778,0,-14.3788,-5.20936,72.7437,Q,Q
2023-03-14 16:32:37:788,0,-14.3834,-5.21762,72.7601,Q,Q
2023-03-14 16:32:37:797,0,-14.384,-5.22555,72.7731,Q,Q
2023-03-14 16:32:37:808,0,-14.378,-5.22757,72.7832,Q,Q
2023-03-14 16:32:37:817,0,-14.3712,-5.22969,72.7854,Q,Q
2023-03-14 16:32:37:828,0,-14.3645,-5.22934,72.7865,Q,Q
2023-03-14 16:32:37:838,0,-14.3602,-5.22746,72.7819,Q,Q
2023-03-14 16:32:37:848,0,-14.3547,-5.22407,72.7718,Q,Q
2023-03-14 16:32:37:858,0,-14.3488,-5.22201,72.7604,Q,Q
2023-03-14 16:32:37:868,0,-14.3425,-5.22004,72.7485,Q,Q
2023-03-14 16:32:37:878,0,-14.3334,-5.21959,72.7381,Q,Q
2023-03-14 16:32:37:888,0,-14.3236,-5.22167,72.7323,Q,Q
2023-03-14 16:32:37:898,0,-14.3035,-5.22778,72.7274,Q,Q
2023-03-14 16:32:37:908,0,-14.2844,-5.23494,72.7281,Q,Q
2023-03-14 16:32:37:918,0,-14.2702,-5.24662,72.7264,Q,Q
2023-03-14 16:32:37:928,0,-14.2591,-5.25746,72.7278,Q,Q
2023-03-14 16:32:37:937,0,-14.2536,-5.27354,72.732,Q,Q
2023-03-14 16:32:37:948,0,-14.2598,-5.28963,72.7421,Q,Q
2023-03-14 16:32:37:958,0,-14.2669,-5.30584,72.7596,Q,Q
2023-03-14 16:32:37:967,0,-14.2748,-5.3222,72.7784,Q,Q
2023-03-14 16:32:37:977,0,-14.2833,-5.33976,72.8062,Q,Q
2023-03-14 16:32:37:988,0,-14.2915,-5.36058,72.8406,Q,Q
2023-03-14 16:32:37:998,0,-14.3018,-5.37896,72.879,Q,Q
2023-03-14 16:32:38:8,0,-14.3091,-5.39747,72.9199,Q,Q
2023-03-14 16:32:38:18,0,-14.3204,-5.41141,72.9631,Q,Q
2023-03-14 16:32:38:28,0,-14.3338,-5.4288,73.0091,Q,Q
2023-03-14 16:32:38:37,0,-14.3517,-5.44165,73.0564,Q,Q
2023-03-14 16:32:38:47,0,-14.3738,-5.455,73.1081,Q,Q
2023-03-14 16:32:38:58,0,-14.3904,-5.46618,73.1563,Q,Q
2023-03-14 16:32:38:68,0,-14.4042,-5.4751,73.2074,Q,Q
2023-03-14 16:32:38:78,0,-14.4112,-5.47827,73.2534,Q,Q
2023-03-14 16:32:38:88,0,-14.4138,-5.48619,73.2991,Q,Q
2023-03-14 16:32:38:98,0,-14.4162,-5.48971,73.3415,Q,Q
2023-03-14 16:32:38:108,0,-14.4163,-5.48625,73.3819,Q,Q
2023-03-14 16:32:38:118,0,-14.4108,-5.48394,73.4137,Q,Q
2023-03-14 16:32:38:128,0,-14.4026,-5.48094,73.4442,Q,Q
2023-03-14 16:32:38:138,0,-14.3952,-5.47582,73.4765,Q,Q
2023-03-14 16:32:38:147,0,-14.3925,-5.46587,73.5032,Q,Q
2023-03-14 16:32:38:157,0,-14.3907,-5.45411,73.5263,Q,Q
2023-03-14 16:32:38:168,0,-14.3874,-5.44455,73.548,Q,Q
2023-03-14 16:32:38:178,0,-14.3749,-5.43652,73.5675,Q,Q
2023-03-14 16:32:38:188,0,-14.3655,-5.43344,73.5904,Q,Q
2023-03-14 16:32:38:198,0,-14.3617,-5.42712,73.6095,Q,Q
2023-03-14 16:32:38:208,0,-14.3637,-5.42281,73.6301,Q,Q
2023-03-14 16:32:38:218,0,-14.3667,-5.41721,73.6485,Q,Q
2023-03-14 16:32:38:228,0,-14.3753,-5.41535,73.6636,Q,Q
2023-03-14 16:32:38:238,0,-14.3862,-5.41119,73.677,Q,Q
2023-03-14 16:32:38:248,0,-14.3988,-5.40593,73.6946,Q,Q
2023-03-14 16:32:38:258,0,-14.4094,-5.39817,73.7079,Q,Q
2023-03-14 16:32:38:268,0,-14.4141,-5.38985,73.7189,Q,Q
2023-03-14 16:32:38:278,0,-14.4205,-5.38238,73.7309,Q,Q
2023-03-14 16:32:38:287,0,-14.4258,-5.37273,73.7414,Q,Q
2023-03-14 16:32:38:298,0,-14.4275,-5.3606,73.7506,Q,Q
2023-03-14 16:32:38:308,0,-14.4367,-5.34967,73.7563,Q,Q
2023-03-14 16:32:38:317,0,-14.4505,-5.33922,73.7658,Q,Q
2023-03-14 16:32:38:328,0,-14.4621,-5.32451,73.7698,Q,Q
2023-03-14 16:32:38:338,0,-14.4721,-5.31086,73.7686,Q,Q
2023-03-14 16:32:38:348,0,-14.4832,-5.29577,73.766,Q,Q
2023-03-14 16:32:38:358,0,-14.497,-5.28314,73.7704,Q,Q
2023-03-14 16:32:38:368,0,-14.5148,-5.27442,73.7714,Q,Q
2023-03-14 16:32:38:378,0,-14.5297,-5.26821,73.7769,Q,Q
2023-03-14 16:32:38:388,0,-14.544,-5.2604,73.7766,Q,Q
2023-03-14 16:32:38:398,0,-14.5559,-5.25348,73.7803,Q,Q
2023-03-14 16:32:38:408,0,-14.566,-5.23904,73.7839,Q,Q
2023-03-14 16:32:38:418,0,-14.5731,-5.23066,73.7839,Q,Q
2023-03-14 16:32:38:428,0,-14.5743,-5.22312,73.7895,Q,Q
2023-03-14 16:32:38:437,0,-14.5773,-5.21688,73.7974,Q,Q
2023-03-14 16:32:38:447,0,-14.5765,-5.20837,73.8038,Q,Q
2023-03-14 16:32:38:458,0,-14.5774,-5.20516,73.8086,Q,Q
2023-03-14 16:32:38:468,0,-14.5764,-5.19849,73.8146,Q,Q
2023-03-14 16:32:38:477,0,-14.5741,-5.19267,73.817,Q,Q
2023-03-14 16:32:38:487,0,-14.5742,-5.18326,73.818,Q,Q
2023-03-14 16:32:38:497,0,-14.5762,-5.179,73.8201,Q,Q
2023-03-14 16:32:38:507,0,-14.58,-5.17845,73.8213,Q,Q
2023-03-14 16:32:38:518,0,-14.5785,-5.17289,73.8231,Q,Q
2023-03-14 16:32:38:527,0,-14.5735,-5.1737,73.8238,Q,Q
2023-03-14 16:32:38:537,0,-14.5723,-5.1709,73.8228,Q,Q
2023-03-14 16:32:38:547,0,-14.5688,-5.16795,73.8238,Q,Q
2023-03-14 16:32:38:557,0,-14.563,-5.16792,73.8264,Q,Q
2023-03-14 16:32:38:568,0,-14.5558,-5.16512,73.8286,Q,Q
2023-03-14 16:32:38:577,0,-14.5518,-5.16808,73.8368,Q,Q
2023-03-14 16:32:38:587,0,-14.5529,-5.16758,73.8421,Q,Q
2023-03-14 16:32:38:597,0,-14.5533,-5.16541,73.8491,Q,Q
2023-03-14 16:32:38:608,0,-14.5586,-5.16649,73.8549,Q,Q
2023-03-14 16:32:38:618,0,-14.5603,-5.16837,73.8616,Q,Q
2023-03-14 16:32:38:628,0,-14.5616,-5.16977,73.8649,Q,Q
2023-03-14 16:32:38:638,0,-14.5622,-5.16801,73.8658,Q,Q
2023-03-14 16:32:38:648,0,-14.5612,-5.1688,73.8688,Q,Q
2023-03-14 16:32:38:658,0,-14.5632,-5.16422,73.865,Q,Q
2023-03-14 16:32:38:668,0,-14.5647,-5.16048,73.858,Q,Q
2023-03-14 16:32:38:677,0,-14.5717,-5.15807,73.8474,Q,Q
2023-03-14 16:32:38:688,0,-14.5731,-5.15558,73.8364,Q,Q
2023-03-14 16:32:38:698,0,-14.5698,-5.15251,73.822,Q,Q
2023-03-14 16:32:38:708,0,-14.5688,-5.14778,73.8086,Q,Q
2023-03-14 16:32:38:718,0,-14.5662,-5.14624,73.8003,Q,Q
2023-03-14 16:32:38:728,0,-14.5656,-5.13996,73.788,Q,Q
2023-03-14 16:32:38:738,0,-14.5663,-5.1356,73.7807,Q,Q
2023-03-14 16:32:38:748,0,-14.564,-5.13123,73.7773,Q,Q
2023-03-14 16:32:38:757,0,-14.564,-5.12694,73.7736,Q,Q
2023-03-14 16:32:38:767,0,-14.5664,-5.12346,73.7714,Q,Q
2023-03-14 16:32:38:777,0,-14.5677,-5.12113,73.77,Q,Q
2023-03-14 16:32:38:787,0,-14.5668,-5.11756,73.773,Q,Q
2023-03-14 16:32:38:797,0,-14.5668,-5.11476,73.7782,Q,Q
2023-03-14 16:32:38:807,0,-14.5691,-5.11678,73.7812,Q,Q
2023-03-14 16:32:38:818,0,-14.5741,-5.12135,73.7891,Q,Q
2023-03-14 16:32:38:828,0,-14.5802,-5.12656,73.7975,Q,Q
2023-03-14 16:32:38:838,0,-14.5838,-5.1345,73.8068,Q,Q
2023-03-14 16:32:38:848,0,-14.5885,-5.13984,73.8157,Q,Q
2023-03-14 16:32:38:858,0,-14.5903,-5.14765,73.823,Q,Q
2023-03-14 16:32:38:868,0,-14.5973,-5.15387,73.8322,Q,Q
2023-03-14 16:32:38:878,0,-14.606,-5.15984,73.8404,Q,Q
2023-03-14 16:32:38:887,0,-14.6102,-5.16584,73.8439,Q,Q
2023-03-14 16:32:38:897,0,-14.613,-5.17348,73.8483,Q,Q
2023-03-14 16:32:38:908,0,-14.621,-5.1786,73.8514,Q,Q
2023-03-14 16:32:38:917,0,-14.6301,-5.18191,73.856,Q,Q
2023-03-14 16:32:38:927,0,-14.6366,-5.18536,73.8585,Q,Q
2023-03-14 16:32:38:937,0,-14.6477,-5.18611,73.8605,Q,Q
2023-03-14 16:32:38:948,0,-14.6563,-5.18721,73.8647,Q,Q
2023-03-14 16:32:38:957,0,-14.668,-5.18627,73.8676,Q,Q
2023-03-14 16:32:38:967,0,-14.6773,-5.18273,73.8692,Q,Q
2023-03-14 16:32:38:977,0,-14.6813,-5.18117,73.8721,Q,Q
2023-03-14 16:32:38:987,0,-14.6828,-5.18225,73.8761,Q,Q
2023-03-14 16:32:38:997,0,-14.6876,-5.185,73.8798,Q,Q
2023-03-14 16:32:39:8,0,-14.6932,-5.19225,73.8832,Q,Q
2023-03-14 16:32:39:17,0,-14.6963,-5.19433,73.8845,Q,Q
2023-03-14 16:32:39:27,0,-14.6975,-5.19677,73.8856,Q,Q
2023-03-14 16:32:39:38,0,-14.6979,-5.19838,73.8859,Q,Q
2023-03-14 16:32:39:47,0,-14.6957,-5.19951,73.8829,Q,Q
2023-03-14 16:32:39:58,0,-14.6895,-5.19694,73.88,Q,Q
2023-03-14 16:32:39:67,0,-14.6807,-5.19601,73.8771,Q,Q
2023-03-14 16:32:39:77,0,-14.674,-5.19071,73.8711,Q,Q
2023-03-14 16:32:39:88,0,-14.6646,-5.1848,73.8659,Q,Q
2023-03-14 16:32:39:97,0,-14.6597,-5.17743,73.8574,Q,Q
2023-03-14 16:32:39:107,0,-14.6609,-5.16974,73.8503,Q,Q
2023-03-14 16:32:39:118,0,-14.6637,-5.16059,73.8396,Q,Q
2023-03-14 16:32:39:128,0,-14.6712,-5.15199,73.8311,Q,Q
2023-03-14 16:32:39:138,0,-14.6747,-5.13998,73.8204,Q,Q
2023-03-14 16:32:39:147,0,-14.6784,-5.13292,73.8111,Q,Q
2023-03-14 16:32:39:157,0,-14.6842,-5.12682,73.7975,Q,Q
2023-03-14 16:32:39:167,0,-14.6922,-5.11823,73.7849,Q,Q
2023-03-14 16:32:39:177,0,-14.6939,-5.1129,73.7754,Q,Q
2023-03-14 16:32:39:188,0,-14.6971,-5.1118,73.7694,Q,Q
2023-03-14 16:32:39:198,0,-14.6933,-5.10457,73.7646,Q,Q
2023-03-14 16:32:39:208,0,-14.688,-5.09836,73.7574,Q,Q
2023-03-14 16:32:39:218,0,-14.6854,-5.09204,73.7475,Q,Q
2023-03-14 16:32:39:228,0,-14.6753,-5.08785,73.7349,Q,Q
2023-03-14 16:32:39:237,0,-14.6637,-5.08708,73.7282,Q,Q
2023-03-14 16:32:39:248,0,-14.6507,-5.09295,73.7202,Q,Q
2023-03-14 16:32:39:258,0,-14.6366,-5.09868,73.717,Q,Q
2023-03-14 16:32:39:268,0,-14.6241,-5.10306,73.7062,Q,Q
2023-03-14 16:32:39:277,0,-14.6139,-5.10751,73.6964,Q,Q
2023-03-14 16:32:39:288,0,-14.6014,-5.11145,73.6901,Q,Q
2023-03-14 16:32:39:298,0,-14.5935,-5.11803,73.6804,Q,Q
2023-03-14 16:32:39:308,0,-14.5849,-5.12354,73.6723,Q,Q
2023-03-14 16:32:39:318,0,-14.5713,-5.12679,73.6651,Q,Q
2023-03-14 16:32:39:328,0,-14.5598,-5.13111,73.6612,Q,Q
2023-03-14 16:32:39:338,0,-14.5506,-5.13293,73.6598,Q,Q
2023-03-14 16:32:39:348,0,-14.5449,-5.13596,73.6613,Q,Q
2023-03-14 16:32:39:358,0,-14.5377,-5.1381,73.6599,Q,Q
2023-03-14 16:32:39:368,0,-14.5319,-5.14169,73.6618,Q,Q
2023-03-14 16:32:39:378,0,-14.5262,-5.14052,73.6616,Q,Q
2023-03-14 16:32:39:388,0,-14.5217,-5.14105,73.6616,Q,Q
2023-03-14 16:32:39:398,0,-14.5197,-5.14107,73.6642,Q,Q
2023-03-14 16:32:39:408,0,-14.5198,-5.143,73.6672,Q,Q
2023-03-14 16:32:39:418,0,-14.5247,-5.14459,73.6729,Q,Q
2023-03-14 16:32:39:428,0,-14.5277,-5.14436,73.6757,Q,Q
2023-03-14 16:32:39:438,0,-14.5318,-5.14346,73.6787,Q,Q
2023-03-14 16:32:39:448,0,-14.535,-5.14377,73.6809,Q,Q
2023-03-14 16:32:39:457,0,-14.544,-5.14369,73.6827,Q,Q
2023-03-14 16:32:39:468,0,-14.5508,-5.14178,73.6842,Q,Q
2023-03-14 16:32:39:478,0,-14.5599,-5.14186,73.689,Q,Q
2023-03-14 16:32:39:488,0,-14.5656,-5.1391,73.6928,Q,Q
2023-03-14 16:32:39:497,0,-14.5723,-5.14166,73.6973,Q,Q
2023-03-14 16:32:39:507,0,-14.577,-5.14264,73.6961,Q,Q
2023-03-14 16:32:39:517,0,-14.5747,-5.14312,73.6952,Q,Q
2023-03-14 16:32:39:527,0,-14.5728,-5.142,73.6942,Q,Q
2023-03-14 16:32:39:538,0,-14.57,-5.13819,73.6931,Q,Q
2023-03-14 16:32:39:548,0,-14.5711,-5.13721,73.687,Q,Q
2023-03-14 16:32:39:558,0,-14.5758,-5.13738,73.6841,Q,Q
2023-03-14 16:32:39:568,0,-14.5771,-5.13528,73.6755,Q,Q
2023-03-14 16:32:39:578,0,-14.5788,-5.13422,73.6696,Q,Q
2023-03-14 16:32:39:588,0,-14.5758,-5.13398,73.6615,Q,Q
2023-03-14 16:32:39:598,0,-14.5698,-5.13665,73.6524,Q,Q
2023-03-14 16:32:39:608,0,-14.5646,-5.13782,73.6436,Q,Q
2023-03-14 16:32:39:618,0,-14.5543,-5.13876,73.6352,Q,Q
2023-03-14 16:32:39:628,0,-14.5452,-5.1407,73.6289,Q,Q
2023-03-14 16:32:39:637,0,-14.5391,-5.13926,73.6188,Q,Q
2023-03-14 16:32:39:648,0,-14.5361,-5.13596,73.6111,Q,Q
2023-03-14 16:32:39:658,0,-14.5337,-5.13261,73.6033,Q,Q
2023-03-14 16:32:39:668,0,-14.5255,-5.13264,73.5957,Q,Q
2023-03-14 16:32:39:677,0,-14.5159,-5.12861,73.5853,Q,Q
2023-03-14 16:32:39:688,0,-14.508,-5.12615,73.5741,Q,Q
2023-03-14 16:32:39:698,0,-14.5009,-5.12574,73.563,Q,Q
2023-03-14 16:32:39:708,0,-14.4918,-5.12217,73.5511,Q,Q
2023-03-14 16:32:39:718,0,-14.4847,-5.12021,73.5418,Q,Q
2023-03-14 16:32:39:728,0,-14.4822,-5.11426,73.5348,Q,Q
2023-03-14 16:32:39:737,0,-14.4816,-5.10852,73.5329,Q,Q
2023-03-14 16:32:39:748,0,-14.4866,-5.10407,73.5305,Q,Q
2023-03-14 16:32:39:758,0,-14.4893,-5.09878,73.5284,Q,Q
2023-03-14 16:32:39:768,0,-14.4902,-5.09635,73.5271,Q,Q
2023-03-14 16:32:39:777,0,-14.4876,-5.09893,73.5264,Q,Q
2023-03-14 16:32:39:787,0,-14.4887,-5.10358,73.5325,Q,Q
2023-03-14 16:32:39:798,0,-14.4925,-5.10865,73.5465,Q,Q
2023-03-14 16:32:39:808,0,-14.4952,-5.11446,73.5609,Q,Q
2023-03-14 16:32:39:818,0,-14.4994,-5.11867,73.5731,Q,Q
2023-03-14 16:32:39:828,0,-14.5009,-5.12691,73.5836,Q,Q
2023-03-14 16:32:39:838,0,-14.5087,-5.13601,73.5896,Q,Q
2023-03-14 16:32:39:848,0,-14.5169,-5.1443,73.6,Q,Q
2023-03-14 16:32:39:858,0,-14.5169,-5.15553,73.6005,Q,Q
2023-03-14 16:32:39:868,0,-14.5189,-5.16558,73.6055,Q,Q
2023-03-14 16:32:39:878,0,-14.5158,-5.17815,73.6058,Q,Q
2023-03-14 16:32:39:888,0,-14.5133,-5.18579,73.6013,Q,Q
2023-03-14 16:32:39:898,0,-14.5141,-5.19102,73.5921,Q,Q
2023-03-14 16:32:39:908,0,-14.5188,-5.1929,73.5812,Q,Q
2023-03-14 16:32:39:918,0,-14.5199,-5.19667,73.568,Q,Q
2023-03-14 16:32:39:928,0,-14.5241,-5.20435,73.5534,Q,Q
2023-03-14 16:32:39:938,0,-14.526,-5.20588,73.539,Q,Q
2023-03-14 16:32:39:948,0,-14.5322,-5.20894,73.5259,Q,Q
2023-03-14 16:32:39:958,0,-14.5398,-5.21081,73.5145,Q,Q
2023-03-14 16:32:39:967,0,-14.5422,-5.21487,73.5031,Q,Q
2023-03-14 16:32:39:978,0,-14.5428,-5.21748,73.4929,Q,Q
2023-03-14 16:32:39:987,0,-14.5445,-5.21763,73.4844,Q,Q
2023-03-14 16:32:39:997,0,-14.5456,-5.21567,73.4766,Q,Q
2023-03-14 16:32:40:7,0,-14.5435,-5.20771,73.4646,Q,Q
2023-03-14 16:32:40:17,0,-14.5363,-5.20447,73.454,Q,Q
2023-03-14 16:32:40:27,0,-14.5312,-5.20526,73.4449,Q,Q
2023-03-14 16:32:40:37,0,-14.5228,-5.20491,73.4376,Q,Q
2023-03-14 16:32:40:47,0,-14.5164,-5.20338,73.4333,Q,Q
2023-03-14 16:32:40:57,0,-14.51,-5.20562,73.4311,Q,Q
2023-03-14 16:32:40:68,0,-14.5045,-5.2072,73.4277,Q,Q
2023-03-14 16:32:40:78,0,-14.5017,-5.20852,73.4241,Q,Q
2023-03-14 16:32:40:87,0,-14.4933,-5.20861,73.4179,Q,Q
2023-03-14 16:32:40:97,0,-14.486,-5.20779,73.4111,Q,Q
2023-03-14 16:32:40:107,0,-14.477,-5.21233,73.406,Q,Q
2023-03-14 16:32:40:117,0,-14.4691,-5.21515,73.4021,Q,Q
2023-03-14 16:32:40:127,0,-14.4597,-5.22062,73.4012,Q,Q
2023-03-14 16:32:40:138,0,-14.4466,-5.22612,73.3989,Q,Q
2023-03-14 16:32:40:147,0,-14.4361,-5.22765,73.3955,Q,Q
2023-03-14 16:32:40:157,0,-14.4235,-5.23591,73.3929,Q,Q
2023-03-14 16:32:40:168,0,-14.4153,-5.24336,73.3943,Q,Q
2023-03-14 16:32:40:178,0,-14.4047,-5.25249,73.3944,Q,Q
2023-03-14 16:32:40:188,0,-14.3907,-5.26122,73.3946,Q,Q
2023-03-14 16:32:40:198,0,-14.3764,-5.27241,73.4018,Q,Q
2023-03-14 16:32:40:208,0,-14.3677,-5.28462,73.4094,Q,Q
2023-03-14 16:32:40:218,0,-14.3594,-5.29593,73.4198,Q,Q
2023-03-14 16:32:40:227,0,-14.352,-5.30578,73.432,Q,Q
2023-03-14 16:32:40:237,0,-14.3452,-5.31864,73.4432,Q,Q
2023-03-14 16:32:40:248,0,-14.3398,-5.32842,73.4573,Q,Q
2023-03-14 16:32:40:258,0,-14.3376,-5.3358,73.4711,Q,Q
2023-03-14 16:32:40:268,0,-14.3344,-5.34707,73.4836,Q,Q
2023-03-14 16:32:40:277,0,-14.3291,-5.35563,73.4968,Q,Q
2023-03-14 16:32:40:288,0,-14.3248,-5.36394,73.5086,Q,Q
2023-03-14 16:32:40:297,0,-14.3188,-5.36669,73.5182,Q,Q
2023-03-14 16:32:40:307,0,-14.3136,-5.37258,73.5255,Q,Q
2023-03-14 16:32:40:317,0,-14.3118,-5.37802,73.5362,Q,Q
2023-03-14 16:32:40:328,0,-14.3116,-5.38293,73.5433,Q,Q
2023-03-14 16:32:40:338,0,-14.3097,-5.39237,73.5469,Q,Q
2023-03-14 16:32:40:347,0,-14.3091,-5.40031,73.5514,Q,Q
2023-03-14 16:32:40:358,0,-14.3096,-5.40821,73.5575,Q,Q
2023-03-14 16:32:40:368,0,-14.3117,-5.41555,73.5614,Q,Q
2023-03-14 16:32:40:378,0,-14.3098,-5.4246,73.5664,Q,Q
2023-03-14 16:32:40:387,0,-14.3112,-5.43369,73.5747,Q,Q
2023-03-14 16:32:40:398,0,-14.3127,-5.44291,73.5812,Q,Q
2023-03-14 16:32:40:407,0,-14.3129,-5.4505,73.5902,Q,Q
2023-03-14 16:32:40:418,0,-14.3142,-5.45909,73.5977,Q,Q
2023-03-14 16:32:40:428,0,-14.3141,-5.46668,73.6066,Q,Q
2023-03-14 16:32:40:437,0,-14.3146,-5.47491,73.6165,Q,Q
2023-03-14 16:32:40:448,0,-14.3154,-5.4832,73.626,Q,Q
2023-03-14 16:32:40:458,0,-14.3142,-5.49148,73.6374,Q,Q
2023-03-14 16:32:40:467,0,-14.3207,-5.49772,73.6473,Q,Q
2023-03-14 16:32:40:477,0,-14.3213,-5.50536,73.6588,Q,Q
2023-03-14 16:32:40:488,0,-14.3232,-5.5069,73.6683,Q,Q
2023-03-14 16:32:40:498,0,-14.325,-5.51145,73.6741,Q,Q
2023-03-14 16:32:40:507,0,-14.3246,-5.51654,73.677,Q,Q
2023-03-14 16:32:40:518,0,-14.3202,-5.51525,73.674,Q,Q
2023-03-14 16:32:40:527,0,-14.3124,-5.51755,73.6738,Q,Q
2023-03-14 16:32:40:537,0,-14.3041,-5.51833,73.6717,Q,Q
2023-03-14 16:32:40:547,0,-14.2995,-5.51791,73.6655,Q,Q
2023-03-14 16:32:40:557,0,-14.2952,-5.52521,73.661,Q,Q
2023-03-14 16:32:40:567,0,-14.2891,-5.53355,73.6601,Q,Q
2023-03-14 16:32:40:577,0,-14.2831,-5.54659,73.6646,Q,Q
2023-03-14 16:32:40:587,0,-14.2789,-5.56198,73.6745,Q,Q
2023-03-14 16:32:40:597,0,-14.2752,-5.57357,73.6881,Q,Q
2023-03-14 16:32:40:607,0,-14.2721,-5.58319,73.7036,Q,Q
2023-03-14 16:32:40:617,0,-14.2718,-5.59088,73.7244,Q,Q
2023-03-14 16:32:40:628,0,-14.277,-5.60051,73.7435,Q,Q
2023-03-14 16:32:40:637,0,-14.2863,-5.60516,73.7665,Q,Q
2023-03-14 16:32:40:648,0,-14.2946,-5.6114,73.7916,Q,Q
2023-03-14 16:32:40:658,0,-14.302,-5.61917,73.8119,Q,Q
2023-03-14 16:32:40:668,0,-14.3086,-5.62629,73.833,Q,Q
2023-03-14 16:32:40:678,0,-14.3121,-5.63224,73.8455,Q,Q
2023-03-14 16:32:40:687,0,-14.3159,-5.63687,73.85,Q,Q
2023-03-14 16:32:40:697,0,-14.3163,-5.63846,73.8518,Q,Q
2023-03-14 16:32:40:707,0,-14.3246,-5.63989,73.8472,Q,Q
2023-03-14 16:32:40:717,0,-14.3274,-5.64067,73.8377,Q,Q
2023-03-14 16:32:40:728,0,-14.3299,-5.65097,73.8197,Q,Q
2023-03-14 16:32:40:737,0,-14.3142,-5.67106,73.796,Q,Q
2023-03-14 16:32:40:748,0,-14.2774,-5.69402,73.7628,Q,Q
2023-03-14 16:32:40:758,0,-14.2395,-5.71657,73.7199,Q,Q
2023-03-14 16:32:40:768,0,-14.2081,-5.73845,73.6622,Q,Q
2023-03-14 16:32:40:778,0,-14.1883,-5.75101,73.5999,Q,Q
2023-03-14 16:32:40:788,0,-14.1784,-5.75857,73.5313,Q,Q
2023-03-14 16:32:40:798,0,-14.1752,-5.77314,73.4655,Q,Q
2023-03-14 16:32:40:807,0,-14.1774,-5.79092,73.3875,Q,Q
2023-03-14 16:32:40:818,0,-14.1712,-5.81579,73.2972,Q,Q
2023-03-14 16:32:40:827,0,-14.1529,-5.8495,73.2026,Q,Q
2023-03-14 16:32:40:837,0,-14.1362,-5.88739,73.1061,Q,Q
2023-03-14 16:32:40:848,0,-14.1253,-5.93331,73.0063,Q,Q
2023-03-14 16:32:40:858,0,-14.1135,-5.97767,72.9038,Q,Q
2023-03-14 16:32:40:868,0,-14.1066,-6.02279,72.8063,Q,Q
2023-03-14 16:32:40:877,0,-14.1028,-6.06006,72.7104,Q,Q
2023-03-14 16:32:40:888,0,-14.1029,-6.09439,72.6272,Q,Q
2023-03-14 16:32:40:898,0,-14.1119,-6.12853,72.5578,Q,Q
2023-03-14 16:32:40:908,0,-14.1218,-6.16193,72.4999,Q,Q
2023-03-14 16:32:40:918,0,-14.1329,-6.19793,72.4565,Q,Q
2023-03-14 16:32:40:927,0,-14.1523,-6.2355,72.4328,Q,Q
2023-03-14 16:32:40:937,0,-14.1731,-6.27483,72.4247,Q,Q
2023-03-14 16:32:40:948,0,-14.195,-6.31367,72.4282,Q,Q
2023-03-14 16:32:40:958,0,-14.2207,-6.34199,72.4476,Q,Q
2023-03-14 16:32:40:967,0,-14.2424,-6.36621,72.4769,Q,Q
2023-03-14 16:32:40:977,0,-14.2643,-6.38974,72.5187,Q,Q
2023-03-14 16:32:40:988,0,-14.2793,-6.4102,72.5639,Q,Q
2023-03-14 16:32:40:998,0,-14.2842,-6.43094,72.615,Q,Q
2023-03-14 16:32:41:8,0,-14.2816,-6.45603,72.666,Q,Q
2023-03-14 16:32:41:17,0,-14.2752,-6.48256,72.718,Q,Q
2023-03-14 16:32:41:28,0,-14.2777,-6.51124,72.7761,Q,Q
2023-03-14 16:32:41:37,0,-14.2839,-6.53903,72.8308,Q,Q
2023-03-14 16:32:41:47,0,-14.3007,-6.56817,72.8828,Q,Q
2023-03-14 16:32:41:57,0,-14.3214,-6.59258,72.9251,Q,Q
2023-03-14 16:32:41:67,0,-14.3455,-6.61839,72.9611,Q,Q
2023-03-14 16:32:41:77,0,-14.3673,-6.64326,72.9916,Q,Q
2023-03-14 16:32:41:87,0,-14.3851,-6.66702,73.0116,Q,Q
2023-03-14 16:32:41:97,0,-14.3858,-6.68402,73.0209,Q,Q
2023-03-14 16:32:41:107,0,-14.3723,-6.69283,73.0161,Q,Q
2023-03-14 16:32:41:117,0,-14.3565,-6.68954,72.997,Q,Q
2023-03-14 16:32:41:127,0,-14.3447,-6.68013,72.9736,Q,Q
2023-03-14 16:32:41:137,0,-14.336,-6.66969,72.9461,Q,Q
2023-03-14 16:32:41:147,0,-14.3384,-6.65926,72.9217,Q,Q
2023-03-14 16:32:41:157,0,-14.3462,-6.6457,72.906,Q,Q
2023-03-14 16:32:41:167,0,-14.3588,-6.62941,72.894,Q,Q
2023-03-14 16:32:41:178,0,-14.3739,-6.61088,72.8859,Q,Q
2023-03-14 16:32:41:188,0,-14.3865,-6.58746,72.8829,Q,Q
2023-03-14 16:32:41:198,0,-14.3983,-6.56752,72.8857,Q,Q
2023-03-14 16:32:41:208,0,-14.4092,-6.54777,72.8901,Q,Q
2023-03-14 16:32:41:218,0,-14.4115,-6.52993,72.8854,Q,Q
2023-03-14 16:32:41:227,0,-14.4016,-6.51384,72.8809,Q,Q
2023-03-14 16:32:41:237,0,-14.3907,-6.50046,72.8697,Q,Q
2023-03-14 16:32:41:247,0,-14.3796,-6.49289,72.8606,Q,Q
2023-03-14 16:32:41:257,0,-14.379,-6.48884,72.8481,Q,Q
2023-03-14 16:32:41:267,0,-14.3781,-6.48318,72.8373,Q,Q
2023-03-14 16:32:41:277,0,-14.3756,-6.47873,72.8237,Q,Q
2023-03-14 16:32:41:288,0,-14.3649,-6.47236,72.8112,Q,Q
2023-03-14 16:32:41:297,0,-14.3471,-6.46408,72.7915,Q,Q
2023-03-14 16:32:41:307,0,-14.3257,-6.45065,72.7697,Q,Q
2023-03-14 16:32:41:317,0,-14.2993,-6.43265,72.74,Q,Q
2023-03-14 16:32:41:327,0,-14.2754,-6.40695,72.7096,Q,Q
2023-03-14 16:32:41:337,0,-14.2524,-6.37321,72.6785,Q,Q
2023-03-14 16:32:41:347,0,-14.237,-6.32895,72.6445,Q,Q
2023-03-14 16:32:41:357,0,-14.2229,-6.28138,72.6066,Q,Q
2023-03-14 16:32:41:368,0,-14.2091,-6.22939,72.5673,Q,Q
2023-03-14 16:32:41:377,0,-14.205,-6.17214,72.5287,Q,Q
2023-03-14 16:32:41:388,0,-14.2039,-6.11173,72.4884,Q,Q
2023-03-14 16:32:41:398,0,-14.2078,-6.04965,72.4565,Q,Q
2023-03-14 16:32:41:407,0,-14.2077,-5.9876,72.4248,Q,Q
2023-03-14 16:32:41:418,0,-14.2075,-5.92808,72.3955,Q,Q
2023-03-14 16:32:41:428,0,-14.2041,-5.86962,72.3693,Q,Q
2023-03-14 16:32:41:438,0,-14.2018,-5.81334,72.3371,Q,Q
2023-03-14 16:32:41:448,0,-14.2015,-5.75929,72.3088,Q,Q
2023-03-14 16:32:41:457,0,-14.2046,-5.70523,72.2809,Q,Q
2023-03-14 16:32:41:468,0,-14.2119,-5.66321,72.2589,Q,Q
2023-03-14 16:32:41:477,0,-14.2351,-5.62154,72.2392,Q,QQ
2023-03-14 16:32:41:487,0,-14.2661,-5.59,72.2314,Q,QQ
2023-03-14 16:32:41:497,0,-14.3099,-5.56248,72.2362,Q,QQ
2023-03-14 16:32:41:507,0,-14.3562,-5.5398,72.2616,Q,QQ
2023-03-14 16:32:41:517,0,-14.3977,-5.51894,72.3002,Q,QQ
2023-03-14 16:32:41:527,0,-14.4337,-5.4991,72.353,Q,QQ
2023-03-14 16:32:41:537,0,-14.4653,-5.48378,72.4135,Q,Q
2023-03-14 16:32:41:547,0,-14.4927,-5.47081,72.4758,Q,Q
2023-03-14 16:32:41:557,0,-14.5132,-5.45745,72.5341,do,S
2023-03-14 16:32:41:567,0,-14.5279,-5.45056,72.5846,do,S
2023-03-14 16:32:41:577,0,-14.5358,-5.44376,72.6302,do,S
2023-03-14 16:32:41:587,0,-14.5322,-5.44136,72.6616,do,S
2023-03-14 16:32:41:597,0,-14.5257,-5.43908,72.6777,do,S
2023-03-14 16:32:41:607,0,-14.5161,-5.44208,72.6845,do,S
2023-03-14 16:32:41:617,0,-14.5045,-5.44856,72.6831,do,S
2023-03-14 16:32:41:627,0,-14.4842,-5.46209,72.6743,do,S
2023-03-14 16:32:41:637,0,-14.4624,-5.47523,72.6503,do,S
2023-03-14 16:32:41:647,0,-14.4309,-5.48736,72.6096,do,S
2023-03-14 16:32:41:658,0,-14.3937,-5.50292,72.5536,do,S
2023-03-14 16:32:41:668,0,-14.3508,-5.52001,72.4877,do,S
2023-03-14 16:32:41:677,0,-14.3106,-5.53886,72.4161,do,S
2023-03-14 16:32:41:688,0,-14.2753,-5.55538,72.3479,do,S
2023-03-14 16:32:41:697,0,-14.2501,-5.57493,72.2897,do,S
2023-03-14 16:32:41:707,0,-14.2331,-5.59526,72.238,Q,Q
2023-03-14 16:32:41:717,0,-14.2242,-5.61102,72.1946,Q,Q
2023-03-14 16:32:41:727,0,-14.218,-5.62341,72.152,Q,Q
2023-03-14 16:32:41:737,0,-14.2141,-5.62881,72.1101,Q,Q
2023-03-14 16:32:41:748,0,-14.214,-5.63204,72.0693,Q,Q
2023-03-14 16:32:41:757,0,-14.2154,-5.63027,72.0317,Q,Q
2023-03-14 16:32:41:767,0,-14.2177,-5.62965,71.9982,Q,Q
2023-03-14 16:32:41:777,0,-14.2251,-5.63056,71.9682,Q,Q
2023-03-14 16:32:41:787,0,-14.24,-5.62746,71.9413,Q,Q
2023-03-14 16:32:41:797,0,-14.2593,-5.62693,71.921,Q,Q
2023-03-14 16:32:41:807,0,-14.2864,-5.62859,71.9068,Q,Q
2023-03-14 16:32:41:818,0,-14.3254,-5.62941,71.9003,Q,Q
2023-03-14 16:32:41:827,0,-14.3651,-5.63166,71.8988,Q,Q
2023-03-14 16:32:41:837,0,-14.4032,-5.63511,71.9052,Q,Q
2023-03-14 16:32:41:847,0,-14.4364,-5.64008,71.9158,Q,Q
2023-03-14 16:32:41:857,0,-14.4583,-5.64692,71.9264,Q,Q
2023-03-14 16:32:41:868,0,-14.4689,-5.65074,71.9323,Q,Q
2023-03-14 16:32:41:878,0,-14.479,-5.6602,71.9341,Q,Q
2023-03-14 16:32:41:888,0,-14.4894,-5.66909,71.9347,Q,Q
2023-03-14 16:32:41:897,0,-14.5012,-5.67966,71.9349,Q,Q
2023-03-14 16:32:41:907,0,-14.5124,-5.69461,71.9322,Q,Q
2023-03-14 16:32:41:917,0,-14.5225,-5.70686,71.9262,Q,Q
2023-03-14 16:32:41:927,0,-14.5361,-5.72013,71.9196,Q,Q
2023-03-14 16:32:41:937,0,-14.5502,-5.72985,71.9098,Q,Q
2023-03-14 16:32:41:947,0,-14.5666,-5.73615,71.8971,Q,Q
2023-03-14 16:32:41:958,0,-14.5802,-5.73961,71.8865,Q,Q
2023-03-14 16:32:41:968,0,-14.5883,-5.7377,71.8722,Q,Q
2023-03-14 16:32:41:978,0,-14.5937,-5.73608,71.8583,Q,Q
2023-03-14 16:32:41:987,0,-14.6005,-5.73521,71.8389,Q,Q
2023-03-14 16:32:41:998,0,-14.604,-5.73101,71.8157,Q,Q
2023-03-14 16:32:42:8,0,-14.606,-5.72754,71.787,Q,Q
2023-03-14 16:32:42:18,0,-14.6101,-5.72402,71.7609,Q,Q
2023-03-14 16:32:42:28,0,-14.6148,-5.72348,71.7281,Q,Q
2023-03-14 16:32:42:38,0,-14.6235,-5.72391,71.6962,Q,Q
2023-03-14 16:32:42:48,0,-14.6275,-5.72073,71.667,Q,Q
2023-03-14 16:32:42:58,0,-14.631,-5.72086,71.6433,Q,Q
2023-03-14 16:32:42:68,0,-14.6317,-5.71897,71.6195,Q,Q
2023-03-14 16:32:42:77,0,-14.6388,-5.71777,71.603,Q,Q
2023-03-14 16:32:42:87,0,-14.6507,-5.72434,71.5906,Q,Q
2023-03-14 16:32:42:97,0,-14.6611,-5.7329,71.586,Q,Q
2023-03-14 16:32:42:107,0,-14.6732,-5.74235,71.5775,Q,Q
2023-03-14 16:32:42:118,0,-14.6897,-5.74942,71.5693,Q,Q
2023-03-14 16:32:42:128,0,-14.7064,-5.75953,71.5644,Q,Q
2023-03-14 16:32:42:138,0,-14.73,-5.7749,71.5642,Q,Q
2023-03-14 16:32:42:148,0,-14.7609,-5.79147,71.5698,Q,Q
2023-03-14 16:32:42:157,0,-14.7909,-5.80766,71.5771,Q,Q
2023-03-14 16:32:42:168,0,-14.8212,-5.82461,71.5869,Q,Q
2023-03-14 16:32:42:178,0,-14.8543,-5.84255,71.6004,Q,Q
2023-03-14 16:32:42:188,0,-14.8878,-5.86094,71.6199,Q,Q
2023-03-14 16:32:42:197,0,-14.9219,-5.87829,71.64,Q,Q
2023-03-14 16:32:42:207,0,-14.9554,-5.89469,71.6643,Q,Q
2023-03-14 16:32:42:217,0,-14.9821,-5.91037,71.6824,Q,Q
2023-03-14 16:32:42:227,0,-15.0041,-5.92727,71.6993,Q,Q
2023-03-14 16:32:42:238,0,-15.0226,-5.94225,71.7121,Q,Q
2023-03-14 16:32:42:248,0,-15.0357,-5.95871,71.7192,Q,Q
2023-03-14 16:32:42:258,0,-15.0409,-5.97294,71.7202,Q,Q
2023-03-14 16:32:42:268,0,-15.0393,-5.99164,71.7171,Q,Q
2023-03-14 16:32:42:278,0,-15.0371,-6.0148,71.706,Q,Q
2023-03-14 16:32:42:288,0,-15.029,-6.03953,71.6886,Q,Q
2023-03-14 16:32:42:298,0,-15.0163,-6.06632,71.6669,Q,Q
2023-03-14 16:32:42:308,0,-15.0043,-6.09098,71.6428,Q,Q
2023-03-14 16:32:42:318,0,-14.9925,-6.12033,71.6178,Q,Q
2023-03-14 16:32:42:328,0,-14.979,-6.14715,71.5936,Q,Q
2023-03-14 16:32:42:337,0,-14.9654,-6.17717,71.5657,Q,Q
2023-03-14 16:32:42:348,0,-14.9551,-6.20911,71.5342,Q,Q
2023-03-14 16:32:42:358,0,-14.9449,-6.24274,71.5055,Q,Q
2023-03-14 16:32:42:368,0,-14.9293,-6.27326,71.475,Q,Q
2023-03-14 16:32:42:378,0,-14.9162,-6.30556,71.4445,Q,Q
2023-03-14 16:32:42:388,0,-14.8929,-6.33445,71.405,Q,Q
2023-03-14 16:32:42:398,0,-14.8675,-6.36308,71.3629,Q,Q
2023-03-14 16:32:42:408,0,-14.843,-6.38958,71.319,Q,Q
2023-03-14 16:32:42:417,0,-14.8255,-6.41759,71.2763,Q,Q
2023-03-14 16:32:42:427,0,-14.8188,-6.44854,71.2326,Q,Q
2023-03-14 16:32:42:437,0,-14.8266,-6.48258,71.1926,Q,Q
2023-03-14 16:32:42:447,0,-14.843,-6.51564,71.1524,Q,Q
2023-03-14 16:32:42:457,0,-14.8537,-6.55562,71.1096,Q,Q
2023-03-14 16:32:42:467,0,-14.8613,-6.59159,71.0672,Q,Q
2023-03-14 16:32:42:477,0,-14.8688,-6.62719,71.027,Q,Q
2023-03-14 16:32:42:487,0,-14.8764,-6.65966,70.9868,Q,Q
2023-03-14 16:32:42:497,0,-14.8808,-6.68502,70.9423,Q,Q
2023-03-14 16:32:42:507,0,-14.8872,-6.70199,70.8929,Q,Q
2023-03-14 16:32:42:517,0,-14.8944,-6.71905,70.8447,Q,Q
2023-03-14 16:32:42:527,0,-14.9105,-6.73914,70.8036,Q,Q
2023-03-14 16:32:42:537,0,-14.9367,-6.77089,70.7704,Q,Q
2023-03-14 16:32:42:548,0,-14.9644,-6.80582,70.7437,Q,Q
2023-03-14 16:32:42:557,0,-14.9979,-6.84204,70.7237,Q,Q
2023-03-14 16:32:42:568,0,-15.0237,-6.87619,70.7092,Q,Q
2023-03-14 16:32:42:577,0,-15.0446,-6.92016,70.6983,Q,Q
2023-03-14 16:32:42:587,0,-15.0627,-6.95778,70.6875,Q,Q
2023-03-14 16:32:42:597,0,-15.0842,-7.00011,70.6849,Q,Q
2023-03-14 16:32:42:607,0,-15.1043,-7.04289,70.6861,Q,Q
2023-03-14 16:32:42:618,0,-15.1188,-7.08959,70.684,Q,Q
2023-03-14 16:32:42:628,0,-15.1344,-7.13867,70.682,Q,Q
2023-03-14 16:32:42:637,0,-15.1519,-7.18082,70.6889,Q,Q
2023-03-14 16:32:42:648,0,-15.1717,-7.22861,70.7026,Q,Q
2023-03-14 16:32:42:658,0,-15.1881,-7.27166,70.7162,Q,Q
2023-03-14 16:32:42:668,0,-15.2034,-7.3104,70.7296,Q,Q
2023-03-14 16:32:42:678,0,-15.2158,-7.34183,70.7421,Q,Q
2023-03-14 16:32:42:688,0,-15.2327,-7.366,70.7549,Q,Q
2023-03-14 16:32:42:698,0,-15.2465,-7.38574,70.7678,Q,Q
2023-03-14 16:32:42:708,0,-15.265,-7.39684,70.7796,Q,Q
2023-03-14 16:32:42:718,0,-15.2787,-7.40487,70.7892,Q,Q
2023-03-14 16:32:42:728,0,-15.2894,-7.40355,70.8005,Q,Q
2023-03-14 16:32:42:738,0,-15.2919,-7.39357,70.8102,Q,Q
2023-03-14 16:32:42:748,0,-15.2927,-7.38468,70.8152,Q,Q
2023-03-14 16:32:42:758,0,-15.2926,-7.37044,70.8209,Q,Q
2023-03-14 16:32:42:768,0,-15.2922,-7.35474,70.8184,Q,Q
2023-03-14 16:32:42:778,0,-15.2982,-7.33749,70.8115,Q,Q
2023-03-14 16:32:42:788,0,-15.3089,-7.32024,70.799,Q,Q
2023-03-14 16:32:42:798,0,-15.3278,-7.31155,70.7813,Q,Q
2023-03-14 16:32:42:808,0,-15.3481,-7.30165,70.7598,Q,Q
2023-03-14 16:32:42:818,0,-15.3683,-7.29943,70.7373,Q,Q
2023-03-14 16:32:42:828,0,-15.3877,-7.29839,70.7113,Q,Q
2023-03-14 16:32:42:838,0,-15.4046,-7.29803,70.6858,Q,Q
2023-03-14 16:32:42:847,0,-15.4223,-7.30155,70.6589,Q,Q
2023-03-14 16:32:42:857,0,-15.4394,-7.30657,70.6322,re,S
2023-03-14 16:32:42:867,0,-15.454,-7.31173,70.6069,re,S
2023-03-14 16:32:42:877,0,-15.4667,-7.31966,70.5842,re,S
2023-03-14 16:32:42:887,0,-15.4743,-7.32871,70.5685,re,S
2023-03-14 16:32:42:897,0,-15.4809,-7.33822,70.5603,re,S
2023-03-14 16:32:42:907,0,-15.4825,-7.34324,70.5539,re,S
2023-03-14 16:32:42:917,0,-15.4836,-7.35008,70.5539,re,S
2023-03-14 16:32:42:928,0,-15.4859,-7.35919,70.5636,re,S
2023-03-14 16:32:42:937,0,-15.4811,-7.36702,70.5735,re,S
2023-03-14 16:32:42:948,0,-15.472,-7.37488,70.5873,re,S
2023-03-14 16:32:42:957,0,-15.4594,-7.38355,70.6005,re,S
2023-03-14 16:32:42:968,0,-15.4506,-7.39089,70.6118,re,S
2023-03-14 16:32:42:978,0,-15.4424,-7.39786,70.6241,re,S
2023-03-14 16:32:42:987,0,-15.4406,-7.40133,70.6331,re,S
2023-03-14 16:32:42:997,0,-15.439,-7.40414,70.6404,re,S
2023-03-14 16:32:43:8,0,-15.4418,-7.4063,70.6443,re,S
2023-03-14 16:32:43:17,0,-15.4505,-7.40992,70.6466,re,S
2023-03-14 16:32:43:27,0,-15.4631,-7.42225,70.6498,re,S
2023-03-14 16:32:43:37,0,-15.478,-7.42997,70.649,re,S
2023-03-14 16:32:43:47,0,-15.4919,-7.43541,70.6474,re,S
2023-03-14 16:32:43:57,0,-15.5048,-7.44055,70.6447,re,S
2023-03-14 16:32:43:68,0,-15.521,-7.44625,70.6412,re,S
2023-03-14 16:32:43:78,0,-15.5415,-7.45024,70.6382,re,S
2023-03-14 16:32:43:88,0,-15.5625,-7.45454,70.6332,re,S
2023-03-14 16:32:43:97,0,-15.5878,-7.45796,70.633,re,S
2023-03-14 16:32:43:107,0,-15.6132,-7.46423,70.6308,re,S
2023-03-14 16:32:43:117,0,-15.6399,-7.47463,70.6279,re,S
2023-03-14 16:32:43:128,0,-15.6695,-7.48923,70.6312,re,S
2023-03-14 16:32:43:137,0,-15.7008,-7.5062,70.6342,re,S
2023-03-14 16:32:43:147,0,-15.7318,-7.52205,70.6313,re,S
2023-03-14 16:32:43:157,0,-15.7576,-7.53607,70.6306,re,S
2023-03-14 16:32:43:167,0,-15.7804,-7.55291,70.6278,re,S
2023-03-14 16:32:43:177,0,-15.8014,-7.56784,70.623,re,S
2023-03-14 16:32:43:188,0,-15.8196,-7.58899,70.6149,re,S
2023-03-14 16:32:43:198,0,-15.8346,-7.61019,70.6068,re,S
2023-03-14 16:32:43:208,0,-15.8503,-7.62626,70.603,re,S
2023-03-14 16:32:43:218,0,-15.8591,-7.64205,70.5929,re,S
2023-03-14 16:32:43:228,0,-15.8664,-7.65569,70.5781,re,S
2023-03-14 16:32:43:237,0,-15.8714,-7.66496,70.5626,re,S
2023-03-14 16:32:43:247,0,-15.8804,-7.67332,70.5447,re,S
2023-03-14 16:32:43:257,0,-15.893,-7.67998,70.5249,Q,Q
2023-03-14 16:32:43:267,0,-15.9043,-7.68745,70.5039,Q,Q
2023-03-14 16:32:43:277,0,-15.9121,-7.69583,70.4783,Q,Q
2023-03-14 16:32:43:287,0,-15.9176,-7.70883,70.4509,Q,Q
2023-03-14 16:32:43:297,0,-15.924,-7.71771,70.4185,Q,Q
2023-03-14 16:32:43:308,0,-15.9302,-7.72821,70.3901,Q,Q
2023-03-14 16:32:43:317,0,-15.9387,-7.73733,70.3626,Q,Q
2023-03-14 16:32:43:327,0,-15.9449,-7.74444,70.3347,Q,Q
2023-03-14 16:32:43:337,0,-15.9454,-7.74525,70.2993,Q,Q
2023-03-14 16:32:43:347,0,-15.9455,-7.74192,70.2601,Q,Q
2023-03-14 16:32:43:357,0,-15.941,-7.73657,70.2235,Q,Q
2023-03-14 16:32:43:367,0,-15.9355,-7.73508,70.1884,Q,Q
2023-03-14 16:32:43:377,0,-15.928,-7.73847,70.1506,Q,Q
2023-03-14 16:32:43:388,0,-15.9202,-7.74181,70.1138,Q,Q
2023-03-14 16:32:43:398,0,-15.9152,-7.74683,70.0768,Q,Q
2023-03-14 16:32:43:408,0,-15.9126,-7.75636,70.042,Q,Q
2023-03-14 16:32:43:418,0,-15.9091,-7.76048,70.0035,Q,Q
2023-03-14 16:32:43:427,0,-15.9075,-7.76599,69.9677,Q,Q
2023-03-14 16:32:43:437,0,-15.9036,-7.77526,69.9309,Q,Q
2023-03-14 16:32:43:447,0,-15.905,-7.78299,69.8974,Q,Q
2023-03-14 16:32:43:457,0,-15.9038,-7.78816,69.869,Q,Q
2023-03-14 16:32:43:467,0,-15.9008,-7.79338,69.8446,Q,Q
2023-03-14 16:32:43:478,0,-15.8932,-7.79783,69.8257,Q,Q
2023-03-14 16:32:43:488,0,-15.8873,-7.80664,69.8097,Q,Q
2023-03-14 16:32:43:497,0,-15.8789,-7.8175,69.7954,Q,Q
2023-03-14 16:32:43:508,0,-15.8672,-7.82596,69.7796,Q,Q
2023-03-14 16:32:43:518,0,-15.8558,-7.83822,69.7664,Q,Q
2023-03-14 16:32:43:528,0,-15.8444,-7.85327,69.7551,Q,Q
2023-03-14 16:32:43:538,0,-15.8323,-7.87413,69.7453,Q,Q
2023-03-14 16:32:43:548,0,-15.8169,-7.89253,69.7318,Q,Q
2023-03-14 16:32:43:558,0,-15.8015,-7.90955,69.7257,Q,Q
2023-03-14 16:32:43:568,0,-15.7927,-7.92395,69.7192,Q,Q
2023-03-14 16:32:43:578,0,-15.7843,-7.93889,69.7136,Q,Q
2023-03-14 16:32:43:587,0,-15.7743,-7.94789,69.7071,Q,Q
2023-03-14 16:32:43:598,0,-15.7676,-7.95591,69.7004,Q,Q
2023-03-14 16:32:43:608,0,-15.7627,-7.96383,69.7001,Q,Q
2023-03-14 16:32:43:617,0,-15.7627,-7.97327,69.6996,Q,Q
2023-03-14 16:32:43:627,0,-15.764,-7.97656,69.7008,Q,Q
2023-03-14 16:32:43:637,0,-15.762,-7.98204,69.7036,Q,Q
2023-03-14 16:32:43:647,0,-15.7588,-7.98608,69.7066,Q,Q
2023-03-14 16:32:43:657,0,-15.762,-7.98855,69.7077,Q,Q
2023-03-14 16:32:43:667,0,-15.7687,-7.99112,69.7113,Q,Q
2023-03-14 16:32:43:677,0,-15.7716,-7.99418,69.7115,Q,Q
2023-03-14 16:32:43:687,0,-15.779,-7.99442,69.7146,Q,Q
2023-03-14 16:32:43:697,0,-15.7876,-7.99305,69.7183,Q,Q
2023-03-14 16:32:43:707,0,-15.7993,-7.98978,69.7176,Q,Q
2023-03-14 16:32:43:717,0,-15.8122,-7.98593,69.721,Q,Q
2023-03-14 16:32:43:728,0,-15.8241,-7.98066,69.724,Q,Q
2023-03-14 16:32:43:738,0,-15.838,-7.97771,69.7273,Q,Q
2023-03-14 16:32:43:747,0,-15.8555,-7.97382,69.7286,Q,Q
2023-03-14 16:32:43:758,0,-15.8742,-7.96847,69.7324,Q,Q
2023-03-14 16:32:43:767,0,-15.8934,-7.96066,69.7344,Q,Q
2023-03-14 16:32:43:777,0,-15.9113,-7.95368,69.7382,Q,Q
2023-03-14 16:32:43:788,0,-15.9279,-7.9461,69.7393,Q,Q
2023-03-14 16:32:43:798,0,-15.9441,-7.94105,69.7433,Q,Q
2023-03-14 16:32:43:808,0,-15.9613,-7.93959,69.7492,Q,Q
2023-03-14 16:32:43:818,0,-15.9756,-7.9399,69.7503,Q,Q
2023-03-14 16:32:43:828,0,-15.9876,-7.94143,69.7557,Q,Q
2023-03-14 16:32:43:837,0,-15.9973,-7.9414,69.7588,Q,Q
2023-03-14 16:32:43:848,0,-16.0091,-7.94281,69.764,Q,Q
2023-03-14 16:32:43:858,0,-16.0162,-7.94747,69.7676,Q,Q
2023-03-14 16:32:43:868,0,-16.0264,-7.95029,69.7736,Q,Q
2023-03-14 16:32:43:878,0,-16.0344,-7.95258,69.776,Q,Q
2023-03-14 16:32:43:888,0,-16.0403,-7.95459,69.7772,Q,Q
2023-03-14 16:32:43:898,0,-16.0437,-7.95842,69.7756,Q,Q
2023-03-14 16:32:43:908,0,-16.0464,-7.96359,69.7704,Q,Q
2023-03-14 16:32:43:918,0,-16.0486,-7.96605,69.7629,Q,Q
2023-03-14 16:32:43:928,0,-16.0426,-7.96544,69.7533,Q,Q
2023-03-14 16:32:43:938,0,-16.0424,-7.96711,69.7499,Q,Q
2023-03-14 16:32:43:948,0,-16.045,-7.96692,69.7491,Q,Q
2023-03-14 16:32:43:958,0,-16.0538,-7.96477,69.749,Q,Q
2023-03-14 16:32:43:968,0,-16.0651,-7.96456,69.7472,Q,Q
2023-03-14 16:32:43:978,0,-16.0753,-7.96982,69.7482,Q,Q
2023-03-14 16:32:43:988,0,-16.0889,-7.98023,69.7532,Q,Q
2023-03-14 16:32:43:997,0,-16.1045,-7.98861,69.765,Q,Q
2023-03-14 16:32:44:7,0,-16.1201,-7.99765,69.7809,Q,Q
2023-03-14 16:32:44:17,0,-16.1341,-8.00313,69.8011,Q,Q
2023-03-14 16:32:44:27,0,-16.1492,-8.01104,69.824,Q,Q
2023-03-14 16:32:44:37,0,-16.1679,-8.02045,69.8486,Q,Q
2023-03-14 16:32:44:48,0,-16.1842,-8.02589,69.8688,Q,Q
2023-03-14 16:32:44:57,0,-16.1936,-8.02779,69.8875,Q,Q
2023-03-14 16:32:44:67,0,-16.2051,-8.03102,69.9032,Q,Q
2023-03-14 16:32:44:77,0,-16.2173,-8.03011,69.917,Q,Q
2023-03-14 16:32:44:87,0,-16.2321,-8.02656,69.9327,Q,Q
2023-03-14 16:32:44:98,0,-16.255,-8.02738,69.9452,Q,Q
2023-03-14 16:32:44:108,0,-16.2808,-8.02545,69.9607,Q,Q
2023-03-14 16:32:44:118,0,-16.3104,-8.0217,69.9747,Q,Q
2023-03-14 16:32:44:128,0,-16.3403,-8.01986,69.9884,Q,Q
2023-03-14 16:32:44:137,0,-16.3754,-8.01853,70.0032,Q,Q
2023-03-14 16:32:44:148,0,-16.4079,-8.01814,70.018,Q,Q
2023-03-14 16:32:44:157,0,-16.4385,-8.01842,70.0316,Q,Q
2023-03-14 16:32:44:168,0,-16.4662,-8.01838,70.0499,Q,Q
2023-03-14 16:32:44:178,0,-16.4883,-8.01912,70.066,Q,Q
2023-03-14 16:32:44:188,0,-16.502,-8.0209,70.081,Q,Q
2023-03-14 16:32:44:198,0,-16.5149,-8.02222,70.096,Q,Q
2023-03-14 16:32:44:208,0,-16.5277,-8.02264,70.109,Q,Q
2023-03-14 16:32:44:218,0,-16.5331,-8.02243,70.1208,Q,Q
2023-03-14 16:32:44:228,0,-16.538,-8.01763,70.1319,Q,Q
2023-03-14 16:32:44:238,0,-16.5409,-8.01574,70.1414,Q,Q
2023-03-14 16:32:44:247,0,-16.5425,-8.01213,70.1476,Q,Q
2023-03-14 16:32:44:257,0,-16.5393,-8.01041,70.1567,Q,Q
2023-03-14 16:32:44:267,0,-16.5414,-8.01041,70.1688,Q,Q
2023-03-14 16:32:44:278,0,-16.5466,-8.00735,70.1755,Q,Q
2023-03-14 16:32:44:288,0,-16.5524,-8.00773,70.1861,Q,Q
2023-03-14 16:32:44:297,0,-16.561,-8.00754,70.199,Q,Q
2023-03-14 16:32:44:307,0,-16.5665,-8.00639,70.2118,Q,Q
2023-03-14 16:32:44:317,0,-16.5682,-8.00716,70.2246,Q,Q
2023-03-14 16:32:44:328,0,-16.57,-8.0041,70.2364,Q,Q
2023-03-14 16:32:44:337,0,-16.5647,-8.00657,70.2495,Q,Q
2023-03-14 16:32:44:347,0,-16.5563,-8.00942,70.2584,Q,Q
2023-03-14 16:32:44:358,0,-16.5455,-8.01198,70.2717,Q,Q
2023-03-14 16:32:44:368,0,-16.5309,-8.01203,70.2819,Q,Q
2023-03-14 16:32:44:378,0,-16.5191,-8.01514,70.2897,Q,Q
2023-03-14 16:32:44:387,0,-16.5086,-8.01554,70.2987,Q,Q
2023-03-14 16:32:44:397,0,-16.5004,-8.01532,70.3019,Q,Q
2023-03-14 16:32:44:408,0,-16.499,-8.01859,70.3082,me,S
2023-03-14 16:32:44:417,0,-16.496,-8.02135,70.3086,me,S
2023-03-14 16:32:44:427,0,-16.4945,-8.02316,70.3086,me,S
2023-03-14 16:32:44:437,0,-16.4944,-8.02327,70.3086,me,S
2023-03-14 16:32:44:447,0,-16.5002,-8.0194,70.3084,me,S
2023-03-14 16:32:44:457,0,-16.5063,-8.01712,70.3086,me,S
2023-03-14 16:32:44:467,0,-16.5119,-8.00997,70.3078,me,S
2023-03-14 16:32:44:477,0,-16.517,-8.0027,70.3081,me,S
2023-03-14 16:32:44:487,0,-16.5229,-7.99387,70.3106,me,S
2023-03-14 16:32:44:497,0,-16.5261,-7.98568,70.3097,me,S
2023-03-14 16:32:44:507,0,-16.5286,-7.97707,70.3106,me,S
2023-03-14 16:32:44:517,0,-16.528,-7.97144,70.3081,me,S
2023-03-14 16:32:44:528,0,-16.5261,-7.96554,70.3064,me,S
2023-03-14 16:32:44:537,0,-16.5218,-7.965,70.3061,me,S
2023-03-14 16:32:44:548,0,-16.5176,-7.96792,70.3085,me,S
2023-03-14 16:32:44:558,0,-16.5144,-7.9685,70.3132,me,S
2023-03-14 16:32:44:568,0,-16.5118,-7.96963,70.3166,me,S
2023-03-14 16:32:44:578,0,-16.5052,-7.97051,70.3218,me,S
2023-03-14 16:32:44:588,0,-16.5009,-7.9691,70.3279,me,S
2023-03-14 16:32:44:598,0,-16.4952,-7.96677,70.3287,me,S
2023-03-14 16:32:44:607,0,-16.487,-7.96446,70.3288,me,S
2023-03-14 16:32:44:617,0,-16.4775,-7.96085,70.3261,me,S
2023-03-14 16:32:44:628,0,-16.4676,-7.95979,70.3281,me,S
2023-03-14 16:32:44:638,0,-16.4574,-7.96078,70.3273,me,S
2023-03-14 16:32:44:648,0,-16.4481,-7.96236,70.3282,me,S
2023-03-14 16:32:44:657,0,-16.4382,-7.96116,70.3275,me,S
2023-03-14 16:32:44:668,0,-16.4285,-7.96364,70.3295,me,S
2023-03-14 16:32:44:678,0,-16.4191,-7.96328,70.3283,me,S
2023-03-14 16:32:44:688,0,-16.4098,-7.96445,70.3265,me,S
2023-03-14 16:32:44:697,0,-16.4034,-7.9659,70.3277,me,S
2023-03-14 16:32:44:708,0,-16.3954,-7.96222,70.3301,me,S
2023-03-14 16:32:44:717,0,-16.3907,-7.96308,70.3318,me,S
2023-03-14 16:32:44:727,0,-16.3878,-7.96241,70.3388,me,S
2023-03-14 16:32:44:737,0,-16.3835,-7.96258,70.3432,me,S
2023-03-14 16:32:44:748,0,-16.3805,-7.96259,70.3461,me,S
2023-03-14 16:32:44:757,0,-16.3754,-7.96304,70.3551,me,S
2023-03-14 16:32:44:767,0,-16.3703,-7.96382,70.3625,me,S
2023-03-14 16:32:44:777,0,-16.3633,-7.96039,70.3691,me,S
2023-03-14 16:32:44:787,0,-16.3529,-7.95708,70.3772,Q,Q
2023-03-14 16:32:44:797,0,-16.3475,-7.95654,70.3848,Q,Q
2023-03-14 16:32:44:808,0,-16.3425,-7.95347,70.3942,Q,Q
2023-03-14 16:32:44:818,0,-16.3375,-7.95003,70.3989,Q,Q
2023-03-14 16:32:44:827,0,-16.3301,-7.94346,70.3987,Q,Q
2023-03-14 16:32:44:838,0,-16.324,-7.93218,70.3998,Q,Q
2023-03-14 16:32:44:848,0,-16.316,-7.92158,70.4025,Q,Q
2023-03-14 16:32:44:858,0,-16.3086,-7.90589,70.4013,Q,Q
2023-03-14 16:32:44:867,0,-16.3013,-7.89578,70.4006,Q,Q
2023-03-14 16:32:44:877,0,-16.2905,-7.88086,70.3955,Q,Q
