Timestamp_cmd,imu_cmd,roll_delta,pitch_delta,yaw_delta
2023-03-11 21:00:39:494,0,-9.78154,-6.02606,87.875
2023-03-11 21:00:39:502,0,-9.78121,-6.00681,87.8659
2023-03-11 21:00:39:513,0,-9.78658,-5.98709,87.861
2023-03-11 21:00:39:523,0,-9.7975,-5.97073,87.8645
2023-03-11 21:00:39:533,0,-9.81228,-5.95437,87.8706
2023-03-11 21:00:39:543,0,-9.82519,-5.93921,87.8757
2023-03-11 21:00:39:553,0,-9.83568,-5.92656,87.8781
2023-03-11 21:00:39:562,0,-9.83971,-5.91872,87.8726
2023-03-11 21:00:39:573,0,-9.83707,-5.91674,87.8634
2023-03-11 21:00:39:583,0,-9.82663,-5.91692,87.8481
2023-03-11 21:00:39:592,0,-9.81697,-5.9171,87.825
2023-03-11 21:00:39:603,0,-9.80749,-5.91191,87.7929
2023-03-11 21:00:39:613,0,-9.80359,-5.89862,87.7555
2023-03-11 21:00:39:623,0,-9.81136,-5.88136,87.7139
2023-03-11 21:00:39:633,0,-9.82743,-5.86211,87.6748
2023-03-11 21:00:39:643,0,-9.84048,-5.83736,87.6384
2023-03-11 21:00:39:653,0,-9.85748,-5.82382,87.6089
2023-03-11 21:00:39:663,0,-9.87696,-5.8054,87.5865
2023-03-11 21:00:39:673,0,-9.89744,-5.78186,87.5718
2023-03-11 21:00:39:683,0,-9.91249,-5.76153,87.563
2023-03-11 21:00:39:693,0,-9.93236,-5.7344,87.5611
2023-03-11 21:00:39:703,0,-9.95428,-5.70913,87.5628
2023-03-11 21:00:39:713,0,-9.98448,-5.6888,87.5699
2023-03-11 21:00:39:723,0,-10.0177,-5.67689,87.5847
2023-03-11 21:00:39:733,0,-10.06,-5.67285,87.6049
2023-03-11 21:00:39:743,0,-10.1,-5.67164,87.6233
2023-03-11 21:00:39:753,0,-10.1341,-5.67813,87.641
2023-03-11 21:00:39:763,0,-10.158,-5.67924,87.6506
2023-03-11 21:00:39:773,0,-10.1733,-5.6842,87.6582
2023-03-11 21:00:39:783,0,-10.1852,-5.69246,87.6594
2023-03-11 21:00:39:793,0,-10.1973,-5.70177,87.6609
2023-03-11 21:00:39:803,0,-10.2092,-5.71237,87.6542
2023-03-11 21:00:39:813,0,-10.2203,-5.71836,87.6506
2023-03-11 21:00:39:823,0,-10.2319,-5.7217,87.6452
2023-03-11 21:00:39:833,0,-10.2431,-5.717,87.6361
2023-03-11 21:00:39:842,0,-10.2527,-5.70353,87.6267
2023-03-11 21:00:39:852,0,-10.263,-5.68523,87.6201
2023-03-11 21:00:39:862,0,-10.2811,-5.66167,87.6096
2023-03-11 21:00:39:872,0,-10.2976,-5.63334,87.6004
2023-03-11 21:00:39:882,0,-10.3152,-5.60356,87.5884
2023-03-11 21:00:39:892,0,-10.3313,-5.57074,87.5742
2023-03-11 21:00:39:903,0,-10.3522,-5.53664,87.563
2023-03-11 21:00:39:913,0,-10.3754,-5.50431,87.5514
2023-03-11 21:00:39:922,0,-10.4025,-5.47273,87.5373
2023-03-11 21:00:39:933,0,-10.4363,-5.44716,87.5225
2023-03-11 21:00:39:943,0,-10.4697,-5.42476,87.5073
2023-03-11 21:00:39:953,0,-10.5036,-5.40511,87.4898
2023-03-11 21:00:39:963,0,-10.5313,-5.39099,87.4718
2023-03-11 21:00:39:973,0,-10.5521,-5.3766,87.4481
2023-03-11 21:00:39:983,0,-10.5634,-5.36399,87.4208
2023-03-11 21:00:39:992,0,-10.563,-5.35633,87.3844
2023-03-11 21:00:40:2,0,-10.5572,-5.35068,87.3489
2023-03-11 21:00:40:13,0,-10.5518,-5.35056,87.3124
2023-03-11 21:00:40:23,0,-10.5471,-5.35322,87.274
2023-03-11 21:00:40:33,0,-10.5432,-5.36197,87.2345
2023-03-11 21:00:40:43,0,-10.5415,-5.37051,87.1982
2023-03-11 21:00:40:53,0,-10.5421,-5.37338,87.1618
2023-03-11 21:00:40:63,0,-10.5357,-5.38202,87.1197
2023-03-11 21:00:40:73,0,-10.5211,-5.3852,87.0815
2023-03-11 21:00:40:83,0,-10.5056,-5.38901,87.0437
2023-03-11 21:00:40:93,0,-10.4901,-5.39397,87.008
2023-03-11 21:00:40:103,0,-10.4756,-5.39717,86.9719
2023-03-11 21:00:40:113,0,-10.4626,-5.40275,86.936
2023-03-11 21:00:40:123,0,-10.4484,-5.41004,86.8985
2023-03-11 21:00:40:133,0,-10.4388,-5.41506,86.8619
2023-03-11 21:00:40:143,0,-10.431,-5.42194,86.8282
2023-03-11 21:00:40:152,0,-10.4253,-5.42432,86.7988
2023-03-11 21:00:40:163,0,-10.4193,-5.42638,86.7661
2023-03-11 21:00:40:173,0,-10.4178,-5.4284,86.739
2023-03-11 21:00:40:182,0,-10.4131,-5.431,86.7092
2023-03-11 21:00:40:193,0,-10.4046,-5.43154,86.6782
2023-03-11 21:00:40:203,0,-10.3947,-5.4286,86.6454
2023-03-11 21:00:40:212,0,-10.389,-5.42254,86.6143
2023-03-11 21:00:40:222,0,-10.3808,-5.41427,86.5817
2023-03-11 21:00:40:233,0,-10.3737,-5.40545,86.5511
2023-03-11 21:00:40:243,0,-10.3682,-5.40017,86.5216
2023-03-11 21:00:40:253,0,-10.3609,-5.39756,86.501
2023-03-11 21:00:40:263,0,-10.3566,-5.3991,86.4828
2023-03-11 21:00:40:273,0,-10.3565,-5.39926,86.4723
2023-03-11 21:00:40:283,0,-10.3643,-5.39971,86.4688
2023-03-11 21:00:40:293,0,-10.3739,-5.39869,86.4744
2023-03-11 21:00:40:303,0,-10.389,-5.39579,86.4859
2023-03-11 21:00:40:313,0,-10.4063,-5.39055,86.4988
2023-03-11 21:00:40:323,0,-10.4263,-5.38028,86.5192
2023-03-11 21:00:40:333,0,-10.444,-5.36697,86.5453
2023-03-11 21:00:40:342,0,-10.4536,-5.35204,86.5782
2023-03-11 21:00:40:352,0,-10.461,-5.33845,86.61
2023-03-11 21:00:40:362,0,-10.465,-5.32403,86.64
2023-03-11 21:00:40:373,0,-10.4696,-5.3164,86.6727
2023-03-11 21:00:40:383,0,-10.4814,-5.30894,86.7018
2023-03-11 21:00:40:392,0,-10.4917,-5.308,86.7254
2023-03-11 21:00:40:402,0,-10.499,-5.30512,86.7418
2023-03-11 21:00:40:412,0,-10.5044,-5.30137,86.7538
2023-03-11 21:00:40:422,0,-10.5092,-5.30283,86.7576
2023-03-11 21:00:40:432,0,-10.5152,-5.30606,86.7581
2023-03-11 21:00:40:443,0,-10.5163,-5.30714,86.7515
2023-03-11 21:00:40:453,0,-10.5174,-5.31182,86.7419
2023-03-11 21:00:40:463,0,-10.5217,-5.31562,86.7334
2023-03-11 21:00:40:473,0,-10.5155,-5.32089,86.7197
2023-03-11 21:00:40:483,0,-10.5056,-5.32636,86.7065
2023-03-11 21:00:40:493,0,-10.4959,-5.32959,86.691
2023-03-11 21:00:40:503,0,-10.4821,-5.33161,86.6791
2023-03-11 21:00:40:513,0,-10.467,-5.33196,86.6693
2023-03-11 21:00:40:522,0,-10.4525,-5.32463,86.6617
2023-03-11 21:00:40:533,0,-10.4415,-5.31562,86.6588
2023-03-11 21:00:40:543,0,-10.434,-5.30797,86.6587
2023-03-11 21:00:40:552,0,-10.435,-5.29686,86.6637
2023-03-11 21:00:40:563,0,-10.4434,-5.2878,86.6798
2023-03-11 21:00:40:573,0,-10.455,-5.28117,86.698
2023-03-11 21:00:40:583,0,-10.4643,-5.2758,86.7223
2023-03-11 21:00:40:593,0,-10.4779,-5.27233,86.7503
2023-03-11 21:00:40:603,0,-10.4902,-5.27371,86.7832
2023-03-11 21:00:40:613,0,-10.4972,-5.28258,86.816
2023-03-11 21:00:40:623,0,-10.5039,-5.29681,86.851
2023-03-11 21:00:40:633,0,-10.5064,-5.31875,86.8829
2023-03-11 21:00:40:643,0,-10.5085,-5.34378,86.9097
2023-03-11 21:00:40:653,0,-10.5116,-5.36997,86.9323
2023-03-11 21:00:40:663,0,-10.5121,-5.39341,86.952
2023-03-11 21:00:40:673,0,-10.5104,-5.41504,86.9664
2023-03-11 21:00:40:682,0,-10.5055,-5.43009,86.9742
2023-03-11 21:00:40:692,0,-10.4992,-5.44072,86.976
2023-03-11 21:00:40:703,0,-10.4963,-5.44519,86.9759
2023-03-11 21:00:40:713,0,-10.4918,-5.44514,86.9716
2023-03-11 21:00:40:723,0,-10.4834,-5.44156,86.9648
2023-03-11 21:00:40:733,0,-10.474,-5.43584,86.9537
2023-03-11 21:00:40:743,0,-10.468,-5.42955,86.9417
2023-03-11 21:00:40:753,0,-10.4624,-5.41954,86.9241
2023-03-11 21:00:40:762,0,-10.4564,-5.4075,86.9057
2023-03-11 21:00:40:773,0,-10.4542,-5.39484,86.8888
2023-03-11 21:00:40:783,0,-10.4568,-5.37508,86.8714
2023-03-11 21:00:40:793,0,-10.462,-5.35388,86.8531
2023-03-11 21:00:40:802,0,-10.4733,-5.3275,86.8407
2023-03-11 21:00:40:812,0,-10.4842,-5.30235,86.8362
2023-03-11 21:00:40:822,0,-10.497,-5.28187,86.8349
2023-03-11 21:00:40:832,0,-10.5026,-5.26615,86.8427
2023-03-11 21:00:40:842,0,-10.5072,-5.25344,86.8594
2023-03-11 21:00:40:852,0,-10.5037,-5.2402,86.8771
2023-03-11 21:00:40:862,0,-10.4962,-5.23135,86.9027
2023-03-11 21:00:40:872,0,-10.4826,-5.21687,86.9319
2023-03-11 21:00:40:882,0,-10.4677,-5.20428,86.9627
2023-03-11 21:00:40:892,0,-10.453,-5.18736,86.9902
2023-03-11 21:00:40:902,0,-10.4421,-5.17071,87.0193
2023-03-11 21:00:40:912,0,-10.4387,-5.15826,87.0454
2023-03-11 21:00:40:923,0,-10.4326,-5.15271,87.0734
2023-03-11 21:00:40:933,0,-10.424,-5.15516,87.0952
2023-03-11 21:00:40:942,0,-10.4123,-5.16528,87.1159
2023-03-11 21:00:40:952,0,-10.3932,-5.18053,87.132
2023-03-11 21:00:40:962,0,-10.368,-5.19385,87.1438
2023-03-11 21:00:40:972,0,-10.3377,-5.21131,87.1455
2023-03-11 21:00:40:982,0,-10.3047,-5.22644,87.1428
2023-03-11 21:00:40:992,0,-10.2734,-5.24318,87.1388
2023-03-11 21:00:41:2,0,-10.2454,-5.25763,87.1305
2023-03-11 21:00:41:13,0,-10.2208,-5.2678,87.1172
2023-03-11 21:00:41:23,0,-10.1986,-5.27946,87.0983
2023-03-11 21:00:41:33,0,-10.1745,-5.28269,87.0754
2023-03-11 21:00:41:42,0,-10.1557,-5.28771,87.0448
2023-03-11 21:00:41:52,0,-10.1288,-5.29066,87.0076
2023-03-11 21:00:41:63,0,-10.1003,-5.29655,86.9666
2023-03-11 21:00:41:72,0,-10.0716,-5.29692,86.9192
2023-03-11 21:00:41:83,0,-10.0467,-5.29951,86.8663
2023-03-11 21:00:41:93,0,-10.0273,-5.3001,86.8137
2023-03-11 21:00:41:102,0,-10.0095,-5.30088,86.758
2023-03-11 21:00:41:113,0,-9.99293,-5.30073,86.707
2023-03-11 21:00:41:123,0,-9.97771,-5.29515,86.6535
2023-03-11 21:00:41:132,0,-9.96422,-5.28827,86.605
2023-03-11 21:00:41:143,0,-9.95289,-5.2782,86.5644
2023-03-11 21:00:41:153,0,-9.94424,-5.26649,86.5252
2023-03-11 21:00:41:162,0,-9.93746,-5.25767,86.4921
2023-03-11 21:00:41:173,0,-9.92997,-5.24859,86.4661
2023-03-11 21:00:41:183,0,-9.92092,-5.23755,86.4462
2023-03-11 21:00:41:193,0,-9.9152,-5.22985,86.4317
2023-03-11 21:00:41:203,0,-9.90746,-5.21948,86.4189
2023-03-11 21:00:41:213,0,-9.90342,-5.20907,86.4072
2023-03-11 21:00:41:223,0,-9.90034,-5.19342,86.4032
2023-03-11 21:00:41:233,0,-9.90238,-5.17824,86.4024
2023-03-11 21:00:41:243,0,-9.90803,-5.16382,86.4037
2023-03-11 21:00:41:253,0,-9.91138,-5.14682,86.4046
2023-03-11 21:00:41:263,0,-9.91714,-5.12927,86.4083
2023-03-11 21:00:41:273,0,-9.92513,-5.11181,86.4087
2023-03-11 21:00:41:283,0,-9.9365,-5.09329,86.4152
2023-03-11 21:00:41:293,0,-9.95537,-5.07421,86.4277
2023-03-11 21:00:41:303,0,-9.97523,-5.0585,86.4419
2023-03-11 21:00:41:313,0,-9.99998,-5.04188,86.4572
2023-03-11 21:00:41:323,0,-10.0242,-5.03102,86.478
2023-03-11 21:00:41:332,0,-10.0534,-5.01932,86.4974
2023-03-11 21:00:41:342,0,-10.0824,-5.01164,86.5189
2023-03-11 21:00:41:352,0,-10.1145,-5.00517,86.539
2023-03-11 21:00:41:362,0,-10.1438,-5.00303,86.5555
2023-03-11 21:00:41:373,0,-10.1671,-5.00522,86.5689
2023-03-11 21:00:41:382,0,-10.1822,-5.0046,86.579
2023-03-11 21:00:41:392,0,-10.1858,-5.00289,86.5836
2023-03-11 21:00:41:402,0,-10.186,-5.00082,86.5843
2023-03-11 21:00:41:413,0,-10.1832,-4.99816,86.5793
2023-03-11 21:00:41:423,0,-10.178,-4.99049,86.5685
2023-03-11 21:00:41:433,0,-10.1699,-4.9831,86.5517
2023-03-11 21:00:41:443,0,-10.1654,-4.97162,86.5335
2023-03-11 21:00:41:453,0,-10.16,-4.95389,86.5107
2023-03-11 21:00:41:463,0,-10.1596,-4.93648,86.4874
2023-03-11 21:00:41:473,0,-10.1602,-4.91695,86.4629
2023-03-11 21:00:41:483,0,-10.1627,-4.89069,86.4359
2023-03-11 21:00:41:493,0,-10.162,-4.86529,86.4115
2023-03-11 21:00:41:503,0,-10.1636,-4.83996,86.3925
2023-03-11 21:00:41:513,0,-10.1682,-4.81852,86.3762
2023-03-11 21:00:41:523,0,-10.1709,-4.79818,86.3619
2023-03-11 21:00:41:533,0,-10.1754,-4.78181,86.3483
2023-03-11 21:00:41:543,0,-10.1808,-4.76951,86.3384
2023-03-11 21:00:41:553,0,-10.1858,-4.7513,86.3271
2023-03-11 21:00:41:563,0,-10.1919,-4.73673,86.3181
2023-03-11 21:00:41:573,0,-10.1987,-4.72517,86.3073
2023-03-11 21:00:41:583,0,-10.2038,-4.71825,86.2998
2023-03-11 21:00:41:593,0,-10.2106,-4.71528,86.2873
2023-03-11 21:00:41:603,0,-10.2156,-4.71506,86.2782
2023-03-11 21:00:41:613,0,-10.2165,-4.72335,86.2687
2023-03-11 21:00:41:623,0,-10.2143,-4.73208,86.2651
2023-03-11 21:00:41:633,0,-10.2179,-4.7438,86.2654
2023-03-11 21:00:41:643,0,-10.223,-4.75493,86.2683
2023-03-11 21:00:41:653,0,-10.2274,-4.76699,86.2736
2023-03-11 21:00:41:663,0,-10.2346,-4.77033,86.2825
2023-03-11 21:00:41:673,0,-10.2445,-4.77387,86.2921
2023-03-11 21:00:41:683,0,-10.2532,-4.7761,86.3067
2023-03-11 21:00:41:693,0,-10.2579,-4.77271,86.3153
2023-03-11 21:00:41:703,0,-10.2626,-4.77237,86.3228
2023-03-11 21:00:41:713,0,-10.2587,-4.76526,86.3296
2023-03-11 21:00:41:723,0,-10.2546,-4.76259,86.331
2023-03-11 21:00:41:732,0,-10.2467,-4.75673,86.3297
2023-03-11 21:00:41:742,0,-10.2458,-4.75133,86.3277
2023-03-11 21:00:41:753,0,-10.2432,-4.74962,86.3227
2023-03-11 21:00:41:763,0,-10.2434,-4.74305,86.318
2023-03-11 21:00:41:773,0,-10.2477,-4.73447,86.311
2023-03-11 21:00:41:783,0,-10.2539,-4.73048,86.3033
2023-03-11 21:00:41:793,0,-10.2651,-4.72445,86.2942
2023-03-11 21:00:41:803,0,-10.281,-4.72106,86.2916
2023-03-11 21:00:41:813,0,-10.2924,-4.72017,86.2913
2023-03-11 21:00:41:823,0,-10.3013,-4.71422,86.2909
2023-03-11 21:00:41:833,0,-10.3062,-4.70655,86.2845
2023-03-11 21:00:41:843,0,-10.3004,-4.70795,86.2829
2023-03-11 21:00:41:853,0,-10.2917,-4.70739,86.2813
2023-03-11 21:00:41:863,0,-10.2877,-4.70774,86.2795
2023-03-11 21:00:41:873,0,-10.2873,-4.70428,86.2763
2023-03-11 21:00:41:883,0,-10.2915,-4.69944,86.2732
2023-03-11 21:00:41:893,0,-10.3035,-4.69308,86.2735
2023-03-11 21:00:41:903,0,-10.3171,-4.68852,86.2751
2023-03-11 21:00:41:913,0,-10.3319,-4.68259,86.2832
2023-03-11 21:00:41:923,0,-10.3515,-4.68105,86.2999
2023-03-11 21:00:41:933,0,-10.3707,-4.67857,86.3195
2023-03-11 21:00:41:943,0,-10.39,-4.68341,86.3456
2023-03-11 21:00:41:953,0,-10.4054,-4.69003,86.3746
2023-03-11 21:00:41:963,0,-10.4149,-4.69692,86.4077
2023-03-11 21:00:41:973,0,-10.4198,-4.70854,86.436
2023-03-11 21:00:41:983,0,-10.4214,-4.72192,86.4619
2023-03-11 21:00:41:993,0,-10.4242,-4.73752,86.4894
2023-03-11 21:00:42:3,0,-10.4259,-4.75262,86.5102
2023-03-11 21:00:42:13,0,-10.4238,-4.77068,86.5287
2023-03-11 21:00:42:23,0,-10.4264,-4.79203,86.5415
2023-03-11 21:00:42:33,0,-10.425,-4.81547,86.5534
2023-03-11 21:00:42:43,0,-10.4207,-4.83535,86.5619
2023-03-11 21:00:42:53,0,-10.4153,-4.8494,86.5693
2023-03-11 21:00:42:63,0,-10.4064,-4.86163,86.5713
2023-03-11 21:00:42:73,0,-10.3938,-4.87157,86.5764
2023-03-11 21:00:42:83,0,-10.3801,-4.87935,86.5833
2023-03-11 21:00:42:93,0,-10.3698,-4.88484,86.5915
2023-03-11 21:00:42:103,0,-10.3537,-4.88741,86.5985
2023-03-11 21:00:42:113,0,-10.3445,-4.88966,86.6087
2023-03-11 21:00:42:123,0,-10.339,-4.88638,86.6189
2023-03-11 21:00:42:133,0,-10.3327,-4.88218,86.6281
2023-03-11 21:00:42:143,0,-10.3314,-4.88153,86.6381
2023-03-11 21:00:42:153,0,-10.3307,-4.88284,86.6431
2023-03-11 21:00:42:163,0,-10.3317,-4.88406,86.644
2023-03-11 21:00:42:173,0,-10.328,-4.88715,86.6412
2023-03-11 21:00:42:183,0,-10.3227,-4.89254,86.6393
2023-03-11 21:00:42:193,0,-10.319,-4.89824,86.6393
2023-03-11 21:00:42:203,0,-10.3182,-4.90136,86.6361
2023-03-11 21:00:42:213,0,-10.3181,-4.90456,86.6341
2023-03-11 21:00:42:223,0,-10.3224,-4.90797,86.6315
2023-03-11 21:00:42:233,0,-10.3277,-4.91228,86.6301
2023-03-11 21:00:42:243,0,-10.3318,-4.91384,86.6325
2023-03-11 21:00:42:253,0,-10.3395,-4.91586,86.6363
2023-03-11 21:00:42:263,0,-10.3429,-4.91521,86.6411
2023-03-11 21:00:42:273,0,-10.3416,-4.91843,86.6418
2023-03-11 21:00:42:283,0,-10.3317,-4.92703,86.6457
2023-03-11 21:00:42:293,0,-10.3265,-4.93684,86.6522
2023-03-11 21:00:42:303,0,-10.3239,-4.95176,86.6603
2023-03-11 21:00:42:313,0,-10.3229,-4.96579,86.6684
2023-03-11 21:00:42:323,0,-10.3257,-4.98175,86.6796
2023-03-11 21:00:42:333,0,-10.3346,-4.99235,86.6916
2023-03-11 21:00:42:343,0,-10.3423,-4.99869,86.7031
2023-03-11 21:00:42:353,0,-10.3546,-5.00264,86.7179
2023-03-11 21:00:42:363,0,-10.3655,-5.00703,86.7333
2023-03-11 21:00:42:373,0,-10.3738,-5.00698,86.75
2023-03-11 21:00:42:383,0,-10.3806,-5.00958,86.7686
2023-03-11 21:00:42:393,0,-10.3863,-5.01039,86.7823
2023-03-11 21:00:42:403,0,-10.3923,-5.01135,86.7956
2023-03-11 21:00:42:413,0,-10.3986,-5.00974,86.8062
2023-03-11 21:00:42:423,0,-10.408,-5.00966,86.8118
2023-03-11 21:00:42:433,0,-10.4251,-5.00828,86.8135
2023-03-11 21:00:42:443,0,-10.4386,-5.0097,86.8141
2023-03-11 21:00:42:453,0,-10.4538,-5.00794,86.8148
2023-03-11 21:00:42:463,0,-10.4662,-5.00268,86.8115
2023-03-11 21:00:42:473,0,-10.4746,-4.99991,86.8083
2023-03-11 21:00:42:483,0,-10.4779,-4.99114,86.8028
2023-03-11 21:00:42:493,0,-10.4844,-4.98754,86.8035
2023-03-11 21:00:42:503,0,-10.4878,-4.98051,86.8029
2023-03-11 21:00:42:513,0,-10.4849,-4.97631,86.8045
2023-03-11 21:00:42:523,0,-10.4822,-4.97468,86.8095
2023-03-11 21:00:42:533,0,-10.4723,-4.97481,86.8166
2023-03-11 21:00:42:543,0,-10.4685,-4.97246,86.828
2023-03-11 21:00:42:553,0,-10.4652,-4.96907,86.8403
2023-03-11 21:00:42:563,0,-10.4629,-4.96744,86.8486
2023-03-11 21:00:42:573,0,-10.4611,-4.96523,86.8518
2023-03-11 21:00:42:583,0,-10.4609,-4.95756,86.8541
2023-03-11 21:00:42:593,0,-10.4642,-4.95293,86.8566
2023-03-11 21:00:42:603,0,-10.4702,-4.9517,86.8583
2023-03-11 21:00:42:613,0,-10.4799,-4.95284,86.8622
2023-03-11 21:00:42:623,0,-10.4867,-4.95229,86.8642
2023-03-11 21:00:42:633,0,-10.4928,-4.95524,86.8658
2023-03-11 21:00:42:643,0,-10.5004,-4.95899,86.8664
2023-03-11 21:00:42:653,0,-10.5079,-4.96174,86.8724
2023-03-11 21:00:42:663,0,-10.5226,-4.96635,86.8779
2023-03-11 21:00:42:673,0,-10.5409,-4.97396,86.8854
2023-03-11 21:00:42:683,0,-10.5562,-4.97874,86.8931
2023-03-11 21:00:42:693,0,-10.5719,-4.98265,86.9022
2023-03-11 21:00:42:703,0,-10.5858,-4.98423,86.9128
2023-03-11 21:00:42:713,0,-10.5999,-4.98452,86.9225
2023-03-11 21:00:42:723,0,-10.6117,-4.98936,86.9329
2023-03-11 21:00:42:733,0,-10.6181,-4.99329,86.9433
2023-03-11 21:00:42:743,0,-10.6277,-4.99518,86.9516
2023-03-11 21:00:42:753,0,-10.6336,-4.99528,86.9613
2023-03-11 21:00:42:763,0,-10.6459,-5.00054,86.9684
2023-03-11 21:00:42:773,0,-10.6573,-5.00183,86.9709
2023-03-11 21:00:42:783,0,-10.6692,-5.00316,86.9762
2023-03-11 21:00:42:793,0,-10.6789,-5.00678,86.9807
2023-03-11 21:00:42:803,0,-10.69,-5.00986,86.9865
2023-03-11 21:00:42:813,0,-10.7019,-5.01202,86.9867
2023-03-11 21:00:42:823,0,-10.7126,-5.0152,86.9873
2023-03-11 21:00:42:833,0,-10.7232,-5.02125,86.9892
2023-03-11 21:00:42:843,0,-10.7384,-5.02483,86.9903
2023-03-11 21:00:42:853,0,-10.7482,-5.02761,86.9937
2023-03-11 21:00:42:863,0,-10.7577,-5.03076,87.0028
2023-03-11 21:00:42:873,0,-10.769,-5.0299,87.0094
2023-03-11 21:00:42:883,0,-10.7783,-5.03261,87.0168
2023-03-11 21:00:42:893,0,-10.7792,-5.03621,87.0244
2023-03-11 21:00:42:903,0,-10.779,-5.04059,87.0329
2023-03-11 21:00:42:913,0,-10.7744,-5.04357,87.0388
2023-03-11 21:00:42:923,0,-10.771,-5.04879,87.047
2023-03-11 21:00:42:933,0,-10.7705,-5.05193,87.0514
2023-03-11 21:00:42:943,0,-10.7729,-5.054,87.0557
2023-03-11 21:00:42:953,0,-10.7773,-5.06192,87.0581
2023-03-11 21:00:42:963,0,-10.7817,-5.06983,87.0605
2023-03-11 21:00:42:973,0,-10.7857,-5.0784,87.0635
2023-03-11 21:00:42:983,0,-10.7878,-5.08708,87.065
2023-03-11 21:00:42:993,0,-10.793,-5.10034,87.0761
2023-03-11 21:00:43:3,0,-10.8001,-5.11314,87.0868
2023-03-11 21:00:43:13,0,-10.8116,-5.12278,87.0996
2023-03-11 21:00:43:23,0,-10.8247,-5.12981,87.1122
2023-03-11 21:00:43:33,0,-10.8422,-5.13539,87.1302
2023-03-11 21:00:43:43,0,-10.8571,-5.14126,87.1456
2023-03-11 21:00:43:53,0,-10.8697,-5.14272,87.1646
2023-03-11 21:00:43:63,0,-10.8841,-5.15134,87.1809
2023-03-11 21:00:43:73,0,-10.8982,-5.15542,87.1921
2023-03-11 21:00:43:83,0,-10.9064,-5.15895,87.2015
2023-03-11 21:00:43:93,0,-10.917,-5.16201,87.2071
2023-03-11 21:00:43:103,0,-10.9322,-5.1634,87.2114
2023-03-11 21:00:43:113,0,-10.9441,-5.16676,87.212
2023-03-11 21:00:43:123,0,-10.9574,-5.17042,87.2087
2023-03-11 21:00:43:133,0,-10.9658,-5.17495,87.205
2023-03-11 21:00:43:143,0,-10.9733,-5.17941,87.1963
2023-03-11 21:00:43:153,0,-10.9821,-5.18557,87.1894
2023-03-11 21:00:43:163,0,-10.9923,-5.18781,87.1866
2023-03-11 21:00:43:173,0,-11.0036,-5.19045,87.1849
2023-03-11 21:00:43:183,0,-11.0121,-5.1928,87.1827
2023-03-11 21:00:43:193,0,-11.0129,-5.18768,87.1816
2023-03-11 21:00:43:203,0,-11.0065,-5.1818,87.1804
2023-03-11 21:00:43:213,0,-10.9941,-5.17493,87.1814
2023-03-11 21:00:43:223,0,-10.9832,-5.16857,87.1845
2023-03-11 21:00:43:233,0,-10.9731,-5.16176,87.1902
2023-03-11 21:00:43:243,0,-10.9624,-5.1571,87.197
2023-03-11 21:00:43:253,0,-10.9521,-5.15413,87.2006
2023-03-11 21:00:43:263,0,-10.9457,-5.15164,87.2047
2023-03-11 21:00:43:273,0,-10.9418,-5.15249,87.2091
2023-03-11 21:00:43:283,0,-10.9342,-5.15773,87.2091
2023-03-11 21:00:43:293,0,-10.9228,-5.15919,87.2066
2023-03-11 21:00:43:303,0,-10.9054,-5.16535,87.1993
2023-03-11 21:00:43:313,0,-10.8927,-5.1727,87.1918
2023-03-11 21:00:43:322,0,-10.8798,-5.18644,87.1789
2023-03-11 21:00:43:332,0,-10.87,-5.1948,87.1685
2023-03-11 21:00:43:343,0,-10.8596,-5.207,87.1592
2023-03-11 21:00:43:353,0,-10.8509,-5.22104,87.1511
2023-03-11 21:00:43:363,0,-10.8457,-5.23286,87.1472
2023-03-11 21:00:43:373,0,-10.8409,-5.25024,87.1458
2023-03-11 21:00:43:383,0,-10.8357,-5.26391,87.155
2023-03-11 21:00:43:393,0,-10.8311,-5.27833,87.1607
2023-03-11 21:00:43:403,0,-10.8257,-5.28694,87.1711
2023-03-11 21:00:43:413,0,-10.8204,-5.29653,87.1865
2023-03-11 21:00:43:423,0,-10.8192,-5.30453,87.2046
2023-03-11 21:00:43:433,0,-10.8208,-5.30786,87.2247
2023-03-11 21:00:43:443,0,-10.8255,-5.30928,87.2433
2023-03-11 21:00:43:453,0,-10.8299,-5.30445,87.2614
2023-03-11 21:00:43:463,0,-10.8354,-5.30268,87.2787
2023-03-11 21:00:43:473,0,-10.842,-5.2973,87.2933
2023-03-11 21:00:43:483,0,-10.8491,-5.2909,87.3065
2023-03-11 21:00:43:493,0,-10.8571,-5.28516,87.3158
2023-03-11 21:00:43:503,0,-10.8679,-5.28212,87.3216
2023-03-11 21:00:43:513,0,-10.8803,-5.27497,87.3246
2023-03-11 21:00:43:523,0,-10.8965,-5.26412,87.328
2023-03-11 21:00:43:533,0,-10.9134,-5.25848,87.3272
2023-03-11 21:00:43:543,0,-10.9281,-5.2559,87.3219
2023-03-11 21:00:43:553,0,-10.9439,-5.24452,87.3174
2023-03-11 21:00:43:563,0,-10.9554,-5.23382,87.3085
2023-03-11 21:00:43:573,0,-10.9582,-5.22,87.2973
2023-03-11 21:00:43:583,0,-10.9551,-5.20209,87.2843
2023-03-11 21:00:43:593,0,-10.9449,-5.17675,87.2709
2023-03-11 21:00:43:603,0,-10.9361,-5.1486,87.2579
2023-03-11 21:00:43:613,0,-10.9356,-5.11977,87.2456
2023-03-11 21:00:43:623,0,-10.9436,-5.10239,87.237
2023-03-11 21:00:43:633,0,-10.9573,-5.09037,87.2262
2023-03-11 21:00:43:643,0,-10.977,-5.08061,87.216
2023-03-11 21:00:43:653,0,-10.9939,-5.06768,87.2035
2023-03-11 21:00:43:663,0,-11.0061,-5.04881,87.1813
2023-03-11 21:00:43:673,0,-11.0233,-5.02612,87.1599
2023-03-11 21:00:43:683,0,-11.046,-5.00707,87.1399
2023-03-11 21:00:43:693,0,-11.0727,-4.99171,87.1198
2023-03-11 21:00:43:703,0,-11.0995,-4.98146,87.1082
2023-03-11 21:00:43:713,0,-11.1269,-4.97614,87.0947
2023-03-11 21:00:43:723,0,-11.1597,-4.96672,87.0813
2023-03-11 21:00:43:733,0,-11.1925,-4.9573,87.0652
2023-03-11 21:00:43:743,0,-11.2309,-4.94836,87.048
2023-03-11 21:00:43:753,0,-11.268,-4.94487,87.0278
2023-03-11 21:00:43:763,0,-11.3028,-4.943,87.0038
2023-03-11 21:00:43:773,0,-11.3392,-4.94461,86.9839
2023-03-11 21:00:43:783,0,-11.3727,-4.94842,86.9651
2023-03-11 21:00:43:793,0,-11.4067,-4.95678,86.951
2023-03-11 21:00:43:803,0,-11.4372,-4.97257,86.9347
2023-03-11 21:00:43:813,0,-11.4565,-4.9829,86.9187
2023-03-11 21:00:43:823,0,-11.4641,-4.99428,86.8985
2023-03-11 21:00:43:833,0,-11.464,-5.00409,86.875
2023-03-11 21:00:43:843,0,-11.4533,-5.01928,86.849
2023-03-11 21:00:43:853,0,-11.4458,-5.03723,86.8256
2023-03-11 21:00:43:863,0,-11.4473,-5.05639,86.8058
2023-03-11 21:00:43:873,0,-11.4617,-5.08189,86.7874
2023-03-11 21:00:43:883,0,-11.4841,-5.1064,86.7787
2023-03-11 21:00:43:893,0,-11.5132,-5.12377,86.77
2023-03-11 21:00:43:903,0,-11.5439,-5.13547,86.7624
2023-03-11 21:00:43:913,0,-11.5693,-5.14637,86.7594
2023-03-11 21:00:43:923,0,-11.5881,-5.16257,86.7662
2023-03-11 21:00:43:933,0,-11.6015,-5.17799,86.774
2023-03-11 21:00:43:943,0,-11.6008,-5.1942,86.7838
2023-03-11 21:00:43:953,0,-11.5919,-5.207,86.7954
2023-03-11 21:00:43:963,0,-11.5806,-5.21247,86.8021
2023-03-11 21:00:43:973,0,-11.5709,-5.21302,86.8029
2023-03-11 21:00:43:983,0,-11.5604,-5.21634,86.8079
2023-03-11 21:00:43:993,0,-11.5539,-5.21494,86.8119
2023-03-11 21:00:44:3,0,-11.5472,-5.21398,86.8123
2023-03-11 21:00:44:13,0,-11.5389,-5.21478,86.8147
2023-03-11 21:00:44:23,0,-11.5323,-5.2156,86.8139
2023-03-11 21:00:44:32,0,-11.5232,-5.21852,86.8192
2023-03-11 21:00:44:43,0,-11.5106,-5.216,86.8204
2023-03-11 21:00:44:53,0,-11.4954,-5.203,86.8192
2023-03-11 21:00:44:63,0,-11.4885,-5.1885,86.8169
2023-03-11 21:00:44:73,0,-11.4836,-5.17682,86.8192
2023-03-11 21:00:44:83,0,-11.4799,-5.16247,86.8221
2023-03-11 21:00:44:93,0,-11.4799,-5.14816,86.83
2023-03-11 21:00:44:103,0,-11.4725,-5.13626,86.8422
2023-03-11 21:00:44:113,0,-11.4617,-5.12584,86.8583
2023-03-11 21:00:44:123,0,-11.4507,-5.12241,86.884
2023-03-11 21:00:44:133,0,-11.429,-5.1222,86.9146
2023-03-11 21:00:44:143,0,-11.4005,-5.12607,86.9436
2023-03-11 21:00:44:153,0,-11.3682,-5.12944,86.9755
2023-03-11 21:00:44:163,0,-11.3341,-5.13627,86.9937
2023-03-11 21:00:44:173,0,-11.2977,-5.14913,87.0048
2023-03-11 21:00:44:183,0,-11.2632,-5.16698,87.0097
2023-03-11 21:00:44:193,0,-11.2385,-5.18968,87.0078
2023-03-11 21:00:44:203,0,-11.2204,-5.21252,87.0057
2023-03-11 21:00:44:213,0,-11.2082,-5.23896,87.0052
2023-03-11 21:00:44:223,0,-11.1979,-5.26716,87.0054
2023-03-11 21:00:44:233,0,-11.1855,-5.29168,87.0051
2023-03-11 21:00:44:243,0,-11.1676,-5.3118,87.0049
2023-03-11 21:00:44:253,0,-11.1512,-5.32847,87.0054
2023-03-11 21:00:44:263,0,-11.1224,-5.34128,87.0078
2023-03-11 21:00:44:273,0,-11.0849,-5.34887,87.0023
2023-03-11 21:00:44:283,0,-11.0453,-5.34782,86.9927
2023-03-11 21:00:44:293,0,-10.9961,-5.34573,86.9805
2023-03-11 21:00:44:303,0,-10.9513,-5.34161,86.9682
2023-03-11 21:00:44:313,0,-10.9045,-5.33303,86.9575
2023-03-11 21:00:44:323,0,-10.8627,-5.32655,86.9446
2023-03-11 21:00:44:333,0,-10.8241,-5.32005,86.9385
2023-03-11 21:00:44:343,0,-10.7976,-5.31795,86.9359
2023-03-11 21:00:44:353,0,-10.7705,-5.31905,86.9369
2023-03-11 21:00:44:363,0,-10.7469,-5.31791,86.9427
2023-03-11 21:00:44:373,0,-10.7223,-5.31271,86.9449
2023-03-11 21:00:44:383,0,-10.6975,-5.31105,86.9375
2023-03-11 21:00:44:393,0,-10.6719,-5.31424,86.9256
2023-03-11 21:00:44:403,0,-10.6461,-5.31625,86.9107
2023-03-11 21:00:44:413,0,-10.6251,-5.32327,86.8912
2023-03-11 21:00:44:423,0,-10.6112,-5.33145,86.8696
2023-03-11 21:00:44:433,0,-10.6163,-5.34122,86.8457
2023-03-11 21:00:44:443,0,-10.6317,-5.34802,86.8224
2023-03-11 21:00:44:453,0,-10.6538,-5.34955,86.8029
2023-03-11 21:00:44:463,0,-10.6777,-5.35002,86.7826
2023-03-11 21:00:44:473,0,-10.6952,-5.34761,86.7652
2023-03-11 21:00:44:483,0,-10.7085,-5.34375,86.7584
2023-03-11 21:00:44:493,0,-10.7164,-5.34162,86.7603
2023-03-11 21:00:44:503,0,-10.7205,-5.34047,86.7667
2023-03-11 21:00:44:513,0,-10.7281,-5.33752,86.7835
2023-03-11 21:00:44:523,0,-10.7331,-5.33343,86.8075
2023-03-11 21:00:44:533,0,-10.7422,-5.32797,86.8371
2023-03-11 21:00:44:543,0,-10.7488,-5.3213,86.872
2023-03-11 21:00:44:553,0,-10.7596,-5.31394,86.9103
2023-03-11 21:00:44:563,0,-10.7597,-5.31193,86.9598
2023-03-11 21:00:44:573,0,-10.7506,-5.30789,87.011
2023-03-11 21:00:44:583,0,-10.7307,-5.30873,87.062
2023-03-11 21:00:44:593,0,-10.7025,-5.31351,87.1145
2023-03-11 21:00:44:603,0,-10.663,-5.32653,87.1587
2023-03-11 21:00:44:613,0,-10.6134,-5.3444,87.199
2023-03-11 21:00:44:623,0,-10.5613,-5.3641,87.2256
2023-03-11 21:00:44:633,0,-10.5064,-5.38624,87.2436
2023-03-11 21:00:44:643,0,-10.4463,-5.42118,87.2507
2023-03-11 21:00:44:653,0,-10.3884,-5.45898,87.2425
2023-03-11 21:00:44:663,0,-10.3295,-5.49705,87.2283
2023-03-11 21:00:44:673,0,-10.2778,-5.53572,87.2037
2023-03-11 21:00:44:683,0,-10.2299,-5.57269,87.1763
2023-03-11 21:00:44:693,0,-10.1912,-5.60392,87.145
2023-03-11 21:00:44:703,0,-10.1669,-5.626,87.1174
2023-03-11 21:00:44:713,0,-10.1473,-5.63876,87.0899
2023-03-11 21:00:44:723,0,-10.1341,-5.64903,87.0761
2023-03-11 21:00:44:733,0,-10.1348,-5.66068,87.0751
2023-03-11 21:00:44:743,0,-10.1381,-5.67101,87.0851
2023-03-11 21:00:44:753,0,-10.1456,-5.68752,87.1053
2023-03-11 21:00:44:763,0,-10.1615,-5.70016,87.134
2023-03-11 21:00:44:773,0,-10.1821,-5.71501,87.1652
2023-03-11 21:00:44:783,0,-10.1987,-5.72898,87.1999
2023-03-11 21:00:44:793,0,-10.2177,-5.74513,87.2356
2023-03-11 21:00:44:803,0,-10.2422,-5.76358,87.2737
2023-03-11 21:00:44:813,0,-10.2667,-5.7855,87.3159
2023-03-11 21:00:44:823,0,-10.2926,-5.80781,87.3558
2023-03-11 21:00:44:833,0,-10.3224,-5.82771,87.396
2023-03-11 21:00:44:843,0,-10.3538,-5.8488,87.4327
2023-03-11 21:00:44:853,0,-10.3849,-5.86704,87.4671
2023-03-11 21:00:44:863,0,-10.4108,-5.8763,87.4958
2023-03-11 21:00:44:873,0,-10.4292,-5.88175,87.5147
2023-03-11 21:00:44:883,0,-10.4439,-5.88343,87.5244
2023-03-11 21:00:44:893,0,-10.4491,-5.88067,87.5226
2023-03-11 21:00:44:903,0,-10.4518,-5.87719,87.5124
2023-03-11 21:00:44:913,0,-10.4514,-5.87054,87.4965
2023-03-11 21:00:44:923,0,-10.4433,-5.86123,87.4779
2023-03-11 21:00:44:933,0,-10.4322,-5.85795,87.4543
2023-03-11 21:00:44:943,0,-10.4219,-5.8527,87.427
2023-03-11 21:00:44:953,0,-10.4094,-5.84799,87.4025
2023-03-11 21:00:44:963,0,-10.399,-5.84165,87.3795
2023-03-11 21:00:44:973,0,-10.3887,-5.83261,87.3591
2023-03-11 21:00:44:983,0,-10.3752,-5.82839,87.3489
2023-03-11 21:00:44:993,0,-10.3607,-5.82437,87.3438
2023-03-11 21:00:45:3,0,-10.3397,-5.82444,87.342
2023-03-11 21:00:45:13,0,-10.3222,-5.82487,87.3516
2023-03-11 21:00:45:23,0,-10.3067,-5.82598,87.3664
2023-03-11 21:00:45:33,0,-10.2926,-5.83093,87.3901
2023-03-11 21:00:45:43,0,-10.2788,-5.8366,87.4169
2023-03-11 21:00:45:53,0,-10.2741,-5.84498,87.4438
2023-03-11 21:00:45:63,0,-10.2703,-5.85323,87.4708
2023-03-11 21:00:45:73,0,-10.2634,-5.86457,87.492
2023-03-11 21:00:45:83,0,-10.252,-5.87228,87.5027
2023-03-11 21:00:45:93,0,-10.2398,-5.87994,87.5057
2023-03-11 21:00:45:103,0,-10.228,-5.88684,87.4959
2023-03-11 21:00:45:113,0,-10.2154,-5.89207,87.4767
2023-03-11 21:00:45:123,0,-10.2053,-5.90365,87.4477
2023-03-11 21:00:45:133,0,-10.1917,-5.92028,87.4138
2023-03-11 21:00:45:143,0,-10.182,-5.93764,87.3803
2023-03-11 21:00:45:153,0,-10.1791,-5.95287,87.3469
2023-03-11 21:00:45:163,0,-10.1828,-5.96575,87.3152
2023-03-11 21:00:45:173,0,-10.1875,-5.98144,87.2872
2023-03-11 21:00:45:183,0,-10.1907,-5.99031,87.2609
2023-03-11 21:00:45:193,0,-10.1982,-5.9989,87.2358
2023-03-11 21:00:45:203,0,-10.2061,-6.01032,87.2151
2023-03-11 21:00:45:213,0,-10.2082,-6.02606,87.2023
2023-03-11 21:00:45:223,0,-10.2095,-6.04254,87.1912
2023-03-11 21:00:45:233,0,-10.2128,-6.06142,87.1944
2023-03-11 21:00:45:243,0,-10.2229,-6.07923,87.2044
2023-03-11 21:00:45:253,0,-10.2371,-6.1027,87.2263
2023-03-11 21:00:45:263,0,-10.2539,-6.12932,87.2631
2023-03-11 21:00:45:273,0,-10.2713,-6.1579,87.3118
2023-03-11 21:00:45:283,0,-10.2873,-6.19051,87.3738
2023-03-11 21:00:45:293,0,-10.2987,-6.22776,87.4456
2023-03-11 21:00:45:303,0,-10.3089,-6.26201,87.523
2023-03-11 21:00:45:313,0,-10.3212,-6.30086,87.6076
2023-03-11 21:00:45:323,0,-10.3324,-6.33937,87.689
2023-03-11 21:00:45:333,0,-10.3441,-6.37306,87.7665
2023-03-11 21:00:45:343,0,-10.3506,-6.40178,87.8301
2023-03-11 21:00:45:353,0,-10.3419,-6.42245,87.8768
2023-03-11 21:00:45:363,0,-10.3343,-6.44319,87.9157
2023-03-11 21:00:45:373,0,-10.3221,-6.45903,87.9448
2023-03-11 21:00:45:383,0,-10.3066,-6.46932,87.9624
2023-03-11 21:00:45:393,0,-10.2871,-6.47273,87.9672
2023-03-11 21:00:45:403,0,-10.2709,-6.47224,87.9587
2023-03-11 21:00:45:413,0,-10.2628,-6.46629,87.9411
2023-03-11 21:00:45:423,0,-10.2597,-6.45997,87.9204
2023-03-11 21:00:45:433,0,-10.2631,-6.45184,87.888
2023-03-11 21:00:45:443,0,-10.2747,-6.44162,87.8506
2023-03-11 21:00:45:453,0,-10.2936,-6.42622,87.8073
2023-03-11 21:00:45:463,0,-10.3162,-6.41166,87.7586
2023-03-11 21:00:45:473,0,-10.3447,-6.39897,87.7102
2023-03-11 21:00:45:483,0,-10.3739,-6.39553,87.656
2023-03-11 21:00:45:493,0,-10.399,-6.39559,87.6025
2023-03-11 21:00:45:503,0,-10.4224,-6.40279,87.5465
2023-03-11 21:00:45:513,0,-10.4389,-6.41617,87.4924
2023-03-11 21:00:45:523,0,-10.4507,-6.43969,87.4447
2023-03-11 21:00:45:533,0,-10.4615,-6.46641,87.3983
2023-03-11 21:00:45:543,0,-10.4742,-6.49571,87.3588
2023-03-11 21:00:45:553,0,-10.4851,-6.52628,87.3304
2023-03-11 21:00:45:563,0,-10.5014,-6.55112,87.3087
2023-03-11 21:00:45:573,0,-10.5155,-6.56778,87.2903
2023-03-11 21:00:45:583,0,-10.5294,-6.5814,87.2754
2023-03-11 21:00:45:593,0,-10.5379,-6.58842,87.2687
2023-03-11 21:00:45:603,0,-10.5472,-6.59025,87.2649
2023-03-11 21:00:45:613,0,-10.5551,-6.58915,87.2617
2023-03-11 21:00:45:623,0,-10.5652,-6.5861,87.2621
2023-03-11 21:00:45:633,0,-10.5756,-6.57168,87.2612
2023-03-11 21:00:45:643,0,-10.5863,-6.5539,87.2576
2023-03-11 21:00:45:653,0,-10.5866,-6.54015,87.2503
2023-03-11 21:00:45:663,0,-10.5852,-6.52084,87.2427
2023-03-11 21:00:45:673,0,-10.5814,-6.49879,87.2309
2023-03-11 21:00:45:683,0,-10.5755,-6.47834,87.2196
2023-03-11 21:00:45:693,0,-10.5653,-6.46329,87.2088
2023-03-11 21:00:45:703,0,-10.5573,-6.447,87.1996
2023-03-11 21:00:45:713,0,-10.5486,-6.43376,87.1952
2023-03-11 21:00:45:723,0,-10.5366,-6.42404,87.194
2023-03-11 21:00:45:733,0,-10.5228,-6.41501,87.1986
2023-03-11 21:00:45:743,0,-10.5043,-6.40785,87.2067
2023-03-11 21:00:45:753,0,-10.4826,-6.39412,87.2109
2023-03-11 21:00:45:763,0,-10.461,-6.38397,87.2165
2023-03-11 21:00:45:773,0,-10.4386,-6.37615,87.218
2023-03-11 21:00:45:783,0,-10.4196,-6.36698,87.2193
2023-03-11 21:00:45:793,0,-10.4022,-6.36072,87.216
2023-03-11 21:00:45:803,0,-10.3824,-6.3597,87.2096
2023-03-11 21:00:45:813,0,-10.3653,-6.35937,87.2025
2023-03-11 21:00:45:823,0,-10.3465,-6.35788,87.1918
2023-03-11 21:00:45:833,0,-10.3198,-6.35898,87.1771
2023-03-11 21:00:45:843,0,-10.2878,-6.36646,87.1627
2023-03-11 21:00:45:853,0,-10.2566,-6.37518,87.1493
2023-03-11 21:00:45:863,0,-10.2267,-6.37933,87.1381
2023-03-11 21:00:45:873,0,-10.2044,-6.38398,87.1288
2023-03-11 21:00:45:883,0,-10.1863,-6.3843,87.1251
2023-03-11 21:00:45:893,0,-10.1679,-6.3861,87.1203
2023-03-11 21:00:45:903,0,-10.1494,-6.38343,87.1192
2023-03-11 21:00:45:913,0,-10.1311,-6.38033,87.1181
2023-03-11 21:00:45:923,0,-10.1136,-6.37962,87.1226
2023-03-11 21:00:45:933,0,-10.101,-6.37673,87.1227
2023-03-11 21:00:45:943,0,-10.0848,-6.36783,87.1189
2023-03-11 21:00:45:953,0,-10.071,-6.35516,87.1105
2023-03-11 21:00:45:963,0,-10.0613,-6.34574,87.0987
2023-03-11 21:00:45:973,0,-10.0538,-6.33359,87.0854
2023-03-11 21:00:45:983,0,-10.0545,-6.32166,87.071
2023-03-11 21:00:45:993,0,-10.0591,-6.31302,87.0542
2023-03-11 21:00:46:3,0,-10.0655,-6.30204,87.041
2023-03-11 21:00:46:13,0,-10.0734,-6.29242,87.0264
2023-03-11 21:00:46:23,0,-10.0813,-6.28469,87.017
2023-03-11 21:00:46:33,0,-10.0878,-6.27879,87.0151
2023-03-11 21:00:46:43,0,-10.0954,-6.27521,87.0177
2023-03-11 21:00:46:53,0,-10.1018,-6.26534,87.0214
2023-03-11 21:00:46:63,0,-10.0961,-6.25795,87.0258
2023-03-11 21:00:46:73,0,-10.0973,-6.25435,87.028
2023-03-11 21:00:46:83,0,-10.0917,-6.25013,87.0318
2023-03-11 21:00:46:93,0,-10.0867,-6.24781,87.0374
2023-03-11 21:00:46:103,0,-10.0881,-6.24502,87.0409
2023-03-11 21:00:46:113,0,-10.0885,-6.24061,87.0408
2023-03-11 21:00:46:123,0,-10.0933,-6.23204,87.0377
2023-03-11 21:00:46:133,0,-10.0937,-6.22343,87.0289
2023-03-11 21:00:46:143,0,-10.1022,-6.21091,87.0219
2023-03-11 21:00:46:153,0,-10.1092,-6.20157,87.0126
2023-03-11 21:00:46:163,0,-10.1139,-6.19519,87.0023
2023-03-11 21:00:46:173,0,-10.1175,-6.1864,86.994
2023-03-11 21:00:46:183,0,-10.1198,-6.17827,86.9841
2023-03-11 21:00:46:193,0,-10.1201,-6.16924,86.9733
2023-03-11 21:00:46:203,0,-10.1212,-6.1606,86.9661
2023-03-11 21:00:46:213,0,-10.1191,-6.15744,86.9587
2023-03-11 21:00:46:223,0,-10.1216,-6.15425,86.9571
2023-03-11 21:00:46:233,0,-10.125,-6.15116,86.9593
2023-03-11 21:00:46:243,0,-10.126,-6.15239,86.9632
2023-03-11 21:00:46:253,0,-10.1319,-6.15339,86.9707
2023-03-11 21:00:46:263,0,-10.1414,-6.15187,86.9819
2023-03-11 21:00:46:273,0,-10.1525,-6.15319,86.993
2023-03-11 21:00:46:283,0,-10.1625,-6.15413,87.0012
2023-03-11 21:00:46:293,0,-10.1765,-6.15811,87.0121
2023-03-11 21:00:46:303,0,-10.179,-6.16077,87.0248
2023-03-11 21:00:46:313,0,-10.1817,-6.1638,87.0341
2023-03-11 21:00:46:323,0,-10.1839,-6.16636,87.042
2023-03-11 21:00:46:333,0,-10.1816,-6.16955,87.05
2023-03-11 21:00:46:343,0,-10.1789,-6.17091,87.0586
2023-03-11 21:00:46:353,0,-10.1732,-6.17347,87.0665
2023-03-11 21:00:46:363,0,-10.1683,-6.1755,87.0716
2023-03-11 21:00:46:373,0,-10.1644,-6.17899,87.0725
2023-03-11 21:00:46:383,0,-10.1608,-6.18195,87.0747
2023-03-11 21:00:46:393,0,-10.1583,-6.18984,87.077
2023-03-11 21:00:46:403,0,-10.1559,-6.1961,87.0775
2023-03-11 21:00:46:413,0,-10.1508,-6.20208,87.0811
2023-03-11 21:00:46:423,0,-10.1465,-6.2078,87.0812
2023-03-11 21:00:46:433,0,-10.1384,-6.21456,87.0787
2023-03-11 21:00:46:443,0,-10.1335,-6.21914,87.0773
2023-03-11 21:00:46:453,0,-10.1258,-6.22078,87.0735
2023-03-11 21:00:46:463,0,-10.1171,-6.22252,87.0715
2023-03-11 21:00:46:473,0,-10.1098,-6.22074,87.0678
2023-03-11 21:00:46:483,0,-10.0973,-6.21503,87.0654
2023-03-11 21:00:46:493,0,-10.0905,-6.20694,87.0638
2023-03-11 21:00:46:503,0,-10.0802,-6.20482,87.0622
2023-03-11 21:00:46:513,0,-10.0723,-6.20021,87.0567
2023-03-11 21:00:46:523,0,-10.0597,-6.19133,87.0528
2023-03-11 21:00:46:533,0,-10.0495,-6.18402,87.0491
2023-03-11 21:00:46:543,0,-10.035,-6.18154,87.0432
2023-03-11 21:00:46:553,0,-10.0182,-6.17782,87.0388
2023-03-11 21:00:46:563,0,-9.99802,-6.17888,87.0388
2023-03-11 21:00:46:573,0,-9.98185,-6.18519,87.0463
2023-03-11 21:00:46:583,0,-9.97247,-6.19136,87.0571
2023-03-11 21:00:46:593,0,-9.9738,-6.19442,87.0724
2023-03-11 21:00:46:603,0,-9.9842,-6.19858,87.0883
2023-03-11 21:00:46:613,0,-9.99207,-6.20217,87.1048
2023-03-11 21:00:46:623,0,-10.0031,-6.20566,87.1222
2023-03-11 21:00:46:633,0,-10.011,-6.20752,87.1419
2023-03-11 21:00:46:643,0,-10.0127,-6.21303,87.16
2023-03-11 21:00:46:653,0,-10.012,-6.21753,87.1759
2023-03-11 21:00:46:663,0,-10.0059,-6.22379,87.1847
2023-03-11 21:00:46:673,0,-10.0025,-6.2284,87.1965
2023-03-11 21:00:46:683,0,-9.99935,-6.23131,87.1989
2023-03-11 21:00:46:693,0,-10.0011,-6.23412,87.197
2023-03-11 21:00:46:703,0,-10.0036,-6.23074,87.1939
2023-03-11 21:00:46:713,0,-10.0085,-6.23111,87.1912
2023-03-11 21:00:46:723,0,-10.0184,-6.22816,87.1863
2023-03-11 21:00:46:733,0,-10.0303,-6.22557,87.1777
2023-03-11 21:00:46:743,0,-10.0404,-6.22943,87.1716
2023-03-11 21:00:46:753,0,-10.0509,-6.23029,87.1617
2023-03-11 21:00:46:763,0,-10.0548,-6.23185,87.1512
2023-03-11 21:00:46:773,0,-10.0595,-6.22827,87.1378
2023-03-11 21:00:46:783,0,-10.0604,-6.22242,87.1263
2023-03-11 21:00:46:793,0,-10.0517,-6.22291,87.1169
2023-03-11 21:00:46:803,0,-10.0446,-6.22789,87.1084
2023-03-11 21:00:46:813,0,-10.0358,-6.22984,87.1071
2023-03-11 21:00:46:823,0,-10.0291,-6.23035,87.1063
2023-03-11 21:00:46:833,0,-10.0252,-6.23109,87.1067
2023-03-11 21:00:46:843,0,-10.0218,-6.22688,87.1082
2023-03-11 21:00:46:853,0,-10.0178,-6.22351,87.1118
2023-03-11 21:00:46:863,0,-10.0141,-6.22085,87.1137
2023-03-11 21:00:46:873,0,-10.0101,-6.22064,87.1173
2023-03-11 21:00:46:883,0,-10.0011,-6.22053,87.1224
2023-03-11 21:00:46:893,0,-9.98901,-6.21237,87.1271
2023-03-11 21:00:46:903,0,-9.97448,-6.21762,87.1311
2023-03-11 21:00:46:913,0,-9.96388,-6.22306,87.1405
2023-03-11 21:00:46:923,0,-9.95237,-6.22904,87.1468
2023-03-11 21:00:46:933,0,-9.94151,-6.23522,87.1565
2023-03-11 21:00:46:943,0,-9.93108,-6.23733,87.1671
2023-03-11 21:00:46:953,0,-9.91841,-6.24317,87.1788
2023-03-11 21:00:46:963,0,-9.90638,-6.24892,87.1925
2023-03-11 21:00:46:973,0,-9.89957,-6.25829,87.2058
2023-03-11 21:00:46:983,0,-9.88942,-6.26531,87.2214
2023-03-11 21:00:46:993,0,-9.87566,-6.27039,87.2371
2023-03-11 21:00:47:3,0,-9.86247,-6.27341,87.2511
2023-03-11 21:00:47:13,0,-9.84793,-6.27355,87.2645
2023-03-11 21:00:47:23,0,-9.82956,-6.2804,87.2757
2023-03-11 21:00:47:33,0,-9.81315,-6.28557,87.2839
2023-03-11 21:00:47:43,0,-9.79965,-6.28631,87.2932
2023-03-11 21:00:47:53,0,-9.7823,-6.29151,87.2983
2023-03-11 21:00:47:63,0,-9.76604,-6.29328,87.3033
2023-03-11 21:00:47:73,0,-9.75511,-6.29777,87.3042
2023-03-11 21:00:47:83,0,-9.74568,-6.29989,87.3043
2023-03-11 21:00:47:93,0,-9.73958,-6.30435,87.3007
2023-03-11 21:00:47:103,0,-9.72622,-6.30143,87.2998
2023-03-11 21:00:47:113,0,-9.71659,-6.30805,87.2984
2023-03-11 21:00:47:123,0,-9.70909,-6.30808,87.297
2023-03-11 21:00:47:132,0,-9.70677,-6.30475,87.2977
2023-03-11 21:00:47:142,0,-9.69846,-6.30561,87.2989
2023-03-11 21:00:47:153,0,-9.69368,-6.3007,87.3012
2023-03-11 21:00:47:163,0,-9.69027,-6.2981,87.3072
2023-03-11 21:00:47:173,0,-9.69082,-6.29338,87.3133
2023-03-11 21:00:47:183,0,-9.69383,-6.2881,87.3206
2023-03-11 21:00:47:193,0,-9.69777,-6.28389,87.3283
2023-03-11 21:00:47:203,0,-9.69386,-6.27715,87.3326
2023-03-11 21:00:47:213,0,-9.6905,-6.26932,87.3331
2023-03-11 21:00:47:223,0,-9.68693,-6.26174,87.3353
2023-03-11 21:00:47:233,0,-9.68546,-6.24995,87.3389
2023-03-11 21:00:47:243,0,-9.68605,-6.23931,87.342
2023-03-11 21:00:47:253,0,-9.68464,-6.23043,87.3425
2023-03-11 21:00:47:263,0,-9.68232,-6.21858,87.3474
2023-03-11 21:00:47:273,0,-9.68255,-6.20399,87.3484
2023-03-11 21:00:47:283,0,-9.67856,-6.19954,87.3504
2023-03-11 21:00:47:293,0,-9.67172,-6.20081,87.3524
2023-03-11 21:00:47:303,0,-9.67089,-6.20293,87.3571
2023-03-11 21:00:47:313,0,-9.67055,-6.20804,87.3657
2023-03-11 21:00:47:322,0,-9.67365,-6.21348,87.3711
2023-03-11 21:00:47:333,0,-9.68049,-6.21835,87.3825
2023-03-11 21:00:47:343,0,-9.68802,-6.22151,87.3925
2023-03-11 21:00:47:353,0,-9.68992,-6.22568,87.4027
2023-03-11 21:00:47:363,0,-9.69257,-6.22884,87.4147
2023-03-11 21:00:47:373,0,-9.69653,-6.23167,87.4242
2023-03-11 21:00:47:383,0,-9.69826,-6.22864,87.4323
2023-03-11 21:00:47:393,0,-9.70097,-6.22979,87.4399
2023-03-11 21:00:47:403,0,-9.69967,-6.23028,87.4443
2023-03-11 21:00:47:413,0,-9.70163,-6.2308,87.4461
2023-03-11 21:00:47:423,0,-9.70646,-6.23447,87.4457
2023-03-11 21:00:47:433,0,-9.71301,-6.2324,87.4421
2023-03-11 21:00:47:443,0,-9.71811,-6.22753,87.4383
2023-03-11 21:00:47:453,0,-9.72624,-6.22177,87.4326
2023-03-11 21:00:47:463,0,-9.73389,-6.21823,87.4278
2023-03-11 21:00:47:473,0,-9.74188,-6.2154,87.422
2023-03-11 21:00:47:483,0,-9.75244,-6.2136,87.4216
2023-03-11 21:00:47:493,0,-9.76638,-6.2058,87.4184
2023-03-11 21:00:47:503,0,-9.77628,-6.19669,87.4145
2023-03-11 21:00:47:513,0,-9.78028,-6.18951,87.4112
2023-03-11 21:00:47:523,0,-9.7782,-6.18527,87.4082
2023-03-11 21:00:47:533,0,-9.77476,-6.18591,87.4103
2023-03-11 21:00:47:543,0,-9.77235,-6.18485,87.4099
2023-03-11 21:00:47:553,0,-9.77229,-6.18568,87.4098
2023-03-11 21:00:47:563,0,-9.77403,-6.18271,87.4113
2023-03-11 21:00:47:573,0,-9.77907,-6.178,87.4136
2023-03-11 21:00:47:583,0,-9.78766,-6.17606,87.4116
2023-03-11 21:00:47:593,0,-9.79642,-6.17563,87.4104
2023-03-11 21:00:47:603,0,-9.80313,-6.17679,87.4113
2023-03-11 21:00:47:613,0,-9.80757,-6.18086,87.4138
2023-03-11 21:00:47:623,0,-9.8116,-6.18466,87.4136
2023-03-11 21:00:47:633,0,-9.81291,-6.18958,87.4135
2023-03-11 21:00:47:643,0,-9.80806,-6.19386,87.4139
2023-03-11 21:00:47:652,0,-9.80278,-6.19966,87.4147
2023-03-11 21:00:47:663,0,-9.79944,-6.20978,87.4191
2023-03-11 21:00:47:673,0,-9.79589,-6.21994,87.4283
2023-03-11 21:00:47:683,0,-9.79294,-6.22999,87.4375
2023-03-11 21:00:47:693,0,-9.79492,-6.24444,87.4502
2023-03-11 21:00:47:703,0,-9.79272,-6.25709,87.4664
2023-03-11 21:00:47:713,0,-9.79166,-6.26837,87.4875
2023-03-11 21:00:47:723,0,-9.79364,-6.27661,87.5099
2023-03-11 21:00:47:733,0,-9.79183,-6.28298,87.5321
2023-03-11 21:00:47:743,0,-9.78849,-6.29403,87.5502
2023-03-11 21:00:47:753,0,-9.78186,-6.30043,87.5688
2023-03-11 21:00:47:763,0,-9.78171,-6.31335,87.5871
2023-03-11 21:00:47:773,0,-9.77995,-6.32047,87.5967
2023-03-11 21:00:47:783,0,-9.78364,-6.32808,87.6067
2023-03-11 21:00:47:793,0,-9.78421,-6.33636,87.6122
2023-03-11 21:00:47:803,0,-9.78376,-6.3426,87.615
2023-03-11 21:00:47:813,0,-9.7824,-6.34713,87.6129
2023-03-11 21:00:47:823,0,-9.78216,-6.3528,87.6093
2023-03-11 21:00:47:833,0,-9.78356,-6.35553,87.6102
2023-03-11 21:00:47:843,0,-9.78613,-6.35744,87.6068
2023-03-11 21:00:47:853,0,-9.78988,-6.36038,87.6017
2023-03-11 21:00:47:863,0,-9.7944,-6.35815,87.5996
2023-03-11 21:00:47:873,0,-9.80115,-6.35907,87.5976
2023-03-11 21:00:47:883,0,-9.80651,-6.35785,87.5927
2023-03-11 21:00:47:893,0,-9.81117,-6.35485,87.592
2023-03-11 21:00:47:903,0,-9.81879,-6.35109,87.5966
2023-03-11 21:00:47:912,0,-9.82317,-6.3448,87.6032
2023-03-11 21:00:47:923,0,-9.82943,-6.33657,87.6079
2023-03-11 21:00:47:933,0,-9.8344,-6.32837,87.6124
2023-03-11 21:00:47:943,0,-9.83915,-6.31609,87.6158
2023-03-11 21:00:47:953,0,-9.84138,-6.30595,87.6177
2023-03-11 21:00:47:963,0,-9.84167,-6.29243,87.6161
2023-03-11 21:00:47:973,0,-9.84333,-6.28568,87.6121
2023-03-11 21:00:47:983,0,-9.84528,-6.27649,87.6069
2023-03-11 21:00:47:993,0,-9.84631,-6.27144,87.5976
2023-03-11 21:00:48:3,0,-9.84472,-6.26461,87.5915
2023-03-11 21:00:48:13,0,-9.84467,-6.26917,87.587
2023-03-11 21:00:48:23,0,-9.84885,-6.27712,87.5834
2023-03-11 21:00:48:33,0,-9.85227,-6.29089,87.5828
2023-03-11 21:00:48:43,0,-9.85807,-6.30381,87.5874
2023-03-11 21:00:48:53,0,-9.86671,-6.31524,87.5949
2023-03-11 21:00:48:63,0,-9.87683,-6.32268,87.61
2023-03-11 21:00:48:73,0,-9.89113,-6.33338,87.6301
2023-03-11 21:00:48:83,0,-9.90238,-6.33967,87.6511
2023-03-11 21:00:48:93,0,-9.91162,-6.35095,87.6748
2023-03-11 21:00:48:103,0,-9.9176,-6.3569,87.6967
2023-03-11 21:00:48:113,0,-9.91957,-6.36316,87.7178
2023-03-11 21:00:48:123,0,-9.92013,-6.36644,87.7365
2023-03-11 21:00:48:133,0,-9.92041,-6.3657,87.7513
2023-03-11 21:00:48:143,0,-9.92331,-6.36258,87.7611
2023-03-11 21:00:48:153,0,-9.92959,-6.36128,87.7677
2023-03-11 21:00:48:163,0,-9.93891,-6.36157,87.7708
2023-03-11 21:00:48:173,0,-9.95007,-6.3622,87.7733
2023-03-11 21:00:48:183,0,-9.96611,-6.36035,87.7742
2023-03-11 21:00:48:193,0,-9.98147,-6.36278,87.7753
2023-03-11 21:00:48:203,0,-9.99715,-6.36374,87.7768
2023-03-11 21:00:48:213,0,-10.0099,-6.36639,87.7756
2023-03-11 21:00:48:223,0,-10.0198,-6.36254,87.7769
2023-03-11 21:00:48:233,0,-10.0279,-6.35879,87.7721
2023-03-11 21:00:48:243,0,-10.0321,-6.36037,87.7721
2023-03-11 21:00:48:253,0,-10.0343,-6.36292,87.7745
2023-03-11 21:00:48:263,0,-10.0368,-6.36851,87.7754
2023-03-11 21:00:48:273,0,-10.044,-6.37511,87.777
2023-03-11 21:00:48:283,0,-10.0415,-6.37627,87.7753
2023-03-11 21:00:48:293,0,-10.0461,-6.37979,87.7736
2023-03-11 21:00:48:303,0,-10.0457,-6.38275,87.7722
2023-03-11 21:00:48:313,0,-10.0467,-6.38271,87.7693
2023-03-11 21:00:48:323,0,-10.0483,-6.3867,87.7657
2023-03-11 21:00:48:333,0,-10.0435,-6.39095,87.7602
2023-03-11 21:00:48:343,0,-10.04,-6.39404,87.7558
2023-03-11 21:00:48:353,0,-10.035,-6.40003,87.7523
2023-03-11 21:00:48:363,0,-10.0319,-6.40373,87.7521
2023-03-11 21:00:48:373,0,-10.0299,-6.40367,87.7546
2023-03-11 21:00:48:383,0,-10.0299,-6.40991,87.7588
2023-03-11 21:00:48:393,0,-10.0304,-6.41677,87.765
2023-03-11 21:00:48:403,0,-10.0302,-6.42179,87.776
2023-03-11 21:00:48:413,0,-10.0312,-6.43186,87.7893
2023-03-11 21:00:48:423,0,-10.0311,-6.44446,87.8027
2023-03-11 21:00:48:433,0,-10.0334,-6.453,87.8226
2023-03-11 21:00:48:443,0,-10.037,-6.4606,87.839
2023-03-11 21:00:48:453,0,-10.041,-6.47233,87.8555
2023-03-11 21:00:48:463,0,-10.0404,-6.48131,87.8748
2023-03-11 21:00:48:473,0,-10.0455,-6.49193,87.8915
2023-03-11 21:00:48:483,0,-10.0494,-6.4996,87.905
2023-03-11 21:00:48:493,0,-10.0549,-6.50205,87.9171
2023-03-11 21:00:48:503,0,-10.0645,-6.51146,87.9305
2023-03-11 21:00:48:513,0,-10.0735,-6.51457,87.9425
2023-03-11 21:00:48:523,0,-10.0866,-6.51674,87.9528
2023-03-11 21:00:48:533,0,-10.096,-6.52073,87.9608
2023-03-11 21:00:48:543,0,-10.1035,-6.52707,87.9668
2023-03-11 21:00:48:553,0,-10.1123,-6.52952,87.9718
2023-03-11 21:00:48:563,0,-10.1207,-6.53109,87.9748
2023-03-11 21:00:48:573,0,-10.1354,-6.53282,87.9734
2023-03-11 21:00:48:583,0,-10.1531,-6.5373,87.9751
2023-03-11 21:00:48:593,0,-10.1705,-6.5405,87.9793
2023-03-11 21:00:48:603,0,-10.1855,-6.54219,87.9863
2023-03-11 21:00:48:613,0,-10.2002,-6.54647,87.9925
2023-03-11 21:00:48:623,0,-10.2145,-6.54879,87.9998
2023-03-11 21:00:48:633,0,-10.2274,-6.54885,88.0101
2023-03-11 21:00:48:643,0,-10.2396,-6.55052,88.0214
2023-03-11 21:00:48:653,0,-10.2453,-6.55345,88.0371
2023-03-11 21:00:48:663,0,-10.2516,-6.55129,88.0516
2023-03-11 21:00:48:673,0,-10.255,-6.54843,88.0611
2023-03-11 21:00:48:683,0,-10.2598,-6.54885,88.0678
2023-03-11 21:00:48:693,0,-10.2644,-6.55094,88.0734
2023-03-11 21:00:48:703,0,-10.2712,-6.54794,88.0772
2023-03-11 21:00:48:713,0,-10.2765,-6.54613,88.0798
2023-03-11 21:00:48:723,0,-10.2845,-6.54428,88.0789
2023-03-11 21:00:48:733,0,-10.2873,-6.54721,88.0744
2023-03-11 21:00:48:743,0,-10.2838,-6.55569,88.0743
2023-03-11 21:00:48:753,0,-10.2857,-6.56862,88.0749
2023-03-11 21:00:48:763,0,-10.2913,-6.5795,88.0755
2023-03-11 21:00:48:773,0,-10.2933,-6.59143,88.0831
2023-03-11 21:00:48:783,0,-10.3019,-6.59987,88.0895
2023-03-11 21:00:48:793,0,-10.3109,-6.60574,88.1014
2023-03-11 21:00:48:803,0,-10.3195,-6.61014,88.1134
2023-03-11 21:00:48:813,0,-10.3267,-6.60993,88.1283
2023-03-11 21:00:48:823,0,-10.3327,-6.61101,88.1398
2023-03-11 21:00:48:833,0,-10.3422,-6.61347,88.1454
2023-03-11 21:00:48:843,0,-10.3474,-6.6109,88.1497
2023-03-11 21:00:48:853,0,-10.3482,-6.6062,88.1474
2023-03-11 21:00:48:863,0,-10.3539,-6.60581,88.1395
2023-03-11 21:00:48:873,0,-10.3581,-6.60375,88.1239
2023-03-11 21:00:48:883,0,-10.362,-6.60147,88.106
2023-03-11 21:00:48:893,0,-10.3671,-6.59711,88.086
2023-03-11 21:00:48:903,0,-10.3773,-6.59329,88.0684
2023-03-11 21:00:48:913,0,-10.3895,-6.58865,88.0531
2023-03-11 21:00:48:923,0,-10.4021,-6.58247,88.0436
2023-03-11 21:00:48:933,0,-10.4146,-6.57495,88.0362
2023-03-11 21:00:48:943,0,-10.4252,-6.56512,88.0353
2023-03-11 21:00:48:953,0,-10.434,-6.55422,88.036
2023-03-11 21:00:48:963,0,-10.439,-6.54347,88.0344
2023-03-11 21:00:48:973,0,-10.4326,-6.53644,88.0401
2023-03-11 21:00:48:983,0,-10.4248,-6.53334,88.0479
2023-03-11 21:00:48:993,0,-10.418,-6.53009,88.0581
2023-03-11 21:00:49:3,0,-10.4095,-6.5284,88.0658
2023-03-11 21:00:49:13,0,-10.4045,-6.52939,88.0719
2023-03-11 21:00:49:23,0,-10.4019,-6.5271,88.077
2023-03-11 21:00:49:33,0,-10.4017,-6.52726,88.0826
2023-03-11 21:00:49:43,0,-10.4018,-6.52922,88.0918
2023-03-11 21:00:49:53,0,-10.406,-6.53541,88.1018
2023-03-11 21:00:49:63,0,-10.4064,-6.54033,88.1076
2023-03-11 21:00:49:73,0,-10.3979,-6.54848,88.1138
2023-03-11 21:00:49:83,0,-10.384,-6.55566,88.1199
2023-03-11 21:00:49:93,0,-10.3722,-6.56466,88.1237
2023-03-11 21:00:49:103,0,-10.3615,-6.57583,88.1305
2023-03-11 21:00:49:113,0,-10.3522,-6.58621,88.1333
2023-03-11 21:00:49:123,0,-10.3421,-6.5948,88.1384
2023-03-11 21:00:49:133,0,-10.3334,-6.60514,88.1481
2023-03-11 21:00:49:143,0,-10.3285,-6.61726,88.1551
2023-03-11 21:00:49:152,0,-10.3234,-6.63016,88.1581
2023-03-11 21:00:49:163,0,-10.3231,-6.64553,88.1679
2023-03-11 21:00:49:173,0,-10.3259,-6.65927,88.1806
2023-03-11 21:00:49:182,0,-10.3299,-6.67154,88.1888
2023-03-11 21:00:49:193,0,-10.3321,-6.68463,88.1976
2023-03-11 21:00:49:203,0,-10.3361,-6.69303,88.2055
2023-03-11 21:00:49:213,0,-10.3396,-6.69823,88.214
2023-03-11 21:00:49:223,0,-10.3433,-6.69989,88.2198
2023-03-11 21:00:49:233,0,-10.3525,-6.70407,88.2271
2023-03-11 21:00:49:243,0,-10.3656,-6.70356,88.2323
2023-03-11 21:00:49:253,0,-10.375,-6.70741,88.2371
2023-03-11 21:00:49:263,0,-10.3811,-6.70365,88.2363
2023-03-11 21:00:49:273,0,-10.3882,-6.70173,88.2387
2023-03-11 21:00:49:283,0,-10.3908,-6.69918,88.2412
2023-03-11 21:00:49:293,0,-10.3905,-6.69479,88.2402
2023-03-11 21:00:49:303,0,-10.3891,-6.69448,88.2408
2023-03-11 21:00:49:313,0,-10.391,-6.69054,88.2423
2023-03-11 21:00:49:323,0,-10.3904,-6.6869,88.2458
2023-03-11 21:00:49:333,0,-10.3901,-6.687,88.2467
2023-03-11 21:00:49:343,0,-10.3932,-6.68962,88.248
2023-03-11 21:00:49:353,0,-10.3901,-6.69102,88.2503
2023-03-11 21:00:49:363,0,-10.3845,-6.69178,88.2529
2023-03-11 21:00:49:373,0,-10.3814,-6.68889,88.2544
2023-03-11 21:00:49:383,0,-10.374,-6.68695,88.2551
2023-03-11 21:00:49:393,0,-10.3664,-6.68317,88.2545
2023-03-11 21:00:49:403,0,-10.3574,-6.67918,88.2547
2023-03-11 21:00:49:413,0,-10.3491,-6.67242,88.2525
2023-03-11 21:00:49:423,0,-10.3392,-6.66504,88.2487
2023-03-11 21:00:49:433,0,-10.3329,-6.66129,88.2434
2023-03-11 21:00:49:443,0,-10.3281,-6.65338,88.2344
2023-03-11 21:00:49:453,0,-10.3238,-6.64913,88.2252
2023-03-11 21:00:49:463,0,-10.3164,-6.64868,88.2136
2023-03-11 21:00:49:473,0,-10.3083,-6.65513,88.2096
2023-03-11 21:00:49:483,0,-10.3034,-6.6652,88.2062
2023-03-11 21:00:49:493,0,-10.3004,-6.67524,88.202
2023-03-11 21:00:49:503,0,-10.3024,-6.68551,88.2022
2023-03-11 21:00:49:513,0,-10.3077,-6.6916,88.2088
2023-03-11 21:00:49:523,0,-10.3113,-6.69191,88.2171
2023-03-11 21:00:49:533,0,-10.3143,-6.68931,88.2261
2023-03-11 21:00:49:543,0,-10.3156,-6.69165,88.2387
2023-03-11 21:00:49:553,0,-10.3155,-6.69485,88.2517
2023-03-11 21:00:49:563,0,-10.3125,-6.69645,88.2621
2023-03-11 21:00:49:573,0,-10.3089,-6.69322,88.2697
2023-03-11 21:00:49:583,0,-10.3067,-6.68415,88.2696
2023-03-11 21:00:49:593,0,-10.3071,-6.67788,88.2686
2023-03-11 21:00:49:603,0,-10.3109,-6.6721,88.2657
2023-03-11 21:00:49:613,0,-10.3172,-6.66516,88.2634
2023-03-11 21:00:49:623,0,-10.3246,-6.65674,88.2612
2023-03-11 21:00:49:633,0,-10.3362,-6.65132,88.2547
2023-03-11 21:00:49:643,0,-10.3475,-6.64395,88.2483
2023-03-11 21:00:49:653,0,-10.3569,-6.63911,88.241
2023-03-11 21:00:49:663,0,-10.3649,-6.63259,88.2401
2023-03-11 21:00:49:673,0,-10.3709,-6.62228,88.2378
2023-03-11 21:00:49:683,0,-10.3745,-6.60892,88.231
2023-03-11 21:00:49:693,0,-10.3736,-6.60126,88.2281
2023-03-11 21:00:49:703,0,-10.3748,-6.59983,88.2295
2023-03-11 21:00:49:713,0,-10.3724,-6.60003,88.2284
2023-03-11 21:00:49:723,0,-10.3768,-6.60084,88.2271
2023-03-11 21:00:49:733,0,-10.3844,-6.60071,88.2249
2023-03-11 21:00:49:743,0,-10.3923,-6.60062,88.2184
2023-03-11 21:00:49:753,0,-10.3983,-6.59921,88.2127
2023-03-11 21:00:49:763,0,-10.405,-6.60075,88.2067
2023-03-11 21:00:49:773,0,-10.4109,-6.60304,88.2042
2023-03-11 21:00:49:783,0,-10.412,-6.60553,88.2022
2023-03-11 21:00:49:793,0,-10.4146,-6.6118,88.1995
2023-03-11 21:00:49:803,0,-10.4177,-6.62112,88.1972
2023-03-11 21:00:49:813,0,-10.4194,-6.6282,88.1969
2023-03-11 21:00:49:823,0,-10.4188,-6.63691,88.1958
2023-03-11 21:00:49:833,0,-10.4215,-6.64575,88.1977
2023-03-11 21:00:49:843,0,-10.4243,-6.6569,88.1994
2023-03-11 21:00:49:853,0,-10.4319,-6.66324,88.2051
2023-03-11 21:00:49:863,0,-10.438,-6.67425,88.2117
2023-03-11 21:00:49:873,0,-10.4456,-6.68272,88.2201
2023-03-11 21:00:49:883,0,-10.4517,-6.69287,88.2313
2023-03-11 21:00:49:893,0,-10.4595,-6.70189,88.2431
2023-03-11 21:00:49:903,0,-10.4697,-6.71391,88.2553
2023-03-11 21:00:49:913,0,-10.4733,-6.71803,88.2669
2023-03-11 21:00:49:923,0,-10.4757,-6.72381,88.2807
2023-03-11 21:00:49:933,0,-10.4801,-6.72934,88.2913
2023-03-11 21:00:49:943,0,-10.4846,-6.73781,88.3015
2023-03-11 21:00:49:953,0,-10.4845,-6.73918,88.3113
2023-03-11 21:00:49:963,0,-10.4827,-6.74125,88.3202
2023-03-11 21:00:49:973,0,-10.4857,-6.74133,88.3294
2023-03-11 21:00:49:983,0,-10.4825,-6.74384,88.3319
2023-03-11 21:00:49:993,0,-10.4786,-6.74711,88.3326
2023-03-11 21:00:50:3,0,-10.4781,-6.74797,88.3301
2023-03-11 21:00:50:13,0,-10.4763,-6.74894,88.3317
2023-03-11 21:00:50:23,0,-10.4752,-6.75065,88.335
2023-03-11 21:00:50:33,0,-10.4727,-6.75188,88.3362
2023-03-11 21:00:50:43,0,-10.4728,-6.75252,88.3377
2023-03-11 21:00:50:53,0,-10.4778,-6.75295,88.3424
2023-03-11 21:00:50:63,0,-10.4834,-6.75151,88.3516
2023-03-11 21:00:50:72,0,-10.4838,-6.74843,88.3576
2023-03-11 21:00:50:82,0,-10.4851,-6.74524,88.3633
2023-03-11 21:00:50:93,0,-10.4827,-6.74233,88.37
2023-03-11 21:00:50:103,0,-10.4824,-6.73639,88.3728
2023-03-11 21:00:50:113,0,-10.4836,-6.72938,88.3739
2023-03-11 21:00:50:123,0,-10.4798,-6.72259,88.3704
2023-03-11 21:00:50:133,0,-10.4768,-6.71641,88.3699
2023-03-11 21:00:50:143,0,-10.4778,-6.70868,88.367
2023-03-11 21:00:50:153,0,-10.4759,-6.70328,88.3615
2023-03-11 21:00:50:163,0,-10.4731,-6.69818,88.3561
2023-03-11 21:00:50:173,0,-10.4676,-6.70137,88.3546
2023-03-11 21:00:50:183,0,-10.4675,-6.71045,88.3545
2023-03-11 21:00:50:193,0,-10.4738,-6.71822,88.36
2023-03-11 21:00:50:203,0,-10.479,-6.72466,88.3665
2023-03-11 21:00:50:213,0,-10.4929,-6.72943,88.3736
2023-03-11 21:00:50:223,0,-10.5009,-6.73406,88.3863
2023-03-11 21:00:50:233,0,-10.5099,-6.73634,88.4012
2023-03-11 21:00:50:243,0,-10.5158,-6.73967,88.4161
2023-03-11 21:00:50:253,0,-10.5221,-6.74425,88.4296
2023-03-11 21:00:50:263,0,-10.5213,-6.746,88.442
2023-03-11 21:00:50:273,0,-10.5229,-6.74666,88.4492
2023-03-11 21:00:50:283,0,-10.5221,-6.74477,88.4531
2023-03-11 21:00:50:293,0,-10.5236,-6.74529,88.4503
2023-03-11 21:00:50:303,0,-10.5287,-6.74416,88.4443
2023-03-11 21:00:50:313,0,-10.533,-6.74372,88.4356
2023-03-11 21:00:50:322,0,-10.5393,-6.74307,88.4259
2023-03-11 21:00:50:333,0,-10.5485,-6.74041,88.4128
2023-03-11 21:00:50:343,0,-10.5582,-6.74062,88.4057
2023-03-11 21:00:50:353,0,-10.5649,-6.74345,88.4004
2023-03-11 21:00:50:363,0,-10.569,-6.74134,88.3942
2023-03-11 21:00:50:373,0,-10.5731,-6.73445,88.3869
2023-03-11 21:00:50:383,0,-10.5745,-6.72854,88.3829
2023-03-11 21:00:50:393,0,-10.574,-6.72103,88.3799
2023-03-11 21:00:50:403,0,-10.5718,-6.71891,88.3768
2023-03-11 21:00:50:413,0,-10.5712,-6.7174,88.3787
2023-03-11 21:00:50:423,0,-10.5675,-6.71871,88.3764
2023-03-11 21:00:50:433,0,-10.5662,-6.7144,88.3782
2023-03-11 21:00:50:443,0,-10.5677,-6.70858,88.3758
2023-03-11 21:00:50:453,0,-10.5654,-6.70711,88.3715
2023-03-11 21:00:50:463,0,-10.5661,-6.70371,88.3684
2023-03-11 21:00:50:473,0,-10.5668,-6.70503,88.3651
2023-03-11 21:00:50:483,0,-10.5649,-6.70259,88.362
2023-03-11 21:00:50:493,0,-10.5642,-6.70019,88.3578
2023-03-11 21:00:50:503,0,-10.5691,-6.69648,88.353
2023-03-11 21:00:50:513,0,-10.5717,-6.69447,88.3483
2023-03-11 21:00:50:523,0,-10.58,-6.69319,88.3473
2023-03-11 21:00:50:533,0,-10.5839,-6.69523,88.3468
2023-03-11 21:00:50:543,0,-10.5922,-6.69912,88.3508
2023-03-11 21:00:50:553,0,-10.5992,-6.70283,88.3561
2023-03-11 21:00:50:563,0,-10.6049,-6.70827,88.3608
2023-03-11 21:00:50:573,0,-10.6097,-6.71191,88.3672
2023-03-11 21:00:50:583,0,-10.6157,-6.71778,88.376
2023-03-11 21:00:50:593,0,-10.6192,-6.72338,88.3824
2023-03-11 21:00:50:603,0,-10.6205,-6.72368,88.3915
2023-03-11 21:00:50:613,0,-10.6214,-6.72881,88.4024
2023-03-11 21:00:50:623,0,-10.6183,-6.73354,88.4106
2023-03-11 21:00:50:633,0,-10.6146,-6.73746,88.4182
2023-03-11 21:00:50:643,0,-10.6126,-6.7404,88.4212
2023-03-11 21:00:50:653,0,-10.6082,-6.74236,88.4271
2023-03-11 21:00:50:663,0,-10.6039,-6.74338,88.43
2023-03-11 21:00:50:673,0,-10.597,-6.74677,88.429
2023-03-11 21:00:50:683,0,-10.5879,-6.74886,88.4263
2023-03-11 21:00:50:693,0,-10.5761,-6.75356,88.4212
2023-03-11 21:00:50:703,0,-10.5657,-6.75859,88.4156
2023-03-11 21:00:50:713,0,-10.5566,-6.76248,88.4074
2023-03-11 21:00:50:723,0,-10.5458,-6.76875,88.3999
2023-03-11 21:00:50:732,0,-10.54,-6.7754,88.3941
2023-03-11 21:00:50:743,0,-10.5364,-6.78466,88.3894
2023-03-11 21:00:50:753,0,-10.532,-6.78767,88.3851
2023-03-11 21:00:50:763,0,-10.5278,-6.78887,88.3813
2023-03-11 21:00:50:773,0,-10.5202,-6.78725,88.3741
2023-03-11 21:00:50:783,0,-10.5076,-6.78592,88.3687
2023-03-11 21:00:50:793,0,-10.495,-6.78606,88.3617
2023-03-11 21:00:50:803,0,-10.48,-6.7834,88.3556
2023-03-11 21:00:50:813,0,-10.4672,-6.78078,88.3454
2023-03-11 21:00:50:823,0,-10.4519,-6.77411,88.333
2023-03-11 21:00:50:833,0,-10.4457,-6.76781,88.3201
2023-03-11 21:00:50:843,0,-10.4418,-6.76133,88.3075
2023-03-11 21:00:50:853,0,-10.4396,-6.75381,88.2919
2023-03-11 21:00:50:863,0,-10.4366,-6.75294,88.2836
2023-03-11 21:00:50:873,0,-10.4296,-6.75702,88.2805
2023-03-11 21:00:50:883,0,-10.4318,-6.76309,88.2779
