Timestamp_cmd,imu_cmd,roll_delta,pitch_delta,yaw_delta
2023-03-10 21:41:52:573,0,0.295382,-1.08839,86.1804
2023-03-10 21:41:52:581,0,0.32908,-1.08712,86.1478
2023-03-10 21:41:52:592,0,0.359149,-1.08636,86.1275
2023-03-10 21:41:52:602,0,0.376732,-1.08757,86.1138
2023-03-10 21:41:52:612,0,0.380371,-1.08537,86.1064
2023-03-10 21:41:52:622,0,0.380604,-1.08331,86.1025
2023-03-10 21:41:52:632,0,0.37689,-1.08374,86.1064
2023-03-10 21:41:52:642,0,0.373452,-1.08655,86.1132
2023-03-10 21:41:52:652,0,0.373692,-1.08639,86.1145
2023-03-10 21:41:52:662,0,0.367512,-1.09452,86.1104
2023-03-10 21:41:52:672,0,0.360076,-1.10856,86.101
2023-03-10 21:41:52:682,0,0.348265,-1.12724,86.0825
2023-03-10 21:41:52:692,0,0.31866,-1.15048,86.057
2023-03-10 21:41:52:702,0,0.274085,-1.17076,86.0222
2023-03-10 21:41:52:712,0,0.215797,-1.19649,85.9821
2023-03-10 21:41:52:722,0,0.155866,-1.22372,85.9351
2023-03-10 21:41:52:732,0,0.103314,-1.2496,85.8846
2023-03-10 21:41:52:742,0,0.0689389,-1.27502,85.8267
2023-03-10 21:41:52:752,0,0.043694,-1.30293,85.7704
2023-03-10 21:41:52:762,0,0.0302107,-1.34067,85.7173
2023-03-10 21:41:52:772,0,0.0238536,-1.38296,85.6771
2023-03-10 21:41:52:782,0,0.0196109,-1.43193,85.647
2023-03-10 21:41:52:792,0,0.0084908,-1.48895,85.6262
2023-03-10 21:41:52:802,0,-0.00925712,-1.54784,85.6117
2023-03-10 21:41:52:812,0,-0.0357857,-1.60524,85.6065
2023-03-10 21:41:52:822,0,-0.0720357,-1.66142,85.6035
2023-03-10 21:41:52:832,0,-0.111881,-1.71589,85.6028
2023-03-10 21:41:52:842,0,-0.147323,-1.76926,85.6006
2023-03-10 21:41:52:852,0,-0.174842,-1.82157,85.5921
2023-03-10 21:41:52:862,0,-0.199579,-1.86461,85.5833
2023-03-10 21:41:52:872,0,-0.224523,-1.89711,85.5643
2023-03-10 21:41:52:882,0,-0.25003,-1.91686,85.5416
2023-03-10 21:41:52:892,0,-0.280782,-1.92106,85.5168
2023-03-10 21:41:52:902,0,-0.320313,-1.90921,85.4967
2023-03-10 21:41:52:912,0,-0.361448,-1.89615,85.4806
2023-03-10 21:41:52:922,0,-0.401149,-1.88251,85.4761
2023-03-10 21:41:52:932,0,-0.434275,-1.866,85.4816
2023-03-10 21:41:52:942,0,-0.457231,-1.84809,85.4918
2023-03-10 21:41:52:951,0,-0.467662,-1.82797,85.5074
2023-03-10 21:41:52:961,0,-0.475488,-1.80392,85.5248
2023-03-10 21:41:52:971,0,-0.481142,-1.77335,85.5396
2023-03-10 21:41:52:981,0,-0.48642,-1.74336,85.5502
2023-03-10 21:41:52:991,0,-0.486556,-1.70892,85.5507
2023-03-10 21:41:53:2,0,-0.481945,-1.67295,85.5444
2023-03-10 21:41:53:12,0,-0.472057,-1.64314,85.5299
2023-03-10 21:41:53:22,0,-0.448384,-1.61512,85.5061
2023-03-10 21:41:53:32,0,-0.424672,-1.58924,85.47
2023-03-10 21:41:53:42,0,-0.397638,-1.55835,85.4248
2023-03-10 21:41:53:52,0,-0.37232,-1.52803,85.3658
2023-03-10 21:41:53:62,0,-0.351985,-1.49496,85.2969
2023-03-10 21:41:53:72,0,-0.341175,-1.46493,85.2252
2023-03-10 21:41:53:82,0,-0.337486,-1.44223,85.1511
2023-03-10 21:41:53:91,0,-0.347823,-1.42534,85.0842
2023-03-10 21:41:53:102,0,-0.357509,-1.40861,85.0174
2023-03-10 21:41:53:112,0,-0.37012,-1.39741,84.9603
2023-03-10 21:41:53:122,0,-0.392595,-1.38747,84.911
2023-03-10 21:41:53:132,0,-0.420008,-1.38517,84.874
2023-03-10 21:41:53:142,0,-0.453804,-1.38998,84.8436
2023-03-10 21:41:53:152,0,-0.492996,-1.3972,84.8209
2023-03-10 21:41:53:162,0,-0.53733,-1.40959,84.8094
2023-03-10 21:41:53:172,0,-0.585129,-1.42378,84.8024
2023-03-10 21:41:53:182,0,-0.639806,-1.44479,84.8036
2023-03-10 21:41:53:192,0,-0.693686,-1.46429,84.8057
2023-03-10 21:41:53:202,0,-0.73984,-1.48707,84.8095
2023-03-10 21:41:53:212,0,-0.775942,-1.50935,84.8099
2023-03-10 21:41:53:222,0,-0.806976,-1.53004,84.8131
2023-03-10 21:41:53:232,0,-0.836389,-1.55169,84.8173
2023-03-10 21:41:53:242,0,-0.859228,-1.5733,84.8225
2023-03-10 21:41:53:252,0,-0.877411,-1.59264,84.83
2023-03-10 21:41:53:262,0,-0.899873,-1.60592,84.84
2023-03-10 21:41:53:272,0,-0.922926,-1.6208,84.8499
2023-03-10 21:41:53:282,0,-0.944226,-1.63592,84.8632
2023-03-10 21:41:53:292,0,-0.963474,-1.64661,84.876
2023-03-10 21:41:53:302,0,-0.984403,-1.65472,84.8901
2023-03-10 21:41:53:312,0,-1.01007,-1.65718,84.9057
2023-03-10 21:41:53:322,0,-1.03642,-1.66086,84.9206
2023-03-10 21:41:53:332,0,-1.06044,-1.66732,84.934
2023-03-10 21:41:53:342,0,-1.08258,-1.67409,84.9472
2023-03-10 21:41:53:352,0,-1.10632,-1.68377,84.9618
2023-03-10 21:41:53:362,0,-1.13509,-1.69772,84.9784
2023-03-10 21:41:53:372,0,-1.16187,-1.71343,84.9941
2023-03-10 21:41:53:382,0,-1.18674,-1.73211,85.0094
2023-03-10 21:41:53:392,0,-1.21092,-1.75011,85.0239
2023-03-10 21:41:53:402,0,-1.23365,-1.76698,85.0412
2023-03-10 21:41:53:412,0,-1.2502,-1.78244,85.0511
2023-03-10 21:41:53:422,0,-1.25958,-1.79523,85.0584
2023-03-10 21:41:53:432,0,-1.26769,-1.80957,85.0611
2023-03-10 21:41:53:442,0,-1.26703,-1.81893,85.0576
2023-03-10 21:41:53:452,0,-1.26628,-1.82197,85.0551
2023-03-10 21:41:53:462,0,-1.26296,-1.82428,85.044
2023-03-10 21:41:53:472,0,-1.26106,-1.82353,85.0336
2023-03-10 21:41:53:482,0,-1.26306,-1.82253,85.0247
2023-03-10 21:41:53:492,0,-1.26333,-1.82068,85.0221
2023-03-10 21:41:53:502,0,-1.26662,-1.81951,85.0157
2023-03-10 21:41:53:512,0,-1.26642,-1.8164,85.0071
2023-03-10 21:41:53:522,0,-1.26952,-1.81383,84.9999
2023-03-10 21:41:53:532,0,-1.27145,-1.80921,84.9952
2023-03-10 21:41:53:542,0,-1.27575,-1.81072,84.991
2023-03-10 21:41:53:552,0,-1.28288,-1.80665,84.9864
2023-03-10 21:41:53:562,0,-1.29236,-1.80287,84.9801
2023-03-10 21:41:53:572,0,-1.30337,-1.79555,84.9707
2023-03-10 21:41:53:582,0,-1.31529,-1.78482,84.9636
2023-03-10 21:41:53:592,0,-1.32536,-1.77388,84.9572
2023-03-10 21:41:53:602,0,-1.33072,-1.76922,84.9508
2023-03-10 21:41:53:612,0,-1.33927,-1.7657,84.9507
2023-03-10 21:41:53:622,0,-1.34732,-1.76272,84.9503
2023-03-10 21:41:53:632,0,-1.35396,-1.76129,84.9508
2023-03-10 21:41:53:642,0,-1.36162,-1.75641,84.9511
2023-03-10 21:41:53:652,0,-1.36894,-1.75325,84.9513
2023-03-10 21:41:53:662,0,-1.3764,-1.74713,84.9553
2023-03-10 21:41:53:672,0,-1.38326,-1.73966,84.9611
2023-03-10 21:41:53:682,0,-1.38834,-1.73701,84.966
2023-03-10 21:41:53:692,0,-1.38972,-1.73705,84.9708
2023-03-10 21:41:53:702,0,-1.39314,-1.73833,84.9777
2023-03-10 21:41:53:712,0,-1.39737,-1.74306,84.9807
2023-03-10 21:41:53:722,0,-1.40008,-1.7462,84.9864
2023-03-10 21:41:53:732,0,-1.40506,-1.75442,84.9886
2023-03-10 21:41:53:742,0,-1.41202,-1.7657,84.9915
2023-03-10 21:41:53:752,0,-1.41335,-1.76847,84.9918
2023-03-10 21:41:53:762,0,-1.41592,-1.77247,84.9848
2023-03-10 21:41:53:772,0,-1.41471,-1.77547,84.9754
2023-03-10 21:41:53:782,0,-1.41036,-1.77768,84.9654
2023-03-10 21:41:53:792,0,-1.40988,-1.78067,84.9542
2023-03-10 21:41:53:802,0,-1.40496,-1.78503,84.9432
2023-03-10 21:41:53:811,0,-1.40458,-1.79242,84.9342
2023-03-10 21:41:53:821,0,-1.40315,-1.79584,84.924
2023-03-10 21:41:53:831,0,-1.40626,-1.80152,84.9101
2023-03-10 21:41:53:841,0,-1.40607,-1.8043,84.8927
2023-03-10 21:41:53:851,0,-1.40184,-1.80745,84.8748
2023-03-10 21:41:53:861,0,-1.39369,-1.81229,84.8565
2023-03-10 21:41:53:871,0,-1.38308,-1.81559,84.8401
2023-03-10 21:41:53:882,0,-1.3733,-1.82553,84.8251
2023-03-10 21:41:53:891,0,-1.36457,-1.83294,84.8167
2023-03-10 21:41:53:901,0,-1.35641,-1.83979,84.8164
2023-03-10 21:41:53:911,0,-1.34999,-1.85384,84.8286
2023-03-10 21:41:53:921,0,-1.34306,-1.87064,84.8483
2023-03-10 21:41:53:932,0,-1.34211,-1.88521,84.8798
2023-03-10 21:41:53:941,0,-1.35029,-1.90369,84.9226
2023-03-10 21:41:53:951,0,-1.35798,-1.92203,84.9713
2023-03-10 21:41:53:962,0,-1.36409,-1.93783,85.0238
2023-03-10 21:41:53:972,0,-1.37037,-1.95279,85.0802
2023-03-10 21:41:53:982,0,-1.38281,-1.96454,85.1369
2023-03-10 21:41:53:992,0,-1.40034,-1.98154,85.1935
2023-03-10 21:41:54:2,0,-1.42609,-1.99718,85.2474
2023-03-10 21:41:54:12,0,-1.46184,-2.01792,85.2945
2023-03-10 21:41:54:22,0,-1.50775,-2.03852,85.3403
2023-03-10 21:41:54:32,0,-1.55806,-2.06757,85.3835
2023-03-10 21:41:54:42,0,-1.60917,-2.10172,85.4232
2023-03-10 21:41:54:52,0,-1.66373,-2.14048,85.4631
2023-03-10 21:41:54:62,0,-1.72116,-2.17715,85.4969
2023-03-10 21:41:54:72,0,-1.77711,-2.21464,85.53
2023-03-10 21:41:54:82,0,-1.83346,-2.25006,85.5518
2023-03-10 21:41:54:92,0,-1.88537,-2.27816,85.5671
2023-03-10 21:41:54:102,0,-1.93473,-2.29941,85.574
2023-03-10 21:41:54:112,0,-1.98099,-2.31304,85.5715
2023-03-10 21:41:54:122,0,-2.01707,-2.32329,85.5668
2023-03-10 21:41:54:131,0,-2.04745,-2.3295,85.5604
2023-03-10 21:41:54:142,0,-2.06944,-2.33301,85.5481
2023-03-10 21:41:54:151,0,-2.08728,-2.33769,85.5344
2023-03-10 21:41:54:161,0,-2.10126,-2.34324,85.5194
2023-03-10 21:41:54:171,0,-2.11364,-2.34591,85.5051
2023-03-10 21:41:54:181,0,-2.12418,-2.3469,85.484
2023-03-10 21:41:54:191,0,-2.12592,-2.34978,85.4608
2023-03-10 21:41:54:202,0,-2.13267,-2.34932,85.433
2023-03-10 21:41:54:212,0,-2.13817,-2.34436,85.3998
2023-03-10 21:41:54:222,0,-2.13918,-2.33682,85.3667
2023-03-10 21:41:54:232,0,-2.14019,-2.33641,85.3335
2023-03-10 21:41:54:242,0,-2.1395,-2.33738,85.3057
2023-03-10 21:41:54:252,0,-2.14184,-2.3436,85.2884
2023-03-10 21:41:54:262,0,-2.14644,-2.35422,85.275
2023-03-10 21:41:54:272,0,-2.15367,-2.36454,85.2707
2023-03-10 21:41:54:282,0,-2.16255,-2.3795,85.2693
2023-03-10 21:41:54:292,0,-2.16999,-2.39271,85.276
2023-03-10 21:41:54:302,0,-2.17124,-2.40598,85.2835
2023-03-10 21:41:54:312,0,-2.1729,-2.42392,85.2956
2023-03-10 21:41:54:322,0,-2.17126,-2.43988,85.3127
2023-03-10 21:41:54:332,0,-2.1668,-2.46036,85.3326
2023-03-10 21:41:54:342,0,-2.16085,-2.48206,85.3517
2023-03-10 21:41:54:352,0,-2.15369,-2.50599,85.3648
2023-03-10 21:41:54:362,0,-2.14619,-2.52732,85.3815
2023-03-10 21:41:54:372,0,-2.14008,-2.54984,85.3958
2023-03-10 21:41:54:382,0,-2.14041,-2.57191,85.4081
2023-03-10 21:41:54:392,0,-2.13448,-2.59439,85.4181
2023-03-10 21:41:54:402,0,-2.12175,-2.61145,85.4207
2023-03-10 21:41:54:412,0,-2.10185,-2.62867,85.4133
2023-03-10 21:41:54:422,0,-2.07334,-2.63914,85.3901
2023-03-10 21:41:54:432,0,-2.04583,-2.64546,85.3578
2023-03-10 21:41:54:442,0,-2.01587,-2.6498,85.318
2023-03-10 21:41:54:452,0,-1.98225,-2.65194,85.2771
2023-03-10 21:41:54:462,0,-1.95194,-2.64886,85.2341
2023-03-10 21:41:54:472,0,-1.92456,-2.64595,85.1906
2023-03-10 21:41:54:482,0,-1.89946,-2.63652,85.1446
2023-03-10 21:41:54:492,0,-1.87376,-2.62747,85.0963
2023-03-10 21:41:54:502,0,-1.85134,-2.61824,85.0523
2023-03-10 21:41:54:512,0,-1.82934,-2.60531,85.0141
2023-03-10 21:41:54:522,0,-1.81458,-2.59618,84.9795
2023-03-10 21:41:54:532,0,-1.7983,-2.58412,84.9469
2023-03-10 21:41:54:542,0,-1.79376,-2.57798,84.9166
2023-03-10 21:41:54:552,0,-1.79373,-2.57067,84.8927
2023-03-10 21:41:54:562,0,-1.79545,-2.56241,84.8753
2023-03-10 21:41:54:572,0,-1.79743,-2.54993,84.8584
2023-03-10 21:41:54:582,0,-1.79522,-2.5355,84.841
2023-03-10 21:41:54:592,0,-1.78691,-2.51835,84.833
2023-03-10 21:41:54:602,0,-1.77527,-2.50444,84.8208
2023-03-10 21:41:54:612,0,-1.76229,-2.49025,84.8135
2023-03-10 21:41:54:622,0,-1.76171,-2.47664,84.8127
2023-03-10 21:41:54:632,0,-1.76601,-2.46806,84.8151
2023-03-10 21:41:54:642,0,-1.7806,-2.46553,84.821
2023-03-10 21:41:54:652,0,-1.80024,-2.46664,84.8317
2023-03-10 21:41:54:662,0,-1.82454,-2.46665,84.8369
2023-03-10 21:41:54:672,0,-1.84804,-2.47108,84.8392
2023-03-10 21:41:54:682,0,-1.87199,-2.47229,84.842
2023-03-10 21:41:54:692,0,-1.90068,-2.47632,84.8398
2023-03-10 21:41:54:702,0,-1.93299,-2.47679,84.8388
2023-03-10 21:41:54:712,0,-1.95919,-2.46722,84.8433
2023-03-10 21:41:54:722,0,-1.98241,-2.45557,84.8482
2023-03-10 21:41:54:732,0,-2.00204,-2.4445,84.8514
2023-03-10 21:41:54:742,0,-2.02906,-2.43771,84.8562
2023-03-10 21:41:54:752,0,-2.06405,-2.43752,84.8657
2023-03-10 21:41:54:762,0,-2.10338,-2.44205,84.882
2023-03-10 21:41:54:772,0,-2.1404,-2.45348,84.902
2023-03-10 21:41:54:782,0,-2.17744,-2.46811,84.9276
2023-03-10 21:41:54:792,0,-2.20904,-2.48085,84.9481
2023-03-10 21:41:54:802,0,-2.22917,-2.48707,84.9674
2023-03-10 21:41:54:812,0,-2.2361,-2.49611,84.9783
2023-03-10 21:41:54:822,0,-2.23901,-2.50878,84.9898
2023-03-10 21:41:54:832,0,-2.24343,-2.52216,84.9906
2023-03-10 21:41:54:842,0,-2.24322,-2.53764,84.9868
2023-03-10 21:41:54:852,0,-2.24193,-2.55436,84.9775
2023-03-10 21:41:54:862,0,-2.24072,-2.56936,84.9645
2023-03-10 21:41:54:872,0,-2.23798,-2.57463,84.9496
2023-03-10 21:41:54:882,0,-2.23991,-2.58226,84.9338
2023-03-10 21:41:54:892,0,-2.23438,-2.58928,84.9196
2023-03-10 21:41:54:902,0,-2.23305,-2.5929,84.9029
2023-03-10 21:41:54:912,0,-2.22625,-2.59701,84.8921
2023-03-10 21:41:54:922,0,-2.21513,-2.59831,84.884
2023-03-10 21:41:54:932,0,-2.1993,-2.60234,84.8796
2023-03-10 21:41:54:942,0,-2.18224,-2.61136,84.8757
2023-03-10 21:41:54:952,0,-2.16383,-2.61423,84.871
2023-03-10 21:41:54:962,0,-2.13828,-2.61591,84.862
2023-03-10 21:41:54:972,0,-2.11228,-2.61494,84.8511
2023-03-10 21:41:54:982,0,-2.08137,-2.60957,84.8411
2023-03-10 21:41:54:992,0,-2.04851,-2.6064,84.8317
2023-03-10 21:41:55:2,0,-2.01273,-2.60006,84.8177
2023-03-10 21:41:55:12,0,-1.98032,-2.59477,84.8084
2023-03-10 21:41:55:22,0,-1.9466,-2.58941,84.7991
2023-03-10 21:41:55:32,0,-1.9205,-2.58448,84.7946
2023-03-10 21:41:55:42,0,-1.89385,-2.58091,84.7886
2023-03-10 21:41:55:52,0,-1.86782,-2.57658,84.7853
2023-03-10 21:41:55:62,0,-1.84813,-2.57554,84.7852
2023-03-10 21:41:55:72,0,-1.83029,-2.5776,84.7878
2023-03-10 21:41:55:82,0,-1.81455,-2.57877,84.7893
2023-03-10 21:41:55:92,0,-1.80534,-2.584,84.7916
2023-03-10 21:41:55:102,0,-1.79702,-2.59091,84.7948
2023-03-10 21:41:55:112,0,-1.79213,-2.59843,84.7991
2023-03-10 21:41:55:122,0,-1.7904,-2.60647,84.8066
2023-03-10 21:41:55:132,0,-1.78722,-2.61856,84.8108
2023-03-10 21:41:55:142,0,-1.78591,-2.62641,84.8056
2023-03-10 21:41:55:151,0,-1.78169,-2.63496,84.7966
2023-03-10 21:41:55:162,0,-1.77783,-2.6428,84.7817
2023-03-10 21:41:55:172,0,-1.76502,-2.65192,84.7618
2023-03-10 21:41:55:182,0,-1.75193,-2.65694,84.7339
2023-03-10 21:41:55:192,0,-1.73712,-2.66604,84.7094
2023-03-10 21:41:55:202,0,-1.72716,-2.6783,84.6881
2023-03-10 21:41:55:212,0,-1.71894,-2.68926,84.6695
2023-03-10 21:41:55:222,0,-1.71369,-2.70079,84.6547
2023-03-10 21:41:55:232,0,-1.71284,-2.71151,84.642
2023-03-10 21:41:55:242,0,-1.71192,-2.72274,84.6325
2023-03-10 21:41:55:252,0,-1.70952,-2.7311,84.6283
2023-03-10 21:41:55:262,0,-1.70185,-2.74322,84.6272
2023-03-10 21:41:55:272,0,-1.69936,-2.75981,84.6316
2023-03-10 21:41:55:282,0,-1.69544,-2.77936,84.6406
2023-03-10 21:41:55:292,0,-1.68891,-2.79858,84.6534
2023-03-10 21:41:55:302,0,-1.68157,-2.81947,84.6698
2023-03-10 21:41:55:312,0,-1.67537,-2.83747,84.6876
2023-03-10 21:41:55:322,0,-1.67409,-2.85278,84.7056
2023-03-10 21:41:55:331,0,-1.67858,-2.87147,84.7274
2023-03-10 21:41:55:341,0,-1.68797,-2.88947,84.7524
2023-03-10 21:41:55:351,0,-1.69591,-2.90965,84.7781
2023-03-10 21:41:55:361,0,-1.70702,-2.93032,84.7991
2023-03-10 21:41:55:371,0,-1.7162,-2.95107,84.8126
2023-03-10 21:41:55:381,0,-1.72383,-2.97152,84.8225
2023-03-10 21:41:55:391,0,-1.72844,-2.9941,84.827
2023-03-10 21:41:55:401,0,-1.73089,-3.01973,84.8289
2023-03-10 21:41:55:411,0,-1.73526,-3.04356,84.8267
2023-03-10 21:41:55:421,0,-1.73627,-3.06563,84.8226
2023-03-10 21:41:55:431,0,-1.74035,-3.08166,84.817
2023-03-10 21:41:55:441,0,-1.74742,-3.09452,84.8126
2023-03-10 21:41:55:451,0,-1.75189,-3.10592,84.8066
2023-03-10 21:41:55:461,0,-1.75245,-3.11472,84.7998
2023-03-10 21:41:55:471,0,-1.75332,-3.1217,84.7968
2023-03-10 21:41:55:481,0,-1.75833,-3.13556,84.7956
2023-03-10 21:41:55:491,0,-1.76521,-3.14841,84.804
2023-03-10 21:41:55:501,0,-1.77451,-3.16212,84.8162
2023-03-10 21:41:55:511,0,-1.78259,-3.17625,84.8393
2023-03-10 21:41:55:521,0,-1.79168,-3.18851,84.8667
2023-03-10 21:41:55:531,0,-1.79524,-3.20083,84.9025
2023-03-10 21:41:55:541,0,-1.79979,-3.20974,84.9469
2023-03-10 21:41:55:551,0,-1.80023,-3.21743,84.9911
2023-03-10 21:41:55:561,0,-1.79444,-3.22606,85.0371
2023-03-10 21:41:55:571,0,-1.78642,-3.23097,85.0839
2023-03-10 21:41:55:581,0,-1.77649,-3.23364,85.1307
2023-03-10 21:41:55:591,0,-1.76593,-3.23672,85.1767
2023-03-10 21:41:55:601,0,-1.753,-3.24068,85.2198
2023-03-10 21:41:55:611,0,-1.74177,-3.24779,85.2633
2023-03-10 21:41:55:621,0,-1.7322,-3.25546,85.3089
2023-03-10 21:41:55:631,0,-1.72328,-3.25857,85.3467
2023-03-10 21:41:55:641,0,-1.71283,-3.26485,85.3846
2023-03-10 21:41:55:651,0,-1.70042,-3.26931,85.4178
2023-03-10 21:41:55:661,0,-1.68972,-3.27427,85.4518
2023-03-10 21:41:55:671,0,-1.68427,-3.2787,85.486
2023-03-10 21:41:55:681,0,-1.68114,-3.27951,85.5178
2023-03-10 21:41:55:691,0,-1.6738,-3.27937,85.5429
2023-03-10 21:41:55:701,0,-1.67037,-3.27746,85.5638
2023-03-10 21:41:55:711,0,-1.66746,-3.27427,85.5811
2023-03-10 21:41:55:721,0,-1.6664,-3.27153,85.5971
2023-03-10 21:41:55:731,0,-1.67374,-3.26991,85.6123
2023-03-10 21:41:55:741,0,-1.67997,-3.27034,85.6258
2023-03-10 21:41:55:751,0,-1.68457,-3.27525,85.6308
2023-03-10 21:41:55:761,0,-1.68305,-3.28623,85.6385
2023-03-10 21:41:55:771,0,-1.67665,-3.2994,85.639
2023-03-10 21:41:55:781,0,-1.66208,-3.30998,85.63
2023-03-10 21:41:55:791,0,-1.63903,-3.32187,85.6146
2023-03-10 21:41:55:801,0,-1.61263,-3.33407,85.5889
2023-03-10 21:41:55:811,0,-1.58657,-3.34156,85.5547
2023-03-10 21:41:55:821,0,-1.56462,-3.34975,85.517
2023-03-10 21:41:55:831,0,-1.5472,-3.36101,85.4747
2023-03-10 21:41:55:841,0,-1.53175,-3.37184,85.4299
2023-03-10 21:41:55:851,0,-1.51576,-3.37852,85.3812
2023-03-10 21:41:55:861,0,-1.49726,-3.38727,85.3345
2023-03-10 21:41:55:871,0,-1.47286,-3.39818,85.2835
2023-03-10 21:41:55:881,0,-1.44754,-3.40937,85.2342
2023-03-10 21:41:55:892,0,-1.42245,-3.41628,85.1832
2023-03-10 21:41:55:901,0,-1.39554,-3.42795,85.1377
2023-03-10 21:41:55:912,0,-1.37521,-3.44087,85.0923
2023-03-10 21:41:55:922,0,-1.35891,-3.45809,85.048
2023-03-10 21:41:55:932,0,-1.3506,-3.47922,85.0079
2023-03-10 21:41:55:941,0,-1.35045,-3.49943,84.9725
2023-03-10 21:41:55:952,0,-1.35826,-3.52223,84.9428
2023-03-10 21:41:55:962,0,-1.37083,-3.53998,84.919
2023-03-10 21:41:55:972,0,-1.38452,-3.55596,84.8999
2023-03-10 21:41:55:982,0,-1.40181,-3.56556,84.888
2023-03-10 21:41:55:992,0,-1.42186,-3.57451,84.8822
2023-03-10 21:41:56:2,0,-1.44782,-3.58444,84.8909
2023-03-10 21:41:56:12,0,-1.47269,-3.59342,84.9087
2023-03-10 21:41:56:22,0,-1.50547,-3.59697,84.9313
2023-03-10 21:41:56:32,0,-1.5375,-3.59993,84.9578
2023-03-10 21:41:56:42,0,-1.56706,-3.59955,84.9859
2023-03-10 21:41:56:52,0,-1.59235,-3.59699,85.0156
2023-03-10 21:41:56:62,0,-1.61366,-3.5917,85.0446
2023-03-10 21:41:56:72,0,-1.6277,-3.58789,85.0666
2023-03-10 21:41:56:82,0,-1.63984,-3.58666,85.0901
2023-03-10 21:41:56:92,0,-1.64264,-3.58826,85.1048
2023-03-10 21:41:56:102,0,-1.64381,-3.59023,85.1149
2023-03-10 21:41:56:112,0,-1.645,-3.593,85.1196
2023-03-10 21:41:56:122,0,-1.64384,-3.59884,85.1186
2023-03-10 21:41:56:132,0,-1.64277,-3.5984,85.1135
2023-03-10 21:41:56:142,0,-1.6432,-3.60162,85.1054
2023-03-10 21:41:56:152,0,-1.64723,-3.6037,85.0951
2023-03-10 21:41:56:162,0,-1.65353,-3.60333,85.085
2023-03-10 21:41:56:172,0,-1.6566,-3.60307,85.0735
2023-03-10 21:41:56:182,0,-1.65522,-3.60357,85.061
2023-03-10 21:41:56:192,0,-1.64879,-3.60087,85.0473
2023-03-10 21:41:56:202,0,-1.64061,-3.59578,85.0341
2023-03-10 21:41:56:212,0,-1.63769,-3.58882,85.0185
2023-03-10 21:41:56:222,0,-1.63495,-3.58113,85.0041
2023-03-10 21:41:56:232,0,-1.63785,-3.57278,84.9955
2023-03-10 21:41:56:241,0,-1.64568,-3.56474,84.9926
2023-03-10 21:41:56:252,0,-1.65734,-3.55609,84.9943
2023-03-10 21:41:56:262,0,-1.6719,-3.55256,84.9988
2023-03-10 21:41:56:272,0,-1.68157,-3.55019,85.0066
2023-03-10 21:41:56:282,0,-1.68508,-3.54778,85.013
2023-03-10 21:41:56:292,0,-1.68481,-3.54883,85.0217
2023-03-10 21:41:56:302,0,-1.67697,-3.54355,85.0238
2023-03-10 21:41:56:312,0,-1.66677,-3.54474,85.0222
2023-03-10 21:41:56:322,0,-1.65298,-3.54748,85.0132
2023-03-10 21:41:56:332,0,-1.64401,-3.54772,85.0057
2023-03-10 21:41:56:342,0,-1.63423,-3.55516,84.9988
2023-03-10 21:41:56:352,0,-1.62645,-3.56412,84.9909
2023-03-10 21:41:56:362,0,-1.61288,-3.57038,84.9826
2023-03-10 21:41:56:372,0,-1.59811,-3.58049,84.9774
2023-03-10 21:41:56:382,0,-1.58081,-3.59027,84.979
2023-03-10 21:41:56:392,0,-1.55889,-3.60248,84.9856
2023-03-10 21:41:56:402,0,-1.54179,-3.6119,84.9978
2023-03-10 21:41:56:412,0,-1.52793,-3.61862,85.0107
2023-03-10 21:41:56:422,0,-1.51235,-3.62003,85.0304
2023-03-10 21:41:56:432,0,-1.49532,-3.61165,85.0513
2023-03-10 21:41:56:442,0,-1.47783,-3.60315,85.0778
2023-03-10 21:41:56:452,0,-1.45897,-3.58764,85.1008
2023-03-10 21:41:56:462,0,-1.44122,-3.57528,85.1259
2023-03-10 21:41:56:471,0,-1.42813,-3.56213,85.1506
2023-03-10 21:41:56:484,0,-1.41322,-3.54851,85.1743
2023-03-10 21:41:56:491,0,-1.39606,-3.53766,85.1947
2023-03-10 21:41:56:501,0,-1.37901,-3.5296,85.2124
2023-03-10 21:41:56:511,0,-1.35476,-3.52178,85.2273
2023-03-10 21:41:56:521,0,-1.33866,-3.51386,85.2443
2023-03-10 21:41:56:532,0,-1.32222,-3.50225,85.2597
2023-03-10 21:41:56:542,0,-1.30807,-3.49445,85.277
2023-03-10 21:41:56:552,0,-1.29964,-3.48787,85.2939
2023-03-10 21:41:56:562,0,-1.29424,-3.47924,85.3057
2023-03-10 21:41:56:572,0,-1.28896,-3.47727,85.3214
2023-03-10 21:41:56:582,0,-1.28454,-3.47939,85.3352
2023-03-10 21:41:56:592,0,-1.28308,-3.48054,85.3471
2023-03-10 21:41:56:602,0,-1.27965,-3.4832,85.3572
2023-03-10 21:41:56:612,0,-1.2719,-3.48278,85.3631
2023-03-10 21:41:56:622,0,-1.26306,-3.48289,85.3684
2023-03-10 21:41:56:632,0,-1.24861,-3.48266,85.3736
2023-03-10 21:41:56:642,0,-1.23492,-3.4842,85.3811
2023-03-10 21:41:56:652,0,-1.22613,-3.48386,85.3838
2023-03-10 21:41:56:662,0,-1.21519,-3.48222,85.3924
2023-03-10 21:41:56:672,0,-1.2027,-3.48327,85.4053
2023-03-10 21:41:56:682,0,-1.19172,-3.48496,85.4215
2023-03-10 21:41:56:692,0,-1.18162,-3.48483,85.4384
2023-03-10 21:41:56:702,0,-1.17414,-3.48408,85.4553
2023-03-10 21:41:56:712,0,-1.1669,-3.48118,85.4691
2023-03-10 21:41:56:722,0,-1.15518,-3.47901,85.4829
2023-03-10 21:41:56:732,0,-1.14052,-3.4768,85.4936
2023-03-10 21:41:56:742,0,-1.12591,-3.47545,85.501
2023-03-10 21:41:56:752,0,-1.10426,-3.47581,85.5094
2023-03-10 21:41:56:762,0,-1.08493,-3.47563,85.5198
2023-03-10 21:41:56:772,0,-1.06815,-3.4805,85.5294
2023-03-10 21:41:56:782,0,-1.05114,-3.48821,85.5378
2023-03-10 21:41:56:792,0,-1.0344,-3.49627,85.5465
2023-03-10 21:41:56:802,0,-1.01262,-3.50374,85.5547
2023-03-10 21:41:56:812,0,-0.990555,-3.51257,85.561
2023-03-10 21:41:56:822,0,-0.96647,-3.51484,85.5693
2023-03-10 21:41:56:832,0,-0.938205,-3.51844,85.5769
2023-03-10 21:41:56:842,0,-0.912189,-3.525,85.5851
2023-03-10 21:41:56:852,0,-0.892121,-3.53429,85.5951
2023-03-10 21:41:56:862,0,-0.875786,-3.54255,85.6075
2023-03-10 21:41:56:872,0,-0.865669,-3.55302,85.6189
2023-03-10 21:41:56:882,0,-0.860802,-3.56243,85.6313
2023-03-10 21:41:56:892,0,-0.856225,-3.57001,85.6466
2023-03-10 21:41:56:902,0,-0.861415,-3.58038,85.6641
2023-03-10 21:41:56:912,0,-0.867729,-3.58885,85.6781
2023-03-10 21:41:56:922,0,-0.871353,-3.59319,85.6934
2023-03-10 21:41:56:932,0,-0.86965,-3.59868,85.7061
2023-03-10 21:41:56:942,0,-0.863049,-3.6106,85.7172
2023-03-10 21:41:56:952,0,-0.854927,-3.61886,85.7295
2023-03-10 21:41:56:962,0,-0.844796,-3.62639,85.7406
2023-03-10 21:41:56:972,0,-0.83177,-3.63832,85.7498
2023-03-10 21:41:56:982,0,-0.827449,-3.64675,85.7572
2023-03-10 21:41:56:992,0,-0.824927,-3.65757,85.7677
2023-03-10 21:41:57:2,0,-0.822826,-3.67106,85.776
2023-03-10 21:41:57:12,0,-0.82163,-3.68915,85.7841
2023-03-10 21:41:57:22,0,-0.817788,-3.71066,85.7972
2023-03-10 21:41:57:32,0,-0.80535,-3.73625,85.8123
2023-03-10 21:41:57:42,0,-0.796303,-3.76278,85.8336
2023-03-10 21:41:57:52,0,-0.7867,-3.78553,85.8536
2023-03-10 21:41:57:62,0,-0.780799,-3.80991,85.8799
2023-03-10 21:41:57:72,0,-0.777672,-3.83303,85.9077
2023-03-10 21:41:57:82,0,-0.774676,-3.85259,85.9357
2023-03-10 21:41:57:92,0,-0.775937,-3.87901,85.9696
2023-03-10 21:41:57:102,0,-0.777853,-3.90476,86.0042
2023-03-10 21:41:57:112,0,-0.782465,-3.92885,86.0378
2023-03-10 21:41:57:122,0,-0.786338,-3.95597,86.0694
2023-03-10 21:41:57:132,0,-0.788452,-3.97992,86.0974
2023-03-10 21:41:57:142,0,-0.791723,-3.99882,86.1242
2023-03-10 21:41:57:152,0,-0.790899,-4.01765,86.1542
2023-03-10 21:41:57:162,0,-0.790461,-4.03463,86.1815
2023-03-10 21:41:57:172,0,-0.793041,-4.04875,86.2091
2023-03-10 21:41:57:182,0,-0.802542,-4.06011,86.2382
2023-03-10 21:41:57:192,0,-0.810587,-4.06904,86.259
2023-03-10 21:41:57:202,0,-0.816984,-4.0727,86.2771
2023-03-10 21:41:57:212,0,-0.824496,-4.07422,86.2917
2023-03-10 21:41:57:221,0,-0.831267,-4.07666,86.3072
2023-03-10 21:41:57:232,0,-0.839655,-4.08102,86.3227
2023-03-10 21:41:57:242,0,-0.84392,-4.08184,86.3328
2023-03-10 21:41:57:252,0,-0.846754,-4.08154,86.3357
2023-03-10 21:41:57:262,0,-0.8462,-4.08076,86.334
2023-03-10 21:41:57:272,0,-0.842391,-4.08072,86.3323
2023-03-10 21:41:57:282,0,-0.835749,-4.08411,86.3292
2023-03-10 21:41:57:292,0,-0.830566,-4.08802,86.3301
2023-03-10 21:41:57:302,0,-0.825292,-4.09509,86.3287
2023-03-10 21:41:57:312,0,-0.819857,-4.09791,86.3272
2023-03-10 21:41:57:322,0,-0.811445,-4.09742,86.3273
2023-03-10 21:41:57:332,0,-0.802124,-4.08868,86.3237
2023-03-10 21:41:57:342,0,-0.796054,-4.08107,86.3216
2023-03-10 21:41:57:352,0,-0.791544,-4.07646,86.3191
2023-03-10 21:41:57:362,0,-0.790343,-4.06975,86.3195
2023-03-10 21:41:57:372,0,-0.797105,-4.06832,86.3189
2023-03-10 21:41:57:382,0,-0.801982,-4.06566,86.3209
2023-03-10 21:41:57:392,0,-0.807278,-4.06192,86.3191
2023-03-10 21:41:57:402,0,-0.810948,-4.05477,86.3148
2023-03-10 21:41:57:412,0,-0.810842,-4.05397,86.3135
2023-03-10 21:41:57:422,0,-0.805072,-4.05157,86.3111
2023-03-10 21:41:57:432,0,-0.801708,-4.05304,86.3096
2023-03-10 21:41:57:442,0,-0.796025,-4.05746,86.3107
2023-03-10 21:41:57:452,0,-0.79128,-4.06662,86.3081
2023-03-10 21:41:57:462,0,-0.789647,-4.0776,86.3076
2023-03-10 21:41:57:472,0,-0.784658,-4.08756,86.3114
2023-03-10 21:41:57:482,0,-0.781216,-4.09792,86.3147
2023-03-10 21:41:57:492,0,-0.777366,-4.1087,86.3154
2023-03-10 21:41:57:502,0,-0.774728,-4.1169,86.3171
2023-03-10 21:41:57:512,0,-0.770015,-4.12118,86.3195
2023-03-10 21:41:57:522,0,-0.773755,-4.1315,86.3226
2023-03-10 21:41:57:532,0,-0.773191,-4.13993,86.3252
2023-03-10 21:41:57:542,0,-0.776391,-4.14878,86.3258
2023-03-10 21:41:57:552,0,-0.777644,-4.15546,86.3239
2023-03-10 21:41:57:562,0,-0.78159,-4.16596,86.3235
2023-03-10 21:41:57:572,0,-0.790516,-4.17447,86.3236
2023-03-10 21:41:57:582,0,-0.797006,-4.18143,86.3245
2023-03-10 21:41:57:592,0,-0.804457,-4.18768,86.3231
2023-03-10 21:41:57:602,0,-0.809961,-4.18917,86.326
2023-03-10 21:41:57:612,0,-0.819455,-4.19003,86.3313
2023-03-10 21:41:57:622,0,-0.828707,-4.18957,86.3389
2023-03-10 21:41:57:632,0,-0.8376,-4.19091,86.3503
2023-03-10 21:41:57:642,0,-0.845809,-4.19814,86.3646
2023-03-10 21:41:57:652,0,-0.850506,-4.20091,86.3763
2023-03-10 21:41:57:662,0,-0.858471,-4.205,86.389
2023-03-10 21:41:57:672,0,-0.865644,-4.21267,86.4029
2023-03-10 21:41:57:682,0,-0.875538,-4.22063,86.4131
2023-03-10 21:41:57:692,0,-0.880984,-4.22484,86.4203
2023-03-10 21:41:57:702,0,-0.889581,-4.23385,86.4228
2023-03-10 21:41:57:712,0,-0.895628,-4.24513,86.4223
2023-03-10 21:41:57:722,0,-0.908398,-4.25295,86.4235
2023-03-10 21:41:57:732,0,-0.919461,-4.26112,86.424
2023-03-10 21:41:57:742,0,-0.928104,-4.27161,86.4209
2023-03-10 21:41:57:752,0,-0.933126,-4.28585,86.423
2023-03-10 21:41:57:762,0,-0.936303,-4.29853,86.4251
2023-03-10 21:41:57:772,0,-0.942048,-4.31256,86.4312
2023-03-10 21:41:57:782,0,-0.946386,-4.32636,86.4411
2023-03-10 21:41:57:792,0,-0.951281,-4.33755,86.4496
2023-03-10 21:41:57:802,0,-0.955005,-4.34661,86.458
2023-03-10 21:41:57:812,0,-0.958778,-4.35364,86.465
2023-03-10 21:41:57:822,0,-0.962187,-4.35775,86.4756
2023-03-10 21:41:57:832,0,-0.969112,-4.35723,86.4802
2023-03-10 21:41:57:842,0,-0.972359,-4.36104,86.4838
2023-03-10 21:41:57:852,0,-0.967479,-4.3629,86.4881
2023-03-10 21:41:57:862,0,-0.956947,-4.36062,86.4899
2023-03-10 21:41:57:872,0,-0.951527,-4.36298,86.4948
2023-03-10 21:41:57:882,0,-0.943922,-4.36308,86.4978
2023-03-10 21:41:57:892,0,-0.934037,-4.3589,86.5001
2023-03-10 21:41:57:902,0,-0.924638,-4.35597,86.4977
2023-03-10 21:41:57:912,0,-0.915025,-4.35149,86.4975
2023-03-10 21:41:57:922,0,-0.905006,-4.34752,86.4971
2023-03-10 21:41:57:932,0,-0.894289,-4.34528,86.4947
2023-03-10 21:41:57:942,0,-0.881587,-4.34517,86.4919
2023-03-10 21:41:57:952,0,-0.874265,-4.3488,86.4905
2023-03-10 21:41:57:962,0,-0.865854,-4.35518,86.4885
2023-03-10 21:41:57:972,0,-0.858065,-4.35475,86.4827
2023-03-10 21:41:57:982,0,-0.853764,-4.35251,86.4725
2023-03-10 21:41:57:992,0,-0.851064,-4.34707,86.4608
2023-03-10 21:41:58:2,0,-0.84991,-4.34106,86.4486
2023-03-10 21:41:58:12,0,-0.855361,-4.34058,86.4403
2023-03-10 21:41:58:22,0,-0.86091,-4.34341,86.431
2023-03-10 21:41:58:32,0,-0.867785,-4.34729,86.4244
2023-03-10 21:41:58:42,0,-0.872704,-4.35138,86.4183
2023-03-10 21:41:58:52,0,-0.87486,-4.35573,86.4141
2023-03-10 21:41:58:62,0,-0.875974,-4.35761,86.4122
2023-03-10 21:41:58:72,0,-0.87656,-4.36169,86.4102
2023-03-10 21:41:58:82,0,-0.875111,-4.36384,86.4112
2023-03-10 21:41:58:92,0,-0.869823,-4.36657,86.4105
2023-03-10 21:41:58:102,0,-0.866934,-4.36542,86.4069
2023-03-10 21:41:58:112,0,-0.862892,-4.36556,86.4042
2023-03-10 21:41:58:122,0,-0.859324,-4.36505,86.3949
2023-03-10 21:41:58:132,0,-0.855769,-4.36189,86.3822
2023-03-10 21:41:58:142,0,-0.84874,-4.35944,86.3642
2023-03-10 21:41:58:152,0,-0.83934,-4.36013,86.3436
2023-03-10 21:41:58:162,0,-0.826186,-4.36204,86.3147
2023-03-10 21:41:58:172,0,-0.812436,-4.35789,86.282
2023-03-10 21:41:58:182,0,-0.793055,-4.35166,86.2415
2023-03-10 21:41:58:192,0,-0.77726,-4.34149,86.1881
2023-03-10 21:41:58:202,0,-0.767305,-4.33691,86.1268
2023-03-10 21:41:58:212,0,-0.758513,-4.3336,86.0598
2023-03-10 21:41:58:222,0,-0.75071,-4.32768,85.9918
2023-03-10 21:41:58:232,0,-0.744344,-4.32416,85.9226
2023-03-10 21:41:58:242,0,-0.738077,-4.31731,85.8434
2023-03-10 21:41:58:252,0,-0.733267,-4.30342,85.763
2023-03-10 21:41:58:262,0,-0.726436,-4.29073,85.6765
2023-03-10 21:41:58:272,0,-0.722568,-4.27411,85.5899
2023-03-10 21:41:58:282,0,-0.721006,-4.25965,85.5062
2023-03-10 21:41:58:292,0,-0.720158,-4.24361,85.4213
2023-03-10 21:41:58:302,0,-0.719353,-4.22947,85.3371
2023-03-10 21:41:58:312,0,-0.720206,-4.21393,85.255
2023-03-10 21:41:58:322,0,-0.716538,-4.19944,85.173
2023-03-10 21:41:58:332,0,-0.708917,-4.18755,85.0943
2023-03-10 21:41:58:342,0,-0.698713,-4.1758,85.0188
2023-03-10 21:41:58:352,0,-0.690029,-4.16455,84.9507
2023-03-10 21:41:58:362,0,-0.680197,-4.1514,84.8812
2023-03-10 21:41:58:372,0,-0.67173,-4.13933,84.8176
2023-03-10 21:41:58:382,0,-0.660537,-4.13286,84.7586
2023-03-10 21:41:58:392,0,-0.649062,-4.12329,84.7065
2023-03-10 21:41:58:402,0,-0.636374,-4.11788,84.656
2023-03-10 21:41:58:412,0,-0.622101,-4.11238,84.6077
2023-03-10 21:41:58:422,0,-0.605423,-4.10786,84.5597
2023-03-10 21:41:58:432,0,-0.589475,-4.10394,84.5142
2023-03-10 21:41:58:442,0,-0.572582,-4.09919,84.4719
2023-03-10 21:41:58:452,0,-0.555683,-4.09099,84.4296
2023-03-10 21:41:58:462,0,-0.539468,-4.08602,84.394
2023-03-10 21:41:58:472,0,-0.524665,-4.08038,84.3594
2023-03-10 21:41:58:482,0,-0.511926,-4.07594,84.3311
2023-03-10 21:41:58:492,0,-0.500218,-4.07173,84.3056
2023-03-10 21:41:58:502,0,-0.497409,-4.06466,84.2846
2023-03-10 21:41:58:512,0,-0.495074,-4.06191,84.2691
2023-03-10 21:41:58:522,0,-0.491716,-4.05557,84.2557
2023-03-10 21:41:58:532,0,-0.485792,-4.05004,84.2385
2023-03-10 21:41:58:542,0,-0.479991,-4.04486,84.224
2023-03-10 21:41:58:552,0,-0.476174,-4.03512,84.2089
2023-03-10 21:41:58:562,0,-0.471035,-4.02708,84.1983
2023-03-10 21:41:58:572,0,-0.468365,-4.02224,84.1884
2023-03-10 21:41:58:582,0,-0.465147,-4.01205,84.177
2023-03-10 21:41:58:592,0,-0.464149,-4.00633,84.1678
2023-03-10 21:41:58:602,0,-0.46726,-3.99692,84.1616
2023-03-10 21:41:58:612,0,-0.469327,-3.98846,84.1566
2023-03-10 21:41:58:622,0,-0.473727,-3.9838,84.1536
2023-03-10 21:41:58:632,0,-0.478215,-3.98113,84.1504
2023-03-10 21:41:58:642,0,-0.477807,-3.97669,84.1439
2023-03-10 21:41:58:652,0,-0.473629,-3.97081,84.1383
2023-03-10 21:41:58:662,0,-0.471915,-3.96604,84.1351
2023-03-10 21:41:58:672,0,-0.472307,-3.96146,84.1317
2023-03-10 21:41:58:682,0,-0.473977,-3.9602,84.1315
2023-03-10 21:41:58:692,0,-0.478132,-3.96222,84.1299
2023-03-10 21:41:58:702,0,-0.48469,-3.96327,84.1378
2023-03-10 21:41:58:712,0,-0.491861,-3.96454,84.1451
2023-03-10 21:41:58:722,0,-0.498548,-3.96907,84.1527
2023-03-10 21:41:58:732,0,-0.511746,-3.9711,84.1616
2023-03-10 21:41:58:742,0,-0.524763,-3.97271,84.1677
2023-03-10 21:41:58:752,0,-0.536538,-3.97003,84.1763
2023-03-10 21:41:58:762,0,-0.548755,-3.96348,84.18
2023-03-10 21:41:58:772,0,-0.562303,-3.96007,84.1832
2023-03-10 21:41:58:782,0,-0.571907,-3.96158,84.1828
2023-03-10 21:41:58:792,0,-0.58445,-3.96061,84.1831
2023-03-10 21:41:58:802,0,-0.591833,-3.95498,84.1807
2023-03-10 21:41:58:812,0,-0.601588,-3.95076,84.177
2023-03-10 21:41:58:822,0,-0.606027,-3.94932,84.173
2023-03-10 21:41:58:832,0,-0.605012,-3.95118,84.1704
2023-03-10 21:41:58:842,0,-0.602432,-3.95647,84.1713
2023-03-10 21:41:58:852,0,-0.600873,-3.96036,84.1753
2023-03-10 21:41:58:862,0,-0.603492,-3.96559,84.18
2023-03-10 21:41:58:872,0,-0.609305,-3.96248,84.1841
2023-03-10 21:41:58:882,0,-0.617031,-3.95823,84.1868
2023-03-10 21:41:58:892,0,-0.632418,-3.95381,84.1928
2023-03-10 21:41:58:902,0,-0.647365,-3.94523,84.1963
2023-03-10 21:41:58:912,0,-0.662378,-3.93716,84.195
2023-03-10 21:41:58:922,0,-0.677329,-3.93507,84.1903
2023-03-10 21:41:58:932,0,-0.685307,-3.9352,84.187
2023-03-10 21:41:58:942,0,-0.692378,-3.93715,84.1804
2023-03-10 21:41:58:952,0,-0.697352,-3.94066,84.1775
2023-03-10 21:41:58:962,0,-0.703556,-3.94589,84.1722
2023-03-10 21:41:58:972,0,-0.707787,-3.95242,84.1729
2023-03-10 21:41:58:982,0,-0.720488,-3.96318,84.1737
2023-03-10 21:41:58:992,0,-0.732826,-3.97557,84.1774
2023-03-10 21:41:59:2,0,-0.745545,-3.98279,84.1826
2023-03-10 21:41:59:12,0,-0.760383,-3.98867,84.1875
2023-03-10 21:41:59:22,0,-0.772652,-3.99714,84.1883
2023-03-10 21:41:59:32,0,-0.783102,-4.00254,84.1853
2023-03-10 21:41:59:42,0,-0.789898,-4.00763,84.1806
2023-03-10 21:41:59:52,0,-0.795705,-4.01248,84.1752
2023-03-10 21:41:59:62,0,-0.800039,-4.00847,84.1666
2023-03-10 21:41:59:72,0,-0.80221,-4.00211,84.1562
2023-03-10 21:41:59:82,0,-0.803465,-4.00083,84.1461
2023-03-10 21:41:59:92,0,-0.803333,-3.99813,84.1364
2023-03-10 21:41:59:102,0,-0.804052,-4.00169,84.1282
2023-03-10 21:41:59:112,0,-0.800516,-4.00601,84.1252
2023-03-10 21:41:59:122,0,-0.797745,-4.01034,84.1233
2023-03-10 21:41:59:132,0,-0.798288,-4.01151,84.1176
2023-03-10 21:41:59:142,0,-0.798205,-4.00936,84.1135
2023-03-10 21:41:59:152,0,-0.802355,-4.00213,84.1095
2023-03-10 21:41:59:162,0,-0.811843,-3.9932,84.1053
2023-03-10 21:41:59:172,0,-0.822777,-3.98682,84.1003
2023-03-10 21:41:59:182,0,-0.835394,-3.98305,84.0988
2023-03-10 21:41:59:192,0,-0.850974,-3.97841,84.095
2023-03-10 21:41:59:202,0,-0.862736,-3.97712,84.0935
2023-03-10 21:41:59:212,0,-0.867716,-3.97244,84.0925
2023-03-10 21:41:59:222,0,-0.867319,-3.97171,84.0898
2023-03-10 21:41:59:232,0,-0.868345,-3.97652,84.0895
2023-03-10 21:41:59:242,0,-0.871994,-3.98206,84.0902
2023-03-10 21:41:59:252,0,-0.874213,-3.98681,84.0916
2023-03-10 21:41:59:262,0,-0.880131,-3.98991,84.0942
2023-03-10 21:41:59:272,0,-0.88391,-3.99402,84.1
2023-03-10 21:41:59:282,0,-0.885248,-3.99934,84.1084
2023-03-10 21:41:59:292,0,-0.892706,-4.00592,84.1201
2023-03-10 21:41:59:302,0,-0.902903,-4.01453,84.1321
2023-03-10 21:41:59:312,0,-0.910763,-4.01715,84.1483
2023-03-10 21:41:59:322,0,-0.919269,-4.01897,84.1618
2023-03-10 21:41:59:332,0,-0.924864,-4.02128,84.1692
2023-03-10 21:41:59:342,0,-0.930274,-4.0246,84.1771
2023-03-10 21:41:59:352,0,-0.932933,-4.03083,84.1842
2023-03-10 21:41:59:362,0,-0.934625,-4.03283,84.1903
2023-03-10 21:41:59:372,0,-0.92835,-4.0392,84.1924
2023-03-10 21:41:59:382,0,-0.91897,-4.04908,84.1938
2023-03-10 21:41:59:392,0,-0.911427,-4.05147,84.1943
2023-03-10 21:41:59:402,0,-0.903067,-4.05614,84.1937
2023-03-10 21:41:59:412,0,-0.901705,-4.06301,84.1955
2023-03-10 21:41:59:422,0,-0.893958,-4.06893,84.1962
2023-03-10 21:41:59:432,0,-0.889805,-4.0689,84.1961
2023-03-10 21:41:59:442,0,-0.885316,-4.0697,84.1988
2023-03-10 21:41:59:452,0,-0.877185,-4.07546,84.2043
2023-03-10 21:41:59:462,0,-0.870614,-4.07971,84.2121
2023-03-10 21:41:59:472,0,-0.863304,-4.07859,84.2169
2023-03-10 21:41:59:482,0,-0.853206,-4.08095,84.2211
2023-03-10 21:41:59:492,0,-0.841833,-4.0786,84.2279
2023-03-10 21:41:59:502,0,-0.832826,-4.07846,84.2331
2023-03-10 21:41:59:512,0,-0.823774,-4.07825,84.2367
2023-03-10 21:41:59:522,0,-0.816685,-4.07822,84.2418
2023-03-10 21:41:59:532,0,-0.811862,-4.08139,84.2438
2023-03-10 21:41:59:542,0,-0.802558,-4.08882,84.2501
2023-03-10 21:41:59:552,0,-0.791491,-4.09201,84.255
2023-03-10 21:41:59:562,0,-0.782226,-4.09711,84.2574
2023-03-10 21:41:59:572,0,-0.775512,-4.10068,84.2629
2023-03-10 21:41:59:582,0,-0.768174,-4.10387,84.2714
2023-03-10 21:41:59:592,0,-0.762343,-4.11118,84.2824
2023-03-10 21:41:59:602,0,-0.760678,-4.11734,84.2926
2023-03-10 21:41:59:612,0,-0.760232,-4.11904,84.306
2023-03-10 21:41:59:622,0,-0.756001,-4.11979,84.3171
2023-03-10 21:41:59:632,0,-0.74883,-4.11651,84.3294
2023-03-10 21:41:59:642,0,-0.735883,-4.11287,84.3398
2023-03-10 21:41:59:652,0,-0.723335,-4.11216,84.3492
2023-03-10 21:41:59:662,0,-0.709721,-4.10842,84.3592
2023-03-10 21:41:59:672,0,-0.697324,-4.10529,84.3677
2023-03-10 21:41:59:682,0,-0.685733,-4.10388,84.3744
2023-03-10 21:41:59:692,0,-0.678991,-4.0992,84.3787
2023-03-10 21:41:59:702,0,-0.674185,-4.09675,84.378
2023-03-10 21:41:59:712,0,-0.673421,-4.09328,84.3744
2023-03-10 21:41:59:722,0,-0.669811,-4.09234,84.3709
2023-03-10 21:41:59:732,0,-0.660432,-4.09479,84.3709
2023-03-10 21:41:59:742,0,-0.648285,-4.09761,84.3734
2023-03-10 21:41:59:752,0,-0.63877,-4.10476,84.3794
2023-03-10 21:41:59:762,0,-0.629854,-4.11152,84.3802
2023-03-10 21:41:59:772,0,-0.624686,-4.11596,84.387
2023-03-10 21:41:59:782,0,-0.621716,-4.12281,84.3936
2023-03-10 21:41:59:792,0,-0.622521,-4.12508,84.4052
2023-03-10 21:41:59:802,0,-0.623144,-4.12963,84.4176
2023-03-10 21:41:59:812,0,-0.62464,-4.13365,84.4319
2023-03-10 21:41:59:822,0,-0.627817,-4.13674,84.4447
2023-03-10 21:41:59:832,0,-0.632117,-4.13676,84.4562
2023-03-10 21:41:59:842,0,-0.636822,-4.13795,84.4582
2023-03-10 21:41:59:852,0,-0.645735,-4.14069,84.4612
2023-03-10 21:41:59:862,0,-0.650986,-4.14067,84.4623
2023-03-10 21:41:59:872,0,-0.656397,-4.13657,84.4608
2023-03-10 21:41:59:882,0,-0.659503,-4.13303,84.4584
2023-03-10 21:41:59:892,0,-0.661049,-4.12666,84.4532
2023-03-10 21:41:59:902,0,-0.669056,-4.12543,84.453
2023-03-10 21:41:59:912,0,-0.674818,-4.12479,84.4454
2023-03-10 21:41:59:922,0,-0.681725,-4.12089,84.4371
2023-03-10 21:41:59:932,0,-0.687771,-4.11778,84.4297
2023-03-10 21:41:59:942,0,-0.689516,-4.11833,84.4202
2023-03-10 21:41:59:952,0,-0.694614,-4.11267,84.4109
2023-03-10 21:41:59:962,0,-0.695151,-4.10839,84.4005
2023-03-10 21:41:59:972,0,-0.694062,-4.10108,84.3853
2023-03-10 21:41:59:982,0,-0.690883,-4.09158,84.3698
2023-03-10 21:41:59:992,0,-0.685463,-4.08437,84.3528
2023-03-10 21:42:00:2,0,-0.67852,-4.0813,84.3407
2023-03-10 21:42:00:12,0,-0.674441,-4.07803,84.3336
2023-03-10 21:42:00:22,0,-0.674438,-4.07442,84.3274
2023-03-10 21:42:00:32,0,-0.67686,-4.06746,84.3233
2023-03-10 21:42:00:42,0,-0.68167,-4.0619,84.3239
2023-03-10 21:42:00:52,0,-0.690367,-4.05476,84.3306
2023-03-10 21:42:00:62,0,-0.695481,-4.04849,84.3365
2023-03-10 21:42:00:72,0,-0.701968,-4.04506,84.3431
2023-03-10 21:42:00:82,0,-0.710519,-4.04064,84.349
2023-03-10 21:42:00:92,0,-0.71519,-4.03713,84.3564
2023-03-10 21:42:00:102,0,-0.719256,-4.03571,84.3669
2023-03-10 21:42:00:112,0,-0.717435,-4.03531,84.3713
2023-03-10 21:42:00:122,0,-0.709925,-4.03536,84.3733
2023-03-10 21:42:00:132,0,-0.699342,-4.03386,84.3756
2023-03-10 21:42:00:142,0,-0.6893,-4.0366,84.3756
2023-03-10 21:42:00:152,0,-0.678613,-4.03762,84.3755
2023-03-10 21:42:00:162,0,-0.665823,-4.04373,84.3734
2023-03-10 21:42:00:172,0,-0.656063,-4.0478,84.3705
2023-03-10 21:42:00:182,0,-0.648742,-4.05316,84.3711
2023-03-10 21:42:00:192,0,-0.637662,-4.05761,84.3747
2023-03-10 21:42:00:202,0,-0.627491,-4.05973,84.3806
2023-03-10 21:42:00:212,0,-0.619296,-4.06405,84.3846
2023-03-10 21:42:00:222,0,-0.611495,-4.06803,84.3892
2023-03-10 21:42:00:232,0,-0.60426,-4.07051,84.3993
2023-03-10 21:42:00:242,0,-0.601286,-4.07168,84.4093
2023-03-10 21:42:00:252,0,-0.599159,-4.07235,84.4164
2023-03-10 21:42:00:262,0,-0.600538,-4.07112,84.4252
2023-03-10 21:42:00:272,0,-0.605331,-4.07198,84.4365
2023-03-10 21:42:00:282,0,-0.607263,-4.07388,84.4431
2023-03-10 21:42:00:292,0,-0.61051,-4.07345,84.4484
2023-03-10 21:42:00:302,0,-0.61294,-4.07389,84.4515
2023-03-10 21:42:00:312,0,-0.612435,-4.07403,84.4499
2023-03-10 21:42:00:322,0,-0.61364,-4.07634,84.4499
2023-03-10 21:42:00:332,0,-0.616587,-4.0779,84.4511
2023-03-10 21:42:00:342,0,-0.614746,-4.07672,84.4464
2023-03-10 21:42:00:352,0,-0.613578,-4.07055,84.4461
2023-03-10 21:42:00:362,0,-0.617622,-4.07066,84.4471
2023-03-10 21:42:00:372,0,-0.62142,-4.07032,84.447
2023-03-10 21:42:00:382,0,-0.625893,-4.0697,84.454
2023-03-10 21:42:00:392,0,-0.627157,-4.06567,84.4612
2023-03-10 21:42:00:402,0,-0.626049,-4.06828,84.4721
2023-03-10 21:42:00:412,0,-0.622365,-4.06955,84.4881
2023-03-10 21:42:00:422,0,-0.613068,-4.07347,84.4998
2023-03-10 21:42:00:432,0,-0.605349,-4.07509,84.5147
2023-03-10 21:42:00:442,0,-0.594433,-4.08257,84.5261
2023-03-10 21:42:00:452,0,-0.588948,-4.08656,84.5361
2023-03-10 21:42:00:462,0,-0.583233,-4.09058,84.5423
2023-03-10 21:42:00:472,0,-0.578559,-4.09486,84.5504
2023-03-10 21:42:00:482,0,-0.573168,-4.0973,84.5546
2023-03-10 21:42:00:492,0,-0.568559,-4.10332,84.5604
2023-03-10 21:42:00:502,0,-0.56787,-4.1097,84.564
2023-03-10 21:42:00:512,0,-0.563079,-4.11539,84.5691
2023-03-10 21:42:00:522,0,-0.556165,-4.12522,84.5744
2023-03-10 21:42:00:532,0,-0.550362,-4.12852,84.5778
2023-03-10 21:42:00:542,0,-0.545247,-4.13018,84.581
2023-03-10 21:42:00:552,0,-0.540742,-4.13246,84.5862
2023-03-10 21:42:00:562,0,-0.53462,-4.13194,84.5864
2023-03-10 21:42:00:572,0,-0.528739,-4.12956,84.5821
2023-03-10 21:42:00:582,0,-0.52279,-4.12964,84.5819
2023-03-10 21:42:00:592,0,-0.517949,-4.1277,84.5788
2023-03-10 21:42:00:602,0,-0.511863,-4.13252,84.5788
2023-03-10 21:42:00:612,0,-0.507297,-4.1401,84.5814
2023-03-10 21:42:00:622,0,-0.506001,-4.15197,84.5874
2023-03-10 21:42:00:632,0,-0.510142,-4.16614,84.5981
2023-03-10 21:42:00:642,0,-0.513164,-4.18212,84.6117
2023-03-10 21:42:00:652,0,-0.511516,-4.19325,84.6235
2023-03-10 21:42:00:662,0,-0.514064,-4.20231,84.637
2023-03-10 21:42:00:672,0,-0.510478,-4.21387,84.6523
2023-03-10 21:42:00:682,0,-0.511204,-4.22229,84.6688
2023-03-10 21:42:00:692,0,-0.514633,-4.23284,84.6899
2023-03-10 21:42:00:702,0,-0.515428,-4.242,84.7108
2023-03-10 21:42:00:712,0,-0.516544,-4.24969,84.7273
2023-03-10 21:42:00:722,0,-0.524261,-4.25727,84.7446
2023-03-10 21:42:00:732,0,-0.52808,-4.26276,84.7578
2023-03-10 21:42:00:742,0,-0.530571,-4.26696,84.7759
2023-03-10 21:42:00:752,0,-0.532054,-4.26804,84.7887
2023-03-10 21:42:00:762,0,-0.538417,-4.26704,84.8071
2023-03-10 21:42:00:772,0,-0.545666,-4.2688,84.8242
2023-03-10 21:42:00:782,0,-0.550857,-4.26579,84.8371
2023-03-10 21:42:00:792,0,-0.560246,-4.26453,84.8504
2023-03-10 21:42:00:802,0,-0.568205,-4.261,84.8684
2023-03-10 21:42:00:812,0,-0.574461,-4.2581,84.8833
2023-03-10 21:42:00:822,0,-0.581327,-4.25927,84.8967
2023-03-10 21:42:00:832,0,-0.586238,-4.25917,84.9124
2023-03-10 21:42:00:842,0,-0.5937,-4.25489,84.9198
2023-03-10 21:42:00:852,0,-0.594086,-4.25136,84.9233
2023-03-10 21:42:00:862,0,-0.590549,-4.25201,84.929
2023-03-10 21:42:00:872,0,-0.590817,-4.25783,84.9384
2023-03-10 21:42:00:882,0,-0.584857,-4.26755,84.9453
2023-03-10 21:42:00:892,0,-0.579915,-4.27847,84.9484
2023-03-10 21:42:00:902,0,-0.576654,-4.28404,84.9541
2023-03-10 21:42:00:912,0,-0.572712,-4.29084,84.9591
2023-03-10 21:42:00:921,0,-0.570859,-4.28848,84.961
2023-03-10 21:42:00:931,0,-0.566836,-4.28822,84.9621
2023-03-10 21:42:00:941,0,-0.564971,-4.29393,84.9639
2023-03-10 21:42:00:951,0,-0.561638,-4.30123,84.965
2023-03-10 21:42:00:962,0,-0.558477,-4.30848,84.9689
2023-03-10 21:42:00:972,0,-0.553346,-4.31543,84.9678
2023-03-10 21:42:00:982,0,-0.552705,-4.31964,84.9677
2023-03-10 21:42:00:992,0,-0.550214,-4.32571,84.9675
2023-03-10 21:42:01:2,0,-0.549736,-4.33069,84.9655
2023-03-10 21:42:01:12,0,-0.546892,-4.33964,84.9662
2023-03-10 21:42:01:22,0,-0.545986,-4.34424,84.9654
2023-03-10 21:42:01:32,0,-0.543909,-4.35256,84.9726
2023-03-10 21:42:01:42,0,-0.543895,-4.36086,84.9792
2023-03-10 21:42:01:52,0,-0.546087,-4.37005,84.9901
2023-03-10 21:42:01:62,0,-0.548434,-4.38063,85.0049
2023-03-10 21:42:01:72,0,-0.553046,-4.39029,85.0181
2023-03-10 21:42:01:82,0,-0.56346,-4.39916,85.0334
2023-03-10 21:42:01:92,0,-0.572719,-4.40871,85.0471
2023-03-10 21:42:01:102,0,-0.583353,-4.41802,85.0561
2023-03-10 21:42:01:112,0,-0.59138,-4.4264,85.064
2023-03-10 21:42:01:122,0,-0.597957,-4.43592,85.0667
2023-03-10 21:42:01:132,0,-0.603949,-4.44679,85.0649
2023-03-10 21:42:01:142,0,-0.606355,-4.45308,85.057
2023-03-10 21:42:01:152,0,-0.610891,-4.46145,85.0484
2023-03-10 21:42:01:162,0,-0.616925,-4.4712,85.0395
2023-03-10 21:42:01:172,0,-0.620779,-4.48167,85.0281
2023-03-10 21:42:01:181,0,-0.629816,-4.48641,85.013
2023-03-10 21:42:01:192,0,-0.6381,-4.49294,85.0004
2023-03-10 21:42:01:202,0,-0.647177,-4.4977,84.9857
2023-03-10 21:42:01:212,0,-0.651817,-4.50064,84.9722
2023-03-10 21:42:01:222,0,-0.662371,-4.5035,84.9576
2023-03-10 21:42:01:232,0,-0.671285,-4.50643,84.9468
2023-03-10 21:42:01:242,0,-0.676781,-4.50676,84.9372
2023-03-10 21:42:01:252,0,-0.679379,-4.50615,84.9321
2023-03-10 21:42:01:262,0,-0.681602,-4.50427,84.9301
2023-03-10 21:42:01:272,0,-0.68019,-4.50157,84.9333
2023-03-10 21:42:01:282,0,-0.67633,-4.49558,84.9361
2023-03-10 21:42:01:292,0,-0.671238,-4.49831,84.9413
2023-03-10 21:42:01:302,0,-0.665455,-4.4968,84.9447
2023-03-10 21:42:01:312,0,-0.658722,-4.49783,84.9489
2023-03-10 21:42:01:322,0,-0.651599,-4.49727,84.9588
2023-03-10 21:42:01:332,0,-0.641654,-4.49956,84.97
2023-03-10 21:42:01:342,0,-0.634197,-4.50026,84.9771
2023-03-10 21:42:01:352,0,-0.626937,-4.49873,84.9781
2023-03-10 21:42:01:362,0,-0.619279,-4.49403,84.9775
2023-03-10 21:42:01:372,0,-0.613488,-4.49069,84.9732
2023-03-10 21:42:01:382,0,-0.606288,-4.48781,84.9658
2023-03-10 21:42:01:392,0,-0.598305,-4.48639,84.951
2023-03-10 21:42:01:402,0,-0.598725,-4.48343,84.9381
2023-03-10 21:42:01:412,0,-0.600197,-4.47787,84.9221
2023-03-10 21:42:01:422,0,-0.598828,-4.47529,84.9076
2023-03-10 21:42:01:432,0,-0.599302,-4.47631,84.8969
2023-03-10 21:42:01:442,0,-0.594361,-4.48457,84.8887
2023-03-10 21:42:01:452,0,-0.590288,-4.49841,84.8843
2023-03-10 21:42:01:462,0,-0.591388,-4.50934,84.8819
2023-03-10 21:42:01:472,0,-0.591409,-4.51919,84.8849
2023-03-10 21:42:01:482,0,-0.593859,-4.52509,84.8846
2023-03-10 21:42:01:492,0,-0.59247,-4.53002,84.8888
2023-03-10 21:42:01:502,0,-0.590848,-4.53804,84.8932
2023-03-10 21:42:01:512,0,-0.587844,-4.54806,84.8995
2023-03-10 21:42:01:522,0,-0.590804,-4.55963,84.9083
2023-03-10 21:42:01:532,0,-0.590979,-4.56678,84.9131
2023-03-10 21:42:01:542,0,-0.589005,-4.57133,84.9168
2023-03-10 21:42:01:552,0,-0.584583,-4.5724,84.9207
2023-03-10 21:42:01:562,0,-0.583437,-4.57599,84.9232
2023-03-10 21:42:01:572,0,-0.581593,-4.57697,84.9224
2023-03-10 21:42:01:582,0,-0.58169,-4.57695,84.9196
2023-03-10 21:42:01:592,0,-0.580013,-4.57719,84.9168
2023-03-10 21:42:01:602,0,-0.579465,-4.56872,84.9098
2023-03-10 21:42:01:612,0,-0.579818,-4.5603,84.9009
2023-03-10 21:42:01:622,0,-0.580641,-4.55027,84.8901
2023-03-10 21:42:01:632,0,-0.577404,-4.53928,84.8801
2023-03-10 21:42:01:642,0,-0.572008,-4.53276,84.8683
2023-03-10 21:42:01:652,0,-0.567653,-4.52259,84.8524
2023-03-10 21:42:01:662,0,-0.563468,-4.5107,84.838
2023-03-10 21:42:01:672,0,-0.55754,-4.4916,84.821
2023-03-10 21:42:01:682,0,-0.547896,-4.48085,84.7994
2023-03-10 21:42:01:692,0,-0.539801,-4.47582,84.7818
2023-03-10 21:42:01:702,0,-0.529921,-4.47083,84.7662
2023-03-10 21:42:01:712,0,-0.519169,-4.46889,84.751
2023-03-10 21:42:01:722,0,-0.509483,-4.46159,84.737
2023-03-10 21:42:01:732,0,-0.503625,-4.45099,84.7232
2023-03-10 21:42:01:742,0,-0.495407,-4.44014,84.7087
2023-03-10 21:42:01:752,0,-0.481259,-4.42958,84.6935
2023-03-10 21:42:01:762,0,-0.4701,-4.42418,84.6816
2023-03-10 21:42:01:772,0,-0.455414,-4.41889,84.6696
2023-03-10 21:42:01:782,0,-0.441347,-4.4153,84.6546
2023-03-10 21:42:01:792,0,-0.427756,-4.41515,84.6419
2023-03-10 21:42:01:802,0,-0.416066,-4.4164,84.6255
2023-03-10 21:42:01:812,0,-0.401886,-4.41923,84.6116
2023-03-10 21:42:01:822,0,-0.389146,-4.42055,84.592
2023-03-10 21:42:01:832,0,-0.378682,-4.42539,84.5722
2023-03-10 21:42:01:842,0,-0.372632,-4.43035,84.5498
2023-03-10 21:42:01:852,0,-0.37051,-4.44029,84.5287
2023-03-10 21:42:01:862,0,-0.368378,-4.44891,84.5111
2023-03-10 21:42:01:872,0,-0.369138,-4.45814,84.495
2023-03-10 21:42:01:882,0,-0.369888,-4.47038,84.4809
2023-03-10 21:42:01:892,0,-0.375888,-4.48079,84.4723
2023-03-10 21:42:01:902,0,-0.377444,-4.4872,84.4673
2023-03-10 21:42:01:912,0,-0.382763,-4.4917,84.461
2023-03-10 21:42:01:922,0,-0.388709,-4.49564,84.4651
2023-03-10 21:42:01:932,0,-0.39702,-4.49875,84.4694
2023-03-10 21:42:01:942,0,-0.403892,-4.49783,84.4733
2023-03-10 21:42:01:952,0,-0.412845,-4.4963,84.4801
2023-03-10 21:42:01:962,0,-0.419954,-4.49462,84.4889
2023-03-10 21:42:01:972,0,-0.425912,-4.49518,84.4973
2023-03-10 21:42:01:982,0,-0.427354,-4.49463,84.5003
2023-03-10 21:42:01:992,0,-0.428974,-4.49212,84.5033
2023-03-10 21:42:02:2,0,-0.431401,-4.48508,84.5045
2023-03-10 21:42:02:12,0,-0.428936,-4.47735,84.5026
2023-03-10 21:42:02:22,0,-0.427043,-4.46909,84.5017
2023-03-10 21:42:02:32,0,-0.422965,-4.45559,84.5001
2023-03-10 21:42:02:42,0,-0.419404,-4.44481,84.4995
2023-03-10 21:42:02:52,0,-0.415725,-4.43392,84.4964
2023-03-10 21:42:02:62,0,-0.410677,-4.4259,84.4912
2023-03-10 21:42:02:72,0,-0.407669,-4.41081,84.4848
2023-03-10 21:42:02:82,0,-0.405263,-4.39904,84.4767
2023-03-10 21:42:02:92,0,-0.402014,-4.38719,84.4701
2023-03-10 21:42:02:102,0,-0.399609,-4.37757,84.4658
2023-03-10 21:42:02:112,0,-0.39695,-4.37091,84.4585
2023-03-10 21:42:02:122,0,-0.391557,-4.36519,84.4555
2023-03-10 21:42:02:132,0,-0.385234,-4.36203,84.4536
2023-03-10 21:42:02:142,0,-0.382374,-4.35962,84.4548
2023-03-10 21:42:02:152,0,-0.380024,-4.3577,84.4529
2023-03-10 21:42:02:162,0,-0.378267,-4.35448,84.4533
2023-03-10 21:42:02:172,0,-0.378273,-4.35168,84.4529
2023-03-10 21:42:02:182,0,-0.373637,-4.34957,84.451
2023-03-10 21:42:02:192,0,-0.371762,-4.3474,84.4478
2023-03-10 21:42:02:202,0,-0.369002,-4.34552,84.443
2023-03-10 21:42:02:212,0,-0.369303,-4.3471,84.4366
2023-03-10 21:42:02:222,0,-0.3705,-4.34973,84.434
2023-03-10 21:42:02:232,0,-0.372301,-4.35087,84.4302
2023-03-10 21:42:02:242,0,-0.36979,-4.35483,84.4234
2023-03-10 21:42:02:252,0,-0.369362,-4.35541,84.4151
2023-03-10 21:42:02:262,0,-0.363573,-4.35721,84.4076
2023-03-10 21:42:02:272,0,-0.357109,-4.36052,84.4037
2023-03-10 21:42:02:282,0,-0.352676,-4.36797,84.4024
2023-03-10 21:42:02:292,0,-0.345836,-4.37422,84.4038
2023-03-10 21:42:02:302,0,-0.343172,-4.38342,84.4091
2023-03-10 21:42:02:312,0,-0.341762,-4.38993,84.4136
2023-03-10 21:42:02:322,0,-0.34263,-4.39669,84.4193
2023-03-10 21:42:02:332,0,-0.348252,-4.40334,84.4266
2023-03-10 21:42:02:342,0,-0.348726,-4.40923,84.4367
2023-03-10 21:42:02:352,0,-0.347334,-4.41563,84.4446
2023-03-10 21:42:02:362,0,-0.34466,-4.41867,84.4507
2023-03-10 21:42:02:372,0,-0.339377,-4.42106,84.4552
2023-03-10 21:42:02:382,0,-0.335339,-4.41854,84.4565
2023-03-10 21:42:02:392,0,-0.32602,-4.41305,84.4562
2023-03-10 21:42:02:402,0,-0.324468,-4.41528,84.4533
2023-03-10 21:42:02:412,0,-0.325713,-4.41638,84.4512
2023-03-10 21:42:02:422,0,-0.328547,-4.415,84.4475
2023-03-10 21:42:02:432,0,-0.331243,-4.41046,84.4445
2023-03-10 21:42:02:442,0,-0.333454,-4.41063,84.4411
2023-03-10 21:42:02:452,0,-0.333804,-4.40403,84.4339
2023-03-10 21:42:02:462,0,-0.331744,-4.40401,84.4331
2023-03-10 21:42:02:472,0,-0.330341,-4.4024,84.4329
2023-03-10 21:42:02:482,0,-0.330617,-4.40149,84.4313
2023-03-10 21:42:02:492,0,-0.337569,-4.39901,84.4301
2023-03-10 21:42:02:502,0,-0.342907,-4.39629,84.4282
2023-03-10 21:42:02:512,0,-0.345882,-4.3934,84.4251
2023-03-10 21:42:02:522,0,-0.345215,-4.39745,84.422
2023-03-10 21:42:02:532,0,-0.338481,-4.40455,84.4239
2023-03-10 21:42:02:542,0,-0.332043,-4.40662,84.4265
2023-03-10 21:42:02:552,0,-0.325844,-4.41048,84.4283
2023-03-10 21:42:02:562,0,-0.320374,-4.40955,84.4294
2023-03-10 21:42:02:572,0,-0.315843,-4.40801,84.4306
2023-03-10 21:42:02:582,0,-0.311424,-4.40514,84.4349
2023-03-10 21:42:02:592,0,-0.306608,-4.4049,84.4383
2023-03-10 21:42:02:602,0,-0.311669,-4.40192,84.4435
2023-03-10 21:42:02:612,0,-0.312827,-4.40555,84.4473
2023-03-10 21:42:02:622,0,-0.314357,-4.40799,84.4527
2023-03-10 21:42:02:632,0,-0.317059,-4.41238,84.4561
2023-03-10 21:42:02:642,0,-0.321729,-4.41404,84.4608
2023-03-10 21:42:02:652,0,-0.323003,-4.41969,84.4646
2023-03-10 21:42:02:662,0,-0.325041,-4.42781,84.4688
2023-03-10 21:42:02:672,0,-0.324814,-4.43351,84.4748
2023-03-10 21:42:02:682,0,-0.325123,-4.44389,84.4804
2023-03-10 21:42:02:692,0,-0.323621,-4.45197,84.485
2023-03-10 21:42:02:702,0,-0.321243,-4.46085,84.4899
2023-03-10 21:42:02:712,0,-0.319377,-4.47215,84.4984
2023-03-10 21:42:02:722,0,-0.319288,-4.4806,84.5071
2023-03-10 21:42:02:732,0,-0.324231,-4.48268,84.5111
2023-03-10 21:42:02:742,0,-0.327144,-4.48362,84.5198
2023-03-10 21:42:02:752,0,-0.331703,-4.48541,84.522
2023-03-10 21:42:02:762,0,-0.335394,-4.47927,84.5248
2023-03-10 21:42:02:772,0,-0.33714,-4.47504,84.5313
2023-03-10 21:42:02:782,0,-0.338205,-4.47008,84.5371
2023-03-10 21:42:02:792,0,-0.339602,-4.46712,84.5399
2023-03-10 21:42:02:802,0,-0.342403,-4.45936,84.5422
2023-03-10 21:42:02:812,0,-0.343719,-4.45506,84.5465
2023-03-10 21:42:02:822,0,-0.341862,-4.45298,84.5455
2023-03-10 21:42:02:832,0,-0.338491,-4.4461,84.5441
2023-03-10 21:42:02:842,0,-0.337065,-4.43609,84.5423
2023-03-10 21:42:02:852,0,-0.34063,-4.42468,84.5424
2023-03-10 21:42:02:862,0,-0.348937,-4.41514,84.5389
2023-03-10 21:42:02:872,0,-0.360561,-4.40778,84.5376
2023-03-10 21:42:02:882,0,-0.37319,-4.3979,84.5404
2023-03-10 21:42:02:892,0,-0.388267,-4.39203,84.5421
2023-03-10 21:42:02:902,0,-0.396153,-4.38809,84.5438
2023-03-10 21:42:02:912,0,-0.403107,-4.38046,84.5456
2023-03-10 21:42:02:922,0,-0.405617,-4.37344,84.5494
2023-03-10 21:42:02:932,0,-0.403975,-4.36638,84.5507
2023-03-10 21:42:02:942,0,-0.407066,-4.36104,84.5499
2023-03-10 21:42:02:952,0,-0.405095,-4.35526,84.5478
2023-03-10 21:42:02:962,0,-0.400885,-4.34664,84.5425
2023-03-10 21:42:02:972,0,-0.396287,-4.33969,84.5409
2023-03-10 21:42:02:982,0,-0.391848,-4.33387,84.54
2023-03-10 21:42:02:992,0,-0.388645,-4.32974,84.5344
2023-03-10 21:42:03:2,0,-0.385769,-4.32456,84.5291
2023-03-10 21:42:03:12,0,-0.387486,-4.31955,84.526
2023-03-10 21:42:03:22,0,-0.388553,-4.31668,84.5218
2023-03-10 21:42:03:32,0,-0.386996,-4.3149,84.5176
2023-03-10 21:42:03:42,0,-0.38475,-4.31146,84.5121
2023-03-10 21:42:03:52,0,-0.379936,-4.30956,84.508
2023-03-10 21:42:03:62,0,-0.373996,-4.30513,84.5053
2023-03-10 21:42:03:72,0,-0.369498,-4.30186,84.5068
2023-03-10 21:42:03:82,0,-0.364975,-4.30189,84.5087
2023-03-10 21:42:03:92,0,-0.364072,-4.30198,84.5084
2023-03-10 21:42:03:102,0,-0.359832,-4.307,84.5131
2023-03-10 21:42:03:112,0,-0.359355,-4.31287,84.515
2023-03-10 21:42:03:122,0,-0.359334,-4.32642,84.5219
2023-03-10 21:42:03:132,0,-0.363601,-4.34056,84.5374
2023-03-10 21:42:03:142,0,-0.365878,-4.35792,84.5554
2023-03-10 21:42:03:152,0,-0.369431,-4.3754,84.574
2023-03-10 21:42:03:162,0,-0.372743,-4.38893,84.5923
2023-03-10 21:42:03:172,0,-0.373036,-4.40007,84.612
2023-03-10 21:42:03:182,0,-0.373687,-4.4119,84.6336
2023-03-10 21:42:03:192,0,-0.374597,-4.42282,84.6558
2023-03-10 21:42:03:202,0,-0.372957,-4.4352,84.6799
2023-03-10 21:42:03:212,0,-0.371008,-4.44583,84.7005
2023-03-10 21:42:03:222,0,-0.371421,-4.45423,84.7212
2023-03-10 21:42:03:232,0,-0.371513,-4.45837,84.7363
2023-03-10 21:42:03:242,0,-0.370299,-4.46231,84.7474
2023-03-10 21:42:03:252,0,-0.371237,-4.46457,84.7564
2023-03-10 21:42:03:262,0,-0.37365,-4.46616,84.7645
2023-03-10 21:42:03:272,0,-0.377354,-4.46492,84.7685
2023-03-10 21:42:03:282,0,-0.378974,-4.4627,84.7725
2023-03-10 21:42:03:292,0,-0.381206,-4.45996,84.7754
2023-03-10 21:42:03:302,0,-0.380879,-4.45757,84.7762
2023-03-10 21:42:03:312,0,-0.382829,-4.45528,84.7761
2023-03-10 21:42:03:322,0,-0.383718,-4.45174,84.773
2023-03-10 21:42:03:332,0,-0.383225,-4.44831,84.7676
2023-03-10 21:42:03:342,0,-0.381828,-4.43853,84.7625
2023-03-10 21:42:03:352,0,-0.388091,-4.42566,84.7537
2023-03-10 21:42:03:362,0,-0.387686,-4.4188,84.7425
2023-03-10 21:42:03:372,0,-0.379031,-4.41503,84.7327
2023-03-10 21:42:03:382,0,-0.372805,-4.41621,84.7277
2023-03-10 21:42:03:392,0,-0.36296,-4.41417,84.7214
2023-03-10 21:42:03:402,0,-0.351719,-4.41116,84.7166
2023-03-10 21:42:03:412,0,-0.346302,-4.40297,84.7151
2023-03-10 21:42:03:422,0,-0.341305,-4.39649,84.7144
2023-03-10 21:42:03:432,0,-0.3366,-4.38909,84.7199
2023-03-10 21:42:03:442,0,-0.327981,-4.38585,84.723
2023-03-10 21:42:03:452,0,-0.320672,-4.38339,84.7277
2023-03-10 21:42:03:462,0,-0.309734,-4.38589,84.7353
2023-03-10 21:42:03:472,0,-0.29771,-4.38519,84.7413
2023-03-10 21:42:03:482,0,-0.286295,-4.38828,84.7497
2023-03-10 21:42:03:492,0,-0.268919,-4.39343,84.7598
2023-03-10 21:42:03:502,0,-0.25207,-4.39586,84.7772
2023-03-10 21:42:03:512,0,-0.234079,-4.40081,84.7977
2023-03-10 21:42:03:522,0,-0.213712,-4.40126,84.8347
2023-03-10 21:42:03:532,0,-0.201323,-4.40526,84.878
2023-03-10 21:42:03:542,0,-0.186837,-4.40936,84.9316
2023-03-10 21:42:03:552,0,-0.168693,-4.41133,84.995
2023-03-10 21:42:03:562,0,-0.149527,-4.41567,85.0655
2023-03-10 21:42:03:572,0,-0.129286,-4.41687,85.1435
2023-03-10 21:42:03:582,0,-0.103738,-4.41636,85.2263
2023-03-10 21:42:03:592,0,-0.079381,-4.41446,85.3136
2023-03-10 21:42:03:602,0,-0.052375,-4.40646,85.4057
2023-03-10 21:42:03:612,0,-0.025805,-4.39631,85.4982
2023-03-10 21:42:03:622,0,0.000799695,-4.38432,85.5896
2023-03-10 21:42:03:632,0,0.0217354,-4.37697,85.675
2023-03-10 21:42:03:642,0,0.040539,-4.37184,85.7521
2023-03-10 21:42:03:652,0,0.0519032,-4.37136,85.8268
2023-03-10 21:42:03:662,0,0.0655505,-4.37023,85.8931
2023-03-10 21:42:03:672,0,0.0790097,-4.36829,85.9485
2023-03-10 21:42:03:682,0,0.0904025,-4.36496,85.9958
2023-03-10 21:42:03:692,0,0.100213,-4.36442,86.0336
2023-03-10 21:42:03:702,0,0.106901,-4.35898,86.0633
2023-03-10 21:42:03:712,0,0.112709,-4.35562,86.0898
2023-03-10 21:42:03:722,0,0.120181,-4.35272,86.1002
2023-03-10 21:42:03:732,0,0.116612,-4.3586,86.1006
2023-03-10 21:42:03:742,0,0.105217,-4.37028,86.0933
2023-03-10 21:42:03:752,0,0.0861485,-4.37607,86.08
2023-03-10 21:42:03:762,0,0.0763172,-4.38104,86.0646
2023-03-10 21:42:03:772,0,0.0727799,-4.39089,86.0441
2023-03-10 21:42:03:782,0,0.0816114,-4.40067,86.0228
2023-03-10 21:42:03:792,0,0.0910659,-4.40591,85.9991
2023-03-10 21:42:03:802,0,0.103663,-4.41077,85.9796
2023-03-10 21:42:03:812,0,0.11446,-4.4178,85.9657
2023-03-10 21:42:03:822,0,0.125731,-4.41891,85.9573
