Timestamp_cmd,imu_cmd,roll_delta,pitch_delta,yaw_delta
2023-03-11 22:29:39:577,0,6.23962,3.73369,-29.3121
2023-03-11 22:29:39:584,0,6.16276,3.74643,-29.3262
2023-03-11 22:29:39:595,0,6.08319,3.74593,-29.339
2023-03-11 22:29:39:605,0,6.00542,3.73328,-29.3498
2023-03-11 22:29:39:615,0,5.92617,3.71063,-29.3677
2023-03-11 22:29:39:625,0,5.85244,3.68428,-29.3858
2023-03-11 22:29:39:635,0,5.78152,3.64745,-29.397
2023-03-11 22:29:39:645,0,5.71898,3.60603,-29.4067
2023-03-11 22:29:39:655,0,5.66047,3.54728,-29.4059
2023-03-11 22:29:39:665,0,5.61443,3.48115,-29.3978
2023-03-11 22:29:39:675,0,5.5788,3.41008,-29.3866
2023-03-11 22:29:39:685,0,5.55663,3.33864,-29.373
2023-03-11 22:29:39:695,0,5.54066,3.27547,-29.3561
2023-03-11 22:29:39:705,0,5.52355,3.21023,-29.333
2023-03-11 22:29:39:715,0,5.51167,3.14978,-29.3044
2023-03-11 22:29:39:725,0,5.5075,3.0896,-29.2663
2023-03-11 22:29:39:735,0,5.50384,3.03121,-29.22
2023-03-11 22:29:39:744,0,5.5014,2.9783,-29.1737
2023-03-11 22:29:39:754,0,5.49485,2.94039,-29.1306
2023-03-11 22:29:39:764,0,5.49038,2.91471,-29.0817
2023-03-11 22:29:39:774,0,5.47024,2.89657,-29.0157
2023-03-11 22:29:39:785,0,5.43417,2.87577,-28.936
2023-03-11 22:29:39:795,0,5.39599,2.85341,-28.8548
2023-03-11 22:29:39:805,0,5.36223,2.84277,-28.7884
2023-03-11 22:29:39:815,0,5.34298,2.85282,-28.7502
2023-03-11 22:29:39:825,0,5.33782,2.89069,-28.7397
2023-03-11 22:29:39:835,0,5.34339,2.94414,-28.7436
2023-03-11 22:29:39:845,0,5.3414,2.98814,-28.7464
2023-03-11 22:29:39:855,0,5.3331,3.01351,-28.7491
2023-03-11 22:29:39:865,0,5.31895,3.03334,-28.7672
2023-03-11 22:29:39:875,0,5.30153,3.04764,-28.804
2023-03-11 22:29:39:885,0,5.28825,3.06251,-28.8547
2023-03-11 22:29:39:895,0,5.27626,3.08345,-28.9042
2023-03-11 22:29:39:905,0,5.25316,3.09761,-28.9495
2023-03-11 22:29:39:915,0,5.21725,3.09998,-28.9807
2023-03-11 22:29:39:925,0,5.17345,3.08015,-28.9918
2023-03-11 22:29:39:935,0,5.12961,3.03813,-28.9873
2023-03-11 22:29:39:945,0,5.091,2.98409,-28.9761
2023-03-11 22:29:39:954,0,5.05998,2.9253,-28.9647
2023-03-11 22:29:39:964,0,5.04401,2.86189,-28.9403
2023-03-11 22:29:39:974,0,5.0413,2.79078,-28.9034
2023-03-11 22:29:39:984,0,5.05081,2.71781,-28.8527
2023-03-11 22:29:39:995,0,5.06641,2.64154,-28.8027
2023-03-11 22:29:40:5,0,5.0868,2.56948,-28.7457
2023-03-11 22:29:40:15,0,5.11469,2.49822,-28.6904
2023-03-11 22:29:40:25,0,5.14769,2.43173,-28.6337
2023-03-11 22:29:40:35,0,5.18573,2.37933,-28.5818
2023-03-11 22:29:40:45,0,5.22942,2.33015,-28.5378
2023-03-11 22:29:40:55,0,5.26637,2.29643,-28.4944
2023-03-11 22:29:40:65,0,5.30016,2.2703,-28.4499
2023-03-11 22:29:40:75,0,5.32255,2.25172,-28.4113
2023-03-11 22:29:40:85,0,5.33397,2.23335,-28.372
2023-03-11 22:29:40:95,0,5.33607,2.2208,-28.34
2023-03-11 22:29:40:105,0,5.32663,2.21854,-28.3179
2023-03-11 22:29:40:115,0,5.31235,2.22148,-28.2996
2023-03-11 22:29:40:125,0,5.29188,2.23297,-28.2781
2023-03-11 22:29:40:135,0,5.26496,2.24151,-28.2565
2023-03-11 22:29:40:145,0,5.22884,2.2502,-28.2354
2023-03-11 22:29:40:155,0,5.18549,2.25767,-28.2155
2023-03-11 22:29:40:165,0,5.14194,2.25941,-28.199
2023-03-11 22:29:40:175,0,5.09418,2.25921,-28.1854
2023-03-11 22:29:40:185,0,5.04547,2.25402,-28.1673
2023-03-11 22:29:40:195,0,4.99693,2.24308,-28.1529
2023-03-11 22:29:40:205,0,4.96124,2.2288,-28.1356
2023-03-11 22:29:40:215,0,4.92934,2.21617,-28.1261
2023-03-11 22:29:40:225,0,4.90481,2.19877,-28.1212
2023-03-11 22:29:40:235,0,4.89111,2.18156,-28.1233
2023-03-11 22:29:40:245,0,4.88483,2.16614,-28.1252
2023-03-11 22:29:40:255,0,4.88143,2.14183,-28.1299
2023-03-11 22:29:40:265,0,4.88151,2.11998,-28.1372
2023-03-11 22:29:40:275,0,4.88659,2.09918,-28.1481
2023-03-11 22:29:40:285,0,4.89323,2.07558,-28.1612
2023-03-11 22:29:40:295,0,4.89595,2.05749,-28.1753
2023-03-11 22:29:40:305,0,4.90004,2.04155,-28.1889
2023-03-11 22:29:40:315,0,4.90728,2.02453,-28.1965
2023-03-11 22:29:40:325,0,4.92011,2.00664,-28.2022
2023-03-11 22:29:40:335,0,4.93627,1.99476,-28.2044
2023-03-11 22:29:40:345,0,4.95179,1.98748,-28.2045
2023-03-11 22:29:40:355,0,4.96839,1.97832,-28.1992
2023-03-11 22:29:40:365,0,4.98372,1.96792,-28.1935
2023-03-11 22:29:40:375,0,4.9958,1.95529,-28.1886
2023-03-11 22:29:40:385,0,5.00637,1.94267,-28.187
2023-03-11 22:29:40:395,0,5.01647,1.93295,-28.1796
2023-03-11 22:29:40:404,0,5.02443,1.92338,-28.1746
2023-03-11 22:29:40:414,0,5.02897,1.9157,-28.1717
2023-03-11 22:29:40:425,0,5.03109,1.91332,-28.1673
2023-03-11 22:29:40:435,0,5.02707,1.91562,-28.1628
2023-03-11 22:29:40:445,0,5.01555,1.9199,-28.1578
2023-03-11 22:29:40:455,0,5.00053,1.92486,-28.1524
2023-03-11 22:29:40:465,0,4.98327,1.93269,-28.149
2023-03-11 22:29:40:475,0,4.96231,1.9414,-28.1459
2023-03-11 22:29:40:485,0,4.93966,1.94963,-28.1494
2023-03-11 22:29:40:495,0,4.91494,1.95933,-28.153
2023-03-11 22:29:40:505,0,4.89663,1.96839,-28.1632
2023-03-11 22:29:40:515,0,4.87794,1.97354,-28.1703
2023-03-11 22:29:40:525,0,4.86047,1.97862,-28.1791
2023-03-11 22:29:40:535,0,4.84189,1.98258,-28.1857
2023-03-11 22:29:40:545,0,4.8266,1.98535,-28.1923
2023-03-11 22:29:40:555,0,4.81648,1.9844,-28.199
2023-03-11 22:29:40:565,0,4.80349,1.98358,-28.1976
2023-03-11 22:29:40:575,0,4.7945,1.98381,-28.1931
2023-03-11 22:29:40:585,0,4.78407,1.98131,-28.1855
2023-03-11 22:29:40:595,0,4.77637,1.97662,-28.1729
2023-03-11 22:29:40:605,0,4.77127,1.97817,-28.1537
2023-03-11 22:29:40:615,0,4.77191,1.98449,-28.1369
2023-03-11 22:29:40:625,0,4.76837,1.9881,-28.1218
2023-03-11 22:29:40:635,0,4.77052,1.99649,-28.1075
2023-03-11 22:29:40:645,0,4.77597,2.0043,-28.1004
2023-03-11 22:29:40:655,0,4.77507,2.01473,-28.0933
2023-03-11 22:29:40:665,0,4.77808,2.02534,-28.0921
2023-03-11 22:29:40:675,0,4.78395,2.03482,-28.0946
2023-03-11 22:29:40:685,0,4.78574,2.0399,-28.0989
2023-03-11 22:29:40:695,0,4.78755,2.0464,-28.1001
2023-03-11 22:29:40:705,0,4.7864,2.0549,-28.101
2023-03-11 22:29:40:715,0,4.78341,2.06657,-28.1016
2023-03-11 22:29:40:725,0,4.78062,2.07775,-28.1013
2023-03-11 22:29:40:735,0,4.77837,2.08702,-28.1018
2023-03-11 22:29:40:745,0,4.77622,2.09839,-28.0939
2023-03-11 22:29:40:755,0,4.77252,2.10788,-28.0889
2023-03-11 22:29:40:765,0,4.7718,2.11959,-28.0834
2023-03-11 22:29:40:775,0,4.77314,2.12929,-28.0836
2023-03-11 22:29:40:785,0,4.7713,2.13918,-28.0806
2023-03-11 22:29:40:795,0,4.76803,2.14554,-28.0752
2023-03-11 22:29:40:805,0,4.76147,2.1522,-28.0711
2023-03-11 22:29:40:815,0,4.75583,2.15809,-28.0662
2023-03-11 22:29:40:825,0,4.75131,2.16535,-28.0547
2023-03-11 22:29:40:835,0,4.74394,2.17338,-28.0413
2023-03-11 22:29:40:845,0,4.73447,2.1854,-28.0287
2023-03-11 22:29:40:855,0,4.73762,2.19418,-28.009
2023-03-11 22:29:40:865,0,4.74459,2.20132,-27.9867
2023-03-11 22:29:40:875,0,4.75377,2.21124,-27.9677
2023-03-11 22:29:40:885,0,4.76618,2.22572,-27.9536
2023-03-11 22:29:40:895,0,4.78285,2.24139,-27.9441
2023-03-11 22:29:40:905,0,4.79778,2.25191,-27.9287
2023-03-11 22:29:40:915,0,4.81042,2.2594,-27.9153
2023-03-11 22:29:40:925,0,4.8174,2.25926,-27.9041
2023-03-11 22:29:40:935,0,4.811,2.25333,-27.8966
2023-03-11 22:29:40:945,0,4.80073,2.24931,-27.886
2023-03-11 22:29:40:955,0,4.78887,2.23988,-27.8689
2023-03-11 22:29:40:965,0,4.77447,2.23041,-27.8527
2023-03-11 22:29:40:975,0,4.76235,2.21961,-27.8323
2023-03-11 22:29:40:985,0,4.74683,2.206,-27.8023
2023-03-11 22:29:40:995,0,4.72962,2.18802,-27.7717
2023-03-11 22:29:41:5,0,4.70934,2.17396,-27.7408
2023-03-11 22:29:41:15,0,4.69009,2.16695,-27.7164
2023-03-11 22:29:41:25,0,4.67655,2.16454,-27.6899
2023-03-11 22:29:41:35,0,4.66248,2.17594,-27.6665
2023-03-11 22:29:41:45,0,4.64662,2.20436,-27.6478
2023-03-11 22:29:41:55,0,4.6268,2.25511,-27.6436
2023-03-11 22:29:41:65,0,4.58807,2.31435,-27.6336
2023-03-11 22:29:41:75,0,4.53973,2.35865,-27.6034
2023-03-11 22:29:41:85,0,4.48762,2.37875,-27.5543
2023-03-11 22:29:41:95,0,4.44994,2.38359,-27.4982
2023-03-11 22:29:41:105,0,4.43987,2.38933,-27.4439
2023-03-11 22:29:41:115,0,4.46231,2.40668,-27.4023
2023-03-11 22:29:41:125,0,4.51055,2.44139,-27.3714
2023-03-11 22:29:41:135,0,4.57832,2.49105,-27.3399
2023-03-11 22:29:41:145,0,4.65593,2.55108,-27.3124
2023-03-11 22:29:41:155,0,4.73144,2.609,-27.2858
2023-03-11 22:29:41:165,0,4.80039,2.66381,-27.2639
2023-03-11 22:29:41:175,0,4.85983,2.70439,-27.2519
2023-03-11 22:29:41:185,0,4.9085,2.73713,-27.252
2023-03-11 22:29:41:195,0,4.94818,2.7634,-27.2562
2023-03-11 22:29:41:205,0,4.9818,2.78762,-27.2706
2023-03-11 22:29:41:215,0,5.01243,2.80611,-27.2908
2023-03-11 22:29:41:225,0,5.03777,2.82057,-27.3183
2023-03-11 22:29:41:235,0,5.05882,2.83521,-27.3529
2023-03-11 22:29:41:244,0,5.0819,2.84918,-27.3891
2023-03-11 22:29:41:255,0,5.10097,2.85984,-27.425
2023-03-11 22:29:41:265,0,5.11056,2.86666,-27.4541
2023-03-11 22:29:41:275,0,5.11793,2.86667,-27.4737
2023-03-11 22:29:41:285,0,5.11754,2.86408,-27.4878
2023-03-11 22:29:41:295,0,5.11356,2.85973,-27.4987
2023-03-11 22:29:41:305,0,5.10679,2.85542,-27.5046
2023-03-11 22:29:41:315,0,5.09433,2.84729,-27.5104
2023-03-11 22:29:41:325,0,5.08506,2.83716,-27.5056
2023-03-11 22:29:41:335,0,5.08365,2.8204,-27.4977
2023-03-11 22:29:41:345,0,5.08071,2.80387,-27.4879
2023-03-11 22:29:41:355,0,5.07763,2.78343,-27.4776
2023-03-11 22:29:41:365,0,5.06968,2.76006,-27.4652
2023-03-11 22:29:41:375,0,5.05554,2.73737,-27.454
2023-03-11 22:29:41:385,0,5.03565,2.71265,-27.4409
2023-03-11 22:29:41:395,0,5.02014,2.69126,-27.4282
2023-03-11 22:29:41:405,0,5.00328,2.67251,-27.415
2023-03-11 22:29:41:415,0,4.98872,2.65389,-27.4099
2023-03-11 22:29:41:425,0,4.98341,2.65065,-27.4086
2023-03-11 22:29:41:435,0,4.98037,2.65123,-27.4063
2023-03-11 22:29:41:445,0,4.97912,2.64669,-27.4033
2023-03-11 22:29:41:455,0,4.97733,2.63814,-27.4005
2023-03-11 22:29:41:465,0,4.97361,2.63015,-27.4011
2023-03-11 22:29:41:475,0,4.97097,2.62306,-27.4072
2023-03-11 22:29:41:485,0,4.97465,2.62386,-27.4202
2023-03-11 22:29:41:495,0,4.98521,2.63248,-27.4423
2023-03-11 22:29:41:505,0,4.99874,2.65034,-27.4719
2023-03-11 22:29:41:515,0,5.01437,2.66809,-27.4999
2023-03-11 22:29:41:525,0,5.03113,2.69176,-27.5279
2023-03-11 22:29:41:535,0,5.05055,2.71484,-27.5503
2023-03-11 22:29:41:545,0,5.06151,2.73429,-27.5727
2023-03-11 22:29:41:555,0,5.07031,2.75296,-27.5928
2023-03-11 22:29:41:565,0,5.07957,2.77645,-27.6144
2023-03-11 22:29:41:575,0,5.08528,2.80126,-27.6356
2023-03-11 22:29:41:585,0,5.09285,2.82395,-27.6443
2023-03-11 22:29:41:595,0,5.09737,2.84067,-27.6469
2023-03-11 22:29:41:605,0,5.09583,2.85024,-27.6358
2023-03-11 22:29:41:615,0,5.09311,2.85467,-27.6226
2023-03-11 22:29:41:625,0,5.09529,2.86055,-27.6171
2023-03-11 22:29:41:635,0,5.09844,2.87004,-27.6127
2023-03-11 22:29:41:645,0,5.11055,2.87974,-27.607
2023-03-11 22:29:41:655,0,5.12214,2.88326,-27.6023
2023-03-11 22:29:41:665,0,5.13591,2.88444,-27.5998
2023-03-11 22:29:41:675,0,5.1483,2.88051,-27.5957
2023-03-11 22:29:41:685,0,5.1582,2.87585,-27.6004
2023-03-11 22:29:41:695,0,5.16105,2.87011,-27.6105
2023-03-11 22:29:41:705,0,5.16952,2.86834,-27.629
2023-03-11 22:29:41:715,0,5.18375,2.87185,-27.6482
2023-03-11 22:29:41:725,0,5.19736,2.867,-27.6627
2023-03-11 22:29:41:735,0,5.20992,2.85622,-27.6722
2023-03-11 22:29:41:745,0,5.21542,2.84047,-27.6748
2023-03-11 22:29:41:755,0,5.21939,2.82052,-27.6744
2023-03-11 22:29:41:765,0,5.21253,2.80187,-27.6731
2023-03-11 22:29:41:775,0,5.20125,2.77623,-27.6644
2023-03-11 22:29:41:785,0,5.1852,2.74366,-27.6515
2023-03-11 22:29:41:795,0,5.16276,2.7042,-27.6296
2023-03-11 22:29:41:805,0,5.14207,2.6587,-27.6047
2023-03-11 22:29:41:815,0,5.11917,2.61541,-27.5816
2023-03-11 22:29:41:825,0,5.09657,2.57518,-27.5556
2023-03-11 22:29:41:835,0,5.07624,2.53824,-27.5306
2023-03-11 22:29:41:845,0,5.05697,2.51136,-27.5077
2023-03-11 22:29:41:855,0,5.03889,2.48936,-27.4858
2023-03-11 22:29:41:865,0,5.02182,2.46641,-27.4642
2023-03-11 22:29:41:875,0,5.00321,2.44421,-27.4407
2023-03-11 22:29:41:885,0,4.98705,2.42506,-27.4185
2023-03-11 22:29:41:895,0,4.97613,2.41158,-27.4071
2023-03-11 22:29:41:905,0,4.97039,2.40407,-27.4099
2023-03-11 22:29:41:915,0,4.97037,2.40172,-27.411
2023-03-11 22:29:41:925,0,4.97063,2.40251,-27.4046
2023-03-11 22:29:41:935,0,4.97733,2.40743,-27.3967
2023-03-11 22:29:41:945,0,4.98842,2.41834,-27.3914
2023-03-11 22:29:41:955,0,4.99791,2.43363,-27.3845
2023-03-11 22:29:41:965,0,5.00796,2.44981,-27.3795
2023-03-11 22:29:41:975,0,5.02101,2.46718,-27.3772
2023-03-11 22:29:41:985,0,5.03518,2.48433,-27.381
2023-03-11 22:29:41:995,0,5.04082,2.50201,-27.3883
2023-03-11 22:29:42:5,0,5.04092,2.51326,-27.4029
2023-03-11 22:29:42:15,0,5.03599,2.52784,-27.4269
2023-03-11 22:29:42:25,0,5.02856,2.5475,-27.4595
2023-03-11 22:29:42:35,0,5.02069,2.56549,-27.4982
2023-03-11 22:29:42:45,0,5.01351,2.58471,-27.5416
2023-03-11 22:29:42:55,0,5.00868,2.60385,-27.5757
2023-03-11 22:29:42:65,0,5.0023,2.61606,-27.6056
2023-03-11 22:29:42:75,0,4.9948,2.62822,-27.6363
2023-03-11 22:29:42:85,0,4.99136,2.63658,-27.6627
2023-03-11 22:29:42:95,0,4.9914,2.64888,-27.6893
2023-03-11 22:29:42:105,0,4.99178,2.66467,-27.7152
2023-03-11 22:29:42:114,0,4.99503,2.6819,-27.7418
2023-03-11 22:29:42:124,0,4.9959,2.69233,-27.7554
2023-03-11 22:29:42:134,0,4.99216,2.6962,-27.7608
2023-03-11 22:29:42:145,0,4.98613,2.68889,-27.7496
2023-03-11 22:29:42:155,0,4.97326,2.66441,-27.7356
2023-03-11 22:29:42:165,0,4.96323,2.63722,-27.7132
2023-03-11 22:29:42:175,0,4.95668,2.60172,-27.6908
2023-03-11 22:29:42:185,0,4.96024,2.55813,-27.6694
2023-03-11 22:29:42:195,0,4.97758,2.51632,-27.6539
2023-03-11 22:29:42:205,0,5.01129,2.48612,-27.6486
2023-03-11 22:29:42:215,0,5.05509,2.4646,-27.6454
2023-03-11 22:29:42:225,0,5.09774,2.45054,-27.6322
2023-03-11 22:29:42:235,0,5.12671,2.43114,-27.6095
2023-03-11 22:29:42:245,0,5.13842,2.41021,-27.5754
2023-03-11 22:29:42:255,0,5.13207,2.37963,-27.534
2023-03-11 22:29:42:265,0,5.11115,2.3472,-27.486
2023-03-11 22:29:42:275,0,5.08324,2.31727,-27.4401
2023-03-11 22:29:42:285,0,5.05079,2.28716,-27.394
2023-03-11 22:29:42:295,0,5.02329,2.25733,-27.3437
2023-03-11 22:29:42:305,0,5.00767,2.22954,-27.2932
2023-03-11 22:29:42:315,0,5.0021,2.19815,-27.2461
2023-03-11 22:29:42:325,0,5.00384,2.16267,-27.2076
2023-03-11 22:29:42:335,0,5.00404,2.12377,-27.1697
2023-03-11 22:29:42:345,0,5.00708,2.08594,-27.1324
2023-03-11 22:29:42:355,0,5.00578,2.05067,-27.0866
2023-03-11 22:29:42:365,0,5.00244,2.01669,-27.0466
2023-03-11 22:29:42:375,0,4.9958,1.98807,-27.0099
2023-03-11 22:29:42:385,0,4.98558,1.97525,-26.9738
2023-03-11 22:29:42:395,0,4.97313,1.97168,-26.9468
2023-03-11 22:29:42:405,0,4.95031,1.97145,-26.9085
2023-03-11 22:29:42:415,0,4.9242,1.97494,-26.8633
2023-03-11 22:29:42:425,0,4.88561,1.97671,-26.8124
2023-03-11 22:29:42:435,0,4.84609,1.97678,-26.7581
2023-03-11 22:29:42:445,0,4.8094,1.97756,-26.704
2023-03-11 22:29:42:455,0,4.77362,1.98585,-26.6535
2023-03-11 22:29:42:465,0,4.74707,2.00875,-26.6155
2023-03-11 22:29:42:475,0,4.72124,2.03551,-26.5774
2023-03-11 22:29:42:485,0,4.70096,2.0626,-26.5368
2023-03-11 22:29:42:495,0,4.68897,2.07923,-26.4954
2023-03-11 22:29:42:505,0,4.68933,2.07255,-26.4469
2023-03-11 22:29:42:515,0,4.69881,2.04233,-26.3873
2023-03-11 22:29:42:525,0,4.71239,1.98065,-26.3246
2023-03-11 22:29:42:535,0,4.7223,1.90928,-26.2766
2023-03-11 22:29:42:545,0,4.72963,1.851,-26.2557
2023-03-11 22:29:42:555,0,4.74231,1.81797,-26.2689
2023-03-11 22:29:42:565,0,4.76773,1.79917,-26.3046
2023-03-11 22:29:42:575,0,4.79772,1.77792,-26.3398
2023-03-11 22:29:42:585,0,4.84275,1.74343,-26.3688
2023-03-11 22:29:42:595,0,4.88671,1.69608,-26.3806
2023-03-11 22:29:42:605,0,4.93431,1.62908,-26.3807
2023-03-11 22:29:42:615,0,4.97973,1.55494,-26.3684
2023-03-11 22:29:42:625,0,5.02497,1.47851,-26.3489
2023-03-11 22:29:42:635,0,5.06573,1.40074,-26.3187
2023-03-11 22:29:42:645,0,5.09578,1.32689,-26.2789
2023-03-11 22:29:42:655,0,5.11872,1.25961,-26.2365
2023-03-11 22:29:42:665,0,5.13606,1.20164,-26.1989
2023-03-11 22:29:42:675,0,5.15211,1.15639,-26.1534
2023-03-11 22:29:42:685,0,5.16081,1.1143,-26.1047
2023-03-11 22:29:42:695,0,5.16906,1.0801,-26.0552
2023-03-11 22:29:42:705,0,5.17444,1.04648,-26.005
2023-03-11 22:29:42:715,0,5.17822,1.01683,-25.9541
2023-03-11 22:29:42:725,0,5.18359,0.996258,-25.9111
2023-03-11 22:29:42:735,0,5.19088,0.977755,-25.8695
2023-03-11 22:29:42:745,0,5.20412,0.957994,-25.8302
2023-03-11 22:29:42:755,0,5.21246,0.936481,-25.7965
2023-03-11 22:29:42:765,0,5.21789,0.917524,-25.7691
2023-03-11 22:29:42:775,0,5.22245,0.902317,-25.7539
2023-03-11 22:29:42:785,0,5.23303,0.888554,-25.749
2023-03-11 22:29:42:795,0,5.24625,0.874801,-25.7566
2023-03-11 22:29:42:805,0,5.25936,0.860215,-25.7808
2023-03-11 22:29:42:815,0,5.27541,0.844047,-25.8182
2023-03-11 22:29:42:825,0,5.28694,0.815593,-25.8562
2023-03-11 22:29:42:835,0,5.28818,0.78111,-25.9019
2023-03-11 22:29:42:845,0,5.28,0.744916,-25.9635
2023-03-11 22:29:42:855,0,5.2651,0.707991,-26.031
2023-03-11 22:29:42:865,0,5.24884,0.664779,-26.1078
2023-03-11 22:29:42:875,0,5.23608,0.631867,-26.192
2023-03-11 22:29:42:884,0,5.22807,0.607521,-26.2924
2023-03-11 22:29:42:895,0,5.22441,0.594018,-26.4009
2023-03-11 22:29:42:905,0,5.2166,0.587232,-26.5177
2023-03-11 22:29:42:915,0,5.2118,0.579188,-26.6381
2023-03-11 22:29:42:925,0,5.21215,0.569775,-26.768
2023-03-11 22:29:42:935,0,5.21723,0.562438,-26.9109
2023-03-11 22:29:42:945,0,5.22173,0.566475,-27.0771
2023-03-11 22:29:42:955,0,5.22712,0.577733,-27.2562
2023-03-11 22:29:42:965,0,5.23563,0.594228,-27.4492
2023-03-11 22:29:42:975,0,5.24005,0.619178,-27.6525
2023-03-11 22:29:42:985,0,5.24362,0.645812,-27.8627
2023-03-11 22:29:42:995,0,5.25073,0.668304,-28.0806
2023-03-11 22:29:43:5,0,5.26572,0.687941,-28.2926
2023-03-11 22:29:43:15,0,5.27888,0.706191,-28.5165
2023-03-11 22:29:43:25,0,5.29434,0.729776,-28.7429
2023-03-11 22:29:43:35,0,5.30417,0.751531,-28.975
2023-03-11 22:29:43:45,0,5.30366,0.782742,-29.2113
2023-03-11 22:29:43:55,0,5.28641,0.816187,-29.4435
2023-03-11 22:29:43:65,0,5.25562,0.8491,-29.6725
2023-03-11 22:29:43:75,0,5.21851,0.876857,-29.8926
2023-03-11 22:29:43:85,0,5.17786,0.904195,-30.1099
2023-03-11 22:29:43:95,0,5.14081,0.924716,-30.3143
2023-03-11 22:29:43:105,0,5.11194,0.941372,-30.5131
2023-03-11 22:29:43:115,0,5.09346,0.955984,-30.6974
2023-03-11 22:29:43:125,0,5.07882,0.963705,-30.8693
2023-03-11 22:29:43:135,0,5.07743,0.969601,-31.034
2023-03-11 22:29:43:145,0,5.0791,0.98133,-31.1896
2023-03-11 22:29:43:155,0,5.08393,0.996559,-31.3422
2023-03-11 22:29:43:165,0,5.08297,1.01187,-31.476
2023-03-11 22:29:43:175,0,5.07906,1.01735,-31.5905
2023-03-11 22:29:43:185,0,5.06644,1.02762,-31.6949
2023-03-11 22:29:43:195,0,5.05232,1.03591,-31.7848
2023-03-11 22:29:43:205,0,5.04285,1.04907,-31.8662
2023-03-11 22:29:43:215,0,5.0426,1.06864,-31.9399
2023-03-11 22:29:43:225,0,5.04738,1.09593,-31.9992
2023-03-11 22:29:43:235,0,5.05659,1.12798,-32.0432
2023-03-11 22:29:43:245,0,5.07389,1.16298,-32.0763
2023-03-11 22:29:43:255,0,5.09711,1.20784,-32.101
2023-03-11 22:29:43:265,0,5.12773,1.2583,-32.1229
2023-03-11 22:29:43:275,0,5.17138,1.30898,-32.1275
2023-03-11 22:29:43:285,0,5.21719,1.3564,-32.1166
2023-03-11 22:29:43:295,0,5.25799,1.4002,-32.1013
2023-03-11 22:29:43:305,0,5.28925,1.45055,-32.0872
2023-03-11 22:29:43:315,0,5.3033,1.5023,-32.0877
2023-03-11 22:29:43:325,0,5.29811,1.56282,-32.0977
2023-03-11 22:29:43:335,0,5.27822,1.6268,-32.1308
2023-03-11 22:29:43:345,0,5.25419,1.69308,-32.1827
2023-03-11 22:29:43:355,0,5.23356,1.75052,-32.2495
2023-03-11 22:29:43:365,0,5.2225,1.79901,-32.3324
2023-03-11 22:29:43:375,0,5.2154,1.83183,-32.4188
2023-03-11 22:29:43:385,0,5.21467,1.84423,-32.5152
2023-03-11 22:29:43:395,0,5.22703,1.84477,-32.62
2023-03-11 22:29:43:405,0,5.24625,1.83327,-32.7344
2023-03-11 22:29:43:415,0,5.27134,1.81438,-32.8502
2023-03-11 22:29:43:425,0,5.29995,1.78791,-32.9601
2023-03-11 22:29:43:435,0,5.32653,1.75229,-33.0579
2023-03-11 22:29:43:445,0,5.34751,1.71572,-33.1434
2023-03-11 22:29:43:455,0,5.36418,1.67888,-33.2132
2023-03-11 22:29:43:465,0,5.3747,1.63993,-33.2698
2023-03-11 22:29:43:475,0,5.37831,1.59956,-33.3074
2023-03-11 22:29:43:485,0,5.38084,1.56354,-33.3354
2023-03-11 22:29:43:495,0,5.38492,1.53453,-33.3489
2023-03-11 22:29:43:505,0,5.39041,1.51154,-33.3425
2023-03-11 22:29:43:515,0,5.39416,1.49396,-33.3261
2023-03-11 22:29:43:525,0,5.39598,1.48426,-33.2985
2023-03-11 22:29:43:535,0,5.39714,1.478,-33.2615
2023-03-11 22:29:43:545,0,5.40018,1.47883,-33.2253
2023-03-11 22:29:43:555,0,5.40499,1.48445,-33.194
2023-03-11 22:29:43:565,0,5.41731,1.49678,-33.1618
2023-03-11 22:29:43:575,0,5.4389,1.51557,-33.1412
2023-03-11 22:29:43:585,0,5.46643,1.54448,-33.1293
2023-03-11 22:29:43:595,0,5.50412,1.56826,-33.1271
2023-03-11 22:29:43:605,0,5.54674,1.59816,-33.1315
2023-03-11 22:29:43:615,0,5.59902,1.62493,-33.1411
2023-03-11 22:29:43:625,0,5.65487,1.65142,-33.161
2023-03-11 22:29:43:635,0,5.71785,1.67225,-33.1905
2023-03-11 22:29:43:645,0,5.78256,1.69541,-33.231
2023-03-11 22:29:43:655,0,5.84254,1.71434,-33.2768
2023-03-11 22:29:43:665,0,5.90248,1.72823,-33.3272
2023-03-11 22:29:43:675,0,5.95028,1.72951,-33.38
2023-03-11 22:29:43:685,0,5.9871,1.72693,-33.433
2023-03-11 22:29:43:695,0,6.01223,1.71459,-33.4853
2023-03-11 22:29:43:705,0,6.02769,1.70162,-33.5374
2023-03-11 22:29:43:715,0,6.03005,1.68821,-33.5877
2023-03-11 22:29:43:725,0,6.03317,1.66769,-33.6252
2023-03-11 22:29:43:735,0,6.03095,1.65291,-33.6467
2023-03-11 22:29:43:745,0,6.02312,1.63003,-33.6515
2023-03-11 22:29:43:755,0,6.0098,1.61042,-33.6455
2023-03-11 22:29:43:765,0,6.00165,1.59188,-33.623
2023-03-11 22:29:43:775,0,5.9909,1.5748,-33.5749
2023-03-11 22:29:43:785,0,5.97656,1.55549,-33.5196
2023-03-11 22:29:43:795,0,5.95975,1.53559,-33.4424
2023-03-11 22:29:43:805,0,5.94565,1.51475,-33.3503
2023-03-11 22:29:43:815,0,5.92706,1.49149,-33.2512
2023-03-11 22:29:43:825,0,5.90888,1.46792,-33.1465
2023-03-11 22:29:43:835,0,5.89294,1.44853,-33.0392
2023-03-11 22:29:43:845,0,5.88211,1.42693,-32.9303
2023-03-11 22:29:43:855,0,5.88448,1.40328,-32.8239
2023-03-11 22:29:43:865,0,5.90109,1.37578,-32.717
2023-03-11 22:29:43:875,0,5.92876,1.34421,-32.6046
2023-03-11 22:29:43:885,0,5.96573,1.31295,-32.4973
2023-03-11 22:29:43:895,0,6.00832,1.28155,-32.3986
2023-03-11 22:29:43:905,0,6.04553,1.25269,-32.3091
2023-03-11 22:29:43:914,0,6.08317,1.21913,-32.2302
2023-03-11 22:29:43:925,0,6.11316,1.18577,-32.1651
2023-03-11 22:29:43:935,0,6.14217,1.14678,-32.1116
2023-03-11 22:29:43:945,0,6.1623,1.0953,-32.066
2023-03-11 22:29:43:955,0,6.17789,1.03798,-32.0284
2023-03-11 22:29:43:965,0,6.18966,0.969603,-31.9941
2023-03-11 22:29:43:975,0,6.1998,0.896322,-31.9585
2023-03-11 22:29:43:985,0,6.20312,0.816534,-31.9216
2023-03-11 22:29:43:995,0,6.20022,0.738104,-31.8805
2023-03-11 22:29:44:5,0,6.19018,0.670127,-31.8383
2023-03-11 22:29:44:15,0,6.17808,0.609014,-31.7889
2023-03-11 22:29:44:25,0,6.16219,0.564915,-31.7394
2023-03-11 22:29:44:35,0,6.14734,0.540593,-31.6924
2023-03-11 22:29:44:45,0,6.13341,0.538704,-31.6431
2023-03-11 22:29:44:55,0,6.12247,0.545838,-31.5928
2023-03-11 22:29:44:65,0,6.1112,0.561614,-31.5391
2023-03-11 22:29:44:75,0,6.10152,0.57992,-31.4899
2023-03-11 22:29:44:85,0,6.0989,0.591994,-31.4389
2023-03-11 22:29:44:95,0,6.09532,0.598503,-31.4008
2023-03-11 22:29:44:105,0,6.10197,0.594683,-31.3724
2023-03-11 22:29:44:115,0,6.11463,0.595703,-31.3578
2023-03-11 22:29:44:125,0,6.13239,0.600358,-31.3598
2023-03-11 22:29:44:135,0,6.15408,0.621269,-31.3845
2023-03-11 22:29:44:145,0,6.17507,0.650857,-31.417
2023-03-11 22:29:44:155,0,6.1956,0.684509,-31.4523
2023-03-11 22:29:44:165,0,6.20759,0.717006,-31.4801
2023-03-11 22:29:44:175,0,6.21976,0.739335,-31.4993
2023-03-11 22:29:44:185,0,6.22656,0.755617,-31.5111
2023-03-11 22:29:44:195,0,6.23316,0.772967,-31.5209
2023-03-11 22:29:44:205,0,6.23217,0.797239,-31.5298
2023-03-11 22:29:44:215,0,6.22903,0.823248,-31.5336
2023-03-11 22:29:44:225,0,6.22482,0.849284,-31.5299
2023-03-11 22:29:44:235,0,6.21237,0.872598,-31.5126
2023-03-11 22:29:44:245,0,6.19641,0.893087,-31.4928
2023-03-11 22:29:44:255,0,6.17718,0.90747,-31.4639
2023-03-11 22:29:44:265,0,6.15419,0.919287,-31.436
2023-03-11 22:29:44:275,0,6.12807,0.929169,-31.409
2023-03-11 22:29:44:285,0,6.10276,0.93421,-31.3815
2023-03-11 22:29:44:295,0,6.07571,0.936376,-31.359
2023-03-11 22:29:44:305,0,6.05074,0.937304,-31.3446
2023-03-11 22:29:44:315,0,6.02806,0.936128,-31.3299
2023-03-11 22:29:44:325,0,6.00272,0.928621,-31.3164
2023-03-11 22:29:44:335,0,5.97712,0.922568,-31.3073
2023-03-11 22:29:44:345,0,5.95517,0.909952,-31.2969
2023-03-11 22:29:44:355,0,5.92946,0.890053,-31.2893
2023-03-11 22:29:44:365,0,5.90527,0.862823,-31.2844
2023-03-11 22:29:44:375,0,5.88625,0.831725,-31.2844
2023-03-11 22:29:44:385,0,5.86637,0.80584,-31.288
2023-03-11 22:29:44:395,0,5.85095,0.779341,-31.2907
2023-03-11 22:29:44:405,0,5.83139,0.758759,-31.3024
2023-03-11 22:29:44:415,0,5.80184,0.747349,-31.3265
2023-03-11 22:29:44:425,0,5.77321,0.736325,-31.3583
2023-03-11 22:29:44:435,0,5.74635,0.728013,-31.3875
2023-03-11 22:29:44:445,0,5.71822,0.715203,-31.4204
2023-03-11 22:29:44:455,0,5.70112,0.705574,-31.4547
2023-03-11 22:29:44:465,0,5.69301,0.695006,-31.499
2023-03-11 22:29:44:475,0,5.70607,0.679997,-31.5417
2023-03-11 22:29:44:485,0,5.7314,0.671335,-31.586
2023-03-11 22:29:44:495,0,5.7633,0.665743,-31.6352
2023-03-11 22:29:44:505,0,5.80721,0.666657,-31.6862
2023-03-11 22:29:44:515,0,5.85974,0.671417,-31.7421
2023-03-11 22:29:44:525,0,5.91563,0.678759,-31.8096
2023-03-11 22:29:44:535,0,5.9744,0.692411,-31.8802
2023-03-11 22:29:44:545,0,6.03208,0.711504,-31.9471
2023-03-11 22:29:44:555,0,6.09161,0.726768,-32.0149
2023-03-11 22:29:44:565,0,6.14371,0.743091,-32.0791
2023-03-11 22:29:44:575,0,6.18875,0.758553,-32.1441
2023-03-11 22:29:44:585,0,6.23376,0.777157,-32.2009
2023-03-11 22:29:44:595,0,6.26606,0.794999,-32.258
2023-03-11 22:29:44:605,0,6.29178,0.815117,-32.3079
2023-03-11 22:29:44:615,0,6.31062,0.837917,-32.3568
2023-03-11 22:29:44:625,0,6.33611,0.860957,-32.4041
2023-03-11 22:29:44:635,0,6.36169,0.885388,-32.4442
2023-03-11 22:29:44:645,0,6.38973,0.908554,-32.483
2023-03-11 22:29:44:655,0,6.42487,0.923207,-32.518
2023-03-11 22:29:44:665,0,6.46456,0.932707,-32.5444
2023-03-11 22:29:44:675,0,6.50403,0.939552,-32.5581
2023-03-11 22:29:44:685,0,6.54399,0.939039,-32.5489
2023-03-11 22:29:44:695,0,6.56704,0.925623,-32.5216
2023-03-11 22:29:44:705,0,6.57856,0.908106,-32.4776
2023-03-11 22:29:44:715,0,6.57745,0.891049,-32.4182
2023-03-11 22:29:44:725,0,6.57041,0.879211,-32.3448
2023-03-11 22:29:44:735,0,6.55914,0.874706,-32.2633
2023-03-11 22:29:44:745,0,6.55133,0.883373,-32.1684
2023-03-11 22:29:44:755,0,6.54983,0.90051,-32.0728
2023-03-11 22:29:44:765,0,6.55785,0.925104,-31.9764
2023-03-11 22:29:44:775,0,6.58424,0.949374,-31.8897
2023-03-11 22:29:44:785,0,6.62686,0.973095,-31.8071
2023-03-11 22:29:44:795,0,6.66248,1.00088,-31.734
2023-03-11 22:29:44:805,0,6.68222,1.03684,-31.6742
2023-03-11 22:29:44:815,0,6.67748,1.08109,-31.6338
2023-03-11 22:29:44:825,0,6.65577,1.13464,-31.6101
2023-03-11 22:29:44:835,0,6.62314,1.19536,-31.6091
2023-03-11 22:29:44:845,0,6.58184,1.25886,-31.6274
2023-03-11 22:29:44:855,0,6.53305,1.31813,-31.6615
2023-03-11 22:29:44:865,0,6.48185,1.37756,-31.7151
2023-03-11 22:29:44:875,0,6.4302,1.43631,-31.779
2023-03-11 22:29:44:885,0,6.37997,1.48531,-31.8487
2023-03-11 22:29:44:895,0,6.33925,1.52576,-31.922
2023-03-11 22:29:44:905,0,6.30145,1.5532,-31.9894
2023-03-11 22:29:44:915,0,6.26887,1.56868,-32.047
2023-03-11 22:29:44:925,0,6.24208,1.5772,-32.0947
2023-03-11 22:29:44:935,0,6.22725,1.58478,-32.1355
2023-03-11 22:29:44:945,0,6.21804,1.5943,-32.1665
2023-03-11 22:29:44:955,0,6.21308,1.60125,-32.1942
2023-03-11 22:29:44:965,0,6.20904,1.60919,-32.211
2023-03-11 22:29:44:975,0,6.20547,1.61711,-32.2216
2023-03-11 22:29:44:985,0,6.19449,1.62416,-32.2274
2023-03-11 22:29:44:995,0,6.18499,1.63519,-32.2322
2023-03-11 22:29:45:5,0,6.17491,1.64508,-32.2368
2023-03-11 22:29:45:15,0,6.16901,1.6512,-32.2352
2023-03-11 22:29:45:25,0,6.15837,1.65338,-32.234
2023-03-11 22:29:45:35,0,6.14841,1.65369,-32.236
2023-03-11 22:29:45:45,0,6.13815,1.65213,-32.2332
2023-03-11 22:29:45:55,0,6.12864,1.65102,-32.2305
2023-03-11 22:29:45:65,0,6.12139,1.64943,-32.2305
2023-03-11 22:29:45:75,0,6.10983,1.64815,-32.2293
2023-03-11 22:29:45:85,0,6.10118,1.64208,-32.2276
2023-03-11 22:29:45:95,0,6.09093,1.63882,-32.2306
2023-03-11 22:29:45:105,0,6.08199,1.63294,-32.229
2023-03-11 22:29:45:115,0,6.08188,1.62758,-32.2307
2023-03-11 22:29:45:125,0,6.08147,1.61832,-32.234
2023-03-11 22:29:45:135,0,6.08168,1.60847,-32.2412
2023-03-11 22:29:45:145,0,6.08121,1.5977,-32.2484
2023-03-11 22:29:45:155,0,6.0767,1.58832,-32.2574
2023-03-11 22:29:45:165,0,6.07209,1.57641,-32.2667
2023-03-11 22:29:45:175,0,6.06871,1.56646,-32.2737
2023-03-11 22:29:45:185,0,6.06494,1.55445,-32.2811
2023-03-11 22:29:45:195,0,6.06114,1.54741,-32.286
2023-03-11 22:29:45:205,0,6.05676,1.54034,-32.2902
2023-03-11 22:29:45:215,0,6.05473,1.53347,-32.2934
2023-03-11 22:29:45:225,0,6.05512,1.5341,-32.2971
2023-03-11 22:29:45:235,0,6.06014,1.53502,-32.3002
2023-03-11 22:29:45:245,0,6.07621,1.53359,-32.3008
2023-03-11 22:29:45:255,0,6.09375,1.52856,-32.2993
2023-03-11 22:29:45:265,0,6.11901,1.52117,-32.2968
2023-03-11 22:29:45:275,0,6.14561,1.51175,-32.2937
2023-03-11 22:29:45:285,0,6.17848,1.50107,-32.2882
2023-03-11 22:29:45:295,0,6.2114,1.49114,-32.2841
2023-03-11 22:29:45:305,0,6.2391,1.47798,-32.2866
2023-03-11 22:29:45:315,0,6.27091,1.46684,-32.291
2023-03-11 22:29:45:325,0,6.29752,1.45488,-32.2978
2023-03-11 22:29:45:335,0,6.31804,1.44211,-32.309
2023-03-11 22:29:45:345,0,6.33914,1.43053,-32.3165
2023-03-11 22:29:45:355,0,6.35851,1.41893,-32.3273
2023-03-11 22:29:45:365,0,6.37591,1.40785,-32.3359
2023-03-11 22:29:45:375,0,6.39587,1.39622,-32.3441
2023-03-11 22:29:45:385,0,6.41345,1.38386,-32.349
2023-03-11 22:29:45:395,0,6.42981,1.36983,-32.3543
2023-03-11 22:29:45:405,0,6.44297,1.35447,-32.3517
2023-03-11 22:29:45:415,0,6.45847,1.34035,-32.3491
2023-03-11 22:29:45:425,0,6.46754,1.32572,-32.3444
2023-03-11 22:29:45:435,0,6.47184,1.31409,-32.3404
2023-03-11 22:29:45:445,0,6.47634,1.30214,-32.3355
2023-03-11 22:29:45:454,0,6.48082,1.28919,-32.3251
2023-03-11 22:29:45:465,0,6.48624,1.27594,-32.319
2023-03-11 22:29:45:475,0,6.49125,1.2683,-32.3121
2023-03-11 22:29:45:485,0,6.49153,1.25431,-32.3018
2023-03-11 22:29:45:495,0,6.49263,1.24279,-32.2963
2023-03-11 22:29:45:505,0,6.49308,1.23077,-32.2892
2023-03-11 22:29:45:515,0,6.49657,1.21566,-32.28
2023-03-11 22:29:45:525,0,6.50041,1.19858,-32.2736
2023-03-11 22:29:45:535,0,6.50402,1.18665,-32.2693
2023-03-11 22:29:45:545,0,6.51259,1.17129,-32.2645
2023-03-11 22:29:45:555,0,6.523,1.16397,-32.2599
2023-03-11 22:29:45:565,0,6.5341,1.16002,-32.2572
2023-03-11 22:29:45:575,0,6.54349,1.15829,-32.2531
2023-03-11 22:29:45:585,0,6.55344,1.16202,-32.2514
2023-03-11 22:29:45:595,0,6.56139,1.16474,-32.2465
2023-03-11 22:29:45:605,0,6.5702,1.16547,-32.2443
2023-03-11 22:29:45:615,0,6.57668,1.17173,-32.2409
2023-03-11 22:29:45:625,0,6.57997,1.17874,-32.2405
2023-03-11 22:29:45:635,0,6.58917,1.18897,-32.2379
2023-03-11 22:29:45:645,0,6.5997,1.19993,-32.2361
2023-03-11 22:29:45:655,0,6.6113,1.20397,-32.2321
2023-03-11 22:29:45:665,0,6.6182,1.21069,-32.2276
2023-03-11 22:29:45:675,0,6.62239,1.21788,-32.2243
2023-03-11 22:29:45:685,0,6.63023,1.22443,-32.2204
2023-03-11 22:29:45:695,0,6.63352,1.23484,-32.215
2023-03-11 22:29:45:705,0,6.63579,1.242,-32.2112
2023-03-11 22:29:45:715,0,6.63844,1.24971,-32.2114
2023-03-11 22:29:45:725,0,6.64162,1.25691,-32.2097
2023-03-11 22:29:45:735,0,6.64557,1.2617,-32.2068
2023-03-11 22:29:45:745,0,6.65127,1.26854,-32.2031
2023-03-11 22:29:45:755,0,6.66159,1.27171,-32.2017
2023-03-11 22:29:45:765,0,6.67176,1.27695,-32.1972
2023-03-11 22:29:45:775,0,6.67892,1.28457,-32.1986
2023-03-11 22:29:45:785,0,6.68923,1.294,-32.1983
2023-03-11 22:29:45:795,0,6.70093,1.29698,-32.1962
2023-03-11 22:29:45:805,0,6.70824,1.29604,-32.1866
2023-03-11 22:29:45:815,0,6.7074,1.28879,-32.1765
2023-03-11 22:29:45:825,0,6.70598,1.28294,-32.165
2023-03-11 22:29:45:835,0,6.69733,1.2801,-32.1547
2023-03-11 22:29:45:845,0,6.68736,1.27771,-32.1425
2023-03-11 22:29:45:855,0,6.67725,1.27643,-32.1326
2023-03-11 22:29:45:865,0,6.66594,1.27609,-32.1211
2023-03-11 22:29:45:875,0,6.66073,1.27902,-32.1137
2023-03-11 22:29:45:885,0,6.65491,1.27861,-32.1029
2023-03-11 22:29:45:895,0,6.64894,1.28194,-32.0962
2023-03-11 22:29:45:905,0,6.64453,1.28473,-32.0904
2023-03-11 22:29:45:915,0,6.63647,1.28897,-32.0863
2023-03-11 22:29:45:925,0,6.62322,1.29116,-32.0825
2023-03-11 22:29:45:935,0,6.61221,1.29215,-32.0854
2023-03-11 22:29:45:945,0,6.59793,1.29287,-32.0914
2023-03-11 22:29:45:955,0,6.58594,1.29667,-32.1017
2023-03-11 22:29:45:965,0,6.57322,1.30174,-32.1081
2023-03-11 22:29:45:975,0,6.56629,1.30833,-32.1168
2023-03-11 22:29:45:985,0,6.55243,1.31441,-32.1229
2023-03-11 22:29:45:995,0,6.54446,1.31779,-32.1351
2023-03-11 22:29:46:5,0,6.54057,1.32417,-32.147
2023-03-11 22:29:46:15,0,6.54512,1.33625,-32.1645
2023-03-11 22:29:46:25,0,6.55315,1.35461,-32.1802
2023-03-11 22:29:46:35,0,6.56528,1.37111,-32.1856
2023-03-11 22:29:46:45,0,6.58345,1.38684,-32.1897
2023-03-11 22:29:46:55,0,6.60841,1.39251,-32.1974
2023-03-11 22:29:46:65,0,6.63334,1.39169,-32.1985
2023-03-11 22:29:46:75,0,6.63067,1.39303,-32.2196
2023-03-11 22:29:46:85,0,6.62439,1.39507,-32.2497
2023-03-11 22:29:46:95,0,6.61856,1.39534,-32.2822
2023-03-11 22:29:46:105,0,6.60375,1.39485,-32.3102
2023-03-11 22:29:46:115,0,6.5784,1.40059,-32.332
2023-03-11 22:29:46:125,0,6.54267,1.40484,-32.3493
2023-03-11 22:29:46:135,0,6.49734,1.4081,-32.3663
2023-03-11 22:29:46:145,0,6.46713,1.41529,-32.3803
2023-03-11 22:29:46:155,0,6.46384,1.41634,-32.3851
2023-03-11 22:29:46:165,0,6.4923,1.40431,-32.375
2023-03-11 22:29:46:175,0,6.52835,1.38825,-32.3611
2023-03-11 22:29:46:185,0,6.55856,1.37813,-32.3508
2023-03-11 22:29:46:195,0,6.58635,1.36949,-32.3301
2023-03-11 22:29:46:205,0,6.60008,1.36266,-32.3147
2023-03-11 22:29:46:215,0,6.60517,1.36231,-32.31
2023-03-11 22:29:46:225,0,6.61099,1.36259,-32.3129
2023-03-11 22:29:46:235,0,6.6214,1.35913,-32.3112
2023-03-11 22:29:46:245,0,6.6178,1.35585,-32.311
2023-03-11 22:29:46:255,0,6.60733,1.35743,-32.3216
2023-03-11 22:29:46:265,0,6.60042,1.35687,-32.3371
2023-03-11 22:29:46:275,0,6.6105,1.35833,-32.3566
2023-03-11 22:29:46:285,0,6.64628,1.34726,-32.371
2023-03-11 22:29:46:295,0,6.70079,1.33552,-32.374
2023-03-11 22:29:46:305,0,6.75034,1.32534,-32.3725
2023-03-11 22:29:46:315,0,6.77872,1.32619,-32.3717
2023-03-11 22:29:46:325,0,6.78559,1.33033,-32.3728
2023-03-11 22:29:46:335,0,6.78545,1.32555,-32.3667
2023-03-11 22:29:46:345,0,6.77764,1.31763,-32.3621
2023-03-11 22:29:46:355,0,6.75646,1.31299,-32.3599
2023-03-11 22:29:46:365,0,6.72584,1.31538,-32.3572
2023-03-11 22:29:46:375,0,6.69364,1.32152,-32.3526
2023-03-11 22:29:46:385,0,6.66396,1.32548,-32.3467
2023-03-11 22:29:46:395,0,6.63585,1.33627,-32.3403
2023-03-11 22:29:46:405,0,6.60591,1.35543,-32.3402
2023-03-11 22:29:46:415,0,6.57683,1.37664,-32.3323
2023-03-11 22:29:46:425,0,6.55533,1.38593,-32.3247
2023-03-11 22:29:46:435,0,6.54761,1.38532,-32.3292
2023-03-11 22:29:46:445,0,6.56634,1.38865,-32.3455
2023-03-11 22:29:46:455,0,6.59152,1.3976,-32.3632
2023-03-11 22:29:46:465,0,6.60621,1.41139,-32.3828
2023-03-11 22:29:46:475,0,6.60502,1.43109,-32.4074
2023-03-11 22:29:46:485,0,6.59573,1.45337,-32.4363
2023-03-11 22:29:46:495,0,6.58571,1.47464,-32.4632
2023-03-11 22:29:46:505,0,6.57957,1.49372,-32.4823
2023-03-11 22:29:46:515,0,6.57459,1.50961,-32.4973
2023-03-11 22:29:46:525,0,6.57088,1.52884,-32.5113
2023-03-11 22:29:46:535,0,6.57015,1.54272,-32.5184
2023-03-11 22:29:46:545,0,6.57324,1.55158,-32.517
2023-03-11 22:29:46:555,0,6.57729,1.55184,-32.508
2023-03-11 22:29:46:565,0,6.57525,1.54881,-32.497
2023-03-11 22:29:46:575,0,6.56796,1.5459,-32.4912
2023-03-11 22:29:46:585,0,6.56317,1.5399,-32.4806
2023-03-11 22:29:46:595,0,6.55016,1.53466,-32.4691
2023-03-11 22:29:46:605,0,6.53007,1.53054,-32.4579
2023-03-11 22:29:46:615,0,6.50515,1.52364,-32.4482
2023-03-11 22:29:46:625,0,6.48456,1.51988,-32.4414
2023-03-11 22:29:46:635,0,6.46293,1.51288,-32.4396
2023-03-11 22:29:46:645,0,6.45134,1.50601,-32.4405
2023-03-11 22:29:46:655,0,6.4481,1.5003,-32.4414
2023-03-11 22:29:46:665,0,6.45102,1.49206,-32.4412
2023-03-11 22:29:46:675,0,6.45632,1.48062,-32.4411
2023-03-11 22:29:46:685,0,6.467,1.47,-32.4425
2023-03-11 22:29:46:695,0,6.47977,1.45714,-32.4458
2023-03-11 22:29:46:705,0,6.50028,1.44457,-32.4455
2023-03-11 22:29:46:715,0,6.52311,1.43619,-32.4478
2023-03-11 22:29:46:725,0,6.5496,1.4278,-32.4519
2023-03-11 22:29:46:735,0,6.57531,1.41929,-32.4533
2023-03-11 22:29:46:745,0,6.59958,1.41084,-32.4594
2023-03-11 22:29:46:755,0,6.62693,1.4083,-32.471
2023-03-11 22:29:46:765,0,6.65394,1.40734,-32.4832
2023-03-11 22:29:46:775,0,6.68761,1.40891,-32.4945
2023-03-11 22:29:46:785,0,6.71832,1.40638,-32.5017
2023-03-11 22:29:46:795,0,6.75056,1.40045,-32.5043
2023-03-11 22:29:46:805,0,6.78327,1.39444,-32.5107
2023-03-11 22:29:46:815,0,6.81366,1.38564,-32.5133
2023-03-11 22:29:46:825,0,6.83719,1.37833,-32.5135
2023-03-11 22:29:46:835,0,6.85931,1.37355,-32.5109
2023-03-11 22:29:46:845,0,6.87889,1.36813,-32.5045
2023-03-11 22:29:46:855,0,6.89689,1.35828,-32.4986
2023-03-11 22:29:46:865,0,6.90903,1.34634,-32.4912
2023-03-11 22:29:46:875,0,6.9209,1.33574,-32.479
2023-03-11 22:29:46:885,0,6.93559,1.32225,-32.4671
2023-03-11 22:29:46:895,0,6.94391,1.3086,-32.4563
2023-03-11 22:29:46:905,0,6.95083,1.29858,-32.4463
2023-03-11 22:29:46:915,0,6.95707,1.28251,-32.4375
2023-03-11 22:29:46:925,0,6.96284,1.2655,-32.4312
2023-03-11 22:29:46:935,0,6.96501,1.24896,-32.4249
2023-03-11 22:29:46:945,0,6.96676,1.23223,-32.4204
2023-03-11 22:29:46:955,0,6.97169,1.21617,-32.4154
2023-03-11 22:29:46:965,0,6.97166,1.20497,-32.4129
2023-03-11 22:29:46:975,0,6.97749,1.19084,-32.4096
2023-03-11 22:29:46:985,0,6.98216,1.17828,-32.4056
2023-03-11 22:29:46:995,0,6.99052,1.16849,-32.3952
2023-03-11 22:29:47:5,0,7.00215,1.15774,-32.3843
2023-03-11 22:29:47:15,0,7.01462,1.14823,-32.3753
2023-03-11 22:29:47:25,0,7.02619,1.13944,-32.3684
2023-03-11 22:29:47:35,0,7.04034,1.13436,-32.3585
2023-03-11 22:29:47:45,0,7.05397,1.12841,-32.3474
2023-03-11 22:29:47:55,0,7.06834,1.12492,-32.3377
2023-03-11 22:29:47:65,0,7.08211,1.12358,-32.3285
2023-03-11 22:29:47:75,0,7.09485,1.12341,-32.3245
2023-03-11 22:29:47:85,0,7.10246,1.12513,-32.3216
2023-03-11 22:29:47:95,0,7.1067,1.12326,-32.3175
2023-03-11 22:29:47:105,0,7.10669,1.12045,-32.3189
2023-03-11 22:29:47:115,0,7.10675,1.11849,-32.3239
2023-03-11 22:29:47:125,0,7.10285,1.11996,-32.3288
2023-03-11 22:29:47:135,0,7.09878,1.1217,-32.3367
2023-03-11 22:29:47:145,0,7.09522,1.12612,-32.3463
2023-03-11 22:29:47:155,0,7.0918,1.13222,-32.3555
2023-03-11 22:29:47:165,0,7.08706,1.14011,-32.3609
2023-03-11 22:29:47:175,0,7.08129,1.14383,-32.3641
2023-03-11 22:29:47:185,0,7.07062,1.14982,-32.3722
2023-03-11 22:29:47:195,0,7.0581,1.15519,-32.3813
2023-03-11 22:29:47:205,0,7.05088,1.1638,-32.3915
2023-03-11 22:29:47:215,0,7.04282,1.17084,-32.4023
2023-03-11 22:29:47:225,0,7.04006,1.1766,-32.4166
2023-03-11 22:29:47:235,0,7.03656,1.18689,-32.4354
2023-03-11 22:29:47:245,0,7.03821,1.19697,-32.4573
2023-03-11 22:29:47:255,0,7.04141,1.2072,-32.4813
2023-03-11 22:29:47:265,0,7.04295,1.21897,-32.5023
2023-03-11 22:29:47:275,0,7.04316,1.23518,-32.5265
2023-03-11 22:29:47:285,0,7.04443,1.24642,-32.5507
2023-03-11 22:29:47:295,0,7.04547,1.25354,-32.5693
2023-03-11 22:29:47:305,0,7.04467,1.25919,-32.582
2023-03-11 22:29:47:315,0,7.04233,1.26188,-32.5871
2023-03-11 22:29:47:325,0,7.03829,1.26552,-32.5896
2023-03-11 22:29:47:335,0,7.03531,1.26773,-32.5874
2023-03-11 22:29:47:345,0,7.03103,1.27699,-32.5786
2023-03-11 22:29:47:355,0,7.02312,1.28546,-32.5679
2023-03-11 22:29:47:365,0,7.01696,1.29228,-32.5551
2023-03-11 22:29:47:375,0,7.01191,1.29561,-32.5391
2023-03-11 22:29:47:385,0,7.00402,1.29953,-32.5234
2023-03-11 22:29:47:395,0,6.99979,1.30374,-32.5072
2023-03-11 22:29:47:405,0,6.99469,1.31197,-32.4975
2023-03-11 22:29:47:415,0,6.99373,1.3219,-32.4883
2023-03-11 22:29:47:425,0,6.98855,1.32717,-32.4776
2023-03-11 22:29:47:435,0,6.98015,1.32794,-32.4719
2023-03-11 22:29:47:445,0,6.97232,1.32895,-32.4718
2023-03-11 22:29:47:455,0,6.967,1.33277,-32.4728
2023-03-11 22:29:47:465,0,6.9643,1.33402,-32.4778
2023-03-11 22:29:47:475,0,6.96107,1.33262,-32.4847
2023-03-11 22:29:47:485,0,6.95903,1.32708,-32.4889
2023-03-11 22:29:47:495,0,6.9611,1.32632,-32.5011
2023-03-11 22:29:47:505,0,6.96586,1.32742,-32.5128
2023-03-11 22:29:47:515,0,6.97347,1.32874,-32.5184
2023-03-11 22:29:47:525,0,6.98422,1.32389,-32.5207
2023-03-11 22:29:47:535,0,6.99445,1.32078,-32.5219
2023-03-11 22:29:47:545,0,7.00622,1.31473,-32.517
2023-03-11 22:29:47:555,0,7.01891,1.30862,-32.5163
2023-03-11 22:29:47:565,0,7.03352,1.3089,-32.5161
2023-03-11 22:29:47:575,0,7.05001,1.30488,-32.5097
2023-03-11 22:29:47:585,0,7.06285,1.30305,-32.5056
2023-03-11 22:29:47:595,0,7.07459,1.30339,-32.4955
2023-03-11 22:29:47:605,0,7.08444,1.30078,-32.4895
2023-03-11 22:29:47:615,0,7.09851,1.29653,-32.486
2023-03-11 22:29:47:625,0,7.11052,1.29276,-32.4802
2023-03-11 22:29:47:635,0,7.12112,1.28771,-32.4727
2023-03-11 22:29:47:645,0,7.1317,1.28033,-32.4668
2023-03-11 22:29:47:655,0,7.14172,1.2724,-32.4597
2023-03-11 22:29:47:665,0,7.14635,1.25923,-32.4556
2023-03-11 22:29:47:675,0,7.15348,1.24618,-32.455
2023-03-11 22:29:47:685,0,7.16732,1.2325,-32.4514
2023-03-11 22:29:47:695,0,7.18375,1.21923,-32.4477
2023-03-11 22:29:47:705,0,7.19921,1.20048,-32.4466
2023-03-11 22:29:47:715,0,7.22167,1.18085,-32.4445
2023-03-11 22:29:47:725,0,7.24259,1.16561,-32.4402
2023-03-11 22:29:47:735,0,7.26674,1.14969,-32.4374
2023-03-11 22:29:47:745,0,7.29236,1.13428,-32.4366
2023-03-11 22:29:47:755,0,7.32169,1.11855,-32.4379
2023-03-11 22:29:47:765,0,7.35229,1.10332,-32.4381
2023-03-11 22:29:47:775,0,7.38277,1.08848,-32.4471
2023-03-11 22:29:47:785,0,7.40877,1.07483,-32.4623
2023-03-11 22:29:47:795,0,7.4357,1.06493,-32.4832
2023-03-11 22:29:47:805,0,7.46149,1.04998,-32.4991
2023-03-11 22:29:47:815,0,7.48909,1.03788,-32.5182
2023-03-11 22:29:47:825,0,7.51818,1.02888,-32.5442
2023-03-11 22:29:47:835,0,7.55067,1.01616,-32.5665
2023-03-11 22:29:47:845,0,7.58407,1.00438,-32.5939
2023-03-11 22:29:47:855,0,7.61371,0.996097,-32.6186
2023-03-11 22:29:47:865,0,7.6431,0.987257,-32.6415
2023-03-11 22:29:47:875,0,7.67216,0.979943,-32.6632
2023-03-11 22:29:47:885,0,7.69606,0.97548,-32.6808
2023-03-11 22:29:47:895,0,7.71732,0.967689,-32.6984
2023-03-11 22:29:47:905,0,7.73131,0.967057,-32.7158
2023-03-11 22:29:47:915,0,7.74328,0.977856,-32.7355
2023-03-11 22:29:47:925,0,7.75604,1.00001,-32.7574
2023-03-11 22:29:47:935,0,7.76633,1.02532,-32.7825
2023-03-11 22:29:47:945,0,7.77815,1.05423,-32.8048
2023-03-11 22:29:47:955,0,7.794,1.0854,-32.8339
2023-03-11 22:29:47:965,0,7.80933,1.1219,-32.8685
2023-03-11 22:29:47:975,0,7.8266,1.15819,-32.8964
2023-03-11 22:29:47:985,0,7.8446,1.19417,-32.9311
2023-03-11 22:29:47:995,0,7.86306,1.23024,-32.9715
2023-03-11 22:29:48:5,0,7.87901,1.26407,-33.0119
2023-03-11 22:29:48:15,0,7.89002,1.29857,-33.0508
2023-03-11 22:29:48:25,0,7.89885,1.32581,-33.0867
2023-03-11 22:29:48:35,0,7.90175,1.34758,-33.1174
2023-03-11 22:29:48:45,0,7.8985,1.36859,-33.1413
2023-03-11 22:29:48:55,0,7.89415,1.38524,-33.1671
2023-03-11 22:29:48:65,0,7.88688,1.40086,-33.188
2023-03-11 22:29:48:75,0,7.88108,1.40927,-33.202
2023-03-11 22:29:48:85,0,7.87185,1.4173,-33.2148
2023-03-11 22:29:48:95,0,7.86529,1.42804,-33.2327
2023-03-11 22:29:48:105,0,7.86032,1.44266,-33.2434
2023-03-11 22:29:48:115,0,7.85391,1.45832,-33.2499
2023-03-11 22:29:48:125,0,7.85112,1.46937,-33.2564
2023-03-11 22:29:48:135,0,7.84539,1.4828,-33.2599
2023-03-11 22:29:48:145,0,7.83685,1.49305,-33.2588
2023-03-11 22:29:48:155,0,7.82556,1.50177,-33.2578
2023-03-11 22:29:48:165,0,7.81385,1.51411,-33.2578
2023-03-11 22:29:48:175,0,7.8005,1.52358,-33.2542
2023-03-11 22:29:48:185,0,7.78802,1.53041,-33.253
2023-03-11 22:29:48:195,0,7.77663,1.53808,-33.2482
2023-03-11 22:29:48:205,0,7.76551,1.5418,-33.2452
2023-03-11 22:29:48:215,0,7.75529,1.55397,-33.2472
2023-03-11 22:29:48:225,0,7.74622,1.56819,-33.2568
2023-03-11 22:29:48:235,0,7.74042,1.58244,-33.2663
2023-03-11 22:29:48:245,0,7.74381,1.59341,-33.2717
2023-03-11 22:29:48:255,0,7.74469,1.60111,-33.2793
2023-03-11 22:29:48:265,0,7.74892,1.60684,-33.2879
2023-03-11 22:29:48:275,0,7.75694,1.61077,-33.2958
2023-03-11 22:29:48:285,0,7.75946,1.61581,-33.3048
2023-03-11 22:29:48:295,0,7.75869,1.6198,-33.3163
2023-03-11 22:29:48:305,0,7.75981,1.62178,-33.325
2023-03-11 22:29:48:315,0,7.76021,1.62587,-33.3307
2023-03-11 22:29:48:325,0,7.75927,1.63055,-33.3332
2023-03-11 22:29:48:335,0,7.75884,1.63726,-33.3356
2023-03-11 22:29:48:345,0,7.75694,1.64134,-33.335
2023-03-11 22:29:48:355,0,7.7513,1.64681,-33.3348
2023-03-11 22:29:48:365,0,7.75436,1.64983,-33.3342
2023-03-11 22:29:48:375,0,7.75252,1.65251,-33.3299
2023-03-11 22:29:48:385,0,7.75301,1.656,-33.3246
2023-03-11 22:29:48:395,0,7.75256,1.65477,-33.318
2023-03-11 22:29:48:405,0,7.7525,1.65045,-33.3101
2023-03-11 22:29:48:415,0,7.75065,1.64612,-33.3032
2023-03-11 22:29:48:425,0,7.74586,1.64338,-33.295
2023-03-11 22:29:48:435,0,7.7436,1.63898,-33.2902
2023-03-11 22:29:48:445,0,7.74224,1.63463,-33.2811
2023-03-11 22:29:48:455,0,7.7389,1.62595,-33.2736
2023-03-11 22:29:48:465,0,7.73432,1.61864,-33.2693
2023-03-11 22:29:48:475,0,7.72988,1.61594,-33.2668
2023-03-11 22:29:48:485,0,7.72589,1.61517,-33.2639
2023-03-11 22:29:48:495,0,7.72344,1.61128,-33.263
2023-03-11 22:29:48:505,0,7.72239,1.60465,-33.2621
2023-03-11 22:29:48:515,0,7.71617,1.6002,-33.2598
2023-03-11 22:29:48:525,0,7.71381,1.59493,-33.2583
2023-03-11 22:29:48:535,0,7.7111,1.58963,-33.2559
2023-03-11 22:29:48:545,0,7.70996,1.58358,-33.25
2023-03-11 22:29:48:555,0,7.70755,1.57999,-33.2479
2023-03-11 22:29:48:565,0,7.70549,1.57847,-33.2439
2023-03-11 22:29:48:575,0,7.70288,1.5769,-33.2369
2023-03-11 22:29:48:585,0,7.69917,1.57764,-33.2301
2023-03-11 22:29:48:595,0,7.69284,1.57695,-33.2254
2023-03-11 22:29:48:605,0,7.68538,1.57774,-33.2191
2023-03-11 22:29:48:615,0,7.67988,1.58021,-33.2165
2023-03-11 22:29:48:625,0,7.67296,1.58532,-33.2184
2023-03-11 22:29:48:635,0,7.67229,1.58735,-33.2178
2023-03-11 22:29:48:645,0,7.67242,1.58909,-33.22
2023-03-11 22:29:48:655,0,7.6776,1.5914,-33.2212
2023-03-11 22:29:48:665,0,7.68062,1.5923,-33.2236
2023-03-11 22:29:48:675,0,7.6838,1.59269,-33.2283
2023-03-11 22:29:48:685,0,7.68421,1.60183,-33.2373
2023-03-11 22:29:48:695,0,7.68832,1.60958,-33.2448
2023-03-11 22:29:48:705,0,7.68588,1.61284,-33.2497
2023-03-11 22:29:48:715,0,7.68175,1.61092,-33.2464
2023-03-11 22:29:48:725,0,7.67561,1.60805,-33.2447
2023-03-11 22:29:48:735,0,7.6675,1.6041,-33.2431
2023-03-11 22:29:48:745,0,7.66001,1.60239,-33.2458
2023-03-11 22:29:48:755,0,7.65242,1.60541,-33.248
2023-03-11 22:29:48:765,0,7.64155,1.60964,-33.2498
2023-03-11 22:29:48:775,0,7.63153,1.61205,-33.2483
2023-03-11 22:29:48:785,0,7.62538,1.61447,-33.2481
2023-03-11 22:29:48:795,0,7.6206,1.61604,-33.2465
2023-03-11 22:29:48:805,0,7.61686,1.62319,-33.2487
2023-03-11 22:29:48:815,0,7.61612,1.62955,-33.2486
2023-03-11 22:29:48:825,0,7.61465,1.63727,-33.2522
2023-03-11 22:29:48:835,0,7.6112,1.64266,-33.2574
2023-03-11 22:29:48:845,0,7.60782,1.64543,-33.2593
2023-03-11 22:29:48:855,0,7.60316,1.64629,-33.2626
2023-03-11 22:29:48:865,0,7.60043,1.64449,-33.2661
2023-03-11 22:29:48:875,0,7.59468,1.64342,-33.2684
2023-03-11 22:29:48:885,0,7.58899,1.64318,-33.2699
2023-03-11 22:29:48:895,0,7.58803,1.63868,-33.2656
2023-03-11 22:29:48:905,0,7.59078,1.63509,-33.267
2023-03-11 22:29:48:915,0,7.59587,1.64045,-33.2721
2023-03-11 22:29:48:925,0,7.60448,1.64175,-33.2678
2023-03-11 22:29:48:935,0,7.61245,1.63776,-33.2595
2023-03-11 22:29:48:945,0,7.61828,1.6305,-33.2556
2023-03-11 22:29:48:955,0,7.62723,1.62341,-33.2484
2023-03-11 22:29:48:965,0,7.63562,1.61571,-33.2426
2023-03-11 22:29:48:975,0,7.64661,1.60837,-33.24
2023-03-11 22:29:48:985,0,7.65394,1.60257,-33.2358
2023-03-11 22:29:48:995,0,7.66005,1.60086,-33.2345
2023-03-11 22:29:49:5,0,7.66493,1.59831,-33.2308
2023-03-11 22:29:49:15,0,7.66389,1.59216,-33.2263
2023-03-11 22:29:49:25,0,7.66417,1.58947,-33.2274
2023-03-11 22:29:49:35,0,7.6651,1.58298,-33.2269
2023-03-11 22:29:49:45,0,7.66663,1.58053,-33.2262
2023-03-11 22:29:49:55,0,7.66682,1.57961,-33.2254
2023-03-11 22:29:49:65,0,7.66567,1.57589,-33.2263
2023-03-11 22:29:49:75,0,7.66709,1.57123,-33.2296
2023-03-11 22:29:49:85,0,7.66752,1.56194,-33.2317
2023-03-11 22:29:49:95,0,7.6697,1.55304,-33.2311
2023-03-11 22:29:49:105,0,7.66984,1.5487,-33.2317
2023-03-11 22:29:49:115,0,7.66979,1.53816,-33.2313
2023-03-11 22:29:49:125,0,7.6701,1.53218,-33.2285
2023-03-11 22:29:49:135,0,7.66836,1.52742,-33.2237
2023-03-11 22:29:49:145,0,7.67161,1.52596,-33.2175
2023-03-11 22:29:49:155,0,7.66942,1.5249,-33.2132
2023-03-11 22:29:49:165,0,7.66907,1.52334,-33.211
2023-03-11 22:29:49:175,0,7.67165,1.52737,-33.2069
2023-03-11 22:29:49:185,0,7.6742,1.52612,-33.2007
2023-03-11 22:29:49:195,0,7.67946,1.53063,-33.2015
2023-03-11 22:29:49:205,0,7.67991,1.53257,-33.201
2023-03-11 22:29:49:215,0,7.68077,1.53515,-33.2011
2023-03-11 22:29:49:225,0,7.68306,1.53774,-33.2064
2023-03-11 22:29:49:235,0,7.68632,1.54297,-33.2115
2023-03-11 22:29:49:245,0,7.68765,1.54611,-33.2169
2023-03-11 22:29:49:255,0,7.69052,1.55065,-33.2234
2023-03-11 22:29:49:265,0,7.69585,1.55483,-33.2298
2023-03-11 22:29:49:275,0,7.69858,1.55716,-33.2374
2023-03-11 22:29:49:285,0,7.69686,1.56357,-33.2387
2023-03-11 22:29:49:295,0,7.69219,1.56962,-33.2406
2023-03-11 22:29:49:305,0,7.68425,1.57366,-33.2403
2023-03-11 22:29:49:315,0,7.68039,1.57834,-33.2401
2023-03-11 22:29:49:325,0,7.67443,1.58143,-33.2412
2023-03-11 22:29:49:335,0,7.66696,1.58871,-33.2431
2023-03-11 22:29:49:345,0,7.6636,1.5958,-33.2422
2023-03-11 22:29:49:355,0,7.65806,1.59881,-33.2387
2023-03-11 22:29:49:365,0,7.65089,1.60677,-33.2334
2023-03-11 22:29:49:375,0,7.64054,1.60959,-33.2338
2023-03-11 22:29:49:385,0,7.63503,1.611,-33.2303
2023-03-11 22:29:49:395,0,7.62964,1.60681,-33.2215
2023-03-11 22:29:49:405,0,7.61961,1.59963,-33.2082
2023-03-11 22:29:49:415,0,7.61023,1.5868,-33.1958
2023-03-11 22:29:49:425,0,7.60227,1.57571,-33.1829
2023-03-11 22:29:49:435,0,7.592,1.56263,-33.1678
2023-03-11 22:29:49:445,0,7.57785,1.55471,-33.15
2023-03-11 22:29:49:455,0,7.5647,1.55084,-33.132
2023-03-11 22:29:49:465,0,7.5567,1.54974,-33.1154
2023-03-11 22:29:49:475,0,7.54879,1.5482,-33.0997
2023-03-11 22:29:49:485,0,7.54473,1.54808,-33.0838
2023-03-11 22:29:49:495,0,7.54147,1.54642,-33.0726
2023-03-11 22:29:49:505,0,7.53173,1.54637,-33.0626
2023-03-11 22:29:49:515,0,7.52451,1.54783,-33.0565
2023-03-11 22:29:49:525,0,7.51621,1.54823,-33.0555
2023-03-11 22:29:49:535,0,7.5036,1.54518,-33.0542
2023-03-11 22:29:49:545,0,7.49393,1.54525,-33.0518
2023-03-11 22:29:49:555,0,7.47863,1.5421,-33.0508
2023-03-11 22:29:49:565,0,7.46145,1.5408,-33.0483
2023-03-11 22:29:49:575,0,7.44598,1.54035,-33.045
2023-03-11 22:29:49:585,0,7.43305,1.54362,-33.0437
2023-03-11 22:29:49:595,0,7.4199,1.54694,-33.0425
2023-03-11 22:29:49:605,0,7.40886,1.55166,-33.041
2023-03-11 22:29:49:615,0,7.40369,1.55337,-33.0345
2023-03-11 22:29:49:625,0,7.39911,1.55189,-33.0271
2023-03-11 22:29:49:635,0,7.39735,1.54798,-33.0156
2023-03-11 22:29:49:645,0,7.3933,1.54214,-33.0084
2023-03-11 22:29:49:655,0,7.39232,1.53778,-32.9999
2023-03-11 22:29:49:665,0,7.38962,1.53234,-32.9942
2023-03-11 22:29:49:675,0,7.38352,1.52361,-32.9867
2023-03-11 22:29:49:685,0,7.37567,1.51696,-32.9751
2023-03-11 22:29:49:695,0,7.37182,1.50939,-32.9627
2023-03-11 22:29:49:705,0,7.36532,1.50141,-32.9538
2023-03-11 22:29:49:715,0,7.35925,1.4922,-32.9442
2023-03-11 22:29:49:725,0,7.35187,1.48475,-32.9325
2023-03-11 22:29:49:735,0,7.33835,1.47551,-32.9203
2023-03-11 22:29:49:745,0,7.32561,1.46274,-32.9115
2023-03-11 22:29:49:755,0,7.3155,1.44932,-32.903
2023-03-11 22:29:49:765,0,7.30322,1.43335,-32.8949
2023-03-11 22:29:49:775,0,7.28907,1.41816,-32.8849
2023-03-11 22:29:49:785,0,7.27636,1.40213,-32.8703
2023-03-11 22:29:49:795,0,7.26546,1.39026,-32.8587
2023-03-11 22:29:49:805,0,7.25405,1.37778,-32.8453
2023-03-11 22:29:49:815,0,7.24593,1.36985,-32.8396
2023-03-11 22:29:49:825,0,7.2365,1.36174,-32.8316
2023-03-11 22:29:49:835,0,7.22618,1.3517,-32.8276
2023-03-11 22:29:49:845,0,7.21634,1.3422,-32.8206
2023-03-11 22:29:49:855,0,7.20758,1.33638,-32.821
2023-03-11 22:29:49:865,0,7.203,1.33164,-32.8211
2023-03-11 22:29:49:875,0,7.20112,1.32919,-32.8254
2023-03-11 22:29:49:885,0,7.20282,1.32589,-32.8317
2023-03-11 22:29:49:895,0,7.20461,1.32252,-32.8379
2023-03-11 22:29:49:905,0,7.20724,1.32388,-32.8448
2023-03-11 22:29:49:915,0,7.20694,1.32566,-32.8495
2023-03-11 22:29:49:925,0,7.2098,1.32715,-32.8557
2023-03-11 22:29:49:935,0,7.21278,1.3281,-32.862
2023-03-11 22:29:49:945,0,7.21552,1.32739,-32.8653
2023-03-11 22:29:49:955,0,7.21575,1.32611,-32.868
2023-03-11 22:29:49:965,0,7.21621,1.32035,-32.8751
2023-03-11 22:29:49:975,0,7.22168,1.31754,-32.8832
2023-03-11 22:29:49:985,0,7.22955,1.31466,-32.888
2023-03-11 22:29:49:995,0,7.23941,1.31254,-32.8852
2023-03-11 22:29:50:5,0,7.25048,1.30764,-32.8873
2023-03-11 22:29:50:15,0,7.25944,1.30244,-32.8913
2023-03-11 22:29:50:25,0,7.27474,1.29986,-32.8883
2023-03-11 22:29:50:35,0,7.28448,1.29726,-32.8857
2023-03-11 22:29:50:45,0,7.29103,1.29662,-32.8841
2023-03-11 22:29:50:55,0,7.29243,1.29704,-32.8844
2023-03-11 22:29:50:65,0,7.29673,1.29149,-32.8828
2023-03-11 22:29:50:75,0,7.29866,1.28341,-32.8743
2023-03-11 22:29:50:85,0,7.29596,1.27826,-32.8659
2023-03-11 22:29:50:95,0,7.28607,1.26967,-32.864
2023-03-11 22:29:50:105,0,7.2732,1.26627,-32.8604
2023-03-11 22:29:50:115,0,7.26233,1.26577,-32.8597
2023-03-11 22:29:50:125,0,7.24648,1.26428,-32.8592
2023-03-11 22:29:50:135,0,7.23727,1.26349,-32.8642
2023-03-11 22:29:50:145,0,7.2312,1.26404,-32.8721
2023-03-11 22:29:50:155,0,7.22958,1.26996,-32.879
2023-03-11 22:29:50:165,0,7.22843,1.27538,-32.887
2023-03-11 22:29:50:175,0,7.22923,1.28107,-32.895
2023-03-11 22:29:50:185,0,7.22368,1.29081,-32.9045
2023-03-11 22:29:50:195,0,7.219,1.29723,-32.915
2023-03-11 22:29:50:205,0,7.21671,1.30458,-32.9272
2023-03-11 22:29:50:215,0,7.21287,1.31094,-32.9405
2023-03-11 22:29:50:225,0,7.20848,1.31682,-32.9537
2023-03-11 22:29:50:235,0,7.20679,1.32435,-32.9638
2023-03-11 22:29:50:245,0,7.20843,1.3311,-32.9701
2023-03-11 22:29:50:255,0,7.21535,1.33714,-32.9773
2023-03-11 22:29:50:265,0,7.22662,1.34399,-32.9866
2023-03-11 22:29:50:275,0,7.24023,1.35367,-33.0008
2023-03-11 22:29:50:285,0,7.2576,1.36204,-33.0115
2023-03-11 22:29:50:295,0,7.27629,1.36669,-33.0173
2023-03-11 22:29:50:305,0,7.29264,1.36875,-33.0229
2023-03-11 22:29:50:315,0,7.30932,1.36931,-33.0314
2023-03-11 22:29:50:325,0,7.32547,1.37183,-33.0397
2023-03-11 22:29:50:335,0,7.33893,1.37143,-33.0461
2023-03-11 22:29:50:345,0,7.35049,1.37369,-33.0519
2023-03-11 22:29:50:355,0,7.35828,1.37042,-33.0527
2023-03-11 22:29:50:365,0,7.36481,1.37244,-33.0494
2023-03-11 22:29:50:375,0,7.37014,1.37089,-33.0444
2023-03-11 22:29:50:385,0,7.37411,1.37132,-33.0396
2023-03-11 22:29:50:395,0,7.37665,1.36965,-33.0325
2023-03-11 22:29:50:405,0,7.38125,1.364,-33.0307
2023-03-11 22:29:50:415,0,7.38392,1.36127,-33.0258
2023-03-11 22:29:50:425,0,7.38654,1.35208,-33.0231
2023-03-11 22:29:50:435,0,7.39181,1.34526,-33.0218
2023-03-11 22:29:50:445,0,7.39252,1.33472,-33.0205
2023-03-11 22:29:50:455,0,7.3939,1.32472,-33.0182
2023-03-11 22:29:50:465,0,7.39449,1.31432,-33.0162
2023-03-11 22:29:50:475,0,7.39521,1.30639,-33.0158
2023-03-11 22:29:50:485,0,7.39505,1.30083,-33.0139
2023-03-11 22:29:50:495,0,7.39184,1.29735,-33.0129
2023-03-11 22:29:50:505,0,7.38963,1.29178,-33.0154
2023-03-11 22:29:50:515,0,7.38745,1.28931,-33.0186
2023-03-11 22:29:50:525,0,7.38507,1.28557,-33.016
2023-03-11 22:29:50:535,0,7.38155,1.28433,-33.0187
2023-03-11 22:29:50:545,0,7.37605,1.28663,-33.0224
2023-03-11 22:29:50:555,0,7.37517,1.28249,-33.0276
2023-03-11 22:29:50:565,0,7.37581,1.28555,-33.0322
2023-03-11 22:29:50:575,0,7.37987,1.28942,-33.0412
2023-03-11 22:29:50:585,0,7.38696,1.29174,-33.044
2023-03-11 22:29:50:595,0,7.38991,1.29662,-33.0459
2023-03-11 22:29:50:605,0,7.39221,1.30025,-33.0437
2023-03-11 22:29:50:615,0,7.39351,1.30361,-33.0417
2023-03-11 22:29:50:625,0,7.39255,1.30639,-33.0421
2023-03-11 22:29:50:635,0,7.38731,1.30876,-33.0384
2023-03-11 22:29:50:645,0,7.38339,1.31291,-33.0385
2023-03-11 22:29:50:655,0,7.38181,1.31893,-33.0402
2023-03-11 22:29:50:665,0,7.37911,1.32306,-33.0384
2023-03-11 22:29:50:675,0,7.3782,1.32636,-33.0379
2023-03-11 22:29:50:685,0,7.37939,1.33236,-33.0366
2023-03-11 22:29:50:695,0,7.38343,1.3347,-33.0369
2023-03-11 22:29:50:705,0,7.38442,1.34002,-33.0327
2023-03-11 22:29:50:715,0,7.3872,1.34287,-33.0318
2023-03-11 22:29:50:725,0,7.38991,1.34682,-33.0336
2023-03-11 22:29:50:735,0,7.38675,1.34999,-33.0304
2023-03-11 22:29:50:745,0,7.38475,1.34644,-33.0243
2023-03-11 22:29:50:755,0,7.3824,1.33821,-33.013
2023-03-11 22:29:50:765,0,7.37178,1.33422,-33.0021
2023-03-11 22:29:50:775,0,7.36164,1.33876,-32.9953
2023-03-11 22:29:50:785,0,7.35208,1.34419,-32.9898
2023-03-11 22:29:50:795,0,7.33812,1.35424,-32.9854
2023-03-11 22:29:50:805,0,7.3244,1.36708,-32.9817
2023-03-11 22:29:50:815,0,7.31578,1.38368,-32.9864
2023-03-11 22:29:50:825,0,7.30873,1.39699,-32.9903
2023-03-11 22:29:50:835,0,7.30588,1.41039,-33.0002
2023-03-11 22:29:50:845,0,7.305,1.42855,-33.0154
2023-03-11 22:29:50:855,0,7.30333,1.44338,-33.0352
2023-03-11 22:29:50:865,0,7.30031,1.45871,-33.0567
2023-03-11 22:29:50:875,0,7.29726,1.47136,-33.0798
2023-03-11 22:29:50:885,0,7.29332,1.48389,-33.1007
2023-03-11 22:29:50:895,0,7.28711,1.5015,-33.1201
2023-03-11 22:29:50:905,0,7.27786,1.51745,-33.134
2023-03-11 22:29:50:915,0,7.27127,1.53199,-33.1446
2023-03-11 22:29:50:925,0,7.26397,1.54419,-33.1513
2023-03-11 22:29:50:935,0,7.25788,1.55436,-33.1566
2023-03-11 22:29:50:945,0,7.24946,1.56739,-33.1598
2023-03-11 22:29:50:955,0,7.24765,1.58353,-33.1647
2023-03-11 22:29:50:965,0,7.24857,1.596,-33.1593
2023-03-11 22:29:50:975,0,7.25092,1.60081,-33.1528
2023-03-11 22:29:50:985,0,7.25139,1.60035,-33.1431
2023-03-11 22:29:50:995,0,7.25618,1.59498,-33.1327
2023-03-11 22:29:51:5,0,7.25949,1.59166,-33.1217
2023-03-11 22:29:51:15,0,7.26236,1.58829,-33.1056
2023-03-11 22:29:51:25,0,7.26608,1.58569,-33.0874
2023-03-11 22:29:51:35,0,7.27013,1.58282,-33.0672
2023-03-11 22:29:51:45,0,7.27188,1.57872,-33.0478
2023-03-11 22:29:51:55,0,7.27421,1.57113,-33.0261
2023-03-11 22:29:51:65,0,7.27698,1.56139,-33.0062
2023-03-11 22:29:51:75,0,7.27384,1.55364,-32.9873
2023-03-11 22:29:51:85,0,7.27214,1.54082,-32.9695
2023-03-11 22:29:51:95,0,7.26522,1.5277,-32.9557
2023-03-11 22:29:51:105,0,7.25868,1.5137,-32.9435
2023-03-11 22:29:51:115,0,7.25228,1.49518,-32.9304
2023-03-11 22:29:51:125,0,7.24592,1.47769,-32.921
2023-03-11 22:29:51:135,0,7.24058,1.46284,-32.9125
2023-03-11 22:29:51:145,0,7.23278,1.44976,-32.9086
2023-03-11 22:29:51:155,0,7.22447,1.43646,-32.9049
2023-03-11 22:29:51:165,0,7.21585,1.42246,-32.9036
