Timestamp_cmd,imu_cmd,roll_delta,pitch_delta,yaw_delta,voice_type,voice_length
2023-03-15 11:22:36:678,0,-5.48288,-0.724138,54.4613,Q,Q
2023-03-15 11:22:36:686,0,-5.48317,-0.720125,54.4892,Q,Q
2023-03-15 11:22:36:696,0,-5.48302,-0.719131,54.5206,Q,Q
2023-03-15 11:22:36:706,0,-5.48476,-0.721511,54.5533,Q,Q
2023-03-15 11:22:36:716,0,-5.48782,-0.721633,54.579,Q,Q
2023-03-15 11:22:36:726,0,-5.49296,-0.719894,54.6049,Q,Q
2023-03-15 11:22:36:736,0,-5.49303,-0.717866,54.6313,Q,Q
2023-03-15 11:22:36:746,0,-5.49501,-0.716834,54.6585,Q,Q
2023-03-15 11:22:36:756,0,-5.49505,-0.715182,54.6847,Q,Q
2023-03-15 11:22:36:766,0,-5.49674,-0.712096,54.7064,Q,Q
2023-03-15 11:22:36:776,0,-5.49246,-0.720907,54.7273,Q,Q
2023-03-15 11:22:36:786,0,-5.4899,-0.735513,54.7505,Q,Q
2023-03-15 11:22:36:796,0,-5.48809,-0.747276,54.7749,Q,Q
2023-03-15 11:22:36:806,0,-5.48293,-0.759368,54.8015,Q,Q
2023-03-15 11:22:36:816,0,-5.48108,-0.762787,54.8285,Q,Q
2023-03-15 11:22:36:826,0,-5.48109,-0.76731,54.8499,Q,Q
2023-03-15 11:22:36:836,0,-5.48713,-0.770657,54.87,Q,Q
2023-03-15 11:22:36:846,0,-5.50145,-0.773245,54.8848,Q,Q
2023-03-15 11:22:36:856,0,-5.51382,-0.776683,54.9003,Q,Q
2023-03-15 11:22:36:866,0,-5.52121,-0.77838,54.9161,Q,Q
2023-03-15 11:22:36:876,0,-5.52689,-0.780136,54.9302,Q,Q
2023-03-15 11:22:36:886,0,-5.53293,-0.782306,54.9466,Q,Q
2023-03-15 11:22:36:896,0,-5.53946,-0.783532,54.9627,Q,Q
2023-03-15 11:22:36:906,0,-5.53868,-0.788089,54.9833,Q,Q
2023-03-15 11:22:36:916,0,-5.53724,-0.79016,55.0046,Q,Q
2023-03-15 11:22:36:926,0,-5.53764,-0.791345,55.0276,Q,Q
2023-03-15 11:22:36:936,0,-5.53739,-0.790363,55.0523,Q,Q
2023-03-15 11:22:36:946,0,-5.53934,-0.79485,55.0731,Q,Q
2023-03-15 11:22:36:956,0,-5.54134,-0.794173,55.091,Q,Q
2023-03-15 11:22:36:966,0,-5.54401,-0.7979,55.1081,Q,Q
2023-03-15 11:22:36:976,0,-5.54608,-0.801435,55.1224,Q,Q
2023-03-15 11:22:36:986,0,-5.54446,-0.810698,55.134,Q,Q
2023-03-15 11:22:36:996,0,-5.54052,-0.818913,55.1465,Q,Q
2023-03-15 11:22:37:6,0,-5.53407,-0.832711,55.1593,Q,Q
2023-03-15 11:22:37:16,0,-5.53226,-0.845388,55.1707,Q,Q
2023-03-15 11:22:37:26,0,-5.53544,-0.853344,55.1781,Q,Q
2023-03-15 11:22:37:36,0,-5.53887,-0.862784,55.1894,Q,Q
2023-03-15 11:22:37:46,0,-5.5382,-0.872063,55.1993,Q,Q
2023-03-15 11:22:37:56,0,-5.53583,-0.880405,55.2076,Q,Q
2023-03-15 11:22:37:66,0,-5.53245,-0.889417,55.2184,Q,Q
2023-03-15 11:22:37:76,0,-5.52964,-0.901003,55.2269,Q,Q
2023-03-15 11:22:37:86,0,-5.52705,-0.910704,55.2346,Q,Q
2023-03-15 11:22:37:96,0,-5.52188,-0.923511,55.2447,Q,Q
2023-03-15 11:22:37:106,0,-5.51433,-0.935574,55.2496,Q,Q
2023-03-15 11:22:37:116,0,-5.50559,-0.945382,55.2562,Q,Q
2023-03-15 11:22:37:126,0,-5.50127,-0.957375,55.2602,Q,Q
2023-03-15 11:22:37:136,0,-5.49556,-0.969713,55.2596,Q,Q
2023-03-15 11:22:37:146,0,-5.48831,-0.979344,55.2585,Q,Q
2023-03-15 11:22:37:156,0,-5.48165,-0.99382,55.2521,Q,Q
2023-03-15 11:22:37:166,0,-5.48011,-1.00457,55.2433,Q,Q
2023-03-15 11:22:37:176,0,-5.48232,-1.00971,55.2317,Q,Q
2023-03-15 11:22:37:186,0,-5.48286,-1.01675,55.2255,Q,Q
2023-03-15 11:22:37:196,0,-5.48629,-1.02438,55.219,Q,Q
2023-03-15 11:22:37:206,0,-5.48725,-1.03101,55.2151,Q,Q
2023-03-15 11:22:37:216,0,-5.48652,-1.03834,55.2114,Q,Q
2023-03-15 11:22:37:226,0,-5.48854,-1.04065,55.2113,Q,Q
2023-03-15 11:22:37:236,0,-5.48771,-1.04276,55.2106,Q,Q
2023-03-15 11:22:37:246,0,-5.49247,-1.04476,55.2158,Q,Q
2023-03-15 11:22:37:256,0,-5.4953,-1.04844,55.2236,Q,Q
2023-03-15 11:22:37:266,0,-5.50133,-1.0489,55.2326,Q,Q
2023-03-15 11:22:37:276,0,-5.51508,-1.04992,55.2437,Q,Q
2023-03-15 11:22:37:286,0,-5.52915,-1.04977,55.2541,Q,Q
2023-03-15 11:22:37:296,0,-5.54388,-1.05597,55.2609,Q,Q
2023-03-15 11:22:37:306,0,-5.56168,-1.0728,55.2681,Q,Q
2023-03-15 11:22:37:316,0,-5.5874,-1.07756,55.2779,Q,Q
2023-03-15 11:22:37:326,0,-5.60715,-1.0796,55.2885,Q,Q
2023-03-15 11:22:37:336,0,-5.62079,-1.06944,55.2995,Q,Q
2023-03-15 11:22:37:346,0,-5.62377,-1.05399,55.3172,Q,Q
2023-03-15 11:22:37:356,0,-5.6276,-1.04124,55.3316,Q,Q
2023-03-15 11:22:37:366,0,-5.63288,-1.03,55.3496,Q,Q
2023-03-15 11:22:37:376,0,-5.6451,-1.0188,55.3652,Q,Q
2023-03-15 11:22:37:386,0,-5.66005,-1.00591,55.3815,Q,Q
2023-03-15 11:22:37:396,0,-5.66757,-0.992939,55.3945,Q,Q
2023-03-15 11:22:37:406,0,-5.67506,-0.980672,55.4092,Q,Q
2023-03-15 11:22:37:416,0,-5.6846,-0.967783,55.4241,Q,Q
2023-03-15 11:22:37:426,0,-5.69631,-0.959843,55.4367,Q,Q
2023-03-15 11:22:37:436,0,-5.70435,-0.948937,55.4479,Q,Q
2023-03-15 11:22:37:446,0,-5.7138,-0.941553,55.4623,Q,Q
2023-03-15 11:22:37:456,0,-5.72083,-0.932956,55.4769,Q,Q
2023-03-15 11:22:37:466,0,-5.72333,-0.925787,55.4911,Q,Q
2023-03-15 11:22:37:476,0,-5.72402,-0.918878,55.5057,Q,Q
2023-03-15 11:22:37:486,0,-5.72983,-0.909454,55.5222,Q,Q
2023-03-15 11:22:37:496,0,-5.73117,-0.899045,55.5357,Q,Q
2023-03-15 11:22:37:506,0,-5.73321,-0.888832,55.5507,Q,Q
2023-03-15 11:22:37:516,0,-5.73597,-0.882802,55.5644,Q,Q
2023-03-15 11:22:37:526,0,-5.74439,-0.889652,55.5742,Q,Q
2023-03-15 11:22:37:536,0,-5.76076,-0.893529,55.5883,Q,Q
2023-03-15 11:22:37:546,0,-5.77189,-0.888144,55.602,Q,Q
2023-03-15 11:22:37:556,0,-5.78292,-0.878608,55.6202,Q,Q
2023-03-15 11:22:37:566,0,-5.78762,-0.869603,55.6355,Q,Q
2023-03-15 11:22:37:576,0,-5.79514,-0.860953,55.6508,Q,Q
2023-03-15 11:22:37:586,0,-5.80531,-0.853753,55.6677,Q,Q
2023-03-15 11:22:37:596,0,-5.81943,-0.847082,55.6833,Q,Q
2023-03-15 11:22:37:606,0,-5.83321,-0.841491,55.6961,Q,Q
2023-03-15 11:22:37:616,0,-5.84018,-0.840171,55.7131,Q,Q
2023-03-15 11:22:37:626,0,-5.84722,-0.834208,55.7335,Q,Q
2023-03-15 11:22:37:636,0,-5.85372,-0.832295,55.7532,Q,Q
2023-03-15 11:22:37:646,0,-5.85982,-0.83008,55.7776,Q,Q
2023-03-15 11:22:37:656,0,-5.86595,-0.820576,55.7988,Q,Q
2023-03-15 11:22:37:666,0,-5.87185,-0.811138,55.8248,Q,Q
2023-03-15 11:22:37:676,0,-5.88152,-0.804209,55.8454,Q,Q
2023-03-15 11:22:37:686,0,-5.88585,-0.796801,55.8673,Q,Q
2023-03-15 11:22:37:696,0,-5.88872,-0.785995,55.8848,Q,Q
2023-03-15 11:22:37:706,0,-5.8927,-0.781239,55.9052,Q,Q
2023-03-15 11:22:37:716,0,-5.89375,-0.776416,55.9241,Q,Q
2023-03-15 11:22:37:726,0,-5.89837,-0.777347,55.948,Q,Q
2023-03-15 11:22:37:736,0,-5.90186,-0.783876,55.9707,Q,Q
2023-03-15 11:22:37:746,0,-5.91678,-0.802209,55.9865,Q,Q
2023-03-15 11:22:37:756,0,-5.94183,-0.821271,56.0008,Q,Q
2023-03-15 11:22:37:766,0,-5.96638,-0.823795,56.0113,Q,Q
2023-03-15 11:22:37:776,0,-5.98216,-0.820063,56.0176,Q,Q
2023-03-15 11:22:37:786,0,-5.99193,-0.813027,56.0281,Q,Q
2023-03-15 11:22:37:796,0,-5.99531,-0.808453,56.0372,Q,Q
2023-03-15 11:22:37:806,0,-6.00089,-0.805202,56.0452,Q,Q
2023-03-15 11:22:37:816,0,-6.01312,-0.799244,56.0512,Q,Q
2023-03-15 11:22:37:826,0,-6.02334,-0.794912,56.0615,Q,Q
2023-03-15 11:22:37:836,0,-6.03181,-0.789022,56.0715,Q,Q
2023-03-15 11:22:37:846,0,-6.02943,-0.783869,56.0877,Q,Q
2023-03-15 11:22:37:856,0,-6.03017,-0.776895,56.106,Q,Q
2023-03-15 11:22:37:866,0,-6.03133,-0.76988,56.1219,Q,Q
2023-03-15 11:22:37:876,0,-6.03234,-0.761463,56.1401,Q,Q
2023-03-15 11:22:37:886,0,-6.03438,-0.752691,56.1577,Q,Q
2023-03-15 11:22:37:896,0,-6.03198,-0.742282,56.1788,Q,Q
2023-03-15 11:22:37:906,0,-6.03388,-0.735948,56.201,Q,Q
2023-03-15 11:22:37:916,0,-6.03519,-0.726664,56.2204,Q,Q
2023-03-15 11:22:37:926,0,-6.03721,-0.717536,56.2382,Q,Q
2023-03-15 11:22:37:936,0,-6.04662,-0.71049,56.2565,Q,Q
2023-03-15 11:22:37:946,0,-6.0602,-0.703233,56.2687,Q,Q
2023-03-15 11:22:37:956,0,-6.07177,-0.707099,56.2764,Q,Q
2023-03-15 11:22:37:966,0,-6.09323,-0.721578,56.2816,Q,Q
2023-03-15 11:22:37:976,0,-6.11541,-0.729422,56.2905,Q,Q
2023-03-15 11:22:37:986,0,-6.1319,-0.733376,56.2964,Q,Q
2023-03-15 11:22:37:996,0,-6.14234,-0.733417,56.3102,Q,Q
2023-03-15 11:22:38:6,0,-6.1469,-0.730898,56.3263,Q,Q
2023-03-15 11:22:38:16,0,-6.1533,-0.735539,56.3408,Q,Q
2023-03-15 11:22:38:26,0,-6.1613,-0.734388,56.358,Q,Q
2023-03-15 11:22:38:36,0,-6.17364,-0.732184,56.3722,Q,Q
2023-03-15 11:22:38:46,0,-6.17586,-0.730412,56.389,Q,Q
2023-03-15 11:22:38:56,0,-6.17736,-0.725388,56.4066,Q,Q
2023-03-15 11:22:38:66,0,-6.17492,-0.723944,56.4267,Q,Q
2023-03-15 11:22:38:76,0,-6.17019,-0.723122,56.4445,Q,Q
2023-03-15 11:22:38:86,0,-6.16964,-0.722424,56.4644,Q,Q
2023-03-15 11:22:38:96,0,-6.16772,-0.72031,56.4843,Q,Q
2023-03-15 11:22:38:106,0,-6.17251,-0.721979,56.5009,Q,Q
2023-03-15 11:22:38:116,0,-6.17938,-0.722891,56.5198,Q,Q
2023-03-15 11:22:38:126,0,-6.18713,-0.72161,56.5348,Q,Q
2023-03-15 11:22:38:136,0,-6.19203,-0.724486,56.5511,Q,Q
2023-03-15 11:22:38:146,0,-6.19787,-0.722748,56.5701,Q,Q
2023-03-15 11:22:38:156,0,-6.20067,-0.71799,56.5868,Q,Q
2023-03-15 11:22:38:166,0,-6.2076,-0.715439,56.6058,Q,Q
2023-03-15 11:22:38:176,0,-6.21608,-0.714329,56.6225,Q,Q
2023-03-15 11:22:38:186,0,-6.22518,-0.71344,56.6387,Q,Q
2023-03-15 11:22:38:196,0,-6.24039,-0.711647,56.6582,Q,Q
2023-03-15 11:22:38:206,0,-6.25315,-0.707367,56.6725,Q,Q
2023-03-15 11:22:38:216,0,-6.26946,-0.701748,56.6844,Q,Q
2023-03-15 11:22:38:226,0,-6.28166,-0.698876,56.6953,Q,Q
2023-03-15 11:22:38:236,0,-6.29496,-0.696403,56.7035,Q,Q
2023-03-15 11:22:38:246,0,-6.30813,-0.694931,56.7071,Q,Q
2023-03-15 11:22:38:256,0,-6.31948,-0.707904,56.7064,Q,Q
2023-03-15 11:22:38:266,0,-6.33357,-0.722751,56.7059,Q,Q
2023-03-15 11:22:38:276,0,-6.35189,-0.729912,56.7043,Q,Q
2023-03-15 11:22:38:286,0,-6.3653,-0.734938,56.7008,Q,Q
2023-03-15 11:22:38:296,0,-6.37082,-0.728968,56.6982,Q,Q
2023-03-15 11:22:38:306,0,-6.37063,-0.721345,56.6968,Q,Q
2023-03-15 11:22:38:316,0,-6.37207,-0.719168,56.6965,Q,Q
2023-03-15 11:22:38:326,0,-6.37898,-0.718218,56.6934,Q,Q
2023-03-15 11:22:38:336,0,-6.38845,-0.718486,56.6896,Q,Q
2023-03-15 11:22:38:346,0,-6.39797,-0.717351,56.6873,Q,Q
2023-03-15 11:22:38:356,0,-6.40288,-0.717068,56.6866,Q,Q
2023-03-15 11:22:38:366,0,-6.40221,-0.713535,56.6886,Q,Q
2023-03-15 11:22:38:376,0,-6.40384,-0.710385,56.6948,Q,Q
2023-03-15 11:22:38:386,0,-6.40677,-0.706824,56.7021,Q,Q
2023-03-15 11:22:38:396,0,-6.40855,-0.702882,56.7111,Q,Q
2023-03-15 11:22:38:406,0,-6.41502,-0.697012,56.7166,Q,Q
2023-03-15 11:22:38:416,0,-6.41736,-0.688348,56.7249,Q,Q
2023-03-15 11:22:38:426,0,-6.41728,-0.684846,56.733,Q,Q
2023-03-15 11:22:38:436,0,-6.41594,-0.681514,56.7414,Q,Q
2023-03-15 11:22:38:445,0,-6.41577,-0.675647,56.751,Q,Q
2023-03-15 11:22:38:455,0,-6.41404,-0.674969,56.7601,Q,Q
2023-03-15 11:22:38:466,0,-6.41712,-0.674596,56.7721,Q,Q
2023-03-15 11:22:38:476,0,-6.41875,-0.675207,56.7794,Q,Q
2023-03-15 11:22:38:486,0,-6.42039,-0.67384,56.7873,Q,Q
2023-03-15 11:22:38:496,0,-6.42801,-0.670791,56.7932,Q,Q
2023-03-15 11:22:38:506,0,-6.43519,-0.66676,56.8006,Q,Q
2023-03-15 11:22:38:516,0,-6.43885,-0.666005,56.808,Q,Q
2023-03-15 11:22:38:526,0,-6.44423,-0.663832,56.8131,Q,Q
2023-03-15 11:22:38:536,0,-6.44904,-0.662225,56.8197,Q,Q
2023-03-15 11:22:38:546,0,-6.45271,-0.657313,56.8209,Q,Q
2023-03-15 11:22:38:556,0,-6.46182,-0.655445,56.8248,Q,Q
2023-03-15 11:22:38:566,0,-6.4708,-0.653068,56.8287,Q,Q
2023-03-15 11:22:38:576,0,-6.47825,-0.65177,56.8368,Q,Q
2023-03-15 11:22:38:586,0,-6.48685,-0.647996,56.8434,Q,Q
2023-03-15 11:22:38:596,0,-6.49542,-0.645869,56.8494,Q,Q
2023-03-15 11:22:38:606,0,-6.50236,-0.641542,56.8578,Q,Q
2023-03-15 11:22:38:616,0,-6.50423,-0.63755,56.8637,Q,Q
2023-03-15 11:22:38:625,0,-6.50817,-0.63453,56.867,Q,Q
2023-03-15 11:22:38:635,0,-6.51188,-0.634413,56.8686,Q,Q
2023-03-15 11:22:38:645,0,-6.51257,-0.631961,56.8688,Q,Q
2023-03-15 11:22:38:655,0,-6.51299,-0.633839,56.8723,Q,Q
2023-03-15 11:22:38:665,0,-6.51665,-0.639132,56.8761,Q,Q
2023-03-15 11:22:38:675,0,-6.52573,-0.647531,56.8804,Q,Q
2023-03-15 11:22:38:685,0,-6.53377,-0.655595,56.8845,Q,Q
2023-03-15 11:22:38:695,0,-6.54552,-0.663435,56.8836,Q,Q
2023-03-15 11:22:38:705,0,-6.55668,-0.676314,56.8748,Q,Q
2023-03-15 11:22:38:715,0,-6.56729,-0.702007,56.866,Q,Q
2023-03-15 11:22:38:725,0,-6.58509,-0.716877,56.8597,Q,Q
2023-03-15 11:22:38:735,0,-6.59819,-0.721124,56.8526,Q,Q
2023-03-15 11:22:38:746,0,-6.60006,-0.715948,56.8519,Q,Q
2023-03-15 11:22:38:756,0,-6.59614,-0.709702,56.8557,Q,Q
2023-03-15 11:22:38:766,0,-6.58945,-0.704872,56.86,Q,Q
2023-03-15 11:22:38:775,0,-6.58871,-0.702359,56.8618,Q,Q
2023-03-15 11:22:38:785,0,-6.58891,-0.702447,56.8664,Q,Q
2023-03-15 11:22:38:796,0,-6.59192,-0.696993,56.8694,Q,Q
2023-03-15 11:22:38:806,0,-6.58631,-0.694169,56.8716,Q,Q
2023-03-15 11:22:38:816,0,-6.57899,-0.690844,56.8768,Q,Q
2023-03-15 11:22:38:825,0,-6.57585,-0.689766,56.8801,Q,Q
2023-03-15 11:22:38:836,0,-6.57197,-0.689463,56.8813,Q,Q
2023-03-15 11:22:38:845,0,-6.57458,-0.690315,56.8825,Q,Q
2023-03-15 11:22:38:856,0,-6.57884,-0.688154,56.8798,Q,Q
2023-03-15 11:22:38:866,0,-6.58284,-0.686621,56.875,Q,Q
2023-03-15 11:22:38:876,0,-6.58701,-0.687865,56.8675,Q,Q
2023-03-15 11:22:38:886,0,-6.59574,-0.686806,56.8606,Q,Q
2023-03-15 11:22:38:895,0,-6.60569,-0.687857,56.8525,Q,Q
2023-03-15 11:22:38:906,0,-6.61282,-0.698489,56.8413,Q,Q
2023-03-15 11:22:38:915,0,-6.62199,-0.709068,56.8353,Q,Q
2023-03-15 11:22:38:926,0,-6.63,-0.712756,56.8257,Q,Q
2023-03-15 11:22:38:936,0,-6.63296,-0.714219,56.8191,Q,Q
2023-03-15 11:22:38:946,0,-6.62841,-0.719636,56.8149,Q,Q
2023-03-15 11:22:38:956,0,-6.62594,-0.730824,56.8134,Q,Q
2023-03-15 11:22:38:965,0,-6.62923,-0.737024,56.8092,Q,Q
2023-03-15 11:22:38:976,0,-6.62973,-0.741926,56.8069,Q,Q
2023-03-15 11:22:38:986,0,-6.62605,-0.744159,56.8082,Q,Q
2023-03-15 11:22:38:995,0,-6.62043,-0.750891,56.8122,Q,Q
2023-03-15 11:22:39:6,0,-6.61413,-0.753641,56.8167,Q,Q
2023-03-15 11:22:39:16,0,-6.60909,-0.75725,56.8224,Q,Q
2023-03-15 11:22:39:26,0,-6.6048,-0.760217,56.826,Q,Q
2023-03-15 11:22:39:35,0,-6.60268,-0.764057,56.831,Q,Q
2023-03-15 11:22:39:46,0,-6.59878,-0.765326,56.8324,Q,Q
2023-03-15 11:22:39:55,0,-6.596,-0.770917,56.8318,Q,Q
2023-03-15 11:22:39:65,0,-6.59598,-0.774261,56.8299,Q,Q
2023-03-15 11:22:39:76,0,-6.59837,-0.778877,56.8232,Q,Q
2023-03-15 11:22:39:86,0,-6.60283,-0.787665,56.818,Q,Q
2023-03-15 11:22:39:96,0,-6.60925,-0.795958,56.8074,Q,Q
2023-03-15 11:22:39:105,0,-6.61361,-0.805794,56.7891,Q,Q
2023-03-15 11:22:39:115,0,-6.61949,-0.817069,56.7677,Q,Q
2023-03-15 11:22:39:126,0,-6.62605,-0.826412,56.7406,Q,Q
2023-03-15 11:22:39:136,0,-6.63518,-0.836416,56.7035,Q,Q
2023-03-15 11:22:39:146,0,-6.64703,-0.853827,56.6492,Q,Q
2023-03-15 11:22:39:156,0,-6.65508,-0.877383,56.5776,Q,Q
2023-03-15 11:22:39:165,0,-6.6527,-0.908905,56.4745,Q,Q
2023-03-15 11:22:39:175,0,-6.64133,-0.952194,56.3375,Q,Q
2023-03-15 11:22:39:186,0,-6.61123,-1.02077,56.1659,Q,Q
2023-03-15 11:22:39:196,0,-6.56721,-1.11303,55.9528,Q,Q
2023-03-15 11:22:39:205,0,-6.51312,-1.23521,55.6897,Q,Q
2023-03-15 11:22:39:215,0,-6.45629,-1.37824,55.3648,Q,Q
2023-03-15 11:22:39:225,0,-6.39848,-1.54526,54.9723,Q,Q
2023-03-15 11:22:39:236,0,-6.33074,-1.74003,54.4954,Q,Q
2023-03-15 11:22:39:245,0,-6.24433,-1.96295,53.9287,Q,Q
2023-03-15 11:22:39:255,0,-6.13416,-2.21642,53.2636,Q,Q
2023-03-15 11:22:39:265,0,-5.99534,-2.49126,52.4987,Q,Q
2023-03-15 11:22:39:275,0,-5.82869,-2.7848,51.639,Q,Q
2023-03-15 11:22:39:285,0,-5.64189,-3.10384,50.7003,Q,Q
2023-03-15 11:22:39:295,0,-5.44281,-3.445,49.6893,Q,Q
2023-03-15 11:22:39:305,0,-5.23922,-3.79349,48.6133,Q,Q
2023-03-15 11:22:39:315,0,-5.02766,-4.15627,47.471,Q,Q
2023-03-15 11:22:39:325,0,-4.79589,-4.5391,46.2693,Q,Q
2023-03-15 11:22:39:335,0,-4.5414,-4.92475,45.0177,Q,Q
2023-03-15 11:22:39:345,0,-4.25589,-5.30506,43.7335,Q,Q
2023-03-15 11:22:39:355,0,-3.93897,-5.67411,42.4314,Q,Q
2023-03-15 11:22:39:365,0,-3.60601,-6.04113,41.1173,Q,Q
2023-03-15 11:22:39:375,0,-3.26103,-6.39536,39.7985,Q,Q
2023-03-15 11:22:39:385,0,-2.91551,-6.73894,38.4761,Q,Q
2023-03-15 11:22:39:395,0,-2.57912,-7.0704,37.1619,Q,Q
2023-03-15 11:22:39:405,0,-2.24781,-7.38694,35.8597,Q,Q
2023-03-15 11:22:39:415,0,-1.91865,-7.6942,34.5832,Q,Q
2023-03-15 11:22:39:425,0,-1.58298,-7.98161,33.3449,Q,Q
2023-03-15 11:22:39:435,0,-1.2478,-8.26168,32.1612,Q,Q
2023-03-15 11:22:39:445,0,-0.905579,-8.52646,31.0397,Q,Q
2023-03-15 11:22:39:455,0,-0.572643,-8.77546,29.9763,Q,Q
2023-03-15 11:22:39:465,0,-0.251114,-9.00311,28.9707,Q,Q
2023-03-15 11:22:39:475,0,0.0485888,-9.20679,28.0191,Q,Q
2023-03-15 11:22:39:485,0,0.333806,-9.38521,27.1207,Q,Q
2023-03-15 11:22:39:495,0,0.606496,-9.53832,26.2796,Q,Q
2023-03-15 11:22:39:505,0,0.877652,-9.66854,25.4923,Q,Q
2023-03-15 11:22:39:515,0,1.14329,-9.77379,24.7649,Q,Q
2023-03-15 11:22:39:525,0,1.41087,-9.86003,24.1025,Q,Q
2023-03-15 11:22:39:535,0,1.67442,-9.93066,23.5,Q,Q
2023-03-15 11:22:39:545,0,1.93006,-9.97888,22.9578,Q,Q
2023-03-15 11:22:39:555,0,2.17058,-10.0121,22.4727,Q,Q
2023-03-15 11:22:39:565,0,2.40019,-10.0214,22.0367,Q,Q
2023-03-15 11:22:39:575,0,2.61187,-10.015,21.6472,Q,Q
2023-03-15 11:22:39:585,0,2.81466,-9.99706,21.301,Q,Q
2023-03-15 11:22:39:595,0,3.0048,-9.97368,20.9986,Q,Q
2023-03-15 11:22:39:605,0,3.18885,-9.94363,20.7381,Q,Q
2023-03-15 11:22:39:615,0,3.36161,-9.90548,20.5174,Q,Q
2023-03-15 11:22:39:625,0,3.525,-9.87023,20.3309,Q,Q
2023-03-15 11:22:39:635,0,3.67595,-9.83493,20.1759,Q,Q
2023-03-15 11:22:39:645,0,3.81221,-9.79592,20.0433,Q,Q
2023-03-15 11:22:39:655,0,3.93496,-9.75209,19.9312,Q,Q
2023-03-15 11:22:39:665,0,4.04345,-9.71117,19.8424,Q,Q
2023-03-15 11:22:39:675,0,4.1493,-9.66529,19.7674,Q,Q
2023-03-15 11:22:39:685,0,4.24329,-9.61708,19.7091,Q,Q
2023-03-15 11:22:39:695,0,4.32867,-9.5679,19.6594,Q,Q
2023-03-15 11:22:39:705,0,4.40617,-9.51955,19.6193,Q,Q
2023-03-15 11:22:39:715,0,4.47414,-9.47096,19.5857,Q,Q
2023-03-15 11:22:39:725,0,4.53057,-9.42231,19.561,Q,Q
2023-03-15 11:22:39:735,0,4.5841,-9.37595,19.5368,Q,Q
2023-03-15 11:22:39:745,0,4.63349,-9.33464,19.5153,Q,Q
2023-03-15 11:22:39:755,0,4.68062,-9.29035,19.496,Q,Q
2023-03-15 11:22:39:765,0,4.72833,-9.25375,19.4751,Q,Q
2023-03-15 11:22:39:775,0,4.77162,-9.21678,19.4553,Q,Q
2023-03-15 11:22:39:785,0,4.80908,-9.18382,19.4348,Q,Q
2023-03-15 11:22:39:795,0,4.8386,-9.15699,19.4082,Q,Q
2023-03-15 11:22:39:805,0,4.86515,-9.12559,19.3807,Q,Q
2023-03-15 11:22:39:815,0,4.88551,-9.0918,19.3524,Q,Q
2023-03-15 11:22:39:825,0,4.90796,-9.04979,19.3201,Q,Q
2023-03-15 11:22:39:835,0,4.9313,-9.00625,19.2794,Q,Q
2023-03-15 11:22:39:845,0,4.95205,-8.95815,19.2369,Q,Q
2023-03-15 11:22:39:855,0,4.9698,-8.91153,19.1926,Q,Q
2023-03-15 11:22:39:865,0,4.98721,-8.8715,19.1484,Q,Q
2023-03-15 11:22:39:875,0,5.00336,-8.83714,19.1052,Q,Q
2023-03-15 11:22:39:885,0,5.02186,-8.8093,19.0584,Q,Q
2023-03-15 11:22:39:895,0,5.03693,-8.77298,19.0144,Q,Q
2023-03-15 11:22:39:905,0,5.04818,-8.73358,18.9674,Q,Q
2023-03-15 11:22:39:915,0,5.06229,-8.68543,18.9177,Q,Q
2023-03-15 11:22:39:925,0,5.07645,-8.63501,18.8708,Q,Q
2023-03-15 11:22:39:935,0,5.09084,-8.57686,18.8199,Q,Q
2023-03-15 11:22:39:945,0,5.10146,-8.52181,18.768,Q,Q
2023-03-15 11:22:39:955,0,5.11307,-8.46534,18.7175,Q,Q
2023-03-15 11:22:39:965,0,5.12199,-8.41146,18.6715,Q,Q
2023-03-15 11:22:39:975,0,5.13184,-8.35883,18.6245,Q,Q
2023-03-15 11:22:39:985,0,5.13846,-8.3107,18.5849,Q,Q
2023-03-15 11:22:39:995,0,5.14564,-8.26227,18.5437,Q,Q
2023-03-15 11:22:40:5,0,5.15167,-8.2097,18.507,Q,Q
2023-03-15 11:22:40:15,0,5.16268,-8.15851,18.4746,Q,Q
2023-03-15 11:22:40:25,0,5.17037,-8.10927,18.4446,Q,Q
2023-03-15 11:22:40:35,0,5.17527,-8.05767,18.4183,Q,Q
2023-03-15 11:22:40:45,0,5.1752,-8.01348,18.3933,Q,Q
2023-03-15 11:22:40:55,0,5.16874,-7.96859,18.3728,Q,Q
2023-03-15 11:22:40:65,0,5.16174,-7.92725,18.3544,Q,Q
2023-03-15 11:22:40:75,0,5.14418,-7.885,18.3386,Q,Q
2023-03-15 11:22:40:85,0,5.12762,-7.84486,18.3302,Q,Q
2023-03-15 11:22:40:95,0,5.10567,-7.80859,18.3242,Q,Q
2023-03-15 11:22:40:105,0,5.08404,-7.77607,18.3168,Q,Q
2023-03-15 11:22:40:115,0,5.05864,-7.74355,18.3171,Q,Q
2023-03-15 11:22:40:125,0,5.02711,-7.70814,18.319,Q,Q
2023-03-15 11:22:40:135,0,4.99576,-7.67677,18.3264,Q,Q
2023-03-15 11:22:40:145,0,4.96244,-7.64578,18.3331,Q,Q
2023-03-15 11:22:40:155,0,4.92675,-7.62099,18.343,Q,Q
2023-03-15 11:22:40:165,0,4.88722,-7.59813,18.357,Q,Q
2023-03-15 11:22:40:175,0,4.84649,-7.57426,18.3741,Q,Q
2023-03-15 11:22:40:185,0,4.80311,-7.55347,18.3902,Q,Q
2023-03-15 11:22:40:195,0,4.7596,-7.53074,18.408,Q,Q
2023-03-15 11:22:40:205,0,4.71663,-7.50894,18.4292,Q,Q
2023-03-15 11:22:40:215,0,4.68003,-7.48818,18.4447,Q,Q
2023-03-15 11:22:40:225,0,4.64098,-7.46752,18.4636,Q,Q
2023-03-15 11:22:40:235,0,4.60266,-7.44577,18.4837,Q,Q
2023-03-15 11:22:40:245,0,4.56337,-7.4272,18.5082,Q,Q
2023-03-15 11:22:40:255,0,4.52358,-7.41039,18.5329,Q,Q
2023-03-15 11:22:40:265,0,4.48653,-7.39762,18.5572,Q,Q
2023-03-15 11:22:40:275,0,4.44865,-7.3813,18.5804,Q,Q
2023-03-15 11:22:40:284,0,4.40996,-7.36174,18.6037,Q,Q
2023-03-15 11:22:40:294,0,4.3754,-7.33973,18.6295,Q,Q
2023-03-15 11:22:40:305,0,4.34079,-7.31616,18.6534,Q,Q
2023-03-15 11:22:40:315,0,4.30348,-7.29681,18.6777,Q,Q
2023-03-15 11:22:40:325,0,4.26815,-7.27572,18.6986,Q,Q
2023-03-15 11:22:40:335,0,4.23617,-7.25751,18.7197,Q,Q
2023-03-15 11:22:40:345,0,4.20813,-7.24193,18.7378,Q,Q
2023-03-15 11:22:40:355,0,4.17945,-7.23426,18.7555,Q,Q
2023-03-15 11:22:40:365,0,4.1489,-7.23034,18.7792,Q,Q
2023-03-15 11:22:40:374,0,4.11287,-7.21995,18.8011,Q,Q
2023-03-15 11:22:40:385,0,4.08315,-7.21051,18.822,Q,Q
2023-03-15 11:22:40:395,0,4.05389,-7.1968,18.8463,Q,Q
2023-03-15 11:22:40:405,0,4.02948,-7.18819,18.87,Q,Q
2023-03-15 11:22:40:415,0,4.00036,-7.1836,18.8934,Q,Q
2023-03-15 11:22:40:425,0,3.96795,-7.17573,18.9148,Q,Q
2023-03-15 11:22:40:435,0,3.93531,-7.17304,18.9347,Q,Q
2023-03-15 11:22:40:445,0,3.90376,-7.16628,18.9557,Q,Q
2023-03-15 11:22:40:455,0,3.88252,-7.16053,18.9805,Q,Q
2023-03-15 11:22:40:465,0,3.86456,-7.15524,19.0137,Q,Q
2023-03-15 11:22:40:475,0,3.84593,-7.14893,19.046,Q,Q
2023-03-15 11:22:40:485,0,3.82704,-7.15016,19.082,Q,Q
2023-03-15 11:22:40:495,0,3.80679,-7.1571,19.1195,Q,Q
2023-03-15 11:22:40:505,0,3.785,-7.15885,19.1529,Q,Q
2023-03-15 11:22:40:515,0,3.76418,-7.15818,19.1878,Q,Q
2023-03-15 11:22:40:525,0,3.74964,-7.15793,19.22,Q,Q
2023-03-15 11:22:40:535,0,3.73532,-7.15733,19.249,Q,Q
2023-03-15 11:22:40:545,0,3.72085,-7.1535,19.2787,Q,Q
2023-03-15 11:22:40:555,0,3.70709,-7.15335,19.3054,Q,Q
2023-03-15 11:22:40:565,0,3.69191,-7.15106,19.3315,Q,Q
2023-03-15 11:22:40:575,0,3.68016,-7.15009,19.3558,Q,Q
2023-03-15 11:22:40:585,0,3.6668,-7.14891,19.3786,Q,Q
2023-03-15 11:22:40:595,0,3.65898,-7.14774,19.3994,Q,Q
2023-03-15 11:22:40:605,0,3.65031,-7.14571,19.4196,Q,Q
2023-03-15 11:22:40:615,0,3.64048,-7.15059,19.4382,Q,Q
2023-03-15 11:22:40:625,0,3.63381,-7.14908,19.454,Q,Q
2023-03-15 11:22:40:635,0,3.63009,-7.1514,19.4708,Q,Q
2023-03-15 11:22:40:645,0,3.62395,-7.15012,19.4873,Q,Q
2023-03-15 11:22:40:655,0,3.61587,-7.14913,19.5042,Q,Q
2023-03-15 11:22:40:665,0,3.61224,-7.14944,19.5164,Q,Q
2023-03-15 11:22:40:675,0,3.60219,-7.14912,19.5311,Q,Q
2023-03-15 11:22:40:685,0,3.59014,-7.14478,19.5416,Q,Q
2023-03-15 11:22:40:695,0,3.57847,-7.14631,19.5475,Q,Q
2023-03-15 11:22:40:705,0,3.5697,-7.142,19.5522,Q,Q
2023-03-15 11:22:40:715,0,3.56371,-7.14076,19.5557,Q,Q
2023-03-15 11:22:40:725,0,3.55664,-7.1442,19.5559,Q,Q
2023-03-15 11:22:40:735,0,3.55362,-7.14432,19.5531,Q,Q
2023-03-15 11:22:40:745,0,3.5524,-7.1419,19.5525,Q,Q
2023-03-15 11:22:40:755,0,3.55546,-7.14611,19.5532,Q,Q
2023-03-15 11:22:40:765,0,3.55713,-7.15158,19.5496,Q,Q
2023-03-15 11:22:40:775,0,3.5628,-7.15526,19.5406,Q,Q
2023-03-15 11:22:40:785,0,3.57279,-7.15624,19.5282,Q,Q
2023-03-15 11:22:40:795,0,3.5803,-7.16015,19.5163,Q,Q
2023-03-15 11:22:40:805,0,3.59161,-7.16112,19.5053,Q,Q
2023-03-15 11:22:40:815,0,3.6063,-7.1596,19.4954,Q,Q
2023-03-15 11:22:40:825,0,3.61677,-7.16537,19.485,Q,Q
2023-03-15 11:22:40:835,0,3.62939,-7.17096,19.4716,Q,Q
2023-03-15 11:22:40:845,0,3.63955,-7.17511,19.4551,Q,Q
2023-03-15 11:22:40:855,0,3.65432,-7.18389,19.4398,Q,Q
2023-03-15 11:22:40:865,0,3.66726,-7.19015,19.4176,Q,Q
2023-03-15 11:22:40:875,0,3.68269,-7.19424,19.3961,Q,Q
2023-03-15 11:22:40:884,0,3.69892,-7.19431,19.3751,Q,Q
2023-03-15 11:22:40:895,0,3.72047,-7.19319,19.3477,Q,Q
2023-03-15 11:22:40:904,0,3.74692,-7.1969,19.3243,Q,Q
2023-03-15 11:22:40:915,0,3.76592,-7.20227,19.2962,Q,Q
2023-03-15 11:22:40:925,0,3.78437,-7.20971,19.2714,Q,Q
2023-03-15 11:22:40:935,0,3.7953,-7.21961,19.2451,Q,Q
2023-03-15 11:22:40:945,0,3.81312,-7.23309,19.2184,Q,Q
2023-03-15 11:22:40:955,0,3.82878,-7.24617,19.1972,Q,Q
2023-03-15 11:22:40:965,0,3.8439,-7.24705,19.1822,Q,Q
2023-03-15 11:22:40:974,0,3.86098,-7.24279,19.1682,Q,Q
2023-03-15 11:22:40:985,0,3.87979,-7.24899,19.1529,Q,Q
2023-03-15 11:22:40:995,0,3.89272,-7.2597,19.1388,Q,Q
2023-03-15 11:22:41:5,0,3.90519,-7.27721,19.127,Q,Q
2023-03-15 11:22:41:15,0,3.91817,-7.29356,19.1184,Q,Q
2023-03-15 11:22:41:25,0,3.93346,-7.30491,19.1089,Q,Q
2023-03-15 11:22:41:35,0,3.94862,-7.31914,19.1007,Q,Q
2023-03-15 11:22:41:44,0,3.96399,-7.32843,19.0972,Q,Q
2023-03-15 11:22:41:54,0,3.97723,-7.32746,19.0995,Q,Q
2023-03-15 11:22:41:64,0,3.99867,-7.3234,19.0958,Q,Q
2023-03-15 11:22:41:75,0,4.02031,-7.33205,19.0899,Q,Q
2023-03-15 11:22:41:84,0,4.03625,-7.34948,19.0839,Q,Q
2023-03-15 11:22:41:95,0,4.04961,-7.36441,19.0768,Q,Q
2023-03-15 11:22:41:104,0,4.06772,-7.37474,19.072,Q,Q
2023-03-15 11:22:41:115,0,4.09377,-7.38671,19.0681,Q,Q
2023-03-15 11:22:41:124,0,4.12577,-7.39717,19.0655,Q,Q
2023-03-15 11:22:41:134,0,4.16251,-7.39178,19.0659,Q,Q
2023-03-15 11:22:41:144,0,4.20484,-7.38717,19.0661,Q,Q
2023-03-15 11:22:41:155,0,4.24782,-7.39153,19.0668,Q,Q
2023-03-15 11:22:41:164,0,4.28073,-7.40426,19.0651,Q,Q
2023-03-15 11:22:41:174,0,4.30567,-7.42622,19.0654,Q,Q
2023-03-15 11:22:41:184,0,4.3328,-7.44213,19.0655,Q,Q
2023-03-15 11:22:41:194,0,4.35699,-7.46078,19.0637,Q,Q
2023-03-15 11:22:41:204,0,4.38333,-7.48025,19.0671,Q,Q
2023-03-15 11:22:41:214,0,4.40883,-7.48898,19.0752,Q,Q
2023-03-15 11:22:41:224,0,4.4364,-7.49431,19.0846,Q,Q
2023-03-15 11:22:41:234,0,4.46171,-7.50909,19.0924,Q,Q
2023-03-15 11:22:41:244,0,4.48795,-7.53002,19.0964,Q,Q
2023-03-15 11:22:41:254,0,4.50101,-7.55469,19.1028,Q,Q
2023-03-15 11:22:41:264,0,4.51695,-7.57858,19.1129,Q,Q
2023-03-15 11:22:41:274,0,4.53717,-7.60241,19.1205,Q,Q
2023-03-15 11:22:41:284,0,4.56042,-7.62496,19.1309,Q,Q
2023-03-15 11:22:41:294,0,4.5795,-7.65119,19.1427,Q,Q
2023-03-15 11:22:41:304,0,4.59144,-7.67522,19.1488,Q,Q
2023-03-15 11:22:41:314,0,4.60003,-7.6916,19.1544,Q,Q
2023-03-15 11:22:41:324,0,4.6155,-7.70688,19.1615,Q,Q
2023-03-15 11:22:41:334,0,4.62481,-7.72216,19.1681,Q,Q
2023-03-15 11:22:41:344,0,4.64275,-7.7372,19.1745,Q,Q
2023-03-15 11:22:41:354,0,4.6572,-7.75162,19.1839,Q,Q
2023-03-15 11:22:41:364,0,4.66708,-7.76952,19.1945,Q,Q
2023-03-15 11:22:41:374,0,4.67922,-7.78665,19.2021,Q,Q
2023-03-15 11:22:41:384,0,4.68707,-7.79882,19.2076,Q,Q
2023-03-15 11:22:41:394,0,4.69486,-7.80659,19.2118,Q,Q
2023-03-15 11:22:41:404,0,4.69835,-7.81381,19.2103,Q,Q
2023-03-15 11:22:41:414,0,4.70446,-7.81749,19.2104,Q,Q
2023-03-15 11:22:41:424,0,4.71064,-7.82097,19.206,Q,Q
2023-03-15 11:22:41:434,0,4.71364,-7.82265,19.2032,Q,Q
2023-03-15 11:22:41:444,0,4.71443,-7.81939,19.2019,Q,Q
2023-03-15 11:22:41:454,0,4.71601,-7.81604,19.197,Q,Q
2023-03-15 11:22:41:464,0,4.71708,-7.81269,19.1881,Q,Q
2023-03-15 11:22:41:474,0,4.72273,-7.80687,19.1824,Q,Q
2023-03-15 11:22:41:484,0,4.72604,-7.80254,19.1791,Q,Q
2023-03-15 11:22:41:494,0,4.7297,-7.79527,19.1719,Q,Q
2023-03-15 11:22:41:504,0,4.727,-7.78888,19.1646,Q,Q
2023-03-15 11:22:41:514,0,4.72218,-7.78301,19.1557,Q,Q
2023-03-15 11:22:41:524,0,4.72172,-7.77801,19.1501,Q,Q
2023-03-15 11:22:41:534,0,4.71829,-7.77276,19.1439,Q,Q
2023-03-15 11:22:41:544,0,4.71152,-7.76884,19.1393,Q,Q
2023-03-15 11:22:41:554,0,4.69842,-7.76276,19.1367,Q,Q
2023-03-15 11:22:41:564,0,4.6872,-7.75937,19.134,Q,Q
2023-03-15 11:22:41:574,0,4.6739,-7.75498,19.132,Q,Q
2023-03-15 11:22:41:584,0,4.66315,-7.75027,19.1279,Q,Q
2023-03-15 11:22:41:594,0,4.65355,-7.74904,19.1237,Q,Q
2023-03-15 11:22:41:604,0,4.64241,-7.74805,19.1212,Q,Q
2023-03-15 11:22:41:614,0,4.6335,-7.74948,19.1222,Q,Q
2023-03-15 11:22:41:624,0,4.62633,-7.75027,19.1247,Q,Q
2023-03-15 11:22:41:634,0,4.62334,-7.75055,19.1273,Q,Q
2023-03-15 11:22:41:644,0,4.62457,-7.75065,19.1253,Q,Q
2023-03-15 11:22:41:654,0,4.62614,-7.74995,19.1253,Q,Q
2023-03-15 11:22:41:664,0,4.62452,-7.74345,19.1235,Q,Q
2023-03-15 11:22:41:674,0,4.62473,-7.73641,19.1219,Q,Q
2023-03-15 11:22:41:684,0,4.62286,-7.72755,19.1208,Q,Q
2023-03-15 11:22:41:694,0,4.62567,-7.71964,19.1165,Q,Q
2023-03-15 11:22:41:704,0,4.62415,-7.71362,19.1136,Q,Q
2023-03-15 11:22:41:714,0,4.62384,-7.70514,19.1084,Q,Q
2023-03-15 11:22:41:724,0,4.6244,-7.70006,19.101,Q,Q
2023-03-15 11:22:41:734,0,4.61626,-7.69427,19.0965,Q,Q
2023-03-15 11:22:41:744,0,4.61436,-7.68936,19.0831,Q,Q
2023-03-15 11:22:41:754,0,4.61029,-7.68482,19.072,Q,Q
2023-03-15 11:22:41:764,0,4.61168,-7.68379,19.0657,Q,Q
2023-03-15 11:22:41:774,0,4.6113,-7.68035,19.0564,Q,Q
2023-03-15 11:22:41:784,0,4.60751,-7.67628,19.0469,Q,Q
2023-03-15 11:22:41:794,0,4.60136,-7.67356,19.0363,Q,Q
2023-03-15 11:22:41:804,0,4.59402,-7.66683,19.0281,Q,Q
2023-03-15 11:22:41:814,0,4.5815,-7.66512,19.0213,Q,Q
2023-03-15 11:22:41:824,0,4.56588,-7.6618,19.0132,Q,Q
2023-03-15 11:22:41:834,0,4.55512,-7.65686,19.0027,Q,Q
2023-03-15 11:22:41:844,0,4.54377,-7.65205,18.9932,Q,Q
2023-03-15 11:22:41:854,0,4.53232,-7.64316,18.9812,Q,Q
2023-03-15 11:22:41:864,0,4.52209,-7.63559,18.9706,Q,Q
2023-03-15 11:22:41:874,0,4.51152,-7.62566,18.9578,Q,Q
2023-03-15 11:22:41:884,0,4.5019,-7.61419,18.9471,Q,Q
2023-03-15 11:22:41:894,0,4.48994,-7.60672,18.9352,Q,Q
2023-03-15 11:22:41:904,0,4.47936,-7.59855,18.9223,Q,Q
2023-03-15 11:22:41:914,0,4.46616,-7.592,18.91,Q,Q
2023-03-15 11:22:41:924,0,4.45453,-7.58564,18.8982,Q,Q
2023-03-15 11:22:41:934,0,4.44598,-7.58225,18.8797,Q,Q
2023-03-15 11:22:41:944,0,4.44251,-7.57629,18.8616,Q,Q
2023-03-15 11:22:41:954,0,4.43647,-7.57345,18.8448,Q,Q
2023-03-15 11:22:41:964,0,4.43248,-7.56778,18.8255,Q,Q
2023-03-15 11:22:41:974,0,4.42704,-7.56516,18.8055,Q,Q
2023-03-15 11:22:41:984,0,4.42076,-7.55903,18.7912,Q,Q
2023-03-15 11:22:41:994,0,4.41884,-7.55329,18.7755,Q,Q
2023-03-15 11:22:42:4,0,4.4163,-7.54894,18.7625,Q,Q
2023-03-15 11:22:42:14,0,4.41419,-7.54669,18.7455,Q,Q
2023-03-15 11:22:42:24,0,4.4125,-7.53924,18.7291,Q,Q
2023-03-15 11:22:42:34,0,4.40791,-7.53346,18.7176,Q,Q
2023-03-15 11:22:42:44,0,4.40383,-7.52911,18.7057,Q,Q
2023-03-15 11:22:42:54,0,4.40327,-7.52374,18.6998,Q,Q
2023-03-15 11:22:42:64,0,4.40177,-7.52121,18.6937,Q,Q
2023-03-15 11:22:42:74,0,4.39878,-7.51647,18.69,Q,Q
2023-03-15 11:22:42:84,0,4.39303,-7.51151,18.685,Q,Q
2023-03-15 11:22:42:94,0,4.38946,-7.50609,18.6815,Q,Q
2023-03-15 11:22:42:104,0,4.38498,-7.50313,18.678,Q,Q
2023-03-15 11:22:42:114,0,4.37452,-7.50057,18.6756,Q,Q
2023-03-15 11:22:42:124,0,4.36474,-7.49828,18.6741,Q,Q
2023-03-15 11:22:42:134,0,4.35417,-7.49491,18.6709,Q,Q
2023-03-15 11:22:42:144,0,4.34518,-7.49691,18.666,Q,Q
2023-03-15 11:22:42:154,0,4.33886,-7.49303,18.663,Q,Q
2023-03-15 11:22:42:164,0,4.3349,-7.49025,18.6644,Q,Q
2023-03-15 11:22:42:174,0,4.32617,-7.48605,18.6623,Q,Q
2023-03-15 11:22:42:184,0,4.31395,-7.47986,18.6591,Q,Q
2023-03-15 11:22:42:194,0,4.30226,-7.47182,18.6541,Q,Q
2023-03-15 11:22:42:204,0,4.29355,-7.4612,18.6429,Q,Q
2023-03-15 11:22:42:214,0,4.28694,-7.45436,18.636,Q,Q
2023-03-15 11:22:42:224,0,4.27965,-7.45155,18.6284,Q,Q
2023-03-15 11:22:42:234,0,4.27235,-7.45224,18.624,Q,Q
2023-03-15 11:22:42:244,0,4.26642,-7.45324,18.6215,Q,Q
2023-03-15 11:22:42:254,0,4.25665,-7.45632,18.6235,Q,Q
2023-03-15 11:22:42:264,0,4.24961,-7.45418,18.6169,Q,Q
2023-03-15 11:22:42:274,0,4.24334,-7.45206,18.6122,Q,Q
2023-03-15 11:22:42:284,0,4.23677,-7.44564,18.6037,Q,Q
2023-03-15 11:22:42:294,0,4.2297,-7.43828,18.5919,Q,Q
2023-03-15 11:22:42:304,0,4.22196,-7.42711,18.5835,Q,Q
2023-03-15 11:22:42:314,0,4.21428,-7.41545,18.5751,Q,Q
2023-03-15 11:22:42:324,0,4.20277,-7.40311,18.5701,Q,Q
2023-03-15 11:22:42:334,0,4.1917,-7.39282,18.5612,Q,Q
2023-03-15 11:22:42:344,0,4.18401,-7.38107,18.5501,Q,Q
2023-03-15 11:22:42:354,0,4.17185,-7.37037,18.543,Q,Q
2023-03-15 11:22:42:364,0,4.16008,-7.35513,18.5345,Q,Q
2023-03-15 11:22:42:374,0,4.14727,-7.34337,18.5296,Q,Q
2023-03-15 11:22:42:384,0,4.13454,-7.33169,18.5203,Q,Q
2023-03-15 11:22:42:394,0,4.12515,-7.32106,18.5126,Q,Q
2023-03-15 11:22:42:404,0,4.11284,-7.30904,18.5074,Q,Q
2023-03-15 11:22:42:414,0,4.09863,-7.29857,18.4995,Q,Q
2023-03-15 11:22:42:423,0,4.08526,-7.29107,18.4965,Q,Q
2023-03-15 11:22:42:434,0,4.06884,-7.28488,18.495,Q,Q
2023-03-15 11:22:42:444,0,4.04908,-7.2754,18.4964,Q,Q
2023-03-15 11:22:42:454,0,4.03216,-7.27086,18.4915,Q,Q
2023-03-15 11:22:42:464,0,4.01792,-7.26184,18.4849,Q,Q
2023-03-15 11:22:42:474,0,4.00285,-7.25465,18.4772,Q,Q
2023-03-15 11:22:42:484,0,3.98824,-7.24984,18.4731,Q,Q
2023-03-15 11:22:42:494,0,3.98063,-7.24816,18.4706,Q,Q
2023-03-15 11:22:42:504,0,3.97042,-7.24443,18.4704,Q,Q
2023-03-15 11:22:42:514,0,3.96835,-7.24465,18.4707,Q,Q
2023-03-15 11:22:42:524,0,3.96875,-7.24316,18.4661,Q,Q
2023-03-15 11:22:42:534,0,3.96833,-7.23985,18.4603,Q,Q
2023-03-15 11:22:42:544,0,3.97653,-7.23433,18.4524,Q,Q
2023-03-15 11:22:42:554,0,3.98635,-7.22894,18.4429,Q,Q
2023-03-15 11:22:42:564,0,3.9997,-7.22217,18.4312,Q,Q
2023-03-15 11:22:42:574,0,4.01184,-7.21448,18.4203,Q,Q
2023-03-15 11:22:42:584,0,4.02388,-7.1894,18.4167,Q,Q
2023-03-15 11:22:42:594,0,4.04228,-7.15773,18.414,Q,Q
2023-03-15 11:22:42:604,0,4.06632,-7.14609,18.403,Q,Q
2023-03-15 11:22:42:614,0,4.07539,-7.14423,18.3935,Q,Q
2023-03-15 11:22:42:624,0,4.07501,-7.14515,18.3809,Q,Q
2023-03-15 11:22:42:634,0,4.06835,-7.13877,18.3613,Q,Q
2023-03-15 11:22:42:644,0,4.06923,-7.13049,18.3445,Q,Q
2023-03-15 11:22:42:654,0,4.07139,-7.12357,18.3234,Q,Q
2023-03-15 11:22:42:664,0,4.07403,-7.1137,18.3063,Q,Q
2023-03-15 11:22:42:674,0,4.06734,-7.10688,18.2875,Q,Q
2023-03-15 11:22:42:684,0,4.06511,-7.10262,18.2681,Q,Q
2023-03-15 11:22:42:694,0,4.05807,-7.09357,18.2497,Q,Q
2023-03-15 11:22:42:704,0,4.04772,-7.08566,18.231,Q,Q
2023-03-15 11:22:42:714,0,4.03882,-7.08089,18.2172,Q,Q
2023-03-15 11:22:42:724,0,4.03045,-7.07408,18.2012,Q,Q
2023-03-15 11:22:42:734,0,4.01574,-7.06748,18.1875,Q,Q
2023-03-15 11:22:42:744,0,4.00356,-7.05855,18.17,Q,Q
2023-03-15 11:22:42:754,0,3.99029,-7.04549,18.1512,Q,Q
2023-03-15 11:22:42:764,0,3.97937,-7.03284,18.1358,Q,Q
2023-03-15 11:22:42:774,0,3.96927,-7.01705,18.1189,Q,Q
2023-03-15 11:22:42:784,0,3.96289,-7.0002,18.1023,Q,Q
2023-03-15 11:22:42:794,0,3.95579,-6.9823,18.0851,Q,Q
2023-03-15 11:22:42:804,0,3.95144,-6.96685,18.075,Q,Q
2023-03-15 11:22:42:814,0,3.94904,-6.95467,18.0626,Q,Q
2023-03-15 11:22:42:824,0,3.94851,-6.94285,18.0527,Q,Q
2023-03-15 11:22:42:834,0,3.95197,-6.92058,18.0514,Q,Q
2023-03-15 11:22:42:844,0,3.96321,-6.90282,18.0472,Q,Q
2023-03-15 11:22:42:854,0,3.9709,-6.89945,18.039,Q,Q
2023-03-15 11:22:42:864,0,3.96675,-6.90096,18.0317,Q,Q
2023-03-15 11:22:42:874,0,3.95985,-6.89679,18.0254,Q,Q
2023-03-15 11:22:42:884,0,3.95739,-6.89327,18.0184,Q,Q
2023-03-15 11:22:42:894,0,3.95776,-6.89149,18.0061,Q,Q
2023-03-15 11:22:42:904,0,3.95712,-6.89191,17.992,Q,Q
2023-03-15 11:22:42:914,0,3.96078,-6.88999,17.9782,Q,Q
2023-03-15 11:22:42:924,0,3.96051,-6.88777,17.9685,Q,Q
2023-03-15 11:22:42:934,0,3.95713,-6.8893,17.9586,Q,Q
2023-03-15 11:22:42:944,0,3.95642,-6.89032,17.9503,Q,Q
2023-03-15 11:22:42:954,0,3.9536,-6.8885,17.9429,Q,Q
2023-03-15 11:22:42:964,0,3.94827,-6.89111,17.9399,Q,Q
2023-03-15 11:22:42:974,0,3.94361,-6.89374,17.9327,Q,Q
2023-03-15 11:22:42:984,0,3.94056,-6.89507,17.9274,Q,Q
2023-03-15 11:22:42:994,0,3.9355,-6.8963,17.9264,Q,Q
2023-03-15 11:22:43:4,0,3.9281,-6.89525,17.9243,Q,Q
2023-03-15 11:22:43:14,0,3.92356,-6.89237,17.9236,Q,Q
2023-03-15 11:22:43:24,0,3.91897,-6.89134,17.9201,Q,Q
2023-03-15 11:22:43:34,0,3.90834,-6.89285,17.923,Q,Q
2023-03-15 11:22:43:44,0,3.90282,-6.8933,17.9213,Q,Q
2023-03-15 11:22:43:54,0,3.89452,-6.88991,17.9211,Q,Q
2023-03-15 11:22:43:64,0,3.88559,-6.88533,17.9232,Q,Q
2023-03-15 11:22:43:74,0,3.87314,-6.87923,17.9232,Q,Q
2023-03-15 11:22:43:84,0,3.86407,-6.87043,17.9184,Q,Q
2023-03-15 11:22:43:94,0,3.85829,-6.86268,17.9163,Q,Q
2023-03-15 11:22:43:104,0,3.85156,-6.865,17.916,Q,Q
2023-03-15 11:22:43:114,0,3.84644,-6.87148,17.917,Q,Q
2023-03-15 11:22:43:124,0,3.83878,-6.87972,17.921,Q,Q
2023-03-15 11:22:43:133,0,3.83239,-6.88864,17.9255,Q,Q
2023-03-15 11:22:43:144,0,3.82587,-6.89441,17.9299,Q,Q
2023-03-15 11:22:43:153,0,3.816,-6.89316,17.9297,Q,Q
2023-03-15 11:22:43:164,0,3.80655,-6.89446,17.9244,Q,Q
2023-03-15 11:22:43:174,0,3.79617,-6.89437,17.921,Q,Q
2023-03-15 11:22:43:184,0,3.7843,-6.89205,17.9134,Q,Q
2023-03-15 11:22:43:194,0,3.772,-6.88931,17.9135,Q,Q
2023-03-15 11:22:43:204,0,3.76955,-6.88892,17.909,Q,Q
2023-03-15 11:22:43:214,0,3.76669,-6.89075,17.9136,Q,Q
2023-03-15 11:22:43:224,0,3.76513,-6.89398,17.9185,Q,Q
2023-03-15 11:22:43:234,0,3.76131,-6.89807,17.9218,Q,Q
2023-03-15 11:22:43:243,0,3.75711,-6.89727,17.9275,Q,Q
2023-03-15 11:22:43:254,0,3.75075,-6.89932,17.9364,Q,Q
2023-03-15 11:22:43:264,0,3.74849,-6.89964,17.9458,Q,Q
2023-03-15 11:22:43:274,0,3.74262,-6.8991,17.9513,Q,Q
2023-03-15 11:22:43:284,0,3.73934,-6.90581,17.9594,Q,Q
2023-03-15 11:22:43:293,0,3.73875,-6.90502,17.9675,Q,Q
2023-03-15 11:22:43:304,0,3.73474,-6.90978,17.9758,Q,Q
2023-03-15 11:22:43:314,0,3.73306,-6.91241,17.9882,Q,Q
2023-03-15 11:22:43:324,0,3.73089,-6.91882,17.9982,Q,Q
2023-03-15 11:22:43:334,0,3.72621,-6.92212,18.0092,Q,Q
2023-03-15 11:22:43:343,0,3.72339,-6.9214,18.0187,Q,Q
2023-03-15 11:22:43:353,0,3.71908,-6.92013,18.033,Q,Q
2023-03-15 11:22:43:363,0,3.71269,-6.9249,18.0463,Q,Q
2023-03-15 11:22:43:373,0,3.70336,-6.9315,18.0609,Q,Q
2023-03-15 11:22:43:384,0,3.69544,-6.93839,18.0766,Q,Q
2023-03-15 11:22:43:393,0,3.6929,-6.94415,18.094,Q,Q
2023-03-15 11:22:43:403,0,3.68841,-6.95041,18.1085,Q,Q
2023-03-15 11:22:43:413,0,3.68331,-6.95505,18.1258,Q,Q
2023-03-15 11:22:43:424,0,3.67346,-6.95857,18.1454,Q,Q
2023-03-15 11:22:43:433,0,3.6712,-6.96176,18.1702,Q,Q
2023-03-15 11:22:43:443,0,3.66839,-6.95876,18.1934,Q,Q
2023-03-15 11:22:43:453,0,3.66696,-6.95909,18.2157,Q,Q
2023-03-15 11:22:43:464,0,3.66033,-6.96173,18.2461,Q,Q
2023-03-15 11:22:43:473,0,3.65634,-6.96503,18.2737,Q,Q
2023-03-15 11:22:43:483,0,3.65224,-6.97324,18.3045,Q,Q
2023-03-15 11:22:43:493,0,3.6472,-6.98673,18.3322,Q,Q
2023-03-15 11:22:43:503,0,3.64042,-7.0068,18.3566,Q,Q
2023-03-15 11:22:43:514,0,3.63219,-7.01938,18.3884,Q,Q
2023-03-15 11:22:43:524,0,3.62733,-7.03073,18.414,Q,Q
2023-03-15 11:22:43:534,0,3.62285,-7.04122,18.4432,Q,Q
2023-03-15 11:22:43:544,0,3.61935,-7.05458,18.4687,Q,Q
2023-03-15 11:22:43:554,0,3.61071,-7.06944,18.4956,Q,Q
2023-03-15 11:22:43:563,0,3.60001,-7.08705,18.5187,Q,Q
2023-03-15 11:22:43:574,0,3.58582,-7.10522,18.5464,Q,Q
2023-03-15 11:22:43:584,0,3.57302,-7.1209,18.5716,Q,Q
2023-03-15 11:22:43:594,0,3.55765,-7.13281,18.6006,Q,Q
2023-03-15 11:22:43:604,0,3.54517,-7.14464,18.6268,Q,Q
2023-03-15 11:22:43:613,0,3.53382,-7.15171,18.6533,Q,Q
2023-03-15 11:22:43:624,0,3.52717,-7.15596,18.6763,Q,Q
2023-03-15 11:22:43:634,0,3.51486,-7.1698,18.7021,Q,Q
2023-03-15 11:22:43:644,0,3.49714,-7.18237,18.7244,Q,Q
2023-03-15 11:22:43:654,0,3.48367,-7.19596,18.7428,Q,Q
2023-03-15 11:22:43:664,0,3.47374,-7.20023,18.7569,Q,Q
2023-03-15 11:22:43:673,0,3.46608,-7.20874,18.7752,Q,Q
2023-03-15 11:22:43:684,0,3.46061,-7.21306,18.7872,Q,Q
2023-03-15 11:22:43:693,0,3.45803,-7.22244,18.8013,Q,Q
2023-03-15 11:22:43:703,0,3.4533,-7.23035,18.8112,Q,Q
2023-03-15 11:22:43:713,0,3.44929,-7.24279,18.8184,Q,Q
2023-03-15 11:22:43:723,0,3.44011,-7.25442,18.8234,Q,Q
2023-03-15 11:22:43:733,0,3.43282,-7.26367,18.8291,Q,Q
2023-03-15 11:22:43:744,0,3.42742,-7.26931,18.835,Q,Q
2023-03-15 11:22:43:753,0,3.42589,-7.27365,18.8387,Q,Q
2023-03-15 11:22:43:763,0,3.42548,-7.27918,18.8375,Q,Q
2023-03-15 11:22:43:773,0,3.42085,-7.28579,18.8393,Q,Q
2023-03-15 11:22:43:783,0,3.41714,-7.29257,18.836,Q,Q
2023-03-15 11:22:43:793,0,3.41485,-7.29647,18.8348,Q,Q
2023-03-15 11:22:43:803,0,3.41302,-7.29991,18.8324,Q,Q
2023-03-15 11:22:43:813,0,3.41061,-7.30349,18.83,Q,Q
2023-03-15 11:22:43:823,0,3.40938,-7.30826,18.8253,Q,Q
2023-03-15 11:22:43:833,0,3.40869,-7.31089,18.8198,Q,Q
2023-03-15 11:22:43:843,0,3.40906,-7.31561,18.8114,Q,Q
2023-03-15 11:22:43:853,0,3.40963,-7.31954,18.8053,Q,Q
2023-03-15 11:22:43:863,0,3.41401,-7.32115,18.8013,Q,Q
2023-03-15 11:22:43:873,0,3.41816,-7.32504,18.7953,Q,Q
2023-03-15 11:22:43:883,0,3.4229,-7.32883,18.7877,Q,Q
2023-03-15 11:22:43:893,0,3.43069,-7.3275,18.7789,Q,Q
2023-03-15 11:22:43:903,0,3.43316,-7.32762,18.7688,Q,Q
2023-03-15 11:22:43:913,0,3.43307,-7.32634,18.7568,Q,Q
2023-03-15 11:22:43:923,0,3.43568,-7.32358,18.7423,Q,Q
2023-03-15 11:22:43:933,0,3.43537,-7.32043,18.7274,Q,Q
2023-03-15 11:22:43:943,0,3.43547,-7.31468,18.7109,Q,Q
2023-03-15 11:22:43:953,0,3.43767,-7.31465,18.6938,Q,Q
2023-03-15 11:22:43:963,0,3.44122,-7.31609,18.6797,Q,Q
2023-03-15 11:22:43:973,0,3.44813,-7.32673,18.6701,Q,Q
2023-03-15 11:22:43:983,0,3.45667,-7.33659,18.6663,Q,Q
2023-03-15 11:22:43:993,0,3.46594,-7.35183,18.6641,Q,Q
2023-03-15 11:22:44:3,0,3.46979,-7.3615,18.6616,Q,Q
2023-03-15 11:22:44:13,0,3.47623,-7.36941,18.6532,Q,Q
2023-03-15 11:22:44:23,0,3.48223,-7.3758,18.6434,Q,Q
2023-03-15 11:22:44:33,0,3.48778,-7.37954,18.6324,Q,Q
2023-03-15 11:22:44:43,0,3.48907,-7.38442,18.62,Q,Q
2023-03-15 11:22:44:53,0,3.48727,-7.38859,18.6119,Q,Q
2023-03-15 11:22:44:63,0,3.48674,-7.39041,18.6056,Q,Q
2023-03-15 11:22:44:73,0,3.48463,-7.39277,18.6043,Q,Q
2023-03-15 11:22:44:83,0,3.48301,-7.40357,18.6055,Q,Q
2023-03-15 11:22:44:93,0,3.48596,-7.41531,18.601,Q,Q
2023-03-15 11:22:44:103,0,3.49052,-7.42658,18.6001,Q,Q
2023-03-15 11:22:44:113,0,3.49307,-7.43536,18.5991,Q,Q
2023-03-15 11:22:44:123,0,3.49817,-7.44649,18.5997,Q,Q
2023-03-15 11:22:44:133,0,3.50291,-7.45388,18.5984,Q,Q
2023-03-15 11:22:44:143,0,3.50812,-7.4599,18.595,Q,Q
2023-03-15 11:22:44:153,0,3.51381,-7.46484,18.5931,Q,Q
2023-03-15 11:22:44:163,0,3.52181,-7.4705,18.5899,Q,Q
2023-03-15 11:22:44:173,0,3.52945,-7.47883,18.5893,Q,Q
2023-03-15 11:22:44:183,0,3.53457,-7.48637,18.5857,Q,Q
2023-03-15 11:22:44:193,0,3.53593,-7.4909,18.5823,Q,Q
2023-03-15 11:22:44:203,0,3.543,-7.49825,18.5747,Q,Q
2023-03-15 11:22:44:213,0,3.55219,-7.50619,18.5677,Q,Q
2023-03-15 11:22:44:223,0,3.55744,-7.51354,18.5601,Q,Q
2023-03-15 11:22:44:233,0,3.56564,-7.5205,18.553,Q,Q
2023-03-15 11:22:44:243,0,3.5705,-7.53168,18.5496,Q,Q
2023-03-15 11:22:44:253,0,3.5792,-7.54374,18.5477,Q,Q
2023-03-15 11:22:44:263,0,3.58858,-7.55343,18.5406,Q,Q
2023-03-15 11:22:44:273,0,3.59986,-7.56138,18.5337,Q,Q
2023-03-15 11:22:44:283,0,3.61146,-7.56772,18.5265,Q,Q
2023-03-15 11:22:44:293,0,3.62254,-7.57478,18.5184,Q,Q
2023-03-15 11:22:44:303,0,3.6357,-7.57602,18.5114,Q,Q
2023-03-15 11:22:44:313,0,3.64355,-7.58188,18.5056,Q,Q
2023-03-15 11:22:44:323,0,3.65059,-7.58285,18.5025,Q,Q
2023-03-15 11:22:44:333,0,3.65682,-7.58526,18.5007,Q,Q
2023-03-15 11:22:44:343,0,3.6602,-7.58888,18.5005,Q,Q
2023-03-15 11:22:44:353,0,3.66863,-7.59568,18.4993,Q,Q
2023-03-15 11:22:44:363,0,3.67258,-7.60362,18.4996,Q,Q
2023-03-15 11:22:44:373,0,3.67262,-7.60971,18.5,Q,Q
2023-03-15 11:22:44:383,0,3.67494,-7.61779,18.4989,Q,Q
2023-03-15 11:22:44:393,0,3.67656,-7.62166,18.497,Q,Q
2023-03-15 11:22:44:403,0,3.67671,-7.63106,18.5012,Q,Q
2023-03-15 11:22:44:413,0,3.67463,-7.63864,18.5035,Q,Q
2023-03-15 11:22:44:423,0,3.66953,-7.64593,18.5045,Q,Q
2023-03-15 11:22:44:433,0,3.66349,-7.65348,18.5023,Q,Q
2023-03-15 11:22:44:443,0,3.65697,-7.65681,18.506,Q,Q
2023-03-15 11:22:44:453,0,3.64839,-7.66456,18.5071,Q,Q
2023-03-15 11:22:44:463,0,3.63929,-7.67081,18.508,Q,Q
2023-03-15 11:22:44:473,0,3.62503,-7.67565,18.507,Q,Q
2023-03-15 11:22:44:483,0,3.61183,-7.68077,18.5069,Q,Q
2023-03-15 11:22:44:493,0,3.59722,-7.68668,18.5052,Q,Q
2023-03-15 11:22:44:503,0,3.58384,-7.69265,18.5009,Q,Q
2023-03-15 11:22:44:513,0,3.56938,-7.69509,18.4924,Q,Q
2023-03-15 11:22:44:523,0,3.55418,-7.69933,18.4817,Q,Q
2023-03-15 11:22:44:533,0,3.54101,-7.7082,18.4678,Q,Q
2023-03-15 11:22:44:543,0,3.52674,-7.7156,18.4505,Q,Q
2023-03-15 11:22:44:553,0,3.51487,-7.72274,18.4366,Q,Q
2023-03-15 11:22:44:563,0,3.50384,-7.7217,18.4203,Q,Q
2023-03-15 11:22:44:573,0,3.48999,-7.71762,18.4041,Q,Q
2023-03-15 11:22:44:583,0,3.48115,-7.71664,18.3828,Q,Q
2023-03-15 11:22:44:593,0,3.47425,-7.71605,18.362,Q,Q
2023-03-15 11:22:44:603,0,3.46729,-7.71457,18.3422,Q,Q
2023-03-15 11:22:44:613,0,3.46134,-7.7124,18.3213,Q,Q
2023-03-15 11:22:44:623,0,3.4599,-7.70868,18.3039,Q,Q
2023-03-15 11:22:44:633,0,3.45684,-7.70607,18.2871,Q,Q
2023-03-15 11:22:44:643,0,3.45148,-7.70422,18.2691,Q,Q
2023-03-15 11:22:44:653,0,3.44722,-7.70014,18.2541,Q,Q
2023-03-15 11:22:44:663,0,3.44254,-7.69547,18.2416,Q,Q
2023-03-15 11:22:44:673,0,3.44037,-7.69331,18.2317,Q,Q
2023-03-15 11:22:44:683,0,3.43704,-7.69158,18.2215,Q,Q
2023-03-15 11:22:44:693,0,3.43409,-7.68906,18.2099,Q,Q
2023-03-15 11:22:44:703,0,3.43295,-7.69046,18.199,Q,Q
2023-03-15 11:22:44:713,0,3.42858,-7.68546,18.1834,Q,Q
2023-03-15 11:22:44:723,0,3.42341,-7.68202,18.1718,Q,Q
2023-03-15 11:22:44:733,0,3.4191,-7.67873,18.1593,Q,Q
2023-03-15 11:22:44:743,0,3.41783,-7.67751,18.147,Q,Q
2023-03-15 11:22:44:753,0,3.41531,-7.67426,18.1358,Q,Q
2023-03-15 11:22:44:763,0,3.41323,-7.67226,18.1286,Q,Q
2023-03-15 11:22:44:773,0,3.41419,-7.67168,18.1201,Q,Q
2023-03-15 11:22:44:783,0,3.41613,-7.67274,18.1111,Q,Q
2023-03-15 11:22:44:793,0,3.41748,-7.67136,18.1061,Q,Q
2023-03-15 11:22:44:803,0,3.42014,-7.66489,18.1021,Q,Q
2023-03-15 11:22:44:813,0,3.42239,-7.6595,18.0992,Q,Q
2023-03-15 11:22:44:823,0,3.42421,-7.65399,18.0949,Q,Q
2023-03-15 11:22:44:833,0,3.42043,-7.64515,18.0877,Q,Q
2023-03-15 11:22:44:843,0,3.41888,-7.63987,18.0828,Q,Q
2023-03-15 11:22:44:853,0,3.41964,-7.63952,18.077,Q,Q
2023-03-15 11:22:44:863,0,3.42299,-7.64176,18.0753,Q,Q
2023-03-15 11:22:44:873,0,3.41963,-7.64729,18.0754,Q,Q
2023-03-15 11:22:44:883,0,3.4221,-7.65758,18.0781,Q,Q
2023-03-15 11:22:44:893,0,3.41906,-7.66193,18.0827,Q,Q
2023-03-15 11:22:44:903,0,3.41999,-7.66718,18.0824,Q,Q
2023-03-15 11:22:44:913,0,3.42248,-7.67282,18.0815,Q,Q
2023-03-15 11:22:44:923,0,3.42813,-7.67951,18.0767,Q,Q
2023-03-15 11:22:44:933,0,3.4375,-7.68533,18.0742,Q,Q
2023-03-15 11:22:44:943,0,3.44495,-7.68728,18.0778,Q,Q
2023-03-15 11:22:44:953,0,3.44994,-7.69011,18.0807,Q,Q
2023-03-15 11:22:44:963,0,3.45771,-7.6912,18.0848,Q,Q
2023-03-15 11:22:44:973,0,3.4633,-7.69431,18.0912,Q,Q
2023-03-15 11:22:44:983,0,3.46687,-7.69403,18.0973,Q,Q
2023-03-15 11:22:44:993,0,3.47075,-7.69185,18.1034,Q,Q
2023-03-15 11:22:45:3,0,3.47089,-7.68836,18.1079,Q,Q
2023-03-15 11:22:45:13,0,3.47194,-7.69078,18.1098,Q,Q
2023-03-15 11:22:45:23,0,3.47201,-7.69201,18.1109,Q,Q
2023-03-15 11:22:45:33,0,3.47494,-7.69637,18.115,Q,Q
2023-03-15 11:22:45:43,0,3.47931,-7.70171,18.1167,Q,Q
2023-03-15 11:22:45:53,0,3.48565,-7.70688,18.1138,Q,Q
2023-03-15 11:22:45:63,0,3.49089,-7.71447,18.1142,Q,Q
2023-03-15 11:22:45:73,0,3.4955,-7.72195,18.1128,Q,Q
2023-03-15 11:22:45:83,0,3.49815,-7.72543,18.1124,Q,Q
2023-03-15 11:22:45:93,0,3.49896,-7.73146,18.1123,Q,Q
2023-03-15 11:22:45:103,0,3.49882,-7.73334,18.1133,Q,Q
2023-03-15 11:22:45:113,0,3.49815,-7.73509,18.115,Q,Q
2023-03-15 11:22:45:123,0,3.50258,-7.73922,18.1171,Q,Q
2023-03-15 11:22:45:133,0,3.50736,-7.75051,18.1251,Q,Q
2023-03-15 11:22:45:143,0,3.51807,-7.76006,18.1343,Q,Q
2023-03-15 11:22:45:153,0,3.52789,-7.76375,18.1425,Q,Q
2023-03-15 11:22:45:163,0,3.53612,-7.77045,18.1542,Q,Q
2023-03-15 11:22:45:173,0,3.54694,-7.7762,18.1639,Q,Q
2023-03-15 11:22:45:183,0,3.55762,-7.77979,18.1749,Q,Q
2023-03-15 11:22:45:193,0,3.56739,-7.78178,18.1878,Q,Q
2023-03-15 11:22:45:203,0,3.57404,-7.78392,18.1995,Q,Q
2023-03-15 11:22:45:213,0,3.57838,-7.78902,18.208,Q,Q
2023-03-15 11:22:45:223,0,3.58533,-7.79229,18.2161,Q,Q
2023-03-15 11:22:45:233,0,3.58809,-7.79424,18.2241,Q,Q
2023-03-15 11:22:45:243,0,3.59102,-7.80253,18.2285,Q,Q
2023-03-15 11:22:45:253,0,3.58983,-7.81098,18.2346,Q,Q
2023-03-15 11:22:45:263,0,3.58775,-7.818,18.2417,Q,Q
2023-03-15 11:22:45:273,0,3.5849,-7.82771,18.2465,Q,Q
2023-03-15 11:22:45:283,0,3.5818,-7.8355,18.2538,Q,Q
2023-03-15 11:22:45:293,0,3.57942,-7.8452,18.259,Q,Q
2023-03-15 11:22:45:303,0,3.57763,-7.85399,18.2692,Q,Q
2023-03-15 11:22:45:313,0,3.57353,-7.87151,18.2769,Q,Q
2023-03-15 11:22:45:323,0,3.56408,-7.89932,18.284,Q,Q
2023-03-15 11:22:45:333,0,3.54935,-7.9205,18.2935,Q,Q
2023-03-15 11:22:45:343,0,3.53529,-7.92688,18.3055,Q,Q
2023-03-15 11:22:45:353,0,3.53132,-7.92737,18.3141,Q,Q
2023-03-15 11:22:45:363,0,3.53013,-7.9294,18.3233,Q,Q
2023-03-15 11:22:45:373,0,3.52748,-7.92958,18.3296,Q,Q
2023-03-15 11:22:45:383,0,3.52146,-7.92964,18.3339,Q,Q
2023-03-15 11:22:45:393,0,3.51394,-7.92685,18.3385,Q,Q
2023-03-15 11:22:45:402,0,3.51414,-7.92743,18.3421,Q,Q
2023-03-15 11:22:45:412,0,3.51311,-7.92732,18.3395,Q,Q
2023-03-15 11:22:45:423,0,3.51398,-7.92634,18.3361,Q,Q
2023-03-15 11:22:45:433,0,3.51087,-7.92812,18.3326,Q,Q
2023-03-15 11:22:45:443,0,3.50984,-7.93187,18.3259,Q,Q
2023-03-15 11:22:45:453,0,3.50959,-7.93193,18.3181,Q,Q
2023-03-15 11:22:45:462,0,3.51402,-7.93466,18.3114,Q,Q
2023-03-15 11:22:45:473,0,3.5169,-7.934,18.3074,Q,Q
2023-03-15 11:22:45:483,0,3.51705,-7.93283,18.2998,Q,Q
2023-03-15 11:22:45:493,0,3.51917,-7.93215,18.2933,Q,Q
2023-03-15 11:22:45:503,0,3.52159,-7.93059,18.2865,Q,Q
2023-03-15 11:22:45:512,0,3.52125,-7.92613,18.2808,Q,Q
2023-03-15 11:22:45:522,0,3.52076,-7.91867,18.2743,Q,Q
2023-03-15 11:22:45:532,0,3.52153,-7.91371,18.2697,Q,Q
2023-03-15 11:22:45:543,0,3.52162,-7.90729,18.2606,Q,Q
2023-03-15 11:22:45:553,0,3.52008,-7.89817,18.2553,Q,Q
2023-03-15 11:22:45:563,0,3.5172,-7.89142,18.2496,Q,Q
2023-03-15 11:22:45:573,0,3.51637,-7.88176,18.2429,Q,Q
2023-03-15 11:22:45:583,0,3.51587,-7.86873,18.2351,Q,Q
2023-03-15 11:22:45:593,0,3.51656,-7.85822,18.2292,Q,Q
2023-03-15 11:22:45:603,0,3.51461,-7.84827,18.2236,Q,Q
2023-03-15 11:22:45:612,0,3.51373,-7.83941,18.2164,Q,Q
2023-03-15 11:22:45:623,0,3.51069,-7.83055,18.2087,Q,Q
2023-03-15 11:22:45:633,0,3.50723,-7.82204,18.2044,Q,Q
2023-03-15 11:22:45:643,0,3.50025,-7.8171,18.1956,Q,Q
2023-03-15 11:22:45:653,0,3.4985,-7.80914,18.1895,Q,Q
2023-03-15 11:22:45:663,0,3.49328,-7.80331,18.1834,Q,Q
2023-03-15 11:22:45:673,0,3.48931,-7.7992,18.1796,Q,Q
2023-03-15 11:22:45:683,0,3.48797,-7.79572,18.1733,Q,Q
2023-03-15 11:22:45:692,0,3.48719,-7.79211,18.1675,Q,Q
2023-03-15 11:22:45:703,0,3.48596,-7.79195,18.161,Q,Q
2023-03-15 11:22:45:713,0,3.48563,-7.78796,18.152,Q,Q
2023-03-15 11:22:45:723,0,3.48751,-7.78136,18.1425,Q,Q
2023-03-15 11:22:45:733,0,3.48619,-7.77574,18.1345,Q,Q
2023-03-15 11:22:45:743,0,3.48285,-7.76585,18.1248,Q,Q
2023-03-15 11:22:45:753,0,3.4823,-7.75682,18.1097,Q,Q
2023-03-15 11:22:45:763,0,3.48587,-7.74614,18.093,Q,Q
2023-03-15 11:22:45:773,0,3.49133,-7.74291,18.0822,Q,Q
2023-03-15 11:22:45:783,0,3.49617,-7.74515,18.0711,Q,Q
2023-03-15 11:22:45:793,0,3.5004,-7.74245,18.0658,Q,Q
2023-03-15 11:22:45:802,0,3.50527,-7.74425,18.0581,Q,Q
2023-03-15 11:22:45:812,0,3.50721,-7.74599,18.0486,Q,Q
2023-03-15 11:22:45:823,0,3.51051,-7.74422,18.0332,Q,Q
2023-03-15 11:22:45:833,0,3.51373,-7.74088,18.0213,Q,Q
2023-03-15 11:22:45:843,0,3.51637,-7.73741,18.007,Q,Q
2023-03-15 11:22:45:853,0,3.51846,-7.73386,17.9956,Q,Q
2023-03-15 11:22:45:862,0,3.52406,-7.7298,17.9824,Q,Q
2023-03-15 11:22:45:872,0,3.52778,-7.72557,17.9731,Q,Q
2023-03-15 11:22:45:883,0,3.52925,-7.72071,17.9651,Q,Q
2023-03-15 11:22:45:893,0,3.52848,-7.71243,17.9578,Q,Q
2023-03-15 11:22:45:902,0,3.52969,-7.70472,17.9501,Q,Q
2023-03-15 11:22:45:913,0,3.52426,-7.69262,17.9423,Q,Q
2023-03-15 11:22:45:922,0,3.5248,-7.68453,17.9305,Q,Q
2023-03-15 11:22:45:932,0,3.52669,-7.67836,17.9214,Q,Q
2023-03-15 11:22:45:943,0,3.52464,-7.67586,17.9115,Q,Q
2023-03-15 11:22:45:952,0,3.52568,-7.67245,17.9023,Q,Q
2023-03-15 11:22:45:963,0,3.52566,-7.67113,17.8958,Q,Q
2023-03-15 11:22:45:972,0,3.52509,-7.67188,17.8841,Q,Q
2023-03-15 11:22:45:983,0,3.5262,-7.67324,17.8784,Q,Q
2023-03-15 11:22:45:993,0,3.52595,-7.675,17.8762,Q,Q
2023-03-15 11:22:46:2,0,3.52492,-7.67619,17.8724,Q,Q
2023-03-15 11:22:46:12,0,3.52638,-7.67471,17.8661,Q,Q
2023-03-15 11:22:46:22,0,3.52437,-7.67536,17.8659,Q,Q
2023-03-15 11:22:46:33,0,3.52367,-7.67587,17.8672,Q,Q
2023-03-15 11:22:46:42,0,3.52519,-7.67882,17.8709,Q,Q
2023-03-15 11:22:46:52,0,3.53106,-7.68087,17.88,Q,Q
2023-03-15 11:22:46:63,0,3.53574,-7.69062,17.8952,Q,Q
2023-03-15 11:22:46:72,0,3.53958,-7.69589,17.9105,Q,Q
2023-03-15 11:22:46:83,0,3.54109,-7.69576,17.9258,Q,Q
2023-03-15 11:22:46:92,0,3.54293,-7.69227,17.9362,Q,Q
2023-03-15 11:22:46:103,0,3.5473,-7.68981,17.9435,Q,Q
2023-03-15 11:22:46:112,0,3.54706,-7.68768,17.9545,Q,Q
2023-03-15 11:22:46:123,0,3.54512,-7.6843,17.9622,Q,Q
2023-03-15 11:22:46:132,0,3.54747,-7.68408,17.9724,Q,Q
2023-03-15 11:22:46:143,0,3.54833,-7.68677,17.9773,Q,Q
2023-03-15 11:22:46:152,0,3.54464,-7.69287,17.9812,Q,Q
2023-03-15 11:22:46:162,0,3.54074,-7.70259,17.9823,Q,Q
2023-03-15 11:22:46:172,0,3.5351,-7.70896,17.9854,Q,Q
2023-03-15 11:22:46:182,0,3.52985,-7.71482,17.9852,Q,Q
2023-03-15 11:22:46:192,0,3.52451,-7.72332,17.9822,Q,Q
2023-03-15 11:22:46:202,0,3.51638,-7.72923,17.9793,Q,Q
2023-03-15 11:22:46:212,0,3.50788,-7.73611,17.9817,Q,Q
2023-03-15 11:22:46:222,0,3.49553,-7.74806,17.9807,Q,Q
2023-03-15 11:22:46:232,0,3.48639,-7.75761,17.9797,Q,Q
2023-03-15 11:22:46:242,0,3.47376,-7.76483,17.985,Q,Q
2023-03-15 11:22:46:252,0,3.46149,-7.76937,17.9878,Q,Q
2023-03-15 11:22:46:262,0,3.44897,-7.77812,17.9925,Q,Q
2023-03-15 11:22:46:272,0,3.43748,-7.7796,17.9964,Q,Q
2023-03-15 11:22:46:282,0,3.42771,-7.78297,17.9983,Q,Q
2023-03-15 11:22:46:292,0,3.41595,-7.78271,17.9957,Q,Q
2023-03-15 11:22:46:302,0,3.4015,-7.77942,17.9887,Q,Q
2023-03-15 11:22:46:312,0,3.38402,-7.77397,17.9821,Q,Q
2023-03-15 11:22:46:322,0,3.37142,-7.77216,17.9715,Q,Q
2023-03-15 11:22:46:332,0,3.3632,-7.76722,17.9602,Q,Q
2023-03-15 11:22:46:342,0,3.35487,-7.76244,17.9475,Q,Q
2023-03-15 11:22:46:352,0,3.34316,-7.75563,17.9347,Q,Q
2023-03-15 11:22:46:362,0,3.33208,-7.75264,17.9207,Q,Q
2023-03-15 11:22:46:372,0,3.32332,-7.74647,17.9071,Q,Q
2023-03-15 11:22:46:382,0,3.31325,-7.73694,17.8956,Q,Q
2023-03-15 11:22:46:392,0,3.30424,-7.72792,17.8863,Q,Q
2023-03-15 11:22:46:402,0,3.2984,-7.72104,17.873,Q,Q
2023-03-15 11:22:46:412,0,3.29258,-7.71027,17.8617,Q,Q
2023-03-15 11:22:46:422,0,3.28521,-7.69813,17.8508,Q,Q
2023-03-15 11:22:46:432,0,3.27995,-7.68695,17.8404,Q,Q
2023-03-15 11:22:46:442,0,3.27301,-7.67262,17.8324,Q,Q
2023-03-15 11:22:46:452,0,3.26876,-7.65559,17.8246,Q,Q
2023-03-15 11:22:46:462,0,3.26246,-7.63932,17.8129,Q,Q
2023-03-15 11:22:46:472,0,3.25469,-7.62558,17.8029,Q,Q
2023-03-15 11:22:46:482,0,3.24887,-7.61076,17.7945,Q,Q
2023-03-15 11:22:46:492,0,3.24463,-7.59647,17.7837,Q,Q
2023-03-15 11:22:46:502,0,3.23925,-7.58618,17.7745,Q,Q
2023-03-15 11:22:46:512,0,3.2395,-7.57674,17.7642,Q,Q
2023-03-15 11:22:46:522,0,3.24389,-7.57128,17.7548,Q,Q
2023-03-15 11:22:46:532,0,3.24844,-7.56764,17.7432,Q,Q
2023-03-15 11:22:46:542,0,3.24721,-7.56519,17.7354,Q,Q
2023-03-15 11:22:46:552,0,3.24998,-7.5646,17.7263,Q,Q
2023-03-15 11:22:46:562,0,3.25163,-7.56759,17.7209,Q,Q
2023-03-15 11:22:46:572,0,3.25355,-7.56445,17.7177,Q,Q
2023-03-15 11:22:46:582,0,3.25861,-7.5696,17.7141,Q,Q
2023-03-15 11:22:46:592,0,3.26191,-7.57049,17.7123,Q,Q
2023-03-15 11:22:46:602,0,3.2611,-7.57463,17.7154,Q,Q
2023-03-15 11:22:46:612,0,3.26709,-7.57849,17.7182,Q,Q
2023-03-15 11:22:46:622,0,3.27588,-7.582,17.7272,Q,Q
2023-03-15 11:22:46:632,0,3.2823,-7.58308,17.7348,Q,Q
2023-03-15 11:22:46:642,0,3.2848,-7.57803,17.7387,Q,Q
2023-03-15 11:22:46:652,0,3.28274,-7.57497,17.7463,Q,Q
2023-03-15 11:22:46:662,0,3.27626,-7.57205,17.752,Q,Q
2023-03-15 11:22:46:672,0,3.27376,-7.57047,17.7551,Q,Q
2023-03-15 11:22:46:682,0,3.27221,-7.57228,17.7635,Q,Q
2023-03-15 11:22:46:692,0,3.26807,-7.57625,17.7759,Q,Q
2023-03-15 11:22:46:702,0,3.26612,-7.58522,17.7838,Q,Q
2023-03-15 11:22:46:712,0,3.25931,-7.59316,17.7878,Q,Q
2023-03-15 11:22:46:722,0,3.25524,-7.59995,17.7856,Q,Q
2023-03-15 11:22:46:732,0,3.25028,-7.60585,17.784,Q,Q
2023-03-15 11:22:46:742,0,3.24424,-7.60944,17.7795,Q,Q
2023-03-15 11:22:46:752,0,3.24174,-7.61535,17.7724,Q,Q
2023-03-15 11:22:46:762,0,3.23795,-7.61731,17.7616,Q,Q
2023-03-15 11:22:46:772,0,3.23028,-7.6183,17.7549,Q,Q
2023-03-15 11:22:46:782,0,3.22547,-7.61651,17.7461,Q,Q
2023-03-15 11:22:46:792,0,3.21939,-7.61623,17.733,Q,Q
2023-03-15 11:22:46:802,0,3.21119,-7.61084,17.7221,Q,Q
2023-03-15 11:22:46:812,0,3.20153,-7.60517,17.7069,Q,Q
2023-03-15 11:22:46:822,0,3.19159,-7.59657,17.6965,Q,Q
2023-03-15 11:22:46:832,0,3.18077,-7.58864,17.6832,Q,Q
2023-03-15 11:22:46:842,0,3.17107,-7.57788,17.6712,Q,Q
2023-03-15 11:22:46:852,0,3.16605,-7.5643,17.655,Q,Q
2023-03-15 11:22:46:862,0,3.16288,-7.55679,17.6436,Q,Q
2023-03-15 11:22:46:872,0,3.16131,-7.5461,17.6341,Q,Q
2023-03-15 11:22:46:882,0,3.16085,-7.53905,17.6232,Q,Q
2023-03-15 11:22:46:892,0,3.16062,-7.53393,17.6136,Q,Q
2023-03-15 11:22:46:902,0,3.15967,-7.53056,17.6087,Q,Q
2023-03-15 11:22:46:912,0,3.15653,-7.52781,17.6021,Q,Q
2023-03-15 11:22:46:922,0,3.15815,-7.52231,17.5948,Q,Q
2023-03-15 11:22:46:932,0,3.15494,-7.51781,17.5878,Q,Q
2023-03-15 11:22:46:942,0,3.15249,-7.51044,17.5849,Q,Q
2023-03-15 11:22:46:952,0,3.14804,-7.5033,17.5794,Q,Q
2023-03-15 11:22:46:962,0,3.14451,-7.49651,17.5787,Q,Q
2023-03-15 11:22:46:972,0,3.14272,-7.49272,17.5786,Q,Q
2023-03-15 11:22:46:982,0,3.13847,-7.49053,17.5826,Q,Q
2023-03-15 11:22:46:992,0,3.13683,-7.4876,17.5865,Q,Q
2023-03-15 11:22:47:2,0,3.12973,-7.48305,17.5894,Q,Q
2023-03-15 11:22:47:12,0,3.12375,-7.474,17.5959,Q,Q
2023-03-15 11:22:47:22,0,3.11319,-7.46741,17.6015,Q,Q
2023-03-15 11:22:47:32,0,3.09693,-7.45538,17.6138,Q,Q
2023-03-15 11:22:47:42,0,3.07822,-7.44394,17.6266,Q,Q
2023-03-15 11:22:47:52,0,3.05244,-7.43189,17.641,Q,Q
2023-03-15 11:22:47:62,0,3.01435,-7.42249,17.6603,Q,Q
2023-03-15 11:22:47:72,0,2.96605,-7.41081,17.6787,Q,Q
2023-03-15 11:22:47:82,0,2.90527,-7.40057,17.6995,Q,Q
2023-03-15 11:22:47:92,0,2.83201,-7.41875,17.7183,Q,Q
2023-03-15 11:22:47:102,0,2.72175,-7.43501,17.7484,Q,Q
2023-03-15 11:22:47:112,0,2.58847,-7.4357,17.7882,Q,Q
2023-03-15 11:22:47:122,0,2.44164,-7.43368,17.8333,Q,Q
2023-03-15 11:22:47:132,0,2.27549,-7.42493,17.8881,Q,Q
2023-03-15 11:22:47:142,0,2.08315,-7.40812,17.9454,Q,Q
2023-03-15 11:22:47:152,0,1.85187,-7.39091,18.0033,Q,Q
2023-03-15 11:22:47:162,0,1.58581,-7.37655,18.0603,Q,Q
2023-03-15 11:22:47:172,0,1.27832,-7.35862,18.1177,Q,Q
2023-03-15 11:22:47:182,0,0.931088,-7.33084,18.1607,Q,Q
2023-03-15 11:22:47:192,0,0.552883,-7.29915,18.1918,Q,Q
2023-03-15 11:22:47:202,0,0.159287,-7.26247,18.2105,Q,Q
2023-03-15 11:22:47:212,0,-0.240868,-7.23361,18.2264,Q,Q
2023-03-15 11:22:47:222,0,-0.640849,-7.21004,18.2396,Q,Q
2023-03-15 11:22:47:232,0,-1.0428,-7.18844,18.2492,Q,Q
2023-03-15 11:22:47:242,0,-1.45356,-7.17331,18.2558,Q,Q
2023-03-15 11:22:47:252,0,-1.86895,-7.15743,18.2617,Q,Q
2023-03-15 11:22:47:262,0,-2.29626,-7.14667,18.264,Q,Q
2023-03-15 11:22:47:272,0,-2.73655,-7.13026,18.2643,Q,Q
2023-03-15 11:22:47:282,0,-3.19609,-7.1058,18.2631,Q,Q
2023-03-15 11:22:47:292,0,-3.67639,-7.0757,18.2587,Q,Q
2023-03-15 11:22:47:302,0,-4.18087,-7.04454,18.2478,Q,Q
2023-03-15 11:22:47:312,0,-4.71939,-7.00484,18.2341,Q,Q
2023-03-15 11:22:47:322,0,-5.29285,-6.96249,18.219,Q,Q
2023-03-15 11:22:47:332,0,-5.9087,-6.91739,18.1979,Q,Q
2023-03-15 11:22:47:342,0,-6.57099,-6.86841,18.1684,Q,Q
2023-03-15 11:22:47:352,0,-7.27678,-6.81196,18.1336,Q,Q
