Timestamp_cmd,imu_cmd,roll_delta,pitch_delta,yaw_delta,voice_type,voice_length
2023-03-15 12:55:48:30,0,1.89983,-5.88676,-9.41252,Q,Q
2023-03-15 12:55:48:33,0,2.06086,-5.81359,-9.57533,Q,Q
2023-03-15 12:55:48:43,0,2.2252,-5.73092,-9.75129,Q,Q
2023-03-15 12:55:48:53,0,2.39277,-5.61283,-9.93906,Q,Q
2023-03-15 12:55:48:63,0,2.57341,-5.47641,-10.1418,Q,Q
2023-03-15 12:55:48:73,0,2.7456,-5.33323,-10.3591,Q,Q
2023-03-15 12:55:48:83,0,2.89656,-5.1858,-10.5802,Q,Q
2023-03-15 12:55:48:93,0,3.01808,-5.03037,-10.8166,Q,Q
2023-03-15 12:55:48:103,0,3.11426,-4.86921,-11.0717,Q,Q
2023-03-15 12:55:48:113,0,3.18558,-4.69877,-11.3436,Q,Q
2023-03-15 12:55:48:123,0,3.24683,-4.5227,-11.6399,Q,Q
2023-03-15 12:55:48:133,0,3.29942,-4.34972,-11.9615,Q,Q
2023-03-15 12:55:48:143,0,3.34259,-4.17949,-12.3059,Q,Q
2023-03-15 12:55:48:153,0,3.38135,-4.01439,-12.6705,Q,Q
2023-03-15 12:55:48:163,0,3.41527,-3.85311,-13.0545,Q,Q
2023-03-15 12:55:48:173,0,3.44645,-3.69874,-13.4629,Q,Q
2023-03-15 12:55:48:183,0,3.45732,-3.55697,-13.8905,Q,Q
2023-03-15 12:55:48:193,0,3.44337,-3.43293,-14.3475,Q,Q
2023-03-15 12:55:48:203,0,3.38691,-3.33292,-14.8284,Q,Q
2023-03-15 12:55:48:213,0,3.27951,-3.25309,-15.3304,Q,Q
2023-03-15 12:55:48:223,0,3.1178,-3.19549,-15.8528,Q,Q
2023-03-15 12:55:48:233,0,2.92276,-3.15498,-16.3865,Q,Q
2023-03-15 12:55:48:243,0,2.71249,-3.13335,-16.9292,Q,Q
2023-03-15 12:55:48:253,0,2.49382,-3.12283,-17.4698,Q,Q
2023-03-15 12:55:48:263,0,2.27124,-3.12699,-18.0039,Q,Q
2023-03-15 12:55:48:273,0,2.05226,-3.14411,-18.5232,Q,Q
2023-03-15 12:55:48:283,0,1.83374,-3.17227,-19.0327,Q,Q
2023-03-15 12:55:48:293,0,1.611,-3.2111,-19.5276,Q,Q
2023-03-15 12:55:48:303,0,1.38144,-3.25863,-20.0024,Q,Q
2023-03-15 12:55:48:313,0,1.14551,-3.31672,-20.4526,Q,Q
2023-03-15 12:55:48:323,0,0.909072,-3.38927,-20.8779,Q,Q
2023-03-15 12:55:48:333,0,0.673763,-3.46781,-21.2783,Q,Q
2023-03-15 12:55:48:343,0,0.454832,-3.54927,-21.6477,Q,Q
2023-03-15 12:55:48:353,0,0.251654,-3.62597,-21.9923,Q,Q
2023-03-15 12:55:48:363,0,0.0728835,-3.70151,-22.3083,Q,Q
2023-03-15 12:55:48:373,0,-0.0813754,-3.765,-22.5973,Q,Q
2023-03-15 12:55:48:383,0,-0.214008,-3.8204,-22.864,Q,Q
2023-03-15 12:55:48:393,0,-0.318654,-3.86736,-23.112,Q,Q
2023-03-15 12:55:48:403,0,-0.397667,-3.9028,-23.3369,Q,Q
2023-03-15 12:55:48:413,0,-0.442323,-3.9288,-23.5378,Q,Q
2023-03-15 12:55:48:423,0,-0.458829,-3.95214,-23.7058,Q,Q
2023-03-15 12:55:48:433,0,-0.445929,-3.97989,-23.8397,Q,Q
2023-03-15 12:55:48:443,0,-0.40752,-4.00632,-23.9457,Q,Q
2023-03-15 12:55:48:453,0,-0.35698,-4.02791,-24.0233,Q,Q
2023-03-15 12:55:48:463,0,-0.291923,-4.0502,-24.0799,Q,Q
2023-03-15 12:55:48:473,0,-0.225668,-4.07057,-24.1137,Q,Q
2023-03-15 12:55:48:483,0,-0.156038,-4.09695,-24.1281,Q,Q
2023-03-15 12:55:48:493,0,-0.0746826,-4.11828,-24.1276,Q,Q
2023-03-15 12:55:48:503,0,0.0219229,-4.13707,-24.1156,Q,Q
2023-03-15 12:55:48:513,0,0.128253,-4.17671,-24.1026,Q,Q
2023-03-15 12:55:48:523,0,0.228959,-4.2353,-24.0716,Q,Q
2023-03-15 12:55:48:533,0,0.310713,-4.28195,-24.0176,Q,Q
2023-03-15 12:55:48:543,0,0.381613,-4.33513,-23.9631,Q,Q
2023-03-15 12:55:48:553,0,0.433778,-4.41585,-23.9069,Q,Q
2023-03-15 12:55:48:563,0,0.455199,-4.50642,-23.8285,Q,Q
2023-03-15 12:55:48:573,0,0.441666,-4.5946,-23.7355,Q,Q
2023-03-15 12:55:48:583,0,0.408214,-4.69613,-23.6397,Q,Q
2023-03-15 12:55:48:593,0,0.341062,-4.81727,-23.5381,Q,Q
2023-03-15 12:55:48:603,0,0.231977,-4.94387,-23.4378,Q,Q
2023-03-15 12:55:48:613,0,0.092302,-5.06003,-23.3418,Q,Q
2023-03-15 12:55:48:623,0,-0.0706399,-5.16002,-23.2644,Q,Q
2023-03-15 12:55:48:633,0,-0.255952,-5.25669,-23.2018,Q,Q
2023-03-15 12:55:48:643,0,-0.471178,-5.36639,-23.1509,Q,Q
2023-03-15 12:55:48:653,0,-0.720252,-5.48533,-23.1127,Q,Q
2023-03-15 12:55:48:663,0,-0.987346,-5.61623,-23.0825,Q,Q
2023-03-15 12:55:48:673,0,-1.25834,-5.7521,-23.0608,Q,Q
2023-03-15 12:55:48:683,0,-1.51741,-5.89932,-23.0529,Q,Q
2023-03-15 12:55:48:693,0,-1.76583,-6.0704,-23.0549,Q,Q
2023-03-15 12:55:48:703,0,-2.00784,-6.25104,-23.0663,Q,Q
2023-03-15 12:55:48:713,0,-2.25267,-6.44513,-23.1038,Q,Q
2023-03-15 12:55:48:723,0,-2.49486,-6.64382,-23.1721,Q,Q
2023-03-15 12:55:48:733,0,-2.73614,-6.84054,-23.2688,Q,Q
2023-03-15 12:55:48:743,0,-2.97066,-7.04707,-23.3957,Q,Q
2023-03-15 12:55:48:753,0,-3.2044,-7.26113,-23.5478,Q,Q
2023-03-15 12:55:48:763,0,-3.43946,-7.48302,-23.7354,Q,Q
2023-03-15 12:55:48:773,0,-3.6715,-7.70618,-23.9568,Q,Q
2023-03-15 12:55:48:783,0,-3.90053,-7.9287,-24.2144,Q,Q
2023-03-15 12:55:48:793,0,-4.11523,-8.1493,-24.5075,Q,Q
2023-03-15 12:55:48:803,0,-4.3078,-8.36339,-24.8342,Q,Q
2023-03-15 12:55:48:813,0,-4.47898,-8.56155,-25.1886,Q,Q
2023-03-15 12:55:48:823,0,-4.62411,-8.74156,-25.5653,Q,Q
2023-03-15 12:55:48:833,0,-4.74071,-8.91209,-25.9653,Q,Q
2023-03-15 12:55:48:843,0,-4.83514,-9.07867,-26.3918,Q,Q
2023-03-15 12:55:48:853,0,-4.91143,-9.23033,-26.8448,Q,Q
2023-03-15 12:55:48:863,0,-4.97637,-9.36499,-27.3171,Q,Q
2023-03-15 12:55:48:873,0,-5.03061,-9.4851,-27.7948,Q,Q
2023-03-15 12:55:48:883,0,-5.07603,-9.60676,-28.2727,Q,Q
2023-03-15 12:55:48:893,0,-5.12015,-9.73227,-28.7466,Q,Q
2023-03-15 12:55:48:903,0,-5.17597,-9.86913,-29.2105,Q,Q
2023-03-15 12:55:48:913,0,-5.23707,-10.0116,-29.6533,Q,Q
2023-03-15 12:55:48:923,0,-5.29626,-10.1627,-30.0758,Q,Q
2023-03-15 12:55:48:933,0,-5.34797,-10.3194,-30.4768,Q,Q
2023-03-15 12:55:48:943,0,-5.38875,-10.4772,-30.8625,Q,Q
2023-03-15 12:55:48:953,0,-5.42101,-10.626,-31.2337,Q,Q
2023-03-15 12:55:48:963,0,-5.44081,-10.7607,-31.5898,Q,Q
2023-03-15 12:55:48:973,0,-5.44936,-10.8811,-31.9294,Q,Q
2023-03-15 12:55:48:983,0,-5.4539,-10.9873,-32.2539,Q,Q
2023-03-15 12:55:48:992,0,-5.45588,-11.0818,-32.5653,Q,Q
2023-03-15 12:55:49:2,0,-5.45337,-11.1635,-32.8683,Q,Q
2023-03-15 12:55:49:12,0,-5.45796,-11.2306,-33.1621,Q,Q
2023-03-15 12:55:49:23,0,-5.47078,-11.2796,-33.4519,Q,Q
2023-03-15 12:55:49:32,0,-5.47981,-11.3156,-33.7337,Q,Q
2023-03-15 12:55:49:42,0,-5.48322,-11.3477,-34.0096,Q,Q
2023-03-15 12:55:49:53,0,-5.49489,-11.3727,-34.2843,Q,Q
2023-03-15 12:55:49:63,0,-5.50698,-11.3894,-34.5666,Q,Q
2023-03-15 12:55:49:73,0,-5.51539,-11.3979,-34.8585,Q,Q
2023-03-15 12:55:49:83,0,-5.52536,-11.3894,-35.1588,Q,Q
2023-03-15 12:55:49:93,0,-5.53534,-11.3801,-35.4681,Q,Q
2023-03-15 12:55:49:102,0,-5.54135,-11.3671,-35.7941,Q,Q
2023-03-15 12:55:49:113,0,-5.55196,-11.349,-36.136,Q,Q
2023-03-15 12:55:49:123,0,-5.56877,-11.3244,-36.4926,Q,Q
2023-03-15 12:55:49:133,0,-5.59251,-11.3002,-36.8638,Q,Q
2023-03-15 12:55:49:143,0,-5.62297,-11.2711,-37.2411,Q,Q
2023-03-15 12:55:49:153,0,-5.66739,-11.2473,-37.6273,Q,Q
2023-03-15 12:55:49:163,0,-5.71727,-11.2271,-38.0205,Q,Q
2023-03-15 12:55:49:173,0,-5.76669,-11.2091,-38.4054,Q,Q
2023-03-15 12:55:49:183,0,-5.81863,-11.1909,-38.7873,Q,Q
2023-03-15 12:55:49:193,0,-5.86443,-11.1708,-39.1715,Q,Q
2023-03-15 12:55:49:203,0,-5.90812,-11.1514,-39.5492,Q,Q
2023-03-15 12:55:49:213,0,-5.94501,-11.1303,-39.9228,Q,Q
2023-03-15 12:55:49:223,0,-5.97362,-11.1021,-40.2832,Q,Q
2023-03-15 12:55:49:233,0,-5.99371,-11.069,-40.6313,Q,Q
2023-03-15 12:55:49:242,0,-6.00337,-11.0364,-40.9623,Q,Q
2023-03-15 12:55:49:253,0,-6.0055,-11.0066,-41.277,Q,Q
2023-03-15 12:55:49:263,0,-6.00434,-10.9769,-41.5762,Q,Q
2023-03-15 12:55:49:273,0,-5.9992,-10.9417,-41.8655,Q,Q
2023-03-15 12:55:49:283,0,-5.99324,-10.9057,-42.1425,Q,Q
2023-03-15 12:55:49:293,0,-5.98132,-10.8643,-42.4048,Q,Q
2023-03-15 12:55:49:303,0,-5.96597,-10.8235,-42.6499,Q,Q
2023-03-15 12:55:49:312,0,-5.93998,-10.7815,-42.8724,Q,Q
2023-03-15 12:55:49:323,0,-5.90252,-10.7395,-43.0764,Q,Q
2023-03-15 12:55:49:333,0,-5.86136,-10.7014,-43.2638,Q,Q
2023-03-15 12:55:49:342,0,-5.82189,-10.6621,-43.4316,Q,Q
2023-03-15 12:55:49:353,0,-5.78525,-10.6209,-43.5834,Q,Q
2023-03-15 12:55:49:363,0,-5.74509,-10.5777,-43.7208,Q,Q
2023-03-15 12:55:49:373,0,-5.69894,-10.5373,-43.8391,Q,Q
2023-03-15 12:55:49:383,0,-5.65801,-10.4902,-43.935,Q,Q
2023-03-15 12:55:49:393,0,-5.61613,-10.4415,-44.018,Q,Q
2023-03-15 12:55:49:403,0,-5.57166,-10.394,-44.0833,Q,Q
2023-03-15 12:55:49:413,0,-5.52385,-10.3396,-44.1373,Q,Q
2023-03-15 12:55:49:423,0,-5.46894,-10.2874,-44.1879,Q,Q
2023-03-15 12:55:49:433,0,-5.41309,-10.2371,-44.2258,Q,Q
2023-03-15 12:55:49:443,0,-5.35861,-10.1895,-44.2621,Q,Q
2023-03-15 12:55:49:453,0,-5.30702,-10.1447,-44.2978,Q,Q
2023-03-15 12:55:49:462,0,-5.25889,-10.103,-44.3304,Q,Q
2023-03-15 12:55:49:473,0,-5.22071,-10.0775,-44.3628,Q,Q
2023-03-15 12:55:49:483,0,-5.19245,-10.056,-44.4011,Q,Q
2023-03-15 12:55:49:493,0,-5.17685,-10.0388,-44.4431,Q,Q
2023-03-15 12:55:49:503,0,-5.16786,-10.0224,-44.4906,Q,Q
2023-03-15 12:55:49:513,0,-5.16571,-10.0123,-44.5434,Q,Q
2023-03-15 12:55:49:523,0,-5.16508,-10.0032,-44.5965,Q,Q
2023-03-15 12:55:49:533,0,-5.16833,-9.99703,-44.6523,Q,Q
2023-03-15 12:55:49:543,0,-5.17449,-9.99454,-44.7138,Q,Q
2023-03-15 12:55:49:553,0,-5.18165,-9.9837,-44.7874,Q,Q
2023-03-15 12:55:49:563,0,-5.19041,-9.97296,-44.8745,Q,Q
2023-03-15 12:55:49:573,0,-5.20246,-9.94756,-44.9751,Q,Q
2023-03-15 12:55:49:583,0,-5.21396,-9.92069,-45.0784,Q,Q
2023-03-15 12:55:49:593,0,-5.21702,-9.8926,-45.1812,Q,Q
2023-03-15 12:55:49:603,0,-5.21746,-9.86784,-45.2872,Q,Q
2023-03-15 12:55:49:613,0,-5.2133,-9.84183,-45.3928,Q,Q
2023-03-15 12:55:49:623,0,-5.20776,-9.81689,-45.5001,Q,Q
2023-03-15 12:55:49:633,0,-5.20619,-9.79125,-45.6182,Q,Q
2023-03-15 12:55:49:643,0,-5.20007,-9.75756,-45.747,Q,Q
2023-03-15 12:55:49:653,0,-5.18582,-9.70263,-45.8891,Q,Q
2023-03-15 12:55:49:663,0,-5.16101,-9.62366,-46.0453,Q,Q
2023-03-15 12:55:49:673,0,-5.1121,-9.52777,-46.2054,Q,Q
2023-03-15 12:55:49:683,0,-5.05157,-9.42394,-46.3623,Q,Q
2023-03-15 12:55:49:693,0,-4.97873,-9.31264,-46.5215,Q,Q
2023-03-15 12:55:49:703,0,-4.90031,-9.19229,-46.6765,Q,Q
2023-03-15 12:55:49:713,0,-4.82045,-9.06971,-46.8281,Q,Q
2023-03-15 12:55:49:723,0,-4.73784,-8.9484,-46.9737,Q,Q
2023-03-15 12:55:49:733,0,-4.65452,-8.8352,-47.1164,Q,Q
2023-03-15 12:55:49:743,0,-4.57174,-8.7322,-47.2491,Q,Q
2023-03-15 12:55:49:753,0,-4.49257,-8.63293,-47.3802,Q,Q
2023-03-15 12:55:49:763,0,-4.41466,-8.53822,-47.5041,Q,Q
2023-03-15 12:55:49:773,0,-4.33813,-8.45063,-47.6241,Q,Q
2023-03-15 12:55:49:783,0,-4.26611,-8.36628,-47.7346,Q,Q
2023-03-15 12:55:49:793,0,-4.19604,-8.28441,-47.8401,Q,Q
2023-03-15 12:55:49:803,0,-4.13198,-8.2075,-47.9425,Q,Q
2023-03-15 12:55:49:813,0,-4.07142,-8.13741,-48.0416,Q,Q
2023-03-15 12:55:49:823,0,-4.0184,-8.07317,-48.1339,Q,Q
2023-03-15 12:55:49:833,0,-3.96862,-8.01443,-48.2204,Q,Q
2023-03-15 12:55:49:843,0,-3.91777,-7.96188,-48.3039,Q,Q
2023-03-15 12:55:49:853,0,-3.86597,-7.91358,-48.3806,Q,Q
2023-03-15 12:55:49:863,0,-3.80831,-7.86868,-48.4555,Q,Q
2023-03-15 12:55:49:873,0,-3.75025,-7.8325,-48.5292,Q,Q
2023-03-15 12:55:49:883,0,-3.69061,-7.80454,-48.5998,Q,Q
2023-03-15 12:55:49:893,0,-3.62136,-7.78216,-48.6647,Q,Q
2023-03-15 12:55:49:903,0,-3.54382,-7.76672,-48.7231,Q,Q
2023-03-15 12:55:49:913,0,-3.45729,-7.752,-48.7825,Q,Q
2023-03-15 12:55:49:923,0,-3.35875,-7.73402,-48.8398,Q,Q
2023-03-15 12:55:49:933,0,-3.23371,-7.71249,-48.8948,Q,Q
2023-03-15 12:55:49:943,0,-3.08207,-7.67902,-48.9427,Q,Q
2023-03-15 12:55:49:953,0,-2.90549,-7.64216,-48.9928,Q,Q
2023-03-15 12:55:49:963,0,-2.70102,-7.59485,-49.0354,Q,Q
2023-03-15 12:55:49:973,0,-2.47909,-7.539,-49.0701,Q,Q
2023-03-15 12:55:49:983,0,-2.23938,-7.47506,-49.098,Q,Q
2023-03-15 12:55:49:993,0,-1.98833,-7.41045,-49.12,Q,Q
2023-03-15 12:55:50:3,0,-1.73263,-7.35039,-49.1327,Q,Q
2023-03-15 12:55:50:13,0,-1.47993,-7.29424,-49.1365,Q,Q
2023-03-15 12:55:50:23,0,-1.23737,-7.24396,-49.1335,Q,Q
2023-03-15 12:55:50:33,0,-1.00727,-7.20127,-49.1242,Q,Q
2023-03-15 12:55:50:43,0,-0.796463,-7.16373,-49.1085,Q,Q
2023-03-15 12:55:50:53,0,-0.599978,-7.13684,-49.0845,Q,Q
2023-03-15 12:55:50:63,0,-0.420841,-7.1126,-49.0578,Q,Q
2023-03-15 12:55:50:72,0,-0.261335,-7.09203,-49.0279,Q,Q
2023-03-15 12:55:50:82,0,-0.123293,-7.07603,-48.9886,Q,Q
2023-03-15 12:55:50:92,0,-0.00174819,-7.06004,-48.9437,Q,Q
2023-03-15 12:55:50:102,0,0.114248,-7.04876,-48.8979,Q,Q
2023-03-15 12:55:50:112,0,0.229494,-7.04738,-48.8516,Q,Q
2023-03-15 12:55:50:122,0,0.342121,-7.05332,-48.8062,Q,Q
2023-03-15 12:55:50:133,0,0.455071,-7.0666,-48.7656,Q,Q
2023-03-15 12:55:50:143,0,0.563905,-7.08508,-48.7376,Q,Q
2023-03-15 12:55:50:152,0,0.674864,-7.10721,-48.7187,Q,Q
2023-03-15 12:55:50:162,0,0.783929,-7.12769,-48.7147,Q,Q
2023-03-15 12:55:50:173,0,0.900234,-7.14905,-48.7183,Q,Q
2023-03-15 12:55:50:183,0,1.02218,-7.17898,-48.7256,Q,Q
2023-03-15 12:55:50:193,0,1.14487,-7.22096,-48.7367,Q,Q
2023-03-15 12:55:50:203,0,1.26146,-7.27262,-48.7483,Q,Q
2023-03-15 12:55:50:213,0,1.36615,-7.33303,-48.7682,Q,Q
2023-03-15 12:55:50:223,0,1.44652,-7.3994,-48.7925,Q,Q
2023-03-15 12:55:50:233,0,1.50529,-7.48183,-48.8245,Q,Q
2023-03-15 12:55:50:243,0,1.53921,-7.5688,-48.8621,Q,Q
2023-03-15 12:55:50:253,0,1.54993,-7.66211,-48.9119,Q,Q
2023-03-15 12:55:50:263,0,1.55231,-7.75735,-48.9732,Q,Q
2023-03-15 12:55:50:273,0,1.55043,-7.85457,-49.0446,Q,Q
2023-03-15 12:55:50:283,0,1.53936,-7.95797,-49.1237,Q,Q
2023-03-15 12:55:50:293,0,1.51351,-8.06382,-49.2109,Q,Q
2023-03-15 12:55:50:303,0,1.47954,-8.17004,-49.3047,Q,Q
2023-03-15 12:55:50:313,0,1.43916,-8.27845,-49.4123,Q,Q
2023-03-15 12:55:50:323,0,1.38315,-8.39072,-49.5313,Q,Q
2023-03-15 12:55:50:333,0,1.3176,-8.50206,-49.6712,Q,Q
2023-03-15 12:55:50:343,0,1.23659,-8.60612,-49.8303,Q,Q
2023-03-15 12:55:50:353,0,1.15218,-8.69385,-50.0128,Q,Q
2023-03-15 12:55:50:363,0,1.06544,-8.76491,-50.2138,Q,Q
2023-03-15 12:55:50:373,0,0.984914,-8.82409,-50.4294,Q,Q
2023-03-15 12:55:50:383,0,0.914533,-8.87129,-50.6555,Q,Q
2023-03-15 12:55:50:393,0,0.856273,-8.90283,-50.8888,Q,Q
2023-03-15 12:55:50:403,0,0.80702,-8.92721,-51.1217,Q,Q
2023-03-15 12:55:50:413,0,0.772124,-8.94235,-51.3574,Q,Q
2023-03-15 12:55:50:423,0,0.739449,-8.95394,-51.5863,Q,Q
2023-03-15 12:55:50:433,0,0.708465,-8.96183,-51.8003,Q,Q
2023-03-15 12:55:50:443,0,0.676874,-8.97491,-52.0022,Q,Q
2023-03-15 12:55:50:453,0,0.643805,-8.99139,-52.1865,Q,Q
2023-03-15 12:55:50:463,0,0.609312,-9.01224,-52.3553,Q,Q
2023-03-15 12:55:50:473,0,0.57402,-9.04517,-52.5033,Q,Q
2023-03-15 12:55:50:483,0,0.530395,-9.08975,-52.6339,Q,Q
2023-03-15 12:55:50:493,0,0.48499,-9.14712,-52.7492,Q,Q
2023-03-15 12:55:50:503,0,0.436499,-9.21757,-52.8469,Q,Q
2023-03-15 12:55:50:513,0,0.392305,-9.30451,-52.9305,Q,Q
2023-03-15 12:55:50:523,0,0.342901,-9.40959,-52.9954,Q,Q
2023-03-15 12:55:50:533,0,0.282075,-9.53008,-53.0465,Q,Q
2023-03-15 12:55:50:543,0,0.211149,-9.67001,-53.0809,Q,Q
2023-03-15 12:55:50:553,0,0.122705,-9.82385,-53.1044,Q,Q
2023-03-15 12:55:50:563,0,0.0189657,-9.98711,-53.1123,Q,Q
2023-03-15 12:55:50:573,0,-0.0984062,-10.1576,-53.1072,Q,Q
2023-03-15 12:55:50:583,0,-0.22605,-10.3287,-53.0842,Q,Q
2023-03-15 12:55:50:593,0,-0.366063,-10.4949,-53.0509,Q,Q
2023-03-15 12:55:50:603,0,-0.521815,-10.6587,-53.0022,Q,Q
2023-03-15 12:55:50:613,0,-0.69221,-10.8144,-52.9467,Q,Q
2023-03-15 12:55:50:623,0,-0.875811,-10.9572,-52.8762,Q,Q
2023-03-15 12:55:50:633,0,-1.06449,-11.0819,-52.791,Q,Q
2023-03-15 12:55:50:643,0,-1.2584,-11.1951,-52.6745,Q,Q
2023-03-15 12:55:50:653,0,-1.45088,-11.2928,-52.5249,Q,Q
2023-03-15 12:55:50:663,0,-1.63529,-11.3788,-52.3278,Q,Q
2023-03-15 12:55:50:673,0,-1.80887,-11.4508,-52.0784,Q,Q
2023-03-15 12:55:50:683,0,-1.97485,-11.5115,-51.7667,Q,Q
2023-03-15 12:55:50:693,0,-2.13584,-11.5649,-51.3758,Q,Q
2023-03-15 12:55:50:703,0,-2.28479,-11.6065,-50.8934,Q,Q
2023-03-15 12:55:50:713,0,-2.42928,-11.6437,-50.3153,Q,Q
2023-03-15 12:55:50:723,0,-2.57825,-11.675,-49.625,Q,Q
2023-03-15 12:55:50:733,0,-2.73014,-11.6939,-48.8183,Q,Q
2023-03-15 12:55:50:743,0,-2.87653,-11.6952,-47.8912,Q,Q
2023-03-15 12:55:50:753,0,-3.02395,-11.6817,-46.8407,Q,Q
2023-03-15 12:55:50:763,0,-3.16324,-11.6484,-45.6783,Q,Q
2023-03-15 12:55:50:773,0,-3.2984,-11.589,-44.4152,Q,Q
2023-03-15 12:55:50:783,0,-3.43692,-11.5027,-43.0539,Q,Q
2023-03-15 12:55:50:793,0,-3.58621,-11.3881,-41.6057,Q,Q
2023-03-15 12:55:50:803,0,-3.74915,-11.253,-40.082,Q,Q
2023-03-15 12:55:50:813,0,-3.91539,-11.0936,-38.4949,Q,Q
2023-03-15 12:55:50:823,0,-4.08382,-10.9135,-36.8561,Q,Q
2023-03-15 12:55:50:833,0,-4.2529,-10.7115,-35.1705,Q,Q
2023-03-15 12:55:50:843,0,-4.41787,-10.4869,-33.4517,Q,Q
2023-03-15 12:55:50:853,0,-4.58932,-10.2393,-31.7258,Q,Q
2023-03-15 12:55:50:863,0,-4.76568,-9.97687,-30.0168,Q,Q
2023-03-15 12:55:50:873,0,-4.94731,-9.70623,-28.3511,Q,Q
2023-03-15 12:55:50:883,0,-5.11948,-9.42259,-26.7502,Q,Q
2023-03-15 12:55:50:893,0,-5.28375,-9.1339,-25.2269,Q,Q
2023-03-15 12:55:50:903,0,-5.42444,-8.84404,-23.7869,Q,Q
2023-03-15 12:55:50:913,0,-5.5378,-8.566,-22.4331,Q,Q
2023-03-15 12:55:50:923,0,-5.61917,-8.29334,-21.1596,Q,Q
2023-03-15 12:55:50:933,0,-5.67446,-8.0327,-19.9831,Q,Q
2023-03-15 12:55:50:943,0,-5.70449,-7.78811,-18.8886,Q,Q
2023-03-15 12:55:50:953,0,-5.70909,-7.55507,-17.8817,Q,Q
2023-03-15 12:55:50:962,0,-5.69314,-7.33929,-16.9592,Q,Q
2023-03-15 12:55:50:972,0,-5.65514,-7.13849,-16.1281,Q,Q
2023-03-15 12:55:50:983,0,-5.59572,-6.95418,-15.3889,Q,Q
2023-03-15 12:55:50:993,0,-5.51927,-6.78494,-14.7356,Q,Q
2023-03-15 12:55:51:3,0,-5.43463,-6.63037,-14.1675,Q,Q
2023-03-15 12:55:51:13,0,-5.34078,-6.48861,-13.6802,Q,Q
2023-03-15 12:55:51:23,0,-5.23974,-6.36973,-13.2661,Q,Q
2023-03-15 12:55:51:33,0,-5.13044,-6.27419,-12.9206,Q,Q
2023-03-15 12:55:51:43,0,-5.02249,-6.19546,-12.6342,Q,Q
2023-03-15 12:55:51:53,0,-4.91499,-6.13675,-12.4046,Q,Q
2023-03-15 12:55:51:63,0,-4.81085,-6.09747,-12.22,Q,Q
2023-03-15 12:55:51:73,0,-4.71171,-6.0798,-12.0754,Q,Q
2023-03-15 12:55:51:83,0,-4.61582,-6.07457,-11.9608,Q,Q
2023-03-15 12:55:51:93,0,-4.53792,-6.08056,-11.875,Q,Q
2023-03-15 12:55:51:103,0,-4.4732,-6.09865,-11.8142,Q,Q
2023-03-15 12:55:51:113,0,-4.42206,-6.1256,-11.7748,Q,Q
2023-03-15 12:55:51:123,0,-4.38111,-6.15939,-11.7498,Q,Q
2023-03-15 12:55:51:133,0,-4.35408,-6.20779,-11.7354,Q,Q
2023-03-15 12:55:51:143,0,-4.33892,-6.27023,-11.7203,Q,Q
2023-03-15 12:55:51:153,0,-4.32521,-6.34936,-11.7048,Q,Q
2023-03-15 12:55:51:163,0,-4.31872,-6.44109,-11.6901,Q,Q
2023-03-15 12:55:51:173,0,-4.31292,-6.54818,-11.6688,Q,Q
2023-03-15 12:55:51:183,0,-4.30443,-6.66859,-11.6427,Q,Q
2023-03-15 12:55:51:193,0,-4.29183,-6.79239,-11.6134,Q,Q
2023-03-15 12:55:51:203,0,-4.27721,-6.92197,-11.5725,Q,Q
2023-03-15 12:55:51:213,0,-4.26047,-7.05103,-11.5187,Q,Q
2023-03-15 12:55:51:223,0,-4.24436,-7.1752,-11.4557,Q,Q
2023-03-15 12:55:51:233,0,-4.23074,-7.29143,-11.3874,Q,Q
2023-03-15 12:55:51:243,0,-4.22219,-7.39351,-11.3168,Q,Q
2023-03-15 12:55:51:253,0,-4.22247,-7.48472,-11.2473,Q,Q
2023-03-15 12:55:51:263,0,-4.23417,-7.55947,-11.1795,Q,Q
2023-03-15 12:55:51:273,0,-4.24891,-7.6219,-11.1138,Q,Q
2023-03-15 12:55:51:283,0,-4.26407,-7.6666,-11.0487,Q,Q
2023-03-15 12:55:51:293,0,-4.27822,-7.70672,-10.9936,Q,Q
2023-03-15 12:55:51:303,0,-4.29191,-7.74339,-10.9368,Q,Q
2023-03-15 12:55:51:313,0,-4.30787,-7.77791,-10.8846,Q,Q
2023-03-15 12:55:51:323,0,-4.32464,-7.81195,-10.8365,Q,Q
2023-03-15 12:55:51:333,0,-4.34347,-7.83858,-10.7979,Q,Q
2023-03-15 12:55:51:343,0,-4.35904,-7.86486,-10.7656,Q,Q
2023-03-15 12:55:51:353,0,-4.37427,-7.88383,-10.741,Q,Q
2023-03-15 12:55:51:363,0,-4.39625,-7.89428,-10.726,Q,Q
2023-03-15 12:55:51:373,0,-4.41888,-7.90002,-10.7154,Q,Q
2023-03-15 12:55:51:383,0,-4.44004,-7.89808,-10.708,Q,Q
2023-03-15 12:55:51:393,0,-4.46411,-7.89006,-10.7036,Q,Q
2023-03-15 12:55:51:403,0,-4.4901,-7.87842,-10.6968,Q,Q
2023-03-15 12:55:51:413,0,-4.51461,-7.86537,-10.6911,Q,Q
2023-03-15 12:55:51:423,0,-4.54165,-7.84963,-10.6817,Q,Q
2023-03-15 12:55:51:433,0,-4.57141,-7.83155,-10.6714,Q,Q
2023-03-15 12:55:51:443,0,-4.59677,-7.81085,-10.6634,Q,Q
2023-03-15 12:55:51:453,0,-4.62235,-7.78768,-10.6588,Q,Q
2023-03-15 12:55:51:463,0,-4.64544,-7.7589,-10.6556,Q,Q
2023-03-15 12:55:51:473,0,-4.6626,-7.72498,-10.6486,Q,Q
2023-03-15 12:55:51:483,0,-4.67226,-7.68537,-10.6423,Q,Q
2023-03-15 12:55:51:493,0,-4.68419,-7.63958,-10.6363,Q,Q
2023-03-15 12:55:51:503,0,-4.70033,-7.58971,-10.6305,Q,Q
2023-03-15 12:55:51:513,0,-4.71506,-7.53367,-10.6221,Q,Q
2023-03-15 12:55:51:523,0,-4.72827,-7.48142,-10.6138,Q,Q
2023-03-15 12:55:51:533,0,-4.73615,-7.42815,-10.6007,Q,Q
2023-03-15 12:55:51:543,0,-4.73093,-7.3788,-10.5842,Q,Q
2023-03-15 12:55:51:553,0,-4.7123,-7.32829,-10.5649,Q,Q
2023-03-15 12:55:51:563,0,-4.68348,-7.27784,-10.5413,Q,Q
2023-03-15 12:55:51:573,0,-4.64728,-7.22492,-10.5126,Q,Q
2023-03-15 12:55:51:583,0,-4.61382,-7.17151,-10.4804,Q,Q
2023-03-15 12:55:51:593,0,-4.58225,-7.11753,-10.4469,Q,Q
2023-03-15 12:55:51:603,0,-4.56161,-7.06744,-10.408,Q,Q
2023-03-15 12:55:51:613,0,-4.55349,-7.01925,-10.3662,Q,Q
2023-03-15 12:55:51:623,0,-4.55922,-6.97523,-10.3204,Q,Q
2023-03-15 12:55:51:633,0,-4.57195,-6.9371,-10.2782,Q,Q
2023-03-15 12:55:51:643,0,-4.58596,-6.90132,-10.2339,Q,Q
2023-03-15 12:55:51:653,0,-4.60106,-6.86912,-10.1934,Q,Q
2023-03-15 12:55:51:663,0,-4.6142,-6.84078,-10.1537,Q,Q
2023-03-15 12:55:51:673,0,-4.62632,-6.81286,-10.1132,Q,Q
2023-03-15 12:55:51:683,0,-4.63095,-6.791,-10.0734,Q,Q
2023-03-15 12:55:51:693,0,-4.63023,-6.76925,-10.0354,Q,Q
2023-03-15 12:55:51:703,0,-4.63137,-6.75295,-9.98715,Q,Q
2023-03-15 12:55:51:713,0,-4.6302,-6.7414,-9.93819,Q,Q
2023-03-15 12:55:51:723,0,-4.62966,-6.73645,-9.88363,Q,Q
2023-03-15 12:55:51:733,0,-4.62074,-6.73389,-9.82625,Q,Q
2023-03-15 12:55:51:743,0,-4.61042,-6.73756,-9.76204,Q,Q
2023-03-15 12:55:51:753,0,-4.60049,-6.74876,-9.69155,Q,Q
2023-03-15 12:55:51:763,0,-4.59661,-6.75546,-9.62089,Q,Q
2023-03-15 12:55:51:773,0,-4.59994,-6.76836,-9.54963,Q,Q
2023-03-15 12:55:51:783,0,-4.60446,-6.7754,-9.47736,Q,Q
2023-03-15 12:55:51:793,0,-4.60684,-6.78487,-9.40197,Q,Q
2023-03-15 12:55:51:803,0,-4.61494,-6.79812,-9.32397,Q,Q
2023-03-15 12:55:51:813,0,-4.62975,-6.81173,-9.2426,Q,Q
2023-03-15 12:55:51:823,0,-4.64237,-6.82192,-9.15767,Q,Q
2023-03-15 12:55:51:833,0,-4.65119,-6.83599,-9.07437,Q,Q
2023-03-15 12:55:51:843,0,-4.65952,-6.85025,-8.9872,Q,Q
2023-03-15 12:55:51:853,0,-4.66723,-6.85659,-8.90063,Q,Q
2023-03-15 12:55:51:863,0,-4.67323,-6.8629,-8.81696,Q,Q
2023-03-15 12:55:51:873,0,-4.68142,-6.8671,-8.73158,Q,Q
2023-03-15 12:55:51:883,0,-4.688,-6.86925,-8.64493,Q,Q
2023-03-15 12:55:51:893,0,-4.6973,-6.87114,-8.55693,Q,Q
2023-03-15 12:55:51:903,0,-4.70811,-6.87094,-8.46979,Q,Q
2023-03-15 12:55:51:913,0,-4.72211,-6.87303,-8.37737,Q,Q
2023-03-15 12:55:51:923,0,-4.74077,-6.87847,-8.27435,Q,Q
2023-03-15 12:55:51:933,0,-4.76622,-6.88852,-8.16113,Q,Q
2023-03-15 12:55:51:943,0,-4.79625,-6.89845,-8.03794,Q,Q
2023-03-15 12:55:51:953,0,-4.83368,-6.91506,-7.8964,Q,Q
2023-03-15 12:55:51:963,0,-4.87896,-6.92785,-7.74225,Q,Q
2023-03-15 12:55:51:973,0,-4.94115,-6.94207,-7.5745,Q,Q
2023-03-15 12:55:51:983,0,-5.01713,-6.95408,-7.39406,Q,Q
2023-03-15 12:55:51:993,0,-5.10695,-6.95801,-7.20294,Q,Q
2023-03-15 12:55:52:3,0,-5.20862,-6.9616,-7.00251,Q,Q
2023-03-15 12:55:52:13,0,-5.31616,-6.96428,-6.79532,Q,Q
2023-03-15 12:55:52:23,0,-5.4324,-6.96387,-6.58159,Q,Q
2023-03-15 12:55:52:33,0,-5.5447,-6.96011,-6.3673,Q,Q
2023-03-15 12:55:52:43,0,-5.65067,-6.95588,-6.15355,Q,Q
2023-03-15 12:55:52:53,0,-5.74136,-6.94066,-5.94351,Q,Q
2023-03-15 12:55:52:63,0,-5.82531,-6.92994,-5.73612,Q,Q
2023-03-15 12:55:52:73,0,-5.90109,-6.9221,-5.53444,Q,Q
2023-03-15 12:55:52:83,0,-5.96975,-6.91418,-5.33813,Q,Q
2023-03-15 12:55:52:93,0,-6.03624,-6.90418,-5.14811,Q,Q
2023-03-15 12:55:52:103,0,-6.09918,-6.89753,-4.96676,Q,Q
2023-03-15 12:55:52:113,0,-6.1556,-6.89399,-4.79968,Q,Q
2023-03-15 12:55:52:122,0,-6.19965,-6.88884,-4.64566,Q,Q
2023-03-15 12:55:52:133,0,-6.23801,-6.88835,-4.49942,Q,Q
2023-03-15 12:55:52:143,0,-6.27088,-6.88631,-4.36831,Q,Q
2023-03-15 12:55:52:153,0,-6.30243,-6.88566,-4.24506,Q,Q
2023-03-15 12:55:52:163,0,-6.32703,-6.88338,-4.13173,Q,Q
2023-03-15 12:55:52:173,0,-6.35173,-6.88224,-4.0281,Q,Q
2023-03-15 12:55:52:183,0,-6.37462,-6.87918,-3.93757,Q,Q
2023-03-15 12:55:52:193,0,-6.39497,-6.87403,-3.85489,Q,Q
2023-03-15 12:55:52:203,0,-6.41709,-6.86503,-3.78433,Q,Q
2023-03-15 12:55:52:213,0,-6.43985,-6.85643,-3.72407,Q,Q
2023-03-15 12:55:52:223,0,-6.46243,-6.84843,-3.67538,Q,Q
2023-03-15 12:55:52:233,0,-6.48068,-6.8382,-3.63766,Q,Q
2023-03-15 12:55:52:243,0,-6.4896,-6.82712,-3.61382,Q,Q
2023-03-15 12:55:52:253,0,-6.49101,-6.81133,-3.59858,Q,Q
2023-03-15 12:55:52:263,0,-6.48118,-6.79995,-3.59631,Q,Q
2023-03-15 12:55:52:273,0,-6.4636,-6.78307,-3.60557,Q,Q
2023-03-15 12:55:52:283,0,-6.43452,-6.76884,-3.62342,Q,Q
2023-03-15 12:55:52:293,0,-6.39687,-6.75285,-3.64692,Q,Q
2023-03-15 12:55:52:303,0,-6.35325,-6.73902,-3.68206,Q,Q
2023-03-15 12:55:52:313,0,-6.3056,-6.7198,-3.7228,Q,Q
2023-03-15 12:55:52:323,0,-6.25799,-6.70084,-3.76787,Q,Q
2023-03-15 12:55:52:333,0,-6.21458,-6.68824,-3.81973,Q,Q
2023-03-15 12:55:52:343,0,-6.16663,-6.67562,-3.87387,Q,Q
2023-03-15 12:55:52:353,0,-6.11451,-6.67064,-3.93138,Q,Q
2023-03-15 12:55:52:363,0,-6.06029,-6.66862,-3.99226,Q,Q
2023-03-15 12:55:52:373,0,-6.00982,-6.66457,-4.05781,Q,Q
2023-03-15 12:55:52:383,0,-5.9608,-6.66363,-4.12406,Q,Q
2023-03-15 12:55:52:393,0,-5.91211,-6.66499,-4.18996,Q,Q
2023-03-15 12:55:52:403,0,-5.86709,-6.66219,-4.25076,Q,Q
2023-03-15 12:55:52:413,0,-5.82331,-6.66599,-4.3085,Q,Q
2023-03-15 12:55:52:423,0,-5.78458,-6.671,-4.36274,Q,Q
2023-03-15 12:55:52:433,0,-5.74836,-6.6796,-4.41618,Q,Q
2023-03-15 12:55:52:443,0,-5.72315,-6.68613,-4.46655,Q,Q
2023-03-15 12:55:52:453,0,-5.70456,-6.69205,-4.50995,Q,Q
2023-03-15 12:55:52:463,0,-5.68954,-6.69792,-4.55127,Q,Q
2023-03-15 12:55:52:473,0,-5.68387,-6.70534,-4.58392,Q,Q
2023-03-15 12:55:52:483,0,-5.68592,-6.71032,-4.6148,Q,Q
2023-03-15 12:55:52:493,0,-5.68632,-6.71652,-4.64037,Q,Q
2023-03-15 12:55:52:503,0,-5.69026,-6.71875,-4.66337,Q,Q
2023-03-15 12:55:52:513,0,-5.6948,-6.72031,-4.6817,Q,Q
2023-03-15 12:55:52:523,0,-5.6979,-6.72411,-4.70198,Q,Q
2023-03-15 12:55:52:533,0,-5.69905,-6.73124,-4.71599,Q,Q
2023-03-15 12:55:52:543,0,-5.69655,-6.73376,-4.72605,Q,Q
2023-03-15 12:55:52:553,0,-5.69699,-6.73841,-4.73506,Q,Q
2023-03-15 12:55:52:563,0,-5.68965,-6.73829,-4.74335,Q,Q
2023-03-15 12:55:52:573,0,-5.6876,-6.7387,-4.75298,Q,Q
2023-03-15 12:55:52:583,0,-5.68748,-6.74072,-4.7634,Q,Q
2023-03-15 12:55:52:593,0,-5.68518,-6.74257,-4.77638,Q,Q
2023-03-15 12:55:52:603,0,-5.68348,-6.74819,-4.80331,Q,Q
2023-03-15 12:55:52:613,0,-5.68275,-6.75597,-4.84309,Q,Q
2023-03-15 12:55:52:623,0,-5.67886,-6.76073,-4.89523,Q,Q
2023-03-15 12:55:52:633,0,-5.67387,-6.76944,-4.9627,Q,Q
2023-03-15 12:55:52:643,0,-5.66658,-6.77556,-5.04702,Q,Q
2023-03-15 12:55:52:653,0,-5.65957,-6.78935,-5.1598,Q,Q
2023-03-15 12:55:52:663,0,-5.65076,-6.80171,-5.30495,Q,Q
2023-03-15 12:55:52:673,0,-5.64401,-6.82082,-5.49487,Q,Q
2023-03-15 12:55:52:683,0,-5.63704,-6.84814,-5.7426,Q,Q
2023-03-15 12:55:52:693,0,-5.61932,-6.88597,-6.0619,Q,Q
2023-03-15 12:55:52:703,0,-5.58096,-6.93389,-6.47541,Q,Q
2023-03-15 12:55:52:713,0,-5.52159,-6.99007,-7.0026,Q,Q
2023-03-15 12:55:52:723,0,-5.43714,-7.05479,-7.66535,Q,Q
2023-03-15 12:55:52:733,0,-5.3241,-7.12123,-8.48586,Q,Q
2023-03-15 12:55:52:743,0,-5.18224,-7.18696,-9.45494,Q,Q
2023-03-15 12:55:52:753,0,-5.00768,-7.26298,-10.5504,Q,Q
2023-03-15 12:55:52:763,0,-4.80168,-7.36258,-11.7353,Q,Q
2023-03-15 12:55:52:773,0,-4.5677,-7.48533,-12.9967,Q,Q
2023-03-15 12:55:52:783,0,-4.31017,-7.62995,-14.3131,Q,Q
2023-03-15 12:55:52:793,0,-4.03679,-7.78198,-15.6684,Q,Q
2023-03-15 12:55:52:803,0,-3.74172,-7.93566,-17.0469,Q,Q
2023-03-15 12:55:52:813,0,-3.43373,-8.08334,-18.4217,Q,Q
2023-03-15 12:55:52:823,0,-3.1214,-8.22829,-19.7788,Q,Q
2023-03-15 12:55:52:833,0,-2.81313,-8.35746,-21.0978,Q,Q
2023-03-15 12:55:52:843,0,-2.51566,-8.46445,-22.3773,Q,Q
2023-03-15 12:55:52:853,0,-2.23256,-8.54866,-23.6153,Q,Q
2023-03-15 12:55:52:863,0,-1.95883,-8.6037,-24.8107,Q,Q
2023-03-15 12:55:52:873,0,-1.70419,-8.63119,-25.9512,Q,Q
2023-03-15 12:55:52:883,0,-1.4658,-8.63429,-27.0271,Q,Q
2023-03-15 12:55:52:893,0,-1.24681,-8.61325,-28.0355,Q,Q
2023-03-15 12:55:52:903,0,-1.05246,-8.57268,-28.9821,Q,Q
2023-03-15 12:55:52:913,0,-0.868097,-8.50563,-29.8726,Q,Q
2023-03-15 12:55:52:923,0,-0.697529,-8.41649,-30.7001,Q,Q
2023-03-15 12:55:52:933,0,-0.537993,-8.30543,-31.4653,Q,Q
2023-03-15 12:55:52:943,0,-0.381229,-8.16407,-32.1767,Q,Q
2023-03-15 12:55:52:953,0,-0.238532,-8.0048,-32.8374,Q,Q
2023-03-15 12:55:52:963,0,-0.108282,-7.81924,-33.452,Q,Q
2023-03-15 12:55:52:973,0,0.0164613,-7.60235,-34.022,Q,Q
2023-03-15 12:55:52:983,0,0.138648,-7.36297,-34.5544,Q,Q
2023-03-15 12:55:52:993,0,0.252618,-7.10659,-35.0394,Q,Q
2023-03-15 12:55:53:3,0,0.361962,-6.83462,-35.485,Q,Q
2023-03-15 12:55:53:13,0,0.472956,-6.55418,-35.8852,Q,Q
2023-03-15 12:55:53:23,0,0.579043,-6.27707,-36.2312,Q,Q
2023-03-15 12:55:53:33,0,0.678228,-5.99877,-36.5229,Q,Q
2023-03-15 12:55:53:43,0,0.772484,-5.7317,-36.7663,Q,Q
2023-03-15 12:55:53:53,0,0.85527,-5.47392,-36.9553,Q,Q
2023-03-15 12:55:53:63,0,0.921367,-5.2237,-37.1001,Q,Q
2023-03-15 12:55:53:73,0,0.977319,-4.98157,-37.2006,Q,Q
2023-03-15 12:55:53:83,0,1.01845,-4.75211,-37.2625,Q,Q
2023-03-15 12:55:53:93,0,1.04727,-4.53209,-37.2869,Q,Q
2023-03-15 12:55:53:103,0,1.06998,-4.3241,-37.2725,Q,Q
2023-03-15 12:55:53:113,0,1.0876,-4.12582,-37.2225,Q,Q
2023-03-15 12:55:53:123,0,1.09328,-3.94311,-37.1407,Q,Q
2023-03-15 12:55:53:133,0,1.09077,-3.77172,-37.0326,Q,Q
2023-03-15 12:55:53:143,0,1.08444,-3.61609,-36.9034,Q,Q
2023-03-15 12:55:53:153,0,1.06916,-3.46603,-36.7526,Q,Q
2023-03-15 12:55:53:163,0,1.04953,-3.3249,-36.5913,Q,Q
2023-03-15 12:55:53:173,0,1.02191,-3.19388,-36.421,Q,Q
2023-03-15 12:55:53:183,0,0.992805,-3.06783,-36.2445,Q,Q
2023-03-15 12:55:53:193,0,0.958075,-2.94698,-36.0665,Q,Q
2023-03-15 12:55:53:203,0,0.920334,-2.83713,-35.886,Q,Q
2023-03-15 12:55:53:213,0,0.881977,-2.73528,-35.707,Q,Q
2023-03-15 12:55:53:223,0,0.843177,-2.64311,-35.5322,Q,Q
2023-03-15 12:55:53:233,0,0.802459,-2.55982,-35.3646,Q,Q
2023-03-15 12:55:53:243,0,0.759556,-2.48766,-35.2024,Q,Q
2023-03-15 12:55:53:253,0,0.719104,-2.42438,-35.0442,Q,Q
2023-03-15 12:55:53:263,0,0.675362,-2.37068,-34.892,Q,Q
2023-03-15 12:55:53:273,0,0.637937,-2.32716,-34.7448,Q,Q
2023-03-15 12:55:53:283,0,0.612017,-2.29599,-34.5971,Q,Q
2023-03-15 12:55:53:293,0,0.589969,-2.27828,-34.4461,Q,Q
2023-03-15 12:55:53:303,0,0.575083,-2.26387,-34.2941,Q,Q
2023-03-15 12:55:53:313,0,0.561062,-2.2539,-34.146,Q,Q
2023-03-15 12:55:53:323,0,0.545603,-2.24067,-33.9896,Q,Q
2023-03-15 12:55:53:333,0,0.531375,-2.23103,-33.8313,Q,Q
2023-03-15 12:55:53:343,0,0.515553,-2.21912,-33.6715,Q,Q
2023-03-15 12:55:53:353,0,0.495164,-2.21005,-33.5032,Q,Q
2023-03-15 12:55:53:363,0,0.475518,-2.20524,-33.3208,Q,Q
2023-03-15 12:55:53:373,0,0.454231,-2.20313,-33.1304,Q,Q
2023-03-15 12:55:53:383,0,0.427646,-2.1998,-32.9338,Q,Q
2023-03-15 12:55:53:393,0,0.39961,-2.20047,-32.7234,Q,Q
2023-03-15 12:55:53:403,0,0.372549,-2.20523,-32.5051,Q,Q
2023-03-15 12:55:53:413,0,0.349011,-2.21755,-32.2805,Q,Q
2023-03-15 12:55:53:423,0,0.330807,-2.22291,-32.0433,Q,Q
2023-03-15 12:55:53:433,0,0.31779,-2.22891,-31.7973,Q,Q
2023-03-15 12:55:53:443,0,0.301087,-2.23097,-31.5447,Q,Q
2023-03-15 12:55:53:453,0,0.28327,-2.23451,-31.2843,Q,Q
2023-03-15 12:55:53:463,0,0.257508,-2.23313,-31.0138,Q,Q
2023-03-15 12:55:53:473,0,0.224686,-2.23307,-30.7417,Q,Q
2023-03-15 12:55:53:483,0,0.189911,-2.23703,-30.4773,Q,Q
2023-03-15 12:55:53:493,0,0.153507,-2.24103,-30.2228,Q,Q
2023-03-15 12:55:53:503,0,0.120342,-2.2459,-29.9894,Q,Q
2023-03-15 12:55:53:513,0,0.0930275,-2.24772,-29.773,Q,Q
2023-03-15 12:55:53:523,0,0.077074,-2.25454,-29.5746,Q,Q
2023-03-15 12:55:53:533,0,0.0650893,-2.26234,-29.3991,Q,Q
2023-03-15 12:55:53:543,0,0.054599,-2.27627,-29.2463,Q,Q
2023-03-15 12:55:53:553,0,0.0432861,-2.2907,-29.1207,Q,Q
2023-03-15 12:55:53:563,0,0.035673,-2.30562,-29.0224,Q,Q
2023-03-15 12:55:53:573,0,0.0304277,-2.32644,-28.948,Q,Q
2023-03-15 12:55:53:583,0,0.0233765,-2.35049,-28.8924,Q,Q
2023-03-15 12:55:53:593,0,0.0159756,-2.37694,-28.8644,Q,Q
2023-03-15 12:55:53:603,0,0.0180596,-2.40233,-28.8644,Q,Q
2023-03-15 12:55:53:613,0,0.0261523,-2.42504,-28.8809,Q,Q
2023-03-15 12:55:53:623,0,0.0406932,-2.4442,-28.9075,Q,Q
2023-03-15 12:55:53:633,0,0.0574958,-2.46103,-28.9536,Q,Q
2023-03-15 12:55:53:643,0,0.0790947,-2.47434,-29.0061,Q,Q
2023-03-15 12:55:53:653,0,0.0982145,-2.48351,-29.0673,Q,Q
2023-03-15 12:55:53:663,0,0.11716,-2.49228,-29.1329,Q,Q
2023-03-15 12:55:53:673,0,0.127768,-2.49751,-29.2038,Q,Q
2023-03-15 12:55:53:683,0,0.130885,-2.50101,-29.2682,Q,Q
2023-03-15 12:55:53:693,0,0.12606,-2.50205,-29.3308,Q,Q
2023-03-15 12:55:53:703,0,0.118282,-2.50421,-29.3907,Q,Q
2023-03-15 12:55:53:713,0,0.109684,-2.49916,-29.4418,Q,Q
2023-03-15 12:55:53:723,0,0.0990068,-2.49725,-29.4842,Q,Q
2023-03-15 12:55:53:733,0,0.0862183,-2.49362,-29.5175,Q,Q
2023-03-15 12:55:53:743,0,0.0680006,-2.48915,-29.5374,Q,Q
2023-03-15 12:55:53:753,0,0.0526747,-2.48597,-29.5413,Q,Q
2023-03-15 12:55:53:763,0,0.0360144,-2.48398,-29.5261,Q,Q
2023-03-15 12:55:53:773,0,0.0173137,-2.48757,-29.4858,Q,Q
2023-03-15 12:55:53:783,0,-0.00137104,-2.49914,-29.4299,Q,Q
2023-03-15 12:55:53:793,0,-0.0236897,-2.51684,-29.356,Q,Q
2023-03-15 12:55:53:803,0,-0.0503748,-2.53279,-29.2637,Q,Q
2023-03-15 12:55:53:813,0,-0.0837134,-2.55291,-29.1521,Q,Q
2023-03-15 12:55:53:823,0,-0.122408,-2.57227,-29.0253,Q,Q
2023-03-15 12:55:53:833,0,-0.162184,-2.59413,-28.8793,Q,Q
2023-03-15 12:55:53:843,0,-0.202804,-2.61839,-28.7183,Q,Q
2023-03-15 12:55:53:853,0,-0.238049,-2.64191,-28.5393,Q,Q
2023-03-15 12:55:53:863,0,-0.277443,-2.66747,-28.3441,Q,Q
2023-03-15 12:55:53:873,0,-0.316983,-2.68893,-28.1389,Q,Q
2023-03-15 12:55:53:883,0,-0.355113,-2.71147,-27.9252,Q,Q
2023-03-15 12:55:53:893,0,-0.393787,-2.73416,-27.7074,Q,Q
2023-03-15 12:55:53:903,0,-0.42551,-2.75887,-27.4781,Q,Q
2023-03-15 12:55:53:913,0,-0.454,-2.78891,-27.2405,Q,Q
2023-03-15 12:55:53:923,0,-0.478587,-2.82246,-26.9971,Q,Q
2023-03-15 12:55:53:933,0,-0.505378,-2.86266,-26.7475,Q,Q
2023-03-15 12:55:53:943,0,-0.534292,-2.91054,-26.4954,Q,Q
2023-03-15 12:55:53:953,0,-0.560814,-2.9613,-26.2437,Q,Q
2023-03-15 12:55:53:963,0,-0.58682,-3.00942,-25.9969,Q,Q
2023-03-15 12:55:53:973,0,-0.616426,-3.05083,-25.7524,Q,Q
2023-03-15 12:55:53:983,0,-0.645116,-3.09329,-25.5075,Q,Q
2023-03-15 12:55:53:993,0,-0.671687,-3.13641,-25.2612,Q,Q
2023-03-15 12:55:54:3,0,-0.700923,-3.18025,-25.0156,Q,Q
2023-03-15 12:55:54:13,0,-0.727111,-3.22476,-24.7689,Q,Q
2023-03-15 12:55:54:23,0,-0.754985,-3.26606,-24.5256,Q,Q
2023-03-15 12:55:54:33,0,-0.779994,-3.30142,-24.2815,Q,Q
2023-03-15 12:55:54:43,0,-0.802206,-3.3346,-24.0462,Q,Q
2023-03-15 12:55:54:53,0,-0.826773,-3.3653,-23.8161,Q,Q
2023-03-15 12:55:54:63,0,-0.851007,-3.39095,-23.5862,Q,Q
2023-03-15 12:55:54:73,0,-0.872134,-3.41328,-23.3661,Q,Q
2023-03-15 12:55:54:83,0,-0.893865,-3.43064,-23.1488,Q,Q
2023-03-15 12:55:54:93,0,-0.908111,-3.44159,-22.9406,Q,Q
2023-03-15 12:55:54:103,0,-0.923222,-3.4563,-22.7409,Q,Q
2023-03-15 12:55:54:113,0,-0.938083,-3.46467,-22.5471,Q,Q
2023-03-15 12:55:54:123,0,-0.953406,-3.47623,-22.3636,Q,Q
2023-03-15 12:55:54:133,0,-0.970837,-3.4859,-22.1888,Q,Q
2023-03-15 12:55:54:143,0,-0.988964,-3.49193,-22.0296,Q,Q
2023-03-15 12:55:54:153,0,-1.00749,-3.50186,-21.8792,Q,Q
2023-03-15 12:55:54:163,0,-1.02638,-3.51038,-21.7438,Q,Q
2023-03-15 12:55:54:173,0,-1.04074,-3.51771,-21.6237,Q,Q
2023-03-15 12:55:54:183,0,-1.05856,-3.52974,-21.5117,Q,Q
2023-03-15 12:55:54:193,0,-1.06663,-3.54355,-21.408,Q,Q
2023-03-15 12:55:54:203,0,-1.08221,-3.5627,-21.317,Q,Q
2023-03-15 12:55:54:213,0,-1.09454,-3.5877,-21.2376,Q,Q
2023-03-15 12:55:54:223,0,-1.10814,-3.61806,-21.1664,Q,Q
2023-03-15 12:55:54:233,0,-1.12481,-3.64829,-21.1079,Q,Q
2023-03-15 12:55:54:243,0,-1.14733,-3.67621,-21.0568,Q,Q
2023-03-15 12:55:54:253,0,-1.16674,-3.70575,-21.0106,Q,Q
2023-03-15 12:55:54:263,0,-1.18601,-3.73272,-20.9712,Q,Q
2023-03-15 12:55:54:273,0,-1.20428,-3.75818,-20.9336,Q,Q
2023-03-15 12:55:54:283,0,-1.22613,-3.78664,-20.8983,Q,Q
2023-03-15 12:55:54:293,0,-1.2384,-3.81043,-20.8665,Q,Q
2023-03-15 12:55:54:303,0,-1.2499,-3.83537,-20.8362,Q,Q
2023-03-15 12:55:54:312,0,-1.25681,-3.85512,-20.8089,Q,Q
2023-03-15 12:55:54:323,0,-1.26229,-3.87308,-20.7824,Q,Q
2023-03-15 12:55:54:333,0,-1.26527,-3.88678,-20.7573,Q,Q
2023-03-15 12:55:54:343,0,-1.26701,-3.89954,-20.726,Q,Q
2023-03-15 12:55:54:353,0,-1.26594,-3.90471,-20.6953,Q,Q
2023-03-15 12:55:54:363,0,-1.2609,-3.90865,-20.6603,Q,Q
2023-03-15 12:55:54:373,0,-1.25862,-3.91938,-20.623,Q,Q
2023-03-15 12:55:54:383,0,-1.25944,-3.93172,-20.5848,Q,Q
2023-03-15 12:55:54:393,0,-1.26056,-3.94297,-20.5445,Q,Q
2023-03-15 12:55:54:403,0,-1.26716,-3.95459,-20.5037,Q,Q
2023-03-15 12:55:54:413,0,-1.27277,-3.9631,-20.4629,Q,Q
2023-03-15 12:55:54:423,0,-1.27838,-3.96979,-20.4173,Q,Q
2023-03-15 12:55:54:433,0,-1.28327,-3.97891,-20.371,Q,Q
2023-03-15 12:55:54:443,0,-1.28531,-3.98985,-20.3254,Q,Q
2023-03-15 12:55:54:453,0,-1.2882,-4.00221,-20.2802,Q,Q
2023-03-15 12:55:54:463,0,-1.29191,-4.01315,-20.2348,Q,Q
2023-03-15 12:55:54:473,0,-1.29092,-4.02314,-20.1872,Q,Q
2023-03-15 12:55:54:483,0,-1.29146,-4.03573,-20.1411,Q,Q
2023-03-15 12:55:54:493,0,-1.29309,-4.05198,-20.0934,Q,Q
2023-03-15 12:55:54:503,0,-1.29582,-4.06489,-20.0464,Q,Q
2023-03-15 12:55:54:513,0,-1.29677,-4.07936,-20.0006,Q,Q
2023-03-15 12:55:54:523,0,-1.29651,-4.0932,-19.9548,Q,Q
2023-03-15 12:55:54:533,0,-1.30079,-4.10643,-19.9139,Q,Q
2023-03-15 12:55:54:543,0,-1.3074,-4.12188,-19.8755,Q,Q
2023-03-15 12:55:54:553,0,-1.31657,-4.13229,-19.8361,Q,Q
2023-03-15 12:55:54:563,0,-1.32457,-4.14691,-19.8006,Q,Q
2023-03-15 12:55:54:573,0,-1.33294,-4.16007,-19.7712,Q,Q
2023-03-15 12:55:54:583,0,-1.3413,-4.17605,-19.7456,Q,Q
2023-03-15 12:55:54:593,0,-1.3499,-4.19008,-19.7219,Q,Q
2023-03-15 12:55:54:603,0,-1.35711,-4.2039,-19.7031,Q,Q
2023-03-15 12:55:54:613,0,-1.3633,-4.21604,-19.6892,Q,Q
2023-03-15 12:55:54:623,0,-1.36732,-4.23048,-19.6782,Q,Q
2023-03-15 12:55:54:633,0,-1.36674,-4.24184,-19.6706,Q,Q
2023-03-15 12:55:54:643,0,-1.36292,-4.25098,-19.664,Q,Q
2023-03-15 12:55:54:653,0,-1.35415,-4.26585,-19.6606,Q,Q
2023-03-15 12:55:54:663,0,-1.34704,-4.27776,-19.6577,Q,Q
2023-03-15 12:55:54:673,0,-1.33697,-4.28908,-19.6569,Q,Q
2023-03-15 12:55:54:683,0,-1.32417,-4.29799,-19.6577,Q,Q
2023-03-15 12:55:54:693,0,-1.31261,-4.30986,-19.6605,Q,Q
2023-03-15 12:55:54:703,0,-1.30708,-4.32174,-19.6628,Q,Q
2023-03-15 12:55:54:713,0,-1.30077,-4.33315,-19.6706,Q,Q
2023-03-15 12:55:54:723,0,-1.29751,-4.34557,-19.6786,Q,Q
2023-03-15 12:55:54:733,0,-1.3001,-4.35546,-19.689,Q,Q
2023-03-15 12:55:54:743,0,-1.29749,-4.36698,-19.6972,Q,Q
2023-03-15 12:55:54:753,0,-1.29936,-4.38081,-19.6994,Q,Q
2023-03-15 12:55:54:763,0,-1.30005,-4.39284,-19.7024,Q,Q
2023-03-15 12:55:54:773,0,-1.30136,-4.40583,-19.7053,Q,Q
2023-03-15 12:55:54:783,0,-1.30165,-4.42186,-19.7082,Q,Q
2023-03-15 12:55:54:793,0,-1.30762,-4.43002,-19.7058,Q,Q
2023-03-15 12:55:54:803,0,-1.31777,-4.43624,-19.7007,Q,Q
2023-03-15 12:55:54:813,0,-1.33121,-4.44293,-19.6958,Q,Q
2023-03-15 12:55:54:823,0,-1.34654,-4.44882,-19.691,Q,Q
2023-03-15 12:55:54:833,0,-1.3626,-4.45511,-19.6813,Q,Q
2023-03-15 12:55:54:842,0,-1.3783,-4.4667,-19.6674,Q,Q
2023-03-15 12:55:54:853,0,-1.3925,-4.47952,-19.6531,Q,Q
2023-03-15 12:55:54:863,0,-1.41017,-4.48752,-19.6411,Q,Q
2023-03-15 12:55:54:873,0,-1.42919,-4.49686,-19.63,Q,Q
2023-03-15 12:55:54:883,0,-1.44415,-4.50209,-19.6197,Q,Q
2023-03-15 12:55:54:893,0,-1.45781,-4.50591,-19.6083,Q,Q
2023-03-15 12:55:54:903,0,-1.47587,-4.51353,-19.597,Q,Q
2023-03-15 12:55:54:913,0,-1.49442,-4.51491,-19.5842,Q,Q
2023-03-15 12:55:54:923,0,-1.5145,-4.51503,-19.5739,Q,Q
2023-03-15 12:55:54:933,0,-1.52989,-4.51244,-19.5619,Q,Q
2023-03-15 12:55:54:943,0,-1.54805,-4.50916,-19.5493,Q,Q
2023-03-15 12:55:54:953,0,-1.57007,-4.50867,-19.5389,Q,Q
2023-03-15 12:55:54:963,0,-1.58514,-4.50452,-19.5299,Q,Q
2023-03-15 12:55:54:973,0,-1.60109,-4.49901,-19.5197,Q,Q
2023-03-15 12:55:54:982,0,-1.61901,-4.49315,-19.5108,Q,Q
2023-03-15 12:55:54:993,0,-1.63567,-4.48888,-19.5017,Q,Q
2023-03-15 12:55:55:3,0,-1.65004,-4.48605,-19.4911,Q,Q
2023-03-15 12:55:55:13,0,-1.66377,-4.48225,-19.4828,Q,Q
2023-03-15 12:55:55:23,0,-1.67159,-4.48116,-19.4745,Q,Q
2023-03-15 12:55:55:33,0,-1.67545,-4.48272,-19.4631,Q,Q
2023-03-15 12:55:55:43,0,-1.67648,-4.48609,-19.4536,Q,Q
2023-03-15 12:55:55:53,0,-1.67344,-4.48874,-19.4433,Q,Q
2023-03-15 12:55:55:63,0,-1.66545,-4.49131,-19.4373,Q,Q
2023-03-15 12:55:55:73,0,-1.66062,-4.49491,-19.4261,Q,Q
2023-03-15 12:55:55:83,0,-1.65485,-4.49322,-19.4131,Q,Q
2023-03-15 12:55:55:93,0,-1.65149,-4.4939,-19.4013,Q,Q
2023-03-15 12:55:55:103,0,-1.6502,-4.49685,-19.3892,Q,Q
2023-03-15 12:55:55:113,0,-1.64803,-4.49999,-19.3743,Q,Q
2023-03-15 12:55:55:123,0,-1.64896,-4.50478,-19.3591,Q,Q
2023-03-15 12:55:55:133,0,-1.65388,-4.50955,-19.3419,Q,Q
2023-03-15 12:55:55:143,0,-1.65945,-4.51252,-19.3277,Q,Q
2023-03-15 12:55:55:153,0,-1.66334,-4.51398,-19.3174,Q,Q
2023-03-15 12:55:55:163,0,-1.66622,-4.51165,-19.3066,Q,Q
2023-03-15 12:55:55:173,0,-1.66947,-4.50497,-19.2948,Q,Q
2023-03-15 12:55:55:183,0,-1.6672,-4.50135,-19.2818,Q,Q
2023-03-15 12:55:55:193,0,-1.6667,-4.50054,-19.2722,Q,Q
2023-03-15 12:55:55:203,0,-1.67056,-4.49578,-19.2623,Q,Q
2023-03-15 12:55:55:213,0,-1.67654,-4.49265,-19.2552,Q,Q
2023-03-15 12:55:55:223,0,-1.68473,-4.49682,-19.2446,Q,Q
2023-03-15 12:55:55:233,0,-1.69447,-4.49859,-19.2371,Q,Q
2023-03-15 12:55:55:243,0,-1.70772,-4.50522,-19.2319,Q,Q
2023-03-15 12:55:55:253,0,-1.71712,-4.50944,-19.2238,Q,Q
2023-03-15 12:55:55:263,0,-1.72772,-4.51103,-19.22,Q,Q
2023-03-15 12:55:55:273,0,-1.73268,-4.51361,-19.2123,Q,Q
2023-03-15 12:55:55:283,0,-1.73882,-4.51718,-19.2007,Q,Q
2023-03-15 12:55:55:293,0,-1.74304,-4.5179,-19.1894,Q,Q
2023-03-15 12:55:55:303,0,-1.7465,-4.51796,-19.1764,Q,Q
2023-03-15 12:55:55:313,0,-1.74693,-4.5174,-19.1642,Q,Q
2023-03-15 12:55:55:323,0,-1.74754,-4.51858,-19.1465,Q,Q
2023-03-15 12:55:55:333,0,-1.75064,-4.51255,-19.1303,Q,Q
2023-03-15 12:55:55:343,0,-1.75511,-4.50645,-19.1158,Q,Q
2023-03-15 12:55:55:353,0,-1.76202,-4.5002,-19.1052,Q,Q
2023-03-15 12:55:55:363,0,-1.77203,-4.49392,-19.0937,Q,Q
2023-03-15 12:55:55:373,0,-1.77463,-4.4841,-19.0826,Q,Q
2023-03-15 12:55:55:383,0,-1.78072,-4.47542,-19.0731,Q,Q
2023-03-15 12:55:55:393,0,-1.7858,-4.46637,-19.0639,Q,Q
2023-03-15 12:55:55:403,0,-1.78998,-4.4595,-19.0603,Q,Q
2023-03-15 12:55:55:413,0,-1.7981,-4.45902,-19.055,Q,Q
2023-03-15 12:55:55:423,0,-1.80666,-4.45816,-19.0516,Q,Q
2023-03-15 12:55:55:433,0,-1.8188,-4.45537,-19.0459,Q,Q
2023-03-15 12:55:55:443,0,-1.83316,-4.45345,-19.0441,Q,Q
2023-03-15 12:55:55:453,0,-1.84242,-4.45153,-19.0378,Q,Q
2023-03-15 12:55:55:463,0,-1.85183,-4.44665,-19.036,Q,Q
2023-03-15 12:55:55:473,0,-1.86325,-4.44004,-19.0312,Q,Q
2023-03-15 12:55:55:483,0,-1.87486,-4.43098,-19.0282,Q,Q
2023-03-15 12:55:55:493,0,-1.8852,-4.42583,-19.0285,Q,Q
2023-03-15 12:55:55:503,0,-1.89572,-4.41883,-19.0216,Q,Q
2023-03-15 12:55:55:513,0,-1.9061,-4.4113,-19.0171,Q,Q
2023-03-15 12:55:55:523,0,-1.9173,-4.4011,-19.0076,Q,Q
2023-03-15 12:55:55:533,0,-1.92873,-4.39434,-19.0019,Q,Q
2023-03-15 12:55:55:543,0,-1.9386,-4.39194,-18.9951,Q,Q
2023-03-15 12:55:55:553,0,-1.95144,-4.38906,-18.9832,Q,Q
2023-03-15 12:55:55:563,0,-1.96715,-4.38594,-18.9738,Q,Q
2023-03-15 12:55:55:573,0,-1.9837,-4.38287,-18.9632,Q,Q
2023-03-15 12:55:55:583,0,-1.99604,-4.38042,-18.9508,Q,Q
2023-03-15 12:55:55:593,0,-2.01003,-4.37925,-18.9378,Q,Q
2023-03-15 12:55:55:603,0,-2.02263,-4.37878,-18.9277,Q,Q
2023-03-15 12:55:55:613,0,-2.03681,-4.37625,-18.9134,Q,Q
2023-03-15 12:55:55:623,0,-2.05183,-4.37455,-18.9016,Q,Q
2023-03-15 12:55:55:633,0,-2.06335,-4.37883,-18.8866,Q,Q
2023-03-15 12:55:55:643,0,-2.07629,-4.38085,-18.8701,Q,Q
2023-03-15 12:55:55:653,0,-2.08655,-4.38998,-18.852,Q,Q
2023-03-15 12:55:55:663,0,-2.09585,-4.39952,-18.8306,Q,Q
2023-03-15 12:55:55:673,0,-2.10922,-4.41381,-18.8088,Q,Q
2023-03-15 12:55:55:683,0,-2.11825,-4.42298,-18.7875,Q,Q
2023-03-15 12:55:55:693,0,-2.12506,-4.43149,-18.7662,Q,Q
2023-03-15 12:55:55:703,0,-2.13332,-4.44057,-18.7411,Q,Q
2023-03-15 12:55:55:713,0,-2.1378,-4.45333,-18.7137,Q,Q
2023-03-15 12:55:55:723,0,-2.14271,-4.46585,-18.6833,Q,Q
2023-03-15 12:55:55:733,0,-2.14724,-4.47923,-18.6542,Q,Q
2023-03-15 12:55:55:743,0,-2.15561,-4.48862,-18.6227,Q,Q
2023-03-15 12:55:55:753,0,-2.16581,-4.49475,-18.5952,Q,Q
2023-03-15 12:55:55:763,0,-2.17415,-4.50041,-18.5678,Q,Q
2023-03-15 12:55:55:773,0,-2.17896,-4.50931,-18.5413,Q,Q
2023-03-15 12:55:55:783,0,-2.17976,-4.52166,-18.5117,Q,Q
2023-03-15 12:55:55:793,0,-2.17943,-4.53427,-18.4816,Q,Q
2023-03-15 12:55:55:803,0,-2.18298,-4.55072,-18.4527,Q,Q
2023-03-15 12:55:55:813,0,-2.18912,-4.56942,-18.4269,Q,Q
2023-03-15 12:55:55:823,0,-2.19567,-4.5908,-18.3985,Q,Q
2023-03-15 12:55:55:833,0,-2.20407,-4.60658,-18.3753,Q,Q
2023-03-15 12:55:55:843,0,-2.21908,-4.62011,-18.3545,Q,Q
2023-03-15 12:55:55:853,0,-2.22894,-4.63195,-18.3388,Q,Q
2023-03-15 12:55:55:863,0,-2.2368,-4.64251,-18.3191,Q,Q
2023-03-15 12:55:55:873,0,-2.24449,-4.65185,-18.2995,Q,Q
2023-03-15 12:55:55:883,0,-2.25668,-4.66145,-18.2847,Q,Q
2023-03-15 12:55:55:893,0,-2.26768,-4.66536,-18.2711,Q,Q
2023-03-15 12:55:55:903,0,-2.27646,-4.665,-18.2592,Q,Q
2023-03-15 12:55:55:913,0,-2.28554,-4.66085,-18.2493,Q,Q
2023-03-15 12:55:55:923,0,-2.29805,-4.65819,-18.2382,Q,Q
2023-03-15 12:55:55:933,0,-2.3054,-4.65716,-18.2297,Q,Q
2023-03-15 12:55:55:943,0,-2.31551,-4.6537,-18.2228,Q,Q
2023-03-15 12:55:55:953,0,-2.32356,-4.64781,-18.2136,Q,Q
2023-03-15 12:55:55:963,0,-2.33314,-4.64148,-18.2071,Q,Q
2023-03-15 12:55:55:973,0,-2.34487,-4.64014,-18.2037,Q,Q
2023-03-15 12:55:55:983,0,-2.35717,-4.63721,-18.1967,Q,Q
2023-03-15 12:55:55:993,0,-2.37022,-4.63539,-18.1914,Q,Q
2023-03-15 12:55:56:3,0,-2.38136,-4.63417,-18.1908,Q,Q
2023-03-15 12:55:56:13,0,-2.39315,-4.62937,-18.1895,Q,Q
2023-03-15 12:55:56:23,0,-2.40061,-4.62567,-18.1915,Q,Q
2023-03-15 12:55:56:33,0,-2.41128,-4.62048,-18.1942,Q,Q
2023-03-15 12:55:56:43,0,-2.42179,-4.6162,-18.1947,Q,Q
2023-03-15 12:55:56:52,0,-2.43512,-4.61144,-18.1936,Q,Q
2023-03-15 12:55:56:62,0,-2.44943,-4.60929,-18.1942,Q,Q
2023-03-15 12:55:56:72,0,-2.46636,-4.60982,-18.1944,Q,Q
2023-03-15 12:55:56:83,0,-2.48782,-4.60487,-18.196,Q,Q
2023-03-15 12:55:56:93,0,-2.50706,-4.6021,-18.1984,Q,Q
2023-03-15 12:55:56:103,0,-2.53039,-4.59974,-18.1998,Q,Q
2023-03-15 12:55:56:113,0,-2.55553,-4.59743,-18.2039,Q,Q
2023-03-15 12:55:56:123,0,-2.56727,-4.5959,-18.2092,Q,Q
2023-03-15 12:55:56:133,0,-2.57548,-4.59707,-18.2111,Q,Q
2023-03-15 12:55:56:143,0,-2.58545,-4.59908,-18.2187,Q,Q
2023-03-15 12:55:56:153,0,-2.5988,-4.6024,-18.2244,Q,Q
2023-03-15 12:55:56:163,0,-2.61003,-4.60802,-18.2373,Q,Q
2023-03-15 12:55:56:173,0,-2.61915,-4.6204,-18.2503,Q,Q
2023-03-15 12:55:56:183,0,-2.62642,-4.63126,-18.2665,Q,Q
2023-03-15 12:55:56:193,0,-2.63289,-4.64426,-18.2838,Q,Q
2023-03-15 12:55:56:203,0,-2.6392,-4.66714,-18.3101,Q,Q
2023-03-15 12:55:56:213,0,-2.64994,-4.69055,-18.3426,Q,Q
2023-03-15 12:55:56:223,0,-2.66396,-4.72333,-18.3856,Q,Q
2023-03-15 12:55:56:233,0,-2.68443,-4.75455,-18.435,Q,Q
2023-03-15 12:55:56:243,0,-2.70398,-4.79062,-18.4936,Q,Q
2023-03-15 12:55:56:253,0,-2.7224,-4.83429,-18.5576,Q,Q
2023-03-15 12:55:56:263,0,-2.74429,-4.88146,-18.6348,Q,Q
2023-03-15 12:55:56:273,0,-2.76965,-4.93194,-18.7313,Q,Q
2023-03-15 12:55:56:283,0,-2.79867,-4.99149,-18.8369,Q,Q
2023-03-15 12:55:56:293,0,-2.83337,-5.05389,-18.954,Q,Q
2023-03-15 12:55:56:303,0,-2.87639,-5.12381,-19.0887,Q,Q
2023-03-15 12:55:56:313,0,-2.92398,-5.20045,-19.2463,Q,Q
2023-03-15 12:55:56:323,0,-2.976,-5.27703,-19.4365,Q,Q
2023-03-15 12:55:56:333,0,-3.03143,-5.35087,-19.6657,Q,Q
2023-03-15 12:55:56:343,0,-3.0881,-5.43471,-19.9311,Q,Q
2023-03-15 12:55:56:353,0,-3.14011,-5.52622,-20.2362,Q,Q
2023-03-15 12:55:56:363,0,-3.19493,-5.63589,-20.5822,Q,Q
2023-03-15 12:55:56:373,0,-3.252,-5.75605,-20.9748,Q,Q
2023-03-15 12:55:56:383,0,-3.30452,-5.88881,-21.416,Q,Q
2023-03-15 12:55:56:393,0,-3.35516,-6.0295,-21.9073,Q,Q
2023-03-15 12:55:56:403,0,-3.40336,-6.17725,-22.4431,Q,Q
2023-03-15 12:55:56:413,0,-3.45139,-6.33167,-23.0153,Q,Q
2023-03-15 12:55:56:423,0,-3.49117,-6.49255,-23.6157,Q,Q
2023-03-15 12:55:56:433,0,-3.52462,-6.65457,-24.2331,Q,Q
2023-03-15 12:55:56:443,0,-3.55049,-6.81176,-24.8758,Q,Q
2023-03-15 12:55:56:453,0,-3.56995,-6.96187,-25.5303,Q,Q
2023-03-15 12:55:56:463,0,-3.57654,-7.10148,-26.1882,Q,Q
2023-03-15 12:55:56:473,0,-3.57542,-7.22933,-26.8396,Q,Q
2023-03-15 12:55:56:483,0,-3.56754,-7.34199,-27.4757,Q,Q
2023-03-15 12:55:56:493,0,-3.54889,-7.44056,-28.0962,Q,Q
2023-03-15 12:55:56:503,0,-3.52877,-7.53119,-28.6978,Q,Q
2023-03-15 12:55:56:513,0,-3.49449,-7.61015,-29.2714,Q,Q
2023-03-15 12:55:56:523,0,-3.45554,-7.68175,-29.8086,Q,Q
2023-03-15 12:55:56:533,0,-3.40821,-7.75235,-30.2947,Q,Q
2023-03-15 12:55:56:543,0,-3.35339,-7.81291,-30.7396,Q,Q
2023-03-15 12:55:56:553,0,-3.29459,-7.86408,-31.1366,Q,Q
2023-03-15 12:55:56:563,0,-3.23196,-7.89946,-31.4891,Q,Q
2023-03-15 12:55:56:573,0,-3.1637,-7.92598,-31.7936,Q,Q
2023-03-15 12:55:56:583,0,-3.09395,-7.93809,-32.0574,Q,Q
2023-03-15 12:55:56:593,0,-3.0233,-7.94189,-32.2878,Q,Q
2023-03-15 12:55:56:603,0,-2.95278,-7.94324,-32.4779,Q,Q
2023-03-15 12:55:56:613,0,-2.8823,-7.94042,-32.6361,Q,Q
2023-03-15 12:55:56:623,0,-2.81551,-7.93092,-32.7667,Q,Q
2023-03-15 12:55:56:633,0,-2.75255,-7.91726,-32.8723,Q,Q
2023-03-15 12:55:56:643,0,-2.69888,-7.89439,-32.9528,Q,Q
2023-03-15 12:55:56:653,0,-2.65055,-7.87005,-33.0123,Q,Q
2023-03-15 12:55:56:663,0,-2.60655,-7.84454,-33.0513,Q,Q
2023-03-15 12:55:56:673,0,-2.56889,-7.80949,-33.0692,Q,Q
2023-03-15 12:55:56:683,0,-2.5464,-7.77407,-33.0756,Q,Q
2023-03-15 12:55:56:693,0,-2.52407,-7.73295,-33.0666,Q,Q
2023-03-15 12:55:56:703,0,-2.50397,-7.69074,-33.0494,Q,Q
2023-03-15 12:55:56:713,0,-2.4867,-7.647,-33.0196,Q,Q
2023-03-15 12:55:56:723,0,-2.46971,-7.60386,-32.9803,Q,Q
2023-03-15 12:55:56:733,0,-2.45194,-7.56317,-32.9311,Q,Q
2023-03-15 12:55:56:743,0,-2.43728,-7.52075,-32.873,Q,Q
2023-03-15 12:55:56:753,0,-2.42076,-7.47934,-32.8146,Q,Q
2023-03-15 12:55:56:763,0,-2.40606,-7.4377,-32.7545,Q,Q
2023-03-15 12:55:56:773,0,-2.39395,-7.39678,-32.6927,Q,Q
2023-03-15 12:55:56:783,0,-2.38302,-7.35995,-32.6221,Q,Q
2023-03-15 12:55:56:793,0,-2.37527,-7.32945,-32.5485,Q,Q
2023-03-15 12:55:56:803,0,-2.36532,-7.304,-32.4669,Q,Q
2023-03-15 12:55:56:813,0,-2.3528,-7.28835,-32.3795,Q,Q
2023-03-15 12:55:56:823,0,-2.34048,-7.27736,-32.2873,Q,Q
2023-03-15 12:55:56:833,0,-2.33323,-7.27078,-32.1843,Q,Q
2023-03-15 12:55:56:843,0,-2.32885,-7.26011,-32.0757,Q,Q
2023-03-15 12:55:56:853,0,-2.32937,-7.25165,-31.9548,Q,Q
2023-03-15 12:55:56:863,0,-2.33317,-7.23436,-31.8162,Q,Q
2023-03-15 12:55:56:873,0,-2.34924,-7.21041,-31.6538,Q,Q
2023-03-15 12:55:56:883,0,-2.38609,-7.19146,-31.4752,Q,Q
2023-03-15 12:55:56:893,0,-2.44873,-7.18338,-31.2791,Q,Q
2023-03-15 12:55:56:903,0,-2.52724,-7.18105,-31.0673,Q,Q
2023-03-15 12:55:56:913,0,-2.60326,-7.18373,-30.8505,Q,Q
2023-03-15 12:55:56:923,0,-2.6614,-7.17959,-30.6228,Q,Q
2023-03-15 12:55:56:933,0,-2.71283,-7.17099,-30.3853,Q,Q
2023-03-15 12:55:56:943,0,-2.75703,-7.15562,-30.1401,Q,Q
2023-03-15 12:55:56:953,0,-2.80141,-7.14291,-29.8875,Q,Q
2023-03-15 12:55:56:963,0,-2.83976,-7.12906,-29.6295,Q,Q
2023-03-15 12:55:56:973,0,-2.87278,-7.12401,-29.3737,Q,Q
2023-03-15 12:55:56:983,0,-2.90792,-7.118,-29.1282,Q,Q
2023-03-15 12:55:56:993,0,-2.9485,-7.10716,-28.8958,Q,Q
2023-03-15 12:55:57:3,0,-2.98409,-7.09502,-28.6777,Q,Q
2023-03-15 12:55:57:13,0,-3.02778,-7.08152,-28.4689,Q,Q
2023-03-15 12:55:57:23,0,-3.07035,-7.0699,-28.2767,Q,Q
2023-03-15 12:55:57:33,0,-3.1132,-7.061,-28.0959,Q,Q
2023-03-15 12:55:57:43,0,-3.152,-7.05167,-27.9295,Q,Q
2023-03-15 12:55:57:53,0,-3.17965,-7.04105,-27.7763,Q,Q
2023-03-15 12:55:57:63,0,-3.1962,-7.02706,-27.6334,Q,Q
2023-03-15 12:55:57:73,0,-3.19644,-7.01141,-27.4967,Q,Q
2023-03-15 12:55:57:83,0,-3.19063,-6.99178,-27.3664,Q,Q
2023-03-15 12:55:57:93,0,-3.1809,-6.97208,-27.2379,Q,Q
2023-03-15 12:55:57:103,0,-3.16725,-6.95127,-27.1131,Q,Q
2023-03-15 12:55:57:113,0,-3.14764,-6.93526,-26.9942,Q,Q
2023-03-15 12:55:57:123,0,-3.12962,-6.91794,-26.8838,Q,Q
2023-03-15 12:55:57:133,0,-3.11233,-6.90491,-26.7838,Q,Q
2023-03-15 12:55:57:143,0,-3.09985,-6.89306,-26.6895,Q,Q
2023-03-15 12:55:57:153,0,-3.09716,-6.88905,-26.5991,Q,Q
2023-03-15 12:55:57:163,0,-3.09755,-6.89121,-26.5143,Q,Q
2023-03-15 12:55:57:173,0,-3.09985,-6.89774,-26.436,Q,Q
2023-03-15 12:55:57:183,0,-3.10753,-6.91287,-26.365,Q,Q
2023-03-15 12:55:57:193,0,-3.12242,-6.92766,-26.2997,Q,Q
2023-03-15 12:55:57:203,0,-3.1417,-6.93882,-26.2412,Q,Q
2023-03-15 12:55:57:213,0,-3.16594,-6.95186,-26.1868,Q,Q
2023-03-15 12:55:57:223,0,-3.18944,-6.96522,-26.1417,Q,Q
2023-03-15 12:55:57:233,0,-3.21269,-6.97964,-26.1114,Q,Q
2023-03-15 12:55:57:243,0,-3.23876,-6.99146,-26.0919,Q,Q
2023-03-15 12:55:57:253,0,-3.26479,-7.00342,-26.0807,Q,Q
2023-03-15 12:55:57:263,0,-3.28877,-7.01733,-26.0822,Q,Q
2023-03-15 12:55:57:273,0,-3.30722,-7.03168,-26.0919,Q,Q
2023-03-15 12:55:57:283,0,-3.32197,-7.04913,-26.1101,Q,Q
2023-03-15 12:55:57:293,0,-3.33288,-7.0641,-26.1377,Q,Q
2023-03-15 12:55:57:303,0,-3.3366,-7.07472,-26.1799,Q,Q
2023-03-15 12:55:57:313,0,-3.33501,-7.08307,-26.2238,Q,Q
2023-03-15 12:55:57:323,0,-3.33614,-7.09219,-26.276,Q,Q
2023-03-15 12:55:57:333,0,-3.33218,-7.104,-26.3346,Q,Q
2023-03-15 12:55:57:343,0,-3.32793,-7.11892,-26.3955,Q,Q
2023-03-15 12:55:57:353,0,-3.31833,-7.13246,-26.4614,Q,Q
2023-03-15 12:55:57:363,0,-3.30354,-7.14545,-26.5277,Q,Q
2023-03-15 12:55:57:373,0,-3.28884,-7.15047,-26.5928,Q,Q
2023-03-15 12:55:57:383,0,-3.27793,-7.15051,-26.6517,Q,Q
2023-03-15 12:55:57:393,0,-3.30573,-7.14,-26.6953,Q,Q
2023-03-15 12:55:57:403,0,-3.37595,-7.13833,-26.7244,Q,Q
2023-03-15 12:55:57:413,0,-3.47657,-7.15261,-26.7332,Q,Q
2023-03-15 12:55:57:423,0,-3.59577,-7.17153,-26.7079,Q,Q
2023-03-15 12:55:57:433,0,-3.72837,-7.19235,-26.6399,Q,Q
2023-03-15 12:55:57:443,0,-3.86109,-7.20641,-26.5138,Q,Q
2023-03-15 12:55:57:453,0,-3.9855,-7.20993,-26.3037,Q,Q
2023-03-15 12:55:57:463,0,-4.10203,-7.2009,-25.9846,Q,Q
2023-03-15 12:55:57:473,0,-4.21344,-7.17778,-25.5515,Q,Q
2023-03-15 12:55:57:483,0,-4.30928,-7.13125,-25.0303,Q,Q
2023-03-15 12:55:57:493,0,-4.38924,-7.05782,-24.4612,Q,Q
2023-03-15 12:55:57:503,0,-4.46187,-6.95164,-23.8672,Q,Q
2023-03-15 12:55:57:513,0,-4.52997,-6.81789,-23.2633,Q,Q
2023-03-15 12:55:57:523,0,-4.58826,-6.67424,-22.6524,Q,Q
2023-03-15 12:55:57:533,0,-4.63016,-6.52915,-22.0421,Q,Q
2023-03-15 12:55:57:543,0,-4.65662,-6.39363,-21.4301,Q,Q
2023-03-15 12:55:57:553,0,-4.66809,-6.27166,-20.8209,Q,Q
2023-03-15 12:55:57:563,0,-4.66882,-6.17556,-20.221,Q,Q
2023-03-15 12:55:57:573,0,-4.66285,-6.10327,-19.6309,Q,Q
2023-03-15 12:55:57:583,0,-4.6453,-6.05486,-19.0634,Q,Q
2023-03-15 12:55:57:593,0,-4.61607,-6.02388,-18.5266,Q,Q
2023-03-15 12:55:57:603,0,-4.57817,-5.99635,-18.0295,Q,Q
2023-03-15 12:55:57:613,0,-4.52182,-5.97123,-17.5708,Q,Q
2023-03-15 12:55:57:623,0,-4.46668,-5.94272,-17.1553,Q,Q
2023-03-15 12:55:57:633,0,-4.41263,-5.9153,-16.7877,Q,Q
2023-03-15 12:55:57:643,0,-4.35978,-5.89091,-16.4601,Q,Q
2023-03-15 12:55:57:653,0,-4.30648,-5.87302,-16.1624,Q,Q
2023-03-15 12:55:57:663,0,-4.24444,-5.85969,-15.8985,Q,Q
2023-03-15 12:55:57:673,0,-4.19087,-5.85303,-15.6649,Q,Q
2023-03-15 12:55:57:683,0,-4.1364,-5.8506,-15.4609,Q,Q
2023-03-15 12:55:57:693,0,-4.09378,-5.85463,-15.289,Q,Q
2023-03-15 12:55:57:703,0,-4.0597,-5.85599,-15.1512,Q,Q
2023-03-15 12:55:57:712,0,-4.03532,-5.8578,-15.0493,Q,Q
2023-03-15 12:55:57:723,0,-4.01589,-5.86371,-14.9825,Q,Q
2023-03-15 12:55:57:733,0,-3.98972,-5.87367,-14.9487,Q,Q
2023-03-15 12:55:57:743,0,-3.955,-5.89522,-14.9467,Q,Q
2023-03-15 12:55:57:753,0,-3.91517,-5.92614,-14.9782,Q,Q
2023-03-15 12:55:57:763,0,-3.87851,-5.9611,-15.0411,Q,Q
2023-03-15 12:55:57:773,0,-3.84771,-5.99766,-15.1409,Q,Q
2023-03-15 12:55:57:783,0,-3.82254,-6.04265,-15.2771,Q,Q
2023-03-15 12:55:57:793,0,-3.80084,-6.08805,-15.4457,Q,Q
2023-03-15 12:55:57:803,0,-3.77674,-6.13986,-15.6611,Q,Q
2023-03-15 12:55:57:813,0,-3.7479,-6.19367,-15.922,Q,Q
2023-03-15 12:55:57:823,0,-3.71826,-6.24226,-16.2314,Q,Q
2023-03-15 12:55:57:833,0,-3.69178,-6.29007,-16.5918,Q,Q
2023-03-15 12:55:57:843,0,-3.65832,-6.34231,-17.004,Q,Q
2023-03-15 12:55:57:853,0,-3.61994,-6.40264,-17.4696,Q,Q
2023-03-15 12:55:57:863,0,-3.57035,-6.46374,-17.9985,Q,Q
2023-03-15 12:55:57:873,0,-3.52139,-6.53464,-18.5896,Q,Q
2023-03-15 12:55:57:883,0,-3.47356,-6.61496,-19.2484,Q,Q
2023-03-15 12:55:57:893,0,-3.42856,-6.69836,-19.9712,Q,Q
2023-03-15 12:55:57:903,0,-3.38966,-6.78511,-20.7524,Q,Q
2023-03-15 12:55:57:913,0,-3.36634,-6.87552,-21.5869,Q,Q
2023-03-15 12:55:57:923,0,-3.35905,-6.96891,-22.4724,Q,Q
2023-03-15 12:55:57:933,0,-3.35303,-7.0677,-23.4082,Q,Q
2023-03-15 12:55:57:943,0,-3.34071,-7.17582,-24.3828,Q,Q
2023-03-15 12:55:57:953,0,-3.32794,-7.2808,-25.3851,Q,Q
2023-03-15 12:55:57:963,0,-3.30784,-7.38557,-26.4161,Q,Q
2023-03-15 12:55:57:973,0,-3.28159,-7.49243,-27.4676,Q,Q
2023-03-15 12:55:57:983,0,-3.25751,-7.60542,-28.5268,Q,Q
2023-03-15 12:55:57:993,0,-3.23255,-7.72847,-29.5875,Q,Q
2023-03-15 12:55:58:3,0,-3.20853,-7.86262,-30.656,Q,Q
2023-03-15 12:55:58:13,0,-3.17891,-8.00141,-31.7371,Q,Q
2023-03-15 12:55:58:23,0,-3.14784,-8.14457,-32.8338,Q,Q
2023-03-15 12:55:58:33,0,-3.11605,-8.28638,-33.94,Q,Q
2023-03-15 12:55:58:43,0,-3.0749,-8.43113,-35.0579,Q,Q
2023-03-15 12:55:58:53,0,-3.02251,-8.58814,-36.1914,Q,Q
2023-03-15 12:55:58:63,0,-2.96164,-8.75237,-37.3257,Q,Q
2023-03-15 12:55:58:73,0,-2.89694,-8.9279,-38.4519,Q,Q
2023-03-15 12:55:58:83,0,-2.83736,-9.11773,-39.5564,Q,Q
2023-03-15 12:55:58:93,0,-2.78641,-9.31701,-40.6429,Q,Q
2023-03-15 12:55:58:103,0,-2.74774,-9.51799,-41.7007,Q,Q
2023-03-15 12:55:58:113,0,-2.71728,-9.71858,-42.7357,Q,Q
2023-03-15 12:55:58:123,0,-2.7015,-9.91445,-43.7422,Q,Q
2023-03-15 12:55:58:133,0,-2.70876,-10.1018,-44.7298,Q,Q
2023-03-15 12:55:58:143,0,-2.72981,-10.2791,-45.6938,Q,Q
2023-03-15 12:55:58:153,0,-2.76886,-10.4441,-46.6212,Q,Q
2023-03-15 12:55:58:163,0,-2.81678,-10.5987,-47.5055,Q,Q
2023-03-15 12:55:58:173,0,-2.87697,-10.7451,-48.3368,Q,Q
2023-03-15 12:55:58:183,0,-2.94884,-10.886,-49.121,Q,Q
2023-03-15 12:55:58:193,0,-3.03509,-11.0227,-49.8648,Q,Q
2023-03-15 12:55:58:203,0,-3.12411,-11.147,-50.5574,Q,Q
2023-03-15 12:55:58:213,0,-3.21412,-11.2607,-51.2092,Q,Q
2023-03-15 12:55:58:223,0,-3.29696,-11.353,-51.807,Q,Q
2023-03-15 12:55:58:233,0,-3.36717,-11.4353,-52.3582,Q,Q
2023-03-15 12:55:58:243,0,-3.42218,-11.5053,-52.8699,Q,Q
2023-03-15 12:55:58:253,0,-3.46458,-11.5682,-53.3474,Q,Q
2023-03-15 12:55:58:263,0,-3.49054,-11.6187,-53.7923,Q,Q
2023-03-15 12:55:58:273,0,-3.51148,-11.6585,-54.2066,Q,Q
2023-03-15 12:55:58:283,0,-3.53143,-11.6877,-54.593,Q,Q
2023-03-15 12:55:58:293,0,-3.55369,-11.7141,-54.9605,Q,Q
2023-03-15 12:55:58:303,0,-3.5822,-11.7436,-55.3033,Q,Q
2023-03-15 12:55:58:313,0,-3.61488,-11.768,-55.6239,Q,Q
2023-03-15 12:55:58:323,0,-3.65346,-11.7926,-55.9166,Q,Q
2023-03-15 12:55:58:333,0,-3.69885,-11.8176,-56.1879,Q,Q
2023-03-15 12:55:58:343,0,-3.75034,-11.8389,-56.443,Q,Q
2023-03-15 12:55:58:353,0,-3.80722,-11.8578,-56.6788,Q,Q
2023-03-15 12:55:58:363,0,-3.86719,-11.8794,-56.9044,Q,Q
2023-03-15 12:55:58:373,0,-3.92452,-11.9047,-57.1236,Q,Q
2023-03-15 12:55:58:383,0,-3.97753,-11.9247,-57.3311,Q,Q
2023-03-15 12:55:58:393,0,-4.02423,-11.9417,-57.5277,Q,Q
2023-03-15 12:55:58:403,0,-4.06925,-11.959,-57.7063,Q,Q
2023-03-15 12:55:58:413,0,-4.11344,-11.9711,-57.8671,Q,Q
