Timestamp_cmd,imu_cmd,roll_delta,pitch_delta,yaw_delta,voice_type,voice_length
2023-03-15 14:16:27:856,0,6.94835,-4.58254,-10.1726,Q,Q
2023-03-15 14:16:27:864,0,6.94518,-4.5756,-10.1456,Q,Q
2023-03-15 14:16:27:874,0,6.94924,-4.57608,-10.1179,Q,Q
2023-03-15 14:16:27:884,0,6.97029,-4.5831,-10.0825,Q,Q
2023-03-15 14:16:27:894,0,7.00972,-4.60368,-10.0439,Q,Q
2023-03-15 14:16:27:904,0,7.06391,-4.63151,-9.99843,Q,Q
2023-03-15 14:16:27:915,0,7.11831,-4.66379,-9.94847,Q,Q
2023-03-15 14:16:27:925,0,7.16631,-4.68945,-9.89839,Q,Q
2023-03-15 14:16:27:934,0,7.20259,-4.71744,-9.847,Q,Q
2023-03-15 14:16:27:945,0,7.22869,-4.73237,-9.8008,Q,Q
2023-03-15 14:16:27:955,0,7.2521,-4.73893,-9.76007,Q,Q
2023-03-15 14:16:27:965,0,7.26524,-4.73539,-9.71881,Q,Q
2023-03-15 14:16:27:975,0,7.28087,-4.72187,-9.68353,Q,Q
2023-03-15 14:16:27:985,0,7.29695,-4.70568,-9.65487,Q,Q
2023-03-15 14:16:27:995,0,7.31301,-4.68541,-9.63018,Q,Q
2023-03-15 14:16:28:5,0,7.33585,-4.6672,-9.60537,Q,Q
2023-03-15 14:16:28:14,0,7.3626,-4.65369,-9.58083,Q,Q
2023-03-15 14:16:28:24,0,7.38757,-4.64193,-9.5634,Q,Q
2023-03-15 14:16:28:35,0,7.40976,-4.63816,-9.54601,Q,Q
2023-03-15 14:16:28:45,0,7.42291,-4.63146,-9.53384,Q,Q
2023-03-15 14:16:28:55,0,7.42562,-4.62665,-9.52278,Q,Q
2023-03-15 14:16:28:64,0,7.41518,-4.61909,-9.51545,Q,Q
2023-03-15 14:16:28:75,0,7.401,-4.60437,-9.50915,Q,Q
2023-03-15 14:16:28:85,0,7.38068,-4.59529,-9.50559,Q,Q
2023-03-15 14:16:28:94,0,7.35373,-4.58631,-9.50138,Q,Q
2023-03-15 14:16:28:105,0,7.32953,-4.58371,-9.4908,Q,Q
2023-03-15 14:16:28:115,0,7.30384,-4.58828,-9.47678,Q,Q
2023-03-15 14:16:28:125,0,7.28038,-4.60367,-9.45978,Q,Q
2023-03-15 14:16:28:134,0,7.25727,-4.62466,-9.44815,Q,Q
2023-03-15 14:16:28:144,0,7.22427,-4.64087,-9.44242,Q,Q
2023-03-15 14:16:28:155,0,7.18158,-4.65797,-9.44736,Q,Q
2023-03-15 14:16:28:165,0,7.13324,-4.66991,-9.46671,Q,Q
2023-03-15 14:16:28:175,0,7.07965,-4.67754,-9.49702,Q,Q
2023-03-15 14:16:28:185,0,7.02499,-4.68721,-9.52944,Q,Q
2023-03-15 14:16:28:195,0,6.9679,-4.70374,-9.56973,Q,Q
2023-03-15 14:16:28:205,0,6.91149,-4.72532,-9.61953,Q,Q
2023-03-15 14:16:28:214,0,6.8554,-4.75818,-9.67201,Q,Q
2023-03-15 14:16:28:225,0,6.79732,-4.79816,-9.72888,Q,Q
2023-03-15 14:16:28:235,0,6.73912,-4.84363,-9.79337,Q,Q
2023-03-15 14:16:28:244,0,6.68295,-4.89573,-9.86472,Q,Q
2023-03-15 14:16:28:254,0,6.63197,-4.95231,-9.93658,Q,Q
2023-03-15 14:16:28:264,0,6.5864,-5.0125,-10.009,Q,Q
2023-03-15 14:16:28:274,0,6.54738,-5.07348,-10.0819,Q,Q
2023-03-15 14:16:28:285,0,6.51986,-5.13599,-10.1465,Q,Q
2023-03-15 14:16:28:294,0,6.4946,-5.19679,-10.2063,Q,Q
2023-03-15 14:16:28:305,0,6.46113,-5.2561,-10.2621,Q,Q
2023-03-15 14:16:28:314,0,6.42368,-5.30939,-10.3113,Q,Q
2023-03-15 14:16:28:324,0,6.38558,-5.36237,-10.3583,Q,Q
2023-03-15 14:16:28:334,0,6.3662,-5.41825,-10.3958,Q,Q
2023-03-15 14:16:28:345,0,6.36406,-5.4704,-10.4169,Q,Q
2023-03-15 14:16:28:355,0,6.38002,-5.51555,-10.4323,Q,Q
2023-03-15 14:16:28:365,0,6.40811,-5.55045,-10.4358,Q,Q
2023-03-15 14:16:28:375,0,6.43175,-5.57478,-10.4253,Q,Q
2023-03-15 14:16:28:385,0,6.45541,-5.59185,-10.4069,Q,Q
2023-03-15 14:16:28:394,0,6.47358,-5.59229,-10.386,Q,Q
2023-03-15 14:16:28:404,0,6.48396,-5.58345,-10.3606,Q,Q
2023-03-15 14:16:28:415,0,6.4763,-5.56353,-10.3346,Q,Q
2023-03-15 14:16:28:424,0,6.45256,-5.54087,-10.313,Q,Q
2023-03-15 14:16:28:434,0,6.41287,-5.50952,-10.2976,Q,Q
2023-03-15 14:16:28:444,0,6.36471,-5.47361,-10.2838,Q,Q
2023-03-15 14:16:28:454,0,6.31767,-5.43438,-10.2792,Q,Q
2023-03-15 14:16:28:464,0,6.26914,-5.40101,-10.273,Q,Q
2023-03-15 14:16:28:474,0,6.23045,-5.3734,-10.2622,Q,Q
2023-03-15 14:16:28:484,0,6.20375,-5.3545,-10.2483,Q,Q
2023-03-15 14:16:28:494,0,6.18674,-5.33861,-10.2288,Q,Q
2023-03-15 14:16:28:504,0,6.17722,-5.31982,-10.2071,Q,Q
2023-03-15 14:16:28:514,0,6.17044,-5.30314,-10.1812,Q,Q
2023-03-15 14:16:28:524,0,6.16678,-5.2813,-10.1552,Q,Q
2023-03-15 14:16:28:534,0,6.1575,-5.25476,-10.126,Q,Q
2023-03-15 14:16:28:544,0,6.14396,-5.22216,-10.0908,Q,Q
2023-03-15 14:16:28:554,0,6.13392,-5.18414,-10.0524,Q,Q
2023-03-15 14:16:28:564,0,6.12284,-5.13764,-10.01,Q,Q
2023-03-15 14:16:28:574,0,6.11165,-5.08529,-9.96627,Q,Q
2023-03-15 14:16:28:584,0,6.09738,-5.03342,-9.92315,Q,Q
2023-03-15 14:16:28:594,0,6.07885,-4.97715,-9.88137,Q,Q
2023-03-15 14:16:28:604,0,6.05849,-4.91954,-9.8449,Q,Q
2023-03-15 14:16:28:614,0,6.04182,-4.8568,-9.81236,Q,Q
2023-03-15 14:16:28:624,0,6.02975,-4.79246,-9.78384,Q,Q
2023-03-15 14:16:28:634,0,6.02084,-4.72314,-9.75922,Q,Q
2023-03-15 14:16:28:644,0,6.00804,-4.65207,-9.74214,Q,Q
2023-03-15 14:16:28:654,0,5.99272,-4.57863,-9.73559,Q,Q
2023-03-15 14:16:28:664,0,5.96852,-4.50451,-9.73391,Q,Q
2023-03-15 14:16:28:674,0,5.94543,-4.43296,-9.73752,Q,Q
2023-03-15 14:16:28:684,0,5.92189,-4.36265,-9.74661,Q,Q
2023-03-15 14:16:28:694,0,5.89973,-4.29937,-9.76176,Q,Q
2023-03-15 14:16:28:704,0,5.88379,-4.24751,-9.7789,Q,Q
2023-03-15 14:16:28:714,0,5.87071,-4.20121,-9.79633,Q,Q
2023-03-15 14:16:28:724,0,5.86529,-4.16112,-9.81305,Q,Q
2023-03-15 14:16:28:734,0,5.86805,-4.12634,-9.82642,Q,Q
2023-03-15 14:16:28:744,0,5.87149,-4.09205,-9.83073,Q,Q
2023-03-15 14:16:28:754,0,5.87606,-4.05948,-9.83641,Q,Q
2023-03-15 14:16:28:764,0,5.87672,-4.02436,-9.837,Q,Q
2023-03-15 14:16:28:774,0,5.87197,-3.98669,-9.83738,Q,Q
2023-03-15 14:16:28:784,0,5.86537,-3.95236,-9.83574,Q,Q
2023-03-15 14:16:28:795,0,5.8612,-3.9191,-9.82865,Q,Q
2023-03-15 14:16:28:804,0,5.85732,-3.88388,-9.81733,Q,Q
2023-03-15 14:16:28:814,0,5.8483,-3.85208,-9.8054,Q,Q
2023-03-15 14:16:28:825,0,5.83735,-3.81872,-9.78894,Q,Q
2023-03-15 14:16:28:835,0,5.82169,-3.78742,-9.771,Q,Q
2023-03-15 14:16:28:845,0,5.80288,-3.76136,-9.75328,Q,Q
2023-03-15 14:16:28:854,0,5.78442,-3.73782,-9.73546,Q,Q
2023-03-15 14:16:28:865,0,5.76356,-3.71965,-9.71281,Q,Q
2023-03-15 14:16:28:875,0,5.7424,-3.7063,-9.69109,Q,Q
2023-03-15 14:16:28:884,0,5.71919,-3.69659,-9.66876,Q,Q
2023-03-15 14:16:28:894,0,5.69849,-3.68434,-9.64293,Q,Q
2023-03-15 14:16:28:904,0,5.67405,-3.67619,-9.6157,Q,Q
2023-03-15 14:16:28:915,0,5.64963,-3.6691,-9.592,Q,Q
2023-03-15 14:16:28:924,0,5.62839,-3.66175,-9.56841,Q,Q
2023-03-15 14:16:28:934,0,5.60147,-3.66008,-9.54847,Q,Q
2023-03-15 14:16:28:944,0,5.57931,-3.66159,-9.53158,Q,Q
2023-03-15 14:16:28:954,0,5.54883,-3.66034,-9.51773,Q,Q
2023-03-15 14:16:28:964,0,5.52422,-3.65568,-9.50889,Q,Q
2023-03-15 14:16:28:974,0,5.49915,-3.65603,-9.49855,Q,Q
2023-03-15 14:16:28:984,0,5.47668,-3.65639,-9.49452,Q,Q
2023-03-15 14:16:28:994,0,5.45517,-3.65787,-9.49326,Q,Q
2023-03-15 14:16:29:4,0,5.43136,-3.662,-9.49486,Q,Q
2023-03-15 14:16:29:14,0,5.41402,-3.6661,-9.49722,Q,Q
2023-03-15 14:16:29:25,0,5.39538,-3.66963,-9.50528,Q,Q
2023-03-15 14:16:29:34,0,5.37945,-3.67562,-9.5183,Q,Q
2023-03-15 14:16:29:44,0,5.36074,-3.68109,-9.53157,Q,Q
2023-03-15 14:16:29:54,0,5.34556,-3.68719,-9.55108,Q,Q
2023-03-15 14:16:29:64,0,5.33445,-3.69172,-9.57596,Q,Q
2023-03-15 14:16:29:74,0,5.32339,-3.69742,-9.60426,Q,Q
2023-03-15 14:16:29:84,0,5.31672,-3.70243,-9.63225,Q,Q
2023-03-15 14:16:29:94,0,5.31051,-3.70418,-9.65425,Q,Q
2023-03-15 14:16:29:104,0,5.30595,-3.70822,-9.67985,Q,Q
2023-03-15 14:16:29:114,0,5.30523,-3.71031,-9.7039,Q,Q
2023-03-15 14:16:29:124,0,5.31057,-3.71681,-9.72117,Q,Q
2023-03-15 14:16:29:134,0,5.31615,-3.72256,-9.7345,Q,Q
2023-03-15 14:16:29:144,0,5.32073,-3.72479,-9.74389,Q,Q
2023-03-15 14:16:29:154,0,5.33004,-3.72823,-9.74587,Q,Q
2023-03-15 14:16:29:164,0,5.34546,-3.73152,-9.74042,Q,Q
2023-03-15 14:16:29:174,0,5.36001,-3.73171,-9.72698,Q,Q
2023-03-15 14:16:29:184,0,5.37314,-3.72946,-9.70609,Q,Q
2023-03-15 14:16:29:194,0,5.38092,-3.73434,-9.67798,Q,Q
2023-03-15 14:16:29:204,0,5.38898,-3.73661,-9.64484,Q,Q
2023-03-15 14:16:29:214,0,5.39161,-3.73959,-9.60721,Q,Q
2023-03-15 14:16:29:224,0,5.39099,-3.73896,-9.5665,Q,Q
2023-03-15 14:16:29:235,0,5.38831,-3.73809,-9.52277,Q,Q
2023-03-15 14:16:29:244,0,5.3913,-3.73533,-9.47459,Q,Q
2023-03-15 14:16:29:254,0,5.39427,-3.73725,-9.42089,Q,Q
2023-03-15 14:16:29:264,0,5.40338,-3.74727,-9.35922,Q,Q
2023-03-15 14:16:29:275,0,5.4148,-3.76079,-9.29327,Q,Q
2023-03-15 14:16:29:285,0,5.41625,-3.77911,-9.22088,Q,Q
2023-03-15 14:16:29:294,0,5.414,-3.79437,-9.14889,Q,Q
2023-03-15 14:16:29:304,0,5.40722,-3.8079,-9.07566,Q,Q
2023-03-15 14:16:29:314,0,5.39474,-3.82361,-9.00714,Q,Q
2023-03-15 14:16:29:324,0,5.3841,-3.83507,-8.93889,Q,Q
2023-03-15 14:16:29:334,0,5.37284,-3.84669,-8.87472,Q,Q
2023-03-15 14:16:29:344,0,5.3592,-3.85537,-8.806,Q,Q
2023-03-15 14:16:29:355,0,5.352,-3.86459,-8.738,Q,Q
2023-03-15 14:16:29:365,0,5.34406,-3.87213,-8.67307,Q,Q
2023-03-15 14:16:29:375,0,5.33904,-3.87721,-8.60606,Q,Q
2023-03-15 14:16:29:385,0,5.33668,-3.88097,-8.54807,Q,Q
2023-03-15 14:16:29:394,0,5.3377,-3.88317,-8.49143,Q,Q
2023-03-15 14:16:29:404,0,5.33811,-3.89065,-8.43956,Q,Q
2023-03-15 14:16:29:414,0,5.34163,-3.89689,-8.38827,Q,Q
2023-03-15 14:16:29:424,0,5.3433,-3.9041,-8.34164,Q,Q
2023-03-15 14:16:29:434,0,5.35,-3.91066,-8.29988,Q,Q
2023-03-15 14:16:29:444,0,5.3598,-3.91933,-8.26181,Q,Q
2023-03-15 14:16:29:454,0,5.36653,-3.9285,-8.23074,Q,Q
2023-03-15 14:16:29:464,0,5.37409,-3.93783,-8.2005,Q,Q
2023-03-15 14:16:29:474,0,5.37784,-3.94531,-8.16896,Q,Q
2023-03-15 14:16:29:484,0,5.38391,-3.95224,-8.14691,Q,Q
2023-03-15 14:16:29:494,0,5.39274,-3.95673,-8.12335,Q,Q
2023-03-15 14:16:29:504,0,5.40091,-3.96321,-8.10198,Q,Q
2023-03-15 14:16:29:514,0,5.40904,-3.97187,-8.08398,Q,Q
2023-03-15 14:16:29:524,0,5.41764,-3.98108,-8.06402,Q,Q
2023-03-15 14:16:29:534,0,5.42676,-3.9896,-8.04379,Q,Q
2023-03-15 14:16:29:544,0,5.43655,-4.00037,-8.02576,Q,Q
2023-03-15 14:16:29:554,0,5.43702,-4.01117,-8.00267,Q,Q
2023-03-15 14:16:29:564,0,5.44039,-4.02113,-7.98557,Q,Q
2023-03-15 14:16:29:574,0,5.44019,-4.0263,-7.96511,Q,Q
2023-03-15 14:16:29:584,0,5.44008,-4.02983,-7.94657,Q,Q
2023-03-15 14:16:29:594,0,5.4382,-4.03444,-7.92685,Q,Q
2023-03-15 14:16:29:604,0,5.43483,-4.03966,-7.90449,Q,Q
2023-03-15 14:16:29:614,0,5.43142,-4.04047,-7.8787,Q,Q
2023-03-15 14:16:29:624,0,5.4277,-4.03863,-7.85297,Q,Q
2023-03-15 14:16:29:634,0,5.42258,-4.0447,-7.83228,Q,Q
2023-03-15 14:16:29:644,0,5.41205,-4.05058,-7.81274,Q,Q
2023-03-15 14:16:29:654,0,5.40167,-4.05689,-7.79135,Q,Q
2023-03-15 14:16:29:664,0,5.39282,-4.06789,-7.77066,Q,Q
2023-03-15 14:16:29:674,0,5.38528,-4.07966,-7.7495,Q,Q
2023-03-15 14:16:29:684,0,5.37457,-4.09319,-7.72821,Q,Q
2023-03-15 14:16:29:694,0,5.35679,-4.10928,-7.70783,Q,Q
2023-03-15 14:16:29:704,0,5.34277,-4.12651,-7.68751,Q,Q
2023-03-15 14:16:29:714,0,5.32498,-4.14457,-7.66622,Q,Q
2023-03-15 14:16:29:724,0,5.30484,-4.16339,-7.64541,Q,Q
2023-03-15 14:16:29:734,0,5.28691,-4.18084,-7.62767,Q,Q
2023-03-15 14:16:29:744,0,5.26887,-4.19741,-7.61142,Q,Q
2023-03-15 14:16:29:755,0,5.25109,-4.2139,-7.59743,Q,Q
2023-03-15 14:16:29:764,0,5.22987,-4.22482,-7.58721,Q,Q
2023-03-15 14:16:29:774,0,5.2187,-4.23907,-7.57844,Q,Q
2023-03-15 14:16:29:784,0,5.20198,-4.25128,-7.5697,Q,Q
2023-03-15 14:16:29:794,0,5.19095,-4.25848,-7.55925,Q,Q
2023-03-15 14:16:29:804,0,5.18222,-4.26651,-7.55125,Q,Q
2023-03-15 14:16:29:814,0,5.17563,-4.2763,-7.54052,Q,Q
2023-03-15 14:16:29:824,0,5.16656,-4.28768,-7.53331,Q,Q
2023-03-15 14:16:29:834,0,5.16341,-4.29653,-7.52175,Q,Q
2023-03-15 14:16:29:844,0,5.15515,-4.30271,-7.51392,Q,Q
2023-03-15 14:16:29:854,0,5.15355,-4.30969,-7.50896,Q,Q
2023-03-15 14:16:29:864,0,5.14778,-4.31506,-7.5007,Q,Q
2023-03-15 14:16:29:874,0,5.14294,-4.32115,-7.49245,Q,Q
2023-03-15 14:16:29:884,0,5.14427,-4.32494,-7.48827,Q,Q
2023-03-15 14:16:29:894,0,5.14003,-4.33097,-7.48361,Q,Q
2023-03-15 14:16:29:905,0,5.1399,-4.33546,-7.4772,Q,Q
2023-03-15 14:16:29:914,0,5.13888,-4.33737,-7.46747,Q,Q
2023-03-15 14:16:29:924,0,5.13627,-4.34231,-7.4595,Q,Q
2023-03-15 14:16:29:935,0,5.13819,-4.34424,-7.44811,Q,Q
2023-03-15 14:16:29:944,0,5.1407,-4.34898,-7.43567,Q,Q
2023-03-15 14:16:29:954,0,5.14281,-4.35433,-7.4214,Q,Q
2023-03-15 14:16:29:964,0,5.13944,-4.35843,-7.40533,Q,Q
2023-03-15 14:16:29:974,0,5.14014,-4.36303,-7.38785,Q,Q
2023-03-15 14:16:29:984,0,5.13795,-4.36659,-7.37126,Q,Q
2023-03-15 14:16:29:994,0,5.13482,-4.36761,-7.3524,Q,Q
2023-03-15 14:16:30:4,0,5.12918,-4.37072,-7.33518,Q,Q
2023-03-15 14:16:30:14,0,5.12731,-4.37104,-7.3181,Q,Q
2023-03-15 14:16:30:25,0,5.12619,-4.36921,-7.30177,Q,Q
2023-03-15 14:16:30:34,0,5.1227,-4.36481,-7.28606,Q,Q
2023-03-15 14:16:30:44,0,5.11657,-4.35871,-7.27609,Q,Q
2023-03-15 14:16:30:55,0,5.11225,-4.34735,-7.26643,Q,Q
2023-03-15 14:16:30:65,0,5.10923,-4.33665,-7.26244,Q,Q
2023-03-15 14:16:30:74,0,5.10902,-4.33009,-7.25937,Q,Q
2023-03-15 14:16:30:85,0,5.11259,-4.32964,-7.25181,Q,Q
2023-03-15 14:16:30:94,0,5.11406,-4.33212,-7.24565,Q,Q
2023-03-15 14:16:30:104,0,5.11674,-4.33349,-7.23857,Q,Q
2023-03-15 14:16:30:115,0,5.11175,-4.33481,-7.23472,Q,Q
2023-03-15 14:16:30:125,0,5.10266,-4.33354,-7.2352,Q,Q
2023-03-15 14:16:30:134,0,5.09498,-4.33126,-7.24148,Q,Q
2023-03-15 14:16:30:144,0,5.08629,-4.32684,-7.24666,Q,Q
2023-03-15 14:16:30:155,0,5.07565,-4.32244,-7.25441,Q,Q
2023-03-15 14:16:30:165,0,5.06112,-4.31218,-7.2618,Q,Q
2023-03-15 14:16:30:175,0,5.05061,-4.30358,-7.27264,Q,Q
2023-03-15 14:16:30:185,0,5.04326,-4.29878,-7.27742,Q,Q
2023-03-15 14:16:30:194,0,5.03709,-4.28769,-7.28644,Q,Q
2023-03-15 14:16:30:204,0,5.03271,-4.28055,-7.29493,Q,Q
2023-03-15 14:16:30:214,0,5.02788,-4.27078,-7.29964,Q,Q
2023-03-15 14:16:30:225,0,5.02403,-4.26687,-7.30479,Q,Q
2023-03-15 14:16:30:235,0,5.02048,-4.26213,-7.30795,Q,Q
2023-03-15 14:16:30:245,0,5.01928,-4.256,-7.30893,Q,Q
2023-03-15 14:16:30:254,0,5.01767,-4.24988,-7.30624,Q,Q
2023-03-15 14:16:30:265,0,5.0154,-4.24599,-7.30243,Q,Q
2023-03-15 14:16:30:275,0,5.01358,-4.24272,-7.29538,Q,Q
2023-03-15 14:16:30:285,0,5.00714,-4.23741,-7.28072,Q,Q
2023-03-15 14:16:30:294,0,5.00038,-4.2321,-7.26695,Q,Q
2023-03-15 14:16:30:305,0,4.99703,-4.22653,-7.24565,Q,Q
2023-03-15 14:16:30:315,0,4.9906,-4.21637,-7.21949,Q,Q
2023-03-15 14:16:30:325,0,4.98268,-4.20843,-7.18925,Q,Q
2023-03-15 14:16:30:335,0,4.97443,-4.20083,-7.15188,Q,Q
2023-03-15 14:16:30:345,0,4.96484,-4.19444,-7.11088,Q,Q
2023-03-15 14:16:30:355,0,4.95134,-4.18475,-7.05534,Q,Q
2023-03-15 14:16:30:365,0,4.92869,-4.17524,-6.99399,Q,Q
2023-03-15 14:16:30:375,0,4.90242,-4.1659,-6.92948,Q,Q
2023-03-15 14:16:30:385,0,4.87064,-4.15254,-6.86241,Q,Q
2023-03-15 14:16:30:394,0,4.84157,-4.13875,-6.78662,Q,Q
2023-03-15 14:16:30:405,0,4.81581,-4.12745,-6.70467,Q,Q
2023-03-15 14:16:30:414,0,4.78693,-4.11303,-6.6181,Q,Q
2023-03-15 14:16:30:424,0,4.75819,-4.10002,-6.52523,Q,Q
2023-03-15 14:16:30:434,0,4.72602,-4.0844,-6.4295,Q,Q
2023-03-15 14:16:30:444,0,4.69235,-4.06855,-6.32757,Q,Q
2023-03-15 14:16:30:455,0,4.65429,-4.05446,-6.2209,Q,Q
2023-03-15 14:16:30:464,0,4.61423,-4.04349,-6.10991,Q,Q
2023-03-15 14:16:30:475,0,4.57094,-4.03457,-5.9988,Q,Q
2023-03-15 14:16:30:484,0,4.52609,-4.02527,-5.88874,Q,Q
2023-03-15 14:16:30:494,0,4.4834,-4.01518,-5.77764,Q,Q
2023-03-15 14:16:30:505,0,4.4429,-4.01168,-5.66822,Q,Q
2023-03-15 14:16:30:514,0,4.40818,-4.00784,-5.55513,Q,Q
2023-03-15 14:16:30:524,0,4.36935,-4.00436,-5.4445,Q,Q
2023-03-15 14:16:30:535,0,4.3323,-4.00298,-5.3402,Q,Q
2023-03-15 14:16:30:544,0,4.29417,-4.00258,-5.23801,Q,Q
2023-03-15 14:16:30:554,0,4.25677,-4.0026,-5.13613,Q,Q
2023-03-15 14:16:30:564,0,4.22133,-4.00263,-5.03954,Q,Q
2023-03-15 14:16:30:574,0,4.18538,-4.00459,-4.9445,Q,Q
2023-03-15 14:16:30:584,0,4.14944,-4.00626,-4.85107,Q,Q
2023-03-15 14:16:30:594,0,4.11102,-4.0087,-4.76228,Q,Q
2023-03-15 14:16:30:604,0,4.07818,-4.0104,-4.67129,Q,Q
2023-03-15 14:16:30:614,0,4.0389,-4.00854,-4.57894,Q,Q
2023-03-15 14:16:30:624,0,4.00192,-4.00644,-4.49039,Q,Q
2023-03-15 14:16:30:634,0,3.96807,-4.00487,-4.39788,Q,Q
2023-03-15 14:16:30:644,0,3.93372,-4.00623,-4.30236,Q,Q
2023-03-15 14:16:30:655,0,3.90211,-4.00399,-4.20606,Q,Q
2023-03-15 14:16:30:665,0,3.87434,-4.00076,-4.10342,Q,Q
2023-03-15 14:16:30:675,0,3.84538,-3.994,-4.00374,Q,Q
2023-03-15 14:16:30:685,0,3.81555,-3.99146,-3.89965,Q,Q
2023-03-15 14:16:30:694,0,3.78468,-3.98434,-3.79719,Q,Q
2023-03-15 14:16:30:705,0,3.7532,-3.97683,-3.69341,Q,Q
2023-03-15 14:16:30:714,0,3.71586,-3.9703,-3.59404,Q,Q
2023-03-15 14:16:30:725,0,3.6831,-3.96368,-3.49346,Q,Q
2023-03-15 14:16:30:735,0,3.64674,-3.9609,-3.39781,Q,Q
2023-03-15 14:16:30:745,0,3.61084,-3.95748,-3.30289,Q,Q
2023-03-15 14:16:30:755,0,3.5763,-3.95533,-3.21484,Q,Q
2023-03-15 14:16:30:765,0,3.54478,-3.95307,-3.13263,Q,Q
2023-03-15 14:16:30:775,0,3.51334,-3.95102,-3.05174,Q,Q
2023-03-15 14:16:30:785,0,3.48679,-3.95231,-2.97601,Q,Q
2023-03-15 14:16:30:794,0,3.45722,-3.94771,-2.90404,Q,Q
2023-03-15 14:16:30:805,0,3.43291,-3.94463,-2.837,Q,Q
2023-03-15 14:16:30:815,0,3.40741,-3.94573,-2.77452,Q,Q
2023-03-15 14:16:30:825,0,3.37886,-3.94434,-2.72056,Q,Q
2023-03-15 14:16:30:835,0,3.35824,-3.94372,-2.66795,Q,Q
2023-03-15 14:16:30:845,0,3.34006,-3.9417,-2.61962,Q,Q
2023-03-15 14:16:30:854,0,3.32121,-3.93693,-2.57393,Q,Q
2023-03-15 14:16:30:865,0,3.30216,-3.93087,-2.53225,Q,Q
2023-03-15 14:16:30:875,0,3.28557,-3.92588,-2.49212,Q,Q
2023-03-15 14:16:30:885,0,3.26786,-3.92399,-2.45559,Q,Q
2023-03-15 14:16:30:894,0,3.25706,-3.92823,-2.4188,Q,Q
2023-03-15 14:16:30:904,0,3.25006,-3.93924,-2.38066,Q,Q
2023-03-15 14:16:30:914,0,3.2385,-3.94898,-2.34085,Q,Q
2023-03-15 14:16:30:924,0,3.22362,-3.95772,-2.30278,Q,Q
2023-03-15 14:16:30:934,0,3.21047,-3.9679,-2.2718,Q,Q
2023-03-15 14:16:30:945,0,3.18842,-3.97437,-2.24597,Q,Q
2023-03-15 14:16:30:955,0,3.17141,-3.98033,-2.22382,Q,Q
2023-03-15 14:16:30:964,0,3.15687,-3.97629,-2.20237,Q,Q
2023-03-15 14:16:30:975,0,3.1392,-3.97335,-2.18382,Q,Q
2023-03-15 14:16:30:985,0,3.12203,-3.97305,-2.16431,Q,Q
2023-03-15 14:16:30:995,0,3.1066,-3.97039,-2.14435,Q,Q
2023-03-15 14:16:31:5,0,3.09226,-3.9662,-2.12696,Q,Q
2023-03-15 14:16:31:15,0,3.08618,-3.96327,-2.11072,Q,Q
2023-03-15 14:16:31:25,0,3.08296,-3.96071,-2.09341,Q,Q
2023-03-15 14:16:31:34,0,3.08288,-3.95854,-2.07231,Q,Q
2023-03-15 14:16:31:45,0,3.08202,-3.95298,-2.05648,Q,Q
2023-03-15 14:16:31:55,0,3.08066,-3.95136,-2.03792,Q,Q
2023-03-15 14:16:31:65,0,3.07953,-3.95008,-2.02266,Q,Q
2023-03-15 14:16:31:75,0,3.08016,-3.95073,-2.00907,Q,Q
2023-03-15 14:16:31:85,0,3.08388,-3.94792,-1.99325,Q,Q
2023-03-15 14:16:31:95,0,3.07824,-3.94909,-1.9758,Q,Q
2023-03-15 14:16:31:105,0,3.07269,-3.94716,-1.95837,Q,Q
2023-03-15 14:16:31:115,0,3.07031,-3.94339,-1.94911,Q,Q
2023-03-15 14:16:31:124,0,3.07045,-3.93774,-1.93818,Q,Q
2023-03-15 14:16:31:134,0,3.07023,-3.93696,-1.92917,Q,Q
2023-03-15 14:16:31:144,0,3.07064,-3.93987,-1.91727,Q,Q
2023-03-15 14:16:31:154,0,3.07189,-3.9404,-1.90667,Q,Q
2023-03-15 14:16:31:165,0,3.06722,-3.93902,-1.89779,Q,Q
2023-03-15 14:16:31:175,0,3.0645,-3.93925,-1.8894,Q,Q
2023-03-15 14:16:31:184,0,3.05779,-3.93413,-1.8825,Q,Q
2023-03-15 14:16:31:194,0,3.04784,-3.92812,-1.8779,Q,Q
2023-03-15 14:16:31:204,0,3.03586,-3.92382,-1.87575,Q,Q
2023-03-15 14:16:31:214,0,3.02795,-3.92133,-1.87428,Q,Q
2023-03-15 14:16:31:224,0,3.01709,-3.92114,-1.87116,Q,Q
2023-03-15 14:16:31:234,0,3.00884,-3.92085,-1.8682,Q,Q
2023-03-15 14:16:31:244,0,2.99983,-3.91816,-1.86826,Q,Q
2023-03-15 14:16:31:255,0,2.99003,-3.91656,-1.86598,Q,Q
2023-03-15 14:16:31:265,0,2.97812,-3.91415,-1.86476,Q,Q
2023-03-15 14:16:31:275,0,2.9635,-3.91396,-1.85912,Q,Q
2023-03-15 14:16:31:284,0,2.94388,-3.91304,-1.85808,Q,Q
2023-03-15 14:16:31:294,0,2.92082,-3.91611,-1.857,Q,Q
2023-03-15 14:16:31:305,0,2.89862,-3.91774,-1.8555,Q,Q
2023-03-15 14:16:31:315,0,2.87747,-3.91863,-1.85341,Q,Q
2023-03-15 14:16:31:325,0,2.85872,-3.92302,-1.85004,Q,Q
2023-03-15 14:16:31:335,0,2.84111,-3.92682,-1.84968,Q,Q
2023-03-15 14:16:31:345,0,2.82079,-3.93027,-1.84462,Q,Q
2023-03-15 14:16:31:355,0,2.80566,-3.93492,-1.84521,Q,Q
2023-03-15 14:16:31:365,0,2.79215,-3.93706,-1.83977,Q,Q
2023-03-15 14:16:31:375,0,2.77917,-3.93955,-1.83485,Q,Q
2023-03-15 14:16:31:385,0,2.76821,-3.93758,-1.82797,Q,Q
2023-03-15 14:16:31:394,0,2.75869,-3.93703,-1.81547,Q,Q
2023-03-15 14:16:31:404,0,2.75094,-3.93741,-1.80155,Q,Q
2023-03-15 14:16:31:414,0,2.74317,-3.93632,-1.79125,Q,Q
2023-03-15 14:16:31:424,0,2.73754,-3.93702,-1.77862,Q,Q
2023-03-15 14:16:31:435,0,2.73096,-3.93449,-1.76309,Q,Q
2023-03-15 14:16:31:445,0,2.72696,-3.93441,-1.74708,Q,Q
2023-03-15 14:16:31:455,0,2.72117,-3.93458,-1.72905,Q,Q
2023-03-15 14:16:31:464,0,2.71751,-3.9385,-1.71034,Q,Q
2023-03-15 14:16:31:475,0,2.71157,-3.94239,-1.69116,Q,Q
2023-03-15 14:16:31:485,0,2.70341,-3.9456,-1.67059,Q,Q
2023-03-15 14:16:31:495,0,2.6922,-3.95185,-1.64954,Q,Q
2023-03-15 14:16:31:505,0,2.68301,-3.95766,-1.62716,Q,Q
2023-03-15 14:16:31:515,0,2.67304,-3.96308,-1.60672,Q,Q
2023-03-15 14:16:31:525,0,2.65614,-3.96562,-1.58602,Q,Q
2023-03-15 14:16:31:535,0,2.6417,-3.97013,-1.56627,Q,Q
2023-03-15 14:16:31:545,0,2.61988,-3.97683,-1.54806,Q,Q
2023-03-15 14:16:31:555,0,2.60626,-3.98439,-1.52814,Q,Q
2023-03-15 14:16:31:565,0,2.592,-3.98903,-1.51392,Q,Q
2023-03-15 14:16:31:575,0,2.58083,-3.9953,-1.49886,Q,Q
2023-03-15 14:16:31:585,0,2.56565,-4.00009,-1.48215,Q,Q
2023-03-15 14:16:31:595,0,2.55282,-4.00524,-1.46773,Q,Q
2023-03-15 14:16:31:604,0,2.53893,-4.00756,-1.45699,Q,Q
2023-03-15 14:16:31:614,0,2.52227,-4.00395,-1.44426,Q,Q
2023-03-15 14:16:31:624,0,2.50889,-4.00293,-1.43321,Q,Q
2023-03-15 14:16:31:634,0,2.49217,-4.00202,-1.41813,Q,Q
2023-03-15 14:16:31:644,0,2.4724,-3.99921,-1.40304,Q,Q
2023-03-15 14:16:31:654,0,2.45601,-3.99679,-1.391,Q,Q
2023-03-15 14:16:31:664,0,2.43807,-3.98829,-1.38006,Q,Q
2023-03-15 14:16:31:674,0,2.41808,-3.98083,-1.37558,Q,Q
2023-03-15 14:16:31:685,0,2.39981,-3.972,-1.37773,Q,Q
2023-03-15 14:16:31:695,0,2.3867,-3.96528,-1.38064,Q,Q
2023-03-15 14:16:31:705,0,2.37805,-3.96408,-1.3852,Q,Q
2023-03-15 14:16:31:714,0,2.36875,-3.96857,-1.38318,Q,Q
2023-03-15 14:16:31:725,0,2.36296,-3.97715,-1.377,Q,Q
2023-03-15 14:16:31:734,0,2.34981,-3.98845,-1.37244,Q,Q
2023-03-15 14:16:31:744,0,2.33097,-3.99465,-1.36863,Q,Q
2023-03-15 14:16:31:755,0,2.31153,-3.99829,-1.36354,Q,Q
2023-03-15 14:16:31:765,0,2.29136,-3.99674,-1.36672,Q,Q
2023-03-15 14:16:31:775,0,2.27168,-3.99266,-1.365,Q,Q
2023-03-15 14:16:31:785,0,2.25647,-3.98674,-1.36,Q,Q
2023-03-15 14:16:31:795,0,2.23605,-3.98041,-1.35169,Q,Q
2023-03-15 14:16:31:805,0,2.22025,-3.97237,-1.3419,Q,Q
2023-03-15 14:16:31:815,0,2.20825,-3.96853,-1.3366,Q,Q
2023-03-15 14:16:31:825,0,2.19898,-3.96474,-1.32662,Q,Q
2023-03-15 14:16:31:834,0,2.19356,-3.95876,-1.31947,Q,Q
2023-03-15 14:16:31:844,0,2.1874,-3.95476,-1.31296,Q,Q
2023-03-15 14:16:31:854,0,2.18259,-3.95279,-1.30847,Q,Q
2023-03-15 14:16:31:865,0,2.17713,-3.9529,-1.30314,Q,Q
2023-03-15 14:16:31:875,0,2.17251,-3.95177,-1.30022,Q,Q
2023-03-15 14:16:31:885,0,2.16976,-3.95123,-1.29342,Q,Q
2023-03-15 14:16:31:895,0,2.16835,-3.95211,-1.2896,Q,Q
2023-03-15 14:16:31:905,0,2.16758,-3.95448,-1.28503,Q,Q
2023-03-15 14:16:31:914,0,2.16558,-3.95812,-1.27867,Q,Q
2023-03-15 14:16:31:924,0,2.16136,-3.95966,-1.27261,Q,Q
2023-03-15 14:16:31:935,0,2.15959,-3.9609,-1.26674,Q,Q
2023-03-15 14:16:31:945,0,2.15707,-3.96069,-1.26275,Q,Q
2023-03-15 14:16:31:954,0,2.15955,-3.95648,-1.25661,Q,Q
2023-03-15 14:16:31:964,0,2.16105,-3.95964,-1.2477,Q,Q
2023-03-15 14:16:31:975,0,2.1648,-3.95978,-1.23809,Q,Q
2023-03-15 14:16:31:985,0,2.16809,-3.95932,-1.22782,Q,Q
2023-03-15 14:16:31:994,0,2.16684,-3.96111,-1.22036,Q,Q
2023-03-15 14:16:32:5,0,2.16808,-3.96147,-1.21775,Q,Q
2023-03-15 14:16:32:15,0,2.17238,-3.96089,-1.21337,Q,Q
2023-03-15 14:16:32:25,0,2.17638,-3.95632,-1.20834,Q,Q
2023-03-15 14:16:32:35,0,2.17867,-3.95471,-1.20621,Q,Q
2023-03-15 14:16:32:45,0,2.18201,-3.95177,-1.20551,Q,Q
2023-03-15 14:16:32:55,0,2.18621,-3.95099,-1.20458,Q,Q
2023-03-15 14:16:32:65,0,2.19074,-3.95004,-1.20721,Q,Q
2023-03-15 14:16:32:75,0,2.19244,-3.94701,-1.21055,Q,Q
2023-03-15 14:16:32:85,0,2.1959,-3.94419,-1.21261,Q,Q
2023-03-15 14:16:32:94,0,2.19306,-3.948,-1.21659,Q,Q
2023-03-15 14:16:32:105,0,2.19532,-3.94524,-1.21823,Q,Q
2023-03-15 14:16:32:115,0,2.19855,-3.94846,-1.22325,Q,Q
2023-03-15 14:16:32:125,0,2.20333,-3.94869,-1.22449,Q,Q
2023-03-15 14:16:32:135,0,2.21226,-3.94906,-1.22674,Q,Q
2023-03-15 14:16:32:145,0,2.21465,-3.95036,-1.22705,Q,Q
2023-03-15 14:16:32:154,0,2.21689,-3.951,-1.22823,Q,Q
2023-03-15 14:16:32:164,0,2.22056,-3.95512,-1.22678,Q,Q
2023-03-15 14:16:32:174,0,2.221,-3.96014,-1.22517,Q,Q
2023-03-15 14:16:32:185,0,2.22626,-3.96199,-1.22171,Q,Q
2023-03-15 14:16:32:195,0,2.22938,-3.96394,-1.21793,Q,Q
2023-03-15 14:16:32:205,0,2.23283,-3.96278,-1.21179,Q,Q
2023-03-15 14:16:32:214,0,2.23938,-3.96268,-1.20684,Q,Q
2023-03-15 14:16:32:224,0,2.24791,-3.96126,-1.20435,Q,Q
2023-03-15 14:16:32:235,0,2.26141,-3.95704,-1.20414,Q,Q
2023-03-15 14:16:32:245,0,2.2785,-3.95819,-1.20769,Q,Q
2023-03-15 14:16:32:255,0,2.3034,-3.96047,-1.21759,Q,Q
2023-03-15 14:16:32:265,0,2.34163,-3.96004,-1.23329,Q,Q
2023-03-15 14:16:32:275,0,2.3877,-3.95903,-1.25261,Q,Q
2023-03-15 14:16:32:285,0,2.43919,-3.95858,-1.27857,Q,Q
2023-03-15 14:16:32:295,0,2.49756,-3.96435,-1.30668,Q,Q
2023-03-15 14:16:32:305,0,2.56307,-3.96738,-1.34323,Q,Q
2023-03-15 14:16:32:315,0,2.62737,-3.971,-1.38339,Q,Q
2023-03-15 14:16:32:325,0,2.69295,-3.97491,-1.42722,Q,Q
2023-03-15 14:16:32:335,0,2.75715,-3.9809,-1.47458,Q,Q
2023-03-15 14:16:32:345,0,2.81972,-3.98603,-1.52508,Q,Q
2023-03-15 14:16:32:355,0,2.87784,-3.99111,-1.579,Q,Q
2023-03-15 14:16:32:365,0,2.93691,-3.99746,-1.63513,Q,Q
2023-03-15 14:16:32:375,0,2.99812,-4.00603,-1.69778,Q,Q
2023-03-15 14:16:32:385,0,3.05331,-4.01353,-1.76099,Q,Q
2023-03-15 14:16:32:395,0,3.11158,-4.02151,-1.83232,Q,Q
2023-03-15 14:16:32:405,0,3.17328,-4.03087,-1.90398,Q,Q
2023-03-15 14:16:32:415,0,3.23386,-4.04297,-1.97855,Q,Q
2023-03-15 14:16:32:424,0,3.29707,-4.06028,-2.05479,Q,Q
2023-03-15 14:16:32:434,0,3.35757,-4.08022,-2.13594,Q,Q
2023-03-15 14:16:32:445,0,3.42138,-4.10262,-2.21963,Q,Q
2023-03-15 14:16:32:454,0,3.48532,-4.12433,-2.3031,Q,Q
2023-03-15 14:16:32:465,0,3.55289,-4.15054,-2.38695,Q,Q
2023-03-15 14:16:32:475,0,3.62124,-4.17496,-2.4711,Q,Q
2023-03-15 14:16:32:485,0,3.69261,-4.20569,-2.55818,Q,Q
2023-03-15 14:16:32:495,0,3.76288,-4.231,-2.64647,Q,Q
2023-03-15 14:16:32:505,0,3.83119,-4.25282,-2.73677,Q,Q
2023-03-15 14:16:32:515,0,3.89714,-4.27188,-2.82874,Q,Q
2023-03-15 14:16:32:525,0,3.96672,-4.28917,-2.92442,Q,Q
2023-03-15 14:16:32:535,0,4.0373,-4.30709,-3.01521,Q,Q
2023-03-15 14:16:32:545,0,4.11072,-4.32581,-3.1044,Q,Q
2023-03-15 14:16:32:555,0,4.18407,-4.35334,-3.18783,Q,Q
2023-03-15 14:16:32:565,0,4.26672,-4.38607,-3.2667,Q,Q
2023-03-15 14:16:32:575,0,4.35122,-4.42072,-3.34628,Q,Q
2023-03-15 14:16:32:585,0,4.43843,-4.4546,-3.42336,Q,Q
2023-03-15 14:16:32:595,0,4.52471,-4.48894,-3.49914,Q,Q
2023-03-15 14:16:32:605,0,4.61674,-4.5262,-3.57162,Q,Q
2023-03-15 14:16:32:615,0,4.71421,-4.55877,-3.64574,Q,Q
2023-03-15 14:16:32:625,0,4.81812,-4.58914,-3.71476,Q,Q
2023-03-15 14:16:32:635,0,4.92722,-4.61535,-3.78876,Q,Q
2023-03-15 14:16:32:645,0,5.04424,-4.64078,-3.85945,Q,Q
2023-03-15 14:16:32:655,0,5.17058,-4.66996,-3.93418,Q,Q
2023-03-15 14:16:32:665,0,5.31637,-4.69431,-4.01179,Q,Q
2023-03-15 14:16:32:674,0,5.47373,-4.72391,-4.0848,Q,Q
2023-03-15 14:16:32:685,0,5.64452,-4.7552,-4.1542,Q,Q
2023-03-15 14:16:32:695,0,5.83315,-4.78243,-4.21836,Q,Q
2023-03-15 14:16:32:705,0,6.02909,-4.8115,-4.27343,Q,Q
2023-03-15 14:16:32:715,0,6.22873,-4.8403,-4.32087,Q,Q
2023-03-15 14:16:32:725,0,6.42299,-4.8711,-4.36452,Q,Q
2023-03-15 14:16:32:735,0,6.60918,-4.90059,-4.4063,Q,Q
2023-03-15 14:16:32:745,0,6.78281,-4.92276,-4.44242,Q,Q
2023-03-15 14:16:32:755,0,6.94561,-4.95096,-4.48147,Q,Q
2023-03-15 14:16:32:765,0,7.0995,-4.97732,-4.51409,Q,Q
2023-03-15 14:16:32:775,0,7.24603,-5.00454,-4.54325,Q,Q
2023-03-15 14:16:32:785,0,7.3894,-5.0387,-4.56687,Q,Q
2023-03-15 14:16:32:794,0,7.51845,-5.0748,-4.58609,Q,Q
2023-03-15 14:16:32:805,0,7.62963,-5.11404,-4.60156,Q,Q
2023-03-15 14:16:32:815,0,7.72303,-5.14895,-4.62038,Q,Q
2023-03-15 14:16:32:825,0,7.80094,-5.18492,-4.65062,Q,Q
2023-03-15 14:16:32:835,0,7.86109,-5.21282,-4.69148,Q,Q
2023-03-15 14:16:32:845,0,7.90047,-5.2292,-4.7432,Q,Q
2023-03-15 14:16:32:855,0,7.92165,-5.23729,-4.80652,Q,Q
2023-03-15 14:16:32:865,0,7.93441,-5.24274,-4.88121,Q,Q
2023-03-15 14:16:32:875,0,7.9314,-5.24265,-4.96876,Q,Q
2023-03-15 14:16:32:885,0,7.90342,-5.23773,-5.07284,Q,Q
2023-03-15 14:16:32:895,0,7.84934,-5.22389,-5.19504,Q,Q
2023-03-15 14:16:32:905,0,7.77706,-5.20032,-5.32968,Q,Q
2023-03-15 14:16:32:915,0,7.68952,-5.17299,-5.47862,Q,Q
2023-03-15 14:16:32:924,0,7.59723,-5.141,-5.6352,Q,Q
2023-03-15 14:16:32:935,0,7.49955,-5.10531,-5.80063,Q,Q
2023-03-15 14:16:32:945,0,7.39648,-5.07714,-5.96977,Q,Q
2023-03-15 14:16:32:954,0,7.30746,-5.05822,-6.14713,Q,Q
2023-03-15 14:16:32:965,0,7.23254,-5.03857,-6.32803,Q,Q
2023-03-15 14:16:32:974,0,7.17492,-5.01959,-6.5071,Q,Q
2023-03-15 14:16:32:984,0,7.13075,-5.00518,-6.68532,Q,Q
2023-03-15 14:16:32:995,0,7.08905,-4.99973,-6.85493,Q,Q
2023-03-15 14:16:33:5,0,7.0529,-4.99423,-7.02348,Q,Q
2023-03-15 14:16:33:15,0,7.02705,-4.99617,-7.18488,Q,Q
2023-03-15 14:16:33:25,0,7.00922,-5.00137,-7.33783,Q,Q
2023-03-15 14:16:33:34,0,6.99193,-5.00816,-7.48169,Q,Q
2023-03-15 14:16:33:44,0,6.97839,-5.01566,-7.6257,Q,Q
2023-03-15 14:16:33:54,0,6.95795,-5.02223,-7.76156,Q,Q
2023-03-15 14:16:33:65,0,6.93324,-5.02781,-7.88851,Q,Q
2023-03-15 14:16:33:75,0,6.91534,-5.02739,-8.00874,Q,Q
2023-03-15 14:16:33:85,0,6.90844,-5.02226,-8.12169,Q,Q
2023-03-15 14:16:33:95,0,6.91012,-5.01409,-8.22037,Q,Q
2023-03-15 14:16:33:105,0,6.92273,-4.99516,-8.30983,Q,Q
2023-03-15 14:16:33:115,0,6.95,-4.97252,-8.38231,Q,Q
2023-03-15 14:16:33:125,0,6.99023,-4.94854,-8.43748,Q,Q
2023-03-15 14:16:33:135,0,7.03854,-4.92174,-8.47871,Q,Q
2023-03-15 14:16:33:145,0,7.09516,-4.89271,-8.50333,Q,Q
2023-03-15 14:16:33:155,0,7.15048,-4.86276,-8.51901,Q,Q
2023-03-15 14:16:33:165,0,7.20745,-4.82958,-8.52664,Q,Q
2023-03-15 14:16:33:175,0,7.25953,-4.79916,-8.52447,Q,Q
2023-03-15 14:16:33:185,0,7.29918,-4.76686,-8.51153,Q,Q
2023-03-15 14:16:33:195,0,7.32915,-4.73674,-8.49673,Q,Q
2023-03-15 14:16:33:205,0,7.35256,-4.7093,-8.485,Q,Q
2023-03-15 14:16:33:215,0,7.3815,-4.68348,-8.47102,Q,Q
2023-03-15 14:16:33:225,0,7.41342,-4.65641,-8.45132,Q,Q
2023-03-15 14:16:33:235,0,7.44239,-4.63144,-8.42768,Q,Q
2023-03-15 14:16:33:245,0,7.46678,-4.61152,-8.40577,Q,Q
2023-03-15 14:16:33:254,0,7.48305,-4.59115,-8.3818,Q,Q
2023-03-15 14:16:33:265,0,7.49468,-4.57352,-8.3603,Q,Q
2023-03-15 14:16:33:275,0,7.49426,-4.5484,-8.34444,Q,Q
2023-03-15 14:16:33:285,0,7.48908,-4.52721,-8.33263,Q,Q
2023-03-15 14:16:33:295,0,7.48945,-4.51054,-8.32087,Q,Q
2023-03-15 14:16:33:305,0,7.49357,-4.49611,-8.31433,Q,Q
2023-03-15 14:16:33:315,0,7.50296,-4.48434,-8.31168,Q,Q
2023-03-15 14:16:33:325,0,7.50606,-4.48228,-8.31599,Q,Q
2023-03-15 14:16:33:335,0,7.50909,-4.48416,-8.33377,Q,Q
2023-03-15 14:16:33:345,0,7.50871,-4.49044,-8.35666,Q,Q
2023-03-15 14:16:33:355,0,7.50594,-4.49459,-8.3954,Q,Q
2023-03-15 14:16:33:365,0,7.49824,-4.4989,-8.45573,Q,Q
2023-03-15 14:16:33:375,0,7.48509,-4.50133,-8.53114,Q,Q
2023-03-15 14:16:33:385,0,7.46907,-4.50427,-8.61706,Q,Q
2023-03-15 14:16:33:395,0,7.44385,-4.51477,-8.71509,Q,Q
2023-03-15 14:16:33:405,0,7.42394,-4.52553,-8.82582,Q,Q
2023-03-15 14:16:33:414,0,7.40994,-4.52923,-8.94587,Q,Q
2023-03-15 14:16:33:424,0,7.40035,-4.53484,-9.06872,Q,Q
2023-03-15 14:16:33:435,0,7.37731,-4.53353,-9.19192,Q,Q
2023-03-15 14:16:33:445,0,7.32986,-4.52577,-9.3259,Q,Q
2023-03-15 14:16:33:455,0,7.26107,-4.52037,-9.46291,Q,Q
2023-03-15 14:16:33:465,0,7.18352,-4.51191,-9.60792,Q,Q
2023-03-15 14:16:33:474,0,7.11061,-4.49971,-9.76073,Q,Q
2023-03-15 14:16:33:484,0,7.04722,-4.48284,-9.91781,Q,Q
2023-03-15 14:16:33:494,0,6.99388,-4.46205,-10.0761,Q,Q
2023-03-15 14:16:33:504,0,6.9475,-4.44138,-10.2365,Q,Q
2023-03-15 14:16:33:514,0,6.90162,-4.4204,-10.3917,Q,Q
2023-03-15 14:16:33:525,0,6.85956,-4.39633,-10.5489,Q,Q
2023-03-15 14:16:33:535,0,6.81293,-4.36597,-10.6965,Q,Q
2023-03-15 14:16:33:545,0,6.76779,-4.34075,-10.8411,Q,Q
2023-03-15 14:16:33:555,0,6.7211,-4.32277,-10.9799,Q,Q
2023-03-15 14:16:33:565,0,6.67294,-4.30567,-11.1088,Q,Q
2023-03-15 14:16:33:575,0,6.6133,-4.28291,-11.2267,Q,Q
2023-03-15 14:16:33:585,0,6.5586,-4.26213,-11.3393,Q,Q
2023-03-15 14:16:33:595,0,6.49994,-4.24365,-11.4454,Q,Q
2023-03-15 14:16:33:605,0,6.44404,-4.22688,-11.5421,Q,Q
2023-03-15 14:16:33:615,0,6.39335,-4.21179,-11.628,Q,Q
2023-03-15 14:16:33:625,0,6.34025,-4.19732,-11.7004,Q,Q
2023-03-15 14:16:33:634,0,6.28698,-4.18499,-11.7604,Q,Q
2023-03-15 14:16:33:645,0,6.2253,-4.17159,-11.8134,Q,Q
2023-03-15 14:16:33:655,0,6.15379,-4.16656,-11.8588,Q,Q
2023-03-15 14:16:33:665,0,6.07408,-4.17005,-11.9005,Q,Q
2023-03-15 14:16:33:675,0,5.98582,-4.17372,-11.9345,Q,Q
2023-03-15 14:16:33:685,0,5.893,-4.17619,-11.9705,Q,Q
2023-03-15 14:16:33:694,0,5.7824,-4.17487,-12.0117,Q,Q
2023-03-15 14:16:33:705,0,5.69971,-4.16724,-12.0591,Q,Q
2023-03-15 14:16:33:715,0,5.62946,-4.16268,-12.1026,Q,Q
2023-03-15 14:16:33:725,0,5.55668,-4.15879,-12.1406,Q,Q
2023-03-15 14:16:33:735,0,5.46345,-4.15816,-12.1804,Q,Q
2023-03-15 14:16:33:745,0,5.3668,-4.15725,-12.226,Q,Q
2023-03-15 14:16:33:755,0,5.27853,-4.15834,-12.2734,Q,Q
2023-03-15 14:16:33:765,0,5.20085,-4.15926,-12.3234,Q,Q
2023-03-15 14:16:33:775,0,5.13138,-4.15671,-12.3736,Q,Q
2023-03-15 14:16:33:785,0,5.06138,-4.15175,-12.4188,Q,Q
2023-03-15 14:16:33:795,0,4.98662,-4.14895,-12.4606,Q,Q
2023-03-15 14:16:33:805,0,4.9006,-4.14621,-12.5002,Q,Q
2023-03-15 14:16:33:815,0,4.80718,-4.13885,-12.5452,Q,Q
2023-03-15 14:16:33:825,0,4.71113,-4.13084,-12.5883,Q,Q
2023-03-15 14:16:33:835,0,4.60806,-4.12208,-12.6313,Q,Q
2023-03-15 14:16:33:845,0,4.50415,-4.11078,-12.6767,Q,Q
2023-03-15 14:16:33:854,0,4.38994,-4.0964,-12.7249,Q,Q
2023-03-15 14:16:33:865,0,4.27284,-4.07841,-12.7785,Q,Q
2023-03-15 14:16:33:875,0,4.15412,-4.05155,-12.8331,Q,Q
2023-03-15 14:16:33:885,0,4.0291,-4.02039,-12.8874,Q,Q
2023-03-15 14:16:33:894,0,3.89782,-3.99059,-12.944,Q,Q
2023-03-15 14:16:33:905,0,3.75689,-3.96538,-13.0098,Q,Q
2023-03-15 14:16:33:915,0,3.60661,-3.93559,-13.0788,Q,Q
2023-03-15 14:16:33:924,0,3.44572,-3.91427,-13.1523,Q,Q
2023-03-15 14:16:33:934,0,3.2819,-3.89592,-13.2273,Q,Q
2023-03-15 14:16:33:945,0,3.11475,-3.87963,-13.3092,Q,Q
2023-03-15 14:16:33:955,0,2.94138,-3.86215,-13.3929,Q,Q
2023-03-15 14:16:33:965,0,2.76685,-3.84781,-13.4818,Q,Q
2023-03-15 14:16:33:975,0,2.59809,-3.83489,-13.5723,Q,Q
2023-03-15 14:16:33:985,0,2.42955,-3.81962,-13.6644,Q,Q
2023-03-15 14:16:33:995,0,2.26281,-3.80174,-13.7599,Q,Q
2023-03-15 14:16:34:5,0,2.09084,-3.78399,-13.8551,Q,Q
2023-03-15 14:16:34:15,0,1.90871,-3.77356,-13.9505,Q,Q
2023-03-15 14:16:34:25,0,1.71967,-3.77218,-14.0418,Q,Q
2023-03-15 14:16:34:35,0,1.52543,-3.77341,-14.1355,Q,Q
2023-03-15 14:16:34:45,0,1.3248,-3.77886,-14.2306,Q,Q
2023-03-15 14:16:34:55,0,1.10922,-3.78439,-14.324,Q,Q
2023-03-15 14:16:34:65,0,0.89472,-3.78347,-14.4258,Q,Q
2023-03-15 14:16:34:75,0,0.674167,-3.76499,-14.542,Q,Q
2023-03-15 14:16:34:85,0,0.448695,-3.72395,-14.6744,Q,Q
2023-03-15 14:16:34:95,0,0.206848,-3.65465,-14.8242,Q,Q
2023-03-15 14:16:34:105,0,-0.0702052,-3.55961,-14.9914,Q,Q
2023-03-15 14:16:34:115,0,-0.399434,-3.45685,-15.1705,Q,Q
2023-03-15 14:16:34:125,0,-0.782472,-3.34777,-15.3699,Q,Q
2023-03-15 14:16:34:135,0,-1.19262,-3.23535,-15.5911,Q,Q
2023-03-15 14:16:34:145,0,-1.60852,-3.1257,-15.826,Q,Q
2023-03-15 14:16:34:155,0,-2.00967,-3.01754,-16.0671,Q,Q
2023-03-15 14:16:34:165,0,-2.38967,-2.91471,-16.3194,Q,Q
2023-03-15 14:16:34:174,0,-2.74705,-2.81639,-16.5834,Q,Q
2023-03-15 14:16:34:185,0,-3.09948,-2.71998,-16.8476,Q,Q
2023-03-15 14:16:34:195,0,-3.46947,-2.63674,-17.1101,Q,Q
2023-03-15 14:16:34:204,0,-3.86639,-2.57468,-17.3721,Q,Q
2023-03-15 14:16:34:214,0,-4.29292,-2.54204,-17.6334,Q,Q
2023-03-15 14:16:34:225,0,-4.71789,-2.53271,-17.8992,Q,Q
2023-03-15 14:16:34:235,0,-5.11968,-2.54232,-18.1579,Q,Q
2023-03-15 14:16:34:245,0,-5.48267,-2.55216,-18.4114,Q,Q
2023-03-15 14:16:34:254,0,-5.79813,-2.56347,-18.6581,Q,Q
2023-03-15 14:16:34:265,0,-6.07263,-2.57209,-18.8941,Q,Q
2023-03-15 14:16:34:275,0,-6.32011,-2.57735,-19.1167,Q,Q
2023-03-15 14:16:34:285,0,-6.54758,-2.58115,-19.3252,Q,Q
2023-03-15 14:16:34:295,0,-6.76419,-2.5833,-19.5311,Q,Q
2023-03-15 14:16:34:305,0,-6.96099,-2.58604,-19.7251,Q,Q
2023-03-15 14:16:34:315,0,-7.13482,-2.58839,-19.9101,Q,Q
2023-03-15 14:16:34:325,0,-7.27546,-2.58689,-20.0857,Q,Q
2023-03-15 14:16:34:335,0,-7.37983,-2.58145,-20.2527,Q,Q
2023-03-15 14:16:34:345,0,-7.43687,-2.56972,-20.4181,Q,Q
2023-03-15 14:16:34:355,0,-7.46116,-2.55269,-20.5766,Q,Q
2023-03-15 14:16:34:365,0,-7.46634,-2.5339,-20.7247,Q,Q
2023-03-15 14:16:34:375,0,-7.45995,-2.51676,-20.8634,Q,Q
2023-03-15 14:16:34:385,0,-7.43801,-2.49476,-20.9969,Q,Q
2023-03-15 14:16:34:395,0,-7.39983,-2.46874,-21.1244,Q,Q
2023-03-15 14:16:34:405,0,-7.35915,-2.43708,-21.2419,Q,Q
2023-03-15 14:16:34:414,0,-7.33426,-2.40766,-21.3541,Q,Q
2023-03-15 14:16:34:424,0,-7.31443,-2.37909,-21.4568,Q,Q
2023-03-15 14:16:34:435,0,-7.29704,-2.35388,-21.5571,Q,Q
2023-03-15 14:16:34:444,0,-7.2736,-2.32984,-21.6543,Q,Q
2023-03-15 14:16:34:454,0,-7.23384,-2.30271,-21.7371,Q,Q
2023-03-15 14:16:34:465,0,-7.1782,-2.2782,-21.8063,Q,Q
2023-03-15 14:16:34:474,0,-7.1186,-2.25764,-21.8652,Q,Q
2023-03-15 14:16:34:485,0,-7.05923,-2.24477,-21.9187,Q,Q
2023-03-15 14:16:34:494,0,-6.99545,-2.23573,-21.9627,Q,Q
2023-03-15 14:16:34:504,0,-6.92894,-2.23161,-22.0085,Q,Q
2023-03-15 14:16:34:514,0,-6.85874,-2.22528,-22.0471,Q,Q
2023-03-15 14:16:34:525,0,-6.79149,-2.2207,-22.0773,Q,Q
2023-03-15 14:16:34:534,0,-6.71809,-2.20883,-22.0997,Q,Q
2023-03-15 14:16:34:545,0,-6.65325,-2.19346,-22.1111,Q,Q
2023-03-15 14:16:34:555,0,-6.59486,-2.17647,-22.1183,Q,Q
2023-03-15 14:16:34:565,0,-6.55283,-2.16364,-22.1249,Q,Q
2023-03-15 14:16:34:575,0,-6.53509,-2.15498,-22.1379,Q,Q
2023-03-15 14:16:34:585,0,-6.53665,-2.14718,-22.16,Q,Q
2023-03-15 14:16:34:595,0,-6.53985,-2.13976,-22.1946,Q,Q
2023-03-15 14:16:34:605,0,-6.54347,-2.12991,-22.2348,Q,Q
2023-03-15 14:16:34:614,0,-6.53811,-2.11899,-22.28,Q,Q
2023-03-15 14:16:34:625,0,-6.53093,-2.10326,-22.325,Q,Q
2023-03-15 14:16:34:635,0,-6.51745,-2.08735,-22.3726,Q,Q
2023-03-15 14:16:34:645,0,-6.4993,-2.06514,-22.4213,Q,Q
2023-03-15 14:16:34:655,0,-6.48059,-2.0479,-22.4626,Q,Q
2023-03-15 14:16:34:665,0,-6.4639,-2.0345,-22.5042,Q,Q
2023-03-15 14:16:34:675,0,-6.44291,-2.02611,-22.5463,Q,Q
2023-03-15 14:16:34:685,0,-6.41151,-2.00443,-22.5865,Q,Q
2023-03-15 14:16:34:695,0,-6.38599,-1.97863,-22.623,Q,Q
2023-03-15 14:16:34:705,0,-6.36345,-1.95558,-22.6587,Q,Q
2023-03-15 14:16:34:715,0,-6.33276,-1.9328,-22.6941,Q,Q
2023-03-15 14:16:34:725,0,-6.28516,-1.91013,-22.7304,Q,Q
2023-03-15 14:16:34:735,0,-6.22339,-1.88644,-22.7613,Q,Q
2023-03-15 14:16:34:745,0,-6.14408,-1.86287,-22.789,Q,Q
2023-03-15 14:16:34:755,0,-6.0574,-1.84539,-22.8117,Q,Q
2023-03-15 14:16:34:765,0,-5.96264,-1.82737,-22.8299,Q,Q
2023-03-15 14:16:34:775,0,-5.86507,-1.8142,-22.8454,Q,Q
2023-03-15 14:16:34:785,0,-5.76401,-1.80289,-22.862,Q,Q
2023-03-15 14:16:34:795,0,-5.66755,-1.79036,-22.8822,Q,Q
2023-03-15 14:16:34:805,0,-5.57723,-1.77901,-22.9003,Q,Q
2023-03-15 14:16:34:815,0,-5.501,-1.7778,-22.9143,Q,Q
2023-03-15 14:16:34:825,0,-5.43314,-1.7773,-22.9249,Q,Q
2023-03-15 14:16:34:834,0,-5.36303,-1.77356,-22.9294,Q,Q
2023-03-15 14:16:34:845,0,-5.28837,-1.75929,-22.9276,Q,Q
2023-03-15 14:16:34:855,0,-5.2081,-1.73631,-22.9147,Q,Q
2023-03-15 14:16:34:865,0,-5.12766,-1.70677,-22.8922,Q,Q
2023-03-15 14:16:34:875,0,-5.0593,-1.67151,-22.8636,Q,Q
2023-03-15 14:16:34:885,0,-4.99343,-1.63826,-22.825,Q,Q
2023-03-15 14:16:34:895,0,-4.93967,-1.59888,-22.7874,Q,Q
2023-03-15 14:16:34:905,0,-4.89878,-1.55161,-22.7506,Q,Q
2023-03-15 14:16:34:915,0,-4.86363,-1.50254,-22.7182,Q,Q
2023-03-15 14:16:34:924,0,-4.83543,-1.44292,-22.6786,Q,Q
2023-03-15 14:16:34:934,0,-4.80564,-1.37196,-22.6309,Q,Q
2023-03-15 14:16:34:945,0,-4.79197,-1.30105,-22.5718,Q,Q
2023-03-15 14:16:34:955,0,-4.7784,-1.22783,-22.5022,Q,Q
2023-03-15 14:16:34:965,0,-4.76266,-1.15265,-22.4178,Q,Q
2023-03-15 14:16:34:975,0,-4.74525,-1.07422,-22.3192,Q,Q
2023-03-15 14:16:34:985,0,-4.74058,-0.992832,-22.2046,Q,Q
2023-03-15 14:16:34:995,0,-4.74087,-0.905838,-22.0785,Q,Q
2023-03-15 14:16:35:4,0,-4.74077,-0.81417,-21.9379,Q,Q
2023-03-15 14:16:35:15,0,-4.74838,-0.723373,-21.8035,Q,Q
2023-03-15 14:16:35:24,0,-4.75454,-0.63338,-21.6753,Q,Q
2023-03-15 14:16:35:35,0,-4.76221,-0.54258,-21.5585,Q,Q
2023-03-15 14:16:35:45,0,-4.74919,-0.4575,-21.464,Q,Q
2023-03-15 14:16:35:54,0,-4.71732,-0.377319,-21.3792,Q,Q
2023-03-15 14:16:35:65,0,-4.6805,-0.307064,-21.3111,Q,Q
2023-03-15 14:16:35:75,0,-4.65681,-0.256116,-21.2612,Q,Q
2023-03-15 14:16:35:85,0,-4.64807,-0.228911,-21.2296,Q,Q
2023-03-15 14:16:35:95,0,-4.64507,-0.220724,-21.2201,Q,Q
2023-03-15 14:16:35:105,0,-4.64976,-0.223994,-21.2324,Q,Q
2023-03-15 14:16:35:115,0,-4.65742,-0.230583,-21.2626,Q,Q
2023-03-15 14:16:35:125,0,-4.66743,-0.241531,-21.3056,Q,Q
2023-03-15 14:16:35:134,0,-4.6833,-0.255366,-21.3596,Q,Q
2023-03-15 14:16:35:145,0,-4.70296,-0.266833,-21.4201,Q,Q
2023-03-15 14:16:35:155,0,-4.72724,-0.280765,-21.4923,Q,Q
2023-03-15 14:16:35:165,0,-4.76243,-0.288509,-21.5697,Q,Q
2023-03-15 14:16:35:175,0,-4.79944,-0.29332,-21.6526,Q,Q
2023-03-15 14:16:35:185,0,-4.85637,-0.301168,-21.7413,Q,Q
2023-03-15 14:16:35:195,0,-4.92137,-0.312819,-21.8325,Q,Q
2023-03-15 14:16:35:205,0,-5.00871,-0.329713,-21.9219,Q,Q
2023-03-15 14:16:35:215,0,-5.11206,-0.353141,-22.0115,Q,Q
2023-03-15 14:16:35:225,0,-5.22671,-0.377602,-22.103,Q,Q
2023-03-15 14:16:35:235,0,-5.33925,-0.408569,-22.1962,Q,Q
2023-03-15 14:16:35:244,0,-5.45614,-0.441506,-22.2861,Q,Q
2023-03-15 14:16:35:254,0,-5.55414,-0.476946,-22.3797,Q,Q
2023-03-15 14:16:35:264,0,-5.63349,-0.5174,-22.4626,Q,Q
2023-03-15 14:16:35:275,0,-5.70751,-0.556898,-22.5395,Q,Q
2023-03-15 14:16:35:285,0,-5.78594,-0.602051,-22.6138,Q,Q
2023-03-15 14:16:35:295,0,-5.87476,-0.651834,-22.6842,Q,Q
2023-03-15 14:16:35:305,0,-5.96987,-0.70536,-22.746,Q,Q
2023-03-15 14:16:35:314,0,-6.06465,-0.765132,-22.8041,Q,Q
2023-03-15 14:16:35:325,0,-6.14674,-0.822267,-22.8552,Q,Q
2023-03-15 14:16:35:335,0,-6.21796,-0.881044,-22.9019,Q,Q
2023-03-15 14:16:35:345,0,-6.27771,-0.939686,-22.9456,Q,Q
2023-03-15 14:16:35:354,0,-6.32347,-0.99961,-22.9849,Q,Q
2023-03-15 14:16:35:365,0,-6.34374,-1.05475,-23.0225,Q,Q
2023-03-15 14:16:35:375,0,-6.34042,-1.10367,-23.0531,Q,Q
2023-03-15 14:16:35:385,0,-6.32488,-1.14603,-23.0771,Q,Q
2023-03-15 14:16:35:395,0,-6.31247,-1.17842,-23.0928,Q,Q
2023-03-15 14:16:35:405,0,-6.30869,-1.21318,-23.1073,Q,Q
2023-03-15 14:16:35:415,0,-6.31895,-1.25074,-23.1251,Q,Q
2023-03-15 14:16:35:424,0,-6.33242,-1.28847,-23.1417,Q,Q
2023-03-15 14:16:35:434,0,-6.34298,-1.32783,-23.1569,Q,Q
2023-03-15 14:16:35:444,0,-6.35275,-1.36088,-23.1728,Q,Q
2023-03-15 14:16:35:455,0,-6.36313,-1.39086,-23.1836,Q,Q
2023-03-15 14:16:35:465,0,-6.37898,-1.42286,-23.197,Q,Q
2023-03-15 14:16:35:474,0,-6.40027,-1.46008,-23.2155,Q,Q
2023-03-15 14:16:35:484,0,-6.43442,-1.50069,-23.2337,Q,Q
2023-03-15 14:16:35:494,0,-6.47993,-1.54342,-23.2576,Q,Q
2023-03-15 14:16:35:505,0,-6.53987,-1.59377,-23.2958,Q,Q
2023-03-15 14:16:35:514,0,-6.60708,-1.6484,-23.3626,Q,Q
2023-03-15 14:16:35:524,0,-6.66873,-1.71729,-23.4813,Q,Q
2023-03-15 14:16:35:534,0,-6.71379,-1.79525,-23.6739,Q,Q
2023-03-15 14:16:35:544,0,-6.73212,-1.89771,-23.9501,Q,Q
2023-03-15 14:16:35:554,0,-6.70948,-2.02826,-24.3031,Q,Q
2023-03-15 14:16:35:564,0,-6.63813,-2.19243,-24.719,Q,Q
2023-03-15 14:16:35:574,0,-6.53409,-2.39024,-25.1816,Q,Q
2023-03-15 14:16:35:584,0,-6.41555,-2.6102,-25.6776,Q,Q
2023-03-15 14:16:35:594,0,-6.28201,-2.8401,-26.1996,Q,Q
2023-03-15 14:16:35:604,0,-6.13609,-3.08019,-26.7304,Q,Q
2023-03-15 14:16:35:614,0,-5.98241,-3.31684,-27.2591,Q,Q
2023-03-15 14:16:35:624,0,-5.82788,-3.53979,-27.7704,Q,Q
2023-03-15 14:16:35:634,0,-5.6824,-3.74138,-28.2559,Q,Q
2023-03-15 14:16:35:645,0,-5.56252,-3.92354,-28.7109,Q,Q
2023-03-15 14:16:35:654,0,-5.46876,-4.07795,-29.1298,Q,Q
2023-03-15 14:16:35:665,0,-5.40092,-4.20508,-29.5129,Q,Q
2023-03-15 14:16:35:675,0,-5.35435,-4.30842,-29.8559,Q,Q
2023-03-15 14:16:35:685,0,-5.32482,-4.3856,-30.1617,Q,Q
2023-03-15 14:16:35:695,0,-5.30508,-4.44126,-30.4286,Q,Q
2023-03-15 14:16:35:704,0,-5.2887,-4.47759,-30.6612,Q,Q
2023-03-15 14:16:35:714,0,-5.26931,-4.50037,-30.8597,Q,Q
2023-03-15 14:16:35:724,0,-5.25411,-4.51789,-31.0196,Q,Q
2023-03-15 14:16:35:734,0,-5.2391,-4.53108,-31.1544,Q,Q
2023-03-15 14:16:35:744,0,-5.23028,-4.54244,-31.258,Q,Q
2023-03-15 14:16:35:754,0,-5.22741,-4.54895,-31.3355,Q,Q
2023-03-15 14:16:35:764,0,-5.23012,-4.55487,-31.3896,Q,Q
2023-03-15 14:16:35:775,0,-5.23052,-4.55437,-31.4221,Q,Q
2023-03-15 14:16:35:785,0,-5.22075,-4.55004,-31.4362,Q,Q
2023-03-15 14:16:35:795,0,-5.19854,-4.53615,-31.4343,Q,Q
2023-03-15 14:16:35:805,0,-5.15606,-4.5141,-31.4214,Q,Q
2023-03-15 14:16:35:815,0,-5.09918,-4.49476,-31.4037,Q,Q
2023-03-15 14:16:35:825,0,-5.02502,-4.47315,-31.3794,Q,Q
2023-03-15 14:16:35:835,0,-4.93361,-4.44707,-31.3495,Q,Q
2023-03-15 14:16:35:845,0,-4.8158,-4.41669,-31.3202,Q,Q
2023-03-15 14:16:35:855,0,-4.65777,-4.38119,-31.2856,Q,Q
2023-03-15 14:16:35:865,0,-4.45439,-4.34215,-31.2476,Q,Q
2023-03-15 14:16:35:875,0,-4.21161,-4.29862,-31.2099,Q,Q
2023-03-15 14:16:35:885,0,-3.9299,-4.25358,-31.1785,Q,Q
2023-03-15 14:16:35:895,0,-3.60182,-4.20122,-31.1511,Q,Q
2023-03-15 14:16:35:905,0,-3.22787,-4.14193,-31.1246,Q,Q
2023-03-15 14:16:35:915,0,-2.81469,-4.08058,-31.0969,Q,Q
2023-03-15 14:16:35:924,0,-2.36065,-4.01338,-31.0596,Q,Q
2023-03-15 14:16:35:934,0,-1.87324,-3.94198,-31.0174,Q,Q
2023-03-15 14:16:35:945,0,-1.36738,-3.86239,-30.9628,Q,Q
2023-03-15 14:16:35:955,0,-0.858767,-3.77929,-30.9051,Q,Q
2023-03-15 14:16:35:965,0,-0.345146,-3.69459,-30.8488,Q,Q
2023-03-15 14:16:35:975,0,0.177856,-3.60762,-30.7963,Q,Q
2023-03-15 14:16:35:985,0,0.719029,-3.52357,-30.7563,Q,Q
2023-03-15 14:16:35:995,0,1.27545,-3.4293,-30.713,Q,Q
2023-03-15 14:16:36:5,0,1.84194,-3.33396,-30.6656,Q,Q
2023-03-15 14:16:36:15,0,2.39447,-3.23466,-30.6141,Q,Q
2023-03-15 14:16:36:25,0,2.92052,-3.13616,-30.558,Q,Q
2023-03-15 14:16:36:34,0,3.40285,-3.03728,-30.494,Q,Q
2023-03-15 14:16:36:45,0,3.84329,-2.95012,-30.4278,Q,Q
2023-03-15 14:16:36:55,0,4.23911,-2.88065,-30.3636,Q,Q
2023-03-15 14:16:36:65,0,4.58975,-2.82217,-30.3117,Q,Q
2023-03-15 14:16:36:75,0,4.90657,-2.76369,-30.2662,Q,Q
2023-03-15 14:16:36:85,0,5.20135,-2.70541,-30.223,Q,Q
2023-03-15 14:16:36:95,0,5.48239,-2.64493,-30.1798,Q,Q
2023-03-15 14:16:36:105,0,5.74574,-2.58543,-30.1333,Q,Q
2023-03-15 14:16:36:115,0,5.97933,-2.53518,-30.0921,Q,Q
2023-03-15 14:16:36:125,0,6.18326,-2.49141,-30.0475,Q,Q
2023-03-15 14:16:36:135,0,6.36562,-2.45265,-30.0053,Q,Q
2023-03-15 14:16:36:145,0,6.52696,-2.41415,-29.9541,Q,Q
2023-03-15 14:16:36:155,0,6.67175,-2.38336,-29.8993,Q,Q
2023-03-15 14:16:36:165,0,6.79441,-2.3641,-29.838,Q,Q
2023-03-15 14:16:36:175,0,6.88648,-2.34547,-29.7691,Q,Q
2023-03-15 14:16:36:185,0,6.94209,-2.33147,-29.6989,Q,Q
2023-03-15 14:16:36:195,0,6.95886,-2.31962,-29.6279,Q,Q
2023-03-15 14:16:36:205,0,6.94429,-2.31749,-29.5666,Q,Q
2023-03-15 14:16:36:215,0,6.91274,-2.32265,-29.5089,Q,Q
2023-03-15 14:16:36:225,0,6.87611,-2.33149,-29.4602,Q,Q
2023-03-15 14:16:36:235,0,6.85212,-2.34942,-29.4105,Q,Q
2023-03-15 14:16:36:245,0,6.85233,-2.37251,-29.3621,Q,Q
2023-03-15 14:16:36:254,0,6.86556,-2.39884,-29.3093,Q,Q
2023-03-15 14:16:36:264,0,6.86557,-2.43339,-29.2504,Q,Q
2023-03-15 14:16:36:274,0,6.83091,-2.47888,-29.191,Q,Q
2023-03-15 14:16:36:284,0,6.77979,-2.53474,-29.135,Q,Q
2023-03-15 14:16:36:294,0,6.72898,-2.5982,-29.0846,Q,Q
2023-03-15 14:16:36:304,0,6.70834,-2.66144,-29.0359,Q,Q
2023-03-15 14:16:36:314,0,6.73174,-2.72106,-28.9876,Q,Q
2023-03-15 14:16:36:325,0,6.79732,-2.7782,-28.9336,Q,Q
2023-03-15 14:16:36:335,0,6.89091,-2.82952,-28.8759,Q,Q
2023-03-15 14:16:36:345,0,6.99598,-2.87322,-28.8125,Q,Q
2023-03-15 14:16:36:354,0,7.10722,-2.90774,-28.7471,Q,Q
2023-03-15 14:16:36:365,0,7.22669,-2.932,-28.6819,Q,Q
2023-03-15 14:16:36:375,0,7.36572,-2.95425,-28.6126,Q,Q
2023-03-15 14:16:36:385,0,7.51833,-2.97025,-28.5267,Q,Q
2023-03-15 14:16:36:395,0,7.66707,-2.98543,-28.4344,Q,Q
2023-03-15 14:16:36:405,0,7.8037,-3.00344,-28.3405,Q,Q
2023-03-15 14:16:36:415,0,7.92859,-3.01988,-28.2468,Q,Q
2023-03-15 14:16:36:424,0,8.04496,-3.0362,-28.1502,Q,Q
2023-03-15 14:16:36:435,0,8.15657,-3.05536,-28.0506,Q,Q
2023-03-15 14:16:36:445,0,8.26745,-3.0752,-27.9474,Q,Q
2023-03-15 14:16:36:455,0,8.38284,-3.08933,-27.838,Q,Q
2023-03-15 14:16:36:465,0,8.49426,-3.10667,-27.7153,Q,Q
2023-03-15 14:16:36:475,0,8.59001,-3.12965,-27.5802,Q,Q
2023-03-15 14:16:36:485,0,8.66812,-3.15815,-27.4315,Q,Q
2023-03-15 14:16:36:494,0,8.7337,-3.19459,-27.2735,Q,Q
2023-03-15 14:16:36:505,0,8.80359,-3.2446,-27.1067,Q,Q
2023-03-15 14:16:36:515,0,8.89078,-3.30207,-26.9372,Q,Q
2023-03-15 14:16:36:524,0,8.99644,-3.36174,-26.7654,Q,Q
2023-03-15 14:16:36:535,0,9.11965,-3.4178,-26.5853,Q,Q
2023-03-15 14:16:36:544,0,9.25753,-3.46983,-26.4001,Q,Q
2023-03-15 14:16:36:555,0,9.39597,-3.51438,-26.2153,Q,Q
2023-03-15 14:16:36:565,0,9.52769,-3.5585,-26.0366,Q,Q
2023-03-15 14:16:36:575,0,9.65832,-3.59175,-25.8746,Q,Q
2023-03-15 14:16:36:585,0,9.78477,-3.6143,-25.7249,Q,Q
2023-03-15 14:16:36:594,0,9.91036,-3.62722,-25.5904,Q,Q
2023-03-15 14:16:36:604,0,10.0341,-3.6263,-25.4689,Q,Q
2023-03-15 14:16:36:615,0,10.1583,-3.61989,-25.3632,Q,Q
2023-03-15 14:16:36:625,0,10.2819,-3.60492,-25.2622,Q,Q
2023-03-15 14:16:36:634,0,10.4025,-3.59258,-25.1701,Q,Q
2023-03-15 14:16:36:645,0,10.5221,-3.57961,-25.0831,Q,Q
2023-03-15 14:16:36:655,0,10.6378,-3.56512,-24.9977,Q,Q
2023-03-15 14:16:36:665,0,10.7531,-3.55183,-24.9188,Q,Q
2023-03-15 14:16:36:674,0,10.8608,-3.54055,-24.8436,Q,Q
2023-03-15 14:16:36:685,0,10.9636,-3.52679,-24.7723,Q,Q
2023-03-15 14:16:36:695,0,11.052,-3.51117,-24.7014,Q,Q
2023-03-15 14:16:36:705,0,11.131,-3.49219,-24.6339,Q,Q
2023-03-15 14:16:36:715,0,11.2043,-3.47633,-24.5702,Q,Q
2023-03-15 14:16:36:725,0,11.2706,-3.46045,-24.5079,Q,Q
2023-03-15 14:16:36:735,0,11.3348,-3.44488,-24.448,Q,Q
2023-03-15 14:16:36:745,0,11.3939,-3.42447,-24.3941,Q,Q
2023-03-15 14:16:36:755,0,11.4434,-3.40936,-24.3468,Q,Q
2023-03-15 14:16:36:765,0,11.4877,-3.39622,-24.3022,Q,Q
2023-03-15 14:16:36:775,0,11.5298,-3.3836,-24.2604,Q,Q
2023-03-15 14:16:36:785,0,11.5665,-3.37222,-24.2216,Q,Q
2023-03-15 14:16:36:794,0,11.6007,-3.36558,-24.1892,Q,Q
2023-03-15 14:16:36:805,0,11.631,-3.36527,-24.1583,Q,Q
2023-03-15 14:16:36:815,0,11.6539,-3.36385,-24.1266,Q,Q
2023-03-15 14:16:36:825,0,11.6725,-3.36589,-24.0992,Q,Q
2023-03-15 14:16:36:835,0,11.6787,-3.36798,-24.0705,Q,Q
2023-03-15 14:16:36:845,0,11.6766,-3.37238,-24.0395,Q,Q
2023-03-15 14:16:36:855,0,11.6676,-3.37646,-24.0093,Q,Q
2023-03-15 14:16:36:865,0,11.6469,-3.38586,-23.9821,Q,Q
2023-03-15 14:16:36:875,0,11.6182,-3.3938,-23.9559,Q,Q
2023-03-15 14:16:36:885,0,11.5872,-3.39966,-23.9273,Q,Q
2023-03-15 14:16:36:895,0,11.5454,-3.40674,-23.9008,Q,Q
2023-03-15 14:16:36:905,0,11.5046,-3.41386,-23.8791,Q,Q
2023-03-15 14:16:36:915,0,11.4634,-3.42266,-23.8631,Q,Q
2023-03-15 14:16:36:924,0,11.4198,-3.42865,-23.8443,Q,Q
2023-03-15 14:16:36:934,0,11.379,-3.43125,-23.8287,Q,Q
2023-03-15 14:16:36:944,0,11.3408,-3.43578,-23.8161,Q,Q
2023-03-15 14:16:36:955,0,11.3111,-3.43511,-23.8086,Q,Q
2023-03-15 14:16:36:965,0,11.2886,-3.43579,-23.7963,Q,Q
2023-03-15 14:16:36:975,0,11.2754,-3.43248,-23.7872,Q,Q
2023-03-15 14:16:36:985,0,11.2683,-3.42767,-23.7782,Q,Q
2023-03-15 14:16:36:995,0,11.2665,-3.42489,-23.7674,Q,Q
2023-03-15 14:16:37:5,0,11.267,-3.42742,-23.7547,Q,Q
2023-03-15 14:16:37:15,0,11.2658,-3.43802,-23.7327,Q,Q
2023-03-15 14:16:37:25,0,11.2626,-3.45785,-23.7047,Q,Q
2023-03-15 14:16:37:35,0,11.2533,-3.48449,-23.6737,Q,Q
2023-03-15 14:16:37:45,0,11.2377,-3.51073,-23.6392,Q,Q
2023-03-15 14:16:37:55,0,11.2044,-3.53732,-23.6085,Q,Q
2023-03-15 14:16:37:65,0,11.1587,-3.55889,-23.5867,Q,Q
2023-03-15 14:16:37:75,0,11.1034,-3.57806,-23.5655,Q,Q
2023-03-15 14:16:37:85,0,11.0422,-3.59037,-23.5524,Q,Q
2023-03-15 14:16:37:95,0,10.9792,-3.59985,-23.5428,Q,Q
2023-03-15 14:16:37:105,0,10.9144,-3.60644,-23.5356,Q,Q
2023-03-15 14:16:37:115,0,10.8524,-3.61447,-23.5319,Q,Q
2023-03-15 14:16:37:125,0,10.7962,-3.61734,-23.5324,Q,Q
2023-03-15 14:16:37:135,0,10.742,-3.62201,-23.5385,Q,Q
2023-03-15 14:16:37:145,0,10.6876,-3.62014,-23.5464,Q,Q
2023-03-15 14:16:37:155,0,10.6282,-3.6209,-23.5584,Q,Q
2023-03-15 14:16:37:165,0,10.5699,-3.61807,-23.5717,Q,Q
2023-03-15 14:16:37:175,0,10.5171,-3.60927,-23.5835,Q,Q
2023-03-15 14:16:37:185,0,10.4617,-3.60277,-23.5987,Q,Q
2023-03-15 14:16:37:195,0,10.4131,-3.58999,-23.6109,Q,Q
2023-03-15 14:16:37:205,0,10.3705,-3.57709,-23.6231,Q,Q
2023-03-15 14:16:37:215,0,10.3263,-3.56643,-23.635,Q,Q
2023-03-15 14:16:37:225,0,10.2879,-3.55579,-23.6455,Q,Q
2023-03-15 14:16:37:235,0,10.2558,-3.54383,-23.6533,Q,Q
2023-03-15 14:16:37:245,0,10.2174,-3.52587,-23.6556,Q,Q
2023-03-15 14:16:37:255,0,10.1694,-3.51851,-23.6544,Q,Q
2023-03-15 14:16:37:265,0,10.1138,-3.50991,-23.6539,Q,Q
2023-03-15 14:16:37:275,0,10.0589,-3.50365,-23.6489,Q,Q
2023-03-15 14:16:37:285,0,10.0021,-3.49655,-23.6389,Q,Q
2023-03-15 14:16:37:294,0,9.94654,-3.48878,-23.628,Q,Q
2023-03-15 14:16:37:305,0,9.89294,-3.47713,-23.6105,Q,Q
2023-03-15 14:16:37:315,0,9.83747,-3.4638,-23.5898,Q,Q
2023-03-15 14:16:37:325,0,9.7832,-3.45356,-23.5638,Q,Q
2023-03-15 14:16:37:335,0,9.7319,-3.44578,-23.5334,Q,Q
2023-03-15 14:16:37:345,0,9.68235,-3.43962,-23.5019,Q,Q
2023-03-15 14:16:37:355,0,9.62795,-3.43395,-23.4656,Q,Q
2023-03-15 14:16:37:365,0,9.57395,-3.43409,-23.4254,Q,Q
2023-03-15 14:16:37:375,0,9.51286,-3.43485,-23.3834,Q,Q
2023-03-15 14:16:37:385,0,9.4556,-3.44156,-23.3399,Q,Q
2023-03-15 14:16:37:395,0,9.39987,-3.45132,-23.2969,Q,Q
2023-03-15 14:16:37:405,0,9.34566,-3.46142,-23.2521,Q,Q
2023-03-15 14:16:37:414,0,9.29359,-3.47061,-23.2018,Q,Q
2023-03-15 14:16:37:424,0,9.24179,-3.48357,-23.1547,Q,Q
2023-03-15 14:16:37:434,0,9.18626,-3.49515,-23.1065,Q,Q
2023-03-15 14:16:37:445,0,9.13047,-3.50503,-23.0597,Q,Q
2023-03-15 14:16:37:454,0,9.0715,-3.51669,-23.0168,Q,Q
2023-03-15 14:16:37:465,0,9.01055,-3.52554,-22.9732,Q,Q
2023-03-15 14:16:37:475,0,8.94684,-3.53376,-22.9307,Q,Q
2023-03-15 14:16:37:485,0,8.87532,-3.53905,-22.8926,Q,Q
2023-03-15 14:16:37:495,0,8.80409,-3.54556,-22.8576,Q,Q
2023-03-15 14:16:37:505,0,8.73153,-3.54506,-22.8278,Q,Q
2023-03-15 14:16:37:515,0,8.66082,-3.54275,-22.7984,Q,Q
2023-03-15 14:16:37:525,0,8.58901,-3.53591,-22.7751,Q,Q
2023-03-15 14:16:37:534,0,8.51688,-3.52648,-22.7524,Q,Q
2023-03-15 14:16:37:544,0,8.44837,-3.521,-22.7392,Q,Q
2023-03-15 14:16:37:555,0,8.37727,-3.51682,-22.739,Q,Q
2023-03-15 14:16:37:565,0,8.311,-3.51101,-22.7526,Q,Q
2023-03-15 14:16:37:575,0,8.24722,-3.50684,-22.7732,Q,Q
2023-03-15 14:16:37:585,0,8.18538,-3.50579,-22.8067,Q,Q
2023-03-15 14:16:37:595,0,8.11992,-3.50135,-22.8498,Q,Q
2023-03-15 14:16:37:605,0,8.06111,-3.49506,-22.8994,Q,Q
2023-03-15 14:16:37:615,0,8.01016,-3.49188,-22.9626,Q,Q
2023-03-15 14:16:37:625,0,7.95556,-3.48369,-23.0366,Q,Q
2023-03-15 14:16:37:635,0,7.895,-3.4789,-23.1244,Q,Q
2023-03-15 14:16:37:645,0,7.83794,-3.47435,-23.2265,Q,Q
2023-03-15 14:16:37:655,0,7.79549,-3.46809,-23.3398,Q,Q
2023-03-15 14:16:37:665,0,7.75447,-3.45862,-23.4559,Q,Q
2023-03-15 14:16:37:674,0,7.7064,-3.45409,-23.5855,Q,Q
2023-03-15 14:16:37:685,0,7.64777,-3.45324,-23.7337,Q,Q
2023-03-15 14:16:37:695,0,7.59791,-3.447,-23.8934,Q,Q
2023-03-15 14:16:37:705,0,7.54877,-3.44632,-24.0661,Q,Q
2023-03-15 14:16:37:715,0,7.50353,-3.44374,-24.2449,Q,Q
2023-03-15 14:16:37:725,0,7.46363,-3.44139,-24.4316,Q,Q
2023-03-15 14:16:37:735,0,7.42552,-3.43604,-24.6192,Q,Q
2023-03-15 14:16:37:745,0,7.39336,-3.42971,-24.8124,Q,Q
2023-03-15 14:16:37:755,0,7.35961,-3.42699,-25.0057,Q,Q
2023-03-15 14:16:37:765,0,7.33495,-3.42664,-25.1989,Q,Q
2023-03-15 14:16:37:775,0,7.31339,-3.43276,-25.3876,Q,Q
2023-03-15 14:16:37:785,0,7.29643,-3.43999,-25.567,Q,Q
2023-03-15 14:16:37:795,0,7.27628,-3.44621,-25.7453,Q,Q
2023-03-15 14:16:37:804,0,7.25016,-3.45065,-25.9131,Q,Q
2023-03-15 14:16:37:815,0,7.21719,-3.44844,-26.0802,Q,Q
2023-03-15 14:16:37:825,0,7.18116,-3.43966,-26.2422,Q,Q
2023-03-15 14:16:37:835,0,7.14274,-3.42447,-26.4013,Q,Q
2023-03-15 14:16:37:845,0,7.10872,-3.40802,-26.5503,Q,Q
2023-03-15 14:16:37:855,0,7.08137,-3.38778,-26.6923,Q,Q
2023-03-15 14:16:37:865,0,7.05833,-3.36516,-26.8253,Q,Q
2023-03-15 14:16:37:875,0,7.03991,-3.34318,-26.945,Q,Q
2023-03-15 14:16:37:885,0,7.02871,-3.32228,-27.0573,Q,Q
2023-03-15 14:16:37:895,0,7.025,-3.29637,-27.1498,Q,Q
2023-03-15 14:16:37:905,0,7.02486,-3.27144,-27.2284,Q,Q
2023-03-15 14:16:37:915,0,7.02257,-3.23893,-27.2929,Q,Q
2023-03-15 14:16:37:924,0,7.02037,-3.21073,-27.3398,Q,Q
2023-03-15 14:16:37:934,0,7.01556,-3.18482,-27.374,Q,Q
2023-03-15 14:16:37:945,0,7.00754,-3.1571,-27.3955,Q,Q
2023-03-15 14:16:37:955,0,6.99965,-3.13431,-27.4061,Q,Q
2023-03-15 14:16:37:965,0,6.99186,-3.10887,-27.4079,Q,Q
2023-03-15 14:16:37:975,0,6.98434,-3.08264,-27.4038,Q,Q
2023-03-15 14:16:37:985,0,6.98203,-3.05877,-27.3977,Q,Q
2023-03-15 14:16:37:995,0,6.97774,-3.03807,-27.3906,Q,Q
2023-03-15 14:16:38:5,0,6.97867,-3.02272,-27.3812,Q,Q
2023-03-15 14:16:38:15,0,6.97304,-3.01536,-27.3655,Q,Q
2023-03-15 14:16:38:25,0,6.97063,-3.01143,-27.3491,Q,Q
2023-03-15 14:16:38:35,0,6.96649,-3.01296,-27.3307,Q,Q
2023-03-15 14:16:38:45,0,6.96181,-3.0162,-27.3111,Q,Q
2023-03-15 14:16:38:54,0,6.95783,-3.01886,-27.2924,Q,Q
2023-03-15 14:16:38:65,0,6.95588,-3.01911,-27.2718,Q,Q
2023-03-15 14:16:38:75,0,6.94803,-3.02208,-27.2487,Q,Q
2023-03-15 14:16:38:85,0,6.9451,-3.03049,-27.2203,Q,Q
2023-03-15 14:16:38:95,0,6.9426,-3.03541,-27.1938,Q,Q
2023-03-15 14:16:38:105,0,6.93732,-3.04491,-27.1685,Q,Q
2023-03-15 14:16:38:115,0,6.9318,-3.04865,-27.1386,Q,Q
2023-03-15 14:16:38:125,0,6.93084,-3.04897,-27.0971,Q,Q
2023-03-15 14:16:38:135,0,6.924,-3.04822,-27.0485,Q,Q
2023-03-15 14:16:38:145,0,6.92026,-3.04601,-26.9918,Q,Q
2023-03-15 14:16:38:155,0,6.91716,-3.04747,-26.9224,Q,Q
2023-03-15 14:16:38:165,0,6.91898,-3.05011,-26.8421,Q,Q
2023-03-15 14:16:38:175,0,6.91744,-3.05794,-26.7536,Q,Q
2023-03-15 14:16:38:185,0,6.91278,-3.06873,-26.6542,Q,Q
2023-03-15 14:16:38:195,0,6.90216,-3.08535,-26.5537,Q,Q
2023-03-15 14:16:38:205,0,6.89287,-3.11109,-26.4502,Q,Q
2023-03-15 14:16:38:215,0,6.87869,-3.13608,-26.3474,Q,Q
2023-03-15 14:16:38:225,0,6.85308,-3.16302,-26.2491,Q,Q
2023-03-15 14:16:38:235,0,6.81861,-3.18581,-26.1515,Q,Q
2023-03-15 14:16:38:245,0,6.7815,-3.20494,-26.0534,Q,Q
2023-03-15 14:16:38:255,0,6.74141,-3.22595,-25.9543,Q,Q
2023-03-15 14:16:38:265,0,6.70711,-3.24902,-25.8597,Q,Q
2023-03-15 14:16:38:275,0,6.68035,-3.27264,-25.7664,Q,Q
2023-03-15 14:16:38:284,0,6.65708,-3.29481,-25.6713,Q,Q
2023-03-15 14:16:38:294,0,6.64077,-3.31376,-25.5748,Q,Q
2023-03-15 14:16:38:304,0,6.62754,-3.33222,-25.4811,Q,Q
2023-03-15 14:16:38:314,0,6.61839,-3.34742,-25.3887,Q,Q
2023-03-15 14:16:38:324,0,6.61309,-3.36189,-25.2968,Q,Q
2023-03-15 14:16:38:334,0,6.60431,-3.37673,-25.2126,Q,Q
2023-03-15 14:16:38:344,0,6.59072,-3.38466,-25.1348,Q,Q
2023-03-15 14:16:38:354,0,6.56743,-3.3965,-25.0607,Q,Q
2023-03-15 14:16:38:364,0,6.54622,-3.40712,-24.9943,Q,Q
2023-03-15 14:16:38:374,0,6.53365,-3.41414,-24.9349,Q,Q
2023-03-15 14:16:38:384,0,6.53392,-3.42085,-24.879,Q,Q
2023-03-15 14:16:38:394,0,6.53945,-3.42934,-24.8286,Q,Q
