Timestamp_cmd,imu_cmd,roll_delta,pitch_delta,yaw_delta,voice_type,voice_length
2023-03-15 11:09:53:481,0,1.5237,-2.05116,48.0879,Q,Q
2023-03-15 11:09:53:489,0,1.46428,-2.04515,48.1734,Q,Q
2023-03-15 11:09:53:499,0,1.40176,-2.03879,48.2585,Q,Q
2023-03-15 11:09:53:509,0,1.34347,-2.03767,48.3383,Q,Q
2023-03-15 11:09:53:520,0,1.2879,-2.03756,48.4181,Q,Q
2023-03-15 11:09:53:529,0,1.23589,-2.03608,48.4986,Q,Q
2023-03-15 11:09:53:539,0,1.19084,-2.03848,48.5828,Q,Q
2023-03-15 11:09:53:549,0,1.15098,-2.04417,48.6587,Q,Q
2023-03-15 11:09:53:559,0,1.11714,-2.04838,48.7323,Q,Q
2023-03-15 11:09:53:569,0,1.08703,-2.05274,48.7993,Q,Q
2023-03-15 11:09:53:579,0,1.06373,-2.04925,48.8628,Q,Q
2023-03-15 11:09:53:590,0,1.04857,-2.0449,48.9214,Q,Q
2023-03-15 11:09:53:599,0,1.03396,-2.03919,48.973,Q,Q
2023-03-15 11:09:53:609,0,1.02097,-2.03196,49.0266,Q,Q
2023-03-15 11:09:53:619,0,1.01173,-2.02717,49.0805,Q,Q
2023-03-15 11:09:53:630,0,0.998293,-2.01982,49.1318,Q,Q
2023-03-15 11:09:53:640,0,0.984097,-2.00937,49.1774,Q,Q
2023-03-15 11:09:53:649,0,0.971823,-1.99512,49.2221,Q,Q
2023-03-15 11:09:53:659,0,0.961714,-1.98143,49.2635,Q,Q
2023-03-15 11:09:53:669,0,0.95373,-1.97415,49.2991,Q,Q
2023-03-15 11:09:53:680,0,0.941568,-1.96918,49.3305,Q,Q
2023-03-15 11:09:53:689,0,0.92386,-1.95576,49.3613,Q,Q
2023-03-15 11:09:53:699,0,0.914574,-1.9377,49.3919,Q,Q
2023-03-15 11:09:53:709,0,0.916383,-1.91802,49.4206,Q,Q
2023-03-15 11:09:53:720,0,0.913278,-1.90273,49.459,Q,Q
2023-03-15 11:09:53:729,0,0.904052,-1.88982,49.4915,Q,Q
2023-03-15 11:09:53:739,0,0.892604,-1.87738,49.5229,Q,Q
2023-03-15 11:09:53:750,0,0.878474,-1.8602,49.5491,Q,Q
2023-03-15 11:09:53:760,0,0.868152,-1.83986,49.569,Q,Q
2023-03-15 11:09:53:770,0,0.858784,-1.8167,49.5876,Q,Q
2023-03-15 11:09:53:780,0,0.850192,-1.79752,49.6064,Q,Q
2023-03-15 11:09:53:790,0,0.84349,-1.78557,49.6253,Q,Q
2023-03-15 11:09:53:800,0,0.837714,-1.78194,49.647,Q,Q
2023-03-15 11:09:53:809,0,0.823751,-1.78171,49.6696,Q,Q
2023-03-15 11:09:53:820,0,0.803607,-1.78046,49.6896,Q,Q
2023-03-15 11:09:53:830,0,0.779767,-1.77686,49.7046,Q,Q
2023-03-15 11:09:53:840,0,0.753913,-1.77385,49.7149,Q,Q
2023-03-15 11:09:53:850,0,0.724703,-1.77349,49.7088,Q,Q
2023-03-15 11:09:53:860,0,0.699754,-1.77921,49.6985,Q,Q
2023-03-15 11:09:53:870,0,0.67234,-1.77959,49.6915,Q,Q
2023-03-15 11:09:53:880,0,0.652352,-1.77087,49.6874,Q,Q
2023-03-15 11:09:53:890,0,0.645517,-1.76617,49.6877,Q,Q
2023-03-15 11:09:53:900,0,0.645791,-1.75988,49.6852,Q,Q
2023-03-15 11:09:53:910,0,0.645619,-1.7568,49.6871,Q,Q
2023-03-15 11:09:53:920,0,0.640195,-1.74347,49.686,Q,Q
2023-03-15 11:09:53:929,0,0.631093,-1.73649,49.684,Q,Q
2023-03-15 11:09:53:939,0,0.625989,-1.72736,49.681,Q,Q
2023-03-15 11:09:53:949,0,0.620696,-1.71511,49.6796,Q,Q
2023-03-15 11:09:53:959,0,0.614314,-1.70055,49.6713,Q,Q
2023-03-15 11:09:53:969,0,0.607549,-1.68696,49.662,Q,Q
2023-03-15 11:09:53:979,0,0.596927,-1.67318,49.6517,Q,Q
2023-03-15 11:09:53:989,0,0.587987,-1.66106,49.6342,Q,Q
2023-03-15 11:09:53:999,0,0.571803,-1.65917,49.6129,Q,Q
2023-03-15 11:09:54:9,0,0.547811,-1.6615,49.5952,Q,Q
2023-03-15 11:09:54:19,0,0.52283,-1.65869,49.5733,Q,Q
2023-03-15 11:09:54:29,0,0.501249,-1.65625,49.5471,Q,Q
2023-03-15 11:09:54:39,0,0.482638,-1.65437,49.5174,Q,Q
2023-03-15 11:09:54:49,0,0.469895,-1.65575,49.4902,Q,Q
2023-03-15 11:09:54:59,0,0.453632,-1.65556,49.4653,Q,Q
2023-03-15 11:09:54:69,0,0.437128,-1.6606,49.4409,Q,Q
2023-03-15 11:09:54:79,0,0.427414,-1.6618,49.4209,Q,Q
2023-03-15 11:09:54:89,0,0.420227,-1.66498,49.4121,Q,Q
2023-03-15 11:09:54:99,0,0.419204,-1.66697,49.4055,Q,Q
2023-03-15 11:09:54:109,0,0.417045,-1.66789,49.4015,Q,Q
2023-03-15 11:09:54:119,0,0.419916,-1.66863,49.4004,Q,Q
2023-03-15 11:09:54:129,0,0.424097,-1.66919,49.398,Q,Q
2023-03-15 11:09:54:139,0,0.42817,-1.66653,49.3967,Q,Q
2023-03-15 11:09:54:149,0,0.432593,-1.66216,49.4018,Q,Q
2023-03-15 11:09:54:159,0,0.437706,-1.65757,49.4102,Q,Q
2023-03-15 11:09:54:169,0,0.441885,-1.65874,49.4195,Q,Q
2023-03-15 11:09:54:179,0,0.445132,-1.65982,49.4322,Q,Q
2023-03-15 11:09:54:189,0,0.446918,-1.66298,49.4438,Q,Q
2023-03-15 11:09:54:199,0,0.445219,-1.667,49.4569,Q,Q
2023-03-15 11:09:54:209,0,0.438802,-1.66968,49.4718,Q,Q
2023-03-15 11:09:54:219,0,0.433899,-1.67203,49.4918,Q,Q
2023-03-15 11:09:54:229,0,0.429545,-1.67172,49.5154,Q,Q
2023-03-15 11:09:54:239,0,0.421696,-1.67486,49.5397,Q,Q
2023-03-15 11:09:54:249,0,0.414439,-1.67729,49.5647,Q,Q
2023-03-15 11:09:54:260,0,0.403209,-1.67677,49.5894,Q,Q
2023-03-15 11:09:54:269,0,0.387869,-1.67673,49.6129,Q,Q
2023-03-15 11:09:54:279,0,0.374025,-1.68138,49.6381,Q,Q
2023-03-15 11:09:54:289,0,0.356198,-1.68488,49.6647,Q,Q
2023-03-15 11:09:54:299,0,0.343458,-1.68616,49.6901,Q,Q
2023-03-15 11:09:54:309,0,0.325612,-1.68471,49.7111,Q,Q
2023-03-15 11:09:54:319,0,0.306498,-1.68358,49.7303,Q,Q
2023-03-15 11:09:54:329,0,0.290685,-1.68004,49.749,Q,Q
2023-03-15 11:09:54:339,0,0.277341,-1.68063,49.7614,Q,Q
2023-03-15 11:09:54:349,0,0.263925,-1.67428,49.7738,Q,Q
2023-03-15 11:09:54:359,0,0.24653,-1.6729,49.7837,Q,Q
2023-03-15 11:09:54:369,0,0.230352,-1.66587,49.7912,Q,Q
2023-03-15 11:09:54:379,0,0.213703,-1.6664,49.8017,Q,Q
2023-03-15 11:09:54:389,0,0.195833,-1.66382,49.8095,Q,Q
2023-03-15 11:09:54:399,0,0.176286,-1.66177,49.8097,Q,Q
2023-03-15 11:09:54:409,0,0.157416,-1.65947,49.8111,Q,Q
2023-03-15 11:09:54:419,0,0.133686,-1.66716,49.8094,Q,Q
2023-03-15 11:09:54:429,0,0.103218,-1.68616,49.8067,Q,Q
2023-03-15 11:09:54:439,0,0.0726737,-1.70136,49.8059,Q,Q
2023-03-15 11:09:54:450,0,0.0489054,-1.7084,49.8012,Q,Q
2023-03-15 11:09:54:460,0,0.0332382,-1.71933,49.7995,Q,Q
2023-03-15 11:09:54:470,0,0.024461,-1.73037,49.7975,Q,Q
2023-03-15 11:09:54:479,0,0.015634,-1.75094,49.7883,Q,Q
2023-03-15 11:09:54:490,0,0.000994675,-1.78742,49.763,Q,Q
2023-03-15 11:09:54:500,0,-0.013623,-1.83362,49.7061,Q,Q
2023-03-15 11:09:54:509,0,-0.0274667,-1.892,49.6098,Q,Q
2023-03-15 11:09:54:519,0,-0.025685,-1.9662,49.4583,Q,Q
2023-03-15 11:09:54:529,0,0.00190232,-2.06696,49.2393,Q,Q
2023-03-15 11:09:54:539,0,0.0440273,-2.19954,48.9346,Q,Q
2023-03-15 11:09:54:550,0,0.109637,-2.37295,48.532,Q,Q
2023-03-15 11:09:54:560,0,0.19515,-2.59422,48.0417,Q,Q
2023-03-15 11:09:54:569,0,0.302391,-2.85388,47.4738,Q,Q
2023-03-15 11:09:54:579,0,0.431264,-3.1537,46.8242,Q,Q
2023-03-15 11:09:54:589,0,0.579203,-3.48137,46.1008,Q,Q
2023-03-15 11:09:54:600,0,0.735652,-3.83321,45.3093,Q,Q
2023-03-15 11:09:54:610,0,0.88951,-4.19785,44.4584,Q,Q
2023-03-15 11:09:54:619,0,1.03933,-4.57237,43.5646,Q,Q
2023-03-15 11:09:54:630,0,1.18815,-4.95967,42.6342,Q,Q
2023-03-15 11:09:54:640,0,1.33771,-5.34803,41.6797,Q,Q
2023-03-15 11:09:54:650,0,1.4873,-5.72848,40.7103,Q,Q
2023-03-15 11:09:54:660,0,1.63775,-6.09538,39.7321,Q,Q
2023-03-15 11:09:54:670,0,1.79142,-6.44458,38.7639,Q,Q
2023-03-15 11:09:54:680,0,1.95175,-6.77375,37.8199,Q,Q
2023-03-15 11:09:54:690,0,2.12409,-7.0648,36.9082,Q,Q
2023-03-15 11:09:54:700,0,2.30432,-7.31354,36.049,Q,Q
2023-03-15 11:09:54:710,0,2.48556,-7.51524,35.2466,Q,Q
2023-03-15 11:09:54:720,0,2.66831,-7.65893,34.5018,Q,Q
2023-03-15 11:09:54:729,0,2.84516,-7.74701,33.8194,Q,Q
2023-03-15 11:09:54:739,0,3.01775,-7.78569,33.1911,Q,Q
2023-03-15 11:09:54:750,0,3.18896,-7.77598,32.6142,Q,Q
2023-03-15 11:09:54:760,0,3.35963,-7.74313,32.0824,Q,Q
2023-03-15 11:09:54:770,0,3.52661,-7.69489,31.5885,Q,Q
2023-03-15 11:09:54:780,0,3.69809,-7.63457,31.1437,Q,Q
2023-03-15 11:09:54:790,0,3.86955,-7.56736,30.7387,Q,Q
2023-03-15 11:09:54:800,0,4.04525,-7.50074,30.3692,Q,Q
2023-03-15 11:09:54:810,0,4.20958,-7.41899,30.0348,Q,Q
2023-03-15 11:09:54:820,0,4.3689,-7.32289,29.7324,Q,Q
2023-03-15 11:09:54:829,0,4.52044,-7.21083,29.4545,Q,Q
2023-03-15 11:09:54:840,0,4.66316,-7.0882,29.1966,Q,Q
2023-03-15 11:09:54:850,0,4.79265,-6.9615,28.9543,Q,Q
2023-03-15 11:09:54:860,0,4.90811,-6.83034,28.7233,Q,Q
2023-03-15 11:09:54:870,0,5.01352,-6.70109,28.5004,Q,Q
2023-03-15 11:09:54:879,0,5.11857,-6.57072,28.2807,Q,Q
2023-03-15 11:09:54:889,0,5.21223,-6.43984,28.0606,Q,Q
2023-03-15 11:09:54:900,0,5.29855,-6.30854,27.8466,Q,Q
2023-03-15 11:09:54:910,0,5.38396,-6.18828,27.6401,Q,Q
2023-03-15 11:09:54:920,0,5.46172,-6.08556,27.4444,Q,Q
2023-03-15 11:09:54:930,0,5.53584,-5.99204,27.263,Q,Q
2023-03-15 11:09:54:939,0,5.60347,-5.90376,27.0969,Q,Q
2023-03-15 11:09:54:950,0,5.66402,-5.82846,26.9434,Q,Q
2023-03-15 11:09:54:960,0,5.72424,-5.75841,26.8064,Q,Q
2023-03-15 11:09:54:969,0,5.77295,-5.69968,26.6846,Q,Q
2023-03-15 11:09:54:980,0,5.81495,-5.64324,26.5791,Q,Q
2023-03-15 11:09:54:990,0,5.85481,-5.5843,26.4878,Q,Q
2023-03-15 11:09:55:0,0,5.89986,-5.52585,26.4146,Q,Q
2023-03-15 11:09:55:10,0,5.93928,-5.4706,26.3576,Q,Q
2023-03-15 11:09:55:20,0,5.97307,-5.42352,26.3166,Q,Q
2023-03-15 11:09:55:30,0,5.99959,-5.37842,26.281,Q,Q
2023-03-15 11:09:55:40,0,6.01452,-5.33326,26.2538,Q,Q
2023-03-15 11:09:55:50,0,6.02457,-5.2882,26.229,Q,Q
2023-03-15 11:09:55:60,0,6.0309,-5.24237,26.2069,Q,Q
2023-03-15 11:09:55:70,0,6.03447,-5.19158,26.1839,Q,Q
2023-03-15 11:09:55:80,0,6.03418,-5.14021,26.1569,Q,Q
2023-03-15 11:09:55:89,0,6.03255,-5.08602,26.126,Q,Q
2023-03-15 11:09:55:99,0,6.02789,-5.02987,26.0896,Q,Q
2023-03-15 11:09:55:109,0,6.02121,-4.97438,26.0491,Q,Q
2023-03-15 11:09:55:120,0,6.01968,-4.91386,26.0111,Q,Q
2023-03-15 11:09:55:130,0,6.01696,-4.85232,25.9747,Q,Q
2023-03-15 11:09:55:140,0,6.01474,-4.78933,25.9319,Q,Q
2023-03-15 11:09:55:149,0,6.00956,-4.72543,25.8867,Q,Q
2023-03-15 11:09:55:160,0,5.99793,-4.65496,25.841,Q,Q
2023-03-15 11:09:55:170,0,5.98144,-4.58233,25.7879,Q,Q
2023-03-15 11:09:55:179,0,5.9625,-4.50735,25.7276,Q,Q
2023-03-15 11:09:55:189,0,5.93982,-4.4387,25.6608,Q,Q
2023-03-15 11:09:55:199,0,5.90623,-4.37068,25.5831,Q,Q
2023-03-15 11:09:55:209,0,5.85867,-4.30641,25.5055,Q,Q
2023-03-15 11:09:55:219,0,5.80848,-4.24104,25.4229,Q,Q
2023-03-15 11:09:55:229,0,5.75644,-4.17621,25.3404,Q,Q
2023-03-15 11:09:55:239,0,5.70335,-4.11518,25.2503,Q,Q
2023-03-15 11:09:55:249,0,5.64155,-4.05512,25.1516,Q,Q
2023-03-15 11:09:55:259,0,5.57684,-3.99277,25.0402,Q,Q
2023-03-15 11:09:55:269,0,5.50632,-3.93108,24.9134,Q,Q
2023-03-15 11:09:55:279,0,5.44064,-3.87789,24.7692,Q,Q
2023-03-15 11:09:55:289,0,5.37673,-3.82719,24.6037,Q,Q
2023-03-15 11:09:55:300,0,5.31283,-3.78422,24.4235,Q,Q
2023-03-15 11:09:55:309,0,5.25125,-3.74541,24.2141,Q,Q
2023-03-15 11:09:55:320,0,5.19404,-3.71621,23.9825,Q,Q
2023-03-15 11:09:55:330,0,5.13554,-3.69366,23.7299,Q,Q
2023-03-15 11:09:55:339,0,5.07785,-3.67403,23.4566,Q,Q
2023-03-15 11:09:55:350,0,5.01909,-3.66694,23.1549,Q,Q
2023-03-15 11:09:55:360,0,4.95433,-3.67385,22.8274,Q,Q
2023-03-15 11:09:55:370,0,4.88675,-3.68981,22.4691,Q,Q
2023-03-15 11:09:55:379,0,4.8198,-3.71947,22.0836,Q,Q
2023-03-15 11:09:55:389,0,4.76496,-3.76421,21.6752,Q,Q
2023-03-15 11:09:55:400,0,4.71835,-3.82664,21.2606,Q,Q
2023-03-15 11:09:55:410,0,4.6868,-3.91239,20.8366,Q,Q
2023-03-15 11:09:55:420,0,4.66905,-4.01472,20.4167,Q,Q
2023-03-15 11:09:55:430,0,4.66409,-4.12775,19.9957,Q,Q
2023-03-15 11:09:55:440,0,4.66242,-4.24479,19.581,Q,Q
2023-03-15 11:09:55:450,0,4.66518,-4.36471,19.1731,Q,Q
2023-03-15 11:09:55:460,0,4.66755,-4.48476,18.7748,Q,Q
2023-03-15 11:09:55:470,0,4.66907,-4.60601,18.3885,Q,Q
2023-03-15 11:09:55:480,0,4.66793,-4.72986,18.0155,Q,Q
2023-03-15 11:09:55:490,0,4.66015,-4.8491,17.663,Q,Q
2023-03-15 11:09:55:499,0,4.655,-4.96681,17.327,Q,Q
2023-03-15 11:09:55:509,0,4.65328,-5.0843,17.0101,Q,Q
2023-03-15 11:09:55:519,0,4.65295,-5.20115,16.7166,Q,Q
2023-03-15 11:09:55:530,0,4.65536,-5.31554,16.4464,Q,Q
2023-03-15 11:09:55:540,0,4.6589,-5.42288,16.1915,Q,Q
2023-03-15 11:09:55:550,0,4.66907,-5.51818,15.9565,Q,Q
2023-03-15 11:09:55:560,0,4.67873,-5.60112,15.7355,Q,Q
2023-03-15 11:09:55:569,0,4.688,-5.67247,15.5315,Q,Q
2023-03-15 11:09:55:579,0,4.69864,-5.73146,15.3343,Q,Q
2023-03-15 11:09:55:589,0,4.70495,-5.78105,15.1465,Q,Q
2023-03-15 11:09:55:599,0,4.70899,-5.82118,14.9707,Q,Q
2023-03-15 11:09:55:609,0,4.7142,-5.85805,14.8072,Q,Q
2023-03-15 11:09:55:619,0,4.71235,-5.88818,14.6554,Q,Q
2023-03-15 11:09:55:629,0,4.70559,-5.91225,14.512,Q,Q
2023-03-15 11:09:55:639,0,4.70023,-5.93527,14.3782,Q,Q
2023-03-15 11:09:55:649,0,4.69408,-5.9547,14.2581,Q,Q
2023-03-15 11:09:55:660,0,4.68698,-5.97556,14.1509,Q,Q
2023-03-15 11:09:55:669,0,4.67459,-5.99813,14.059,Q,Q
2023-03-15 11:09:55:680,0,4.65807,-6.02204,13.9743,Q,Q
2023-03-15 11:09:55:689,0,4.64084,-6.05096,13.8973,Q,Q
2023-03-15 11:09:55:700,0,4.61687,-6.07894,13.8283,Q,Q
2023-03-15 11:09:55:709,0,4.59774,-6.10184,13.7647,Q,Q
2023-03-15 11:09:55:720,0,4.58619,-6.12849,13.7084,Q,Q
2023-03-15 11:09:55:729,0,4.58143,-6.15356,13.6589,Q,Q
2023-03-15 11:09:55:739,0,4.58163,-6.17935,13.6169,Q,Q
2023-03-15 11:09:55:749,0,4.58622,-6.20292,13.5841,Q,Q
2023-03-15 11:09:55:759,0,4.59385,-6.22468,13.5582,Q,Q
2023-03-15 11:09:55:769,0,4.60925,-6.24333,13.5374,Q,Q
2023-03-15 11:09:55:779,0,4.62296,-6.26065,13.5301,Q,Q
2023-03-15 11:09:55:789,0,4.64105,-6.26631,13.5285,Q,Q
2023-03-15 11:09:55:800,0,4.665,-6.2737,13.5288,Q,Q
2023-03-15 11:09:55:809,0,4.68816,-6.2768,13.5259,Q,Q
2023-03-15 11:09:55:819,0,4.70516,-6.27906,13.5252,Q,Q
2023-03-15 11:09:55:829,0,4.72383,-6.28243,13.5233,Q,Q
2023-03-15 11:09:55:840,0,4.74275,-6.28334,13.5157,Q,Q
2023-03-15 11:09:55:849,0,4.75939,-6.29051,13.5046,Q,Q
2023-03-15 11:09:55:859,0,4.77579,-6.30328,13.4911,Q,Q
2023-03-15 11:09:55:869,0,4.79261,-6.31593,13.4771,Q,Q
2023-03-15 11:09:55:879,0,4.80562,-6.32881,13.4586,Q,Q
2023-03-15 11:09:55:889,0,4.82335,-6.34236,13.4321,Q,Q
2023-03-15 11:09:55:900,0,4.84063,-6.35211,13.403,Q,Q
2023-03-15 11:09:55:909,0,4.86228,-6.36345,13.3739,Q,Q
2023-03-15 11:09:55:919,0,4.88305,-6.37782,13.3427,Q,Q
2023-03-15 11:09:55:929,0,4.90281,-6.39571,13.315,Q,Q
2023-03-15 11:09:55:939,0,4.91614,-6.41587,13.2884,Q,Q
2023-03-15 11:09:55:949,0,4.92832,-6.42996,13.256,Q,Q
2023-03-15 11:09:55:959,0,4.94956,-6.4401,13.225,Q,Q
2023-03-15 11:09:55:969,0,4.97122,-6.44885,13.1918,Q,Q
2023-03-15 11:09:55:979,0,5.00144,-6.45102,13.1611,Q,Q
2023-03-15 11:09:55:989,0,5.03608,-6.45385,13.1344,Q,Q
2023-03-15 11:09:56:0,0,5.06953,-6.45091,13.1094,Q,Q
2023-03-15 11:09:56:9,0,5.10257,-6.42762,13.089,Q,Q
2023-03-15 11:09:56:20,0,5.13947,-6.39546,13.0699,Q,Q
2023-03-15 11:09:56:29,0,5.17734,-6.37424,13.0469,Q,Q
2023-03-15 11:09:56:39,0,5.20312,-6.35854,13.0224,Q,Q
2023-03-15 11:09:56:49,0,5.21845,-6.3407,12.9926,Q,Q
2023-03-15 11:09:56:60,0,5.23163,-6.32496,12.9529,Q,Q
2023-03-15 11:09:56:69,0,5.24626,-6.31452,12.9064,Q,Q
2023-03-15 11:09:56:80,0,5.25872,-6.30964,12.8557,Q,Q
2023-03-15 11:09:56:89,0,5.27572,-6.3233,12.798,Q,Q
2023-03-15 11:09:56:99,0,5.2908,-6.34557,12.7375,Q,Q
2023-03-15 11:09:56:109,0,5.30599,-6.3748,12.6737,Q,Q
2023-03-15 11:09:56:120,0,5.31635,-6.40312,12.6033,Q,Q
2023-03-15 11:09:56:129,0,5.32548,-6.43547,12.5309,Q,Q
2023-03-15 11:09:56:139,0,5.33889,-6.46391,12.4557,Q,Q
2023-03-15 11:09:56:149,0,5.35477,-6.49911,12.372,Q,Q
2023-03-15 11:09:56:159,0,5.36517,-6.54368,12.2813,Q,Q
2023-03-15 11:09:56:169,0,5.37386,-6.58469,12.1925,Q,Q
2023-03-15 11:09:56:179,0,5.38745,-6.62494,12.1021,Q,Q
2023-03-15 11:09:56:189,0,5.40233,-6.66008,12.0157,Q,Q
2023-03-15 11:09:56:199,0,5.42539,-6.69615,11.931,Q,Q
2023-03-15 11:09:56:209,0,5.44458,-6.73263,11.8548,Q,Q
2023-03-15 11:09:56:219,0,5.46164,-6.75975,11.78,Q,Q
2023-03-15 11:09:56:229,0,5.47746,-6.78584,11.711,Q,Q
2023-03-15 11:09:56:240,0,5.48872,-6.8101,11.6487,Q,Q
2023-03-15 11:09:56:249,0,5.49969,-6.83098,11.5915,Q,Q
2023-03-15 11:09:56:259,0,5.50913,-6.84891,11.5416,Q,Q
2023-03-15 11:09:56:269,0,5.51109,-6.86378,11.4987,Q,Q
2023-03-15 11:09:56:279,0,5.51522,-6.87644,11.4617,Q,Q
2023-03-15 11:09:56:289,0,5.51543,-6.88493,11.4299,Q,Q
2023-03-15 11:09:56:299,0,5.51563,-6.89372,11.4037,Q,Q
2023-03-15 11:09:56:309,0,5.51293,-6.89976,11.3817,Q,Q
2023-03-15 11:09:56:319,0,5.51914,-6.90284,11.3661,Q,Q
2023-03-15 11:09:56:329,0,5.52318,-6.90869,11.3552,Q,Q
2023-03-15 11:09:56:339,0,5.52328,-6.9141,11.3434,Q,Q
2023-03-15 11:09:56:349,0,5.52741,-6.91456,11.3337,Q,Q
2023-03-15 11:09:56:359,0,5.53274,-6.90378,11.3279,Q,Q
2023-03-15 11:09:56:369,0,5.54347,-6.89846,11.3262,Q,Q
2023-03-15 11:09:56:379,0,5.553,-6.90183,11.3199,Q,Q
2023-03-15 11:09:56:389,0,5.55469,-6.90598,11.3144,Q,Q
2023-03-15 11:09:56:400,0,5.55125,-6.90583,11.3077,Q,Q
2023-03-15 11:09:56:410,0,5.54983,-6.90597,11.3027,Q,Q
2023-03-15 11:09:56:420,0,5.54568,-6.90392,11.3003,Q,Q
2023-03-15 11:09:56:429,0,5.5407,-6.90193,11.2957,Q,Q
2023-03-15 11:09:56:440,0,5.53207,-6.90283,11.2927,Q,Q
2023-03-15 11:09:56:449,0,5.52027,-6.90071,11.2907,Q,Q
2023-03-15 11:09:56:459,0,5.50993,-6.89835,11.287,Q,Q
2023-03-15 11:09:56:469,0,5.49705,-6.89199,11.2848,Q,Q
2023-03-15 11:09:56:479,0,5.48702,-6.88432,11.2802,Q,Q
2023-03-15 11:09:56:489,0,5.47922,-6.87688,11.2764,Q,Q
2023-03-15 11:09:56:499,0,5.46662,-6.86815,11.2779,Q,Q
2023-03-15 11:09:56:509,0,5.45855,-6.85527,11.2762,Q,Q
2023-03-15 11:09:56:519,0,5.44627,-6.8405,11.2759,Q,Q
2023-03-15 11:09:56:529,0,5.4328,-6.82255,11.2757,Q,Q
2023-03-15 11:09:56:540,0,5.41756,-6.79909,11.2715,Q,Q
2023-03-15 11:09:56:549,0,5.40104,-6.77536,11.2722,Q,Q
2023-03-15 11:09:56:560,0,5.38894,-6.75408,11.2769,Q,Q
2023-03-15 11:09:56:570,0,5.37572,-6.73925,11.29,Q,Q
2023-03-15 11:09:56:580,0,5.35668,-6.72766,11.3078,Q,Q
2023-03-15 11:09:56:589,0,5.33092,-6.71853,11.329,Q,Q
2023-03-15 11:09:56:599,0,5.30313,-6.70974,11.3523,Q,Q
2023-03-15 11:09:56:610,0,5.27313,-6.69686,11.3742,Q,Q
2023-03-15 11:09:56:620,0,5.23315,-6.67687,11.4001,Q,Q
2023-03-15 11:09:56:630,0,5.18802,-6.65052,11.4263,Q,Q
2023-03-15 11:09:56:640,0,5.13964,-6.62414,11.4567,Q,Q
2023-03-15 11:09:56:649,0,5.07692,-6.6033,11.4913,Q,Q
2023-03-15 11:09:56:660,0,4.99875,-6.57968,11.5332,Q,Q
2023-03-15 11:09:56:670,0,4.91358,-6.54738,11.5814,Q,Q
2023-03-15 11:09:56:680,0,4.82199,-6.51585,11.6289,Q,Q
2023-03-15 11:09:56:690,0,4.72746,-6.48466,11.6765,Q,Q
2023-03-15 11:09:56:699,0,4.63345,-6.45623,11.7334,Q,Q
2023-03-15 11:09:56:709,0,4.54128,-6.4293,11.7866,Q,Q
2023-03-15 11:09:56:719,0,4.44823,-6.40028,11.8412,Q,Q
2023-03-15 11:09:56:730,0,4.36106,-6.36694,11.8964,Q,Q
2023-03-15 11:09:56:740,0,4.278,-6.33571,11.9511,Q,Q
2023-03-15 11:09:56:749,0,4.19577,-6.30039,12.0075,Q,Q
2023-03-15 11:09:56:760,0,4.10937,-6.26691,12.0607,Q,Q
2023-03-15 11:09:56:769,0,4.02667,-6.23348,12.1125,Q,Q
2023-03-15 11:09:56:779,0,3.94829,-6.20077,12.1664,Q,Q
2023-03-15 11:09:56:789,0,3.86944,-6.17136,12.2139,Q,Q
2023-03-15 11:09:56:800,0,3.79979,-6.14076,12.2613,Q,Q
2023-03-15 11:09:56:809,0,3.73221,-6.10942,12.3078,Q,Q
2023-03-15 11:09:56:820,0,3.66204,-6.0735,12.353,Q,Q
2023-03-15 11:09:56:829,0,3.58952,-6.04111,12.3975,Q,Q
2023-03-15 11:09:56:839,0,3.51775,-6.00815,12.4418,Q,Q
2023-03-15 11:09:56:849,0,3.45129,-5.97855,12.4839,Q,Q
2023-03-15 11:09:56:860,0,3.38052,-5.95111,12.5223,Q,Q
2023-03-15 11:09:56:870,0,3.31047,-5.92484,12.5595,Q,Q
2023-03-15 11:09:56:880,0,3.23825,-5.89641,12.5973,Q,Q
2023-03-15 11:09:56:890,0,3.16859,-5.86568,12.6303,Q,Q
2023-03-15 11:09:56:900,0,3.09378,-5.84007,12.6624,Q,Q
2023-03-15 11:09:56:909,0,3.01936,-5.81322,12.6917,Q,Q
2023-03-15 11:09:56:920,0,2.94195,-5.78713,12.7198,Q,Q
2023-03-15 11:09:56:929,0,2.86195,-5.76155,12.7493,Q,Q
2023-03-15 11:09:56:939,0,2.7843,-5.74061,12.7779,Q,Q
2023-03-15 11:09:56:949,0,2.70862,-5.71923,12.8007,Q,Q
2023-03-15 11:09:56:960,0,2.63722,-5.70002,12.8259,Q,Q
2023-03-15 11:09:56:969,0,2.56942,-5.68542,12.8484,Q,Q
2023-03-15 11:09:56:980,0,2.49886,-5.67134,12.8741,Q,Q
2023-03-15 11:09:56:989,0,2.4316,-5.65578,12.8971,Q,Q
2023-03-15 11:09:56:999,0,2.36181,-5.64601,12.926,Q,Q
2023-03-15 11:09:57:9,0,2.28636,-5.63613,12.9489,Q,Q
2023-03-15 11:09:57:19,0,2.21604,-5.62691,12.9731,Q,Q
2023-03-15 11:09:57:29,0,2.14428,-5.61583,12.9996,Q,Q
2023-03-15 11:09:57:39,0,2.07333,-5.60363,13.0243,Q,Q
2023-03-15 11:09:57:49,0,2.00833,-5.59443,13.0455,Q,Q
2023-03-15 11:09:57:59,0,1.94246,-5.58638,13.0674,Q,Q
2023-03-15 11:09:57:69,0,1.87898,-5.58029,13.0827,Q,Q
2023-03-15 11:09:57:80,0,1.82305,-5.57332,13.0946,Q,Q
2023-03-15 11:09:57:89,0,1.77109,-5.56846,13.1069,Q,Q
2023-03-15 11:09:57:100,0,1.73231,-5.56217,13.1108,Q,Q
2023-03-15 11:09:57:109,0,1.70038,-5.55605,13.1114,Q,Q
2023-03-15 11:09:57:119,0,1.6735,-5.5529,13.1114,Q,Q
2023-03-15 11:09:57:129,0,1.65354,-5.55016,13.1074,Q,Q
2023-03-15 11:09:57:140,0,1.63516,-5.54873,13.1019,Q,Q
2023-03-15 11:09:57:149,0,1.62482,-5.54708,13.0963,Q,Q
2023-03-15 11:09:57:159,0,1.61685,-5.54648,13.0896,Q,Q
2023-03-15 11:09:57:169,0,1.60772,-5.5521,13.0807,Q,Q
2023-03-15 11:09:57:179,0,1.60249,-5.55982,13.0699,Q,Q
2023-03-15 11:09:57:189,0,1.59241,-5.56859,13.0584,Q,Q
2023-03-15 11:09:57:199,0,1.58952,-5.58341,13.0457,Q,Q
2023-03-15 11:09:57:209,0,1.5937,-5.598,13.026,Q,Q
2023-03-15 11:09:57:219,0,1.59786,-5.61391,13.0098,Q,Q
2023-03-15 11:09:57:229,0,1.60468,-5.63302,12.9914,Q,Q
2023-03-15 11:09:57:239,0,1.61599,-5.65189,12.9766,Q,Q
2023-03-15 11:09:57:249,0,1.62639,-5.66926,12.961,Q,Q
2023-03-15 11:09:57:259,0,1.6372,-5.68695,12.9415,Q,Q
2023-03-15 11:09:57:269,0,1.65108,-5.70409,12.9198,Q,Q
2023-03-15 11:09:57:279,0,1.67008,-5.7197,12.8967,Q,Q
2023-03-15 11:09:57:289,0,1.69388,-5.73203,12.8724,Q,Q
2023-03-15 11:09:57:299,0,1.71778,-5.7479,12.8486,Q,Q
2023-03-15 11:09:57:309,0,1.73917,-5.76311,12.8249,Q,Q
2023-03-15 11:09:57:319,0,1.76081,-5.7756,12.8027,Q,Q
2023-03-15 11:09:57:329,0,1.78579,-5.7862,12.7793,Q,Q
2023-03-15 11:09:57:339,0,1.80701,-5.79924,12.7555,Q,Q
2023-03-15 11:09:57:349,0,1.82221,-5.80814,12.7288,Q,Q
2023-03-15 11:09:57:359,0,1.83798,-5.81565,12.703,Q,Q
2023-03-15 11:09:57:369,0,1.85361,-5.81971,12.6755,Q,Q
2023-03-15 11:09:57:379,0,1.86484,-5.82158,12.6453,Q,Q
2023-03-15 11:09:57:389,0,1.87299,-5.81713,12.6148,Q,Q
2023-03-15 11:09:57:399,0,1.8803,-5.80949,12.5871,Q,Q
2023-03-15 11:09:57:409,0,1.88449,-5.80428,12.5572,Q,Q
2023-03-15 11:09:57:419,0,1.88599,-5.79581,12.5254,Q,Q
2023-03-15 11:09:57:429,0,1.88839,-5.78618,12.4893,Q,Q
2023-03-15 11:09:57:439,0,1.89089,-5.77366,12.4573,Q,Q
2023-03-15 11:09:57:449,0,1.88911,-5.76327,12.4256,Q,Q
2023-03-15 11:09:57:459,0,1.88974,-5.75275,12.3965,Q,Q
2023-03-15 11:09:57:469,0,1.89208,-5.74177,12.372,Q,Q
2023-03-15 11:09:57:485,0,1.89643,-5.74032,12.3524,Q,Q
2023-03-15 11:09:57:489,0,1.89602,-5.74595,12.3383,Q,Q
2023-03-15 11:09:57:499,0,1.89258,-5.75293,12.3261,Q,Q
2023-03-15 11:09:57:509,0,1.88868,-5.75734,12.3144,Q,Q
2023-03-15 11:09:57:519,0,1.88222,-5.75853,12.3017,Q,Q
2023-03-15 11:09:57:529,0,1.87542,-5.75622,12.2867,Q,Q
2023-03-15 11:09:57:539,0,1.87079,-5.75605,12.2705,Q,Q
2023-03-15 11:09:57:549,0,1.86199,-5.75397,12.2506,Q,Q
2023-03-15 11:09:57:559,0,1.85415,-5.75117,12.2298,Q,Q
2023-03-15 11:09:57:570,0,1.84977,-5.74944,12.2091,Q,Q
2023-03-15 11:09:57:580,0,1.84614,-5.74743,12.1864,Q,Q
2023-03-15 11:09:57:589,0,1.84515,-5.74557,12.1683,Q,Q
2023-03-15 11:09:57:599,0,1.84599,-5.74092,12.149,Q,Q
2023-03-15 11:09:57:609,0,1.84562,-5.73937,12.1305,Q,Q
2023-03-15 11:09:57:619,0,1.84615,-5.73568,12.1159,Q,Q
2023-03-15 11:09:57:629,0,1.84714,-5.72944,12.1016,Q,Q
2023-03-15 11:09:57:639,0,1.84938,-5.72114,12.089,Q,Q
2023-03-15 11:09:57:649,0,1.84868,-5.71593,12.0767,Q,Q
2023-03-15 11:09:57:659,0,1.84704,-5.70664,12.0647,Q,Q
2023-03-15 11:09:57:669,0,1.84549,-5.70031,12.0523,Q,Q
2023-03-15 11:09:57:679,0,1.84234,-5.69002,12.0423,Q,Q
2023-03-15 11:09:57:689,0,1.84086,-5.68404,12.0369,Q,Q
2023-03-15 11:09:57:700,0,1.83595,-5.67084,12.0309,Q,Q
2023-03-15 11:09:57:709,0,1.83139,-5.65988,12.0241,Q,Q
2023-03-15 11:09:57:720,0,1.82996,-5.6486,12.02,Q,Q
2023-03-15 11:09:57:729,0,1.83013,-5.63455,12.0126,Q,Q
2023-03-15 11:09:57:739,0,1.82612,-5.6246,12.0101,Q,Q
2023-03-15 11:09:57:749,0,1.8201,-5.6192,12.0091,Q,Q
2023-03-15 11:09:57:759,0,1.81175,-5.60837,12.0101,Q,Q
2023-03-15 11:09:57:769,0,1.8027,-5.59666,12.0084,Q,Q
2023-03-15 11:09:57:779,0,1.78858,-5.5861,12.0054,Q,Q
2023-03-15 11:09:57:789,0,1.77521,-5.5797,11.9978,Q,Q
2023-03-15 11:09:57:800,0,1.76217,-5.57821,11.9876,Q,Q
2023-03-15 11:09:57:809,0,1.74539,-5.57375,11.9757,Q,Q
2023-03-15 11:09:57:819,0,1.72913,-5.5577,11.9671,Q,Q
2023-03-15 11:09:57:829,0,1.71802,-5.54185,11.9583,Q,Q
2023-03-15 11:09:57:839,0,1.70935,-5.53242,11.9518,Q,Q
2023-03-15 11:09:57:849,0,1.69282,-5.52714,11.9486,Q,Q
2023-03-15 11:09:57:860,0,1.67303,-5.52245,11.9424,Q,Q
2023-03-15 11:09:57:869,0,1.65585,-5.5179,11.9368,Q,Q
2023-03-15 11:09:57:880,0,1.63899,-5.5199,11.9272,Q,Q
2023-03-15 11:09:57:889,0,1.6205,-5.52762,11.9155,Q,Q
2023-03-15 11:09:57:899,0,1.59658,-5.53188,11.9082,Q,Q
2023-03-15 11:09:57:909,0,1.57803,-5.53399,11.9003,Q,Q
2023-03-15 11:09:57:919,0,1.56347,-5.53899,11.8954,Q,Q
2023-03-15 11:09:57:929,0,1.54999,-5.53995,11.8884,Q,Q
2023-03-15 11:09:57:940,0,1.53903,-5.54032,11.879,Q,Q
2023-03-15 11:09:57:949,0,1.52511,-5.54441,11.8669,Q,Q
2023-03-15 11:09:57:960,0,1.51433,-5.54589,11.8616,Q,Q
2023-03-15 11:09:57:969,0,1.50139,-5.54492,11.8544,Q,Q
2023-03-15 11:09:57:980,0,1.49209,-5.54091,11.849,Q,Q
2023-03-15 11:09:57:989,0,1.4852,-5.54032,11.8428,Q,Q
2023-03-15 11:09:57:999,0,1.47211,-5.53609,11.8389,Q,Q
2023-03-15 11:09:58:9,0,1.45518,-5.53123,11.8349,Q,Q
2023-03-15 11:09:58:19,0,1.44274,-5.52881,11.8296,Q,Q
2023-03-15 11:09:58:29,0,1.42778,-5.52772,11.8271,Q,Q
2023-03-15 11:09:58:39,0,1.41138,-5.52807,11.8264,Q,Q
2023-03-15 11:09:58:49,0,1.39062,-5.52674,11.8224,Q,Q
2023-03-15 11:09:58:59,0,1.36718,-5.52388,11.8154,Q,Q
2023-03-15 11:09:58:69,0,1.34392,-5.52004,11.8117,Q,Q
2023-03-15 11:09:58:79,0,1.31349,-5.51175,11.8071,Q,Q
2023-03-15 11:09:58:89,0,1.27915,-5.50544,11.8017,Q,Q
2023-03-15 11:09:58:99,0,1.23881,-5.50061,11.7988,Q,Q
2023-03-15 11:09:58:109,0,1.19505,-5.49505,11.7966,Q,Q
2023-03-15 11:09:58:119,0,1.13265,-5.48722,11.8005,Q,Q
2023-03-15 11:09:58:129,0,1.05716,-5.47727,11.8069,Q,Q
2023-03-15 11:09:58:139,0,0.972725,-5.46866,11.814,Q,Q
2023-03-15 11:09:58:149,0,0.868104,-5.45812,11.8251,Q,Q
2023-03-15 11:09:58:159,0,0.75066,-5.4468,11.8346,Q,Q
2023-03-15 11:09:58:169,0,0.627567,-5.44247,11.8417,Q,Q
2023-03-15 11:09:58:179,0,0.508923,-5.43867,11.843,Q,Q
2023-03-15 11:09:58:189,0,0.394129,-5.43847,11.8463,Q,Q
2023-03-15 11:09:58:199,0,0.291166,-5.44003,11.8472,Q,Q
2023-03-15 11:09:58:209,0,0.195771,-5.444,11.8476,Q,Q
2023-03-15 11:09:58:219,0,0.114576,-5.44671,11.8466,Q,Q
2023-03-15 11:09:58:229,0,0.0460568,-5.44931,11.8435,Q,Q
2023-03-15 11:09:58:239,0,-0.0111828,-5.45213,11.8347,Q,Q
2023-03-15 11:09:58:249,0,-0.0602635,-5.4504,11.8244,Q,Q
2023-03-15 11:09:58:259,0,-0.100794,-5.44719,11.815,Q,Q
2023-03-15 11:09:58:269,0,-0.133839,-5.44115,11.8042,Q,Q
2023-03-15 11:09:58:279,0,-0.164253,-5.43641,11.7961,Q,Q
2023-03-15 11:09:58:289,0,-0.191917,-5.43135,11.7866,Q,Q
2023-03-15 11:09:58:299,0,-0.214643,-5.42369,11.7755,Q,Q
2023-03-15 11:09:58:309,0,-0.238414,-5.41659,11.7655,Q,Q
2023-03-15 11:09:58:319,0,-0.258532,-5.40512,11.7556,Q,Q
2023-03-15 11:09:58:329,0,-0.272307,-5.39405,11.7437,Q,Q
2023-03-15 11:09:58:339,0,-0.281635,-5.38814,11.7339,Q,Q
2023-03-15 11:09:58:349,0,-0.288335,-5.38568,11.7235,Q,Q
2023-03-15 11:09:58:359,0,-0.29296,-5.38398,11.7115,Q,Q
2023-03-15 11:09:58:369,0,-0.30136,-5.3879,11.7005,Q,Q
2023-03-15 11:09:58:380,0,-0.307722,-5.39463,11.6855,Q,Q
2023-03-15 11:09:58:389,0,-0.31623,-5.40193,11.667,Q,Q
2023-03-15 11:09:58:399,0,-0.327445,-5.41001,11.6436,Q,Q
2023-03-15 11:09:58:409,0,-0.338253,-5.40873,11.6135,Q,Q
2023-03-15 11:09:58:420,0,-0.345754,-5.40262,11.58,Q,Q
2023-03-15 11:09:58:430,0,-0.343257,-5.4083,11.5433,Q,Q
2023-03-15 11:09:58:439,0,-0.34108,-5.41178,11.5077,Q,Q
2023-03-15 11:09:58:449,0,-0.333909,-5.41725,11.4685,Q,Q
2023-03-15 11:09:58:459,0,-0.32384,-5.42509,11.4217,Q,Q
2023-03-15 11:09:58:469,0,-0.306362,-5.43245,11.3729,Q,Q
2023-03-15 11:09:58:480,0,-0.280936,-5.43981,11.3216,Q,Q
2023-03-15 11:09:58:490,0,-0.255321,-5.45083,11.2701,Q,Q
2023-03-15 11:09:58:499,0,-0.224947,-5.46096,11.215,Q,Q
2023-03-15 11:09:58:509,0,-0.185491,-5.47201,11.1568,Q,Q
2023-03-15 11:09:58:519,0,-0.140702,-5.48341,11.0995,Q,Q
2023-03-15 11:09:58:529,0,-0.0938219,-5.49368,11.0416,Q,Q
2023-03-15 11:09:58:540,0,-0.0428029,-5.506,10.9787,Q,Q
2023-03-15 11:09:58:549,0,0.00353343,-5.51991,10.9156,Q,Q
2023-03-15 11:09:58:560,0,0.0615838,-5.53364,10.8529,Q,Q
2023-03-15 11:09:58:569,0,0.118891,-5.547,10.7885,Q,Q
2023-03-15 11:09:58:579,0,0.175991,-5.55765,10.7257,Q,Q
2023-03-15 11:09:58:589,0,0.238762,-5.57078,10.658,Q,Q
2023-03-15 11:09:58:600,0,0.302981,-5.58361,10.595,Q,Q
2023-03-15 11:09:58:609,0,0.371917,-5.60145,10.5305,Q,Q
2023-03-15 11:09:58:619,0,0.437701,-5.62441,10.4697,Q,Q
2023-03-15 11:09:58:629,0,0.505904,-5.6478,10.4073,Q,Q
2023-03-15 11:09:58:639,0,0.5758,-5.67832,10.3508,Q,Q
2023-03-15 11:09:58:650,0,0.647267,-5.70758,10.2931,Q,Q
2023-03-15 11:09:58:660,0,0.720352,-5.73154,10.2326,Q,Q
2023-03-15 11:09:58:670,0,0.790383,-5.75594,10.1793,Q,Q
2023-03-15 11:09:58:679,0,0.85976,-5.77568,10.1226,Q,Q
2023-03-15 11:09:58:689,0,0.930389,-5.79888,10.0723,Q,Q
2023-03-15 11:09:58:699,0,1.00116,-5.81849,10.0265,Q,Q
2023-03-15 11:09:58:709,0,1.07271,-5.83748,9.98173,Q,Q
2023-03-15 11:09:58:720,0,1.14044,-5.84968,9.94308,Q,Q
2023-03-15 11:09:58:729,0,1.20322,-5.85801,9.90886,Q,Q
2023-03-15 11:09:58:739,0,1.26751,-5.86294,9.87424,Q,Q
2023-03-15 11:09:58:749,0,1.33325,-5.87152,9.84185,Q,Q
2023-03-15 11:09:58:760,0,1.39642,-5.89339,9.81335,Q,Q
2023-03-15 11:09:58:769,0,1.45304,-5.90748,9.78494,Q,Q
2023-03-15 11:09:58:779,0,1.5102,-5.92239,9.75798,Q,Q
2023-03-15 11:09:58:789,0,1.56474,-5.94013,9.73125,Q,Q
2023-03-15 11:09:58:799,0,1.61567,-5.95543,9.70864,Q,Q
2023-03-15 11:09:58:809,0,1.66641,-5.96814,9.68972,Q,Q
2023-03-15 11:09:58:819,0,1.71977,-5.98238,9.66872,Q,Q
2023-03-15 11:09:58:829,0,1.76499,-5.99696,9.64684,Q,Q
2023-03-15 11:09:58:839,0,1.80204,-6.01163,9.62777,Q,Q
2023-03-15 11:09:58:849,0,1.83933,-6.02306,9.60747,Q,Q
2023-03-15 11:09:58:859,0,1.87548,-6.02853,9.58586,Q,Q
2023-03-15 11:09:58:869,0,1.9087,-6.04033,9.56505,Q,Q
2023-03-15 11:09:58:879,0,1.93826,-6.04269,9.54758,Q,Q
2023-03-15 11:09:58:889,0,1.97025,-6.04331,9.52786,Q,Q
2023-03-15 11:09:58:899,0,2.00186,-6.0459,9.50568,Q,Q
2023-03-15 11:09:58:909,0,2.03619,-6.04979,9.47905,Q,Q
2023-03-15 11:09:58:919,0,2.0712,-6.05453,9.4539,Q,Q
2023-03-15 11:09:58:929,0,2.11042,-6.06144,9.42226,Q,Q
2023-03-15 11:09:58:939,0,2.1463,-6.06978,9.39612,Q,Q
2023-03-15 11:09:58:949,0,2.18389,-6.0829,9.36988,Q,Q
2023-03-15 11:09:58:959,0,2.2238,-6.09659,9.34433,Q,Q
2023-03-15 11:09:58:969,0,2.26147,-6.11009,9.31611,Q,Q
2023-03-15 11:09:58:979,0,2.29237,-6.12315,9.28891,Q,Q
2023-03-15 11:09:58:989,0,2.32315,-6.13528,9.26332,Q,Q
2023-03-15 11:09:58:999,0,2.352,-6.14504,9.24207,Q,Q
2023-03-15 11:09:59:9,0,2.39013,-6.15209,9.22334,Q,Q
2023-03-15 11:09:59:19,0,2.42935,-6.15904,9.2007,Q,Q
2023-03-15 11:09:59:29,0,2.4665,-6.16571,9.17971,Q,Q
2023-03-15 11:09:59:39,0,2.50691,-6.17285,9.15774,Q,Q
2023-03-15 11:09:59:49,0,2.54619,-6.17845,9.14191,Q,Q
2023-03-15 11:09:59:59,0,2.58451,-6.18428,9.12306,Q,Q
2023-03-15 11:09:59:69,0,2.62146,-6.19393,9.10592,Q,Q
2023-03-15 11:09:59:79,0,2.65621,-6.20458,9.08866,Q,Q
2023-03-15 11:09:59:89,0,2.68353,-6.21606,9.06814,Q,Q
2023-03-15 11:09:59:99,0,2.71249,-6.22609,9.05082,Q,Q
2023-03-15 11:09:59:109,0,2.73989,-6.23813,9.03322,Q,Q
2023-03-15 11:09:59:119,0,2.76909,-6.24777,9.01521,Q,Q
2023-03-15 11:09:59:129,0,2.80163,-6.25837,8.99695,Q,Q
2023-03-15 11:09:59:139,0,2.82928,-6.27148,8.98297,Q,Q
2023-03-15 11:09:59:149,0,2.85604,-6.28487,8.96713,Q,Q
2023-03-15 11:09:59:159,0,2.87787,-6.2933,8.94869,Q,Q
2023-03-15 11:09:59:169,0,2.89698,-6.30187,8.9312,Q,Q
2023-03-15 11:09:59:179,0,2.91732,-6.30632,8.91036,Q,Q
2023-03-15 11:09:59:189,0,2.93506,-6.31457,8.88415,Q,Q
2023-03-15 11:09:59:199,0,2.9547,-6.32059,8.85681,Q,Q
2023-03-15 11:09:59:209,0,2.97829,-6.33042,8.82924,Q,Q
2023-03-15 11:09:59:219,0,3.00209,-6.3486,8.8087,Q,Q
2023-03-15 11:09:59:229,0,3.02783,-6.37065,8.78969,Q,Q
2023-03-15 11:09:59:239,0,3.04957,-6.39241,8.76671,Q,Q
2023-03-15 11:09:59:249,0,3.06827,-6.41284,8.74087,Q,Q
2023-03-15 11:09:59:259,0,3.09056,-6.4331,8.71256,Q,Q
2023-03-15 11:09:59:269,0,3.10684,-6.45293,8.67526,Q,Q
2023-03-15 11:09:59:279,0,3.12861,-6.46914,8.63155,Q,Q
2023-03-15 11:09:59:289,0,3.14778,-6.48672,8.58444,Q,Q
2023-03-15 11:09:59:299,0,3.17697,-6.50735,8.53449,Q,Q
2023-03-15 11:09:59:309,0,3.2052,-6.52824,8.48662,Q,Q
2023-03-15 11:09:59:319,0,3.23909,-6.54835,8.43542,Q,Q
2023-03-15 11:09:59:329,0,3.26799,-6.57248,8.38274,Q,Q
2023-03-15 11:09:59:339,0,3.29468,-6.59747,8.33107,Q,Q
2023-03-15 11:09:59:349,0,3.31893,-6.62289,8.27573,Q,Q
2023-03-15 11:09:59:359,0,3.34161,-6.64241,8.21996,Q,Q
2023-03-15 11:09:59:369,0,3.37077,-6.66385,8.16174,Q,Q
2023-03-15 11:09:59:379,0,3.39459,-6.68705,8.10175,Q,Q
2023-03-15 11:09:59:389,0,3.42379,-6.71325,8.04304,Q,Q
2023-03-15 11:09:59:399,0,3.45651,-6.74001,7.98734,Q,Q
2023-03-15 11:09:59:409,0,3.49327,-6.76478,7.93268,Q,Q
2023-03-15 11:09:59:419,0,3.53334,-6.78996,7.88201,Q,Q
2023-03-15 11:09:59:429,0,3.57265,-6.81385,7.83541,Q,Q
2023-03-15 11:09:59:439,0,3.61288,-6.84017,7.78917,Q,Q
2023-03-15 11:09:59:449,0,3.65992,-6.8641,7.73945,Q,Q
2023-03-15 11:09:59:459,0,3.70291,-6.88362,7.69267,Q,Q
2023-03-15 11:09:59:469,0,3.7523,-6.89894,7.64801,Q,Q
2023-03-15 11:09:59:479,0,3.80165,-6.9226,7.6044,Q,Q
2023-03-15 11:09:59:489,0,3.85169,-6.94664,7.56532,Q,Q
2023-03-15 11:09:59:499,0,3.89919,-6.98009,7.52647,Q,Q
2023-03-15 11:09:59:509,0,3.94586,-7.01203,7.48817,Q,Q
2023-03-15 11:09:59:519,0,3.99691,-7.04339,7.44851,Q,Q
2023-03-15 11:09:59:529,0,4.05119,-7.07367,7.40753,Q,Q
2023-03-15 11:09:59:539,0,4.10523,-7.10151,7.37094,Q,Q
2023-03-15 11:09:59:549,0,4.16196,-7.12756,7.33215,Q,Q
2023-03-15 11:09:59:559,0,4.2137,-7.15695,7.30067,Q,Q
2023-03-15 11:09:59:569,0,4.26123,-7.1881,7.26875,Q,Q
2023-03-15 11:09:59:579,0,4.30214,-7.21539,7.23305,Q,Q
2023-03-15 11:09:59:589,0,4.34436,-7.24317,7.19845,Q,Q
2023-03-15 11:09:59:599,0,4.38338,-7.26881,7.16603,Q,Q
2023-03-15 11:09:59:609,0,4.41497,-7.29598,7.13408,Q,Q
2023-03-15 11:09:59:619,0,4.43766,-7.32571,7.10126,Q,Q
2023-03-15 11:09:59:629,0,4.46281,-7.34967,7.06461,Q,Q
2023-03-15 11:09:59:639,0,4.48847,-7.36714,7.02907,Q,Q
2023-03-15 11:09:59:649,0,4.51542,-7.38708,6.99271,Q,Q
2023-03-15 11:09:59:659,0,4.5426,-7.40728,6.95541,Q,Q
2023-03-15 11:09:59:669,0,4.56401,-7.42908,6.91925,Q,Q
2023-03-15 11:09:59:679,0,4.58552,-7.44843,6.8853,Q,Q
2023-03-15 11:09:59:689,0,4.60478,-7.46929,6.84685,Q,Q
2023-03-15 11:09:59:699,0,4.6199,-7.48754,6.81058,Q,Q
2023-03-15 11:09:59:709,0,4.63185,-7.50671,6.77401,Q,Q
2023-03-15 11:09:59:719,0,4.64541,-7.52221,6.73015,Q,Q
2023-03-15 11:09:59:729,0,4.6555,-7.53613,6.6854,Q,Q
2023-03-15 11:09:59:739,0,4.67232,-7.54184,6.64153,Q,Q
2023-03-15 11:09:59:749,0,4.69707,-7.54894,6.59789,Q,Q
2023-03-15 11:09:59:759,0,4.72577,-7.55628,6.55055,Q,Q
2023-03-15 11:09:59:769,0,4.76036,-7.56452,6.50314,Q,Q
2023-03-15 11:09:59:779,0,4.79742,-7.57372,6.45196,Q,Q
2023-03-15 11:09:59:789,0,4.83435,-7.58052,6.40232,Q,Q
2023-03-15 11:09:59:799,0,4.86888,-7.58735,6.35355,Q,Q
2023-03-15 11:09:59:809,0,4.90782,-7.59637,6.30247,Q,Q
2023-03-15 11:09:59:819,0,4.94422,-7.61013,6.25096,Q,Q
2023-03-15 11:09:59:829,0,4.97938,-7.62364,6.19961,Q,Q
2023-03-15 11:09:59:839,0,5.01355,-7.63938,6.14404,Q,Q
2023-03-15 11:09:59:849,0,5.04485,-7.65203,6.08551,Q,Q
2023-03-15 11:09:59:859,0,5.08623,-7.66473,6.02682,Q,Q
2023-03-15 11:09:59:869,0,5.12743,-7.67465,5.96653,Q,Q
2023-03-15 11:09:59:879,0,5.17143,-7.67839,5.90336,Q,Q
2023-03-15 11:09:59:889,0,5.21481,-7.68337,5.83976,Q,Q
2023-03-15 11:09:59:899,0,5.26362,-7.68139,5.77124,Q,Q
2023-03-15 11:09:59:909,0,5.31162,-7.67297,5.70585,Q,Q
2023-03-15 11:09:59:919,0,5.36134,-7.66149,5.63533,Q,Q
2023-03-15 11:09:59:929,0,5.40841,-7.64918,5.56786,Q,Q
2023-03-15 11:09:59:939,0,5.45257,-7.63636,5.49772,Q,Q
2023-03-15 11:09:59:949,0,5.49679,-7.62235,5.42783,Q,Q
2023-03-15 11:09:59:959,0,5.54332,-7.60615,5.35464,Q,Q
2023-03-15 11:09:59:969,0,5.58506,-7.58716,5.28314,Q,Q
2023-03-15 11:09:59:979,0,5.62251,-7.56642,5.21085,Q,Q
2023-03-15 11:09:59:989,0,5.66034,-7.54253,5.13297,Q,Q
2023-03-15 11:09:59:999,0,5.69535,-7.51383,5.04821,Q,Q
2023-03-15 11:10:00:9,0,5.73212,-7.48049,4.96061,Q,Q
2023-03-15 11:10:00:19,0,5.76597,-7.44476,4.86757,Q,Q
2023-03-15 11:10:00:29,0,5.80258,-7.40527,4.76741,Q,Q
2023-03-15 11:10:00:39,0,5.84523,-7.35518,4.66122,Q,Q
2023-03-15 11:10:00:49,0,5.8941,-7.2956,4.54746,Q,Q
2023-03-15 11:10:00:59,0,5.94065,-7.22417,4.42555,Q,Q
2023-03-15 11:10:00:69,0,5.98635,-7.14226,4.29301,Q,Q
2023-03-15 11:10:00:79,0,6.03763,-7.05338,4.15488,Q,Q
2023-03-15 11:10:00:89,0,6.08891,-6.96212,4.00913,Q,Q
2023-03-15 11:10:00:99,0,6.14382,-6.86211,3.86309,Q,Q
2023-03-15 11:10:00:109,0,6.19485,-6.7609,3.71673,Q,Q
2023-03-15 11:10:00:119,0,6.24215,-6.66114,3.57261,Q,Q
2023-03-15 11:10:00:129,0,6.28292,-6.55692,3.44106,Q,Q
2023-03-15 11:10:00:139,0,6.32279,-6.45627,3.3141,Q,Q
2023-03-15 11:10:00:149,0,6.35595,-6.36025,3.1984,Q,Q
2023-03-15 11:10:00:159,0,6.39169,-6.27066,3.09105,Q,Q
2023-03-15 11:10:00:169,0,6.41705,-6.17946,2.99112,Q,Q
2023-03-15 11:10:00:179,0,6.4366,-6.0938,2.91035,Q,Q
2023-03-15 11:10:00:189,0,6.4497,-6.01845,2.83874,Q,Q
2023-03-15 11:10:00:199,0,6.46113,-5.94936,2.78229,Q,Q
2023-03-15 11:10:00:209,0,6.46545,-5.88918,2.74257,Q,Q
2023-03-15 11:10:00:219,0,6.47072,-5.84036,2.72332,Q,Q
2023-03-15 11:10:00:229,0,6.47148,-5.79665,2.71137,Q,Q
2023-03-15 11:10:00:239,0,6.46824,-5.75962,2.70865,Q,Q
2023-03-15 11:10:00:249,0,6.46367,-5.73113,2.71638,Q,Q
2023-03-15 11:10:00:259,0,6.45897,-5.70831,2.72773,Q,Q
2023-03-15 11:10:00:269,0,6.45022,-5.68772,2.73593,Q,Q
2023-03-15 11:10:00:279,0,6.44438,-5.66864,2.74472,Q,Q
2023-03-15 11:10:00:289,0,6.43755,-5.65217,2.7504,Q,Q
2023-03-15 11:10:00:299,0,6.43115,-5.646,2.7528,Q,Q
2023-03-15 11:10:00:309,0,6.42173,-5.64221,2.75646,Q,Q
2023-03-15 11:10:00:319,0,6.41724,-5.64723,2.75939,Q,Q
2023-03-15 11:10:00:329,0,6.41305,-5.65635,2.75736,Q,Q
2023-03-15 11:10:00:339,0,6.40774,-5.66917,2.75674,Q,Q
2023-03-15 11:10:00:349,0,6.40215,-5.67839,2.75182,Q,Q
2023-03-15 11:10:00:359,0,6.39743,-5.68618,2.74264,Q,Q
2023-03-15 11:10:00:369,0,6.39857,-5.71006,2.73051,Q,Q
2023-03-15 11:10:00:379,0,6.39409,-5.73323,2.71857,Q,Q
2023-03-15 11:10:00:389,0,6.38247,-5.75533,2.70612,Q,Q
2023-03-15 11:10:00:399,0,6.37119,-5.77896,2.69482,Q,Q
2023-03-15 11:10:00:409,0,6.36081,-5.79532,2.68417,Q,Q
2023-03-15 11:10:00:419,0,6.35168,-5.80867,2.67511,Q,Q
2023-03-15 11:10:00:429,0,6.3487,-5.81999,2.66977,Q,Q
2023-03-15 11:10:00:439,0,6.34771,-5.83334,2.66777,Q,Q
2023-03-15 11:10:00:449,0,6.34402,-5.84267,2.66494,Q,Q
2023-03-15 11:10:00:459,0,6.34136,-5.85088,2.66095,Q,Q
2023-03-15 11:10:00:469,0,6.33716,-5.85211,2.65774,Q,Q
2023-03-15 11:10:00:479,0,6.34124,-5.85341,2.65626,Q,Q
2023-03-15 11:10:00:489,0,6.35212,-5.85287,2.65445,Q,Q
2023-03-15 11:10:00:499,0,6.35956,-5.85465,2.65923,Q,Q
2023-03-15 11:10:00:509,0,6.36644,-5.8483,2.66432,Q,Q
2023-03-15 11:10:00:519,0,6.37838,-5.84604,2.66625,Q,Q
2023-03-15 11:10:00:529,0,6.39122,-5.84386,2.67162,Q,Q
2023-03-15 11:10:00:539,0,6.40134,-5.84104,2.67862,Q,Q
2023-03-15 11:10:00:549,0,6.41348,-5.84146,2.68233,Q,Q
2023-03-15 11:10:00:559,0,6.42329,-5.84493,2.68763,Q,Q
2023-03-15 11:10:00:569,0,6.43179,-5.84842,2.69088,Q,Q
2023-03-15 11:10:00:579,0,6.44281,-5.85218,2.69312,Q,Q
2023-03-15 11:10:00:589,0,6.4575,-5.85664,2.69465,Q,Q
2023-03-15 11:10:00:599,0,6.47232,-5.861,2.69772,Q,Q
2023-03-15 11:10:00:609,0,6.47895,-5.86783,2.70187,Q,Q
2023-03-15 11:10:00:619,0,6.48195,-5.8757,2.70774,Q,Q
2023-03-15 11:10:00:629,0,6.48423,-5.8826,2.71474,Q,Q
2023-03-15 11:10:00:639,0,6.48296,-5.88969,2.72114,Q,Q
2023-03-15 11:10:00:649,0,6.48174,-5.89441,2.72631,Q,Q
2023-03-15 11:10:00:659,0,6.47845,-5.89875,2.73405,Q,Q
2023-03-15 11:10:00:669,0,6.47434,-5.90018,2.74488,Q,Q
2023-03-15 11:10:00:679,0,6.46758,-5.90382,2.75489,Q,Q
2023-03-15 11:10:00:689,0,6.46014,-5.90716,2.76594,Q,Q
2023-03-15 11:10:00:699,0,6.45026,-5.90876,2.77872,Q,Q
2023-03-15 11:10:00:709,0,6.43926,-5.91432,2.79081,Q,Q
2023-03-15 11:10:00:719,0,6.42828,-5.91268,2.80284,Q,Q
2023-03-15 11:10:00:729,0,6.41947,-5.91395,2.81679,Q,Q
2023-03-15 11:10:00:739,0,6.40922,-5.91562,2.83445,Q,Q
2023-03-15 11:10:00:749,0,6.40167,-5.91779,2.84944,Q,Q
2023-03-15 11:10:00:759,0,6.39089,-5.91976,2.86375,Q,Q
2023-03-15 11:10:00:769,0,6.38456,-5.92187,2.87869,Q,Q
2023-03-15 11:10:00:779,0,6.37928,-5.92548,2.89475,Q,Q
2023-03-15 11:10:00:789,0,6.37095,-5.92616,2.90753,Q,Q
2023-03-15 11:10:00:799,0,6.36272,-5.928,2.9219,Q,Q
2023-03-15 11:10:00:809,0,6.35278,-5.92799,2.93129,Q,Q
2023-03-15 11:10:00:819,0,6.33296,-5.92911,2.93848,Q,Q
2023-03-15 11:10:00:829,0,6.31337,-5.92647,2.94783,Q,Q
2023-03-15 11:10:00:839,0,6.29342,-5.91631,2.95645,Q,Q
2023-03-15 11:10:00:849,0,6.28035,-5.90768,2.96391,Q,Q
2023-03-15 11:10:00:859,0,6.26305,-5.89781,2.98037,Q,Q
2023-03-15 11:10:00:869,0,6.25153,-5.88575,2.99742,Q,Q
2023-03-15 11:10:00:879,0,6.24101,-5.86982,3.01437,Q,Q
2023-03-15 11:10:00:889,0,6.23302,-5.85846,3.03971,Q,Q
2023-03-15 11:10:00:899,0,6.22788,-5.84804,3.06823,Q,Q
2023-03-15 11:10:00:909,0,6.22833,-5.84006,3.10186,Q,Q
2023-03-15 11:10:00:919,0,6.2328,-5.82938,3.13619,Q,Q
2023-03-15 11:10:00:929,0,6.23646,-5.81932,3.17337,Q,Q
2023-03-15 11:10:00:939,0,6.2426,-5.8049,3.21616,Q,Q
2023-03-15 11:10:00:949,0,6.24674,-5.79302,3.2541,Q,Q
2023-03-15 11:10:00:959,0,6.25001,-5.77452,3.29251,Q,Q
2023-03-15 11:10:00:969,0,6.25375,-5.75552,3.33711,Q,Q
2023-03-15 11:10:00:979,0,6.25774,-5.7462,3.38596,Q,Q
2023-03-15 11:10:00:989,0,6.25494,-5.73903,3.44149,Q,Q
2023-03-15 11:10:00:999,0,6.25648,-5.73491,3.50099,Q,Q
2023-03-15 11:10:01:9,0,6.26157,-5.73653,3.56127,Q,Q
2023-03-15 11:10:01:19,0,6.27487,-5.74005,3.61829,Q,Q
2023-03-15 11:10:01:29,0,6.29181,-5.74114,3.67689,Q,Q
2023-03-15 11:10:01:39,0,6.31546,-5.74571,3.73172,Q,Q
2023-03-15 11:10:01:49,0,6.34113,-5.74346,3.78352,Q,Q
2023-03-15 11:10:01:59,0,6.37277,-5.73922,3.83333,Q,Q
2023-03-15 11:10:01:69,0,6.40385,-5.7331,3.87696,Q,Q
2023-03-15 11:10:01:79,0,6.4307,-5.73526,3.91717,Q,Q
2023-03-15 11:10:01:89,0,6.45941,-5.73691,3.95228,Q,Q
2023-03-15 11:10:01:99,0,6.48266,-5.73545,3.98324,Q,Q
2023-03-15 11:10:01:109,0,6.50562,-5.73722,4.00968,Q,Q
2023-03-15 11:10:01:119,0,6.52723,-5.74202,4.03315,Q,Q
2023-03-15 11:10:01:129,0,6.54525,-5.74847,4.0551,Q,Q
2023-03-15 11:10:01:139,0,6.55899,-5.75278,4.07151,Q,Q
2023-03-15 11:10:01:149,0,6.56883,-5.75368,4.08857,Q,Q
2023-03-15 11:10:01:159,0,6.57627,-5.74998,4.1045,Q,Q
2023-03-15 11:10:01:169,0,6.58458,-5.74926,4.12049,Q,Q
2023-03-15 11:10:01:179,0,6.59024,-5.75329,4.13689,Q,Q
2023-03-15 11:10:01:189,0,6.58487,-5.76237,4.15499,Q,Q
2023-03-15 11:10:01:199,0,6.57182,-5.7711,4.18117,Q,Q
2023-03-15 11:10:01:209,0,6.55457,-5.78641,4.21375,Q,Q
2023-03-15 11:10:01:219,0,6.5316,-5.81436,4.24888,Q,Q
2023-03-15 11:10:01:229,0,6.5075,-5.84853,4.29686,Q,Q
2023-03-15 11:10:01:239,0,6.47914,-5.88519,4.34824,Q,Q
2023-03-15 11:10:01:249,0,6.45227,-5.92837,4.40514,Q,Q
2023-03-15 11:10:01:259,0,6.41652,-5.97328,4.46778,Q,Q
2023-03-15 11:10:01:269,0,6.38853,-6.01856,4.52789,Q,Q
2023-03-15 11:10:01:279,0,6.35747,-6.06795,4.58781,Q,Q
2023-03-15 11:10:01:289,0,6.32511,-6.11738,4.64348,Q,Q
2023-03-15 11:10:01:299,0,6.29595,-6.1614,4.68795,Q,Q
2023-03-15 11:10:01:309,0,6.28095,-6.19287,4.72354,Q,Q
2023-03-15 11:10:01:319,0,6.28773,-6.21342,4.74828,Q,Q
2023-03-15 11:10:01:329,0,6.30683,-6.21002,4.76114,Q,Q
2023-03-15 11:10:01:339,0,6.33385,-6.18267,4.75766,Q,Q
2023-03-15 11:10:01:349,0,6.36574,-6.1311,4.73842,Q,Q
2023-03-15 11:10:01:359,0,6.40219,-6.06006,4.70985,Q,Q
2023-03-15 11:10:01:369,0,6.43546,-5.97389,4.67294,Q,Q
2023-03-15 11:10:01:379,0,6.47533,-5.87895,4.62305,Q,Q
2023-03-15 11:10:01:389,0,6.52294,-5.76865,4.5655,Q,Q
2023-03-15 11:10:01:399,0,6.57997,-5.65071,4.5021,Q,Q
2023-03-15 11:10:01:409,0,6.65152,-5.5255,4.44211,Q,Q
2023-03-15 11:10:01:419,0,6.73935,-5.39954,4.39043,Q,Q
2023-03-15 11:10:01:429,0,6.83171,-5.28113,4.3478,Q,Q
2023-03-15 11:10:01:439,0,6.92004,-5.16857,4.31811,Q,Q
2023-03-15 11:10:01:449,0,7.00669,-5.06373,4.29729,Q,Q
2023-03-15 11:10:01:459,0,7.0846,-4.97451,4.29387,Q,Q
2023-03-15 11:10:01:469,0,7.15455,-4.89217,4.30649,Q,Q
2023-03-15 11:10:01:479,0,7.20495,-4.82873,4.33521,Q,Q
2023-03-15 11:10:01:489,0,7.23414,-4.77812,4.37575,Q,Q
2023-03-15 11:10:01:499,0,7.24126,-4.73731,4.41968,Q,Q
2023-03-15 11:10:01:509,0,7.23513,-4.70417,4.46591,Q,Q
2023-03-15 11:10:01:519,0,7.22178,-4.68031,4.51147,Q,Q
2023-03-15 11:10:01:529,0,7.20906,-4.66793,4.56144,Q,Q
2023-03-15 11:10:01:539,0,7.20044,-4.65897,4.61206,Q,Q
2023-03-15 11:10:01:549,0,7.20031,-4.65144,4.66624,Q,Q
2023-03-15 11:10:01:559,0,7.20334,-4.65153,4.72294,Q,Q
2023-03-15 11:10:01:569,0,7.21737,-4.66962,4.77564,Q,Q
2023-03-15 11:10:01:579,0,7.23812,-4.69493,4.82119,Q,Q
2023-03-15 11:10:01:589,0,7.26816,-4.72275,4.85586,Q,Q
2023-03-15 11:10:01:599,0,7.316,-4.75752,4.8804,Q,Q
2023-03-15 11:10:01:609,0,7.39472,-4.79344,4.89587,Q,Q
2023-03-15 11:10:01:619,0,7.4994,-4.82811,4.90134,Q,Q
2023-03-15 11:10:01:629,0,7.61814,-4.85793,4.89446,Q,Q
2023-03-15 11:10:01:639,0,7.74328,-4.87654,4.86856,Q,Q
2023-03-15 11:10:01:649,0,7.86902,-4.88325,4.82522,Q,Q
2023-03-15 11:10:01:659,0,7.98689,-4.86519,4.76863,Q,Q
2023-03-15 11:10:01:669,0,8.0872,-4.82792,4.69895,Q,Q
2023-03-15 11:10:01:679,0,8.16868,-4.77472,4.62454,Q,Q
2023-03-15 11:10:01:689,0,8.23875,-4.71878,4.5465,Q,Q
2023-03-15 11:10:01:699,0,8.30042,-4.67104,4.47172,Q,Q
2023-03-15 11:10:01:709,0,8.35568,-4.63017,4.40321,Q,Q
2023-03-15 11:10:01:719,0,8.40773,-4.59485,4.34059,Q,Q
2023-03-15 11:10:01:729,0,8.46468,-4.57079,4.28406,Q,Q
2023-03-15 11:10:01:739,0,8.52751,-4.56427,4.23441,Q,Q
2023-03-15 11:10:01:749,0,8.59698,-4.57102,4.19021,Q,Q
2023-03-15 11:10:01:759,0,8.67708,-4.58992,4.15146,Q,Q
2023-03-15 11:10:01:769,0,8.75898,-4.61784,4.11775,Q,Q
2023-03-15 11:10:01:779,0,8.84769,-4.6546,4.08345,Q,Q
2023-03-15 11:10:01:789,0,8.93671,-4.70286,4.05062,Q,Q
2023-03-15 11:10:01:799,0,9.02632,-4.75517,4.01864,Q,Q
2023-03-15 11:10:01:809,0,9.11516,-4.80871,3.98965,Q,Q
2023-03-15 11:10:01:819,0,9.20521,-4.86038,3.96542,Q,Q
2023-03-15 11:10:01:829,0,9.29129,-4.9106,3.94617,Q,Q
2023-03-15 11:10:01:839,0,9.38057,-4.9737,3.93065,Q,Q
2023-03-15 11:10:01:849,0,9.46491,-5.03868,3.91551,Q,Q
2023-03-15 11:10:01:859,0,9.5471,-5.10229,3.89812,Q,Q
2023-03-15 11:10:01:869,0,9.63323,-5.14851,3.8853,Q,Q
2023-03-15 11:10:01:879,0,9.72744,-5.18576,3.8786,Q,Q
2023-03-15 11:10:01:889,0,9.82882,-5.22179,3.86676,Q,Q
2023-03-15 11:10:01:899,0,9.93114,-5.24697,3.85691,Q,Q
2023-03-15 11:10:01:909,0,10.0348,-5.26068,3.8508,Q,Q
2023-03-15 11:10:01:919,0,10.1383,-5.269,3.8452,Q,Q
2023-03-15 11:10:01:929,0,10.2379,-5.27104,3.84277,Q,Q
2023-03-15 11:10:01:939,0,10.329,-5.25864,3.84708,Q,Q
2023-03-15 11:10:01:949,0,10.4116,-5.23632,3.85045,Q,Q
2023-03-15 11:10:01:959,0,10.4881,-5.2086,3.85701,Q,Q
2023-03-15 11:10:01:969,0,10.5468,-5.16897,3.86906,Q,Q
2023-03-15 11:10:01:979,0,10.5913,-5.11934,3.88306,Q,Q
2023-03-15 11:10:01:989,0,10.6211,-5.0515,3.9019,Q,Q
2023-03-15 11:10:01:999,0,10.6307,-4.96681,3.92235,Q,Q
2023-03-15 11:10:02:9,0,10.6211,-4.87175,3.94039,Q,Q
2023-03-15 11:10:02:19,0,10.6023,-4.7571,3.96246,Q,Q
2023-03-15 11:10:02:29,0,10.5725,-4.64589,3.98526,Q,Q
2023-03-15 11:10:02:39,0,10.5298,-4.5346,4.01032,Q,Q
2023-03-15 11:10:02:49,0,10.4816,-4.42484,4.03798,Q,Q
2023-03-15 11:10:02:59,0,10.434,-4.31987,4.06507,Q,Q
2023-03-15 11:10:02:69,0,10.3894,-4.2288,4.09381,Q,Q
2023-03-15 11:10:02:79,0,10.3535,-4.1476,4.11896,Q,Q
2023-03-15 11:10:02:89,0,10.3274,-4.08251,4.14616,Q,Q
2023-03-15 11:10:02:99,0,10.3104,-4.03087,4.16599,Q,Q
2023-03-15 11:10:02:109,0,10.2927,-3.98883,4.17805,Q,Q
2023-03-15 11:10:02:119,0,10.2778,-3.94236,4.18101,Q,Q
2023-03-15 11:10:02:129,0,10.2654,-3.88797,4.17802,Q,Q
2023-03-15 11:10:02:139,0,10.2469,-3.82719,4.16329,Q,Q
2023-03-15 11:10:02:149,0,10.2213,-3.7699,4.13244,Q,Q
2023-03-15 11:10:02:159,0,10.1932,-3.72089,4.08129,Q,Q
2023-03-15 11:10:02:169,0,10.1681,-3.68475,4.01751,Q,Q
2023-03-15 11:10:02:179,0,10.1604,-3.66065,3.94022,Q,Q
2023-03-15 11:10:02:189,0,10.1778,-3.64663,3.85528,Q,Q
2023-03-15 11:10:02:199,0,10.2181,-3.64484,3.76598,Q,Q
2023-03-15 11:10:02:209,0,10.2757,-3.64557,3.66763,Q,Q
2023-03-15 11:10:02:219,0,10.3535,-3.64875,3.56726,Q,Q
2023-03-15 11:10:02:229,0,10.4473,-3.65125,3.46393,Q,Q
2023-03-15 11:10:02:239,0,10.5581,-3.65081,3.35616,Q,Q
2023-03-15 11:10:02:249,0,10.6834,-3.64755,3.2491,Q,Q
2023-03-15 11:10:02:259,0,10.8136,-3.63569,3.13853,Q,Q
2023-03-15 11:10:02:269,0,10.95,-3.62392,3.01838,Q,Q
2023-03-15 11:10:02:279,0,11.0893,-3.60832,2.8849,Q,Q
2023-03-15 11:10:02:289,0,11.2259,-3.59336,2.74267,Q,Q
2023-03-15 11:10:02:299,0,11.3611,-3.56901,2.58788,Q,Q
2023-03-15 11:10:02:309,0,11.4933,-3.53137,2.41243,Q,Q
2023-03-15 11:10:02:319,0,11.6317,-3.4856,2.2136,Q,Q
2023-03-15 11:10:02:329,0,11.7806,-3.43945,1.99488,Q,Q
2023-03-15 11:10:02:339,0,11.9422,-3.39935,1.76855,Q,Q
2023-03-15 11:10:02:349,0,12.1227,-3.36947,1.53904,Q,Q
2023-03-15 11:10:02:359,0,12.31,-3.35226,1.30576,Q,Q
2023-03-15 11:10:02:369,0,12.4981,-3.34536,1.0783,Q,Q
2023-03-15 11:10:02:379,0,12.6871,-3.35197,0.853874,Q,Q
2023-03-15 11:10:02:389,0,12.8618,-3.371,0.631522,Q,Q
2023-03-15 11:10:02:399,0,13.0171,-3.39071,0.408699,Q,Q
2023-03-15 11:10:02:409,0,13.1514,-3.40988,0.185411,Q,Q
2023-03-15 11:10:02:419,0,13.2668,-3.42722,-0.0450107,Q,Q
2023-03-15 11:10:02:429,0,13.3601,-3.44478,-0.269078,Q,Q
2023-03-15 11:10:02:439,0,13.4429,-3.4686,-0.490471,Q,Q
2023-03-15 11:10:02:449,0,13.5136,-3.49909,-0.70819,Q,Q
2023-03-15 11:10:02:459,0,13.5732,-3.5354,-0.932774,Q,Q
2023-03-15 11:10:02:469,0,13.629,-3.57697,-1.15321,Q,Q
2023-03-15 11:10:02:479,0,13.6713,-3.62182,-1.37278,Q,Q
2023-03-15 11:10:02:489,0,13.7047,-3.6701,-1.59306,Q,Q
2023-03-15 11:10:02:499,0,13.7489,-3.72825,-1.80798,Q,Q
2023-03-15 11:10:02:509,0,13.7991,-3.7877,-2.00307,Q,Q
2023-03-15 11:10:02:519,0,13.8449,-3.84677,-2.17753,Q,Q
2023-03-15 11:10:02:529,0,13.8818,-3.9141,-2.33909,Q,Q
2023-03-15 11:10:02:539,0,13.9115,-3.99742,-2.48187,Q,Q
2023-03-15 11:10:02:549,0,13.941,-4.1024,-2.59862,Q,Q
2023-03-15 11:10:02:559,0,13.9555,-4.21573,-2.68696,Q,Q
2023-03-15 11:10:02:569,0,13.9507,-4.33559,-2.75441,Q,Q
2023-03-15 11:10:02:579,0,13.9296,-4.45812,-2.81017,Q,Q
2023-03-15 11:10:02:589,0,13.8879,-4.57382,-2.8598,Q,Q
2023-03-15 11:10:02:599,0,13.8246,-4.68054,-2.90052,Q,Q
2023-03-15 11:10:02:609,0,13.729,-4.78335,-2.94948,Q,Q
2023-03-15 11:10:02:619,0,13.615,-4.88667,-3.00848,Q,Q
2023-03-15 11:10:02:629,0,13.4863,-5.00242,-3.06994,Q,Q
2023-03-15 11:10:02:639,0,13.3536,-5.13976,-3.13387,Q,Q
2023-03-15 11:10:02:649,0,13.2087,-5.2897,-3.20896,Q,Q
2023-03-15 11:10:02:659,0,13.0373,-5.44139,-3.28659,Q,Q
2023-03-15 11:10:02:669,0,12.8476,-5.59269,-3.37648,Q,Q
2023-03-15 11:10:02:679,0,12.654,-5.74575,-3.47181,Q,Q
2023-03-15 11:10:02:689,0,12.4689,-5.90472,-3.57905,Q,Q
2023-03-15 11:10:02:699,0,12.2956,-6.05066,-3.69304,Q,Q
2023-03-15 11:10:02:709,0,12.1161,-6.17545,-3.81693,Q,Q
2023-03-15 11:10:02:719,0,11.9282,-6.27074,-3.96291,Q,Q
2023-03-15 11:10:02:729,0,11.7347,-6.33846,-4.13633,Q,Q
2023-03-15 11:10:02:739,0,11.5423,-6.38321,-4.33249,Q,Q
2023-03-15 11:10:02:749,0,11.3503,-6.41231,-4.55163,Q,Q
2023-03-15 11:10:02:759,0,11.1537,-6.42519,-4.78418,Q,Q
2023-03-15 11:10:02:769,0,10.9597,-6.43379,-5.02662,Q,Q
2023-03-15 11:10:02:779,0,10.7675,-6.44308,-5.27169,Q,Q
2023-03-15 11:10:02:789,0,10.5968,-6.45048,-5.51574,Q,Q
2023-03-15 11:10:02:799,0,10.4577,-6.45764,-5.75682,Q,Q
2023-03-15 11:10:02:809,0,10.3496,-6.45308,-5.99209,Q,Q
2023-03-15 11:10:02:819,0,10.2712,-6.43458,-6.22017,Q,Q
2023-03-15 11:10:02:829,0,10.2088,-6.40254,-6.44293,Q,Q
2023-03-15 11:10:02:839,0,10.1495,-6.36135,-6.65272,Q,Q
2023-03-15 11:10:02:849,0,10.0852,-6.3211,-6.85212,Q,Q
2023-03-15 11:10:02:859,0,10.0217,-6.29088,-7.03532,Q,Q
2023-03-15 11:10:02:869,0,9.96612,-6.27845,-7.20055,Q,Q
2023-03-15 11:10:02:879,0,9.92107,-6.27687,-7.34438,Q,Q
2023-03-15 11:10:02:889,0,9.87557,-6.28471,-7.47074,Q,Q
2023-03-15 11:10:02:899,0,9.82649,-6.30775,-7.59041,Q,Q
2023-03-15 11:10:02:909,0,9.76735,-6.33637,-7.70164,Q,Q
2023-03-15 11:10:02:919,0,9.69899,-6.36711,-7.81061,Q,Q
2023-03-15 11:10:02:929,0,9.62129,-6.39564,-7.91916,Q,Q
2023-03-15 11:10:02:939,0,9.53216,-6.42062,-8.02092,Q,Q
2023-03-15 11:10:02:949,0,9.41377,-6.44189,-8.12542,Q,Q
2023-03-15 11:10:02:959,0,9.28536,-6.4649,-8.24424,Q,Q
2023-03-15 11:10:02:969,0,9.16586,-6.48997,-8.37009,Q,Q
2023-03-15 11:10:02:979,0,9.06532,-6.51696,-8.4965,Q,Q
2023-03-15 11:10:02:989,0,8.98875,-6.53916,-8.61437,Q,Q
2023-03-15 11:10:02:999,0,8.93358,-6.55987,-8.7234,Q,Q
2023-03-15 11:10:03:9,0,8.90865,-6.56794,-8.82631,Q,Q
2023-03-15 11:10:03:19,0,8.90533,-6.5525,-8.91625,Q,Q
2023-03-15 11:10:03:29,0,8.9093,-6.52672,-9.00223,Q,Q
2023-03-15 11:10:03:39,0,8.90675,-6.48414,-9.08613,Q,Q
2023-03-15 11:10:03:49,0,8.89867,-6.42493,-9.16731,Q,Q
2023-03-15 11:10:03:59,0,8.89499,-6.36112,-9.24314,Q,Q
2023-03-15 11:10:03:69,0,8.89326,-6.30575,-9.31471,Q,Q
2023-03-15 11:10:03:79,0,8.8847,-6.25411,-9.38562,Q,Q
2023-03-15 11:10:03:89,0,8.86933,-6.21009,-9.46492,Q,Q
2023-03-15 11:10:03:99,0,8.85064,-6.17755,-9.55572,Q,Q
2023-03-15 11:10:03:109,0,8.83135,-6.14942,-9.6488,Q,Q
2023-03-15 11:10:03:119,0,8.80605,-6.12614,-9.74132,Q,Q
2023-03-15 11:10:03:129,0,8.77113,-6.09573,-9.83701,Q,Q
2023-03-15 11:10:03:139,0,8.73199,-6.06359,-9.9287,Q,Q
2023-03-15 11:10:03:149,0,8.68863,-6.0364,-10.0122,Q,Q
2023-03-15 11:10:03:159,0,8.64225,-6.01631,-10.0919,Q,Q
2023-03-15 11:10:03:169,0,8.59294,-5.99784,-10.1665,Q,Q
2023-03-15 11:10:03:179,0,8.53903,-5.9796,-10.2395,Q,Q
2023-03-15 11:10:03:189,0,8.47594,-5.96539,-10.3059,Q,Q
2023-03-15 11:10:03:199,0,8.41493,-5.95021,-10.362,Q,Q
2023-03-15 11:10:03:209,0,8.35637,-5.93543,-10.4132,Q,Q
2023-03-15 11:10:03:219,0,8.29689,-5.92176,-10.4507,Q,Q
2023-03-15 11:10:03:229,0,8.23277,-5.90745,-10.4792,Q,Q
2023-03-15 11:10:03:239,0,8.15713,-5.89374,-10.5002,Q,Q
2023-03-15 11:10:03:249,0,8.07302,-5.88105,-10.5173,Q,Q
2023-03-15 11:10:03:259,0,7.98736,-5.86698,-10.5282,Q,Q
2023-03-15 11:10:03:269,0,7.89823,-5.84493,-10.5394,Q,Q
2023-03-15 11:10:03:279,0,7.81271,-5.8199,-10.5534,Q,Q
2023-03-15 11:10:03:289,0,7.74046,-5.79906,-10.5636,Q,Q
2023-03-15 11:10:03:299,0,7.6762,-5.78033,-10.5711,Q,Q
2023-03-15 11:10:03:309,0,7.61623,-5.76535,-10.5821,Q,Q
2023-03-15 11:10:03:319,0,7.54741,-5.75487,-10.5949,Q,Q
2023-03-15 11:10:03:329,0,7.47191,-5.75121,-10.6133,Q,Q
2023-03-15 11:10:03:339,0,7.39952,-5.74786,-10.6397,Q,Q
2023-03-15 11:10:03:349,0,7.33391,-5.74608,-10.6719,Q,Q
2023-03-15 11:10:03:359,0,7.27968,-5.74457,-10.7045,Q,Q
2023-03-15 11:10:03:369,0,7.23458,-5.74358,-10.7443,Q,Q
2023-03-15 11:10:03:379,0,7.2025,-5.74967,-10.7817,Q,Q
2023-03-15 11:10:03:389,0,7.18179,-5.75915,-10.8175,Q,Q
2023-03-15 11:10:03:399,0,7.15983,-5.77128,-10.8445,Q,Q
2023-03-15 11:10:03:409,0,7.13817,-5.78063,-10.8725,Q,Q
2023-03-15 11:10:03:419,0,7.10964,-5.78486,-10.8941,Q,Q
2023-03-15 11:10:03:429,0,7.07419,-5.78632,-10.9084,Q,Q
2023-03-15 11:10:03:439,0,7.03791,-5.79214,-10.9173,Q,Q
2023-03-15 11:10:03:449,0,7.00596,-5.80212,-10.9188,Q,Q
2023-03-15 11:10:03:459,0,6.96818,-5.81546,-10.9243,Q,Q
2023-03-15 11:10:03:469,0,6.93184,-5.82979,-10.934,Q,Q
2023-03-15 11:10:03:479,0,6.89562,-5.84998,-10.9505,Q,Q
2023-03-15 11:10:03:489,0,6.85781,-5.87104,-10.9787,Q,Q
2023-03-15 11:10:03:499,0,6.80396,-5.88986,-11.0118,Q,Q
2023-03-15 11:10:03:509,0,6.72369,-5.91108,-11.0568,Q,Q
2023-03-15 11:10:03:519,0,6.61827,-5.93624,-11.1147,Q,Q
2023-03-15 11:10:03:529,0,6.49543,-5.96603,-11.1852,Q,Q
2023-03-15 11:10:03:539,0,6.37884,-5.9951,-11.2685,Q,Q
2023-03-15 11:10:03:549,0,6.27338,-6.02467,-11.3571,Q,Q
2023-03-15 11:10:03:559,0,6.18278,-6.05579,-11.4487,Q,Q
2023-03-15 11:10:03:569,0,6.0947,-6.08858,-11.54,Q,Q
2023-03-15 11:10:03:579,0,6.00324,-6.11965,-11.6244,Q,Q
2023-03-15 11:10:03:589,0,5.91262,-6.14813,-11.7045,Q,Q
2023-03-15 11:10:03:599,0,5.82207,-6.16713,-11.7715,Q,Q
2023-03-15 11:10:03:609,0,5.74533,-6.18273,-11.8308,Q,Q
2023-03-15 11:10:03:619,0,5.68043,-6.1898,-11.8837,Q,Q
2023-03-15 11:10:03:629,0,5.62721,-6.19229,-11.9194,Q,Q
2023-03-15 11:10:03:639,0,5.58331,-6.20054,-11.9384,Q,Q
2023-03-15 11:10:03:649,0,5.55547,-6.21511,-11.9482,Q,Q
2023-03-15 11:10:03:659,0,5.5457,-6.23282,-11.9442,Q,Q
2023-03-15 11:10:03:669,0,5.55842,-6.2629,-11.9225,Q,Q
2023-03-15 11:10:03:679,0,5.5778,-6.29621,-11.8819,Q,Q
2023-03-15 11:10:03:689,0,5.58747,-6.34021,-11.8358,Q,Q
2023-03-15 11:10:03:699,0,5.58578,-6.39256,-11.7868,Q,Q
2023-03-15 11:10:03:709,0,5.56784,-6.44951,-11.753,Q,Q
2023-03-15 11:10:03:719,0,5.54114,-6.50682,-11.7412,Q,Q
2023-03-15 11:10:03:729,0,5.53149,-6.56079,-11.7484,Q,Q
2023-03-15 11:10:03:739,0,5.5683,-6.61376,-11.7588,Q,Q
2023-03-15 11:10:03:749,0,5.64103,-6.66757,-11.777,Q,Q
2023-03-15 11:10:03:759,0,5.73231,-6.71573,-11.7937,Q,Q
2023-03-15 11:10:03:769,0,5.83643,-6.74932,-11.8047,Q,Q
2023-03-15 11:10:03:779,0,5.94135,-6.78337,-11.8075,Q,Q
2023-03-15 11:10:03:789,0,6.05162,-6.81496,-11.8034,Q,Q
2023-03-15 11:10:03:799,0,6.16169,-6.84687,-11.7897,Q,Q
2023-03-15 11:10:03:809,0,6.27451,-6.86938,-11.7672,Q,Q
2023-03-15 11:10:03:819,0,6.38856,-6.89233,-11.7355,Q,Q
2023-03-15 11:10:03:829,0,6.503,-6.90962,-11.6938,Q,Q
2023-03-15 11:10:03:839,0,6.61803,-6.92792,-11.6357,Q,Q
2023-03-15 11:10:03:849,0,6.72581,-6.95012,-11.5673,Q,Q
2023-03-15 11:10:03:859,0,6.82386,-6.96933,-11.4918,Q,Q
2023-03-15 11:10:03:869,0,6.91169,-6.98716,-11.4163,Q,Q
2023-03-15 11:10:03:879,0,6.99468,-7.01283,-11.3311,Q,Q
2023-03-15 11:10:03:889,0,7.07786,-7.0324,-11.2441,Q,Q
2023-03-15 11:10:03:899,0,7.15852,-7.04649,-11.1526,Q,Q
2023-03-15 11:10:03:909,0,7.24223,-7.05258,-11.0544,Q,Q
2023-03-15 11:10:03:919,0,7.33093,-7.0534,-10.9523,Q,Q
2023-03-15 11:10:03:929,0,7.42121,-7.05202,-10.8402,Q,Q
2023-03-15 11:10:03:939,0,7.51561,-7.05617,-10.7191,Q,Q
2023-03-15 11:10:03:949,0,7.60141,-7.07395,-10.5893,Q,Q
2023-03-15 11:10:03:959,0,7.68888,-7.1025,-10.4549,Q,Q
2023-03-15 11:10:03:969,0,7.77587,-7.13447,-10.3186,Q,Q
2023-03-15 11:10:03:979,0,7.86205,-7.15101,-10.1781,Q,Q
2023-03-15 11:10:03:989,0,7.9425,-7.14007,-10.0368,Q,Q
2023-03-15 11:10:03:999,0,8.01349,-7.09489,-9.89408,Q,Q
2023-03-15 11:10:04:9,0,8.06674,-7.02601,-9.74877,Q,Q
2023-03-15 11:10:04:19,0,8.10152,-6.94083,-9.59693,Q,Q
2023-03-15 11:10:04:29,0,8.11921,-6.84885,-9.43863,Q,Q
2023-03-15 11:10:04:39,0,8.11778,-6.75912,-9.27427,Q,Q
2023-03-15 11:10:04:49,0,8.099,-6.68196,-9.10536,Q,Q
2023-03-15 11:10:04:59,0,8.07095,-6.60911,-8.94429,Q,Q
2023-03-15 11:10:04:69,0,8.03634,-6.53851,-8.78961,Q,Q
2023-03-15 11:10:04:79,0,8.00984,-6.46414,-8.639,Q,Q
2023-03-15 11:10:04:89,0,7.99429,-6.38197,-8.49364,Q,Q
2023-03-15 11:10:04:99,0,7.98136,-6.2947,-8.35389,Q,Q
2023-03-15 11:10:04:109,0,7.96533,-6.19203,-8.22316,Q,Q
2023-03-15 11:10:04:119,0,7.94932,-6.08209,-8.10027,Q,Q
2023-03-15 11:10:04:129,0,7.93052,-5.96593,-7.98389,Q,Q
2023-03-15 11:10:04:139,0,7.90472,-5.84355,-7.86817,Q,Q
2023-03-15 11:10:04:149,0,7.88047,-5.72969,-7.75184,Q,Q
2023-03-15 11:10:04:159,0,7.85528,-5.62334,-7.62778,Q,Q
2023-03-15 11:10:04:169,0,7.82755,-5.52255,-7.50318,Q,Q
2023-03-15 11:10:04:179,0,7.7894,-5.41895,-7.38256,Q,Q
