Timestamp_cmd,imu_cmd,roll_delta,pitch_delta,yaw_delta,voice_type,voice_length
2023-03-15 22:22:10:183,0,-8.2282,-4.20589,-18.6608,Q,Q
2023-03-15 22:22:10:192,0,-8.23625,-4.23247,-18.643,Q,Q
2023-03-15 22:22:10:202,0,-8.24429,-4.25354,-18.628,Q,Q
2023-03-15 22:22:10:212,0,-8.24991,-4.27138,-18.6212,Q,Q
2023-03-15 22:22:10:222,0,-8.25186,-4.28341,-18.6204,Q,Q
2023-03-15 22:22:10:232,0,-8.25341,-4.29141,-18.6209,Q,Q
2023-03-15 22:22:10:242,0,-8.24983,-4.29892,-18.6271,Q,Q
2023-03-15 22:22:10:252,0,-8.25288,-4.30646,-18.6364,Q,Q
2023-03-15 22:22:10:262,0,-8.25052,-4.3113,-18.6442,Q,Q
2023-03-15 22:22:10:272,0,-8.25733,-4.31243,-18.6515,Q,Q
2023-03-15 22:22:10:282,0,-8.26172,-4.30893,-18.6635,Q,Q
2023-03-15 22:22:10:292,0,-8.27302,-4.30297,-18.6748,Q,Q
2023-03-15 22:22:10:302,0,-8.28305,-4.29425,-18.6852,Q,Q
2023-03-15 22:22:10:312,0,-8.29355,-4.28509,-18.696,Q,Q
2023-03-15 22:22:10:322,0,-8.30784,-4.27989,-18.7097,Q,Q
2023-03-15 22:22:10:332,0,-8.32052,-4.27273,-18.725,Q,Q
2023-03-15 22:22:10:342,0,-8.33626,-4.26402,-18.7414,Q,Q
2023-03-15 22:22:10:352,0,-8.34604,-4.2623,-18.7636,Q,Q
2023-03-15 22:22:10:362,0,-8.35956,-4.25617,-18.7878,Q,Q
2023-03-15 22:22:10:372,0,-8.36971,-4.25287,-18.8145,Q,Q
2023-03-15 22:22:10:382,0,-8.37819,-4.24527,-18.84,Q,Q
2023-03-15 22:22:10:392,0,-8.3781,-4.2416,-18.8591,Q,Q
2023-03-15 22:22:10:402,0,-8.37538,-4.2435,-18.8715,Q,Q
2023-03-15 22:22:10:412,0,-8.37468,-4.24637,-18.8776,Q,Q
2023-03-15 22:22:10:422,0,-8.37569,-4.24466,-18.8844,Q,Q
2023-03-15 22:22:10:432,0,-8.37445,-4.24038,-18.8877,Q,Q
2023-03-15 22:22:10:442,0,-8.37214,-4.23266,-18.8879,Q,Q
2023-03-15 22:22:10:452,0,-8.37103,-4.22169,-18.8908,Q,Q
2023-03-15 22:22:10:462,0,-8.37194,-4.21176,-18.8918,Q,Q
2023-03-15 22:22:10:472,0,-8.36816,-4.20016,-18.8913,Q,Q
2023-03-15 22:22:10:482,0,-8.36124,-4.19524,-18.8938,Q,Q
2023-03-15 22:22:10:492,0,-8.35797,-4.18987,-18.8967,Q,Q
2023-03-15 22:22:10:502,0,-8.35246,-4.18502,-18.9037,Q,Q
2023-03-15 22:22:10:512,0,-8.34752,-4.18444,-18.9148,Q,Q
2023-03-15 22:22:10:522,0,-8.34152,-4.18294,-18.9272,Q,Q
2023-03-15 22:22:10:532,0,-8.3358,-4.18682,-18.9442,Q,Q
2023-03-15 22:22:10:542,0,-8.33048,-4.18765,-18.957,Q,Q
2023-03-15 22:22:10:552,0,-8.32778,-4.19081,-18.9679,Q,Q
2023-03-15 22:22:10:562,0,-8.32229,-4.19265,-18.9811,Q,Q
2023-03-15 22:22:10:572,0,-8.32036,-4.19526,-18.9904,Q,Q
2023-03-15 22:22:10:582,0,-8.31883,-4.20408,-18.9945,Q,Q
2023-03-15 22:22:10:592,0,-8.32656,-4.21224,-18.9943,Q,Q
2023-03-15 22:22:10:602,0,-8.3385,-4.22393,-18.9875,Q,Q
2023-03-15 22:22:10:612,0,-8.34921,-4.22903,-18.9788,Q,Q
2023-03-15 22:22:10:622,0,-8.35844,-4.23867,-18.9666,Q,Q
2023-03-15 22:22:10:632,0,-8.37037,-4.25016,-18.9562,Q,Q
2023-03-15 22:22:10:642,0,-8.38296,-4.2646,-18.9431,Q,Q
2023-03-15 22:22:10:652,0,-8.39054,-4.27999,-18.9296,Q,Q
2023-03-15 22:22:10:662,0,-8.39691,-4.29233,-18.9163,Q,Q
2023-03-15 22:22:10:672,0,-8.40132,-4.30829,-18.9046,Q,Q
2023-03-15 22:22:10:682,0,-8.40228,-4.3216,-18.8909,Q,Q
2023-03-15 22:22:10:692,0,-8.40464,-4.33592,-18.8772,Q,Q
2023-03-15 22:22:10:702,0,-8.40613,-4.35396,-18.8626,Q,Q
2023-03-15 22:22:10:712,0,-8.40623,-4.36882,-18.852,Q,Q
2023-03-15 22:22:10:722,0,-8.40581,-4.37809,-18.8428,Q,Q
2023-03-15 22:22:10:732,0,-8.4022,-4.38812,-18.8352,Q,Q
2023-03-15 22:22:10:742,0,-8.40506,-4.40217,-18.8278,Q,Q
2023-03-15 22:22:10:752,0,-8.40464,-4.41258,-18.8189,Q,Q
2023-03-15 22:22:10:762,0,-8.40621,-4.42307,-18.8114,Q,Q
2023-03-15 22:22:10:772,0,-8.40637,-4.43192,-18.8026,Q,Q
2023-03-15 22:22:10:782,0,-8.40449,-4.44071,-18.7993,Q,Q
2023-03-15 22:22:10:792,0,-8.4036,-4.4448,-18.7938,Q,Q
2023-03-15 22:22:10:802,0,-8.40225,-4.44848,-18.7898,Q,Q
2023-03-15 22:22:10:812,0,-8.40148,-4.45425,-18.7867,Q,Q
2023-03-15 22:22:10:822,0,-8.39951,-4.46268,-18.7846,Q,Q
2023-03-15 22:22:10:832,0,-8.39774,-4.4705,-18.782,Q,Q
2023-03-15 22:22:10:842,0,-8.39512,-4.47624,-18.7821,Q,Q
2023-03-15 22:22:10:852,0,-8.39199,-4.48253,-18.7835,Q,Q
2023-03-15 22:22:10:862,0,-8.39117,-4.4892,-18.7831,Q,Q
2023-03-15 22:22:10:872,0,-8.39216,-4.49966,-18.7828,Q,Q
2023-03-15 22:22:10:882,0,-8.39635,-4.50565,-18.7844,Q,Q
2023-03-15 22:22:10:892,0,-8.39269,-4.5167,-18.7859,Q,Q
2023-03-15 22:22:10:902,0,-8.38634,-4.52973,-18.7818,Q,Q
2023-03-15 22:22:10:912,0,-8.37963,-4.54276,-18.7686,Q,Q
2023-03-15 22:22:10:922,0,-8.37809,-4.55621,-18.7518,Q,Q
2023-03-15 22:22:10:932,0,-8.37949,-4.57693,-18.7376,Q,Q
2023-03-15 22:22:10:942,0,-8.38361,-4.59917,-18.7136,Q,Q
2023-03-15 22:22:10:952,0,-8.39066,-4.61859,-18.6924,Q,Q
2023-03-15 22:22:10:962,0,-8.39516,-4.63677,-18.666,Q,Q
2023-03-15 22:22:10:972,0,-8.39912,-4.65391,-18.6424,Q,Q
2023-03-15 22:22:10:982,0,-8.39594,-4.67381,-18.6225,Q,Q
2023-03-15 22:22:10:992,0,-8.3881,-4.69329,-18.605,Q,Q
2023-03-15 22:22:11:2,0,-8.37866,-4.7106,-18.5911,Q,Q
2023-03-15 22:22:11:12,0,-8.35787,-4.7275,-18.5774,Q,Q
2023-03-15 22:22:11:22,0,-8.33901,-4.73888,-18.5689,Q,Q
2023-03-15 22:22:11:32,0,-8.32238,-4.74769,-18.5623,Q,Q
2023-03-15 22:22:11:42,0,-8.31296,-4.75739,-18.5581,Q,Q
2023-03-15 22:22:11:52,0,-8.30812,-4.76274,-18.5577,Q,Q
2023-03-15 22:22:11:62,0,-8.30448,-4.76902,-18.5586,Q,Q
2023-03-15 22:22:11:72,0,-8.30551,-4.7768,-18.559,Q,Q
2023-03-15 22:22:11:82,0,-8.31056,-4.7777,-18.563,Q,Q
2023-03-15 22:22:11:92,0,-8.31233,-4.77917,-18.5707,Q,Q
2023-03-15 22:22:11:102,0,-8.31618,-4.77921,-18.5781,Q,Q
2023-03-15 22:22:11:112,0,-8.32193,-4.77687,-18.5862,Q,Q
2023-03-15 22:22:11:122,0,-8.32404,-4.77025,-18.5946,Q,Q
2023-03-15 22:22:11:132,0,-8.3226,-4.76655,-18.5979,Q,Q
2023-03-15 22:22:11:142,0,-8.3202,-4.76651,-18.6001,Q,Q
2023-03-15 22:22:11:152,0,-8.31716,-4.77134,-18.5945,Q,Q
2023-03-15 22:22:11:162,0,-8.31482,-4.77387,-18.5929,Q,Q
2023-03-15 22:22:11:172,0,-8.31142,-4.77271,-18.5955,Q,Q
2023-03-15 22:22:11:182,0,-8.3085,-4.7692,-18.5944,Q,Q
2023-03-15 22:22:11:192,0,-8.30617,-4.76574,-18.5951,Q,Q
2023-03-15 22:22:11:202,0,-8.30196,-4.76409,-18.5953,Q,Q
2023-03-15 22:22:11:212,0,-8.29675,-4.76303,-18.5993,Q,Q
2023-03-15 22:22:11:222,0,-8.28837,-4.76026,-18.6029,Q,Q
2023-03-15 22:22:11:232,0,-8.27561,-4.75887,-18.6032,Q,Q
2023-03-15 22:22:11:242,0,-8.25986,-4.75753,-18.6038,Q,Q
2023-03-15 22:22:11:252,0,-8.24281,-4.76009,-18.6031,Q,Q
2023-03-15 22:22:11:262,0,-8.23625,-4.76604,-18.5995,Q,Q
2023-03-15 22:22:11:272,0,-8.23104,-4.77124,-18.6004,Q,Q
2023-03-15 22:22:11:282,0,-8.22346,-4.77473,-18.5973,Q,Q
2023-03-15 22:22:11:292,0,-8.21665,-4.77899,-18.5931,Q,Q
2023-03-15 22:22:11:302,0,-8.21746,-4.77848,-18.5915,Q,Q
2023-03-15 22:22:11:312,0,-8.21987,-4.78715,-18.5874,Q,Q
2023-03-15 22:22:11:322,0,-8.22718,-4.79479,-18.58,Q,Q
2023-03-15 22:22:11:332,0,-8.2295,-4.80281,-18.5752,Q,Q
2023-03-15 22:22:11:342,0,-8.235,-4.8085,-18.5725,Q,Q
2023-03-15 22:22:11:352,0,-8.24578,-4.8133,-18.5689,Q,Q
2023-03-15 22:22:11:362,0,-8.26789,-4.81917,-18.5715,Q,Q
2023-03-15 22:22:11:372,0,-8.28986,-4.82036,-18.5773,Q,Q
2023-03-15 22:22:11:382,0,-8.31962,-4.81994,-18.5785,Q,Q
2023-03-15 22:22:11:392,0,-8.34811,-4.82118,-18.5824,Q,Q
2023-03-15 22:22:11:402,0,-8.37617,-4.82686,-18.5904,Q,Q
2023-03-15 22:22:11:412,0,-8.3972,-4.83036,-18.6037,Q,Q
2023-03-15 22:22:11:422,0,-8.41129,-4.83101,-18.6137,Q,Q
2023-03-15 22:22:11:432,0,-8.41673,-4.83453,-18.6267,Q,Q
2023-03-15 22:22:11:442,0,-8.42057,-4.83378,-18.6383,Q,Q
2023-03-15 22:22:11:452,0,-8.4305,-4.82885,-18.651,Q,Q
2023-03-15 22:22:11:462,0,-8.45048,-4.81495,-18.6558,Q,Q
2023-03-15 22:22:11:472,0,-8.48893,-4.79963,-18.6639,Q,Q
2023-03-15 22:22:11:482,0,-8.52817,-4.78986,-18.6709,Q,Q
2023-03-15 22:22:11:492,0,-8.55315,-4.78352,-18.6748,Q,Q
2023-03-15 22:22:11:502,0,-8.55937,-4.77304,-18.6782,Q,Q
2023-03-15 22:22:11:512,0,-8.55763,-4.76237,-18.6774,Q,Q
2023-03-15 22:22:11:522,0,-8.5578,-4.75098,-18.6713,Q,Q
2023-03-15 22:22:11:532,0,-8.56346,-4.73763,-18.6712,Q,Q
2023-03-15 22:22:11:542,0,-8.5664,-4.72332,-18.6745,Q,Q
2023-03-15 22:22:11:552,0,-8.55935,-4.70643,-18.6775,Q,Q
2023-03-15 22:22:11:562,0,-8.54554,-4.69453,-18.6804,Q,Q
2023-03-15 22:22:11:572,0,-8.5212,-4.68629,-18.6776,Q,Q
2023-03-15 22:22:11:582,0,-8.50075,-4.67456,-18.6723,Q,Q
2023-03-15 22:22:11:592,0,-8.486,-4.66638,-18.6699,Q,Q
2023-03-15 22:22:11:602,0,-8.47715,-4.65421,-18.6671,Q,Q
2023-03-15 22:22:11:612,0,-8.46693,-4.64537,-18.6698,Q,Q
2023-03-15 22:22:11:622,0,-8.44583,-4.64097,-18.6675,Q,Q
2023-03-15 22:22:11:632,0,-8.42644,-4.63433,-18.6625,Q,Q
2023-03-15 22:22:11:642,0,-8.41907,-4.63335,-18.6505,Q,Q
2023-03-15 22:22:11:652,0,-8.41385,-4.63176,-18.6371,Q,Q
2023-03-15 22:22:11:662,0,-8.40482,-4.62931,-18.6284,Q,Q
2023-03-15 22:22:11:672,0,-8.39389,-4.63089,-18.6222,Q,Q
2023-03-15 22:22:11:682,0,-8.38716,-4.63344,-18.6062,Q,Q
2023-03-15 22:22:11:692,0,-8.38304,-4.639,-18.5948,Q,Q
2023-03-15 22:22:11:702,0,-8.37726,-4.64423,-18.5806,Q,Q
2023-03-15 22:22:11:711,0,-8.36904,-4.6443,-18.5631,Q,Q
2023-03-15 22:22:11:721,0,-8.35924,-4.64673,-18.5509,Q,Q
2023-03-15 22:22:11:732,0,-8.35052,-4.65159,-18.5372,Q,Q
2023-03-15 22:22:11:742,0,-8.34368,-4.65556,-18.5201,Q,Q
2023-03-15 22:22:11:752,0,-8.34046,-4.65911,-18.5058,Q,Q
2023-03-15 22:22:11:762,0,-8.33809,-4.66022,-18.4921,Q,Q
2023-03-15 22:22:11:772,0,-8.33648,-4.66084,-18.479,Q,Q
2023-03-15 22:22:11:782,0,-8.34164,-4.66336,-18.4673,Q,Q
2023-03-15 22:22:11:792,0,-8.35091,-4.6662,-18.4566,Q,Q
2023-03-15 22:22:11:802,0,-8.36044,-4.665,-18.449,Q,Q
2023-03-15 22:22:11:812,0,-8.37503,-4.667,-18.4441,Q,Q
2023-03-15 22:22:11:822,0,-8.39159,-4.66624,-18.4381,Q,Q
2023-03-15 22:22:11:832,0,-8.40512,-4.66031,-18.4336,Q,Q
2023-03-15 22:22:11:842,0,-8.42067,-4.652,-18.4347,Q,Q
2023-03-15 22:22:11:852,0,-8.42752,-4.65337,-18.4313,Q,Q
2023-03-15 22:22:11:862,0,-8.43187,-4.65063,-18.425,Q,Q
2023-03-15 22:22:11:872,0,-8.43477,-4.65599,-18.4168,Q,Q
2023-03-15 22:22:11:882,0,-8.43206,-4.66146,-18.4092,Q,Q
2023-03-15 22:22:11:892,0,-8.43126,-4.66438,-18.4049,Q,Q
2023-03-15 22:22:11:901,0,-8.42953,-4.6678,-18.4013,Q,Q
2023-03-15 22:22:11:912,0,-8.42744,-4.6722,-18.3961,Q,Q
2023-03-15 22:22:11:922,0,-8.4215,-4.6739,-18.391,Q,Q
2023-03-15 22:22:11:932,0,-8.41413,-4.67594,-18.3826,Q,Q
2023-03-15 22:22:11:942,0,-8.40249,-4.67876,-18.3756,Q,Q
2023-03-15 22:22:11:952,0,-8.39008,-4.68281,-18.3666,Q,Q
2023-03-15 22:22:11:962,0,-8.37886,-4.68675,-18.3601,Q,Q
2023-03-15 22:22:11:972,0,-8.36683,-4.69355,-18.3552,Q,Q
2023-03-15 22:22:11:982,0,-8.35098,-4.69744,-18.3467,Q,Q
2023-03-15 22:22:11:992,0,-8.3379,-4.70531,-18.3338,Q,Q
2023-03-15 22:22:12:2,0,-8.32663,-4.71317,-18.3228,Q,Q
2023-03-15 22:22:12:12,0,-8.31824,-4.72399,-18.3105,Q,Q
2023-03-15 22:22:12:22,0,-8.31352,-4.73563,-18.3003,Q,Q
2023-03-15 22:22:12:32,0,-8.30967,-4.7485,-18.2898,Q,Q
2023-03-15 22:22:12:42,0,-8.30855,-4.75831,-18.2777,Q,Q
2023-03-15 22:22:12:52,0,-8.30242,-4.76883,-18.2624,Q,Q
2023-03-15 22:22:12:62,0,-8.29859,-4.78048,-18.2476,Q,Q
2023-03-15 22:22:12:72,0,-8.29693,-4.78903,-18.234,Q,Q
2023-03-15 22:22:12:82,0,-8.29946,-4.79942,-18.2195,Q,Q
2023-03-15 22:22:12:92,0,-8.30192,-4.80484,-18.2047,Q,Q
2023-03-15 22:22:12:102,0,-8.30157,-4.8141,-18.1909,Q,Q
2023-03-15 22:22:12:112,0,-8.30506,-4.82275,-18.1766,Q,Q
2023-03-15 22:22:12:122,0,-8.30958,-4.83044,-18.1622,Q,Q
2023-03-15 22:22:12:132,0,-8.31077,-4.8396,-18.1554,Q,Q
2023-03-15 22:22:12:142,0,-8.31168,-4.84753,-18.1478,Q,Q
2023-03-15 22:22:12:152,0,-8.31522,-4.85028,-18.1398,Q,Q
2023-03-15 22:22:12:162,0,-8.31632,-4.85853,-18.1308,Q,Q
2023-03-15 22:22:12:172,0,-8.31767,-4.86462,-18.1251,Q,Q
2023-03-15 22:22:12:182,0,-8.31785,-4.872,-18.1175,Q,Q
2023-03-15 22:22:12:192,0,-8.31642,-4.87675,-18.1081,Q,Q
2023-03-15 22:22:12:202,0,-8.3153,-4.88534,-18.0996,Q,Q
2023-03-15 22:22:12:212,0,-8.31167,-4.89702,-18.0944,Q,Q
2023-03-15 22:22:12:222,0,-8.31081,-4.90446,-18.0886,Q,Q
2023-03-15 22:22:12:232,0,-8.31219,-4.91158,-18.0844,Q,Q
2023-03-15 22:22:12:242,0,-8.30626,-4.91633,-18.082,Q,Q
2023-03-15 22:22:12:252,0,-8.30611,-4.91983,-18.078,Q,Q
2023-03-15 22:22:12:262,0,-8.29988,-4.92411,-18.0757,Q,Q
2023-03-15 22:22:12:272,0,-8.2902,-4.92491,-18.0758,Q,Q
2023-03-15 22:22:12:282,0,-8.28358,-4.92867,-18.0753,Q,Q
2023-03-15 22:22:12:292,0,-8.2766,-4.93306,-18.0764,Q,Q
2023-03-15 22:22:12:302,0,-8.27085,-4.93065,-18.0769,Q,Q
2023-03-15 22:22:12:312,0,-8.26431,-4.93154,-18.0828,Q,Q
2023-03-15 22:22:12:322,0,-8.25815,-4.9303,-18.0868,Q,Q
2023-03-15 22:22:12:332,0,-8.25544,-4.93108,-18.0914,Q,Q
2023-03-15 22:22:12:342,0,-8.25394,-4.93253,-18.0929,Q,Q
2023-03-15 22:22:12:352,0,-8.25097,-4.93099,-18.0949,Q,Q
2023-03-15 22:22:12:362,0,-8.24929,-4.93284,-18.0963,Q,Q
2023-03-15 22:22:12:372,0,-8.24692,-4.93646,-18.0916,Q,Q
2023-03-15 22:22:12:382,0,-8.24942,-4.94337,-18.081,Q,Q
2023-03-15 22:22:12:392,0,-8.25415,-4.95194,-18.0715,Q,Q
2023-03-15 22:22:12:401,0,-8.26455,-4.96051,-18.0623,Q,Q
2023-03-15 22:22:12:412,0,-8.27812,-4.9702,-18.0527,Q,Q
2023-03-15 22:22:12:422,0,-8.29257,-4.97779,-18.0444,Q,Q
2023-03-15 22:22:12:432,0,-8.30615,-4.98494,-18.0353,Q,Q
2023-03-15 22:22:12:442,0,-8.31152,-4.98872,-18.0291,Q,Q
2023-03-15 22:22:12:452,0,-8.31064,-4.99079,-18.0253,Q,Q
2023-03-15 22:22:12:462,0,-8.30096,-4.9928,-18.0203,Q,Q
2023-03-15 22:22:12:472,0,-8.29644,-5.00125,-18.0211,Q,Q
2023-03-15 22:22:12:482,0,-8.29654,-5.0013,-18.0183,Q,Q
2023-03-15 22:22:12:492,0,-8.29749,-5.00197,-18.017,Q,Q
2023-03-15 22:22:12:502,0,-8.29693,-5.00444,-18.0181,Q,Q
2023-03-15 22:22:12:512,0,-8.2981,-5.00536,-18.0229,Q,Q
2023-03-15 22:22:12:522,0,-8.29849,-5.00519,-18.0215,Q,Q
2023-03-15 22:22:12:532,0,-8.30163,-5.0034,-18.0246,Q,Q
2023-03-15 22:22:12:542,0,-8.30741,-5.00138,-18.0293,Q,Q
2023-03-15 22:22:12:552,0,-8.31533,-5.00429,-18.0338,Q,Q
2023-03-15 22:22:12:562,0,-8.31893,-5.00106,-18.0374,Q,Q
2023-03-15 22:22:12:572,0,-8.32345,-4.99566,-18.0413,Q,Q
2023-03-15 22:22:12:582,0,-8.32742,-4.99009,-18.0461,Q,Q
2023-03-15 22:22:12:592,0,-8.32776,-4.98561,-18.047,Q,Q
2023-03-15 22:22:12:602,0,-8.3253,-4.98118,-18.044,Q,Q
2023-03-15 22:22:12:612,0,-8.3245,-4.97722,-18.0395,Q,Q
2023-03-15 22:22:12:622,0,-8.32411,-4.97362,-18.039,Q,Q
2023-03-15 22:22:12:632,0,-8.32429,-4.96954,-18.0381,Q,Q
2023-03-15 22:22:12:642,0,-8.32508,-4.96455,-18.0358,Q,Q
2023-03-15 22:22:12:652,0,-8.32093,-4.96372,-18.0299,Q,Q
2023-03-15 22:22:12:662,0,-8.3143,-4.96094,-18.0288,Q,Q
2023-03-15 22:22:12:672,0,-8.30896,-4.95747,-18.0268,Q,Q
2023-03-15 22:22:12:682,0,-8.30197,-4.95904,-18.0277,Q,Q
2023-03-15 22:22:12:692,0,-8.29104,-4.96078,-18.0272,Q,Q
2023-03-15 22:22:12:702,0,-8.285,-4.96285,-18.0263,Q,Q
2023-03-15 22:22:12:712,0,-8.27514,-4.96511,-18.026,Q,Q
2023-03-15 22:22:12:722,0,-8.26891,-4.96649,-18.0276,Q,Q
2023-03-15 22:22:12:732,0,-8.26514,-4.96901,-18.0254,Q,Q
2023-03-15 22:22:12:742,0,-8.26248,-4.97165,-18.0246,Q,Q
2023-03-15 22:22:12:752,0,-8.26451,-4.97793,-18.0209,Q,Q
2023-03-15 22:22:12:762,0,-8.2681,-4.98244,-18.0139,Q,Q
2023-03-15 22:22:12:772,0,-8.27157,-4.98679,-18.0036,Q,Q
2023-03-15 22:22:12:782,0,-8.2775,-4.99057,-17.9949,Q,Q
2023-03-15 22:22:12:792,0,-8.28041,-4.99515,-17.989,Q,Q
2023-03-15 22:22:12:802,0,-8.28657,-4.99606,-17.9814,Q,Q
2023-03-15 22:22:12:812,0,-8.29014,-4.9956,-17.9721,Q,Q
2023-03-15 22:22:12:822,0,-8.29389,-4.99763,-17.964,Q,Q
2023-03-15 22:22:12:832,0,-8.29931,-4.99851,-17.9594,Q,Q
2023-03-15 22:22:12:842,0,-8.3024,-4.99858,-17.9592,Q,Q
2023-03-15 22:22:12:852,0,-8.30603,-4.99656,-17.9612,Q,Q
2023-03-15 22:22:12:862,0,-8.30916,-4.99371,-17.9665,Q,Q
2023-03-15 22:22:12:872,0,-8.30788,-4.99204,-17.9717,Q,Q
2023-03-15 22:22:12:882,0,-8.30547,-4.9902,-17.9817,Q,Q
2023-03-15 22:22:12:892,0,-8.30517,-4.99172,-17.9902,Q,Q
2023-03-15 22:22:12:902,0,-8.3011,-4.99205,-17.9971,Q,Q
2023-03-15 22:22:12:912,0,-8.29193,-4.99316,-18.0039,Q,Q
2023-03-15 22:22:12:922,0,-8.2891,-4.99182,-18.0079,Q,Q
2023-03-15 22:22:12:932,0,-8.28676,-4.99253,-18.0088,Q,Q
2023-03-15 22:22:12:942,0,-8.28701,-4.99183,-18.0092,Q,Q
2023-03-15 22:22:12:952,0,-8.2875,-4.9914,-18.0092,Q,Q
2023-03-15 22:22:12:962,0,-8.2891,-4.99611,-18.0064,Q,Q
2023-03-15 22:22:12:972,0,-8.29058,-4.99541,-18.0013,Q,Q
2023-03-15 22:22:12:982,0,-8.29389,-4.99449,-17.9918,Q,Q
2023-03-15 22:22:12:992,0,-8.29345,-4.99362,-17.9829,Q,Q
2023-03-15 22:22:13:2,0,-8.29188,-4.99012,-17.9758,Q,Q
2023-03-15 22:22:13:12,0,-8.29124,-4.98694,-17.9679,Q,Q
2023-03-15 22:22:13:22,0,-8.29315,-4.9885,-17.9635,Q,Q
2023-03-15 22:22:13:32,0,-8.29482,-4.98786,-17.9604,Q,Q
2023-03-15 22:22:13:42,0,-8.30153,-4.98848,-17.9555,Q,Q
2023-03-15 22:22:13:52,0,-8.31255,-4.99104,-17.952,Q,Q
2023-03-15 22:22:13:62,0,-8.3225,-4.99454,-17.9527,Q,Q
2023-03-15 22:22:13:72,0,-8.33454,-4.99749,-17.953,Q,Q
2023-03-15 22:22:13:82,0,-8.3461,-4.99764,-17.952,Q,Q
2023-03-15 22:22:13:92,0,-8.35078,-4.99817,-17.9519,Q,Q
2023-03-15 22:22:13:102,0,-8.3567,-4.99822,-17.948,Q,Q
2023-03-15 22:22:13:112,0,-8.37035,-5.00367,-17.9442,Q,Q
2023-03-15 22:22:13:122,0,-8.39478,-5.0084,-17.9353,Q,Q
2023-03-15 22:22:13:132,0,-8.42427,-5.01499,-17.9267,Q,Q
2023-03-15 22:22:13:142,0,-8.45553,-5.01776,-17.918,Q,Q
2023-03-15 22:22:13:152,0,-8.48238,-5.01635,-17.912,Q,Q
2023-03-15 22:22:13:162,0,-8.50675,-5.01397,-17.9082,Q,Q
2023-03-15 22:22:13:172,0,-8.52907,-5.01561,-17.9013,Q,Q
2023-03-15 22:22:13:182,0,-8.54798,-5.0156,-17.8917,Q,Q
2023-03-15 22:22:13:192,0,-8.5683,-5.01953,-17.8828,Q,Q
2023-03-15 22:22:13:202,0,-8.58917,-5.02315,-17.8723,Q,Q
2023-03-15 22:22:13:212,0,-8.61137,-5.02694,-17.8679,Q,Q
2023-03-15 22:22:13:222,0,-8.62239,-5.0279,-17.8647,Q,Q
2023-03-15 22:22:13:232,0,-8.62658,-5.02541,-17.8622,Q,Q
2023-03-15 22:22:13:242,0,-8.63122,-5.02195,-17.8599,Q,Q
2023-03-15 22:22:13:252,0,-8.6461,-5.02124,-17.8555,Q,Q
2023-03-15 22:22:13:262,0,-8.6695,-5.02583,-17.8571,Q,Q
2023-03-15 22:22:13:272,0,-8.697,-5.0293,-17.8616,Q,Q
2023-03-15 22:22:13:282,0,-8.72579,-5.03261,-17.8754,Q,Q
2023-03-15 22:22:13:292,0,-8.75291,-5.03229,-17.8913,Q,Q
2023-03-15 22:22:13:302,0,-8.76485,-5.02517,-17.9066,Q,Q
2023-03-15 22:22:13:312,0,-8.76947,-5.01841,-17.9243,Q,Q
2023-03-15 22:22:13:322,0,-8.77638,-5.00784,-17.9387,Q,Q
2023-03-15 22:22:13:332,0,-8.7911,-5.00079,-17.9522,Q,Q
2023-03-15 22:22:13:342,0,-8.80402,-4.99832,-17.9585,Q,Q
2023-03-15 22:22:13:352,0,-8.80149,-4.9944,-17.9658,Q,Q
2023-03-15 22:22:13:362,0,-8.78703,-4.99466,-17.9715,Q,Q
2023-03-15 22:22:13:372,0,-8.76052,-4.99967,-17.9708,Q,Q
2023-03-15 22:22:13:382,0,-8.72771,-4.9994,-17.965,Q,Q
2023-03-15 22:22:13:392,0,-8.6934,-4.99467,-17.9549,Q,Q
2023-03-15 22:22:13:402,0,-8.65687,-4.98547,-17.9403,Q,Q
2023-03-15 22:22:13:412,0,-8.62761,-4.98567,-17.92,Q,Q
2023-03-15 22:22:13:422,0,-8.61198,-4.99046,-17.8987,Q,Q
2023-03-15 22:22:13:432,0,-8.60953,-5.00121,-17.8808,Q,Q
2023-03-15 22:22:13:442,0,-8.60975,-5.007,-17.8733,Q,Q
2023-03-15 22:22:13:452,0,-8.60801,-5.01756,-17.8657,Q,Q
2023-03-15 22:22:13:462,0,-8.6031,-5.0295,-17.8583,Q,Q
2023-03-15 22:22:13:472,0,-8.59851,-5.04108,-17.855,Q,Q
2023-03-15 22:22:13:482,0,-8.59346,-5.05389,-17.8524,Q,Q
2023-03-15 22:22:13:492,0,-8.5877,-5.06509,-17.852,Q,Q
2023-03-15 22:22:13:502,0,-8.58126,-5.07686,-17.8492,Q,Q
2023-03-15 22:22:13:512,0,-8.57661,-5.08796,-17.8394,Q,Q
2023-03-15 22:22:13:522,0,-8.5746,-5.09658,-17.8333,Q,Q
2023-03-15 22:22:13:532,0,-8.57493,-5.10823,-17.8245,Q,Q
2023-03-15 22:22:13:542,0,-8.57858,-5.12054,-17.8153,Q,Q
2023-03-15 22:22:13:552,0,-8.58425,-5.12636,-17.8023,Q,Q
2023-03-15 22:22:13:562,0,-8.59108,-5.12747,-17.7914,Q,Q
2023-03-15 22:22:13:572,0,-8.59762,-5.13082,-17.7794,Q,Q
2023-03-15 22:22:13:582,0,-8.60311,-5.13424,-17.7707,Q,Q
2023-03-15 22:22:13:592,0,-8.60701,-5.13736,-17.7661,Q,Q
2023-03-15 22:22:13:602,0,-8.60934,-5.1402,-17.7663,Q,Q
2023-03-15 22:22:13:612,0,-8.60816,-5.14392,-17.7667,Q,Q
2023-03-15 22:22:13:622,0,-8.6019,-5.15089,-17.7734,Q,Q
2023-03-15 22:22:13:632,0,-8.59453,-5.15637,-17.7823,Q,Q
2023-03-15 22:22:13:642,0,-8.59031,-5.1609,-17.7907,Q,Q
2023-03-15 22:22:13:652,0,-8.58676,-5.16453,-17.8018,Q,Q
2023-03-15 22:22:13:662,0,-8.58502,-5.16789,-17.8111,Q,Q
2023-03-15 22:22:13:671,0,-8.57955,-5.16926,-17.8177,Q,Q
2023-03-15 22:22:13:682,0,-8.57198,-5.17211,-17.8196,Q,Q
2023-03-15 22:22:13:692,0,-8.5624,-5.17386,-17.8245,Q,Q
2023-03-15 22:22:13:702,0,-8.5542,-5.17459,-17.8252,Q,Q
2023-03-15 22:22:13:712,0,-8.54688,-5.17666,-17.8214,Q,Q
2023-03-15 22:22:13:722,0,-8.53948,-5.17936,-17.8143,Q,Q
2023-03-15 22:22:13:732,0,-8.53722,-5.18181,-17.8064,Q,Q
2023-03-15 22:22:13:741,0,-8.53698,-5.18565,-17.8017,Q,Q
2023-03-15 22:22:13:751,0,-8.5394,-5.18303,-17.7952,Q,Q
2023-03-15 22:22:13:761,0,-8.54443,-5.1817,-17.7913,Q,Q
2023-03-15 22:22:13:771,0,-8.54536,-5.18326,-17.7883,Q,Q
2023-03-15 22:22:13:781,0,-8.54825,-5.18661,-17.7878,Q,Q
2023-03-15 22:22:13:791,0,-8.55524,-5.19022,-17.7845,Q,Q
2023-03-15 22:22:13:801,0,-8.55978,-5.19705,-17.786,Q,Q
2023-03-15 22:22:13:811,0,-8.55391,-5.2007,-17.7881,Q,Q
2023-03-15 22:22:13:821,0,-8.55208,-5.20356,-17.7837,Q,Q
2023-03-15 22:22:13:831,0,-8.5653,-5.21013,-17.7815,Q,Q
2023-03-15 22:22:13:841,0,-8.58262,-5.21533,-17.7797,Q,Q
2023-03-15 22:22:13:851,0,-8.59474,-5.22135,-17.7832,Q,Q
2023-03-15 22:22:13:861,0,-8.60535,-5.22964,-17.7788,Q,Q
2023-03-15 22:22:13:871,0,-8.61938,-5.23591,-17.7689,Q,Q
2023-03-15 22:22:13:881,0,-8.64146,-5.24338,-17.7579,Q,Q
2023-03-15 22:22:13:891,0,-8.66746,-5.24866,-17.748,Q,Q
2023-03-15 22:22:13:901,0,-8.69559,-5.25334,-17.7407,Q,Q
2023-03-15 22:22:13:911,0,-8.7209,-5.25153,-17.7381,Q,Q
2023-03-15 22:22:13:921,0,-8.7394,-5.24764,-17.7389,Q,Q
2023-03-15 22:22:13:931,0,-8.75763,-5.24282,-17.7405,Q,Q
2023-03-15 22:22:13:941,0,-8.77257,-5.23642,-17.744,Q,Q
2023-03-15 22:22:13:951,0,-8.78716,-5.23044,-17.7552,Q,Q
2023-03-15 22:22:13:961,0,-8.79909,-5.22022,-17.7676,Q,Q
2023-03-15 22:22:13:971,0,-8.81091,-5.21254,-17.7821,Q,Q
2023-03-15 22:22:13:981,0,-8.82039,-5.2067,-17.8026,Q,Q
2023-03-15 22:22:13:991,0,-8.81771,-5.20005,-17.8247,Q,Q
2023-03-15 22:22:14:1,0,-8.80528,-5.19001,-17.8442,Q,Q
2023-03-15 22:22:14:11,0,-8.78955,-5.18038,-17.8602,Q,Q
2023-03-15 22:22:14:21,0,-8.77898,-5.16707,-17.8736,Q,Q
2023-03-15 22:22:14:31,0,-8.77444,-5.15607,-17.8815,Q,Q
2023-03-15 22:22:14:41,0,-8.77543,-5.14514,-17.8913,Q,Q
2023-03-15 22:22:14:51,0,-8.78286,-5.13046,-17.8973,Q,Q
2023-03-15 22:22:14:61,0,-8.79144,-5.11494,-17.9046,Q,Q
2023-03-15 22:22:14:71,0,-8.79585,-5.10018,-17.91,Q,Q
2023-03-15 22:22:14:81,0,-8.79961,-5.09006,-17.9181,Q,Q
2023-03-15 22:22:14:91,0,-8.79823,-5.08517,-17.9216,Q,Q
2023-03-15 22:22:14:101,0,-8.80074,-5.08209,-17.9238,Q,Q
2023-03-15 22:22:14:111,0,-8.80191,-5.08131,-17.9328,Q,Q
2023-03-15 22:22:14:121,0,-8.80065,-5.07302,-17.9405,Q,Q
2023-03-15 22:22:14:131,0,-8.80037,-5.06541,-17.943,Q,Q
2023-03-15 22:22:14:141,0,-8.80973,-5.05968,-17.945,Q,Q
2023-03-15 22:22:14:151,0,-8.82498,-5.05646,-17.9448,Q,Q
2023-03-15 22:22:14:161,0,-8.84375,-5.05399,-17.9447,Q,Q
2023-03-15 22:22:14:171,0,-8.85838,-5.05261,-17.9468,Q,Q
2023-03-15 22:22:14:181,0,-8.86699,-5.04702,-17.9437,Q,Q
2023-03-15 22:22:14:191,0,-8.87348,-5.042,-17.9376,Q,Q
2023-03-15 22:22:14:201,0,-8.87188,-5.04514,-17.9329,Q,Q
2023-03-15 22:22:14:211,0,-8.86624,-5.04865,-17.933,Q,Q
2023-03-15 22:22:14:221,0,-8.86128,-5.05423,-17.9345,Q,Q
2023-03-15 22:22:14:231,0,-8.85217,-5.05808,-17.9339,Q,Q
2023-03-15 22:22:14:241,0,-8.84888,-5.06172,-17.929,Q,Q
2023-03-15 22:22:14:251,0,-8.84871,-5.06476,-17.9286,Q,Q
2023-03-15 22:22:14:261,0,-8.85533,-5.06647,-17.9248,Q,Q
2023-03-15 22:22:14:271,0,-8.86433,-5.07001,-17.9213,Q,Q
2023-03-15 22:22:14:281,0,-8.8758,-5.06944,-17.9188,Q,Q
2023-03-15 22:22:14:291,0,-8.89339,-5.06926,-17.9155,Q,Q
2023-03-15 22:22:14:301,0,-8.9099,-5.06322,-17.914,Q,Q
2023-03-15 22:22:14:311,0,-8.92568,-5.06056,-17.906,Q,Q
2023-03-15 22:22:14:321,0,-8.92934,-5.0613,-17.8991,Q,Q
2023-03-15 22:22:14:331,0,-8.92455,-5.06603,-17.8908,Q,Q
2023-03-15 22:22:14:341,0,-8.91081,-5.069,-17.8876,Q,Q
2023-03-15 22:22:14:351,0,-8.88749,-5.07059,-17.885,Q,Q
2023-03-15 22:22:14:362,0,-8.87421,-5.0681,-17.8849,Q,Q
2023-03-15 22:22:14:372,0,-8.87689,-5.06262,-17.8871,Q,Q
2023-03-15 22:22:14:382,0,-8.89115,-5.05666,-17.8897,Q,Q
2023-03-15 22:22:14:392,0,-8.90179,-5.05366,-17.8961,Q,Q
2023-03-15 22:22:14:402,0,-8.91329,-5.05799,-17.9048,Q,Q
2023-03-15 22:22:14:412,0,-8.9238,-5.0572,-17.9119,Q,Q
2023-03-15 22:22:14:422,0,-8.93859,-5.05571,-17.9213,Q,Q
2023-03-15 22:22:14:432,0,-8.9527,-5.04879,-17.9296,Q,Q
2023-03-15 22:22:14:441,0,-8.95718,-5.04687,-17.9322,Q,Q
2023-03-15 22:22:14:451,0,-8.95993,-5.04497,-17.9321,Q,Q
2023-03-15 22:22:14:462,0,-8.95818,-5.04544,-17.9251,Q,Q
2023-03-15 22:22:14:472,0,-8.95501,-5.04709,-17.9193,Q,Q
2023-03-15 22:22:14:482,0,-8.94938,-5.04829,-17.9133,Q,Q
2023-03-15 22:22:14:491,0,-8.94061,-5.05232,-17.9049,Q,Q
2023-03-15 22:22:14:502,0,-8.93259,-5.05654,-17.8926,Q,Q
2023-03-15 22:22:14:512,0,-8.92243,-5.05848,-17.8865,Q,Q
2023-03-15 22:22:14:521,0,-8.9148,-5.06347,-17.8774,Q,Q
2023-03-15 22:22:14:531,0,-8.91685,-5.07207,-17.8676,Q,Q
2023-03-15 22:22:14:542,0,-8.91902,-5.07646,-17.8613,Q,Q
2023-03-15 22:22:14:552,0,-8.9193,-5.07977,-17.8619,Q,Q
2023-03-15 22:22:14:562,0,-8.91107,-5.08346,-17.8598,Q,Q
2023-03-15 22:22:14:572,0,-8.90517,-5.08877,-17.8569,Q,Q
2023-03-15 22:22:14:582,0,-8.90372,-5.09231,-17.8576,Q,Q
2023-03-15 22:22:14:592,0,-8.90168,-5.09623,-17.8615,Q,Q
2023-03-15 22:22:14:601,0,-8.89456,-5.09789,-17.8621,Q,Q
2023-03-15 22:22:14:611,0,-8.88677,-5.09682,-17.8667,Q,Q
2023-03-15 22:22:14:621,0,-8.8839,-5.09984,-17.8642,Q,Q
2023-03-15 22:22:14:631,0,-8.88439,-5.10849,-17.8556,Q,Q
2023-03-15 22:22:14:641,0,-8.88834,-5.11649,-17.8478,Q,Q
2023-03-15 22:22:14:651,0,-8.90162,-5.12362,-17.8379,Q,Q
2023-03-15 22:22:14:662,0,-8.91145,-5.13197,-17.8287,Q,Q
2023-03-15 22:22:14:671,0,-8.9225,-5.13574,-17.8191,Q,Q
2023-03-15 22:22:14:681,0,-8.93082,-5.13877,-17.8115,Q,Q
2023-03-15 22:22:14:691,0,-8.9326,-5.13829,-17.8065,Q,Q
2023-03-15 22:22:14:702,0,-8.93478,-5.13774,-17.8043,Q,Q
2023-03-15 22:22:14:712,0,-8.94827,-5.13801,-17.8046,Q,Q
2023-03-15 22:22:14:722,0,-8.95958,-5.13678,-17.8107,Q,Q
2023-03-15 22:22:14:732,0,-8.96753,-5.13938,-17.8225,Q,Q
2023-03-15 22:22:14:741,0,-8.97102,-5.13969,-17.834,Q,Q
2023-03-15 22:22:14:751,0,-8.96942,-5.13425,-17.8405,Q,Q
2023-03-15 22:22:14:762,0,-8.96541,-5.13066,-17.8509,Q,Q
2023-03-15 22:22:14:771,0,-8.96378,-5.129,-17.8587,Q,Q
2023-03-15 22:22:14:782,0,-8.96843,-5.12252,-17.8693,Q,Q
2023-03-15 22:22:14:791,0,-8.98573,-5.11564,-17.8743,Q,Q
2023-03-15 22:22:14:801,0,-9.01366,-5.11207,-17.8778,Q,Q
2023-03-15 22:22:14:811,0,-9.04771,-5.10785,-17.8783,Q,Q
2023-03-15 22:22:14:821,0,-9.08149,-5.10275,-17.8832,Q,Q
2023-03-15 22:22:14:831,0,-9.10263,-5.09492,-17.8886,Q,Q
2023-03-15 22:22:14:842,0,-9.11597,-5.08712,-17.8922,Q,Q
2023-03-15 22:22:14:852,0,-9.12169,-5.08466,-17.8952,Q,Q
2023-03-15 22:22:14:861,0,-9.11539,-5.08302,-17.8985,Q,Q
2023-03-15 22:22:14:871,0,-9.10824,-5.08478,-17.9002,Q,Q
2023-03-15 22:22:14:882,0,-9.09863,-5.08393,-17.9026,Q,Q
2023-03-15 22:22:14:891,0,-9.08738,-5.08224,-17.9031,Q,Q
2023-03-15 22:22:14:902,0,-9.07785,-5.0857,-17.9019,Q,Q
2023-03-15 22:22:14:911,0,-9.06887,-5.09,-17.9036,Q,Q
2023-03-15 22:22:14:922,0,-9.05911,-5.09654,-17.9029,Q,Q
2023-03-15 22:22:14:931,0,-9.04252,-5.10431,-17.9037,Q,Q
2023-03-15 22:22:14:942,0,-9.01525,-5.11102,-17.907,Q,Q
2023-03-15 22:22:14:952,0,-8.98487,-5.11472,-17.9074,Q,Q
2023-03-15 22:22:14:961,0,-8.95562,-5.1169,-17.9102,Q,Q
2023-03-15 22:22:14:971,0,-8.92822,-5.12262,-17.9073,Q,Q
2023-03-15 22:22:14:981,0,-8.9077,-5.13276,-17.9068,Q,Q
2023-03-15 22:22:14:991,0,-8.89695,-5.1379,-17.9064,Q,Q
2023-03-15 22:22:15:2,0,-8.89162,-5.1431,-17.9038,Q,Q
2023-03-15 22:22:15:11,0,-8.884,-5.14381,-17.9035,Q,Q
2023-03-15 22:22:15:22,0,-8.86916,-5.14379,-17.9001,Q,Q
2023-03-15 22:22:15:31,0,-8.85983,-5.14545,-17.8981,Q,Q
2023-03-15 22:22:15:42,0,-8.84757,-5.14504,-17.8906,Q,Q
2023-03-15 22:22:15:51,0,-8.84428,-5.14552,-17.882,Q,Q
2023-03-15 22:22:15:62,0,-8.84688,-5.14798,-17.8748,Q,Q
2023-03-15 22:22:15:71,0,-8.85051,-5.14753,-17.8675,Q,Q
2023-03-15 22:22:15:82,0,-8.85447,-5.14598,-17.8626,Q,Q
2023-03-15 22:22:15:91,0,-8.86269,-5.14263,-17.8609,Q,Q
2023-03-15 22:22:15:102,0,-8.87313,-5.14258,-17.8601,Q,Q
2023-03-15 22:22:15:111,0,-8.88595,-5.1374,-17.8641,Q,Q
2023-03-15 22:22:15:122,0,-8.89661,-5.13123,-17.8678,Q,Q
2023-03-15 22:22:15:131,0,-8.90475,-5.1262,-17.8741,Q,Q
2023-03-15 22:22:15:142,0,-8.91437,-5.11766,-17.8803,Q,Q
2023-03-15 22:22:15:151,0,-8.92824,-5.11063,-17.8829,Q,Q
2023-03-15 22:22:15:162,0,-8.94249,-5.1022,-17.887,Q,Q
2023-03-15 22:22:15:171,0,-8.94895,-5.09976,-17.8923,Q,Q
2023-03-15 22:22:15:182,0,-8.94679,-5.09741,-17.898,Q,Q
2023-03-15 22:22:15:191,0,-8.94498,-5.09675,-17.8977,Q,Q
2023-03-15 22:22:15:201,0,-8.94459,-5.09653,-17.8979,Q,Q
2023-03-15 22:22:15:211,0,-8.95171,-5.09549,-17.8967,Q,Q
2023-03-15 22:22:15:222,0,-8.96316,-5.09493,-17.894,Q,Q
2023-03-15 22:22:15:231,0,-8.98563,-5.09093,-17.8909,Q,Q
2023-03-15 22:22:15:241,0,-9.00832,-5.08842,-17.8858,Q,Q
2023-03-15 22:22:15:251,0,-9.03936,-5.08923,-17.8816,Q,Q
2023-03-15 22:22:15:262,0,-9.06067,-5.0917,-17.8762,Q,Q
2023-03-15 22:22:15:271,0,-9.08054,-5.09171,-17.87,Q,Q
2023-03-15 22:22:15:282,0,-9.0857,-5.08978,-17.8707,Q,Q
2023-03-15 22:22:15:291,0,-9.07111,-5.08659,-17.8716,Q,Q
2023-03-15 22:22:15:302,0,-9.05392,-5.08585,-17.8623,Q,Q
2023-03-15 22:22:15:311,0,-9.0406,-5.08157,-17.8573,Q,Q
2023-03-15 22:22:15:321,0,-9.03509,-5.07803,-17.8514,Q,Q
2023-03-15 22:22:15:331,0,-9.02904,-5.07379,-17.8522,Q,Q
2023-03-15 22:22:15:341,0,-9.01765,-5.07165,-17.8541,Q,Q
2023-03-15 22:22:15:351,0,-9.00153,-5.06642,-17.8569,Q,Q
2023-03-15 22:22:15:362,0,-8.99343,-5.06732,-17.8584,Q,Q
2023-03-15 22:22:15:371,0,-8.99776,-5.05957,-17.8622,Q,Q
2023-03-15 22:22:15:382,0,-9.0106,-5.05493,-17.8668,Q,Q
2023-03-15 22:22:15:391,0,-9.0251,-5.05232,-17.874,Q,Q
2023-03-15 22:22:15:401,0,-9.02961,-5.05357,-17.8841,Q,Q
2023-03-15 22:22:15:411,0,-9.02487,-5.05707,-17.8918,Q,Q
2023-03-15 22:22:15:421,0,-9.01104,-5.0643,-17.891,Q,Q
2023-03-15 22:22:15:431,0,-8.99687,-5.07207,-17.8853,Q,Q
2023-03-15 22:22:15:441,0,-8.98602,-5.08106,-17.8741,Q,Q
2023-03-15 22:22:15:451,0,-8.98616,-5.08828,-17.8607,Q,Q
2023-03-15 22:22:15:461,0,-8.99194,-5.09587,-17.8491,Q,Q
2023-03-15 22:22:15:471,0,-9.00316,-5.09874,-17.8427,Q,Q
2023-03-15 22:22:15:482,0,-9.01344,-5.099,-17.8321,Q,Q
2023-03-15 22:22:15:491,0,-9.01934,-5.09978,-17.828,Q,Q
2023-03-15 22:22:15:501,0,-9.01378,-5.10065,-17.8269,Q,Q
2023-03-15 22:22:15:511,0,-9.00717,-5.10551,-17.8253,Q,Q
2023-03-15 22:22:15:521,0,-8.99516,-5.10528,-17.8288,Q,Q
2023-03-15 22:22:15:531,0,-8.98737,-5.10462,-17.8346,Q,Q
2023-03-15 22:22:15:541,0,-8.97871,-5.10083,-17.848,Q,Q
2023-03-15 22:22:15:551,0,-8.96974,-5.10048,-17.8586,Q,Q
2023-03-15 22:22:15:561,0,-8.96401,-5.09965,-17.8712,Q,Q
2023-03-15 22:22:15:571,0,-8.95673,-5.09797,-17.8818,Q,Q
2023-03-15 22:22:15:581,0,-8.9507,-5.0969,-17.8902,Q,Q
2023-03-15 22:22:15:591,0,-8.94525,-5.09543,-17.8984,Q,Q
2023-03-15 22:22:15:601,0,-8.94148,-5.09245,-17.9047,Q,Q
2023-03-15 22:22:15:611,0,-8.93654,-5.08729,-17.9099,Q,Q
2023-03-15 22:22:15:621,0,-8.93134,-5.08429,-17.9157,Q,Q
2023-03-15 22:22:15:631,0,-8.91948,-5.0807,-17.9187,Q,Q
2023-03-15 22:22:15:641,0,-8.90423,-5.07942,-17.9156,Q,Q
2023-03-15 22:22:15:651,0,-8.88884,-5.08605,-17.912,Q,Q
2023-03-15 22:22:15:661,0,-8.87377,-5.09619,-17.9093,Q,Q
2023-03-15 22:22:15:671,0,-8.8612,-5.10675,-17.9081,Q,Q
2023-03-15 22:22:15:681,0,-8.84918,-5.11611,-17.9042,Q,Q
2023-03-15 22:22:15:691,0,-8.83476,-5.12793,-17.9025,Q,Q
2023-03-15 22:22:15:701,0,-8.81908,-5.13977,-17.8978,Q,Q
2023-03-15 22:22:15:711,0,-8.80345,-5.14979,-17.8949,Q,Q
2023-03-15 22:22:15:721,0,-8.78696,-5.1615,-17.8892,Q,Q
2023-03-15 22:22:15:731,0,-8.77386,-5.16552,-17.8823,Q,Q
2023-03-15 22:22:15:741,0,-8.76101,-5.17308,-17.8777,Q,Q
2023-03-15 22:22:15:751,0,-8.75741,-5.18195,-17.8768,Q,Q
2023-03-15 22:22:15:761,0,-8.7581,-5.18852,-17.8752,Q,Q
2023-03-15 22:22:15:771,0,-8.76015,-5.19295,-17.8756,Q,Q
2023-03-15 22:22:15:781,0,-8.76484,-5.19457,-17.8756,Q,Q
2023-03-15 22:22:15:791,0,-8.77139,-5.19214,-17.8796,Q,Q
2023-03-15 22:22:15:801,0,-8.77752,-5.1897,-17.8847,Q,Q
2023-03-15 22:22:15:811,0,-8.78193,-5.1873,-17.8894,Q,Q
2023-03-15 22:22:15:821,0,-8.78625,-5.18519,-17.8924,Q,Q
2023-03-15 22:22:15:831,0,-8.79171,-5.18247,-17.8931,Q,Q
2023-03-15 22:22:15:841,0,-8.79203,-5.18036,-17.8923,Q,Q
2023-03-15 22:22:15:851,0,-8.78936,-5.18034,-17.8885,Q,Q
2023-03-15 22:22:15:861,0,-8.78967,-5.17675,-17.8853,Q,Q
2023-03-15 22:22:15:871,0,-8.79276,-5.17369,-17.8813,Q,Q
2023-03-15 22:22:15:881,0,-8.79303,-5.17062,-17.8795,Q,Q
2023-03-15 22:22:15:891,0,-8.79438,-5.16558,-17.8797,Q,Q
2023-03-15 22:22:15:901,0,-8.79507,-5.15712,-17.8814,Q,Q
2023-03-15 22:22:15:911,0,-8.80035,-5.14872,-17.8881,Q,Q
2023-03-15 22:22:15:921,0,-8.80506,-5.14276,-17.8961,Q,Q
2023-03-15 22:22:15:931,0,-8.81155,-5.13527,-17.9077,Q,Q
2023-03-15 22:22:15:941,0,-8.81839,-5.12565,-17.925,Q,Q
2023-03-15 22:22:15:951,0,-8.8263,-5.11861,-17.9401,Q,Q
2023-03-15 22:22:15:961,0,-8.8328,-5.10748,-17.9537,Q,Q
2023-03-15 22:22:15:971,0,-8.83807,-5.09918,-17.9686,Q,Q
2023-03-15 22:22:15:981,0,-8.84436,-5.09479,-17.979,Q,Q
2023-03-15 22:22:15:991,0,-8.84716,-5.0886,-17.992,Q,Q
2023-03-15 22:22:16:1,0,-8.84928,-5.08294,-17.9986,Q,Q
2023-03-15 22:22:16:11,0,-8.8481,-5.08159,-18.0034,Q,Q
2023-03-15 22:22:16:22,0,-8.84764,-5.08558,-18.0044,Q,Q
2023-03-15 22:22:16:31,0,-8.8477,-5.08675,-18.0017,Q,Q
2023-03-15 22:22:16:41,0,-8.8519,-5.09251,-17.9945,Q,Q
2023-03-15 22:22:16:51,0,-8.85499,-5.09312,-17.9823,Q,Q
2023-03-15 22:22:16:61,0,-8.86277,-5.09408,-17.9622,Q,Q
2023-03-15 22:22:16:71,0,-8.87057,-5.10099,-17.943,Q,Q
2023-03-15 22:22:16:81,0,-8.87844,-5.10495,-17.9239,Q,Q
2023-03-15 22:22:16:91,0,-8.88587,-5.11152,-17.9059,Q,Q
2023-03-15 22:22:16:101,0,-8.89012,-5.11633,-17.8891,Q,Q
2023-03-15 22:22:16:111,0,-8.89937,-5.12307,-17.8759,Q,Q
2023-03-15 22:22:16:121,0,-8.90718,-5.12662,-17.8659,Q,Q
2023-03-15 22:22:16:131,0,-8.90992,-5.12631,-17.862,Q,Q
2023-03-15 22:22:16:141,0,-8.91549,-5.12555,-17.8627,Q,Q
2023-03-15 22:22:16:151,0,-8.92342,-5.11989,-17.8646,Q,Q
2023-03-15 22:22:16:161,0,-8.93462,-5.11289,-17.8669,Q,Q
2023-03-15 22:22:16:171,0,-8.94918,-5.10102,-17.8722,Q,Q
2023-03-15 22:22:16:181,0,-8.96623,-5.08644,-17.8782,Q,Q
2023-03-15 22:22:16:191,0,-8.98416,-5.0733,-17.8851,Q,Q
2023-03-15 22:22:16:201,0,-8.99859,-5.06203,-17.891,Q,Q
2023-03-15 22:22:16:211,0,-9.00525,-5.05232,-17.8964,Q,Q
2023-03-15 22:22:16:221,0,-9.0116,-5.04109,-17.9043,Q,Q
2023-03-15 22:22:16:231,0,-9.02004,-5.03648,-17.9057,Q,Q
2023-03-15 22:22:16:241,0,-9.04096,-5.03238,-17.9078,Q,Q
2023-03-15 22:22:16:251,0,-9.06326,-5.02476,-17.9116,Q,Q
2023-03-15 22:22:16:261,0,-9.08058,-5.01349,-17.9163,Q,Q
2023-03-15 22:22:16:271,0,-9.09581,-5.00658,-17.9201,Q,Q
2023-03-15 22:22:16:281,0,-9.10468,-4.99943,-17.9276,Q,Q
2023-03-15 22:22:16:291,0,-9.11131,-4.99983,-17.932,Q,Q
2023-03-15 22:22:16:301,0,-9.11473,-4.99658,-17.9367,Q,Q
2023-03-15 22:22:16:311,0,-9.1099,-4.99544,-17.9408,Q,Q
2023-03-15 22:22:16:321,0,-9.10508,-4.99799,-17.947,Q,Q
2023-03-15 22:22:16:331,0,-9.10095,-5.00199,-17.9478,Q,Q
2023-03-15 22:22:16:341,0,-9.10067,-5.00508,-17.95,Q,Q
2023-03-15 22:22:16:351,0,-9.10964,-5.01004,-17.9526,Q,Q
2023-03-15 22:22:16:361,0,-9.12118,-5.01449,-17.9514,Q,Q
2023-03-15 22:22:16:371,0,-9.13531,-5.01531,-17.9506,Q,Q
2023-03-15 22:22:16:381,0,-9.14835,-5.01391,-17.9516,Q,Q
2023-03-15 22:22:16:391,0,-9.1597,-5.01184,-17.9558,Q,Q
2023-03-15 22:22:16:401,0,-9.1716,-5.00992,-17.958,Q,Q
2023-03-15 22:22:16:411,0,-9.17959,-4.99878,-17.9623,Q,Q
2023-03-15 22:22:16:421,0,-9.18141,-4.99268,-17.9689,Q,Q
2023-03-15 22:22:16:431,0,-9.17879,-4.98584,-17.9719,Q,Q
2023-03-15 22:22:16:441,0,-9.17908,-4.98004,-17.9753,Q,Q
2023-03-15 22:22:16:451,0,-9.18048,-4.97338,-17.9799,Q,Q
2023-03-15 22:22:16:461,0,-9.18227,-4.96642,-17.9857,Q,Q
2023-03-15 22:22:16:471,0,-9.1849,-4.9625,-17.99,Q,Q
2023-03-15 22:22:16:481,0,-9.18786,-4.95605,-17.9966,Q,Q
2023-03-15 22:22:16:491,0,-9.18332,-4.95482,-18.0013,Q,Q
2023-03-15 22:22:16:501,0,-9.18189,-4.9509,-18.0039,Q,Q
2023-03-15 22:22:16:511,0,-9.17608,-4.94762,-18.0056,Q,Q
2023-03-15 22:22:16:521,0,-9.17475,-4.94385,-18.006,Q,Q
2023-03-15 22:22:16:531,0,-9.16986,-4.94532,-18.0054,Q,Q
2023-03-15 22:22:16:541,0,-9.164,-4.94785,-18.0031,Q,Q
2023-03-15 22:22:16:551,0,-9.16143,-4.95202,-17.9994,Q,Q
2023-03-15 22:22:16:561,0,-9.15952,-4.9546,-17.9924,Q,Q
2023-03-15 22:22:16:571,0,-9.15573,-4.96255,-17.9865,Q,Q
2023-03-15 22:22:16:581,0,-9.15623,-4.96784,-17.9801,Q,Q
2023-03-15 22:22:16:591,0,-9.15449,-4.97761,-17.9718,Q,Q
2023-03-15 22:22:16:601,0,-9.15446,-4.98651,-17.9661,Q,Q
2023-03-15 22:22:16:611,0,-9.15292,-4.99116,-17.9548,Q,Q
2023-03-15 22:22:16:621,0,-9.15169,-4.99986,-17.9413,Q,Q
2023-03-15 22:22:16:631,0,-9.15203,-5.00881,-17.929,Q,Q
2023-03-15 22:22:16:641,0,-9.15134,-5.01954,-17.9162,Q,Q
2023-03-15 22:22:16:651,0,-9.14846,-5.02929,-17.9011,Q,Q
2023-03-15 22:22:16:661,0,-9.15271,-5.04029,-17.8877,Q,Q
2023-03-15 22:22:16:671,0,-9.15764,-5.0497,-17.876,Q,Q
2023-03-15 22:22:16:681,0,-9.16785,-5.05838,-17.8629,Q,Q
2023-03-15 22:22:16:691,0,-9.17786,-5.06652,-17.8542,Q,Q
2023-03-15 22:22:16:701,0,-9.18575,-5.06943,-17.8522,Q,Q
2023-03-15 22:22:16:711,0,-9.19428,-5.06523,-17.8548,Q,Q
2023-03-15 22:22:16:721,0,-9.20284,-5.06187,-17.8608,Q,Q
2023-03-15 22:22:16:731,0,-9.21051,-5.05951,-17.8715,Q,Q
2023-03-15 22:22:16:741,0,-9.22239,-5.05116,-17.8827,Q,Q
2023-03-15 22:22:16:751,0,-9.22939,-5.0437,-17.8968,Q,Q
2023-03-15 22:22:16:761,0,-9.23308,-5.03846,-17.9104,Q,Q
2023-03-15 22:22:16:771,0,-9.23256,-5.03264,-17.9232,Q,Q
2023-03-15 22:22:16:781,0,-9.23196,-5.0283,-17.9374,Q,Q
2023-03-15 22:22:16:791,0,-9.23231,-5.02303,-17.9523,Q,Q
2023-03-15 22:22:16:801,0,-9.23204,-5.01681,-17.967,Q,Q
2023-03-15 22:22:16:811,0,-9.23279,-5.00746,-17.981,Q,Q
2023-03-15 22:22:16:821,0,-9.23278,-5.00205,-17.9902,Q,Q
2023-03-15 22:22:16:831,0,-9.23476,-4.99558,-17.995,Q,Q
2023-03-15 22:22:16:841,0,-9.23266,-4.9908,-17.9985,Q,Q
2023-03-15 22:22:16:851,0,-9.23069,-4.98302,-18.0004,Q,Q
2023-03-15 22:22:16:861,0,-9.23083,-4.97918,-18.0017,Q,Q
2023-03-15 22:22:16:871,0,-9.23106,-4.97638,-18.0008,Q,Q
2023-03-15 22:22:16:881,0,-9.22933,-4.97484,-17.9942,Q,Q
2023-03-15 22:22:16:891,0,-9.22291,-4.97369,-17.9956,Q,Q
2023-03-15 22:22:16:901,0,-9.22113,-4.97021,-17.9937,Q,Q
2023-03-15 22:22:16:911,0,-9.21735,-4.9707,-17.9945,Q,Q
2023-03-15 22:22:16:921,0,-9.21805,-4.96885,-17.991,Q,Q
2023-03-15 22:22:16:931,0,-9.21941,-4.96745,-17.9876,Q,Q
2023-03-15 22:22:16:941,0,-9.22606,-4.96675,-17.983,Q,Q
2023-03-15 22:22:16:951,0,-9.22979,-4.9674,-17.979,Q,Q
2023-03-15 22:22:16:961,0,-9.23562,-4.9667,-17.9745,Q,Q
2023-03-15 22:22:16:971,0,-9.23868,-4.97081,-17.9702,Q,Q
2023-03-15 22:22:16:981,0,-9.24787,-4.97776,-17.9652,Q,Q
2023-03-15 22:22:16:991,0,-9.25649,-4.98482,-17.9596,Q,Q
2023-03-15 22:22:17:1,0,-9.26378,-4.98975,-17.9554,Q,Q
2023-03-15 22:22:17:11,0,-9.26906,-4.99253,-17.9513,Q,Q
2023-03-15 22:22:17:21,0,-9.27435,-4.99716,-17.9467,Q,Q
2023-03-15 22:22:17:31,0,-9.27581,-5.00042,-17.9442,Q,Q
2023-03-15 22:22:17:41,0,-9.26849,-5.00332,-17.9436,Q,Q
2023-03-15 22:22:17:51,0,-9.25538,-5.00803,-17.9441,Q,Q
2023-03-15 22:22:17:61,0,-9.23922,-5.00905,-17.9461,Q,Q
2023-03-15 22:22:17:71,0,-9.22173,-5.00703,-17.946,Q,Q
2023-03-15 22:22:17:81,0,-9.20398,-5.00389,-17.9487,Q,Q
2023-03-15 22:22:17:91,0,-9.19376,-5.00175,-17.9538,Q,Q
2023-03-15 22:22:17:101,0,-9.18783,-5.00168,-17.9543,Q,Q
2023-03-15 22:22:17:111,0,-9.18679,-4.9989,-17.957,Q,Q
2023-03-15 22:22:17:121,0,-9.18936,-5.00121,-17.9582,Q,Q
2023-03-15 22:22:17:131,0,-9.19341,-5.00265,-17.9638,Q,Q
2023-03-15 22:22:17:141,0,-9.20228,-5.00373,-17.9673,Q,Q
2023-03-15 22:22:17:151,0,-9.20453,-5.00223,-17.9737,Q,Q
2023-03-15 22:22:17:161,0,-9.20923,-4.99468,-17.9811,Q,Q
2023-03-15 22:22:17:171,0,-9.21625,-4.99157,-17.9853,Q,Q
2023-03-15 22:22:17:181,0,-9.21555,-4.99232,-17.986,Q,Q
2023-03-15 22:22:17:191,0,-9.21716,-4.99376,-17.9807,Q,Q
2023-03-15 22:22:17:201,0,-9.21779,-5.00667,-17.9752,Q,Q
2023-03-15 22:22:17:211,0,-9.21922,-5.01616,-17.9683,Q,Q
2023-03-15 22:22:17:221,0,-9.21846,-5.02038,-17.9589,Q,Q
2023-03-15 22:22:17:231,0,-9.21831,-5.02439,-17.9537,Q,Q
2023-03-15 22:22:17:241,0,-9.21475,-5.02566,-17.9458,Q,Q
2023-03-15 22:22:17:251,0,-9.21025,-5.02725,-17.9394,Q,Q
2023-03-15 22:22:17:261,0,-9.20525,-5.03132,-17.9326,Q,Q
2023-03-15 22:22:17:271,0,-9.1992,-5.03803,-17.928,Q,Q
2023-03-15 22:22:17:281,0,-9.19408,-5.04096,-17.9264,Q,Q
2023-03-15 22:22:17:291,0,-9.1888,-5.0437,-17.9229,Q,Q
2023-03-15 22:22:17:301,0,-9.17822,-5.04374,-17.9229,Q,Q
2023-03-15 22:22:17:311,0,-9.16028,-5.04354,-17.9274,Q,Q
2023-03-15 22:22:17:321,0,-9.14533,-5.04463,-17.931,Q,Q
2023-03-15 22:22:17:331,0,-9.13261,-5.05101,-17.9366,Q,Q
2023-03-15 22:22:17:341,0,-9.12116,-5.0545,-17.9394,Q,Q
2023-03-15 22:22:17:351,0,-9.11287,-5.05706,-17.9413,Q,Q
2023-03-15 22:22:17:361,0,-9.10595,-5.0586,-17.9466,Q,Q
2023-03-15 22:22:17:371,0,-9.09803,-5.06068,-17.9501,Q,Q
2023-03-15 22:22:17:381,0,-9.09489,-5.06551,-17.9509,Q,Q
2023-03-15 22:22:17:391,0,-9.09031,-5.07029,-17.9515,Q,Q
2023-03-15 22:22:17:401,0,-9.08704,-5.07404,-17.949,Q,Q
2023-03-15 22:22:17:411,0,-9.08411,-5.07445,-17.9473,Q,Q
2023-03-15 22:22:17:421,0,-9.08304,-5.07417,-17.9428,Q,Q
2023-03-15 22:22:17:431,0,-9.08239,-5.07595,-17.9375,Q,Q
2023-03-15 22:22:17:441,0,-9.08077,-5.07712,-17.9328,Q,Q
2023-03-15 22:22:17:451,0,-9.08169,-5.07937,-17.9261,Q,Q
2023-03-15 22:22:17:461,0,-9.0844,-5.08044,-17.9244,Q,Q
2023-03-15 22:22:17:471,0,-9.08363,-5.08165,-17.9216,Q,Q
2023-03-15 22:22:17:481,0,-9.08321,-5.07763,-17.9226,Q,Q
2023-03-15 22:22:17:491,0,-9.08124,-5.07598,-17.927,Q,Q
2023-03-15 22:22:17:501,0,-9.07585,-5.07703,-17.9295,Q,Q
2023-03-15 22:22:17:511,0,-9.07388,-5.07521,-17.938,Q,Q
2023-03-15 22:22:17:521,0,-9.07363,-5.07123,-17.9429,Q,Q
2023-03-15 22:22:17:531,0,-9.07258,-5.06952,-17.9515,Q,Q
2023-03-15 22:22:17:541,0,-9.07175,-5.06865,-17.9606,Q,Q
2023-03-15 22:22:17:551,0,-9.07094,-5.06739,-17.9672,Q,Q
2023-03-15 22:22:17:561,0,-9.07085,-5.06514,-17.9743,Q,Q
2023-03-15 22:22:17:571,0,-9.06999,-5.05814,-17.9814,Q,Q
2023-03-15 22:22:17:581,0,-9.06554,-5.05271,-17.9901,Q,Q
2023-03-15 22:22:17:591,0,-9.06451,-5.05044,-17.9978,Q,Q
2023-03-15 22:22:17:601,0,-9.06128,-5.04547,-18.0068,Q,Q
2023-03-15 22:22:17:611,0,-9.05792,-5.03888,-18.0128,Q,Q
2023-03-15 22:22:17:621,0,-9.05628,-5.033,-18.0206,Q,Q
2023-03-15 22:22:17:631,0,-9.05396,-5.02622,-18.0316,Q,Q
2023-03-15 22:22:17:641,0,-9.05228,-5.02069,-18.0404,Q,Q
2023-03-15 22:22:17:651,0,-9.0483,-5.01017,-18.0473,Q,Q
2023-03-15 22:22:17:661,0,-9.0471,-5.00412,-18.0555,Q,Q
2023-03-15 22:22:17:671,0,-9.04527,-4.99462,-18.0656,Q,Q
2023-03-15 22:22:17:681,0,-9.0403,-4.99039,-18.0714,Q,Q
2023-03-15 22:22:17:691,0,-9.03453,-4.99312,-18.0744,Q,Q
2023-03-15 22:22:17:701,0,-9.03676,-4.9963,-18.0719,Q,Q
2023-03-15 22:22:17:711,0,-9.0402,-5.00254,-18.0673,Q,Q
2023-03-15 22:22:17:721,0,-9.0487,-5.00511,-18.0593,Q,Q
2023-03-15 22:22:17:731,0,-9.05627,-5.00811,-18.0564,Q,Q
2023-03-15 22:22:17:741,0,-9.06632,-5.00822,-18.0522,Q,Q
2023-03-15 22:22:17:751,0,-9.07574,-5.00522,-18.0468,Q,Q
2023-03-15 22:22:17:761,0,-9.07976,-5.00652,-18.0404,Q,Q
2023-03-15 22:22:17:771,0,-9.0806,-5.0101,-18.0375,Q,Q
2023-03-15 22:22:17:781,0,-9.07576,-5.00963,-18.0399,Q,Q
2023-03-15 22:22:17:791,0,-9.06634,-5.01041,-18.0456,Q,Q
2023-03-15 22:22:17:801,0,-9.06152,-5.00843,-18.0508,Q,Q
2023-03-15 22:22:17:811,0,-9.05005,-5.00576,-18.0603,Q,Q
2023-03-15 22:22:17:821,0,-9.04589,-5.0001,-18.0725,Q,Q
2023-03-15 22:22:17:831,0,-9.04556,-4.99484,-18.0788,Q,Q
2023-03-15 22:22:17:841,0,-9.05291,-4.99247,-18.0896,Q,Q
2023-03-15 22:22:17:851,0,-9.06579,-4.98824,-18.0957,Q,Q
2023-03-15 22:22:17:861,0,-9.07638,-4.98339,-18.1018,Q,Q
2023-03-15 22:22:17:871,0,-9.08438,-4.97888,-18.106,Q,Q
2023-03-15 22:22:17:881,0,-9.09281,-4.97114,-18.1102,Q,Q
2023-03-15 22:22:17:891,0,-9.10355,-4.96342,-18.113,Q,Q
2023-03-15 22:22:17:901,0,-9.10567,-4.95613,-18.1182,Q,Q
2023-03-15 22:22:17:911,0,-9.10793,-4.94768,-18.1194,Q,Q
2023-03-15 22:22:17:921,0,-9.10074,-4.94588,-18.1207,Q,Q
2023-03-15 22:22:17:931,0,-9.09736,-4.94723,-18.1175,Q,Q
2023-03-15 22:22:17:941,0,-9.09526,-4.95252,-18.1134,Q,Q
2023-03-15 22:22:17:951,0,-9.09192,-4.96034,-18.1127,Q,Q
2023-03-15 22:22:17:961,0,-9.08611,-4.96251,-18.1122,Q,Q
2023-03-15 22:22:17:971,0,-9.08197,-4.96443,-18.1093,Q,Q
2023-03-15 22:22:17:981,0,-9.07721,-4.96745,-18.1095,Q,Q
2023-03-15 22:22:17:991,0,-9.06927,-4.9696,-18.1082,Q,Q
2023-03-15 22:22:18:1,0,-9.05631,-4.96793,-18.107,Q,Q
2023-03-15 22:22:18:11,0,-9.04564,-4.96797,-18.103,Q,Q
2023-03-15 22:22:18:21,0,-9.03645,-4.96835,-18.1008,Q,Q
2023-03-15 22:22:18:31,0,-9.02669,-4.97474,-18.1004,Q,Q
2023-03-15 22:22:18:41,0,-9.02385,-4.9797,-18.0966,Q,Q
2023-03-15 22:22:18:51,0,-9.01725,-4.98504,-18.0935,Q,Q
2023-03-15 22:22:18:61,0,-9.01077,-4.99054,-18.0892,Q,Q
2023-03-15 22:22:18:71,0,-9.0099,-4.99795,-18.087,Q,Q
2023-03-15 22:22:18:81,0,-9.00769,-5.00871,-18.0827,Q,Q
2023-03-15 22:22:18:91,0,-9.01167,-5.0153,-18.0783,Q,Q
2023-03-15 22:22:18:101,0,-9.01836,-5.01945,-18.0733,Q,Q
2023-03-15 22:22:18:111,0,-9.02821,-5.03139,-18.0648,Q,Q
2023-03-15 22:22:18:121,0,-9.0379,-5.03848,-18.0565,Q,Q
2023-03-15 22:22:18:131,0,-9.05193,-5.04701,-18.0456,Q,Q
2023-03-15 22:22:18:141,0,-9.06662,-5.0534,-18.0361,Q,Q
2023-03-15 22:22:18:151,0,-9.08222,-5.05605,-18.0302,Q,Q
2023-03-15 22:22:18:161,0,-9.09308,-5.05775,-18.0284,Q,Q
2023-03-15 22:22:18:171,0,-9.10126,-5.05293,-18.0306,Q,Q
2023-03-15 22:22:18:181,0,-9.10997,-5.04957,-18.0299,Q,Q
2023-03-15 22:22:18:191,0,-9.12046,-5.04452,-18.0376,Q,Q
2023-03-15 22:22:18:201,0,-9.12886,-5.03463,-18.0492,Q,Q
2023-03-15 22:22:18:211,0,-9.13956,-5.02605,-18.064,Q,Q
2023-03-15 22:22:18:221,0,-9.14214,-5.02016,-18.0796,Q,Q
2023-03-15 22:22:18:231,0,-9.14356,-5.01626,-18.0949,Q,Q
2023-03-15 22:22:18:241,0,-9.14239,-5.00942,-18.1124,Q,Q
2023-03-15 22:22:18:251,0,-9.1446,-5.0005,-18.1279,Q,Q
2023-03-15 22:22:18:261,0,-9.14158,-4.98834,-18.1428,Q,Q
2023-03-15 22:22:18:271,0,-9.14042,-4.98052,-18.1578,Q,Q
2023-03-15 22:22:18:281,0,-9.13985,-4.96846,-18.1691,Q,Q
2023-03-15 22:22:18:291,0,-9.13683,-4.95806,-18.1762,Q,Q
2023-03-15 22:22:18:301,0,-9.13568,-4.95024,-18.181,Q,Q
2023-03-15 22:22:18:311,0,-9.13189,-4.94044,-18.1834,Q,Q
2023-03-15 22:22:18:321,0,-9.12224,-4.93145,-18.1837,Q,Q
2023-03-15 22:22:18:331,0,-9.11155,-4.92907,-18.1811,Q,Q
2023-03-15 22:22:18:341,0,-9.10529,-4.92644,-18.1809,Q,Q
2023-03-15 22:22:18:351,0,-9.09562,-4.92395,-18.1816,Q,Q
2023-03-15 22:22:18:361,0,-9.08967,-4.92197,-18.1825,Q,Q
2023-03-15 22:22:18:371,0,-9.08595,-4.92008,-18.1836,Q,Q
2023-03-15 22:22:18:381,0,-9.08419,-4.91822,-18.1847,Q,Q
2023-03-15 22:22:18:391,0,-9.08568,-4.91594,-18.1841,Q,Q
2023-03-15 22:22:18:401,0,-9.08113,-4.91901,-18.1792,Q,Q
2023-03-15 22:22:18:411,0,-9.07742,-4.92499,-18.1713,Q,Q
2023-03-15 22:22:18:421,0,-9.07507,-4.93186,-18.1534,Q,Q
2023-03-15 22:22:18:431,0,-9.07967,-4.94024,-18.1338,Q,Q
2023-03-15 22:22:18:441,0,-9.0906,-4.95103,-18.1165,Q,Q
2023-03-15 22:22:18:451,0,-9.10414,-4.95716,-18.1006,Q,Q
2023-03-15 22:22:18:461,0,-9.11262,-4.96425,-18.0869,Q,Q
2023-03-15 22:22:18:471,0,-9.11883,-4.96678,-18.0754,Q,Q
2023-03-15 22:22:18:481,0,-9.12514,-4.96858,-18.0662,Q,Q
2023-03-15 22:22:18:491,0,-9.12581,-4.97694,-18.0569,Q,Q
2023-03-15 22:22:18:501,0,-9.12526,-4.98249,-18.0492,Q,Q
2023-03-15 22:22:18:511,0,-9.11916,-4.9835,-18.0507,Q,Q
2023-03-15 22:22:18:521,0,-9.11606,-4.98847,-18.0593,Q,Q
2023-03-15 22:22:18:531,0,-9.1207,-4.98721,-18.068,Q,Q
2023-03-15 22:22:18:541,0,-9.12193,-4.98698,-18.0791,Q,Q
2023-03-15 22:22:18:551,0,-9.1255,-4.9862,-18.0938,Q,Q
2023-03-15 22:22:18:561,0,-9.12754,-4.98431,-18.1037,Q,Q
2023-03-15 22:22:18:571,0,-9.1327,-4.98098,-18.1128,Q,Q
2023-03-15 22:22:18:581,0,-9.13803,-4.97753,-18.1215,Q,Q
2023-03-15 22:22:18:591,0,-9.14737,-4.97192,-18.1248,Q,Q
2023-03-15 22:22:18:601,0,-9.15189,-4.96444,-18.1276,Q,Q
2023-03-15 22:22:18:611,0,-9.15836,-4.96088,-18.1283,Q,Q
2023-03-15 22:22:18:621,0,-9.16019,-4.953,-18.1298,Q,Q
2023-03-15 22:22:18:631,0,-9.1593,-4.9473,-18.1309,Q,Q
2023-03-15 22:22:18:641,0,-9.15283,-4.9465,-18.1265,Q,Q
2023-03-15 22:22:18:651,0,-9.14761,-4.94846,-18.1192,Q,Q
2023-03-15 22:22:18:661,0,-9.1391,-4.94675,-18.1148,Q,Q
2023-03-15 22:22:18:671,0,-9.13176,-4.94988,-18.1113,Q,Q
2023-03-15 22:22:18:681,0,-9.12295,-4.95101,-18.1093,Q,Q
2023-03-15 22:22:18:691,0,-9.11825,-4.95074,-18.1023,Q,Q
2023-03-15 22:22:18:701,0,-9.10958,-4.95097,-18.0977,Q,Q
2023-03-15 22:22:18:711,0,-9.10298,-4.95672,-18.0927,Q,Q
2023-03-15 22:22:18:721,0,-9.09381,-4.96291,-18.0887,Q,Q
2023-03-15 22:22:18:731,0,-9.08408,-4.96948,-18.0876,Q,Q
2023-03-15 22:22:18:741,0,-9.07292,-4.97644,-18.0862,Q,Q
2023-03-15 22:22:18:751,0,-9.06873,-4.9861,-18.0833,Q,Q
2023-03-15 22:22:18:761,0,-9.06285,-5.00036,-18.0775,Q,Q
2023-03-15 22:22:18:771,0,-9.05674,-5.01397,-18.0729,Q,Q
2023-03-15 22:22:18:781,0,-9.0528,-5.02804,-18.0657,Q,Q
2023-03-15 22:22:18:791,0,-9.0524,-5.03944,-18.0582,Q,Q
2023-03-15 22:22:18:801,0,-9.0521,-5.05283,-18.0495,Q,Q
2023-03-15 22:22:18:811,0,-9.05867,-5.06374,-18.0328,Q,Q
2023-03-15 22:22:18:821,0,-9.06271,-5.06845,-18.0213,Q,Q
2023-03-15 22:22:18:831,0,-9.0729,-5.07715,-18.0102,Q,Q
2023-03-15 22:22:18:841,0,-9.08061,-5.08363,-17.9983,Q,Q
2023-03-15 22:22:18:851,0,-9.09153,-5.08982,-17.9875,Q,Q
2023-03-15 22:22:18:861,0,-9.10088,-5.09277,-17.9798,Q,Q
2023-03-15 22:22:18:871,0,-9.10798,-5.09774,-17.9783,Q,Q
2023-03-15 22:22:18:881,0,-9.11597,-5.10224,-17.9774,Q,Q
2023-03-15 22:22:18:891,0,-9.12103,-5.10374,-17.9796,Q,Q
2023-03-15 22:22:18:901,0,-9.12201,-5.10376,-17.9839,Q,Q
2023-03-15 22:22:18:911,0,-9.12269,-5.10387,-17.9967,Q,Q
2023-03-15 22:22:18:921,0,-9.12335,-5.10219,-18.0085,Q,Q
2023-03-15 22:22:18:931,0,-9.12293,-5.10089,-18.0223,Q,Q
2023-03-15 22:22:18:941,0,-9.12399,-5.09694,-18.0334,Q,Q
2023-03-15 22:22:18:951,0,-9.12499,-5.09505,-18.0445,Q,Q
2023-03-15 22:22:18:961,0,-9.12171,-5.09223,-18.0551,Q,Q
2023-03-15 22:22:18:971,0,-9.12006,-5.09016,-18.0652,Q,Q
2023-03-15 22:22:18:981,0,-9.11805,-5.08798,-18.0691,Q,Q
2023-03-15 22:22:18:991,0,-9.11359,-5.08451,-18.0698,Q,Q
2023-03-15 22:22:19:1,0,-9.10552,-5.0795,-18.0721,Q,Q
2023-03-15 22:22:19:11,0,-9.09672,-5.07907,-18.0691,Q,Q
2023-03-15 22:22:19:21,0,-9.09077,-5.0776,-18.0663,Q,Q
2023-03-15 22:22:19:31,0,-9.08267,-5.07648,-18.0667,Q,Q
2023-03-15 22:22:19:41,0,-9.07659,-5.07474,-18.071,Q,Q
2023-03-15 22:22:19:50,0,-9.07095,-5.07248,-18.0748,Q,Q
2023-03-15 22:22:19:61,0,-9.06495,-5.07058,-18.0786,Q,Q
2023-03-15 22:22:19:71,0,-9.06013,-5.07135,-18.0837,Q,Q
2023-03-15 22:22:19:81,0,-9.05977,-5.07265,-18.0882,Q,Q
2023-03-15 22:22:19:91,0,-9.06048,-5.07408,-18.0926,Q,Q
2023-03-15 22:22:19:101,0,-9.06448,-5.07525,-18.0932,Q,Q
2023-03-15 22:22:19:111,0,-9.06349,-5.07683,-18.0954,Q,Q
2023-03-15 22:22:19:121,0,-9.06458,-5.0805,-18.0929,Q,Q
2023-03-15 22:22:19:131,0,-9.06797,-5.08813,-18.0843,Q,Q
2023-03-15 22:22:19:141,0,-9.07806,-5.09141,-18.0736,Q,Q
2023-03-15 22:22:19:151,0,-9.09168,-5.09491,-18.0644,Q,Q
2023-03-15 22:22:19:161,0,-9.10429,-5.09787,-18.0599,Q,Q
2023-03-15 22:22:19:171,0,-9.11664,-5.1008,-18.0578,Q,Q
2023-03-15 22:22:19:181,0,-9.12731,-5.1023,-18.0523,Q,Q
2023-03-15 22:22:19:191,0,-9.13385,-5.103,-18.0517,Q,Q
2023-03-15 22:22:19:201,0,-9.13861,-5.10644,-18.0522,Q,Q
2023-03-15 22:22:19:211,0,-9.13755,-5.10569,-18.0561,Q,Q
2023-03-15 22:22:19:221,0,-9.13174,-5.10481,-18.06,Q,Q
2023-03-15 22:22:19:231,0,-9.12675,-5.10112,-18.0654,Q,Q
2023-03-15 22:22:19:241,0,-9.12407,-5.09738,-18.0717,Q,Q
2023-03-15 22:22:19:251,0,-9.12417,-5.08982,-18.0772,Q,Q
2023-03-15 22:22:19:261,0,-9.12727,-5.08294,-18.0867,Q,Q
2023-03-15 22:22:19:271,0,-9.13069,-5.07844,-18.0928,Q,Q
2023-03-15 22:22:19:281,0,-9.13729,-5.06947,-18.103,Q,Q
2023-03-15 22:22:19:350,0,-9.18731,-4.97858,-18.1782,Q,Qfa
2023-03-15 22:22:19:361,0,-9.18053,-4.97536,-18.1836,Q,Q
2023-03-15 22:22:19:991,0,-9.29944,-5.04866,-18.0298,Q,Q
2023-03-15 22:22:20:341,0,-9.26277,-5.0532,-18.0488,Q,Q
2023-03-15 22:22:20:981,0,-9.01364,-5.01283,-18.1639,Q,Q
2023-03-15 22:22:21:371,0,-9.01843,-4.97036,-18.3073,Q,Q
2023-03-15 22:22:21:960,0,-7.93145,-4.94531,-18.8572,Q,Q
2023-03-15 22:22:22:390,0,-7.89493,-4.90086,-18.8159,Q,Q
2023-03-15 22:22:22:950,0,-7.50329,-5.14439,-18.2569,Q,Q
2023-03-15 22:22:23:440,0,-7.50224,-5.2885,-18.1022,Q,Q
2023-03-15 22:22:24:90,0,-7.38839,-5.04143,-18.017,re,S
2023-03-15 22:22:24:420,0,-7.22468,-5.09784,-17.855,Q,Q
2023-03-15 22:22:24:450,0,-7.2134,-5.14159,-17.7837,Q,Q
2023-03-15 22:22:25:80,0,-6.98507,-5.37858,-17.2892,Q,Q
2023-03-15 22:22:25:730,0,-7.10524,-5.4003,-16.9049,Q,Q
2023-03-15 22:22:26:60,0,-7.0695,-5.5494,-16.7112,Q,Q
2023-03-15 22:22:26:550,0,-7.45469,-5.36461,-16.8513,Q,Q
2023-03-15 22:22:27:40,0,-7.11743,-5.33363,-16.7316,re,S
2023-03-15 22:22:27:90,0,-7.06602,-5.38878,-16.6635,Q,Q
2023-03-15 22:22:27:530,0,-6.76695,-5.50158,-16.494,Q,Q
2023-03-15 22:22:28:189,0,-6.77707,-5.52595,-16.223,Q,Q
2023-03-15 22:22:28:679,0,-7.25983,-5.35342,-16.3679,Q,Q
2023-03-15 22:22:29:339,0,-6.6197,-5.54657,-16.088,re,S
2023-03-15 22:22:29:349,0,-6.60171,-5.55812,-16.0815,Q,Q
2023-03-15 22:22:29:659,0,-6.35386,-5.62555,-15.7367,Q,Q
2023-03-15 22:22:30:159,0,-6.4064,-5.59915,-15.5184,Q,Q
2023-03-15 22:22:30:649,0,-6.46021,-5.59642,-15.4665,Q,Q
2023-03-15 22:22:31:139,0,-6.75849,-5.48493,-15.4926,Q,Q
2023-03-15 22:22:31:799,0,-6.57475,-5.54419,-15.4051,Q,Q
2023-03-15 22:22:32:299,0,-6.4651,-5.65026,-15.2891,Q,Q
2023-03-15 22:22:32:779,0,-6.34153,-5.74377,-15.0199,Q,Q
2023-03-15 22:22:33:269,0,-6.27625,-5.90139,-14.7375,Q,Q
2023-03-15 22:22:33:759,0,-6.36166,-5.80883,-14.6881,Q,Q
2023-03-15 22:22:34:419,0,-6.40916,-5.84705,-14.5696,Q,Q
2023-03-15 22:22:34:909,0,-6.55624,-6.02962,-14.459,Q,Q
2023-03-15 22:22:35:238,0,-6.60368,-6.12491,-14.3115,re,S
2023-03-15 22:22:35:568,0,-6.6135,-6.06372,-14.2887,Q,Q
2023-03-15 22:22:35:888,0,-6.461,-6.05773,-14.2943,Q,Q
2023-03-15 22:22:36:378,0,-6.47074,-6.09626,-14.0429,Q,Q
2023-03-15 22:22:36:878,0,-6.60091,-5.93034,-14.1206,Q,Q
2023-03-15 22:22:37:368,0,-6.89239,-6.05927,-14.0421,Q,Q
2023-03-15 22:22:37:858,0,-6.54583,-6.35606,-13.7989,re,S
2023-03-15 22:22:37:888,0,-6.54195,-6.37319,-13.7724,Q,Q
2023-03-15 22:22:38:348,0,-6.14603,-6.3406,-13.6731,Q,Q
2023-03-15 22:22:38:998,0,-6.5079,-6.2385,-14.0936,Q,Q
2023-03-15 22:22:39:338,0,-6.1736,-6.2421,-14.0649,Q,Q
2023-03-15 22:22:39:828,0,-5.44045,-6.55791,-13.735,re,L
2023-03-15 22:22:40:148,0,-5.09102,-6.51442,-13.5542,Q,Q
2023-03-15 22:22:40:308,0,-5.05319,-6.52341,-13.5013,Q,Q
2023-03-15 22:22:40:968,0,-5.0196,-6.44368,-13.4617,Q,Q
2023-03-15 22:22:41:338,0,-5.23702,-6.33512,-13.4424,Q,Q
2023-03-15 22:22:41:958,0,-5.09704,-6.38669,-13.335,Q,Q
2023-03-15 22:22:42:378,0,-5.06656,-6.4511,-13.0802,Q,Q
2023-03-15 22:22:43:97,0,-5.12107,-6.4488,-12.9918,re,L
2023-03-15 22:22:43:137,0,-5.13723,-6.43434,-12.9991,Q,Q
2023-03-15 22:22:43:447,0,-5.18231,-6.39339,-12.9824,Q,Q
2023-03-15 22:22:43:917,0,-5.14123,-6.43761,-12.9089,Q,Q
2023-03-15 22:22:44:567,0,-5.42519,-6.36211,-12.9429,Q,Q
2023-03-15 22:22:45:67,0,-5.24725,-6.41639,-13.0564,Q,Q
2023-03-15 22:22:45:427,0,-5.39825,-6.28449,-13.1598,Q,Q
2023-03-15 22:22:46:47,0,-5.35999,-6.28438,-13.0527,Q,Q
2023-03-15 22:22:46:467,0,-5.44858,-6.29655,-13.0673,Q,Q
2023-03-15 22:22:47:7,0,-5.35524,-6.271,-13.1781,Q,Q
2023-03-15 22:22:47:527,0,-5.30031,-6.27062,-13.2342,Q,Q
2023-03-15 22:22:48:17,0,-5.3905,-6.27073,-13.3786,Q,Q
2023-03-15 22:22:48:667,0,-4.94564,-6.20872,-13.4415,Q,Q
2023-03-15 22:22:49:327,0,-4.94498,-6.30819,-13.2698,re,S
2023-03-15 22:22:49:366,0,-4.9739,-6.3169,-13.2389,Q,Q
2023-03-15 22:22:49:657,0,-4.92096,-6.26871,-13.2233,Q,Q
2023-03-15 22:22:50:147,0,-5.11622,-6.18449,-13.123,Q,Q
2023-03-15 22:22:50:636,0,-5.1715,-6.11859,-13.1869,Q,Q
2023-03-15 22:22:51:126,0,-5.18807,-6.08111,-13.2873,Q,Q
2023-03-15 22:22:51:786,0,-5.25895,-6.16219,-13.2688,Q,Q
2023-03-15 22:22:52:276,0,-5.19145,-6.18868,-13.2946,Q,Q
2023-03-15 22:22:52:776,0,-5.19396,-6.12911,-13.2053,Q,Q
2023-03-15 22:22:53:436,0,-5.36799,-5.99412,-13.4976,Q,Q
2023-03-15 22:22:53:756,0,-5.50451,-5.92459,-13.7591,Q,Q
2023-03-15 22:22:54:406,0,-5.47695,-5.95586,-13.8105,Q,Q
2023-03-15 22:22:54:736,0,-5.41213,-6.00435,-13.809,Q,Q
2023-03-15 22:22:55:226,0,-5.36951,-6.13046,-13.6619,Q,Q
2023-03-15 22:22:55:716,0,-5.60354,-6.19435,-13.7793,Q,Q
2023-03-15 22:22:56:376,0,-5.66836,-6.0551,-14.0459,Q,Q
2023-03-15 22:22:56:866,0,-5.5642,-6.15022,-14.0845,Q,Q
2023-03-15 22:22:57:515,0,-5.56797,-6.20472,-13.9052,Q,Q
2023-03-15 22:22:57:846,0,-5.67645,-6.18627,-14.0406,Q,Q
2023-03-15 22:22:58:335,0,-5.83346,-6.23938,-14.1583,Q,Q
2023-03-15 22:22:58:835,0,-5.66418,-6.19898,-14.3146,Q,Q
2023-03-15 22:22:59:325,0,-5.68417,-6.28517,-14.214,Q,Q
2023-03-15 22:22:59:975,0,-5.57009,-6.33527,-14.1462,Q,Q
2023-03-15 22:23:00:335,0,-5.58469,-6.35698,-14.0526,Q,Q
2023-03-15 22:23:00:965,0,-5.7474,-6.35356,-14.1906,Q,Q
2023-03-15 22:23:01:325,0,-5.68116,-6.47125,-14.0084,Q,Q
2023-03-15 22:23:02:105,0,-5.68127,-6.41144,-13.9246,Q,Q
2023-03-15 22:23:02:435,0,-5.63748,-6.46105,-13.9081,Q,Q
2023-03-15 22:23:02:925,0,-5.74974,-6.3139,-14.2628,Q,Q
2023-03-15 22:23:03:585,0,-5.69018,-6.43139,-14.1969,Q,Q
2023-03-15 22:23:04:75,0,-5.64926,-6.3562,-14.2305,Q,Q
2023-03-15 22:23:04:724,0,-5.64816,-6.26816,-14.2603,so,S
2023-03-15 22:23:04:764,0,-5.71149,-6.21935,-14.295,Q,Q
2023-03-15 22:23:05:54,0,-5.70481,-6.24226,-14.4011,Q,Q
2023-03-15 22:23:05:544,0,-5.55541,-6.41306,-14.2199,Q,Q
2023-03-15 22:23:06:34,0,-5.83428,-6.27997,-14.2509,Q,Q
2023-03-15 22:23:06:524,0,-5.80086,-6.37714,-14.26,Q,Q
2023-03-15 22:23:07:14,0,-5.36071,-6.44031,-14.007,Q,Q
2023-03-15 22:23:07:514,0,-5.98709,-6.23213,-14.268,Q,Q
2023-03-15 22:23:08:174,0,-5.15578,-6.55775,-14.2128,Q,Q
2023-03-15 22:23:08:824,0,-5.15791,-6.66012,-13.7451,Q,Q
2023-03-15 22:23:09:154,0,-5.18192,-6.80769,-13.4544,Q,Q
2023-03-15 22:23:09:804,0,-6.03525,-6.08636,-12.8291,Q,Q
2023-03-15 22:23:10:224,0,-6.80039,-6.31137,-11.5302,Q,Q
