Timestamp_cmd,imu_cmd,roll_delta,pitch_delta,yaw_delta,voice_type,voice_length
2023-03-15 13:06:54:409,0,-5.87555,-6.5379,9.42555,Q,Q
2023-03-15 13:06:54:417,0,-5.8751,-6.54191,9.41432,Q,Q
2023-03-15 13:06:54:427,0,-5.87724,-6.54525,9.40459,Q,Q
2023-03-15 13:06:54:437,0,-5.87878,-6.5489,9.39825,Q,Q
2023-03-15 13:06:54:447,0,-5.87677,-6.55016,9.39326,Q,Q
2023-03-15 13:06:54:457,0,-5.87251,-6.55189,9.39338,Q,Q
2023-03-15 13:06:54:467,0,-5.8718,-6.55152,9.39498,Q,Q
2023-03-15 13:06:54:477,0,-5.87052,-6.55103,9.39583,Q,Q
2023-03-15 13:06:54:487,0,-5.86572,-6.54863,9.3968,Q,Q
2023-03-15 13:06:54:497,0,-5.86547,-6.54928,9.40114,Q,Q
2023-03-15 13:06:54:507,0,-5.85997,-6.55107,9.40265,Q,Q
2023-03-15 13:06:54:517,0,-5.85557,-6.55212,9.40663,Q,Q
2023-03-15 13:06:54:527,0,-5.85141,-6.55451,9.41211,Q,Q
2023-03-15 13:06:54:537,0,-5.84945,-6.55799,9.41718,Q,Q
2023-03-15 13:06:54:547,0,-5.84651,-6.56277,9.42165,Q,Q
2023-03-15 13:06:54:557,0,-5.84358,-6.56486,9.42235,Q,Q
2023-03-15 13:06:54:567,0,-5.84232,-6.56049,9.41843,Q,Q
2023-03-15 13:06:54:577,0,-5.83591,-6.55676,9.41409,Q,Q
2023-03-15 13:06:54:587,0,-5.83722,-6.55304,9.41296,Q,Q
2023-03-15 13:06:54:597,0,-5.83473,-6.54774,9.41007,Q,Q
2023-03-15 13:06:54:607,0,-5.83746,-6.54661,9.40915,Q,Q
2023-03-15 13:06:54:617,0,-5.83735,-6.54768,9.40205,Q,Q
2023-03-15 13:06:54:627,0,-5.8408,-6.54465,9.3951,Q,Q
2023-03-15 13:06:54:637,0,-5.84272,-6.54352,9.38658,Q,Q
2023-03-15 13:06:54:647,0,-5.84472,-6.54614,9.37866,Q,Q
2023-03-15 13:06:54:657,0,-5.84648,-6.54884,9.37109,Q,Q
2023-03-15 13:06:54:667,0,-5.84613,-6.54554,9.36568,Q,Q
2023-03-15 13:06:54:677,0,-5.84714,-6.54694,9.362,Q,Q
2023-03-15 13:06:54:687,0,-5.84994,-6.54968,9.35749,Q,Q
2023-03-15 13:06:54:697,0,-5.85054,-6.54901,9.353,Q,Q
2023-03-15 13:06:54:707,0,-5.85358,-6.55044,9.35142,Q,Q
2023-03-15 13:06:54:717,0,-5.85627,-6.55014,9.34992,Q,Q
2023-03-15 13:06:54:727,0,-5.86369,-6.54771,9.3477,Q,Q
2023-03-15 13:06:54:737,0,-5.87071,-6.54979,9.34815,Q,Q
2023-03-15 13:06:54:747,0,-5.87657,-6.54709,9.34818,Q,Q
2023-03-15 13:06:54:757,0,-5.87917,-6.54517,9.34525,Q,Q
2023-03-15 13:06:54:767,0,-5.8799,-6.54181,9.34126,Q,Q
2023-03-15 13:06:54:777,0,-5.87953,-6.54135,9.33438,Q,Q
2023-03-15 13:06:54:787,0,-5.87824,-6.53685,9.32765,Q,Q
2023-03-15 13:06:54:797,0,-5.87287,-6.53543,9.32034,Q,Q
2023-03-15 13:06:54:807,0,-5.86966,-6.53577,9.30995,Q,Q
2023-03-15 13:06:54:817,0,-5.86739,-6.53441,9.29916,Q,Q
2023-03-15 13:06:54:827,0,-5.86836,-6.53511,9.28983,Q,Q
2023-03-15 13:06:54:837,0,-5.86542,-6.53539,9.28205,Q,Q
2023-03-15 13:06:54:847,0,-5.86179,-6.53943,9.27293,Q,Q
2023-03-15 13:06:54:857,0,-5.85819,-6.54404,9.26394,Q,Q
2023-03-15 13:06:54:867,0,-5.85512,-6.54578,9.25836,Q,Q
2023-03-15 13:06:54:877,0,-5.85364,-6.5468,9.24992,Q,Q
2023-03-15 13:06:54:887,0,-5.8501,-6.54445,9.24594,Q,Q
2023-03-15 13:06:54:897,0,-5.84915,-6.53951,9.23637,Q,Q
2023-03-15 13:06:54:907,0,-5.84755,-6.5343,9.22855,Q,Q
2023-03-15 13:06:54:917,0,-5.84503,-6.53047,9.2172,Q,Q
2023-03-15 13:06:54:927,0,-5.84158,-6.52261,9.2098,Q,Q
2023-03-15 13:06:54:937,0,-5.83663,-6.52102,9.20011,Q,Q
2023-03-15 13:06:54:947,0,-5.83386,-6.51666,9.19045,Q,Q
2023-03-15 13:06:54:957,0,-5.83377,-6.51542,9.18193,Q,Q
2023-03-15 13:06:54:967,0,-5.83495,-6.51137,9.17201,Q,Q
2023-03-15 13:06:54:977,0,-5.83474,-6.50641,9.16168,Q,Q
2023-03-15 13:06:54:987,0,-5.83865,-6.50512,9.15117,Q,Q
2023-03-15 13:06:54:997,0,-5.83691,-6.50077,9.14034,Q,Q
2023-03-15 13:06:55:7,0,-5.8363,-6.49537,9.12621,Q,Q
2023-03-15 13:06:55:17,0,-5.83403,-6.48959,9.11313,Q,Q
2023-03-15 13:06:55:27,0,-5.83197,-6.47698,9.1001,Q,Q
2023-03-15 13:06:55:37,0,-5.82786,-6.46553,9.08766,Q,Q
2023-03-15 13:06:55:47,0,-5.8249,-6.45686,9.0776,Q,Q
2023-03-15 13:06:55:57,0,-5.81676,-6.44274,9.06698,Q,Q
2023-03-15 13:06:55:67,0,-5.80501,-6.42735,9.05848,Q,Q
2023-03-15 13:06:55:77,0,-5.79111,-6.41867,9.04873,Q,Q
2023-03-15 13:06:55:87,0,-5.78457,-6.4054,9.03779,Q,Q
2023-03-15 13:06:55:97,0,-5.77338,-6.38924,9.02607,Q,Q
2023-03-15 13:06:55:107,0,-5.76328,-6.37231,9.01413,Q,Q
2023-03-15 13:06:55:117,0,-5.74985,-6.35151,9.00158,Q,Q
2023-03-15 13:06:55:127,0,-5.73876,-6.33192,8.99262,Q,Q
2023-03-15 13:06:55:137,0,-5.72339,-6.31598,8.98471,Q,Q
2023-03-15 13:06:55:147,0,-5.71038,-6.30681,8.98201,Q,Q
2023-03-15 13:06:55:157,0,-5.70524,-6.30391,8.98504,Q,Q
2023-03-15 13:06:55:167,0,-5.70478,-6.30473,8.98574,Q,Q
2023-03-15 13:06:55:177,0,-5.70308,-6.30509,8.98817,Q,Q
2023-03-15 13:06:55:187,0,-5.70179,-6.30973,8.99124,Q,Q
2023-03-15 13:06:55:197,0,-5.70066,-6.31116,8.99168,Q,Q
2023-03-15 13:06:55:207,0,-5.69851,-6.3138,8.99476,Q,Q
2023-03-15 13:06:55:217,0,-5.69667,-6.31514,9.0035,Q,Q
2023-03-15 13:06:55:227,0,-5.6963,-6.31351,9.01038,Q,Q
2023-03-15 13:06:55:237,0,-5.69285,-6.31589,9.01836,Q,Q
2023-03-15 13:06:55:247,0,-5.69403,-6.31691,9.02393,Q,Q
2023-03-15 13:06:55:257,0,-5.69882,-6.315,9.03308,Q,Q
2023-03-15 13:06:55:267,0,-5.7036,-6.3091,9.04165,Q,Q
2023-03-15 13:06:55:277,0,-5.70674,-6.30593,9.05494,Q,Q
2023-03-15 13:06:55:287,0,-5.7181,-6.30624,9.06812,Q,Q
2023-03-15 13:06:55:297,0,-5.72507,-6.30305,9.08214,Q,Q
2023-03-15 13:06:55:307,0,-5.73237,-6.30122,9.09745,Q,Q
2023-03-15 13:06:55:317,0,-5.73959,-6.30162,9.10958,Q,Q
2023-03-15 13:06:55:327,0,-5.74588,-6.30074,9.12206,Q,Q
2023-03-15 13:06:55:337,0,-5.75202,-6.30364,9.13847,Q,Q
2023-03-15 13:06:55:347,0,-5.75493,-6.30677,9.15468,Q,Q
2023-03-15 13:06:55:357,0,-5.75861,-6.31757,9.17403,Q,Q
2023-03-15 13:06:55:367,0,-5.75871,-6.3253,9.1941,Q,Q
2023-03-15 13:06:55:377,0,-5.75915,-6.3304,9.21025,Q,Q
2023-03-15 13:06:55:387,0,-5.75686,-6.33572,9.22863,Q,Q
2023-03-15 13:06:55:397,0,-5.75714,-6.33783,9.24454,Q,Q
2023-03-15 13:06:55:407,0,-5.76216,-6.35749,9.26212,Q,Q
2023-03-15 13:06:55:417,0,-5.77327,-6.36611,9.28551,Q,Q
2023-03-15 13:06:55:427,0,-5.77482,-6.36795,9.30638,Q,Q
2023-03-15 13:06:55:437,0,-5.77024,-6.36556,9.33001,Q,Q
2023-03-15 13:06:55:447,0,-5.76822,-6.36877,9.35043,Q,Q
2023-03-15 13:06:55:457,0,-5.7734,-6.37273,9.36983,Q,Q
2023-03-15 13:06:55:467,0,-5.77706,-6.37547,9.38311,Q,Q
2023-03-15 13:06:55:477,0,-5.78153,-6.38633,9.39653,Q,Q
2023-03-15 13:06:55:487,0,-5.78911,-6.38983,9.40664,Q,Q
2023-03-15 13:06:55:497,0,-5.79508,-6.38688,9.4153,Q,Q
2023-03-15 13:06:55:507,0,-5.79187,-6.39142,9.42066,Q,Q
2023-03-15 13:06:55:517,0,-5.79517,-6.39907,9.42622,Q,Q
2023-03-15 13:06:55:527,0,-5.79818,-6.40406,9.43025,Q,Q
2023-03-15 13:06:55:537,0,-5.79934,-6.40522,9.43185,Q,Q
2023-03-15 13:06:55:547,0,-5.79257,-6.40755,9.42901,Q,Q
2023-03-15 13:06:55:557,0,-5.78793,-6.41011,9.42743,Q,Q
2023-03-15 13:06:55:567,0,-5.78151,-6.41204,9.42461,Q,Q
2023-03-15 13:06:55:577,0,-5.7724,-6.41502,9.41851,Q,Q
2023-03-15 13:06:55:587,0,-5.76013,-6.41967,9.4161,Q,Q
2023-03-15 13:06:55:597,0,-5.74977,-6.42726,9.41836,Q,Q
2023-03-15 13:06:55:607,0,-5.73931,-6.43905,9.42074,Q,Q
2023-03-15 13:06:55:617,0,-5.73588,-6.44945,9.42665,Q,Q
2023-03-15 13:06:55:627,0,-5.7302,-6.45876,9.43004,Q,Q
2023-03-15 13:06:55:637,0,-5.72556,-6.46742,9.43605,Q,Q
2023-03-15 13:06:55:647,0,-5.71947,-6.47535,9.4394,Q,Q
2023-03-15 13:06:55:657,0,-5.71471,-6.47999,9.44175,Q,Q
2023-03-15 13:06:55:667,0,-5.70495,-6.48326,9.43656,Q,Q
2023-03-15 13:06:55:677,0,-5.69442,-6.48534,9.4345,Q,Q
2023-03-15 13:06:55:687,0,-5.68115,-6.4904,9.42856,Q,Q
2023-03-15 13:06:55:697,0,-5.67391,-6.49846,9.42584,Q,Q
2023-03-15 13:06:55:707,0,-5.66427,-6.5072,9.4251,Q,Q
2023-03-15 13:06:55:717,0,-5.65528,-6.51932,9.42487,Q,Q
2023-03-15 13:06:55:727,0,-5.65424,-6.53449,9.42783,Q,Q
2023-03-15 13:06:55:737,0,-5.65203,-6.55021,9.432,Q,Q
2023-03-15 13:06:55:747,0,-5.65261,-6.56694,9.4377,Q,Q
2023-03-15 13:06:55:757,0,-5.65444,-6.58118,9.4448,Q,Q
2023-03-15 13:06:55:767,0,-5.66025,-6.59793,9.4565,Q,Q
2023-03-15 13:06:55:777,0,-5.66896,-6.60451,9.46833,Q,Q
2023-03-15 13:06:55:787,0,-5.67044,-6.6003,9.48053,Q,Q
2023-03-15 13:06:55:797,0,-5.66873,-6.59996,9.4914,Q,Q
2023-03-15 13:06:55:807,0,-5.66879,-6.60665,9.5058,Q,Q
2023-03-15 13:06:55:817,0,-5.66891,-6.61185,9.52336,Q,Q
2023-03-15 13:06:55:827,0,-5.66672,-6.61981,9.53824,Q,Q
2023-03-15 13:06:55:837,0,-5.66233,-6.62989,9.553,Q,Q
2023-03-15 13:06:55:847,0,-5.65377,-6.6412,9.56758,Q,Q
2023-03-15 13:06:55:857,0,-5.6453,-6.65139,9.57943,Q,Q
2023-03-15 13:06:55:867,0,-5.63754,-6.66443,9.59119,Q,Q
2023-03-15 13:06:55:877,0,-5.6279,-6.67921,9.60165,Q,Q
2023-03-15 13:06:55:888,0,-5.62998,-6.69884,9.61483,Q,Q
2023-03-15 13:06:55:897,0,-5.63276,-6.70891,9.62897,Q,Q
2023-03-15 13:06:55:907,0,-5.63109,-6.71422,9.63482,Q,Q
2023-03-15 13:06:55:917,0,-5.62696,-6.72155,9.63532,Q,Q
2023-03-15 13:06:55:927,0,-5.62667,-6.72454,9.63857,Q,Q
2023-03-15 13:06:55:937,0,-5.62644,-6.72802,9.63722,Q,Q
2023-03-15 13:06:55:947,0,-5.62543,-6.72601,9.6297,Q,Q
2023-03-15 13:06:55:957,0,-5.6252,-6.72058,9.61903,Q,Q
2023-03-15 13:06:55:967,0,-5.62823,-6.71614,9.60531,Q,Q
2023-03-15 13:06:55:977,0,-5.62606,-6.70271,9.5874,Q,Q
2023-03-15 13:06:55:987,0,-5.62398,-6.6906,9.56017,Q,Q
2023-03-15 13:06:55:997,0,-5.61819,-6.67839,9.53083,Q,Q
2023-03-15 13:06:56:7,0,-5.60677,-6.67,9.50185,Q,Q
2023-03-15 13:06:56:17,0,-5.59866,-6.66739,9.47608,Q,Q
2023-03-15 13:06:56:27,0,-5.58859,-6.6727,9.45544,Q,Q
2023-03-15 13:06:56:37,0,-5.58242,-6.67968,9.43402,Q,Q
2023-03-15 13:06:56:47,0,-5.57532,-6.68107,9.4151,Q,Q
2023-03-15 13:06:56:57,0,-5.57512,-6.6729,9.39526,Q,Q
2023-03-15 13:06:56:67,0,-5.56988,-6.6601,9.36656,Q,Q
2023-03-15 13:06:56:77,0,-5.57355,-6.64885,9.34289,Q,Q
2023-03-15 13:06:56:87,0,-5.57779,-6.63359,9.32316,Q,Q
2023-03-15 13:06:56:97,0,-5.58583,-6.61871,9.3032,Q,Q
2023-03-15 13:06:56:107,0,-5.59456,-6.59795,9.2823,Q,Q
2023-03-15 13:06:56:117,0,-5.60054,-6.57707,9.26524,Q,Q
2023-03-15 13:06:56:127,0,-5.60999,-6.55095,9.24609,Q,Q
2023-03-15 13:06:56:137,0,-5.62661,-6.52617,9.2288,Q,Q
2023-03-15 13:06:56:147,0,-5.64486,-6.5017,9.21119,Q,Q
2023-03-15 13:06:56:157,0,-5.65997,-6.47767,9.19195,Q,Q
2023-03-15 13:06:56:167,0,-5.67048,-6.45834,9.17323,Q,Q
2023-03-15 13:06:56:177,0,-5.68133,-6.44312,9.15432,Q,Q
2023-03-15 13:06:56:187,0,-5.68887,-6.42674,9.13363,Q,Q
2023-03-15 13:06:56:197,0,-5.6937,-6.40933,9.1122,Q,Q
2023-03-15 13:06:56:207,0,-5.70015,-6.392,9.09302,Q,Q
2023-03-15 13:06:56:217,0,-5.70503,-6.37731,9.07673,Q,Q
2023-03-15 13:06:56:227,0,-5.71111,-6.36584,9.05938,Q,Q
2023-03-15 13:06:56:237,0,-5.71651,-6.35121,9.04275,Q,Q
2023-03-15 13:06:56:247,0,-5.72792,-6.33669,9.02489,Q,Q
2023-03-15 13:06:56:257,0,-5.73761,-6.32328,9.01047,Q,Q
2023-03-15 13:06:56:267,0,-5.74482,-6.30875,8.99625,Q,Q
2023-03-15 13:06:56:277,0,-5.74714,-6.29448,8.98088,Q,Q
2023-03-15 13:06:56:287,0,-5.74892,-6.28698,8.96752,Q,Q
2023-03-15 13:06:56:297,0,-5.75284,-6.28205,8.95971,Q,Q
2023-03-15 13:06:56:307,0,-5.75294,-6.27444,8.95951,Q,Q
2023-03-15 13:06:56:317,0,-5.75567,-6.26596,8.95753,Q,Q
2023-03-15 13:06:56:327,0,-5.75945,-6.26238,8.95613,Q,Q
2023-03-15 13:06:56:337,0,-5.76121,-6.25541,8.9556,Q,Q
2023-03-15 13:06:56:347,0,-5.76454,-6.24406,8.95716,Q,Q
2023-03-15 13:06:56:357,0,-5.7699,-6.23206,8.95702,Q,Q
2023-03-15 13:06:56:367,0,-5.7721,-6.22189,8.95677,Q,Q
2023-03-15 13:06:56:377,0,-5.77451,-6.20991,8.95502,Q,Q
2023-03-15 13:06:56:387,0,-5.77958,-6.20004,8.95238,Q,Q
2023-03-15 13:06:56:397,0,-5.78501,-6.19005,8.94461,Q,Q
2023-03-15 13:06:56:407,0,-5.79271,-6.18333,8.93471,Q,Q
2023-03-15 13:06:56:417,0,-5.79387,-6.18022,8.92342,Q,Q
2023-03-15 13:06:56:427,0,-5.7954,-6.17622,8.91135,Q,Q
2023-03-15 13:06:56:437,0,-5.79258,-6.17057,8.89536,Q,Q
2023-03-15 13:06:56:447,0,-5.78756,-6.16873,8.88046,Q,Q
2023-03-15 13:06:56:457,0,-5.78,-6.1661,8.86545,Q,Q
2023-03-15 13:06:56:467,0,-5.77737,-6.16302,8.85247,Q,Q
2023-03-15 13:06:56:477,0,-5.77461,-6.16375,8.8396,Q,Q
2023-03-15 13:06:56:487,0,-5.77286,-6.16418,8.83218,Q,Q
2023-03-15 13:06:56:497,0,-5.7757,-6.15954,8.82346,Q,Q
2023-03-15 13:06:56:507,0,-5.76941,-6.15277,8.81407,Q,Q
2023-03-15 13:06:56:517,0,-5.76143,-6.14797,8.81048,Q,Q
2023-03-15 13:06:56:527,0,-5.75838,-6.13964,8.80659,Q,Q
2023-03-15 13:06:56:537,0,-5.75413,-6.13203,8.80728,Q,Q
2023-03-15 13:06:56:547,0,-5.75052,-6.12933,8.80651,Q,Q
2023-03-15 13:06:56:557,0,-5.74749,-6.1237,8.8099,Q,Q
2023-03-15 13:06:56:567,0,-5.74682,-6.12508,8.81129,Q,Q
2023-03-15 13:06:56:577,0,-5.7507,-6.12632,8.81073,Q,Q
2023-03-15 13:06:56:587,0,-5.75726,-6.12548,8.80992,Q,Q
2023-03-15 13:06:56:597,0,-5.76096,-6.12302,8.80753,Q,Q
2023-03-15 13:06:56:607,0,-5.76188,-6.12442,8.80385,Q,Q
2023-03-15 13:06:56:617,0,-5.7674,-6.1253,8.80242,Q,Q
2023-03-15 13:06:56:627,0,-5.77255,-6.12823,8.80135,Q,Q
2023-03-15 13:06:56:637,0,-5.77571,-6.13429,8.80149,Q,Q
2023-03-15 13:06:56:647,0,-5.78822,-6.14256,8.80335,Q,Q
2023-03-15 13:06:56:657,0,-5.7951,-6.14378,8.80409,Q,Q
2023-03-15 13:06:56:667,0,-5.79559,-6.1446,8.80319,Q,Q
2023-03-15 13:06:56:677,0,-5.79983,-6.1451,8.80791,Q,Q
2023-03-15 13:06:56:687,0,-5.8075,-6.14394,8.81188,Q,Q
2023-03-15 13:06:56:697,0,-5.81476,-6.14538,8.8192,Q,Q
2023-03-15 13:06:56:707,0,-5.821,-6.1409,8.82578,Q,Q
2023-03-15 13:06:56:717,0,-5.82806,-6.1382,8.83156,Q,Q
2023-03-15 13:06:56:727,0,-5.83354,-6.13645,8.83305,Q,Q
2023-03-15 13:06:56:737,0,-5.83711,-6.13978,8.83669,Q,Q
2023-03-15 13:06:56:747,0,-5.83964,-6.14569,8.83841,Q,Q
2023-03-15 13:06:56:757,0,-5.84876,-6.14509,8.83651,Q,Q
2023-03-15 13:06:56:767,0,-5.85636,-6.14107,8.83343,Q,Q
2023-03-15 13:06:56:777,0,-5.8567,-6.14198,8.82712,Q,Q
2023-03-15 13:06:56:787,0,-5.86139,-6.14476,8.82426,Q,Q
2023-03-15 13:06:56:797,0,-5.86855,-6.14762,8.82664,Q,Q
2023-03-15 13:06:56:807,0,-5.87801,-6.15493,8.82049,Q,Q
2023-03-15 13:06:56:817,0,-5.88624,-6.16057,8.8174,Q,Q
2023-03-15 13:06:56:827,0,-5.89479,-6.16777,8.81717,Q,Q
2023-03-15 13:06:56:837,0,-5.904,-6.17386,8.81385,Q,Q
2023-03-15 13:06:56:847,0,-5.91266,-6.17969,8.80946,Q,Q
2023-03-15 13:06:56:857,0,-5.92117,-6.18374,8.80967,Q,Q
2023-03-15 13:06:56:867,0,-5.92801,-6.185,8.80629,Q,Q
2023-03-15 13:06:56:877,0,-5.93455,-6.1819,8.80448,Q,Q
2023-03-15 13:06:56:887,0,-5.94209,-6.17795,8.7992,Q,Q
2023-03-15 13:06:56:897,0,-5.94868,-6.17329,8.79061,Q,Q
2023-03-15 13:06:56:907,0,-5.95231,-6.17366,8.78131,Q,Q
2023-03-15 13:06:56:917,0,-5.95646,-6.1785,8.77762,Q,Q
2023-03-15 13:06:56:927,0,-5.9585,-6.18873,8.77644,Q,Q
2023-03-15 13:06:56:937,0,-5.9635,-6.20155,8.77847,Q,Q
2023-03-15 13:06:56:947,0,-5.97243,-6.21084,8.77809,Q,Q
2023-03-15 13:06:56:957,0,-5.98445,-6.21867,8.7773,Q,Q
2023-03-15 13:06:56:967,0,-5.99703,-6.22061,8.77098,Q,Q
2023-03-15 13:06:56:977,0,-6.00884,-6.21661,8.76294,Q,Q
2023-03-15 13:06:56:987,0,-6.01961,-6.21561,8.75018,Q,Q
2023-03-15 13:06:56:997,0,-6.02674,-6.21438,8.73812,Q,Q
2023-03-15 13:06:57:7,0,-6.04054,-6.21513,8.72435,Q,Q
2023-03-15 13:06:57:17,0,-6.04813,-6.21555,8.70701,Q,Q
2023-03-15 13:06:57:27,0,-6.05608,-6.21724,8.69384,Q,Q
2023-03-15 13:06:57:37,0,-6.06708,-6.21448,8.6774,Q,Q
2023-03-15 13:06:57:47,0,-6.07532,-6.21214,8.65712,Q,Q
2023-03-15 13:06:57:57,0,-6.08132,-6.20761,8.64391,Q,Q
2023-03-15 13:06:57:67,0,-6.08859,-6.20689,8.6335,Q,Q
2023-03-15 13:06:57:77,0,-6.09938,-6.20173,8.62066,Q,Q
2023-03-15 13:06:57:87,0,-6.10503,-6.19963,8.61015,Q,Q
2023-03-15 13:06:57:97,0,-6.10991,-6.19597,8.59976,Q,Q
2023-03-15 13:06:57:107,0,-6.11326,-6.19242,8.59151,Q,Q
2023-03-15 13:06:57:117,0,-6.11544,-6.18863,8.58944,Q,Q
2023-03-15 13:06:57:127,0,-6.12384,-6.18537,8.5867,Q,Q
2023-03-15 13:06:57:137,0,-6.12794,-6.1791,8.58646,Q,Q
2023-03-15 13:06:57:147,0,-6.1327,-6.17233,8.5876,Q,Q
2023-03-15 13:06:57:157,0,-6.13573,-6.16667,8.58902,Q,Q
2023-03-15 13:06:57:167,0,-6.14009,-6.15585,8.58782,Q,Q
2023-03-15 13:06:57:177,0,-6.14377,-6.14557,8.58584,Q,Q
2023-03-15 13:06:57:187,0,-6.151,-6.14028,8.58395,Q,Q
2023-03-15 13:06:57:197,0,-6.15948,-6.13625,8.58724,Q,Q
2023-03-15 13:06:57:207,0,-6.1705,-6.13431,8.59086,Q,Q
2023-03-15 13:06:57:217,0,-6.1836,-6.13388,8.59398,Q,Q
2023-03-15 13:06:57:227,0,-6.20101,-6.13485,8.59361,Q,Q
2023-03-15 13:06:57:237,0,-6.2194,-6.13191,8.59267,Q,Q
2023-03-15 13:06:57:247,0,-6.2406,-6.12788,8.592,Q,Q
2023-03-15 13:06:57:257,0,-6.26436,-6.12186,8.59025,Q,Q
2023-03-15 13:06:57:267,0,-6.28138,-6.11597,8.58427,Q,Q
2023-03-15 13:06:57:277,0,-6.29475,-6.11142,8.58012,Q,Q
2023-03-15 13:06:57:287,0,-6.30373,-6.10839,8.57072,Q,Q
2023-03-15 13:06:57:297,0,-6.31606,-6.10483,8.56069,Q,Q
2023-03-15 13:06:57:307,0,-6.32738,-6.09913,8.54854,Q,Q
2023-03-15 13:06:57:317,0,-6.33229,-6.09384,8.53499,Q,Q
2023-03-15 13:06:57:327,0,-6.33882,-6.08728,8.52296,Q,Q
2023-03-15 13:06:57:337,0,-6.33769,-6.08317,8.50788,Q,Q
2023-03-15 13:06:57:347,0,-6.33767,-6.08033,8.50105,Q,Q
2023-03-15 13:06:57:357,0,-6.33328,-6.07898,8.497,Q,Q
2023-03-15 13:06:57:367,0,-6.33122,-6.081,8.49895,Q,Q
2023-03-15 13:06:57:377,0,-6.33226,-6.07847,8.50918,Q,Q
2023-03-15 13:06:57:387,0,-6.33055,-6.07927,8.52488,Q,Q
2023-03-15 13:06:57:397,0,-6.32656,-6.07395,8.54253,Q,Q
2023-03-15 13:06:57:407,0,-6.3244,-6.07087,8.56362,Q,Q
2023-03-15 13:06:57:417,0,-6.32826,-6.06683,8.58531,Q,Q
2023-03-15 13:06:57:427,0,-6.33005,-6.05709,8.60583,Q,Q
2023-03-15 13:06:57:437,0,-6.3283,-6.04471,8.62525,Q,Q
2023-03-15 13:06:57:447,0,-6.32804,-6.03346,8.63876,Q,Q
2023-03-15 13:06:57:457,0,-6.32957,-6.02311,8.65241,Q,Q
2023-03-15 13:06:57:467,0,-6.32798,-6.01787,8.66564,Q,Q
2023-03-15 13:06:57:477,0,-6.32619,-6.0116,8.67428,Q,Q
2023-03-15 13:06:57:487,0,-6.32726,-6.00599,8.68448,Q,Q
2023-03-15 13:06:57:497,0,-6.32938,-6.00287,8.69125,Q,Q
2023-03-15 13:06:57:507,0,-6.33289,-6.00197,8.69495,Q,Q
2023-03-15 13:06:57:517,0,-6.33503,-6.00223,8.69821,Q,Q
2023-03-15 13:06:57:527,0,-6.33995,-5.99924,8.70473,Q,Q
2023-03-15 13:06:57:537,0,-6.35015,-5.99854,8.71138,Q,Q
2023-03-15 13:06:57:547,0,-6.35896,-5.99656,8.71493,Q,Q
2023-03-15 13:06:57:557,0,-6.36447,-5.99585,8.72011,Q,Q
2023-03-15 13:06:57:567,0,-6.36847,-5.99638,8.72938,Q,Q
2023-03-15 13:06:57:577,0,-6.37117,-6.00208,8.74187,Q,Q
2023-03-15 13:06:57:587,0,-6.36979,-6.00584,8.75083,Q,Q
2023-03-15 13:06:57:597,0,-6.36903,-6.0138,8.76321,Q,Q
2023-03-15 13:06:57:607,0,-6.36802,-6.01738,8.77393,Q,Q
2023-03-15 13:06:57:617,0,-6.36916,-6.02629,8.78911,Q,Q
2023-03-15 13:06:57:627,0,-6.36971,-6.0369,8.805,Q,Q
2023-03-15 13:06:57:637,0,-6.36705,-6.04895,8.81962,Q,Q
2023-03-15 13:06:57:647,0,-6.36784,-6.06501,8.83503,Q,Q
2023-03-15 13:06:57:657,0,-6.36996,-6.07997,8.85052,Q,Q
2023-03-15 13:06:57:667,0,-6.37117,-6.0839,8.8647,Q,Q
2023-03-15 13:06:57:677,0,-6.36796,-6.09239,8.87593,Q,Q
2023-03-15 13:06:57:687,0,-6.36633,-6.09952,8.88779,Q,Q
2023-03-15 13:06:57:697,0,-6.36125,-6.1075,8.89895,Q,Q
2023-03-15 13:06:57:707,0,-6.35762,-6.11279,8.9084,Q,Q
2023-03-15 13:06:57:717,0,-6.35888,-6.11752,8.91543,Q,Q
2023-03-15 13:06:57:727,0,-6.35415,-6.11743,8.92169,Q,Q
2023-03-15 13:06:57:737,0,-6.34971,-6.11825,8.92883,Q,Q
2023-03-15 13:06:57:747,0,-6.34878,-6.12112,8.93809,Q,Q
2023-03-15 13:06:57:757,0,-6.34835,-6.12748,8.94967,Q,Q
2023-03-15 13:06:57:767,0,-6.34869,-6.1332,8.95427,Q,Q
2023-03-15 13:06:57:777,0,-6.34526,-6.13715,8.96006,Q,Q
2023-03-15 13:06:57:787,0,-6.34525,-6.13591,8.96759,Q,Q
2023-03-15 13:06:57:797,0,-6.34395,-6.13002,8.96634,Q,Q
2023-03-15 13:06:57:807,0,-6.33837,-6.12763,8.97006,Q,Q
2023-03-15 13:06:57:817,0,-6.33493,-6.12926,8.97575,Q,Q
2023-03-15 13:06:57:827,0,-6.32829,-6.12845,8.98289,Q,Q
2023-03-15 13:06:57:837,0,-6.32159,-6.13549,8.99294,Q,Q
2023-03-15 13:06:57:847,0,-6.31796,-6.14794,9.00313,Q,Q
2023-03-15 13:06:57:857,0,-6.31748,-6.15676,9.01479,Q,Q
2023-03-15 13:06:57:867,0,-6.32765,-6.16507,9.02226,Q,Q
2023-03-15 13:06:57:877,0,-6.33199,-6.17535,9.02871,Q,Q
2023-03-15 13:06:57:887,0,-6.34065,-6.18819,9.03199,Q,Q
2023-03-15 13:06:57:897,0,-6.34536,-6.1891,9.0342,Q,Q
2023-03-15 13:06:57:907,0,-6.34586,-6.19195,9.03364,Q,Q
2023-03-15 13:06:57:917,0,-6.34587,-6.19195,9.02933,Q,Q
2023-03-15 13:06:57:927,0,-6.34918,-6.19042,9.02423,Q,Q
2023-03-15 13:06:57:937,0,-6.35194,-6.18732,9.01564,Q,Q
2023-03-15 13:06:57:947,0,-6.3551,-6.18653,9.00477,Q,Q
2023-03-15 13:06:57:957,0,-6.35433,-6.18596,8.9936,Q,Q
2023-03-15 13:06:57:967,0,-6.35918,-6.1835,8.98181,Q,Q
2023-03-15 13:06:57:977,0,-6.35921,-6.17778,8.96848,Q,Q
2023-03-15 13:06:57:987,0,-6.35997,-6.17193,8.95814,Q,Q
2023-03-15 13:06:57:997,0,-6.35798,-6.17025,8.94302,Q,Q
2023-03-15 13:06:58:7,0,-6.35513,-6.16742,8.92826,Q,Q
2023-03-15 13:06:58:17,0,-6.35417,-6.16574,8.91134,Q,Q
2023-03-15 13:06:58:27,0,-6.34966,-6.16734,8.89747,Q,Q
2023-03-15 13:06:58:37,0,-6.34889,-6.16735,8.8854,Q,Q
2023-03-15 13:06:58:47,0,-6.34584,-6.16952,8.87402,Q,Q
2023-03-15 13:06:58:57,0,-6.34048,-6.1683,8.86146,Q,Q
2023-03-15 13:06:58:67,0,-6.3336,-6.16413,8.84871,Q,Q
2023-03-15 13:06:58:77,0,-6.32495,-6.15889,8.83406,Q,Q
2023-03-15 13:06:58:87,0,-6.3152,-6.15641,8.82306,Q,Q
2023-03-15 13:06:58:97,0,-6.30406,-6.15538,8.81651,Q,Q
2023-03-15 13:06:58:107,0,-6.29821,-6.15429,8.80779,Q,Q
2023-03-15 13:06:58:117,0,-6.28952,-6.15174,8.80163,Q,Q
2023-03-15 13:06:58:127,0,-6.28313,-6.14806,8.79501,Q,Q
2023-03-15 13:06:58:137,0,-6.27728,-6.14231,8.79229,Q,Q
2023-03-15 13:06:58:147,0,-6.2745,-6.13273,8.7889,Q,Q
2023-03-15 13:06:58:157,0,-6.27278,-6.12792,8.78356,Q,Q
2023-03-15 13:06:58:167,0,-6.27168,-6.12566,8.77642,Q,Q
2023-03-15 13:06:58:177,0,-6.27038,-6.12001,8.77286,Q,Q
2023-03-15 13:06:58:187,0,-6.27069,-6.12088,8.77178,Q,Q
2023-03-15 13:06:58:197,0,-6.26993,-6.11859,8.76943,Q,Q
2023-03-15 13:06:58:207,0,-6.27044,-6.12126,8.76945,Q,Q
2023-03-15 13:06:58:217,0,-6.27335,-6.12191,8.77053,Q,Q
2023-03-15 13:06:58:227,0,-6.27774,-6.12615,8.77513,Q,Q
2023-03-15 13:06:58:237,0,-6.27749,-6.12993,8.77793,Q,Q
2023-03-15 13:06:58:247,0,-6.27565,-6.13224,8.78326,Q,Q
2023-03-15 13:06:58:257,0,-6.27503,-6.13415,8.78711,Q,Q
2023-03-15 13:06:58:267,0,-6.27335,-6.13619,8.79121,Q,Q
2023-03-15 13:06:58:277,0,-6.27539,-6.13526,8.79485,Q,Q
2023-03-15 13:06:58:287,0,-6.28358,-6.13279,8.80202,Q,Q
2023-03-15 13:06:58:297,0,-6.29491,-6.12911,8.8089,Q,Q
2023-03-15 13:06:58:307,0,-6.30392,-6.12627,8.81199,Q,Q
2023-03-15 13:06:58:317,0,-6.31347,-6.12378,8.81418,Q,Q
2023-03-15 13:06:58:327,0,-6.31798,-6.12105,8.8139,Q,Q
2023-03-15 13:06:58:337,0,-6.32777,-6.11742,8.81433,Q,Q
2023-03-15 13:06:58:347,0,-6.33842,-6.11356,8.81334,Q,Q
2023-03-15 13:06:58:357,0,-6.34334,-6.10853,8.80869,Q,Q
2023-03-15 13:06:58:367,0,-6.34624,-6.1049,8.80253,Q,Q
2023-03-15 13:06:58:377,0,-6.34648,-6.09899,8.79653,Q,Q
2023-03-15 13:06:58:387,0,-6.34751,-6.09549,8.79095,Q,Q
2023-03-15 13:06:58:397,0,-6.34978,-6.09232,8.78625,Q,Q
2023-03-15 13:06:58:407,0,-6.34968,-6.09553,8.78384,Q,Q
2023-03-15 13:06:58:417,0,-6.34712,-6.09563,8.7802,Q,Q
2023-03-15 13:06:58:427,0,-6.3447,-6.09344,8.77746,Q,Q
2023-03-15 13:06:58:437,0,-6.34208,-6.09459,8.77442,Q,Q
2023-03-15 13:06:58:447,0,-6.33698,-6.09428,8.77503,Q,Q
2023-03-15 13:06:58:457,0,-6.33225,-6.1001,8.77808,Q,Q
2023-03-15 13:06:58:467,0,-6.32822,-6.10342,8.78028,Q,Q
2023-03-15 13:06:58:477,0,-6.3239,-6.10621,8.78449,Q,Q
2023-03-15 13:06:58:487,0,-6.31867,-6.10919,8.78991,Q,Q
2023-03-15 13:06:58:497,0,-6.31451,-6.11316,8.79496,Q,Q
2023-03-15 13:06:58:507,0,-6.31237,-6.117,8.80424,Q,Q
2023-03-15 13:06:58:517,0,-6.31179,-6.11844,8.81111,Q,Q
2023-03-15 13:06:58:527,0,-6.31334,-6.12378,8.81783,Q,Q
2023-03-15 13:06:58:537,0,-6.30992,-6.12627,8.82688,Q,Q
2023-03-15 13:06:58:547,0,-6.31085,-6.12496,8.83341,Q,Q
2023-03-15 13:06:58:557,0,-6.30831,-6.12529,8.83684,Q,Q
2023-03-15 13:06:58:567,0,-6.3054,-6.12478,8.84303,Q,Q
2023-03-15 13:06:58:577,0,-6.30413,-6.12571,8.85005,Q,Q
2023-03-15 13:06:58:587,0,-6.29775,-6.12608,8.85539,Q,Q
2023-03-15 13:06:58:597,0,-6.29475,-6.12303,8.86077,Q,Q
2023-03-15 13:06:58:607,0,-6.2912,-6.12252,8.87133,Q,Q
2023-03-15 13:06:58:617,0,-6.28692,-6.12562,8.88204,Q,Q
2023-03-15 13:06:58:627,0,-6.28001,-6.12279,8.88871,Q,Q
2023-03-15 13:06:58:637,0,-6.27477,-6.11981,8.89686,Q,Q
2023-03-15 13:06:58:647,0,-6.2702,-6.11675,8.89918,Q,Q
2023-03-15 13:06:58:657,0,-6.26593,-6.11155,8.9012,Q,Q
2023-03-15 13:06:58:667,0,-6.26223,-6.10844,8.90593,Q,Q
2023-03-15 13:06:58:677,0,-6.25699,-6.10374,8.90799,Q,Q
2023-03-15 13:06:58:687,0,-6.24712,-6.10377,8.90667,Q,Q
2023-03-15 13:06:58:697,0,-6.23503,-6.11225,8.90933,Q,Q
2023-03-15 13:06:58:707,0,-6.22103,-6.12446,8.91525,Q,Q
2023-03-15 13:06:58:717,0,-6.20934,-6.13603,8.92,Q,Q
2023-03-15 13:06:58:727,0,-6.1946,-6.14907,8.92042,Q,Q
2023-03-15 13:06:58:737,0,-6.18403,-6.15952,8.91956,Q,Q
2023-03-15 13:06:58:747,0,-6.16807,-6.16559,8.9171,Q,Q
2023-03-15 13:06:58:757,0,-6.1547,-6.17009,8.91785,Q,Q
2023-03-15 13:06:58:767,0,-6.14054,-6.17469,8.91615,Q,Q
2023-03-15 13:06:58:777,0,-6.13066,-6.18207,8.91112,Q,Q
2023-03-15 13:06:58:787,0,-6.11909,-6.18818,8.91428,Q,Q
2023-03-15 13:06:58:797,0,-6.10721,-6.18979,8.91381,Q,Q
2023-03-15 13:06:58:807,0,-6.1005,-6.19214,8.91538,Q,Q
2023-03-15 13:06:58:817,0,-6.09634,-6.19668,8.91775,Q,Q
2023-03-15 13:06:58:827,0,-6.09176,-6.19803,8.91999,Q,Q
2023-03-15 13:06:58:837,0,-6.09105,-6.19939,8.91944,Q,Q
2023-03-15 13:06:58:847,0,-6.08595,-6.20038,8.9155,Q,Q
2023-03-15 13:06:58:857,0,-6.08243,-6.2009,8.90988,Q,Q
2023-03-15 13:06:58:867,0,-6.07818,-6.20612,8.90603,Q,Q
2023-03-15 13:06:58:877,0,-6.07192,-6.20764,8.90253,Q,Q
2023-03-15 13:06:58:887,0,-6.06707,-6.21035,8.89665,Q,Q
2023-03-15 13:06:58:897,0,-6.06153,-6.2159,8.8914,Q,Q
2023-03-15 13:06:58:907,0,-6.05376,-6.22501,8.88366,Q,Q
2023-03-15 13:06:58:917,0,-6.05213,-6.23367,8.88084,Q,Q
2023-03-15 13:06:58:927,0,-6.04774,-6.23697,8.87501,Q,Q
2023-03-15 13:06:58:937,0,-6.04491,-6.23779,8.86776,Q,Q
2023-03-15 13:06:58:947,0,-6.04516,-6.23913,8.85857,Q,Q
2023-03-15 13:06:58:957,0,-6.04378,-6.24181,8.85133,Q,Q
2023-03-15 13:06:58:967,0,-6.04466,-6.24432,8.84999,Q,Q
2023-03-15 13:06:58:977,0,-6.0463,-6.24484,8.84912,Q,Q
2023-03-15 13:06:58:987,0,-6.04871,-6.25208,8.84826,Q,Q
2023-03-15 13:06:58:997,0,-6.05337,-6.25383,8.84363,Q,Q
2023-03-15 13:06:59:7,0,-6.05647,-6.24943,8.83646,Q,Q
2023-03-15 13:06:59:17,0,-6.05966,-6.24609,8.83124,Q,Q
2023-03-15 13:06:59:27,0,-6.06192,-6.24355,8.82335,Q,Q
2023-03-15 13:06:59:37,0,-6.07007,-6.23689,8.81724,Q,Q
2023-03-15 13:06:59:47,0,-6.0767,-6.23069,8.81403,Q,Q
2023-03-15 13:06:59:57,0,-6.08638,-6.22597,8.80947,Q,Q
2023-03-15 13:06:59:68,0,-6.09382,-6.22151,8.8059,Q,Q
2023-03-15 13:06:59:77,0,-6.09996,-6.22133,8.80231,Q,Q
2023-03-15 13:06:59:87,0,-6.1051,-6.21892,8.79712,Q,Q
2023-03-15 13:06:59:97,0,-6.11111,-6.2227,8.79409,Q,Q
2023-03-15 13:06:59:107,0,-6.11294,-6.22298,8.78848,Q,Q
2023-03-15 13:06:59:117,0,-6.117,-6.22307,8.78806,Q,Q
2023-03-15 13:06:59:127,0,-6.12086,-6.22565,8.78731,Q,Q
2023-03-15 13:06:59:137,0,-6.12227,-6.22698,8.78609,Q,Q
2023-03-15 13:06:59:147,0,-6.12729,-6.22799,8.78997,Q,Q
2023-03-15 13:06:59:157,0,-6.13607,-6.22726,8.79721,Q,Q
2023-03-15 13:06:59:167,0,-6.14126,-6.22866,8.80404,Q,Q
2023-03-15 13:06:59:177,0,-6.14337,-6.22895,8.80715,Q,Q
2023-03-15 13:06:59:187,0,-6.14762,-6.23002,8.81213,Q,Q
2023-03-15 13:06:59:197,0,-6.14922,-6.23286,8.81952,Q,Q
2023-03-15 13:06:59:207,0,-6.14776,-6.23374,8.82455,Q,Q
2023-03-15 13:06:59:217,0,-6.15016,-6.23292,8.8328,Q,Q
2023-03-15 13:06:59:227,0,-6.15289,-6.23281,8.84075,Q,Q
2023-03-15 13:06:59:237,0,-6.15261,-6.23507,8.84492,Q,Q
2023-03-15 13:06:59:247,0,-6.15147,-6.23658,8.84379,Q,Q
2023-03-15 13:06:59:257,0,-6.14359,-6.2417,8.8432,Q,Q
2023-03-15 13:06:59:267,0,-6.14115,-6.24358,8.84161,Q,Q
2023-03-15 13:06:59:277,0,-6.14146,-6.24547,8.8347,Q,Q
2023-03-15 13:06:59:287,0,-6.14161,-6.2475,8.82653,Q,Q
2023-03-15 13:06:59:297,0,-6.1344,-6.24888,8.81816,Q,Q
2023-03-15 13:06:59:307,0,-6.12699,-6.255,8.80354,Q,Q
2023-03-15 13:06:59:317,0,-6.11822,-6.25423,8.78991,Q,Q
2023-03-15 13:06:59:328,0,-6.1117,-6.25361,8.77673,Q,Q
2023-03-15 13:06:59:337,0,-6.10933,-6.25012,8.76078,Q,Q
2023-03-15 13:06:59:347,0,-6.10558,-6.24865,8.74486,Q,Q
2023-03-15 13:06:59:357,0,-6.10089,-6.24799,8.72623,Q,Q
2023-03-15 13:06:59:367,0,-6.09938,-6.24693,8.70732,Q,Q
2023-03-15 13:06:59:377,0,-6.08894,-6.24396,8.69013,Q,Q
2023-03-15 13:06:59:387,0,-6.08236,-6.23928,8.6719,Q,Q
2023-03-15 13:06:59:397,0,-6.07451,-6.23324,8.65684,Q,Q
2023-03-15 13:06:59:407,0,-6.06354,-6.22583,8.64629,Q,Q
2023-03-15 13:06:59:417,0,-6.05439,-6.21871,8.63772,Q,Q
2023-03-15 13:06:59:427,0,-6.04782,-6.21073,8.6338,Q,Q
2023-03-15 13:06:59:437,0,-6.03942,-6.20582,8.63133,Q,Q
2023-03-15 13:06:59:447,0,-6.03575,-6.19816,8.63458,Q,Q
2023-03-15 13:06:59:457,0,-6.031,-6.19455,8.63912,Q,Q
2023-03-15 13:06:59:467,0,-6.02347,-6.19355,8.647,Q,Q
2023-03-15 13:06:59:477,0,-6.0152,-6.19026,8.6596,Q,Q
2023-03-15 13:06:59:487,0,-6.00384,-6.18786,8.67224,Q,Q
2023-03-15 13:06:59:497,0,-5.98813,-6.18614,8.68599,Q,Q
2023-03-15 13:06:59:507,0,-5.98049,-6.18487,8.69997,Q,Q
2023-03-15 13:06:59:517,0,-5.97167,-6.18812,8.7147,Q,Q
2023-03-15 13:06:59:527,0,-5.96387,-6.19138,8.72941,Q,Q
2023-03-15 13:06:59:537,0,-5.95481,-6.18904,8.74037,Q,Q
2023-03-15 13:06:59:547,0,-5.94355,-6.19059,8.74909,Q,Q
2023-03-15 13:06:59:557,0,-5.92739,-6.18769,8.75191,Q,Q
2023-03-15 13:06:59:567,0,-5.90948,-6.18491,8.75563,Q,Q
2023-03-15 13:06:59:577,0,-5.89351,-6.19472,8.75597,Q,Q
2023-03-15 13:06:59:587,0,-5.88123,-6.21425,8.75768,Q,Q
2023-03-15 13:06:59:597,0,-5.8693,-6.22779,8.7607,Q,Q
2023-03-15 13:06:59:607,0,-5.8552,-6.23948,8.76362,Q,Q
2023-03-15 13:06:59:617,0,-5.84098,-6.2521,8.76561,Q,Q
2023-03-15 13:06:59:627,0,-5.83001,-6.26366,8.7662,Q,Q
2023-03-15 13:06:59:637,0,-5.82452,-6.27179,8.76919,Q,Q
2023-03-15 13:06:59:647,0,-5.81789,-6.27652,8.76614,Q,Q
2023-03-15 13:06:59:657,0,-5.80757,-6.27686,8.76823,Q,Q
2023-03-15 13:06:59:667,0,-5.79664,-6.2774,8.77054,Q,Q
2023-03-15 13:06:59:677,0,-5.78454,-6.27517,8.77341,Q,Q
2023-03-15 13:06:59:687,0,-5.7744,-6.27218,8.7766,Q,Q
2023-03-15 13:06:59:697,0,-5.76653,-6.26445,8.77845,Q,Q
2023-03-15 13:06:59:707,0,-5.7599,-6.25856,8.78149,Q,Q
2023-03-15 13:06:59:717,0,-5.75587,-6.25516,8.7816,Q,Q
2023-03-15 13:06:59:727,0,-5.75385,-6.25195,8.78346,Q,Q
2023-03-15 13:06:59:737,0,-5.75342,-6.24857,8.7871,Q,Q
2023-03-15 13:06:59:747,0,-5.74841,-6.24607,8.78681,Q,Q
2023-03-15 13:06:59:757,0,-5.74296,-6.24144,8.78833,Q,Q
2023-03-15 13:06:59:767,0,-5.74124,-6.24101,8.79064,Q,Q
2023-03-15 13:06:59:777,0,-5.73964,-6.23898,8.79376,Q,Q
2023-03-15 13:06:59:787,0,-5.73628,-6.24052,8.79692,Q,Q
2023-03-15 13:06:59:797,0,-5.74269,-6.23886,8.80378,Q,Q
2023-03-15 13:06:59:807,0,-5.74337,-6.23768,8.81137,Q,Q
2023-03-15 13:06:59:817,0,-5.74999,-6.23822,8.81883,Q,Q
2023-03-15 13:06:59:827,0,-5.75106,-6.23495,8.82396,Q,Q
2023-03-15 13:06:59:837,0,-5.75315,-6.23183,8.83502,Q,Q
2023-03-15 13:06:59:847,0,-5.75344,-6.22986,8.84736,Q,Q
2023-03-15 13:06:59:857,0,-5.75903,-6.23742,8.86092,Q,Q
2023-03-15 13:06:59:867,0,-5.76403,-6.24635,8.8777,Q,Q
2023-03-15 13:06:59:877,0,-5.76645,-6.25657,8.89569,Q,Q
2023-03-15 13:06:59:887,0,-5.76811,-6.26635,8.91444,Q,Q
2023-03-15 13:06:59:897,0,-5.76221,-6.27523,8.93182,Q,Q
2023-03-15 13:06:59:907,0,-5.75555,-6.28465,8.95221,Q,Q
2023-03-15 13:06:59:917,0,-5.74694,-6.29358,8.96622,Q,Q
2023-03-15 13:06:59:927,0,-5.73864,-6.29935,8.97996,Q,Q
2023-03-15 13:06:59:937,0,-5.72745,-6.30045,8.99069,Q,Q
2023-03-15 13:06:59:947,0,-5.71224,-6.30382,8.99906,Q,Q
2023-03-15 13:06:59:957,0,-5.69847,-6.31014,9.00812,Q,Q
2023-03-15 13:06:59:967,0,-5.69306,-6.31855,9.01425,Q,Q
2023-03-15 13:06:59:977,0,-5.68481,-6.32816,9.01711,Q,Q
2023-03-15 13:06:59:987,0,-5.67629,-6.33655,9.02328,Q,Q
2023-03-15 13:06:59:997,0,-5.66826,-6.34249,9.0253,Q,Q
2023-03-15 13:07:00:7,0,-5.65799,-6.35096,9.02455,Q,Q
2023-03-15 13:07:00:17,0,-5.64696,-6.36113,9.02183,Q,Q
2023-03-15 13:07:00:27,0,-5.63817,-6.36997,9.02047,Q,Q
2023-03-15 13:07:00:37,0,-5.62901,-6.37605,9.02133,Q,Q
2023-03-15 13:07:00:47,0,-5.62038,-6.38299,9.02403,Q,Q
2023-03-15 13:07:00:57,0,-5.61475,-6.38397,9.025,Q,Q
2023-03-15 13:07:00:67,0,-5.61231,-6.3835,9.0247,Q,Q
2023-03-15 13:07:00:77,0,-5.60854,-6.38449,9.02529,Q,Q
2023-03-15 13:07:00:87,0,-5.61021,-6.38074,9.02287,Q,Q
2023-03-15 13:07:00:97,0,-5.61648,-6.37699,9.01734,Q,Q
2023-03-15 13:07:00:107,0,-5.62035,-6.36866,9.01209,Q,Q
2023-03-15 13:07:00:117,0,-5.6275,-6.35481,9.00136,Q,Q
2023-03-15 13:07:00:127,0,-5.63365,-6.34394,8.99504,Q,Q
2023-03-15 13:07:00:137,0,-5.64452,-6.33542,8.98498,Q,Q
2023-03-15 13:07:00:147,0,-5.65459,-6.32371,8.97392,Q,Q
2023-03-15 13:07:00:157,0,-5.66408,-6.31464,8.9618,Q,Q
2023-03-15 13:07:00:167,0,-5.67713,-6.30382,8.95285,Q,Q
2023-03-15 13:07:00:177,0,-5.69525,-6.29744,8.94578,Q,Q
2023-03-15 13:07:00:187,0,-5.71242,-6.29012,8.93695,Q,Q
2023-03-15 13:07:00:197,0,-5.7266,-6.28025,8.92394,Q,Q
2023-03-15 13:07:00:207,0,-5.74068,-6.26767,8.91108,Q,Q
2023-03-15 13:07:00:217,0,-5.7553,-6.25247,8.90037,Q,Q
2023-03-15 13:07:00:227,0,-5.76974,-6.23614,8.89095,Q,Q
2023-03-15 13:07:00:237,0,-5.78184,-6.2215,8.8799,Q,Q
2023-03-15 13:07:00:247,0,-5.79648,-6.20691,8.86892,Q,Q
2023-03-15 13:07:00:257,0,-5.8116,-6.19451,8.85627,Q,Q
2023-03-15 13:07:00:267,0,-5.82372,-6.18379,8.8425,Q,Q
2023-03-15 13:07:00:277,0,-5.83582,-6.16817,8.83145,Q,Q
2023-03-15 13:07:00:287,0,-5.84024,-6.15729,8.81809,Q,Q
2023-03-15 13:07:00:297,0,-5.84013,-6.15807,8.8046,Q,Q
2023-03-15 13:07:00:307,0,-5.84063,-6.15534,8.79459,Q,Q
2023-03-15 13:07:00:317,0,-5.83961,-6.14331,8.77762,Q,Q
2023-03-15 13:07:00:327,0,-5.83708,-6.13767,8.76306,Q,Q
2023-03-15 13:07:00:337,0,-5.83676,-6.12905,8.75267,Q,Q
2023-03-15 13:07:00:350,0,-5.8369,-6.12259,8.74493,Q,Q
2023-03-15 13:07:00:357,0,-5.84015,-6.1175,8.73977,Q,Q
2023-03-15 13:07:00:367,0,-5.83859,-6.10723,8.73089,Q,Q
2023-03-15 13:07:00:377,0,-5.83239,-6.09809,8.72158,Q,Q
2023-03-15 13:07:00:387,0,-5.82412,-6.0868,8.71406,Q,Q
2023-03-15 13:07:00:397,0,-5.8158,-6.0705,8.70576,Q,Q
2023-03-15 13:07:00:407,0,-5.8029,-6.05739,8.69622,Q,Q
2023-03-15 13:07:00:417,0,-5.78465,-6.04354,8.68685,Q,Q
2023-03-15 13:07:00:427,0,-5.76441,-6.02779,8.67938,Q,Q
2023-03-15 13:07:00:437,0,-5.73978,-6.01058,8.66707,Q,Q
2023-03-15 13:07:00:447,0,-5.71902,-5.9965,8.65698,Q,Q
2023-03-15 13:07:00:457,0,-5.7015,-5.98264,8.64903,Q,Q
2023-03-15 13:07:00:467,0,-5.68332,-5.9709,8.64472,Q,Q
2023-03-15 13:07:00:477,0,-5.66442,-5.96012,8.64254,Q,Q
2023-03-15 13:07:00:487,0,-5.64928,-5.95502,8.65164,Q,Q
2023-03-15 13:07:00:497,0,-5.63397,-5.95819,8.66776,Q,Q
2023-03-15 13:07:00:507,0,-5.62307,-5.96722,8.68742,Q,Q
2023-03-15 13:07:00:517,0,-5.61338,-5.97704,8.71045,Q,Q
2023-03-15 13:07:00:527,0,-5.606,-5.98271,8.74102,Q,Q
2023-03-15 13:07:00:537,0,-5.60151,-5.9886,8.7699,Q,Q
2023-03-15 13:07:00:547,0,-5.5973,-5.99259,8.79466,Q,Q
2023-03-15 13:07:00:557,0,-5.59309,-5.99557,8.82003,Q,Q
2023-03-15 13:07:00:567,0,-5.59101,-5.99763,8.84538,Q,Q
2023-03-15 13:07:00:577,0,-5.58779,-6.00338,8.87338,Q,Q
2023-03-15 13:07:00:587,0,-5.58625,-6.01097,8.89317,Q,Q
2023-03-15 13:07:00:597,0,-5.58829,-6.02074,8.91058,Q,Q
2023-03-15 13:07:00:607,0,-5.58841,-6.02672,8.91911,Q,Q
2023-03-15 13:07:00:617,0,-5.5888,-6.02943,8.92591,Q,Q
2023-03-15 13:07:00:627,0,-5.59378,-6.03312,8.92839,Q,Q
2023-03-15 13:07:00:637,0,-5.59594,-6.0375,8.9224,Q,Q
2023-03-15 13:07:00:647,0,-5.60057,-6.04353,8.91345,Q,Q
2023-03-15 13:07:00:657,0,-5.59832,-6.04662,8.89989,Q,Q
2023-03-15 13:07:00:667,0,-5.59355,-6.04985,8.88911,Q,Q
2023-03-15 13:07:00:677,0,-5.58692,-6.05433,8.8752,Q,Q
2023-03-15 13:07:00:687,0,-5.57884,-6.05658,8.86293,Q,Q
2023-03-15 13:07:00:697,0,-5.57128,-6.0554,8.85804,Q,Q
2023-03-15 13:07:00:707,0,-5.56511,-6.05884,8.85545,Q,Q
2023-03-15 13:07:00:717,0,-5.56332,-6.06022,8.85551,Q,Q
2023-03-15 13:07:00:727,0,-5.56524,-6.05812,8.85733,Q,Q
2023-03-15 13:07:00:737,0,-5.56509,-6.05427,8.8584,Q,Q
2023-03-15 13:07:00:747,0,-5.56397,-6.04865,8.86261,Q,Q
2023-03-15 13:07:00:757,0,-5.55949,-6.04371,8.87241,Q,Q
2023-03-15 13:07:00:767,0,-5.56198,-6.04121,8.88523,Q,Q
2023-03-15 13:07:00:777,0,-5.56454,-6.03898,8.90294,Q,Q
2023-03-15 13:07:00:787,0,-5.57025,-6.04804,8.92086,Q,Q
2023-03-15 13:07:00:797,0,-5.57941,-6.05661,8.93786,Q,Q
2023-03-15 13:07:00:807,0,-5.58451,-6.05601,8.95539,Q,Q
2023-03-15 13:07:00:817,0,-5.58403,-6.05417,8.96964,Q,Q
2023-03-15 13:07:00:827,0,-5.58327,-6.05921,8.98475,Q,Q
2023-03-15 13:07:00:837,0,-5.58244,-6.06096,8.99692,Q,Q
2023-03-15 13:07:00:847,0,-5.58286,-6.06144,9.00799,Q,Q
2023-03-15 13:07:00:857,0,-5.57902,-6.06737,9.0153,Q,Q
2023-03-15 13:07:00:867,0,-5.57234,-6.06843,9.02372,Q,Q
2023-03-15 13:07:00:877,0,-5.56906,-6.07177,9.03038,Q,Q
2023-03-15 13:07:00:887,0,-5.56549,-6.07609,9.03192,Q,Q
2023-03-15 13:07:00:897,0,-5.56309,-6.07955,9.03206,Q,Q
2023-03-15 13:07:00:907,0,-5.56137,-6.08265,9.03062,Q,Q
2023-03-15 13:07:00:917,0,-5.55992,-6.08614,9.02757,Q,Q
2023-03-15 13:07:00:927,0,-5.55985,-6.0854,9.02397,Q,Q
2023-03-15 13:07:00:937,0,-5.56321,-6.08276,9.02091,Q,Q
2023-03-15 13:07:00:947,0,-5.56435,-6.08023,9.02007,Q,Q
2023-03-15 13:07:00:957,0,-5.56923,-6.0769,9.0153,Q,Q
2023-03-15 13:07:00:967,0,-5.57151,-6.07215,9.01241,Q,Q
2023-03-15 13:07:00:977,0,-5.57999,-6.0674,9.01046,Q,Q
2023-03-15 13:07:00:987,0,-5.58388,-6.06395,9.00828,Q,Q
2023-03-15 13:07:00:997,0,-5.59041,-6.06087,9.00161,Q,Q
2023-03-15 13:07:01:7,0,-5.5942,-6.05558,8.99169,Q,Q
2023-03-15 13:07:01:17,0,-5.59815,-6.05202,8.98002,Q,Q
2023-03-15 13:07:01:27,0,-5.59402,-6.0476,8.96204,Q,Q
2023-03-15 13:07:01:37,0,-5.59637,-6.04566,8.94213,Q,Q
2023-03-15 13:07:01:47,0,-5.59911,-6.03801,8.91907,Q,Q
2023-03-15 13:07:01:57,0,-5.6034,-6.02981,8.89387,Q,Q
2023-03-15 13:07:01:67,0,-5.60646,-6.01996,8.8692,Q,Q
2023-03-15 13:07:01:77,0,-5.60591,-6.01101,8.84909,Q,Q
2023-03-15 13:07:01:87,0,-5.61004,-6.0008,8.83277,Q,Q
2023-03-15 13:07:01:97,0,-5.61333,-5.99142,8.82182,Q,Q
2023-03-15 13:07:01:107,0,-5.61532,-5.98536,8.81313,Q,Q
2023-03-15 13:07:01:117,0,-5.61467,-5.98287,8.80728,Q,Q
2023-03-15 13:07:01:127,0,-5.61111,-5.97843,8.80303,Q,Q
2023-03-15 13:07:01:137,0,-5.61322,-5.97203,8.79579,Q,Q
2023-03-15 13:07:01:147,0,-5.61555,-5.96451,8.79029,Q,Q
2023-03-15 13:07:01:157,0,-5.6154,-5.96212,8.78137,Q,Q
2023-03-15 13:07:01:167,0,-5.61769,-5.95982,8.77444,Q,Q
2023-03-15 13:07:01:177,0,-5.62261,-5.95765,8.76555,Q,Q
2023-03-15 13:07:01:187,0,-5.63028,-5.9549,8.75768,Q,Q
2023-03-15 13:07:01:197,0,-5.63375,-5.95517,8.75209,Q,Q
2023-03-15 13:07:01:207,0,-5.63431,-5.95296,8.74853,Q,Q
2023-03-15 13:07:01:217,0,-5.63747,-5.95536,8.7471,Q,Q
2023-03-15 13:07:01:227,0,-5.63903,-5.95864,8.74571,Q,Q
2023-03-15 13:07:01:237,0,-5.63874,-5.96572,8.75123,Q,Q
2023-03-15 13:07:01:247,0,-5.63814,-5.97049,8.75468,Q,Q
2023-03-15 13:07:01:257,0,-5.63731,-5.97235,8.75952,Q,Q
2023-03-15 13:07:01:267,0,-5.63384,-5.97985,8.76928,Q,Q
2023-03-15 13:07:01:277,0,-5.63116,-5.98669,8.77815,Q,Q
2023-03-15 13:07:01:287,0,-5.63556,-5.99888,8.78784,Q,Q
2023-03-15 13:07:01:297,0,-5.64285,-6.00729,8.79405,Q,Q
2023-03-15 13:07:01:307,0,-5.6584,-6.0127,8.79826,Q,Q
2023-03-15 13:07:01:317,0,-5.67037,-6.01289,8.80543,Q,Q
2023-03-15 13:07:01:327,0,-5.68044,-6.01779,8.80951,Q,Q
2023-03-15 13:07:01:337,0,-5.69331,-6.02055,8.81284,Q,Q
2023-03-15 13:07:01:347,0,-5.70856,-6.01819,8.8153,Q,Q
2023-03-15 13:07:01:357,0,-5.72045,-6.01718,8.81484,Q,Q
2023-03-15 13:07:01:367,0,-5.73216,-6.01223,8.81519,Q,Q
2023-03-15 13:07:01:377,0,-5.74131,-6.00934,8.81213,Q,Q
2023-03-15 13:07:01:387,0,-5.74947,-6.0101,8.81042,Q,Q
2023-03-15 13:07:01:397,0,-5.75302,-6.01551,8.81362,Q,Q
2023-03-15 13:07:01:407,0,-5.75877,-6.02447,8.81306,Q,Q
2023-03-15 13:07:01:417,0,-5.76328,-6.03362,8.81628,Q,Q
2023-03-15 13:07:01:427,0,-5.76327,-6.0424,8.8235,Q,Q
2023-03-15 13:07:01:437,0,-5.76818,-6.04635,8.82536,Q,Q
2023-03-15 13:07:01:447,0,-5.77177,-6.04926,8.82964,Q,Q
2023-03-15 13:07:01:457,0,-5.78242,-6.05109,8.8349,Q,Q
2023-03-15 13:07:01:467,0,-5.78757,-6.04907,8.83995,Q,Q
2023-03-15 13:07:01:477,0,-5.78935,-6.05069,8.84694,Q,Q
2023-03-15 13:07:01:487,0,-5.78806,-6.04988,8.85298,Q,Q
2023-03-15 13:07:01:497,0,-5.79106,-6.04836,8.85602,Q,Q
2023-03-15 13:07:01:507,0,-5.79004,-6.04326,8.85568,Q,Q
2023-03-15 13:07:01:517,0,-5.78736,-6.0408,8.85432,Q,Q
2023-03-15 13:07:01:527,0,-5.78705,-6.03957,8.85261,Q,Q
2023-03-15 13:07:01:537,0,-5.78827,-6.0392,8.85281,Q,Q
2023-03-15 13:07:01:547,0,-5.7898,-6.0372,8.85424,Q,Q
2023-03-15 13:07:01:557,0,-5.79554,-6.04219,8.85372,Q,Q
2023-03-15 13:07:01:567,0,-5.80023,-6.04433,8.85178,Q,Q
2023-03-15 13:07:01:577,0,-5.80633,-6.04778,8.8456,Q,Q
2023-03-15 13:07:01:587,0,-5.80647,-6.05189,8.84028,Q,Q
2023-03-15 13:07:01:597,0,-5.80978,-6.05662,8.84006,Q,Q
2023-03-15 13:07:01:607,0,-5.80775,-6.05992,8.84128,Q,Q
2023-03-15 13:07:01:617,0,-5.80908,-6.06589,8.84177,Q,Q
2023-03-15 13:07:01:627,0,-5.81032,-6.06907,8.84253,Q,Q
2023-03-15 13:07:01:637,0,-5.80646,-6.07067,8.84167,Q,Q
2023-03-15 13:07:01:647,0,-5.8046,-6.07118,8.83957,Q,Q
2023-03-15 13:07:01:657,0,-5.80207,-6.07436,8.83872,Q,Q
2023-03-15 13:07:01:667,0,-5.80466,-6.08145,8.83925,Q,Q
2023-03-15 13:07:01:677,0,-5.80129,-6.0836,8.8397,Q,Q
2023-03-15 13:07:01:687,0,-5.79265,-6.0835,8.83922,Q,Q
2023-03-15 13:07:01:697,0,-5.78362,-6.08272,8.84195,Q,Q
2023-03-15 13:07:01:707,0,-5.77588,-6.08044,8.84851,Q,Q
2023-03-15 13:07:01:717,0,-5.76831,-6.07769,8.85191,Q,Q
2023-03-15 13:07:01:727,0,-5.76035,-6.07177,8.85984,Q,Q
2023-03-15 13:07:01:737,0,-5.75283,-6.06242,8.86457,Q,Q
2023-03-15 13:07:01:747,0,-5.74887,-6.0575,8.87032,Q,Q
2023-03-15 13:07:01:757,0,-5.75071,-6.05287,8.87406,Q,Q
2023-03-15 13:07:01:767,0,-5.75355,-6.05172,8.8762,Q,Q
2023-03-15 13:07:01:777,0,-5.7521,-6.05216,8.87652,Q,Q
2023-03-15 13:07:01:787,0,-5.75242,-6.05639,8.87409,Q,Q
2023-03-15 13:07:01:797,0,-5.74967,-6.06049,8.87212,Q,Q
2023-03-15 13:07:01:807,0,-5.74623,-6.06624,8.86771,Q,Q
2023-03-15 13:07:01:817,0,-5.74512,-6.07629,8.8629,Q,Q
2023-03-15 13:07:01:827,0,-5.75035,-6.08968,8.8616,Q,Q
2023-03-15 13:07:01:837,0,-5.75498,-6.10297,8.8585,Q,Q
2023-03-15 13:07:01:847,0,-5.76621,-6.12032,8.8594,Q,Q
2023-03-15 13:07:01:857,0,-5.78251,-6.138,8.85643,Q,Q
2023-03-15 13:07:01:867,0,-5.80102,-6.15832,8.85253,Q,Q
2023-03-15 13:07:01:877,0,-5.8176,-6.17931,8.84779,Q,Q
2023-03-15 13:07:01:887,0,-5.83367,-6.19501,8.84428,Q,Q
2023-03-15 13:07:01:897,0,-5.85305,-6.20542,8.83557,Q,Q
2023-03-15 13:07:01:907,0,-5.86495,-6.21123,8.82179,Q,Q
2023-03-15 13:07:01:917,0,-5.87574,-6.2135,8.80672,Q,Q
2023-03-15 13:07:01:927,0,-5.88086,-6.2099,8.78362,Q,Q
2023-03-15 13:07:01:937,0,-5.87892,-6.20365,8.75828,Q,Q
2023-03-15 13:07:01:947,0,-5.87395,-6.19433,8.72685,Q,Q
2023-03-15 13:07:01:957,0,-5.86265,-6.18634,8.69403,Q,Q
2023-03-15 13:07:01:967,0,-5.84917,-6.17613,8.65464,Q,Q
2023-03-15 13:07:01:977,0,-5.83209,-6.16775,8.61127,Q,Q
2023-03-15 13:07:01:987,0,-5.81601,-6.16496,8.56345,Q,Q
2023-03-15 13:07:01:997,0,-5.80006,-6.15284,8.5113,Q,Q
2023-03-15 13:07:02:7,0,-5.78682,-6.14416,8.45659,Q,Q
2023-03-15 13:07:02:17,0,-5.77182,-6.13187,8.39891,Q,Q
2023-03-15 13:07:02:27,0,-5.75679,-6.11662,8.33252,Q,Q
2023-03-15 13:07:02:37,0,-5.74219,-6.09743,8.26733,Q,Q
2023-03-15 13:07:02:47,0,-5.73154,-6.08061,8.20391,Q,Q
2023-03-15 13:07:02:57,0,-5.71637,-6.06257,8.13972,Q,Q
2023-03-15 13:07:02:67,0,-5.70114,-6.04421,8.07707,Q,Q
2023-03-15 13:07:02:77,0,-5.6885,-6.02714,8.01988,Q,Q
2023-03-15 13:07:02:87,0,-5.67336,-6.01361,7.96176,Q,Q
2023-03-15 13:07:02:97,0,-5.65738,-5.99656,7.9106,Q,Q
2023-03-15 13:07:02:107,0,-5.64565,-5.97094,7.86729,Q,Q
2023-03-15 13:07:02:117,0,-5.63301,-5.9392,7.82659,Q,Q
2023-03-15 13:07:02:127,0,-5.62128,-5.91343,7.78844,Q,Q
2023-03-15 13:07:02:137,0,-5.61095,-5.89575,7.75629,Q,Q
2023-03-15 13:07:02:147,0,-5.59837,-5.88362,7.72689,Q,Q
2023-03-15 13:07:02:157,0,-5.58252,-5.86748,7.69475,Q,Q
2023-03-15 13:07:02:167,0,-5.55789,-5.84479,7.66288,Q,Q
2023-03-15 13:07:02:177,0,-5.53225,-5.81508,7.63026,Q,Q
2023-03-15 13:07:02:187,0,-5.50439,-5.79125,7.59703,Q,Q
2023-03-15 13:07:02:197,0,-5.48683,-5.76858,7.5622,Q,Q
2023-03-15 13:07:02:207,0,-5.46932,-5.75116,7.52077,Q,Q
2023-03-15 13:07:02:217,0,-5.45526,-5.73107,7.47957,Q,Q
2023-03-15 13:07:02:227,0,-5.44303,-5.71139,7.4373,Q,Q
2023-03-15 13:07:02:237,0,-5.4321,-5.69301,7.40062,Q,Q
2023-03-15 13:07:02:247,0,-5.42013,-5.67376,7.35828,Q,Q
2023-03-15 13:07:02:257,0,-5.41117,-5.65299,7.3165,Q,Q
2023-03-15 13:07:02:267,0,-5.40365,-5.63433,7.27777,Q,Q
2023-03-15 13:07:02:277,0,-5.39224,-5.61989,7.24533,Q,Q
2023-03-15 13:07:02:287,0,-5.38005,-5.61172,7.21965,Q,Q
2023-03-15 13:07:02:297,0,-5.36872,-5.61181,7.20852,Q,Q
2023-03-15 13:07:02:307,0,-5.36613,-5.61625,7.20459,Q,Q
2023-03-15 13:07:02:317,0,-5.36531,-5.61677,7.20934,Q,Q
2023-03-15 13:07:02:327,0,-5.36694,-5.62108,7.22198,Q,Q
2023-03-15 13:07:02:337,0,-5.37584,-5.62357,7.24154,Q,Q
2023-03-15 13:07:02:347,0,-5.38975,-5.62884,7.26589,Q,Q
2023-03-15 13:07:02:357,0,-5.40965,-5.6304,7.2977,Q,Q
2023-03-15 13:07:02:367,0,-5.42972,-5.6332,7.33687,Q,Q
2023-03-15 13:07:02:377,0,-5.45007,-5.63778,7.37812,Q,Q
2023-03-15 13:07:02:387,0,-5.47302,-5.6428,7.42139,Q,Q
2023-03-15 13:07:02:397,0,-5.49664,-5.64462,7.45881,Q,Q
2023-03-15 13:07:02:407,0,-5.52039,-5.64962,7.49845,Q,Q
2023-03-15 13:07:02:417,0,-5.54454,-5.65213,7.5337,Q,Q
2023-03-15 13:07:02:427,0,-5.57234,-5.65611,7.56764,Q,Q
2023-03-15 13:07:02:437,0,-5.60051,-5.66332,7.59752,Q,Q
2023-03-15 13:07:02:447,0,-5.62809,-5.67269,7.62236,Q,Q
2023-03-15 13:07:02:457,0,-5.65339,-5.68005,7.64806,Q,Q
2023-03-15 13:07:02:467,0,-5.67843,-5.69233,7.66792,Q,Q
2023-03-15 13:07:02:477,0,-5.69915,-5.70228,7.68486,Q,Q
2023-03-15 13:07:02:487,0,-5.71692,-5.72007,7.70157,Q,Q
2023-03-15 13:07:02:497,0,-5.73415,-5.73244,7.71767,Q,Q
2023-03-15 13:07:02:507,0,-5.74319,-5.73787,7.73539,Q,Q
2023-03-15 13:07:02:517,0,-5.75048,-5.74108,7.75014,Q,Q
2023-03-15 13:07:02:527,0,-5.75553,-5.7445,7.76044,Q,Q
2023-03-15 13:07:02:537,0,-5.75776,-5.74148,7.77262,Q,Q
2023-03-15 13:07:02:547,0,-5.7659,-5.73838,7.78552,Q,Q
2023-03-15 13:07:02:557,0,-5.7764,-5.73822,7.80337,Q,Q
2023-03-15 13:07:02:567,0,-5.78905,-5.73743,7.81737,Q,Q
2023-03-15 13:07:02:577,0,-5.80473,-5.73299,7.82945,Q,Q
2023-03-15 13:07:02:587,0,-5.82038,-5.73309,7.83705,Q,Q
2023-03-15 13:07:02:597,0,-5.83725,-5.7323,7.83948,Q,Q
2023-03-15 13:07:02:607,0,-5.85712,-5.72778,7.83782,Q,Q
2023-03-15 13:07:02:617,0,-5.87963,-5.72519,7.83177,Q,Q
2023-03-15 13:07:02:627,0,-5.90302,-5.71973,7.82289,Q,Q
2023-03-15 13:07:02:637,0,-5.9216,-5.71745,7.81194,Q,Q
2023-03-15 13:07:02:647,0,-5.94411,-5.71613,7.79807,Q,Q
2023-03-15 13:07:02:657,0,-5.96582,-5.7181,7.78027,Q,Q
2023-03-15 13:07:02:667,0,-5.98819,-5.72585,7.76472,Q,Q
2023-03-15 13:07:02:677,0,-6.01197,-5.72816,7.75329,Q,Q
2023-03-15 13:07:02:687,0,-6.03451,-5.72679,7.74187,Q,Q
2023-03-15 13:07:02:697,0,-6.0516,-5.72495,7.72996,Q,Q
2023-03-15 13:07:02:707,0,-6.0683,-5.72646,7.71965,Q,Q
2023-03-15 13:07:02:717,0,-6.087,-5.72832,7.71584,Q,Q
2023-03-15 13:07:02:727,0,-6.10376,-5.73215,7.71283,Q,Q
2023-03-15 13:07:02:737,0,-6.11741,-5.7325,7.7133,Q,Q
2023-03-15 13:07:02:747,0,-6.12695,-5.73263,7.71582,Q,Q
2023-03-15 13:07:02:757,0,-6.13322,-5.72855,7.71835,Q,Q
2023-03-15 13:07:02:767,0,-6.13786,-5.72629,7.7259,Q,Q
2023-03-15 13:07:02:777,0,-6.14159,-5.71842,7.72896,Q,Q
2023-03-15 13:07:02:787,0,-6.1486,-5.70644,7.73261,Q,Q
2023-03-15 13:07:02:797,0,-6.15627,-5.69429,7.73323,Q,Q
2023-03-15 13:07:02:807,0,-6.15995,-5.6843,7.73791,Q,Q
2023-03-15 13:07:02:817,0,-6.17168,-5.67207,7.74199,Q,Q
2023-03-15 13:07:02:827,0,-6.18038,-5.65924,7.7426,Q,Q
2023-03-15 13:07:02:837,0,-6.1899,-5.64951,7.74423,Q,Q
2023-03-15 13:07:02:847,0,-6.20235,-5.64073,7.74607,Q,Q
2023-03-15 13:07:02:857,0,-6.21579,-5.63419,7.74336,Q,Q
2023-03-15 13:07:02:867,0,-6.2285,-5.62566,7.74168,Q,Q
2023-03-15 13:07:02:877,0,-6.24158,-5.61806,7.73907,Q,Q
2023-03-15 13:07:02:887,0,-6.25269,-5.61344,7.7297,Q,Q
2023-03-15 13:07:02:897,0,-6.26213,-5.60628,7.72208,Q,Q
2023-03-15 13:07:02:907,0,-6.27191,-5.60453,7.71421,Q,Q
2023-03-15 13:07:02:917,0,-6.27979,-5.60137,7.70397,Q,Q
2023-03-15 13:07:02:927,0,-6.2878,-5.5939,7.69355,Q,Q
2023-03-15 13:07:02:937,0,-6.29649,-5.58922,7.68801,Q,Q
2023-03-15 13:07:02:947,0,-6.30644,-5.58355,7.68133,Q,Q
2023-03-15 13:07:02:957,0,-6.318,-5.58232,7.67131,Q,Q
2023-03-15 13:07:02:967,0,-6.32896,-5.58174,7.66064,Q,Q
2023-03-15 13:07:02:977,0,-6.33613,-5.58574,7.65958,Q,Q
2023-03-15 13:07:02:987,0,-6.34296,-5.58845,7.65703,Q,Q
2023-03-15 13:07:02:997,0,-6.34506,-5.59037,7.65006,Q,Q
2023-03-15 13:07:03:7,0,-6.34574,-5.59194,7.64501,Q,Q
2023-03-15 13:07:03:17,0,-6.34293,-5.59445,7.63876,Q,Q
2023-03-15 13:07:03:27,0,-6.33973,-5.60268,7.6337,Q,Q
2023-03-15 13:07:03:37,0,-6.33652,-5.61,7.631,Q,Q
2023-03-15 13:07:03:47,0,-6.33342,-5.61174,7.62489,Q,Q
2023-03-15 13:07:03:57,0,-6.33123,-5.61336,7.61676,Q,Q
2023-03-15 13:07:03:67,0,-6.32653,-5.61701,7.61518,Q,Q
2023-03-15 13:07:03:77,0,-6.32366,-5.61638,7.61071,Q,Q
2023-03-15 13:07:03:87,0,-6.31691,-5.61516,7.60684,Q,Q
2023-03-15 13:07:03:97,0,-6.30696,-5.6163,7.60839,Q,Q
2023-03-15 13:07:03:107,0,-6.2972,-5.6247,7.61529,Q,Q
2023-03-15 13:07:03:117,0,-6.29198,-5.6385,7.62466,Q,Q
2023-03-15 13:07:03:127,0,-6.28957,-5.64885,7.63301,Q,Q
2023-03-15 13:07:03:137,0,-6.28646,-5.65946,7.64565,Q,Q
2023-03-15 13:07:03:147,0,-6.28849,-5.66982,7.65699,Q,Q
2023-03-15 13:07:03:157,0,-6.29547,-5.67278,7.66807,Q,Q
2023-03-15 13:07:03:167,0,-6.29902,-5.67146,7.68046,Q,Q
2023-03-15 13:07:03:177,0,-6.30559,-5.67293,7.69214,Q,Q
2023-03-15 13:07:03:187,0,-6.31073,-5.67427,7.70348,Q,Q
2023-03-15 13:07:03:197,0,-6.31384,-5.67403,7.71646,Q,Q
2023-03-15 13:07:03:207,0,-6.32062,-5.67455,7.72892,Q,Q
2023-03-15 13:07:03:217,0,-6.33034,-5.67145,7.73863,Q,Q
2023-03-15 13:07:03:227,0,-6.34061,-5.6679,7.74691,Q,Q
2023-03-15 13:07:03:237,0,-6.35454,-5.66824,7.75019,Q,Q
2023-03-15 13:07:03:247,0,-6.3735,-5.67662,7.75483,Q,Q
2023-03-15 13:07:03:257,0,-6.38927,-5.68386,7.75684,Q,Q
2023-03-15 13:07:03:267,0,-6.4012,-5.69908,7.76082,Q,Q
2023-03-15 13:07:03:277,0,-6.40901,-5.71209,7.75643,Q,Q
2023-03-15 13:07:03:287,0,-6.41401,-5.71212,7.7556,Q,Q
2023-03-15 13:07:03:297,0,-6.41655,-5.71758,7.75636,Q,Q
2023-03-15 13:07:03:307,0,-6.41703,-5.72349,7.75528,Q,Q
2023-03-15 13:07:03:317,0,-6.42516,-5.73013,7.75707,Q,Q
2023-03-15 13:07:03:327,0,-6.43171,-5.73547,7.75671,Q,Q
2023-03-15 13:07:03:337,0,-6.43467,-5.73694,7.75647,Q,Q
2023-03-15 13:07:03:347,0,-6.43336,-5.73514,7.75631,Q,Q
2023-03-15 13:07:03:357,0,-6.42774,-5.73855,7.75446,Q,Q
2023-03-15 13:07:03:367,0,-6.42213,-5.74409,7.75663,Q,Q
2023-03-15 13:07:03:377,0,-6.41813,-5.75476,7.75873,Q,Q
2023-03-15 13:07:03:387,0,-6.41413,-5.76383,7.76386,Q,Q
2023-03-15 13:07:03:397,0,-6.41019,-5.77174,7.76762,Q,Q
2023-03-15 13:07:03:407,0,-6.40131,-5.7782,7.76914,Q,Q
2023-03-15 13:07:03:417,0,-6.39222,-5.78399,7.76687,Q,Q
2023-03-15 13:07:03:427,0,-6.38497,-5.78731,7.76546,Q,Q
2023-03-15 13:07:03:437,0,-6.38005,-5.78659,7.76002,Q,Q
2023-03-15 13:07:03:447,0,-6.37354,-5.7862,7.75497,Q,Q
2023-03-15 13:07:03:457,0,-6.3719,-5.7855,7.75227,Q,Q
2023-03-15 13:07:03:467,0,-6.3665,-5.78573,7.7481,Q,Q
2023-03-15 13:07:03:477,0,-6.35846,-5.78916,7.74264,Q,Q
2023-03-15 13:07:03:487,0,-6.35366,-5.79187,7.73928,Q,Q
2023-03-15 13:07:03:497,0,-6.34667,-5.79577,7.73778,Q,Q
2023-03-15 13:07:03:507,0,-6.33779,-5.8008,7.73535,Q,Q
2023-03-15 13:07:03:517,0,-6.32921,-5.8057,7.73791,Q,Q
2023-03-15 13:07:03:527,0,-6.32313,-5.81171,7.74199,Q,Q
2023-03-15 13:07:03:537,0,-6.32053,-5.81842,7.74361,Q,Q
2023-03-15 13:07:03:547,0,-6.31692,-5.82197,7.74673,Q,Q
2023-03-15 13:07:03:557,0,-6.31809,-5.82355,7.75746,Q,Q
2023-03-15 13:07:03:567,0,-6.31579,-5.82295,7.76699,Q,Q
2023-03-15 13:07:03:577,0,-6.31427,-5.8225,7.77629,Q,Q
2023-03-15 13:07:03:587,0,-6.3145,-5.82256,7.78127,Q,Q
2023-03-15 13:07:03:597,0,-6.31433,-5.82029,7.7879,Q,Q
2023-03-15 13:07:03:607,0,-6.31162,-5.82146,7.79278,Q,Q
2023-03-15 13:07:03:617,0,-6.30712,-5.81844,7.79587,Q,Q
2023-03-15 13:07:03:627,0,-6.30676,-5.81655,7.80073,Q,Q
2023-03-15 13:07:03:637,0,-6.30613,-5.81401,7.80054,Q,Q
2023-03-15 13:07:03:647,0,-6.31075,-5.81265,7.79848,Q,Q
2023-03-15 13:07:03:657,0,-6.31037,-5.80953,7.7991,Q,Q
2023-03-15 13:07:03:667,0,-6.31466,-5.80675,7.79754,Q,Q
2023-03-15 13:07:03:677,0,-6.32105,-5.80998,7.79578,Q,Q
2023-03-15 13:07:03:687,0,-6.32774,-5.80878,7.7944,Q,Q
2023-03-15 13:07:03:697,0,-6.33507,-5.80548,7.79363,Q,Q
2023-03-15 13:07:03:707,0,-6.34498,-5.80514,7.79115,Q,Q
2023-03-15 13:07:03:717,0,-6.35022,-5.80302,7.78659,Q,Q
2023-03-15 13:07:03:727,0,-6.35896,-5.79948,7.78402,Q,Q
2023-03-15 13:07:03:737,0,-6.36575,-5.7984,7.78073,Q,Q
2023-03-15 13:07:03:747,0,-6.37614,-5.79802,7.77539,Q,Q
2023-03-15 13:07:03:757,0,-6.38728,-5.79462,7.77073,Q,Q
2023-03-15 13:07:03:767,0,-6.39352,-5.79236,7.76985,Q,Q
2023-03-15 13:07:03:777,0,-6.40211,-5.79001,7.76853,Q,Q
2023-03-15 13:07:03:787,0,-6.41005,-5.78805,7.76448,Q,Q
2023-03-15 13:07:03:797,0,-6.41492,-5.78941,7.76121,Q,Q
2023-03-15 13:07:03:807,0,-6.42406,-5.78847,7.75936,Q,Q
2023-03-15 13:07:03:817,0,-6.43069,-5.78717,7.75755,Q,Q
2023-03-15 13:07:03:827,0,-6.43611,-5.78627,7.75873,Q,Q
2023-03-15 13:07:03:837,0,-6.43791,-5.78313,7.75633,Q,Q
2023-03-15 13:07:03:847,0,-6.44048,-5.77962,7.75207,Q,Q
2023-03-15 13:07:03:857,0,-6.44224,-5.77817,7.75115,Q,Q
2023-03-15 13:07:03:867,0,-6.44563,-5.77743,7.7482,Q,Q
2023-03-15 13:07:03:877,0,-6.4474,-5.77517,7.74689,Q,Q
2023-03-15 13:07:03:887,0,-6.4474,-5.77015,7.73743,Q,Q
2023-03-15 13:07:03:897,0,-6.4539,-5.76622,7.73397,Q,Q
2023-03-15 13:07:03:907,0,-6.45639,-5.76225,7.732,Q,Q
2023-03-15 13:07:03:917,0,-6.45591,-5.75901,7.72504,Q,Q
2023-03-15 13:07:03:927,0,-6.45422,-5.76368,7.72261,Q,Q
2023-03-15 13:07:03:937,0,-6.44822,-5.77316,7.72532,Q,Q
2023-03-15 13:07:03:947,0,-6.44394,-5.79064,7.7283,Q,Q
2023-03-15 13:07:03:957,0,-6.43803,-5.8013,7.73228,Q,Q
2023-03-15 13:07:03:967,0,-6.43344,-5.81102,7.73677,Q,Q
2023-03-15 13:07:03:977,0,-6.42834,-5.81729,7.74016,Q,Q
2023-03-15 13:07:03:987,0,-6.42529,-5.81975,7.74416,Q,Q
2023-03-15 13:07:03:997,0,-6.42034,-5.82166,7.74773,Q,Q
2023-03-15 13:07:04:7,0,-6.41754,-5.82292,7.75331,Q,Q
2023-03-15 13:07:04:17,0,-6.41355,-5.82456,7.75795,Q,Q
2023-03-15 13:07:04:27,0,-6.41662,-5.82469,7.76101,Q,Q
2023-03-15 13:07:04:37,0,-6.41872,-5.8214,7.7664,Q,Q
2023-03-15 13:07:04:47,0,-6.42152,-5.81912,7.76806,Q,Q
2023-03-15 13:07:04:57,0,-6.42724,-5.81357,7.76816,Q,Q
2023-03-15 13:07:04:67,0,-6.43536,-5.80892,7.76647,Q,Q
2023-03-15 13:07:04:77,0,-6.43994,-5.80657,7.76096,Q,Q
2023-03-15 13:07:04:87,0,-6.44489,-5.80449,7.75455,Q,Q
2023-03-15 13:07:04:97,0,-6.44951,-5.80058,7.74919,Q,Q
2023-03-15 13:07:04:107,0,-6.45285,-5.79658,7.74115,Q,Q
2023-03-15 13:07:04:117,0,-6.45476,-5.79048,7.73579,Q,Q
2023-03-15 13:07:04:127,0,-6.45905,-5.78942,7.73394,Q,Q
2023-03-15 13:07:04:137,0,-6.46592,-5.78619,7.73546,Q,Q
2023-03-15 13:07:04:147,0,-6.46857,-5.7893,7.73523,Q,Q
2023-03-15 13:07:04:157,0,-6.47406,-5.78976,7.73183,Q,Q
2023-03-15 13:07:04:167,0,-6.47852,-5.79119,7.73228,Q,Q
2023-03-15 13:07:04:177,0,-6.47719,-5.79,7.72494,Q,Q
2023-03-15 13:07:04:187,0,-6.47907,-5.79181,7.72343,Q,Q
2023-03-15 13:07:04:197,0,-6.47968,-5.79653,7.72628,Q,Q
2023-03-15 13:07:04:207,0,-6.48105,-5.8035,7.73338,Q,Q
2023-03-15 13:07:04:217,0,-6.48898,-5.81153,7.73806,Q,Q
2023-03-15 13:07:04:227,0,-6.49257,-5.81834,7.73839,Q,Q
2023-03-15 13:07:04:237,0,-6.4997,-5.82015,7.7357,Q,Q
2023-03-15 13:07:04:247,0,-6.50826,-5.81754,7.73212,Q,Q
2023-03-15 13:07:04:257,0,-6.51496,-5.81665,7.72507,Q,Q
2023-03-15 13:07:04:267,0,-6.5208,-5.81519,7.71899,Q,Q
2023-03-15 13:07:04:277,0,-6.52468,-5.80886,7.71262,Q,Q
2023-03-15 13:07:04:287,0,-6.53129,-5.80848,7.70716,Q,Q
2023-03-15 13:07:04:297,0,-6.53619,-5.80741,7.6998,Q,Q
2023-03-15 13:07:04:307,0,-6.54309,-5.80894,7.69683,Q,Q
2023-03-15 13:07:04:317,0,-6.54811,-5.80891,7.68785,Q,Q
2023-03-15 13:07:04:327,0,-6.55098,-5.81119,7.67894,Q,Q
2023-03-15 13:07:04:337,0,-6.5513,-5.81063,7.67194,Q,Q
2023-03-15 13:07:04:347,0,-6.55025,-5.81442,7.66364,Q,Q
2023-03-15 13:07:04:357,0,-6.54777,-5.8138,7.65754,Q,Q
2023-03-15 13:07:04:367,0,-6.54245,-5.81513,7.6531,Q,Q
2023-03-15 13:07:04:377,0,-6.54088,-5.81822,7.65388,Q,Q
2023-03-15 13:07:04:387,0,-6.5362,-5.8204,7.65766,Q,Q
2023-03-15 13:07:04:397,0,-6.52702,-5.82385,7.66051,Q,Q
2023-03-15 13:07:04:407,0,-6.51666,-5.82657,7.66547,Q,Q
2023-03-15 13:07:04:417,0,-6.50652,-5.8284,7.67336,Q,Q
2023-03-15 13:07:04:427,0,-6.49525,-5.82644,7.67835,Q,Q
2023-03-15 13:07:04:437,0,-6.48632,-5.82896,7.68196,Q,Q
2023-03-15 13:07:04:447,0,-6.47736,-5.82584,7.68455,Q,Q
2023-03-15 13:07:04:457,0,-6.46946,-5.82574,7.68594,Q,Q
2023-03-15 13:07:04:467,0,-6.46399,-5.82636,7.69017,Q,Q
2023-03-15 13:07:04:477,0,-6.46034,-5.82691,7.69156,Q,Q
2023-03-15 13:07:04:487,0,-6.45596,-5.82845,7.68917,Q,Q
2023-03-15 13:07:04:497,0,-6.45501,-5.82824,7.68042,Q,Q
2023-03-15 13:07:04:507,0,-6.45124,-5.83189,7.67339,Q,Q
2023-03-15 13:07:04:517,0,-6.4479,-5.832,7.66748,Q,Q
2023-03-15 13:07:04:527,0,-6.44657,-5.8315,7.66102,Q,Q
2023-03-15 13:07:04:537,0,-6.44816,-5.83084,7.65368,Q,Q
2023-03-15 13:07:04:547,0,-6.44976,-5.83416,7.64742,Q,Q
2023-03-15 13:07:04:557,0,-6.44987,-5.83468,7.63834,Q,Q
2023-03-15 13:07:04:567,0,-6.45304,-5.83596,7.63572,Q,Q
2023-03-15 13:07:04:577,0,-6.45445,-5.83539,7.63219,Q,Q
2023-03-15 13:07:04:587,0,-6.45601,-5.83201,7.62938,Q,Q
2023-03-15 13:07:04:597,0,-6.46125,-5.83048,7.63163,Q,Q
2023-03-15 13:07:04:607,0,-6.4599,-5.8323,7.63335,Q,Q
2023-03-15 13:07:04:617,0,-6.46061,-5.83224,7.63502,Q,Q
2023-03-15 13:07:04:627,0,-6.46271,-5.83097,7.63546,Q,Q
2023-03-15 13:07:04:637,0,-6.46647,-5.82939,7.6393,Q,Q
2023-03-15 13:07:04:647,0,-6.47213,-5.82695,7.63967,Q,Q
2023-03-15 13:07:04:657,0,-6.47672,-5.82817,7.64094,Q,Q
2023-03-15 13:07:04:667,0,-6.47787,-5.82411,7.64005,Q,Q
2023-03-15 13:07:04:677,0,-6.4822,-5.82684,7.64276,Q,Q
2023-03-15 13:07:04:687,0,-6.48386,-5.82661,7.64281,Q,Q
2023-03-15 13:07:04:697,0,-6.48475,-5.82773,7.64613,Q,Q
2023-03-15 13:07:04:707,0,-6.48618,-5.82546,7.65107,Q,Q
2023-03-15 13:07:04:717,0,-6.48205,-5.82411,7.65341,Q,Q
2023-03-15 13:07:04:727,0,-6.47836,-5.82349,7.65668,Q,Q
2023-03-15 13:07:04:737,0,-6.47649,-5.82103,7.66336,Q,Q
2023-03-15 13:07:04:747,0,-6.47578,-5.81897,7.6687,Q,Q
2023-03-15 13:07:04:757,0,-6.4745,-5.81707,7.6714,Q,Q
2023-03-15 13:07:04:767,0,-6.47333,-5.81099,7.67122,Q,Q
2023-03-15 13:07:04:777,0,-6.47473,-5.80587,7.67043,Q,Q
2023-03-15 13:07:04:787,0,-6.46962,-5.80175,7.66709,Q,Q
2023-03-15 13:07:04:797,0,-6.46164,-5.79944,7.66675,Q,Q
2023-03-15 13:07:04:807,0,-6.45629,-5.80247,7.67105,Q,Q
2023-03-15 13:07:04:817,0,-6.45287,-5.81443,7.677,Q,Q
2023-03-15 13:07:04:827,0,-6.45095,-5.83031,7.6845,Q,Q
2023-03-15 13:07:04:837,0,-6.44871,-5.8439,7.68976,Q,Q
2023-03-15 13:07:04:847,0,-6.45081,-5.85188,7.69382,Q,Q
2023-03-15 13:07:04:857,0,-6.44876,-5.85861,7.69604,Q,Q
2023-03-15 13:07:04:867,0,-6.44836,-5.86044,7.69081,Q,Q
2023-03-15 13:07:04:877,0,-6.44461,-5.8585,7.68661,Q,Q
2023-03-15 13:07:04:887,0,-6.44039,-5.85621,7.68172,Q,Q
2023-03-15 13:07:04:897,0,-6.43187,-5.85532,7.67892,Q,Q
2023-03-15 13:07:04:907,0,-6.42201,-5.85405,7.67001,Q,Q
2023-03-15 13:07:04:917,0,-6.41061,-5.85427,7.65727,Q,Q
2023-03-15 13:07:04:927,0,-6.39844,-5.84879,7.64421,Q,Q
2023-03-15 13:07:04:937,0,-6.38495,-5.84053,7.62873,Q,Q
2023-03-15 13:07:04:947,0,-6.37713,-5.83337,7.61524,Q,Q
2023-03-15 13:07:04:957,0,-6.37329,-5.82914,7.59616,Q,Q
2023-03-15 13:07:04:967,0,-6.37073,-5.82259,7.57837,Q,Q
2023-03-15 13:07:04:977,0,-6.36774,-5.81272,7.55908,Q,Q
2023-03-15 13:07:04:987,0,-6.36575,-5.80418,7.54519,Q,Q
2023-03-15 13:07:04:997,0,-6.36771,-5.7998,7.53307,Q,Q
