Timestamp_cmd,imu_cmd,roll_delta,pitch_delta,yaw_delta,voice_type,voice_length
2023-03-15 20:45:53:596,0,-54.1555,2.32171,134.327,Q,Q
2023-03-15 20:45:53:605,0,-54.157,2.32076,134.328,Q,Q
2023-03-15 20:45:53:615,0,-54.158,2.32448,134.331,Q,Q
2023-03-15 20:45:53:625,0,-54.1567,2.32569,134.33,Q,Q
2023-03-15 20:45:53:635,0,-54.1554,2.32647,134.331,Q,Q
2023-03-15 20:45:53:645,0,-54.1562,2.3272,134.33,Q,Q
2023-03-15 20:45:53:655,0,-54.1549,2.32632,134.33,Q,Q
2023-03-15 20:45:53:665,0,-54.1557,2.3259,134.331,Q,Q
2023-03-15 20:45:53:675,0,-54.153,2.32587,134.33,Q,Q
2023-03-15 20:45:53:685,0,-54.1537,2.32684,134.332,Q,Q
2023-03-15 20:45:53:695,0,-54.1527,2.32691,134.328,Q,Q
2023-03-15 20:45:53:705,0,-54.1531,2.32558,134.33,Q,Q
2023-03-15 20:45:53:715,0,-54.1528,2.3284,134.328,Q,Q
2023-03-15 20:45:53:725,0,-54.1513,2.32576,134.33,Q,Q
2023-03-15 20:45:53:735,0,-54.1522,2.32688,134.333,Q,Q
2023-03-15 20:45:53:745,0,-54.1512,2.3273,134.332,Q,Q
2023-03-15 20:45:53:755,0,-54.1543,2.3281,134.331,Q,Q
2023-03-15 20:45:53:765,0,-54.1514,2.32705,134.333,Q,Q
2023-03-15 20:45:53:775,0,-54.1525,2.32654,134.336,Q,Q
2023-03-15 20:45:53:785,0,-54.1522,2.32797,134.336,Q,Q
2023-03-15 20:45:53:795,0,-54.1564,2.32888,134.339,Q,Q
2023-03-15 20:45:53:805,0,-54.157,2.33051,134.34,Q,Q
2023-03-15 20:45:53:815,0,-54.158,2.33254,134.341,Q,Q
2023-03-15 20:45:53:825,0,-54.1617,2.33348,134.339,Q,Q
2023-03-15 20:45:53:835,0,-54.1602,2.33342,134.339,Q,Q
2023-03-15 20:45:53:845,0,-54.1579,2.33382,134.341,Q,Q
2023-03-15 20:45:53:855,0,-54.1586,2.33282,134.345,Q,Q
2023-03-15 20:45:53:865,0,-54.1611,2.33426,134.347,Q,Q
2023-03-15 20:45:53:875,0,-54.1601,2.3356,134.346,Q,Q
2023-03-15 20:45:53:885,0,-54.1604,2.33593,134.348,Q,Q
2023-03-15 20:45:53:895,0,-54.1605,2.33832,134.348,Q,Q
2023-03-15 20:45:53:905,0,-54.1586,2.33752,134.346,Q,Q
2023-03-15 20:45:53:915,0,-54.1603,2.33682,134.345,Q,Q
2023-03-15 20:45:53:925,0,-54.1598,2.33574,134.345,Q,Q
2023-03-15 20:45:53:935,0,-54.1619,2.33704,134.343,Q,Q
2023-03-15 20:45:53:945,0,-54.1618,2.33469,134.345,Q,Q
2023-03-15 20:45:53:955,0,-54.162,2.33369,134.345,Q,Q
2023-03-15 20:45:53:965,0,-54.161,2.33072,134.344,Q,Q
2023-03-15 20:45:53:975,0,-54.1603,2.3277,134.344,Q,Q
2023-03-15 20:45:53:985,0,-54.1611,2.32904,134.341,Q,Q
2023-03-15 20:45:53:995,0,-54.1602,2.32911,134.339,Q,Q
2023-03-15 20:45:54:5,0,-54.1589,2.3292,134.339,Q,Q
2023-03-15 20:45:54:15,0,-54.1584,2.32713,134.339,Q,Q
2023-03-15 20:45:54:25,0,-54.1583,2.32531,134.342,Q,Q
2023-03-15 20:45:54:35,0,-54.1618,2.32496,134.34,Q,Q
2023-03-15 20:45:54:45,0,-54.1656,2.32521,134.341,Q,Q
2023-03-15 20:45:54:55,0,-54.1671,2.32357,134.341,Q,Q
2023-03-15 20:45:54:65,0,-54.1698,2.3221,134.338,Q,Q
2023-03-15 20:45:54:75,0,-54.1709,2.32038,134.337,Q,Q
2023-03-15 20:45:54:85,0,-54.1733,2.32216,134.335,Q,Q
2023-03-15 20:45:54:95,0,-54.1701,2.32271,134.334,Q,Q
2023-03-15 20:45:54:105,0,-54.1734,2.32527,134.334,Q,Q
2023-03-15 20:45:54:115,0,-54.1722,2.32557,134.335,Q,Q
2023-03-15 20:45:54:125,0,-54.1725,2.32892,134.335,Q,Q
2023-03-15 20:45:54:135,0,-54.1737,2.32686,134.334,Q,Q
2023-03-15 20:45:54:145,0,-54.1763,2.32817,134.332,Q,Q
2023-03-15 20:45:54:155,0,-54.1764,2.32772,134.334,Q,Q
2023-03-15 20:45:54:165,0,-54.1762,2.32637,134.334,Q,Q
2023-03-15 20:45:54:175,0,-54.1755,2.33016,134.331,Q,Q
2023-03-15 20:45:54:185,0,-54.176,2.32933,134.331,Q,Q
2023-03-15 20:45:54:195,0,-54.1713,2.32984,134.331,Q,Q
2023-03-15 20:45:54:205,0,-54.1686,2.32722,134.334,Q,Q
2023-03-15 20:45:54:215,0,-54.1674,2.32629,134.336,Q,Q
2023-03-15 20:45:54:225,0,-54.1685,2.32644,134.337,Q,Q
2023-03-15 20:45:54:235,0,-54.1688,2.32487,134.337,Q,Q
2023-03-15 20:45:54:245,0,-54.1689,2.32522,134.335,Q,Q
2023-03-15 20:45:54:255,0,-54.169,2.32656,134.334,Q,Q
2023-03-15 20:45:54:265,0,-54.171,2.32905,134.331,Q,Q
2023-03-15 20:45:54:275,0,-54.1729,2.32925,134.332,Q,Q
2023-03-15 20:45:54:285,0,-54.1732,2.33027,134.329,Q,Q
2023-03-15 20:45:54:295,0,-54.1734,2.3316,134.327,Q,Q
2023-03-15 20:45:54:305,0,-54.174,2.32918,134.327,Q,Q
2023-03-15 20:45:54:315,0,-54.1705,2.33283,134.328,Q,Q
2023-03-15 20:45:54:325,0,-54.1699,2.33526,134.33,Q,Q
2023-03-15 20:45:54:335,0,-54.1671,2.33706,134.329,Q,Q
2023-03-15 20:45:54:345,0,-54.1663,2.33488,134.327,Q,Q
2023-03-15 20:45:54:355,0,-54.1647,2.3383,134.323,Q,Q
2023-03-15 20:45:54:365,0,-54.1629,2.3404,134.323,Q,Q
2023-03-15 20:45:54:375,0,-54.1621,2.34243,134.323,Q,Q
2023-03-15 20:45:54:385,0,-54.1616,2.34179,134.321,Q,Q
2023-03-15 20:45:54:395,0,-54.1618,2.34084,134.318,Q,Q
2023-03-15 20:45:54:405,0,-54.1607,2.34108,134.317,Q,Q
2023-03-15 20:45:54:415,0,-54.1612,2.34113,134.315,Q,Q
2023-03-15 20:45:54:425,0,-54.1584,2.34036,134.316,Q,Q
2023-03-15 20:45:54:435,0,-54.158,2.34029,134.317,Q,Q
2023-03-15 20:45:54:445,0,-54.1573,2.34167,134.316,Q,Q
2023-03-15 20:45:54:455,0,-54.1575,2.34088,134.316,Q,Q
2023-03-15 20:45:54:465,0,-54.1585,2.3397,134.314,Q,Q
2023-03-15 20:45:54:475,0,-54.1596,2.34198,134.316,Q,Q
2023-03-15 20:45:54:485,0,-54.1593,2.34155,134.319,Q,Q
2023-03-15 20:45:54:495,0,-54.159,2.34227,134.317,Q,Q
2023-03-15 20:45:54:505,0,-54.1608,2.34276,134.316,Q,Q
2023-03-15 20:45:54:515,0,-54.1604,2.34458,134.317,Q,Q
2023-03-15 20:45:54:525,0,-54.1611,2.34494,134.318,Q,Q
2023-03-15 20:45:54:535,0,-54.16,2.34525,134.32,Q,Q
2023-03-15 20:45:54:545,0,-54.162,2.3446,134.32,Q,Q
2023-03-15 20:45:54:555,0,-54.1598,2.34497,134.319,Q,Q
2023-03-15 20:45:54:565,0,-54.1615,2.34645,134.317,Q,Q
2023-03-15 20:45:54:575,0,-54.1621,2.3495,134.316,Q,Q
2023-03-15 20:45:54:585,0,-54.1627,2.35146,134.315,Q,Q
2023-03-15 20:45:54:595,0,-54.1639,2.35196,134.316,Q,Q
2023-03-15 20:45:54:605,0,-54.1634,2.3536,134.322,Q,Q
2023-03-15 20:45:54:615,0,-54.164,2.3545,134.32,Q,Q
2023-03-15 20:45:54:625,0,-54.1613,2.35363,134.321,Q,Q
2023-03-15 20:45:54:635,0,-54.1617,2.35101,134.319,Q,Q
2023-03-15 20:45:54:645,0,-54.1631,2.35068,134.316,Q,Q
2023-03-15 20:45:54:654,0,-54.1606,2.34914,134.313,Q,Q
2023-03-15 20:45:54:664,0,-54.1619,2.34907,134.314,Q,Q
2023-03-15 20:45:54:674,0,-54.1626,2.34933,134.317,Q,Q
2023-03-15 20:45:54:685,0,-54.1609,2.35059,134.318,Q,Q
2023-03-15 20:45:54:695,0,-54.1613,2.35048,134.317,Q,Q
2023-03-15 20:45:54:704,0,-54.1607,2.35043,134.32,Q,Q
2023-03-15 20:45:54:714,0,-54.165,2.34795,134.316,Q,Q
2023-03-15 20:45:54:725,0,-54.1633,2.34929,134.315,Q,Q
2023-03-15 20:45:54:735,0,-54.1641,2.34874,134.314,Q,Q
2023-03-15 20:45:54:745,0,-54.1643,2.34693,134.314,Q,Q
2023-03-15 20:45:54:754,0,-54.1663,2.34809,134.314,Q,Q
2023-03-15 20:45:54:765,0,-54.1672,2.35035,134.312,Q,Q
2023-03-15 20:45:54:774,0,-54.1663,2.35136,134.311,Q,Q
2023-03-15 20:45:54:784,0,-54.1635,2.3505,134.31,Q,Q
2023-03-15 20:45:54:794,0,-54.1625,2.35069,134.309,Q,Q
2023-03-15 20:45:54:804,0,-54.1678,2.35288,134.307,Q,Q
2023-03-15 20:45:54:815,0,-54.1672,2.35396,134.307,Q,Q
2023-03-15 20:45:54:824,0,-54.1689,2.35178,134.31,Q,Q
2023-03-15 20:45:54:835,0,-54.1696,2.35388,134.312,Q,Q
2023-03-15 20:45:54:844,0,-54.1701,2.35023,134.313,Q,Q
2023-03-15 20:45:54:854,0,-54.1691,2.35111,134.314,Q,Q
2023-03-15 20:45:54:865,0,-54.1675,2.35148,134.319,Q,Q
2023-03-15 20:45:54:875,0,-54.1667,2.35183,134.319,Q,Q
2023-03-15 20:45:54:884,0,-54.1665,2.35247,134.316,Q,Q
2023-03-15 20:45:54:895,0,-54.1663,2.34867,134.317,Q,Q
2023-03-15 20:45:54:904,0,-54.1665,2.34784,134.321,Q,Q
2023-03-15 20:45:54:915,0,-54.1672,2.34606,134.322,Q,Q
2023-03-15 20:45:54:925,0,-54.1686,2.34469,134.323,Q,Q
2023-03-15 20:45:54:935,0,-54.1685,2.34472,134.321,Q,Q
2023-03-15 20:45:54:944,0,-54.1666,2.34413,134.319,Q,Q
2023-03-15 20:45:54:955,0,-54.1635,2.34506,134.32,Q,Q
2023-03-15 20:45:54:965,0,-54.1648,2.34587,134.322,Q,Q
2023-03-15 20:45:54:975,0,-54.1685,2.34764,134.324,Q,Q
2023-03-15 20:45:54:985,0,-54.168,2.34851,134.326,Q,Q
2023-03-15 20:45:54:995,0,-54.1692,2.34681,134.326,Q,Q
2023-03-15 20:45:55:5,0,-54.1711,2.34786,134.326,Q,Q
2023-03-15 20:45:55:15,0,-54.1719,2.349,134.327,Q,Q
2023-03-15 20:45:55:25,0,-54.1706,2.34825,134.326,Q,Q
2023-03-15 20:45:55:35,0,-54.172,2.34701,134.327,Q,Q
2023-03-15 20:45:55:45,0,-54.1729,2.3454,134.329,Q,Q
2023-03-15 20:45:55:55,0,-54.169,2.34731,134.327,Q,Q
2023-03-15 20:45:55:65,0,-54.17,2.34547,134.326,Q,Q
2023-03-15 20:45:55:75,0,-54.1733,2.34226,134.328,Q,Q
2023-03-15 20:45:55:85,0,-54.175,2.34044,134.327,Q,Q
2023-03-15 20:45:55:95,0,-54.1767,2.343,134.327,Q,Q
2023-03-15 20:45:55:105,0,-54.1792,2.34423,134.328,Q,Q
2023-03-15 20:45:55:115,0,-54.1809,2.34585,134.327,Q,Q
2023-03-15 20:45:55:125,0,-54.1844,2.34634,134.325,Q,Q
2023-03-15 20:45:55:135,0,-54.1836,2.34445,134.323,Q,Q
2023-03-15 20:45:55:145,0,-54.1833,2.34311,134.324,Q,Q
2023-03-15 20:45:55:155,0,-54.1829,2.34137,134.325,Q,Q
2023-03-15 20:45:55:165,0,-54.1821,2.34226,134.325,Q,Q
2023-03-15 20:45:55:175,0,-54.1805,2.33944,134.323,Q,Q
2023-03-15 20:45:55:185,0,-54.1776,2.34048,134.325,Q,Q
2023-03-15 20:45:55:195,0,-54.1778,2.34078,134.326,Q,Q
2023-03-15 20:45:55:205,0,-54.1783,2.34308,134.325,Q,Q
2023-03-15 20:45:55:215,0,-54.1789,2.34195,134.326,Q,Q
2023-03-15 20:45:55:225,0,-54.1776,2.34126,134.327,Q,Q
2023-03-15 20:45:55:235,0,-54.1792,2.34351,134.327,Q,Q
2023-03-15 20:45:55:245,0,-54.1819,2.34321,134.329,Q,Q
2023-03-15 20:45:55:255,0,-54.1819,2.34033,134.33,Q,Q
2023-03-15 20:45:55:265,0,-54.1808,2.33937,134.329,Q,Q
2023-03-15 20:45:55:275,0,-54.1829,2.33855,134.331,Q,Q
2023-03-15 20:45:55:285,0,-54.1833,2.3373,134.331,Q,Q
2023-03-15 20:45:55:295,0,-54.1842,2.3401,134.33,Q,Q
2023-03-15 20:45:55:305,0,-54.1844,2.34262,134.328,Q,Q
2023-03-15 20:45:55:315,0,-54.1863,2.34096,134.328,Q,Q
2023-03-15 20:45:55:325,0,-54.1839,2.34276,134.33,Q,Q
2023-03-15 20:45:55:335,0,-54.1842,2.34523,134.33,Q,Q
2023-03-15 20:45:55:345,0,-54.186,2.34826,134.33,Q,Q
2023-03-15 20:45:55:355,0,-54.1813,2.34806,134.332,Q,Q
2023-03-15 20:45:55:365,0,-54.1801,2.34854,134.332,Q,Q
2023-03-15 20:45:55:375,0,-54.1778,2.34534,134.334,Q,Q
2023-03-15 20:45:55:385,0,-54.1797,2.34466,134.337,Q,Q
2023-03-15 20:45:55:395,0,-54.1771,2.34574,134.337,Q,Q
2023-03-15 20:45:55:405,0,-54.1765,2.34653,134.338,Q,Q
2023-03-15 20:45:55:415,0,-54.1743,2.34596,134.34,Q,Q
2023-03-15 20:45:55:425,0,-54.1736,2.3425,134.338,Q,Q
2023-03-15 20:45:55:435,0,-54.1729,2.34399,134.336,Q,Q
2023-03-15 20:45:55:445,0,-54.1753,2.34381,134.336,Q,Q
2023-03-15 20:45:55:455,0,-54.177,2.34218,134.335,Q,Q
2023-03-15 20:45:55:465,0,-54.1763,2.3382,134.337,Q,Q
2023-03-15 20:45:55:475,0,-54.1788,2.33793,134.339,Q,Q
2023-03-15 20:45:55:485,0,-54.18,2.33862,134.34,Q,Q
2023-03-15 20:45:55:495,0,-54.1851,2.33895,134.339,Q,Q
2023-03-15 20:45:55:505,0,-54.1861,2.33994,134.336,Q,Q
2023-03-15 20:45:55:515,0,-54.1868,2.33997,134.336,Q,Q
2023-03-15 20:45:55:525,0,-54.185,2.3397,134.336,Q,Q
2023-03-15 20:45:55:535,0,-54.1863,2.33771,134.335,Q,Q
2023-03-15 20:45:55:545,0,-54.1849,2.34161,134.333,Q,Q
2023-03-15 20:45:55:555,0,-54.1841,2.34608,134.332,Q,Q
2023-03-15 20:45:55:565,0,-54.1839,2.34503,134.335,Q,Q
2023-03-15 20:45:55:575,0,-54.1842,2.3464,134.337,Q,Q
2023-03-15 20:45:55:585,0,-54.1822,2.34721,134.339,Q,Q
2023-03-15 20:45:55:595,0,-54.1864,2.34818,134.337,Q,Q
2023-03-15 20:45:55:605,0,-54.1839,2.34847,134.339,Q,Q
2023-03-15 20:45:55:615,0,-54.1854,2.34886,134.342,Q,Q
2023-03-15 20:45:55:625,0,-54.1863,2.34877,134.341,Q,Q
2023-03-15 20:45:55:635,0,-54.1869,2.34887,134.34,Q,Q
2023-03-15 20:45:55:645,0,-54.188,2.35005,134.341,Q,Q
2023-03-15 20:45:55:655,0,-54.1907,2.35049,134.343,Q,Q
2023-03-15 20:45:55:665,0,-54.1887,2.34818,134.339,Q,Q
2023-03-15 20:45:55:675,0,-54.1904,2.34556,134.341,Q,Q
2023-03-15 20:45:55:685,0,-54.1935,2.34474,134.341,Q,Q
2023-03-15 20:45:55:695,0,-54.1935,2.34342,134.341,Q,Q
2023-03-15 20:45:55:705,0,-54.1944,2.34486,134.342,Q,Q
2023-03-15 20:45:55:715,0,-54.1899,2.34592,134.346,Q,Q
2023-03-15 20:45:55:725,0,-54.1896,2.34515,134.345,Q,Q
2023-03-15 20:45:55:735,0,-54.1924,2.34326,134.348,Q,Q
2023-03-15 20:45:55:745,0,-54.1921,2.34136,134.348,Q,Q
2023-03-15 20:45:55:755,0,-54.194,2.34105,134.349,Q,Q
2023-03-15 20:45:55:765,0,-54.194,2.33933,134.35,Q,Q
2023-03-15 20:45:55:775,0,-54.1906,2.33832,134.349,Q,Q
2023-03-15 20:45:55:785,0,-54.1893,2.33755,134.35,Q,Q
2023-03-15 20:45:55:795,0,-54.1911,2.33654,134.351,Q,Q
2023-03-15 20:45:55:805,0,-54.1919,2.33596,134.351,Q,Q
2023-03-15 20:45:55:815,0,-54.1888,2.33533,134.353,Q,Q
2023-03-15 20:45:55:825,0,-54.1925,2.33505,134.352,Q,Q
2023-03-15 20:45:55:835,0,-54.1934,2.33457,134.351,Q,Q
2023-03-15 20:45:55:845,0,-54.1944,2.33641,134.352,Q,Q
2023-03-15 20:45:55:855,0,-54.1965,2.33717,134.353,Q,Q
2023-03-15 20:45:55:865,0,-54.1983,2.33394,134.353,Q,Q
2023-03-15 20:45:55:875,0,-54.195,2.3301,134.354,Q,Q
2023-03-15 20:45:55:885,0,-54.1959,2.32916,134.352,Q,Q
2023-03-15 20:45:55:895,0,-54.1969,2.32845,134.353,Q,Q
2023-03-15 20:45:55:905,0,-54.1954,2.33014,134.353,Q,Q
2023-03-15 20:45:55:915,0,-54.1949,2.33255,134.352,Q,Q
2023-03-15 20:45:55:925,0,-54.1931,2.33227,134.351,Q,Q
2023-03-15 20:45:55:935,0,-54.1921,2.33331,134.353,Q,Q
2023-03-15 20:45:55:945,0,-54.193,2.33245,134.352,Q,Q
2023-03-15 20:45:55:955,0,-54.1958,2.33544,134.355,Q,Q
2023-03-15 20:45:55:965,0,-54.1946,2.33649,134.356,Q,Q
2023-03-15 20:45:55:975,0,-54.1956,2.33599,134.356,Q,Q
2023-03-15 20:45:55:985,0,-54.1924,2.33799,134.357,Q,Q
2023-03-15 20:45:55:995,0,-54.1934,2.34054,134.355,Q,Q
2023-03-15 20:45:56:5,0,-54.195,2.34167,134.353,Q,Q
2023-03-15 20:45:56:15,0,-54.192,2.34541,134.352,Q,Q
2023-03-15 20:45:56:25,0,-54.1909,2.33978,134.351,Q,Q
2023-03-15 20:45:56:35,0,-54.1915,2.34003,134.351,Q,Q
2023-03-15 20:45:56:45,0,-54.1919,2.342,134.354,Q,Q
2023-03-15 20:45:56:55,0,-54.1894,2.34121,134.354,Q,Q
2023-03-15 20:45:56:65,0,-54.187,2.34025,134.353,Q,Q
2023-03-15 20:45:56:75,0,-54.1871,2.3366,134.354,Q,Q
2023-03-15 20:45:56:85,0,-54.1882,2.3377,134.351,Q,Q
2023-03-15 20:45:56:95,0,-54.1854,2.33589,134.352,Q,Q
2023-03-15 20:45:56:105,0,-54.1867,2.3345,134.354,Q,Q
2023-03-15 20:45:56:114,0,-54.1862,2.33466,134.357,Q,Q
2023-03-15 20:45:56:125,0,-54.1823,2.33542,134.358,Q,Q
2023-03-15 20:45:56:135,0,-54.1816,2.33505,134.359,Q,Q
2023-03-15 20:45:56:145,0,-54.1806,2.33405,134.356,Q,Q
2023-03-15 20:45:56:155,0,-54.1812,2.33528,134.353,Q,Q
2023-03-15 20:45:56:165,0,-54.1799,2.33342,134.355,Q,Q
2023-03-15 20:45:56:175,0,-54.1783,2.33333,134.355,Q,Q
2023-03-15 20:45:56:185,0,-54.1767,2.33149,134.356,Q,Q
2023-03-15 20:45:56:195,0,-54.1753,2.33026,134.355,Q,Q
2023-03-15 20:45:56:205,0,-54.1798,2.33019,134.353,Q,Q
2023-03-15 20:45:56:215,0,-54.1864,2.3309,134.351,Q,Q
2023-03-15 20:45:56:225,0,-54.1889,2.32999,134.352,Q,Q
2023-03-15 20:45:56:235,0,-54.1859,2.33011,134.351,Q,Q
2023-03-15 20:45:56:245,0,-54.1882,2.33221,134.35,Q,Q
2023-03-15 20:45:56:255,0,-54.1925,2.33039,134.349,Q,Q
2023-03-15 20:45:56:265,0,-54.1914,2.33256,134.352,Q,Q
2023-03-15 20:45:56:275,0,-54.1885,2.33073,134.353,Q,Q
2023-03-15 20:45:56:285,0,-54.1903,2.33197,134.352,Q,Q
2023-03-15 20:45:56:295,0,-54.1887,2.3294,134.355,Q,Q
2023-03-15 20:45:56:305,0,-54.1899,2.32823,134.359,Q,Q
2023-03-15 20:45:56:315,0,-54.1908,2.33109,134.36,Q,Q
2023-03-15 20:45:56:325,0,-54.1962,2.33311,134.355,Q,Q
2023-03-15 20:45:56:335,0,-54.1969,2.3335,134.354,Q,Q
2023-03-15 20:45:56:345,0,-54.1987,2.33365,134.356,Q,Q
2023-03-15 20:45:56:355,0,-54.1975,2.33271,134.353,Q,Q
2023-03-15 20:45:56:365,0,-54.1971,2.33368,134.355,Q,Q
2023-03-15 20:45:56:375,0,-54.1982,2.33189,134.356,Q,Q
2023-03-15 20:45:56:385,0,-54.201,2.33216,134.356,Q,Q
2023-03-15 20:45:56:395,0,-54.2013,2.32905,134.357,Q,Q
2023-03-15 20:45:56:405,0,-54.2004,2.33137,134.355,Q,Q
2023-03-15 20:45:56:415,0,-54.202,2.32904,134.356,Q,Q
2023-03-15 20:45:56:425,0,-54.2014,2.33041,134.354,Q,Q
2023-03-15 20:45:56:435,0,-54.2002,2.33002,134.352,Q,Q
2023-03-15 20:45:56:445,0,-54.2012,2.33248,134.35,Q,Q
2023-03-15 20:45:56:455,0,-54.2036,2.33176,134.352,Q,Q
2023-03-15 20:45:56:465,0,-54.2043,2.33075,134.353,Q,Q
2023-03-15 20:45:56:475,0,-54.2057,2.32999,134.353,Q,Q
2023-03-15 20:45:56:485,0,-54.2067,2.33046,134.355,Q,Q
2023-03-15 20:45:56:495,0,-54.2075,2.32973,134.358,Q,Q
2023-03-15 20:45:56:505,0,-54.2079,2.32951,134.36,Q,Q
2023-03-15 20:45:56:515,0,-54.2063,2.33112,134.359,Q,Q
2023-03-15 20:45:56:525,0,-54.206,2.3308,134.357,Q,Q
2023-03-15 20:45:56:535,0,-54.2059,2.33003,134.357,Q,Q
2023-03-15 20:45:56:545,0,-54.2069,2.33161,134.36,Q,Q
2023-03-15 20:45:56:555,0,-54.2046,2.33162,134.358,Q,Q
2023-03-15 20:45:56:565,0,-54.2058,2.32766,134.357,Q,Q
2023-03-15 20:45:56:575,0,-54.2085,2.32871,134.356,Q,Q
2023-03-15 20:45:56:585,0,-54.2076,2.32678,134.356,Q,Q
2023-03-15 20:45:56:595,0,-54.2048,2.32794,134.358,Q,Q
2023-03-15 20:45:56:605,0,-54.2025,2.32775,134.357,Q,Q
2023-03-15 20:45:56:615,0,-54.2025,2.32842,134.356,Q,Q
2023-03-15 20:45:56:625,0,-54.2044,2.32707,134.354,Q,Q
2023-03-15 20:45:56:635,0,-54.2065,2.32841,134.351,Q,Q
2023-03-15 20:45:56:645,0,-54.2068,2.32968,134.35,Q,Q
2023-03-15 20:45:56:655,0,-54.2077,2.32982,134.351,Q,Q
2023-03-15 20:45:56:665,0,-54.2054,2.32852,134.355,Q,Q
2023-03-15 20:45:56:675,0,-54.204,2.32879,134.358,Q,Q
2023-03-15 20:45:56:685,0,-54.2035,2.33124,134.362,Q,Q
2023-03-15 20:45:56:695,0,-54.2037,2.3308,134.362,Q,Q
2023-03-15 20:45:56:705,0,-54.2062,2.32992,134.363,Q,Q
2023-03-15 20:45:56:715,0,-54.2068,2.33022,134.364,Q,Q
2023-03-15 20:45:56:725,0,-54.2067,2.33046,134.364,Q,Q
2023-03-15 20:45:56:735,0,-54.2081,2.33007,134.366,Q,Q
2023-03-15 20:45:56:745,0,-54.2084,2.33203,134.364,Q,Q
2023-03-15 20:45:56:755,0,-54.2095,2.33077,134.365,Q,Q
2023-03-15 20:45:56:765,0,-54.2076,2.33478,134.364,Q,Q
2023-03-15 20:45:56:775,0,-54.2116,2.33308,134.365,Q,Q
2023-03-15 20:45:56:785,0,-54.2131,2.33286,134.363,Q,Q
2023-03-15 20:45:56:795,0,-54.2131,2.32903,134.358,Q,Q
2023-03-15 20:45:56:805,0,-54.2146,2.33024,134.36,Q,Q
2023-03-15 20:45:56:815,0,-54.2143,2.33162,134.359,Q,Q
2023-03-15 20:45:56:825,0,-54.2147,2.33126,134.358,Q,Q
2023-03-15 20:45:56:835,0,-54.2138,2.32731,134.36,Q,Q
2023-03-15 20:45:56:845,0,-54.2131,2.32817,134.355,Q,Q
2023-03-15 20:45:56:855,0,-54.2123,2.32678,134.353,Q,Q
2023-03-15 20:45:56:865,0,-54.2133,2.32828,134.354,Q,Q
2023-03-15 20:45:56:875,0,-54.2112,2.32734,134.355,Q,Q
2023-03-15 20:45:56:885,0,-54.2109,2.32856,134.354,Q,Q
2023-03-15 20:45:56:895,0,-54.2104,2.32819,134.352,Q,Q
2023-03-15 20:45:56:905,0,-54.2091,2.32726,134.353,Q,Q
2023-03-15 20:45:56:915,0,-54.2076,2.32923,134.352,Q,Q
2023-03-15 20:45:56:925,0,-54.2045,2.32892,134.353,Q,Q
2023-03-15 20:45:56:935,0,-54.2034,2.32959,134.357,Q,Q
2023-03-15 20:45:56:945,0,-54.2016,2.3319,134.36,Q,Q
2023-03-15 20:45:56:955,0,-54.1977,2.3314,134.358,Q,Q
2023-03-15 20:45:56:965,0,-54.1962,2.33113,134.357,Q,Q
2023-03-15 20:45:56:975,0,-54.1946,2.3335,134.36,Q,Q
2023-03-15 20:45:56:985,0,-54.1951,2.3352,134.36,Q,Q
2023-03-15 20:45:56:995,0,-54.1957,2.33565,134.359,Q,Q
2023-03-15 20:45:57:5,0,-54.1946,2.33374,134.36,Q,Q
2023-03-15 20:45:57:15,0,-54.1936,2.33428,134.36,Q,Q
2023-03-15 20:45:57:25,0,-54.1927,2.33131,134.358,Q,Q
2023-03-15 20:45:57:35,0,-54.1924,2.33056,134.357,Q,Q
2023-03-15 20:45:57:45,0,-54.1948,2.3325,134.356,Q,Q
2023-03-15 20:45:57:55,0,-54.1959,2.3341,134.357,Q,Q
2023-03-15 20:45:57:65,0,-54.1951,2.33365,134.357,Q,Q
2023-03-15 20:45:57:75,0,-54.1949,2.334,134.354,Q,Q
2023-03-15 20:45:57:85,0,-54.194,2.33406,134.354,Q,Q
2023-03-15 20:45:57:95,0,-54.1977,2.33669,134.356,Q,Q
2023-03-15 20:45:57:105,0,-54.1965,2.33831,134.357,Q,Q
2023-03-15 20:45:57:115,0,-54.1979,2.3362,134.354,Q,Q
2023-03-15 20:45:57:125,0,-54.1976,2.33495,134.355,Q,Q
2023-03-15 20:45:57:135,0,-54.1982,2.33239,134.353,Q,Q
2023-03-15 20:45:57:145,0,-54.2007,2.33384,134.352,Q,Q
2023-03-15 20:45:57:155,0,-54.1985,2.3349,134.353,Q,Q
2023-03-15 20:45:57:165,0,-54.1995,2.33435,134.352,Q,Q
2023-03-15 20:45:57:175,0,-54.1976,2.33005,134.356,Q,Q
2023-03-15 20:45:57:185,0,-54.1954,2.33034,134.357,Q,Q
2023-03-15 20:45:57:195,0,-54.1968,2.32811,134.358,Q,Q
2023-03-15 20:45:57:205,0,-54.1975,2.33008,134.357,Q,Q
2023-03-15 20:45:57:215,0,-54.1959,2.32709,134.357,Q,Q
2023-03-15 20:45:57:225,0,-54.1966,2.32692,134.356,Q,Q
2023-03-15 20:45:57:235,0,-54.1956,2.32823,134.356,Q,Q
2023-03-15 20:45:57:245,0,-54.1924,2.32708,134.359,Q,Q
2023-03-15 20:45:57:255,0,-54.1925,2.32767,134.36,Q,Q
2023-03-15 20:45:57:265,0,-54.1926,2.32991,134.362,Q,Q
2023-03-15 20:45:57:275,0,-54.1934,2.32846,134.361,Q,Q
2023-03-15 20:45:57:285,0,-54.1902,2.32861,134.363,Q,Q
2023-03-15 20:45:57:295,0,-54.1863,2.32887,134.366,Q,Q
2023-03-15 20:45:57:305,0,-54.185,2.33063,134.364,Q,Q
2023-03-15 20:45:57:315,0,-54.1843,2.32998,134.365,Q,Q
2023-03-15 20:45:57:325,0,-54.1828,2.331,134.361,Q,Q
2023-03-15 20:45:57:335,0,-54.183,2.33341,134.362,Q,Q
2023-03-15 20:45:57:345,0,-54.1825,2.32818,134.366,Q,Q
2023-03-15 20:45:57:355,0,-54.1855,2.32929,134.367,Q,Q
2023-03-15 20:45:57:365,0,-54.1852,2.32727,134.366,Q,Q
2023-03-15 20:45:57:375,0,-54.1869,2.32615,134.365,Q,Q
2023-03-15 20:45:57:385,0,-54.1857,2.32697,134.366,Q,Q
2023-03-15 20:45:57:395,0,-54.1871,2.32651,134.367,Q,Q
2023-03-15 20:45:57:405,0,-54.1913,2.32604,134.365,Q,Q
2023-03-15 20:45:57:415,0,-54.1888,2.32443,134.364,Q,Q
2023-03-15 20:45:57:425,0,-54.1925,2.32287,134.365,Q,Q
2023-03-15 20:45:57:435,0,-54.1891,2.32153,134.366,Q,Q
2023-03-15 20:45:57:445,0,-54.1896,2.31802,134.365,Q,Q
2023-03-15 20:45:57:455,0,-54.1846,2.31965,134.363,Q,Q
2023-03-15 20:45:57:465,0,-54.1862,2.31887,134.361,Q,Q
2023-03-15 20:45:57:475,0,-54.188,2.31822,134.363,Q,Q
2023-03-15 20:45:57:485,0,-54.19,2.31803,134.362,Q,Q
2023-03-15 20:45:57:495,0,-54.1926,2.31666,134.364,Q,Q
2023-03-15 20:45:57:505,0,-54.1903,2.31396,134.367,Q,Q
2023-03-15 20:45:57:515,0,-54.1888,2.31732,134.364,Q,Q
2023-03-15 20:45:57:525,0,-54.1916,2.31367,134.365,Q,Q
2023-03-15 20:45:57:535,0,-54.1919,2.31523,134.366,Q,Q
2023-03-15 20:45:57:545,0,-54.1931,2.3127,134.364,Q,Q
2023-03-15 20:45:57:555,0,-54.1901,2.3107,134.364,Q,Q
2023-03-15 20:45:57:565,0,-54.1911,2.31144,134.365,Q,Q
2023-03-15 20:45:57:575,0,-54.1915,2.30979,134.365,Q,Q
2023-03-15 20:45:57:585,0,-54.189,2.30999,134.365,Q,Q
2023-03-15 20:45:57:595,0,-54.185,2.30779,134.366,Q,Q
2023-03-15 20:45:57:605,0,-54.1837,2.30754,134.369,Q,Q
2023-03-15 20:45:57:615,0,-54.1847,2.30626,134.369,Q,Q
2023-03-15 20:45:57:625,0,-54.1838,2.30839,134.367,Q,Q
2023-03-15 20:45:57:635,0,-54.1845,2.31223,134.367,Q,Q
2023-03-15 20:45:57:645,0,-54.1806,2.31562,134.364,Q,Q
2023-03-15 20:45:57:655,0,-54.1817,2.31604,134.363,Q,Q
2023-03-15 20:45:57:665,0,-54.1836,2.31467,134.365,Q,Q
2023-03-15 20:45:57:675,0,-54.1833,2.31686,134.368,Q,Q
2023-03-15 20:45:57:685,0,-54.1847,2.31905,134.367,Q,Q
2023-03-15 20:45:57:695,0,-54.1844,2.31655,134.368,Q,Q
2023-03-15 20:45:57:705,0,-54.1847,2.31624,134.369,Q,Q
2023-03-15 20:45:57:715,0,-54.1831,2.31688,134.37,Q,Q
2023-03-15 20:45:57:725,0,-54.181,2.31675,134.371,Q,Q
2023-03-15 20:45:57:735,0,-54.1793,2.31856,134.369,Q,Q
2023-03-15 20:45:57:745,0,-54.1785,2.31879,134.367,Q,Q
2023-03-15 20:45:57:755,0,-54.1734,2.31947,134.368,Q,Q
2023-03-15 20:45:57:765,0,-54.1751,2.31778,134.371,Q,Q
2023-03-15 20:45:57:775,0,-54.1755,2.31817,134.37,Q,Q
2023-03-15 20:45:57:785,0,-54.1771,2.31829,134.369,Q,Q
2023-03-15 20:45:57:795,0,-54.1775,2.31686,134.373,Q,Q
2023-03-15 20:45:57:805,0,-54.1774,2.31842,134.371,Q,Q
2023-03-15 20:45:57:815,0,-54.1789,2.31802,134.369,Q,Q
2023-03-15 20:45:57:825,0,-54.1742,2.31763,134.374,Q,Q
2023-03-15 20:45:57:835,0,-54.1725,2.32135,134.376,Q,Q
2023-03-15 20:45:57:845,0,-54.1717,2.32298,134.376,Q,Q
2023-03-15 20:45:57:855,0,-54.1711,2.32357,134.378,Q,Q
2023-03-15 20:45:57:865,0,-54.1715,2.32243,134.381,Q,Q
2023-03-15 20:45:57:875,0,-54.1711,2.32366,134.379,Q,Q
2023-03-15 20:45:57:885,0,-54.1746,2.32192,134.378,Q,Q
2023-03-15 20:45:57:895,0,-54.1747,2.32508,134.38,Q,Q
2023-03-15 20:45:57:905,0,-54.1775,2.32228,134.38,Q,Q
2023-03-15 20:45:57:915,0,-54.1758,2.32102,134.381,Q,Q
2023-03-15 20:45:57:925,0,-54.1752,2.31892,134.378,Q,Q
2023-03-15 20:45:57:935,0,-54.1756,2.32228,134.38,Q,Q
2023-03-15 20:45:57:945,0,-54.1757,2.32442,134.377,Q,Q
2023-03-15 20:45:57:955,0,-54.1732,2.32304,134.376,Q,Q
2023-03-15 20:45:57:965,0,-54.1735,2.32285,134.377,Q,Q
2023-03-15 20:45:57:975,0,-54.1737,2.32538,134.374,Q,Q
2023-03-15 20:45:57:985,0,-54.1718,2.32557,134.371,Q,Q
2023-03-15 20:45:57:995,0,-54.1702,2.3227,134.373,Q,Q
2023-03-15 20:45:58:5,0,-54.1705,2.32435,134.37,Q,Q
2023-03-15 20:45:58:15,0,-54.1689,2.3263,134.376,Q,Q
2023-03-15 20:45:58:25,0,-54.1714,2.32542,134.374,Q,Q
2023-03-15 20:45:58:35,0,-54.1685,2.32564,134.374,Q,Q
2023-03-15 20:45:58:45,0,-54.1686,2.3252,134.374,Q,Q
2023-03-15 20:45:58:55,0,-54.1711,2.32423,134.376,Q,Q
2023-03-15 20:45:58:65,0,-54.1723,2.32127,134.374,Q,Q
2023-03-15 20:45:58:75,0,-54.1732,2.31966,134.375,Q,Q
2023-03-15 20:45:58:85,0,-54.1697,2.31958,134.376,Q,Q
2023-03-15 20:45:58:95,0,-54.1701,2.3164,134.376,Q,Q
2023-03-15 20:45:58:105,0,-54.1724,2.31508,134.376,Q,Q
2023-03-15 20:45:58:115,0,-54.1724,2.31398,134.378,Q,Q
2023-03-15 20:45:58:125,0,-54.1754,2.31308,134.376,Q,Q
2023-03-15 20:45:58:135,0,-54.1747,2.31338,134.375,Q,Q
2023-03-15 20:45:58:145,0,-54.1739,2.31106,134.374,Q,Q
2023-03-15 20:45:58:155,0,-54.1736,2.31367,134.373,Q,Q
2023-03-15 20:45:58:165,0,-54.1717,2.31263,134.376,Q,Q
2023-03-15 20:45:58:175,0,-54.1702,2.31391,134.375,Q,Q
2023-03-15 20:45:58:185,0,-54.1692,2.31822,134.372,Q,Q
2023-03-15 20:45:58:195,0,-54.168,2.3194,134.372,Q,Q
2023-03-15 20:45:58:205,0,-54.1706,2.318,134.369,Q,Q
2023-03-15 20:45:58:215,0,-54.1731,2.31852,134.366,Q,Q
2023-03-15 20:45:58:225,0,-54.1721,2.3167,134.365,Q,Q
2023-03-15 20:45:58:235,0,-54.1704,2.31522,134.362,Q,Q
2023-03-15 20:45:58:245,0,-54.1709,2.31361,134.362,Q,Q
2023-03-15 20:45:58:255,0,-54.1677,2.31051,134.362,Q,Q
2023-03-15 20:45:58:265,0,-54.1686,2.31083,134.364,Q,Q
2023-03-15 20:45:58:275,0,-54.1691,2.31037,134.366,Q,Q
2023-03-15 20:45:58:285,0,-54.1708,2.30518,134.365,Q,Q
2023-03-15 20:45:58:295,0,-54.1698,2.30194,134.365,Q,Q
2023-03-15 20:45:58:305,0,-54.1692,2.30085,134.361,Q,Q
2023-03-15 20:45:58:315,0,-54.1682,2.29989,134.36,Q,Q
2023-03-15 20:45:58:325,0,-54.1669,2.29857,134.358,Q,Q
2023-03-15 20:45:58:335,0,-54.1639,2.29788,134.359,Q,Q
2023-03-15 20:45:58:345,0,-54.1626,2.29713,134.361,Q,Q
2023-03-15 20:45:58:355,0,-54.1631,2.29516,134.36,Q,Q
2023-03-15 20:45:58:365,0,-54.1627,2.29512,134.36,Q,Q
2023-03-15 20:45:58:375,0,-54.1639,2.29664,134.358,Q,Q
2023-03-15 20:45:58:385,0,-54.1642,2.2981,134.357,Q,Q
2023-03-15 20:45:58:395,0,-54.1661,2.29931,134.352,Q,Q
2023-03-15 20:45:58:405,0,-54.1663,2.30063,134.354,Q,Q
2023-03-15 20:45:58:415,0,-54.166,2.30178,134.354,Q,Q
2023-03-15 20:45:58:425,0,-54.1648,2.30045,134.352,Q,Q
2023-03-15 20:45:58:435,0,-54.1664,2.30118,134.351,Q,Q
2023-03-15 20:45:58:445,0,-54.1661,2.30221,134.353,Q,Q
2023-03-15 20:45:58:455,0,-54.166,2.3045,134.351,Q,Q
2023-03-15 20:45:58:465,0,-54.1647,2.30357,134.354,Q,Q
2023-03-15 20:45:58:475,0,-54.1646,2.30171,134.352,Q,Q
2023-03-15 20:45:58:485,0,-54.1647,2.30834,134.351,Q,Q
2023-03-15 20:45:58:495,0,-54.1664,2.30599,134.354,Q,Q
2023-03-15 20:45:58:505,0,-54.1646,2.30511,134.357,Q,Q
2023-03-15 20:45:58:515,0,-54.1596,2.3057,134.355,Q,Q
2023-03-15 20:45:58:525,0,-54.1582,2.30783,134.36,Q,Q
2023-03-15 20:45:58:535,0,-54.1585,2.30908,134.361,Q,Q
2023-03-15 20:45:58:545,0,-54.1594,2.30859,134.359,Q,Q
2023-03-15 20:45:58:555,0,-54.1589,2.30879,134.361,Q,Q
2023-03-15 20:45:58:565,0,-54.1589,2.30952,134.364,Q,Q
2023-03-15 20:45:58:575,0,-54.1601,2.30994,134.363,Q,Q
2023-03-15 20:45:58:585,0,-54.1593,2.3096,134.362,Q,Q
2023-03-15 20:45:58:595,0,-54.161,2.3087,134.363,Q,Q
2023-03-15 20:45:58:605,0,-54.1605,2.30802,134.364,Q,Q
2023-03-15 20:45:58:615,0,-54.1616,2.308,134.364,Q,Q
2023-03-15 20:45:58:625,0,-54.1618,2.31107,134.364,Q,Q
2023-03-15 20:45:58:635,0,-54.1618,2.31041,134.365,Q,Q
2023-03-15 20:45:58:645,0,-54.1588,2.3113,134.365,Q,Q
2023-03-15 20:45:58:655,0,-54.1577,2.31226,134.36,Q,Q
2023-03-15 20:45:58:665,0,-54.1602,2.31195,134.362,Q,Q
2023-03-15 20:45:58:675,0,-54.164,2.30971,134.362,Q,Q
2023-03-15 20:45:58:685,0,-54.1657,2.31212,134.361,Q,Q
2023-03-15 20:45:58:695,0,-54.1645,2.31185,134.365,Q,Q
2023-03-15 20:45:58:705,0,-54.1674,2.31,134.362,Q,Q
2023-03-15 20:45:58:715,0,-54.1668,2.30894,134.362,Q,Q
2023-03-15 20:45:58:725,0,-54.1657,2.30855,134.362,Q,Q
2023-03-15 20:45:58:735,0,-54.1659,2.30771,134.361,Q,Q
2023-03-15 20:45:58:745,0,-54.1649,2.30497,134.357,Q,Q
2023-03-15 20:45:58:755,0,-54.1653,2.30515,134.355,Q,Q
2023-03-15 20:45:58:765,0,-54.1629,2.3058,134.357,Q,Q
2023-03-15 20:45:58:775,0,-54.1605,2.30287,134.357,Q,Q
2023-03-15 20:45:58:785,0,-54.1598,2.30219,134.358,Q,Q
2023-03-15 20:45:58:795,0,-54.1616,2.30177,134.359,Q,Q
2023-03-15 20:45:58:805,0,-54.1625,2.30111,134.356,Q,Q
2023-03-15 20:45:58:815,0,-54.1613,2.29893,134.354,Q,Q
2023-03-15 20:45:58:825,0,-54.1598,2.29905,134.355,Q,Q
2023-03-15 20:45:58:835,0,-54.1594,2.2979,134.353,Q,Q
2023-03-15 20:45:58:845,0,-54.159,2.29847,134.355,Q,Q
2023-03-15 20:45:58:855,0,-54.1594,2.29787,134.355,Q,Q
2023-03-15 20:45:58:865,0,-54.1604,2.29816,134.354,Q,Q
2023-03-15 20:45:58:875,0,-54.161,2.29841,134.353,Q,Q
2023-03-15 20:45:58:885,0,-54.1607,2.30043,134.352,Q,Q
2023-03-15 20:45:58:895,0,-54.1589,2.29967,134.354,Q,Q
2023-03-15 20:45:58:905,0,-54.1602,2.29764,134.353,Q,Q
2023-03-15 20:45:58:915,0,-54.1597,2.29764,134.354,Q,Q
2023-03-15 20:45:58:925,0,-54.157,2.29937,134.354,Q,Q
2023-03-15 20:45:58:935,0,-54.1576,2.29802,134.356,Q,Q
2023-03-15 20:45:58:945,0,-54.1582,2.29928,134.356,Q,Q
2023-03-15 20:45:58:955,0,-54.1598,2.29663,134.36,Q,Q
2023-03-15 20:45:58:965,0,-54.161,2.29699,134.359,Q,Q
2023-03-15 20:45:58:975,0,-54.1605,2.2975,134.358,Q,Q
2023-03-15 20:45:58:985,0,-54.1603,2.29667,134.36,Q,Q
2023-03-15 20:45:58:995,0,-54.1601,2.29878,134.358,Q,Q
2023-03-15 20:45:59:5,0,-54.1607,2.29926,134.358,Q,Q
2023-03-15 20:45:59:15,0,-54.1605,2.3014,134.357,Q,Q
2023-03-15 20:45:59:25,0,-54.1586,2.30143,134.358,Q,Q
2023-03-15 20:45:59:35,0,-54.1591,2.30266,134.359,Q,Q
2023-03-15 20:45:59:45,0,-54.1585,2.30247,134.362,Q,Q
2023-03-15 20:45:59:55,0,-54.1615,2.30204,134.359,Q,Q
2023-03-15 20:45:59:65,0,-54.1627,2.30204,134.361,Q,Q
2023-03-15 20:45:59:75,0,-54.1622,2.30272,134.361,Q,Q
2023-03-15 20:45:59:85,0,-54.1669,2.30394,134.359,Q,Q
2023-03-15 20:45:59:95,0,-54.1664,2.30552,134.358,Q,Q
2023-03-15 20:45:59:105,0,-54.1664,2.30332,134.357,Q,Q
2023-03-15 20:45:59:115,0,-54.1662,2.30619,134.357,Q,Q
2023-03-15 20:45:59:125,0,-54.1648,2.30843,134.355,Q,Q
2023-03-15 20:45:59:135,0,-54.164,2.30768,134.353,Q,Q
2023-03-15 20:45:59:145,0,-54.1667,2.30802,134.353,Q,Q
2023-03-15 20:45:59:155,0,-54.1632,2.30631,134.352,Q,Q
2023-03-15 20:45:59:165,0,-54.1638,2.30576,134.352,Q,Q
2023-03-15 20:45:59:175,0,-54.1677,2.30526,134.35,Q,Q
2023-03-15 20:45:59:185,0,-54.1701,2.30499,134.35,Q,Q
2023-03-15 20:45:59:195,0,-54.1678,2.30562,134.347,Q,Q
2023-03-15 20:45:59:205,0,-54.1669,2.30545,134.346,Q,Q
2023-03-15 20:45:59:215,0,-54.1612,2.30527,134.345,Q,Q
2023-03-15 20:45:59:225,0,-54.1578,2.30678,134.343,Q,Q
2023-03-15 20:45:59:235,0,-54.1568,2.30797,134.342,Q,Q
2023-03-15 20:45:59:245,0,-54.1565,2.30956,134.342,Q,Q
2023-03-15 20:45:59:255,0,-54.1569,2.31233,134.342,Q,Q
2023-03-15 20:45:59:265,0,-54.1579,2.31314,134.341,Q,Q
2023-03-15 20:45:59:275,0,-54.1623,2.3143,134.341,Q,Q
2023-03-15 20:45:59:285,0,-54.1619,2.31458,134.341,Q,Q
2023-03-15 20:45:59:295,0,-54.1608,2.31291,134.342,Q,Q
2023-03-15 20:45:59:305,0,-54.161,2.31373,134.341,Q,Q
2023-03-15 20:45:59:315,0,-54.1606,2.31363,134.341,Q,Q
2023-03-15 20:45:59:325,0,-54.1612,2.31685,134.34,Q,Q
2023-03-15 20:45:59:335,0,-54.1605,2.31529,134.341,Q,Q
2023-03-15 20:45:59:345,0,-54.1588,2.31482,134.34,Q,Q
2023-03-15 20:45:59:355,0,-54.1576,2.3146,134.343,Q,Q
2023-03-15 20:45:59:365,0,-54.1593,2.31356,134.344,Q,Q
2023-03-15 20:45:59:375,0,-54.1583,2.31258,134.345,Q,Q
2023-03-15 20:45:59:385,0,-54.159,2.31395,134.345,Q,Q
2023-03-15 20:45:59:395,0,-54.1593,2.31414,134.345,Q,Q
2023-03-15 20:45:59:405,0,-54.1589,2.314,134.343,Q,Q
2023-03-15 20:45:59:415,0,-54.1576,2.31433,134.343,Q,Q
2023-03-15 20:45:59:425,0,-54.1548,2.31444,134.344,Q,Q
2023-03-15 20:45:59:435,0,-54.1545,2.31267,134.345,Q,Q
2023-03-15 20:45:59:445,0,-54.156,2.31323,134.344,Q,Q
2023-03-15 20:45:59:455,0,-54.1583,2.31636,134.343,Q,Q
2023-03-15 20:45:59:465,0,-54.1556,2.31557,134.342,Q,Q
2023-03-15 20:45:59:475,0,-54.156,2.31737,134.342,Q,Q
2023-03-15 20:45:59:485,0,-54.1558,2.31995,134.342,Q,Q
2023-03-15 20:45:59:495,0,-54.1556,2.32338,134.34,Q,Q
2023-03-15 20:45:59:505,0,-54.1535,2.32293,134.34,Q,Q
2023-03-15 20:45:59:515,0,-54.1562,2.32435,134.339,Q,Q
2023-03-15 20:45:59:525,0,-54.1567,2.32264,134.341,Q,Q
2023-03-15 20:45:59:535,0,-54.1563,2.32108,134.342,Q,Q
2023-03-15 20:45:59:545,0,-54.1578,2.32027,134.341,Q,Q
2023-03-15 20:45:59:555,0,-54.158,2.31729,134.342,Q,Q
2023-03-15 20:45:59:565,0,-54.1584,2.31547,134.343,Q,Q
2023-03-15 20:45:59:575,0,-54.1592,2.31737,134.346,Q,Q
2023-03-15 20:45:59:585,0,-54.1562,2.31755,134.342,Q,Q
2023-03-15 20:45:59:595,0,-54.1547,2.31757,134.341,Q,Q
2023-03-15 20:45:59:605,0,-54.1531,2.3168,134.342,Q,Q
2023-03-15 20:45:59:615,0,-54.1511,2.3178,134.341,Q,Q
2023-03-15 20:45:59:625,0,-54.1511,2.31955,134.341,Q,Q
2023-03-15 20:45:59:635,0,-54.1521,2.31972,134.342,Q,Q
2023-03-15 20:45:59:645,0,-54.1571,2.31863,134.341,Q,Q
2023-03-15 20:45:59:655,0,-54.1568,2.31731,134.343,Q,Q
2023-03-15 20:45:59:665,0,-54.1553,2.31847,134.344,Q,Q
2023-03-15 20:45:59:675,0,-54.1537,2.32231,134.345,Q,Q
2023-03-15 20:45:59:685,0,-54.153,2.32477,134.342,Q,Q
2023-03-15 20:45:59:695,0,-54.1539,2.32655,134.342,Q,Q
2023-03-15 20:45:59:705,0,-54.1542,2.32449,134.342,Q,Q
2023-03-15 20:45:59:715,0,-54.1558,2.32611,134.344,Q,Q
2023-03-15 20:45:59:725,0,-54.155,2.32572,134.343,Q,Q
2023-03-15 20:45:59:735,0,-54.1543,2.32557,134.343,Q,Q
2023-03-15 20:45:59:745,0,-54.1539,2.3243,134.345,Q,Q
2023-03-15 20:45:59:755,0,-54.155,2.32464,134.347,Q,Q
2023-03-15 20:45:59:765,0,-54.1589,2.32703,134.346,Q,Q
2023-03-15 20:45:59:775,0,-54.1579,2.32963,134.343,Q,Q
2023-03-15 20:45:59:785,0,-54.1564,2.33241,134.342,Q,Q
2023-03-15 20:45:59:795,0,-54.1531,2.33261,134.341,Q,Q
2023-03-15 20:45:59:805,0,-54.1543,2.33293,134.338,Q,Q
2023-03-15 20:45:59:815,0,-54.1547,2.3298,134.338,Q,Q
2023-03-15 20:45:59:825,0,-54.1521,2.33029,134.34,Q,Q
2023-03-15 20:45:59:835,0,-54.1529,2.33202,134.339,Q,Q
2023-03-15 20:45:59:845,0,-54.1519,2.33296,134.34,Q,Q
2023-03-15 20:45:59:855,0,-54.1501,2.33111,134.337,Q,Q
2023-03-15 20:45:59:865,0,-54.1499,2.33358,134.339,Q,Q
2023-03-15 20:45:59:875,0,-54.1512,2.33394,134.339,Q,Q
2023-03-15 20:45:59:885,0,-54.1517,2.33394,134.339,Q,Q
2023-03-15 20:45:59:895,0,-54.1495,2.33266,134.341,Q,Q
2023-03-15 20:45:59:905,0,-54.1509,2.3303,134.344,Q,Q
2023-03-15 20:45:59:915,0,-54.1518,2.32896,134.345,Q,Q
2023-03-15 20:45:59:925,0,-54.1527,2.32844,134.343,Q,Q
2023-03-15 20:45:59:935,0,-54.1507,2.32575,134.343,Q,Q
2023-03-15 20:45:59:945,0,-54.1518,2.32743,134.346,Q,Q
2023-03-15 20:45:59:955,0,-54.1508,2.32647,134.346,Q,Q
2023-03-15 20:45:59:965,0,-54.1511,2.32626,134.345,Q,Q
2023-03-15 20:45:59:975,0,-54.1535,2.32652,134.344,Q,Q
2023-03-15 20:45:59:985,0,-54.1532,2.32916,134.346,Q,Q
2023-03-15 20:45:59:995,0,-54.1537,2.32926,134.346,Q,Q
2023-03-15 20:46:00:5,0,-54.1549,2.3305,134.344,Q,Q
2023-03-15 20:46:00:15,0,-54.1571,2.33289,134.342,Q,Q
2023-03-15 20:46:00:25,0,-54.1593,2.33224,134.344,Q,Q
2023-03-15 20:46:00:35,0,-54.1583,2.33225,134.339,Q,Q
2023-03-15 20:46:00:45,0,-54.157,2.33192,134.339,Q,Q
2023-03-15 20:46:00:55,0,-54.1546,2.33477,134.334,Q,Q
2023-03-15 20:46:00:65,0,-54.1559,2.33637,134.334,Q,Q
2023-03-15 20:46:00:75,0,-54.1554,2.33847,134.333,Q,Q
2023-03-15 20:46:00:85,0,-54.1547,2.33947,134.333,Q,Q
2023-03-15 20:46:00:95,0,-54.157,2.3385,134.332,Q,Q
2023-03-15 20:46:00:105,0,-54.1559,2.34003,134.334,Q,Q
2023-03-15 20:46:00:115,0,-54.1561,2.34123,134.334,Q,Q
2023-03-15 20:46:00:125,0,-54.1551,2.33929,134.334,Q,Q
2023-03-15 20:46:00:135,0,-54.1514,2.33924,134.333,Q,Q
2023-03-15 20:46:00:145,0,-54.1531,2.34145,134.334,Q,Q
2023-03-15 20:46:00:155,0,-54.1525,2.3402,134.334,Q,Q
2023-03-15 20:46:00:165,0,-54.1526,2.33642,134.337,Q,Q
2023-03-15 20:46:00:175,0,-54.1523,2.33705,134.339,Q,Q
2023-03-15 20:46:00:185,0,-54.1528,2.33761,134.338,Q,Q
2023-03-15 20:46:00:195,0,-54.1521,2.33945,134.339,Q,Q
2023-03-15 20:46:00:205,0,-54.1492,2.34271,134.342,Q,Q
2023-03-15 20:46:00:215,0,-54.1459,2.34113,134.345,Q,Q
2023-03-15 20:46:00:225,0,-54.1467,2.34322,134.345,Q,Q
2023-03-15 20:46:00:235,0,-54.147,2.34354,134.342,Q,Q
2023-03-15 20:46:00:245,0,-54.1477,2.34513,134.343,Q,Q
2023-03-15 20:46:00:255,0,-54.1455,2.34372,134.343,Q,Q
2023-03-15 20:46:00:265,0,-54.1457,2.34306,134.344,Q,Q
2023-03-15 20:46:00:275,0,-54.1454,2.34106,134.344,Q,Q
2023-03-15 20:46:00:285,0,-54.1465,2.33997,134.343,Q,Q
2023-03-15 20:46:00:295,0,-54.1458,2.34027,134.344,Q,Q
2023-03-15 20:46:00:305,0,-54.1437,2.34137,134.344,Q,Q
2023-03-15 20:46:00:315,0,-54.1463,2.34068,134.344,Q,Q
2023-03-15 20:46:00:325,0,-54.1457,2.34155,134.344,Q,Q
2023-03-15 20:46:00:335,0,-54.1465,2.34189,134.346,Q,Q
2023-03-15 20:46:00:345,0,-54.1483,2.33793,134.347,Q,Q
2023-03-15 20:46:00:355,0,-54.145,2.33807,134.345,Q,Q
2023-03-15 20:46:00:365,0,-54.1435,2.33719,134.346,Q,Q
2023-03-15 20:46:00:375,0,-54.1461,2.33828,134.346,Q,Q
2023-03-15 20:46:00:385,0,-54.1494,2.33821,134.347,Q,Q
2023-03-15 20:46:00:395,0,-54.1491,2.34009,134.347,Q,Q
2023-03-15 20:46:00:405,0,-54.1486,2.34114,134.347,Q,Q
2023-03-15 20:46:00:415,0,-54.1488,2.33953,134.346,Q,Q
2023-03-15 20:46:00:425,0,-54.1485,2.34094,134.346,Q,Q
2023-03-15 20:46:00:435,0,-54.1445,2.3388,134.349,Q,Q
2023-03-15 20:46:00:445,0,-54.1467,2.33886,134.345,Q,Q
2023-03-15 20:46:00:455,0,-54.1448,2.33833,134.343,Q,Q
2023-03-15 20:46:00:465,0,-54.1466,2.34076,134.341,Q,Q
2023-03-15 20:46:00:475,0,-54.1461,2.34032,134.338,Q,Q
2023-03-15 20:46:00:485,0,-54.1474,2.33751,134.336,Q,Q
2023-03-15 20:46:00:495,0,-54.1486,2.33791,134.334,Q,Q
2023-03-15 20:46:00:505,0,-54.1505,2.3396,134.336,Q,Q
2023-03-15 20:46:00:515,0,-54.1467,2.34008,134.336,Q,Q
2023-03-15 20:46:00:525,0,-54.1479,2.34039,134.337,Q,Q
2023-03-15 20:46:00:535,0,-54.1462,2.34102,134.335,Q,Q
2023-03-15 20:46:00:545,0,-54.1481,2.34217,134.333,Q,Q
2023-03-15 20:46:00:555,0,-54.1467,2.34564,134.33,Q,Q
2023-03-15 20:46:00:565,0,-54.1511,2.34361,134.331,Q,Q
2023-03-15 20:46:00:575,0,-54.1525,2.34432,134.331,Q,Q
2023-03-15 20:46:00:585,0,-54.1501,2.3436,134.334,Q,Q
2023-03-15 20:46:00:595,0,-54.1496,2.3434,134.332,Q,Q
2023-03-15 20:46:00:605,0,-54.1502,2.33978,134.333,Q,Q
2023-03-15 20:46:00:615,0,-54.1478,2.33944,134.335,Q,Q
2023-03-15 20:46:00:625,0,-54.1499,2.34076,134.337,Q,Q
2023-03-15 20:46:00:635,0,-54.1488,2.3396,134.338,Q,Q
2023-03-15 20:46:00:645,0,-54.1509,2.33769,134.336,Q,Q
2023-03-15 20:46:00:655,0,-54.1511,2.33758,134.334,Q,Q
2023-03-15 20:46:00:665,0,-54.1512,2.34194,134.331,Q,Q
2023-03-15 20:46:00:675,0,-54.1536,2.33818,134.334,Q,Q
2023-03-15 20:46:00:685,0,-54.1556,2.34061,134.334,Q,Q
2023-03-15 20:46:00:695,0,-54.1593,2.33913,134.333,Q,Q
2023-03-15 20:46:00:705,0,-54.1607,2.33598,134.332,Q,Q
2023-03-15 20:46:00:715,0,-54.1598,2.33692,134.333,Q,Q
2023-03-15 20:46:00:725,0,-54.1627,2.33921,134.331,Q,Q
2023-03-15 20:46:00:735,0,-54.1611,2.34362,134.327,Q,Q
2023-03-15 20:46:00:745,0,-54.1626,2.34364,134.324,Q,Q
2023-03-15 20:46:00:755,0,-54.1625,2.34392,134.322,Q,Q
2023-03-15 20:46:00:765,0,-54.1651,2.34242,134.323,Q,Q
2023-03-15 20:46:00:775,0,-54.1656,2.34008,134.321,Q,Q
2023-03-15 20:46:00:785,0,-54.1668,2.3375,134.322,Q,Q
2023-03-15 20:46:00:795,0,-54.168,2.33979,134.319,Q,Q
2023-03-15 20:46:00:805,0,-54.1652,2.34092,134.319,Q,Q
2023-03-15 20:46:00:815,0,-54.1661,2.33922,134.316,Q,Q
2023-03-15 20:46:00:825,0,-54.1684,2.33909,134.315,Q,Q
2023-03-15 20:46:00:835,0,-54.1712,2.33762,134.312,Q,Q
2023-03-15 20:46:00:845,0,-54.1717,2.33442,134.311,Q,Q
2023-03-15 20:46:00:855,0,-54.1744,2.33218,134.31,Q,Q
2023-03-15 20:46:00:865,0,-54.1756,2.3313,134.309,Q,Q
2023-03-15 20:46:00:875,0,-54.1777,2.33122,134.308,Q,Q
2023-03-15 20:46:00:885,0,-54.1779,2.33476,134.308,Q,Q
2023-03-15 20:46:00:895,0,-54.1801,2.3298,134.308,Q,Q
2023-03-15 20:46:00:905,0,-54.1829,2.33093,134.309,Q,Q
2023-03-15 20:46:00:915,0,-54.1842,2.33011,134.309,Q,Q
2023-03-15 20:46:00:925,0,-54.1853,2.32889,134.308,Q,Q
2023-03-15 20:46:00:935,0,-54.1865,2.33012,134.31,Q,Q
2023-03-15 20:46:00:945,0,-54.1894,2.33114,134.312,Q,Q
2023-03-15 20:46:00:955,0,-54.1846,2.33539,134.313,Q,Q
2023-03-15 20:46:00:965,0,-54.1801,2.33784,134.31,Q,Q
2023-03-15 20:46:00:975,0,-54.1809,2.33909,134.309,Q,Q
2023-03-15 20:46:00:985,0,-54.185,2.33418,134.306,Q,Q
2023-03-15 20:46:00:995,0,-54.1947,2.32629,134.3,Q,Q
2023-03-15 20:46:01:5,0,-54.1959,2.32524,134.298,Q,Q
2023-03-15 20:46:01:15,0,-54.194,2.32719,134.298,Q,Q
2023-03-15 20:46:01:25,0,-54.1954,2.32891,134.297,Q,Q
2023-03-15 20:46:01:35,0,-54.1996,2.32738,134.298,Q,Q
2023-03-15 20:46:01:45,0,-54.2006,2.3271,134.299,Q,Q
2023-03-15 20:46:01:55,0,-54.2028,2.32662,134.299,Q,Q
2023-03-15 20:46:01:65,0,-54.2028,2.32612,134.298,Q,Q
2023-03-15 20:46:01:75,0,-54.2041,2.32763,134.297,Q,Q
2023-03-15 20:46:01:85,0,-54.2029,2.32696,134.298,Q,Q
2023-03-15 20:46:01:95,0,-54.2026,2.32672,134.297,Q,Q
2023-03-15 20:46:01:105,0,-54.2018,2.32527,134.299,Q,Q
2023-03-15 20:46:01:115,0,-54.1997,2.32759,134.296,Q,Q
2023-03-15 20:46:01:125,0,-54.1966,2.32647,134.295,Q,Q
2023-03-15 20:46:01:135,0,-54.1956,2.32678,134.294,Q,Q
2023-03-15 20:46:01:145,0,-54.1978,2.32556,134.291,Q,Q
2023-03-15 20:46:01:155,0,-54.1998,2.32575,134.29,Q,Q
2023-03-15 20:46:01:165,0,-54.1965,2.32443,134.291,Q,Q
2023-03-15 20:46:01:175,0,-54.1945,2.32247,134.293,Q,Q
2023-03-15 20:46:01:185,0,-54.194,2.32371,134.296,Q,Q
2023-03-15 20:46:01:195,0,-54.193,2.32625,134.298,Q,Q
2023-03-15 20:46:01:205,0,-54.1924,2.32838,134.301,Q,Q
2023-03-15 20:46:01:215,0,-54.1917,2.32623,134.302,Q,Q
2023-03-15 20:46:01:225,0,-54.1918,2.32622,134.305,Q,Q
2023-03-15 20:46:01:235,0,-54.1947,2.32638,134.307,Q,Q
2023-03-15 20:46:01:245,0,-54.1973,2.32716,134.309,Q,Q
2023-03-15 20:46:01:255,0,-54.1989,2.32268,134.309,Q,Q
2023-03-15 20:46:01:265,0,-54.1978,2.32248,134.308,Q,Q
2023-03-15 20:46:01:275,0,-54.1978,2.32325,134.311,Q,Q
2023-03-15 20:46:01:285,0,-54.1986,2.32373,134.31,Q,Q
2023-03-15 20:46:01:295,0,-54.1961,2.32411,134.308,Q,Q
2023-03-15 20:46:01:305,0,-54.1967,2.32346,134.303,Q,Q
2023-03-15 20:46:01:315,0,-54.1943,2.32531,134.304,Q,Q
2023-03-15 20:46:01:325,0,-54.1915,2.32463,134.306,Q,Q
2023-03-15 20:46:01:335,0,-54.1899,2.32423,134.305,Q,Q
2023-03-15 20:46:01:345,0,-54.1893,2.3225,134.303,Q,Q
2023-03-15 20:46:01:355,0,-54.1882,2.32078,134.306,Q,Q
2023-03-15 20:46:01:365,0,-54.1891,2.3226,134.303,Q,Q
2023-03-15 20:46:01:375,0,-54.1892,2.32412,134.302,Q,Q
2023-03-15 20:46:01:385,0,-54.1913,2.32575,134.302,Q,Q
2023-03-15 20:46:01:395,0,-54.1949,2.3259,134.301,Q,Q
2023-03-15 20:46:01:405,0,-54.1993,2.32623,134.299,Q,Q
2023-03-15 20:46:01:415,0,-54.1991,2.32828,134.3,Q,Q
2023-03-15 20:46:01:425,0,-54.1963,2.32921,134.301,Q,Q
2023-03-15 20:46:01:435,0,-54.1951,2.33036,134.303,Q,Q
2023-03-15 20:46:01:445,0,-54.191,2.331,134.303,Q,Q
2023-03-15 20:46:01:455,0,-54.1889,2.32926,134.305,Q,Q
2023-03-15 20:46:01:465,0,-54.1885,2.32794,134.304,Q,Q
2023-03-15 20:46:01:475,0,-54.1902,2.32865,134.306,Q,Q
2023-03-15 20:46:01:485,0,-54.1889,2.32933,134.305,Q,Q
2023-03-15 20:46:01:495,0,-54.1901,2.32826,134.305,Q,Q
2023-03-15 20:46:01:505,0,-54.1916,2.33049,134.303,Q,Q
2023-03-15 20:46:01:515,0,-54.1904,2.32852,134.301,Q,Q
2023-03-15 20:46:01:525,0,-54.1922,2.3295,134.301,Q,Q
2023-03-15 20:46:01:535,0,-54.1954,2.33045,134.298,Q,Q
2023-03-15 20:46:01:545,0,-54.1943,2.32763,134.299,Q,Q
2023-03-15 20:46:01:555,0,-54.1941,2.32596,134.298,Q,Q
2023-03-15 20:46:01:565,0,-54.1911,2.32544,134.299,Q,Q
2023-03-15 20:46:01:575,0,-54.1927,2.32812,134.298,Q,Q
2023-03-15 20:46:01:585,0,-54.1912,2.32795,134.296,Q,Q
2023-03-15 20:46:01:595,0,-54.1865,2.32672,134.294,Q,Q
2023-03-15 20:46:01:605,0,-54.1865,2.3285,134.296,Q,Q
2023-03-15 20:46:01:615,0,-54.1868,2.3279,134.295,Q,Q
2023-03-15 20:46:01:625,0,-54.1864,2.32854,134.294,Q,Q
2023-03-15 20:46:01:635,0,-54.1879,2.32817,134.293,Q,Q
2023-03-15 20:46:01:645,0,-54.1872,2.33232,134.293,Q,Q
2023-03-15 20:46:01:655,0,-54.1866,2.32999,134.297,Q,Q
2023-03-15 20:46:01:665,0,-54.1876,2.3288,134.297,Q,Q
2023-03-15 20:46:01:675,0,-54.1892,2.33261,134.296,Q,Q
2023-03-15 20:46:01:685,0,-54.1922,2.32969,134.293,Q,Q
2023-03-15 20:46:01:695,0,-54.1927,2.33077,134.293,Q,Q
2023-03-15 20:46:01:705,0,-54.1934,2.32826,134.295,Q,Q
2023-03-15 20:46:01:715,0,-54.192,2.327,134.295,Q,Q
2023-03-15 20:46:01:725,0,-54.1905,2.3273,134.297,Q,Q
2023-03-15 20:46:01:735,0,-54.1919,2.32672,134.298,Q,Q
2023-03-15 20:46:01:745,0,-54.1883,2.32674,134.3,Q,Q
2023-03-15 20:46:01:755,0,-54.1899,2.32791,134.297,Q,Q
2023-03-15 20:46:01:765,0,-54.1911,2.32564,134.297,Q,Q
2023-03-15 20:46:01:775,0,-54.1921,2.32549,134.299,Q,Q
2023-03-15 20:46:01:785,0,-54.1936,2.32479,134.298,Q,Q
2023-03-15 20:46:01:795,0,-54.1924,2.32306,134.297,Q,Q
2023-03-15 20:46:01:805,0,-54.1917,2.32109,134.297,Q,Q
2023-03-15 20:46:01:815,0,-54.1907,2.31967,134.297,Q,Q
2023-03-15 20:46:01:825,0,-54.1934,2.3209,134.293,Q,Q
2023-03-15 20:46:01:835,0,-54.1957,2.31827,134.294,Q,Q
2023-03-15 20:46:01:845,0,-54.1989,2.31904,134.297,Q,Q
2023-03-15 20:46:01:855,0,-54.1997,2.31879,134.295,Q,Q
2023-03-15 20:46:01:865,0,-54.1992,2.31794,134.296,Q,Q
2023-03-15 20:46:01:875,0,-54.2027,2.31786,134.297,Q,Q
2023-03-15 20:46:01:885,0,-54.2006,2.31953,134.294,Q,Q
2023-03-15 20:46:01:895,0,-54.2042,2.31859,134.292,Q,Q
2023-03-15 20:46:01:905,0,-54.2023,2.32141,134.29,Q,Q
2023-03-15 20:46:01:915,0,-54.2034,2.31989,134.287,Q,Q
2023-03-15 20:46:01:925,0,-54.2031,2.3203,134.288,Q,Q
2023-03-15 20:46:01:935,0,-54.2014,2.31935,134.288,Q,Q
2023-03-15 20:46:01:945,0,-54.2011,2.31878,134.29,Q,Q
2023-03-15 20:46:01:955,0,-54.2001,2.31767,134.29,Q,Q
2023-03-15 20:46:01:965,0,-54.1993,2.31643,134.288,Q,Q
2023-03-15 20:46:01:975,0,-54.1999,2.31587,134.292,Q,Q
2023-03-15 20:46:01:985,0,-54.2009,2.31555,134.295,Q,Q
2023-03-15 20:46:01:995,0,-54.2017,2.31442,134.296,Q,Q
2023-03-15 20:46:02:5,0,-54.1989,2.31329,134.297,Q,Q
2023-03-15 20:46:02:15,0,-54.197,2.31091,134.3,Q,Q
2023-03-15 20:46:02:25,0,-54.1956,2.31485,134.302,Q,Q
2023-03-15 20:46:02:35,0,-54.1964,2.31266,134.302,Q,Q
2023-03-15 20:46:02:45,0,-54.1951,2.31297,134.302,Q,Q
2023-03-15 20:46:02:55,0,-54.1963,2.31409,134.301,Q,Q
2023-03-15 20:46:02:65,0,-54.1944,2.31351,134.304,Q,Q
2023-03-15 20:46:02:75,0,-54.1974,2.31165,134.305,Q,Q
2023-03-15 20:46:02:85,0,-54.1969,2.30808,134.305,Q,Q
2023-03-15 20:46:02:95,0,-54.1962,2.30897,134.302,Q,Q
2023-03-15 20:46:02:105,0,-54.1942,2.30745,134.301,Q,Q
2023-03-15 20:46:02:115,0,-54.1932,2.30929,134.299,Q,Q
2023-03-15 20:46:02:125,0,-54.1963,2.31085,134.297,Q,Q
2023-03-15 20:46:02:135,0,-54.1951,2.31148,134.299,Q,Q
2023-03-15 20:46:02:145,0,-54.1979,2.30784,134.301,Q,Q
2023-03-15 20:46:02:155,0,-54.1966,2.31025,134.304,Q,Q
2023-03-15 20:46:02:165,0,-54.1991,2.3095,134.305,Q,Q
2023-03-15 20:46:02:175,0,-54.1975,2.31135,134.304,Q,Q
2023-03-15 20:46:02:185,0,-54.1986,2.30783,134.304,Q,Q
2023-03-15 20:46:02:195,0,-54.1979,2.30878,134.303,Q,Q
2023-03-15 20:46:02:205,0,-54.1987,2.30819,134.303,Q,Q
2023-03-15 20:46:02:215,0,-54.197,2.30942,134.305,Q,Q
2023-03-15 20:46:02:225,0,-54.198,2.31259,134.303,Q,Q
2023-03-15 20:46:02:235,0,-54.198,2.31347,134.302,Q,Q
2023-03-15 20:46:02:245,0,-54.1976,2.31522,134.302,Q,Q
2023-03-15 20:46:02:255,0,-54.1951,2.31809,134.304,Q,Q
2023-03-15 20:46:02:265,0,-54.1939,2.32074,134.309,Q,Q
2023-03-15 20:46:02:275,0,-54.1939,2.31949,134.311,Q,Q
2023-03-15 20:46:02:285,0,-54.191,2.31854,134.31,Q,Q
2023-03-15 20:46:02:295,0,-54.1886,2.316,134.31,Q,Q
2023-03-15 20:46:02:305,0,-54.1939,2.3163,134.311,Q,Q
2023-03-15 20:46:02:315,0,-54.1932,2.31796,134.314,Q,Q
2023-03-15 20:46:02:325,0,-54.1901,2.31646,134.31,Q,Q
2023-03-15 20:46:02:335,0,-54.1875,2.31721,134.314,Q,Q
2023-03-15 20:46:02:345,0,-54.1875,2.3206,134.314,Q,Q
2023-03-15 20:46:02:355,0,-54.1875,2.32456,134.314,Q,Q
2023-03-15 20:46:02:365,0,-54.1869,2.3258,134.315,Q,Q
2023-03-15 20:46:02:375,0,-54.1846,2.32586,134.313,Q,Q
2023-03-15 20:46:02:385,0,-54.184,2.32578,134.309,Q,Q
2023-03-15 20:46:02:395,0,-54.1856,2.32717,134.307,Q,Q
2023-03-15 20:46:02:405,0,-54.1837,2.3274,134.307,Q,Q
2023-03-15 20:46:02:415,0,-54.185,2.32584,134.309,Q,Q
2023-03-15 20:46:02:425,0,-54.1855,2.32484,134.308,Q,Q
2023-03-15 20:46:02:435,0,-54.1841,2.3247,134.307,Q,Q
2023-03-15 20:46:02:445,0,-54.185,2.32391,134.305,Q,Q
2023-03-15 20:46:02:455,0,-54.1828,2.32467,134.304,Q,Q
2023-03-15 20:46:02:465,0,-54.1829,2.32347,134.306,Q,Q
2023-03-15 20:46:02:475,0,-54.1834,2.32417,134.307,Q,Q
2023-03-15 20:46:02:485,0,-54.1831,2.32206,134.308,Q,Q
2023-03-15 20:46:02:495,0,-54.1841,2.32079,134.308,Q,Q
2023-03-15 20:46:02:505,0,-54.1818,2.32328,134.305,Q,Q
2023-03-15 20:46:02:515,0,-54.179,2.32108,134.308,Q,Q
2023-03-15 20:46:02:525,0,-54.1789,2.31954,134.306,Q,Q
2023-03-15 20:46:02:535,0,-54.1814,2.3183,134.304,Q,Q
2023-03-15 20:46:02:545,0,-54.1812,2.31935,134.303,Q,Q
2023-03-15 20:46:02:555,0,-54.1814,2.31863,134.302,Q,Q
2023-03-15 20:46:02:565,0,-54.1798,2.31912,134.303,Q,Q
2023-03-15 20:46:02:575,0,-54.1758,2.32125,134.304,Q,Q
2023-03-15 20:46:02:585,0,-54.1764,2.32132,134.307,Q,Q
2023-03-15 20:46:02:595,0,-54.179,2.32404,134.309,Q,Q
2023-03-15 20:46:02:605,0,-54.1816,2.32029,134.31,Q,Q
2023-03-15 20:46:02:615,0,-54.1822,2.32001,134.307,Q,Q
2023-03-15 20:46:02:625,0,-54.1817,2.31786,134.309,Q,Q
2023-03-15 20:46:02:635,0,-54.1814,2.32035,134.309,Q,Q
2023-03-15 20:46:02:645,0,-54.1841,2.32069,134.312,Q,Q
2023-03-15 20:46:02:655,0,-54.1831,2.32021,134.315,Q,Q
2023-03-15 20:46:02:665,0,-54.184,2.3226,134.316,Q,Q
2023-03-15 20:46:02:675,0,-54.1831,2.32496,134.318,Q,Q
2023-03-15 20:46:02:685,0,-54.1854,2.32512,134.32,Q,Q
2023-03-15 20:46:02:695,0,-54.1846,2.3235,134.32,Q,Q
2023-03-15 20:46:02:705,0,-54.1837,2.32242,134.319,Q,Q
2023-03-15 20:46:02:715,0,-54.184,2.32182,134.318,Q,Q
2023-03-15 20:46:02:725,0,-54.181,2.32167,134.317,Q,Q
2023-03-15 20:46:02:735,0,-54.1799,2.3241,134.317,Q,Q
2023-03-15 20:46:02:745,0,-54.1786,2.32526,134.315,Q,Q
2023-03-15 20:46:02:755,0,-54.1796,2.32468,134.314,Q,Q
2023-03-15 20:46:02:765,0,-54.1798,2.32175,134.317,Q,Q
2023-03-15 20:46:02:775,0,-54.1785,2.32448,134.318,Q,Q
2023-03-15 20:46:02:785,0,-54.1782,2.32574,134.321,Q,Q
2023-03-15 20:46:02:795,0,-54.1806,2.32581,134.321,Q,Q
2023-03-15 20:46:02:805,0,-54.1803,2.32245,134.324,Q,Q
2023-03-15 20:46:02:815,0,-54.1815,2.32095,134.325,Q,Q
2023-03-15 20:46:02:825,0,-54.1807,2.32171,134.323,Q,Q
2023-03-15 20:46:02:835,0,-54.1831,2.32378,134.321,Q,Q
2023-03-15 20:46:02:845,0,-54.1856,2.32653,134.324,Q,Q
2023-03-15 20:46:02:855,0,-54.1879,2.32523,134.322,Q,Q
2023-03-15 20:46:02:865,0,-54.1855,2.32578,134.324,Q,Q
2023-03-15 20:46:02:875,0,-54.1876,2.32811,134.324,Q,Q
2023-03-15 20:46:02:885,0,-54.1867,2.32772,134.324,Q,Q
2023-03-15 20:46:02:895,0,-54.1862,2.33202,134.322,Q,Q
2023-03-15 20:46:02:905,0,-54.186,2.33007,134.323,Q,Q
2023-03-15 20:46:02:915,0,-54.1855,2.33108,134.324,Q,Q
2023-03-15 20:46:02:925,0,-54.1852,2.32949,134.321,Q,Q
2023-03-15 20:46:02:935,0,-54.1847,2.33099,134.319,Q,Q
2023-03-15 20:46:02:945,0,-54.1818,2.3287,134.318,Q,Q
2023-03-15 20:46:02:955,0,-54.1804,2.32814,134.317,Q,Q
2023-03-15 20:46:02:965,0,-54.1791,2.32518,134.316,Q,Q
2023-03-15 20:46:02:975,0,-54.1788,2.3249,134.317,Q,Q
2023-03-15 20:46:02:985,0,-54.1774,2.32436,134.32,Q,Q
2023-03-15 20:46:02:995,0,-54.1767,2.32601,134.32,Q,Q
2023-03-15 20:46:03:5,0,-54.1762,2.32663,134.322,Q,Q
2023-03-15 20:46:03:15,0,-54.1751,2.32781,134.322,Q,Q
2023-03-15 20:46:03:25,0,-54.1769,2.32458,134.32,Q,Q
2023-03-15 20:46:03:35,0,-54.1774,2.3259,134.321,Q,Q
2023-03-15 20:46:03:45,0,-54.1805,2.32379,134.32,Q,Q
2023-03-15 20:46:03:55,0,-54.1788,2.32272,134.321,Q,Q
2023-03-15 20:46:03:65,0,-54.18,2.32004,134.318,Q,Q
2023-03-15 20:46:03:75,0,-54.1825,2.3191,134.321,Q,Q
2023-03-15 20:46:03:85,0,-54.18,2.32195,134.32,Q,Q
2023-03-15 20:46:03:95,0,-54.1814,2.32256,134.322,Q,Q
2023-03-15 20:46:03:105,0,-54.1834,2.32315,134.321,Q,Q
2023-03-15 20:46:03:115,0,-54.1836,2.32177,134.321,Q,Q
2023-03-15 20:46:03:125,0,-54.1859,2.31982,134.322,Q,Q
2023-03-15 20:46:03:135,0,-54.1864,2.31707,134.321,Q,Q
2023-03-15 20:46:03:145,0,-54.1825,2.31835,134.322,Q,Q
2023-03-15 20:46:03:155,0,-54.1811,2.31879,134.323,Q,Q
2023-03-15 20:46:03:165,0,-54.1801,2.31599,134.32,Q,Q
2023-03-15 20:46:03:175,0,-54.2007,2.2997,134.317,Q,Q
2023-03-15 20:46:03:185,0,-54.1957,2.30773,134.319,Q,Q
2023-03-15 20:46:03:195,0,-54.196,2.30468,134.318,Q,Q
2023-03-15 20:46:03:205,0,-54.1954,2.3061,134.322,Q,Q
2023-03-15 20:46:03:215,0,-54.1956,2.3059,134.321,Q,Q
2023-03-15 20:46:03:225,0,-54.1987,2.30537,134.321,Q,Q
2023-03-15 20:46:03:235,0,-54.1988,2.30736,134.321,Q,Q
2023-03-15 20:46:03:245,0,-54.2019,2.30716,134.321,Q,Q
2023-03-15 20:46:03:255,0,-54.2038,2.30691,134.319,Q,Q
2023-03-15 20:46:03:265,0,-54.2043,2.30661,134.317,Q,Q
2023-03-15 20:46:03:275,0,-54.208,2.30675,134.317,Q,Q
2023-03-15 20:46:03:285,0,-54.2074,2.30755,134.318,Q,Q
2023-03-15 20:46:03:295,0,-54.2107,2.30631,134.317,Q,Q
2023-03-15 20:46:03:305,0,-54.2093,2.30578,134.32,Q,Q
2023-03-15 20:46:03:315,0,-54.2079,2.30539,134.319,Q,Q
2023-03-15 20:46:03:325,0,-54.2095,2.30673,134.318,Q,Q
2023-03-15 20:46:03:335,0,-54.2096,2.30684,134.32,Q,Q
2023-03-15 20:46:03:345,0,-54.2085,2.31021,134.32,Q,Q
2023-03-15 20:46:03:355,0,-54.211,2.31096,134.319,Q,Q
2023-03-15 20:46:03:365,0,-54.2108,2.3116,134.32,Q,Q
2023-03-15 20:46:03:375,0,-54.2105,2.31119,134.319,Q,Q
2023-03-15 20:46:03:385,0,-54.2085,2.31136,134.321,Q,Q
2023-03-15 20:46:03:395,0,-54.2072,2.31122,134.323,Q,Q
2023-03-15 20:46:03:405,0,-54.2033,2.31281,134.325,Q,Q
2023-03-15 20:46:03:415,0,-54.2049,2.31469,134.323,Q,Q
2023-03-15 20:46:03:425,0,-54.2011,2.3138,134.326,Q,Q
2023-03-15 20:46:03:435,0,-54.204,2.314,134.327,Q,Q
2023-03-15 20:46:03:445,0,-54.2054,2.31458,134.328,Q,Q
2023-03-15 20:46:03:455,0,-54.2068,2.31324,134.328,Q,Q
2023-03-15 20:46:03:465,0,-54.2033,2.3138,134.329,Q,Q
2023-03-15 20:46:03:475,0,-54.2041,2.31386,134.334,Q,Q
2023-03-15 20:46:03:485,0,-54.2017,2.31545,134.334,Q,Q
2023-03-15 20:46:03:495,0,-54.1996,2.31407,134.335,Q,Q
2023-03-15 20:46:03:505,0,-54.1965,2.31332,134.336,Q,Q
2023-03-15 20:46:03:515,0,-54.1974,2.31196,134.338,Q,Q
2023-03-15 20:46:03:525,0,-54.1983,2.31285,134.336,Q,Q
2023-03-15 20:46:03:535,0,-54.1965,2.3153,134.334,Q,Q
2023-03-15 20:46:03:545,0,-54.198,2.31576,134.335,Q,Q
2023-03-15 20:46:03:555,0,-54.1981,2.31656,134.337,Q,Q
2023-03-15 20:46:03:565,0,-54.1988,2.31782,134.338,Q,Q
2023-03-15 20:46:03:575,0,-54.2008,2.31699,134.342,Q,Q
2023-03-15 20:46:03:585,0,-54.1993,2.32008,134.342,Q,Q
2023-03-15 20:46:03:595,0,-54.198,2.32135,134.339,Q,Q
2023-03-15 20:46:03:605,0,-54.1965,2.32374,134.34,Q,Q
2023-03-15 20:46:03:615,0,-54.1958,2.32371,134.338,Q,Q
2023-03-15 20:46:03:626,0,-54.1947,2.32265,134.337,Q,Q
2023-03-15 20:46:03:635,0,-54.197,2.32123,134.341,Q,Q
2023-03-15 20:46:03:645,0,-54.194,2.31939,134.339,Q,Q
2023-03-15 20:46:03:655,0,-54.1957,2.31913,134.338,Q,Q
2023-03-15 20:46:03:665,0,-54.1968,2.31786,134.339,Q,Q
2023-03-15 20:46:03:675,0,-54.1967,2.31682,134.337,Q,Q
2023-03-15 20:46:03:685,0,-54.1976,2.31453,134.336,Q,Q
2023-03-15 20:46:03:695,0,-54.1957,2.31475,134.339,Q,Q
2023-03-15 20:46:03:705,0,-54.1979,2.3146,134.337,Q,Q
2023-03-15 20:46:03:715,0,-54.1979,2.31448,134.333,Q,Q
2023-03-15 20:46:03:725,0,-54.2008,2.31735,134.334,Q,Q
2023-03-15 20:46:03:735,0,-54.1991,2.31756,134.332,Q,Q
2023-03-15 20:46:03:745,0,-54.2011,2.31954,134.331,Q,Q
2023-03-15 20:46:03:755,0,-54.2016,2.31882,134.329,Q,Q
2023-03-15 20:46:03:765,0,-54.2024,2.31845,134.328,Q,Q
2023-03-15 20:46:03:775,0,-54.2008,2.32013,134.329,Q,Q
2023-03-15 20:46:03:785,0,-54.1983,2.31972,134.33,Q,Q
2023-03-15 20:46:03:795,0,-54.1989,2.31466,134.329,Q,Q
2023-03-15 20:46:03:805,0,-54.1994,2.31254,134.325,Q,Q
2023-03-15 20:46:03:815,0,-54.1986,2.3119,134.324,Q,Q
2023-03-15 20:46:03:825,0,-54.1993,2.30991,134.324,Q,Q
2023-03-15 20:46:03:835,0,-54.1981,2.31022,134.321,Q,Q
2023-03-15 20:46:03:845,0,-54.195,2.31233,134.317,Q,Q
2023-03-15 20:46:03:855,0,-54.1939,2.31444,134.32,Q,Q
2023-03-15 20:46:03:865,0,-54.1941,2.31498,134.322,Q,Q
2023-03-15 20:46:03:875,0,-54.1951,2.31362,134.323,Q,Q
2023-03-15 20:46:03:885,0,-54.1923,2.31428,134.323,Q,Q
2023-03-15 20:46:03:895,0,-54.1907,2.31476,134.322,Q,Q
2023-03-15 20:46:03:905,0,-54.1929,2.31485,134.322,Q,Q
2023-03-15 20:46:03:915,0,-54.1909,2.31397,134.321,Q,Q
2023-03-15 20:46:03:925,0,-54.1912,2.31387,134.324,Q,Q
2023-03-15 20:46:03:935,0,-54.1926,2.31485,134.325,Q,Q
2023-03-15 20:46:03:945,0,-54.1944,2.31603,134.328,Q,Q
2023-03-15 20:46:03:955,0,-54.1954,2.31378,134.326,Q,Q
2023-03-15 20:46:03:965,0,-54.197,2.31386,134.325,Q,Q
2023-03-15 20:46:03:975,0,-54.1957,2.31265,134.325,Q,Q
2023-03-15 20:46:03:985,0,-54.1954,2.31431,134.326,Q,Q
2023-03-15 20:46:03:995,0,-54.1939,2.31314,134.323,Q,Q
2023-03-15 20:46:04:5,0,-54.1939,2.31086,134.322,Q,Q
2023-03-15 20:46:04:15,0,-54.1911,2.31139,134.32,Q,Q
2023-03-15 20:46:04:25,0,-54.1934,2.31055,134.322,Q,Q
2023-03-15 20:46:04:35,0,-54.1927,2.30907,134.319,Q,Q
2023-03-15 20:46:04:45,0,-54.1917,2.30711,134.32,Q,Q
2023-03-15 20:46:04:55,0,-54.1926,2.31064,134.323,Q,Q
2023-03-15 20:46:04:65,0,-54.1929,2.31169,134.321,Q,Q
2023-03-15 20:46:04:75,0,-54.1904,2.31061,134.32,Q,Q
2023-03-15 20:46:04:85,0,-54.1889,2.30931,134.317,Q,Q
2023-03-15 20:46:04:95,0,-54.1911,2.30881,134.317,Q,Q
2023-03-15 20:46:04:105,0,-54.1904,2.31119,134.319,Q,Q
2023-03-15 20:46:04:115,0,-54.1901,2.31149,134.317,Q,Q
2023-03-15 20:46:04:125,0,-54.1926,2.30934,134.317,Q,Q
2023-03-15 20:46:04:135,0,-54.194,2.31148,134.32,Q,Q
2023-03-15 20:46:04:145,0,-54.1943,2.31346,134.32,Q,Q
2023-03-15 20:46:04:155,0,-54.1927,2.31338,134.322,Q,Q
2023-03-15 20:46:04:165,0,-54.1916,2.31462,134.322,Q,Q
2023-03-15 20:46:04:175,0,-54.1889,2.31217,134.324,Q,Q
2023-03-15 20:46:04:185,0,-54.1892,2.3082,134.327,Q,Q
2023-03-15 20:46:04:195,0,-54.1889,2.30573,134.328,Q,Q
2023-03-15 20:46:04:205,0,-54.1896,2.30339,134.329,Q,Q
2023-03-15 20:46:04:215,0,-54.1916,2.29815,134.329,Q,Q
2023-03-15 20:46:04:225,0,-54.1911,2.29891,134.329,Q,Q
2023-03-15 20:46:04:235,0,-54.189,2.29659,134.328,Q,Q
2023-03-15 20:46:04:245,0,-54.1925,2.29864,134.329,Q,Q
2023-03-15 20:46:04:255,0,-54.1945,2.29746,134.331,Q,Q
2023-03-15 20:46:04:265,0,-54.1907,2.29614,134.332,Q,Q
2023-03-15 20:46:04:275,0,-54.1883,2.2945,134.334,Q,Q
2023-03-15 20:46:04:285,0,-54.1888,2.29501,134.335,Q,Q
2023-03-15 20:46:04:295,0,-54.1868,2.29192,134.339,Q,Q
2023-03-15 20:46:04:305,0,-54.1899,2.29072,134.339,Q,Q
2023-03-15 20:46:04:315,0,-54.1895,2.29399,134.339,Q,Q
2023-03-15 20:46:04:325,0,-54.1877,2.29356,134.339,Q,Q
2023-03-15 20:46:04:335,0,-54.1851,2.29327,134.34,Q,Q
2023-03-15 20:46:04:345,0,-54.1891,2.29343,134.337,Q,Q
2023-03-15 20:46:04:355,0,-54.1911,2.29821,134.335,Q,Q
2023-03-15 20:46:04:365,0,-54.1909,2.30021,134.335,Q,Q
