Timestamp_cmd,imu_cmd,roll_delta,pitch_delta,yaw_delta,voice_type,voice_length
2023-03-15 15:14:23:647,0,9.38571,-3.7842,3.72406,Q,Q
2023-03-15 15:14:23:655,0,9.38597,-3.78276,3.73374,Q,Q
2023-03-15 15:14:23:665,0,9.38517,-3.78008,3.74609,Q,Q
2023-03-15 15:14:23:675,0,9.38094,-3.77566,3.75988,Q,Q
2023-03-15 15:14:23:685,0,9.37241,-3.76885,3.77349,Q,Q
2023-03-15 15:14:23:695,0,9.35441,-3.75468,3.78516,Q,Q
2023-03-15 15:14:23:705,0,9.33916,-3.73761,3.78998,Q,Q
2023-03-15 15:14:23:715,0,9.32851,-3.72594,3.793,Q,Q
2023-03-15 15:14:23:725,0,9.32927,-3.72284,3.79368,Q,Q
2023-03-15 15:14:23:735,0,9.33652,-3.73127,3.79397,Q,Q
2023-03-15 15:14:23:745,0,9.34923,-3.74193,3.79319,Q,Q
2023-03-15 15:14:23:755,0,9.35291,-3.7573,3.78714,Q,Q
2023-03-15 15:14:23:765,0,9.3422,-3.76585,3.76738,Q,Q
2023-03-15 15:14:23:775,0,9.32124,-3.77081,3.72867,Q,Q
2023-03-15 15:14:23:785,0,9.28988,-3.76777,3.67962,Q,Q
2023-03-15 15:14:23:795,0,9.2508,-3.76225,3.61289,Q,Q
2023-03-15 15:14:23:805,0,9.20781,-3.75626,3.53835,Q,Q
2023-03-15 15:14:23:815,0,9.16483,-3.74676,3.45176,Q,Q
2023-03-15 15:14:23:825,0,9.13055,-3.7261,3.35924,Q,Q
2023-03-15 15:14:23:835,0,9.10165,-3.70539,3.27359,Q,Q
2023-03-15 15:14:23:845,0,9.07455,-3.69146,3.1959,Q,Q
2023-03-15 15:14:23:855,0,9.04831,-3.6803,3.133,Q,Q
2023-03-15 15:14:23:865,0,9.0202,-3.66131,3.07737,Q,Q
2023-03-15 15:14:23:875,0,8.99419,-3.63027,3.02713,Q,Q
2023-03-15 15:14:23:885,0,8.97201,-3.59237,2.98792,Q,Q
2023-03-15 15:14:23:895,0,8.94908,-3.54652,2.95238,Q,Q
2023-03-15 15:14:23:905,0,8.93216,-3.50144,2.91917,Q,Q
2023-03-15 15:14:23:915,0,8.9178,-3.47109,2.89383,Q,Q
2023-03-15 15:14:23:925,0,8.90477,-3.45139,2.88096,Q,Q
2023-03-15 15:14:23:935,0,8.89289,-3.45047,2.87087,Q,Q
2023-03-15 15:14:23:945,0,8.88164,-3.46634,2.86517,Q,Q
2023-03-15 15:14:23:955,0,8.86048,-3.47897,2.85775,Q,Q
2023-03-15 15:14:23:965,0,8.82883,-3.48791,2.8393,Q,Q
2023-03-15 15:14:23:975,0,8.78019,-3.4887,2.79988,Q,Q
2023-03-15 15:14:23:985,0,8.71973,-3.48005,2.75443,Q,Q
2023-03-15 15:14:23:995,0,8.66581,-3.46814,2.70151,Q,Q
2023-03-15 15:14:24:5,0,8.62919,-3.46522,2.64996,Q,Q
2023-03-15 15:14:24:15,0,8.61676,-3.46986,2.61534,Q,Q
2023-03-15 15:14:24:25,0,8.61983,-3.48578,2.59049,Q,Q
2023-03-15 15:14:24:35,0,8.62574,-3.50343,2.57104,Q,Q
2023-03-15 15:14:24:45,0,8.63643,-3.52259,2.56179,Q,Q
2023-03-15 15:14:24:55,0,8.63627,-3.53786,2.56373,Q,Q
2023-03-15 15:14:24:65,0,8.62536,-3.55282,2.56258,Q,Q
2023-03-15 15:14:24:75,0,8.59747,-3.55564,2.55428,Q,Q
2023-03-15 15:14:24:85,0,8.56388,-3.55102,2.53619,Q,Q
2023-03-15 15:14:24:95,0,8.5317,-3.54244,2.50886,Q,Q
2023-03-15 15:14:24:105,0,8.49786,-3.54178,2.47766,Q,Q
2023-03-15 15:14:24:115,0,8.46344,-3.5505,2.44752,Q,Q
2023-03-15 15:14:24:125,0,8.44225,-3.56861,2.41627,Q,Q
2023-03-15 15:14:24:135,0,8.4201,-3.59322,2.38052,Q,Q
2023-03-15 15:14:24:145,0,8.3993,-3.61555,2.33626,Q,Q
2023-03-15 15:14:24:155,0,8.37855,-3.62971,2.2822,Q,Q
2023-03-15 15:14:24:165,0,8.35123,-3.643,2.22296,Q,Q
2023-03-15 15:14:24:175,0,8.3231,-3.65775,2.15475,Q,Q
2023-03-15 15:14:24:185,0,8.29728,-3.67205,2.08003,Q,Q
2023-03-15 15:14:24:195,0,8.26558,-3.68358,2.00645,Q,Q
2023-03-15 15:14:24:205,0,8.23665,-3.69202,1.93347,Q,Q
2023-03-15 15:14:24:215,0,8.21262,-3.69822,1.86082,Q,Q
2023-03-15 15:14:24:225,0,8.18984,-3.7078,1.79712,Q,Q
2023-03-15 15:14:24:235,0,8.17306,-3.7155,1.74795,Q,Q
2023-03-15 15:14:24:245,0,8.16361,-3.72147,1.70802,Q,Q
2023-03-15 15:14:24:255,0,8.15536,-3.71591,1.67665,Q,Q
2023-03-15 15:14:24:265,0,8.14168,-3.70417,1.64918,Q,Q
2023-03-15 15:14:24:275,0,8.12794,-3.68736,1.62726,Q,Q
2023-03-15 15:14:24:285,0,8.11266,-3.66759,1.6043,Q,Q
2023-03-15 15:14:24:295,0,8.09567,-3.64714,1.59164,Q,Q
2023-03-15 15:14:24:305,0,8.09078,-3.63484,1.58282,Q,Q
2023-03-15 15:14:24:315,0,8.08877,-3.62081,1.58254,Q,Q
2023-03-15 15:14:24:325,0,8.08309,-3.61256,1.5845,Q,Q
2023-03-15 15:14:24:335,0,8.07016,-3.6001,1.58797,Q,Q
2023-03-15 15:14:24:345,0,8.05094,-3.5906,1.58945,Q,Q
2023-03-15 15:14:24:355,0,8.02286,-3.57479,1.58521,Q,Q
2023-03-15 15:14:24:365,0,7.98639,-3.55285,1.57252,Q,Q
2023-03-15 15:14:24:375,0,7.94918,-3.53057,1.55761,Q,Q
2023-03-15 15:14:24:385,0,7.91072,-3.51062,1.54189,Q,Q
2023-03-15 15:14:24:395,0,7.8797,-3.49508,1.52954,Q,Q
2023-03-15 15:14:24:405,0,7.84941,-3.49218,1.526,Q,Q
2023-03-15 15:14:24:415,0,7.81925,-3.48749,1.52353,Q,Q
2023-03-15 15:14:24:425,0,7.78836,-3.47415,1.51076,Q,Q
2023-03-15 15:14:24:435,0,7.75686,-3.45809,1.49412,Q,Q
2023-03-15 15:14:24:445,0,7.71359,-3.43938,1.4783,Q,Q
2023-03-15 15:14:24:455,0,7.67129,-3.41892,1.44936,Q,Q
2023-03-15 15:14:24:465,0,7.62804,-3.39598,1.41706,Q,Q
2023-03-15 15:14:24:475,0,7.59278,-3.37247,1.38145,Q,Q
2023-03-15 15:14:24:485,0,7.57014,-3.34994,1.34638,Q,Q
2023-03-15 15:14:24:495,0,7.55398,-3.33428,1.32031,Q,Q
2023-03-15 15:14:24:505,0,7.54117,-3.31633,1.30127,Q,Q
2023-03-15 15:14:24:515,0,7.53822,-3.30007,1.29031,Q,Q
2023-03-15 15:14:24:525,0,7.5375,-3.28548,1.28722,Q,Q
2023-03-15 15:14:24:535,0,7.54609,-3.26856,1.29204,Q,Q
2023-03-15 15:14:24:545,0,7.55746,-3.25415,1.30822,Q,Q
2023-03-15 15:14:24:555,0,7.57582,-3.23444,1.32609,Q,Q
2023-03-15 15:14:24:565,0,7.59887,-3.21278,1.3505,Q,Q
2023-03-15 15:14:24:575,0,7.62605,-3.18415,1.37856,Q,Q
2023-03-15 15:14:24:585,0,7.65093,-3.15941,1.40969,Q,Q
2023-03-15 15:14:24:595,0,7.67779,-3.1359,1.44351,Q,Q
2023-03-15 15:14:24:605,0,7.70778,-3.10944,1.47992,Q,Q
2023-03-15 15:14:24:615,0,7.73666,-3.08261,1.51655,Q,Q
2023-03-15 15:14:24:625,0,7.75604,-3.05326,1.54812,Q,Q
2023-03-15 15:14:24:635,0,7.76885,-3.02869,1.57445,Q,Q
2023-03-15 15:14:24:645,0,7.7693,-3.00005,1.59554,Q,Q
2023-03-15 15:14:24:655,0,7.76411,-2.97736,1.61155,Q,Q
2023-03-15 15:14:24:665,0,7.74919,-2.9511,1.61363,Q,Q
2023-03-15 15:14:24:675,0,7.72586,-2.91918,1.60126,Q,Q
2023-03-15 15:14:24:685,0,7.70081,-2.8937,1.57431,Q,Q
2023-03-15 15:14:24:695,0,7.67209,-2.86625,1.53575,Q,Q
2023-03-15 15:14:24:705,0,7.64886,-2.84163,1.49026,Q,Q
2023-03-15 15:14:24:715,0,7.62822,-2.82282,1.43833,Q,Q
2023-03-15 15:14:24:725,0,7.61056,-2.80315,1.38841,Q,Q
2023-03-15 15:14:24:735,0,7.60562,-2.79751,1.3434,Q,Q
2023-03-15 15:14:24:745,0,7.60369,-2.79667,1.30943,Q,Q
2023-03-15 15:14:24:755,0,7.60522,-2.79641,1.28689,Q,Q
2023-03-15 15:14:24:765,0,7.61215,-2.79922,1.27582,Q,Q
2023-03-15 15:14:24:775,0,7.61874,-2.80615,1.27102,Q,Q
2023-03-15 15:14:24:785,0,7.62437,-2.80756,1.27625,Q,Q
2023-03-15 15:14:24:795,0,7.63096,-2.80786,1.28281,Q,Q
2023-03-15 15:14:24:805,0,7.63904,-2.80373,1.29009,Q,Q
2023-03-15 15:14:24:815,0,7.64393,-2.8043,1.30697,Q,Q
2023-03-15 15:14:24:825,0,7.64968,-2.81156,1.32266,Q,Q
2023-03-15 15:14:24:835,0,7.64863,-2.8159,1.34038,Q,Q
2023-03-15 15:14:24:845,0,7.6522,-2.81562,1.35375,Q,Q
2023-03-15 15:14:24:855,0,7.6542,-2.81318,1.36559,Q,Q
2023-03-15 15:14:24:865,0,7.66054,-2.81451,1.37833,Q,Q
2023-03-15 15:14:24:875,0,7.66215,-2.81504,1.39327,Q,Q
2023-03-15 15:14:24:885,0,7.66529,-2.81262,1.40586,Q,Q
2023-03-15 15:14:24:895,0,7.6694,-2.80489,1.41747,Q,Q
2023-03-15 15:14:24:905,0,7.67138,-2.7924,1.42362,Q,Q
2023-03-15 15:14:24:915,0,7.6693,-2.7769,1.42797,Q,Q
2023-03-15 15:14:24:925,0,7.66539,-2.75544,1.42516,Q,Q
2023-03-15 15:14:24:935,0,7.65601,-2.73321,1.41488,Q,Q
2023-03-15 15:14:24:945,0,7.64657,-2.70838,1.39715,Q,Q
2023-03-15 15:14:24:955,0,7.6377,-2.68215,1.37058,Q,Q
2023-03-15 15:14:24:965,0,7.62896,-2.65425,1.33466,Q,Q
2023-03-15 15:14:24:975,0,7.62164,-2.62379,1.29596,Q,Q
2023-03-15 15:14:24:985,0,7.61807,-2.59656,1.25338,Q,Q
2023-03-15 15:14:24:995,0,7.61222,-2.57396,1.21169,Q,Q
2023-03-15 15:14:25:5,0,7.61633,-2.55624,1.17638,Q,Q
2023-03-15 15:14:25:15,0,7.61985,-2.54296,1.14979,Q,Q
2023-03-15 15:14:25:25,0,7.62539,-2.53599,1.1377,Q,Q
2023-03-15 15:14:25:35,0,7.6213,-2.53727,1.13604,Q,Q
2023-03-15 15:14:25:45,0,7.61764,-2.54276,1.14584,Q,Q
2023-03-15 15:14:25:55,0,7.61355,-2.55405,1.16554,Q,Q
2023-03-15 15:14:25:65,0,7.60896,-2.57042,1.19541,Q,Q
2023-03-15 15:14:25:75,0,7.60825,-2.5935,1.23195,Q,Q
2023-03-15 15:14:25:85,0,7.60639,-2.62021,1.27516,Q,Q
2023-03-15 15:14:25:95,0,7.60272,-2.64682,1.3271,Q,Q
2023-03-15 15:14:25:105,0,7.60047,-2.68155,1.38113,Q,Q
2023-03-15 15:14:25:115,0,7.60167,-2.71522,1.4367,Q,Q
2023-03-15 15:14:25:125,0,7.59872,-2.74972,1.49746,Q,Q
2023-03-15 15:14:25:135,0,7.59666,-2.78514,1.55787,Q,Q
2023-03-15 15:14:25:145,0,7.59731,-2.82114,1.62111,Q,Q
2023-03-15 15:14:25:155,0,7.60631,-2.8581,1.68486,Q,Q
2023-03-15 15:14:25:165,0,7.61412,-2.89948,1.75119,Q,Q
2023-03-15 15:14:25:175,0,7.62681,-2.93559,1.81842,Q,Q
2023-03-15 15:14:25:185,0,7.64201,-2.96782,1.88542,Q,Q
2023-03-15 15:14:25:195,0,7.65424,-2.99484,1.94874,Q,Q
2023-03-15 15:14:25:205,0,7.66367,-3.01628,2.00894,Q,Q
2023-03-15 15:14:25:215,0,7.67497,-3.02824,2.06655,Q,Q
2023-03-15 15:14:25:225,0,7.69151,-3.03517,2.11538,Q,Q
2023-03-15 15:14:25:235,0,7.70747,-3.04267,2.15843,Q,Q
2023-03-15 15:14:25:245,0,7.7254,-3.05136,2.19975,Q,Q
2023-03-15 15:14:25:255,0,7.74252,-3.05758,2.2382,Q,Q
2023-03-15 15:14:25:265,0,7.75157,-3.06484,2.27374,Q,Q
2023-03-15 15:14:25:275,0,7.76175,-3.06814,2.30153,Q,Q
2023-03-15 15:14:25:285,0,7.76973,-3.0764,2.32117,Q,Q
2023-03-15 15:14:25:295,0,7.77489,-3.07909,2.33659,Q,Q
2023-03-15 15:14:25:305,0,7.77385,-3.08429,2.34914,Q,Q
2023-03-15 15:14:25:315,0,7.77279,-3.0868,2.35424,Q,Q
2023-03-15 15:14:25:325,0,7.76578,-3.09066,2.3615,Q,Q
2023-03-15 15:14:25:335,0,7.76223,-3.09563,2.3647,Q,Q
2023-03-15 15:14:25:345,0,7.76187,-3.09872,2.3663,Q,Q
2023-03-15 15:14:25:355,0,7.75946,-3.10264,2.36353,Q,Q
2023-03-15 15:14:25:365,0,7.76415,-3.10505,2.35939,Q,Q
2023-03-15 15:14:25:375,0,7.76894,-3.10859,2.35495,Q,Q
2023-03-15 15:14:25:385,0,7.77335,-3.10814,2.34601,Q,Q
2023-03-15 15:14:25:395,0,7.77446,-3.1097,2.34055,Q,Q
2023-03-15 15:14:25:405,0,7.77119,-3.11017,2.32703,Q,Q
2023-03-15 15:14:25:415,0,7.76576,-3.11284,2.31694,Q,Q
2023-03-15 15:14:25:425,0,7.75641,-3.11998,2.30757,Q,Q
2023-03-15 15:14:25:435,0,7.74403,-3.12646,2.29845,Q,Q
2023-03-15 15:14:25:445,0,7.72783,-3.13399,2.28822,Q,Q
2023-03-15 15:14:25:455,0,7.70537,-3.13635,2.27621,Q,Q
2023-03-15 15:14:25:465,0,7.68601,-3.13439,2.26236,Q,Q
2023-03-15 15:14:25:475,0,7.66784,-3.13022,2.24986,Q,Q
2023-03-15 15:14:25:485,0,7.65269,-3.12884,2.2449,Q,Q
2023-03-15 15:14:25:495,0,7.63877,-3.12961,2.24331,Q,Q
2023-03-15 15:14:25:505,0,7.62195,-3.12766,2.24434,Q,Q
2023-03-15 15:14:25:515,0,7.60458,-3.12389,2.2453,Q,Q
2023-03-15 15:14:25:525,0,7.58668,-3.11835,2.24878,Q,Q
2023-03-15 15:14:25:535,0,7.57436,-3.10803,2.25675,Q,Q
2023-03-15 15:14:25:545,0,7.56359,-3.10001,2.26192,Q,Q
2023-03-15 15:14:25:555,0,7.55336,-3.09464,2.26642,Q,Q
2023-03-15 15:14:25:565,0,7.54334,-3.0912,2.26792,Q,Q
2023-03-15 15:14:25:575,0,7.5388,-3.0892,2.27166,Q,Q
2023-03-15 15:14:25:585,0,7.53325,-3.09121,2.27244,Q,Q
2023-03-15 15:14:25:595,0,7.53104,-3.08972,2.27157,Q,Q
2023-03-15 15:14:25:605,0,7.53057,-3.08881,2.26883,Q,Q
2023-03-15 15:14:25:615,0,7.53192,-3.08903,2.26427,Q,Q
2023-03-15 15:14:25:625,0,7.53653,-3.09229,2.26021,Q,Q
2023-03-15 15:14:25:635,0,7.54745,-3.09482,2.25515,Q,Q
2023-03-15 15:14:25:645,0,7.55862,-3.10271,2.24955,Q,Q
2023-03-15 15:14:25:655,0,7.56573,-3.11053,2.24954,Q,Q
2023-03-15 15:14:25:665,0,7.57461,-3.12293,2.24849,Q,Q
2023-03-15 15:14:25:675,0,7.58306,-3.13469,2.24802,Q,Q
2023-03-15 15:14:25:685,0,7.59141,-3.14391,2.24563,Q,Q
2023-03-15 15:14:25:695,0,7.59927,-3.15286,2.24089,Q,Q
2023-03-15 15:14:25:705,0,7.60658,-3.15974,2.23707,Q,Q
2023-03-15 15:14:25:715,0,7.61456,-3.16503,2.23361,Q,Q
2023-03-15 15:14:25:725,0,7.62554,-3.16998,2.23235,Q,Q
2023-03-15 15:14:25:735,0,7.63984,-3.17308,2.23323,Q,Q
2023-03-15 15:14:25:745,0,7.65276,-3.1773,2.23228,Q,Q
2023-03-15 15:14:25:755,0,7.66536,-3.17606,2.23172,Q,Q
2023-03-15 15:14:25:765,0,7.67844,-3.17429,2.23459,Q,Q
2023-03-15 15:14:25:775,0,7.68958,-3.17251,2.23936,Q,Q
2023-03-15 15:14:25:785,0,7.70099,-3.16452,2.24285,Q,Q
2023-03-15 15:14:25:795,0,7.71121,-3.15668,2.24279,Q,Q
2023-03-15 15:14:25:805,0,7.71903,-3.14867,2.24154,Q,Q
2023-03-15 15:14:25:815,0,7.7271,-3.14053,2.23983,Q,Q
2023-03-15 15:14:25:825,0,7.73075,-3.13131,2.23894,Q,Q
2023-03-15 15:14:25:835,0,7.73602,-3.12233,2.23801,Q,Q
2023-03-15 15:14:25:845,0,7.74209,-3.11391,2.23344,Q,Q
2023-03-15 15:14:25:855,0,7.75141,-3.1073,2.22928,Q,Q
2023-03-15 15:14:25:865,0,7.75848,-3.09898,2.22491,Q,Q
2023-03-15 15:14:25:875,0,7.76642,-3.09089,2.21995,Q,Q
2023-03-15 15:14:25:885,0,7.77211,-3.08576,2.21519,Q,Q
2023-03-15 15:14:25:895,0,7.7771,-3.07738,2.21009,Q,Q
2023-03-15 15:14:25:905,0,7.78183,-3.0716,2.20783,Q,Q
2023-03-15 15:14:25:915,0,7.78547,-3.06291,2.20495,Q,Q
2023-03-15 15:14:25:925,0,7.79118,-3.05123,2.20537,Q,Q
2023-03-15 15:14:25:935,0,7.79654,-3.04006,2.20492,Q,Q
2023-03-15 15:14:25:945,0,7.80226,-3.02932,2.20118,Q,Q
2023-03-15 15:14:25:955,0,7.80983,-3.01591,2.19715,Q,Q
2023-03-15 15:14:25:965,0,7.81872,-3.00039,2.19009,Q,Q
2023-03-15 15:14:25:975,0,7.82413,-2.99053,2.18492,Q,Q
2023-03-15 15:14:25:985,0,7.82493,-2.98166,2.17884,Q,Q
2023-03-15 15:14:25:995,0,7.82551,-2.97331,2.1701,Q,Q
2023-03-15 15:14:26:5,0,7.83039,-2.96364,2.16099,Q,Q
2023-03-15 15:14:26:15,0,7.84013,-2.95893,2.1491,Q,Q
2023-03-15 15:14:26:25,0,7.84998,-2.96356,2.14356,Q,Q
2023-03-15 15:14:26:35,0,7.8587,-2.97399,2.14827,Q,Q
2023-03-15 15:14:26:45,0,7.86802,-2.98468,2.15497,Q,Q
2023-03-15 15:14:26:55,0,7.87129,-2.995,2.16073,Q,Q
2023-03-15 15:14:26:65,0,7.87334,-3.00472,2.16997,Q,Q
2023-03-15 15:14:26:75,0,7.87309,-3.01372,2.18131,Q,Q
2023-03-15 15:14:26:85,0,7.86936,-3.01963,2.19139,Q,Q
2023-03-15 15:14:26:95,0,7.86403,-3.03089,2.20351,Q,Q
2023-03-15 15:14:26:105,0,7.86485,-3.0387,2.21419,Q,Q
2023-03-15 15:14:26:115,0,7.87124,-3.04644,2.22514,Q,Q
2023-03-15 15:14:26:125,0,7.88481,-3.04755,2.23792,Q,Q
2023-03-15 15:14:26:135,0,7.8955,-3.05266,2.24921,Q,Q
2023-03-15 15:14:26:145,0,7.90845,-3.05292,2.25921,Q,Q
2023-03-15 15:14:26:155,0,7.9225,-3.05694,2.26565,Q,Q
2023-03-15 15:14:26:165,0,7.93864,-3.05888,2.26454,Q,Q
2023-03-15 15:14:26:175,0,7.95187,-3.06154,2.26341,Q,Q
2023-03-15 15:14:26:185,0,7.96395,-3.06053,2.26299,Q,Q
2023-03-15 15:14:26:195,0,7.97205,-3.06269,2.25561,Q,Q
2023-03-15 15:14:26:205,0,7.98335,-3.066,2.24988,Q,Q
2023-03-15 15:14:26:215,0,7.99307,-3.06377,2.24601,Q,Q
2023-03-15 15:14:26:225,0,7.99841,-3.05945,2.24254,Q,Q
2023-03-15 15:14:26:235,0,8.00052,-3.05988,2.23682,Q,Q
2023-03-15 15:14:26:245,0,8.00022,-3.05863,2.22609,Q,Q
2023-03-15 15:14:26:255,0,8.00527,-3.053,2.21653,Q,Q
2023-03-15 15:14:26:265,0,8.01283,-3.04873,2.20985,Q,Q
2023-03-15 15:14:26:275,0,8.0189,-3.0437,2.20677,Q,Q
2023-03-15 15:14:26:285,0,8.02077,-3.04389,2.2034,Q,Q
2023-03-15 15:14:26:295,0,8.02698,-3.04379,2.20195,Q,Q
2023-03-15 15:14:26:305,0,8.03318,-3.04045,2.19956,Q,Q
2023-03-15 15:14:26:315,0,8.04333,-3.03836,2.19274,Q,Q
2023-03-15 15:14:26:325,0,8.05237,-3.03332,2.18695,Q,Q
2023-03-15 15:14:26:335,0,8.06202,-3.02553,2.1786,Q,Q
2023-03-15 15:14:26:345,0,8.07804,-3.01976,2.16802,Q,Q
2023-03-15 15:14:26:355,0,8.09252,-3.01764,2.16396,Q,Q
2023-03-15 15:14:26:365,0,8.10761,-3.01467,2.16022,Q,Q
2023-03-15 15:14:26:375,0,8.1202,-3.01503,2.15563,Q,Q
2023-03-15 15:14:26:385,0,8.13105,-3.00981,2.14803,Q,Q
2023-03-15 15:14:26:395,0,8.14521,-3.00519,2.14134,Q,Q
2023-03-15 15:14:26:405,0,8.16086,-3.00706,2.13256,Q,Q
2023-03-15 15:14:26:415,0,8.17138,-3.01107,2.12951,Q,Q
2023-03-15 15:14:26:425,0,8.18045,-3.0172,2.12781,Q,Q
2023-03-15 15:14:26:435,0,8.19085,-3.01795,2.12524,Q,Q
2023-03-15 15:14:26:445,0,8.2034,-3.02156,2.12753,Q,Q
2023-03-15 15:14:26:455,0,8.21037,-3.02112,2.13023,Q,Q
2023-03-15 15:14:26:465,0,8.21587,-3.02565,2.13893,Q,Q
2023-03-15 15:14:26:475,0,8.21794,-3.02866,2.14967,Q,Q
2023-03-15 15:14:26:485,0,8.21898,-3.03414,2.16132,Q,Q
2023-03-15 15:14:26:495,0,8.21911,-3.03877,2.17094,Q,Q
2023-03-15 15:14:26:505,0,8.21818,-3.03609,2.18036,Q,Q
2023-03-15 15:14:26:515,0,8.21788,-3.03265,2.18932,Q,Q
2023-03-15 15:14:26:525,0,8.21742,-3.0313,2.1984,Q,Q
2023-03-15 15:14:26:535,0,8.2153,-3.02991,2.20489,Q,Q
2023-03-15 15:14:26:545,0,8.21281,-3.02467,2.20892,Q,Q
2023-03-15 15:14:26:555,0,8.21428,-3.02176,2.20715,Q,Q
2023-03-15 15:14:26:565,0,8.21964,-3.01607,2.20189,Q,Q
2023-03-15 15:14:26:575,0,8.22082,-3.01186,2.20061,Q,Q
2023-03-15 15:14:26:585,0,8.22014,-3.00747,2.19755,Q,Q
2023-03-15 15:14:26:595,0,8.21793,-3.0039,2.18846,Q,Q
2023-03-15 15:14:26:605,0,8.21909,-2.99635,2.18105,Q,Q
2023-03-15 15:14:26:615,0,8.22069,-2.99028,2.17645,Q,Q
2023-03-15 15:14:26:625,0,8.22166,-2.9878,2.16676,Q,Q
2023-03-15 15:14:26:635,0,8.21974,-2.98633,2.16669,Q,Q
2023-03-15 15:14:26:645,0,8.21597,-2.98548,2.16389,Q,Q
2023-03-15 15:14:26:655,0,8.21345,-2.98744,2.16371,Q,Q
2023-03-15 15:14:26:665,0,8.21295,-2.98936,2.1666,Q,Q
2023-03-15 15:14:26:675,0,8.20826,-2.9921,2.17071,Q,Q
2023-03-15 15:14:26:685,0,8.20786,-2.9943,2.17517,Q,Q
2023-03-15 15:14:26:695,0,8.20664,-2.99657,2.18049,Q,Q
2023-03-15 15:14:26:705,0,8.20437,-2.99858,2.19055,Q,Q
2023-03-15 15:14:26:715,0,8.20466,-3.00205,2.19934,Q,Q
2023-03-15 15:14:26:725,0,8.20464,-3.00488,2.20798,Q,Q
2023-03-15 15:14:26:735,0,8.20473,-3.00643,2.2164,Q,Q
2023-03-15 15:14:26:745,0,8.20567,-3.00177,2.22171,Q,Q
2023-03-15 15:14:26:755,0,8.20375,-3.00417,2.2309,Q,Q
2023-03-15 15:14:26:765,0,8.20482,-3.00785,2.23455,Q,Q
2023-03-15 15:14:26:775,0,8.2017,-3.00995,2.23546,Q,Q
2023-03-15 15:14:26:785,0,8.2008,-3.01015,2.23505,Q,Q
2023-03-15 15:14:26:795,0,8.19821,-3.0092,2.23012,Q,Q
2023-03-15 15:14:26:805,0,8.19723,-3.00749,2.22721,Q,Q
2023-03-15 15:14:26:815,0,8.1968,-3.00675,2.22409,Q,Q
2023-03-15 15:14:26:825,0,8.19994,-3.01174,2.22324,Q,Q
2023-03-15 15:14:26:835,0,8.19883,-3.02203,2.23034,Q,Q
2023-03-15 15:14:26:845,0,8.1941,-3.02894,2.24002,Q,Q
2023-03-15 15:14:26:855,0,8.18539,-3.0406,2.24888,Q,Q
2023-03-15 15:14:26:865,0,8.17609,-3.04892,2.25765,Q,Q
2023-03-15 15:14:26:875,0,8.16776,-3.05805,2.26467,Q,Q
2023-03-15 15:14:26:885,0,8.15735,-3.06265,2.27538,Q,Q
2023-03-15 15:14:26:895,0,8.14664,-3.06549,2.28164,Q,Q
2023-03-15 15:14:26:905,0,8.13784,-3.07195,2.28957,Q,Q
2023-03-15 15:14:26:915,0,8.13233,-3.07523,2.29196,Q,Q
2023-03-15 15:14:26:925,0,8.13131,-3.07905,2.29119,Q,Q
2023-03-15 15:14:26:935,0,8.13168,-3.07813,2.28829,Q,Q
2023-03-15 15:14:26:945,0,8.12819,-3.07784,2.28066,Q,Q
2023-03-15 15:14:26:955,0,8.12693,-3.07945,2.27092,Q,Q
2023-03-15 15:14:26:965,0,8.12275,-3.08008,2.25536,Q,Q
2023-03-15 15:14:26:975,0,8.12487,-3.07712,2.2418,Q,Q
2023-03-15 15:14:26:985,0,8.11966,-3.07895,2.23105,Q,Q
2023-03-15 15:14:26:995,0,8.1152,-3.08126,2.21858,Q,Q
2023-03-15 15:14:27:5,0,8.10848,-3.07851,2.21048,Q,Q
2023-03-15 15:14:27:15,0,8.1017,-3.0717,2.20392,Q,Q
2023-03-15 15:14:27:25,0,8.09064,-3.05991,2.19836,Q,Q
2023-03-15 15:14:27:35,0,8.08182,-3.05299,2.19274,Q,Q
2023-03-15 15:14:27:45,0,8.06942,-3.0406,2.18881,Q,Q
2023-03-15 15:14:27:55,0,8.05817,-3.02517,2.17997,Q,Q
2023-03-15 15:14:27:65,0,8.04739,-3.01375,2.17577,Q,Q
2023-03-15 15:14:27:75,0,8.03944,-3.00464,2.17106,Q,Q
2023-03-15 15:14:27:85,0,8.03214,-2.99817,2.1683,Q,Q
2023-03-15 15:14:27:95,0,8.02775,-2.99354,2.16178,Q,Q
2023-03-15 15:14:27:105,0,8.02556,-2.98528,2.15689,Q,Q
2023-03-15 15:14:27:115,0,8.02823,-2.97909,2.14651,Q,Q
2023-03-15 15:14:27:125,0,8.02853,-2.97496,2.14434,Q,Q
2023-03-15 15:14:27:135,0,8.03455,-2.97453,2.1383,Q,Q
2023-03-15 15:14:27:145,0,8.04102,-2.9684,2.12892,Q,Q
2023-03-15 15:14:27:155,0,8.04942,-2.96536,2.12126,Q,Q
2023-03-15 15:14:27:165,0,8.05815,-2.96248,2.11911,Q,Q
2023-03-15 15:14:27:175,0,8.06359,-2.96253,2.11179,Q,Q
2023-03-15 15:14:27:185,0,8.07055,-2.95925,2.10664,Q,Q
2023-03-15 15:14:27:195,0,8.07908,-2.95913,2.10469,Q,Q
2023-03-15 15:14:27:205,0,8.08586,-2.95989,2.09884,Q,Q
2023-03-15 15:14:27:215,0,8.09059,-2.96187,2.09475,Q,Q
2023-03-15 15:14:27:225,0,8.08771,-2.96142,2.08767,Q,Q
2023-03-15 15:14:27:235,0,8.08917,-2.96444,2.08544,Q,Q
2023-03-15 15:14:27:245,0,8.09169,-2.96696,2.08289,Q,Q
2023-03-15 15:14:27:255,0,8.09041,-2.9691,2.08309,Q,Q
2023-03-15 15:14:27:265,0,8.0899,-2.97173,2.08894,Q,Q
2023-03-15 15:14:27:275,0,8.08714,-2.97111,2.09519,Q,Q
2023-03-15 15:14:27:285,0,8.08627,-2.97285,2.09943,Q,Q
2023-03-15 15:14:27:295,0,8.08065,-2.97255,2.10479,Q,Q
2023-03-15 15:14:27:305,0,8.07965,-2.96782,2.1126,Q,Q
2023-03-15 15:14:27:315,0,8.07436,-2.96403,2.11992,Q,Q
2023-03-15 15:14:27:325,0,8.06407,-2.96409,2.12261,Q,Q
2023-03-15 15:14:27:335,0,8.0592,-2.96178,2.12879,Q,Q
2023-03-15 15:14:27:345,0,8.05348,-2.96048,2.13251,Q,Q
2023-03-15 15:14:27:355,0,8.05007,-2.96022,2.13375,Q,Q
2023-03-15 15:14:27:365,0,8.04653,-2.9593,2.13588,Q,Q
2023-03-15 15:14:27:375,0,8.04247,-2.95999,2.13648,Q,Q
2023-03-15 15:14:27:385,0,8.03858,-2.95598,2.13242,Q,Q
2023-03-15 15:14:27:395,0,8.03214,-2.95422,2.13147,Q,Q
2023-03-15 15:14:27:405,0,8.03197,-2.95365,2.12591,Q,Q
2023-03-15 15:14:27:415,0,8.03269,-2.95603,2.12078,Q,Q
2023-03-15 15:14:27:425,0,8.03318,-2.9577,2.11543,Q,Q
2023-03-15 15:14:27:435,0,8.03464,-2.95874,2.11454,Q,Q
2023-03-15 15:14:27:445,0,8.03699,-2.95657,2.11473,Q,Q
2023-03-15 15:14:27:455,0,8.03957,-2.96189,2.1197,Q,Q
2023-03-15 15:14:27:465,0,8.04509,-2.96507,2.12171,Q,Q
2023-03-15 15:14:27:475,0,8.05191,-2.96917,2.12461,Q,Q
2023-03-15 15:14:27:485,0,8.05685,-2.97223,2.13203,Q,Q
2023-03-15 15:14:27:495,0,8.05882,-2.9767,2.13547,Q,Q
2023-03-15 15:14:27:505,0,8.0583,-2.98011,2.13894,Q,Q
2023-03-15 15:14:27:515,0,8.05904,-2.9852,2.14608,Q,Q
2023-03-15 15:14:27:525,0,8.0587,-2.98811,2.14776,Q,Q
2023-03-15 15:14:27:535,0,8.06126,-2.99266,2.15254,Q,Q
2023-03-15 15:14:27:545,0,8.06313,-2.99428,2.15664,Q,Q
2023-03-15 15:14:27:555,0,8.06474,-2.99519,2.15886,Q,Q
2023-03-15 15:14:27:565,0,8.06808,-2.99591,2.16101,Q,Q
2023-03-15 15:14:27:575,0,8.07032,-2.99702,2.16331,Q,Q
2023-03-15 15:14:27:585,0,8.07226,-2.99711,2.16264,Q,Q
2023-03-15 15:14:27:595,0,8.07397,-2.99665,2.16273,Q,Q
2023-03-15 15:14:27:605,0,8.07127,-2.99616,2.16233,Q,Q
2023-03-15 15:14:27:615,0,8.06765,-2.99522,2.16408,Q,Q
2023-03-15 15:14:27:625,0,8.0627,-2.99284,2.16347,Q,Q
2023-03-15 15:14:27:635,0,8.05884,-2.98987,2.16541,Q,Q
2023-03-15 15:14:27:645,0,8.06379,-2.98862,2.16752,Q,Q
2023-03-15 15:14:27:655,0,8.06335,-2.99383,2.17586,Q,Q
2023-03-15 15:14:27:665,0,8.06237,-2.99797,2.18663,Q,Q
2023-03-15 15:14:27:675,0,8.05867,-3.00156,2.19752,Q,Q
2023-03-15 15:14:27:685,0,8.04875,-3.01102,2.20637,Q,Q
2023-03-15 15:14:27:695,0,8.03792,-3.0208,2.21307,Q,Q
2023-03-15 15:14:27:705,0,8.02437,-3.0302,2.22392,Q,Q
2023-03-15 15:14:27:715,0,8.01257,-3.03859,2.23166,Q,Q
2023-03-15 15:14:27:725,0,8.00526,-3.05058,2.23741,Q,Q
2023-03-15 15:14:27:735,0,7.99876,-3.05943,2.24312,Q,Q
2023-03-15 15:14:27:745,0,8.00047,-3.06521,2.24742,Q,Q
2023-03-15 15:14:27:755,0,8.0053,-3.06828,2.24913,Q,Q
2023-03-15 15:14:27:765,0,8.01063,-3.07128,2.24695,Q,Q
2023-03-15 15:14:27:775,0,8.01402,-3.07198,2.24264,Q,Q
2023-03-15 15:14:27:785,0,8.0159,-3.07085,2.24368,Q,Q
2023-03-15 15:14:27:795,0,8.01168,-3.06801,2.23925,Q,Q
2023-03-15 15:14:27:805,0,8.01206,-3.06348,2.23528,Q,Q
2023-03-15 15:14:27:815,0,8.00811,-3.05946,2.23081,Q,Q
2023-03-15 15:14:27:825,0,7.9983,-3.05433,2.22509,Q,Q
2023-03-15 15:14:27:835,0,7.98595,-3.05255,2.22198,Q,Q
2023-03-15 15:14:27:845,0,7.97105,-3.04752,2.2221,Q,Q
2023-03-15 15:14:27:855,0,7.94929,-3.04053,2.22496,Q,Q
2023-03-15 15:14:27:865,0,7.92733,-3.03087,2.22431,Q,Q
2023-03-15 15:14:27:875,0,7.90404,-3.01882,2.22248,Q,Q
2023-03-15 15:14:27:885,0,7.88158,-3.00712,2.21721,Q,Q
2023-03-15 15:14:27:895,0,7.86045,-2.99738,2.21373,Q,Q
2023-03-15 15:14:27:905,0,7.83835,-2.99446,2.2129,Q,Q
2023-03-15 15:14:27:915,0,7.82346,-2.99754,2.2125,Q,Q
2023-03-15 15:14:27:925,0,7.81112,-2.99765,2.21168,Q,Q
2023-03-15 15:14:27:935,0,7.79838,-2.99514,2.21123,Q,Q
2023-03-15 15:14:27:945,0,7.78242,-2.99777,2.20958,Q,Q
2023-03-15 15:14:27:955,0,7.76687,-3.00236,2.20512,Q,Q
2023-03-15 15:14:27:965,0,7.75334,-3.00521,2.1972,Q,Q
2023-03-15 15:14:27:975,0,7.74271,-3.00559,2.19029,Q,Q
2023-03-15 15:14:27:985,0,7.73655,-3.00481,2.18217,Q,Q
2023-03-15 15:14:27:995,0,7.73307,-3.00665,2.17674,Q,Q
2023-03-15 15:14:28:5,0,7.72825,-3.00792,2.1726,Q,Q
2023-03-15 15:14:28:15,0,7.72687,-3.01045,2.16776,Q,Q
2023-03-15 15:14:28:25,0,7.72617,-3.01429,2.16681,Q,Q
2023-03-15 15:14:28:35,0,7.72859,-3.01632,2.16737,Q,Q
2023-03-15 15:14:28:45,0,7.73249,-3.02128,2.16584,Q,Q
2023-03-15 15:14:28:55,0,7.73547,-3.02696,2.16489,Q,Q
2023-03-15 15:14:28:65,0,7.73931,-3.03536,2.16463,Q,Q
2023-03-15 15:14:28:75,0,7.73987,-3.04476,2.1625,Q,Q
2023-03-15 15:14:28:85,0,7.74033,-3.05637,2.16037,Q,Q
2023-03-15 15:14:28:95,0,7.74162,-3.0617,2.15703,Q,Q
2023-03-15 15:14:28:105,0,7.74285,-3.06888,2.1514,Q,Q
2023-03-15 15:14:28:115,0,7.73873,-3.07789,2.13793,Q,Q
2023-03-15 15:14:28:125,0,7.73696,-3.08935,2.12052,Q,Q
2023-03-15 15:14:28:135,0,7.7396,-3.09259,2.09859,Q,Q
2023-03-15 15:14:28:145,0,7.74598,-3.0943,2.07401,Q,Q
2023-03-15 15:14:28:155,0,7.7479,-3.095,2.05619,Q,Q
2023-03-15 15:14:28:165,0,7.72946,-3.0958,2.03968,Q,Q
2023-03-15 15:14:28:175,0,7.70753,-3.10218,2.01501,Q,Q
2023-03-15 15:14:28:185,0,7.70066,-3.11237,1.98114,Q,Q
2023-03-15 15:14:28:195,0,7.7081,-3.11645,1.9471,Q,Q
2023-03-15 15:14:28:205,0,7.72524,-3.12261,1.9216,Q,Q
2023-03-15 15:14:28:215,0,7.74685,-3.12833,1.89756,Q,Q
2023-03-15 15:14:28:225,0,7.77074,-3.13516,1.87606,Q,Q
2023-03-15 15:14:28:235,0,7.78964,-3.14127,1.85942,Q,Q
2023-03-15 15:14:28:245,0,7.79599,-3.14088,1.83994,Q,Q
2023-03-15 15:14:28:255,0,7.7917,-3.14026,1.82535,Q,Q
2023-03-15 15:14:28:265,0,7.78387,-3.14097,1.80851,Q,Q
2023-03-15 15:14:28:275,0,7.78148,-3.14153,1.78984,Q,Q
2023-03-15 15:14:28:285,0,7.78777,-3.14625,1.77295,Q,Q
2023-03-15 15:14:28:295,0,7.80747,-3.15003,1.75394,Q,Q
2023-03-15 15:14:28:305,0,7.82857,-3.1529,1.73851,Q,Q
2023-03-15 15:14:28:315,0,7.84366,-3.15406,1.73182,Q,Q
2023-03-15 15:14:28:325,0,7.85091,-3.15805,1.7202,Q,Q
2023-03-15 15:14:28:335,0,7.85327,-3.16,1.70545,Q,Q
2023-03-15 15:14:28:345,0,7.85811,-3.15914,1.69002,Q,Q
2023-03-15 15:14:28:355,0,7.86794,-3.15438,1.67535,Q,Q
2023-03-15 15:14:28:365,0,7.88491,-3.1505,1.65946,Q,Q
2023-03-15 15:14:28:375,0,7.90375,-3.14309,1.64686,Q,Q
2023-03-15 15:14:28:385,0,7.92512,-3.13583,1.6377,Q,Q
2023-03-15 15:14:28:395,0,7.94756,-3.13103,1.63109,Q,Q
2023-03-15 15:14:28:405,0,7.97152,-3.12484,1.62725,Q,Q
2023-03-15 15:14:28:415,0,7.99241,-3.11938,1.62577,Q,Q
2023-03-15 15:14:28:425,0,8.01429,-3.1167,1.6313,Q,Q
2023-03-15 15:14:28:435,0,8.03203,-3.11301,1.63525,Q,Q
2023-03-15 15:14:28:445,0,8.05059,-3.11236,1.63904,Q,Q
2023-03-15 15:14:28:455,0,8.06989,-3.10648,1.64298,Q,Q
2023-03-15 15:14:28:465,0,8.09022,-3.10002,1.65209,Q,Q
2023-03-15 15:14:28:475,0,8.10852,-3.09871,1.66101,Q,Q
2023-03-15 15:14:28:485,0,8.11878,-3.1013,1.67223,Q,Q
2023-03-15 15:14:28:495,0,8.1267,-3.10539,1.68178,Q,Q
2023-03-15 15:14:28:505,0,8.13384,-3.10958,1.69392,Q,Q
2023-03-15 15:14:28:515,0,8.13564,-3.11152,1.70674,Q,Q
2023-03-15 15:14:28:525,0,8.13352,-3.11161,1.71968,Q,Q
2023-03-15 15:14:28:535,0,8.13058,-3.11706,1.73203,Q,Q
2023-03-15 15:14:28:545,0,8.12818,-3.12144,1.74134,Q,Q
2023-03-15 15:14:28:555,0,8.12515,-3.12663,1.75588,Q,Q
2023-03-15 15:14:28:565,0,8.12435,-3.12738,1.76579,Q,Q
2023-03-15 15:14:28:575,0,8.12336,-3.12911,1.77411,Q,Q
2023-03-15 15:14:28:585,0,8.12548,-3.13018,1.77784,Q,Q
2023-03-15 15:14:28:595,0,8.12464,-3.12666,1.77849,Q,Q
2023-03-15 15:14:28:605,0,8.12415,-3.1204,1.7798,Q,Q
2023-03-15 15:14:28:615,0,8.11956,-3.11781,1.78118,Q,Q
2023-03-15 15:14:28:625,0,8.10971,-3.11375,1.78372,Q,Q
2023-03-15 15:14:28:635,0,8.10088,-3.11074,1.78454,Q,Q
2023-03-15 15:14:28:645,0,8.08784,-3.10509,1.78786,Q,Q
2023-03-15 15:14:28:655,0,8.07437,-3.09641,1.79154,Q,Q
2023-03-15 15:14:28:665,0,8.06093,-3.09291,1.79695,Q,Q
2023-03-15 15:14:28:675,0,8.04044,-3.09066,1.7996,Q,Q
2023-03-15 15:14:28:685,0,8.02472,-3.08551,1.8016,Q,Q
2023-03-15 15:14:28:695,0,8.00515,-3.07824,1.80551,Q,Q
2023-03-15 15:14:28:705,0,7.99284,-3.06589,1.80731,Q,Q
2023-03-15 15:14:28:715,0,7.98181,-3.05786,1.81164,Q,Q
2023-03-15 15:14:28:725,0,7.97143,-3.05531,1.82039,Q,Q
2023-03-15 15:14:28:735,0,7.95758,-3.0594,1.83161,Q,Q
2023-03-15 15:14:28:745,0,7.94976,-3.06414,1.8408,Q,Q
2023-03-15 15:14:28:755,0,7.94378,-3.06562,1.8485,Q,Q
2023-03-15 15:14:28:765,0,7.93689,-3.06796,1.85462,Q,Q
2023-03-15 15:14:28:775,0,7.93739,-3.06908,1.86323,Q,Q
2023-03-15 15:14:28:785,0,7.93762,-3.07068,1.87316,Q,Q
2023-03-15 15:14:28:795,0,7.93959,-3.07561,1.87998,Q,Q
2023-03-15 15:14:28:805,0,7.93783,-3.0807,1.88789,Q,Q
2023-03-15 15:14:28:815,0,7.94093,-3.08108,1.89375,Q,Q
2023-03-15 15:14:28:825,0,7.9449,-3.08386,1.9003,Q,Q
2023-03-15 15:14:28:835,0,7.94534,-3.08892,1.90511,Q,Q
2023-03-15 15:14:28:845,0,7.9409,-3.09139,1.90952,Q,Q
2023-03-15 15:14:28:855,0,7.9379,-3.09531,1.91483,Q,Q
2023-03-15 15:14:28:865,0,7.93895,-3.09925,1.91656,Q,Q
2023-03-15 15:14:28:875,0,7.93824,-3.10495,1.92139,Q,Q
2023-03-15 15:14:28:885,0,7.93933,-3.10805,1.92101,Q,Q
2023-03-15 15:14:28:895,0,7.93963,-3.11091,1.92255,Q,Q
2023-03-15 15:14:28:905,0,7.93925,-3.11072,1.92621,Q,Q
2023-03-15 15:14:28:915,0,7.93766,-3.11094,1.93032,Q,Q
2023-03-15 15:14:28:925,0,7.93367,-3.10531,1.93802,Q,Q
2023-03-15 15:14:28:935,0,7.93077,-3.09985,1.94653,Q,Q
2023-03-15 15:14:28:945,0,7.92557,-3.09298,1.95182,Q,Q
2023-03-15 15:14:28:955,0,7.92401,-3.08437,1.95977,Q,Q
2023-03-15 15:14:28:965,0,7.92163,-3.07613,1.96673,Q,Q
2023-03-15 15:14:28:975,0,7.91435,-3.06566,1.96697,Q,Q
2023-03-15 15:14:28:985,0,7.91071,-3.05317,1.96315,Q,Q
2023-03-15 15:14:28:995,0,7.90646,-3.04545,1.96,Q,Q
2023-03-15 15:14:29:5,0,7.90435,-3.03567,1.95239,Q,Q
2023-03-15 15:14:29:15,0,7.90069,-3.02838,1.94482,Q,Q
2023-03-15 15:14:29:25,0,7.9002,-3.02003,1.93341,Q,Q
2023-03-15 15:14:29:35,0,7.90109,-3.01139,1.91926,Q,Q
2023-03-15 15:14:29:45,0,7.9034,-3.00551,1.90468,Q,Q
2023-03-15 15:14:29:55,0,7.90655,-3.00102,1.89181,Q,Q
2023-03-15 15:14:29:65,0,7.90441,-2.99162,1.88093,Q,Q
2023-03-15 15:14:29:75,0,7.90418,-2.98223,1.87429,Q,Q
2023-03-15 15:14:29:85,0,7.90526,-2.97463,1.86259,Q,Q
2023-03-15 15:14:29:95,0,7.90884,-2.96937,1.85432,Q,Q
2023-03-15 15:14:29:105,0,7.91007,-2.96354,1.84537,Q,Q
2023-03-15 15:14:29:115,0,7.91259,-2.96282,1.84013,Q,Q
2023-03-15 15:14:29:125,0,7.91365,-2.96123,1.83515,Q,Q
2023-03-15 15:14:29:135,0,7.91779,-2.96067,1.8357,Q,Q
2023-03-15 15:14:29:145,0,7.91926,-2.96193,1.83479,Q,Q
2023-03-15 15:14:29:155,0,7.91789,-2.96454,1.83253,Q,Q
2023-03-15 15:14:29:165,0,7.91532,-2.96593,1.83664,Q,Q
2023-03-15 15:14:29:175,0,7.91108,-2.96848,1.83959,Q,Q
2023-03-15 15:14:29:185,0,7.90814,-2.96854,1.84457,Q,Q
2023-03-15 15:14:29:195,0,7.90794,-2.9656,1.84209,Q,Q
2023-03-15 15:14:29:205,0,7.90709,-2.95994,1.8398,Q,Q
2023-03-15 15:14:29:215,0,7.90851,-2.95338,1.83428,Q,Q
2023-03-15 15:14:29:225,0,7.90763,-2.94999,1.82973,Q,Q
2023-03-15 15:14:29:235,0,7.91172,-2.94511,1.82889,Q,Q
2023-03-15 15:14:29:245,0,7.9146,-2.94242,1.82121,Q,Q
2023-03-15 15:14:29:255,0,7.91577,-2.94027,1.8165,Q,Q
2023-03-15 15:14:29:265,0,7.91557,-2.93804,1.81508,Q,Q
2023-03-15 15:14:29:275,0,7.91742,-2.93137,1.81109,Q,Q
2023-03-15 15:14:29:285,0,7.91619,-2.92563,1.80538,Q,Q
2023-03-15 15:14:29:295,0,7.91764,-2.92371,1.80578,Q,Q
2023-03-15 15:14:29:305,0,7.91784,-2.92628,1.81006,Q,Q
2023-03-15 15:14:29:315,0,7.9177,-2.93835,1.81492,Q,Q
2023-03-15 15:14:29:325,0,7.91759,-2.9505,1.82379,Q,Q
2023-03-15 15:14:29:335,0,7.91754,-2.95816,1.83197,Q,Q
2023-03-15 15:14:29:345,0,7.91259,-2.96497,1.84128,Q,Q
2023-03-15 15:14:29:355,0,7.90652,-2.96959,1.85109,Q,Q
2023-03-15 15:14:29:365,0,7.90208,-2.97074,1.8587,Q,Q
2023-03-15 15:14:29:375,0,7.89755,-2.97066,1.8677,Q,Q
2023-03-15 15:14:29:385,0,7.90133,-2.96961,1.876,Q,Q
2023-03-15 15:14:29:395,0,7.90666,-2.96737,1.88434,Q,Q
2023-03-15 15:14:29:405,0,7.91264,-2.96582,1.88891,Q,Q
2023-03-15 15:14:29:415,0,7.9183,-2.96323,1.88856,Q,Q
2023-03-15 15:14:29:425,0,7.92624,-2.96207,1.88193,Q,Q
2023-03-15 15:14:29:435,0,7.93405,-2.96081,1.87711,Q,Q
2023-03-15 15:14:29:445,0,7.93932,-2.96105,1.86914,Q,Q
2023-03-15 15:14:29:455,0,7.94095,-2.95966,1.86054,Q,Q
2023-03-15 15:14:29:465,0,7.93947,-2.96309,1.85495,Q,Q
2023-03-15 15:14:29:475,0,7.93918,-2.96811,1.84711,Q,Q
2023-03-15 15:14:29:485,0,7.93704,-2.96745,1.84176,Q,Q
2023-03-15 15:14:29:495,0,7.93445,-2.96714,1.84009,Q,Q
2023-03-15 15:14:29:505,0,7.92902,-2.96765,1.84086,Q,Q
2023-03-15 15:14:29:515,0,7.92177,-2.96646,1.84605,Q,Q
2023-03-15 15:14:29:525,0,7.91575,-2.96277,1.84996,Q,Q
2023-03-15 15:14:29:535,0,7.91078,-2.96286,1.85622,Q,Q
2023-03-15 15:14:29:545,0,7.90487,-2.96565,1.86469,Q,Q
2023-03-15 15:14:29:555,0,7.90304,-2.97,1.87407,Q,Q
2023-03-15 15:14:29:565,0,7.90439,-2.97817,1.88834,Q,Q
2023-03-15 15:14:29:575,0,7.90558,-2.98827,1.89827,Q,Q
2023-03-15 15:14:29:585,0,7.9127,-2.99933,1.90577,Q,Q
2023-03-15 15:14:29:595,0,7.92062,-3.00955,1.91468,Q,Q
2023-03-15 15:14:29:605,0,7.92915,-3.02155,1.92007,Q,Q
2023-03-15 15:14:29:615,0,7.942,-3.03516,1.92452,Q,Q
2023-03-15 15:14:29:625,0,7.95477,-3.04677,1.92449,Q,Q
2023-03-15 15:14:29:635,0,7.96771,-3.05422,1.92639,Q,Q
2023-03-15 15:14:29:645,0,7.97977,-3.05665,1.92779,Q,Q
2023-03-15 15:14:29:655,0,7.99862,-3.05833,1.9248,Q,Q
2023-03-15 15:14:29:665,0,8.01732,-3.05859,1.92654,Q,Q
2023-03-15 15:14:29:675,0,8.03281,-3.05763,1.92164,Q,Q
2023-03-15 15:14:29:685,0,8.0457,-3.05488,1.91868,Q,Q
2023-03-15 15:14:29:695,0,8.05835,-3.0589,1.92108,Q,Q
2023-03-15 15:14:29:705,0,8.06624,-3.06054,1.92535,Q,Q
2023-03-15 15:14:29:715,0,8.07562,-3.06342,1.93247,Q,Q
2023-03-15 15:14:29:725,0,8.08375,-3.06475,1.94343,Q,Q
2023-03-15 15:14:29:735,0,8.0884,-3.06771,1.95733,Q,Q
2023-03-15 15:14:29:745,0,8.09106,-3.07158,1.96922,Q,Q
2023-03-15 15:14:29:755,0,8.09829,-3.07061,1.98569,Q,Q
2023-03-15 15:14:29:765,0,8.10267,-3.06782,1.99805,Q,Q
2023-03-15 15:14:29:775,0,8.10571,-3.0624,2.00855,Q,Q
2023-03-15 15:14:29:785,0,8.10702,-3.05561,2.02013,Q,Q
2023-03-15 15:14:29:795,0,8.10587,-3.05215,2.0285,Q,Q
2023-03-15 15:14:29:805,0,8.10186,-3.04253,2.03479,Q,Q
2023-03-15 15:14:29:815,0,8.0969,-3.03562,2.03487,Q,Q
2023-03-15 15:14:29:825,0,8.09331,-3.02733,2.03173,Q,Q
2023-03-15 15:14:29:835,0,8.08336,-3.02427,2.02596,Q,Q
2023-03-15 15:14:29:845,0,8.07214,-3.01912,2.02093,Q,Q
2023-03-15 15:14:29:855,0,8.06253,-3.01286,2.00825,Q,Q
2023-03-15 15:14:29:865,0,8.0532,-3.00838,1.99977,Q,Q
2023-03-15 15:14:29:875,0,8.0439,-3.00065,1.99223,Q,Q
2023-03-15 15:14:29:885,0,8.03053,-2.99416,1.98465,Q,Q
2023-03-15 15:14:29:895,0,8.02011,-2.98552,1.97508,Q,Q
2023-03-15 15:14:29:905,0,8.00954,-2.973,1.96276,Q,Q
2023-03-15 15:14:29:915,0,8.00053,-2.95584,1.9478,Q,Q
2023-03-15 15:14:29:925,0,7.99519,-2.92804,1.93256,Q,Q
2023-03-15 15:14:29:935,0,7.98899,-2.8953,1.91241,Q,Q
2023-03-15 15:14:29:945,0,7.98433,-2.86282,1.88431,Q,Q
2023-03-15 15:14:29:955,0,7.98078,-2.83448,1.85634,Q,Q
2023-03-15 15:14:29:965,0,7.9729,-2.79972,1.82618,Q,Q
2023-03-15 15:14:29:975,0,7.9664,-2.77017,1.79946,Q,Q
2023-03-15 15:14:29:985,0,7.95895,-2.73673,1.76875,Q,Q
2023-03-15 15:14:29:995,0,7.94936,-2.71146,1.73641,Q,Q
2023-03-15 15:14:30:5,0,7.9402,-2.68726,1.70544,Q,Q
2023-03-15 15:14:30:15,0,7.93204,-2.66493,1.6758,Q,Q
2023-03-15 15:14:30:25,0,7.92791,-2.63935,1.64835,Q,Q
2023-03-15 15:14:30:35,0,7.92642,-2.61253,1.62543,Q,Q
2023-03-15 15:14:30:45,0,7.92321,-2.58666,1.60884,Q,Q
2023-03-15 15:14:30:55,0,7.92302,-2.56422,1.59148,Q,Q
2023-03-15 15:14:30:65,0,7.91863,-2.54446,1.5781,Q,Q
2023-03-15 15:14:30:75,0,7.91308,-2.52572,1.56982,Q,Q
2023-03-15 15:14:30:85,0,7.9059,-2.50537,1.56084,Q,Q
2023-03-15 15:14:30:95,0,7.90042,-2.48961,1.55356,Q,Q
2023-03-15 15:14:30:105,0,7.89222,-2.47683,1.54579,Q,Q
2023-03-15 15:14:30:115,0,7.88101,-2.4707,1.5386,Q,Q
2023-03-15 15:14:30:125,0,7.86811,-2.46067,1.53215,Q,Q
2023-03-15 15:14:30:135,0,7.85865,-2.45488,1.52404,Q,Q
2023-03-15 15:14:30:145,0,7.84853,-2.45589,1.51938,Q,Q
2023-03-15 15:14:30:155,0,7.83883,-2.45969,1.51662,Q,Q
2023-03-15 15:14:30:165,0,7.83274,-2.46301,1.51305,Q,Q
2023-03-15 15:14:30:175,0,7.83055,-2.4668,1.51702,Q,Q
2023-03-15 15:14:30:185,0,7.82448,-2.47384,1.52147,Q,Q
2023-03-15 15:14:30:195,0,7.81054,-2.47635,1.52615,Q,Q
2023-03-15 15:14:30:205,0,7.7966,-2.47587,1.52999,Q,Q
2023-03-15 15:14:30:215,0,7.78367,-2.46941,1.52604,Q,Q
2023-03-15 15:14:30:225,0,7.77327,-2.46152,1.5151,Q,Q
2023-03-15 15:14:30:235,0,7.76665,-2.45252,1.50113,Q,Q
2023-03-15 15:14:30:245,0,7.76287,-2.44108,1.48161,Q,Q
2023-03-15 15:14:30:255,0,7.75979,-2.42859,1.4601,Q,Q
2023-03-15 15:14:30:265,0,7.76215,-2.41768,1.4324,Q,Q
2023-03-15 15:14:30:275,0,7.7621,-2.40406,1.39911,Q,Q
2023-03-15 15:14:30:285,0,7.76455,-2.3909,1.36505,Q,Q
2023-03-15 15:14:30:295,0,7.76854,-2.37625,1.32875,Q,Q
2023-03-15 15:14:30:305,0,7.7724,-2.36091,1.29533,Q,Q
2023-03-15 15:14:30:315,0,7.76996,-2.34601,1.26302,Q,Q
2023-03-15 15:14:30:325,0,7.76672,-2.3269,1.23658,Q,Q
2023-03-15 15:14:30:335,0,7.76046,-2.31221,1.2127,Q,Q
2023-03-15 15:14:30:345,0,7.75166,-2.29813,1.19255,Q,Q
2023-03-15 15:14:30:355,0,7.74281,-2.28622,1.17835,Q,Q
2023-03-15 15:14:30:365,0,7.73536,-2.26944,1.16781,Q,Q
2023-03-15 15:14:30:375,0,7.72547,-2.25383,1.15872,Q,Q
2023-03-15 15:14:30:385,0,7.7152,-2.23742,1.14614,Q,Q
2023-03-15 15:14:30:395,0,7.70588,-2.22329,1.13772,Q,Q
2023-03-15 15:14:30:405,0,7.69513,-2.20847,1.12764,Q,Q
2023-03-15 15:14:30:415,0,7.6831,-2.19878,1.12235,Q,Q
2023-03-15 15:14:30:425,0,7.67126,-2.18937,1.11531,Q,Q
2023-03-15 15:14:30:435,0,7.66279,-2.18096,1.10412,Q,Q
2023-03-15 15:14:30:445,0,7.65257,-2.1728,1.09397,Q,Q
2023-03-15 15:14:30:455,0,7.64316,-2.16764,1.08373,Q,Q
2023-03-15 15:14:30:465,0,7.63288,-2.16609,1.07649,Q,Q
2023-03-15 15:14:30:475,0,7.62213,-2.16361,1.06688,Q,Q
2023-03-15 15:14:30:485,0,7.61565,-2.16276,1.05875,Q,Q
2023-03-15 15:14:30:495,0,7.61201,-2.16252,1.05179,Q,Q
2023-03-15 15:14:30:505,0,7.60651,-2.16199,1.04609,Q,Q
2023-03-15 15:14:30:515,0,7.5985,-2.16299,1.04335,Q,Q
2023-03-15 15:14:30:525,0,7.58982,-2.16788,1.03659,Q,Q
2023-03-15 15:14:30:535,0,7.58195,-2.17212,1.02676,Q,Q
2023-03-15 15:14:30:545,0,7.57609,-2.17812,1.0181,Q,Q
2023-03-15 15:14:30:555,0,7.56729,-2.18747,1.01008,Q,Q
2023-03-15 15:14:30:565,0,7.55809,-2.19276,0.998037,Q,Q
2023-03-15 15:14:30:575,0,7.54771,-2.20296,0.990234,Q,Q
2023-03-15 15:14:30:585,0,7.53905,-2.21111,0.981589,Q,Q
2023-03-15 15:14:30:595,0,7.52954,-2.21511,0.973395,Q,Q
2023-03-15 15:14:30:605,0,7.52567,-2.21611,0.963747,Q,Q
2023-03-15 15:14:30:615,0,7.52705,-2.21444,0.959451,Q,Q
2023-03-15 15:14:30:625,0,7.52582,-2.21797,0.957251,Q,Q
2023-03-15 15:14:30:635,0,7.52996,-2.22436,0.955871,Q,Q
2023-03-15 15:14:30:645,0,7.52351,-2.22875,0.952999,Q,Q
2023-03-15 15:14:30:655,0,7.52145,-2.2325,0.948666,Q,Q
2023-03-15 15:14:30:665,0,7.52248,-2.229,0.941736,Q,Q
2023-03-15 15:14:30:675,0,7.52812,-2.22718,0.932469,Q,Q
2023-03-15 15:14:30:685,0,7.53226,-2.22833,0.920135,Q,Q
2023-03-15 15:14:30:695,0,7.53926,-2.22333,0.908535,Q,Q
2023-03-15 15:14:30:705,0,7.54507,-2.21922,0.898233,Q,Q
2023-03-15 15:14:30:715,0,7.55595,-2.21289,0.886585,Q,Q
2023-03-15 15:14:30:725,0,7.56232,-2.21022,0.871823,Q,Q
2023-03-15 15:14:30:735,0,7.56751,-2.21049,0.859406,Q,Q
2023-03-15 15:14:30:745,0,7.57235,-2.20991,0.846825,Q,Q
2023-03-15 15:14:30:755,0,7.57781,-2.20979,0.832635,Q,Q
2023-03-15 15:14:30:765,0,7.58256,-2.21083,0.814805,Q,Q
2023-03-15 15:14:30:775,0,7.58446,-2.21689,0.799695,Q,Q
2023-03-15 15:14:30:785,0,7.59135,-2.22281,0.780928,Q,Q
2023-03-15 15:14:30:795,0,7.60103,-2.22886,0.769178,Q,Q
2023-03-15 15:14:30:805,0,7.61215,-2.23761,0.75569,Q,Q
2023-03-15 15:14:30:815,0,7.6232,-2.24599,0.744587,Q,Q
2023-03-15 15:14:30:825,0,7.63576,-2.25168,0.734534,Q,Q
2023-03-15 15:14:30:835,0,7.6486,-2.25691,0.725445,Q,Q
2023-03-15 15:14:30:845,0,7.65942,-2.26095,0.716757,Q,Q
2023-03-15 15:14:30:855,0,7.67414,-2.26381,0.711426,Q,Q
2023-03-15 15:14:30:865,0,7.68599,-2.26369,0.703836,Q,Q
2023-03-15 15:14:30:875,0,7.69707,-2.2604,0.694963,Q,Q
2023-03-15 15:14:30:885,0,7.70658,-2.26014,0.681763,Q,Q
2023-03-15 15:14:30:895,0,7.71647,-2.25474,0.671194,Q,Q
2023-03-15 15:14:30:905,0,7.724,-2.25208,0.664567,Q,Q
2023-03-15 15:14:30:915,0,7.73103,-2.25234,0.65878,Q,Q
2023-03-15 15:14:30:925,0,7.73653,-2.25376,0.64969,Q,Q
2023-03-15 15:14:30:935,0,7.74215,-2.24784,0.639005,Q,Q
2023-03-15 15:14:30:945,0,7.74724,-2.24283,0.633204,Q,Q
2023-03-15 15:14:30:955,0,7.74766,-2.24107,0.627281,Q,Q
2023-03-15 15:14:30:965,0,7.74703,-2.24189,0.626865,Q,Q
2023-03-15 15:14:30:975,0,7.74969,-2.24472,0.627982,Q,Q
2023-03-15 15:14:30:985,0,7.74557,-2.25034,0.632236,Q,Q
2023-03-15 15:14:30:995,0,7.741,-2.25488,0.636925,Q,Q
2023-03-15 15:14:31:5,0,7.73434,-2.25861,0.636656,Q,Q
2023-03-15 15:14:31:15,0,7.7271,-2.26528,0.637351,Q,Q
2023-03-15 15:14:31:25,0,7.71715,-2.27227,0.637118,Q,Q
2023-03-15 15:14:31:35,0,7.71069,-2.2775,0.636825,Q,Q
2023-03-15 15:14:31:45,0,7.70631,-2.27326,0.63199,Q,Q
2023-03-15 15:14:31:55,0,7.70718,-2.27739,0.628353,Q,Q
2023-03-15 15:14:31:65,0,7.70355,-2.2852,0.631974,Q,Q
2023-03-15 15:14:31:75,0,7.69568,-2.29303,0.634172,Q,Q
2023-03-15 15:14:31:85,0,7.69248,-2.30106,0.631541,Q,Q
2023-03-15 15:14:31:95,0,7.69564,-2.30745,0.630103,Q,Q
2023-03-15 15:14:31:105,0,7.6986,-2.30736,0.629498,Q,Q
2023-03-15 15:14:31:115,0,7.70247,-2.30747,0.628736,Q,Q
2023-03-15 15:14:31:125,0,7.7038,-2.31112,0.628779,Q,Q
2023-03-15 15:14:31:135,0,7.7025,-2.31591,0.630929,Q,Q
2023-03-15 15:14:31:145,0,7.69911,-2.32082,0.629497,Q,Q
2023-03-15 15:14:31:155,0,7.69657,-2.32529,0.624362,Q,Q
2023-03-15 15:14:31:165,0,7.68814,-2.32709,0.621444,Q,Q
2023-03-15 15:14:31:175,0,7.67955,-2.3205,0.613698,Q,Q
2023-03-15 15:14:31:185,0,7.67485,-2.31553,0.601985,Q,Q
2023-03-15 15:14:31:195,0,7.66864,-2.31399,0.589314,Q,Q
2023-03-15 15:14:31:205,0,7.66232,-2.32095,0.578627,Q,Q
2023-03-15 15:14:31:215,0,7.66057,-2.3215,0.570478,Q,Q
2023-03-15 15:14:31:225,0,7.66894,-2.32567,0.565601,Q,Q
2023-03-15 15:14:31:235,0,7.67232,-2.32813,0.565073,Q,Q
2023-03-15 15:14:31:245,0,7.67239,-2.33631,0.569196,Q,Q
2023-03-15 15:14:31:255,0,7.66626,-2.34851,0.569001,Q,Q
2023-03-15 15:14:31:265,0,7.66317,-2.3586,0.57166,Q,Q
2023-03-15 15:14:31:275,0,7.6661,-2.36387,0.575899,Q,Q
2023-03-15 15:14:31:285,0,7.67065,-2.36173,0.579514,Q,Q
2023-03-15 15:14:31:295,0,7.67964,-2.36372,0.585044,Q,Q
2023-03-15 15:14:31:305,0,7.68138,-2.37442,0.59496,Q,Q
2023-03-15 15:14:31:315,0,7.67981,-2.37897,0.600441,Q,Q
2023-03-15 15:14:31:325,0,7.68321,-2.38514,0.608811,Q,Q
2023-03-15 15:14:31:335,0,7.68746,-2.38765,0.614429,Q,Q
2023-03-15 15:14:31:345,0,7.69628,-2.38091,0.619186,Q,Q
2023-03-15 15:14:31:355,0,7.70223,-2.3858,0.628519,Q,Q
2023-03-15 15:14:31:365,0,7.70078,-2.39523,0.645292,Q,Q
2023-03-15 15:14:31:375,0,7.69421,-2.40456,0.656951,Q,Q
2023-03-15 15:14:31:385,0,7.69178,-2.41084,0.664205,Q,Q
2023-03-15 15:14:31:395,0,7.687,-2.41758,0.673919,Q,Q
2023-03-15 15:14:31:405,0,7.6804,-2.42626,0.687911,Q,Q
2023-03-15 15:14:31:415,0,7.67325,-2.43386,0.703357,Q,Q
2023-03-15 15:14:31:425,0,7.66164,-2.44191,0.718403,Q,Q
2023-03-15 15:14:31:435,0,7.65479,-2.44994,0.732592,Q,Q
2023-03-15 15:14:31:445,0,7.64851,-2.45743,0.746935,Q,Q
2023-03-15 15:14:31:455,0,7.64373,-2.46778,0.757287,Q,Q
2023-03-15 15:14:31:465,0,7.63903,-2.47633,0.768059,Q,Q
2023-03-15 15:14:31:475,0,7.63999,-2.48472,0.778715,Q,Q
2023-03-15 15:14:31:485,0,7.63738,-2.4924,0.788123,Q,Q
2023-03-15 15:14:31:495,0,7.63731,-2.50176,0.793572,Q,Q
2023-03-15 15:14:31:505,0,7.63635,-2.51463,0.795619,Q,Q
2023-03-15 15:14:31:515,0,7.63134,-2.52292,0.798642,Q,Q
2023-03-15 15:14:31:525,0,7.62569,-2.53202,0.798016,Q,Q
2023-03-15 15:14:31:535,0,7.62277,-2.54327,0.798104,Q,Q
2023-03-15 15:14:31:545,0,7.61676,-2.55356,0.79801,Q,Q
2023-03-15 15:14:31:555,0,7.60967,-2.56454,0.793299,Q,Q
2023-03-15 15:14:31:565,0,7.60433,-2.57482,0.797563,Q,Q
2023-03-15 15:14:31:575,0,7.60394,-2.5844,0.79925,Q,Q
2023-03-15 15:14:31:585,0,7.6037,-2.59237,0.801072,Q,Q
2023-03-15 15:14:31:595,0,7.6029,-2.59794,0.806594,Q,Q
2023-03-15 15:14:31:605,0,7.59807,-2.60333,0.81059,Q,Q
2023-03-15 15:14:31:615,0,7.59214,-2.61063,0.814709,Q,Q
2023-03-15 15:14:31:625,0,7.58375,-2.61716,0.819439,Q,Q
2023-03-15 15:14:31:635,0,7.5809,-2.62557,0.821468,Q,Q
2023-03-15 15:14:31:645,0,7.57646,-2.63107,0.825605,Q,Q
2023-03-15 15:14:31:655,0,7.57414,-2.63357,0.827943,Q,Q
2023-03-15 15:14:31:665,0,7.56786,-2.63613,0.82933,Q,Q
2023-03-15 15:14:31:675,0,7.5643,-2.63599,0.824861,Q,Q
2023-03-15 15:14:31:685,0,7.5598,-2.63436,0.823724,Q,Q
2023-03-15 15:14:31:695,0,7.5458,-2.62996,0.820625,Q,Q
2023-03-15 15:14:31:705,0,7.53087,-2.62111,0.820457,Q,Q
2023-03-15 15:14:31:715,0,7.50912,-2.61059,0.822255,Q,Q
2023-03-15 15:14:31:725,0,7.47986,-2.60216,0.827587,Q,Q
2023-03-15 15:14:31:735,0,7.445,-2.59627,0.8269,Q,Q
2023-03-15 15:14:31:745,0,7.41046,-2.59502,0.822433,Q,Q
2023-03-15 15:14:31:755,0,7.38089,-2.58955,0.815494,Q,Q
2023-03-15 15:14:31:765,0,7.36264,-2.58372,0.809765,Q,Q
2023-03-15 15:14:31:775,0,7.34847,-2.5848,0.806764,Q,Q
2023-03-15 15:14:31:785,0,7.33478,-2.59228,0.806784,Q,Q
2023-03-15 15:14:31:795,0,7.3214,-2.60686,0.810683,Q,Q
2023-03-15 15:14:31:805,0,7.31073,-2.61953,0.814131,Q,Q
2023-03-15 15:14:31:815,0,7.29824,-2.6341,0.816109,Q,Q
2023-03-15 15:14:31:825,0,7.28922,-2.64855,0.818676,Q,Q
2023-03-15 15:14:31:835,0,7.27947,-2.65734,0.822028,Q,Q
2023-03-15 15:14:31:845,0,7.27351,-2.67105,0.82435,Q,Q
2023-03-15 15:14:31:855,0,7.26662,-2.67414,0.82598,Q,Q
2023-03-15 15:14:31:865,0,7.26491,-2.68349,0.829632,Q,Q
2023-03-15 15:14:31:875,0,7.26881,-2.69029,0.829063,Q,Q
2023-03-15 15:14:31:885,0,7.2706,-2.69768,0.830255,Q,Q
2023-03-15 15:14:31:895,0,7.27805,-2.70557,0.830806,Q,Q
2023-03-15 15:14:31:905,0,7.29074,-2.71013,0.830231,Q,Q
2023-03-15 15:14:31:915,0,7.30391,-2.7166,0.828881,Q,Q
2023-03-15 15:14:31:925,0,7.31856,-2.72286,0.823513,Q,Q
2023-03-15 15:14:31:935,0,7.33936,-2.71839,0.812511,Q,Q
2023-03-15 15:14:31:945,0,7.35982,-2.71712,0.799314,Q,Q
2023-03-15 15:14:31:955,0,7.3864,-2.71239,0.782796,Q,Q
2023-03-15 15:14:31:965,0,7.41441,-2.7061,0.764962,Q,Q
2023-03-15 15:14:31:975,0,7.43835,-2.69598,0.747575,Q,Q
2023-03-15 15:14:31:985,0,7.46137,-2.68789,0.732626,Q,Q
2023-03-15 15:14:31:995,0,7.47921,-2.67783,0.71682,Q,Q
2023-03-15 15:14:32:5,0,7.49871,-2.6672,0.698962,Q,Q
2023-03-15 15:14:32:15,0,7.5185,-2.66971,0.681258,Q,Q
2023-03-15 15:14:32:25,0,7.5313,-2.67588,0.671392,Q,Q
2023-03-15 15:14:32:35,0,7.54156,-2.68095,0.659116,Q,Q
2023-03-15 15:14:32:45,0,7.54871,-2.69458,0.647561,Q,Q
2023-03-15 15:14:32:55,0,7.55465,-2.70669,0.638029,Q,Q
2023-03-15 15:14:32:65,0,7.55972,-2.71854,0.628825,Q,Q
2023-03-15 15:14:32:75,0,7.56346,-2.73262,0.626317,Q,Q
2023-03-15 15:14:32:85,0,7.56172,-2.73174,0.626402,Q,Q
2023-03-15 15:14:32:95,0,7.56214,-2.73534,0.622409,Q,Q
2023-03-15 15:14:32:105,0,7.55429,-2.74049,0.630402,Q,Q
2023-03-15 15:14:32:115,0,7.55063,-2.74559,0.62903,Q,Q
2023-03-15 15:14:32:125,0,7.54624,-2.76929,0.618153,Q,Q
2023-03-15 15:14:32:135,0,7.53073,-2.80506,0.630929,Q,Q
2023-03-15 15:14:32:145,0,7.51001,-2.84674,0.661972,Q,Q
2023-03-15 15:14:32:155,0,7.5037,-2.88714,0.697916,Q,Q
2023-03-15 15:14:32:165,0,7.51375,-2.92531,0.7449,Q,Q
2023-03-15 15:14:32:175,0,7.52811,-2.94991,0.812087,Q,Q
2023-03-15 15:14:32:185,0,7.5347,-2.96894,0.884287,Q,Q
2023-03-15 15:14:32:195,0,7.53984,-2.9795,0.956278,Q,Q
2023-03-15 15:14:32:205,0,7.54219,-2.98837,1.02324,Q,Q
2023-03-15 15:14:32:215,0,7.5456,-2.98206,1.07841,Q,Q
2023-03-15 15:14:32:225,0,7.55056,-2.97155,1.12029,Q,Q
2023-03-15 15:14:32:235,0,7.5534,-2.967,1.15289,Q,Q
2023-03-15 15:14:32:245,0,7.5494,-2.97085,1.17072,Q,Q
2023-03-15 15:14:32:255,0,7.53781,-2.98764,1.17533,Q,Q
2023-03-15 15:14:32:265,0,7.52066,-3.00872,1.15363,Q,Q
2023-03-15 15:14:32:275,0,7.50404,-3.0346,1.1126,Q,Q
2023-03-15 15:14:32:285,0,7.48399,-3.06327,1.0543,Q,Q
2023-03-15 15:14:32:295,0,7.46159,-3.09065,0.972023,Q,Q
2023-03-15 15:14:32:305,0,7.44172,-3.10618,0.873121,Q,Q
2023-03-15 15:14:32:315,0,7.42887,-3.11238,0.765466,Q,Q
2023-03-15 15:14:32:325,0,7.42223,-3.11891,0.664208,Q,Q
2023-03-15 15:14:32:335,0,7.41983,-3.11781,0.560459,Q,Q
2023-03-15 15:14:32:345,0,7.41976,-3.11045,0.463212,Q,Q
2023-03-15 15:14:32:355,0,7.4146,-3.0957,0.377818,Q,Q
2023-03-15 15:14:32:365,0,7.40758,-3.07705,0.304913,Q,Q
2023-03-15 15:14:32:375,0,7.39857,-3.05385,0.243881,Q,Q
2023-03-15 15:14:32:385,0,7.3829,-3.02882,0.19231,Q,Q
2023-03-15 15:14:32:395,0,7.36076,-2.99781,0.154642,Q,Q
2023-03-15 15:14:32:405,0,7.33501,-2.96422,0.123555,Q,Q
2023-03-15 15:14:32:415,0,7.31522,-2.93229,0.106149,Q,Q
2023-03-15 15:14:32:425,0,7.30294,-2.91338,0.101629,Q,Q
2023-03-15 15:14:32:435,0,7.29558,-2.90161,0.106109,Q,Q
2023-03-15 15:14:32:445,0,7.28418,-2.89301,0.114818,Q,Q
2023-03-15 15:14:32:455,0,7.26185,-2.8907,0.132446,Q,Q
2023-03-15 15:14:32:465,0,7.22192,-2.88039,0.152282,Q,Q
2023-03-15 15:14:32:475,0,7.15897,-2.86767,0.168785,Q,Q
2023-03-15 15:14:32:485,0,7.08691,-2.84143,0.183465,Q,Q
2023-03-15 15:14:32:495,0,7.00822,-2.80986,0.193552,Q,Q
2023-03-15 15:14:32:505,0,6.93132,-2.77256,0.197331,Q,Q
2023-03-15 15:14:32:515,0,6.85612,-2.73456,0.202596,Q,Q
2023-03-15 15:14:32:525,0,6.78476,-2.69173,0.204706,Q,Q
2023-03-15 15:14:32:535,0,6.73012,-2.65163,0.198202,Q,Q
2023-03-15 15:14:32:545,0,6.68525,-2.60984,0.194603,Q,Q
2023-03-15 15:14:32:555,0,6.65612,-2.57405,0.185068,Q,Q
2023-03-15 15:14:32:565,0,6.64527,-2.55479,0.177465,Q,Q
2023-03-15 15:14:32:575,0,6.65344,-2.55135,0.17237,Q,Q
2023-03-15 15:14:32:585,0,6.67617,-2.56066,0.165236,Q,Q
2023-03-15 15:14:32:595,0,6.70614,-2.5751,0.150031,Q,Q
2023-03-15 15:14:32:605,0,6.73811,-2.59063,0.120583,Q,Q
2023-03-15 15:14:32:615,0,6.76106,-2.60546,0.0716449,Q,Q
2023-03-15 15:14:32:625,0,6.77527,-2.61721,0.00759003,Q,Q
2023-03-15 15:14:32:635,0,6.77625,-2.62053,-0.0692722,Q,Q
2023-03-15 15:14:32:645,0,6.76298,-2.6152,-0.150012,Q,Q
2023-03-15 15:14:32:655,0,6.74514,-2.60889,-0.238274,Q,Q
2023-03-15 15:14:32:665,0,6.71627,-2.59604,-0.323416,Q,Q
2023-03-15 15:14:32:675,0,6.6828,-2.58816,-0.406997,Q,Q
2023-03-15 15:14:32:685,0,6.63958,-2.58284,-0.477292,Q,Q
2023-03-15 15:14:32:695,0,6.59185,-2.57941,-0.542541,Q,Q
2023-03-15 15:14:32:705,0,6.53987,-2.58036,-0.59653,Q,Q
2023-03-15 15:14:32:715,0,6.48422,-2.58618,-0.644316,Q,Q
2023-03-15 15:14:32:725,0,6.4271,-2.59704,-0.678589,Q,Q
2023-03-15 15:14:32:735,0,6.37316,-2.60594,-0.707626,Q,Q
2023-03-15 15:14:32:745,0,6.32557,-2.61376,-0.728769,Q,Q
2023-03-15 15:14:32:755,0,6.28458,-2.62059,-0.743085,Q,Q
2023-03-15 15:14:32:765,0,6.2489,-2.62462,-0.743647,Q,Q
2023-03-15 15:14:32:775,0,6.21653,-2.62898,-0.733872,Q,Q
2023-03-15 15:14:32:785,0,6.17907,-2.6286,-0.709055,Q,Q
2023-03-15 15:14:32:795,0,6.14731,-2.62907,-0.675966,Q,Q
2023-03-15 15:14:32:805,0,6.12026,-2.63844,-0.636544,Q,Q
2023-03-15 15:14:32:815,0,6.10141,-2.65239,-0.592193,Q,Q
2023-03-15 15:14:32:825,0,6.07486,-2.67561,-0.544285,Q,Q
2023-03-15 15:14:32:835,0,6.0481,-2.70103,-0.510648,Q,Q
2023-03-15 15:14:32:845,0,6.03152,-2.72275,-0.48653,Q,Q
2023-03-15 15:14:32:855,0,6.02642,-2.73875,-0.472912,Q,Q
2023-03-15 15:14:32:865,0,6.03038,-2.75289,-0.467958,Q,Q
2023-03-15 15:14:32:875,0,6.04019,-2.76055,-0.470826,Q,Q
2023-03-15 15:14:32:885,0,6.0483,-2.7732,-0.476085,Q,Q
2023-03-15 15:14:32:895,0,6.05089,-2.78392,-0.481337,Q,Q
2023-03-15 15:14:32:905,0,6.05497,-2.79495,-0.488002,Q,Q
2023-03-15 15:14:32:915,0,6.05549,-2.80653,-0.49792,Q,Q
2023-03-15 15:14:32:925,0,6.05303,-2.8148,-0.503379,Q,Q
2023-03-15 15:14:32:935,0,6.04993,-2.81846,-0.508525,Q,Q
2023-03-15 15:14:32:945,0,6.05512,-2.81628,-0.513936,Q,Q
2023-03-15 15:14:32:955,0,6.06294,-2.80796,-0.510734,Q,Q
2023-03-15 15:14:32:965,0,6.07583,-2.79647,-0.492903,Q,Q
2023-03-15 15:14:32:975,0,6.08661,-2.78608,-0.46421,Q,Q
2023-03-15 15:14:32:985,0,6.0949,-2.77736,-0.429696,Q,Q
2023-03-15 15:14:32:995,0,6.10471,-2.77138,-0.392499,Q,Q
2023-03-15 15:14:33:5,0,6.11362,-2.76667,-0.350922,Q,Q
2023-03-15 15:14:33:15,0,6.12178,-2.77284,-0.302253,Q,Q
2023-03-15 15:14:33:25,0,6.12199,-2.78667,-0.24961,Q,Q
2023-03-15 15:14:33:35,0,6.11924,-2.79998,-0.208181,Q,Q
2023-03-15 15:14:33:45,0,6.11603,-2.82075,-0.169061,Q,Q
2023-03-15 15:14:33:55,0,6.11213,-2.8348,-0.134972,Q,Q
2023-03-15 15:14:33:65,0,6.11245,-2.84357,-0.10496,Q,Q
2023-03-15 15:14:33:75,0,6.11521,-2.85524,-0.0737854,Q,Q
2023-03-15 15:14:33:85,0,6.11849,-2.86359,-0.0371833,Q,Q
2023-03-15 15:14:33:95,0,6.13144,-2.88115,-0.0018279,Q,Q
2023-03-15 15:14:33:105,0,6.13631,-2.8985,0.0374127,Q,Q
2023-03-15 15:14:33:115,0,6.14316,-2.92478,0.0711467,Q,Q
2023-03-15 15:14:33:125,0,6.14447,-2.95863,0.0896625,Q,Q
2023-03-15 15:14:33:135,0,6.14364,-2.99498,0.10511,Q,Q
2023-03-15 15:14:33:145,0,6.14205,-3.03319,0.112288,Q,Q
2023-03-15 15:14:33:155,0,6.14423,-3.06909,0.111842,Q,Q
2023-03-15 15:14:33:165,0,6.14695,-3.09753,0.108131,Q,Q
2023-03-15 15:14:33:175,0,6.1557,-3.11949,0.100902,Q,Q
2023-03-15 15:14:33:185,0,6.17079,-3.13483,0.0916218,Q,Q
2023-03-15 15:14:33:195,0,6.18541,-3.14624,0.088382,Q,Q
2023-03-15 15:14:33:205,0,6.19301,-3.16106,0.0947417,Q,Q
2023-03-15 15:14:33:215,0,6.19923,-3.18144,0.0994102,Q,Q
2023-03-15 15:14:33:225,0,6.20482,-3.19422,0.106495,Q,Q
2023-03-15 15:14:33:235,0,6.21326,-3.20096,0.120855,Q,Q
2023-03-15 15:14:33:245,0,6.20654,-3.21083,0.128596,Q,Q
2023-03-15 15:14:33:255,0,6.18447,-3.22019,0.126536,Q,Q
2023-03-15 15:14:33:265,0,6.16116,-3.23058,0.112144,Q,Q
2023-03-15 15:14:33:275,0,6.14128,-3.23637,0.0914671,Q,Q
2023-03-15 15:14:33:285,0,6.13035,-3.24199,0.069303,Q,Q
2023-03-15 15:14:33:295,0,6.12224,-3.24959,0.0557938,Q,Q
2023-03-15 15:14:33:305,0,6.12955,-3.25911,0.0437091,Q,Q
2023-03-15 15:14:33:315,0,6.13846,-3.2713,0.050685,Q,Q
2023-03-15 15:14:33:325,0,6.15189,-3.28142,0.0700684,Q,Q
2023-03-15 15:14:33:335,0,6.16705,-3.29111,0.108348,Q,Q
2023-03-15 15:14:33:345,0,6.17597,-3.29766,0.157247,Q,Q
2023-03-15 15:14:33:355,0,6.1806,-3.30779,0.215809,Q,Q
2023-03-15 15:14:33:365,0,6.17602,-3.31941,0.280292,Q,Q
2023-03-15 15:14:33:375,0,6.16659,-3.33276,0.337015,Q,Q
2023-03-15 15:14:33:385,0,6.1655,-3.33866,0.383051,Q,Q
2023-03-15 15:14:33:395,0,6.17486,-3.33779,0.413601,Q,Q
2023-03-15 15:14:33:405,0,6.18483,-3.33121,0.436847,Q,Q
2023-03-15 15:14:33:415,0,6.19849,-3.32763,0.449969,Q,Q
2023-03-15 15:14:33:425,0,6.20828,-3.31958,0.45524,Q,Q
2023-03-15 15:14:33:435,0,6.22114,-3.31215,0.453888,Q,Q
2023-03-15 15:14:33:445,0,6.23433,-3.31882,0.452628,Q,Q
2023-03-15 15:14:33:455,0,6.24103,-3.34432,0.450415,Q,Q
2023-03-15 15:14:33:465,0,6.23206,-3.37121,0.452943,Q,Q
2023-03-15 15:14:33:475,0,6.20865,-3.39519,0.458389,Q,Q
2023-03-15 15:14:33:485,0,6.17497,-3.41607,0.464071,Q,Q
2023-03-15 15:14:33:495,0,6.13666,-3.42742,0.467952,Q,Q
2023-03-15 15:14:33:505,0,6.10272,-3.43261,0.476256,Q,Q
2023-03-15 15:14:33:515,0,6.06826,-3.43273,0.490565,Q,Q
2023-03-15 15:14:33:525,0,6.04498,-3.42486,0.501901,Q,Q
2023-03-15 15:14:33:535,0,6.04009,-3.41357,0.508933,Q,Q
2023-03-15 15:14:33:545,0,6.05276,-3.40132,0.528076,Q,Q
2023-03-15 15:14:33:555,0,6.07536,-3.39548,0.560066,Q,Q
2023-03-15 15:14:33:565,0,6.10457,-3.40499,0.610197,Q,Q
2023-03-15 15:14:33:575,0,6.13064,-3.43171,0.669443,Q,Q
2023-03-15 15:14:33:585,0,6.16175,-3.47395,0.734872,Q,Q
2023-03-15 15:14:33:595,0,6.18955,-3.51785,0.795673,Q,Q
2023-03-15 15:14:33:605,0,6.21632,-3.56206,0.843766,Q,Q
2023-03-15 15:14:33:615,0,6.24703,-3.60887,0.885643,Q,Q
2023-03-15 15:14:33:625,0,6.27823,-3.65885,0.918938,Q,Q
2023-03-15 15:14:33:635,0,6.30442,-3.71037,0.940408,Q,Q
2023-03-15 15:14:33:645,0,6.32671,-3.7564,0.942383,Q,Q
2023-03-15 15:14:33:655,0,6.34707,-3.78327,0.924494,Q,Q
2023-03-15 15:14:33:665,0,6.3705,-3.78393,0.89188,Q,Q
2023-03-15 15:14:33:675,0,6.39963,-3.76454,0.839972,Q,Q
2023-03-15 15:14:33:685,0,6.42793,-3.72116,0.775108,Q,Q
2023-03-15 15:14:33:695,0,6.45282,-3.66643,0.707225,Q,Q
2023-03-15 15:14:33:705,0,6.46896,-3.61289,0.639204,Q,Q
2023-03-15 15:14:33:715,0,6.46838,-3.56963,0.570949,Q,Q
2023-03-15 15:14:33:725,0,6.4463,-3.5295,0.498478,Q,Q
2023-03-15 15:14:33:735,0,6.4184,-3.4738,0.41789,Q,Q
2023-03-15 15:14:33:745,0,6.39916,-3.41248,0.334674,Q,Q
2023-03-15 15:14:33:755,0,6.39239,-3.35077,0.261379,Q,Q
2023-03-15 15:14:33:765,0,6.38952,-3.30012,0.198296,Q,Q
2023-03-15 15:14:33:775,0,6.39095,-3.26404,0.143986,Q,Q
2023-03-15 15:14:33:785,0,6.39837,-3.24076,0.0909777,Q,Q
2023-03-15 15:14:33:795,0,6.40404,-3.231,0.0440238,Q,Q
2023-03-15 15:14:33:805,0,6.41569,-3.23726,0.000893176,Q,Q
2023-03-15 15:14:33:815,0,6.42477,-3.25917,-0.0455668,Q,Q
2023-03-15 15:14:33:825,0,6.43434,-3.29451,-0.0964225,Q,Q
2023-03-15 15:14:33:835,0,6.45454,-3.33104,-0.152701,Q,Q
2023-03-15 15:14:33:845,0,6.48131,-3.37201,-0.211544,Q,Q
2023-03-15 15:14:33:855,0,6.51669,-3.4222,-0.270328,Q,Q
2023-03-15 15:14:33:865,0,6.55092,-3.47426,-0.322054,Q,Q
2023-03-15 15:14:33:875,0,6.57856,-3.52418,-0.36696,Q,Q
2023-03-15 15:14:33:885,0,6.60744,-3.5681,-0.409469,Q,Q
2023-03-15 15:14:33:895,0,6.63498,-3.61031,-0.437624,Q,Q
2023-03-15 15:14:33:905,0,6.66223,-3.65035,-0.451312,Q,Q
2023-03-15 15:14:33:915,0,6.68406,-3.69087,-0.447242,Q,Q
2023-03-15 15:14:33:925,0,6.70758,-3.7323,-0.432767,Q,Q
2023-03-15 15:14:33:935,0,6.73066,-3.77126,-0.415322,Q,Q
2023-03-15 15:14:33:945,0,6.75938,-3.80221,-0.40525,Q,Q
2023-03-15 15:14:33:955,0,6.79013,-3.82623,-0.395066,Q,Q
2023-03-15 15:14:33:965,0,6.82449,-3.83917,-0.398062,Q,Q
2023-03-15 15:14:33:975,0,6.86566,-3.84705,-0.411984,Q,Q
2023-03-15 15:14:33:985,0,6.90658,-3.8505,-0.430607,Q,Q
2023-03-15 15:14:33:995,0,6.93971,-3.85495,-0.455919,Q,Q
2023-03-15 15:14:34:5,0,6.97725,-3.86192,-0.48089,Q,Q
2023-03-15 15:14:34:15,0,7.02215,-3.87659,-0.506293,Q,Q
2023-03-15 15:14:34:25,0,7.07416,-3.89977,-0.524151,Q,Q
2023-03-15 15:14:34:35,0,7.13697,-3.92878,-0.530004,Q,Q
2023-03-15 15:14:34:45,0,7.20824,-3.95885,-0.525781,Q,Q
2023-03-15 15:14:34:55,0,7.28957,-3.99635,-0.505001,Q,Q
2023-03-15 15:14:34:65,0,7.38069,-4.03941,-0.476561,Q,Q
2023-03-15 15:14:34:75,0,7.47335,-4.08699,-0.43815,Q,Q
2023-03-15 15:14:34:85,0,7.56644,-4.13686,-0.396445,Q,Q
2023-03-15 15:14:34:95,0,7.65503,-4.18823,-0.345639,Q,Q
2023-03-15 15:14:34:105,0,7.73451,-4.23264,-0.290094,Q,Q
2023-03-15 15:14:34:115,0,7.79974,-4.27798,-0.237831,Q,Q
2023-03-15 15:14:34:125,0,7.85804,-4.32187,-0.187611,Q,Q
2023-03-15 15:14:34:135,0,7.90476,-4.36097,-0.136642,Q,Q
2023-03-15 15:14:34:145,0,7.94759,-4.39285,-0.084777,Q,Q
2023-03-15 15:14:34:155,0,7.99743,-4.41979,-0.0342997,Q,Q
2023-03-15 15:14:34:165,0,8.05983,-4.44229,0.0283541,Q,Q
2023-03-15 15:14:34:175,0,8.12087,-4.45246,0.103453,Q,Q
2023-03-15 15:14:34:185,0,8.17461,-4.45529,0.184335,Q,Q
2023-03-15 15:14:34:195,0,8.22263,-4.45458,0.267311,Q,Q
2023-03-15 15:14:34:205,0,8.27808,-4.44492,0.358384,Q,Q
2023-03-15 15:14:34:215,0,8.33507,-4.42917,0.462331,Q,Q
2023-03-15 15:14:34:225,0,8.38785,-4.41572,0.579515,Q,Q
2023-03-15 15:14:34:235,0,8.44039,-4.39616,0.697343,Q,Q
2023-03-15 15:14:34:245,0,8.48434,-4.36724,0.812055,Q,Q
2023-03-15 15:14:34:255,0,8.51983,-4.32519,0.90529,Q,Q
2023-03-15 15:14:34:265,0,8.53948,-4.25571,0.968503,Q,Q
2023-03-15 15:14:34:275,0,8.55755,-4.16088,0.998281,Q,Q
2023-03-15 15:14:34:285,0,8.56987,-4.05145,1.00586,Q,Q
2023-03-15 15:14:34:295,0,8.58168,-3.93623,0.991151,Q,Q
2023-03-15 15:14:34:305,0,8.59808,-3.82477,0.954573,Q,Q
2023-03-15 15:14:34:315,0,8.61267,-3.71778,0.906291,Q,Q
2023-03-15 15:14:34:325,0,8.62118,-3.62211,0.8407,Q,Q
2023-03-15 15:14:34:335,0,8.63019,-3.54169,0.765929,Q,Q
