Timestamp_cmd,imu_cmd,roll_delta,pitch_delta,yaw_delta,voice_type,voice_length
2023-03-15 15:01:01:184,0,8.94851,-2.84342,11.7068,Q,Q
2023-03-15 15:01:01:192,0,8.95604,-2.84506,11.6493,Q,Q
2023-03-15 15:01:01:202,0,8.96513,-2.84178,11.5859,Q,Q
2023-03-15 15:01:01:212,0,8.9722,-2.83928,11.5222,Q,Q
2023-03-15 15:01:01:222,0,8.98077,-2.83121,11.456,Q,Q
2023-03-15 15:01:01:232,0,8.98718,-2.8227,11.3944,Q,Q
2023-03-15 15:01:01:242,0,8.98825,-2.81099,11.3321,Q,Q
2023-03-15 15:01:01:252,0,8.99136,-2.79531,11.2729,Q,Q
2023-03-15 15:01:01:262,0,8.99022,-2.78081,11.2218,Q,Q
2023-03-15 15:01:01:272,0,8.98723,-2.76785,11.1807,Q,Q
2023-03-15 15:01:01:282,0,8.97917,-2.7551,11.1459,Q,Q
2023-03-15 15:01:01:292,0,8.97021,-2.74437,11.114,Q,Q
2023-03-15 15:01:01:302,0,8.95587,-2.73451,11.0858,Q,Q
2023-03-15 15:01:01:312,0,8.94139,-2.72159,11.063,Q,Q
2023-03-15 15:01:01:322,0,8.92296,-2.70682,11.0432,Q,Q
2023-03-15 15:01:01:332,0,8.90082,-2.69264,11.0231,Q,Q
2023-03-15 15:01:01:343,0,8.88521,-2.68452,11.0006,Q,Q
2023-03-15 15:01:01:353,0,8.87035,-2.67537,10.9809,Q,Q
2023-03-15 15:01:01:362,0,8.86269,-2.66555,10.9559,Q,Q
2023-03-15 15:01:01:372,0,8.85346,-2.65844,10.9318,Q,Q
2023-03-15 15:01:01:383,0,8.84907,-2.64949,10.9,Q,Q
2023-03-15 15:01:01:392,0,8.83977,-2.64249,10.8645,Q,Q
2023-03-15 15:01:01:403,0,8.83539,-2.63664,10.8224,Q,Q
2023-03-15 15:01:01:413,0,8.82859,-2.63666,10.784,Q,Q
2023-03-15 15:01:01:423,0,8.81996,-2.64364,10.7437,Q,Q
2023-03-15 15:01:01:433,0,8.80754,-2.65433,10.6984,Q,Q
2023-03-15 15:01:01:443,0,8.79379,-2.66844,10.651,Q,Q
2023-03-15 15:01:01:453,0,8.77752,-2.69002,10.6004,Q,Q
2023-03-15 15:01:01:462,0,8.764,-2.71686,10.5527,Q,Q
2023-03-15 15:01:01:473,0,8.75506,-2.74406,10.4996,Q,Q
2023-03-15 15:01:01:483,0,8.7464,-2.77337,10.4486,Q,Q
2023-03-15 15:01:01:492,0,8.73969,-2.803,10.395,Q,Q
2023-03-15 15:01:01:503,0,8.72994,-2.83336,10.3376,Q,Q
2023-03-15 15:01:01:513,0,8.71896,-2.85914,10.2744,Q,Q
2023-03-15 15:01:01:523,0,8.70906,-2.88331,10.2082,Q,Q
2023-03-15 15:01:01:533,0,8.69914,-2.90582,10.1346,Q,Q
2023-03-15 15:01:01:542,0,8.69219,-2.92326,10.0522,Q,Q
2023-03-15 15:01:01:553,0,8.68475,-2.93713,9.9607,Q,Q
2023-03-15 15:01:01:563,0,8.67814,-2.94674,9.86507,Q,Q
2023-03-15 15:01:01:573,0,8.67074,-2.95038,9.7602,Q,Q
2023-03-15 15:01:01:583,0,8.67203,-2.95269,9.64492,Q,Q
2023-03-15 15:01:01:593,0,8.67482,-2.95527,9.52236,Q,Q
2023-03-15 15:01:01:603,0,8.67115,-2.96319,9.39837,Q,Q
2023-03-15 15:01:01:613,0,8.66259,-2.97373,9.26593,Q,Q
2023-03-15 15:01:01:622,0,8.65402,-2.99511,9.13109,Q,Q
2023-03-15 15:01:01:632,0,8.64395,-3.01505,8.99723,Q,Q
2023-03-15 15:01:01:643,0,8.62978,-3.03489,8.86289,Q,Q
2023-03-15 15:01:01:652,0,8.61022,-3.04887,8.72571,Q,Q
2023-03-15 15:01:01:663,0,8.59082,-3.06082,8.59175,Q,Q
2023-03-15 15:01:01:673,0,8.57192,-3.06757,8.46141,Q,Q
2023-03-15 15:01:01:682,0,8.54619,-3.09943,8.32765,Q,Q
2023-03-15 15:01:01:692,0,8.51239,-3.0871,8.20987,Q,Q
2023-03-15 15:01:01:702,0,8.49484,-3.08819,8.0857,Q,Q
2023-03-15 15:01:01:712,0,8.47664,-3.08286,7.96673,Q,Q
2023-03-15 15:01:01:723,0,8.44661,-3.08932,7.85183,Q,Q
2023-03-15 15:01:01:733,0,8.40127,-3.09767,7.75317,Q,Q
2023-03-15 15:01:01:743,0,8.35075,-3.09457,7.65589,Q,Q
2023-03-15 15:01:01:753,0,8.30891,-3.07231,7.54447,Q,Q
2023-03-15 15:01:01:762,0,8.26747,-3.04925,7.43017,Q,Q
2023-03-15 15:01:01:772,0,8.22771,-3.02976,7.32222,Q,Q
2023-03-15 15:01:01:782,0,8.18584,-3.02524,7.21346,Q,Q
2023-03-15 15:01:01:792,0,8.14457,-3.02095,7.10441,Q,Q
2023-03-15 15:01:01:802,0,8.12117,-3.006,6.9873,Q,Q
2023-03-15 15:01:01:812,0,8.10781,-2.99316,6.86905,Q,Q
2023-03-15 15:01:01:822,0,8.10057,-2.98725,6.7585,Q,Q
2023-03-15 15:01:01:832,0,8.08141,-2.99182,6.65283,Q,Q
2023-03-15 15:01:01:842,0,8.05863,-2.99885,6.54604,Q,Q
2023-03-15 15:01:01:852,0,8.03288,-2.99863,6.43859,Q,Q
2023-03-15 15:01:01:862,0,8.00873,-2.9932,6.3331,Q,Q
2023-03-15 15:01:01:872,0,7.98465,-2.97699,6.22803,Q,Q
2023-03-15 15:01:01:882,0,7.96209,-2.95893,6.12678,Q,Q
2023-03-15 15:01:01:892,0,7.93576,-2.93633,6.02743,Q,Q
2023-03-15 15:01:01:902,0,7.91337,-2.91415,5.9344,Q,Q
2023-03-15 15:01:01:912,0,7.89312,-2.8853,5.8488,Q,Q
2023-03-15 15:01:01:922,0,7.87221,-2.85613,5.77101,Q,Q
2023-03-15 15:01:01:932,0,7.8434,-2.82319,5.70387,Q,Q
2023-03-15 15:01:01:942,0,7.80687,-2.79229,5.63505,Q,Q
2023-03-15 15:01:01:952,0,7.76245,-2.76387,5.56885,Q,Q
2023-03-15 15:01:01:962,0,7.72369,-2.73359,5.51026,Q,Q
2023-03-15 15:01:01:972,0,7.69109,-2.70814,5.45323,Q,Q
2023-03-15 15:01:01:982,0,7.664,-2.68601,5.40042,Q,Q
2023-03-15 15:01:01:992,0,7.64018,-2.66591,5.34856,Q,Q
2023-03-15 15:01:02:2,0,7.6168,-2.65009,5.29792,Q,Q
2023-03-15 15:01:02:12,0,7.59053,-2.64191,5.25038,Q,Q
2023-03-15 15:01:02:22,0,7.56823,-2.64209,5.20169,Q,Q
2023-03-15 15:01:02:32,0,7.54529,-2.64683,5.15315,Q,Q
2023-03-15 15:01:02:42,0,7.52474,-2.65607,5.10331,Q,Q
2023-03-15 15:01:02:52,0,7.50898,-2.65878,5.04807,Q,Q
2023-03-15 15:01:02:63,0,7.49732,-2.66155,4.98458,Q,Q
2023-03-15 15:01:02:72,0,7.49207,-2.66277,4.91558,Q,Q
2023-03-15 15:01:02:83,0,7.49036,-2.65847,4.84108,Q,Q
2023-03-15 15:01:02:92,0,7.49884,-2.64889,4.76217,Q,Q
2023-03-15 15:01:02:102,0,7.51739,-2.63154,4.67836,Q,Q
2023-03-15 15:01:02:113,0,7.53918,-2.61175,4.59286,Q,Q
2023-03-15 15:01:02:123,0,7.56341,-2.58966,4.50734,Q,Q
2023-03-15 15:01:02:132,0,7.58282,-2.57217,4.43788,Q,Q
2023-03-15 15:01:02:143,0,7.58732,-2.56703,4.38749,Q,Q
2023-03-15 15:01:02:153,0,7.57342,-2.5776,4.35516,Q,Q
2023-03-15 15:01:02:162,0,7.5408,-2.61673,4.35263,Q,Q
2023-03-15 15:01:02:173,0,7.4927,-2.67802,4.37386,Q,Q
2023-03-15 15:01:02:183,0,7.4346,-2.74606,4.41161,Q,Q
2023-03-15 15:01:02:192,0,7.37799,-2.81702,4.46359,Q,Q
2023-03-15 15:01:02:203,0,7.32981,-2.89054,4.52309,Q,Q
2023-03-15 15:01:02:213,0,7.28739,-2.95078,4.59484,Q,Q
2023-03-15 15:01:02:222,0,7.25756,-2.99616,4.67162,Q,Q
2023-03-15 15:01:02:233,0,7.24062,-3.02518,4.74966,Q,Q
2023-03-15 15:01:02:243,0,7.2351,-3.03941,4.82688,Q,Q
2023-03-15 15:01:02:253,0,7.23139,-3.04446,4.89747,Q,Q
2023-03-15 15:01:02:262,0,7.2291,-3.03477,4.96193,Q,Q
2023-03-15 15:01:02:272,0,7.22991,-3.01779,5.01606,Q,Q
2023-03-15 15:01:02:283,0,7.23389,-2.99745,5.05958,Q,Q
2023-03-15 15:01:02:292,0,7.24541,-2.97542,5.09408,Q,Q
2023-03-15 15:01:02:303,0,7.25819,-2.94887,5.12477,Q,Q
2023-03-15 15:01:02:313,0,7.25954,-2.92886,5.14503,Q,Q
2023-03-15 15:01:02:322,0,7.26011,-2.90523,5.1553,Q,Q
2023-03-15 15:01:02:332,0,7.2496,-2.88256,5.14992,Q,Q
2023-03-15 15:01:02:343,0,7.23842,-2.8628,5.12829,Q,Q
2023-03-15 15:01:02:353,0,7.22098,-2.85015,5.10052,Q,Q
2023-03-15 15:01:02:362,0,7.20494,-2.83645,5.06387,Q,Q
2023-03-15 15:01:02:372,0,7.19089,-2.82797,5.01993,Q,Q
2023-03-15 15:01:02:382,0,7.17981,-2.832,4.97564,Q,Q
2023-03-15 15:01:02:392,0,7.17006,-2.83975,4.93376,Q,Q
2023-03-15 15:01:02:403,0,7.16638,-2.85096,4.90019,Q,Q
2023-03-15 15:01:02:412,0,7.16849,-2.86697,4.86383,Q,Q
2023-03-15 15:01:02:422,0,7.17736,-2.8843,4.8326,Q,Q
2023-03-15 15:01:02:432,0,7.18794,-2.8976,4.80927,Q,Q
2023-03-15 15:01:02:442,0,7.19887,-2.9115,4.78997,Q,Q
2023-03-15 15:01:02:452,0,7.21103,-2.9292,4.7775,Q,Q
2023-03-15 15:01:02:462,0,7.21858,-2.94554,4.76779,Q,Q
2023-03-15 15:01:02:472,0,7.22528,-2.95607,4.76082,Q,Q
2023-03-15 15:01:02:482,0,7.23579,-2.95784,4.75743,Q,Q
2023-03-15 15:01:02:492,0,7.24418,-2.95527,4.74898,Q,Q
2023-03-15 15:01:02:502,0,7.25417,-2.94704,4.74118,Q,Q
2023-03-15 15:01:02:512,0,7.2682,-2.938,4.73095,Q,Q
2023-03-15 15:01:02:522,0,7.28229,-2.92994,4.72238,Q,Q
2023-03-15 15:01:02:532,0,7.29388,-2.92969,4.7113,Q,Q
2023-03-15 15:01:02:542,0,7.2973,-2.92411,4.70184,Q,Q
2023-03-15 15:01:02:552,0,7.29619,-2.91592,4.68485,Q,Q
2023-03-15 15:01:02:562,0,7.29829,-2.89616,4.66382,Q,Q
2023-03-15 15:01:02:572,0,7.30524,-2.87043,4.64288,Q,Q
2023-03-15 15:01:02:582,0,7.31081,-2.84775,4.61788,Q,Q
2023-03-15 15:01:02:592,0,7.31586,-2.8285,4.59231,Q,Q
2023-03-15 15:01:02:603,0,7.32622,-2.81386,4.56264,Q,Q
2023-03-15 15:01:02:612,0,7.33438,-2.79663,4.5334,Q,Q
2023-03-15 15:01:02:622,0,7.34553,-2.77781,4.50416,Q,Q
2023-03-15 15:01:02:632,0,7.35931,-2.76173,4.47339,Q,Q
2023-03-15 15:01:02:642,0,7.3677,-2.74764,4.44512,Q,Q
2023-03-15 15:01:02:652,0,7.37446,-2.74001,4.41539,Q,Q
2023-03-15 15:01:02:662,0,7.37667,-2.73356,4.38239,Q,Q
2023-03-15 15:01:02:672,0,7.37881,-2.72905,4.34704,Q,Q
2023-03-15 15:01:02:682,0,7.37998,-2.72336,4.31061,Q,Q
2023-03-15 15:01:02:692,0,7.38264,-2.71988,4.27962,Q,Q
2023-03-15 15:01:02:703,0,7.38971,-2.71448,4.25179,Q,Q
2023-03-15 15:01:02:712,0,7.39576,-2.71159,4.22806,Q,Q
2023-03-15 15:01:02:722,0,7.40125,-2.70643,4.2109,Q,Q
2023-03-15 15:01:02:732,0,7.40984,-2.70104,4.19274,Q,Q
2023-03-15 15:01:02:742,0,7.42135,-2.69551,4.17659,Q,Q
2023-03-15 15:01:02:752,0,7.42867,-2.68908,4.15889,Q,Q
2023-03-15 15:01:02:762,0,7.43482,-2.68425,4.13759,Q,Q
2023-03-15 15:01:02:772,0,7.44071,-2.68305,4.11215,Q,Q
2023-03-15 15:01:02:782,0,7.44734,-2.67562,4.08342,Q,Q
2023-03-15 15:01:02:792,0,7.45705,-2.67425,4.05307,Q,Q
2023-03-15 15:01:02:803,0,7.46408,-2.67673,4.02288,Q,Q
2023-03-15 15:01:02:812,0,7.47205,-2.67479,3.99076,Q,Q
2023-03-15 15:01:02:822,0,7.47868,-2.67432,3.95796,Q,Q
2023-03-15 15:01:02:832,0,7.48148,-2.67251,3.92868,Q,Q
2023-03-15 15:01:02:842,0,7.48048,-2.67064,3.89994,Q,Q
2023-03-15 15:01:02:852,0,7.47698,-2.66711,3.86935,Q,Q
2023-03-15 15:01:02:862,0,7.47477,-2.66307,3.841,Q,Q
2023-03-15 15:01:02:872,0,7.46763,-2.65896,3.81383,Q,Q
2023-03-15 15:01:02:882,0,7.46303,-2.65115,3.78784,Q,Q
2023-03-15 15:01:02:892,0,7.46264,-2.64333,3.76254,Q,Q
2023-03-15 15:01:02:902,0,7.4653,-2.6336,3.73906,Q,Q
2023-03-15 15:01:02:913,0,7.46468,-2.62488,3.71907,Q,Q
2023-03-15 15:01:02:922,0,7.46602,-2.61869,3.69702,Q,Q
2023-03-15 15:01:02:932,0,7.46248,-2.60921,3.66954,Q,Q
2023-03-15 15:01:02:942,0,7.45313,-2.59702,3.64697,Q,Q
2023-03-15 15:01:02:952,0,7.44514,-2.58383,3.62434,Q,Q
2023-03-15 15:01:02:962,0,7.43361,-2.56837,3.59986,Q,Q
2023-03-15 15:01:02:972,0,7.42166,-2.55254,3.57483,Q,Q
2023-03-15 15:01:02:982,0,7.40913,-2.53888,3.55095,Q,Q
2023-03-15 15:01:02:992,0,7.38822,-2.5308,3.52665,Q,Q
2023-03-15 15:01:03:2,0,7.37101,-2.52863,3.49832,Q,Q
2023-03-15 15:01:03:12,0,7.3546,-2.53445,3.46551,Q,Q
2023-03-15 15:01:03:22,0,7.33331,-2.53772,3.43321,Q,Q
2023-03-15 15:01:03:32,0,7.30938,-2.54313,3.39155,Q,Q
2023-03-15 15:01:03:42,0,7.28553,-2.54438,3.3449,Q,Q
2023-03-15 15:01:03:52,0,7.26347,-2.54526,3.29416,Q,Q
2023-03-15 15:01:03:62,0,7.24108,-2.54583,3.2411,Q,Q
2023-03-15 15:01:03:72,0,7.22435,-2.54933,3.18671,Q,Q
2023-03-15 15:01:03:82,0,7.21076,-2.54878,3.12837,Q,Q
2023-03-15 15:01:03:92,0,7.19836,-2.54775,3.07,Q,Q
2023-03-15 15:01:03:102,0,7.1871,-2.53909,3.01438,Q,Q
2023-03-15 15:01:03:112,0,7.18028,-2.52876,2.95999,Q,Q
2023-03-15 15:01:03:122,0,7.17131,-2.52011,2.91117,Q,Q
2023-03-15 15:01:03:132,0,7.1639,-2.50809,2.86069,Q,Q
2023-03-15 15:01:03:142,0,7.15278,-2.49409,2.81286,Q,Q
2023-03-15 15:01:03:152,0,7.13595,-2.48433,2.76883,Q,Q
2023-03-15 15:01:03:162,0,7.12198,-2.47147,2.72605,Q,Q
2023-03-15 15:01:03:172,0,7.10035,-2.46335,2.68451,Q,Q
2023-03-15 15:01:03:182,0,7.07407,-2.45215,2.64275,Q,Q
2023-03-15 15:01:03:192,0,7.0435,-2.43928,2.5998,Q,Q
2023-03-15 15:01:03:202,0,7.01886,-2.4309,2.55229,Q,Q
2023-03-15 15:01:03:212,0,7.00257,-2.4245,2.50588,Q,Q
2023-03-15 15:01:03:222,0,6.99396,-2.42409,2.46609,Q,Q
2023-03-15 15:01:03:232,0,6.98894,-2.42538,2.43071,Q,Q
2023-03-15 15:01:03:242,0,6.98336,-2.42718,2.39862,Q,Q
2023-03-15 15:01:03:252,0,6.97588,-2.42502,2.36781,Q,Q
2023-03-15 15:01:03:262,0,6.96882,-2.42147,2.33668,Q,Q
2023-03-15 15:01:03:272,0,6.96163,-2.42021,2.30475,Q,Q
2023-03-15 15:01:03:282,0,6.95386,-2.41606,2.27958,Q,Q
2023-03-15 15:01:03:292,0,6.94414,-2.41302,2.25175,Q,Q
2023-03-15 15:01:03:302,0,6.93201,-2.41286,2.22116,Q,Q
2023-03-15 15:01:03:312,0,6.92518,-2.41646,2.18899,Q,Q
2023-03-15 15:01:03:322,0,6.91882,-2.41898,2.16046,Q,Q
2023-03-15 15:01:03:333,0,6.91681,-2.42178,2.1301,Q,Q
2023-03-15 15:01:03:342,0,6.91573,-2.42827,2.10214,Q,Q
2023-03-15 15:01:03:353,0,6.91612,-2.43047,2.0751,Q,Q
2023-03-15 15:01:03:362,0,6.91447,-2.43454,2.05235,Q,Q
2023-03-15 15:01:03:373,0,6.91196,-2.44092,2.03323,Q,Q
2023-03-15 15:01:03:383,0,6.90686,-2.44728,2.01639,Q,Q
2023-03-15 15:01:03:392,0,6.89344,-2.45512,2.00244,Q,Q
2023-03-15 15:01:03:402,0,6.88049,-2.46447,1.99101,Q,Q
2023-03-15 15:01:03:412,0,6.86645,-2.47556,1.97953,Q,Q
2023-03-15 15:01:03:422,0,6.85171,-2.4833,1.96529,Q,Q
2023-03-15 15:01:03:432,0,6.84034,-2.49323,1.95331,Q,Q
2023-03-15 15:01:03:442,0,6.83396,-2.49565,1.9399,Q,Q
2023-03-15 15:01:03:452,0,6.82793,-2.50058,1.93208,Q,Q
2023-03-15 15:01:03:462,0,6.82376,-2.5068,1.92361,Q,Q
2023-03-15 15:01:03:472,0,6.81996,-2.51133,1.91414,Q,Q
2023-03-15 15:01:03:482,0,6.81614,-2.51154,1.90814,Q,Q
2023-03-15 15:01:03:492,0,6.81106,-2.51151,1.90154,Q,Q
2023-03-15 15:01:03:502,0,6.80347,-2.51429,1.89488,Q,Q
2023-03-15 15:01:03:512,0,6.79641,-2.51903,1.88735,Q,Q
2023-03-15 15:01:03:522,0,6.79247,-2.52664,1.87547,Q,Q
2023-03-15 15:01:03:532,0,6.79191,-2.52987,1.8594,Q,Q
2023-03-15 15:01:03:542,0,6.79367,-2.53517,1.84096,Q,Q
2023-03-15 15:01:03:552,0,6.80016,-2.53889,1.82227,Q,Q
2023-03-15 15:01:03:562,0,6.81097,-2.54054,1.80492,Q,Q
2023-03-15 15:01:03:572,0,6.81748,-2.54287,1.79347,Q,Q
2023-03-15 15:01:03:582,0,6.81893,-2.54326,1.78073,Q,Q
2023-03-15 15:01:03:593,0,6.81829,-2.54624,1.77035,Q,Q
2023-03-15 15:01:03:602,0,6.81997,-2.54929,1.75645,Q,Q
2023-03-15 15:01:03:612,0,6.82482,-2.55413,1.74441,Q,Q
2023-03-15 15:01:03:623,0,6.82704,-2.55905,1.73113,Q,Q
2023-03-15 15:01:03:632,0,6.82816,-2.56368,1.71772,Q,Q
2023-03-15 15:01:03:642,0,6.82795,-2.56775,1.70379,Q,Q
2023-03-15 15:01:03:652,0,6.83317,-2.57398,1.68657,Q,Q
2023-03-15 15:01:03:662,0,6.83473,-2.57719,1.6712,Q,Q
2023-03-15 15:01:03:672,0,6.83916,-2.57952,1.65561,Q,Q
2023-03-15 15:01:03:682,0,6.84195,-2.58391,1.64018,Q,Q
2023-03-15 15:01:03:692,0,6.84506,-2.59306,1.62991,Q,Q
2023-03-15 15:01:03:703,0,6.8466,-2.60494,1.62351,Q,Q
2023-03-15 15:01:03:712,0,6.84405,-2.61931,1.62017,Q,Q
2023-03-15 15:01:03:722,0,6.83772,-2.6327,1.61746,Q,Q
2023-03-15 15:01:03:732,0,6.82138,-2.64409,1.61021,Q,Q
2023-03-15 15:01:03:743,0,6.80073,-2.65408,1.60226,Q,Q
2023-03-15 15:01:03:752,0,6.78157,-2.66886,1.59397,Q,Q
2023-03-15 15:01:03:762,0,6.76383,-2.68424,1.58827,Q,Q
2023-03-15 15:01:03:772,0,6.75288,-2.70103,1.58399,Q,Q
2023-03-15 15:01:03:782,0,6.74574,-2.71764,1.58489,Q,Q
2023-03-15 15:01:03:792,0,6.74105,-2.73764,1.60024,Q,Q
2023-03-15 15:01:03:803,0,6.73893,-2.75763,1.63063,Q,Q
2023-03-15 15:01:03:812,0,6.73063,-2.77083,1.67389,Q,Q
2023-03-15 15:01:03:823,0,6.70844,-2.77343,1.71963,Q,Q
2023-03-15 15:01:03:833,0,6.67285,-2.75395,1.76522,Q,Q
2023-03-15 15:01:03:843,0,6.62438,-2.71336,1.80335,Q,Q
2023-03-15 15:01:03:852,0,6.56102,-2.65837,1.8252,Q,Q
2023-03-15 15:01:03:863,0,6.47624,-2.59977,1.84024,Q,Q
2023-03-15 15:01:03:872,0,6.37741,-2.55304,1.85368,Q,Q
2023-03-15 15:01:03:882,0,6.27144,-2.52697,1.86229,Q,Q
2023-03-15 15:01:03:892,0,6.1548,-2.51677,1.85472,Q,Q
2023-03-15 15:01:03:903,0,6.04755,-2.51781,1.82921,Q,Q
2023-03-15 15:01:03:912,0,5.96503,-2.51392,1.78262,Q,Q
2023-03-15 15:01:03:922,0,5.90437,-2.51133,1.71772,Q,Q
2023-03-15 15:01:03:932,0,5.86325,-2.51497,1.64715,Q,Q
2023-03-15 15:01:03:943,0,5.82913,-2.52502,1.57754,Q,Q
2023-03-15 15:01:03:952,0,5.79506,-2.53058,1.5032,Q,Q
2023-03-15 15:01:03:962,0,5.75719,-2.53121,1.42415,Q,Q
2023-03-15 15:01:03:972,0,5.71809,-2.52606,1.3439,Q,Q
2023-03-15 15:01:03:982,0,5.68479,-2.51172,1.26537,Q,Q
2023-03-15 15:01:03:992,0,5.66236,-2.49296,1.19612,Q,Q
2023-03-15 15:01:04:2,0,5.65489,-2.46822,1.14382,Q,Q
2023-03-15 15:01:04:12,0,5.65983,-2.43898,1.11195,Q,Q
2023-03-15 15:01:04:22,0,5.68038,-2.40848,1.10294,Q,Q
2023-03-15 15:01:04:32,0,5.70692,-2.37445,1.1179,Q,Q
2023-03-15 15:01:04:43,0,5.73713,-2.34206,1.1522,Q,Q
2023-03-15 15:01:04:52,0,5.77015,-2.30789,1.20038,Q,Q
2023-03-15 15:01:04:62,0,5.80223,-2.27403,1.26417,Q,Q
2023-03-15 15:01:04:73,0,5.83552,-2.24325,1.33089,Q,Q
2023-03-15 15:01:04:83,0,5.87368,-2.21314,1.40069,Q,Q
2023-03-15 15:01:04:93,0,5.9152,-2.17629,1.46472,Q,Q
2023-03-15 15:01:04:103,0,5.96304,-2.12966,1.52307,Q,Q
2023-03-15 15:01:04:113,0,6.01208,-2.08315,1.57557,Q,Q
2023-03-15 15:01:04:123,0,6.06083,-2.03732,1.61781,Q,Q
2023-03-15 15:01:04:132,0,6.10729,-2.00067,1.65572,Q,Q
2023-03-15 15:01:04:143,0,6.1562,-1.97491,1.68312,Q,Q
2023-03-15 15:01:04:152,0,6.2,-1.95503,1.7103,Q,Q
2023-03-15 15:01:04:163,0,6.24026,-1.93996,1.7271,Q,Q
2023-03-15 15:01:04:173,0,6.27527,-1.92687,1.73627,Q,Q
2023-03-15 15:01:04:182,0,6.29883,-1.91104,1.72965,Q,Q
2023-03-15 15:01:04:192,0,6.31654,-1.88849,1.70577,Q,Q
2023-03-15 15:01:04:203,0,6.33032,-1.8661,1.67292,Q,Q
2023-03-15 15:01:04:212,0,6.34597,-1.83524,1.62898,Q,Q
2023-03-15 15:01:04:222,0,6.37035,-1.81195,1.58953,Q,Q
2023-03-15 15:01:04:232,0,6.4004,-1.78958,1.56351,Q,Q
2023-03-15 15:01:04:242,0,6.44136,-1.77011,1.54433,Q,Q
2023-03-15 15:01:04:252,0,6.48294,-1.74615,1.53542,Q,Q
2023-03-15 15:01:04:262,0,6.51659,-1.71229,1.53,Q,Q
2023-03-15 15:01:04:272,0,6.55134,-1.66987,1.52614,Q,Q
2023-03-15 15:01:04:283,0,6.57952,-1.62036,1.52482,Q,Q
2023-03-15 15:01:04:292,0,6.61298,-1.56737,1.52603,Q,Q
2023-03-15 15:01:04:302,0,6.65608,-1.50806,1.52533,Q,Q
2023-03-15 15:01:04:312,0,6.70459,-1.44074,1.51722,Q,Q
2023-03-15 15:01:04:322,0,6.7577,-1.35175,1.49877,Q,Q
2023-03-15 15:01:04:332,0,6.8085,-1.24856,1.46315,Q,Q
2023-03-15 15:01:04:342,0,6.86577,-1.12863,1.40682,Q,Q
2023-03-15 15:01:04:352,0,6.92503,-0.998493,1.33162,Q,Q
2023-03-15 15:01:04:362,0,6.98107,-0.858883,1.2435,Q,Q
2023-03-15 15:01:04:372,0,7.03932,-0.724074,1.13942,Q,Q
2023-03-15 15:01:04:383,0,7.09357,-0.589216,1.01853,Q,Q
2023-03-15 15:01:04:392,0,7.14029,-0.461841,0.883385,Q,Q
2023-03-15 15:01:04:402,0,7.18458,-0.34403,0.739496,Q,Q
2023-03-15 15:01:04:412,0,7.23056,-0.234641,0.586726,Q,Q
2023-03-15 15:01:04:422,0,7.27429,-0.1354,0.430805,Q,Q
2023-03-15 15:01:04:432,0,7.30862,-0.0381969,0.266922,Q,Q
2023-03-15 15:01:04:442,0,7.33071,0.0515442,0.105613,Q,Q
2023-03-15 15:01:04:452,0,7.3463,0.128682,-0.0519312,Q,Q
2023-03-15 15:01:04:462,0,7.3506,0.190733,-0.203688,Q,Q
2023-03-15 15:01:04:472,0,7.34661,0.24661,-0.351782,Q,Q
2023-03-15 15:01:04:482,0,7.33375,0.300901,-0.498208,Q,Q
2023-03-15 15:01:04:492,0,7.31805,0.350472,-0.637821,Q,Q
2023-03-15 15:01:04:502,0,7.30465,0.407182,-0.759167,Q,Q
2023-03-15 15:01:04:512,0,7.17652,0.58531,-0.517517,Q,Q
2023-03-15 15:01:04:522,0,6.85717,0.483149,-0.388575,Q,Q
2023-03-15 15:01:04:532,0,6.66168,0.226413,-0.529645,Q,Q
2023-03-15 15:01:04:542,0,6.61247,0.144612,-0.6114,Q,Q
2023-03-15 15:01:04:552,0,6.60005,0.162864,-0.641009,Q,Q
2023-03-15 15:01:04:562,0,6.59987,0.238184,-0.706083,Q,Q
2023-03-15 15:01:04:572,0,6.59363,0.354116,-0.77069,Q,Q
2023-03-15 15:01:04:582,0,6.5756,0.465642,-0.814611,Q,Q
2023-03-15 15:01:04:592,0,6.53322,0.548246,-0.837136,Q,Q
2023-03-15 15:01:04:602,0,6.46478,0.604834,-0.824241,Q,Q
2023-03-15 15:01:04:612,0,6.38422,0.635583,-0.791582,Q,Q
2023-03-15 15:01:04:622,0,6.30229,0.626974,-0.766829,Q,Q
2023-03-15 15:01:04:632,0,6.23208,0.590231,-0.758624,Q,Q
2023-03-15 15:01:04:642,0,6.18582,0.544881,-0.7641,Q,Q
2023-03-15 15:01:04:652,0,6.16807,0.506555,-0.776192,Q,Q
2023-03-15 15:01:04:662,0,6.18179,0.472764,-0.78862,Q,Q
2023-03-15 15:01:04:672,0,6.21776,0.440236,-0.796305,Q,Q
2023-03-15 15:01:04:682,0,6.25189,0.411985,-0.796213,Q,Q
2023-03-15 15:01:04:692,0,6.28104,0.381952,-0.792954,Q,Q
2023-03-15 15:01:04:702,0,6.30394,0.350806,-0.791665,Q,Q
2023-03-15 15:01:04:712,0,6.32166,0.317738,-0.786205,Q,Q
2023-03-15 15:01:04:722,0,6.33157,0.283092,-0.771546,Q,Q
2023-03-15 15:01:04:732,0,6.3318,0.250484,-0.752064,Q,Q
2023-03-15 15:01:04:742,0,6.32142,0.224035,-0.735577,Q,Q
2023-03-15 15:01:04:752,0,6.31309,0.198695,-0.726442,Q,Q
2023-03-15 15:01:04:762,0,6.30131,0.17867,-0.711255,Q,Q
2023-03-15 15:01:04:772,0,6.29214,0.16833,-0.696591,Q,Q
2023-03-15 15:01:04:782,0,6.29517,0.162014,-0.692311,Q,Q
2023-03-15 15:01:04:793,0,6.30941,0.168026,-0.694954,Q,Q
2023-03-15 15:01:04:802,0,6.32755,0.189588,-0.704257,Q,Q
2023-03-15 15:01:04:812,0,6.33435,0.227404,-0.723321,Q,Q
2023-03-15 15:01:04:823,0,6.33323,0.273528,-0.739983,Q,Q
2023-03-15 15:01:04:833,0,6.3302,0.307977,-0.759235,Q,Q
2023-03-15 15:01:04:842,0,6.32503,0.32051,-0.770634,Q,Q
2023-03-15 15:01:04:852,0,6.31677,0.328989,-0.774625,Q,Q
2023-03-15 15:01:04:862,0,6.2989,0.338851,-0.770838,Q,Q
2023-03-15 15:01:04:873,0,6.26928,0.349514,-0.774891,Q,Q
2023-03-15 15:01:04:883,0,6.23012,0.36524,-0.784866,Q,Q
2023-03-15 15:01:04:893,0,6.18798,0.382694,-0.798068,Q,Q
2023-03-15 15:01:04:903,0,6.14285,0.396921,-0.804858,Q,Q
2023-03-15 15:01:04:913,0,6.09729,0.405797,-0.80342,Q,Q
2023-03-15 15:01:04:923,0,6.0517,0.405052,-0.797746,Q,Q
2023-03-15 15:01:04:933,0,6.01358,0.400132,-0.782053,Q,Q
2023-03-15 15:01:04:942,0,5.98197,0.390533,-0.756296,Q,Q
2023-03-15 15:01:04:953,0,5.94786,0.378611,-0.721685,Q,Q
2023-03-15 15:01:04:963,0,5.91707,0.358071,-0.677479,Q,Q
2023-03-15 15:01:04:973,0,5.88806,0.327615,-0.625258,Q,Q
2023-03-15 15:01:04:983,0,5.85604,0.289473,-0.56875,Q,Q
2023-03-15 15:01:04:993,0,5.82488,0.245962,-0.507671,Q,Q
2023-03-15 15:01:05:3,0,5.79178,0.195556,-0.446048,Q,Q
2023-03-15 15:01:05:12,0,5.76476,0.145483,-0.38484,Q,Q
2023-03-15 15:01:05:23,0,5.74355,0.0926274,-0.323912,Q,Q
2023-03-15 15:01:05:33,0,5.7265,0.0414577,-0.265446,Q,Q
2023-03-15 15:01:05:43,0,5.71761,-0.0117977,-0.204154,Q,Q
2023-03-15 15:01:05:53,0,5.72249,-0.0600406,-0.143939,Q,Q
2023-03-15 15:01:05:63,0,5.73273,-0.109635,-0.0813739,Q,Q
2023-03-15 15:01:05:73,0,5.74987,-0.158913,-0.0192126,Q,Q
2023-03-15 15:01:05:82,0,5.77136,-0.209535,0.0452392,Q,Q
2023-03-15 15:01:05:92,0,5.79187,-0.258241,0.108127,Q,Q
2023-03-15 15:01:05:103,0,5.80694,-0.305028,0.165315,Q,Q
2023-03-15 15:01:05:113,0,5.81007,-0.350048,0.221646,Q,Q
2023-03-15 15:01:05:123,0,5.80124,-0.393481,0.275481,Q,Q
2023-03-15 15:01:05:133,0,5.77918,-0.430819,0.312421,Q,Q
2023-03-15 15:01:05:142,0,5.74496,-0.458459,0.334355,Q,Q
2023-03-15 15:01:05:153,0,5.7059,-0.48002,0.342277,Q,Q
2023-03-15 15:01:05:163,0,5.67358,-0.496703,0.335954,Q,Q
2023-03-15 15:01:05:172,0,5.64747,-0.513445,0.320526,Q,Q
2023-03-15 15:01:05:183,0,5.62663,-0.533264,0.300328,Q,Q
2023-03-15 15:01:05:193,0,5.60466,-0.554349,0.279509,Q,Q
2023-03-15 15:01:05:202,0,5.57435,-0.56986,0.258814,Q,Q
2023-03-15 15:01:05:213,0,5.5407,-0.576382,0.243091,Q,Q
2023-03-15 15:01:05:223,0,5.51473,-0.56859,0.217701,Q,Q
2023-03-15 15:01:05:233,0,5.49792,-0.552242,0.195295,Q,Q
2023-03-15 15:01:05:242,0,5.50337,-0.526998,0.174549,Q,Q
2023-03-15 15:01:05:253,0,5.52811,-0.511526,0.163743,Q,Q
2023-03-15 15:01:05:263,0,5.57181,-0.503032,0.168021,Q,Q
2023-03-15 15:01:05:273,0,5.61816,-0.503441,0.186562,Q,Q
2023-03-15 15:01:05:283,0,5.65442,-0.505604,0.210846,Q,Q
2023-03-15 15:01:05:293,0,5.66665,-0.497569,0.231326,Q,Q
2023-03-15 15:01:05:303,0,5.65144,-0.47693,0.234379,Q,Q
2023-03-15 15:01:05:312,0,5.6059,-0.436098,0.221792,Q,Q
2023-03-15 15:01:05:322,0,5.54454,-0.384768,0.195547,Q,Q
2023-03-15 15:01:05:332,0,5.48083,-0.332745,0.152948,Q,Q
2023-03-15 15:01:05:343,0,5.43729,-0.283079,0.106117,Q,Q
2023-03-15 15:01:05:352,0,5.4177,-0.240133,0.0624309,Q,Q
2023-03-15 15:01:05:363,0,5.42263,-0.211464,0.0286918,Q,Q
2023-03-15 15:01:05:373,0,5.44146,-0.198577,0.0074312,Q,Q
2023-03-15 15:01:05:383,0,5.45341,-0.19321,-0.00996072,Q,Q
2023-03-15 15:01:05:393,0,5.44601,-0.184062,-0.026872,Q,Q
2023-03-15 15:01:05:402,0,5.42261,-0.165598,-0.057295,Q,Q
2023-03-15 15:01:05:413,0,5.3859,-0.143881,-0.0991039,Q,Q
2023-03-15 15:01:05:423,0,5.34844,-0.119993,-0.137951,Q,Q
2023-03-15 15:01:05:433,0,5.3181,-0.096467,-0.170676,Q,Q
2023-03-15 15:01:05:443,0,5.30493,-0.0771033,-0.194243,Q,Q
2023-03-15 15:01:05:452,0,5.31063,-0.0589646,-0.211492,Q,Q
2023-03-15 15:01:05:462,0,5.33531,-0.0332103,-0.218833,Q,Q
2023-03-15 15:01:05:473,0,5.37123,-0.00448825,-0.217303,Q,Q
2023-03-15 15:01:05:482,0,5.41621,0.0284264,-0.204005,Q,Q
2023-03-15 15:01:05:492,0,5.45845,0.0684162,-0.182626,Q,Q
2023-03-15 15:01:05:502,0,5.49247,0.1039,-0.155109,Q,Q
2023-03-15 15:01:05:512,0,5.51737,0.139208,-0.121681,Q,Q
2023-03-15 15:01:05:522,0,5.52524,0.180694,-0.0790125,Q,Q
2023-03-15 15:01:05:532,0,5.52852,0.202968,-0.0439756,Q,Q
2023-03-15 15:01:05:542,0,5.50958,0.193573,-0.00144955,Q,Q
2023-03-15 15:01:05:552,0,5.47342,0.178756,0.0306315,Q,Q
2023-03-15 15:01:05:562,0,5.42707,0.156178,0.0570873,Q,Q
2023-03-15 15:01:05:572,0,5.37351,0.144243,0.0725959,Q,Q
2023-03-15 15:01:05:582,0,5.31544,0.134606,0.0724964,Q,Q
2023-03-15 15:01:05:592,0,5.24732,0.125355,0.0606354,Q,Q
2023-03-15 15:01:05:603,0,5.16309,0.114812,0.0447228,Q,Q
2023-03-15 15:01:05:613,0,5.06959,0.0990027,0.0273062,Q,Q
2023-03-15 15:01:05:623,0,4.9858,0.0839972,0.0073225,Q,Q
2023-03-15 15:01:05:633,0,4.91975,0.0703886,-0.0128055,Q,Q
2023-03-15 15:01:05:643,0,4.8709,0.0704486,-0.0303025,Q,Q
2023-03-15 15:01:05:652,0,4.83391,0.0867132,-0.0456456,Q,Q
2023-03-15 15:01:05:663,0,4.81277,0.12081,-0.0604893,Q,Q
2023-03-15 15:01:05:672,0,4.79877,0.172339,-0.0813356,Q,Q
2023-03-15 15:01:05:682,0,4.78669,0.232032,-0.109376,Q,Q
2023-03-15 15:01:05:693,0,4.77232,0.299746,-0.140596,Q,Q
2023-03-15 15:01:05:703,0,4.7657,0.366838,-0.170777,Q,Q
2023-03-15 15:01:05:713,0,4.77016,0.442191,-0.202857,Q,Q
2023-03-15 15:01:05:723,0,4.7858,0.517762,-0.242647,Q,Q
2023-03-15 15:01:05:733,0,4.81104,0.576372,-0.288767,Q,Q
2023-03-15 15:01:05:743,0,4.83517,0.620494,-0.31893,Q,Q
2023-03-15 15:01:05:753,0,4.84869,0.65383,-0.340987,Q,Q
2023-03-15 15:01:05:763,0,4.85745,0.687549,-0.371277,Q,Q
2023-03-15 15:01:05:773,0,4.86717,0.726946,-0.408013,Q,Q
2023-03-15 15:01:05:783,0,4.86984,0.768644,-0.450634,Q,Q
2023-03-15 15:01:05:793,0,4.87095,0.811682,-0.49811,Q,Q
2023-03-15 15:01:05:803,0,4.86992,0.85164,-0.555078,Q,Q
2023-03-15 15:01:05:812,0,4.87253,0.890848,-0.615626,Q,Q
2023-03-15 15:01:05:823,0,4.87818,0.922845,-0.669334,Q,Q
2023-03-15 15:01:05:833,0,4.87681,0.944726,-0.714563,Q,Q
2023-03-15 15:01:05:843,0,4.86255,0.950304,-0.752212,Q,Q
2023-03-15 15:01:05:853,0,4.82842,0.94557,-0.791005,Q,Q
2023-03-15 15:01:05:863,0,4.76835,0.932513,-0.83127,Q,Q
2023-03-15 15:01:05:873,0,4.69377,0.9144,-0.872006,Q,Q
2023-03-15 15:01:05:883,0,4.60153,0.886932,-0.917323,Q,Q
2023-03-15 15:01:05:893,0,4.50024,0.849404,-0.964501,Q,Q
2023-03-15 15:01:05:903,0,4.3936,0.802111,-1.0075,Q,Q
2023-03-15 15:01:05:913,0,4.2842,0.733884,-1.03909,Q,Q
2023-03-15 15:01:05:923,0,4.17868,0.652156,-1.05953,Q,Q
2023-03-15 15:01:05:933,0,4.07854,0.562551,-1.07116,Q,Q
2023-03-15 15:01:05:943,0,3.98051,0.473329,-1.07519,Q,Q
2023-03-15 15:01:05:953,0,3.8857,0.376368,-1.06145,Q,Q
2023-03-15 15:01:05:963,0,3.78335,0.278743,-1.04183,Q,Q
2023-03-15 15:01:05:972,0,3.67192,0.180374,-1.0191,Q,Q
2023-03-15 15:01:05:982,0,3.53876,0.0846476,-0.997588,Q,Q
2023-03-15 15:01:05:992,0,3.38945,-0.0112201,-0.978561,Q,Q
2023-03-15 15:01:06:3,0,3.22517,-0.0967767,-0.969033,Q,Q
2023-03-15 15:01:06:13,0,3.05689,-0.184253,-0.966632,Q,Q
2023-03-15 15:01:06:23,0,2.89141,-0.276218,-0.963276,Q,Q
2023-03-15 15:01:06:33,0,2.73217,-0.368543,-0.959464,Q,Q
2023-03-15 15:01:06:43,0,2.57781,-0.461373,-0.95515,Q,Q
2023-03-15 15:01:06:53,0,2.42923,-0.547335,-0.953171,Q,Q
2023-03-15 15:01:06:63,0,2.28678,-0.631078,-0.945949,Q,Q
2023-03-15 15:01:06:73,0,2.15503,-0.710735,-0.944835,Q,Q
2023-03-15 15:01:06:83,0,2.03875,-0.776836,-0.948957,Q,Q
2023-03-15 15:01:06:93,0,1.93739,-0.825133,-0.953466,Q,Q
2023-03-15 15:01:06:103,0,1.85177,-0.865869,-0.960672,Q,Q
2023-03-15 15:01:06:113,0,1.78756,-0.905368,-0.965076,Q,Q
2023-03-15 15:01:06:123,0,1.74168,-0.940321,-0.963862,Q,Q
2023-03-15 15:01:06:132,0,1.71592,-0.974674,-0.956618,Q,Q
2023-03-15 15:01:06:143,0,1.69977,-1.00576,-0.943902,Q,Q
2023-03-15 15:01:06:153,0,1.70349,-1.02769,-0.928591,Q,Q
2023-03-15 15:01:06:163,0,1.72045,-1.0424,-0.908022,Q,Q
2023-03-15 15:01:06:173,0,1.74494,-1.04902,-0.887796,Q,Q
2023-03-15 15:01:06:183,0,1.77565,-1.052,-0.866874,Q,Q
2023-03-15 15:01:06:193,0,1.80493,-1.05015,-0.849683,Q,Q
2023-03-15 15:01:06:203,0,1.82886,-1.04811,-0.83643,Q,Q
2023-03-15 15:01:06:213,0,1.85549,-1.04573,-0.828232,Q,Q
2023-03-15 15:01:06:223,0,1.88472,-1.03943,-0.826792,Q,Q
2023-03-15 15:01:06:233,0,1.91789,-1.03474,-0.832331,Q,Q
2023-03-15 15:01:06:243,0,1.95376,-1.03107,-0.839947,Q,Q
2023-03-15 15:01:06:253,0,1.9893,-1.02757,-0.847248,Q,Q
2023-03-15 15:01:06:263,0,2.02251,-1.02872,-0.851517,Q,Q
2023-03-15 15:01:06:273,0,2.04553,-1.02762,-0.862533,Q,Q
2023-03-15 15:01:06:283,0,2.06288,-1.02298,-0.875163,Q,Q
2023-03-15 15:01:06:292,0,2.07772,-1.01806,-0.89048,Q,Q
2023-03-15 15:01:06:303,0,2.09576,-1.01197,-0.906319,Q,Q
2023-03-15 15:01:06:312,0,2.11391,-1.00641,-0.926171,Q,Q
2023-03-15 15:01:06:322,0,2.14465,-0.998861,-0.941476,Q,Q
2023-03-15 15:01:06:332,0,2.17868,-0.988329,-0.956288,Q,Q
2023-03-15 15:01:06:343,0,2.22188,-0.975803,-0.967116,Q,Q
2023-03-15 15:01:06:353,0,2.26887,-0.959084,-0.971083,Q,Q
2023-03-15 15:01:06:363,0,2.32116,-0.9409,-0.973879,Q,Q
2023-03-15 15:01:06:373,0,2.37257,-0.920952,-0.977584,Q,Q
2023-03-15 15:01:06:383,0,2.42849,-0.897825,-0.98578,Q,Q
2023-03-15 15:01:06:393,0,2.50199,-0.869251,-0.986951,Q,Q
2023-03-15 15:01:06:403,0,2.58536,-0.837971,-0.987956,Q,Q
2023-03-15 15:01:06:413,0,2.67522,-0.799668,-0.980991,Q,Q
2023-03-15 15:01:06:423,0,2.76625,-0.760072,-0.969246,Q,Q
2023-03-15 15:01:06:433,0,2.85947,-0.716828,-0.956942,Q,Q
2023-03-15 15:01:06:442,0,2.94868,-0.678107,-0.941433,Q,Q
2023-03-15 15:01:06:452,0,3.03484,-0.64009,-0.922605,Q,Q
2023-03-15 15:01:06:463,0,3.12058,-0.603752,-0.903074,Q,Q
2023-03-15 15:01:06:473,0,3.20296,-0.572344,-0.884624,Q,Q
2023-03-15 15:01:06:482,0,3.28507,-0.542707,-0.867247,Q,Q
2023-03-15 15:01:06:492,0,3.36654,-0.518457,-0.847438,Q,Q
2023-03-15 15:01:06:503,0,3.44398,-0.502396,-0.827975,Q,Q
2023-03-15 15:01:06:513,0,3.51933,-0.487313,-0.805045,Q,Q
2023-03-15 15:01:06:523,0,3.58989,-0.477973,-0.783141,Q,Q
2023-03-15 15:01:06:533,0,3.65339,-0.473281,-0.75588,Q,Q
2023-03-15 15:01:06:543,0,3.71006,-0.475315,-0.730625,Q,Q
2023-03-15 15:01:06:552,0,3.76038,-0.475997,-0.714091,Q,Q
2023-03-15 15:01:06:562,0,3.80645,-0.478207,-0.701742,Q,Q
2023-03-15 15:01:06:573,0,3.85889,-0.474365,-0.69652,Q,Q
2023-03-15 15:01:06:583,0,3.91429,-0.463509,-0.699945,Q,Q
2023-03-15 15:01:06:593,0,3.97428,-0.447969,-0.7109,Q,Q
2023-03-15 15:01:06:602,0,4.0385,-0.432094,-0.723808,Q,Q
2023-03-15 15:01:06:612,0,4.10298,-0.416056,-0.736601,Q,Q
2023-03-15 15:01:06:623,0,4.15793,-0.398194,-0.749471,Q,Q
2023-03-15 15:01:06:633,0,4.21086,-0.380462,-0.761978,Q,Q
2023-03-15 15:01:06:642,0,4.27002,-0.368689,-0.777098,Q,Q
2023-03-15 15:01:06:652,0,4.3334,-0.354146,-0.788971,Q,Q
2023-03-15 15:01:06:663,0,4.39476,-0.341787,-0.799954,Q,Q
2023-03-15 15:01:06:673,0,4.45009,-0.328704,-0.80899,Q,Q
2023-03-15 15:01:06:683,0,4.49937,-0.316122,-0.81506,Q,Q
2023-03-15 15:01:06:693,0,4.54569,-0.303764,-0.825217,Q,Q
2023-03-15 15:01:06:703,0,4.59472,-0.287871,-0.835093,Q,Q
2023-03-15 15:01:06:713,0,4.63915,-0.273889,-0.843038,Q,Q
2023-03-15 15:01:06:723,0,4.68641,-0.26053,-0.85144,Q,Q
2023-03-15 15:01:06:733,0,4.73486,-0.245992,-0.862218,Q,Q
2023-03-15 15:01:06:743,0,4.78688,-0.232992,-0.873923,Q,Q
2023-03-15 15:01:06:752,0,4.84729,-0.224952,-0.883644,Q,Q
2023-03-15 15:01:06:762,0,4.90763,-0.215735,-0.888587,Q,Q
2023-03-15 15:01:06:772,0,4.97103,-0.211028,-0.897565,Q,Q
2023-03-15 15:01:06:783,0,5.0278,-0.208937,-0.902744,Q,Q
2023-03-15 15:01:06:793,0,5.08034,-0.209008,-0.904137,Q,Q
2023-03-15 15:01:06:802,0,5.13191,-0.205511,-0.902129,Q,Q
2023-03-15 15:01:06:813,0,5.17542,-0.202105,-0.900433,Q,Q
2023-03-15 15:01:06:822,0,5.20951,-0.19346,-0.898869,Q,Q
2023-03-15 15:01:06:833,0,5.24331,-0.186659,-0.897764,Q,Q
2023-03-15 15:01:06:843,0,5.27033,-0.177423,-0.888767,Q,Q
2023-03-15 15:01:06:853,0,5.28934,-0.171994,-0.884095,Q,Q
2023-03-15 15:01:06:863,0,5.30812,-0.16594,-0.880049,Q,Q
2023-03-15 15:01:06:873,0,5.32895,-0.162526,-0.880246,Q,Q
2023-03-15 15:01:06:883,0,5.35431,-0.162916,-0.877376,Q,Q
2023-03-15 15:01:06:893,0,5.38135,-0.167523,-0.869838,Q,Q
2023-03-15 15:01:06:903,0,5.41361,-0.176033,-0.862682,Q,Q
2023-03-15 15:01:06:913,0,5.44774,-0.184824,-0.855551,Q,Q
2023-03-15 15:01:06:923,0,5.48092,-0.196002,-0.844506,Q,Q
2023-03-15 15:01:06:932,0,5.51388,-0.209142,-0.826734,Q,Q
2023-03-15 15:01:06:943,0,5.54672,-0.222443,-0.814585,Q,Q
2023-03-15 15:01:06:953,0,5.57554,-0.238057,-0.802246,Q,Q
2023-03-15 15:01:06:962,0,5.60765,-0.252546,-0.7912,Q,Q
2023-03-15 15:01:06:973,0,5.64644,-0.262532,-0.784964,Q,Q
2023-03-15 15:01:06:983,0,5.69286,-0.270715,-0.78196,Q,Q
2023-03-15 15:01:06:993,0,5.74135,-0.278317,-0.776806,Q,Q
2023-03-15 15:01:07:2,0,5.79133,-0.284681,-0.772957,Q,Q
2023-03-15 15:01:07:12,0,5.83575,-0.293352,-0.769444,Q,Q
2023-03-15 15:01:07:22,0,5.87822,-0.305814,-0.764424,Q,Q
2023-03-15 15:01:07:33,0,5.9188,-0.319397,-0.760401,Q,Q
2023-03-15 15:01:07:43,0,5.96429,-0.337667,-0.75817,Q,Q
2023-03-15 15:01:07:53,0,6.00562,-0.352398,-0.753246,Q,Q
2023-03-15 15:01:07:63,0,6.04845,-0.369967,-0.752312,Q,Q
2023-03-15 15:01:07:73,0,6.09072,-0.383477,-0.748909,Q,Q
2023-03-15 15:01:07:83,0,6.13592,-0.402785,-0.745991,Q,Q
2023-03-15 15:01:07:92,0,6.18034,-0.422617,-0.738245,Q,Q
2023-03-15 15:01:07:103,0,6.21549,-0.441565,-0.72878,Q,Q
2023-03-15 15:01:07:113,0,6.25533,-0.461057,-0.716856,Q,Q
2023-03-15 15:01:07:123,0,6.29515,-0.484294,-0.706684,Q,Q
2023-03-15 15:01:07:133,0,6.33285,-0.510316,-0.691613,Q,Q
2023-03-15 15:01:07:143,0,6.36524,-0.528884,-0.673417,Q,Q
2023-03-15 15:01:07:153,0,6.39207,-0.548692,-0.654113,Q,Q
2023-03-15 15:01:07:163,0,6.41902,-0.566411,-0.632682,Q,Q
2023-03-15 15:01:07:173,0,6.44044,-0.585453,-0.611707,Q,Q
2023-03-15 15:01:07:183,0,6.46041,-0.603075,-0.589052,Q,Q
2023-03-15 15:01:07:193,0,6.48158,-0.610705,-0.565672,Q,Q
2023-03-15 15:01:07:203,0,6.50888,-0.614764,-0.540521,Q,Q
2023-03-15 15:01:07:213,0,6.53825,-0.620477,-0.514212,Q,Q
2023-03-15 15:01:07:223,0,6.56221,-0.624641,-0.48726,Q,Q
2023-03-15 15:01:07:233,0,6.58324,-0.629569,-0.457619,Q,Q
2023-03-15 15:01:07:243,0,6.59461,-0.634493,-0.426866,Q,Q
2023-03-15 15:01:07:252,0,6.59725,-0.636913,-0.39721,Q,Q
2023-03-15 15:01:07:263,0,6.59857,-0.641491,-0.366353,Q,Q
2023-03-15 15:01:07:273,0,6.59439,-0.641217,-0.337189,Q,Q
2023-03-15 15:01:07:283,0,6.59013,-0.647238,-0.309391,Q,Q
2023-03-15 15:01:07:293,0,6.58748,-0.655021,-0.287403,Q,Q
2023-03-15 15:01:07:303,0,6.58533,-0.660098,-0.263423,Q,Q
2023-03-15 15:01:07:313,0,6.583,-0.668316,-0.240674,Q,Q
2023-03-15 15:01:07:322,0,6.58422,-0.676227,-0.216441,Q,Q
2023-03-15 15:01:07:332,0,6.58317,-0.682677,-0.196307,Q,Q
2023-03-15 15:01:07:342,0,6.58065,-0.687266,-0.179948,Q,Q
2023-03-15 15:01:07:353,0,6.58469,-0.690267,-0.169637,Q,Q
2023-03-15 15:01:07:363,0,6.59039,-0.691736,-0.163032,Q,Q
2023-03-15 15:01:07:373,0,6.60098,-0.6888,-0.155907,Q,Q
2023-03-15 15:01:07:382,0,6.60804,-0.68141,-0.155422,Q,Q
2023-03-15 15:01:07:393,0,6.60904,-0.677807,-0.156925,Q,Q
2023-03-15 15:01:07:403,0,6.6105,-0.676175,-0.161113,Q,Q
2023-03-15 15:01:07:412,0,6.60995,-0.675503,-0.16978,Q,Q
2023-03-15 15:01:07:423,0,6.60762,-0.676499,-0.17992,Q,Q
2023-03-15 15:01:07:433,0,6.60272,-0.680709,-0.189404,Q,Q
2023-03-15 15:01:07:443,0,6.59112,-0.690731,-0.192914,Q,Q
2023-03-15 15:01:07:453,0,6.57002,-0.706953,-0.198577,Q,Q
2023-03-15 15:01:07:463,0,6.53361,-0.725202,-0.203226,Q,Q
2023-03-15 15:01:07:473,0,6.48762,-0.743532,-0.208555,Q,Q
2023-03-15 15:01:07:483,0,6.42535,-0.759835,-0.213207,Q,Q
2023-03-15 15:01:07:493,0,6.34886,-0.776713,-0.218076,Q,Q
2023-03-15 15:01:07:502,0,6.25965,-0.791637,-0.224656,Q,Q
2023-03-15 15:01:07:512,0,6.15377,-0.811184,-0.236574,Q,Q
2023-03-15 15:01:07:523,0,6.04842,-0.827162,-0.260195,Q,Q
2023-03-15 15:01:07:533,0,5.95365,-0.840941,-0.293281,Q,Q
2023-03-15 15:01:07:543,0,5.87424,-0.847107,-0.332995,Q,Q
2023-03-15 15:01:07:553,0,5.80119,-0.850357,-0.367659,Q,Q
2023-03-15 15:01:07:563,0,5.72973,-0.851122,-0.402523,Q,Q
2023-03-15 15:01:07:572,0,5.6456,-0.855335,-0.432203,Q,Q
2023-03-15 15:01:07:582,0,5.55741,-0.861025,-0.460724,Q,Q
2023-03-15 15:01:07:593,0,5.46979,-0.869895,-0.490691,Q,Q
2023-03-15 15:01:07:603,0,5.39415,-0.877432,-0.517302,Q,Q
2023-03-15 15:01:07:613,0,5.33352,-0.883753,-0.541161,Q,Q
2023-03-15 15:01:07:622,0,5.2865,-0.890671,-0.554689,Q,Q
2023-03-15 15:01:07:633,0,5.24615,-0.894214,-0.558648,Q,Q
2023-03-15 15:01:07:643,0,5.20685,-0.897198,-0.555897,Q,Q
2023-03-15 15:01:07:653,0,5.17092,-0.895044,-0.55142,Q,Q
2023-03-15 15:01:07:663,0,5.14491,-0.889066,-0.54889,Q,Q
2023-03-15 15:01:07:673,0,5.12658,-0.882076,-0.543895,Q,Q
2023-03-15 15:01:07:683,0,5.11193,-0.874925,-0.538229,Q,Q
2023-03-15 15:01:07:693,0,5.10516,-0.872789,-0.531112,Q,Q
2023-03-15 15:01:07:703,0,5.09879,-0.872931,-0.526618,Q,Q
2023-03-15 15:01:07:713,0,5.09713,-0.870365,-0.524145,Q,Q
2023-03-15 15:01:07:723,0,5.09341,-0.870641,-0.526462,Q,Q
2023-03-15 15:01:07:732,0,5.09305,-0.868762,-0.531507,Q,Q
2023-03-15 15:01:07:743,0,5.09143,-0.864187,-0.539874,Q,Q
2023-03-15 15:01:07:752,0,5.08662,-0.860679,-0.545553,Q,Q
2023-03-15 15:01:07:763,0,5.08381,-0.859026,-0.557469,Q,Q
2023-03-15 15:01:07:773,0,5.07753,-0.857183,-0.565813,Q,Q
2023-03-15 15:01:07:783,0,5.06858,-0.854909,-0.57618,Q,Q
2023-03-15 15:01:07:793,0,5.05857,-0.854715,-0.586339,Q,Q
2023-03-15 15:01:07:803,0,5.04344,-0.852485,-0.595631,Q,Q
2023-03-15 15:01:07:813,0,5.02472,-0.851941,-0.603069,Q,Q
2023-03-15 15:01:07:823,0,5.00482,-0.853713,-0.608168,Q,Q
2023-03-15 15:01:07:833,0,4.98007,-0.854819,-0.605869,Q,Q
2023-03-15 15:01:07:842,0,4.95118,-0.859208,-0.601906,Q,Q
2023-03-15 15:01:07:853,0,4.91921,-0.863952,-0.593832,Q,Q
2023-03-15 15:01:07:863,0,4.88194,-0.872506,-0.580654,Q,Q
2023-03-15 15:01:07:873,0,4.84099,-0.881754,-0.571918,Q,Q
2023-03-15 15:01:07:883,0,4.80584,-0.896644,-0.56268,Q,Q
2023-03-15 15:01:07:892,0,4.77916,-0.909755,-0.554779,Q,Q
2023-03-15 15:01:07:903,0,4.75555,-0.919749,-0.550271,Q,Q
2023-03-15 15:01:07:913,0,4.73572,-0.923588,-0.545357,Q,Q
2023-03-15 15:01:07:923,0,4.7225,-0.927098,-0.543637,Q,Q
2023-03-15 15:01:07:933,0,4.70904,-0.929077,-0.537224,Q,Q
2023-03-15 15:01:07:943,0,4.69831,-0.927832,-0.533536,Q,Q
2023-03-15 15:01:07:953,0,4.69057,-0.926967,-0.533317,Q,Q
2023-03-15 15:01:07:962,0,4.6874,-0.922666,-0.532513,Q,Q
2023-03-15 15:01:07:972,0,4.68462,-0.91831,-0.533459,Q,Q
2023-03-15 15:01:07:983,0,4.68627,-0.914193,-0.534133,Q,Q
2023-03-15 15:01:07:992,0,4.69509,-0.907559,-0.535727,Q,Q
2023-03-15 15:01:08:3,0,4.70327,-0.901297,-0.539893,Q,Q
2023-03-15 15:01:08:13,0,4.71607,-0.89111,-0.542971,Q,Q
2023-03-15 15:01:08:22,0,4.72609,-0.880803,-0.547569,Q,Q
2023-03-15 15:01:08:32,0,4.73916,-0.871088,-0.55277,Q,Q
2023-03-15 15:01:08:43,0,4.75675,-0.862487,-0.559552,Q,Q
2023-03-15 15:01:08:52,0,4.7748,-0.858013,-0.56296,Q,Q
2023-03-15 15:01:08:63,0,4.79829,-0.852163,-0.559972,Q,Q
2023-03-15 15:01:08:72,0,4.81981,-0.850996,-0.553408,Q,Q
2023-03-15 15:01:08:83,0,4.84047,-0.848901,-0.544299,Q,Q
2023-03-15 15:01:08:92,0,4.86372,-0.847558,-0.53319,Q,Q
2023-03-15 15:01:08:102,0,4.88492,-0.848428,-0.516568,Q,Q
2023-03-15 15:01:08:112,0,4.90389,-0.846906,-0.495209,Q,Q
2023-03-15 15:01:08:123,0,4.92126,-0.845881,-0.472219,Q,Q
2023-03-15 15:01:08:132,0,4.93904,-0.840824,-0.452988,Q,Q
2023-03-15 15:01:08:143,0,4.95169,-0.830418,-0.433968,Q,Q
2023-03-15 15:01:08:153,0,4.96601,-0.817786,-0.418685,Q,Q
2023-03-15 15:01:08:162,0,4.98025,-0.801338,-0.403689,Q,Q
2023-03-15 15:01:08:173,0,4.9976,-0.786233,-0.390665,Q,Q
2023-03-15 15:01:08:182,0,5.014,-0.772245,-0.37671,Q,Q
2023-03-15 15:01:08:192,0,5.02971,-0.75984,-0.366965,Q,Q
2023-03-15 15:01:08:202,0,5.04641,-0.751767,-0.35718,Q,Q
2023-03-15 15:01:08:212,0,5.06425,-0.752983,-0.346773,Q,Q
2023-03-15 15:01:08:222,0,5.08436,-0.753358,-0.339827,Q,Q
2023-03-15 15:01:08:232,0,5.1024,-0.760531,-0.332887,Q,Q
2023-03-15 15:01:08:243,0,5.12117,-0.771436,-0.328684,Q,Q
2023-03-15 15:01:08:252,0,5.1374,-0.785486,-0.324781,Q,Q
2023-03-15 15:01:08:263,0,5.15143,-0.800651,-0.325316,Q,Q
2023-03-15 15:01:08:272,0,5.16493,-0.813933,-0.329306,Q,Q
2023-03-15 15:01:08:283,0,5.18374,-0.825131,-0.331431,Q,Q
2023-03-15 15:01:08:293,0,5.20658,-0.840829,-0.333619,Q,Q
2023-03-15 15:01:08:302,0,5.23089,-0.862551,-0.334628,Q,Q
2023-03-15 15:01:08:312,0,5.25342,-0.881194,-0.332726,Q,Q
2023-03-15 15:01:08:322,0,5.2688,-0.903165,-0.327491,Q,Q
2023-03-15 15:01:08:332,0,5.28806,-0.920253,-0.32177,Q,Q
2023-03-15 15:01:08:342,0,5.30294,-0.93156,-0.316051,Q,Q
2023-03-15 15:01:08:352,0,5.31875,-0.939894,-0.31198,Q,Q
2023-03-15 15:01:08:362,0,5.33545,-0.942263,-0.309012,Q,Q
2023-03-15 15:01:08:372,0,5.3492,-0.942029,-0.307569,Q,Q
2023-03-15 15:01:08:382,0,5.36608,-0.944409,-0.306023,Q,Q
2023-03-15 15:01:08:393,0,5.38043,-0.94391,-0.309336,Q,Q
2023-03-15 15:01:08:402,0,5.39455,-0.941451,-0.313384,Q,Q
2023-03-15 15:01:08:412,0,5.40648,-0.938569,-0.317133,Q,Q
2023-03-15 15:01:08:422,0,5.41818,-0.936025,-0.323267,Q,Q
2023-03-15 15:01:08:432,0,5.42059,-0.934447,-0.326293,Q,Q
2023-03-15 15:01:08:442,0,5.41993,-0.936698,-0.329154,Q,Q
2023-03-15 15:01:08:452,0,5.41298,-0.938617,-0.331752,Q,Q
2023-03-15 15:01:08:463,0,5.4031,-0.941253,-0.335245,Q,Q
2023-03-15 15:01:08:473,0,5.38831,-0.943263,-0.338606,Q,Q
2023-03-15 15:01:08:482,0,5.37564,-0.950219,-0.340938,Q,Q
2023-03-15 15:01:08:492,0,5.35345,-0.957501,-0.338477,Q,Q
2023-03-15 15:01:08:502,0,5.32902,-0.966374,-0.336395,Q,Q
2023-03-15 15:01:08:512,0,5.294,-0.982147,-0.327446,Q,Q
2023-03-15 15:01:08:522,0,5.25594,-1.0041,-0.316481,Q,Q
2023-03-15 15:01:08:532,0,5.2149,-1.03778,-0.296438,Q,Q
2023-03-15 15:01:08:542,0,5.17681,-1.07897,-0.266918,Q,Q
2023-03-15 15:01:08:553,0,5.14156,-1.12874,-0.226832,Q,Q
2023-03-15 15:01:08:562,0,5.10825,-1.18318,-0.182379,Q,Q
2023-03-15 15:01:08:572,0,5.0826,-1.23853,-0.139049,Q,Q
2023-03-15 15:01:08:582,0,5.07381,-1.28965,-0.0952936,Q,Q
2023-03-15 15:01:08:592,0,5.07776,-1.3322,-0.0518004,Q,Q
2023-03-15 15:01:08:602,0,5.09241,-1.3636,-0.00633421,Q,Q
2023-03-15 15:01:08:612,0,5.11577,-1.38915,0.0352505,Q,Q
2023-03-15 15:01:08:622,0,5.14375,-1.40705,0.0710247,Q,Q
2023-03-15 15:01:08:633,0,5.16995,-1.41734,0.0972618,Q,Q
2023-03-15 15:01:08:642,0,5.19066,-1.41953,0.108277,Q,Q
2023-03-15 15:01:08:652,0,5.21199,-1.41752,0.108378,Q,Q
2023-03-15 15:01:08:662,0,5.23441,-1.41038,0.0927112,Q,Q
2023-03-15 15:01:08:673,0,5.25421,-1.39509,0.0662354,Q,Q
2023-03-15 15:01:08:682,0,5.27778,-1.37409,0.0336077,Q,Q
2023-03-15 15:01:08:692,0,5.3011,-1.34449,-0.00735599,Q,Q
2023-03-15 15:01:08:703,0,5.32548,-1.31293,-0.0487078,Q,Q
2023-03-15 15:01:08:713,0,5.34533,-1.27942,-0.0906585,Q,Q
2023-03-15 15:01:08:723,0,5.35249,-1.24705,-0.128092,Q,Q
2023-03-15 15:01:08:733,0,5.35594,-1.21158,-0.163558,Q,Q
2023-03-15 15:01:08:743,0,5.3535,-1.17503,-0.192089,Q,Q
2023-03-15 15:01:08:753,0,5.3558,-1.1386,-0.220943,Q,Q
2023-03-15 15:01:08:763,0,5.35404,-1.10892,-0.246576,Q,Q
2023-03-15 15:01:08:773,0,5.35226,-1.08015,-0.266702,Q,Q
2023-03-15 15:01:08:783,0,5.35098,-1.05371,-0.277812,Q,Q
2023-03-15 15:01:08:793,0,5.3416,-1.03311,-0.286779,Q,Q
2023-03-15 15:01:08:803,0,5.33343,-1.01341,-0.288972,Q,Q
2023-03-15 15:01:08:813,0,5.32407,-1.00123,-0.286965,Q,Q
2023-03-15 15:01:08:823,0,5.31012,-0.989419,-0.281244,Q,Q
2023-03-15 15:01:08:832,0,5.29827,-0.981292,-0.266572,Q,Q
2023-03-15 15:01:08:842,0,5.2806,-0.981177,-0.248612,Q,Q
2023-03-15 15:01:08:852,0,5.26546,-0.98545,-0.225413,Q,Q
2023-03-15 15:01:08:862,0,5.24842,-0.992504,-0.199013,Q,Q
2023-03-15 15:01:08:873,0,5.22876,-1.00273,-0.165813,Q,Q
2023-03-15 15:01:08:882,0,5.20771,-1.01284,-0.131263,Q,Q
2023-03-15 15:01:08:892,0,5.18497,-1.02881,-0.100294,Q,Q
2023-03-15 15:01:08:903,0,5.16362,-1.0499,-0.0674268,Q,Q
2023-03-15 15:01:08:913,0,5.13876,-1.07391,-0.0394257,Q,Q
2023-03-15 15:01:08:923,0,5.11607,-1.09473,-0.0207649,Q,Q
2023-03-15 15:01:08:932,0,5.10248,-1.11607,-0.00462245,Q,Q
2023-03-15 15:01:08:943,0,5.09104,-1.13628,0.0120819,Q,Q
2023-03-15 15:01:08:953,0,5.08226,-1.15252,0.0304785,Q,Q
2023-03-15 15:01:08:963,0,5.07642,-1.16657,0.0475397,Q,Q
2023-03-15 15:01:08:973,0,5.07321,-1.17826,0.0697588,Q,Q
2023-03-15 15:01:08:982,0,5.0708,-1.18526,0.0967816,Q,Q
2023-03-15 15:01:08:992,0,5.06455,-1.19122,0.125708,Q,Q
2023-03-15 15:01:09:3,0,5.05806,-1.19879,0.157794,Q,Q
2023-03-15 15:01:09:12,0,5.05575,-1.2086,0.187784,Q,Q
2023-03-15 15:01:09:23,0,5.05349,-1.21495,0.219253,Q,Q
2023-03-15 15:01:09:33,0,5.0557,-1.22407,0.245254,Q,Q
2023-03-15 15:01:09:43,0,5.06275,-1.2346,0.26264,Q,Q
2023-03-15 15:01:09:52,0,5.07639,-1.24868,0.275159,Q,Q
2023-03-15 15:01:09:62,0,5.09889,-1.26223,0.281732,Q,Q
2023-03-15 15:01:09:72,0,5.12101,-1.27917,0.279686,Q,Q
2023-03-15 15:01:09:83,0,5.13851,-1.30553,0.275878,Q,Q
2023-03-15 15:01:09:93,0,5.15404,-1.31746,0.274704,Q,Q
2023-03-15 15:01:09:103,0,5.17619,-1.32723,0.26109,Q,Q
2023-03-15 15:01:09:112,0,5.1917,-1.35289,0.257608,Q,Q
2023-03-15 15:01:09:123,0,5.20055,-1.3785,0.266269,Q,Q
2023-03-15 15:01:09:133,0,5.20268,-1.40233,0.27032,Q,Q
2023-03-15 15:01:09:143,0,5.21309,-1.41072,0.26605,Q,Q
2023-03-15 15:01:09:153,0,5.23701,-1.4154,0.254502,Q,Q
2023-03-15 15:01:09:163,0,5.26771,-1.42221,0.247991,Q,Q
2023-03-15 15:01:09:172,0,5.29284,-1.42994,0.246881,Q,Q
2023-03-15 15:01:09:183,0,5.30772,-1.43646,0.243692,Q,Q
2023-03-15 15:01:09:193,0,5.32982,-1.4433,0.243022,Q,Q
2023-03-15 15:01:09:202,0,5.35606,-1.45382,0.240585,Q,Q
2023-03-15 15:01:09:212,0,5.37326,-1.47208,0.247192,Q,Q
2023-03-15 15:01:09:223,0,5.38188,-1.48857,0.258891,Q,Q
2023-03-15 15:01:09:233,0,5.38445,-1.50187,0.27119,Q,Q
2023-03-15 15:01:09:243,0,5.38112,-1.51364,0.2829,Q,Q
2023-03-15 15:01:09:253,0,5.38226,-1.5247,0.296425,Q,Q
2023-03-15 15:01:09:263,0,5.38374,-1.5258,0.307891,Q,Q
2023-03-15 15:01:09:273,0,5.39528,-1.52502,0.316392,Q,Q
2023-03-15 15:01:09:283,0,5.41353,-1.51811,0.318987,Q,Q
2023-03-15 15:01:09:293,0,5.42973,-1.50899,0.322851,Q,Q
2023-03-15 15:01:09:303,0,5.44438,-1.49862,0.323963,Q,Q
2023-03-15 15:01:09:313,0,5.45835,-1.49575,0.327191,Q,Q
2023-03-15 15:01:09:323,0,5.46412,-1.49891,0.331681,Q,Q
2023-03-15 15:01:09:332,0,5.46276,-1.50622,0.339844,Q,Q
2023-03-15 15:01:09:342,0,5.46275,-1.51884,0.350101,Q,Q
2023-03-15 15:01:09:352,0,5.4598,-1.52738,0.358152,Q,Q
2023-03-15 15:01:09:362,0,5.45864,-1.53655,0.373954,Q,Q
2023-03-15 15:01:09:372,0,5.44892,-1.54888,0.390009,Q,Q
2023-03-15 15:01:09:383,0,5.43638,-1.55604,0.405766,Q,Q
2023-03-15 15:01:09:393,0,5.42068,-1.56429,0.421769,Q,Q
2023-03-15 15:01:09:403,0,5.40776,-1.57445,0.431702,Q,Q
2023-03-15 15:01:09:413,0,5.39497,-1.58571,0.436401,Q,Q
2023-03-15 15:01:09:423,0,5.38313,-1.59632,0.43827,Q,Q
2023-03-15 15:01:09:433,0,5.3785,-1.59949,0.435593,Q,Q
2023-03-15 15:01:09:442,0,5.38108,-1.59659,0.431941,Q,Q
2023-03-15 15:01:09:453,0,5.38352,-1.61146,0.426521,Q,Q
2023-03-15 15:01:09:463,0,5.36854,-1.64792,0.426804,Q,Q
2023-03-15 15:01:09:473,0,5.34828,-1.66678,0.429131,Q,Q
2023-03-15 15:01:09:483,0,5.34155,-1.67102,0.415227,Q,Q
2023-03-15 15:01:09:492,0,5.34764,-1.67556,0.396937,Q,Q
2023-03-15 15:01:09:503,0,5.34932,-1.68157,0.388626,Q,Q
2023-03-15 15:01:09:513,0,5.34359,-1.69248,0.385765,Q,Q
2023-03-15 15:01:09:522,0,5.34219,-1.70228,0.372511,Q,Q
2023-03-15 15:01:09:533,0,5.34754,-1.70976,0.35051,Q,Q
2023-03-15 15:01:09:542,0,5.35505,-1.71621,0.325655,Q,Q
2023-03-15 15:01:09:553,0,5.35703,-1.72137,0.3017,Q,Q
2023-03-15 15:01:09:562,0,5.3626,-1.72339,0.271684,Q,Q
2023-03-15 15:01:09:572,0,5.37117,-1.72247,0.23774,Q,Q
2023-03-15 15:01:09:582,0,5.37465,-1.71614,0.203372,Q,Q
2023-03-15 15:01:09:592,0,5.37563,-1.71376,0.170842,Q,Q
2023-03-15 15:01:09:603,0,5.37275,-1.71347,0.140637,Q,Q
2023-03-15 15:01:09:613,0,5.3665,-1.71949,0.11583,Q,Q
2023-03-15 15:01:09:623,0,5.35596,-1.73321,0.101427,Q,Q
2023-03-15 15:01:09:633,0,5.34256,-1.74616,0.0985234,Q,Q
2023-03-15 15:01:09:643,0,5.3263,-1.75447,0.107111,Q,Q
2023-03-15 15:01:09:653,0,5.30111,-1.77784,0.12146,Q,Q
2023-03-15 15:01:09:663,0,5.25579,-1.8127,0.149811,Q,Q
2023-03-15 15:01:09:673,0,5.19981,-1.85292,0.1819,Q,Q
2023-03-15 15:01:09:683,0,5.14426,-1.89052,0.212542,Q,Q
2023-03-15 15:01:09:693,0,5.10423,-1.91931,0.239195,Q,Q
2023-03-15 15:01:09:703,0,5.0817,-1.94189,0.265819,Q,Q
2023-03-15 15:01:09:713,0,5.07066,-1.95427,0.289055,Q,Q
2023-03-15 15:01:09:723,0,5.07247,-1.9617,0.303285,Q,Q
2023-03-15 15:01:09:733,0,5.07774,-1.96441,0.311395,Q,Q
2023-03-15 15:01:09:743,0,5.09373,-1.96001,0.308417,Q,Q
2023-03-15 15:01:09:753,0,5.10906,-1.95668,0.297019,Q,Q
2023-03-15 15:01:09:763,0,5.12674,-1.95669,0.273479,Q,Q
2023-03-15 15:01:09:773,0,5.14313,-1.9473,0.247711,Q,Q
2023-03-15 15:01:09:783,0,5.159,-1.94211,0.215803,Q,Q
2023-03-15 15:01:09:793,0,5.17262,-1.93444,0.183862,Q,Q
2023-03-15 15:01:09:802,0,5.18091,-1.92165,0.156633,Q,Q
2023-03-15 15:01:09:812,0,5.18685,-1.90455,0.129247,Q,Q
2023-03-15 15:01:09:822,0,5.19305,-1.8872,0.10897,Q,Q
2023-03-15 15:01:09:833,0,5.19414,-1.87171,0.0944876,Q,Q
2023-03-15 15:01:09:842,0,5.19571,-1.86206,0.0873449,Q,Q
2023-03-15 15:01:09:852,0,5.19715,-1.85574,0.0829189,Q,Q
2023-03-15 15:01:09:862,0,5.20367,-1.8484,0.0793894,Q,Q
2023-03-15 15:01:09:872,0,5.21169,-1.84596,0.0796057,Q,Q
2023-03-15 15:01:09:883,0,5.224,-1.84518,0.0869387,Q,Q
2023-03-15 15:01:09:892,0,5.24052,-1.85075,0.0971962,Q,Q
2023-03-15 15:01:09:902,0,5.26459,-1.85706,0.106198,Q,Q
2023-03-15 15:01:09:912,0,5.29265,-1.86345,0.109147,Q,Q
2023-03-15 15:01:09:922,0,5.32565,-1.86774,0.11545,Q,Q
2023-03-15 15:01:09:932,0,5.35919,-1.87266,0.118127,Q,Q
2023-03-15 15:01:09:943,0,5.39388,-1.87709,0.120612,Q,Q
2023-03-15 15:01:09:953,0,5.42124,-1.8745,0.12399,Q,Q
2023-03-15 15:01:09:963,0,5.44947,-1.87345,0.124548,Q,Q
2023-03-15 15:01:09:972,0,5.47493,-1.87324,0.119241,Q,Q
2023-03-15 15:01:09:983,0,5.49769,-1.87125,0.116777,Q,Q
2023-03-15 15:01:09:993,0,5.51443,-1.86872,0.109046,Q,Q
2023-03-15 15:01:10:3,0,5.52686,-1.86954,0.102497,Q,Q
2023-03-15 15:01:10:13,0,5.53953,-1.86608,0.0962763,Q,Q
2023-03-15 15:01:10:23,0,5.54681,-1.86442,0.091514,Q,Q
2023-03-15 15:01:10:33,0,5.55014,-1.8638,0.088911,Q,Q
2023-03-15 15:01:10:43,0,5.54961,-1.86229,0.0903708,Q,Q
2023-03-15 15:01:10:53,0,5.5457,-1.85789,0.0910699,Q,Q
2023-03-15 15:01:10:63,0,5.54832,-1.85333,0.093099,Q,Q
2023-03-15 15:01:10:73,0,5.55191,-1.85326,0.0994594,Q,Q
2023-03-15 15:01:10:82,0,5.55027,-1.8567,0.108508,Q,Q
2023-03-15 15:01:10:93,0,5.54836,-1.86344,0.117143,Q,Q
2023-03-15 15:01:10:102,0,5.54735,-1.86984,0.129748,Q,Q
2023-03-15 15:01:10:113,0,5.54773,-1.87411,0.138184,Q,Q
2023-03-15 15:01:10:123,0,5.5528,-1.87257,0.145365,Q,Q
2023-03-15 15:01:10:132,0,5.55807,-1.87045,0.152476,Q,Q
2023-03-15 15:01:10:143,0,5.56463,-1.86675,0.159422,Q,Q
2023-03-15 15:01:10:153,0,5.57363,-1.8644,0.163905,Q,Q
2023-03-15 15:01:10:163,0,5.58065,-1.86399,0.168901,Q,Q
2023-03-15 15:01:10:173,0,5.58317,-1.86277,0.172201,Q,Q
2023-03-15 15:01:10:183,0,5.59068,-1.86221,0.175042,Q,Q
2023-03-15 15:01:10:193,0,5.59519,-1.8666,0.179018,Q,Q
2023-03-15 15:01:10:203,0,5.6039,-1.86709,0.181186,Q,Q
2023-03-15 15:01:10:213,0,5.6147,-1.86457,0.189317,Q,Q
2023-03-15 15:01:10:223,0,5.62543,-1.86492,0.199568,Q,Q
2023-03-15 15:01:10:233,0,5.63345,-1.86133,0.21304,Q,Q
2023-03-15 15:01:10:243,0,5.64302,-1.86149,0.224412,Q,Q
2023-03-15 15:01:10:253,0,5.64822,-1.85925,0.238598,Q,Q
2023-03-15 15:01:10:263,0,5.64753,-1.86094,0.249508,Q,Q
2023-03-15 15:01:10:273,0,5.64749,-1.86417,0.256315,Q,Q
2023-03-15 15:01:10:283,0,5.64743,-1.86494,0.255276,Q,Q
2023-03-15 15:01:10:292,0,5.64425,-1.86428,0.247458,Q,Q
2023-03-15 15:01:10:303,0,5.64363,-1.85925,0.233212,Q,Q
2023-03-15 15:01:10:313,0,5.64924,-1.86148,0.217297,Q,Q
2023-03-15 15:01:10:322,0,5.65745,-1.86706,0.206082,Q,Q
2023-03-15 15:01:10:333,0,5.66551,-1.87371,0.193344,Q,Q
2023-03-15 15:01:10:343,0,5.67487,-1.87762,0.179369,Q,Q
2023-03-15 15:01:10:352,0,5.68607,-1.879,0.163977,Q,Q
2023-03-15 15:01:10:362,0,5.69819,-1.88136,0.154828,Q,Q
2023-03-15 15:01:10:372,0,5.71203,-1.88219,0.146229,Q,Q
2023-03-15 15:01:10:383,0,5.72428,-1.88206,0.142363,Q,Q
2023-03-15 15:01:10:393,0,5.73697,-1.88549,0.142912,Q,Q
2023-03-15 15:01:10:403,0,5.74732,-1.88525,0.149523,Q,Q
2023-03-15 15:01:10:413,0,5.75965,-1.89165,0.162393,Q,Q
2023-03-15 15:01:10:422,0,5.77064,-1.89691,0.175597,Q,Q
2023-03-15 15:01:10:432,0,5.78155,-1.90278,0.18696,Q,Q
2023-03-15 15:01:10:443,0,5.79291,-1.90668,0.201335,Q,Q
2023-03-15 15:01:10:452,0,5.80843,-1.91548,0.215254,Q,Q
2023-03-15 15:01:10:463,0,5.82087,-1.92063,0.23231,Q,Q
2023-03-15 15:01:10:473,0,5.83383,-1.92709,0.253311,Q,Q
2023-03-15 15:01:10:482,0,5.83907,-1.94034,0.271648,Q,Q
2023-03-15 15:01:10:492,0,5.83901,-1.94575,0.293144,Q,Q
2023-03-15 15:01:10:502,0,5.83736,-1.95654,0.311959,Q,Q
2023-03-15 15:01:10:512,0,5.83401,-1.96341,0.32967,Q,Q
2023-03-15 15:01:10:522,0,5.82803,-1.97042,0.345606,Q,Q
2023-03-15 15:01:10:532,0,5.82197,-1.97738,0.358903,Q,Q
2023-03-15 15:01:10:543,0,5.81401,-1.98439,0.372101,Q,Q
2023-03-15 15:01:10:553,0,5.80803,-1.98781,0.377966,Q,Q
2023-03-15 15:01:10:562,0,5.79987,-1.99308,0.384802,Q,Q
2023-03-15 15:01:10:573,0,5.79351,-1.99439,0.390496,Q,Q
2023-03-15 15:01:10:583,0,5.78809,-1.99215,0.394344,Q,Q
2023-03-15 15:01:10:592,0,5.78303,-1.99458,0.397522,Q,Q
2023-03-15 15:01:10:603,0,5.77471,-1.9973,0.403655,Q,Q
2023-03-15 15:01:10:612,0,5.76391,-1.99732,0.407652,Q,Q
2023-03-15 15:01:10:622,0,5.75499,-1.99879,0.417357,Q,Q
2023-03-15 15:01:10:633,0,5.74199,-1.99908,0.429777,Q,Q
2023-03-15 15:01:10:643,0,5.7282,-2.00374,0.446431,Q,Q
2023-03-15 15:01:10:653,0,5.71055,-2.00751,0.464245,Q,Q
2023-03-15 15:01:10:663,0,5.69179,-2.00786,0.479682,Q,Q
2023-03-15 15:01:10:673,0,5.67497,-2.00483,0.495913,Q,Q
2023-03-15 15:01:10:683,0,5.65598,-2.00194,0.507202,Q,Q
2023-03-15 15:01:10:692,0,5.64406,-1.98966,0.511776,Q,Q
2023-03-15 15:01:10:702,0,5.63039,-1.97724,0.512562,Q,Q
2023-03-15 15:01:10:712,0,5.62015,-1.96312,0.513902,Q,Q
2023-03-15 15:01:10:723,0,5.61559,-1.94962,0.510783,Q,Q
2023-03-15 15:01:10:733,0,5.61346,-1.93596,0.50873,Q,Q
2023-03-15 15:01:10:743,0,5.61141,-1.9211,0.502225,Q,Q
2023-03-15 15:01:10:753,0,5.60923,-1.907,0.495475,Q,Q
2023-03-15 15:01:10:763,0,5.60383,-1.891,0.485619,Q,Q
2023-03-15 15:01:10:772,0,5.60124,-1.87684,0.472994,Q,Q
2023-03-15 15:01:10:783,0,5.59911,-1.86005,0.458882,Q,Q
2023-03-15 15:01:10:793,0,5.59853,-1.84896,0.445658,Q,Q
2023-03-15 15:01:10:803,0,5.59481,-1.83264,0.434118,Q,Q
2023-03-15 15:01:10:813,0,5.59433,-1.81785,0.418983,Q,Q
2023-03-15 15:01:10:823,0,5.59436,-1.80254,0.401662,Q,Q
2023-03-15 15:01:10:833,0,5.5958,-1.78799,0.386716,Q,Q
2023-03-15 15:01:10:843,0,5.594,-1.77347,0.374514,Q,Q
2023-03-15 15:01:10:853,0,5.58808,-1.76308,0.363798,Q,Q
2023-03-15 15:01:10:862,0,5.57994,-1.75699,0.353128,Q,Q
2023-03-15 15:01:10:873,0,5.57113,-1.74921,0.345141,Q,Q
2023-03-15 15:01:10:883,0,5.56659,-1.74494,0.335777,Q,Q
2023-03-15 15:01:10:893,0,5.5632,-1.74573,0.332972,Q,Q
2023-03-15 15:01:10:903,0,5.5571,-1.75003,0.335314,Q,Q
2023-03-15 15:01:10:913,0,5.54985,-1.75969,0.338949,Q,Q
2023-03-15 15:01:10:923,0,5.54544,-1.76905,0.345736,Q,Q
2023-03-15 15:01:10:933,0,5.5429,-1.77659,0.354893,Q,Q
2023-03-15 15:01:10:943,0,5.54625,-1.78558,0.36078,Q,Q
2023-03-15 15:01:10:953,0,5.54819,-1.79635,0.368792,Q,Q
2023-03-15 15:01:10:963,0,5.55325,-1.80308,0.383856,Q,Q
2023-03-15 15:01:10:972,0,5.56128,-1.81074,0.399766,Q,Q
2023-03-15 15:01:10:983,0,5.56829,-1.81573,0.416151,Q,Q
2023-03-15 15:01:10:993,0,5.57666,-1.82177,0.431527,Q,Q
2023-03-15 15:01:11:3,0,5.59053,-1.82614,0.439651,Q,Q
2023-03-15 15:01:11:13,0,5.60188,-1.83147,0.450684,Q,Q
2023-03-15 15:01:11:23,0,5.61313,-1.83564,0.458541,Q,Q
2023-03-15 15:01:11:33,0,5.61999,-1.83729,0.463552,Q,Q
2023-03-15 15:01:11:43,0,5.6184,-1.83692,0.462459,Q,Q
2023-03-15 15:01:11:53,0,5.61083,-1.8355,0.456602,Q,Q
2023-03-15 15:01:11:63,0,5.59869,-1.83445,0.452363,Q,Q
2023-03-15 15:01:11:73,0,5.58371,-1.83188,0.446911,Q,Q
2023-03-15 15:01:11:83,0,5.57627,-1.82694,0.439438,Q,Q
2023-03-15 15:01:11:93,0,5.57034,-1.82647,0.435082,Q,Q
2023-03-15 15:01:11:103,0,5.56745,-1.82495,0.433724,Q,Q
2023-03-15 15:01:11:112,0,5.56459,-1.81352,0.430212,Q,Q
2023-03-15 15:01:11:123,0,5.56032,-1.80037,0.425927,Q,Q
2023-03-15 15:01:11:133,0,5.56244,-1.7881,0.417984,Q,Q
2023-03-15 15:01:11:143,0,5.57275,-1.78153,0.414951,Q,Q
2023-03-15 15:01:11:153,0,5.58562,-1.78099,0.41418,Q,Q
2023-03-15 15:01:11:163,0,5.60068,-1.78382,0.417111,Q,Q
2023-03-15 15:01:11:173,0,5.61625,-1.78532,0.415207,Q,Q
2023-03-15 15:01:11:183,0,5.63263,-1.78191,0.41254,Q,Q
2023-03-15 15:01:11:193,0,5.64277,-1.77816,0.414749,Q,Q
2023-03-15 15:01:11:203,0,5.65141,-1.77353,0.42003,Q,Q
2023-03-15 15:01:11:213,0,5.66263,-1.76943,0.425246,Q,Q
2023-03-15 15:01:11:223,0,5.67156,-1.76937,0.426524,Q,Q
2023-03-15 15:01:11:233,0,5.67526,-1.76659,0.428979,Q,Q
2023-03-15 15:01:11:243,0,5.67284,-1.76255,0.43248,Q,Q
2023-03-15 15:01:11:252,0,5.67443,-1.75989,0.439569,Q,Q
2023-03-15 15:01:11:263,0,5.67538,-1.75829,0.444158,Q,Q
2023-03-15 15:01:11:273,0,5.67044,-1.75817,0.452817,Q,Q
2023-03-15 15:01:11:283,0,5.6688,-1.76236,0.462614,Q,Q
2023-03-15 15:01:11:293,0,5.66279,-1.76939,0.472201,Q,Q
2023-03-15 15:01:11:303,0,5.64883,-1.77614,0.484956,Q,Q
2023-03-15 15:01:11:312,0,5.6368,-1.78567,0.500359,Q,Q
2023-03-15 15:01:11:323,0,5.61873,-1.79514,0.515287,Q,Q
2023-03-15 15:01:11:333,0,5.60708,-1.80237,0.531602,Q,Q
2023-03-15 15:01:11:343,0,5.59347,-1.81167,0.54729,Q,Q
2023-03-15 15:01:11:353,0,5.58099,-1.8205,0.563429,Q,Q
2023-03-15 15:01:11:363,0,5.57117,-1.82528,0.577178,Q,Q
2023-03-15 15:01:11:373,0,5.56196,-1.83345,0.589148,Q,Q
2023-03-15 15:01:11:383,0,5.55571,-1.83658,0.596921,Q,Q
2023-03-15 15:01:11:393,0,5.55645,-1.8414,0.604301,Q,Q
2023-03-15 15:01:11:403,0,5.55334,-1.83909,0.605739,Q,Q
2023-03-15 15:01:11:412,0,5.55778,-1.84103,0.607229,Q,Q
2023-03-15 15:01:11:422,0,5.55664,-1.84057,0.607861,Q,Q
2023-03-15 15:01:11:432,0,5.5513,-1.84055,0.607031,Q,Q
2023-03-15 15:01:11:443,0,5.54605,-1.83834,0.603714,Q,Q
2023-03-15 15:01:11:453,0,5.54494,-1.83892,0.59935,Q,Q
2023-03-15 15:01:11:463,0,5.54327,-1.8364,0.592896,Q,Q
2023-03-15 15:01:11:473,0,5.53948,-1.82984,0.582689,Q,Q
2023-03-15 15:01:11:482,0,5.53947,-1.8195,0.568524,Q,Q
2023-03-15 15:01:11:493,0,5.54196,-1.81283,0.559437,Q,Q
2023-03-15 15:01:11:503,0,5.54318,-1.80932,0.550873,Q,Q
2023-03-15 15:01:11:513,0,5.54296,-1.80857,0.538254,Q,Q
2023-03-15 15:01:11:522,0,5.54705,-1.80897,0.526167,Q,Q
2023-03-15 15:01:11:532,0,5.54757,-1.81386,0.510571,Q,Q
2023-03-15 15:01:11:543,0,5.55176,-1.82015,0.500091,Q,Q
2023-03-15 15:01:11:553,0,5.56359,-1.82559,0.494156,Q,Q
2023-03-15 15:01:11:563,0,5.57393,-1.83218,0.488405,Q,Q
2023-03-15 15:01:11:572,0,5.59019,-1.83727,0.487697,Q,Q
2023-03-15 15:01:11:582,0,5.5996,-1.84378,0.49216,Q,Q
2023-03-15 15:01:11:592,0,5.60701,-1.85431,0.498193,Q,Q
2023-03-15 15:01:11:603,0,5.61452,-1.86387,0.502438,Q,Q
2023-03-15 15:01:11:613,0,5.62017,-1.86481,0.505595,Q,Q
2023-03-15 15:01:11:622,0,5.62356,-1.86602,0.5122,Q,Q
2023-03-15 15:01:11:632,0,5.62733,-1.87033,0.518783,Q,Q
2023-03-15 15:01:11:642,0,5.62431,-1.87057,0.522094,Q,Q
2023-03-15 15:01:11:653,0,5.62687,-1.8747,0.52453,Q,Q
2023-03-15 15:01:11:662,0,5.62534,-1.87907,0.524551,Q,Q
2023-03-15 15:01:11:673,0,5.62192,-1.88293,0.521133,Q,Q
2023-03-15 15:01:11:683,0,5.6259,-1.88564,0.514823,Q,Q
