Timestamp_cmd,imu_cmd,roll_delta,pitch_delta,yaw_delta
2023-03-11 21:23:50:759,0,1.08308,5.42809,105.6
2023-03-11 21:23:50:767,0,1.07638,5.42897,105.594
2023-03-11 21:23:50:777,0,1.07233,5.43277,105.584
2023-03-11 21:23:50:787,0,1.06923,5.4355,105.572
2023-03-11 21:23:50:798,0,1.0691,5.43855,105.557
2023-03-11 21:23:50:808,0,1.07248,5.44286,105.542
2023-03-11 21:23:50:818,0,1.078,5.4546,105.525
2023-03-11 21:23:50:828,0,1.0842,5.46902,105.504
2023-03-11 21:23:50:838,0,1.09316,5.48213,105.48
2023-03-11 21:23:50:848,0,1.09984,5.49324,105.456
2023-03-11 21:23:50:858,0,1.10786,5.504,105.433
2023-03-11 21:23:50:868,0,1.11425,5.51878,105.408
2023-03-11 21:23:50:878,0,1.12148,5.53541,105.382
2023-03-11 21:23:50:888,0,1.12356,5.5592,105.357
2023-03-11 21:23:50:898,0,1.13015,5.5878,105.33
2023-03-11 21:23:50:908,0,1.13614,5.61961,105.303
2023-03-11 21:23:50:918,0,1.14312,5.65614,105.274
2023-03-11 21:23:50:928,0,1.14791,5.69375,105.246
2023-03-11 21:23:50:938,0,1.15394,5.73083,105.218
2023-03-11 21:23:50:948,0,1.15461,5.77283,105.183
2023-03-11 21:23:50:958,0,1.16127,5.81488,105.146
2023-03-11 21:23:50:968,0,1.16948,5.85191,105.11
2023-03-11 21:23:50:978,0,1.17345,5.88907,105.076
2023-03-11 21:23:50:988,0,1.18255,5.92711,105.038
2023-03-11 21:23:50:998,0,1.18438,5.96381,104.999
2023-03-11 21:23:51:8,0,1.1871,5.99773,104.965
2023-03-11 21:23:51:18,0,1.18863,6.0267,104.928
2023-03-11 21:23:51:28,0,1.18476,6.05028,104.894
2023-03-11 21:23:51:38,0,1.18278,6.07729,104.858
2023-03-11 21:23:51:47,0,1.17315,6.10057,104.827
2023-03-11 21:23:51:58,0,1.16083,6.12165,104.797
2023-03-11 21:23:51:68,0,1.15116,6.1406,104.768
2023-03-11 21:23:51:78,0,1.13575,6.15973,104.735
2023-03-11 21:23:51:88,0,1.119,6.17986,104.706
2023-03-11 21:23:51:98,0,1.09905,6.19736,104.679
2023-03-11 21:23:51:107,0,1.08035,6.21081,104.654
2023-03-11 21:23:51:117,0,1.06203,6.22322,104.632
2023-03-11 21:23:51:127,0,1.04257,6.23424,104.611
2023-03-11 21:23:51:137,0,1.02905,6.24213,104.593
2023-03-11 21:23:51:147,0,1.01467,6.2468,104.576
2023-03-11 21:23:51:157,0,0.998499,6.25338,104.564
2023-03-11 21:23:51:167,0,0.981822,6.25727,104.556
2023-03-11 21:23:51:177,0,0.966415,6.26293,104.549
2023-03-11 21:23:51:187,0,0.950969,6.26799,104.54
2023-03-11 21:23:51:197,0,0.939705,6.27346,104.534
2023-03-11 21:23:51:207,0,0.930211,6.27767,104.533
2023-03-11 21:23:51:217,0,0.921079,6.28098,104.533
2023-03-11 21:23:51:227,0,0.913515,6.28111,104.529
2023-03-11 21:23:51:238,0,0.913622,6.28721,104.526
2023-03-11 21:23:51:247,0,0.912486,6.29411,104.519
2023-03-11 21:23:51:257,0,0.910748,6.30248,104.517
2023-03-11 21:23:51:268,0,0.908883,6.31344,104.517
2023-03-11 21:23:51:278,0,0.910008,6.3212,104.516
2023-03-11 21:23:51:287,0,0.911943,6.32898,104.514
2023-03-11 21:23:51:297,0,0.917856,6.33036,104.513
2023-03-11 21:23:51:307,0,0.921229,6.33211,104.516
2023-03-11 21:23:51:317,0,0.918857,6.32997,104.519
2023-03-11 21:23:51:327,0,0.914203,6.32705,104.529
2023-03-11 21:23:51:337,0,0.909081,6.33211,104.538
2023-03-11 21:23:51:347,0,0.903017,6.33745,104.548
2023-03-11 21:23:51:357,0,0.895658,6.34284,104.557
2023-03-11 21:23:51:367,0,0.888224,6.34736,104.564
2023-03-11 21:23:51:377,0,0.879308,6.35433,104.57
2023-03-11 21:23:51:387,0,0.876156,6.36186,104.577
2023-03-11 21:23:51:397,0,0.869495,6.36886,104.582
2023-03-11 21:23:51:407,0,0.86684,6.3734,104.588
2023-03-11 21:23:51:417,0,0.865433,6.37725,104.59
2023-03-11 21:23:51:427,0,0.864419,6.37959,104.59
2023-03-11 21:23:51:437,0,0.867603,6.38757,104.592
2023-03-11 21:23:51:447,0,0.870239,6.39455,104.589
2023-03-11 21:23:51:457,0,0.872542,6.40252,104.581
2023-03-11 21:23:51:467,0,0.871852,6.41004,104.575
2023-03-11 21:23:51:478,0,0.873499,6.41656,104.566
2023-03-11 21:23:51:487,0,0.869767,6.42558,104.556
2023-03-11 21:23:51:498,0,0.864883,6.43335,104.544
2023-03-11 21:23:51:507,0,0.85843,6.4413,104.531
2023-03-11 21:23:51:518,0,0.853299,6.45023,104.513
2023-03-11 21:23:51:527,0,0.852391,6.45663,104.494
2023-03-11 21:23:51:537,0,0.846949,6.46203,104.476
2023-03-11 21:23:51:547,0,0.839939,6.4658,104.457
2023-03-11 21:23:51:558,0,0.833007,6.46432,104.441
2023-03-11 21:23:51:567,0,0.823197,6.46423,104.429
2023-03-11 21:23:51:577,0,0.817229,6.46742,104.413
2023-03-11 21:23:51:587,0,0.81091,6.46852,104.401
2023-03-11 21:23:51:597,0,0.803916,6.46982,104.39
2023-03-11 21:23:51:608,0,0.796413,6.46722,104.382
2023-03-11 21:23:51:617,0,0.791873,6.47164,104.375
2023-03-11 21:23:51:627,0,0.792857,6.47134,104.368
2023-03-11 21:23:51:637,0,0.790983,6.47703,104.362
2023-03-11 21:23:51:647,0,0.792895,6.48236,104.362
2023-03-11 21:23:51:657,0,0.796649,6.48823,104.359
2023-03-11 21:23:51:667,0,0.798157,6.49252,104.358
2023-03-11 21:23:51:678,0,0.798981,6.50037,104.357
2023-03-11 21:23:51:687,0,0.800312,6.50644,104.351
2023-03-11 21:23:51:697,0,0.798027,6.51247,104.345
2023-03-11 21:23:51:707,0,0.797909,6.51702,104.338
2023-03-11 21:23:51:718,0,0.797998,6.5221,104.331
2023-03-11 21:23:51:728,0,0.800181,6.52542,104.327
2023-03-11 21:23:51:738,0,0.798556,6.53366,104.32
2023-03-11 21:23:51:748,0,0.7914,6.53993,104.317
2023-03-11 21:23:51:758,0,0.785721,6.54687,104.309
2023-03-11 21:23:51:768,0,0.786294,6.55176,104.304
2023-03-11 21:23:51:778,0,0.78509,6.55932,104.3
2023-03-11 21:23:51:788,0,0.782069,6.56643,104.296
2023-03-11 21:23:51:798,0,0.775341,6.57747,104.291
2023-03-11 21:23:51:808,0,0.764675,6.5897,104.283
2023-03-11 21:23:51:818,0,0.754902,6.60123,104.275
2023-03-11 21:23:51:828,0,0.741027,6.60899,104.266
2023-03-11 21:23:51:838,0,0.72241,6.62019,104.252
2023-03-11 21:23:51:848,0,0.698289,6.63234,104.239
2023-03-11 21:23:51:858,0,0.669405,6.64456,104.22
2023-03-11 21:23:51:868,0,0.637684,6.65553,104.199
2023-03-11 21:23:51:878,0,0.596155,6.66841,104.175
2023-03-11 21:23:51:888,0,0.553982,6.67944,104.15
2023-03-11 21:23:51:898,0,0.507955,6.69493,104.122
2023-03-11 21:23:51:908,0,0.452127,6.70683,104.085
2023-03-11 21:23:51:918,0,0.390918,6.71793,104.043
2023-03-11 21:23:51:928,0,0.322007,6.72422,104.002
2023-03-11 21:23:51:938,0,0.244894,6.73448,103.958
2023-03-11 21:23:51:948,0,0.162213,6.73814,103.91
2023-03-11 21:23:51:958,0,0.073267,6.73736,103.857
2023-03-11 21:23:51:968,0,-0.01316,6.72791,103.811
2023-03-11 21:23:51:978,0,-0.0988165,6.7112,103.761
2023-03-11 21:23:51:988,0,-0.184803,6.69149,103.707
2023-03-11 21:23:51:998,0,-0.273846,6.66762,103.653
2023-03-11 21:23:52:8,0,-0.368374,6.64358,103.603
2023-03-11 21:23:52:18,0,-0.467095,6.61631,103.549
2023-03-11 21:23:52:28,0,-0.564717,6.58815,103.498
2023-03-11 21:23:52:38,0,-0.650062,6.5562,103.454
2023-03-11 21:23:52:48,0,-0.704633,6.5253,103.413
2023-03-11 21:23:52:58,0,-0.732723,6.49111,103.377
2023-03-11 21:23:52:68,0,-0.733407,6.45112,103.355
2023-03-11 21:23:52:78,0,-0.717513,6.401,103.346
2023-03-11 21:23:52:88,0,-0.68547,6.34026,103.347
2023-03-11 21:23:52:98,0,-0.647597,6.26916,103.367
2023-03-11 21:23:52:108,0,-0.603444,6.19062,103.406
2023-03-11 21:23:52:118,0,-0.554926,6.103,103.458
2023-03-11 21:23:52:128,0,-0.506894,6.02026,103.521
2023-03-11 21:23:52:137,0,-0.457037,5.93374,103.593
2023-03-11 21:23:52:148,0,-0.404398,5.85116,103.672
2023-03-11 21:23:52:157,0,-0.351563,5.77263,103.754
2023-03-11 21:23:52:167,0,-0.311279,5.70225,103.842
2023-03-11 21:23:52:178,0,-0.277603,5.63571,103.931
2023-03-11 21:23:52:188,0,-0.250611,5.57399,104.026
2023-03-11 21:23:52:198,0,-0.233408,5.51943,104.119
2023-03-11 21:23:52:207,0,-0.227802,5.46592,104.22
2023-03-11 21:23:52:217,0,-0.231863,5.40867,104.325
2023-03-11 21:23:52:227,0,-0.234772,5.34701,104.44
2023-03-11 21:23:52:238,0,-0.234468,5.28668,104.56
2023-03-11 21:23:52:248,0,-0.218786,5.23178,104.686
2023-03-11 21:23:52:258,0,-0.197705,5.19098,104.824
2023-03-11 21:23:52:268,0,-0.163819,5.16286,104.975
2023-03-11 21:23:52:278,0,-0.114935,5.14884,105.131
2023-03-11 21:23:52:288,0,-0.0438044,5.1509,105.292
2023-03-11 21:23:52:298,0,0.0471831,5.17726,105.463
2023-03-11 21:23:52:308,0,0.157811,5.22229,105.64
2023-03-11 21:23:52:318,0,0.286073,5.28314,105.825
2023-03-11 21:23:52:328,0,0.433294,5.35062,106.019
2023-03-11 21:23:52:338,0,0.59172,5.4315,106.223
2023-03-11 21:23:52:348,0,0.747204,5.51902,106.432
2023-03-11 21:23:52:358,0,0.888098,5.60793,106.64
2023-03-11 21:23:52:368,0,1.00828,5.69543,106.845
2023-03-11 21:23:52:378,0,1.10975,5.78802,107.044
2023-03-11 21:23:52:388,0,1.19059,5.87305,107.236
2023-03-11 21:23:52:398,0,1.25639,5.95152,107.42
2023-03-11 21:23:52:408,0,1.31186,6.0292,107.597
2023-03-11 21:23:52:418,0,1.35197,6.10486,107.76
2023-03-11 21:23:52:428,0,1.37847,6.17653,107.905
2023-03-11 21:23:52:438,0,1.39527,6.24215,108.039
2023-03-11 21:23:52:448,0,1.39924,6.3031,108.149
2023-03-11 21:23:52:458,0,1.39482,6.35698,108.244
2023-03-11 21:23:52:468,0,1.38312,6.39969,108.317
2023-03-11 21:23:52:478,0,1.366,6.43548,108.37
2023-03-11 21:23:52:488,0,1.34175,6.45915,108.405
2023-03-11 21:23:52:498,0,1.31065,6.47692,108.417
2023-03-11 21:23:52:508,0,1.27887,6.4816,108.409
2023-03-11 21:23:52:518,0,1.24655,6.47785,108.378
2023-03-11 21:23:52:528,0,1.21508,6.47274,108.332
2023-03-11 21:23:52:538,0,1.18168,6.46798,108.269
2023-03-11 21:23:52:548,0,1.14638,6.46563,108.196
2023-03-11 21:23:52:558,0,1.11086,6.45922,108.114
2023-03-11 21:23:52:568,0,1.07832,6.45462,108.028
2023-03-11 21:23:52:578,0,1.04523,6.44955,107.932
2023-03-11 21:23:52:588,0,1.01863,6.44848,107.834
2023-03-11 21:23:52:598,0,0.993935,6.45138,107.735
2023-03-11 21:23:52:608,0,0.975011,6.45684,107.64
2023-03-11 21:23:52:618,0,0.965887,6.46109,107.545
2023-03-11 21:23:52:628,0,0.956891,6.46637,107.452
2023-03-11 21:23:52:638,0,0.955114,6.46912,107.365
2023-03-11 21:23:52:648,0,0.955677,6.46774,107.281
2023-03-11 21:23:52:657,0,0.967554,6.46554,107.196
2023-03-11 21:23:52:668,0,0.986537,6.46542,107.119
2023-03-11 21:23:52:678,0,1.00831,6.45886,107.052
2023-03-11 21:23:52:688,0,1.02902,6.44712,106.992
2023-03-11 21:23:52:698,0,1.05029,6.42952,106.943
2023-03-11 21:23:52:708,0,1.06888,6.40899,106.901
2023-03-11 21:23:52:718,0,1.08994,6.39315,106.865
2023-03-11 21:23:52:728,0,1.11115,6.38124,106.833
2023-03-11 21:23:52:738,0,1.13426,6.37629,106.807
2023-03-11 21:23:52:748,0,1.15664,6.37498,106.782
2023-03-11 21:23:52:758,0,1.18366,6.37986,106.757
2023-03-11 21:23:52:768,0,1.20908,6.38296,106.731
2023-03-11 21:23:52:778,0,1.24165,6.38354,106.705
2023-03-11 21:23:52:788,0,1.27572,6.38019,106.679
2023-03-11 21:23:52:798,0,1.30819,6.37478,106.651
2023-03-11 21:23:52:808,0,1.34366,6.36647,106.624
2023-03-11 21:23:52:818,0,1.37738,6.36061,106.595
2023-03-11 21:23:52:828,0,1.40796,6.35962,106.564
2023-03-11 21:23:52:838,0,1.43797,6.36195,106.534
2023-03-11 21:23:52:848,0,1.46821,6.36378,106.509
2023-03-11 21:23:52:858,0,1.49325,6.37071,106.485
2023-03-11 21:23:52:868,0,1.52009,6.37414,106.464
2023-03-11 21:23:52:878,0,1.54501,6.37702,106.445
2023-03-11 21:23:52:888,0,1.57051,6.38393,106.434
2023-03-11 21:23:52:898,0,1.59632,6.38997,106.427
2023-03-11 21:23:52:908,0,1.62008,6.39206,106.425
2023-03-11 21:23:52:918,0,1.64121,6.38557,106.43
2023-03-11 21:23:52:928,0,1.66097,6.37561,106.441
2023-03-11 21:23:52:938,0,1.68307,6.36755,106.46
2023-03-11 21:23:52:948,0,1.70249,6.36024,106.487
2023-03-11 21:23:52:958,0,1.72019,6.34904,106.522
2023-03-11 21:23:52:968,0,1.7355,6.34197,106.559
2023-03-11 21:23:52:978,0,1.75191,6.34321,106.601
2023-03-11 21:23:52:988,0,1.77383,6.34237,106.644
2023-03-11 21:23:52:998,0,1.79666,6.34467,106.688
2023-03-11 21:23:53:8,0,1.81688,6.34645,106.739
2023-03-11 21:23:53:18,0,1.8335,6.33763,106.793
2023-03-11 21:23:53:28,0,1.85348,6.3226,106.852
2023-03-11 21:23:53:38,0,1.87354,6.30409,106.912
2023-03-11 21:23:53:48,0,1.89482,6.27859,106.975
2023-03-11 21:23:53:58,0,1.9184,6.25403,107.037
2023-03-11 21:23:53:68,0,1.9478,6.2275,107.105
2023-03-11 21:23:53:78,0,1.97557,6.19607,107.176
2023-03-11 21:23:53:88,0,2.00434,6.16513,107.25
2023-03-11 21:23:53:98,0,2.02873,6.13247,107.328
2023-03-11 21:23:53:108,0,2.04639,6.10039,107.404
2023-03-11 21:23:53:118,0,2.05675,6.06656,107.484
2023-03-11 21:23:53:128,0,2.05913,6.03509,107.566
2023-03-11 21:23:53:138,0,2.05712,6.01081,107.645
2023-03-11 21:23:53:148,0,2.05251,5.98866,107.725
2023-03-11 21:23:53:158,0,2.0498,5.97294,107.805
2023-03-11 21:23:53:167,0,2.04804,5.96144,107.884
2023-03-11 21:23:53:178,0,2.04808,5.95186,107.96
2023-03-11 21:23:53:187,0,2.04677,5.94942,108.032
2023-03-11 21:23:53:198,0,2.05047,5.95355,108.105
2023-03-11 21:23:53:208,0,2.05687,5.96653,108.173
2023-03-11 21:23:53:218,0,2.06126,5.99069,108.236
2023-03-11 21:23:53:228,0,2.07107,6.0209,108.294
2023-03-11 21:23:53:238,0,2.08191,6.06236,108.346
2023-03-11 21:23:53:248,0,2.09309,6.11366,108.389
2023-03-11 21:23:53:258,0,2.10581,6.17336,108.424
2023-03-11 21:23:53:268,0,2.12121,6.24015,108.451
2023-03-11 21:23:53:278,0,2.13288,6.31296,108.462
2023-03-11 21:23:53:288,0,2.14267,6.38762,108.461
2023-03-11 21:23:53:298,0,2.15236,6.46647,108.456
2023-03-11 21:23:53:308,0,2.16165,6.54938,108.432
2023-03-11 21:23:53:318,0,2.17109,6.63378,108.4
2023-03-11 21:23:53:328,0,2.17358,6.7251,108.355
2023-03-11 21:23:53:338,0,2.17426,6.81512,108.295
2023-03-11 21:23:53:348,0,2.1744,6.904,108.233
2023-03-11 21:23:53:358,0,2.17228,6.98805,108.166
2023-03-11 21:23:53:368,0,2.16484,7.05793,108.097
2023-03-11 21:23:53:378,0,2.14915,7.11762,108.024
2023-03-11 21:23:53:388,0,2.12431,7.16655,107.947
2023-03-11 21:23:53:398,0,2.09937,7.20459,107.869
2023-03-11 21:23:53:407,0,2.07422,7.23173,107.791
2023-03-11 21:23:53:418,0,2.04829,7.24524,107.707
2023-03-11 21:23:53:428,0,2.02509,7.25125,107.626
2023-03-11 21:23:53:438,0,2.00334,7.24671,107.545
2023-03-11 21:23:53:448,0,1.98835,7.23674,107.467
2023-03-11 21:23:53:458,0,1.98072,7.22236,107.388
2023-03-11 21:23:53:468,0,1.97707,7.2045,107.316
2023-03-11 21:23:53:478,0,1.98325,7.18085,107.247
2023-03-11 21:23:53:488,0,1.99418,7.15365,107.186
2023-03-11 21:23:53:498,0,2.00732,7.12035,107.126
2023-03-11 21:23:53:508,0,2.02667,7.08836,107.077
2023-03-11 21:23:53:518,0,2.05103,7.06051,107.032
2023-03-11 21:23:53:528,0,2.06637,7.03394,106.992
2023-03-11 21:23:53:538,0,2.08251,7.00427,106.957
2023-03-11 21:23:53:548,0,2.10055,6.97145,106.932
2023-03-11 21:23:53:558,0,2.10674,6.94327,106.914
2023-03-11 21:23:53:568,0,2.10992,6.91147,106.897
2023-03-11 21:23:53:578,0,2.11336,6.87646,106.885
2023-03-11 21:23:53:588,0,2.11683,6.83472,106.878
2023-03-11 21:23:53:598,0,2.12461,6.78813,106.873
2023-03-11 21:23:53:608,0,2.12913,6.73435,106.871
2023-03-11 21:23:53:618,0,2.13384,6.67304,106.877
2023-03-11 21:23:53:628,0,2.14154,6.60654,106.887
2023-03-11 21:23:53:638,0,2.15029,6.53345,106.899
2023-03-11 21:23:53:648,0,2.16447,6.46168,106.908
2023-03-11 21:23:53:658,0,2.18958,6.39145,106.919
2023-03-11 21:23:53:668,0,2.2153,6.32374,106.93
2023-03-11 21:23:53:678,0,2.24755,6.25762,106.942
2023-03-11 21:23:53:688,0,2.27977,6.19621,106.956
2023-03-11 21:23:53:698,0,2.31024,6.13954,106.965
2023-03-11 21:23:53:708,0,2.33774,6.0912,106.972
2023-03-11 21:23:53:718,0,2.35618,6.05115,106.978
2023-03-11 21:23:53:728,0,2.3736,6.01465,106.98
2023-03-11 21:23:53:738,0,2.38297,5.97636,106.977
2023-03-11 21:23:53:748,0,2.38366,5.94198,106.974
2023-03-11 21:23:53:758,0,2.38704,5.91327,106.972
2023-03-11 21:23:53:768,0,2.3986,5.8884,106.971
2023-03-11 21:23:53:778,0,2.42933,5.86955,106.964
2023-03-11 21:23:53:788,0,2.46959,5.85604,106.961
2023-03-11 21:23:53:798,0,2.53113,5.84422,106.955
2023-03-11 21:23:53:808,0,2.59592,5.8323,106.947
2023-03-11 21:23:53:818,0,2.64677,5.81879,106.933
2023-03-11 21:23:53:828,0,2.68263,5.80504,106.92
2023-03-11 21:23:53:838,0,2.71508,5.79282,106.906
2023-03-11 21:23:53:848,0,2.74107,5.78393,106.879
2023-03-11 21:23:53:858,0,2.75687,5.77798,106.843
2023-03-11 21:23:53:868,0,2.75921,5.7697,106.795
2023-03-11 21:23:53:878,0,2.75075,5.75957,106.727
2023-03-11 21:23:53:888,0,2.72948,5.74821,106.65
2023-03-11 21:23:53:898,0,2.70414,5.74121,106.559
2023-03-11 21:23:53:908,0,2.68395,5.73451,106.455
2023-03-11 21:23:53:918,0,2.67577,5.73202,106.343
2023-03-11 21:23:53:928,0,2.67346,5.73885,106.218
2023-03-11 21:23:53:938,0,2.67109,5.75184,106.082
2023-03-11 21:23:53:948,0,2.66058,5.76807,105.941
2023-03-11 21:23:53:958,0,2.63297,5.78231,105.801
2023-03-11 21:23:53:968,0,2.59518,5.79267,105.661
2023-03-11 21:23:53:978,0,2.54022,5.80131,105.521
2023-03-11 21:23:53:988,0,2.47265,5.80832,105.376
2023-03-11 21:23:53:998,0,2.41016,5.80736,105.237
2023-03-11 21:23:54:8,0,2.34846,5.79953,105.098
2023-03-11 21:23:54:18,0,2.30159,5.79257,104.959
2023-03-11 21:23:54:28,0,2.26883,5.7878,104.827
2023-03-11 21:23:54:38,0,2.2453,5.77816,104.699
2023-03-11 21:23:54:48,0,2.22565,5.7701,104.583
2023-03-11 21:23:54:58,0,2.21015,5.76004,104.472
2023-03-11 21:23:54:68,0,2.1914,5.75424,104.368
2023-03-11 21:23:54:78,0,2.16943,5.74898,104.27
2023-03-11 21:23:54:88,0,2.13905,5.74326,104.172
2023-03-11 21:23:54:98,0,2.11372,5.74335,104.073
2023-03-11 21:23:54:108,0,2.08737,5.75069,103.973
2023-03-11 21:23:54:118,0,2.06094,5.76182,103.872
2023-03-11 21:23:54:128,0,2.03588,5.7691,103.766
2023-03-11 21:23:54:138,0,2.01328,5.77776,103.653
2023-03-11 21:23:54:148,0,1.99284,5.78685,103.54
2023-03-11 21:23:54:158,0,1.96924,5.80063,103.423
2023-03-11 21:23:54:168,0,1.94697,5.81471,103.299
2023-03-11 21:23:54:178,0,1.92058,5.8288,103.173
2023-03-11 21:23:54:188,0,1.89464,5.84159,103.04
2023-03-11 21:23:54:197,0,1.86939,5.85544,102.907
2023-03-11 21:23:54:208,0,1.83874,5.86803,102.766
2023-03-11 21:23:54:218,0,1.80773,5.87997,102.623
2023-03-11 21:23:54:228,0,1.78134,5.89217,102.472
2023-03-11 21:23:54:238,0,1.76099,5.90302,102.313
2023-03-11 21:23:54:248,0,1.74152,5.91251,102.151
2023-03-11 21:23:54:258,0,1.7207,5.92355,101.981
2023-03-11 21:23:54:268,0,1.70285,5.93223,101.801
2023-03-11 21:23:54:278,0,1.68173,5.93768,101.614
2023-03-11 21:23:54:288,0,1.65406,5.93916,101.418
2023-03-11 21:23:54:298,0,1.62051,5.93663,101.218
2023-03-11 21:23:54:308,0,1.5829,5.92987,101.007
2023-03-11 21:23:54:318,0,1.54107,5.92126,100.791
2023-03-11 21:23:54:328,0,1.49147,5.90949,100.57
2023-03-11 21:23:54:338,0,1.43718,5.89473,100.345
2023-03-11 21:23:54:348,0,1.37654,5.87744,100.114
2023-03-11 21:23:54:358,0,1.31697,5.85973,99.8835
2023-03-11 21:23:54:368,0,1.25369,5.84061,99.6443
2023-03-11 21:23:54:378,0,1.19372,5.82404,99.3996
2023-03-11 21:23:54:388,0,1.13327,5.80496,99.1528
2023-03-11 21:23:54:398,0,1.07551,5.78293,98.9024
2023-03-11 21:23:54:408,0,1.01881,5.76054,98.6572
2023-03-11 21:23:54:418,0,0.960728,5.7369,98.4122
2023-03-11 21:23:54:428,0,0.903955,5.70884,98.173
2023-03-11 21:23:54:438,0,0.85401,5.67894,97.9406
2023-03-11 21:23:54:448,0,0.806974,5.64409,97.7125
2023-03-11 21:23:54:458,0,0.760639,5.60784,97.4945
2023-03-11 21:23:54:468,0,0.706266,5.56682,97.282
2023-03-11 21:23:54:478,0,0.651844,5.52302,97.076
2023-03-11 21:23:54:488,0,0.595596,5.47419,96.8709
2023-03-11 21:23:54:498,0,0.543091,5.42338,96.6765
2023-03-11 21:23:54:508,0,0.489531,5.37112,96.4835
2023-03-11 21:23:54:518,0,0.437065,5.31659,96.2958
2023-03-11 21:23:54:528,0,0.380851,5.25743,96.1046
2023-03-11 21:23:54:538,0,0.320963,5.19455,95.9181
2023-03-11 21:23:54:548,0,0.249017,5.13482,95.7314
2023-03-11 21:23:54:558,0,0.168262,5.06636,95.5472
2023-03-11 21:23:54:568,0,0.0797333,4.99175,95.3725
2023-03-11 21:23:54:578,0,-0.0178023,4.91346,95.1975
2023-03-11 21:23:54:588,0,-0.119989,4.83491,95.0305
2023-03-11 21:23:54:598,0,-0.225526,4.75223,94.8692
2023-03-11 21:23:54:608,0,-0.327697,4.66998,94.7122
2023-03-11 21:23:54:618,0,-0.422104,4.59295,94.5625
2023-03-11 21:23:54:628,0,-0.5102,4.5205,94.4194
2023-03-11 21:23:54:638,0,-0.591021,4.45358,94.285
2023-03-11 21:23:54:648,0,-0.659856,4.38857,94.1571
2023-03-11 21:23:54:658,0,-0.723223,4.32228,94.0303
2023-03-11 21:23:54:668,0,-0.777864,4.26172,93.9099
2023-03-11 21:23:54:678,0,-0.825123,4.19758,93.7898
2023-03-11 21:23:54:688,0,-0.863176,4.13582,93.6761
2023-03-11 21:23:54:698,0,-0.898999,4.06951,93.5703
2023-03-11 21:23:54:708,0,-0.929903,3.9998,93.4647
2023-03-11 21:23:54:718,0,-0.961322,3.92359,93.3612
2023-03-11 21:23:54:728,0,-0.99182,3.84819,93.2575
2023-03-11 21:23:54:738,0,-1.02096,3.77198,93.1557
2023-03-11 21:23:54:748,0,-1.05304,3.699,93.0535
2023-03-11 21:23:54:758,0,-1.08535,3.62482,92.9531
2023-03-11 21:23:54:768,0,-1.11782,3.54682,92.8459
2023-03-11 21:23:54:778,0,-1.14695,3.46354,92.7342
2023-03-11 21:23:54:788,0,-1.16846,3.38294,92.6216
2023-03-11 21:23:54:798,0,-1.18436,3.30248,92.5068
2023-03-11 21:23:54:808,0,-1.19627,3.21739,92.3895
2023-03-11 21:23:54:818,0,-1.20073,3.13524,92.2683
2023-03-11 21:23:54:828,0,-1.19363,3.05166,92.1481
2023-03-11 21:23:54:838,0,-1.17221,2.96785,92.027
2023-03-11 21:23:54:848,0,-1.14441,2.88843,91.9056
2023-03-11 21:23:54:858,0,-1.10352,2.81206,91.7845
2023-03-11 21:23:54:868,0,-1.05854,2.74413,91.6731
2023-03-11 21:23:54:878,0,-1.00532,2.68236,91.5679
2023-03-11 21:23:54:888,0,-0.947984,2.62953,91.4727
2023-03-11 21:23:54:898,0,-0.886067,2.58643,91.3892
2023-03-11 21:23:54:907,0,-0.819758,2.55714,91.3194
2023-03-11 21:23:54:918,0,-0.751516,2.53342,91.2656
2023-03-11 21:23:54:928,0,-0.683705,2.5145,91.2252
2023-03-11 21:23:54:938,0,-0.621513,2.50071,91.2028
2023-03-11 21:23:54:948,0,-0.56195,2.49074,91.2009
2023-03-11 21:23:54:958,0,-0.5055,2.48362,91.213
2023-03-11 21:23:54:968,0,-0.452656,2.47835,91.2484
2023-03-11 21:23:54:978,0,-0.404093,2.4758,91.299
2023-03-11 21:23:54:988,0,-0.358585,2.47383,91.3623
2023-03-11 21:23:54:998,0,-0.313032,2.46891,91.4346
2023-03-11 21:23:55:8,0,-0.269642,2.46605,91.5203
2023-03-11 21:23:55:18,0,-0.231386,2.45812,91.6124
2023-03-11 21:23:55:28,0,-0.195111,2.44905,91.7098
2023-03-11 21:23:55:38,0,-0.165001,2.44515,91.8112
2023-03-11 21:23:55:48,0,-0.136623,2.44057,91.9138
2023-03-11 21:23:55:58,0,-0.111443,2.43433,92.0136
2023-03-11 21:23:55:68,0,-0.0886746,2.43055,92.1175
2023-03-11 21:23:55:78,0,-0.0652395,2.42811,92.2194
2023-03-11 21:23:55:88,0,-0.0460238,2.42628,92.3208
2023-03-11 21:23:55:98,0,-0.0286608,2.42887,92.4202
2023-03-11 21:23:55:107,0,-0.0122699,2.43165,92.5165
2023-03-11 21:23:55:118,0,-0.000654146,2.43623,92.6122
2023-03-11 21:23:55:128,0,0.00712513,2.44313,92.7074
2023-03-11 21:23:55:138,0,0.015795,2.45231,92.8012
2023-03-11 21:23:55:148,0,0.0240733,2.46636,92.8948
2023-03-11 21:23:55:158,0,0.0359388,2.47889,92.9843
2023-03-11 21:23:55:168,0,0.0457239,2.49295,93.0736
2023-03-11 21:23:55:178,0,0.0522265,2.50789,93.1589
2023-03-11 21:23:55:188,0,0.0559552,2.52221,93.2438
2023-03-11 21:23:55:198,0,0.0577843,2.53018,93.3322
2023-03-11 21:23:55:208,0,0.0603487,2.53477,93.4143
2023-03-11 21:23:55:218,0,0.0582574,2.53986,93.4987
2023-03-11 21:23:55:228,0,0.0561951,2.5409,93.5769
2023-03-11 21:23:55:238,0,0.0478456,2.54231,93.6529
2023-03-11 21:23:55:248,0,0.0331273,2.54533,93.7213
2023-03-11 21:23:55:258,0,0.0122807,2.54619,93.7931
2023-03-11 21:23:55:268,0,-0.00968082,2.54901,93.8581
2023-03-11 21:23:55:278,0,-0.0331386,2.54858,93.9222
2023-03-11 21:23:55:288,0,-0.0629141,2.546,93.9868
2023-03-11 21:23:55:298,0,-0.0965763,2.54275,94.0463
2023-03-11 21:23:55:308,0,-0.131567,2.53523,94.0975
2023-03-11 21:23:55:318,0,-0.161035,2.52681,94.1452
2023-03-11 21:23:55:328,0,-0.192194,2.51559,94.185
2023-03-11 21:23:55:338,0,-0.224788,2.49965,94.2202
2023-03-11 21:23:55:348,0,-0.259618,2.48263,94.2558
2023-03-11 21:23:55:358,0,-0.296128,2.45883,94.2876
2023-03-11 21:23:55:368,0,-0.335323,2.43199,94.3135
2023-03-11 21:23:55:378,0,-0.378062,2.40337,94.3401
2023-03-11 21:23:55:388,0,-0.417973,2.36935,94.3625
2023-03-11 21:23:55:398,0,-0.460982,2.33134,94.3825
2023-03-11 21:23:55:408,0,-0.508272,2.29388,94.4054
2023-03-11 21:23:55:418,0,-0.549341,2.2523,94.4315
2023-03-11 21:23:55:428,0,-0.591909,2.21268,94.4542
2023-03-11 21:23:55:438,0,-0.627992,2.17165,94.4795
2023-03-11 21:23:55:448,0,-0.665109,2.13337,94.5097
2023-03-11 21:23:55:458,0,-0.700133,2.0957,94.5423
2023-03-11 21:23:55:468,0,-0.727637,2.06002,94.5775
2023-03-11 21:23:55:478,0,-0.754155,2.02642,94.6128
2023-03-11 21:23:55:488,0,-0.775698,1.9949,94.6536
2023-03-11 21:23:55:498,0,-0.793737,1.97119,94.6926
2023-03-11 21:23:55:508,0,-0.807013,1.94679,94.7349
2023-03-11 21:23:55:518,0,-0.817618,1.92323,94.7829
2023-03-11 21:23:55:528,0,-0.826274,1.9013,94.837
2023-03-11 21:23:55:538,0,-0.833592,1.88192,94.8933
2023-03-11 21:23:55:548,0,-0.835723,1.86525,94.9542
2023-03-11 21:23:55:558,0,-0.83594,1.8497,95.0121
2023-03-11 21:23:55:568,0,-0.83739,1.83539,95.0794
2023-03-11 21:23:55:578,0,-0.832978,1.81672,95.1484
2023-03-11 21:23:55:588,0,-0.824264,1.80079,95.2205
2023-03-11 21:23:55:598,0,-0.813922,1.78675,95.2963
2023-03-11 21:23:55:608,0,-0.800273,1.77376,95.3755
2023-03-11 21:23:55:618,0,-0.781757,1.76389,95.4547
2023-03-11 21:23:55:628,0,-0.760259,1.75805,95.5363
2023-03-11 21:23:55:638,0,-0.741899,1.75171,95.6161
2023-03-11 21:23:55:648,0,-0.717957,1.74899,95.6984
2023-03-11 21:23:55:658,0,-0.695026,1.74687,95.7769
2023-03-11 21:23:55:668,0,-0.674849,1.74711,95.8551
2023-03-11 21:23:55:678,0,-0.655224,1.74803,95.9312
2023-03-11 21:23:55:688,0,-0.641237,1.74539,96.0025
2023-03-11 21:23:55:698,0,-0.629772,1.74248,96.0732
2023-03-11 21:23:55:708,0,-0.624229,1.73512,96.1379
2023-03-11 21:23:55:718,0,-0.616277,1.73129,96.2033
2023-03-11 21:23:55:728,0,-0.61273,1.72491,96.2633
2023-03-11 21:23:55:738,0,-0.611411,1.71891,96.3191
2023-03-11 21:23:55:747,0,-0.616961,1.70794,96.3691
2023-03-11 21:23:55:758,0,-0.623382,1.69732,96.4174
2023-03-11 21:23:55:767,0,-0.636168,1.68274,96.461
2023-03-11 21:23:55:778,0,-0.650002,1.67039,96.5032
2023-03-11 21:23:55:788,0,-0.668242,1.65806,96.5407
2023-03-11 21:23:55:798,0,-0.686432,1.65059,96.572
2023-03-11 21:23:55:808,0,-0.707287,1.6436,96.5966
2023-03-11 21:23:55:818,0,-0.731146,1.6345,96.6191
2023-03-11 21:23:55:828,0,-0.754232,1.62632,96.639
2023-03-11 21:23:55:838,0,-0.781005,1.61887,96.6509
2023-03-11 21:23:55:848,0,-0.805847,1.61516,96.662
2023-03-11 21:23:55:858,0,-0.837015,1.61026,96.6671
2023-03-11 21:23:55:868,0,-0.870253,1.60731,96.6715
2023-03-11 21:23:55:878,0,-0.909507,1.60883,96.6682
2023-03-11 21:23:55:888,0,-0.94805,1.61255,96.6639
2023-03-11 21:23:55:898,0,-0.98785,1.61159,96.6505
2023-03-11 21:23:55:908,0,-1.0256,1.61456,96.6357
2023-03-11 21:23:55:918,0,-1.06088,1.62112,96.6165
2023-03-11 21:23:55:928,0,-1.09602,1.62599,96.5907
2023-03-11 21:23:55:938,0,-1.12974,1.63236,96.5597
2023-03-11 21:23:55:948,0,-1.15936,1.63678,96.5247
2023-03-11 21:23:55:958,0,-1.18714,1.64177,96.4856
2023-03-11 21:23:55:968,0,-1.21221,1.64843,96.4413
2023-03-11 21:23:55:978,0,-1.23499,1.65142,96.3936
2023-03-11 21:23:55:988,0,-1.2572,1.65109,96.3446
2023-03-11 21:23:55:998,0,-1.27647,1.64587,96.3008
2023-03-11 21:23:56:8,0,-1.29501,1.63774,96.2536
2023-03-11 21:23:56:18,0,-1.31742,1.63154,96.2055
2023-03-11 21:23:56:28,0,-1.34222,1.62188,96.1593
2023-03-11 21:23:56:38,0,-1.36923,1.61464,96.1106
2023-03-11 21:23:56:48,0,-1.39893,1.60724,96.0588
2023-03-11 21:23:56:58,0,-1.42305,1.59716,96.0029
2023-03-11 21:23:56:68,0,-1.44884,1.58286,95.9471
2023-03-11 21:23:56:78,0,-1.46836,1.56573,95.8826
2023-03-11 21:23:56:88,0,-1.4883,1.54854,95.813
2023-03-11 21:23:56:98,0,-1.50543,1.52487,95.7337
2023-03-11 21:23:56:108,0,-1.52242,1.50216,95.6431
2023-03-11 21:23:56:118,0,-1.54005,1.47789,95.5417
2023-03-11 21:23:56:128,0,-1.55871,1.44993,95.4316
2023-03-11 21:23:56:138,0,-1.58043,1.42426,95.3102
2023-03-11 21:23:56:148,0,-1.60323,1.39121,95.1817
2023-03-11 21:23:56:158,0,-1.62659,1.35672,95.045
2023-03-11 21:23:56:168,0,-1.65431,1.31994,94.8999
2023-03-11 21:23:56:178,0,-1.69078,1.28211,94.7471
2023-03-11 21:23:56:188,0,-1.73024,1.24032,94.5899
2023-03-11 21:23:56:198,0,-1.77689,1.19365,94.4282
2023-03-11 21:23:56:208,0,-1.82501,1.14401,94.2537
2023-03-11 21:23:56:218,0,-1.87555,1.0911,94.0726
2023-03-11 21:23:56:228,0,-1.93224,1.03076,93.888
2023-03-11 21:23:56:238,0,-1.98617,0.960747,93.6996
2023-03-11 21:23:56:248,0,-2.04675,0.88064,93.5097
2023-03-11 21:23:56:257,0,-2.11381,0.790869,93.3168
2023-03-11 21:23:56:268,0,-2.18372,0.693935,93.1214
2023-03-11 21:23:56:278,0,-2.2549,0.584452,92.9219
2023-03-11 21:23:56:288,0,-2.32553,0.472713,92.7259
2023-03-11 21:23:56:298,0,-2.40226,0.358556,92.533
2023-03-11 21:23:56:308,0,-2.48376,0.239915,92.3448
2023-03-11 21:23:56:318,0,-2.5648,0.113087,92.1612
2023-03-11 21:23:56:328,0,-2.64403,-0.0160928,91.98
2023-03-11 21:23:56:338,0,-2.71695,-0.146563,91.8023
2023-03-11 21:23:56:348,0,-2.78345,-0.275323,91.6276
2023-03-11 21:23:56:358,0,-2.84594,-0.401553,91.4617
2023-03-11 21:23:56:368,0,-2.89985,-0.525782,91.294
2023-03-11 21:23:56:378,0,-2.94986,-0.645084,91.1379
2023-03-11 21:23:56:388,0,-2.99475,-0.761952,90.9917
2023-03-11 21:23:56:398,0,-3.03607,-0.874093,90.8561
2023-03-11 21:23:56:408,0,-3.0751,-0.979679,90.7322
2023-03-11 21:23:56:418,0,-3.10935,-1.0779,90.6248
2023-03-11 21:23:56:428,0,-3.13314,-1.16316,90.5319
2023-03-11 21:23:56:438,0,-3.15063,-1.24128,90.4549
2023-03-11 21:23:56:448,0,-3.15861,-1.30057,90.3978
2023-03-11 21:23:56:458,0,-3.16516,-1.34664,90.3581
2023-03-11 21:23:56:468,0,-3.17007,-1.38375,90.337
2023-03-11 21:23:56:478,0,-3.17818,-1.4087,90.3337
2023-03-11 21:23:56:488,0,-3.18914,-1.42888,90.3439
2023-03-11 21:23:56:498,0,-3.19878,-1.449,90.3703
2023-03-11 21:23:56:508,0,-3.21241,-1.46505,90.4074
2023-03-11 21:23:56:518,0,-3.22421,-1.48005,90.4538
2023-03-11 21:23:56:528,0,-3.22296,-1.49481,90.5022
2023-03-11 21:23:56:538,0,-3.21489,-1.50002,90.5559
2023-03-11 21:23:56:548,0,-3.19894,-1.50386,90.6079
2023-03-11 21:23:56:558,0,-3.17497,-1.50186,90.6597
2023-03-11 21:23:56:568,0,-3.14313,-1.49899,90.7061
2023-03-11 21:23:56:578,0,-3.10961,-1.48756,90.7514
2023-03-11 21:23:56:588,0,-3.07588,-1.47937,90.7939
2023-03-11 21:23:56:598,0,-3.05132,-1.47058,90.8306
2023-03-11 21:23:56:608,0,-3.03655,-1.46796,90.8651
2023-03-11 21:23:56:618,0,-3.02761,-1.47316,90.8965
2023-03-11 21:23:56:628,0,-3.02179,-1.48648,90.9252
2023-03-11 21:23:56:638,0,-3.01289,-1.50377,90.9491
2023-03-11 21:23:56:648,0,-2.99947,-1.53244,90.9722
2023-03-11 21:23:56:658,0,-2.98361,-1.56823,90.9949
2023-03-11 21:23:56:668,0,-2.96502,-1.61167,91.0174
2023-03-11 21:23:56:678,0,-2.94621,-1.65731,91.0376
2023-03-11 21:23:56:688,0,-2.92323,-1.70354,91.0522
2023-03-11 21:23:56:698,0,-2.89542,-1.75383,91.0665
2023-03-11 21:23:56:707,0,-2.8603,-1.80412,91.0837
2023-03-11 21:23:56:718,0,-2.82016,-1.85508,91.1062
2023-03-11 21:23:56:728,0,-2.7745,-1.90586,91.1335
2023-03-11 21:23:56:738,0,-2.72796,-1.95895,91.1631
2023-03-11 21:23:56:748,0,-2.67526,-2.00803,91.1993
2023-03-11 21:23:56:758,0,-2.61632,-2.05741,91.2367
2023-03-11 21:23:56:768,0,-2.55689,-2.10119,91.2793
2023-03-11 21:23:56:777,0,-2.49029,-2.14259,91.3269
2023-03-11 21:23:56:788,0,-2.42359,-2.17341,91.3748
2023-03-11 21:23:56:798,0,-2.35865,-2.19702,91.4209
2023-03-11 21:23:56:808,0,-2.29185,-2.21023,91.4612
2023-03-11 21:23:56:818,0,-2.22635,-2.21604,91.5007
2023-03-11 21:23:56:828,0,-2.16066,-2.21894,91.5336
2023-03-11 21:23:56:838,0,-2.09804,-2.21893,91.5591
2023-03-11 21:23:56:848,0,-2.03878,-2.21833,91.5813
2023-03-11 21:23:56:858,0,-1.98654,-2.21998,91.6047
2023-03-11 21:23:56:868,0,-1.93696,-2.22229,91.6236
2023-03-11 21:23:56:878,0,-1.88565,-2.23092,91.6394
2023-03-11 21:23:56:888,0,-1.84089,-2.24269,91.6582
2023-03-11 21:23:56:898,0,-1.80134,-2.25864,91.6731
2023-03-11 21:23:56:908,0,-1.76604,-2.27464,91.6905
2023-03-11 21:23:56:918,0,-1.73237,-2.28634,91.7095
2023-03-11 21:23:56:928,0,-1.69717,-2.29191,91.7245
2023-03-11 21:23:56:938,0,-1.66161,-2.2857,91.7375
2023-03-11 21:23:56:948,0,-1.62586,-2.27247,91.7492
2023-03-11 21:23:56:958,0,-1.58234,-2.25445,91.7614
2023-03-11 21:23:56:968,0,-1.53894,-2.22606,91.7743
2023-03-11 21:23:56:978,0,-1.49726,-2.1946,91.7874
2023-03-11 21:23:56:988,0,-1.45473,-2.16578,91.8016
2023-03-11 21:23:56:998,0,-1.4061,-2.13299,91.819
2023-03-11 21:23:57:8,0,-1.35394,-2.08979,91.836
2023-03-11 21:23:57:18,0,-1.30913,-2.04911,91.8492
2023-03-11 21:23:57:28,0,-1.27033,-2.0103,91.864
2023-03-11 21:23:57:38,0,-1.22897,-1.97031,91.8764
2023-03-11 21:23:57:48,0,-1.18473,-1.93222,91.887
2023-03-11 21:23:57:58,0,-1.14292,-1.89514,91.8984
2023-03-11 21:23:57:68,0,-1.11142,-1.86775,91.9108
2023-03-11 21:23:57:78,0,-1.08274,-1.8496,91.9226
2023-03-11 21:23:57:88,0,-1.05733,-1.83625,91.9368
2023-03-11 21:23:57:98,0,-1.03681,-1.82571,91.9485
2023-03-11 21:23:57:108,0,-1.02243,-1.81613,91.9613
2023-03-11 21:23:57:118,0,-1.00017,-1.81198,91.971
2023-03-11 21:23:57:128,0,-0.973936,-1.80261,91.9763
2023-03-11 21:23:57:138,0,-0.935899,-1.79079,91.9809
2023-03-11 21:23:57:148,0,-0.88685,-1.77593,91.9848
2023-03-11 21:23:57:158,0,-0.840147,-1.76584,91.9908
2023-03-11 21:23:57:168,0,-0.789151,-1.75978,91.9936
2023-03-11 21:23:57:178,0,-0.731571,-1.75083,91.9972
2023-03-11 21:23:57:188,0,-0.660134,-1.73818,92.0002
2023-03-11 21:23:57:198,0,-0.579837,-1.72283,92.0004
2023-03-11 21:23:57:208,0,-0.485992,-1.70089,91.9968
2023-03-11 21:23:57:218,0,-0.38292,-1.6697,91.9921
2023-03-11 21:23:57:228,0,-0.261405,-1.63238,91.9794
2023-03-11 21:23:57:238,0,-0.140023,-1.58239,91.9632
2023-03-11 21:23:57:248,0,-0.0149379,-1.52536,91.9481
2023-03-11 21:23:57:258,0,0.114515,-1.46857,91.927
2023-03-11 21:23:57:268,0,0.241147,-1.42421,91.9094
2023-03-11 21:23:57:278,0,0.362256,-1.38682,91.8999
2023-03-11 21:23:57:287,0,0.481128,-1.362,91.8927
2023-03-11 21:23:57:297,0,0.597557,-1.35034,91.894
2023-03-11 21:23:57:308,0,0.706663,-1.34793,91.9013
2023-03-11 21:23:57:318,0,0.805843,-1.35858,91.9216
2023-03-11 21:23:57:328,0,0.888137,-1.37731,91.9475
2023-03-11 21:23:57:338,0,0.956261,-1.39476,91.9762
2023-03-11 21:23:57:348,0,1.01204,-1.41751,92.0065
2023-03-11 21:23:57:358,0,1.05786,-1.4423,92.0413
2023-03-11 21:23:57:368,0,1.09416,-1.47376,92.0768
2023-03-11 21:23:57:378,0,1.12373,-1.51075,92.1106
2023-03-11 21:23:57:388,0,1.15538,-1.55587,92.149
2023-03-11 21:23:57:398,0,1.1941,-1.60288,92.1874
2023-03-11 21:23:57:408,0,1.23354,-1.65087,92.2213
2023-03-11 21:23:57:418,0,1.27673,-1.6981,92.2472
2023-03-11 21:23:57:428,0,1.3301,-1.74298,92.2707
2023-03-11 21:23:57:438,0,1.3862,-1.78866,92.2872
2023-03-11 21:23:57:448,0,1.4479,-1.82821,92.2944
2023-03-11 21:23:57:458,0,1.52149,-1.87166,92.2952
2023-03-11 21:23:57:468,0,1.60348,-1.90919,92.2909
2023-03-11 21:23:57:478,0,1.68336,-1.9412,92.2772
2023-03-11 21:23:57:488,0,1.75744,-1.9699,92.2619
2023-03-11 21:23:57:498,0,1.8322,-1.99401,92.2394
2023-03-11 21:23:57:508,0,1.90715,-2.01673,92.2136
2023-03-11 21:23:57:518,0,1.98396,-2.03995,92.1856
2023-03-11 21:23:57:528,0,2.06008,-2.06158,92.1542
2023-03-11 21:23:57:538,0,2.13314,-2.08256,92.1252
2023-03-11 21:23:57:548,0,2.20093,-2.10954,92.0979
2023-03-11 21:23:57:558,0,2.26271,-2.13343,92.0731
2023-03-11 21:23:57:568,0,2.32578,-2.15934,92.0492
2023-03-11 21:23:57:578,0,2.38345,-2.18218,92.0303
2023-03-11 21:23:57:588,0,2.43531,-2.20544,92.0121
2023-03-11 21:23:57:598,0,2.47623,-2.22565,92.0011
2023-03-11 21:23:57:608,0,2.50711,-2.24983,91.9971
2023-03-11 21:23:57:618,0,2.53214,-2.27608,91.9971
2023-03-11 21:23:57:628,0,2.55007,-2.30284,91.9979
2023-03-11 21:23:57:638,0,2.55889,-2.33475,92.0069
2023-03-11 21:23:57:648,0,2.55805,-2.36632,92.0217
2023-03-11 21:23:57:658,0,2.54439,-2.39635,92.0415
2023-03-11 21:23:57:668,0,2.51886,-2.42641,92.0641
2023-03-11 21:23:57:678,0,2.473,-2.4568,92.0906
2023-03-11 21:23:57:688,0,2.41366,-2.49181,92.1173
2023-03-11 21:23:57:698,0,2.34729,-2.52871,92.1461
2023-03-11 21:23:57:708,0,2.27873,-2.5676,92.1751
2023-03-11 21:23:57:718,0,2.2077,-2.60437,92.202
2023-03-11 21:23:57:728,0,2.13774,-2.64343,92.2332
2023-03-11 21:23:57:738,0,2.07092,-2.68264,92.2622
2023-03-11 21:23:57:748,0,2.01429,-2.71705,92.294
2023-03-11 21:23:57:758,0,1.96724,-2.74525,92.3235
2023-03-11 21:23:57:768,0,1.92961,-2.76989,92.3549
2023-03-11 21:23:57:778,0,1.89966,-2.79609,92.3847
2023-03-11 21:23:57:788,0,1.88085,-2.81561,92.4114
2023-03-11 21:23:57:798,0,1.87526,-2.83233,92.4403
2023-03-11 21:23:57:808,0,1.87413,-2.84881,92.4707
2023-03-11 21:23:57:818,0,1.87907,-2.86178,92.5002
2023-03-11 21:23:57:828,0,1.89337,-2.86832,92.5287
2023-03-11 21:23:57:838,0,1.90968,-2.86806,92.5556
2023-03-11 21:23:57:848,0,1.92865,-2.8671,92.5814
2023-03-11 21:23:57:858,0,1.94634,-2.86717,92.6094
2023-03-11 21:23:57:868,0,1.96132,-2.86374,92.6386
2023-03-11 21:23:57:878,0,1.97493,-2.8561,92.6675
2023-03-11 21:23:57:888,0,1.98396,-2.84426,92.6946
2023-03-11 21:23:57:898,0,1.98758,-2.82849,92.7262
2023-03-11 21:23:57:908,0,1.98149,-2.80987,92.7551
2023-03-11 21:23:57:918,0,1.96803,-2.79325,92.7839
2023-03-11 21:23:57:928,0,1.94828,-2.77416,92.8116
2023-03-11 21:23:57:938,0,1.9243,-2.75437,92.8339
2023-03-11 21:23:57:948,0,1.89378,-2.73989,92.8569
2023-03-11 21:23:57:958,0,1.85071,-2.73126,92.8744
2023-03-11 21:23:57:968,0,1.79699,-2.73417,92.8929
2023-03-11 21:23:57:978,0,1.73686,-2.73792,92.9154
2023-03-11 21:23:57:988,0,1.6751,-2.74039,92.9319
2023-03-11 21:23:57:998,0,1.60288,-2.73887,92.9481
2023-03-11 21:23:58:8,0,1.53019,-2.73735,92.958
2023-03-11 21:23:58:18,0,1.45392,-2.73453,92.9695
2023-03-11 21:23:58:28,0,1.37697,-2.73463,92.9787
2023-03-11 21:23:58:38,0,1.30288,-2.73662,92.9867
2023-03-11 21:23:58:48,0,1.22818,-2.74037,92.9986
2023-03-11 21:23:58:57,0,1.15971,-2.74388,93.0054
2023-03-11 21:23:58:68,0,1.09665,-2.74723,93.013
2023-03-11 21:23:58:78,0,1.03845,-2.74806,93.0206
2023-03-11 21:23:58:88,0,0.994634,-2.74057,93.0202
2023-03-11 21:23:58:98,0,0.959741,-2.73465,93.0213
2023-03-11 21:23:58:108,0,0.926879,-2.72551,93.021
2023-03-11 21:23:58:118,0,0.899931,-2.71631,93.0229
2023-03-11 21:23:58:128,0,0.873623,-2.70831,93.0227
2023-03-11 21:23:58:138,0,0.840953,-2.70102,93.0223
2023-03-11 21:23:58:148,0,0.80682,-2.69743,93.0182
2023-03-11 21:23:58:158,0,0.770899,-2.69112,93.0165
2023-03-11 21:23:58:168,0,0.742732,-2.67885,93.0127
2023-03-11 21:23:58:178,0,0.712717,-2.66828,93.0079
2023-03-11 21:23:58:188,0,0.685373,-2.65517,92.997
2023-03-11 21:23:58:198,0,0.653856,-2.64465,92.988
2023-03-11 21:23:58:208,0,0.622453,-2.63847,92.976
2023-03-11 21:23:58:218,0,0.584742,-2.62561,92.9679
2023-03-11 21:23:58:228,0,0.549897,-2.61652,92.9559
2023-03-11 21:23:58:238,0,0.510463,-2.60521,92.9446
2023-03-11 21:23:58:248,0,0.472265,-2.5946,92.9248
2023-03-11 21:23:58:258,0,0.435879,-2.58397,92.9099
2023-03-11 21:23:58:268,0,0.409151,-2.57759,92.8948
2023-03-11 21:23:58:278,0,0.384902,-2.57147,92.8757
2023-03-11 21:23:58:288,0,0.364763,-2.5662,92.8586
2023-03-11 21:23:58:298,0,0.343515,-2.56299,92.8468
2023-03-11 21:23:58:308,0,0.327189,-2.56474,92.8353
2023-03-11 21:23:58:317,0,0.313719,-2.5668,92.8247
2023-03-11 21:23:58:327,0,0.302605,-2.57057,92.8175
2023-03-11 21:23:58:337,0,0.297337,-2.57221,92.8107
2023-03-11 21:23:58:347,0,0.297314,-2.5788,92.8094
2023-03-11 21:23:58:358,0,0.303776,-2.58723,92.8096
2023-03-11 21:23:58:367,0,0.322137,-2.59665,92.8094
2023-03-11 21:23:58:378,0,0.338398,-2.60226,92.8117
2023-03-11 21:23:58:388,0,0.34813,-2.61051,92.8193
2023-03-11 21:23:58:398,0,0.355063,-2.6178,92.8284
2023-03-11 21:23:58:408,0,0.358332,-2.62842,92.8442
2023-03-11 21:23:58:418,0,0.360125,-2.63335,92.8606
2023-03-11 21:23:58:428,0,0.360688,-2.64067,92.8781
2023-03-11 21:23:58:438,0,0.362896,-2.64624,92.9011
2023-03-11 21:23:58:448,0,0.365641,-2.65179,92.9218
2023-03-11 21:23:58:458,0,0.37114,-2.64897,92.9375
2023-03-11 21:23:58:468,0,0.374049,-2.64718,92.9514
2023-03-11 21:23:58:478,0,0.379073,-2.64507,92.9627
2023-03-11 21:23:58:488,0,0.382325,-2.64014,92.9692
2023-03-11 21:23:58:498,0,0.379106,-2.63647,92.9751
2023-03-11 21:23:58:508,0,0.373823,-2.63808,92.9807
2023-03-11 21:23:58:518,0,0.368413,-2.64021,92.9854
2023-03-11 21:23:58:528,0,0.364351,-2.64401,92.9882
2023-03-11 21:23:58:538,0,0.362826,-2.64942,92.9857
2023-03-11 21:23:58:548,0,0.364647,-2.65591,92.9885
2023-03-11 21:23:58:558,0,0.366475,-2.66278,92.9892
2023-03-11 21:23:58:568,0,0.371047,-2.66334,92.9914
2023-03-11 21:23:58:578,0,0.370907,-2.66135,92.9925
2023-03-11 21:23:58:588,0,0.367803,-2.65749,92.9988
2023-03-11 21:23:58:598,0,0.367655,-2.65262,93.0056
2023-03-11 21:23:58:608,0,0.365188,-2.65079,93.0184
2023-03-11 21:23:58:618,0,0.366444,-2.64979,93.0299
2023-03-11 21:23:58:628,0,0.362523,-2.65661,93.0464
2023-03-11 21:23:58:638,0,0.354467,-2.66959,93.0623
2023-03-11 21:23:58:648,0,0.344519,-2.6875,93.0836
2023-03-11 21:23:58:658,0,0.336128,-2.70845,93.104
2023-03-11 21:23:58:668,0,0.330032,-2.72296,93.1244
2023-03-11 21:23:58:678,0,0.32689,-2.73853,93.1523
2023-03-11 21:23:58:688,0,0.328382,-2.7531,93.1844
2023-03-11 21:23:58:698,0,0.333812,-2.76827,93.2138
2023-03-11 21:23:58:708,0,0.334305,-2.78101,93.2461
2023-03-11 21:23:58:718,0,0.332678,-2.79122,93.2814
2023-03-11 21:23:58:728,0,0.33432,-2.79888,93.3168
2023-03-11 21:23:58:738,0,0.334364,-2.80454,93.3514
2023-03-11 21:23:58:748,0,0.335087,-2.81037,93.3835
2023-03-11 21:23:58:758,0,0.341756,-2.8139,93.4183
2023-03-11 21:23:58:768,0,0.353047,-2.81938,93.4482
2023-03-11 21:23:58:778,0,0.368274,-2.82489,93.477
2023-03-11 21:23:58:788,0,0.383381,-2.82657,93.4995
2023-03-11 21:23:58:798,0,0.399521,-2.82931,93.5165
2023-03-11 21:23:58:808,0,0.414878,-2.83026,93.5254
2023-03-11 21:23:58:818,0,0.427689,-2.83521,93.5316
2023-03-11 21:23:58:827,0,0.433062,-2.84248,93.5326
2023-03-11 21:23:58:837,0,0.440422,-2.85123,93.5293
2023-03-11 21:23:58:847,0,0.449701,-2.85983,93.5257
2023-03-11 21:23:58:858,0,0.454828,-2.87057,93.5164
2023-03-11 21:23:58:868,0,0.456015,-2.87805,93.5088
2023-03-11 21:23:58:878,0,0.452575,-2.88414,93.5014
2023-03-11 21:23:58:888,0,0.448791,-2.88829,93.4876
2023-03-11 21:23:58:898,0,0.445845,-2.89374,93.4734
2023-03-11 21:23:58:908,0,0.444183,-2.89705,93.4577
2023-03-11 21:23:58:918,0,0.444064,-2.90064,93.4469
2023-03-11 21:23:58:928,0,0.44496,-2.90825,93.4376
2023-03-11 21:23:58:938,0,0.456804,-2.91879,93.4291
2023-03-11 21:23:58:948,0,0.468846,-2.92945,93.4177
2023-03-11 21:23:58:958,0,0.487552,-2.94001,93.4114
2023-03-11 21:23:58:968,0,0.513525,-2.95322,93.4044
2023-03-11 21:23:58:978,0,0.54405,-2.96779,93.4005
2023-03-11 21:23:58:988,0,0.580153,-2.98653,93.3988
2023-03-11 21:23:58:998,0,0.61943,-3.00537,93.3983
2023-03-11 21:23:59:8,0,0.664099,-3.02076,93.3979
2023-03-11 21:23:59:18,0,0.707878,-3.0373,93.3974
2023-03-11 21:23:59:28,0,0.747792,-3.05892,93.4029
2023-03-11 21:23:59:38,0,0.784794,-3.07636,93.4094
2023-03-11 21:23:59:48,0,0.821271,-3.09523,93.4184
2023-03-11 21:23:59:58,0,0.851187,-3.11779,93.4331
2023-03-11 21:23:59:68,0,0.880374,-3.13742,93.4473
2023-03-11 21:23:59:78,0,0.906684,-3.15831,93.4673
2023-03-11 21:23:59:88,0,0.927449,-3.1734,93.4849
2023-03-11 21:23:59:98,0,0.948285,-3.18945,93.5047
2023-03-11 21:23:59:108,0,0.964494,-3.20532,93.5233
2023-03-11 21:23:59:118,0,0.97909,-3.22017,93.5411
2023-03-11 21:23:59:128,0,0.992706,-3.2327,93.5616
2023-03-11 21:23:59:138,0,1.00671,-3.24194,93.5791
2023-03-11 21:23:59:148,0,1.02141,-3.25132,93.5967
2023-03-11 21:23:59:158,0,1.03622,-3.2608,93.6135
2023-03-11 21:23:59:168,0,1.04142,-3.26943,93.6289
2023-03-11 21:23:59:178,0,1.04635,-3.27746,93.6434
2023-03-11 21:23:59:188,0,1.04899,-3.27964,93.6572
2023-03-11 21:23:59:198,0,1.04723,-3.28201,93.6679
2023-03-11 21:23:59:208,0,1.04319,-3.27751,93.6825
2023-03-11 21:23:59:218,0,1.03508,-3.27189,93.6911
2023-03-11 21:23:59:228,0,1.0241,-3.265,93.6952
2023-03-11 21:23:59:238,0,1.00623,-3.25727,93.6984
2023-03-11 21:23:59:248,0,0.988127,-3.24738,93.6993
2023-03-11 21:23:59:258,0,0.972234,-3.23779,93.6951
2023-03-11 21:23:59:268,0,0.954204,-3.22685,93.6917
2023-03-11 21:23:59:278,0,0.937109,-3.22027,93.6841
2023-03-11 21:23:59:288,0,0.92144,-3.21439,93.6764
2023-03-11 21:23:59:298,0,0.904937,-3.21491,93.6685
2023-03-11 21:23:59:308,0,0.891823,-3.21238,93.6638
2023-03-11 21:23:59:318,0,0.877876,-3.21137,93.661
2023-03-11 21:23:59:328,0,0.860255,-3.21425,93.6597
2023-03-11 21:23:59:338,0,0.843493,-3.21394,93.6595
2023-03-11 21:23:59:347,0,0.824774,-3.2118,93.6674
2023-03-11 21:23:59:357,0,0.809362,-3.20449,93.6718
2023-03-11 21:23:59:368,0,0.793042,-3.19464,93.683
2023-03-11 21:23:59:378,0,0.77667,-3.18603,93.6932
2023-03-11 21:23:59:388,0,0.767035,-3.17638,93.7065
2023-03-11 21:23:59:398,0,0.757101,-3.16776,93.7191
2023-03-11 21:23:59:408,0,0.75077,-3.15461,93.7274
2023-03-11 21:23:59:418,0,0.747794,-3.14356,93.7348
2023-03-11 21:23:59:428,0,0.74779,-3.12834,93.7417
2023-03-11 21:23:59:438,0,0.752525,-3.11588,93.746
2023-03-11 21:23:59:448,0,0.752298,-3.10232,93.7499
2023-03-11 21:23:59:458,0,0.753888,-3.09061,93.7511
2023-03-11 21:23:59:468,0,0.757474,-3.08135,93.7502
2023-03-11 21:23:59:478,0,0.76267,-3.0701,93.7504
2023-03-11 21:23:59:488,0,0.765214,-3.06077,93.7541
2023-03-11 21:23:59:498,0,0.773856,-3.0474,93.7563
2023-03-11 21:23:59:508,0,0.782509,-3.03313,93.7565
2023-03-11 21:23:59:518,0,0.795145,-3.01904,93.7619
2023-03-11 21:23:59:528,0,0.805452,-3.0056,93.7646
2023-03-11 21:23:59:538,0,0.818737,-2.99447,93.7678
2023-03-11 21:23:59:548,0,0.829395,-2.98413,93.7735
2023-03-11 21:23:59:558,0,0.839714,-2.97046,93.7807
2023-03-11 21:23:59:568,0,0.850249,-2.95631,93.7891
2023-03-11 21:23:59:578,0,0.856444,-2.94532,93.796
2023-03-11 21:23:59:588,0,0.864317,-2.93724,93.8011
2023-03-11 21:23:59:598,0,0.871007,-2.92749,93.8077
2023-03-11 21:23:59:608,0,0.874424,-2.91856,93.8161
2023-03-11 21:23:59:618,0,0.879524,-2.90953,93.8262
2023-03-11 21:23:59:628,0,0.882429,-2.90112,93.833
2023-03-11 21:23:59:638,0,0.886879,-2.8948,93.8397
2023-03-11 21:23:59:648,0,0.890948,-2.88767,93.844
2023-03-11 21:23:59:658,0,0.893004,-2.87944,93.8515
2023-03-11 21:23:59:668,0,0.890572,-2.87377,93.8555
2023-03-11 21:23:59:678,0,0.885734,-2.872,93.8617
2023-03-11 21:23:59:688,0,0.876717,-2.86975,93.8721
2023-03-11 21:23:59:698,0,0.863352,-2.86694,93.8789
2023-03-11 21:23:59:708,0,0.851696,-2.86491,93.8884
2023-03-11 21:23:59:718,0,0.835774,-2.86195,93.8988
2023-03-11 21:23:59:728,0,0.819944,-2.86196,93.9079
2023-03-11 21:23:59:738,0,0.796783,-2.85893,93.9215
2023-03-11 21:23:59:748,0,0.776921,-2.85838,93.9355
2023-03-11 21:23:59:758,0,0.753906,-2.85604,93.9485
2023-03-11 21:23:59:768,0,0.734204,-2.85612,93.9606
2023-03-11 21:23:59:778,0,0.721147,-2.85818,93.9756
2023-03-11 21:23:59:788,0,0.710194,-2.86369,93.9895
2023-03-11 21:23:59:798,0,0.703198,-2.87295,94.0021
2023-03-11 21:23:59:808,0,0.695055,-2.87727,94.0177
2023-03-11 21:23:59:818,0,0.693419,-2.87997,94.0303
2023-03-11 21:23:59:828,0,0.689255,-2.88338,94.0439
2023-03-11 21:23:59:838,0,0.690782,-2.88659,94.0571
2023-03-11 21:23:59:847,0,0.692395,-2.88881,94.0699
2023-03-11 21:23:59:858,0,0.693602,-2.89255,94.082
2023-03-11 21:23:59:868,0,0.694598,-2.88713,94.0928
2023-03-11 21:23:59:878,0,0.696734,-2.87874,94.1011
2023-03-11 21:23:59:888,0,0.702585,-2.87073,94.109
2023-03-11 21:23:59:898,0,0.703499,-2.86005,94.1133
2023-03-11 21:23:59:907,0,0.705176,-2.84755,94.1144
2023-03-11 21:23:59:917,0,0.710001,-2.83817,94.1114
2023-03-11 21:23:59:928,0,0.716623,-2.83258,94.1006
2023-03-11 21:23:59:938,0,0.725674,-2.83374,94.0935
2023-03-11 21:23:59:948,0,0.725699,-2.83666,94.0884
2023-03-11 21:23:59:958,0,0.723104,-2.84605,94.0841
2023-03-11 21:23:59:968,0,0.719276,-2.8506,94.0817
2023-03-11 21:23:59:978,0,0.709192,-2.85293,94.0793
2023-03-11 21:23:59:988,0,0.69753,-2.85712,94.0755
2023-03-11 21:23:59:998,0,0.687684,-2.85725,94.075
2023-03-11 21:24:00:8,0,0.675294,-2.85583,94.0796
2023-03-11 21:24:00:18,0,0.660856,-2.8488,94.0824
2023-03-11 21:24:00:28,0,0.649195,-2.84227,94.0862
2023-03-11 21:24:00:38,0,0.635521,-2.83772,94.0924
2023-03-11 21:24:00:48,0,0.629984,-2.83404,94.0945
2023-03-11 21:24:00:58,0,0.623003,-2.8312,94.0943
2023-03-11 21:24:00:68,0,0.62042,-2.82516,94.0942
2023-03-11 21:24:00:78,0,0.621668,-2.81784,94.0903
2023-03-11 21:24:00:88,0,0.629791,-2.81233,94.0814
2023-03-11 21:24:00:98,0,0.639033,-2.80622,94.0721
2023-03-11 21:24:00:108,0,0.649451,-2.80354,94.0581
2023-03-11 21:24:00:118,0,0.65827,-2.8022,94.0441
2023-03-11 21:24:00:128,0,0.669735,-2.8021,94.0296
2023-03-11 21:24:00:138,0,0.684793,-2.79958,94.0167
2023-03-11 21:24:00:148,0,0.703497,-2.79603,94.0055
2023-03-11 21:24:00:158,0,0.727155,-2.79409,93.9965
2023-03-11 21:24:00:168,0,0.755247,-2.79112,93.9877
2023-03-11 21:24:00:178,0,0.786323,-2.78887,93.9816
2023-03-11 21:24:00:188,0,0.817938,-2.78925,93.9807
2023-03-11 21:24:00:198,0,0.849883,-2.78624,93.9816
2023-03-11 21:24:00:208,0,0.878428,-2.78538,93.9869
2023-03-11 21:24:00:218,0,0.912736,-2.7843,93.9929
2023-03-11 21:24:00:228,0,0.946877,-2.77866,94.0013
2023-03-11 21:24:00:238,0,0.976236,-2.77109,94.0089
2023-03-11 21:24:00:248,0,1.00508,-2.76688,94.0154
2023-03-11 21:24:00:258,0,1.02981,-2.76272,94.0213
2023-03-11 21:24:00:268,0,1.05301,-2.75567,94.024
2023-03-11 21:24:00:278,0,1.07183,-2.75213,94.026
2023-03-11 21:24:00:288,0,1.08698,-2.7517,94.0286
2023-03-11 21:24:00:298,0,1.09989,-2.75114,94.0325
2023-03-11 21:24:00:308,0,1.10693,-2.75203,94.0353
2023-03-11 21:24:00:318,0,1.1097,-2.75412,94.0394
2023-03-11 21:24:00:328,0,1.10924,-2.75306,94.0431
2023-03-11 21:24:00:338,0,1.10964,-2.75586,94.0487
2023-03-11 21:24:00:348,0,1.10383,-2.75716,94.0496
2023-03-11 21:24:00:358,0,1.09728,-2.76165,94.0549
2023-03-11 21:24:00:368,0,1.08929,-2.76159,94.064
2023-03-11 21:24:00:377,0,1.07839,-2.76401,94.0697
2023-03-11 21:24:00:387,0,1.06983,-2.76054,94.0783
2023-03-11 21:24:00:397,0,1.06396,-2.75939,94.0878
2023-03-11 21:24:00:407,0,1.05257,-2.75364,94.0983
2023-03-11 21:24:00:418,0,1.04872,-2.75027,94.1082
2023-03-11 21:24:00:427,0,1.04084,-2.74327,94.1208
2023-03-11 21:24:00:438,0,1.03138,-2.73217,94.1297
2023-03-11 21:24:00:448,0,1.02203,-2.72351,94.1398
2023-03-11 21:24:00:458,0,1.01563,-2.714,94.1478
2023-03-11 21:24:00:468,0,1.00469,-2.70649,94.1516
2023-03-11 21:24:00:478,0,0.996069,-2.69772,94.1541
2023-03-11 21:24:00:488,0,0.982005,-2.68565,94.1559
2023-03-11 21:24:00:498,0,0.962094,-2.67725,94.1566
2023-03-11 21:24:00:508,0,0.940908,-2.67064,94.1564
2023-03-11 21:24:00:518,0,0.919542,-2.66487,94.1575
2023-03-11 21:24:00:528,0,0.900397,-2.65991,94.1567
2023-03-11 21:24:00:538,0,0.880694,-2.6534,94.1553
2023-03-11 21:24:00:548,0,0.861274,-2.64394,94.1569
2023-03-11 21:24:00:558,0,0.845322,-2.63646,94.155
2023-03-11 21:24:00:568,0,0.827749,-2.62553,94.1537
2023-03-11 21:24:00:578,0,0.811589,-2.61781,94.1548
2023-03-11 21:24:00:588,0,0.794883,-2.61189,94.1525
2023-03-11 21:24:00:598,0,0.781033,-2.60153,94.1519
2023-03-11 21:24:00:608,0,0.772031,-2.59454,94.1523
2023-03-11 21:24:00:618,0,0.763353,-2.59211,94.1525
2023-03-11 21:24:00:628,0,0.756306,-2.59789,94.1527
2023-03-11 21:24:00:638,0,0.743914,-2.60562,94.1553
2023-03-11 21:24:00:648,0,0.733023,-2.61457,94.1668
2023-03-11 21:24:00:658,0,0.719449,-2.62262,94.1784
2023-03-11 21:24:00:668,0,0.703331,-2.62599,94.1905
2023-03-11 21:24:00:678,0,0.690191,-2.63089,94.2061
2023-03-11 21:24:00:688,0,0.675783,-2.62968,94.2181
2023-03-11 21:24:00:698,0,0.661837,-2.62862,94.2321
2023-03-11 21:24:00:708,0,0.647574,-2.62774,94.2484
2023-03-11 21:24:00:718,0,0.634053,-2.6258,94.2639
2023-03-11 21:24:00:728,0,0.622436,-2.62261,94.2759
2023-03-11 21:24:00:738,0,0.617084,-2.61578,94.2872
2023-03-11 21:24:00:748,0,0.613371,-2.60998,94.2951
2023-03-11 21:24:00:758,0,0.611874,-2.60342,94.3007
2023-03-11 21:24:00:768,0,0.613767,-2.59608,94.3024
2023-03-11 21:24:00:778,0,0.615119,-2.5888,94.3054
2023-03-11 21:24:00:788,0,0.616139,-2.58067,94.3051
2023-03-11 21:24:00:798,0,0.611907,-2.57384,94.3061
2023-03-11 21:24:00:808,0,0.612295,-2.56844,94.3039
2023-03-11 21:24:00:818,0,0.61267,-2.56055,94.3047
2023-03-11 21:24:00:828,0,0.614157,-2.54988,94.3033
2023-03-11 21:24:00:838,0,0.612045,-2.5396,94.2994
2023-03-11 21:24:00:848,0,0.612667,-2.53456,94.3
2023-03-11 21:24:00:858,0,0.612129,-2.52514,94.2985
2023-03-11 21:24:00:868,0,0.612359,-2.51685,94.2984
2023-03-11 21:24:00:878,0,0.612729,-2.50828,94.3028
2023-03-11 21:24:00:888,0,0.609978,-2.50036,94.3072
2023-03-11 21:24:00:898,0,0.605013,-2.49079,94.3151
2023-03-11 21:24:00:908,0,0.601538,-2.48235,94.3205
2023-03-11 21:24:00:918,0,0.600359,-2.48027,94.3262
2023-03-11 21:24:00:928,0,0.597667,-2.47451,94.3337
2023-03-11 21:24:00:938,0,0.599507,-2.4739,94.343
2023-03-11 21:24:00:948,0,0.59577,-2.47907,94.3525
2023-03-11 21:24:00:958,0,0.598553,-2.48464,94.3637
2023-03-11 21:24:00:968,0,0.599838,-2.49157,94.3757
2023-03-11 21:24:00:978,0,0.598625,-2.50143,94.3877
2023-03-11 21:24:00:987,0,0.599342,-2.51468,94.4041
2023-03-11 21:24:00:997,0,0.603955,-2.52415,94.419
2023-03-11 21:24:01:7,0,0.60381,-2.53312,94.4366
2023-03-11 21:24:01:18,0,0.605016,-2.53643,94.4508
2023-03-11 21:24:01:28,0,0.604387,-2.54511,94.4682
2023-03-11 21:24:01:38,0,0.606955,-2.55049,94.4865
2023-03-11 21:24:01:48,0,0.607722,-2.55319,94.5034
2023-03-11 21:24:01:58,0,0.607135,-2.55418,94.5199
2023-03-11 21:24:01:68,0,0.605797,-2.55395,94.5363
2023-03-11 21:24:01:78,0,0.601751,-2.55475,94.5484
2023-03-11 21:24:01:88,0,0.604785,-2.55322,94.5599
2023-03-11 21:24:01:98,0,0.6076,-2.5531,94.5692
2023-03-11 21:24:01:108,0,0.609229,-2.55116,94.5747
2023-03-11 21:24:01:118,0,0.613595,-2.54947,94.5771
2023-03-11 21:24:01:128,0,0.61659,-2.54263,94.5773
2023-03-11 21:24:01:138,0,0.617797,-2.53758,94.5748
2023-03-11 21:24:01:148,0,0.616389,-2.53063,94.5721
2023-03-11 21:24:01:158,0,0.611937,-2.52649,94.5655
2023-03-11 21:24:01:168,0,0.603728,-2.52182,94.5586
2023-03-11 21:24:01:178,0,0.595584,-2.51584,94.5492
2023-03-11 21:24:01:188,0,0.588976,-2.50806,94.5406
2023-03-11 21:24:01:198,0,0.582481,-2.50172,94.5355
2023-03-11 21:24:01:208,0,0.575167,-2.49616,94.5277
2023-03-11 21:24:01:218,0,0.567433,-2.49121,94.5223
2023-03-11 21:24:01:227,0,0.561279,-2.48641,94.5202
2023-03-11 21:24:01:238,0,0.551938,-2.4793,94.5194
2023-03-11 21:24:01:248,0,0.542367,-2.46842,94.525
2023-03-11 21:24:01:258,0,0.533057,-2.45808,94.5312
2023-03-11 21:24:01:268,0,0.528059,-2.45329,94.5365
2023-03-11 21:24:01:278,0,0.525482,-2.44556,94.541
2023-03-11 21:24:01:288,0,0.522496,-2.43646,94.5488
2023-03-11 21:24:01:298,0,0.523749,-2.42901,94.5567
2023-03-11 21:24:01:308,0,0.524927,-2.42321,94.559
2023-03-11 21:24:01:318,0,0.530451,-2.42303,94.5646
2023-03-11 21:24:01:328,0,0.533357,-2.42716,94.5704
2023-03-11 21:24:01:338,0,0.534902,-2.43884,94.5795
2023-03-11 21:24:01:348,0,0.535987,-2.45029,94.5888
2023-03-11 21:24:01:358,0,0.532516,-2.46051,94.5993
2023-03-11 21:24:01:368,0,0.526538,-2.46746,94.6133
2023-03-11 21:24:01:378,0,0.518599,-2.47012,94.6269
2023-03-11 21:24:01:387,0,0.506344,-2.4712,94.6413
2023-03-11 21:24:01:398,0,0.497615,-2.4681,94.656
2023-03-11 21:24:01:408,0,0.485001,-2.46526,94.6735
2023-03-11 21:24:01:418,0,0.472049,-2.46169,94.69
2023-03-11 21:24:01:428,0,0.461965,-2.45265,94.7035
2023-03-11 21:24:01:438,0,0.453497,-2.44274,94.7138
2023-03-11 21:24:01:448,0,0.442847,-2.4314,94.7263
2023-03-11 21:24:01:458,0,0.43701,-2.42082,94.7359
2023-03-11 21:24:01:468,0,0.43006,-2.4128,94.7454
2023-03-11 21:24:01:478,0,0.421992,-2.40496,94.7471
2023-03-11 21:24:01:488,0,0.417616,-2.39563,94.7468
2023-03-11 21:24:01:498,0,0.411937,-2.38956,94.747
2023-03-11 21:24:01:508,0,0.406464,-2.38635,94.7425
2023-03-11 21:24:01:518,0,0.401992,-2.38067,94.7401
2023-03-11 21:24:01:528,0,0.394455,-2.37679,94.7388
2023-03-11 21:24:01:538,0,0.393983,-2.37001,94.738
2023-03-11 21:24:01:548,0,0.392208,-2.36249,94.7351
2023-03-11 21:24:01:558,0,0.38859,-2.35756,94.7347
2023-03-11 21:24:01:568,0,0.385321,-2.35194,94.7372
2023-03-11 21:24:01:578,0,0.385081,-2.34879,94.7422
2023-03-11 21:24:01:588,0,0.390923,-2.34325,94.749
2023-03-11 21:24:01:598,0,0.397579,-2.33619,94.7526
2023-03-11 21:24:01:608,0,0.4042,-2.33058,94.7581
2023-03-11 21:24:01:618,0,0.414325,-2.32403,94.7598
2023-03-11 21:24:01:628,0,0.424328,-2.31851,94.7653
2023-03-11 21:24:01:638,0,0.432822,-2.3151,94.7666
2023-03-11 21:24:01:648,0,0.442126,-2.31384,94.7679
2023-03-11 21:24:01:658,0,0.454158,-2.31294,94.7738
2023-03-11 21:24:01:668,0,0.467971,-2.31186,94.7806
2023-03-11 21:24:01:678,0,0.482025,-2.31416,94.7869
2023-03-11 21:24:01:688,0,0.499268,-2.31641,94.7957
2023-03-11 21:24:01:698,0,0.511611,-2.32323,94.8026
2023-03-11 21:24:01:708,0,0.524464,-2.33246,94.8158
2023-03-11 21:24:01:718,0,0.53623,-2.33932,94.8237
2023-03-11 21:24:01:728,0,0.549648,-2.34887,94.8355
2023-03-11 21:24:01:738,0,0.557161,-2.36026,94.8519
2023-03-11 21:24:01:748,0,0.566309,-2.37145,94.8677
2023-03-11 21:24:01:758,0,0.576239,-2.3816,94.8819
2023-03-11 21:24:01:768,0,0.583246,-2.39158,94.8968
2023-03-11 21:24:01:778,0,0.59569,-2.39927,94.9127
2023-03-11 21:24:01:788,0,0.606313,-2.40788,94.9269
2023-03-11 21:24:01:798,0,0.61756,-2.41681,94.9448
2023-03-11 21:24:01:808,0,0.626543,-2.42204,94.9628
2023-03-11 21:24:01:818,0,0.638127,-2.42794,94.975
2023-03-11 21:24:01:828,0,0.646592,-2.43785,94.9856
2023-03-11 21:24:01:838,0,0.655446,-2.44187,94.9946
2023-03-11 21:24:01:848,0,0.664657,-2.44652,95.0023
2023-03-11 21:24:01:858,0,0.672814,-2.4506,95.0046
2023-03-11 21:24:01:868,0,0.680227,-2.45142,95.0102
2023-03-11 21:24:01:878,0,0.684362,-2.4527,95.0133
2023-03-11 21:24:01:888,0,0.689134,-2.45224,95.0137
2023-03-11 21:24:01:898,0,0.687304,-2.45443,95.0128
2023-03-11 21:24:01:907,0,0.684442,-2.45336,95.01
2023-03-11 21:24:01:918,0,0.68328,-2.45262,95.0116
2023-03-11 21:24:01:928,0,0.676355,-2.44908,95.0122
2023-03-11 21:24:01:938,0,0.667539,-2.44521,95.0124
2023-03-11 21:24:01:948,0,0.661842,-2.44053,95.0138
2023-03-11 21:24:01:958,0,0.656326,-2.43691,95.0162
2023-03-11 21:24:01:968,0,0.64979,-2.43036,95.0152
2023-03-11 21:24:01:978,0,0.645835,-2.42046,95.0153
2023-03-11 21:24:01:988,0,0.639767,-2.41155,95.0145
2023-03-11 21:24:01:998,0,0.632046,-2.40123,95.0131
2023-03-11 21:24:02:8,0,0.628403,-2.3943,95.0149
2023-03-11 21:24:02:18,0,0.623979,-2.3907,95.0111
2023-03-11 21:24:02:28,0,0.615839,-2.39408,95.0114
2023-03-11 21:24:02:38,0,0.607549,-2.40268,95.0154
2023-03-11 21:24:02:48,0,0.596894,-2.41477,95.0241
2023-03-11 21:24:02:58,0,0.580846,-2.41876,95.0366
2023-03-11 21:24:02:68,0,0.562495,-2.4266,95.0512
2023-03-11 21:24:02:78,0,0.547343,-2.43154,95.0653
2023-03-11 21:24:02:88,0,0.528146,-2.43138,95.0825
2023-03-11 21:24:02:98,0,0.508842,-2.42753,95.098
2023-03-11 21:24:02:108,0,0.489773,-2.42307,95.1169
2023-03-11 21:24:02:118,0,0.467318,-2.41761,95.134
2023-03-11 21:24:02:128,0,0.449321,-2.41242,95.1493
2023-03-11 21:24:02:138,0,0.426599,-2.4076,95.1592
2023-03-11 21:24:02:148,0,0.411865,-2.40006,95.1662
2023-03-11 21:24:02:158,0,0.39606,-2.39366,95.1716
2023-03-11 21:24:02:168,0,0.378406,-2.39201,95.1718
2023-03-11 21:24:02:178,0,0.364003,-2.38859,95.1722
2023-03-11 21:24:02:188,0,0.351537,-2.38822,95.1716
2023-03-11 21:24:02:198,0,0.338972,-2.38974,95.1673
2023-03-11 21:24:02:208,0,0.328451,-2.39178,95.1634
2023-03-11 21:24:02:218,0,0.319254,-2.39408,95.1569
2023-03-11 21:24:02:228,0,0.31196,-2.39368,95.1535
2023-03-11 21:24:02:238,0,0.304158,-2.39205,95.1484
2023-03-11 21:24:02:248,0,0.301348,-2.39141,95.1459
2023-03-11 21:24:02:258,0,0.298459,-2.38932,95.1406
2023-03-11 21:24:02:268,0,0.296716,-2.38985,95.1402
2023-03-11 21:24:02:278,0,0.291413,-2.39026,95.1412
