Timestamp_cmd,imu_cmd,roll_delta,pitch_delta,yaw_delta,voice_type,voice_length
2023-03-15 14:54:23:168,0,-0.139596,-1.46763,51.188,Q,Q
2023-03-15 14:54:23:177,0,-0.152894,-1.46897,51.1809,Q,Q
2023-03-15 14:54:23:187,0,-0.167242,-1.46426,51.1779,Q,Q
2023-03-15 14:54:23:197,0,-0.179027,-1.46033,51.1725,Q,Q
2023-03-15 14:54:23:207,0,-0.187503,-1.4561,51.1649,Q,Q
2023-03-15 14:54:23:217,0,-0.192252,-1.45489,51.1616,Q,Q
2023-03-15 14:54:23:227,0,-0.198973,-1.45079,51.1566,Q,Q
2023-03-15 14:54:23:237,0,-0.207349,-1.44878,51.1526,Q,Q
2023-03-15 14:54:23:247,0,-0.214955,-1.44978,51.1461,Q,Q
2023-03-15 14:54:23:258,0,-0.224272,-1.44604,51.1452,Q,Q
2023-03-15 14:54:23:268,0,-0.233659,-1.44601,51.1474,Q,Q
2023-03-15 14:54:23:278,0,-0.242119,-1.44774,51.1508,Q,Q
2023-03-15 14:54:23:288,0,-0.244972,-1.44838,51.1536,Q,Q
2023-03-15 14:54:23:297,0,-0.238389,-1.45153,51.162,Q,Q
2023-03-15 14:54:23:307,0,-0.229547,-1.45549,51.1683,Q,Q
2023-03-15 14:54:23:318,0,-0.223861,-1.45978,51.1779,Q,Q
2023-03-15 14:54:23:328,0,-0.220247,-1.46741,51.186,Q,Q
2023-03-15 14:54:23:338,0,-0.214482,-1.46844,51.1947,Q,Q
2023-03-15 14:54:23:348,0,-0.207262,-1.47137,51.2041,Q,Q
2023-03-15 14:54:23:358,0,-0.194817,-1.47706,51.2115,Q,Q
2023-03-15 14:54:23:368,0,-0.188191,-1.48307,51.2176,Q,Q
2023-03-15 14:54:23:378,0,-0.178008,-1.49244,51.2222,Q,Q
2023-03-15 14:54:23:388,0,-0.164481,-1.50069,51.2253,Q,Q
2023-03-15 14:54:23:398,0,-0.14786,-1.51504,51.2309,Q,Q
2023-03-15 14:54:23:407,0,-0.125049,-1.53024,51.2341,Q,Q
2023-03-15 14:54:23:418,0,-0.106267,-1.54882,51.2421,Q,Q
2023-03-15 14:54:23:428,0,-0.0948805,-1.56773,51.2529,Q,Q
2023-03-15 14:54:23:438,0,-0.0866826,-1.58361,51.2665,Q,Q
2023-03-15 14:54:23:448,0,-0.0806588,-1.59837,51.2826,Q,Q
2023-03-15 14:54:23:458,0,-0.0756177,-1.6139,51.2948,Q,Q
2023-03-15 14:54:23:467,0,-0.0737372,-1.62595,51.3015,Q,Q
2023-03-15 14:54:23:478,0,-0.066918,-1.63373,51.3025,Q,Q
2023-03-15 14:54:23:488,0,-0.0613102,-1.64378,51.3047,Q,Q
2023-03-15 14:54:23:498,0,-0.0537592,-1.65811,51.311,Q,Q
2023-03-15 14:54:23:508,0,-0.046576,-1.67413,51.3206,Q,Q
2023-03-15 14:54:23:518,0,-0.0357884,-1.68858,51.3354,Q,Q
2023-03-15 14:54:23:528,0,-0.0262648,-1.70277,51.3493,Q,Q
2023-03-15 14:54:23:537,0,-0.0180983,-1.71869,51.3696,Q,Q
2023-03-15 14:54:23:548,0,-0.00986523,-1.73063,51.3885,Q,Q
2023-03-15 14:54:23:558,0,-0.00129304,-1.73753,51.4145,Q,Q
2023-03-15 14:54:23:567,0,0.00402277,-1.74405,51.442,Q,Q
2023-03-15 14:54:23:578,0,0.00906687,-1.75147,51.4701,Q,Q
2023-03-15 14:54:23:587,0,0.0135529,-1.76069,51.5008,Q,Q
2023-03-15 14:54:23:598,0,0.0209759,-1.77018,51.5392,Q,Q
2023-03-15 14:54:23:608,0,0.0271619,-1.77836,51.5805,Q,Q
2023-03-15 14:54:23:618,0,0.0351599,-1.78875,51.6186,Q,Q
2023-03-15 14:54:23:628,0,0.0416751,-1.79841,51.6544,Q,Q
2023-03-15 14:54:23:637,0,0.0495792,-1.80716,51.6813,Q,Q
2023-03-15 14:54:23:648,0,0.059353,-1.81523,51.705,Q,Q
2023-03-15 14:54:23:658,0,0.0721955,-1.82575,51.7328,Q,Q
2023-03-15 14:54:23:668,0,0.0822398,-1.8359,51.7572,Q,Q
2023-03-15 14:54:23:678,0,0.089393,-1.84698,51.7806,Q,Q
2023-03-15 14:54:23:688,0,0.0996557,-1.85157,51.7988,Q,Q
2023-03-15 14:54:23:698,0,0.107624,-1.86151,51.8127,Q,Q
2023-03-15 14:54:23:708,0,0.115318,-1.86803,51.8308,Q,Q
2023-03-15 14:54:23:718,0,0.128434,-1.87917,51.8462,Q,Q
2023-03-15 14:54:23:727,0,0.136923,-1.89256,51.858,Q,Q
2023-03-15 14:54:23:738,0,0.148866,-1.90483,51.8738,Q,Q
2023-03-15 14:54:23:747,0,0.153052,-1.9176,51.8896,Q,Q
2023-03-15 14:54:23:757,0,0.153371,-1.92878,51.8993,Q,Q
2023-03-15 14:54:23:767,0,0.15117,-1.93813,51.9076,Q,Q
2023-03-15 14:54:23:777,0,0.156875,-1.94465,51.903,Q,Q
2023-03-15 14:54:23:787,0,0.175898,-1.94239,51.8897,Q,Q
2023-03-15 14:54:23:797,0,0.214921,-1.92938,51.8677,Q,Q
2023-03-15 14:54:23:807,0,0.259926,-1.91329,51.8466,Q,Q
2023-03-15 14:54:23:817,0,0.300872,-1.90285,51.8176,Q,Q
2023-03-15 14:54:23:827,0,0.327852,-1.90567,51.7819,Q,Q
2023-03-15 14:54:23:837,0,0.347603,-1.90138,51.7263,Q,Q
2023-03-15 14:54:23:847,0,0.372379,-1.89,51.6366,Q,Q
2023-03-15 14:54:23:857,0,0.408632,-1.87017,51.5039,Q,Q
2023-03-15 14:54:23:867,0,0.460017,-1.85209,51.3252,Q,Q
2023-03-15 14:54:23:877,0,0.516918,-1.83939,51.1041,Q,Q
2023-03-15 14:54:23:887,0,0.57398,-1.83391,50.8422,Q,Q
2023-03-15 14:54:23:897,0,0.623618,-1.84077,50.5331,Q,Q
2023-03-15 14:54:23:907,0,0.668805,-1.85504,50.1707,Q,Q
2023-03-15 14:54:23:917,0,0.717672,-1.87133,49.7536,Q,Q
2023-03-15 14:54:23:927,0,0.770543,-1.8974,49.2843,Q,Q
2023-03-15 14:54:23:937,0,0.824931,-1.92474,48.771,Q,Q
2023-03-15 14:54:23:947,0,0.881417,-1.95941,48.1984,Q,Q
2023-03-15 14:54:23:957,0,0.94085,-1.99811,47.578,Q,Q
2023-03-15 14:54:23:967,0,0.997392,-2.04046,46.9085,Q,Q
2023-03-15 14:54:23:977,0,1.04091,-2.08562,46.1956,Q,Q
2023-03-15 14:54:23:987,0,1.06619,-2.12535,45.4311,Q,Q
2023-03-15 14:54:23:997,0,1.0781,-2.16801,44.6173,Q,Q
2023-03-15 14:54:24:8,0,1.08698,-2.21311,43.7535,Q,Q
2023-03-15 14:54:24:17,0,1.09177,-2.26425,42.8593,Q,Q
2023-03-15 14:54:24:28,0,1.10266,-2.31797,41.9441,Q,Q
2023-03-15 14:54:24:37,0,1.11248,-2.37893,41.0159,Q,Q
2023-03-15 14:54:24:47,0,1.11943,-2.4423,40.0741,Q,Q
2023-03-15 14:54:24:57,0,1.13695,-2.49895,39.1243,Q,Q
2023-03-15 14:54:24:68,0,1.15548,-2.55658,38.1765,Q,Q
2023-03-15 14:54:24:78,0,1.17421,-2.61419,37.2419,Q,Q
2023-03-15 14:54:24:88,0,1.1832,-2.67125,36.3267,Q,Q
2023-03-15 14:54:24:97,0,1.18981,-2.7245,35.4317,Q,Q
2023-03-15 14:54:24:108,0,1.19269,-2.76868,34.5427,Q,Q
2023-03-15 14:54:24:118,0,1.2111,-2.79911,33.6561,Q,Q
2023-03-15 14:54:24:127,0,1.23732,-2.82655,32.7917,Q,Q
2023-03-15 14:54:24:137,0,1.26441,-2.85376,31.9572,Q,Q
2023-03-15 14:54:24:147,0,1.29599,-2.88756,31.1631,Q,Q
2023-03-15 14:54:24:157,0,1.3281,-2.92763,30.4131,Q,Q
2023-03-15 14:54:24:168,0,1.35829,-2.96752,29.7086,Q,Q
2023-03-15 14:54:24:177,0,1.39074,-2.99884,29.0396,Q,Q
2023-03-15 14:54:24:187,0,1.42053,-3.01448,28.4036,Q,Q
2023-03-15 14:54:24:198,0,1.44921,-3.01689,27.7942,Q,Q
2023-03-15 14:54:24:208,0,1.47623,-3.01317,27.2116,Q,Q
2023-03-15 14:54:24:217,0,1.50535,-3.00158,26.6539,Q,Q
2023-03-15 14:54:24:227,0,1.53942,-2.98685,26.1172,Q,Q
2023-03-15 14:54:24:237,0,1.57846,-2.97083,25.6065,Q,Q
2023-03-15 14:54:24:247,0,1.61509,-2.95474,25.1106,Q,Q
2023-03-15 14:54:24:257,0,1.64462,-2.94653,24.6306,Q,Q
2023-03-15 14:54:24:267,0,1.66704,-2.93902,24.169,Q,Q
2023-03-15 14:54:24:277,0,1.68851,-2.93471,23.7327,Q,Q
2023-03-15 14:54:24:287,0,1.71084,-2.94005,23.3265,Q,Q
2023-03-15 14:54:24:297,0,1.73137,-2.95444,22.9509,Q,Q
2023-03-15 14:54:24:307,0,1.75405,-2.97176,22.5993,Q,Q
2023-03-15 14:54:24:317,0,1.77612,-2.98325,22.2659,Q,Q
2023-03-15 14:54:24:327,0,1.79694,-2.98554,21.9426,Q,Q
2023-03-15 14:54:24:337,0,1.82106,-2.97588,21.6275,Q,Q
2023-03-15 14:54:24:347,0,1.8419,-2.9538,21.3178,Q,Q
2023-03-15 14:54:24:357,0,1.86447,-2.93249,21.0113,Q,Q
2023-03-15 14:54:24:367,0,1.88463,-2.91758,20.7146,Q,Q
2023-03-15 14:54:24:377,0,1.90121,-2.90293,20.4266,Q,Q
2023-03-15 14:54:24:387,0,1.91184,-2.89185,20.1449,Q,Q
2023-03-15 14:54:24:397,0,1.91896,-2.88802,19.8661,Q,Q
2023-03-15 14:54:24:407,0,1.91342,-2.89386,19.5955,Q,Q
2023-03-15 14:54:24:417,0,1.90137,-2.9015,19.3316,Q,Q
2023-03-15 14:54:24:427,0,1.8804,-2.90913,19.0626,Q,Q
2023-03-15 14:54:24:437,0,1.85786,-2.913,18.7865,Q,Q
2023-03-15 14:54:24:447,0,1.83234,-2.90861,18.5018,Q,Q
2023-03-15 14:54:24:457,0,1.80729,-2.89957,18.205,Q,Q
2023-03-15 14:54:24:467,0,1.78448,-2.89685,17.9021,Q,Q
2023-03-15 14:54:24:477,0,1.75965,-2.88945,17.5894,Q,Q
2023-03-15 14:54:24:487,0,1.72669,-2.88805,17.2737,Q,Q
2023-03-15 14:54:24:497,0,1.68571,-2.89003,16.9496,Q,Q
2023-03-15 14:54:24:507,0,1.64593,-2.89772,16.6233,Q,Q
2023-03-15 14:54:24:517,0,1.60304,-2.91265,16.3041,Q,Q
2023-03-15 14:54:24:527,0,1.56227,-2.93656,15.9895,Q,Q
2023-03-15 14:54:24:537,0,1.52694,-2.96166,15.6837,Q,Q
2023-03-15 14:54:24:547,0,1.49556,-2.98172,15.3826,Q,Q
2023-03-15 14:54:24:557,0,1.46678,-2.9999,15.0897,Q,Q
2023-03-15 14:54:24:567,0,1.42692,-3.0098,14.8063,Q,Q
2023-03-15 14:54:24:577,0,1.38388,-3.01563,14.5359,Q,Q
2023-03-15 14:54:24:587,0,1.3358,-3.02183,14.2766,Q,Q
2023-03-15 14:54:24:597,0,1.2854,-3.02575,14.0278,Q,Q
2023-03-15 14:54:24:607,0,1.23662,-3.02683,13.7882,Q,Q
2023-03-15 14:54:24:617,0,1.18838,-3.02641,13.5579,Q,Q
2023-03-15 14:54:24:627,0,1.12918,-3.02254,13.3421,Q,Q
2023-03-15 14:54:24:637,0,1.06857,-3.0214,13.1359,Q,Q
2023-03-15 14:54:24:647,0,1.00638,-3.01226,12.9357,Q,Q
2023-03-15 14:54:24:657,0,0.957941,-3.0016,12.7408,Q,Q
2023-03-15 14:54:24:667,0,0.913188,-2.98494,12.5571,Q,Q
2023-03-15 14:54:24:677,0,0.867972,-2.97058,12.3872,Q,Q
2023-03-15 14:54:24:687,0,0.819759,-2.94583,12.2268,Q,Q
2023-03-15 14:54:24:697,0,0.772718,-2.9239,12.0703,Q,Q
2023-03-15 14:54:24:707,0,0.730919,-2.90239,11.92,Q,Q
2023-03-15 14:54:24:717,0,0.700716,-2.87912,11.7718,Q,Q
2023-03-15 14:54:24:727,0,0.68715,-2.85407,11.6207,Q,Q
2023-03-15 14:54:24:737,0,0.683391,-2.82856,11.4793,Q,Q
2023-03-15 14:54:24:747,0,0.683117,-2.81182,11.3385,Q,Q
2023-03-15 14:54:24:757,0,0.678458,-2.79828,11.1991,Q,Q
2023-03-15 14:54:24:767,0,0.675308,-2.79183,11.0586,Q,Q
2023-03-15 14:54:24:777,0,0.674806,-2.79097,10.9221,Q,Q
2023-03-15 14:54:24:787,0,0.676597,-2.79347,10.7808,Q,Q
2023-03-15 14:54:24:797,0,0.681832,-2.80189,10.6428,Q,Q
2023-03-15 14:54:24:807,0,0.687208,-2.81227,10.5095,Q,Q
2023-03-15 14:54:24:817,0,0.700348,-2.82564,10.3799,Q,Q
2023-03-15 14:54:24:827,0,0.715711,-2.84781,10.2588,Q,Q
2023-03-15 14:54:24:837,0,0.726565,-2.87106,10.1486,Q,Q
2023-03-15 14:54:24:847,0,0.729708,-2.89173,10.0418,Q,Q
2023-03-15 14:54:24:857,0,0.725768,-2.91146,9.94056,Q,Q
2023-03-15 14:54:24:867,0,0.716919,-2.9265,9.83756,Q,Q
2023-03-15 14:54:24:877,0,0.709884,-2.93894,9.73719,Q,Q
2023-03-15 14:54:24:887,0,0.70979,-2.94953,9.63727,Q,Q
2023-03-15 14:54:24:897,0,0.715594,-2.95254,9.53528,Q,Q
2023-03-15 14:54:24:907,0,0.726366,-2.95012,9.43603,Q,Q
2023-03-15 14:54:24:917,0,0.738444,-2.945,9.34001,Q,Q
2023-03-15 14:54:24:927,0,0.751366,-2.93373,9.24806,Q,Q
2023-03-15 14:54:24:937,0,0.764845,-2.91812,9.16184,Q,Q
2023-03-15 14:54:24:947,0,0.772463,-2.90125,9.082,Q,Q
2023-03-15 14:54:24:957,0,0.773997,-2.88579,9.00939,Q,Q
2023-03-15 14:54:24:967,0,0.774219,-2.86704,8.9391,Q,Q
2023-03-15 14:54:24:977,0,0.778098,-2.85302,8.87287,Q,Q
2023-03-15 14:54:24:987,0,0.787653,-2.84164,8.81383,Q,Q
2023-03-15 14:54:24:997,0,0.804198,-2.82641,8.75456,Q,Q
2023-03-15 14:54:25:7,0,0.818139,-2.81469,8.69796,Q,Q
2023-03-15 14:54:25:17,0,0.833248,-2.79766,8.64507,Q,Q
2023-03-15 14:54:25:27,0,0.844683,-2.78086,8.59351,Q,Q
2023-03-15 14:54:25:37,0,0.853842,-2.76729,8.54991,Q,Q
2023-03-15 14:54:25:47,0,0.863735,-2.75924,8.51069,Q,Q
2023-03-15 14:54:25:57,0,0.870871,-2.76075,8.48613,Q,Q
2023-03-15 14:54:25:67,0,0.868041,-2.76823,8.46662,Q,Q
2023-03-15 14:54:25:77,0,0.867619,-2.77587,8.45289,Q,Q
2023-03-15 14:54:25:87,0,0.869932,-2.78639,8.44743,Q,Q
2023-03-15 14:54:25:97,0,0.875279,-2.79809,8.44261,Q,Q
2023-03-15 14:54:25:107,0,0.883213,-2.80606,8.43911,Q,Q
2023-03-15 14:54:25:117,0,0.892793,-2.81178,8.43684,Q,Q
2023-03-15 14:54:25:127,0,0.895171,-2.81184,8.43125,Q,Q
2023-03-15 14:54:25:138,0,0.896291,-2.80927,8.42734,Q,Q
2023-03-15 14:54:25:147,0,0.888103,-2.8081,8.42167,Q,Q
2023-03-15 14:54:25:157,0,0.878416,-2.8082,8.41317,Q,Q
2023-03-15 14:54:25:167,0,0.868387,-2.80741,8.39943,Q,Q
2023-03-15 14:54:25:177,0,0.858661,-2.80068,8.37844,Q,Q
2023-03-15 14:54:25:188,0,0.8531,-2.78996,8.35602,Q,Q
2023-03-15 14:54:25:197,0,0.845723,-2.776,8.33558,Q,Q
2023-03-15 14:54:25:207,0,0.837611,-2.7628,8.32092,Q,Q
2023-03-15 14:54:25:217,0,0.827638,-2.74538,8.31239,Q,Q
2023-03-15 14:54:25:227,0,0.811754,-2.7288,8.29908,Q,Q
2023-03-15 14:54:25:237,0,0.78851,-2.70574,8.28804,Q,Q
2023-03-15 14:54:25:247,0,0.754554,-2.68355,8.28544,Q,Q
2023-03-15 14:54:25:257,0,0.70879,-2.66428,8.2862,Q,Q
2023-03-15 14:54:25:267,0,0.658001,-2.6487,8.29275,Q,Q
2023-03-15 14:54:25:277,0,0.596894,-2.63248,8.31253,Q,Q
2023-03-15 14:54:25:287,0,0.537569,-2.61653,8.3374,Q,Q
2023-03-15 14:54:25:297,0,0.482752,-2.59781,8.36061,Q,Q
2023-03-15 14:54:25:307,0,0.422033,-2.58294,8.38593,Q,Q
2023-03-15 14:54:25:317,0,0.368041,-2.56469,8.40365,Q,Q
2023-03-15 14:54:25:328,0,0.322223,-2.53994,8.41405,Q,Q
2023-03-15 14:54:25:337,0,0.289341,-2.50292,8.41823,Q,Q
2023-03-15 14:54:25:347,0,0.269922,-2.45673,8.40824,Q,Q
2023-03-15 14:54:25:358,0,0.260339,-2.40548,8.3913,Q,Q
2023-03-15 14:54:25:368,0,0.248547,-2.35697,8.36977,Q,Q
2023-03-15 14:54:25:377,0,0.239611,-2.31396,8.3336,Q,Q
2023-03-15 14:54:25:387,0,0.226538,-2.27748,8.27965,Q,Q
2023-03-15 14:54:25:398,0,0.217241,-2.2383,8.20976,Q,Q
2023-03-15 14:54:25:408,0,0.207577,-2.19748,8.12677,Q,Q
2023-03-15 14:54:25:417,0,0.200225,-2.15738,8.02859,Q,Q
2023-03-15 14:54:25:427,0,0.190128,-2.121,7.92308,Q,Q
2023-03-15 14:54:25:438,0,0.173938,-2.10204,7.80618,Q,Q
2023-03-15 14:54:25:448,0,0.151972,-2.08479,7.6921,Q,Q
2023-03-15 14:54:25:458,0,0.128114,-2.0716,7.57594,Q,Q
2023-03-15 14:54:25:468,0,0.106324,-2.06669,7.45755,Q,Q
2023-03-15 14:54:25:477,0,0.0809018,-2.06867,7.34437,Q,Q
2023-03-15 14:54:25:488,0,0.0525247,-2.07577,7.23368,Q,Q
2023-03-15 14:54:25:498,0,0.0247414,-2.08918,7.13031,Q,Q
2023-03-15 14:54:25:508,0,0.00303279,-2.10935,7.0281,Q,Q
2023-03-15 14:54:25:518,0,-0.0179691,-2.13184,6.93211,Q,Q
2023-03-15 14:54:25:528,0,-0.0301852,-2.15434,6.84888,Q,Q
2023-03-15 14:54:25:538,0,-0.0420237,-2.17952,6.76883,Q,Q
2023-03-15 14:54:25:548,0,-0.0548293,-2.2067,6.69398,Q,Q
2023-03-15 14:54:25:558,0,-0.0629461,-2.23349,6.622,Q,Q
2023-03-15 14:54:25:568,0,-0.073343,-2.25827,6.55169,Q,Q
2023-03-15 14:54:25:577,0,-0.0814733,-2.28088,6.4822,Q,Q
2023-03-15 14:54:25:588,0,-0.0824343,-2.29749,6.4176,Q,Q
2023-03-15 14:54:25:598,0,-0.0777845,-2.31638,6.35687,Q,Q
2023-03-15 14:54:25:608,0,-0.0692117,-2.33297,6.30093,Q,Q
2023-03-15 14:54:25:618,0,-0.0618896,-2.34321,6.25309,Q,Q
2023-03-15 14:54:25:628,0,-0.0528602,-2.35587,6.20232,Q,Q
2023-03-15 14:54:25:638,0,-0.0459596,-2.36779,6.15895,Q,Q
2023-03-15 14:54:25:648,0,-0.039658,-2.37691,6.12143,Q,Q
2023-03-15 14:54:25:658,0,-0.0342668,-2.3857,6.08485,Q,Q
2023-03-15 14:54:25:667,0,-0.0268168,-2.39513,6.04147,Q,Q
2023-03-15 14:54:25:678,0,-0.023621,-2.4035,6.00006,Q,Q
2023-03-15 14:54:25:688,0,-0.0226784,-2.4032,5.96019,Q,Q
2023-03-15 14:54:25:698,0,-0.0207057,-2.39848,5.91617,Q,Q
2023-03-15 14:54:25:708,0,-0.0182831,-2.39076,5.86486,Q,Q
2023-03-15 14:54:25:717,0,-0.0135707,-2.38188,5.80752,Q,Q
2023-03-15 14:54:25:727,0,-0.00896536,-2.37526,5.7489,Q,Q
2023-03-15 14:54:25:737,0,-0.00612705,-2.36805,5.68869,Q,Q
2023-03-15 14:54:25:747,0,-0.00664556,-2.36005,5.62403,Q,Q
2023-03-15 14:54:25:757,0,-0.0106812,-2.34873,5.55633,Q,Q
2023-03-15 14:54:25:767,0,-0.0131796,-2.33535,5.48568,Q,Q
2023-03-15 14:54:25:777,0,-0.0154702,-2.32105,5.41262,Q,Q
2023-03-15 14:54:25:787,0,-0.0156849,-2.30894,5.33442,Q,Q
2023-03-15 14:54:25:797,0,-0.0130264,-2.29423,5.25281,Q,Q
2023-03-15 14:54:25:807,0,-0.0116409,-2.28179,5.17605,Q,Q
2023-03-15 14:54:25:817,0,-0.0117403,-2.268,5.09701,Q,Q
2023-03-15 14:54:25:827,0,-0.012492,-2.25686,5.02003,Q,Q
2023-03-15 14:54:25:837,0,-0.0167366,-2.24423,4.94455,Q,Q
2023-03-15 14:54:25:847,0,-0.0230824,-2.23494,4.86914,Q,Q
2023-03-15 14:54:25:857,0,-0.0317813,-2.23619,4.79139,Q,Q
2023-03-15 14:54:25:867,0,-0.0449819,-2.24071,4.71278,Q,Q
2023-03-15 14:54:25:877,0,-0.0526055,-2.23656,4.63281,Q,Q
2023-03-15 14:54:25:887,0,-0.0559802,-2.22872,4.55542,Q,Q
2023-03-15 14:54:25:897,0,-0.0561504,-2.21974,4.47861,Q,Q
2023-03-15 14:54:25:907,0,-0.0620325,-2.21748,4.40705,Q,Q
2023-03-15 14:54:25:917,0,-0.0815566,-2.22117,4.33507,Q,Q
2023-03-15 14:54:25:927,0,-0.102841,-2.22887,4.26586,Q,Q
2023-03-15 14:54:25:937,0,-0.124592,-2.23725,4.1953,Q,Q
2023-03-15 14:54:25:947,0,-0.141279,-2.24401,4.12778,Q,Q
2023-03-15 14:54:25:957,0,-0.162003,-2.25231,4.06585,Q,Q
2023-03-15 14:54:25:967,0,-0.184319,-2.26376,4.00724,Q,Q
2023-03-15 14:54:25:977,0,-0.210437,-2.28077,3.94795,Q,Q
2023-03-15 14:54:25:987,0,-0.227726,-2.29289,3.89288,Q,Q
2023-03-15 14:54:25:997,0,-0.249024,-2.30736,3.84395,Q,Q
2023-03-15 14:54:26:7,0,-0.265086,-2.32173,3.79888,Q,Q
2023-03-15 14:54:26:17,0,-0.281205,-2.33758,3.76003,Q,Q
2023-03-15 14:54:26:27,0,-0.296089,-2.3576,3.73035,Q,Q
2023-03-15 14:54:26:37,0,-0.315281,-2.38042,3.70814,Q,Q
2023-03-15 14:54:26:47,0,-0.32854,-2.4015,3.69341,Q,Q
2023-03-15 14:54:26:57,0,-0.340956,-2.4205,3.68142,Q,Q
2023-03-15 14:54:26:67,0,-0.342158,-2.4372,3.67326,Q,Q
2023-03-15 14:54:26:77,0,-0.337505,-2.45236,3.66819,Q,Q
2023-03-15 14:54:26:87,0,-0.325232,-2.46338,3.66089,Q,Q
2023-03-15 14:54:26:97,0,-0.314158,-2.47193,3.64852,Q,Q
2023-03-15 14:54:26:107,0,-0.305055,-2.47628,3.63693,Q,Q
2023-03-15 14:54:26:117,0,-0.298053,-2.47573,3.61658,Q,Q
2023-03-15 14:54:26:127,0,-0.289269,-2.47489,3.59767,Q,Q
2023-03-15 14:54:26:137,0,-0.276828,-2.47057,3.56763,Q,Q
2023-03-15 14:54:26:147,0,-0.267554,-2.46227,3.52906,Q,Q
2023-03-15 14:54:26:157,0,-0.254559,-2.46061,3.4951,Q,Q
2023-03-15 14:54:26:168,0,-0.247734,-2.4603,3.45904,Q,Q
2023-03-15 14:54:26:177,0,-0.238597,-2.45927,3.42165,Q,Q
2023-03-15 14:54:26:187,0,-0.22903,-2.45963,3.37809,Q,Q
2023-03-15 14:54:26:198,0,-0.214496,-2.46484,3.33415,Q,Q
2023-03-15 14:54:26:208,0,-0.201437,-2.47254,3.29001,Q,Q
2023-03-15 14:54:26:218,0,-0.195621,-2.48572,3.25335,Q,Q
2023-03-15 14:54:26:227,0,-0.199494,-2.49819,3.21804,Q,Q
2023-03-15 14:54:26:238,0,-0.203226,-2.50948,3.1824,Q,Q
2023-03-15 14:54:26:248,0,-0.217345,-2.5163,3.15234,Q,Q
2023-03-15 14:54:26:258,0,-0.225984,-2.52248,3.12323,Q,Q
2023-03-15 14:54:26:268,0,-0.23047,-2.52557,3.09578,Q,Q
2023-03-15 14:54:26:278,0,-0.230971,-2.5281,3.0791,Q,Q
2023-03-15 14:54:26:288,0,-0.229019,-2.53158,3.06408,Q,Q
2023-03-15 14:54:26:298,0,-0.227703,-2.53363,3.05341,Q,Q
2023-03-15 14:54:26:308,0,-0.233824,-2.53592,3.04776,Q,Q
2023-03-15 14:54:26:318,0,-0.233724,-2.53898,3.04084,Q,Q
2023-03-15 14:54:26:328,0,-0.231749,-2.54557,3.03012,Q,Q
2023-03-15 14:54:26:338,0,-0.230072,-2.55189,3.02108,Q,Q
2023-03-15 14:54:26:348,0,-0.229022,-2.55763,3.01173,Q,Q
2023-03-15 14:54:26:358,0,-0.231887,-2.56861,3.00291,Q,Q
2023-03-15 14:54:26:368,0,-0.23698,-2.57934,2.99342,Q,Q
2023-03-15 14:54:26:378,0,-0.241576,-2.58971,2.98003,Q,Q
2023-03-15 14:54:26:388,0,-0.254302,-2.6011,2.96672,Q,Q
2023-03-15 14:54:26:398,0,-0.269822,-2.60877,2.94766,Q,Q
2023-03-15 14:54:26:408,0,-0.283611,-2.61397,2.92252,Q,Q
2023-03-15 14:54:26:418,0,-0.291181,-2.62115,2.89714,Q,Q
2023-03-15 14:54:26:428,0,-0.29478,-2.62877,2.86893,Q,Q
2023-03-15 14:54:26:438,0,-0.29875,-2.63977,2.84365,Q,Q
2023-03-15 14:54:26:448,0,-0.301724,-2.64288,2.81483,Q,Q
2023-03-15 14:54:26:458,0,-0.306121,-2.64504,2.78503,Q,Q
2023-03-15 14:54:26:468,0,-0.312731,-2.6439,2.75752,Q,Q
2023-03-15 14:54:26:478,0,-0.317931,-2.64628,2.72581,Q,Q
2023-03-15 14:54:26:488,0,-0.324939,-2.64745,2.70493,Q,Q
2023-03-15 14:54:26:498,0,-0.328763,-2.65448,2.68231,Q,Q
2023-03-15 14:54:26:508,0,-0.33217,-2.66641,2.66264,Q,Q
2023-03-15 14:54:26:518,0,-0.331438,-2.67706,2.6421,Q,Q
2023-03-15 14:54:26:528,0,-0.324884,-2.68392,2.61829,Q,Q
2023-03-15 14:54:26:538,0,-0.320202,-2.69527,2.59835,Q,Q
2023-03-15 14:54:26:548,0,-0.318166,-2.70558,2.58301,Q,Q
2023-03-15 14:54:26:558,0,-0.314966,-2.71604,2.56533,Q,Q
2023-03-15 14:54:26:567,0,-0.314966,-2.72766,2.54684,Q,Q
2023-03-15 14:54:26:578,0,-0.313459,-2.7383,2.53159,Q,Q
2023-03-15 14:54:26:588,0,-0.314251,-2.75094,2.51098,Q,Q
2023-03-15 14:54:26:598,0,-0.313717,-2.76417,2.49258,Q,Q
2023-03-15 14:54:26:608,0,-0.309387,-2.77691,2.47474,Q,Q
2023-03-15 14:54:26:617,0,-0.310072,-2.79169,2.45623,Q,Q
2023-03-15 14:54:26:627,0,-0.307346,-2.80857,2.43992,Q,Q
2023-03-15 14:54:26:638,0,-0.305522,-2.82469,2.41958,Q,Q
2023-03-15 14:54:26:648,0,-0.306423,-2.83825,2.39883,Q,Q
2023-03-15 14:54:26:658,0,-0.312821,-2.84712,2.37776,Q,Q
2023-03-15 14:54:26:668,0,-0.317598,-2.8572,2.3542,Q,Q
2023-03-15 14:54:26:678,0,-0.325753,-2.86238,2.3291,Q,Q
2023-03-15 14:54:26:688,0,-0.327747,-2.87113,2.30033,Q,Q
2023-03-15 14:54:26:697,0,-0.326664,-2.8766,2.27218,Q,Q
2023-03-15 14:54:26:708,0,-0.328671,-2.88105,2.23878,Q,Q
2023-03-15 14:54:26:718,0,-0.332241,-2.88981,2.20582,Q,Q
2023-03-15 14:54:26:728,0,-0.342637,-2.89696,2.17343,Q,Q
2023-03-15 14:54:26:738,0,-0.357873,-2.90211,2.13595,Q,Q
2023-03-15 14:54:26:748,0,-0.375545,-2.91099,2.1,Q,Q
2023-03-15 14:54:26:758,0,-0.391578,-2.92405,2.06292,Q,Q
2023-03-15 14:54:26:768,0,-0.413997,-2.93856,2.01914,Q,Q
2023-03-15 14:54:26:778,0,-0.435243,-2.9544,1.97567,Q,Q
2023-03-15 14:54:26:787,0,-0.445777,-2.96164,1.92829,Q,Q
2023-03-15 14:54:26:797,0,-0.448005,-2.9696,1.87457,Q,Q
2023-03-15 14:54:26:807,0,-0.453548,-2.97596,1.82207,Q,Q
2023-03-15 14:54:26:817,0,-0.464822,-2.98216,1.76655,Q,Q
2023-03-15 14:54:26:827,0,-0.483389,-2.99227,1.70256,Q,Q
2023-03-15 14:54:26:838,0,-0.498764,-2.99405,1.63819,Q,Q
2023-03-15 14:54:26:848,0,-0.508597,-2.99183,1.57717,Q,Q
2023-03-15 14:54:26:857,0,-0.511118,-2.98434,1.51273,Q,Q
2023-03-15 14:54:26:868,0,-0.509224,-2.97662,1.45079,Q,Q
2023-03-15 14:54:26:877,0,-0.508263,-2.97452,1.39129,Q,Q
2023-03-15 14:54:26:887,0,-0.516747,-2.97378,1.33273,Q,Q
2023-03-15 14:54:26:897,0,-0.52457,-2.97434,1.27742,Q,Q
2023-03-15 14:54:26:907,0,-0.534415,-2.97065,1.22104,Q,Q
2023-03-15 14:54:26:917,0,-0.548274,-2.96051,1.16804,Q,Q
2023-03-15 14:54:26:927,0,-0.567714,-2.95862,1.11583,Q,Q
2023-03-15 14:54:26:937,0,-0.599372,-2.96375,1.0618,Q,Q
2023-03-15 14:54:26:947,0,-0.628673,-2.96682,1.00624,Q,Q
2023-03-15 14:54:26:958,0,-0.653561,-2.9613,0.950716,Q,Q
2023-03-15 14:54:26:968,0,-0.667172,-2.95616,0.896216,Q,Q
2023-03-15 14:54:26:978,0,-0.67282,-2.95185,0.83889,Q,Q
2023-03-15 14:54:26:987,0,-0.676258,-2.95105,0.787439,Q,Q
2023-03-15 14:54:26:997,0,-0.682893,-2.9564,0.741768,Q,Q
2023-03-15 14:54:27:7,0,-0.692201,-2.95751,0.695562,Q,Q
2023-03-15 14:54:27:18,0,-0.698012,-2.95335,0.646803,Q,Q
2023-03-15 14:54:27:28,0,-0.697137,-2.94591,0.595665,Q,Q
2023-03-15 14:54:27:37,0,-0.700159,-2.94083,0.546265,Q,Q
2023-03-15 14:54:27:48,0,-0.706503,-2.93232,0.501632,Q,Q
2023-03-15 14:54:27:58,0,-0.718058,-2.92975,0.46009,Q,Q
2023-03-15 14:54:27:68,0,-0.721923,-2.92306,0.423837,Q,Q
2023-03-15 14:54:27:78,0,-0.713874,-2.9133,0.386442,Q,Q
2023-03-15 14:54:27:87,0,-0.710278,-2.90048,0.349353,Q,Q
2023-03-15 14:54:27:98,0,-0.711336,-2.8883,0.309448,Q,Q
2023-03-15 14:54:27:107,0,-0.709374,-2.88455,0.27234,Q,Q
2023-03-15 14:54:27:118,0,-0.707268,-2.8838,0.238588,Q,Q
2023-03-15 14:54:27:127,0,-0.709614,-2.88408,0.198773,Q,Q
2023-03-15 14:54:27:138,0,-0.711788,-2.88458,0.15916,Q,Q
2023-03-15 14:54:27:148,0,-0.710583,-2.881,0.10922,Q,Q
2023-03-15 14:54:27:158,0,-0.709101,-2.87731,0.0574204,Q,Q
2023-03-15 14:54:27:168,0,-0.713182,-2.87238,0.0030695,Q,Q
2023-03-15 14:54:27:177,0,-0.716292,-2.87313,-0.0508272,Q,Q
2023-03-15 14:54:27:188,0,-0.7213,-2.87445,-0.103511,Q,Q
2023-03-15 14:54:27:198,0,-0.727377,-2.87471,-0.158944,Q,Q
2023-03-15 14:54:27:208,0,-0.730232,-2.87479,-0.216303,Q,Q
2023-03-15 14:54:27:218,0,-0.739866,-2.87534,-0.274923,Q,Q
2023-03-15 14:54:27:228,0,-0.751251,-2.87356,-0.334844,Q,Q
2023-03-15 14:54:27:238,0,-0.761794,-2.87421,-0.399473,Q,Q
2023-03-15 14:54:27:248,0,-0.770805,-2.87532,-0.460821,Q,Q
2023-03-15 14:54:27:258,0,-0.788259,-2.87967,-0.516731,Q,Q
2023-03-15 14:54:27:268,0,-0.812546,-2.88569,-0.575268,Q,Q
2023-03-15 14:54:27:278,0,-0.841882,-2.89755,-0.632552,Q,Q
2023-03-15 14:54:27:288,0,-0.884919,-2.91997,-0.693021,Q,Q
2023-03-15 14:54:27:298,0,-0.938879,-2.94195,-0.754856,Q,Q
2023-03-15 14:54:27:308,0,-0.991916,-2.95772,-0.823082,Q,Q
2023-03-15 14:54:27:318,0,-1.03656,-2.97288,-0.892431,Q,Q
2023-03-15 14:54:27:328,0,-1.07957,-2.98665,-0.960334,Q,Q
2023-03-15 14:54:27:338,0,-1.12668,-3.00223,-1.02713,Q,Q
2023-03-15 14:54:27:348,0,-1.17189,-3.01732,-1.0946,Q,Q
2023-03-15 14:54:27:358,0,-1.21891,-3.03326,-1.1674,Q,Q
2023-03-15 14:54:27:368,0,-1.25568,-3.04936,-1.23347,Q,Q
2023-03-15 14:54:27:378,0,-1.29137,-3.0628,-1.30158,Q,Q
2023-03-15 14:54:27:388,0,-1.33365,-3.07887,-1.36573,Q,Q
2023-03-15 14:54:27:398,0,-1.38213,-3.09333,-1.42896,Q,Q
2023-03-15 14:54:27:408,0,-1.43859,-3.10784,-1.49165,Q,Q
2023-03-15 14:54:27:418,0,-1.49944,-3.11835,-1.55494,Q,Q
2023-03-15 14:54:27:428,0,-1.56273,-3.13204,-1.62145,Q,Q
2023-03-15 14:54:27:438,0,-1.63425,-3.14706,-1.68608,Q,Q
2023-03-15 14:54:27:448,0,-1.7073,-3.16306,-1.749,Q,Q
2023-03-15 14:54:27:457,0,-1.78519,-3.17402,-1.8099,Q,Q
2023-03-15 14:54:27:468,0,-1.86092,-3.18372,-1.87025,Q,Q
2023-03-15 14:54:27:478,0,-1.93726,-3.19033,-1.92779,Q,Q
2023-03-15 14:54:27:488,0,-2.01036,-3.19676,-1.98329,Q,Q
2023-03-15 14:54:27:498,0,-2.07993,-3.19932,-2.03789,Q,Q
2023-03-15 14:54:27:508,0,-2.14504,-3.19721,-2.08625,Q,Q
2023-03-15 14:54:27:518,0,-2.2044,-3.1913,-2.13024,Q,Q
2023-03-15 14:54:27:528,0,-2.26787,-3.18027,-2.17201,Q,Q
2023-03-15 14:54:27:538,0,-2.32587,-3.16889,-2.20593,Q,Q
2023-03-15 14:54:27:548,0,-2.38165,-3.15936,-2.23189,Q,Q
2023-03-15 14:54:27:558,0,-2.43157,-3.15052,-2.25338,Q,Q
2023-03-15 14:54:27:568,0,-2.47386,-3.14453,-2.26557,Q,Q
2023-03-15 14:54:27:578,0,-2.51224,-3.14319,-2.27072,Q,Q
2023-03-15 14:54:27:588,0,-2.54963,-3.14455,-2.27149,Q,Q
2023-03-15 14:54:27:598,0,-2.58428,-3.14678,-2.26779,Q,Q
2023-03-15 14:54:27:608,0,-2.62068,-3.14578,-2.26978,Q,Q
2023-03-15 14:54:27:618,0,-2.65137,-3.13815,-2.27686,Q,Q
2023-03-15 14:54:27:628,0,-2.67901,-3.12737,-2.28399,Q,Q
2023-03-15 14:54:27:638,0,-2.69965,-3.11502,-2.29477,Q,Q
2023-03-15 14:54:27:647,0,-2.71713,-3.10123,-2.30278,Q,Q
2023-03-15 14:54:27:657,0,-2.73417,-3.08593,-2.31471,Q,Q
2023-03-15 14:54:27:667,0,-2.75416,-3.07621,-2.32453,Q,Q
2023-03-15 14:54:27:678,0,-2.77571,-3.06719,-2.33433,Q,Q
2023-03-15 14:54:27:688,0,-2.7999,-3.05686,-2.34738,Q,Q
2023-03-15 14:54:27:697,0,-2.82029,-3.04402,-2.35953,Q,Q
2023-03-15 14:54:27:708,0,-2.83314,-3.0266,-2.36831,Q,Q
2023-03-15 14:54:27:718,0,-2.84051,-3.00493,-2.37844,Q,Q
2023-03-15 14:54:27:728,0,-2.84717,-2.9941,-2.39169,Q,Q
2023-03-15 14:54:27:738,0,-2.85915,-2.99325,-2.40173,Q,Q
2023-03-15 14:54:27:748,0,-2.87341,-2.98354,-2.41329,Q,Q
2023-03-15 14:54:27:758,0,-2.8915,-2.97285,-2.43046,Q,Q
2023-03-15 14:54:27:767,0,-2.90145,-2.96555,-2.45297,Q,Q
2023-03-15 14:54:27:778,0,-2.90584,-2.95593,-2.47683,Q,Q
2023-03-15 14:54:27:788,0,-2.90574,-2.95006,-2.50145,Q,Q
2023-03-15 14:54:27:798,0,-2.9064,-2.94831,-2.52345,Q,Q
2023-03-15 14:54:27:807,0,-2.9022,-2.95079,-2.54654,Q,Q
2023-03-15 14:54:27:818,0,-2.89977,-2.95349,-2.57267,Q,Q
2023-03-15 14:54:27:828,0,-2.89465,-2.95269,-2.6035,Q,Q
2023-03-15 14:54:27:838,0,-2.88466,-2.94418,-2.63496,Q,Q
2023-03-15 14:54:27:848,0,-2.87997,-2.93646,-2.66824,Q,Q
2023-03-15 14:54:27:858,0,-2.87666,-2.93316,-2.69585,Q,Q
2023-03-15 14:54:27:868,0,-2.87611,-2.93158,-2.72352,Q,Q
2023-03-15 14:54:27:878,0,-2.8687,-2.93537,-2.7559,Q,Q
2023-03-15 14:54:27:888,0,-2.85662,-2.94195,-2.78338,Q,Q
2023-03-15 14:54:27:898,0,-2.8467,-2.94873,-2.80921,Q,Q
2023-03-15 14:54:27:908,0,-2.8375,-2.96163,-2.83615,Q,Q
2023-03-15 14:54:27:917,0,-2.82587,-2.97749,-2.85875,Q,Q
2023-03-15 14:54:27:927,0,-2.80932,-2.99554,-2.87967,Q,Q
2023-03-15 14:54:27:938,0,-2.79895,-3.0103,-2.90089,Q,Q
2023-03-15 14:54:27:948,0,-2.79518,-3.03095,-2.91865,Q,Q
2023-03-15 14:54:27:958,0,-2.78953,-3.04858,-2.93615,Q,Q
2023-03-15 14:54:27:968,0,-2.78606,-3.06683,-2.94995,Q,Q
2023-03-15 14:54:27:978,0,-2.7834,-3.08881,-2.96509,Q,Q
2023-03-15 14:54:27:988,0,-2.78094,-3.11242,-2.97679,Q,Q
2023-03-15 14:54:27:998,0,-2.77758,-3.13488,-2.99049,Q,Q
2023-03-15 14:54:28:8,0,-2.76981,-3.15429,-3.00574,Q,Q
2023-03-15 14:54:28:18,0,-2.76294,-3.1789,-3.02345,Q,Q
2023-03-15 14:54:28:28,0,-2.75474,-3.19728,-3.03739,Q,Q
2023-03-15 14:54:28:38,0,-2.75097,-3.21499,-3.0529,Q,Q
2023-03-15 14:54:28:48,0,-2.74598,-3.2344,-3.06677,Q,Q
2023-03-15 14:54:28:58,0,-2.74211,-3.25588,-3.08069,Q,Q
2023-03-15 14:54:28:68,0,-2.73797,-3.27593,-3.09503,Q,Q
2023-03-15 14:54:28:78,0,-2.73224,-3.29724,-3.10826,Q,Q
2023-03-15 14:54:28:87,0,-2.72349,-3.31637,-3.12093,Q,Q
2023-03-15 14:54:28:97,0,-2.71208,-3.33303,-3.13635,Q,Q
2023-03-15 14:54:28:107,0,-2.701,-3.34818,-3.14893,Q,Q
2023-03-15 14:54:28:118,0,-2.68846,-3.36501,-3.15948,Q,Q
2023-03-15 14:54:28:128,0,-2.67419,-3.37346,-3.17003,Q,Q
2023-03-15 14:54:28:138,0,-2.66274,-3.38018,-3.18056,Q,Q
2023-03-15 14:54:28:147,0,-2.6522,-3.38368,-3.19301,Q,Q
2023-03-15 14:54:28:158,0,-2.64695,-3.38523,-3.21148,Q,Q
2023-03-15 14:54:28:168,0,-2.64183,-3.38633,-3.23513,Q,Q
2023-03-15 14:54:28:178,0,-2.63281,-3.38792,-3.26415,Q,Q
2023-03-15 14:54:28:187,0,-2.62474,-3.38952,-3.29384,Q,Q
2023-03-15 14:54:28:198,0,-2.61759,-3.38826,-3.32607,Q,Q
2023-03-15 14:54:28:208,0,-2.60751,-3.39284,-3.36024,Q,Q
2023-03-15 14:54:28:218,0,-2.59597,-3.39579,-3.39664,Q,Q
2023-03-15 14:54:28:228,0,-2.58041,-3.39524,-3.43432,Q,Q
2023-03-15 14:54:28:238,0,-2.56279,-3.39831,-3.46299,Q,Q
2023-03-15 14:54:28:248,0,-2.54682,-3.40128,-3.49112,Q,Q
2023-03-15 14:54:28:258,0,-2.53486,-3.40683,-3.5139,Q,Q
2023-03-15 14:54:28:268,0,-2.525,-3.4124,-3.53238,Q,Q
2023-03-15 14:54:28:278,0,-2.51946,-3.41746,-3.55384,Q,Q
2023-03-15 14:54:28:288,0,-2.51966,-3.42119,-3.57824,Q,Q
2023-03-15 14:54:28:298,0,-2.51757,-3.42582,-3.59934,Q,Q
2023-03-15 14:54:28:308,0,-2.51517,-3.42668,-3.61882,Q,Q
2023-03-15 14:54:28:318,0,-2.5122,-3.42688,-3.64116,Q,Q
2023-03-15 14:54:28:328,0,-2.51211,-3.42784,-3.66541,Q,Q
2023-03-15 14:54:28:338,0,-2.50954,-3.42969,-3.68518,Q,Q
2023-03-15 14:54:28:348,0,-2.50779,-3.43259,-3.70838,Q,Q
2023-03-15 14:54:28:358,0,-2.50625,-3.43227,-3.73679,Q,Q
2023-03-15 14:54:28:368,0,-2.50424,-3.43099,-3.76907,Q,Q
2023-03-15 14:54:28:378,0,-2.5002,-3.43154,-3.80271,Q,Q
2023-03-15 14:54:28:388,0,-2.49955,-3.43155,-3.83494,Q,Q
2023-03-15 14:54:28:398,0,-2.49943,-3.43616,-3.86864,Q,Q
2023-03-15 14:54:28:408,0,-2.50189,-3.43937,-3.90489,Q,Q
2023-03-15 14:54:28:418,0,-2.50329,-3.44424,-3.93618,Q,Q
2023-03-15 14:54:28:428,0,-2.50252,-3.44828,-3.96916,Q,Q
2023-03-15 14:54:28:438,0,-2.5046,-3.44933,-4.00673,Q,Q
2023-03-15 14:54:28:448,0,-2.50285,-3.44637,-4.04636,Q,Q
2023-03-15 14:54:28:458,0,-2.49779,-3.44474,-4.08061,Q,Q
2023-03-15 14:54:28:468,0,-2.49744,-3.43921,-4.11101,Q,Q
2023-03-15 14:54:28:478,0,-2.4985,-3.43841,-4.13542,Q,Q
2023-03-15 14:54:28:488,0,-2.5012,-3.43325,-4.15967,Q,Q
2023-03-15 14:54:28:498,0,-2.49667,-3.42342,-4.19209,Q,Q
2023-03-15 14:54:28:508,0,-2.49415,-3.41297,-4.22283,Q,Q
2023-03-15 14:54:28:518,0,-2.49131,-3.40816,-4.24943,Q,Q
2023-03-15 14:54:28:528,0,-2.48804,-3.39605,-4.2791,Q,Q
2023-03-15 14:54:28:538,0,-2.48354,-3.38758,-4.3111,Q,Q
2023-03-15 14:54:28:548,0,-2.47843,-3.37689,-4.343,Q,Q
2023-03-15 14:54:28:558,0,-2.46806,-3.36248,-4.37733,Q,Q
2023-03-15 14:54:28:568,0,-2.45536,-3.34714,-4.40764,Q,Q
2023-03-15 14:54:28:578,0,-2.4391,-3.33182,-4.43634,Q,Q
2023-03-15 14:54:28:588,0,-2.41615,-3.31668,-4.46651,Q,Q
2023-03-15 14:54:28:598,0,-2.39445,-3.30486,-4.49618,Q,Q
2023-03-15 14:54:28:608,0,-2.38,-3.29035,-4.52894,Q,Q
2023-03-15 14:54:28:618,0,-2.36406,-3.27559,-4.56228,Q,Q
2023-03-15 14:54:28:628,0,-2.35404,-3.26167,-4.59237,Q,Q
2023-03-15 14:54:28:638,0,-2.34091,-3.25303,-4.62529,Q,Q
2023-03-15 14:54:28:648,0,-2.33171,-3.24308,-4.65867,Q,Q
2023-03-15 14:54:28:658,0,-2.3225,-3.23455,-4.68924,Q,Q
2023-03-15 14:54:28:667,0,-2.31431,-3.22976,-4.72263,Q,Q
2023-03-15 14:54:28:678,0,-2.3103,-3.22233,-4.754,Q,Q
2023-03-15 14:54:28:688,0,-2.30602,-3.21545,-4.78703,Q,Q
2023-03-15 14:54:28:698,0,-2.30502,-3.20586,-4.82512,Q,Q
2023-03-15 14:54:28:707,0,-2.30228,-3.19566,-4.86412,Q,Q
2023-03-15 14:54:28:718,0,-2.30146,-3.18992,-4.90073,Q,Q
2023-03-15 14:54:28:728,0,-2.30365,-3.18488,-4.9386,Q,Q
2023-03-15 14:54:28:738,0,-2.30827,-3.17557,-4.9744,Q,Q
2023-03-15 14:54:28:748,0,-2.31178,-3.16728,-5.01167,Q,Q
2023-03-15 14:54:28:758,0,-2.31402,-3.16382,-5.04647,Q,Q
2023-03-15 14:54:28:768,0,-2.31886,-3.15609,-5.08265,Q,Q
2023-03-15 14:54:28:778,0,-2.324,-3.14848,-5.11487,Q,Q
2023-03-15 14:54:28:788,0,-2.32953,-3.14063,-5.14527,Q,Q
2023-03-15 14:54:28:798,0,-2.33581,-3.13237,-5.17362,Q,Q
2023-03-15 14:54:28:807,0,-2.34096,-3.12443,-5.19651,Q,Q
2023-03-15 14:54:28:817,0,-2.35072,-3.1215,-5.21763,Q,Q
2023-03-15 14:54:28:828,0,-2.35648,-3.11849,-5.23663,Q,Q
2023-03-15 14:54:28:838,0,-2.36047,-3.11512,-5.25487,Q,Q
2023-03-15 14:54:28:848,0,-2.36246,-3.11465,-5.2718,Q,Q
2023-03-15 14:54:28:858,0,-2.36548,-3.11775,-5.282,Q,Q
2023-03-15 14:54:28:868,0,-2.37121,-3.12583,-5.28597,Q,Q
2023-03-15 14:54:28:878,0,-2.37713,-3.13565,-5.29029,Q,Q
2023-03-15 14:54:28:888,0,-2.38635,-3.14624,-5.30082,Q,Q
2023-03-15 14:54:28:898,0,-2.38869,-3.15705,-5.30838,Q,Q
2023-03-15 14:54:28:908,0,-2.39458,-3.17097,-5.31258,Q,Q
2023-03-15 14:54:28:918,0,-2.39713,-3.18812,-5.31556,Q,Q
2023-03-15 14:54:28:928,0,-2.40516,-3.2063,-5.3191,Q,Q
2023-03-15 14:54:28:938,0,-2.41721,-3.2242,-5.32973,Q,Q
2023-03-15 14:54:28:948,0,-2.42985,-3.23367,-5.34072,Q,Q
2023-03-15 14:54:28:958,0,-2.44116,-3.24752,-5.35296,Q,Q
2023-03-15 14:54:28:968,0,-2.45146,-3.25448,-5.36921,Q,Q
2023-03-15 14:54:28:978,0,-2.45835,-3.26148,-5.38904,Q,Q
2023-03-15 14:54:28:987,0,-2.46033,-3.26448,-5.41016,Q,Q
2023-03-15 14:54:28:998,0,-2.46063,-3.26821,-5.43716,Q,Q
2023-03-15 14:54:29:8,0,-2.46155,-3.26858,-5.47027,Q,Q
2023-03-15 14:54:29:18,0,-2.45742,-3.26706,-5.50175,Q,Q
2023-03-15 14:54:29:28,0,-2.4519,-3.26351,-5.53721,Q,Q
2023-03-15 14:54:29:38,0,-2.44396,-3.25792,-5.57422,Q,Q
2023-03-15 14:54:29:48,0,-2.43832,-3.25715,-5.60974,Q,Q
2023-03-15 14:54:29:58,0,-2.43584,-3.25162,-5.64766,Q,Q
2023-03-15 14:54:29:68,0,-2.43092,-3.25064,-5.67673,Q,Q
2023-03-15 14:54:29:78,0,-2.42743,-3.25196,-5.70477,Q,Q
2023-03-15 14:54:29:88,0,-2.42346,-3.24919,-5.73184,Q,Q
2023-03-15 14:54:29:98,0,-2.41904,-3.24524,-5.75899,Q,Q
2023-03-15 14:54:29:108,0,-2.40986,-3.24039,-5.78446,Q,Q
2023-03-15 14:54:29:118,0,-2.39668,-3.24331,-5.80223,Q,Q
2023-03-15 14:54:29:128,0,-2.38497,-3.25002,-5.81735,Q,Q
2023-03-15 14:54:29:138,0,-2.37277,-3.25441,-5.83281,Q,Q
2023-03-15 14:54:29:148,0,-2.36477,-3.25854,-5.85032,Q,Q
2023-03-15 14:54:29:158,0,-2.35995,-3.26538,-5.87295,Q,Q
2023-03-15 14:54:29:168,0,-2.35308,-3.2703,-5.89598,Q,Q
2023-03-15 14:54:29:177,0,-2.35127,-3.27061,-5.91789,Q,Q
2023-03-15 14:54:29:188,0,-2.34201,-3.27385,-5.94343,Q,Q
2023-03-15 14:54:29:197,0,-2.33627,-3.27797,-5.97452,Q,Q
2023-03-15 14:54:29:208,0,-2.32987,-3.28398,-6.00121,Q,Q
2023-03-15 14:54:29:218,0,-2.32407,-3.28815,-6.02722,Q,Q
2023-03-15 14:54:29:228,0,-2.31479,-3.29881,-6.05462,Q,Q
2023-03-15 14:54:29:238,0,-2.3037,-3.30761,-6.07911,Q,Q
2023-03-15 14:54:29:248,0,-2.29487,-3.31492,-6.10169,Q,Q
2023-03-15 14:54:29:258,0,-2.28302,-3.32229,-6.12019,Q,Q
2023-03-15 14:54:29:268,0,-2.27631,-3.33204,-6.13577,Q,Q
2023-03-15 14:54:29:278,0,-2.27078,-3.33988,-6.15002,Q,Q
2023-03-15 14:54:29:288,0,-2.2674,-3.34733,-6.16188,Q,Q
2023-03-15 14:54:29:298,0,-2.26575,-3.35545,-6.17235,Q,Q
2023-03-15 14:54:29:308,0,-2.25982,-3.36187,-6.1858,Q,Q
2023-03-15 14:54:29:318,0,-2.25842,-3.37128,-6.19723,Q,Q
2023-03-15 14:54:29:328,0,-2.25501,-3.38031,-6.20956,Q,Q
2023-03-15 14:54:29:338,0,-2.24952,-3.38839,-6.22312,Q,Q
2023-03-15 14:54:29:348,0,-2.24451,-3.39467,-6.24003,Q,Q
2023-03-15 14:54:29:358,0,-2.23475,-3.4021,-6.25252,Q,Q
2023-03-15 14:54:29:368,0,-2.22665,-3.40994,-6.26999,Q,Q
2023-03-15 14:54:29:378,0,-2.22073,-3.41843,-6.28382,Q,Q
2023-03-15 14:54:29:388,0,-2.21265,-3.42651,-6.29795,Q,Q
2023-03-15 14:54:29:398,0,-2.20324,-3.43394,-6.3126,Q,Q
2023-03-15 14:54:29:408,0,-2.19323,-3.44024,-6.32501,Q,Q
2023-03-15 14:54:29:418,0,-2.18316,-3.44707,-6.33992,Q,Q
2023-03-15 14:54:29:428,0,-2.17789,-3.45286,-6.35582,Q,Q
2023-03-15 14:54:29:438,0,-2.17069,-3.45898,-6.37664,Q,Q
2023-03-15 14:54:29:448,0,-2.16451,-3.46463,-6.3976,Q,Q
2023-03-15 14:54:29:458,0,-2.1541,-3.4682,-6.42444,Q,Q
2023-03-15 14:54:29:468,0,-2.1405,-3.46419,-6.4491,Q,Q
2023-03-15 14:54:29:478,0,-2.12956,-3.46963,-6.47197,Q,Q
2023-03-15 14:54:29:487,0,-2.12546,-3.47345,-6.49276,Q,Q
2023-03-15 14:54:29:498,0,-2.12044,-3.47621,-6.52055,Q,Q
2023-03-15 14:54:29:508,0,-2.11499,-3.47861,-6.54642,Q,Q
2023-03-15 14:54:29:518,0,-2.11332,-3.48162,-6.57346,Q,Q
2023-03-15 14:54:29:528,0,-2.10917,-3.48953,-6.59521,Q,Q
2023-03-15 14:54:29:538,0,-2.10164,-3.49781,-6.61154,Q,Q
2023-03-15 14:54:29:548,0,-2.09127,-3.5019,-6.63108,Q,Q
2023-03-15 14:54:29:558,0,-2.07719,-3.50698,-6.64642,Q,Q
2023-03-15 14:54:29:568,0,-2.06162,-3.50683,-6.65711,Q,Q
2023-03-15 14:54:29:578,0,-2.04751,-3.50549,-6.6681,Q,Q
2023-03-15 14:54:29:588,0,-2.04164,-3.50948,-6.67472,Q,Q
2023-03-15 14:54:29:598,0,-2.04375,-3.51277,-6.68388,Q,Q
2023-03-15 14:54:29:608,0,-2.04735,-3.51866,-6.69546,Q,Q
2023-03-15 14:54:29:617,0,-2.04727,-3.52024,-6.71226,Q,Q
2023-03-15 14:54:29:628,0,-2.04149,-3.51752,-6.72948,Q,Q
2023-03-15 14:54:29:638,0,-2.03173,-3.51278,-6.74349,Q,Q
2023-03-15 14:54:29:648,0,-2.02445,-3.51711,-6.75452,Q,Q
2023-03-15 14:54:29:658,0,-2.01803,-3.51661,-6.76777,Q,Q
2023-03-15 14:54:29:668,0,-2.01261,-3.51775,-6.78494,Q,Q
2023-03-15 14:54:29:678,0,-2.00214,-3.52041,-6.80088,Q,Q
2023-03-15 14:54:29:687,0,-1.99557,-3.52241,-6.81594,Q,Q
2023-03-15 14:54:29:697,0,-1.99144,-3.52197,-6.82869,Q,Q
2023-03-15 14:54:29:707,0,-1.99519,-3.52411,-6.8409,Q,Q
2023-03-15 14:54:29:718,0,-1.99937,-3.52862,-6.85419,Q,Q
2023-03-15 14:54:29:728,0,-1.99971,-3.53231,-6.86877,Q,Q
2023-03-15 14:54:29:738,0,-2.00954,-3.53334,-6.88679,Q,Q
2023-03-15 14:54:29:748,0,-2.01431,-3.53593,-6.90748,Q,Q
2023-03-15 14:54:29:758,0,-2.01328,-3.53351,-6.92751,Q,Q
2023-03-15 14:54:29:768,0,-2.01004,-3.53851,-6.93921,Q,Q
2023-03-15 14:54:29:778,0,-2.00675,-3.54333,-6.9484,Q,Q
2023-03-15 14:54:29:788,0,-2.00913,-3.54586,-6.95664,Q,Q
2023-03-15 14:54:29:798,0,-2.00899,-3.55003,-6.96571,Q,Q
2023-03-15 14:54:29:808,0,-2.00807,-3.55196,-6.96908,Q,Q
2023-03-15 14:54:29:818,0,-2.00917,-3.54892,-6.97876,Q,Q
2023-03-15 14:54:29:828,0,-2.01085,-3.54747,-6.99048,Q,Q
2023-03-15 14:54:29:838,0,-2.01098,-3.54576,-7.00015,Q,Q
2023-03-15 14:54:29:848,0,-2.0074,-3.54801,-7.01417,Q,Q
2023-03-15 14:54:29:858,0,-2.00381,-3.55128,-7.02786,Q,Q
2023-03-15 14:54:29:868,0,-1.99848,-3.55854,-7.04139,Q,Q
2023-03-15 14:54:29:878,0,-1.99239,-3.56222,-7.05421,Q,Q
2023-03-15 14:54:29:888,0,-1.98212,-3.55765,-7.06761,Q,Q
2023-03-15 14:54:29:898,0,-1.97326,-3.56068,-7.07859,Q,Q
2023-03-15 14:54:29:908,0,-1.9664,-3.56804,-7.0902,Q,Q
2023-03-15 14:54:29:918,0,-1.95995,-3.57525,-7.10147,Q,Q
2023-03-15 14:54:29:928,0,-1.95335,-3.58121,-7.11405,Q,Q
2023-03-15 14:54:29:938,0,-1.94533,-3.58978,-7.12376,Q,Q
2023-03-15 14:54:29:948,0,-1.93744,-3.58781,-7.12845,Q,Q
2023-03-15 14:54:29:958,0,-1.92232,-3.59046,-7.13743,Q,Q
2023-03-15 14:54:29:968,0,-1.90919,-3.59676,-7.1387,Q,Q
2023-03-15 14:54:29:978,0,-1.90104,-3.5977,-7.13841,Q,Q
2023-03-15 14:54:29:988,0,-1.89206,-3.59489,-7.14108,Q,Q
2023-03-15 14:54:29:998,0,-1.87739,-3.59106,-7.13971,Q,Q
2023-03-15 14:54:30:8,0,-1.86269,-3.59251,-7.13643,Q,Q
2023-03-15 14:54:30:18,0,-1.85577,-3.59441,-7.12981,Q,Q
2023-03-15 14:54:30:28,0,-1.85023,-3.59696,-7.12461,Q,Q
2023-03-15 14:54:30:37,0,-1.84721,-3.59792,-7.11823,Q,Q
2023-03-15 14:54:30:48,0,-1.84002,-3.58855,-7.11066,Q,Q
2023-03-15 14:54:30:57,0,-1.83096,-3.58083,-7.10408,Q,Q
2023-03-15 14:54:30:68,0,-1.82776,-3.57684,-7.09852,Q,Q
2023-03-15 14:54:30:78,0,-1.8298,-3.56936,-7.08979,Q,Q
2023-03-15 14:54:30:88,0,-1.83336,-3.56509,-7.08558,Q,Q
2023-03-15 14:54:30:98,0,-1.83128,-3.55983,-7.08233,Q,Q
2023-03-15 14:54:30:107,0,-1.82831,-3.55212,-7.07709,Q,Q
2023-03-15 14:54:30:118,0,-1.82974,-3.54183,-7.06902,Q,Q
2023-03-15 14:54:30:128,0,-1.83254,-3.5396,-7.05826,Q,Q
2023-03-15 14:54:30:138,0,-1.83902,-3.53385,-7.04084,Q,Q
2023-03-15 14:54:30:148,0,-1.84543,-3.52937,-7.02351,Q,Q
2023-03-15 14:54:30:158,0,-1.8477,-3.52917,-7.00215,Q,Q
2023-03-15 14:54:30:168,0,-1.85915,-3.52368,-6.97052,Q,Q
2023-03-15 14:54:30:178,0,-1.87802,-3.51652,-6.92848,Q,Q
2023-03-15 14:54:30:188,0,-1.89942,-3.51238,-6.87809,Q,Q
2023-03-15 14:54:30:198,0,-1.92281,-3.51061,-6.82037,Q,Q
2023-03-15 14:54:30:208,0,-1.94091,-3.5084,-6.75281,Q,Q
2023-03-15 14:54:30:218,0,-1.96108,-3.50868,-6.66787,Q,Q
2023-03-15 14:54:30:228,0,-1.98556,-3.50404,-6.56189,Q,Q
2023-03-15 14:54:30:237,0,-2.01088,-3.49485,-6.43845,Q,Q
2023-03-15 14:54:30:248,0,-2.04443,-3.48047,-6.29517,Q,Q
2023-03-15 14:54:30:258,0,-2.08333,-3.45616,-6.1396,Q,Q
2023-03-15 14:54:30:268,0,-2.12411,-3.42576,-5.96729,Q,Q
2023-03-15 14:54:30:278,0,-2.17225,-3.38521,-5.77872,Q,Q
2023-03-15 14:54:30:288,0,-2.22577,-3.33848,-5.57919,Q,Q
2023-03-15 14:54:30:298,0,-2.28092,-3.28695,-5.37183,Q,Q
2023-03-15 14:54:30:308,0,-2.33218,-3.22894,-5.15812,Q,Q
2023-03-15 14:54:30:318,0,-2.37719,-3.1633,-4.9389,Q,Q
2023-03-15 14:54:30:327,0,-2.41227,-3.09305,-4.71342,Q,Q
2023-03-15 14:54:30:338,0,-2.43903,-3.01089,-4.4831,Q,Q
2023-03-15 14:54:30:348,0,-2.462,-2.92066,-4.25587,Q,Q
2023-03-15 14:54:30:358,0,-2.489,-2.82764,-4.02741,Q,Q
2023-03-15 14:54:30:368,0,-2.51598,-2.73035,-3.81276,Q,Q
2023-03-15 14:54:30:378,0,-2.53758,-2.63026,-3.60629,Q,Q
2023-03-15 14:54:30:388,0,-2.55786,-2.53799,-3.40548,Q,Q
2023-03-15 14:54:30:398,0,-2.58029,-2.46056,-3.20766,Q,Q
2023-03-15 14:54:30:408,0,-2.61016,-2.3963,-3.01346,Q,Q
2023-03-15 14:54:30:418,0,-2.64814,-2.34325,-2.8284,Q,Q
2023-03-15 14:54:30:428,0,-2.68922,-2.30883,-2.64413,Q,Q
2023-03-15 14:54:30:438,0,-2.73238,-2.288,-2.46174,Q,Q
2023-03-15 14:54:30:448,0,-2.77622,-2.27754,-2.28214,Q,Q
2023-03-15 14:54:30:458,0,-2.82106,-2.27224,-2.11221,Q,Q
2023-03-15 14:54:30:468,0,-2.87132,-2.27299,-1.94613,Q,Q
2023-03-15 14:54:30:478,0,-2.92143,-2.28173,-1.7853,Q,Q
2023-03-15 14:54:30:488,0,-2.97892,-2.29375,-1.63192,Q,Q
2023-03-15 14:54:30:498,0,-3.03315,-2.30735,-1.48409,Q,Q
2023-03-15 14:54:30:508,0,-3.08315,-2.32314,-1.34454,Q,Q
2023-03-15 14:54:30:518,0,-3.12524,-2.33822,-1.21464,Q,Q
2023-03-15 14:54:30:528,0,-3.15285,-2.35427,-1.09468,Q,Q
2023-03-15 14:54:30:538,0,-3.16499,-2.363,-0.993089,Q,Q
2023-03-15 14:54:30:548,0,-3.15654,-2.3659,-0.906179,Q,Q
2023-03-15 14:54:30:558,0,-3.1379,-2.36159,-0.833926,Q,Q
2023-03-15 14:54:30:568,0,-3.1136,-2.35334,-0.773608,Q,Q
2023-03-15 14:54:30:578,0,-3.09474,-2.33715,-0.721585,Q,Q
2023-03-15 14:54:30:588,0,-3.07768,-2.31045,-0.682827,Q,Q
2023-03-15 14:54:30:598,0,-3.0641,-2.27834,-0.655502,Q,Q
2023-03-15 14:54:30:608,0,-3.05181,-2.24393,-0.637865,Q,Q
2023-03-15 14:54:30:618,0,-3.03697,-2.20705,-0.632919,Q,Q
2023-03-15 14:54:30:628,0,-3.01394,-2.17314,-0.642804,Q,Q
2023-03-15 14:54:30:638,0,-2.98472,-2.13835,-0.664594,Q,Q
2023-03-15 14:54:30:648,0,-2.94983,-2.10484,-0.694439,Q,Q
2023-03-15 14:54:30:658,0,-2.9033,-2.07657,-0.72985,Q,Q
2023-03-15 14:54:30:668,0,-2.85711,-2.05223,-0.774325,Q,Q
2023-03-15 14:54:30:678,0,-2.80897,-2.03207,-0.820516,Q,Q
2023-03-15 14:54:30:688,0,-2.75433,-2.01569,-0.87847,Q,Q
2023-03-15 14:54:30:698,0,-2.70204,-2.00841,-0.934258,Q,Q
2023-03-15 14:54:30:708,0,-2.64885,-2.00846,-0.993747,Q,Q
2023-03-15 14:54:30:717,0,-2.60092,-2.01252,-1.04991,Q,Q
2023-03-15 14:54:30:728,0,-2.56496,-2.02063,-1.1049,Q,Q
2023-03-15 14:54:30:737,0,-2.53861,-2.02185,-1.1557,Q,Q
2023-03-15 14:54:30:748,0,-2.52047,-2.01835,-1.19967,Q,Q
2023-03-15 14:54:30:758,0,-2.51049,-2.00868,-1.24396,Q,Q
2023-03-15 14:54:30:768,0,-2.51094,-1.99505,-1.28424,Q,Q
2023-03-15 14:54:30:778,0,-2.51802,-1.98481,-1.32422,Q,Q
2023-03-15 14:54:30:788,0,-2.52472,-1.96607,-1.36992,Q,Q
2023-03-15 14:54:30:798,0,-2.53061,-1.95085,-1.41662,Q,Q
2023-03-15 14:54:30:808,0,-2.53055,-1.93861,-1.4579,Q,Q
2023-03-15 14:54:30:818,0,-2.52516,-1.92491,-1.49899,Q,Q
2023-03-15 14:54:30:828,0,-2.52533,-1.91757,-1.53418,Q,Q
2023-03-15 14:54:30:837,0,-2.5217,-1.91313,-1.57044,Q,Q
2023-03-15 14:54:30:847,0,-2.51511,-1.91611,-1.60862,Q,Q
2023-03-15 14:54:30:857,0,-2.507,-1.92572,-1.6364,Q,Q
2023-03-15 14:54:30:867,0,-2.50545,-1.9369,-1.65888,Q,Q
2023-03-15 14:54:30:878,0,-2.50799,-1.95778,-1.67358,Q,Q
2023-03-15 14:54:30:888,0,-2.51419,-1.9896,-1.68693,Q,Q
2023-03-15 14:54:30:898,0,-2.52003,-2.02679,-1.70028,Q,Q
2023-03-15 14:54:30:908,0,-2.52303,-2.07029,-1.708,Q,Q
2023-03-15 14:54:30:918,0,-2.52417,-2.1198,-1.70993,Q,Q
2023-03-15 14:54:30:928,0,-2.52285,-2.17059,-1.7125,Q,Q
2023-03-15 14:54:30:938,0,-2.5174,-2.22781,-1.71024,Q,Q
2023-03-15 14:54:30:948,0,-2.50811,-2.28781,-1.70564,Q,Q
2023-03-15 14:54:30:958,0,-2.49354,-2.34779,-1.70075,Q,Q
2023-03-15 14:54:30:968,0,-2.47575,-2.40664,-1.69831,Q,Q
2023-03-15 14:54:30:977,0,-2.45921,-2.46644,-1.6957,Q,Q
2023-03-15 14:54:30:988,0,-2.43894,-2.5227,-1.69519,Q,Q
2023-03-15 14:54:30:998,0,-2.41796,-2.57511,-1.69618,Q,Q
2023-03-15 14:54:31:8,0,-2.39755,-2.62564,-1.69966,Q,Q
2023-03-15 14:54:31:18,0,-2.37245,-2.67433,-1.70769,Q,Q
2023-03-15 14:54:31:28,0,-2.34096,-2.71796,-1.71492,Q,Q
2023-03-15 14:54:31:38,0,-2.31278,-2.75437,-1.72385,Q,Q
2023-03-15 14:54:31:48,0,-2.27954,-2.78496,-1.73515,Q,Q
2023-03-15 14:54:31:58,0,-2.24407,-2.79301,-1.74838,Q,Q
2023-03-15 14:54:31:68,0,-2.20558,-2.80005,-1.75899,Q,Q
2023-03-15 14:54:31:78,0,-2.17546,-2.80716,-1.75997,Q,Q
2023-03-15 14:54:31:88,0,-2.15285,-2.81225,-1.75486,Q,Q
2023-03-15 14:54:31:98,0,-2.12799,-2.8138,-1.74909,Q,Q
2023-03-15 14:54:31:108,0,-2.1075,-2.81685,-1.74646,Q,Q
2023-03-15 14:54:31:118,0,-2.08758,-2.81283,-1.74399,Q,Q
2023-03-15 14:54:31:128,0,-2.06753,-2.80539,-1.74521,Q,Q
2023-03-15 14:54:31:138,0,-2.04937,-2.79863,-1.74166,Q,Q
2023-03-15 14:54:31:148,0,-2.03553,-2.78718,-1.74201,Q,Q
2023-03-15 14:54:31:158,0,-2.01711,-2.77034,-1.74338,Q,Q
2023-03-15 14:54:31:168,0,-2.0026,-2.75552,-1.74299,Q,Q
2023-03-15 14:54:31:178,0,-1.99554,-2.74473,-1.7358,Q,Q
2023-03-15 14:54:31:188,0,-2.00109,-2.7398,-1.72975,Q,Q
2023-03-15 14:54:31:198,0,-2.00712,-2.74189,-1.72506,Q,Q
2023-03-15 14:54:31:208,0,-2.01024,-2.74273,-1.72215,Q,Q
2023-03-15 14:54:31:218,0,-2.01389,-2.74911,-1.72285,Q,Q
2023-03-15 14:54:31:227,0,-2.0125,-2.7534,-1.72823,Q,Q
2023-03-15 14:54:31:237,0,-2.0036,-2.75387,-1.74369,Q,Q
2023-03-15 14:54:31:247,0,-1.98911,-2.7604,-1.76716,Q,Q
2023-03-15 14:54:31:258,0,-1.97183,-2.7705,-1.78781,Q,Q
2023-03-15 14:54:31:268,0,-1.95765,-2.77769,-1.81548,Q,Q
2023-03-15 14:54:31:278,0,-1.94833,-2.77848,-1.85266,Q,Q
2023-03-15 14:54:31:288,0,-1.93468,-2.77626,-1.89205,Q,Q
2023-03-15 14:54:31:298,0,-1.92449,-2.77268,-1.92985,Q,Q
2023-03-15 14:54:31:308,0,-1.92091,-2.76782,-1.96038,Q,Q
2023-03-15 14:54:31:317,0,-1.91568,-2.75838,-1.99151,Q,Q
2023-03-15 14:54:31:328,0,-1.90889,-2.74294,-2.01564,Q,Q
2023-03-15 14:54:31:338,0,-1.9047,-2.72637,-2.03038,Q,Q
2023-03-15 14:54:31:347,0,-1.9019,-2.71137,-2.03247,Q,Q
2023-03-15 14:54:31:358,0,-1.90317,-2.69488,-2.02899,Q,Q
2023-03-15 14:54:31:368,0,-1.9015,-2.67442,-2.01544,Q,Q
2023-03-15 14:54:31:378,0,-1.89866,-2.65566,-2.00068,Q,Q
2023-03-15 14:54:31:388,0,-1.89541,-2.64145,-1.98825,Q,Q
2023-03-15 14:54:31:398,0,-1.88464,-2.62822,-1.97457,Q,Q
2023-03-15 14:54:31:408,0,-1.87297,-2.615,-1.96067,Q,Q
2023-03-15 14:54:31:418,0,-1.86791,-2.60592,-1.95124,Q,Q
2023-03-15 14:54:31:428,0,-1.85792,-2.59983,-1.94871,Q,Q
2023-03-15 14:54:31:438,0,-1.84868,-2.59437,-1.95319,Q,Q
2023-03-15 14:54:31:448,0,-1.84076,-2.5969,-1.96146,Q,Q
2023-03-15 14:54:31:458,0,-1.83113,-2.60064,-1.9715,Q,Q
2023-03-15 14:54:31:468,0,-1.82359,-2.61188,-1.99207,Q,Q
2023-03-15 14:54:31:478,0,-1.81695,-2.62845,-2.01628,Q,Q
2023-03-15 14:54:31:488,0,-1.80688,-2.64628,-2.04444,Q,Q
2023-03-15 14:54:31:498,0,-1.80154,-2.66606,-2.06983,Q,Q
2023-03-15 14:54:31:508,0,-1.80026,-2.68868,-2.09111,Q,Q
2023-03-15 14:54:31:518,0,-1.81002,-2.71568,-2.11026,Q,Q
2023-03-15 14:54:31:528,0,-1.83045,-2.73975,-2.1289,Q,Q
2023-03-15 14:54:31:538,0,-1.85446,-2.76122,-2.14576,Q,Q
2023-03-15 14:54:31:548,0,-1.88068,-2.77986,-2.16098,Q,Q
2023-03-15 14:54:31:558,0,-1.91161,-2.80283,-2.16957,Q,Q
2023-03-15 14:54:31:568,0,-1.94487,-2.82516,-2.17507,Q,Q
2023-03-15 14:54:31:578,0,-1.97583,-2.84875,-2.16884,Q,Q
2023-03-15 14:54:31:588,0,-2.00539,-2.87469,-2.15567,Q,Q
2023-03-15 14:54:31:598,0,-2.02833,-2.89669,-2.13844,Q,Q
2023-03-15 14:54:31:608,0,-2.04777,-2.92034,-2.11639,Q,Q
2023-03-15 14:54:31:618,0,-2.05752,-2.94422,-2.09014,Q,Q
2023-03-15 14:54:31:628,0,-2.05687,-2.96996,-2.07156,Q,Q
2023-03-15 14:54:31:638,0,-2.0451,-2.99018,-2.05667,Q,Q
2023-03-15 14:54:31:647,0,-2.02498,-3.00684,-2.04997,Q,Q
2023-03-15 14:54:31:658,0,-1.99637,-3.02359,-2.04694,Q,Q
2023-03-15 14:54:31:668,0,-1.97536,-3.04024,-2.04664,Q,Q
2023-03-15 14:54:31:678,0,-1.95553,-3.04923,-2.0488,Q,Q
2023-03-15 14:54:31:688,0,-1.93686,-3.05483,-2.05588,Q,Q
2023-03-15 14:54:31:697,0,-1.92271,-3.05483,-2.07352,Q,Q
2023-03-15 14:54:31:707,0,-1.90434,-3.05286,-2.09797,Q,Q
2023-03-15 14:54:31:718,0,-1.88462,-3.04885,-2.12042,Q,Q
2023-03-15 14:54:31:727,0,-1.8634,-3.03855,-2.15451,Q,Q
2023-03-15 14:54:31:737,0,-1.83914,-3.02439,-2.19485,Q,Q
2023-03-15 14:54:31:747,0,-1.81347,-3.00717,-2.24148,Q,Q
2023-03-15 14:54:31:758,0,-1.79138,-2.98535,-2.28374,Q,Q
2023-03-15 14:54:31:768,0,-1.77474,-2.96557,-2.32452,Q,Q
2023-03-15 14:54:31:778,0,-1.76646,-2.94534,-2.35579,Q,Q
2023-03-15 14:54:31:788,0,-1.76645,-2.92402,-2.38027,Q,Q
2023-03-15 14:54:31:798,0,-1.76949,-2.8995,-2.40048,Q,Q
2023-03-15 14:54:31:808,0,-1.77348,-2.88504,-2.41301,Q,Q
2023-03-15 14:54:31:818,0,-1.77286,-2.87444,-2.42951,Q,Q
2023-03-15 14:54:31:828,0,-1.76191,-2.87173,-2.44112,Q,Q
2023-03-15 14:54:31:838,0,-1.73996,-2.87463,-2.45247,Q,Q
2023-03-15 14:54:31:847,0,-1.71604,-2.88941,-2.46638,Q,Q
2023-03-15 14:54:31:858,0,-1.69583,-2.90365,-2.47981,Q,Q
2023-03-15 14:54:31:868,0,-1.68349,-2.92138,-2.4916,Q,Q
2023-03-15 14:54:31:877,0,-1.67038,-2.93455,-2.50261,Q,Q
2023-03-15 14:54:31:887,0,-1.66465,-2.94126,-2.50984,Q,Q
2023-03-15 14:54:31:897,0,-1.65629,-2.95042,-2.51424,Q,Q
2023-03-15 14:54:31:907,0,-1.65438,-2.96075,-2.5175,Q,Q
2023-03-15 14:54:31:917,0,-1.64904,-2.97182,-2.51908,Q,Q
2023-03-15 14:54:31:927,0,-1.6375,-2.97668,-2.52154,Q,Q
2023-03-15 14:54:31:937,0,-1.61928,-2.96715,-2.53241,Q,Q
2023-03-15 14:54:31:947,0,-1.58878,-2.94943,-2.55191,Q,Q
2023-03-15 14:54:31:958,0,-1.55952,-2.92995,-2.57138,Q,Q
2023-03-15 14:54:31:968,0,-1.53632,-2.90696,-2.58248,Q,Q
2023-03-15 14:54:31:978,0,-1.51829,-2.88905,-2.5895,Q,Q
2023-03-15 14:54:31:988,0,-1.50833,-2.87631,-2.59056,Q,Q
2023-03-15 14:54:31:998,0,-1.5058,-2.86763,-2.58938,Q,Q
2023-03-15 14:54:32:8,0,-1.50466,-2.86581,-2.58484,Q,Q
2023-03-15 14:54:32:18,0,-1.49939,-2.87021,-2.57244,Q,Q
2023-03-15 14:54:32:28,0,-1.48664,-2.87408,-2.56319,Q,Q
2023-03-15 14:54:32:38,0,-1.46702,-2.88104,-2.56034,Q,Q
2023-03-15 14:54:32:48,0,-1.44121,-2.88973,-2.56451,Q,Q
2023-03-15 14:54:32:58,0,-1.41214,-2.90331,-2.57525,Q,Q
2023-03-15 14:54:32:68,0,-1.38255,-2.9127,-2.59485,Q,Q
2023-03-15 14:54:32:78,0,-1.34706,-2.92703,-2.62419,Q,Q
2023-03-15 14:54:32:88,0,-1.3088,-2.94412,-2.65556,Q,Q
2023-03-15 14:54:32:98,0,-1.26942,-2.96474,-2.69294,Q,Q
2023-03-15 14:54:32:108,0,-1.23796,-2.98766,-2.73152,Q,Q
2023-03-15 14:54:32:118,0,-1.21299,-3.01121,-2.77771,Q,Q
2023-03-15 14:54:32:128,0,-1.18557,-3.03021,-2.83106,Q,Q
2023-03-15 14:54:32:138,0,-1.15341,-3.0474,-2.89332,Q,Q
2023-03-15 14:54:32:148,0,-1.11841,-3.0612,-2.96465,Q,Q
2023-03-15 14:54:32:158,0,-1.08719,-3.07186,-3.04508,Q,Q
2023-03-15 14:54:32:168,0,-1.05353,-3.07454,-3.13785,Q,Q
2023-03-15 14:54:32:178,0,-1.02525,-3.0733,-3.24531,Q,Q
2023-03-15 14:54:32:188,0,-0.997975,-3.05779,-3.3679,Q,Q
2023-03-15 14:54:32:198,0,-0.969033,-3.03286,-3.49876,Q,Q
2023-03-15 14:54:32:208,0,-0.938607,-2.99582,-3.64042,Q,Q
2023-03-15 14:54:32:218,0,-0.910425,-2.97092,-3.78187,Q,Q
2023-03-15 14:54:32:228,0,-0.88909,-2.94755,-3.91356,Q,Q
2023-03-15 14:54:32:238,0,-0.871782,-2.92702,-4.03419,Q,Q
2023-03-15 14:54:32:247,0,-0.855309,-2.91177,-4.1455,Q,Q
2023-03-15 14:54:32:258,0,-0.845751,-2.90251,-4.23992,Q,Q
2023-03-15 14:54:32:268,0,-0.849867,-2.89937,-4.31672,Q,Q
2023-03-15 14:54:32:278,0,-0.868935,-2.89874,-4.3726,Q,Q
2023-03-15 14:54:32:288,0,-0.902018,-2.90662,-4.41083,Q,Q
2023-03-15 14:54:32:298,0,-0.947303,-2.91763,-4.43251,Q,Q
2023-03-15 14:54:32:308,0,-1.00417,-2.92824,-4.44075,Q,Q
2023-03-15 14:54:32:318,0,-1.06067,-2.9391,-4.43805,Q,Q
2023-03-15 14:54:32:328,0,-1.11378,-2.9494,-4.43105,Q,Q
2023-03-15 14:54:32:338,0,-1.16252,-2.94988,-4.42482,Q,Q
2023-03-15 14:54:32:348,0,-1.20319,-2.93889,-4.42291,Q,Q
2023-03-15 14:54:32:358,0,-1.2335,-2.91918,-4.42452,Q,Q
2023-03-15 14:54:32:368,0,-1.25371,-2.89876,-4.43488,Q,Q
2023-03-15 14:54:32:378,0,-1.26669,-2.87798,-4.44958,Q,Q
2023-03-15 14:54:32:388,0,-1.28022,-2.85781,-4.47664,Q,Q
2023-03-15 14:54:32:398,0,-1.2923,-2.83474,-4.51742,Q,Q
2023-03-15 14:54:32:408,0,-1.30212,-2.81304,-4.56794,Q,Q
2023-03-15 14:54:32:418,0,-1.30867,-2.78836,-4.62046,Q,Q
2023-03-15 14:54:32:428,0,-1.31112,-2.76107,-4.67801,Q,Q
2023-03-15 14:54:32:438,0,-1.32011,-2.7331,-4.72935,Q,Q
2023-03-15 14:54:32:448,0,-1.33177,-2.70097,-4.77556,Q,Q
2023-03-15 14:54:32:458,0,-1.34667,-2.67896,-4.81666,Q,Q
2023-03-15 14:54:32:468,0,-1.3599,-2.66001,-4.85297,Q,Q
2023-03-15 14:54:32:478,0,-1.38025,-2.6445,-4.87973,Q,Q
2023-03-15 14:54:32:488,0,-1.39409,-2.63384,-4.90241,Q,Q
2023-03-15 14:54:32:498,0,-1.40201,-2.62833,-4.92048,Q,Q
2023-03-15 14:54:32:508,0,-1.41188,-2.63115,-4.93636,Q,Q
2023-03-15 14:54:32:518,0,-1.41355,-2.63695,-4.94721,Q,Q
2023-03-15 14:54:32:528,0,-1.4132,-2.64663,-4.95501,Q,Q
2023-03-15 14:54:32:538,0,-1.4118,-2.65334,-4.96281,Q,Q
2023-03-15 14:54:32:548,0,-1.40321,-2.665,-4.96363,Q,Q
2023-03-15 14:54:32:558,0,-1.39311,-2.68061,-4.96152,Q,Q
2023-03-15 14:54:32:568,0,-1.38484,-2.69409,-4.96037,Q,Q
2023-03-15 14:54:32:578,0,-1.38183,-2.71095,-4.95232,Q,Q
2023-03-15 14:54:32:588,0,-1.37718,-2.72902,-4.94877,Q,Q
2023-03-15 14:54:32:598,0,-1.37737,-2.74535,-4.94204,Q,Q
2023-03-15 14:54:32:608,0,-1.37813,-2.76425,-4.93436,Q,Q
2023-03-15 14:54:32:618,0,-1.38074,-2.77637,-4.9302,Q,Q
2023-03-15 14:54:32:628,0,-1.38808,-2.79313,-4.92867,Q,Q
2023-03-15 14:54:32:638,0,-1.39489,-2.80685,-4.92898,Q,Q
2023-03-15 14:54:32:648,0,-1.40225,-2.8242,-4.93079,Q,Q
2023-03-15 14:54:32:658,0,-1.40928,-2.83578,-4.93454,Q,Q
2023-03-15 14:54:32:668,0,-1.41326,-2.84764,-4.93573,Q,Q
2023-03-15 14:54:32:678,0,-1.41575,-2.85147,-4.93658,Q,Q
2023-03-15 14:54:32:688,0,-1.4211,-2.85201,-4.93858,Q,Q
2023-03-15 14:54:32:698,0,-1.43025,-2.85076,-4.93513,Q,Q
2023-03-15 14:54:32:708,0,-1.44105,-2.84605,-4.92943,Q,Q
2023-03-15 14:54:32:718,0,-1.45119,-2.83899,-4.92853,Q,Q
2023-03-15 14:54:32:728,0,-1.46085,-2.83133,-4.92381,Q,Q
2023-03-15 14:54:32:738,0,-1.46394,-2.81708,-4.922,Q,Q
2023-03-15 14:54:32:748,0,-1.46998,-2.80208,-4.92136,Q,Q
2023-03-15 14:54:32:757,0,-1.47884,-2.78514,-4.92117,Q,Q
2023-03-15 14:54:32:767,0,-1.48796,-2.77097,-4.92383,Q,Q
2023-03-15 14:54:32:778,0,-1.49889,-2.7583,-4.92889,Q,Q
2023-03-15 14:54:32:788,0,-1.50887,-2.7471,-4.9352,Q,Q
2023-03-15 14:54:32:798,0,-1.51392,-2.7402,-4.94178,Q,Q
2023-03-15 14:54:32:808,0,-1.51772,-2.73771,-4.95236,Q,Q
2023-03-15 14:54:32:818,0,-1.51573,-2.73465,-4.96197,Q,Q
2023-03-15 14:54:32:828,0,-1.51446,-2.7349,-4.96794,Q,Q
2023-03-15 14:54:32:838,0,-1.52262,-2.73649,-4.97313,Q,Q
2023-03-15 14:54:32:848,0,-1.53263,-2.73866,-4.97705,Q,Q
2023-03-15 14:54:32:858,0,-1.54196,-2.73983,-4.98311,Q,Q
2023-03-15 14:54:32:868,0,-1.54681,-2.74388,-4.98678,Q,Q
2023-03-15 14:54:32:878,0,-1.54653,-2.74773,-4.99067,Q,Q
2023-03-15 14:54:32:888,0,-1.54678,-2.75182,-4.99398,Q,Q
2023-03-15 14:54:32:898,0,-1.54786,-2.76125,-4.99366,Q,Q
2023-03-15 14:54:32:908,0,-1.548,-2.77167,-4.99362,Q,Q
2023-03-15 14:54:32:918,0,-1.54754,-2.78159,-4.99612,Q,Q
2023-03-15 14:54:32:928,0,-1.54318,-2.7927,-4.99917,Q,Q
2023-03-15 14:54:32:938,0,-1.54187,-2.80622,-5.00221,Q,Q
2023-03-15 14:54:32:947,0,-1.53681,-2.81771,-5.00622,Q,Q
2023-03-15 14:54:32:958,0,-1.53285,-2.83326,-5.00555,Q,Q
2023-03-15 14:54:32:968,0,-1.52526,-2.84658,-5.01094,Q,Q
2023-03-15 14:54:32:978,0,-1.51942,-2.8564,-5.01254,Q,Q
2023-03-15 14:54:32:988,0,-1.51482,-2.86523,-5.00895,Q,Q
2023-03-15 14:54:32:998,0,-1.5178,-2.87187,-5.00641,Q,Q
2023-03-15 14:54:33:8,0,-1.52584,-2.8745,-5.00502,Q,Q
2023-03-15 14:54:33:18,0,-1.53369,-2.87758,-5.01242,Q,Q
2023-03-15 14:54:33:28,0,-1.53837,-2.88479,-5.01948,Q,Q
2023-03-15 14:54:33:38,0,-1.54158,-2.89714,-5.01902,Q,Q
2023-03-15 14:54:33:48,0,-1.5462,-2.91518,-5.01676,Q,Q
2023-03-15 14:54:33:58,0,-1.55169,-2.93125,-5.01507,Q,Q
2023-03-15 14:54:33:68,0,-1.55794,-2.94542,-5.0154,Q,Q
2023-03-15 14:54:33:78,0,-1.55938,-2.95717,-5.01899,Q,Q
2023-03-15 14:54:33:88,0,-1.56016,-2.96924,-5.02352,Q,Q
2023-03-15 14:54:33:97,0,-1.561,-2.97827,-5.02932,Q,Q
2023-03-15 14:54:33:107,0,-1.56448,-2.98851,-5.03339,Q,Q
2023-03-15 14:54:33:117,0,-1.56678,-2.9983,-5.04143,Q,Q
2023-03-15 14:54:33:128,0,-1.57175,-3.0058,-5.04667,Q,Q
2023-03-15 14:54:33:137,0,-1.57455,-3.01276,-5.05164,Q,Q
2023-03-15 14:54:33:147,0,-1.57695,-3.02191,-5.05706,Q,Q
2023-03-15 14:54:33:157,0,-1.57272,-3.03129,-5.06311,Q,Q
2023-03-15 14:54:33:168,0,-1.56841,-3.0422,-5.06696,Q,Q
2023-03-15 14:54:33:178,0,-1.56148,-3.0547,-5.07141,Q,Q
2023-03-15 14:54:33:188,0,-1.55124,-3.07222,-5.07401,Q,Q
2023-03-15 14:54:33:198,0,-1.5414,-3.09262,-5.07298,Q,Q
2023-03-15 14:54:33:208,0,-1.53165,-3.11093,-5.06991,Q,Q
2023-03-15 14:54:33:218,0,-1.51768,-3.12741,-5.06816,Q,Q
2023-03-15 14:54:33:228,0,-1.50785,-3.14371,-5.06591,Q,Q
2023-03-15 14:54:33:238,0,-1.49887,-3.15768,-5.06356,Q,Q
2023-03-15 14:54:33:248,0,-1.49259,-3.16829,-5.05729,Q,Q
2023-03-15 14:54:33:258,0,-1.48968,-3.17699,-5.05456,Q,Q
2023-03-15 14:54:33:267,0,-1.48912,-3.18805,-5.05502,Q,Q
2023-03-15 14:54:33:277,0,-1.48785,-3.19769,-5.05425,Q,Q
2023-03-15 14:54:33:287,0,-1.48756,-3.20488,-5.05181,Q,Q
2023-03-15 14:54:33:298,0,-1.48417,-3.2096,-5.0518,Q,Q
2023-03-15 14:54:33:308,0,-1.48165,-3.21493,-5.04837,Q,Q
2023-03-15 14:54:33:318,0,-1.47982,-3.22285,-5.04007,Q,Q
2023-03-15 14:54:33:328,0,-1.47493,-3.2268,-5.03466,Q,Q
2023-03-15 14:54:33:338,0,-1.47433,-3.22987,-5.02752,Q,Q
2023-03-15 14:54:33:348,0,-1.4724,-3.2327,-5.02048,Q,Q
2023-03-15 14:54:33:358,0,-1.47356,-3.23651,-5.00747,Q,Q
2023-03-15 14:54:33:368,0,-1.47327,-3.23671,-4.99437,Q,Q
2023-03-15 14:54:33:377,0,-1.47763,-3.23573,-4.98019,Q,Q
2023-03-15 14:54:33:388,0,-1.48133,-3.23832,-4.96341,Q,Q
2023-03-15 14:54:33:398,0,-1.48222,-3.24367,-4.94827,Q,Q
2023-03-15 14:54:33:408,0,-1.4876,-3.24304,-4.93236,Q,Q
2023-03-15 14:54:33:418,0,-1.49394,-3.24324,-4.91527,Q,Q
2023-03-15 14:54:33:428,0,-1.50059,-3.24196,-4.89699,Q,Q
2023-03-15 14:54:33:438,0,-1.50639,-3.24178,-4.87439,Q,Q
2023-03-15 14:54:33:448,0,-1.50999,-3.2474,-4.85118,Q,Q
2023-03-15 14:54:33:458,0,-1.50745,-3.25246,-4.82864,Q,Q
2023-03-15 14:54:33:468,0,-1.49879,-3.2584,-4.80657,Q,Q
2023-03-15 14:54:33:478,0,-1.48653,-3.26425,-4.78235,Q,Q
2023-03-15 14:54:33:488,0,-1.47726,-3.27367,-4.75471,Q,Q
2023-03-15 14:54:33:498,0,-1.47068,-3.28617,-4.72265,Q,Q
2023-03-15 14:54:33:508,0,-1.46874,-3.30059,-4.69113,Q,Q
2023-03-15 14:54:33:518,0,-1.46655,-3.31237,-4.66053,Q,Q
2023-03-15 14:54:33:528,0,-1.4619,-3.32206,-4.63206,Q,Q
2023-03-15 14:54:33:538,0,-1.45318,-3.33341,-4.60866,Q,Q
2023-03-15 14:54:33:548,0,-1.44112,-3.34243,-4.58153,Q,Q
2023-03-15 14:54:33:558,0,-1.42728,-3.35547,-4.55439,Q,Q
2023-03-15 14:54:33:568,0,-1.41369,-3.36563,-4.53206,Q,Q
2023-03-15 14:54:33:578,0,-1.39727,-3.3688,-4.50971,Q,Q
