Timestamp_cmd,imu_cmd,roll_delta,pitch_delta,yaw_delta
2023-03-11 20:06:06:530,0,-4.31544,-3.39292,91.1512
2023-03-11 20:06:06:538,0,-4.34644,-3.40554,91.1611
2023-03-11 20:06:06:548,0,-4.37755,-3.42027,91.1724
2023-03-11 20:06:06:558,0,-4.40462,-3.43426,91.1828
2023-03-11 20:06:06:568,0,-4.43591,-3.44213,91.1974
2023-03-11 20:06:06:578,0,-4.46507,-3.44968,91.2139
2023-03-11 20:06:06:588,0,-4.49756,-3.45488,91.2291
2023-03-11 20:06:06:598,0,-4.53217,-3.46234,91.2456
2023-03-11 20:06:06:608,0,-4.56446,-3.46805,91.2608
2023-03-11 20:06:06:618,0,-4.60002,-3.47462,91.2797
2023-03-11 20:06:06:628,0,-4.62887,-3.48423,91.2929
2023-03-11 20:06:06:638,0,-4.64805,-3.49678,91.298
2023-03-11 20:06:06:648,0,-4.64834,-3.51064,91.297
2023-03-11 20:06:06:658,0,-4.62799,-3.52084,91.2857
2023-03-11 20:06:06:668,0,-4.591,-3.52203,91.2677
2023-03-11 20:06:06:678,0,-4.54248,-3.51656,91.2512
2023-03-11 20:06:06:688,0,-4.49562,-3.50121,91.2329
2023-03-11 20:06:06:699,0,-4.45795,-3.47759,91.2189
2023-03-11 20:06:06:709,0,-4.43902,-3.45811,91.2197
2023-03-11 20:06:06:719,0,-4.43905,-3.43963,91.2298
2023-03-11 20:06:06:729,0,-4.44979,-3.42326,91.2448
2023-03-11 20:06:06:739,0,-4.46195,-3.40651,91.2681
2023-03-11 20:06:06:749,0,-4.46858,-3.38445,91.2976
2023-03-11 20:06:06:759,0,-4.46116,-3.35228,91.3293
2023-03-11 20:06:06:769,0,-4.43131,-3.31993,91.3586
2023-03-11 20:06:06:779,0,-4.38131,-3.28776,91.3857
2023-03-11 20:06:06:789,0,-4.32141,-3.25879,91.4121
2023-03-11 20:06:06:798,0,-4.26352,-3.22856,91.4342
2023-03-11 20:06:06:809,0,-4.20459,-3.20378,91.4495
2023-03-11 20:06:06:819,0,-4.14602,-3.18104,91.4554
2023-03-11 20:06:06:828,0,-4.08147,-3.16474,91.4563
2023-03-11 20:06:06:839,0,-4.01003,-3.15347,91.451
2023-03-11 20:06:06:849,0,-3.933,-3.1413,91.4427
2023-03-11 20:06:06:859,0,-3.853,-3.13461,91.4305
2023-03-11 20:06:06:868,0,-3.77399,-3.12924,91.4163
2023-03-11 20:06:06:878,0,-3.69955,-3.12929,91.4072
2023-03-11 20:06:06:888,0,-3.62989,-3.12933,91.3982
2023-03-11 20:06:06:898,0,-3.56326,-3.13132,91.3861
2023-03-11 20:06:06:908,0,-3.50239,-3.13388,91.3774
2023-03-11 20:06:06:918,0,-3.44104,-3.1336,91.3626
2023-03-11 20:06:06:928,0,-3.37878,-3.1284,91.349
2023-03-11 20:06:06:938,0,-3.31828,-3.12418,91.3381
2023-03-11 20:06:06:948,0,-3.2593,-3.11241,91.3178
2023-03-11 20:06:06:958,0,-3.20404,-3.10016,91.2984
2023-03-11 20:06:06:968,0,-3.15158,-3.0904,91.2755
2023-03-11 20:06:06:978,0,-3.10768,-3.07979,91.2487
2023-03-11 20:06:06:988,0,-3.07588,-3.07015,91.2216
2023-03-11 20:06:06:998,0,-3.04823,-3.06498,91.1924
2023-03-11 20:06:07:8,0,-3.02721,-3.0581,91.1619
2023-03-11 20:06:07:18,0,-3.0079,-3.05591,91.1324
2023-03-11 20:06:07:28,0,-2.99092,-3.06514,91.1015
2023-03-11 20:06:07:38,0,-2.97338,-3.08241,91.0759
2023-03-11 20:06:07:48,0,-2.96009,-3.10119,91.0544
2023-03-11 20:06:07:58,0,-2.94565,-3.12343,91.036
2023-03-11 20:06:07:68,0,-2.93124,-3.14181,91.0209
2023-03-11 20:06:07:78,0,-2.92295,-3.16046,91.0105
2023-03-11 20:06:07:88,0,-2.91764,-3.18095,91.0019
2023-03-11 20:06:07:98,0,-2.92289,-3.20176,91.0018
2023-03-11 20:06:07:108,0,-2.92768,-3.22044,91.0086
2023-03-11 20:06:07:118,0,-2.93598,-3.24087,91.0213
2023-03-11 20:06:07:128,0,-2.94527,-3.2566,91.0319
2023-03-11 20:06:07:138,0,-2.95371,-3.27227,91.0445
2023-03-11 20:06:07:148,0,-2.96597,-3.28428,91.0608
2023-03-11 20:06:07:158,0,-2.98178,-3.29539,91.0731
2023-03-11 20:06:07:168,0,-2.99861,-3.3104,91.0852
2023-03-11 20:06:07:178,0,-3.01475,-3.3199,91.0939
2023-03-11 20:06:07:188,0,-3.03901,-3.33089,91.1011
2023-03-11 20:06:07:198,0,-3.06573,-3.34124,91.1052
2023-03-11 20:06:07:208,0,-3.09709,-3.34847,91.1067
2023-03-11 20:06:07:218,0,-3.13149,-3.35732,91.1076
2023-03-11 20:06:07:228,0,-3.16787,-3.36271,91.1091
2023-03-11 20:06:07:238,0,-3.21074,-3.35962,91.111
2023-03-11 20:06:07:248,0,-3.25005,-3.35217,91.1124
2023-03-11 20:06:07:258,0,-3.28456,-3.33759,91.1095
2023-03-11 20:06:07:268,0,-3.31636,-3.32943,91.1089
2023-03-11 20:06:07:278,0,-3.35013,-3.3213,91.1093
2023-03-11 20:06:07:288,0,-3.38306,-3.31559,91.1121
2023-03-11 20:06:07:298,0,-3.41157,-3.31033,91.114
2023-03-11 20:06:07:308,0,-3.44136,-3.30122,91.1195
2023-03-11 20:06:07:318,0,-3.46905,-3.29198,91.1268
2023-03-11 20:06:07:328,0,-3.4949,-3.27928,91.1294
2023-03-11 20:06:07:338,0,-3.52244,-3.27193,91.1315
2023-03-11 20:06:07:348,0,-3.54701,-3.26326,91.1348
2023-03-11 20:06:07:358,0,-3.56769,-3.25597,91.1358
2023-03-11 20:06:07:368,0,-3.58901,-3.25137,91.1372
2023-03-11 20:06:07:378,0,-3.60611,-3.24371,91.1364
2023-03-11 20:06:07:388,0,-3.62265,-3.23595,91.1361
2023-03-11 20:06:07:398,0,-3.63613,-3.22696,91.1291
2023-03-11 20:06:07:408,0,-3.64759,-3.2214,91.123
2023-03-11 20:06:07:418,0,-3.65335,-3.21737,91.1194
2023-03-11 20:06:07:428,0,-3.65788,-3.21128,91.1163
2023-03-11 20:06:07:438,0,-3.66414,-3.20858,91.1171
2023-03-11 20:06:07:448,0,-3.67012,-3.20845,91.1192
2023-03-11 20:06:07:458,0,-3.67822,-3.21035,91.1265
2023-03-11 20:06:07:468,0,-3.68938,-3.21837,91.1393
2023-03-11 20:06:07:478,0,-3.70273,-3.22657,91.157
2023-03-11 20:06:07:488,0,-3.71278,-3.23912,91.182
2023-03-11 20:06:07:498,0,-3.72311,-3.25578,91.2081
2023-03-11 20:06:07:508,0,-3.72636,-3.27213,91.2339
2023-03-11 20:06:07:518,0,-3.72123,-3.28731,91.2575
2023-03-11 20:06:07:528,0,-3.70963,-3.30328,91.2738
2023-03-11 20:06:07:538,0,-3.69543,-3.31245,91.2854
2023-03-11 20:06:07:548,0,-3.67971,-3.32341,91.2914
2023-03-11 20:06:07:558,0,-3.66014,-3.33109,91.2921
2023-03-11 20:06:07:568,0,-3.64525,-3.33744,91.2856
2023-03-11 20:06:07:578,0,-3.62963,-3.33744,91.2749
2023-03-11 20:06:07:588,0,-3.6151,-3.33265,91.2594
2023-03-11 20:06:07:598,0,-3.6037,-3.32736,91.2475
2023-03-11 20:06:07:608,0,-3.59603,-3.31649,91.2362
2023-03-11 20:06:07:618,0,-3.59246,-3.30478,91.2251
2023-03-11 20:06:07:628,0,-3.59266,-3.2953,91.219
2023-03-11 20:06:07:638,0,-3.59431,-3.28318,91.2127
2023-03-11 20:06:07:648,0,-3.59999,-3.26965,91.2078
2023-03-11 20:06:07:658,0,-3.60679,-3.25943,91.2069
2023-03-11 20:06:07:668,0,-3.61785,-3.25111,91.2045
2023-03-11 20:06:07:678,0,-3.62418,-3.24398,91.2098
2023-03-11 20:06:07:688,0,-3.62925,-3.23589,91.2117
2023-03-11 20:06:07:698,0,-3.63457,-3.23004,91.2101
2023-03-11 20:06:07:708,0,-3.63468,-3.2291,91.2089
2023-03-11 20:06:07:718,0,-3.63031,-3.23069,91.2073
2023-03-11 20:06:07:728,0,-3.62498,-3.23113,91.2
2023-03-11 20:06:07:738,0,-3.61999,-3.23812,91.1929
2023-03-11 20:06:07:748,0,-3.60964,-3.24451,91.1833
2023-03-11 20:06:07:758,0,-3.5963,-3.24765,91.1758
2023-03-11 20:06:07:768,0,-3.57969,-3.25641,91.172
2023-03-11 20:06:07:778,0,-3.56628,-3.27303,91.1666
2023-03-11 20:06:07:788,0,-3.54756,-3.29694,91.1683
2023-03-11 20:06:07:798,0,-3.53534,-3.32108,91.1747
2023-03-11 20:06:07:808,0,-3.52539,-3.34107,91.1854
2023-03-11 20:06:07:818,0,-3.51488,-3.35438,91.202
2023-03-11 20:06:07:828,0,-3.50159,-3.36281,91.2184
2023-03-11 20:06:07:838,0,-3.49264,-3.36832,91.2398
2023-03-11 20:06:07:848,0,-3.48387,-3.37704,91.2608
2023-03-11 20:06:07:858,0,-3.47537,-3.38181,91.2816
2023-03-11 20:06:07:868,0,-3.46641,-3.3824,91.3033
2023-03-11 20:06:07:878,0,-3.46123,-3.38156,91.3224
2023-03-11 20:06:07:888,0,-3.45821,-3.37302,91.3397
2023-03-11 20:06:07:898,0,-3.45617,-3.36381,91.3506
2023-03-11 20:06:07:908,0,-3.46424,-3.35474,91.3598
2023-03-11 20:06:07:918,0,-3.47225,-3.34274,91.3653
2023-03-11 20:06:07:928,0,-3.48422,-3.32979,91.3681
2023-03-11 20:06:07:938,0,-3.50147,-3.31998,91.3697
2023-03-11 20:06:07:948,0,-3.51969,-3.3144,91.373
2023-03-11 20:06:07:958,0,-3.53922,-3.30649,91.3727
2023-03-11 20:06:07:968,0,-3.55122,-3.29907,91.3698
2023-03-11 20:06:07:978,0,-3.5619,-3.28902,91.3653
2023-03-11 20:06:07:988,0,-3.56486,-3.27592,91.3572
2023-03-11 20:06:07:998,0,-3.56545,-3.25784,91.339
2023-03-11 20:06:08:8,0,-3.55606,-3.2413,91.3186
2023-03-11 20:06:08:18,0,-3.54187,-3.22858,91.2939
2023-03-11 20:06:08:28,0,-3.52716,-3.21551,91.2698
2023-03-11 20:06:08:38,0,-3.51317,-3.20176,91.245
2023-03-11 20:06:08:48,0,-3.50474,-3.19212,91.2217
2023-03-11 20:06:08:58,0,-3.49557,-3.17577,91.1974
2023-03-11 20:06:08:68,0,-3.4888,-3.16036,91.173
2023-03-11 20:06:08:78,0,-3.48193,-3.14137,91.153
2023-03-11 20:06:08:88,0,-3.47269,-3.12327,91.1342
2023-03-11 20:06:08:98,0,-3.46392,-3.10941,91.1141
2023-03-11 20:06:08:108,0,-3.45225,-3.09835,91.0986
2023-03-11 20:06:08:119,0,-3.43756,-3.08344,91.0798
2023-03-11 20:06:08:128,0,-3.42687,-3.07383,91.0597
2023-03-11 20:06:08:138,0,-3.42078,-3.06508,91.0415
2023-03-11 20:06:08:148,0,-3.41427,-3.06046,91.0222
2023-03-11 20:06:08:158,0,-3.40949,-3.05782,91.0062
2023-03-11 20:06:08:168,0,-3.40638,-3.05415,90.9892
2023-03-11 20:06:08:179,0,-3.40525,-3.05067,90.974
2023-03-11 20:06:08:188,0,-3.40147,-3.04768,90.9602
2023-03-11 20:06:08:199,0,-3.40129,-3.05076,90.9511
2023-03-11 20:06:08:209,0,-3.40282,-3.04896,90.9461
2023-03-11 20:06:08:218,0,-3.40906,-3.04795,90.9452
2023-03-11 20:06:08:228,0,-3.4193,-3.04811,90.9502
2023-03-11 20:06:08:239,0,-3.43652,-3.05396,90.9649
2023-03-11 20:06:08:249,0,-3.45319,-3.05968,90.9846
2023-03-11 20:06:08:259,0,-3.47064,-3.0649,91.0058
2023-03-11 20:06:08:268,0,-3.48551,-3.06943,91.0275
2023-03-11 20:06:08:279,0,-3.50024,-3.07256,91.0481
2023-03-11 20:06:08:289,0,-3.51653,-3.07757,91.0645
2023-03-11 20:06:08:299,0,-3.53221,-3.07901,91.0759
2023-03-11 20:06:08:309,0,-3.54654,-3.08501,91.0827
2023-03-11 20:06:08:319,0,-3.56422,-3.08276,91.0904
2023-03-11 20:06:08:329,0,-3.57658,-3.081,91.0864
2023-03-11 20:06:08:339,0,-3.58996,-3.07779,91.0814
2023-03-11 20:06:08:349,0,-3.60263,-3.07432,91.0748
2023-03-11 20:06:08:358,0,-3.60887,-3.06728,91.0659
2023-03-11 20:06:08:369,0,-3.61556,-3.0644,91.0572
2023-03-11 20:06:08:378,0,-3.61894,-3.05706,91.0473
2023-03-11 20:06:08:388,0,-3.62283,-3.05326,91.0403
2023-03-11 20:06:08:399,0,-3.6241,-3.04895,91.0307
2023-03-11 20:06:08:408,0,-3.62808,-3.04432,91.0268
2023-03-11 20:06:08:419,0,-3.63232,-3.03774,91.0261
2023-03-11 20:06:08:429,0,-3.63553,-3.0306,91.025
2023-03-11 20:06:08:438,0,-3.64116,-3.0251,91.0243
2023-03-11 20:06:08:449,0,-3.64393,-3.01781,91.027
2023-03-11 20:06:08:459,0,-3.64114,-3.01642,91.0307
2023-03-11 20:06:08:468,0,-3.63595,-3.01474,91.0341
2023-03-11 20:06:08:479,0,-3.62887,-3.01111,91.0383
2023-03-11 20:06:08:489,0,-3.62208,-3.00722,91.0433
2023-03-11 20:06:08:499,0,-3.61541,-3.00325,91.0414
2023-03-11 20:06:08:509,0,-3.60877,-2.99606,91.041
2023-03-11 20:06:08:518,0,-3.60154,-2.9906,91.0381
2023-03-11 20:06:08:528,0,-3.59043,-2.98722,91.0333
2023-03-11 20:06:08:538,0,-3.57356,-2.98972,91.0268
2023-03-11 20:06:08:548,0,-3.5607,-2.99796,91.0203
2023-03-11 20:06:08:558,0,-3.55518,-3.00571,91.0112
2023-03-11 20:06:08:568,0,-3.5463,-3.01049,91.0047
2023-03-11 20:06:08:579,0,-3.54059,-3.01067,90.9998
2023-03-11 20:06:08:589,0,-3.53762,-3.0095,90.9977
2023-03-11 20:06:08:599,0,-3.53697,-3.00557,90.9985
2023-03-11 20:06:08:608,0,-3.54007,-3.0019,90.9995
2023-03-11 20:06:08:618,0,-3.54153,-2.9989,91.0065
2023-03-11 20:06:08:628,0,-3.54782,-2.99666,91.0166
2023-03-11 20:06:08:638,0,-3.55451,-2.99199,91.0241
2023-03-11 20:06:08:649,0,-3.56068,-2.99068,91.0317
2023-03-11 20:06:08:659,0,-3.56849,-2.99074,91.0404
2023-03-11 20:06:08:669,0,-3.58103,-2.99165,91.0516
2023-03-11 20:06:08:679,0,-3.59606,-2.99753,91.0574
2023-03-11 20:06:08:689,0,-3.60742,-3.00263,91.0684
2023-03-11 20:06:08:699,0,-3.62069,-3.01025,91.0752
2023-03-11 20:06:08:709,0,-3.63155,-3.01646,91.0814
2023-03-11 20:06:08:719,0,-3.63665,-3.02045,91.084
2023-03-11 20:06:08:728,0,-3.64478,-3.0312,91.0861
2023-03-11 20:06:08:739,0,-3.65024,-3.03862,91.092
2023-03-11 20:06:08:749,0,-3.65719,-3.04039,91.0941
2023-03-11 20:06:08:759,0,-3.66449,-3.03875,91.0936
2023-03-11 20:06:08:768,0,-3.67003,-3.04302,91.0934
2023-03-11 20:06:08:778,0,-3.67484,-3.04502,91.0958
2023-03-11 20:06:08:788,0,-3.68021,-3.04804,91.0967
2023-03-11 20:06:08:798,0,-3.68346,-3.04656,91.0963
2023-03-11 20:06:08:808,0,-3.68303,-3.04257,91.0945
2023-03-11 20:06:08:818,0,-3.68078,-3.03978,91.0933
2023-03-11 20:06:08:828,0,-3.67809,-3.03787,91.0958
2023-03-11 20:06:08:839,0,-3.67767,-3.03199,91.097
2023-03-11 20:06:08:848,0,-3.67974,-3.0284,91.0979
2023-03-11 20:06:08:859,0,-3.68125,-3.02825,91.1002
2023-03-11 20:06:08:869,0,-3.68153,-3.02168,91.1009
2023-03-11 20:06:08:879,0,-3.67954,-3.01991,91.1002
2023-03-11 20:06:08:889,0,-3.68039,-3.01764,91.0981
2023-03-11 20:06:08:899,0,-3.68092,-3.01789,91.0957
2023-03-11 20:06:08:908,0,-3.67725,-3.02031,91.0979
2023-03-11 20:06:08:918,0,-3.67643,-3.02321,91.0944
2023-03-11 20:06:08:928,0,-3.67384,-3.03254,91.0916
2023-03-11 20:06:08:939,0,-3.67416,-3.04397,91.0904
2023-03-11 20:06:08:949,0,-3.67037,-3.05702,91.0893
2023-03-11 20:06:08:958,0,-3.66582,-3.07126,91.093
2023-03-11 20:06:08:968,0,-3.66078,-3.08592,91.098
2023-03-11 20:06:08:979,0,-3.65462,-3.09688,91.1047
2023-03-11 20:06:08:989,0,-3.6471,-3.10811,91.1105
2023-03-11 20:06:08:999,0,-3.63719,-3.11972,91.1221
2023-03-11 20:06:09:9,0,-3.63168,-3.13007,91.132
2023-03-11 20:06:09:18,0,-3.62756,-3.14019,91.1465
2023-03-11 20:06:09:28,0,-3.62273,-3.14614,91.1594
2023-03-11 20:06:09:38,0,-3.61933,-3.15487,91.1691
2023-03-11 20:06:09:48,0,-3.61651,-3.16552,91.1774
2023-03-11 20:06:09:58,0,-3.61669,-3.17418,91.1818
2023-03-11 20:06:09:68,0,-3.61281,-3.18316,91.1874
2023-03-11 20:06:09:78,0,-3.6129,-3.18851,91.1885
2023-03-11 20:06:09:88,0,-3.61341,-3.19484,91.1892
2023-03-11 20:06:09:98,0,-3.61753,-3.19762,91.1874
2023-03-11 20:06:09:108,0,-3.62501,-3.20133,91.188
2023-03-11 20:06:09:119,0,-3.63174,-3.20188,91.1847
2023-03-11 20:06:09:129,0,-3.64325,-3.20644,91.1793
2023-03-11 20:06:09:138,0,-3.65305,-3.20982,91.1768
2023-03-11 20:06:09:148,0,-3.66362,-3.20834,91.1758
2023-03-11 20:06:09:159,0,-3.67205,-3.2096,91.1774
2023-03-11 20:06:09:169,0,-3.67984,-3.21344,91.182
2023-03-11 20:06:09:179,0,-3.68436,-3.21955,91.1853
2023-03-11 20:06:09:189,0,-3.6873,-3.21968,91.1897
2023-03-11 20:06:09:198,0,-3.69348,-3.22271,91.1969
2023-03-11 20:06:09:208,0,-3.6957,-3.22777,91.2005
2023-03-11 20:06:09:219,0,-3.69858,-3.23065,91.2024
2023-03-11 20:06:09:229,0,-3.69876,-3.23284,91.2004
2023-03-11 20:06:09:238,0,-3.69909,-3.22893,91.194
2023-03-11 20:06:09:248,0,-3.69985,-3.22459,91.1834
2023-03-11 20:06:09:259,0,-3.70298,-3.21816,91.1728
2023-03-11 20:06:09:269,0,-3.69894,-3.21724,91.1599
2023-03-11 20:06:09:278,0,-3.69362,-3.22413,91.1498
2023-03-11 20:06:09:288,0,-3.6879,-3.23367,91.141
2023-03-11 20:06:09:299,0,-3.68519,-3.24347,91.1339
2023-03-11 20:06:09:308,0,-3.68622,-3.24675,91.1266
2023-03-11 20:06:09:318,0,-3.68596,-3.24935,91.1254
2023-03-11 20:06:09:328,0,-3.6838,-3.25201,91.1184
2023-03-11 20:06:09:339,0,-3.68802,-3.25107,91.1199
2023-03-11 20:06:09:349,0,-3.69263,-3.24902,91.1246
2023-03-11 20:06:09:358,0,-3.69665,-3.24287,91.1283
2023-03-11 20:06:09:369,0,-3.70504,-3.23355,91.1302
2023-03-11 20:06:09:378,0,-3.71129,-3.22631,91.1354
2023-03-11 20:06:09:388,0,-3.71937,-3.21488,91.1396
2023-03-11 20:06:09:399,0,-3.72832,-3.20644,91.1362
2023-03-11 20:06:09:409,0,-3.7382,-3.19928,91.1333
2023-03-11 20:06:09:418,0,-3.75058,-3.19243,91.1279
2023-03-11 20:06:09:428,0,-3.76075,-3.18451,91.123
2023-03-11 20:06:09:438,0,-3.77076,-3.17653,91.1166
2023-03-11 20:06:09:448,0,-3.7802,-3.16743,91.1077
2023-03-11 20:06:09:458,0,-3.79034,-3.16093,91.096
2023-03-11 20:06:09:469,0,-3.80356,-3.1557,91.0903
2023-03-11 20:06:09:478,0,-3.81692,-3.14959,91.0849
2023-03-11 20:06:09:488,0,-3.83673,-3.14327,91.0779
2023-03-11 20:06:09:498,0,-3.8613,-3.13327,91.0681
2023-03-11 20:06:09:508,0,-3.88237,-3.1233,91.0637
2023-03-11 20:06:09:518,0,-3.90129,-3.12144,91.0551
2023-03-11 20:06:09:528,0,-3.91929,-3.12425,91.0544
2023-03-11 20:06:09:538,0,-3.93825,-3.12942,91.0572
2023-03-11 20:06:09:548,0,-3.95273,-3.13676,91.0581
2023-03-11 20:06:09:558,0,-3.96037,-3.13937,91.061
2023-03-11 20:06:09:568,0,-3.96607,-3.13974,91.0662
2023-03-11 20:06:09:578,0,-3.97267,-3.14002,91.0713
2023-03-11 20:06:09:588,0,-3.97473,-3.14029,91.071
2023-03-11 20:06:09:598,0,-3.9744,-3.14327,91.0679
2023-03-11 20:06:09:608,0,-3.9734,-3.14037,91.0654
2023-03-11 20:06:09:618,0,-3.9701,-3.13965,91.061
2023-03-11 20:06:09:628,0,-3.96526,-3.13601,91.0527
2023-03-11 20:06:09:639,0,-3.95609,-3.13096,91.0406
2023-03-11 20:06:09:648,0,-3.94746,-3.13057,91.0304
2023-03-11 20:06:09:658,0,-3.94041,-3.13519,91.0226
2023-03-11 20:06:09:668,0,-3.92517,-3.14102,91.0195
2023-03-11 20:06:09:678,0,-3.91672,-3.14749,91.017
2023-03-11 20:06:09:689,0,-3.91069,-3.15654,91.02
2023-03-11 20:06:09:699,0,-3.90176,-3.16553,91.0244
2023-03-11 20:06:09:708,0,-3.89717,-3.17413,91.0349
2023-03-11 20:06:09:719,0,-3.89264,-3.18451,91.047
2023-03-11 20:06:09:729,0,-3.88922,-3.19027,91.0618
2023-03-11 20:06:09:739,0,-3.88648,-3.20073,91.0809
2023-03-11 20:06:09:748,0,-3.88019,-3.20934,91.0969
2023-03-11 20:06:09:759,0,-3.87298,-3.21967,91.1122
2023-03-11 20:06:09:769,0,-3.86341,-3.22698,91.1296
2023-03-11 20:06:09:779,0,-3.85459,-3.23427,91.1426
2023-03-11 20:06:09:789,0,-3.84509,-3.24072,91.1566
2023-03-11 20:06:09:799,0,-3.83856,-3.24468,91.1635
2023-03-11 20:06:09:809,0,-3.83349,-3.25007,91.1687
2023-03-11 20:06:09:819,0,-3.82985,-3.25349,91.1694
2023-03-11 20:06:09:828,0,-3.8295,-3.25373,91.1688
2023-03-11 20:06:09:839,0,-3.8312,-3.2544,91.1667
2023-03-11 20:06:09:848,0,-3.83413,-3.2507,91.1649
2023-03-11 20:06:09:858,0,-3.83886,-3.24756,91.1597
2023-03-11 20:06:09:869,0,-3.84241,-3.24422,91.1565
2023-03-11 20:06:09:879,0,-3.8409,-3.23806,91.1512
2023-03-11 20:06:09:889,0,-3.84266,-3.23603,91.1475
2023-03-11 20:06:09:898,0,-3.84383,-3.23294,91.1453
2023-03-11 20:06:09:908,0,-3.84456,-3.2329,91.1469
2023-03-11 20:06:09:919,0,-3.84455,-3.22998,91.146
2023-03-11 20:06:09:928,0,-3.84214,-3.22958,91.1489
2023-03-11 20:06:09:939,0,-3.84414,-3.22988,91.1482
2023-03-11 20:06:09:949,0,-3.84327,-3.23028,91.1523
2023-03-11 20:06:09:959,0,-3.83568,-3.22964,91.1572
2023-03-11 20:06:09:969,0,-3.82862,-3.23198,91.1624
2023-03-11 20:06:09:978,0,-3.82121,-3.23278,91.1692
2023-03-11 20:06:09:988,0,-3.81095,-3.23657,91.1785
2023-03-11 20:06:09:999,0,-3.80664,-3.24241,91.1854
2023-03-11 20:06:10:8,0,-3.80298,-3.24482,91.1917
2023-03-11 20:06:10:19,0,-3.79952,-3.24976,91.1954
2023-03-11 20:06:10:29,0,-3.78984,-3.26018,91.203
2023-03-11 20:06:10:39,0,-3.78014,-3.28197,91.2135
2023-03-11 20:06:10:49,0,-3.77344,-3.30545,91.2223
2023-03-11 20:06:10:59,0,-3.76708,-3.3335,91.2365
2023-03-11 20:06:10:68,0,-3.7656,-3.35426,91.2519
2023-03-11 20:06:10:78,0,-3.76624,-3.37545,91.2672
2023-03-11 20:06:10:88,0,-3.76718,-3.39404,91.2831
2023-03-11 20:06:10:99,0,-3.76918,-3.41041,91.2992
2023-03-11 20:06:10:108,0,-3.76515,-3.42947,91.3169
2023-03-11 20:06:10:118,0,-3.7639,-3.44438,91.3376
2023-03-11 20:06:10:128,0,-3.75863,-3.45898,91.3562
2023-03-11 20:06:10:139,0,-3.75548,-3.46978,91.3749
2023-03-11 20:06:10:149,0,-3.75075,-3.4801,91.3887
2023-03-11 20:06:10:158,0,-3.75401,-3.48833,91.397
2023-03-11 20:06:10:169,0,-3.76355,-3.49234,91.4013
2023-03-11 20:06:10:179,0,-3.77913,-3.49841,91.3999
2023-03-11 20:06:10:188,0,-3.79609,-3.50411,91.3915
2023-03-11 20:06:10:198,0,-3.81271,-3.4985,91.3838
2023-03-11 20:06:10:208,0,-3.83088,-3.48893,91.3689
2023-03-11 20:06:10:219,0,-3.85235,-3.47539,91.3545
2023-03-11 20:06:10:228,0,-3.87408,-3.46563,91.3392
2023-03-11 20:06:10:239,0,-3.8919,-3.45432,91.3277
2023-03-11 20:06:10:249,0,-3.90943,-3.44016,91.321
2023-03-11 20:06:10:259,0,-3.92846,-3.42051,91.3185
2023-03-11 20:06:10:268,0,-3.94078,-3.39886,91.3158
2023-03-11 20:06:10:278,0,-3.94347,-3.37929,91.3159
2023-03-11 20:06:10:288,0,-3.94509,-3.36674,91.3187
2023-03-11 20:06:10:298,0,-3.94386,-3.35856,91.3231
2023-03-11 20:06:10:308,0,-3.93965,-3.35197,91.3235
2023-03-11 20:06:10:318,0,-3.93955,-3.34683,91.3214
2023-03-11 20:06:10:328,0,-3.93879,-3.34153,91.3177
2023-03-11 20:06:10:338,0,-3.93896,-3.33796,91.307
2023-03-11 20:06:10:348,0,-3.93709,-3.33291,91.2983
2023-03-11 20:06:10:358,0,-3.93378,-3.33239,91.2784
2023-03-11 20:06:10:368,0,-3.93102,-3.32951,91.2633
2023-03-11 20:06:10:378,0,-3.9197,-3.33205,91.2505
2023-03-11 20:06:10:388,0,-3.90311,-3.33466,91.2388
2023-03-11 20:06:10:398,0,-3.88201,-3.33996,91.23
2023-03-11 20:06:10:409,0,-3.85974,-3.34614,91.2284
2023-03-11 20:06:10:419,0,-3.83778,-3.35319,91.2295
2023-03-11 20:06:10:429,0,-3.82208,-3.36413,91.2353
2023-03-11 20:06:10:439,0,-3.80331,-3.37284,91.245
2023-03-11 20:06:10:449,0,-3.78397,-3.38596,91.2608
2023-03-11 20:06:10:459,0,-3.76783,-3.40067,91.2768
2023-03-11 20:06:10:468,0,-3.75561,-3.4169,91.2949
2023-03-11 20:06:10:479,0,-3.74192,-3.43592,91.3153
2023-03-11 20:06:10:489,0,-3.73483,-3.45106,91.3337
2023-03-11 20:06:10:499,0,-3.72686,-3.46871,91.3517
2023-03-11 20:06:10:509,0,-3.7226,-3.48691,91.3674
2023-03-11 20:06:10:519,0,-3.71931,-3.50073,91.3796
2023-03-11 20:06:10:529,0,-3.71612,-3.51538,91.3865
2023-03-11 20:06:10:539,0,-3.71483,-3.52934,91.3952
2023-03-11 20:06:10:549,0,-3.7179,-3.54025,91.4033
2023-03-11 20:06:10:559,0,-3.72111,-3.54788,91.4105
2023-03-11 20:06:10:569,0,-3.73067,-3.5533,91.4135
2023-03-11 20:06:10:578,0,-3.74229,-3.55412,91.4152
2023-03-11 20:06:10:588,0,-3.75397,-3.55213,91.4138
2023-03-11 20:06:10:598,0,-3.76913,-3.55237,91.4087
2023-03-11 20:06:10:608,0,-3.78396,-3.55173,91.4042
2023-03-11 20:06:10:619,0,-3.79905,-3.54262,91.3979
2023-03-11 20:06:10:629,0,-3.81109,-3.53932,91.3925
2023-03-11 20:06:10:639,0,-3.82484,-3.53303,91.3863
2023-03-11 20:06:10:649,0,-3.83133,-3.53031,91.3839
2023-03-11 20:06:10:658,0,-3.84247,-3.53044,91.3838
2023-03-11 20:06:10:669,0,-3.85275,-3.52851,91.3835
2023-03-11 20:06:10:679,0,-3.86332,-3.53268,91.3869
2023-03-11 20:06:10:688,0,-3.87375,-3.53131,91.3882
2023-03-11 20:06:10:699,0,-3.88125,-3.53378,91.3913
2023-03-11 20:06:10:709,0,-3.88581,-3.53715,91.3957
2023-03-11 20:06:10:719,0,-3.88985,-3.54306,91.4013
2023-03-11 20:06:10:728,0,-3.89255,-3.54847,91.4058
2023-03-11 20:06:10:738,0,-3.89067,-3.55788,91.4109
2023-03-11 20:06:10:748,0,-3.88683,-3.56301,91.4167
2023-03-11 20:06:10:758,0,-3.88293,-3.56698,91.4247
2023-03-11 20:06:10:768,0,-3.881,-3.57452,91.4338
2023-03-11 20:06:10:778,0,-3.87199,-3.58032,91.4429
2023-03-11 20:06:10:788,0,-3.85529,-3.58753,91.4547
2023-03-11 20:06:10:798,0,-3.83238,-3.59419,91.4667
2023-03-11 20:06:10:808,0,-3.7985,-3.60266,91.4807
2023-03-11 20:06:10:819,0,-3.76265,-3.61111,91.4965
2023-03-11 20:06:10:829,0,-3.72364,-3.62169,91.5169
2023-03-11 20:06:10:839,0,-3.69501,-3.63144,91.538
2023-03-11 20:06:10:849,0,-3.66978,-3.63834,91.5586
2023-03-11 20:06:10:858,0,-3.64807,-3.64298,91.5855
2023-03-11 20:06:10:869,0,-3.63232,-3.64958,91.6139
2023-03-11 20:06:10:879,0,-3.62313,-3.65538,91.6422
2023-03-11 20:06:10:889,0,-3.62212,-3.66058,91.6654
2023-03-11 20:06:10:899,0,-3.62023,-3.66285,91.6862
2023-03-11 20:06:10:909,0,-3.61911,-3.66477,91.7003
2023-03-11 20:06:10:919,0,-3.61665,-3.66931,91.7104
2023-03-11 20:06:10:929,0,-3.61644,-3.672,91.7152
2023-03-11 20:06:10:938,0,-3.62068,-3.67086,91.7136
2023-03-11 20:06:10:949,0,-3.63129,-3.67411,91.7103
2023-03-11 20:06:10:959,0,-3.64137,-3.67655,91.7025
2023-03-11 20:06:10:969,0,-3.65822,-3.68295,91.6986
2023-03-11 20:06:10:979,0,-3.67794,-3.68949,91.6952
2023-03-11 20:06:10:988,0,-3.70115,-3.69431,91.6909
2023-03-11 20:06:10:999,0,-3.72513,-3.69677,91.6868
2023-03-11 20:06:11:9,0,-3.74689,-3.6982,91.683
2023-03-11 20:06:11:18,0,-3.77335,-3.69783,91.6788
2023-03-11 20:06:11:29,0,-3.8001,-3.70209,91.6755
2023-03-11 20:06:11:39,0,-3.83013,-3.69982,91.6736
2023-03-11 20:06:11:49,0,-3.85232,-3.69298,91.6672
2023-03-11 20:06:11:58,0,-3.87109,-3.68757,91.6588
2023-03-11 20:06:11:69,0,-3.88481,-3.6897,91.6519
2023-03-11 20:06:11:79,0,-3.8982,-3.69759,91.6487
2023-03-11 20:06:11:89,0,-3.90463,-3.70744,91.6467
2023-03-11 20:06:11:98,0,-3.909,-3.71734,91.647
2023-03-11 20:06:11:108,0,-3.91017,-3.72304,91.6488
2023-03-11 20:06:11:118,0,-3.90526,-3.72566,91.6484
2023-03-11 20:06:11:128,0,-3.89577,-3.72414,91.6485
2023-03-11 20:06:11:138,0,-3.87956,-3.72133,91.6523
2023-03-11 20:06:11:148,0,-3.85691,-3.71984,91.6538
2023-03-11 20:06:11:158,0,-3.82525,-3.7157,91.6518
2023-03-11 20:06:11:168,0,-3.78899,-3.71041,91.6443
2023-03-11 20:06:11:178,0,-3.75391,-3.7065,91.6315
2023-03-11 20:06:11:188,0,-3.71249,-3.69575,91.6155
2023-03-11 20:06:11:198,0,-3.67422,-3.68357,91.5985
2023-03-11 20:06:11:208,0,-3.63359,-3.66724,91.5839
2023-03-11 20:06:11:218,0,-3.59257,-3.64848,91.5771
2023-03-11 20:06:11:228,0,-3.55114,-3.62449,91.5807
2023-03-11 20:06:11:238,0,-3.51075,-3.60015,91.5945
2023-03-11 20:06:11:248,0,-3.47323,-3.57118,91.6219
2023-03-11 20:06:11:259,0,-3.43191,-3.54735,91.6602
2023-03-11 20:06:11:268,0,-3.38127,-3.5275,91.7113
2023-03-11 20:06:11:279,0,-3.32552,-3.50456,91.7686
2023-03-11 20:06:11:288,0,-3.269,-3.4783,91.8333
2023-03-11 20:06:11:298,0,-3.21244,-3.44783,91.8944
2023-03-11 20:06:11:308,0,-3.16261,-3.41981,91.9506
2023-03-11 20:06:11:318,0,-3.11548,-3.38999,92.0005
2023-03-11 20:06:11:328,0,-3.0807,-3.36493,92.0429
2023-03-11 20:06:11:338,0,-3.05814,-3.34352,92.0793
2023-03-11 20:06:11:348,0,-3.04337,-3.32562,92.1106
2023-03-11 20:06:11:359,0,-3.04531,-3.31218,92.137
2023-03-11 20:06:11:369,0,-3.06041,-3.30575,92.157
2023-03-11 20:06:11:378,0,-3.07884,-3.30657,92.169
2023-03-11 20:06:11:388,0,-3.10507,-3.31224,92.1735
2023-03-11 20:06:11:399,0,-3.13143,-3.31923,92.1717
2023-03-11 20:06:11:408,0,-3.15351,-3.33059,92.1624
2023-03-11 20:06:11:419,0,-3.17573,-3.34368,92.1423
2023-03-11 20:06:11:429,0,-3.19516,-3.36004,92.1198
2023-03-11 20:06:11:439,0,-3.21322,-3.38571,92.0903
2023-03-11 20:06:11:449,0,-3.22788,-3.41129,92.0623
2023-03-11 20:06:11:459,0,-3.24525,-3.44018,92.0279
2023-03-11 20:06:11:468,0,-3.26118,-3.47034,91.9985
2023-03-11 20:06:11:479,0,-3.27138,-3.49653,91.9655
2023-03-11 20:06:11:489,0,-3.27801,-3.52033,91.936
2023-03-11 20:06:11:499,0,-3.28631,-3.54159,91.912
2023-03-11 20:06:11:509,0,-3.29423,-3.55908,91.8888
2023-03-11 20:06:11:518,0,-3.30954,-3.56826,91.868
2023-03-11 20:06:11:528,0,-3.32566,-3.56903,91.8484
2023-03-11 20:06:11:538,0,-3.3346,-3.56426,91.8295
2023-03-11 20:06:11:549,0,-3.33732,-3.56028,91.8157
2023-03-11 20:06:11:558,0,-3.34074,-3.5536,91.8078
2023-03-11 20:06:11:569,0,-3.34393,-3.54536,91.8008
2023-03-11 20:06:11:579,0,-3.34892,-3.53545,91.7972
2023-03-11 20:06:11:588,0,-3.35625,-3.52703,91.8017
2023-03-11 20:06:11:599,0,-3.36434,-3.5227,91.813
2023-03-11 20:06:11:609,0,-3.3697,-3.53083,91.8346
2023-03-11 20:06:11:618,0,-3.37883,-3.54365,91.8663
2023-03-11 20:06:11:628,0,-3.38626,-3.56442,91.9087
2023-03-11 20:06:11:638,0,-3.39427,-3.58784,91.9567
2023-03-11 20:06:11:648,0,-3.40341,-3.61451,92.0128
2023-03-11 20:06:11:658,0,-3.41073,-3.63657,92.0728
2023-03-11 20:06:11:668,0,-3.42005,-3.65927,92.1377
2023-03-11 20:06:11:678,0,-3.43325,-3.68381,92.2046
2023-03-11 20:06:11:689,0,-3.44106,-3.70814,92.2645
2023-03-11 20:06:11:699,0,-3.45346,-3.72947,92.3214
2023-03-11 20:06:11:709,0,-3.47023,-3.74949,92.3751
2023-03-11 20:06:11:719,0,-3.49469,-3.76417,92.4246
2023-03-11 20:06:11:728,0,-3.52865,-3.77553,92.463
2023-03-11 20:06:11:738,0,-3.56242,-3.78191,92.4954
2023-03-11 20:06:11:749,0,-3.58352,-3.78397,92.5168
2023-03-11 20:06:11:759,0,-3.59168,-3.78702,92.5261
2023-03-11 20:06:11:769,0,-3.58653,-3.78444,92.5252
2023-03-11 20:06:11:779,0,-3.56315,-3.78837,92.5128
2023-03-11 20:06:11:789,0,-3.52641,-3.79369,92.4903
2023-03-11 20:06:11:799,0,-3.48706,-3.80055,92.4571
2023-03-11 20:06:11:808,0,-3.45124,-3.80921,92.418
2023-03-11 20:06:11:819,0,-3.42549,-3.82078,92.3716
2023-03-11 20:06:11:829,0,-3.41212,-3.83234,92.3226
2023-03-11 20:06:11:839,0,-3.41674,-3.84364,92.2768
2023-03-11 20:06:11:849,0,-3.42548,-3.85626,92.2321
2023-03-11 20:06:11:859,0,-3.43185,-3.86846,92.191
2023-03-11 20:06:11:869,0,-3.44344,-3.87742,92.1641
2023-03-11 20:06:11:879,0,-3.45382,-3.88569,92.1503
2023-03-11 20:06:11:889,0,-3.46818,-3.89519,92.1458
2023-03-11 20:06:11:899,0,-3.48332,-3.90238,92.1507
2023-03-11 20:06:11:909,0,-3.49471,-3.90965,92.1633
2023-03-11 20:06:11:918,0,-3.51376,-3.92177,92.1872
2023-03-11 20:06:11:928,0,-3.53412,-3.93967,92.2137
2023-03-11 20:06:11:939,0,-3.55529,-3.95627,92.246
2023-03-11 20:06:11:949,0,-3.57798,-3.97065,92.2771
2023-03-11 20:06:11:959,0,-3.59512,-3.98334,92.3085
2023-03-11 20:06:11:969,0,-3.60739,-3.99387,92.3358
2023-03-11 20:06:11:979,0,-3.60667,-4.007,92.3561
2023-03-11 20:06:11:989,0,-3.60417,-4.02338,92.3641
2023-03-11 20:06:11:999,0,-3.59056,-4.04097,92.371
2023-03-11 20:06:12:9,0,-3.57709,-4.05971,92.3692
2023-03-11 20:06:12:19,0,-3.56151,-4.08081,92.3652
2023-03-11 20:06:12:29,0,-3.54732,-4.10043,92.3601
2023-03-11 20:06:12:39,0,-3.54147,-4.11629,92.3532
2023-03-11 20:06:12:49,0,-3.5385,-4.12711,92.3436
2023-03-11 20:06:12:59,0,-3.53766,-4.13364,92.3354
2023-03-11 20:06:12:69,0,-3.53998,-4.14165,92.3326
2023-03-11 20:06:12:79,0,-3.54176,-4.14744,92.3355
2023-03-11 20:06:12:88,0,-3.55325,-4.15339,92.3452
2023-03-11 20:06:12:98,0,-3.57032,-4.1606,92.3647
2023-03-11 20:06:12:109,0,-3.59252,-4.16504,92.3956
2023-03-11 20:06:12:119,0,-3.61728,-4.16713,92.4318
2023-03-11 20:06:12:129,0,-3.64239,-4.16887,92.4767
2023-03-11 20:06:12:138,0,-3.66664,-4.17053,92.5333
2023-03-11 20:06:12:148,0,-3.68371,-4.17328,92.5994
2023-03-11 20:06:12:158,0,-3.69653,-4.18254,92.6668
2023-03-11 20:06:12:169,0,-3.7039,-4.19279,92.7387
2023-03-11 20:06:12:178,0,-3.71226,-4.19906,92.8044
2023-03-11 20:06:12:188,0,-3.7197,-4.19959,92.8657
2023-03-11 20:06:12:198,0,-3.72292,-4.1961,92.9049
2023-03-11 20:06:12:208,0,-3.71453,-4.19039,92.9309
2023-03-11 20:06:12:218,0,-3.69816,-4.18637,92.9406
2023-03-11 20:06:12:228,0,-3.675,-4.18883,92.9368
2023-03-11 20:06:12:238,0,-3.64946,-4.19528,92.924
2023-03-11 20:06:12:248,0,-3.6168,-4.20303,92.8948
2023-03-11 20:06:12:258,0,-3.58598,-4.21196,92.8574
2023-03-11 20:06:12:268,0,-3.55252,-4.21334,92.8123
2023-03-11 20:06:12:279,0,-3.51882,-4.2049,92.7586
2023-03-11 20:06:12:288,0,-3.48666,-4.18873,92.6989
2023-03-11 20:06:12:298,0,-3.45431,-4.16704,92.6431
2023-03-11 20:06:12:308,0,-3.42943,-4.13966,92.5957
2023-03-11 20:06:12:318,0,-3.41299,-4.1106,92.5558
2023-03-11 20:06:12:328,0,-3.40828,-4.07844,92.5297
2023-03-11 20:06:12:338,0,-3.4053,-4.04033,92.5114
2023-03-11 20:06:12:349,0,-3.41356,-4.00271,92.5075
2023-03-11 20:06:12:359,0,-3.42675,-3.95714,92.5085
2023-03-11 20:06:12:369,0,-3.44481,-3.90935,92.5114
2023-03-11 20:06:12:379,0,-3.45895,-3.86134,92.5172
2023-03-11 20:06:12:388,0,-3.46798,-3.82023,92.5153
2023-03-11 20:06:12:399,0,-3.48058,-3.78598,92.5202
2023-03-11 20:06:12:409,0,-3.4923,-3.76103,92.5249
2023-03-11 20:06:12:418,0,-3.51616,-3.74372,92.529
2023-03-11 20:06:12:428,0,-3.54728,-3.72979,92.5326
2023-03-11 20:06:12:438,0,-3.58256,-3.72149,92.5381
2023-03-11 20:06:12:449,0,-3.62251,-3.71256,92.5385
2023-03-11 20:06:12:459,0,-3.65829,-3.70057,92.5325
2023-03-11 20:06:12:469,0,-3.69606,-3.68783,92.5197
2023-03-11 20:06:12:479,0,-3.72752,-3.67916,92.4978
2023-03-11 20:06:12:489,0,-3.75259,-3.67168,92.4753
2023-03-11 20:06:12:498,0,-3.76656,-3.67311,92.4459
2023-03-11 20:06:12:508,0,-3.77848,-3.6778,92.4208
2023-03-11 20:06:12:518,0,-3.78902,-3.68822,92.3997
2023-03-11 20:06:12:528,0,-3.80108,-3.70146,92.3899
2023-03-11 20:06:12:538,0,-3.81402,-3.72199,92.3884
2023-03-11 20:06:12:549,0,-3.82446,-3.74256,92.3993
2023-03-11 20:06:12:559,0,-3.83214,-3.75773,92.4152
2023-03-11 20:06:12:568,0,-3.83831,-3.76364,92.4288
2023-03-11 20:06:12:579,0,-3.84301,-3.76151,92.4364
2023-03-11 20:06:12:588,0,-3.84395,-3.75746,92.4355
2023-03-11 20:06:12:599,0,-3.84458,-3.75509,92.4276
2023-03-11 20:06:12:608,0,-3.84358,-3.75315,92.4127
2023-03-11 20:06:12:618,0,-3.84539,-3.75867,92.3947
2023-03-11 20:06:12:628,0,-3.84831,-3.76753,92.3742
2023-03-11 20:06:12:638,0,-3.84975,-3.78065,92.3572
2023-03-11 20:06:12:648,0,-3.84859,-3.79197,92.3341
2023-03-11 20:06:12:658,0,-3.8376,-3.79968,92.3076
2023-03-11 20:06:12:668,0,-3.82187,-3.81043,92.273
2023-03-11 20:06:12:678,0,-3.8041,-3.81545,92.2293
2023-03-11 20:06:12:688,0,-3.79293,-3.81699,92.1814
2023-03-11 20:06:12:698,0,-3.78151,-3.82087,92.1265
2023-03-11 20:06:12:708,0,-3.77576,-3.82217,92.0672
2023-03-11 20:06:12:718,0,-3.7757,-3.82333,92.0097
2023-03-11 20:06:12:728,0,-3.77532,-3.82944,91.9523
2023-03-11 20:06:12:739,0,-3.77702,-3.83252,91.8986
2023-03-11 20:06:12:749,0,-3.77164,-3.83539,91.8466
2023-03-11 20:06:12:758,0,-3.76501,-3.83575,91.8022
2023-03-11 20:06:12:769,0,-3.75346,-3.83337,91.7649
2023-03-11 20:06:12:778,0,-3.7397,-3.83144,91.7363
2023-03-11 20:06:12:788,0,-3.72998,-3.82456,91.7115
2023-03-11 20:06:12:798,0,-3.72203,-3.81123,91.694
2023-03-11 20:06:12:808,0,-3.71487,-3.78959,91.6828
2023-03-11 20:06:12:818,0,-3.71844,-3.76154,91.6702
2023-03-11 20:06:12:828,0,-3.73783,-3.73005,91.6587
2023-03-11 20:06:12:838,0,-3.7682,-3.69719,91.6437
2023-03-11 20:06:12:848,0,-3.81446,-3.66746,91.63
2023-03-11 20:06:12:859,0,-3.87085,-3.6377,91.6139
2023-03-11 20:06:12:869,0,-3.93661,-3.61671,91.6041
2023-03-11 20:06:12:878,0,-4.01097,-3.60097,91.6041
2023-03-11 20:06:12:889,0,-4.09264,-3.5948,91.6129
2023-03-11 20:06:12:899,0,-4.18318,-3.59482,91.6372
2023-03-11 20:06:12:908,0,-4.27368,-3.60246,91.6674
2023-03-11 20:06:12:919,0,-4.35689,-3.60569,91.7049
2023-03-11 20:06:12:929,0,-4.43339,-3.61047,91.7459
2023-03-11 20:06:12:938,0,-4.49818,-3.61406,91.7799
2023-03-11 20:06:12:948,0,-4.5518,-3.62097,91.8047
2023-03-11 20:06:12:959,0,-4.59171,-3.62863,91.815
2023-03-11 20:06:12:969,0,-4.61531,-3.64117,91.8139
2023-03-11 20:06:12:979,0,-4.62779,-3.65976,91.7991
2023-03-11 20:06:12:989,0,-4.63593,-3.68323,91.7747
2023-03-11 20:06:12:999,0,-4.63697,-3.70027,91.7388
2023-03-11 20:06:13:8,0,-4.63109,-3.71619,91.694
2023-03-11 20:06:13:19,0,-4.62123,-3.72853,91.651
2023-03-11 20:06:13:28,0,-4.60573,-3.73076,91.6097
2023-03-11 20:06:13:38,0,-4.59361,-3.72381,91.5718
2023-03-11 20:06:13:48,0,-4.58497,-3.71067,91.5405
2023-03-11 20:06:13:58,0,-4.59307,-3.68726,91.5156
2023-03-11 20:06:13:68,0,-4.60439,-3.65542,91.4993
2023-03-11 20:06:13:79,0,-4.61721,-3.61906,91.4908
2023-03-11 20:06:13:89,0,-4.62714,-3.58431,91.4907
2023-03-11 20:06:13:98,0,-4.63862,-3.54766,91.4987
2023-03-11 20:06:13:109,0,-4.6498,-3.51052,91.5122
2023-03-11 20:06:13:119,0,-4.6651,-3.47554,91.529
2023-03-11 20:06:13:128,0,-4.68479,-3.43708,91.542
2023-03-11 20:06:13:139,0,-4.70911,-3.40265,91.5587
2023-03-11 20:06:13:148,0,-4.73565,-3.37219,91.5719
2023-03-11 20:06:13:158,0,-4.76553,-3.34821,91.5838
2023-03-11 20:06:13:168,0,-4.79675,-3.33292,91.5989
2023-03-11 20:06:13:178,0,-4.82849,-3.32446,91.6172
2023-03-11 20:06:13:188,0,-4.86095,-3.31826,91.6376
2023-03-11 20:06:13:198,0,-4.89431,-3.31127,91.6583
2023-03-11 20:06:13:209,0,-4.92991,-3.30378,91.6863
2023-03-11 20:06:13:218,0,-4.97132,-3.29738,91.713
2023-03-11 20:06:13:229,0,-5.01195,-3.2961,91.7464
2023-03-11 20:06:13:239,0,-5.05268,-3.2998,91.7817
2023-03-11 20:06:13:249,0,-5.09005,-3.30241,91.8156
2023-03-11 20:06:13:259,0,-5.12278,-3.30841,91.8486
2023-03-11 20:06:13:269,0,-5.15,-3.31396,91.8824
2023-03-11 20:06:13:279,0,-5.17517,-3.31914,91.9143
2023-03-11 20:06:13:288,0,-5.19481,-3.32566,91.9405
2023-03-11 20:06:13:298,0,-5.2085,-3.33188,91.9616
2023-03-11 20:06:13:308,0,-5.22157,-3.33737,91.9794
2023-03-11 20:06:13:319,0,-5.2315,-3.34465,91.9927
2023-03-11 20:06:13:329,0,-5.24519,-3.35579,91.997
2023-03-11 20:06:13:339,0,-5.25858,-3.36482,92.0014
2023-03-11 20:06:13:348,0,-5.27363,-3.37423,92.0005
2023-03-11 20:06:13:358,0,-5.2886,-3.38714,92.0034
2023-03-11 20:06:13:368,0,-5.30831,-3.40008,92.005
2023-03-11 20:06:13:379,0,-5.33081,-3.40833,92.0105
2023-03-11 20:06:13:389,0,-5.34958,-3.40678,92.0157
2023-03-11 20:06:13:399,0,-5.36511,-3.40398,92.0222
2023-03-11 20:06:13:408,0,-5.37133,-3.3963,92.0242
2023-03-11 20:06:13:418,0,-5.37561,-3.38269,92.0247
2023-03-11 20:06:13:428,0,-5.37873,-3.36533,92.0229
2023-03-11 20:06:13:438,0,-5.37665,-3.34576,92.0165
2023-03-11 20:06:13:448,0,-5.36872,-3.32032,92.0023
2023-03-11 20:06:13:458,0,-5.35734,-3.29377,91.9864
2023-03-11 20:06:13:469,0,-5.34232,-3.26429,91.9635
2023-03-11 20:06:13:478,0,-5.32735,-3.23366,91.935
2023-03-11 20:06:13:489,0,-5.30955,-3.20038,91.902
2023-03-11 20:06:13:499,0,-5.29061,-3.16561,91.8655
2023-03-11 20:06:13:509,0,-5.26852,-3.13019,91.8336
2023-03-11 20:06:13:518,0,-5.24902,-3.09793,91.7997
2023-03-11 20:06:13:528,0,-5.22279,-3.06609,91.7674
2023-03-11 20:06:13:539,0,-5.19563,-3.03293,91.7335
2023-03-11 20:06:13:549,0,-5.16879,-3.00396,91.7026
2023-03-11 20:06:13:559,0,-5.14121,-2.97157,91.6679
2023-03-11 20:06:13:568,0,-5.10994,-2.9355,91.6326
2023-03-11 20:06:13:578,0,-5.0828,-2.90324,91.5957
2023-03-11 20:06:13:589,0,-5.05656,-2.87285,91.5555
2023-03-11 20:06:13:599,0,-5.03437,-2.84293,91.5094
2023-03-11 20:06:13:609,0,-5.00894,-2.81638,91.4619
2023-03-11 20:06:13:619,0,-4.98252,-2.79411,91.4102
2023-03-11 20:06:13:629,0,-4.9566,-2.76946,91.3541
2023-03-11 20:06:13:638,0,-4.9297,-2.74592,91.2975
2023-03-11 20:06:13:648,0,-4.90815,-2.72083,91.2428
2023-03-11 20:06:13:658,0,-4.88988,-2.69732,91.1881
2023-03-11 20:06:13:669,0,-4.87546,-2.68265,91.1413
2023-03-11 20:06:13:679,0,-4.85934,-2.66765,91.1022
2023-03-11 20:06:13:688,0,-4.83669,-2.66129,91.067
2023-03-11 20:06:13:698,0,-4.81782,-2.65496,91.0395
2023-03-11 20:06:13:708,0,-4.80071,-2.65213,91.0162
2023-03-11 20:06:13:718,0,-4.78948,-2.64868,90.9945
2023-03-11 20:06:13:728,0,-4.78513,-2.6468,90.9759
2023-03-11 20:06:13:739,0,-4.78825,-2.64429,90.9559
2023-03-11 20:06:13:749,0,-4.78732,-2.64838,90.9324
2023-03-11 20:06:13:759,0,-4.79042,-2.65131,90.9033
2023-03-11 20:06:13:768,0,-4.79328,-2.65842,90.8759
2023-03-11 20:06:13:778,0,-4.79841,-2.67221,90.8426
2023-03-11 20:06:13:788,0,-4.80573,-2.68447,90.8048
2023-03-11 20:06:13:798,0,-4.81112,-2.70571,90.7601
2023-03-11 20:06:13:808,0,-4.81834,-2.72659,90.7114
2023-03-11 20:06:13:818,0,-4.82658,-2.74942,90.6646
2023-03-11 20:06:13:828,0,-4.83736,-2.77163,90.6169
2023-03-11 20:06:13:838,0,-4.84604,-2.7914,90.5696
2023-03-11 20:06:13:848,0,-4.8512,-2.81051,90.519
2023-03-11 20:06:13:858,0,-4.85352,-2.83107,90.4631
2023-03-11 20:06:13:868,0,-4.8537,-2.8521,90.4124
2023-03-11 20:06:13:878,0,-4.85484,-2.87068,90.3592
2023-03-11 20:06:13:888,0,-4.85277,-2.88791,90.3051
2023-03-11 20:06:13:898,0,-4.84823,-2.9019,90.2511
2023-03-11 20:06:13:908,0,-4.83897,-2.9133,90.1912
2023-03-11 20:06:13:918,0,-4.82885,-2.92639,90.1332
2023-03-11 20:06:13:929,0,-4.81548,-2.94253,90.0791
2023-03-11 20:06:13:938,0,-4.80228,-2.95858,90.0317
2023-03-11 20:06:13:949,0,-4.78946,-2.97687,89.992
2023-03-11 20:06:13:959,0,-4.77436,-2.99423,89.9569
2023-03-11 20:06:13:968,0,-4.76008,-3.01257,89.9277
2023-03-11 20:06:13:979,0,-4.74739,-3.02307,89.9059
2023-03-11 20:06:13:988,0,-4.73738,-3.02758,89.8904
2023-03-11 20:06:13:999,0,-4.73031,-3.02413,89.879
2023-03-11 20:06:14:8,0,-4.722,-3.01307,89.8688
2023-03-11 20:06:14:18,0,-4.7171,-2.99667,89.8592
2023-03-11 20:06:14:28,0,-4.70677,-2.98155,89.8456
2023-03-11 20:06:14:39,0,-4.69637,-2.96216,89.8327
2023-03-11 20:06:14:48,0,-4.68718,-2.93938,89.8186
2023-03-11 20:06:14:58,0,-4.6722,-2.91447,89.7977
2023-03-11 20:06:14:68,0,-4.65757,-2.88749,89.771
2023-03-11 20:06:14:78,0,-4.64233,-2.85686,89.7402
2023-03-11 20:06:14:88,0,-4.62641,-2.82196,89.712
2023-03-11 20:06:14:98,0,-4.61523,-2.79163,89.6867
2023-03-11 20:06:14:108,0,-4.6076,-2.76723,89.6622
2023-03-11 20:06:14:118,0,-4.60253,-2.74205,89.6385
2023-03-11 20:06:14:128,0,-4.59977,-2.72075,89.619
2023-03-11 20:06:14:138,0,-4.6024,-2.70062,89.6007
2023-03-11 20:06:14:148,0,-4.60398,-2.67413,89.577
2023-03-11 20:06:14:159,0,-4.59798,-2.64653,89.5558
2023-03-11 20:06:14:168,0,-4.58339,-2.62054,89.5352
2023-03-11 20:06:14:178,0,-4.57014,-2.5944,89.5124
2023-03-11 20:06:14:188,0,-4.56346,-2.56507,89.4901
2023-03-11 20:06:14:198,0,-4.56683,-2.53802,89.4686
2023-03-11 20:06:14:208,0,-4.5772,-2.50602,89.4437
2023-03-11 20:06:14:218,0,-4.58487,-2.4754,89.4182
2023-03-11 20:06:14:228,0,-4.59455,-2.44468,89.3897
2023-03-11 20:06:14:238,0,-4.61033,-2.41061,89.3586
2023-03-11 20:06:14:248,0,-4.62847,-2.38337,89.3307
2023-03-11 20:06:14:258,0,-4.63504,-2.35582,89.2994
2023-03-11 20:06:14:268,0,-4.63378,-2.33212,89.2676
2023-03-11 20:06:14:278,0,-4.62412,-2.3033,89.2366
2023-03-11 20:06:14:288,0,-4.61291,-2.28136,89.2038
2023-03-11 20:06:14:298,0,-4.60224,-2.26147,89.17
2023-03-11 20:06:14:308,0,-4.59327,-2.23921,89.1355
2023-03-11 20:06:14:318,0,-4.58263,-2.22298,89.1016
2023-03-11 20:06:14:328,0,-4.56965,-2.20869,89.0699
2023-03-11 20:06:14:338,0,-4.56165,-2.1995,89.0386
2023-03-11 20:06:14:348,0,-4.55993,-2.19294,89.0124
2023-03-11 20:06:14:358,0,-4.56379,-2.18925,88.9892
2023-03-11 20:06:14:368,0,-4.56978,-2.18558,88.9698
2023-03-11 20:06:14:378,0,-4.57716,-2.17824,88.9537
2023-03-11 20:06:14:388,0,-4.58757,-2.17199,88.9481
2023-03-11 20:06:14:398,0,-4.59863,-2.16632,88.9488
2023-03-11 20:06:14:408,0,-4.61273,-2.15531,88.9582
2023-03-11 20:06:14:418,0,-4.62385,-2.14293,88.9695
2023-03-11 20:06:14:428,0,-4.63322,-2.13159,88.9899
2023-03-11 20:06:14:439,0,-4.64121,-2.1208,89.0096
2023-03-11 20:06:14:448,0,-4.65552,-2.10912,89.0373
2023-03-11 20:06:14:459,0,-4.66725,-2.09855,89.0609
2023-03-11 20:06:14:468,0,-4.68018,-2.09409,89.0852
2023-03-11 20:06:14:479,0,-4.68999,-2.08681,89.1032
2023-03-11 20:06:14:489,0,-4.69754,-2.07887,89.1166
2023-03-11 20:06:14:499,0,-4.70521,-2.07398,89.1283
2023-03-11 20:06:14:508,0,-4.71398,-2.07288,89.1384
2023-03-11 20:06:14:518,0,-4.71841,-2.07314,89.1438
2023-03-11 20:06:14:528,0,-4.72155,-2.07404,89.1443
2023-03-11 20:06:14:539,0,-4.7276,-2.07356,89.1409
2023-03-11 20:06:14:549,0,-4.72782,-2.07568,89.1358
2023-03-11 20:06:14:558,0,-4.72394,-2.07782,89.1283
2023-03-11 20:06:14:568,0,-4.72718,-2.07771,89.12
2023-03-11 20:06:14:578,0,-4.72852,-2.07715,89.1143
2023-03-11 20:06:14:589,0,-4.72757,-2.07096,89.1089
2023-03-11 20:06:14:599,0,-4.72989,-2.064,89.1026
2023-03-11 20:06:14:609,0,-4.73107,-2.05718,89.1031
2023-03-11 20:06:14:619,0,-4.73003,-2.05467,89.1025
2023-03-11 20:06:14:629,0,-4.72648,-2.05097,89.101
2023-03-11 20:06:14:638,0,-4.72243,-2.04613,89.1018
2023-03-11 20:06:14:648,0,-4.71708,-2.04358,89.1042
2023-03-11 20:06:14:658,0,-4.71246,-2.04467,89.1083
2023-03-11 20:06:14:669,0,-4.70716,-2.05583,89.1118
2023-03-11 20:06:14:679,0,-4.70744,-2.07429,89.1188
2023-03-11 20:06:14:688,0,-4.70988,-2.08989,89.1297
2023-03-11 20:06:14:699,0,-4.71649,-2.11099,89.1466
2023-03-11 20:06:14:708,0,-4.7298,-2.13192,89.1629
2023-03-11 20:06:14:718,0,-4.74708,-2.15145,89.1773
2023-03-11 20:06:14:728,0,-4.76513,-2.16892,89.1902
2023-03-11 20:06:14:738,0,-4.78229,-2.18567,89.201
2023-03-11 20:06:14:748,0,-4.8002,-2.20265,89.2123
2023-03-11 20:06:14:758,0,-4.81623,-2.22305,89.2258
2023-03-11 20:06:14:768,0,-4.82934,-2.24367,89.232
2023-03-11 20:06:14:778,0,-4.83661,-2.26569,89.2363
2023-03-11 20:06:14:788,0,-4.84475,-2.28522,89.2413
2023-03-11 20:06:14:798,0,-4.85472,-2.30711,89.243
2023-03-11 20:06:14:809,0,-4.86401,-2.32938,89.247
2023-03-11 20:06:14:819,0,-4.87557,-2.35637,89.2506
2023-03-11 20:06:14:829,0,-4.89249,-2.38092,89.2506
2023-03-11 20:06:14:838,0,-4.91426,-2.40516,89.2467
2023-03-11 20:06:14:849,0,-4.94046,-2.42452,89.2455
2023-03-11 20:06:14:859,0,-4.96603,-2.44176,89.2486
2023-03-11 20:06:14:869,0,-4.99112,-2.45584,89.2509
2023-03-11 20:06:14:878,0,-5.01629,-2.46793,89.2588
2023-03-11 20:06:14:889,0,-5.04168,-2.47612,89.2644
2023-03-11 20:06:14:898,0,-5.06133,-2.47915,89.2748
2023-03-11 20:06:14:908,0,-5.08055,-2.48776,89.2888
2023-03-11 20:06:14:919,0,-5.10009,-2.49301,89.3034
2023-03-11 20:06:14:929,0,-5.12252,-2.50178,89.3262
2023-03-11 20:06:14:938,0,-5.14436,-2.50703,89.3464
2023-03-11 20:06:14:949,0,-5.16581,-2.51701,89.369
2023-03-11 20:06:14:958,0,-5.18809,-2.52309,89.3917
2023-03-11 20:06:14:969,0,-5.21084,-2.52933,89.4135
2023-03-11 20:06:14:979,0,-5.23467,-2.5366,89.4339
2023-03-11 20:06:14:988,0,-5.25406,-2.54624,89.4497
2023-03-11 20:06:14:999,0,-5.27149,-2.55545,89.4625
2023-03-11 20:06:15:9,0,-5.2875,-2.56246,89.4756
2023-03-11 20:06:15:19,0,-5.29832,-2.5723,89.4833
2023-03-11 20:06:15:29,0,-5.31014,-2.57652,89.489
2023-03-11 20:06:15:39,0,-5.31654,-2.58459,89.4914
2023-03-11 20:06:15:48,0,-5.31943,-2.59339,89.494
2023-03-11 20:06:15:59,0,-5.32532,-2.60001,89.4989
2023-03-11 20:06:15:69,0,-5.32416,-2.60602,89.5038
2023-03-11 20:06:15:79,0,-5.32119,-2.61417,89.5103
2023-03-11 20:06:15:89,0,-5.3145,-2.62357,89.5187
2023-03-11 20:06:15:99,0,-5.30531,-2.63245,89.5312
2023-03-11 20:06:15:109,0,-5.29285,-2.64325,89.5444
2023-03-11 20:06:15:119,0,-5.28127,-2.64997,89.5594
2023-03-11 20:06:15:129,0,-5.27243,-2.65762,89.5814
2023-03-11 20:06:15:138,0,-5.26965,-2.66005,89.6023
2023-03-11 20:06:15:149,0,-5.27441,-2.66707,89.6213
2023-03-11 20:06:15:159,0,-5.28757,-2.67185,89.6415
2023-03-11 20:06:15:169,0,-5.30828,-2.67567,89.6595
2023-03-11 20:06:15:179,0,-5.3253,-2.68127,89.6728
2023-03-11 20:06:15:188,0,-5.34204,-2.68518,89.6819
2023-03-11 20:06:15:198,0,-5.3565,-2.6915,89.6824
2023-03-11 20:06:15:209,0,-5.36802,-2.69189,89.6805
2023-03-11 20:06:15:219,0,-5.37288,-2.68677,89.6741
2023-03-11 20:06:15:228,0,-5.36391,-2.68286,89.6606
2023-03-11 20:06:15:239,0,-5.34479,-2.67648,89.646
2023-03-11 20:06:15:248,0,-5.31678,-2.66934,89.6349
2023-03-11 20:06:15:258,0,-5.28338,-2.65645,89.6229
2023-03-11 20:06:15:269,0,-5.24893,-2.63822,89.6137
2023-03-11 20:06:15:279,0,-5.21219,-2.62087,89.6069
2023-03-11 20:06:15:289,0,-5.17777,-2.60278,89.6026
2023-03-11 20:06:15:299,0,-5.15249,-2.58307,89.5984
2023-03-11 20:06:15:308,0,-5.12827,-2.56415,89.5931
2023-03-11 20:06:15:319,0,-5.10505,-2.54231,89.5919
2023-03-11 20:06:15:329,0,-5.08333,-2.52512,89.5891
2023-03-11 20:06:15:339,0,-5.06687,-2.50714,89.5798
2023-03-11 20:06:15:349,0,-5.05581,-2.4915,89.5728
2023-03-11 20:06:15:359,0,-5.04563,-2.48309,89.5714
2023-03-11 20:06:15:369,0,-5.03986,-2.46988,89.5617
2023-03-11 20:06:15:378,0,-5.03322,-2.45668,89.55
2023-03-11 20:06:15:388,0,-5.0238,-2.44846,89.5368
2023-03-11 20:06:15:398,0,-5.00975,-2.4488,89.5245
2023-03-11 20:06:15:408,0,-4.99352,-2.4511,89.5195
2023-03-11 20:06:15:418,0,-4.97574,-2.45701,89.5156
2023-03-11 20:06:15:429,0,-4.96181,-2.4621,89.5117
2023-03-11 20:06:15:438,0,-4.95312,-2.45862,89.5107
2023-03-11 20:06:15:449,0,-4.94701,-2.46122,89.5109
2023-03-11 20:06:15:459,0,-4.94158,-2.46608,89.518
2023-03-11 20:06:15:469,0,-4.93626,-2.47305,89.5288
2023-03-11 20:06:15:479,0,-4.93139,-2.49009,89.5466
2023-03-11 20:06:15:489,0,-4.92373,-2.50483,89.565
2023-03-11 20:06:15:499,0,-4.91254,-2.52263,89.5811
2023-03-11 20:06:15:508,0,-4.9061,-2.54599,89.6013
2023-03-11 20:06:15:519,0,-4.89755,-2.57289,89.6222
2023-03-11 20:06:15:529,0,-4.89449,-2.60137,89.6515
2023-03-11 20:06:15:539,0,-4.89375,-2.62941,89.6778
2023-03-11 20:06:15:549,0,-4.89722,-2.65699,89.7076
2023-03-11 20:06:15:559,0,-4.90449,-2.68084,89.7338
2023-03-11 20:06:15:569,0,-4.91085,-2.70251,89.7712
2023-03-11 20:06:15:579,0,-4.92089,-2.72554,89.8115
2023-03-11 20:06:15:589,0,-4.93907,-2.7465,89.8577
2023-03-11 20:06:15:599,0,-4.96249,-2.77046,89.9058
2023-03-11 20:06:15:609,0,-4.98666,-2.78836,89.9564
2023-03-11 20:06:15:619,0,-5.00996,-2.80313,90.0047
2023-03-11 20:06:15:628,0,-5.03826,-2.81332,90.0528
2023-03-11 20:06:15:639,0,-5.06776,-2.8168,90.1037
2023-03-11 20:06:15:649,0,-5.09386,-2.81615,90.1511
2023-03-11 20:06:15:658,0,-5.12237,-2.80774,90.1946
2023-03-11 20:06:15:668,0,-5.15258,-2.79433,90.2312
2023-03-11 20:06:15:679,0,-5.18093,-2.77315,90.2622
2023-03-11 20:06:15:689,0,-5.2059,-2.74849,90.2836
2023-03-11 20:06:15:699,0,-5.23062,-2.7182,90.2998
2023-03-11 20:06:15:709,0,-5.25043,-2.68498,90.3064
2023-03-11 20:06:15:719,0,-5.26115,-2.64829,90.3049
2023-03-11 20:06:15:728,0,-5.266,-2.61031,90.2999
2023-03-11 20:06:15:738,0,-5.26603,-2.57153,90.2845
2023-03-11 20:06:15:748,0,-5.25878,-2.53455,90.2657
2023-03-11 20:06:15:759,0,-5.24837,-2.50285,90.2434
2023-03-11 20:06:15:768,0,-5.24015,-2.47162,90.2235
2023-03-11 20:06:15:779,0,-5.23578,-2.44533,90.1976
2023-03-11 20:06:15:789,0,-5.23391,-2.41754,90.1715
2023-03-11 20:06:15:798,0,-5.23469,-2.39729,90.1473
2023-03-11 20:06:15:808,0,-5.23806,-2.38091,90.1225
2023-03-11 20:06:15:819,0,-5.24033,-2.36532,90.1012
2023-03-11 20:06:15:829,0,-5.2435,-2.35164,90.0814
2023-03-11 20:06:15:839,0,-5.24346,-2.3393,90.0608
2023-03-11 20:06:15:849,0,-5.24099,-2.33242,90.0422
2023-03-11 20:06:15:859,0,-5.23871,-2.32185,90.0226
2023-03-11 20:06:15:868,0,-5.23502,-2.31689,90.0076
2023-03-11 20:06:15:879,0,-5.23151,-2.31514,89.9961
2023-03-11 20:06:15:888,0,-5.23307,-2.31451,89.9864
2023-03-11 20:06:15:899,0,-5.23428,-2.31458,89.9763
2023-03-11 20:06:15:909,0,-5.23648,-2.31159,89.9687
2023-03-11 20:06:15:919,0,-5.2378,-2.31247,89.958
2023-03-11 20:06:15:929,0,-5.2319,-2.32045,89.9493
2023-03-11 20:06:15:939,0,-5.22395,-2.32985,89.9409
2023-03-11 20:06:15:949,0,-5.21397,-2.34068,89.9334
2023-03-11 20:06:15:959,0,-5.20626,-2.35599,89.9285
2023-03-11 20:06:15:969,0,-5.20019,-2.36631,89.9281
2023-03-11 20:06:15:979,0,-5.19787,-2.38094,89.9281
2023-03-11 20:06:15:989,0,-5.20124,-2.40229,89.928
2023-03-11 20:06:15:999,0,-5.20285,-2.42101,89.9302
2023-03-11 20:06:16:9,0,-5.20876,-2.44234,89.938
2023-03-11 20:06:16:19,0,-5.21291,-2.46433,89.9481
2023-03-11 20:06:16:28,0,-5.21265,-2.487,89.9598
2023-03-11 20:06:16:39,0,-5.20364,-2.51016,89.9704
2023-03-11 20:06:16:48,0,-5.18604,-2.53214,89.9854
2023-03-11 20:06:16:59,0,-5.15587,-2.55317,90.0018
2023-03-11 20:06:16:69,0,-5.12321,-2.57312,90.0191
2023-03-11 20:06:16:79,0,-5.09511,-2.59451,90.033
2023-03-11 20:06:16:89,0,-5.08296,-2.61055,90.0495
2023-03-11 20:06:16:99,0,-5.08246,-2.6279,90.0591
2023-03-11 20:06:16:108,0,-5.08279,-2.63939,90.0693
2023-03-11 20:06:16:119,0,-5.08024,-2.65601,90.0769
2023-03-11 20:06:16:129,0,-5.07506,-2.67606,90.086
2023-03-11 20:06:16:139,0,-5.07173,-2.69828,90.0987
2023-03-11 20:06:16:149,0,-5.06157,-2.72589,90.1108
2023-03-11 20:06:16:159,0,-5.05485,-2.74805,90.1262
2023-03-11 20:06:16:169,0,-5.04385,-2.76854,90.1465
2023-03-11 20:06:16:179,0,-5.03614,-2.7932,90.1637
2023-03-11 20:06:16:189,0,-5.03731,-2.81714,90.1828
2023-03-11 20:06:16:199,0,-5.04391,-2.83486,90.202
2023-03-11 20:06:16:209,0,-5.05798,-2.85296,90.2221
2023-03-11 20:06:16:219,0,-5.07448,-2.87089,90.242
2023-03-11 20:06:16:229,0,-5.09601,-2.8907,90.254
2023-03-11 20:06:16:238,0,-5.11841,-2.91078,90.265
2023-03-11 20:06:16:249,0,-5.14555,-2.9248,90.2698
2023-03-11 20:06:16:258,0,-5.16965,-2.93751,90.2702
2023-03-11 20:06:16:268,0,-5.19667,-2.94682,90.2658
2023-03-11 20:06:16:278,0,-5.22103,-2.95516,90.2546
2023-03-11 20:06:16:288,0,-5.23504,-2.95823,90.2422
2023-03-11 20:06:16:299,0,-5.24237,-2.96196,90.2299
2023-03-11 20:06:16:309,0,-5.25144,-2.96831,90.2177
2023-03-11 20:06:16:319,0,-5.25491,-2.97272,90.2064
2023-03-11 20:06:16:329,0,-5.26091,-2.97644,90.197
2023-03-11 20:06:16:339,0,-5.26899,-2.97462,90.1876
2023-03-11 20:06:16:349,0,-5.27746,-2.9702,90.1769
2023-03-11 20:06:16:359,0,-5.28282,-2.96991,90.1677
2023-03-11 20:06:16:369,0,-5.28568,-2.97149,90.1612
2023-03-11 20:06:16:379,0,-5.28457,-2.97665,90.1539
2023-03-11 20:06:16:389,0,-5.28134,-2.9758,90.1495
2023-03-11 20:06:16:399,0,-5.27442,-2.97368,90.1443
2023-03-11 20:06:16:408,0,-5.27043,-2.96823,90.141
2023-03-11 20:06:16:419,0,-5.26821,-2.95856,90.1374
2023-03-11 20:06:16:428,0,-5.26622,-2.94618,90.1316
2023-03-11 20:06:16:439,0,-5.2685,-2.93094,90.129
2023-03-11 20:06:16:449,0,-5.27388,-2.91836,90.1288
2023-03-11 20:06:16:459,0,-5.28066,-2.90439,90.1259
2023-03-11 20:06:16:469,0,-5.28894,-2.89306,90.1231
2023-03-11 20:06:16:479,0,-5.29979,-2.88337,90.1221
2023-03-11 20:06:16:489,0,-5.30881,-2.87394,90.1225
2023-03-11 20:06:16:498,0,-5.31467,-2.87021,90.1253
2023-03-11 20:06:16:508,0,-5.31906,-2.86968,90.1307
2023-03-11 20:06:16:518,0,-5.32731,-2.87204,90.1397
2023-03-11 20:06:16:528,0,-5.33869,-2.87597,90.1536
2023-03-11 20:06:16:539,0,-5.35281,-2.88167,90.1692
2023-03-11 20:06:16:549,0,-5.37263,-2.89019,90.1883
2023-03-11 20:06:16:559,0,-5.39347,-2.90486,90.2092
2023-03-11 20:06:16:568,0,-5.41174,-2.91451,90.2311
2023-03-11 20:06:16:579,0,-5.43603,-2.92609,90.2568
2023-03-11 20:06:16:589,0,-5.4621,-2.93837,90.2805
2023-03-11 20:06:16:599,0,-5.48947,-2.95431,90.3003
2023-03-11 20:06:16:609,0,-5.51404,-2.97017,90.3167
2023-03-11 20:06:16:619,0,-5.5287,-2.98366,90.3334
2023-03-11 20:06:16:628,0,-5.54064,-2.99172,90.348
2023-03-11 20:06:16:638,0,-5.55109,-3.00396,90.3617
2023-03-11 20:06:16:648,0,-5.56047,-3.01053,90.3724
2023-03-11 20:06:16:658,0,-5.57276,-3.01994,90.3798
2023-03-11 20:06:16:669,0,-5.58516,-3.02893,90.388
2023-03-11 20:06:16:679,0,-5.59296,-3.03397,90.3936
2023-03-11 20:06:16:689,0,-5.58688,-3.03861,90.3994
2023-03-11 20:06:16:699,0,-5.56726,-3.0406,90.4015
2023-03-11 20:06:16:708,0,-5.53529,-3.04497,90.4061
2023-03-11 20:06:16:719,0,-5.50321,-3.0467,90.4113
2023-03-11 20:06:16:729,0,-5.47465,-3.04551,90.4149
2023-03-11 20:06:16:739,0,-5.44963,-3.04584,90.4176
2023-03-11 20:06:16:748,0,-5.42039,-3.04436,90.4149
2023-03-11 20:06:16:759,0,-5.38556,-3.04277,90.4085
2023-03-11 20:06:16:769,0,-5.34214,-3.04167,90.3969
2023-03-11 20:06:16:778,0,-5.28944,-3.03791,90.3806
2023-03-11 20:06:16:788,0,-5.22298,-3.0307,90.3636
2023-03-11 20:06:16:798,0,-5.1514,-3.02135,90.3451
2023-03-11 20:06:16:808,0,-5.08472,-3.00943,90.328
2023-03-11 20:06:16:819,0,-5.03101,-2.99992,90.3138
2023-03-11 20:06:16:829,0,-4.98626,-2.99194,90.3001
2023-03-11 20:06:16:839,0,-4.94447,-2.98932,90.2926
2023-03-11 20:06:16:849,0,-4.90227,-2.98562,90.2862
2023-03-11 20:06:16:859,0,-4.86467,-2.99176,90.2857
2023-03-11 20:06:16:869,0,-4.82804,-3.0011,90.2907
2023-03-11 20:06:16:879,0,-4.79595,-3.01153,90.2977
2023-03-11 20:06:16:889,0,-4.76967,-3.02237,90.3072
2023-03-11 20:06:16:899,0,-4.74576,-3.03043,90.3177
2023-03-11 20:06:16:908,0,-4.73175,-3.04178,90.3295
2023-03-11 20:06:16:918,0,-4.72559,-3.04728,90.3452
2023-03-11 20:06:16:929,0,-4.7233,-3.05521,90.3596
2023-03-11 20:06:16:939,0,-4.72521,-3.06169,90.3744
2023-03-11 20:06:16:949,0,-4.73147,-3.06562,90.3813
2023-03-11 20:06:16:959,0,-4.73957,-3.06908,90.3911
2023-03-11 20:06:16:969,0,-4.74685,-3.07084,90.3948
2023-03-11 20:06:16:979,0,-4.74485,-3.06621,90.3953
2023-03-11 20:06:16:989,0,-4.73669,-3.06016,90.3936
2023-03-11 20:06:16:999,0,-4.72707,-3.05009,90.3872
2023-03-11 20:06:17:9,0,-4.72035,-3.04001,90.3783
2023-03-11 20:06:17:19,0,-4.71818,-3.02878,90.3675
2023-03-11 20:06:17:29,0,-4.72257,-3.00834,90.3509
2023-03-11 20:06:17:39,0,-4.72789,-2.99151,90.3314
2023-03-11 20:06:17:48,0,-4.74076,-2.9754,90.3128
2023-03-11 20:06:17:58,0,-4.75063,-2.95571,90.2957
2023-03-11 20:06:17:69,0,-4.76211,-2.93752,90.2782
2023-03-11 20:06:17:78,0,-4.76931,-2.91825,90.2625
2023-03-11 20:06:17:89,0,-4.77312,-2.90461,90.2484
2023-03-11 20:06:17:99,0,-4.77678,-2.89188,90.2348
2023-03-11 20:06:17:109,0,-4.78448,-2.8813,90.2258
2023-03-11 20:06:17:119,0,-4.79178,-2.87029,90.2177
2023-03-11 20:06:17:129,0,-4.80166,-2.8632,90.2134
2023-03-11 20:06:17:139,0,-4.80587,-2.85009,90.2111
2023-03-11 20:06:17:149,0,-4.80927,-2.83864,90.2058
2023-03-11 20:06:17:159,0,-4.81397,-2.82656,90.2078
2023-03-11 20:06:17:168,0,-4.80879,-2.81978,90.2069
2023-03-11 20:06:17:179,0,-4.80189,-2.81476,90.2068
2023-03-11 20:06:17:189,0,-4.79349,-2.81429,90.2062
2023-03-11 20:06:17:198,0,-4.78096,-2.81914,90.2086
2023-03-11 20:06:17:209,0,-4.76736,-2.82374,90.207
2023-03-11 20:06:17:219,0,-4.75716,-2.83112,90.2085
2023-03-11 20:06:17:229,0,-4.74464,-2.84326,90.2119
2023-03-11 20:06:17:238,0,-4.73367,-2.85488,90.2159
2023-03-11 20:06:17:248,0,-4.71828,-2.8726,90.2213
2023-03-11 20:06:17:258,0,-4.70352,-2.88987,90.2265
2023-03-11 20:06:17:269,0,-4.69538,-2.90459,90.2318
2023-03-11 20:06:17:279,0,-4.69508,-2.9211,90.2424
2023-03-11 20:06:17:288,0,-4.69647,-2.94068,90.2535
2023-03-11 20:06:17:298,0,-4.70085,-2.9585,90.2658
2023-03-11 20:06:17:308,0,-4.70613,-2.96911,90.2819
2023-03-11 20:06:17:319,0,-4.70749,-2.97973,90.2962
2023-03-11 20:06:17:329,0,-4.70448,-2.9845,90.3124
2023-03-11 20:06:17:339,0,-4.70547,-2.98928,90.3255
2023-03-11 20:06:17:349,0,-4.70416,-2.98898,90.3378
2023-03-11 20:06:17:359,0,-4.70429,-2.98889,90.351
2023-03-11 20:06:17:368,0,-4.70327,-2.98643,90.364
2023-03-11 20:06:17:379,0,-4.70641,-2.98663,90.376
2023-03-11 20:06:17:389,0,-4.71263,-2.9873,90.386
2023-03-11 20:06:17:399,0,-4.72161,-2.98658,90.3912
2023-03-11 20:06:17:409,0,-4.73153,-2.98775,90.3929
2023-03-11 20:06:17:419,0,-4.74268,-2.98949,90.3962
2023-03-11 20:06:17:428,0,-4.74758,-2.99157,90.3971
2023-03-11 20:06:17:439,0,-4.75115,-2.99338,90.3988
2023-03-11 20:06:17:449,0,-4.765,-3.00113,90.3983
2023-03-11 20:06:17:459,0,-4.74153,-3.00757,90.3966
2023-03-11 20:06:17:469,0,-4.69732,-3.00975,90.3953
2023-03-11 20:06:17:479,0,-4.66219,-3.00861,90.399
2023-03-11 20:06:17:489,0,-4.64139,-3.00805,90.3981
2023-03-11 20:06:17:499,0,-4.63891,-3.00767,90.4038
2023-03-11 20:06:17:509,0,-4.64145,-3.01236,90.406
2023-03-11 20:06:17:519,0,-4.64509,-3.00862,90.4105
2023-03-11 20:06:17:529,0,-4.64139,-3.005,90.412
2023-03-11 20:06:17:539,0,-4.63216,-3.00956,90.4148
2023-03-11 20:06:17:548,0,-4.62184,-3.01856,90.4158
2023-03-11 20:06:17:559,0,-4.59997,-3.0292,90.4176
2023-03-11 20:06:17:569,0,-4.57668,-3.03307,90.4205
2023-03-11 20:06:17:578,0,-4.5619,-3.03453,90.4251
2023-03-11 20:06:17:588,0,-4.55818,-3.03632,90.4257
2023-03-11 20:06:17:599,0,-4.55249,-3.03585,90.4308
2023-03-11 20:06:17:609,0,-4.54135,-3.03604,90.4363
2023-03-11 20:06:17:619,0,-4.52496,-3.03281,90.4406
2023-03-11 20:06:17:629,0,-4.50999,-3.02863,90.4487
2023-03-11 20:06:17:639,0,-4.49371,-3.02209,90.4534
2023-03-11 20:06:17:649,0,-4.48531,-3.01443,90.4593
2023-03-11 20:06:17:659,0,-4.47314,-3.00111,90.4653
2023-03-11 20:06:17:668,0,-4.46087,-2.99117,90.4684
2023-03-11 20:06:17:679,0,-4.45219,-2.98044,90.4715
2023-03-11 20:06:17:689,0,-4.44562,-2.97111,90.4733
2023-03-11 20:06:17:699,0,-4.44414,-2.96254,90.4824
2023-03-11 20:06:17:708,0,-4.4504,-2.95087,90.4896
2023-03-11 20:06:17:719,0,-4.45139,-2.93604,90.4951
2023-03-11 20:06:17:729,0,-4.45397,-2.9247,90.5021
2023-03-11 20:06:17:738,0,-4.46029,-2.90982,90.5107
2023-03-11 20:06:17:749,0,-4.4661,-2.89757,90.5162
2023-03-11 20:06:17:759,0,-4.46947,-2.88274,90.5209
2023-03-11 20:06:17:768,0,-4.46776,-2.87121,90.5297
2023-03-11 20:06:17:779,0,-4.46191,-2.86444,90.536
2023-03-11 20:06:17:789,0,-4.46264,-2.86063,90.5491
2023-03-11 20:06:17:799,0,-4.46302,-2.85753,90.5596
2023-03-11 20:06:17:808,0,-4.47139,-2.85664,90.5737
2023-03-11 20:06:17:818,0,-4.47924,-2.85368,90.5902
2023-03-11 20:06:17:828,0,-4.48601,-2.85034,90.6069
2023-03-11 20:06:17:839,0,-4.49442,-2.84458,90.6232
2023-03-11 20:06:17:849,0,-4.49844,-2.84149,90.6366
2023-03-11 20:06:17:858,0,-4.4982,-2.83753,90.6487
2023-03-11 20:06:17:869,0,-4.4933,-2.8302,90.6538
2023-03-11 20:06:17:879,0,-4.48845,-2.81996,90.6542
2023-03-11 20:06:17:888,0,-4.48489,-2.81148,90.6503
2023-03-11 20:06:17:898,0,-4.48359,-2.80155,90.6454
2023-03-11 20:06:17:908,0,-4.48133,-2.79039,90.6355
