Timestamp_cmd,imu_cmd,roll_delta,pitch_delta,yaw_delta,voice_type,voice_length
2023-03-14 17:17:34:175,0,-1.54402,-3.15307,75.548,Q,Q
2023-03-14 17:17:34:183,0,-1.5405,-3.16514,75.5045,Q,Q
2023-03-14 17:17:34:193,0,-1.54655,-3.17046,75.4751,Q,Q
2023-03-14 17:17:34:203,0,-1.55694,-3.17593,75.4595,Q,Q
2023-03-14 17:17:34:213,0,-1.57289,-3.17468,75.4515,Q,Q
2023-03-14 17:17:34:223,0,-1.59291,-3.16482,75.4462,Q,Q
2023-03-14 17:17:34:233,0,-1.61664,-3.15012,75.448,Q,Q
2023-03-14 17:17:34:244,0,-1.64806,-3.12758,75.4536,Q,Q
2023-03-14 17:17:34:253,0,-1.68777,-3.09329,75.4599,Q,Q
2023-03-14 17:17:34:263,0,-1.73194,-3.0548,75.4675,Q,Q
2023-03-14 17:17:34:273,0,-1.78673,-3.0192,75.482,Q,Q
2023-03-14 17:17:34:284,0,-1.84434,-2.9798,75.4956,Q,Q
2023-03-14 17:17:34:294,0,-1.90983,-2.94757,75.5119,Q,Q
2023-03-14 17:17:34:304,0,-1.96959,-2.91613,75.5248,Q,Q
2023-03-14 17:17:34:314,0,-2.01823,-2.8787,75.5309,Q,Q
2023-03-14 17:17:34:324,0,-2.05483,-2.83017,75.5245,Q,Q
2023-03-14 17:17:34:334,0,-2.08,-2.77039,75.5109,Q,Q
2023-03-14 17:17:34:344,0,-2.1011,-2.70578,75.496,Q,Q
2023-03-14 17:17:34:354,0,-2.13836,-2.64318,75.4863,Q,Q
2023-03-14 17:17:34:364,0,-2.18466,-2.58534,75.4811,Q,Q
2023-03-14 17:17:34:374,0,-2.23857,-2.53611,75.4849,Q,Q
2023-03-14 17:17:34:384,0,-2.29399,-2.49451,75.495,Q,Q
2023-03-14 17:17:34:394,0,-2.33568,-2.4624,75.5133,Q,Q
2023-03-14 17:17:34:404,0,-2.35256,-2.42469,75.5253,Q,Q
2023-03-14 17:17:34:414,0,-2.34421,-2.37982,75.5276,Q,Q
2023-03-14 17:17:34:424,0,-2.32215,-2.32905,75.5235,Q,Q
2023-03-14 17:17:34:434,0,-2.30222,-2.26987,75.5113,Q,Q
2023-03-14 17:17:34:444,0,-2.28808,-2.21224,75.4981,Q,Q
2023-03-14 17:17:34:454,0,-2.28017,-2.15552,75.4982,Q,Q
2023-03-14 17:17:34:464,0,-2.2899,-2.10507,75.5103,Q,Q
2023-03-14 17:17:34:474,0,-2.30552,-2.05851,75.5322,Q,Q
2023-03-14 17:17:34:483,0,-2.31128,-2.01561,75.5523,Q,Q
2023-03-14 17:17:34:494,0,-2.30072,-1.96784,75.5677,Q,Q
2023-03-14 17:17:34:504,0,-2.27556,-1.91174,75.5789,Q,Q
2023-03-14 17:17:34:514,0,-2.24435,-1.85437,75.5898,Q,Q
2023-03-14 17:17:34:524,0,-2.22286,-1.79808,75.5982,Q,Q
2023-03-14 17:17:34:534,0,-2.21587,-1.74464,75.6123,Q,Q
2023-03-14 17:17:34:543,0,-2.22411,-1.70689,75.6323,Q,Q
2023-03-14 17:17:34:553,0,-2.24071,-1.68411,75.663,Q,Q
2023-03-14 17:17:34:563,0,-2.26535,-1.68147,75.6983,Q,Q
2023-03-14 17:17:34:574,0,-2.28525,-1.69323,75.7358,Q,Q
2023-03-14 17:17:34:584,0,-2.29266,-1.70944,75.767,Q,Q
2023-03-14 17:17:34:594,0,-2.28504,-1.72466,75.7916,Q,Q
2023-03-14 17:17:34:604,0,-2.25923,-1.74133,75.8015,Q,Q
2023-03-14 17:17:34:614,0,-2.22926,-1.7594,75.8075,Q,Q
2023-03-14 17:17:34:624,0,-2.20237,-1.7782,75.817,Q,Q
2023-03-14 17:17:34:634,0,-2.18257,-1.795,75.8286,Q,Q
2023-03-14 17:17:34:644,0,-2.17132,-1.81487,75.8382,Q,Q
2023-03-14 17:17:34:654,0,-2.1628,-1.83762,75.8508,Q,Q
2023-03-14 17:17:34:664,0,-2.15823,-1.85884,75.8653,Q,Q
2023-03-14 17:17:34:674,0,-2.15766,-1.87872,75.8855,Q,Q
2023-03-14 17:17:34:684,0,-2.16038,-1.89272,75.9086,Q,Q
2023-03-14 17:17:34:694,0,-2.1609,-1.90516,75.9316,Q,Q
2023-03-14 17:17:34:704,0,-2.16588,-1.91596,75.9548,Q,Q
2023-03-14 17:17:34:713,0,-2.16977,-1.92469,75.9783,Q,Q
2023-03-14 17:17:34:724,0,-2.17527,-1.92864,76.0,Q,Q
2023-03-14 17:17:34:734,0,-2.18142,-1.93258,76.018,Q,Q
2023-03-14 17:17:34:743,0,-2.18492,-1.93101,76.0255,Q,Q
2023-03-14 17:17:34:754,0,-2.18143,-1.92593,76.0191,Q,Q
2023-03-14 17:17:34:763,0,-2.17468,-1.91762,76.0018,Q,Q
2023-03-14 17:17:34:774,0,-2.16301,-1.91178,75.9749,Q,Q
2023-03-14 17:17:34:783,0,-2.15543,-1.90233,75.9382,Q,Q
2023-03-14 17:17:34:794,0,-2.14106,-1.88999,75.8938,Q,Q
2023-03-14 17:17:34:804,0,-2.12781,-1.87511,75.8467,Q,Q
2023-03-14 17:17:34:814,0,-2.11724,-1.8589,75.7945,Q,Q
2023-03-14 17:17:34:824,0,-2.09983,-1.84023,75.7427,Q,Q
2023-03-14 17:17:34:833,0,-2.07986,-1.82179,75.6843,Q,Q
2023-03-14 17:17:34:844,0,-2.05756,-1.80145,75.6207,Q,Q
2023-03-14 17:17:34:854,0,-2.04207,-1.78301,75.553,Q,Q
2023-03-14 17:17:34:864,0,-2.02945,-1.76267,75.4841,Q,Q
2023-03-14 17:17:34:874,0,-2.02672,-1.74476,75.4169,Q,Q
2023-03-14 17:17:34:884,0,-2.0318,-1.72919,75.347,Q,Q
2023-03-14 17:17:34:894,0,-2.04474,-1.71932,75.2771,Q,Q
2023-03-14 17:17:34:904,0,-2.06933,-1.71258,75.2158,Q,Q
2023-03-14 17:17:34:913,0,-2.09672,-1.71172,75.1601,Q,Q
2023-03-14 17:17:34:924,0,-2.1292,-1.71913,75.1165,Q,Q
2023-03-14 17:17:34:934,0,-2.15923,-1.72585,75.0842,Q,Q
2023-03-14 17:17:34:944,0,-2.18901,-1.73155,75.0536,Q,Q
2023-03-14 17:17:34:953,0,-2.21247,-1.73653,75.0265,Q,Q
2023-03-14 17:17:34:964,0,-2.22548,-1.73022,75.008,Q,Q
2023-03-14 17:17:34:974,0,-2.2262,-1.72544,74.9943,Q,Q
2023-03-14 17:17:34:984,0,-2.2293,-1.71821,74.9882,Q,Q
2023-03-14 17:17:34:993,0,-2.23208,-1.71455,74.9873,Q,Q
2023-03-14 17:17:35:3,0,-2.23703,-1.70962,74.9894,Q,Q
2023-03-14 17:17:35:13,0,-2.24254,-1.71017,74.9992,Q,Q
2023-03-14 17:17:35:24,0,-2.25018,-1.70627,75.0132,Q,Q
2023-03-14 17:17:35:33,0,-2.25843,-1.70113,75.0289,Q,Q
2023-03-14 17:17:35:43,0,-2.26884,-1.69709,75.0474,Q,Q
2023-03-14 17:17:35:54,0,-2.2815,-1.69586,75.0705,Q,Q
2023-03-14 17:17:35:64,0,-2.29063,-1.6949,75.0931,Q,Q
2023-03-14 17:17:35:74,0,-2.29283,-1.69252,75.1157,Q,Q
2023-03-14 17:17:35:84,0,-2.2903,-1.69015,75.1367,Q,Q
2023-03-14 17:17:35:94,0,-2.28325,-1.68964,75.1521,Q,Q
2023-03-14 17:17:35:104,0,-2.27532,-1.69177,75.1672,Q,Q
2023-03-14 17:17:35:114,0,-2.26421,-1.69962,75.1805,Q,Q
2023-03-14 17:17:35:124,0,-2.25205,-1.70501,75.193,Q,Q
2023-03-14 17:17:35:134,0,-2.236,-1.71446,75.2061,Q,Q
2023-03-14 17:17:35:144,0,-2.2216,-1.72335,75.2143,Q,Q
2023-03-14 17:17:35:154,0,-2.20451,-1.73161,75.2239,Q,Q
2023-03-14 17:17:35:164,0,-2.19378,-1.73216,75.2299,Q,Q
2023-03-14 17:17:35:174,0,-2.18547,-1.73639,75.2377,Q,Q
2023-03-14 17:17:35:184,0,-2.18028,-1.7356,75.2472,Q,Q
2023-03-14 17:17:35:194,0,-2.17683,-1.73008,75.2611,Q,Q
2023-03-14 17:17:35:204,0,-2.17746,-1.72264,75.2752,Q,Q
2023-03-14 17:17:35:214,0,-2.18579,-1.71494,75.2875,Q,Q
2023-03-14 17:17:35:224,0,-2.19258,-1.7037,75.2992,Q,Q
2023-03-14 17:17:35:234,0,-2.2008,-1.69185,75.3155,Q,Q
2023-03-14 17:17:35:243,0,-2.21186,-1.67937,75.334,Q,Q
2023-03-14 17:17:35:253,0,-2.22183,-1.67195,75.3523,Q,Q
2023-03-14 17:17:35:263,0,-2.23698,-1.66729,75.3754,Q,Q
2023-03-14 17:17:35:273,0,-2.25678,-1.66449,75.3967,Q,Q
2023-03-14 17:17:35:283,0,-2.27698,-1.66232,75.42,Q,Q
2023-03-14 17:17:35:293,0,-2.29152,-1.66614,75.4474,Q,Q
2023-03-14 17:17:35:303,0,-2.30395,-1.67037,75.4661,Q,Q
2023-03-14 17:17:35:313,0,-2.30693,-1.68067,75.4763,Q,Q
2023-03-14 17:17:35:323,0,-2.30599,-1.68836,75.4819,Q,Q
2023-03-14 17:17:35:333,0,-2.30173,-1.69803,75.4826,Q,Q
2023-03-14 17:17:35:343,0,-2.29897,-1.70776,75.4752,Q,Q
2023-03-14 17:17:35:353,0,-2.29745,-1.71562,75.4686,Q,Q
2023-03-14 17:17:35:363,0,-2.29566,-1.72283,75.4585,Q,Q
2023-03-14 17:17:35:373,0,-2.29411,-1.72977,75.4532,Q,Q
2023-03-14 17:17:35:383,0,-2.2906,-1.73354,75.4574,Q,Q
2023-03-14 17:17:35:393,0,-2.28644,-1.73268,75.4654,Q,Q
2023-03-14 17:17:35:403,0,-2.2722,-1.72881,75.4766,Q,Q
2023-03-14 17:17:35:413,0,-2.24776,-1.71761,75.4883,Q,Q
2023-03-14 17:17:35:423,0,-2.21465,-1.69955,75.4962,Q,Q
2023-03-14 17:17:35:433,0,-2.17062,-1.67678,75.499,Q,Q
2023-03-14 17:17:35:443,0,-2.12222,-1.65065,75.4938,Q,Q
2023-03-14 17:17:35:453,0,-2.07356,-1.62262,75.4882,Q,Q
2023-03-14 17:17:35:463,0,-2.02694,-1.59456,75.4867,Q,Q
2023-03-14 17:17:35:473,0,-1.98164,-1.56665,75.4966,Q,Q
2023-03-14 17:17:35:483,0,-1.94433,-1.54054,75.5239,Q,Q
2023-03-14 17:17:35:493,0,-1.91909,-1.51697,75.5597,Q,Q
2023-03-14 17:17:35:503,0,-1.90614,-1.50666,75.6158,Q,Q
2023-03-14 17:17:35:513,0,-1.90428,-1.49944,75.6862,Q,Q
2023-03-14 17:17:35:523,0,-1.91884,-1.49534,75.7678,Q,Q
2023-03-14 17:17:35:533,0,-1.94466,-1.49647,75.8538,Q,Q
2023-03-14 17:17:35:543,0,-1.9813,-1.50769,75.9526,Q,Q
2023-03-14 17:17:35:553,0,-2.02832,-1.53055,76.0516,Q,Q
2023-03-14 17:17:35:563,0,-2.0861,-1.55779,76.1576,Q,Q
2023-03-14 17:17:35:573,0,-2.14644,-1.59747,76.2639,Q,Q
2023-03-14 17:17:35:583,0,-2.20638,-1.64833,76.3734,Q,Q
2023-03-14 17:17:35:593,0,-2.26466,-1.7121,76.4762,Q,Q
2023-03-14 17:17:35:603,0,-2.32281,-1.78954,76.5802,Q,Q
2023-03-14 17:17:35:613,0,-2.38243,-1.8796,76.6828,Q,Q
2023-03-14 17:17:35:623,0,-2.43488,-1.97714,76.7827,Q,Q
2023-03-14 17:17:35:633,0,-2.48031,-2.07745,76.8764,Q,Q
2023-03-14 17:17:35:643,0,-2.51793,-2.17572,76.9585,Q,Q
2023-03-14 17:17:35:653,0,-2.54586,-2.27637,77.0338,Q,Q
2023-03-14 17:17:35:663,0,-2.56518,-2.36952,77.0982,Q,Q
2023-03-14 17:17:35:673,0,-2.58173,-2.46109,77.1526,Q,Q
2023-03-14 17:17:35:683,0,-2.59422,-2.54447,77.1932,Q,Q
2023-03-14 17:17:35:693,0,-2.59783,-2.61625,77.2217,Q,Q
2023-03-14 17:17:35:703,0,-2.60144,-2.68377,77.2387,Q,Q
2023-03-14 17:17:35:713,0,-2.59919,-2.74344,77.2443,Q,Q
2023-03-14 17:17:35:724,0,-2.59379,-2.79755,77.2426,Q,Q
2023-03-14 17:17:35:733,0,-2.58591,-2.84985,77.232,Q,Q
2023-03-14 17:17:35:744,0,-2.57992,-2.89903,77.2066,Q,Q
2023-03-14 17:17:35:753,0,-2.57852,-2.94655,77.1771,Q,Q
2023-03-14 17:17:35:763,0,-2.58014,-2.98568,77.1396,Q,Q
2023-03-14 17:17:35:773,0,-2.5841,-3.01825,77.0939,Q,Q
2023-03-14 17:17:35:783,0,-2.58813,-3.0478,77.0376,Q,Q
2023-03-14 17:17:35:794,0,-2.5933,-3.07195,76.9762,Q,Q
2023-03-14 17:17:35:804,0,-2.603,-3.094,76.912,Q,Q
2023-03-14 17:17:35:813,0,-2.61279,-3.12203,76.8466,Q,Q
2023-03-14 17:17:35:823,0,-2.62371,-3.15579,76.785,Q,Q
2023-03-14 17:17:35:833,0,-2.62929,-3.19463,76.7323,Q,Q
2023-03-14 17:17:35:844,0,-2.62577,-3.2313,76.6911,Q,Q
2023-03-14 17:17:35:854,0,-2.61217,-3.2709,76.66,Q,Q
2023-03-14 17:17:35:863,0,-2.587,-3.31072,76.6336,Q,Q
2023-03-14 17:17:35:873,0,-2.55364,-3.35534,76.6138,Q,Q
2023-03-14 17:17:35:884,0,-2.51715,-3.40042,76.6,Q,Q
2023-03-14 17:17:35:893,0,-2.47959,-3.44064,76.5926,Q,Q
2023-03-14 17:17:35:904,0,-2.44112,-3.47263,76.5875,Q,Q
2023-03-14 17:17:35:914,0,-2.40301,-3.49857,76.5748,Q,Q
2023-03-14 17:17:35:924,0,-2.37218,-3.51751,76.5549,Q,Q
2023-03-14 17:17:35:934,0,-2.33836,-3.53165,76.5308,Q,Q
2023-03-14 17:17:35:944,0,-2.30842,-3.54366,76.5002,Q,Q
2023-03-14 17:17:35:954,0,-2.28542,-3.55211,76.47,Q,Q
2023-03-14 17:17:35:964,0,-2.27435,-3.55815,76.4346,Q,Q
2023-03-14 17:17:35:973,0,-2.26933,-3.56242,76.403,Q,Q
2023-03-14 17:17:35:983,0,-2.2737,-3.56347,76.3746,Q,Q
2023-03-14 17:17:35:993,0,-2.28552,-3.5651,76.3585,Q,Q
2023-03-14 17:17:36:3,0,-2.30309,-3.57297,76.3479,Q,Q
2023-03-14 17:17:36:13,0,-2.32862,-3.58117,76.3509,Q,Q
2023-03-14 17:17:36:23,0,-2.3536,-3.58792,76.3622,Q,Q
2023-03-14 17:17:36:33,0,-2.3757,-3.58785,76.3737,Q,Q
2023-03-14 17:17:36:43,0,-2.39047,-3.57631,76.3886,Q,Q
2023-03-14 17:17:36:53,0,-2.40366,-3.55271,76.399,Q,Q
2023-03-14 17:17:36:63,0,-2.42202,-3.50926,76.4048,Q,Q
2023-03-14 17:17:36:73,0,-2.45134,-3.45075,76.4075,Q,Q
2023-03-14 17:17:36:83,0,-2.49882,-3.37598,76.4083,Q,Q
2023-03-14 17:17:36:94,0,-2.56982,-3.29636,76.4135,Q,Q
2023-03-14 17:17:36:104,0,-2.66863,-3.2157,76.4218,Q,Q
2023-03-14 17:17:36:114,0,-2.78929,-3.14039,76.4375,Q,Q
2023-03-14 17:17:36:124,0,-2.91811,-3.07655,76.4561,Q,Q
2023-03-14 17:17:36:134,0,-3.04199,-3.01924,76.4799,Q,Q
2023-03-14 17:17:36:144,0,-3.15093,-2.96206,76.504,Q,Q
2023-03-14 17:17:36:154,0,-3.22697,-2.90971,76.5242,Q,Q
2023-03-14 17:17:36:164,0,-3.27353,-2.8434,76.5418,Q,Q
2023-03-14 17:17:36:174,0,-3.30232,-2.77712,76.5521,Q,Q
2023-03-14 17:17:36:184,0,-3.32761,-2.70902,76.559,Q,Q
2023-03-14 17:17:36:194,0,-3.362,-2.64124,76.5713,Q,Q
2023-03-14 17:17:36:204,0,-3.40718,-2.57047,76.5893,Q,Q
2023-03-14 17:17:36:214,0,-3.44367,-2.50133,76.6109,Q,Q
2023-03-14 17:17:36:224,0,-3.46124,-2.43529,76.6373,Q,Q
2023-03-14 17:17:36:234,0,-3.44661,-2.37025,76.6699,Q,Q
2023-03-14 17:17:36:244,0,-3.4225,-2.30338,76.7138,Q,Q
2023-03-14 17:17:36:254,0,-3.39862,-2.2476,76.768,Q,Q
2023-03-14 17:17:36:263,0,-3.37889,-2.19068,76.8307,Q,Q
2023-03-14 17:17:36:273,0,-3.35726,-2.12957,76.9001,Q,Q
2023-03-14 17:17:36:283,0,-3.33402,-2.07191,76.9702,Q,Q
2023-03-14 17:17:36:294,0,-3.30639,-2.01138,77.033,Q,Q
2023-03-14 17:17:36:304,0,-3.27132,-1.95049,77.0898,Q,Q
2023-03-14 17:17:36:314,0,-3.24281,-1.88893,77.1408,Q,Q
2023-03-14 17:17:36:324,0,-3.2158,-1.82486,77.1852,Q,Q
2023-03-14 17:17:36:333,0,-3.20838,-1.75655,77.2304,Q,Q
2023-03-14 17:17:36:343,0,-3.22526,-1.69159,77.2774,Q,Q
2023-03-14 17:17:36:353,0,-3.27168,-1.62763,77.3263,Q,Q
2023-03-14 17:17:36:364,0,-3.33966,-1.5771,77.3814,Q,Q
2023-03-14 17:17:36:374,0,-3.43107,-1.54035,77.438,Q,Q
2023-03-14 17:17:36:384,0,-3.5369,-1.52232,77.4995,Q,Q
2023-03-14 17:17:36:393,0,-3.66302,-1.52249,77.5634,Q,Q
2023-03-14 17:17:36:404,0,-3.80216,-1.53691,77.6223,Q,Q
2023-03-14 17:17:36:414,0,-3.94722,-1.54943,77.6807,Q,Q
2023-03-14 17:17:36:423,0,-4.08455,-1.55939,77.7351,Q,Q
2023-03-14 17:17:36:434,0,-4.21651,-1.56251,77.7782,Q,Q
2023-03-14 17:17:36:444,0,-4.35542,-1.5636,77.8245,Q,Q
2023-03-14 17:17:36:454,0,-4.51964,-1.5699,77.8683,Q,Q
2023-03-14 17:17:36:464,0,-4.70347,-1.58971,77.9131,Q,Q
2023-03-14 17:17:36:474,0,-4.89056,-1.62732,77.9559,Q,Q
2023-03-14 17:17:36:484,0,-5.07628,-1.66858,77.9897,Q,Q
2023-03-14 17:17:36:493,0,-5.25068,-1.72299,78.0135,Q,Q
2023-03-14 17:17:36:503,0,-5.41277,-1.78438,78.0308,Q,Q
2023-03-14 17:17:36:514,0,-5.55467,-1.85329,78.0338,Q,Q
2023-03-14 17:17:36:524,0,-5.67029,-1.91876,78.0275,Q,Q
2023-03-14 17:17:36:534,0,-5.76064,-1.98097,78.0011,Q,Q
2023-03-14 17:17:36:543,0,-5.83528,-2.03714,77.9628,Q,Q
2023-03-14 17:17:36:553,0,-5.89996,-2.08877,77.9113,Q,Q
2023-03-14 17:17:36:564,0,-5.95216,-2.13871,77.8542,Q,Q
2023-03-14 17:17:36:573,0,-6.00087,-2.18841,77.7962,Q,Q
2023-03-14 17:17:36:584,0,-6.04523,-2.23561,77.7333,Q,Q
2023-03-14 17:17:36:594,0,-6.08973,-2.28154,77.6743,Q,Q
2023-03-14 17:17:36:604,0,-6.1286,-2.32174,77.6187,Q,Q
2023-03-14 17:17:36:614,0,-6.156,-2.35566,77.5664,Q,Q
2023-03-14 17:17:36:623,0,-6.16684,-2.37481,77.5212,Q,Q
2023-03-14 17:17:36:634,0,-6.15859,-2.38918,77.4795,Q,Q
2023-03-14 17:17:36:643,0,-6.13434,-2.39589,77.445,Q,Q
2023-03-14 17:17:36:653,0,-6.10237,-2.40089,77.4176,Q,Q
2023-03-14 17:17:36:664,0,-6.06534,-2.40112,77.3972,Q,Q
2023-03-14 17:17:36:674,0,-6.02186,-2.40169,77.3803,Q,Q
2023-03-14 17:17:36:684,0,-5.97993,-2.39883,77.3674,Q,Q
2023-03-14 17:17:36:694,0,-5.93845,-2.38882,77.3526,Q,Q
2023-03-14 17:17:36:704,0,-5.89685,-2.37188,77.3346,Q,Q
2023-03-14 17:17:36:714,0,-5.85861,-2.34345,77.312,Q,Q
2023-03-14 17:17:36:724,0,-5.82831,-2.30567,77.2851,Q,Q
2023-03-14 17:17:36:734,0,-5.803,-2.25788,77.2544,Q,Q
2023-03-14 17:17:36:744,0,-5.77411,-2.20714,77.221,Q,Q
2023-03-14 17:17:36:754,0,-5.74609,-2.15721,77.1846,Q,Q
2023-03-14 17:17:36:764,0,-5.71336,-2.10123,77.1392,Q,Q
2023-03-14 17:17:36:774,0,-5.67954,-2.04967,77.0905,Q,Q
2023-03-14 17:17:36:784,0,-5.64791,-1.99638,77.0387,Q,Q
2023-03-14 17:17:36:794,0,-5.61722,-1.95043,76.9843,Q,Q
2023-03-14 17:17:36:804,0,-5.58328,-1.91282,76.9269,Q,Q
2023-03-14 17:17:36:814,0,-5.54665,-1.87687,76.8643,Q,Q
2023-03-14 17:17:36:824,0,-5.5089,-1.84711,76.8025,Q,Q
2023-03-14 17:17:36:834,0,-5.45973,-1.81814,76.7321,Q,Q
2023-03-14 17:17:36:843,0,-5.40732,-1.78687,76.6578,Q,Q
2023-03-14 17:17:36:854,0,-5.35221,-1.75827,76.5798,Q,Q
2023-03-14 17:17:36:864,0,-5.29433,-1.73305,76.4967,Q,Q
2023-03-14 17:17:36:874,0,-5.23493,-1.71395,76.4135,Q,Q
2023-03-14 17:17:36:884,0,-5.17287,-1.69931,76.3311,Q,Q
2023-03-14 17:17:36:894,0,-5.10892,-1.68788,76.2462,Q,Q
2023-03-14 17:17:36:904,0,-5.04205,-1.67568,76.1596,Q,Q
2023-03-14 17:17:36:914,0,-4.96053,-1.66131,76.0672,Q,Q
2023-03-14 17:17:36:924,0,-4.87021,-1.64583,75.9829,Q,Q
2023-03-14 17:17:36:934,0,-4.7744,-1.63102,75.9014,Q,Q
2023-03-14 17:17:36:944,0,-4.67781,-1.61868,75.8201,Q,Q
2023-03-14 17:17:36:953,0,-4.5856,-1.60856,75.745,Q,Q
2023-03-14 17:17:36:964,0,-4.49501,-1.60481,75.6777,Q,Q
2023-03-14 17:17:36:973,0,-4.41026,-1.60169,75.6143,Q,Q
2023-03-14 17:17:36:984,0,-4.32737,-1.60377,75.5588,Q,Q
2023-03-14 17:17:36:994,0,-4.2488,-1.60559,75.5129,Q,Q
2023-03-14 17:17:37:4,0,-4.18386,-1.60636,75.4717,Q,Q
2023-03-14 17:17:37:14,0,-4.12726,-1.61438,75.4404,Q,Q
2023-03-14 17:17:37:24,0,-4.08185,-1.6245,75.4212,Q,Q
2023-03-14 17:17:37:34,0,-4.04353,-1.63448,75.4078,Q,Q
2023-03-14 17:17:37:44,0,-4.01096,-1.64228,75.4,Q,Q
2023-03-14 17:17:37:54,0,-3.98182,-1.65049,75.3987,Q,Q
2023-03-14 17:17:37:64,0,-3.95592,-1.66439,75.4011,Q,Q
2023-03-14 17:17:37:74,0,-3.93413,-1.67714,75.4078,Q,Q
2023-03-14 17:17:37:83,0,-3.91788,-1.69239,75.4159,Q,Q
2023-03-14 17:17:37:94,0,-3.90857,-1.7122,75.429,Q,Q
2023-03-14 17:17:37:104,0,-3.89992,-1.73128,75.4423,Q,Q
2023-03-14 17:17:37:114,0,-3.89528,-1.75332,75.4553,Q,Q
2023-03-14 17:17:37:124,0,-3.8917,-1.77805,75.4687,Q,Q
2023-03-14 17:17:37:134,0,-3.89179,-1.8002,75.4763,Q,Q
2023-03-14 17:17:37:144,0,-3.8931,-1.817,75.4818,Q,Q
2023-03-14 17:17:37:153,0,-3.89645,-1.8384,75.4858,Q,Q
2023-03-14 17:17:37:164,0,-3.90279,-1.85686,75.4857,Q,Q
2023-03-14 17:17:37:174,0,-3.91211,-1.87425,75.4855,Q,Q
2023-03-14 17:17:37:184,0,-3.92649,-1.89731,75.4869,Q,Q
2023-03-14 17:17:37:194,0,-3.94215,-1.91547,75.4829,Q,Q
2023-03-14 17:17:37:204,0,-3.9586,-1.9281,75.4776,Q,Q
2023-03-14 17:17:37:213,0,-3.97432,-1.94751,75.4743,Q,Q
2023-03-14 17:17:37:223,0,-3.99812,-1.96317,75.4688,Q,Q
2023-03-14 17:17:37:234,0,-4.02287,-1.98352,75.4651,Q,Q
2023-03-14 17:17:37:244,0,-4.04842,-2.00662,75.4654,Q,Q
2023-03-14 17:17:37:254,0,-4.06662,-2.0329,75.4615,Q,Q
2023-03-14 17:17:37:264,0,-4.08022,-2.05953,75.4621,Q,Q
2023-03-14 17:17:37:274,0,-4.09264,-2.09192,75.463,Q,Q
2023-03-14 17:17:37:284,0,-4.10033,-2.12583,75.4674,Q,Q
2023-03-14 17:17:37:294,0,-4.10396,-2.16224,75.4736,Q,Q
2023-03-14 17:17:37:304,0,-4.11097,-2.19408,75.484,Q,Q
2023-03-14 17:17:37:314,0,-4.11489,-2.22828,75.4986,Q,Q
2023-03-14 17:17:37:323,0,-4.12085,-2.26067,75.5175,Q,Q
2023-03-14 17:17:37:334,0,-4.12615,-2.2955,75.5416,Q,Q
2023-03-14 17:17:37:344,0,-4.12956,-2.33447,75.5708,Q,Q
2023-03-14 17:17:37:353,0,-4.13347,-2.36817,75.6061,Q,Q
2023-03-14 17:17:37:363,0,-4.13639,-2.40307,75.6412,Q,Q
2023-03-14 17:17:37:373,0,-4.13444,-2.44162,75.6786,Q,Q
2023-03-14 17:17:37:383,0,-4.1265,-2.47565,75.7159,Q,Q
2023-03-14 17:17:37:394,0,-4.12039,-2.50935,75.7515,Q,Q
2023-03-14 17:17:37:404,0,-4.11565,-2.54384,75.7873,Q,Q
2023-03-14 17:17:37:414,0,-4.11221,-2.57658,75.8213,Q,Q
2023-03-14 17:17:37:423,0,-4.11281,-2.60673,75.8513,Q,Q
2023-03-14 17:17:37:434,0,-4.1134,-2.63515,75.8828,Q,Q
2023-03-14 17:17:37:444,0,-4.11471,-2.66635,75.9114,Q,Q
2023-03-14 17:17:37:454,0,-4.11589,-2.70104,75.9373,Q,Q
2023-03-14 17:17:37:464,0,-4.11519,-2.7372,75.9625,Q,Q
2023-03-14 17:17:37:474,0,-4.11553,-2.7732,75.9821,Q,Q
2023-03-14 17:17:37:484,0,-4.11324,-2.80501,75.9981,Q,Q
2023-03-14 17:17:37:493,0,-4.11152,-2.833,76.0161,Q,Q
2023-03-14 17:17:37:504,0,-4.10867,-2.86286,76.0307,Q,Q
2023-03-14 17:17:37:514,0,-4.10631,-2.88972,76.0414,Q,Q
2023-03-14 17:17:37:524,0,-4.09957,-2.9194,76.0507,Q,Q
2023-03-14 17:17:37:534,0,-4.09321,-2.95037,76.0597,Q,Q
2023-03-14 17:17:37:544,0,-4.08167,-2.98372,76.0674,Q,Q
2023-03-14 17:17:37:553,0,-4.06667,-3.02425,76.0748,Q,Q
2023-03-14 17:17:37:564,0,-4.05034,-3.06099,76.0791,Q,Q
2023-03-14 17:17:37:574,0,-4.03334,-3.0983,76.0811,Q,Q
2023-03-14 17:17:37:584,0,-4.02003,-3.12747,76.0808,Q,Q
2023-03-14 17:17:37:594,0,-4.00675,-3.15358,76.0791,Q,Q
2023-03-14 17:17:37:604,0,-3.9968,-3.17666,76.0744,Q,Q
2023-03-14 17:17:37:613,0,-3.98713,-3.19583,76.0706,Q,Q
2023-03-14 17:17:37:624,0,-3.97908,-3.20786,76.0629,Q,Q
2023-03-14 17:17:37:634,0,-3.97074,-3.22016,76.0583,Q,Q
2023-03-14 17:17:37:644,0,-3.969,-3.23412,76.0513,Q,Q
2023-03-14 17:17:37:654,0,-3.96192,-3.24544,76.041,Q,Q
2023-03-14 17:17:37:663,0,-3.9565,-3.25879,76.0325,Q,Q
2023-03-14 17:17:37:674,0,-3.9526,-3.27096,76.0244,Q,Q
2023-03-14 17:17:37:684,0,-3.94835,-3.27864,76.0139,Q,Q
2023-03-14 17:17:37:694,0,-3.93974,-3.28071,75.9987,Q,Q
2023-03-14 17:17:37:704,0,-3.93089,-3.27993,75.989,Q,Q
2023-03-14 17:17:37:714,0,-3.91926,-3.28183,75.9755,Q,Q
2023-03-14 17:17:37:724,0,-3.91382,-3.28983,75.9659,Q,Q
2023-03-14 17:17:37:734,0,-3.9117,-3.29901,75.9587,Q,Q
2023-03-14 17:17:37:744,0,-3.91434,-3.30955,75.9516,Q,Q
2023-03-14 17:17:37:754,0,-3.91687,-3.31986,75.9441,Q,Q
2023-03-14 17:17:37:764,0,-3.92124,-3.32884,75.9356,Q,Q
2023-03-14 17:17:37:774,0,-3.92315,-3.33486,75.9296,Q,Q
2023-03-14 17:17:37:783,0,-3.92458,-3.34208,75.9255,Q,Q
2023-03-14 17:17:37:793,0,-3.92081,-3.35144,75.9253,Q,Q
2023-03-14 17:17:37:803,0,-3.91625,-3.35846,75.9266,Q,Q
2023-03-14 17:17:37:814,0,-3.90609,-3.36249,75.9282,Q,Q
2023-03-14 17:17:37:824,0,-3.89267,-3.36492,75.9322,Q,Q
2023-03-14 17:17:37:833,0,-3.88315,-3.36855,75.9371,Q,Q
2023-03-14 17:17:37:844,0,-3.87418,-3.37019,75.9428,Q,Q
2023-03-14 17:17:37:854,0,-3.86239,-3.36958,75.9468,Q,Q
2023-03-14 17:17:37:864,0,-3.85264,-3.37094,75.955,Q,Q
2023-03-14 17:17:37:873,0,-3.83981,-3.37712,75.964,Q,Q
2023-03-14 17:17:37:884,0,-3.82171,-3.38469,75.9712,Q,Q
2023-03-14 17:17:37:894,0,-3.80303,-3.39415,75.9782,Q,Q
2023-03-14 17:17:37:904,0,-3.78218,-3.40495,75.9875,Q,Q
2023-03-14 17:17:37:914,0,-3.75559,-3.41362,75.9964,Q,Q
2023-03-14 17:17:37:924,0,-3.73034,-3.4214,76.0043,Q,Q
2023-03-14 17:17:37:934,0,-3.70299,-3.42724,76.0126,Q,Q
2023-03-14 17:17:37:944,0,-3.67645,-3.43039,76.0208,Q,Q
2023-03-14 17:17:37:954,0,-3.65443,-3.4346,76.0288,Q,Q
2023-03-14 17:17:37:964,0,-3.6397,-3.44082,76.0418,Q,Q
2023-03-14 17:17:37:974,0,-3.6317,-3.44827,76.0521,Q,Q
2023-03-14 17:17:37:984,0,-3.62569,-3.45776,76.0729,Q,Q
2023-03-14 17:17:37:994,0,-3.62056,-3.46169,76.0962,Q,Q
2023-03-14 17:17:38:4,0,-3.6076,-3.46639,76.1204,Q,Q
2023-03-14 17:17:38:13,0,-3.59198,-3.46684,76.1455,Q,Q
2023-03-14 17:17:38:24,0,-3.57707,-3.46141,76.1763,Q,Q
2023-03-14 17:17:38:34,0,-3.56054,-3.44968,76.2093,Q,Q
2023-03-14 17:17:38:44,0,-3.54718,-3.43162,76.248,Q,Q
2023-03-14 17:17:38:54,0,-3.5424,-3.42163,76.2917,Q,Q
2023-03-14 17:17:38:64,0,-3.54514,-3.41275,76.3401,Q,Q
2023-03-14 17:17:38:74,0,-3.55476,-3.41142,76.3978,Q,Q
2023-03-14 17:17:38:84,0,-3.56582,-3.41418,76.4609,Q,Q
2023-03-14 17:17:38:94,0,-3.57447,-3.41329,76.5262,Q,Q
2023-03-14 17:17:38:104,0,-3.57323,-3.40855,76.5825,Q,Q
2023-03-14 17:17:38:114,0,-3.55869,-3.39865,76.6257,Q,Q
2023-03-14 17:17:38:124,0,-3.53061,-3.38062,76.6548,Q,Q
2023-03-14 17:17:38:134,0,-3.48968,-3.35907,76.6717,Q,Q
2023-03-14 17:17:38:144,0,-3.43757,-3.34132,76.6749,Q,Q
2023-03-14 17:17:38:154,0,-3.3916,-3.32516,76.6749,Q,Q
2023-03-14 17:17:38:164,0,-3.36087,-3.3157,76.6748,Q,Q
2023-03-14 17:17:38:173,0,-3.34523,-3.30996,76.6824,Q,Q
2023-03-14 17:17:38:184,0,-3.34444,-3.30726,76.693,Q,Q
2023-03-14 17:17:38:194,0,-3.34544,-3.29429,76.7101,Q,Q
2023-03-14 17:17:38:204,0,-3.33655,-3.27769,76.7248,Q,Q
2023-03-14 17:17:38:213,0,-3.32348,-3.26104,76.7397,Q,Q
2023-03-14 17:17:38:224,0,-3.30403,-3.2411,76.7502,Q,Q
2023-03-14 17:17:38:233,0,-3.28577,-3.22729,76.7594,Q,Q
2023-03-14 17:17:38:244,0,-3.26811,-3.21431,76.7709,Q,Q
2023-03-14 17:17:38:254,0,-3.25253,-3.20972,76.7817,Q,Q
2023-03-14 17:17:38:264,0,-3.23817,-3.21491,76.7986,Q,Q
2023-03-14 17:17:38:274,0,-3.22685,-3.22546,76.8203,Q,Q
2023-03-14 17:17:38:283,0,-3.22151,-3.23563,76.8443,Q,Q
2023-03-14 17:17:38:294,0,-3.21166,-3.2398,76.8708,Q,Q
2023-03-14 17:17:38:304,0,-3.19135,-3.23883,76.8976,Q,Q
2023-03-14 17:17:38:313,0,-3.16605,-3.23922,76.9216,Q,Q
2023-03-14 17:17:38:324,0,-3.13185,-3.24327,76.9502,Q,Q
2023-03-14 17:17:38:334,0,-3.10083,-3.25574,76.9863,Q,Q
2023-03-14 17:17:38:344,0,-3.07469,-3.27113,77.0226,Q,Q
2023-03-14 17:17:38:354,0,-3.05279,-3.28682,77.0594,Q,Q
2023-03-14 17:17:38:364,0,-3.03279,-3.30626,77.0945,Q,Q
2023-03-14 17:17:38:374,0,-3.01458,-3.3301,77.1275,Q,Q
2023-03-14 17:17:38:383,0,-2.99158,-3.35756,77.1621,Q,Q
2023-03-14 17:17:38:393,0,-2.96599,-3.39421,77.1943,Q,Q
2023-03-14 17:17:38:403,0,-2.93565,-3.43002,77.2245,Q,Q
2023-03-14 17:17:38:414,0,-2.90105,-3.46764,77.2497,Q,Q
2023-03-14 17:17:38:423,0,-2.8716,-3.50361,77.2717,Q,Q
2023-03-14 17:17:38:433,0,-2.84307,-3.54524,77.2883,Q,Q
2023-03-14 17:17:38:443,0,-2.82503,-3.59137,77.3091,Q,Q
2023-03-14 17:17:38:453,0,-2.81063,-3.62454,77.332,Q,Q
2023-03-14 17:17:38:463,0,-2.78756,-3.65429,77.3552,Q,Q
2023-03-14 17:17:38:473,0,-2.7676,-3.68567,77.3735,Q,Q
2023-03-14 17:17:38:483,0,-2.74632,-3.7045,77.3889,Q,Q
2023-03-14 17:17:38:493,0,-2.72785,-3.7102,77.4074,Q,Q
2023-03-14 17:17:38:503,0,-2.70342,-3.71019,77.4244,Q,Q
2023-03-14 17:17:38:513,0,-2.67094,-3.70568,77.4407,Q,Q
2023-03-14 17:17:38:523,0,-2.64095,-3.69723,77.4541,Q,Q
2023-03-14 17:17:38:533,0,-2.61041,-3.6859,77.4645,Q,Q
2023-03-14 17:17:38:543,0,-2.59192,-3.67533,77.4736,Q,Q
2023-03-14 17:17:38:553,0,-2.5806,-3.66073,77.4758,Q,Q
2023-03-14 17:17:38:563,0,-2.57965,-3.64832,77.4816,Q,Q
2023-03-14 17:17:38:573,0,-2.57675,-3.6342,77.4871,Q,Q
2023-03-14 17:17:38:583,0,-2.56584,-3.62147,77.4913,Q,Q
2023-03-14 17:17:38:593,0,-2.54561,-3.61084,77.4884,Q,Q
2023-03-14 17:17:38:603,0,-2.52245,-3.60507,77.4805,Q,Q
2023-03-14 17:17:38:613,0,-2.5067,-3.60723,77.4744,Q,Q
2023-03-14 17:17:38:623,0,-2.49496,-3.61848,77.462,Q,Q
2023-03-14 17:17:38:633,0,-2.48261,-3.62858,77.4508,Q,Q
2023-03-14 17:17:38:643,0,-2.46502,-3.62805,77.4367,Q,Q
2023-03-14 17:17:38:653,0,-2.42991,-3.62145,77.4206,Q,Q
2023-03-14 17:17:38:664,0,-2.38738,-3.61724,77.3957,Q,Q
2023-03-14 17:17:38:674,0,-2.34307,-3.61905,77.3755,Q,Q
2023-03-14 17:17:38:684,0,-2.3062,-3.62759,77.3602,Q,Q
2023-03-14 17:17:38:694,0,-2.27248,-3.63687,77.3496,Q,Q
2023-03-14 17:17:38:704,0,-2.239,-3.64834,77.3493,Q,Q
2023-03-14 17:17:38:714,0,-2.20251,-3.65914,77.3608,Q,Q
2023-03-14 17:17:38:724,0,-2.15265,-3.66159,77.3771,Q,Q
2023-03-14 17:17:38:734,0,-2.09253,-3.66344,77.3994,Q,Q
2023-03-14 17:17:38:744,0,-2.02051,-3.66854,77.4227,Q,Q
2023-03-14 17:17:38:754,0,-1.95214,-3.6846,77.4464,Q,Q
2023-03-14 17:17:38:764,0,-1.8922,-3.7188,77.4746,Q,Q
2023-03-14 17:17:38:774,0,-1.8449,-3.75362,77.5065,Q,Q
2023-03-14 17:17:38:784,0,-1.80745,-3.79331,77.5355,Q,Q
2023-03-14 17:17:38:794,0,-1.77863,-3.84063,77.557,Q,Q
2023-03-14 17:17:38:804,0,-1.76,-3.88727,77.5707,Q,Q
2023-03-14 17:17:38:813,0,-1.74537,-3.93573,77.5698,Q,Q
2023-03-14 17:17:38:824,0,-1.74076,-3.98064,77.5632,Q,Q
2023-03-14 17:17:38:834,0,-1.7465,-4.02259,77.5504,Q,Q
2023-03-14 17:17:38:844,0,-1.75793,-4.06596,77.5309,Q,Q
2023-03-14 17:17:38:854,0,-1.7695,-4.10285,77.5123,Q,Q
2023-03-14 17:17:38:864,0,-1.78586,-4.13007,77.496,Q,Q
2023-03-14 17:17:38:874,0,-1.79607,-4.15267,77.4806,Q,Q
2023-03-14 17:17:38:883,0,-1.79744,-4.16424,77.4673,Q,Q
2023-03-14 17:17:38:893,0,-1.77946,-4.15832,77.4664,Q,Q
2023-03-14 17:17:38:904,0,-1.73936,-4.13923,77.4692,Q,Q
2023-03-14 17:17:38:914,0,-1.68914,-4.11931,77.4776,Q,Q
2023-03-14 17:17:38:924,0,-1.6301,-4.09227,77.4936,Q,Q
2023-03-14 17:17:38:933,0,-1.57089,-4.06584,77.5132,Q,Q
2023-03-14 17:17:38:944,0,-1.51638,-4.03475,77.5377,Q,Q
2023-03-14 17:17:38:954,0,-1.46509,-4.00891,77.5676,Q,Q
2023-03-14 17:17:38:964,0,-1.42082,-3.97991,77.603,Q,Q
2023-03-14 17:17:38:974,0,-1.3857,-3.9597,77.6426,Q,Q
2023-03-14 17:17:38:984,0,-1.34763,-3.94336,77.6867,Q,Q
2023-03-14 17:17:38:993,0,-1.30743,-3.92705,77.7341,Q,Q
2023-03-14 17:17:39:4,0,-1.2652,-3.91016,77.7796,Q,Q
2023-03-14 17:17:39:14,0,-1.21617,-3.88855,77.8282,Q,Q
2023-03-14 17:17:39:24,0,-1.17196,-3.87528,77.8725,Q,Q
2023-03-14 17:17:39:34,0,-1.13814,-3.86757,77.9202,Q,Q
2023-03-14 17:17:39:44,0,-1.11476,-3.86981,77.966,Q,Q
2023-03-14 17:17:39:54,0,-1.10018,-3.8761,78.0158,Q,Q
2023-03-14 17:17:39:64,0,-1.0905,-3.88757,78.0693,Q,Q
2023-03-14 17:17:39:74,0,-1.08162,-3.89655,78.1259,Q,Q
2023-03-14 17:17:39:84,0,-1.07115,-3.91215,78.1874,Q,Q
2023-03-14 17:17:39:94,0,-1.05785,-3.92837,78.2499,Q,Q
2023-03-14 17:17:39:104,0,-1.04408,-3.93907,78.3179,Q,Q
2023-03-14 17:17:39:114,0,-1.02934,-3.95421,78.3852,Q,Q
2023-03-14 17:17:39:124,0,-1.02022,-3.97839,78.4565,Q,Q
2023-03-14 17:17:39:134,0,-1.01803,-4.00599,78.5222,Q,Q
2023-03-14 17:17:39:144,0,-1.0264,-4.02732,78.5884,Q,Q
2023-03-14 17:17:39:154,0,-1.03631,-4.05022,78.6511,Q,Q
2023-03-14 17:17:39:164,0,-1.05055,-4.07376,78.6975,Q,Q
2023-03-14 17:17:39:174,0,-1.07436,-4.08643,78.734,Q,Q
2023-03-14 17:17:39:184,0,-1.0975,-4.08672,78.7561,Q,Q
2023-03-14 17:17:39:193,0,-1.11232,-4.08188,78.7616,Q,Q
2023-03-14 17:17:39:204,0,-1.12442,-4.06448,78.7566,Q,Q
2023-03-14 17:17:39:214,0,-1.12469,-4.03496,78.7442,Q,Q
2023-03-14 17:17:39:223,0,-1.12468,-4.01529,78.7339,Q,Q
2023-03-14 17:17:39:234,0,-1.11872,-4.00092,78.7301,Q,Q
2023-03-14 17:17:39:244,0,-1.11055,-3.99301,78.7314,Q,Q
2023-03-14 17:17:39:254,0,-1.09547,-3.99094,78.7383,Q,Q
2023-03-14 17:17:39:264,0,-1.06615,-3.99372,78.7483,Q,Q
2023-03-14 17:17:39:274,0,-1.03285,-3.99208,78.759,Q,Q
2023-03-14 17:17:39:284,0,-0.990121,-3.9898,78.7534,Q,Q
2023-03-14 17:17:39:294,0,-0.948341,-3.98808,78.74,Q,Q
2023-03-14 17:17:39:304,0,-0.908678,-3.98502,78.7137,Q,Q
2023-03-14 17:17:39:313,0,-0.87454,-3.98356,78.6762,Q,Q
2023-03-14 17:17:39:324,0,-0.850016,-3.98641,78.6323,Q,Q
2023-03-14 17:17:39:333,0,-0.833989,-3.9998,78.5827,Q,Q
2023-03-14 17:17:39:344,0,-0.82837,-4.0163,78.5262,Q,Q
2023-03-14 17:17:39:354,0,-0.832985,-4.03569,78.47,Q,Q
2023-03-14 17:17:39:364,0,-0.841976,-4.05699,78.4137,Q,Q
2023-03-14 17:17:39:374,0,-0.861053,-4.07467,78.3593,Q,Q
2023-03-14 17:17:39:384,0,-0.880911,-4.08035,78.3029,Q,Q
2023-03-14 17:17:39:393,0,-0.899286,-4.06989,78.2427,Q,Q
2023-03-14 17:17:39:404,0,-0.909515,-4.05479,78.1756,Q,Q
2023-03-14 17:17:39:413,0,-0.92321,-4.04097,78.1125,Q,Q
2023-03-14 17:17:39:423,0,-0.942391,-4.03372,78.0528,Q,Q
2023-03-14 17:17:39:433,0,-0.964515,-4.0314,77.9999,Q,Q
2023-03-14 17:17:39:444,0,-0.98714,-4.03742,77.9527,Q,Q
2023-03-14 17:17:39:454,0,-1.01273,-4.04365,77.9098,Q,Q
2023-03-14 17:17:39:464,0,-1.03167,-4.04598,77.8718,Q,Q
2023-03-14 17:17:39:474,0,-1.04333,-4.04726,77.8314,Q,Q
2023-03-14 17:17:39:483,0,-1.04906,-4.04117,77.7926,Q,Q
2023-03-14 17:17:39:493,0,-1.0367,-4.02966,77.7499,Q,Q
2023-03-14 17:17:39:504,0,-1.01011,-4.01022,77.6969,Q,Q
2023-03-14 17:17:39:514,0,-0.973667,-3.98573,77.637,Q,Q
2023-03-14 17:17:39:524,0,-0.925212,-3.9611,77.5688,Q,Q
2023-03-14 17:17:39:533,0,-0.872533,-3.93911,77.4985,Q,Q
2023-03-14 17:17:39:544,0,-0.814356,-3.92601,77.4198,Q,Q
2023-03-14 17:17:39:554,0,-0.764617,-3.91891,77.3402,Q,Q
2023-03-14 17:17:39:564,0,-0.720676,-3.91886,77.2622,Q,Q
2023-03-14 17:17:39:574,0,-0.677733,-3.92006,77.1883,Q,Q
2023-03-14 17:17:39:584,0,-0.639513,-3.92731,77.1159,Q,Q
2023-03-14 17:17:39:594,0,-0.601631,-3.93553,77.0426,Q,Q
2023-03-14 17:17:39:604,0,-0.562788,-3.94455,76.9682,Q,Q
2023-03-14 17:17:39:614,0,-0.520885,-3.95478,76.8954,Q,Q
2023-03-14 17:17:39:624,0,-0.47866,-3.9666,76.823,Q,Q
2023-03-14 17:17:39:634,0,-0.432401,-3.98794,76.7573,Q,Q
2023-03-14 17:17:39:644,0,-0.392592,-4.01489,76.6943,Q,Q
2023-03-14 17:17:39:654,0,-0.355327,-4.04843,76.6422,Q,Q
2023-03-14 17:17:39:663,0,-0.32619,-4.0964,76.6038,Q,Q
2023-03-14 17:17:39:674,0,-0.305936,-4.1609,76.581,Q,Q
2023-03-14 17:17:39:684,0,-0.291768,-4.232,76.5762,Q,Q
2023-03-14 17:17:39:694,0,-0.278555,-4.30489,76.5845,Q,Q
2023-03-14 17:17:39:704,0,-0.262711,-4.3737,76.6072,Q,Q
2023-03-14 17:17:39:714,0,-0.235591,-4.43175,76.6418,Q,Q
2023-03-14 17:17:39:724,0,-0.203209,-4.47357,76.6807,Q,Q
2023-03-14 17:17:39:734,0,-0.16749,-4.5075,76.7232,Q,Q
2023-03-14 17:17:39:744,0,-0.118467,-4.52744,76.7638,Q,Q
2023-03-14 17:17:39:753,0,-0.0547172,-4.54567,76.8057,Q,Q
2023-03-14 17:17:39:764,0,0.0152645,-4.56478,76.852,Q,Q
2023-03-14 17:17:39:774,0,0.0841486,-4.5803,76.8994,Q,Q
2023-03-14 17:17:39:784,0,0.150377,-4.59984,76.9506,Q,Q
2023-03-14 17:17:39:793,0,0.212187,-4.61602,76.9968,Q,Q
2023-03-14 17:17:39:804,0,0.267248,-4.62825,77.0418,Q,Q
2023-03-14 17:17:39:813,0,0.313449,-4.63499,77.0852,Q,Q
2023-03-14 17:17:39:824,0,0.350965,-4.64225,77.1218,Q,Q
2023-03-14 17:17:39:834,0,0.374101,-4.64648,77.1546,Q,Q
2023-03-14 17:17:39:844,0,0.39015,-4.64467,77.1822,Q,Q
2023-03-14 17:17:39:854,0,0.403961,-4.63373,77.2089,Q,Q
2023-03-14 17:17:39:864,0,0.414465,-4.61964,77.2333,Q,Q
2023-03-14 17:17:39:874,0,0.415022,-4.60538,77.2552,Q,Q
2023-03-14 17:17:39:884,0,0.402468,-4.58268,77.2744,Q,Q
2023-03-14 17:17:39:894,0,0.384291,-4.552,77.2906,Q,Q
2023-03-14 17:17:39:904,0,0.365268,-4.52312,77.3043,Q,Q
2023-03-14 17:17:39:914,0,0.346644,-4.48824,77.3154,Q,Q
2023-03-14 17:17:39:924,0,0.324956,-4.44848,77.3288,Q,Q
2023-03-14 17:17:39:933,0,0.305761,-4.40446,77.3443,Q,Q
2023-03-14 17:17:39:944,0,0.29009,-4.35585,77.3553,Q,Q
2023-03-14 17:17:39:954,0,0.268422,-4.31192,77.364,Q,Q
2023-03-14 17:17:39:964,0,0.247239,-4.2662,77.3702,Q,Q
2023-03-14 17:17:39:974,0,0.229023,-4.21787,77.3792,Q,Q
2023-03-14 17:17:39:984,0,0.211838,-4.17597,77.3825,Q,Q
2023-03-14 17:17:39:994,0,0.20273,-4.13445,77.3855,Q,Q
2023-03-14 17:17:40:4,0,0.196733,-4.10306,77.3876,Q,Q
2023-03-14 17:17:40:14,0,0.190033,-4.07992,77.3835,Q,Q
2023-03-14 17:17:40:23,0,0.186199,-4.06133,77.3773,Q,Q
2023-03-14 17:17:40:34,0,0.179379,-4.04516,77.3681,Q,Q
2023-03-14 17:17:40:44,0,0.176968,-4.03101,77.3509,Q,Q
2023-03-14 17:17:40:54,0,0.177728,-4.01098,77.3236,Q,Q
2023-03-14 17:17:40:64,0,0.181863,-3.98971,77.2903,Q,Q
2023-03-14 17:17:40:74,0,0.185303,-3.97144,77.2494,Q,Q
2023-03-14 17:17:40:84,0,0.192913,-3.95845,77.1937,Q,Q
2023-03-14 17:17:40:94,0,0.206535,-3.94817,77.1299,Q,Q
2023-03-14 17:17:40:104,0,0.213642,-3.95224,77.0605,Q,Q
2023-03-14 17:17:40:114,0,0.21154,-3.95896,76.9862,Q,Q
2023-03-14 17:17:40:124,0,0.197941,-3.97161,76.9176,Q,Q
2023-03-14 17:17:40:133,0,0.184682,-3.98128,76.8533,Q,Q
2023-03-14 17:17:40:144,0,0.165552,-3.98644,76.7964,Q,Q
2023-03-14 17:17:40:154,0,0.152236,-3.98746,76.7509,Q,Q
2023-03-14 17:17:40:164,0,0.141582,-3.98739,76.712,Q,Q
2023-03-14 17:17:40:174,0,0.136255,-3.98052,76.6897,Q,Q
2023-03-14 17:17:40:184,0,0.136936,-3.96936,76.6792,Q,Q
2023-03-14 17:17:40:194,0,0.140311,-3.95156,76.6791,Q,Q
2023-03-14 17:17:40:204,0,0.140326,-3.93661,76.6884,Q,Q
2023-03-14 17:17:40:214,0,0.134817,-3.92272,76.7054,Q,Q
2023-03-14 17:17:40:224,0,0.124401,-3.9156,76.7253,Q,Q
2023-03-14 17:17:40:234,0,0.102126,-3.90763,76.75,Q,Q
2023-03-14 17:17:40:244,0,0.074368,-3.89286,76.7778,Q,Q
2023-03-14 17:17:40:254,0,0.0469885,-3.87228,76.8079,Q,Q
2023-03-14 17:17:40:264,0,0.02145,-3.84972,76.8306,Q,Q
2023-03-14 17:17:40:274,0,-0.00338761,-3.81872,76.8441,Q,Q
2023-03-14 17:17:40:284,0,-0.0249724,-3.786,76.8542,Q,Q
2023-03-14 17:17:40:294,0,-0.04289,-3.75123,76.8528,Q,Q
2023-03-14 17:17:40:304,0,-0.0652451,-3.72187,76.8466,Q,Q
2023-03-14 17:17:40:314,0,-0.0932025,-3.69539,76.831,Q,Q
2023-03-14 17:17:40:323,0,-0.126023,-3.6719,76.8066,Q,Q
2023-03-14 17:17:40:334,0,-0.162633,-3.64865,76.7795,Q,Q
2023-03-14 17:17:40:344,0,-0.195324,-3.62997,76.7477,Q,Q
2023-03-14 17:17:40:354,0,-0.226151,-3.61182,76.7172,Q,Q
2023-03-14 17:17:40:364,0,-0.253083,-3.60044,76.689,Q,Q
2023-03-14 17:17:40:374,0,-0.278448,-3.59199,76.6619,Q,Q
2023-03-14 17:17:40:384,0,-0.298717,-3.58914,76.6387,Q,Q
2023-03-14 17:17:40:394,0,-0.315658,-3.59313,76.6175,Q,Q
2023-03-14 17:17:40:404,0,-0.336258,-3.59984,76.5977,Q,Q
2023-03-14 17:17:40:414,0,-0.348256,-3.60848,76.5833,Q,Q
2023-03-14 17:17:40:423,0,-0.356967,-3.62031,76.5702,Q,Q
2023-03-14 17:17:40:434,0,-0.359891,-3.63216,76.5525,Q,Q
2023-03-14 17:17:40:443,0,-0.356858,-3.64854,76.5334,Q,Q
2023-03-14 17:17:40:453,0,-0.34567,-3.65737,76.5167,Q,Q
2023-03-14 17:17:40:463,0,-0.331946,-3.66318,76.4985,Q,Q
2023-03-14 17:17:40:473,0,-0.312922,-3.6693,76.4757,Q,Q
2023-03-14 17:17:40:484,0,-0.289799,-3.67578,76.4524,Q,Q
2023-03-14 17:17:40:494,0,-0.266957,-3.68344,76.431,Q,Q
2023-03-14 17:17:40:504,0,-0.24291,-3.68666,76.4079,Q,Q
2023-03-14 17:17:40:514,0,-0.22119,-3.6871,76.3821,Q,Q
2023-03-14 17:17:40:524,0,-0.19933,-3.68322,76.3536,Q,Q
2023-03-14 17:17:40:533,0,-0.182847,-3.67841,76.3225,Q,Q
2023-03-14 17:17:40:543,0,-0.172495,-3.67381,76.2915,Q,Q
2023-03-14 17:17:40:554,0,-0.167411,-3.67282,76.2623,Q,Q
2023-03-14 17:17:40:564,0,-0.167738,-3.67591,76.2313,Q,Q
2023-03-14 17:17:40:574,0,-0.170267,-3.67564,76.2089,Q,Q
2023-03-14 17:17:40:584,0,-0.176456,-3.67944,76.1861,Q,Q
2023-03-14 17:17:40:594,0,-0.183542,-3.67898,76.165,Q,Q
2023-03-14 17:17:40:604,0,-0.190034,-3.67948,76.1458,Q,Q
2023-03-14 17:17:40:614,0,-0.197678,-3.6743,76.1344,Q,Q
2023-03-14 17:17:40:623,0,-0.206052,-3.66928,76.1237,Q,Q
2023-03-14 17:17:40:633,0,-0.212729,-3.66249,76.1183,Q,Q
2023-03-14 17:17:40:644,0,-0.2206,-3.65337,76.1123,Q,Q
2023-03-14 17:17:40:654,0,-0.225663,-3.6465,76.107,Q,Q
2023-03-14 17:17:40:663,0,-0.231584,-3.64225,76.1074,Q,Q
2023-03-14 17:17:40:674,0,-0.234685,-3.6412,76.1057,Q,Q
2023-03-14 17:17:40:684,0,-0.237627,-3.63854,76.1055,Q,Q
2023-03-14 17:17:40:694,0,-0.231412,-3.63855,76.1031,Q,Q
2023-03-14 17:17:40:704,0,-0.226129,-3.63922,76.098,Q,Q
2023-03-14 17:17:40:714,0,-0.218132,-3.63527,76.0948,Q,Q
2023-03-14 17:17:40:724,0,-0.206754,-3.63422,76.0873,Q,Q
2023-03-14 17:17:40:734,0,-0.195614,-3.62886,76.0783,Q,Q
2023-03-14 17:17:40:744,0,-0.180425,-3.62627,76.0705,Q,Q
2023-03-14 17:17:40:754,0,-0.17308,-3.62134,76.0631,Q,Q
2023-03-14 17:17:40:764,0,-0.165809,-3.62268,76.0548,Q,Q
2023-03-14 17:17:40:774,0,-0.153172,-3.6216,76.0463,Q,Q
2023-03-14 17:17:40:784,0,-0.143346,-3.61859,76.0338,Q,Q
2023-03-14 17:17:40:793,0,-0.129223,-3.61802,76.0224,Q,Q
2023-03-14 17:17:40:804,0,-0.1142,-3.61589,76.013,Q,Q
2023-03-14 17:17:40:813,0,-0.0982517,-3.61447,75.9977,Q,Q
2023-03-14 17:17:40:823,0,-0.0833008,-3.60598,75.9819,Q,Q
2023-03-14 17:17:40:834,0,-0.0671915,-3.59468,75.9656,Q,Q
2023-03-14 17:17:40:844,0,-0.0506548,-3.58256,75.9478,Q,Q
2023-03-14 17:17:40:854,0,-0.0344139,-3.57222,75.928,Q,Q
2023-03-14 17:17:40:864,0,-0.0199906,-3.55881,75.9053,Q,Q
2023-03-14 17:17:40:874,0,-0.00696058,-3.54407,75.8805,Q,Q
2023-03-14 17:17:40:884,0,0.000710714,-3.52914,75.8541,Q,Q
2023-03-14 17:17:40:894,0,0.00366785,-3.51531,75.8231,Q,Q
2023-03-14 17:17:40:904,0,-0.00277621,-3.5015,75.7967,Q,Q
2023-03-14 17:17:40:913,0,-0.0109006,-3.48671,75.7705,Q,Q
2023-03-14 17:17:40:923,0,-0.0200959,-3.46905,75.7392,Q,Q
2023-03-14 17:17:40:933,0,-0.0247356,-3.45321,75.7107,Q,Q
2023-03-14 17:17:40:944,0,-0.027327,-3.44249,75.6861,Q,Q
2023-03-14 17:17:40:953,0,-0.0321978,-3.43705,75.6661,Q,Q
2023-03-14 17:17:40:964,0,-0.04208,-3.42957,75.6477,Q,Q
2023-03-14 17:17:40:973,0,-0.0539566,-3.42394,75.6302,Q,Q
2023-03-14 17:17:40:983,0,-0.0719546,-3.41623,75.6152,Q,Q
2023-03-14 17:17:40:993,0,-0.0880718,-3.40534,75.6051,Q,Q
2023-03-14 17:17:41:4,0,-0.106891,-3.39548,75.598,Q,Q
2023-03-14 17:17:41:14,0,-0.126539,-3.38731,75.594,Q,Q
2023-03-14 17:17:41:24,0,-0.147975,-3.37861,75.5893,Q,Q
2023-03-14 17:17:41:34,0,-0.167415,-3.3689,75.5896,Q,Q
2023-03-14 17:17:41:43,0,-0.181266,-3.36359,75.5921,Q,Q
2023-03-14 17:17:41:54,0,-0.1963,-3.35867,75.5949,Q,Q
2023-03-14 17:17:41:63,0,-0.206781,-3.35624,75.6007,Q,Q
2023-03-14 17:17:41:74,0,-0.217303,-3.35045,75.6049,Q,Q
2023-03-14 17:17:41:84,0,-0.224412,-3.34593,75.6069,Q,Q
2023-03-14 17:17:41:94,0,-0.230397,-3.34418,75.6056,Q,Q
2023-03-14 17:17:41:104,0,-0.236097,-3.3446,75.605,Q,Q
2023-03-14 17:17:41:113,0,-0.240794,-3.34333,75.6024,Q,Q
2023-03-14 17:17:41:124,0,-0.249652,-3.34472,75.597,Q,Q
2023-03-14 17:17:41:134,0,-0.258643,-3.34932,75.5887,Q,Q
2023-03-14 17:17:41:144,0,-0.267457,-3.3543,75.5778,Q,Q
2023-03-14 17:17:41:154,0,-0.273576,-3.35893,75.5691,Q,Q
2023-03-14 17:17:41:164,0,-0.28071,-3.36657,75.5592,Q,Q
2023-03-14 17:17:41:173,0,-0.289497,-3.36742,75.5475,Q,Q
2023-03-14 17:17:41:184,0,-0.29416,-3.36595,75.5342,Q,Q
2023-03-14 17:17:41:194,0,-0.288693,-3.36434,75.5211,Q,Q
2023-03-14 17:17:41:204,0,-0.282051,-3.36395,75.5078,Q,Q
2023-03-14 17:17:41:213,0,-0.271062,-3.36731,75.4953,Q,Q
2023-03-14 17:17:41:224,0,-0.266318,-3.37006,75.4836,Q,Q
2023-03-14 17:17:41:234,0,-0.261768,-3.36871,75.4718,Q,Q
2023-03-14 17:17:41:244,0,-0.25909,-3.36852,75.4586,Q,Q
2023-03-14 17:17:41:254,0,-0.258745,-3.36714,75.4451,Q,Q
2023-03-14 17:17:41:264,0,-0.256217,-3.36307,75.4315,Q,Q
2023-03-14 17:17:41:274,0,-0.25251,-3.35597,75.4134,Q,Q
2023-03-14 17:17:41:283,0,-0.248181,-3.3528,75.3956,Q,Q
2023-03-14 17:17:41:294,0,-0.24502,-3.35243,75.3779,Q,Q
2023-03-14 17:17:41:304,0,-0.243701,-3.34853,75.3582,Q,Q
2023-03-14 17:17:41:314,0,-0.241727,-3.34505,75.3369,Q,Q
2023-03-14 17:17:41:323,0,-0.23716,-3.34041,75.3139,Q,Q
2023-03-14 17:17:41:333,0,-0.232394,-3.33841,75.2922,Q,Q
2023-03-14 17:17:41:344,0,-0.232898,-3.3384,75.272,Q,Q
2023-03-14 17:17:41:354,0,-0.236859,-3.33607,75.2502,Q,Q
2023-03-14 17:17:41:364,0,-0.245881,-3.33218,75.2293,Q,Q
2023-03-14 17:17:41:374,0,-0.253837,-3.32751,75.2089,Q,Q
2023-03-14 17:17:41:383,0,-0.264034,-3.32432,75.1885,Q,Q
2023-03-14 17:17:41:393,0,-0.273267,-3.3246,75.1701,Q,Q
2023-03-14 17:17:41:404,0,-0.283179,-3.32464,75.1506,Q,Q
2023-03-14 17:17:41:414,0,-0.296951,-3.32797,75.134,Q,Q
2023-03-14 17:17:41:423,0,-0.305156,-3.3302,75.1175,Q,Q
2023-03-14 17:17:41:434,0,-0.314458,-3.33382,75.1037,Q,Q
2023-03-14 17:17:41:444,0,-0.323979,-3.33384,75.0867,Q,Q
2023-03-14 17:17:41:453,0,-0.33313,-3.33043,75.0697,Q,Q
2023-03-14 17:17:41:464,0,-0.335782,-3.33059,75.0463,Q,Q
2023-03-14 17:17:41:473,0,-0.339805,-3.33182,75.0242,Q,Q
2023-03-14 17:17:41:484,0,-0.342436,-3.33012,75.0031,Q,Q
2023-03-14 17:17:41:494,0,-0.344534,-3.33197,74.9774,Q,Q
2023-03-14 17:17:41:504,0,-0.342521,-3.33518,74.9457,Q,Q
2023-03-14 17:17:41:514,0,-0.341789,-3.34111,74.9062,Q,Q
2023-03-14 17:17:41:524,0,-0.339939,-3.3481,74.8654,Q,Q
2023-03-14 17:17:41:534,0,-0.337241,-3.36381,74.8139,Q,Q
2023-03-14 17:17:41:544,0,-0.333886,-3.37901,74.7544,Q,Q
2023-03-14 17:17:41:554,0,-0.329016,-3.39179,74.6901,Q,Q
2023-03-14 17:17:41:564,0,-0.328205,-3.40637,74.6177,Q,Q
2023-03-14 17:17:41:574,0,-0.326223,-3.42464,74.5397,Q,Q
2023-03-14 17:17:41:584,0,-0.322899,-3.45029,74.4518,Q,Q
2023-03-14 17:17:41:594,0,-0.320118,-3.47423,74.3556,Q,Q
2023-03-14 17:17:41:604,0,-0.318866,-3.49322,74.2514,Q,Q
2023-03-14 17:17:41:614,0,-0.313262,-3.51586,74.1413,Q,Q
2023-03-14 17:17:41:624,0,-0.308411,-3.53889,74.0249,Q,Q
2023-03-14 17:17:41:634,0,-0.299637,-3.56308,73.9024,Q,Q
2023-03-14 17:17:41:644,0,-0.298043,-3.59112,73.7791,Q,Q
2023-03-14 17:17:41:654,0,-0.292333,-3.62154,73.6525,Q,Q
2023-03-14 17:17:41:664,0,-0.281187,-3.6529,73.5228,Q,Q
2023-03-14 17:17:41:674,0,-0.26724,-3.68709,73.3897,Q,Q
2023-03-14 17:17:41:684,0,-0.251246,-3.72396,73.2558,Q,Q
2023-03-14 17:17:41:694,0,-0.237511,-3.75688,73.1248,Q,Q
2023-03-14 17:17:41:704,0,-0.223723,-3.79921,72.9919,Q,Q
2023-03-14 17:17:41:714,0,-0.206958,-3.84192,72.857,Q,Q
2023-03-14 17:17:41:724,0,-0.192161,-3.88747,72.7212,Q,Q
2023-03-14 17:17:41:734,0,-0.180626,-3.93842,72.5906,Q,Q
2023-03-14 17:17:41:744,0,-0.166103,-3.99281,72.4591,Q,Q
2023-03-14 17:17:41:753,0,-0.151146,-4.04549,72.3248,Q,Q
2023-03-14 17:17:41:764,0,-0.137426,-4.09852,72.1952,Q,Q
2023-03-14 17:17:41:774,0,-0.124564,-4.15135,72.0664,Q,Q
2023-03-14 17:17:41:784,0,-0.116386,-4.20081,71.9425,Q,Q
2023-03-14 17:17:41:794,0,-0.108283,-4.25033,71.8239,Q,Q
2023-03-14 17:17:41:803,0,-0.104166,-4.29756,71.7061,Q,Q
2023-03-14 17:17:41:814,0,-0.0984884,-4.34461,71.5918,Q,Q
2023-03-14 17:17:41:824,0,-0.0879895,-4.39122,71.4794,Q,Q
2023-03-14 17:17:41:834,0,-0.0813428,-4.44137,71.3742,Q,Q
2023-03-14 17:17:41:843,0,-0.0771323,-4.49408,71.2715,Q,Q
2023-03-14 17:17:41:854,0,-0.0835602,-4.54548,71.1805,Q,Q
2023-03-14 17:17:41:864,0,-0.095285,-4.59674,71.0945,Q,Q
2023-03-14 17:17:41:874,0,-0.106359,-4.64703,71.0184,Q,Q
2023-03-14 17:17:41:884,0,-0.119265,-4.69588,70.9501,Q,Q
2023-03-14 17:17:41:894,0,-0.131685,-4.73865,70.8871,Q,Q
2023-03-14 17:17:41:904,0,-0.147306,-4.77984,70.8263,Q,Q
2023-03-14 17:17:41:914,0,-0.155373,-4.8185,70.7658,Q,Q
2023-03-14 17:17:41:924,0,-0.164819,-4.84748,70.7134,Q,Q
2023-03-14 17:17:41:934,0,-0.171616,-4.87299,70.6637,Q,Q
2023-03-14 17:17:41:944,0,-0.177879,-4.89423,70.6166,Q,Q
2023-03-14 17:17:41:954,0,-0.184497,-4.91354,70.5744,Q,Q
2023-03-14 17:17:41:964,0,-0.194407,-4.9333,70.5402,Q,Q
2023-03-14 17:17:41:974,0,-0.202546,-4.95335,70.5116,Q,Q
2023-03-14 17:17:41:984,0,-0.205073,-4.97065,70.4858,Q,Q
2023-03-14 17:17:41:993,0,-0.211305,-4.98599,70.4642,Q,Q
2023-03-14 17:17:42:4,0,-0.209903,-5.00103,70.4396,Q,Q
2023-03-14 17:17:42:14,0,-0.202626,-5.01964,70.4179,Q,Q
2023-03-14 17:17:42:24,0,-0.188713,-5.04336,70.3928,Q,Q
2023-03-14 17:17:42:34,0,-0.174835,-5.06996,70.3619,Q,Q
2023-03-14 17:17:42:44,0,-0.156595,-5.10184,70.3269,Q,Q
2023-03-14 17:17:42:54,0,-0.13653,-5.14339,70.2864,Q,Q
2023-03-14 17:17:42:64,0,-0.111469,-5.19177,70.2389,Q,Q
2023-03-14 17:17:42:74,0,-0.086032,-5.24992,70.1831,Q,Q
2023-03-14 17:17:42:84,0,-0.0629667,-5.3152,70.1305,Q,Q
2023-03-14 17:17:42:94,0,-0.0494751,-5.38589,70.0722,Q,Q
2023-03-14 17:17:42:104,0,-0.0400322,-5.45606,70.0163,Q,Q
2023-03-14 17:17:42:114,0,-0.0324223,-5.5214,69.9576,Q,Q
2023-03-14 17:17:42:124,0,-0.0283784,-5.58346,69.8991,Q,Q
2023-03-14 17:17:42:134,0,-0.0282848,-5.64946,69.8423,Q,Q
2023-03-14 17:17:42:144,0,-0.0230223,-5.7115,69.7874,Q,Q
2023-03-14 17:17:42:154,0,-0.0160106,-5.76854,69.7332,Q,Q
2023-03-14 17:17:42:164,0,-0.0073641,-5.8161,69.6815,Q,Q
2023-03-14 17:17:42:174,0,0.00290403,-5.8574,69.6307,Q,Q
2023-03-14 17:17:42:184,0,0.0131878,-5.89567,69.5853,Q,Q
2023-03-14 17:17:42:193,0,0.0227986,-5.93579,69.5436,Q,Q
2023-03-14 17:17:42:204,0,0.0329823,-5.97452,69.5074,Q,Q
2023-03-14 17:17:42:214,0,0.0470675,-6.01223,69.4818,Q,Q
2023-03-14 17:17:42:224,0,0.0570968,-6.04696,69.4639,Q,Q
2023-03-14 17:17:42:234,0,0.0663227,-6.08029,69.4498,Q,Q
2023-03-14 17:17:42:244,0,0.0736292,-6.10566,69.4452,Q,Q
2023-03-14 17:17:42:254,0,0.0784981,-6.12979,69.4503,Q,Q
2023-03-14 17:17:42:264,0,0.0823914,-6.15308,69.4573,Q,Q
2023-03-14 17:17:42:274,0,0.0899776,-6.17379,69.4676,Q,Q
2023-03-14 17:17:42:284,0,0.0962937,-6.18819,69.4864,Q,Q
2023-03-14 17:17:42:294,0,0.104235,-6.19976,69.5059,Q,Q
2023-03-14 17:17:42:303,0,0.106297,-6.20759,69.529,Q,Q
2023-03-14 17:17:42:314,0,0.106434,-6.20689,69.5549,Q,Q
2023-03-14 17:17:42:324,0,0.104441,-6.2047,69.5858,Q,Q
2023-03-14 17:17:42:334,0,0.102769,-6.20361,69.6142,Q,Q
2023-03-14 17:17:42:343,0,0.102407,-6.20041,69.643,Q,Q
2023-03-14 17:17:42:353,0,0.0987182,-6.19264,69.6703,Q,Q
2023-03-14 17:17:42:364,0,0.0909134,-6.18513,69.6968,Q,Q
2023-03-14 17:17:42:374,0,0.0826363,-6.17323,69.7169,Q,Q
2023-03-14 17:17:42:384,0,0.0722911,-6.16166,69.7358,Q,Q
2023-03-14 17:17:42:394,0,0.0604336,-6.14868,69.7512,Q,Q
2023-03-14 17:17:42:404,0,0.0484727,-6.13378,69.7662,Q,Q
2023-03-14 17:17:42:413,0,0.0366204,-6.11507,69.7811,Q,Q
2023-03-14 17:17:42:423,0,0.0221936,-6.09473,69.7926,Q,Q
2023-03-14 17:17:42:433,0,0.00923085,-6.0767,69.8025,Q,Q
2023-03-14 17:17:42:443,0,-0.00281303,-6.05818,69.8088,Q,Q
2023-03-14 17:17:42:454,0,-0.0131563,-6.03836,69.8152,Q,Q
2023-03-14 17:17:42:464,0,-0.0210781,-6.0196,69.8213,Q,Q
2023-03-14 17:17:42:473,0,-0.026552,-5.99989,69.8265,Q,Q
2023-03-14 17:17:42:484,0,-0.0336304,-5.98413,69.8327,Q,Q
2023-03-14 17:17:42:494,0,-0.0406544,-5.96772,69.8401,Q,Q
2023-03-14 17:17:42:503,0,-0.0462433,-5.95337,69.8459,Q,Q
2023-03-14 17:17:42:514,0,-0.0556516,-5.93842,69.8598,Q,Q
2023-03-14 17:17:42:524,0,-0.0623974,-5.92545,69.8705,Q,Q
2023-03-14 17:17:42:533,0,-0.07234,-5.91743,69.8859,Q,Q
2023-03-14 17:17:42:544,0,-0.0804017,-5.90397,69.9021,Q,Q
2023-03-14 17:17:42:554,0,-0.0896963,-5.89093,69.916,Q,Q
2023-03-14 17:17:42:564,0,-0.0933804,-5.88401,69.9275,Q,Q
2023-03-14 17:17:42:574,0,-0.0958683,-5.87119,69.9417,Q,Q
2023-03-14 17:17:42:584,0,-0.0974715,-5.86177,69.9552,Q,Q
2023-03-14 17:17:42:593,0,-0.101068,-5.85581,69.9709,Q,Q
2023-03-14 17:17:42:604,0,-0.100274,-5.84706,69.9867,Q,Q
2023-03-14 17:17:42:614,0,-0.0971444,-5.8381,69.9985,Q,Q
2023-03-14 17:17:42:624,0,-0.0957273,-5.8302,70.0099,Q,Q
2023-03-14 17:17:42:634,0,-0.0957677,-5.82507,70.0227,Q,Q
2023-03-14 17:17:42:644,0,-0.100787,-5.81974,70.0358,Q,Q
2023-03-14 17:17:42:653,0,-0.101896,-5.81484,70.044,Q,Q
2023-03-14 17:17:42:664,0,-0.102914,-5.80844,70.0507,Q,Q
2023-03-14 17:17:42:674,0,-0.103445,-5.80083,70.0556,Q,Q
2023-03-14 17:17:42:684,0,-0.103731,-5.79098,70.056,Q,Q
2023-03-14 17:17:42:694,0,-0.0986841,-5.78424,70.0561,Q,Q
2023-03-14 17:17:42:704,0,-0.0957885,-5.78157,70.058,Q,Q
2023-03-14 17:17:42:714,0,-0.0972903,-5.77917,70.0642,Q,Q
2023-03-14 17:17:42:724,0,-0.105617,-5.77763,70.0695,Q,Q
2023-03-14 17:17:42:733,0,-0.116389,-5.78,70.073,Q,Q
2023-03-14 17:17:42:744,0,-0.125451,-5.78116,70.0777,Q,Q
2023-03-14 17:17:42:754,0,-0.131632,-5.77984,70.0837,Q,Q
2023-03-14 17:17:42:764,0,-0.14132,-5.77563,70.0891,Q,Q
2023-03-14 17:17:42:773,0,-0.150984,-5.77238,70.0967,Q,Q
2023-03-14 17:17:42:784,0,-0.15822,-5.77061,70.1037,Q,Q
2023-03-14 17:17:42:794,0,-0.167135,-5.76572,70.1089,Q,Q
2023-03-14 17:17:42:804,0,-0.176213,-5.76441,70.1154,Q,Q
2023-03-14 17:17:42:814,0,-0.184618,-5.75737,70.1181,Q,Q
2023-03-14 17:17:42:824,0,-0.196024,-5.75179,70.1244,Q,Q
2023-03-14 17:17:42:834,0,-0.208063,-5.74571,70.1297,Q,Q
2023-03-14 17:17:42:844,0,-0.219039,-5.73993,70.138,Q,Q
2023-03-14 17:17:42:853,0,-0.229379,-5.73063,70.1408,Q,Q
2023-03-14 17:17:42:864,0,-0.237448,-5.71854,70.1428,Q,Q
2023-03-14 17:17:42:874,0,-0.245783,-5.70631,70.1444,Q,Q
2023-03-14 17:17:42:884,0,-0.250559,-5.69383,70.1469,Q,Q
2023-03-14 17:17:42:893,0,-0.25137,-5.68253,70.1486,Q,Q
2023-03-14 17:17:42:904,0,-0.250531,-5.67525,70.1549,Q,Q
2023-03-14 17:17:42:914,0,-0.246223,-5.66599,70.1633,Q,Q
2023-03-14 17:17:42:924,0,-0.242128,-5.65766,70.1699,Q,Q
2023-03-14 17:17:42:934,0,-0.239375,-5.64641,70.1769,Q,Q
2023-03-14 17:17:42:944,0,-0.232477,-5.63179,70.1801,Q,Q
2023-03-14 17:17:42:954,0,-0.223104,-5.6192,70.1816,Q,Q
2023-03-14 17:17:42:964,0,-0.213624,-5.60705,70.1854,Q,Q
2023-03-14 17:17:42:974,0,-0.199641,-5.59665,70.1918,Q,Q
2023-03-14 17:17:42:984,0,-0.185809,-5.58929,70.2003,Q,Q
2023-03-14 17:17:42:993,0,-0.168572,-5.57647,70.2127,Q,Q
2023-03-14 17:17:43:4,0,-0.148159,-5.56335,70.2348,Q,Q
2023-03-14 17:17:43:14,0,-0.132185,-5.54832,70.2637,Q,Q
2023-03-14 17:17:43:23,0,-0.110778,-5.52684,70.3023,Q,Q
2023-03-14 17:17:43:33,0,-0.0858551,-5.50693,70.3512,Q,Q
2023-03-14 17:17:43:43,0,-0.0557946,-5.48421,70.4048,Q,Q
2023-03-14 17:17:43:54,0,-0.0232846,-5.46313,70.4597,Q,Q
2023-03-14 17:17:43:64,0,0.00913455,-5.44289,70.5185,Q,Q
2023-03-14 17:17:43:73,0,0.0369016,-5.4243,70.5762,Q,Q
2023-03-14 17:17:43:84,0,0.0647633,-5.40152,70.6288,Q,Q
2023-03-14 17:17:43:94,0,0.0868689,-5.38252,70.6788,Q,Q
2023-03-14 17:17:43:104,0,0.112023,-5.36111,70.7212,Q,Q
2023-03-14 17:17:43:114,0,0.132509,-5.34262,70.7572,Q,Q
2023-03-14 17:17:43:124,0,0.149081,-5.3243,70.7894,Q,Q
2023-03-14 17:17:43:133,0,0.161286,-5.31405,70.8114,Q,Q
2023-03-14 17:17:43:144,0,0.165562,-5.30077,70.8295,Q,Q
2023-03-14 17:17:43:154,0,0.166024,-5.29222,70.8429,Q,Q
2023-03-14 17:17:43:164,0,0.165662,-5.28439,70.8469,Q,Q
2023-03-14 17:17:43:174,0,0.161774,-5.28135,70.8459,Q,Q
2023-03-14 17:17:43:184,0,0.154642,-5.27652,70.8436,Q,Q
2023-03-14 17:17:43:193,0,0.145209,-5.27291,70.8357,Q,Q
2023-03-14 17:17:43:204,0,0.134071,-5.27137,70.8262,Q,Q
2023-03-14 17:17:43:214,0,0.129604,-5.26917,70.8152,Q,Q
2023-03-14 17:17:43:224,0,0.120856,-5.25855,70.8056,Q,Q
2023-03-14 17:17:43:234,0,0.108791,-5.25674,70.7971,Q,Q
2023-03-14 17:17:43:243,0,0.0969225,-5.2513,70.788,Q,Q
2023-03-14 17:17:43:253,0,0.0831547,-5.24624,70.7836,Q,Q
2023-03-14 17:17:43:263,0,0.070241,-5.23968,70.7813,Q,Q
2023-03-14 17:17:43:273,0,0.0597701,-5.2329,70.7836,Q,Q
2023-03-14 17:17:43:283,0,0.0515287,-5.22481,70.79,Q,Q
2023-03-14 17:17:43:294,0,0.0479849,-5.21713,70.8061,Q,Q
2023-03-14 17:17:43:304,0,0.047604,-5.20576,70.8285,Q,Q
2023-03-14 17:17:43:313,0,0.0492811,-5.19245,70.8609,Q,Q
2023-03-14 17:17:43:324,0,0.0485132,-5.17393,70.9033,Q,Q
2023-03-14 17:17:43:334,0,0.047293,-5.15628,70.9509,Q,Q
2023-03-14 17:17:43:344,0,0.0518489,-5.13896,71.0039,Q,Q
2023-03-14 17:17:43:354,0,0.0542844,-5.11958,71.0668,Q,Q
2023-03-14 17:17:43:364,0,0.0631358,-5.10293,71.1314,Q,Q
2023-03-14 17:17:43:374,0,0.0689145,-5.08345,71.1974,Q,Q
2023-03-14 17:17:43:383,0,0.0710882,-5.0702,71.2612,Q,Q
2023-03-14 17:17:43:394,0,0.0724705,-5.05768,71.3216,Q,Q
2023-03-14 17:17:43:404,0,0.0710435,-5.05071,71.379,Q,Q
2023-03-14 17:17:43:414,0,0.0694784,-5.04533,71.4302,Q,Q
2023-03-14 17:17:43:424,0,0.0667153,-5.04215,71.4757,Q,Q
2023-03-14 17:17:43:434,0,0.0625165,-5.03912,71.5079,Q,Q
2023-03-14 17:17:43:444,0,0.0557144,-5.0368,71.5389,Q,Q
2023-03-14 17:17:43:454,0,0.0545061,-5.0333,71.5547,Q,Q
2023-03-14 17:17:43:464,0,0.0533661,-5.03228,71.5664,Q,Q
2023-03-14 17:17:43:473,0,0.0556785,-5.03421,71.5729,Q,Q
2023-03-14 17:17:43:483,0,0.0585963,-5.03694,71.5738,Q,Q
2023-03-14 17:17:43:493,0,0.0606938,-5.03675,71.5696,Q,Q
2023-03-14 17:17:43:503,0,0.0642928,-5.03872,71.5691,Q,Q
2023-03-14 17:17:43:513,0,0.0715048,-5.04066,71.5618,Q,Q
2023-03-14 17:17:43:523,0,0.0750105,-5.0411,71.5621,Q,Q
2023-03-14 17:17:43:533,0,0.0809008,-5.04116,71.5591,Q,Q
2023-03-14 17:17:43:544,0,0.0834128,-5.03602,71.5582,Q,Q
2023-03-14 17:17:43:553,0,0.0811568,-5.03571,71.556,Q,Q
2023-03-14 17:17:43:564,0,0.0816418,-5.03215,71.5599,Q,Q
2023-03-14 17:17:43:574,0,0.0892341,-5.0328,71.5674,Q,Q
2023-03-14 17:17:43:584,0,0.0973061,-5.03524,71.577,Q,Q
2023-03-14 17:17:43:594,0,0.0998648,-5.03947,71.5946,Q,Q
2023-03-14 17:17:43:604,0,0.105426,-5.04287,71.6159,Q,Q
2023-03-14 17:17:43:613,0,0.101029,-5.04448,71.6365,Q,Q
2023-03-14 17:17:43:624,0,0.0954044,-5.04679,71.6605,Q,Q
2023-03-14 17:17:43:634,0,0.0897922,-5.04655,71.6852,Q,Q
2023-03-14 17:17:43:644,0,0.0837632,-5.04865,71.7072,Q,Q
2023-03-14 17:17:43:654,0,0.0801111,-5.04673,71.7276,Q,Q
2023-03-14 17:17:43:664,0,0.073744,-5.04536,71.7448,Q,Q
2023-03-14 17:17:43:674,0,0.0710138,-5.03759,71.7582,Q,Q
2023-03-14 17:17:43:683,0,0.0657289,-5.03072,71.7739,Q,Q
2023-03-14 17:17:43:693,0,0.0668233,-5.01806,71.7898,Q,Q
2023-03-14 17:17:43:704,0,0.0737156,-5.00577,71.8091,Q,Q
2023-03-14 17:17:43:714,0,0.089738,-4.99025,71.834,Q,Q
2023-03-14 17:17:43:724,0,0.113729,-4.97131,71.8629,Q,Q
2023-03-14 17:17:43:734,0,0.14335,-4.95466,71.9011,Q,Q
2023-03-14 17:17:43:744,0,0.174218,-4.93744,71.9425,Q,Q
2023-03-14 17:17:43:754,0,0.208252,-4.91724,71.9912,Q,Q
2023-03-14 17:17:43:764,0,0.245296,-4.89712,72.0496,Q,Q
2023-03-14 17:17:43:774,0,0.286513,-4.87586,72.1151,Q,Q
2023-03-14 17:17:43:784,0,0.325652,-4.85344,72.185,Q,Q
2023-03-14 17:17:43:794,0,0.375158,-4.83146,72.2636,Q,Q
2023-03-14 17:17:43:804,0,0.429271,-4.80997,72.3504,Q,Q
2023-03-14 17:17:43:813,0,0.493926,-4.78193,72.4468,Q,Q
2023-03-14 17:17:43:824,0,0.56482,-4.75311,72.5515,Q,Q
2023-03-14 17:17:43:834,0,0.643155,-4.72401,72.6678,Q,Q
2023-03-14 17:17:43:844,0,0.722368,-4.69477,72.7911,Q,Q
2023-03-14 17:17:43:854,0,0.797478,-4.66554,72.9267,Q,Q
2023-03-14 17:17:43:863,0,0.872431,-4.63883,73.0686,Q,Q
2023-03-14 17:17:43:873,0,0.949145,-4.61742,73.217,Q,Q
2023-03-14 17:17:43:884,0,1.02672,-4.59675,73.3705,Q,Q
2023-03-14 17:17:43:894,0,1.0994,-4.57636,73.5343,Q,Q
2023-03-14 17:17:43:904,0,1.17322,-4.55922,73.6941,Q,Q
2023-03-14 17:17:43:914,0,1.23903,-4.54279,73.8546,Q,Q
2023-03-14 17:17:43:924,0,1.30035,-4.5255,74.0101,Q,Q
2023-03-14 17:17:43:934,0,1.364,-4.51458,74.1582,Q,Q
2023-03-14 17:17:43:944,0,1.42579,-4.50549,74.3057,Q,Q
2023-03-14 17:17:43:954,0,1.4831,-4.49656,74.4436,Q,Q
2023-03-14 17:17:43:964,0,1.53671,-4.49235,74.574,Q,Q
2023-03-14 17:17:43:974,0,1.58667,-4.49034,74.6931,Q,Q
2023-03-14 17:17:43:984,0,1.63237,-4.48712,74.806,Q,Q
2023-03-14 17:17:43:994,0,1.67288,-4.49017,74.91,Q,Q
2023-03-14 17:17:44:4,0,1.71037,-4.49862,75.0001,Q,Q
2023-03-14 17:17:44:14,0,1.741,-4.51069,75.0777,Q,Q
2023-03-14 17:17:44:24,0,1.76866,-4.52534,75.1445,Q,Q
2023-03-14 17:17:44:34,0,1.79494,-4.53899,75.2021,Q,Q
2023-03-14 17:17:44:43,0,1.81909,-4.55341,75.2435,Q,Q
2023-03-14 17:17:44:53,0,1.84291,-4.56926,75.2747,Q,Q
2023-03-14 17:17:44:64,0,1.87034,-4.58996,75.2994,Q,Q
2023-03-14 17:17:44:74,0,1.90197,-4.60862,75.3159,Q,Q
2023-03-14 17:17:44:84,0,1.93152,-4.63008,75.323,Q,Q
2023-03-14 17:17:44:94,0,1.95346,-4.64613,75.3229,Q,Q
2023-03-14 17:17:44:103,0,1.9738,-4.65961,75.3211,Q,Q
2023-03-14 17:17:44:113,0,1.99266,-4.6727,75.3166,Q,Q
2023-03-14 17:17:44:123,0,2.01043,-4.68091,75.3092,Q,Q
2023-03-14 17:17:44:133,0,2.02331,-4.68549,75.304,Q,Q
2023-03-14 17:17:44:143,0,2.03668,-4.68828,75.2921,Q,Q
2023-03-14 17:17:44:153,0,2.05115,-4.69013,75.2792,Q,Q
2023-03-14 17:17:44:163,0,2.06854,-4.68832,75.2696,Q,Q
2023-03-14 17:17:44:173,0,2.087,-4.6839,75.26,Q,Q
2023-03-14 17:17:44:183,0,2.10255,-4.68161,75.249,Q,Q
2023-03-14 17:17:44:193,0,2.1175,-4.67792,75.2417,Q,Q
2023-03-14 17:17:44:203,0,2.13531,-4.6721,75.2326,Q,Q
2023-03-14 17:17:44:213,0,2.15448,-4.66828,75.2299,Q,Q
2023-03-14 17:17:44:223,0,2.17961,-4.66295,75.2253,Q,Q
2023-03-14 17:17:44:233,0,2.20575,-4.6552,75.2239,Q,Q
2023-03-14 17:17:44:243,0,2.22639,-4.64033,75.2273,Q,Q
2023-03-14 17:17:44:253,0,2.24798,-4.62671,75.2369,Q,Q
2023-03-14 17:17:44:264,0,2.26736,-4.59951,75.2578,Q,Q
2023-03-14 17:17:44:274,0,2.29407,-4.56541,75.2901,Q,Q
2023-03-14 17:17:44:283,0,2.32446,-4.5294,75.3242,Q,Q
2023-03-14 17:17:44:293,0,2.35977,-4.50262,75.3637,Q,Q
2023-03-14 17:17:44:304,0,2.39443,-4.48564,75.4097,Q,Q
2023-03-14 17:17:44:314,0,2.43106,-4.47749,75.4591,Q,Q
2023-03-14 17:17:44:324,0,2.46229,-4.48184,75.5171,Q,Q
2023-03-14 17:17:44:334,0,2.49365,-4.48661,75.5757,Q,Q
2023-03-14 17:17:44:344,0,2.52537,-4.493,75.639,Q,Q
2023-03-14 17:17:44:354,0,2.56656,-4.49443,75.7056,Q,Q
2023-03-14 17:17:44:364,0,2.62134,-4.48922,75.776,Q,Q
2023-03-14 17:17:44:373,0,2.69278,-4.47206,75.8508,Q,Q
2023-03-14 17:17:44:384,0,2.77152,-4.45378,75.9273,Q,Q
2023-03-14 17:17:44:393,0,2.84353,-4.43648,76.0044,Q,Q
2023-03-14 17:17:44:403,0,2.9088,-4.42244,76.0799,Q,Q
2023-03-14 17:17:44:414,0,2.96984,-4.40686,76.1558,Q,Q
2023-03-14 17:17:44:423,0,3.02785,-4.4036,76.2337,Q,Q
2023-03-14 17:17:44:434,0,3.08659,-4.39951,76.3143,Q,Q
2023-03-14 17:17:44:444,0,3.14469,-4.39405,76.4016,Q,Q
2023-03-14 17:17:44:454,0,3.2045,-4.38545,76.4884,Q,Q
2023-03-14 17:17:44:464,0,3.25965,-4.37154,76.5744,Q,Q
2023-03-14 17:17:44:474,0,3.31312,-4.3432,76.6599,Q,Q
2023-03-14 17:17:44:484,0,3.3732,-4.30564,76.7441,Q,Q
2023-03-14 17:17:44:494,0,3.43463,-4.27406,76.8309,Q,Q
2023-03-14 17:17:44:504,0,3.49313,-4.249,76.9192,Q,Q
2023-03-14 17:17:44:513,0,3.54622,-4.23142,77.0098,Q,Q
2023-03-14 17:17:44:524,0,3.59775,-4.22175,77.1032,Q,Q
2023-03-14 17:17:44:534,0,3.64015,-4.21679,77.1959,Q,Q
2023-03-14 17:17:44:544,0,3.67546,-4.21002,77.2891,Q,Q
2023-03-14 17:17:44:554,0,3.70754,-4.19952,77.3847,Q,Q
2023-03-14 17:17:44:563,0,3.73556,-4.18337,77.4759,Q,Q
2023-03-14 17:17:44:573,0,3.76567,-4.16593,77.5611,Q,Q
2023-03-14 17:17:44:584,0,3.78962,-4.14613,77.6387,Q,Q
2023-03-14 17:17:44:593,0,3.81867,-4.11372,77.7152,Q,Q
2023-03-14 17:17:44:604,0,3.86138,-4.07683,77.7797,Q,Q
2023-03-14 17:17:44:614,0,3.90687,-4.04296,77.8365,Q,Q
2023-03-14 17:17:44:623,0,3.94407,-4.01294,77.8888,Q,Q
2023-03-14 17:17:44:633,0,3.9751,-3.99165,77.9349,Q,Q
2023-03-14 17:17:44:644,0,3.99448,-3.9718,77.9721,Q,Q
2023-03-14 17:17:44:654,0,4.0099,-3.95221,78.0038,Q,Q
2023-03-14 17:17:44:664,0,4.02416,-3.92878,78.0273,Q,Q
2023-03-14 17:17:44:674,0,4.03688,-3.90184,78.0408,Q,Q
2023-03-14 17:17:44:684,0,4.05145,-3.87337,78.048,Q,Q
2023-03-14 17:17:44:693,0,4.06955,-3.84756,78.0445,Q,Q
