Timestamp_cmd,imu_cmd,roll_delta,pitch_delta,yaw_delta
2023-03-11 00:02:10:265,0,-2.07966,-8.57325,85.1375
2023-03-11 00:02:10:274,0,-2.0887,-8.57727,85.1332
2023-03-11 00:02:10:283,0,-2.10031,-8.58071,85.1296
2023-03-11 00:02:10:294,0,-2.10519,-8.58529,85.1327
2023-03-11 00:02:10:303,0,-2.10974,-8.59094,85.1342
2023-03-11 00:02:10:314,0,-2.11755,-8.59289,85.1441
2023-03-11 00:02:10:324,0,-2.12406,-8.59679,85.1524
2023-03-11 00:02:10:334,0,-2.13398,-8.60246,85.1636
2023-03-11 00:02:10:344,0,-2.14154,-8.60598,85.1789
2023-03-11 00:02:10:354,0,-2.14797,-8.60902,85.1938
2023-03-11 00:02:10:364,0,-2.1478,-8.61296,85.204
2023-03-11 00:02:10:374,0,-2.14421,-8.61318,85.2162
2023-03-11 00:02:10:384,0,-2.13763,-8.61086,85.2257
2023-03-11 00:02:10:394,0,-2.13121,-8.61665,85.2333
2023-03-11 00:02:10:404,0,-2.1236,-8.62272,85.2404
2023-03-11 00:02:10:414,0,-2.11602,-8.62557,85.2437
2023-03-11 00:02:10:424,0,-2.11071,-8.62721,85.2432
2023-03-11 00:02:10:434,0,-2.11114,-8.62843,85.2426
2023-03-11 00:02:10:444,0,-2.1113,-8.62739,85.2431
2023-03-11 00:02:10:454,0,-2.11394,-8.62666,85.2352
2023-03-11 00:02:10:464,0,-2.1208,-8.62332,85.2263
2023-03-11 00:02:10:474,0,-2.12764,-8.62243,85.2189
2023-03-11 00:02:10:484,0,-2.13168,-8.62554,85.2145
2023-03-11 00:02:10:494,0,-2.13953,-8.62884,85.2115
2023-03-11 00:02:10:504,0,-2.15045,-8.63171,85.2137
2023-03-11 00:02:10:514,0,-2.15814,-8.63742,85.2149
2023-03-11 00:02:10:524,0,-2.16925,-8.6408,85.2148
2023-03-11 00:02:10:533,0,-2.18037,-8.64289,85.2132
2023-03-11 00:02:10:544,0,-2.18994,-8.64433,85.2085
2023-03-11 00:02:10:554,0,-2.19209,-8.64719,85.2066
2023-03-11 00:02:10:563,0,-2.19415,-8.64794,85.2042
2023-03-11 00:02:10:574,0,-2.19198,-8.64308,85.2008
2023-03-11 00:02:10:584,0,-2.18869,-8.64534,85.2013
2023-03-11 00:02:10:594,0,-2.18868,-8.6468,85.1977
2023-03-11 00:02:10:604,0,-2.1914,-8.64539,85.1976
2023-03-11 00:02:10:613,0,-2.19851,-8.64714,85.2011
2023-03-11 00:02:10:623,0,-2.21128,-8.64891,85.201
2023-03-11 00:02:10:633,0,-2.22708,-8.65124,85.2018
2023-03-11 00:02:10:643,0,-2.2351,-8.65082,85.1973
2023-03-11 00:02:10:653,0,-2.23623,-8.64799,85.1899
2023-03-11 00:02:10:663,0,-2.24081,-8.64923,85.182
2023-03-11 00:02:10:673,0,-2.2408,-8.65029,85.1726
2023-03-11 00:02:10:684,0,-2.24504,-8.6509,85.1631
2023-03-11 00:02:10:693,0,-2.25362,-8.6541,85.1558
2023-03-11 00:02:10:703,0,-2.26668,-8.65801,85.1509
2023-03-11 00:02:10:713,0,-2.28073,-8.65735,85.1502
2023-03-11 00:02:10:723,0,-2.29526,-8.65234,85.1471
2023-03-11 00:02:10:734,0,-2.30624,-8.64912,85.148
2023-03-11 00:02:10:743,0,-2.31297,-8.64403,85.1566
2023-03-11 00:02:10:753,0,-2.31198,-8.644,85.168
2023-03-11 00:02:10:763,0,-2.31092,-8.64352,85.1878
2023-03-11 00:02:10:774,0,-2.3145,-8.64718,85.2126
2023-03-11 00:02:10:784,0,-2.32169,-8.64885,85.2361
2023-03-11 00:02:10:794,0,-2.32877,-8.65386,85.2569
2023-03-11 00:02:10:804,0,-2.34099,-8.65929,85.2733
2023-03-11 00:02:10:814,0,-2.34642,-8.6667,85.2857
2023-03-11 00:02:10:823,0,-2.34669,-8.67268,85.2963
2023-03-11 00:02:10:834,0,-2.34273,-8.67885,85.2974
2023-03-11 00:02:10:843,0,-2.33496,-8.68405,85.2979
2023-03-11 00:02:10:853,0,-2.32988,-8.69013,85.3025
2023-03-11 00:02:10:863,0,-2.32446,-8.7005,85.2995
2023-03-11 00:02:10:873,0,-2.32113,-8.70663,85.2986
2023-03-11 00:02:10:883,0,-2.31892,-8.71338,85.2939
2023-03-11 00:02:10:893,0,-2.31658,-8.71923,85.2879
2023-03-11 00:02:10:904,0,-2.31283,-8.72722,85.2873
2023-03-11 00:02:10:913,0,-2.30793,-8.73513,85.283
2023-03-11 00:02:10:923,0,-2.30214,-8.74433,85.2823
2023-03-11 00:02:10:933,0,-2.30232,-8.74755,85.2848
2023-03-11 00:02:10:943,0,-2.3057,-8.75356,85.2901
2023-03-11 00:02:10:953,0,-2.31283,-8.75716,85.3034
2023-03-11 00:02:10:963,0,-2.3268,-8.76238,85.3225
2023-03-11 00:02:10:973,0,-2.34753,-8.76986,85.3373
2023-03-11 00:02:10:983,0,-2.36975,-8.77396,85.3568
2023-03-11 00:02:10:994,0,-2.39121,-8.7793,85.3727
2023-03-11 00:02:11:4,0,-2.41015,-8.78625,85.3834
2023-03-11 00:02:11:13,0,-2.42586,-8.78792,85.3931
2023-03-11 00:02:11:24,0,-2.44317,-8.7953,85.3975
2023-03-11 00:02:11:33,0,-2.46308,-8.79956,85.3981
2023-03-11 00:02:11:43,0,-2.47759,-8.80367,85.3969
2023-03-11 00:02:11:53,0,-2.48854,-8.80467,85.395
2023-03-11 00:02:11:63,0,-2.49709,-8.80272,85.3902
2023-03-11 00:02:11:73,0,-2.50078,-8.80059,85.3817
2023-03-11 00:02:11:83,0,-2.50187,-8.79411,85.3754
2023-03-11 00:02:11:94,0,-2.5032,-8.78188,85.3697
2023-03-11 00:02:11:103,0,-2.49813,-8.7706,85.363
2023-03-11 00:02:11:114,0,-2.49467,-8.76161,85.3542
2023-03-11 00:02:11:123,0,-2.49306,-8.74783,85.3444
2023-03-11 00:02:11:134,0,-2.49204,-8.73792,85.3361
2023-03-11 00:02:11:144,0,-2.49245,-8.72564,85.3334
2023-03-11 00:02:11:154,0,-2.49063,-8.71521,85.3294
2023-03-11 00:02:11:164,0,-2.49351,-8.70872,85.3266
2023-03-11 00:02:11:174,0,-2.49429,-8.70485,85.3299
2023-03-11 00:02:11:184,0,-2.49924,-8.70258,85.3297
2023-03-11 00:02:11:194,0,-2.50124,-8.69907,85.3311
2023-03-11 00:02:11:204,0,-2.50184,-8.69722,85.3323
2023-03-11 00:02:11:214,0,-2.49962,-8.69089,85.3317
2023-03-11 00:02:11:224,0,-2.50429,-8.68876,85.3317
2023-03-11 00:02:11:234,0,-2.50809,-8.68307,85.334
2023-03-11 00:02:11:244,0,-2.51297,-8.6813,85.3378
2023-03-11 00:02:11:254,0,-2.52006,-8.67526,85.3412
2023-03-11 00:02:11:263,0,-2.53003,-8.67004,85.3521
2023-03-11 00:02:11:274,0,-2.54045,-8.66039,85.3662
2023-03-11 00:02:11:284,0,-2.55651,-8.64857,85.3855
2023-03-11 00:02:11:294,0,-2.57684,-8.63409,85.4133
2023-03-11 00:02:11:304,0,-2.59455,-8.62013,85.4487
2023-03-11 00:02:11:314,0,-2.61572,-8.61417,85.4948
2023-03-11 00:02:11:324,0,-2.64078,-8.60553,85.5532
2023-03-11 00:02:11:334,0,-2.66863,-8.59922,85.6182
2023-03-11 00:02:11:344,0,-2.69815,-8.59638,85.6935
2023-03-11 00:02:11:354,0,-2.73728,-8.59567,85.7796
2023-03-11 00:02:11:364,0,-2.7783,-8.59427,85.874
2023-03-11 00:02:11:374,0,-2.82057,-8.59299,85.9684
2023-03-11 00:02:11:384,0,-2.84985,-8.58513,86.0641
2023-03-11 00:02:11:394,0,-2.86754,-8.57466,86.1662
2023-03-11 00:02:11:404,0,-2.87985,-8.5686,86.272
2023-03-11 00:02:11:414,0,-2.89234,-8.56314,86.3879
2023-03-11 00:02:11:424,0,-2.91091,-8.56412,86.5101
2023-03-11 00:02:11:434,0,-2.93791,-8.56919,86.6395
2023-03-11 00:02:11:444,0,-2.97716,-8.57295,86.7731
2023-03-11 00:02:11:454,0,-3.02556,-8.5809,86.9117
2023-03-11 00:02:11:464,0,-3.08658,-8.58859,87.0587
2023-03-11 00:02:11:474,0,-3.15952,-8.59615,87.2109
2023-03-11 00:02:11:484,0,-3.24483,-8.60794,87.367
2023-03-11 00:02:11:494,0,-3.34355,-8.62076,87.5305
2023-03-11 00:02:11:504,0,-3.45651,-8.62955,87.6958
2023-03-11 00:02:11:514,0,-3.58686,-8.63529,87.8625
2023-03-11 00:02:11:524,0,-3.71402,-8.63934,88.0269
2023-03-11 00:02:11:534,0,-3.83165,-8.64069,88.1739
2023-03-11 00:02:11:544,0,-3.93244,-8.63029,88.3101
2023-03-11 00:02:11:554,0,-4.01589,-8.61258,88.4344
2023-03-11 00:02:11:564,0,-4.08951,-8.58652,88.5513
2023-03-11 00:02:11:574,0,-4.16125,-8.56711,88.6667
2023-03-11 00:02:11:584,0,-4.24278,-8.55583,88.7862
2023-03-11 00:02:11:594,0,-4.34754,-8.54811,88.9064
2023-03-11 00:02:11:604,0,-4.4666,-8.54333,89.0335
2023-03-11 00:02:11:614,0,-4.59959,-8.54342,89.1645
2023-03-11 00:02:11:624,0,-4.7509,-8.54247,89.2947
2023-03-11 00:02:11:634,0,-4.92435,-8.53863,89.4217
2023-03-11 00:02:11:644,0,-5.11711,-8.52832,89.543
2023-03-11 00:02:11:654,0,-5.32816,-8.50893,89.654
2023-03-11 00:02:11:664,0,-5.54904,-8.48444,89.754
2023-03-11 00:02:11:674,0,-5.76778,-8.46929,89.8553
2023-03-11 00:02:11:684,0,-5.96763,-8.50119,89.9419
2023-03-11 00:02:11:694,0,-6.18128,-8.55161,90.029
2023-03-11 00:02:11:704,0,-6.34224,-8.4936,90.1171
2023-03-11 00:02:11:714,0,-6.47759,-8.46199,90.1695
2023-03-11 00:02:11:724,0,-6.62383,-8.40421,90.2429
2023-03-11 00:02:11:734,0,-6.80629,-8.37474,90.3308
2023-03-11 00:02:11:744,0,-7.02061,-8.35447,90.4085
2023-03-11 00:02:11:754,0,-7.24317,-8.31895,90.4738
2023-03-11 00:02:11:764,0,-7.44696,-8.27501,90.5389
2023-03-11 00:02:11:774,0,-7.62179,-8.22122,90.5955
2023-03-11 00:02:11:784,0,-7.78755,-8.17421,90.6419
2023-03-11 00:02:11:794,0,-7.95849,-8.1318,90.6856
2023-03-11 00:02:11:804,0,-8.13612,-8.08636,90.7307
2023-03-11 00:02:11:814,0,-8.30893,-8.04934,90.7786
2023-03-11 00:02:11:824,0,-8.46928,-8.01327,90.8224
2023-03-11 00:02:11:834,0,-8.60399,-7.98076,90.859
2023-03-11 00:02:11:844,0,-8.71419,-7.95554,90.8937
2023-03-11 00:02:11:854,0,-8.81383,-7.93536,90.9304
2023-03-11 00:02:11:864,0,-8.90957,-7.92201,90.9766
2023-03-11 00:02:11:874,0,-9.01839,-7.91748,91.0271
2023-03-11 00:02:11:884,0,-9.14508,-7.89114,91.0855
2023-03-11 00:02:11:894,0,-9.28042,-7.85839,91.1499
2023-03-11 00:02:11:904,0,-9.42623,-7.83938,91.2138
2023-03-11 00:02:11:914,0,-9.56888,-7.82616,91.2762
2023-03-11 00:02:11:924,0,-9.69843,-7.80593,91.3465
2023-03-11 00:02:11:934,0,-9.79971,-7.77981,91.4127
2023-03-11 00:02:11:944,0,-9.88004,-7.75805,91.4728
2023-03-11 00:02:11:954,0,-9.95159,-7.74032,91.5375
2023-03-11 00:02:11:964,0,-10.0256,-7.72733,91.6027
2023-03-11 00:02:11:974,0,-10.1006,-7.71902,91.6668
2023-03-11 00:02:11:984,0,-10.1704,-7.71279,91.7336
2023-03-11 00:02:11:994,0,-10.2382,-7.70683,91.8005
2023-03-11 00:02:12:4,0,-10.3061,-7.71163,91.8695
2023-03-11 00:02:12:14,0,-10.3714,-7.72265,91.9333
2023-03-11 00:02:12:24,0,-10.435,-7.73632,91.9914
2023-03-11 00:02:12:34,0,-10.4888,-7.74544,92.0436
2023-03-11 00:02:12:44,0,-10.5353,-7.75949,92.0864
2023-03-11 00:02:12:54,0,-10.5764,-7.78111,92.1213
2023-03-11 00:02:12:64,0,-10.6086,-7.80687,92.1538
2023-03-11 00:02:12:74,0,-10.6286,-7.83504,92.1797
2023-03-11 00:02:12:84,0,-10.6398,-7.85898,92.2084
2023-03-11 00:02:12:94,0,-10.6387,-7.88553,92.2333
2023-03-11 00:02:12:104,0,-10.6296,-7.91086,92.2554
2023-03-11 00:02:12:114,0,-10.6023,-7.92879,92.2705
2023-03-11 00:02:12:124,0,-10.5644,-7.93925,92.2888
2023-03-11 00:02:12:134,0,-10.517,-7.94825,92.3062
2023-03-11 00:02:12:144,0,-10.4595,-7.95414,92.3228
2023-03-11 00:02:12:154,0,-10.3968,-7.95691,92.3384
2023-03-11 00:02:12:164,0,-10.3299,-7.95714,92.356
2023-03-11 00:02:12:174,0,-10.2619,-7.96265,92.371
2023-03-11 00:02:12:184,0,-10.1945,-7.96635,92.3817
2023-03-11 00:02:12:194,0,-10.1193,-7.96665,92.3836
2023-03-11 00:02:12:204,0,-10.0376,-7.96433,92.3815
2023-03-11 00:02:12:214,0,-9.95117,-7.95825,92.3735
2023-03-11 00:02:12:224,0,-9.85637,-7.94809,92.3567
2023-03-11 00:02:12:233,0,-9.75362,-7.9365,92.3345
2023-03-11 00:02:12:243,0,-9.6419,-7.92103,92.3094
2023-03-11 00:02:12:254,0,-9.53001,-7.91062,92.2856
2023-03-11 00:02:12:264,0,-9.41101,-7.90317,92.2604
2023-03-11 00:02:12:274,0,-9.29279,-7.8974,92.2365
2023-03-11 00:02:12:284,0,-9.16882,-7.89201,92.2113
2023-03-11 00:02:12:294,0,-9.04617,-7.88888,92.1882
2023-03-11 00:02:12:304,0,-8.92722,-7.8895,92.1609
2023-03-11 00:02:12:314,0,-8.81469,-7.89388,92.1377
2023-03-11 00:02:12:324,0,-8.70219,-7.90668,92.1148
2023-03-11 00:02:12:334,0,-8.59874,-7.92438,92.0906
2023-03-11 00:02:12:344,0,-8.50043,-7.94999,92.0644
2023-03-11 00:02:12:354,0,-8.41459,-7.98076,92.0414
2023-03-11 00:02:12:364,0,-8.32939,-8.02085,92.0112
2023-03-11 00:02:12:374,0,-8.25176,-8.06558,91.9851
2023-03-11 00:02:12:384,0,-8.17919,-8.11789,91.962
2023-03-11 00:02:12:394,0,-8.11609,-8.17146,91.9443
2023-03-11 00:02:12:404,0,-8.06151,-8.22569,91.9202
2023-03-11 00:02:12:414,0,-8.01137,-8.26668,91.8959
2023-03-11 00:02:12:424,0,-7.95558,-8.28617,91.8671
2023-03-11 00:02:12:434,0,-7.89123,-8.30969,91.8325
2023-03-11 00:02:12:444,0,-7.8365,-8.35754,91.7925
2023-03-11 00:02:12:454,0,-7.79963,-8.40131,91.7643
2023-03-11 00:02:12:464,0,-7.75644,-8.43157,91.7343
2023-03-11 00:02:12:474,0,-7.70821,-8.46456,91.7079
2023-03-11 00:02:12:484,0,-7.66058,-8.49387,91.6836
2023-03-11 00:02:12:494,0,-7.62549,-8.5257,91.6663
2023-03-11 00:02:12:504,0,-7.59571,-8.54774,91.6522
2023-03-11 00:02:12:514,0,-7.56515,-8.57334,91.6352
2023-03-11 00:02:12:524,0,-7.53047,-8.5933,91.6188
2023-03-11 00:02:12:534,0,-7.49517,-8.60979,91.6037
2023-03-11 00:02:12:544,0,-7.4666,-8.62217,91.5906
2023-03-11 00:02:12:554,0,-7.43644,-8.62794,91.5833
2023-03-11 00:02:12:564,0,-7.41188,-8.63282,91.5798
2023-03-11 00:02:12:574,0,-7.38753,-8.64014,91.5795
2023-03-11 00:02:12:584,0,-7.36794,-8.65136,91.5831
2023-03-11 00:02:12:594,0,-7.35398,-8.65939,91.5909
2023-03-11 00:02:12:604,0,-7.33773,-8.66502,91.5984
2023-03-11 00:02:12:614,0,-7.3182,-8.67017,91.6029
2023-03-11 00:02:12:624,0,-7.3013,-8.67868,91.6014
2023-03-11 00:02:12:634,0,-7.28464,-8.67639,91.5957
2023-03-11 00:02:12:644,0,-7.26328,-8.67905,91.5886
2023-03-11 00:02:12:654,0,-7.24776,-8.68282,91.583
2023-03-11 00:02:12:664,0,-7.23057,-8.68601,91.5767
2023-03-11 00:02:12:674,0,-7.22002,-8.6935,91.5652
2023-03-11 00:02:12:684,0,-7.20873,-8.69973,91.5567
2023-03-11 00:02:12:694,0,-7.19782,-8.70702,91.5442
2023-03-11 00:02:12:704,0,-7.18557,-8.70988,91.53
2023-03-11 00:02:12:714,0,-7.17469,-8.71864,91.5106
2023-03-11 00:02:12:724,0,-7.16726,-8.72391,91.4959
2023-03-11 00:02:12:734,0,-7.15431,-8.72371,91.4793
2023-03-11 00:02:12:744,0,-7.14056,-8.7325,91.4567
2023-03-11 00:02:12:754,0,-7.12349,-8.73887,91.4372
2023-03-11 00:02:12:764,0,-7.10802,-8.73888,91.4183
2023-03-11 00:02:12:774,0,-7.08806,-8.74458,91.3968
2023-03-11 00:02:12:784,0,-7.07077,-8.75182,91.3811
2023-03-11 00:02:12:794,0,-7.05292,-8.75175,91.3679
2023-03-11 00:02:12:804,0,-7.02961,-8.75145,91.3534
2023-03-11 00:02:12:814,0,-7.00969,-8.75995,91.3394
2023-03-11 00:02:12:824,0,-6.99733,-8.77108,91.3339
2023-03-11 00:02:12:834,0,-6.9873,-8.77389,91.3301
2023-03-11 00:02:12:844,0,-6.97721,-8.77556,91.3294
2023-03-11 00:02:12:854,0,-6.96495,-8.78506,91.3267
2023-03-11 00:02:12:864,0,-6.95264,-8.7898,91.323
2023-03-11 00:02:12:874,0,-6.9398,-8.79215,91.3217
2023-03-11 00:02:12:884,0,-6.92535,-8.79432,91.322
2023-03-11 00:02:12:894,0,-6.90263,-8.79017,91.3187
2023-03-11 00:02:12:904,0,-6.87624,-8.78063,91.3129
2023-03-11 00:02:12:914,0,-6.85041,-8.77385,91.3061
2023-03-11 00:02:12:924,0,-6.82311,-8.77559,91.2988
2023-03-11 00:02:12:934,0,-6.78976,-8.77298,91.2896
2023-03-11 00:02:12:944,0,-6.75674,-8.76973,91.2864
2023-03-11 00:02:12:954,0,-6.7185,-8.76589,91.2821
2023-03-11 00:02:12:964,0,-6.67265,-8.75371,91.2802
2023-03-11 00:02:12:974,0,-6.62791,-8.74633,91.28
2023-03-11 00:02:12:984,0,-6.58427,-8.73625,91.2778
2023-03-11 00:02:12:994,0,-6.54297,-8.72922,91.2758
2023-03-11 00:02:13:4,0,-6.50179,-8.7197,91.2712
2023-03-11 00:02:13:14,0,-6.46467,-8.70843,91.2618
2023-03-11 00:02:13:24,0,-6.42907,-8.68929,91.254
2023-03-11 00:02:13:34,0,-6.38786,-8.67138,91.2393
2023-03-11 00:02:13:44,0,-6.34941,-8.65697,91.219
2023-03-11 00:02:13:54,0,-6.30804,-8.64186,91.1978
2023-03-11 00:02:13:64,0,-6.26923,-8.63095,91.1778
2023-03-11 00:02:13:74,0,-6.23036,-8.61951,91.1598
2023-03-11 00:02:13:84,0,-6.19431,-8.61167,91.1398
2023-03-11 00:02:13:94,0,-6.15934,-8.6056,91.1256
2023-03-11 00:02:13:104,0,-6.12231,-8.60483,91.1098
2023-03-11 00:02:13:114,0,-6.08647,-8.60029,91.0969
2023-03-11 00:02:13:124,0,-6.05066,-8.59671,91.0802
2023-03-11 00:02:13:134,0,-6.01899,-8.59654,91.0605
2023-03-11 00:02:13:144,0,-5.99277,-8.60051,91.0412
2023-03-11 00:02:13:154,0,-5.97235,-8.60342,91.0212
2023-03-11 00:02:13:164,0,-5.95434,-8.60422,91.0
2023-03-11 00:02:13:173,0,-5.93271,-8.60774,90.9833
2023-03-11 00:02:13:184,0,-5.91042,-8.61198,90.9674
2023-03-11 00:02:13:193,0,-5.89588,-8.62011,90.9546
2023-03-11 00:02:13:203,0,-5.88136,-8.63057,90.9426
2023-03-11 00:02:13:213,0,-5.86822,-8.63808,90.9333
2023-03-11 00:02:13:224,0,-5.85126,-8.64639,90.9289
2023-03-11 00:02:13:234,0,-5.83153,-8.6529,90.9234
2023-03-11 00:02:13:244,0,-5.80942,-8.65557,90.9175
2023-03-11 00:02:13:254,0,-5.79044,-8.6628,90.9131
2023-03-11 00:02:13:264,0,-5.77023,-8.66684,90.9106
2023-03-11 00:02:13:274,0,-5.7504,-8.67076,90.9098
2023-03-11 00:02:13:284,0,-5.72597,-8.67703,90.9024
2023-03-11 00:02:13:294,0,-5.70745,-8.68258,90.8923
2023-03-11 00:02:13:304,0,-5.687,-8.68169,90.8792
2023-03-11 00:02:13:314,0,-5.66551,-8.67888,90.8605
2023-03-11 00:02:13:324,0,-5.64991,-8.67413,90.8387
2023-03-11 00:02:13:334,0,-5.6373,-8.66952,90.8108
2023-03-11 00:02:13:344,0,-5.6249,-8.65698,90.7776
2023-03-11 00:02:13:354,0,-5.6048,-8.63878,90.7366
2023-03-11 00:02:13:364,0,-5.58341,-8.62508,90.6962
2023-03-11 00:02:13:374,0,-5.5643,-8.62129,90.6582
2023-03-11 00:02:13:384,0,-5.54649,-8.61777,90.6176
2023-03-11 00:02:13:394,0,-5.52847,-8.61881,90.5746
2023-03-11 00:02:13:404,0,-5.51353,-8.62869,90.5311
2023-03-11 00:02:13:414,0,-5.4954,-8.62824,90.4927
2023-03-11 00:02:13:424,0,-5.47422,-8.62702,90.4504
2023-03-11 00:02:13:434,0,-5.44348,-8.62643,90.4087
2023-03-11 00:02:13:444,0,-5.41107,-8.63265,90.3645
2023-03-11 00:02:13:454,0,-5.3828,-8.63819,90.3185
2023-03-11 00:02:13:464,0,-5.35537,-8.63844,90.2721
2023-03-11 00:02:13:474,0,-5.32229,-8.64014,90.2274
2023-03-11 00:02:13:484,0,-5.2939,-8.65,90.1904
2023-03-11 00:02:13:493,0,-5.27402,-8.66148,90.1665
2023-03-11 00:02:13:503,0,-5.26052,-8.67835,90.1528
2023-03-11 00:02:13:513,0,-5.2583,-8.69916,90.1451
2023-03-11 00:02:13:523,0,-5.26771,-8.7248,90.1431
2023-03-11 00:02:13:533,0,-5.27769,-8.74521,90.1432
2023-03-11 00:02:13:543,0,-5.28484,-8.76107,90.1378
2023-03-11 00:02:13:553,0,-5.29276,-8.77608,90.1308
2023-03-11 00:02:13:563,0,-5.30154,-8.79313,90.1241
2023-03-11 00:02:13:573,0,-5.30855,-8.80791,90.1144
2023-03-11 00:02:13:583,0,-5.31612,-8.82765,90.1075
2023-03-11 00:02:13:593,0,-5.31486,-8.84661,90.0962
2023-03-11 00:02:13:603,0,-5.31517,-8.86058,90.0797
2023-03-11 00:02:13:613,0,-5.31251,-8.8728,90.0523
2023-03-11 00:02:13:623,0,-5.3087,-8.88365,90.0268
2023-03-11 00:02:13:633,0,-5.30192,-8.89414,89.9973
2023-03-11 00:02:13:643,0,-5.2905,-8.89696,89.9646
2023-03-11 00:02:13:653,0,-5.28501,-8.89841,89.9295
2023-03-11 00:02:13:663,0,-5.27997,-8.90253,89.8932
2023-03-11 00:02:13:673,0,-5.27726,-8.89912,89.8579
2023-03-11 00:02:13:683,0,-5.27804,-8.89592,89.8237
2023-03-11 00:02:13:693,0,-5.28197,-8.89018,89.788
2023-03-11 00:02:13:703,0,-5.28744,-8.88237,89.7526
2023-03-11 00:02:13:713,0,-5.28907,-8.86933,89.7124
2023-03-11 00:02:13:723,0,-5.28708,-8.86134,89.6704
2023-03-11 00:02:13:733,0,-5.2824,-8.85102,89.6263
2023-03-11 00:02:13:743,0,-5.27823,-8.84148,89.5879
2023-03-11 00:02:13:753,0,-5.27199,-8.83592,89.5472
2023-03-11 00:02:13:763,0,-5.26349,-8.83155,89.5035
2023-03-11 00:02:13:773,0,-5.25235,-8.83635,89.4651
2023-03-11 00:02:13:783,0,-5.23574,-8.84295,89.4322
2023-03-11 00:02:13:793,0,-5.2268,-8.85348,89.4016
2023-03-11 00:02:13:803,0,-5.21623,-8.86317,89.3809
2023-03-11 00:02:13:813,0,-5.20901,-8.87376,89.3654
2023-03-11 00:02:13:823,0,-5.20285,-8.88772,89.3584
2023-03-11 00:02:13:833,0,-5.20725,-8.90571,89.3584
2023-03-11 00:02:13:843,0,-5.21553,-8.92246,89.3678
2023-03-11 00:02:13:853,0,-5.21957,-8.93921,89.383
2023-03-11 00:02:13:863,0,-5.22652,-8.95461,89.4081
2023-03-11 00:02:13:873,0,-5.23463,-8.97108,89.4386
2023-03-11 00:02:13:883,0,-5.23768,-8.98274,89.4758
2023-03-11 00:02:13:893,0,-5.23927,-8.99362,89.516
2023-03-11 00:02:13:903,0,-5.24044,-9.00445,89.5598
2023-03-11 00:02:13:913,0,-5.24275,-9.01474,89.6022
2023-03-11 00:02:13:923,0,-5.24144,-9.02496,89.6467
2023-03-11 00:02:13:933,0,-5.23746,-9.03639,89.6913
2023-03-11 00:02:13:943,0,-5.23286,-9.04493,89.7317
2023-03-11 00:02:13:953,0,-5.23035,-9.05417,89.7749
2023-03-11 00:02:13:963,0,-5.22274,-9.06072,89.8178
2023-03-11 00:02:13:973,0,-5.21399,-9.06924,89.8613
2023-03-11 00:02:13:983,0,-5.20344,-9.07796,89.9057
2023-03-11 00:02:13:993,0,-5.19458,-9.08646,89.9528
2023-03-11 00:02:14:3,0,-5.18301,-9.09692,89.9972
2023-03-11 00:02:14:13,0,-5.17434,-9.10481,90.0393
2023-03-11 00:02:14:23,0,-5.16394,-9.11575,90.0775
2023-03-11 00:02:14:33,0,-5.14797,-9.12377,90.11
2023-03-11 00:02:14:43,0,-5.13144,-9.13766,90.1373
2023-03-11 00:02:14:53,0,-5.11353,-9.15086,90.1545
2023-03-11 00:02:14:63,0,-5.0974,-9.16469,90.1703
2023-03-11 00:02:14:73,0,-5.08584,-9.18026,90.1831
2023-03-11 00:02:14:83,0,-5.07516,-9.19833,90.1865
2023-03-11 00:02:14:93,0,-5.05999,-9.21462,90.1865
2023-03-11 00:02:14:103,0,-5.04806,-9.23279,90.1779
2023-03-11 00:02:14:113,0,-5.03356,-9.25481,90.1711
2023-03-11 00:02:14:124,0,-5.0178,-9.27456,90.1573
2023-03-11 00:02:14:134,0,-5.00201,-9.29055,90.1432
2023-03-11 00:02:14:144,0,-4.98321,-9.30468,90.1292
2023-03-11 00:02:14:154,0,-4.9685,-9.32102,90.1179
2023-03-11 00:02:14:164,0,-4.95406,-9.33601,90.1064
2023-03-11 00:02:14:174,0,-4.93952,-9.34799,90.0878
2023-03-11 00:02:14:184,0,-4.92652,-9.35597,90.0692
2023-03-11 00:02:14:194,0,-4.91491,-9.3664,90.0537
2023-03-11 00:02:14:204,0,-4.90832,-9.37109,90.0371
2023-03-11 00:02:14:214,0,-4.8974,-9.37534,90.024
2023-03-11 00:02:14:224,0,-4.89142,-9.37806,90.0097
2023-03-11 00:02:14:233,0,-4.88251,-9.37772,89.9968
2023-03-11 00:02:14:244,0,-4.87658,-9.3745,89.9851
2023-03-11 00:02:14:254,0,-4.87113,-9.37031,89.9735
2023-03-11 00:02:14:264,0,-4.86418,-9.36679,89.962
2023-03-11 00:02:14:274,0,-4.85459,-9.36559,89.9482
2023-03-11 00:02:14:284,0,-4.84676,-9.36913,89.9377
2023-03-11 00:02:14:294,0,-4.83667,-9.37139,89.9263
2023-03-11 00:02:14:304,0,-4.83268,-9.37986,89.9154
2023-03-11 00:02:14:314,0,-4.82727,-9.38893,89.8945
2023-03-11 00:02:14:324,0,-4.82276,-9.397,89.8775
2023-03-11 00:02:14:334,0,-4.81163,-9.4112,89.8557
2023-03-11 00:02:14:344,0,-4.79425,-9.42498,89.834
2023-03-11 00:02:14:354,0,-4.77192,-9.43937,89.8063
2023-03-11 00:02:14:364,0,-4.75057,-9.4544,89.7799
2023-03-11 00:02:14:374,0,-4.72695,-9.4684,89.7533
2023-03-11 00:02:14:384,0,-4.70352,-9.48137,89.724
2023-03-11 00:02:14:394,0,-4.68168,-9.48802,89.6989
2023-03-11 00:02:14:403,0,-4.66143,-9.49566,89.677
2023-03-11 00:02:14:414,0,-4.64091,-9.50685,89.6507
2023-03-11 00:02:14:424,0,-4.62134,-9.51399,89.6272
2023-03-11 00:02:14:434,0,-4.60195,-9.51724,89.6107
2023-03-11 00:02:14:444,0,-4.58436,-9.52379,89.5948
2023-03-11 00:02:14:454,0,-4.56692,-9.52654,89.5789
2023-03-11 00:02:14:464,0,-4.55199,-9.5269,89.5662
2023-03-11 00:02:14:474,0,-4.5418,-9.52492,89.55
2023-03-11 00:02:14:484,0,-4.53278,-9.52111,89.5373
2023-03-11 00:02:14:494,0,-4.52657,-9.5149,89.5285
2023-03-11 00:02:14:504,0,-4.51997,-9.51293,89.5219
2023-03-11 00:02:14:514,0,-4.51617,-9.51056,89.5169
2023-03-11 00:02:14:524,0,-4.5123,-9.50863,89.5134
2023-03-11 00:02:14:534,0,-4.50819,-9.50784,89.5081
2023-03-11 00:02:14:544,0,-4.50181,-9.50941,89.5064
2023-03-11 00:02:14:554,0,-4.4934,-9.51412,89.5092
2023-03-11 00:02:14:564,0,-4.48537,-9.51917,89.5101
2023-03-11 00:02:14:574,0,-4.47832,-9.52382,89.5123
2023-03-11 00:02:14:584,0,-4.47537,-9.5305,89.5129
2023-03-11 00:02:14:594,0,-4.47489,-9.534,89.5136
2023-03-11 00:02:14:604,0,-4.47636,-9.53963,89.5165
2023-03-11 00:02:14:614,0,-4.48136,-9.54336,89.5192
2023-03-11 00:02:14:624,0,-4.48542,-9.54264,89.5174
2023-03-11 00:02:14:634,0,-4.48743,-9.54152,89.5116
2023-03-11 00:02:14:644,0,-4.49008,-9.5374,89.5072
2023-03-11 00:02:14:654,0,-4.49102,-9.53762,89.5052
2023-03-11 00:02:14:663,0,-4.48722,-9.53587,89.5029
2023-03-11 00:02:14:673,0,-4.478,-9.53557,89.4973
2023-03-11 00:02:14:683,0,-4.46957,-9.5317,89.4932
2023-03-11 00:02:14:693,0,-4.46229,-9.52984,89.4895
2023-03-11 00:02:14:703,0,-4.45703,-9.52969,89.4858
2023-03-11 00:02:14:713,0,-4.45624,-9.53308,89.4845
2023-03-11 00:02:14:723,0,-4.45812,-9.53332,89.4846
2023-03-11 00:02:14:733,0,-4.46393,-9.53288,89.4801
2023-03-11 00:02:14:743,0,-4.46943,-9.53412,89.4773
2023-03-11 00:02:14:753,0,-4.47375,-9.53263,89.4718
2023-03-11 00:02:14:763,0,-4.47504,-9.53355,89.4639
2023-03-11 00:02:14:774,0,-4.47358,-9.53133,89.4558
2023-03-11 00:02:14:784,0,-4.47091,-9.5284,89.4452
2023-03-11 00:02:14:794,0,-4.46978,-9.52729,89.4341
2023-03-11 00:02:14:804,0,-4.4713,-9.52244,89.4229
2023-03-11 00:02:14:814,0,-4.47627,-9.51861,89.4078
2023-03-11 00:02:14:823,0,-4.4817,-9.51231,89.3922
2023-03-11 00:02:14:834,0,-4.48271,-9.50702,89.3739
2023-03-11 00:02:14:844,0,-4.47832,-9.50187,89.3563
2023-03-11 00:02:14:854,0,-4.47799,-9.49689,89.338
2023-03-11 00:02:14:864,0,-4.47644,-9.49265,89.3204
2023-03-11 00:02:14:874,0,-4.47499,-9.49097,89.3022
2023-03-11 00:02:14:884,0,-4.4731,-9.4906,89.2835
2023-03-11 00:02:14:894,0,-4.47121,-9.48856,89.2654
2023-03-11 00:02:14:903,0,-4.46962,-9.48729,89.249
2023-03-11 00:02:14:914,0,-4.46638,-9.48755,89.2362
2023-03-11 00:02:14:924,0,-4.46664,-9.48112,89.2202
2023-03-11 00:02:14:934,0,-4.46302,-9.47852,89.2072
2023-03-11 00:02:14:944,0,-4.46012,-9.47401,89.1967
2023-03-11 00:02:14:954,0,-4.45544,-9.46805,89.1859
2023-03-11 00:02:14:964,0,-4.45021,-9.46272,89.1772
2023-03-11 00:02:14:974,0,-4.43976,-9.46251,89.1713
2023-03-11 00:02:14:984,0,-4.43185,-9.45963,89.1669
2023-03-11 00:02:14:994,0,-4.42364,-9.46018,89.1636
2023-03-11 00:02:15:4,0,-4.41754,-9.46118,89.1622
2023-03-11 00:02:15:14,0,-4.4083,-9.463,89.161
2023-03-11 00:02:15:24,0,-4.40444,-9.46461,89.1591
2023-03-11 00:02:15:34,0,-4.40351,-9.47049,89.1566
2023-03-11 00:02:15:44,0,-4.40001,-9.47258,89.1575
2023-03-11 00:02:15:54,0,-4.40181,-9.4765,89.1551
2023-03-11 00:02:15:64,0,-4.40226,-9.48366,89.1587
2023-03-11 00:02:15:74,0,-4.40193,-9.48452,89.1618
2023-03-11 00:02:15:84,0,-4.40019,-9.48584,89.1641
2023-03-11 00:02:15:94,0,-4.3985,-9.48637,89.1698
2023-03-11 00:02:15:104,0,-4.39287,-9.48537,89.1734
2023-03-11 00:02:15:114,0,-4.38941,-9.48606,89.1763
2023-03-11 00:02:15:124,0,-4.38504,-9.48661,89.1751
2023-03-11 00:02:15:134,0,-4.38245,-9.48513,89.1759
2023-03-11 00:02:15:144,0,-4.38071,-9.48738,89.1748
2023-03-11 00:02:15:154,0,-4.37469,-9.49129,89.1735
2023-03-11 00:02:15:164,0,-4.36855,-9.49378,89.1711
2023-03-11 00:02:15:174,0,-4.36762,-9.49858,89.1672
2023-03-11 00:02:15:184,0,-4.36462,-9.4993,89.1628
2023-03-11 00:02:15:194,0,-4.36217,-9.49678,89.1566
2023-03-11 00:02:15:204,0,-4.35791,-9.49583,89.1541
2023-03-11 00:02:15:213,0,-4.34787,-9.49876,89.1534
2023-03-11 00:02:15:223,0,-4.34347,-9.50204,89.1557
2023-03-11 00:02:15:233,0,-4.34815,-9.50546,89.1615
2023-03-11 00:02:15:243,0,-4.35108,-9.51282,89.1653
2023-03-11 00:02:15:253,0,-4.35157,-9.51508,89.1673
2023-03-11 00:02:15:263,0,-4.35375,-9.51542,89.1701
2023-03-11 00:02:15:273,0,-4.35888,-9.51727,89.1685
2023-03-11 00:02:15:283,0,-4.36064,-9.51941,89.1724
2023-03-11 00:02:15:293,0,-4.3646,-9.52599,89.1782
2023-03-11 00:02:15:303,0,-4.36649,-9.53273,89.1843
2023-03-11 00:02:15:314,0,-4.36528,-9.53601,89.1913
2023-03-11 00:02:15:324,0,-4.36232,-9.53803,89.2
2023-03-11 00:02:15:334,0,-4.36067,-9.54033,89.2068
2023-03-11 00:02:15:343,0,-4.35875,-9.54063,89.2163
2023-03-11 00:02:15:354,0,-4.3639,-9.5405,89.2233
2023-03-11 00:02:15:363,0,-4.36691,-9.54265,89.2329
2023-03-11 00:02:15:374,0,-4.37855,-9.54533,89.2429
2023-03-11 00:02:15:384,0,-4.39173,-9.54728,89.2473
2023-03-11 00:02:15:394,0,-4.40159,-9.54885,89.2518
2023-03-11 00:02:15:404,0,-4.41127,-9.55195,89.2559
2023-03-11 00:02:15:414,0,-4.41529,-9.55271,89.256
2023-03-11 00:02:15:424,0,-4.41685,-9.55434,89.2578
2023-03-11 00:02:15:434,0,-4.4164,-9.56008,89.2589
2023-03-11 00:02:15:444,0,-4.41086,-9.5628,89.2589
2023-03-11 00:02:15:454,0,-4.40119,-9.56076,89.2542
2023-03-11 00:02:15:464,0,-4.39314,-9.55562,89.2472
2023-03-11 00:02:15:474,0,-4.38032,-9.5563,89.239
2023-03-11 00:02:15:484,0,-4.36802,-9.56245,89.2317
2023-03-11 00:02:15:494,0,-4.35639,-9.56923,89.2326
2023-03-11 00:02:15:504,0,-4.33898,-9.57917,89.231
2023-03-11 00:02:15:514,0,-4.32233,-9.58475,89.2317
2023-03-11 00:02:15:524,0,-4.30944,-9.59262,89.2328
2023-03-11 00:02:15:534,0,-4.30045,-9.59497,89.2398
2023-03-11 00:02:15:544,0,-4.29141,-9.59636,89.2464
2023-03-11 00:02:15:553,0,-4.28059,-9.60039,89.2542
2023-03-11 00:02:15:563,0,-4.27011,-9.60552,89.2562
2023-03-11 00:02:15:573,0,-4.26109,-9.6101,89.2583
2023-03-11 00:02:15:583,0,-4.24992,-9.61482,89.262
2023-03-11 00:02:15:594,0,-4.2425,-9.62203,89.2639
2023-03-11 00:02:15:604,0,-4.23308,-9.62701,89.265
2023-03-11 00:02:15:614,0,-4.22383,-9.63372,89.2693
2023-03-11 00:02:15:624,0,-4.21443,-9.64216,89.2735
2023-03-11 00:02:15:634,0,-4.21042,-9.64544,89.2796
2023-03-11 00:02:15:644,0,-4.20353,-9.65061,89.2845
2023-03-11 00:02:15:654,0,-4.20135,-9.65558,89.2929
2023-03-11 00:02:15:664,0,-4.20277,-9.66221,89.2949
2023-03-11 00:02:15:674,0,-4.20261,-9.67349,89.2975
2023-03-11 00:02:15:684,0,-4.20577,-9.68704,89.2973
2023-03-11 00:02:15:694,0,-4.20887,-9.69435,89.2947
2023-03-11 00:02:15:704,0,-4.2124,-9.70014,89.2899
2023-03-11 00:02:15:714,0,-4.21562,-9.71095,89.2851
2023-03-11 00:02:15:723,0,-4.22026,-9.71933,89.2753
2023-03-11 00:02:15:734,0,-4.22389,-9.72342,89.2672
2023-03-11 00:02:15:743,0,-4.22463,-9.72759,89.2623
2023-03-11 00:02:15:754,0,-4.22308,-9.73002,89.257
2023-03-11 00:02:15:764,0,-4.22319,-9.72494,89.2562
2023-03-11 00:02:15:774,0,-4.22126,-9.72476,89.2547
2023-03-11 00:02:15:784,0,-4.21843,-9.72072,89.2523
2023-03-11 00:02:15:794,0,-4.21294,-9.71527,89.2554
2023-03-11 00:02:15:804,0,-4.20524,-9.70923,89.2557
2023-03-11 00:02:15:814,0,-4.19762,-9.70376,89.2573
2023-03-11 00:02:15:824,0,-4.19017,-9.69821,89.2544
2023-03-11 00:02:15:834,0,-4.18709,-9.69346,89.2541
2023-03-11 00:02:15:844,0,-4.18384,-9.69229,89.2556
2023-03-11 00:02:15:854,0,-4.18189,-9.69024,89.2492
2023-03-11 00:02:15:864,0,-4.17983,-9.68536,89.2512
2023-03-11 00:02:15:874,0,-4.17524,-9.68415,89.2543
2023-03-11 00:02:15:884,0,-4.16751,-9.68263,89.2555
2023-03-11 00:02:15:894,0,-4.15756,-9.68165,89.26
2023-03-11 00:02:15:903,0,-4.15274,-9.68156,89.2664
2023-03-11 00:02:15:914,0,-4.14399,-9.68203,89.271
2023-03-11 00:02:15:924,0,-4.13474,-9.68108,89.2765
2023-03-11 00:02:15:934,0,-4.12981,-9.68126,89.2856
2023-03-11 00:02:15:944,0,-4.1222,-9.67997,89.2929
2023-03-11 00:02:15:954,0,-4.11414,-9.67705,89.2984
2023-03-11 00:02:15:964,0,-4.10982,-9.67755,89.2988
2023-03-11 00:02:15:974,0,-4.10482,-9.67623,89.3019
2023-03-11 00:02:15:984,0,-4.10597,-9.68024,89.3079
2023-03-11 00:02:15:994,0,-4.1073,-9.68881,89.3142
2023-03-11 00:02:16:4,0,-4.10976,-9.69326,89.3132
2023-03-11 00:02:16:14,0,-4.11074,-9.702,89.3129
2023-03-11 00:02:16:24,0,-4.10915,-9.70787,89.3124
2023-03-11 00:02:16:34,0,-4.10455,-9.7107,89.3147
2023-03-11 00:02:16:44,0,-4.09599,-9.70894,89.3151
2023-03-11 00:02:16:54,0,-4.08807,-9.70761,89.3217
2023-03-11 00:02:16:64,0,-4.07858,-9.70702,89.3216
2023-03-11 00:02:16:74,0,-4.07185,-9.70746,89.3241
2023-03-11 00:02:16:84,0,-4.06182,-9.71037,89.3275
2023-03-11 00:02:16:94,0,-4.05513,-9.70964,89.3354
2023-03-11 00:02:16:104,0,-4.0454,-9.71204,89.3433
2023-03-11 00:02:16:114,0,-4.03737,-9.71502,89.3443
2023-03-11 00:02:16:124,0,-4.03009,-9.71634,89.3487
2023-03-11 00:02:16:134,0,-4.01996,-9.71346,89.3495
2023-03-11 00:02:16:144,0,-4.0082,-9.71104,89.3468
2023-03-11 00:02:16:154,0,-3.99662,-9.70548,89.3425
2023-03-11 00:02:16:164,0,-3.98444,-9.70089,89.3416
2023-03-11 00:02:16:174,0,-3.97443,-9.69875,89.3354
2023-03-11 00:02:16:184,0,-3.96916,-9.69536,89.331
2023-03-11 00:02:16:194,0,-3.96315,-9.68886,89.3272
2023-03-11 00:02:16:204,0,-3.96078,-9.68622,89.3267
2023-03-11 00:02:16:219,0,-3.96443,-9.68522,89.3261
2023-03-11 00:02:16:223,0,-3.96363,-9.68402,89.3257
2023-03-11 00:02:16:234,0,-3.97063,-9.68424,89.3249
2023-03-11 00:02:16:243,0,-3.97436,-9.68079,89.3208
2023-03-11 00:02:16:254,0,-3.97555,-9.67914,89.3218
2023-03-11 00:02:16:263,0,-3.9719,-9.6822,89.3256
2023-03-11 00:02:16:274,0,-3.97495,-9.69196,89.3309
2023-03-11 00:02:16:284,0,-3.9813,-9.70047,89.337
2023-03-11 00:02:16:294,0,-3.99201,-9.70686,89.346
2023-03-11 00:02:16:304,0,-3.99895,-9.71225,89.3501
2023-03-11 00:02:16:314,0,-4.00581,-9.71314,89.354
2023-03-11 00:02:16:324,0,-4.00567,-9.71735,89.357
2023-03-11 00:02:16:334,0,-4.00269,-9.72083,89.3619
2023-03-11 00:02:16:344,0,-3.99148,-9.72416,89.3657
2023-03-11 00:02:16:354,0,-3.97925,-9.72745,89.3648
2023-03-11 00:02:16:364,0,-3.96449,-9.72708,89.3634
2023-03-11 00:02:16:374,0,-3.95171,-9.72887,89.3638
2023-03-11 00:02:16:384,0,-3.94056,-9.72383,89.3593
2023-03-11 00:02:16:394,0,-3.93355,-9.72124,89.3561
2023-03-11 00:02:16:404,0,-3.93267,-9.71536,89.3573
2023-03-11 00:02:16:414,0,-3.92967,-9.70903,89.3607
2023-03-11 00:02:16:424,0,-3.92974,-9.70221,89.3639
2023-03-11 00:02:16:433,0,-3.93152,-9.69533,89.3633
2023-03-11 00:02:16:444,0,-3.92891,-9.6892,89.3623
2023-03-11 00:02:16:454,0,-3.93287,-9.68094,89.3636
2023-03-11 00:02:16:463,0,-3.94176,-9.67666,89.3666
2023-03-11 00:02:16:474,0,-3.95227,-9.674,89.3687
2023-03-11 00:02:16:484,0,-3.96093,-9.66893,89.3688
2023-03-11 00:02:16:494,0,-3.96661,-9.66931,89.3692
2023-03-11 00:02:16:504,0,-3.97144,-9.66684,89.3621
2023-03-11 00:02:16:514,0,-3.96937,-9.66047,89.3509
2023-03-11 00:02:16:524,0,-3.96493,-9.65482,89.3358
2023-03-11 00:02:16:534,0,-3.96177,-9.65432,89.3225
2023-03-11 00:02:16:544,0,-3.96202,-9.65619,89.312
2023-03-11 00:02:16:554,0,-3.96743,-9.65786,89.3067
2023-03-11 00:02:16:564,0,-3.972,-9.6587,89.2996
2023-03-11 00:02:16:574,0,-3.98152,-9.66089,89.2946
2023-03-11 00:02:16:584,0,-3.98854,-9.66024,89.2908
2023-03-11 00:02:16:594,0,-3.99084,-9.66143,89.2847
2023-03-11 00:02:16:604,0,-3.99047,-9.66551,89.2788
2023-03-11 00:02:16:614,0,-3.98165,-9.66808,89.264
2023-03-11 00:02:16:624,0,-3.96935,-9.67492,89.2406
2023-03-11 00:02:16:634,0,-3.9548,-9.68504,89.2169
2023-03-11 00:02:16:644,0,-3.94324,-9.69468,89.1917
2023-03-11 00:02:16:654,0,-3.92848,-9.70706,89.1632
2023-03-11 00:02:16:664,0,-3.91686,-9.71958,89.1377
2023-03-11 00:02:16:674,0,-3.90282,-9.73131,89.1099
2023-03-11 00:02:16:684,0,-3.89126,-9.74797,89.0849
2023-03-11 00:02:16:694,0,-3.88131,-9.76381,89.0589
2023-03-11 00:02:16:703,0,-3.87159,-9.78022,89.0315
2023-03-11 00:02:16:714,0,-3.86664,-9.7913,89.009
2023-03-11 00:02:16:724,0,-3.85681,-9.80278,88.9905
2023-03-11 00:02:16:734,0,-3.8511,-9.80853,88.9781
2023-03-11 00:02:16:744,0,-3.84595,-9.81003,88.9713
2023-03-11 00:02:16:753,0,-3.84268,-9.81424,88.9754
2023-03-11 00:02:16:764,0,-3.83684,-9.81032,88.9865
2023-03-11 00:02:16:773,0,-3.83283,-9.80733,89.0076
2023-03-11 00:02:16:784,0,-3.82563,-9.80442,89.0283
2023-03-11 00:02:16:794,0,-3.81706,-9.80059,89.0504
2023-03-11 00:02:16:804,0,-3.81489,-9.79483,89.071
2023-03-11 00:02:16:814,0,-3.81127,-9.78816,89.0892
2023-03-11 00:02:16:824,0,-3.8056,-9.78554,89.1031
2023-03-11 00:02:16:834,0,-3.80173,-9.78326,89.1136
2023-03-11 00:02:16:844,0,-3.80144,-9.77965,89.116
2023-03-11 00:02:16:854,0,-3.80145,-9.77797,89.1167
2023-03-11 00:02:16:864,0,-3.7996,-9.77739,89.1159
2023-03-11 00:02:16:874,0,-3.79634,-9.77818,89.115
2023-03-11 00:02:16:884,0,-3.79415,-9.77527,89.1144
2023-03-11 00:02:16:894,0,-3.79477,-9.77549,89.1142
2023-03-11 00:02:16:904,0,-3.79409,-9.77347,89.1168
2023-03-11 00:02:16:914,0,-3.79506,-9.77247,89.1164
2023-03-11 00:02:16:924,0,-3.79608,-9.772,89.1205
2023-03-11 00:02:16:934,0,-3.79949,-9.77357,89.1215
2023-03-11 00:02:16:944,0,-3.79996,-9.77067,89.1219
2023-03-11 00:02:16:954,0,-3.79897,-9.76873,89.1254
2023-03-11 00:02:16:964,0,-3.798,-9.7733,89.128
2023-03-11 00:02:16:974,0,-3.7962,-9.77764,89.133
2023-03-11 00:02:16:983,0,-3.79476,-9.778,89.1389
2023-03-11 00:02:16:994,0,-3.79093,-9.77894,89.1435
2023-03-11 00:02:17:3,0,-3.79147,-9.78253,89.1525
2023-03-11 00:02:17:14,0,-3.78967,-9.78562,89.1575
2023-03-11 00:02:17:23,0,-3.79217,-9.78896,89.1619
2023-03-11 00:02:17:34,0,-3.79336,-9.78826,89.1656
2023-03-11 00:02:17:43,0,-3.79195,-9.78934,89.168
2023-03-11 00:02:17:54,0,-3.79057,-9.78835,89.1702
2023-03-11 00:02:17:64,0,-3.78593,-9.78791,89.1731
2023-03-11 00:02:17:73,0,-3.7827,-9.78896,89.177
2023-03-11 00:02:17:83,0,-3.78387,-9.79093,89.1852
2023-03-11 00:02:17:94,0,-3.7824,-9.79282,89.1899
2023-03-11 00:02:17:104,0,-3.78115,-9.79096,89.1947
2023-03-11 00:02:17:114,0,-3.77649,-9.79218,89.1987
2023-03-11 00:02:17:124,0,-3.77662,-9.79149,89.2031
2023-03-11 00:02:17:134,0,-3.76992,-9.79008,89.206
2023-03-11 00:02:17:144,0,-3.76448,-9.78999,89.2107
2023-03-11 00:02:17:153,0,-3.76257,-9.79002,89.2129
2023-03-11 00:02:17:164,0,-3.76157,-9.79016,89.2167
2023-03-11 00:02:17:174,0,-3.7653,-9.79191,89.2194
2023-03-11 00:02:17:184,0,-3.76693,-9.79184,89.2232
2023-03-11 00:02:17:194,0,-3.76837,-9.79387,89.2252
2023-03-11 00:02:17:204,0,-3.76805,-9.79489,89.2263
2023-03-11 00:02:17:214,0,-3.77148,-9.79436,89.225
2023-03-11 00:02:17:224,0,-3.77821,-9.79166,89.2217
2023-03-11 00:02:17:234,0,-3.78329,-9.79033,89.2169
2023-03-11 00:02:17:243,0,-3.78746,-9.78618,89.2102
2023-03-11 00:02:17:254,0,-3.79093,-9.78498,89.2045
2023-03-11 00:02:17:264,0,-3.79748,-9.7838,89.2016
2023-03-11 00:02:17:273,0,-3.80668,-9.78481,89.1983
2023-03-11 00:02:17:283,0,-3.81674,-9.78404,89.196
2023-03-11 00:02:17:294,0,-3.82321,-9.78318,89.185
2023-03-11 00:02:17:304,0,-3.82711,-9.7803,89.1773
2023-03-11 00:02:17:314,0,-3.82213,-9.77818,89.1682
2023-03-11 00:02:17:324,0,-3.81685,-9.773,89.1589
2023-03-11 00:02:17:334,0,-3.8113,-9.77468,89.1502
2023-03-11 00:02:17:343,0,-3.80206,-9.77625,89.1464
2023-03-11 00:02:17:354,0,-3.79003,-9.77567,89.1385
2023-03-11 00:02:17:364,0,-3.77956,-9.77251,89.1301
2023-03-11 00:02:17:374,0,-3.76892,-9.77007,89.1211
2023-03-11 00:02:17:383,0,-3.76079,-9.76253,89.1152
2023-03-11 00:02:17:394,0,-3.75803,-9.76141,89.1094
2023-03-11 00:02:17:404,0,-3.74947,-9.75649,89.0989
2023-03-11 00:02:17:414,0,-3.74436,-9.74957,89.0906
2023-03-11 00:02:17:424,0,-3.74163,-9.74271,89.0781
2023-03-11 00:02:17:433,0,-3.74094,-9.73848,89.0642
2023-03-11 00:02:17:444,0,-3.74177,-9.7336,89.0528
2023-03-11 00:02:17:454,0,-3.73805,-9.7316,89.0421
2023-03-11 00:02:17:464,0,-3.73557,-9.73104,89.029
2023-03-11 00:02:17:474,0,-3.73165,-9.7322,89.0181
2023-03-11 00:02:17:484,0,-3.73125,-9.73293,89.0073
2023-03-11 00:02:17:494,0,-3.73281,-9.73162,88.9964
2023-03-11 00:02:17:504,0,-3.72875,-9.72502,88.9789
2023-03-11 00:02:17:514,0,-3.7218,-9.71386,88.9658
2023-03-11 00:02:17:524,0,-3.7148,-9.71121,88.9544
2023-03-11 00:02:17:534,0,-3.70456,-9.71019,88.9467
2023-03-11 00:02:17:544,0,-3.69353,-9.71099,88.9421
2023-03-11 00:02:17:554,0,-3.68695,-9.71359,88.9383
2023-03-11 00:02:17:563,0,-3.68438,-9.71572,88.9369
2023-03-11 00:02:17:574,0,-3.68198,-9.71311,88.9355
2023-03-11 00:02:17:584,0,-3.67679,-9.70776,88.9319
2023-03-11 00:02:17:593,0,-3.67033,-9.70393,88.9284
2023-03-11 00:02:17:604,0,-3.66384,-9.7002,88.9244
2023-03-11 00:02:17:614,0,-3.65607,-9.69634,88.921
2023-03-11 00:02:17:624,0,-3.64834,-9.69317,88.9229
2023-03-11 00:02:17:634,0,-3.63342,-9.68922,88.9185
2023-03-11 00:02:17:643,0,-3.62261,-9.68405,88.9118
2023-03-11 00:02:17:653,0,-3.60864,-9.68243,88.9059
2023-03-11 00:02:17:664,0,-3.59784,-9.68274,88.8982
2023-03-11 00:02:17:674,0,-3.59119,-9.68287,88.8953
2023-03-11 00:02:17:684,0,-3.58391,-9.68804,88.891
2023-03-11 00:02:17:694,0,-3.57793,-9.68971,88.891
2023-03-11 00:02:17:704,0,-3.57564,-9.69239,88.8933
2023-03-11 00:02:17:713,0,-3.57391,-9.69193,88.8954
2023-03-11 00:02:17:724,0,-3.57571,-9.69262,88.8997
2023-03-11 00:02:17:734,0,-3.58001,-9.69495,88.9035
2023-03-11 00:02:17:744,0,-3.58636,-9.69634,88.9087
2023-03-11 00:02:17:754,0,-3.59848,-9.69977,88.9133
2023-03-11 00:02:17:763,0,-3.60624,-9.70015,88.9182
2023-03-11 00:02:17:774,0,-3.61368,-9.70266,88.9199
2023-03-11 00:02:17:783,0,-3.62119,-9.70188,88.9181
2023-03-11 00:02:17:793,0,-3.62661,-9.7027,88.9164
2023-03-11 00:02:17:803,0,-3.62849,-9.70406,88.9133
2023-03-11 00:02:17:814,0,-3.6279,-9.70272,88.9058
2023-03-11 00:02:17:824,0,-3.6276,-9.70022,88.9002
2023-03-11 00:02:17:834,0,-3.62664,-9.6989,88.8937
2023-03-11 00:02:17:844,0,-3.62608,-9.69576,88.8857
2023-03-11 00:02:17:854,0,-3.62863,-9.6881,88.8798
2023-03-11 00:02:17:864,0,-3.63217,-9.68401,88.8737
2023-03-11 00:02:17:874,0,-3.63362,-9.67784,88.8698
2023-03-11 00:02:17:883,0,-3.63164,-9.66679,88.8653
2023-03-11 00:02:17:894,0,-3.62622,-9.65986,88.8628
2023-03-11 00:02:17:904,0,-3.62226,-9.65284,88.8594
2023-03-11 00:02:17:914,0,-3.62105,-9.64498,88.8544
2023-03-11 00:02:17:923,0,-3.61973,-9.63923,88.8504
2023-03-11 00:02:17:933,0,-3.62098,-9.63603,88.8518
2023-03-11 00:02:17:944,0,-3.62117,-9.63357,88.8493
2023-03-11 00:02:17:954,0,-3.62417,-9.63381,88.8517
2023-03-11 00:02:17:963,0,-3.62586,-9.63421,88.8567
2023-03-11 00:02:17:973,0,-3.62624,-9.63012,88.856
2023-03-11 00:02:17:984,0,-3.62504,-9.63014,88.8576
2023-03-11 00:02:17:994,0,-3.63021,-9.63243,88.8571
2023-03-11 00:02:18:3,0,-3.63427,-9.63397,88.8581
2023-03-11 00:02:18:14,0,-3.635,-9.63632,88.8583
2023-03-11 00:02:18:24,0,-3.63931,-9.63786,88.8608
2023-03-11 00:02:18:34,0,-3.64542,-9.63879,88.8639
2023-03-11 00:02:18:44,0,-3.6517,-9.64159,88.8675
2023-03-11 00:02:18:54,0,-3.65693,-9.64174,88.8745
2023-03-11 00:02:18:63,0,-3.65802,-9.64435,88.8793
2023-03-11 00:02:18:74,0,-3.65954,-9.64383,88.8853
2023-03-11 00:02:18:83,0,-3.65662,-9.64504,88.8909
2023-03-11 00:02:18:94,0,-3.6523,-9.64548,88.8934
2023-03-11 00:02:18:103,0,-3.6534,-9.64905,88.8983
2023-03-11 00:02:18:113,0,-3.65645,-9.65011,88.9041
2023-03-11 00:02:18:123,0,-3.65891,-9.65296,88.9111
2023-03-11 00:02:18:134,0,-3.65799,-9.65632,88.9191
2023-03-11 00:02:18:143,0,-3.65721,-9.65998,88.9258
2023-03-11 00:02:18:153,0,-3.65328,-9.66194,88.937
2023-03-11 00:02:18:163,0,-3.64719,-9.66181,88.946
2023-03-11 00:02:18:174,0,-3.64044,-9.6611,88.9526
2023-03-11 00:02:18:183,0,-3.63433,-9.65959,88.9559
2023-03-11 00:02:18:193,0,-3.6234,-9.65877,88.9566
2023-03-11 00:02:18:203,0,-3.6177,-9.66134,88.9586
2023-03-11 00:02:18:213,0,-3.61219,-9.66561,88.9632
2023-03-11 00:02:18:223,0,-3.60972,-9.67169,88.964
2023-03-11 00:02:18:233,0,-3.60601,-9.67319,88.9682
2023-03-11 00:02:18:243,0,-3.60339,-9.67424,88.9753
2023-03-11 00:02:18:253,0,-3.60038,-9.6776,88.9801
2023-03-11 00:02:18:263,0,-3.59367,-9.67978,88.9854
2023-03-11 00:02:18:274,0,-3.58556,-9.68587,88.9959
2023-03-11 00:02:18:283,0,-3.57829,-9.69425,89.0091
2023-03-11 00:02:18:294,0,-3.57303,-9.70558,89.0231
2023-03-11 00:02:18:303,0,-3.57241,-9.71488,89.0363
2023-03-11 00:02:18:313,0,-3.5725,-9.72324,89.0459
2023-03-11 00:02:18:323,0,-3.57368,-9.73331,89.0575
2023-03-11 00:02:18:333,0,-3.57745,-9.73954,89.067
2023-03-11 00:02:18:343,0,-3.57467,-9.74905,89.0751
2023-03-11 00:02:18:353,0,-3.57043,-9.75394,89.0833
2023-03-11 00:02:18:363,0,-3.56529,-9.75939,89.0927
2023-03-11 00:02:18:374,0,-3.56349,-9.76594,89.1033
2023-03-11 00:02:18:383,0,-3.5595,-9.7721,89.1088
2023-03-11 00:02:18:394,0,-3.55907,-9.77304,89.1183
2023-03-11 00:02:18:403,0,-3.55773,-9.77195,89.1251
2023-03-11 00:02:18:414,0,-3.55992,-9.7703,89.131
2023-03-11 00:02:18:423,0,-3.56033,-9.76814,89.1335
2023-03-11 00:02:18:434,0,-3.56282,-9.76671,89.1345
2023-03-11 00:02:18:443,0,-3.56692,-9.76095,89.1356
2023-03-11 00:02:18:453,0,-3.56611,-9.75668,89.1362
2023-03-11 00:02:18:463,0,-3.56576,-9.75515,89.1304
2023-03-11 00:02:18:474,0,-3.56641,-9.75007,89.1235
2023-03-11 00:02:18:483,0,-3.56438,-9.75186,89.1178
2023-03-11 00:02:18:494,0,-3.56612,-9.74914,89.1114
2023-03-11 00:02:18:503,0,-3.56071,-9.74505,89.105
2023-03-11 00:02:18:514,0,-3.55808,-9.74535,89.1028
2023-03-11 00:02:18:523,0,-3.55193,-9.74309,89.0969
2023-03-11 00:02:18:534,0,-3.54516,-9.73583,89.0905
2023-03-11 00:02:18:543,0,-3.53455,-9.72913,89.084
2023-03-11 00:02:18:554,0,-3.52383,-9.72392,89.0838
2023-03-11 00:02:18:564,0,-3.51317,-9.72071,89.083
2023-03-11 00:02:18:573,0,-3.50344,-9.71708,89.0841
2023-03-11 00:02:18:583,0,-3.49584,-9.70882,89.0868
2023-03-11 00:02:18:594,0,-3.49254,-9.70891,89.0908
2023-03-11 00:02:18:603,0,-3.49267,-9.70855,89.0947
2023-03-11 00:02:18:614,0,-3.48961,-9.7102,89.1001
2023-03-11 00:02:18:623,0,-3.48935,-9.71196,89.1054
2023-03-11 00:02:18:634,0,-3.48643,-9.71487,89.1084
2023-03-11 00:02:18:643,0,-3.48035,-9.7171,89.1127
2023-03-11 00:02:18:653,0,-3.47207,-9.7201,89.1165
2023-03-11 00:02:18:663,0,-3.46275,-9.7193,89.1231
2023-03-11 00:02:18:673,0,-3.44799,-9.71572,89.1272
2023-03-11 00:02:18:683,0,-3.43976,-9.71341,89.1312
2023-03-11 00:02:18:693,0,-3.43247,-9.71204,89.1331
2023-03-11 00:02:18:703,0,-3.42751,-9.72033,89.137
2023-03-11 00:02:18:714,0,-3.42461,-9.73005,89.1412
2023-03-11 00:02:18:723,0,-3.42607,-9.73659,89.1531
2023-03-11 00:02:18:734,0,-3.42781,-9.73755,89.1615
2023-03-11 00:02:18:743,0,-3.43634,-9.7398,89.1707
2023-03-11 00:02:18:754,0,-3.44932,-9.73947,89.181
2023-03-11 00:02:18:764,0,-3.45976,-9.73963,89.1895
2023-03-11 00:02:18:774,0,-3.47005,-9.73947,89.1986
2023-03-11 00:02:18:783,0,-3.48077,-9.74156,89.2085
2023-03-11 00:02:18:794,0,-3.48631,-9.73888,89.217
2023-03-11 00:02:18:803,0,-3.48836,-9.73176,89.221
2023-03-11 00:02:18:813,0,-3.48911,-9.72774,89.2233
2023-03-11 00:02:18:823,0,-3.49042,-9.72396,89.2223
2023-03-11 00:02:18:834,0,-3.48709,-9.71963,89.2205
2023-03-11 00:02:18:843,0,-3.48689,-9.7186,89.2149
2023-03-11 00:02:18:854,0,-3.4852,-9.71657,89.2073
2023-03-11 00:02:18:863,0,-3.48288,-9.71541,89.1968
2023-03-11 00:02:18:874,0,-3.47921,-9.71462,89.1868
2023-03-11 00:02:18:883,0,-3.47703,-9.71169,89.1797
2023-03-11 00:02:18:894,0,-3.47128,-9.70918,89.1738
2023-03-11 00:02:18:903,0,-3.46833,-9.7057,89.168
2023-03-11 00:02:18:914,0,-3.46382,-9.70816,89.1632
2023-03-11 00:02:18:923,0,-3.45336,-9.70838,89.1626
2023-03-11 00:02:18:934,0,-3.4469,-9.70424,89.1609
2023-03-11 00:02:18:943,0,-3.43939,-9.70215,89.158
2023-03-11 00:02:18:953,0,-3.43407,-9.70123,89.1594
2023-03-11 00:02:18:963,0,-3.42834,-9.70165,89.1587
2023-03-11 00:02:18:974,0,-3.42413,-9.69929,89.1547
2023-03-11 00:02:18:983,0,-3.42093,-9.70195,89.1516
2023-03-11 00:02:18:994,0,-3.41844,-9.70123,89.1471
2023-03-11 00:02:19:3,0,-3.41553,-9.70106,89.1446
2023-03-11 00:02:19:14,0,-3.41551,-9.7014,89.14
2023-03-11 00:02:19:23,0,-3.4135,-9.7041,89.1327
2023-03-11 00:02:19:34,0,-3.41133,-9.70538,89.1246
2023-03-11 00:02:19:43,0,-3.41132,-9.7039,89.1139
2023-03-11 00:02:19:53,0,-3.41477,-9.7036,89.101
2023-03-11 00:02:19:63,0,-3.41216,-9.69997,89.0861
2023-03-11 00:02:19:73,0,-3.41299,-9.70081,89.0715
2023-03-11 00:02:19:83,0,-3.41465,-9.70126,89.0582
2023-03-11 00:02:19:93,0,-3.41447,-9.7005,89.0476
2023-03-11 00:02:19:103,0,-3.41951,-9.70053,89.0361
2023-03-11 00:02:19:113,0,-3.42463,-9.69571,89.0262
2023-03-11 00:02:19:123,0,-3.43121,-9.6963,89.0215
2023-03-11 00:02:19:133,0,-3.43496,-9.69389,89.0158
2023-03-11 00:02:19:143,0,-3.43981,-9.69499,89.0168
2023-03-11 00:02:19:153,0,-3.43994,-9.69226,89.016
2023-03-11 00:02:19:163,0,-3.44118,-9.69112,89.012
2023-03-11 00:02:19:173,0,-3.43735,-9.68361,89.0104
2023-03-11 00:02:19:183,0,-3.43417,-9.6805,89.006
2023-03-11 00:02:19:193,0,-3.42756,-9.67279,89.0
2023-03-11 00:02:19:203,0,-3.42212,-9.66733,88.9933
2023-03-11 00:02:19:213,0,-3.41957,-9.66298,88.9872
2023-03-11 00:02:19:223,0,-3.41654,-9.65942,88.9787
2023-03-11 00:02:19:233,0,-3.41248,-9.65783,88.9723
2023-03-11 00:02:19:243,0,-3.41202,-9.65301,88.9645
2023-03-11 00:02:19:253,0,-3.40809,-9.65028,88.9556
2023-03-11 00:02:19:263,0,-3.40642,-9.64717,88.946
2023-03-11 00:02:19:274,0,-3.40568,-9.64329,88.9387
2023-03-11 00:02:19:283,0,-3.40039,-9.63608,88.929
2023-03-11 00:02:19:293,0,-3.39711,-9.63252,88.9208
2023-03-11 00:02:19:303,0,-3.39535,-9.6337,88.9153
2023-03-11 00:02:19:313,0,-3.39231,-9.63837,88.9156
2023-03-11 00:02:19:323,0,-3.39448,-9.6431,88.9193
2023-03-11 00:02:19:333,0,-3.39826,-9.6462,88.9186
2023-03-11 00:02:19:343,0,-3.40235,-9.65336,88.9224
2023-03-11 00:02:19:353,0,-3.404,-9.66141,88.9252
2023-03-11 00:02:19:363,0,-3.40544,-9.66733,88.9239
2023-03-11 00:02:19:373,0,-3.40286,-9.67007,88.9286
2023-03-11 00:02:19:383,0,-3.39544,-9.6771,88.9286
2023-03-11 00:02:19:393,0,-3.38551,-9.68111,88.9244
2023-03-11 00:02:19:403,0,-3.37535,-9.68652,88.9168
2023-03-11 00:02:19:413,0,-3.36845,-9.69166,88.9077
2023-03-11 00:02:19:423,0,-3.36392,-9.69654,88.8993
2023-03-11 00:02:19:433,0,-3.3664,-9.70303,88.8922
2023-03-11 00:02:19:443,0,-3.37176,-9.70861,88.8824
2023-03-11 00:02:19:453,0,-3.37661,-9.7097,88.8766
2023-03-11 00:02:19:463,0,-3.38079,-9.7107,88.872
2023-03-11 00:02:19:473,0,-3.38879,-9.71105,88.8711
2023-03-11 00:02:19:483,0,-3.38957,-9.71128,88.8696
2023-03-11 00:02:19:493,0,-3.38994,-9.71371,88.8715
2023-03-11 00:02:19:503,0,-3.38911,-9.71564,88.8742
2023-03-11 00:02:19:513,0,-3.39443,-9.71752,88.8781
2023-03-11 00:02:19:523,0,-3.39497,-9.71971,88.8799
2023-03-11 00:02:19:533,0,-3.39237,-9.72113,88.8844
2023-03-11 00:02:19:543,0,-3.39122,-9.72356,88.8847
2023-03-11 00:02:19:553,0,-3.38759,-9.7238,88.8798
2023-03-11 00:02:19:563,0,-3.38072,-9.72077,88.8669
2023-03-11 00:02:19:573,0,-3.37378,-9.71664,88.8616
2023-03-11 00:02:19:583,0,-3.36231,-9.721,88.8562
2023-03-11 00:02:19:593,0,-3.35829,-9.72209,88.8544
2023-03-11 00:02:19:603,0,-3.35851,-9.72774,88.8573
2023-03-11 00:02:19:613,0,-3.36182,-9.73227,88.862
2023-03-11 00:02:19:623,0,-3.3625,-9.72992,88.8701
2023-03-11 00:02:19:633,0,-3.36126,-9.73028,88.8808
2023-03-11 00:02:19:643,0,-3.36271,-9.72778,88.8989
2023-03-11 00:02:19:653,0,-3.36062,-9.72692,88.9141
2023-03-11 00:02:19:663,0,-3.35789,-9.72639,88.9357
2023-03-11 00:02:19:673,0,-3.35549,-9.7247,88.9565
2023-03-11 00:02:19:683,0,-3.35145,-9.72548,88.9816
2023-03-11 00:02:19:693,0,-3.34282,-9.73159,89.0037
2023-03-11 00:02:19:703,0,-3.33451,-9.74425,89.0344
2023-03-11 00:02:19:713,0,-3.32374,-9.7573,89.0635
2023-03-11 00:02:19:723,0,-3.31626,-9.77111,89.0987
2023-03-11 00:02:19:733,0,-3.30992,-9.78565,89.1335
2023-03-11 00:02:19:743,0,-3.30222,-9.79897,89.1703
2023-03-11 00:02:19:753,0,-3.29575,-9.81255,89.2119
2023-03-11 00:02:19:763,0,-3.29484,-9.82973,89.2485
2023-03-11 00:02:19:773,0,-3.29327,-9.84585,89.2862
2023-03-11 00:02:19:783,0,-3.29411,-9.8608,89.3229
2023-03-11 00:02:19:793,0,-3.29149,-9.87276,89.3544
2023-03-11 00:02:19:803,0,-3.29275,-9.88236,89.3785
2023-03-11 00:02:19:813,0,-3.29164,-9.89265,89.397
2023-03-11 00:02:19:823,0,-3.2892,-9.90341,89.4093
2023-03-11 00:02:19:833,0,-3.28472,-9.90879,89.4159
2023-03-11 00:02:19:843,0,-3.28142,-9.91749,89.4192
2023-03-11 00:02:19:853,0,-3.27174,-9.92488,89.4202
2023-03-11 00:02:19:863,0,-3.26309,-9.92782,89.4179
2023-03-11 00:02:19:873,0,-3.25642,-9.92932,89.4156
2023-03-11 00:02:19:883,0,-3.24607,-9.92756,89.4116
2023-03-11 00:02:19:893,0,-3.23185,-9.9156,89.4047
2023-03-11 00:02:19:903,0,-3.21973,-9.9058,89.3994
2023-03-11 00:02:19:913,0,-3.21001,-9.90128,89.3991
2023-03-11 00:02:19:923,0,-3.20067,-9.89393,89.399
2023-03-11 00:02:19:933,0,-3.19438,-9.88685,89.3977
2023-03-11 00:02:19:943,0,-3.18898,-9.88218,89.4024
2023-03-11 00:02:19:953,0,-3.18416,-9.88301,89.406
2023-03-11 00:02:19:963,0,-3.18069,-9.88246,89.4114
2023-03-11 00:02:19:973,0,-3.17544,-9.88209,89.4182
2023-03-11 00:02:19:983,0,-3.16332,-9.87594,89.4197
2023-03-11 00:02:19:993,0,-3.14274,-9.87104,89.4229
2023-03-11 00:02:20:3,0,-3.12582,-9.86355,89.4288
2023-03-11 00:02:20:13,0,-3.11113,-9.85611,89.4354
2023-03-11 00:02:20:23,0,-3.09436,-9.85343,89.4473
2023-03-11 00:02:20:33,0,-3.08212,-9.85271,89.4614
2023-03-11 00:02:20:43,0,-3.0718,-9.85702,89.4781
2023-03-11 00:02:20:53,0,-3.06148,-9.86474,89.5032
2023-03-11 00:02:20:63,0,-3.05477,-9.86518,89.5296
2023-03-11 00:02:20:73,0,-3.04572,-9.86807,89.5544
2023-03-11 00:02:20:83,0,-3.03408,-9.86792,89.5785
2023-03-11 00:02:20:93,0,-3.02032,-9.86095,89.6145
2023-03-11 00:02:20:103,0,-3.00515,-9.85746,89.6507
2023-03-11 00:02:20:113,0,-2.98977,-9.85243,89.6876
2023-03-11 00:02:20:123,0,-2.98061,-9.84935,89.7289
2023-03-11 00:02:20:133,0,-2.97927,-9.85068,89.7775
2023-03-11 00:02:20:143,0,-2.9827,-9.85137,89.8261
2023-03-11 00:02:20:153,0,-2.98259,-9.85131,89.8746
2023-03-11 00:02:20:163,0,-2.98057,-9.85018,89.9203
2023-03-11 00:02:20:173,0,-2.97845,-9.84917,89.9666
2023-03-11 00:02:20:183,0,-2.97352,-9.84978,90.0058
2023-03-11 00:02:20:193,0,-2.96941,-9.84532,90.0462
2023-03-11 00:02:20:203,0,-2.96601,-9.84035,90.0844
2023-03-11 00:02:20:213,0,-2.96345,-9.83507,90.113
2023-03-11 00:02:20:223,0,-2.95905,-9.83194,90.1422
2023-03-11 00:02:20:233,0,-2.95695,-9.82767,90.1708
2023-03-11 00:02:20:243,0,-2.95665,-9.82286,90.1895
2023-03-11 00:02:20:253,0,-2.95786,-9.81894,90.2029
2023-03-11 00:02:20:263,0,-2.96184,-9.81506,90.2093
2023-03-11 00:02:20:273,0,-2.96595,-9.81085,90.2107
2023-03-11 00:02:20:283,0,-2.96486,-9.81419,90.2146
2023-03-11 00:02:20:293,0,-2.96273,-9.81916,90.217
2023-03-11 00:02:20:303,0,-2.96327,-9.82767,90.2193
2023-03-11 00:02:20:313,0,-2.96157,-9.83242,90.2201
2023-03-11 00:02:20:323,0,-2.964,-9.83542,90.2245
2023-03-11 00:02:20:333,0,-2.96572,-9.83501,90.2264
2023-03-11 00:02:20:343,0,-2.96361,-9.82974,90.2264
2023-03-11 00:02:20:353,0,-2.96297,-9.82939,90.2274
2023-03-11 00:02:20:363,0,-2.96203,-9.83729,90.2317
2023-03-11 00:02:20:373,0,-2.95828,-9.83846,90.2356
2023-03-11 00:02:20:383,0,-2.95182,-9.83996,90.2389
2023-03-11 00:02:20:393,0,-2.95086,-9.84284,90.2414
2023-03-11 00:02:20:403,0,-2.95147,-9.84773,90.2488
2023-03-11 00:02:20:413,0,-2.95366,-9.8477,90.2557
2023-03-11 00:02:20:423,0,-2.95595,-9.84514,90.2644
2023-03-11 00:02:20:433,0,-2.95752,-9.84158,90.2724
2023-03-11 00:02:20:443,0,-2.96034,-9.8383,90.2766
2023-03-11 00:02:20:453,0,-2.96621,-9.83608,90.2792
2023-03-11 00:02:20:463,0,-2.97245,-9.83401,90.2821
2023-03-11 00:02:20:473,0,-2.97685,-9.82928,90.2805
2023-03-11 00:02:20:483,0,-2.97658,-9.82688,90.2799
2023-03-11 00:02:20:493,0,-2.97694,-9.82918,90.2763
2023-03-11 00:02:20:503,0,-2.9793,-9.82889,90.2701
2023-03-11 00:02:20:513,0,-2.98354,-9.82979,90.2637
2023-03-11 00:02:20:523,0,-2.98437,-9.83064,90.2552
2023-03-11 00:02:20:533,0,-2.98238,-9.82791,90.2451
2023-03-11 00:02:20:543,0,-2.97922,-9.82168,90.2347
2023-03-11 00:02:20:553,0,-2.97159,-9.8171,90.2261
2023-03-11 00:02:20:563,0,-2.96439,-9.81774,90.222
2023-03-11 00:02:20:573,0,-2.95776,-9.82048,90.2198
2023-03-11 00:02:20:583,0,-2.95018,-9.82293,90.2183
2023-03-11 00:02:20:593,0,-2.94477,-9.82135,90.2203
2023-03-11 00:02:20:603,0,-2.93844,-9.82043,90.2211
2023-03-11 00:02:20:613,0,-2.93966,-9.8199,90.222
2023-03-11 00:02:20:623,0,-2.93841,-9.81694,90.2224
2023-03-11 00:02:20:633,0,-2.93693,-9.81171,90.225
2023-03-11 00:02:20:643,0,-2.93552,-9.80784,90.2263
2023-03-11 00:02:20:653,0,-2.92846,-9.80489,90.2239
2023-03-11 00:02:20:663,0,-2.91925,-9.80337,90.2209
2023-03-11 00:02:20:673,0,-2.90878,-9.80301,90.2204
2023-03-11 00:02:20:683,0,-2.90016,-9.8079,90.2166
2023-03-11 00:02:20:693,0,-2.88772,-9.81158,90.2096
2023-03-11 00:02:20:703,0,-2.87562,-9.81423,90.2043
2023-03-11 00:02:20:713,0,-2.86603,-9.81505,90.2014
2023-03-11 00:02:20:723,0,-2.86093,-9.81956,90.2035
2023-03-11 00:02:20:733,0,-2.86085,-9.82552,90.2083
2023-03-11 00:02:20:743,0,-2.87015,-9.83243,90.2157
2023-03-11 00:02:20:753,0,-2.88062,-9.83656,90.2298
2023-03-11 00:02:20:763,0,-2.89097,-9.83962,90.2379
2023-03-11 00:02:20:773,0,-2.89939,-9.84028,90.2457
2023-03-11 00:02:20:783,0,-2.90596,-9.84352,90.2543
2023-03-11 00:02:20:793,0,-2.91403,-9.84142,90.2594
2023-03-11 00:02:20:803,0,-2.92255,-9.83916,90.2625
2023-03-11 00:02:20:813,0,-2.92465,-9.83865,90.2594
2023-03-11 00:02:20:823,0,-2.92838,-9.83814,90.2583
2023-03-11 00:02:20:833,0,-2.93107,-9.83501,90.2532
2023-03-11 00:02:20:843,0,-2.93444,-9.82959,90.2442
2023-03-11 00:02:20:853,0,-2.93576,-9.82355,90.2332
2023-03-11 00:02:20:863,0,-2.93805,-9.82028,90.2254
2023-03-11 00:02:20:873,0,-2.94251,-9.81507,90.2156
2023-03-11 00:02:20:883,0,-2.94483,-9.81146,90.2037
2023-03-11 00:02:20:893,0,-2.94805,-9.80611,90.1932
2023-03-11 00:02:20:903,0,-2.9456,-9.7995,90.1807
2023-03-11 00:02:20:913,0,-2.94524,-9.79217,90.1685
2023-03-11 00:02:20:923,0,-2.94654,-9.78625,90.1572
2023-03-11 00:02:20:933,0,-2.94796,-9.77969,90.1501
2023-03-11 00:02:20:943,0,-2.94575,-9.77106,90.1409
2023-03-11 00:02:20:953,0,-2.9432,-9.7629,90.1327
2023-03-11 00:02:20:963,0,-2.94108,-9.75961,90.1258
2023-03-11 00:02:20:973,0,-2.93938,-9.75729,90.1204
2023-03-11 00:02:20:983,0,-2.93817,-9.75648,90.1159
2023-03-11 00:02:20:993,0,-2.93583,-9.75574,90.114
2023-03-11 00:02:21:3,0,-2.93447,-9.75152,90.1132
2023-03-11 00:02:21:13,0,-2.93519,-9.75115,90.1132
2023-03-11 00:02:21:23,0,-2.93485,-9.74797,90.1107
2023-03-11 00:02:21:33,0,-2.93301,-9.75015,90.1098
2023-03-11 00:02:21:43,0,-2.93144,-9.74947,90.1072
2023-03-11 00:02:21:53,0,-2.93052,-9.75214,90.1061
2023-03-11 00:02:21:63,0,-2.9274,-9.75514,90.1053
2023-03-11 00:02:21:73,0,-2.93175,-9.75636,90.1036
2023-03-11 00:02:21:83,0,-2.93591,-9.75606,90.1064
2023-03-11 00:02:21:93,0,-2.94047,-9.75861,90.1087
2023-03-11 00:02:21:103,0,-2.94436,-9.76101,90.1108
2023-03-11 00:02:21:113,0,-2.94687,-9.76194,90.1173
2023-03-11 00:02:21:123,0,-2.94935,-9.7614,90.1197
2023-03-11 00:02:21:133,0,-2.95274,-9.76194,90.1235
2023-03-11 00:02:21:143,0,-2.95791,-9.7605,90.127
2023-03-11 00:02:21:153,0,-2.96454,-9.75952,90.1309
2023-03-11 00:02:21:163,0,-2.97118,-9.75594,90.134
2023-03-11 00:02:21:173,0,-2.97802,-9.75491,90.1329
2023-03-11 00:02:21:183,0,-2.9774,-9.75245,90.1313
2023-03-11 00:02:21:193,0,-2.97511,-9.7523,90.1298
2023-03-11 00:02:21:203,0,-2.97327,-9.75041,90.1251
2023-03-11 00:02:21:213,0,-2.97044,-9.74931,90.1164
2023-03-11 00:02:21:223,0,-2.96563,-9.74934,90.106
2023-03-11 00:02:21:233,0,-2.95764,-9.74706,90.0956
2023-03-11 00:02:21:243,0,-2.95354,-9.75074,90.0854
2023-03-11 00:02:21:253,0,-2.95128,-9.74848,90.0796
2023-03-11 00:02:21:263,0,-2.94831,-9.74548,90.0712
2023-03-11 00:02:21:273,0,-2.94838,-9.74339,90.0677
2023-03-11 00:02:21:283,0,-2.94928,-9.74505,90.07
2023-03-11 00:02:21:293,0,-2.94965,-9.74888,90.0793
2023-03-11 00:02:21:303,0,-2.9528,-9.75221,90.0854
2023-03-11 00:02:21:313,0,-2.9558,-9.75516,90.0903
2023-03-11 00:02:21:323,0,-2.96037,-9.75624,90.0964
2023-03-11 00:02:21:333,0,-2.96045,-9.75812,90.1021
2023-03-11 00:02:21:343,0,-2.95983,-9.75966,90.1063
2023-03-11 00:02:21:353,0,-2.95613,-9.76012,90.1108
2023-03-11 00:02:21:363,0,-2.95833,-9.76626,90.1131
2023-03-11 00:02:21:373,0,-2.9627,-9.76864,90.1123
2023-03-11 00:02:21:383,0,-2.96689,-9.77517,90.1121
2023-03-11 00:02:21:393,0,-2.97137,-9.77921,90.1143
2023-03-11 00:02:21:403,0,-2.97684,-9.77906,90.1134
2023-03-11 00:02:21:413,0,-2.98996,-9.77986,90.1117
2023-03-11 00:02:21:423,0,-3.00311,-9.77961,90.1122
2023-03-11 00:02:21:433,0,-3.01828,-9.78077,90.1115
2023-03-11 00:02:21:443,0,-3.03717,-9.77719,90.1112
2023-03-11 00:02:21:453,0,-3.05426,-9.77644,90.1127
2023-03-11 00:02:21:463,0,-3.07077,-9.77528,90.1131
2023-03-11 00:02:21:473,0,-3.08866,-9.77773,90.1149
2023-03-11 00:02:21:483,0,-3.10341,-9.77783,90.1147
2023-03-11 00:02:21:493,0,-3.11509,-9.77744,90.1136
2023-03-11 00:02:21:503,0,-3.12474,-9.77943,90.1106
2023-03-11 00:02:21:513,0,-3.13399,-9.77921,90.1096
2023-03-11 00:02:21:523,0,-3.14276,-9.78075,90.1077
2023-03-11 00:02:21:533,0,-3.1491,-9.77694,90.1022
2023-03-11 00:02:21:543,0,-3.14823,-9.77347,90.0987
2023-03-11 00:02:21:553,0,-3.14679,-9.77064,90.0928
2023-03-11 00:02:21:563,0,-3.14384,-9.7682,90.0876
2023-03-11 00:02:21:573,0,-3.14269,-9.76871,90.0862
2023-03-11 00:02:21:583,0,-3.13924,-9.77211,90.0823
2023-03-11 00:02:21:593,0,-3.13778,-9.7722,90.0817
2023-03-11 00:02:21:603,0,-3.1345,-9.77274,90.0839
2023-03-11 00:02:21:613,0,-3.12917,-9.77456,90.0853
2023-03-11 00:02:21:623,0,-3.12193,-9.77352,90.0875
2023-03-11 00:02:21:633,0,-3.11552,-9.77485,90.0925
2023-03-11 00:02:21:643,0,-3.10982,-9.77143,90.1008
2023-03-11 00:02:21:653,0,-3.10481,-9.77251,90.1034
