Timestamp_cmd,imu_cmd,roll_delta,pitch_delta,yaw_delta
2023-03-10 21:41:03:958,0,-1.63624,-5.76285,86.856
2023-03-10 21:41:03:967,0,-1.59554,-5.7542,86.8295
2023-03-10 21:41:03:977,0,-1.5591,-5.74235,86.8052
2023-03-10 21:41:03:987,0,-1.52105,-5.7319,86.7883
2023-03-10 21:41:03:997,0,-1.48919,-5.72063,86.7775
2023-03-10 21:41:04:7,0,-1.45804,-5.7087,86.7692
2023-03-10 21:41:04:17,0,-1.43237,-5.69997,86.7651
2023-03-10 21:41:04:27,0,-1.40865,-5.68888,86.7636
2023-03-10 21:41:04:37,0,-1.39019,-5.67441,86.7654
2023-03-10 21:41:04:47,0,-1.36936,-5.65921,86.7749
2023-03-10 21:41:04:57,0,-1.36246,-5.64118,86.7862
2023-03-10 21:41:04:67,0,-1.36275,-5.62252,86.8063
2023-03-10 21:41:04:76,0,-1.37464,-5.60415,86.834
2023-03-10 21:41:04:87,0,-1.39148,-5.58366,86.8644
2023-03-10 21:41:04:97,0,-1.41531,-5.56906,86.8985
2023-03-10 21:41:04:107,0,-1.43518,-5.55432,86.9285
2023-03-10 21:41:04:117,0,-1.45072,-5.54687,86.959
2023-03-10 21:41:04:127,0,-1.4711,-5.54626,86.9814
2023-03-10 21:41:04:137,0,-1.48909,-5.54979,86.9993
2023-03-10 21:41:04:147,0,-1.5051,-5.55136,87.0177
2023-03-10 21:41:04:157,0,-1.51921,-5.54827,87.0302
2023-03-10 21:41:04:167,0,-1.53537,-5.54105,87.0369
2023-03-10 21:41:04:177,0,-1.55231,-5.53177,87.048
2023-03-10 21:41:04:187,0,-1.56767,-5.52269,87.059
2023-03-10 21:41:04:197,0,-1.57874,-5.51471,87.0727
2023-03-10 21:41:04:207,0,-1.58635,-5.50422,87.0929
2023-03-10 21:41:04:217,0,-1.59216,-5.4905,87.112
2023-03-10 21:41:04:227,0,-1.59045,-5.47501,87.1291
2023-03-10 21:41:04:237,0,-1.5886,-5.45935,87.147
2023-03-10 21:41:04:247,0,-1.57618,-5.43974,87.1599
2023-03-10 21:41:04:257,0,-1.56658,-5.42339,87.1711
2023-03-10 21:41:04:267,0,-1.5511,-5.40997,87.177
2023-03-10 21:41:04:277,0,-1.52785,-5.3961,87.1771
2023-03-10 21:41:04:287,0,-1.49979,-5.38699,87.1621
2023-03-10 21:41:04:297,0,-1.46695,-5.37154,87.1377
2023-03-10 21:41:04:306,0,-1.43056,-5.35474,87.1035
2023-03-10 21:41:04:316,0,-1.39815,-5.33358,87.0623
2023-03-10 21:41:04:326,0,-1.37206,-5.30985,87.0142
2023-03-10 21:41:04:336,0,-1.34907,-5.28882,86.9632
2023-03-10 21:41:04:346,0,-1.33631,-5.27042,86.9134
2023-03-10 21:41:04:356,0,-1.33333,-5.25345,86.8609
2023-03-10 21:41:04:366,0,-1.33237,-5.2407,86.8065
2023-03-10 21:41:04:376,0,-1.32952,-5.22287,86.7409
2023-03-10 21:41:04:387,0,-1.32655,-5.2058,86.6685
2023-03-10 21:41:04:397,0,-1.32299,-5.18637,86.5968
2023-03-10 21:41:04:407,0,-1.32123,-5.17438,86.5236
2023-03-10 21:41:04:417,0,-1.33118,-5.16652,86.448
2023-03-10 21:41:04:427,0,-1.3456,-5.16933,86.3758
2023-03-10 21:41:04:437,0,-1.37245,-5.17935,86.3065
2023-03-10 21:41:04:447,0,-1.40039,-5.18974,86.2384
2023-03-10 21:41:04:457,0,-1.4316,-5.20227,86.165
2023-03-10 21:41:04:467,0,-1.46194,-5.21144,86.0942
2023-03-10 21:41:04:477,0,-1.49294,-5.21842,86.0157
2023-03-10 21:41:04:487,0,-1.52323,-5.22137,85.9412
2023-03-10 21:41:04:497,0,-1.55351,-5.22214,85.8706
2023-03-10 21:41:04:507,0,-1.58963,-5.22804,85.8073
2023-03-10 21:41:04:517,0,-1.62612,-5.23445,85.7532
2023-03-10 21:41:04:527,0,-1.66797,-5.23932,85.7092
2023-03-10 21:41:04:537,0,-1.71699,-5.24673,85.6745
2023-03-10 21:41:04:547,0,-1.76422,-5.25707,85.6468
2023-03-10 21:41:04:557,0,-1.81642,-5.26522,85.6366
2023-03-10 21:41:04:567,0,-1.86812,-5.27393,85.6346
2023-03-10 21:41:04:577,0,-1.92565,-5.28355,85.643
2023-03-10 21:41:04:587,0,-1.98218,-5.29557,85.6613
2023-03-10 21:41:04:597,0,-2.04112,-5.31201,85.6866
2023-03-10 21:41:04:607,0,-2.10378,-5.32351,85.7198
2023-03-10 21:41:04:617,0,-2.15894,-5.32581,85.756
2023-03-10 21:41:04:627,0,-2.19391,-5.32157,85.7874
2023-03-10 21:41:04:637,0,-2.21703,-5.32506,85.8006
2023-03-10 21:41:04:647,0,-2.23289,-5.33232,85.8046
2023-03-10 21:41:04:657,0,-2.24885,-5.35323,85.7978
2023-03-10 21:41:04:667,0,-2.25647,-5.38321,85.7782
2023-03-10 21:41:04:677,0,-2.262,-5.41179,85.7442
2023-03-10 21:41:04:687,0,-2.25197,-5.43622,85.6861
2023-03-10 21:41:04:697,0,-2.23892,-5.45681,85.6064
2023-03-10 21:41:04:707,0,-2.23113,-5.47324,85.5097
2023-03-10 21:41:04:717,0,-2.23908,-5.48681,85.4087
2023-03-10 21:41:04:727,0,-2.26211,-5.49979,85.3168
2023-03-10 21:41:04:737,0,-2.30655,-5.50914,85.2338
2023-03-10 21:41:04:747,0,-2.35813,-5.51823,85.1589
2023-03-10 21:41:04:757,0,-2.41738,-5.52248,85.099
2023-03-10 21:41:04:767,0,-2.47853,-5.52294,85.0542
2023-03-10 21:41:04:777,0,-2.54163,-5.51883,85.023
2023-03-10 21:41:04:787,0,-2.60456,-5.5139,85.0023
2023-03-10 21:41:04:797,0,-2.66089,-5.5063,84.9956
2023-03-10 21:41:04:807,0,-2.7082,-5.49283,84.9979
2023-03-10 21:41:04:817,0,-2.75031,-5.47972,85.0044
2023-03-10 21:41:04:827,0,-2.78416,-5.46039,85.0162
2023-03-10 21:41:04:837,0,-2.81407,-5.43982,85.0341
2023-03-10 21:41:04:847,0,-2.84349,-5.42178,85.0594
2023-03-10 21:41:04:857,0,-2.87323,-5.40797,85.0936
2023-03-10 21:41:04:867,0,-2.90614,-5.39759,85.1379
2023-03-10 21:41:04:877,0,-2.94329,-5.38916,85.1902
2023-03-10 21:41:04:887,0,-2.98128,-5.37652,85.2467
2023-03-10 21:41:04:897,0,-3.01948,-5.36393,85.3071
2023-03-10 21:41:04:907,0,-3.05387,-5.35256,85.37
2023-03-10 21:41:04:917,0,-3.08913,-5.34141,85.4361
2023-03-10 21:41:04:927,0,-3.12311,-5.33558,85.5076
2023-03-10 21:41:04:937,0,-3.15741,-5.33714,85.5739
2023-03-10 21:41:04:947,0,-3.1859,-5.33793,85.6368
2023-03-10 21:41:04:957,0,-3.20205,-5.33875,85.6844
2023-03-10 21:41:04:967,0,-3.21264,-5.33643,85.7189
2023-03-10 21:41:04:977,0,-3.21261,-5.33322,85.735
2023-03-10 21:41:04:987,0,-3.20397,-5.32636,85.7404
2023-03-10 21:41:04:997,0,-3.19278,-5.31565,85.7345
2023-03-10 21:41:05:7,0,-3.18926,-5.30392,85.7211
2023-03-10 21:41:05:17,0,-3.17952,-5.29585,85.701
2023-03-10 21:41:05:27,0,-3.17904,-5.28847,85.6739
2023-03-10 21:41:05:37,0,-3.18007,-5.28466,85.6502
2023-03-10 21:41:05:47,0,-3.17907,-5.28594,85.6221
2023-03-10 21:41:05:57,0,-3.175,-5.28707,85.5933
2023-03-10 21:41:05:67,0,-3.16259,-5.29032,85.5671
2023-03-10 21:41:05:77,0,-3.14319,-5.29716,85.5405
2023-03-10 21:41:05:87,0,-3.11601,-5.30582,85.5167
2023-03-10 21:41:05:97,0,-3.08233,-5.31698,85.4958
2023-03-10 21:41:05:107,0,-3.0471,-5.32257,85.4798
2023-03-10 21:41:05:117,0,-3.01368,-5.3294,85.4681
2023-03-10 21:41:05:127,0,-2.98349,-5.33398,85.4538
2023-03-10 21:41:05:137,0,-2.95784,-5.34058,85.4491
2023-03-10 21:41:05:147,0,-2.93245,-5.34578,85.4483
2023-03-10 21:41:05:157,0,-2.90748,-5.35479,85.4478
2023-03-10 21:41:05:167,0,-2.87801,-5.3638,85.4489
2023-03-10 21:41:05:177,0,-2.85129,-5.37209,85.4571
2023-03-10 21:41:05:187,0,-2.82054,-5.38235,85.465
2023-03-10 21:41:05:197,0,-2.79054,-5.38697,85.4754
2023-03-10 21:41:05:207,0,-2.75979,-5.39558,85.485
2023-03-10 21:41:05:217,0,-2.73653,-5.39664,85.4934
2023-03-10 21:41:05:227,0,-2.71963,-5.39433,85.5072
2023-03-10 21:41:05:237,0,-2.70475,-5.38923,85.5212
2023-03-10 21:41:05:247,0,-2.69531,-5.38419,85.5355
2023-03-10 21:41:05:257,0,-2.69193,-5.37187,85.549
2023-03-10 21:41:05:267,0,-2.68838,-5.35985,85.5623
2023-03-10 21:41:05:277,0,-2.6854,-5.35011,85.576
2023-03-10 21:41:05:287,0,-2.67565,-5.34897,85.5913
2023-03-10 21:41:05:297,0,-2.66142,-5.34565,85.6052
2023-03-10 21:41:05:307,0,-2.64998,-5.34488,85.6135
2023-03-10 21:41:05:317,0,-2.63686,-5.34084,85.6123
2023-03-10 21:41:05:327,0,-2.62794,-5.33129,85.6009
2023-03-10 21:41:05:337,0,-2.61762,-5.31912,85.5803
2023-03-10 21:41:05:347,0,-2.61334,-5.30274,85.552
2023-03-10 21:41:05:357,0,-2.61357,-5.29239,85.5246
2023-03-10 21:41:05:367,0,-2.61646,-5.28109,85.497
2023-03-10 21:41:05:377,0,-2.61505,-5.27367,85.4654
2023-03-10 21:41:05:387,0,-2.61543,-5.26358,85.4384
2023-03-10 21:41:05:397,0,-2.61464,-5.24597,85.4105
2023-03-10 21:41:05:407,0,-2.61516,-5.23441,85.3833
2023-03-10 21:41:05:417,0,-2.61494,-5.21618,85.3602
2023-03-10 21:41:05:427,0,-2.61795,-5.19287,85.3463
2023-03-10 21:41:05:437,0,-2.62841,-5.16644,85.3391
2023-03-10 21:41:05:447,0,-2.64742,-5.14292,85.3412
2023-03-10 21:41:05:457,0,-2.67138,-5.12353,85.3506
2023-03-10 21:41:05:467,0,-2.70242,-5.10713,85.3725
2023-03-10 21:41:05:477,0,-2.72923,-5.09644,85.3982
2023-03-10 21:41:05:487,0,-2.75957,-5.08972,85.427
2023-03-10 21:41:05:497,0,-2.78948,-5.08887,85.4582
2023-03-10 21:41:05:507,0,-2.81465,-5.08306,85.4832
2023-03-10 21:41:05:517,0,-2.83318,-5.07955,85.503
2023-03-10 21:41:05:527,0,-2.84746,-5.08054,85.5138
2023-03-10 21:41:05:537,0,-2.85835,-5.08805,85.5244
2023-03-10 21:41:05:547,0,-2.863,-5.0909,85.5276
2023-03-10 21:41:05:557,0,-2.86608,-5.08884,85.5241
2023-03-10 21:41:05:566,0,-2.86006,-5.08064,85.5119
2023-03-10 21:41:05:577,0,-2.84328,-5.06121,85.4962
2023-03-10 21:41:05:587,0,-2.82027,-5.0359,85.4743
2023-03-10 21:41:05:596,0,-2.78434,-5.01046,85.4477
2023-03-10 21:41:05:607,0,-2.7412,-4.98221,85.4166
2023-03-10 21:41:05:617,0,-2.68861,-4.95217,85.3809
2023-03-10 21:41:05:626,0,-2.63288,-4.91779,85.3402
2023-03-10 21:41:05:637,0,-2.57419,-4.88216,85.2983
2023-03-10 21:41:05:646,0,-2.52795,-4.84095,85.2549
2023-03-10 21:41:05:657,0,-2.49671,-4.80138,85.2274
2023-03-10 21:41:05:667,0,-2.4815,-4.77173,85.2154
2023-03-10 21:41:05:677,0,-2.48722,-4.75025,85.2326
2023-03-10 21:41:05:687,0,-2.51289,-4.74052,85.2752
2023-03-10 21:41:05:697,0,-2.55113,-4.74492,85.3452
2023-03-10 21:41:05:707,0,-2.59428,-4.7624,85.4338
2023-03-10 21:41:05:717,0,-2.63855,-4.79466,85.5432
2023-03-10 21:41:05:727,0,-2.68628,-4.84391,85.6638
2023-03-10 21:41:05:737,0,-2.74193,-4.90156,85.7933
2023-03-10 21:41:05:747,0,-2.79934,-4.95775,85.9265
2023-03-10 21:41:05:757,0,-2.85565,-5.02215,86.0608
2023-03-10 21:41:05:767,0,-2.91224,-5.0901,86.1914
2023-03-10 21:41:05:777,0,-2.9623,-5.15519,86.3163
2023-03-10 21:41:05:787,0,-3.00757,-5.21787,86.4312
2023-03-10 21:41:05:797,0,-3.04238,-5.28302,86.5277
2023-03-10 21:41:05:807,0,-3.06589,-5.34815,86.6129
2023-03-10 21:41:05:817,0,-3.07857,-5.41162,86.681
2023-03-10 21:41:05:827,0,-3.08381,-5.47803,86.7337
2023-03-10 21:41:05:837,0,-3.08525,-5.54004,86.7722
2023-03-10 21:41:05:847,0,-3.07091,-5.60057,86.7907
2023-03-10 21:41:05:857,0,-3.05297,-5.65384,86.7865
2023-03-10 21:41:05:867,0,-3.02621,-5.69533,86.7638
2023-03-10 21:41:05:877,0,-2.99955,-5.72952,86.7188
2023-03-10 21:41:05:887,0,-2.96782,-5.75599,86.6622
2023-03-10 21:41:05:897,0,-2.93155,-5.77455,86.5978
2023-03-10 21:41:05:907,0,-2.89326,-5.79184,86.5243
2023-03-10 21:41:05:917,0,-2.85308,-5.80297,86.4496
2023-03-10 21:41:05:927,0,-2.81383,-5.80895,86.3701
2023-03-10 21:41:05:937,0,-2.77412,-5.81179,86.293
2023-03-10 21:41:05:947,0,-2.73748,-5.8157,86.2222
2023-03-10 21:41:05:957,0,-2.71094,-5.82535,86.1576
2023-03-10 21:41:05:967,0,-2.68838,-5.83425,86.1062
2023-03-10 21:41:05:977,0,-2.67454,-5.84473,86.0636
2023-03-10 21:41:05:987,0,-2.66282,-5.85367,86.0309
2023-03-10 21:41:05:997,0,-2.64801,-5.86494,86.0023
2023-03-10 21:41:06:7,0,-2.63376,-5.87751,85.9886
2023-03-10 21:41:06:17,0,-2.62178,-5.88294,85.988
2023-03-10 21:41:06:27,0,-2.61067,-5.89032,85.9951
2023-03-10 21:41:06:37,0,-2.59797,-5.89497,86.0128
2023-03-10 21:41:06:47,0,-2.58315,-5.89733,86.0428
2023-03-10 21:41:06:57,0,-2.56758,-5.89429,86.0822
2023-03-10 21:41:06:67,0,-2.55032,-5.88291,86.125
2023-03-10 21:41:06:77,0,-2.53108,-5.86567,86.1671
2023-03-10 21:41:06:87,0,-2.50827,-5.84504,86.2021
2023-03-10 21:41:06:97,0,-2.48674,-5.8235,86.2294
2023-03-10 21:41:06:107,0,-2.46551,-5.80416,86.2535
2023-03-10 21:41:06:117,0,-2.44527,-5.78236,86.2648
2023-03-10 21:41:06:127,0,-2.42391,-5.76467,86.2686
2023-03-10 21:41:06:137,0,-2.40302,-5.74417,86.266
2023-03-10 21:41:06:147,0,-2.3852,-5.72864,86.2519
2023-03-10 21:41:06:157,0,-2.37169,-5.71319,86.2325
2023-03-10 21:41:06:167,0,-2.36441,-5.69445,86.2054
2023-03-10 21:41:06:177,0,-2.36726,-5.67669,86.1789
2023-03-10 21:41:06:187,0,-2.3743,-5.66392,86.1584
2023-03-10 21:41:06:197,0,-2.38583,-5.65463,86.1411
2023-03-10 21:41:06:207,0,-2.39699,-5.64265,86.1245
2023-03-10 21:41:06:217,0,-2.40917,-5.63632,86.1154
2023-03-10 21:41:06:227,0,-2.4157,-5.62815,86.1098
2023-03-10 21:41:06:237,0,-2.4236,-5.62353,86.1041
2023-03-10 21:41:06:247,0,-2.42596,-5.62149,86.0983
2023-03-10 21:41:06:257,0,-2.42527,-5.61833,86.0916
2023-03-10 21:41:06:267,0,-2.42544,-5.61823,86.0829
2023-03-10 21:41:06:277,0,-2.42075,-5.6213,86.0722
2023-03-10 21:41:06:287,0,-2.41626,-5.62403,86.0575
2023-03-10 21:41:06:297,0,-2.41661,-5.62952,86.0412
2023-03-10 21:41:06:307,0,-2.41688,-5.63546,86.0271
2023-03-10 21:41:06:317,0,-2.41535,-5.64695,86.0077
2023-03-10 21:41:06:327,0,-2.40946,-5.65915,85.9945
2023-03-10 21:41:06:337,0,-2.4041,-5.6724,85.9852
2023-03-10 21:41:06:347,0,-2.39459,-5.67945,85.974
2023-03-10 21:41:06:357,0,-2.3808,-5.687,85.9648
2023-03-10 21:41:06:367,0,-2.36513,-5.70115,85.9559
2023-03-10 21:41:06:377,0,-2.34643,-5.71391,85.9552
2023-03-10 21:41:06:387,0,-2.32691,-5.73132,85.9516
2023-03-10 21:41:06:397,0,-2.30154,-5.74687,85.9522
2023-03-10 21:41:06:407,0,-2.27536,-5.75893,85.9508
2023-03-10 21:41:06:417,0,-2.24885,-5.76838,85.949
2023-03-10 21:41:06:427,0,-2.22009,-5.77853,85.9496
2023-03-10 21:41:06:437,0,-2.19041,-5.78856,85.9508
2023-03-10 21:41:06:447,0,-2.16303,-5.79695,85.9511
2023-03-10 21:41:06:457,0,-2.13538,-5.80164,85.9537
2023-03-10 21:41:06:467,0,-2.11233,-5.80827,85.9574
2023-03-10 21:41:06:477,0,-2.09221,-5.81286,85.9545
2023-03-10 21:41:06:487,0,-2.07114,-5.81265,85.9506
2023-03-10 21:41:06:497,0,-2.05163,-5.81037,85.9448
2023-03-10 21:41:06:507,0,-2.03355,-5.80647,85.9372
2023-03-10 21:41:06:517,0,-2.01531,-5.8061,85.9317
2023-03-10 21:41:06:527,0,-2.00157,-5.80546,85.9325
2023-03-10 21:41:06:536,0,-1.99422,-5.80288,85.939
2023-03-10 21:41:06:547,0,-1.99298,-5.80152,85.9511
2023-03-10 21:41:06:557,0,-1.99688,-5.80764,85.9728
2023-03-10 21:41:06:566,0,-2.00329,-5.81322,85.9989
2023-03-10 21:41:06:577,0,-2.00572,-5.82506,86.0261
2023-03-10 21:41:06:586,0,-2.00269,-5.83404,86.0489
2023-03-10 21:41:06:597,0,-1.9956,-5.84164,86.0625
2023-03-10 21:41:06:607,0,-1.98694,-5.85151,86.0672
2023-03-10 21:41:06:617,0,-1.96886,-5.85987,86.0625
2023-03-10 21:41:06:627,0,-1.94767,-5.86543,86.047
2023-03-10 21:41:06:637,0,-1.92635,-5.86641,86.0223
2023-03-10 21:41:06:647,0,-1.91363,-5.86438,85.9963
2023-03-10 21:41:06:657,0,-1.90606,-5.86255,85.9676
2023-03-10 21:41:06:667,0,-1.90664,-5.85493,85.9432
2023-03-10 21:41:06:677,0,-1.91352,-5.84617,85.9215
2023-03-10 21:41:06:687,0,-1.9229,-5.83637,85.9031
2023-03-10 21:41:06:697,0,-1.93373,-5.82526,85.8981
2023-03-10 21:41:06:707,0,-1.94016,-5.82109,85.9035
2023-03-10 21:41:06:717,0,-1.95009,-5.81351,85.9204
2023-03-10 21:41:06:727,0,-1.96186,-5.81481,85.9484
2023-03-10 21:41:06:737,0,-1.97042,-5.81233,85.9871
2023-03-10 21:41:06:747,0,-1.97525,-5.81461,86.0324
2023-03-10 21:41:06:757,0,-1.97921,-5.81629,86.0822
2023-03-10 21:41:06:767,0,-1.98109,-5.81804,86.1362
2023-03-10 21:41:06:777,0,-1.97795,-5.82431,86.1973
2023-03-10 21:41:06:787,0,-1.97862,-5.83291,86.2562
2023-03-10 21:41:06:797,0,-1.97443,-5.83606,86.3105
2023-03-10 21:41:06:807,0,-1.96484,-5.84656,86.3634
2023-03-10 21:41:06:817,0,-1.95392,-5.86053,86.4136
2023-03-10 21:41:06:827,0,-1.93539,-5.87223,86.4571
2023-03-10 21:41:06:837,0,-1.91147,-5.87964,86.489
2023-03-10 21:41:06:847,0,-1.87944,-5.87668,86.5091
2023-03-10 21:41:06:856,0,-1.84236,-5.87251,86.5174
2023-03-10 21:41:06:866,0,-1.80024,-5.86451,86.5145
2023-03-10 21:41:06:877,0,-1.75763,-5.85826,86.5018
2023-03-10 21:41:06:886,0,-1.71528,-5.85157,86.4801
2023-03-10 21:41:06:897,0,-1.66647,-5.84991,86.4559
2023-03-10 21:41:06:906,0,-1.6103,-5.84453,86.4199
2023-03-10 21:41:06:917,0,-1.54454,-5.83195,86.3742
2023-03-10 21:41:06:926,0,-1.47239,-5.81158,86.3239
2023-03-10 21:41:06:937,0,-1.39737,-5.79089,86.2625
2023-03-10 21:41:06:947,0,-1.3242,-5.77069,86.1999
2023-03-10 21:41:06:957,0,-1.25884,-5.75053,86.1423
2023-03-10 21:41:06:967,0,-1.20173,-5.72751,86.0892
2023-03-10 21:41:06:977,0,-1.15141,-5.69907,86.0401
2023-03-10 21:41:06:986,0,-1.10821,-5.6856,85.9906
2023-03-10 21:41:06:997,0,-1.08555,-5.68227,85.948
2023-03-10 21:41:07:6,0,-1.08117,-5.67542,85.9103
2023-03-10 21:41:07:17,0,-1.08232,-5.67132,85.8866
2023-03-10 21:41:07:27,0,-1.07856,-5.67533,85.8613
2023-03-10 21:41:07:37,0,-1.0735,-5.68472,85.8372
2023-03-10 21:41:07:47,0,-1.06903,-5.69695,85.8103
2023-03-10 21:41:07:57,0,-1.06105,-5.71323,85.7854
2023-03-10 21:41:07:67,0,-1.05558,-5.73427,85.7539
2023-03-10 21:41:07:76,0,-1.05441,-5.75634,85.7263
2023-03-10 21:41:07:87,0,-1.0534,-5.77574,85.7025
2023-03-10 21:41:07:97,0,-1.05127,-5.79806,85.6802
2023-03-10 21:41:07:107,0,-1.05334,-5.83418,85.6555
2023-03-10 21:41:07:117,0,-1.06693,-5.86978,85.6356
2023-03-10 21:41:07:127,0,-1.08081,-5.89514,85.6164
2023-03-10 21:41:07:137,0,-1.08662,-5.92326,85.5958
2023-03-10 21:41:07:147,0,-1.09021,-5.94818,85.58
2023-03-10 21:41:07:157,0,-1.09956,-5.97296,85.5705
2023-03-10 21:41:07:167,0,-1.12067,-5.98907,85.5681
2023-03-10 21:41:07:177,0,-1.15188,-6.0021,85.5697
2023-03-10 21:41:07:187,0,-1.18456,-6.01687,85.5822
2023-03-10 21:41:07:197,0,-1.2257,-6.02698,85.6035
2023-03-10 21:41:07:207,0,-1.27133,-6.03972,85.637
2023-03-10 21:41:07:217,0,-1.31009,-6.05074,85.6773
2023-03-10 21:41:07:227,0,-1.34589,-6.05218,85.7183
2023-03-10 21:41:07:237,0,-1.37497,-6.04949,85.7607
2023-03-10 21:41:07:247,0,-1.39792,-6.0437,85.7991
2023-03-10 21:41:07:257,0,-1.42707,-6.04084,85.838
2023-03-10 21:41:07:267,0,-1.45205,-6.0416,85.8707
2023-03-10 21:41:07:277,0,-1.47397,-6.04478,85.8972
2023-03-10 21:41:07:287,0,-1.50092,-6.04714,85.9163
2023-03-10 21:41:07:297,0,-1.52537,-6.04935,85.9261
2023-03-10 21:41:07:307,0,-1.55354,-6.04598,85.9247
2023-03-10 21:41:07:317,0,-1.5762,-6.03865,85.9122
2023-03-10 21:41:07:327,0,-1.59653,-6.03269,85.8929
2023-03-10 21:41:07:337,0,-1.60759,-6.02346,85.8731
2023-03-10 21:41:07:347,0,-1.61605,-6.01692,85.8551
2023-03-10 21:41:07:357,0,-1.62572,-6.00875,85.8462
2023-03-10 21:41:07:367,0,-1.6331,-6.00152,85.844
2023-03-10 21:41:07:377,0,-1.63916,-5.99503,85.8444
2023-03-10 21:41:07:387,0,-1.63556,-5.98606,85.8489
2023-03-10 21:41:07:397,0,-1.63005,-5.98034,85.8561
2023-03-10 21:41:07:407,0,-1.61325,-5.97488,85.8582
2023-03-10 21:41:07:417,0,-1.59233,-5.96617,85.8583
2023-03-10 21:41:07:427,0,-1.57043,-5.95678,85.854
2023-03-10 21:41:07:437,0,-1.54712,-5.94814,85.8408
2023-03-10 21:41:07:447,0,-1.52832,-5.94147,85.8256
2023-03-10 21:41:07:457,0,-1.51313,-5.93861,85.8105
2023-03-10 21:41:07:467,0,-1.50419,-5.93592,85.7956
2023-03-10 21:41:07:477,0,-1.49427,-5.93535,85.7794
2023-03-10 21:41:07:487,0,-1.48815,-5.93952,85.761
2023-03-10 21:41:07:497,0,-1.47415,-5.94259,85.7424
2023-03-10 21:41:07:507,0,-1.45369,-5.94692,85.7275
2023-03-10 21:41:07:517,0,-1.43155,-5.95418,85.711
2023-03-10 21:41:07:527,0,-1.41506,-5.95744,85.7039
2023-03-10 21:41:07:537,0,-1.40403,-5.96123,85.705
2023-03-10 21:41:07:547,0,-1.39908,-5.96072,85.7079
2023-03-10 21:41:07:557,0,-1.4087,-5.95775,85.7204
2023-03-10 21:41:07:567,0,-1.41796,-5.95406,85.7378
2023-03-10 21:41:07:577,0,-1.42663,-5.95237,85.7642
2023-03-10 21:41:07:587,0,-1.42979,-5.95273,85.7967
2023-03-10 21:41:07:597,0,-1.43218,-5.95269,85.8334
2023-03-10 21:41:07:607,0,-1.43216,-5.95912,85.8726
2023-03-10 21:41:07:617,0,-1.43085,-5.96848,85.9161
2023-03-10 21:41:07:627,0,-1.43256,-5.98393,85.9678
2023-03-10 21:41:07:637,0,-1.42738,-6.00574,86.0118
2023-03-10 21:41:07:647,0,-1.42679,-6.03228,86.0531
2023-03-10 21:41:07:657,0,-1.42257,-6.05781,86.0931
2023-03-10 21:41:07:667,0,-1.41765,-6.08362,86.131
2023-03-10 21:41:07:677,0,-1.41152,-6.11175,86.1649
2023-03-10 21:41:07:687,0,-1.39945,-6.13396,86.191
2023-03-10 21:41:07:697,0,-1.38366,-6.15444,86.2117
2023-03-10 21:41:07:707,0,-1.36336,-6.17239,86.2239
2023-03-10 21:41:07:717,0,-1.33332,-6.18907,86.2299
2023-03-10 21:41:07:727,0,-1.30255,-6.20563,86.2331
2023-03-10 21:41:07:737,0,-1.27325,-6.21526,86.2336
2023-03-10 21:41:07:747,0,-1.25044,-6.22698,86.2343
2023-03-10 21:41:07:757,0,-1.23441,-6.23331,86.234
2023-03-10 21:41:07:767,0,-1.21444,-6.2389,86.2378
2023-03-10 21:41:07:777,0,-1.19614,-6.2529,86.2436
2023-03-10 21:41:07:787,0,-1.17462,-6.26989,86.2516
2023-03-10 21:41:07:797,0,-1.15495,-6.28723,86.2627
2023-03-10 21:41:07:807,0,-1.13405,-6.30244,86.2724
2023-03-10 21:41:07:817,0,-1.11755,-6.31548,86.2821
2023-03-10 21:41:07:827,0,-1.10022,-6.32288,86.2942
2023-03-10 21:41:07:837,0,-1.08588,-6.33417,86.3074
2023-03-10 21:41:07:847,0,-1.06598,-6.34373,86.3204
2023-03-10 21:41:07:857,0,-1.04553,-6.35116,86.3341
2023-03-10 21:41:07:866,0,-1.02517,-6.34835,86.3453
2023-03-10 21:41:07:876,0,-1.00609,-6.33862,86.3526
2023-03-10 21:41:07:886,0,-0.991082,-6.32653,86.3614
2023-03-10 21:41:07:896,0,-0.982533,-6.30936,86.3696
2023-03-10 21:41:07:907,0,-0.973081,-6.29369,86.3745
2023-03-10 21:41:07:917,0,-0.958759,-6.27253,86.3803
2023-03-10 21:41:07:927,0,-0.944718,-6.24915,86.3781
2023-03-10 21:41:07:937,0,-0.934978,-6.2263,86.3776
2023-03-10 21:41:07:947,0,-0.931349,-6.19788,86.3678
2023-03-10 21:41:07:957,0,-0.929079,-6.17335,86.3586
2023-03-10 21:41:07:967,0,-0.928488,-6.1552,86.3451
2023-03-10 21:41:07:977,0,-0.932384,-6.139,86.3325
2023-03-10 21:41:07:987,0,-0.93996,-6.11868,86.3173
2023-03-10 21:41:07:997,0,-0.946617,-6.10051,86.3003
2023-03-10 21:41:08:7,0,-0.949303,-6.08732,86.2743
2023-03-10 21:41:08:17,0,-0.947697,-6.08266,86.251
2023-03-10 21:41:08:27,0,-0.942616,-6.08395,86.2288
2023-03-10 21:41:08:37,0,-0.934288,-6.08874,86.2054
2023-03-10 21:41:08:47,0,-0.921312,-6.09912,86.1856
2023-03-10 21:41:08:57,0,-0.907985,-6.10728,86.1627
2023-03-10 21:41:08:67,0,-0.895451,-6.11524,86.1451
2023-03-10 21:41:08:77,0,-0.883521,-6.12484,86.1327
2023-03-10 21:41:08:87,0,-0.876297,-6.13553,86.1237
2023-03-10 21:41:08:97,0,-0.865829,-6.14172,86.1189
2023-03-10 21:41:08:107,0,-0.849545,-6.15189,86.1146
2023-03-10 21:41:08:117,0,-0.824471,-6.16121,86.1116
2023-03-10 21:41:08:127,0,-0.797538,-6.16722,86.1077
2023-03-10 21:41:08:137,0,-0.768977,-6.16919,86.1048
2023-03-10 21:41:08:147,0,-0.741507,-6.16869,86.0994
2023-03-10 21:41:08:157,0,-0.716173,-6.16993,86.0967
2023-03-10 21:41:08:167,0,-0.687682,-6.16125,86.1002
2023-03-10 21:41:08:177,0,-0.655729,-6.14841,86.1085
2023-03-10 21:41:08:187,0,-0.624401,-6.14912,86.1158
2023-03-10 21:41:08:197,0,-0.603299,-6.16119,86.1257
2023-03-10 21:41:08:207,0,-0.596341,-6.17982,86.1483
2023-03-10 21:41:08:217,0,-0.58822,-6.20062,86.1828
2023-03-10 21:41:08:227,0,-0.570736,-6.21891,86.2208
2023-03-10 21:41:08:237,0,-0.54009,-6.21961,86.2581
2023-03-10 21:41:08:247,0,-0.495716,-6.21344,86.2935
2023-03-10 21:41:08:257,0,-0.446123,-6.20679,86.3252
2023-03-10 21:41:08:267,0,-0.402783,-6.20819,86.3652
2023-03-10 21:41:08:277,0,-0.371591,-6.21603,86.4072
2023-03-10 21:41:08:287,0,-0.349935,-6.22105,86.4599
2023-03-10 21:41:08:297,0,-0.328811,-6.22173,86.5173
2023-03-10 21:41:08:307,0,-0.303598,-6.22398,86.5787
2023-03-10 21:41:08:317,0,-0.275989,-6.22824,86.6515
2023-03-10 21:41:08:327,0,-0.250005,-6.23248,86.7317
2023-03-10 21:41:08:337,0,-0.224981,-6.24117,86.8158
2023-03-10 21:41:08:347,0,-0.202487,-6.25201,86.9032
2023-03-10 21:41:08:357,0,-0.18552,-6.25991,86.9889
2023-03-10 21:41:08:367,0,-0.158278,-6.26026,87.0716
2023-03-10 21:41:08:377,0,-0.127604,-6.25575,87.1488
2023-03-10 21:41:08:387,0,-0.095162,-6.2491,87.2161
2023-03-10 21:41:08:397,0,-0.065622,-6.24497,87.2781
2023-03-10 21:41:08:407,0,-0.0435836,-6.2487,87.3334
2023-03-10 21:41:08:417,0,-0.0305446,-6.25652,87.3868
2023-03-10 21:41:08:427,0,-0.0269298,-6.26839,87.4346
2023-03-10 21:41:08:437,0,-0.032655,-6.2824,87.4758
2023-03-10 21:41:08:447,0,-0.0346255,-6.29614,87.511
2023-03-10 21:41:08:457,0,-0.0325846,-6.31334,87.5395
2023-03-10 21:41:08:467,0,-0.0252202,-6.32929,87.5649
2023-03-10 21:41:08:477,0,-0.015898,-6.347,87.5837
2023-03-10 21:41:08:487,0,-0.00929905,-6.35986,87.5996
2023-03-10 21:41:08:497,0,-0.00961611,-6.37825,87.6135
2023-03-10 21:41:08:507,0,-0.00245117,-6.39735,87.6186
2023-03-10 21:41:08:517,0,0.00137517,-6.41286,87.6208
2023-03-10 21:41:08:527,0,0.00484052,-6.43531,87.6186
2023-03-10 21:41:08:537,0,0.00663363,-6.45763,87.6166
2023-03-10 21:41:08:547,0,0.010465,-6.48181,87.6113
2023-03-10 21:41:08:557,0,0.0164764,-6.50578,87.6092
2023-03-10 21:41:08:567,0,0.0273764,-6.53227,87.6044
2023-03-10 21:41:08:577,0,0.0350232,-6.55194,87.5979
2023-03-10 21:41:08:587,0,0.0435407,-6.57174,87.5944
2023-03-10 21:41:08:597,0,0.0558382,-6.5869,87.5894
2023-03-10 21:41:08:607,0,0.0626162,-6.59522,87.585
2023-03-10 21:41:08:617,0,0.0682599,-6.59783,87.582
2023-03-10 21:41:08:627,0,0.0717054,-6.59642,87.5809
2023-03-10 21:41:08:637,0,0.0774303,-6.59056,87.5839
2023-03-10 21:41:08:647,0,0.0824277,-6.58436,87.5879
2023-03-10 21:41:08:657,0,0.0904304,-6.57648,87.594
2023-03-10 21:41:08:667,0,0.0968386,-6.56859,87.6055
2023-03-10 21:41:08:677,0,0.109671,-6.56629,87.6156
2023-03-10 21:41:08:687,0,0.120739,-6.55672,87.6276
2023-03-10 21:41:08:697,0,0.131214,-6.54753,87.6357
2023-03-10 21:41:08:707,0,0.143434,-6.53685,87.6466
2023-03-10 21:41:08:717,0,0.156594,-6.52555,87.6506
2023-03-10 21:41:08:727,0,0.166254,-6.51386,87.6524
2023-03-10 21:41:08:737,0,0.173688,-6.50666,87.6564
2023-03-10 21:41:08:747,0,0.177234,-6.49897,87.6547
2023-03-10 21:41:08:757,0,0.183215,-6.49302,87.6487
2023-03-10 21:41:08:767,0,0.181172,-6.48205,87.6453
2023-03-10 21:41:08:777,0,0.17831,-6.4678,87.6429
2023-03-10 21:41:08:787,0,0.172946,-6.45231,87.6361
2023-03-10 21:41:08:797,0,0.162865,-6.44114,87.6319
2023-03-10 21:41:08:807,0,0.154533,-6.43683,87.6297
2023-03-10 21:41:08:817,0,0.143884,-6.43152,87.6368
2023-03-10 21:41:08:827,0,0.133436,-6.43089,87.6483
2023-03-10 21:41:08:837,0,0.126057,-6.43039,87.6598
2023-03-10 21:41:08:847,0,0.120336,-6.42799,87.6704
2023-03-10 21:41:08:857,0,0.121045,-6.42407,87.6808
2023-03-10 21:41:08:867,0,0.12384,-6.42109,87.6867
2023-03-10 21:41:08:877,0,0.130057,-6.41883,87.6947
2023-03-10 21:41:08:887,0,0.141068,-6.41899,87.701
2023-03-10 21:41:08:897,0,0.146777,-6.41814,87.7076
2023-03-10 21:41:08:907,0,0.153988,-6.41686,87.7108
2023-03-10 21:41:08:917,0,0.164837,-6.41308,87.7169
2023-03-10 21:41:08:927,0,0.175946,-6.40426,87.7206
2023-03-10 21:41:08:937,0,0.187737,-6.39553,87.7205
2023-03-10 21:41:08:947,0,0.198873,-6.38811,87.7193
2023-03-10 21:41:08:957,0,0.200046,-6.37797,87.7198
2023-03-10 21:41:08:967,0,0.199571,-6.36885,87.7205
2023-03-10 21:41:08:977,0,0.197367,-6.36117,87.7249
2023-03-10 21:41:08:987,0,0.186036,-6.35536,87.73
2023-03-10 21:41:08:997,0,0.171866,-6.35193,87.7405
2023-03-10 21:41:09:7,0,0.152009,-6.34971,87.7597
2023-03-10 21:41:09:17,0,0.116991,-6.353,87.7906
2023-03-10 21:41:09:27,0,0.0766039,-6.35545,87.8284
2023-03-10 21:41:09:37,0,0.0398924,-6.36147,87.8742
2023-03-10 21:41:09:47,0,0.00769289,-6.36726,87.9208
2023-03-10 21:41:09:57,0,-0.0162987,-6.37362,87.9636
2023-03-10 21:41:09:67,0,-0.0333138,-6.37976,88.003
2023-03-10 21:41:09:77,0,-0.0472658,-6.38882,88.0394
2023-03-10 21:41:09:87,0,-0.0527625,-6.39507,88.0679
2023-03-10 21:41:09:97,0,-0.0485937,-6.39105,88.0837
2023-03-10 21:41:09:107,0,-0.0391366,-6.39049,88.0984
2023-03-10 21:41:09:117,0,-0.0274162,-6.38493,88.1087
2023-03-10 21:41:09:127,0,-0.0130602,-6.37169,88.1129
2023-03-10 21:41:09:137,0,0.00274428,-6.34963,88.1132
2023-03-10 21:41:09:147,0,0.0165557,-6.32573,88.1083
2023-03-10 21:41:09:157,0,0.0209579,-6.29477,88.11
2023-03-10 21:41:09:167,0,0.0201074,-6.26424,88.1144
2023-03-10 21:41:09:177,0,0.0114378,-6.23682,88.1216
2023-03-10 21:41:09:187,0,3.12879e-05,-6.21293,88.1352
2023-03-10 21:41:09:197,0,-0.0156559,-6.1908,88.1557
2023-03-10 21:41:09:207,0,-0.0277447,-6.16649,88.1802
2023-03-10 21:41:09:217,0,-0.0347423,-6.14673,88.2074
2023-03-10 21:41:09:227,0,-0.0354287,-6.1301,88.2354
2023-03-10 21:41:09:237,0,-0.0350609,-6.11685,88.2674
2023-03-10 21:41:09:247,0,-0.0423614,-6.10964,88.3115
2023-03-10 21:41:09:257,0,-0.0569093,-6.11044,88.3658
2023-03-10 21:41:09:267,0,-0.0788099,-6.12007,88.4248
2023-03-10 21:41:09:277,0,-0.105304,-6.13656,88.4916
2023-03-10 21:41:09:287,0,-0.132313,-6.15505,88.5554
2023-03-10 21:41:09:297,0,-0.163363,-6.17219,88.6192
2023-03-10 21:41:09:307,0,-0.191362,-6.18996,88.681
2023-03-10 21:41:09:317,0,-0.215663,-6.20367,88.7375
2023-03-10 21:41:09:327,0,-0.235653,-6.22176,88.798
2023-03-10 21:41:09:337,0,-0.256489,-6.2431,88.8588
2023-03-10 21:41:09:347,0,-0.273351,-6.26707,88.9221
2023-03-10 21:41:09:357,0,-0.29118,-6.28489,88.9856
2023-03-10 21:41:09:367,0,-0.299552,-6.29769,89.0439
2023-03-10 21:41:09:377,0,-0.306842,-6.30388,89.0966
2023-03-10 21:41:09:387,0,-0.31585,-6.3011,89.1426
2023-03-10 21:41:09:397,0,-0.332329,-6.29582,89.1894
2023-03-10 21:41:09:407,0,-0.351144,-6.2899,89.2333
2023-03-10 21:41:09:417,0,-0.368259,-6.28383,89.2777
2023-03-10 21:41:09:427,0,-0.382822,-6.27393,89.3166
2023-03-10 21:41:09:437,0,-0.398139,-6.26044,89.3491
2023-03-10 21:41:09:447,0,-0.411459,-6.247,89.3778
2023-03-10 21:41:09:457,0,-0.425115,-6.23222,89.4027
2023-03-10 21:41:09:467,0,-0.438021,-6.21852,89.4227
2023-03-10 21:41:09:477,0,-0.453319,-6.20761,89.4411
2023-03-10 21:41:09:487,0,-0.470252,-6.19828,89.4579
2023-03-10 21:41:09:497,0,-0.488351,-6.19586,89.4761
2023-03-10 21:41:09:507,0,-0.514659,-6.19976,89.495
2023-03-10 21:41:09:517,0,-0.543063,-6.20621,89.5187
2023-03-10 21:41:09:527,0,-0.577799,-6.2177,89.539
2023-03-10 21:41:09:537,0,-0.610342,-6.23,89.5618
2023-03-10 21:41:09:547,0,-0.637847,-6.24047,89.5777
2023-03-10 21:41:09:557,0,-0.661708,-6.25139,89.5899
2023-03-10 21:41:09:567,0,-0.681911,-6.26559,89.6
2023-03-10 21:41:09:577,0,-0.703231,-6.28106,89.6141
2023-03-10 21:41:09:587,0,-0.720485,-6.29362,89.622
2023-03-10 21:41:09:597,0,-0.737619,-6.30353,89.6321
2023-03-10 21:41:09:607,0,-0.750444,-6.30472,89.64
2023-03-10 21:41:09:617,0,-0.755068,-6.29421,89.646
2023-03-10 21:41:09:627,0,-0.742355,-6.27461,89.6455
2023-03-10 21:41:09:637,0,-0.72564,-6.24178,89.6449
2023-03-10 21:41:09:647,0,-0.710602,-6.20346,89.6508
2023-03-10 21:41:09:657,0,-0.706175,-6.17024,89.6704
2023-03-10 21:41:09:667,0,-0.711772,-6.13682,89.7032
2023-03-10 21:41:09:677,0,-0.718263,-6.11109,89.7402
2023-03-10 21:41:09:687,0,-0.723171,-6.08906,89.781
2023-03-10 21:41:09:697,0,-0.720138,-6.06847,89.8209
2023-03-10 21:41:09:707,0,-0.710772,-6.04721,89.8492
2023-03-10 21:41:09:717,0,-0.698121,-6.02836,89.8679
2023-03-10 21:41:09:727,0,-0.683228,-6.00903,89.881
2023-03-10 21:41:09:737,0,-0.674325,-6.00497,89.8922
2023-03-10 21:41:09:747,0,-0.671276,-6.01513,89.9081
2023-03-10 21:41:09:757,0,-0.674261,-6.03609,89.9254
2023-03-10 21:41:09:767,0,-0.674137,-6.06606,89.9459
2023-03-10 21:41:09:777,0,-0.671645,-6.10354,89.9611
2023-03-10 21:41:09:787,0,-0.665915,-6.14537,89.9688
2023-03-10 21:41:09:797,0,-0.648258,-6.18748,89.97
2023-03-10 21:41:09:807,0,-0.624325,-6.22674,89.958
2023-03-10 21:41:09:817,0,-0.594334,-6.26473,89.9387
2023-03-10 21:41:09:827,0,-0.555131,-6.30381,89.916
2023-03-10 21:41:09:837,0,-0.508216,-6.34347,89.8919
2023-03-10 21:41:09:847,0,-0.450904,-6.38467,89.8662
2023-03-10 21:41:09:857,0,-0.38346,-6.42546,89.8369
2023-03-10 21:41:09:867,0,-0.314891,-6.45838,89.8025
2023-03-10 21:41:09:877,0,-0.23489,-6.46925,89.7653
2023-03-10 21:41:09:887,0,-0.145709,-6.48018,89.7252
2023-03-10 21:41:09:897,0,-0.0548896,-6.50132,89.679
2023-03-10 21:41:09:907,0,0.0250819,-6.52567,89.6351
2023-03-10 21:41:09:917,0,0.0915159,-6.54585,89.6018
2023-03-10 21:41:09:927,0,0.149057,-6.55298,89.5769
2023-03-10 21:41:09:937,0,0.205818,-6.54067,89.5539
2023-03-10 21:41:09:947,0,0.263767,-6.51634,89.5375
2023-03-10 21:41:09:957,0,0.307341,-6.49261,89.5302
2023-03-10 21:41:09:967,0,0.328009,-6.47196,89.5365
2023-03-10 21:41:09:977,0,0.328599,-6.456,89.5582
2023-03-10 21:41:09:987,0,0.302876,-6.44809,89.5942
2023-03-10 21:41:09:997,0,0.263938,-6.44099,89.6373
2023-03-10 21:41:10:7,0,0.222685,-6.43312,89.6894
2023-03-10 21:41:10:17,0,0.175145,-6.43071,89.7454
2023-03-10 21:41:10:27,0,0.121848,-6.42837,89.7989
2023-03-10 21:41:10:37,0,0.0651865,-6.42351,89.8494
2023-03-10 21:41:10:47,0,0.0114526,-6.42216,89.8971
2023-03-10 21:41:10:57,0,-0.0353228,-6.42043,89.9371
2023-03-10 21:41:10:67,0,-0.0779189,-6.42365,89.9766
2023-03-10 21:41:10:77,0,-0.117259,-6.43003,90.0063
2023-03-10 21:41:10:87,0,-0.147754,-6.43432,90.0291
2023-03-10 21:41:10:97,0,-0.168559,-6.44514,90.0481
2023-03-10 21:41:10:107,0,-0.181251,-6.46278,90.0711
2023-03-10 21:41:10:117,0,-0.19086,-6.47987,90.0917
2023-03-10 21:41:10:127,0,-0.199969,-6.49344,90.1163
2023-03-10 21:41:10:137,0,-0.205079,-6.50501,90.1382
2023-03-10 21:41:10:147,0,-0.204173,-6.51571,90.1588
2023-03-10 21:41:10:157,0,-0.193156,-6.51526,90.173
2023-03-10 21:41:10:167,0,-0.172493,-6.50976,90.1816
2023-03-10 21:41:10:177,0,-0.148691,-6.5073,90.192
2023-03-10 21:41:10:187,0,-0.119691,-6.50239,90.1998
2023-03-10 21:41:10:197,0,-0.0836602,-6.50067,90.2055
2023-03-10 21:41:10:207,0,-0.0408281,-6.49158,90.2069
2023-03-10 21:41:10:217,0,0.00658367,-6.47482,90.201
2023-03-10 21:41:10:227,0,0.0574533,-6.45708,90.1897
2023-03-10 21:41:10:237,0,0.107232,-6.44127,90.1696
2023-03-10 21:41:10:247,0,0.150381,-6.41785,90.1471
2023-03-10 21:41:10:257,0,0.182759,-6.39475,90.1254
2023-03-10 21:41:10:267,0,0.211006,-6.36896,90.1035
2023-03-10 21:41:10:277,0,0.230665,-6.34875,90.083
2023-03-10 21:41:10:287,0,0.243115,-6.32816,90.0648
2023-03-10 21:41:10:297,0,0.25235,-6.30777,90.0417
2023-03-10 21:41:10:307,0,0.262781,-6.28929,90.0227
2023-03-10 21:41:10:317,0,0.271513,-6.27217,90.0016
2023-03-10 21:41:10:327,0,0.286438,-6.26012,89.9729
2023-03-10 21:41:10:337,0,0.304634,-6.25459,89.9424
2023-03-10 21:41:10:347,0,0.31868,-6.25703,89.9196
2023-03-10 21:41:10:357,0,0.334631,-6.25978,89.8972
2023-03-10 21:41:10:367,0,0.350576,-6.26659,89.8716
2023-03-10 21:41:10:377,0,0.365704,-6.26613,89.8461
2023-03-10 21:41:10:387,0,0.378376,-6.26654,89.8265
2023-03-10 21:41:10:397,0,0.392554,-6.26708,89.8094
2023-03-10 21:41:10:407,0,0.404279,-6.26786,89.7968
2023-03-10 21:41:10:417,0,0.418567,-6.26814,89.7923
2023-03-10 21:41:10:427,0,0.431923,-6.26729,89.7938
2023-03-10 21:41:10:437,0,0.448709,-6.25869,89.7963
2023-03-10 21:41:10:447,0,0.470333,-6.24945,89.8
2023-03-10 21:41:10:457,0,0.485678,-6.24309,89.8041
2023-03-10 21:41:10:467,0,0.503687,-6.2429,89.8101
2023-03-10 21:41:10:477,0,0.516545,-6.24067,89.8133
2023-03-10 21:41:10:487,0,0.532279,-6.24077,89.8143
2023-03-10 21:41:10:497,0,0.547147,-6.24437,89.8077
2023-03-10 21:41:10:507,0,0.5607,-6.248,89.7978
2023-03-10 21:41:10:517,0,0.57,-6.24992,89.7871
2023-03-10 21:41:10:527,0,0.58343,-6.25293,89.7683
2023-03-10 21:41:10:537,0,0.596221,-6.26024,89.7483
2023-03-10 21:41:10:547,0,0.611363,-6.26421,89.7336
2023-03-10 21:41:10:557,0,0.627347,-6.26846,89.7232
2023-03-10 21:41:10:567,0,0.644678,-6.27708,89.7183
2023-03-10 21:41:10:577,0,0.659779,-6.28308,89.7194
2023-03-10 21:41:10:587,0,0.669369,-6.2861,89.7273
2023-03-10 21:41:10:597,0,0.679468,-6.29294,89.7373
2023-03-10 21:41:10:607,0,0.69072,-6.29092,89.7495
2023-03-10 21:41:10:617,0,0.703478,-6.29607,89.7592
2023-03-10 21:41:10:627,0,0.713427,-6.30663,89.7641
2023-03-10 21:41:10:637,0,0.715618,-6.33106,89.7689
2023-03-10 21:41:10:647,0,0.709313,-6.35673,89.771
2023-03-10 21:41:10:657,0,0.709418,-6.38166,89.771
2023-03-10 21:41:10:667,0,0.708892,-6.41015,89.7642
2023-03-10 21:41:10:677,0,0.71328,-6.43746,89.7589
2023-03-10 21:41:10:687,0,0.7155,-6.458,89.7491
2023-03-10 21:41:10:697,0,0.715848,-6.47666,89.7409
2023-03-10 21:41:10:707,0,0.716512,-6.49446,89.7318
2023-03-10 21:41:10:717,0,0.714,-6.5058,89.7254
2023-03-10 21:41:10:727,0,0.712217,-6.51611,89.7213
2023-03-10 21:41:10:737,0,0.710902,-6.52295,89.7173
2023-03-10 21:41:10:747,0,0.713935,-6.52586,89.7141
2023-03-10 21:41:10:757,0,0.71903,-6.53172,89.7178
2023-03-10 21:41:10:767,0,0.723453,-6.5347,89.7221
2023-03-10 21:41:10:777,0,0.729148,-6.53842,89.7249
2023-03-10 21:41:10:787,0,0.742357,-6.54374,89.7329
2023-03-10 21:41:10:797,0,0.756357,-6.54526,89.7366
2023-03-10 21:41:10:807,0,0.771489,-6.54564,89.7401
2023-03-10 21:41:10:817,0,0.787106,-6.54519,89.7456
2023-03-10 21:41:10:827,0,0.800082,-6.54573,89.7436
2023-03-10 21:41:10:837,0,0.811226,-6.54314,89.7409
2023-03-10 21:41:10:847,0,0.822767,-6.53913,89.7384
2023-03-10 21:41:10:857,0,0.836002,-6.53487,89.7305
2023-03-10 21:41:10:867,0,0.845439,-6.52701,89.728
2023-03-10 21:41:10:877,0,0.851219,-6.52693,89.7263
2023-03-10 21:41:10:887,0,0.857262,-6.52972,89.7264
2023-03-10 21:41:10:897,0,0.862166,-6.53447,89.7243
2023-03-10 21:41:10:907,0,0.869117,-6.54023,89.7285
2023-03-10 21:41:10:917,0,0.872748,-6.54929,89.7321
2023-03-10 21:41:10:927,0,0.878668,-6.56086,89.732
2023-03-10 21:41:10:937,0,0.884868,-6.5747,89.7309
2023-03-10 21:41:10:947,0,0.886068,-6.58785,89.7225
2023-03-10 21:41:10:957,0,0.887711,-6.59602,89.7093
2023-03-10 21:41:10:967,0,0.891221,-6.59964,89.6927
2023-03-10 21:41:10:977,0,0.903582,-6.59591,89.664
2023-03-10 21:41:10:987,0,0.9167,-6.59256,89.6325
2023-03-10 21:41:10:997,0,0.931772,-6.5908,89.6009
2023-03-10 21:41:11:7,0,0.942993,-6.59715,89.573
2023-03-10 21:41:11:17,0,0.94882,-6.60486,89.5493
2023-03-10 21:41:11:27,0,0.945506,-6.61316,89.5269
2023-03-10 21:41:11:37,0,0.943276,-6.62085,89.5096
2023-03-10 21:41:11:47,0,0.9402,-6.62811,89.4947
2023-03-10 21:41:11:57,0,0.940697,-6.6309,89.4853
2023-03-10 21:41:11:67,0,0.942013,-6.62926,89.4818
2023-03-10 21:41:11:77,0,0.941746,-6.62628,89.4849
2023-03-10 21:41:11:87,0,0.946644,-6.62448,89.4987
2023-03-10 21:41:11:97,0,0.950916,-6.61813,89.5204
2023-03-10 21:41:11:107,0,0.950394,-6.60787,89.5443
2023-03-10 21:41:11:117,0,0.949982,-6.58501,89.5691
2023-03-10 21:41:11:126,0,0.950546,-6.56734,89.5875
2023-03-10 21:41:11:137,0,0.953533,-6.54953,89.601
2023-03-10 21:41:11:147,0,0.954343,-6.54188,89.6169
2023-03-10 21:41:11:157,0,0.956176,-6.53572,89.6275
2023-03-10 21:41:11:167,0,0.959031,-6.53416,89.6431
2023-03-10 21:41:11:177,0,0.962043,-6.53263,89.6575
2023-03-10 21:41:11:187,0,0.962671,-6.53612,89.6701
2023-03-10 21:41:11:197,0,0.9646,-6.53677,89.6859
2023-03-10 21:41:11:207,0,0.972767,-6.54092,89.7033
2023-03-10 21:41:11:217,0,0.97875,-6.54644,89.7155
2023-03-10 21:41:11:227,0,0.983294,-6.55664,89.7267
2023-03-10 21:41:11:237,0,0.987121,-6.56698,89.7383
2023-03-10 21:41:11:247,0,0.992029,-6.58075,89.7505
2023-03-10 21:41:11:257,0,0.999446,-6.5976,89.7584
2023-03-10 21:41:11:267,0,1.01058,-6.61564,89.7676
2023-03-10 21:41:11:277,0,1.02096,-6.63361,89.7715
2023-03-10 21:41:11:287,0,1.03268,-6.6492,89.7745
2023-03-10 21:41:11:297,0,1.04581,-6.66358,89.7735
2023-03-10 21:41:11:307,0,1.06015,-6.67671,89.7701
2023-03-10 21:41:11:317,0,1.06933,-6.68707,89.7658
2023-03-10 21:41:11:327,0,1.07469,-6.69631,89.7632
2023-03-10 21:41:11:337,0,1.07998,-6.70856,89.7647
2023-03-10 21:41:11:347,0,1.07963,-6.71295,89.7703
2023-03-10 21:41:11:357,0,1.07979,-6.71412,89.7748
2023-03-10 21:41:11:367,0,1.07981,-6.71444,89.7781
2023-03-10 21:41:11:377,0,1.07642,-6.71086,89.7817
2023-03-10 21:41:11:387,0,1.07545,-6.70508,89.7854
2023-03-10 21:41:11:397,0,1.0752,-6.69975,89.7883
2023-03-10 21:41:11:407,0,1.07823,-6.69491,89.7929
2023-03-10 21:41:11:417,0,1.08337,-6.69117,89.7902
2023-03-10 21:41:11:427,0,1.08936,-6.69041,89.7885
2023-03-10 21:41:11:437,0,1.08859,-6.68549,89.788
2023-03-10 21:41:11:447,0,1.09706,-6.68207,89.7862
2023-03-10 21:41:11:457,0,1.10393,-6.68324,89.7882
2023-03-10 21:41:11:467,0,1.11063,-6.68098,89.7874
2023-03-10 21:41:11:477,0,1.12139,-6.67282,89.7831
2023-03-10 21:41:11:487,0,1.13568,-6.66604,89.7753
2023-03-10 21:41:11:497,0,1.1439,-6.65865,89.7675
2023-03-10 21:41:11:507,0,1.15565,-6.65157,89.7577
2023-03-10 21:41:11:517,0,1.16022,-6.64418,89.7481
2023-03-10 21:41:11:527,0,1.15905,-6.64071,89.7422
2023-03-10 21:41:11:537,0,1.15716,-6.63715,89.7372
2023-03-10 21:41:11:547,0,1.15544,-6.63139,89.7307
2023-03-10 21:41:11:557,0,1.1546,-6.62608,89.7275
2023-03-10 21:41:11:567,0,1.15349,-6.62389,89.7266
2023-03-10 21:41:11:577,0,1.15439,-6.6227,89.724
2023-03-10 21:41:11:587,0,1.15747,-6.61976,89.7222
2023-03-10 21:41:11:597,0,1.16182,-6.60915,89.7165
2023-03-10 21:41:11:607,0,1.16916,-6.5985,89.7103
2023-03-10 21:41:11:617,0,1.17667,-6.58496,89.6995
2023-03-10 21:41:11:627,0,1.17707,-6.57193,89.6898
2023-03-10 21:41:11:637,0,1.17755,-6.56168,89.6787
2023-03-10 21:41:11:647,0,1.17801,-6.55264,89.671
2023-03-10 21:41:11:657,0,1.1755,-6.54471,89.6643
2023-03-10 21:41:11:667,0,1.17102,-6.53749,89.6531
2023-03-10 21:41:11:677,0,1.1714,-6.53246,89.643
2023-03-10 21:41:11:687,0,1.17224,-6.53259,89.6316
2023-03-10 21:41:11:697,0,1.1759,-6.53495,89.6246
2023-03-10 21:41:11:707,0,1.17518,-6.5351,89.621
2023-03-10 21:41:11:717,0,1.17283,-6.53746,89.6188
2023-03-10 21:41:11:727,0,1.16722,-6.53688,89.6138
2023-03-10 21:41:11:737,0,1.16098,-6.53491,89.61
2023-03-10 21:41:11:747,0,1.14763,-6.53458,89.6094
2023-03-10 21:41:11:757,0,1.1319,-6.53708,89.6108
2023-03-10 21:41:11:767,0,1.12083,-6.54084,89.6186
2023-03-10 21:41:11:777,0,1.10767,-6.54415,89.623
2023-03-10 21:41:11:787,0,1.09084,-6.54774,89.6248
2023-03-10 21:41:11:797,0,1.07478,-6.54827,89.622
2023-03-10 21:41:11:807,0,1.05507,-6.54653,89.6226
2023-03-10 21:41:11:817,0,1.03177,-6.54697,89.624
2023-03-10 21:41:11:827,0,1.00704,-6.54685,89.6218
2023-03-10 21:41:11:837,0,0.988786,-6.54373,89.6158
2023-03-10 21:41:11:847,0,0.971242,-6.54091,89.6089
2023-03-10 21:41:11:857,0,0.953015,-6.53739,89.5986
2023-03-10 21:41:11:867,0,0.93803,-6.53332,89.5826
2023-03-10 21:41:11:877,0,0.923885,-6.52928,89.5666
2023-03-10 21:41:11:887,0,0.907953,-6.52808,89.5516
2023-03-10 21:41:11:897,0,0.893404,-6.52156,89.5325
2023-03-10 21:41:11:907,0,0.881552,-6.51047,89.5149
2023-03-10 21:41:11:917,0,0.872567,-6.49856,89.4937
2023-03-10 21:41:11:927,0,0.865716,-6.49522,89.4771
2023-03-10 21:41:11:937,0,0.856984,-6.49106,89.4653
2023-03-10 21:41:11:947,0,0.850085,-6.48996,89.4561
2023-03-10 21:41:11:957,0,0.83983,-6.48634,89.4477
2023-03-10 21:41:11:967,0,0.828689,-6.48277,89.4433
2023-03-10 21:41:11:977,0,0.818202,-6.47501,89.4391
2023-03-10 21:41:11:987,0,0.812445,-6.46822,89.4354
2023-03-10 21:41:11:997,0,0.812903,-6.46279,89.4302
2023-03-10 21:41:12:7,0,0.811732,-6.45986,89.4271
2023-03-10 21:41:12:17,0,0.810621,-6.45775,89.4187
2023-03-10 21:41:12:27,0,0.806041,-6.4581,89.4119
2023-03-10 21:41:12:37,0,0.802243,-6.45972,89.4028
2023-03-10 21:41:12:47,0,0.799067,-6.46181,89.3896
2023-03-10 21:41:12:57,0,0.796588,-6.46685,89.3743
2023-03-10 21:41:12:67,0,0.792783,-6.47167,89.3548
