Timestamp_cmd,imu_cmd,roll_delta,pitch_delta,yaw_delta,voice_type,voice_length
2023-03-15 21:56:04:686,0,-2.65081,-4.81403,-24.1407,Q,Q
2023-03-15 21:56:04:694,0,-2.6286,-4.80836,-24.1428,Q,Q
2023-03-15 21:56:04:705,0,-2.60785,-4.802,-24.1381,Q,Q
2023-03-15 21:56:04:715,0,-2.58654,-4.79522,-24.1279,Q,Q
2023-03-15 21:56:04:725,0,-2.56301,-4.78824,-24.1168,Q,Q
2023-03-15 21:56:04:735,0,-2.53944,-4.78252,-24.1041,Q,Q
2023-03-15 21:56:04:745,0,-2.52134,-4.77673,-24.0875,Q,Q
2023-03-15 21:56:04:755,0,-2.50418,-4.77448,-24.0691,Q,Q
2023-03-15 21:56:04:765,0,-2.48749,-4.76933,-24.0534,Q,Q
2023-03-15 21:56:04:775,0,-2.47554,-4.76707,-24.0365,Q,Q
2023-03-15 21:56:04:785,0,-2.46592,-4.76688,-24.0152,Q,Q
2023-03-15 21:56:04:795,0,-2.46233,-4.76747,-23.9949,Q,Q
2023-03-15 21:56:04:805,0,-2.46205,-4.77157,-23.9739,Q,Q
2023-03-15 21:56:04:815,0,-2.46322,-4.77322,-23.9557,Q,Q
2023-03-15 21:56:04:825,0,-2.46782,-4.77823,-23.9363,Q,Q
2023-03-15 21:56:04:835,0,-2.47499,-4.78839,-23.9185,Q,Q
2023-03-15 21:56:04:845,0,-2.48091,-4.79486,-23.9081,Q,Q
2023-03-15 21:56:04:855,0,-2.49044,-4.80129,-23.898,Q,Q
2023-03-15 21:56:04:865,0,-2.49627,-4.80745,-23.8914,Q,Q
2023-03-15 21:56:04:875,0,-2.50333,-4.81195,-23.8868,Q,Q
2023-03-15 21:56:04:885,0,-2.50988,-4.81783,-23.8809,Q,Q
2023-03-15 21:56:04:895,0,-2.51871,-4.82418,-23.8781,Q,Q
2023-03-15 21:56:04:905,0,-2.52315,-4.82476,-23.8784,Q,Q
2023-03-15 21:56:04:915,0,-2.52632,-4.82836,-23.8794,Q,Q
2023-03-15 21:56:04:925,0,-2.52417,-4.82959,-23.8817,Q,Q
2023-03-15 21:56:04:935,0,-2.5243,-4.83293,-23.8835,Q,Q
2023-03-15 21:56:04:945,0,-2.51981,-4.83425,-23.8882,Q,Q
2023-03-15 21:56:04:955,0,-2.51215,-4.83445,-23.8945,Q,Q
2023-03-15 21:56:04:965,0,-2.50618,-4.83395,-23.9038,Q,Q
2023-03-15 21:56:04:975,0,-2.49898,-4.83297,-23.9136,Q,Q
2023-03-15 21:56:04:985,0,-2.48808,-4.83219,-23.9254,Q,Q
2023-03-15 21:56:04:995,0,-2.47367,-4.83558,-23.9384,Q,Q
2023-03-15 21:56:05:5,0,-2.46187,-4.84443,-23.9488,Q,Q
2023-03-15 21:56:05:15,0,-2.45393,-4.85485,-23.9587,Q,Q
2023-03-15 21:56:05:25,0,-2.44729,-4.87159,-23.9709,Q,Q
2023-03-15 21:56:05:35,0,-2.44682,-4.88291,-23.9801,Q,Q
2023-03-15 21:56:05:45,0,-2.45627,-4.89838,-23.9894,Q,Q
2023-03-15 21:56:05:55,0,-2.46732,-4.91006,-23.9995,Q,Q
2023-03-15 21:56:05:65,0,-2.48056,-4.92003,-24.0071,Q,Q
2023-03-15 21:56:05:75,0,-2.495,-4.92883,-24.0122,Q,Q
2023-03-15 21:56:05:85,0,-2.51286,-4.93553,-24.0129,Q,Q
2023-03-15 21:56:05:95,0,-2.52743,-4.93977,-24.0114,Q,Q
2023-03-15 21:56:05:105,0,-2.54558,-4.94814,-24.0109,Q,Q
2023-03-15 21:56:05:115,0,-2.56472,-4.95637,-24.0096,Q,Q
2023-03-15 21:56:05:125,0,-2.57936,-4.96144,-24.0098,Q,Q
2023-03-15 21:56:05:135,0,-2.5889,-4.96598,-24.0103,Q,Q
2023-03-15 21:56:05:145,0,-2.59927,-4.969,-24.0096,Q,Q
2023-03-15 21:56:05:155,0,-2.60596,-4.97235,-24.0073,Q,Q
2023-03-15 21:56:05:165,0,-2.61373,-4.97442,-24.0084,Q,Q
2023-03-15 21:56:05:175,0,-2.61427,-4.9745,-24.0109,Q,Q
2023-03-15 21:56:05:185,0,-2.61775,-4.98046,-24.014,Q,Q
2023-03-15 21:56:05:195,0,-2.62229,-4.98247,-24.0135,Q,Q
2023-03-15 21:56:05:204,0,-2.62368,-4.98565,-24.0138,Q,Q
2023-03-15 21:56:05:214,0,-2.6255,-4.98341,-24.0136,Q,Q
2023-03-15 21:56:05:224,0,-2.62766,-4.9889,-24.0124,Q,Q
2023-03-15 21:56:05:235,0,-2.63324,-4.99352,-24.0112,Q,Q
2023-03-15 21:56:05:244,0,-2.63766,-4.99995,-24.012,Q,Q
2023-03-15 21:56:05:254,0,-2.64243,-5.00861,-24.014,Q,Q
2023-03-15 21:56:05:264,0,-2.65106,-5.01915,-24.016,Q,Q
2023-03-15 21:56:05:274,0,-2.6666,-5.02593,-24.0142,Q,Q
2023-03-15 21:56:05:284,0,-2.69238,-5.02883,-24.0133,Q,Q
2023-03-15 21:56:05:294,0,-2.72535,-5.02998,-24.0072,Q,Q
2023-03-15 21:56:05:304,0,-2.75675,-5.03017,-24.0029,Q,Q
2023-03-15 21:56:05:314,0,-2.78788,-5.0348,-24.001,Q,Q
2023-03-15 21:56:05:324,0,-2.81834,-5.03685,-23.9962,Q,Q
2023-03-15 21:56:05:334,0,-2.84464,-5.03818,-23.9873,Q,Q
2023-03-15 21:56:05:344,0,-2.86885,-5.04042,-23.9789,Q,Q
2023-03-15 21:56:05:355,0,-2.88812,-5.04651,-23.9712,Q,Q
2023-03-15 21:56:05:365,0,-2.90248,-5.05263,-23.9605,Q,Q
2023-03-15 21:56:05:374,0,-2.91894,-5.05498,-23.9494,Q,Q
2023-03-15 21:56:05:385,0,-2.93158,-5.0617,-23.9368,Q,Q
2023-03-15 21:56:05:394,0,-2.93572,-5.06698,-23.926,Q,Q
2023-03-15 21:56:05:405,0,-2.93666,-5.0786,-23.9175,Q,Q
2023-03-15 21:56:05:415,0,-2.93655,-5.08467,-23.9091,Q,Q
2023-03-15 21:56:05:425,0,-2.93462,-5.08872,-23.9014,Q,Q
2023-03-15 21:56:05:435,0,-2.93724,-5.09532,-23.8932,Q,Q
2023-03-15 21:56:05:445,0,-2.93282,-5.10234,-23.8873,Q,Q
2023-03-15 21:56:05:455,0,-2.93426,-5.11127,-23.8834,Q,Q
2023-03-15 21:56:05:464,0,-2.93691,-5.11861,-23.881,Q,Q
2023-03-15 21:56:05:475,0,-2.93896,-5.12796,-23.8815,Q,Q
2023-03-15 21:56:05:485,0,-2.93855,-5.14078,-23.8837,Q,Q
2023-03-15 21:56:05:495,0,-2.9394,-5.15175,-23.8879,Q,Q
2023-03-15 21:56:05:505,0,-2.94016,-5.16298,-23.8946,Q,Q
2023-03-15 21:56:05:515,0,-2.94126,-5.17427,-23.8985,Q,Q
2023-03-15 21:56:05:525,0,-2.93549,-5.18457,-23.9009,Q,Q
2023-03-15 21:56:05:535,0,-2.93022,-5.19026,-23.906,Q,Q
2023-03-15 21:56:05:545,0,-2.928,-5.19238,-23.9055,Q,Q
2023-03-15 21:56:05:555,0,-2.92774,-5.19556,-23.9058,Q,Q
2023-03-15 21:56:05:565,0,-2.9287,-5.19803,-23.9058,Q,Q
2023-03-15 21:56:05:575,0,-2.93017,-5.19901,-23.902,Q,Q
2023-03-15 21:56:05:585,0,-2.93126,-5.1982,-23.9,Q,Q
2023-03-15 21:56:05:595,0,-2.93183,-5.20154,-23.8916,Q,Q
2023-03-15 21:56:05:605,0,-2.93109,-5.2038,-23.8858,Q,Q
2023-03-15 21:56:05:615,0,-2.92775,-5.20612,-23.8795,Q,Q
2023-03-15 21:56:05:625,0,-2.92723,-5.20732,-23.8743,Q,Q
2023-03-15 21:56:05:635,0,-2.91907,-5.20841,-23.8699,Q,Q
2023-03-15 21:56:05:645,0,-2.91218,-5.20832,-23.8679,Q,Q
2023-03-15 21:56:05:655,0,-2.90416,-5.21315,-23.8675,Q,Q
2023-03-15 21:56:05:665,0,-2.89883,-5.22105,-23.8661,Q,Q
2023-03-15 21:56:05:675,0,-2.89477,-5.2352,-23.865,Q,Q
2023-03-15 21:56:05:685,0,-2.89023,-5.25495,-23.8615,Q,Q
2023-03-15 21:56:05:695,0,-2.89267,-5.27806,-23.8591,Q,Q
2023-03-15 21:56:05:705,0,-2.89896,-5.29932,-23.8559,Q,Q
2023-03-15 21:56:05:715,0,-2.91087,-5.32132,-23.8533,Q,Q
2023-03-15 21:56:05:725,0,-2.92819,-5.33885,-23.852,Q,Q
2023-03-15 21:56:05:735,0,-2.94328,-5.35909,-23.8485,Q,Q
2023-03-15 21:56:05:745,0,-2.96144,-5.37748,-23.8433,Q,Q
2023-03-15 21:56:05:755,0,-2.9796,-5.39441,-23.8375,Q,Q
2023-03-15 21:56:05:765,0,-2.99809,-5.4065,-23.8288,Q,Q
2023-03-15 21:56:05:775,0,-3.02079,-5.4235,-23.8242,Q,Q
2023-03-15 21:56:05:785,0,-3.04888,-5.43676,-23.8195,Q,Q
2023-03-15 21:56:05:795,0,-3.07811,-5.449,-23.8161,Q,Q
2023-03-15 21:56:05:805,0,-3.10451,-5.45993,-23.8164,Q,Q
2023-03-15 21:56:05:815,0,-3.12612,-5.46712,-23.8178,Q,Q
2023-03-15 21:56:05:825,0,-3.14584,-5.47387,-23.8175,Q,Q
2023-03-15 21:56:05:835,0,-3.15965,-5.47935,-23.8237,Q,Q
2023-03-15 21:56:05:845,0,-3.17235,-5.48574,-23.8291,Q,Q
2023-03-15 21:56:05:855,0,-3.17956,-5.49616,-23.8351,Q,Q
2023-03-15 21:56:05:865,0,-3.18737,-5.50204,-23.8448,Q,Q
2023-03-15 21:56:05:875,0,-3.19411,-5.50795,-23.8598,Q,Q
2023-03-15 21:56:05:885,0,-3.20028,-5.51629,-23.8713,Q,Q
2023-03-15 21:56:05:895,0,-3.20182,-5.52486,-23.8836,Q,Q
2023-03-15 21:56:05:904,0,-3.20442,-5.52903,-23.8966,Q,Q
2023-03-15 21:56:05:915,0,-3.20306,-5.5385,-23.9098,Q,Q
2023-03-15 21:56:05:925,0,-3.19762,-5.54808,-23.9253,Q,Q
2023-03-15 21:56:05:935,0,-3.1869,-5.55544,-23.9368,Q,Q
2023-03-15 21:56:05:945,0,-3.17392,-5.5649,-23.9446,Q,Q
2023-03-15 21:56:05:955,0,-3.15755,-5.57125,-23.9519,Q,Q
2023-03-15 21:56:05:965,0,-3.14131,-5.57485,-23.9554,Q,Q
2023-03-15 21:56:05:975,0,-3.12478,-5.57991,-23.9567,Q,Q
2023-03-15 21:56:05:985,0,-3.10813,-5.58251,-23.9569,Q,Q
2023-03-15 21:56:05:995,0,-3.09162,-5.58261,-23.9521,Q,Q
2023-03-15 21:56:06:4,0,-3.07308,-5.58849,-23.9487,Q,Q
2023-03-15 21:56:06:14,0,-3.05321,-5.59489,-23.9429,Q,Q
2023-03-15 21:56:06:24,0,-3.03398,-5.59869,-23.9413,Q,Q
2023-03-15 21:56:06:34,0,-3.01057,-5.6018,-23.9419,Q,Q
2023-03-15 21:56:06:44,0,-2.985,-5.6029,-23.946,Q,Q
2023-03-15 21:56:06:54,0,-2.95834,-5.60574,-23.9499,Q,Q
2023-03-15 21:56:06:64,0,-2.92999,-5.60258,-23.9543,Q,Q
2023-03-15 21:56:06:74,0,-2.89908,-5.60271,-23.9594,Q,Q
2023-03-15 21:56:06:84,0,-2.86879,-5.60414,-23.9609,Q,Q
2023-03-15 21:56:06:94,0,-2.83895,-5.60727,-23.9661,Q,Q
2023-03-15 21:56:06:104,0,-2.80788,-5.60333,-23.9692,Q,Q
2023-03-15 21:56:06:114,0,-2.7773,-5.60167,-23.9706,Q,Q
2023-03-15 21:56:06:124,0,-2.75039,-5.59893,-23.9733,Q,Q
2023-03-15 21:56:06:134,0,-2.72699,-5.59476,-23.9735,Q,Q
2023-03-15 21:56:06:144,0,-2.70766,-5.59355,-23.9712,Q,Q
2023-03-15 21:56:06:155,0,-2.68571,-5.59169,-23.9698,Q,Q
2023-03-15 21:56:06:164,0,-2.66585,-5.59178,-23.9669,Q,Q
2023-03-15 21:56:06:174,0,-2.64782,-5.59092,-23.9646,Q,Q
2023-03-15 21:56:06:185,0,-2.63061,-5.58471,-23.9586,Q,Q
2023-03-15 21:56:06:194,0,-2.61497,-5.57975,-23.9554,Q,Q
2023-03-15 21:56:06:205,0,-2.59752,-5.57921,-23.9501,Q,Q
2023-03-15 21:56:06:214,0,-2.5898,-5.57654,-23.9443,Q,Q
2023-03-15 21:56:06:224,0,-2.57949,-5.57141,-23.9409,Q,Q
2023-03-15 21:56:06:234,0,-2.57282,-5.56427,-23.9346,Q,Q
2023-03-15 21:56:06:244,0,-2.56339,-5.55872,-23.9329,Q,Q
2023-03-15 21:56:06:255,0,-2.55637,-5.55041,-23.9271,Q,Q
2023-03-15 21:56:06:265,0,-2.54898,-5.54611,-23.9229,Q,Q
2023-03-15 21:56:06:275,0,-2.5407,-5.53862,-23.9175,Q,Q
2023-03-15 21:56:06:285,0,-2.53874,-5.52791,-23.916,Q,Q
2023-03-15 21:56:06:295,0,-2.53371,-5.51724,-23.9167,Q,Q
2023-03-15 21:56:06:305,0,-2.52686,-5.50378,-23.9177,Q,Q
2023-03-15 21:56:06:315,0,-2.52001,-5.48899,-23.9199,Q,Q
2023-03-15 21:56:06:325,0,-2.51063,-5.48164,-23.9193,Q,Q
2023-03-15 21:56:06:335,0,-2.50774,-5.47613,-23.9197,Q,Q
2023-03-15 21:56:06:345,0,-2.50357,-5.47956,-23.9206,Q,Q
2023-03-15 21:56:06:355,0,-2.50873,-5.47874,-23.9194,Q,Q
2023-03-15 21:56:06:365,0,-2.51719,-5.47959,-23.9192,Q,Q
2023-03-15 21:56:06:375,0,-2.53083,-5.4727,-23.9168,Q,Q
2023-03-15 21:56:06:385,0,-2.54509,-5.46735,-23.9168,Q,Q
2023-03-15 21:56:06:395,0,-2.56535,-5.46283,-23.9124,Q,Q
2023-03-15 21:56:06:405,0,-2.58738,-5.45827,-23.9052,Q,Q
2023-03-15 21:56:06:414,0,-2.60927,-5.45171,-23.9025,Q,Q
2023-03-15 21:56:06:424,0,-2.6323,-5.44081,-23.8978,Q,Q
2023-03-15 21:56:06:434,0,-2.64874,-5.43415,-23.8947,Q,Q
2023-03-15 21:56:06:444,0,-2.66402,-5.42197,-23.8959,Q,Q
2023-03-15 21:56:06:454,0,-2.67536,-5.40788,-23.896,Q,Q
2023-03-15 21:56:06:464,0,-2.68129,-5.39618,-23.8981,Q,Q
2023-03-15 21:56:06:474,0,-2.68454,-5.38422,-23.9042,Q,Q
2023-03-15 21:56:06:484,0,-2.68857,-5.3741,-23.9136,Q,Q
2023-03-15 21:56:06:494,0,-2.69078,-5.36434,-23.927,Q,Q
2023-03-15 21:56:06:504,0,-2.69139,-5.3545,-23.9385,Q,Q
2023-03-15 21:56:06:515,0,-2.69385,-5.34433,-23.9472,Q,Q
2023-03-15 21:56:06:525,0,-2.69688,-5.33247,-23.9602,Q,Q
2023-03-15 21:56:06:535,0,-2.69728,-5.3207,-23.9762,Q,Q
2023-03-15 21:56:06:545,0,-2.69426,-5.3107,-23.9918,Q,Q
2023-03-15 21:56:06:555,0,-2.69627,-5.30493,-24.0028,Q,Q
2023-03-15 21:56:06:565,0,-2.69478,-5.2994,-24.0159,Q,Q
2023-03-15 21:56:06:575,0,-2.69102,-5.29355,-24.0217,Q,Q
2023-03-15 21:56:06:585,0,-2.68431,-5.29012,-24.0264,Q,Q
2023-03-15 21:56:06:595,0,-2.6815,-5.28553,-24.0294,Q,Q
2023-03-15 21:56:06:605,0,-2.67917,-5.27703,-24.0314,Q,Q
2023-03-15 21:56:06:614,0,-2.67774,-5.26833,-24.0313,Q,Q
2023-03-15 21:56:06:624,0,-2.67229,-5.26337,-24.0301,Q,Q
2023-03-15 21:56:06:634,0,-2.66765,-5.25694,-24.0257,Q,Q
2023-03-15 21:56:06:644,0,-2.6628,-5.24799,-24.0189,Q,Q
2023-03-15 21:56:06:655,0,-2.66066,-5.23992,-24.0188,Q,Q
2023-03-15 21:56:06:664,0,-2.65681,-5.23468,-24.0184,Q,Q
2023-03-15 21:56:06:674,0,-2.64955,-5.22753,-24.0183,Q,Q
2023-03-15 21:56:06:684,0,-2.63596,-5.22442,-24.0185,Q,Q
2023-03-15 21:56:06:694,0,-2.62582,-5.2198,-24.0232,Q,Q
2023-03-15 21:56:06:704,0,-2.60753,-5.21829,-24.0259,Q,Q
2023-03-15 21:56:06:714,0,-2.58934,-5.21918,-24.0309,Q,Q
2023-03-15 21:56:06:724,0,-2.57159,-5.21814,-24.036,Q,Q
2023-03-15 21:56:06:734,0,-2.55123,-5.21651,-24.0398,Q,Q
2023-03-15 21:56:06:745,0,-2.53257,-5.21592,-24.0394,Q,Q
2023-03-15 21:56:06:755,0,-2.51658,-5.21428,-24.0368,Q,Q
2023-03-15 21:56:06:765,0,-2.50163,-5.21479,-24.0317,Q,Q
2023-03-15 21:56:06:775,0,-2.49247,-5.21556,-24.0277,Q,Q
2023-03-15 21:56:06:785,0,-2.48245,-5.21755,-24.0214,Q,Q
2023-03-15 21:56:06:795,0,-2.47522,-5.21512,-24.0146,Q,Q
2023-03-15 21:56:06:805,0,-2.46762,-5.21291,-24.0093,Q,Q
2023-03-15 21:56:06:815,0,-2.45807,-5.20782,-24.0026,Q,Q
2023-03-15 21:56:06:825,0,-2.45366,-5.20817,-23.9969,Q,Q
2023-03-15 21:56:06:835,0,-2.45187,-5.20983,-23.9905,Q,Q
2023-03-15 21:56:06:845,0,-2.45428,-5.21065,-23.9854,Q,Q
2023-03-15 21:56:06:855,0,-2.45613,-5.21111,-23.9785,Q,Q
2023-03-15 21:56:06:865,0,-2.46257,-5.21068,-23.9704,Q,Q
2023-03-15 21:56:06:875,0,-2.46655,-5.21174,-23.9676,Q,Q
2023-03-15 21:56:06:885,0,-2.47814,-5.21165,-23.9637,Q,Q
2023-03-15 21:56:06:895,0,-2.49224,-5.21221,-23.9613,Q,Q
2023-03-15 21:56:06:905,0,-2.50703,-5.21624,-23.9596,Q,Q
2023-03-15 21:56:06:915,0,-2.52331,-5.21661,-23.9625,Q,Q
2023-03-15 21:56:06:925,0,-2.53813,-5.21558,-23.9646,Q,Q
2023-03-15 21:56:06:935,0,-2.55369,-5.21362,-23.9644,Q,Q
2023-03-15 21:56:06:945,0,-2.56844,-5.2135,-23.9703,Q,Q
2023-03-15 21:56:06:955,0,-2.57821,-5.21055,-23.9751,Q,Q
2023-03-15 21:56:06:965,0,-2.58855,-5.20406,-23.9765,Q,Q
2023-03-15 21:56:06:975,0,-2.59965,-5.19436,-23.9798,Q,Q
2023-03-15 21:56:06:985,0,-2.60449,-5.1853,-23.9838,Q,Q
2023-03-15 21:56:06:995,0,-2.60926,-5.17749,-23.987,Q,Q
2023-03-15 21:56:07:5,0,-2.61031,-5.16944,-23.9891,Q,Q
2023-03-15 21:56:07:15,0,-2.61265,-5.16244,-23.9863,Q,Q
2023-03-15 21:56:07:25,0,-2.61591,-5.15547,-23.9855,Q,Q
2023-03-15 21:56:07:35,0,-2.62038,-5.14481,-23.9891,Q,Q
2023-03-15 21:56:07:45,0,-2.6237,-5.131,-23.9905,Q,Q
2023-03-15 21:56:07:55,0,-2.62628,-5.12419,-23.9991,Q,Q
2023-03-15 21:56:07:65,0,-2.63024,-5.11838,-24.0035,Q,Q
2023-03-15 21:56:07:75,0,-2.63629,-5.11209,-24.0064,Q,Q
2023-03-15 21:56:07:85,0,-2.64264,-5.10416,-24.0076,Q,Q
2023-03-15 21:56:07:95,0,-2.65057,-5.09495,-24.0103,Q,Q
2023-03-15 21:56:07:105,0,-2.66258,-5.08935,-24.0114,Q,Q
2023-03-15 21:56:07:115,0,-2.68494,-5.08282,-24.011,Q,Q
2023-03-15 21:56:07:125,0,-2.70761,-5.0757,-24.0111,Q,Q
2023-03-15 21:56:07:135,0,-2.73745,-5.06933,-24.0076,Q,Q
2023-03-15 21:56:07:145,0,-2.77032,-5.0653,-24.0026,Q,Q
2023-03-15 21:56:07:155,0,-2.80336,-5.0611,-23.9991,Q,Q
2023-03-15 21:56:07:165,0,-2.83553,-5.05945,-23.9941,Q,Q
2023-03-15 21:56:07:175,0,-2.86382,-5.05789,-23.9889,Q,Q
2023-03-15 21:56:07:185,0,-2.89136,-5.05281,-23.9865,Q,Q
2023-03-15 21:56:07:195,0,-2.91389,-5.0487,-23.9826,Q,Q
2023-03-15 21:56:07:205,0,-2.93402,-5.04686,-23.9753,Q,Q
2023-03-15 21:56:07:215,0,-2.94964,-5.04451,-23.9688,Q,Q
2023-03-15 21:56:07:225,0,-2.96162,-5.04494,-23.959,Q,Q
2023-03-15 21:56:07:235,0,-2.97298,-5.0471,-23.9527,Q,Q
2023-03-15 21:56:07:245,0,-2.98512,-5.0498,-23.9443,Q,Q
2023-03-15 21:56:07:255,0,-2.99979,-5.0526,-23.9354,Q,Q
2023-03-15 21:56:07:265,0,-3.01326,-5.05688,-23.9301,Q,Q
2023-03-15 21:56:07:275,0,-3.02684,-5.06033,-23.9251,Q,Q
2023-03-15 21:56:07:285,0,-3.03889,-5.06365,-23.919,Q,Q
2023-03-15 21:56:07:295,0,-3.04901,-5.07242,-23.9144,Q,Q
2023-03-15 21:56:07:305,0,-3.05511,-5.07922,-23.9136,Q,Q
2023-03-15 21:56:07:315,0,-3.05856,-5.08538,-23.9148,Q,Q
2023-03-15 21:56:07:325,0,-3.06302,-5.08804,-23.9144,Q,Q
2023-03-15 21:56:07:335,0,-3.06504,-5.09292,-23.9201,Q,Q
2023-03-15 21:56:07:345,0,-3.0654,-5.09604,-23.9281,Q,Q
2023-03-15 21:56:07:355,0,-3.06705,-5.09414,-23.9379,Q,Q
2023-03-15 21:56:07:365,0,-3.06413,-5.09473,-23.9478,Q,Q
2023-03-15 21:56:07:375,0,-3.06224,-5.09053,-23.9602,Q,Q
2023-03-15 21:56:07:385,0,-3.05717,-5.08784,-23.975,Q,Q
2023-03-15 21:56:07:395,0,-3.05674,-5.08521,-23.9944,Q,Q
2023-03-15 21:56:07:405,0,-3.05558,-5.08122,-24.0095,Q,Q
2023-03-15 21:56:07:415,0,-3.04995,-5.08161,-24.0285,Q,Q
2023-03-15 21:56:07:425,0,-3.04711,-5.08126,-24.0484,Q,Q
2023-03-15 21:56:07:435,0,-3.04509,-5.08079,-24.0679,Q,Q
2023-03-15 21:56:07:445,0,-3.04134,-5.08056,-24.0851,Q,Q
2023-03-15 21:56:07:455,0,-3.03716,-5.0844,-24.0992,Q,Q
2023-03-15 21:56:07:465,0,-3.03264,-5.08502,-24.1074,Q,Q
2023-03-15 21:56:07:475,0,-3.02812,-5.0907,-24.112,Q,Q
2023-03-15 21:56:07:485,0,-3.0238,-5.10025,-24.1141,Q,Q
2023-03-15 21:56:07:495,0,-3.0179,-5.10938,-24.1139,Q,Q
2023-03-15 21:56:07:505,0,-3.01371,-5.11674,-24.1025,Q,Q
2023-03-15 21:56:07:515,0,-3.01082,-5.12454,-24.0884,Q,Q
2023-03-15 21:56:07:525,0,-3.01001,-5.13452,-24.0708,Q,Q
2023-03-15 21:56:07:535,0,-3.00867,-5.14442,-24.0539,Q,Q
2023-03-15 21:56:07:545,0,-3.00771,-5.15422,-24.038,Q,Q
2023-03-15 21:56:07:555,0,-3.00918,-5.16596,-24.0182,Q,Q
2023-03-15 21:56:07:565,0,-3.0134,-5.1777,-23.9948,Q,Q
2023-03-15 21:56:07:575,0,-3.01688,-5.19043,-23.9782,Q,Q
2023-03-15 21:56:07:585,0,-3.0192,-5.20181,-23.9651,Q,Q
2023-03-15 21:56:07:595,0,-3.02197,-5.21449,-23.9506,Q,Q
2023-03-15 21:56:07:605,0,-3.0254,-5.22543,-23.9383,Q,Q
2023-03-15 21:56:07:615,0,-3.0284,-5.23646,-23.931,Q,Q
2023-03-15 21:56:07:625,0,-3.0325,-5.24603,-23.9254,Q,Q
2023-03-15 21:56:07:635,0,-3.03563,-5.25625,-23.9219,Q,Q
2023-03-15 21:56:07:645,0,-3.04254,-5.26654,-23.9191,Q,Q
2023-03-15 21:56:07:655,0,-3.04445,-5.27331,-23.9168,Q,Q
2023-03-15 21:56:07:665,0,-3.04603,-5.2804,-23.9157,Q,Q
2023-03-15 21:56:07:675,0,-3.04485,-5.28416,-23.9172,Q,Q
2023-03-15 21:56:07:685,0,-3.04205,-5.28493,-23.9168,Q,Q
2023-03-15 21:56:07:695,0,-3.03199,-5.28134,-23.915,Q,Q
2023-03-15 21:56:07:705,0,-3.02405,-5.27808,-23.9144,Q,Q
2023-03-15 21:56:07:715,0,-3.00827,-5.27546,-23.9149,Q,Q
2023-03-15 21:56:07:725,0,-2.99049,-5.27111,-23.9123,Q,Q
2023-03-15 21:56:07:735,0,-2.97042,-5.26673,-23.9085,Q,Q
2023-03-15 21:56:07:745,0,-2.94825,-5.26023,-23.9116,Q,Q
2023-03-15 21:56:07:755,0,-2.92605,-5.25164,-23.915,Q,Q
2023-03-15 21:56:07:765,0,-2.90184,-5.2423,-23.9174,Q,Q
2023-03-15 21:56:07:775,0,-2.8795,-5.23484,-23.925,Q,Q
2023-03-15 21:56:07:785,0,-2.85612,-5.23224,-23.9314,Q,Q
2023-03-15 21:56:07:795,0,-2.83557,-5.23543,-23.9373,Q,Q
2023-03-15 21:56:07:805,0,-2.82469,-5.24445,-23.944,Q,Q
2023-03-15 21:56:07:815,0,-2.82257,-5.25525,-23.9481,Q,Q
2023-03-15 21:56:07:825,0,-2.83067,-5.26628,-23.9572,Q,Q
2023-03-15 21:56:07:835,0,-2.84291,-5.28221,-23.9638,Q,Q
2023-03-15 21:56:07:845,0,-2.86126,-5.29538,-23.9627,Q,Q
2023-03-15 21:56:07:855,0,-2.87908,-5.30911,-23.9643,Q,Q
2023-03-15 21:56:07:865,0,-2.89854,-5.32034,-23.9595,Q,Q
2023-03-15 21:56:07:875,0,-2.91792,-5.32747,-23.953,Q,Q
2023-03-15 21:56:07:885,0,-2.93402,-5.33214,-23.9423,Q,Q
2023-03-15 21:56:07:895,0,-2.94615,-5.33427,-23.933,Q,Q
2023-03-15 21:56:07:905,0,-2.95826,-5.33507,-23.925,Q,Q
2023-03-15 21:56:07:915,0,-2.96299,-5.33371,-23.9137,Q,Q
2023-03-15 21:56:07:925,0,-2.9665,-5.32821,-23.9047,Q,Q
2023-03-15 21:56:07:935,0,-2.96624,-5.32369,-23.8967,Q,Q
2023-03-15 21:56:07:945,0,-2.9605,-5.32134,-23.892,Q,Q
2023-03-15 21:56:07:955,0,-2.95541,-5.32151,-23.8923,Q,Q
2023-03-15 21:56:07:965,0,-2.94624,-5.32488,-23.8927,Q,Q
2023-03-15 21:56:07:975,0,-2.93853,-5.32843,-23.8976,Q,Q
2023-03-15 21:56:07:985,0,-2.93156,-5.32943,-23.9073,Q,Q
2023-03-15 21:56:07:995,0,-2.91957,-5.33003,-23.9185,Q,Q
2023-03-15 21:56:08:5,0,-2.91152,-5.32676,-23.9319,Q,Q
2023-03-15 21:56:08:15,0,-2.90345,-5.31877,-23.9473,Q,Q
2023-03-15 21:56:08:25,0,-2.89847,-5.31457,-23.9645,Q,Q
2023-03-15 21:56:08:35,0,-2.89607,-5.30907,-23.9791,Q,Q
2023-03-15 21:56:08:45,0,-2.89508,-5.30429,-23.9932,Q,Q
2023-03-15 21:56:08:55,0,-2.89323,-5.29786,-24.0062,Q,Q
2023-03-15 21:56:08:65,0,-2.89872,-5.28871,-24.0223,Q,Q
2023-03-15 21:56:08:75,0,-2.90406,-5.27902,-24.0381,Q,Q
2023-03-15 21:56:08:85,0,-2.90963,-5.26574,-24.0471,Q,Q
2023-03-15 21:56:08:95,0,-2.9151,-5.25511,-24.055,Q,Q
2023-03-15 21:56:08:105,0,-2.92196,-5.24394,-24.0658,Q,Q
2023-03-15 21:56:08:115,0,-2.9274,-5.2323,-24.0731,Q,Q
2023-03-15 21:56:08:125,0,-2.92801,-5.22776,-24.0801,Q,Q
2023-03-15 21:56:08:135,0,-2.92958,-5.22105,-24.0847,Q,Q
2023-03-15 21:56:08:145,0,-2.92984,-5.21854,-24.0905,Q,Q
2023-03-15 21:56:08:155,0,-2.92332,-5.21857,-24.0958,Q,Q
2023-03-15 21:56:08:165,0,-2.91619,-5.21965,-24.0957,Q,Q
2023-03-15 21:56:08:175,0,-2.90975,-5.22162,-24.0964,Q,Q
2023-03-15 21:56:08:185,0,-2.90401,-5.22567,-24.0937,Q,Q
2023-03-15 21:56:08:195,0,-2.89675,-5.23203,-24.087,Q,Q
2023-03-15 21:56:08:205,0,-2.8876,-5.23938,-24.0775,Q,Q
2023-03-15 21:56:08:215,0,-2.87751,-5.2498,-24.0648,Q,Q
2023-03-15 21:56:08:225,0,-2.867,-5.25911,-24.053,Q,Q
2023-03-15 21:56:08:235,0,-2.85747,-5.27007,-24.0377,Q,Q
2023-03-15 21:56:08:245,0,-2.8523,-5.28025,-24.0219,Q,Q
2023-03-15 21:56:08:255,0,-2.84881,-5.28608,-24.0084,Q,Q
2023-03-15 21:56:08:265,0,-2.84625,-5.29836,-23.9947,Q,Q
2023-03-15 21:56:08:275,0,-2.84451,-5.30881,-23.9816,Q,Q
2023-03-15 21:56:08:285,0,-2.84284,-5.31663,-23.9713,Q,Q
2023-03-15 21:56:08:295,0,-2.83668,-5.32233,-23.9649,Q,Q
2023-03-15 21:56:08:305,0,-2.82906,-5.32824,-23.961,Q,Q
2023-03-15 21:56:08:315,0,-2.82413,-5.33615,-23.9556,Q,Q
2023-03-15 21:56:08:325,0,-2.81914,-5.34762,-23.958,Q,Q
2023-03-15 21:56:08:335,0,-2.81692,-5.35823,-23.9579,Q,Q
2023-03-15 21:56:08:345,0,-2.81996,-5.3694,-23.9616,Q,Q
2023-03-15 21:56:08:355,0,-2.82617,-5.38107,-23.9666,Q,Q
2023-03-15 21:56:08:365,0,-2.83472,-5.39062,-23.9681,Q,Q
2023-03-15 21:56:08:375,0,-2.8514,-5.40139,-23.9669,Q,Q
2023-03-15 21:56:08:385,0,-2.86507,-5.41359,-23.9673,Q,Q
2023-03-15 21:56:08:395,0,-2.88633,-5.42453,-23.9643,Q,Q
2023-03-15 21:56:08:405,0,-2.90478,-5.43441,-23.9574,Q,Q
2023-03-15 21:56:08:415,0,-2.92262,-5.44141,-23.9502,Q,Q
2023-03-15 21:56:08:425,0,-2.9443,-5.45097,-23.9417,Q,Q
2023-03-15 21:56:08:435,0,-2.9637,-5.4572,-23.9344,Q,Q
2023-03-15 21:56:08:445,0,-2.98656,-5.46868,-23.9282,Q,Q
2023-03-15 21:56:08:455,0,-3.00834,-5.47475,-23.9226,Q,Q
2023-03-15 21:56:08:464,0,-3.0293,-5.48365,-23.9221,Q,Q
2023-03-15 21:56:08:474,0,-3.04926,-5.48927,-23.9226,Q,Q
2023-03-15 21:56:08:484,0,-3.06528,-5.49349,-23.9257,Q,Q
2023-03-15 21:56:08:494,0,-3.07794,-5.49718,-23.9309,Q,Q
2023-03-15 21:56:08:504,0,-3.08462,-5.49426,-23.938,Q,Q
2023-03-15 21:56:08:514,0,-3.09063,-5.4936,-23.9468,Q,Q
2023-03-15 21:56:08:524,0,-3.08958,-5.48578,-23.9581,Q,Q
2023-03-15 21:56:08:535,0,-3.07694,-5.47704,-23.9722,Q,Q
2023-03-15 21:56:08:545,0,-3.0592,-5.4731,-23.9865,Q,Q
2023-03-15 21:56:08:554,0,-3.0337,-5.46386,-24.0019,Q,Q
2023-03-15 21:56:08:565,0,-3.00699,-5.45389,-24.0151,Q,Q
2023-03-15 21:56:08:575,0,-2.97743,-5.4455,-24.0334,Q,Q
2023-03-15 21:56:08:585,0,-2.94621,-5.43559,-24.0543,Q,Q
2023-03-15 21:56:08:595,0,-2.92046,-5.42511,-24.0734,Q,Q
2023-03-15 21:56:08:605,0,-2.89508,-5.41995,-24.086,Q,Q
2023-03-15 21:56:08:615,0,-2.87944,-5.4195,-24.1032,Q,Q
2023-03-15 21:56:08:625,0,-2.87162,-5.42433,-24.1158,Q,Q
2023-03-15 21:56:08:635,0,-2.87271,-5.42834,-24.125,Q,Q
2023-03-15 21:56:08:645,0,-2.88101,-5.43158,-24.1299,Q,Q
2023-03-15 21:56:08:655,0,-2.89621,-5.43622,-24.132,Q,Q
2023-03-15 21:56:08:665,0,-2.91696,-5.4426,-24.1305,Q,Q
2023-03-15 21:56:08:675,0,-2.94452,-5.44768,-24.1278,Q,Q
2023-03-15 21:56:08:685,0,-2.96892,-5.45257,-24.1263,Q,Q
2023-03-15 21:56:08:695,0,-3.00023,-5.45581,-24.1224,Q,Q
2023-03-15 21:56:08:705,0,-3.03395,-5.45752,-24.1207,Q,Q
2023-03-15 21:56:08:715,0,-3.06263,-5.4546,-24.1248,Q,Q
2023-03-15 21:56:08:725,0,-3.08919,-5.45205,-24.127,Q,Q
2023-03-15 21:56:08:735,0,-3.11588,-5.4524,-24.1289,Q,Q
2023-03-15 21:56:08:745,0,-3.14124,-5.45512,-24.1338,Q,Q
2023-03-15 21:56:08:755,0,-3.16153,-5.457,-24.1443,Q,Q
2023-03-15 21:56:08:765,0,-3.17891,-5.45995,-24.1537,Q,Q
2023-03-15 21:56:08:775,0,-3.18793,-5.46236,-24.1648,Q,Q
2023-03-15 21:56:08:785,0,-3.19276,-5.46377,-24.1791,Q,Q
2023-03-15 21:56:08:795,0,-3.19369,-5.46415,-24.1958,Q,Q
2023-03-15 21:56:08:805,0,-3.1885,-5.46206,-24.2102,Q,Q
2023-03-15 21:56:08:814,0,-3.18502,-5.45773,-24.2229,Q,Q
2023-03-15 21:56:08:824,0,-3.18226,-5.45252,-24.2339,Q,Q
2023-03-15 21:56:08:834,0,-3.18073,-5.44468,-24.2428,Q,Q
2023-03-15 21:56:08:844,0,-3.17418,-5.43354,-24.2496,Q,Q
2023-03-15 21:56:08:854,0,-3.16888,-5.42044,-24.2509,Q,Q
2023-03-15 21:56:08:864,0,-3.1648,-5.4132,-24.251,Q,Q
2023-03-15 21:56:08:874,0,-3.16093,-5.40608,-24.2482,Q,Q
2023-03-15 21:56:08:884,0,-3.16168,-5.39653,-24.2474,Q,Q
2023-03-15 21:56:08:894,0,-3.17052,-5.39007,-24.2469,Q,Q
2023-03-15 21:56:08:904,0,-3.18062,-5.38625,-24.2444,Q,Q
2023-03-15 21:56:08:914,0,-3.18983,-5.37728,-24.2462,Q,Q
2023-03-15 21:56:08:924,0,-3.19859,-5.36903,-24.2493,Q,Q
2023-03-15 21:56:08:934,0,-3.20652,-5.36176,-24.2591,Q,Q
2023-03-15 21:56:08:944,0,-3.21414,-5.35536,-24.2673,Q,Q
2023-03-15 21:56:08:954,0,-3.22112,-5.34983,-24.277,Q,Q
2023-03-15 21:56:08:964,0,-3.22593,-5.34307,-24.2903,Q,Q
2023-03-15 21:56:08:974,0,-3.22765,-5.33824,-24.304,Q,Q
2023-03-15 21:56:08:984,0,-3.22911,-5.33378,-24.3173,Q,Q
2023-03-15 21:56:08:994,0,-3.23083,-5.33176,-24.3345,Q,Q
2023-03-15 21:56:09:4,0,-3.23166,-5.33344,-24.3538,Q,Q
2023-03-15 21:56:09:14,0,-3.2366,-5.33302,-24.3691,Q,Q
2023-03-15 21:56:09:24,0,-3.24212,-5.32962,-24.3832,Q,Q
2023-03-15 21:56:09:34,0,-3.25139,-5.32856,-24.398,Q,Q
2023-03-15 21:56:09:45,0,-3.26116,-5.32684,-24.41,Q,Q
2023-03-15 21:56:09:55,0,-3.26362,-5.32865,-24.4184,Q,Q
2023-03-15 21:56:09:64,0,-3.27275,-5.32881,-24.4249,Q,Q
2023-03-15 21:56:09:75,0,-3.27872,-5.32537,-24.4289,Q,Q
2023-03-15 21:56:09:85,0,-3.28567,-5.32228,-24.4289,Q,Q
2023-03-15 21:56:09:95,0,-3.29266,-5.32472,-24.4292,Q,Q
2023-03-15 21:56:09:105,0,-3.29996,-5.32506,-24.4294,Q,Q
2023-03-15 21:56:09:115,0,-3.30551,-5.32623,-24.4277,Q,Q
2023-03-15 21:56:09:125,0,-3.31432,-5.32802,-24.4282,Q,Q
2023-03-15 21:56:09:135,0,-3.31733,-5.32812,-24.427,Q,Q
2023-03-15 21:56:09:145,0,-3.32419,-5.3315,-24.4261,Q,Q
2023-03-15 21:56:09:155,0,-3.3265,-5.33554,-24.4232,Q,Q
2023-03-15 21:56:09:165,0,-3.33141,-5.34062,-24.4209,Q,Q
2023-03-15 21:56:09:175,0,-3.33801,-5.34747,-24.4209,Q,Q
2023-03-15 21:56:09:185,0,-3.34115,-5.35287,-24.4206,Q,Q
2023-03-15 21:56:09:195,0,-3.34305,-5.3552,-24.4172,Q,Q
2023-03-15 21:56:09:205,0,-3.3445,-5.355,-24.4156,Q,Q
2023-03-15 21:56:09:215,0,-3.34914,-5.35794,-24.4123,Q,Q
2023-03-15 21:56:09:225,0,-3.34883,-5.36044,-24.4089,Q,Q
2023-03-15 21:56:09:235,0,-3.34388,-5.36226,-24.4045,Q,Q
2023-03-15 21:56:09:245,0,-3.34255,-5.36103,-24.4008,Q,Q
2023-03-15 21:56:09:255,0,-3.33684,-5.36077,-24.3966,Q,Q
2023-03-15 21:56:09:264,0,-3.32821,-5.35982,-24.3916,Q,Q
2023-03-15 21:56:09:274,0,-3.32427,-5.35992,-24.3889,Q,Q
2023-03-15 21:56:09:285,0,-3.31651,-5.35693,-24.3858,Q,Q
2023-03-15 21:56:09:295,0,-3.31237,-5.3591,-24.388,Q,Q
2023-03-15 21:56:09:305,0,-3.3057,-5.36263,-24.3932,Q,Q
2023-03-15 21:56:09:315,0,-3.29973,-5.36354,-24.4004,Q,Q
2023-03-15 21:56:09:325,0,-3.29127,-5.36167,-24.4113,Q,Q
2023-03-15 21:56:09:335,0,-3.2813,-5.35691,-24.4233,Q,Q
2023-03-15 21:56:09:345,0,-3.26681,-5.34946,-24.4346,Q,Q
2023-03-15 21:56:09:355,0,-3.24993,-5.34572,-24.4471,Q,Q
2023-03-15 21:56:09:365,0,-3.2276,-5.33629,-24.4577,Q,Q
2023-03-15 21:56:09:375,0,-3.19657,-5.33391,-24.4666,Q,Q
2023-03-15 21:56:09:385,0,-3.15178,-5.3319,-24.465,Q,Q
2023-03-15 21:56:09:395,0,-3.09599,-5.33087,-24.4577,Q,Q
2023-03-15 21:56:09:405,0,-3.04365,-5.33132,-24.4444,Q,Q
2023-03-15 21:56:09:415,0,-2.98606,-5.3295,-24.4319,Q,Q
2023-03-15 21:56:09:425,0,-2.93549,-5.32478,-24.4228,Q,Q
2023-03-15 21:56:09:435,0,-2.90039,-5.31801,-24.4152,Q,Q
2023-03-15 21:56:09:445,0,-2.88201,-5.3071,-24.4211,Q,Q
2023-03-15 21:56:09:455,0,-2.87919,-5.29369,-24.4431,Q,Q
2023-03-15 21:56:09:465,0,-2.89186,-5.28482,-24.4798,Q,Q
2023-03-15 21:56:09:475,0,-2.91579,-5.27842,-24.5312,Q,Q
2023-03-15 21:56:09:485,0,-2.94452,-5.27687,-24.5995,Q,Q
2023-03-15 21:56:09:495,0,-2.96829,-5.28252,-24.682,Q,Q
2023-03-15 21:56:09:505,0,-2.98171,-5.29147,-24.7764,Q,Q
2023-03-15 21:56:09:515,0,-2.98657,-5.30549,-24.8793,Q,Q
2023-03-15 21:56:09:525,0,-2.98028,-5.32233,-24.9832,Q,Q
2023-03-15 21:56:09:535,0,-2.96708,-5.34266,-25.0872,Q,Q
2023-03-15 21:56:09:545,0,-2.95047,-5.36549,-25.1868,Q,Q
2023-03-15 21:56:09:555,0,-2.92787,-5.38986,-25.2864,Q,Q
2023-03-15 21:56:09:565,0,-2.9103,-5.41344,-25.378,Q,Q
2023-03-15 21:56:09:575,0,-2.8916,-5.44039,-25.4643,Q,Q
2023-03-15 21:56:09:585,0,-2.87706,-5.46839,-25.5414,Q,Q
2023-03-15 21:56:09:595,0,-2.86999,-5.49844,-25.6119,Q,Q
2023-03-15 21:56:09:605,0,-2.86193,-5.53381,-25.6736,Q,Q
2023-03-15 21:56:09:615,0,-2.84935,-5.5657,-25.7317,Q,Q
2023-03-15 21:56:09:625,0,-2.83607,-5.59674,-25.7813,Q,Q
2023-03-15 21:56:09:635,0,-2.81385,-5.62999,-25.8312,Q,Q
2023-03-15 21:56:09:645,0,-2.7743,-5.65847,-25.8748,Q,Q
2023-03-15 21:56:09:655,0,-2.72022,-5.68111,-25.9176,Q,Q
2023-03-15 21:56:09:665,0,-2.65421,-5.69187,-25.962,Q,Q
2023-03-15 21:56:09:675,0,-2.57472,-5.69442,-26.006,Q,Q
2023-03-15 21:56:09:685,0,-2.48824,-5.68816,-26.0483,Q,Q
2023-03-15 21:56:09:695,0,-2.39712,-5.67455,-26.1009,Q,Q
2023-03-15 21:56:09:705,0,-2.30932,-5.6576,-26.158,Q,Q
2023-03-15 21:56:09:715,0,-2.22646,-5.63697,-26.2164,Q,Q
2023-03-15 21:56:09:725,0,-2.15337,-5.61597,-26.2806,Q,Q
2023-03-15 21:56:09:735,0,-2.09035,-5.59968,-26.3489,Q,Q
2023-03-15 21:56:09:745,0,-2.03554,-5.5958,-26.4169,Q,Q
2023-03-15 21:56:09:755,0,-1.98721,-5.59749,-26.4915,Q,Q
2023-03-15 21:56:09:765,0,-1.93919,-5.60144,-26.5651,Q,Q
2023-03-15 21:56:09:775,0,-1.89314,-5.61338,-26.6379,Q,Q
2023-03-15 21:56:09:785,0,-1.85153,-5.6278,-26.7111,Q,Q
2023-03-15 21:56:09:795,0,-1.80398,-5.64463,-26.7784,Q,Q
2023-03-15 21:56:09:805,0,-1.75519,-5.66693,-26.8385,Q,Q
2023-03-15 21:56:09:815,0,-1.7029,-5.69027,-26.8952,Q,Q
2023-03-15 21:56:09:825,0,-1.65243,-5.71141,-26.9427,Q,Q
2023-03-15 21:56:09:834,0,-1.60422,-5.73221,-26.9852,Q,Q
2023-03-15 21:56:09:844,0,-1.55348,-5.75169,-27.0198,Q,Q
2023-03-15 21:56:09:854,0,-1.50006,-5.77039,-27.0445,Q,Q
2023-03-15 21:56:09:864,0,-1.44925,-5.78754,-27.0602,Q,Q
2023-03-15 21:56:09:875,0,-1.39073,-5.80179,-27.0673,Q,Q
2023-03-15 21:56:09:885,0,-1.33384,-5.80889,-27.0682,Q,Q
2023-03-15 21:56:09:895,0,-1.27923,-5.8088,-27.0565,Q,Q
2023-03-15 21:56:09:905,0,-1.22512,-5.81139,-27.0404,Q,Q
2023-03-15 21:56:09:915,0,-1.17631,-5.81428,-27.0111,Q,Q
2023-03-15 21:56:09:925,0,-1.13083,-5.82032,-26.9696,Q,Q
2023-03-15 21:56:09:935,0,-1.09458,-5.82207,-26.9171,Q,Q
2023-03-15 21:56:09:945,0,-1.06232,-5.82063,-26.8555,Q,Q
2023-03-15 21:56:09:955,0,-1.03807,-5.80974,-26.7859,Q,Q
2023-03-15 21:56:09:965,0,-1.01762,-5.79328,-26.7069,Q,Q
2023-03-15 21:56:09:975,0,-0.991058,-5.77376,-26.6135,Q,Q
2023-03-15 21:56:09:985,0,-0.963701,-5.75404,-26.5039,Q,Q
2023-03-15 21:56:09:995,0,-0.932547,-5.74833,-26.3737,Q,Q
2023-03-15 21:56:10:5,0,-0.901123,-5.75937,-26.2243,Q,Q
2023-03-15 21:56:10:15,0,-0.872061,-5.79647,-26.0638,Q,Q
2023-03-15 21:56:10:25,0,-0.842178,-5.84837,-25.888,Q,Q
2023-03-15 21:56:10:35,0,-0.827792,-5.90491,-25.7014,Q,Q
2023-03-15 21:56:10:45,0,-0.817214,-5.96318,-25.5241,Q,Q
2023-03-15 21:56:10:55,0,-0.812253,-6.0153,-25.3511,Q,Q
2023-03-15 21:56:10:65,0,-0.811714,-6.04606,-25.1947,Q,Q
2023-03-15 21:56:10:75,0,-0.810928,-6.06008,-25.0621,Q,Q
2023-03-15 21:56:10:85,0,-0.804499,-6.06387,-24.9509,Q,Q
2023-03-15 21:56:10:95,0,-0.789338,-6.06709,-24.8646,Q,Q
2023-03-15 21:56:10:105,0,-0.771902,-6.07752,-24.8002,Q,Q
2023-03-15 21:56:10:115,0,-0.75231,-6.10617,-24.7554,Q,Q
2023-03-15 21:56:10:125,0,-0.738874,-6.1508,-24.728,Q,Q
2023-03-15 21:56:10:135,0,-0.733958,-6.20899,-24.7172,Q,Q
2023-03-15 21:56:10:145,0,-0.747256,-6.26787,-24.7225,Q,Q
2023-03-15 21:56:10:155,0,-0.7837,-6.32869,-24.745,Q,Q
2023-03-15 21:56:10:165,0,-0.845442,-6.38736,-24.7813,Q,Q
2023-03-15 21:56:10:175,0,-0.932025,-6.43815,-24.8194,Q,Q
2023-03-15 21:56:10:185,0,-1.039,-6.48376,-24.8655,Q,Q
2023-03-15 21:56:10:195,0,-1.16074,-6.52935,-24.9105,Q,Q
2023-03-15 21:56:10:204,0,-1.29088,-6.5677,-24.9457,Q,Q
2023-03-15 21:56:10:215,0,-1.42784,-6.60254,-24.9796,Q,Q
2023-03-15 21:56:10:225,0,-1.55671,-6.6368,-25.0052,Q,Q
2023-03-15 21:56:10:235,0,-1.67424,-6.66902,-25.0218,Q,Q
2023-03-15 21:56:10:245,0,-1.77816,-6.698,-25.0317,Q,Q
2023-03-15 21:56:10:255,0,-1.86229,-6.7175,-25.0331,Q,Q
2023-03-15 21:56:10:265,0,-1.93172,-6.73048,-25.028,Q,Q
2023-03-15 21:56:10:275,0,-1.98036,-6.73719,-25.0181,Q,Q
2023-03-15 21:56:10:285,0,-2.00886,-6.7379,-25.0016,Q,Q
2023-03-15 21:56:10:295,0,-2.02519,-6.73233,-24.9812,Q,Q
2023-03-15 21:56:10:305,0,-2.02798,-6.71898,-24.9643,Q,Q
2023-03-15 21:56:10:315,0,-2.02026,-6.70163,-24.9476,Q,Q
2023-03-15 21:56:10:325,0,-2.01108,-6.68603,-24.9245,Q,Q
2023-03-15 21:56:10:335,0,-2.00064,-6.67062,-24.9022,Q,Q
2023-03-15 21:56:10:345,0,-1.99652,-6.65765,-24.8854,Q,Q
2023-03-15 21:56:10:355,0,-1.99989,-6.64475,-24.8703,Q,Q
2023-03-15 21:56:10:365,0,-2.01,-6.63149,-24.8562,Q,Q
2023-03-15 21:56:10:375,0,-2.03413,-6.61886,-24.8437,Q,Q
2023-03-15 21:56:10:385,0,-2.06402,-6.60486,-24.8338,Q,Q
2023-03-15 21:56:10:395,0,-2.10269,-6.59121,-24.8253,Q,Q
2023-03-15 21:56:10:405,0,-2.14686,-6.57954,-24.8134,Q,Q
2023-03-15 21:56:10:415,0,-2.1954,-6.56689,-24.8018,Q,Q
2023-03-15 21:56:10:425,0,-2.24099,-6.55327,-24.7908,Q,Q
2023-03-15 21:56:10:435,0,-2.27962,-6.54842,-24.7808,Q,Q
2023-03-15 21:56:10:445,0,-2.31676,-6.54355,-24.7773,Q,Q
2023-03-15 21:56:10:455,0,-2.34174,-6.53814,-24.7761,Q,Q
2023-03-15 21:56:10:465,0,-2.35232,-6.53318,-24.7798,Q,Q
2023-03-15 21:56:10:475,0,-2.34712,-6.52984,-24.7875,Q,Q
2023-03-15 21:56:10:485,0,-2.32631,-6.52774,-24.7958,Q,Q
2023-03-15 21:56:10:495,0,-2.29014,-6.52743,-24.7982,Q,Q
2023-03-15 21:56:10:505,0,-2.24496,-6.52663,-24.7915,Q,Q
2023-03-15 21:56:10:515,0,-2.19304,-6.52363,-24.7746,Q,Q
2023-03-15 21:56:10:525,0,-2.13543,-6.52237,-24.7511,Q,Q
2023-03-15 21:56:10:535,0,-2.07699,-6.52015,-24.7181,Q,Q
2023-03-15 21:56:10:545,0,-2.02488,-6.51874,-24.6741,Q,Q
2023-03-15 21:56:10:555,0,-1.97567,-6.51217,-24.6274,Q,Q
2023-03-15 21:56:10:565,0,-1.93392,-6.50089,-24.5771,Q,Q
2023-03-15 21:56:10:575,0,-1.89734,-6.48122,-24.52,Q,Q
2023-03-15 21:56:10:585,0,-1.86484,-6.45766,-24.4595,Q,Q
2023-03-15 21:56:10:595,0,-1.84403,-6.43068,-24.4031,Q,Q
2023-03-15 21:56:10:605,0,-1.82555,-6.40164,-24.346,Q,Q
2023-03-15 21:56:10:615,0,-1.81811,-6.36657,-24.288,Q,Q
2023-03-15 21:56:10:624,0,-1.80946,-6.33199,-24.2356,Q,Q
2023-03-15 21:56:10:634,0,-1.80852,-6.29558,-24.1849,Q,Q
2023-03-15 21:56:10:644,0,-1.8074,-6.2627,-24.1459,Q,Q
2023-03-15 21:56:10:654,0,-1.81396,-6.2288,-24.1113,Q,Q
2023-03-15 21:56:10:665,0,-1.82375,-6.19486,-24.0807,Q,Q
2023-03-15 21:56:10:675,0,-1.84045,-6.16204,-24.0562,Q,Q
2023-03-15 21:56:10:685,0,-1.86279,-6.1315,-24.0374,Q,Q
2023-03-15 21:56:10:695,0,-1.88388,-6.10487,-24.0247,Q,Q
2023-03-15 21:56:10:705,0,-1.91111,-6.07748,-24.015,Q,Q
2023-03-15 21:56:10:715,0,-1.93864,-6.0451,-24.0022,Q,Q
2023-03-15 21:56:10:725,0,-1.96596,-6.01784,-23.9905,Q,Q
2023-03-15 21:56:10:735,0,-1.99892,-5.98945,-23.9801,Q,Q
2023-03-15 21:56:10:745,0,-2.03263,-5.96157,-23.9697,Q,Q
2023-03-15 21:56:10:755,0,-2.07352,-5.93711,-23.958,Q,Q
2023-03-15 21:56:10:765,0,-2.11976,-5.9171,-23.9516,Q,Q
2023-03-15 21:56:10:774,0,-2.16363,-5.90444,-23.9507,Q,Q
2023-03-15 21:56:10:784,0,-2.20018,-5.90089,-23.9603,Q,Q
2023-03-15 21:56:10:795,0,-2.24192,-5.90294,-23.9713,Q,Q
2023-03-15 21:56:10:805,0,-2.2796,-5.91461,-23.983,Q,Q
2023-03-15 21:56:10:815,0,-2.31749,-5.93263,-23.9993,Q,Q
2023-03-15 21:56:10:825,0,-2.34982,-5.95805,-24.023,Q,Q
2023-03-15 21:56:10:835,0,-2.38469,-5.98705,-24.0526,Q,Q
2023-03-15 21:56:10:845,0,-2.42434,-6.02097,-24.0858,Q,Q
2023-03-15 21:56:10:855,0,-2.46704,-6.05663,-24.1204,Q,Q
2023-03-15 21:56:10:865,0,-2.51017,-6.09378,-24.1591,Q,Q
2023-03-15 21:56:10:875,0,-2.55473,-6.13345,-24.1941,Q,Q
2023-03-15 21:56:10:885,0,-2.59465,-6.17275,-24.229,Q,Q
2023-03-15 21:56:10:895,0,-2.62926,-6.20485,-24.2564,Q,Q
2023-03-15 21:56:10:905,0,-2.65829,-6.23392,-24.2822,Q,Q
2023-03-15 21:56:10:915,0,-2.6826,-6.26009,-24.3048,Q,Q
2023-03-15 21:56:10:925,0,-2.69554,-6.2823,-24.3192,Q,Q
2023-03-15 21:56:10:934,0,-2.70285,-6.29831,-24.3284,Q,Q
2023-03-15 21:56:10:945,0,-2.69691,-6.3117,-24.3348,Q,Q
2023-03-15 21:56:10:955,0,-2.6826,-6.32171,-24.3356,Q,Q
2023-03-15 21:56:10:965,0,-2.65958,-6.32413,-24.3304,Q,Q
2023-03-15 21:56:10:975,0,-2.62921,-6.32385,-24.3251,Q,Q
2023-03-15 21:56:10:985,0,-2.59048,-6.32278,-24.3185,Q,Q
2023-03-15 21:56:10:995,0,-2.54923,-6.31591,-24.3123,Q,Q
2023-03-15 21:56:11:5,0,-2.50422,-6.30943,-24.3019,Q,Q
2023-03-15 21:56:11:15,0,-2.46169,-6.30599,-24.2931,Q,Q
2023-03-15 21:56:11:25,0,-2.42235,-6.30216,-24.2801,Q,Q
2023-03-15 21:56:11:35,0,-2.38083,-6.30074,-24.2657,Q,Q
2023-03-15 21:56:11:45,0,-2.34349,-6.2992,-24.2469,Q,Q
2023-03-15 21:56:11:55,0,-2.30901,-6.30064,-24.2229,Q,Q
2023-03-15 21:56:11:65,0,-2.27761,-6.30344,-24.1922,Q,Q
2023-03-15 21:56:11:75,0,-2.24885,-6.30799,-24.1522,Q,Q
2023-03-15 21:56:11:85,0,-2.2177,-6.30589,-24.1083,Q,Q
2023-03-15 21:56:11:95,0,-2.18869,-6.29666,-24.0567,Q,Q
2023-03-15 21:56:11:105,0,-2.16561,-6.28434,-23.9994,Q,Q
2023-03-15 21:56:11:115,0,-2.1426,-6.26411,-23.9423,Q,Q
2023-03-15 21:56:11:125,0,-2.12441,-6.24148,-23.8851,Q,Q
2023-03-15 21:56:11:135,0,-2.10982,-6.21573,-23.8327,Q,Q
2023-03-15 21:56:11:145,0,-2.09647,-6.18311,-23.7821,Q,Q
2023-03-15 21:56:11:155,0,-2.0855,-6.15256,-23.7388,Q,Q
2023-03-15 21:56:11:165,0,-2.07233,-6.12329,-23.7034,Q,Q
2023-03-15 21:56:11:175,0,-2.05956,-6.09314,-23.6758,Q,Q
2023-03-15 21:56:11:185,0,-2.04757,-6.06279,-23.6606,Q,Q
2023-03-15 21:56:11:195,0,-2.02948,-6.03519,-23.6499,Q,Q
2023-03-15 21:56:11:204,0,-2.01478,-6.00698,-23.6426,Q,Q
2023-03-15 21:56:11:215,0,-2.00034,-5.98631,-23.6436,Q,Q
2023-03-15 21:56:11:224,0,-1.98916,-5.9675,-23.6507,Q,Q
2023-03-15 21:56:11:235,0,-1.98208,-5.95323,-23.662,Q,Q
2023-03-15 21:56:11:244,0,-1.98355,-5.94272,-23.6761,Q,Q
2023-03-15 21:56:11:255,0,-1.99186,-5.93512,-23.6928,Q,Q
2023-03-15 21:56:11:265,0,-2.00463,-5.93277,-23.7124,Q,Q
2023-03-15 21:56:11:275,0,-2.02417,-5.93447,-23.7273,Q,Q
2023-03-15 21:56:11:285,0,-2.04298,-5.94045,-23.7429,Q,Q
2023-03-15 21:56:11:295,0,-2.06698,-5.94712,-23.7582,Q,Q
2023-03-15 21:56:11:305,0,-2.08981,-5.95756,-23.7691,Q,Q
2023-03-15 21:56:11:315,0,-2.11117,-5.9691,-23.7755,Q,Q
2023-03-15 21:56:11:325,0,-2.12491,-5.97734,-23.7797,Q,Q
2023-03-15 21:56:11:334,0,-2.13533,-5.98294,-23.7829,Q,Q
2023-03-15 21:56:11:345,0,-2.14054,-5.99142,-23.7803,Q,Q
2023-03-15 21:56:11:355,0,-2.13402,-5.99431,-23.7744,Q,Q
2023-03-15 21:56:11:365,0,-2.11851,-5.99709,-23.7642,Q,Q
2023-03-15 21:56:11:375,0,-2.09962,-6.00445,-23.7482,Q,Q
2023-03-15 21:56:11:385,0,-2.07731,-6.01381,-23.7287,Q,Q
2023-03-15 21:56:11:395,0,-2.0459,-6.02219,-23.7107,Q,Q
2023-03-15 21:56:11:405,0,-2.01023,-6.03587,-23.6916,Q,Q
2023-03-15 21:56:11:415,0,-1.97185,-6.04738,-23.6719,Q,Q
2023-03-15 21:56:11:425,0,-1.93501,-6.05722,-23.6503,Q,Q
2023-03-15 21:56:11:434,0,-1.89793,-6.06593,-23.6344,Q,Q
2023-03-15 21:56:11:445,0,-1.86029,-6.07753,-23.6204,Q,Q
2023-03-15 21:56:11:455,0,-1.82711,-6.08809,-23.6123,Q,Q
2023-03-15 21:56:11:465,0,-1.78969,-6.09951,-23.6051,Q,Q
2023-03-15 21:56:11:475,0,-1.75536,-6.11984,-23.5979,Q,Q
2023-03-15 21:56:11:485,0,-1.72533,-6.14269,-23.5944,Q,Q
2023-03-15 21:56:11:495,0,-1.69845,-6.16488,-23.5925,Q,Q
2023-03-15 21:56:11:505,0,-1.67313,-6.18378,-23.5922,Q,Q
2023-03-15 21:56:11:515,0,-1.64977,-6.20501,-23.5941,Q,Q
2023-03-15 21:56:11:525,0,-1.6248,-6.21886,-23.6005,Q,Q
2023-03-15 21:56:11:535,0,-1.602,-6.22912,-23.6042,Q,Q
2023-03-15 21:56:11:545,0,-1.58137,-6.24125,-23.6078,Q,Q
2023-03-15 21:56:11:555,0,-1.55595,-6.25168,-23.6053,Q,Q
2023-03-15 21:56:11:564,0,-1.53379,-6.26447,-23.6045,Q,Q
2023-03-15 21:56:11:575,0,-1.51396,-6.27771,-23.601,Q,Q
2023-03-15 21:56:11:585,0,-1.49158,-6.29189,-23.5998,Q,Q
2023-03-15 21:56:11:595,0,-1.46903,-6.30426,-23.5966,Q,Q
2023-03-15 21:56:11:605,0,-1.45013,-6.31688,-23.5932,Q,Q
2023-03-15 21:56:11:615,0,-1.43401,-6.32888,-23.5887,Q,Q
2023-03-15 21:56:11:625,0,-1.41779,-6.33913,-23.589,Q,Q
2023-03-15 21:56:11:635,0,-1.40231,-6.34744,-23.5874,Q,Q
2023-03-15 21:56:11:645,0,-1.38683,-6.35917,-23.5871,Q,Q
2023-03-15 21:56:11:655,0,-1.37652,-6.36683,-23.5825,Q,Q
2023-03-15 21:56:11:665,0,-1.36427,-6.37848,-23.5831,Q,Q
2023-03-15 21:56:11:675,0,-1.35648,-6.3882,-23.5795,Q,Q
2023-03-15 21:56:11:685,0,-1.3495,-6.39935,-23.5772,Q,Q
2023-03-15 21:56:11:695,0,-1.34645,-6.40926,-23.5737,Q,Q
2023-03-15 21:56:11:705,0,-1.34374,-6.41685,-23.5728,Q,Q
2023-03-15 21:56:11:715,0,-1.33793,-6.42014,-23.5757,Q,Q
2023-03-15 21:56:11:725,0,-1.33274,-6.42429,-23.5808,Q,Q
2023-03-15 21:56:11:735,0,-1.32567,-6.42587,-23.5845,Q,Q
2023-03-15 21:56:11:744,0,-1.31893,-6.42892,-23.5898,Q,Q
2023-03-15 21:56:11:755,0,-1.31216,-6.43186,-23.6001,Q,Q
2023-03-15 21:56:11:764,0,-1.30459,-6.42944,-23.6124,Q,Q
2023-03-15 21:56:11:775,0,-1.29567,-6.42948,-23.6228,Q,Q
2023-03-15 21:56:11:785,0,-1.28682,-6.42523,-23.6356,Q,Q
2023-03-15 21:56:11:795,0,-1.27715,-6.4219,-23.6482,Q,Q
2023-03-15 21:56:11:805,0,-1.26813,-6.41655,-23.6605,Q,Q
2023-03-15 21:56:11:815,0,-1.25693,-6.4092,-23.6728,Q,Q
2023-03-15 21:56:11:825,0,-1.24269,-6.40714,-23.6836,Q,Q
2023-03-15 21:56:11:835,0,-1.22838,-6.40326,-23.6936,Q,Q
2023-03-15 21:56:11:844,0,-1.21225,-6.40279,-23.7067,Q,Q
2023-03-15 21:56:11:855,0,-1.19582,-6.40075,-23.7169,Q,Q
2023-03-15 21:56:11:864,0,-1.1803,-6.39818,-23.727,Q,Q
2023-03-15 21:56:11:875,0,-1.16564,-6.39237,-23.7331,Q,Q
2023-03-15 21:56:11:884,0,-1.1521,-6.38448,-23.739,Q,Q
2023-03-15 21:56:11:895,0,-1.13937,-6.37996,-23.7454,Q,Q
2023-03-15 21:56:11:905,0,-1.12711,-6.37445,-23.7494,Q,Q
2023-03-15 21:56:11:915,0,-1.11743,-6.37226,-23.7482,Q,Q
2023-03-15 21:56:11:924,0,-1.10977,-6.37476,-23.7466,Q,Q
2023-03-15 21:56:11:934,0,-1.10696,-6.37737,-23.7405,Q,Q
2023-03-15 21:56:11:944,0,-1.10979,-6.38277,-23.7342,Q,Q
2023-03-15 21:56:11:955,0,-1.11303,-6.39056,-23.7263,Q,Q
2023-03-15 21:56:11:965,0,-1.11885,-6.39626,-23.7227,Q,Q
2023-03-15 21:56:11:975,0,-1.1266,-6.40082,-23.7192,Q,Q
2023-03-15 21:56:11:985,0,-1.1347,-6.40713,-23.7167,Q,Q
2023-03-15 21:56:11:995,0,-1.14296,-6.41094,-23.7161,Q,Q
2023-03-15 21:56:12:5,0,-1.15144,-6.41376,-23.7117,Q,Q
2023-03-15 21:56:12:15,0,-1.16193,-6.41306,-23.7118,Q,Q
2023-03-15 21:56:12:25,0,-1.17061,-6.41037,-23.7126,Q,Q
2023-03-15 21:56:12:35,0,-1.17458,-6.4066,-23.7111,Q,Q
2023-03-15 21:56:12:44,0,-1.18412,-6.4024,-23.7139,Q,Q
2023-03-15 21:56:12:55,0,-1.19211,-6.39683,-23.7201,Q,Q
2023-03-15 21:56:12:65,0,-1.19456,-6.39175,-23.7309,Q,Q
2023-03-15 21:56:12:75,0,-1.19335,-6.38704,-23.7396,Q,Q
2023-03-15 21:56:12:85,0,-1.1894,-6.3832,-23.7475,Q,Q
2023-03-15 21:56:12:95,0,-1.18823,-6.38406,-23.7574,Q,Q
2023-03-15 21:56:12:105,0,-1.18716,-6.38735,-23.7699,Q,Q
2023-03-15 21:56:12:115,0,-1.19177,-6.39042,-23.7788,Q,Q
2023-03-15 21:56:12:125,0,-1.19999,-6.39426,-23.7886,Q,Q
2023-03-15 21:56:12:135,0,-1.21914,-6.40098,-23.7933,Q,Q
2023-03-15 21:56:12:145,0,-1.24189,-6.40967,-23.7977,Q,Q
2023-03-15 21:56:12:155,0,-1.26931,-6.42117,-23.7949,Q,Q
2023-03-15 21:56:12:165,0,-1.30417,-6.43089,-23.7916,Q,Q
2023-03-15 21:56:12:175,0,-1.33932,-6.44282,-23.7841,Q,Q
2023-03-15 21:56:12:185,0,-1.37508,-6.45505,-23.7736,Q,Q
2023-03-15 21:56:12:195,0,-1.41402,-6.46706,-23.764,Q,Q
2023-03-15 21:56:12:204,0,-1.44876,-6.4763,-23.755,Q,Q
2023-03-15 21:56:12:215,0,-1.47787,-6.48226,-23.7462,Q,Q
2023-03-15 21:56:12:225,0,-1.50473,-6.48792,-23.7415,Q,Q
2023-03-15 21:56:12:235,0,-1.53094,-6.48987,-23.7343,Q,Q
2023-03-15 21:56:12:244,0,-1.55543,-6.49021,-23.7297,Q,Q
2023-03-15 21:56:12:255,0,-1.57168,-6.49244,-23.7288,Q,Q
2023-03-15 21:56:12:265,0,-1.59073,-6.49292,-23.7299,Q,Q
2023-03-15 21:56:12:275,0,-1.60594,-6.4939,-23.7396,Q,Q
2023-03-15 21:56:12:285,0,-1.62293,-6.49645,-23.7514,Q,Q
2023-03-15 21:56:12:295,0,-1.63185,-6.49457,-23.7664,Q,Q
2023-03-15 21:56:12:305,0,-1.64789,-6.4953,-23.7836,Q,Q
2023-03-15 21:56:12:315,0,-1.65986,-6.495,-23.8003,Q,Q
2023-03-15 21:56:12:325,0,-1.67122,-6.48602,-23.8186,Q,Q
2023-03-15 21:56:12:335,0,-1.68318,-6.4798,-23.8374,Q,Q
2023-03-15 21:56:12:344,0,-1.68925,-6.47423,-23.8534,Q,Q
2023-03-15 21:56:12:354,0,-1.69067,-6.47241,-23.8656,Q,Q
2023-03-15 21:56:12:364,0,-1.69395,-6.46901,-23.8772,Q,Q
2023-03-15 21:56:12:375,0,-1.69344,-6.4674,-23.8839,Q,Q
2023-03-15 21:56:12:385,0,-1.69905,-6.46123,-23.8896,Q,Q
2023-03-15 21:56:12:395,0,-1.70486,-6.45368,-23.8913,Q,Q
2023-03-15 21:56:12:404,0,-1.70759,-6.44429,-23.8926,Q,Q
2023-03-15 21:56:12:415,0,-1.7146,-6.43755,-23.8936,Q,Q
2023-03-15 21:56:12:425,0,-1.72117,-6.42493,-23.8919,Q,Q
2023-03-15 21:56:12:435,0,-1.72317,-6.41298,-23.8916,Q,Q
2023-03-15 21:56:12:444,0,-1.72628,-6.40243,-23.8891,Q,Q
2023-03-15 21:56:12:455,0,-1.72556,-6.39222,-23.889,Q,Q
2023-03-15 21:56:12:464,0,-1.71987,-6.3852,-23.8908,Q,Q
2023-03-15 21:56:12:475,0,-1.7125,-6.37818,-23.8928,Q,Q
2023-03-15 21:56:12:485,0,-1.70084,-6.37143,-23.8935,Q,Q
2023-03-15 21:56:12:495,0,-1.69267,-6.36389,-23.8983,Q,Q
2023-03-15 21:56:12:505,0,-1.68375,-6.3552,-23.8985,Q,Q
2023-03-15 21:56:12:515,0,-1.67346,-6.34872,-23.9002,Q,Q
2023-03-15 21:56:12:524,0,-1.66676,-6.34268,-23.9036,Q,Q
2023-03-15 21:56:12:535,0,-1.65673,-6.33623,-23.9073,Q,Q
2023-03-15 21:56:12:545,0,-1.64995,-6.33561,-23.9086,Q,Q
2023-03-15 21:56:12:555,0,-1.64538,-6.33697,-23.9048,Q,Q
2023-03-15 21:56:12:565,0,-1.64228,-6.34056,-23.898,Q,Q
2023-03-15 21:56:12:575,0,-1.64208,-6.34235,-23.8923,Q,Q
2023-03-15 21:56:12:585,0,-1.639,-6.34296,-23.8892,Q,Q
2023-03-15 21:56:12:595,0,-1.63073,-6.34553,-23.8851,Q,Q
2023-03-15 21:56:12:605,0,-1.62404,-6.34785,-23.8751,Q,Q
2023-03-15 21:56:12:615,0,-1.61528,-6.34864,-23.866,Q,Q
2023-03-15 21:56:12:625,0,-1.60629,-6.34847,-23.859,Q,Q
2023-03-15 21:56:12:635,0,-1.59365,-6.35018,-23.8472,Q,Q
2023-03-15 21:56:12:645,0,-1.58503,-6.34805,-23.8338,Q,Q
2023-03-15 21:56:12:655,0,-1.5848,-6.34874,-23.8153,Q,Q
2023-03-15 21:56:12:665,0,-1.58554,-6.34861,-23.8042,Q,Q
2023-03-15 21:56:12:675,0,-1.58138,-6.35143,-23.7914,Q,Q
2023-03-15 21:56:12:684,0,-1.57229,-6.35511,-23.7845,Q,Q
2023-03-15 21:56:12:695,0,-1.56016,-6.35685,-23.7837,Q,Q
2023-03-15 21:56:12:705,0,-1.53937,-6.35243,-23.7865,Q,Q
2023-03-15 21:56:12:715,0,-1.52514,-6.34767,-23.7814,Q,Q
2023-03-15 21:56:12:725,0,-1.51733,-6.33741,-23.7721,Q,Q
2023-03-15 21:56:12:735,0,-1.51795,-6.32753,-23.7616,Q,Q
2023-03-15 21:56:12:744,0,-1.51995,-6.32334,-23.7508,Q,Q
2023-03-15 21:56:12:755,0,-1.52481,-6.31911,-23.7409,Q,Q
2023-03-15 21:56:12:764,0,-1.52825,-6.31365,-23.731,Q,Q
2023-03-15 21:56:12:775,0,-1.53075,-6.31674,-23.7211,Q,Q
2023-03-15 21:56:12:785,0,-1.53282,-6.31939,-23.7164,Q,Q
2023-03-15 21:56:12:795,0,-1.53875,-6.32168,-23.7112,Q,Q
2023-03-15 21:56:12:805,0,-1.54416,-6.31932,-23.7076,Q,Q
2023-03-15 21:56:12:815,0,-1.5553,-6.31186,-23.7013,Q,Q
2023-03-15 21:56:12:825,0,-1.57129,-6.31345,-23.6974,Q,Q
2023-03-15 21:56:12:835,0,-1.59205,-6.31026,-23.6921,Q,Q
2023-03-15 21:56:12:844,0,-1.61409,-6.30761,-23.6889,Q,Q
2023-03-15 21:56:12:855,0,-1.6411,-6.30015,-23.6836,Q,Q
2023-03-15 21:56:12:865,0,-1.67215,-6.29907,-23.6726,Q,Q
2023-03-15 21:56:12:875,0,-1.70437,-6.29302,-23.6671,Q,Q
2023-03-15 21:56:12:885,0,-1.7416,-6.29865,-23.6652,Q,Q
2023-03-15 21:56:12:895,0,-1.75234,-6.30298,-23.6787,Q,Q
2023-03-15 21:56:12:905,0,-1.76561,-6.29575,-23.6723,Q,Q
2023-03-15 21:56:12:915,0,-1.79475,-6.28979,-23.6671,Q,Q
2023-03-15 21:56:12:925,0,-1.82689,-6.28904,-23.6676,Q,Q
2023-03-15 21:56:12:934,0,-1.85145,-6.28389,-23.6705,Q,Q
2023-03-15 21:56:12:945,0,-1.87102,-6.27798,-23.6724,Q,Q
2023-03-15 21:56:12:955,0,-1.87821,-6.27078,-23.6726,Q,Q
2023-03-15 21:56:12:965,0,-1.87558,-6.26814,-23.6745,Q,Q
2023-03-15 21:56:12:975,0,-1.86883,-6.27176,-23.6794,Q,Q
2023-03-15 21:56:12:985,0,-1.8578,-6.27537,-23.6828,Q,Q
2023-03-15 21:56:12:995,0,-1.83959,-6.27865,-23.6866,Q,Q
2023-03-15 21:56:13:4,0,-1.81988,-6.28103,-23.6907,Q,Q
2023-03-15 21:56:13:15,0,-1.80367,-6.28098,-23.6965,Q,Q
2023-03-15 21:56:13:25,0,-1.7868,-6.27984,-23.7005,Q,Q
2023-03-15 21:56:13:35,0,-1.77483,-6.27819,-23.6975,Q,Q
2023-03-15 21:56:13:45,0,-1.77026,-6.27445,-23.6956,Q,Q
2023-03-15 21:56:13:55,0,-1.76494,-6.26729,-23.6896,Q,Q
2023-03-15 21:56:13:65,0,-1.76686,-6.26252,-23.6807,Q,Q
2023-03-15 21:56:13:75,0,-1.77375,-6.25765,-23.6693,Q,Q
2023-03-15 21:56:13:85,0,-1.78642,-6.25477,-23.6551,Q,Q
2023-03-15 21:56:13:95,0,-1.80009,-6.2527,-23.6455,Q,Q
2023-03-15 21:56:13:105,0,-1.81154,-6.25029,-23.6394,Q,Q
2023-03-15 21:56:13:115,0,-1.82129,-6.24951,-23.6339,Q,Q
2023-03-15 21:56:13:125,0,-1.82409,-6.24389,-23.6317,Q,Q
2023-03-15 21:56:13:135,0,-1.82131,-6.23911,-23.6299,Q,Q
2023-03-15 21:56:13:145,0,-1.81761,-6.23181,-23.6284,Q,Q
2023-03-15 21:56:13:155,0,-1.81097,-6.22457,-23.6285,Q,Q
2023-03-15 21:56:13:164,0,-1.8027,-6.21783,-23.6303,Q,Q
2023-03-15 21:56:13:175,0,-1.79418,-6.21485,-23.6295,Q,Q
2023-03-15 21:56:13:185,0,-1.78821,-6.2124,-23.6325,Q,Q
2023-03-15 21:56:13:194,0,-1.78277,-6.20896,-23.6384,Q,Q
2023-03-15 21:56:13:205,0,-1.77838,-6.20714,-23.6456,Q,Q
2023-03-15 21:56:13:215,0,-1.77058,-6.20951,-23.6516,Q,Q
2023-03-15 21:56:13:225,0,-1.763,-6.21051,-23.6586,Q,Q
2023-03-15 21:56:13:235,0,-1.75169,-6.21164,-23.6606,Q,Q
2023-03-15 21:56:13:245,0,-1.73911,-6.21515,-23.6635,Q,Q
2023-03-15 21:56:13:255,0,-1.72557,-6.21791,-23.6614,Q,Q
2023-03-15 21:56:13:265,0,-1.71827,-6.21728,-23.6593,Q,Q
2023-03-15 21:56:13:274,0,-1.7099,-6.22058,-23.6575,Q,Q
2023-03-15 21:56:13:284,0,-1.70685,-6.22006,-23.6534,Q,Q
2023-03-15 21:56:13:294,0,-1.70286,-6.22095,-23.6503,Q,Q
2023-03-15 21:56:13:305,0,-1.7016,-6.22161,-23.6474,Q,Q
2023-03-15 21:56:13:315,0,-1.70211,-6.22491,-23.6473,Q,Q
2023-03-15 21:56:13:324,0,-1.69958,-6.22873,-23.6499,Q,Q
2023-03-15 21:56:13:335,0,-1.69882,-6.23046,-23.6541,Q,Q
2023-03-15 21:56:13:345,0,-1.69549,-6.23306,-23.6593,Q,Q
2023-03-15 21:56:13:354,0,-1.68669,-6.23621,-23.6629,Q,Q
2023-03-15 21:56:13:364,0,-1.67794,-6.23963,-23.6687,Q,Q
2023-03-15 21:56:13:374,0,-1.67063,-6.24142,-23.675,Q,Q
2023-03-15 21:56:13:385,0,-1.66189,-6.24668,-23.683,Q,Q
2023-03-15 21:56:13:395,0,-1.65279,-6.25269,-23.6891,Q,Q
2023-03-15 21:56:13:405,0,-1.64586,-6.26285,-23.6956,Q,Q
2023-03-15 21:56:13:415,0,-1.64012,-6.2693,-23.6984,Q,Q
2023-03-15 21:56:13:424,0,-1.63757,-6.27793,-23.7013,Q,Q
2023-03-15 21:56:13:434,0,-1.63774,-6.2868,-23.6948,Q,Q
2023-03-15 21:56:13:445,0,-1.63166,-6.29195,-23.6906,Q,Q
2023-03-15 21:56:13:455,0,-1.63032,-6.29483,-23.6882,Q,Q
2023-03-15 21:56:13:465,0,-1.62668,-6.3005,-23.6796,Q,Q
2023-03-15 21:56:13:475,0,-1.62265,-6.3036,-23.6697,Q,Q
2023-03-15 21:56:13:484,0,-1.61397,-6.30627,-23.6605,Q,Q
2023-03-15 21:56:13:495,0,-1.61165,-6.30553,-23.6528,Q,Q
2023-03-15 21:56:13:505,0,-1.60511,-6.30382,-23.6485,Q,Q
2023-03-15 21:56:13:515,0,-1.59616,-6.29755,-23.6443,Q,Q
2023-03-15 21:56:13:525,0,-1.58824,-6.2911,-23.6445,Q,Q
2023-03-15 21:56:13:535,0,-1.57835,-6.28741,-23.6444,Q,Q
2023-03-15 21:56:13:545,0,-1.56293,-6.27787,-23.6475,Q,Q
2023-03-15 21:56:13:555,0,-1.54623,-6.26926,-23.6521,Q,Q
2023-03-15 21:56:13:565,0,-1.53077,-6.25937,-23.6569,Q,Q
2023-03-15 21:56:13:575,0,-1.51556,-6.25237,-23.6656,Q,Q
2023-03-15 21:56:13:585,0,-1.50163,-6.24488,-23.6739,Q,Q
2023-03-15 21:56:13:595,0,-1.48547,-6.23859,-23.683,Q,Q
2023-03-15 21:56:13:605,0,-1.47094,-6.22937,-23.6936,Q,Q
2023-03-15 21:56:13:615,0,-1.45518,-6.22212,-23.7067,Q,Q
2023-03-15 21:56:13:625,0,-1.44491,-6.21511,-23.7196,Q,Q
2023-03-15 21:56:13:635,0,-1.44057,-6.20996,-23.7308,Q,Q
2023-03-15 21:56:13:644,0,-1.43526,-6.2068,-23.7429,Q,Q
2023-03-15 21:56:13:654,0,-1.4264,-6.20383,-23.7543,Q,Q
2023-03-15 21:56:13:665,0,-1.41399,-6.20032,-23.7653,Q,Q
2023-03-15 21:56:13:675,0,-1.40773,-6.19574,-23.7737,Q,Q
2023-03-15 21:56:13:685,0,-1.39805,-6.18914,-23.7775,Q,Q
2023-03-15 21:56:13:695,0,-1.38914,-6.18074,-23.7797,Q,Q
2023-03-15 21:56:13:705,0,-1.37757,-6.17457,-23.7794,Q,Q
2023-03-15 21:56:13:715,0,-1.36357,-6.16715,-23.7771,Q,Q
2023-03-15 21:56:13:725,0,-1.35009,-6.16112,-23.7738,Q,Q
2023-03-15 21:56:13:735,0,-1.33434,-6.15567,-23.7699,Q,Q
2023-03-15 21:56:13:745,0,-1.31922,-6.1481,-23.7641,Q,Q
2023-03-15 21:56:13:755,0,-1.31099,-6.13971,-23.7547,Q,Q
2023-03-15 21:56:13:765,0,-1.29791,-6.13315,-23.7499,Q,Q
2023-03-15 21:56:13:774,0,-1.28595,-6.12373,-23.7489,Q,Q
2023-03-15 21:56:13:784,0,-1.27125,-6.1178,-23.7471,Q,Q
2023-03-15 21:56:13:795,0,-1.25536,-6.11375,-23.7451,Q,Q
2023-03-15 21:56:13:804,0,-1.23429,-6.11436,-23.7441,Q,Q
2023-03-15 21:56:13:815,0,-1.2196,-6.11575,-23.7447,Q,Q
2023-03-15 21:56:13:825,0,-1.20862,-6.11796,-23.74,Q,Q
2023-03-15 21:56:13:835,0,-1.20213,-6.12289,-23.7307,Q,Q
2023-03-15 21:56:13:845,0,-1.20287,-6.1273,-23.7246,Q,Q
2023-03-15 21:56:13:855,0,-1.20815,-6.13649,-23.7138,Q,Q
2023-03-15 21:56:13:864,0,-1.21882,-6.14951,-23.7009,Q,Q
2023-03-15 21:56:13:874,0,-1.23034,-6.15937,-23.6862,Q,Q
2023-03-15 21:56:13:884,0,-1.24476,-6.16439,-23.67,Q,Q
2023-03-15 21:56:13:895,0,-1.25906,-6.17613,-23.6553,Q,Q
2023-03-15 21:56:13:905,0,-1.27231,-6.18862,-23.6419,Q,Q
2023-03-15 21:56:13:915,0,-1.28525,-6.20067,-23.6304,Q,Q
2023-03-15 21:56:13:924,0,-1.30077,-6.21165,-23.6177,Q,Q
2023-03-15 21:56:13:934,0,-1.31455,-6.21793,-23.6062,Q,Q
2023-03-15 21:56:13:945,0,-1.32459,-6.22323,-23.598,Q,Q
2023-03-15 21:56:13:954,0,-1.33288,-6.22561,-23.5927,Q,Q
2023-03-15 21:56:13:964,0,-1.34115,-6.228,-23.5905,Q,Q
2023-03-15 21:56:13:975,0,-1.34139,-6.226,-23.5916,Q,Q
2023-03-15 21:56:13:985,0,-1.34121,-6.22329,-23.5943,Q,Q
2023-03-15 21:56:13:995,0,-1.33933,-6.22115,-23.5925,Q,Q
2023-03-15 21:56:14:5,0,-1.33374,-6.22003,-23.5964,Q,Q
2023-03-15 21:56:14:15,0,-1.3316,-6.21334,-23.5994,Q,Q
2023-03-15 21:56:14:25,0,-1.32482,-6.20476,-23.6094,Q,Q
2023-03-15 21:56:14:35,0,-1.3186,-6.19445,-23.6194,Q,Q
2023-03-15 21:56:14:45,0,-1.31545,-6.18554,-23.632,Q,Q
2023-03-15 21:56:14:55,0,-1.30812,-6.17794,-23.6447,Q,Q
2023-03-15 21:56:14:65,0,-1.29918,-6.16971,-23.6588,Q,Q
2023-03-15 21:56:14:75,0,-1.28972,-6.16098,-23.6731,Q,Q
2023-03-15 21:56:14:85,0,-1.27889,-6.15126,-23.685,Q,Q
2023-03-15 21:56:14:95,0,-1.26756,-6.13935,-23.6982,Q,Q
2023-03-15 21:56:14:105,0,-1.25525,-6.12671,-23.7102,Q,Q
2023-03-15 21:56:14:115,0,-1.24243,-6.1123,-23.719,Q,Q
2023-03-15 21:56:14:124,0,-1.23118,-6.10043,-23.7265,Q,Q
2023-03-15 21:56:14:135,0,-1.2181,-6.08729,-23.7306,Q,Q
2023-03-15 21:56:14:145,0,-1.20371,-6.07592,-23.7373,Q,Q
2023-03-15 21:56:14:155,0,-1.18612,-6.06423,-23.744,Q,Q
2023-03-15 21:56:14:165,0,-1.17078,-6.05619,-23.7466,Q,Q
2023-03-15 21:56:14:175,0,-1.1494,-6.04582,-23.7516,Q,Q
2023-03-15 21:56:14:185,0,-1.12896,-6.03899,-23.7542,Q,Q
2023-03-15 21:56:14:195,0,-1.11091,-6.03157,-23.7562,Q,Q
2023-03-15 21:56:14:205,0,-1.0909,-6.02883,-23.7565,Q,Q
2023-03-15 21:56:14:215,0,-1.07389,-6.02816,-23.7585,Q,Q
2023-03-15 21:56:14:225,0,-1.06197,-6.03087,-23.756,Q,Q
2023-03-15 21:56:14:235,0,-1.05316,-6.03468,-23.7559,Q,Q
2023-03-15 21:56:14:245,0,-1.04255,-6.03733,-23.7489,Q,Q
2023-03-15 21:56:14:255,0,-1.03711,-6.04339,-23.7402,Q,Q
2023-03-15 21:56:14:264,0,-1.03901,-6.04952,-23.7288,Q,Q
2023-03-15 21:56:14:275,0,-1.04023,-6.0559,-23.7181,Q,Q
2023-03-15 21:56:14:284,0,-1.04521,-6.06459,-23.7065,Q,Q
2023-03-15 21:56:14:294,0,-1.05037,-6.07089,-23.6957,Q,Q
2023-03-15 21:56:14:304,0,-1.06033,-6.07689,-23.6842,Q,Q
2023-03-15 21:56:14:314,0,-1.06605,-6.08123,-23.6708,Q,Q
2023-03-15 21:56:14:325,0,-1.07671,-6.08248,-23.6616,Q,Q
2023-03-15 21:56:14:335,0,-1.08908,-6.08904,-23.6514,Q,Q
2023-03-15 21:56:14:345,0,-1.10145,-6.09358,-23.6421,Q,Q
2023-03-15 21:56:14:355,0,-1.11134,-6.10003,-23.6374,Q,Q
2023-03-15 21:56:14:364,0,-1.12218,-6.10327,-23.6315,Q,Q
2023-03-15 21:56:14:374,0,-1.12932,-6.10935,-23.6292,Q,Q
2023-03-15 21:56:14:384,0,-1.13922,-6.11318,-23.6258,Q,Q
2023-03-15 21:56:14:394,0,-1.14644,-6.11895,-23.6249,Q,Q
2023-03-15 21:56:14:405,0,-1.14981,-6.1262,-23.625,Q,Q
2023-03-15 21:56:14:414,0,-1.15306,-6.13403,-23.6274,Q,Q
2023-03-15 21:56:14:424,0,-1.14307,-6.13941,-23.6319,Q,Q
2023-03-15 21:56:14:434,0,-1.12948,-6.14157,-23.6323,Q,Q
2023-03-15 21:56:14:444,0,-1.11056,-6.14058,-23.6327,Q,Q
2023-03-15 21:56:14:455,0,-1.07907,-6.13653,-23.6369,Q,Q
2023-03-15 21:56:14:464,0,-1.04718,-6.13278,-23.6406,Q,Q
2023-03-15 21:56:14:475,0,-1.01416,-6.12531,-23.6427,Q,Q
2023-03-15 21:56:14:485,0,-0.985566,-6.11636,-23.6451,Q,Q
2023-03-15 21:56:14:495,0,-0.95591,-6.10774,-23.6493,Q,Q
2023-03-15 21:56:14:505,0,-0.930303,-6.10269,-23.6483,Q,Q
2023-03-15 21:56:14:515,0,-0.914164,-6.09362,-23.6476,Q,Q
2023-03-15 21:56:14:525,0,-0.89999,-6.0829,-23.6485,Q,Q
2023-03-15 21:56:14:535,0,-0.888785,-6.07071,-23.6508,Q,Q
2023-03-15 21:56:14:545,0,-0.872132,-6.06247,-23.6545,Q,Q
2023-03-15 21:56:14:554,0,-0.851407,-6.06079,-23.6592,Q,Q
2023-03-15 21:56:14:565,0,-0.832832,-6.06043,-23.661,Q,Q
2023-03-15 21:56:14:575,0,-0.814614,-6.0626,-23.6672,Q,Q
2023-03-15 21:56:14:585,0,-0.802946,-6.06945,-23.669,Q,Q
2023-03-15 21:56:14:594,0,-0.794994,-6.07547,-23.6709,Q,Q
2023-03-15 21:56:14:604,0,-0.795688,-6.08157,-23.6668,Q,Q
2023-03-15 21:56:14:615,0,-0.801355,-6.08432,-23.6613,Q,Q
2023-03-15 21:56:14:625,0,-0.814259,-6.08944,-23.6567,Q,Q
2023-03-15 21:56:14:635,0,-0.831127,-6.09495,-23.648,Q,Q
2023-03-15 21:56:14:645,0,-0.847858,-6.10019,-23.6376,Q,Q
2023-03-15 21:56:14:655,0,-0.865656,-6.11042,-23.6249,Q,Q
2023-03-15 21:56:14:664,0,-0.882351,-6.1193,-23.614,Q,Q
2023-03-15 21:56:14:675,0,-0.896363,-6.1258,-23.6033,Q,Q
2023-03-15 21:56:14:685,0,-0.908011,-6.13258,-23.5973,Q,Q
2023-03-15 21:56:14:695,0,-0.914794,-6.14005,-23.5908,Q,Q
2023-03-15 21:56:14:705,0,-0.917089,-6.1441,-23.5871,Q,Q
2023-03-15 21:56:14:715,0,-0.915326,-6.15017,-23.5849,Q,Q
2023-03-15 21:56:14:725,0,-0.912891,-6.15558,-23.5847,Q,Q
2023-03-15 21:56:14:735,0,-0.912835,-6.15746,-23.5843,Q,Q
2023-03-15 21:56:14:745,0,-0.908776,-6.16059,-23.587,Q,Q
2023-03-15 21:56:14:755,0,-0.908431,-6.16541,-23.5887,Q,Q
2023-03-15 21:56:14:764,0,-0.908046,-6.16969,-23.593,Q,Q
2023-03-15 21:56:14:775,0,-0.909539,-6.17218,-23.599,Q,Q
2023-03-15 21:56:14:785,0,-0.909277,-6.17581,-23.6055,Q,Q
2023-03-15 21:56:14:795,0,-0.906083,-6.18067,-23.6113,Q,Q
2023-03-15 21:56:14:804,0,-0.904289,-6.18975,-23.6159,Q,Q
2023-03-15 21:56:14:814,0,-0.902227,-6.19904,-23.621,Q,Q
2023-03-15 21:56:14:824,0,-0.894833,-6.2064,-23.6241,Q,Q
2023-03-15 21:56:14:834,0,-0.891339,-6.21153,-23.6271,Q,Q
2023-03-15 21:56:14:844,0,-0.887715,-6.215,-23.6297,Q,Q
2023-03-15 21:56:14:854,0,-0.884888,-6.21592,-23.6314,Q,Q
2023-03-15 21:56:14:864,0,-0.882323,-6.21044,-23.6329,Q,Q
2023-03-15 21:56:14:875,0,-0.880169,-6.20494,-23.6338,Q,Q
2023-03-15 21:56:14:885,0,-0.877887,-6.19749,-23.6355,Q,Q
2023-03-15 21:56:14:895,0,-0.876856,-6.19204,-23.6417,Q,Q
2023-03-15 21:56:14:905,0,-0.874961,-6.18659,-23.6438,Q,Q
2023-03-15 21:56:14:915,0,-0.867621,-6.18471,-23.6519,Q,Q
2023-03-15 21:56:14:924,0,-0.856893,-6.18305,-23.662,Q,Q
2023-03-15 21:56:14:934,0,-0.844345,-6.18154,-23.6733,Q,Q
2023-03-15 21:56:14:945,0,-0.831863,-6.18376,-23.6837,Q,Q
2023-03-15 21:56:14:955,0,-0.819355,-6.19402,-23.6946,Q,Q
2023-03-15 21:56:14:965,0,-0.805348,-6.20091,-23.7023,Q,Q
2023-03-15 21:56:14:975,0,-0.789132,-6.21179,-23.7086,Q,Q
2023-03-15 21:56:14:985,0,-0.777093,-6.22148,-23.7104,Q,Q
2023-03-15 21:56:14:995,0,-0.765955,-6.23422,-23.704,Q,Q
2023-03-15 21:56:15:5,0,-0.759219,-6.24327,-23.6932,Q,Q
2023-03-15 21:56:15:15,0,-0.750811,-6.24964,-23.6803,Q,Q
2023-03-15 21:56:15:25,0,-0.74337,-6.25843,-23.6646,Q,Q
2023-03-15 21:56:15:35,0,-0.740684,-6.26925,-23.6433,Q,Q
2023-03-15 21:56:15:45,0,-0.738348,-6.27602,-23.6233,Q,Q
2023-03-15 21:56:15:55,0,-0.736481,-6.28464,-23.5979,Q,Q
2023-03-15 21:56:15:65,0,-0.735412,-6.28917,-23.5776,Q,Q
