Timestamp_cmd,imu_cmd,roll_delta,pitch_delta,yaw_delta,voice_type,voice_length
2023-03-15 15:23:56:128,0,-4.17707,-5.01457,-18.3629,Q,Q
2023-03-15 15:23:56:136,0,-4.20749,-5.01874,-18.3443,Q,Q
2023-03-15 15:23:56:146,0,-4.23284,-5.02706,-18.3198,Q,Q
2023-03-15 15:23:56:156,0,-4.24938,-5.0471,-18.2975,Q,Q
2023-03-15 15:23:56:166,0,-4.2415,-5.07194,-18.2907,Q,Q
2023-03-15 15:23:56:177,0,-4.20811,-5.09691,-18.2832,Q,Q
2023-03-15 15:23:56:187,0,-4.16288,-5.12017,-18.2788,Q,Q
2023-03-15 15:23:56:196,0,-4.11185,-5.15023,-18.2819,Q,Q
2023-03-15 15:23:56:206,0,-4.05966,-5.17752,-18.2877,Q,Q
2023-03-15 15:23:56:216,0,-4.01339,-5.20044,-18.2907,Q,Q
2023-03-15 15:23:56:227,0,-3.9768,-5.22529,-18.2929,Q,Q
2023-03-15 15:23:56:237,0,-3.93565,-5.24398,-18.3049,Q,Q
2023-03-15 15:23:56:246,0,-3.89499,-5.25588,-18.3095,Q,Q
2023-03-15 15:23:56:256,0,-3.86634,-5.26319,-18.3046,Q,Q
2023-03-15 15:23:56:267,0,-3.84614,-5.27287,-18.2977,Q,Q
2023-03-15 15:23:56:277,0,-3.832,-5.27779,-18.2866,Q,Q
2023-03-15 15:23:56:286,0,-3.82138,-5.27637,-18.2702,Q,Q
2023-03-15 15:23:56:297,0,-3.81196,-5.26914,-18.2517,Q,Q
2023-03-15 15:23:56:307,0,-3.80645,-5.25634,-18.2326,Q,Q
2023-03-15 15:23:56:317,0,-3.80681,-5.25007,-18.2088,Q,Q
2023-03-15 15:23:56:327,0,-3.81192,-5.24044,-18.184,Q,Q
2023-03-15 15:23:56:337,0,-3.81921,-5.23693,-18.16,Q,Q
2023-03-15 15:23:56:347,0,-3.82811,-5.23262,-18.1399,Q,Q
2023-03-15 15:23:56:357,0,-3.83501,-5.22883,-18.1248,Q,Q
2023-03-15 15:23:56:366,0,-3.84301,-5.22725,-18.1152,Q,Q
2023-03-15 15:23:56:377,0,-3.8563,-5.22386,-18.1044,Q,Q
2023-03-15 15:23:56:387,0,-3.8752,-5.22523,-18.0939,Q,Q
2023-03-15 15:23:56:397,0,-3.90195,-5.23196,-18.0803,Q,Q
2023-03-15 15:23:56:407,0,-3.93106,-5.23971,-18.0664,Q,Q
2023-03-15 15:23:56:417,0,-3.96564,-5.25384,-18.0491,Q,Q
2023-03-15 15:23:56:427,0,-4.00071,-5.26817,-18.0311,Q,Q
2023-03-15 15:23:56:437,0,-4.04055,-5.28306,-18.0089,Q,Q
2023-03-15 15:23:56:447,0,-4.07847,-5.30179,-17.9905,Q,Q
2023-03-15 15:23:56:457,0,-4.11652,-5.31892,-17.9737,Q,Q
2023-03-15 15:23:56:467,0,-4.15005,-5.32799,-17.9718,Q,Q
2023-03-15 15:23:56:477,0,-4.17963,-5.33018,-17.983,Q,Q
2023-03-15 15:23:56:487,0,-4.20303,-5.31579,-18.0133,Q,Q
2023-03-15 15:23:56:497,0,-4.20915,-5.28284,-18.0578,Q,Q
2023-03-15 15:23:56:507,0,-4.19276,-5.24114,-18.1064,Q,Q
2023-03-15 15:23:56:517,0,-4.16411,-5.19498,-18.1522,Q,Q
2023-03-15 15:23:56:527,0,-4.12839,-5.14597,-18.1925,Q,Q
2023-03-15 15:23:56:537,0,-4.0984,-5.09931,-18.2283,Q,Q
2023-03-15 15:23:56:547,0,-4.07374,-5.05499,-18.259,Q,Q
2023-03-15 15:23:56:557,0,-4.05278,-5.00726,-18.2884,Q,Q
2023-03-15 15:23:56:566,0,-4.03479,-4.96529,-18.3221,Q,Q
2023-03-15 15:23:56:576,0,-4.01839,-4.92167,-18.3528,Q,Q
2023-03-15 15:23:56:587,0,-4.00001,-4.8755,-18.3842,Q,Q
2023-03-15 15:23:56:596,0,-3.96795,-4.82854,-18.4114,Q,Q
2023-03-15 15:23:56:606,0,-3.92501,-4.78607,-18.4315,Q,Q
2023-03-15 15:23:56:617,0,-3.87233,-4.74091,-18.4416,Q,Q
2023-03-15 15:23:56:627,0,-3.80925,-4.69775,-18.4405,Q,Q
2023-03-15 15:23:56:637,0,-3.75249,-4.6648,-18.4296,Q,Q
2023-03-15 15:23:56:647,0,-3.70723,-4.63135,-18.411,Q,Q
2023-03-15 15:23:56:657,0,-3.66963,-4.60165,-18.3911,Q,Q
2023-03-15 15:23:56:667,0,-3.64694,-4.57424,-18.3715,Q,Q
2023-03-15 15:23:56:676,0,-3.63666,-4.54953,-18.3548,Q,Q
2023-03-15 15:23:56:686,0,-3.63582,-4.52164,-18.3435,Q,Q
2023-03-15 15:23:56:696,0,-3.64324,-4.49932,-18.3326,Q,Q
2023-03-15 15:23:56:707,0,-3.65392,-4.48207,-18.3238,Q,Q
2023-03-15 15:23:56:716,0,-3.66655,-4.46771,-18.3232,Q,Q
2023-03-15 15:23:56:727,0,-3.68329,-4.46078,-18.3285,Q,Q
2023-03-15 15:23:56:737,0,-3.69229,-4.45686,-18.3354,Q,Q
2023-03-15 15:23:56:747,0,-3.70242,-4.4572,-18.3463,Q,Q
2023-03-15 15:23:56:757,0,-3.71749,-4.45992,-18.3605,Q,Q
2023-03-15 15:23:56:766,0,-3.73349,-4.4632,-18.3806,Q,Q
2023-03-15 15:23:56:776,0,-3.74914,-4.46836,-18.4027,Q,Q
2023-03-15 15:23:56:787,0,-3.76331,-4.47743,-18.4291,Q,Q
2023-03-15 15:23:56:797,0,-3.77088,-4.48149,-18.4526,Q,Q
2023-03-15 15:23:56:806,0,-3.76873,-4.48896,-18.4705,Q,Q
2023-03-15 15:23:56:816,0,-3.75315,-4.49463,-18.49,Q,Q
2023-03-15 15:23:56:826,0,-3.71971,-4.49571,-18.5046,Q,Q
2023-03-15 15:23:56:837,0,-3.67818,-4.49013,-18.509,Q,Q
2023-03-15 15:23:56:847,0,-3.63795,-4.47952,-18.5065,Q,Q
2023-03-15 15:23:56:856,0,-3.60409,-4.46234,-18.4992,Q,Q
2023-03-15 15:23:56:866,0,-3.57607,-4.44649,-18.4881,Q,Q
2023-03-15 15:23:56:876,0,-3.54899,-4.43016,-18.4777,Q,Q
2023-03-15 15:23:56:886,0,-3.52973,-4.41578,-18.4659,Q,Q
2023-03-15 15:23:56:896,0,-3.5256,-4.40199,-18.4537,Q,Q
2023-03-15 15:23:56:906,0,-3.5371,-4.39402,-18.4363,Q,Q
2023-03-15 15:23:56:916,0,-3.55945,-4.39461,-18.4144,Q,Q
2023-03-15 15:23:56:926,0,-3.59248,-4.40403,-18.3828,Q,Q
2023-03-15 15:23:56:936,0,-3.63982,-4.42299,-18.3298,Q,Q
2023-03-15 15:23:56:946,0,-3.70493,-4.45142,-18.2614,Q,Q
2023-03-15 15:23:56:957,0,-3.79386,-4.48652,-18.178,Q,Q
2023-03-15 15:23:56:966,0,-3.903,-4.5258,-18.0869,Q,Q
2023-03-15 15:23:56:976,0,-4.03086,-4.56713,-17.9853,Q,Q
2023-03-15 15:23:56:986,0,-4.15913,-4.60868,-17.8808,Q,Q
2023-03-15 15:23:56:997,0,-4.28351,-4.64931,-17.7835,Q,Q
2023-03-15 15:23:57:6,0,-4.38815,-4.68648,-17.7018,Q,Q
2023-03-15 15:23:57:16,0,-4.47299,-4.71137,-17.6407,Q,Q
2023-03-15 15:23:57:27,0,-4.53638,-4.7194,-17.5982,Q,Q
2023-03-15 15:23:57:37,0,-4.5772,-4.7045,-17.5691,Q,Q
2023-03-15 15:23:57:46,0,-4.60754,-4.68275,-17.5592,Q,Q
2023-03-15 15:23:57:56,0,-4.62876,-4.64821,-17.5585,Q,Q
2023-03-15 15:23:57:67,0,-4.64194,-4.61598,-17.5673,Q,Q
2023-03-15 15:23:57:77,0,-4.64228,-4.58646,-17.5839,Q,Q
2023-03-15 15:23:57:86,0,-4.63622,-4.5626,-17.6082,Q,Q
2023-03-15 15:23:57:96,0,-4.62909,-4.54811,-17.6364,Q,Q
2023-03-15 15:23:57:107,0,-4.62028,-4.53821,-17.6575,Q,Q
2023-03-15 15:23:57:117,0,-4.61451,-4.53507,-17.6762,Q,Q
2023-03-15 15:23:57:126,0,-4.6081,-4.53363,-17.6859,Q,Q
2023-03-15 15:23:57:136,0,-4.59982,-4.53558,-17.6865,Q,Q
2023-03-15 15:23:57:146,0,-4.59623,-4.53376,-17.6769,Q,Q
2023-03-15 15:23:57:157,0,-4.59339,-4.53322,-17.6582,Q,Q
2023-03-15 15:23:57:166,0,-4.58973,-4.53054,-17.6289,Q,Q
2023-03-15 15:23:57:176,0,-4.58995,-4.52976,-17.5925,Q,Q
2023-03-15 15:23:57:186,0,-4.5898,-4.52351,-17.5499,Q,Q
2023-03-15 15:23:57:196,0,-4.58706,-4.51878,-17.5038,Q,Q
2023-03-15 15:23:57:206,0,-4.58602,-4.51196,-17.4543,Q,Q
2023-03-15 15:23:57:216,0,-4.57945,-4.50606,-17.4151,Q,Q
2023-03-15 15:23:57:226,0,-4.56887,-4.50139,-17.3827,Q,Q
2023-03-15 15:23:57:236,0,-4.55224,-4.49517,-17.3605,Q,Q
2023-03-15 15:23:57:246,0,-4.52949,-4.49389,-17.3501,Q,Q
2023-03-15 15:23:57:256,0,-4.49915,-4.49495,-17.3473,Q,Q
2023-03-15 15:23:57:266,0,-4.46632,-4.49464,-17.3478,Q,Q
2023-03-15 15:23:57:276,0,-4.43298,-4.49852,-17.3502,Q,Q
2023-03-15 15:23:57:286,0,-4.40113,-4.50498,-17.356,Q,Q
2023-03-15 15:23:57:296,0,-4.37379,-4.51031,-17.3586,Q,Q
2023-03-15 15:23:57:307,0,-4.351,-4.51469,-17.3574,Q,Q
2023-03-15 15:23:57:317,0,-4.33297,-4.52552,-17.3582,Q,Q
2023-03-15 15:23:57:327,0,-4.31496,-4.53534,-17.3502,Q,Q
2023-03-15 15:23:57:337,0,-4.29666,-4.54066,-17.3424,Q,Q
2023-03-15 15:23:57:347,0,-4.27886,-4.54542,-17.3223,Q,Q
2023-03-15 15:23:57:357,0,-4.26057,-4.54432,-17.3021,Q,Q
2023-03-15 15:23:57:366,0,-4.242,-4.5427,-17.2731,Q,Q
2023-03-15 15:23:57:377,0,-4.22478,-4.53864,-17.2412,Q,Q
2023-03-15 15:23:57:386,0,-4.20984,-4.53711,-17.2051,Q,Q
2023-03-15 15:23:57:396,0,-4.19922,-4.53415,-17.1708,Q,Q
2023-03-15 15:23:57:406,0,-4.19395,-4.53504,-17.1348,Q,Q
2023-03-15 15:23:57:417,0,-4.1853,-4.53353,-17.0984,Q,Q
2023-03-15 15:23:57:426,0,-4.178,-4.53411,-17.0699,Q,Q
2023-03-15 15:23:57:437,0,-4.16971,-4.53306,-17.049,Q,Q
2023-03-15 15:23:57:447,0,-4.15955,-4.53221,-17.0344,Q,Q
2023-03-15 15:23:57:457,0,-4.15022,-4.52912,-17.0191,Q,Q
2023-03-15 15:23:57:467,0,-4.14053,-4.52953,-17.0088,Q,Q
2023-03-15 15:23:57:477,0,-4.13386,-4.52393,-17.0029,Q,Q
2023-03-15 15:23:57:486,0,-4.13046,-4.52075,-17.0061,Q,Q
2023-03-15 15:23:57:496,0,-4.12661,-4.51608,-17.0112,Q,Q
2023-03-15 15:23:57:506,0,-4.12163,-4.51175,-17.0142,Q,Q
2023-03-15 15:23:57:516,0,-4.12014,-4.51659,-17.0164,Q,Q
2023-03-15 15:23:57:526,0,-4.12075,-4.5167,-17.0166,Q,Q
2023-03-15 15:23:57:536,0,-4.12606,-4.51522,-17.0155,Q,Q
2023-03-15 15:23:57:546,0,-4.13347,-4.51429,-17.0133,Q,Q
2023-03-15 15:23:57:556,0,-4.14348,-4.50914,-17.0139,Q,Q
2023-03-15 15:23:57:566,0,-4.15163,-4.50299,-17.0133,Q,Q
2023-03-15 15:23:57:576,0,-4.16011,-4.49313,-17.009,Q,Q
2023-03-15 15:23:57:586,0,-4.16465,-4.48496,-17.0055,Q,Q
2023-03-15 15:23:57:596,0,-4.16984,-4.46986,-17.0037,Q,Q
2023-03-15 15:23:57:606,0,-4.17319,-4.45617,-17.0015,Q,Q
2023-03-15 15:23:57:616,0,-4.17324,-4.4414,-17.002,Q,Q
2023-03-15 15:23:57:626,0,-4.17665,-4.42337,-17.0046,Q,Q
2023-03-15 15:23:57:636,0,-4.17905,-4.40912,-17.0079,Q,Q
2023-03-15 15:23:57:646,0,-4.18193,-4.39354,-17.0142,Q,Q
2023-03-15 15:23:57:656,0,-4.18577,-4.38418,-17.0263,Q,Q
2023-03-15 15:23:57:666,0,-4.18567,-4.37609,-17.0396,Q,Q
2023-03-15 15:23:57:676,0,-4.19079,-4.37035,-17.057,Q,Q
2023-03-15 15:23:57:686,0,-4.19569,-4.36408,-17.0756,Q,Q
2023-03-15 15:23:57:696,0,-4.20371,-4.35803,-17.0937,Q,Q
2023-03-15 15:23:57:706,0,-4.2136,-4.35641,-17.1136,Q,Q
2023-03-15 15:23:57:716,0,-4.22532,-4.35488,-17.1331,Q,Q
2023-03-15 15:23:57:726,0,-4.23335,-4.35257,-17.1525,Q,Q
2023-03-15 15:23:57:736,0,-4.23307,-4.35076,-17.1675,Q,Q
2023-03-15 15:23:57:746,0,-4.2331,-4.34844,-17.1788,Q,Q
2023-03-15 15:23:57:756,0,-4.238,-4.35383,-17.1798,Q,Q
2023-03-15 15:23:57:766,0,-4.24037,-4.3616,-17.1788,Q,Q
2023-03-15 15:23:57:776,0,-4.24411,-4.36573,-17.1741,Q,Q
2023-03-15 15:23:57:786,0,-4.24966,-4.36256,-17.1652,Q,Q
2023-03-15 15:23:57:796,0,-4.25488,-4.35782,-17.1568,Q,Q
2023-03-15 15:23:57:806,0,-4.2615,-4.35077,-17.1461,Q,Q
2023-03-15 15:23:57:816,0,-4.26958,-4.34065,-17.1369,Q,Q
2023-03-15 15:23:57:826,0,-4.27411,-4.33311,-17.1268,Q,Q
2023-03-15 15:23:57:836,0,-4.2757,-4.32782,-17.1228,Q,Q
2023-03-15 15:23:57:846,0,-4.27764,-4.31924,-17.124,Q,Q
2023-03-15 15:23:57:856,0,-4.27816,-4.31555,-17.1215,Q,Q
2023-03-15 15:23:57:866,0,-4.28067,-4.31115,-17.1172,Q,Q
2023-03-15 15:23:57:876,0,-4.27737,-4.3055,-17.1176,Q,Q
2023-03-15 15:23:57:886,0,-4.27123,-4.30368,-17.121,Q,Q
2023-03-15 15:23:57:897,0,-4.2662,-4.2956,-17.1218,Q,Q
2023-03-15 15:23:57:906,0,-4.26624,-4.29161,-17.1239,Q,Q
2023-03-15 15:23:57:916,0,-4.26472,-4.2871,-17.1245,Q,Q
2023-03-15 15:23:57:926,0,-4.26691,-4.28129,-17.1177,Q,Q
2023-03-15 15:23:57:936,0,-4.27079,-4.27422,-17.1144,Q,Q
2023-03-15 15:23:57:946,0,-4.28053,-4.26459,-17.1137,Q,Q
2023-03-15 15:23:57:956,0,-4.29636,-4.25661,-17.1121,Q,Q
2023-03-15 15:23:57:966,0,-4.30683,-4.24753,-17.1141,Q,Q
2023-03-15 15:23:57:976,0,-4.31622,-4.23887,-17.1162,Q,Q
2023-03-15 15:23:57:986,0,-4.32745,-4.23479,-17.1216,Q,Q
2023-03-15 15:23:57:997,0,-4.33904,-4.23506,-17.1296,Q,Q
2023-03-15 15:23:58:7,0,-4.34862,-4.23221,-17.1397,Q,Q
2023-03-15 15:23:58:17,0,-4.35453,-4.23313,-17.1502,Q,Q
2023-03-15 15:23:58:27,0,-4.35742,-4.23268,-17.157,Q,Q
2023-03-15 15:23:58:37,0,-4.36467,-4.23802,-17.162,Q,Q
2023-03-15 15:23:58:46,0,-4.36639,-4.23903,-17.1662,Q,Q
2023-03-15 15:23:58:57,0,-4.37094,-4.24081,-17.1657,Q,Q
2023-03-15 15:23:58:66,0,-4.37586,-4.24046,-17.1669,Q,Q
2023-03-15 15:23:58:77,0,-4.38029,-4.2373,-17.1666,Q,Q
2023-03-15 15:23:58:86,0,-4.38363,-4.23612,-17.1614,Q,Q
2023-03-15 15:23:58:97,0,-4.3841,-4.23653,-17.1563,Q,Q
2023-03-15 15:23:58:107,0,-4.38551,-4.24185,-17.156,Q,Q
2023-03-15 15:23:58:117,0,-4.38425,-4.24545,-17.1574,Q,Q
2023-03-15 15:23:58:126,0,-4.38153,-4.24727,-17.1556,Q,Q
2023-03-15 15:23:58:137,0,-4.38098,-4.25198,-17.1564,Q,Q
2023-03-15 15:23:58:147,0,-4.38011,-4.25139,-17.1602,Q,Q
2023-03-15 15:23:58:157,0,-4.37543,-4.25416,-17.1644,Q,Q
2023-03-15 15:23:58:167,0,-4.37514,-4.25484,-17.1654,Q,Q
2023-03-15 15:23:58:177,0,-4.37178,-4.25843,-17.1626,Q,Q
2023-03-15 15:23:58:186,0,-4.37107,-4.2626,-17.1582,Q,Q
2023-03-15 15:23:58:197,0,-4.37058,-4.26525,-17.1575,Q,Q
2023-03-15 15:23:58:206,0,-4.36261,-4.27022,-17.1564,Q,Q
2023-03-15 15:23:58:217,0,-4.35323,-4.27847,-17.1541,Q,Q
2023-03-15 15:23:58:227,0,-4.3439,-4.28831,-17.1468,Q,Q
2023-03-15 15:23:58:237,0,-4.33321,-4.30136,-17.1423,Q,Q
2023-03-15 15:23:58:247,0,-4.33167,-4.31442,-17.1404,Q,Q
2023-03-15 15:23:58:257,0,-4.33496,-4.32636,-17.1361,Q,Q
2023-03-15 15:23:58:267,0,-4.33873,-4.33709,-17.1351,Q,Q
2023-03-15 15:23:58:277,0,-4.34054,-4.34846,-17.1372,Q,Q
2023-03-15 15:23:58:287,0,-4.33937,-4.35869,-17.1425,Q,Q
2023-03-15 15:23:58:297,0,-4.33746,-4.36709,-17.1441,Q,Q
2023-03-15 15:23:58:307,0,-4.32961,-4.3757,-17.1472,Q,Q
2023-03-15 15:23:58:317,0,-4.31419,-4.38828,-17.1543,Q,Q
2023-03-15 15:23:58:327,0,-4.28976,-4.39229,-17.158,Q,Q
2023-03-15 15:23:58:336,0,-4.26129,-4.40215,-17.1614,Q,Q
2023-03-15 15:23:58:346,0,-4.23679,-4.40995,-17.1619,Q,Q
2023-03-15 15:23:58:357,0,-4.20759,-4.42303,-17.1651,Q,Q
2023-03-15 15:23:58:366,0,-4.18807,-4.43413,-17.171,Q,Q
2023-03-15 15:23:58:377,0,-4.16911,-4.44338,-17.1721,Q,Q
2023-03-15 15:23:58:387,0,-4.15453,-4.4579,-17.1719,Q,Q
2023-03-15 15:23:58:397,0,-4.13408,-4.46705,-17.1702,Q,Q
2023-03-15 15:23:58:406,0,-4.12004,-4.47496,-17.1695,Q,Q
2023-03-15 15:23:58:416,0,-4.10408,-4.48024,-17.1677,Q,Q
2023-03-15 15:23:58:426,0,-4.08625,-4.48399,-17.1654,Q,Q
2023-03-15 15:23:58:436,0,-4.06651,-4.49336,-17.1591,Q,Q
2023-03-15 15:23:58:446,0,-4.05418,-4.50433,-17.1479,Q,Q
2023-03-15 15:23:58:457,0,-4.042,-4.51937,-17.1329,Q,Q
2023-03-15 15:23:58:467,0,-4.03438,-4.53526,-17.119,Q,Q
2023-03-15 15:23:58:476,0,-4.02556,-4.54985,-17.107,Q,Q
2023-03-15 15:23:58:486,0,-4.01602,-4.56089,-17.0994,Q,Q
2023-03-15 15:23:58:496,0,-4.00433,-4.5719,-17.0878,Q,Q
2023-03-15 15:23:58:506,0,-3.99597,-4.58252,-17.0762,Q,Q
2023-03-15 15:23:58:516,0,-3.98443,-4.59426,-17.0639,Q,Q
2023-03-15 15:23:58:526,0,-3.97722,-4.60874,-17.051,Q,Q
2023-03-15 15:23:58:536,0,-3.97063,-4.62054,-17.0396,Q,Q
2023-03-15 15:23:58:546,0,-3.96592,-4.63202,-17.0232,Q,Q
2023-03-15 15:23:58:556,0,-3.96064,-4.6453,-17.0115,Q,Q
2023-03-15 15:23:58:566,0,-3.95879,-4.65644,-17.001,Q,Q
2023-03-15 15:23:58:576,0,-3.95335,-4.67287,-16.9868,Q,Q
2023-03-15 15:23:58:586,0,-3.95095,-4.68156,-16.9711,Q,Q
2023-03-15 15:23:58:596,0,-3.95054,-4.69379,-16.9625,Q,Q
2023-03-15 15:23:58:606,0,-3.95081,-4.70396,-16.9533,Q,Q
2023-03-15 15:23:58:616,0,-3.9537,-4.71503,-16.946,Q,Q
2023-03-15 15:23:58:626,0,-3.95748,-4.7224,-16.9375,Q,Q
2023-03-15 15:23:58:636,0,-3.96239,-4.73545,-16.9325,Q,Q
2023-03-15 15:23:58:646,0,-3.96493,-4.74388,-16.9245,Q,Q
2023-03-15 15:23:58:656,0,-3.96954,-4.75436,-16.9142,Q,Q
2023-03-15 15:23:58:666,0,-3.97427,-4.76286,-16.9085,Q,Q
2023-03-15 15:23:58:676,0,-3.9787,-4.77295,-16.9042,Q,Q
2023-03-15 15:23:58:686,0,-3.98071,-4.78408,-16.8967,Q,Q
2023-03-15 15:23:58:696,0,-3.98034,-4.7932,-16.8901,Q,Q
2023-03-15 15:23:58:707,0,-3.98267,-4.80385,-16.8841,Q,Q
2023-03-15 15:23:58:717,0,-3.98442,-4.81231,-16.8775,Q,Q
2023-03-15 15:23:58:727,0,-3.99061,-4.81662,-16.8719,Q,Q
2023-03-15 15:23:58:737,0,-3.99897,-4.81984,-16.8698,Q,Q
2023-03-15 15:23:58:747,0,-4.00831,-4.82246,-16.8651,Q,Q
2023-03-15 15:23:58:757,0,-4.01579,-4.82628,-16.8627,Q,Q
2023-03-15 15:23:58:767,0,-4.02125,-4.82737,-16.8649,Q,Q
2023-03-15 15:23:58:777,0,-4.02603,-4.8256,-16.8653,Q,Q
2023-03-15 15:23:58:786,0,-4.0295,-4.82791,-16.8685,Q,Q
2023-03-15 15:23:58:796,0,-4.0297,-4.82533,-16.8732,Q,Q
2023-03-15 15:23:58:807,0,-4.02786,-4.82648,-16.8787,Q,Q
2023-03-15 15:23:58:817,0,-4.02823,-4.82466,-16.8825,Q,Q
2023-03-15 15:23:58:827,0,-4.02681,-4.82143,-16.887,Q,Q
2023-03-15 15:23:58:837,0,-4.02952,-4.81808,-16.8907,Q,Q
2023-03-15 15:23:58:846,0,-4.03131,-4.81701,-16.893,Q,Q
2023-03-15 15:23:58:857,0,-4.03627,-4.81363,-16.8925,Q,Q
2023-03-15 15:23:58:867,0,-4.04024,-4.8094,-16.895,Q,Q
2023-03-15 15:23:58:877,0,-4.04312,-4.80831,-16.8943,Q,Q
2023-03-15 15:23:58:887,0,-4.03944,-4.80631,-16.8957,Q,Q
2023-03-15 15:23:58:897,0,-4.03781,-4.80951,-16.8947,Q,Q
2023-03-15 15:23:58:907,0,-4.03855,-4.81196,-16.8895,Q,Q
2023-03-15 15:23:58:917,0,-4.04285,-4.81551,-16.8852,Q,Q
2023-03-15 15:23:58:926,0,-4.04593,-4.81706,-16.8788,Q,Q
2023-03-15 15:23:58:936,0,-4.05302,-4.81294,-16.8736,Q,Q
2023-03-15 15:23:58:947,0,-4.0558,-4.81397,-16.8669,Q,Q
2023-03-15 15:23:58:956,0,-4.05897,-4.81224,-16.8619,Q,Q
2023-03-15 15:23:58:967,0,-4.06031,-4.8099,-16.8586,Q,Q
2023-03-15 15:23:58:976,0,-4.05819,-4.80797,-16.8563,Q,Q
2023-03-15 15:23:58:986,0,-4.05435,-4.80515,-16.8531,Q,Q
2023-03-15 15:23:58:997,0,-4.05292,-4.80105,-16.8518,Q,Q
2023-03-15 15:23:59:6,0,-4.05072,-4.79282,-16.8528,Q,Q
2023-03-15 15:23:59:17,0,-4.047,-4.7847,-16.8518,Q,Q
2023-03-15 15:23:59:26,0,-4.04791,-4.77929,-16.8538,Q,Q
2023-03-15 15:23:59:36,0,-4.04919,-4.77071,-16.8581,Q,Q
2023-03-15 15:23:59:47,0,-4.05032,-4.76367,-16.8642,Q,Q
2023-03-15 15:23:59:56,0,-4.05413,-4.76098,-16.8645,Q,Q
2023-03-15 15:23:59:67,0,-4.06128,-4.7552,-16.8602,Q,Q
2023-03-15 15:23:59:77,0,-4.07106,-4.75132,-16.8495,Q,Q
2023-03-15 15:23:59:86,0,-4.07743,-4.74838,-16.8392,Q,Q
2023-03-15 15:23:59:96,0,-4.08657,-4.74745,-16.8253,Q,Q
2023-03-15 15:23:59:106,0,-4.09155,-4.74757,-16.8186,Q,Q
2023-03-15 15:23:59:116,0,-4.09251,-4.7514,-16.8107,Q,Q
2023-03-15 15:23:59:126,0,-4.0897,-4.75702,-16.8039,Q,Q
2023-03-15 15:23:59:136,0,-4.08858,-4.7638,-16.8011,Q,Q
2023-03-15 15:23:59:146,0,-4.08665,-4.77181,-16.8071,Q,Q
2023-03-15 15:23:59:156,0,-4.08446,-4.76982,-16.8196,Q,Q
2023-03-15 15:23:59:166,0,-4.08397,-4.76145,-16.8384,Q,Q
2023-03-15 15:23:59:176,0,-4.08621,-4.74591,-16.8623,Q,Q
2023-03-15 15:23:59:186,0,-4.09285,-4.72468,-16.89,Q,Q
2023-03-15 15:23:59:197,0,-4.10083,-4.6913,-16.9193,Q,Q
2023-03-15 15:23:59:206,0,-4.11073,-4.65328,-16.9514,Q,Q
2023-03-15 15:23:59:217,0,-4.13205,-4.61096,-16.9804,Q,Q
2023-03-15 15:23:59:227,0,-4.16207,-4.56306,-17.0022,Q,Q
2023-03-15 15:23:59:236,0,-4.20029,-4.51513,-17.022,Q,Q
2023-03-15 15:23:59:247,0,-4.24788,-4.46718,-17.0313,Q,Q
2023-03-15 15:23:59:257,0,-4.29733,-4.41875,-17.0342,Q,Q
2023-03-15 15:23:59:267,0,-4.352,-4.37652,-17.0267,Q,Q
2023-03-15 15:23:59:277,0,-4.41202,-4.33408,-17.0153,Q,Q
2023-03-15 15:23:59:287,0,-4.47498,-4.3044,-16.9949,Q,Q
2023-03-15 15:23:59:297,0,-4.53887,-4.27655,-16.9712,Q,Q
2023-03-15 15:23:59:306,0,-4.60912,-4.25724,-16.9449,Q,Q
2023-03-15 15:23:59:317,0,-4.67889,-4.24241,-16.9208,Q,Q
2023-03-15 15:23:59:326,0,-4.74532,-4.22796,-16.8961,Q,Q
2023-03-15 15:23:59:337,0,-4.80443,-4.21703,-16.874,Q,Q
2023-03-15 15:23:59:346,0,-4.86216,-4.20656,-16.8487,Q,Q
2023-03-15 15:23:59:357,0,-4.91661,-4.19604,-16.8283,Q,Q
2023-03-15 15:23:59:366,0,-4.96667,-4.18732,-16.8007,Q,Q
2023-03-15 15:23:59:376,0,-5.01589,-4.18076,-16.7747,Q,Q
2023-03-15 15:23:59:387,0,-5.06497,-4.17932,-16.747,Q,Q
2023-03-15 15:23:59:397,0,-5.10899,-4.1809,-16.7165,Q,Q
2023-03-15 15:23:59:406,0,-5.14715,-4.18749,-16.6838,Q,Q
2023-03-15 15:23:59:417,0,-5.18681,-4.19588,-16.6543,Q,Q
2023-03-15 15:23:59:427,0,-5.21684,-4.20303,-16.6301,Q,Q
2023-03-15 15:23:59:437,0,-5.23611,-4.21214,-16.6094,Q,Q
2023-03-15 15:23:59:446,0,-5.2486,-4.2227,-16.5922,Q,Q
2023-03-15 15:23:59:456,0,-5.25933,-4.23526,-16.5794,Q,Q
2023-03-15 15:23:59:466,0,-5.26951,-4.24378,-16.5643,Q,Q
2023-03-15 15:23:59:476,0,-5.27394,-4.25415,-16.5584,Q,Q
2023-03-15 15:23:59:486,0,-5.27554,-4.269,-16.5472,Q,Q
2023-03-15 15:23:59:496,0,-5.27779,-4.28182,-16.5401,Q,Q
2023-03-15 15:23:59:506,0,-5.27501,-4.29378,-16.5394,Q,Q
2023-03-15 15:23:59:516,0,-5.2731,-4.30665,-16.5418,Q,Q
2023-03-15 15:23:59:526,0,-5.26784,-4.32543,-16.543,Q,Q
2023-03-15 15:23:59:537,0,-5.27454,-4.36175,-16.537,Q,Q
2023-03-15 15:23:59:547,0,-5.28644,-4.39993,-16.5398,Q,Q
2023-03-15 15:23:59:557,0,-5.29812,-4.44929,-16.5466,Q,Q
2023-03-15 15:23:59:567,0,-5.30727,-4.48835,-16.5561,Q,Q
2023-03-15 15:23:59:576,0,-5.31038,-4.53164,-16.5747,Q,Q
2023-03-15 15:23:59:587,0,-5.31609,-4.58542,-16.5907,Q,Q
2023-03-15 15:23:59:597,0,-5.32896,-4.65106,-16.5989,Q,Q
2023-03-15 15:23:59:607,0,-5.35391,-4.71644,-16.6091,Q,Q
2023-03-15 15:23:59:617,0,-5.37541,-4.77716,-16.6253,Q,Q
2023-03-15 15:23:59:626,0,-5.38936,-4.83545,-16.6471,Q,Q
2023-03-15 15:23:59:637,0,-5.40349,-4.89797,-16.6702,Q,Q
2023-03-15 15:23:59:646,0,-5.42005,-4.96196,-16.6934,Q,Q
2023-03-15 15:23:59:657,0,-5.4314,-5.02866,-16.7303,Q,Q
2023-03-15 15:23:59:667,0,-5.43141,-5.0903,-16.7722,Q,Q
2023-03-15 15:23:59:677,0,-5.42459,-5.14641,-16.8213,Q,Q
2023-03-15 15:23:59:686,0,-5.41514,-5.20281,-16.8716,Q,Q
2023-03-15 15:23:59:696,0,-5.40911,-5.2525,-16.9102,Q,Q
2023-03-15 15:23:59:707,0,-5.40994,-5.30316,-16.9411,Q,Q
2023-03-15 15:23:59:717,0,-5.4163,-5.35036,-16.9675,Q,Q
2023-03-15 15:23:59:727,0,-5.42527,-5.38184,-16.9878,Q,Q
2023-03-15 15:23:59:736,0,-5.43319,-5.39899,-17.0079,Q,Q
2023-03-15 15:23:59:747,0,-5.44002,-5.40629,-17.0216,Q,Q
2023-03-15 15:23:59:757,0,-5.45643,-5.40647,-17.0242,Q,Q
2023-03-15 15:23:59:767,0,-5.48861,-5.41808,-17.0219,Q,Q
2023-03-15 15:23:59:777,0,-5.53435,-5.42909,-17.0226,Q,Q
2023-03-15 15:23:59:787,0,-5.57869,-5.42609,-17.0347,Q,Q
2023-03-15 15:23:59:797,0,-5.61634,-5.41639,-17.0519,Q,Q
2023-03-15 15:23:59:806,0,-5.64681,-5.40829,-17.0632,Q,Q
2023-03-15 15:23:59:817,0,-5.68654,-5.4101,-17.0653,Q,Q
2023-03-15 15:23:59:827,0,-5.7349,-5.41545,-17.0667,Q,Q
2023-03-15 15:23:59:837,0,-5.78279,-5.42341,-17.0801,Q,Q
2023-03-15 15:23:59:847,0,-5.82865,-5.42434,-17.0901,Q,Q
2023-03-15 15:23:59:857,0,-5.87155,-5.42022,-17.0998,Q,Q
2023-03-15 15:23:59:867,0,-5.91402,-5.40371,-17.1087,Q,Q
2023-03-15 15:23:59:877,0,-5.95871,-5.38173,-17.1145,Q,Q
2023-03-15 15:23:59:887,0,-6.00342,-5.35651,-17.117,Q,Q
2023-03-15 15:23:59:897,0,-6.04722,-5.33227,-17.1118,Q,Q
2023-03-15 15:23:59:907,0,-6.08817,-5.30479,-17.1022,Q,Q
2023-03-15 15:23:59:917,0,-6.12114,-5.2689,-17.0964,Q,Q
2023-03-15 15:23:59:927,0,-6.15031,-5.23489,-17.0908,Q,Q
2023-03-15 15:23:59:936,0,-6.1746,-5.20304,-17.0867,Q,Q
2023-03-15 15:23:59:947,0,-6.19601,-5.16955,-17.0805,Q,Q
2023-03-15 15:23:59:956,0,-6.21789,-5.13988,-17.0781,Q,Q
2023-03-15 15:23:59:966,0,-6.23314,-5.11412,-17.0737,Q,Q
2023-03-15 15:23:59:977,0,-6.24802,-5.08992,-17.0732,Q,Q
2023-03-15 15:23:59:986,0,-6.26789,-5.06798,-17.0711,Q,Q
2023-03-15 15:23:59:996,0,-6.28918,-5.04946,-17.0699,Q,Q
2023-03-15 15:24:00:6,0,-6.31452,-5.03112,-17.0656,Q,Q
2023-03-15 15:24:00:16,0,-6.34401,-5.01793,-17.0576,Q,Q
2023-03-15 15:24:00:26,0,-6.37666,-5.00286,-17.0564,Q,Q
2023-03-15 15:24:00:36,0,-6.4019,-4.99295,-17.0551,Q,Q
2023-03-15 15:24:00:46,0,-6.42601,-4.98058,-17.0568,Q,Q
2023-03-15 15:24:00:56,0,-6.44257,-4.97186,-17.0573,Q,Q
2023-03-15 15:24:00:67,0,-6.4597,-4.98083,-17.0549,Q,Q
2023-03-15 15:24:00:77,0,-6.49084,-4.98986,-17.0517,Q,Q
2023-03-15 15:24:00:87,0,-6.50655,-4.98707,-17.0549,Q,Q
2023-03-15 15:24:00:97,0,-6.51121,-4.97549,-17.0523,Q,Q
2023-03-15 15:24:00:107,0,-6.50806,-4.97319,-17.0568,Q,Q
2023-03-15 15:24:00:117,0,-6.50751,-4.98043,-17.0724,Q,Q
2023-03-15 15:24:00:126,0,-6.51217,-4.98981,-17.0828,Q,Q
2023-03-15 15:24:00:137,0,-6.51214,-4.99684,-17.091,Q,Q
2023-03-15 15:24:00:147,0,-6.50026,-5.00556,-17.1083,Q,Q
2023-03-15 15:24:00:157,0,-6.48229,-5.00948,-17.1313,Q,Q
2023-03-15 15:24:00:167,0,-6.46377,-5.01445,-17.15,Q,Q
2023-03-15 15:24:00:177,0,-6.45144,-5.01456,-17.1655,Q,Q
2023-03-15 15:24:00:187,0,-6.44516,-5.01354,-17.1776,Q,Q
2023-03-15 15:24:00:197,0,-6.43793,-5.01215,-17.1881,Q,Q
2023-03-15 15:24:00:206,0,-6.42605,-5.00325,-17.2033,Q,Q
2023-03-15 15:24:00:217,0,-6.40679,-4.99325,-17.2238,Q,Q
2023-03-15 15:24:00:227,0,-6.38518,-4.98233,-17.2332,Q,Q
2023-03-15 15:24:00:237,0,-6.36908,-4.97535,-17.2399,Q,Q
2023-03-15 15:24:00:247,0,-6.3568,-4.97259,-17.2423,Q,Q
2023-03-15 15:24:00:257,0,-6.34412,-4.96783,-17.2433,Q,Q
2023-03-15 15:24:00:267,0,-6.31986,-4.95891,-17.2402,Q,Q
2023-03-15 15:24:00:277,0,-6.29183,-4.9662,-17.2335,Q,Q
2023-03-15 15:24:00:286,0,-6.27606,-4.97577,-17.2152,Q,Q
2023-03-15 15:24:00:296,0,-6.26084,-4.99136,-17.1935,Q,Q
2023-03-15 15:24:00:306,0,-6.24021,-5.00852,-17.1718,Q,Q
2023-03-15 15:24:00:316,0,-6.22118,-5.02437,-17.1481,Q,Q
2023-03-15 15:24:00:327,0,-6.19659,-5.03595,-17.1265,Q,Q
2023-03-15 15:24:00:337,0,-6.16951,-5.04878,-17.1081,Q,Q
2023-03-15 15:24:00:347,0,-6.14031,-5.0618,-17.0968,Q,Q
2023-03-15 15:24:00:357,0,-6.10637,-5.07779,-17.086,Q,Q
2023-03-15 15:24:00:367,0,-6.06296,-5.09347,-17.079,Q,Q
2023-03-15 15:24:00:377,0,-6.01497,-5.10876,-17.0797,Q,Q
2023-03-15 15:24:00:387,0,-5.96056,-5.12155,-17.0834,Q,Q
2023-03-15 15:24:00:397,0,-5.90474,-5.13648,-17.0947,Q,Q
2023-03-15 15:24:00:406,0,-5.85607,-5.15452,-17.1021,Q,Q
2023-03-15 15:24:00:417,0,-5.81107,-5.17091,-17.1124,Q,Q
2023-03-15 15:24:00:427,0,-5.76993,-5.18168,-17.1259,Q,Q
2023-03-15 15:24:00:437,0,-5.73346,-5.18787,-17.1384,Q,Q
2023-03-15 15:24:00:446,0,-5.70263,-5.19139,-17.1491,Q,Q
2023-03-15 15:24:00:457,0,-5.68036,-5.18828,-17.1551,Q,Q
2023-03-15 15:24:00:467,0,-5.65931,-5.17778,-17.1593,Q,Q
2023-03-15 15:24:00:476,0,-5.63926,-5.16382,-17.1614,Q,Q
2023-03-15 15:24:00:486,0,-5.62173,-5.14266,-17.158,Q,Q
2023-03-15 15:24:00:496,0,-5.59884,-5.12765,-17.1493,Q,Q
2023-03-15 15:24:00:506,0,-5.57576,-5.11537,-17.1334,Q,Q
2023-03-15 15:24:00:516,0,-5.55305,-5.11031,-17.1146,Q,Q
2023-03-15 15:24:00:526,0,-5.52995,-5.10485,-17.0965,Q,Q
2023-03-15 15:24:00:536,0,-5.50374,-5.09964,-17.0814,Q,Q
2023-03-15 15:24:00:546,0,-5.47866,-5.09261,-17.0678,Q,Q
2023-03-15 15:24:00:557,0,-5.45143,-5.08685,-17.0582,Q,Q
2023-03-15 15:24:00:566,0,-5.42447,-5.08283,-17.051,Q,Q
2023-03-15 15:24:00:576,0,-5.39457,-5.08136,-17.0473,Q,Q
2023-03-15 15:24:00:586,0,-5.36561,-5.07884,-17.0523,Q,Q
2023-03-15 15:24:00:597,0,-5.33833,-5.07856,-17.0562,Q,Q
2023-03-15 15:24:00:606,0,-5.30559,-5.07917,-17.0641,Q,Q
2023-03-15 15:24:00:617,0,-5.27094,-5.07911,-17.0706,Q,Q
2023-03-15 15:24:00:627,0,-5.24266,-5.079,-17.0781,Q,Q
2023-03-15 15:24:00:637,0,-5.21611,-5.08197,-17.0835,Q,Q
2023-03-15 15:24:00:647,0,-5.18975,-5.08927,-17.0874,Q,Q
2023-03-15 15:24:00:657,0,-5.17067,-5.09138,-17.0856,Q,Q
2023-03-15 15:24:00:667,0,-5.14782,-5.09558,-17.0838,Q,Q
2023-03-15 15:24:00:676,0,-5.13183,-5.10195,-17.0769,Q,Q
2023-03-15 15:24:00:686,0,-5.12048,-5.10638,-17.0661,Q,Q
2023-03-15 15:24:00:697,0,-5.10985,-5.11456,-17.0557,Q,Q
2023-03-15 15:24:00:707,0,-5.10248,-5.12327,-17.0446,Q,Q
2023-03-15 15:24:00:717,0,-5.09112,-5.12899,-17.0282,Q,Q
2023-03-15 15:24:00:727,0,-5.0823,-5.13487,-17.0148,Q,Q
2023-03-15 15:24:00:737,0,-5.07628,-5.14292,-16.9995,Q,Q
2023-03-15 15:24:00:747,0,-5.07698,-5.15073,-16.9856,Q,Q
2023-03-15 15:24:00:757,0,-5.07174,-5.15881,-16.9743,Q,Q
2023-03-15 15:24:00:766,0,-5.07036,-5.16863,-16.963,Q,Q
2023-03-15 15:24:00:777,0,-5.06564,-5.18159,-16.9553,Q,Q
2023-03-15 15:24:00:786,0,-5.06489,-5.19262,-16.9434,Q,Q
2023-03-15 15:24:00:796,0,-5.06195,-5.20448,-16.9369,Q,Q
2023-03-15 15:24:00:806,0,-5.05785,-5.21608,-16.9327,Q,Q
2023-03-15 15:24:00:816,0,-5.05526,-5.22424,-16.9281,Q,Q
2023-03-15 15:24:00:826,0,-5.05356,-5.23018,-16.9224,Q,Q
2023-03-15 15:24:00:836,0,-5.0481,-5.23803,-16.9172,Q,Q
2023-03-15 15:24:00:846,0,-5.04347,-5.24088,-16.9121,Q,Q
2023-03-15 15:24:00:856,0,-5.03948,-5.24454,-16.9047,Q,Q
2023-03-15 15:24:00:866,0,-5.03849,-5.24702,-16.8972,Q,Q
2023-03-15 15:24:00:876,0,-5.03765,-5.24542,-16.8912,Q,Q
2023-03-15 15:24:00:886,0,-5.03487,-5.24346,-16.8857,Q,Q
2023-03-15 15:24:00:896,0,-5.03361,-5.2383,-16.8795,Q,Q
2023-03-15 15:24:00:906,0,-5.03264,-5.23673,-16.8743,Q,Q
2023-03-15 15:24:00:916,0,-5.0284,-5.22909,-16.8689,Q,Q
2023-03-15 15:24:00:926,0,-5.02404,-5.22115,-16.8648,Q,Q
2023-03-15 15:24:00:936,0,-5.01584,-5.21475,-16.8633,Q,Q
2023-03-15 15:24:00:946,0,-5.00841,-5.20312,-16.8628,Q,Q
2023-03-15 15:24:00:956,0,-5.00224,-5.1964,-16.8644,Q,Q
2023-03-15 15:24:00:966,0,-4.99766,-5.19331,-16.8695,Q,Q
2023-03-15 15:24:00:976,0,-4.99256,-5.18837,-16.8765,Q,Q
2023-03-15 15:24:00:986,0,-4.98962,-5.18491,-16.8854,Q,Q
2023-03-15 15:24:00:996,0,-4.99037,-5.1817,-16.896,Q,Q
2023-03-15 15:24:01:6,0,-4.98517,-5.17726,-16.904,Q,Q
2023-03-15 15:24:01:16,0,-4.98329,-5.1782,-16.9044,Q,Q
2023-03-15 15:24:01:26,0,-4.98278,-5.17994,-16.905,Q,Q
2023-03-15 15:24:01:37,0,-4.98312,-5.17981,-16.9017,Q,Q
2023-03-15 15:24:01:46,0,-4.98846,-5.17858,-16.901,Q,Q
2023-03-15 15:24:01:57,0,-4.99432,-5.1734,-16.8952,Q,Q
2023-03-15 15:24:01:66,0,-4.99955,-5.16372,-16.8856,Q,Q
2023-03-15 15:24:01:77,0,-5.00969,-5.15653,-16.8772,Q,Q
2023-03-15 15:24:01:86,0,-5.01515,-5.14886,-16.8684,Q,Q
2023-03-15 15:24:01:97,0,-5.01897,-5.14309,-16.8578,Q,Q
2023-03-15 15:24:01:106,0,-5.01711,-5.14037,-16.8546,Q,Q
2023-03-15 15:24:01:117,0,-5.01152,-5.14159,-16.8557,Q,Q
2023-03-15 15:24:01:127,0,-5.0085,-5.13785,-16.8585,Q,Q
2023-03-15 15:24:01:136,0,-5.00888,-5.13438,-16.8615,Q,Q
2023-03-15 15:24:01:147,0,-5.0156,-5.1355,-16.8607,Q,Q
2023-03-15 15:24:01:157,0,-5.02375,-5.13504,-16.8633,Q,Q
2023-03-15 15:24:01:166,0,-5.03865,-5.13264,-16.8682,Q,Q
2023-03-15 15:24:01:177,0,-5.05267,-5.13029,-16.8739,Q,Q
2023-03-15 15:24:01:187,0,-5.07043,-5.13116,-16.8748,Q,Q
2023-03-15 15:24:01:196,0,-5.08405,-5.12858,-16.8739,Q,Q
2023-03-15 15:24:01:206,0,-5.09717,-5.12848,-16.8716,Q,Q
2023-03-15 15:24:01:217,0,-5.10864,-5.12199,-16.8664,Q,Q
2023-03-15 15:24:01:226,0,-5.11907,-5.11558,-16.8627,Q,Q
2023-03-15 15:24:01:237,0,-5.12441,-5.11148,-16.8546,Q,Q
2023-03-15 15:24:01:246,0,-5.13035,-5.10946,-16.8409,Q,Q
2023-03-15 15:24:01:257,0,-5.13512,-5.11664,-16.8268,Q,Q
2023-03-15 15:24:01:266,0,-5.13746,-5.11771,-16.8117,Q,Q
2023-03-15 15:24:01:276,0,-5.14381,-5.11754,-16.7985,Q,Q
2023-03-15 15:24:01:287,0,-5.14215,-5.12057,-16.7837,Q,Q
2023-03-15 15:24:01:296,0,-5.14084,-5.12407,-16.7699,Q,Q
2023-03-15 15:24:01:307,0,-5.1358,-5.12255,-16.7574,Q,Q
2023-03-15 15:24:01:317,0,-5.13108,-5.1205,-16.7525,Q,Q
2023-03-15 15:24:01:327,0,-5.12637,-5.12419,-16.745,Q,Q
2023-03-15 15:24:01:337,0,-5.12149,-5.12889,-16.7424,Q,Q
2023-03-15 15:24:01:347,0,-5.11371,-5.1321,-16.7398,Q,Q
2023-03-15 15:24:01:357,0,-5.10791,-5.13436,-16.7378,Q,Q
2023-03-15 15:24:01:367,0,-5.10122,-5.14209,-16.7402,Q,Q
2023-03-15 15:24:01:377,0,-5.09627,-5.15001,-16.7429,Q,Q
2023-03-15 15:24:01:386,0,-5.0909,-5.15154,-16.7462,Q,Q
2023-03-15 15:24:01:396,0,-5.08665,-5.15626,-16.7448,Q,Q
2023-03-15 15:24:01:406,0,-5.08152,-5.16033,-16.7433,Q,Q
2023-03-15 15:24:01:416,0,-5.0825,-5.16141,-16.7421,Q,Q
2023-03-15 15:24:01:426,0,-5.08038,-5.16105,-16.7377,Q,Q
2023-03-15 15:24:01:437,0,-5.08027,-5.16107,-16.7332,Q,Q
2023-03-15 15:24:01:447,0,-5.07824,-5.15783,-16.7287,Q,Q
2023-03-15 15:24:01:457,0,-5.08065,-5.15732,-16.7219,Q,Q
2023-03-15 15:24:01:466,0,-5.08223,-5.15396,-16.7166,Q,Q
2023-03-15 15:24:01:477,0,-5.08428,-5.15206,-16.7152,Q,Q
2023-03-15 15:24:01:487,0,-5.09052,-5.14764,-16.7154,Q,Q
2023-03-15 15:24:01:496,0,-5.09337,-5.14565,-16.7186,Q,Q
2023-03-15 15:24:01:506,0,-5.09994,-5.14162,-16.7226,Q,Q
2023-03-15 15:24:01:516,0,-5.09643,-5.13569,-16.7309,Q,Q
2023-03-15 15:24:01:526,0,-5.09268,-5.13196,-16.7393,Q,Q
2023-03-15 15:24:01:537,0,-5.08607,-5.1283,-16.745,Q,Q
2023-03-15 15:24:01:547,0,-5.08117,-5.12365,-16.7558,Q,Q
2023-03-15 15:24:01:557,0,-5.07722,-5.1233,-16.7644,Q,Q
2023-03-15 15:24:01:566,0,-5.0725,-5.12411,-16.7697,Q,Q
2023-03-15 15:24:01:577,0,-5.06713,-5.1221,-16.7768,Q,Q
2023-03-15 15:24:01:587,0,-5.06059,-5.12474,-16.7801,Q,Q
2023-03-15 15:24:01:597,0,-5.05643,-5.12453,-16.7828,Q,Q
2023-03-15 15:24:01:606,0,-5.05068,-5.12313,-16.7872,Q,Q
2023-03-15 15:24:01:616,0,-5.04486,-5.12637,-16.7888,Q,Q
2023-03-15 15:24:01:627,0,-5.03734,-5.12534,-16.7882,Q,Q
2023-03-15 15:24:01:637,0,-5.0296,-5.12226,-16.7858,Q,Q
2023-03-15 15:24:01:647,0,-5.01934,-5.12352,-16.7838,Q,Q
2023-03-15 15:24:01:656,0,-5.01099,-5.12353,-16.7791,Q,Q
2023-03-15 15:24:01:666,0,-5.00609,-5.12663,-16.7755,Q,Q
2023-03-15 15:24:01:677,0,-5.00056,-5.12949,-16.7711,Q,Q
2023-03-15 15:24:01:687,0,-4.99214,-5.12665,-16.7681,Q,Q
2023-03-15 15:24:01:696,0,-4.98789,-5.12921,-16.7635,Q,Q
2023-03-15 15:24:01:706,0,-4.98774,-5.1293,-16.7589,Q,Q
2023-03-15 15:24:01:717,0,-4.98188,-5.13538,-16.7543,Q,Q
2023-03-15 15:24:01:726,0,-4.97804,-5.13988,-16.7498,Q,Q
2023-03-15 15:24:01:736,0,-4.97646,-5.14285,-16.746,Q,Q
2023-03-15 15:24:01:747,0,-4.97273,-5.14738,-16.7405,Q,Q
2023-03-15 15:24:01:757,0,-4.96687,-5.15772,-16.7282,Q,Q
2023-03-15 15:24:01:766,0,-4.96712,-5.16965,-16.7132,Q,Q
2023-03-15 15:24:01:777,0,-4.96938,-5.18228,-16.6951,Q,Q
2023-03-15 15:24:01:787,0,-4.97435,-5.19374,-16.6834,Q,Q
2023-03-15 15:24:01:797,0,-4.98035,-5.2024,-16.6733,Q,Q
2023-03-15 15:24:01:807,0,-4.98982,-5.20533,-16.6598,Q,Q
2023-03-15 15:24:01:816,0,-4.998,-5.20714,-16.6475,Q,Q
2023-03-15 15:24:01:826,0,-5.0018,-5.21251,-16.6384,Q,Q
2023-03-15 15:24:01:837,0,-5.00299,-5.21614,-16.6296,Q,Q
2023-03-15 15:24:01:847,0,-5.00158,-5.21934,-16.6239,Q,Q
2023-03-15 15:24:01:857,0,-4.99761,-5.22105,-16.6246,Q,Q
2023-03-15 15:24:01:867,0,-4.99185,-5.2233,-16.6284,Q,Q
2023-03-15 15:24:01:876,0,-4.9847,-5.22484,-16.6326,Q,Q
2023-03-15 15:24:01:886,0,-4.98339,-5.22548,-16.636,Q,Q
2023-03-15 15:24:01:897,0,-4.98174,-5.22247,-16.6423,Q,Q
2023-03-15 15:24:01:907,0,-4.98313,-5.21838,-16.6495,Q,Q
2023-03-15 15:24:01:917,0,-4.98199,-5.214,-16.6563,Q,Q
2023-03-15 15:24:01:926,0,-4.98115,-5.20734,-16.6659,Q,Q
2023-03-15 15:24:01:937,0,-4.98479,-5.19991,-16.6718,Q,Q
2023-03-15 15:24:01:947,0,-4.9906,-5.19016,-16.6767,Q,Q
2023-03-15 15:24:01:957,0,-4.99545,-5.18311,-16.6828,Q,Q
2023-03-15 15:24:01:967,0,-4.99883,-5.17139,-16.6928,Q,Q
2023-03-15 15:24:01:977,0,-4.99587,-5.15961,-16.6983,Q,Q
2023-03-15 15:24:01:986,0,-4.99092,-5.15025,-16.7018,Q,Q
2023-03-15 15:24:01:997,0,-4.9879,-5.14691,-16.6987,Q,Q
2023-03-15 15:24:02:7,0,-4.98228,-5.14801,-16.6963,Q,Q
2023-03-15 15:24:02:16,0,-4.9766,-5.15084,-16.6915,Q,Q
2023-03-15 15:24:02:26,0,-4.9722,-5.1552,-16.6876,Q,Q
2023-03-15 15:24:02:36,0,-4.96895,-5.1573,-16.682,Q,Q
2023-03-15 15:24:02:46,0,-4.96383,-5.16011,-16.674,Q,Q
2023-03-15 15:24:02:56,0,-4.9613,-5.15998,-16.6701,Q,Q
2023-03-15 15:24:02:66,0,-4.95628,-5.15845,-16.6656,Q,Q
2023-03-15 15:24:02:76,0,-4.95321,-5.15974,-16.6603,Q,Q
2023-03-15 15:24:02:86,0,-4.94594,-5.16379,-16.6542,Q,Q
2023-03-15 15:24:02:96,0,-4.93831,-5.16635,-16.6487,Q,Q
2023-03-15 15:24:02:106,0,-4.92969,-5.17414,-16.6453,Q,Q
2023-03-15 15:24:02:116,0,-4.92381,-5.17663,-16.641,Q,Q
2023-03-15 15:24:02:126,0,-4.91799,-5.1817,-16.6393,Q,Q
2023-03-15 15:24:02:136,0,-4.91204,-5.18781,-16.6369,Q,Q
2023-03-15 15:24:02:147,0,-4.90501,-5.19496,-16.6357,Q,Q
2023-03-15 15:24:02:157,0,-4.90258,-5.19879,-16.6314,Q,Q
2023-03-15 15:24:02:167,0,-4.90286,-5.20407,-16.6257,Q,Q
2023-03-15 15:24:02:177,0,-4.90132,-5.20656,-16.618,Q,Q
2023-03-15 15:24:02:187,0,-4.89863,-5.21256,-16.6153,Q,Q
2023-03-15 15:24:02:197,0,-4.89391,-5.21558,-16.6103,Q,Q
2023-03-15 15:24:02:206,0,-4.89018,-5.21672,-16.6049,Q,Q
2023-03-15 15:24:02:217,0,-4.88887,-5.21735,-16.6004,Q,Q
2023-03-15 15:24:02:226,0,-4.8903,-5.21189,-16.5972,Q,Q
2023-03-15 15:24:02:236,0,-4.89,-5.21,-16.5952,Q,Q
2023-03-15 15:24:02:247,0,-4.88847,-5.20738,-16.5966,Q,Q
2023-03-15 15:24:02:257,0,-4.88647,-5.20193,-16.6006,Q,Q
2023-03-15 15:24:02:267,0,-4.88422,-5.19476,-16.6039,Q,Q
2023-03-15 15:24:02:277,0,-4.87932,-5.18887,-16.6107,Q,Q
2023-03-15 15:24:02:287,0,-4.86624,-5.18518,-16.6177,Q,Q
2023-03-15 15:24:02:297,0,-4.85599,-5.18256,-16.6274,Q,Q
2023-03-15 15:24:02:307,0,-4.85167,-5.17709,-16.6364,Q,Q
2023-03-15 15:24:02:317,0,-4.84236,-5.17552,-16.6466,Q,Q
2023-03-15 15:24:02:327,0,-4.83266,-5.17072,-16.6532,Q,Q
2023-03-15 15:24:02:337,0,-4.82638,-5.16676,-16.6598,Q,Q
2023-03-15 15:24:02:347,0,-4.82241,-5.16126,-16.6661,Q,Q
2023-03-15 15:24:02:357,0,-4.81789,-5.15618,-16.6682,Q,Q
2023-03-15 15:24:02:366,0,-4.81548,-5.15081,-16.6641,Q,Q
2023-03-15 15:24:02:377,0,-4.81596,-5.14361,-16.6616,Q,Q
2023-03-15 15:24:02:387,0,-4.82261,-5.14075,-16.6586,Q,Q
2023-03-15 15:24:02:397,0,-4.82388,-5.14005,-16.6575,Q,Q
2023-03-15 15:24:02:407,0,-4.82313,-5.14197,-16.6547,Q,Q
2023-03-15 15:24:02:417,0,-4.81242,-5.14268,-16.6565,Q,Q
2023-03-15 15:24:02:426,0,-4.79446,-5.1421,-16.6523,Q,Q
2023-03-15 15:24:02:437,0,-4.78032,-5.13986,-16.65,Q,Q
2023-03-15 15:24:02:447,0,-4.77257,-5.13865,-16.6452,Q,Q
2023-03-15 15:24:02:457,0,-4.76793,-5.14402,-16.642,Q,Q
2023-03-15 15:24:02:466,0,-4.76625,-5.14647,-16.6482,Q,Q
2023-03-15 15:24:02:476,0,-4.76726,-5.15201,-16.6526,Q,Q
2023-03-15 15:24:02:487,0,-4.75952,-5.1522,-16.661,Q,Q
2023-03-15 15:24:02:497,0,-4.75212,-5.152,-16.6674,Q,Q
2023-03-15 15:24:02:507,0,-4.75073,-5.14699,-16.6737,Q,Q
2023-03-15 15:24:02:517,0,-4.74503,-5.14612,-16.6834,Q,Q
2023-03-15 15:24:02:526,0,-4.736,-5.14142,-16.6908,Q,Q
2023-03-15 15:24:02:536,0,-4.73058,-5.13903,-16.6925,Q,Q
2023-03-15 15:24:02:546,0,-4.72497,-5.13893,-16.692,Q,Q
2023-03-15 15:24:02:556,0,-4.70736,-5.14323,-16.6935,Q,Q
2023-03-15 15:24:02:566,0,-4.68776,-5.14675,-16.6929,Q,Q
2023-03-15 15:24:02:576,0,-4.66726,-5.15083,-16.6921,Q,Q
2023-03-15 15:24:02:586,0,-4.64817,-5.1421,-16.6884,Q,Q
2023-03-15 15:24:02:596,0,-4.62832,-5.13114,-16.6838,Q,Q
2023-03-15 15:24:02:606,0,-4.61139,-5.11682,-16.6799,Q,Q
2023-03-15 15:24:02:617,0,-4.59703,-5.10769,-16.679,Q,Q
2023-03-15 15:24:02:627,0,-4.58647,-5.09968,-16.6709,Q,Q
2023-03-15 15:24:02:636,0,-4.57885,-5.09211,-16.6693,Q,Q
2023-03-15 15:24:02:646,0,-4.57223,-5.08191,-16.6688,Q,Q
2023-03-15 15:24:02:656,0,-4.56938,-5.07098,-16.6732,Q,Q
2023-03-15 15:24:02:666,0,-4.56409,-5.06454,-16.6769,Q,Q
2023-03-15 15:24:02:676,0,-4.56157,-5.05701,-16.6821,Q,Q
2023-03-15 15:24:02:686,0,-4.56209,-5.04921,-16.691,Q,Q
2023-03-15 15:24:02:696,0,-4.56419,-5.04515,-16.6972,Q,Q
2023-03-15 15:24:02:706,0,-4.5673,-5.03809,-16.7072,Q,Q
2023-03-15 15:24:02:716,0,-4.56756,-5.03144,-16.7169,Q,Q
2023-03-15 15:24:02:726,0,-4.57164,-5.02805,-16.7258,Q,Q
2023-03-15 15:24:02:736,0,-4.57562,-5.02702,-16.7309,Q,Q
2023-03-15 15:24:02:746,0,-4.58238,-5.02462,-16.7373,Q,Q
2023-03-15 15:24:02:756,0,-4.59036,-5.01623,-16.7442,Q,Q
2023-03-15 15:24:02:766,0,-4.59835,-5.00906,-16.7545,Q,Q
2023-03-15 15:24:02:777,0,-4.60996,-5.00006,-16.7609,Q,Q
2023-03-15 15:24:02:786,0,-4.61985,-4.99659,-16.7673,Q,Q
2023-03-15 15:24:02:796,0,-4.62604,-4.9943,-16.7708,Q,Q
2023-03-15 15:24:02:807,0,-4.63088,-4.99644,-16.7778,Q,Q
2023-03-15 15:24:02:817,0,-4.63412,-4.99553,-16.7779,Q,Q
2023-03-15 15:24:02:827,0,-4.63133,-4.99521,-16.776,Q,Q
2023-03-15 15:24:02:837,0,-4.62499,-4.99252,-16.7718,Q,Q
2023-03-15 15:24:02:846,0,-4.62106,-4.98685,-16.7689,Q,Q
2023-03-15 15:24:02:857,0,-4.61524,-4.98465,-16.7641,Q,Q
2023-03-15 15:24:02:866,0,-4.60221,-4.98423,-16.7609,Q,Q
2023-03-15 15:24:02:877,0,-4.59257,-4.98353,-16.756,Q,Q
2023-03-15 15:24:02:887,0,-4.5833,-4.98076,-16.7546,Q,Q
2023-03-15 15:24:02:896,0,-4.57477,-4.98353,-16.7539,Q,Q
2023-03-15 15:24:02:907,0,-4.56683,-4.9856,-16.7538,Q,Q
2023-03-15 15:24:02:917,0,-4.55576,-4.99149,-16.7529,Q,Q
2023-03-15 15:24:02:927,0,-4.54618,-4.996,-16.7523,Q,Q
2023-03-15 15:24:02:937,0,-4.53626,-5.00165,-16.751,Q,Q
2023-03-15 15:24:02:946,0,-4.52465,-5.00872,-16.7463,Q,Q
2023-03-15 15:24:02:956,0,-4.51145,-5.01762,-16.7418,Q,Q
2023-03-15 15:24:02:966,0,-4.50033,-5.02437,-16.7361,Q,Q
2023-03-15 15:24:02:977,0,-4.49343,-5.02853,-16.7284,Q,Q
2023-03-15 15:24:02:987,0,-4.48879,-5.03099,-16.7227,Q,Q
2023-03-15 15:24:02:996,0,-4.48917,-5.03609,-16.7154,Q,Q
2023-03-15 15:24:03:6,0,-4.48893,-5.04269,-16.7046,Q,Q
2023-03-15 15:24:03:17,0,-4.48838,-5.04629,-16.6936,Q,Q
2023-03-15 15:24:03:27,0,-4.48745,-5.04931,-16.686,Q,Q
2023-03-15 15:24:03:36,0,-4.4858,-5.05178,-16.6806,Q,Q
2023-03-15 15:24:03:46,0,-4.48694,-5.05441,-16.6765,Q,Q
2023-03-15 15:24:03:56,0,-4.48796,-5.0561,-16.674,Q,Q
2023-03-15 15:24:03:66,0,-4.48372,-5.05935,-16.6713,Q,Q
2023-03-15 15:24:03:76,0,-4.48126,-5.05739,-16.6712,Q,Q
2023-03-15 15:24:03:87,0,-4.47588,-5.04981,-16.6727,Q,Q
2023-03-15 15:24:03:97,0,-4.4694,-5.04312,-16.6761,Q,Q
2023-03-15 15:24:03:107,0,-4.46424,-5.04137,-16.6773,Q,Q
2023-03-15 15:24:03:116,0,-4.45961,-5.0294,-16.6789,Q,Q
2023-03-15 15:24:03:127,0,-4.45333,-5.02403,-16.684,Q,Q
2023-03-15 15:24:03:137,0,-4.44617,-5.01891,-16.6887,Q,Q
2023-03-15 15:24:03:147,0,-4.44268,-5.01558,-16.698,Q,Q
2023-03-15 15:24:03:157,0,-4.43917,-5.00897,-16.7054,Q,Q
2023-03-15 15:24:03:166,0,-4.43154,-5.00113,-16.7129,Q,Q
2023-03-15 15:24:03:177,0,-4.42575,-4.99473,-16.7204,Q,Q
2023-03-15 15:24:03:187,0,-4.41703,-4.9872,-16.7232,Q,Q
2023-03-15 15:24:03:197,0,-4.40922,-4.97925,-16.7274,Q,Q
2023-03-15 15:24:03:207,0,-4.40305,-4.97399,-16.7247,Q,Q
2023-03-15 15:24:03:216,0,-4.39666,-4.96706,-16.7194,Q,Q
2023-03-15 15:24:03:226,0,-4.39389,-4.95899,-16.7117,Q,Q
2023-03-15 15:24:03:236,0,-4.39013,-4.95535,-16.7045,Q,Q
2023-03-15 15:24:03:246,0,-4.38788,-4.9519,-16.6978,Q,Q
2023-03-15 15:24:03:256,0,-4.38799,-4.946,-16.6887,Q,Q
2023-03-15 15:24:03:266,0,-4.38843,-4.94118,-16.6844,Q,Q
2023-03-15 15:24:03:276,0,-4.38927,-4.93184,-16.6781,Q,Q
2023-03-15 15:24:03:286,0,-4.3868,-4.92043,-16.6769,Q,Q
2023-03-15 15:24:03:296,0,-4.38371,-4.9111,-16.6747,Q,Q
2023-03-15 15:24:03:306,0,-4.38129,-4.9045,-16.6741,Q,Q
2023-03-15 15:24:03:316,0,-4.3805,-4.89928,-16.6735,Q,Q
2023-03-15 15:24:03:326,0,-4.37643,-4.89411,-16.676,Q,Q
2023-03-15 15:24:03:336,0,-4.36904,-4.89246,-16.6775,Q,Q
2023-03-15 15:24:03:346,0,-4.36643,-4.88616,-16.6783,Q,Q
2023-03-15 15:24:03:356,0,-4.36292,-4.88235,-16.6772,Q,Q
2023-03-15 15:24:03:366,0,-4.35864,-4.88056,-16.6739,Q,Q
2023-03-15 15:24:03:376,0,-4.35494,-4.87965,-16.6663,Q,Q
2023-03-15 15:24:03:386,0,-4.35368,-4.88473,-16.654,Q,Q
2023-03-15 15:24:03:396,0,-4.35572,-4.89193,-16.6399,Q,Q
2023-03-15 15:24:03:406,0,-4.3648,-4.89881,-16.621,Q,Q
2023-03-15 15:24:03:416,0,-4.37745,-4.90367,-16.6054,Q,Q
2023-03-15 15:24:03:426,0,-4.38699,-4.91103,-16.5858,Q,Q
2023-03-15 15:24:03:436,0,-4.39295,-4.91942,-16.5692,Q,Q
2023-03-15 15:24:03:446,0,-4.39492,-4.91899,-16.5532,Q,Q
2023-03-15 15:24:03:456,0,-4.39612,-4.92099,-16.5371,Q,Q
2023-03-15 15:24:03:466,0,-4.39774,-4.92392,-16.5285,Q,Q
2023-03-15 15:24:03:476,0,-4.39838,-4.92728,-16.5184,Q,Q
2023-03-15 15:24:03:486,0,-4.39281,-4.92865,-16.5126,Q,Q
2023-03-15 15:24:03:496,0,-4.39096,-4.93322,-16.5114,Q,Q
2023-03-15 15:24:03:506,0,-4.39312,-4.93379,-16.5144,Q,Q
2023-03-15 15:24:03:516,0,-4.39716,-4.93759,-16.518,Q,Q
2023-03-15 15:24:03:526,0,-4.40108,-4.93848,-16.5265,Q,Q
2023-03-15 15:24:03:536,0,-4.40745,-4.94612,-16.5333,Q,Q
2023-03-15 15:24:03:546,0,-4.41588,-4.94835,-16.5374,Q,Q
2023-03-15 15:24:03:556,0,-4.42074,-4.95026,-16.5386,Q,Q
2023-03-15 15:24:03:566,0,-4.42811,-4.95045,-16.5432,Q,Q
2023-03-15 15:24:03:576,0,-4.43853,-4.94773,-16.5425,Q,Q
2023-03-15 15:24:03:586,0,-4.44846,-4.94202,-16.54,Q,Q
2023-03-15 15:24:03:596,0,-4.4539,-4.93664,-16.5379,Q,Q
2023-03-15 15:24:03:606,0,-4.46017,-4.93639,-16.5376,Q,Q
2023-03-15 15:24:03:616,0,-4.46022,-4.93536,-16.5331,Q,Q
2023-03-15 15:24:03:626,0,-4.45775,-4.93256,-16.5251,Q,Q
2023-03-15 15:24:03:636,0,-4.44922,-4.93923,-16.5144,Q,Q
2023-03-15 15:24:03:646,0,-4.44062,-4.94492,-16.5031,Q,Q
2023-03-15 15:24:03:656,0,-4.43512,-4.95203,-16.4917,Q,Q
2023-03-15 15:24:03:666,0,-4.42475,-4.95753,-16.4821,Q,Q
2023-03-15 15:24:03:676,0,-4.41601,-4.96353,-16.4718,Q,Q
2023-03-15 15:24:03:686,0,-4.40362,-4.9692,-16.4627,Q,Q
2023-03-15 15:24:03:696,0,-4.39082,-4.97499,-16.4558,Q,Q
2023-03-15 15:24:03:706,0,-4.37897,-4.98444,-16.4463,Q,Q
2023-03-15 15:24:03:716,0,-4.37013,-4.99161,-16.4414,Q,Q
2023-03-15 15:24:03:726,0,-4.36237,-4.99951,-16.4348,Q,Q
2023-03-15 15:24:03:736,0,-4.35235,-5.00794,-16.4286,Q,Q
2023-03-15 15:24:03:746,0,-4.34304,-5.01503,-16.4247,Q,Q
2023-03-15 15:24:03:756,0,-4.33485,-5.03044,-16.4176,Q,Q
2023-03-15 15:24:03:766,0,-4.32806,-5.04644,-16.4106,Q,Q
2023-03-15 15:24:03:776,0,-4.32191,-5.05793,-16.4063,Q,Q
2023-03-15 15:24:03:786,0,-4.32143,-5.0699,-16.3993,Q,Q
2023-03-15 15:24:03:796,0,-4.31743,-5.07828,-16.3906,Q,Q
2023-03-15 15:24:03:806,0,-4.3151,-5.08828,-16.3819,Q,Q
2023-03-15 15:24:03:816,0,-4.31744,-5.0993,-16.3709,Q,Q
2023-03-15 15:24:03:826,0,-4.32043,-5.10564,-16.3587,Q,Q
2023-03-15 15:24:03:836,0,-4.32354,-5.11202,-16.3486,Q,Q
2023-03-15 15:24:03:846,0,-4.32123,-5.1143,-16.3384,Q,Q
2023-03-15 15:24:03:856,0,-4.31981,-5.1172,-16.3293,Q,Q
2023-03-15 15:24:03:866,0,-4.32087,-5.12288,-16.3203,Q,Q
2023-03-15 15:24:03:876,0,-4.32095,-5.12855,-16.3146,Q,Q
2023-03-15 15:24:03:886,0,-4.31989,-5.12733,-16.3152,Q,Q
2023-03-15 15:24:03:896,0,-4.31415,-5.12916,-16.3135,Q,Q
2023-03-15 15:24:03:906,0,-4.30636,-5.12986,-16.3157,Q,Q
2023-03-15 15:24:03:916,0,-4.29429,-5.13243,-16.3203,Q,Q
2023-03-15 15:24:03:926,0,-4.28276,-5.13274,-16.3248,Q,Q
2023-03-15 15:24:03:936,0,-4.2708,-5.13202,-16.3276,Q,Q
2023-03-15 15:24:03:946,0,-4.25464,-5.13308,-16.3314,Q,Q
2023-03-15 15:24:03:956,0,-4.24312,-5.1342,-16.3328,Q,Q
2023-03-15 15:24:03:966,0,-4.23228,-5.13151,-16.3324,Q,Q
2023-03-15 15:24:03:976,0,-4.22616,-5.13278,-16.3322,Q,Q
2023-03-15 15:24:03:987,0,-4.21617,-5.13074,-16.3338,Q,Q
2023-03-15 15:24:03:996,0,-4.20597,-5.13253,-16.3336,Q,Q
2023-03-15 15:24:04:6,0,-4.19475,-5.13115,-16.3316,Q,Q
2023-03-15 15:24:04:16,0,-4.18505,-5.13543,-16.3339,Q,Q
2023-03-15 15:24:04:26,0,-4.17345,-5.13813,-16.3297,Q,Q
2023-03-15 15:24:04:36,0,-4.16405,-5.1384,-16.3255,Q,Q
2023-03-15 15:24:04:46,0,-4.15711,-5.14008,-16.3208,Q,Q
2023-03-15 15:24:04:56,0,-4.1482,-5.14224,-16.3152,Q,Q
2023-03-15 15:24:04:66,0,-4.14051,-5.14426,-16.307,Q,Q
2023-03-15 15:24:04:76,0,-4.13444,-5.14882,-16.3013,Q,Q
2023-03-15 15:24:04:86,0,-4.12592,-5.15447,-16.2903,Q,Q
2023-03-15 15:24:04:96,0,-4.12233,-5.16129,-16.28,Q,Q
2023-03-15 15:24:04:106,0,-4.12284,-5.1668,-16.2708,Q,Q
2023-03-15 15:24:04:116,0,-4.11946,-5.17268,-16.2609,Q,Q
2023-03-15 15:24:04:126,0,-4.11613,-5.17511,-16.2487,Q,Q
2023-03-15 15:24:04:136,0,-4.11202,-5.17809,-16.2409,Q,Q
2023-03-15 15:24:04:146,0,-4.10903,-5.17718,-16.2286,Q,Q
2023-03-15 15:24:04:156,0,-4.1051,-5.17971,-16.2178,Q,Q
2023-03-15 15:24:04:166,0,-4.10146,-5.17939,-16.2111,Q,Q
2023-03-15 15:24:04:176,0,-4.10092,-5.17718,-16.2045,Q,Q
2023-03-15 15:24:04:187,0,-4.09801,-5.17668,-16.1985,Q,Q
2023-03-15 15:24:04:197,0,-4.09446,-5.17767,-16.1994,Q,Q
2023-03-15 15:24:04:207,0,-4.09046,-5.17583,-16.2002,Q,Q
2023-03-15 15:24:04:217,0,-4.08667,-5.17547,-16.205,Q,Q
2023-03-15 15:24:04:227,0,-4.08235,-5.17539,-16.2109,Q,Q
2023-03-15 15:24:04:236,0,-4.07798,-5.17325,-16.2134,Q,Q
2023-03-15 15:24:04:247,0,-4.07571,-5.16693,-16.2131,Q,Q
2023-03-15 15:24:04:256,0,-4.07152,-5.16385,-16.2144,Q,Q
2023-03-15 15:24:04:266,0,-4.06693,-5.16329,-16.2133,Q,Q
2023-03-15 15:24:04:277,0,-4.0649,-5.16612,-16.2047,Q,Q
2023-03-15 15:24:04:286,0,-4.06672,-5.1682,-16.1987,Q,Q
2023-03-15 15:24:04:297,0,-4.07041,-5.16874,-16.1902,Q,Q
2023-03-15 15:24:04:307,0,-4.0779,-5.16598,-16.1813,Q,Q
2023-03-15 15:24:04:316,0,-4.0875,-5.16402,-16.1729,Q,Q
2023-03-15 15:24:04:326,0,-4.09528,-5.16283,-16.1681,Q,Q
2023-03-15 15:24:04:336,0,-4.10313,-5.15798,-16.1603,Q,Q
2023-03-15 15:24:04:346,0,-4.10496,-5.15315,-16.1551,Q,Q
2023-03-15 15:24:04:356,0,-4.10577,-5.14995,-16.1479,Q,Q
2023-03-15 15:24:04:366,0,-4.10709,-5.14619,-16.1463,Q,Q
2023-03-15 15:24:04:376,0,-4.1024,-5.14486,-16.1487,Q,Q
2023-03-15 15:24:04:386,0,-4.10385,-5.13984,-16.1532,Q,Q
2023-03-15 15:24:04:396,0,-4.10774,-5.13381,-16.157,Q,Q
2023-03-15 15:24:04:406,0,-4.11395,-5.12916,-16.1604,Q,Q
2023-03-15 15:24:04:417,0,-4.12084,-5.12231,-16.165,Q,Q
2023-03-15 15:24:04:427,0,-4.1291,-5.11473,-16.1707,Q,Q
2023-03-15 15:24:04:437,0,-4.14005,-5.10624,-16.1728,Q,Q
2023-03-15 15:24:04:446,0,-4.15325,-5.10046,-16.1759,Q,Q
2023-03-15 15:24:04:457,0,-4.16624,-5.09431,-16.176,Q,Q
2023-03-15 15:24:04:467,0,-4.17946,-5.08874,-16.1746,Q,Q
2023-03-15 15:24:04:476,0,-4.18858,-5.08021,-16.1722,Q,Q
2023-03-15 15:24:04:486,0,-4.19516,-5.07062,-16.1733,Q,Q
2023-03-15 15:24:04:496,0,-4.19836,-5.0578,-16.177,Q,Q
2023-03-15 15:24:04:507,0,-4.20023,-5.04379,-16.1765,Q,Q
2023-03-15 15:24:04:516,0,-4.19747,-5.03369,-16.1735,Q,Q
2023-03-15 15:24:04:527,0,-4.19737,-5.02809,-16.1703,Q,Q
2023-03-15 15:24:04:537,0,-4.19122,-5.02743,-16.1667,Q,Q
2023-03-15 15:24:04:547,0,-4.18671,-5.02744,-16.1596,Q,Q
2023-03-15 15:24:04:557,0,-4.18132,-5.02482,-16.1556,Q,Q
2023-03-15 15:24:04:566,0,-4.17556,-5.0196,-16.1551,Q,Q
2023-03-15 15:24:04:576,0,-4.17202,-5.01634,-16.1566,Q,Q
2023-03-15 15:24:04:586,0,-4.16584,-5.01847,-16.1602,Q,Q
2023-03-15 15:24:04:596,0,-4.15511,-5.01742,-16.1629,Q,Q
2023-03-15 15:24:04:606,0,-4.1369,-5.01739,-16.1671,Q,Q
2023-03-15 15:24:04:616,0,-4.11477,-5.01833,-16.1681,Q,Q
2023-03-15 15:24:04:627,0,-4.09251,-5.0219,-16.1678,Q,Q
2023-03-15 15:24:04:637,0,-4.0818,-5.02978,-16.1668,Q,Q
2023-03-15 15:24:04:646,0,-4.07903,-5.04116,-16.1694,Q,Q
2023-03-15 15:24:04:656,0,-4.07796,-5.05306,-16.1749,Q,Q
2023-03-15 15:24:04:667,0,-4.06179,-5.06138,-16.1819,Q,Q
2023-03-15 15:24:04:677,0,-4.0283,-5.06618,-16.1857,Q,Q
2023-03-15 15:24:04:687,0,-4.00009,-5.0691,-16.1833,Q,Q
2023-03-15 15:24:04:697,0,-3.9918,-5.07095,-16.17,Q,Q
2023-03-15 15:24:04:707,0,-4.01101,-5.0701,-16.158,Q,Q
2023-03-15 15:24:04:717,0,-4.05296,-5.06972,-16.147,Q,Q
2023-03-15 15:24:04:727,0,-4.09863,-5.06818,-16.132,Q,Q
2023-03-15 15:24:04:737,0,-4.1286,-5.06466,-16.1229,Q,Q
2023-03-15 15:24:04:747,0,-4.14175,-5.06034,-16.1172,Q,Q
2023-03-15 15:24:04:757,0,-4.14823,-5.05009,-16.1042,Q,Q
2023-03-15 15:24:04:766,0,-4.16607,-5.03719,-16.0871,Q,Q
2023-03-15 15:24:04:777,0,-4.18994,-5.02531,-16.0701,Q,Q
2023-03-15 15:24:04:787,0,-4.22243,-5.0167,-16.0556,Q,Q
2023-03-15 15:24:04:797,0,-4.24813,-5.00564,-16.0458,Q,Q
2023-03-15 15:24:04:807,0,-4.26714,-4.9976,-16.0376,Q,Q
2023-03-15 15:24:04:817,0,-4.28122,-4.99244,-16.0339,Q,Q
2023-03-15 15:24:04:826,0,-4.29759,-4.99097,-16.0381,Q,Q
2023-03-15 15:24:04:837,0,-4.31075,-4.99214,-16.0418,Q,Q
2023-03-15 15:24:04:847,0,-4.3227,-4.99528,-16.0468,Q,Q
2023-03-15 15:24:04:856,0,-4.32968,-4.99462,-16.0552,Q,Q
2023-03-15 15:24:04:867,0,-4.33514,-4.99724,-16.062,Q,Q
2023-03-15 15:24:04:877,0,-4.33706,-4.99967,-16.0669,Q,Q
2023-03-15 15:24:04:886,0,-4.3361,-5.00534,-16.0724,Q,Q
2023-03-15 15:24:04:896,0,-4.33511,-5.00922,-16.0764,Q,Q
2023-03-15 15:24:04:907,0,-4.33174,-5.01223,-16.0777,Q,Q
2023-03-15 15:24:04:917,0,-4.32698,-5.0165,-16.0782,Q,Q
2023-03-15 15:24:04:926,0,-4.32103,-5.01761,-16.0779,Q,Q
2023-03-15 15:24:04:936,0,-4.31299,-5.01447,-16.0768,Q,Q
2023-03-15 15:24:04:947,0,-4.30603,-5.01769,-16.0726,Q,Q
2023-03-15 15:24:04:957,0,-4.29679,-5.01774,-16.0681,Q,Q
2023-03-15 15:24:04:966,0,-4.28622,-5.0186,-16.0635,Q,Q
2023-03-15 15:24:04:977,0,-4.27582,-5.01818,-16.0637,Q,Q
2023-03-15 15:24:04:987,0,-4.27049,-5.01871,-16.0633,Q,Q
2023-03-15 15:24:04:996,0,-4.26076,-5.01916,-16.0632,Q,Q
2023-03-15 15:24:05:6,0,-4.25521,-5.01728,-16.0619,Q,Q
2023-03-15 15:24:05:16,0,-4.25244,-5.0123,-16.0615,Q,Q
2023-03-15 15:24:05:27,0,-4.24676,-5.00959,-16.0612,Q,Q
2023-03-15 15:24:05:37,0,-4.2412,-5.00834,-16.0607,Q,Q
2023-03-15 15:24:05:47,0,-4.23442,-5.00819,-16.0593,Q,Q
2023-03-15 15:24:05:57,0,-4.2271,-5.00741,-16.0601,Q,Q
2023-03-15 15:24:05:66,0,-4.22245,-5.00288,-16.0628,Q,Q
2023-03-15 15:24:05:76,0,-4.21779,-4.99689,-16.0677,Q,Q
2023-03-15 15:24:05:86,0,-4.21391,-4.99274,-16.0705,Q,Q
2023-03-15 15:24:05:96,0,-4.2087,-4.99032,-16.0786,Q,Q
2023-03-15 15:24:05:106,0,-4.20052,-4.98578,-16.0853,Q,Q
2023-03-15 15:24:05:116,0,-4.19156,-4.98108,-16.0915,Q,Q
2023-03-15 15:24:05:126,0,-4.17989,-4.97553,-16.0967,Q,Q
2023-03-15 15:24:05:136,0,-4.17516,-4.97481,-16.0981,Q,Q
2023-03-15 15:24:05:147,0,-4.16583,-4.97671,-16.0966,Q,Q
2023-03-15 15:24:05:157,0,-4.15728,-4.9817,-16.0897,Q,Q
2023-03-15 15:24:05:166,0,-4.1564,-4.98879,-16.084,Q,Q
2023-03-15 15:24:05:176,0,-4.15595,-4.99509,-16.0728,Q,Q
2023-03-15 15:24:05:187,0,-4.156,-4.99809,-16.0629,Q,Q
2023-03-15 15:24:05:197,0,-4.15657,-5.00292,-16.0539,Q,Q
2023-03-15 15:24:05:207,0,-4.15754,-5.00818,-16.0445,Q,Q
2023-03-15 15:24:05:216,0,-4.1594,-5.01092,-16.0339,Q,Q
2023-03-15 15:24:05:226,0,-4.15626,-5.00628,-16.0285,Q,Q
2023-03-15 15:24:05:237,0,-4.15053,-5.00294,-16.0242,Q,Q
2023-03-15 15:24:05:246,0,-4.1431,-4.99904,-16.0182,Q,Q
2023-03-15 15:24:05:257,0,-4.13444,-4.99314,-16.0187,Q,Q
2023-03-15 15:24:05:267,0,-4.12606,-4.98766,-16.0231,Q,Q
2023-03-15 15:24:05:276,0,-4.12113,-4.9828,-16.0268,Q,Q
2023-03-15 15:24:05:286,0,-4.11861,-4.97661,-16.0316,Q,Q
2023-03-15 15:24:05:297,0,-4.11609,-4.97046,-16.0395,Q,Q
2023-03-15 15:24:05:307,0,-4.11771,-4.96364,-16.0465,Q,Q
2023-03-15 15:24:05:316,0,-4.12226,-4.95355,-16.0592,Q,Q
2023-03-15 15:24:05:326,0,-4.1297,-4.94366,-16.071,Q,Q
2023-03-15 15:24:05:336,0,-4.13784,-4.92992,-16.0806,Q,Q
2023-03-15 15:24:05:347,0,-4.14378,-4.91643,-16.0874,Q,Q
2023-03-15 15:24:05:357,0,-4.14801,-4.90892,-16.0921,Q,Q
2023-03-15 15:24:05:367,0,-4.15168,-4.89372,-16.0998,Q,Q
2023-03-15 15:24:05:376,0,-4.14868,-4.88158,-16.1089,Q,Q
2023-03-15 15:24:05:386,0,-4.14208,-4.87223,-16.1178,Q,Q
2023-03-15 15:24:05:397,0,-4.13801,-4.86528,-16.12,Q,Q
2023-03-15 15:24:05:406,0,-4.13416,-4.85787,-16.1195,Q,Q
2023-03-15 15:24:05:416,0,-4.1278,-4.85516,-16.1176,Q,Q
2023-03-15 15:24:05:426,0,-4.12005,-4.84935,-16.118,Q,Q
2023-03-15 15:24:05:436,0,-4.1093,-4.84477,-16.1169,Q,Q
2023-03-15 15:24:05:447,0,-4.10287,-4.83562,-16.1168,Q,Q
2023-03-15 15:24:05:457,0,-4.0962,-4.8294,-16.115,Q,Q
2023-03-15 15:24:05:467,0,-4.09303,-4.82398,-16.1129,Q,Q
2023-03-15 15:24:05:476,0,-4.08893,-4.81937,-16.1143,Q,Q
2023-03-15 15:24:05:486,0,-4.08459,-4.81479,-16.1151,Q,Q
2023-03-15 15:24:05:496,0,-4.07842,-4.80808,-16.1152,Q,Q
2023-03-15 15:24:05:506,0,-4.07176,-4.80492,-16.1154,Q,Q
2023-03-15 15:24:05:516,0,-4.06757,-4.80488,-16.1157,Q,Q
2023-03-15 15:24:05:526,0,-4.05955,-4.80606,-16.1179,Q,Q
2023-03-15 15:24:05:537,0,-4.05375,-4.8098,-16.1139,Q,Q
2023-03-15 15:24:05:547,0,-4.04651,-4.81172,-16.1111,Q,Q
2023-03-15 15:24:05:557,0,-4.046,-4.81718,-16.1051,Q,Q
2023-03-15 15:24:05:566,0,-4.0476,-4.8253,-16.099,Q,Q
2023-03-15 15:24:05:577,0,-4.05206,-4.82884,-16.0958,Q,Q
2023-03-15 15:24:05:587,0,-4.05552,-4.83293,-16.0838,Q,Q
2023-03-15 15:24:05:596,0,-4.06156,-4.83397,-16.0683,Q,Q
2023-03-15 15:24:05:607,0,-4.0682,-4.83436,-16.0545,Q,Q
2023-03-15 15:24:05:617,0,-4.07215,-4.83539,-16.0426,Q,Q
2023-03-15 15:24:05:626,0,-4.07456,-4.84105,-16.0341,Q,Q
2023-03-15 15:24:05:637,0,-4.08001,-4.84089,-16.026,Q,Q
2023-03-15 15:24:05:647,0,-4.0816,-4.84393,-16.0209,Q,Q
2023-03-15 15:24:05:657,0,-4.08376,-4.84578,-16.0191,Q,Q
2023-03-15 15:24:05:666,0,-4.0869,-4.84717,-16.0155,Q,Q
2023-03-15 15:24:05:676,0,-4.0871,-4.84963,-16.0142,Q,Q
2023-03-15 15:24:05:687,0,-4.08766,-4.85045,-16.0151,Q,Q
2023-03-15 15:24:05:696,0,-4.08846,-4.85029,-16.0146,Q,Q
2023-03-15 15:24:05:706,0,-4.08431,-4.85155,-16.0176,Q,Q
2023-03-15 15:24:05:716,0,-4.08618,-4.85183,-16.0206,Q,Q
2023-03-15 15:24:05:726,0,-4.0846,-4.84777,-16.0224,Q,Q
2023-03-15 15:24:05:736,0,-4.08255,-4.84716,-16.0198,Q,Q
2023-03-15 15:24:05:747,0,-4.08282,-4.84724,-16.0179,Q,Q
2023-03-15 15:24:05:757,0,-4.08255,-4.84106,-16.0139,Q,Q
2023-03-15 15:24:05:767,0,-4.07971,-4.84022,-16.012,Q,Q
2023-03-15 15:24:05:776,0,-4.0813,-4.83722,-16.0078,Q,Q
2023-03-15 15:24:05:787,0,-4.0811,-4.83104,-16.001,Q,Q
2023-03-15 15:24:05:797,0,-4.08242,-4.83083,-15.998,Q,Q
2023-03-15 15:24:05:807,0,-4.0844,-4.83277,-15.9932,Q,Q
2023-03-15 15:24:05:817,0,-4.08334,-4.82965,-15.99,Q,Q
2023-03-15 15:24:05:827,0,-4.08267,-4.8344,-15.9888,Q,Q
2023-03-15 15:24:05:837,0,-4.08536,-4.83725,-15.9819,Q,Q
2023-03-15 15:24:05:846,0,-4.08629,-4.83858,-15.9753,Q,Q
2023-03-15 15:24:05:857,0,-4.08668,-4.84472,-15.971,Q,Q
2023-03-15 15:24:05:867,0,-4.08834,-4.85052,-15.9624,Q,Q
2023-03-15 15:24:05:877,0,-4.0891,-4.86075,-15.9551,Q,Q
2023-03-15 15:24:05:886,0,-4.09227,-4.87386,-15.9481,Q,Q
2023-03-15 15:24:05:897,0,-4.09696,-4.87922,-15.9377,Q,Q
2023-03-15 15:24:05:907,0,-4.09893,-4.88957,-15.924,Q,Q
2023-03-15 15:24:05:916,0,-4.10582,-4.8977,-15.9099,Q,Q
2023-03-15 15:24:05:926,0,-4.11007,-4.90519,-15.8975,Q,Q
2023-03-15 15:24:05:937,0,-4.10938,-4.91217,-15.8828,Q,Q
2023-03-15 15:24:05:947,0,-4.10633,-4.91671,-15.8722,Q,Q
2023-03-15 15:24:05:957,0,-4.10537,-4.92511,-15.8581,Q,Q
2023-03-15 15:24:05:967,0,-4.10767,-4.93074,-15.8459,Q,Q
2023-03-15 15:24:05:976,0,-4.1103,-4.93356,-15.8373,Q,Q
2023-03-15 15:24:05:987,0,-4.1113,-4.93396,-15.8322,Q,Q
2023-03-15 15:24:05:996,0,-4.11271,-4.93927,-15.823,Q,Q
2023-03-15 15:24:06:7,0,-4.11068,-4.94059,-15.8189,Q,Q
2023-03-15 15:24:06:17,0,-4.10739,-4.94281,-15.8144,Q,Q
2023-03-15 15:24:06:27,0,-4.109,-4.94435,-15.8082,Q,Q
2023-03-15 15:24:06:36,0,-4.10669,-4.94949,-15.8059,Q,Q
2023-03-15 15:24:06:46,0,-4.10501,-4.95676,-15.7995,Q,Q
2023-03-15 15:24:06:57,0,-4.10666,-4.96598,-15.7906,Q,Q
2023-03-15 15:24:06:67,0,-4.11078,-4.98052,-15.7804,Q,Q
2023-03-15 15:24:06:76,0,-4.11882,-4.99158,-15.7692,Q,Q
2023-03-15 15:24:06:86,0,-4.12929,-4.99753,-15.7617,Q,Q
2023-03-15 15:24:06:96,0,-4.14144,-5.00317,-15.7486,Q,Q
2023-03-15 15:24:06:107,0,-4.15202,-5.00982,-15.7379,Q,Q
2023-03-15 15:24:06:116,0,-4.16018,-5.01204,-15.7281,Q,Q
2023-03-15 15:24:06:126,0,-4.16338,-5.01503,-15.7205,Q,Q
2023-03-15 15:24:06:136,0,-4.16635,-5.02086,-15.7149,Q,Q
2023-03-15 15:24:06:146,0,-4.16366,-5.02499,-15.7131,Q,Q
2023-03-15 15:24:06:156,0,-4.16197,-5.02685,-15.7112,Q,Q
2023-03-15 15:24:06:166,0,-4.15863,-5.02919,-15.7123,Q,Q
2023-03-15 15:24:06:176,0,-4.15937,-5.02839,-15.7106,Q,Q
2023-03-15 15:24:06:186,0,-4.16178,-5.03058,-15.71,Q,Q
2023-03-15 15:24:06:196,0,-4.16765,-5.03206,-15.7094,Q,Q
2023-03-15 15:24:06:206,0,-4.17801,-5.03202,-15.7156,Q,Q
2023-03-15 15:24:06:216,0,-4.1905,-5.03047,-15.7182,Q,Q
2023-03-15 15:24:06:227,0,-4.20253,-5.02685,-15.7221,Q,Q
2023-03-15 15:24:06:237,0,-4.21533,-5.02285,-15.7272,Q,Q
2023-03-15 15:24:06:246,0,-4.22008,-5.0209,-15.7315,Q,Q
2023-03-15 15:24:06:257,0,-4.22614,-5.01401,-15.735,Q,Q
2023-03-15 15:24:06:266,0,-4.23639,-5.00538,-15.7364,Q,Q
2023-03-15 15:24:06:276,0,-4.24166,-4.99614,-15.7365,Q,Q
2023-03-15 15:24:06:286,0,-4.24198,-4.98945,-15.7375,Q,Q
2023-03-15 15:24:06:296,0,-4.24454,-4.98926,-15.7344,Q,Q
2023-03-15 15:24:06:306,0,-4.2412,-4.98968,-15.7311,Q,Q
2023-03-15 15:24:06:316,0,-4.23634,-4.99432,-15.7294,Q,Q
2023-03-15 15:24:06:327,0,-4.23201,-5.0011,-15.7301,Q,Q
2023-03-15 15:24:06:336,0,-4.22977,-5.00934,-15.7269,Q,Q
2023-03-15 15:24:06:346,0,-4.22761,-5.01129,-15.7246,Q,Q
2023-03-15 15:24:06:357,0,-4.22446,-5.01363,-15.7205,Q,Q
2023-03-15 15:24:06:366,0,-4.22018,-5.01328,-15.7143,Q,Q
2023-03-15 15:24:06:376,0,-4.21455,-5.01457,-15.7096,Q,Q
2023-03-15 15:24:06:386,0,-4.20671,-5.01763,-15.7049,Q,Q
2023-03-15 15:24:06:396,0,-4.20059,-5.0211,-15.6993,Q,Q
2023-03-15 15:24:06:406,0,-4.1912,-5.01978,-15.6951,Q,Q
2023-03-15 15:24:06:416,0,-4.18449,-5.02321,-15.69,Q,Q
2023-03-15 15:24:06:426,0,-4.1792,-5.02988,-15.6866,Q,Q
2023-03-15 15:24:06:436,0,-4.1766,-5.03536,-15.6782,Q,Q
2023-03-15 15:24:06:446,0,-4.17804,-5.04233,-15.6718,Q,Q
2023-03-15 15:24:06:456,0,-4.18002,-5.05203,-15.6625,Q,Q
2023-03-15 15:24:06:466,0,-4.18704,-5.05828,-15.6519,Q,Q
2023-03-15 15:24:06:476,0,-4.19484,-5.06306,-15.6419,Q,Q
2023-03-15 15:24:06:487,0,-4.20149,-5.06543,-15.6345,Q,Q
2023-03-15 15:24:06:496,0,-4.20846,-5.06798,-15.6255,Q,Q
2023-03-15 15:24:06:506,0,-4.21919,-5.06558,-15.6156,Q,Q
2023-03-15 15:24:06:517,0,-4.23012,-5.06234,-15.6076,Q,Q
2023-03-15 15:24:06:526,0,-4.24095,-5.05759,-15.599,Q,Q
