Timestamp_cmd,imu_cmd,roll_delta,pitch_delta,yaw_delta,voice_type,voice_length
2023-03-15 14:37:24:647,0,10.3091,-4.83345,-7.58612,Q,Q
2023-03-15 14:37:24:655,0,10.2867,-4.83109,-7.59034,Q,Q
2023-03-15 14:37:24:665,0,10.263,-4.8299,-7.59549,Q,Q
2023-03-15 14:37:24:675,0,10.2314,-4.83011,-7.59919,Q,Q
2023-03-15 14:37:24:685,0,10.1979,-4.8227,-7.60656,Q,Q
2023-03-15 14:37:24:695,0,10.164,-4.81498,-7.61493,Q,Q
2023-03-15 14:37:24:705,0,10.1282,-4.80707,-7.62256,Q,Q
2023-03-15 14:37:24:715,0,10.0887,-4.79573,-7.62689,Q,Q
2023-03-15 14:37:24:725,0,10.0438,-4.78481,-7.62835,Q,Q
2023-03-15 14:37:24:735,0,9.9923,-4.78151,-7.62899,Q,Q
2023-03-15 14:37:24:745,0,9.93227,-4.77209,-7.6264,Q,Q
2023-03-15 14:37:24:755,0,9.8691,-4.75919,-7.6217,Q,Q
2023-03-15 14:37:24:765,0,9.80039,-4.7422,-7.61825,Q,Q
2023-03-15 14:37:24:775,0,9.72632,-4.71861,-7.61629,Q,Q
2023-03-15 14:37:24:785,0,9.64552,-4.68774,-7.61441,Q,Q
2023-03-15 14:37:24:795,0,9.55262,-4.65576,-7.61388,Q,Q
2023-03-15 14:37:24:805,0,9.44856,-4.61878,-7.60815,Q,Q
2023-03-15 14:37:24:815,0,9.33399,-4.57866,-7.59988,Q,Q
2023-03-15 14:37:24:825,0,9.20495,-4.53662,-7.58849,Q,Q
2023-03-15 14:37:24:835,0,9.06239,-4.49213,-7.57131,Q,Q
2023-03-15 14:37:24:845,0,8.90777,-4.45143,-7.55415,Q,Q
2023-03-15 14:37:24:855,0,8.73932,-4.41079,-7.53634,Q,Q
2023-03-15 14:37:24:865,0,8.54863,-4.36848,-7.51706,Q,Q
2023-03-15 14:37:24:875,0,8.34052,-4.33184,-7.50083,Q,Q
2023-03-15 14:37:24:885,0,8.123,-4.2982,-7.48349,Q,Q
2023-03-15 14:37:24:895,0,7.89903,-4.26456,-7.47024,Q,Q
2023-03-15 14:37:24:905,0,7.66524,-4.2277,-7.45752,Q,Q
2023-03-15 14:37:24:915,0,7.42503,-4.19298,-7.44977,Q,Q
2023-03-15 14:37:24:925,0,7.17196,-4.15492,-7.44767,Q,Q
2023-03-15 14:37:24:935,0,6.91373,-4.11403,-7.44971,Q,Q
2023-03-15 14:37:24:945,0,6.6464,-4.06788,-7.45523,Q,Q
2023-03-15 14:37:24:955,0,6.37238,-4.01756,-7.46624,Q,Q
2023-03-15 14:37:24:965,0,6.08799,-3.96175,-7.47999,Q,Q
2023-03-15 14:37:24:975,0,5.78864,-3.8968,-7.49171,Q,Q
2023-03-15 14:37:24:985,0,5.47077,-3.82424,-7.50589,Q,Q
2023-03-15 14:37:24:995,0,5.13048,-3.74856,-7.52536,Q,Q
2023-03-15 14:37:25:5,0,4.7702,-3.6701,-7.54926,Q,Q
2023-03-15 14:37:25:15,0,4.40004,-3.57921,-7.5842,Q,Q
2023-03-15 14:37:25:25,0,4.02964,-3.4804,-7.62821,Q,Q
2023-03-15 14:37:25:35,0,3.65483,-3.37115,-7.6706,Q,Q
2023-03-15 14:37:25:45,0,3.27934,-3.25313,-7.71999,Q,Q
2023-03-15 14:37:25:55,0,2.90124,-3.12865,-7.77137,Q,Q
2023-03-15 14:37:25:65,0,2.51481,-2.99677,-7.8273,Q,Q
2023-03-15 14:37:25:75,0,2.12172,-2.85164,-7.88657,Q,Q
2023-03-15 14:37:25:85,0,1.71287,-2.70457,-7.95145,Q,Q
2023-03-15 14:37:25:95,0,1.28239,-2.5486,-8.01666,Q,Q
2023-03-15 14:37:25:105,0,0.835622,-2.38367,-8.08744,Q,Q
2023-03-15 14:37:25:115,0,0.368679,-2.21529,-8.16594,Q,Q
2023-03-15 14:37:25:125,0,-0.117861,-2.03497,-8.2511,Q,Q
2023-03-15 14:37:25:135,0,-0.619947,-1.8533,-8.34847,Q,Q
2023-03-15 14:37:25:145,0,-1.12123,-1.65991,-8.46364,Q,Q
2023-03-15 14:37:25:155,0,-1.60622,-1.46203,-8.59001,Q,Q
2023-03-15 14:37:25:165,0,-2.06439,-1.25426,-8.72528,Q,Q
2023-03-15 14:37:25:175,0,-2.50859,-1.04207,-8.86552,Q,Q
2023-03-15 14:37:25:185,0,-2.95182,-0.824117,-9.01598,Q,Q
2023-03-15 14:37:25:195,0,-3.39001,-0.602617,-9.17343,Q,Q
2023-03-15 14:37:25:205,0,-3.8257,-0.383328,-9.34249,Q,Q
2023-03-15 14:37:25:215,0,-4.25615,-0.167159,-9.51217,Q,Q
2023-03-15 14:37:25:225,0,-4.6729,0.0472838,-9.69366,Q,Q
2023-03-15 14:37:25:235,0,-5.07762,0.25576,-9.87945,Q,Q
2023-03-15 14:37:25:245,0,-5.46071,0.460991,-10.0692,Q,Q
2023-03-15 14:37:25:255,0,-5.81918,0.65611,-10.2575,Q,Q
2023-03-15 14:37:25:265,0,-6.15169,0.843572,-10.4458,Q,Q
2023-03-15 14:37:25:275,0,-6.45235,1.01487,-10.6323,Q,Q
2023-03-15 14:37:25:285,0,-6.70895,1.16951,-10.8108,Q,Q
2023-03-15 14:37:25:295,0,-6.91877,1.30272,-10.9835,Q,Q
2023-03-15 14:37:25:305,0,-6.98561,1.39473,-11.0414,Q,Q
2023-03-15 14:37:25:315,0,-7.18726,1.48643,-10.958,Q,Q
2023-03-15 14:37:25:325,0,-6.88846,1.07673,-11.1099,Q,Q
2023-03-15 14:37:25:335,0,-6.29935,0.571112,-11.166,Q,Q
2023-03-15 14:37:25:345,0,-5.64549,0.205875,-11.048,Q,Q
2023-03-15 14:37:25:355,0,-5.24829,-0.00412481,-10.9319,Q,Q
2023-03-15 14:37:25:365,0,-5.11897,-0.0246251,-10.895,Q,Q
2023-03-15 14:37:25:375,0,-5.21857,0.1271,-10.827,Q,Q
2023-03-15 14:37:25:385,0,-5.49215,0.410075,-10.7908,Q,Q
2023-03-15 14:37:25:395,0,-6.01399,0.8684,-10.8231,Q,Q
2023-03-15 14:37:25:405,0,-6.59454,1.3843,-10.9716,Q,Q
2023-03-15 14:37:25:415,0,-6.99189,1.72048,-11.1633,Q,Q
2023-03-15 14:37:25:425,0,-7.11914,1.86457,-11.2251,Q,Q
2023-03-15 14:37:25:435,0,-7.03463,1.83631,-11.169,Q,Q
2023-03-15 14:37:25:445,0,-6.89929,1.74471,-11.1167,Q,Q
2023-03-15 14:37:25:455,0,-6.84257,1.68319,-11.1079,Q,Q
2023-03-15 14:37:25:465,0,-6.87623,1.6499,-11.1663,Q,Q
2023-03-15 14:37:25:475,0,-6.93766,1.61513,-11.2645,Q,Q
2023-03-15 14:37:25:485,0,-6.95585,1.55521,-11.397,Q,Q
2023-03-15 14:37:25:495,0,-6.91236,1.48064,-11.5382,Q,Q
2023-03-15 14:37:25:505,0,-6.87988,1.44009,-11.6618,Q,Q
2023-03-15 14:37:25:515,0,-6.89362,1.42436,-11.7849,Q,Q
2023-03-15 14:37:25:525,0,-6.94873,1.41683,-11.9084,Q,Q
2023-03-15 14:37:25:535,0,-6.99933,1.40367,-12.0414,Q,Q
2023-03-15 14:37:25:545,0,-7.04244,1.3878,-12.164,Q,Q
2023-03-15 14:37:25:555,0,-7.10627,1.38529,-12.2729,Q,Q
2023-03-15 14:37:25:565,0,-7.22149,1.41947,-12.3445,Q,Q
2023-03-15 14:37:25:575,0,-7.51478,1.51967,-12.3984,Q,Q
2023-03-15 14:37:25:585,0,-7.82133,1.57275,-12.5179,Q,Q
2023-03-15 14:37:25:595,0,-8.04891,1.58992,-12.6529,Q,Q
2023-03-15 14:37:25:605,0,-8.16462,1.59967,-12.7813,Q,Q
2023-03-15 14:37:25:615,0,-8.21238,1.62454,-12.8942,Q,Q
2023-03-15 14:37:25:625,0,-8.23802,1.65797,-13.0024,Q,Q
2023-03-15 14:37:25:635,0,-8.27621,1.70672,-13.1028,Q,Q
2023-03-15 14:37:25:645,0,-8.34319,1.73966,-13.1975,Q,Q
2023-03-15 14:37:25:655,0,-8.43713,1.76898,-13.281,Q,Q
2023-03-15 14:37:25:665,0,-8.5342,1.7858,-13.3652,Q,Q
2023-03-15 14:37:25:675,0,-8.61106,1.79172,-13.4466,Q,Q
2023-03-15 14:37:25:685,0,-8.63467,1.82194,-13.5276,Q,Q
2023-03-15 14:37:25:695,0,-8.58627,1.86403,-13.6022,Q,Q
2023-03-15 14:37:25:705,0,-8.48504,1.92298,-13.6556,Q,Q
2023-03-15 14:37:25:715,0,-8.36135,2.00787,-13.6977,Q,Q
2023-03-15 14:37:25:725,0,-8.22904,2.09668,-13.7297,Q,Q
2023-03-15 14:37:25:735,0,-8.10315,2.14842,-13.7458,Q,Q
2023-03-15 14:37:25:745,0,-8.01771,2.16311,-13.7286,Q,Q
2023-03-15 14:37:25:755,0,-7.98884,2.13651,-13.7012,Q,Q
2023-03-15 14:37:25:765,0,-7.98949,2.09706,-13.6701,Q,Q
2023-03-15 14:37:25:775,0,-7.99226,2.07368,-13.6357,Q,Q
2023-03-15 14:37:25:785,0,-7.99063,2.07758,-13.5908,Q,Q
2023-03-15 14:37:25:795,0,-7.99218,2.0981,-13.5422,Q,Q
2023-03-15 14:37:25:805,0,-7.99918,2.14177,-13.4845,Q,Q
2023-03-15 14:37:25:815,0,-8.0499,2.19194,-13.409,Q,Q
2023-03-15 14:37:25:825,0,-8.14982,2.23043,-13.3361,Q,Q
2023-03-15 14:37:25:835,0,-8.27452,2.24558,-13.2673,Q,Q
2023-03-15 14:37:25:845,0,-8.41306,2.25108,-13.2094,Q,Q
2023-03-15 14:37:25:855,0,-8.55286,2.25109,-13.1618,Q,Q
2023-03-15 14:37:25:865,0,-8.6796,2.25967,-13.1143,Q,Q
2023-03-15 14:37:25:875,0,-8.81068,2.27389,-13.0805,Q,Q
2023-03-15 14:37:25:885,0,-8.9448,2.2939,-13.0544,Q,Q
2023-03-15 14:37:25:895,0,-9.09165,2.31456,-13.0342,Q,Q
2023-03-15 14:37:25:905,0,-9.25115,2.34332,-13.0212,Q,Q
2023-03-15 14:37:25:915,0,-9.41842,2.39069,-13.0132,Q,Q
2023-03-15 14:37:25:925,0,-9.59687,2.48326,-13.0151,Q,Q
2023-03-15 14:37:25:935,0,-9.77988,2.57836,-13.046,Q,Q
2023-03-15 14:37:25:945,0,-9.91657,2.65597,-13.1106,Q,Q
2023-03-15 14:37:25:955,0,-9.97113,2.71234,-13.1939,Q,Q
2023-03-15 14:37:25:965,0,-9.94387,2.70283,-13.3016,Q,Q
2023-03-15 14:37:25:975,0,-9.81667,2.51404,-13.4116,Q,Q
2023-03-15 14:37:25:985,0,-9.51872,2.34832,-13.5142,Q,Q
2023-03-15 14:37:25:995,0,-9.30356,2.30078,-13.5309,Q,Q
2023-03-15 14:37:26:5,0,-9.2103,2.31971,-13.5318,Q,Q
2023-03-15 14:37:26:15,0,-9.22662,2.32074,-13.5469,Q,Q
2023-03-15 14:37:26:25,0,-9.27466,2.26305,-13.5821,Q,Q
2023-03-15 14:37:26:35,0,-9.28308,2.17593,-13.6151,Q,Q
2023-03-15 14:37:26:45,0,-9.24441,2.08899,-13.6334,Q,Q
2023-03-15 14:37:26:55,0,-9.19404,1.99875,-13.6581,Q,Q
2023-03-15 14:37:26:65,0,-9.15881,1.93239,-13.6819,Q,Q
2023-03-15 14:37:26:75,0,-9.13284,1.87695,-13.7037,Q,Q
2023-03-15 14:37:26:85,0,-9.11581,1.81209,-13.7281,Q,Q
2023-03-15 14:37:26:95,0,-9.0917,1.73861,-13.7518,Q,Q
2023-03-15 14:37:26:105,0,-9.0584,1.6586,-13.7642,Q,Q
2023-03-15 14:37:26:115,0,-9.02851,1.58179,-13.7728,Q,Q
2023-03-15 14:37:26:125,0,-9.00733,1.51709,-13.7735,Q,Q
2023-03-15 14:37:26:135,0,-8.98734,1.44607,-13.7909,Q,Q
2023-03-15 14:37:26:145,0,-8.96307,1.38345,-13.806,Q,Q
2023-03-15 14:37:26:155,0,-8.93898,1.31805,-13.8204,Q,Q
2023-03-15 14:37:26:165,0,-8.91078,1.22296,-13.8494,Q,Q
2023-03-15 14:37:26:175,0,-8.88035,1.0471,-13.8653,Q,Q
2023-03-15 14:37:26:185,0,-8.86654,0.849055,-13.8636,Q,Q
2023-03-15 14:37:26:195,0,-8.88075,0.604594,-13.853,Q,Q
2023-03-15 14:37:26:205,0,-8.90839,0.339188,-13.8406,Q,Q
2023-03-15 14:37:26:215,0,-8.94195,0.0400927,-13.8194,Q,Q
2023-03-15 14:37:26:225,0,-8.98525,-0.283244,-13.7726,Q,Q
2023-03-15 14:37:26:235,0,-9.04615,-0.595376,-13.699,Q,Q
2023-03-15 14:37:26:245,0,-9.11528,-0.861722,-13.6065,Q,Q
2023-03-15 14:37:26:255,0,-9.19615,-1.04183,-13.5095,Q,Q
2023-03-15 14:37:26:265,0,-9.28554,-1.11757,-13.4243,Q,Q
2023-03-15 14:37:26:275,0,-9.37776,-1.13555,-13.356,Q,Q
2023-03-15 14:37:26:285,0,-9.4671,-1.10648,-13.2896,Q,Q
2023-03-15 14:37:26:295,0,-9.57344,-1.04458,-13.2224,Q,Q
2023-03-15 14:37:26:305,0,-9.71048,-0.956386,-13.1755,Q,Q
2023-03-15 14:37:26:315,0,-9.85388,-0.856407,-13.1598,Q,Q
2023-03-15 14:37:26:325,0,-9.98116,-0.763926,-13.1701,Q,Q
2023-03-15 14:37:26:335,0,-10.1217,-0.683276,-13.1822,Q,Q
2023-03-15 14:37:26:345,0,-10.282,-0.615307,-13.1947,Q,Q
2023-03-15 14:37:26:355,0,-10.4769,-0.556923,-13.2086,Q,Q
2023-03-15 14:37:26:365,0,-10.7112,-0.494884,-13.2305,Q,Q
2023-03-15 14:37:26:375,0,-10.9918,-0.448076,-13.2476,Q,Q
2023-03-15 14:37:26:385,0,-11.3708,-0.38076,-13.2544,Q,Q
2023-03-15 14:37:26:395,0,-11.8366,-0.264644,-13.2826,Q,Q
2023-03-15 14:37:26:405,0,-12.349,-0.147162,-13.3412,Q,Q
2023-03-15 14:37:26:415,0,-12.8963,-0.00471975,-13.4152,Q,Q
2023-03-15 14:37:26:425,0,-13.4736,0.137295,-13.5031,Q,Q
2023-03-15 14:37:26:435,0,-14.035,0.231165,-13.6191,Q,Q
2023-03-15 14:37:26:445,0,-14.4956,0.289958,-13.7282,Q,Q
2023-03-15 14:37:26:455,0,-14.8959,0.327358,-13.8512,Q,Q
2023-03-15 14:37:26:465,0,-15.1338,0.327957,-14.004,Q,Q
2023-03-15 14:37:26:475,0,-15.2004,0.271113,-14.1812,Q,Q
2023-03-15 14:37:26:485,0,-15.1016,0.12824,-14.3476,Q,Q
2023-03-15 14:37:26:495,0,-14.8723,-0.00287667,-14.4873,Q,Q
2023-03-15 14:37:26:505,0,-14.5686,-0.218088,-14.6508,Q,Q
2023-03-15 14:37:26:515,0,-14.1646,-0.531382,-14.7875,Q,Q
2023-03-15 14:37:26:525,0,-13.6512,-0.865286,-14.8784,Q,Q
2023-03-15 14:37:26:535,0,-13.0458,-1.15167,-14.9438,Q,Q
2023-03-15 14:37:26:545,0,-12.4022,-1.35192,-14.9827,Q,Q
2023-03-15 14:37:26:555,0,-11.7576,-1.42808,-15.0013,Q,Q
2023-03-15 14:37:26:565,0,-11.1915,-1.37493,-14.9859,Q,Q
2023-03-15 14:37:26:575,0,-10.7453,-1.27131,-14.9665,Q,Q
2023-03-15 14:37:26:585,0,-10.3803,-1.17658,-14.9474,Q,Q
2023-03-15 14:37:26:595,0,-10.1076,-1.12761,-14.929,Q,Q
2023-03-15 14:37:26:605,0,-9.9531,-1.11191,-14.8955,Q,Q
2023-03-15 14:37:26:615,0,-9.86486,-1.10461,-14.8567,Q,Q
2023-03-15 14:37:26:625,0,-9.78653,-1.09754,-14.8336,Q,Q
2023-03-15 14:37:26:635,0,-9.69374,-1.09413,-14.8312,Q,Q
2023-03-15 14:37:26:645,0,-9.60628,-1.09379,-14.8248,Q,Q
2023-03-15 14:37:26:655,0,-9.57618,-1.10104,-14.8081,Q,Q
2023-03-15 14:37:26:665,0,-9.6177,-1.08238,-14.7894,Q,Q
2023-03-15 14:37:26:675,0,-9.70587,-1.02894,-14.7866,Q,Q
2023-03-15 14:37:26:685,0,-9.8365,-0.939368,-14.8007,Q,Q
2023-03-15 14:37:26:695,0,-9.96475,-0.836946,-14.8504,Q,Q
2023-03-15 14:37:26:705,0,-10.0493,-0.756114,-14.9205,Q,Q
2023-03-15 14:37:26:715,0,-10.1254,-0.68358,-14.9706,Q,Q
2023-03-15 14:37:26:725,0,-10.2602,-0.623815,-15.0173,Q,Q
2023-03-15 14:37:26:735,0,-10.4318,-0.574267,-15.0762,Q,Q
2023-03-15 14:37:26:745,0,-10.6293,-0.554354,-15.1663,Q,Q
2023-03-15 14:37:26:755,0,-10.8124,-0.554005,-15.27,Q,Q
2023-03-15 14:37:26:765,0,-10.9971,-0.568209,-15.3828,Q,Q
2023-03-15 14:37:26:775,0,-11.1308,-0.546519,-15.4827,Q,Q
2023-03-15 14:37:26:785,0,-11.3105,-0.521901,-15.5649,Q,Q
2023-03-15 14:37:26:795,0,-11.4306,-0.537343,-15.676,Q,Q
2023-03-15 14:37:26:805,0,-11.4814,-0.556386,-15.7763,Q,Q
2023-03-15 14:37:26:815,0,-11.5441,-0.578331,-15.8434,Q,Q
2023-03-15 14:37:26:825,0,-11.5701,-0.638215,-15.9088,Q,Q
2023-03-15 14:37:26:835,0,-11.5058,-0.773427,-15.9776,Q,Q
2023-03-15 14:37:26:845,0,-11.3189,-0.917949,-16.023,Q,Q
2023-03-15 14:37:26:855,0,-11.0757,-1.03227,-16.0404,Q,Q
2023-03-15 14:37:26:865,0,-10.8154,-1.14136,-16.0385,Q,Q
2023-03-15 14:37:26:875,0,-10.5484,-1.26535,-16.0152,Q,Q
2023-03-15 14:37:26:885,0,-10.2779,-1.38134,-15.96,Q,Q
2023-03-15 14:37:26:895,0,-10.0224,-1.47639,-15.8856,Q,Q
2023-03-15 14:37:26:905,0,-9.7898,-1.59284,-15.8311,Q,Q
2023-03-15 14:37:26:915,0,-9.5981,-1.66926,-15.7711,Q,Q
2023-03-15 14:37:26:925,0,-9.50083,-1.68217,-15.7015,Q,Q
2023-03-15 14:37:26:935,0,-9.46891,-1.61614,-15.6625,Q,Q
2023-03-15 14:37:26:945,0,-9.44532,-1.51515,-15.6469,Q,Q
2023-03-15 14:37:26:955,0,-9.43575,-1.40185,-15.6074,Q,Q
2023-03-15 14:37:26:965,0,-9.45464,-1.26374,-15.5519,Q,Q
2023-03-15 14:37:26:975,0,-9.51757,-1.08494,-15.4895,Q,Q
2023-03-15 14:37:26:985,0,-9.64519,-0.882257,-15.4484,Q,Q
2023-03-15 14:37:26:995,0,-9.80588,-0.648587,-15.4349,Q,Q
2023-03-15 14:37:27:5,0,-9.98321,-0.378518,-15.4486,Q,Q
2023-03-15 14:37:27:15,0,-10.1584,-0.0626576,-15.486,Q,Q
2023-03-15 14:37:27:25,0,-10.3559,0.242652,-15.5419,Q,Q
2023-03-15 14:37:27:35,0,-10.5796,0.524683,-15.5809,Q,Q
2023-03-15 14:37:27:45,0,-10.9128,0.785393,-15.5975,Q,Q
2023-03-15 14:37:27:55,0,-11.3018,1.00491,-15.6283,Q,Q
2023-03-15 14:37:27:65,0,-11.7628,1.19615,-15.7166,Q,Q
2023-03-15 14:37:27:75,0,-12.1873,1.35328,-15.8543,Q,Q
2023-03-15 14:37:27:85,0,-12.5914,1.41302,-16.0162,Q,Q
2023-03-15 14:37:27:95,0,-12.8247,1.43242,-16.2007,Q,Q
2023-03-15 14:37:27:105,0,-12.8766,1.33195,-16.4408,Q,Q
2023-03-15 14:37:27:115,0,-12.6957,1.11204,-16.7051,Q,Q
2023-03-15 14:37:27:125,0,-12.3723,0.821155,-16.9231,Q,Q
2023-03-15 14:37:27:135,0,-11.9683,0.511821,-17.0988,Q,Q
2023-03-15 14:37:27:145,0,-11.5143,0.193917,-17.2702,Q,Q
2023-03-15 14:37:27:155,0,-11.0406,-0.142208,-17.4364,Q,Q
2023-03-15 14:37:27:165,0,-10.557,-0.461912,-17.5639,Q,Q
2023-03-15 14:37:27:175,0,-10.1595,-0.756527,-17.6123,Q,Q
2023-03-15 14:37:27:185,0,-9.86131,-1.00559,-17.6343,Q,Q
2023-03-15 14:37:27:195,0,-9.59238,-1.21429,-17.6802,Q,Q
2023-03-15 14:37:27:205,0,-9.39489,-1.44803,-17.7424,Q,Q
2023-03-15 14:37:27:215,0,-9.29134,-1.66055,-17.7653,Q,Q
2023-03-15 14:37:27:225,0,-9.26738,-1.80707,-17.7619,Q,Q
2023-03-15 14:37:27:235,0,-9.32317,-1.87882,-17.7401,Q,Q
2023-03-15 14:37:27:245,0,-9.39901,-1.89616,-17.7197,Q,Q
2023-03-15 14:37:27:255,0,-9.50291,-1.84951,-17.6735,Q,Q
2023-03-15 14:37:27:265,0,-9.6377,-1.77009,-17.6253,Q,Q
2023-03-15 14:37:27:275,0,-9.82315,-1.64743,-17.5612,Q,Q
2023-03-15 14:37:27:285,0,-10.0479,-1.47967,-17.5288,Q,Q
2023-03-15 14:37:27:295,0,-10.2794,-1.3021,-17.5366,Q,Q
2023-03-15 14:37:27:305,0,-10.5258,-1.1133,-17.5469,Q,Q
2023-03-15 14:37:27:315,0,-10.8176,-0.897714,-17.554,Q,Q
2023-03-15 14:37:27:325,0,-11.1897,-0.637236,-17.5576,Q,Q
2023-03-15 14:37:27:335,0,-11.6979,-0.334926,-17.5534,Q,Q
2023-03-15 14:37:27:345,0,-12.3472,-0.0102658,-17.5653,Q,Q
2023-03-15 14:37:27:355,0,-13.0254,0.384197,-17.6016,Q,Q
2023-03-15 14:37:27:365,0,-13.6695,0.769584,-17.6675,Q,Q
2023-03-15 14:37:27:375,0,-14.1515,1.17066,-17.7616,Q,Q
2023-03-15 14:37:27:385,0,-14.4373,1.51708,-17.8835,Q,Q
2023-03-15 14:37:27:395,0,-14.4364,1.74665,-18.0511,Q,Q
2023-03-15 14:37:27:405,0,-13.9724,1.80849,-18.2166,Q,Q
2023-03-15 14:37:27:415,0,-13.2657,1.74292,-18.2954,Q,Q
2023-03-15 14:37:27:425,0,-12.4547,1.60697,-18.3565,Q,Q
2023-03-15 14:37:27:435,0,-11.6048,1.45265,-18.3597,Q,Q
2023-03-15 14:37:27:445,0,-10.9124,1.35547,-18.2843,Q,Q
2023-03-15 14:37:27:455,0,-10.389,1.31949,-18.186,Q,Q
2023-03-15 14:37:27:465,0,-10.0585,1.30245,-18.0676,Q,Q
2023-03-15 14:37:27:475,0,-9.8595,1.27707,-17.9579,Q,Q
2023-03-15 14:37:27:485,0,-9.72083,1.23417,-17.8506,Q,Q
2023-03-15 14:37:27:495,0,-9.5963,1.16985,-17.7432,Q,Q
2023-03-15 14:37:27:505,0,-9.45246,1.07892,-17.6383,Q,Q
2023-03-15 14:37:27:515,0,-9.28409,0.987113,-17.528,Q,Q
2023-03-15 14:37:27:525,0,-9.11289,0.910755,-17.4127,Q,Q
2023-03-15 14:37:27:535,0,-8.93445,0.841834,-17.3036,Q,Q
2023-03-15 14:37:27:545,0,-8.74279,0.769482,-17.2013,Q,Q
2023-03-15 14:37:27:555,0,-8.54319,0.693669,-17.0963,Q,Q
2023-03-15 14:37:27:565,0,-8.32774,0.617903,-16.9923,Q,Q
2023-03-15 14:37:27:575,0,-8.09838,0.543947,-16.902,Q,Q
2023-03-15 14:37:27:585,0,-7.86637,0.477189,-16.8173,Q,Q
2023-03-15 14:37:27:595,0,-7.63977,0.415049,-16.7339,Q,Q
2023-03-15 14:37:27:605,0,-7.4147,0.353641,-16.6578,Q,Q
2023-03-15 14:37:27:615,0,-7.18064,0.284605,-16.5902,Q,Q
2023-03-15 14:37:27:625,0,-6.92072,0.206744,-16.5391,Q,Q
2023-03-15 14:37:27:635,0,-6.62749,0.128889,-16.5033,Q,Q
2023-03-15 14:37:27:645,0,-6.29807,0.0451924,-16.4743,Q,Q
2023-03-15 14:37:27:655,0,-5.94723,-0.0461259,-16.45,Q,Q
2023-03-15 14:37:27:665,0,-5.56849,-0.161119,-16.4223,Q,Q
2023-03-15 14:37:27:675,0,-5.16534,-0.31111,-16.393,Q,Q
2023-03-15 14:37:27:685,0,-4.73282,-0.487065,-16.3549,Q,Q
2023-03-15 14:37:27:695,0,-4.26831,-0.697688,-16.3117,Q,Q
2023-03-15 14:37:27:705,0,-3.7618,-0.928566,-16.2704,Q,Q
2023-03-15 14:37:27:715,0,-3.21747,-1.18589,-16.2293,Q,Q
2023-03-15 14:37:27:725,0,-2.63415,-1.45687,-16.1904,Q,Q
2023-03-15 14:37:27:735,0,-2.02448,-1.73379,-16.1521,Q,Q
2023-03-15 14:37:27:745,0,-1.40122,-2.01746,-16.1098,Q,Q
2023-03-15 14:37:27:755,0,-0.766183,-2.30816,-16.0692,Q,Q
2023-03-15 14:37:27:765,0,-0.128881,-2.60033,-16.0324,Q,Q
2023-03-15 14:37:27:775,0,0.507326,-2.88999,-16.0025,Q,Q
2023-03-15 14:37:27:785,0,1.13576,-3.17378,-15.976,Q,Q
2023-03-15 14:37:27:795,0,1.74626,-3.44743,-15.9594,Q,Q
2023-03-15 14:37:27:805,0,2.33506,-3.71434,-15.9479,Q,Q
2023-03-15 14:37:27:815,0,2.9059,-3.96908,-15.9524,Q,Q
2023-03-15 14:37:27:825,0,3.45657,-4.20763,-15.968,Q,Q
2023-03-15 14:37:27:835,0,3.99572,-4.43244,-16.0013,Q,Q
2023-03-15 14:37:27:845,0,4.5291,-4.63599,-16.0455,Q,Q
2023-03-15 14:37:27:855,0,5.0556,-4.81164,-16.1016,Q,Q
2023-03-15 14:37:27:865,0,5.57207,-4.96471,-16.1696,Q,Q
2023-03-15 14:37:27:875,0,6.07142,-5.09314,-16.239,Q,Q
2023-03-15 14:37:27:885,0,6.54921,-5.20284,-16.3058,Q,Q
2023-03-15 14:37:27:895,0,7.00902,-5.30646,-16.3655,Q,Q
2023-03-15 14:37:27:905,0,7.44508,-5.40366,-16.417,Q,Q
2023-03-15 14:37:27:915,0,7.8646,-5.49911,-16.4702,Q,Q
2023-03-15 14:37:27:925,0,8.26513,-5.58862,-16.5279,Q,Q
2023-03-15 14:37:27:935,0,8.6526,-5.66968,-16.5894,Q,Q
2023-03-15 14:37:27:945,0,9.0248,-5.73702,-16.6603,Q,Q
2023-03-15 14:37:27:955,0,9.38198,-5.7867,-16.7342,Q,Q
2023-03-15 14:37:27:965,0,9.72222,-5.82546,-16.8101,Q,Q
2023-03-15 14:37:27:975,0,10.0515,-5.85517,-16.8894,Q,Q
2023-03-15 14:37:27:985,0,10.3685,-5.88831,-16.9687,Q,Q
2023-03-15 14:37:27:995,0,10.6758,-5.92821,-17.0434,Q,Q
2023-03-15 14:37:28:5,0,10.9732,-5.97925,-17.1194,Q,Q
2023-03-15 14:37:28:15,0,11.2531,-6.03563,-17.1932,Q,Q
2023-03-15 14:37:28:25,0,11.518,-6.09847,-17.2732,Q,Q
2023-03-15 14:37:28:35,0,11.763,-6.1627,-17.3554,Q,Q
2023-03-15 14:37:28:45,0,11.9896,-6.22509,-17.4485,Q,Q
2023-03-15 14:37:28:55,0,12.1961,-6.28769,-17.5466,Q,Q
2023-03-15 14:37:28:65,0,12.3868,-6.34895,-17.6459,Q,Q
2023-03-15 14:37:28:75,0,12.5627,-6.41654,-17.7459,Q,Q
2023-03-15 14:37:28:85,0,12.7266,-6.48806,-17.8488,Q,Q
2023-03-15 14:37:28:95,0,12.869,-6.56781,-17.9498,Q,Q
2023-03-15 14:37:28:105,0,12.9938,-6.65196,-18.0525,Q,Q
2023-03-15 14:37:28:115,0,13.0866,-6.73794,-18.1689,Q,Q
2023-03-15 14:37:28:125,0,13.1308,-6.81577,-18.2949,Q,Q
2023-03-15 14:37:28:135,0,13.1275,-6.88179,-18.4419,Q,Q
2023-03-15 14:37:28:145,0,13.086,-6.94792,-18.6095,Q,Q
2023-03-15 14:37:28:155,0,13.0173,-7.00614,-18.7981,Q,Q
2023-03-15 14:37:28:165,0,12.9234,-7.0569,-18.9999,Q,Q
2023-03-15 14:37:28:175,0,12.8144,-7.09773,-19.2254,Q,Q
2023-03-15 14:37:28:185,0,12.687,-7.12972,-19.4632,Q,Q
2023-03-15 14:37:28:195,0,12.5571,-7.14959,-19.7047,Q,Q
2023-03-15 14:37:28:205,0,12.4378,-7.16828,-19.9409,Q,Q
2023-03-15 14:37:28:215,0,12.3317,-7.18933,-20.1649,Q,Q
2023-03-15 14:37:28:225,0,12.2535,-7.20742,-20.3764,Q,Q
2023-03-15 14:37:28:235,0,12.2027,-7.21829,-20.5713,Q,Q
2023-03-15 14:37:28:245,0,12.1712,-7.21291,-20.7448,Q,Q
2023-03-15 14:37:28:255,0,12.1565,-7.19196,-20.9009,Q,Q
2023-03-15 14:37:28:265,0,12.1445,-7.16306,-21.0298,Q,Q
2023-03-15 14:37:28:275,0,12.1344,-7.13092,-21.1322,Q,Q
2023-03-15 14:37:28:285,0,12.1175,-7.09551,-21.2126,Q,Q
2023-03-15 14:37:28:295,0,12.1049,-7.06481,-21.2674,Q,Q
2023-03-15 14:37:28:305,0,12.0926,-7.03867,-21.2933,Q,Q
2023-03-15 14:37:28:315,0,12.0752,-7.01769,-21.2961,Q,Q
2023-03-15 14:37:28:325,0,12.0603,-6.99978,-21.2815,Q,Q
2023-03-15 14:37:28:335,0,12.0416,-6.98429,-21.2508,Q,Q
2023-03-15 14:37:28:345,0,12.0216,-6.9775,-21.2007,Q,Q
2023-03-15 14:37:28:355,0,12.0102,-6.97901,-21.1386,Q,Q
2023-03-15 14:37:28:365,0,12.0086,-6.99517,-21.0718,Q,Q
2023-03-15 14:37:28:375,0,12.0081,-7.02355,-21.0008,Q,Q
2023-03-15 14:37:28:385,0,12.0093,-7.0559,-20.9293,Q,Q
2023-03-15 14:37:28:395,0,12.0043,-7.08481,-20.8606,Q,Q
2023-03-15 14:37:28:405,0,11.9979,-7.11161,-20.8005,Q,Q
2023-03-15 14:37:28:415,0,11.9886,-7.1332,-20.743,Q,Q
2023-03-15 14:37:28:425,0,11.9755,-7.14941,-20.6833,Q,Q
2023-03-15 14:37:28:435,0,11.9656,-7.16613,-20.6276,Q,Q
2023-03-15 14:37:28:445,0,11.9595,-7.18155,-20.5722,Q,Q
2023-03-15 14:37:28:455,0,11.9476,-7.19076,-20.5156,Q,Q
2023-03-15 14:37:28:465,0,11.9304,-7.19703,-20.4655,Q,Q
2023-03-15 14:37:28:475,0,11.9048,-7.20501,-20.4229,Q,Q
2023-03-15 14:37:28:485,0,11.8885,-7.20753,-20.3859,Q,Q
2023-03-15 14:37:28:495,0,11.8778,-7.20042,-20.3477,Q,Q
2023-03-15 14:37:28:505,0,11.8678,-7.18755,-20.3187,Q,Q
2023-03-15 14:37:28:515,0,11.8613,-7.17173,-20.2886,Q,Q
2023-03-15 14:37:28:525,0,11.854,-7.15955,-20.2597,Q,Q
2023-03-15 14:37:28:535,0,11.8427,-7.15388,-20.2257,Q,Q
2023-03-15 14:37:28:545,0,11.8289,-7.15506,-20.1977,Q,Q
2023-03-15 14:37:28:555,0,11.8137,-7.1609,-20.1687,Q,Q
2023-03-15 14:37:28:565,0,11.7971,-7.17392,-20.1428,Q,Q
2023-03-15 14:37:28:575,0,11.7785,-7.19323,-20.12,Q,Q
2023-03-15 14:37:28:585,0,11.7563,-7.21089,-20.0985,Q,Q
2023-03-15 14:37:28:595,0,11.7271,-7.22904,-20.0809,Q,Q
2023-03-15 14:37:28:605,0,11.6865,-7.24514,-20.065,Q,Q
2023-03-15 14:37:28:615,0,11.6419,-7.25498,-20.0564,Q,Q
2023-03-15 14:37:28:625,0,11.6,-7.25767,-20.0527,Q,Q
2023-03-15 14:37:28:635,0,11.5613,-7.25755,-20.0458,Q,Q
2023-03-15 14:37:28:645,0,11.5272,-7.24276,-20.0415,Q,Q
2023-03-15 14:37:28:655,0,11.5031,-7.21612,-20.0351,Q,Q
2023-03-15 14:37:28:665,0,11.4894,-7.1851,-20.0254,Q,Q
2023-03-15 14:37:28:675,0,11.4817,-7.15403,-20.0132,Q,Q
2023-03-15 14:37:28:685,0,11.4749,-7.11874,-19.9936,Q,Q
2023-03-15 14:37:28:695,0,11.4638,-7.08236,-19.9756,Q,Q
2023-03-15 14:37:28:705,0,11.4534,-7.04865,-19.9585,Q,Q
2023-03-15 14:37:28:715,0,11.4483,-7.01771,-19.941,Q,Q
2023-03-15 14:37:28:725,0,11.4466,-6.98901,-19.9219,Q,Q
2023-03-15 14:37:28:735,0,11.4554,-6.95294,-19.9081,Q,Q
2023-03-15 14:37:28:745,0,11.4687,-6.917,-19.89,Q,Q
2023-03-15 14:37:28:755,0,11.4848,-6.87757,-19.8681,Q,Q
2023-03-15 14:37:28:765,0,11.51,-6.84189,-19.8399,Q,Q
2023-03-15 14:37:28:775,0,11.5326,-6.81001,-19.8043,Q,Q
2023-03-15 14:37:28:785,0,11.5463,-6.78252,-19.7596,Q,Q
2023-03-15 14:37:28:795,0,11.5511,-6.75992,-19.7069,Q,Q
2023-03-15 14:37:28:805,0,11.5511,-6.73846,-19.6472,Q,Q
2023-03-15 14:37:28:815,0,11.5477,-6.72146,-19.583,Q,Q
2023-03-15 14:37:28:825,0,11.5494,-6.70853,-19.5173,Q,Q
2023-03-15 14:37:28:835,0,11.5567,-6.69453,-19.449,Q,Q
2023-03-15 14:37:28:845,0,11.5644,-6.67947,-19.3822,Q,Q
2023-03-15 14:37:28:855,0,11.5786,-6.67265,-19.3117,Q,Q
2023-03-15 14:37:28:865,0,11.5973,-6.66812,-19.2401,Q,Q
2023-03-15 14:37:28:875,0,11.6189,-6.66552,-19.163,Q,Q
2023-03-15 14:37:28:885,0,11.637,-6.67079,-19.0924,Q,Q
2023-03-15 14:37:28:895,0,11.6477,-6.67838,-19.0248,Q,Q
2023-03-15 14:37:28:905,0,11.6456,-6.67937,-18.964,Q,Q
2023-03-15 14:37:28:915,0,11.6127,-6.67305,-18.918,Q,Q
2023-03-15 14:37:28:925,0,11.5606,-6.64855,-18.8863,Q,Q
2023-03-15 14:37:28:935,0,11.4904,-6.60568,-18.8691,Q,Q
2023-03-15 14:37:28:945,0,11.4149,-6.5493,-18.8643,Q,Q
2023-03-15 14:37:28:955,0,11.3424,-6.48958,-18.8637,Q,Q
2023-03-15 14:37:28:965,0,11.2786,-6.4298,-18.8612,Q,Q
2023-03-15 14:37:28:975,0,11.2244,-6.37421,-18.8599,Q,Q
2023-03-15 14:37:28:985,0,11.1771,-6.3203,-18.8583,Q,Q
2023-03-15 14:37:28:995,0,11.1437,-6.26675,-18.8527,Q,Q
2023-03-15 14:37:29:5,0,11.1206,-6.21612,-18.8419,Q,Q
2023-03-15 14:37:29:15,0,11.092,-6.16661,-18.8231,Q,Q
2023-03-15 14:37:29:25,0,11.0649,-6.12302,-18.7951,Q,Q
2023-03-15 14:37:29:35,0,11.0351,-6.08667,-18.7649,Q,Q
2023-03-15 14:37:29:45,0,11.0017,-6.05756,-18.738,Q,Q
2023-03-15 14:37:29:55,0,10.9754,-6.03041,-18.7138,Q,Q
2023-03-15 14:37:29:65,0,10.9666,-6.01936,-18.6919,Q,Q
2023-03-15 14:37:29:75,0,10.9712,-6.01574,-18.6705,Q,Q
2023-03-15 14:37:29:85,0,10.9875,-6.01165,-18.6491,Q,Q
2023-03-15 14:37:29:95,0,11.0014,-6.00164,-18.6269,Q,Q
2023-03-15 14:37:29:105,0,11.0107,-5.98876,-18.6072,Q,Q
2023-03-15 14:37:29:115,0,11.0078,-5.96664,-18.5911,Q,Q
2023-03-15 14:37:29:125,0,10.989,-5.94193,-18.5757,Q,Q
2023-03-15 14:37:29:135,0,10.9621,-5.91228,-18.558,Q,Q
2023-03-15 14:37:29:145,0,10.924,-5.88084,-18.5346,Q,Q
2023-03-15 14:37:29:155,0,10.8871,-5.84824,-18.5107,Q,Q
2023-03-15 14:37:29:165,0,10.8585,-5.82198,-18.4869,Q,Q
2023-03-15 14:37:29:175,0,10.8389,-5.79642,-18.4572,Q,Q
2023-03-15 14:37:29:185,0,10.8314,-5.76645,-18.4199,Q,Q
2023-03-15 14:37:29:195,0,10.8289,-5.73269,-18.3847,Q,Q
2023-03-15 14:37:29:205,0,10.8264,-5.69646,-18.3428,Q,Q
2023-03-15 14:37:29:215,0,10.8231,-5.65994,-18.2929,Q,Q
2023-03-15 14:37:29:225,0,10.8137,-5.63628,-18.2384,Q,Q
2023-03-15 14:37:29:235,0,10.8025,-5.62269,-18.1804,Q,Q
2023-03-15 14:37:29:245,0,10.7902,-5.61409,-18.1258,Q,Q
2023-03-15 14:37:29:255,0,10.7776,-5.60588,-18.0787,Q,Q
2023-03-15 14:37:29:265,0,10.7602,-5.59908,-18.0314,Q,Q
2023-03-15 14:37:29:275,0,10.7412,-5.59616,-17.9902,Q,Q
2023-03-15 14:37:29:285,0,10.7173,-5.59719,-17.9507,Q,Q
2023-03-15 14:37:29:295,0,10.699,-5.60166,-17.9161,Q,Q
2023-03-15 14:37:29:305,0,10.6878,-5.60663,-17.886,Q,Q
2023-03-15 14:37:29:315,0,10.6822,-5.61351,-17.8583,Q,Q
2023-03-15 14:37:29:325,0,10.6881,-5.62474,-17.8263,Q,Q
2023-03-15 14:37:29:335,0,10.6944,-5.633,-17.7984,Q,Q
2023-03-15 14:37:29:345,0,10.7008,-5.64415,-17.7725,Q,Q
2023-03-15 14:37:29:355,0,10.716,-5.65184,-17.748,Q,Q
2023-03-15 14:37:29:365,0,10.7384,-5.65491,-17.7223,Q,Q
2023-03-15 14:37:29:375,0,10.7652,-5.65837,-17.6956,Q,Q
2023-03-15 14:37:29:385,0,10.7875,-5.66507,-17.6693,Q,Q
2023-03-15 14:37:29:395,0,10.8031,-5.66588,-17.6462,Q,Q
2023-03-15 14:37:29:405,0,10.8091,-5.66243,-17.6264,Q,Q
2023-03-15 14:37:29:415,0,10.8049,-5.65585,-17.6142,Q,Q
2023-03-15 14:37:29:425,0,10.7897,-5.64679,-17.6032,Q,Q
2023-03-15 14:37:29:435,0,10.7736,-5.63609,-17.5989,Q,Q
2023-03-15 14:37:29:445,0,10.7527,-5.625,-17.5999,Q,Q
2023-03-15 14:37:29:455,0,10.7308,-5.61284,-17.6021,Q,Q
2023-03-15 14:37:29:465,0,10.7071,-5.59584,-17.609,Q,Q
2023-03-15 14:37:29:475,0,10.6764,-5.57596,-17.6184,Q,Q
2023-03-15 14:37:29:485,0,10.6482,-5.55162,-17.6346,Q,Q
2023-03-15 14:37:29:495,0,10.6127,-5.52769,-17.6501,Q,Q
2023-03-15 14:37:29:505,0,10.5734,-5.50508,-17.6723,Q,Q
2023-03-15 14:37:29:515,0,10.5301,-5.47896,-17.6927,Q,Q
2023-03-15 14:37:29:525,0,10.4913,-5.45447,-17.7153,Q,Q
2023-03-15 14:37:29:535,0,10.4582,-5.43664,-17.7343,Q,Q
2023-03-15 14:37:29:545,0,10.4272,-5.42499,-17.7468,Q,Q
2023-03-15 14:37:29:555,0,10.4037,-5.42349,-17.7545,Q,Q
2023-03-15 14:37:29:565,0,10.3819,-5.43185,-17.7618,Q,Q
2023-03-15 14:37:29:575,0,10.3613,-5.44439,-17.7733,Q,Q
2023-03-15 14:37:29:585,0,10.3474,-5.46787,-17.7915,Q,Q
2023-03-15 14:37:29:595,0,10.3393,-5.48876,-17.8148,Q,Q
2023-03-15 14:37:29:605,0,10.3353,-5.51652,-17.8442,Q,Q
2023-03-15 14:37:29:615,0,10.3375,-5.54263,-17.8827,Q,Q
2023-03-15 14:37:29:625,0,10.353,-5.5697,-17.9306,Q,Q
2023-03-15 14:37:29:635,0,10.3734,-5.59338,-17.9809,Q,Q
2023-03-15 14:37:29:645,0,10.4028,-5.61914,-18.0332,Q,Q
2023-03-15 14:37:29:655,0,10.4351,-5.64059,-18.0898,Q,Q
2023-03-15 14:37:29:665,0,10.4711,-5.65321,-18.1441,Q,Q
2023-03-15 14:37:29:675,0,10.5021,-5.66153,-18.1928,Q,Q
2023-03-15 14:37:29:685,0,10.5241,-5.6651,-18.2351,Q,Q
2023-03-15 14:37:29:695,0,10.5408,-5.66101,-18.2708,Q,Q
2023-03-15 14:37:29:705,0,10.5482,-5.65127,-18.3029,Q,Q
2023-03-15 14:37:29:715,0,10.5519,-5.63721,-18.3244,Q,Q
2023-03-15 14:37:29:725,0,10.5495,-5.61906,-18.3382,Q,Q
2023-03-15 14:37:29:735,0,10.546,-5.60099,-18.3438,Q,Q
2023-03-15 14:37:29:745,0,10.5353,-5.57502,-18.3417,Q,Q
2023-03-15 14:37:29:755,0,10.5196,-5.54678,-18.3317,Q,Q
2023-03-15 14:37:29:765,0,10.5024,-5.51876,-18.3174,Q,Q
2023-03-15 14:37:29:775,0,10.4808,-5.49377,-18.2932,Q,Q
2023-03-15 14:37:29:785,0,10.4603,-5.47522,-18.2607,Q,Q
2023-03-15 14:37:29:795,0,10.4354,-5.46521,-18.2167,Q,Q
2023-03-15 14:37:29:805,0,10.4144,-5.46963,-18.166,Q,Q
2023-03-15 14:37:29:815,0,10.3943,-5.48952,-18.103,Q,Q
2023-03-15 14:37:29:825,0,10.3683,-5.51765,-18.0393,Q,Q
2023-03-15 14:37:29:835,0,10.3434,-5.55447,-17.9716,Q,Q
2023-03-15 14:37:29:845,0,10.3152,-5.59562,-17.903,Q,Q
2023-03-15 14:37:29:855,0,10.2923,-5.64012,-17.8381,Q,Q
2023-03-15 14:37:29:865,0,10.2744,-5.67953,-17.7748,Q,Q
2023-03-15 14:37:29:875,0,10.2654,-5.71301,-17.7186,Q,Q
2023-03-15 14:37:29:885,0,10.2711,-5.74143,-17.6662,Q,Q
2023-03-15 14:37:29:895,0,10.2892,-5.76188,-17.6158,Q,Q
2023-03-15 14:37:29:905,0,10.3227,-5.77596,-17.5711,Q,Q
2023-03-15 14:37:29:915,0,10.3574,-5.78616,-17.5291,Q,Q
2023-03-15 14:37:29:925,0,10.392,-5.7891,-17.4918,Q,Q
2023-03-15 14:37:29:935,0,10.4223,-5.79361,-17.461,Q,Q
2023-03-15 14:37:29:945,0,10.4399,-5.79209,-17.4311,Q,Q
2023-03-15 14:37:29:955,0,10.4528,-5.7861,-17.407,Q,Q
2023-03-15 14:37:29:965,0,10.464,-5.77824,-17.3895,Q,Q
2023-03-15 14:37:29:975,0,10.4685,-5.76888,-17.379,Q,Q
2023-03-15 14:37:29:985,0,10.472,-5.75532,-17.3723,Q,Q
2023-03-15 14:37:29:995,0,10.4748,-5.74181,-17.3698,Q,Q
2023-03-15 14:37:30:5,0,10.4827,-5.73124,-17.365,Q,Q
2023-03-15 14:37:30:15,0,10.4861,-5.72132,-17.3529,Q,Q
2023-03-15 14:37:30:25,0,10.4886,-5.71376,-17.3411,Q,Q
2023-03-15 14:37:30:35,0,10.488,-5.70655,-17.3275,Q,Q
2023-03-15 14:37:30:45,0,10.4814,-5.70136,-17.3083,Q,Q
2023-03-15 14:37:30:55,0,10.4778,-5.69437,-17.28,Q,Q
2023-03-15 14:37:30:65,0,10.4709,-5.69534,-17.2461,Q,Q
2023-03-15 14:37:30:75,0,10.4564,-5.70531,-17.2029,Q,Q
2023-03-15 14:37:30:85,0,10.4387,-5.71947,-17.1566,Q,Q
2023-03-15 14:37:30:95,0,10.4199,-5.73211,-17.1074,Q,Q
2023-03-15 14:37:30:105,0,10.4007,-5.74485,-17.0599,Q,Q
2023-03-15 14:37:30:115,0,10.387,-5.75785,-17.0156,Q,Q
2023-03-15 14:37:30:125,0,10.3751,-5.76816,-16.9725,Q,Q
2023-03-15 14:37:30:135,0,10.365,-5.77694,-16.9408,Q,Q
2023-03-15 14:37:30:145,0,10.3601,-5.7856,-16.9177,Q,Q
2023-03-15 14:37:30:155,0,10.3617,-5.789,-16.9003,Q,Q
2023-03-15 14:37:30:165,0,10.3664,-5.79121,-16.8935,Q,Q
2023-03-15 14:37:30:175,0,10.3711,-5.78999,-16.8935,Q,Q
2023-03-15 14:37:30:185,0,10.3779,-5.79031,-16.8968,Q,Q
2023-03-15 14:37:30:195,0,10.3807,-5.79209,-16.9052,Q,Q
2023-03-15 14:37:30:205,0,10.3807,-5.7925,-16.9194,Q,Q
2023-03-15 14:37:30:215,0,10.3852,-5.79916,-16.9364,Q,Q
2023-03-15 14:37:30:225,0,10.3896,-5.8091,-16.9541,Q,Q
2023-03-15 14:37:30:235,0,10.3963,-5.81635,-16.9726,Q,Q
2023-03-15 14:37:30:245,0,10.4035,-5.82266,-16.991,Q,Q
2023-03-15 14:37:30:255,0,10.417,-5.83318,-17.0046,Q,Q
2023-03-15 14:37:30:265,0,10.436,-5.8361,-17.0115,Q,Q
2023-03-15 14:37:30:275,0,10.4527,-5.84389,-17.0067,Q,Q
2023-03-15 14:37:30:285,0,10.4704,-5.85389,-16.9975,Q,Q
2023-03-15 14:37:30:295,0,10.4842,-5.86377,-16.9765,Q,Q
2023-03-15 14:37:30:305,0,10.4901,-5.87427,-16.9437,Q,Q
2023-03-15 14:37:30:315,0,10.4936,-5.88299,-16.9003,Q,Q
2023-03-15 14:37:30:325,0,10.4869,-5.89104,-16.8498,Q,Q
2023-03-15 14:37:30:335,0,10.4729,-5.90176,-16.7977,Q,Q
2023-03-15 14:37:30:345,0,10.4541,-5.91231,-16.741,Q,Q
2023-03-15 14:37:30:355,0,10.4338,-5.91697,-16.6859,Q,Q
2023-03-15 14:37:30:365,0,10.4127,-5.92366,-16.6328,Q,Q
2023-03-15 14:37:30:375,0,10.391,-5.9312,-16.5849,Q,Q
2023-03-15 14:37:30:385,0,10.3685,-5.93683,-16.5427,Q,Q
2023-03-15 14:37:30:395,0,10.3458,-5.94495,-16.5023,Q,Q
2023-03-15 14:37:30:405,0,10.3155,-5.95089,-16.4633,Q,Q
2023-03-15 14:37:30:415,0,10.2831,-5.95442,-16.429,Q,Q
2023-03-15 14:37:30:425,0,10.2388,-5.95645,-16.4009,Q,Q
2023-03-15 14:37:30:435,0,10.1969,-5.95427,-16.3761,Q,Q
2023-03-15 14:37:30:445,0,10.1538,-5.95635,-16.3605,Q,Q
2023-03-15 14:37:30:455,0,10.1084,-5.95455,-16.3438,Q,Q
2023-03-15 14:37:30:465,0,10.0627,-5.9538,-16.3297,Q,Q
2023-03-15 14:37:30:475,0,10.0224,-5.95314,-16.3199,Q,Q
2023-03-15 14:37:30:485,0,9.98669,-5.95286,-16.3128,Q,Q
2023-03-15 14:37:30:495,0,9.95771,-5.944,-16.31,Q,Q
2023-03-15 14:37:30:505,0,9.93651,-5.93743,-16.3018,Q,Q
2023-03-15 14:37:30:515,0,9.92141,-5.92977,-16.2941,Q,Q
2023-03-15 14:37:30:525,0,9.91132,-5.92198,-16.2822,Q,Q
2023-03-15 14:37:30:535,0,9.89865,-5.91924,-16.2667,Q,Q
2023-03-15 14:37:30:545,0,9.88856,-5.9182,-16.2521,Q,Q
2023-03-15 14:37:30:555,0,9.88232,-5.92641,-16.2344,Q,Q
2023-03-15 14:37:30:565,0,9.87729,-5.93853,-16.212,Q,Q
2023-03-15 14:37:30:575,0,9.87328,-5.94918,-16.1887,Q,Q
2023-03-15 14:37:30:585,0,9.86908,-5.96443,-16.1648,Q,Q
2023-03-15 14:37:30:595,0,9.86543,-5.98166,-16.1316,Q,Q
2023-03-15 14:37:30:605,0,9.8567,-5.99491,-16.0961,Q,Q
2023-03-15 14:37:30:615,0,9.84944,-6.00379,-16.0655,Q,Q
2023-03-15 14:37:30:625,0,9.84212,-6.00999,-16.0288,Q,Q
2023-03-15 14:37:30:635,0,9.8307,-6.01335,-15.9913,Q,Q
2023-03-15 14:37:30:645,0,9.80854,-6.02105,-15.9534,Q,Q
2023-03-15 14:37:30:655,0,9.78379,-6.02349,-15.9108,Q,Q
2023-03-15 14:37:30:665,0,9.75783,-6.02856,-15.8662,Q,Q
2023-03-15 14:37:30:675,0,9.72868,-6.03821,-15.8181,Q,Q
2023-03-15 14:37:30:685,0,9.69177,-6.05278,-15.7696,Q,Q
2023-03-15 14:37:30:695,0,9.6485,-6.07561,-15.7202,Q,Q
2023-03-15 14:37:30:705,0,9.60212,-6.10118,-15.6724,Q,Q
2023-03-15 14:37:30:715,0,9.55658,-6.12426,-15.6287,Q,Q
2023-03-15 14:37:30:725,0,9.50459,-6.14768,-15.5834,Q,Q
2023-03-15 14:37:30:735,0,9.45091,-6.16916,-15.5442,Q,Q
2023-03-15 14:37:30:745,0,9.39369,-6.19226,-15.5077,Q,Q
2023-03-15 14:37:30:755,0,9.33239,-6.20898,-15.4747,Q,Q
2023-03-15 14:37:30:765,0,9.27518,-6.22978,-15.4472,Q,Q
2023-03-15 14:37:30:775,0,9.21913,-6.25041,-15.4207,Q,Q
2023-03-15 14:37:30:785,0,9.1679,-6.26704,-15.3986,Q,Q
2023-03-15 14:37:30:795,0,9.11742,-6.28171,-15.3777,Q,Q
2023-03-15 14:37:30:805,0,9.07075,-6.29717,-15.3632,Q,Q
2023-03-15 14:37:30:815,0,9.02639,-6.31223,-15.3555,Q,Q
2023-03-15 14:37:30:825,0,8.98543,-6.33173,-15.3474,Q,Q
2023-03-15 14:37:30:835,0,8.95311,-6.34139,-15.3377,Q,Q
2023-03-15 14:37:30:845,0,8.92775,-6.35097,-15.3352,Q,Q
2023-03-15 14:37:30:855,0,8.90477,-6.35899,-15.332,Q,Q
2023-03-15 14:37:30:865,0,8.88689,-6.36479,-15.3246,Q,Q
2023-03-15 14:37:30:875,0,8.87584,-6.37084,-15.3178,Q,Q
2023-03-15 14:37:30:885,0,8.86211,-6.37472,-15.3095,Q,Q
2023-03-15 14:37:30:895,0,8.84628,-6.3804,-15.2987,Q,Q
2023-03-15 14:37:30:905,0,8.83129,-6.38844,-15.2906,Q,Q
2023-03-15 14:37:30:915,0,8.8195,-6.39591,-15.2844,Q,Q
2023-03-15 14:37:30:925,0,8.80925,-6.40063,-15.2792,Q,Q
2023-03-15 14:37:30:935,0,8.80483,-6.40224,-15.278,Q,Q
2023-03-15 14:37:30:945,0,8.80872,-6.40448,-15.2735,Q,Q
2023-03-15 14:37:30:955,0,8.81449,-6.40986,-15.2662,Q,Q
2023-03-15 14:37:30:965,0,8.8201,-6.42061,-15.256,Q,Q
2023-03-15 14:37:30:975,0,8.8199,-6.43509,-15.244,Q,Q
2023-03-15 14:37:30:985,0,8.8174,-6.44882,-15.235,Q,Q
2023-03-15 14:37:30:995,0,8.81049,-6.46036,-15.2242,Q,Q
2023-03-15 14:37:31:5,0,8.8005,-6.46849,-15.2158,Q,Q
2023-03-15 14:37:31:15,0,8.78985,-6.47464,-15.2093,Q,Q
2023-03-15 14:37:31:25,0,8.77995,-6.48287,-15.2024,Q,Q
2023-03-15 14:37:31:35,0,8.76982,-6.48546,-15.1941,Q,Q
2023-03-15 14:37:31:45,0,8.75524,-6.48801,-15.184,Q,Q
2023-03-15 14:37:31:55,0,8.74168,-6.49096,-15.1757,Q,Q
2023-03-15 14:37:31:65,0,8.72943,-6.49539,-15.1721,Q,Q
2023-03-15 14:37:31:75,0,8.71761,-6.50361,-15.1631,Q,Q
2023-03-15 14:37:31:85,0,8.7045,-6.51698,-15.1557,Q,Q
2023-03-15 14:37:31:95,0,8.69049,-6.5326,-15.1462,Q,Q
2023-03-15 14:37:31:105,0,8.67604,-6.54379,-15.1371,Q,Q
2023-03-15 14:37:31:115,0,8.66194,-6.55871,-15.1305,Q,Q
2023-03-15 14:37:31:125,0,8.64494,-6.5744,-15.1237,Q,Q
2023-03-15 14:37:31:135,0,8.62324,-6.58899,-15.1093,Q,Q
2023-03-15 14:37:31:145,0,8.60298,-6.6015,-15.0991,Q,Q
2023-03-15 14:37:31:155,0,8.58087,-6.61435,-15.0875,Q,Q
2023-03-15 14:37:31:165,0,8.56163,-6.62323,-15.0783,Q,Q
2023-03-15 14:37:31:175,0,8.54378,-6.62756,-15.064,Q,Q
2023-03-15 14:37:31:185,0,8.53285,-6.62968,-15.0578,Q,Q
2023-03-15 14:37:31:195,0,8.51921,-6.63265,-15.0493,Q,Q
2023-03-15 14:37:31:205,0,8.5096,-6.63061,-15.0399,Q,Q
2023-03-15 14:37:31:215,0,8.50222,-6.6309,-15.0331,Q,Q
2023-03-15 14:37:31:225,0,8.49544,-6.63056,-15.0266,Q,Q
2023-03-15 14:37:31:235,0,8.4825,-6.63223,-15.0205,Q,Q
2023-03-15 14:37:31:245,0,8.47529,-6.62987,-15.0151,Q,Q
2023-03-15 14:37:31:255,0,8.46567,-6.62857,-15.0108,Q,Q
2023-03-15 14:37:31:265,0,8.45519,-6.62822,-15.0059,Q,Q
2023-03-15 14:37:31:275,0,8.44915,-6.62829,-15.0022,Q,Q
2023-03-15 14:37:31:285,0,8.44536,-6.62309,-14.9952,Q,Q
2023-03-15 14:37:31:295,0,8.44298,-6.6209,-14.9884,Q,Q
2023-03-15 14:37:31:305,0,8.44043,-6.61975,-14.9731,Q,Q
2023-03-15 14:37:31:315,0,8.43758,-6.62061,-14.9566,Q,Q
2023-03-15 14:37:31:325,0,8.43828,-6.62168,-14.9409,Q,Q
2023-03-15 14:37:31:335,0,8.43388,-6.62157,-14.9261,Q,Q
2023-03-15 14:37:31:345,0,8.42814,-6.61665,-14.9066,Q,Q
2023-03-15 14:37:31:355,0,8.42447,-6.61246,-14.8902,Q,Q
2023-03-15 14:37:31:365,0,8.41893,-6.60559,-14.8725,Q,Q
2023-03-15 14:37:31:375,0,8.41307,-6.60057,-14.8557,Q,Q
2023-03-15 14:37:31:385,0,8.41384,-6.59237,-14.8398,Q,Q
2023-03-15 14:37:31:395,0,8.41296,-6.58924,-14.8217,Q,Q
2023-03-15 14:37:31:405,0,8.41565,-6.58751,-14.8054,Q,Q
2023-03-15 14:37:31:415,0,8.41746,-6.58527,-14.7882,Q,Q
2023-03-15 14:37:31:425,0,8.42409,-6.58341,-14.7739,Q,Q
2023-03-15 14:37:31:435,0,8.42999,-6.58393,-14.7644,Q,Q
2023-03-15 14:37:31:445,0,8.43266,-6.58195,-14.7575,Q,Q
2023-03-15 14:37:31:455,0,8.43696,-6.58082,-14.7553,Q,Q
2023-03-15 14:37:31:465,0,8.44779,-6.5833,-14.7565,Q,Q
2023-03-15 14:37:31:475,0,8.45659,-6.58564,-14.7556,Q,Q
2023-03-15 14:37:31:485,0,8.4688,-6.59141,-14.7631,Q,Q
2023-03-15 14:37:31:495,0,8.48531,-6.59284,-14.7729,Q,Q
2023-03-15 14:37:31:505,0,8.50979,-6.59537,-14.7836,Q,Q
2023-03-15 14:37:31:515,0,8.53959,-6.59561,-14.7923,Q,Q
2023-03-15 14:37:31:525,0,8.57574,-6.60016,-14.8048,Q,Q
2023-03-15 14:37:31:535,0,8.61323,-6.59861,-14.8145,Q,Q
2023-03-15 14:37:31:545,0,8.6503,-6.59873,-14.8312,Q,Q
2023-03-15 14:37:31:555,0,8.68608,-6.58864,-14.8492,Q,Q
2023-03-15 14:37:31:565,0,8.72545,-6.57786,-14.8767,Q,Q
2023-03-15 14:37:31:575,0,8.77045,-6.55898,-14.898,Q,Q
2023-03-15 14:37:31:585,0,8.81998,-6.54003,-14.9182,Q,Q
2023-03-15 14:37:31:595,0,8.8646,-6.52613,-14.9358,Q,Q
2023-03-15 14:37:31:605,0,8.90403,-6.51398,-14.9499,Q,Q
2023-03-15 14:37:31:615,0,8.94244,-6.50734,-14.9628,Q,Q
2023-03-15 14:37:31:625,0,8.97072,-6.50597,-14.9715,Q,Q
2023-03-15 14:37:31:635,0,8.99512,-6.50508,-14.9823,Q,Q
2023-03-15 14:37:31:645,0,9.01248,-6.50106,-14.9918,Q,Q
2023-03-15 14:37:31:655,0,9.02962,-6.49684,-15.0042,Q,Q
2023-03-15 14:37:31:665,0,9.04551,-6.49283,-15.0146,Q,Q
2023-03-15 14:37:31:675,0,9.06235,-6.48948,-15.0228,Q,Q
2023-03-15 14:37:31:685,0,9.08401,-6.48257,-15.0335,Q,Q
2023-03-15 14:37:31:695,0,9.09965,-6.47334,-15.0409,Q,Q
2023-03-15 14:37:31:705,0,9.11625,-6.4666,-15.0461,Q,Q
2023-03-15 14:37:31:715,0,9.13211,-6.46599,-15.0532,Q,Q
2023-03-15 14:37:31:726,0,9.14057,-6.46507,-15.0576,Q,Q
2023-03-15 14:37:31:735,0,9.14776,-6.46462,-15.0646,Q,Q
2023-03-15 14:37:31:746,0,9.1488,-6.46402,-15.0703,Q,Q
2023-03-15 14:37:31:755,0,9.15057,-6.46495,-15.08,Q,Q
2023-03-15 14:37:31:765,0,9.16054,-6.46442,-15.0878,Q,Q
2023-03-15 14:37:31:775,0,9.16849,-6.46489,-15.1004,Q,Q
2023-03-15 14:37:31:785,0,9.18403,-6.47069,-15.1066,Q,Q
2023-03-15 14:37:31:795,0,9.19785,-6.47558,-15.1134,Q,Q
2023-03-15 14:37:31:805,0,9.21178,-6.47854,-15.1217,Q,Q
2023-03-15 14:37:31:815,0,9.22237,-6.48399,-15.1272,Q,Q
2023-03-15 14:37:31:825,0,9.23157,-6.48699,-15.1331,Q,Q
2023-03-15 14:37:31:835,0,9.23904,-6.48325,-15.1408,Q,Q
2023-03-15 14:37:31:845,0,9.2462,-6.47929,-15.1459,Q,Q
2023-03-15 14:37:31:855,0,9.25117,-6.4753,-15.1514,Q,Q
2023-03-15 14:37:31:865,0,9.25734,-6.47523,-15.1504,Q,Q
2023-03-15 14:37:31:875,0,9.26489,-6.47726,-15.1476,Q,Q
2023-03-15 14:37:31:885,0,9.27088,-6.48361,-15.1428,Q,Q
2023-03-15 14:37:31:895,0,9.27891,-6.49172,-15.1363,Q,Q
2023-03-15 14:37:31:905,0,9.2814,-6.49662,-15.1335,Q,Q
2023-03-15 14:37:31:915,0,9.27972,-6.50012,-15.1294,Q,Q
2023-03-15 14:37:31:925,0,9.28181,-6.49794,-15.1257,Q,Q
2023-03-15 14:37:31:935,0,9.27906,-6.49379,-15.1184,Q,Q
2023-03-15 14:37:31:945,0,9.27497,-6.48641,-15.1093,Q,Q
2023-03-15 14:37:31:955,0,9.26622,-6.47684,-15.096,Q,Q
2023-03-15 14:37:31:965,0,9.26038,-6.46871,-15.0837,Q,Q
2023-03-15 14:37:31:975,0,9.25561,-6.46282,-15.0727,Q,Q
2023-03-15 14:37:31:985,0,9.24895,-6.45087,-15.0579,Q,Q
2023-03-15 14:37:31:995,0,9.24415,-6.44043,-15.0407,Q,Q
2023-03-15 14:37:32:5,0,9.239,-6.43349,-15.023,Q,Q
2023-03-15 14:37:32:15,0,9.23126,-6.42697,-15.0079,Q,Q
2023-03-15 14:37:32:25,0,9.22077,-6.42004,-14.9905,Q,Q
2023-03-15 14:37:32:35,0,9.21249,-6.41506,-14.9726,Q,Q
2023-03-15 14:37:32:45,0,9.19924,-6.40844,-14.9542,Q,Q
2023-03-15 14:37:32:55,0,9.18669,-6.40015,-14.9379,Q,Q
2023-03-15 14:37:32:65,0,9.17205,-6.39452,-14.9242,Q,Q
2023-03-15 14:37:32:75,0,9.1589,-6.38659,-14.9101,Q,Q
2023-03-15 14:37:32:85,0,9.14957,-6.37902,-14.8975,Q,Q
2023-03-15 14:37:32:95,0,9.14928,-6.3702,-14.8902,Q,Q
2023-03-15 14:37:32:105,0,9.15745,-6.35977,-14.8816,Q,Q
2023-03-15 14:37:32:115,0,9.17037,-6.34418,-14.8745,Q,Q
2023-03-15 14:37:32:125,0,9.18816,-6.33038,-14.8674,Q,Q
2023-03-15 14:37:32:135,0,9.20632,-6.31711,-14.865,Q,Q
2023-03-15 14:37:32:145,0,9.22792,-6.29999,-14.8637,Q,Q
2023-03-15 14:37:32:155,0,9.24506,-6.29006,-14.8603,Q,Q
2023-03-15 14:37:32:165,0,9.25852,-6.28332,-14.8608,Q,Q
2023-03-15 14:37:32:175,0,9.27662,-6.27611,-14.8605,Q,Q
2023-03-15 14:37:32:185,0,9.28875,-6.27204,-14.8648,Q,Q
2023-03-15 14:37:32:195,0,9.29776,-6.27235,-14.8734,Q,Q
2023-03-15 14:37:32:205,0,9.31076,-6.27159,-14.881,Q,Q
2023-03-15 14:37:32:215,0,9.31653,-6.26985,-14.8917,Q,Q
2023-03-15 14:37:32:225,0,9.32585,-6.27097,-14.8999,Q,Q
2023-03-15 14:37:32:235,0,9.33308,-6.273,-14.9084,Q,Q
2023-03-15 14:37:32:245,0,9.33542,-6.27148,-14.9178,Q,Q
2023-03-15 14:37:32:255,0,9.34062,-6.27313,-14.9253,Q,Q
2023-03-15 14:37:32:265,0,9.34682,-6.2718,-14.9329,Q,Q
2023-03-15 14:37:32:275,0,9.34805,-6.26848,-14.9349,Q,Q
2023-03-15 14:37:32:285,0,9.34632,-6.26022,-14.9368,Q,Q
2023-03-15 14:37:32:295,0,9.34647,-6.25498,-14.938,Q,Q
2023-03-15 14:37:32:305,0,9.34496,-6.24967,-14.9367,Q,Q
2023-03-15 14:37:32:315,0,9.33985,-6.24732,-14.9321,Q,Q
2023-03-15 14:37:32:325,0,9.33511,-6.24096,-14.9242,Q,Q
2023-03-15 14:37:32:335,0,9.32732,-6.2383,-14.9193,Q,Q
2023-03-15 14:37:32:345,0,9.3177,-6.23761,-14.9135,Q,Q
2023-03-15 14:37:32:355,0,9.30614,-6.23552,-14.9046,Q,Q
2023-03-15 14:37:32:365,0,9.29251,-6.23803,-14.9014,Q,Q
2023-03-15 14:37:32:375,0,9.27989,-6.24135,-14.8952,Q,Q
2023-03-15 14:37:32:385,0,9.26954,-6.2452,-14.8884,Q,Q
2023-03-15 14:37:32:395,0,9.26055,-6.2477,-14.8837,Q,Q
2023-03-15 14:37:32:405,0,9.25199,-6.25019,-14.8811,Q,Q
2023-03-15 14:37:32:415,0,9.24801,-6.25309,-14.8768,Q,Q
2023-03-15 14:37:32:425,0,9.24504,-6.25653,-14.8722,Q,Q
2023-03-15 14:37:32:435,0,9.24382,-6.26408,-14.8688,Q,Q
2023-03-15 14:37:32:445,0,9.24572,-6.2655,-14.8645,Q,Q
2023-03-15 14:37:32:455,0,9.24625,-6.26424,-14.866,Q,Q
2023-03-15 14:37:32:465,0,9.24534,-6.2616,-14.8683,Q,Q
2023-03-15 14:37:32:475,0,9.24399,-6.26017,-14.8709,Q,Q
2023-03-15 14:37:32:485,0,9.24561,-6.25955,-14.8777,Q,Q
2023-03-15 14:37:32:495,0,9.24698,-6.26548,-14.8835,Q,Q
2023-03-15 14:37:32:505,0,9.2491,-6.27426,-14.8875,Q,Q
2023-03-15 14:37:32:515,0,9.25,-6.29006,-14.8907,Q,Q
2023-03-15 14:37:32:525,0,9.25097,-6.30782,-14.8939,Q,Q
2023-03-15 14:37:32:535,0,9.25294,-6.32439,-14.9024,Q,Q
2023-03-15 14:37:32:545,0,9.25783,-6.33989,-14.9137,Q,Q
2023-03-15 14:37:32:555,0,9.2613,-6.3561,-14.9307,Q,Q
2023-03-15 14:37:32:565,0,9.2714,-6.37327,-14.9526,Q,Q
2023-03-15 14:37:32:575,0,9.28701,-6.38896,-14.9815,Q,Q
2023-03-15 14:37:32:585,0,9.3095,-6.39887,-15.0188,Q,Q
2023-03-15 14:37:32:595,0,9.34244,-6.40582,-15.0666,Q,Q
2023-03-15 14:37:32:605,0,9.3863,-6.41934,-15.1231,Q,Q
2023-03-15 14:37:32:615,0,9.44047,-6.43359,-15.1963,Q,Q
2023-03-15 14:37:32:625,0,9.50158,-6.45072,-15.2841,Q,Q
2023-03-15 14:37:32:635,0,9.57728,-6.47134,-15.3893,Q,Q
2023-03-15 14:37:32:645,0,9.66464,-6.49197,-15.5144,Q,Q
2023-03-15 14:37:32:655,0,9.7598,-6.51381,-15.6642,Q,Q
2023-03-15 14:37:32:665,0,9.8644,-6.534,-15.8398,Q,Q
2023-03-15 14:37:32:675,0,9.97673,-6.55182,-16.033,Q,Q
2023-03-15 14:37:32:685,0,10.0975,-6.56567,-16.2397,Q,Q
2023-03-15 14:37:32:695,0,10.2242,-6.5878,-16.4546,Q,Q
2023-03-15 14:37:32:705,0,10.3537,-6.615,-16.6786,Q,Q
2023-03-15 14:37:32:715,0,10.4876,-6.64328,-16.9075,Q,Q
2023-03-15 14:37:32:725,0,10.6144,-6.67249,-17.1401,Q,Q
2023-03-15 14:37:32:735,0,10.741,-6.70579,-17.3726,Q,Q
2023-03-15 14:37:32:745,0,10.8629,-6.73494,-17.6018,Q,Q
2023-03-15 14:37:32:755,0,10.9712,-6.76049,-17.8259,Q,Q
2023-03-15 14:37:32:765,0,11.0667,-6.78596,-18.0468,Q,Q
2023-03-15 14:37:32:775,0,11.1514,-6.80288,-18.2651,Q,Q
2023-03-15 14:37:32:785,0,11.2269,-6.82334,-18.4822,Q,Q
2023-03-15 14:37:32:795,0,11.2938,-6.84092,-18.6904,Q,Q
2023-03-15 14:37:32:805,0,11.3486,-6.85669,-18.9003,Q,Q
2023-03-15 14:37:32:815,0,11.4008,-6.87209,-19.1062,Q,Q
2023-03-15 14:37:32:825,0,11.4454,-6.89089,-19.3097,Q,Q
2023-03-15 14:37:32:835,0,11.4903,-6.91215,-19.5122,Q,Q
2023-03-15 14:37:32:845,0,11.5298,-6.93119,-19.7141,Q,Q
2023-03-15 14:37:32:855,0,11.5711,-6.94429,-19.9123,Q,Q
2023-03-15 14:37:32:865,0,11.6084,-6.95616,-20.1052,Q,Q
2023-03-15 14:37:32:875,0,11.642,-6.96308,-20.2863,Q,Q
2023-03-15 14:37:32:885,0,11.6685,-6.97266,-20.4646,Q,Q
2023-03-15 14:37:32:895,0,11.6942,-6.98539,-20.6366,Q,Q
2023-03-15 14:37:32:905,0,11.7207,-7.00041,-20.8011,Q,Q
2023-03-15 14:37:32:915,0,11.7495,-7.02282,-20.9557,Q,Q
2023-03-15 14:37:32:925,0,11.774,-7.04378,-21.1007,Q,Q
2023-03-15 14:37:32:935,0,11.7997,-7.06459,-21.2386,Q,Q
2023-03-15 14:37:32:945,0,11.823,-7.08297,-21.3699,Q,Q
2023-03-15 14:37:32:955,0,11.8536,-7.09886,-21.4946,Q,Q
2023-03-15 14:37:32:965,0,11.8831,-7.11019,-21.6106,Q,Q
2023-03-15 14:37:32:975,0,11.9111,-7.12201,-21.7099,Q,Q
2023-03-15 14:37:32:985,0,11.9355,-7.13172,-21.7988,Q,Q
2023-03-15 14:37:32:995,0,11.9603,-7.14022,-21.8833,Q,Q
2023-03-15 14:37:33:5,0,11.9824,-7.15422,-21.9569,Q,Q
2023-03-15 14:37:33:15,0,12.0008,-7.16786,-22.0247,Q,Q
2023-03-15 14:37:33:25,0,12.0244,-7.17859,-22.0922,Q,Q
2023-03-15 14:37:33:35,0,12.0503,-7.18572,-22.1617,Q,Q
2023-03-15 14:37:33:45,0,12.0832,-7.19698,-22.2297,Q,Q
2023-03-15 14:37:33:55,0,12.1194,-7.20496,-22.2992,Q,Q
2023-03-15 14:37:33:65,0,12.1613,-7.20965,-22.3659,Q,Q
2023-03-15 14:37:33:75,0,12.2031,-7.20769,-22.431,Q,Q
2023-03-15 14:37:33:85,0,12.246,-7.20253,-22.4953,Q,Q
2023-03-15 14:37:33:95,0,12.286,-7.19555,-22.5562,Q,Q
2023-03-15 14:37:33:105,0,12.3264,-7.18545,-22.6144,Q,Q
2023-03-15 14:37:33:115,0,12.3628,-7.17442,-22.6742,Q,Q
2023-03-15 14:37:33:125,0,12.4001,-7.15803,-22.7318,Q,Q
2023-03-15 14:37:33:135,0,12.4374,-7.13665,-22.7913,Q,Q
2023-03-15 14:37:33:145,0,12.4797,-7.11217,-22.8515,Q,Q
2023-03-15 14:37:33:155,0,12.5247,-7.08139,-22.9085,Q,Q
2023-03-15 14:37:33:165,0,12.5716,-7.05222,-22.9612,Q,Q
2023-03-15 14:37:33:175,0,12.6146,-7.02131,-23.0127,Q,Q
2023-03-15 14:37:33:185,0,12.6568,-6.98959,-23.0682,Q,Q
2023-03-15 14:37:33:195,0,12.6928,-6.94924,-23.1322,Q,Q
2023-03-15 14:37:33:205,0,12.7193,-6.90288,-23.2005,Q,Q
2023-03-15 14:37:33:215,0,12.7359,-6.84368,-23.2813,Q,Q
2023-03-15 14:37:33:225,0,12.7448,-6.77964,-23.3693,Q,Q
2023-03-15 14:37:33:235,0,12.7458,-6.70413,-23.4624,Q,Q
2023-03-15 14:37:33:245,0,12.7477,-6.62571,-23.5631,Q,Q
2023-03-15 14:37:33:255,0,12.7515,-6.54479,-23.6673,Q,Q
2023-03-15 14:37:33:265,0,12.7545,-6.46089,-23.7732,Q,Q
2023-03-15 14:37:33:275,0,12.7552,-6.37729,-23.8792,Q,Q
2023-03-15 14:37:33:285,0,12.757,-6.29866,-23.982,Q,Q
2023-03-15 14:37:33:295,0,12.7584,-6.23016,-24.0793,Q,Q
2023-03-15 14:37:33:305,0,12.7584,-6.16849,-24.171,Q,Q
2023-03-15 14:37:33:315,0,12.7582,-6.11719,-24.2568,Q,Q
2023-03-15 14:37:33:325,0,12.7569,-6.06697,-24.3447,Q,Q
2023-03-15 14:37:33:335,0,12.7575,-6.01935,-24.4261,Q,Q
2023-03-15 14:37:33:345,0,12.7569,-5.97182,-24.5043,Q,Q
2023-03-15 14:37:33:355,0,12.7574,-5.92826,-24.5785,Q,Q
2023-03-15 14:37:33:365,0,12.7552,-5.88733,-24.6475,Q,Q
2023-03-15 14:37:33:375,0,12.753,-5.84734,-24.7136,Q,Q
2023-03-15 14:37:33:385,0,12.7538,-5.80605,-24.7794,Q,Q
2023-03-15 14:37:33:395,0,12.7584,-5.76574,-24.8415,Q,Q
2023-03-15 14:37:33:405,0,12.761,-5.72387,-24.9021,Q,Q
2023-03-15 14:37:33:415,0,12.756,-5.6813,-24.9655,Q,Q
2023-03-15 14:37:33:425,0,12.7596,-5.64294,-25.0249,Q,Q
2023-03-15 14:37:33:435,0,12.7668,-5.60848,-25.0763,Q,Q
2023-03-15 14:37:33:445,0,12.7714,-5.5827,-25.1193,Q,Q
2023-03-15 14:37:33:455,0,12.7827,-5.56676,-25.1555,Q,Q
2023-03-15 14:37:33:465,0,12.7929,-5.55233,-25.1853,Q,Q
2023-03-15 14:37:33:475,0,12.8011,-5.54806,-25.212,Q,Q
2023-03-15 14:37:33:485,0,12.8043,-5.54187,-25.2334,Q,Q
2023-03-15 14:37:33:495,0,12.8077,-5.53266,-25.2511,Q,Q
2023-03-15 14:37:33:505,0,12.812,-5.52563,-25.2622,Q,Q
2023-03-15 14:37:33:515,0,12.8128,-5.52343,-25.2665,Q,Q
2023-03-15 14:37:33:525,0,12.8143,-5.52223,-25.2708,Q,Q
2023-03-15 14:37:33:535,0,12.8141,-5.52445,-25.2719,Q,Q
2023-03-15 14:37:33:545,0,12.8145,-5.52571,-25.2735,Q,Q
2023-03-15 14:37:33:555,0,12.8144,-5.53203,-25.2728,Q,Q
2023-03-15 14:37:33:565,0,12.8153,-5.53912,-25.2694,Q,Q
2023-03-15 14:37:33:575,0,12.8134,-5.54639,-25.2659,Q,Q
2023-03-15 14:37:33:585,0,12.8108,-5.55422,-25.2607,Q,Q
2023-03-15 14:37:33:595,0,12.8102,-5.5621,-25.2579,Q,Q
2023-03-15 14:37:33:605,0,12.8041,-5.56806,-25.2553,Q,Q
2023-03-15 14:37:33:615,0,12.7976,-5.57688,-25.2472,Q,Q
2023-03-15 14:37:33:625,0,12.7844,-5.5859,-25.2481,Q,Q
2023-03-15 14:37:33:635,0,12.774,-5.59172,-25.2453,Q,Q
2023-03-15 14:37:33:645,0,12.7632,-5.59594,-25.2445,Q,Q
2023-03-15 14:37:33:655,0,12.7503,-5.59666,-25.2376,Q,Q
2023-03-15 14:37:33:665,0,12.733,-5.59664,-25.2306,Q,Q
2023-03-15 14:37:33:675,0,12.7122,-5.59316,-25.2179,Q,Q
2023-03-15 14:37:33:685,0,12.6877,-5.59056,-25.2112,Q,Q
2023-03-15 14:37:33:695,0,12.6635,-5.58351,-25.2059,Q,Q
2023-03-15 14:37:33:705,0,12.6436,-5.57615,-25.1937,Q,Q
2023-03-15 14:37:33:715,0,12.6194,-5.5758,-25.177,Q,Q
2023-03-15 14:37:33:725,0,12.5963,-5.57833,-25.1629,Q,Q
2023-03-15 14:37:33:735,0,12.5786,-5.58165,-25.1474,Q,Q
2023-03-15 14:37:33:745,0,12.5627,-5.58426,-25.1376,Q,Q
2023-03-15 14:37:33:755,0,12.5469,-5.58588,-25.1327,Q,Q
2023-03-15 14:37:33:765,0,12.528,-5.58532,-25.1278,Q,Q
2023-03-15 14:37:33:775,0,12.51,-5.58516,-25.1238,Q,Q
2023-03-15 14:37:33:785,0,12.4892,-5.58308,-25.1267,Q,Q
2023-03-15 14:37:33:795,0,12.4635,-5.5791,-25.1305,Q,Q
2023-03-15 14:37:33:805,0,12.4361,-5.576,-25.1357,Q,Q
2023-03-15 14:37:33:815,0,12.4071,-5.57302,-25.145,Q,Q
2023-03-15 14:37:33:825,0,12.382,-5.57177,-25.1589,Q,Q
2023-03-15 14:37:33:835,0,12.3595,-5.57308,-25.1741,Q,Q
2023-03-15 14:37:33:845,0,12.345,-5.57447,-25.1924,Q,Q
2023-03-15 14:37:33:855,0,12.3326,-5.57933,-25.2083,Q,Q
2023-03-15 14:37:33:865,0,12.3255,-5.58713,-25.2238,Q,Q
2023-03-15 14:37:33:875,0,12.3276,-5.59373,-25.243,Q,Q
2023-03-15 14:37:33:885,0,12.3285,-5.6031,-25.2577,Q,Q
2023-03-15 14:37:33:895,0,12.3328,-5.60622,-25.2685,Q,Q
2023-03-15 14:37:33:905,0,12.3409,-5.61244,-25.2702,Q,Q
2023-03-15 14:37:33:915,0,12.3526,-5.61463,-25.2709,Q,Q
2023-03-15 14:37:33:925,0,12.3654,-5.61384,-25.2653,Q,Q
2023-03-15 14:37:33:935,0,12.3748,-5.60872,-25.2541,Q,Q
2023-03-15 14:37:33:945,0,12.3842,-5.60154,-25.2361,Q,Q
2023-03-15 14:37:33:955,0,12.3983,-5.59389,-25.2171,Q,Q
2023-03-15 14:37:33:965,0,12.4174,-5.58907,-25.1953,Q,Q
2023-03-15 14:37:33:975,0,12.4385,-5.58531,-25.1686,Q,Q
2023-03-15 14:37:33:985,0,12.4687,-5.59068,-25.138,Q,Q
2023-03-15 14:37:33:995,0,12.4974,-5.60741,-25.1113,Q,Q
2023-03-15 14:37:34:5,0,12.5355,-5.63439,-25.0837,Q,Q
2023-03-15 14:37:34:15,0,12.5691,-5.66431,-25.0591,Q,Q
2023-03-15 14:37:34:25,0,12.5869,-5.69591,-25.0368,Q,Q
2023-03-15 14:37:34:35,0,12.5865,-5.73368,-25.0142,Q,Q
2023-03-15 14:37:34:45,0,12.5752,-5.77158,-25.0011,Q,Q
2023-03-15 14:37:34:55,0,12.5579,-5.80575,-24.9939,Q,Q
2023-03-15 14:37:34:65,0,12.5439,-5.83341,-24.9967,Q,Q
2023-03-15 14:37:34:75,0,12.5327,-5.86199,-24.998,Q,Q
2023-03-15 14:37:34:85,0,12.5324,-5.8865,-25.0009,Q,Q
2023-03-15 14:37:34:95,0,12.5436,-5.91236,-25.0039,Q,Q
2023-03-15 14:37:34:105,0,12.5614,-5.93863,-25.0151,Q,Q
2023-03-15 14:37:34:115,0,12.5724,-5.95674,-25.0264,Q,Q
2023-03-15 14:37:34:125,0,12.5803,-5.96725,-25.0421,Q,Q
2023-03-15 14:37:34:135,0,12.5762,-5.97172,-25.0618,Q,Q
2023-03-15 14:37:34:145,0,12.5625,-5.97125,-25.0838,Q,Q
2023-03-15 14:37:34:155,0,12.5299,-5.96473,-25.1081,Q,Q
2023-03-15 14:37:34:165,0,12.4856,-5.95539,-25.1324,Q,Q
2023-03-15 14:37:34:175,0,12.4251,-5.94867,-25.1587,Q,Q
2023-03-15 14:37:34:185,0,12.3522,-5.94149,-25.1884,Q,Q
2023-03-15 14:37:34:195,0,12.2765,-5.93146,-25.2159,Q,Q
2023-03-15 14:37:34:205,0,12.1967,-5.92216,-25.2444,Q,Q
2023-03-15 14:37:34:215,0,12.1189,-5.91433,-25.2716,Q,Q
2023-03-15 14:37:34:225,0,12.045,-5.90877,-25.2894,Q,Q
2023-03-15 14:37:34:235,0,11.979,-5.90031,-25.3061,Q,Q
2023-03-15 14:37:34:245,0,11.9227,-5.89326,-25.3146,Q,Q
2023-03-15 14:37:34:255,0,11.868,-5.88123,-25.3121,Q,Q
2023-03-15 14:37:34:265,0,11.8138,-5.87123,-25.3059,Q,Q
2023-03-15 14:37:34:275,0,11.7555,-5.86391,-25.2981,Q,Q
2023-03-15 14:37:34:285,0,11.6884,-5.85074,-25.2898,Q,Q
2023-03-15 14:37:34:295,0,11.6136,-5.83757,-25.2869,Q,Q
2023-03-15 14:37:34:305,0,11.5309,-5.82195,-25.2854,Q,Q
2023-03-15 14:37:34:315,0,11.4468,-5.80756,-25.2915,Q,Q
2023-03-15 14:37:34:325,0,11.3605,-5.79125,-25.302,Q,Q
2023-03-15 14:37:34:335,0,11.2779,-5.77013,-25.3111,Q,Q
2023-03-15 14:37:34:345,0,11.2006,-5.75559,-25.321,Q,Q
2023-03-15 14:37:34:355,0,11.1308,-5.74979,-25.3328,Q,Q
2023-03-15 14:37:34:365,0,11.0709,-5.74378,-25.3448,Q,Q
2023-03-15 14:37:34:375,0,11.0104,-5.73816,-25.3502,Q,Q
2023-03-15 14:37:34:385,0,10.9474,-5.73662,-25.3593,Q,Q
2023-03-15 14:37:34:395,0,10.8773,-5.73795,-25.3674,Q,Q
2023-03-15 14:37:34:405,0,10.7987,-5.73927,-25.373,Q,Q
2023-03-15 14:37:34:415,0,10.712,-5.73737,-25.3736,Q,Q
2023-03-15 14:37:34:425,0,10.6207,-5.74476,-25.3714,Q,Q
2023-03-15 14:37:34:435,0,10.5292,-5.75174,-25.3694,Q,Q
2023-03-15 14:37:34:445,0,10.4397,-5.76645,-25.3666,Q,Q
2023-03-15 14:37:34:455,0,10.3551,-5.78229,-25.3662,Q,Q
2023-03-15 14:37:34:465,0,10.2748,-5.79728,-25.3668,Q,Q
2023-03-15 14:37:34:475,0,10.1907,-5.81387,-25.3703,Q,Q
2023-03-15 14:37:34:485,0,10.1055,-5.8301,-25.372,Q,Q
2023-03-15 14:37:34:495,0,10.014,-5.8424,-25.3748,Q,Q
2023-03-15 14:37:34:505,0,9.91497,-5.85235,-25.3752,Q,Q
2023-03-15 14:37:34:515,0,9.80826,-5.85362,-25.3732,Q,Q
2023-03-15 14:37:34:525,0,9.70215,-5.85499,-25.3682,Q,Q
2023-03-15 14:37:34:535,0,9.59539,-5.86007,-25.3591,Q,Q
2023-03-15 14:37:34:545,0,9.49355,-5.86062,-25.3501,Q,Q
2023-03-15 14:37:34:555,0,9.39754,-5.86695,-25.3356,Q,Q
2023-03-15 14:37:34:565,0,9.3027,-5.88009,-25.3162,Q,Q
2023-03-15 14:37:34:575,0,9.20349,-5.89457,-25.2956,Q,Q
2023-03-15 14:37:34:585,0,9.09727,-5.91187,-25.2858,Q,Q
2023-03-15 14:37:34:595,0,8.98284,-5.93255,-25.2765,Q,Q
2023-03-15 14:37:34:605,0,8.87036,-5.95021,-25.2758,Q,Q
2023-03-15 14:37:34:615,0,8.75242,-5.97309,-25.2774,Q,Q
2023-03-15 14:37:34:625,0,8.63595,-6.00249,-25.2875,Q,Q
2023-03-15 14:37:34:635,0,8.51504,-6.0296,-25.3076,Q,Q
2023-03-15 14:37:34:645,0,8.38854,-6.06173,-25.3328,Q,Q
2023-03-15 14:37:34:655,0,8.25504,-6.09503,-25.3607,Q,Q
2023-03-15 14:37:34:665,0,8.11931,-6.12387,-25.396,Q,Q
2023-03-15 14:37:34:675,0,7.98111,-6.14865,-25.4326,Q,Q
2023-03-15 14:37:34:685,0,7.8467,-6.166,-25.4646,Q,Q
2023-03-15 14:37:34:695,0,7.72084,-6.18329,-25.497,Q,Q
2023-03-15 14:37:34:705,0,7.60102,-6.19093,-25.5287,Q,Q
2023-03-15 14:37:34:715,0,7.49269,-6.19701,-25.564,Q,Q
2023-03-15 14:37:34:725,0,7.39831,-6.19965,-25.604,Q,Q
2023-03-15 14:37:34:735,0,7.3214,-6.19593,-25.6447,Q,Q
2023-03-15 14:37:34:745,0,7.252,-6.19249,-25.6851,Q,Q
2023-03-15 14:37:34:755,0,7.19569,-6.1843,-25.7232,Q,Q
2023-03-15 14:37:34:765,0,7.14797,-6.18249,-25.7588,Q,Q
2023-03-15 14:37:34:775,0,7.10798,-6.18725,-25.7878,Q,Q
2023-03-15 14:37:34:785,0,7.08125,-6.20636,-25.8098,Q,Q
2023-03-15 14:37:34:795,0,7.0612,-6.22686,-25.8232,Q,Q
2023-03-15 14:37:34:805,0,7.04375,-6.24934,-25.8342,Q,Q
2023-03-15 14:37:34:815,0,7.02073,-6.27341,-25.8349,Q,Q
2023-03-15 14:37:34:825,0,6.99177,-6.28863,-25.8301,Q,Q
2023-03-15 14:37:34:835,0,6.95838,-6.30017,-25.821,Q,Q
2023-03-15 14:37:34:845,0,6.9201,-6.30018,-25.8132,Q,Q
2023-03-15 14:37:34:855,0,6.88472,-6.2912,-25.8023,Q,Q
2023-03-15 14:37:34:865,0,6.86002,-6.27804,-25.7931,Q,Q
2023-03-15 14:37:34:875,0,6.85316,-6.26093,-25.7797,Q,Q
2023-03-15 14:37:34:885,0,6.85986,-6.24397,-25.7634,Q,Q
2023-03-15 14:37:34:895,0,6.88533,-6.22502,-25.7421,Q,Q
2023-03-15 14:37:34:905,0,6.91715,-6.20785,-25.7094,Q,Q
2023-03-15 14:37:34:915,0,6.95291,-6.1921,-25.6725,Q,Q
2023-03-15 14:37:34:925,0,6.98987,-6.17712,-25.6234,Q,Q
2023-03-15 14:37:34:935,0,7.01935,-6.16263,-25.5679,Q,Q
2023-03-15 14:37:34:945,0,7.04591,-6.15,-25.5002,Q,Q
2023-03-15 14:37:34:955,0,7.07201,-6.13719,-25.4249,Q,Q
2023-03-15 14:37:34:965,0,7.09957,-6.13495,-25.3544,Q,Q
2023-03-15 14:37:34:975,0,7.13097,-6.12512,-25.2828,Q,Q
2023-03-15 14:37:34:985,0,7.17052,-6.11013,-25.1952,Q,Q
2023-03-15 14:37:34:995,0,7.20702,-6.09855,-25.1079,Q,Q
2023-03-15 14:37:35:5,0,7.25517,-6.0869,-25.018,Q,Q
2023-03-15 14:37:35:15,0,7.30862,-6.07471,-24.9283,Q,Q
2023-03-15 14:37:35:25,0,7.37926,-6.06755,-24.8366,Q,Q
2023-03-15 14:37:35:35,0,7.46606,-6.06034,-24.7538,Q,Q
2023-03-15 14:37:35:45,0,7.58776,-6.05989,-24.6707,Q,Q
2023-03-15 14:37:35:55,0,7.73228,-6.07196,-24.5815,Q,Q
2023-03-15 14:37:35:65,0,7.89499,-6.08976,-24.4884,Q,Q
2023-03-15 14:37:35:75,0,8.05852,-6.11426,-24.3897,Q,Q
2023-03-15 14:37:35:85,0,8.20662,-6.14687,-24.2945,Q,Q
2023-03-15 14:37:35:95,0,8.34386,-6.18991,-24.2011,Q,Q
2023-03-15 14:37:35:105,0,8.4605,-6.22732,-24.1177,Q,Q
2023-03-15 14:37:35:115,0,8.57037,-6.2636,-24.041,Q,Q
2023-03-15 14:37:35:125,0,8.6793,-6.29786,-23.9665,Q,Q
2023-03-15 14:37:35:135,0,8.79432,-6.32871,-23.8977,Q,Q
2023-03-15 14:37:35:145,0,8.9167,-6.3633,-23.8273,Q,Q
2023-03-15 14:37:35:155,0,9.03735,-6.39598,-23.7596,Q,Q
2023-03-15 14:37:35:165,0,9.15559,-6.43226,-23.6904,Q,Q
2023-03-15 14:37:35:175,0,9.27091,-6.46804,-23.624,Q,Q
2023-03-15 14:37:35:185,0,9.38176,-6.50518,-23.565,Q,Q
