Timestamp_cmd,imu_cmd,roll_delta,pitch_delta,yaw_delta,voice_type,voice_length
2023-03-15 12:02:44:641,0,0.836451,-8.1385,-10.3365,Q,Q
2023-03-15 12:02:44:649,0,0.817965,-8.1351,-10.3294,Q,Q
2023-03-15 12:02:44:659,0,0.797503,-8.13012,-10.3283,Q,Q
2023-03-15 12:02:44:669,0,0.780267,-8.1262,-10.3313,Q,Q
2023-03-15 12:02:44:679,0,0.766289,-8.11915,-10.3388,Q,Q
2023-03-15 12:02:44:689,0,0.746503,-8.11473,-10.3458,Q,Q
2023-03-15 12:02:44:699,0,0.729201,-8.10807,-10.354,Q,Q
2023-03-15 12:02:44:709,0,0.711125,-8.10356,-10.3649,Q,Q
2023-03-15 12:02:44:719,0,0.696317,-8.09797,-10.3784,Q,Q
2023-03-15 12:02:44:729,0,0.681395,-8.08947,-10.3879,Q,Q
2023-03-15 12:02:44:740,0,0.671818,-8.08056,-10.3926,Q,Q
2023-03-15 12:02:44:749,0,0.669886,-8.07045,-10.3995,Q,Q
2023-03-15 12:02:44:759,0,0.667508,-8.05808,-10.404,Q,Q
2023-03-15 12:02:44:769,0,0.666762,-8.04282,-10.4083,Q,Q
2023-03-15 12:02:44:780,0,0.663034,-8.02426,-10.4121,Q,Q
2023-03-15 12:02:44:789,0,0.649301,-8.00715,-10.4157,Q,Q
2023-03-15 12:02:44:799,0,0.632889,-7.99009,-10.423,Q,Q
2023-03-15 12:02:44:809,0,0.613993,-7.97128,-10.4321,Q,Q
2023-03-15 12:02:44:819,0,0.59909,-7.95346,-10.4476,Q,Q
2023-03-15 12:02:44:830,0,0.578607,-7.9368,-10.4657,Q,Q
2023-03-15 12:02:44:840,0,0.561088,-7.92238,-10.4891,Q,Q
2023-03-15 12:02:44:850,0,0.544527,-7.90434,-10.5112,Q,Q
2023-03-15 12:02:44:860,0,0.526619,-7.89088,-10.5348,Q,Q
2023-03-15 12:02:44:870,0,0.508101,-7.87554,-10.5606,Q,Q
2023-03-15 12:02:44:879,0,0.492422,-7.86282,-10.5838,Q,Q
2023-03-15 12:02:44:890,0,0.482442,-7.84414,-10.6112,Q,Q
2023-03-15 12:02:44:900,0,0.475495,-7.82798,-10.6323,Q,Q
2023-03-15 12:02:44:910,0,0.480349,-7.80966,-10.6511,Q,Q
2023-03-15 12:02:44:919,0,0.496381,-7.79119,-10.6647,Q,Q
2023-03-15 12:02:44:929,0,0.522244,-7.77331,-10.6708,Q,Q
2023-03-15 12:02:44:940,0,0.548367,-7.7595,-10.6641,Q,Q
2023-03-15 12:02:44:950,0,0.564805,-7.7402,-10.6532,Q,Q
2023-03-15 12:02:44:959,0,0.570288,-7.71822,-10.6463,Q,Q
2023-03-15 12:02:44:970,0,0.554084,-7.69163,-10.64,Q,Q
2023-03-15 12:02:44:980,0,0.511717,-7.6665,-10.6417,Q,Q
2023-03-15 12:02:44:990,0,0.461324,-7.64558,-10.649,Q,Q
2023-03-15 12:02:45:0,0,0.407231,-7.62731,-10.6659,Q,Q
2023-03-15 12:02:45:9,0,0.358476,-7.61727,-10.6898,Q,Q
2023-03-15 12:02:45:19,0,0.320734,-7.61461,-10.717,Q,Q
2023-03-15 12:02:45:29,0,0.297306,-7.61494,-10.7462,Q,Q
2023-03-15 12:02:45:39,0,0.277386,-7.61847,-10.773,Q,Q
2023-03-15 12:02:45:49,0,0.263998,-7.62036,-10.7985,Q,Q
2023-03-15 12:02:45:59,0,0.25652,-7.62186,-10.8222,Q,Q
2023-03-15 12:02:45:69,0,0.252775,-7.62348,-10.841,Q,Q
2023-03-15 12:02:45:79,0,0.253494,-7.62185,-10.86,Q,Q
2023-03-15 12:02:45:89,0,0.252207,-7.6201,-10.87,Q,Q
2023-03-15 12:02:45:99,0,0.245537,-7.62274,-10.878,Q,Q
2023-03-15 12:02:45:109,0,0.233112,-7.62505,-10.8872,Q,Q
2023-03-15 12:02:45:119,0,0.219524,-7.62957,-10.8976,Q,Q
2023-03-15 12:02:45:129,0,0.205661,-7.63602,-10.9078,Q,Q
2023-03-15 12:02:45:139,0,0.191328,-7.64088,-10.9205,Q,Q
2023-03-15 12:02:45:149,0,0.183263,-7.64639,-10.9346,Q,Q
2023-03-15 12:02:45:159,0,0.178478,-7.6559,-10.9539,Q,Q
2023-03-15 12:02:45:169,0,0.172204,-7.66138,-10.9755,Q,Q
2023-03-15 12:02:45:179,0,0.164573,-7.66669,-10.995,Q,Q
2023-03-15 12:02:45:189,0,0.157914,-7.67442,-11.0137,Q,Q
2023-03-15 12:02:45:199,0,0.154755,-7.68674,-11.0307,Q,Q
2023-03-15 12:02:45:209,0,0.153205,-7.69904,-11.0457,Q,Q
2023-03-15 12:02:45:219,0,0.150615,-7.70941,-11.0635,Q,Q
2023-03-15 12:02:45:229,0,0.146583,-7.71432,-11.0801,Q,Q
2023-03-15 12:02:45:239,0,0.141495,-7.71821,-11.092,Q,Q
2023-03-15 12:02:45:249,0,0.135817,-7.72072,-11.1059,Q,Q
2023-03-15 12:02:45:259,0,0.142031,-7.72056,-11.1184,Q,Q
2023-03-15 12:02:45:269,0,0.158692,-7.71786,-11.1287,Q,Q
2023-03-15 12:02:45:279,0,0.186758,-7.72028,-11.138,Q,Q
2023-03-15 12:02:45:289,0,0.221264,-7.72128,-11.1412,Q,Q
2023-03-15 12:02:45:299,0,0.251738,-7.7167,-11.1375,Q,Q
2023-03-15 12:02:45:309,0,0.277087,-7.71286,-11.131,Q,Q
2023-03-15 12:02:45:319,0,0.30085,-7.71147,-11.1215,Q,Q
2023-03-15 12:02:45:329,0,0.322441,-7.71746,-11.1141,Q,Q
2023-03-15 12:02:45:339,0,0.343552,-7.72494,-11.1047,Q,Q
2023-03-15 12:02:45:349,0,0.357502,-7.73192,-11.0941,Q,Q
2023-03-15 12:02:45:359,0,0.367169,-7.74205,-11.0862,Q,Q
2023-03-15 12:02:45:369,0,0.364454,-7.75618,-11.0802,Q,Q
2023-03-15 12:02:45:379,0,0.352241,-7.76597,-11.0761,Q,Q
2023-03-15 12:02:45:389,0,0.332274,-7.77655,-11.0838,Q,Q
2023-03-15 12:02:45:399,0,0.305025,-7.7861,-11.0938,Q,Q
2023-03-15 12:02:45:409,0,0.273629,-7.79538,-11.1053,Q,Q
2023-03-15 12:02:45:419,0,0.238903,-7.79934,-11.128,Q,Q
2023-03-15 12:02:45:429,0,0.203547,-7.80436,-11.1508,Q,Q
2023-03-15 12:02:45:439,0,0.177622,-7.81008,-11.1811,Q,Q
2023-03-15 12:02:45:449,0,0.157191,-7.8119,-11.2113,Q,Q
2023-03-15 12:02:45:459,0,0.139117,-7.81429,-11.2382,Q,Q
2023-03-15 12:02:45:469,0,0.123869,-7.80998,-11.2613,Q,Q
2023-03-15 12:02:45:479,0,0.112543,-7.80112,-11.2861,Q,Q
2023-03-15 12:02:45:489,0,0.102518,-7.79307,-11.3097,Q,Q
2023-03-15 12:02:45:499,0,0.0975074,-7.79107,-11.3295,Q,Q
2023-03-15 12:02:45:509,0,0.101267,-7.78587,-11.3487,Q,Q
2023-03-15 12:02:45:519,0,0.109388,-7.7808,-11.3602,Q,Q
2023-03-15 12:02:45:529,0,0.124343,-7.77688,-11.3725,Q,Q
2023-03-15 12:02:45:539,0,0.149872,-7.76822,-11.3818,Q,Q
2023-03-15 12:02:45:549,0,0.181959,-7.75523,-11.3806,Q,Q
2023-03-15 12:02:45:559,0,0.21573,-7.74024,-11.3721,Q,Q
2023-03-15 12:02:45:569,0,0.250205,-7.72233,-11.3545,Q,Q
2023-03-15 12:02:45:579,0,0.27639,-7.70596,-11.3289,Q,Q
2023-03-15 12:02:45:589,0,0.286649,-7.69218,-11.2974,Q,Q
2023-03-15 12:02:45:599,0,0.288578,-7.68309,-11.2652,Q,Q
2023-03-15 12:02:45:609,0,0.282988,-7.67576,-11.2362,Q,Q
2023-03-15 12:02:45:619,0,0.277147,-7.67087,-11.2128,Q,Q
2023-03-15 12:02:45:629,0,0.266573,-7.67025,-11.1922,Q,Q
2023-03-15 12:02:45:639,0,0.253631,-7.66756,-11.1772,Q,Q
2023-03-15 12:02:45:649,0,0.242628,-7.66559,-11.1658,Q,Q
2023-03-15 12:02:45:659,0,0.224808,-7.66272,-11.1589,Q,Q
2023-03-15 12:02:45:669,0,0.213599,-7.66095,-11.1579,Q,Q
2023-03-15 12:02:45:679,0,0.203902,-7.65443,-11.1577,Q,Q
2023-03-15 12:02:45:689,0,0.20349,-7.65135,-11.1573,Q,Q
2023-03-15 12:02:45:699,0,0.204075,-7.64658,-11.1601,Q,Q
2023-03-15 12:02:45:709,0,0.205964,-7.64341,-11.1667,Q,Q
2023-03-15 12:02:45:719,0,0.206382,-7.63894,-11.1748,Q,Q
2023-03-15 12:02:45:729,0,0.203409,-7.63206,-11.178,Q,Q
2023-03-15 12:02:45:739,0,0.198985,-7.63129,-11.1843,Q,Q
2023-03-15 12:02:45:749,0,0.197897,-7.62775,-11.1895,Q,Q
2023-03-15 12:02:45:759,0,0.195499,-7.62211,-11.1935,Q,Q
2023-03-15 12:02:45:769,0,0.192562,-7.61834,-11.2001,Q,Q
2023-03-15 12:02:45:779,0,0.190055,-7.61494,-11.2045,Q,Q
2023-03-15 12:02:45:789,0,0.188767,-7.61026,-11.2098,Q,Q
2023-03-15 12:02:45:799,0,0.18303,-7.60254,-11.2179,Q,Q
2023-03-15 12:02:45:809,0,0.170826,-7.59673,-11.2307,Q,Q
2023-03-15 12:02:45:819,0,0.154056,-7.58869,-11.2441,Q,Q
2023-03-15 12:02:45:829,0,0.133811,-7.58107,-11.257,Q,Q
2023-03-15 12:02:45:839,0,0.114196,-7.57133,-11.2759,Q,Q
2023-03-15 12:02:45:849,0,0.0967074,-7.56455,-11.2952,Q,Q
2023-03-15 12:02:45:859,0,0.0801782,-7.55737,-11.3193,Q,Q
2023-03-15 12:02:45:869,0,0.0669023,-7.54915,-11.3448,Q,Q
2023-03-15 12:02:45:879,0,0.0503798,-7.53718,-11.3739,Q,Q
2023-03-15 12:02:45:889,0,0.0360929,-7.52228,-11.4055,Q,Q
2023-03-15 12:02:45:899,0,0.0237431,-7.50468,-11.438,Q,Q
2023-03-15 12:02:45:909,0,0.0164651,-7.48289,-11.4717,Q,Q
2023-03-15 12:02:45:919,0,0.0120753,-7.46197,-11.5038,Q,Q
2023-03-15 12:02:45:929,0,0.0113215,-7.44018,-11.5355,Q,Q
2023-03-15 12:02:45:939,0,0.0144029,-7.41853,-11.5643,Q,Q
2023-03-15 12:02:45:949,0,0.0159628,-7.40375,-11.5923,Q,Q
2023-03-15 12:02:45:959,0,0.016243,-7.38548,-11.6187,Q,Q
2023-03-15 12:02:45:969,0,0.0111398,-7.36509,-11.6484,Q,Q
2023-03-15 12:02:45:979,0,0.00538547,-7.34304,-11.6768,Q,Q
2023-03-15 12:02:45:989,0,-0.00231573,-7.32143,-11.7033,Q,Q
2023-03-15 12:02:45:999,0,-0.00680042,-7.29715,-11.7267,Q,Q
2023-03-15 12:02:46:9,0,-0.00484151,-7.27392,-11.7512,Q,Q
2023-03-15 12:02:46:19,0,-0.0101685,-7.25535,-11.7711,Q,Q
2023-03-15 12:02:46:29,0,-0.0192539,-7.23853,-11.7887,Q,Q
2023-03-15 12:02:46:39,0,-0.031436,-7.22485,-11.8092,Q,Q
2023-03-15 12:02:46:49,0,-0.0481092,-7.21269,-11.8291,Q,Q
2023-03-15 12:02:46:59,0,-0.0655651,-7.19969,-11.8518,Q,Q
2023-03-15 12:02:46:69,0,-0.0841276,-7.18766,-11.8783,Q,Q
2023-03-15 12:02:46:79,0,-0.104344,-7.17369,-11.9042,Q,Q
2023-03-15 12:02:46:89,0,-0.123285,-7.1631,-11.929,Q,Q
2023-03-15 12:02:46:99,0,-0.142412,-7.15409,-11.9549,Q,Q
2023-03-15 12:02:46:109,0,-0.16251,-7.14526,-11.9874,Q,Q
2023-03-15 12:02:46:119,0,-0.180279,-7.13261,-12.0215,Q,Q
2023-03-15 12:02:46:129,0,-0.187197,-7.12063,-12.0564,Q,Q
2023-03-15 12:02:46:139,0,-0.189118,-7.10587,-12.0892,Q,Q
2023-03-15 12:02:46:149,0,-0.190278,-7.09499,-12.1151,Q,Q
2023-03-15 12:02:46:159,0,-0.194521,-7.0881,-12.1382,Q,Q
2023-03-15 12:02:46:169,0,-0.199486,-7.07972,-12.1627,Q,Q
2023-03-15 12:02:46:179,0,-0.208582,-7.06727,-12.1855,Q,Q
2023-03-15 12:02:46:189,0,-0.214378,-7.05006,-12.2112,Q,Q
2023-03-15 12:02:46:199,0,-0.217128,-7.03216,-12.2378,Q,Q
2023-03-15 12:02:46:209,0,-0.214547,-7.01926,-12.259,Q,Q
2023-03-15 12:02:46:219,0,-0.208342,-7.0099,-12.2775,Q,Q
2023-03-15 12:02:46:229,0,-0.20874,-6.99759,-12.2906,Q,Q
2023-03-15 12:02:46:239,0,-0.210231,-6.98593,-12.3056,Q,Q
2023-03-15 12:02:46:249,0,-0.21821,-6.97185,-12.3181,Q,Q
2023-03-15 12:02:46:259,0,-0.224833,-6.95674,-12.3296,Q,Q
2023-03-15 12:02:46:269,0,-0.239442,-6.9458,-12.341,Q,Q
2023-03-15 12:02:46:279,0,-0.257999,-6.93377,-12.3532,Q,Q
2023-03-15 12:02:46:289,0,-0.276289,-6.92409,-12.3646,Q,Q
2023-03-15 12:02:46:299,0,-0.29776,-6.92241,-12.3785,Q,Q
2023-03-15 12:02:46:309,0,-0.318738,-6.93102,-12.3935,Q,Q
2023-03-15 12:02:46:319,0,-0.338787,-6.94709,-12.4119,Q,Q
2023-03-15 12:02:46:329,0,-0.36021,-6.9611,-12.4262,Q,Q
2023-03-15 12:02:46:339,0,-0.380495,-6.97434,-12.4448,Q,Q
2023-03-15 12:02:46:349,0,-0.399399,-6.98813,-12.4624,Q,Q
2023-03-15 12:02:46:359,0,-0.424595,-7.00027,-12.48,Q,Q
2023-03-15 12:02:46:369,0,-0.449205,-7.01329,-12.4955,Q,Q
2023-03-15 12:02:46:379,0,-0.475412,-7.03004,-12.5023,Q,Q
2023-03-15 12:02:46:389,0,-0.500982,-7.0432,-12.5136,Q,Q
2023-03-15 12:02:46:399,0,-0.520061,-7.05569,-12.5204,Q,Q
2023-03-15 12:02:46:409,0,-0.536273,-7.06684,-12.5236,Q,Q
2023-03-15 12:02:46:419,0,-0.545297,-7.07732,-12.5272,Q,Q
2023-03-15 12:02:46:429,0,-0.545973,-7.08491,-12.5276,Q,Q
2023-03-15 12:02:46:439,0,-0.54173,-7.09548,-12.5229,Q,Q
2023-03-15 12:02:46:449,0,-0.533771,-7.10715,-12.5192,Q,Q
2023-03-15 12:02:46:459,0,-0.523396,-7.11721,-12.5169,Q,Q
2023-03-15 12:02:46:469,0,-0.512382,-7.12012,-12.5185,Q,Q
2023-03-15 12:02:46:479,0,-0.507117,-7.12216,-12.5189,Q,Q
2023-03-15 12:02:46:489,0,-0.505836,-7.12634,-12.5222,Q,Q
2023-03-15 12:02:46:499,0,-0.505857,-7.12419,-12.5291,Q,Q
2023-03-15 12:02:46:509,0,-0.504096,-7.12111,-12.537,Q,Q
2023-03-15 12:02:46:519,0,-0.504154,-7.11451,-12.5457,Q,Q
2023-03-15 12:02:46:529,0,-0.501539,-7.11101,-12.5615,Q,Q
2023-03-15 12:02:46:539,0,-0.494806,-7.10206,-12.576,Q,Q
2023-03-15 12:02:46:549,0,-0.489869,-7.09609,-12.5951,Q,Q
2023-03-15 12:02:46:559,0,-0.485074,-7.08447,-12.6158,Q,Q
2023-03-15 12:02:46:569,0,-0.483973,-7.07562,-12.6345,Q,Q
2023-03-15 12:02:46:579,0,-0.48318,-7.06328,-12.6597,Q,Q
2023-03-15 12:02:46:589,0,-0.485332,-7.05032,-12.6828,Q,Q
2023-03-15 12:02:46:599,0,-0.483027,-7.03403,-12.7025,Q,Q
2023-03-15 12:02:46:609,0,-0.486791,-7.02134,-12.724,Q,Q
2023-03-15 12:02:46:619,0,-0.497244,-7.00491,-12.7446,Q,Q
2023-03-15 12:02:46:629,0,-0.5051,-6.9909,-12.7642,Q,Q
2023-03-15 12:02:46:639,0,-0.51634,-6.98121,-12.7796,Q,Q
2023-03-15 12:02:46:649,0,-0.528288,-6.97176,-12.7959,Q,Q
2023-03-15 12:02:46:660,0,-0.53507,-6.96943,-12.8089,Q,Q
2023-03-15 12:02:46:669,0,-0.54107,-6.96983,-12.8165,Q,Q
2023-03-15 12:02:46:679,0,-0.54089,-6.97596,-12.8221,Q,Q
2023-03-15 12:02:46:689,0,-0.534326,-6.9895,-12.8262,Q,Q
2023-03-15 12:02:46:699,0,-0.524781,-7.00338,-12.8273,Q,Q
2023-03-15 12:02:46:709,0,-0.513509,-7.01391,-12.8288,Q,Q
2023-03-15 12:02:46:719,0,-0.50789,-7.02261,-12.8273,Q,Q
2023-03-15 12:02:46:729,0,-0.504694,-7.03239,-12.8231,Q,Q
2023-03-15 12:02:46:739,0,-0.502581,-7.04044,-12.8172,Q,Q
2023-03-15 12:02:46:749,0,-0.49428,-7.05357,-12.8142,Q,Q
2023-03-15 12:02:46:759,0,-0.484726,-7.0647,-12.8192,Q,Q
2023-03-15 12:02:46:769,0,-0.480847,-7.06877,-12.8284,Q,Q
2023-03-15 12:02:46:780,0,-0.479975,-7.07051,-12.8409,Q,Q
2023-03-15 12:02:46:789,0,-0.486047,-7.073,-12.8541,Q,Q
2023-03-15 12:02:46:799,0,-0.488372,-7.07735,-12.8746,Q,Q
2023-03-15 12:02:46:809,0,-0.488162,-7.08363,-12.8901,Q,Q
2023-03-15 12:02:46:819,0,-0.484944,-7.09469,-12.9092,Q,Q
2023-03-15 12:02:46:829,0,-0.473601,-7.09951,-12.9317,Q,Q
2023-03-15 12:02:46:840,0,-0.459844,-7.10463,-12.9472,Q,Q
2023-03-15 12:02:46:850,0,-0.451,-7.1101,-12.9571,Q,Q
2023-03-15 12:02:46:860,0,-0.455214,-7.11766,-12.9649,Q,Q
2023-03-15 12:02:46:870,0,-0.467546,-7.12509,-12.9724,Q,Q
2023-03-15 12:02:46:880,0,-0.488426,-7.13442,-12.9741,Q,Q
2023-03-15 12:02:46:889,0,-0.511288,-7.14965,-12.9766,Q,Q
2023-03-15 12:02:46:899,0,-0.535533,-7.16697,-12.9738,Q,Q
2023-03-15 12:02:46:910,0,-0.56445,-7.18212,-12.9657,Q,Q
2023-03-15 12:02:46:920,0,-0.598051,-7.19801,-12.9586,Q,Q
2023-03-15 12:02:46:930,0,-0.629201,-7.21713,-12.9486,Q,Q
2023-03-15 12:02:46:940,0,-0.657152,-7.23554,-12.9345,Q,Q
2023-03-15 12:02:46:949,0,-0.676567,-7.25517,-12.9246,Q,Q
2023-03-15 12:02:46:960,0,-0.691735,-7.27525,-12.9077,Q,Q
2023-03-15 12:02:46:969,0,-0.702393,-7.29399,-12.8965,Q,Q
2023-03-15 12:02:46:979,0,-0.715015,-7.30586,-12.882,Q,Q
2023-03-15 12:02:46:989,0,-0.725934,-7.31247,-12.8685,Q,Q
2023-03-15 12:02:46:999,0,-0.736047,-7.32243,-12.8478,Q,Q
2023-03-15 12:02:47:9,0,-0.739404,-7.33705,-12.8199,Q,Q
2023-03-15 12:02:47:20,0,-0.73444,-7.36367,-12.7839,Q,Q
2023-03-15 12:02:47:29,0,-0.724742,-7.39289,-12.7383,Q,Q
2023-03-15 12:02:47:39,0,-0.712541,-7.42807,-12.6915,Q,Q
2023-03-15 12:02:47:49,0,-0.70254,-7.45886,-12.6438,Q,Q
2023-03-15 12:02:47:60,0,-0.703255,-7.48486,-12.5977,Q,Q
2023-03-15 12:02:47:69,0,-0.711324,-7.50951,-12.556,Q,Q
2023-03-15 12:02:47:79,0,-0.724909,-7.52925,-12.5258,Q,Q
2023-03-15 12:02:47:90,0,-0.739735,-7.5464,-12.5045,Q,Q
2023-03-15 12:02:47:99,0,-0.755855,-7.56441,-12.4907,Q,Q
2023-03-15 12:02:47:109,0,-0.776804,-7.57574,-12.4839,Q,Q
2023-03-15 12:02:47:120,0,-0.792737,-7.58448,-12.484,Q,Q
2023-03-15 12:02:47:129,0,-0.810267,-7.58833,-12.494,Q,Q
2023-03-15 12:02:47:140,0,-0.819763,-7.59526,-12.5094,Q,Q
2023-03-15 12:02:47:149,0,-0.823355,-7.60059,-12.5252,Q,Q
2023-03-15 12:02:47:160,0,-0.814844,-7.60823,-12.5438,Q,Q
2023-03-15 12:02:47:169,0,-0.808574,-7.61367,-12.5511,Q,Q
2023-03-15 12:02:47:179,0,-0.810663,-7.61834,-12.557,Q,Q
2023-03-15 12:02:47:189,0,-0.821533,-7.62072,-12.5624,Q,Q
2023-03-15 12:02:47:199,0,-0.8462,-7.61815,-12.5633,Q,Q
2023-03-15 12:02:47:209,0,-0.878805,-7.61193,-12.5628,Q,Q
2023-03-15 12:02:47:219,0,-0.924241,-7.59699,-12.5544,Q,Q
2023-03-15 12:02:47:229,0,-0.963019,-7.58678,-12.5435,Q,Q
2023-03-15 12:02:47:239,0,-0.978006,-7.59046,-12.5376,Q,Q
2023-03-15 12:02:47:249,0,-0.968952,-7.60912,-12.5227,Q,Q
2023-03-15 12:02:47:260,0,-0.927663,-7.63237,-12.508,Q,Q
2023-03-15 12:02:47:269,0,-0.864393,-7.6516,-12.4889,Q,Q
2023-03-15 12:02:47:279,0,-0.802702,-7.66697,-12.4649,Q,Q
2023-03-15 12:02:47:290,0,-0.747898,-7.67632,-12.4347,Q,Q
2023-03-15 12:02:47:299,0,-0.705567,-7.68717,-12.4054,Q,Q
2023-03-15 12:02:47:309,0,-0.674453,-7.693,-12.3762,Q,Q
2023-03-15 12:02:47:319,0,-0.655083,-7.69797,-12.3457,Q,Q
2023-03-15 12:02:47:329,0,-0.640768,-7.70407,-12.3175,Q,Q
2023-03-15 12:02:47:339,0,-0.628038,-7.71237,-12.2908,Q,Q
2023-03-15 12:02:47:349,0,-0.61182,-7.72361,-12.2672,Q,Q
2023-03-15 12:02:47:359,0,-0.59172,-7.74115,-12.2458,Q,Q
2023-03-15 12:02:47:369,0,-0.583342,-7.75758,-12.2304,Q,Q
2023-03-15 12:02:47:379,0,-0.58392,-7.78123,-12.2189,Q,Q
2023-03-15 12:02:47:389,0,-0.595142,-7.80447,-12.215,Q,Q
2023-03-15 12:02:47:399,0,-0.611526,-7.82936,-12.2188,Q,Q
2023-03-15 12:02:47:409,0,-0.629021,-7.85717,-12.2248,Q,Q
2023-03-15 12:02:47:419,0,-0.64137,-7.88463,-12.239,Q,Q
2023-03-15 12:02:47:429,0,-0.642305,-7.91071,-12.2639,Q,Q
2023-03-15 12:02:47:439,0,-0.637467,-7.93686,-12.2872,Q,Q
2023-03-15 12:02:47:449,0,-0.623844,-7.95705,-12.313,Q,Q
2023-03-15 12:02:47:459,0,-0.603407,-7.97122,-12.3396,Q,Q
2023-03-15 12:02:47:469,0,-0.584327,-7.97994,-12.3685,Q,Q
2023-03-15 12:02:47:479,0,-0.570982,-7.97788,-12.3926,Q,Q
2023-03-15 12:02:47:489,0,-0.568231,-7.97419,-12.4195,Q,Q
2023-03-15 12:02:47:499,0,-0.571331,-7.96623,-12.4394,Q,Q
2023-03-15 12:02:47:509,0,-0.58217,-7.95646,-12.456,Q,Q
2023-03-15 12:02:47:519,0,-0.603807,-7.94892,-12.4666,Q,Q
2023-03-15 12:02:47:529,0,-0.631415,-7.94325,-12.4733,Q,Q
2023-03-15 12:02:47:539,0,-0.660442,-7.94159,-12.4738,Q,Q
2023-03-15 12:02:47:549,0,-0.684079,-7.94309,-12.4727,Q,Q
2023-03-15 12:02:47:559,0,-0.700537,-7.94403,-12.4664,Q,Q
2023-03-15 12:02:47:569,0,-0.707866,-7.94703,-12.4612,Q,Q
2023-03-15 12:02:47:579,0,-0.70283,-7.9462,-12.4516,Q,Q
2023-03-15 12:02:47:589,0,-0.689501,-7.94665,-12.4395,Q,Q
2023-03-15 12:02:47:599,0,-0.682622,-7.94163,-12.4254,Q,Q
2023-03-15 12:02:47:609,0,-0.684258,-7.93911,-12.4133,Q,Q
2023-03-15 12:02:47:619,0,-0.692307,-7.94377,-12.3998,Q,Q
2023-03-15 12:02:47:629,0,-0.707163,-7.95033,-12.3892,Q,Q
2023-03-15 12:02:47:639,0,-0.726981,-7.96123,-12.3803,Q,Q
2023-03-15 12:02:47:649,0,-0.75276,-7.9759,-12.383,Q,Q
2023-03-15 12:02:47:660,0,-0.77869,-7.9903,-12.3954,Q,Q
2023-03-15 12:02:47:669,0,-0.804065,-8.00542,-12.4142,Q,Q
2023-03-15 12:02:47:679,0,-0.822721,-8.01809,-12.44,Q,Q
2023-03-15 12:02:47:689,0,-0.835275,-8.02665,-12.4738,Q,Q
2023-03-15 12:02:47:699,0,-0.835263,-8.03211,-12.5136,Q,Q
2023-03-15 12:02:47:709,0,-0.829433,-8.03568,-12.551,Q,Q
2023-03-15 12:02:47:719,0,-0.81646,-8.03916,-12.5844,Q,Q
2023-03-15 12:02:47:729,0,-0.804304,-8.04602,-12.611,Q,Q
2023-03-15 12:02:47:739,0,-0.798788,-8.05754,-12.6321,Q,Q
2023-03-15 12:02:47:749,0,-0.804686,-8.07797,-12.6449,Q,Q
2023-03-15 12:02:47:759,0,-0.819346,-8.10197,-12.6488,Q,Q
2023-03-15 12:02:47:769,0,-0.834437,-8.13469,-12.6554,Q,Q
2023-03-15 12:02:47:779,0,-0.843947,-8.1691,-12.664,Q,Q
2023-03-15 12:02:47:789,0,-0.836374,-8.20087,-12.6717,Q,Q
2023-03-15 12:02:47:799,0,-0.811588,-8.23164,-12.6837,Q,Q
2023-03-15 12:02:47:809,0,-0.768577,-8.25336,-12.6968,Q,Q
2023-03-15 12:02:47:819,0,-0.721715,-8.27102,-12.7062,Q,Q
2023-03-15 12:02:47:829,0,-0.685971,-8.27867,-12.7147,Q,Q
2023-03-15 12:02:47:839,0,-0.664575,-8.28933,-12.7208,Q,Q
2023-03-15 12:02:47:849,0,-0.656287,-8.29798,-12.7303,Q,Q
2023-03-15 12:02:47:860,0,-0.660816,-8.30421,-12.7387,Q,Q
2023-03-15 12:02:47:869,0,-0.668717,-8.30995,-12.7381,Q,Q
2023-03-15 12:02:47:879,0,-0.673671,-8.32716,-12.7315,Q,Q
2023-03-15 12:02:47:889,0,-0.670993,-8.34932,-12.7207,Q,Q
2023-03-15 12:02:47:899,0,-0.658255,-8.3798,-12.7069,Q,Q
2023-03-15 12:02:47:909,0,-0.63652,-8.41089,-12.6846,Q,Q
2023-03-15 12:02:47:919,0,-0.612892,-8.4363,-12.6618,Q,Q
2023-03-15 12:02:47:929,0,-0.588915,-8.45515,-12.6341,Q,Q
2023-03-15 12:02:47:940,0,-0.56256,-8.46911,-12.6058,Q,Q
2023-03-15 12:02:47:949,0,-0.540772,-8.47987,-12.581,Q,Q
2023-03-15 12:02:47:959,0,-0.522201,-8.49377,-12.5491,Q,Q
2023-03-15 12:02:47:969,0,-0.515392,-8.51703,-12.5089,Q,Q
2023-03-15 12:02:47:979,0,-0.51412,-8.55974,-12.4667,Q,Q
2023-03-15 12:02:47:989,0,-0.507186,-8.61476,-12.4221,Q,Q
2023-03-15 12:02:47:999,0,-0.492015,-8.68011,-12.382,Q,Q
2023-03-15 12:02:48:9,0,-0.470055,-8.74687,-12.3434,Q,Q
2023-03-15 12:02:48:19,0,-0.448259,-8.79927,-12.3118,Q,Q
2023-03-15 12:02:48:29,0,-0.430972,-8.82967,-12.2967,Q,Q
2023-03-15 12:02:48:40,0,-0.428384,-8.83215,-12.2976,Q,Q
2023-03-15 12:02:48:49,0,-0.434713,-8.80463,-12.3152,Q,Q
2023-03-15 12:02:48:59,0,-0.449844,-8.75669,-12.3455,Q,Q
2023-03-15 12:02:48:69,0,-0.468728,-8.69086,-12.3796,Q,Q
2023-03-15 12:02:48:80,0,-0.490366,-8.61302,-12.4226,Q,Q
2023-03-15 12:02:48:89,0,-0.524207,-8.53214,-12.4599,Q,Q
2023-03-15 12:02:48:99,0,-0.573415,-8.45267,-12.4961,Q,Q
2023-03-15 12:02:48:109,0,-0.638138,-8.37855,-12.5296,Q,Q
2023-03-15 12:02:48:119,0,-0.705855,-8.32001,-12.5609,Q,Q
2023-03-15 12:02:48:129,0,-0.77414,-8.27341,-12.5897,Q,Q
2023-03-15 12:02:48:139,0,-0.830175,-8.23876,-12.6196,Q,Q
2023-03-15 12:02:48:149,0,-0.872206,-8.21264,-12.6492,Q,Q
2023-03-15 12:02:48:159,0,-0.896895,-8.1866,-12.6789,Q,Q
2023-03-15 12:02:48:169,0,-0.89945,-8.16202,-12.7061,Q,Q
2023-03-15 12:02:48:180,0,-0.88386,-8.14096,-12.7304,Q,Q
2023-03-15 12:02:48:189,0,-0.858202,-8.12119,-12.7489,Q,Q
2023-03-15 12:02:48:200,0,-0.8371,-8.09917,-12.7641,Q,Q
2023-03-15 12:02:48:209,0,-0.828292,-8.07785,-12.7755,Q,Q
2023-03-15 12:02:48:220,0,-0.832565,-8.06057,-12.7844,Q,Q
2023-03-15 12:02:48:229,0,-0.850222,-8.04509,-12.7912,Q,Q
2023-03-15 12:02:48:239,0,-0.878597,-8.03017,-12.8014,Q,Q
2023-03-15 12:02:48:249,0,-0.904024,-8.01595,-12.8167,Q,Q
2023-03-15 12:02:48:259,0,-0.921955,-7.99935,-12.8354,Q,Q
2023-03-15 12:02:48:269,0,-0.930289,-7.97625,-12.849,Q,Q
2023-03-15 12:02:48:279,0,-0.92932,-7.96101,-12.8617,Q,Q
2023-03-15 12:02:48:289,0,-0.92391,-7.94362,-12.8746,Q,Q
2023-03-15 12:02:48:299,0,-0.919244,-7.92719,-12.8858,Q,Q
2023-03-15 12:02:48:309,0,-0.919567,-7.91482,-12.8929,Q,Q
2023-03-15 12:02:48:319,0,-0.928954,-7.90857,-12.8948,Q,Q
2023-03-15 12:02:48:329,0,-0.938651,-7.90527,-12.9003,Q,Q
2023-03-15 12:02:48:340,0,-0.953893,-7.91087,-12.9027,Q,Q
2023-03-15 12:02:48:349,0,-0.968435,-7.92477,-12.9076,Q,Q
2023-03-15 12:02:48:359,0,-0.981689,-7.94161,-12.9109,Q,Q
2023-03-15 12:02:48:369,0,-0.988365,-7.9578,-12.9151,Q,Q
2023-03-15 12:02:48:379,0,-0.98707,-7.96837,-12.9204,Q,Q
2023-03-15 12:02:48:390,0,-0.977756,-7.97037,-12.9276,Q,Q
2023-03-15 12:02:48:400,0,-0.960929,-7.971,-12.9316,Q,Q
2023-03-15 12:02:48:410,0,-0.938802,-7.97199,-12.9225,Q,Q
2023-03-15 12:02:48:419,0,-0.926586,-7.96977,-12.9089,Q,Q
2023-03-15 12:02:48:429,0,-0.909009,-7.96308,-12.8922,Q,Q
2023-03-15 12:02:48:440,0,-0.893349,-7.95014,-12.8731,Q,Q
2023-03-15 12:02:48:450,0,-0.863747,-7.9376,-12.851,Q,Q
2023-03-15 12:02:48:460,0,-0.812751,-7.93008,-12.832,Q,Q
2023-03-15 12:02:48:469,0,-0.738733,-7.92958,-12.8116,Q,Q
2023-03-15 12:02:48:479,0,-0.642739,-7.93678,-12.788,Q,Q
2023-03-15 12:02:48:489,0,-0.53635,-7.94508,-12.7614,Q,Q
2023-03-15 12:02:48:499,0,-0.425389,-7.94429,-12.7345,Q,Q
2023-03-15 12:02:48:509,0,-0.325239,-7.93431,-12.7186,Q,Q
2023-03-15 12:02:48:519,0,-0.242763,-7.9049,-12.7125,Q,Q
2023-03-15 12:02:48:529,0,-0.195971,-7.85341,-12.7166,Q,Q
2023-03-15 12:02:48:544,0,-0.185632,-7.78707,-12.7246,Q,Q
2023-03-15 12:02:48:549,0,-0.204219,-7.72333,-12.7288,Q,Q
2023-03-15 12:02:48:559,0,-0.246122,-7.67288,-12.7291,Q,Q
2023-03-15 12:02:48:569,0,-0.297673,-7.63762,-12.7255,Q,Q
2023-03-15 12:02:48:579,0,-0.350093,-7.61971,-12.7212,Q,Q
2023-03-15 12:02:48:589,0,-0.392829,-7.61631,-12.7176,Q,Q
2023-03-15 12:02:48:599,0,-0.4223,-7.62766,-12.7145,Q,Q
2023-03-15 12:02:48:609,0,-0.439028,-7.64759,-12.72,Q,Q
2023-03-15 12:02:48:619,0,-0.444225,-7.66776,-12.7298,Q,Q
2023-03-15 12:02:48:629,0,-0.436583,-7.68881,-12.7423,Q,Q
2023-03-15 12:02:48:639,0,-0.412119,-7.70788,-12.7569,Q,Q
2023-03-15 12:02:48:649,0,-0.37573,-7.73526,-12.7715,Q,Q
2023-03-15 12:02:48:659,0,-0.336701,-7.76385,-12.7885,Q,Q
2023-03-15 12:02:48:669,0,-0.300852,-7.79588,-12.8032,Q,Q
2023-03-15 12:02:48:679,0,-0.269479,-7.83346,-12.8198,Q,Q
2023-03-15 12:02:48:689,0,-0.247009,-7.86625,-12.8434,Q,Q
2023-03-15 12:02:48:699,0,-0.2258,-7.90318,-12.87,Q,Q
2023-03-15 12:02:48:709,0,-0.200021,-7.93936,-12.8967,Q,Q
2023-03-15 12:02:48:719,0,-0.168163,-7.97437,-12.9316,Q,Q
2023-03-15 12:02:48:729,0,-0.133556,-8.00934,-12.9685,Q,Q
2023-03-15 12:02:48:739,0,-0.0900214,-8.03876,-13.0086,Q,Q
2023-03-15 12:02:48:749,0,-0.0428023,-8.06538,-13.0481,Q,Q
2023-03-15 12:02:48:759,0,0.0103394,-8.09038,-13.0843,Q,Q
2023-03-15 12:02:48:769,0,0.0615572,-8.11517,-13.1172,Q,Q
2023-03-15 12:02:48:780,0,0.107377,-8.137,-13.1497,Q,Q
2023-03-15 12:02:48:789,0,0.151029,-8.1526,-13.1786,Q,Q
2023-03-15 12:02:48:799,0,0.190575,-8.1596,-13.2082,Q,Q
2023-03-15 12:02:48:809,0,0.219963,-8.15641,-13.2304,Q,Q
2023-03-15 12:02:48:819,0,0.25044,-8.14402,-13.2534,Q,Q
2023-03-15 12:02:48:829,0,0.276184,-8.11945,-13.2719,Q,Q
2023-03-15 12:02:48:840,0,0.302186,-8.08763,-13.2813,Q,Q
2023-03-15 12:02:48:849,0,0.333091,-8.05134,-13.2842,Q,Q
2023-03-15 12:02:48:860,0,0.362298,-8.01237,-13.274,Q,Q
2023-03-15 12:02:48:870,0,0.384441,-7.97116,-13.2547,Q,Q
2023-03-15 12:02:48:880,0,0.397996,-7.93653,-13.2285,Q,Q
2023-03-15 12:02:48:889,0,0.409205,-7.90166,-13.201,Q,Q
2023-03-15 12:02:48:899,0,0.42826,-7.86306,-13.1695,Q,Q
2023-03-15 12:02:48:909,0,0.457998,-7.83166,-13.136,Q,Q
2023-03-15 12:02:48:920,0,0.498159,-7.80009,-13.1019,Q,Q
2023-03-15 12:02:48:930,0,0.536429,-7.77565,-13.071,Q,Q
2023-03-15 12:02:48:940,0,0.56957,-7.75054,-13.0419,Q,Q
2023-03-15 12:02:48:950,0,0.594197,-7.72817,-13.0156,Q,Q
2023-03-15 12:02:48:960,0,0.608487,-7.71213,-12.9918,Q,Q
2023-03-15 12:02:48:969,0,0.609953,-7.70109,-12.9729,Q,Q
2023-03-15 12:02:48:980,0,0.612506,-7.69236,-12.9621,Q,Q
2023-03-15 12:02:48:990,0,0.625611,-7.68468,-12.9538,Q,Q
2023-03-15 12:02:49:0,0,0.649803,-7.67374,-12.9458,Q,Q
2023-03-15 12:02:49:9,0,0.686883,-7.66443,-12.9375,Q,Q
2023-03-15 12:02:49:20,0,0.737849,-7.65407,-12.9298,Q,Q
2023-03-15 12:02:49:29,0,0.801881,-7.64634,-12.9117,Q,Q
2023-03-15 12:02:49:40,0,0.873946,-7.65011,-12.8831,Q,Q
2023-03-15 12:02:49:50,0,0.943544,-7.66062,-12.8508,Q,Q
2023-03-15 12:02:49:60,0,1.01371,-7.68334,-12.8178,Q,Q
2023-03-15 12:02:49:70,0,1.07565,-7.71874,-12.777,Q,Q
2023-03-15 12:02:49:80,0,1.11886,-7.75977,-12.737,Q,Q
2023-03-15 12:02:49:90,0,1.14638,-7.80506,-12.7046,Q,Q
2023-03-15 12:02:49:100,0,1.15187,-7.84397,-12.6803,Q,Q
2023-03-15 12:02:49:109,0,1.14846,-7.87125,-12.6591,Q,Q
2023-03-15 12:02:49:119,0,1.13847,-7.88956,-12.6375,Q,Q
2023-03-15 12:02:49:129,0,1.13912,-7.90938,-12.6187,Q,Q
2023-03-15 12:02:49:139,0,1.14863,-7.93124,-12.5979,Q,Q
2023-03-15 12:02:49:149,0,1.16868,-7.95528,-12.5762,Q,Q
2023-03-15 12:02:49:159,0,1.19303,-7.97333,-12.5582,Q,Q
2023-03-15 12:02:49:169,0,1.22053,-7.9896,-12.5439,Q,Q
2023-03-15 12:02:49:179,0,1.24402,-8.00178,-12.5338,Q,Q
2023-03-15 12:02:49:189,0,1.25974,-8.00947,-12.5242,Q,Q
2023-03-15 12:02:49:200,0,1.26513,-8.01563,-12.516,Q,Q
2023-03-15 12:02:49:210,0,1.26417,-8.02111,-12.5076,Q,Q
2023-03-15 12:02:49:220,0,1.26621,-8.03124,-12.5008,Q,Q
2023-03-15 12:02:49:229,0,1.27019,-8.04608,-12.4912,Q,Q
2023-03-15 12:02:49:240,0,1.27567,-8.06395,-12.4799,Q,Q
2023-03-15 12:02:49:250,0,1.28355,-8.08608,-12.4698,Q,Q
2023-03-15 12:02:49:259,0,1.2874,-8.1052,-12.467,Q,Q
2023-03-15 12:02:49:269,0,1.28805,-8.11959,-12.4704,Q,Q
2023-03-15 12:02:49:279,0,1.28924,-8.13231,-12.4809,Q,Q
2023-03-15 12:02:49:290,0,1.29364,-8.14478,-12.4928,Q,Q
2023-03-15 12:02:49:299,0,1.30195,-8.15737,-12.5058,Q,Q
2023-03-15 12:02:49:310,0,1.31663,-8.16667,-12.5153,Q,Q
2023-03-15 12:02:49:319,0,1.33772,-8.17117,-12.5268,Q,Q
2023-03-15 12:02:49:329,0,1.35892,-8.17253,-12.542,Q,Q
2023-03-15 12:02:49:339,0,1.38339,-8.16641,-12.566,Q,Q
2023-03-15 12:02:49:349,0,1.40935,-8.16142,-12.6002,Q,Q
2023-03-15 12:02:49:359,0,1.43104,-8.15392,-12.6464,Q,Q
2023-03-15 12:02:49:369,0,1.45576,-8.15042,-12.7083,Q,Q
2023-03-15 12:02:49:380,0,1.47936,-8.15597,-12.7897,Q,Q
2023-03-15 12:02:49:389,0,1.50103,-8.16469,-12.8875,Q,Q
2023-03-15 12:02:49:400,0,1.52187,-8.17494,-13.0037,Q,Q
2023-03-15 12:02:49:410,0,1.5466,-8.19673,-13.1256,Q,Q
2023-03-15 12:02:49:419,0,1.58134,-8.22492,-13.2484,Q,Q
2023-03-15 12:02:49:429,0,1.61912,-8.26081,-13.3714,Q,Q
2023-03-15 12:02:49:440,0,1.66059,-8.30446,-13.4927,Q,Q
2023-03-15 12:02:49:450,0,1.70634,-8.35472,-13.606,Q,Q
2023-03-15 12:02:49:460,0,1.74827,-8.40054,-13.7134,Q,Q
2023-03-15 12:02:49:469,0,1.78527,-8.43709,-13.8177,Q,Q
2023-03-15 12:02:49:479,0,1.81482,-8.46261,-13.9207,Q,Q
2023-03-15 12:02:49:490,0,1.84586,-8.48272,-14.0217,Q,Q
2023-03-15 12:02:49:500,0,1.88199,-8.49078,-14.1197,Q,Q
2023-03-15 12:02:49:509,0,1.91923,-8.49408,-14.2156,Q,Q
2023-03-15 12:02:49:519,0,1.9684,-8.49394,-14.3088,Q,Q
2023-03-15 12:02:49:529,0,2.01909,-8.49662,-14.396,Q,Q
2023-03-15 12:02:49:539,0,2.07545,-8.49742,-14.4843,Q,Q
2023-03-15 12:02:49:549,0,2.12997,-8.50678,-14.5641,Q,Q
2023-03-15 12:02:49:559,0,2.18792,-8.52413,-14.6434,Q,Q
2023-03-15 12:02:49:569,0,2.24518,-8.5482,-14.7174,Q,Q
2023-03-15 12:02:49:579,0,2.3062,-8.58113,-14.7914,Q,Q
2023-03-15 12:02:49:589,0,2.36734,-8.61675,-14.8629,Q,Q
2023-03-15 12:02:49:599,0,2.42508,-8.64664,-14.9327,Q,Q
2023-03-15 12:02:49:609,0,2.47164,-8.67128,-14.9997,Q,Q
2023-03-15 12:02:49:620,0,2.51206,-8.68681,-15.0698,Q,Q
2023-03-15 12:02:49:630,0,2.54676,-8.69573,-15.1378,Q,Q
2023-03-15 12:02:49:640,0,2.58008,-8.69332,-15.2,Q,Q
2023-03-15 12:02:49:650,0,2.61649,-8.67779,-15.2549,Q,Q
2023-03-15 12:02:49:660,0,2.65676,-8.66412,-15.3013,Q,Q
2023-03-15 12:02:49:670,0,2.70057,-8.64921,-15.3388,Q,Q
2023-03-15 12:02:49:680,0,2.74639,-8.63636,-15.3721,Q,Q
2023-03-15 12:02:49:690,0,2.79685,-8.62751,-15.3931,Q,Q
2023-03-15 12:02:49:700,0,2.84482,-8.62645,-15.4045,Q,Q
2023-03-15 12:02:49:710,0,2.89456,-8.63808,-15.4094,Q,Q
2023-03-15 12:02:49:720,0,2.94199,-8.65436,-15.407,Q,Q
2023-03-15 12:02:49:730,0,2.98789,-8.66985,-15.4061,Q,Q
2023-03-15 12:02:49:740,0,3.0293,-8.67629,-15.4118,Q,Q
2023-03-15 12:02:49:750,0,3.06762,-8.68049,-15.4189,Q,Q
2023-03-15 12:02:49:760,0,3.107,-8.67591,-15.4264,Q,Q
2023-03-15 12:02:49:769,0,3.15219,-8.6654,-15.429,Q,Q
2023-03-15 12:02:49:779,0,3.19997,-8.66183,-15.4269,Q,Q
2023-03-15 12:02:49:789,0,3.24875,-8.65813,-15.4199,Q,Q
2023-03-15 12:02:49:799,0,3.29756,-8.65459,-15.4057,Q,Q
2023-03-15 12:02:49:809,0,3.34559,-8.65657,-15.3854,Q,Q
2023-03-15 12:02:49:819,0,3.39241,-8.65993,-15.368,Q,Q
2023-03-15 12:02:49:829,0,3.43361,-8.66195,-15.3561,Q,Q
2023-03-15 12:02:49:840,0,3.47812,-8.66027,-15.3501,Q,Q
2023-03-15 12:02:49:850,0,3.52611,-8.65359,-15.3434,Q,Q
2023-03-15 12:02:49:860,0,3.574,-8.63836,-15.3441,Q,Q
2023-03-15 12:02:49:870,0,3.62351,-8.62637,-15.3472,Q,Q
2023-03-15 12:02:49:880,0,3.67915,-8.61208,-15.3519,Q,Q
2023-03-15 12:02:49:890,0,3.73305,-8.5957,-15.3602,Q,Q
2023-03-15 12:02:49:900,0,3.79433,-8.57856,-15.3767,Q,Q
2023-03-15 12:02:49:910,0,3.854,-8.56336,-15.3928,Q,Q
2023-03-15 12:02:49:920,0,3.9116,-8.55255,-15.4108,Q,Q
2023-03-15 12:02:49:930,0,3.96414,-8.54285,-15.4353,Q,Q
2023-03-15 12:02:49:940,0,4.00828,-8.53488,-15.4579,Q,Q
2023-03-15 12:02:49:950,0,4.04963,-8.52812,-15.485,Q,Q
2023-03-15 12:02:49:960,0,4.0855,-8.52033,-15.516,Q,Q
2023-03-15 12:02:49:970,0,4.12158,-8.51131,-15.5507,Q,Q
2023-03-15 12:02:49:980,0,4.15821,-8.49748,-15.5832,Q,Q
2023-03-15 12:02:49:990,0,4.1993,-8.48469,-15.6149,Q,Q
2023-03-15 12:02:50:0,0,4.24221,-8.46887,-15.6435,Q,Q
2023-03-15 12:02:50:10,0,4.29123,-8.45004,-15.6664,Q,Q
2023-03-15 12:02:50:20,0,4.33787,-8.4336,-15.6841,Q,Q
2023-03-15 12:02:50:30,0,4.38753,-8.42137,-15.7035,Q,Q
2023-03-15 12:02:50:40,0,4.4338,-8.40036,-15.7171,Q,Q
2023-03-15 12:02:50:50,0,4.47347,-8.3717,-15.728,Q,Q
2023-03-15 12:02:50:60,0,4.50835,-8.33564,-15.7361,Q,Q
2023-03-15 12:02:50:70,0,4.53497,-8.29171,-15.7394,Q,Q
2023-03-15 12:02:50:80,0,4.56323,-8.24805,-15.74,Q,Q
2023-03-15 12:02:50:90,0,4.59879,-8.20763,-15.7384,Q,Q
2023-03-15 12:02:50:100,0,4.6467,-8.17535,-15.7327,Q,Q
2023-03-15 12:02:50:110,0,4.70509,-8.14482,-15.73,Q,Q
2023-03-15 12:02:50:120,0,4.76925,-8.11751,-15.7242,Q,Q
2023-03-15 12:02:50:130,0,4.83333,-8.08852,-15.7238,Q,Q
2023-03-15 12:02:50:140,0,4.87949,-8.05974,-15.7233,Q,Q
2023-03-15 12:02:50:150,0,4.90111,-8.03265,-15.7226,Q,Q
2023-03-15 12:02:50:160,0,4.89756,-8.01937,-15.724,Q,Q
2023-03-15 12:02:50:170,0,4.87516,-8.01565,-15.7304,Q,Q
2023-03-15 12:02:50:180,0,4.8406,-8.02703,-15.745,Q,Q
2023-03-15 12:02:50:190,0,4.81038,-8.04815,-15.7676,Q,Q
2023-03-15 12:02:50:200,0,4.79577,-8.07029,-15.8031,Q,Q
2023-03-15 12:02:50:210,0,4.8024,-8.09015,-15.8501,Q,Q
2023-03-15 12:02:50:220,0,4.81936,-8.11279,-15.8989,Q,Q
2023-03-15 12:02:50:230,0,4.8498,-8.12527,-15.9531,Q,Q
2023-03-15 12:02:50:240,0,4.88637,-8.12511,-16.0096,Q,Q
2023-03-15 12:02:50:250,0,4.92166,-8.11932,-16.0686,Q,Q
2023-03-15 12:02:50:260,0,4.94838,-8.11102,-16.1206,Q,Q
2023-03-15 12:02:50:270,0,4.97121,-8.10359,-16.1668,Q,Q
2023-03-15 12:02:50:279,0,4.98179,-8.10181,-16.2085,Q,Q
2023-03-15 12:02:50:289,0,4.97488,-8.10715,-16.2487,Q,Q
2023-03-15 12:02:50:299,0,4.95059,-8.12037,-16.2821,Q,Q
2023-03-15 12:02:50:309,0,4.91573,-8.14019,-16.3141,Q,Q
2023-03-15 12:02:50:320,0,4.87328,-8.16007,-16.3427,Q,Q
2023-03-15 12:02:50:330,0,4.83145,-8.17997,-16.3705,Q,Q
2023-03-15 12:02:50:339,0,4.79161,-8.19907,-16.3961,Q,Q
2023-03-15 12:02:50:350,0,4.76846,-8.21241,-16.4231,Q,Q
2023-03-15 12:02:50:360,0,4.75798,-8.22204,-16.4494,Q,Q
2023-03-15 12:02:50:370,0,4.76408,-8.22383,-16.4726,Q,Q
2023-03-15 12:02:50:380,0,4.78082,-8.22046,-16.4899,Q,Q
2023-03-15 12:02:50:390,0,4.8044,-8.21656,-16.4979,Q,Q
2023-03-15 12:02:50:400,0,4.83156,-8.21494,-16.5036,Q,Q
2023-03-15 12:02:50:410,0,4.85556,-8.21551,-16.502,Q,Q
2023-03-15 12:02:50:420,0,4.87631,-8.21849,-16.4958,Q,Q
2023-03-15 12:02:50:430,0,4.89401,-8.22033,-16.4852,Q,Q
2023-03-15 12:02:50:440,0,4.90212,-8.22683,-16.4714,Q,Q
2023-03-15 12:02:50:450,0,4.9041,-8.23199,-16.4502,Q,Q
2023-03-15 12:02:50:460,0,4.90951,-8.23869,-16.4309,Q,Q
2023-03-15 12:02:50:470,0,4.90779,-8.24461,-16.4041,Q,Q
2023-03-15 12:02:50:480,0,4.90043,-8.24568,-16.3749,Q,Q
2023-03-15 12:02:50:490,0,4.88867,-8.24763,-16.339,Q,Q
2023-03-15 12:02:50:500,0,4.87162,-8.24903,-16.298,Q,Q
2023-03-15 12:02:50:510,0,4.84588,-8.25217,-16.2496,Q,Q
2023-03-15 12:02:50:520,0,4.81259,-8.2604,-16.1947,Q,Q
2023-03-15 12:02:50:530,0,4.77033,-8.27259,-16.1394,Q,Q
2023-03-15 12:02:50:540,0,4.72855,-8.28202,-16.0833,Q,Q
2023-03-15 12:02:50:550,0,4.68144,-8.28732,-16.0238,Q,Q
2023-03-15 12:02:50:560,0,4.63531,-8.28489,-15.967,Q,Q
2023-03-15 12:02:50:570,0,4.59405,-8.27797,-15.9133,Q,Q
2023-03-15 12:02:50:579,0,4.55668,-8.25977,-15.8646,Q,Q
2023-03-15 12:02:50:589,0,4.51899,-8.23795,-15.8158,Q,Q
2023-03-15 12:02:50:600,0,4.47917,-8.20426,-15.7686,Q,Q
2023-03-15 12:02:50:610,0,4.43968,-8.17439,-15.7251,Q,Q
2023-03-15 12:02:50:620,0,4.40768,-8.13933,-15.689,Q,Q
2023-03-15 12:02:50:629,0,4.37914,-8.10237,-15.6526,Q,Q
2023-03-15 12:02:50:640,0,4.3544,-8.07567,-15.6197,Q,Q
2023-03-15 12:02:50:650,0,4.33738,-8.04942,-15.5902,Q,Q
2023-03-15 12:02:50:660,0,4.32413,-8.02657,-15.5667,Q,Q
2023-03-15 12:02:50:669,0,4.31585,-8.00467,-15.5462,Q,Q
2023-03-15 12:02:50:680,0,4.30722,-7.97932,-15.5365,Q,Q
2023-03-15 12:02:50:690,0,4.30203,-7.95579,-15.5348,Q,Q
2023-03-15 12:02:50:700,0,4.29957,-7.9256,-15.5341,Q,Q
2023-03-15 12:02:50:710,0,4.29696,-7.89411,-15.5264,Q,Q
2023-03-15 12:02:50:720,0,4.28962,-7.85973,-15.5217,Q,Q
2023-03-15 12:02:50:730,0,4.28125,-7.83351,-15.5106,Q,Q
2023-03-15 12:02:50:740,0,4.27723,-7.81201,-15.4954,Q,Q
2023-03-15 12:02:50:750,0,4.27461,-7.79762,-15.4758,Q,Q
2023-03-15 12:02:50:760,0,4.27135,-7.78849,-15.4585,Q,Q
2023-03-15 12:02:50:770,0,4.26726,-7.77816,-15.4381,Q,Q
2023-03-15 12:02:50:780,0,4.25672,-7.77052,-15.4256,Q,Q
2023-03-15 12:02:50:790,0,4.23742,-7.76328,-15.4206,Q,Q
2023-03-15 12:02:50:799,0,4.21558,-7.7494,-15.4265,Q,Q
2023-03-15 12:02:50:810,0,4.19785,-7.72973,-15.4475,Q,Q
2023-03-15 12:02:50:819,0,4.18564,-7.70819,-15.482,Q,Q
2023-03-15 12:02:50:830,0,4.18736,-7.67731,-15.5238,Q,Q
2023-03-15 12:02:50:840,0,4.20386,-7.64773,-15.5686,Q,Q
2023-03-15 12:02:50:850,0,4.23421,-7.62062,-15.6185,Q,Q
2023-03-15 12:02:50:860,0,4.27773,-7.60342,-15.6681,Q,Q
2023-03-15 12:02:50:870,0,4.32509,-7.59392,-15.7175,Q,Q
2023-03-15 12:02:50:879,0,4.37616,-7.59623,-15.7598,Q,Q
2023-03-15 12:02:50:890,0,4.42927,-7.61276,-15.8069,Q,Q
2023-03-15 12:02:50:900,0,4.4764,-7.63823,-15.8508,Q,Q
2023-03-15 12:02:50:910,0,4.52195,-7.66531,-15.8949,Q,Q
2023-03-15 12:02:50:920,0,4.55768,-7.69051,-15.9396,Q,Q
2023-03-15 12:02:50:930,0,4.58978,-7.71938,-15.9846,Q,Q
2023-03-15 12:02:50:940,0,4.61833,-7.75161,-16.0291,Q,Q
2023-03-15 12:02:50:950,0,4.64146,-7.78785,-16.0673,Q,Q
2023-03-15 12:02:50:960,0,4.66671,-7.82892,-16.0986,Q,Q
2023-03-15 12:02:50:970,0,4.69521,-7.86739,-16.1295,Q,Q
2023-03-15 12:02:50:980,0,4.72584,-7.90414,-16.159,Q,Q
2023-03-15 12:02:50:990,0,4.75206,-7.94044,-16.1873,Q,Q
2023-03-15 12:02:51:0,0,4.77996,-7.97258,-16.2137,Q,Q
2023-03-15 12:02:51:10,0,4.80562,-8.00053,-16.2427,Q,Q
2023-03-15 12:02:51:20,0,4.83072,-8.0253,-16.2663,Q,Q
2023-03-15 12:02:51:29,0,4.85812,-8.04327,-16.2887,Q,Q
2023-03-15 12:02:51:40,0,4.88788,-8.05149,-16.304,Q,Q
2023-03-15 12:02:51:50,0,4.91505,-8.05415,-16.3145,Q,Q
2023-03-15 12:02:51:60,0,4.93904,-8.05836,-16.3201,Q,Q
2023-03-15 12:02:51:70,0,4.96179,-8.06436,-16.3162,Q,Q
2023-03-15 12:02:51:80,0,4.98984,-8.07652,-16.3025,Q,Q
2023-03-15 12:02:51:90,0,5.03026,-8.08613,-16.2889,Q,Q
2023-03-15 12:02:51:100,0,5.0846,-8.10173,-16.2724,Q,Q
2023-03-15 12:02:51:110,0,5.15265,-8.11331,-16.2577,Q,Q
2023-03-15 12:02:51:120,0,5.22486,-8.11892,-16.233,Q,Q
2023-03-15 12:02:51:130,0,5.29949,-8.12588,-16.2078,Q,Q
2023-03-15 12:02:51:140,0,5.36671,-8.13225,-16.177,Q,Q
2023-03-15 12:02:51:150,0,5.4306,-8.15112,-16.1383,Q,Q
2023-03-15 12:02:51:160,0,5.49115,-8.18124,-16.094,Q,Q
2023-03-15 12:02:51:170,0,5.55026,-8.21871,-16.0476,Q,Q
2023-03-15 12:02:51:180,0,5.61525,-8.26053,-16.0015,Q,Q
2023-03-15 12:02:51:190,0,5.69167,-8.30332,-15.9553,Q,Q
2023-03-15 12:02:51:200,0,5.77431,-8.34131,-15.9077,Q,Q
2023-03-15 12:02:51:210,0,5.8676,-8.3774,-15.856,Q,Q
2023-03-15 12:02:51:220,0,5.96506,-8.40801,-15.8073,Q,Q
2023-03-15 12:02:51:230,0,6.05845,-8.43205,-15.752,Q,Q
2023-03-15 12:02:51:240,0,6.15461,-8.45713,-15.6996,Q,Q
2023-03-15 12:02:51:250,0,6.23935,-8.47643,-15.6484,Q,Q
2023-03-15 12:02:51:260,0,6.31472,-8.49664,-15.5951,Q,Q
2023-03-15 12:02:51:270,0,6.37737,-8.51853,-15.5487,Q,Q
2023-03-15 12:02:51:279,0,6.42301,-8.5385,-15.5051,Q,Q
2023-03-15 12:02:51:289,0,6.45605,-8.56281,-15.4644,Q,Q
2023-03-15 12:02:51:299,0,6.46655,-8.58283,-15.4327,Q,Q
2023-03-15 12:02:51:309,0,6.46489,-8.59608,-15.4071,Q,Q
2023-03-15 12:02:51:319,0,6.45263,-8.60743,-15.387,Q,Q
2023-03-15 12:02:51:329,0,6.44349,-8.61648,-15.372,Q,Q
2023-03-15 12:02:51:340,0,6.44413,-8.6231,-15.3597,Q,Q
2023-03-15 12:02:51:350,0,6.45569,-8.62795,-15.3482,Q,Q
2023-03-15 12:02:51:359,0,6.47606,-8.6253,-15.3369,Q,Q
2023-03-15 12:02:51:370,0,6.50895,-8.61578,-15.3234,Q,Q
2023-03-15 12:02:51:380,0,6.55143,-8.60615,-15.3032,Q,Q
2023-03-15 12:02:51:390,0,6.59721,-8.59021,-15.2761,Q,Q
2023-03-15 12:02:51:400,0,6.64773,-8.57115,-15.2416,Q,Q
2023-03-15 12:02:51:410,0,6.70313,-8.5522,-15.2,Q,Q
2023-03-15 12:02:51:420,0,6.76277,-8.53247,-15.1525,Q,Q
2023-03-15 12:02:51:430,0,6.81935,-8.51632,-15.0994,Q,Q
2023-03-15 12:02:51:440,0,6.87032,-8.50209,-15.0414,Q,Q
2023-03-15 12:02:51:450,0,6.91318,-8.48817,-14.9882,Q,Q
2023-03-15 12:02:51:460,0,6.94688,-8.48071,-14.9338,Q,Q
2023-03-15 12:02:51:470,0,6.97878,-8.47682,-14.8872,Q,Q
2023-03-15 12:02:51:479,0,7.00626,-8.48236,-14.8417,Q,Q
2023-03-15 12:02:51:490,0,7.03473,-8.50308,-14.7984,Q,Q
2023-03-15 12:02:51:499,0,7.06636,-8.53197,-14.7603,Q,Q
2023-03-15 12:02:51:510,0,7.0959,-8.56374,-14.7316,Q,Q
2023-03-15 12:02:51:520,0,7.12827,-8.59797,-14.7113,Q,Q
2023-03-15 12:02:51:530,0,7.16112,-8.63621,-14.6995,Q,Q
2023-03-15 12:02:51:540,0,7.19287,-8.66892,-14.6927,Q,Q
2023-03-15 12:02:51:550,0,7.21878,-8.69511,-14.6946,Q,Q
2023-03-15 12:02:51:560,0,7.24291,-8.71986,-14.699,Q,Q
2023-03-15 12:02:51:569,0,7.25747,-8.74145,-14.7029,Q,Q
2023-03-15 12:02:51:580,0,7.26632,-8.76223,-14.7094,Q,Q
2023-03-15 12:02:51:590,0,7.26652,-8.78558,-14.7163,Q,Q
2023-03-15 12:02:51:600,0,7.25919,-8.80964,-14.7239,Q,Q
2023-03-15 12:02:51:610,0,7.24251,-8.8333,-14.7303,Q,Q
2023-03-15 12:02:51:620,0,7.21946,-8.86049,-14.7368,Q,Q
2023-03-15 12:02:51:630,0,7.18272,-8.88073,-14.7421,Q,Q
2023-03-15 12:02:51:640,0,7.13448,-8.89883,-14.7485,Q,Q
2023-03-15 12:02:51:649,0,7.07131,-8.91411,-14.7571,Q,Q
2023-03-15 12:02:51:660,0,6.99882,-8.92046,-14.7653,Q,Q
2023-03-15 12:02:51:670,0,6.92299,-8.92012,-14.7781,Q,Q
2023-03-15 12:02:51:680,0,6.84462,-8.91947,-14.7932,Q,Q
2023-03-15 12:02:51:690,0,6.76244,-8.91202,-14.8096,Q,Q
2023-03-15 12:02:51:699,0,6.6852,-8.90226,-14.8244,Q,Q
2023-03-15 12:02:51:709,0,6.61239,-8.89588,-14.8414,Q,Q
2023-03-15 12:02:51:720,0,6.54215,-8.89294,-14.8525,Q,Q
2023-03-15 12:02:51:730,0,6.47927,-8.88641,-14.8686,Q,Q
2023-03-15 12:02:51:740,0,6.41504,-8.87897,-14.8847,Q,Q
2023-03-15 12:02:51:750,0,6.35193,-8.86315,-14.9092,Q,Q
2023-03-15 12:02:51:759,0,6.28771,-8.84314,-14.9341,Q,Q
2023-03-15 12:02:51:770,0,6.22114,-8.81591,-14.9614,Q,Q
2023-03-15 12:02:51:780,0,6.15583,-8.78083,-14.9878,Q,Q
2023-03-15 12:02:51:789,0,6.08701,-8.74351,-15.0123,Q,Q
2023-03-15 12:02:51:799,0,6.02001,-8.70337,-15.036,Q,Q
2023-03-15 12:02:51:810,0,5.95847,-8.66126,-15.0584,Q,Q
2023-03-15 12:02:51:820,0,5.90034,-8.61797,-15.0753,Q,Q
2023-03-15 12:02:51:829,0,5.84426,-8.57501,-15.0908,Q,Q
2023-03-15 12:02:51:839,0,5.79226,-8.53395,-15.1006,Q,Q
2023-03-15 12:02:51:849,0,5.73768,-8.49608,-15.1071,Q,Q
2023-03-15 12:02:51:860,0,5.68747,-8.45079,-15.1121,Q,Q
2023-03-15 12:02:51:870,0,5.63992,-8.39542,-15.1144,Q,Q
2023-03-15 12:02:51:880,0,5.58367,-8.33268,-15.1121,Q,Q
2023-03-15 12:02:51:890,0,5.51266,-8.25818,-15.1128,Q,Q
2023-03-15 12:02:51:899,0,5.45267,-8.17885,-15.1189,Q,Q
2023-03-15 12:02:51:910,0,5.40183,-8.09656,-15.1249,Q,Q
2023-03-15 12:02:51:920,0,5.3542,-8.01768,-15.129,Q,Q
2023-03-15 12:02:51:930,0,5.29794,-7.94812,-15.1307,Q,Q
2023-03-15 12:02:51:940,0,5.24779,-7.88644,-15.1317,Q,Q
2023-03-15 12:02:51:950,0,5.19001,-7.84135,-15.1309,Q,Q
2023-03-15 12:02:51:960,0,5.13368,-7.80634,-15.1322,Q,Q
2023-03-15 12:02:51:970,0,5.08044,-7.78117,-15.1353,Q,Q
2023-03-15 12:02:51:980,0,5.03699,-7.76639,-15.1403,Q,Q
2023-03-15 12:02:51:990,0,5.00004,-7.75284,-15.145,Q,Q
2023-03-15 12:02:52:0,0,4.96616,-7.74716,-15.1554,Q,Q
2023-03-15 12:02:52:10,0,4.93347,-7.74321,-15.1662,Q,Q
2023-03-15 12:02:52:20,0,4.9088,-7.74286,-15.1753,Q,Q
2023-03-15 12:02:52:30,0,4.89241,-7.74413,-15.1894,Q,Q
2023-03-15 12:02:52:40,0,4.88012,-7.7449,-15.2063,Q,Q
2023-03-15 12:02:52:50,0,4.87438,-7.74794,-15.2276,Q,Q
2023-03-15 12:02:52:60,0,4.86438,-7.74891,-15.2512,Q,Q
2023-03-15 12:02:52:70,0,4.84928,-7.75216,-15.2773,Q,Q
2023-03-15 12:02:52:80,0,4.83356,-7.75006,-15.3048,Q,Q
2023-03-15 12:02:52:90,0,4.81358,-7.74817,-15.3316,Q,Q
2023-03-15 12:02:52:100,0,4.79511,-7.74684,-15.3596,Q,Q
2023-03-15 12:02:52:110,0,4.77709,-7.7479,-15.3827,Q,Q
2023-03-15 12:02:52:120,0,4.75608,-7.7502,-15.4063,Q,Q
2023-03-15 12:02:52:130,0,4.73065,-7.75485,-15.4252,Q,Q
2023-03-15 12:02:52:140,0,4.70119,-7.75768,-15.4389,Q,Q
2023-03-15 12:02:52:150,0,4.66913,-7.759,-15.4527,Q,Q
2023-03-15 12:02:52:160,0,4.63246,-7.75639,-15.4636,Q,Q
2023-03-15 12:02:52:170,0,4.59218,-7.75268,-15.4691,Q,Q
2023-03-15 12:02:52:180,0,4.55372,-7.74245,-15.469,Q,Q
2023-03-15 12:02:52:190,0,4.51322,-7.72959,-15.4664,Q,Q
2023-03-15 12:02:52:200,0,4.47267,-7.71744,-15.4545,Q,Q
2023-03-15 12:02:52:210,0,4.43054,-7.70331,-15.4378,Q,Q
2023-03-15 12:02:52:220,0,4.38944,-7.6943,-15.4171,Q,Q
2023-03-15 12:02:52:230,0,4.3596,-7.68825,-15.3969,Q,Q
2023-03-15 12:02:52:240,0,4.34128,-7.67672,-15.3742,Q,Q
2023-03-15 12:02:52:250,0,4.3358,-7.66695,-15.3451,Q,Q
2023-03-15 12:02:52:260,0,4.34028,-7.66493,-15.3109,Q,Q
2023-03-15 12:02:52:270,0,4.34737,-7.66179,-15.2712,Q,Q
2023-03-15 12:02:52:280,0,4.35311,-7.65921,-15.2336,Q,Q
2023-03-15 12:02:52:289,0,4.35399,-7.65277,-15.1951,Q,Q
2023-03-15 12:02:52:299,0,4.34214,-7.64922,-15.1581,Q,Q
2023-03-15 12:02:52:309,0,4.32308,-7.64433,-15.1266,Q,Q
2023-03-15 12:02:52:319,0,4.29754,-7.64366,-15.0915,Q,Q
2023-03-15 12:02:52:330,0,4.27591,-7.64913,-15.064,Q,Q
2023-03-15 12:02:52:339,0,4.26392,-7.66007,-15.0401,Q,Q
2023-03-15 12:02:52:349,0,4.27042,-7.67581,-15.02,Q,Q
2023-03-15 12:02:52:359,0,4.28941,-7.68976,-15.0037,Q,Q
2023-03-15 12:02:52:370,0,4.31151,-7.70204,-14.9909,Q,Q
2023-03-15 12:02:52:380,0,4.33729,-7.70832,-14.9807,Q,Q
2023-03-15 12:02:52:389,0,4.35407,-7.70977,-14.9671,Q,Q
2023-03-15 12:02:52:400,0,4.36018,-7.70999,-14.957,Q,Q
2023-03-15 12:02:52:410,0,4.35772,-7.7076,-14.9492,Q,Q
2023-03-15 12:02:52:420,0,4.34946,-7.70961,-14.9425,Q,Q
2023-03-15 12:02:52:430,0,4.34087,-7.71858,-14.9366,Q,Q
2023-03-15 12:02:52:440,0,4.33467,-7.7338,-14.9356,Q,Q
2023-03-15 12:02:52:450,0,4.33303,-7.75226,-14.9375,Q,Q
2023-03-15 12:02:52:460,0,4.33844,-7.76461,-14.9419,Q,Q
2023-03-15 12:02:52:470,0,4.34893,-7.77496,-14.9516,Q,Q
2023-03-15 12:02:52:480,0,4.36365,-7.77845,-14.9651,Q,Q
2023-03-15 12:02:52:490,0,4.36973,-7.77678,-14.9748,Q,Q
2023-03-15 12:02:52:500,0,4.37053,-7.77147,-14.9864,Q,Q
2023-03-15 12:02:52:510,0,4.35891,-7.76066,-14.9988,Q,Q
2023-03-15 12:02:52:520,0,4.33791,-7.75347,-15.0084,Q,Q
2023-03-15 12:02:52:530,0,4.30391,-7.74498,-15.0201,Q,Q
2023-03-15 12:02:52:540,0,4.25835,-7.74204,-15.0284,Q,Q
2023-03-15 12:02:52:550,0,4.20599,-7.73592,-15.0429,Q,Q
2023-03-15 12:02:52:560,0,4.14727,-7.7312,-15.0587,Q,Q
2023-03-15 12:02:52:570,0,4.0848,-7.72541,-15.0758,Q,Q
2023-03-15 12:02:52:580,0,4.02374,-7.71818,-15.1008,Q,Q
2023-03-15 12:02:52:590,0,3.9639,-7.71291,-15.1255,Q,Q
2023-03-15 12:02:52:600,0,3.90709,-7.70559,-15.1561,Q,Q
2023-03-15 12:02:52:610,0,3.85271,-7.69895,-15.1892,Q,Q
2023-03-15 12:02:52:620,0,3.80505,-7.69242,-15.2245,Q,Q
2023-03-15 12:02:52:630,0,3.76783,-7.69034,-15.2597,Q,Q
2023-03-15 12:02:52:640,0,3.7389,-7.69227,-15.2917,Q,Q
2023-03-15 12:02:52:650,0,3.718,-7.69691,-15.3268,Q,Q
2023-03-15 12:02:52:660,0,3.70247,-7.69288,-15.3606,Q,Q
2023-03-15 12:02:52:670,0,3.69275,-7.68602,-15.3925,Q,Q
2023-03-15 12:02:52:680,0,3.67991,-7.68028,-15.4191,Q,Q
2023-03-15 12:02:52:690,0,3.66812,-7.67896,-15.4457,Q,Q
2023-03-15 12:02:52:700,0,3.65542,-7.67765,-15.4632,Q,Q
2023-03-15 12:02:52:710,0,3.64171,-7.67887,-15.4725,Q,Q
2023-03-15 12:02:52:720,0,3.63461,-7.67542,-15.482,Q,Q
2023-03-15 12:02:52:730,0,3.6189,-7.66807,-15.4888,Q,Q
2023-03-15 12:02:52:740,0,3.59543,-7.65458,-15.4892,Q,Q
2023-03-15 12:02:52:750,0,3.56265,-7.63765,-15.4952,Q,Q
2023-03-15 12:02:52:760,0,3.52538,-7.61884,-15.502,Q,Q
2023-03-15 12:02:52:770,0,3.48704,-7.60134,-15.5084,Q,Q
2023-03-15 12:02:52:780,0,3.4538,-7.58126,-15.5123,Q,Q
2023-03-15 12:02:52:790,0,3.4269,-7.56586,-15.5159,Q,Q
2023-03-15 12:02:52:799,0,3.40964,-7.55112,-15.5179,Q,Q
2023-03-15 12:02:52:809,0,3.39433,-7.53839,-15.5209,Q,Q
2023-03-15 12:02:52:820,0,3.37294,-7.51921,-15.5266,Q,Q
2023-03-15 12:02:52:830,0,3.35152,-7.49495,-15.5353,Q,Q
2023-03-15 12:02:52:840,0,3.3266,-7.4675,-15.5386,Q,Q
2023-03-15 12:02:52:849,0,3.30337,-7.43621,-15.5423,Q,Q
2023-03-15 12:02:52:859,0,3.28456,-7.40849,-15.5384,Q,Q
2023-03-15 12:02:52:870,0,3.27134,-7.38112,-15.5334,Q,Q
2023-03-15 12:02:52:880,0,3.26579,-7.35653,-15.524,Q,Q
2023-03-15 12:02:52:890,0,3.26139,-7.33508,-15.5148,Q,Q
2023-03-15 12:02:52:900,0,3.2508,-7.31014,-15.4987,Q,Q
2023-03-15 12:02:52:910,0,3.24158,-7.28527,-15.4819,Q,Q
2023-03-15 12:02:52:920,0,3.22643,-7.26595,-15.4637,Q,Q
2023-03-15 12:02:52:930,0,3.20615,-7.24851,-15.4445,Q,Q
2023-03-15 12:02:52:940,0,3.1768,-7.23301,-15.4269,Q,Q
2023-03-15 12:02:52:950,0,3.13996,-7.21934,-15.4136,Q,Q
2023-03-15 12:02:52:960,0,3.1043,-7.20712,-15.4019,Q,Q
2023-03-15 12:02:52:970,0,3.08238,-7.19926,-15.3934,Q,Q
2023-03-15 12:02:52:980,0,3.0704,-7.19524,-15.3786,Q,Q
2023-03-15 12:02:52:990,0,3.06855,-7.19166,-15.3636,Q,Q
2023-03-15 12:02:53:0,0,3.06635,-7.18625,-15.349,Q,Q
2023-03-15 12:02:53:10,0,3.0562,-7.17229,-15.3358,Q,Q
2023-03-15 12:02:53:20,0,3.03688,-7.15636,-15.3276,Q,Q
2023-03-15 12:02:53:30,0,3.01233,-7.14103,-15.3207,Q,Q
2023-03-15 12:02:53:40,0,2.98638,-7.12719,-15.3167,Q,Q
2023-03-15 12:02:53:50,0,2.96152,-7.11626,-15.3128,Q,Q
2023-03-15 12:02:53:60,0,2.93452,-7.10727,-15.3061,Q,Q
2023-03-15 12:02:53:70,0,2.91354,-7.09924,-15.2993,Q,Q
2023-03-15 12:02:53:80,0,2.90072,-7.09152,-15.2953,Q,Q
2023-03-15 12:02:53:90,0,2.89516,-7.07605,-15.2932,Q,Q
2023-03-15 12:02:53:100,0,2.89949,-7.05898,-15.2805,Q,Q
2023-03-15 12:02:53:110,0,2.9088,-7.04268,-15.2633,Q,Q
2023-03-15 12:02:53:120,0,2.92321,-7.03548,-15.2459,Q,Q
2023-03-15 12:02:53:130,0,2.93833,-7.03649,-15.2289,Q,Q
2023-03-15 12:02:53:140,0,2.94419,-7.03636,-15.2181,Q,Q
2023-03-15 12:02:53:150,0,2.9389,-7.03224,-15.2093,Q,Q
2023-03-15 12:02:53:160,0,2.92376,-7.02673,-15.2095,Q,Q
2023-03-15 12:02:53:170,0,2.90918,-7.0212,-15.2091,Q,Q
2023-03-15 12:02:53:180,0,2.88722,-7.01962,-15.2055,Q,Q
2023-03-15 12:02:53:190,0,2.8622,-7.02926,-15.2038,Q,Q
2023-03-15 12:02:53:200,0,2.82914,-7.04094,-15.2044,Q,Q
2023-03-15 12:02:53:210,0,2.79047,-7.05242,-15.2113,Q,Q
2023-03-15 12:02:53:220,0,2.75083,-7.05928,-15.2201,Q,Q
2023-03-15 12:02:53:230,0,2.69841,-7.06469,-15.2323,Q,Q
2023-03-15 12:02:53:240,0,2.63191,-7.0669,-15.2452,Q,Q
2023-03-15 12:02:53:250,0,2.56864,-7.06778,-15.2587,Q,Q
2023-03-15 12:02:53:260,0,2.50385,-7.07129,-15.2712,Q,Q
2023-03-15 12:02:53:270,0,2.44896,-7.07203,-15.2879,Q,Q
2023-03-15 12:02:53:279,0,2.4056,-7.0674,-15.301,Q,Q
2023-03-15 12:02:53:289,0,2.36932,-7.05483,-15.3055,Q,Q
2023-03-15 12:02:53:299,0,2.33291,-7.04154,-15.3078,Q,Q
2023-03-15 12:02:53:309,0,2.29425,-7.02751,-15.3052,Q,Q
2023-03-15 12:02:53:320,0,2.2469,-7.00886,-15.301,Q,Q
2023-03-15 12:02:53:330,0,2.19914,-6.99693,-15.2977,Q,Q
2023-03-15 12:02:53:339,0,2.15148,-6.98683,-15.2926,Q,Q
2023-03-15 12:02:53:350,0,2.09918,-6.97608,-15.2904,Q,Q
2023-03-15 12:02:53:360,0,2.05282,-6.9623,-15.2886,Q,Q
2023-03-15 12:02:53:370,0,2.0046,-6.94534,-15.2873,Q,Q
2023-03-15 12:02:53:380,0,1.9521,-6.92411,-15.2826,Q,Q
2023-03-15 12:02:53:390,0,1.89464,-6.90392,-15.2784,Q,Q
2023-03-15 12:02:53:400,0,1.83676,-6.87668,-15.2749,Q,Q
2023-03-15 12:02:53:410,0,1.77831,-6.85052,-15.2715,Q,Q
2023-03-15 12:02:53:420,0,1.71932,-6.81921,-15.2699,Q,Q
2023-03-15 12:02:53:430,0,1.66359,-6.78749,-15.2722,Q,Q
2023-03-15 12:02:53:440,0,1.61986,-6.75828,-15.2793,Q,Q
2023-03-15 12:02:53:450,0,1.58214,-6.73265,-15.2869,Q,Q
2023-03-15 12:02:53:460,0,1.54966,-6.70516,-15.2932,Q,Q
2023-03-15 12:02:53:469,0,1.52136,-6.67744,-15.2996,Q,Q
2023-03-15 12:02:53:480,0,1.49504,-6.65241,-15.3102,Q,Q
2023-03-15 12:02:53:490,0,1.46602,-6.62466,-15.3228,Q,Q
2023-03-15 12:02:53:500,0,1.43405,-6.60157,-15.3357,Q,Q
2023-03-15 12:02:53:510,0,1.40567,-6.57573,-15.3486,Q,Q
2023-03-15 12:02:53:520,0,1.37745,-6.55536,-15.3643,Q,Q
2023-03-15 12:02:53:530,0,1.35518,-6.5329,-15.3833,Q,Q
2023-03-15 12:02:53:540,0,1.33643,-6.50881,-15.41,Q,Q
2023-03-15 12:02:53:550,0,1.31805,-6.47906,-15.4355,Q,Q
2023-03-15 12:02:53:560,0,1.30055,-6.44605,-15.4559,Q,Q
2023-03-15 12:02:53:570,0,1.28106,-6.41215,-15.4761,Q,Q
2023-03-15 12:02:53:580,0,1.25836,-6.37626,-15.5003,Q,Q
2023-03-15 12:02:53:589,0,1.23273,-6.34011,-15.5249,Q,Q
2023-03-15 12:02:53:600,0,1.19901,-6.30356,-15.5459,Q,Q
2023-03-15 12:02:53:610,0,1.1619,-6.26741,-15.5687,Q,Q
2023-03-15 12:02:53:620,0,1.11878,-6.22669,-15.5917,Q,Q
2023-03-15 12:02:53:630,0,1.07689,-6.18922,-15.6097,Q,Q
2023-03-15 12:02:53:640,0,1.03499,-6.15364,-15.6293,Q,Q
2023-03-15 12:02:53:650,0,0.996282,-6.12481,-15.648,Q,Q
2023-03-15 12:02:53:660,0,0.966369,-6.09707,-15.6668,Q,Q
2023-03-15 12:02:53:670,0,0.945569,-6.06747,-15.6877,Q,Q
2023-03-15 12:02:53:680,0,0.926071,-6.03682,-15.7049,Q,Q
2023-03-15 12:02:53:690,0,0.917683,-6.00843,-15.7194,Q,Q
2023-03-15 12:02:53:700,0,0.912881,-5.97859,-15.7353,Q,Q
2023-03-15 12:02:53:710,0,0.910308,-5.94847,-15.7512,Q,Q
2023-03-15 12:02:53:720,0,0.904478,-5.92267,-15.7606,Q,Q
2023-03-15 12:02:53:730,0,0.895647,-5.8967,-15.7729,Q,Q
2023-03-15 12:02:53:740,0,0.885409,-5.87453,-15.7841,Q,Q
2023-03-15 12:02:53:750,0,0.880541,-5.8524,-15.7947,Q,Q
2023-03-15 12:02:53:760,0,0.871498,-5.8419,-15.8048,Q,Q
2023-03-15 12:02:53:770,0,0.865783,-5.83836,-15.8177,Q,Q
2023-03-15 12:02:53:780,0,0.861923,-5.83719,-15.83,Q,Q
2023-03-15 12:02:53:790,0,0.858208,-5.84152,-15.8461,Q,Q
2023-03-15 12:02:53:799,0,0.854312,-5.846,-15.8682,Q,Q
2023-03-15 12:02:53:809,0,0.850314,-5.84886,-15.8948,Q,Q
2023-03-15 12:02:53:820,0,0.842384,-5.84839,-15.9244,Q,Q
2023-03-15 12:02:53:830,0,0.833744,-5.84464,-15.951,Q,Q
2023-03-15 12:02:53:840,0,0.830239,-5.84384,-15.9786,Q,Q
2023-03-15 12:02:53:849,0,0.826309,-5.84207,-15.9982,Q,Q
2023-03-15 12:02:53:860,0,0.82337,-5.83758,-16.0173,Q,Q
2023-03-15 12:02:53:870,0,0.825438,-5.8321,-16.032,Q,Q
2023-03-15 12:02:53:880,0,0.830475,-5.82529,-16.0472,Q,Q
2023-03-15 12:02:53:889,0,0.839089,-5.82102,-16.0591,Q,Q
2023-03-15 12:02:53:900,0,0.851781,-5.81777,-16.0644,Q,Q
2023-03-15 12:02:53:910,0,0.872344,-5.81177,-16.0688,Q,Q
2023-03-15 12:02:53:920,0,0.896399,-5.80347,-16.0723,Q,Q
2023-03-15 12:02:53:930,0,0.923209,-5.7919,-16.0735,Q,Q
2023-03-15 12:02:53:940,0,0.959033,-5.77864,-16.073,Q,Q
2023-03-15 12:02:53:950,0,0.995853,-5.76635,-16.0712,Q,Q
2023-03-15 12:02:53:960,0,1.03709,-5.75624,-16.071,Q,Q
2023-03-15 12:02:53:969,0,1.08336,-5.74216,-16.076,Q,Q
2023-03-15 12:02:53:980,0,1.12888,-5.73473,-16.0788,Q,Q
2023-03-15 12:02:53:990,0,1.1718,-5.72757,-16.082,Q,Q
2023-03-15 12:02:54:0,0,1.20951,-5.72043,-16.0863,Q,Q
2023-03-15 12:02:54:10,0,1.24631,-5.72271,-16.0937,Q,Q
2023-03-15 12:02:54:20,0,1.27565,-5.72718,-16.1017,Q,Q
2023-03-15 12:02:54:30,0,1.30084,-5.7263,-16.1131,Q,Q
2023-03-15 12:02:54:40,0,1.31734,-5.72285,-16.1211,Q,Q
2023-03-15 12:02:54:50,0,1.329,-5.72403,-16.1254,Q,Q
2023-03-15 12:02:54:60,0,1.33212,-5.71962,-16.1356,Q,Q
2023-03-15 12:02:54:70,0,1.33495,-5.71461,-16.1398,Q,Q
2023-03-15 12:02:54:80,0,1.33847,-5.70888,-16.1391,Q,Q
2023-03-15 12:02:54:90,0,1.34248,-5.70547,-16.1353,Q,Q
2023-03-15 12:02:54:100,0,1.34702,-5.70217,-16.1246,Q,Q
2023-03-15 12:02:54:110,0,1.35127,-5.69736,-16.1122,Q,Q
2023-03-15 12:02:54:120,0,1.35328,-5.6898,-16.0964,Q,Q
2023-03-15 12:02:54:130,0,1.3619,-5.6846,-16.0821,Q,Q
2023-03-15 12:02:54:140,0,1.36978,-5.68198,-16.0623,Q,Q
2023-03-15 12:02:54:150,0,1.3756,-5.67972,-16.0455,Q,Q
2023-03-15 12:02:54:160,0,1.38144,-5.67847,-16.0261,Q,Q
2023-03-15 12:02:54:170,0,1.38942,-5.67367,-16.013,Q,Q
2023-03-15 12:02:54:180,0,1.39367,-5.66899,-15.9993,Q,Q
2023-03-15 12:02:54:190,0,1.40236,-5.66348,-15.9955,Q,Q
2023-03-15 12:02:54:200,0,1.41531,-5.6582,-15.9893,Q,Q
2023-03-15 12:02:54:210,0,1.43474,-5.65225,-15.9858,Q,Q
2023-03-15 12:02:54:220,0,1.45986,-5.64893,-15.9823,Q,Q
2023-03-15 12:02:54:230,0,1.48079,-5.6446,-15.9816,Q,Q
2023-03-15 12:02:54:240,0,1.50429,-5.64188,-15.978,Q,Q
2023-03-15 12:02:54:250,0,1.51897,-5.64199,-15.976,Q,Q
2023-03-15 12:02:54:260,0,1.52919,-5.64417,-15.9717,Q,Q
2023-03-15 12:02:54:270,0,1.53125,-5.65029,-15.9701,Q,Q
2023-03-15 12:02:54:280,0,1.53333,-5.65416,-15.9684,Q,Q
2023-03-15 12:02:54:289,0,1.53975,-5.65881,-15.9689,Q,Q
2023-03-15 12:02:54:299,0,1.54648,-5.66443,-15.9685,Q,Q
2023-03-15 12:02:54:309,0,1.55379,-5.66741,-15.9658,Q,Q
2023-03-15 12:02:54:319,0,1.55994,-5.67549,-15.9603,Q,Q
2023-03-15 12:02:54:329,0,1.56644,-5.68711,-15.9564,Q,Q
2023-03-15 12:02:54:339,0,1.57781,-5.69452,-15.9505,Q,Q
2023-03-15 12:02:54:349,0,1.58612,-5.7037,-15.9483,Q,Q
2023-03-15 12:02:54:359,0,1.59504,-5.71307,-15.9459,Q,Q
2023-03-15 12:02:54:370,0,1.60188,-5.71909,-15.9422,Q,Q
2023-03-15 12:02:54:380,0,1.60626,-5.72778,-15.9361,Q,Q
2023-03-15 12:02:54:390,0,1.60558,-5.73642,-15.9323,Q,Q
2023-03-15 12:02:54:400,0,1.60691,-5.74068,-15.9291,Q,Q
2023-03-15 12:02:54:410,0,1.60426,-5.73825,-15.927,Q,Q
2023-03-15 12:02:54:420,0,1.60228,-5.73304,-15.9293,Q,Q
2023-03-15 12:02:54:430,0,1.60188,-5.72578,-15.9305,Q,Q
2023-03-15 12:02:54:440,0,1.60252,-5.72313,-15.9329,Q,Q
2023-03-15 12:02:54:450,0,1.60727,-5.73025,-15.9422,Q,Q
2023-03-15 12:02:54:460,0,1.61918,-5.73821,-15.958,Q,Q
2023-03-15 12:02:54:470,0,1.63683,-5.73842,-15.9719,Q,Q
2023-03-15 12:02:54:480,0,1.64307,-5.73694,-15.9793,Q,Q
2023-03-15 12:02:54:490,0,1.63822,-5.7368,-15.9797,Q,Q
2023-03-15 12:02:54:500,0,1.62574,-5.7419,-15.9832,Q,Q
2023-03-15 12:02:54:509,0,1.61385,-5.75325,-15.9909,Q,Q
2023-03-15 12:02:54:519,0,1.60597,-5.76396,-15.9965,Q,Q
2023-03-15 12:02:54:529,0,1.60151,-5.76786,-16.0046,Q,Q
2023-03-15 12:02:54:539,0,1.59696,-5.77155,-16.0125,Q,Q
2023-03-15 12:02:54:549,0,1.5926,-5.77639,-16.0247,Q,Q
2023-03-15 12:02:54:559,0,1.58653,-5.7777,-16.0352,Q,Q
2023-03-15 12:02:54:569,0,1.58213,-5.77928,-16.0444,Q,Q
2023-03-15 12:02:54:579,0,1.56861,-5.78013,-16.056,Q,Q
2023-03-15 12:02:54:589,0,1.55384,-5.77866,-16.0666,Q,Q
2023-03-15 12:02:54:599,0,1.53707,-5.77289,-16.0717,Q,Q
2023-03-15 12:02:54:610,0,1.51497,-5.77219,-16.0759,Q,Q
2023-03-15 12:02:54:620,0,1.48742,-5.77108,-16.0782,Q,Q
2023-03-15 12:02:54:630,0,1.45269,-5.77222,-16.0798,Q,Q
2023-03-15 12:02:54:640,0,1.41356,-5.77449,-16.0833,Q,Q
2023-03-15 12:02:54:650,0,1.37279,-5.7877,-16.0897,Q,Q
2023-03-15 12:02:54:660,0,1.33816,-5.80201,-16.0966,Q,Q
2023-03-15 12:02:54:670,0,1.30506,-5.81997,-16.1076,Q,Q
2023-03-15 12:02:54:680,0,1.27495,-5.83565,-16.1156,Q,Q
2023-03-15 12:02:54:690,0,1.24734,-5.85107,-16.1282,Q,Q
2023-03-15 12:02:54:700,0,1.21653,-5.86101,-16.1426,Q,Q
2023-03-15 12:02:54:710,0,1.18632,-5.87182,-16.1503,Q,Q
2023-03-15 12:02:54:720,0,1.15963,-5.8761,-16.1543,Q,Q
2023-03-15 12:02:54:730,0,1.13039,-5.88426,-16.1578,Q,Q
2023-03-15 12:02:54:740,0,1.10418,-5.89226,-16.1611,Q,Q
2023-03-15 12:02:54:750,0,1.08601,-5.89949,-16.159,Q,Q
2023-03-15 12:02:54:760,0,1.07633,-5.90637,-16.1582,Q,Q
2023-03-15 12:02:54:770,0,1.06687,-5.91405,-16.1548,Q,Q
2023-03-15 12:02:54:780,0,1.05391,-5.92426,-16.1467,Q,Q
2023-03-15 12:02:54:790,0,1.04663,-5.93451,-16.1426,Q,Q
2023-03-15 12:02:54:799,0,1.03842,-5.949,-16.1404,Q,Q
2023-03-15 12:02:54:809,0,1.02376,-5.96759,-16.1402,Q,Q
2023-03-15 12:02:54:820,0,1.00064,-5.99131,-16.1418,Q,Q
2023-03-15 12:02:54:830,0,0.969529,-6.01333,-16.1488,Q,Q
2023-03-15 12:02:54:840,0,0.936649,-6.03212,-16.1575,Q,Q
2023-03-15 12:02:54:850,0,0.906129,-6.04161,-16.1668,Q,Q
2023-03-15 12:02:54:860,0,0.880829,-6.04441,-16.1735,Q,Q
2023-03-15 12:02:54:870,0,0.87015,-6.04932,-16.1754,Q,Q
2023-03-15 12:02:54:880,0,0.871556,-6.05135,-16.1691,Q,Q
2023-03-15 12:02:54:890,0,0.8749,-6.04795,-16.1536,Q,Q
2023-03-15 12:02:54:900,0,0.87573,-6.04415,-16.1322,Q,Q
2023-03-15 12:02:54:910,0,0.872103,-6.04175,-16.1067,Q,Q
2023-03-15 12:02:54:919,0,0.870968,-6.04402,-16.0791,Q,Q
2023-03-15 12:02:54:930,0,0.874175,-6.04463,-16.0466,Q,Q
2023-03-15 12:02:54:940,0,0.87775,-6.04389,-16.0096,Q,Q
2023-03-15 12:02:54:950,0,0.87851,-6.03345,-15.9711,Q,Q
2023-03-15 12:02:54:960,0,0.891488,-6.02672,-15.9342,Q,Q
2023-03-15 12:02:54:970,0,0.920525,-6.0185,-15.8877,Q,Q
2023-03-15 12:02:54:980,0,0.915399,-6.01172,-15.8343,Q,Q
2023-03-15 12:02:54:990,0,0.873648,-6.01655,-15.7929,Q,Q
2023-03-15 12:02:55:0,0,0.81617,-6.02836,-15.7652,Q,Q
2023-03-15 12:02:55:10,0,0.768148,-6.03592,-15.7509,Q,Q
2023-03-15 12:02:55:20,0,0.739335,-6.04052,-15.7408,Q,Q
2023-03-15 12:02:55:30,0,0.699996,-6.03554,-15.7343,Q,Q
2023-03-15 12:02:55:40,0,0.692811,-6.02956,-15.7318,Q,Q
2023-03-15 12:02:55:50,0,0.705334,-6.03333,-15.7306,Q,Q
2023-03-15 12:02:55:60,0,0.72114,-6.04926,-15.7404,Q,Q
2023-03-15 12:02:55:70,0,0.723989,-6.05999,-15.7561,Q,Q
2023-03-15 12:02:55:80,0,0.70392,-6.05311,-15.7686,Q,Q
