Timestamp_cmd,imu_cmd,roll_delta,pitch_delta,yaw_delta,voice_type,voice_length
2023-03-14 18:12:35:944,0,-12.5626,-1.37277,67.0096,Q,Q
2023-03-14 18:12:35:952,0,-12.5944,-1.37553,66.9512,Q,Q
2023-03-14 18:12:35:962,0,-12.6222,-1.37727,66.8934,Q,Q
2023-03-14 18:12:35:972,0,-12.6455,-1.38241,66.8397,Q,Q
2023-03-14 18:12:35:982,0,-12.6614,-1.38877,66.7883,Q,Q
2023-03-14 18:12:35:992,0,-12.6723,-1.39451,66.7395,Q,Q
2023-03-14 18:12:36:2,0,-12.6788,-1.40431,66.6965,Q,Q
2023-03-14 18:12:36:12,0,-12.6837,-1.4129,66.656,Q,Q
2023-03-14 18:12:36:22,0,-12.6842,-1.42556,66.6174,Q,Q
2023-03-14 18:12:36:32,0,-12.6869,-1.44132,66.5856,Q,Q
2023-03-14 18:12:36:42,0,-12.6835,-1.45747,66.5575,Q,Q
2023-03-14 18:12:36:52,0,-12.6781,-1.47246,66.5336,Q,Q
2023-03-14 18:12:36:62,0,-12.6652,-1.48895,66.5158,Q,Q
2023-03-14 18:12:36:72,0,-12.651,-1.50565,66.4946,Q,Q
2023-03-14 18:12:36:82,0,-12.6384,-1.51955,66.4746,Q,Q
2023-03-14 18:12:36:92,0,-12.624,-1.53296,66.4595,Q,Q
2023-03-14 18:12:36:102,0,-12.6074,-1.54915,66.4483,Q,Q
2023-03-14 18:12:36:112,0,-12.5893,-1.56373,66.4375,Q,Q
2023-03-14 18:12:36:122,0,-12.5782,-1.57851,66.4262,Q,Q
2023-03-14 18:12:36:132,0,-12.5659,-1.58803,66.4136,Q,Q
2023-03-14 18:12:36:142,0,-12.554,-1.59979,66.3963,Q,Q
2023-03-14 18:12:36:152,0,-12.5431,-1.60528,66.3748,Q,Q
2023-03-14 18:12:36:162,0,-12.5367,-1.61084,66.351,Q,Q
2023-03-14 18:12:36:172,0,-12.5309,-1.6158,66.3185,Q,Q
2023-03-14 18:12:36:182,0,-12.5261,-1.62206,66.2789,Q,Q
2023-03-14 18:12:36:192,0,-12.526,-1.62994,66.2378,Q,Q
2023-03-14 18:12:36:202,0,-12.527,-1.6381,66.1924,Q,Q
2023-03-14 18:12:36:212,0,-12.532,-1.64642,66.1445,Q,Q
2023-03-14 18:12:36:222,0,-12.5366,-1.65599,66.0958,Q,Q
2023-03-14 18:12:36:232,0,-12.5386,-1.66605,66.0454,Q,Q
2023-03-14 18:12:36:242,0,-12.5404,-1.6786,65.9964,Q,Q
2023-03-14 18:12:36:252,0,-12.5388,-1.68758,65.9471,Q,Q
2023-03-14 18:12:36:262,0,-12.5305,-1.69175,65.8977,Q,Q
2023-03-14 18:12:36:272,0,-12.5201,-1.699,65.8527,Q,Q
2023-03-14 18:12:36:282,0,-12.508,-1.70231,65.8104,Q,Q
2023-03-14 18:12:36:292,0,-12.4984,-1.71243,65.7725,Q,Q
2023-03-14 18:12:36:302,0,-12.4854,-1.72286,65.7388,Q,Q
2023-03-14 18:12:36:313,0,-12.4709,-1.73859,65.7083,Q,Q
2023-03-14 18:12:36:322,0,-12.457,-1.74842,65.6774,Q,Q
2023-03-14 18:12:36:333,0,-12.4442,-1.75858,65.6507,Q,Q
2023-03-14 18:12:36:342,0,-12.4269,-1.7687,65.6288,Q,Q
2023-03-14 18:12:36:352,0,-12.4126,-1.77925,65.6074,Q,Q
2023-03-14 18:12:36:362,0,-12.3928,-1.79123,65.5898,Q,Q
2023-03-14 18:12:36:372,0,-12.3764,-1.7992,65.577,Q,Q
2023-03-14 18:12:36:382,0,-12.361,-1.80701,65.5643,Q,Q
2023-03-14 18:12:36:392,0,-12.3444,-1.81333,65.5517,Q,Q
2023-03-14 18:12:36:402,0,-12.3287,-1.82271,65.5436,Q,Q
2023-03-14 18:12:36:412,0,-12.3146,-1.83175,65.538,Q,Q
2023-03-14 18:12:36:422,0,-12.3003,-1.84084,65.528,Q,Q
2023-03-14 18:12:36:432,0,-12.2915,-1.85182,65.5244,Q,Q
2023-03-14 18:12:36:442,0,-12.2804,-1.86348,65.5212,Q,Q
2023-03-14 18:12:36:452,0,-12.2715,-1.87685,65.5235,Q,Q
2023-03-14 18:12:36:462,0,-12.265,-1.88996,65.5245,Q,Q
2023-03-14 18:12:36:472,0,-12.2577,-1.89897,65.5222,Q,Q
2023-03-14 18:12:36:482,0,-12.2514,-1.90941,65.524,Q,Q
2023-03-14 18:12:36:492,0,-12.2438,-1.91733,65.5271,Q,Q
2023-03-14 18:12:36:502,0,-12.2393,-1.9282,65.5295,Q,Q
2023-03-14 18:12:36:512,0,-12.2307,-1.93959,65.534,Q,Q
2023-03-14 18:12:36:522,0,-12.2233,-1.9505,65.5413,Q,Q
2023-03-14 18:12:36:532,0,-12.2149,-1.96226,65.551,Q,Q
2023-03-14 18:12:36:542,0,-12.2093,-1.97465,65.5647,Q,Q
2023-03-14 18:12:36:552,0,-12.2052,-1.98484,65.5789,Q,Q
2023-03-14 18:12:36:562,0,-12.1982,-1.99681,65.5928,Q,Q
2023-03-14 18:12:36:572,0,-12.1914,-2.00419,65.6127,Q,Q
2023-03-14 18:12:36:582,0,-12.1888,-2.01128,65.6314,Q,Q
2023-03-14 18:12:36:592,0,-12.1808,-2.01774,65.6476,Q,Q
2023-03-14 18:12:36:602,0,-12.1752,-2.0297,65.6602,Q,Q
2023-03-14 18:12:36:612,0,-12.173,-2.03887,65.6685,Q,Q
2023-03-14 18:12:36:622,0,-12.1654,-2.04722,65.6804,Q,Q
2023-03-14 18:12:36:632,0,-12.1583,-2.05569,65.685,Q,Q
2023-03-14 18:12:36:642,0,-12.15,-2.05954,65.685,Q,Q
2023-03-14 18:12:36:652,0,-12.1438,-2.06529,65.6821,Q,Q
2023-03-14 18:12:36:662,0,-12.1358,-2.06617,65.6744,Q,Q
2023-03-14 18:12:36:672,0,-12.1241,-2.07168,65.6676,Q,Q
2023-03-14 18:12:36:682,0,-12.1122,-2.07459,65.656,Q,Q
2023-03-14 18:12:36:692,0,-12.0997,-2.07987,65.6472,Q,Q
2023-03-14 18:12:36:702,0,-12.0912,-2.08675,65.6377,Q,Q
2023-03-14 18:12:36:712,0,-12.0804,-2.09025,65.6296,Q,Q
2023-03-14 18:12:36:722,0,-12.0718,-2.09493,65.6166,Q,Q
2023-03-14 18:12:36:732,0,-12.0617,-2.10491,65.6088,Q,Q
2023-03-14 18:12:36:742,0,-12.0491,-2.1128,65.599,Q,Q
2023-03-14 18:12:36:752,0,-12.0388,-2.12515,65.5905,Q,Q
2023-03-14 18:12:36:762,0,-12.0248,-2.13591,65.5861,Q,Q
2023-03-14 18:12:36:772,0,-12.015,-2.14762,65.5822,Q,Q
2023-03-14 18:12:36:782,0,-12.0034,-2.15765,65.582,Q,Q
2023-03-14 18:12:36:792,0,-11.9985,-2.16595,65.5844,Q,Q
2023-03-14 18:12:36:802,0,-11.9932,-2.17953,65.5843,Q,Q
2023-03-14 18:12:36:812,0,-11.981,-2.19281,65.5811,Q,Q
2023-03-14 18:12:36:822,0,-11.9648,-2.20673,65.5778,Q,Q
2023-03-14 18:12:36:832,0,-11.9441,-2.22067,65.5682,Q,Q
2023-03-14 18:12:36:842,0,-11.9198,-2.23645,65.5526,Q,Q
2023-03-14 18:12:36:852,0,-11.8922,-2.24966,65.5346,Q,Q
2023-03-14 18:12:36:862,0,-11.8645,-2.26195,65.5105,Q,Q
2023-03-14 18:12:36:872,0,-11.8334,-2.27112,65.4745,Q,Q
2023-03-14 18:12:36:882,0,-11.8053,-2.28063,65.4308,Q,Q
2023-03-14 18:12:36:892,0,-11.7802,-2.28738,65.3824,Q,Q
2023-03-14 18:12:36:902,0,-11.759,-2.29183,65.3326,Q,Q
2023-03-14 18:12:36:912,0,-11.7476,-2.30005,65.2819,Q,Q
2023-03-14 18:12:36:922,0,-11.7424,-2.31114,65.2289,Q,Q
2023-03-14 18:12:36:933,0,-11.7401,-2.33323,65.1792,Q,Q
2023-03-14 18:12:36:943,0,-11.7396,-2.36656,65.1059,Q,Q
2023-03-14 18:12:36:952,0,-11.7309,-2.40003,64.9949,Q,Q
2023-03-14 18:12:36:962,0,-11.7114,-2.43767,64.839,Q,Q
2023-03-14 18:12:36:972,0,-11.6815,-2.47828,64.6393,Q,Q
2023-03-14 18:12:36:982,0,-11.6479,-2.52254,64.4083,Q,Q
2023-03-14 18:12:36:992,0,-11.6132,-2.56517,64.1514,Q,Q
2023-03-14 18:12:37:2,0,-11.5775,-2.6034,63.8764,Q,Q
2023-03-14 18:12:37:12,0,-11.5385,-2.64017,63.5886,Q,Q
2023-03-14 18:12:37:22,0,-11.5014,-2.67044,63.2992,Q,Q
2023-03-14 18:12:37:32,0,-11.4654,-2.69778,63.0141,Q,Q
2023-03-14 18:12:37:42,0,-11.432,-2.71446,62.7347,Q,Q
2023-03-14 18:12:37:52,0,-11.3967,-2.7252,62.4591,Q,Q
2023-03-14 18:12:37:63,0,-11.3681,-2.72699,62.1989,Q,Q
2023-03-14 18:12:37:72,0,-11.35,-2.72448,61.9589,Q,Q
2023-03-14 18:12:37:82,0,-11.3375,-2.71945,61.7415,Q,Q
2023-03-14 18:12:37:92,0,-11.3299,-2.71222,61.544,Q,Q
2023-03-14 18:12:37:102,0,-11.3307,-2.70298,61.3588,Q,Q
2023-03-14 18:12:37:112,0,-11.3303,-2.69436,61.1864,Q,Q
2023-03-14 18:12:37:123,0,-11.3197,-2.69027,61.0122,Q,Q
2023-03-14 18:12:37:133,0,-11.302,-2.68943,60.8308,Q,Q
2023-03-14 18:12:37:142,0,-11.2777,-2.69629,60.6368,Q,Q
2023-03-14 18:12:37:152,0,-11.2451,-2.7072,60.423,Q,Q
2023-03-14 18:12:37:163,0,-11.2145,-2.72462,60.1962,Q,Q
2023-03-14 18:12:37:173,0,-11.1899,-2.7545,59.9646,Q,Q
2023-03-14 18:12:37:183,0,-11.1763,-2.79521,59.7044,Q,Q
2023-03-14 18:12:37:192,0,-11.1586,-2.84902,59.3892,Q,Q
2023-03-14 18:12:37:202,0,-11.1211,-2.9148,58.992,Q,Q
2023-03-14 18:12:37:213,0,-11.0596,-2.99334,58.4846,Q,Q
2023-03-14 18:12:37:222,0,-10.9765,-3.07937,57.8637,Q,Q
2023-03-14 18:12:37:232,0,-10.8832,-3.18302,57.1443,Q,Q
2023-03-14 18:12:37:242,0,-10.792,-3.31301,56.3344,Q,Q
2023-03-14 18:12:37:252,0,-10.71,-3.4742,55.4282,Q,Q
2023-03-14 18:12:37:262,0,-10.6341,-3.65959,54.4198,Q,Q
2023-03-14 18:12:37:272,0,-10.5594,-3.85683,53.3,Q,Q
2023-03-14 18:12:37:282,0,-10.4728,-4.05686,52.0594,Q,Q
2023-03-14 18:12:37:292,0,-10.3693,-4.25332,50.7075,Q,Q
2023-03-14 18:12:37:302,0,-10.2505,-4.44744,49.2719,Q,Q
2023-03-14 18:12:37:312,0,-10.1219,-4.64228,47.7887,Q,Q
2023-03-14 18:12:37:322,0,-9.98987,-4.83857,46.284,Q,Q
2023-03-14 18:12:37:332,0,-9.85823,-5.03162,44.769,Q,Q
2023-03-14 18:12:37:343,0,-9.73064,-5.20847,43.2649,Q,Q
2023-03-14 18:12:37:352,0,-9.608,-5.36648,41.7834,Q,Q
2023-03-14 18:12:37:363,0,-9.493,-5.50805,40.3388,Q,Q
2023-03-14 18:12:37:372,0,-9.38314,-5.6293,38.9364,Q,Q
2023-03-14 18:12:37:383,0,-9.26932,-5.7278,37.5853,Q,Q
2023-03-14 18:12:37:392,0,-9.15896,-5.80165,36.3061,Q,Q
2023-03-14 18:12:37:402,0,-9.06201,-5.85283,35.1189,Q,Q
2023-03-14 18:12:37:412,0,-8.98858,-5.889,34.0369,Q,Q
2023-03-14 18:12:37:422,0,-8.94489,-5.91222,33.0615,Q,Q
2023-03-14 18:12:37:432,0,-8.93317,-5.92582,32.1932,Q,Q
2023-03-14 18:12:37:442,0,-8.93452,-5.91933,31.4083,Q,Q
2023-03-14 18:12:37:452,0,-8.93872,-5.89123,30.7029,Q,Q
2023-03-14 18:12:37:462,0,-8.94762,-5.84885,30.0852,Q,Q
2023-03-14 18:12:37:472,0,-8.96529,-5.79746,29.5584,Q,Q
2023-03-14 18:12:37:482,0,-8.99072,-5.7462,29.1066,Q,Q
2023-03-14 18:12:37:492,0,-9.0227,-5.68886,28.7209,Q,Q
2023-03-14 18:12:37:503,0,-9.05314,-5.629,28.3823,Q,Q
2023-03-14 18:12:37:513,0,-9.08263,-5.56428,28.0787,Q,Q
2023-03-14 18:12:37:523,0,-9.11209,-5.49405,27.8103,Q,Q
2023-03-14 18:12:37:533,0,-9.1474,-5.43115,27.5778,Q,Q
2023-03-14 18:12:37:542,0,-9.18542,-5.37451,27.3661,Q,Q
2023-03-14 18:12:37:552,0,-9.22261,-5.32727,27.1651,Q,Q
2023-03-14 18:12:37:563,0,-9.25096,-5.28772,26.9727,Q,Q
2023-03-14 18:12:37:572,0,-9.27892,-5.25862,26.7934,Q,Q
2023-03-14 18:12:37:582,0,-9.3079,-5.23902,26.6242,Q,Q
2023-03-14 18:12:37:592,0,-9.33872,-5.22816,26.4579,Q,Q
2023-03-14 18:12:37:603,0,-9.36365,-5.22629,26.2912,Q,Q
2023-03-14 18:12:37:613,0,-9.39145,-5.23979,26.1184,Q,Q
2023-03-14 18:12:37:623,0,-9.41771,-5.25282,25.9364,Q,Q
2023-03-14 18:12:37:632,0,-9.4367,-5.26111,25.7432,Q,Q
2023-03-14 18:12:37:643,0,-9.4486,-5.27478,25.5423,Q,Q
2023-03-14 18:12:37:653,0,-9.4663,-5.2917,25.348,Q,Q
2023-03-14 18:12:37:663,0,-9.49536,-5.31657,25.153,Q,Q
2023-03-14 18:12:37:672,0,-9.53342,-5.346,24.9515,Q,Q
2023-03-14 18:12:37:682,0,-9.57413,-5.37462,24.7504,Q,Q
2023-03-14 18:12:37:692,0,-9.60879,-5.39827,24.5452,Q,Q
2023-03-14 18:12:37:703,0,-9.64392,-5.41692,24.3359,Q,Q
2023-03-14 18:12:37:713,0,-9.67843,-5.4284,24.1261,Q,Q
2023-03-14 18:12:37:723,0,-9.71807,-5.43655,23.9258,Q,Q
2023-03-14 18:12:37:732,0,-9.75118,-5.44308,23.7416,Q,Q
2023-03-14 18:12:37:743,0,-9.79685,-5.44755,23.5762,Q,Q
2023-03-14 18:12:37:753,0,-9.855,-5.45255,23.4198,Q,Q
2023-03-14 18:12:37:763,0,-9.9157,-5.45927,23.2793,Q,Q
2023-03-14 18:12:37:773,0,-9.96963,-5.46233,23.1509,Q,Q
2023-03-14 18:12:37:782,0,-10.024,-5.46111,23.0298,Q,Q
2023-03-14 18:12:37:792,0,-10.0771,-5.44582,22.9181,Q,Q
2023-03-14 18:12:37:802,0,-10.1248,-5.42464,22.8136,Q,Q
2023-03-14 18:12:37:812,0,-10.1725,-5.40002,22.7254,Q,Q
2023-03-14 18:12:37:822,0,-10.2272,-5.37441,22.655,Q,Q
2023-03-14 18:12:37:832,0,-10.2911,-5.35021,22.6065,Q,Q
2023-03-14 18:12:37:842,0,-10.358,-5.32973,22.5746,Q,Q
2023-03-14 18:12:37:853,0,-10.4255,-5.31117,22.5524,Q,Q
2023-03-14 18:12:37:863,0,-10.4901,-5.29566,22.5555,Q,Q
2023-03-14 18:12:37:873,0,-10.5537,-5.27901,22.5753,Q,Q
2023-03-14 18:12:37:883,0,-10.62,-5.26426,22.6113,Q,Q
2023-03-14 18:12:37:892,0,-10.6812,-5.25124,22.666,Q,Q
2023-03-14 18:12:37:903,0,-10.741,-5.24003,22.7394,Q,Q
2023-03-14 18:12:37:912,0,-10.8135,-5.22618,22.8376,Q,Q
2023-03-14 18:12:37:922,0,-10.8902,-5.22365,22.9519,Q,Q
2023-03-14 18:12:37:933,0,-10.9698,-5.21488,23.078,Q,Q
2023-03-14 18:12:37:943,0,-11.0487,-5.20507,23.2168,Q,Q
2023-03-14 18:12:37:953,0,-11.1155,-5.19209,23.3642,Q,Q
2023-03-14 18:12:37:962,0,-11.1765,-5.18145,23.5216,Q,Q
2023-03-14 18:12:37:972,0,-11.2315,-5.17095,23.6899,Q,Q
2023-03-14 18:12:37:982,0,-11.2918,-5.15463,23.8733,Q,Q
2023-03-14 18:12:37:992,0,-11.3581,-5.14017,24.0783,Q,Q
2023-03-14 18:12:38:2,0,-11.4318,-5.12307,24.3105,Q,Q
2023-03-14 18:12:38:12,0,-11.5078,-5.10507,24.5563,Q,Q
2023-03-14 18:12:38:23,0,-11.5761,-5.08252,24.7941,Q,Q
2023-03-14 18:12:38:32,0,-11.6286,-5.05184,25.0275,Q,Q
2023-03-14 18:12:38:42,0,-11.6635,-5.01932,25.2477,Q,Q
2023-03-14 18:12:38:52,0,-11.6829,-4.9963,25.4513,Q,Q
2023-03-14 18:12:38:62,0,-11.6974,-4.98511,25.6299,Q,Q
2023-03-14 18:12:38:72,0,-11.7069,-4.98185,25.7894,Q,Q
2023-03-14 18:12:38:82,0,-11.7239,-4.98938,25.9264,Q,Q
2023-03-14 18:12:38:92,0,-11.743,-5.0061,26.0289,Q,Q
2023-03-14 18:12:38:103,0,-11.7554,-5.0299,26.0856,Q,Q
2023-03-14 18:12:38:112,0,-11.7548,-5.05481,26.1,Q,Q
2023-03-14 18:12:38:123,0,-11.7374,-5.08023,26.0741,Q,Q
2023-03-14 18:12:38:132,0,-11.7102,-5.10845,26.0095,Q,Q
2023-03-14 18:12:38:142,0,-11.6836,-5.14071,25.9056,Q,Q
2023-03-14 18:12:38:152,0,-11.6537,-5.17415,25.7621,Q,Q
2023-03-14 18:12:38:162,0,-11.6171,-5.20667,25.5898,Q,Q
2023-03-14 18:12:38:172,0,-11.5737,-5.2405,25.3959,Q,Q
2023-03-14 18:12:38:182,0,-11.5334,-5.27103,25.1894,Q,Q
2023-03-14 18:12:38:192,0,-11.5035,-5.2948,24.9749,Q,Q
2023-03-14 18:12:38:203,0,-11.4796,-5.31597,24.7524,Q,Q
2023-03-14 18:12:38:212,0,-11.4655,-5.32967,24.5421,Q,Q
2023-03-14 18:12:38:222,0,-11.4606,-5.34065,24.3486,Q,Q
2023-03-14 18:12:38:232,0,-11.4643,-5.34791,24.1759,Q,Q
2023-03-14 18:12:38:243,0,-11.4698,-5.34811,24.0178,Q,Q
2023-03-14 18:12:38:252,0,-11.4735,-5.3374,23.8756,Q,Q
2023-03-14 18:12:38:263,0,-11.4781,-5.31758,23.7558,Q,Q
2023-03-14 18:12:38:272,0,-11.4892,-5.29222,23.6657,Q,Q
2023-03-14 18:12:38:283,0,-11.5063,-5.26196,23.6139,Q,Q
2023-03-14 18:12:38:292,0,-11.531,-5.22475,23.6003,Q,Q
2023-03-14 18:12:38:302,0,-11.5578,-5.17889,23.6273,Q,Q
2023-03-14 18:12:38:312,0,-11.5887,-5.13531,23.7086,Q,Q
2023-03-14 18:12:38:322,0,-11.6236,-5.08165,23.8482,Q,Q
2023-03-14 18:12:38:332,0,-11.6562,-5.01648,24.0429,Q,Q
2023-03-14 18:12:38:343,0,-11.6832,-4.93374,24.3026,Q,Q
2023-03-14 18:12:38:352,0,-11.7036,-4.83021,24.636,Q,Q
2023-03-14 18:12:38:363,0,-11.7243,-4.71232,25.0546,Q,Q
2023-03-14 18:12:38:373,0,-11.745,-4.57607,25.5623,Q,Q
2023-03-14 18:12:38:383,0,-11.7749,-4.42367,26.154,Q,Q
2023-03-14 18:12:38:392,0,-11.8196,-4.25121,26.8342,Q,Q
2023-03-14 18:12:38:402,0,-11.8798,-4.06284,27.6038,Q,Q
2023-03-14 18:12:38:412,0,-11.9532,-3.85875,28.4675,Q,Q
2023-03-14 18:12:38:422,0,-12.0327,-3.64324,29.4249,Q,Q
2023-03-14 18:12:38:432,0,-12.1142,-3.4116,30.477,Q,Q
2023-03-14 18:12:38:443,0,-12.198,-3.16927,31.6116,Q,Q
2023-03-14 18:12:38:452,0,-12.2883,-2.91519,32.8141,Q,Q
2023-03-14 18:12:38:462,0,-12.3756,-2.65292,34.073,Q,Q
2023-03-14 18:12:38:473,0,-12.4568,-2.38019,35.3638,Q,Q
2023-03-14 18:12:38:483,0,-12.5308,-2.09843,36.6827,Q,Q
2023-03-14 18:12:38:493,0,-12.5954,-1.8149,38.0319,Q,Q
2023-03-14 18:12:38:503,0,-12.648,-1.53703,39.3922,Q,Q
2023-03-14 18:12:38:513,0,-12.6937,-1.27031,40.7572,Q,Q
2023-03-14 18:12:38:523,0,-12.7329,-1.00843,42.1168,Q,Q
2023-03-14 18:12:38:532,0,-12.7616,-0.756892,43.4517,Q,Q
2023-03-14 18:12:38:542,0,-12.782,-0.507696,44.7542,Q,Q
2023-03-14 18:12:38:552,0,-12.7934,-0.27562,46.027,Q,Q
2023-03-14 18:12:38:563,0,-12.7945,-0.0615857,47.2688,Q,Q
2023-03-14 18:12:38:573,0,-12.7901,0.128892,48.4764,Q,Q
2023-03-14 18:12:38:583,0,-12.7794,0.295629,49.6301,Q,Q
2023-03-14 18:12:38:593,0,-12.755,0.445064,50.7029,Q,Q
2023-03-14 18:12:38:603,0,-12.7191,0.584946,51.699,Q,Q
2023-03-14 18:12:38:612,0,-12.6774,0.709655,52.6178,Q,Q
2023-03-14 18:12:38:623,0,-12.6344,0.820174,53.4695,Q,Q
2023-03-14 18:12:38:632,0,-12.6032,0.908485,54.2528,Q,Q
2023-03-14 18:12:38:643,0,-12.5784,0.979641,54.9733,Q,Q
2023-03-14 18:12:38:652,0,-12.5599,1.03268,55.6372,Q,Q
2023-03-14 18:12:38:662,0,-12.5406,1.05843,56.2431,Q,Q
2023-03-14 18:12:38:672,0,-12.5186,1.07018,56.7844,Q,Q
2023-03-14 18:12:38:682,0,-12.488,1.06792,57.2628,Q,Q
2023-03-14 18:12:38:692,0,-12.4504,1.05632,57.6806,Q,Q
2023-03-14 18:12:38:703,0,-12.4143,1.03937,58.0413,Q,Q
2023-03-14 18:12:38:712,0,-12.3824,1.01191,58.3521,Q,Q
2023-03-14 18:12:38:722,0,-12.3542,0.981567,58.6166,Q,Q
2023-03-14 18:12:38:732,0,-12.3269,0.937195,58.8466,Q,Q
2023-03-14 18:12:38:742,0,-12.3062,0.890829,59.0442,Q,Q
2023-03-14 18:12:38:752,0,-12.2894,0.834834,59.2184,Q,Q
2023-03-14 18:12:38:762,0,-12.2844,0.774092,59.373,Q,Q
2023-03-14 18:12:38:773,0,-12.2851,0.709373,59.511,Q,Q
2023-03-14 18:12:38:782,0,-12.2885,0.647133,59.6305,Q,Q
2023-03-14 18:12:38:792,0,-12.2905,0.588891,59.7379,Q,Q
2023-03-14 18:12:38:802,0,-12.2932,0.529546,59.8336,Q,Q
2023-03-14 18:12:38:812,0,-12.2991,0.473462,59.9236,Q,Q
2023-03-14 18:12:38:822,0,-12.3055,0.422208,60.004,Q,Q
2023-03-14 18:12:38:832,0,-12.3203,0.369243,60.0828,Q,Q
2023-03-14 18:12:38:842,0,-12.3338,0.320913,60.1595,Q,Q
2023-03-14 18:12:38:852,0,-12.3506,0.272076,60.2344,Q,Q
2023-03-14 18:12:38:863,0,-12.3647,0.226241,60.3089,Q,Q
2023-03-14 18:12:38:872,0,-12.3736,0.17941,60.3884,Q,Q
2023-03-14 18:12:38:882,0,-12.3791,0.135795,60.4644,Q,Q
2023-03-14 18:12:38:892,0,-12.3872,0.0930158,60.5413,Q,Q
2023-03-14 18:12:38:902,0,-12.3978,0.0482322,60.6218,Q,Q
2023-03-14 18:12:38:912,0,-12.4042,0.00845396,60.7042,Q,Q
2023-03-14 18:12:38:922,0,-12.4073,-0.0303292,60.7837,Q,Q
2023-03-14 18:12:38:932,0,-12.392,-0.0652284,60.8571,Q,Q
2023-03-14 18:12:38:942,0,-12.3763,-0.0912338,60.9289,Q,Q
2023-03-14 18:12:38:952,0,-12.3793,-0.112987,60.9976,Q,Q
2023-03-14 18:12:38:962,0,-12.4214,-0.134921,61.0707,Q,Q
2023-03-14 18:12:38:972,0,-12.4963,-0.161595,61.149,Q,Q
2023-03-14 18:12:38:982,0,-12.5717,-0.188358,61.2291,Q,Q
2023-03-14 18:12:38:992,0,-12.6136,-0.218738,61.2962,Q,Q
2023-03-14 18:12:39:3,0,-12.6254,-0.244954,61.3506,Q,Q
2023-03-14 18:12:39:12,0,-12.615,-0.26498,61.3987,Q,Q
2023-03-14 18:12:39:22,0,-12.612,-0.285064,61.4474,Q,Q
2023-03-14 18:12:39:32,0,-12.6261,-0.303584,61.4964,Q,Q
2023-03-14 18:12:39:42,0,-12.6605,-0.324785,61.5443,Q,Q
2023-03-14 18:12:39:52,0,-12.7052,-0.343176,61.5873,Q,Q
2023-03-14 18:12:39:62,0,-12.739,-0.362042,61.6263,Q,Q
2023-03-14 18:12:39:72,0,-12.7537,-0.380681,61.6564,Q,Q
2023-03-14 18:12:39:83,0,-12.7587,-0.39871,61.6821,Q,Q
2023-03-14 18:12:39:93,0,-12.7666,-0.411275,61.705,Q,Q
2023-03-14 18:12:39:103,0,-12.7854,-0.428613,61.7293,Q,Q
2023-03-14 18:12:39:112,0,-12.8162,-0.455571,61.7548,Q,Q
2023-03-14 18:12:39:123,0,-12.8491,-0.485299,61.782,Q,Q
2023-03-14 18:12:39:132,0,-12.8688,-0.515779,61.8097,Q,Q
2023-03-14 18:12:39:143,0,-12.8752,-0.546294,61.8367,Q,Q
2023-03-14 18:12:39:152,0,-12.8822,-0.575545,61.8623,Q,Q
2023-03-14 18:12:39:163,0,-12.8928,-0.605441,61.8915,Q,Q
2023-03-14 18:12:39:173,0,-12.9002,-0.636779,61.9208,Q,Q
2023-03-14 18:12:39:183,0,-12.9044,-0.671599,61.954,Q,Q
2023-03-14 18:12:39:193,0,-12.9027,-0.708932,61.987,Q,Q
2023-03-14 18:12:39:203,0,-12.8938,-0.751867,62.0226,Q,Q
2023-03-14 18:12:39:212,0,-12.8766,-0.797608,62.0559,Q,Q
2023-03-14 18:12:39:222,0,-12.8538,-0.834692,62.0885,Q,Q
2023-03-14 18:12:39:232,0,-12.8251,-0.872144,62.1242,Q,Q
2023-03-14 18:12:39:242,0,-12.7939,-0.901666,62.1604,Q,Q
2023-03-14 18:12:39:252,0,-12.7598,-0.931708,62.193,Q,Q
2023-03-14 18:12:39:262,0,-12.7308,-0.958163,62.2249,Q,Q
2023-03-14 18:12:39:272,0,-12.7099,-0.986967,62.264,Q,Q
2023-03-14 18:12:39:283,0,-12.6919,-1.01548,62.3046,Q,Q
2023-03-14 18:12:39:293,0,-12.6754,-1.04311,62.349,Q,Q
2023-03-14 18:12:39:303,0,-12.6588,-1.07056,62.3895,Q,Q
2023-03-14 18:12:39:313,0,-12.642,-1.09609,62.4315,Q,Q
2023-03-14 18:12:39:323,0,-12.6304,-1.11499,62.4729,Q,Q
2023-03-14 18:12:39:332,0,-12.6182,-1.13589,62.5123,Q,Q
2023-03-14 18:12:39:342,0,-12.6095,-1.1481,62.5489,Q,Q
2023-03-14 18:12:39:352,0,-12.6018,-1.15664,62.5809,Q,Q
2023-03-14 18:12:39:363,0,-12.5977,-1.15609,62.6098,Q,Q
2023-03-14 18:12:39:372,0,-12.5956,-1.15222,62.6334,Q,Q
2023-03-14 18:12:39:383,0,-12.5961,-1.14675,62.6466,Q,Q
2023-03-14 18:12:39:392,0,-12.6004,-1.14113,62.6552,Q,Q
2023-03-14 18:12:39:402,0,-12.6001,-1.13748,62.6554,Q,Q
2023-03-14 18:12:39:412,0,-12.5908,-1.13031,62.6503,Q,Q
2023-03-14 18:12:39:422,0,-12.5705,-1.12122,62.6327,Q,Q
2023-03-14 18:12:39:432,0,-12.5395,-1.11312,62.6028,Q,Q
2023-03-14 18:12:39:442,0,-12.5036,-1.09801,62.5571,Q,Q
2023-03-14 18:12:39:452,0,-12.4621,-1.07978,62.4953,Q,Q
2023-03-14 18:12:39:462,0,-12.4264,-1.05724,62.4157,Q,Q
2023-03-14 18:12:39:472,0,-12.4025,-1.03481,62.3282,Q,Q
2023-03-14 18:12:39:482,0,-12.3959,-1.0168,62.2404,Q,Q
2023-03-14 18:12:39:494,0,-12.4061,-1.00255,62.1477,Q,Q
2023-03-14 18:12:39:502,0,-12.429,-0.996264,62.0571,Q,Q
2023-03-14 18:12:39:512,0,-12.463,-1.00213,61.9763,Q,Q
2023-03-14 18:12:39:522,0,-12.5049,-1.02169,61.9073,Q,Q
2023-03-14 18:12:39:532,0,-12.5525,-1.06446,61.8536,Q,Q
2023-03-14 18:12:39:542,0,-12.6043,-1.12856,61.814,Q,Q
2023-03-14 18:12:39:552,0,-12.6541,-1.20637,61.7876,Q,Q
2023-03-14 18:12:39:563,0,-12.7031,-1.29721,61.7758,Q,Q
2023-03-14 18:12:39:572,0,-12.7395,-1.40207,61.7749,Q,Q
2023-03-14 18:12:39:583,0,-12.7614,-1.51544,61.7856,Q,Q
2023-03-14 18:12:39:593,0,-12.7708,-1.62922,61.8116,Q,Q
2023-03-14 18:12:39:603,0,-12.7667,-1.74054,61.8461,Q,Q
2023-03-14 18:12:39:613,0,-12.751,-1.84281,61.8879,Q,Q
2023-03-14 18:12:39:623,0,-12.7228,-1.94258,61.9327,Q,Q
2023-03-14 18:12:39:633,0,-12.685,-2.03295,61.9776,Q,Q
2023-03-14 18:12:39:642,0,-12.6393,-2.11155,62.0207,Q,Q
2023-03-14 18:12:39:652,0,-12.5854,-2.17553,62.0617,Q,Q
2023-03-14 18:12:39:663,0,-12.5258,-2.22503,62.0905,Q,Q
2023-03-14 18:12:39:672,0,-12.4604,-2.25886,62.1084,Q,Q
2023-03-14 18:12:39:682,0,-12.3951,-2.27864,62.1215,Q,Q
2023-03-14 18:12:39:692,0,-12.3347,-2.28404,62.1226,Q,Q
2023-03-14 18:12:39:702,0,-12.2753,-2.27914,62.1129,Q,Q
2023-03-14 18:12:39:712,0,-12.2177,-2.26993,62.0925,Q,Q
2023-03-14 18:12:39:722,0,-12.1593,-2.25399,62.0581,Q,Q
2023-03-14 18:12:39:732,0,-12.1051,-2.23243,62.0099,Q,Q
2023-03-14 18:12:39:742,0,-12.0493,-2.20885,61.9489,Q,Q
2023-03-14 18:12:39:752,0,-12.0026,-2.18762,61.8791,Q,Q
2023-03-14 18:12:39:762,0,-11.9674,-2.16702,61.8049,Q,Q
2023-03-14 18:12:39:772,0,-11.9437,-2.15013,61.7311,Q,Q
2023-03-14 18:12:39:782,0,-11.9383,-2.14365,61.6616,Q,Q
2023-03-14 18:12:39:792,0,-11.9452,-2.14757,61.591,Q,Q
2023-03-14 18:12:39:802,0,-11.9618,-2.1534,61.5307,Q,Q
2023-03-14 18:12:39:812,0,-11.9815,-2.16744,61.474,Q,Q
2023-03-14 18:12:39:822,0,-12.0046,-2.18774,61.4262,Q,Q
2023-03-14 18:12:39:832,0,-12.0267,-2.20608,61.3805,Q,Q
2023-03-14 18:12:39:842,0,-12.0492,-2.2272,61.3416,Q,Q
2023-03-14 18:12:39:852,0,-12.0761,-2.25074,61.3036,Q,Q
2023-03-14 18:12:39:862,0,-12.1049,-2.27525,61.2767,Q,Q
2023-03-14 18:12:39:872,0,-12.1369,-2.29948,61.2588,Q,Q
2023-03-14 18:12:39:882,0,-12.1702,-2.31996,61.2493,Q,Q
2023-03-14 18:12:39:892,0,-12.21,-2.34289,61.25,Q,Q
2023-03-14 18:12:39:902,0,-12.2404,-2.35879,61.2558,Q,Q
2023-03-14 18:12:39:912,0,-12.2674,-2.36808,61.2626,Q,Q
2023-03-14 18:12:39:922,0,-12.2922,-2.36681,61.2745,Q,Q
2023-03-14 18:12:39:932,0,-12.3109,-2.35947,61.2916,Q,Q
2023-03-14 18:12:39:942,0,-12.3256,-2.34851,61.3066,Q,Q
2023-03-14 18:12:39:952,0,-12.3341,-2.33499,61.3193,Q,Q
2023-03-14 18:12:39:962,0,-12.3383,-2.31881,61.3334,Q,Q
2023-03-14 18:12:39:973,0,-12.3403,-2.29802,61.3397,Q,Q
2023-03-14 18:12:39:983,0,-12.3353,-2.28161,61.3461,Q,Q
2023-03-14 18:12:39:992,0,-12.3239,-2.26392,61.3425,Q,Q
2023-03-14 18:12:40:3,0,-12.3097,-2.25266,61.3314,Q,Q
2023-03-14 18:12:40:12,0,-12.2953,-2.2428,61.3197,Q,Q
2023-03-14 18:12:40:23,0,-12.2819,-2.23642,61.3011,Q,Q
2023-03-14 18:12:40:32,0,-12.2727,-2.23327,61.278,Q,Q
2023-03-14 18:12:40:43,0,-12.2628,-2.23389,61.2534,Q,Q
2023-03-14 18:12:40:52,0,-12.2546,-2.23547,61.2297,Q,Q
2023-03-14 18:12:40:63,0,-12.2528,-2.24098,61.2083,Q,Q
2023-03-14 18:12:40:72,0,-12.2511,-2.24982,61.1928,Q,Q
2023-03-14 18:12:40:83,0,-12.2484,-2.25858,61.1799,Q,Q
2023-03-14 18:12:40:92,0,-12.239,-2.26676,61.1721,Q,Q
2023-03-14 18:12:40:103,0,-12.2279,-2.2696,61.1652,Q,Q
2023-03-14 18:12:40:112,0,-12.2173,-2.2771,61.1611,Q,Q
2023-03-14 18:12:40:123,0,-12.2034,-2.28195,61.1572,Q,Q
2023-03-14 18:12:40:132,0,-12.1932,-2.28964,61.1613,Q,Q
2023-03-14 18:12:40:142,0,-12.1852,-2.29422,61.1687,Q,Q
2023-03-14 18:12:40:152,0,-12.1827,-2.30117,61.1796,Q,Q
2023-03-14 18:12:40:163,0,-12.1847,-2.30511,61.1957,Q,Q
2023-03-14 18:12:40:172,0,-12.1863,-2.30792,61.2083,Q,Q
2023-03-14 18:12:40:183,0,-12.1916,-2.30713,61.2212,Q,Q
2023-03-14 18:12:40:192,0,-12.1987,-2.30467,61.2311,Q,Q
2023-03-14 18:12:40:203,0,-12.2095,-2.30305,61.2436,Q,Q
2023-03-14 18:12:40:212,0,-12.2184,-2.30073,61.252,Q,Q
2023-03-14 18:12:40:223,0,-12.2249,-2.29777,61.2563,Q,Q
2023-03-14 18:12:40:232,0,-12.2307,-2.29282,61.2602,Q,Q
2023-03-14 18:12:40:242,0,-12.2384,-2.29145,61.2636,Q,Q
2023-03-14 18:12:40:252,0,-12.2459,-2.29059,61.2645,Q,Q
2023-03-14 18:12:40:262,0,-12.2548,-2.29192,61.2525,Q,Q
2023-03-14 18:12:40:272,0,-12.2624,-2.29762,61.23,Q,Q
2023-03-14 18:12:40:283,0,-12.2684,-2.31202,61.1955,Q,Q
2023-03-14 18:12:40:292,0,-12.2739,-2.32825,61.1511,Q,Q
2023-03-14 18:12:40:303,0,-12.2846,-2.34619,61.1081,Q,Q
2023-03-14 18:12:40:312,0,-12.2924,-2.37533,61.0598,Q,Q
2023-03-14 18:12:40:323,0,-12.2994,-2.4067,61.0125,Q,Q
2023-03-14 18:12:40:332,0,-12.3074,-2.43725,60.9626,Q,Q
2023-03-14 18:12:40:342,0,-12.3131,-2.46968,60.9069,Q,Q
2023-03-14 18:12:40:352,0,-12.3138,-2.49918,60.8444,Q,Q
2023-03-14 18:12:40:363,0,-12.316,-2.52881,60.777,Q,Q
2023-03-14 18:12:40:373,0,-12.317,-2.54804,60.7077,Q,Q
2023-03-14 18:12:40:383,0,-12.3108,-2.56019,60.6319,Q,Q
2023-03-14 18:12:40:392,0,-12.2992,-2.56658,60.5541,Q,Q
2023-03-14 18:12:40:403,0,-12.2775,-2.57084,60.4776,Q,Q
2023-03-14 18:12:40:412,0,-12.2485,-2.57171,60.405,Q,Q
2023-03-14 18:12:40:423,0,-12.2168,-2.57121,60.3343,Q,Q
2023-03-14 18:12:40:432,0,-12.1801,-2.56282,60.2633,Q,Q
2023-03-14 18:12:40:442,0,-12.1333,-2.54837,60.1906,Q,Q
2023-03-14 18:12:40:452,0,-12.0925,-2.52576,60.1156,Q,Q
2023-03-14 18:12:40:462,0,-12.054,-2.49994,60.0376,Q,Q
2023-03-14 18:12:40:472,0,-12.0256,-2.47426,59.9594,Q,Q
2023-03-14 18:12:40:482,0,-12.0064,-2.44875,59.8845,Q,Q
2023-03-14 18:12:40:492,0,-11.9948,-2.42689,59.812,Q,Q
2023-03-14 18:12:40:502,0,-11.9872,-2.40596,59.7469,Q,Q
2023-03-14 18:12:40:512,0,-11.9869,-2.3883,59.6875,Q,Q
2023-03-14 18:12:40:523,0,-11.9908,-2.37649,59.6403,Q,Q
2023-03-14 18:12:40:532,0,-12.0005,-2.36883,59.6028,Q,Q
2023-03-14 18:12:40:542,0,-12.007,-2.36665,59.5743,Q,Q
2023-03-14 18:12:40:552,0,-12.0173,-2.37097,59.5593,Q,Q
2023-03-14 18:12:40:562,0,-12.0221,-2.37814,59.5499,Q,Q
2023-03-14 18:12:40:572,0,-12.0257,-2.39263,59.5529,Q,Q
2023-03-14 18:12:40:582,0,-12.0229,-2.40617,59.5617,Q,Q
2023-03-14 18:12:40:592,0,-12.016,-2.42297,59.584,Q,Q
2023-03-14 18:12:40:602,0,-12.0057,-2.43827,59.6092,Q,Q
2023-03-14 18:12:40:612,0,-11.9916,-2.45083,59.6405,Q,Q
2023-03-14 18:12:40:623,0,-11.9736,-2.46183,59.6767,Q,Q
2023-03-14 18:12:40:633,0,-11.9516,-2.46958,59.7186,Q,Q
2023-03-14 18:12:40:643,0,-11.9288,-2.47447,59.7571,Q,Q
2023-03-14 18:12:40:652,0,-11.9039,-2.4731,59.7961,Q,Q
2023-03-14 18:12:40:663,0,-11.885,-2.4699,59.8324,Q,Q
2023-03-14 18:12:40:672,0,-11.8678,-2.46064,59.8617,Q,Q
2023-03-14 18:12:40:683,0,-11.8526,-2.44704,59.8864,Q,Q
2023-03-14 18:12:40:693,0,-11.8352,-2.42297,59.903,Q,Q
2023-03-14 18:12:40:703,0,-11.8237,-2.3953,59.9157,Q,Q
2023-03-14 18:12:40:712,0,-11.8125,-2.36585,59.92,Q,Q
2023-03-14 18:12:40:722,0,-11.8085,-2.33274,59.9179,Q,Q
2023-03-14 18:12:40:732,0,-11.8067,-2.29982,59.9068,Q,Q
2023-03-14 18:12:40:743,0,-11.8143,-2.26639,59.8933,Q,Q
2023-03-14 18:12:40:752,0,-11.8271,-2.2308,59.865,Q,Q
2023-03-14 18:12:40:763,0,-11.8498,-2.1925,59.831,Q,Q
2023-03-14 18:12:40:772,0,-11.8738,-2.15514,59.7938,Q,Q
2023-03-14 18:12:40:783,0,-11.9014,-2.12117,59.7541,Q,Q
2023-03-14 18:12:40:792,0,-11.9355,-2.08707,59.7119,Q,Q
2023-03-14 18:12:40:803,0,-11.9672,-2.05921,59.669,Q,Q
2023-03-14 18:12:40:812,0,-12.002,-2.03552,59.6243,Q,Q
2023-03-14 18:12:40:823,0,-12.04,-2.01701,59.5797,Q,Q
2023-03-14 18:12:40:833,0,-12.0824,-2.00554,59.5367,Q,Q
2023-03-14 18:12:40:842,0,-12.1271,-2.00364,59.4996,Q,Q
2023-03-14 18:12:40:852,0,-12.1719,-2.0128,59.4691,Q,Q
2023-03-14 18:12:40:862,0,-12.2187,-2.03155,59.4504,Q,Q
2023-03-14 18:12:40:872,0,-12.2653,-2.06292,59.4459,Q,Q
2023-03-14 18:12:40:882,0,-12.3095,-2.10429,59.4576,Q,Q
2023-03-14 18:12:40:892,0,-12.3465,-2.15222,59.4785,Q,Q
2023-03-14 18:12:40:902,0,-12.3744,-2.20315,59.5137,Q,Q
2023-03-14 18:12:40:912,0,-12.3886,-2.24492,59.5574,Q,Q
2023-03-14 18:12:40:923,0,-12.3906,-2.28869,59.6008,Q,Q
2023-03-14 18:12:40:932,0,-12.3847,-2.32857,59.6481,Q,Q
2023-03-14 18:12:40:943,0,-12.371,-2.36169,59.6963,Q,Q
2023-03-14 18:12:40:952,0,-12.3526,-2.39326,59.7418,Q,Q
2023-03-14 18:12:40:963,0,-12.333,-2.4255,59.7828,Q,Q
2023-03-14 18:12:40:972,0,-12.3167,-2.44613,59.8191,Q,Q
2023-03-14 18:12:40:983,0,-12.3024,-2.4689,59.8509,Q,Q
2023-03-14 18:12:40:992,0,-12.2914,-2.48793,59.8775,Q,Q
2023-03-14 18:12:41:3,0,-12.2898,-2.50984,59.9001,Q,Q
2023-03-14 18:12:41:12,0,-12.288,-2.52798,59.9104,Q,Q
2023-03-14 18:12:41:23,0,-12.2862,-2.54124,59.9182,Q,Q
2023-03-14 18:12:41:33,0,-12.2801,-2.55042,59.9252,Q,Q
2023-03-14 18:12:41:43,0,-12.2751,-2.55692,59.9267,Q,Q
2023-03-14 18:12:41:52,0,-12.2718,-2.56126,59.9272,Q,Q
2023-03-14 18:12:41:62,0,-12.2628,-2.56516,59.9291,Q,Q
2023-03-14 18:12:41:72,0,-12.2611,-2.56937,59.9334,Q,Q
2023-03-14 18:12:41:83,0,-12.256,-2.57088,59.9437,Q,Q
2023-03-14 18:12:41:92,0,-12.2548,-2.57107,59.9572,Q,Q
2023-03-14 18:12:41:103,0,-12.2547,-2.57255,59.9743,Q,Q
2023-03-14 18:12:41:112,0,-12.2571,-2.57229,59.9936,Q,Q
2023-03-14 18:12:41:123,0,-12.2598,-2.56905,60.0187,Q,Q
2023-03-14 18:12:41:132,0,-12.2593,-2.57074,60.0449,Q,Q
2023-03-14 18:12:41:143,0,-12.2619,-2.56983,60.0767,Q,Q
2023-03-14 18:12:41:152,0,-12.2683,-2.56966,60.1084,Q,Q
2023-03-14 18:12:41:163,0,-12.2733,-2.56635,60.1352,Q,Q
2023-03-14 18:12:41:172,0,-12.28,-2.56127,60.1611,Q,Q
2023-03-14 18:12:41:182,0,-12.2883,-2.55967,60.181,Q,Q
2023-03-14 18:12:41:192,0,-12.2903,-2.55448,60.1984,Q,Q
2023-03-14 18:12:41:202,0,-12.2921,-2.5485,60.2117,Q,Q
2023-03-14 18:12:41:212,0,-12.2966,-2.54173,60.2218,Q,Q
2023-03-14 18:12:41:223,0,-12.2993,-2.53206,60.2273,Q,Q
2023-03-14 18:12:41:233,0,-12.2999,-2.52569,60.234,Q,Q
2023-03-14 18:12:41:243,0,-12.3011,-2.51758,60.2382,Q,Q
2023-03-14 18:12:41:253,0,-12.3025,-2.51537,60.2371,Q,Q
2023-03-14 18:12:41:262,0,-12.304,-2.51446,60.2381,Q,Q
2023-03-14 18:12:41:272,0,-12.2989,-2.51339,60.2379,Q,Q
2023-03-14 18:12:41:283,0,-12.2952,-2.50836,60.2354,Q,Q
2023-03-14 18:12:41:292,0,-12.2872,-2.50761,60.2367,Q,Q
2023-03-14 18:12:41:303,0,-12.2808,-2.50984,60.2377,Q,Q
2023-03-14 18:12:41:312,0,-12.2743,-2.51133,60.2396,Q,Q
2023-03-14 18:12:41:322,0,-12.2646,-2.51401,60.2408,Q,Q
2023-03-14 18:12:41:333,0,-12.2562,-2.51666,60.248,Q,Q
2023-03-14 18:12:41:343,0,-12.2485,-2.51779,60.2604,Q,Q
2023-03-14 18:12:41:353,0,-12.2423,-2.52308,60.2678,Q,Q
2023-03-14 18:12:41:363,0,-12.2415,-2.53044,60.28,Q,Q
2023-03-14 18:12:41:372,0,-12.2373,-2.54087,60.2932,Q,Q
2023-03-14 18:12:41:382,0,-12.2349,-2.55162,60.3045,Q,Q
2023-03-14 18:12:41:392,0,-12.2348,-2.56376,60.3201,Q,Q
2023-03-14 18:12:41:403,0,-12.2354,-2.57349,60.3345,Q,Q
2023-03-14 18:12:41:413,0,-12.2334,-2.57938,60.3548,Q,Q
2023-03-14 18:12:41:423,0,-12.2328,-2.58692,60.3776,Q,Q
2023-03-14 18:12:41:433,0,-12.2325,-2.59627,60.3993,Q,Q
2023-03-14 18:12:41:443,0,-12.2313,-2.60428,60.4309,Q,Q
2023-03-14 18:12:41:453,0,-12.2294,-2.61298,60.4595,Q,Q
2023-03-14 18:12:41:463,0,-12.2338,-2.61312,60.489,Q,Q
2023-03-14 18:12:41:472,0,-12.2362,-2.61459,60.5188,Q,Q
2023-03-14 18:12:41:483,0,-12.2435,-2.61139,60.5488,Q,Q
2023-03-14 18:12:41:492,0,-12.2457,-2.60671,60.58,Q,Q
2023-03-14 18:12:41:503,0,-12.2495,-2.59934,60.6191,Q,Q
2023-03-14 18:12:41:512,0,-12.2532,-2.58884,60.6645,Q,Q
2023-03-14 18:12:41:523,0,-12.2581,-2.57237,60.71,Q,Q
2023-03-14 18:12:41:532,0,-12.2714,-2.56169,60.7551,Q,Q
2023-03-14 18:12:41:543,0,-12.2854,-2.54803,60.8041,Q,Q
2023-03-14 18:12:41:552,0,-12.3009,-2.53405,60.8519,Q,Q
2023-03-14 18:12:41:562,0,-12.3175,-2.51698,60.8975,Q,Q
2023-03-14 18:12:41:572,0,-12.332,-2.50303,60.9463,Q,Q
2023-03-14 18:12:41:583,0,-12.3474,-2.48865,60.9918,Q,Q
2023-03-14 18:12:41:592,0,-12.3588,-2.47602,61.0374,Q,Q
2023-03-14 18:12:41:603,0,-12.3676,-2.46615,61.0811,Q,Q
2023-03-14 18:12:41:612,0,-12.3774,-2.46199,61.1215,Q,Q
2023-03-14 18:12:41:623,0,-12.3895,-2.45631,61.1627,Q,Q
2023-03-14 18:12:41:632,0,-12.403,-2.45399,61.2043,Q,Q
2023-03-14 18:12:41:643,0,-12.4142,-2.45455,61.2439,Q,Q
2023-03-14 18:12:41:653,0,-12.4232,-2.45605,61.2807,Q,Q
2023-03-14 18:12:41:663,0,-12.431,-2.45212,61.3208,Q,Q
2023-03-14 18:12:41:673,0,-12.4388,-2.45335,61.3643,Q,Q
2023-03-14 18:12:41:683,0,-12.4479,-2.45497,61.4083,Q,Q
2023-03-14 18:12:41:692,0,-12.4525,-2.45529,61.4504,Q,Q
2023-03-14 18:12:41:703,0,-12.4571,-2.45498,61.4946,Q,Q
2023-03-14 18:12:41:712,0,-12.4616,-2.45471,61.543,Q,Q
2023-03-14 18:12:41:722,0,-12.4691,-2.4521,61.5898,Q,Q
2023-03-14 18:12:41:733,0,-12.4763,-2.45224,61.6375,Q,Q
2023-03-14 18:12:41:742,0,-12.4863,-2.45127,61.6852,Q,Q
2023-03-14 18:12:41:752,0,-12.4907,-2.44995,61.7322,Q,Q
2023-03-14 18:12:41:762,0,-12.4954,-2.44998,61.7777,Q,Q
2023-03-14 18:12:41:772,0,-12.5017,-2.44745,61.8193,Q,Q
2023-03-14 18:12:41:783,0,-12.5048,-2.44589,61.8615,Q,Q
2023-03-14 18:12:41:792,0,-12.5107,-2.4429,61.9008,Q,Q
2023-03-14 18:12:41:803,0,-12.5077,-2.44261,61.939,Q,Q
2023-03-14 18:12:41:812,0,-12.5061,-2.44426,61.9711,Q,Q
2023-03-14 18:12:41:823,0,-12.5006,-2.44501,62.0005,Q,Q
2023-03-14 18:12:41:832,0,-12.4936,-2.4448,62.0254,Q,Q
2023-03-14 18:12:41:843,0,-12.4881,-2.44132,62.0445,Q,Q
2023-03-14 18:12:41:853,0,-12.4822,-2.43792,62.0545,Q,Q
2023-03-14 18:12:41:863,0,-12.4705,-2.43705,62.0646,Q,Q
2023-03-14 18:12:41:872,0,-12.4588,-2.4346,62.0755,Q,Q
2023-03-14 18:12:41:883,0,-12.4452,-2.43836,62.0863,Q,Q
2023-03-14 18:12:41:892,0,-12.4325,-2.44256,62.0929,Q,Q
2023-03-14 18:12:41:902,0,-12.4209,-2.44937,62.0963,Q,Q
2023-03-14 18:12:41:912,0,-12.4152,-2.45496,62.0985,Q,Q
2023-03-14 18:12:41:923,0,-12.405,-2.45801,62.101,Q,Q
2023-03-14 18:12:41:932,0,-12.3939,-2.45557,62.1005,Q,Q
2023-03-14 18:12:41:943,0,-12.3805,-2.45717,62.0988,Q,Q
2023-03-14 18:12:41:952,0,-12.3641,-2.45952,62.1032,Q,Q
2023-03-14 18:12:41:962,0,-12.3529,-2.46247,62.1074,Q,Q
2023-03-14 18:12:41:972,0,-12.3388,-2.46197,62.113,Q,Q
2023-03-14 18:12:41:983,0,-12.3262,-2.46865,62.1184,Q,Q
2023-03-14 18:12:41:992,0,-12.3136,-2.4695,62.1222,Q,Q
2023-03-14 18:12:42:3,0,-12.3018,-2.47308,62.121,Q,Q
2023-03-14 18:12:42:12,0,-12.286,-2.46766,62.1193,Q,Q
2023-03-14 18:12:42:23,0,-12.2692,-2.46552,62.1165,Q,Q
2023-03-14 18:12:42:32,0,-12.2559,-2.46834,62.1148,Q,Q
2023-03-14 18:12:42:43,0,-12.246,-2.47722,62.1146,Q,Q
2023-03-14 18:12:42:52,0,-12.2398,-2.48174,62.1144,Q,Q
2023-03-14 18:12:42:63,0,-12.2346,-2.49047,62.1126,Q,Q
2023-03-14 18:12:42:72,0,-12.2304,-2.49573,62.1142,Q,Q
2023-03-14 18:12:42:83,0,-12.2251,-2.50326,62.1155,Q,Q
2023-03-14 18:12:42:92,0,-12.2217,-2.51354,62.116,Q,Q
2023-03-14 18:12:42:102,0,-12.2178,-2.51684,62.1166,Q,Q
2023-03-14 18:12:42:113,0,-12.2123,-2.52132,62.1106,Q,Q
2023-03-14 18:12:42:123,0,-12.2023,-2.52209,62.1054,Q,Q
2023-03-14 18:12:42:133,0,-12.1909,-2.52648,62.096,Q,Q
2023-03-14 18:12:42:143,0,-12.1815,-2.52499,62.087,Q,Q
2023-03-14 18:12:42:153,0,-12.1733,-2.52969,62.0774,Q,Q
2023-03-14 18:12:42:163,0,-12.1664,-2.53499,62.0633,Q,Q
2023-03-14 18:12:42:172,0,-12.1606,-2.54024,62.0474,Q,Q
2023-03-14 18:12:42:183,0,-12.1542,-2.54955,62.0266,Q,Q
2023-03-14 18:12:42:193,0,-12.1501,-2.55514,62.0089,Q,Q
2023-03-14 18:12:42:203,0,-12.1433,-2.55988,61.9931,Q,Q
2023-03-14 18:12:42:212,0,-12.1402,-2.56436,61.9794,Q,Q
2023-03-14 18:12:42:223,0,-12.1407,-2.56478,61.9646,Q,Q
2023-03-14 18:12:42:233,0,-12.138,-2.56466,61.9505,Q,Q
2023-03-14 18:12:42:243,0,-12.1333,-2.56682,61.9434,Q,Q
2023-03-14 18:12:42:252,0,-12.1306,-2.56742,61.9348,Q,Q
2023-03-14 18:12:42:263,0,-12.125,-2.56766,61.9271,Q,Q
2023-03-14 18:12:42:272,0,-12.1243,-2.56855,61.9211,Q,Q
2023-03-14 18:12:42:283,0,-12.1214,-2.56813,61.9157,Q,Q
2023-03-14 18:12:42:293,0,-12.1234,-2.57111,61.9083,Q,Q
2023-03-14 18:12:42:303,0,-12.1219,-2.57134,61.9042,Q,Q
2023-03-14 18:12:42:312,0,-12.1172,-2.57114,61.9021,Q,Q
2023-03-14 18:12:42:323,0,-12.112,-2.57126,61.9012,Q,Q
2023-03-14 18:12:42:333,0,-12.1087,-2.57165,61.9011,Q,Q
2023-03-14 18:12:42:343,0,-12.105,-2.57678,61.9008,Q,Q
2023-03-14 18:12:42:353,0,-12.1017,-2.57783,61.8996,Q,Q
2023-03-14 18:12:42:363,0,-12.0989,-2.57875,61.9011,Q,Q
2023-03-14 18:12:42:373,0,-12.0972,-2.58086,61.8987,Q,Q
2023-03-14 18:12:42:382,0,-12.0979,-2.57888,61.9001,Q,Q
2023-03-14 18:12:42:393,0,-12.0987,-2.57386,61.9005,Q,Q
2023-03-14 18:12:42:403,0,-12.0973,-2.57192,61.8994,Q,Q
2023-03-14 18:12:42:412,0,-12.0936,-2.56304,61.8952,Q,Q
2023-03-14 18:12:42:423,0,-12.0887,-2.55504,61.8899,Q,Q
2023-03-14 18:12:42:432,0,-12.0848,-2.54866,61.8845,Q,Q
2023-03-14 18:12:42:442,0,-12.0814,-2.54114,61.8792,Q,Q
2023-03-14 18:12:42:452,0,-12.0766,-2.5352,61.8711,Q,Q
2023-03-14 18:12:42:463,0,-12.0771,-2.52824,61.8646,Q,Q
2023-03-14 18:12:42:472,0,-12.0761,-2.52332,61.8562,Q,Q
2023-03-14 18:12:42:482,0,-12.0763,-2.51682,61.8478,Q,Q
2023-03-14 18:12:42:492,0,-12.0794,-2.50817,61.8364,Q,Q
2023-03-14 18:12:42:502,0,-12.0837,-2.5,61.8249,Q,Q
2023-03-14 18:12:42:512,0,-12.0854,-2.49349,61.8127,Q,Q
2023-03-14 18:12:42:522,0,-12.0793,-2.48658,61.8026,Q,Q
2023-03-14 18:12:42:532,0,-12.0739,-2.48098,61.7946,Q,Q
2023-03-14 18:12:42:542,0,-12.0699,-2.47563,61.7896,Q,Q
2023-03-14 18:12:42:552,0,-12.064,-2.47366,61.7852,Q,Q
2023-03-14 18:12:42:562,0,-12.0607,-2.47334,61.7795,Q,Q
2023-03-14 18:12:42:572,0,-12.0599,-2.4721,61.7761,Q,Q
2023-03-14 18:12:42:582,0,-12.0582,-2.47064,61.7699,Q,Q
2023-03-14 18:12:42:592,0,-12.0569,-2.46861,61.7668,Q,Q
2023-03-14 18:12:42:602,0,-12.0586,-2.46675,61.7667,Q,Q
2023-03-14 18:12:42:612,0,-12.0555,-2.46412,61.7685,Q,Q
2023-03-14 18:12:42:623,0,-12.0537,-2.45979,61.7652,Q,Q
2023-03-14 18:12:42:632,0,-12.0484,-2.45764,61.768,Q,Q
2023-03-14 18:12:42:642,0,-12.0455,-2.45504,61.767,Q,Q
2023-03-14 18:12:42:652,0,-12.0459,-2.4523,61.7705,Q,Q
2023-03-14 18:12:42:663,0,-12.0476,-2.44841,61.7745,Q,Q
2023-03-14 18:12:42:672,0,-12.0507,-2.44496,61.7758,Q,Q
2023-03-14 18:12:42:682,0,-12.0485,-2.44134,61.7771,Q,Q
2023-03-14 18:12:42:693,0,-12.0448,-2.43759,61.776,Q,Q
2023-03-14 18:12:42:703,0,-12.0424,-2.43643,61.7768,Q,Q
2023-03-14 18:12:42:712,0,-12.0362,-2.43865,61.7804,Q,Q
2023-03-14 18:12:42:723,0,-12.0294,-2.44168,61.782,Q,Q
2023-03-14 18:12:42:733,0,-12.0155,-2.44461,61.7871,Q,Q
2023-03-14 18:12:42:743,0,-12.0,-2.44566,61.7966,Q,Q
2023-03-14 18:12:42:752,0,-11.9811,-2.44259,61.8124,Q,Q
2023-03-14 18:12:42:763,0,-11.9529,-2.4276,61.8328,Q,Q
2023-03-14 18:12:42:772,0,-11.9179,-2.40536,61.8598,Q,Q
2023-03-14 18:12:42:783,0,-11.8773,-2.38517,61.8916,Q,Q
2023-03-14 18:12:42:792,0,-11.8387,-2.36638,61.9441,Q,Q
2023-03-14 18:12:42:802,0,-11.7964,-2.34942,62.0152,Q,Q
2023-03-14 18:12:42:812,0,-11.754,-2.33406,62.1025,Q,Q
2023-03-14 18:12:42:823,0,-11.706,-2.31614,62.2023,Q,Q
2023-03-14 18:12:42:832,0,-11.6656,-2.29794,62.314,Q,Q
2023-03-14 18:12:42:843,0,-11.6291,-2.27973,62.4377,Q,Q
2023-03-14 18:12:42:852,0,-11.5963,-2.26406,62.5725,Q,Q
2023-03-14 18:12:42:863,0,-11.5635,-2.24544,62.7098,Q,Q
2023-03-14 18:12:42:872,0,-11.5299,-2.22633,62.8507,Q,Q
2023-03-14 18:12:42:882,0,-11.5018,-2.20732,62.9935,Q,Q
2023-03-14 18:12:42:892,0,-11.4644,-2.19456,63.1335,Q,Q
2023-03-14 18:12:42:903,0,-11.4298,-2.18591,63.2688,Q,Q
2023-03-14 18:12:42:912,0,-11.4007,-2.18934,63.3972,Q,Q
2023-03-14 18:12:42:922,0,-11.3774,-2.19591,63.5149,Q,Q
2023-03-14 18:12:42:932,0,-11.3559,-2.20383,63.6287,Q,Q
2023-03-14 18:12:42:942,0,-11.3345,-2.21129,63.7283,Q,Q
2023-03-14 18:12:42:952,0,-11.314,-2.21946,63.816,Q,Q
2023-03-14 18:12:42:963,0,-11.2938,-2.23387,63.8933,Q,Q
2023-03-14 18:12:42:972,0,-11.2771,-2.24603,63.9586,Q,Q
2023-03-14 18:12:42:983,0,-11.2631,-2.26004,64.0105,Q,Q
2023-03-14 18:12:42:992,0,-11.2489,-2.27811,64.0533,Q,Q
2023-03-14 18:12:43:3,0,-11.2393,-2.29814,64.0822,Q,Q
2023-03-14 18:12:43:13,0,-11.2286,-2.31935,64.1036,Q,Q
2023-03-14 18:12:43:23,0,-11.2168,-2.34213,64.1172,Q,Q
2023-03-14 18:12:43:33,0,-11.2038,-2.36175,64.1197,Q,Q
2023-03-14 18:12:43:43,0,-11.1942,-2.37892,64.1175,Q,Q
2023-03-14 18:12:43:53,0,-11.1829,-2.39312,64.1122,Q,Q
2023-03-14 18:12:43:63,0,-11.1739,-2.40262,64.1009,Q,Q
2023-03-14 18:12:43:73,0,-11.1608,-2.41295,64.0894,Q,Q
2023-03-14 18:12:43:83,0,-11.1459,-2.41638,64.0797,Q,Q
2023-03-14 18:12:43:92,0,-11.133,-2.41665,64.0728,Q,Q
2023-03-14 18:12:43:103,0,-11.1216,-2.41946,64.0679,Q,Q
2023-03-14 18:12:43:112,0,-11.109,-2.41803,64.0663,Q,Q
2023-03-14 18:12:43:123,0,-11.0995,-2.4133,64.0664,Q,Q
2023-03-14 18:12:43:132,0,-11.0933,-2.41128,64.068,Q,Q
2023-03-14 18:12:43:143,0,-11.0857,-2.4044,64.0708,Q,Q
2023-03-14 18:12:43:152,0,-11.079,-2.3989,64.0725,Q,Q
2023-03-14 18:12:43:163,0,-11.0746,-2.39645,64.0761,Q,Q
2023-03-14 18:12:43:172,0,-11.0761,-2.39782,64.0829,Q,Q
2023-03-14 18:12:43:183,0,-11.0781,-2.39896,64.0939,Q,Q
2023-03-14 18:12:43:193,0,-11.0783,-2.40373,64.1061,Q,Q
2023-03-14 18:12:43:203,0,-11.0695,-2.40585,64.1189,Q,Q
2023-03-14 18:12:43:212,0,-11.0703,-2.40771,64.1361,Q,Q
2023-03-14 18:12:43:223,0,-11.0751,-2.41165,64.1514,Q,Q
2023-03-14 18:12:43:232,0,-11.0746,-2.41634,64.1623,Q,Q
2023-03-14 18:12:43:243,0,-11.0644,-2.41415,64.1714,Q,Q
2023-03-14 18:12:43:252,0,-11.0503,-2.40762,64.1798,Q,Q
2023-03-14 18:12:43:263,0,-11.0293,-2.41143,64.1834,Q,Q
2023-03-14 18:12:43:273,0,-11.0163,-2.41755,64.192,Q,Q
2023-03-14 18:12:43:283,0,-11.0106,-2.43012,64.1999,Q,Q
2023-03-14 18:12:43:293,0,-10.9984,-2.44854,64.206,Q,Q
2023-03-14 18:12:43:303,0,-10.9946,-2.46204,64.2185,Q,Q
2023-03-14 18:12:43:313,0,-10.9918,-2.47843,64.2361,Q,Q
2023-03-14 18:12:43:322,0,-10.9838,-2.49648,64.2548,Q,Q
2023-03-14 18:12:43:333,0,-10.9831,-2.51346,64.2756,Q,Q
2023-03-14 18:12:43:343,0,-10.984,-2.52253,64.2977,Q,Q
2023-03-14 18:12:43:353,0,-10.9809,-2.53523,64.3159,Q,Q
2023-03-14 18:12:43:363,0,-10.9764,-2.54194,64.3316,Q,Q
2023-03-14 18:12:43:372,0,-10.9704,-2.54196,64.3424,Q,Q
2023-03-14 18:12:43:383,0,-10.9568,-2.5383,64.3484,Q,Q
2023-03-14 18:12:43:392,0,-10.9457,-2.53703,64.354,Q,Q
2023-03-14 18:12:43:403,0,-10.9373,-2.53194,64.3587,Q,Q
2023-03-14 18:12:43:413,0,-10.9221,-2.51938,64.3654,Q,Q
2023-03-14 18:12:43:423,0,-10.9025,-2.50953,64.3662,Q,Q
2023-03-14 18:12:43:432,0,-10.8861,-2.49986,64.3697,Q,Q
2023-03-14 18:12:43:442,0,-10.8767,-2.49599,64.3731,Q,Q
2023-03-14 18:12:43:452,0,-10.8697,-2.49125,64.3796,Q,Q
2023-03-14 18:12:43:462,0,-10.8637,-2.48404,64.3832,Q,Q
2023-03-14 18:12:43:472,0,-10.8636,-2.47778,64.3857,Q,Q
2023-03-14 18:12:43:483,0,-10.8584,-2.47257,64.3934,Q,Q
2023-03-14 18:12:43:492,0,-10.8526,-2.46805,64.398,Q,Q
2023-03-14 18:12:43:503,0,-10.8437,-2.46597,64.4055,Q,Q
2023-03-14 18:12:43:512,0,-10.8375,-2.47047,64.4161,Q,Q
2023-03-14 18:12:43:522,0,-10.8345,-2.47097,64.4287,Q,Q
2023-03-14 18:12:43:532,0,-10.8332,-2.47686,64.4434,Q,Q
2023-03-14 18:12:43:543,0,-10.8288,-2.48101,64.4573,Q,Q
2023-03-14 18:12:43:552,0,-10.824,-2.48378,64.4728,Q,Q
2023-03-14 18:12:43:563,0,-10.8181,-2.48328,64.485,Q,Q
2023-03-14 18:12:43:572,0,-10.8105,-2.48478,64.4979,Q,Q
2023-03-14 18:12:43:582,0,-10.7994,-2.47965,64.5065,Q,Q
2023-03-14 18:12:43:592,0,-10.7826,-2.47211,64.5123,Q,Q
2023-03-14 18:12:43:603,0,-10.7642,-2.46383,64.5179,Q,Q
2023-03-14 18:12:43:612,0,-10.7454,-2.45091,64.5193,Q,Q
2023-03-14 18:12:43:623,0,-10.7309,-2.44743,64.5207,Q,Q
2023-03-14 18:12:43:632,0,-10.7212,-2.44532,64.5191,Q,Q
2023-03-14 18:12:43:643,0,-10.7128,-2.44061,64.5128,Q,Q
2023-03-14 18:12:43:653,0,-10.7008,-2.43907,64.5084,Q,Q
2023-03-14 18:12:43:663,0,-10.687,-2.43606,64.5037,Q,Q
2023-03-14 18:12:43:672,0,-10.6704,-2.43103,64.498,Q,Q
2023-03-14 18:12:43:683,0,-10.653,-2.43196,64.4979,Q,Q
2023-03-14 18:12:43:692,0,-10.6372,-2.42736,64.4978,Q,Q
2023-03-14 18:12:43:703,0,-10.62,-2.42441,64.4969,Q,Q
2023-03-14 18:12:43:713,0,-10.5927,-2.42067,64.4985,Q,Q
2023-03-14 18:12:43:723,0,-10.5716,-2.41865,64.4978,Q,Q
2023-03-14 18:12:43:732,0,-10.5427,-2.41173,64.4952,Q,Q
2023-03-14 18:12:43:743,0,-10.5135,-2.40181,64.4914,Q,Q
2023-03-14 18:12:43:752,0,-10.4839,-2.39118,64.4833,Q,Q
2023-03-14 18:12:43:763,0,-10.452,-2.38147,64.4755,Q,Q
2023-03-14 18:12:43:772,0,-10.4194,-2.37425,64.4712,Q,Q
2023-03-14 18:12:43:783,0,-10.3864,-2.36964,64.4691,Q,Q
2023-03-14 18:12:43:793,0,-10.355,-2.36192,64.4675,Q,Q
2023-03-14 18:12:43:803,0,-10.3253,-2.35648,64.4671,Q,Q
2023-03-14 18:12:43:813,0,-10.3032,-2.35061,64.4649,Q,Q
2023-03-14 18:12:43:823,0,-10.2848,-2.34701,64.4663,Q,Q
2023-03-14 18:12:43:833,0,-10.2718,-2.34377,64.4703,Q,Q
2023-03-14 18:12:43:843,0,-10.2583,-2.33926,64.4713,Q,Q
2023-03-14 18:12:43:853,0,-10.2438,-2.3332,64.4741,Q,Q
2023-03-14 18:12:43:863,0,-10.2289,-2.3274,64.4767,Q,Q
2023-03-14 18:12:43:873,0,-10.2103,-2.32525,64.4806,Q,Q
2023-03-14 18:12:43:883,0,-10.1999,-2.3255,64.4841,Q,Q
2023-03-14 18:12:43:893,0,-10.196,-2.32406,64.487,Q,Q
2023-03-14 18:12:43:903,0,-10.1974,-2.33226,64.4867,Q,Q
2023-03-14 18:12:43:913,0,-10.195,-2.33747,64.4782,Q,Q
2023-03-14 18:12:43:923,0,-10.1982,-2.34074,64.4742,Q,Q
2023-03-14 18:12:43:932,0,-10.2017,-2.34434,64.4626,Q,Q
2023-03-14 18:12:43:943,0,-10.2017,-2.34788,64.4534,Q,Q
2023-03-14 18:12:43:952,0,-10.2016,-2.35382,64.4452,Q,Q
2023-03-14 18:12:43:963,0,-10.2015,-2.36522,64.4432,Q,Q
2023-03-14 18:12:43:972,0,-10.2016,-2.381,64.4459,Q,Q
2023-03-14 18:12:43:982,0,-10.2009,-2.39446,64.4539,Q,Q
2023-03-14 18:12:43:992,0,-10.2023,-2.40908,64.4718,Q,Q
2023-03-14 18:12:44:2,0,-10.205,-2.4188,64.4896,Q,Q
2023-03-14 18:12:44:13,0,-10.2029,-2.42455,64.5081,Q,Q
2023-03-14 18:12:44:23,0,-10.1958,-2.42976,64.5272,Q,Q
2023-03-14 18:12:44:32,0,-10.187,-2.43493,64.5436,Q,Q
2023-03-14 18:12:44:43,0,-10.1744,-2.43275,64.5546,Q,Q
2023-03-14 18:12:44:52,0,-10.1634,-2.42929,64.5593,Q,Q
2023-03-14 18:12:44:63,0,-10.1534,-2.42545,64.5568,Q,Q
2023-03-14 18:12:44:72,0,-10.1446,-2.4223,64.5472,Q,Q
2023-03-14 18:12:44:83,0,-10.1379,-2.41741,64.5294,Q,Q
2023-03-14 18:12:44:92,0,-10.1338,-2.41597,64.5003,Q,Q
2023-03-14 18:12:44:103,0,-10.1317,-2.41239,64.4704,Q,Q
2023-03-14 18:12:44:112,0,-10.1306,-2.41151,64.4398,Q,Q
2023-03-14 18:12:44:122,0,-10.1314,-2.41024,64.407,Q,Q
2023-03-14 18:12:44:132,0,-10.1329,-2.4092,64.3787,Q,Q
2023-03-14 18:12:44:143,0,-10.1293,-2.40642,64.3461,Q,Q
2023-03-14 18:12:44:152,0,-10.1248,-2.40644,64.3117,Q,Q
2023-03-14 18:12:44:163,0,-10.1231,-2.40523,64.2788,Q,Q
2023-03-14 18:12:44:172,0,-10.1234,-2.4006,64.2463,Q,Q
2023-03-14 18:12:44:183,0,-10.1238,-2.40337,64.2115,Q,Q
2023-03-14 18:12:44:192,0,-10.122,-2.40099,64.1751,Q,Q
2023-03-14 18:12:44:203,0,-10.1157,-2.39919,64.1425,Q,Q
2023-03-14 18:12:44:212,0,-10.1156,-2.39573,64.1071,Q,Q
2023-03-14 18:12:44:223,0,-10.1174,-2.39143,64.0681,Q,Q
2023-03-14 18:12:44:232,0,-10.1167,-2.38474,64.0334,Q,Q
2023-03-14 18:12:44:243,0,-10.1201,-2.37956,63.9971,Q,Q
2023-03-14 18:12:44:252,0,-10.1236,-2.37196,63.9604,Q,Q
2023-03-14 18:12:44:263,0,-10.124,-2.3611,63.9224,Q,Q
2023-03-14 18:12:44:272,0,-10.1235,-2.35113,63.8782,Q,Q
2023-03-14 18:12:44:283,0,-10.1262,-2.34124,63.8309,Q,Q
2023-03-14 18:12:44:292,0,-10.131,-2.32985,63.7826,Q,Q
2023-03-14 18:12:44:303,0,-10.1373,-2.31688,63.7328,Q,Q
2023-03-14 18:12:44:313,0,-10.1416,-2.30448,63.6765,Q,Q
2023-03-14 18:12:44:322,0,-10.1462,-2.2946,63.6203,Q,Q
2023-03-14 18:12:44:332,0,-10.1475,-2.28179,63.5615,Q,Q
2023-03-14 18:12:44:342,0,-10.1409,-2.26764,63.5077,Q,Q
2023-03-14 18:12:44:352,0,-10.1372,-2.25096,63.451,Q,Q
2023-03-14 18:12:44:362,0,-10.1294,-2.23092,63.3989,Q,Q
2023-03-14 18:12:44:372,0,-10.1177,-2.21449,63.3514,Q,Q
2023-03-14 18:12:44:382,0,-10.103,-2.19837,63.308,Q,Q
2023-03-14 18:12:44:392,0,-10.085,-2.18263,63.2729,Q,Q
2023-03-14 18:12:44:402,0,-10.067,-2.16837,63.2441,Q,Q
2023-03-14 18:12:44:412,0,-10.0503,-2.15774,63.227,Q,Q
2023-03-14 18:12:44:423,0,-10.034,-2.1435,63.212,Q,Q
2023-03-14 18:12:44:432,0,-10.019,-2.13104,63.2009,Q,Q
2023-03-14 18:12:44:443,0,-10.0089,-2.12224,63.1918,Q,Q
2023-03-14 18:12:44:452,0,-9.99882,-2.11635,63.1857,Q,Q
2023-03-14 18:12:44:463,0,-9.98827,-2.1099,63.186,Q,Q
2023-03-14 18:12:44:472,0,-9.97572,-2.10515,63.1933,Q,Q
2023-03-14 18:12:44:482,0,-9.96578,-2.10483,63.2001,Q,Q
2023-03-14 18:12:44:492,0,-9.95003,-2.10721,63.2104,Q,Q
2023-03-14 18:12:44:503,0,-9.93901,-2.11136,63.2197,Q,Q
2023-03-14 18:12:44:512,0,-9.92864,-2.11312,63.2246,Q,Q
2023-03-14 18:12:44:523,0,-9.91803,-2.11385,63.2291,Q,Q
2023-03-14 18:12:44:532,0,-9.90512,-2.11942,63.2305,Q,Q
2023-03-14 18:12:44:543,0,-9.89028,-2.11862,63.2293,Q,Q
2023-03-14 18:12:44:552,0,-9.87175,-2.1172,63.226,Q,Q
2023-03-14 18:12:44:563,0,-9.85808,-2.11841,63.2213,Q,Q
2023-03-14 18:12:44:572,0,-9.84282,-2.11279,63.2191,Q,Q
2023-03-14 18:12:44:582,0,-9.82581,-2.11206,63.2167,Q,Q
2023-03-14 18:12:44:592,0,-9.81032,-2.1119,63.2102,Q,Q
2023-03-14 18:12:44:602,0,-9.80073,-2.10688,63.2019,Q,Q
2023-03-14 18:12:44:612,0,-9.79446,-2.0986,63.1872,Q,Q
2023-03-14 18:12:44:623,0,-9.78617,-2.0917,63.1742,Q,Q
2023-03-14 18:12:44:632,0,-9.78549,-2.08186,63.1566,Q,Q
2023-03-14 18:12:44:643,0,-9.78364,-2.07461,63.1438,Q,Q
2023-03-14 18:12:44:652,0,-9.78205,-2.06837,63.131,Q,Q
2023-03-14 18:12:44:663,0,-9.7824,-2.06432,63.116,Q,Q
2023-03-14 18:12:44:672,0,-9.78422,-2.05337,63.1021,Q,Q
2023-03-14 18:12:44:683,0,-9.78993,-2.04109,63.0882,Q,Q
2023-03-14 18:12:44:692,0,-9.79516,-2.0255,63.0723,Q,Q
2023-03-14 18:12:44:703,0,-9.79631,-2.01011,63.0551,Q,Q
2023-03-14 18:12:44:713,0,-9.79317,-2.00087,63.0395,Q,Q
2023-03-14 18:12:44:723,0,-9.78439,-1.99101,63.0233,Q,Q
2023-03-14 18:12:44:732,0,-9.77701,-1.98305,63.0071,Q,Q
2023-03-14 18:12:44:742,0,-9.77093,-1.97792,62.9927,Q,Q
2023-03-14 18:12:44:753,0,-9.769,-1.96917,62.9744,Q,Q
2023-03-14 18:12:44:763,0,-9.76835,-1.96616,62.9597,Q,Q
2023-03-14 18:12:44:772,0,-9.77375,-1.962,62.9469,Q,Q
2023-03-14 18:12:44:783,0,-9.78118,-1.95682,62.9374,Q,Q
2023-03-14 18:12:44:792,0,-9.7874,-1.94884,62.9263,Q,Q
2023-03-14 18:12:44:802,0,-9.79168,-1.94244,62.9154,Q,Q
2023-03-14 18:12:44:812,0,-9.79487,-1.93913,62.9034,Q,Q
2023-03-14 18:12:44:823,0,-9.79906,-1.9352,62.8991,Q,Q
2023-03-14 18:12:44:832,0,-9.79788,-1.92788,62.8926,Q,Q
2023-03-14 18:12:44:843,0,-9.80115,-1.92355,62.8884,Q,Q
2023-03-14 18:12:44:852,0,-9.80177,-1.92251,62.8882,Q,Q
2023-03-14 18:12:44:863,0,-9.80687,-1.92252,62.8894,Q,Q
2023-03-14 18:12:44:872,0,-9.81256,-1.92177,62.8939,Q,Q
2023-03-14 18:12:44:883,0,-9.82209,-1.91993,62.8991,Q,Q
2023-03-14 18:12:44:892,0,-9.82865,-1.91893,62.9057,Q,Q
2023-03-14 18:12:44:903,0,-9.83157,-1.91813,62.9125,Q,Q
2023-03-14 18:12:44:912,0,-9.8361,-1.91534,62.9245,Q,Q
2023-03-14 18:12:44:923,0,-9.8418,-1.91231,62.9336,Q,Q
2023-03-14 18:12:44:933,0,-9.84693,-1.91146,62.9438,Q,Q
2023-03-14 18:12:44:943,0,-9.85126,-1.90809,62.9546,Q,Q
2023-03-14 18:12:44:953,0,-9.8548,-1.90539,62.9596,Q,Q
2023-03-14 18:12:44:963,0,-9.86001,-1.89988,62.9605,Q,Q
2023-03-14 18:12:44:972,0,-9.86196,-1.89768,62.9675,Q,Q
2023-03-14 18:12:44:982,0,-9.86427,-1.8958,62.9699,Q,Q
2023-03-14 18:12:44:992,0,-9.8682,-1.89212,62.9714,Q,Q
2023-03-14 18:12:45:2,0,-9.87086,-1.89315,62.9714,Q,Q
2023-03-14 18:12:45:12,0,-9.87588,-1.89329,62.9692,Q,Q
2023-03-14 18:12:45:23,0,-9.87994,-1.89406,62.9665,Q,Q
2023-03-14 18:12:45:32,0,-9.88371,-1.89588,62.9692,Q,Q
2023-03-14 18:12:45:42,0,-9.88647,-1.89751,62.9682,Q,Q
2023-03-14 18:12:45:52,0,-9.88962,-1.90383,62.9694,Q,Q
2023-03-14 18:12:45:63,0,-9.88959,-1.90924,62.9726,Q,Q
2023-03-14 18:12:45:72,0,-9.8905,-1.91144,62.9749,Q,Q
2023-03-14 18:12:45:83,0,-9.89702,-1.91716,62.9766,Q,Q
2023-03-14 18:12:45:92,0,-9.90347,-1.9226,62.9814,Q,Q
2023-03-14 18:12:45:103,0,-9.90391,-1.93,62.9896,Q,Q
2023-03-14 18:12:45:113,0,-9.90623,-1.93225,63.0017,Q,Q
2023-03-14 18:12:45:123,0,-9.9159,-1.93967,63.0138,Q,Q
2023-03-14 18:12:45:133,0,-9.92663,-1.95194,63.029,Q,Q
2023-03-14 18:12:45:143,0,-9.94159,-1.96454,63.0436,Q,Q
2023-03-14 18:12:45:152,0,-9.95409,-1.97679,63.0577,Q,Q
2023-03-14 18:12:45:162,0,-9.9706,-1.98695,63.0735,Q,Q
2023-03-14 18:12:45:173,0,-9.98372,-1.99989,63.0936,Q,Q
2023-03-14 18:12:45:183,0,-10.0039,-2.01508,63.1161,Q,Q
2023-03-14 18:12:45:193,0,-10.0282,-2.0273,63.1442,Q,Q
2023-03-14 18:12:45:203,0,-10.054,-2.03824,63.1751,Q,Q
2023-03-14 18:12:45:213,0,-10.077,-2.05265,63.2056,Q,Q
2023-03-14 18:12:45:223,0,-10.1049,-2.06633,63.245,Q,Q
2023-03-14 18:12:45:233,0,-10.1408,-2.08333,63.2853,Q,Q
2023-03-14 18:12:45:243,0,-10.1839,-2.10251,63.3304,Q,Q
2023-03-14 18:12:45:253,0,-10.2354,-2.12031,63.3801,Q,Q
2023-03-14 18:12:45:263,0,-10.2956,-2.14195,63.4365,Q,Q
2023-03-14 18:12:45:272,0,-10.3651,-2.16297,63.5038,Q,Q
2023-03-14 18:12:45:283,0,-10.4399,-2.18066,63.5765,Q,Q
2023-03-14 18:12:45:293,0,-10.5219,-2.19051,63.6475,Q,Q
2023-03-14 18:12:45:303,0,-10.6132,-2.1945,63.7178,Q,Q
2023-03-14 18:12:45:313,0,-10.7228,-2.19306,63.7902,Q,Q
2023-03-14 18:12:45:323,0,-10.8589,-2.19221,63.8633,Q,Q
2023-03-14 18:12:45:333,0,-11.0323,-2.18882,63.9438,Q,Q
2023-03-14 18:12:45:343,0,-11.2505,-2.1947,64.0334,Q,Q
2023-03-14 18:12:45:353,0,-11.5211,-2.21187,64.1367,Q,Q
2023-03-14 18:12:45:363,0,-11.8542,-2.24065,64.2631,Q,Q
2023-03-14 18:12:45:373,0,-12.2446,-2.27347,64.413,Q,Q
2023-03-14 18:12:45:382,0,-12.6913,-2.31362,64.5837,Q,Q
2023-03-14 18:12:45:392,0,-13.1932,-2.36165,64.7744,Q,Q
2023-03-14 18:12:45:403,0,-13.7533,-2.41635,64.9845,Q,Q
2023-03-14 18:12:45:412,0,-14.359,-2.48018,65.2213,Q,Q
2023-03-14 18:12:45:423,0,-15.0146,-2.55798,65.4794,Q,Q
2023-03-14 18:12:45:432,0,-15.7103,-2.63519,65.7574,Q,Q
2023-03-14 18:12:45:443,0,-16.4267,-2.71427,66.0484,Q,Q
2023-03-14 18:12:45:452,0,-17.1387,-2.78845,66.3514,Q,Q
2023-03-14 18:12:45:463,0,-17.828,-2.85497,66.6583,Q,Q
2023-03-14 18:12:45:472,0,-18.4803,-2.90513,66.9667,Q,Q
2023-03-14 18:12:45:483,0,-19.0928,-2.94464,67.2683,Q,Q
2023-03-14 18:12:45:492,0,-19.6795,-2.97166,67.5628,Q,Q
2023-03-14 18:12:45:502,0,-20.2532,-2.99232,67.8503,Q,Q
2023-03-14 18:12:45:513,0,-20.8181,-3.01354,68.1335,Q,Q
2023-03-14 18:12:45:523,0,-21.3601,-3.03962,68.4116,Q,Q
2023-03-14 18:12:45:532,0,-21.8586,-3.06668,68.6727,Q,Q
2023-03-14 18:12:45:543,0,-22.2888,-3.09015,68.9089,Q,Q
2023-03-14 18:12:45:552,0,-22.6395,-3.10488,69.1143,Q,Q
2023-03-14 18:12:45:563,0,-22.9229,-3.11815,69.2934,Q,Q
2023-03-14 18:12:45:572,0,-23.1566,-3.13018,69.4462,Q,Q
2023-03-14 18:12:45:583,0,-23.3678,-3.15363,69.5745,Q,Q
2023-03-14 18:12:45:592,0,-23.5678,-3.19055,69.6789,Q,Q
2023-03-14 18:12:45:603,0,-23.7596,-3.20601,69.7651,Q,Q
2023-03-14 18:12:45:612,0,-23.9279,-3.20275,69.8456,Q,Q
2023-03-14 18:12:45:623,0,-24.0633,-3.21063,69.916,Q,Q
2023-03-14 18:12:45:632,0,-24.1729,-3.22877,69.9711,Q,Q
2023-03-14 18:12:45:643,0,-24.2567,-3.24241,70.0047,Q,Q
2023-03-14 18:12:45:653,0,-24.3125,-3.24621,70.0158,Q,Q
2023-03-14 18:12:45:663,0,-24.3393,-3.2512,70.0068,Q,Q
2023-03-14 18:12:45:673,0,-24.3524,-3.25468,69.9836,Q,Q
2023-03-14 18:12:45:683,0,-24.3445,-3.25635,69.9596,Q,Q
2023-03-14 18:12:45:693,0,-24.3231,-3.26443,69.9394,Q,Q
2023-03-14 18:12:45:703,0,-24.2711,-3.25863,69.9201,Q,Q
2023-03-14 18:12:45:713,0,-24.1727,-3.24545,69.896,Q,Q
2023-03-14 18:12:45:723,0,-24.0372,-3.23275,69.8728,Q,Q
2023-03-14 18:12:45:733,0,-23.8926,-3.23291,69.8496,Q,Q
2023-03-14 18:12:45:743,0,-23.7585,-3.25594,69.8215,Q,Q
2023-03-14 18:12:45:753,0,-23.65,-3.2911,69.7861,Q,Q
2023-03-14 18:12:45:763,0,-23.5601,-3.33099,69.7333,Q,Q
2023-03-14 18:12:45:773,0,-23.4677,-3.37872,69.6561,Q,Q
2023-03-14 18:12:45:783,0,-23.3697,-3.43144,69.5618,Q,Q
2023-03-14 18:12:45:792,0,-23.2614,-3.49705,69.4441,Q,Q
2023-03-14 18:12:45:803,0,-23.1448,-3.56327,69.3038,Q,Q
2023-03-14 18:12:45:813,0,-23.0163,-3.63536,69.1451,Q,Q
2023-03-14 18:12:45:823,0,-22.8693,-3.70311,68.9641,Q,Q
2023-03-14 18:12:45:832,0,-22.7024,-3.76663,68.7657,Q,Q
2023-03-14 18:12:45:843,0,-22.5253,-3.81942,68.5492,Q,Q
2023-03-14 18:12:45:852,0,-22.3504,-3.87177,68.3237,Q,Q
2023-03-14 18:12:45:862,0,-22.1807,-3.92547,68.0925,Q,Q
2023-03-14 18:12:45:873,0,-22.0154,-3.97954,67.856,Q,Q
2023-03-14 18:12:45:883,0,-21.8534,-4.03753,67.6138,Q,Q
2023-03-14 18:12:45:892,0,-21.6972,-4.09133,67.3682,Q,Q
2023-03-14 18:12:45:903,0,-21.5405,-4.13228,67.123,Q,Q
2023-03-14 18:12:45:913,0,-21.3787,-4.16886,66.8799,Q,Q
2023-03-14 18:12:45:923,0,-21.2105,-4.19532,66.6442,Q,Q
2023-03-14 18:12:45:933,0,-21.0349,-4.21737,66.4149,Q,Q
2023-03-14 18:12:45:943,0,-20.8622,-4.23809,66.1983,Q,Q
2023-03-14 18:12:45:953,0,-20.6922,-4.25717,65.9974,Q,Q
2023-03-14 18:12:45:963,0,-20.5255,-4.25908,65.8085,Q,Q
2023-03-14 18:12:45:972,0,-20.352,-4.24717,65.6369,Q,Q
2023-03-14 18:12:45:983,0,-20.1755,-4.23007,65.4756,Q,Q
2023-03-14 18:12:45:993,0,-20.0014,-4.20635,65.3249,Q,Q
2023-03-14 18:12:46:2,0,-19.833,-4.18075,65.1902,Q,Q
2023-03-14 18:12:46:12,0,-19.676,-4.15406,65.0646,Q,Q
2023-03-14 18:12:46:22,0,-19.5348,-4.12769,64.9504,Q,Q
2023-03-14 18:12:46:32,0,-19.4082,-4.10715,64.8481,Q,Q
2023-03-14 18:12:46:42,0,-19.2923,-4.08872,64.7535,Q,Q
2023-03-14 18:12:46:52,0,-19.1943,-4.07307,64.6656,Q,Q
2023-03-14 18:12:46:63,0,-19.1015,-4.05671,64.5798,Q,Q
2023-03-14 18:12:46:72,0,-19.02,-4.04771,64.4965,Q,Q
2023-03-14 18:12:46:83,0,-18.9464,-4.0447,64.4141,Q,Q
2023-03-14 18:12:46:92,0,-18.8791,-4.05023,64.3378,Q,Q
2023-03-14 18:12:46:103,0,-18.8229,-4.05457,64.2613,Q,Q
2023-03-14 18:12:46:112,0,-18.7654,-4.05426,64.1886,Q,Q
2023-03-14 18:12:46:123,0,-18.7015,-4.05556,64.1155,Q,Q
2023-03-14 18:12:46:133,0,-18.6376,-4.05669,64.0427,Q,Q
2023-03-14 18:12:46:143,0,-18.5745,-4.04303,63.9732,Q,Q
2023-03-14 18:12:46:153,0,-18.4997,-4.01752,63.9063,Q,Q
2023-03-14 18:12:46:163,0,-18.4127,-4.00373,63.8383,Q,Q
2023-03-14 18:12:46:173,0,-18.3296,-4.00138,63.7768,Q,Q
2023-03-14 18:12:46:183,0,-18.2578,-4.01152,63.7213,Q,Q
2023-03-14 18:12:46:193,0,-18.1933,-4.02552,63.6771,Q,Q
2023-03-14 18:12:46:203,0,-18.1396,-4.04764,63.6439,Q,Q
2023-03-14 18:12:46:212,0,-18.0825,-4.06892,63.6197,Q,Q
2023-03-14 18:12:46:223,0,-18.0178,-4.08617,63.6013,Q,Q
2023-03-14 18:12:46:233,0,-17.9434,-4.10237,63.5877,Q,Q
2023-03-14 18:12:46:243,0,-17.8717,-4.12073,63.5777,Q,Q
2023-03-14 18:12:46:253,0,-17.8011,-4.13869,63.5713,Q,Q
2023-03-14 18:12:46:263,0,-17.7338,-4.15817,63.5711,Q,Q
2023-03-14 18:12:46:272,0,-17.6635,-4.17576,63.5732,Q,Q
2023-03-14 18:12:46:283,0,-17.5929,-4.19342,63.5805,Q,Q
2023-03-14 18:12:46:293,0,-17.5233,-4.20708,63.5893,Q,Q
2023-03-14 18:12:46:303,0,-17.4494,-4.21947,63.5973,Q,Q
2023-03-14 18:12:46:313,0,-17.3755,-4.23057,63.6055,Q,Q
2023-03-14 18:12:46:323,0,-17.3097,-4.2442,63.615,Q,Q
2023-03-14 18:12:46:333,0,-17.2526,-4.26015,63.6237,Q,Q
2023-03-14 18:12:46:343,0,-17.2021,-4.27412,63.6341,Q,Q
2023-03-14 18:12:46:352,0,-17.1537,-4.27748,63.6408,Q,Q
2023-03-14 18:12:46:363,0,-17.0941,-4.26539,63.647,Q,Q
2023-03-14 18:12:46:373,0,-17.0244,-4.2491,63.6484,Q,Q
2023-03-14 18:12:46:383,0,-16.9516,-4.23065,63.6472,Q,Q
2023-03-14 18:12:46:393,0,-16.8808,-4.21559,63.6484,Q,Q
2023-03-14 18:12:46:403,0,-16.8125,-4.20613,63.6523,Q,Q
2023-03-14 18:12:46:413,0,-16.7412,-4.19644,63.6557,Q,Q
2023-03-14 18:12:46:423,0,-16.672,-4.18191,63.6656,Q,Q
2023-03-14 18:12:46:433,0,-16.5911,-4.16942,63.6736,Q,Q
2023-03-14 18:12:46:443,0,-16.5043,-4.15517,63.6825,Q,Q
2023-03-14 18:12:46:453,0,-16.4133,-4.14047,63.7006,Q,Q
2023-03-14 18:12:46:463,0,-16.3132,-4.12521,63.7211,Q,Q
2023-03-14 18:12:46:473,0,-16.2158,-4.11471,63.7449,Q,Q
2023-03-14 18:12:46:483,0,-16.1179,-4.10285,63.7734,Q,Q
2023-03-14 18:12:46:493,0,-16.0192,-4.08747,63.8098,Q,Q
2023-03-14 18:12:46:503,0,-15.9233,-4.07291,63.8483,Q,Q
2023-03-14 18:12:46:513,0,-15.8287,-4.0503,63.8909,Q,Q
2023-03-14 18:12:46:523,0,-15.7262,-4.01358,63.9362,Q,Q
