Timestamp_cmd,imu_cmd,roll_delta,pitch_delta,yaw_delta,voice_type,voice_length
2023-03-15 21:43:14:988,0,-11.8493,-10.3938,44.1341,Q,Q
2023-03-15 21:43:14:996,0,-12.0262,-10.381,44.4794,Q,Q
2023-03-15 21:43:15:6,0,-12.201,-10.367,44.8226,Q,Q
2023-03-15 21:43:15:16,0,-12.3732,-10.3541,45.1671,Q,Q
2023-03-15 21:43:15:27,0,-12.542,-10.3422,45.5157,Q,Q
2023-03-15 21:43:15:36,0,-12.7115,-10.3356,45.8593,Q,Q
2023-03-15 21:43:15:46,0,-12.8886,-10.3281,46.2042,Q,Q
2023-03-15 21:43:15:56,0,-13.0712,-10.3301,46.5499,Q,Q
2023-03-15 21:43:15:66,0,-13.2638,-10.3395,46.8934,Q,Q
2023-03-15 21:43:15:76,0,-13.4566,-10.3518,47.2285,Q,Q
2023-03-15 21:43:15:87,0,-13.6441,-10.3648,47.5554,Q,Q
2023-03-15 21:43:15:96,0,-13.8234,-10.378,47.8748,Q,Q
2023-03-15 21:43:15:107,0,-13.9942,-10.3868,48.1879,Q,Q
2023-03-15 21:43:15:116,0,-14.163,-10.3997,48.4927,Q,Q
2023-03-15 21:43:15:127,0,-14.33,-10.4101,48.7961,Q,Q
2023-03-15 21:43:15:136,0,-14.4907,-10.4157,49.0888,Q,Q
2023-03-15 21:43:15:147,0,-14.6539,-10.4289,49.3758,Q,Q
2023-03-15 21:43:15:156,0,-14.8265,-10.438,49.6513,Q,Q
2023-03-15 21:43:15:167,0,-14.9958,-10.4461,49.9143,Q,Q
2023-03-15 21:43:15:177,0,-15.1602,-10.453,50.1579,Q,Q
2023-03-15 21:43:15:187,0,-15.3186,-10.453,50.3853,Q,Q
2023-03-15 21:43:15:197,0,-15.4728,-10.4516,50.5978,Q,Q
2023-03-15 21:43:15:207,0,-15.6183,-10.4443,50.7921,Q,Q
2023-03-15 21:43:15:217,0,-15.7564,-10.4334,50.9673,Q,Q
2023-03-15 21:43:15:227,0,-15.8877,-10.4169,51.1365,Q,Q
2023-03-15 21:43:15:237,0,-16.0116,-10.3983,51.2921,Q,Q
2023-03-15 21:43:15:247,0,-16.1386,-10.381,51.4408,Q,Q
2023-03-15 21:43:15:257,0,-16.2697,-10.3693,51.5916,Q,Q
2023-03-15 21:43:15:266,0,-16.4048,-10.3702,51.7295,Q,Q
2023-03-15 21:43:15:276,0,-16.5441,-10.3783,51.8631,Q,Q
2023-03-15 21:43:15:286,0,-16.6762,-10.3981,51.9927,Q,Q
2023-03-15 21:43:15:296,0,-16.8044,-10.4271,52.1194,Q,Q
2023-03-15 21:43:15:306,0,-16.9251,-10.462,52.2396,Q,Q
2023-03-15 21:43:15:316,0,-17.0403,-10.507,52.3568,Q,Q
2023-03-15 21:43:15:326,0,-17.1487,-10.5557,52.4725,Q,Q
2023-03-15 21:43:15:336,0,-17.2567,-10.6069,52.587,Q,Q
2023-03-15 21:43:15:346,0,-17.3605,-10.6593,52.6991,Q,Q
2023-03-15 21:43:15:356,0,-17.4718,-10.7146,52.8125,Q,Q
2023-03-15 21:43:15:366,0,-17.5827,-10.7739,52.9236,Q,Q
2023-03-15 21:43:15:376,0,-17.6947,-10.8307,53.0315,Q,Q
2023-03-15 21:43:15:386,0,-17.8007,-10.8899,53.1373,Q,Q
2023-03-15 21:43:15:396,0,-17.9025,-10.9446,53.2386,Q,Q
2023-03-15 21:43:15:406,0,-18.001,-10.9955,53.3387,Q,Q
2023-03-15 21:43:15:416,0,-18.0927,-11.0452,53.4377,Q,Q
2023-03-15 21:43:15:426,0,-18.1781,-11.0821,53.5369,Q,Q
2023-03-15 21:43:15:436,0,-18.2528,-11.1129,53.6321,Q,Q
2023-03-15 21:43:15:446,0,-18.3239,-11.1389,53.7244,Q,Q
2023-03-15 21:43:15:456,0,-18.3881,-11.1601,53.8147,Q,Q
2023-03-15 21:43:15:466,0,-18.4474,-11.1761,53.9021,Q,Q
2023-03-15 21:43:15:476,0,-18.4985,-11.1887,53.9829,Q,Q
2023-03-15 21:43:15:486,0,-18.5462,-11.198,54.059,Q,Q
2023-03-15 21:43:15:496,0,-18.5901,-11.2037,54.133,Q,Q
2023-03-15 21:43:15:506,0,-18.6331,-11.2066,54.2061,Q,Q
2023-03-15 21:43:15:516,0,-18.6752,-11.2057,54.2785,Q,Q
2023-03-15 21:43:15:526,0,-18.7176,-11.202,54.3441,Q,Q
2023-03-15 21:43:15:536,0,-18.7579,-11.1937,54.4038,Q,Q
2023-03-15 21:43:15:546,0,-18.7931,-11.1845,54.4644,Q,Q
2023-03-15 21:43:15:556,0,-18.8281,-11.1692,54.5213,Q,Q
2023-03-15 21:43:15:566,0,-18.8622,-11.1624,54.5836,Q,Q
2023-03-15 21:43:15:576,0,-18.9028,-11.1521,54.6414,Q,Q
2023-03-15 21:43:15:586,0,-18.9418,-11.1503,54.6991,Q,Q
2023-03-15 21:43:15:596,0,-18.9827,-11.1531,54.7574,Q,Q
2023-03-15 21:43:15:606,0,-19.0269,-11.1553,54.8096,Q,Q
2023-03-15 21:43:15:616,0,-19.0766,-11.1617,54.862,Q,Q
2023-03-15 21:43:15:626,0,-19.1256,-11.1652,54.9142,Q,Q
2023-03-15 21:43:15:636,0,-19.1698,-11.1657,54.9664,Q,Q
2023-03-15 21:43:15:646,0,-19.2152,-11.167,55.0207,Q,Q
2023-03-15 21:43:15:656,0,-19.259,-11.1626,55.0721,Q,Q
2023-03-15 21:43:15:666,0,-19.3014,-11.1559,55.1244,Q,Q
2023-03-15 21:43:15:676,0,-19.3408,-11.1532,55.1812,Q,Q
2023-03-15 21:43:15:686,0,-19.3792,-11.1499,55.236,Q,Q
2023-03-15 21:43:15:696,0,-19.4098,-11.142,55.2911,Q,Q
2023-03-15 21:43:15:706,0,-19.4399,-11.1375,55.3422,Q,Q
2023-03-15 21:43:15:716,0,-19.4639,-11.128,55.3903,Q,Q
2023-03-15 21:43:15:726,0,-19.4881,-11.1178,55.4304,Q,Q
2023-03-15 21:43:15:736,0,-19.5106,-11.1089,55.4702,Q,Q
2023-03-15 21:43:15:746,0,-19.5333,-11.1039,55.505,Q,Q
2023-03-15 21:43:15:756,0,-19.5579,-11.1015,55.5368,Q,Q
2023-03-15 21:43:15:766,0,-19.5793,-11.1041,55.5672,Q,Q
2023-03-15 21:43:15:776,0,-19.5967,-11.1084,55.5943,Q,Q
2023-03-15 21:43:15:786,0,-19.6142,-11.115,55.6168,Q,Q
2023-03-15 21:43:15:796,0,-19.6349,-11.117,55.6426,Q,Q
2023-03-15 21:43:15:806,0,-19.6525,-11.127,55.6681,Q,Q
2023-03-15 21:43:15:816,0,-19.6645,-11.1402,55.6891,Q,Q
2023-03-15 21:43:15:826,0,-19.6748,-11.155,55.7113,Q,Q
2023-03-15 21:43:15:836,0,-19.6856,-11.1694,55.7309,Q,Q
2023-03-15 21:43:15:846,0,-19.6968,-11.1868,55.7525,Q,Q
2023-03-15 21:43:15:856,0,-19.7094,-11.2044,55.7707,Q,Q
2023-03-15 21:43:15:866,0,-19.7222,-11.2287,55.7857,Q,Q
2023-03-15 21:43:15:876,0,-19.7361,-11.2488,55.8062,Q,Q
2023-03-15 21:43:15:886,0,-19.7453,-11.2701,55.8242,Q,Q
2023-03-15 21:43:15:896,0,-19.7515,-11.2905,55.8424,Q,Q
2023-03-15 21:43:15:906,0,-19.7527,-11.3118,55.8564,Q,Q
2023-03-15 21:43:15:916,0,-19.7499,-11.3338,55.8672,Q,Q
2023-03-15 21:43:15:926,0,-19.7471,-11.3566,55.8804,Q,Q
2023-03-15 21:43:15:936,0,-19.7444,-11.3805,55.8961,Q,Q
2023-03-15 21:43:15:946,0,-19.7442,-11.4083,55.9099,Q,Q
2023-03-15 21:43:15:956,0,-19.75,-11.4313,55.9216,Q,Q
2023-03-15 21:43:15:966,0,-19.7578,-11.453,55.9336,Q,Q
2023-03-15 21:43:15:976,0,-19.7607,-11.4717,55.9394,Q,Q
2023-03-15 21:43:15:986,0,-19.7672,-11.481,55.9447,Q,Q
2023-03-15 21:43:15:996,0,-19.771,-11.49,55.9454,Q,Q
2023-03-15 21:43:16:6,0,-19.7754,-11.4972,55.9449,Q,Q
2023-03-15 21:43:16:16,0,-19.7797,-11.5027,55.9417,Q,Q
2023-03-15 21:43:16:26,0,-19.7858,-11.5122,55.9434,Q,Q
2023-03-15 21:43:16:36,0,-19.7934,-11.5185,55.945,Q,Q
2023-03-15 21:43:16:46,0,-19.7989,-11.5218,55.9425,Q,Q
2023-03-15 21:43:16:56,0,-19.8001,-11.5236,55.941,Q,Q
2023-03-15 21:43:16:66,0,-19.7983,-11.5277,55.937,Q,Q
2023-03-15 21:43:16:76,0,-19.7937,-11.5272,55.9347,Q,Q
2023-03-15 21:43:16:86,0,-19.7875,-11.5281,55.9292,Q,Q
2023-03-15 21:43:16:96,0,-19.7746,-11.526,55.9232,Q,Q
2023-03-15 21:43:16:106,0,-19.7643,-11.519,55.9188,Q,Q
2023-03-15 21:43:16:116,0,-19.7516,-11.515,55.9176,Q,Q
2023-03-15 21:43:16:126,0,-19.74,-11.5099,55.9133,Q,Q
2023-03-15 21:43:16:136,0,-19.7257,-11.5046,55.907,Q,Q
2023-03-15 21:43:16:146,0,-19.7126,-11.5074,55.9038,Q,Q
2023-03-15 21:43:16:156,0,-19.6978,-11.5122,55.901,Q,Q
2023-03-15 21:43:16:166,0,-19.6811,-11.5167,55.8996,Q,Q
2023-03-15 21:43:16:176,0,-19.6595,-11.5206,55.8952,Q,Q
2023-03-15 21:43:16:186,0,-19.6397,-11.5274,55.8936,Q,Q
2023-03-15 21:43:16:196,0,-19.6184,-11.5366,55.8935,Q,Q
2023-03-15 21:43:16:206,0,-19.6019,-11.5421,55.8974,Q,Q
2023-03-15 21:43:16:216,0,-19.5881,-11.5472,55.9022,Q,Q
2023-03-15 21:43:16:226,0,-19.5775,-11.5511,55.9063,Q,Q
2023-03-15 21:43:16:236,0,-19.5682,-11.5571,55.9116,Q,Q
2023-03-15 21:43:16:246,0,-19.5591,-11.5625,55.9168,Q,Q
2023-03-15 21:43:16:256,0,-19.5541,-11.5647,55.9218,Q,Q
2023-03-15 21:43:16:266,0,-19.5482,-11.5753,55.9226,Q,Q
2023-03-15 21:43:16:276,0,-19.542,-11.5873,55.9249,Q,Q
2023-03-15 21:43:16:286,0,-19.5298,-11.5974,55.925,Q,Q
2023-03-15 21:43:16:296,0,-19.5161,-11.6073,55.9234,Q,Q
2023-03-15 21:43:16:306,0,-19.4997,-11.6205,55.9212,Q,Q
2023-03-15 21:43:16:316,0,-19.4816,-11.6325,55.9217,Q,Q
2023-03-15 21:43:16:326,0,-19.4637,-11.6417,55.9162,Q,Q
2023-03-15 21:43:16:336,0,-19.4466,-11.6559,55.9118,Q,Q
2023-03-15 21:43:16:346,0,-19.4333,-11.6703,55.906,Q,Q
2023-03-15 21:43:16:356,0,-19.4212,-11.6857,55.8974,Q,Q
2023-03-15 21:43:16:366,0,-19.4055,-11.7039,55.8801,Q,Q
2023-03-15 21:43:16:376,0,-19.3922,-11.7296,55.8612,Q,Q
2023-03-15 21:43:16:386,0,-19.3825,-11.7554,55.8361,Q,Q
2023-03-15 21:43:16:396,0,-19.371,-11.7865,55.8103,Q,Q
2023-03-15 21:43:16:406,0,-19.3605,-11.8162,55.7795,Q,Q
2023-03-15 21:43:16:416,0,-19.3502,-11.8478,55.742,Q,Q
2023-03-15 21:43:16:426,0,-19.3446,-11.8759,55.7002,Q,Q
2023-03-15 21:43:16:436,0,-19.3391,-11.9066,55.6562,Q,Q
2023-03-15 21:43:16:446,0,-19.3328,-11.9369,55.609,Q,Q
2023-03-15 21:43:16:456,0,-19.3337,-11.9682,55.5601,Q,Q
2023-03-15 21:43:16:466,0,-19.3307,-11.9998,55.5116,Q,Q
2023-03-15 21:43:16:476,0,-19.3325,-12.0301,55.4668,Q,Q
2023-03-15 21:43:16:486,0,-19.3393,-12.0543,55.419,Q,Q
2023-03-15 21:43:16:496,0,-19.3458,-12.0787,55.3759,Q,Q
2023-03-15 21:43:16:506,0,-19.3533,-12.1003,55.3341,Q,Q
2023-03-15 21:43:16:516,0,-19.3594,-12.1145,55.3,Q,Q
2023-03-15 21:43:16:526,0,-19.3637,-12.1199,55.2687,Q,Q
2023-03-15 21:43:16:536,0,-19.3647,-12.1234,55.2482,Q,Q
2023-03-15 21:43:16:546,0,-19.3634,-12.1307,55.2325,Q,Q
2023-03-15 21:43:16:556,0,-19.3657,-12.1345,55.2262,Q,Q
2023-03-15 21:43:16:566,0,-19.3725,-12.1358,55.2258,Q,Q
2023-03-15 21:43:16:576,0,-19.3879,-12.1367,55.2341,Q,Q
2023-03-15 21:43:16:586,0,-19.4021,-12.1382,55.244,Q,Q
2023-03-15 21:43:16:596,0,-19.4187,-12.1315,55.2614,Q,Q
2023-03-15 21:43:16:606,0,-19.4355,-12.1222,55.2823,Q,Q
2023-03-15 21:43:16:616,0,-19.4523,-12.1083,55.3063,Q,Q
2023-03-15 21:43:16:626,0,-19.4677,-12.0973,55.3357,Q,Q
2023-03-15 21:43:16:636,0,-19.4835,-12.0853,55.3677,Q,Q
2023-03-15 21:43:16:646,0,-19.4998,-12.0763,55.4084,Q,Q
2023-03-15 21:43:16:656,0,-19.5152,-12.0698,55.4499,Q,Q
2023-03-15 21:43:16:666,0,-19.5286,-12.0629,55.4935,Q,Q
2023-03-15 21:43:16:676,0,-19.5424,-12.0561,55.5389,Q,Q
2023-03-15 21:43:16:686,0,-19.55,-12.0587,55.585,Q,Q
2023-03-15 21:43:16:696,0,-19.5526,-12.0629,55.6315,Q,Q
2023-03-15 21:43:16:706,0,-19.5558,-12.0687,55.6841,Q,Q
2023-03-15 21:43:16:716,0,-19.552,-12.0792,55.7399,Q,Q
2023-03-15 21:43:16:726,0,-19.5492,-12.0924,55.7995,Q,Q
2023-03-15 21:43:16:736,0,-19.54,-12.1064,55.8617,Q,Q
2023-03-15 21:43:16:746,0,-19.5275,-12.1209,55.9265,Q,Q
2023-03-15 21:43:16:756,0,-19.5174,-12.1343,55.9932,Q,Q
2023-03-15 21:43:16:766,0,-19.5041,-12.1533,56.0622,Q,Q
2023-03-15 21:43:16:776,0,-19.4889,-12.1737,56.1324,Q,Q
2023-03-15 21:43:16:786,0,-19.4688,-12.1903,56.2027,Q,Q
2023-03-15 21:43:16:796,0,-19.4473,-12.2074,56.2777,Q,Q
2023-03-15 21:43:16:806,0,-19.4274,-12.2262,56.349,Q,Q
2023-03-15 21:43:16:816,0,-19.4049,-12.248,56.4188,Q,Q
2023-03-15 21:43:16:826,0,-19.3853,-12.2647,56.4857,Q,Q
2023-03-15 21:43:16:836,0,-19.3622,-12.2823,56.5498,Q,Q
2023-03-15 21:43:16:846,0,-19.3431,-12.2993,56.6076,Q,Q
2023-03-15 21:43:16:856,0,-19.321,-12.3132,56.6583,Q,Q
2023-03-15 21:43:16:867,0,-19.3051,-12.3283,56.7059,Q,Q
2023-03-15 21:43:16:876,0,-19.2868,-12.3455,56.7477,Q,Q
2023-03-15 21:43:16:886,0,-19.2725,-12.3602,56.7843,Q,Q
2023-03-15 21:43:16:896,0,-19.2627,-12.377,56.818,Q,Q
2023-03-15 21:43:16:906,0,-19.2533,-12.3998,56.8464,Q,Q
2023-03-15 21:43:16:916,0,-19.2453,-12.4187,56.8755,Q,Q
2023-03-15 21:43:16:926,0,-19.237,-12.4382,56.8998,Q,Q
2023-03-15 21:43:16:936,0,-19.237,-12.4578,56.9237,Q,Q
2023-03-15 21:43:16:946,0,-19.235,-12.4781,56.9443,Q,Q
2023-03-15 21:43:16:956,0,-19.2364,-12.4987,56.9681,Q,Q
2023-03-15 21:43:16:966,0,-19.237,-12.5148,56.9914,Q,Q
2023-03-15 21:43:16:976,0,-19.241,-12.5364,57.0161,Q,Q
2023-03-15 21:43:16:987,0,-19.2483,-12.5599,57.0418,Q,Q
2023-03-15 21:43:16:996,0,-19.2648,-12.5831,57.0683,Q,Q
2023-03-15 21:43:17:6,0,-19.2826,-12.603,57.097,Q,Q
2023-03-15 21:43:17:16,0,-19.2985,-12.6211,57.1275,Q,Q
2023-03-15 21:43:17:26,0,-19.3109,-12.6356,57.1597,Q,Q
2023-03-15 21:43:17:36,0,-19.3206,-12.6453,57.1976,Q,Q
2023-03-15 21:43:17:46,0,-19.3324,-12.6545,57.2377,Q,Q
2023-03-15 21:43:17:56,0,-19.3431,-12.6608,57.281,Q,Q
2023-03-15 21:43:17:66,0,-19.3478,-12.6667,57.3236,Q,Q
2023-03-15 21:43:17:76,0,-19.3521,-12.6689,57.3707,Q,Q
2023-03-15 21:43:17:86,0,-19.356,-12.669,57.4184,Q,Q
2023-03-15 21:43:17:96,0,-19.3539,-12.6675,57.4634,Q,Q
2023-03-15 21:43:17:106,0,-19.3557,-12.6611,57.507,Q,Q
2023-03-15 21:43:17:116,0,-19.3572,-12.6576,57.5451,Q,Q
2023-03-15 21:43:17:126,0,-19.3629,-12.6573,57.582,Q,Q
2023-03-15 21:43:17:136,0,-19.3673,-12.6515,57.6182,Q,Q
2023-03-15 21:43:17:146,0,-19.3678,-12.6482,57.6507,Q,Q
2023-03-15 21:43:17:156,0,-19.3698,-12.6408,57.6766,Q,Q
2023-03-15 21:43:17:166,0,-19.3679,-12.6329,57.701,Q,Q
2023-03-15 21:43:17:176,0,-19.3639,-12.6247,57.7177,Q,Q
2023-03-15 21:43:17:186,0,-19.3592,-12.6149,57.7299,Q,Q
2023-03-15 21:43:17:196,0,-19.3475,-12.6057,57.7331,Q,Q
2023-03-15 21:43:17:206,0,-19.336,-12.6029,57.7346,Q,Q
2023-03-15 21:43:17:216,0,-19.3255,-12.5981,57.7322,Q,Q
2023-03-15 21:43:17:226,0,-19.3201,-12.5967,57.7254,Q,Q
2023-03-15 21:43:17:236,0,-19.3163,-12.6,57.714,Q,Q
2023-03-15 21:43:17:247,0,-19.3113,-12.6044,57.7013,Q,Q
2023-03-15 21:43:17:256,0,-19.3143,-12.6082,57.687,Q,Q
2023-03-15 21:43:17:266,0,-19.3175,-12.6083,57.6676,Q,Q
2023-03-15 21:43:17:276,0,-19.3267,-12.6069,57.6496,Q,Q
2023-03-15 21:43:17:287,0,-19.3293,-12.6006,57.6279,Q,Q
2023-03-15 21:43:17:296,0,-19.3331,-12.5895,57.6061,Q,Q
2023-03-15 21:43:17:307,0,-19.3377,-12.5753,57.5901,Q,Q
2023-03-15 21:43:17:316,0,-19.3418,-12.5631,57.5746,Q,Q
2023-03-15 21:43:17:326,0,-19.3544,-12.5473,57.5579,Q,Q
2023-03-15 21:43:17:336,0,-19.3573,-12.5319,57.5386,Q,Q
2023-03-15 21:43:17:346,0,-19.3566,-12.5121,57.5109,Q,Q
2023-03-15 21:43:17:356,0,-19.3555,-12.4931,57.4764,Q,Q
2023-03-15 21:43:17:367,0,-19.3518,-12.4758,57.4343,Q,Q
2023-03-15 21:43:17:376,0,-19.3417,-12.4654,57.3744,Q,Q
2023-03-15 21:43:17:386,0,-19.3336,-12.4579,57.2898,Q,Q
2023-03-15 21:43:17:396,0,-19.3179,-12.4579,57.1721,Q,Q
2023-03-15 21:43:17:406,0,-19.2939,-12.4617,57.0134,Q,Q
2023-03-15 21:43:17:416,0,-19.2546,-12.4813,56.7885,Q,Q
2023-03-15 21:43:17:427,0,-19.1925,-12.5201,56.4752,Q,Q
2023-03-15 21:43:17:436,0,-19.0924,-12.5837,56.0397,Q,Q
2023-03-15 21:43:17:447,0,-18.9489,-12.6687,55.4572,Q,Q
2023-03-15 21:43:17:456,0,-18.7793,-12.7798,54.7345,Q,Q
2023-03-15 21:43:17:467,0,-18.5971,-12.9244,53.8852,Q,Q
2023-03-15 21:43:17:476,0,-18.4056,-13.1005,52.9273,Q,Q
2023-03-15 21:43:17:486,0,-18.2023,-13.2936,51.8674,Q,Q
2023-03-15 21:43:17:496,0,-17.9844,-13.4927,50.7344,Q,Q
2023-03-15 21:43:17:506,0,-17.7582,-13.6877,49.5424,Q,Q
2023-03-15 21:43:17:516,0,-17.5231,-13.8695,48.3153,Q,Q
2023-03-15 21:43:17:527,0,-17.2794,-14.0268,47.0642,Q,Q
2023-03-15 21:43:17:536,0,-17.0331,-14.1645,45.8047,Q,Q
2023-03-15 21:43:17:547,0,-16.7799,-14.2792,44.556,Q,Q
2023-03-15 21:43:17:556,0,-16.527,-14.3706,43.3273,Q,Q
2023-03-15 21:43:17:566,0,-16.2832,-14.4379,42.1366,Q,Q
2023-03-15 21:43:17:576,0,-16.0428,-14.4785,40.9869,Q,Q
2023-03-15 21:43:17:586,0,-15.8159,-14.496,39.8949,Q,Q
2023-03-15 21:43:17:596,0,-15.6023,-14.4922,38.8688,Q,Q
2023-03-15 21:43:17:606,0,-15.4041,-14.458,37.925,Q,Q
2023-03-15 21:43:17:616,0,-15.2224,-14.402,37.0654,Q,Q
2023-03-15 21:43:17:626,0,-15.0598,-14.3215,36.2962,Q,Q
2023-03-15 21:43:17:636,0,-14.911,-14.2238,35.6133,Q,Q
2023-03-15 21:43:17:646,0,-14.7792,-14.111,35.0109,Q,Q
2023-03-15 21:43:17:656,0,-14.6623,-13.9886,34.4806,Q,Q
2023-03-15 21:43:17:666,0,-14.5554,-13.8608,34.0154,Q,Q
2023-03-15 21:43:17:676,0,-14.4667,-13.7355,33.6124,Q,Q
2023-03-15 21:43:17:686,0,-14.3963,-13.6151,33.2628,Q,Q
2023-03-15 21:43:17:696,0,-14.3435,-13.5011,32.9601,Q,Q
2023-03-15 21:43:17:706,0,-14.3051,-13.3923,32.7001,Q,Q
2023-03-15 21:43:17:716,0,-14.2857,-13.2953,32.4753,Q,Q
2023-03-15 21:43:17:726,0,-14.2756,-13.2081,32.2806,Q,Q
2023-03-15 21:43:17:736,0,-14.2793,-13.1393,32.1123,Q,Q
2023-03-15 21:43:17:747,0,-14.2943,-13.0814,31.9689,Q,Q
2023-03-15 21:43:17:756,0,-14.3139,-13.0264,31.8395,Q,Q
2023-03-15 21:43:17:766,0,-14.3352,-12.9791,31.728,Q,Q
2023-03-15 21:43:17:776,0,-14.3618,-12.936,31.6318,Q,Q
2023-03-15 21:43:17:786,0,-14.3896,-12.899,31.5484,Q,Q
2023-03-15 21:43:17:796,0,-14.4164,-12.8636,31.4761,Q,Q
2023-03-15 21:43:17:806,0,-14.4435,-12.8309,31.4123,Q,Q
2023-03-15 21:43:17:816,0,-14.4697,-12.7966,31.3545,Q,Q
2023-03-15 21:43:17:826,0,-14.4895,-12.7603,31.3004,Q,Q
2023-03-15 21:43:17:836,0,-14.5097,-12.7222,31.2557,Q,Q
2023-03-15 21:43:17:847,0,-14.5253,-12.6826,31.2174,Q,Q
2023-03-15 21:43:17:856,0,-14.5398,-12.6379,31.1839,Q,Q
2023-03-15 21:43:17:866,0,-14.5468,-12.5938,31.1581,Q,Q
2023-03-15 21:43:17:876,0,-14.5521,-12.5519,31.1363,Q,Q
2023-03-15 21:43:17:887,0,-14.5573,-12.5091,31.1188,Q,Q
2023-03-15 21:43:17:896,0,-14.5569,-12.4722,31.0957,Q,Q
2023-03-15 21:43:17:906,0,-14.5584,-12.4387,31.0723,Q,Q
2023-03-15 21:43:17:916,0,-14.5526,-12.4103,31.0553,Q,Q
2023-03-15 21:43:17:926,0,-14.5522,-12.3872,31.0498,Q,Q
2023-03-15 21:43:17:936,0,-14.5541,-12.3796,31.0732,Q,Q
2023-03-15 21:43:17:946,0,-14.5587,-12.3867,31.1446,Q,Q
2023-03-15 21:43:17:956,0,-14.5705,-12.4058,31.2636,Q,Q
2023-03-15 21:43:17:966,0,-14.5928,-12.4323,31.4369,Q,Q
2023-03-15 21:43:17:976,0,-14.6279,-12.4575,31.659,Q,Q
2023-03-15 21:43:17:986,0,-14.6792,-12.4718,31.9316,Q,Q
2023-03-15 21:43:17:996,0,-14.7443,-12.4664,32.2539,Q,Q
2023-03-15 21:43:18:6,0,-14.8189,-12.4395,32.6292,Q,Q
2023-03-15 21:43:18:16,0,-14.902,-12.3894,33.057,Q,Q
2023-03-15 21:43:18:26,0,-14.9937,-12.3208,33.5446,Q,Q
2023-03-15 21:43:18:36,0,-15.0898,-12.2316,34.0998,Q,Q
2023-03-15 21:43:18:46,0,-15.1856,-12.1173,34.7305,Q,Q
2023-03-15 21:43:18:56,0,-15.2817,-11.9866,35.4415,Q,Q
2023-03-15 21:43:18:67,0,-15.3818,-11.8391,36.2309,Q,Q
2023-03-15 21:43:18:76,0,-15.4882,-11.6823,37.0873,Q,Q
2023-03-15 21:43:18:86,0,-15.5996,-11.521,37.9957,Q,Q
2023-03-15 21:43:18:96,0,-15.716,-11.3519,38.9418,Q,Q
2023-03-15 21:43:18:107,0,-15.8391,-11.1804,39.907,Q,Q
2023-03-15 21:43:18:116,0,-15.9637,-11.0107,40.8823,Q,Q
2023-03-15 21:43:18:126,0,-16.0906,-10.8404,41.8551,Q,Q
2023-03-15 21:43:18:136,0,-16.2145,-10.6744,42.8082,Q,Q
2023-03-15 21:43:18:147,0,-16.3331,-10.5129,43.739,Q,Q
2023-03-15 21:43:18:156,0,-16.4532,-10.3608,44.6378,Q,Q
2023-03-15 21:43:18:166,0,-16.5729,-10.2192,45.4901,Q,Q
2023-03-15 21:43:18:176,0,-16.6909,-10.0904,46.2918,Q,Q
2023-03-15 21:43:18:186,0,-16.8086,-9.97766,47.0408,Q,Q
2023-03-15 21:43:18:196,0,-16.9272,-9.88365,47.7287,Q,Q
2023-03-15 21:43:18:206,0,-17.0415,-9.80482,48.3595,Q,Q
2023-03-15 21:43:18:216,0,-17.1566,-9.73675,48.9278,Q,Q
2023-03-15 21:43:18:226,0,-17.27,-9.67367,49.4335,Q,Q
2023-03-15 21:43:18:236,0,-17.3916,-9.6278,49.8822,Q,Q
2023-03-15 21:43:18:246,0,-17.5127,-9.5946,50.2753,Q,Q
2023-03-15 21:43:18:256,0,-17.628,-9.53191,50.6161,Q,Q
2023-03-15 21:43:18:266,0,-17.7281,-9.48535,50.9115,Q,Q
2023-03-15 21:43:18:276,0,-17.8377,-9.42376,51.1677,Q,Q
2023-03-15 21:43:18:286,0,-17.9431,-9.3788,51.3845,Q,Q
2023-03-15 21:43:18:296,0,-18.0431,-9.33607,51.5708,Q,Q
2023-03-15 21:43:18:306,0,-18.1499,-9.30719,51.7393,Q,Q
2023-03-15 21:43:18:316,0,-18.2524,-9.28023,51.8934,Q,Q
2023-03-15 21:43:18:326,0,-18.3549,-9.26342,52.0349,Q,Q
2023-03-15 21:43:18:336,0,-18.4571,-9.24686,52.1636,Q,Q
2023-03-15 21:43:18:346,0,-18.5629,-9.23153,52.2891,Q,Q
2023-03-15 21:43:18:356,0,-18.6626,-9.21233,52.4115,Q,Q
2023-03-15 21:43:18:366,0,-18.7564,-9.19231,52.5312,Q,Q
2023-03-15 21:43:18:376,0,-18.8438,-9.16764,52.6524,Q,Q
2023-03-15 21:43:18:386,0,-18.9249,-9.13875,52.7723,Q,Q
2023-03-15 21:43:18:396,0,-19.0036,-9.10493,52.8907,Q,Q
2023-03-15 21:43:18:406,0,-19.0771,-9.0641,53.0105,Q,Q
2023-03-15 21:43:18:416,0,-19.1476,-9.02366,53.133,Q,Q
2023-03-15 21:43:18:426,0,-19.2165,-8.97751,53.2465,Q,Q
2023-03-15 21:43:18:436,0,-19.2806,-8.93341,53.3623,Q,Q
2023-03-15 21:43:18:446,0,-19.3428,-8.88626,53.4738,Q,Q
2023-03-15 21:43:18:456,0,-19.4041,-8.84074,53.585,Q,Q
2023-03-15 21:43:18:466,0,-19.4676,-8.79647,53.692,Q,Q
2023-03-15 21:43:18:476,0,-19.5291,-8.74572,53.7901,Q,Q
2023-03-15 21:43:18:486,0,-19.5911,-8.70758,53.8776,Q,Q
2023-03-15 21:43:18:496,0,-19.6485,-8.66322,53.9573,Q,Q
2023-03-15 21:43:18:506,0,-19.704,-8.62481,54.0251,Q,Q
2023-03-15 21:43:18:516,0,-19.7507,-8.59032,54.0894,Q,Q
2023-03-15 21:43:18:526,0,-19.7993,-8.56391,54.1446,Q,Q
2023-03-15 21:43:18:536,0,-19.839,-8.53593,54.1942,Q,Q
2023-03-15 21:43:18:546,0,-19.8751,-8.51004,54.2448,Q,Q
2023-03-15 21:43:18:556,0,-19.9087,-8.48485,54.2914,Q,Q
2023-03-15 21:43:18:566,0,-19.9398,-8.46579,54.3341,Q,Q
2023-03-15 21:43:18:576,0,-19.9694,-8.44775,54.3752,Q,Q
2023-03-15 21:43:18:586,0,-19.9998,-8.43646,54.4133,Q,Q
2023-03-15 21:43:18:596,0,-20.0259,-8.42598,54.4459,Q,Q
2023-03-15 21:43:18:606,0,-20.0464,-8.42284,54.4765,Q,Q
2023-03-15 21:43:18:616,0,-20.0644,-8.41883,54.5033,Q,Q
2023-03-15 21:43:18:626,0,-20.0735,-8.41254,54.5308,Q,Q
2023-03-15 21:43:18:636,0,-20.0801,-8.41097,54.5565,Q,Q
2023-03-15 21:43:18:646,0,-20.0777,-8.4104,54.5837,Q,Q
2023-03-15 21:43:18:656,0,-20.0706,-8.40525,54.6125,Q,Q
2023-03-15 21:43:18:666,0,-20.0659,-8.4037,54.6476,Q,Q
2023-03-15 21:43:18:676,0,-20.0612,-8.40286,54.6832,Q,Q
2023-03-15 21:43:18:686,0,-20.0635,-8.4052,54.7236,Q,Q
2023-03-15 21:43:18:696,0,-20.0738,-8.41498,54.7629,Q,Q
2023-03-15 21:43:18:706,0,-20.0828,-8.42673,54.8037,Q,Q
2023-03-15 21:43:18:716,0,-20.0924,-8.434,54.8353,Q,Q
2023-03-15 21:43:18:726,0,-20.0997,-8.44501,54.8702,Q,Q
2023-03-15 21:43:18:736,0,-20.1038,-8.45546,54.9036,Q,Q
2023-03-15 21:43:18:746,0,-20.1052,-8.46713,54.9375,Q,Q
2023-03-15 21:43:18:756,0,-20.1054,-8.48347,54.9734,Q,Q
2023-03-15 21:43:18:766,0,-20.1039,-8.49697,55.0066,Q,Q
2023-03-15 21:43:18:776,0,-20.0999,-8.51261,55.0447,Q,Q
2023-03-15 21:43:18:786,0,-20.0972,-8.53178,55.0829,Q,Q
2023-03-15 21:43:18:796,0,-20.0938,-8.55265,55.1181,Q,Q
2023-03-15 21:43:18:806,0,-20.0863,-8.57314,55.151,Q,Q
2023-03-15 21:43:18:816,0,-20.0743,-8.59355,55.1824,Q,Q
2023-03-15 21:43:18:826,0,-20.0616,-8.61897,55.2123,Q,Q
2023-03-15 21:43:18:836,0,-20.0469,-8.64266,55.236,Q,Q
2023-03-15 21:43:18:846,0,-20.0254,-8.66477,55.2574,Q,Q
2023-03-15 21:43:18:856,0,-20.0077,-8.69089,55.2773,Q,Q
2023-03-15 21:43:18:867,0,-19.9839,-8.71864,55.2951,Q,Q
2023-03-15 21:43:18:876,0,-19.9634,-8.74446,55.3091,Q,Q
2023-03-15 21:43:18:886,0,-19.9404,-8.76835,55.3231,Q,Q
2023-03-15 21:43:18:896,0,-19.9133,-8.79541,55.333,Q,Q
2023-03-15 21:43:18:906,0,-19.8861,-8.82073,55.3426,Q,Q
2023-03-15 21:43:18:916,0,-19.8619,-8.84752,55.3511,Q,Q
2023-03-15 21:43:18:926,0,-19.8344,-8.87687,55.3569,Q,Q
2023-03-15 21:43:18:936,0,-19.8096,-8.90624,55.3626,Q,Q
2023-03-15 21:43:18:946,0,-19.7848,-8.93435,55.36,Q,Q
2023-03-15 21:43:18:956,0,-19.7588,-8.95999,55.3551,Q,Q
2023-03-15 21:43:18:966,0,-19.7341,-8.98133,55.3452,Q,Q
2023-03-15 21:43:18:976,0,-19.7055,-9.00103,55.3328,Q,Q
2023-03-15 21:43:18:986,0,-19.6722,-9.01998,55.3189,Q,Q
2023-03-15 21:43:18:996,0,-19.642,-9.03472,55.3069,Q,Q
2023-03-15 21:43:19:6,0,-19.6135,-9.04663,55.2972,Q,Q
2023-03-15 21:43:19:16,0,-19.5814,-9.05796,55.2919,Q,Q
2023-03-15 21:43:19:26,0,-19.5486,-9.06643,55.2856,Q,Q
2023-03-15 21:43:19:36,0,-19.5191,-9.07216,55.2841,Q,Q
2023-03-15 21:43:19:46,0,-19.4906,-9.07969,55.282,Q,Q
2023-03-15 21:43:19:56,0,-19.46,-9.08873,55.2833,Q,Q
2023-03-15 21:43:19:67,0,-19.4356,-9.09812,55.2857,Q,Q
2023-03-15 21:43:19:76,0,-19.4092,-9.10796,55.2861,Q,Q
2023-03-15 21:43:19:86,0,-19.3837,-9.11626,55.2839,Q,Q
2023-03-15 21:43:19:96,0,-19.3546,-9.12477,55.2818,Q,Q
2023-03-15 21:43:19:106,0,-19.3268,-9.13463,55.2775,Q,Q
2023-03-15 21:43:19:116,0,-19.3007,-9.14664,55.2802,Q,Q
2023-03-15 21:43:19:126,0,-19.2695,-9.15313,55.2852,Q,Q
2023-03-15 21:43:19:136,0,-19.2393,-9.15815,55.2924,Q,Q
2023-03-15 21:43:19:146,0,-19.2052,-9.16134,55.3014,Q,Q
2023-03-15 21:43:19:156,0,-19.1719,-9.15918,55.3141,Q,Q
2023-03-15 21:43:19:166,0,-19.1399,-9.1609,55.3244,Q,Q
2023-03-15 21:43:19:176,0,-19.1099,-9.16341,55.3413,Q,Q
2023-03-15 21:43:19:186,0,-19.0826,-9.16479,55.3565,Q,Q
2023-03-15 21:43:19:196,0,-19.0544,-9.16813,55.3732,Q,Q
2023-03-15 21:43:19:206,0,-19.0268,-9.1663,55.387,Q,Q
2023-03-15 21:43:19:216,0,-19.0022,-9.16381,55.3969,Q,Q
2023-03-15 21:43:19:226,0,-18.9772,-9.16121,55.4098,Q,Q
2023-03-15 21:43:19:236,0,-18.9558,-9.15842,55.4205,Q,Q
2023-03-15 21:43:19:247,0,-18.9364,-9.14926,55.4287,Q,Q
2023-03-15 21:43:19:256,0,-18.9219,-9.14331,55.4367,Q,Q
2023-03-15 21:43:19:266,0,-18.9082,-9.13675,55.4473,Q,Q
2023-03-15 21:43:19:276,0,-18.8956,-9.12841,55.456,Q,Q
2023-03-15 21:43:19:286,0,-18.8826,-9.12143,55.4601,Q,Q
2023-03-15 21:43:19:296,0,-18.874,-9.11641,55.4691,Q,Q
2023-03-15 21:43:19:306,0,-18.868,-9.11234,55.4731,Q,Q
2023-03-15 21:43:19:316,0,-18.8643,-9.10302,55.4791,Q,Q
2023-03-15 21:43:19:326,0,-18.8603,-9.09297,55.4849,Q,Q
2023-03-15 21:43:19:336,0,-18.8587,-9.08049,55.4904,Q,Q
2023-03-15 21:43:19:346,0,-18.8552,-9.06189,55.4924,Q,Q
2023-03-15 21:43:19:356,0,-18.8535,-9.04399,55.4954,Q,Q
2023-03-15 21:43:19:366,0,-18.8489,-9.02609,55.496,Q,Q
2023-03-15 21:43:19:376,0,-18.8371,-9.00808,55.4973,Q,Q
2023-03-15 21:43:19:386,0,-18.8278,-8.98694,55.5022,Q,Q
2023-03-15 21:43:19:396,0,-18.8178,-8.96196,55.5081,Q,Q
2023-03-15 21:43:19:406,0,-18.8091,-8.94041,55.5152,Q,Q
2023-03-15 21:43:19:416,0,-18.8028,-8.91926,55.5226,Q,Q
2023-03-15 21:43:19:426,0,-18.7886,-8.89757,55.529,Q,Q
2023-03-15 21:43:19:436,0,-18.7757,-8.86841,55.5392,Q,Q
2023-03-15 21:43:19:446,0,-18.7606,-8.84754,55.5497,Q,Q
2023-03-15 21:43:19:456,0,-18.7519,-8.82231,55.5639,Q,Q
2023-03-15 21:43:19:466,0,-18.7477,-8.80067,55.5834,Q,Q
2023-03-15 21:43:19:476,0,-18.7515,-8.78606,55.604,Q,Q
2023-03-15 21:43:19:486,0,-18.7589,-8.76965,55.6267,Q,Q
2023-03-15 21:43:19:496,0,-18.7698,-8.74848,55.6511,Q,Q
2023-03-15 21:43:19:506,0,-18.7845,-8.72345,55.674,Q,Q
2023-03-15 21:43:19:516,0,-18.801,-8.70229,55.6983,Q,Q
2023-03-15 21:43:19:526,0,-18.8185,-8.6821,55.7285,Q,Q
2023-03-15 21:43:19:536,0,-18.8373,-8.65752,55.763,Q,Q
2023-03-15 21:43:19:546,0,-18.8544,-8.63199,55.805,Q,Q
2023-03-15 21:43:19:556,0,-18.8737,-8.61136,55.8535,Q,Q
2023-03-15 21:43:19:566,0,-18.8879,-8.58747,55.8999,Q,Q
2023-03-15 21:43:19:576,0,-18.9055,-8.56472,55.9525,Q,Q
2023-03-15 21:43:19:586,0,-18.9243,-8.54403,56.0069,Q,Q
2023-03-15 21:43:19:596,0,-18.9399,-8.52247,56.0631,Q,Q
2023-03-15 21:43:19:606,0,-18.9525,-8.50384,56.1194,Q,Q
2023-03-15 21:43:19:616,0,-18.9595,-8.48836,56.1744,Q,Q
2023-03-15 21:43:19:626,0,-18.9665,-8.46986,56.2332,Q,Q
2023-03-15 21:43:19:636,0,-18.9758,-8.45995,56.2883,Q,Q
2023-03-15 21:43:19:646,0,-18.9837,-8.45097,56.3437,Q,Q
2023-03-15 21:43:19:656,0,-18.9936,-8.44524,56.3982,Q,Q
2023-03-15 21:43:19:666,0,-18.9999,-8.44054,56.4498,Q,Q
2023-03-15 21:43:19:676,0,-19.0053,-8.43797,56.5002,Q,Q
2023-03-15 21:43:19:686,0,-19.0113,-8.43637,56.5468,Q,Q
2023-03-15 21:43:19:696,0,-19.0152,-8.43975,56.5866,Q,Q
2023-03-15 21:43:19:706,0,-19.0209,-8.44152,56.6277,Q,Q
2023-03-15 21:43:19:716,0,-19.0268,-8.4465,56.6647,Q,Q
2023-03-15 21:43:19:726,0,-19.0299,-8.45305,56.6974,Q,Q
2023-03-15 21:43:19:736,0,-19.0303,-8.4587,56.7296,Q,Q
2023-03-15 21:43:19:746,0,-19.0355,-8.46591,56.7617,Q,Q
2023-03-15 21:43:19:756,0,-19.036,-8.47434,56.7862,Q,Q
2023-03-15 21:43:19:766,0,-19.0404,-8.48468,56.8103,Q,Q
2023-03-15 21:43:19:776,0,-19.0433,-8.49152,56.8249,Q,Q
2023-03-15 21:43:19:786,0,-19.048,-8.50098,56.8425,Q,Q
2023-03-15 21:43:19:796,0,-19.0491,-8.51253,56.8559,Q,Q
2023-03-15 21:43:19:806,0,-19.0509,-8.51916,56.8732,Q,Q
2023-03-15 21:43:19:816,0,-19.051,-8.52894,56.8884,Q,Q
2023-03-15 21:43:19:826,0,-19.0549,-8.54511,56.9036,Q,Q
2023-03-15 21:43:19:836,0,-19.0603,-8.56049,56.916,Q,Q
2023-03-15 21:43:19:846,0,-19.0597,-8.57908,56.9305,Q,Q
2023-03-15 21:43:19:856,0,-19.063,-8.59714,56.9465,Q,Q
2023-03-15 21:43:19:866,0,-19.0634,-8.6155,56.9618,Q,Q
2023-03-15 21:43:19:876,0,-19.0692,-8.63206,56.974,Q,Q
2023-03-15 21:43:19:886,0,-19.0731,-8.64724,56.9859,Q,Q
2023-03-15 21:43:19:896,0,-19.073,-8.66376,57.001,Q,Q
2023-03-15 21:43:19:906,0,-19.0728,-8.67884,57.0187,Q,Q
2023-03-15 21:43:19:916,0,-19.0752,-8.69545,57.0367,Q,Q
2023-03-15 21:43:19:926,0,-19.0789,-8.70741,57.0589,Q,Q
2023-03-15 21:43:19:936,0,-19.0812,-8.71932,57.0821,Q,Q
2023-03-15 21:43:19:946,0,-19.0844,-8.73011,57.1081,Q,Q
2023-03-15 21:43:19:956,0,-19.089,-8.74082,57.1358,Q,Q
2023-03-15 21:43:19:966,0,-19.0907,-8.74581,57.1629,Q,Q
2023-03-15 21:43:19:976,0,-19.0974,-8.75509,57.1837,Q,Q
2023-03-15 21:43:19:986,0,-19.103,-8.76254,57.2041,Q,Q
2023-03-15 21:43:19:996,0,-19.1083,-8.77053,57.2231,Q,Q
2023-03-15 21:43:20:6,0,-19.1148,-8.77381,57.2381,Q,Q
2023-03-15 21:43:20:16,0,-19.119,-8.77755,57.2519,Q,Q
2023-03-15 21:43:20:26,0,-19.1203,-8.78103,57.26,Q,Q
2023-03-15 21:43:20:36,0,-19.1183,-8.78405,57.2636,Q,Q
2023-03-15 21:43:20:46,0,-19.1186,-8.78769,57.2674,Q,Q
2023-03-15 21:43:20:56,0,-19.1158,-8.78743,57.2647,Q,Q
2023-03-15 21:43:20:66,0,-19.1131,-8.7851,57.2658,Q,Q
2023-03-15 21:43:20:76,0,-19.1103,-8.78278,57.2626,Q,Q
2023-03-15 21:43:20:86,0,-19.1056,-8.78868,57.2592,Q,Q
2023-03-15 21:43:20:96,0,-19.101,-8.78861,57.2534,Q,Q
2023-03-15 21:43:20:106,0,-19.0955,-8.79016,57.2478,Q,Q
2023-03-15 21:43:20:116,0,-19.0877,-8.79473,57.2403,Q,Q
2023-03-15 21:43:20:126,0,-19.078,-8.79805,57.2319,Q,Q
2023-03-15 21:43:20:136,0,-19.0676,-8.80021,57.2219,Q,Q
2023-03-15 21:43:20:146,0,-19.0558,-8.80017,57.2113,Q,Q
2023-03-15 21:43:20:156,0,-19.0401,-8.79558,57.2039,Q,Q
2023-03-15 21:43:20:166,0,-19.0228,-8.79457,57.1965,Q,Q
2023-03-15 21:43:20:176,0,-19.0061,-8.79006,57.187,Q,Q
2023-03-15 21:43:20:186,0,-18.9943,-8.78993,57.1767,Q,Q
2023-03-15 21:43:20:196,0,-18.983,-8.78761,57.1691,Q,Q
2023-03-15 21:43:20:206,0,-18.9658,-8.78492,57.1548,Q,Q
2023-03-15 21:43:20:216,0,-18.946,-8.78426,57.1411,Q,Q
2023-03-15 21:43:20:226,0,-18.9229,-8.78487,57.12,Q,Q
2023-03-15 21:43:20:236,0,-18.8987,-8.78303,57.102,Q,Q
2023-03-15 21:43:20:246,0,-18.8807,-8.77981,57.0852,Q,Q
2023-03-15 21:43:20:256,0,-18.8705,-8.77882,57.0653,Q,Q
2023-03-15 21:43:20:266,0,-18.8624,-8.77883,57.044,Q,Q
2023-03-15 21:43:20:276,0,-18.8564,-8.77871,57.0229,Q,Q
2023-03-15 21:43:20:286,0,-18.8493,-8.77462,56.9961,Q,Q
2023-03-15 21:43:20:296,0,-18.8452,-8.76362,56.9666,Q,Q
2023-03-15 21:43:20:306,0,-18.8422,-8.75379,56.9343,Q,Q
2023-03-15 21:43:20:316,0,-18.8428,-8.74515,56.9047,Q,Q
2023-03-15 21:43:20:326,0,-18.8419,-8.73341,56.8759,Q,Q
2023-03-15 21:43:20:336,0,-18.8426,-8.72605,56.8514,Q,Q
2023-03-15 21:43:20:346,0,-18.8392,-8.71725,56.8308,Q,Q
2023-03-15 21:43:20:356,0,-18.8353,-8.70543,56.811,Q,Q
2023-03-15 21:43:20:366,0,-18.83,-8.69268,56.7929,Q,Q
2023-03-15 21:43:20:376,0,-18.8216,-8.6755,56.7781,Q,Q
2023-03-15 21:43:20:386,0,-18.8122,-8.65876,56.7641,Q,Q
2023-03-15 21:43:20:396,0,-18.8007,-8.63953,56.7488,Q,Q
2023-03-15 21:43:20:406,0,-18.7881,-8.61825,56.7336,Q,Q
2023-03-15 21:43:20:416,0,-18.7801,-8.59605,56.7189,Q,Q
2023-03-15 21:43:20:426,0,-18.7698,-8.57953,56.7035,Q,Q
2023-03-15 21:43:20:436,0,-18.7638,-8.56748,56.689,Q,Q
2023-03-15 21:43:20:446,0,-18.7555,-8.55512,56.6737,Q,Q
2023-03-15 21:43:20:456,0,-18.7487,-8.54825,56.6586,Q,Q
2023-03-15 21:43:20:466,0,-18.7415,-8.53925,56.6415,Q,Q
2023-03-15 21:43:20:476,0,-18.7352,-8.53044,56.6238,Q,Q
2023-03-15 21:43:20:486,0,-18.7304,-8.52297,56.6049,Q,Q
2023-03-15 21:43:20:496,0,-18.7226,-8.51566,56.5808,Q,Q
2023-03-15 21:43:20:506,0,-18.7149,-8.50547,56.5577,Q,Q
2023-03-15 21:43:20:516,0,-18.7125,-8.4974,56.5346,Q,Q
2023-03-15 21:43:20:526,0,-18.7105,-8.4951,56.5096,Q,Q
2023-03-15 21:43:20:536,0,-18.709,-8.49058,56.4849,Q,Q
2023-03-15 21:43:20:546,0,-18.7066,-8.48093,56.4586,Q,Q
2023-03-15 21:43:20:556,0,-18.7026,-8.47493,56.4371,Q,Q
2023-03-15 21:43:20:566,0,-18.6994,-8.47016,56.4179,Q,Q
2023-03-15 21:43:20:576,0,-18.6923,-8.45973,56.4034,Q,Q
2023-03-15 21:43:20:586,0,-18.6855,-8.44777,56.3952,Q,Q
2023-03-15 21:43:20:596,0,-18.6806,-8.43641,56.3893,Q,Q
2023-03-15 21:43:20:606,0,-18.674,-8.42389,56.3855,Q,Q
2023-03-15 21:43:20:616,0,-18.6632,-8.41089,56.382,Q,Q
2023-03-15 21:43:20:626,0,-18.6525,-8.40042,56.3836,Q,Q
2023-03-15 21:43:20:636,0,-18.6481,-8.39015,56.384,Q,Q
2023-03-15 21:43:20:646,0,-18.6407,-8.38634,56.3852,Q,Q
2023-03-15 21:43:20:656,0,-18.6357,-8.38283,56.3863,Q,Q
2023-03-15 21:43:20:666,0,-18.6303,-8.38285,56.3902,Q,Q
2023-03-15 21:43:20:676,0,-18.6245,-8.384,56.3908,Q,Q
2023-03-15 21:43:20:686,0,-18.6201,-8.38237,56.3908,Q,Q
2023-03-15 21:43:20:696,0,-18.6184,-8.38227,56.3955,Q,Q
2023-03-15 21:43:20:706,0,-18.6162,-8.38201,56.3968,Q,Q
2023-03-15 21:43:20:716,0,-18.6122,-8.37729,56.3968,Q,Q
2023-03-15 21:43:20:726,0,-18.6074,-8.37245,56.3973,Q,Q
2023-03-15 21:43:20:736,0,-18.6026,-8.36906,56.3947,Q,Q
2023-03-15 21:43:20:746,0,-18.5987,-8.36386,56.394,Q,Q
2023-03-15 21:43:20:756,0,-18.5952,-8.35548,56.3943,Q,Q
2023-03-15 21:43:20:766,0,-18.5947,-8.34858,56.3954,Q,Q
2023-03-15 21:43:20:776,0,-18.5968,-8.3395,56.4011,Q,Q
2023-03-15 21:43:20:786,0,-18.5921,-8.33353,56.4055,Q,Q
2023-03-15 21:43:20:796,0,-18.5875,-8.32638,56.4087,Q,Q
2023-03-15 21:43:20:806,0,-18.5846,-8.3207,56.4169,Q,Q
2023-03-15 21:43:20:816,0,-18.5812,-8.31208,56.4234,Q,Q
2023-03-15 21:43:20:826,0,-18.5772,-8.3049,56.4303,Q,Q
2023-03-15 21:43:20:836,0,-18.5735,-8.29899,56.4384,Q,Q
2023-03-15 21:43:20:846,0,-18.5717,-8.29832,56.4478,Q,Q
2023-03-15 21:43:20:856,0,-18.5759,-8.29521,56.4581,Q,Q
2023-03-15 21:43:20:866,0,-18.5794,-8.29252,56.4694,Q,Q
2023-03-15 21:43:20:876,0,-18.5852,-8.29076,56.4816,Q,Q
2023-03-15 21:43:20:886,0,-18.5919,-8.28598,56.4964,Q,Q
2023-03-15 21:43:20:896,0,-18.597,-8.2875,56.513,Q,Q
2023-03-15 21:43:20:906,0,-18.6066,-8.28956,56.5337,Q,Q
2023-03-15 21:43:20:916,0,-18.6113,-8.2918,56.5588,Q,Q
2023-03-15 21:43:20:926,0,-18.616,-8.28786,56.5848,Q,Q
2023-03-15 21:43:20:936,0,-18.6187,-8.28727,56.6122,Q,Q
2023-03-15 21:43:20:946,0,-18.6174,-8.28404,56.6403,Q,Q
2023-03-15 21:43:20:956,0,-18.6153,-8.28319,56.6692,Q,Q
2023-03-15 21:43:20:966,0,-18.616,-8.28398,56.6986,Q,Q
2023-03-15 21:43:20:976,0,-18.6186,-8.28784,56.7275,Q,Q
2023-03-15 21:43:20:986,0,-18.6212,-8.29365,56.7554,Q,Q
2023-03-15 21:43:20:996,0,-18.6171,-8.29887,56.7819,Q,Q
2023-03-15 21:43:21:6,0,-18.6122,-8.3068,56.8041,Q,Q
2023-03-15 21:43:21:16,0,-18.6027,-8.31822,56.8219,Q,Q
2023-03-15 21:43:21:26,0,-18.5943,-8.3322,56.8403,Q,Q
2023-03-15 21:43:21:36,0,-18.5936,-8.34848,56.8569,Q,Q
2023-03-15 21:43:21:46,0,-18.5996,-8.36391,56.8741,Q,Q
2023-03-15 21:43:21:56,0,-18.6015,-8.3795,56.8893,Q,Q
2023-03-15 21:43:21:66,0,-18.6084,-8.38972,56.9004,Q,Q
2023-03-15 21:43:21:76,0,-18.6155,-8.39431,56.906,Q,Q
2023-03-15 21:43:21:86,0,-18.6244,-8.39855,56.9049,Q,Q
2023-03-15 21:43:21:96,0,-18.6308,-8.40011,56.9032,Q,Q
2023-03-15 21:43:21:106,0,-18.6329,-8.40283,56.9022,Q,Q
2023-03-15 21:43:21:116,0,-18.6345,-8.40504,56.9006,Q,Q
2023-03-15 21:43:21:126,0,-18.6368,-8.40826,56.899,Q,Q
2023-03-15 21:43:21:136,0,-18.6321,-8.40373,56.8987,Q,Q
2023-03-15 21:43:21:146,0,-18.624,-8.39997,56.8938,Q,Q
2023-03-15 21:43:21:156,0,-18.6129,-8.3932,56.8859,Q,Q
2023-03-15 21:43:21:166,0,-18.5973,-8.38893,56.8826,Q,Q
2023-03-15 21:43:21:176,0,-18.582,-8.38463,56.8742,Q,Q
2023-03-15 21:43:21:186,0,-18.5678,-8.38093,56.8638,Q,Q
2023-03-15 21:43:21:196,0,-18.5556,-8.38231,56.8552,Q,Q
2023-03-15 21:43:21:206,0,-18.544,-8.38246,56.8467,Q,Q
2023-03-15 21:43:21:216,0,-18.5368,-8.38712,56.8353,Q,Q
2023-03-15 21:43:21:226,0,-18.5331,-8.39522,56.8224,Q,Q
2023-03-15 21:43:21:236,0,-18.5298,-8.40599,56.8074,Q,Q
2023-03-15 21:43:21:246,0,-18.5261,-8.41673,56.7913,Q,Q
2023-03-15 21:43:21:256,0,-18.5184,-8.428,56.7705,Q,Q
2023-03-15 21:43:21:266,0,-18.5106,-8.44721,56.7458,Q,Q
2023-03-15 21:43:21:276,0,-18.4989,-8.47553,56.7101,Q,Q
2023-03-15 21:43:21:286,0,-18.4841,-8.50814,56.651,Q,Q
2023-03-15 21:43:21:296,0,-18.4639,-8.54753,56.5635,Q,Q
2023-03-15 21:43:21:306,0,-18.4326,-8.59792,56.4383,Q,Q
2023-03-15 21:43:21:316,0,-18.3929,-8.65732,56.2678,Q,Q
2023-03-15 21:43:21:326,0,-18.3456,-8.72952,56.0405,Q,Q
2023-03-15 21:43:21:336,0,-18.2832,-8.81862,55.7414,Q,Q
2023-03-15 21:43:21:346,0,-18.211,-8.92149,55.3591,Q,Q
2023-03-15 21:43:21:356,0,-18.1272,-9.04627,54.8906,Q,Q
2023-03-15 21:43:21:366,0,-18.0328,-9.19726,54.3258,Q,Q
2023-03-15 21:43:21:376,0,-17.9222,-9.368,53.6514,Q,Q
2023-03-15 21:43:21:386,0,-17.793,-9.55481,52.8639,Q,Q
2023-03-15 21:43:21:396,0,-17.6443,-9.76002,51.9784,Q,Q
2023-03-15 21:43:21:406,0,-17.4805,-9.98008,51.0025,Q,Q
2023-03-15 21:43:21:416,0,-17.3018,-10.2181,49.9502,Q,Q
2023-03-15 21:43:21:426,0,-17.1099,-10.463,48.8358,Q,Q
2023-03-15 21:43:21:436,0,-16.9041,-10.7074,47.6827,Q,Q
2023-03-15 21:43:21:446,0,-16.6867,-10.945,46.5108,Q,Q
2023-03-15 21:43:21:456,0,-16.4604,-11.1613,45.3242,Q,Q
2023-03-15 21:43:21:466,0,-16.2244,-11.3529,44.1375,Q,Q
2023-03-15 21:43:21:476,0,-15.9765,-11.518,42.9467,Q,Q
2023-03-15 21:43:21:486,0,-15.721,-11.6493,41.7532,Q,Q
2023-03-15 21:43:21:496,0,-15.4628,-11.7507,40.5593,Q,Q
2023-03-15 21:43:21:506,0,-15.2033,-11.8336,39.3784,Q,Q
2023-03-15 21:43:21:516,0,-14.9526,-11.897,38.2224,Q,Q
2023-03-15 21:43:21:526,0,-14.7026,-11.9435,37.0941,Q,Q
2023-03-15 21:43:21:536,0,-14.4619,-11.9697,36.0034,Q,Q
2023-03-15 21:43:21:546,0,-14.2344,-11.9798,34.9587,Q,Q
2023-03-15 21:43:21:556,0,-14.0191,-11.9757,33.9677,Q,Q
2023-03-15 21:43:21:566,0,-13.8235,-11.9653,33.0281,Q,Q
2023-03-15 21:43:21:576,0,-13.6371,-11.9414,32.1335,Q,Q
2023-03-15 21:43:21:586,0,-13.4604,-11.9057,31.2765,Q,Q
2023-03-15 21:43:21:596,0,-13.2911,-11.8556,30.4531,Q,Q
2023-03-15 21:43:21:606,0,-13.1222,-11.784,29.6495,Q,Q
2023-03-15 21:43:21:616,0,-12.9509,-11.7007,28.8682,Q,Q
2023-03-15 21:43:21:626,0,-12.7786,-11.6119,28.1105,Q,Q
2023-03-15 21:43:21:636,0,-12.6074,-11.517,27.375,Q,Q
2023-03-15 21:43:21:646,0,-12.4363,-11.4157,26.6629,Q,Q
2023-03-15 21:43:21:656,0,-12.2703,-11.3158,25.9782,Q,Q
2023-03-15 21:43:21:666,0,-12.1034,-11.2128,25.3126,Q,Q
2023-03-15 21:43:21:676,0,-11.9357,-11.1084,24.6689,Q,Q
2023-03-15 21:43:21:686,0,-11.7764,-11.002,24.036,Q,Q
2023-03-15 21:43:21:696,0,-11.6188,-10.8945,23.417,Q,Q
2023-03-15 21:43:21:706,0,-11.4598,-10.7835,22.8065,Q,Q
2023-03-15 21:43:21:716,0,-11.2958,-10.6629,22.2044,Q,Q
2023-03-15 21:43:21:726,0,-11.1311,-10.5356,21.6066,Q,Q
2023-03-15 21:43:21:736,0,-10.9656,-10.4004,21.017,Q,Q
2023-03-15 21:43:21:746,0,-10.7984,-10.2642,20.4313,Q,Q
2023-03-15 21:43:21:756,0,-10.6331,-10.1179,19.8523,Q,Q
2023-03-15 21:43:21:766,0,-10.4752,-9.97041,19.276,Q,Q
2023-03-15 21:43:21:776,0,-10.3275,-9.81643,18.709,Q,Q
2023-03-15 21:43:21:786,0,-10.1864,-9.66374,18.1481,Q,Q
2023-03-15 21:43:21:796,0,-10.0563,-9.51358,17.5924,Q,Q
2023-03-15 21:43:21:806,0,-9.9401,-9.37005,17.0432,Q,Q
2023-03-15 21:43:21:816,0,-9.84245,-9.23648,16.5029,Q,Q
2023-03-15 21:43:21:826,0,-9.76647,-9.11911,15.967,Q,Q
2023-03-15 21:43:21:836,0,-9.70939,-9.02521,15.4423,Q,Q
2023-03-15 21:43:21:846,0,-9.66783,-8.94553,14.9274,Q,Q
2023-03-15 21:43:21:856,0,-9.63766,-8.88104,14.4194,Q,Q
2023-03-15 21:43:21:866,0,-9.61884,-8.82118,13.9188,Q,Q
2023-03-15 21:43:21:876,0,-9.60738,-8.76913,13.4257,Q,Q
2023-03-15 21:43:21:886,0,-9.59827,-8.72083,12.9433,Q,Q
2023-03-15 21:43:21:896,0,-9.59833,-8.66702,12.4685,Q,Q
2023-03-15 21:43:21:906,0,-9.6011,-8.61809,12.0007,Q,Q
2023-03-15 21:43:21:916,0,-9.60637,-8.56599,11.5393,Q,Q
2023-03-15 21:43:21:926,0,-9.61395,-8.50912,11.0861,Q,Q
2023-03-15 21:43:21:936,0,-9.6212,-8.45269,10.6397,Q,Q
2023-03-15 21:43:21:946,0,-9.63499,-8.40204,10.1984,Q,Q
2023-03-15 21:43:21:956,0,-9.64578,-8.35726,9.74931,Q,Q
2023-03-15 21:43:21:966,0,-9.64973,-8.31273,9.29263,Q,Q
2023-03-15 21:43:21:976,0,-9.64415,-8.2694,8.81951,Q,Q
2023-03-15 21:43:21:986,0,-9.63475,-8.22412,8.33518,Q,Q
2023-03-15 21:43:21:996,0,-9.62267,-8.18344,7.84267,Q,Q
2023-03-15 21:43:22:6,0,-9.60934,-8.14349,7.34211,Q,Q
2023-03-15 21:43:22:16,0,-9.59046,-8.09965,6.84021,Q,Q
2023-03-15 21:43:22:26,0,-9.57619,-8.05845,6.34222,Q,Q
2023-03-15 21:43:22:36,0,-9.56061,-8.01589,5.85262,Q,Q
2023-03-15 21:43:22:46,0,-9.5518,-7.97524,5.37136,Q,Q
2023-03-15 21:43:22:56,0,-9.54779,-7.93255,4.90096,Q,Q
2023-03-15 21:43:22:66,0,-9.55077,-7.88538,4.45394,Q,Q
2023-03-15 21:43:22:76,0,-9.55345,-7.84019,4.02779,Q,Q
2023-03-15 21:43:22:86,0,-9.55295,-7.78877,3.63265,Q,Q
2023-03-15 21:43:22:96,0,-9.5509,-7.73146,3.26316,Q,Q
2023-03-15 21:43:22:106,0,-9.54215,-7.66871,2.91935,Q,Q
2023-03-15 21:43:22:116,0,-9.53479,-7.59806,2.6102,Q,Q
2023-03-15 21:43:22:126,0,-9.52684,-7.52257,2.33003,Q,Q
2023-03-15 21:43:22:136,0,-9.52327,-7.43954,2.07846,Q,Q
2023-03-15 21:43:22:146,0,-9.51908,-7.34782,1.85252,Q,Q
2023-03-15 21:43:22:156,0,-9.51305,-7.25833,1.65309,Q,Q
2023-03-15 21:43:22:166,0,-9.50735,-7.16729,1.48102,Q,Q
2023-03-15 21:43:22:176,0,-9.49704,-7.07379,1.32631,Q,Q
2023-03-15 21:43:22:186,0,-9.48719,-6.9786,1.19917,Q,Q
2023-03-15 21:43:22:196,0,-9.48208,-6.8848,1.09152,Q,Q
2023-03-15 21:43:22:206,0,-9.47781,-6.79364,1.00637,Q,Q
2023-03-15 21:43:22:216,0,-9.46939,-6.70616,0.938361,Q,Q
2023-03-15 21:43:22:226,0,-9.46235,-6.6221,0.890048,Q,Q
2023-03-15 21:43:22:236,0,-9.45928,-6.54195,0.856618,Q,Q
2023-03-15 21:43:22:246,0,-9.46018,-6.46149,0.838864,Q,Q
2023-03-15 21:43:22:256,0,-9.46592,-6.38383,0.834196,Q,Q
2023-03-15 21:43:22:266,0,-9.47117,-6.31194,0.842615,Q,Q
2023-03-15 21:43:22:276,0,-9.47903,-6.24083,0.863031,Q,Q
2023-03-15 21:43:22:286,0,-9.48422,-6.17483,0.897155,Q,Q
2023-03-15 21:43:22:296,0,-9.49063,-6.11856,0.945372,Q,Q
2023-03-15 21:43:22:306,0,-9.49681,-6.0614,1.0018,Q,Q
2023-03-15 21:43:22:316,0,-9.50239,-6.01224,1.06456,Q,Q
2023-03-15 21:43:22:326,0,-9.50708,-5.96427,1.14103,Q,Q
2023-03-15 21:43:22:336,0,-9.51537,-5.92049,1.22439,Q,Q
2023-03-15 21:43:22:346,0,-9.52187,-5.8816,1.31525,Q,Q
2023-03-15 21:43:22:356,0,-9.53064,-5.84214,1.40933,Q,Q
2023-03-15 21:43:22:366,0,-9.54205,-5.80238,1.50873,Q,Q
2023-03-15 21:43:22:376,0,-9.55247,-5.76626,1.60712,Q,Q
2023-03-15 21:43:22:386,0,-9.56244,-5.7288,1.70613,Q,Q
2023-03-15 21:43:22:396,0,-9.57386,-5.69071,1.80382,Q,Q
2023-03-15 21:43:22:406,0,-9.58452,-5.65032,1.8966,Q,Q
2023-03-15 21:43:22:416,0,-9.59558,-5.61486,1.98468,Q,Q
2023-03-15 21:43:22:426,0,-9.60708,-5.57815,2.06733,Q,Q
2023-03-15 21:43:22:436,0,-9.61954,-5.54113,2.13736,Q,Q
2023-03-15 21:43:22:446,0,-9.63054,-5.50296,2.20334,Q,Q
2023-03-15 21:43:22:456,0,-9.64365,-5.47094,2.25766,Q,Q
2023-03-15 21:43:22:466,0,-9.66139,-5.4394,2.30224,Q,Q
2023-03-15 21:43:22:476,0,-9.67559,-5.40832,2.33582,Q,Q
2023-03-15 21:43:22:486,0,-9.69175,-5.37692,2.36181,Q,Q
2023-03-15 21:43:22:496,0,-9.71051,-5.35004,2.37895,Q,Q
2023-03-15 21:43:22:506,0,-9.72477,-5.31606,2.38644,Q,Q
2023-03-15 21:43:22:516,0,-9.73676,-5.28481,2.3817,Q,Q
2023-03-15 21:43:22:526,0,-9.74923,-5.25559,2.3724,Q,Q
2023-03-15 21:43:22:536,0,-9.76244,-5.22412,2.35916,Q,Q
2023-03-15 21:43:22:546,0,-9.77027,-5.19638,2.33856,Q,Q
2023-03-15 21:43:22:556,0,-9.77717,-5.1682,2.3139,Q,Q
2023-03-15 21:43:22:566,0,-9.78064,-5.14035,2.28082,Q,Q
2023-03-15 21:43:22:576,0,-9.78787,-5.11581,2.24493,Q,Q
2023-03-15 21:43:22:586,0,-9.79066,-5.08732,2.20742,Q,Q
2023-03-15 21:43:22:596,0,-9.79182,-5.06317,2.1646,Q,Q
2023-03-15 21:43:22:606,0,-9.78577,-5.04165,2.11833,Q,Q
2023-03-15 21:43:22:616,0,-9.77289,-5.01882,2.06786,Q,Q
2023-03-15 21:43:22:626,0,-9.75804,-5.00113,2.01325,Q,Q
2023-03-15 21:43:22:636,0,-9.73654,-4.99175,1.96146,Q,Q
2023-03-15 21:43:22:646,0,-9.7136,-4.98841,1.91015,Q,Q
2023-03-15 21:43:22:656,0,-9.68685,-4.98982,1.85845,Q,Q
2023-03-15 21:43:22:666,0,-9.664,-4.9903,1.80422,Q,Q
2023-03-15 21:43:22:676,0,-9.63997,-4.99735,1.75201,Q,Q
2023-03-15 21:43:22:686,0,-9.61679,-5.00554,1.70042,Q,Q
2023-03-15 21:43:22:696,0,-9.5973,-5.01419,1.65039,Q,Q
2023-03-15 21:43:22:706,0,-9.57651,-5.02538,1.60055,Q,Q
2023-03-15 21:43:22:716,0,-9.55632,-5.03561,1.55414,Q,Q
2023-03-15 21:43:22:726,0,-9.52967,-5.0465,1.50526,Q,Q
2023-03-15 21:43:22:736,0,-9.50082,-5.05782,1.45442,Q,Q
2023-03-15 21:43:22:746,0,-9.47193,-5.07372,1.41037,Q,Q
2023-03-15 21:43:22:756,0,-9.43716,-5.08828,1.36574,Q,Q
2023-03-15 21:43:22:766,0,-9.40123,-5.10028,1.3227,Q,Q
2023-03-15 21:43:22:776,0,-9.36414,-5.1126,1.27766,Q,Q
2023-03-15 21:43:22:786,0,-9.32919,-5.12271,1.23059,Q,Q
2023-03-15 21:43:22:796,0,-9.29508,-5.13711,1.18507,Q,Q
2023-03-15 21:43:22:806,0,-9.25592,-5.14836,1.13585,Q,Q
2023-03-15 21:43:22:816,0,-9.21995,-5.15806,1.08978,Q,Q
2023-03-15 21:43:22:826,0,-9.18668,-5.16143,1.04351,Q,Q
2023-03-15 21:43:22:836,0,-9.15562,-5.16602,0.995737,Q,Q
2023-03-15 21:43:22:846,0,-9.12221,-5.1691,0.947283,Q,Q
2023-03-15 21:43:22:856,0,-9.09825,-5.17277,0.903025,Q,Q
2023-03-15 21:43:22:866,0,-9.07163,-5.18039,0.85703,Q,Q
2023-03-15 21:43:22:876,0,-9.04679,-5.1893,0.813151,Q,Q
2023-03-15 21:43:22:886,0,-9.02516,-5.20453,0.77541,Q,Q
2023-03-15 21:43:22:896,0,-9.00721,-5.22213,0.735982,Q,Q
2023-03-15 21:43:22:906,0,-8.99167,-5.23476,0.69869,Q,Q
2023-03-15 21:43:22:916,0,-8.97814,-5.24655,0.664613,Q,Q
2023-03-15 21:43:22:926,0,-8.9663,-5.25905,0.633939,Q,Q
2023-03-15 21:43:22:936,0,-8.95977,-5.2692,0.606353,Q,Q
2023-03-15 21:43:22:946,0,-8.95545,-5.27973,0.580789,Q,Q
2023-03-15 21:43:22:956,0,-8.95216,-5.28919,0.557275,Q,Q
2023-03-15 21:43:22:966,0,-8.9546,-5.30274,0.536863,Q,Q
2023-03-15 21:43:22:976,0,-8.95234,-5.31829,0.519028,Q,Q
2023-03-15 21:43:22:986,0,-8.95436,-5.33682,0.506954,Q,Q
2023-03-15 21:43:22:996,0,-8.95116,-5.35593,0.494946,Q,Q
2023-03-15 21:43:23:6,0,-8.9471,-5.37696,0.486516,Q,Q
2023-03-15 21:43:23:16,0,-8.93897,-5.39579,0.479405,Q,Q
2023-03-15 21:43:23:26,0,-8.93777,-5.4146,0.473873,Q,Q
2023-03-15 21:43:23:36,0,-8.93596,-5.43648,0.466856,Q,Q
2023-03-15 21:43:23:46,0,-8.93289,-5.45943,0.461368,Q,Q
2023-03-15 21:43:23:56,0,-8.93049,-5.48261,0.45157,Q,Q
2023-03-15 21:43:23:66,0,-8.92879,-5.50339,0.444979,Q,Q
2023-03-15 21:43:23:76,0,-8.9249,-5.52575,0.435638,Q,Q
2023-03-15 21:43:23:86,0,-8.92245,-5.54236,0.429413,Q,Q
2023-03-15 21:43:23:96,0,-8.91512,-5.55904,0.418859,Q,Q
2023-03-15 21:43:23:106,0,-8.90989,-5.58101,0.410711,Q,Q
2023-03-15 21:43:23:116,0,-8.90144,-5.59826,0.399859,Q,Q
2023-03-15 21:43:23:126,0,-8.89409,-5.61548,0.388708,Q,Q
2023-03-15 21:43:23:136,0,-8.88455,-5.62798,0.375227,Q,Q
2023-03-15 21:43:23:146,0,-8.87559,-5.64635,0.360789,Q,Q
2023-03-15 21:43:23:156,0,-8.86795,-5.66045,0.345788,Q,Q
2023-03-15 21:43:23:166,0,-8.8646,-5.67561,0.329553,Q,Q
2023-03-15 21:43:23:176,0,-8.86341,-5.69486,0.308146,Q,Q
2023-03-15 21:43:23:186,0,-8.85966,-5.71442,0.283703,Q,Q
2023-03-15 21:43:23:196,0,-8.8564,-5.73185,0.25895,Q,Q
2023-03-15 21:43:23:206,0,-8.85411,-5.74991,0.231903,Q,Q
2023-03-15 21:43:23:216,0,-8.84918,-5.76675,0.201041,Q,Q
2023-03-15 21:43:23:226,0,-8.84379,-5.78954,0.168807,Q,Q
2023-03-15 21:43:23:236,0,-8.84279,-5.80981,0.134164,Q,Q
2023-03-15 21:43:23:246,0,-8.83626,-5.83226,0.102624,Q,Q
2023-03-15 21:43:23:256,0,-8.83619,-5.8584,0.067083,Q,Q
2023-03-15 21:43:23:266,0,-8.83755,-5.88163,0.0364831,Q,Q
2023-03-15 21:43:23:276,0,-8.83592,-5.90768,0.00474698,Q,Q
2023-03-15 21:43:23:286,0,-8.83278,-5.92876,-0.0312728,Q,Q
2023-03-15 21:43:23:296,0,-8.83236,-5.9521,-0.0627653,Q,Q
2023-03-15 21:43:23:306,0,-8.82992,-5.97818,-0.0974702,Q,Q
2023-03-15 21:43:23:316,0,-8.82357,-6.00108,-0.128117,Q,Q
2023-03-15 21:43:23:326,0,-8.82284,-6.02302,-0.156303,Q,Q
2023-03-15 21:43:23:336,0,-8.8226,-6.04308,-0.183737,Q,Q
2023-03-15 21:43:23:346,0,-8.82381,-6.06058,-0.211404,Q,Q
2023-03-15 21:43:23:356,0,-8.82562,-6.07517,-0.240982,Q,Q
2023-03-15 21:43:23:366,0,-8.82548,-6.09085,-0.265255,Q,Q
2023-03-15 21:43:23:376,0,-8.82824,-6.11104,-0.28775,Q,Q
2023-03-15 21:43:23:386,0,-8.83605,-6.13304,-0.306737,Q,Q
2023-03-15 21:43:23:396,0,-8.84324,-6.15586,-0.329171,Q,Q
2023-03-15 21:43:23:406,0,-8.85441,-6.17885,-0.351065,Q,Q
2023-03-15 21:43:23:416,0,-8.86989,-6.19646,-0.374258,Q,Q
2023-03-15 21:43:23:426,0,-8.88895,-6.2133,-0.400235,Q,Q
2023-03-15 21:43:23:436,0,-8.91167,-6.22689,-0.423888,Q,Q
2023-03-15 21:43:23:446,0,-8.93243,-6.24037,-0.44715,Q,Q
2023-03-15 21:43:23:456,0,-8.95612,-6.25106,-0.468418,Q,Q
2023-03-15 21:43:23:466,0,-8.98071,-6.25663,-0.489992,Q,Q
2023-03-15 21:43:23:476,0,-9.00117,-6.26318,-0.511084,Q,Q
2023-03-15 21:43:23:486,0,-9.02318,-6.2655,-0.539308,Q,Q
2023-03-15 21:43:23:496,0,-9.03596,-6.26632,-0.563012,Q,Q
2023-03-15 21:43:23:506,0,-9.04468,-6.26354,-0.591159,Q,Q
2023-03-15 21:43:23:516,0,-9.05337,-6.25744,-0.619372,Q,Q
2023-03-15 21:43:23:526,0,-9.05762,-6.25247,-0.646658,Q,Q
2023-03-15 21:43:23:536,0,-9.05494,-6.2425,-0.675838,Q,Q
2023-03-15 21:43:23:546,0,-9.05277,-6.2361,-0.702452,Q,Q
2023-03-15 21:43:23:556,0,-9.05483,-6.2268,-0.736887,Q,Q
2023-03-15 21:43:23:566,0,-9.06051,-6.21677,-0.771808,Q,Q
2023-03-15 21:43:23:576,0,-9.0683,-6.20427,-0.808341,Q,Q
2023-03-15 21:43:23:586,0,-9.07499,-6.1923,-0.848828,Q,Q
2023-03-15 21:43:23:596,0,-9.08074,-6.17961,-0.887283,Q,Q
2023-03-15 21:43:23:606,0,-9.08994,-6.16748,-0.925298,Q,Q
2023-03-15 21:43:23:616,0,-9.09964,-6.15599,-0.968102,Q,Q
2023-03-15 21:43:23:626,0,-9.10335,-6.1485,-1.01262,Q,Q
2023-03-15 21:43:23:636,0,-9.10215,-6.14119,-1.05251,Q,Q
2023-03-15 21:43:23:646,0,-9.09865,-6.1314,-1.09289,Q,Q
2023-03-15 21:43:23:656,0,-9.09056,-6.12479,-1.13733,Q,Q
2023-03-15 21:43:23:666,0,-9.07966,-6.11301,-1.17981,Q,Q
2023-03-15 21:43:23:676,0,-9.07039,-6.09949,-1.2185,Q,Q
2023-03-15 21:43:23:686,0,-9.05763,-6.09241,-1.25818,Q,Q
2023-03-15 21:43:23:696,0,-9.04678,-6.08438,-1.29097,Q,Q
2023-03-15 21:43:23:706,0,-9.04007,-6.07608,-1.32087,Q,Q
2023-03-15 21:43:23:716,0,-9.0286,-6.07056,-1.35159,Q,Q
2023-03-15 21:43:23:726,0,-9.0179,-6.06711,-1.37794,Q,Q
2023-03-15 21:43:23:736,0,-9.00213,-6.06068,-1.4062,Q,Q
2023-03-15 21:43:23:746,0,-8.98491,-6.05465,-1.43321,Q,Q
2023-03-15 21:43:23:756,0,-8.97317,-6.05017,-1.45616,Q,Q
2023-03-15 21:43:23:766,0,-8.95485,-6.05021,-1.48234,Q,Q
2023-03-15 21:43:23:776,0,-8.93957,-6.04736,-1.51014,Q,Q
2023-03-15 21:43:23:786,0,-8.92298,-6.04343,-1.53304,Q,Q
2023-03-15 21:43:23:796,0,-8.9044,-6.04106,-1.55558,Q,Q
2023-03-15 21:43:23:806,0,-8.88437,-6.03757,-1.57539,Q,Q
2023-03-15 21:43:23:816,0,-8.86211,-6.0382,-1.59733,Q,Q
2023-03-15 21:43:23:826,0,-8.847,-6.03579,-1.61788,Q,Q
2023-03-15 21:43:23:836,0,-8.82895,-6.03143,-1.63992,Q,Q
2023-03-15 21:43:23:846,0,-8.81345,-6.02308,-1.65889,Q,Q
2023-03-15 21:43:23:856,0,-8.79905,-6.0175,-1.67945,Q,Q
2023-03-15 21:43:23:866,0,-8.78613,-6.00859,-1.69771,Q,Q
2023-03-15 21:43:23:876,0,-8.77337,-6.00143,-1.71719,Q,Q
2023-03-15 21:43:23:886,0,-8.7617,-5.99495,-1.7366,Q,Q
2023-03-15 21:43:23:896,0,-8.75211,-5.98862,-1.75703,Q,Q
2023-03-15 21:43:23:906,0,-8.74651,-5.98064,-1.77494,Q,Q
2023-03-15 21:43:23:916,0,-8.74169,-5.97135,-1.79334,Q,Q
2023-03-15 21:43:23:926,0,-8.73464,-5.96424,-1.81627,Q,Q
2023-03-15 21:43:23:936,0,-8.72951,-5.95953,-1.83433,Q,Q
2023-03-15 21:43:23:946,0,-8.72552,-5.95258,-1.84937,Q,Q
2023-03-15 21:43:23:956,0,-8.72651,-5.94351,-1.86377,Q,Q
2023-03-15 21:43:23:966,0,-8.72869,-5.93589,-1.87953,Q,Q
2023-03-15 21:43:23:976,0,-8.73213,-5.92852,-1.89129,Q,Q
2023-03-15 21:43:23:986,0,-8.73765,-5.91902,-1.90803,Q,Q
2023-03-15 21:43:23:996,0,-8.74132,-5.91141,-1.92391,Q,Q
2023-03-15 21:43:24:6,0,-8.75285,-5.8982,-1.93806,Q,Q
2023-03-15 21:43:24:16,0,-8.76218,-5.89044,-1.95422,Q,Q
2023-03-15 21:43:24:26,0,-8.76872,-5.87665,-1.97127,Q,Q
2023-03-15 21:43:24:36,0,-8.77236,-5.85907,-1.98572,Q,Q
2023-03-15 21:43:24:46,0,-8.77769,-5.84698,-1.99776,Q,Q
2023-03-15 21:43:24:56,0,-8.77824,-5.83023,-2.01223,Q,Q
2023-03-15 21:43:24:66,0,-8.77766,-5.81054,-2.02743,Q,Q
2023-03-15 21:43:24:76,0,-8.77931,-5.79192,-2.03968,Q,Q
2023-03-15 21:43:24:86,0,-8.78138,-5.76829,-2.05562,Q,Q
2023-03-15 21:43:24:96,0,-8.78577,-5.74627,-2.07336,Q,Q
2023-03-15 21:43:24:106,0,-8.78591,-5.7248,-2.08926,Q,Q
2023-03-15 21:43:24:116,0,-8.78904,-5.71132,-2.10576,Q,Q
2023-03-15 21:43:24:126,0,-8.79278,-5.69997,-2.12338,Q,Q
2023-03-15 21:43:24:136,0,-8.79847,-5.69458,-2.14313,Q,Q
2023-03-15 21:43:24:146,0,-8.81339,-5.68908,-2.16447,Q,Q
2023-03-15 21:43:24:156,0,-8.82924,-5.68063,-2.18429,Q,Q
2023-03-15 21:43:24:166,0,-8.84872,-5.67301,-2.20787,Q,Q
2023-03-15 21:43:24:176,0,-8.86959,-5.66602,-2.22952,Q,Q
2023-03-15 21:43:24:186,0,-8.88917,-5.66049,-2.25072,Q,Q
2023-03-15 21:43:24:196,0,-8.90996,-5.66107,-2.27093,Q,Q
2023-03-15 21:43:24:206,0,-8.92941,-5.66077,-2.28745,Q,Q
2023-03-15 21:43:24:216,0,-8.94662,-5.65923,-2.30583,Q,Q
2023-03-15 21:43:24:226,0,-8.95908,-5.65131,-2.32213,Q,Q
2023-03-15 21:43:24:236,0,-8.96669,-5.6427,-2.33459,Q,Q
2023-03-15 21:43:24:246,0,-8.9717,-5.63379,-2.35025,Q,Q
2023-03-15 21:43:24:256,0,-8.9726,-5.62621,-2.36648,Q,Q
2023-03-15 21:43:24:266,0,-8.97197,-5.62067,-2.38319,Q,Q
2023-03-15 21:43:24:276,0,-8.96857,-5.6177,-2.39811,Q,Q
2023-03-15 21:43:24:285,0,-8.96796,-5.61702,-2.41596,Q,Q
2023-03-15 21:43:24:296,0,-8.96781,-5.61855,-2.43618,Q,Q
2023-03-15 21:43:24:306,0,-8.97004,-5.61749,-2.45518,Q,Q
2023-03-15 21:43:24:316,0,-8.97338,-5.61987,-2.47256,Q,Q
2023-03-15 21:43:24:326,0,-8.97617,-5.62123,-2.49708,Q,Q
2023-03-15 21:43:24:336,0,-8.98008,-5.61688,-2.51972,Q,Q
2023-03-15 21:43:24:346,0,-8.97972,-5.61825,-2.54368,Q,Q
2023-03-15 21:43:24:356,0,-8.97879,-5.62233,-2.56764,Q,Q
2023-03-15 21:43:24:366,0,-8.97702,-5.62235,-2.59404,Q,Q
2023-03-15 21:43:24:376,0,-8.97637,-5.62619,-2.62052,Q,Q
2023-03-15 21:43:24:386,0,-8.97351,-5.63201,-2.65077,Q,Q
2023-03-15 21:43:24:396,0,-8.97321,-5.63595,-2.68061,Q,Q
2023-03-15 21:43:24:406,0,-8.97125,-5.63754,-2.71283,Q,Q
2023-03-15 21:43:24:416,0,-8.97081,-5.63906,-2.74679,Q,Q
2023-03-15 21:43:24:426,0,-8.97633,-5.63774,-2.7766,Q,Q
2023-03-15 21:43:24:436,0,-8.97779,-5.63526,-2.80958,Q,Q
2023-03-15 21:43:24:446,0,-8.97856,-5.63177,-2.83964,Q,Q
2023-03-15 21:43:24:456,0,-8.97819,-5.62803,-2.86861,Q,Q
2023-03-15 21:43:24:466,0,-8.97934,-5.62548,-2.89887,Q,Q
2023-03-15 21:43:24:476,0,-8.97606,-5.62695,-2.93078,Q,Q
2023-03-15 21:43:24:486,0,-8.97335,-5.62377,-2.96092,Q,Q
2023-03-15 21:43:24:496,0,-8.97218,-5.62457,-2.99489,Q,Q
2023-03-15 21:43:24:506,0,-8.97025,-5.62311,-3.0327,Q,Q
2023-03-15 21:43:24:516,0,-8.96621,-5.62049,-3.06723,Q,Q
2023-03-15 21:43:24:526,0,-8.96583,-5.62053,-3.09967,Q,Q
2023-03-15 21:43:24:536,0,-8.96145,-5.61542,-3.13634,Q,Q
2023-03-15 21:43:24:546,0,-8.95432,-5.61714,-3.166,Q,Q
2023-03-15 21:43:24:556,0,-8.94944,-5.61702,-3.19609,Q,Q
2023-03-15 21:43:24:566,0,-8.94274,-5.61607,-3.22524,Q,Q
2023-03-15 21:43:24:576,0,-8.94232,-5.61755,-3.25076,Q,Q
2023-03-15 21:43:24:586,0,-8.93699,-5.61234,-3.27394,Q,Q
2023-03-15 21:43:24:596,0,-8.93553,-5.6094,-3.29423,Q,Q
2023-03-15 21:43:24:606,0,-8.93275,-5.60654,-3.31482,Q,Q
2023-03-15 21:43:24:616,0,-8.93014,-5.60158,-3.33311,Q,Q
2023-03-15 21:43:24:626,0,-8.92546,-5.59583,-3.35326,Q,Q
2023-03-15 21:43:24:636,0,-8.92256,-5.58987,-3.37544,Q,Q
2023-03-15 21:43:24:646,0,-8.9174,-5.587,-3.39705,Q,Q
2023-03-15 21:43:24:656,0,-8.91222,-5.58124,-3.41897,Q,Q
2023-03-15 21:43:24:665,0,-8.91075,-5.58129,-3.43913,Q,Q
2023-03-15 21:43:24:675,0,-8.91001,-5.57896,-3.4628,Q,Q
2023-03-15 21:43:24:686,0,-8.90759,-5.57708,-3.49203,Q,Q
2023-03-15 21:43:24:696,0,-8.91015,-5.57737,-3.52218,Q,Q
2023-03-15 21:43:24:706,0,-8.91043,-5.58034,-3.55365,Q,Q
2023-03-15 21:43:24:716,0,-8.9082,-5.58354,-3.58714,Q,Q
2023-03-15 21:43:24:726,0,-8.90465,-5.5832,-3.62038,Q,Q
2023-03-15 21:43:24:736,0,-8.90064,-5.58538,-3.65614,Q,Q
2023-03-15 21:43:24:746,0,-8.89703,-5.59135,-3.6897,Q,Q
2023-03-15 21:43:24:756,0,-8.89136,-5.59023,-3.7219,Q,Q
2023-03-15 21:43:24:766,0,-8.88936,-5.58936,-3.75431,Q,Q
2023-03-15 21:43:24:776,0,-8.88719,-5.59004,-3.78637,Q,Q
2023-03-15 21:43:24:786,0,-8.88308,-5.58595,-3.81685,Q,Q
2023-03-15 21:43:24:796,0,-8.88536,-5.57737,-3.84894,Q,Q
2023-03-15 21:43:24:806,0,-8.88685,-5.57278,-3.87902,Q,Q
2023-03-15 21:43:24:816,0,-8.88929,-5.56215,-3.90421,Q,Q
2023-03-15 21:43:24:826,0,-8.88694,-5.55017,-3.93196,Q,Q
2023-03-15 21:43:24:836,0,-8.88284,-5.54111,-3.95633,Q,Q
2023-03-15 21:43:24:846,0,-8.87597,-5.53176,-3.98278,Q,Q
2023-03-15 21:43:24:856,0,-8.86989,-5.52389,-4.0075,Q,Q
2023-03-15 21:43:24:866,0,-8.86516,-5.50873,-4.03708,Q,Q
2023-03-15 21:43:24:876,0,-8.856,-5.49295,-4.06859,Q,Q
2023-03-15 21:43:24:886,0,-8.84574,-5.48383,-4.09828,Q,Q
2023-03-15 21:43:24:896,0,-8.84035,-5.47901,-4.1297,Q,Q
2023-03-15 21:43:24:906,0,-8.83383,-5.47632,-4.16148,Q,Q
2023-03-15 21:43:24:916,0,-8.83078,-5.47908,-4.19217,Q,Q
2023-03-15 21:43:24:926,0,-8.83659,-5.48331,-4.22174,Q,Q
2023-03-15 21:43:24:936,0,-8.84464,-5.48419,-4.25549,Q,Q
2023-03-15 21:43:24:946,0,-8.85035,-5.48414,-4.28666,Q,Q
2023-03-15 21:43:24:956,0,-8.86036,-5.48181,-4.31356,Q,Q
2023-03-15 21:43:24:966,0,-8.8729,-5.47643,-4.33623,Q,Q
2023-03-15 21:43:24:976,0,-8.88579,-5.4724,-4.35899,Q,Q
2023-03-15 21:43:24:986,0,-8.89919,-5.46812,-4.38038,Q,Q
2023-03-15 21:43:24:996,0,-8.90758,-5.46186,-4.39435,Q,Q
2023-03-15 21:43:25:6,0,-8.92038,-5.45696,-4.41,Q,Q
2023-03-15 21:43:25:16,0,-8.92576,-5.45047,-4.42375,Q,Q
2023-03-15 21:43:25:26,0,-8.93008,-5.44247,-4.44209,Q,Q
2023-03-15 21:43:25:36,0,-8.93429,-5.43111,-4.46133,Q,Q
2023-03-15 21:43:25:46,0,-8.93613,-5.42128,-4.48698,Q,Q
2023-03-15 21:43:25:56,0,-8.93461,-5.41426,-4.51213,Q,Q
2023-03-15 21:43:25:66,0,-8.93129,-5.41264,-4.54254,Q,Q
2023-03-15 21:43:25:76,0,-8.92377,-5.40838,-4.57721,Q,Q
2023-03-15 21:43:25:86,0,-8.91669,-5.4104,-4.61659,Q,Q
2023-03-15 21:43:25:96,0,-8.91369,-5.40725,-4.65273,Q,Q
2023-03-15 21:43:25:106,0,-8.9082,-5.40377,-4.69335,Q,Q
2023-03-15 21:43:25:116,0,-8.89932,-5.40108,-4.73667,Q,Q
2023-03-15 21:43:25:126,0,-8.89041,-5.40264,-4.78067,Q,Q
2023-03-15 21:43:25:136,0,-8.88247,-5.40517,-4.82162,Q,Q
2023-03-15 21:43:25:146,0,-8.87622,-5.40723,-4.86032,Q,Q
2023-03-15 21:43:25:156,0,-8.86703,-5.41211,-4.89452,Q,Q
2023-03-15 21:43:25:166,0,-8.86165,-5.41468,-4.9318,Q,Q
2023-03-15 21:43:25:176,0,-8.85469,-5.40928,-4.96677,Q,Q
2023-03-15 21:43:25:186,0,-8.84913,-5.40721,-4.99582,Q,Q
2023-03-15 21:43:25:196,0,-8.84419,-5.40122,-5.02238,Q,Q
2023-03-15 21:43:25:206,0,-8.83872,-5.39794,-5.04943,Q,Q
2023-03-15 21:43:25:216,0,-8.8369,-5.38985,-5.071,Q,Q
2023-03-15 21:43:25:226,0,-8.83485,-5.38344,-5.09136,Q,Q
2023-03-15 21:43:25:236,0,-8.83149,-5.37587,-5.11518,Q,Q
2023-03-15 21:43:25:246,0,-8.82617,-5.37036,-5.13771,Q,Q
2023-03-15 21:43:25:256,0,-8.82069,-5.36739,-5.16217,Q,Q
2023-03-15 21:43:25:266,0,-8.81845,-5.36632,-5.18821,Q,Q
2023-03-15 21:43:25:276,0,-8.81048,-5.36855,-5.21052,Q,Q
2023-03-15 21:43:25:286,0,-8.79898,-5.3713,-5.2326,Q,Q
2023-03-15 21:43:25:296,0,-8.78837,-5.37528,-5.25331,Q,Q
2023-03-15 21:43:25:306,0,-8.77916,-5.38043,-5.27688,Q,Q
2023-03-15 21:43:25:316,0,-8.76913,-5.38847,-5.29776,Q,Q
2023-03-15 21:43:25:326,0,-8.76027,-5.39738,-5.31454,Q,Q
2023-03-15 21:43:25:336,0,-8.75421,-5.4064,-5.32875,Q,Q
2023-03-15 21:43:25:346,0,-8.75077,-5.41349,-5.34476,Q,Q
2023-03-15 21:43:25:356,0,-8.74762,-5.42048,-5.35498,Q,Q
2023-03-15 21:43:25:366,0,-8.74228,-5.42651,-5.36135,Q,Q
2023-03-15 21:43:25:376,0,-8.73497,-5.42756,-5.36632,Q,Q
2023-03-15 21:43:25:386,0,-8.73047,-5.42897,-5.37194,Q,Q
2023-03-15 21:43:25:396,0,-8.72861,-5.42857,-5.38225,Q,Q
2023-03-15 21:43:25:406,0,-8.72253,-5.42715,-5.39147,Q,Q
2023-03-15 21:43:25:416,0,-8.71896,-5.42697,-5.39992,Q,Q
2023-03-15 21:43:25:426,0,-8.71376,-5.42292,-5.41391,Q,Q
2023-03-15 21:43:25:436,0,-8.71078,-5.41958,-5.4305,Q,Q
2023-03-15 21:43:25:446,0,-8.70439,-5.41889,-5.45047,Q,Q
2023-03-15 21:43:25:456,0,-8.69773,-5.42025,-5.46995,Q,Q
2023-03-15 21:43:25:466,0,-8.69657,-5.42106,-5.49561,Q,Q
2023-03-15 21:43:25:476,0,-8.69206,-5.42512,-5.52088,Q,Q
2023-03-15 21:43:25:486,0,-8.68612,-5.42886,-5.5468,Q,Q
2023-03-15 21:43:25:496,0,-8.6791,-5.43399,-5.57056,Q,Q
2023-03-15 21:43:25:506,0,-8.67352,-5.43739,-5.59796,Q,Q
