Timestamp_cmd,imu_cmd,roll_delta,pitch_delta,yaw_delta,voice_type,voice_length
2023-03-15 14:44:37:140,0,6.78083,7.1411,63.539,Q,Q
2023-03-15 14:44:37:149,0,6.77078,7.15525,63.5769,Q,Q
2023-03-15 14:44:37:159,0,6.76601,7.17063,63.6121,Q,Q
2023-03-15 14:44:37:169,0,6.76574,7.1835,63.6458,Q,Q
2023-03-15 14:44:37:179,0,6.76504,7.18574,63.6832,Q,Q
2023-03-15 14:44:37:189,0,6.76098,7.18742,63.72,Q,Q
2023-03-15 14:44:37:199,0,6.74822,7.18499,63.7588,Q,Q
2023-03-15 14:44:37:209,0,6.72387,7.17871,63.7942,Q,Q
2023-03-15 14:44:37:219,0,6.68906,7.17357,63.8202,Q,Q
2023-03-15 14:44:37:229,0,6.64341,7.16697,63.829,Q,Q
2023-03-15 14:44:37:239,0,6.59674,7.16566,63.8305,Q,Q
2023-03-15 14:44:37:249,0,6.55102,7.16907,63.8231,Q,Q
2023-03-15 14:44:37:259,0,6.50913,7.17034,63.8155,Q,Q
2023-03-15 14:44:37:269,0,6.47434,7.16863,63.8024,Q,Q
2023-03-15 14:44:37:279,0,6.4436,7.17118,63.7907,Q,Q
2023-03-15 14:44:37:289,0,6.41858,7.1748,63.7878,Q,Q
2023-03-15 14:44:37:299,0,6.39659,7.18161,63.7915,Q,Q
2023-03-15 14:44:37:309,0,6.37509,7.19238,63.7974,Q,Q
2023-03-15 14:44:37:319,0,6.35884,7.2058,63.8125,Q,Q
2023-03-15 14:44:37:329,0,6.34525,7.21766,63.8276,Q,Q
2023-03-15 14:44:37:339,0,6.33331,7.22705,63.8443,Q,Q
2023-03-15 14:44:37:349,0,6.31602,7.23245,63.858,Q,Q
2023-03-15 14:44:37:359,0,6.30227,7.2376,63.8713,Q,Q
2023-03-15 14:44:37:369,0,6.28758,7.24402,63.882,Q,Q
2023-03-15 14:44:37:379,0,6.27506,7.24702,63.8907,Q,Q
2023-03-15 14:44:37:389,0,6.26708,7.24432,63.8951,Q,Q
2023-03-15 14:44:37:399,0,6.25896,7.24172,63.8994,Q,Q
2023-03-15 14:44:37:409,0,6.24716,7.23808,63.9027,Q,Q
2023-03-15 14:44:37:419,0,6.24225,7.22937,63.8992,Q,Q
2023-03-15 14:44:37:429,0,6.23946,7.21536,63.8921,Q,Q
2023-03-15 14:44:37:439,0,6.25125,7.19802,63.8887,Q,Q
2023-03-15 14:44:37:449,0,6.26429,7.18116,63.8936,Q,Q
2023-03-15 14:44:37:459,0,6.27163,7.16793,63.8964,Q,Q
2023-03-15 14:44:37:469,0,6.278,7.15271,63.8965,Q,Q
2023-03-15 14:44:37:479,0,6.28314,7.13063,63.8996,Q,Q
2023-03-15 14:44:37:489,0,6.28995,7.11447,63.8983,Q,Q
2023-03-15 14:44:37:499,0,6.29705,7.1048,63.8961,Q,Q
2023-03-15 14:44:37:509,0,6.30271,7.10176,63.8863,Q,Q
2023-03-15 14:44:37:519,0,6.29928,7.10085,63.8713,Q,Q
2023-03-15 14:44:37:529,0,6.29423,7.10048,63.8528,Q,Q
2023-03-15 14:44:37:539,0,6.28791,7.10537,63.8351,Q,Q
2023-03-15 14:44:37:549,0,6.28359,7.10993,63.8208,Q,Q
2023-03-15 14:44:37:559,0,6.28437,7.11431,63.8056,Q,Q
2023-03-15 14:44:37:569,0,6.28601,7.11601,63.7942,Q,Q
2023-03-15 14:44:37:579,0,6.29044,7.11562,63.7842,Q,Q
2023-03-15 14:44:37:589,0,6.30074,7.11242,63.7809,Q,Q
2023-03-15 14:44:37:599,0,6.3074,7.10493,63.7828,Q,Q
2023-03-15 14:44:37:609,0,6.30934,7.09587,63.7826,Q,Q
2023-03-15 14:44:37:619,0,6.31157,7.09055,63.7867,Q,Q
2023-03-15 14:44:37:629,0,6.3054,7.08509,63.7944,Q,Q
2023-03-15 14:44:37:639,0,6.27887,7.08073,63.8011,Q,Q
2023-03-15 14:44:37:649,0,6.23844,7.07426,63.8027,Q,Q
2023-03-15 14:44:37:659,0,6.1844,7.06985,63.8021,Q,Q
2023-03-15 14:44:37:669,0,6.13697,7.06771,63.8044,Q,Q
2023-03-15 14:44:37:679,0,6.10135,7.06455,63.8079,Q,Q
2023-03-15 14:44:37:689,0,6.07888,7.06178,63.8185,Q,Q
2023-03-15 14:44:37:699,0,6.0702,7.05978,63.8311,Q,Q
2023-03-15 14:44:37:709,0,6.06341,7.05825,63.8432,Q,Q
2023-03-15 14:44:37:719,0,6.06313,7.05462,63.86,Q,Q
2023-03-15 14:44:37:729,0,6.05279,7.04653,63.8825,Q,Q
2023-03-15 14:44:37:739,0,6.03014,7.03717,63.9065,Q,Q
2023-03-15 14:44:37:749,0,6.00017,7.02999,63.9287,Q,Q
2023-03-15 14:44:37:759,0,5.97298,7.01894,63.9563,Q,Q
2023-03-15 14:44:37:769,0,5.95879,7.00363,63.9924,Q,Q
2023-03-15 14:44:37:779,0,5.96034,6.98249,64.0302,Q,Q
2023-03-15 14:44:37:789,0,5.97729,6.95854,64.0713,Q,Q
2023-03-15 14:44:37:799,0,5.99818,6.92957,64.1116,Q,Q
2023-03-15 14:44:37:809,0,6.028,6.90147,64.1492,Q,Q
2023-03-15 14:44:37:819,0,6.06419,6.87395,64.1833,Q,Q
2023-03-15 14:44:37:829,0,6.10502,6.84975,64.2052,Q,Q
2023-03-15 14:44:37:839,0,6.16045,6.84675,64.2029,Q,Q
2023-03-15 14:44:37:849,0,6.21669,6.85265,64.1835,Q,Q
2023-03-15 14:44:37:859,0,6.26072,6.84068,64.1633,Q,Q
2023-03-15 14:44:37:869,0,6.28653,6.80897,64.1574,Q,Q
2023-03-15 14:44:37:879,0,6.29539,6.77219,64.1611,Q,Q
2023-03-15 14:44:37:889,0,6.28331,6.73723,64.171,Q,Q
2023-03-15 14:44:37:899,0,6.26441,6.70298,64.1819,Q,Q
2023-03-15 14:44:37:909,0,6.23612,6.66889,64.1913,Q,Q
2023-03-15 14:44:37:919,0,6.19308,6.63498,64.1935,Q,Q
2023-03-15 14:44:37:929,0,6.14084,6.61776,64.181,Q,Q
2023-03-15 14:44:37:939,0,6.08579,6.61081,64.1496,Q,Q
2023-03-15 14:44:37:949,0,6.02971,6.61191,64.0982,Q,Q
2023-03-15 14:44:37:959,0,5.97362,6.62646,64.0289,Q,Q
2023-03-15 14:44:37:969,0,5.92249,6.64528,63.9473,Q,Q
2023-03-15 14:44:37:979,0,5.8738,6.67248,63.8433,Q,Q
2023-03-15 14:44:37:989,0,5.83116,6.70835,63.7288,Q,Q
2023-03-15 14:44:37:999,0,5.79288,6.74875,63.6026,Q,Q
2023-03-15 14:44:38:9,0,5.76504,6.79625,63.4709,Q,Q
2023-03-15 14:44:38:19,0,5.75255,6.84658,63.3385,Q,Q
2023-03-15 14:44:38:29,0,5.74669,6.89225,63.2088,Q,Q
2023-03-15 14:44:38:39,0,5.74124,6.92991,63.0827,Q,Q
2023-03-15 14:44:38:49,0,5.72615,6.96347,62.9601,Q,Q
2023-03-15 14:44:38:59,0,5.70048,6.99348,62.8419,Q,Q
2023-03-15 14:44:38:69,0,5.67142,7.02079,62.7238,Q,Q
2023-03-15 14:44:38:79,0,5.64422,7.04928,62.6076,Q,Q
2023-03-15 14:44:38:89,0,5.62778,7.07539,62.5014,Q,Q
2023-03-15 14:44:38:99,0,5.61595,7.0976,62.4001,Q,Q
2023-03-15 14:44:38:109,0,5.61842,7.11757,62.3109,Q,Q
2023-03-15 14:44:38:119,0,5.63418,7.13768,62.2275,Q,Q
2023-03-15 14:44:38:129,0,5.65691,7.15626,62.1566,Q,Q
2023-03-15 14:44:38:139,0,5.68761,7.17187,62.0956,Q,Q
2023-03-15 14:44:38:149,0,5.71743,7.18535,62.0393,Q,Q
2023-03-15 14:44:38:159,0,5.7457,7.19986,61.9906,Q,Q
2023-03-15 14:44:38:169,0,5.77194,7.21759,61.946,Q,Q
2023-03-15 14:44:38:179,0,5.8005,7.23123,61.9044,Q,Q
2023-03-15 14:44:38:189,0,5.82503,7.23994,61.8727,Q,Q
2023-03-15 14:44:38:199,0,5.84212,7.24375,61.8409,Q,Q
2023-03-15 14:44:38:209,0,5.86221,7.24525,61.8101,Q,Q
2023-03-15 14:44:38:219,0,5.87651,7.24882,61.7782,Q,Q
2023-03-15 14:44:38:229,0,5.89118,7.24743,61.7501,Q,Q
2023-03-15 14:44:38:239,0,5.90793,7.24622,61.7227,Q,Q
2023-03-15 14:44:38:249,0,5.92499,7.23759,61.7034,Q,Q
2023-03-15 14:44:38:259,0,5.93734,7.22561,61.6892,Q,Q
2023-03-15 14:44:38:269,0,5.95248,7.21221,61.6844,Q,Q
2023-03-15 14:44:38:279,0,5.97018,7.19873,61.6851,Q,Q
2023-03-15 14:44:38:289,0,5.99322,7.18348,61.6935,Q,Q
2023-03-15 14:44:38:299,0,6.00653,7.16496,61.7063,Q,Q
2023-03-15 14:44:38:309,0,6.011,7.14418,61.7289,Q,Q
2023-03-15 14:44:38:319,0,6.01512,7.12524,61.7556,Q,Q
2023-03-15 14:44:38:329,0,6.01856,7.11101,61.7861,Q,Q
2023-03-15 14:44:38:339,0,6.02412,7.09588,61.8224,Q,Q
2023-03-15 14:44:38:349,0,6.02877,7.08261,61.8569,Q,Q
2023-03-15 14:44:38:359,0,6.0269,7.0732,61.8967,Q,Q
2023-03-15 14:44:38:369,0,6.02855,7.06684,61.9356,Q,Q
2023-03-15 14:44:38:379,0,6.03315,7.06617,61.9758,Q,Q
2023-03-15 14:44:38:389,0,6.04142,7.06564,62.016,Q,Q
2023-03-15 14:44:38:399,0,6.04534,7.0705,62.0557,Q,Q
2023-03-15 14:44:38:409,0,6.04609,7.07555,62.0933,Q,Q
2023-03-15 14:44:38:419,0,6.04111,7.08199,62.1227,Q,Q
2023-03-15 14:44:38:429,0,6.03199,7.08794,62.1547,Q,Q
2023-03-15 14:44:38:439,0,6.02533,7.09396,62.1873,Q,Q
2023-03-15 14:44:38:449,0,6.0134,7.10509,62.2185,Q,Q
2023-03-15 14:44:38:459,0,5.99479,7.1163,62.2493,Q,Q
2023-03-15 14:44:38:469,0,5.97402,7.1243,62.281,Q,Q
2023-03-15 14:44:38:479,0,5.94744,7.13452,62.3106,Q,Q
2023-03-15 14:44:38:489,0,5.92052,7.14202,62.3425,Q,Q
2023-03-15 14:44:38:499,0,5.88673,7.14766,62.3749,Q,Q
2023-03-15 14:44:38:509,0,5.85685,7.15298,62.4053,Q,Q
2023-03-15 14:44:38:519,0,5.82495,7.15892,62.4335,Q,Q
2023-03-15 14:44:38:529,0,5.79305,7.15925,62.4581,Q,Q
2023-03-15 14:44:38:539,0,5.77146,7.1604,62.482,Q,Q
2023-03-15 14:44:38:549,0,5.74375,7.165,62.5053,Q,Q
2023-03-15 14:44:38:559,0,5.7198,7.1638,62.5261,Q,Q
2023-03-15 14:44:38:569,0,5.69102,7.15639,62.5446,Q,Q
2023-03-15 14:44:38:579,0,5.66351,7.15316,62.5639,Q,Q
2023-03-15 14:44:38:589,0,5.63909,7.14799,62.5804,Q,Q
2023-03-15 14:44:38:599,0,5.62062,7.14602,62.5971,Q,Q
2023-03-15 14:44:38:609,0,5.60259,7.13921,62.6182,Q,Q
2023-03-15 14:44:38:619,0,5.58986,7.13499,62.641,Q,Q
2023-03-15 14:44:38:629,0,5.57338,7.13175,62.6611,Q,Q
2023-03-15 14:44:38:639,0,5.55537,7.12825,62.6818,Q,Q
2023-03-15 14:44:38:649,0,5.54075,7.12817,62.7051,Q,Q
2023-03-15 14:44:38:659,0,5.5311,7.13284,62.7271,Q,Q
2023-03-15 14:44:38:669,0,5.52407,7.13678,62.7474,Q,Q
2023-03-15 14:44:38:679,0,5.5151,7.14021,62.7671,Q,Q
2023-03-15 14:44:38:689,0,5.49995,7.14186,62.782,Q,Q
2023-03-15 14:44:38:699,0,5.47893,7.14114,62.7988,Q,Q
2023-03-15 14:44:38:709,0,5.45692,7.15152,62.8115,Q,Q
2023-03-15 14:44:38:719,0,5.44123,7.16149,62.8226,Q,Q
2023-03-15 14:44:38:729,0,5.42839,7.1696,62.832,Q,Q
2023-03-15 14:44:38:739,0,5.4129,7.18008,62.8402,Q,Q
2023-03-15 14:44:38:749,0,5.39036,7.18997,62.8501,Q,Q
2023-03-15 14:44:38:759,0,5.36551,7.19687,62.8572,Q,Q
2023-03-15 14:44:38:769,0,5.34581,7.21135,62.8624,Q,Q
2023-03-15 14:44:38:779,0,5.32854,7.22636,62.8723,Q,Q
2023-03-15 14:44:38:789,0,5.31144,7.23523,62.879,Q,Q
2023-03-15 14:44:38:799,0,5.29073,7.24321,62.8878,Q,Q
2023-03-15 14:44:38:809,0,5.26951,7.25354,62.8949,Q,Q
2023-03-15 14:44:38:819,0,5.25259,7.25963,62.9029,Q,Q
2023-03-15 14:44:38:829,0,5.23418,7.27147,62.9075,Q,Q
2023-03-15 14:44:38:839,0,5.21889,7.28593,62.9105,Q,Q
2023-03-15 14:44:38:849,0,5.20688,7.30214,62.9105,Q,Q
2023-03-15 14:44:38:859,0,5.19508,7.3113,62.9092,Q,Q
2023-03-15 14:44:38:869,0,5.19218,7.3141,62.916,Q,Q
2023-03-15 14:44:38:879,0,5.19005,7.31503,62.9262,Q,Q
2023-03-15 14:44:38:889,0,5.18222,7.31112,62.9366,Q,Q
2023-03-15 14:44:38:899,0,5.16464,7.30965,62.9471,Q,Q
2023-03-15 14:44:38:909,0,5.14237,7.3102,62.9566,Q,Q
2023-03-15 14:44:38:919,0,5.1227,7.31535,62.9637,Q,Q
2023-03-15 14:44:38:929,0,5.10757,7.32637,62.9737,Q,Q
2023-03-15 14:44:38:939,0,5.0946,7.33888,62.9838,Q,Q
2023-03-15 14:44:38:949,0,5.08778,7.35098,62.9904,Q,Q
2023-03-15 14:44:38:959,0,5.08319,7.36504,63.0027,Q,Q
2023-03-15 14:44:38:969,0,5.07953,7.37508,63.0162,Q,Q
2023-03-15 14:44:38:979,0,5.08325,7.38885,63.0338,Q,Q
2023-03-15 14:44:38:989,0,5.0897,7.40087,63.0494,Q,Q
2023-03-15 14:44:38:999,0,5.09979,7.40946,63.0692,Q,Q
2023-03-15 14:44:39:9,0,5.10694,7.41757,63.0864,Q,Q
2023-03-15 14:44:39:19,0,5.11435,7.42411,63.1027,Q,Q
2023-03-15 14:44:39:29,0,5.11948,7.42914,63.1157,Q,Q
2023-03-15 14:44:39:39,0,5.1242,7.43336,63.1339,Q,Q
2023-03-15 14:44:39:49,0,5.12856,7.43723,63.1484,Q,Q
2023-03-15 14:44:39:59,0,5.13594,7.44142,63.1691,Q,Q
2023-03-15 14:44:39:69,0,5.14427,7.44711,63.1899,Q,Q
2023-03-15 14:44:39:79,0,5.15699,7.4537,63.2159,Q,Q
2023-03-15 14:44:39:89,0,5.16717,7.4615,63.2473,Q,Q
2023-03-15 14:44:39:99,0,5.17952,7.4731,63.2838,Q,Q
2023-03-15 14:44:39:109,0,5.19494,7.483,63.3228,Q,Q
2023-03-15 14:44:39:119,0,5.20863,7.49376,63.3634,Q,Q
2023-03-15 14:44:39:129,0,5.22619,7.5062,63.4085,Q,Q
2023-03-15 14:44:39:139,0,5.24816,7.52018,63.4615,Q,Q
2023-03-15 14:44:39:149,0,5.26106,7.53134,63.5155,Q,Q
2023-03-15 14:44:39:159,0,5.26989,7.54119,63.5736,Q,Q
2023-03-15 14:44:39:169,0,5.27985,7.54875,63.6288,Q,Q
2023-03-15 14:44:39:179,0,5.29302,7.55461,63.6836,Q,Q
2023-03-15 14:44:39:189,0,5.31091,7.5598,63.7371,Q,Q
2023-03-15 14:44:39:199,0,5.3304,7.56908,63.791,Q,Q
2023-03-15 14:44:39:209,0,5.35277,7.57688,63.842,Q,Q
2023-03-15 14:44:39:219,0,5.37344,7.58499,63.8878,Q,Q
2023-03-15 14:44:39:229,0,5.39018,7.58838,63.9315,Q,Q
2023-03-15 14:44:39:239,0,5.40352,7.59097,63.9697,Q,Q
2023-03-15 14:44:39:249,0,5.41624,7.58782,64.0019,Q,Q
2023-03-15 14:44:39:259,0,5.42224,7.58432,64.0281,Q,Q
2023-03-15 14:44:39:269,0,5.41596,7.57839,64.0472,Q,Q
2023-03-15 14:44:39:279,0,5.40244,7.57476,64.0587,Q,Q
2023-03-15 14:44:39:289,0,5.38021,7.56688,64.0673,Q,Q
2023-03-15 14:44:39:299,0,5.36608,7.5571,64.08,Q,Q
2023-03-15 14:44:39:309,0,5.36018,7.54705,64.0957,Q,Q
2023-03-15 14:44:39:319,0,5.36023,7.53744,64.1224,Q,Q
2023-03-15 14:44:39:329,0,5.36107,7.52466,64.1511,Q,Q
2023-03-15 14:44:39:339,0,5.35817,7.50998,64.1828,Q,Q
2023-03-15 14:44:39:349,0,5.35933,7.49645,64.2168,Q,Q
2023-03-15 14:44:39:359,0,5.35653,7.48501,64.2454,Q,Q
2023-03-15 14:44:39:369,0,5.35953,7.47802,64.2756,Q,Q
2023-03-15 14:44:39:379,0,5.36094,7.46816,64.3017,Q,Q
2023-03-15 14:44:39:389,0,5.36564,7.45384,64.3292,Q,Q
2023-03-15 14:44:39:399,0,5.36984,7.44554,64.3559,Q,Q
2023-03-15 14:44:39:409,0,5.37746,7.43376,64.3757,Q,Q
2023-03-15 14:44:39:419,0,5.38591,7.42457,64.3951,Q,Q
2023-03-15 14:44:39:429,0,5.39597,7.41591,64.4121,Q,Q
2023-03-15 14:44:39:439,0,5.40214,7.41019,64.4266,Q,Q
2023-03-15 14:44:39:449,0,5.40581,7.40512,64.438,Q,Q
2023-03-15 14:44:39:459,0,5.40926,7.40119,64.4478,Q,Q
2023-03-15 14:44:39:469,0,5.41037,7.39995,64.4564,Q,Q
2023-03-15 14:44:39:479,0,5.41236,7.39909,64.4652,Q,Q
2023-03-15 14:44:39:489,0,5.41422,7.39849,64.4742,Q,Q
2023-03-15 14:44:39:499,0,5.41481,7.39966,64.4852,Q,Q
2023-03-15 14:44:39:509,0,5.41707,7.40013,64.4971,Q,Q
2023-03-15 14:44:39:519,0,5.42372,7.4021,64.5082,Q,Q
2023-03-15 14:44:39:529,0,5.42512,7.40562,64.5209,Q,Q
2023-03-15 14:44:39:539,0,5.42776,7.40868,64.5346,Q,Q
2023-03-15 14:44:39:549,0,5.42854,7.41487,64.5499,Q,Q
2023-03-15 14:44:39:559,0,5.43496,7.41793,64.5668,Q,Q
2023-03-15 14:44:39:569,0,5.43877,7.42155,64.5828,Q,Q
2023-03-15 14:44:39:579,0,5.44235,7.41872,64.6,Q,Q
2023-03-15 14:44:39:589,0,5.4424,7.42104,64.6205,Q,Q
2023-03-15 14:44:39:599,0,5.44096,7.42091,64.6355,Q,Q
2023-03-15 14:44:39:609,0,5.4387,7.42417,64.6513,Q,Q
2023-03-15 14:44:39:619,0,5.43354,7.42401,64.6639,Q,Q
2023-03-15 14:44:39:629,0,5.42928,7.4227,64.6776,Q,Q
2023-03-15 14:44:39:639,0,5.42224,7.41988,64.688,Q,Q
2023-03-15 14:44:39:649,0,5.42163,7.41865,64.698,Q,Q
2023-03-15 14:44:39:659,0,5.42081,7.41552,64.706,Q,Q
2023-03-15 14:44:39:669,0,5.42567,7.41683,64.7164,Q,Q
2023-03-15 14:44:39:679,0,5.43339,7.41127,64.7306,Q,Q
2023-03-15 14:44:39:689,0,5.43776,7.40699,64.7439,Q,Q
2023-03-15 14:44:39:699,0,5.43682,7.40996,64.7537,Q,Q
2023-03-15 14:44:39:709,0,5.43562,7.41173,64.7572,Q,Q
2023-03-15 14:44:39:719,0,5.43912,7.41212,64.7627,Q,Q
2023-03-15 14:44:39:729,0,5.44604,7.40975,64.7622,Q,Q
2023-03-15 14:44:39:739,0,5.4549,7.40806,64.7657,Q,Q
2023-03-15 14:44:39:749,0,5.46434,7.39994,64.7756,Q,Q
2023-03-15 14:44:39:759,0,5.46272,7.39362,64.7826,Q,Q
2023-03-15 14:44:39:769,0,5.44969,7.38822,64.7881,Q,Q
2023-03-15 14:44:39:779,0,5.42973,7.38638,64.7867,Q,Q
2023-03-15 14:44:39:789,0,5.41525,7.38754,64.7816,Q,Q
2023-03-15 14:44:39:799,0,5.40553,7.39022,64.7785,Q,Q
2023-03-15 14:44:39:809,0,5.39952,7.39709,64.7749,Q,Q
2023-03-15 14:44:39:819,0,5.39169,7.39956,64.7705,Q,Q
2023-03-15 14:44:39:829,0,5.38546,7.40481,64.7675,Q,Q
2023-03-15 14:44:39:839,0,5.38271,7.41115,64.7614,Q,Q
2023-03-15 14:44:39:849,0,5.38085,7.41481,64.7569,Q,Q
2023-03-15 14:44:39:859,0,5.38068,7.41939,64.7533,Q,Q
2023-03-15 14:44:39:869,0,5.37686,7.4266,64.746,Q,Q
2023-03-15 14:44:39:879,0,5.37374,7.42978,64.7346,Q,Q
2023-03-15 14:44:39:889,0,5.37024,7.43295,64.7254,Q,Q
2023-03-15 14:44:39:899,0,5.36812,7.43731,64.7162,Q,Q
2023-03-15 14:44:39:909,0,5.36937,7.43906,64.7066,Q,Q
2023-03-15 14:44:39:919,0,5.37483,7.44134,64.7056,Q,Q
2023-03-15 14:44:39:929,0,5.38356,7.44383,64.6979,Q,Q
2023-03-15 14:44:39:939,0,5.39339,7.44623,64.6941,Q,Q
2023-03-15 14:44:39:949,0,5.39721,7.44793,64.6912,Q,Q
2023-03-15 14:44:39:959,0,5.39704,7.44746,64.6904,Q,Q
2023-03-15 14:44:39:969,0,5.39599,7.44784,64.6892,Q,Q
2023-03-15 14:44:39:979,0,5.38774,7.44731,64.6878,Q,Q
2023-03-15 14:44:39:989,0,5.38156,7.44376,64.6882,Q,Q
2023-03-15 14:44:39:999,0,5.38229,7.43715,64.6895,Q,Q
2023-03-15 14:44:40:9,0,5.38508,7.43332,64.6923,Q,Q
2023-03-15 14:44:40:19,0,5.38228,7.42491,64.6979,Q,Q
2023-03-15 14:44:40:29,0,5.37616,7.418,64.701,Q,Q
2023-03-15 14:44:40:39,0,5.37079,7.40784,64.7081,Q,Q
2023-03-15 14:44:40:49,0,5.37155,7.4002,64.7138,Q,Q
2023-03-15 14:44:40:59,0,5.37137,7.39621,64.7198,Q,Q
2023-03-15 14:44:40:69,0,5.37458,7.39203,64.7246,Q,Q
2023-03-15 14:44:40:79,0,5.37504,7.38737,64.7269,Q,Q
2023-03-15 14:44:40:89,0,5.37876,7.38213,64.73,Q,Q
2023-03-15 14:44:40:99,0,5.38331,7.38117,64.731,Q,Q
2023-03-15 14:44:40:109,0,5.38535,7.38064,64.7288,Q,Q
2023-03-15 14:44:40:119,0,5.38403,7.37853,64.7317,Q,Q
2023-03-15 14:44:40:129,0,5.38315,7.37677,64.7321,Q,Q
2023-03-15 14:44:40:139,0,5.38114,7.37199,64.7359,Q,Q
2023-03-15 14:44:40:149,0,5.37838,7.36527,64.74,Q,Q
2023-03-15 14:44:40:159,0,5.37451,7.3578,64.7436,Q,Q
2023-03-15 14:44:40:169,0,5.36933,7.35314,64.7494,Q,Q
2023-03-15 14:44:40:179,0,5.36806,7.34841,64.7548,Q,Q
2023-03-15 14:44:40:189,0,5.36289,7.34376,64.7608,Q,Q
2023-03-15 14:44:40:199,0,5.36493,7.34098,64.7655,Q,Q
2023-03-15 14:44:40:209,0,5.3647,7.33792,64.7753,Q,Q
2023-03-15 14:44:40:219,0,5.365,7.33694,64.7874,Q,Q
2023-03-15 14:44:40:229,0,5.36286,7.33498,64.7944,Q,Q
2023-03-15 14:44:40:239,0,5.36552,7.33166,64.8052,Q,Q
2023-03-15 14:44:40:249,0,5.36497,7.32829,64.8075,Q,Q
2023-03-15 14:44:40:259,0,5.36679,7.32803,64.8081,Q,Q
2023-03-15 14:44:40:269,0,5.36805,7.32497,64.8133,Q,Q
2023-03-15 14:44:40:279,0,5.36844,7.3212,64.8152,Q,Q
2023-03-15 14:44:40:289,0,5.37571,7.31777,64.8197,Q,Q
2023-03-15 14:44:40:299,0,5.38172,7.31894,64.8245,Q,Q
2023-03-15 14:44:40:309,0,5.38489,7.32377,64.8269,Q,Q
2023-03-15 14:44:40:319,0,5.38882,7.32842,64.8319,Q,Q
2023-03-15 14:44:40:329,0,5.39145,7.33352,64.8341,Q,Q
2023-03-15 14:44:40:339,0,5.3924,7.3397,64.8364,Q,Q
2023-03-15 14:44:40:349,0,5.38918,7.34513,64.8333,Q,Q
2023-03-15 14:44:40:359,0,5.38876,7.35233,64.8335,Q,Q
2023-03-15 14:44:40:369,0,5.3894,7.35592,64.8337,Q,Q
2023-03-15 14:44:40:379,0,5.38904,7.36145,64.8342,Q,Q
2023-03-15 14:44:40:389,0,5.38728,7.36512,64.8341,Q,Q
2023-03-15 14:44:40:399,0,5.383,7.36965,64.8318,Q,Q
2023-03-15 14:44:40:409,0,5.37926,7.37223,64.8307,Q,Q
2023-03-15 14:44:40:419,0,5.37646,7.37675,64.8299,Q,Q
2023-03-15 14:44:40:429,0,5.37135,7.37889,64.8266,Q,Q
2023-03-15 14:44:40:439,0,5.36289,7.3798,64.8269,Q,Q
2023-03-15 14:44:40:449,0,5.35575,7.37814,64.8272,Q,Q
2023-03-15 14:44:40:459,0,5.35167,7.38122,64.8208,Q,Q
2023-03-15 14:44:40:469,0,5.34551,7.38483,64.8164,Q,Q
2023-03-15 14:44:40:479,0,5.34087,7.39083,64.811,Q,Q
2023-03-15 14:44:40:489,0,5.3341,7.39463,64.8016,Q,Q
2023-03-15 14:44:40:499,0,5.32444,7.39788,64.7948,Q,Q
2023-03-15 14:44:40:509,0,5.31878,7.39824,64.788,Q,Q
2023-03-15 14:44:40:519,0,5.30782,7.39587,64.7779,Q,Q
2023-03-15 14:44:40:529,0,5.2975,7.39062,64.7725,Q,Q
2023-03-15 14:44:40:539,0,5.27947,7.38717,64.7601,Q,Q
2023-03-15 14:44:40:549,0,5.26228,7.38249,64.7486,Q,Q
2023-03-15 14:44:40:559,0,5.253,7.38265,64.7406,Q,Q
2023-03-15 14:44:40:569,0,5.2491,7.38054,64.7349,Q,Q
2023-03-15 14:44:40:579,0,5.24943,7.38012,64.7355,Q,Q
2023-03-15 14:44:40:589,0,5.24942,7.37987,64.7342,Q,Q
2023-03-15 14:44:40:599,0,5.24874,7.38244,64.7343,Q,Q
2023-03-15 14:44:40:609,0,5.25448,7.38327,64.734,Q,Q
2023-03-15 14:44:40:619,0,5.26669,7.38385,64.7318,Q,Q
2023-03-15 14:44:40:629,0,5.28123,7.38097,64.7295,Q,Q
2023-03-15 14:44:40:639,0,5.2921,7.37405,64.727,Q,Q
2023-03-15 14:44:40:649,0,5.29671,7.36363,64.7296,Q,Q
2023-03-15 14:44:40:659,0,5.28859,7.35524,64.7214,Q,Q
2023-03-15 14:44:40:669,0,5.26994,7.35043,64.714,Q,Q
2023-03-15 14:44:40:679,0,5.24496,7.34928,64.6995,Q,Q
2023-03-15 14:44:40:689,0,5.22547,7.34967,64.6752,Q,Q
2023-03-15 14:44:40:699,0,5.20768,7.34286,64.6505,Q,Q
2023-03-15 14:44:40:709,0,5.19146,7.33665,64.6276,Q,Q
2023-03-15 14:44:40:719,0,5.1821,7.33334,64.6087,Q,Q
2023-03-15 14:44:40:729,0,5.18206,7.33597,64.5936,Q,Q
2023-03-15 14:44:40:739,0,5.19647,7.33649,64.5825,Q,Q
2023-03-15 14:44:40:749,0,5.20498,7.33329,64.5747,Q,Q
2023-03-15 14:44:40:759,0,5.20972,7.32999,64.5647,Q,Q
2023-03-15 14:44:40:769,0,5.21066,7.33026,64.5538,Q,Q
2023-03-15 14:44:40:779,0,5.21311,7.32969,64.545,Q,Q
2023-03-15 14:44:40:789,0,5.2179,7.33044,64.5388,Q,Q
2023-03-15 14:44:40:799,0,5.22603,7.33446,64.5342,Q,Q
2023-03-15 14:44:40:809,0,5.23503,7.3347,64.5255,Q,Q
2023-03-15 14:44:40:819,0,5.23758,7.3318,64.5207,Q,Q
2023-03-15 14:44:40:829,0,5.23843,7.33362,64.515,Q,Q
2023-03-15 14:44:40:839,0,5.23466,7.33118,64.5098,Q,Q
2023-03-15 14:44:40:849,0,5.23277,7.32956,64.5053,Q,Q
2023-03-15 14:44:40:859,0,5.23128,7.33052,64.5056,Q,Q
2023-03-15 14:44:40:869,0,5.22445,7.33033,64.5045,Q,Q
2023-03-15 14:44:40:879,0,5.21332,7.32592,64.5007,Q,Q
2023-03-15 14:44:40:889,0,5.21132,7.32349,64.5046,Q,Q
2023-03-15 14:44:40:899,0,5.21197,7.3203,64.5136,Q,Q
2023-03-15 14:44:40:909,0,5.2044,7.31629,64.5218,Q,Q
2023-03-15 14:44:40:919,0,5.1928,7.30855,64.5322,Q,Q
2023-03-15 14:44:40:929,0,5.18063,7.30516,64.5422,Q,Q
2023-03-15 14:44:40:939,0,5.17088,7.30183,64.5537,Q,Q
2023-03-15 14:44:40:949,0,5.15623,7.29526,64.5652,Q,Q
2023-03-15 14:44:40:959,0,5.1456,7.29173,64.578,Q,Q
2023-03-15 14:44:40:969,0,5.13772,7.28938,64.5909,Q,Q
2023-03-15 14:44:40:979,0,5.12951,7.28943,64.5993,Q,Q
2023-03-15 14:44:40:989,0,5.12092,7.29173,64.6062,Q,Q
2023-03-15 14:44:40:999,0,5.10452,7.28807,64.6108,Q,Q
2023-03-15 14:44:41:9,0,5.08299,7.27819,64.612,Q,Q
2023-03-15 14:44:41:19,0,5.05566,7.27478,64.6129,Q,Q
2023-03-15 14:44:41:29,0,5.03267,7.27266,64.6114,Q,Q
2023-03-15 14:44:41:39,0,5.01348,7.26838,64.6085,Q,Q
2023-03-15 14:44:41:49,0,4.99636,7.26406,64.6065,Q,Q
2023-03-15 14:44:41:59,0,4.98328,7.26055,64.6027,Q,Q
2023-03-15 14:44:41:69,0,4.9693,7.25728,64.5967,Q,Q
2023-03-15 14:44:41:79,0,4.95857,7.25737,64.5961,Q,Q
2023-03-15 14:44:41:89,0,4.94798,7.26075,64.5987,Q,Q
2023-03-15 14:44:41:99,0,4.94424,7.26494,64.5997,Q,Q
2023-03-15 14:44:41:109,0,4.94245,7.26772,64.6018,Q,Q
2023-03-15 14:44:41:119,0,4.93436,7.26996,64.6067,Q,Q
2023-03-15 14:44:41:129,0,4.92561,7.26953,64.6082,Q,Q
2023-03-15 14:44:41:139,0,4.91977,7.26904,64.6087,Q,Q
2023-03-15 14:44:41:149,0,4.91175,7.26734,64.6074,Q,Q
2023-03-15 14:44:41:159,0,4.9041,7.26813,64.6081,Q,Q
2023-03-15 14:44:41:169,0,4.90558,7.27203,64.6092,Q,Q
2023-03-15 14:44:41:179,0,4.90873,7.27271,64.6104,Q,Q
2023-03-15 14:44:41:189,0,4.91431,7.2738,64.613,Q,Q
2023-03-15 14:44:41:199,0,4.91562,7.27599,64.6137,Q,Q
2023-03-15 14:44:41:209,0,4.913,7.27971,64.615,Q,Q
2023-03-15 14:44:41:219,0,4.91031,7.28348,64.614,Q,Q
2023-03-15 14:44:41:229,0,4.9041,7.28931,64.615,Q,Q
2023-03-15 14:44:41:239,0,4.8977,7.29288,64.6137,Q,Q
2023-03-15 14:44:41:249,0,4.89248,7.30029,64.615,Q,Q
2023-03-15 14:44:41:259,0,4.88818,7.29779,64.6123,Q,Q
2023-03-15 14:44:41:269,0,4.87973,7.29511,64.6097,Q,Q
2023-03-15 14:44:41:279,0,4.86734,7.29193,64.61,Q,Q
2023-03-15 14:44:41:289,0,4.8577,7.29611,64.6078,Q,Q
2023-03-15 14:44:41:299,0,4.85368,7.30105,64.6084,Q,Q
2023-03-15 14:44:41:309,0,4.85022,7.3123,64.6085,Q,Q
2023-03-15 14:44:41:319,0,4.84314,7.32249,64.6061,Q,Q
2023-03-15 14:44:41:329,0,4.83389,7.32933,64.6049,Q,Q
2023-03-15 14:44:41:339,0,4.82579,7.33466,64.6053,Q,Q
2023-03-15 14:44:41:349,0,4.81505,7.3381,64.6038,Q,Q
2023-03-15 14:44:41:359,0,4.80345,7.3399,64.6034,Q,Q
2023-03-15 14:44:41:369,0,4.79057,7.3471,64.6038,Q,Q
2023-03-15 14:44:41:379,0,4.78247,7.35276,64.6068,Q,Q
2023-03-15 14:44:41:389,0,4.77272,7.35667,64.609,Q,Q
2023-03-15 14:44:41:399,0,4.76152,7.36414,64.612,Q,Q
2023-03-15 14:44:41:409,0,4.75004,7.36904,64.6165,Q,Q
2023-03-15 14:44:41:419,0,4.74217,7.37255,64.6234,Q,Q
2023-03-15 14:44:41:429,0,4.73784,7.37286,64.6283,Q,Q
2023-03-15 14:44:41:439,0,4.73717,7.37241,64.6368,Q,Q
2023-03-15 14:44:41:449,0,4.73674,7.36614,64.6459,Q,Q
2023-03-15 14:44:41:459,0,4.73847,7.36417,64.6514,Q,Q
2023-03-15 14:44:41:469,0,4.74338,7.36055,64.6591,Q,Q
2023-03-15 14:44:41:479,0,4.748,7.35629,64.6671,Q,Q
2023-03-15 14:44:41:489,0,4.7504,7.35286,64.6693,Q,Q
2023-03-15 14:44:41:499,0,4.75537,7.34481,64.6668,Q,Q
2023-03-15 14:44:41:509,0,4.77217,7.33322,64.6708,Q,Q
2023-03-15 14:44:41:519,0,4.7841,7.31778,64.6692,Q,Q
2023-03-15 14:44:41:529,0,4.78629,7.30274,64.6722,Q,Q
2023-03-15 14:44:41:539,0,4.77826,7.28534,64.6698,Q,Q
2023-03-15 14:44:41:549,0,4.76857,7.27269,64.6622,Q,Q
2023-03-15 14:44:41:559,0,4.76068,7.2651,64.6489,Q,Q
2023-03-15 14:44:41:569,0,4.75371,7.26031,64.6381,Q,Q
2023-03-15 14:44:41:579,0,4.74948,7.25648,64.624,Q,Q
2023-03-15 14:44:41:589,0,4.74291,7.25015,64.6103,Q,Q
2023-03-15 14:44:41:599,0,4.73923,7.24948,64.5993,Q,Q
2023-03-15 14:44:41:609,0,4.73657,7.24631,64.5922,Q,Q
2023-03-15 14:44:41:619,0,4.73846,7.24791,64.5886,Q,Q
2023-03-15 14:44:41:629,0,4.74004,7.24831,64.592,Q,Q
2023-03-15 14:44:41:639,0,4.74249,7.25341,64.599,Q,Q
2023-03-15 14:44:41:649,0,4.73776,7.26107,64.611,Q,Q
2023-03-15 14:44:41:659,0,4.73378,7.26687,64.6307,Q,Q
2023-03-15 14:44:41:669,0,4.72891,7.27166,64.6613,Q,Q
2023-03-15 14:44:41:679,0,4.72483,7.27663,64.7004,Q,Q
2023-03-15 14:44:41:689,0,4.71636,7.28998,64.7453,Q,Q
2023-03-15 14:44:41:699,0,4.70137,7.29844,64.7979,Q,Q
2023-03-15 14:44:41:709,0,4.67795,7.29674,64.86,Q,Q
2023-03-15 14:44:41:719,0,4.64426,7.29113,64.9345,Q,Q
2023-03-15 14:44:41:729,0,4.59942,7.27773,65.0159,Q,Q
2023-03-15 14:44:41:739,0,4.5526,7.26539,65.1038,Q,Q
2023-03-15 14:44:41:749,0,4.49433,7.24989,65.1942,Q,Q
2023-03-15 14:44:41:759,0,4.43241,7.22947,65.2893,Q,Q
2023-03-15 14:44:41:769,0,4.36491,7.21243,65.3783,Q,Q
2023-03-15 14:44:41:779,0,4.29894,7.19242,65.47,Q,Q
2023-03-15 14:44:41:789,0,4.23231,7.16946,65.5666,Q,Q
2023-03-15 14:44:41:799,0,4.16787,7.14981,65.6659,Q,Q
2023-03-15 14:44:41:809,0,4.11034,7.13747,65.7611,Q,Q
2023-03-15 14:44:41:819,0,4.05707,7.12365,65.8591,Q,Q
2023-03-15 14:44:41:829,0,4.00708,7.11258,65.9564,Q,Q
2023-03-15 14:44:41:839,0,3.95791,7.10083,66.0491,Q,Q
2023-03-15 14:44:41:849,0,3.91206,7.09448,66.1315,Q,Q
2023-03-15 14:44:41:859,0,3.87249,7.09353,66.2067,Q,Q
2023-03-15 14:44:41:869,0,3.83428,7.0871,66.2754,Q,Q
2023-03-15 14:44:41:879,0,3.79596,7.07796,66.3319,Q,Q
2023-03-15 14:44:41:889,0,3.75258,7.06094,66.3718,Q,Q
2023-03-15 14:44:41:899,0,3.70414,7.04069,66.3977,Q,Q
2023-03-15 14:44:41:909,0,3.66036,7.01642,66.413,Q,Q
2023-03-15 14:44:41:919,0,3.62023,6.99177,66.4238,Q,Q
2023-03-15 14:44:41:929,0,3.58582,6.97496,66.4344,Q,Q
2023-03-15 14:44:41:939,0,3.56048,6.95486,66.448,Q,Q
2023-03-15 14:44:41:949,0,3.54236,6.93665,66.4641,Q,Q
2023-03-15 14:44:41:959,0,3.52591,6.92455,66.4865,Q,Q
2023-03-15 14:44:41:969,0,3.5078,6.92123,66.5092,Q,Q
2023-03-15 14:44:41:979,0,3.49721,6.92289,66.535,Q,Q
2023-03-15 14:44:41:989,0,3.48346,6.91958,66.561,Q,Q
2023-03-15 14:44:41:999,0,3.46524,6.91572,66.5872,Q,Q
2023-03-15 14:44:42:9,0,3.4521,6.9094,66.6089,Q,Q
2023-03-15 14:44:42:19,0,3.43688,6.89716,66.6264,Q,Q
2023-03-15 14:44:42:29,0,3.41546,6.88335,66.6353,Q,Q
2023-03-15 14:44:42:39,0,3.39295,6.86922,66.6438,Q,Q
2023-03-15 14:44:42:49,0,3.37982,6.85419,66.6485,Q,Q
2023-03-15 14:44:42:59,0,3.36754,6.84027,66.6474,Q,Q
2023-03-15 14:44:42:69,0,3.35735,6.82765,66.6498,Q,Q
2023-03-15 14:44:42:79,0,3.34932,6.81544,66.653,Q,Q
2023-03-15 14:44:42:89,0,3.34373,6.803,66.6543,Q,Q
2023-03-15 14:44:42:99,0,3.34072,6.79551,66.6557,Q,Q
2023-03-15 14:44:42:109,0,3.34173,6.78939,66.6491,Q,Q
2023-03-15 14:44:42:119,0,3.34406,6.78029,66.6428,Q,Q
2023-03-15 14:44:42:129,0,3.34318,6.772,66.6315,Q,Q
2023-03-15 14:44:42:139,0,3.3452,6.76343,66.6178,Q,Q
2023-03-15 14:44:42:149,0,3.34838,6.7527,66.6024,Q,Q
2023-03-15 14:44:42:159,0,3.34962,6.74743,66.5863,Q,Q
2023-03-15 14:44:42:169,0,3.35255,6.74446,66.568,Q,Q
2023-03-15 14:44:42:179,0,3.36163,6.74625,66.5414,Q,Q
2023-03-15 14:44:42:189,0,3.36967,6.74875,66.5124,Q,Q
2023-03-15 14:44:42:199,0,3.3762,6.7538,66.4795,Q,Q
2023-03-15 14:44:42:209,0,3.37976,6.75781,66.4433,Q,Q
2023-03-15 14:44:42:219,0,3.38188,6.76399,66.4038,Q,Q
2023-03-15 14:44:42:229,0,3.38838,6.77205,66.366,Q,Q
2023-03-15 14:44:42:239,0,3.39813,6.78281,66.3257,Q,Q
2023-03-15 14:44:42:249,0,3.41343,6.79763,66.2837,Q,Q
2023-03-15 14:44:42:259,0,3.42325,6.80758,66.247,Q,Q
2023-03-15 14:44:42:269,0,3.43298,6.81817,66.2113,Q,Q
2023-03-15 14:44:42:279,0,3.44504,6.83143,66.1783,Q,Q
2023-03-15 14:44:42:289,0,3.46126,6.84061,66.1514,Q,Q
2023-03-15 14:44:42:299,0,3.48139,6.85203,66.12,Q,Q
2023-03-15 14:44:42:309,0,3.50231,6.8638,66.0931,Q,Q
2023-03-15 14:44:42:319,0,3.52449,6.87546,66.069,Q,Q
2023-03-15 14:44:42:329,0,3.55286,6.8814,66.0449,Q,Q
2023-03-15 14:44:42:339,0,3.57542,6.88945,66.0202,Q,Q
2023-03-15 14:44:42:349,0,3.5933,6.89953,65.9945,Q,Q
2023-03-15 14:44:42:359,0,3.60734,6.9065,65.9631,Q,Q
2023-03-15 14:44:42:369,0,3.61593,6.91631,65.9306,Q,Q
2023-03-15 14:44:42:379,0,3.62542,6.92027,65.9003,Q,Q
2023-03-15 14:44:42:389,0,3.64002,6.92498,65.8685,Q,Q
2023-03-15 14:44:42:399,0,3.66458,6.92773,65.8415,Q,Q
2023-03-15 14:44:42:409,0,3.69173,6.92775,65.8192,Q,Q
2023-03-15 14:44:42:419,0,3.70849,6.92805,65.8008,Q,Q
2023-03-15 14:44:42:429,0,3.71755,6.92796,65.784,Q,Q
2023-03-15 14:44:42:439,0,3.7164,6.93403,65.7586,Q,Q
2023-03-15 14:44:42:449,0,3.71112,6.94523,65.7278,Q,Q
2023-03-15 14:44:42:459,0,3.70075,6.95522,65.6935,Q,Q
2023-03-15 14:44:42:469,0,3.69047,6.96556,65.657,Q,Q
2023-03-15 14:44:42:479,0,3.67587,6.97133,65.6163,Q,Q
2023-03-15 14:44:42:489,0,3.66194,6.97389,65.5697,Q,Q
2023-03-15 14:44:42:499,0,3.64523,6.96773,65.5175,Q,Q
2023-03-15 14:44:42:509,0,3.62988,6.96572,65.4591,Q,Q
2023-03-15 14:44:42:519,0,3.61077,6.9596,65.3936,Q,Q
2023-03-15 14:44:42:529,0,3.59611,6.94663,65.3187,Q,Q
2023-03-15 14:44:42:539,0,3.58102,6.92885,65.2298,Q,Q
2023-03-15 14:44:42:549,0,3.56096,6.90385,65.1239,Q,Q
2023-03-15 14:44:42:559,0,3.53603,6.86426,64.981,Q,Q
2023-03-15 14:44:42:569,0,3.50123,6.80916,64.7876,Q,Q
2023-03-15 14:44:42:579,0,3.45856,6.73585,64.5165,Q,Q
2023-03-15 14:44:42:589,0,3.41715,6.64038,64.1406,Q,Q
2023-03-15 14:44:42:599,0,3.3791,6.52196,63.6358,Q,Q
2023-03-15 14:44:42:609,0,3.35608,6.36728,62.9906,Q,Q
2023-03-15 14:44:42:619,0,3.35134,6.16813,62.1902,Q,Q
2023-03-15 14:44:42:629,0,3.37081,5.93291,61.2257,Q,Q
2023-03-15 14:44:42:639,0,3.42142,5.66861,60.0869,Q,Q
2023-03-15 14:44:42:649,0,3.51072,5.37057,58.7775,Q,Q
2023-03-15 14:44:42:659,0,3.65258,5.04012,57.3033,Q,Q
2023-03-15 14:44:42:669,0,3.84038,4.68539,55.6658,Q,Q
2023-03-15 14:44:42:679,0,4.05696,4.31468,53.8683,Q,Q
2023-03-15 14:44:42:689,0,4.30277,3.91896,51.9228,Q,Q
2023-03-15 14:44:42:699,0,4.5874,3.50505,49.8427,Q,Q
2023-03-15 14:44:42:709,0,4.92035,3.07291,47.6426,Q,Q
2023-03-15 14:44:42:719,0,5.30613,2.63858,45.3452,Q,Q
2023-03-15 14:44:42:729,0,5.73487,2.20966,42.9562,Q,Q
2023-03-15 14:44:42:739,0,6.19875,1.79201,40.4853,Q,Q
2023-03-15 14:44:42:749,0,6.70499,1.38829,37.9537,Q,Q
2023-03-15 14:44:42:759,0,7.25428,0.995776,35.3764,Q,Q
2023-03-15 14:44:42:769,0,7.84112,0.625509,32.7771,Q,Q
2023-03-15 14:44:42:779,0,8.4748,0.27708,30.1742,Q,Q
2023-03-15 14:44:42:789,0,9.14392,-0.046749,27.5867,Q,Q
2023-03-15 14:44:42:799,0,9.84071,-0.341761,25.0208,Q,Q
2023-03-15 14:44:42:809,0,10.5402,-0.601658,22.4933,Q,Q
2023-03-15 14:44:42:819,0,11.2361,-0.821497,20.0076,Q,Q
2023-03-15 14:44:42:829,0,11.916,-1.00712,17.5722,Q,Q
2023-03-15 14:44:42:839,0,12.5858,-1.16924,15.1883,Q,Q
2023-03-15 14:44:42:849,0,13.2401,-1.30076,12.8794,Q,Q
2023-03-15 14:44:42:859,0,13.8931,-1.39087,10.6701,Q,Q
2023-03-15 14:44:42:869,0,14.5391,-1.45612,8.56999,Q,Q
2023-03-15 14:44:42:879,0,15.1716,-1.46812,6.59434,Q,Q
2023-03-15 14:44:42:889,0,15.7883,-1.43792,4.73886,Q,Q
2023-03-15 14:44:42:899,0,16.3754,-1.36814,2.99763,Q,Q
2023-03-15 14:44:42:909,0,16.9172,-1.26188,1.37406,Q,Q
2023-03-15 14:44:42:919,0,17.397,-1.10375,-0.13537,Q,Q
2023-03-15 14:44:42:929,0,17.805,-0.905211,-1.53406,Q,Q
2023-03-15 14:44:42:939,0,18.1432,-0.66674,-2.83346,Q,Q
2023-03-15 14:44:42:949,0,18.4128,-0.389062,-4.03406,Q,Q
2023-03-15 14:44:42:959,0,18.6257,-0.0744502,-5.143,Q,Q
2023-03-15 14:44:42:969,0,18.7946,0.259109,-6.16543,Q,Q
2023-03-15 14:44:42:979,0,18.9266,0.607295,-7.0998,Q,Q
2023-03-15 14:44:42:989,0,19.0295,0.959704,-7.95302,Q,Q
2023-03-15 14:44:42:999,0,19.1176,1.30929,-8.72392,Q,Q
2023-03-15 14:44:43:9,0,19.1941,1.64962,-9.41193,Q,Q
2023-03-15 14:44:43:19,0,19.2722,1.97864,-10.0086,Q,Q
2023-03-15 14:44:43:29,0,19.3383,2.28267,-10.5235,Q,Q
2023-03-15 14:44:43:39,0,19.3872,2.55016,-10.956,Q,Q
2023-03-15 14:44:43:49,0,19.4207,2.78707,-11.315,Q,Q
2023-03-15 14:44:43:59,0,19.4368,2.99539,-11.6091,Q,Q
2023-03-15 14:44:43:69,0,19.4503,3.19507,-11.8418,Q,Q
2023-03-15 14:44:43:79,0,19.4594,3.37277,-12.0264,Q,Q
2023-03-15 14:44:43:89,0,19.4577,3.52196,-12.1772,Q,Q
2023-03-15 14:44:43:99,0,19.4476,3.6525,-12.2924,Q,Q
2023-03-15 14:44:43:109,0,19.4251,3.76894,-12.3866,Q,Q
2023-03-15 14:44:43:119,0,19.3859,3.87811,-12.4627,Q,Q
2023-03-15 14:44:43:129,0,19.3406,3.97863,-12.5229,Q,Q
2023-03-15 14:44:43:139,0,19.2968,4.07632,-12.5702,Q,Q
2023-03-15 14:44:43:149,0,19.2631,4.1584,-12.602,Q,Q
2023-03-15 14:44:43:159,0,19.2328,4.23072,-12.6123,Q,Q
2023-03-15 14:44:43:169,0,19.1815,4.28491,-12.6183,Q,Q
2023-03-15 14:44:43:179,0,19.1183,4.32709,-12.6268,Q,Q
2023-03-15 14:44:43:189,0,19.0527,4.35758,-12.6349,Q,Q
2023-03-15 14:44:43:199,0,18.9994,4.38056,-12.6381,Q,Q
2023-03-15 14:44:43:209,0,18.9554,4.39992,-12.6374,Q,Q
2023-03-15 14:44:43:219,0,18.9111,4.41248,-12.6276,Q,Q
2023-03-15 14:44:43:229,0,18.8714,4.42019,-12.6143,Q,Q
2023-03-15 14:44:43:239,0,18.8261,4.42554,-12.5905,Q,Q
2023-03-15 14:44:43:249,0,18.7806,4.41892,-12.556,Q,Q
2023-03-15 14:44:43:259,0,18.728,4.40652,-12.5057,Q,Q
2023-03-15 14:44:43:269,0,18.6793,4.38906,-12.4263,Q,Q
2023-03-15 14:44:43:279,0,18.635,4.35423,-12.328,Q,Q
2023-03-15 14:44:43:289,0,18.5979,4.30548,-12.1982,Q,Q
2023-03-15 14:44:43:299,0,18.5682,4.25262,-12.0385,Q,Q
2023-03-15 14:44:43:309,0,18.5393,4.19869,-11.844,Q,Q
2023-03-15 14:44:43:319,0,18.5065,4.14215,-11.6177,Q,Q
2023-03-15 14:44:43:329,0,18.4739,4.07723,-11.3568,Q,Q
2023-03-15 14:44:43:339,0,18.439,4.01329,-11.0746,Q,Q
2023-03-15 14:44:43:349,0,18.4072,3.94683,-10.7802,Q,Q
2023-03-15 14:44:43:359,0,18.3693,3.88028,-10.4864,Q,Q
2023-03-15 14:44:43:369,0,18.3357,3.81004,-10.1954,Q,Q
2023-03-15 14:44:43:379,0,18.3019,3.73835,-9.91127,Q,Q
2023-03-15 14:44:43:389,0,18.2713,3.65728,-9.63767,Q,Q
2023-03-15 14:44:43:399,0,18.249,3.57026,-9.36639,Q,Q
2023-03-15 14:44:43:409,0,18.2323,3.47388,-9.10892,Q,Q
2023-03-15 14:44:43:419,0,18.2143,3.36999,-8.86369,Q,Q
2023-03-15 14:44:43:429,0,18.1903,3.26539,-8.62951,Q,Q
2023-03-15 14:44:43:439,0,18.1556,3.16437,-8.41824,Q,Q
2023-03-15 14:44:43:449,0,18.1106,3.067,-8.22638,Q,Q
2023-03-15 14:44:43:459,0,18.0482,2.98165,-8.05687,Q,Q
2023-03-15 14:44:43:469,0,17.9801,2.89949,-7.91185,Q,Q
2023-03-15 14:44:43:479,0,17.901,2.83359,-7.7843,Q,Q
2023-03-15 14:44:43:489,0,17.8193,2.77026,-7.67448,Q,Q
2023-03-15 14:44:43:499,0,17.7297,2.70932,-7.58308,Q,Q
2023-03-15 14:44:43:509,0,17.6353,2.64757,-7.50354,Q,Q
2023-03-15 14:44:43:519,0,17.5363,2.59195,-7.44203,Q,Q
2023-03-15 14:44:43:529,0,17.4358,2.53651,-7.39768,Q,Q
2023-03-15 14:44:43:539,0,17.3267,2.4727,-7.37463,Q,Q
2023-03-15 14:44:43:549,0,17.2224,2.39364,-7.37969,Q,Q
2023-03-15 14:44:43:559,0,17.1184,2.2998,-7.4083,Q,Q
2023-03-15 14:44:43:569,0,17.011,2.1967,-7.47018,Q,Q
2023-03-15 14:44:43:579,0,16.8926,2.09408,-7.55617,Q,Q
2023-03-15 14:44:43:589,0,16.7655,1.99463,-7.6762,Q,Q
2023-03-15 14:44:43:599,0,16.6267,1.90395,-7.81882,Q,Q
2023-03-15 14:44:43:609,0,16.4791,1.82205,-7.98661,Q,Q
2023-03-15 14:44:43:619,0,16.3178,1.75784,-8.17076,Q,Q
2023-03-15 14:44:43:629,0,16.1455,1.69994,-8.36119,Q,Q
2023-03-15 14:44:43:639,0,15.9625,1.65186,-8.55687,Q,Q
2023-03-15 14:44:43:649,0,15.7671,1.61169,-8.74383,Q,Q
2023-03-15 14:44:43:659,0,15.5642,1.57597,-8.92476,Q,Q
2023-03-15 14:44:43:669,0,15.3615,1.54939,-9.09416,Q,Q
2023-03-15 14:44:43:679,0,15.1659,1.52507,-9.24855,Q,Q
2023-03-15 14:44:43:689,0,14.9815,1.5044,-9.38206,Q,Q
2023-03-15 14:44:43:699,0,14.8041,1.48551,-9.49755,Q,Q
2023-03-15 14:44:43:709,0,14.6413,1.46823,-9.59149,Q,Q
2023-03-15 14:44:43:719,0,14.487,1.4583,-9.66646,Q,Q
2023-03-15 14:44:43:729,0,14.3402,1.45129,-9.72492,Q,Q
2023-03-15 14:44:43:739,0,14.1997,1.45371,-9.76196,Q,Q
2023-03-15 14:44:43:749,0,14.0709,1.45997,-9.78431,Q,Q
2023-03-15 14:44:43:759,0,13.9515,1.47596,-9.79852,Q,Q
2023-03-15 14:44:43:769,0,13.847,1.50305,-9.80086,Q,Q
2023-03-15 14:44:43:779,0,13.7596,1.54067,-9.79833,Q,Q
2023-03-15 14:44:43:789,0,13.6945,1.59252,-9.78739,Q,Q
2023-03-15 14:44:43:799,0,13.6426,1.65202,-9.7764,Q,Q
2023-03-15 14:44:43:809,0,13.6094,1.71756,-9.75921,Q,Q
2023-03-15 14:44:43:819,0,13.5904,1.78919,-9.73957,Q,Q
2023-03-15 14:44:43:829,0,13.5855,1.86613,-9.72242,Q,Q
2023-03-15 14:44:43:839,0,13.5902,1.94531,-9.70079,Q,Q
2023-03-15 14:44:43:849,0,13.5938,2.02195,-9.67717,Q,Q
2023-03-15 14:44:43:859,0,13.5982,2.09289,-9.6572,Q,Q
2023-03-15 14:44:43:869,0,13.6041,2.1605,-9.6367,Q,Q
2023-03-15 14:44:43:879,0,13.6103,2.22584,-9.61425,Q,Q
2023-03-15 14:44:43:889,0,13.6098,2.29022,-9.59108,Q,Q
2023-03-15 14:44:43:899,0,13.6052,2.34844,-9.56776,Q,Q
2023-03-15 14:44:43:909,0,13.6004,2.39726,-9.53806,Q,Q
2023-03-15 14:44:43:919,0,13.5984,2.44501,-9.50142,Q,Q
2023-03-15 14:44:43:929,0,13.5996,2.48962,-9.45733,Q,Q
2023-03-15 14:44:43:939,0,13.5978,2.52351,-9.40782,Q,Q
2023-03-15 14:44:43:949,0,13.6034,2.55499,-9.35165,Q,Q
2023-03-15 14:44:43:959,0,13.6093,2.58331,-9.28994,Q,Q
2023-03-15 14:44:43:969,0,13.6213,2.61616,-9.22059,Q,Q
2023-03-15 14:44:43:979,0,13.6328,2.64977,-9.14823,Q,Q
2023-03-15 14:44:43:989,0,13.6518,2.68048,-9.07383,Q,Q
2023-03-15 14:44:43:999,0,13.6645,2.71243,-8.99649,Q,Q
2023-03-15 14:44:44:9,0,13.6729,2.74361,-8.91708,Q,Q
2023-03-15 14:44:44:19,0,13.6841,2.77497,-8.84169,Q,Q
2023-03-15 14:44:44:29,0,13.6903,2.79818,-8.76735,Q,Q
2023-03-15 14:44:44:39,0,13.6946,2.81777,-8.69833,Q,Q
2023-03-15 14:44:44:49,0,13.7014,2.83132,-8.63722,Q,Q
2023-03-15 14:44:44:59,0,13.717,2.84113,-8.57668,Q,Q
2023-03-15 14:44:44:69,0,13.7337,2.84748,-8.52356,Q,Q
2023-03-15 14:44:44:79,0,13.7502,2.85149,-8.47572,Q,Q
2023-03-15 14:44:44:89,0,13.7702,2.85655,-8.4334,Q,Q
2023-03-15 14:44:44:99,0,13.7917,2.85855,-8.39808,Q,Q
2023-03-15 14:44:44:109,0,13.8147,2.86152,-8.3717,Q,Q
2023-03-15 14:44:44:119,0,13.8396,2.8665,-8.35841,Q,Q
2023-03-15 14:44:44:129,0,13.863,2.87524,-8.35119,Q,Q
2023-03-15 14:44:44:139,0,13.8837,2.8863,-8.35795,Q,Q
2023-03-15 14:44:44:149,0,13.8945,2.89806,-8.37393,Q,Q
2023-03-15 14:44:44:159,0,13.9106,2.90849,-8.4025,Q,Q
2023-03-15 14:44:44:169,0,13.9317,2.92364,-8.44064,Q,Q
2023-03-15 14:44:44:179,0,13.9592,2.93514,-8.48026,Q,Q
2023-03-15 14:44:44:189,0,13.9867,2.9399,-8.52777,Q,Q
2023-03-15 14:44:44:199,0,14.0155,2.93887,-8.58307,Q,Q
2023-03-15 14:44:44:209,0,14.0467,2.93342,-8.64834,Q,Q
2023-03-15 14:44:44:219,0,14.0662,2.93097,-8.72034,Q,Q
2023-03-15 14:44:44:229,0,14.0789,2.93102,-8.80215,Q,Q
2023-03-15 14:44:44:239,0,14.0844,2.93164,-8.89622,Q,Q
2023-03-15 14:44:44:249,0,14.0806,2.93547,-9.00195,Q,Q
2023-03-15 14:44:44:259,0,14.0799,2.93942,-9.11948,Q,Q
2023-03-15 14:44:44:269,0,14.0812,2.94936,-9.24835,Q,Q
2023-03-15 14:44:44:279,0,14.0872,2.95711,-9.3803,Q,Q
2023-03-15 14:44:44:289,0,14.0993,2.97016,-9.52066,Q,Q
2023-03-15 14:44:44:299,0,14.1194,2.98675,-9.66909,Q,Q
2023-03-15 14:44:44:309,0,14.1468,3.00652,-9.8295,Q,Q
2023-03-15 14:44:44:319,0,14.177,3.03214,-9.99059,Q,Q
2023-03-15 14:44:44:329,0,14.213,3.06022,-10.1554,Q,Q
2023-03-15 14:44:44:339,0,14.2415,3.08658,-10.3242,Q,Q
2023-03-15 14:44:44:349,0,14.2601,3.11307,-10.4962,Q,Q
2023-03-15 14:44:44:359,0,14.2725,3.14281,-10.673,Q,Q
2023-03-15 14:44:44:369,0,14.2863,3.17588,-10.8531,Q,Q
2023-03-15 14:44:44:379,0,14.3064,3.20432,-11.0313,Q,Q
2023-03-15 14:44:44:389,0,14.3189,3.232,-11.2084,Q,Q
2023-03-15 14:44:44:399,0,14.3221,3.25946,-11.3776,Q,Q
2023-03-15 14:44:44:409,0,14.3234,3.29128,-11.5453,Q,Q
2023-03-15 14:44:44:419,0,14.3304,3.32887,-11.7084,Q,Q
2023-03-15 14:44:44:429,0,14.3438,3.36387,-11.864,Q,Q
2023-03-15 14:44:44:439,0,14.3559,3.39727,-12.0071,Q,Q
2023-03-15 14:44:44:449,0,14.3594,3.42085,-12.1457,Q,Q
2023-03-15 14:44:44:459,0,14.3555,3.43929,-12.2837,Q,Q
2023-03-15 14:44:44:469,0,14.3532,3.44972,-12.4238,Q,Q
2023-03-15 14:44:44:479,0,14.3556,3.4535,-12.5601,Q,Q
2023-03-15 14:44:44:489,0,14.3598,3.45282,-12.6941,Q,Q
2023-03-15 14:44:44:499,0,14.3631,3.45043,-12.8303,Q,Q
2023-03-15 14:44:44:509,0,14.3633,3.44753,-12.9677,Q,Q
2023-03-15 14:44:44:519,0,14.3692,3.44425,-13.1053,Q,Q
2023-03-15 14:44:44:529,0,14.3781,3.43744,-13.2454,Q,Q
2023-03-15 14:44:44:539,0,14.388,3.42523,-13.3834,Q,Q
2023-03-15 14:44:44:549,0,14.3961,3.39814,-13.5251,Q,Q
2023-03-15 14:44:44:559,0,14.4113,3.36704,-13.6691,Q,Q
2023-03-15 14:44:44:569,0,14.4431,3.32948,-13.8082,Q,Q
2023-03-15 14:44:44:579,0,14.4825,3.27858,-13.9473,Q,Q
2023-03-15 14:44:44:589,0,14.5256,3.22218,-14.0861,Q,Q
2023-03-15 14:44:44:599,0,14.5715,3.15632,-14.2253,Q,Q
2023-03-15 14:44:44:609,0,14.6086,3.08872,-14.3626,Q,Q
2023-03-15 14:44:44:619,0,14.6322,3.02033,-14.5009,Q,Q
2023-03-15 14:44:44:629,0,14.639,2.94855,-14.6406,Q,Q
2023-03-15 14:44:44:639,0,14.6257,2.87533,-14.7891,Q,Q
2023-03-15 14:44:44:649,0,14.5988,2.80522,-14.9415,Q,Q
2023-03-15 14:44:44:659,0,14.5646,2.73945,-15.0997,Q,Q
2023-03-15 14:44:44:669,0,14.5244,2.67899,-15.2554,Q,Q
2023-03-15 14:44:44:679,0,14.4895,2.61924,-15.4061,Q,Q
2023-03-15 14:44:44:689,0,14.4615,2.55991,-15.5563,Q,Q
2023-03-15 14:44:44:699,0,14.4423,2.49972,-15.6961,Q,Q
2023-03-15 14:44:44:709,0,14.4134,2.43328,-15.8215,Q,Q
2023-03-15 14:44:44:719,0,14.374,2.3712,-15.9376,Q,Q
2023-03-15 14:44:44:729,0,14.3157,2.3176,-16.0457,Q,Q
2023-03-15 14:44:44:739,0,14.2309,2.27575,-16.1477,Q,Q
2023-03-15 14:44:44:749,0,14.1239,2.24625,-16.2437,Q,Q
2023-03-15 14:44:44:759,0,13.9962,2.22764,-16.3427,Q,Q
2023-03-15 14:44:44:769,0,13.8511,2.21896,-16.445,Q,Q
2023-03-15 14:44:44:779,0,13.6983,2.21656,-16.5506,Q,Q
2023-03-15 14:44:44:789,0,13.5457,2.21089,-16.6588,Q,Q
2023-03-15 14:44:44:799,0,13.3907,2.20545,-16.7659,Q,Q
2023-03-15 14:44:44:809,0,13.2307,2.19214,-16.8713,Q,Q
2023-03-15 14:44:44:819,0,13.0667,2.17157,-16.9673,Q,Q
2023-03-15 14:44:44:829,0,12.9041,2.14343,-17.0595,Q,Q
2023-03-15 14:44:44:839,0,12.7411,2.11453,-17.148,Q,Q
2023-03-15 14:44:44:849,0,12.5872,2.093,-17.235,Q,Q
2023-03-15 14:44:44:859,0,12.4479,2.08259,-17.3232,Q,Q
2023-03-15 14:44:44:869,0,12.3317,2.07961,-17.4085,Q,Q
2023-03-15 14:44:44:879,0,12.2283,2.09066,-17.4812,Q,Q
2023-03-15 14:44:44:889,0,12.1426,2.10848,-17.5447,Q,Q
2023-03-15 14:44:44:899,0,12.0708,2.13103,-17.5904,Q,Q
2023-03-15 14:44:44:909,0,12.0173,2.14835,-17.6267,Q,Q
2023-03-15 14:44:44:919,0,11.9856,2.15854,-17.6456,Q,Q
2023-03-15 14:44:44:929,0,11.9752,2.15628,-17.6426,Q,Q
2023-03-15 14:44:44:939,0,11.9899,2.13853,-17.6238,Q,Q
2023-03-15 14:44:44:949,0,12.0199,2.10567,-17.5858,Q,Q
2023-03-15 14:44:44:959,0,12.0547,2.06021,-17.5271,Q,Q
2023-03-15 14:44:44:969,0,12.0723,2.01479,-17.4589,Q,Q
2023-03-15 14:44:44:979,0,12.0852,1.96843,-17.3815,Q,Q
2023-03-15 14:44:44:989,0,12.1115,1.91498,-17.2944,Q,Q
2023-03-15 14:44:44:999,0,12.1524,1.85335,-17.1893,Q,Q
2023-03-15 14:44:45:9,0,12.1911,1.79364,-17.08,Q,Q
2023-03-15 14:44:45:19,0,12.2066,1.74865,-16.9753,Q,Q
2023-03-15 14:44:45:29,0,12.2035,1.70715,-16.8698,Q,Q
2023-03-15 14:44:45:39,0,12.1877,1.67237,-16.7615,Q,Q
2023-03-15 14:44:45:49,0,12.1702,1.64137,-16.6549,Q,Q
2023-03-15 14:44:45:59,0,12.1648,1.61257,-16.5412,Q,Q
2023-03-15 14:44:45:69,0,12.1582,1.5791,-16.413,Q,Q
2023-03-15 14:44:45:79,0,12.1563,1.54423,-16.2779,Q,Q
2023-03-15 14:44:45:89,0,12.1538,1.50407,-16.1434,Q,Q
2023-03-15 14:44:45:99,0,12.1466,1.4679,-16.0032,Q,Q
2023-03-15 14:44:45:109,0,12.1376,1.43946,-15.875,Q,Q
2023-03-15 14:44:45:119,0,12.127,1.42112,-15.7627,Q,Q
2023-03-15 14:44:45:129,0,12.1213,1.40937,-15.6608,Q,Q
2023-03-15 14:44:45:139,0,12.1232,1.40158,-15.5728,Q,Q
2023-03-15 14:44:45:149,0,12.1232,1.38733,-15.4944,Q,Q
2023-03-15 14:44:45:159,0,12.1207,1.36464,-15.4336,Q,Q
2023-03-15 14:44:45:169,0,12.1092,1.33808,-15.386,Q,Q
2023-03-15 14:44:45:179,0,12.0821,1.30573,-15.3584,Q,Q
2023-03-15 14:44:45:189,0,12.0405,1.27182,-15.3384,Q,Q
2023-03-15 14:44:45:199,0,11.9839,1.2322,-15.3277,Q,Q
2023-03-15 14:44:45:209,0,11.908,1.18639,-15.3173,Q,Q
2023-03-15 14:44:45:219,0,11.8143,1.13519,-15.3119,Q,Q
2023-03-15 14:44:45:229,0,11.7066,1.08873,-15.3063,Q,Q
2023-03-15 14:44:45:239,0,11.5786,1.04242,-15.3062,Q,Q
2023-03-15 14:44:45:249,0,11.431,1.00692,-15.3117,Q,Q
2023-03-15 14:44:45:259,0,11.2805,0.975107,-15.3166,Q,Q
2023-03-15 14:44:45:269,0,11.1369,0.944605,-15.3234,Q,Q
2023-03-15 14:44:45:279,0,11.0157,0.909534,-15.3242,Q,Q
2023-03-15 14:44:45:289,0,10.9114,0.872772,-15.309,Q,Q
2023-03-15 14:44:45:299,0,10.8186,0.828402,-15.2868,Q,Q
2023-03-15 14:44:45:309,0,10.7317,0.776241,-15.2534,Q,Q
2023-03-15 14:44:45:319,0,10.6444,0.719785,-15.2158,Q,Q
2023-03-15 14:44:45:329,0,10.5607,0.650289,-15.1738,Q,Q
2023-03-15 14:44:45:339,0,10.482,0.573303,-15.1301,Q,Q
2023-03-15 14:44:45:349,0,10.4108,0.485604,-15.0788,Q,Q
2023-03-15 14:44:45:359,0,10.3454,0.394727,-15.0274,Q,Q
2023-03-15 14:44:45:369,0,10.2839,0.297048,-14.9699,Q,Q
2023-03-15 14:44:45:379,0,10.2263,0.19552,-14.9052,Q,Q
2023-03-15 14:44:45:389,0,10.1714,0.0772207,-14.8383,Q,Q
2023-03-15 14:44:45:399,0,10.1147,-0.0494337,-14.7703,Q,Q
2023-03-15 14:44:45:409,0,10.0543,-0.175334,-14.706,Q,Q
2023-03-15 14:44:45:419,0,9.99627,-0.293349,-14.6498,Q,Q
2023-03-15 14:44:45:429,0,9.93413,-0.399218,-14.6007,Q,Q
2023-03-15 14:44:45:439,0,9.86271,-0.487911,-14.5634,Q,Q
2023-03-15 14:44:45:449,0,9.77513,-0.563541,-14.5394,Q,Q
2023-03-15 14:44:45:459,0,9.6752,-0.623485,-14.5248,Q,Q
2023-03-15 14:44:45:469,0,9.56837,-0.675359,-14.5202,Q,Q
2023-03-15 14:44:45:479,0,9.45743,-0.725495,-14.5243,Q,Q
2023-03-15 14:44:45:489,0,9.35249,-0.769041,-14.5376,Q,Q
2023-03-15 14:44:45:499,0,9.25775,-0.80752,-14.5568,Q,Q
2023-03-15 14:44:45:509,0,9.1666,-0.840297,-14.5799,Q,Q
2023-03-15 14:44:45:519,0,9.07842,-0.871531,-14.6081,Q,Q
2023-03-15 14:44:45:529,0,8.9906,-0.8935,-14.6424,Q,Q
2023-03-15 14:44:45:539,0,8.90108,-0.913821,-14.6842,Q,Q
2023-03-15 14:44:45:549,0,8.81211,-0.929739,-14.7303,Q,Q
2023-03-15 14:44:45:559,0,8.72567,-0.947722,-14.7835,Q,Q
2023-03-15 14:44:45:569,0,8.64347,-0.967059,-14.8407,Q,Q
2023-03-15 14:44:45:579,0,8.5648,-0.989784,-14.909,Q,Q
2023-03-15 14:44:45:589,0,8.49182,-1.01588,-14.9842,Q,Q
2023-03-15 14:44:45:599,0,8.42325,-1.04614,-15.065,Q,Q
2023-03-15 14:44:45:609,0,8.35263,-1.08244,-15.1459,Q,Q
2023-03-15 14:44:45:619,0,8.28159,-1.11761,-15.235,Q,Q
2023-03-15 14:44:45:629,0,8.20966,-1.15113,-15.323,Q,Q
2023-03-15 14:44:45:639,0,8.14875,-1.17641,-15.41,Q,Q
2023-03-15 14:44:45:649,0,8.10288,-1.19931,-15.492,Q,Q
2023-03-15 14:44:45:659,0,8.06108,-1.22051,-15.5645,Q,Q
2023-03-15 14:44:45:669,0,8.01909,-1.23513,-15.6339,Q,Q
2023-03-15 14:44:45:679,0,7.98059,-1.2489,-15.6953,Q,Q
2023-03-15 14:44:45:689,0,7.95469,-1.24418,-15.7528,Q,Q
2023-03-15 14:44:45:699,0,7.94035,-1.23052,-15.7983,Q,Q
2023-03-15 14:44:45:709,0,7.92831,-1.21659,-15.8319,Q,Q
2023-03-15 14:44:45:719,0,7.90314,-1.20837,-15.8545,Q,Q
2023-03-15 14:44:45:729,0,7.86645,-1.19311,-15.8771,Q,Q
2023-03-15 14:44:45:739,0,7.82361,-1.18317,-15.8947,Q,Q
2023-03-15 14:44:45:749,0,7.7779,-1.17089,-15.9125,Q,Q
2023-03-15 14:44:45:759,0,7.73498,-1.14801,-15.9253,Q,Q
2023-03-15 14:44:45:769,0,7.70294,-1.1162,-15.94,Q,Q
2023-03-15 14:44:45:779,0,7.68508,-1.08576,-15.9485,Q,Q
2023-03-15 14:44:45:789,0,7.66581,-1.05435,-15.9533,Q,Q
2023-03-15 14:44:45:799,0,7.65197,-1.02095,-15.9576,Q,Q
2023-03-15 14:44:45:809,0,7.64288,-0.985607,-15.9603,Q,Q
2023-03-15 14:44:45:819,0,7.64294,-0.949458,-15.9579,Q,Q
2023-03-15 14:44:45:829,0,7.65322,-0.914077,-15.9531,Q,Q
2023-03-15 14:44:45:839,0,7.66389,-0.881675,-15.943,Q,Q
2023-03-15 14:44:45:849,0,7.67392,-0.839328,-15.9362,Q,Q
2023-03-15 14:44:45:859,0,7.68724,-0.793643,-15.9313,Q,Q
2023-03-15 14:44:45:869,0,7.69573,-0.744903,-15.9277,Q,Q
2023-03-15 14:44:45:879,0,7.70078,-0.695809,-15.9316,Q,Q
2023-03-15 14:44:45:889,0,7.70049,-0.650015,-15.9462,Q,Q
2023-03-15 14:44:45:899,0,7.69929,-0.599998,-15.9688,Q,Q
2023-03-15 14:44:45:909,0,7.69977,-0.546412,-15.9942,Q,Q
2023-03-15 14:44:45:919,0,7.7021,-0.503356,-16.0163,Q,Q
2023-03-15 14:44:45:929,0,7.70309,-0.472644,-16.0377,Q,Q
2023-03-15 14:44:45:939,0,7.69817,-0.447483,-16.0586,Q,Q
2023-03-15 14:44:45:949,0,7.68591,-0.424617,-16.0834,Q,Q
2023-03-15 14:44:45:959,0,7.66268,-0.400206,-16.1087,Q,Q
2023-03-15 14:44:45:969,0,7.63296,-0.37708,-16.1373,Q,Q
2023-03-15 14:44:45:979,0,7.60754,-0.356032,-16.1696,Q,Q
2023-03-15 14:44:45:989,0,7.58016,-0.334298,-16.2008,Q,Q
2023-03-15 14:44:45:999,0,7.55189,-0.313251,-16.2336,Q,Q
2023-03-15 14:44:46:9,0,7.51915,-0.290537,-16.2697,Q,Q
2023-03-15 14:44:46:19,0,7.48457,-0.271425,-16.3036,Q,Q
2023-03-15 14:44:46:29,0,7.45489,-0.249662,-16.3369,Q,Q
2023-03-15 14:44:46:39,0,7.42315,-0.228714,-16.3691,Q,Q
2023-03-15 14:44:46:49,0,7.38316,-0.210196,-16.3974,Q,Q
2023-03-15 14:44:46:59,0,7.332,-0.199547,-16.4262,Q,Q
2023-03-15 14:44:46:69,0,7.27172,-0.189295,-16.4524,Q,Q
2023-03-15 14:44:46:79,0,7.20952,-0.185975,-16.4826,Q,Q
2023-03-15 14:44:46:89,0,7.15552,-0.179357,-16.5171,Q,Q
2023-03-15 14:44:46:99,0,7.1086,-0.174482,-16.5461,Q,Q
2023-03-15 14:44:46:109,0,7.06351,-0.170802,-16.5726,Q,Q
2023-03-15 14:44:46:119,0,7.01982,-0.158749,-16.5982,Q,Q
2023-03-15 14:44:46:129,0,6.98032,-0.147812,-16.6191,Q,Q
2023-03-15 14:44:46:139,0,6.94597,-0.137463,-16.642,Q,Q
2023-03-15 14:44:46:149,0,6.91717,-0.127273,-16.6627,Q,Q
2023-03-15 14:44:46:159,0,6.89161,-0.112377,-16.6853,Q,Q
2023-03-15 14:44:46:169,0,6.86803,-0.100174,-16.7096,Q,Q
2023-03-15 14:44:46:179,0,6.84212,-0.0898997,-16.7273,Q,Q
2023-03-15 14:44:46:189,0,6.81241,-0.083684,-16.7442,Q,Q
2023-03-15 14:44:46:199,0,6.78283,-0.0779605,-16.7596,Q,Q
2023-03-15 14:44:46:209,0,6.7495,-0.0731404,-16.7773,Q,Q
2023-03-15 14:44:46:219,0,6.71182,-0.0614496,-16.8004,Q,Q
2023-03-15 14:44:46:229,0,6.67271,-0.0509405,-16.8279,Q,Q
2023-03-15 14:44:46:239,0,6.63104,-0.0342902,-16.8554,Q,Q
2023-03-15 14:44:46:249,0,6.59096,-0.0160871,-16.8839,Q,Q
2023-03-15 14:44:46:259,0,6.5633,0.0108397,-16.9137,Q,Q
2023-03-15 14:44:46:269,0,6.54436,0.0422089,-16.9369,Q,Q
2023-03-15 14:44:46:279,0,6.54169,0.0794102,-16.9466,Q,Q
2023-03-15 14:44:46:289,0,6.54497,0.123417,-16.9517,Q,Q
2023-03-15 14:44:46:299,0,6.54615,0.16591,-16.9499,Q,Q
2023-03-15 14:44:46:309,0,6.54588,0.206349,-16.9442,Q,Q
2023-03-15 14:44:46:319,0,6.54431,0.244828,-16.9377,Q,Q
2023-03-15 14:44:46:329,0,6.54225,0.280112,-16.931,Q,Q
2023-03-15 14:44:46:339,0,6.54171,0.307423,-16.9202,Q,Q
2023-03-15 14:44:46:349,0,6.53785,0.330954,-16.9155,Q,Q
2023-03-15 14:44:46:359,0,6.53894,0.348593,-16.9104,Q,Q
2023-03-15 14:44:46:369,0,6.54666,0.358762,-16.9064,Q,Q
2023-03-15 14:44:46:379,0,6.55952,0.367143,-16.9024,Q,Q
2023-03-15 14:44:46:389,0,6.57396,0.367701,-16.9029,Q,Q
2023-03-15 14:44:46:399,0,6.59315,0.364805,-16.9076,Q,Q
2023-03-15 14:44:46:409,0,6.60814,0.366127,-16.9132,Q,Q
2023-03-15 14:44:46:419,0,6.62125,0.364548,-16.9265,Q,Q
2023-03-15 14:44:46:429,0,6.64281,0.364207,-16.9413,Q,Q
2023-03-15 14:44:46:439,0,6.67673,0.363686,-16.9604,Q,Q
2023-03-15 14:44:46:449,0,6.71262,0.365806,-16.9772,Q,Q
2023-03-15 14:44:46:459,0,6.75642,0.367917,-16.9941,Q,Q
2023-03-15 14:44:46:469,0,6.80971,0.372984,-17.0117,Q,Q
2023-03-15 14:44:46:479,0,6.86777,0.370666,-17.0307,Q,Q
2023-03-15 14:44:46:489,0,6.93141,0.369272,-17.0466,Q,Q
2023-03-15 14:44:46:499,0,6.99572,0.370911,-17.0639,Q,Q
2023-03-15 14:44:46:509,0,7.05543,0.376553,-17.0799,Q,Q
2023-03-15 14:44:46:519,0,7.11495,0.390531,-17.0997,Q,Q
2023-03-15 14:44:46:529,0,7.17935,0.40842,-17.1159,Q,Q
2023-03-15 14:44:46:539,0,7.24673,0.426641,-17.1276,Q,Q
2023-03-15 14:44:46:549,0,7.31579,0.450118,-17.1337,Q,Q
2023-03-15 14:44:46:559,0,7.38689,0.472028,-17.1292,Q,Q
2023-03-15 14:44:46:569,0,7.46425,0.493788,-17.1177,Q,Q
2023-03-15 14:44:46:579,0,7.54737,0.509882,-17.0938,Q,Q
2023-03-15 14:44:46:589,0,7.63202,0.520899,-17.0626,Q,Q
2023-03-15 14:44:46:599,0,7.70756,0.531833,-17.0175,Q,Q
2023-03-15 14:44:46:609,0,7.77238,0.538595,-16.969,Q,Q
2023-03-15 14:44:46:619,0,7.81873,0.539431,-16.9108,Q,Q
2023-03-15 14:44:46:629,0,7.85033,0.532526,-16.8518,Q,Q
2023-03-15 14:44:46:639,0,7.87897,0.523477,-16.7924,Q,Q
2023-03-15 14:44:46:649,0,7.91366,0.509415,-16.7336,Q,Q
2023-03-15 14:44:46:659,0,7.95313,0.49483,-16.6739,Q,Q
2023-03-15 14:44:46:669,0,7.98935,0.483264,-16.6189,Q,Q
2023-03-15 14:44:46:679,0,8.02094,0.475975,-16.5642,Q,Q
2023-03-15 14:44:46:689,0,8.04627,0.476725,-16.5199,Q,Q
2023-03-15 14:44:46:699,0,8.07087,0.474665,-16.4784,Q,Q
2023-03-15 14:44:46:709,0,8.09827,0.470363,-16.4367,Q,Q
2023-03-15 14:44:46:719,0,8.13386,0.462113,-16.3966,Q,Q
2023-03-15 14:44:46:729,0,8.17157,0.449349,-16.3586,Q,Q
2023-03-15 14:44:46:739,0,8.20202,0.435927,-16.3234,Q,Q
2023-03-15 14:44:46:749,0,8.23555,0.427202,-16.2946,Q,Q
2023-03-15 14:44:46:759,0,8.26912,0.423742,-16.2704,Q,Q
2023-03-15 14:44:46:769,0,8.30459,0.426252,-16.2561,Q,Q
2023-03-15 14:44:46:779,0,8.3442,0.430691,-16.244,Q,Q
2023-03-15 14:44:46:789,0,8.39135,0.436323,-16.2398,Q,Q
2023-03-15 14:44:46:799,0,8.44235,0.438646,-16.2402,Q,Q
2023-03-15 14:44:46:809,0,8.50292,0.44894,-16.2478,Q,Q
2023-03-15 14:44:46:819,0,8.57257,0.46224,-16.2607,Q,Q
2023-03-15 14:44:46:829,0,8.65256,0.471352,-16.2731,Q,Q
2023-03-15 14:44:46:839,0,8.72524,0.477053,-16.2863,Q,Q
2023-03-15 14:44:46:849,0,8.79445,0.477088,-16.3027,Q,Q
2023-03-15 14:44:46:859,0,8.85698,0.480054,-16.3269,Q,Q
2023-03-15 14:44:46:869,0,8.91132,0.487326,-16.3536,Q,Q
2023-03-15 14:44:46:879,0,8.95798,0.494294,-16.3807,Q,Q
2023-03-15 14:44:46:889,0,8.99847,0.504225,-16.4117,Q,Q
2023-03-15 14:44:46:899,0,9.02926,0.515221,-16.4461,Q,Q
2023-03-15 14:44:46:909,0,9.05503,0.521001,-16.4844,Q,Q
2023-03-15 14:44:46:919,0,9.07524,0.524318,-16.525,Q,Q
2023-03-15 14:44:46:929,0,9.08811,0.526732,-16.5652,Q,Q
2023-03-15 14:44:46:939,0,9.10086,0.524337,-16.6064,Q,Q
2023-03-15 14:44:46:949,0,9.11165,0.525919,-16.6517,Q,Q
2023-03-15 14:44:46:959,0,9.1206,0.528002,-16.6969,Q,Q
2023-03-15 14:44:46:969,0,9.11963,0.53226,-16.7403,Q,Q
2023-03-15 14:44:46:979,0,9.11335,0.535048,-16.7814,Q,Q
2023-03-15 14:44:46:989,0,9.10209,0.538172,-16.8248,Q,Q
2023-03-15 14:44:46:999,0,9.08894,0.548041,-16.8687,Q,Q
2023-03-15 14:44:47:9,0,9.07488,0.558843,-16.9104,Q,Q
2023-03-15 14:44:47:19,0,9.05983,0.57723,-16.951,Q,Q
2023-03-15 14:44:47:29,0,9.04586,0.597905,-16.9931,Q,Q
2023-03-15 14:44:47:39,0,9.03661,0.622187,-17.0331,Q,Q
2023-03-15 14:44:47:49,0,9.02697,0.65088,-17.0703,Q,Q
2023-03-15 14:44:47:59,0,9.02078,0.686053,-17.1066,Q,Q
2023-03-15 14:44:47:69,0,9.02259,0.725165,-17.1425,Q,Q
2023-03-15 14:44:47:79,0,9.02973,0.760268,-17.1712,Q,Q
2023-03-15 14:44:47:89,0,9.03997,0.788829,-17.1942,Q,Q
2023-03-15 14:44:47:99,0,9.04398,0.813297,-17.2132,Q,Q
2023-03-15 14:44:47:109,0,9.05231,0.835369,-17.2225,Q,Q
2023-03-15 14:44:47:119,0,9.05853,0.853871,-17.2318,Q,Q
2023-03-15 14:44:47:129,0,9.06702,0.873209,-17.2377,Q,Q
2023-03-15 14:44:47:139,0,9.07369,0.886423,-17.2354,Q,Q
2023-03-15 14:44:47:149,0,9.08209,0.895238,-17.2298,Q,Q
2023-03-15 14:44:47:159,0,9.09538,0.899671,-17.2203,Q,Q
2023-03-15 14:44:47:169,0,9.11268,0.899176,-17.2073,Q,Q
2023-03-15 14:44:47:179,0,9.13241,0.895035,-17.1924,Q,Q
2023-03-15 14:44:47:189,0,9.14693,0.894184,-17.1781,Q,Q
2023-03-15 14:44:47:199,0,9.15445,0.893875,-17.162,Q,Q
2023-03-15 14:44:47:209,0,9.15887,0.893978,-17.1465,Q,Q
2023-03-15 14:44:47:219,0,9.16686,0.898299,-17.131,Q,Q
2023-03-15 14:44:47:229,0,9.17077,0.901273,-17.1132,Q,Q
2023-03-15 14:44:47:239,0,9.17471,0.901756,-17.0966,Q,Q
2023-03-15 14:44:47:249,0,9.18011,0.904225,-17.0781,Q,Q
2023-03-15 14:44:47:259,0,9.1837,0.910515,-17.0615,Q,Q
2023-03-15 14:44:47:269,0,9.18854,0.921269,-17.0432,Q,Q
2023-03-15 14:44:47:279,0,9.18932,0.932779,-17.0239,Q,Q
2023-03-15 14:44:47:289,0,9.17708,0.948646,-17.0046,Q,Q
2023-03-15 14:44:47:299,0,9.1622,0.967675,-16.9908,Q,Q
2023-03-15 14:44:47:309,0,9.14014,0.994481,-16.9803,Q,Q
2023-03-15 14:44:47:319,0,9.11617,1.02126,-16.9721,Q,Q
2023-03-15 14:44:47:329,0,9.09411,1.05549,-16.9693,Q,Q
2023-03-15 14:44:47:339,0,9.07838,1.09834,-16.9696,Q,Q
2023-03-15 14:44:47:349,0,9.06449,1.14059,-16.9709,Q,Q
2023-03-15 14:44:47:359,0,9.05713,1.18517,-16.9729,Q,Q
2023-03-15 14:44:47:369,0,9.04045,1.23224,-16.9782,Q,Q
2023-03-15 14:44:47:379,0,9.01796,1.275,-16.9875,Q,Q
2023-03-15 14:44:47:389,0,8.9901,1.31404,-16.9988,Q,Q
2023-03-15 14:44:47:399,0,8.95958,1.35006,-17.017,Q,Q
2023-03-15 14:44:47:409,0,8.92384,1.37886,-17.0401,Q,Q
2023-03-15 14:44:47:419,0,8.88624,1.40361,-17.0736,Q,Q
2023-03-15 14:44:47:429,0,8.84,1.42942,-17.1084,Q,Q
2023-03-15 14:44:47:439,0,8.79532,1.45354,-17.1456,Q,Q
2023-03-15 14:44:47:449,0,8.74401,1.47639,-17.1839,Q,Q
2023-03-15 14:44:47:459,0,8.70029,1.50127,-17.2225,Q,Q
2023-03-15 14:44:47:469,0,8.65516,1.52881,-17.2576,Q,Q
2023-03-15 14:44:47:479,0,8.61529,1.55631,-17.2878,Q,Q
2023-03-15 14:44:47:489,0,8.57339,1.57641,-17.3157,Q,Q
2023-03-15 14:44:47:499,0,8.52984,1.59177,-17.3353,Q,Q
2023-03-15 14:44:47:509,0,8.48151,1.6006,-17.3544,Q,Q
2023-03-15 14:44:47:519,0,8.42361,1.60646,-17.3739,Q,Q
2023-03-15 14:44:47:529,0,8.36391,1.61848,-17.4001,Q,Q
2023-03-15 14:44:47:539,0,8.30022,1.64126,-17.4325,Q,Q
2023-03-15 14:44:47:549,0,8.24446,1.66891,-17.4541,Q,Q
2023-03-15 14:44:47:559,0,8.19662,1.70778,-17.4652,Q,Q
2023-03-15 14:44:47:569,0,8.14532,1.75295,-17.4581,Q,Q
2023-03-15 14:44:47:579,0,8.08868,1.8028,-17.4425,Q,Q
2023-03-15 14:44:47:589,0,8.03087,1.8522,-17.4266,Q,Q
2023-03-15 14:44:47:599,0,7.96854,1.90401,-17.4023,Q,Q
2023-03-15 14:44:47:609,0,7.90057,1.94538,-17.3723,Q,Q
2023-03-15 14:44:47:619,0,7.82985,1.98804,-17.3434,Q,Q
2023-03-15 14:44:47:629,0,7.76541,2.03097,-17.3136,Q,Q
2023-03-15 14:44:47:639,0,7.71041,2.06596,-17.2799,Q,Q
2023-03-15 14:44:47:649,0,7.66985,2.10085,-17.2459,Q,Q
2023-03-15 14:44:47:659,0,7.64071,2.13985,-17.212,Q,Q
2023-03-15 14:44:47:669,0,7.61203,2.18324,-17.1785,Q,Q
2023-03-15 14:44:47:679,0,7.58849,2.22326,-17.1456,Q,Q
2023-03-15 14:44:47:689,0,7.56072,2.26604,-17.1128,Q,Q
2023-03-15 14:44:47:699,0,7.52789,2.30801,-17.0823,Q,Q
2023-03-15 14:44:47:709,0,7.4943,2.34383,-17.0547,Q,Q
2023-03-15 14:44:47:719,0,7.47566,2.38597,-17.0315,Q,Q
2023-03-15 14:44:47:729,0,7.46635,2.42409,-17.0088,Q,Q
2023-03-15 14:44:47:739,0,7.47057,2.45491,-16.9781,Q,Q
2023-03-15 14:44:47:749,0,7.47098,2.48754,-16.9447,Q,Q
2023-03-15 14:44:47:759,0,7.47334,2.51242,-16.9055,Q,Q
2023-03-15 14:44:47:769,0,7.47932,2.53193,-16.862,Q,Q
2023-03-15 14:44:47:779,0,7.48702,2.55755,-16.8196,Q,Q
2023-03-15 14:44:47:789,0,7.49527,2.59137,-16.7798,Q,Q
2023-03-15 14:44:47:799,0,7.50247,2.63445,-16.7387,Q,Q
2023-03-15 14:44:47:809,0,7.51135,2.69762,-16.6963,Q,Q
2023-03-15 14:44:47:819,0,7.51956,2.7793,-16.6513,Q,Q
2023-03-15 14:44:47:829,0,7.53324,2.88044,-16.5971,Q,Q
2023-03-15 14:44:47:839,0,7.56171,2.99275,-16.5248,Q,Q
2023-03-15 14:44:47:849,0,7.59618,3.1083,-16.4304,Q,Q
2023-03-15 14:44:47:859,0,7.63016,3.21647,-16.3159,Q,Q
2023-03-15 14:44:47:869,0,7.65762,3.3157,-16.1807,Q,Q
2023-03-15 14:44:47:879,0,7.67972,3.40884,-16.0359,Q,Q
2023-03-15 14:44:47:889,0,7.69991,3.50442,-15.8814,Q,Q
2023-03-15 14:44:47:899,0,7.72288,3.60261,-15.7223,Q,Q
2023-03-15 14:44:47:909,0,7.74575,3.69933,-15.5563,Q,Q
2023-03-15 14:44:47:919,0,7.76505,3.79787,-15.3933,Q,Q
2023-03-15 14:44:47:929,0,7.784,3.89867,-15.2323,Q,Q
2023-03-15 14:44:47:939,0,7.80321,4.00482,-15.0756,Q,Q
2023-03-15 14:44:47:949,0,7.82531,4.11131,-14.9193,Q,Q
