Timestamp_cmd,imu_cmd,roll_delta,pitch_delta,yaw_delta
2023-03-11 17:48:48:626,0,-5.04261,-2.59116,87.2874
2023-03-11 17:48:48:634,0,-5.07109,-2.58417,87.2747
2023-03-11 17:48:48:644,0,-5.10615,-2.57864,87.2655
2023-03-11 17:48:48:654,0,-5.13769,-2.57603,87.2577
2023-03-11 17:48:48:664,0,-5.16433,-2.57209,87.2536
2023-03-11 17:48:48:674,0,-5.18342,-2.56981,87.2523
2023-03-11 17:48:48:684,0,-5.20256,-2.56712,87.2556
2023-03-11 17:48:48:694,0,-5.22116,-2.56068,87.2601
2023-03-11 17:48:48:704,0,-5.24758,-2.5571,87.2687
2023-03-11 17:48:48:714,0,-5.27694,-2.55655,87.2782
2023-03-11 17:48:48:724,0,-5.30949,-2.56159,87.2906
2023-03-11 17:48:48:734,0,-5.33981,-2.57505,87.3046
2023-03-11 17:48:48:744,0,-5.36433,-2.59052,87.3189
2023-03-11 17:48:48:754,0,-5.38138,-2.60559,87.332
2023-03-11 17:48:48:764,0,-5.38207,-2.61857,87.3371
2023-03-11 17:48:48:774,0,-5.3692,-2.62637,87.3317
2023-03-11 17:48:48:784,0,-5.33332,-2.63673,87.3192
2023-03-11 17:48:48:794,0,-5.29132,-2.64273,87.2985
2023-03-11 17:48:48:804,0,-5.23466,-2.64408,87.2704
2023-03-11 17:48:48:814,0,-5.17798,-2.64183,87.2409
2023-03-11 17:48:48:824,0,-5.12344,-2.63599,87.2104
2023-03-11 17:48:48:834,0,-5.07238,-2.62898,87.1844
2023-03-11 17:48:48:844,0,-5.0274,-2.62302,87.1609
2023-03-11 17:48:48:854,0,-4.99161,-2.61915,87.1393
2023-03-11 17:48:48:864,0,-4.96136,-2.61773,87.1184
2023-03-11 17:48:48:874,0,-4.94585,-2.61474,87.0991
2023-03-11 17:48:48:884,0,-4.9378,-2.6138,87.0862
2023-03-11 17:48:48:894,0,-4.93292,-2.61199,87.0688
2023-03-11 17:48:48:904,0,-4.93362,-2.61088,87.0552
2023-03-11 17:48:48:914,0,-4.93814,-2.61082,87.0422
2023-03-11 17:48:48:924,0,-4.95551,-2.61396,87.0304
2023-03-11 17:48:48:934,0,-4.98366,-2.62562,87.0239
2023-03-11 17:48:48:944,0,-5.0151,-2.63713,87.0196
2023-03-11 17:48:48:954,0,-5.03949,-2.65126,87.0136
2023-03-11 17:48:48:964,0,-5.06997,-2.66467,87.009
2023-03-11 17:48:48:974,0,-5.09317,-2.67748,87.0078
2023-03-11 17:48:48:984,0,-5.1151,-2.68933,87.0112
2023-03-11 17:48:48:994,0,-5.13292,-2.69665,87.0181
2023-03-11 17:48:49:4,0,-5.14582,-2.70424,87.0222
2023-03-11 17:48:49:14,0,-5.15479,-2.71498,87.0275
2023-03-11 17:48:49:23,0,-5.16023,-2.72416,87.031
2023-03-11 17:48:49:34,0,-5.16011,-2.73167,87.0302
2023-03-11 17:48:49:44,0,-5.15545,-2.73886,87.0253
2023-03-11 17:48:49:54,0,-5.14428,-2.74434,87.019
2023-03-11 17:48:49:64,0,-5.12828,-2.75318,87.0076
2023-03-11 17:48:49:74,0,-5.10697,-2.75783,86.9908
2023-03-11 17:48:49:84,0,-5.08475,-2.76287,86.9705
2023-03-11 17:48:49:94,0,-5.06032,-2.76614,86.9489
2023-03-11 17:48:49:104,0,-5.03866,-2.77015,86.9289
2023-03-11 17:48:49:114,0,-5.02118,-2.77264,86.9071
2023-03-11 17:48:49:124,0,-5.00708,-2.77576,86.8934
2023-03-11 17:48:49:134,0,-4.99639,-2.77859,86.8764
2023-03-11 17:48:49:144,0,-4.98849,-2.77864,86.8616
2023-03-11 17:48:49:154,0,-4.98816,-2.78147,86.8494
2023-03-11 17:48:49:164,0,-4.98407,-2.78049,86.8381
2023-03-11 17:48:49:174,0,-4.98143,-2.77589,86.8266
2023-03-11 17:48:49:184,0,-4.97926,-2.77081,86.8162
2023-03-11 17:48:49:194,0,-4.98156,-2.76313,86.8068
2023-03-11 17:48:49:204,0,-4.98917,-2.75162,86.7976
2023-03-11 17:48:49:214,0,-5.00686,-2.7385,86.7923
2023-03-11 17:48:49:224,0,-5.02612,-2.71988,86.7911
2023-03-11 17:48:49:234,0,-5.04799,-2.70222,86.7897
2023-03-11 17:48:49:244,0,-5.07647,-2.68455,86.7961
2023-03-11 17:48:49:254,0,-5.10989,-2.66531,86.8042
2023-03-11 17:48:49:264,0,-5.14295,-2.64626,86.8146
2023-03-11 17:48:49:274,0,-5.17807,-2.62819,86.8245
2023-03-11 17:48:49:284,0,-5.21233,-2.61011,86.8315
2023-03-11 17:48:49:294,0,-5.24266,-2.59343,86.8389
2023-03-11 17:48:49:304,0,-5.27402,-2.57681,86.8442
2023-03-11 17:48:49:314,0,-5.30031,-2.55864,86.8464
2023-03-11 17:48:49:324,0,-5.32714,-2.54239,86.8424
2023-03-11 17:48:49:334,0,-5.34904,-2.53101,86.8332
2023-03-11 17:48:49:344,0,-5.36789,-2.52713,86.8204
2023-03-11 17:48:49:354,0,-5.37793,-2.52832,86.8035
2023-03-11 17:48:49:364,0,-5.38946,-2.53153,86.7832
2023-03-11 17:48:49:374,0,-5.39693,-2.53784,86.7641
2023-03-11 17:48:49:384,0,-5.40544,-2.54543,86.7453
2023-03-11 17:48:49:394,0,-5.40878,-2.54886,86.7288
2023-03-11 17:48:49:404,0,-5.40687,-2.54853,86.7153
2023-03-11 17:48:49:414,0,-5.40164,-2.54877,86.7077
2023-03-11 17:48:49:424,0,-5.40001,-2.54413,86.7064
2023-03-11 17:48:49:434,0,-5.4,-2.53708,86.7099
2023-03-11 17:48:49:444,0,-5.40467,-2.52743,86.7174
2023-03-11 17:48:49:454,0,-5.41904,-2.51813,86.7268
2023-03-11 17:48:49:464,0,-5.43262,-2.5118,86.739
2023-03-11 17:48:49:474,0,-5.44336,-2.50952,86.7558
2023-03-11 17:48:49:484,0,-5.45717,-2.51301,86.7758
2023-03-11 17:48:49:494,0,-5.4761,-2.52187,86.7971
2023-03-11 17:48:49:504,0,-5.50024,-2.53633,86.819
2023-03-11 17:48:49:514,0,-5.53077,-2.55713,86.8433
2023-03-11 17:48:49:524,0,-5.56556,-2.58084,86.8689
2023-03-11 17:48:49:534,0,-5.5984,-2.61056,86.8882
2023-03-11 17:48:49:544,0,-5.62648,-2.63146,86.8982
2023-03-11 17:48:49:554,0,-5.64826,-2.65075,86.9049
2023-03-11 17:48:49:564,0,-5.67135,-2.67094,86.9036
2023-03-11 17:48:49:574,0,-5.68974,-2.68009,86.8949
2023-03-11 17:48:49:584,0,-5.69858,-2.68746,86.8781
2023-03-11 17:48:49:594,0,-5.70436,-2.6919,86.8606
2023-03-11 17:48:49:604,0,-5.70932,-2.69344,86.8415
2023-03-11 17:48:49:614,0,-5.71677,-2.69552,86.8258
2023-03-11 17:48:49:624,0,-5.72637,-2.69235,86.81
2023-03-11 17:48:49:634,0,-5.7362,-2.6898,86.7903
2023-03-11 17:48:49:644,0,-5.74997,-2.68333,86.7748
2023-03-11 17:48:49:654,0,-5.76214,-2.67195,86.763
2023-03-11 17:48:49:664,0,-5.7716,-2.66113,86.7514
2023-03-11 17:48:49:674,0,-5.77662,-2.64712,86.7403
2023-03-11 17:48:49:684,0,-5.78256,-2.63736,86.728
2023-03-11 17:48:49:694,0,-5.78432,-2.63099,86.7129
2023-03-11 17:48:49:704,0,-5.77771,-2.61811,86.7016
2023-03-11 17:48:49:714,0,-5.77746,-2.60883,86.6913
2023-03-11 17:48:49:724,0,-5.78126,-2.60012,86.6857
2023-03-11 17:48:49:734,0,-5.79027,-2.59938,86.6889
2023-03-11 17:48:49:744,0,-5.79985,-2.60052,86.6949
2023-03-11 17:48:49:754,0,-5.80981,-2.60643,86.7052
2023-03-11 17:48:49:764,0,-5.81499,-2.61185,86.7181
2023-03-11 17:48:49:774,0,-5.81124,-2.61707,86.7337
2023-03-11 17:48:49:784,0,-5.80104,-2.62102,86.7492
2023-03-11 17:48:49:794,0,-5.7851,-2.62462,86.7644
2023-03-11 17:48:49:804,0,-5.76183,-2.63026,86.7775
2023-03-11 17:48:49:814,0,-5.73493,-2.63499,86.7859
2023-03-11 17:48:49:824,0,-5.70611,-2.63923,86.7875
2023-03-11 17:48:49:834,0,-5.66947,-2.63636,86.7869
2023-03-11 17:48:49:844,0,-5.63626,-2.63237,86.7813
2023-03-11 17:48:49:854,0,-5.60094,-2.62215,86.7731
2023-03-11 17:48:49:864,0,-5.57173,-2.60674,86.7596
2023-03-11 17:48:49:874,0,-5.5439,-2.58296,86.7408
2023-03-11 17:48:49:884,0,-5.52221,-2.55581,86.727
2023-03-11 17:48:49:894,0,-5.50422,-2.5223,86.7079
2023-03-11 17:48:49:904,0,-5.49227,-2.48615,86.6955
2023-03-11 17:48:49:914,0,-5.48842,-2.4511,86.6879
2023-03-11 17:48:49:924,0,-5.49403,-2.41925,86.6848
2023-03-11 17:48:49:934,0,-5.51032,-2.39199,86.6853
2023-03-11 17:48:49:944,0,-5.53626,-2.3704,86.6868
2023-03-11 17:48:49:954,0,-5.56794,-2.35384,86.6942
2023-03-11 17:48:49:964,0,-5.60723,-2.34128,86.7013
2023-03-11 17:48:49:974,0,-5.64334,-2.33285,86.7044
2023-03-11 17:48:49:984,0,-5.67,-2.32784,86.6981
2023-03-11 17:48:49:994,0,-5.68782,-2.3266,86.6836
2023-03-11 17:48:50:4,0,-5.70188,-2.3278,86.6632
2023-03-11 17:48:50:14,0,-5.7098,-2.32738,86.6381
2023-03-11 17:48:50:24,0,-5.71098,-2.3323,86.6118
2023-03-11 17:48:50:34,0,-5.71437,-2.33708,86.5802
2023-03-11 17:48:50:44,0,-5.71585,-2.34646,86.5538
2023-03-11 17:48:50:54,0,-5.72119,-2.35107,86.5327
2023-03-11 17:48:50:64,0,-5.72311,-2.35614,86.5223
2023-03-11 17:48:50:74,0,-5.7234,-2.35945,86.5188
2023-03-11 17:48:50:84,0,-5.72001,-2.3628,86.5192
2023-03-11 17:48:50:94,0,-5.71794,-2.36876,86.527
2023-03-11 17:48:50:104,0,-5.71514,-2.37163,86.5351
2023-03-11 17:48:50:114,0,-5.70714,-2.3744,86.5507
2023-03-11 17:48:50:124,0,-5.69735,-2.38109,86.5676
2023-03-11 17:48:50:134,0,-5.69473,-2.39028,86.582
2023-03-11 17:48:50:144,0,-5.68444,-2.39863,86.5919
2023-03-11 17:48:50:154,0,-5.67712,-2.40434,86.6008
2023-03-11 17:48:50:164,0,-5.66627,-2.41314,86.6052
2023-03-11 17:48:50:174,0,-5.65895,-2.42388,86.6078
2023-03-11 17:48:50:184,0,-5.65371,-2.4392,86.6084
2023-03-11 17:48:50:194,0,-5.64881,-2.45303,86.6133
2023-03-11 17:48:50:204,0,-5.64963,-2.46284,86.6138
2023-03-11 17:48:50:214,0,-5.65019,-2.47195,86.618
2023-03-11 17:48:50:224,0,-5.65203,-2.47842,86.6206
2023-03-11 17:48:50:234,0,-5.65071,-2.48822,86.6237
2023-03-11 17:48:50:244,0,-5.65196,-2.49657,86.63
2023-03-11 17:48:50:254,0,-5.64976,-2.50497,86.6326
2023-03-11 17:48:50:264,0,-5.64688,-2.50792,86.6338
2023-03-11 17:48:50:274,0,-5.63966,-2.5091,86.6333
2023-03-11 17:48:50:284,0,-5.6401,-2.50809,86.6281
2023-03-11 17:48:50:294,0,-5.64604,-2.50097,86.6181
2023-03-11 17:48:50:304,0,-5.64393,-2.49515,86.6028
2023-03-11 17:48:50:314,0,-5.64608,-2.48505,86.5825
2023-03-11 17:48:50:324,0,-5.64685,-2.47182,86.5602
2023-03-11 17:48:50:334,0,-5.65053,-2.46247,86.5368
2023-03-11 17:48:50:344,0,-5.65535,-2.45174,86.5126
2023-03-11 17:48:50:354,0,-5.65734,-2.4437,86.4935
2023-03-11 17:48:50:364,0,-5.66685,-2.43632,86.4772
2023-03-11 17:48:50:374,0,-5.67578,-2.42977,86.4667
2023-03-11 17:48:50:384,0,-5.68276,-2.42196,86.455
2023-03-11 17:48:50:394,0,-5.68699,-2.41785,86.4486
2023-03-11 17:48:50:404,0,-5.68864,-2.41905,86.4436
2023-03-11 17:48:50:414,0,-5.69059,-2.42422,86.4384
2023-03-11 17:48:50:424,0,-5.68723,-2.42386,86.4349
2023-03-11 17:48:50:434,0,-5.68372,-2.4248,86.4277
2023-03-11 17:48:50:444,0,-5.67445,-2.42744,86.4223
2023-03-11 17:48:50:454,0,-5.66642,-2.42745,86.4197
2023-03-11 17:48:50:464,0,-5.65619,-2.42718,86.4152
2023-03-11 17:48:50:474,0,-5.64185,-2.4296,86.4086
2023-03-11 17:48:50:484,0,-5.62848,-2.43339,86.4033
2023-03-11 17:48:50:494,0,-5.61704,-2.43865,86.4018
2023-03-11 17:48:50:504,0,-5.60763,-2.44857,86.4027
2023-03-11 17:48:50:514,0,-5.59746,-2.46173,86.406
2023-03-11 17:48:50:524,0,-5.58962,-2.47568,86.4082
2023-03-11 17:48:50:534,0,-5.58071,-2.49301,86.415
2023-03-11 17:48:50:544,0,-5.57006,-2.51015,86.4269
2023-03-11 17:48:50:554,0,-5.56091,-2.5274,86.4355
2023-03-11 17:48:50:564,0,-5.55236,-2.54695,86.4493
2023-03-11 17:48:50:574,0,-5.54791,-2.56481,86.466
2023-03-11 17:48:50:584,0,-5.53797,-2.5797,86.4853
2023-03-11 17:48:50:594,0,-5.53113,-2.59411,86.5021
2023-03-11 17:48:50:604,0,-5.52252,-2.60852,86.5186
2023-03-11 17:48:50:614,0,-5.51418,-2.62571,86.5347
2023-03-11 17:48:50:624,0,-5.509,-2.64269,86.5504
2023-03-11 17:48:50:634,0,-5.50123,-2.65493,86.564
2023-03-11 17:48:50:644,0,-5.49578,-2.66765,86.5755
2023-03-11 17:48:50:654,0,-5.49072,-2.67799,86.5862
2023-03-11 17:48:50:664,0,-5.48839,-2.68866,86.5969
2023-03-11 17:48:50:674,0,-5.48322,-2.70043,86.6047
2023-03-11 17:48:50:684,0,-5.47773,-2.70831,86.6104
2023-03-11 17:48:50:694,0,-5.473,-2.71246,86.6168
2023-03-11 17:48:50:704,0,-5.46799,-2.71856,86.6179
2023-03-11 17:48:50:714,0,-5.4632,-2.72138,86.6192
2023-03-11 17:48:50:724,0,-5.45914,-2.72557,86.6201
2023-03-11 17:48:50:734,0,-5.45905,-2.73205,86.6195
2023-03-11 17:48:50:744,0,-5.45934,-2.7368,86.6193
2023-03-11 17:48:50:754,0,-5.458,-2.74078,86.6232
2023-03-11 17:48:50:764,0,-5.45805,-2.74407,86.625
2023-03-11 17:48:50:774,0,-5.45326,-2.74824,86.6229
2023-03-11 17:48:50:784,0,-5.45055,-2.75003,86.617
2023-03-11 17:48:50:794,0,-5.44422,-2.74897,86.6113
2023-03-11 17:48:50:804,0,-5.43537,-2.74871,86.6032
2023-03-11 17:48:50:814,0,-5.42711,-2.74734,86.5971
2023-03-11 17:48:50:824,0,-5.41744,-2.74532,86.5928
2023-03-11 17:48:50:834,0,-5.41124,-2.74146,86.5873
2023-03-11 17:48:50:844,0,-5.40222,-2.74153,86.5827
2023-03-11 17:48:50:854,0,-5.39956,-2.74146,86.5739
2023-03-11 17:48:50:864,0,-5.39548,-2.74179,86.5697
2023-03-11 17:48:50:874,0,-5.38929,-2.74235,86.5649
2023-03-11 17:48:50:884,0,-5.383,-2.74522,86.5637
2023-03-11 17:48:50:894,0,-5.37755,-2.74482,86.5634
2023-03-11 17:48:50:904,0,-5.37293,-2.74392,86.5651
2023-03-11 17:48:50:914,0,-5.37136,-2.74627,86.571
2023-03-11 17:48:50:924,0,-5.37658,-2.74976,86.5771
2023-03-11 17:48:50:934,0,-5.3791,-2.75416,86.5851
2023-03-11 17:48:50:944,0,-5.39011,-2.75705,86.5957
2023-03-11 17:48:50:954,0,-5.40246,-2.76565,86.6057
2023-03-11 17:48:50:964,0,-5.41318,-2.77419,86.6186
2023-03-11 17:48:50:974,0,-5.41804,-2.78754,86.6323
2023-03-11 17:48:50:984,0,-5.42049,-2.80185,86.6473
2023-03-11 17:48:50:994,0,-5.42806,-2.81789,86.6655
2023-03-11 17:48:51:4,0,-5.43854,-2.83909,86.6836
2023-03-11 17:48:51:14,0,-5.44954,-2.85803,86.7065
2023-03-11 17:48:51:24,0,-5.46202,-2.87057,86.7276
2023-03-11 17:48:51:34,0,-5.47371,-2.88015,86.7507
2023-03-11 17:48:51:44,0,-5.48509,-2.88497,86.7708
2023-03-11 17:48:51:54,0,-5.4924,-2.88843,86.7904
2023-03-11 17:48:51:64,0,-5.49472,-2.89138,86.8056
2023-03-11 17:48:51:74,0,-5.49773,-2.89101,86.8113
2023-03-11 17:48:51:84,0,-5.49575,-2.88881,86.811
2023-03-11 17:48:51:94,0,-5.49325,-2.8882,86.8068
2023-03-11 17:48:51:104,0,-5.49137,-2.88062,86.796
2023-03-11 17:48:51:114,0,-5.49451,-2.8761,86.7818
2023-03-11 17:48:51:124,0,-5.49843,-2.86813,86.7626
2023-03-11 17:48:51:134,0,-5.50228,-2.85977,86.7421
2023-03-11 17:48:51:144,0,-5.50686,-2.84975,86.7217
2023-03-11 17:48:51:154,0,-5.51578,-2.84032,86.7054
2023-03-11 17:48:51:164,0,-5.52513,-2.83099,86.6892
2023-03-11 17:48:51:174,0,-5.53416,-2.82153,86.6812
2023-03-11 17:48:51:184,0,-5.5425,-2.80747,86.6753
2023-03-11 17:48:51:194,0,-5.54654,-2.79302,86.6698
2023-03-11 17:48:51:204,0,-5.54402,-2.78064,86.6657
2023-03-11 17:48:51:214,0,-5.54005,-2.77376,86.6662
2023-03-11 17:48:51:224,0,-5.5387,-2.77231,86.6663
2023-03-11 17:48:51:234,0,-5.53295,-2.76764,86.6697
2023-03-11 17:48:51:244,0,-5.52976,-2.76513,86.6719
2023-03-11 17:48:51:254,0,-5.52256,-2.76394,86.6715
2023-03-11 17:48:51:264,0,-5.51914,-2.76067,86.6707
2023-03-11 17:48:51:274,0,-5.51996,-2.76082,86.6711
2023-03-11 17:48:51:284,0,-5.51946,-2.76374,86.6682
2023-03-11 17:48:51:294,0,-5.51732,-2.76522,86.6686
2023-03-11 17:48:51:304,0,-5.51202,-2.77142,86.6695
2023-03-11 17:48:51:314,0,-5.50297,-2.77698,86.6703
2023-03-11 17:48:51:324,0,-5.4949,-2.77804,86.6725
2023-03-11 17:48:51:334,0,-5.48952,-2.78603,86.6755
2023-03-11 17:48:51:344,0,-5.48247,-2.7895,86.6779
2023-03-11 17:48:51:354,0,-5.47944,-2.79511,86.6796
2023-03-11 17:48:51:364,0,-5.47949,-2.80074,86.684
2023-03-11 17:48:51:374,0,-5.4781,-2.80725,86.6872
2023-03-11 17:48:51:384,0,-5.48444,-2.81397,86.6949
2023-03-11 17:48:51:394,0,-5.48779,-2.81767,86.6997
2023-03-11 17:48:51:404,0,-5.49097,-2.82098,86.7026
2023-03-11 17:48:51:414,0,-5.49402,-2.82163,86.7011
2023-03-11 17:48:51:424,0,-5.49493,-2.82019,86.7033
2023-03-11 17:48:51:434,0,-5.49806,-2.81815,86.7061
2023-03-11 17:48:51:444,0,-5.50072,-2.81179,86.7075
2023-03-11 17:48:51:454,0,-5.50396,-2.80682,86.7033
2023-03-11 17:48:51:464,0,-5.50609,-2.80106,86.6975
2023-03-11 17:48:51:474,0,-5.50677,-2.79715,86.6939
2023-03-11 17:48:51:484,0,-5.51009,-2.79321,86.6893
2023-03-11 17:48:51:494,0,-5.51913,-2.79405,86.6892
2023-03-11 17:48:51:504,0,-5.5283,-2.79816,86.6911
2023-03-11 17:48:51:514,0,-5.53894,-2.8015,86.6894
2023-03-11 17:48:51:524,0,-5.55585,-2.80582,86.6922
2023-03-11 17:48:51:534,0,-5.57247,-2.81389,86.7001
2023-03-11 17:48:51:544,0,-5.59,-2.82352,86.7073
2023-03-11 17:48:51:554,0,-5.60621,-2.83043,86.7144
2023-03-11 17:48:51:564,0,-5.62313,-2.83966,86.7244
2023-03-11 17:48:51:574,0,-5.63678,-2.85166,86.7343
2023-03-11 17:48:51:584,0,-5.64939,-2.86381,86.7436
2023-03-11 17:48:51:594,0,-5.66274,-2.88136,86.7524
2023-03-11 17:48:51:604,0,-5.67606,-2.89255,86.759
2023-03-11 17:48:51:614,0,-5.68976,-2.90466,86.7695
2023-03-11 17:48:51:624,0,-5.70494,-2.91787,86.7787
2023-03-11 17:48:51:634,0,-5.71297,-2.92914,86.7873
2023-03-11 17:48:51:644,0,-5.71737,-2.94282,86.7916
2023-03-11 17:48:51:654,0,-5.72218,-2.94935,86.7931
2023-03-11 17:48:51:664,0,-5.72299,-2.95391,86.7922
2023-03-11 17:48:51:674,0,-5.71796,-2.96375,86.7901
2023-03-11 17:48:51:684,0,-5.71228,-2.96887,86.7871
2023-03-11 17:48:51:694,0,-5.70996,-2.97323,86.7842
2023-03-11 17:48:51:704,0,-5.7089,-2.97597,86.7786
2023-03-11 17:48:51:714,0,-5.70619,-2.97645,86.7723
2023-03-11 17:48:51:724,0,-5.70275,-2.98259,86.7646
2023-03-11 17:48:51:734,0,-5.70235,-2.98117,86.7517
2023-03-11 17:48:51:744,0,-5.70349,-2.98146,86.738
2023-03-11 17:48:51:754,0,-5.70173,-2.98475,86.7246
2023-03-11 17:48:51:764,0,-5.70263,-2.98914,86.7078
2023-03-11 17:48:51:774,0,-5.70637,-2.99152,86.6932
2023-03-11 17:48:51:784,0,-5.71503,-2.99819,86.6863
2023-03-11 17:48:51:794,0,-5.72713,-2.99982,86.6776
2023-03-11 17:48:51:804,0,-5.73879,-3.00153,86.6748
2023-03-11 17:48:51:814,0,-5.74871,-2.99721,86.6761
2023-03-11 17:48:51:824,0,-5.75352,-2.99236,86.6786
2023-03-11 17:48:51:834,0,-5.75033,-2.98715,86.6833
2023-03-11 17:48:51:844,0,-5.74233,-2.98163,86.691
2023-03-11 17:48:51:854,0,-5.72653,-2.97618,86.6994
2023-03-11 17:48:51:864,0,-5.71679,-2.97121,86.7121
2023-03-11 17:48:51:874,0,-5.70043,-2.9653,86.7216
2023-03-11 17:48:51:884,0,-5.68559,-2.96469,86.7322
2023-03-11 17:48:51:894,0,-5.67607,-2.9693,86.74
2023-03-11 17:48:51:904,0,-5.67188,-2.97485,86.7483
2023-03-11 17:48:51:914,0,-5.6771,-2.98125,86.7483
2023-03-11 17:48:51:924,0,-5.67846,-2.98506,86.7446
2023-03-11 17:48:51:934,0,-5.67621,-2.98786,86.7372
2023-03-11 17:48:51:944,0,-5.66526,-2.99057,86.7266
2023-03-11 17:48:51:954,0,-5.6556,-2.99141,86.7136
2023-03-11 17:48:51:964,0,-5.64976,-2.99379,86.6994
2023-03-11 17:48:51:974,0,-5.64247,-2.9987,86.6873
2023-03-11 17:48:51:984,0,-5.63201,-3.00362,86.6789
2023-03-11 17:48:51:994,0,-5.62364,-3.01316,86.6729
2023-03-11 17:48:52:4,0,-5.61962,-3.02109,86.6639
2023-03-11 17:48:52:14,0,-5.61702,-3.02556,86.6612
2023-03-11 17:48:52:24,0,-5.61741,-3.02676,86.6592
2023-03-11 17:48:52:34,0,-5.62053,-3.02455,86.6588
2023-03-11 17:48:52:44,0,-5.61946,-3.02146,86.6566
2023-03-11 17:48:52:54,0,-5.6106,-3.01855,86.6586
2023-03-11 17:48:52:64,0,-5.59836,-3.01745,86.6595
2023-03-11 17:48:52:74,0,-5.58393,-3.01909,86.6629
2023-03-11 17:48:52:84,0,-5.5706,-3.01808,86.6665
2023-03-11 17:48:52:94,0,-5.56002,-3.01893,86.6716
2023-03-11 17:48:52:104,0,-5.55472,-3.02124,86.6728
2023-03-11 17:48:52:114,0,-5.5461,-3.01777,86.6725
2023-03-11 17:48:52:124,0,-5.53941,-3.01538,86.6725
2023-03-11 17:48:52:134,0,-5.54082,-3.01375,86.6733
2023-03-11 17:48:52:144,0,-5.5425,-3.00831,86.67
2023-03-11 17:48:52:154,0,-5.54142,-3.00631,86.6683
2023-03-11 17:48:52:164,0,-5.54399,-3.00767,86.6669
2023-03-11 17:48:52:174,0,-5.54668,-3.00855,86.6663
2023-03-11 17:48:52:184,0,-5.54926,-3.00977,86.6661
2023-03-11 17:48:52:194,0,-5.55177,-3.01551,86.6694
2023-03-11 17:48:52:204,0,-5.55008,-3.01879,86.6693
2023-03-11 17:48:52:214,0,-5.55033,-3.02156,86.6709
2023-03-11 17:48:52:224,0,-5.54817,-3.0244,86.6735
2023-03-11 17:48:52:234,0,-5.54915,-3.02684,86.6776
2023-03-11 17:48:52:244,0,-5.54774,-3.03113,86.6819
2023-03-11 17:48:52:254,0,-5.54941,-3.03772,86.6813
2023-03-11 17:48:52:264,0,-5.55288,-3.04491,86.6849
2023-03-11 17:48:52:274,0,-5.55511,-3.05024,86.6867
2023-03-11 17:48:52:284,0,-5.55892,-3.06194,86.6921
2023-03-11 17:48:52:294,0,-5.5592,-3.07273,86.6935
2023-03-11 17:48:52:304,0,-5.56384,-3.07951,86.6968
2023-03-11 17:48:52:314,0,-5.56997,-3.08585,86.7032
2023-03-11 17:48:52:324,0,-5.57692,-3.0909,86.7069
2023-03-11 17:48:52:334,0,-5.58007,-3.09697,86.7096
2023-03-11 17:48:52:344,0,-5.582,-3.1049,86.7175
2023-03-11 17:48:52:354,0,-5.58706,-3.11005,86.726
2023-03-11 17:48:52:364,0,-5.59455,-3.11784,86.7347
2023-03-11 17:48:52:374,0,-5.60059,-3.11937,86.7433
2023-03-11 17:48:52:384,0,-5.60503,-3.1244,86.7503
2023-03-11 17:48:52:394,0,-5.61182,-3.12929,86.761
2023-03-11 17:48:52:404,0,-5.62006,-3.13032,86.7661
2023-03-11 17:48:52:414,0,-5.6293,-3.12961,86.7688
2023-03-11 17:48:52:424,0,-5.63739,-3.12905,86.7706
2023-03-11 17:48:52:434,0,-5.6488,-3.12424,86.7729
2023-03-11 17:48:52:444,0,-5.6497,-3.12091,86.7708
2023-03-11 17:48:52:454,0,-5.65046,-3.11296,86.7701
2023-03-11 17:48:52:464,0,-5.64547,-3.10525,86.7606
2023-03-11 17:48:52:474,0,-5.64051,-3.09586,86.7545
2023-03-11 17:48:52:483,0,-5.63753,-3.08785,86.7433
2023-03-11 17:48:52:494,0,-5.63499,-3.07733,86.7359
2023-03-11 17:48:52:504,0,-5.63643,-3.06813,86.7276
2023-03-11 17:48:52:513,0,-5.63945,-3.05595,86.7191
2023-03-11 17:48:52:524,0,-5.64144,-3.0488,86.7102
2023-03-11 17:48:52:534,0,-5.63876,-3.0468,86.699
2023-03-11 17:48:52:544,0,-5.63695,-3.05083,86.6917
2023-03-11 17:48:52:554,0,-5.63701,-3.05482,86.6901
2023-03-11 17:48:52:564,0,-5.642,-3.06464,86.6903
2023-03-11 17:48:52:574,0,-5.64895,-3.07565,86.6961
2023-03-11 17:48:52:584,0,-5.65451,-3.08284,86.7041
2023-03-11 17:48:52:594,0,-5.66065,-3.09166,86.7104
2023-03-11 17:48:52:604,0,-5.67114,-3.09899,86.7212
2023-03-11 17:48:52:614,0,-5.68181,-3.10557,86.7353
2023-03-11 17:48:52:624,0,-5.69269,-3.11099,86.75
2023-03-11 17:48:52:634,0,-5.70413,-3.11721,86.7633
2023-03-11 17:48:52:643,0,-5.71355,-3.12188,86.7761
2023-03-11 17:48:52:653,0,-5.72415,-3.12612,86.7842
2023-03-11 17:48:52:663,0,-5.73516,-3.12957,86.7915
2023-03-11 17:48:52:674,0,-5.74567,-3.13394,86.7973
2023-03-11 17:48:52:683,0,-5.75684,-3.13888,86.8007
2023-03-11 17:48:52:693,0,-5.76298,-3.14283,86.8001
2023-03-11 17:48:52:703,0,-5.76894,-3.14197,86.799
2023-03-11 17:48:52:714,0,-5.76839,-3.13806,86.7963
2023-03-11 17:48:52:724,0,-5.76955,-3.13664,86.7911
2023-03-11 17:48:52:733,0,-5.77213,-3.12628,86.7907
2023-03-11 17:48:52:743,0,-5.77584,-3.11378,86.7897
2023-03-11 17:48:52:754,0,-5.77583,-3.10128,86.784
2023-03-11 17:48:52:764,0,-5.77163,-3.09489,86.782
2023-03-11 17:48:52:773,0,-5.7709,-3.08965,86.7803
2023-03-11 17:48:52:783,0,-5.76891,-3.07961,86.7818
2023-03-11 17:48:52:793,0,-5.76762,-3.07053,86.7782
2023-03-11 17:48:52:803,0,-5.75902,-3.0598,86.7752
2023-03-11 17:48:52:813,0,-5.75372,-3.04398,86.77
2023-03-11 17:48:52:824,0,-5.7458,-3.03149,86.7625
2023-03-11 17:48:52:834,0,-5.74024,-3.02038,86.7587
2023-03-11 17:48:52:844,0,-5.73241,-3.01531,86.7548
2023-03-11 17:48:52:854,0,-5.72242,-3.01134,86.7497
2023-03-11 17:48:52:864,0,-5.71533,-3.00732,86.7448
2023-03-11 17:48:52:873,0,-5.70954,-3.0092,86.742
2023-03-11 17:48:52:884,0,-5.7055,-3.01175,86.7399
2023-03-11 17:48:52:894,0,-5.69766,-3.0153,86.7374
2023-03-11 17:48:52:904,0,-5.67821,-3.02749,86.7408
2023-03-11 17:48:52:914,0,-5.64571,-3.04221,86.7492
2023-03-11 17:48:52:924,0,-5.60564,-3.05986,86.7627
2023-03-11 17:48:52:934,0,-5.56508,-3.08108,86.781
2023-03-11 17:48:52:944,0,-5.5344,-3.10972,86.808
2023-03-11 17:48:52:954,0,-5.51532,-3.14123,86.8365
2023-03-11 17:48:52:964,0,-5.50463,-3.17622,86.8672
2023-03-11 17:48:52:974,0,-5.50061,-3.21142,86.8985
2023-03-11 17:48:52:984,0,-5.50239,-3.24436,86.9287
2023-03-11 17:48:52:994,0,-5.50467,-3.27576,86.9506
2023-03-11 17:48:53:4,0,-5.50328,-3.308,86.9705
2023-03-11 17:48:53:14,0,-5.50274,-3.33694,86.9871
2023-03-11 17:48:53:24,0,-5.49487,-3.36314,86.998
2023-03-11 17:48:53:34,0,-5.48515,-3.38379,87.001
2023-03-11 17:48:53:44,0,-5.47635,-3.39279,87.0019
2023-03-11 17:48:53:54,0,-5.47272,-3.39826,87.0014
2023-03-11 17:48:53:64,0,-5.47587,-3.39387,87.0005
2023-03-11 17:48:53:74,0,-5.48916,-3.39087,87.0025
2023-03-11 17:48:53:84,0,-5.50837,-3.38314,87.0131
2023-03-11 17:48:53:94,0,-5.53049,-3.37517,87.0254
2023-03-11 17:48:53:104,0,-5.54721,-3.36797,87.0442
2023-03-11 17:48:53:114,0,-5.55815,-3.3568,87.0605
2023-03-11 17:48:53:124,0,-5.56155,-3.34738,87.0775
2023-03-11 17:48:53:134,0,-5.55593,-3.32844,87.0918
2023-03-11 17:48:53:144,0,-5.54126,-3.31222,87.1033
2023-03-11 17:48:53:154,0,-5.52507,-3.29393,87.1167
2023-03-11 17:48:53:164,0,-5.51582,-3.28012,87.1365
2023-03-11 17:48:53:174,0,-5.51894,-3.2726,87.163
2023-03-11 17:48:53:184,0,-5.52873,-3.2689,87.1955
2023-03-11 17:48:53:194,0,-5.54742,-3.26903,87.2351
2023-03-11 17:48:53:204,0,-5.56311,-3.26997,87.279
2023-03-11 17:48:53:214,0,-5.57253,-3.26756,87.3222
2023-03-11 17:48:53:224,0,-5.5778,-3.25858,87.3567
2023-03-11 17:48:53:234,0,-5.57434,-3.25051,87.3857
2023-03-11 17:48:53:244,0,-5.56698,-3.24544,87.4109
2023-03-11 17:48:53:254,0,-5.56089,-3.2433,87.4362
2023-03-11 17:48:53:264,0,-5.55659,-3.2523,87.4672
2023-03-11 17:48:53:274,0,-5.55899,-3.26886,87.4989
2023-03-11 17:48:53:284,0,-5.56738,-3.2923,87.5306
2023-03-11 17:48:53:294,0,-5.57817,-3.31927,87.558
2023-03-11 17:48:53:304,0,-5.58858,-3.34902,87.5864
2023-03-11 17:48:53:314,0,-5.59023,-3.37702,87.6021
2023-03-11 17:48:53:324,0,-5.58391,-3.40838,87.6043
2023-03-11 17:48:53:334,0,-5.56958,-3.43733,87.5875
2023-03-11 17:48:53:344,0,-5.54582,-3.47023,87.5498
2023-03-11 17:48:53:354,0,-5.52285,-3.50851,87.497
2023-03-11 17:48:53:364,0,-5.51024,-3.55461,87.4321
2023-03-11 17:48:53:374,0,-5.50849,-3.60933,87.3605
2023-03-11 17:48:53:384,0,-5.51427,-3.67352,87.2875
2023-03-11 17:48:53:394,0,-5.52471,-3.73976,87.209
2023-03-11 17:48:53:404,0,-5.5409,-3.80853,87.1359
2023-03-11 17:48:53:414,0,-5.55782,-3.87486,87.0711
2023-03-11 17:48:53:424,0,-5.56571,-3.94161,87.0152
2023-03-11 17:48:53:434,0,-5.57019,-4.00834,86.9688
2023-03-11 17:48:53:444,0,-5.5713,-4.06776,86.9336
2023-03-11 17:48:53:454,0,-5.5679,-4.11823,86.9084
2023-03-11 17:48:53:464,0,-5.55855,-4.1593,86.893
2023-03-11 17:48:53:474,0,-5.5499,-4.19683,86.8936
2023-03-11 17:48:53:484,0,-5.53467,-4.22888,86.9056
2023-03-11 17:48:53:494,0,-5.52688,-4.25112,86.9339
2023-03-11 17:48:53:504,0,-5.51829,-4.26744,86.9747
2023-03-11 17:48:53:514,0,-5.52109,-4.27626,87.0249
2023-03-11 17:48:53:524,0,-5.53132,-4.28664,87.0816
2023-03-11 17:48:53:534,0,-5.54797,-4.29371,87.1435
2023-03-11 17:48:53:544,0,-5.56803,-4.30419,87.2092
2023-03-11 17:48:53:554,0,-5.58884,-4.31702,87.2705
2023-03-11 17:48:53:564,0,-5.60951,-4.3317,87.325
2023-03-11 17:48:53:574,0,-5.63556,-4.34585,87.3706
2023-03-11 17:48:53:584,0,-5.65944,-4.36144,87.4053
2023-03-11 17:48:53:594,0,-5.68375,-4.37871,87.4374
2023-03-11 17:48:53:604,0,-5.70703,-4.40512,87.4575
2023-03-11 17:48:53:614,0,-5.7298,-4.43253,87.4712
2023-03-11 17:48:53:624,0,-5.75963,-4.46431,87.4792
2023-03-11 17:48:53:634,0,-5.78583,-4.49596,87.4851
2023-03-11 17:48:53:644,0,-5.82173,-4.52573,87.4953
2023-03-11 17:48:53:654,0,-5.8589,-4.55349,87.5088
2023-03-11 17:48:53:664,0,-5.89697,-4.57549,87.5234
2023-03-11 17:48:53:674,0,-5.93876,-4.59087,87.5369
2023-03-11 17:48:53:684,0,-5.98297,-4.601,87.5542
2023-03-11 17:48:53:694,0,-6.03451,-4.60948,87.5793
2023-03-11 17:48:53:704,0,-6.09071,-4.61029,87.617
2023-03-11 17:48:53:714,0,-6.15332,-4.61245,87.6533
2023-03-11 17:48:53:724,0,-6.22454,-4.61314,87.6992
2023-03-11 17:48:53:734,0,-6.29923,-4.61065,87.7459
2023-03-11 17:48:53:744,0,-6.37153,-4.60111,87.7895
2023-03-11 17:48:53:754,0,-6.43718,-4.59165,87.8308
2023-03-11 17:48:53:764,0,-6.4979,-4.58007,87.8706
2023-03-11 17:48:53:774,0,-6.54792,-4.5702,87.8999
2023-03-11 17:48:53:784,0,-6.59187,-4.56022,87.9275
2023-03-11 17:48:53:794,0,-6.63263,-4.55595,87.9491
2023-03-11 17:48:53:804,0,-6.66494,-4.5529,87.9601
2023-03-11 17:48:53:814,0,-6.69552,-4.55379,87.9622
2023-03-11 17:48:53:824,0,-6.7263,-4.55733,87.958
2023-03-11 17:48:53:834,0,-6.75401,-4.56417,87.9501
2023-03-11 17:48:53:844,0,-6.77727,-4.56902,87.9321
2023-03-11 17:48:53:854,0,-6.8023,-4.574,87.908
2023-03-11 17:48:53:864,0,-6.82513,-4.5799,87.8756
2023-03-11 17:48:53:874,0,-6.8458,-4.5869,87.8382
2023-03-11 17:48:53:884,0,-6.8631,-4.58846,87.7928
2023-03-11 17:48:53:894,0,-6.88188,-4.58866,87.7462
2023-03-11 17:48:53:904,0,-6.90715,-4.59564,87.7012
2023-03-11 17:48:53:914,0,-6.94696,-4.59772,87.6657
2023-03-11 17:48:53:924,0,-6.99312,-4.60513,87.6345
2023-03-11 17:48:53:934,0,-7.04276,-4.61129,87.6092
2023-03-11 17:48:53:944,0,-7.08848,-4.61994,87.5902
2023-03-11 17:48:53:954,0,-7.13732,-4.6303,87.5773
2023-03-11 17:48:53:964,0,-7.17942,-4.64119,87.5771
2023-03-11 17:48:53:974,0,-7.21882,-4.65541,87.5854
2023-03-11 17:48:53:984,0,-7.25721,-4.67112,87.6007
2023-03-11 17:48:53:994,0,-7.29255,-4.6804,87.6236
2023-03-11 17:48:54:4,0,-7.32537,-4.70044,87.6505
2023-03-11 17:48:54:14,0,-7.36011,-4.7198,87.685
2023-03-11 17:48:54:24,0,-7.39897,-4.74622,87.7283
2023-03-11 17:48:54:34,0,-7.44039,-4.7776,87.7768
2023-03-11 17:48:54:44,0,-7.46671,-4.80981,87.8254
2023-03-11 17:48:54:54,0,-7.47662,-4.83932,87.8685
2023-03-11 17:48:54:64,0,-7.474,-4.86367,87.907
2023-03-11 17:48:54:74,0,-7.46215,-4.87918,87.9353
2023-03-11 17:48:54:84,0,-7.44666,-4.89429,87.954
2023-03-11 17:48:54:94,0,-7.43117,-4.90668,87.9628
2023-03-11 17:48:54:104,0,-7.41679,-4.91275,87.9638
2023-03-11 17:48:54:114,0,-7.39707,-4.9155,87.9481
2023-03-11 17:48:54:124,0,-7.37756,-4.92134,87.9249
2023-03-11 17:48:54:134,0,-7.35465,-4.92308,87.8895
2023-03-11 17:48:54:144,0,-7.32643,-4.91906,87.8439
2023-03-11 17:48:54:154,0,-7.29549,-4.91073,87.7882
2023-03-11 17:48:54:164,0,-7.25781,-4.89373,87.7261
2023-03-11 17:48:54:174,0,-7.21696,-4.86722,87.6588
2023-03-11 17:48:54:184,0,-7.17668,-4.83794,87.5894
2023-03-11 17:48:54:194,0,-7.14306,-4.80218,87.5284
2023-03-11 17:48:54:204,0,-7.11697,-4.75846,87.4731
2023-03-11 17:48:54:214,0,-7.10188,-4.7145,87.4244
2023-03-11 17:48:54:224,0,-7.09378,-4.67636,87.3828
2023-03-11 17:48:54:234,0,-7.08534,-4.63975,87.3512
2023-03-11 17:48:54:244,0,-7.08837,-4.60763,87.3285
2023-03-11 17:48:54:254,0,-7.09551,-4.57964,87.3109
2023-03-11 17:48:54:264,0,-7.09751,-4.56015,87.2953
2023-03-11 17:48:54:274,0,-7.09087,-4.55234,87.2804
2023-03-11 17:48:54:284,0,-7.07286,-4.55637,87.2714
2023-03-11 17:48:54:294,0,-7.05513,-4.57663,87.2684
2023-03-11 17:48:54:304,0,-7.03694,-4.60857,87.2716
2023-03-11 17:48:54:314,0,-7.02377,-4.65144,87.2849
2023-03-11 17:48:54:324,0,-7.01928,-4.69771,87.2987
2023-03-11 17:48:54:334,0,-7.02259,-4.74447,87.3189
2023-03-11 17:48:54:344,0,-7.02703,-4.78515,87.3363
2023-03-11 17:48:54:354,0,-7.03568,-4.82001,87.3539
2023-03-11 17:48:54:364,0,-7.03854,-4.85136,87.3626
2023-03-11 17:48:54:374,0,-7.03121,-4.8791,87.3663
2023-03-11 17:48:54:384,0,-7.019,-4.90123,87.3653
2023-03-11 17:48:54:394,0,-6.99887,-4.92035,87.3565
2023-03-11 17:48:54:404,0,-6.97161,-4.9326,87.3416
2023-03-11 17:48:54:414,0,-6.94332,-4.94583,87.3159
2023-03-11 17:48:54:424,0,-6.90976,-4.9534,87.2839
2023-03-11 17:48:54:434,0,-6.87647,-4.96152,87.2461
2023-03-11 17:48:54:444,0,-6.84408,-4.964,87.2076
2023-03-11 17:48:54:454,0,-6.81332,-4.96216,87.1683
2023-03-11 17:48:54:464,0,-6.78979,-4.96291,87.1316
2023-03-11 17:48:54:474,0,-6.76914,-4.96285,87.1045
2023-03-11 17:48:54:484,0,-6.75351,-4.96417,87.0785
2023-03-11 17:48:54:494,0,-6.74131,-4.96643,87.0642
2023-03-11 17:48:54:504,0,-6.73235,-4.97102,87.0516
2023-03-11 17:48:54:514,0,-6.71873,-4.97773,87.0452
2023-03-11 17:48:54:524,0,-6.70608,-4.98327,87.0451
2023-03-11 17:48:54:534,0,-6.68939,-4.98985,87.0472
2023-03-11 17:48:54:544,0,-6.67134,-5.00211,87.0526
2023-03-11 17:48:54:554,0,-6.65694,-5.01124,87.0649
2023-03-11 17:48:54:564,0,-6.64261,-5.02568,87.0743
2023-03-11 17:48:54:574,0,-6.63185,-5.03481,87.0866
2023-03-11 17:48:54:584,0,-6.62465,-5.04177,87.1004
2023-03-11 17:48:54:594,0,-6.62109,-5.0501,87.1172
2023-03-11 17:48:54:604,0,-6.62063,-5.05764,87.1308
2023-03-11 17:48:54:614,0,-6.62304,-5.06498,87.1416
2023-03-11 17:48:54:624,0,-6.62903,-5.07777,87.1567
2023-03-11 17:48:54:634,0,-6.63634,-5.08737,87.1756
2023-03-11 17:48:54:644,0,-6.64093,-5.09291,87.1943
2023-03-11 17:48:54:654,0,-6.64344,-5.0978,87.2131
2023-03-11 17:48:54:664,0,-6.64446,-5.1028,87.2323
2023-03-11 17:48:54:674,0,-6.64298,-5.10537,87.2493
2023-03-11 17:48:54:684,0,-6.63939,-5.11012,87.269
2023-03-11 17:48:54:694,0,-6.63878,-5.10723,87.2889
2023-03-11 17:48:54:704,0,-6.63723,-5.10282,87.3085
2023-03-11 17:48:54:714,0,-6.63629,-5.09541,87.3275
2023-03-11 17:48:54:724,0,-6.6398,-5.0884,87.3442
2023-03-11 17:48:54:734,0,-6.64955,-5.08314,87.3597
2023-03-11 17:48:54:744,0,-6.65373,-5.07816,87.3771
2023-03-11 17:48:54:754,0,-6.65429,-5.07343,87.3934
2023-03-11 17:48:54:764,0,-6.64934,-5.07379,87.4014
2023-03-11 17:48:54:774,0,-6.64063,-5.07886,87.4114
2023-03-11 17:48:54:784,0,-6.62986,-5.08348,87.4211
2023-03-11 17:48:54:794,0,-6.61625,-5.08695,87.4296
2023-03-11 17:48:54:804,0,-6.60937,-5.08774,87.4336
2023-03-11 17:48:54:814,0,-6.60315,-5.08339,87.4365
2023-03-11 17:48:54:824,0,-6.60528,-5.07294,87.4368
2023-03-11 17:48:54:834,0,-6.60589,-5.0588,87.4378
2023-03-11 17:48:54:844,0,-6.6046,-5.04054,87.4309
2023-03-11 17:48:54:854,0,-6.60454,-5.01749,87.4213
2023-03-11 17:48:54:864,0,-6.60117,-4.99773,87.4119
2023-03-11 17:48:54:874,0,-6.59375,-4.97138,87.398
2023-03-11 17:48:54:884,0,-6.58251,-4.94261,87.3775
2023-03-11 17:48:54:894,0,-6.56627,-4.91171,87.3547
2023-03-11 17:48:54:904,0,-6.54908,-4.88125,87.3284
2023-03-11 17:48:54:914,0,-6.53029,-4.84627,87.3007
2023-03-11 17:48:54:924,0,-6.52069,-4.80846,87.2687
2023-03-11 17:48:54:934,0,-6.51409,-4.76942,87.2361
2023-03-11 17:48:54:944,0,-6.51247,-4.73247,87.2049
2023-03-11 17:48:54:954,0,-6.51251,-4.69785,87.1761
2023-03-11 17:48:54:964,0,-6.51337,-4.66583,87.1519
2023-03-11 17:48:54:974,0,-6.5174,-4.63209,87.1291
2023-03-11 17:48:54:984,0,-6.52112,-4.59862,87.1105
2023-03-11 17:48:54:994,0,-6.51517,-4.56932,87.0908
2023-03-11 17:48:55:4,0,-6.50535,-4.54583,87.0753
2023-03-11 17:48:55:14,0,-6.4941,-4.52749,87.0585
2023-03-11 17:48:55:24,0,-6.4767,-4.51329,87.0456
2023-03-11 17:48:55:34,0,-6.4642,-4.50239,87.0338
2023-03-11 17:48:55:44,0,-6.45984,-4.49545,87.0259
2023-03-11 17:48:55:54,0,-6.45452,-4.48925,87.0181
2023-03-11 17:48:55:64,0,-6.4516,-4.49252,87.0145
2023-03-11 17:48:55:74,0,-6.44767,-4.50102,87.0152
2023-03-11 17:48:55:84,0,-6.4436,-4.51575,87.0219
2023-03-11 17:48:55:94,0,-6.43794,-4.5286,87.0318
2023-03-11 17:48:55:104,0,-6.43036,-4.54296,87.0464
2023-03-11 17:48:55:114,0,-6.422,-4.55656,87.0616
2023-03-11 17:48:55:124,0,-6.40824,-4.57161,87.0839
2023-03-11 17:48:55:134,0,-6.39488,-4.58476,87.1029
2023-03-11 17:48:55:144,0,-6.3825,-4.59774,87.124
2023-03-11 17:48:55:154,0,-6.37302,-4.60959,87.1444
2023-03-11 17:48:55:164,0,-6.36534,-4.62474,87.1613
2023-03-11 17:48:55:174,0,-6.35861,-4.63276,87.1737
2023-03-11 17:48:55:184,0,-6.35039,-4.63996,87.1871
2023-03-11 17:48:55:194,0,-6.34243,-4.64604,87.1943
2023-03-11 17:48:55:204,0,-6.33446,-4.64734,87.1992
2023-03-11 17:48:55:214,0,-6.31882,-4.64649,87.2017
2023-03-11 17:48:55:224,0,-6.30579,-4.6435,87.2016
2023-03-11 17:48:55:234,0,-6.29088,-4.64372,87.2015
2023-03-11 17:48:55:244,0,-6.27971,-4.63672,87.2041
2023-03-11 17:48:55:254,0,-6.26988,-4.62868,87.201
2023-03-11 17:48:55:264,0,-6.26431,-4.61652,87.1986
2023-03-11 17:48:55:274,0,-6.26264,-4.60911,87.1976
2023-03-11 17:48:55:284,0,-6.25493,-4.5957,87.192
2023-03-11 17:48:55:294,0,-6.25218,-4.58401,87.1827
2023-03-11 17:48:55:304,0,-6.25102,-4.57291,87.1741
2023-03-11 17:48:55:314,0,-6.24828,-4.55868,87.1673
2023-03-11 17:48:55:324,0,-6.24391,-4.54918,87.1594
2023-03-11 17:48:55:334,0,-6.24202,-4.54351,87.1535
2023-03-11 17:48:55:344,0,-6.23865,-4.53584,87.1524
2023-03-11 17:48:55:354,0,-6.23465,-4.53177,87.151
2023-03-11 17:48:55:364,0,-6.23016,-4.52735,87.1546
2023-03-11 17:48:55:374,0,-6.23046,-4.5188,87.1584
2023-03-11 17:48:55:384,0,-6.22695,-4.50707,87.1657
2023-03-11 17:48:55:394,0,-6.22325,-4.50036,87.1708
2023-03-11 17:48:55:404,0,-6.21506,-4.49164,87.1758
2023-03-11 17:48:55:414,0,-6.20177,-4.48332,87.1785
2023-03-11 17:48:55:424,0,-6.18846,-4.47489,87.1789
2023-03-11 17:48:55:434,0,-6.17664,-4.47007,87.18
2023-03-11 17:48:55:444,0,-6.1634,-4.4633,87.178
2023-03-11 17:48:55:454,0,-6.15264,-4.4596,87.1745
2023-03-11 17:48:55:464,0,-6.14306,-4.45286,87.173
2023-03-11 17:48:55:474,0,-6.13408,-4.44903,87.1729
2023-03-11 17:48:55:484,0,-6.11797,-4.44683,87.1692
2023-03-11 17:48:55:494,0,-6.0983,-4.4507,87.1676
2023-03-11 17:48:55:504,0,-6.07919,-4.45342,87.1654
2023-03-11 17:48:55:514,0,-6.06065,-4.45834,87.1646
2023-03-11 17:48:55:524,0,-6.04492,-4.46181,87.1609
2023-03-11 17:48:55:534,0,-6.03377,-4.46515,87.1558
2023-03-11 17:48:55:544,0,-6.03139,-4.47089,87.1524
2023-03-11 17:48:55:554,0,-6.0254,-4.47401,87.1487
2023-03-11 17:48:55:564,0,-6.01961,-4.47658,87.1463
2023-03-11 17:48:55:574,0,-6.0164,-4.47909,87.1487
2023-03-11 17:48:55:584,0,-6.01117,-4.47785,87.1516
2023-03-11 17:48:55:594,0,-6.00673,-4.47684,87.1535
2023-03-11 17:48:55:604,0,-6.00368,-4.47663,87.1574
2023-03-11 17:48:55:614,0,-6.00329,-4.47425,87.1646
2023-03-11 17:48:55:624,0,-6.00759,-4.47462,87.1697
2023-03-11 17:48:55:634,0,-6.01441,-4.47185,87.1749
2023-03-11 17:48:55:644,0,-6.02587,-4.47027,87.1808
2023-03-11 17:48:55:654,0,-6.03379,-4.4676,87.1844
2023-03-11 17:48:55:664,0,-6.0405,-4.46747,87.1844
2023-03-11 17:48:55:674,0,-6.04894,-4.46759,87.181
2023-03-11 17:48:55:684,0,-6.05556,-4.46581,87.1777
2023-03-11 17:48:55:694,0,-6.05906,-4.46037,87.1705
2023-03-11 17:48:55:704,0,-6.05991,-4.45661,87.1593
2023-03-11 17:48:55:714,0,-6.0592,-4.45646,87.1462
2023-03-11 17:48:55:724,0,-6.05501,-4.45629,87.1338
2023-03-11 17:48:55:734,0,-6.05252,-4.4543,87.1249
2023-03-11 17:48:55:744,0,-6.04811,-4.45086,87.1157
2023-03-11 17:48:55:754,0,-6.04767,-4.44471,87.1049
2023-03-11 17:48:55:764,0,-6.04914,-4.43806,87.1009
2023-03-11 17:48:55:774,0,-6.0508,-4.43219,87.0957
2023-03-11 17:48:55:784,0,-6.05041,-4.42696,87.0934
2023-03-11 17:48:55:794,0,-6.0505,-4.42579,87.0952
2023-03-11 17:48:55:804,0,-6.04624,-4.42721,87.0977
2023-03-11 17:48:55:814,0,-6.04414,-4.42971,87.1003
2023-03-11 17:48:55:824,0,-6.03572,-4.43258,87.1053
2023-03-11 17:48:55:834,0,-6.02747,-4.43928,87.1134
2023-03-11 17:48:55:844,0,-6.0184,-4.446,87.1172
2023-03-11 17:48:55:854,0,-6.01321,-4.45194,87.124
2023-03-11 17:48:55:864,0,-6.00692,-4.45981,87.1316
2023-03-11 17:48:55:874,0,-6.00315,-4.46655,87.1438
2023-03-11 17:48:55:884,0,-6.00356,-4.47438,87.1522
2023-03-11 17:48:55:894,0,-6.00602,-4.48664,87.1636
2023-03-11 17:48:55:904,0,-6.01244,-4.49579,87.172
2023-03-11 17:48:55:914,0,-6.02292,-4.50614,87.181
2023-03-11 17:48:55:924,0,-6.02514,-4.51544,87.1916
2023-03-11 17:48:55:934,0,-6.023,-4.525,87.2061
2023-03-11 17:48:55:944,0,-6.01948,-4.53375,87.2185
2023-03-11 17:48:55:954,0,-6.01334,-4.53948,87.2328
2023-03-11 17:48:55:964,0,-6.00295,-4.54587,87.2427
2023-03-11 17:48:55:974,0,-5.99443,-4.55421,87.2497
2023-03-11 17:48:55:984,0,-5.99196,-4.55758,87.2545
2023-03-11 17:48:55:994,0,-5.99343,-4.55934,87.2565
2023-03-11 17:48:56:4,0,-6.00261,-4.56147,87.259
2023-03-11 17:48:56:14,0,-6.01636,-4.55933,87.2557
2023-03-11 17:48:56:24,0,-6.03724,-4.55966,87.2535
2023-03-11 17:48:56:34,0,-6.05579,-4.56072,87.2478
2023-03-11 17:48:56:44,0,-6.06764,-4.5557,87.2396
2023-03-11 17:48:56:54,0,-6.08379,-4.55319,87.2304
2023-03-11 17:48:56:64,0,-6.09593,-4.55435,87.2241
2023-03-11 17:48:56:74,0,-6.10542,-4.55596,87.2148
2023-03-11 17:48:56:84,0,-6.11921,-4.55756,87.2031
2023-03-11 17:48:56:94,0,-6.13216,-4.56276,87.1932
2023-03-11 17:48:56:104,0,-6.15024,-4.56283,87.1849
2023-03-11 17:48:56:114,0,-6.17147,-4.5627,87.177
2023-03-11 17:48:56:124,0,-6.18828,-4.5634,87.1715
2023-03-11 17:48:56:134,0,-6.20631,-4.56197,87.1696
2023-03-11 17:48:56:144,0,-6.22336,-4.56097,87.1681
2023-03-11 17:48:56:154,0,-6.23721,-4.55838,87.1684
2023-03-11 17:48:56:164,0,-6.25,-4.55411,87.1714
2023-03-11 17:48:56:174,0,-6.25967,-4.55245,87.1766
2023-03-11 17:48:56:184,0,-6.27456,-4.54694,87.1802
2023-03-11 17:48:56:194,0,-6.28333,-4.54387,87.1864
2023-03-11 17:48:56:204,0,-6.28961,-4.54128,87.1939
2023-03-11 17:48:56:214,0,-6.29426,-4.54182,87.2002
2023-03-11 17:48:56:224,0,-6.29645,-4.54275,87.2086
2023-03-11 17:48:56:234,0,-6.29947,-4.54699,87.2164
2023-03-11 17:48:56:244,0,-6.30848,-4.54769,87.2228
2023-03-11 17:48:56:254,0,-6.31697,-4.55419,87.2322
2023-03-11 17:48:56:264,0,-6.32956,-4.55696,87.2426
2023-03-11 17:48:56:274,0,-6.34113,-4.56162,87.2529
2023-03-11 17:48:56:284,0,-6.35073,-4.56652,87.2614
2023-03-11 17:48:56:294,0,-6.35662,-4.5719,87.2738
2023-03-11 17:48:56:304,0,-6.35821,-4.576,87.2839
2023-03-11 17:48:56:314,0,-6.35725,-4.57909,87.2976
2023-03-11 17:48:56:324,0,-6.35454,-4.58312,87.3072
2023-03-11 17:48:56:334,0,-6.35198,-4.58624,87.3178
2023-03-11 17:48:56:344,0,-6.34663,-4.59311,87.3244
2023-03-11 17:48:56:354,0,-6.34271,-4.59507,87.3304
2023-03-11 17:48:56:364,0,-6.33908,-4.59715,87.333
2023-03-11 17:48:56:374,0,-6.3389,-4.60167,87.3375
2023-03-11 17:48:56:384,0,-6.34321,-4.60376,87.3427
2023-03-11 17:48:56:394,0,-6.34727,-4.60603,87.3459
2023-03-11 17:48:56:404,0,-6.35457,-4.60696,87.3486
2023-03-11 17:48:56:414,0,-6.36453,-4.60339,87.3523
2023-03-11 17:48:56:424,0,-6.37158,-4.59564,87.3514
2023-03-11 17:48:56:434,0,-6.37327,-4.59297,87.347
2023-03-11 17:48:56:444,0,-6.36733,-4.59197,87.3453
2023-03-11 17:48:56:454,0,-6.36366,-4.59085,87.3461
2023-03-11 17:48:56:464,0,-6.35404,-4.58917,87.3419
2023-03-11 17:48:56:474,0,-6.34836,-4.58118,87.3374
2023-03-11 17:48:56:484,0,-6.34024,-4.56916,87.3281
2023-03-11 17:48:56:494,0,-6.33193,-4.5598,87.3155
2023-03-11 17:48:56:504,0,-6.32691,-4.55123,87.3076
2023-03-11 17:48:56:514,0,-6.31912,-4.54023,87.299
2023-03-11 17:48:56:524,0,-6.31225,-4.53315,87.2902
2023-03-11 17:48:56:534,0,-6.30576,-4.52716,87.2798
2023-03-11 17:48:56:544,0,-6.29834,-4.52213,87.2722
2023-03-11 17:48:56:554,0,-6.29194,-4.52062,87.2664
2023-03-11 17:48:56:564,0,-6.2871,-4.51764,87.2599
2023-03-11 17:48:56:574,0,-6.27883,-4.51781,87.2576
2023-03-11 17:48:56:584,0,-6.27305,-4.51848,87.2602
2023-03-11 17:48:56:594,0,-6.27244,-4.52221,87.2621
2023-03-11 17:48:56:604,0,-6.27031,-4.5257,87.2663
2023-03-11 17:48:56:614,0,-6.26646,-4.53185,87.2722
2023-03-11 17:48:56:624,0,-6.26538,-4.5404,87.282
2023-03-11 17:48:56:634,0,-6.26447,-4.54517,87.2933
2023-03-11 17:48:56:644,0,-6.26614,-4.55009,87.3049
2023-03-11 17:48:56:654,0,-6.26964,-4.55353,87.3174
2023-03-11 17:48:56:664,0,-6.27515,-4.55566,87.3314
2023-03-11 17:48:56:674,0,-6.28592,-4.55729,87.3484
2023-03-11 17:48:56:684,0,-6.29405,-4.55915,87.3617
2023-03-11 17:48:56:694,0,-6.30165,-4.5637,87.3759
2023-03-11 17:48:56:704,0,-6.31127,-4.56526,87.3896
2023-03-11 17:48:56:714,0,-6.32002,-4.56739,87.4045
2023-03-11 17:48:56:724,0,-6.32716,-4.56941,87.4168
2023-03-11 17:48:56:734,0,-6.33702,-4.5772,87.4209
2023-03-11 17:48:56:744,0,-6.34769,-4.58236,87.4234
2023-03-11 17:48:56:754,0,-6.35873,-4.59057,87.4252
2023-03-11 17:48:56:764,0,-6.36795,-4.59206,87.4275
2023-03-11 17:48:56:774,0,-6.37799,-4.59583,87.4305
2023-03-11 17:48:56:784,0,-6.3857,-4.60214,87.4305
2023-03-11 17:48:56:794,0,-6.3942,-4.60476,87.4322
2023-03-11 17:48:56:804,0,-6.40072,-4.60938,87.4338
2023-03-11 17:48:56:814,0,-6.40464,-4.61335,87.4366
2023-03-11 17:48:56:824,0,-6.4103,-4.62219,87.4382
2023-03-11 17:48:56:834,0,-6.41631,-4.62609,87.4435
2023-03-11 17:48:56:844,0,-6.419,-4.62613,87.4477
2023-03-11 17:48:56:854,0,-6.42139,-4.62834,87.4528
2023-03-11 17:48:56:864,0,-6.42578,-4.62877,87.4581
2023-03-11 17:48:56:874,0,-6.42986,-4.62894,87.4599
2023-03-11 17:48:56:884,0,-6.43154,-4.62907,87.461
2023-03-11 17:48:56:894,0,-6.43757,-4.63045,87.4589
2023-03-11 17:48:56:904,0,-6.447,-4.62898,87.4513
2023-03-11 17:48:56:914,0,-6.45628,-4.62711,87.4453
2023-03-11 17:48:56:924,0,-6.4638,-4.62635,87.4336
2023-03-11 17:48:56:934,0,-6.47474,-4.62169,87.4231
2023-03-11 17:48:56:944,0,-6.48552,-4.61569,87.4122
2023-03-11 17:48:56:954,0,-6.49273,-4.61028,87.4003
2023-03-11 17:48:56:964,0,-6.49979,-4.60884,87.3822
2023-03-11 17:48:56:974,0,-6.50701,-4.61071,87.3715
2023-03-11 17:48:56:984,0,-6.5208,-4.61458,87.3617
2023-03-11 17:48:56:994,0,-6.53711,-4.6154,87.3524
2023-03-11 17:48:57:4,0,-6.55584,-4.61309,87.3465
2023-03-11 17:48:57:14,0,-6.57616,-4.61096,87.3463
2023-03-11 17:48:57:24,0,-6.59634,-4.60948,87.3484
2023-03-11 17:48:57:34,0,-6.61375,-4.60618,87.3513
2023-03-11 17:48:57:44,0,-6.62692,-4.6068,87.3544
2023-03-11 17:48:57:54,0,-6.63901,-4.60758,87.3602
2023-03-11 17:48:57:64,0,-6.65164,-4.60695,87.3669
2023-03-11 17:48:57:74,0,-6.6603,-4.60788,87.3714
2023-03-11 17:48:57:84,0,-6.67234,-4.60777,87.3787
2023-03-11 17:48:57:94,0,-6.67857,-4.61142,87.3824
2023-03-11 17:48:57:104,0,-6.68788,-4.61192,87.3874
2023-03-11 17:48:57:114,0,-6.70003,-4.61354,87.3884
2023-03-11 17:48:57:124,0,-6.70763,-4.61939,87.3916
2023-03-11 17:48:57:134,0,-6.71357,-4.62009,87.3967
2023-03-11 17:48:57:144,0,-6.7241,-4.62642,87.4004
2023-03-11 17:48:57:154,0,-6.73425,-4.631,87.4026
2023-03-11 17:48:57:164,0,-6.74212,-4.63137,87.4097
2023-03-11 17:48:57:174,0,-6.74043,-4.63036,87.4108
2023-03-11 17:48:57:184,0,-6.73141,-4.63079,87.4121
2023-03-11 17:48:57:194,0,-6.71973,-4.63363,87.4159
2023-03-11 17:48:57:204,0,-6.70641,-4.63325,87.4185
2023-03-11 17:48:57:214,0,-6.69304,-4.62849,87.4201
2023-03-11 17:48:57:224,0,-6.68373,-4.62769,87.4228
2023-03-11 17:48:57:234,0,-6.67826,-4.62149,87.4239
2023-03-11 17:48:57:244,0,-6.67499,-4.61659,87.4237
2023-03-11 17:48:57:254,0,-6.67467,-4.61276,87.4248
2023-03-11 17:48:57:264,0,-6.67797,-4.61537,87.429
2023-03-11 17:48:57:274,0,-6.68521,-4.61408,87.431
2023-03-11 17:48:57:284,0,-6.69296,-4.61785,87.4325
2023-03-11 17:48:57:294,0,-6.69753,-4.62468,87.4343
2023-03-11 17:48:57:304,0,-6.70465,-4.63248,87.4378
2023-03-11 17:48:57:314,0,-6.71299,-4.64251,87.4424
2023-03-11 17:48:57:324,0,-6.72067,-4.65748,87.45
2023-03-11 17:48:57:334,0,-6.72863,-4.66998,87.4582
2023-03-11 17:48:57:344,0,-6.73065,-4.68682,87.4671
2023-03-11 17:48:57:354,0,-6.73274,-4.70758,87.4783
2023-03-11 17:48:57:364,0,-6.73174,-4.72157,87.4892
2023-03-11 17:48:57:374,0,-6.73927,-4.73289,87.5045
2023-03-11 17:48:57:384,0,-6.74773,-4.74512,87.5204
2023-03-11 17:48:57:394,0,-6.75735,-4.75327,87.5328
2023-03-11 17:48:57:404,0,-6.76348,-4.76136,87.547
2023-03-11 17:48:57:414,0,-6.77089,-4.76573,87.5619
2023-03-11 17:48:57:424,0,-6.77687,-4.76509,87.5727
2023-03-11 17:48:57:434,0,-6.77915,-4.76068,87.5785
2023-03-11 17:48:57:444,0,-6.78132,-4.7496,87.5782
2023-03-11 17:48:57:454,0,-6.77952,-4.7322,87.5754
2023-03-11 17:48:57:464,0,-6.77641,-4.71359,87.5686
2023-03-11 17:48:57:474,0,-6.77371,-4.69111,87.5589
2023-03-11 17:48:57:484,0,-6.77081,-4.66576,87.5411
2023-03-11 17:48:57:494,0,-6.77093,-4.63919,87.5218
2023-03-11 17:48:57:504,0,-6.77431,-4.61185,87.5048
2023-03-11 17:48:57:514,0,-6.78384,-4.58661,87.4835
2023-03-11 17:48:57:524,0,-6.79438,-4.56007,87.4634
2023-03-11 17:48:57:534,0,-6.8074,-4.53827,87.4478
2023-03-11 17:48:57:544,0,-6.82164,-4.51959,87.4313
2023-03-11 17:48:57:554,0,-6.83394,-4.50294,87.4248
2023-03-11 17:48:57:564,0,-6.84842,-4.48964,87.4151
2023-03-11 17:48:57:574,0,-6.85819,-4.48081,87.4142
2023-03-11 17:48:57:584,0,-6.87543,-4.47174,87.4175
2023-03-11 17:48:57:594,0,-6.89068,-4.46573,87.4249
2023-03-11 17:48:57:604,0,-6.90944,-4.46088,87.4364
2023-03-11 17:48:57:614,0,-6.92642,-4.45868,87.4459
2023-03-11 17:48:57:624,0,-6.94628,-4.45853,87.4592
2023-03-11 17:48:57:634,0,-6.96485,-4.46383,87.4709
2023-03-11 17:48:57:644,0,-6.98196,-4.46838,87.4828
2023-03-11 17:48:57:654,0,-6.99652,-4.47451,87.4931
2023-03-11 17:48:57:664,0,-7.01165,-4.48089,87.5016
2023-03-11 17:48:57:674,0,-7.02544,-4.48648,87.5083
2023-03-11 17:48:57:684,0,-7.03197,-4.49476,87.5133
2023-03-11 17:48:57:694,0,-7.03784,-4.50353,87.5206
2023-03-11 17:48:57:704,0,-7.03887,-4.51345,87.5236
2023-03-11 17:48:57:714,0,-7.03533,-4.52341,87.5257
2023-03-11 17:48:57:724,0,-7.03313,-4.53902,87.5249
2023-03-11 17:48:57:734,0,-7.03308,-4.55179,87.5293
2023-03-11 17:48:57:744,0,-7.03745,-4.56449,87.529
2023-03-11 17:48:57:754,0,-7.0448,-4.57803,87.5271
2023-03-11 17:48:57:764,0,-7.05813,-4.59054,87.5327
2023-03-11 17:48:57:774,0,-7.07547,-4.60002,87.537
2023-03-11 17:48:57:784,0,-7.09584,-4.6119,87.5416
2023-03-11 17:48:57:794,0,-7.1204,-4.62368,87.5498
2023-03-11 17:48:57:804,0,-7.14676,-4.63067,87.555
2023-03-11 17:48:57:814,0,-7.16887,-4.63826,87.5684
2023-03-11 17:48:57:824,0,-7.18735,-4.64534,87.5802
2023-03-11 17:48:57:834,0,-7.20818,-4.64747,87.5888
2023-03-11 17:48:57:844,0,-7.23038,-4.6482,87.5935
2023-03-11 17:48:57:854,0,-7.25326,-4.65055,87.5982
2023-03-11 17:48:57:864,0,-7.27858,-4.64918,87.602
2023-03-11 17:48:57:874,0,-7.30458,-4.64629,87.6046
2023-03-11 17:48:57:884,0,-7.33377,-4.64183,87.6059
2023-03-11 17:48:57:893,0,-7.36037,-4.63502,87.6032
2023-03-11 17:48:57:904,0,-7.38345,-4.62853,87.5989
2023-03-11 17:48:57:914,0,-7.40976,-4.62169,87.5942
2023-03-11 17:48:57:924,0,-7.43467,-4.61074,87.5895
2023-03-11 17:48:57:934,0,-7.4578,-4.59601,87.5803
2023-03-11 17:48:57:944,0,-7.47254,-4.57714,87.569
2023-03-11 17:48:57:954,0,-7.48162,-4.56921,87.5555
2023-03-11 17:48:57:964,0,-7.48623,-4.55828,87.5455
2023-03-11 17:48:57:974,0,-7.49188,-4.54786,87.5333
2023-03-11 17:48:57:984,0,-7.50394,-4.53519,87.5267
2023-03-11 17:48:57:994,0,-7.51512,-4.52052,87.519
2023-03-11 17:48:58:4,0,-7.52902,-4.50787,87.5159
2023-03-11 17:48:58:14,0,-7.55203,-4.49486,87.5129
2023-03-11 17:48:58:24,0,-7.5696,-4.48422,87.5145
2023-03-11 17:48:58:34,0,-7.58578,-4.47797,87.5179
2023-03-11 17:48:58:44,0,-7.6056,-4.47462,87.5197
2023-03-11 17:48:58:54,0,-7.62514,-4.46992,87.5234
2023-03-11 17:48:58:64,0,-7.63826,-4.46728,87.5279
2023-03-11 17:48:58:74,0,-7.65162,-4.46961,87.5327
2023-03-11 17:48:58:84,0,-7.66314,-4.47259,87.5333
2023-03-11 17:48:58:94,0,-7.66929,-4.48015,87.5329
2023-03-11 17:48:58:104,0,-7.67502,-4.48817,87.5346
2023-03-11 17:48:58:114,0,-7.68229,-4.49748,87.5358
2023-03-11 17:48:58:124,0,-7.69321,-4.50789,87.5408
2023-03-11 17:48:58:134,0,-7.70383,-4.51956,87.5461
2023-03-11 17:48:58:144,0,-7.70757,-4.5323,87.5499
2023-03-11 17:48:58:154,0,-7.70857,-4.54553,87.5588
2023-03-11 17:48:58:164,0,-7.7075,-4.55793,87.5685
2023-03-11 17:48:58:174,0,-7.70497,-4.571,87.5809
2023-03-11 17:48:58:184,0,-7.7005,-4.58332,87.5938
2023-03-11 17:48:58:194,0,-7.69299,-4.59705,87.606
2023-03-11 17:48:58:204,0,-7.68966,-4.61074,87.6164
2023-03-11 17:48:58:214,0,-7.68392,-4.62387,87.6249
2023-03-11 17:48:58:224,0,-7.67433,-4.63341,87.633
2023-03-11 17:48:58:234,0,-7.66987,-4.64118,87.6362
2023-03-11 17:48:58:244,0,-7.66396,-4.64809,87.6402
2023-03-11 17:48:58:254,0,-7.65769,-4.65438,87.6471
2023-03-11 17:48:58:264,0,-7.65219,-4.66274,87.6509
2023-03-11 17:48:58:274,0,-7.64624,-4.67221,87.6504
2023-03-11 17:48:58:284,0,-7.64034,-4.67855,87.6492
2023-03-11 17:48:58:294,0,-7.63224,-4.68282,87.6489
2023-03-11 17:48:58:304,0,-7.62217,-4.68766,87.6501
2023-03-11 17:48:58:314,0,-7.61412,-4.69119,87.6508
2023-03-11 17:48:58:324,0,-7.60834,-4.69248,87.6511
2023-03-11 17:48:58:334,0,-7.60164,-4.69233,87.6544
2023-03-11 17:48:58:344,0,-7.59624,-4.69471,87.6551
2023-03-11 17:48:58:354,0,-7.59551,-4.69436,87.6569
2023-03-11 17:48:58:364,0,-7.59276,-4.69203,87.6585
2023-03-11 17:48:58:374,0,-7.58705,-4.69123,87.6631
2023-03-11 17:48:58:384,0,-7.5767,-4.69004,87.6672
2023-03-11 17:48:58:394,0,-7.56973,-4.69063,87.6725
2023-03-11 17:48:58:404,0,-7.55882,-4.68853,87.677
2023-03-11 17:48:58:414,0,-7.54704,-4.68367,87.6819
2023-03-11 17:48:58:424,0,-7.53499,-4.67857,87.6857
2023-03-11 17:48:58:434,0,-7.51563,-4.67043,87.6854
2023-03-11 17:48:58:444,0,-7.50153,-4.66528,87.6885
2023-03-11 17:48:58:454,0,-7.48486,-4.65654,87.6889
2023-03-11 17:48:58:464,0,-7.46979,-4.64797,87.6873
2023-03-11 17:48:58:474,0,-7.45378,-4.64074,87.6834
2023-03-11 17:48:58:484,0,-7.43546,-4.63383,87.6788
2023-03-11 17:48:58:494,0,-7.4203,-4.63,87.672
2023-03-11 17:48:58:504,0,-7.39924,-4.62408,87.6675
2023-03-11 17:48:58:514,0,-7.37415,-4.62218,87.6588
2023-03-11 17:48:58:524,0,-7.34786,-4.62881,87.6537
2023-03-11 17:48:58:534,0,-7.31974,-4.63429,87.6474
2023-03-11 17:48:58:544,0,-7.2946,-4.63851,87.6445
2023-03-11 17:48:58:554,0,-7.26983,-4.64129,87.6447
2023-03-11 17:48:58:564,0,-7.24178,-4.64537,87.6435
2023-03-11 17:48:58:574,0,-7.21098,-4.64855,87.6469
2023-03-11 17:48:58:584,0,-7.17925,-4.64707,87.6519
2023-03-11 17:48:58:594,0,-7.14515,-4.64361,87.6556
2023-03-11 17:48:58:604,0,-7.10586,-4.64107,87.6617
2023-03-11 17:48:58:614,0,-7.06789,-4.63788,87.6631
2023-03-11 17:48:58:624,0,-7.02726,-4.63254,87.6609
2023-03-11 17:48:58:634,0,-6.98535,-4.6248,87.6585
2023-03-11 17:48:58:644,0,-6.94397,-4.61554,87.6488
2023-03-11 17:48:58:654,0,-6.90114,-4.60638,87.6383
2023-03-11 17:48:58:664,0,-6.85549,-4.59385,87.624
2023-03-11 17:48:58:674,0,-6.81288,-4.57994,87.607
2023-03-11 17:48:58:684,0,-6.76869,-4.56356,87.5881
2023-03-11 17:48:58:694,0,-6.72317,-4.54902,87.5714
2023-03-11 17:48:58:704,0,-6.68,-4.53296,87.5525
2023-03-11 17:48:58:714,0,-6.64064,-4.51459,87.5371
2023-03-11 17:48:58:724,0,-6.60565,-4.49397,87.5168
2023-03-11 17:48:58:734,0,-6.5676,-4.4734,87.4991
2023-03-11 17:48:58:744,0,-6.53254,-4.45079,87.4813
2023-03-11 17:48:58:754,0,-6.49448,-4.43604,87.4654
2023-03-11 17:48:58:764,0,-6.46097,-4.42126,87.4509
2023-03-11 17:48:58:774,0,-6.42819,-4.40757,87.4381
2023-03-11 17:48:58:784,0,-6.40014,-4.39298,87.4264
2023-03-11 17:48:58:794,0,-6.37261,-4.3767,87.4142
2023-03-11 17:48:58:804,0,-6.34646,-4.36212,87.4058
2023-03-11 17:48:58:814,0,-6.32213,-4.3478,87.4012
2023-03-11 17:48:58:824,0,-6.30108,-4.33937,87.3999
2023-03-11 17:48:58:834,0,-6.28091,-4.33435,87.3997
2023-03-11 17:48:58:844,0,-6.2665,-4.32943,87.3992
2023-03-11 17:48:58:854,0,-6.25028,-4.32472,87.4013
2023-03-11 17:48:58:864,0,-6.23768,-4.3212,87.4051
2023-03-11 17:48:58:874,0,-6.22568,-4.32447,87.4081
2023-03-11 17:48:58:884,0,-6.21419,-4.326,87.4107
2023-03-11 17:48:58:894,0,-6.20778,-4.33038,87.4106
2023-03-11 17:48:58:904,0,-6.20811,-4.33863,87.4143
2023-03-11 17:48:58:914,0,-6.21235,-4.3471,87.4212
2023-03-11 17:48:58:924,0,-6.21781,-4.35722,87.4278
2023-03-11 17:48:58:934,0,-6.22517,-4.36711,87.4356
2023-03-11 17:48:58:944,0,-6.23345,-4.3768,87.4465
2023-03-11 17:48:58:954,0,-6.24132,-4.38889,87.4559
2023-03-11 17:48:58:964,0,-6.2476,-4.3971,87.4661
2023-03-11 17:48:58:974,0,-6.25578,-4.40705,87.4777
2023-03-11 17:48:58:984,0,-6.26179,-4.41661,87.487
2023-03-11 17:48:58:994,0,-6.26597,-4.42496,87.4978
2023-03-11 17:48:59:4,0,-6.27356,-4.43089,87.507
2023-03-11 17:48:59:14,0,-6.28228,-4.43598,87.5175
2023-03-11 17:48:59:24,0,-6.29669,-4.44311,87.5268
2023-03-11 17:48:59:34,0,-6.31257,-4.44762,87.5323
2023-03-11 17:48:59:44,0,-6.32749,-4.44849,87.5306
2023-03-11 17:48:59:54,0,-6.34234,-4.45184,87.5269
2023-03-11 17:48:59:64,0,-6.35483,-4.45073,87.527
2023-03-11 17:48:59:74,0,-6.36273,-4.44909,87.5247
2023-03-11 17:48:59:84,0,-6.36636,-4.44731,87.5184
2023-03-11 17:48:59:94,0,-6.36859,-4.44056,87.5095
2023-03-11 17:48:59:104,0,-6.36629,-4.432,87.5003
2023-03-11 17:48:59:114,0,-6.36202,-4.42201,87.4876
2023-03-11 17:48:59:124,0,-6.35499,-4.41223,87.4803
2023-03-11 17:48:59:134,0,-6.34064,-4.40284,87.4672
2023-03-11 17:48:59:144,0,-6.31815,-4.39309,87.4544
2023-03-11 17:48:59:154,0,-6.29194,-4.38068,87.4416
2023-03-11 17:48:59:164,0,-6.25887,-4.37057,87.4268
2023-03-11 17:48:59:174,0,-6.21183,-4.36396,87.4099
2023-03-11 17:48:59:184,0,-6.14705,-4.3603,87.394
2023-03-11 17:48:59:194,0,-6.05711,-4.35466,87.3756
2023-03-11 17:48:59:204,0,-5.93648,-4.34803,87.3586
2023-03-11 17:48:59:214,0,-5.79343,-4.33495,87.337
2023-03-11 17:48:59:224,0,-5.63098,-4.31894,87.3129
2023-03-11 17:48:59:234,0,-5.4526,-4.30135,87.2834
2023-03-11 17:48:59:244,0,-5.25331,-4.28363,87.2528
2023-03-11 17:48:59:254,0,-5.03377,-4.2664,87.2162
2023-03-11 17:48:59:264,0,-4.79748,-4.25427,87.1761
2023-03-11 17:48:59:274,0,-4.5573,-4.24727,87.1371
2023-03-11 17:48:59:284,0,-4.30453,-4.23923,87.0987
2023-03-11 17:48:59:294,0,-4.03727,-4.22464,87.0558
2023-03-11 17:48:59:304,0,-3.75466,-4.2089,87.0108
2023-03-11 17:48:59:314,0,-3.45775,-4.19373,86.9596
2023-03-11 17:48:59:324,0,-3.13858,-4.17559,86.9105
2023-03-11 17:48:59:334,0,-2.798,-4.15769,86.8612
2023-03-11 17:48:59:344,0,-2.43347,-4.14338,86.8116
2023-03-11 17:48:59:354,0,-2.05036,-4.13229,86.7622
2023-03-11 17:48:59:364,0,-1.65447,-4.12631,86.716
2023-03-11 17:48:59:374,0,-1.2499,-4.12181,86.672
2023-03-11 17:48:59:384,0,-0.832782,-4.11743,86.6271
2023-03-11 17:48:59:394,0,-0.405909,-4.11464,86.5841
2023-03-11 17:48:59:404,0,0.0312403,-4.10702,86.5416
2023-03-11 17:48:59:414,0,0.481386,-4.09988,86.4969
2023-03-11 17:48:59:424,0,0.940787,-4.09392,86.4572
2023-03-11 17:48:59:434,0,1.41266,-4.08838,86.4221
2023-03-11 17:48:59:444,0,1.89894,-4.08467,86.3904
2023-03-11 17:48:59:454,0,2.40872,-4.0803,86.3603
2023-03-11 17:48:59:464,0,2.93913,-4.07095,86.3313
2023-03-11 17:48:59:474,0,3.48996,-4.0583,86.3039
2023-03-11 17:48:59:484,0,4.055,-4.04206,86.2745
2023-03-11 17:48:59:494,0,4.64127,-4.01779,86.24
2023-03-11 17:48:59:504,0,5.23781,-3.98639,86.2015
2023-03-11 17:48:59:514,0,5.84875,-3.9502,86.1561
2023-03-11 17:48:59:524,0,6.46697,-3.91774,86.1049
2023-03-11 17:48:59:534,0,7.08069,-3.89166,86.0488
2023-03-11 17:48:59:544,0,7.69944,-3.8677,85.9926
2023-03-11 17:48:59:554,0,8.31521,-3.8451,85.9325
2023-03-11 17:48:59:564,0,8.94073,-3.82633,85.8778
2023-03-11 17:48:59:574,0,9.57177,-3.81448,85.8223
2023-03-11 17:48:59:584,0,10.2052,-3.79727,85.7727
2023-03-11 17:48:59:594,0,10.8418,-3.77691,85.7239
2023-03-11 17:48:59:604,0,11.4767,-3.748,85.6787
2023-03-11 17:48:59:614,0,12.1044,-3.71686,85.6327
2023-03-11 17:48:59:624,0,12.7221,-3.68763,85.5931
2023-03-11 17:48:59:634,0,13.3326,-3.65415,85.5544
2023-03-11 17:48:59:644,0,13.9426,-3.61464,85.5195
2023-03-11 17:48:59:654,3,14.546,-3.56787,85.4853
2023-03-11 17:48:59:664,3,15.1438,-3.51117,85.4481
2023-03-11 17:48:59:674,3,15.734,-3.4493,85.409
2023-03-11 17:48:59:684,3,16.3187,-3.38544,85.3679
2023-03-11 17:48:59:694,3,16.8945,-3.32479,85.3307
2023-03-11 17:48:59:704,3,17.4629,-3.27215,85.297
2023-03-11 17:48:59:714,3,18.0301,-3.22277,85.2734
2023-03-11 17:48:59:724,3,18.5919,-3.15678,85.2542
2023-03-11 17:48:59:734,3,19.1561,-3.09487,85.2265
2023-03-11 17:48:59:744,3,19.7009,-3.02856,85.1878
2023-03-11 17:48:59:754,3,20.2318,-2.94867,85.156
2023-03-11 17:48:59:764,3,20.7636,-2.86968,85.1299
2023-03-11 17:48:59:774,3,21.297,-2.80478,85.1003
2023-03-11 17:48:59:784,3,21.8301,-2.74212,85.0639
2023-03-11 17:48:59:794,3,22.3574,-2.6673,85.0266
2023-03-11 17:48:59:804,3,22.8788,-2.59216,84.9962
2023-03-11 17:48:59:814,3,23.4034,-2.51986,84.9754
2023-03-11 17:48:59:824,3,23.9323,-2.45659,84.9644
2023-03-11 17:48:59:834,3,24.47,-2.38724,84.9559
2023-03-11 17:48:59:844,3,25.0143,-2.31203,84.9478
2023-03-11 17:48:59:854,3,25.5619,-2.2321,84.9367
2023-03-11 17:48:59:864,3,26.1003,-2.14363,84.9253
2023-03-11 17:48:59:874,3,26.6276,-2.05599,84.9117
2023-03-11 17:48:59:884,3,27.1397,-1.97292,84.9014
2023-03-11 17:48:59:894,3,27.6401,-1.8952,84.8954
2023-03-11 17:48:59:904,3,28.1318,-1.8223,84.8923
2023-03-11 17:48:59:914,3,28.619,-1.75688,84.8894
2023-03-11 17:48:59:924,3,29.1063,-1.6886,84.8921
2023-03-11 17:48:59:934,3,29.5913,-1.62399,84.8939
2023-03-11 17:48:59:944,3,30.0719,-1.5553,84.8987
2023-03-11 17:48:59:954,3,30.5513,-1.48501,84.9018
2023-03-11 17:48:59:964,3,31.0276,-1.41116,84.9083
2023-03-11 17:48:59:974,3,31.4873,-1.33854,84.9029
2023-03-11 17:48:59:984,3,31.9254,-1.26397,84.8921
2023-03-11 17:48:59:994,3,32.3455,-1.19639,84.8743
2023-03-11 17:49:00:4,3,32.7563,-1.13832,84.852
2023-03-11 17:49:00:14,3,33.1682,-1.08951,84.8338
2023-03-11 17:49:00:24,3,33.5865,-1.04695,84.8249
