Timestamp_cmd,imu_cmd,roll_delta,pitch_delta,yaw_delta
2023-03-11 22:32:13:816,0,6.30445,-2.78594,-45.9204
2023-03-11 22:32:13:824,0,6.32007,-2.79286,-45.9242
2023-03-11 22:32:13:834,0,6.33472,-2.80073,-45.9192
2023-03-11 22:32:13:844,0,6.34331,-2.81328,-45.9053
2023-03-11 22:32:13:854,0,6.35154,-2.8326,-45.8866
2023-03-11 22:32:13:864,0,6.35735,-2.85317,-45.8648
2023-03-11 22:32:13:874,0,6.36374,-2.87769,-45.84
2023-03-11 22:32:13:884,0,6.36947,-2.90604,-45.8142
2023-03-11 22:32:13:894,0,6.375,-2.93284,-45.7867
2023-03-11 22:32:13:904,0,6.38494,-2.95696,-45.7609
2023-03-11 22:32:13:914,0,6.39217,-2.98059,-45.7269
2023-03-11 22:32:13:924,0,6.40187,-3.00753,-45.6821
2023-03-11 22:32:13:934,0,6.40968,-3.03095,-45.6319
2023-03-11 22:32:13:944,0,6.41609,-3.05445,-45.5757
2023-03-11 22:32:13:954,0,6.42794,-3.07293,-45.5191
2023-03-11 22:32:13:964,0,6.44749,-3.08293,-45.4716
2023-03-11 22:32:13:974,0,6.46736,-3.0746,-45.4416
2023-03-11 22:32:13:984,0,6.48772,-3.04137,-45.4299
2023-03-11 22:32:13:994,0,6.50326,-2.9915,-45.4279
2023-03-11 22:32:14:4,0,6.51231,-2.93626,-45.421
2023-03-11 22:32:14:14,0,6.51071,-2.88808,-45.4124
2023-03-11 22:32:14:24,0,6.50337,-2.84906,-45.4088
2023-03-11 22:32:14:34,0,6.49527,-2.8152,-45.4182
2023-03-11 22:32:14:44,0,6.47938,-2.77541,-45.4409
2023-03-11 22:32:14:54,0,6.46086,-2.73329,-45.4762
2023-03-11 22:32:14:64,0,6.43138,-2.68338,-45.5169
2023-03-11 22:32:14:74,0,6.38706,-2.62522,-45.5461
2023-03-11 22:32:14:84,0,6.33041,-2.57331,-45.5626
2023-03-11 22:32:14:94,0,6.25767,-2.53148,-45.5682
2023-03-11 22:32:14:104,0,6.17474,-2.50081,-45.554
2023-03-11 22:32:14:114,0,6.08924,-2.47826,-45.5246
2023-03-11 22:32:14:124,0,6.0003,-2.45709,-45.4796
2023-03-11 22:32:14:134,0,5.90609,-2.43988,-45.4257
2023-03-11 22:32:14:144,0,5.81367,-2.427,-45.3595
2023-03-11 22:32:14:154,0,5.72375,-2.41302,-45.2804
2023-03-11 22:32:14:164,0,5.64862,-2.40047,-45.1982
2023-03-11 22:32:14:174,0,5.59452,-2.3837,-45.1215
2023-03-11 22:32:14:184,0,5.56025,-2.365,-45.0573
2023-03-11 22:32:14:194,0,5.54642,-2.34846,-44.9956
2023-03-11 22:32:14:204,0,5.54545,-2.33071,-44.9394
2023-03-11 22:32:14:214,0,5.55113,-2.31102,-44.8982
2023-03-11 22:32:14:224,0,5.56182,-2.29913,-44.8724
2023-03-11 22:32:14:234,0,5.57307,-2.29356,-44.8457
2023-03-11 22:32:14:244,0,5.58409,-2.30334,-44.8254
2023-03-11 22:32:14:254,0,5.59272,-2.31822,-44.8092
2023-03-11 22:32:14:264,0,5.59961,-2.34079,-44.8026
2023-03-11 22:32:14:274,0,5.61007,-2.36299,-44.8055
2023-03-11 22:32:14:284,0,5.62236,-2.39057,-44.8111
2023-03-11 22:32:14:294,0,5.63618,-2.41818,-44.8126
2023-03-11 22:32:14:304,0,5.65509,-2.44621,-44.8125
2023-03-11 22:32:14:314,0,5.67523,-2.4693,-44.8048
2023-03-11 22:32:14:324,0,5.70123,-2.49183,-44.7923
2023-03-11 22:32:14:334,0,5.72789,-2.51511,-44.7763
2023-03-11 22:32:14:344,0,5.75907,-2.53396,-44.7526
2023-03-11 22:32:14:354,0,5.78929,-2.55199,-44.7269
2023-03-11 22:32:14:364,0,5.81544,-2.57242,-44.6971
2023-03-11 22:32:14:374,0,5.83898,-2.59183,-44.6683
2023-03-11 22:32:14:384,0,5.85769,-2.61456,-44.6355
2023-03-11 22:32:14:394,0,5.87185,-2.63558,-44.6026
2023-03-11 22:32:14:404,0,5.87808,-2.65929,-44.5734
2023-03-11 22:32:14:414,0,5.88272,-2.67928,-44.548
2023-03-11 22:32:14:424,0,5.8878,-2.69684,-44.5206
2023-03-11 22:32:14:434,0,5.885,-2.7185,-44.4943
2023-03-11 22:32:14:444,0,5.8768,-2.73561,-44.4749
2023-03-11 22:32:14:454,0,5.86241,-2.74492,-44.4646
2023-03-11 22:32:14:464,0,5.8467,-2.75201,-44.4523
2023-03-11 22:32:14:474,0,5.83596,-2.76303,-44.4275
2023-03-11 22:32:14:484,0,5.82406,-2.77151,-44.403
2023-03-11 22:32:14:494,0,5.81366,-2.77737,-44.3827
2023-03-11 22:32:14:504,0,5.79787,-2.77721,-44.3643
2023-03-11 22:32:14:514,0,5.78298,-2.77102,-44.3486
2023-03-11 22:32:14:524,0,5.76633,-2.75943,-44.3309
2023-03-11 22:32:14:534,0,5.74462,-2.74519,-44.31
2023-03-11 22:32:14:544,0,5.72669,-2.73098,-44.2862
2023-03-11 22:32:14:554,0,5.71749,-2.72138,-44.2564
2023-03-11 22:32:14:564,0,5.70858,-2.71092,-44.2207
2023-03-11 22:32:14:574,0,5.70545,-2.69977,-44.1819
2023-03-11 22:32:14:584,0,5.70766,-2.68308,-44.124
2023-03-11 22:32:14:594,0,5.71587,-2.65446,-44.0545
2023-03-11 22:32:14:604,0,5.72112,-2.61883,-43.9643
2023-03-11 22:32:14:614,0,5.72902,-2.5745,-43.8516
2023-03-11 22:32:14:624,0,5.72897,-2.52688,-43.7191
2023-03-11 22:32:14:634,0,5.72135,-2.47089,-43.5721
2023-03-11 22:32:14:644,0,5.70705,-2.4066,-43.4098
2023-03-11 22:32:14:654,0,5.68819,-2.33688,-43.2367
2023-03-11 22:32:14:664,0,5.66038,-2.2639,-43.0391
2023-03-11 22:32:14:674,0,5.6307,-2.19559,-42.8192
2023-03-11 22:32:14:684,0,5.59935,-2.13787,-42.5728
2023-03-11 22:32:14:694,0,5.57179,-2.09344,-42.3008
2023-03-11 22:32:14:704,0,5.54756,-2.06201,-42.0158
2023-03-11 22:32:14:714,0,5.52613,-2.04151,-41.7239
2023-03-11 22:32:14:724,0,5.5072,-2.02394,-41.4386
2023-03-11 22:32:14:734,0,5.49573,-2.0063,-41.1625
2023-03-11 22:32:14:744,0,5.48453,-1.98409,-40.9023
2023-03-11 22:32:14:754,0,5.47806,-1.95847,-40.6616
2023-03-11 22:32:14:764,0,5.4699,-1.93249,-40.4358
2023-03-11 22:32:14:774,0,5.46035,-1.9034,-40.2231
2023-03-11 22:32:14:784,0,5.44087,-1.87439,-40.0267
2023-03-11 22:32:14:794,0,5.41296,-1.85047,-39.8531
2023-03-11 22:32:14:804,0,5.37825,-1.8215,-39.7035
2023-03-11 22:32:14:814,0,5.33833,-1.79497,-39.5704
2023-03-11 22:32:14:824,0,5.30498,-1.77587,-39.4586
2023-03-11 22:32:14:834,0,5.27748,-1.76634,-39.3621
2023-03-11 22:32:14:844,0,5.2549,-1.76356,-39.2812
2023-03-11 22:32:14:854,0,5.2353,-1.76933,-39.2117
2023-03-11 22:32:14:864,0,5.21813,-1.7839,-39.1471
2023-03-11 22:32:14:874,0,5.20857,-1.80886,-39.0933
2023-03-11 22:32:14:884,0,5.20694,-1.8307,-39.0469
2023-03-11 22:32:14:894,0,5.21043,-1.86018,-39.0155
2023-03-11 22:32:14:904,0,5.21949,-1.88876,-39.0015
2023-03-11 22:32:14:914,0,5.23674,-1.92099,-38.9938
2023-03-11 22:32:14:924,0,5.25393,-1.95017,-38.9932
2023-03-11 22:32:14:934,0,5.27613,-1.98275,-38.9944
2023-03-11 22:32:14:944,0,5.30219,-2.02102,-39.0008
2023-03-11 22:32:14:954,0,5.3285,-2.0623,-39.0104
2023-03-11 22:32:14:964,0,5.36366,-2.10306,-39.0299
2023-03-11 22:32:14:974,0,5.39511,-2.14449,-39.048
2023-03-11 22:32:14:984,0,5.42348,-2.18615,-39.0643
2023-03-11 22:32:14:994,0,5.44511,-2.22428,-39.0838
2023-03-11 22:32:15:4,0,5.46742,-2.26224,-39.1075
2023-03-11 22:32:15:14,0,5.4848,-2.29307,-39.1335
2023-03-11 22:32:15:24,0,5.50101,-2.31492,-39.17
2023-03-11 22:32:15:34,0,5.51615,-2.32848,-39.2128
2023-03-11 22:32:15:44,0,5.52491,-2.33856,-39.2626
2023-03-11 22:32:15:54,0,5.52704,-2.34589,-39.3175
2023-03-11 22:32:15:64,0,5.51969,-2.35181,-39.378
2023-03-11 22:32:15:74,0,5.50689,-2.36345,-39.4457
2023-03-11 22:32:15:84,0,5.48589,-2.37927,-39.5195
2023-03-11 22:32:15:94,0,5.46103,-2.3983,-39.5946
2023-03-11 22:32:15:104,0,5.43502,-2.42288,-39.6578
2023-03-11 22:32:15:114,0,5.40136,-2.46204,-39.712
2023-03-11 22:32:15:124,0,5.36208,-2.50664,-39.7637
2023-03-11 22:32:15:134,0,5.32421,-2.54585,-39.8165
2023-03-11 22:32:15:144,0,5.28552,-2.57747,-39.8796
2023-03-11 22:32:15:154,0,5.25361,-2.59273,-39.9442
2023-03-11 22:32:15:164,0,5.22225,-2.59404,-40.0044
2023-03-11 22:32:15:174,0,5.18955,-2.58965,-40.0573
2023-03-11 22:32:15:184,0,5.15309,-2.58314,-40.0936
2023-03-11 22:32:15:194,0,5.11278,-2.57683,-40.1162
2023-03-11 22:32:15:204,0,5.07178,-2.57026,-40.127
2023-03-11 22:32:15:214,0,5.02823,-2.56647,-40.1291
2023-03-11 22:32:15:224,0,4.99289,-2.55314,-40.1315
2023-03-11 22:32:15:234,0,4.96093,-2.53543,-40.1329
2023-03-11 22:32:15:244,0,4.93464,-2.5104,-40.1333
2023-03-11 22:32:15:254,0,4.90243,-2.47962,-40.1319
2023-03-11 22:32:15:264,0,4.86348,-2.44288,-40.1313
2023-03-11 22:32:15:274,0,4.82469,-2.41268,-40.1242
2023-03-11 22:32:15:284,0,4.78374,-2.39066,-40.1083
2023-03-11 22:32:15:294,0,4.74739,-2.37826,-40.0916
2023-03-11 22:32:15:304,0,4.71984,-2.36386,-40.0827
2023-03-11 22:32:15:314,0,4.69251,-2.34123,-40.081
2023-03-11 22:32:15:324,0,4.67282,-2.31328,-40.0749
2023-03-11 22:32:15:334,0,4.65869,-2.28467,-40.0666
2023-03-11 22:32:15:344,0,4.64518,-2.25496,-40.0513
2023-03-11 22:32:15:354,0,4.633,-2.22535,-40.0276
2023-03-11 22:32:15:364,0,4.62382,-2.20118,-39.9973
2023-03-11 22:32:15:374,0,4.6256,-2.1824,-39.9679
2023-03-11 22:32:15:384,0,4.63271,-2.15452,-39.9436
2023-03-11 22:32:15:394,0,4.63966,-2.12272,-39.9281
2023-03-11 22:32:15:404,0,4.64564,-2.08868,-39.9177
2023-03-11 22:32:15:414,0,4.64522,-2.05202,-39.9107
2023-03-11 22:32:15:424,0,4.64325,-2.02589,-39.8975
2023-03-11 22:32:15:434,0,4.64034,-2.01646,-39.8822
2023-03-11 22:32:15:444,0,4.64298,-2.02484,-39.8676
2023-03-11 22:32:15:454,0,4.65363,-2.04979,-39.8597
2023-03-11 22:32:15:464,0,4.67571,-2.07982,-39.869
2023-03-11 22:32:15:474,0,4.70714,-2.10694,-39.8973
2023-03-11 22:32:15:484,0,4.74518,-2.12385,-39.9357
2023-03-11 22:32:15:494,0,4.78577,-2.13099,-39.9741
2023-03-11 22:32:15:504,0,4.82076,-2.13704,-39.9995
2023-03-11 22:32:15:514,0,4.85117,-2.14473,-40.0068
2023-03-11 22:32:15:524,0,4.87614,-2.15869,-39.9899
2023-03-11 22:32:15:534,0,4.89783,-2.18556,-39.9532
2023-03-11 22:32:15:544,0,4.91864,-2.21162,-39.9072
2023-03-11 22:32:15:554,0,4.94195,-2.23751,-39.8585
2023-03-11 22:32:15:564,0,4.96311,-2.25374,-39.8016
2023-03-11 22:32:15:574,0,4.97717,-2.27891,-39.7331
2023-03-11 22:32:15:584,0,4.9868,-2.30762,-39.6496
2023-03-11 22:32:15:594,0,4.99557,-2.34518,-39.5657
2023-03-11 22:32:15:604,0,5.00829,-2.37874,-39.4914
2023-03-11 22:32:15:614,0,5.01845,-2.40796,-39.4198
2023-03-11 22:32:15:624,0,5.02901,-2.43168,-39.3586
2023-03-11 22:32:15:634,0,5.03868,-2.45309,-39.3053
2023-03-11 22:32:15:644,0,5.05091,-2.47636,-39.2534
2023-03-11 22:32:15:654,0,5.07199,-2.50361,-39.2015
2023-03-11 22:32:15:664,0,5.10005,-2.53318,-39.1539
2023-03-11 22:32:15:674,0,5.13306,-2.56802,-39.1186
2023-03-11 22:32:15:684,0,5.16987,-2.59931,-39.0946
2023-03-11 22:32:15:694,0,5.20235,-2.62733,-39.0725
2023-03-11 22:32:15:704,0,5.23872,-2.64765,-39.0563
2023-03-11 22:32:15:714,0,5.26802,-2.66526,-39.0361
2023-03-11 22:32:15:724,0,5.29252,-2.68478,-39.0103
2023-03-11 22:32:15:734,0,5.31262,-2.709,-38.9799
2023-03-11 22:32:15:744,0,5.33481,-2.74337,-38.9487
2023-03-11 22:32:15:754,0,5.3628,-2.77573,-38.9167
2023-03-11 22:32:15:764,0,5.40242,-2.81013,-38.8883
2023-03-11 22:32:15:774,0,5.44939,-2.84135,-38.8614
2023-03-11 22:32:15:784,0,5.4958,-2.87608,-38.8308
2023-03-11 22:32:15:794,0,5.54394,-2.91563,-38.7933
2023-03-11 22:32:15:804,0,5.5844,-2.96151,-38.749
2023-03-11 22:32:15:814,0,5.62093,-3.00749,-38.7027
2023-03-11 22:32:15:824,0,5.6636,-3.06097,-38.6486
2023-03-11 22:32:15:834,0,5.70588,-3.11819,-38.5887
2023-03-11 22:32:15:844,0,5.75893,-3.17274,-38.529
2023-03-11 22:32:15:854,0,5.81911,-3.22595,-38.4651
2023-03-11 22:32:15:864,0,5.883,-3.26554,-38.4038
2023-03-11 22:32:15:874,0,5.94121,-3.29907,-38.3351
2023-03-11 22:32:15:884,0,5.99231,-3.32189,-38.2624
2023-03-11 22:32:15:894,0,6.03491,-3.33553,-38.1911
2023-03-11 22:32:15:904,0,6.0613,-3.33621,-38.1105
2023-03-11 22:32:15:914,0,6.07123,-3.32941,-38.0195
2023-03-11 22:32:15:924,0,6.06721,-3.31225,-37.9186
2023-03-11 22:32:15:934,0,6.05455,-3.29196,-37.8048
2023-03-11 22:32:15:944,0,6.03867,-3.26819,-37.6834
2023-03-11 22:32:15:954,0,6.03296,-3.23996,-37.5686
2023-03-11 22:32:15:964,0,6.03461,-3.20884,-37.4591
2023-03-11 22:32:15:974,0,6.04409,-3.17806,-37.3446
2023-03-11 22:32:15:984,0,6.05422,-3.14607,-37.2356
2023-03-11 22:32:15:994,0,6.05998,-3.11675,-37.1321
2023-03-11 22:32:16:4,0,6.05508,-3.0906,-37.035
2023-03-11 22:32:16:14,0,6.0439,-3.06666,-36.9477
2023-03-11 22:32:16:24,0,6.03387,-3.04192,-36.8684
2023-03-11 22:32:16:34,0,6.0194,-3.01874,-36.8021
2023-03-11 22:32:16:44,0,6.01046,-2.99971,-36.7416
2023-03-11 22:32:16:54,0,6.01169,-2.98819,-36.6911
2023-03-11 22:32:16:64,0,6.02818,-2.98454,-36.6462
2023-03-11 22:32:16:74,0,6.06349,-2.98906,-36.6084
2023-03-11 22:32:16:84,0,6.11147,-3.00186,-36.5791
2023-03-11 22:32:16:94,0,6.17286,-3.02111,-36.5506
2023-03-11 22:32:16:104,0,6.23335,-3.04286,-36.5249
2023-03-11 22:32:16:114,0,6.29634,-3.06546,-36.4987
2023-03-11 22:32:16:124,0,6.35581,-3.07835,-36.4668
2023-03-11 22:32:16:134,0,6.40549,-3.08882,-36.4256
2023-03-11 22:32:16:144,0,6.44909,-3.09427,-36.371
2023-03-11 22:32:16:154,0,6.49165,-3.10174,-36.3086
2023-03-11 22:32:16:164,0,6.53543,-3.10535,-36.2417
2023-03-11 22:32:16:174,0,6.58189,-3.11009,-36.1703
2023-03-11 22:32:16:184,0,6.63026,-3.11558,-36.0976
2023-03-11 22:32:16:194,0,6.67882,-3.12639,-36.0147
2023-03-11 22:32:16:204,0,6.7215,-3.14179,-35.9191
2023-03-11 22:32:16:214,0,6.75315,-3.16232,-35.8279
2023-03-11 22:32:16:224,0,6.78251,-3.17858,-35.7408
2023-03-11 22:32:16:234,0,6.80455,-3.1841,-35.6601
2023-03-11 22:32:16:244,0,6.81828,-3.18149,-35.5862
2023-03-11 22:32:16:254,0,6.82981,-3.16947,-35.5172
2023-03-11 22:32:16:264,0,6.83942,-3.15499,-35.4421
2023-03-11 22:32:16:274,0,6.84308,-3.13514,-35.3565
2023-03-11 22:32:16:284,0,6.83723,-3.11815,-35.2668
2023-03-11 22:32:16:294,0,6.82248,-3.09699,-35.1747
2023-03-11 22:32:16:304,0,6.79463,-3.07554,-35.0782
2023-03-11 22:32:16:314,0,6.75992,-3.05726,-34.976
2023-03-11 22:32:16:324,0,6.72137,-3.04487,-34.8777
2023-03-11 22:32:16:334,0,6.67823,-3.02641,-34.792
2023-03-11 22:32:16:344,0,6.64397,-3.01604,-34.7154
2023-03-11 22:32:16:354,0,6.61864,-3.00707,-34.644
2023-03-11 22:32:16:364,0,6.6086,-3.0047,-34.5846
2023-03-11 22:32:16:374,0,6.60596,-3.0045,-34.5425
2023-03-11 22:32:16:384,0,6.61581,-3.00757,-34.5138
2023-03-11 22:32:16:394,0,6.63596,-3.0042,-34.5058
2023-03-11 22:32:16:404,0,6.65749,-2.99524,-34.5176
2023-03-11 22:32:16:414,0,6.68549,-2.98456,-34.5458
2023-03-11 22:32:16:424,0,6.71429,-2.96718,-34.585
2023-03-11 22:32:16:434,0,6.74119,-2.94953,-34.6365
2023-03-11 22:32:16:444,0,6.77071,-2.93124,-34.6922
2023-03-11 22:32:16:454,0,6.80098,-2.9127,-34.7479
2023-03-11 22:32:16:464,0,6.83191,-2.89615,-34.8052
2023-03-11 22:32:16:474,0,6.859,-2.88155,-34.8476
2023-03-11 22:32:16:484,0,6.88624,-2.86767,-34.8774
2023-03-11 22:32:16:494,0,6.91512,-2.85628,-34.8996
2023-03-11 22:32:16:504,0,6.94306,-2.845,-34.9165
2023-03-11 22:32:16:514,0,6.97755,-2.83151,-34.9259
2023-03-11 22:32:16:524,0,7.01768,-2.81556,-34.9303
2023-03-11 22:32:16:534,0,7.06283,-2.79825,-34.9241
2023-03-11 22:32:16:544,0,7.10677,-2.78651,-34.906
2023-03-11 22:32:16:554,0,7.15012,-2.78366,-34.8729
2023-03-11 22:32:16:564,0,7.19833,-2.78956,-34.8339
2023-03-11 22:32:16:574,0,7.24601,-2.7969,-34.7911
2023-03-11 22:32:16:584,0,7.29867,-2.8097,-34.7472
2023-03-11 22:32:16:594,0,7.34783,-2.82172,-34.6999
2023-03-11 22:32:16:604,0,7.39461,-2.82356,-34.6605
2023-03-11 22:32:16:614,0,7.44559,-2.82776,-34.6175
2023-03-11 22:32:16:624,0,7.49544,-2.83122,-34.5662
2023-03-11 22:32:16:634,0,7.53954,-2.84087,-34.5118
2023-03-11 22:32:16:644,0,7.57567,-2.84422,-34.4519
2023-03-11 22:32:16:654,0,7.60245,-2.84789,-34.382
2023-03-11 22:32:16:664,0,7.61902,-2.85377,-34.3045
2023-03-11 22:32:16:674,0,7.62081,-2.85271,-34.2278
2023-03-11 22:32:16:684,0,7.6145,-2.84678,-34.1454
2023-03-11 22:32:16:694,0,7.60553,-2.83923,-34.06
2023-03-11 22:32:16:704,0,7.59654,-2.83746,-33.9698
2023-03-11 22:32:16:714,0,7.58851,-2.83636,-33.8772
2023-03-11 22:32:16:724,0,7.57802,-2.83992,-33.7787
2023-03-11 22:32:16:734,0,7.5647,-2.8453,-33.6819
2023-03-11 22:32:16:744,0,7.54823,-2.84955,-33.5844
2023-03-11 22:32:16:754,0,7.53093,-2.8569,-33.4859
2023-03-11 22:32:16:764,0,7.51364,-2.86265,-33.3872
2023-03-11 22:32:16:774,0,7.49918,-2.87087,-33.2949
2023-03-11 22:32:16:784,0,7.48828,-2.88431,-33.2027
2023-03-11 22:32:16:794,0,7.48509,-2.90127,-33.1103
2023-03-11 22:32:16:804,0,7.48669,-2.91853,-33.0229
2023-03-11 22:32:16:814,0,7.49212,-2.94099,-32.9462
2023-03-11 22:32:16:824,0,7.49803,-2.96086,-32.8822
2023-03-11 22:32:16:834,0,7.50977,-2.97061,-32.8287
2023-03-11 22:32:16:844,0,7.5276,-2.98025,-32.7872
2023-03-11 22:32:16:854,0,7.54989,-2.99838,-32.7454
2023-03-11 22:32:16:864,0,7.57376,-3.02266,-32.7048
2023-03-11 22:32:16:874,0,7.59836,-3.04922,-32.6688
2023-03-11 22:32:16:884,0,7.61804,-3.07901,-32.6419
2023-03-11 22:32:16:894,0,7.63949,-3.10345,-32.6192
2023-03-11 22:32:16:904,0,7.66382,-3.12467,-32.5978
2023-03-11 22:32:16:914,0,7.69101,-3.14076,-32.5797
2023-03-11 22:32:16:924,0,7.71302,-3.15203,-32.5577
2023-03-11 22:32:16:934,0,7.73966,-3.16082,-32.5273
2023-03-11 22:32:16:944,0,7.75935,-3.17104,-32.4944
2023-03-11 22:32:16:954,0,7.77995,-3.17897,-32.4558
2023-03-11 22:32:16:964,0,7.79144,-3.17682,-32.4115
2023-03-11 22:32:16:974,0,7.79153,-3.17329,-32.3585
2023-03-11 22:32:16:984,0,7.7836,-3.16812,-32.2959
2023-03-11 22:32:16:994,0,7.76356,-3.16732,-32.2279
2023-03-11 22:32:17:4,0,7.74007,-3.16339,-32.1691
2023-03-11 22:32:17:14,0,7.72766,-3.149,-32.1291
2023-03-11 22:32:17:24,0,7.72932,-3.13217,-32.1013
2023-03-11 22:32:17:34,0,7.73328,-3.1189,-32.0809
2023-03-11 22:32:17:44,0,7.72984,-3.10754,-32.0663
2023-03-11 22:32:17:54,0,7.71767,-3.10004,-32.0582
2023-03-11 22:32:17:64,0,7.69378,-3.09499,-32.0473
2023-03-11 22:32:17:74,0,7.6575,-3.09536,-32.0359
2023-03-11 22:32:17:84,0,7.60977,-3.10212,-32.0233
2023-03-11 22:32:17:94,0,7.5582,-3.11133,-32.0103
2023-03-11 22:32:17:104,0,7.50276,-3.12294,-32.0054
2023-03-11 22:32:17:114,0,7.45356,-3.12862,-32.0058
2023-03-11 22:32:17:124,0,7.41634,-3.12704,-32.0189
2023-03-11 22:32:17:134,0,7.39537,-3.12127,-32.0433
2023-03-11 22:32:17:144,0,7.38851,-3.1035,-32.0795
2023-03-11 22:32:17:154,0,7.39902,-3.08035,-32.1239
2023-03-11 22:32:17:164,0,7.41827,-3.05089,-32.1734
2023-03-11 22:32:17:174,0,7.44353,-3.01519,-32.2313
2023-03-11 22:32:17:184,0,7.46662,-2.97613,-32.2856
2023-03-11 22:32:17:194,0,7.48587,-2.93908,-32.3437
2023-03-11 22:32:17:204,0,7.49856,-2.9051,-32.4092
2023-03-11 22:32:17:214,0,7.50145,-2.87694,-32.4741
2023-03-11 22:32:17:224,0,7.49716,-2.85102,-32.5375
2023-03-11 22:32:17:234,0,7.48538,-2.8287,-32.5975
2023-03-11 22:32:17:244,0,7.4677,-2.8119,-32.659
2023-03-11 22:32:17:254,0,7.4493,-2.79649,-32.7162
2023-03-11 22:32:17:264,0,7.42679,-2.79157,-32.7715
2023-03-11 22:32:17:274,0,7.40225,-2.78583,-32.8158
2023-03-11 22:32:17:284,0,7.3845,-2.78454,-32.8506
2023-03-11 22:32:17:294,0,7.36708,-2.78361,-32.8792
2023-03-11 22:32:17:304,0,7.35009,-2.78702,-32.9007
2023-03-11 22:32:17:314,0,7.3355,-2.78981,-32.9138
2023-03-11 22:32:17:324,0,7.32253,-2.79325,-32.9228
2023-03-11 22:32:17:334,0,7.31181,-2.79767,-32.927
2023-03-11 22:32:17:344,0,7.31058,-2.80325,-32.926
2023-03-11 22:32:17:354,0,7.30718,-2.80781,-32.9182
2023-03-11 22:32:17:364,0,7.3054,-2.81126,-32.9068
2023-03-11 22:32:17:374,0,7.30472,-2.81533,-32.8949
2023-03-11 22:32:17:384,0,7.30393,-2.8195,-32.8765
2023-03-11 22:32:17:394,0,7.30311,-2.83408,-32.8494
2023-03-11 22:32:17:404,0,7.30141,-2.84835,-32.8224
2023-03-11 22:32:17:414,0,7.2964,-2.86549,-32.7948
2023-03-11 22:32:17:424,0,7.28666,-2.88308,-32.7673
2023-03-11 22:32:17:434,0,7.27092,-2.89469,-32.7427
2023-03-11 22:32:17:444,0,7.25315,-2.90587,-32.7199
2023-03-11 22:32:17:454,0,7.24192,-2.91559,-32.6986
2023-03-11 22:32:17:464,0,7.22613,-2.92556,-32.6762
2023-03-11 22:32:17:474,0,7.21302,-2.93326,-32.6513
2023-03-11 22:32:17:484,0,7.19817,-2.9417,-32.6228
2023-03-11 22:32:17:494,0,7.18701,-2.94865,-32.5959
2023-03-11 22:32:17:504,0,7.17825,-2.95595,-32.5647
2023-03-11 22:32:17:514,0,7.16701,-2.96183,-32.5358
2023-03-11 22:32:17:524,0,7.15648,-2.96633,-32.5086
2023-03-11 22:32:17:534,0,7.14467,-2.96496,-32.4847
2023-03-11 22:32:17:544,0,7.13277,-2.96321,-32.4651
2023-03-11 22:32:17:554,0,7.11866,-2.9601,-32.4455
2023-03-11 22:32:17:564,0,7.1065,-2.95515,-32.429
2023-03-11 22:32:17:574,0,7.09405,-2.95292,-32.4141
2023-03-11 22:32:17:584,0,7.07498,-2.94863,-32.3998
2023-03-11 22:32:17:594,0,7.05169,-2.94334,-32.3883
2023-03-11 22:32:17:604,0,7.03014,-2.9357,-32.3793
2023-03-11 22:32:17:614,0,7.00578,-2.92544,-32.365
2023-03-11 22:32:17:624,0,6.98482,-2.91677,-32.3455
2023-03-11 22:32:17:634,0,6.96465,-2.91647,-32.3216
2023-03-11 22:32:17:644,0,6.94813,-2.91963,-32.2955
2023-03-11 22:32:17:654,0,6.93202,-2.92523,-32.2673
2023-03-11 22:32:17:664,0,6.91955,-2.93149,-32.2418
2023-03-11 22:32:17:674,0,6.90529,-2.93479,-32.2119
2023-03-11 22:32:17:684,0,6.89344,-2.93706,-32.1843
2023-03-11 22:32:17:694,0,6.88335,-2.9399,-32.1567
2023-03-11 22:32:17:704,0,6.87655,-2.94877,-32.1277
2023-03-11 22:32:17:714,0,6.87136,-2.95495,-32.1019
2023-03-11 22:32:17:724,0,6.87187,-2.96211,-32.0802
2023-03-11 22:32:17:734,0,6.87145,-2.97069,-32.0568
2023-03-11 22:32:17:744,0,6.87084,-2.97162,-32.0394
2023-03-11 22:32:17:754,0,6.87248,-2.97523,-32.0225
2023-03-11 22:32:17:764,0,6.87588,-2.98004,-32.0018
2023-03-11 22:32:17:774,0,6.87655,-2.98923,-31.9837
2023-03-11 22:32:17:784,0,6.87376,-2.99719,-31.9644
2023-03-11 22:32:17:794,0,6.86865,-3.00458,-31.945
2023-03-11 22:32:17:804,0,6.85883,-3.01137,-31.9286
2023-03-11 22:32:17:814,0,6.84965,-3.01866,-31.9071
2023-03-11 22:32:17:824,0,6.83825,-3.02057,-31.8838
2023-03-11 22:32:17:834,0,6.82898,-3.02473,-31.8616
2023-03-11 22:32:17:844,0,6.81807,-3.02637,-31.8375
2023-03-11 22:32:17:854,0,6.80717,-3.02803,-31.8137
2023-03-11 22:32:17:864,0,6.79682,-3.02755,-31.7863
2023-03-11 22:32:17:874,0,6.78951,-3.02767,-31.7648
2023-03-11 22:32:17:884,0,6.77784,-3.02827,-31.7387
2023-03-11 22:32:17:894,0,6.76674,-3.02825,-31.7105
2023-03-11 22:32:17:904,0,6.75783,-3.02777,-31.6864
2023-03-11 22:32:17:914,0,6.74728,-3.02667,-31.6591
2023-03-11 22:32:17:924,0,6.73533,-3.02388,-31.6338
2023-03-11 22:32:17:934,0,6.71947,-3.02013,-31.6095
2023-03-11 22:32:17:944,0,6.70257,-3.01678,-31.5876
2023-03-11 22:32:17:954,0,6.68342,-3.01535,-31.5653
2023-03-11 22:32:17:964,0,6.66075,-3.01411,-31.5508
2023-03-11 22:32:17:974,0,6.64333,-3.0088,-31.5426
2023-03-11 22:32:17:984,0,6.63093,-3.00729,-31.5335
2023-03-11 22:32:17:994,0,6.62605,-3.00786,-31.531
2023-03-11 22:32:18:4,0,6.623,-3.00644,-31.5343
2023-03-11 22:32:18:14,0,6.62717,-3.00786,-31.5486
2023-03-11 22:32:18:24,0,6.63229,-3.00231,-31.5641
2023-03-11 22:32:18:34,0,6.63355,-2.99929,-31.5798
2023-03-11 22:32:18:44,0,6.63148,-2.99117,-31.6031
2023-03-11 22:32:18:54,0,6.63068,-2.98018,-31.6289
2023-03-11 22:32:18:64,0,6.63606,-2.97081,-31.6546
2023-03-11 22:32:18:74,0,6.64728,-2.96203,-31.68
2023-03-11 22:32:18:84,0,6.66824,-2.95405,-31.6952
2023-03-11 22:32:18:94,0,6.69698,-2.95174,-31.7074
2023-03-11 22:32:18:104,0,6.72991,-2.9452,-31.7135
2023-03-11 22:32:18:114,0,6.7619,-2.94277,-31.7135
2023-03-11 22:32:18:124,0,6.80241,-2.93897,-31.7093
2023-03-11 22:32:18:134,0,6.84839,-2.931,-31.6944
2023-03-11 22:32:18:144,0,6.89068,-2.9344,-31.6705
2023-03-11 22:32:18:154,0,6.92188,-2.94382,-31.6368
2023-03-11 22:32:18:164,0,6.9406,-2.95696,-31.6029
2023-03-11 22:32:18:174,0,6.95055,-2.9689,-31.5711
2023-03-11 22:32:18:184,0,6.95475,-2.98169,-31.5432
2023-03-11 22:32:18:194,0,6.9549,-2.99243,-31.5179
2023-03-11 22:32:18:204,0,6.94968,-3.0038,-31.4931
2023-03-11 22:32:18:214,0,6.94643,-3.01246,-31.4648
2023-03-11 22:32:18:224,0,6.94638,-3.02671,-31.4405
2023-03-11 22:32:18:234,0,6.95181,-3.04112,-31.4107
2023-03-11 22:32:18:244,0,6.96079,-3.04877,-31.3815
2023-03-11 22:32:18:254,0,6.96657,-3.05767,-31.3551
2023-03-11 22:32:18:264,0,6.97149,-3.06568,-31.3265
2023-03-11 22:32:18:274,0,6.97639,-3.06637,-31.2961
2023-03-11 22:32:18:284,0,6.97752,-3.06558,-31.2654
2023-03-11 22:32:18:294,0,6.97378,-3.06386,-31.2371
2023-03-11 22:32:18:304,0,6.96785,-3.06165,-31.2072
2023-03-11 22:32:18:314,0,6.95546,-3.05199,-31.1813
2023-03-11 22:32:18:324,0,6.94201,-3.04426,-31.1549
2023-03-11 22:32:18:334,0,6.92928,-3.03673,-31.1286
2023-03-11 22:32:18:344,0,6.91167,-3.0293,-31.1033
2023-03-11 22:32:18:354,0,6.89576,-3.0159,-31.0834
2023-03-11 22:32:18:364,0,6.88055,-3.00666,-31.0678
2023-03-11 22:32:18:374,0,6.86629,-3.0001,-31.0479
2023-03-11 22:32:18:384,0,6.8533,-2.99726,-31.03
2023-03-11 22:32:18:394,0,6.84233,-3.00211,-31.0115
2023-03-11 22:32:18:404,0,6.83582,-3.00625,-30.992
2023-03-11 22:32:18:414,0,6.83278,-3.01049,-30.9768
2023-03-11 22:32:18:424,0,6.83436,-3.0162,-30.9608
2023-03-11 22:32:18:434,0,6.83661,-3.02457,-30.948
2023-03-11 22:32:18:444,0,6.84445,-3.02665,-30.9344
2023-03-11 22:32:18:454,0,6.85105,-3.03057,-30.9186
2023-03-11 22:32:18:464,0,6.86372,-3.03227,-30.899
2023-03-11 22:32:18:474,0,6.877,-3.03454,-30.8764
2023-03-11 22:32:18:484,0,6.88956,-3.03659,-30.8518
2023-03-11 22:32:18:494,0,6.89687,-3.03991,-30.834
2023-03-11 22:32:18:504,0,6.89947,-3.04463,-30.8139
2023-03-11 22:32:18:514,0,6.90371,-3.0504,-30.7949
2023-03-11 22:32:18:524,0,6.90515,-3.05616,-30.7797
2023-03-11 22:32:18:534,0,6.90567,-3.06474,-30.7632
2023-03-11 22:32:18:544,0,6.90125,-3.07248,-30.7512
2023-03-11 22:32:18:554,0,6.89456,-3.08077,-30.7338
2023-03-11 22:32:18:564,0,6.88606,-3.086,-30.7157
2023-03-11 22:32:18:574,0,6.88006,-3.09073,-30.6954
2023-03-11 22:32:18:584,0,6.87246,-3.09496,-30.6747
2023-03-11 22:32:18:594,0,6.86349,-3.09373,-30.6539
2023-03-11 22:32:18:604,0,6.85415,-3.09181,-30.6334
2023-03-11 22:32:18:614,0,6.84178,-3.09119,-30.6145
2023-03-11 22:32:18:624,0,6.82625,-3.08764,-30.5949
2023-03-11 22:32:18:634,0,6.81341,-3.08482,-30.5798
2023-03-11 22:32:18:644,0,6.80172,-3.0811,-30.5641
2023-03-11 22:32:18:654,0,6.78781,-3.0788,-30.5561
2023-03-11 22:32:18:664,0,6.77667,-3.07345,-30.5506
2023-03-11 22:32:18:674,0,6.76632,-3.07009,-30.548
2023-03-11 22:32:18:684,0,6.7587,-3.06369,-30.5483
2023-03-11 22:32:18:694,0,6.75528,-3.06231,-30.5479
2023-03-11 22:32:18:704,0,6.75137,-3.05841,-30.545
2023-03-11 22:32:18:714,0,6.74777,-3.05331,-30.5395
2023-03-11 22:32:18:724,0,6.74179,-3.04983,-30.5343
2023-03-11 22:32:18:734,0,6.74123,-3.04779,-30.5282
2023-03-11 22:32:18:744,0,6.73227,-3.04663,-30.5175
2023-03-11 22:32:18:754,0,6.72644,-3.04763,-30.5105
2023-03-11 22:32:18:764,0,6.72012,-3.0488,-30.4977
2023-03-11 22:32:18:774,0,6.71469,-3.04946,-30.4863
2023-03-11 22:32:18:784,0,6.70679,-3.04624,-30.4741
2023-03-11 22:32:18:794,0,6.7019,-3.0462,-30.4595
2023-03-11 22:32:18:804,0,6.6916,-3.04715,-30.4456
2023-03-11 22:32:18:814,0,6.68566,-3.04727,-30.4326
2023-03-11 22:32:18:824,0,6.68117,-3.04459,-30.4218
2023-03-11 22:32:18:834,0,6.67664,-3.04286,-30.4155
2023-03-11 22:32:18:844,0,6.67117,-3.03662,-30.4121
2023-03-11 22:32:18:854,0,6.66518,-3.0311,-30.407
2023-03-11 22:32:18:864,0,6.65853,-3.02676,-30.4032
2023-03-11 22:32:18:874,0,6.65011,-3.02195,-30.397
2023-03-11 22:32:18:884,0,6.63788,-3.01923,-30.3953
2023-03-11 22:32:18:894,0,6.62404,-3.01899,-30.3927
2023-03-11 22:32:18:904,0,6.60791,-3.0284,-30.3836
2023-03-11 22:32:18:914,0,6.59576,-3.04208,-30.3737
2023-03-11 22:32:18:924,0,6.5832,-3.05357,-30.3657
2023-03-11 22:32:18:934,0,6.57463,-3.06498,-30.3558
2023-03-11 22:32:18:944,0,6.56257,-3.07815,-30.3466
2023-03-11 22:32:18:954,0,6.55011,-3.08876,-30.3319
2023-03-11 22:32:18:964,0,6.54037,-3.09523,-30.3205
2023-03-11 22:32:18:974,0,6.52856,-3.10215,-30.3044
2023-03-11 22:32:18:984,0,6.52128,-3.11307,-30.2851
2023-03-11 22:32:18:994,0,6.51459,-3.12083,-30.2675
2023-03-11 22:32:19:4,0,6.50937,-3.12935,-30.2501
2023-03-11 22:32:19:14,0,6.50765,-3.13463,-30.2338
2023-03-11 22:32:19:24,0,6.50259,-3.1393,-30.2199
2023-03-11 22:32:19:34,0,6.4993,-3.14136,-30.2076
2023-03-11 22:32:19:44,0,6.4929,-3.14651,-30.1994
2023-03-11 22:32:19:54,0,6.48565,-3.15141,-30.1957
2023-03-11 22:32:19:64,0,6.47204,-3.15449,-30.1927
2023-03-11 22:32:19:74,0,6.45736,-3.15766,-30.1896
2023-03-11 22:32:19:84,0,6.44492,-3.16354,-30.1867
2023-03-11 22:32:19:94,0,6.43516,-3.17133,-30.1865
2023-03-11 22:32:19:104,0,6.42849,-3.17025,-30.1901
2023-03-11 22:32:19:114,0,6.42418,-3.17203,-30.2019
2023-03-11 22:32:19:124,0,6.42318,-3.17886,-30.2097
2023-03-11 22:32:19:134,0,6.42286,-3.19289,-30.2159
2023-03-11 22:32:19:144,0,6.42324,-3.21396,-30.2184
2023-03-11 22:32:19:154,0,6.41628,-3.241,-30.2179
2023-03-11 22:32:19:164,0,6.40596,-3.27332,-30.2144
2023-03-11 22:32:19:174,0,6.40266,-3.30174,-30.2194
2023-03-11 22:32:19:184,0,6.40486,-3.32815,-30.2323
2023-03-11 22:32:19:194,0,6.41163,-3.35051,-30.2414
2023-03-11 22:32:19:204,0,6.42085,-3.36947,-30.2489
2023-03-11 22:32:19:214,0,6.42846,-3.39128,-30.262
2023-03-11 22:32:19:224,0,6.43656,-3.40775,-30.2809
2023-03-11 22:32:19:234,0,6.44512,-3.42336,-30.3066
2023-03-11 22:32:19:244,0,6.45304,-3.43694,-30.3369
2023-03-11 22:32:19:254,0,6.46018,-3.45604,-30.3629
2023-03-11 22:32:19:264,0,6.46073,-3.47523,-30.3803
2023-03-11 22:32:19:274,0,6.4621,-3.48798,-30.4032
2023-03-11 22:32:19:284,0,6.46131,-3.50235,-30.4233
2023-03-11 22:32:19:294,0,6.46023,-3.51474,-30.431
2023-03-11 22:32:19:304,0,6.45785,-3.52746,-30.4331
2023-03-11 22:32:19:314,0,6.4556,-3.54476,-30.4276
2023-03-11 22:32:19:324,0,6.45426,-3.55645,-30.4268
2023-03-11 22:32:19:334,0,6.4553,-3.55981,-30.4283
2023-03-11 22:32:19:344,0,6.45744,-3.56462,-30.4227
2023-03-11 22:32:19:354,0,6.46271,-3.57679,-30.4072
2023-03-11 22:32:19:364,0,6.46676,-3.59035,-30.3935
2023-03-11 22:32:19:374,0,6.47214,-3.6007,-30.3908
2023-03-11 22:32:19:384,0,6.48031,-3.60743,-30.3943
2023-03-11 22:32:19:394,0,6.48877,-3.61278,-30.398
2023-03-11 22:32:19:404,0,6.49492,-3.62172,-30.3953
2023-03-11 22:32:19:414,0,6.50158,-3.62876,-30.3911
2023-03-11 22:32:19:424,0,6.50595,-3.63241,-30.3994
2023-03-11 22:32:19:434,0,6.50835,-3.63042,-30.415
2023-03-11 22:32:19:444,0,6.51246,-3.62777,-30.4312
2023-03-11 22:32:19:454,0,6.52205,-3.62813,-30.4481
2023-03-11 22:32:19:464,0,6.53145,-3.62821,-30.4685
2023-03-11 22:32:19:474,0,6.542,-3.6326,-30.491
2023-03-11 22:32:19:484,0,6.55363,-3.64266,-30.515
2023-03-11 22:32:19:494,0,6.56473,-3.65613,-30.538
2023-03-11 22:32:19:504,0,6.57202,-3.67272,-30.5612
2023-03-11 22:32:19:514,0,6.57153,-3.68702,-30.5815
2023-03-11 22:32:19:524,0,6.57106,-3.70441,-30.5925
2023-03-11 22:32:19:534,0,6.57033,-3.72316,-30.6061
2023-03-11 22:32:19:544,0,6.57415,-3.73791,-30.6212
2023-03-11 22:32:19:554,0,6.5812,-3.75472,-30.6319
2023-03-11 22:32:19:564,0,6.59376,-3.77037,-30.6353
2023-03-11 22:32:19:574,0,6.61046,-3.7863,-30.6344
2023-03-11 22:32:19:584,0,6.62637,-3.80707,-30.6327
2023-03-11 22:32:19:594,0,6.64564,-3.8243,-30.6278
2023-03-11 22:32:19:604,0,6.666,-3.84036,-30.6169
2023-03-11 22:32:19:614,0,6.68666,-3.85835,-30.6037
2023-03-11 22:32:19:624,0,6.70725,-3.87488,-30.5901
2023-03-11 22:32:19:634,0,6.72503,-3.88486,-30.5844
2023-03-11 22:32:19:644,0,6.73787,-3.89056,-30.5852
2023-03-11 22:32:19:654,0,6.75567,-3.89304,-30.5908
2023-03-11 22:32:19:664,0,6.77075,-3.90067,-30.5944
2023-03-11 22:32:19:674,0,6.78126,-3.91085,-30.5933
2023-03-11 22:32:19:684,0,6.79289,-3.92878,-30.583
2023-03-11 22:32:19:694,0,6.7949,-3.94746,-30.5765
2023-03-11 22:32:19:704,0,6.78907,-3.96498,-30.5657
2023-03-11 22:32:19:714,0,6.78413,-3.97155,-30.561
2023-03-11 22:32:19:724,0,6.77674,-3.97025,-30.5621
2023-03-11 22:32:19:734,0,6.77319,-3.96733,-30.557
2023-03-11 22:32:19:744,0,6.77254,-3.96841,-30.5399
2023-03-11 22:32:19:754,0,6.77329,-3.97519,-30.5194
2023-03-11 22:32:19:764,0,6.76815,-3.98063,-30.4994
2023-03-11 22:32:19:774,0,6.76211,-3.97815,-30.4807
2023-03-11 22:32:19:784,0,6.75378,-3.97363,-30.4598
2023-03-11 22:32:19:794,0,6.74556,-3.96937,-30.4308
2023-03-11 22:32:19:804,0,6.7337,-3.97125,-30.3957
2023-03-11 22:32:19:814,0,6.71495,-3.97619,-30.3657
2023-03-11 22:32:19:824,0,6.68915,-3.9791,-30.3428
2023-03-11 22:32:19:834,0,6.67072,-3.97118,-30.332
2023-03-11 22:32:19:844,0,6.65483,-3.95319,-30.3334
2023-03-11 22:32:19:854,0,6.6477,-3.92188,-30.3505
2023-03-11 22:32:19:864,0,6.65175,-3.88782,-30.3824
2023-03-11 22:32:19:874,0,6.65762,-3.85918,-30.4229
2023-03-11 22:32:19:884,0,6.6704,-3.83975,-30.4643
2023-03-11 22:32:19:894,0,6.68236,-3.83209,-30.5159
2023-03-11 22:32:19:904,0,6.69119,-3.83309,-30.5731
2023-03-11 22:32:19:914,0,6.70035,-3.83469,-30.6473
2023-03-11 22:32:19:924,0,6.70786,-3.83944,-30.7356
2023-03-11 22:32:19:934,0,6.71542,-3.8392,-30.8374
2023-03-11 22:32:19:944,0,6.72526,-3.84444,-30.9485
2023-03-11 22:32:19:954,0,6.73649,-3.85378,-31.0634
2023-03-11 22:32:19:964,0,6.75772,-3.86251,-31.1873
2023-03-11 22:32:19:974,0,6.78339,-3.87292,-31.3156
2023-03-11 22:32:19:984,0,6.81233,-3.88241,-31.4434
2023-03-11 22:32:19:994,0,6.84176,-3.89217,-31.5722
2023-03-11 22:32:20:4,0,6.87493,-3.89803,-31.7033
2023-03-11 22:32:20:14,0,6.90653,-3.90392,-31.832
2023-03-11 22:32:20:24,0,6.93557,-3.91114,-31.9562
2023-03-11 22:32:20:34,0,6.96335,-3.91817,-32.0757
2023-03-11 22:32:20:44,0,6.992,-3.92697,-32.1894
2023-03-11 22:32:20:54,0,7.01657,-3.93507,-32.2956
2023-03-11 22:32:20:64,0,7.03908,-3.94114,-32.4003
2023-03-11 22:32:20:74,0,7.05666,-3.94797,-32.4978
2023-03-11 22:32:20:84,0,7.07219,-3.95215,-32.5892
2023-03-11 22:32:20:94,0,7.08461,-3.95808,-32.6741
2023-03-11 22:32:20:104,0,7.09976,-3.96808,-32.7483
2023-03-11 22:32:20:114,0,7.11607,-3.97698,-32.8147
2023-03-11 22:32:20:124,0,7.13522,-3.98639,-32.8745
2023-03-11 22:32:20:134,0,7.15923,-4.00264,-32.9272
2023-03-11 22:32:20:144,0,7.17859,-4.01454,-32.9878
2023-03-11 22:32:20:154,0,7.20049,-4.02407,-33.0575
2023-03-11 22:32:20:164,0,7.22206,-4.02748,-33.1287
2023-03-11 22:32:20:174,0,7.24249,-4.03056,-33.2019
2023-03-11 22:32:20:184,0,7.2627,-4.03555,-33.2784
2023-03-11 22:32:20:194,0,7.27987,-4.04246,-33.3602
2023-03-11 22:32:20:204,0,7.29306,-4.05472,-33.4596
2023-03-11 22:32:20:214,0,7.3022,-4.05538,-33.597
2023-03-11 22:32:20:224,0,7.30512,-4.03553,-33.7877
2023-03-11 22:32:20:234,0,7.30835,-3.99168,-34.0235
2023-03-11 22:32:20:244,0,7.31482,-3.93895,-34.2798
2023-03-11 22:32:20:254,0,7.32815,-3.89385,-34.5415
2023-03-11 22:32:20:264,0,7.34125,-3.87088,-34.8051
2023-03-11 22:32:20:274,0,7.3601,-3.8677,-35.0796
2023-03-11 22:32:20:284,0,7.37934,-3.87736,-35.364
2023-03-11 22:32:20:294,0,7.39947,-3.88845,-35.6601
2023-03-11 22:32:20:304,0,7.41501,-3.89904,-35.9638
2023-03-11 22:32:20:314,0,7.42434,-3.9034,-36.2741
2023-03-11 22:32:20:324,0,7.42959,-3.90466,-36.5816
2023-03-11 22:32:20:334,0,7.42896,-3.90471,-36.8838
2023-03-11 22:32:20:344,0,7.41983,-3.90345,-37.1783
2023-03-11 22:32:20:354,0,7.40528,-3.90018,-37.4598
2023-03-11 22:32:20:364,0,7.38606,-3.9011,-37.7296
2023-03-11 22:32:20:374,0,7.36009,-3.90082,-37.99
2023-03-11 22:32:20:384,0,7.33181,-3.90152,-38.2317
2023-03-11 22:32:20:394,0,7.30143,-3.909,-38.4532
2023-03-11 22:32:20:404,0,7.26605,-3.91748,-38.6507
2023-03-11 22:32:20:414,0,7.22269,-3.93075,-38.8391
2023-03-11 22:32:20:424,0,7.1711,-3.93992,-39.0181
2023-03-11 22:32:20:434,0,7.112,-3.94303,-39.1905
2023-03-11 22:32:20:444,0,7.05358,-3.94096,-39.357
2023-03-11 22:32:20:454,0,6.99368,-3.9349,-39.5197
2023-03-11 22:32:20:464,0,6.94,-3.93344,-39.6755
2023-03-11 22:32:20:474,0,6.88777,-3.92957,-39.8237
2023-03-11 22:32:20:484,0,6.83682,-3.9291,-39.9683
2023-03-11 22:32:20:494,0,6.79019,-3.93038,-40.1064
2023-03-11 22:32:20:504,0,6.74563,-3.93683,-40.2391
2023-03-11 22:32:20:514,0,6.70466,-3.9477,-40.3632
2023-03-11 22:32:20:524,0,6.66529,-3.95788,-40.4801
2023-03-11 22:32:20:534,0,6.62545,-3.96631,-40.5885
2023-03-11 22:32:20:544,0,6.58171,-3.97491,-40.6998
2023-03-11 22:32:20:554,0,6.53905,-3.98205,-40.8143
2023-03-11 22:32:20:564,0,6.49631,-3.98809,-40.9269
2023-03-11 22:32:20:574,0,6.45195,-3.99981,-41.0331
2023-03-11 22:32:20:584,0,6.40358,-4.01191,-41.1361
2023-03-11 22:32:20:594,0,6.35869,-4.02505,-41.2435
2023-03-11 22:32:20:604,0,6.31407,-4.03539,-41.3473
2023-03-11 22:32:20:614,0,6.26678,-4.05025,-41.4451
2023-03-11 22:32:20:624,0,6.21718,-4.06174,-41.5384
2023-03-11 22:32:20:634,0,6.17073,-4.07726,-41.626
2023-03-11 22:32:20:644,0,6.12149,-4.08892,-41.7127
2023-03-11 22:32:20:654,0,6.07324,-4.09778,-41.796
2023-03-11 22:32:20:664,0,6.02796,-4.10609,-41.8709
2023-03-11 22:32:20:674,0,5.97634,-4.11343,-41.939
2023-03-11 22:32:20:684,0,5.92266,-4.11935,-42.0031
2023-03-11 22:32:20:694,0,5.8637,-4.12724,-42.0632
2023-03-11 22:32:20:704,0,5.80852,-4.13621,-42.1293
2023-03-11 22:32:20:714,0,5.75554,-4.14836,-42.2008
2023-03-11 22:32:20:724,0,5.70714,-4.15526,-42.2783
2023-03-11 22:32:20:734,0,5.66673,-4.15816,-42.3624
2023-03-11 22:32:20:744,0,5.63168,-4.15966,-42.449
2023-03-11 22:32:20:754,0,5.59967,-4.16273,-42.5356
2023-03-11 22:32:20:764,0,5.56835,-4.17081,-42.6226
2023-03-11 22:32:20:774,0,5.52902,-4.18779,-42.71
2023-03-11 22:32:20:784,0,5.4891,-4.2081,-42.8023
2023-03-11 22:32:20:794,0,5.44843,-4.22988,-42.8932
2023-03-11 22:32:20:804,0,5.4109,-4.25068,-42.9863
2023-03-11 22:32:20:814,0,5.37307,-4.26918,-43.0865
2023-03-11 22:32:20:824,0,5.33584,-4.2896,-43.1871
2023-03-11 22:32:20:834,0,5.30263,-4.31146,-43.289
2023-03-11 22:32:20:844,0,5.26421,-4.33498,-43.3855
2023-03-11 22:32:20:854,0,5.22904,-4.35262,-43.4857
2023-03-11 22:32:20:864,0,5.19752,-4.37667,-43.5794
2023-03-11 22:32:20:874,0,5.16782,-4.3959,-43.675
2023-03-11 22:32:20:884,0,5.13753,-4.41464,-43.7663
2023-03-11 22:32:20:894,0,5.11173,-4.43295,-43.8503
2023-03-11 22:32:20:904,0,5.08376,-4.44994,-43.9293
2023-03-11 22:32:20:914,0,5.05362,-4.46767,-43.9986
2023-03-11 22:32:20:924,0,5.02373,-4.48316,-44.0642
2023-03-11 22:32:20:934,0,4.98654,-4.50021,-44.1225
2023-03-11 22:32:20:944,0,4.95142,-4.51344,-44.1754
2023-03-11 22:32:20:954,0,4.91697,-4.52588,-44.2277
2023-03-11 22:32:20:964,0,4.88857,-4.53742,-44.2765
2023-03-11 22:32:20:974,0,4.85619,-4.55056,-44.3181
2023-03-11 22:32:20:984,0,4.8278,-4.56608,-44.3607
2023-03-11 22:32:20:994,0,4.79651,-4.5791,-44.4005
2023-03-11 22:32:21:4,0,4.76353,-4.58662,-44.4397
2023-03-11 22:32:21:14,0,4.73528,-4.59686,-44.4808
2023-03-11 22:32:21:24,0,4.70573,-4.60528,-44.5226
2023-03-11 22:32:21:34,0,4.67437,-4.60871,-44.5677
2023-03-11 22:32:21:44,0,4.64318,-4.61056,-44.6116
2023-03-11 22:32:21:54,0,4.61473,-4.61022,-44.6524
2023-03-11 22:32:21:64,0,4.58844,-4.60932,-44.6949
2023-03-11 22:32:21:74,0,4.56381,-4.60198,-44.7362
2023-03-11 22:32:21:84,0,4.53308,-4.6008,-44.7854
2023-03-11 22:32:21:94,0,4.50229,-4.59826,-44.8368
2023-03-11 22:32:21:104,0,4.47528,-4.59929,-44.8843
2023-03-11 22:32:21:114,0,4.45073,-4.60802,-44.9271
2023-03-11 22:32:21:124,0,4.42915,-4.62237,-44.9705
2023-03-11 22:32:21:134,0,4.4089,-4.63729,-45.014
2023-03-11 22:32:21:144,0,4.3944,-4.64897,-45.0593
2023-03-11 22:32:21:154,0,4.38231,-4.65162,-45.1037
2023-03-11 22:32:21:164,0,4.36832,-4.65397,-45.1388
2023-03-11 22:32:21:174,0,4.35841,-4.65356,-45.1682
2023-03-11 22:32:21:184,0,4.34685,-4.65456,-45.1924
2023-03-11 22:32:21:194,0,4.33931,-4.65625,-45.2161
2023-03-11 22:32:21:204,0,4.33436,-4.65456,-45.2409
2023-03-11 22:32:21:214,0,4.33382,-4.65529,-45.2712
2023-03-11 22:32:21:224,0,4.33644,-4.65323,-45.3049
2023-03-11 22:32:21:234,0,4.33588,-4.64992,-45.3385
2023-03-11 22:32:21:244,0,4.33682,-4.6526,-45.3773
2023-03-11 22:32:21:254,0,4.34031,-4.6559,-45.4191
2023-03-11 22:32:21:264,0,4.34126,-4.65635,-45.4576
2023-03-11 22:32:21:274,0,4.33468,-4.6594,-45.4991
2023-03-11 22:32:21:284,0,4.32086,-4.66669,-45.5389
2023-03-11 22:32:21:294,0,4.30586,-4.66931,-45.5755
2023-03-11 22:32:21:304,0,4.28445,-4.66981,-45.6114
2023-03-11 22:32:21:314,0,4.26777,-4.67203,-45.6533
2023-03-11 22:32:21:324,0,4.24851,-4.66997,-45.6923
2023-03-11 22:32:21:334,0,4.23562,-4.66896,-45.7295
2023-03-11 22:32:21:344,0,4.23139,-4.66928,-45.7644
2023-03-11 22:32:21:354,0,4.22649,-4.67276,-45.7947
2023-03-11 22:32:21:364,0,4.21733,-4.67509,-45.8238
2023-03-11 22:32:21:374,0,4.20865,-4.67411,-45.8527
2023-03-11 22:32:21:384,0,4.19765,-4.68123,-45.8817
2023-03-11 22:32:21:394,0,4.18753,-4.68721,-45.9068
2023-03-11 22:32:21:404,0,4.17872,-4.69545,-45.932
2023-03-11 22:32:21:414,0,4.17093,-4.69908,-45.9586
2023-03-11 22:32:21:424,0,4.16474,-4.7045,-45.9904
2023-03-11 22:32:21:434,0,4.16275,-4.70762,-46.0233
2023-03-11 22:32:21:444,0,4.16209,-4.71,-46.0573
2023-03-11 22:32:21:454,0,4.16047,-4.71554,-46.0889
2023-03-11 22:32:21:464,0,4.15889,-4.72212,-46.1206
2023-03-11 22:32:21:474,0,4.1602,-4.73313,-46.1548
2023-03-11 22:32:21:484,0,4.16194,-4.74133,-46.1855
2023-03-11 22:32:21:494,0,4.16588,-4.75191,-46.2126
2023-03-11 22:32:21:504,0,4.16625,-4.76392,-46.2404
2023-03-11 22:32:21:514,0,4.16666,-4.77461,-46.2692
2023-03-11 22:32:21:524,0,4.1642,-4.78556,-46.2994
2023-03-11 22:32:21:534,0,4.16627,-4.79842,-46.3282
2023-03-11 22:32:21:544,0,4.1654,-4.81316,-46.354
2023-03-11 22:32:21:554,0,4.16508,-4.82648,-46.3833
2023-03-11 22:32:21:564,0,4.1681,-4.8378,-46.4151
2023-03-11 22:32:21:574,0,4.17234,-4.84645,-46.4453
2023-03-11 22:32:21:584,0,4.17679,-4.85391,-46.4757
2023-03-11 22:32:21:594,0,4.18017,-4.8629,-46.5039
2023-03-11 22:32:21:604,0,4.18621,-4.86852,-46.5334
2023-03-11 22:32:21:614,0,4.19181,-4.87402,-46.5612
2023-03-11 22:32:21:624,0,4.19736,-4.87917,-46.5938
2023-03-11 22:32:21:634,0,4.20201,-4.88698,-46.6213
2023-03-11 22:32:21:644,0,4.21003,-4.8925,-46.6479
2023-03-11 22:32:21:654,0,4.21782,-4.89848,-46.674
2023-03-11 22:32:21:664,0,4.22523,-4.90537,-46.6975
2023-03-11 22:32:21:674,0,4.23424,-4.91412,-46.7225
2023-03-11 22:32:21:684,0,4.24364,-4.92403,-46.7445
2023-03-11 22:32:21:694,0,4.2517,-4.92773,-46.7701
2023-03-11 22:32:21:704,0,4.25807,-4.93591,-46.7885
2023-03-11 22:32:21:714,0,4.26453,-4.94217,-46.8085
2023-03-11 22:32:21:724,0,4.27048,-4.94671,-46.8252
2023-03-11 22:32:21:734,0,4.27388,-4.95419,-46.8403
2023-03-11 22:32:21:744,0,4.28191,-4.95893,-46.8567
2023-03-11 22:32:21:754,0,4.28769,-4.96291,-46.8739
2023-03-11 22:32:21:764,0,4.29478,-4.96723,-46.8875
2023-03-11 22:32:21:774,0,4.29746,-4.97375,-46.9014
2023-03-11 22:32:21:784,0,4.30044,-4.97961,-46.9138
2023-03-11 22:32:21:794,0,4.3016,-4.98207,-46.9319
2023-03-11 22:32:21:804,0,4.30134,-4.98566,-46.9466
2023-03-11 22:32:21:814,0,4.30163,-4.99293,-46.9605
2023-03-11 22:32:21:824,0,4.3005,-5.00419,-46.9696
2023-03-11 22:32:21:834,0,4.29948,-5.02118,-46.9742
2023-03-11 22:32:21:844,0,4.29718,-5.04344,-46.9783
2023-03-11 22:32:21:854,0,4.29435,-5.06486,-46.982
2023-03-11 22:32:21:864,0,4.28555,-5.08665,-46.9834
2023-03-11 22:32:21:874,0,4.27639,-5.10632,-46.981
2023-03-11 22:32:21:884,0,4.26769,-5.12526,-46.9787
2023-03-11 22:32:21:894,0,4.26138,-5.14711,-46.9763
2023-03-11 22:32:21:904,0,4.25682,-5.16698,-46.9714
2023-03-11 22:32:21:914,0,4.2522,-5.1759,-46.964
2023-03-11 22:32:21:924,0,4.25073,-5.18389,-46.9572
2023-03-11 22:32:21:934,0,4.24808,-5.19084,-46.9483
2023-03-11 22:32:21:944,0,4.24524,-5.19761,-46.9346
2023-03-11 22:32:21:954,0,4.23913,-5.20231,-46.9208
2023-03-11 22:32:21:964,0,4.2241,-5.2089,-46.903
2023-03-11 22:32:21:974,0,4.20473,-5.21302,-46.8883
2023-03-11 22:32:21:984,0,4.18608,-5.21904,-46.8732
2023-03-11 22:32:21:994,0,4.16551,-5.22657,-46.8533
2023-03-11 22:32:22:4,0,4.14345,-5.23044,-46.8397
2023-03-11 22:32:22:14,0,4.11992,-5.23243,-46.8336
2023-03-11 22:32:22:24,0,4.09282,-5.22842,-46.8326
2023-03-11 22:32:22:34,0,4.06746,-5.22382,-46.8367
2023-03-11 22:32:22:44,0,4.03988,-5.21993,-46.8353
2023-03-11 22:32:22:54,0,4.01219,-5.21963,-46.833
2023-03-11 22:32:22:64,0,3.98884,-5.22214,-46.8409
2023-03-11 22:32:22:74,0,3.96619,-5.22157,-46.8539
2023-03-11 22:32:22:84,0,3.94574,-5.21952,-46.8721
2023-03-11 22:32:22:94,0,3.93268,-5.21608,-46.8976
2023-03-11 22:32:22:104,0,3.92325,-5.21333,-46.9189
2023-03-11 22:32:22:114,0,3.91445,-5.20891,-46.9404
2023-03-11 22:32:22:124,0,3.90917,-5.20399,-46.9645
2023-03-11 22:32:22:134,0,3.90587,-5.20175,-46.9879
2023-03-11 22:32:22:144,0,3.9059,-5.20105,-47.013
2023-03-11 22:32:22:154,0,3.91037,-5.20208,-47.0371
2023-03-11 22:32:22:164,0,3.91506,-5.20242,-47.0611
2023-03-11 22:32:22:174,0,3.91979,-5.20327,-47.0868
2023-03-11 22:32:22:184,0,3.9253,-5.20485,-47.1115
2023-03-11 22:32:22:194,0,3.93308,-5.2091,-47.1344
2023-03-11 22:32:22:204,0,3.94134,-5.21053,-47.1577
2023-03-11 22:32:22:214,0,3.94484,-5.21805,-47.1805
2023-03-11 22:32:22:224,0,3.95014,-5.22744,-47.1961
2023-03-11 22:32:22:234,0,3.954,-5.23248,-47.2124
2023-03-11 22:32:22:244,0,3.957,-5.23803,-47.2292
2023-03-11 22:32:22:254,0,3.9605,-5.24609,-47.2469
2023-03-11 22:32:22:264,0,3.96569,-5.25003,-47.2649
2023-03-11 22:32:22:274,0,3.97241,-5.25356,-47.2801
2023-03-11 22:32:22:284,0,3.98123,-5.25847,-47.2966
2023-03-11 22:32:22:294,0,3.98896,-5.26095,-47.3155
2023-03-11 22:32:22:304,0,3.99129,-5.2656,-47.3334
2023-03-11 22:32:22:314,0,3.9946,-5.26764,-47.3539
2023-03-11 22:32:22:324,0,3.99727,-5.26724,-47.3709
2023-03-11 22:32:22:334,0,3.99794,-5.26708,-47.3959
2023-03-11 22:32:22:344,0,3.99646,-5.26761,-47.415
2023-03-11 22:32:22:354,0,3.99563,-5.2663,-47.4375
2023-03-11 22:32:22:364,0,3.99773,-5.26424,-47.4604
2023-03-11 22:32:22:374,0,3.99948,-5.26311,-47.4863
2023-03-11 22:32:22:384,0,4.00081,-5.25837,-47.5076
2023-03-11 22:32:22:394,0,4.00029,-5.25198,-47.5295
2023-03-11 22:32:22:404,0,4.00248,-5.24682,-47.5494
2023-03-11 22:32:22:414,0,4.00376,-5.24261,-47.5641
2023-03-11 22:32:22:424,0,4.00502,-5.24051,-47.583
2023-03-11 22:32:22:434,0,4.0125,-5.23483,-47.6058
2023-03-11 22:32:22:444,0,4.01588,-5.22914,-47.6256
2023-03-11 22:32:22:454,0,4.01987,-5.2184,-47.6427
2023-03-11 22:32:22:464,0,4.02872,-5.21011,-47.6647
2023-03-11 22:32:22:474,0,4.03815,-5.19936,-47.687
2023-03-11 22:32:22:484,0,4.04593,-5.19013,-47.7069
2023-03-11 22:32:22:494,0,4.0574,-5.18117,-47.7347
2023-03-11 22:32:22:504,0,4.06402,-5.16758,-47.7578
2023-03-11 22:32:22:514,0,4.0742,-5.16094,-47.7799
2023-03-11 22:32:22:524,0,4.0823,-5.15837,-47.7981
2023-03-11 22:32:22:534,0,4.09095,-5.16262,-47.8084
2023-03-11 22:32:22:544,0,4.09511,-5.16909,-47.8222
2023-03-11 22:32:22:554,0,4.0977,-5.17517,-47.8381
2023-03-11 22:32:22:564,0,4.10043,-5.17809,-47.8547
2023-03-11 22:32:22:574,0,4.10405,-5.18424,-47.8696
2023-03-11 22:32:22:584,0,4.11356,-5.18634,-47.8822
2023-03-11 22:32:22:594,0,4.12374,-5.18855,-47.8966
2023-03-11 22:32:22:604,0,4.14017,-5.18899,-47.9126
2023-03-11 22:32:22:614,0,4.15643,-5.18922,-47.9247
2023-03-11 22:32:22:624,0,4.17384,-5.18748,-47.9369
2023-03-11 22:32:22:634,0,4.19192,-5.18304,-47.9513
2023-03-11 22:32:22:644,0,4.20547,-5.17806,-47.9655
2023-03-11 22:32:22:654,0,4.21643,-5.1744,-47.9849
2023-03-11 22:32:22:664,0,4.22053,-5.17104,-48.0033
2023-03-11 22:32:22:674,0,4.22444,-5.16546,-48.0246
2023-03-11 22:32:22:684,0,4.22085,-5.15892,-48.0499
2023-03-11 22:32:22:694,0,4.21475,-5.15381,-48.0687
2023-03-11 22:32:22:704,0,4.20961,-5.14483,-48.0925
2023-03-11 22:32:22:714,0,4.20164,-5.13058,-48.1216
2023-03-11 22:32:22:724,0,4.19335,-5.11242,-48.154
2023-03-11 22:32:22:734,0,4.18716,-5.09299,-48.1837
2023-03-11 22:32:22:744,0,4.17991,-5.07927,-48.203
2023-03-11 22:32:22:754,0,4.17102,-5.07122,-48.2205
2023-03-11 22:32:22:764,0,4.16306,-5.06295,-48.2425
2023-03-11 22:32:22:774,0,4.16001,-5.05399,-48.2662
2023-03-11 22:32:22:784,0,4.1592,-5.04224,-48.2898
2023-03-11 22:32:22:794,0,4.16427,-5.0315,-48.3139
2023-03-11 22:32:22:804,0,4.16987,-5.02346,-48.3332
2023-03-11 22:32:22:814,0,4.17646,-5.01271,-48.3509
2023-03-11 22:32:22:824,0,4.18957,-5.006,-48.3686
2023-03-11 22:32:22:834,0,4.1997,-4.99805,-48.3841
2023-03-11 22:32:22:844,0,4.21718,-4.98985,-48.4009
2023-03-11 22:32:22:854,0,4.23216,-4.984,-48.4153
2023-03-11 22:32:22:864,0,4.25044,-4.97945,-48.4287
2023-03-11 22:32:22:874,0,4.26868,-4.97525,-48.4411
2023-03-11 22:32:22:884,0,4.28584,-4.97126,-48.4542
2023-03-11 22:32:22:894,0,4.30405,-4.97085,-48.4674
2023-03-11 22:32:22:904,0,4.31686,-4.96725,-48.4822
2023-03-11 22:32:22:914,0,4.32614,-4.96929,-48.4933
2023-03-11 22:32:22:924,0,4.33273,-4.96994,-48.5026
2023-03-11 22:32:22:934,0,4.33963,-4.97008,-48.5138
2023-03-11 22:32:22:944,0,4.34206,-4.97601,-48.5166
2023-03-11 22:32:22:954,0,4.33954,-4.98555,-48.5146
2023-03-11 22:32:22:964,0,4.33789,-4.99748,-48.5067
2023-03-11 22:32:22:974,0,4.33859,-5.00912,-48.5015
2023-03-11 22:32:22:984,0,4.33909,-5.02288,-48.4943
2023-03-11 22:32:22:994,0,4.34624,-5.03393,-48.4891
2023-03-11 22:32:23:4,0,4.35175,-5.04151,-48.4841
2023-03-11 22:32:23:14,0,4.3612,-5.04848,-48.4819
2023-03-11 22:32:23:24,0,4.36932,-5.0582,-48.4822
2023-03-11 22:32:23:34,0,4.37466,-5.06766,-48.4856
2023-03-11 22:32:23:44,0,4.38443,-5.07169,-48.4908
2023-03-11 22:32:23:54,0,4.3893,-5.07635,-48.4972
2023-03-11 22:32:23:64,0,4.39047,-5.08091,-48.5082
2023-03-11 22:32:23:74,0,4.39461,-5.08264,-48.519
2023-03-11 22:32:23:84,0,4.39826,-5.08191,-48.5334
2023-03-11 22:32:23:94,0,4.40266,-5.08374,-48.5468
2023-03-11 22:32:23:104,0,4.40889,-5.0797,-48.5567
2023-03-11 22:32:23:114,0,4.41523,-5.07642,-48.567
2023-03-11 22:32:23:124,0,4.42354,-5.07003,-48.5754
2023-03-11 22:32:23:134,0,4.42355,-5.06427,-48.5844
2023-03-11 22:32:23:144,0,4.42745,-5.05182,-48.5946
2023-03-11 22:32:23:154,0,4.4289,-5.03684,-48.6056
2023-03-11 22:32:23:164,0,4.43437,-5.02289,-48.6138
2023-03-11 22:32:23:174,0,4.43551,-5.01003,-48.6256
2023-03-11 22:32:23:184,0,4.43327,-4.99543,-48.6433
2023-03-11 22:32:23:194,0,4.42853,-4.98054,-48.6593
2023-03-11 22:32:23:204,0,4.42555,-4.97037,-48.6728
2023-03-11 22:32:23:214,0,4.4277,-4.96584,-48.6825
2023-03-11 22:32:23:224,0,4.42352,-4.96352,-48.6949
2023-03-11 22:32:23:234,0,4.41739,-4.96348,-48.7128
2023-03-11 22:32:23:244,0,4.40864,-4.96468,-48.7289
2023-03-11 22:32:23:254,0,4.39715,-4.96109,-48.7462
2023-03-11 22:32:23:264,0,4.38818,-4.95618,-48.7645
2023-03-11 22:32:23:274,0,4.38026,-4.94257,-48.7801
2023-03-11 22:32:23:284,0,4.37486,-4.93488,-48.7949
2023-03-11 22:32:23:294,0,4.37559,-4.92366,-48.8054
2023-03-11 22:32:23:304,0,4.37522,-4.90842,-48.8206
2023-03-11 22:32:23:314,0,4.37563,-4.88992,-48.8369
2023-03-11 22:32:23:324,0,4.37399,-4.87493,-48.8534
2023-03-11 22:32:23:334,0,4.37387,-4.86016,-48.8692
2023-03-11 22:32:23:344,0,4.3721,-4.84949,-48.8879
2023-03-11 22:32:23:354,0,4.36634,-4.83804,-48.9074
2023-03-11 22:32:23:364,0,4.36345,-4.82831,-48.9265
2023-03-11 22:32:23:374,0,4.35939,-4.81947,-48.9467
2023-03-11 22:32:23:384,0,4.35539,-4.81169,-48.9656
2023-03-11 22:32:23:394,0,4.34567,-4.8037,-48.9859
2023-03-11 22:32:23:404,0,4.33803,-4.79256,-49.0067
2023-03-11 22:32:23:414,0,4.33017,-4.77924,-49.0338
2023-03-11 22:32:23:424,0,4.32651,-4.76592,-49.057
2023-03-11 22:32:23:434,0,4.32227,-4.75649,-49.0753
2023-03-11 22:32:23:444,0,4.31891,-4.75044,-49.0913
2023-03-11 22:32:23:454,0,4.3178,-4.74256,-49.1105
2023-03-11 22:32:23:464,0,4.31916,-4.7332,-49.131
2023-03-11 22:32:23:474,0,4.32114,-4.72269,-49.1518
2023-03-11 22:32:23:484,0,4.3254,-4.70612,-49.1644
2023-03-11 22:32:23:494,0,4.32921,-4.6936,-49.1796
2023-03-11 22:32:23:504,0,4.33328,-4.68217,-49.1896
2023-03-11 22:32:23:514,0,4.33938,-4.67132,-49.1984
2023-03-11 22:32:23:524,0,4.34578,-4.66313,-49.2064
2023-03-11 22:32:23:534,0,4.34546,-4.65322,-49.221
2023-03-11 22:32:23:544,0,4.35143,-4.64495,-49.2314
2023-03-11 22:32:23:554,0,4.35627,-4.6373,-49.2436
2023-03-11 22:32:23:564,0,4.35667,-4.63052,-49.2559
2023-03-11 22:32:23:574,0,4.35454,-4.62152,-49.2682
2023-03-11 22:32:23:584,0,4.34863,-4.61461,-49.2766
2023-03-11 22:32:23:594,0,4.34253,-4.61049,-49.283
2023-03-11 22:32:23:604,0,4.33633,-4.60868,-49.292
2023-03-11 22:32:23:614,0,4.32852,-4.60714,-49.2943
2023-03-11 22:32:23:624,0,4.31932,-4.60375,-49.2944
2023-03-11 22:32:23:634,0,4.31155,-4.60058,-49.2957
2023-03-11 22:32:23:644,0,4.30626,-4.5973,-49.2911
2023-03-11 22:32:23:654,0,4.30135,-4.59448,-49.288
2023-03-11 22:32:23:664,0,4.30036,-4.591,-49.2893
2023-03-11 22:32:23:674,0,4.29512,-4.58424,-49.2917
2023-03-11 22:32:23:684,0,4.28957,-4.57738,-49.2962
2023-03-11 22:32:23:694,0,4.28615,-4.57695,-49.3044
2023-03-11 22:32:23:704,0,4.28008,-4.57228,-49.3134
2023-03-11 22:32:23:714,0,4.27712,-4.57139,-49.3272
2023-03-11 22:32:23:724,0,4.27073,-4.5721,-49.3495
2023-03-11 22:32:23:734,0,4.26465,-4.57313,-49.3731
2023-03-11 22:32:23:744,0,4.26105,-4.57231,-49.399
2023-03-11 22:32:23:754,0,4.25658,-4.56794,-49.4201
2023-03-11 22:32:23:764,0,4.24573,-4.56736,-49.4407
2023-03-11 22:32:23:774,0,4.23501,-4.56458,-49.4579
2023-03-11 22:32:23:784,0,4.22897,-4.56287,-49.4709
2023-03-11 22:32:23:794,0,4.21747,-4.56161,-49.4854
2023-03-11 22:32:23:804,0,4.20511,-4.55959,-49.4935
2023-03-11 22:32:23:814,0,4.19522,-4.55503,-49.4963
2023-03-11 22:32:23:824,0,4.18535,-4.55027,-49.5015
2023-03-11 22:32:23:834,0,4.17435,-4.54584,-49.5065
2023-03-11 22:32:23:844,0,4.16981,-4.54076,-49.5096
2023-03-11 22:32:23:854,0,4.16422,-4.53906,-49.5145
2023-03-11 22:32:23:864,0,4.16008,-4.53851,-49.5212
2023-03-11 22:32:23:874,0,4.15587,-4.54299,-49.5233
2023-03-11 22:32:23:884,0,4.15164,-4.55529,-49.5223
2023-03-11 22:32:23:894,0,4.14873,-4.57394,-49.5189
2023-03-11 22:32:23:904,0,4.14917,-4.59183,-49.5124
2023-03-11 22:32:23:914,0,4.14795,-4.61088,-49.5079
2023-03-11 22:32:23:924,0,4.1534,-4.62872,-49.5069
2023-03-11 22:32:23:934,0,4.15784,-4.64157,-49.509
2023-03-11 22:32:23:944,0,4.16324,-4.65542,-49.5049
2023-03-11 22:32:23:954,0,4.17504,-4.66501,-49.4969
2023-03-11 22:32:23:964,0,4.18754,-4.67407,-49.4886
2023-03-11 22:32:23:974,0,4.1995,-4.68329,-49.4808
2023-03-11 22:32:23:984,0,4.21168,-4.6882,-49.4732
2023-03-11 22:32:23:994,0,4.2246,-4.6982,-49.4657
2023-03-11 22:32:24:4,0,4.2347,-4.7026,-49.4639
2023-03-11 22:32:24:14,0,4.24555,-4.70757,-49.4632
2023-03-11 22:32:24:24,0,4.25411,-4.70952,-49.4705
2023-03-11 22:32:24:34,0,4.26229,-4.7108,-49.4824
2023-03-11 22:32:24:44,0,4.26731,-4.70918,-49.4975
2023-03-11 22:32:24:54,0,4.27414,-4.7032,-49.5109
2023-03-11 22:32:24:64,0,4.28324,-4.69293,-49.5194
2023-03-11 22:32:24:74,0,4.29145,-4.68205,-49.519
2023-03-11 22:32:24:84,0,4.30055,-4.66505,-49.52
2023-03-11 22:32:24:94,0,4.31303,-4.64196,-49.521
2023-03-11 22:32:24:104,0,4.32291,-4.61921,-49.5085
2023-03-11 22:32:24:114,0,4.33436,-4.59725,-49.4826
2023-03-11 22:32:24:124,0,4.34661,-4.57773,-49.4544
2023-03-11 22:32:24:134,0,4.35983,-4.55346,-49.4214
2023-03-11 22:32:24:144,0,4.37092,-4.52926,-49.3828
2023-03-11 22:32:24:154,0,4.38619,-4.50388,-49.3398
2023-03-11 22:32:24:164,0,4.40351,-4.48067,-49.2936
2023-03-11 22:32:24:174,0,4.41799,-4.46232,-49.247
2023-03-11 22:32:24:184,0,4.4362,-4.44796,-49.2023
2023-03-11 22:32:24:194,0,4.4545,-4.43517,-49.1544
2023-03-11 22:32:24:204,0,4.47351,-4.42804,-49.1073
2023-03-11 22:32:24:214,0,4.49086,-4.42947,-49.0696
2023-03-11 22:32:24:224,0,4.51158,-4.43157,-49.0313
2023-03-11 22:32:24:234,0,4.53344,-4.44957,-49.008
2023-03-11 22:32:24:244,0,4.55827,-4.47754,-49.0119
2023-03-11 22:32:24:254,0,4.58506,-4.51619,-49.0477
2023-03-11 22:32:24:264,0,4.60671,-4.5592,-49.1114
2023-03-11 22:32:24:274,0,4.62452,-4.60906,-49.2078
2023-03-11 22:32:24:284,0,4.64073,-4.66189,-49.3214
2023-03-11 22:32:24:294,0,4.64938,-4.71732,-49.4492
2023-03-11 22:32:24:304,0,4.65132,-4.77403,-49.5864
2023-03-11 22:32:24:314,0,4.64718,-4.83131,-49.7238
2023-03-11 22:32:24:324,0,4.64311,-4.88887,-49.8588
2023-03-11 22:32:24:334,0,4.63617,-4.93725,-49.9799
2023-03-11 22:32:24:344,0,4.63148,-4.97974,-50.09
2023-03-11 22:32:24:354,0,4.62635,-5.01537,-50.1863
2023-03-11 22:32:24:364,0,4.62126,-5.04039,-50.2737
2023-03-11 22:32:24:374,0,4.61925,-5.05857,-50.3532
2023-03-11 22:32:24:384,0,4.61698,-5.07082,-50.4186
2023-03-11 22:32:24:394,0,4.61137,-5.07426,-50.471
2023-03-11 22:32:24:404,0,4.59775,-5.08195,-50.5148
2023-03-11 22:32:24:414,0,4.58451,-5.08678,-50.5456
2023-03-11 22:32:24:424,0,4.56886,-5.08587,-50.5638
2023-03-11 22:32:24:434,0,4.54725,-5.08539,-50.5716
2023-03-11 22:32:24:444,0,4.52686,-5.08064,-50.5671
2023-03-11 22:32:24:454,0,4.5079,-5.07256,-50.5494
2023-03-11 22:32:24:464,0,4.49572,-5.05986,-50.5242
2023-03-11 22:32:24:474,0,4.48499,-5.04634,-50.4902
2023-03-11 22:32:24:484,0,4.47264,-5.03095,-50.4482
2023-03-11 22:32:24:494,0,4.46382,-5.01676,-50.4019
2023-03-11 22:32:24:504,0,4.45214,-5.004,-50.3652
2023-03-11 22:32:24:514,0,4.44013,-4.99016,-50.3331
2023-03-11 22:32:24:524,0,4.42743,-4.98027,-50.3013
2023-03-11 22:32:24:534,0,4.41239,-4.97371,-50.2787
2023-03-11 22:32:24:544,0,4.40001,-4.96357,-50.2592
2023-03-11 22:32:24:554,0,4.38832,-4.95493,-50.2396
2023-03-11 22:32:24:564,0,4.37741,-4.95001,-50.2172
2023-03-11 22:32:24:574,0,4.36524,-4.95365,-50.1985
2023-03-11 22:32:24:584,0,4.34971,-4.95662,-50.1817
2023-03-11 22:32:24:594,0,4.33754,-4.96282,-50.168
2023-03-11 22:32:24:604,0,4.32651,-4.96307,-50.1579
2023-03-11 22:32:24:614,0,4.31492,-4.95807,-50.1477
2023-03-11 22:32:24:624,0,4.30735,-4.95346,-50.1358
2023-03-11 22:32:24:634,0,4.30136,-4.94605,-50.1192
2023-03-11 22:32:24:644,0,4.29824,-4.9346,-50.0999
2023-03-11 22:32:24:654,0,4.29486,-4.91967,-50.0847
2023-03-11 22:32:24:664,0,4.29552,-4.90639,-50.0692
2023-03-11 22:32:24:674,0,4.29383,-4.89299,-50.0519
2023-03-11 22:32:24:684,0,4.29239,-4.87917,-50.0348
2023-03-11 22:32:24:694,0,4.29248,-4.87067,-50.0206
2023-03-11 22:32:24:704,0,4.29072,-4.8601,-50.0128
2023-03-11 22:32:24:714,0,4.28597,-4.8485,-50.0086
2023-03-11 22:32:24:724,0,4.27652,-4.83665,-50.0121
2023-03-11 22:32:24:734,0,4.26683,-4.82407,-50.0133
2023-03-11 22:32:24:744,0,4.25609,-4.81543,-50.0196
2023-03-11 22:32:24:754,0,4.24618,-4.80156,-50.0294
2023-03-11 22:32:24:764,0,4.23429,-4.78264,-50.0442
2023-03-11 22:32:24:774,0,4.21984,-4.75937,-50.0651
2023-03-11 22:32:24:784,0,4.21009,-4.73777,-50.0843
2023-03-11 22:32:24:794,0,4.1988,-4.72027,-50.1014
2023-03-11 22:32:24:804,0,4.1876,-4.70285,-50.1214
2023-03-11 22:32:24:814,0,4.18057,-4.68635,-50.1497
2023-03-11 22:32:24:824,0,4.17763,-4.66484,-50.1809
2023-03-11 22:32:24:834,0,4.17203,-4.64571,-50.2133
2023-03-11 22:32:24:844,0,4.16847,-4.62737,-50.2447
2023-03-11 22:32:24:854,0,4.16599,-4.61172,-50.2751
2023-03-11 22:32:24:864,0,4.16158,-4.59436,-50.2976
2023-03-11 22:32:24:874,0,4.16029,-4.58059,-50.3229
2023-03-11 22:32:24:884,0,4.15766,-4.57144,-50.3474
2023-03-11 22:32:24:894,0,4.15827,-4.55996,-50.3723
2023-03-11 22:32:24:904,0,4.16003,-4.54793,-50.391
2023-03-11 22:32:24:914,0,4.16254,-4.54046,-50.4022
2023-03-11 22:32:24:924,0,4.1717,-4.53485,-50.4142
2023-03-11 22:32:24:934,0,4.18034,-4.52974,-50.4215
2023-03-11 22:32:24:944,0,4.19026,-4.53029,-50.4281
2023-03-11 22:32:24:954,0,4.19407,-4.53172,-50.432
2023-03-11 22:32:24:964,0,4.19796,-4.53215,-50.4322
2023-03-11 22:32:24:974,0,4.2001,-4.53646,-50.4321
2023-03-11 22:32:24:984,0,4.20402,-4.53881,-50.4309
2023-03-11 22:32:24:994,0,4.20744,-4.541,-50.4256
2023-03-11 22:32:25:4,0,4.21381,-4.54218,-50.4197
2023-03-11 22:32:25:14,0,4.21733,-4.54451,-50.4184
2023-03-11 22:32:25:24,0,4.22402,-4.54158,-50.4208
2023-03-11 22:32:25:34,0,4.22777,-4.53749,-50.4241
2023-03-11 22:32:25:44,0,4.23103,-4.53291,-50.4301
2023-03-11 22:32:25:54,0,4.23512,-4.52913,-50.4397
2023-03-11 22:32:25:64,0,4.24248,-4.52831,-50.45
2023-03-11 22:32:25:74,0,4.248,-4.52597,-50.4623
2023-03-11 22:32:25:84,0,4.25186,-4.52428,-50.4824
2023-03-11 22:32:25:94,0,4.25441,-4.52372,-50.4989
2023-03-11 22:32:25:104,0,4.25686,-4.52176,-50.5177
2023-03-11 22:32:25:114,0,4.25664,-4.51927,-50.5362
2023-03-11 22:32:25:124,0,4.26198,-4.51607,-50.5563
2023-03-11 22:32:25:134,0,4.26366,-4.5116,-50.5711
2023-03-11 22:32:25:144,0,4.27097,-4.5084,-50.5868
2023-03-11 22:32:25:154,0,4.27458,-4.50214,-50.5983
2023-03-11 22:32:25:164,0,4.27633,-4.49664,-50.6066
2023-03-11 22:32:25:174,0,4.27628,-4.49137,-50.615
2023-03-11 22:32:25:184,0,4.27349,-4.48549,-50.6192
2023-03-11 22:32:25:194,0,4.27181,-4.47918,-50.6264
2023-03-11 22:32:25:204,0,4.27426,-4.4695,-50.6356
