Timestamp_cmd,imu_cmd,roll_delta,pitch_delta,yaw_delta,voice_type,voice_length
2023-03-14 21:56:30:817,0,-9.5234,-2.83712,3.67357,Q,Q
2023-03-14 21:56:30:824,0,-9.52383,-2.85548,3.62548,Q,Q
2023-03-14 21:56:30:834,0,-9.4649,-2.87122,3.58453,Q,Q
2023-03-14 21:56:30:844,0,-9.43983,-2.86954,3.57183,Q,Q
2023-03-14 21:56:30:855,0,-9.40583,-2.85527,3.58909,Q,Q
2023-03-14 21:56:30:864,0,-9.37839,-2.87238,3.59423,Q,Q
2023-03-14 21:56:30:875,0,-9.34767,-2.89591,3.5964,Q,Q
2023-03-14 21:56:30:884,0,-9.31162,-2.90523,3.58753,Q,Q
2023-03-14 21:56:30:894,0,-9.2672,-2.90832,3.58131,Q,Q
2023-03-14 21:56:30:904,0,-9.22675,-2.91015,3.58667,Q,Q
2023-03-14 21:56:30:915,0,-9.19063,-2.91647,3.59258,Q,Q
2023-03-14 21:56:30:925,0,-9.1578,-2.92228,3.59416,Q,Q
2023-03-14 21:56:30:935,0,-9.12709,-2.92662,3.59261,Q,Q
2023-03-14 21:56:30:944,0,-9.09528,-2.93453,3.58748,Q,Q
2023-03-14 21:56:30:955,0,-9.06261,-2.94298,3.57501,Q,Q
2023-03-14 21:56:30:964,0,-9.02687,-2.94842,3.55873,Q,Q
2023-03-14 21:56:30:975,0,-8.98707,-2.95206,3.53465,Q,Q
2023-03-14 21:56:30:984,0,-8.94367,-2.95358,3.5118,Q,Q
2023-03-14 21:56:30:995,0,-8.90467,-2.95604,3.49226,Q,Q
2023-03-14 21:56:31:4,0,-8.87158,-2.96437,3.4736,Q,Q
2023-03-14 21:56:31:14,0,-8.84864,-2.97578,3.45891,Q,Q
2023-03-14 21:56:31:24,0,-8.83784,-2.98622,3.4503,Q,Q
2023-03-14 21:56:31:35,0,-8.8391,-2.9966,3.44708,Q,Q
2023-03-14 21:56:31:44,0,-8.85229,-3.00777,3.44849,Q,Q
2023-03-14 21:56:31:55,0,-8.86601,-3.01192,3.44883,Q,Q
2023-03-14 21:56:31:64,0,-8.88229,-3.01613,3.45123,Q,Q
2023-03-14 21:56:31:75,0,-8.89729,-3.01901,3.463,Q,Q
2023-03-14 21:56:31:84,0,-8.91306,-3.028,3.47629,Q,Q
2023-03-14 21:56:31:95,0,-8.92607,-3.03712,3.49737,Q,Q
2023-03-14 21:56:31:104,0,-8.9412,-3.05551,3.51683,Q,Q
2023-03-14 21:56:31:115,0,-8.95166,-3.07342,3.53337,Q,Q
2023-03-14 21:56:31:124,0,-8.96522,-3.08817,3.54171,Q,Q
2023-03-14 21:56:31:135,0,-8.97512,-3.10042,3.54971,Q,Q
2023-03-14 21:56:31:144,0,-8.98571,-3.11479,3.5559,Q,Q
2023-03-14 21:56:31:155,0,-8.99433,-3.12916,3.56448,Q,Q
2023-03-14 21:56:31:164,0,-9.00252,-3.14192,3.56656,Q,Q
2023-03-14 21:56:31:175,0,-9.01433,-3.15808,3.55845,Q,Q
2023-03-14 21:56:31:184,0,-9.0263,-3.18016,3.54677,Q,Q
2023-03-14 21:56:31:195,0,-9.03228,-3.20784,3.54087,Q,Q
2023-03-14 21:56:31:205,0,-9.03636,-3.23948,3.54035,Q,Q
2023-03-14 21:56:31:215,0,-9.0367,-3.2736,3.5351,Q,Q
2023-03-14 21:56:31:224,0,-9.03094,-3.30474,3.5215,Q,Q
2023-03-14 21:56:31:235,0,-9.02663,-3.32286,3.4995,Q,Q
2023-03-14 21:56:31:244,0,-9.01728,-3.33036,3.46799,Q,Q
2023-03-14 21:56:31:255,0,-9.00351,-3.33939,3.43438,Q,Q
2023-03-14 21:56:31:264,0,-8.99009,-3.34371,3.3975,Q,Q
2023-03-14 21:56:31:274,0,-8.97511,-3.34562,3.36465,Q,Q
2023-03-14 21:56:31:284,0,-8.96327,-3.34869,3.33699,Q,Q
2023-03-14 21:56:31:294,0,-8.9591,-3.34968,3.30778,Q,Q
2023-03-14 21:56:31:304,0,-8.95908,-3.35349,3.27897,Q,Q
2023-03-14 21:56:31:315,0,-8.96608,-3.3562,3.24803,Q,Q
2023-03-14 21:56:31:324,0,-8.97934,-3.35753,3.21717,Q,Q
2023-03-14 21:56:31:334,0,-8.99721,-3.35533,3.18718,Q,Q
2023-03-14 21:56:31:344,0,-9.01062,-3.35144,3.15765,Q,Q
2023-03-14 21:56:31:354,0,-9.02407,-3.33782,3.13455,Q,Q
2023-03-14 21:56:31:364,0,-9.03338,-3.32739,3.11689,Q,Q
2023-03-14 21:56:31:374,0,-9.04618,-3.31683,3.09452,Q,Q
2023-03-14 21:56:31:384,0,-9.0592,-3.30692,3.07689,Q,Q
2023-03-14 21:56:31:394,0,-9.07312,-3.30219,3.0622,Q,Q
2023-03-14 21:56:31:404,0,-9.08686,-3.29807,3.05374,Q,Q
2023-03-14 21:56:31:414,0,-9.10217,-3.29675,3.04849,Q,Q
2023-03-14 21:56:31:424,0,-9.11718,-3.29581,3.04255,Q,Q
2023-03-14 21:56:31:434,0,-9.13566,-3.29488,3.0401,Q,Q
2023-03-14 21:56:31:444,0,-9.15547,-3.29536,3.03741,Q,Q
2023-03-14 21:56:31:454,0,-9.17465,-3.29284,3.03637,Q,Q
2023-03-14 21:56:31:464,0,-9.19908,-3.29767,3.03497,Q,Q
2023-03-14 21:56:31:474,0,-9.22778,-3.30556,3.03459,Q,Q
2023-03-14 21:56:31:484,0,-9.25229,-3.31885,3.03998,Q,Q
2023-03-14 21:56:31:494,0,-9.28369,-3.33544,3.0396,Q,Q
2023-03-14 21:56:31:504,0,-9.31739,-3.35194,3.03869,Q,Q
2023-03-14 21:56:31:514,0,-9.35226,-3.37101,3.03434,Q,Q
2023-03-14 21:56:31:524,0,-9.38848,-3.38446,3.0261,Q,Q
2023-03-14 21:56:31:535,0,-9.42175,-3.40172,3.00939,Q,Q
2023-03-14 21:56:31:544,0,-9.443,-3.41511,3.00267,Q,Q
2023-03-14 21:56:31:554,0,-9.44031,-3.42296,2.99689,Q,Q
2023-03-14 21:56:31:564,0,-9.43315,-3.42942,2.97525,Q,Q
2023-03-14 21:56:31:574,0,-9.42694,-3.42973,2.95689,Q,Q
2023-03-14 21:56:31:584,0,-9.41811,-3.42914,2.94204,Q,Q
2023-03-14 21:56:31:594,0,-9.40983,-3.43361,2.94127,Q,Q
2023-03-14 21:56:31:604,0,-9.40143,-3.43401,2.94319,Q,Q
2023-03-14 21:56:31:614,0,-9.39257,-3.43813,2.94231,Q,Q
2023-03-14 21:56:31:624,0,-9.39177,-3.44337,2.94711,Q,Q
2023-03-14 21:56:31:634,0,-9.39698,-3.4521,2.95346,Q,Q
2023-03-14 21:56:31:644,0,-9.40782,-3.46227,2.96428,Q,Q
2023-03-14 21:56:31:654,0,-9.41751,-3.47949,2.97908,Q,Q
2023-03-14 21:56:31:664,0,-9.43147,-3.50389,2.99545,Q,Q
2023-03-14 21:56:31:675,0,-9.44142,-3.52782,3.00901,Q,Q
2023-03-14 21:56:31:684,0,-9.45161,-3.55082,3.02118,Q,Q
2023-03-14 21:56:31:694,0,-9.45865,-3.5636,3.02847,Q,Q
2023-03-14 21:56:31:704,0,-9.46355,-3.57803,3.03311,Q,Q
2023-03-14 21:56:31:714,0,-9.46649,-3.59392,3.03949,Q,Q
2023-03-14 21:56:31:724,0,-9.46997,-3.60807,3.04564,Q,Q
2023-03-14 21:56:31:735,0,-9.47699,-3.62489,3.05669,Q,Q
2023-03-14 21:56:31:744,0,-9.48262,-3.64478,3.06641,Q,Q
2023-03-14 21:56:31:754,0,-9.4903,-3.66672,3.07537,Q,Q
2023-03-14 21:56:31:764,0,-9.49746,-3.69024,3.08192,Q,Q
2023-03-14 21:56:31:774,0,-9.50038,-3.71318,3.08327,Q,Q
2023-03-14 21:56:31:784,0,-9.50291,-3.73756,3.08149,Q,Q
2023-03-14 21:56:31:794,0,-9.50559,-3.75517,3.07753,Q,Q
2023-03-14 21:56:31:804,0,-9.51167,-3.77148,3.06716,Q,Q
2023-03-14 21:56:31:815,0,-9.5201,-3.78505,3.05229,Q,Q
2023-03-14 21:56:31:824,0,-9.52509,-3.79337,3.03718,Q,Q
2023-03-14 21:56:31:835,0,-9.52535,-3.80293,3.02348,Q,Q
2023-03-14 21:56:31:844,0,-9.5241,-3.8118,3.0062,Q,Q
2023-03-14 21:56:31:855,0,-9.52444,-3.82413,2.98715,Q,Q
2023-03-14 21:56:31:865,0,-9.51808,-3.83705,2.96509,Q,Q
2023-03-14 21:56:31:875,0,-9.50629,-3.85198,2.93406,Q,Q
2023-03-14 21:56:31:885,0,-9.49729,-3.86737,2.9018,Q,Q
2023-03-14 21:56:31:895,0,-9.48551,-3.88087,2.85768,Q,Q
2023-03-14 21:56:31:904,0,-9.47508,-3.89047,2.8128,Q,Q
2023-03-14 21:56:31:915,0,-9.46824,-3.89921,2.76124,Q,Q
2023-03-14 21:56:31:924,0,-9.46293,-3.90746,2.70269,Q,Q
2023-03-14 21:56:31:935,0,-9.45277,-3.90899,2.63812,Q,Q
2023-03-14 21:56:31:944,0,-9.43592,-3.90706,2.56018,Q,Q
2023-03-14 21:56:31:955,0,-9.40967,-3.89413,2.47429,Q,Q
2023-03-14 21:56:31:964,0,-9.36852,-3.8748,2.38097,Q,Q
2023-03-14 21:56:31:975,0,-9.31321,-3.8552,2.28739,Q,Q
2023-03-14 21:56:31:985,0,-9.25341,-3.83884,2.19543,Q,Q
2023-03-14 21:56:31:995,0,-9.19072,-3.8243,2.10922,Q,Q
2023-03-14 21:56:32:4,0,-9.13251,-3.81362,2.03285,Q,Q
2023-03-14 21:56:32:14,0,-9.08235,-3.80236,1.97118,Q,Q
2023-03-14 21:56:32:24,0,-9.04074,-3.79701,1.9309,Q,Q
2023-03-14 21:56:32:35,0,-9.01397,-3.80064,1.9079,Q,Q
2023-03-14 21:56:32:44,0,-8.98889,-3.80972,1.90066,Q,Q
2023-03-14 21:56:32:55,0,-8.96892,-3.82825,1.90311,Q,Q
2023-03-14 21:56:32:64,0,-8.95396,-3.84922,1.91486,Q,Q
2023-03-14 21:56:32:75,0,-8.93794,-3.8734,1.92524,Q,Q
2023-03-14 21:56:32:84,0,-8.92456,-3.90023,1.93583,Q,Q
2023-03-14 21:56:32:95,0,-8.9154,-3.92527,1.94488,Q,Q
2023-03-14 21:56:32:104,0,-8.89927,-3.94875,1.95171,Q,Q
2023-03-14 21:56:32:114,0,-8.88591,-3.97484,1.96246,Q,Q
2023-03-14 21:56:32:124,0,-8.8711,-3.99942,1.97771,Q,Q
2023-03-14 21:56:32:135,0,-8.86954,-4.02342,1.9725,Q,Q
2023-03-14 21:56:32:144,0,-8.87622,-4.04729,1.96616,Q,Q
2023-03-14 21:56:32:154,0,-8.87883,-4.07362,1.96009,Q,Q
2023-03-14 21:56:32:164,0,-8.87823,-4.09587,1.95139,Q,Q
2023-03-14 21:56:32:174,0,-8.87785,-4.11399,1.93332,Q,Q
2023-03-14 21:56:32:184,0,-8.87875,-4.13212,1.90977,Q,Q
2023-03-14 21:56:32:195,0,-8.88642,-4.14875,1.88064,Q,Q
2023-03-14 21:56:32:204,0,-8.90232,-4.16824,1.84466,Q,Q
2023-03-14 21:56:32:215,0,-8.92708,-4.18703,1.80579,Q,Q
2023-03-14 21:56:32:224,0,-8.95556,-4.19693,1.76795,Q,Q
2023-03-14 21:56:32:235,0,-8.98308,-4.20625,1.75293,Q,Q
2023-03-14 21:56:32:244,0,-9.01549,-4.2203,1.74381,Q,Q
2023-03-14 21:56:32:255,0,-9.04831,-4.2444,1.73504,Q,Q
2023-03-14 21:56:32:264,0,-9.07931,-4.274,1.73918,Q,Q
2023-03-14 21:56:32:275,0,-9.10644,-4.30766,1.75212,Q,Q
2023-03-14 21:56:32:284,0,-9.13076,-4.34526,1.76073,Q,Q
2023-03-14 21:56:32:294,0,-9.15541,-4.37552,1.76423,Q,Q
2023-03-14 21:56:32:304,0,-9.18039,-4.40547,1.7589,Q,Q
2023-03-14 21:56:32:314,0,-9.19873,-4.44466,1.75812,Q,Q
2023-03-14 21:56:32:324,0,-9.20478,-4.50475,1.77257,Q,Q
2023-03-14 21:56:32:334,0,-9.2014,-4.57603,1.79941,Q,Q
2023-03-14 21:56:32:344,0,-9.19904,-4.64909,1.83186,Q,Q
2023-03-14 21:56:32:355,0,-9.20397,-4.69887,1.8755,Q,Q
2023-03-14 21:56:32:364,0,-9.22987,-4.72445,1.90922,Q,Q
2023-03-14 21:56:32:375,0,-9.2487,-4.73569,1.93318,Q,Q
2023-03-14 21:56:32:384,0,-9.26249,-4.74664,1.96045,Q,Q
2023-03-14 21:56:32:394,0,-9.2681,-4.75904,1.98766,Q,Q
2023-03-14 21:56:32:404,0,-9.27196,-4.76688,2.01428,Q,Q
2023-03-14 21:56:32:414,0,-9.27908,-4.76847,2.03494,Q,Q
2023-03-14 21:56:32:424,0,-9.28985,-4.77062,2.04496,Q,Q
2023-03-14 21:56:32:434,0,-9.30788,-4.76872,2.04813,Q,Q
2023-03-14 21:56:32:444,0,-9.331,-4.76743,2.04977,Q,Q
2023-03-14 21:56:32:455,0,-9.35369,-4.76668,2.04968,Q,Q
2023-03-14 21:56:32:464,0,-9.37163,-4.77254,2.0513,Q,Q
2023-03-14 21:56:32:475,0,-9.38683,-4.78054,2.06345,Q,Q
2023-03-14 21:56:32:484,0,-9.394,-4.79468,2.07515,Q,Q
2023-03-14 21:56:32:495,0,-9.39381,-4.80679,2.09074,Q,Q
2023-03-14 21:56:32:504,0,-9.38761,-4.81865,2.10852,Q,Q
2023-03-14 21:56:32:515,0,-9.37701,-4.83125,2.12532,Q,Q
2023-03-14 21:56:32:524,0,-9.36389,-4.83708,2.13866,Q,Q
2023-03-14 21:56:32:534,0,-9.35408,-4.83755,2.15239,Q,Q
2023-03-14 21:56:32:544,0,-9.35346,-4.83352,2.16267,Q,Q
2023-03-14 21:56:32:555,0,-9.35555,-4.82405,2.17267,Q,Q
2023-03-14 21:56:32:564,0,-9.36217,-4.81333,2.18398,Q,Q
2023-03-14 21:56:32:574,0,-9.36827,-4.80725,2.19487,Q,Q
2023-03-14 21:56:32:584,0,-9.37297,-4.8022,2.20689,Q,Q
2023-03-14 21:56:32:595,0,-9.37023,-4.79671,2.21407,Q,Q
2023-03-14 21:56:32:604,0,-9.3616,-4.79074,2.2218,Q,Q
2023-03-14 21:56:32:615,0,-9.35438,-4.77877,2.22233,Q,Q
2023-03-14 21:56:32:624,0,-9.34688,-4.76046,2.21963,Q,Q
2023-03-14 21:56:32:634,0,-9.34229,-4.73733,2.21323,Q,Q
2023-03-14 21:56:32:644,0,-9.3356,-4.70446,2.19958,Q,Q
2023-03-14 21:56:32:654,0,-9.32708,-4.66878,2.17696,Q,Q
2023-03-14 21:56:32:664,0,-9.31879,-4.63553,2.15106,Q,Q
2023-03-14 21:56:32:675,0,-9.30708,-4.60515,2.11617,Q,Q
2023-03-14 21:56:32:685,0,-9.29852,-4.575,2.08299,Q,Q
2023-03-14 21:56:32:695,0,-9.28425,-4.5478,2.04943,Q,Q
2023-03-14 21:56:32:704,0,-9.2756,-4.51977,2.01611,Q,Q
2023-03-14 21:56:32:715,0,-9.26961,-4.49171,1.984,Q,Q
2023-03-14 21:56:32:724,0,-9.26675,-4.46042,1.95088,Q,Q
2023-03-14 21:56:32:735,0,-9.27195,-4.42257,1.9198,Q,Q
2023-03-14 21:56:32:745,0,-9.28223,-4.3785,1.89291,Q,Q
2023-03-14 21:56:32:755,0,-9.29994,-4.33357,1.86815,Q,Q
2023-03-14 21:56:32:764,0,-9.32037,-4.28931,1.85177,Q,Q
2023-03-14 21:56:32:774,0,-9.34382,-4.25397,1.84634,Q,Q
2023-03-14 21:56:32:785,0,-9.36955,-4.2196,1.84909,Q,Q
2023-03-14 21:56:32:795,0,-9.39738,-4.18489,1.86211,Q,Q
2023-03-14 21:56:32:804,0,-9.42555,-4.15769,1.88228,Q,Q
2023-03-14 21:56:32:815,0,-9.45021,-4.13217,1.90288,Q,Q
2023-03-14 21:56:32:825,0,-9.47519,-4.10692,1.93004,Q,Q
2023-03-14 21:56:32:835,0,-9.4964,-4.08222,1.96518,Q,Q
2023-03-14 21:56:32:845,0,-9.51979,-4.05826,2.00119,Q,Q
2023-03-14 21:56:32:855,0,-9.55183,-4.03627,2.03589,Q,Q
2023-03-14 21:56:32:864,0,-9.58504,-4.01514,2.06699,Q,Q
2023-03-14 21:56:32:875,0,-9.62092,-3.99424,2.10832,Q,Q
2023-03-14 21:56:32:885,0,-9.65879,-3.98192,2.16508,Q,Q
2023-03-14 21:56:32:895,0,-9.69041,-3.98105,2.23351,Q,Q
2023-03-14 21:56:32:905,0,-9.721,-3.98408,2.31332,Q,Q
2023-03-14 21:56:32:914,0,-9.74991,-3.98819,2.39873,Q,Q
2023-03-14 21:56:32:924,0,-9.77644,-3.98903,2.48641,Q,Q
2023-03-14 21:56:32:934,0,-9.80936,-3.98838,2.58365,Q,Q
2023-03-14 21:56:32:944,0,-9.84739,-3.98981,2.68567,Q,Q
2023-03-14 21:56:32:955,0,-9.89249,-3.99604,2.78965,Q,Q
2023-03-14 21:56:32:965,0,-9.94022,-4.00084,2.8906,Q,Q
2023-03-14 21:56:32:974,0,-9.9901,-4.00447,2.98942,Q,Q
2023-03-14 21:56:32:985,0,-10.0373,-4.00671,3.08366,Q,Q
2023-03-14 21:56:32:995,0,-10.079,-4.00743,3.17494,Q,Q
2023-03-14 21:56:33:5,0,-10.1262,-4.0073,3.25963,Q,Q
2023-03-14 21:56:33:15,0,-10.1691,-4.00865,3.33895,Q,Q
2023-03-14 21:56:33:25,0,-10.2182,-4.01517,3.41288,Q,Q
2023-03-14 21:56:33:35,0,-10.272,-4.02604,3.47826,Q,Q
2023-03-14 21:56:33:44,0,-10.3279,-4.03658,3.52977,Q,Q
2023-03-14 21:56:33:55,0,-10.3847,-4.04521,3.5631,Q,Q
2023-03-14 21:56:33:64,0,-10.4389,-4.04844,3.5793,Q,Q
2023-03-14 21:56:33:75,0,-10.483,-4.04877,3.58352,Q,Q
2023-03-14 21:56:33:84,0,-10.529,-4.05578,3.57562,Q,Q
2023-03-14 21:56:33:95,0,-10.5688,-4.06138,3.55927,Q,Q
2023-03-14 21:56:33:105,0,-10.608,-4.07375,3.53496,Q,Q
2023-03-14 21:56:33:115,0,-10.6441,-4.08195,3.50296,Q,Q
2023-03-14 21:56:33:125,0,-10.6765,-4.09081,3.46499,Q,Q
2023-03-14 21:56:33:135,0,-10.705,-4.0934,3.41761,Q,Q
2023-03-14 21:56:33:144,0,-10.7285,-4.09333,3.36508,Q,Q
2023-03-14 21:56:33:155,0,-10.7414,-4.08769,3.31082,Q,Q
2023-03-14 21:56:33:164,0,-10.7474,-4.08144,3.26331,Q,Q
2023-03-14 21:56:33:174,0,-10.7523,-4.07391,3.21553,Q,Q
2023-03-14 21:56:33:184,0,-10.7538,-4.06778,3.17235,Q,Q
2023-03-14 21:56:33:195,0,-10.7554,-4.06424,3.12702,Q,Q
2023-03-14 21:56:33:204,0,-10.7533,-4.05896,3.08214,Q,Q
2023-03-14 21:56:33:215,0,-10.7527,-4.05932,3.04266,Q,Q
2023-03-14 21:56:33:224,0,-10.7495,-4.05883,3.00684,Q,Q
2023-03-14 21:56:33:235,0,-10.7426,-4.06336,2.97618,Q,Q
2023-03-14 21:56:33:244,0,-10.7314,-4.07192,2.94383,Q,Q
2023-03-14 21:56:33:255,0,-10.7178,-4.0804,2.91541,Q,Q
2023-03-14 21:56:33:264,0,-10.704,-4.08803,2.89079,Q,Q
2023-03-14 21:56:33:275,0,-10.6973,-4.09863,2.87287,Q,Q
2023-03-14 21:56:33:284,0,-10.6876,-4.11237,2.85815,Q,Q
2023-03-14 21:56:33:295,0,-10.6812,-4.12768,2.84921,Q,Q
2023-03-14 21:56:33:304,0,-10.6769,-4.14421,2.84629,Q,Q
2023-03-14 21:56:33:314,0,-10.6684,-4.16456,2.8425,Q,Q
2023-03-14 21:56:33:324,0,-10.6559,-4.17926,2.83987,Q,Q
2023-03-14 21:56:33:335,0,-10.6498,-4.1932,2.83863,Q,Q
2023-03-14 21:56:33:344,0,-10.6377,-4.21106,2.84033,Q,Q
2023-03-14 21:56:33:355,0,-10.6232,-4.2249,2.84784,Q,Q
2023-03-14 21:56:33:365,0,-10.6071,-4.23484,2.86093,Q,Q
2023-03-14 21:56:33:375,0,-10.5939,-4.24414,2.87532,Q,Q
2023-03-14 21:56:33:384,0,-10.5782,-4.25227,2.8908,Q,Q
2023-03-14 21:56:33:395,0,-10.5644,-4.25658,2.90822,Q,Q
2023-03-14 21:56:33:404,0,-10.5513,-4.2599,2.92583,Q,Q
2023-03-14 21:56:33:414,0,-10.5375,-4.26572,2.943,Q,Q
2023-03-14 21:56:33:424,0,-10.5215,-4.27103,2.95764,Q,Q
2023-03-14 21:56:33:434,0,-10.509,-4.2781,2.97259,Q,Q
2023-03-14 21:56:33:444,0,-10.4939,-4.28836,2.98493,Q,Q
2023-03-14 21:56:33:454,0,-10.4817,-4.29992,2.99532,Q,Q
2023-03-14 21:56:33:464,0,-10.4693,-4.31357,3.0063,Q,Q
2023-03-14 21:56:33:474,0,-10.4564,-4.32906,3.01465,Q,Q
2023-03-14 21:56:33:484,0,-10.4446,-4.34074,3.02714,Q,Q
2023-03-14 21:56:33:494,0,-10.4355,-4.35597,3.0359,Q,Q
2023-03-14 21:56:33:504,0,-10.4311,-4.36539,3.04402,Q,Q
2023-03-14 21:56:33:515,0,-10.4265,-4.37435,3.05179,Q,Q
2023-03-14 21:56:33:524,0,-10.4175,-4.38575,3.05658,Q,Q
2023-03-14 21:56:33:535,0,-10.4046,-4.39495,3.0602,Q,Q
2023-03-14 21:56:33:544,0,-10.3934,-4.40274,3.06415,Q,Q
2023-03-14 21:56:33:554,0,-10.3771,-4.40978,3.0707,Q,Q
2023-03-14 21:56:33:564,0,-10.3573,-4.41389,3.0751,Q,Q
2023-03-14 21:56:33:575,0,-10.3406,-4.41906,3.08023,Q,Q
2023-03-14 21:56:33:584,0,-10.3238,-4.42499,3.08785,Q,Q
2023-03-14 21:56:33:595,0,-10.3083,-4.42937,3.09221,Q,Q
2023-03-14 21:56:33:604,0,-10.292,-4.43371,3.09971,Q,Q
2023-03-14 21:56:33:615,0,-10.2811,-4.4371,3.10494,Q,Q
2023-03-14 21:56:33:624,0,-10.2702,-4.43679,3.11009,Q,Q
2023-03-14 21:56:33:634,0,-10.2595,-4.43171,3.11185,Q,Q
2023-03-14 21:56:33:644,0,-10.2465,-4.42868,3.1151,Q,Q
2023-03-14 21:56:33:655,0,-10.2388,-4.43059,3.11633,Q,Q
2023-03-14 21:56:33:664,0,-10.2253,-4.42972,3.11463,Q,Q
2023-03-14 21:56:33:675,0,-10.2181,-4.42617,3.11074,Q,Q
2023-03-14 21:56:33:685,0,-10.2172,-4.42157,3.10475,Q,Q
2023-03-14 21:56:33:695,0,-10.2133,-4.41529,3.09563,Q,Q
2023-03-14 21:56:33:705,0,-10.2088,-4.41008,3.08505,Q,Q
2023-03-14 21:56:33:715,0,-10.2002,-4.40862,3.07483,Q,Q
2023-03-14 21:56:33:725,0,-10.1884,-4.40803,3.07394,Q,Q
2023-03-14 21:56:33:735,0,-10.1767,-4.41007,3.07517,Q,Q
2023-03-14 21:56:33:745,0,-10.1678,-4.41489,3.08123,Q,Q
2023-03-14 21:56:33:755,0,-10.1622,-4.41771,3.09063,Q,Q
2023-03-14 21:56:33:765,0,-10.1606,-4.41561,3.10127,Q,Q
2023-03-14 21:56:33:775,0,-10.1636,-4.41267,3.10984,Q,Q
2023-03-14 21:56:33:784,0,-10.1733,-4.40579,3.12272,Q,Q
2023-03-14 21:56:33:795,0,-10.1808,-4.4037,3.12671,Q,Q
2023-03-14 21:56:33:805,0,-10.1845,-4.40185,3.12809,Q,Q
2023-03-14 21:56:33:815,0,-10.184,-4.39916,3.12837,Q,Q
2023-03-14 21:56:33:824,0,-10.1818,-4.39087,3.13042,Q,Q
2023-03-14 21:56:33:835,0,-10.1753,-4.38512,3.13442,Q,Q
2023-03-14 21:56:33:845,0,-10.1799,-4.38144,3.13998,Q,Q
2023-03-14 21:56:33:855,0,-10.1882,-4.37801,3.1461,Q,Q
2023-03-14 21:56:33:865,0,-10.2011,-4.37129,3.1493,Q,Q
2023-03-14 21:56:33:875,0,-10.2234,-4.36448,3.14793,Q,Q
2023-03-14 21:56:33:885,0,-10.2493,-4.36065,3.14581,Q,Q
2023-03-14 21:56:33:895,0,-10.2784,-4.35567,3.14048,Q,Q
2023-03-14 21:56:33:905,0,-10.3014,-4.35384,3.1322,Q,Q
2023-03-14 21:56:33:915,0,-10.3203,-4.35414,3.12741,Q,Q
2023-03-14 21:56:33:924,0,-10.3343,-4.35548,3.12326,Q,Q
2023-03-14 21:56:33:934,0,-10.3525,-4.35886,3.11683,Q,Q
2023-03-14 21:56:33:944,0,-10.3734,-4.35481,3.1116,Q,Q
2023-03-14 21:56:33:955,0,-10.394,-4.34807,3.10191,Q,Q
2023-03-14 21:56:33:964,0,-10.4151,-4.34425,3.09154,Q,Q
2023-03-14 21:56:33:975,0,-10.4341,-4.33582,3.08469,Q,Q
2023-03-14 21:56:33:984,0,-10.4445,-4.33335,3.08564,Q,Q
2023-03-14 21:56:33:995,0,-10.4456,-4.33373,3.09487,Q,Q
2023-03-14 21:56:34:5,0,-10.4416,-4.34,3.10497,Q,Q
2023-03-14 21:56:34:14,0,-10.4354,-4.34602,3.11975,Q,Q
2023-03-14 21:56:34:25,0,-10.4337,-4.34969,3.13375,Q,Q
2023-03-14 21:56:34:35,0,-10.4363,-4.34654,3.15004,Q,Q
2023-03-14 21:56:34:44,0,-10.4398,-4.33876,3.1599,Q,Q
2023-03-14 21:56:34:55,0,-10.4398,-4.32916,3.17606,Q,Q
2023-03-14 21:56:34:64,0,-10.4384,-4.32049,3.19645,Q,Q
2023-03-14 21:56:34:74,0,-10.4409,-4.31885,3.21881,Q,Q
2023-03-14 21:56:34:84,0,-10.4409,-4.32171,3.24322,Q,Q
2023-03-14 21:56:34:94,0,-10.4411,-4.32854,3.27305,Q,Q
2023-03-14 21:56:34:104,0,-10.4385,-4.3324,3.30397,Q,Q
2023-03-14 21:56:34:115,0,-10.4392,-4.33515,3.33749,Q,Q
2023-03-14 21:56:34:124,0,-10.4376,-4.33654,3.37212,Q,Q
2023-03-14 21:56:34:134,0,-10.4309,-4.33214,3.40629,Q,Q
2023-03-14 21:56:34:145,0,-10.4243,-4.32492,3.44321,Q,Q
2023-03-14 21:56:34:155,0,-10.4217,-4.31888,3.47776,Q,Q
2023-03-14 21:56:34:164,0,-10.4286,-4.31238,3.51621,Q,Q
2023-03-14 21:56:34:175,0,-10.4452,-4.31066,3.55523,Q,Q
2023-03-14 21:56:34:184,0,-10.4701,-4.31044,3.58801,Q,Q
2023-03-14 21:56:34:195,0,-10.5034,-4.30018,3.62321,Q,Q
2023-03-14 21:56:34:204,0,-10.5352,-4.29062,3.65216,Q,Q
2023-03-14 21:56:34:215,0,-10.569,-4.27535,3.6832,Q,Q
2023-03-14 21:56:34:224,0,-10.6015,-4.26282,3.71935,Q,Q
2023-03-14 21:56:34:235,0,-10.6339,-4.24712,3.75551,Q,Q
2023-03-14 21:56:34:245,0,-10.6621,-4.23046,3.79605,Q,Q
2023-03-14 21:56:34:254,0,-10.6842,-4.21057,3.83609,Q,Q
2023-03-14 21:56:34:265,0,-10.7058,-4.18405,3.87918,Q,Q
2023-03-14 21:56:34:275,0,-10.7221,-4.15596,3.92472,Q,Q
2023-03-14 21:56:34:284,0,-10.737,-4.13246,3.97202,Q,Q
2023-03-14 21:56:34:295,0,-10.7509,-4.11231,4.01923,Q,Q
2023-03-14 21:56:34:304,0,-10.7633,-4.09219,4.06243,Q,Q
2023-03-14 21:56:34:315,0,-10.7845,-4.06805,4.10438,Q,Q
2023-03-14 21:56:34:324,0,-10.8107,-4.04205,4.13851,Q,Q
2023-03-14 21:56:34:335,0,-10.8327,-4.01959,4.16408,Q,Q
2023-03-14 21:56:34:344,0,-10.8529,-4.0008,4.17971,Q,Q
2023-03-14 21:56:34:354,0,-10.8719,-3.98363,4.19406,Q,Q
2023-03-14 21:56:34:364,0,-10.8915,-3.97279,4.20303,Q,Q
2023-03-14 21:56:34:374,0,-10.9093,-3.96192,4.20945,Q,Q
2023-03-14 21:56:34:384,0,-10.9245,-3.95282,4.21711,Q,Q
2023-03-14 21:56:34:395,0,-10.9392,-3.94589,4.21993,Q,Q
2023-03-14 21:56:34:405,0,-10.9594,-3.9357,4.22423,Q,Q
2023-03-14 21:56:34:415,0,-10.986,-3.91872,4.23447,Q,Q
2023-03-14 21:56:34:424,0,-11.0172,-3.89955,4.25123,Q,Q
2023-03-14 21:56:34:434,0,-11.0507,-3.88253,4.26912,Q,Q
2023-03-14 21:56:34:444,0,-11.0863,-3.8706,4.29005,Q,Q
2023-03-14 21:56:34:455,0,-11.1228,-3.85405,4.30911,Q,Q
2023-03-14 21:56:34:464,0,-11.162,-3.84449,4.32654,Q,Q
2023-03-14 21:56:34:475,0,-11.2001,-3.82856,4.34145,Q,Q
2023-03-14 21:56:34:484,0,-11.242,-3.81202,4.35206,Q,Q
2023-03-14 21:56:34:494,0,-11.2842,-3.80302,4.35665,Q,Q
2023-03-14 21:56:34:504,0,-11.3255,-3.79255,4.36106,Q,Q
2023-03-14 21:56:34:515,0,-11.3635,-3.78744,4.36357,Q,Q
2023-03-14 21:56:34:524,0,-11.4029,-3.78648,4.36392,Q,Q
2023-03-14 21:56:34:535,0,-11.4404,-3.78529,4.36884,Q,Q
2023-03-14 21:56:34:544,0,-11.4798,-3.78828,4.3763,Q,Q
2023-03-14 21:56:34:555,0,-11.5206,-3.79583,4.38698,Q,Q
2023-03-14 21:56:34:564,0,-11.5565,-3.80321,4.39515,Q,Q
2023-03-14 21:56:34:575,0,-11.5912,-3.80978,4.40413,Q,Q
2023-03-14 21:56:34:584,0,-11.6254,-3.81611,4.4115,Q,Q
2023-03-14 21:56:34:594,0,-11.6634,-3.82312,4.4196,Q,Q
2023-03-14 21:56:34:604,0,-11.7003,-3.82912,4.42256,Q,Q
2023-03-14 21:56:34:614,0,-11.7385,-3.82994,4.42441,Q,Q
2023-03-14 21:56:34:624,0,-11.7714,-3.83077,4.42558,Q,Q
2023-03-14 21:56:34:634,0,-11.8026,-3.83051,4.42594,Q,Q
2023-03-14 21:56:34:644,0,-11.8342,-3.83271,4.4254,Q,Q
2023-03-14 21:56:34:654,0,-11.8661,-3.83198,4.4264,Q,Q
2023-03-14 21:56:34:664,0,-11.9011,-3.83402,4.4243,Q,Q
2023-03-14 21:56:34:674,0,-11.9357,-3.83503,4.42119,Q,Q
2023-03-14 21:56:34:684,0,-11.9617,-3.83765,4.42156,Q,Q
2023-03-14 21:56:34:695,0,-11.9878,-3.84826,4.41974,Q,Q
2023-03-14 21:56:34:704,0,-12.0077,-3.85952,4.41982,Q,Q
2023-03-14 21:56:34:715,0,-12.0266,-3.87176,4.42464,Q,Q
2023-03-14 21:56:34:724,0,-12.0506,-3.8872,4.42018,Q,Q
2023-03-14 21:56:34:735,0,-12.0761,-3.89686,4.41572,Q,Q
2023-03-14 21:56:34:744,0,-12.1029,-3.90624,4.41357,Q,Q
2023-03-14 21:56:34:755,0,-12.1301,-3.91295,4.40798,Q,Q
2023-03-14 21:56:34:764,0,-12.1597,-3.92169,4.40436,Q,Q
2023-03-14 21:56:34:775,0,-12.1901,-3.92974,4.40142,Q,Q
2023-03-14 21:56:34:784,0,-12.22,-3.94077,4.39986,Q,Q
2023-03-14 21:56:34:795,0,-12.2465,-3.94695,4.39617,Q,Q
2023-03-14 21:56:34:804,0,-12.266,-3.95157,4.38966,Q,Q
2023-03-14 21:56:34:815,0,-12.2836,-3.95654,4.38698,Q,Q
2023-03-14 21:56:34:826,0,-12.2949,-3.96229,4.38513,Q,Q
2023-03-14 21:56:34:834,0,-12.3079,-3.96852,4.38351,Q,Q
2023-03-14 21:56:34:844,0,-12.3219,-3.97388,4.38363,Q,Q
2023-03-14 21:56:34:854,0,-12.3378,-3.97806,4.37761,Q,Q
2023-03-14 21:56:34:864,0,-12.3556,-3.97824,4.3739,Q,Q
2023-03-14 21:56:34:874,0,-12.3687,-3.97517,4.36871,Q,Q
2023-03-14 21:56:34:884,0,-12.3803,-3.97029,4.35977,Q,Q
2023-03-14 21:56:34:894,0,-12.3918,-3.96415,4.3509,Q,Q
2023-03-14 21:56:34:904,0,-12.4048,-3.95764,4.34242,Q,Q
2023-03-14 21:56:34:914,0,-12.4183,-3.95326,4.33458,Q,Q
2023-03-14 21:56:34:924,0,-12.4274,-3.95084,4.32635,Q,Q
2023-03-14 21:56:34:934,0,-12.4367,-3.94699,4.31563,Q,Q
2023-03-14 21:56:34:944,0,-12.447,-3.94193,4.30631,Q,Q
2023-03-14 21:56:34:954,0,-12.4542,-3.93496,4.29522,Q,Q
2023-03-14 21:56:34:964,0,-12.4537,-3.93051,4.28095,Q,Q
2023-03-14 21:56:34:974,0,-12.4549,-3.92409,4.2702,Q,Q
2023-03-14 21:56:34:984,0,-12.4589,-3.91883,4.26166,Q,Q
2023-03-14 21:56:34:994,0,-12.4654,-3.91217,4.2508,Q,Q
2023-03-14 21:56:35:4,0,-12.4755,-3.89991,4.23639,Q,Q
2023-03-14 21:56:35:14,0,-12.4857,-3.88732,4.22496,Q,Q
2023-03-14 21:56:35:24,0,-12.4903,-3.87051,4.20967,Q,Q
2023-03-14 21:56:35:35,0,-12.4985,-3.85413,4.19722,Q,Q
2023-03-14 21:56:35:44,0,-12.5035,-3.8309,4.18244,Q,Q
2023-03-14 21:56:35:54,0,-12.5063,-3.81031,4.17198,Q,Q
2023-03-14 21:56:35:64,0,-12.5073,-3.79081,4.16135,Q,Q
2023-03-14 21:56:35:74,0,-12.505,-3.76931,4.14884,Q,Q
2023-03-14 21:56:35:84,0,-12.5007,-3.75015,4.13453,Q,Q
2023-03-14 21:56:35:94,0,-12.4976,-3.72713,4.12037,Q,Q
2023-03-14 21:56:35:104,0,-12.4942,-3.7101,4.10778,Q,Q
2023-03-14 21:56:35:114,0,-12.4876,-3.6943,4.09336,Q,Q
2023-03-14 21:56:35:124,0,-12.4819,-3.6854,4.07469,Q,Q
2023-03-14 21:56:35:134,0,-12.4722,-3.67696,4.0586,Q,Q
2023-03-14 21:56:35:144,0,-12.4657,-3.67235,4.04105,Q,Q
2023-03-14 21:56:35:154,0,-12.4624,-3.66821,4.02519,Q,Q
2023-03-14 21:56:35:164,0,-12.4595,-3.6682,4.00918,Q,Q
2023-03-14 21:56:35:174,0,-12.4572,-3.67183,3.99792,Q,Q
2023-03-14 21:56:35:184,0,-12.4527,-3.67174,3.98758,Q,Q
2023-03-14 21:56:35:195,0,-12.4494,-3.67415,3.97745,Q,Q
2023-03-14 21:56:35:205,0,-12.4489,-3.67749,3.96973,Q,Q
2023-03-14 21:56:35:214,0,-12.4521,-3.68067,3.96009,Q,Q
2023-03-14 21:56:35:224,0,-12.4539,-3.68148,3.94833,Q,Q
2023-03-14 21:56:35:235,0,-12.4592,-3.68618,3.93691,Q,Q
2023-03-14 21:56:35:244,0,-12.4612,-3.69169,3.92729,Q,Q
2023-03-14 21:56:35:255,0,-12.46,-3.69822,3.91929,Q,Q
2023-03-14 21:56:35:265,0,-12.4547,-3.70415,3.91279,Q,Q
2023-03-14 21:56:35:275,0,-12.4474,-3.70613,3.90826,Q,Q
2023-03-14 21:56:35:284,0,-12.4333,-3.70021,3.90605,Q,Q
2023-03-14 21:56:35:295,0,-12.4138,-3.69264,3.9127,Q,Q
2023-03-14 21:56:35:304,0,-12.3985,-3.68651,3.92107,Q,Q
2023-03-14 21:56:35:314,0,-12.3835,-3.68502,3.93257,Q,Q
2023-03-14 21:56:35:324,0,-12.3697,-3.68544,3.94375,Q,Q
2023-03-14 21:56:35:335,0,-12.3578,-3.68527,3.95646,Q,Q
2023-03-14 21:56:35:344,0,-12.3392,-3.69404,3.96599,Q,Q
2023-03-14 21:56:35:355,0,-12.3181,-3.70266,3.96958,Q,Q
2023-03-14 21:56:35:365,0,-12.3005,-3.71302,3.97009,Q,Q
2023-03-14 21:56:35:375,0,-12.2829,-3.72349,3.96974,Q,Q
2023-03-14 21:56:35:385,0,-12.2675,-3.733,3.96284,Q,Q
2023-03-14 21:56:35:395,0,-12.2557,-3.74297,3.95317,Q,Q
2023-03-14 21:56:35:404,0,-12.2454,-3.75719,3.94055,Q,Q
2023-03-14 21:56:35:415,0,-12.238,-3.76929,3.92886,Q,Q
2023-03-14 21:56:35:424,0,-12.2273,-3.78307,3.91998,Q,Q
2023-03-14 21:56:35:434,0,-12.2171,-3.79422,3.90635,Q,Q
2023-03-14 21:56:35:444,0,-12.2061,-3.80522,3.89979,Q,Q
2023-03-14 21:56:35:454,0,-12.1914,-3.81502,3.89214,Q,Q
2023-03-14 21:56:35:464,0,-12.1786,-3.81448,3.88578,Q,Q
2023-03-14 21:56:35:474,0,-12.168,-3.81824,3.88393,Q,Q
2023-03-14 21:56:35:484,0,-12.1621,-3.81852,3.88023,Q,Q
2023-03-14 21:56:35:495,0,-12.1594,-3.81731,3.88102,Q,Q
2023-03-14 21:56:35:504,0,-12.1605,-3.81708,3.8848,Q,Q
2023-03-14 21:56:35:515,0,-12.1646,-3.81895,3.88889,Q,Q
2023-03-14 21:56:35:524,0,-12.1646,-3.8204,3.89328,Q,Q
2023-03-14 21:56:35:535,0,-12.1626,-3.81635,3.89625,Q,Q
2023-03-14 21:56:35:544,0,-12.1629,-3.81937,3.90032,Q,Q
2023-03-14 21:56:35:555,0,-12.1604,-3.82433,3.89926,Q,Q
2023-03-14 21:56:35:564,0,-12.1567,-3.82646,3.89936,Q,Q
2023-03-14 21:56:35:574,0,-12.1577,-3.82763,3.89875,Q,Q
2023-03-14 21:56:35:584,0,-12.1586,-3.82432,3.89681,Q,Q
2023-03-14 21:56:35:594,0,-12.1589,-3.81836,3.89139,Q,Q
2023-03-14 21:56:35:604,0,-12.1564,-3.8084,3.87987,Q,Q
2023-03-14 21:56:35:615,0,-12.1472,-3.79942,3.87106,Q,Q
2023-03-14 21:56:35:624,0,-12.1366,-3.78476,3.8575,Q,Q
2023-03-14 21:56:35:634,0,-12.1248,-3.77263,3.84753,Q,Q
2023-03-14 21:56:35:644,0,-12.1098,-3.75632,3.84052,Q,Q
2023-03-14 21:56:35:655,0,-12.0947,-3.73311,3.83507,Q,Q
2023-03-14 21:56:35:664,0,-12.0763,-3.71149,3.8356,Q,Q
2023-03-14 21:56:35:675,0,-12.0572,-3.68477,3.83699,Q,Q
2023-03-14 21:56:35:684,0,-12.0423,-3.64907,3.83504,Q,Q
2023-03-14 21:56:35:695,0,-12.0374,-3.60759,3.82662,Q,Q
2023-03-14 21:56:35:704,0,-12.0297,-3.55479,3.81766,Q,Q
2023-03-14 21:56:35:715,0,-12.0167,-3.50589,3.80471,Q,Q
2023-03-14 21:56:35:725,0,-11.9967,-3.45196,3.79103,Q,Q
2023-03-14 21:56:35:735,0,-11.9664,-3.40795,3.78154,Q,Q
2023-03-14 21:56:35:744,0,-11.9313,-3.37529,3.77658,Q,Q
2023-03-14 21:56:35:754,0,-11.8969,-3.35171,3.7704,Q,Q
2023-03-14 21:56:35:765,0,-11.8649,-3.33539,3.7648,Q,Q
2023-03-14 21:56:35:775,0,-11.8449,-3.3261,3.75179,Q,Q
2023-03-14 21:56:35:785,0,-11.8403,-3.31238,3.73107,Q,Q
2023-03-14 21:56:35:794,0,-11.8435,-3.29714,3.70526,Q,Q
2023-03-14 21:56:35:804,0,-11.8539,-3.2862,3.67996,Q,Q
2023-03-14 21:56:35:814,0,-11.8657,-3.28088,3.66221,Q,Q
2023-03-14 21:56:35:824,0,-11.8787,-3.2831,3.64494,Q,Q
2023-03-14 21:56:35:835,0,-11.8919,-3.28588,3.62974,Q,Q
2023-03-14 21:56:35:844,0,-11.9076,-3.28797,3.61355,Q,Q
2023-03-14 21:56:35:855,0,-11.9306,-3.28679,3.59365,Q,Q
2023-03-14 21:56:35:864,0,-11.9543,-3.28366,3.57144,Q,Q
2023-03-14 21:56:35:875,0,-11.9811,-3.27583,3.54881,Q,Q
2023-03-14 21:56:35:884,0,-12.0033,-3.27237,3.5347,Q,Q
2023-03-14 21:56:35:895,0,-12.0247,-3.26558,3.52132,Q,Q
2023-03-14 21:56:35:904,0,-12.046,-3.25783,3.5096,Q,Q
2023-03-14 21:56:35:915,0,-12.0686,-3.24551,3.49936,Q,Q
2023-03-14 21:56:35:924,0,-12.0868,-3.23023,3.49394,Q,Q
2023-03-14 21:56:35:935,0,-12.1036,-3.21395,3.48896,Q,Q
2023-03-14 21:56:35:944,0,-12.124,-3.19884,3.48943,Q,Q
2023-03-14 21:56:35:954,0,-12.1445,-3.18442,3.49652,Q,Q
2023-03-14 21:56:35:965,0,-12.1691,-3.16886,3.50824,Q,Q
2023-03-14 21:56:35:975,0,-12.2017,-3.15317,3.52059,Q,Q
2023-03-14 21:56:35:984,0,-12.2335,-3.13771,3.53038,Q,Q
2023-03-14 21:56:35:995,0,-12.2612,-3.12165,3.54038,Q,Q
2023-03-14 21:56:36:4,0,-12.2888,-3.11327,3.55428,Q,Q
2023-03-14 21:56:36:15,0,-12.3149,-3.10789,3.56451,Q,Q
2023-03-14 21:56:36:24,0,-12.3321,-3.10751,3.57645,Q,Q
2023-03-14 21:56:36:35,0,-12.3471,-3.1161,3.58733,Q,Q
2023-03-14 21:56:36:44,0,-12.3614,-3.12236,3.59424,Q,Q
2023-03-14 21:56:36:55,0,-12.3757,-3.1275,3.59789,Q,Q
2023-03-14 21:56:36:65,0,-12.3921,-3.13171,3.59411,Q,Q
2023-03-14 21:56:36:75,0,-12.4125,-3.13181,3.58713,Q,Q
2023-03-14 21:56:36:84,0,-12.4343,-3.13498,3.57428,Q,Q
2023-03-14 21:56:36:95,0,-12.4508,-3.13621,3.56276,Q,Q
2023-03-14 21:56:36:104,0,-12.4682,-3.13789,3.55082,Q,Q
2023-03-14 21:56:36:115,0,-12.4844,-3.1419,3.53865,Q,Q
2023-03-14 21:56:36:124,0,-12.4994,-3.15045,3.52869,Q,Q
2023-03-14 21:56:36:134,0,-12.5135,-3.15412,3.5199,Q,Q
2023-03-14 21:56:36:144,0,-12.5257,-3.15716,3.51387,Q,Q
2023-03-14 21:56:36:155,0,-12.5356,-3.15941,3.51201,Q,Q
2023-03-14 21:56:36:164,0,-12.539,-3.16017,3.51278,Q,Q
2023-03-14 21:56:36:174,0,-12.5449,-3.16325,3.52295,Q,Q
2023-03-14 21:56:36:184,0,-12.5543,-3.17058,3.5407,Q,Q
2023-03-14 21:56:36:194,0,-12.5676,-3.17375,3.56299,Q,Q
2023-03-14 21:56:36:204,0,-12.5914,-3.17873,3.59678,Q,Q
2023-03-14 21:56:36:215,0,-12.6209,-3.18294,3.63219,Q,Q
2023-03-14 21:56:36:224,0,-12.6611,-3.1833,3.66884,Q,Q
2023-03-14 21:56:36:235,0,-12.6996,-3.17957,3.70803,Q,Q
2023-03-14 21:56:36:244,0,-12.7415,-3.17625,3.75259,Q,Q
2023-03-14 21:56:36:255,0,-12.7765,-3.16929,3.79705,Q,Q
2023-03-14 21:56:36:264,0,-12.8107,-3.16346,3.84116,Q,Q
2023-03-14 21:56:36:275,0,-12.8445,-3.15588,3.88509,Q,Q
2023-03-14 21:56:36:284,0,-12.8775,-3.1518,3.93284,Q,Q
2023-03-14 21:56:36:295,0,-12.9164,-3.14815,3.97824,Q,Q
2023-03-14 21:56:36:305,0,-12.9595,-3.14057,4.02289,Q,Q
2023-03-14 21:56:36:315,0,-13.0043,-3.12981,4.06577,Q,Q
2023-03-14 21:56:36:325,0,-13.051,-3.11839,4.10481,Q,Q
2023-03-14 21:56:36:335,0,-13.0947,-3.10706,4.1429,Q,Q
2023-03-14 21:56:36:344,0,-13.1405,-3.09273,4.17934,Q,Q
2023-03-14 21:56:36:355,0,-13.1822,-3.08344,4.21056,Q,Q
2023-03-14 21:56:36:364,0,-13.2157,-3.07538,4.24144,Q,Q
2023-03-14 21:56:36:375,0,-13.2467,-3.06602,4.27101,Q,Q
2023-03-14 21:56:36:384,0,-13.2735,-3.05996,4.29547,Q,Q
2023-03-14 21:56:36:394,0,-13.2987,-3.05435,4.3234,Q,Q
2023-03-14 21:56:36:405,0,-13.3255,-3.05235,4.34691,Q,Q
2023-03-14 21:56:36:414,0,-13.3543,-3.05023,4.36753,Q,Q
2023-03-14 21:56:36:424,0,-13.3825,-3.04855,4.38557,Q,Q
2023-03-14 21:56:36:435,0,-13.4101,-3.04992,4.40331,Q,Q
2023-03-14 21:56:36:444,0,-13.4376,-3.05882,4.42185,Q,Q
2023-03-14 21:56:36:454,0,-13.461,-3.06884,4.43717,Q,Q
2023-03-14 21:56:36:464,0,-13.4781,-3.08223,4.45498,Q,Q
2023-03-14 21:56:36:475,0,-13.4924,-3.09214,4.47291,Q,Q
2023-03-14 21:56:36:484,0,-13.5031,-3.106,4.49618,Q,Q
2023-03-14 21:56:36:494,0,-13.5151,-3.11715,4.51926,Q,Q
2023-03-14 21:56:36:504,0,-13.5285,-3.12826,4.54726,Q,Q
2023-03-14 21:56:36:515,0,-13.5407,-3.13973,4.56977,Q,Q
2023-03-14 21:56:36:524,0,-13.5587,-3.15165,4.59445,Q,Q
2023-03-14 21:56:36:534,0,-13.5687,-3.16509,4.61664,Q,Q
2023-03-14 21:56:36:544,0,-13.5778,-3.17633,4.63794,Q,Q
2023-03-14 21:56:36:555,0,-13.5842,-3.19063,4.65702,Q,Q
2023-03-14 21:56:36:564,0,-13.5811,-3.20339,4.67365,Q,Q
2023-03-14 21:56:36:575,0,-13.5764,-3.21355,4.69299,Q,Q
2023-03-14 21:56:36:584,0,-13.57,-3.22221,4.70641,Q,Q
2023-03-14 21:56:36:595,0,-13.5677,-3.23388,4.71698,Q,Q
2023-03-14 21:56:36:604,0,-13.5666,-3.2439,4.72721,Q,Q
2023-03-14 21:56:36:615,0,-13.5638,-3.25479,4.73608,Q,Q
2023-03-14 21:56:36:624,0,-13.558,-3.27097,4.74581,Q,Q
2023-03-14 21:56:36:634,0,-13.5497,-3.2904,4.75423,Q,Q
2023-03-14 21:56:36:644,0,-13.5371,-3.30661,4.75658,Q,Q
2023-03-14 21:56:36:654,0,-13.5164,-3.32654,4.75743,Q,Q
2023-03-14 21:56:36:664,0,-13.495,-3.33809,4.75363,Q,Q
2023-03-14 21:56:36:675,0,-13.4775,-3.35242,4.75195,Q,Q
2023-03-14 21:56:36:684,0,-13.4641,-3.36142,4.74738,Q,Q
2023-03-14 21:56:36:695,0,-13.4577,-3.37264,4.73974,Q,Q
2023-03-14 21:56:36:704,0,-13.4483,-3.38316,4.73035,Q,Q
2023-03-14 21:56:36:715,0,-13.4382,-3.39423,4.71746,Q,Q
2023-03-14 21:56:36:724,0,-13.4235,-3.40241,4.70184,Q,Q
2023-03-14 21:56:36:735,0,-13.4026,-3.412,4.68038,Q,Q
2023-03-14 21:56:36:744,0,-13.3788,-3.4225,4.65785,Q,Q
2023-03-14 21:56:36:755,0,-13.3561,-3.4279,4.63912,Q,Q
2023-03-14 21:56:36:765,0,-13.3381,-3.42859,4.61724,Q,Q
2023-03-14 21:56:36:775,0,-13.3251,-3.43295,4.59116,Q,Q
2023-03-14 21:56:36:784,0,-13.3099,-3.43651,4.5576,Q,Q
2023-03-14 21:56:36:795,0,-13.295,-3.43707,4.51552,Q,Q
2023-03-14 21:56:36:804,0,-13.2793,-3.43445,4.45871,Q,Q
2023-03-14 21:56:36:815,0,-13.2613,-3.43152,4.40384,Q,Q
2023-03-14 21:56:36:824,0,-13.2411,-3.42918,4.34834,Q,Q
2023-03-14 21:56:36:834,0,-13.2199,-3.42981,4.29491,Q,Q
2023-03-14 21:56:36:844,0,-13.1942,-3.43528,4.24212,Q,Q
2023-03-14 21:56:36:855,0,-13.1655,-3.43857,4.18979,Q,Q
2023-03-14 21:56:36:864,0,-13.1272,-3.43674,4.13285,Q,Q
2023-03-14 21:56:36:875,0,-13.0874,-3.43315,4.0736,Q,Q
2023-03-14 21:56:36:885,0,-13.0514,-3.42951,4.01214,Q,Q
2023-03-14 21:56:36:895,0,-13.0293,-3.42692,3.94932,Q,Q
2023-03-14 21:56:36:905,0,-13.0194,-3.42349,3.88433,Q,Q
2023-03-14 21:56:36:915,0,-13.0263,-3.41863,3.81472,Q,Q
2023-03-14 21:56:36:924,0,-13.0372,-3.4152,3.73798,Q,Q
2023-03-14 21:56:36:935,0,-13.0511,-3.40779,3.66151,Q,Q
2023-03-14 21:56:36:945,0,-13.0608,-3.39869,3.58293,Q,Q
2023-03-14 21:56:36:955,0,-13.0594,-3.39072,3.50642,Q,Q
2023-03-14 21:56:36:964,0,-13.0535,-3.38003,3.4334,Q,Q
2023-03-14 21:56:36:975,0,-13.0413,-3.3721,3.36309,Q,Q
2023-03-14 21:56:36:985,0,-13.0286,-3.36042,3.29908,Q,Q
2023-03-14 21:56:36:995,0,-13.0168,-3.34391,3.23375,Q,Q
2023-03-14 21:56:37:5,0,-13.0075,-3.32873,3.17263,Q,Q
2023-03-14 21:56:37:14,0,-12.998,-3.31274,3.11352,Q,Q
2023-03-14 21:56:37:24,0,-12.9875,-3.29897,3.0577,Q,Q
2023-03-14 21:56:37:35,0,-12.9726,-3.2837,3.0058,Q,Q
2023-03-14 21:56:37:44,0,-12.9559,-3.27262,2.96093,Q,Q
2023-03-14 21:56:37:55,0,-12.9397,-3.26642,2.92555,Q,Q
2023-03-14 21:56:37:64,0,-12.9227,-3.26144,2.8944,Q,Q
2023-03-14 21:56:37:74,0,-12.9134,-3.25548,2.86782,Q,Q
2023-03-14 21:56:37:84,0,-12.9062,-3.24758,2.84736,Q,Q
2023-03-14 21:56:37:95,0,-12.908,-3.24246,2.82764,Q,Q
2023-03-14 21:56:37:105,0,-12.914,-3.23754,2.80627,Q,Q
2023-03-14 21:56:37:115,0,-12.9256,-3.23246,2.78322,Q,Q
2023-03-14 21:56:37:125,0,-12.9413,-3.22746,2.75939,Q,Q
2023-03-14 21:56:37:135,0,-12.955,-3.22544,2.73047,Q,Q
2023-03-14 21:56:37:144,0,-12.9629,-3.22252,2.6981,Q,Q
2023-03-14 21:56:37:154,0,-12.971,-3.21618,2.66458,Q,Q
2023-03-14 21:56:37:164,0,-12.9801,-3.2118,2.6269,Q,Q
2023-03-14 21:56:37:175,0,-12.9862,-3.20848,2.58662,Q,Q
2023-03-14 21:56:37:184,0,-12.9986,-3.20538,2.54833,Q,Q
2023-03-14 21:56:37:195,0,-13.0067,-3.2124,2.51284,Q,Q
2023-03-14 21:56:37:204,0,-13.0199,-3.22783,2.47206,Q,Q
2023-03-14 21:56:37:215,0,-13.0345,-3.24709,2.43291,Q,Q
2023-03-14 21:56:37:224,0,-13.0371,-3.26901,2.39381,Q,Q
2023-03-14 21:56:37:234,0,-13.0363,-3.29365,2.34967,Q,Q
2023-03-14 21:56:37:244,0,-13.0283,-3.31606,2.30387,Q,Q
2023-03-14 21:56:37:255,0,-13.0123,-3.33204,2.25608,Q,Q
2023-03-14 21:56:37:265,0,-12.9956,-3.34635,2.2071,Q,Q
2023-03-14 21:56:37:275,0,-12.974,-3.3604,2.15959,Q,Q
2023-03-14 21:56:37:284,0,-12.9523,-3.37738,2.11544,Q,Q
2023-03-14 21:56:37:295,0,-12.9326,-3.39547,2.07507,Q,Q
2023-03-14 21:56:37:304,0,-12.9141,-3.4143,2.03418,Q,Q
2023-03-14 21:56:37:315,0,-12.904,-3.43052,1.9906,Q,Q
2023-03-14 21:56:37:324,0,-12.8937,-3.44772,1.94554,Q,Q
2023-03-14 21:56:37:335,0,-12.8829,-3.46866,1.90105,Q,Q
2023-03-14 21:56:37:345,0,-12.8659,-3.48941,1.8581,Q,Q
2023-03-14 21:56:37:355,0,-12.8458,-3.5091,1.8131,Q,Q
2023-03-14 21:56:37:365,0,-12.8254,-3.51769,1.76827,Q,Q
2023-03-14 21:56:37:375,0,-12.8068,-3.53311,1.72584,Q,Q
2023-03-14 21:56:37:385,0,-12.7905,-3.54384,1.69019,Q,Q
2023-03-14 21:56:37:395,0,-12.7752,-3.5507,1.6588,Q,Q
2023-03-14 21:56:37:405,0,-12.7685,-3.56005,1.63281,Q,Q
2023-03-14 21:56:37:415,0,-12.7591,-3.57043,1.60838,Q,Q
2023-03-14 21:56:37:424,0,-12.7463,-3.57937,1.58295,Q,Q
2023-03-14 21:56:37:435,0,-12.7298,-3.58905,1.5632,Q,Q
2023-03-14 21:56:37:444,0,-12.709,-3.59841,1.54382,Q,Q
2023-03-14 21:56:37:455,0,-12.6917,-3.6004,1.52606,Q,Q
2023-03-14 21:56:37:464,0,-12.6737,-3.59724,1.51246,Q,Q
2023-03-14 21:56:37:475,0,-12.6629,-3.59808,1.50393,Q,Q
2023-03-14 21:56:37:485,0,-12.6602,-3.59735,1.50943,Q,Q
2023-03-14 21:56:37:494,0,-12.6731,-3.59711,1.52243,Q,Q
2023-03-14 21:56:37:504,0,-12.7066,-3.60324,1.54299,Q,Q
2023-03-14 21:56:37:515,0,-12.7498,-3.61379,1.56335,Q,Q
2023-03-14 21:56:37:525,0,-12.7929,-3.61738,1.57732,Q,Q
2023-03-14 21:56:37:535,0,-12.8254,-3.61604,1.57783,Q,Q
2023-03-14 21:56:37:545,0,-12.8467,-3.60875,1.56878,Q,Q
2023-03-14 21:56:37:555,0,-12.862,-3.59295,1.54714,Q,Q
2023-03-14 21:56:37:564,0,-12.8743,-3.57398,1.51564,Q,Q
2023-03-14 21:56:37:575,0,-12.888,-3.55389,1.47044,Q,Q
2023-03-14 21:56:37:584,0,-12.903,-3.52828,1.41154,Q,Q
2023-03-14 21:56:37:595,0,-12.921,-3.50025,1.34633,Q,Q
2023-03-14 21:56:37:605,0,-12.9426,-3.47347,1.27394,Q,Q
2023-03-14 21:56:37:614,0,-12.9629,-3.44717,1.19959,Q,Q
2023-03-14 21:56:37:624,0,-12.9863,-3.41822,1.11955,Q,Q
2023-03-14 21:56:37:634,0,-13.0148,-3.38865,1.04093,Q,Q
2023-03-14 21:56:37:645,0,-13.0451,-3.35743,0.964022,Q,Q
2023-03-14 21:56:37:654,0,-13.0712,-3.32979,0.88413,Q,Q
2023-03-14 21:56:37:664,0,-13.0899,-3.30691,0.806223,Q,Q
2023-03-14 21:56:37:675,0,-13.0984,-3.29291,0.733798,Q,Q
2023-03-14 21:56:37:684,0,-13.101,-3.2885,0.658995,Q,Q
2023-03-14 21:56:37:695,0,-13.0935,-3.29702,0.582922,Q,Q
2023-03-14 21:56:37:704,0,-13.0831,-3.31121,0.508844,Q,Q
2023-03-14 21:56:37:714,0,-13.0717,-3.33116,0.434613,Q,Q
2023-03-14 21:56:37:724,0,-13.0502,-3.35596,0.364751,Q,Q
2023-03-14 21:56:37:735,0,-13.0321,-3.37844,0.2975,Q,Q
2023-03-14 21:56:37:744,0,-13.0167,-3.40354,0.230841,Q,Q
2023-03-14 21:56:37:755,0,-13.0006,-3.43399,0.170146,Q,Q
2023-03-14 21:56:37:765,0,-12.9871,-3.46602,0.115679,Q,Q
2023-03-14 21:56:37:775,0,-12.973,-3.49696,0.0636953,Q,Q
2023-03-14 21:56:37:784,0,-12.9637,-3.52164,0.0128131,Q,Q
2023-03-14 21:56:37:795,0,-12.9617,-3.53763,-0.0360329,Q,Q
2023-03-14 21:56:37:804,0,-12.966,-3.54775,-0.0872814,Q,Q
2023-03-14 21:56:37:815,0,-12.9786,-3.55605,-0.134344,Q,Q
2023-03-14 21:56:37:824,0,-12.9993,-3.56119,-0.182741,Q,Q
2023-03-14 21:56:37:834,0,-13.0271,-3.56567,-0.229167,Q,Q
2023-03-14 21:56:37:844,0,-13.0589,-3.57596,-0.26704,Q,Q
2023-03-14 21:56:37:855,0,-13.0902,-3.58942,-0.301536,Q,Q
2023-03-14 21:56:37:864,0,-13.1151,-3.60468,-0.332442,Q,Q
2023-03-14 21:56:37:875,0,-13.1366,-3.62329,-0.356652,Q,Q
2023-03-14 21:56:37:884,0,-13.1525,-3.6471,-0.375208,Q,Q
2023-03-14 21:56:37:894,0,-13.1654,-3.67599,-0.378703,Q,Q
2023-03-14 21:56:37:904,0,-13.1795,-3.70826,-0.379253,Q,Q
2023-03-14 21:56:37:915,0,-13.206,-3.73978,-0.372695,Q,Q
2023-03-14 21:56:37:924,0,-13.2392,-3.77207,-0.36912,Q,Q
2023-03-14 21:56:37:934,0,-13.2807,-3.80449,-0.371393,Q,Q
2023-03-14 21:56:37:944,0,-13.325,-3.83319,-0.377858,Q,Q
2023-03-14 21:56:37:955,0,-13.3707,-3.8628,-0.395635,Q,Q
2023-03-14 21:56:37:964,0,-13.4095,-3.89411,-0.419846,Q,Q
2023-03-14 21:56:37:974,0,-13.4413,-3.92505,-0.455924,Q,Q
2023-03-14 21:56:37:984,0,-13.4646,-3.95171,-0.501528,Q,Q
2023-03-14 21:56:37:995,0,-13.487,-3.97439,-0.553811,Q,Q
2023-03-14 21:56:38:4,0,-13.5071,-3.99032,-0.614627,Q,Q
2023-03-14 21:56:38:15,0,-13.5227,-3.9995,-0.674611,Q,Q
2023-03-14 21:56:38:24,0,-13.5397,-4.00379,-0.728143,Q,Q
2023-03-14 21:56:38:34,0,-13.5517,-4.00903,-0.770974,Q,Q
2023-03-14 21:56:38:44,0,-13.5645,-4.00907,-0.803175,Q,Q
2023-03-14 21:56:38:55,0,-13.5748,-4.00923,-0.830329,Q,Q
2023-03-14 21:56:38:64,0,-13.5784,-4.00611,-0.84969,Q,Q
2023-03-14 21:56:38:75,0,-13.5742,-4.00263,-0.864708,Q,Q
2023-03-14 21:56:38:84,0,-13.5574,-4.00221,-0.884845,Q,Q
2023-03-14 21:56:38:94,0,-13.527,-4.00105,-0.908832,Q,Q
2023-03-14 21:56:38:104,0,-13.4808,-3.9996,-0.932328,Q,Q
2023-03-14 21:56:38:114,0,-13.4244,-4.00028,-0.955244,Q,Q
2023-03-14 21:56:38:124,0,-13.3641,-4.00515,-0.96895,Q,Q
2023-03-14 21:56:38:134,0,-13.3036,-4.01829,-0.97179,Q,Q
2023-03-14 21:56:38:144,0,-13.2413,-4.03818,-0.960567,Q,Q
2023-03-14 21:56:38:155,0,-13.1841,-4.06988,-0.936479,Q,Q
2023-03-14 21:56:38:164,0,-13.1312,-4.1082,-0.91097,Q,Q
2023-03-14 21:56:38:174,0,-13.0836,-4.15093,-0.882828,Q,Q
2023-03-14 21:56:38:184,0,-13.0389,-4.19129,-0.863675,Q,Q
2023-03-14 21:56:38:194,0,-12.9964,-4.22958,-0.845594,Q,Q
2023-03-14 21:56:38:204,0,-12.9568,-4.26327,-0.841469,Q,Q
2023-03-14 21:56:38:215,0,-12.9247,-4.29718,-0.844161,Q,Q
2023-03-14 21:56:38:224,0,-12.9024,-4.32966,-0.851862,Q,Q
2023-03-14 21:56:38:235,0,-12.8925,-4.35704,-0.863833,Q,Q
2023-03-14 21:56:38:244,0,-12.8894,-4.3859,-0.871049,Q,Q
2023-03-14 21:56:38:254,0,-12.9,-4.40525,-0.877306,Q,Q
2023-03-14 21:56:38:264,0,-12.9182,-4.41875,-0.882501,Q,Q
2023-03-14 21:56:38:275,0,-12.9386,-4.42221,-0.88125,Q,Q
2023-03-14 21:56:38:284,0,-12.9607,-4.4182,-0.87857,Q,Q
2023-03-14 21:56:38:295,0,-12.9829,-4.41116,-0.865015,Q,Q
2023-03-14 21:56:38:304,0,-13.004,-4.39781,-0.847164,Q,Q
2023-03-14 21:56:38:314,0,-13.0223,-4.38121,-0.827568,Q,Q
2023-03-14 21:56:38:324,0,-13.0384,-4.36573,-0.806812,Q,Q
2023-03-14 21:56:38:335,0,-13.0507,-4.35623,-0.786099,Q,Q
2023-03-14 21:56:38:344,0,-13.0545,-4.34975,-0.761188,Q,Q
2023-03-14 21:56:38:354,0,-13.0537,-4.34442,-0.740467,Q,Q
2023-03-14 21:56:38:364,0,-13.0402,-4.34388,-0.720598,Q,Q
2023-03-14 21:56:38:375,0,-13.0214,-4.3512,-0.698492,Q,Q
2023-03-14 21:56:38:384,0,-12.9933,-4.3645,-0.684527,Q,Q
2023-03-14 21:56:38:395,0,-12.956,-4.37998,-0.672773,Q,Q
2023-03-14 21:56:38:404,0,-12.9113,-4.39814,-0.673207,Q,Q
2023-03-14 21:56:38:415,0,-12.855,-4.41923,-0.678306,Q,Q
2023-03-14 21:56:38:424,0,-12.7929,-4.44062,-0.689625,Q,Q
2023-03-14 21:56:38:434,0,-12.7212,-4.46236,-0.701259,Q,Q
2023-03-14 21:56:38:444,0,-12.6411,-4.48051,-0.720861,Q,Q
2023-03-14 21:56:38:454,0,-12.5557,-4.49388,-0.743959,Q,Q
2023-03-14 21:56:38:464,0,-12.4659,-4.49754,-0.771463,Q,Q
2023-03-14 21:56:38:474,0,-12.3728,-4.49436,-0.801103,Q,Q
2023-03-14 21:56:38:485,0,-12.2841,-4.48424,-0.832423,Q,Q
2023-03-14 21:56:38:495,0,-12.2025,-4.46763,-0.869673,Q,Q
2023-03-14 21:56:38:504,0,-12.1207,-4.44093,-0.915708,Q,Q
2023-03-14 21:56:38:515,0,-12.0375,-4.41229,-0.969774,Q,Q
2023-03-14 21:56:38:524,0,-11.9532,-4.38284,-1.02757,Q,Q
2023-03-14 21:56:38:535,0,-11.8666,-4.35282,-1.08745,Q,Q
2023-03-14 21:56:38:544,0,-11.7852,-4.32364,-1.14761,Q,Q
2023-03-14 21:56:38:554,0,-11.7079,-4.30092,-1.21268,Q,Q
2023-03-14 21:56:38:564,0,-11.6368,-4.28693,-1.27014,Q,Q
2023-03-14 21:56:38:575,0,-11.57,-4.2888,-1.32779,Q,Q
2023-03-14 21:56:38:584,0,-11.5088,-4.30614,-1.3818,Q,Q
2023-03-14 21:56:38:595,0,-11.4579,-4.33752,-1.42674,Q,Q
2023-03-14 21:56:38:604,0,-11.4116,-4.37992,-1.46018,Q,Q
2023-03-14 21:56:38:615,0,-11.3694,-4.42688,-1.49429,Q,Q
2023-03-14 21:56:38:624,0,-11.3212,-4.46961,-1.52673,Q,Q
2023-03-14 21:56:38:635,0,-11.2648,-4.50318,-1.55609,Q,Q
2023-03-14 21:56:38:644,0,-11.2073,-4.52631,-1.58644,Q,Q
2023-03-14 21:56:38:655,0,-11.1515,-4.54196,-1.61519,Q,Q
2023-03-14 21:56:38:664,0,-11.1011,-4.54993,-1.6399,Q,Q
2023-03-14 21:56:38:674,0,-11.0572,-4.55365,-1.66329,Q,Q
2023-03-14 21:56:38:684,0,-11.021,-4.55212,-1.68621,Q,Q
2023-03-14 21:56:38:694,0,-10.9929,-4.54867,-1.70875,Q,Q
2023-03-14 21:56:38:704,0,-10.969,-4.54497,-1.73338,Q,Q
2023-03-14 21:56:38:715,0,-10.9495,-4.53968,-1.7547,Q,Q
2023-03-14 21:56:38:724,0,-10.9404,-4.53401,-1.77695,Q,Q
2023-03-14 21:56:38:735,0,-10.9327,-4.5293,-1.80463,Q,Q
2023-03-14 21:56:38:744,0,-10.9296,-4.53167,-1.83587,Q,Q
2023-03-14 21:56:38:755,0,-10.9273,-4.53717,-1.86885,Q,Q
2023-03-14 21:56:38:764,0,-10.9188,-4.54985,-1.89963,Q,Q
2023-03-14 21:56:38:775,0,-10.9042,-4.56381,-1.93655,Q,Q
2023-03-14 21:56:38:784,0,-10.8811,-4.57994,-1.97063,Q,Q
2023-03-14 21:56:38:795,0,-10.849,-4.60121,-1.99625,Q,Q
2023-03-14 21:56:38:804,0,-10.811,-4.63169,-2.01385,Q,Q
2023-03-14 21:56:38:814,0,-10.7707,-4.66864,-2.02702,Q,Q
2023-03-14 21:56:38:824,0,-10.7332,-4.70915,-2.03406,Q,Q
2023-03-14 21:56:38:835,0,-10.6921,-4.7434,-2.04049,Q,Q
2023-03-14 21:56:38:845,0,-10.6569,-4.77451,-2.04491,Q,Q
2023-03-14 21:56:38:855,0,-10.6216,-4.80125,-2.0417,Q,Q
2023-03-14 21:56:38:865,0,-10.5902,-4.82442,-2.03367,Q,Q
2023-03-14 21:56:38:875,0,-10.5579,-4.84561,-2.02522,Q,Q
2023-03-14 21:56:38:885,0,-10.5257,-4.86908,-2.01009,Q,Q
2023-03-14 21:56:38:895,0,-10.4896,-4.88526,-1.99465,Q,Q
2023-03-14 21:56:38:905,0,-10.458,-4.90118,-1.97741,Q,Q
2023-03-14 21:56:38:915,0,-10.426,-4.91068,-1.96153,Q,Q
2023-03-14 21:56:38:924,0,-10.3967,-4.92034,-1.94807,Q,Q
2023-03-14 21:56:38:935,0,-10.3725,-4.932,-1.93248,Q,Q
2023-03-14 21:56:38:944,0,-10.3519,-4.938,-1.92193,Q,Q
2023-03-14 21:56:38:955,0,-10.3309,-4.94268,-1.91653,Q,Q
2023-03-14 21:56:38:964,0,-10.3105,-4.94874,-1.91306,Q,Q
2023-03-14 21:56:38:974,0,-10.2873,-4.9542,-1.91528,Q,Q
2023-03-14 21:56:38:984,0,-10.2666,-4.95783,-1.91976,Q,Q
2023-03-14 21:56:38:995,0,-10.2418,-4.95952,-1.92241,Q,Q
2023-03-14 21:56:39:5,0,-10.2145,-4.962,-1.92534,Q,Q
2023-03-14 21:56:39:15,0,-10.1871,-4.96474,-1.93228,Q,Q
2023-03-14 21:56:39:25,0,-10.162,-4.96716,-1.93333,Q,Q
2023-03-14 21:56:39:34,0,-10.1342,-4.96851,-1.93262,Q,Q
2023-03-14 21:56:39:44,0,-10.1164,-4.96853,-1.93346,Q,Q
2023-03-14 21:56:39:54,0,-10.1047,-4.96757,-1.93516,Q,Q
2023-03-14 21:56:39:64,0,-10.0951,-4.96851,-1.93143,Q,Q
2023-03-14 21:56:39:75,0,-10.0867,-4.9704,-1.92773,Q,Q
2023-03-14 21:56:39:84,0,-10.0754,-4.9731,-1.92337,Q,Q
2023-03-14 21:56:39:95,0,-10.0616,-4.97148,-1.92061,Q,Q
2023-03-14 21:56:39:104,0,-10.0432,-4.96677,-1.91188,Q,Q
2023-03-14 21:56:39:115,0,-10.0267,-4.96227,-1.90194,Q,Q
2023-03-14 21:56:39:124,0,-10.0126,-4.96106,-1.89402,Q,Q
2023-03-14 21:56:39:135,0,-10.0077,-4.95928,-1.88294,Q,Q
2023-03-14 21:56:39:144,0,-10.0098,-4.95756,-1.87403,Q,Q
2023-03-14 21:56:39:155,0,-10.0181,-4.95594,-1.86733,Q,Q
2023-03-14 21:56:39:164,0,-10.0231,-4.95595,-1.85803,Q,Q
2023-03-14 21:56:39:175,0,-10.0261,-4.95646,-1.85475,Q,Q
2023-03-14 21:56:39:184,0,-10.0286,-4.95878,-1.85642,Q,Q
2023-03-14 21:56:39:194,0,-10.0293,-4.96018,-1.85926,Q,Q
2023-03-14 21:56:39:204,0,-10.0293,-4.96473,-1.86672,Q,Q
2023-03-14 21:56:39:214,0,-10.0338,-4.97022,-1.86979,Q,Q
2023-03-14 21:56:39:224,0,-10.0364,-4.97461,-1.87399,Q,Q
2023-03-14 21:56:39:235,0,-10.0464,-4.9779,-1.88185,Q,Q
2023-03-14 21:56:39:244,0,-10.0541,-4.98088,-1.88862,Q,Q
2023-03-14 21:56:39:254,0,-10.0646,-4.98124,-1.89386,Q,Q
2023-03-14 21:56:39:264,0,-10.0741,-4.97565,-1.90176,Q,Q
2023-03-14 21:56:39:274,0,-10.0808,-4.96954,-1.9123,Q,Q
2023-03-14 21:56:39:284,0,-10.0844,-4.95617,-1.92334,Q,Q
2023-03-14 21:56:39:294,0,-10.082,-4.94555,-1.93102,Q,Q
2023-03-14 21:56:39:304,0,-10.077,-4.93652,-1.94187,Q,Q
2023-03-14 21:56:39:315,0,-10.068,-4.93013,-1.95181,Q,Q
2023-03-14 21:56:39:324,0,-10.0556,-4.92022,-1.96248,Q,Q
2023-03-14 21:56:39:335,0,-10.0423,-4.91585,-1.97357,Q,Q
2023-03-14 21:56:39:344,0,-10.0308,-4.9098,-1.98417,Q,Q
2023-03-14 21:56:39:355,0,-10.0163,-4.90159,-1.99725,Q,Q
2023-03-14 21:56:39:364,0,-9.99841,-4.89636,-2.01061,Q,Q
2023-03-14 21:56:39:375,0,-9.97758,-4.89561,-2.01545,Q,Q
2023-03-14 21:56:39:384,0,-9.95547,-4.89725,-2.01697,Q,Q
2023-03-14 21:56:39:394,0,-9.9421,-4.8975,-2.01678,Q,Q
2023-03-14 21:56:39:404,0,-9.93321,-4.9008,-2.01688,Q,Q
2023-03-14 21:56:39:415,0,-9.92542,-4.89982,-2.01821,Q,Q
2023-03-14 21:56:39:424,0,-9.91669,-4.90229,-2.01447,Q,Q
2023-03-14 21:56:39:435,0,-9.91435,-4.90354,-2.00723,Q,Q
2023-03-14 21:56:39:444,0,-9.90748,-4.9084,-1.99786,Q,Q
2023-03-14 21:56:39:454,0,-9.9054,-4.91458,-1.98909,Q,Q
2023-03-14 21:56:39:464,0,-9.90424,-4.92302,-1.97735,Q,Q
2023-03-14 21:56:39:475,0,-9.89781,-4.93103,-1.96871,Q,Q
2023-03-14 21:56:39:484,0,-9.89281,-4.9367,-1.95916,Q,Q
2023-03-14 21:56:39:495,0,-9.89013,-4.93895,-1.94618,Q,Q
2023-03-14 21:56:39:504,0,-9.88719,-4.94076,-1.93607,Q,Q
2023-03-14 21:56:39:515,0,-9.88837,-4.94335,-1.92601,Q,Q
2023-03-14 21:56:39:524,0,-9.89156,-4.94352,-1.91994,Q,Q
2023-03-14 21:56:39:534,0,-9.89401,-4.94582,-1.9153,Q,Q
2023-03-14 21:56:39:544,0,-9.89489,-4.94881,-1.90793,Q,Q
2023-03-14 21:56:39:555,0,-9.89423,-4.95042,-1.90033,Q,Q
2023-03-14 21:56:39:564,0,-9.89176,-4.95053,-1.89112,Q,Q
2023-03-14 21:56:39:575,0,-9.88644,-4.94937,-1.88524,Q,Q
2023-03-14 21:56:39:584,0,-9.88314,-4.94692,-1.87846,Q,Q
2023-03-14 21:56:39:594,0,-9.88199,-4.94499,-1.87378,Q,Q
2023-03-14 21:56:39:604,0,-9.88497,-4.93839,-1.86749,Q,Q
2023-03-14 21:56:39:615,0,-9.89111,-4.92949,-1.86535,Q,Q
2023-03-14 21:56:39:625,0,-9.89092,-4.91795,-1.86801,Q,Q
2023-03-14 21:56:39:635,0,-9.88828,-4.90878,-1.8657,Q,Q
2023-03-14 21:56:39:645,0,-9.88714,-4.90113,-1.86601,Q,Q
2023-03-14 21:56:39:655,0,-9.88281,-4.89155,-1.86291,Q,Q
2023-03-14 21:56:39:664,0,-9.88152,-4.88558,-1.86129,Q,Q
2023-03-14 21:56:39:674,0,-9.8848,-4.88184,-1.85869,Q,Q
2023-03-14 21:56:39:684,0,-9.88788,-4.87186,-1.85317,Q,Q
2023-03-14 21:56:39:695,0,-9.88915,-4.86064,-1.85105,Q,Q
2023-03-14 21:56:39:704,0,-9.88835,-4.84857,-1.84772,Q,Q
2023-03-14 21:56:39:714,0,-9.88935,-4.83745,-1.84581,Q,Q
2023-03-14 21:56:39:724,0,-9.88818,-4.82346,-1.84109,Q,Q
2023-03-14 21:56:39:734,0,-9.88554,-4.81127,-1.8411,Q,Q
2023-03-14 21:56:39:744,0,-9.88305,-4.79793,-1.83843,Q,Q
2023-03-14 21:56:39:754,0,-9.8779,-4.78702,-1.83821,Q,Q
2023-03-14 21:56:39:764,0,-9.87126,-4.77979,-1.84291,Q,Q
2023-03-14 21:56:39:775,0,-9.86518,-4.77646,-1.84646,Q,Q
2023-03-14 21:56:39:784,0,-9.85789,-4.78093,-1.85479,Q,Q
2023-03-14 21:56:39:794,0,-9.85317,-4.78094,-1.86214,Q,Q
2023-03-14 21:56:39:804,0,-9.84888,-4.77923,-1.87027,Q,Q
2023-03-14 21:56:39:815,0,-9.84584,-4.78121,-1.87913,Q,Q
2023-03-14 21:56:39:824,0,-9.85069,-4.78351,-1.88705,Q,Q
2023-03-14 21:56:39:835,0,-9.85924,-4.78316,-1.89435,Q,Q
2023-03-14 21:56:39:844,0,-9.87033,-4.78256,-1.90045,Q,Q
2023-03-14 21:56:39:855,0,-9.88053,-4.77734,-1.90123,Q,Q
2023-03-14 21:56:39:864,0,-9.88534,-4.77046,-1.90241,Q,Q
2023-03-14 21:56:39:875,0,-9.89021,-4.76599,-1.90263,Q,Q
2023-03-14 21:56:39:884,0,-9.90004,-4.75918,-1.90123,Q,Q
2023-03-14 21:56:39:895,0,-9.90594,-4.75198,-1.89867,Q,Q
2023-03-14 21:56:39:905,0,-9.90766,-4.74644,-1.89615,Q,Q
2023-03-14 21:56:39:915,0,-9.91228,-4.73724,-1.89064,Q,Q
2023-03-14 21:56:39:924,0,-9.91482,-4.73009,-1.88596,Q,Q
2023-03-14 21:56:39:935,0,-9.91489,-4.72167,-1.88345,Q,Q
2023-03-14 21:56:39:944,0,-9.91473,-4.71359,-1.88544,Q,Q
2023-03-14 21:56:39:955,0,-9.91397,-4.70903,-1.89398,Q,Q
2023-03-14 21:56:39:964,0,-9.90974,-4.70506,-1.90494,Q,Q
2023-03-14 21:56:39:975,0,-9.90684,-4.70169,-1.92183,Q,Q
2023-03-14 21:56:39:984,0,-9.90056,-4.69867,-1.94172,Q,Q
2023-03-14 21:56:39:995,0,-9.89459,-4.69499,-1.9595,Q,Q
2023-03-14 21:56:40:5,0,-9.89223,-4.69425,-1.97562,Q,Q
2023-03-14 21:56:40:15,0,-9.88981,-4.69182,-1.99359,Q,Q
2023-03-14 21:56:40:24,0,-9.8899,-4.69256,-2.00984,Q,Q
2023-03-14 21:56:40:35,0,-9.89448,-4.69653,-2.0247,Q,Q
2023-03-14 21:56:40:45,0,-9.89929,-4.70171,-2.03979,Q,Q
2023-03-14 21:56:40:55,0,-9.89679,-4.70522,-2.05867,Q,Q
2023-03-14 21:56:40:65,0,-9.89583,-4.70557,-2.0761,Q,Q
2023-03-14 21:56:40:75,0,-9.89865,-4.70448,-2.08887,Q,Q
2023-03-14 21:56:40:84,0,-9.89951,-4.7013,-2.09842,Q,Q
2023-03-14 21:56:40:95,0,-9.90403,-4.6976,-2.10664,Q,Q
2023-03-14 21:56:40:104,0,-9.90922,-4.69329,-2.11414,Q,Q
2023-03-14 21:56:40:115,0,-9.91587,-4.68538,-2.11945,Q,Q
2023-03-14 21:56:40:124,0,-9.92134,-4.67506,-2.1204,Q,Q
2023-03-14 21:56:40:135,0,-9.92766,-4.6646,-2.12499,Q,Q
2023-03-14 21:56:40:144,0,-9.93586,-4.65243,-2.1286,Q,Q
2023-03-14 21:56:40:155,0,-9.93983,-4.63931,-2.13111,Q,Q
2023-03-14 21:56:40:164,0,-9.93902,-4.62474,-2.13091,Q,Q
2023-03-14 21:56:40:175,0,-9.93736,-4.60699,-2.13396,Q,Q
2023-03-14 21:56:40:184,0,-9.92961,-4.5869,-2.13205,Q,Q
2023-03-14 21:56:40:195,0,-9.92442,-4.57225,-2.12554,Q,Q
2023-03-14 21:56:40:204,0,-9.91553,-4.55922,-2.11275,Q,Q
2023-03-14 21:56:40:214,0,-9.90764,-4.54941,-2.09803,Q,Q
2023-03-14 21:56:40:224,0,-9.90568,-4.53988,-2.08442,Q,Q
2023-03-14 21:56:40:235,0,-9.90406,-4.52813,-2.07534,Q,Q
2023-03-14 21:56:40:244,0,-9.90126,-4.51544,-2.06577,Q,Q
2023-03-14 21:56:40:255,0,-9.90032,-4.50601,-2.05899,Q,Q
2023-03-14 21:56:40:265,0,-9.90506,-4.49508,-2.05239,Q,Q
2023-03-14 21:56:40:275,0,-9.91361,-4.49026,-2.05223,Q,Q
2023-03-14 21:56:40:284,0,-9.92311,-4.48628,-2.05668,Q,Q
2023-03-14 21:56:40:295,0,-9.92847,-4.48857,-2.06439,Q,Q
2023-03-14 21:56:40:304,0,-9.93402,-4.48611,-2.07709,Q,Q
2023-03-14 21:56:40:315,0,-9.93355,-4.48313,-2.0906,Q,Q
2023-03-14 21:56:40:325,0,-9.93978,-4.47823,-2.10317,Q,Q
2023-03-14 21:56:40:335,0,-9.94733,-4.47193,-2.11969,Q,Q
2023-03-14 21:56:40:345,0,-9.9589,-4.46396,-2.13835,Q,Q
2023-03-14 21:56:40:355,0,-9.97115,-4.45601,-2.16012,Q,Q
2023-03-14 21:56:40:364,0,-9.98317,-4.44947,-2.18204,Q,Q
2023-03-14 21:56:40:375,0,-10.0014,-4.44375,-2.20664,Q,Q
2023-03-14 21:56:40:384,0,-10.0184,-4.43696,-2.23012,Q,Q
2023-03-14 21:56:40:395,0,-10.0295,-4.43323,-2.25163,Q,Q
2023-03-14 21:56:40:405,0,-10.0419,-4.42492,-2.2704,Q,Q
2023-03-14 21:56:40:415,0,-10.0586,-4.41921,-2.28643,Q,Q
2023-03-14 21:56:40:424,0,-10.0733,-4.41091,-2.30041,Q,Q
2023-03-14 21:56:40:435,0,-10.0902,-4.39709,-2.30974,Q,Q
2023-03-14 21:56:40:445,0,-10.1063,-4.38615,-2.31695,Q,Q
2023-03-14 21:56:40:455,0,-10.1128,-4.37191,-2.3204,Q,Q
2023-03-14 21:56:40:464,0,-10.1227,-4.36402,-2.32044,Q,Q
2023-03-14 21:56:40:474,0,-10.1258,-4.36203,-2.3226,Q,Q
2023-03-14 21:56:40:485,0,-10.1284,-4.35946,-2.32164,Q,Q
2023-03-14 21:56:40:494,0,-10.1326,-4.36106,-2.32141,Q,Q
2023-03-14 21:56:40:504,0,-10.1388,-4.35823,-2.319,Q,Q
2023-03-14 21:56:40:515,0,-10.1422,-4.35398,-2.3191,Q,Q
2023-03-14 21:56:40:525,0,-10.1425,-4.34937,-2.31435,Q,Q
2023-03-14 21:56:40:535,0,-10.1368,-4.34292,-2.30821,Q,Q
2023-03-14 21:56:40:545,0,-10.1313,-4.3361,-2.30156,Q,Q
2023-03-14 21:56:40:554,0,-10.1242,-4.32965,-2.29023,Q,Q
2023-03-14 21:56:40:565,0,-10.1174,-4.32292,-2.28037,Q,Q
2023-03-14 21:56:40:575,0,-10.1127,-4.317,-2.27069,Q,Q
2023-03-14 21:56:40:584,0,-10.1097,-4.31327,-2.26357,Q,Q
2023-03-14 21:56:40:595,0,-10.1069,-4.31271,-2.26259,Q,Q
2023-03-14 21:56:40:604,0,-10.1052,-4.31413,-2.26291,Q,Q
2023-03-14 21:56:40:615,0,-10.104,-4.31816,-2.26413,Q,Q
2023-03-14 21:56:40:624,0,-10.0993,-4.32423,-2.2644,Q,Q
2023-03-14 21:56:40:634,0,-10.1013,-4.32866,-2.26401,Q,Q
2023-03-14 21:56:40:644,0,-10.1064,-4.33347,-2.26179,Q,Q
2023-03-14 21:56:40:654,0,-10.1169,-4.33585,-2.25845,Q,Q
2023-03-14 21:56:40:664,0,-10.1283,-4.33737,-2.25264,Q,Q
2023-03-14 21:56:40:675,0,-10.1434,-4.33864,-2.2472,Q,Q
2023-03-14 21:56:40:684,0,-10.1592,-4.33583,-2.24331,Q,Q
2023-03-14 21:56:40:695,0,-10.1714,-4.33404,-2.24094,Q,Q
2023-03-14 21:56:40:704,0,-10.1841,-4.32908,-2.23739,Q,Q
2023-03-14 21:56:40:714,0,-10.197,-4.32454,-2.23199,Q,Q
2023-03-14 21:56:40:724,0,-10.2058,-4.31299,-2.22458,Q,Q
2023-03-14 21:56:40:734,0,-10.2157,-4.30272,-2.21791,Q,Q
2023-03-14 21:56:40:744,0,-10.2225,-4.29384,-2.21587,Q,Q
2023-03-14 21:56:40:755,0,-10.2311,-4.28145,-2.21009,Q,Q
2023-03-14 21:56:40:764,0,-10.2414,-4.27443,-2.20857,Q,Q
2023-03-14 21:56:40:774,0,-10.2518,-4.26602,-2.21288,Q,Q
2023-03-14 21:56:40:784,0,-10.2632,-4.25958,-2.21528,Q,Q
2023-03-14 21:56:40:794,0,-10.272,-4.25523,-2.21943,Q,Q
2023-03-14 21:56:40:804,0,-10.2836,-4.247,-2.22825,Q,Q
2023-03-14 21:56:40:815,0,-10.2908,-4.24412,-2.23759,Q,Q
2023-03-14 21:56:40:824,0,-10.2987,-4.23755,-2.24761,Q,Q
2023-03-14 21:56:40:835,0,-10.305,-4.23368,-2.26118,Q,Q
2023-03-14 21:56:40:844,0,-10.3072,-4.22945,-2.27979,Q,Q
2023-03-14 21:56:40:854,0,-10.3068,-4.22721,-2.29331,Q,Q
2023-03-14 21:56:40:864,0,-10.2986,-4.22326,-2.31025,Q,Q
2023-03-14 21:56:40:874,0,-10.2924,-4.221,-2.32357,Q,Q
2023-03-14 21:56:40:884,0,-10.2886,-4.2196,-2.33369,Q,Q
2023-03-14 21:56:40:894,0,-10.2869,-4.21897,-2.34258,Q,Q
2023-03-14 21:56:40:904,0,-10.2857,-4.21799,-2.34911,Q,Q
2023-03-14 21:56:40:915,0,-10.2816,-4.21757,-2.35794,Q,Q
2023-03-14 21:56:40:924,0,-10.2759,-4.21298,-2.36379,Q,Q
2023-03-14 21:56:40:935,0,-10.2674,-4.21002,-2.37061,Q,Q
2023-03-14 21:56:40:944,0,-10.2593,-4.20269,-2.37389,Q,Q
2023-03-14 21:56:40:955,0,-10.2475,-4.19678,-2.37516,Q,Q
2023-03-14 21:56:40:964,0,-10.2307,-4.19018,-2.3781,Q,Q
2023-03-14 21:56:40:975,0,-10.2192,-4.18348,-2.38153,Q,Q
2023-03-14 21:56:40:984,0,-10.2047,-4.18109,-2.38682,Q,Q
2023-03-14 21:56:40:994,0,-10.1936,-4.17871,-2.39571,Q,Q
2023-03-14 21:56:41:4,0,-10.1772,-4.1744,-2.39939,Q,Q
2023-03-14 21:56:41:15,0,-10.1636,-4.17235,-2.40495,Q,Q
2023-03-14 21:56:41:25,0,-10.1552,-4.16796,-2.41402,Q,Q
2023-03-14 21:56:41:35,0,-10.1453,-4.16205,-2.42607,Q,Q
2023-03-14 21:56:41:44,0,-10.133,-4.15837,-2.43726,Q,Q
2023-03-14 21:56:41:55,0,-10.1198,-4.16129,-2.44359,Q,Q
2023-03-14 21:56:41:64,0,-10.1137,-4.16862,-2.44409,Q,Q
2023-03-14 21:56:41:75,0,-10.1055,-4.17381,-2.44272,Q,Q
2023-03-14 21:56:41:84,0,-10.1072,-4.17701,-2.44388,Q,Q
2023-03-14 21:56:41:95,0,-10.1045,-4.17819,-2.44312,Q,Q
2023-03-14 21:56:41:104,0,-10.1063,-4.17915,-2.44388,Q,Q
2023-03-14 21:56:41:115,0,-10.1063,-4.18333,-2.44189,Q,Q
2023-03-14 21:56:41:124,0,-10.0995,-4.18855,-2.43768,Q,Q
2023-03-14 21:56:41:134,0,-10.0976,-4.18612,-2.43425,Q,Q
2023-03-14 21:56:41:144,0,-10.0921,-4.18229,-2.42929,Q,Q
2023-03-14 21:56:41:155,0,-10.0907,-4.17708,-2.42385,Q,Q
2023-03-14 21:56:41:164,0,-10.0882,-4.17059,-2.41587,Q,Q
2023-03-14 21:56:41:175,0,-10.0915,-4.15823,-2.40699,Q,Q
2023-03-14 21:56:41:184,0,-10.0926,-4.14946,-2.39781,Q,Q
2023-03-14 21:56:41:195,0,-10.0933,-4.14065,-2.38546,Q,Q
2023-03-14 21:56:41:204,0,-10.0969,-4.12509,-2.3704,Q,Q
2023-03-14 21:56:41:215,0,-10.1013,-4.10702,-2.35722,Q,Q
2023-03-14 21:56:41:224,0,-10.1098,-4.08796,-2.33518,Q,Q
2023-03-14 21:56:41:234,0,-10.123,-4.06941,-2.31003,Q,Q
2023-03-14 21:56:41:244,0,-10.1405,-4.04881,-2.28623,Q,Q
2023-03-14 21:56:41:254,0,-10.1626,-4.03148,-2.26105,Q,Q
2023-03-14 21:56:41:264,0,-10.1823,-4.01434,-2.239,Q,Q
2023-03-14 21:56:41:275,0,-10.1999,-4.00165,-2.21217,Q,Q
2023-03-14 21:56:41:284,0,-10.2159,-3.99127,-2.19118,Q,Q
2023-03-14 21:56:41:295,0,-10.2333,-3.98134,-2.17579,Q,Q
2023-03-14 21:56:41:304,0,-10.247,-3.97319,-2.16605,Q,Q
2023-03-14 21:56:41:314,0,-10.2642,-3.97523,-2.16504,Q,Q
