Timestamp_cmd,imu_cmd,roll_delta,pitch_delta,yaw_delta,voice_type,voice_length
2023-03-15 21:31:30:566,0,-54.8297,1.89005,148.051,Q,Q
2023-03-15 21:31:30:574,0,-54.8278,1.8938,148.051,Q,Q
2023-03-15 21:31:30:584,0,-54.8273,1.89409,148.051,Q,Q
2023-03-15 21:31:30:594,0,-54.8258,1.8939,148.047,Q,Q
2023-03-15 21:31:30:604,0,-54.8237,1.89292,148.048,Q,Q
2023-03-15 21:31:30:614,0,-54.8255,1.89262,148.047,Q,Q
2023-03-15 21:31:30:624,0,-54.8263,1.8913,148.046,Q,Q
2023-03-15 21:31:30:634,0,-54.8305,1.8958,148.044,Q,Q
2023-03-15 21:31:30:644,0,-54.827,1.89433,148.042,Q,Q
2023-03-15 21:31:30:654,0,-54.8276,1.89345,148.04,Q,Q
2023-03-15 21:31:30:664,0,-54.8277,1.8923,148.039,Q,Q
2023-03-15 21:31:30:674,0,-54.8287,1.89297,148.037,Q,Q
2023-03-15 21:31:30:684,0,-54.8299,1.89136,148.035,Q,Q
2023-03-15 21:31:30:694,0,-54.8302,1.89209,148.037,Q,Q
2023-03-15 21:31:30:704,0,-54.8327,1.89174,148.035,Q,Q
2023-03-15 21:31:30:714,0,-54.8324,1.89023,148.036,Q,Q
2023-03-15 21:31:30:724,0,-54.8306,1.88978,148.034,Q,Q
2023-03-15 21:31:30:734,0,-54.8311,1.89256,148.035,Q,Q
2023-03-15 21:31:30:744,0,-54.8283,1.89284,148.035,Q,Q
2023-03-15 21:31:30:754,0,-54.8303,1.8937,148.036,Q,Q
2023-03-15 21:31:30:765,0,-54.8302,1.8949,148.036,Q,Q
2023-03-15 21:31:30:775,0,-54.8293,1.89503,148.037,Q,Q
2023-03-15 21:31:30:785,0,-54.8282,1.89812,148.036,Q,Q
2023-03-15 21:31:30:794,0,-54.8289,1.89857,148.036,Q,Q
2023-03-15 21:31:30:804,0,-54.8296,1.89657,148.035,Q,Q
2023-03-15 21:31:30:815,0,-54.8308,1.89396,148.036,Q,Q
2023-03-15 21:31:30:824,0,-54.8272,1.89706,148.034,Q,Q
2023-03-15 21:31:30:834,0,-54.83,1.89604,148.034,Q,Q
2023-03-15 21:31:30:844,0,-54.8305,1.89674,148.037,Q,Q
2023-03-15 21:31:30:855,0,-54.8279,1.89848,148.039,Q,Q
2023-03-15 21:31:30:864,0,-54.827,1.89822,148.037,Q,Q
2023-03-15 21:31:30:874,0,-54.8249,1.89801,148.038,Q,Q
2023-03-15 21:31:30:884,0,-54.8222,1.89621,148.04,Q,Q
2023-03-15 21:31:30:894,0,-54.8216,1.89418,148.04,Q,Q
2023-03-15 21:31:30:904,0,-54.8222,1.89222,148.039,Q,Q
2023-03-15 21:31:30:914,0,-54.823,1.8948,148.038,Q,Q
2023-03-15 21:31:30:924,0,-54.8238,1.89426,148.037,Q,Q
2023-03-15 21:31:30:934,0,-54.8226,1.89361,148.035,Q,Q
2023-03-15 21:31:30:944,0,-54.8236,1.89306,148.038,Q,Q
2023-03-15 21:31:30:954,0,-54.8213,1.8926,148.039,Q,Q
2023-03-15 21:31:30:964,0,-54.8187,1.89345,148.037,Q,Q
2023-03-15 21:31:30:974,0,-54.82,1.89661,148.037,Q,Q
2023-03-15 21:31:30:984,0,-54.8218,1.89651,148.038,Q,Q
2023-03-15 21:31:30:994,0,-54.8241,1.89362,148.04,Q,Q
2023-03-15 21:31:31:4,0,-54.8223,1.89352,148.036,Q,Q
2023-03-15 21:31:31:14,0,-54.8231,1.89352,148.036,Q,Q
2023-03-15 21:31:31:24,0,-54.8258,1.89261,148.039,Q,Q
2023-03-15 21:31:31:34,0,-54.8268,1.89293,148.039,Q,Q
2023-03-15 21:31:31:44,0,-54.8272,1.89341,148.035,Q,Q
2023-03-15 21:31:31:54,0,-54.829,1.89456,148.035,Q,Q
2023-03-15 21:31:31:64,0,-54.8283,1.89323,148.036,Q,Q
2023-03-15 21:31:31:74,0,-54.8263,1.89417,148.037,Q,Q
2023-03-15 21:31:31:84,0,-54.8305,1.89094,148.037,Q,Q
2023-03-15 21:31:31:94,0,-54.8313,1.89268,148.037,Q,Q
2023-03-15 21:31:31:104,0,-54.8336,1.89315,148.037,Q,Q
2023-03-15 21:31:31:114,0,-54.8326,1.89377,148.039,Q,Q
2023-03-15 21:31:31:124,0,-54.8321,1.89205,148.039,Q,Q
2023-03-15 21:31:31:134,0,-54.8311,1.89261,148.04,Q,Q
2023-03-15 21:31:31:144,0,-54.8297,1.89059,148.04,Q,Q
2023-03-15 21:31:31:154,0,-54.8266,1.89137,148.042,Q,Q
2023-03-15 21:31:31:164,0,-54.8267,1.89033,148.043,Q,Q
2023-03-15 21:31:31:174,0,-54.8262,1.88699,148.045,Q,Q
2023-03-15 21:31:31:184,0,-54.8285,1.88469,148.042,Q,Q
2023-03-15 21:31:31:194,0,-54.8276,1.88505,148.039,Q,Q
2023-03-15 21:31:31:204,0,-54.8279,1.8835,148.038,Q,Q
2023-03-15 21:31:31:214,0,-54.8324,1.88276,148.035,Q,Q
2023-03-15 21:31:31:224,0,-54.8356,1.88365,148.035,Q,Q
2023-03-15 21:31:31:234,0,-54.8341,1.88363,148.038,Q,Q
2023-03-15 21:31:31:244,0,-54.8331,1.88131,148.039,Q,Q
2023-03-15 21:31:31:254,0,-54.8324,1.88044,148.041,Q,Q
2023-03-15 21:31:31:264,0,-54.8302,1.88068,148.042,Q,Q
2023-03-15 21:31:31:274,0,-54.83,1.87853,148.039,Q,Q
2023-03-15 21:31:31:284,0,-54.832,1.87745,148.041,Q,Q
2023-03-15 21:31:31:294,0,-54.8316,1.87667,148.039,Q,Q
2023-03-15 21:31:31:304,0,-54.8319,1.87753,148.038,Q,Q
2023-03-15 21:31:31:314,0,-54.835,1.87878,148.039,Q,Q
2023-03-15 21:31:31:324,0,-54.8317,1.87724,148.041,Q,Q
2023-03-15 21:31:31:334,0,-54.8301,1.87881,148.042,Q,Q
2023-03-15 21:31:31:344,0,-54.8298,1.87783,148.042,Q,Q
2023-03-15 21:31:31:354,0,-54.83,1.8801,148.044,Q,Q
2023-03-15 21:31:31:364,0,-54.8317,1.88204,148.046,Q,Q
2023-03-15 21:31:31:374,0,-54.8312,1.88251,148.047,Q,Q
2023-03-15 21:31:31:384,0,-54.8322,1.88239,148.048,Q,Q
2023-03-15 21:31:31:394,0,-54.8339,1.88129,148.048,Q,Q
2023-03-15 21:31:31:404,0,-54.8347,1.88287,148.05,Q,Q
2023-03-15 21:31:31:414,0,-54.8354,1.88194,148.048,Q,Q
2023-03-15 21:31:31:424,0,-54.8325,1.88368,148.046,Q,Q
2023-03-15 21:31:31:434,0,-54.8332,1.8831,148.043,Q,Q
2023-03-15 21:31:31:445,0,-54.8363,1.88306,148.043,Q,Q
2023-03-15 21:31:31:455,0,-54.8363,1.88285,148.041,Q,Q
2023-03-15 21:31:31:464,0,-54.8372,1.8834,148.045,Q,Q
2023-03-15 21:31:31:474,0,-54.8395,1.88275,148.044,Q,Q
2023-03-15 21:31:31:484,0,-54.8418,1.88089,148.044,Q,Q
2023-03-15 21:31:31:494,0,-54.8433,1.88021,148.043,Q,Q
2023-03-15 21:31:31:504,0,-54.8448,1.87845,148.044,Q,Q
2023-03-15 21:31:31:514,0,-54.8442,1.8799,148.046,Q,Q
2023-03-15 21:31:31:524,0,-54.8437,1.88042,148.047,Q,Q
2023-03-15 21:31:31:534,0,-54.8402,1.88,148.049,Q,Q
2023-03-15 21:31:31:544,0,-54.84,1.87839,148.049,Q,Q
2023-03-15 21:31:31:554,0,-54.8417,1.87798,148.048,Q,Q
2023-03-15 21:31:31:564,0,-54.8392,1.88261,148.047,Q,Q
2023-03-15 21:31:31:574,0,-54.8352,1.88228,148.048,Q,Q
2023-03-15 21:31:31:584,0,-54.8394,1.88335,148.048,Q,Q
2023-03-15 21:31:31:594,0,-54.8383,1.88532,148.047,Q,Q
2023-03-15 21:31:31:604,0,-54.8395,1.88618,148.047,Q,Q
2023-03-15 21:31:31:614,0,-54.8399,1.8859,148.046,Q,Q
2023-03-15 21:31:31:624,0,-54.8406,1.88581,148.043,Q,Q
2023-03-15 21:31:31:634,0,-54.8399,1.88538,148.041,Q,Q
2023-03-15 21:31:31:644,0,-54.8409,1.88481,148.038,Q,Q
2023-03-15 21:31:31:654,0,-54.8399,1.88631,148.036,Q,Q
2023-03-15 21:31:31:664,0,-54.8398,1.8876,148.035,Q,Q
2023-03-15 21:31:31:674,0,-54.8404,1.88757,148.03,Q,Q
2023-03-15 21:31:31:684,0,-54.842,1.88731,148.025,Q,Q
2023-03-15 21:31:31:694,0,-54.8452,1.88736,148.026,Q,Q
2023-03-15 21:31:31:704,0,-54.8451,1.88866,148.022,Q,Q
2023-03-15 21:31:31:714,0,-54.8471,1.88901,148.021,Q,Q
2023-03-15 21:31:31:724,0,-54.8468,1.88591,148.019,Q,Q
2023-03-15 21:31:31:734,0,-54.8467,1.88736,148.017,Q,Q
2023-03-15 21:31:31:744,0,-54.8465,1.88869,148.016,Q,Q
2023-03-15 21:31:31:754,0,-54.8457,1.88846,148.018,Q,Q
2023-03-15 21:31:31:764,0,-54.8461,1.88709,148.019,Q,Q
2023-03-15 21:31:31:775,0,-54.8453,1.88636,148.02,Q,Q
2023-03-15 21:31:31:784,0,-54.8455,1.88566,148.021,Q,Q
2023-03-15 21:31:31:794,0,-54.8454,1.88673,148.018,Q,Q
2023-03-15 21:31:31:804,0,-54.8442,1.88618,148.017,Q,Q
2023-03-15 21:31:31:814,0,-54.847,1.88578,148.017,Q,Q
2023-03-15 21:31:31:824,0,-54.8468,1.88596,148.016,Q,Q
2023-03-15 21:31:31:834,0,-54.8435,1.88191,148.014,Q,Q
2023-03-15 21:31:31:844,0,-54.842,1.8824,148.015,Q,Q
2023-03-15 21:31:31:854,0,-54.8437,1.88319,148.013,Q,Q
2023-03-15 21:31:31:864,0,-54.8433,1.88305,148.014,Q,Q
2023-03-15 21:31:31:874,0,-54.8416,1.88288,148.015,Q,Q
2023-03-15 21:31:31:884,0,-54.8433,1.8852,148.014,Q,Q
2023-03-15 21:31:31:894,0,-54.8438,1.88702,148.012,Q,Q
2023-03-15 21:31:31:904,0,-54.8406,1.88943,148.012,Q,Q
2023-03-15 21:31:31:915,0,-54.8445,1.88973,148.012,Q,Q
2023-03-15 21:31:31:924,0,-54.8426,1.88859,148.009,Q,Q
2023-03-15 21:31:31:935,0,-54.8453,1.88731,148.006,Q,Q
2023-03-15 21:31:31:944,0,-54.8474,1.8892,148.004,Q,Q
2023-03-15 21:31:31:954,0,-54.8495,1.88806,148.004,Q,Q
2023-03-15 21:31:31:964,0,-54.8533,1.89078,148.003,Q,Q
2023-03-15 21:31:31:974,0,-54.853,1.89223,148.003,Q,Q
2023-03-15 21:31:31:984,0,-54.853,1.88965,148.005,Q,Q
2023-03-15 21:31:31:994,0,-54.8526,1.88763,148.004,Q,Q
2023-03-15 21:31:32:4,0,-54.8508,1.88592,148.003,Q,Q
2023-03-15 21:31:32:14,0,-54.8473,1.88403,148.004,Q,Q
2023-03-15 21:31:32:24,0,-54.8486,1.88386,148.005,Q,Q
2023-03-15 21:31:32:35,0,-54.8475,1.88418,148.004,Q,Q
2023-03-15 21:31:32:44,0,-54.8475,1.88442,148.003,Q,Q
2023-03-15 21:31:32:54,0,-54.8465,1.88555,148.002,Q,Q
2023-03-15 21:31:32:64,0,-54.8481,1.88291,148.003,Q,Q
2023-03-15 21:31:32:74,0,-54.8465,1.8782,148.006,Q,Q
2023-03-15 21:31:32:84,0,-54.8451,1.87886,148.007,Q,Q
2023-03-15 21:31:32:94,0,-54.8463,1.88099,148.006,Q,Q
2023-03-15 21:31:32:104,0,-54.8476,1.87785,148.003,Q,Q
2023-03-15 21:31:32:114,0,-54.8475,1.8776,148.002,Q,Q
2023-03-15 21:31:32:124,0,-54.8457,1.8792,148.002,Q,Q
2023-03-15 21:31:32:134,0,-54.846,1.87988,148.002,Q,Q
2023-03-15 21:31:32:144,0,-54.8464,1.88106,148.002,Q,Q
2023-03-15 21:31:32:154,0,-54.8461,1.88157,147.999,Q,Q
2023-03-15 21:31:32:164,0,-54.8447,1.88231,147.996,Q,Q
2023-03-15 21:31:32:174,0,-54.8475,1.88183,147.997,Q,Q
2023-03-15 21:31:32:184,0,-54.8464,1.8793,147.996,Q,Q
2023-03-15 21:31:32:194,0,-54.8447,1.88003,147.996,Q,Q
2023-03-15 21:31:32:204,0,-54.847,1.8775,147.997,Q,Q
2023-03-15 21:31:32:214,0,-54.8462,1.87695,147.998,Q,Q
2023-03-15 21:31:32:224,0,-54.8476,1.87729,147.996,Q,Q
2023-03-15 21:31:32:234,0,-54.847,1.87546,147.995,Q,Q
2023-03-15 21:31:32:244,0,-54.8464,1.87419,147.997,Q,Q
2023-03-15 21:31:32:254,0,-54.8484,1.87352,147.996,Q,Q
2023-03-15 21:31:32:264,0,-54.8465,1.87533,147.998,Q,Q
2023-03-15 21:31:32:274,0,-54.8448,1.87467,147.996,Q,Q
2023-03-15 21:31:32:284,0,-54.8434,1.87756,147.999,Q,Q
2023-03-15 21:31:32:294,0,-54.8479,1.87736,148.0,Q,Q
2023-03-15 21:31:32:304,0,-54.8482,1.87866,148.0,Q,Q
2023-03-15 21:31:32:314,0,-54.8484,1.87782,148.003,Q,Q
2023-03-15 21:31:32:324,0,-54.8484,1.87632,148.005,Q,Q
2023-03-15 21:31:32:334,0,-54.8482,1.8776,148.005,Q,Q
2023-03-15 21:31:32:344,0,-54.8478,1.87808,148.002,Q,Q
2023-03-15 21:31:32:354,0,-54.8481,1.87783,148.001,Q,Q
2023-03-15 21:31:32:364,0,-54.8476,1.88215,148.001,Q,Q
2023-03-15 21:31:32:374,0,-54.8468,1.88512,148.002,Q,Q
2023-03-15 21:31:32:384,0,-54.8497,1.88444,148.002,Q,Q
2023-03-15 21:31:32:394,0,-54.8465,1.8866,148.005,Q,Q
2023-03-15 21:31:32:404,0,-54.8439,1.88652,148.005,Q,Q
2023-03-15 21:31:32:414,0,-54.8484,1.8874,148.005,Q,Q
2023-03-15 21:31:32:424,0,-54.8475,1.88703,148.004,Q,Q
2023-03-15 21:31:32:434,0,-54.8473,1.88936,148.005,Q,Q
2023-03-15 21:31:32:444,0,-54.8454,1.89016,148.003,Q,Q
2023-03-15 21:31:32:454,0,-54.8448,1.88663,148.003,Q,Q
2023-03-15 21:31:32:464,0,-54.8445,1.88575,148.004,Q,Q
2023-03-15 21:31:32:474,0,-54.846,1.88405,148.004,Q,Q
2023-03-15 21:31:32:484,0,-54.8461,1.88502,148.004,Q,Q
2023-03-15 21:31:32:494,0,-54.8482,1.88611,148.002,Q,Q
2023-03-15 21:31:32:504,0,-54.8466,1.88741,147.999,Q,Q
2023-03-15 21:31:32:514,0,-54.8476,1.88442,148.002,Q,Q
2023-03-15 21:31:32:524,0,-54.8489,1.88101,148.003,Q,Q
2023-03-15 21:31:32:534,0,-54.8503,1.88119,148.0,Q,Q
2023-03-15 21:31:32:544,0,-54.8521,1.88117,148.001,Q,Q
2023-03-15 21:31:32:554,0,-54.8526,1.88035,147.999,Q,Q
2023-03-15 21:31:32:564,0,-54.8519,1.8798,148.003,Q,Q
2023-03-15 21:31:32:574,0,-54.8493,1.88086,148.0,Q,Q
2023-03-15 21:31:32:584,0,-54.8483,1.88156,148.001,Q,Q
2023-03-15 21:31:32:594,0,-54.8505,1.8822,148.002,Q,Q
2023-03-15 21:31:32:604,0,-54.8504,1.88518,148.001,Q,Q
2023-03-15 21:31:32:614,0,-54.851,1.88546,147.996,Q,Q
2023-03-15 21:31:32:624,0,-54.8527,1.8857,147.995,Q,Q
2023-03-15 21:31:32:634,0,-54.8525,1.88436,147.993,Q,Q
2023-03-15 21:31:32:644,0,-54.8515,1.88751,147.994,Q,Q
2023-03-15 21:31:32:654,0,-54.8505,1.88966,147.999,Q,Q
2023-03-15 21:31:32:664,0,-54.8461,1.89287,148.0,Q,Q
2023-03-15 21:31:32:674,0,-54.8397,1.89429,148.0,Q,Q
2023-03-15 21:31:32:684,0,-54.8434,1.89157,148.001,Q,Q
2023-03-15 21:31:32:694,0,-54.8406,1.89566,148.0,Q,Q
2023-03-15 21:31:32:704,0,-54.8375,1.89612,147.997,Q,Q
2023-03-15 21:31:32:714,0,-54.8471,1.89447,147.996,Q,Q
2023-03-15 21:31:32:724,0,-54.8234,1.90691,147.999,Q,Q
2023-03-15 21:31:32:734,0,-54.839,1.89976,147.998,Q,Q
2023-03-15 21:31:32:744,0,-54.8198,1.90636,147.999,Q,Q
2023-03-15 21:31:32:754,0,-54.8221,1.90521,147.998,Q,Q
2023-03-15 21:31:32:764,0,-54.8295,1.90213,148.0,Q,Q
2023-03-15 21:31:32:774,0,-54.8253,1.90203,148.003,Q,Q
2023-03-15 21:31:32:784,0,-54.8336,1.89686,148.004,Q,Q
2023-03-15 21:31:32:794,0,-54.8388,1.89709,148.006,Q,Q
2023-03-15 21:31:32:804,0,-54.8431,1.89573,148.008,Q,Q
2023-03-15 21:31:32:814,0,-54.8444,1.89813,148.006,Q,Q
2023-03-15 21:31:32:824,0,-54.8388,1.89934,148.004,Q,Q
2023-03-15 21:31:32:834,0,-54.8485,1.89507,148.002,Q,Q
2023-03-15 21:31:32:844,0,-54.839,1.89788,148.001,Q,Q
2023-03-15 21:31:32:854,0,-54.8422,1.89589,148.001,Q,Q
2023-03-15 21:31:32:864,0,-54.847,1.8969,147.999,Q,Q
2023-03-15 21:31:32:874,0,-54.8423,1.90273,147.999,Q,Q
2023-03-15 21:31:32:884,0,-54.8472,1.90007,148.0,Q,Q
2023-03-15 21:31:32:894,0,-54.8443,1.90023,147.998,Q,Q
2023-03-15 21:31:32:904,0,-54.8447,1.89989,147.996,Q,Q
2023-03-15 21:31:32:914,0,-54.845,1.90121,147.994,Q,Q
2023-03-15 21:31:32:924,0,-54.8415,1.90275,147.997,Q,Q
2023-03-15 21:31:32:934,0,-54.842,1.90538,147.997,Q,Q
2023-03-15 21:31:32:944,0,-54.8418,1.90811,147.999,Q,Q
2023-03-15 21:31:32:954,0,-54.8414,1.90637,148.0,Q,Q
2023-03-15 21:31:32:964,0,-54.8428,1.90548,147.998,Q,Q
2023-03-15 21:31:32:974,0,-54.845,1.90779,147.999,Q,Q
2023-03-15 21:31:32:984,0,-54.8368,1.91179,147.997,Q,Q
2023-03-15 21:31:32:994,0,-54.8452,1.90748,147.997,Q,Q
2023-03-15 21:31:33:4,0,-54.8349,1.91018,147.996,Q,Q
2023-03-15 21:31:33:14,0,-54.838,1.90694,147.997,Q,Q
2023-03-15 21:31:33:24,0,-54.8406,1.90804,147.997,Q,Q
2023-03-15 21:31:33:34,0,-54.8344,1.91013,147.996,Q,Q
2023-03-15 21:31:33:44,0,-54.8409,1.91071,147.997,Q,Q
2023-03-15 21:31:33:54,0,-54.8378,1.91354,147.996,Q,Q
2023-03-15 21:31:33:64,0,-54.8379,1.9115,147.998,Q,Q
2023-03-15 21:31:33:74,0,-54.8408,1.91036,147.999,Q,Q
2023-03-15 21:31:33:84,0,-54.842,1.91065,147.998,Q,Q
2023-03-15 21:31:33:94,0,-54.8427,1.9109,147.998,Q,Q
2023-03-15 21:31:33:104,0,-54.8447,1.91078,147.999,Q,Q
2023-03-15 21:31:33:114,0,-54.8464,1.90725,148.0,Q,Q
2023-03-15 21:31:33:124,0,-54.8475,1.91093,147.999,Q,Q
2023-03-15 21:31:33:134,0,-54.8454,1.91157,148.002,Q,Q
2023-03-15 21:31:33:144,0,-54.8428,1.90933,148.002,Q,Q
2023-03-15 21:31:33:154,0,-54.8436,1.90662,148.002,Q,Q
2023-03-15 21:31:33:164,0,-54.8428,1.90776,148.003,Q,Q
2023-03-15 21:31:33:174,0,-54.84,1.90781,148.004,Q,Q
2023-03-15 21:31:33:184,0,-54.8408,1.90785,148.006,Q,Q
2023-03-15 21:31:33:194,0,-54.843,1.90703,148.007,Q,Q
2023-03-15 21:31:33:204,0,-54.8413,1.90583,148.008,Q,Q
2023-03-15 21:31:33:214,0,-54.8404,1.90576,148.007,Q,Q
2023-03-15 21:31:33:224,0,-54.8402,1.90291,148.009,Q,Q
2023-03-15 21:31:33:234,0,-54.8399,1.90654,148.012,Q,Q
2023-03-15 21:31:33:244,0,-54.837,1.90264,148.014,Q,Q
2023-03-15 21:31:33:254,0,-54.8374,1.90408,148.013,Q,Q
2023-03-15 21:31:33:264,0,-54.8381,1.90491,148.011,Q,Q
2023-03-15 21:31:33:274,0,-54.837,1.90692,148.013,Q,Q
2023-03-15 21:31:33:284,0,-54.8378,1.90481,148.018,Q,Q
2023-03-15 21:31:33:294,0,-54.8382,1.90607,148.014,Q,Q
2023-03-15 21:31:33:304,0,-54.8374,1.90856,148.014,Q,Q
2023-03-15 21:31:33:314,0,-54.8384,1.90627,148.015,Q,Q
2023-03-15 21:31:33:324,0,-54.8413,1.90449,148.015,Q,Q
2023-03-15 21:31:33:334,0,-54.8412,1.90461,148.014,Q,Q
2023-03-15 21:31:33:344,0,-54.8418,1.90456,148.015,Q,Q
2023-03-15 21:31:33:354,0,-54.8442,1.9045,148.016,Q,Q
2023-03-15 21:31:33:364,0,-54.8447,1.9027,148.015,Q,Q
2023-03-15 21:31:33:374,0,-54.8466,1.90348,148.012,Q,Q
2023-03-15 21:31:33:384,0,-54.8432,1.90157,148.009,Q,Q
2023-03-15 21:31:33:394,0,-54.8415,1.9011,148.008,Q,Q
2023-03-15 21:31:33:404,0,-54.8361,1.90476,148.009,Q,Q
2023-03-15 21:31:33:414,0,-54.8468,1.89947,148.009,Q,Q
2023-03-15 21:31:33:424,0,-54.8335,1.90471,148.007,Q,Q
2023-03-15 21:31:33:434,0,-54.8467,1.89985,148.005,Q,Q
2023-03-15 21:31:33:444,0,-54.8369,1.90461,148.002,Q,Q
2023-03-15 21:31:33:454,0,-54.8414,1.90161,148.001,Q,Q
2023-03-15 21:31:33:464,0,-54.8443,1.89959,148.005,Q,Q
2023-03-15 21:31:33:474,0,-54.8399,1.89942,148.008,Q,Q
2023-03-15 21:31:33:484,0,-54.8402,1.8982,148.009,Q,Q
2023-03-15 21:31:33:494,0,-54.8408,1.89735,148.007,Q,Q
2023-03-15 21:31:33:504,0,-54.841,1.90087,148.003,Q,Q
2023-03-15 21:31:33:514,0,-54.8441,1.9026,148.004,Q,Q
2023-03-15 21:31:33:524,0,-54.8429,1.9024,148.005,Q,Q
2023-03-15 21:31:33:534,0,-54.851,1.89914,148.005,Q,Q
2023-03-15 21:31:33:544,0,-54.8417,1.90411,148.003,Q,Q
2023-03-15 21:31:33:554,0,-54.8489,1.89977,148.002,Q,Q
2023-03-15 21:31:33:564,0,-54.8347,1.90292,148.001,Q,Q
2023-03-15 21:31:33:574,0,-54.843,1.89673,148.001,Q,Q
2023-03-15 21:31:33:584,0,-54.8425,1.89691,148.005,Q,Q
2023-03-15 21:31:33:594,0,-54.8402,1.89655,148.003,Q,Q
2023-03-15 21:31:33:604,0,-54.848,1.89501,148.001,Q,Q
2023-03-15 21:31:33:614,0,-54.8459,1.89723,148.001,Q,Q
2023-03-15 21:31:33:624,0,-54.8509,1.89744,148.0,Q,Q
2023-03-15 21:31:33:634,0,-54.8518,1.89545,148.001,Q,Q
2023-03-15 21:31:33:644,0,-54.851,1.89726,148.004,Q,Q
2023-03-15 21:31:33:654,0,-54.8517,1.8992,148.003,Q,Q
2023-03-15 21:31:33:664,0,-54.8513,1.89959,148.007,Q,Q
2023-03-15 21:31:33:674,0,-54.8516,1.90066,148.007,Q,Q
2023-03-15 21:31:33:684,0,-54.8505,1.90076,148.008,Q,Q
2023-03-15 21:31:33:694,0,-54.8508,1.90099,148.009,Q,Q
2023-03-15 21:31:33:704,0,-54.8483,1.90111,148.01,Q,Q
2023-03-15 21:31:33:714,0,-54.8467,1.90273,148.009,Q,Q
2023-03-15 21:31:33:724,0,-54.8464,1.89923,148.005,Q,Q
2023-03-15 21:31:33:734,0,-54.848,1.89874,148.004,Q,Q
2023-03-15 21:31:33:744,0,-54.8462,1.89854,148.001,Q,Q
2023-03-15 21:31:33:754,0,-54.8433,1.8962,148.002,Q,Q
2023-03-15 21:31:33:764,0,-54.8413,1.8972,148.003,Q,Q
2023-03-15 21:31:33:774,0,-54.8414,1.89476,148.001,Q,Q
2023-03-15 21:31:33:784,0,-54.8423,1.89617,148.0,Q,Q
2023-03-15 21:31:33:794,0,-54.8431,1.89767,148.0,Q,Q
2023-03-15 21:31:33:804,0,-54.8439,1.90182,148.0,Q,Q
2023-03-15 21:31:33:814,0,-54.8436,1.90118,148.002,Q,Q
2023-03-15 21:31:33:824,0,-54.8447,1.90155,148.002,Q,Q
2023-03-15 21:31:33:834,0,-54.8438,1.9033,148.003,Q,Q
2023-03-15 21:31:33:844,0,-54.8401,1.90403,148.003,Q,Q
2023-03-15 21:31:33:854,0,-54.8379,1.90565,148.004,Q,Q
2023-03-15 21:31:33:864,0,-54.8403,1.90567,148.006,Q,Q
2023-03-15 21:31:33:874,0,-54.8385,1.90521,148.004,Q,Q
2023-03-15 21:31:33:884,0,-54.8373,1.90538,148.004,Q,Q
2023-03-15 21:31:33:894,0,-54.8372,1.90319,148.005,Q,Q
2023-03-15 21:31:33:904,0,-54.8409,1.90381,148.007,Q,Q
2023-03-15 21:31:33:914,0,-54.8418,1.90399,148.01,Q,Q
2023-03-15 21:31:33:924,0,-54.8409,1.90494,148.01,Q,Q
2023-03-15 21:31:33:934,0,-54.8427,1.90508,148.012,Q,Q
2023-03-15 21:31:33:944,0,-54.8445,1.90431,148.012,Q,Q
2023-03-15 21:31:33:954,0,-54.843,1.90176,148.012,Q,Q
2023-03-15 21:31:33:964,0,-54.8444,1.9026,148.008,Q,Q
2023-03-15 21:31:33:974,0,-54.8419,1.90272,148.008,Q,Q
2023-03-15 21:31:33:984,0,-54.8421,1.90164,148.007,Q,Q
2023-03-15 21:31:33:994,0,-54.8425,1.89809,148.008,Q,Q
2023-03-15 21:31:34:4,0,-54.8424,1.89656,148.009,Q,Q
2023-03-15 21:31:34:14,0,-54.8391,1.8964,148.01,Q,Q
2023-03-15 21:31:34:24,0,-54.8405,1.89629,148.013,Q,Q
2023-03-15 21:31:34:34,0,-54.8433,1.89494,148.014,Q,Q
2023-03-15 21:31:34:44,0,-54.8401,1.89454,148.014,Q,Q
2023-03-15 21:31:34:54,0,-54.8393,1.89349,148.017,Q,Q
2023-03-15 21:31:34:64,0,-54.8409,1.89543,148.013,Q,Q
2023-03-15 21:31:34:74,0,-54.8409,1.89315,148.014,Q,Q
2023-03-15 21:31:34:84,0,-54.8399,1.89138,148.011,Q,Q
2023-03-15 21:31:34:94,0,-54.8392,1.8925,148.009,Q,Q
2023-03-15 21:31:34:104,0,-54.8366,1.89559,148.009,Q,Q
2023-03-15 21:31:34:114,0,-54.8375,1.8947,148.01,Q,Q
2023-03-15 21:31:34:124,0,-54.836,1.89624,148.008,Q,Q
2023-03-15 21:31:34:134,0,-54.8403,1.89432,148.011,Q,Q
2023-03-15 21:31:34:144,0,-54.8432,1.89434,148.011,Q,Q
2023-03-15 21:31:34:154,0,-54.8427,1.89409,148.009,Q,Q
2023-03-15 21:31:34:164,0,-54.8416,1.89142,148.005,Q,Q
2023-03-15 21:31:34:174,0,-54.8397,1.89068,148.007,Q,Q
2023-03-15 21:31:34:184,0,-54.8414,1.89103,148.006,Q,Q
2023-03-15 21:31:34:194,0,-54.8424,1.89185,148.005,Q,Q
2023-03-15 21:31:34:204,0,-54.8437,1.89104,148.004,Q,Q
2023-03-15 21:31:34:214,0,-54.8419,1.89085,148.004,Q,Q
2023-03-15 21:31:34:224,0,-54.8426,1.88834,148.005,Q,Q
2023-03-15 21:31:34:234,0,-54.84,1.88877,148.005,Q,Q
2023-03-15 21:31:34:244,0,-54.8377,1.88991,148.005,Q,Q
2023-03-15 21:31:34:254,0,-54.8414,1.89035,148.005,Q,Q
2023-03-15 21:31:34:264,0,-54.8421,1.89032,148.002,Q,Q
2023-03-15 21:31:34:274,0,-54.8396,1.88962,148.002,Q,Q
2023-03-15 21:31:34:284,0,-54.8386,1.89024,148.004,Q,Q
2023-03-15 21:31:34:294,0,-54.8385,1.88969,148.005,Q,Q
2023-03-15 21:31:34:304,0,-54.8401,1.88926,148.005,Q,Q
2023-03-15 21:31:34:314,0,-54.8401,1.88953,148.004,Q,Q
2023-03-15 21:31:34:324,0,-54.8401,1.8898,148.004,Q,Q
2023-03-15 21:31:34:334,0,-54.8407,1.89021,148.005,Q,Q
2023-03-15 21:31:34:344,0,-54.8463,1.88777,148.005,Q,Q
2023-03-15 21:31:34:354,0,-54.8461,1.8878,148.007,Q,Q
2023-03-15 21:31:34:364,0,-54.8489,1.89039,148.006,Q,Q
2023-03-15 21:31:34:374,0,-54.8494,1.89189,148.007,Q,Q
2023-03-15 21:31:34:384,0,-54.8497,1.89039,148.005,Q,Q
2023-03-15 21:31:34:394,0,-54.8484,1.88805,148.003,Q,Q
2023-03-15 21:31:34:404,0,-54.8494,1.88673,148.002,Q,Q
2023-03-15 21:31:34:414,0,-54.8479,1.88577,148.0,Q,Q
2023-03-15 21:31:34:424,0,-54.8462,1.88641,148.001,Q,Q
2023-03-15 21:31:34:434,0,-54.8474,1.88562,148.002,Q,Q
2023-03-15 21:31:34:444,0,-54.8494,1.88375,148.005,Q,Q
2023-03-15 21:31:34:454,0,-54.8502,1.881,148.006,Q,Q
2023-03-15 21:31:34:464,0,-54.8473,1.881,148.006,Q,Q
2023-03-15 21:31:34:474,0,-54.8509,1.88315,148.007,Q,Q
2023-03-15 21:31:34:484,0,-54.849,1.87983,148.006,Q,Q
2023-03-15 21:31:34:494,0,-54.8475,1.87947,148.005,Q,Q
2023-03-15 21:31:34:504,0,-54.8473,1.87831,148.005,Q,Q
2023-03-15 21:31:34:514,0,-54.8481,1.87655,148.005,Q,Q
2023-03-15 21:31:34:524,0,-54.8466,1.87297,148.007,Q,Q
2023-03-15 21:31:34:534,0,-54.8463,1.87306,148.005,Q,Q
2023-03-15 21:31:34:544,0,-54.849,1.87278,148.002,Q,Q
2023-03-15 21:31:34:554,0,-54.8511,1.87439,148.004,Q,Q
2023-03-15 21:31:34:564,0,-54.8518,1.87659,148.007,Q,Q
2023-03-15 21:31:34:574,0,-54.855,1.88118,148.007,Q,Q
2023-03-15 21:31:34:584,0,-54.8588,1.88059,148.009,Q,Q
2023-03-15 21:31:34:594,0,-54.8645,1.87878,148.011,Q,Q
2023-03-15 21:31:34:604,0,-54.8637,1.87848,148.01,Q,Q
2023-03-15 21:31:34:614,0,-54.8656,1.88159,148.008,Q,Q
2023-03-15 21:31:34:624,0,-54.8641,1.88191,148.008,Q,Q
2023-03-15 21:31:34:634,0,-54.8637,1.88148,148.006,Q,Q
2023-03-15 21:31:34:644,0,-54.8639,1.88016,148.005,Q,Q
2023-03-15 21:31:34:654,0,-54.8634,1.87737,148.007,Q,Q
2023-03-15 21:31:34:664,0,-54.866,1.87843,148.011,Q,Q
2023-03-15 21:31:34:674,0,-54.865,1.87899,148.011,Q,Q
2023-03-15 21:31:34:684,0,-54.8655,1.87766,148.008,Q,Q
2023-03-15 21:31:34:694,0,-54.8678,1.8762,148.008,Q,Q
2023-03-15 21:31:34:704,0,-54.8657,1.87636,148.008,Q,Q
2023-03-15 21:31:34:714,0,-54.8633,1.87489,148.008,Q,Q
2023-03-15 21:31:34:724,0,-54.8663,1.87614,148.006,Q,Q
2023-03-15 21:31:34:734,0,-54.8662,1.87677,148.006,Q,Q
2023-03-15 21:31:34:744,0,-54.8658,1.87825,148.008,Q,Q
2023-03-15 21:31:34:754,0,-54.8647,1.87744,148.008,Q,Q
2023-03-15 21:31:34:764,0,-54.8647,1.87576,148.009,Q,Q
2023-03-15 21:31:34:774,0,-54.8638,1.87522,148.01,Q,Q
2023-03-15 21:31:34:784,0,-54.865,1.8737,148.014,Q,Q
2023-03-15 21:31:34:794,0,-54.8625,1.8733,148.012,Q,Q
2023-03-15 21:31:34:804,0,-54.8632,1.87383,148.013,Q,Q
2023-03-15 21:31:34:814,0,-54.8607,1.87527,148.012,Q,Q
2023-03-15 21:31:34:824,0,-54.8602,1.87597,148.014,Q,Q
2023-03-15 21:31:34:834,0,-54.8609,1.87226,148.014,Q,Q
2023-03-15 21:31:34:844,0,-54.8631,1.87079,148.013,Q,Q
2023-03-15 21:31:34:854,0,-54.8638,1.86979,148.017,Q,Q
2023-03-15 21:31:34:864,0,-54.8663,1.87069,148.015,Q,Q
2023-03-15 21:31:34:874,0,-54.8666,1.87293,148.016,Q,Q
2023-03-15 21:31:34:884,0,-54.8677,1.87066,148.017,Q,Q
2023-03-15 21:31:34:894,0,-54.8667,1.86864,148.018,Q,Q
2023-03-15 21:31:34:904,0,-54.8651,1.87043,148.021,Q,Q
2023-03-15 21:31:34:914,0,-54.8654,1.87194,148.021,Q,Q
2023-03-15 21:31:34:924,0,-54.8639,1.8725,148.021,Q,Q
2023-03-15 21:31:34:934,0,-54.865,1.8725,148.017,Q,Q
2023-03-15 21:31:34:944,0,-54.8651,1.8721,148.019,Q,Q
2023-03-15 21:31:34:954,0,-54.8682,1.87132,148.022,Q,Q
2023-03-15 21:31:34:964,0,-54.8693,1.87237,148.025,Q,Q
2023-03-15 21:31:34:974,0,-54.8684,1.86911,148.024,Q,Q
2023-03-15 21:31:34:984,0,-54.8698,1.86923,148.025,Q,Q
2023-03-15 21:31:34:994,0,-54.8676,1.87083,148.027,Q,Q
2023-03-15 21:31:35:4,0,-54.8644,1.87077,148.026,Q,Q
2023-03-15 21:31:35:14,0,-54.8627,1.86835,148.028,Q,Q
2023-03-15 21:31:35:24,0,-54.8649,1.86962,148.028,Q,Q
2023-03-15 21:31:35:34,0,-54.8683,1.87047,148.026,Q,Q
2023-03-15 21:31:35:44,0,-54.8686,1.87116,148.028,Q,Q
2023-03-15 21:31:35:54,0,-54.8694,1.87072,148.027,Q,Q
2023-03-15 21:31:35:64,0,-54.8669,1.87232,148.023,Q,Q
2023-03-15 21:31:35:74,0,-54.8672,1.87286,148.024,Q,Q
2023-03-15 21:31:35:84,0,-54.8694,1.87319,148.025,Q,Q
2023-03-15 21:31:35:94,0,-54.8692,1.87487,148.026,Q,Q
2023-03-15 21:31:35:104,0,-54.8712,1.87767,148.026,Q,Q
2023-03-15 21:31:35:114,0,-54.8719,1.87699,148.025,Q,Q
2023-03-15 21:31:35:124,0,-54.8737,1.87736,148.024,Q,Q
2023-03-15 21:31:35:134,0,-54.8723,1.87543,148.023,Q,Q
2023-03-15 21:31:35:144,0,-54.87,1.87435,148.022,Q,Q
2023-03-15 21:31:35:154,0,-54.869,1.87597,148.021,Q,Q
2023-03-15 21:31:35:164,0,-54.868,1.87517,148.021,Q,Q
2023-03-15 21:31:35:174,0,-54.8689,1.87499,148.021,Q,Q
2023-03-15 21:31:35:184,0,-54.8672,1.87509,148.02,Q,Q
2023-03-15 21:31:35:194,0,-54.8679,1.87292,148.021,Q,Q
2023-03-15 21:31:35:204,0,-54.8692,1.87174,148.022,Q,Q
2023-03-15 21:31:35:214,0,-54.8672,1.87132,148.024,Q,Q
2023-03-15 21:31:35:224,0,-54.8677,1.87077,148.022,Q,Q
2023-03-15 21:31:35:234,0,-54.8626,1.87142,148.02,Q,Q
2023-03-15 21:31:35:244,0,-54.8613,1.87448,148.018,Q,Q
2023-03-15 21:31:35:254,0,-54.8621,1.87496,148.019,Q,Q
2023-03-15 21:31:35:264,0,-54.8599,1.87138,148.022,Q,Q
2023-03-15 21:31:35:274,0,-54.8597,1.86842,148.021,Q,Q
2023-03-15 21:31:35:284,0,-54.8636,1.86988,148.023,Q,Q
2023-03-15 21:31:35:294,0,-54.8669,1.86861,148.02,Q,Q
2023-03-15 21:31:35:304,0,-54.8671,1.87012,148.019,Q,Q
2023-03-15 21:31:35:314,0,-54.8676,1.87128,148.02,Q,Q
2023-03-15 21:31:35:324,0,-54.8656,1.87183,148.019,Q,Q
2023-03-15 21:31:35:334,0,-54.8674,1.87627,148.018,Q,Q
2023-03-15 21:31:35:344,0,-54.865,1.87746,148.018,Q,Q
2023-03-15 21:31:35:354,0,-54.8621,1.87942,148.021,Q,Q
2023-03-15 21:31:35:364,0,-54.8623,1.88046,148.024,Q,Q
2023-03-15 21:31:35:374,0,-54.8607,1.87878,148.025,Q,Q
2023-03-15 21:31:35:384,0,-54.8586,1.8762,148.025,Q,Q
2023-03-15 21:31:35:394,0,-54.8596,1.87474,148.028,Q,Q
2023-03-15 21:31:35:404,0,-54.8565,1.87195,148.027,Q,Q
2023-03-15 21:31:35:414,0,-54.8594,1.87296,148.029,Q,Q
2023-03-15 21:31:35:424,0,-54.8581,1.87383,148.028,Q,Q
2023-03-15 21:31:35:434,0,-54.8563,1.87615,148.026,Q,Q
2023-03-15 21:31:35:444,0,-54.8567,1.87676,148.024,Q,Q
2023-03-15 21:31:35:454,0,-54.8602,1.87548,148.025,Q,Q
2023-03-15 21:31:35:464,0,-54.8609,1.8784,148.026,Q,Q
2023-03-15 21:31:35:474,0,-54.8611,1.87998,148.025,Q,Q
2023-03-15 21:31:35:484,0,-54.862,1.87808,148.023,Q,Q
2023-03-15 21:31:35:494,0,-54.8638,1.8794,148.026,Q,Q
2023-03-15 21:31:35:504,0,-54.8644,1.88201,148.025,Q,Q
2023-03-15 21:31:35:514,0,-54.8645,1.88567,148.023,Q,Q
2023-03-15 21:31:35:524,0,-54.8652,1.88332,148.023,Q,Q
2023-03-15 21:31:35:534,0,-54.8646,1.88086,148.025,Q,Q
2023-03-15 21:31:35:544,0,-54.8626,1.87927,148.027,Q,Q
2023-03-15 21:31:35:554,0,-54.8636,1.879,148.028,Q,Q
2023-03-15 21:31:35:564,0,-54.8662,1.87927,148.029,Q,Q
2023-03-15 21:31:35:574,0,-54.8655,1.87804,148.029,Q,Q
2023-03-15 21:31:35:584,0,-54.8674,1.87925,148.027,Q,Q
2023-03-15 21:31:35:594,0,-54.8707,1.87661,148.028,Q,Q
2023-03-15 21:31:35:604,0,-54.8726,1.87855,148.028,Q,Q
2023-03-15 21:31:35:614,0,-54.8721,1.87612,148.029,Q,Q
2023-03-15 21:31:35:624,0,-54.8735,1.8762,148.025,Q,Q
2023-03-15 21:31:35:634,0,-54.8739,1.87846,148.024,Q,Q
2023-03-15 21:31:35:644,0,-54.8743,1.87864,148.029,Q,Q
2023-03-15 21:31:35:654,0,-54.8754,1.87739,148.029,Q,Q
2023-03-15 21:31:35:664,0,-54.8774,1.87745,148.026,Q,Q
2023-03-15 21:31:35:674,0,-54.8768,1.87642,148.028,Q,Q
2023-03-15 21:31:35:684,0,-54.8752,1.8762,148.027,Q,Q
2023-03-15 21:31:35:694,0,-54.8761,1.87846,148.025,Q,Q
2023-03-15 21:31:35:704,0,-54.8792,1.87782,148.024,Q,Q
2023-03-15 21:31:35:714,0,-54.8807,1.87962,148.023,Q,Q
2023-03-15 21:31:35:724,0,-54.8797,1.87748,148.025,Q,Q
2023-03-15 21:31:35:734,0,-54.8793,1.87868,148.023,Q,Q
2023-03-15 21:31:35:744,0,-54.8776,1.87934,148.025,Q,Q
2023-03-15 21:31:35:754,0,-54.8749,1.88277,148.027,Q,Q
2023-03-15 21:31:35:764,0,-54.8732,1.88026,148.03,Q,Q
2023-03-15 21:31:35:774,0,-54.8708,1.8772,148.029,Q,Q
2023-03-15 21:31:35:784,0,-54.8694,1.87848,148.029,Q,Q
2023-03-15 21:31:35:794,0,-54.8695,1.87457,148.032,Q,Q
2023-03-15 21:31:35:804,0,-54.8701,1.87719,148.034,Q,Q
2023-03-15 21:31:35:814,0,-54.8717,1.88148,148.035,Q,Q
2023-03-15 21:31:35:824,0,-54.8719,1.88048,148.037,Q,Q
2023-03-15 21:31:35:834,0,-54.8708,1.88085,148.035,Q,Q
2023-03-15 21:31:35:844,0,-54.8713,1.88078,148.033,Q,Q
2023-03-15 21:31:35:854,0,-54.8697,1.88217,148.034,Q,Q
2023-03-15 21:31:35:864,0,-54.8689,1.88098,148.037,Q,Q
2023-03-15 21:31:35:874,0,-54.8686,1.88074,148.037,Q,Q
2023-03-15 21:31:35:884,0,-54.8676,1.88076,148.037,Q,Q
2023-03-15 21:31:35:894,0,-54.8678,1.87831,148.034,Q,Q
2023-03-15 21:31:35:904,0,-54.8673,1.8791,148.034,Q,Q
2023-03-15 21:31:35:914,0,-54.8684,1.88217,148.031,Q,Q
2023-03-15 21:31:35:924,0,-54.8699,1.8835,148.034,Q,Q
2023-03-15 21:31:35:934,0,-54.8684,1.88509,148.033,Q,Q
2023-03-15 21:31:35:944,0,-54.8709,1.88711,148.033,Q,Q
2023-03-15 21:31:35:954,0,-54.867,1.88362,148.034,Q,Q
2023-03-15 21:31:35:964,0,-54.866,1.88153,148.034,Q,Q
2023-03-15 21:31:35:974,0,-54.865,1.87782,148.038,Q,Q
2023-03-15 21:31:35:984,0,-54.8691,1.87718,148.038,Q,Q
2023-03-15 21:31:35:994,0,-54.8699,1.88018,148.036,Q,Q
2023-03-15 21:31:36:4,0,-54.8672,1.88025,148.037,Q,Q
2023-03-15 21:31:36:14,0,-54.8654,1.87873,148.036,Q,Q
2023-03-15 21:31:36:24,0,-54.8634,1.8789,148.03,Q,Q
2023-03-15 21:31:36:34,0,-54.8633,1.87682,148.031,Q,Q
2023-03-15 21:31:36:44,0,-54.8661,1.87879,148.03,Q,Q
2023-03-15 21:31:36:54,0,-54.8657,1.87806,148.03,Q,Q
2023-03-15 21:31:36:64,0,-54.8681,1.8767,148.029,Q,Q
2023-03-15 21:31:36:74,0,-54.8674,1.87651,148.033,Q,Q
2023-03-15 21:31:36:84,0,-54.8652,1.87864,148.03,Q,Q
2023-03-15 21:31:36:94,0,-54.8665,1.87811,148.03,Q,Q
2023-03-15 21:31:36:104,0,-54.8669,1.87918,148.03,Q,Q
2023-03-15 21:31:36:114,0,-54.8691,1.879,148.032,Q,Q
2023-03-15 21:31:36:124,0,-54.8695,1.88017,148.029,Q,Q
2023-03-15 21:31:36:134,0,-54.8675,1.87847,148.029,Q,Q
2023-03-15 21:31:36:144,0,-54.8683,1.87791,148.029,Q,Q
2023-03-15 21:31:36:154,0,-54.8691,1.87611,148.027,Q,Q
2023-03-15 21:31:36:164,0,-54.8678,1.87657,148.028,Q,Q
2023-03-15 21:31:36:174,0,-54.867,1.87696,148.027,Q,Q
2023-03-15 21:31:36:184,0,-54.8677,1.87498,148.028,Q,Q
2023-03-15 21:31:36:194,0,-54.8644,1.87785,148.025,Q,Q
2023-03-15 21:31:36:204,0,-54.8607,1.87657,148.026,Q,Q
2023-03-15 21:31:36:214,0,-54.8596,1.87752,148.023,Q,Q
2023-03-15 21:31:36:224,0,-54.8587,1.87845,148.024,Q,Q
2023-03-15 21:31:36:234,0,-54.8579,1.88015,148.022,Q,Q
2023-03-15 21:31:36:244,0,-54.8594,1.88077,148.023,Q,Q
2023-03-15 21:31:36:254,0,-54.8599,1.88386,148.022,Q,Q
2023-03-15 21:31:36:264,0,-54.8558,1.88275,148.021,Q,Q
2023-03-15 21:31:36:274,0,-54.8553,1.88098,148.023,Q,Q
2023-03-15 21:31:36:284,0,-54.8563,1.88167,148.025,Q,Q
2023-03-15 21:31:36:294,0,-54.8552,1.88113,148.028,Q,Q
2023-03-15 21:31:36:304,0,-54.8534,1.87942,148.028,Q,Q
2023-03-15 21:31:36:314,0,-54.853,1.87779,148.026,Q,Q
2023-03-15 21:31:36:324,0,-54.852,1.8773,148.028,Q,Q
2023-03-15 21:31:36:334,0,-54.8531,1.87752,148.03,Q,Q
2023-03-15 21:31:36:344,0,-54.853,1.875,148.032,Q,Q
2023-03-15 21:31:36:354,0,-54.8502,1.87747,148.033,Q,Q
2023-03-15 21:31:36:364,0,-54.8508,1.87817,148.037,Q,Q
2023-03-15 21:31:36:374,0,-54.8471,1.87706,148.04,Q,Q
2023-03-15 21:31:36:384,0,-54.8478,1.87704,148.038,Q,Q
2023-03-15 21:31:36:394,0,-54.8472,1.8743,148.039,Q,Q
2023-03-15 21:31:36:404,0,-54.8505,1.87262,148.04,Q,Q
2023-03-15 21:31:36:414,0,-54.8527,1.87274,148.039,Q,Q
2023-03-15 21:31:36:424,0,-54.8514,1.8734,148.037,Q,Q
2023-03-15 21:31:36:434,0,-54.8539,1.87345,148.037,Q,Q
2023-03-15 21:31:36:444,0,-54.8545,1.87411,148.038,Q,Q
2023-03-15 21:31:36:454,0,-54.8555,1.87504,148.04,Q,Q
2023-03-15 21:31:36:464,0,-54.8576,1.87693,148.037,Q,Q
2023-03-15 21:31:36:474,0,-54.8577,1.87514,148.038,Q,Q
2023-03-15 21:31:36:484,0,-54.8554,1.87585,148.037,Q,Q
2023-03-15 21:31:36:494,0,-54.8563,1.87461,148.038,Q,Q
2023-03-15 21:31:36:504,0,-54.8517,1.87404,148.037,Q,Q
2023-03-15 21:31:36:514,0,-54.8502,1.87601,148.039,Q,Q
2023-03-15 21:31:36:524,0,-54.8474,1.87242,148.033,Q,Q
2023-03-15 21:31:36:534,0,-54.8478,1.87247,148.033,Q,Q
2023-03-15 21:31:36:544,0,-54.8467,1.87034,148.03,Q,Q
2023-03-15 21:31:36:554,0,-54.8472,1.86991,148.031,Q,Q
2023-03-15 21:31:36:564,0,-54.8492,1.87151,148.032,Q,Q
2023-03-15 21:31:36:574,0,-54.8491,1.87184,148.03,Q,Q
2023-03-15 21:31:36:584,0,-54.8513,1.87075,148.028,Q,Q
2023-03-15 21:31:36:594,0,-54.8509,1.86868,148.027,Q,Q
2023-03-15 21:31:36:604,0,-54.8521,1.86944,148.027,Q,Q
2023-03-15 21:31:36:614,0,-54.8512,1.86875,148.027,Q,Q
2023-03-15 21:31:36:624,0,-54.8531,1.86861,148.03,Q,Q
2023-03-15 21:31:36:634,0,-54.8527,1.86323,148.031,Q,Q
2023-03-15 21:31:36:644,0,-54.8533,1.86353,148.03,Q,Q
2023-03-15 21:31:36:654,0,-54.8536,1.86084,148.027,Q,Q
2023-03-15 21:31:36:664,0,-54.8523,1.8589,148.026,Q,Q
2023-03-15 21:31:36:674,0,-54.8505,1.85866,148.026,Q,Q
2023-03-15 21:31:36:684,0,-54.8514,1.86163,148.027,Q,Q
2023-03-15 21:31:36:694,0,-54.8517,1.86235,148.028,Q,Q
2023-03-15 21:31:36:704,0,-54.8537,1.85873,148.03,Q,Q
2023-03-15 21:31:36:714,0,-54.8531,1.85795,148.033,Q,Q
2023-03-15 21:31:36:724,0,-54.8547,1.85679,148.034,Q,Q
2023-03-15 21:31:36:734,0,-54.8566,1.85594,148.034,Q,Q
2023-03-15 21:31:36:744,0,-54.8584,1.85602,148.033,Q,Q
2023-03-15 21:31:36:754,0,-54.8617,1.85807,148.031,Q,Q
2023-03-15 21:31:36:764,0,-54.8645,1.85687,148.033,Q,Q
2023-03-15 21:31:36:774,0,-54.8643,1.85898,148.033,Q,Q
2023-03-15 21:31:36:784,0,-54.8642,1.85636,148.034,Q,Q
2023-03-15 21:31:36:794,0,-54.8644,1.85409,148.036,Q,Q
2023-03-15 21:31:36:804,0,-54.8636,1.85434,148.037,Q,Q
2023-03-15 21:31:36:814,0,-54.8636,1.85586,148.038,Q,Q
2023-03-15 21:31:36:824,0,-54.8656,1.85728,148.033,Q,Q
2023-03-15 21:31:36:834,0,-54.8692,1.85926,148.033,Q,Q
2023-03-15 21:31:36:844,0,-54.869,1.85893,148.034,Q,Q
2023-03-15 21:31:36:854,0,-54.8698,1.86053,148.033,Q,Q
2023-03-15 21:31:36:864,0,-54.8702,1.85972,148.032,Q,Q
2023-03-15 21:31:36:874,0,-54.8713,1.85783,148.033,Q,Q
2023-03-15 21:31:36:884,0,-54.8708,1.85625,148.032,Q,Q
2023-03-15 21:31:36:894,0,-54.8709,1.85325,148.033,Q,Q
2023-03-15 21:31:36:904,0,-54.869,1.8542,148.029,Q,Q
2023-03-15 21:31:36:914,0,-54.8687,1.85444,148.029,Q,Q
2023-03-15 21:31:36:924,0,-54.8676,1.85554,148.031,Q,Q
2023-03-15 21:31:36:934,0,-54.8645,1.85482,148.033,Q,Q
2023-03-15 21:31:36:944,0,-54.8641,1.85591,148.034,Q,Q
2023-03-15 21:31:36:954,0,-54.8662,1.85733,148.038,Q,Q
2023-03-15 21:31:36:964,0,-54.8647,1.8594,148.038,Q,Q
2023-03-15 21:31:36:974,0,-54.8649,1.86145,148.038,Q,Q
2023-03-15 21:31:36:984,0,-54.8653,1.85876,148.035,Q,Q
2023-03-15 21:31:36:994,0,-54.8661,1.85824,148.035,Q,Q
2023-03-15 21:31:37:4,0,-54.8658,1.85364,148.035,Q,Q
2023-03-15 21:31:37:14,0,-54.867,1.85481,148.033,Q,Q
2023-03-15 21:31:37:24,0,-54.8675,1.85543,148.03,Q,Q
2023-03-15 21:31:37:34,0,-54.8685,1.85443,148.03,Q,Q
2023-03-15 21:31:37:44,0,-54.8716,1.8543,148.028,Q,Q
2023-03-15 21:31:37:54,0,-54.8766,1.85738,148.025,Q,Q
2023-03-15 21:31:37:64,0,-54.8767,1.85602,148.028,Q,Q
2023-03-15 21:31:37:74,0,-54.8778,1.85718,148.027,Q,Q
2023-03-15 21:31:37:84,0,-54.8772,1.8561,148.029,Q,Q
2023-03-15 21:31:37:94,0,-54.8765,1.86052,148.028,Q,Q
2023-03-15 21:31:37:104,0,-54.8748,1.86173,148.029,Q,Q
2023-03-15 21:31:37:114,0,-54.8751,1.86402,148.028,Q,Q
2023-03-15 21:31:37:124,0,-54.875,1.86519,148.03,Q,Q
2023-03-15 21:31:37:134,0,-54.8724,1.86537,148.03,Q,Q
2023-03-15 21:31:37:144,0,-54.8733,1.86582,148.031,Q,Q
2023-03-15 21:31:37:154,0,-54.8709,1.86488,148.032,Q,Q
2023-03-15 21:31:37:164,0,-54.8708,1.86607,148.033,Q,Q
2023-03-15 21:31:37:174,0,-54.8716,1.86417,148.033,Q,Q
2023-03-15 21:31:37:184,0,-54.8686,1.86398,148.032,Q,Q
2023-03-15 21:31:37:194,0,-54.8668,1.86242,148.031,Q,Q
2023-03-15 21:31:37:204,0,-54.8673,1.86503,148.028,Q,Q
2023-03-15 21:31:37:214,0,-54.8645,1.8668,148.028,Q,Q
2023-03-15 21:31:37:224,0,-54.8638,1.86636,148.028,Q,Q
2023-03-15 21:31:37:234,0,-54.8616,1.86594,148.031,Q,Q
2023-03-15 21:31:37:244,0,-54.8602,1.8649,148.029,Q,Q
2023-03-15 21:31:37:254,0,-54.8591,1.86488,148.027,Q,Q
2023-03-15 21:31:37:264,0,-54.8575,1.86469,148.027,Q,Q
2023-03-15 21:31:37:274,0,-54.8621,1.86522,148.029,Q,Q
2023-03-15 21:31:37:284,0,-54.8634,1.86261,148.026,Q,Q
2023-03-15 21:31:37:294,0,-54.8646,1.86408,148.026,Q,Q
2023-03-15 21:31:37:304,0,-54.8653,1.86598,148.028,Q,Q
2023-03-15 21:31:37:314,0,-54.8665,1.86593,148.025,Q,Q
2023-03-15 21:31:37:324,0,-54.866,1.8642,148.023,Q,Q
2023-03-15 21:31:37:334,0,-54.8656,1.86456,148.02,Q,Q
2023-03-15 21:31:37:344,0,-54.8644,1.86065,148.023,Q,Q
2023-03-15 21:31:37:354,0,-54.866,1.85784,148.022,Q,Q
2023-03-15 21:31:37:364,0,-54.8634,1.85858,148.023,Q,Q
2023-03-15 21:31:37:374,0,-54.8632,1.85906,148.024,Q,Q
2023-03-15 21:31:37:384,0,-54.8622,1.86125,148.025,Q,Q
2023-03-15 21:31:37:394,0,-54.8614,1.86281,148.028,Q,Q
2023-03-15 21:31:37:404,0,-54.862,1.8642,148.027,Q,Q
2023-03-15 21:31:37:414,0,-54.8632,1.86562,148.023,Q,Q
2023-03-15 21:31:37:424,0,-54.8609,1.86103,148.025,Q,Q
2023-03-15 21:31:37:434,0,-54.8602,1.86087,148.025,Q,Q
2023-03-15 21:31:37:444,0,-54.858,1.85855,148.025,Q,Q
2023-03-15 21:31:37:454,0,-54.8591,1.85878,148.026,Q,Q
2023-03-15 21:31:37:464,0,-54.8571,1.86033,148.027,Q,Q
2023-03-15 21:31:37:474,0,-54.8569,1.86266,148.027,Q,Q
2023-03-15 21:31:37:484,0,-54.8558,1.8622,148.028,Q,Q
2023-03-15 21:31:37:494,0,-54.8569,1.85789,148.028,Q,Q
2023-03-15 21:31:37:504,0,-54.8581,1.85813,148.027,Q,Q
2023-03-15 21:31:37:514,0,-54.8576,1.85761,148.029,Q,Q
2023-03-15 21:31:37:524,0,-54.856,1.85634,148.031,Q,Q
2023-03-15 21:31:37:534,0,-54.8561,1.8582,148.034,Q,Q
2023-03-15 21:31:37:544,0,-54.8554,1.85644,148.033,Q,Q
2023-03-15 21:31:37:554,0,-54.8549,1.85643,148.034,Q,Q
2023-03-15 21:31:37:564,0,-54.8555,1.85617,148.033,Q,Q
2023-03-15 21:31:37:574,0,-54.8562,1.8559,148.033,Q,Q
2023-03-15 21:31:37:584,0,-54.8562,1.85526,148.032,Q,Q
2023-03-15 21:31:37:594,0,-54.8548,1.85591,148.03,Q,Q
2023-03-15 21:31:37:604,0,-54.8543,1.85744,148.031,Q,Q
2023-03-15 21:31:37:614,0,-54.8557,1.8581,148.03,Q,Q
2023-03-15 21:31:37:624,0,-54.8562,1.85759,148.032,Q,Q
2023-03-15 21:31:37:634,0,-54.8552,1.86042,148.034,Q,Q
2023-03-15 21:31:37:644,0,-54.8573,1.86248,148.033,Q,Q
2023-03-15 21:31:37:654,0,-54.8519,1.86145,148.031,Q,Q
2023-03-15 21:31:37:664,0,-54.8512,1.86181,148.034,Q,Q
2023-03-15 21:31:37:674,0,-54.8525,1.86182,148.034,Q,Q
2023-03-15 21:31:37:684,0,-54.8568,1.86341,148.033,Q,Q
2023-03-15 21:31:37:694,0,-54.8533,1.86216,148.037,Q,Q
2023-03-15 21:31:37:704,0,-54.8535,1.85904,148.036,Q,Q
2023-03-15 21:31:37:714,0,-54.8542,1.85737,148.035,Q,Q
2023-03-15 21:31:37:724,0,-54.8532,1.85931,148.036,Q,Q
2023-03-15 21:31:37:734,0,-54.8535,1.85918,148.033,Q,Q
2023-03-15 21:31:37:743,0,-54.8527,1.85724,148.035,Q,Q
2023-03-15 21:31:37:754,0,-54.8525,1.85574,148.031,Q,Q
2023-03-15 21:31:37:764,0,-54.8519,1.85875,148.032,Q,Q
2023-03-15 21:31:37:774,0,-54.8509,1.85893,148.031,Q,Q
2023-03-15 21:31:37:784,0,-54.8485,1.85888,148.031,Q,Q
2023-03-15 21:31:37:794,0,-54.8476,1.86092,148.033,Q,Q
2023-03-15 21:31:37:804,0,-54.8474,1.86177,148.036,Q,Q
2023-03-15 21:31:37:814,0,-54.8511,1.86236,148.035,Q,Q
2023-03-15 21:31:37:824,0,-54.8503,1.86449,148.035,Q,Q
2023-03-15 21:31:37:834,0,-54.8507,1.86461,148.036,Q,Q
2023-03-15 21:31:37:844,0,-54.8472,1.86458,148.037,Q,Q
2023-03-15 21:31:37:854,0,-54.8452,1.86323,148.034,Q,Q
2023-03-15 21:31:37:864,0,-54.8469,1.86183,148.032,Q,Q
2023-03-15 21:31:37:874,0,-54.8457,1.86382,148.034,Q,Q
2023-03-15 21:31:37:884,0,-54.8438,1.86379,148.033,Q,Q
2023-03-15 21:31:37:894,0,-54.845,1.86378,148.033,Q,Q
2023-03-15 21:31:37:904,0,-54.8442,1.86291,148.031,Q,Q
2023-03-15 21:31:37:914,0,-54.8407,1.86355,148.035,Q,Q
2023-03-15 21:31:37:924,0,-54.8395,1.86404,148.037,Q,Q
2023-03-15 21:31:37:934,0,-54.8397,1.8636,148.04,Q,Q
2023-03-15 21:31:37:944,0,-54.8405,1.86428,148.04,Q,Q
2023-03-15 21:31:37:954,0,-54.8428,1.86412,148.042,Q,Q
2023-03-15 21:31:37:964,0,-54.8419,1.86543,148.046,Q,Q
2023-03-15 21:31:37:973,0,-54.8391,1.86442,148.044,Q,Q
2023-03-15 21:31:37:983,0,-54.8359,1.86505,148.043,Q,Q
2023-03-15 21:31:37:994,0,-54.8355,1.86717,148.047,Q,Q
2023-03-15 21:31:38:4,0,-54.832,1.86408,148.046,Q,Q
2023-03-15 21:31:38:14,0,-54.8331,1.86858,148.046,Q,Q
2023-03-15 21:31:38:24,0,-54.834,1.86804,148.046,Q,Q
2023-03-15 21:31:38:34,0,-54.8352,1.86882,148.043,Q,Q
2023-03-15 21:31:38:44,0,-54.8386,1.86604,148.046,Q,Q
2023-03-15 21:31:38:54,0,-54.8369,1.86576,148.044,Q,Q
2023-03-15 21:31:38:64,0,-54.8373,1.86365,148.043,Q,Q
2023-03-15 21:31:38:74,0,-54.8376,1.86217,148.043,Q,Q
2023-03-15 21:31:38:84,0,-54.8364,1.86324,148.043,Q,Q
2023-03-15 21:31:38:94,0,-54.8343,1.86346,148.044,Q,Q
2023-03-15 21:31:38:104,0,-54.8337,1.86499,148.046,Q,Q
2023-03-15 21:31:38:114,0,-54.834,1.86344,148.049,Q,Q
2023-03-15 21:31:38:124,0,-54.835,1.86368,148.049,Q,Q
2023-03-15 21:31:38:134,0,-54.8367,1.86511,148.052,Q,Q
2023-03-15 21:31:38:144,0,-54.8364,1.8669,148.05,Q,Q
2023-03-15 21:31:38:154,0,-54.8373,1.86865,148.052,Q,Q
2023-03-15 21:31:38:164,0,-54.8362,1.86841,148.054,Q,Q
2023-03-15 21:31:38:174,0,-54.8354,1.86947,148.055,Q,Q
2023-03-15 21:31:38:184,0,-54.8372,1.86924,148.056,Q,Q
2023-03-15 21:31:38:194,0,-54.8383,1.87179,148.053,Q,Q
2023-03-15 21:31:38:204,0,-54.837,1.87195,148.055,Q,Q
2023-03-15 21:31:38:214,0,-54.8366,1.87157,148.053,Q,Q
2023-03-15 21:31:38:224,0,-54.8339,1.87123,148.053,Q,Q
2023-03-15 21:31:38:234,0,-54.8341,1.87055,148.053,Q,Q
2023-03-15 21:31:38:244,0,-54.8342,1.87176,148.051,Q,Q
2023-03-15 21:31:38:253,0,-54.8382,1.87064,148.055,Q,Q
2023-03-15 21:31:38:264,0,-54.8376,1.87284,148.051,Q,Q
2023-03-15 21:31:38:274,0,-54.8377,1.87205,148.049,Q,Q
2023-03-15 21:31:38:284,0,-54.8353,1.87074,148.051,Q,Q
2023-03-15 21:31:38:294,0,-54.8341,1.87039,148.049,Q,Q
2023-03-15 21:31:38:304,0,-54.8345,1.87149,148.047,Q,Q
2023-03-15 21:31:38:314,0,-54.8338,1.87123,148.047,Q,Q
2023-03-15 21:31:38:324,0,-54.832,1.87306,148.049,Q,Q
2023-03-15 21:31:38:334,0,-54.8337,1.87211,148.047,Q,Q
2023-03-15 21:31:38:344,0,-54.8327,1.87157,148.047,Q,Q
2023-03-15 21:31:38:354,0,-54.8342,1.87014,148.044,Q,Q
2023-03-15 21:31:38:364,0,-54.834,1.87011,148.046,Q,Q
2023-03-15 21:31:38:374,0,-54.8325,1.86976,148.044,Q,Q
2023-03-15 21:31:38:384,0,-54.8297,1.87096,148.045,Q,Q
2023-03-15 21:31:38:394,0,-54.8333,1.87249,148.047,Q,Q
2023-03-15 21:31:38:404,0,-54.8322,1.87266,148.045,Q,Q
2023-03-15 21:31:38:414,0,-54.8326,1.87434,148.043,Q,Q
2023-03-15 21:31:38:424,0,-54.8302,1.87329,148.045,Q,Q
2023-03-15 21:31:38:434,0,-54.8296,1.87481,148.05,Q,Q
2023-03-15 21:31:38:443,0,-54.8301,1.8774,148.05,Q,Q
2023-03-15 21:31:38:454,0,-54.8302,1.87838,148.051,Q,Q
2023-03-15 21:31:38:464,0,-54.8267,1.87704,148.044,Q,Q
2023-03-15 21:31:38:473,0,-54.8274,1.87606,148.044,Q,Q
2023-03-15 21:31:38:484,0,-54.8259,1.87678,148.042,Q,Q
2023-03-15 21:31:38:494,0,-54.8285,1.87355,148.042,Q,Q
2023-03-15 21:31:38:504,0,-54.8275,1.87287,148.039,Q,Q
2023-03-15 21:31:38:514,0,-54.8307,1.8728,148.037,Q,Q
2023-03-15 21:31:38:524,0,-54.8292,1.87177,148.038,Q,Q
2023-03-15 21:31:38:534,0,-54.8303,1.87136,148.037,Q,Q
2023-03-15 21:31:38:544,0,-54.8298,1.87302,148.036,Q,Q
2023-03-15 21:31:38:554,0,-54.8291,1.86894,148.036,Q,Q
2023-03-15 21:31:38:564,0,-54.8264,1.86884,148.038,Q,Q
2023-03-15 21:31:38:574,0,-54.8272,1.87006,148.038,Q,Q
2023-03-15 21:31:38:584,0,-54.8264,1.86882,148.039,Q,Q
2023-03-15 21:31:38:594,0,-54.8257,1.86875,148.04,Q,Q
2023-03-15 21:31:38:604,0,-54.8232,1.86892,148.037,Q,Q
2023-03-15 21:31:38:614,0,-54.8214,1.86837,148.038,Q,Q
2023-03-15 21:31:38:624,0,-54.8196,1.86807,148.036,Q,Q
2023-03-15 21:31:38:634,0,-54.8191,1.87105,148.036,Q,Q
2023-03-15 21:31:38:644,0,-54.8173,1.87009,148.038,Q,Q
2023-03-15 21:31:38:654,0,-54.8132,1.87154,148.039,Q,Q
2023-03-15 21:31:38:664,0,-54.8141,1.87079,148.041,Q,Q
2023-03-15 21:31:38:673,0,-54.8166,1.87161,148.043,Q,Q
2023-03-15 21:31:38:684,0,-54.8163,1.87196,148.043,Q,Q
2023-03-15 21:31:38:694,0,-54.816,1.87285,148.043,Q,Q
2023-03-15 21:31:38:703,0,-54.8148,1.87042,148.041,Q,Q
2023-03-15 21:31:38:714,0,-54.8148,1.86952,148.041,Q,Q
2023-03-15 21:31:38:724,0,-54.8118,1.87122,148.04,Q,Q
2023-03-15 21:31:38:734,0,-54.8103,1.87058,148.039,Q,Q
2023-03-15 21:31:38:744,0,-54.8113,1.87108,148.041,Q,Q
2023-03-15 21:31:38:753,0,-54.8143,1.86932,148.043,Q,Q
2023-03-15 21:31:38:763,0,-54.8159,1.86996,148.042,Q,Q
2023-03-15 21:31:38:774,0,-54.8147,1.87169,148.042,Q,Q
2023-03-15 21:31:38:784,0,-54.8129,1.87233,148.043,Q,Q
2023-03-15 21:31:38:794,0,-54.8145,1.87137,148.043,Q,Q
2023-03-15 21:31:38:804,0,-54.8125,1.87086,148.042,Q,Q
2023-03-15 21:31:38:814,0,-54.8103,1.87385,148.044,Q,Q
2023-03-15 21:31:38:824,0,-54.8119,1.87334,148.044,Q,Q
2023-03-15 21:31:38:834,0,-54.8119,1.87327,148.041,Q,Q
2023-03-15 21:31:38:844,0,-54.8129,1.87231,148.042,Q,Q
2023-03-15 21:31:38:854,0,-54.8136,1.87162,148.043,Q,Q
2023-03-15 21:31:38:864,0,-54.8161,1.87136,148.043,Q,Q
2023-03-15 21:31:38:874,0,-54.8139,1.86872,148.046,Q,Q
2023-03-15 21:31:38:884,0,-54.8127,1.8722,148.044,Q,Q
2023-03-15 21:31:38:894,0,-54.8116,1.87268,148.043,Q,Q
2023-03-15 21:31:38:904,0,-54.8129,1.86995,148.043,Q,Q
2023-03-15 21:31:38:914,0,-54.8114,1.87256,148.044,Q,Q
2023-03-15 21:31:38:924,0,-54.8106,1.87168,148.042,Q,Q
2023-03-15 21:31:38:934,0,-54.81,1.87313,148.04,Q,Q
2023-03-15 21:31:38:943,0,-54.8079,1.87054,148.043,Q,Q
2023-03-15 21:31:38:954,0,-54.8081,1.87069,148.042,Q,Q
2023-03-15 21:31:38:964,0,-54.8094,1.86761,148.045,Q,Q
2023-03-15 21:31:38:974,0,-54.809,1.86934,148.044,Q,Q
2023-03-15 21:31:38:983,0,-54.8107,1.86943,148.043,Q,Q
2023-03-15 21:31:38:993,0,-54.81,1.86903,148.041,Q,Q
2023-03-15 21:31:39:3,0,-54.8058,1.87011,148.041,Q,Q
2023-03-15 21:31:39:14,0,-54.8056,1.8679,148.043,Q,Q
2023-03-15 21:31:39:24,0,-54.8065,1.87037,148.042,Q,Q
2023-03-15 21:31:39:34,0,-54.8065,1.87094,148.042,Q,Q
2023-03-15 21:31:39:44,0,-54.8087,1.87154,148.042,Q,Q
2023-03-15 21:31:39:54,0,-54.8073,1.87184,148.041,Q,Q
2023-03-15 21:31:39:64,0,-54.8074,1.87408,148.042,Q,Q
2023-03-15 21:31:39:74,0,-54.8063,1.87434,148.043,Q,Q
2023-03-15 21:31:39:84,0,-54.8054,1.87664,148.046,Q,Q
2023-03-15 21:31:39:94,0,-54.8053,1.8773,148.044,Q,Q
2023-03-15 21:31:39:104,0,-54.8031,1.87534,148.045,Q,Q
2023-03-15 21:31:39:114,0,-54.8003,1.87399,148.045,Q,Q
2023-03-15 21:31:39:124,0,-54.7988,1.87475,148.043,Q,Q
2023-03-15 21:31:39:134,0,-54.8009,1.87202,148.044,Q,Q
2023-03-15 21:31:39:144,0,-54.7993,1.87229,148.042,Q,Q
2023-03-15 21:31:39:153,0,-54.7953,1.87283,148.042,Q,Q
2023-03-15 21:31:39:164,0,-54.7924,1.87554,148.042,Q,Q
2023-03-15 21:31:39:174,0,-54.7895,1.87811,148.043,Q,Q
2023-03-15 21:31:39:183,0,-54.7899,1.87934,148.043,Q,Q
2023-03-15 21:31:39:194,0,-54.7917,1.87896,148.043,Q,Q
2023-03-15 21:31:39:204,0,-54.7947,1.87771,148.043,Q,Q
2023-03-15 21:31:39:214,0,-54.797,1.87933,148.041,Q,Q
2023-03-15 21:31:39:224,0,-54.7984,1.88026,148.039,Q,Q
2023-03-15 21:31:39:234,0,-54.8004,1.88031,148.04,Q,Q
2023-03-15 21:31:39:244,0,-54.8007,1.87773,148.038,Q,Q
2023-03-15 21:31:39:254,0,-54.8006,1.87669,148.038,Q,Q
2023-03-15 21:31:39:264,0,-54.8025,1.88006,148.037,Q,Q
2023-03-15 21:31:39:273,0,-54.8043,1.8769,148.035,Q,Q
2023-03-15 21:31:39:284,0,-54.8016,1.8754,148.035,Q,Q
2023-03-15 21:31:39:294,0,-54.7987,1.87436,148.035,Q,Q
2023-03-15 21:31:39:303,0,-54.8015,1.87197,148.035,Q,Q
2023-03-15 21:31:39:314,0,-54.8037,1.87102,148.032,Q,Q
2023-03-15 21:31:39:324,0,-54.8057,1.86831,148.028,Q,Q
2023-03-15 21:31:39:334,0,-54.8054,1.86643,148.03,Q,Q
2023-03-15 21:31:39:344,0,-54.8042,1.86666,148.027,Q,Q
2023-03-15 21:31:39:354,0,-54.8031,1.86309,148.027,Q,Q
2023-03-15 21:31:39:364,0,-54.8054,1.86233,148.024,Q,Q
2023-03-15 21:31:39:374,0,-54.8067,1.86121,148.027,Q,Q
2023-03-15 21:31:39:384,0,-54.8074,1.86002,148.029,Q,Q
2023-03-15 21:31:39:394,0,-54.8081,1.86112,148.028,Q,Q
2023-03-15 21:31:39:404,0,-54.8046,1.85872,148.025,Q,Q
2023-03-15 21:31:39:414,0,-54.8025,1.85881,148.029,Q,Q
2023-03-15 21:31:39:424,0,-54.801,1.86137,148.03,Q,Q
2023-03-15 21:31:39:434,0,-54.8,1.86011,148.029,Q,Q
2023-03-15 21:31:39:444,0,-54.7971,1.86089,148.028,Q,Q
2023-03-15 21:31:39:454,0,-54.7985,1.86067,148.027,Q,Q
2023-03-15 21:31:39:464,0,-54.7982,1.86455,148.028,Q,Q
2023-03-15 21:31:39:474,0,-54.7984,1.86461,148.028,Q,Q
2023-03-15 21:31:39:484,0,-54.7993,1.86403,148.027,Q,Q
2023-03-15 21:31:39:493,0,-54.8014,1.86131,148.028,Q,Q
2023-03-15 21:31:39:503,0,-54.7981,1.85987,148.026,Q,Q
2023-03-15 21:31:39:514,0,-54.799,1.85916,148.024,Q,Q
2023-03-15 21:31:39:524,0,-54.7983,1.85917,148.025,Q,Q
2023-03-15 21:31:39:534,0,-54.8034,1.86183,148.028,Q,Q
2023-03-15 21:31:39:543,0,-54.8015,1.86194,148.029,Q,Q
2023-03-15 21:31:39:554,0,-54.8021,1.86293,148.028,Q,Q
2023-03-15 21:31:39:564,0,-54.8029,1.85902,148.028,Q,Q
2023-03-15 21:31:39:574,0,-54.8023,1.85955,148.028,Q,Q
2023-03-15 21:31:39:584,0,-54.8056,1.8579,148.025,Q,Q
2023-03-15 21:31:39:594,0,-54.8082,1.8588,148.022,Q,Q
2023-03-15 21:31:39:604,0,-54.8073,1.85977,148.024,Q,Q
2023-03-15 21:31:39:614,0,-54.8061,1.86094,148.024,Q,Q
2023-03-15 21:31:39:624,0,-54.8054,1.86447,148.023,Q,Q
2023-03-15 21:31:39:634,0,-54.808,1.86311,148.022,Q,Q
2023-03-15 21:31:39:643,0,-54.8109,1.8623,148.022,Q,Q
2023-03-15 21:31:39:654,0,-54.8093,1.8625,148.025,Q,Q
2023-03-15 21:31:39:664,0,-54.8133,1.86115,148.023,Q,Q
2023-03-15 21:31:39:674,0,-54.8112,1.86243,148.022,Q,Q
2023-03-15 21:31:39:684,0,-54.8114,1.86371,148.021,Q,Q
2023-03-15 21:31:39:694,0,-54.8073,1.86248,148.02,Q,Q
2023-03-15 21:31:39:704,0,-54.8103,1.86358,148.024,Q,Q
2023-03-15 21:31:39:714,0,-54.8098,1.86314,148.025,Q,Q
2023-03-15 21:31:39:724,0,-54.8102,1.86184,148.025,Q,Q
2023-03-15 21:31:39:734,0,-54.8102,1.86219,148.025,Q,Q
2023-03-15 21:31:39:744,0,-54.8103,1.86118,148.026,Q,Q
2023-03-15 21:31:39:754,0,-54.8096,1.86464,148.023,Q,Q
2023-03-15 21:31:39:763,0,-54.8069,1.86411,148.025,Q,Q
2023-03-15 21:31:39:773,0,-54.8057,1.86406,148.026,Q,Q
2023-03-15 21:31:39:783,0,-54.8036,1.86481,148.027,Q,Q
2023-03-15 21:31:39:794,0,-54.8061,1.86531,148.026,Q,Q
2023-03-15 21:31:39:804,0,-54.8064,1.8666,148.025,Q,Q
2023-03-15 21:31:39:814,0,-54.8051,1.86892,148.024,Q,Q
2023-03-15 21:31:39:824,0,-54.8061,1.86829,148.025,Q,Q
2023-03-15 21:31:39:834,0,-54.8041,1.87234,148.028,Q,Q
2023-03-15 21:31:39:844,0,-54.8037,1.87359,148.03,Q,Q
2023-03-15 21:31:39:854,0,-54.8044,1.87629,148.029,Q,Q
2023-03-15 21:31:39:863,0,-54.8035,1.87553,148.028,Q,Q
2023-03-15 21:31:39:874,0,-54.8064,1.87775,148.027,Q,Q
2023-03-15 21:31:39:884,0,-54.806,1.87716,148.025,Q,Q
2023-03-15 21:31:39:894,0,-54.8091,1.87788,148.03,Q,Q
2023-03-15 21:31:39:904,0,-54.8097,1.88057,148.031,Q,Q
2023-03-15 21:31:39:914,0,-54.8101,1.8807,148.034,Q,Q
2023-03-15 21:31:39:924,0,-54.8093,1.88066,148.033,Q,Q
2023-03-15 21:31:39:934,0,-54.808,1.87875,148.033,Q,Q
2023-03-15 21:31:39:944,0,-54.8074,1.88055,148.032,Q,Q
2023-03-15 21:31:39:954,0,-54.807,1.87996,148.033,Q,Q
2023-03-15 21:31:39:964,0,-54.8077,1.88299,148.036,Q,Q
2023-03-15 21:31:39:974,0,-54.8041,1.88094,148.037,Q,Q
2023-03-15 21:31:39:984,0,-54.8059,1.87904,148.038,Q,Q
2023-03-15 21:31:39:994,0,-54.8038,1.88006,148.039,Q,Q
2023-03-15 21:31:40:3,0,-54.8027,1.88029,148.039,Q,Q
2023-03-15 21:31:40:14,0,-54.8084,1.88154,148.038,Q,Q
2023-03-15 21:31:40:24,0,-54.8106,1.88367,148.036,Q,Q
2023-03-15 21:31:40:34,0,-54.8104,1.88404,148.037,Q,Q
2023-03-15 21:31:40:44,0,-54.8083,1.88679,148.038,Q,Q
2023-03-15 21:31:40:54,0,-54.8093,1.88819,148.037,Q,Q
2023-03-15 21:31:40:64,0,-54.81,1.8859,148.035,Q,Q
2023-03-15 21:31:40:74,0,-54.8101,1.88512,148.038,Q,Q
2023-03-15 21:31:40:84,0,-54.8118,1.88617,148.04,Q,Q
2023-03-15 21:31:40:94,0,-54.8148,1.88666,148.039,Q,Q
2023-03-15 21:31:40:104,0,-54.8148,1.89002,148.038,Q,Q
2023-03-15 21:31:40:114,0,-54.8154,1.89006,148.039,Q,Q
2023-03-15 21:31:40:124,0,-54.8141,1.88952,148.037,Q,Q
2023-03-15 21:31:40:133,0,-54.8151,1.88637,148.037,Q,Q
2023-03-15 21:31:40:144,0,-54.8169,1.88503,148.034,Q,Q
2023-03-15 21:31:40:154,0,-54.8181,1.88697,148.032,Q,Q
2023-03-15 21:31:40:164,0,-54.8181,1.88652,148.031,Q,Q
2023-03-15 21:31:40:173,0,-54.8162,1.88487,148.03,Q,Q
2023-03-15 21:31:40:184,0,-54.8129,1.88309,148.03,Q,Q
2023-03-15 21:31:40:194,0,-54.8137,1.88157,148.028,Q,Q
2023-03-15 21:31:40:203,0,-54.815,1.88272,148.025,Q,Q
2023-03-15 21:31:40:214,0,-54.8152,1.88201,148.026,Q,Q
2023-03-15 21:31:40:224,0,-54.8152,1.87803,148.027,Q,Q
2023-03-15 21:31:40:234,0,-54.8158,1.88014,148.025,Q,Q
2023-03-15 21:31:40:244,0,-54.816,1.87597,148.024,Q,Q
2023-03-15 21:31:40:254,0,-54.815,1.87224,148.026,Q,Q
2023-03-15 21:31:40:264,0,-54.815,1.87387,148.028,Q,Q
2023-03-15 21:31:40:274,0,-54.813,1.87344,148.028,Q,Q
2023-03-15 21:31:40:283,0,-54.8141,1.87621,148.028,Q,Q
2023-03-15 21:31:40:293,0,-54.8112,1.87502,148.027,Q,Q
2023-03-15 21:31:40:303,0,-54.8089,1.87572,148.026,Q,Q
2023-03-15 21:31:40:314,0,-54.8093,1.8788,148.028,Q,Q
2023-03-15 21:31:40:324,0,-54.8101,1.87638,148.029,Q,Q
2023-03-15 21:31:40:334,0,-54.8071,1.87507,148.032,Q,Q
2023-03-15 21:31:40:343,0,-54.8061,1.87457,148.032,Q,Q
2023-03-15 21:31:40:354,0,-54.8066,1.87326,148.033,Q,Q
2023-03-15 21:31:40:364,0,-54.8024,1.87253,148.032,Q,Q
2023-03-15 21:31:40:374,0,-54.8029,1.87233,148.03,Q,Q
2023-03-15 21:31:40:384,0,-54.8013,1.86858,148.034,Q,Q
2023-03-15 21:31:40:394,0,-54.8015,1.86834,148.035,Q,Q
2023-03-15 21:31:40:404,0,-54.8043,1.86561,148.037,Q,Q
2023-03-15 21:31:40:414,0,-54.8028,1.86131,148.039,Q,Q
2023-03-15 21:31:40:424,0,-54.8023,1.86403,148.042,Q,Q
2023-03-15 21:31:40:433,0,-54.8018,1.86556,148.042,Q,Q
2023-03-15 21:31:40:444,0,-54.8035,1.86786,148.039,Q,Q
2023-03-15 21:31:40:454,0,-54.8054,1.87039,148.039,Q,Q
2023-03-15 21:31:40:464,0,-54.8067,1.87181,148.04,Q,Q
2023-03-15 21:31:40:474,0,-54.8055,1.87248,148.038,Q,Q
2023-03-15 21:31:40:483,0,-54.8082,1.87435,148.039,Q,Q
2023-03-15 21:31:40:493,0,-54.811,1.87546,148.038,Q,Q
2023-03-15 21:31:40:503,0,-54.8106,1.86849,148.039,Q,Q
2023-03-15 21:31:40:513,0,-54.8109,1.86654,148.041,Q,Q
2023-03-15 21:31:40:523,0,-54.8145,1.86826,148.042,Q,Q
2023-03-15 21:31:40:533,0,-54.8149,1.86899,148.046,Q,Q
2023-03-15 21:31:40:543,0,-54.8142,1.86816,148.048,Q,Q
2023-03-15 21:31:40:553,0,-54.815,1.8682,148.048,Q,Q
2023-03-15 21:31:40:563,0,-54.8171,1.86465,148.051,Q,Q
2023-03-15 21:31:40:574,0,-54.815,1.86454,148.054,Q,Q
2023-03-15 21:31:40:584,0,-54.8149,1.86468,148.054,Q,Q
2023-03-15 21:31:40:594,0,-54.8135,1.86622,148.054,Q,Q
2023-03-15 21:31:40:603,0,-54.8161,1.86468,148.054,Q,Q
2023-03-15 21:31:40:614,0,-54.8182,1.86307,148.056,Q,Q
2023-03-15 21:31:40:623,0,-54.8184,1.86594,148.055,Q,Q
2023-03-15 21:31:40:634,0,-54.8181,1.86572,148.055,Q,Q
2023-03-15 21:31:40:643,0,-54.8187,1.86795,148.054,Q,Q
2023-03-15 21:31:40:654,0,-54.818,1.86844,148.053,Q,Q
2023-03-15 21:31:40:663,0,-54.8162,1.86686,148.052,Q,Q
2023-03-15 21:31:40:674,0,-54.8185,1.86808,148.05,Q,Q
2023-03-15 21:31:40:683,0,-54.8236,1.86471,148.05,Q,Q
2023-03-15 21:31:40:694,0,-54.8211,1.86497,148.051,Q,Q
2023-03-15 21:31:40:703,0,-54.8212,1.86569,148.051,Q,Q
2023-03-15 21:31:40:714,0,-54.8203,1.86639,148.051,Q,Q
2023-03-15 21:31:40:723,0,-54.8189,1.86138,148.05,Q,Q
2023-03-15 21:31:40:734,0,-54.8221,1.86312,148.049,Q,Q
2023-03-15 21:31:40:743,0,-54.821,1.85956,148.046,Q,Q
2023-03-15 21:31:40:753,0,-54.8205,1.85822,148.045,Q,Q
2023-03-15 21:31:40:763,0,-54.8208,1.85622,148.046,Q,Q
2023-03-15 21:31:40:773,0,-54.8218,1.85667,148.049,Q,Q
2023-03-15 21:31:40:783,0,-54.8234,1.85693,148.046,Q,Q
2023-03-15 21:31:40:793,0,-54.8247,1.85581,148.045,Q,Q
2023-03-15 21:31:40:803,0,-54.8259,1.85679,148.044,Q,Q
2023-03-15 21:31:40:813,0,-54.8271,1.85682,148.045,Q,Q
2023-03-15 21:31:40:823,0,-54.8283,1.85802,148.048,Q,Q
2023-03-15 21:31:40:833,0,-54.8244,1.85867,148.05,Q,Q
2023-03-15 21:31:40:843,0,-54.8259,1.85918,148.049,Q,Q
2023-03-15 21:31:40:853,0,-54.8242,1.85701,148.05,Q,Q
2023-03-15 21:31:40:864,0,-54.8234,1.85739,148.055,Q,Q
2023-03-15 21:31:40:873,0,-54.8203,1.85776,148.057,Q,Q
2023-03-15 21:31:40:883,0,-54.8215,1.85884,148.057,Q,Q
2023-03-15 21:31:40:894,0,-54.8241,1.85916,148.06,Q,Q
2023-03-15 21:31:40:903,0,-54.8239,1.85896,148.06,Q,Q
2023-03-15 21:31:40:914,0,-54.8218,1.85968,148.057,Q,Q
2023-03-15 21:31:40:924,0,-54.8233,1.86144,148.056,Q,Q
2023-03-15 21:31:40:934,0,-54.8222,1.86205,148.054,Q,Q
2023-03-15 21:31:40:943,0,-54.8182,1.86126,148.056,Q,Q
2023-03-15 21:31:40:954,0,-54.8204,1.85892,148.058,Q,Q
2023-03-15 21:31:40:964,0,-54.8201,1.85893,148.056,Q,Q
2023-03-15 21:31:40:973,0,-54.8202,1.85585,148.057,Q,Q
2023-03-15 21:31:40:983,0,-54.8181,1.85552,148.054,Q,Q
2023-03-15 21:31:40:994,0,-54.8145,1.8553,148.051,Q,Q
2023-03-15 21:31:41:4,0,-54.8141,1.85685,148.052,Q,Q
2023-03-15 21:31:41:14,0,-54.8129,1.8563,148.051,Q,Q
2023-03-15 21:31:41:23,0,-54.8137,1.85936,148.051,Q,Q
2023-03-15 21:31:41:34,0,-54.8115,1.85778,148.052,Q,Q
2023-03-15 21:31:41:43,0,-54.8122,1.85671,148.059,Q,Q
2023-03-15 21:31:41:53,0,-54.8118,1.85636,148.056,Q,Q
2023-03-15 21:31:41:64,0,-54.8101,1.85504,148.056,Q,Q
2023-03-15 21:31:41:74,0,-54.8116,1.85451,148.057,Q,Q
2023-03-15 21:31:41:84,0,-54.8139,1.856,148.055,Q,Q
2023-03-15 21:31:41:93,0,-54.8178,1.85778,148.058,Q,Q
2023-03-15 21:31:41:103,0,-54.8178,1.8561,148.056,Q,Q
2023-03-15 21:31:41:114,0,-54.8167,1.85612,148.055,Q,Q
2023-03-15 21:31:41:123,0,-54.8207,1.85798,148.055,Q,Q
2023-03-15 21:31:41:134,0,-54.8214,1.85659,148.054,Q,Q
2023-03-15 21:31:41:143,0,-54.8241,1.85691,148.054,Q,Q
2023-03-15 21:31:41:154,0,-54.8225,1.85557,148.053,Q,Q
2023-03-15 21:31:41:163,0,-54.8197,1.85622,148.053,Q,Q
2023-03-15 21:31:41:174,0,-54.8211,1.85671,148.054,Q,Q
2023-03-15 21:31:41:184,0,-54.8228,1.85346,148.051,Q,Q
2023-03-15 21:31:41:194,0,-54.8247,1.85137,148.051,Q,Q
2023-03-15 21:31:41:203,0,-54.8262,1.85044,148.049,Q,Q
2023-03-15 21:31:41:214,0,-54.8264,1.84766,148.047,Q,Q
2023-03-15 21:31:41:224,0,-54.8306,1.84697,148.048,Q,Q
2023-03-15 21:31:41:234,0,-54.8299,1.8451,148.046,Q,Q
2023-03-15 21:31:41:243,0,-54.8294,1.84465,148.047,Q,Q
2023-03-15 21:31:41:254,0,-54.8315,1.84373,148.046,Q,Q
2023-03-15 21:31:41:263,0,-54.8286,1.84513,148.046,Q,Q
2023-03-15 21:31:41:274,0,-54.8295,1.84659,148.046,Q,Q
2023-03-15 21:31:41:283,0,-54.8309,1.84234,148.046,Q,Q
2023-03-15 21:31:41:294,0,-54.8324,1.84312,148.045,Q,Q
2023-03-15 21:31:41:303,0,-54.8312,1.84063,148.045,Q,Q
2023-03-15 21:31:41:313,0,-54.8308,1.83919,148.043,Q,Q
2023-03-15 21:31:41:323,0,-54.8317,1.84122,148.041,Q,Q
2023-03-15 21:31:41:333,0,-54.8312,1.84248,148.041,Q,Q
