Timestamp_cmd,imu_cmd,roll_delta,pitch_delta,yaw_delta,voice_type,voice_length
2023-03-15 11:04:31:743,0,-1.14207,-12.9658,-63.6555,Q,Q
2023-03-15 11:04:31:751,0,-1.13167,-12.9593,-63.6267,Q,Q
2023-03-15 11:04:31:761,0,-1.11836,-12.9538,-63.5988,Q,Q
2023-03-15 11:04:31:771,0,-1.10443,-12.9479,-63.5745,Q,Q
2023-03-15 11:04:31:781,0,-1.09354,-12.9383,-63.5501,Q,Q
2023-03-15 11:04:31:791,0,-1.0821,-12.9305,-63.5301,Q,Q
2023-03-15 11:04:31:801,0,-1.06966,-12.9189,-63.5079,Q,Q
2023-03-15 11:04:31:811,0,-1.06391,-12.9089,-63.4846,Q,Q
2023-03-15 11:04:31:821,0,-1.06131,-12.8992,-63.4601,Q,Q
2023-03-15 11:04:31:831,0,-1.05835,-12.8891,-63.4322,Q,Q
2023-03-15 11:04:31:841,0,-1.05393,-12.881,-63.411,Q,Q
2023-03-15 11:04:31:851,0,-1.05156,-12.8747,-63.3868,Q,Q
2023-03-15 11:04:31:861,0,-1.04847,-12.867,-63.3613,Q,Q
2023-03-15 11:04:31:871,0,-1.04272,-12.8551,-63.3425,Q,Q
2023-03-15 11:04:31:881,0,-1.03705,-12.849,-63.3269,Q,Q
2023-03-15 11:04:31:891,0,-1.02914,-12.8466,-63.3067,Q,Q
2023-03-15 11:04:31:901,0,-1.02337,-12.8432,-63.2884,Q,Q
2023-03-15 11:04:31:911,0,-1.01904,-12.8379,-63.2728,Q,Q
2023-03-15 11:04:31:921,0,-1.0152,-12.8343,-63.2599,Q,Q
2023-03-15 11:04:31:931,0,-1.01119,-12.8342,-63.2425,Q,Q
2023-03-15 11:04:31:941,0,-1.00729,-12.8344,-63.2306,Q,Q
2023-03-15 11:04:31:951,0,-1.00921,-12.8325,-63.2197,Q,Q
2023-03-15 11:04:31:961,0,-1.0075,-12.8306,-63.2093,Q,Q
2023-03-15 11:04:31:971,0,-1.00385,-12.8288,-63.2019,Q,Q
2023-03-15 11:04:31:981,0,-1.00245,-12.8254,-63.1978,Q,Q
2023-03-15 11:04:31:991,0,-1.00457,-12.8226,-63.1943,Q,Q
2023-03-15 11:04:32:1,0,-1.0073,-12.8175,-63.1932,Q,Q
2023-03-15 11:04:32:11,0,-1.01065,-12.8114,-63.192,Q,Q
2023-03-15 11:04:32:21,0,-1.01237,-12.8077,-63.1897,Q,Q
2023-03-15 11:04:32:31,0,-1.0142,-12.8078,-63.1838,Q,Q
2023-03-15 11:04:32:41,0,-1.01923,-12.808,-63.1775,Q,Q
2023-03-15 11:04:32:51,0,-1.02364,-12.8063,-63.1708,Q,Q
2023-03-15 11:04:32:61,0,-1.03238,-12.8028,-63.1566,Q,Q
2023-03-15 11:04:32:71,0,-1.04087,-12.8028,-63.1369,Q,Q
2023-03-15 11:04:32:81,0,-1.05196,-12.7963,-63.1075,Q,Q
2023-03-15 11:04:32:91,0,-1.06635,-12.7881,-63.0676,Q,Q
2023-03-15 11:04:32:101,0,-1.08361,-12.7769,-63.0201,Q,Q
2023-03-15 11:04:32:111,0,-1.10126,-12.7645,-62.9606,Q,Q
2023-03-15 11:04:32:121,0,-1.12239,-12.7481,-62.8867,Q,Q
2023-03-15 11:04:32:131,0,-1.14504,-12.7303,-62.7962,Q,Q
2023-03-15 11:04:32:141,0,-1.17181,-12.7114,-62.6894,Q,Q
2023-03-15 11:04:32:151,0,-1.1983,-12.6893,-62.5643,Q,Q
2023-03-15 11:04:32:161,0,-1.23143,-12.6615,-62.4244,Q,Q
2023-03-15 11:04:32:171,0,-1.27339,-12.6285,-62.2659,Q,Q
2023-03-15 11:04:32:181,0,-1.31771,-12.5952,-62.0939,Q,Q
2023-03-15 11:04:32:191,0,-1.36654,-12.5666,-61.9015,Q,Q
2023-03-15 11:04:32:201,0,-1.42233,-12.536,-61.6952,Q,Q
2023-03-15 11:04:32:211,0,-1.47822,-12.4984,-61.4799,Q,Q
2023-03-15 11:04:32:221,0,-1.54075,-12.4605,-61.2507,Q,Q
2023-03-15 11:04:32:231,0,-1.60557,-12.4234,-61.0128,Q,Q
2023-03-15 11:04:32:241,0,-1.67159,-12.3803,-60.7612,Q,Q
2023-03-15 11:04:32:251,0,-1.7399,-12.338,-60.4948,Q,Q
2023-03-15 11:04:32:261,0,-1.80794,-12.2991,-60.2143,Q,Q
2023-03-15 11:04:32:271,0,-1.87736,-12.2592,-59.9152,Q,Q
2023-03-15 11:04:32:281,0,-1.95029,-12.2229,-59.607,Q,Q
2023-03-15 11:04:32:291,0,-2.02259,-12.1896,-59.2905,Q,Q
2023-03-15 11:04:32:301,0,-2.09818,-12.158,-58.9598,Q,Q
2023-03-15 11:04:32:311,0,-2.17056,-12.1217,-58.6243,Q,Q
2023-03-15 11:04:32:321,0,-2.24038,-12.0883,-58.2822,Q,Q
2023-03-15 11:04:32:331,0,-2.30471,-12.058,-57.9318,Q,Q
2023-03-15 11:04:32:341,0,-2.36523,-12.0259,-57.5721,Q,Q
2023-03-15 11:04:32:351,0,-2.42333,-11.9937,-57.2119,Q,Q
2023-03-15 11:04:32:361,0,-2.48056,-11.9636,-56.8432,Q,Q
2023-03-15 11:04:32:370,0,-2.54295,-11.9312,-56.4673,Q,Q
2023-03-15 11:04:32:381,0,-2.60638,-11.9011,-56.0846,Q,Q
2023-03-15 11:04:32:391,0,-2.67937,-11.8685,-55.6909,Q,Q
2023-03-15 11:04:32:401,0,-2.75278,-11.8379,-55.2831,Q,Q
2023-03-15 11:04:32:411,0,-2.82543,-11.8137,-54.8679,Q,Q
2023-03-15 11:04:32:421,0,-2.89661,-11.7917,-54.4389,Q,Q
2023-03-15 11:04:32:431,0,-2.96066,-11.7746,-54.0015,Q,Q
2023-03-15 11:04:32:441,0,-3.01551,-11.758,-53.5656,Q,Q
2023-03-15 11:04:32:451,0,-3.06514,-11.7412,-53.1216,Q,Q
2023-03-15 11:04:32:461,0,-3.11506,-11.7194,-52.6782,Q,Q
2023-03-15 11:04:32:471,0,-3.16305,-11.6873,-52.2422,Q,Q
2023-03-15 11:04:32:481,0,-3.20733,-11.6493,-51.8072,Q,Q
2023-03-15 11:04:32:491,0,-3.25263,-11.6063,-51.3779,Q,Q
2023-03-15 11:04:32:501,0,-3.29961,-11.5611,-50.9479,Q,Q
2023-03-15 11:04:32:511,0,-3.34762,-11.5148,-50.5238,Q,Q
2023-03-15 11:04:32:521,0,-3.39448,-11.4715,-50.1094,Q,Q
2023-03-15 11:04:32:531,0,-3.44054,-11.422,-49.707,Q,Q
2023-03-15 11:04:32:541,0,-3.48043,-11.3791,-49.3106,Q,Q
2023-03-15 11:04:32:551,0,-3.51542,-11.344,-48.9252,Q,Q
2023-03-15 11:04:32:561,0,-3.54748,-11.3136,-48.5578,Q,Q
2023-03-15 11:04:32:571,0,-3.57851,-11.2889,-48.2076,Q,Q
2023-03-15 11:04:32:581,0,-3.60435,-11.2698,-47.8733,Q,Q
2023-03-15 11:04:32:591,0,-3.63261,-11.2509,-47.554,Q,Q
2023-03-15 11:04:32:601,0,-3.66176,-11.2337,-47.2512,Q,Q
2023-03-15 11:04:32:611,0,-3.69233,-11.2181,-46.9655,Q,Q
2023-03-15 11:04:32:621,0,-3.72567,-11.2039,-46.6967,Q,Q
2023-03-15 11:04:32:631,0,-3.76077,-11.1925,-46.448,Q,Q
2023-03-15 11:04:32:641,0,-3.80277,-11.1805,-46.2167,Q,Q
2023-03-15 11:04:32:651,0,-3.84546,-11.1686,-46.0052,Q,Q
2023-03-15 11:04:32:661,0,-3.89037,-11.1539,-45.8025,Q,Q
2023-03-15 11:04:32:671,0,-3.93487,-11.141,-45.6142,Q,Q
2023-03-15 11:04:32:681,0,-3.97697,-11.1335,-45.4286,Q,Q
2023-03-15 11:04:32:691,0,-4.01476,-11.1281,-45.2565,Q,Q
2023-03-15 11:04:32:701,0,-4.05476,-11.1244,-45.0925,Q,Q
2023-03-15 11:04:32:711,0,-4.09452,-11.1203,-44.9359,Q,Q
2023-03-15 11:04:32:721,0,-4.13169,-11.1169,-44.783,Q,Q
2023-03-15 11:04:32:731,0,-4.16205,-11.116,-44.6379,Q,Q
2023-03-15 11:04:32:741,0,-4.19176,-11.1193,-44.496,Q,Q
2023-03-15 11:04:32:751,0,-4.2167,-11.117,-44.3553,Q,Q
2023-03-15 11:04:32:761,0,-4.234,-11.1145,-44.2198,Q,Q
2023-03-15 11:04:32:771,0,-4.24945,-11.1079,-44.0861,Q,Q
2023-03-15 11:04:32:781,0,-4.26419,-11.0963,-43.9592,Q,Q
2023-03-15 11:04:32:791,0,-4.27267,-11.0873,-43.8323,Q,Q
2023-03-15 11:04:32:801,0,-4.28443,-11.078,-43.7082,Q,Q
2023-03-15 11:04:32:811,0,-4.29351,-11.0665,-43.591,Q,Q
2023-03-15 11:04:32:821,0,-4.29854,-11.0539,-43.4769,Q,Q
2023-03-15 11:04:32:831,0,-4.30031,-11.0447,-43.3708,Q,Q
2023-03-15 11:04:32:841,0,-4.29602,-11.0394,-43.2706,Q,Q
2023-03-15 11:04:32:851,0,-4.2911,-11.0358,-43.1754,Q,Q
2023-03-15 11:04:32:861,0,-4.2858,-11.0298,-43.0905,Q,Q
2023-03-15 11:04:32:871,0,-4.28512,-11.0272,-43.0109,Q,Q
2023-03-15 11:04:32:881,0,-4.28296,-11.0282,-42.9392,Q,Q
2023-03-15 11:04:32:891,0,-4.27554,-11.0273,-42.8733,Q,Q
2023-03-15 11:04:32:901,0,-4.27182,-11.0274,-42.8176,Q,Q
2023-03-15 11:04:32:911,0,-4.26643,-11.0313,-42.7726,Q,Q
2023-03-15 11:04:32:921,0,-4.2563,-11.0339,-42.7384,Q,Q
2023-03-15 11:04:32:931,0,-4.24595,-11.0382,-42.7109,Q,Q
2023-03-15 11:04:32:941,0,-4.23631,-11.0489,-42.6925,Q,Q
2023-03-15 11:04:32:951,0,-4.22173,-11.0578,-42.6733,Q,Q
2023-03-15 11:04:32:961,0,-4.20823,-11.0622,-42.6617,Q,Q
2023-03-15 11:04:32:971,0,-4.19447,-11.0668,-42.6529,Q,Q
2023-03-15 11:04:32:981,0,-4.18459,-11.0688,-42.643,Q,Q
2023-03-15 11:04:32:991,0,-4.17687,-11.0716,-42.6372,Q,Q
2023-03-15 11:04:33:1,0,-4.17049,-11.0747,-42.6323,Q,Q
2023-03-15 11:04:33:11,0,-4.15931,-11.0729,-42.6316,Q,Q
2023-03-15 11:04:33:21,0,-4.14888,-11.0742,-42.6365,Q,Q
2023-03-15 11:04:33:31,0,-4.1344,-11.0735,-42.6385,Q,Q
2023-03-15 11:04:33:41,0,-4.12008,-11.0756,-42.6405,Q,Q
2023-03-15 11:04:33:51,0,-4.10305,-11.0739,-42.6467,Q,Q
2023-03-15 11:04:33:61,0,-4.08469,-11.0722,-42.6547,Q,Q
2023-03-15 11:04:33:71,0,-4.06433,-11.068,-42.6638,Q,Q
2023-03-15 11:04:33:81,0,-4.03818,-11.0591,-42.6695,Q,Q
2023-03-15 11:04:33:91,0,-4.01443,-11.0467,-42.6738,Q,Q
2023-03-15 11:04:33:101,0,-3.98678,-11.0337,-42.6771,Q,Q
2023-03-15 11:04:33:111,0,-3.95908,-11.0238,-42.6778,Q,Q
2023-03-15 11:04:33:121,0,-3.93011,-11.0111,-42.6767,Q,Q
2023-03-15 11:04:33:131,0,-3.90023,-10.9937,-42.672,Q,Q
2023-03-15 11:04:33:141,0,-3.8672,-10.9703,-42.6652,Q,Q
2023-03-15 11:04:33:151,0,-3.83045,-10.943,-42.6549,Q,Q
2023-03-15 11:04:33:161,0,-3.79167,-10.9196,-42.6401,Q,Q
2023-03-15 11:04:33:171,0,-3.75979,-10.8991,-42.6209,Q,Q
2023-03-15 11:04:33:181,0,-3.73213,-10.8812,-42.6002,Q,Q
2023-03-15 11:04:33:191,0,-3.71234,-10.863,-42.5786,Q,Q
2023-03-15 11:04:33:201,0,-3.69208,-10.8509,-42.5536,Q,Q
2023-03-15 11:04:33:211,0,-3.67666,-10.8438,-42.5216,Q,Q
2023-03-15 11:04:33:221,0,-3.66312,-10.8371,-42.4898,Q,Q
2023-03-15 11:04:33:231,0,-3.65104,-10.8247,-42.4597,Q,Q
2023-03-15 11:04:33:241,0,-3.63864,-10.8125,-42.429,Q,Q
2023-03-15 11:04:33:251,0,-3.6254,-10.7981,-42.3983,Q,Q
2023-03-15 11:04:33:261,0,-3.60586,-10.7639,-42.3664,Q,Q
2023-03-15 11:04:33:271,0,-3.57441,-10.737,-42.3349,Q,Q
2023-03-15 11:04:33:281,0,-3.53947,-10.716,-42.2993,Q,Q
2023-03-15 11:04:33:291,0,-3.5099,-10.7018,-42.2652,Q,Q
2023-03-15 11:04:33:301,0,-3.48037,-10.6945,-42.2319,Q,Q
2023-03-15 11:04:33:311,0,-3.45569,-10.6917,-42.203,Q,Q
2023-03-15 11:04:33:321,0,-3.43293,-10.6856,-42.1702,Q,Q
2023-03-15 11:04:33:331,0,-3.41331,-10.6807,-42.1441,Q,Q
2023-03-15 11:04:33:341,0,-3.39346,-10.6701,-42.1195,Q,Q
2023-03-15 11:04:33:351,0,-3.37391,-10.6598,-42.0947,Q,Q
2023-03-15 11:04:33:361,0,-3.35295,-10.6413,-42.0669,Q,Q
2023-03-15 11:04:33:371,0,-3.32724,-10.6202,-42.031,Q,Q
2023-03-15 11:04:33:381,0,-3.29199,-10.6121,-41.9924,Q,Q
2023-03-15 11:04:33:391,0,-3.26033,-10.621,-41.9546,Q,Q
2023-03-15 11:04:33:401,0,-3.24447,-10.6411,-41.9188,Q,Q
2023-03-15 11:04:33:411,0,-3.23418,-10.6521,-41.8874,Q,Q
2023-03-15 11:04:33:421,0,-3.22193,-10.6585,-41.8583,Q,Q
2023-03-15 11:04:33:431,0,-3.20663,-10.659,-41.828,Q,Q
2023-03-15 11:04:33:441,0,-3.19354,-10.6651,-41.7974,Q,Q
2023-03-15 11:04:33:451,0,-3.1837,-10.6665,-41.7633,Q,Q
2023-03-15 11:04:33:461,0,-3.17287,-10.6677,-41.7311,Q,Q
2023-03-15 11:04:33:471,0,-3.16278,-10.6682,-41.7024,Q,Q
2023-03-15 11:04:33:481,0,-3.15512,-10.6664,-41.6674,Q,Q
2023-03-15 11:04:33:491,0,-3.14949,-10.6642,-41.6326,Q,Q
2023-03-15 11:04:33:501,0,-3.14302,-10.6632,-41.6003,Q,Q
2023-03-15 11:04:33:511,0,-3.14063,-10.6619,-41.5647,Q,Q
2023-03-15 11:04:33:521,0,-3.13375,-10.6652,-41.5272,Q,Q
2023-03-15 11:04:33:531,0,-3.13272,-10.6678,-41.4924,Q,Q
2023-03-15 11:04:33:541,0,-3.13135,-10.6692,-41.4528,Q,Q
2023-03-15 11:04:33:551,0,-3.13162,-10.667,-41.4154,Q,Q
2023-03-15 11:04:33:561,0,-3.13418,-10.6657,-41.3754,Q,Q
2023-03-15 11:04:33:571,0,-3.13787,-10.669,-41.3355,Q,Q
2023-03-15 11:04:33:581,0,-3.14437,-10.6719,-41.2971,Q,Q
2023-03-15 11:04:33:591,0,-3.15001,-10.6766,-41.2556,Q,Q
2023-03-15 11:04:33:601,0,-3.15858,-10.6768,-41.2174,Q,Q
2023-03-15 11:04:33:611,0,-3.16368,-10.6731,-41.1826,Q,Q
2023-03-15 11:04:33:621,0,-3.16464,-10.6673,-41.1452,Q,Q
2023-03-15 11:04:33:631,0,-3.16682,-10.6659,-41.1046,Q,Q
2023-03-15 11:04:33:641,0,-3.16852,-10.6679,-41.0616,Q,Q
2023-03-15 11:04:33:651,0,-3.16903,-10.6663,-41.0154,Q,Q
2023-03-15 11:04:33:661,0,-3.1735,-10.6606,-40.9737,Q,Q
2023-03-15 11:04:33:671,0,-3.17896,-10.6572,-40.938,Q,Q
2023-03-15 11:04:33:681,0,-3.18528,-10.6497,-40.9037,Q,Q
2023-03-15 11:04:33:691,0,-3.18871,-10.6428,-40.8728,Q,Q
2023-03-15 11:04:33:701,0,-3.18982,-10.6296,-40.8446,Q,Q
2023-03-15 11:04:33:711,0,-3.19385,-10.6214,-40.8198,Q,Q
2023-03-15 11:04:33:721,0,-3.19447,-10.6168,-40.7936,Q,Q
2023-03-15 11:04:33:731,0,-3.19842,-10.6106,-40.7676,Q,Q
2023-03-15 11:04:33:741,0,-3.20129,-10.6089,-40.7443,Q,Q
2023-03-15 11:04:33:751,0,-3.2094,-10.6075,-40.7209,Q,Q
2023-03-15 11:04:33:761,0,-3.21756,-10.6056,-40.6945,Q,Q
2023-03-15 11:04:33:771,0,-3.22572,-10.6082,-40.6703,Q,Q
2023-03-15 11:04:33:781,0,-3.23903,-10.6111,-40.6479,Q,Q
2023-03-15 11:04:33:791,0,-3.25146,-10.6123,-40.627,Q,Q
2023-03-15 11:04:33:801,0,-3.26177,-10.6148,-40.6053,Q,Q
2023-03-15 11:04:33:811,0,-3.27542,-10.6146,-40.5824,Q,Q
2023-03-15 11:04:33:821,0,-3.29303,-10.6168,-40.5551,Q,Q
2023-03-15 11:04:33:831,0,-3.31157,-10.6187,-40.5281,Q,Q
2023-03-15 11:04:33:841,0,-3.33022,-10.621,-40.5012,Q,Q
2023-03-15 11:04:33:851,0,-3.34711,-10.6189,-40.4781,Q,Q
2023-03-15 11:04:33:861,0,-3.36476,-10.6173,-40.4512,Q,Q
2023-03-15 11:04:33:871,0,-3.38354,-10.6115,-40.4231,Q,Q
2023-03-15 11:04:33:881,0,-3.40288,-10.6064,-40.3945,Q,Q
2023-03-15 11:04:33:891,0,-3.42497,-10.5974,-40.363,Q,Q
2023-03-15 11:04:33:901,0,-3.44326,-10.5893,-40.327,Q,Q
2023-03-15 11:04:33:911,0,-3.45812,-10.5813,-40.2926,Q,Q
2023-03-15 11:04:33:921,0,-3.47535,-10.5725,-40.2584,Q,Q
2023-03-15 11:04:33:931,0,-3.49341,-10.5654,-40.2245,Q,Q
2023-03-15 11:04:33:941,0,-3.51061,-10.5565,-40.1917,Q,Q
2023-03-15 11:04:33:951,0,-3.52745,-10.5499,-40.1561,Q,Q
2023-03-15 11:04:33:961,0,-3.54093,-10.546,-40.1245,Q,Q
2023-03-15 11:04:33:971,0,-3.55328,-10.5464,-40.0925,Q,Q
2023-03-15 11:04:33:981,0,-3.566,-10.5427,-40.0593,Q,Q
2023-03-15 11:04:33:991,0,-3.57534,-10.5409,-40.026,Q,Q
2023-03-15 11:04:34:1,0,-3.58472,-10.5423,-39.9919,Q,Q
2023-03-15 11:04:34:11,0,-3.58809,-10.5435,-39.9607,Q,Q
2023-03-15 11:04:34:21,0,-3.5904,-10.5419,-39.9261,Q,Q
2023-03-15 11:04:34:31,0,-3.59276,-10.5411,-39.8906,Q,Q
2023-03-15 11:04:34:41,0,-3.59285,-10.5408,-39.8488,Q,Q
2023-03-15 11:04:34:51,0,-3.59465,-10.5407,-39.8073,Q,Q
2023-03-15 11:04:34:61,0,-3.59687,-10.543,-39.7692,Q,Q
2023-03-15 11:04:34:71,0,-3.60007,-10.5441,-39.7263,Q,Q
2023-03-15 11:04:34:81,0,-3.60578,-10.5429,-39.6857,Q,Q
2023-03-15 11:04:34:91,0,-3.60769,-10.5436,-39.6434,Q,Q
2023-03-15 11:04:34:101,0,-3.60793,-10.5435,-39.5979,Q,Q
2023-03-15 11:04:34:111,0,-3.60757,-10.5449,-39.552,Q,Q
2023-03-15 11:04:34:121,0,-3.60849,-10.5456,-39.5034,Q,Q
2023-03-15 11:04:34:131,0,-3.61063,-10.5468,-39.4573,Q,Q
2023-03-15 11:04:34:141,0,-3.61215,-10.5522,-39.4072,Q,Q
2023-03-15 11:04:34:151,0,-3.61166,-10.5568,-39.3598,Q,Q
2023-03-15 11:04:34:161,0,-3.6122,-10.5603,-39.3079,Q,Q
2023-03-15 11:04:34:171,0,-3.61102,-10.5666,-39.2583,Q,Q
2023-03-15 11:04:34:181,0,-3.61296,-10.573,-39.2064,Q,Q
2023-03-15 11:04:34:191,0,-3.61185,-10.5804,-39.1543,Q,Q
2023-03-15 11:04:34:201,0,-3.61381,-10.586,-39.0971,Q,Q
2023-03-15 11:04:34:211,0,-3.61391,-10.594,-39.0411,Q,Q
2023-03-15 11:04:34:221,0,-3.61321,-10.6039,-38.9892,Q,Q
2023-03-15 11:04:34:231,0,-3.61133,-10.611,-38.9304,Q,Q
2023-03-15 11:04:34:241,0,-3.61257,-10.613,-38.8706,Q,Q
2023-03-15 11:04:34:251,0,-3.61215,-10.6095,-38.8078,Q,Q
2023-03-15 11:04:34:260,0,-3.61322,-10.6063,-38.7366,Q,Q
2023-03-15 11:04:34:271,0,-3.60596,-10.6021,-38.66,Q,Q
2023-03-15 11:04:34:281,0,-3.60291,-10.5977,-38.5761,Q,Q
2023-03-15 11:04:34:291,0,-3.60258,-10.5987,-38.4808,Q,Q
2023-03-15 11:04:34:301,0,-3.601,-10.6031,-38.3806,Q,Q
2023-03-15 11:04:34:311,0,-3.59923,-10.6064,-38.2847,Q,Q
2023-03-15 11:04:34:321,0,-3.59603,-10.6055,-38.1842,Q,Q
2023-03-15 11:04:34:331,0,-3.59751,-10.6022,-38.0859,Q,Q
2023-03-15 11:04:34:341,0,-3.59925,-10.5958,-37.9906,Q,Q
2023-03-15 11:04:34:351,0,-3.60107,-10.5878,-37.8948,Q,Q
2023-03-15 11:04:34:361,0,-3.60309,-10.5748,-37.7939,Q,Q
2023-03-15 11:04:34:371,0,-3.60515,-10.5577,-37.688,Q,Q
2023-03-15 11:04:34:381,0,-3.60716,-10.545,-37.5735,Q,Q
2023-03-15 11:04:34:391,0,-3.60838,-10.5288,-37.4555,Q,Q
2023-03-15 11:04:34:401,0,-3.61445,-10.5098,-37.3312,Q,Q
2023-03-15 11:04:34:411,0,-3.62284,-10.4933,-37.198,Q,Q
2023-03-15 11:04:34:421,0,-3.6351,-10.4716,-37.0594,Q,Q
2023-03-15 11:04:34:431,0,-3.64746,-10.4495,-36.9163,Q,Q
2023-03-15 11:04:34:441,0,-3.66247,-10.4294,-36.7674,Q,Q
2023-03-15 11:04:34:451,0,-3.68423,-10.4128,-36.6088,Q,Q
2023-03-15 11:04:34:461,0,-3.7094,-10.396,-36.4432,Q,Q
2023-03-15 11:04:34:471,0,-3.73545,-10.3768,-36.2739,Q,Q
2023-03-15 11:04:34:481,0,-3.76504,-10.3598,-36.0978,Q,Q
2023-03-15 11:04:34:491,0,-3.80025,-10.3362,-35.9118,Q,Q
2023-03-15 11:04:34:501,0,-3.8298,-10.311,-35.7233,Q,Q
2023-03-15 11:04:34:511,0,-3.86151,-10.2889,-35.5278,Q,Q
2023-03-15 11:04:34:521,0,-3.89117,-10.2612,-35.3298,Q,Q
2023-03-15 11:04:34:531,0,-3.92003,-10.236,-35.1283,Q,Q
2023-03-15 11:04:34:541,0,-3.95088,-10.2156,-34.9231,Q,Q
2023-03-15 11:04:34:551,0,-3.98563,-10.1927,-34.7095,Q,Q
2023-03-15 11:04:34:561,0,-4.02013,-10.173,-34.489,Q,Q
2023-03-15 11:04:34:571,0,-4.05819,-10.1558,-34.2658,Q,Q
2023-03-15 11:04:34:581,0,-4.09077,-10.1377,-34.0306,Q,Q
2023-03-15 11:04:34:591,0,-4.12685,-10.116,-33.7931,Q,Q
2023-03-15 11:04:34:601,0,-4.16253,-10.0896,-33.5545,Q,Q
2023-03-15 11:04:34:611,0,-4.19474,-10.0612,-33.3145,Q,Q
2023-03-15 11:04:34:621,0,-4.22583,-10.0297,-33.0703,Q,Q
2023-03-15 11:04:34:631,0,-4.25448,-10.002,-32.8233,Q,Q
2023-03-15 11:04:34:641,0,-4.28034,-9.97217,-32.5723,Q,Q
2023-03-15 11:04:34:651,0,-4.30483,-9.9465,-32.3157,Q,Q
2023-03-15 11:04:34:661,0,-4.33204,-9.92005,-32.0528,Q,Q
2023-03-15 11:04:34:671,0,-4.35859,-9.89665,-31.7897,Q,Q
2023-03-15 11:04:34:681,0,-4.38542,-9.87877,-31.5241,Q,Q
2023-03-15 11:04:34:691,0,-4.41604,-9.86321,-31.252,Q,Q
2023-03-15 11:04:34:701,0,-4.44868,-9.85136,-30.9777,Q,Q
2023-03-15 11:04:34:711,0,-4.48087,-9.84272,-30.7034,Q,Q
2023-03-15 11:04:34:721,0,-4.51601,-9.83879,-30.4323,Q,Q
2023-03-15 11:04:34:731,0,-4.54936,-9.83304,-30.162,Q,Q
2023-03-15 11:04:34:741,0,-4.58582,-9.83,-29.8995,Q,Q
2023-03-15 11:04:34:751,0,-4.61891,-9.82408,-29.6421,Q,Q
2023-03-15 11:04:34:761,0,-4.64619,-9.81424,-29.3893,Q,Q
2023-03-15 11:04:34:771,0,-4.66403,-9.80621,-29.1393,Q,Q
2023-03-15 11:04:34:781,0,-4.68143,-9.80116,-28.894,Q,Q
2023-03-15 11:04:34:791,0,-4.69705,-9.79463,-28.654,Q,Q
2023-03-15 11:04:34:801,0,-4.71081,-9.78968,-28.4246,Q,Q
2023-03-15 11:04:34:811,0,-4.72297,-9.7841,-28.2035,Q,Q
2023-03-15 11:04:34:821,0,-4.73652,-9.77684,-27.9892,Q,Q
2023-03-15 11:04:34:831,0,-4.75553,-9.77293,-27.7816,Q,Q
2023-03-15 11:04:34:841,0,-4.77678,-9.76981,-27.5847,Q,Q
2023-03-15 11:04:34:851,0,-4.79537,-9.76966,-27.3958,Q,Q
2023-03-15 11:04:34:861,0,-4.81673,-9.77293,-27.2112,Q,Q
2023-03-15 11:04:34:871,0,-4.83765,-9.77914,-27.0331,Q,Q
2023-03-15 11:04:34:881,0,-4.85621,-9.79019,-26.8582,Q,Q
2023-03-15 11:04:34:891,0,-4.87714,-9.7993,-26.692,Q,Q
2023-03-15 11:04:34:901,0,-4.89317,-9.80814,-26.5285,Q,Q
2023-03-15 11:04:34:911,0,-4.90858,-9.81841,-26.3708,Q,Q
2023-03-15 11:04:34:921,0,-4.92709,-9.82651,-26.2164,Q,Q
2023-03-15 11:04:34:931,0,-4.94141,-9.83493,-26.0687,Q,Q
2023-03-15 11:04:34:941,0,-4.95511,-9.84502,-25.9227,Q,Q
2023-03-15 11:04:34:951,0,-4.966,-9.85334,-25.7827,Q,Q
2023-03-15 11:04:34:961,0,-4.97687,-9.86204,-25.6483,Q,Q
2023-03-15 11:04:34:971,0,-4.98538,-9.87077,-25.5229,Q,Q
2023-03-15 11:04:34:981,0,-4.99013,-9.88117,-25.4003,Q,Q
2023-03-15 11:04:34:991,0,-4.99306,-9.88578,-25.293,Q,Q
2023-03-15 11:04:35:1,0,-4.99099,-9.89469,-25.1871,Q,Q
2023-03-15 11:04:35:11,0,-4.98756,-9.90383,-25.0888,Q,Q
2023-03-15 11:04:35:21,0,-4.9812,-9.91618,-24.9984,Q,Q
2023-03-15 11:04:35:31,0,-4.97513,-9.92821,-24.919,Q,Q
2023-03-15 11:04:35:41,0,-4.97252,-9.94054,-24.8381,Q,Q
2023-03-15 11:04:35:51,0,-4.96844,-9.95407,-24.7705,Q,Q
2023-03-15 11:04:35:61,0,-4.96396,-9.96936,-24.7032,Q,Q
2023-03-15 11:04:35:71,0,-4.96181,-9.99076,-24.6344,Q,Q
2023-03-15 11:04:35:81,0,-4.96085,-10.0219,-24.5679,Q,Q
2023-03-15 11:04:35:91,0,-4.96337,-10.0475,-24.5031,Q,Q
2023-03-15 11:04:35:101,0,-4.96428,-10.0718,-24.4365,Q,Q
2023-03-15 11:04:35:111,0,-4.96094,-10.0846,-24.3692,Q,Q
2023-03-15 11:04:35:121,0,-4.9537,-10.0962,-24.301,Q,Q
2023-03-15 11:04:35:131,0,-4.94753,-10.1049,-24.2311,Q,Q
2023-03-15 11:04:35:141,0,-4.93961,-10.1137,-24.1605,Q,Q
2023-03-15 11:04:35:151,0,-4.93523,-10.1187,-24.0918,Q,Q
2023-03-15 11:04:35:161,0,-4.92774,-10.1204,-24.0208,Q,Q
2023-03-15 11:04:35:171,0,-4.91943,-10.1193,-23.9479,Q,Q
2023-03-15 11:04:35:181,0,-4.91077,-10.1177,-23.8762,Q,Q
2023-03-15 11:04:35:191,0,-4.89926,-10.1119,-23.8053,Q,Q
2023-03-15 11:04:35:201,0,-4.88667,-10.1083,-23.7276,Q,Q
2023-03-15 11:04:35:211,0,-4.87569,-10.1119,-23.6427,Q,Q
2023-03-15 11:04:35:221,0,-4.86623,-10.1163,-23.5507,Q,Q
2023-03-15 11:04:35:231,0,-4.85497,-10.1246,-23.4499,Q,Q
2023-03-15 11:04:35:241,0,-4.84639,-10.1329,-23.3494,Q,Q
2023-03-15 11:04:35:251,0,-4.84083,-10.1379,-23.2428,Q,Q
2023-03-15 11:04:35:261,0,-4.83956,-10.142,-23.1323,Q,Q
2023-03-15 11:04:35:271,0,-4.84232,-10.1361,-23.023,Q,Q
2023-03-15 11:04:35:281,0,-4.84448,-10.1279,-22.916,Q,Q
2023-03-15 11:04:35:291,0,-4.84117,-10.1115,-22.8007,Q,Q
2023-03-15 11:04:35:301,0,-4.83524,-10.0905,-22.6814,Q,Q
2023-03-15 11:04:35:311,0,-4.82898,-10.0688,-22.5533,Q,Q
2023-03-15 11:04:35:321,0,-4.81825,-10.0497,-22.422,Q,Q
2023-03-15 11:04:35:331,0,-4.81022,-10.028,-22.2853,Q,Q
2023-03-15 11:04:35:341,0,-4.80498,-10.0068,-22.1442,Q,Q
2023-03-15 11:04:35:351,0,-4.79937,-9.98227,-22.0006,Q,Q
2023-03-15 11:04:35:361,0,-4.79633,-9.9551,-21.8541,Q,Q
2023-03-15 11:04:35:371,0,-4.79264,-9.93175,-21.71,Q,Q
2023-03-15 11:04:35:381,0,-4.78966,-9.90673,-21.5629,Q,Q
2023-03-15 11:04:35:391,0,-4.78983,-9.88112,-21.423,Q,Q
2023-03-15 11:04:35:401,0,-4.78862,-9.8593,-21.2854,Q,Q
2023-03-15 11:04:35:411,0,-4.78428,-9.84008,-21.1532,Q,Q
2023-03-15 11:04:35:421,0,-4.78432,-9.82801,-21.0235,Q,Q
2023-03-15 11:04:35:431,0,-4.78057,-9.81293,-20.899,Q,Q
2023-03-15 11:04:35:441,0,-4.78362,-9.7991,-20.7827,Q,Q
2023-03-15 11:04:35:451,0,-4.78297,-9.78886,-20.671,Q,Q
2023-03-15 11:04:35:461,0,-4.77972,-9.77834,-20.5679,Q,Q
2023-03-15 11:04:35:471,0,-4.7752,-9.77508,-20.468,Q,Q
2023-03-15 11:04:35:481,0,-4.77641,-9.77127,-20.3746,Q,Q
2023-03-15 11:04:35:491,0,-4.77448,-9.77315,-20.2908,Q,Q
2023-03-15 11:04:35:501,0,-4.77288,-9.77799,-20.2168,Q,Q
2023-03-15 11:04:35:511,0,-4.76702,-9.78166,-20.1532,Q,Q
2023-03-15 11:04:35:521,0,-4.76265,-9.78951,-20.0978,Q,Q
2023-03-15 11:04:35:531,0,-4.7556,-9.79926,-20.0507,Q,Q
2023-03-15 11:04:35:541,0,-4.74659,-9.80807,-20.0106,Q,Q
2023-03-15 11:04:35:551,0,-4.7352,-9.8203,-19.9712,Q,Q
2023-03-15 11:04:35:561,0,-4.72658,-9.8333,-19.932,Q,Q
2023-03-15 11:04:35:571,0,-4.71626,-9.84796,-19.8894,Q,Q
2023-03-15 11:04:35:581,0,-4.715,-9.8619,-19.8494,Q,Q
2023-03-15 11:04:35:591,0,-4.71224,-9.87306,-19.8101,Q,Q
2023-03-15 11:04:35:601,0,-4.71055,-9.88518,-19.7657,Q,Q
2023-03-15 11:04:35:611,0,-4.71163,-9.89475,-19.7202,Q,Q
2023-03-15 11:04:35:621,0,-4.71157,-9.905,-19.6764,Q,Q
2023-03-15 11:04:35:631,0,-4.71356,-9.91257,-19.6306,Q,Q
2023-03-15 11:04:35:641,0,-4.71,-9.92073,-19.5777,Q,Q
2023-03-15 11:04:35:651,0,-4.70893,-9.92861,-19.5238,Q,Q
2023-03-15 11:04:35:661,0,-4.70552,-9.93768,-19.4703,Q,Q
2023-03-15 11:04:35:671,0,-4.70323,-9.94208,-19.4105,Q,Q
2023-03-15 11:04:35:681,0,-4.70358,-9.94684,-19.351,Q,Q
2023-03-15 11:04:35:691,0,-4.70697,-9.94925,-19.2891,Q,Q
2023-03-15 11:04:35:701,0,-4.71206,-9.95071,-19.2266,Q,Q
2023-03-15 11:04:35:711,0,-4.7191,-9.94926,-19.1635,Q,Q
2023-03-15 11:04:35:721,0,-4.72992,-9.94884,-19.1027,Q,Q
2023-03-15 11:04:35:731,0,-4.74169,-9.94668,-19.0472,Q,Q
2023-03-15 11:04:35:741,0,-4.75456,-9.94302,-18.9897,Q,Q
2023-03-15 11:04:35:751,0,-4.76638,-9.93843,-18.9349,Q,Q
2023-03-15 11:04:35:761,0,-4.78236,-9.93434,-18.8839,Q,Q
2023-03-15 11:04:35:771,0,-4.79455,-9.92999,-18.8341,Q,Q
2023-03-15 11:04:35:781,0,-4.80688,-9.92691,-18.7887,Q,Q
2023-03-15 11:04:35:791,0,-4.81737,-9.9264,-18.7429,Q,Q
2023-03-15 11:04:35:800,0,-4.82469,-9.92759,-18.698,Q,Q
2023-03-15 11:04:35:811,0,-4.83477,-9.93037,-18.65,Q,Q
2023-03-15 11:04:35:821,0,-4.84135,-9.93528,-18.6062,Q,Q
2023-03-15 11:04:35:831,0,-4.84915,-9.93624,-18.5563,Q,Q
2023-03-15 11:04:35:841,0,-4.85609,-9.93151,-18.5006,Q,Q
2023-03-15 11:04:35:851,0,-4.85667,-9.92271,-18.4291,Q,Q
2023-03-15 11:04:35:861,0,-4.86272,-9.91253,-18.3388,Q,Q
2023-03-15 11:04:35:871,0,-4.87529,-9.88781,-18.2332,Q,Q
2023-03-15 11:04:35:881,0,-4.88775,-9.84594,-18.1091,Q,Q
2023-03-15 11:04:35:891,0,-4.89727,-9.79346,-17.9733,Q,Q
2023-03-15 11:04:35:901,0,-4.90137,-9.74402,-17.8286,Q,Q
2023-03-15 11:04:35:911,0,-4.91286,-9.69686,-17.6817,Q,Q
2023-03-15 11:04:35:921,0,-4.92252,-9.6503,-17.5334,Q,Q
2023-03-15 11:04:35:931,0,-4.93101,-9.60201,-17.3867,Q,Q
2023-03-15 11:04:35:941,0,-4.93339,-9.55956,-17.2453,Q,Q
2023-03-15 11:04:35:951,0,-4.93497,-9.52014,-17.1107,Q,Q
2023-03-15 11:04:35:961,0,-4.93806,-9.48694,-16.9853,Q,Q
2023-03-15 11:04:35:971,0,-4.93729,-9.46114,-16.8684,Q,Q
2023-03-15 11:04:35:981,0,-4.93437,-9.4397,-16.7616,Q,Q
2023-03-15 11:04:35:991,0,-4.93003,-9.42233,-16.6663,Q,Q
2023-03-15 11:04:36:1,0,-4.92651,-9.40961,-16.5814,Q,Q
2023-03-15 11:04:36:11,0,-4.91902,-9.39935,-16.5046,Q,Q
2023-03-15 11:04:36:21,0,-4.90446,-9.39988,-16.4365,Q,Q
2023-03-15 11:04:36:31,0,-4.89171,-9.39865,-16.3748,Q,Q
2023-03-15 11:04:36:41,0,-4.88148,-9.39821,-16.3205,Q,Q
2023-03-15 11:04:36:51,0,-4.86948,-9.40025,-16.2743,Q,Q
2023-03-15 11:04:36:61,0,-4.85419,-9.39924,-16.2325,Q,Q
2023-03-15 11:04:36:71,0,-4.83442,-9.40571,-16.2019,Q,Q
2023-03-15 11:04:36:81,0,-4.80371,-9.41471,-16.1758,Q,Q
2023-03-15 11:04:36:91,0,-4.75979,-9.42255,-16.15,Q,Q
2023-03-15 11:04:36:101,0,-4.70282,-9.43504,-16.1318,Q,Q
2023-03-15 11:04:36:111,0,-4.63237,-9.45163,-16.1178,Q,Q
2023-03-15 11:04:36:121,0,-4.54904,-9.46077,-16.1055,Q,Q
2023-03-15 11:04:36:131,0,-4.44496,-9.46321,-16.0925,Q,Q
2023-03-15 11:04:36:141,0,-4.3242,-9.46246,-16.0741,Q,Q
2023-03-15 11:04:36:151,0,-4.19064,-9.46509,-16.0523,Q,Q
2023-03-15 11:04:36:161,0,-4.0439,-9.47721,-16.0306,Q,Q
2023-03-15 11:04:36:171,0,-3.88881,-9.48861,-16.0143,Q,Q
2023-03-15 11:04:36:181,0,-3.7386,-9.50632,-15.9995,Q,Q
2023-03-15 11:04:36:191,0,-3.58685,-9.52862,-15.9884,Q,Q
2023-03-15 11:04:36:201,0,-3.43337,-9.55177,-15.9861,Q,Q
2023-03-15 11:04:36:211,0,-3.26838,-9.5722,-15.9839,Q,Q
2023-03-15 11:04:36:221,0,-3.10539,-9.59303,-15.982,Q,Q
2023-03-15 11:04:36:231,0,-2.94356,-9.60781,-15.9814,Q,Q
2023-03-15 11:04:36:241,0,-2.78748,-9.61469,-15.9834,Q,Q
2023-03-15 11:04:36:251,0,-2.63847,-9.62158,-15.9883,Q,Q
2023-03-15 11:04:36:261,0,-2.49671,-9.62819,-15.9931,Q,Q
2023-03-15 11:04:36:271,0,-2.36194,-9.63384,-15.9976,Q,Q
2023-03-15 11:04:36:281,0,-2.24344,-9.64567,-15.9951,Q,Q
2023-03-15 11:04:36:291,0,-2.13462,-9.65654,-15.9926,Q,Q
2023-03-15 11:04:36:301,0,-2.03316,-9.65686,-15.9879,Q,Q
2023-03-15 11:04:36:311,0,-1.9348,-9.65272,-15.9789,Q,Q
2023-03-15 11:04:36:321,0,-1.83791,-9.63947,-15.9651,Q,Q
2023-03-15 11:04:36:331,0,-1.74088,-9.62235,-15.9435,Q,Q
2023-03-15 11:04:36:341,0,-1.64261,-9.60256,-15.924,Q,Q
2023-03-15 11:04:36:351,0,-1.54716,-9.57664,-15.8989,Q,Q
2023-03-15 11:04:36:361,0,-1.45663,-9.55266,-15.8843,Q,Q
2023-03-15 11:04:36:371,0,-1.35547,-9.52976,-15.8738,Q,Q
2023-03-15 11:04:36:381,0,-1.23931,-9.50355,-15.8683,Q,Q
2023-03-15 11:04:36:391,0,-1.10351,-9.48206,-15.8674,Q,Q
2023-03-15 11:04:36:401,0,-0.960802,-9.4588,-15.8654,Q,Q
2023-03-15 11:04:36:411,0,-0.811163,-9.43807,-15.8659,Q,Q
2023-03-15 11:04:36:421,0,-0.651241,-9.42407,-15.8733,Q,Q
2023-03-15 11:04:36:431,0,-0.489975,-9.40998,-15.8845,Q,Q
2023-03-15 11:04:36:441,0,-0.330001,-9.39471,-15.8994,Q,Q
2023-03-15 11:04:36:451,0,-0.170516,-9.37865,-15.9203,Q,Q
2023-03-15 11:04:36:461,0,-0.00519153,-9.36022,-15.9511,Q,Q
2023-03-15 11:04:36:471,0,0.166348,-9.34465,-15.9923,Q,Q
2023-03-15 11:04:36:481,0,0.353741,-9.32482,-16.0333,Q,Q
2023-03-15 11:04:36:491,0,0.55592,-9.30739,-16.0745,Q,Q
2023-03-15 11:04:36:501,0,0.760591,-9.28884,-16.118,Q,Q
2023-03-15 11:04:36:511,0,0.97392,-9.26326,-16.1597,Q,Q
2023-03-15 11:04:36:521,0,1.18994,-9.23337,-16.1962,Q,Q
2023-03-15 11:04:36:531,0,1.40959,-9.20372,-16.2261,Q,Q
2023-03-15 11:04:36:541,0,1.6237,-9.17365,-16.2508,Q,Q
2023-03-15 11:04:36:551,0,1.83583,-9.14566,-16.273,Q,Q
2023-03-15 11:04:36:561,0,2.03656,-9.11957,-16.2894,Q,Q
2023-03-15 11:04:36:571,0,2.23615,-9.09793,-16.2973,Q,Q
2023-03-15 11:04:36:581,0,2.4332,-9.07704,-16.2981,Q,Q
2023-03-15 11:04:36:591,0,2.63003,-9.04732,-16.2969,Q,Q
2023-03-15 11:04:36:601,0,2.82888,-9.01331,-16.2882,Q,Q
2023-03-15 11:04:36:611,0,3.01582,-8.97165,-16.2727,Q,Q
2023-03-15 11:04:36:621,0,3.19748,-8.93176,-16.2504,Q,Q
2023-03-15 11:04:36:631,0,3.36571,-8.89104,-16.2249,Q,Q
2023-03-15 11:04:36:641,0,3.5169,-8.84694,-16.1981,Q,Q
2023-03-15 11:04:36:651,0,3.65797,-8.80239,-16.166,Q,Q
2023-03-15 11:04:36:661,0,3.78548,-8.76616,-16.133,Q,Q
2023-03-15 11:04:36:671,0,3.89723,-8.7466,-16.1039,Q,Q
2023-03-15 11:04:36:681,0,3.98959,-8.72533,-16.0752,Q,Q
2023-03-15 11:04:36:691,0,4.06628,-8.67318,-16.0485,Q,Q
2023-03-15 11:04:36:701,0,4.15079,-8.6118,-16.0267,Q,Q
2023-03-15 11:04:36:711,0,4.24087,-8.55315,-16.0081,Q,Q
2023-03-15 11:04:36:721,0,4.33466,-8.50858,-15.993,Q,Q
2023-03-15 11:04:36:731,0,4.42398,-8.47567,-15.982,Q,Q
2023-03-15 11:04:36:741,0,4.51553,-8.44777,-15.9746,Q,Q
2023-03-15 11:04:36:751,0,4.61171,-8.42764,-15.9736,Q,Q
2023-03-15 11:04:36:761,0,4.70761,-8.41054,-15.9726,Q,Q
2023-03-15 11:04:36:771,0,4.80025,-8.38908,-15.9726,Q,Q
2023-03-15 11:04:36:781,0,4.89378,-8.37132,-15.9715,Q,Q
2023-03-15 11:04:36:791,0,4.98195,-8.35403,-15.9718,Q,Q
2023-03-15 11:04:36:801,0,5.06536,-8.32869,-15.9731,Q,Q
2023-03-15 11:04:36:811,0,5.14402,-8.30968,-15.9777,Q,Q
2023-03-15 11:04:36:821,0,5.21091,-8.29525,-15.9884,Q,Q
2023-03-15 11:04:36:831,0,5.27344,-8.28454,-16.0036,Q,Q
2023-03-15 11:04:36:841,0,5.33093,-8.27757,-16.0238,Q,Q
2023-03-15 11:04:36:851,0,5.38759,-8.27571,-16.0429,Q,Q
2023-03-15 11:04:36:861,0,5.43886,-8.26924,-16.0613,Q,Q
2023-03-15 11:04:36:871,0,5.48715,-8.25963,-16.0755,Q,Q
2023-03-15 11:04:36:881,0,5.53844,-8.25631,-16.0866,Q,Q
2023-03-15 11:04:36:891,0,5.58726,-8.2514,-16.0958,Q,Q
2023-03-15 11:04:36:901,0,5.62328,-8.25052,-16.1025,Q,Q
2023-03-15 11:04:36:911,0,5.65091,-8.257,-16.1075,Q,Q
2023-03-15 11:04:36:921,0,5.6752,-8.26061,-16.1029,Q,Q
2023-03-15 11:04:36:931,0,5.69019,-8.26741,-16.1012,Q,Q
2023-03-15 11:04:36:941,0,5.70084,-8.27466,-16.0962,Q,Q
2023-03-15 11:04:36:951,0,5.71473,-8.28352,-16.0855,Q,Q
2023-03-15 11:04:36:961,0,5.73289,-8.29184,-16.0736,Q,Q
2023-03-15 11:04:36:971,0,5.75437,-8.29978,-16.0575,Q,Q
2023-03-15 11:04:36:981,0,5.77376,-8.29334,-16.033,Q,Q
2023-03-15 11:04:36:991,0,5.79801,-8.27298,-16.005,Q,Q
2023-03-15 11:04:37:1,0,5.83171,-8.25918,-15.9754,Q,Q
2023-03-15 11:04:37:11,0,5.86418,-8.25748,-15.9368,Q,Q
2023-03-15 11:04:37:21,0,5.88988,-8.26726,-15.8895,Q,Q
2023-03-15 11:04:37:31,0,5.90515,-8.28659,-15.835,Q,Q
2023-03-15 11:04:37:41,0,5.91856,-8.30804,-15.7734,Q,Q
2023-03-15 11:04:37:51,0,5.93474,-8.32824,-15.7133,Q,Q
2023-03-15 11:04:37:61,0,5.95252,-8.34945,-15.6528,Q,Q
2023-03-15 11:04:37:71,0,5.96899,-8.35225,-15.5914,Q,Q
2023-03-15 11:04:37:81,0,5.99603,-8.34004,-15.5308,Q,Q
2023-03-15 11:04:37:91,0,6.03647,-8.32892,-15.4698,Q,Q
2023-03-15 11:04:37:101,0,6.07332,-8.32533,-15.4077,Q,Q
2023-03-15 11:04:37:111,0,6.11049,-8.32933,-15.3486,Q,Q
2023-03-15 11:04:37:121,0,6.14873,-8.33859,-15.2873,Q,Q
2023-03-15 11:04:37:131,0,6.18777,-8.34663,-15.2295,Q,Q
2023-03-15 11:04:37:141,0,6.22495,-8.35252,-15.1684,Q,Q
2023-03-15 11:04:37:151,0,6.26149,-8.35392,-15.1082,Q,Q
2023-03-15 11:04:37:161,0,6.28628,-8.35545,-15.048,Q,Q
2023-03-15 11:04:37:171,0,6.29218,-8.35019,-14.9916,Q,Q
2023-03-15 11:04:37:181,0,6.28572,-8.34292,-14.9339,Q,Q
2023-03-15 11:04:37:191,0,6.26862,-8.34752,-14.8804,Q,Q
2023-03-15 11:04:37:201,0,6.24268,-8.36165,-14.8304,Q,Q
2023-03-15 11:04:37:211,0,6.21303,-8.37006,-14.7771,Q,Q
2023-03-15 11:04:37:221,0,6.20214,-8.3876,-14.7247,Q,Q
2023-03-15 11:04:37:231,0,6.2024,-8.41786,-14.6672,Q,Q
2023-03-15 11:04:37:241,0,6.21351,-8.46015,-14.6041,Q,Q
2023-03-15 11:04:37:251,0,6.22461,-8.50827,-14.541,Q,Q
2023-03-15 11:04:37:261,0,6.24456,-8.56058,-14.4746,Q,Q
2023-03-15 11:04:37:271,0,6.26608,-8.6139,-14.4099,Q,Q
2023-03-15 11:04:37:281,0,6.28845,-8.66774,-14.342,Q,Q
2023-03-15 11:04:37:291,0,6.2995,-8.7255,-14.2767,Q,Q
2023-03-15 11:04:37:301,0,6.30256,-8.78607,-14.21,Q,Q
2023-03-15 11:04:37:311,0,6.30065,-8.85209,-14.1379,Q,Q
2023-03-15 11:04:37:321,0,6.29752,-8.93219,-14.0634,Q,Q
2023-03-15 11:04:37:331,0,6.29944,-9.03844,-13.9831,Q,Q
2023-03-15 11:04:37:341,0,6.31978,-9.16795,-13.8934,Q,Q
2023-03-15 11:04:37:351,0,6.36193,-9.31521,-13.794,Q,Q
2023-03-15 11:04:37:361,0,6.41993,-9.47648,-13.688,Q,Q
2023-03-15 11:04:37:371,0,6.49642,-9.64533,-13.5788,Q,Q
2023-03-15 11:04:37:381,0,6.58699,-9.80439,-13.4623,Q,Q
2023-03-15 11:04:37:391,0,6.68442,-9.94916,-13.3438,Q,Q
2023-03-15 11:04:37:401,0,6.77895,-10.0648,-13.2177,Q,Q
2023-03-15 11:04:37:411,0,6.87314,-10.1589,-13.0995,Q,Q
2023-03-15 11:04:37:421,0,6.96422,-10.243,-12.9806,Q,Q
2023-03-15 11:04:37:431,0,7.04323,-10.3098,-12.8538,Q,Q
2023-03-15 11:04:37:441,0,7.11912,-10.3686,-12.7302,Q,Q
2023-03-15 11:04:37:451,0,7.19459,-10.4154,-12.6051,Q,Q
2023-03-15 11:04:37:461,0,7.27335,-10.4411,-12.4809,Q,Q
2023-03-15 11:04:37:471,0,7.35429,-10.4579,-12.3513,Q,Q
2023-03-15 11:04:37:481,0,7.42596,-10.4452,-12.2169,Q,Q
2023-03-15 11:04:37:491,0,7.48234,-10.4249,-12.0715,Q,Q
2023-03-15 11:04:37:501,0,7.52033,-10.3919,-11.9227,Q,Q
2023-03-15 11:04:37:511,0,7.5254,-10.355,-11.7722,Q,Q
2023-03-15 11:04:37:521,0,7.50604,-10.3049,-11.6291,Q,Q
2023-03-15 11:04:37:531,0,7.47177,-10.2336,-11.5025,Q,Q
2023-03-15 11:04:37:541,0,7.44208,-10.1395,-11.3873,Q,Q
2023-03-15 11:04:37:551,0,7.42748,-10.0236,-11.2859,Q,Q
2023-03-15 11:04:37:561,0,7.43112,-9.89178,-11.1838,Q,Q
2023-03-15 11:04:37:571,0,7.45636,-9.73454,-11.0848,Q,Q
2023-03-15 11:04:37:581,0,7.50404,-9.56113,-10.981,Q,Q
2023-03-15 11:04:37:591,0,7.55534,-9.36704,-10.8728,Q,Q
2023-03-15 11:04:37:601,0,7.59976,-9.16117,-10.7583,Q,Q
2023-03-15 11:04:37:611,0,7.62923,-8.95863,-10.6439,Q,Q
2023-03-15 11:04:37:621,0,7.64047,-8.75179,-10.5217,Q,Q
2023-03-15 11:04:37:631,0,7.61969,-8.5464,-10.4016,Q,Q
2023-03-15 11:04:37:641,0,7.56961,-8.35798,-10.2827,Q,Q
2023-03-15 11:04:37:651,0,7.50989,-8.17673,-10.1757,Q,Q
2023-03-15 11:04:37:661,0,7.44261,-7.99777,-10.0792,Q,Q
2023-03-15 11:04:37:671,0,7.38296,-7.81383,-10.0009,Q,Q
2023-03-15 11:04:37:681,0,7.32656,-7.6275,-9.93984,Q,Q
2023-03-15 11:04:37:691,0,7.27421,-7.4372,-9.89793,Q,Q
2023-03-15 11:04:37:701,0,7.22857,-7.24582,-9.87398,Q,Q
2023-03-15 11:04:37:711,0,7.1824,-7.04531,-9.85944,Q,Q
2023-03-15 11:04:37:721,0,7.13721,-6.83714,-9.85444,Q,Q
2023-03-15 11:04:37:731,0,7.09331,-6.63625,-9.85611,Q,Q
2023-03-15 11:04:37:741,0,7.04254,-6.44982,-9.86375,Q,Q
2023-03-15 11:04:37:751,0,6.98972,-6.27488,-9.86849,Q,Q
2023-03-15 11:04:37:761,0,6.94054,-6.12265,-9.8745,Q,Q
2023-03-15 11:04:37:771,0,6.89428,-5.97986,-9.88209,Q,Q
2023-03-15 11:04:37:781,0,6.85486,-5.84411,-9.88929,Q,Q
2023-03-15 11:04:37:791,0,6.8311,-5.71498,-9.8961,Q,Q
2023-03-15 11:04:37:801,0,6.81667,-5.59601,-9.90401,Q,Q
2023-03-15 11:04:37:811,0,6.80725,-5.48757,-9.90831,Q,Q
2023-03-15 11:04:37:821,0,6.80761,-5.39194,-9.90166,Q,Q
2023-03-15 11:04:37:831,0,6.82495,-5.30587,-9.8811,Q,Q
2023-03-15 11:04:37:841,0,6.85034,-5.22133,-9.84229,Q,Q
2023-03-15 11:04:37:851,0,6.87223,-5.13688,-9.78893,Q,Q
2023-03-15 11:04:37:861,0,6.8677,-5.0472,-9.7226,Q,Q
2023-03-15 11:04:37:870,0,6.82481,-4.95202,-9.65391,Q,Q
2023-03-15 11:04:37:881,0,6.74729,-4.86309,-9.58532,Q,Q
2023-03-15 11:04:37:891,0,6.63119,-4.77989,-9.50959,Q,Q
2023-03-15 11:04:37:901,0,6.48097,-4.71926,-9.42494,Q,Q
2023-03-15 11:04:37:911,0,6.3089,-4.70006,-9.34014,Q,Q
2023-03-15 11:04:37:921,0,6.11773,-4.71914,-9.24833,Q,Q
2023-03-15 11:04:37:931,0,5.91396,-4.77515,-9.1518,Q,Q
2023-03-15 11:04:37:941,0,5.70584,-4.84862,-9.05584,Q,Q
2023-03-15 11:04:37:951,0,5.49426,-4.92863,-8.96675,Q,Q
2023-03-15 11:04:37:961,0,5.28476,-5.00917,-8.88518,Q,Q
2023-03-15 11:04:37:971,0,5.07825,-5.08969,-8.80542,Q,Q
2023-03-15 11:04:37:981,0,4.86852,-5.16943,-8.72481,Q,Q
2023-03-15 11:04:37:991,0,4.6587,-5.23511,-8.64761,Q,Q
2023-03-15 11:04:38:1,0,4.45057,-5.31485,-8.57338,Q,Q
2023-03-15 11:04:38:11,0,4.23368,-5.40628,-8.50186,Q,Q
2023-03-15 11:04:38:21,0,4.0137,-5.50792,-8.42938,Q,Q
2023-03-15 11:04:38:31,0,3.79997,-5.61259,-8.36219,Q,Q
2023-03-15 11:04:38:41,0,3.59898,-5.73183,-8.28957,Q,Q
2023-03-15 11:04:38:51,0,3.41122,-5.86268,-8.21867,Q,Q
2023-03-15 11:04:38:61,0,3.23862,-5.9974,-8.1473,Q,Q
2023-03-15 11:04:38:71,0,3.08185,-6.12839,-8.07726,Q,Q
2023-03-15 11:04:38:81,0,2.93401,-6.25416,-8.00121,Q,Q
2023-03-15 11:04:38:91,0,2.79702,-6.38593,-7.92591,Q,Q
2023-03-15 11:04:38:101,0,2.66451,-6.51826,-7.84174,Q,Q
2023-03-15 11:04:38:111,0,2.53551,-6.65011,-7.75166,Q,Q
2023-03-15 11:04:38:121,0,2.40981,-6.78025,-7.66852,Q,Q
2023-03-15 11:04:38:131,0,2.28297,-6.90734,-7.58902,Q,Q
2023-03-15 11:04:38:141,0,2.16555,-7.02832,-7.51044,Q,Q
2023-03-15 11:04:38:151,0,2.05842,-7.14037,-7.43095,Q,Q
2023-03-15 11:04:38:161,0,1.96292,-7.25141,-7.36216,Q,Q
2023-03-15 11:04:38:171,0,1.88561,-7.34905,-7.29937,Q,Q
2023-03-15 11:04:38:181,0,1.81815,-7.43526,-7.24278,Q,Q
2023-03-15 11:04:38:191,0,1.75995,-7.50499,-7.18743,Q,Q
2023-03-15 11:04:38:201,0,1.71729,-7.56575,-7.13769,Q,Q
2023-03-15 11:04:38:211,0,1.68193,-7.62252,-7.09253,Q,Q
2023-03-15 11:04:38:221,0,1.65218,-7.67708,-7.05589,Q,Q
2023-03-15 11:04:38:231,0,1.62221,-7.72014,-7.03005,Q,Q
2023-03-15 11:04:38:241,0,1.58877,-7.74515,-7.01701,Q,Q
2023-03-15 11:04:38:251,0,1.55068,-7.75723,-7.01854,Q,Q
2023-03-15 11:04:38:261,0,1.50885,-7.75304,-7.03176,Q,Q
2023-03-15 11:04:38:271,0,1.45564,-7.74793,-7.04851,Q,Q
2023-03-15 11:04:38:281,0,1.39004,-7.74071,-7.07753,Q,Q
2023-03-15 11:04:38:291,0,1.31547,-7.74197,-7.10267,Q,Q
2023-03-15 11:04:38:301,0,1.23222,-7.74661,-7.12835,Q,Q
2023-03-15 11:04:38:311,0,1.14446,-7.75136,-7.1572,Q,Q
2023-03-15 11:04:38:321,0,1.05416,-7.75387,-7.18871,Q,Q
2023-03-15 11:04:38:331,0,0.962175,-7.75921,-7.22316,Q,Q
2023-03-15 11:04:38:341,0,0.856316,-7.76508,-7.25936,Q,Q
2023-03-15 11:04:38:350,0,0.741458,-7.7637,-7.30504,Q,Q
2023-03-15 11:04:38:360,0,0.622866,-7.76152,-7.36511,Q,Q
2023-03-15 11:04:38:370,0,0.504381,-7.75518,-7.43209,Q,Q
2023-03-15 11:04:38:381,0,0.39286,-7.74652,-7.50774,Q,Q
2023-03-15 11:04:38:391,0,0.292978,-7.72674,-7.58522,Q,Q
2023-03-15 11:04:38:401,0,0.205222,-7.6934,-7.67011,Q,Q
2023-03-15 11:04:38:411,0,0.135974,-7.65614,-7.75941,Q,Q
2023-03-15 11:04:38:421,0,0.0837193,-7.61871,-7.84739,Q,Q
2023-03-15 11:04:38:431,0,0.0375623,-7.58269,-7.93258,Q,Q
2023-03-15 11:04:38:441,0,-0.00682806,-7.54748,-8.01471,Q,Q
2023-03-15 11:04:38:451,0,-0.0392152,-7.51314,-8.09555,Q,Q
2023-03-15 11:04:38:461,0,-0.0691618,-7.47714,-8.17176,Q,Q
2023-03-15 11:04:38:471,0,-0.0917507,-7.44137,-8.24587,Q,Q
2023-03-15 11:04:38:481,0,-0.108988,-7.40145,-8.32356,Q,Q
2023-03-15 11:04:38:491,0,-0.120191,-7.34904,-8.39755,Q,Q
2023-03-15 11:04:38:501,0,-0.12282,-7.28926,-8.47196,Q,Q
2023-03-15 11:04:38:511,0,-0.122767,-7.22655,-8.54437,Q,Q
2023-03-15 11:04:38:521,0,-0.11759,-7.16179,-8.61451,Q,Q
2023-03-15 11:04:38:531,0,-0.10288,-7.09992,-8.67984,Q,Q
2023-03-15 11:04:38:541,0,-0.0845417,-7.04807,-8.73998,Q,Q
2023-03-15 11:04:38:551,0,-0.0709736,-7.00152,-8.79648,Q,Q
2023-03-15 11:04:38:561,0,-0.0656658,-6.95984,-8.84122,Q,Q
2023-03-15 11:04:38:571,0,-0.0761774,-6.91961,-8.88718,Q,Q
2023-03-15 11:04:38:581,0,-0.0974969,-6.87972,-8.93549,Q,Q
2023-03-15 11:04:38:591,0,-0.136159,-6.84034,-8.98341,Q,Q
2023-03-15 11:04:38:601,0,-0.182433,-6.79944,-9.04076,Q,Q
2023-03-15 11:04:38:611,0,-0.227249,-6.76341,-9.1004,Q,Q
2023-03-15 11:04:38:620,0,-0.270238,-6.71833,-9.17033,Q,Q
2023-03-15 11:04:38:631,0,-0.304162,-6.66639,-9.24409,Q,Q
2023-03-15 11:04:38:640,0,-0.330294,-6.60827,-9.31926,Q,Q
2023-03-15 11:04:38:650,0,-0.358222,-6.54128,-9.39791,Q,Q
2023-03-15 11:04:38:661,0,-0.391377,-6.45857,-9.47351,Q,Q
2023-03-15 11:04:38:671,0,-0.426128,-6.37369,-9.54936,Q,Q
2023-03-15 11:04:38:681,0,-0.457357,-6.3087,-9.62345,Q,Q
2023-03-15 11:04:38:691,0,-0.492052,-6.25484,-9.68928,Q,Q
2023-03-15 11:04:38:701,0,-0.521386,-6.19879,-9.75078,Q,Q
2023-03-15 11:04:38:711,0,-0.546847,-6.14991,-9.80407,Q,Q
2023-03-15 11:04:38:721,0,-0.560908,-6.10984,-9.85323,Q,Q
2023-03-15 11:04:38:731,0,-0.564406,-6.06722,-9.89626,Q,Q
2023-03-15 11:04:38:741,0,-0.559771,-6.01757,-9.93237,Q,Q
2023-03-15 11:04:38:751,0,-0.540896,-5.96216,-9.96866,Q,Q
2023-03-15 11:04:38:761,0,-0.512721,-5.90479,-10.0001,Q,Q
2023-03-15 11:04:38:771,0,-0.478361,-5.84413,-10.0188,Q,Q
2023-03-15 11:04:38:780,0,-0.444784,-5.78019,-10.0301,Q,Q
2023-03-15 11:04:38:790,0,-0.405661,-5.71908,-10.0363,Q,Q
2023-03-15 11:04:38:800,0,-0.37854,-5.65783,-10.033,Q,Q
2023-03-15 11:04:38:810,0,-0.358609,-5.59908,-10.026,Q,Q
2023-03-15 11:04:38:821,0,-0.347072,-5.54144,-10.0109,Q,Q
2023-03-15 11:04:38:831,0,-0.339033,-5.47356,-9.98844,Q,Q
2023-03-15 11:04:38:841,0,-0.323388,-5.40469,-9.95493,Q,Q
2023-03-15 11:04:38:851,0,-0.306514,-5.3266,-9.9196,Q,Q
2023-03-15 11:04:38:860,0,-0.280762,-5.23713,-9.88075,Q,Q
2023-03-15 11:04:38:870,0,-0.238687,-5.13801,-9.83204,Q,Q
2023-03-15 11:04:38:880,0,-0.18712,-5.03428,-9.77985,Q,Q
2023-03-15 11:04:38:891,0,-0.1319,-4.92839,-9.71813,Q,Q
2023-03-15 11:04:38:901,0,-0.0788983,-4.82121,-9.65657,Q,Q
2023-03-15 11:04:38:911,0,-0.0273638,-4.71142,-9.59102,Q,Q
2023-03-15 11:04:38:921,0,0.0249563,-4.59633,-9.52888,Q,Q
2023-03-15 11:04:38:931,0,0.0752001,-4.47284,-9.47407,Q,Q
2023-03-15 11:04:38:941,0,0.126611,-4.33871,-9.42559,Q,Q
2023-03-15 11:04:38:951,0,0.190992,-4.19752,-9.37803,Q,Q
2023-03-15 11:04:38:961,0,0.265037,-4.05089,-9.33298,Q,Q
2023-03-15 11:04:38:971,0,0.344266,-3.90323,-9.29442,Q,Q
2023-03-15 11:04:38:981,0,0.43227,-3.74885,-9.26336,Q,Q
2023-03-15 11:04:38:991,0,0.522997,-3.58993,-9.23907,Q,Q
2023-03-15 11:04:39:0,0,0.614371,-3.42652,-9.20749,Q,Q
2023-03-15 11:04:39:10,0,0.700369,-3.25896,-9.18344,Q,Q
2023-03-15 11:04:39:20,0,0.773029,-3.09395,-9.16767,Q,Q
2023-03-15 11:04:39:30,0,0.837503,-2.93266,-9.15764,Q,Q
2023-03-15 11:04:39:40,0,0.898452,-2.77378,-9.15347,Q,Q
2023-03-15 11:04:39:51,0,0.958869,-2.61021,-9.16029,Q,Q
2023-03-15 11:04:39:61,0,1.02412,-2.45101,-9.17227,Q,Q
2023-03-15 11:04:39:71,0,1.09801,-2.2892,-9.18522,Q,Q
2023-03-15 11:04:39:80,0,1.17961,-2.13402,-9.20385,Q,Q
2023-03-15 11:04:39:90,0,1.27041,-1.98313,-9.22499,Q,Q
2023-03-15 11:04:39:101,0,1.3636,-1.83387,-9.23886,Q,Q
2023-03-15 11:04:39:111,0,1.4525,-1.69274,-9.24918,Q,Q
2023-03-15 11:04:39:121,0,1.54346,-1.56938,-9.2502,Q,Q
2023-03-15 11:04:39:131,0,1.63462,-1.45855,-9.23875,Q,Q
2023-03-15 11:04:39:141,0,1.71984,-1.37269,-9.22423,Q,Q
2023-03-15 11:04:39:151,0,1.7992,-1.30469,-9.21402,Q,Q
2023-03-15 11:04:39:161,0,1.87401,-1.23337,-9.19841,Q,Q
2023-03-15 11:04:39:171,0,1.9553,-1.15666,-9.17915,Q,Q
2023-03-15 11:04:39:181,0,2.05101,-1.07487,-9.15882,Q,Q
2023-03-15 11:04:39:191,0,2.15879,-0.986103,-9.13433,Q,Q
2023-03-15 11:04:39:201,0,2.26976,-0.907338,-9.10856,Q,Q
2023-03-15 11:04:39:211,0,2.38217,-0.839448,-9.08203,Q,Q
2023-03-15 11:04:39:221,0,2.48737,-0.780409,-9.0581,Q,Q
2023-03-15 11:04:39:230,0,2.57743,-0.731818,-9.033,Q,Q
2023-03-15 11:04:39:241,0,2.65048,-0.689687,-9.00746,Q,Q
2023-03-15 11:04:39:251,0,2.71664,-0.653741,-8.98219,Q,Q
2023-03-15 11:04:39:261,0,2.76775,-0.629147,-8.95593,Q,Q
2023-03-15 11:04:39:271,0,2.80768,-0.60501,-8.9309,Q,Q
2023-03-15 11:04:39:281,0,2.84206,-0.579051,-8.91311,Q,Q
2023-03-15 11:04:39:291,0,2.8804,-0.537917,-8.8974,Q,Q
2023-03-15 11:04:39:301,0,2.92666,-0.484445,-8.8861,Q,Q
2023-03-15 11:04:39:311,0,2.96847,-0.426915,-8.87718,Q,Q
2023-03-15 11:04:39:321,0,3.00374,-0.376106,-8.86909,Q,Q
2023-03-15 11:04:39:331,0,3.03595,-0.326106,-8.86243,Q,Q
2023-03-15 11:04:39:340,0,3.06184,-0.291359,-8.85101,Q,Q
2023-03-15 11:04:39:351,0,3.07364,-0.253932,-8.83804,Q,Q
2023-03-15 11:04:39:361,0,3.07908,-0.212636,-8.83261,Q,Q
2023-03-15 11:04:39:371,0,3.08069,-0.168689,-8.82627,Q,Q
2023-03-15 11:04:39:380,0,3.0767,-0.121227,-8.81841,Q,Q
2023-03-15 11:04:39:390,0,3.0693,-0.0557976,-8.80546,Q,Q
2023-03-15 11:04:39:401,0,3.06281,0.00374346,-8.79922,Q,Q
2023-03-15 11:04:39:411,0,3.05021,0.0489669,-8.79548,Q,Q
2023-03-15 11:04:39:421,0,3.02097,0.0898152,-8.79355,Q,Q
2023-03-15 11:04:39:431,0,2.99217,0.127829,-8.78588,Q,Q
2023-03-15 11:04:39:441,0,2.96569,0.157484,-8.77867,Q,Q
2023-03-15 11:04:39:451,0,2.94436,0.182334,-8.76535,Q,Q
2023-03-15 11:04:39:461,0,2.92201,0.202749,-8.74543,Q,Q
2023-03-15 11:04:39:471,0,2.89163,0.222386,-8.72308,Q,Q
2023-03-15 11:04:39:481,0,2.84878,0.242519,-8.69644,Q,Q
2023-03-15 11:04:39:491,0,2.792,0.26396,-8.66828,Q,Q
2023-03-15 11:04:39:501,0,2.72681,0.285466,-8.64266,Q,Q
2023-03-15 11:04:39:511,0,2.66226,0.300296,-8.62205,Q,Q
2023-03-15 11:04:39:521,0,2.60291,0.306797,-8.60254,Q,Q
2023-03-15 11:04:39:530,0,2.54524,0.298367,-8.58284,Q,Q
2023-03-15 11:04:39:541,0,2.48697,0.280886,-8.56129,Q,Q
2023-03-15 11:04:39:551,0,2.42888,0.252102,-8.53761,Q,Q
2023-03-15 11:04:39:561,0,2.35587,0.212569,-8.51513,Q,Q
2023-03-15 11:04:39:571,0,2.26925,0.164724,-8.49266,Q,Q
2023-03-15 11:04:39:581,0,2.17123,0.107033,-8.46497,Q,Q
2023-03-15 11:04:39:591,0,2.0678,0.0523582,-8.42694,Q,Q
2023-03-15 11:04:39:601,0,1.95567,-0.00456783,-8.37191,Q,Q
2023-03-15 11:04:39:611,0,1.83939,-0.0706307,-8.29744,Q,Q
2023-03-15 11:04:39:621,0,1.72174,-0.149438,-8.21153,Q,Q
2023-03-15 11:04:39:631,0,1.61488,-0.228463,-8.12142,Q,Q
2023-03-15 11:04:39:641,0,1.52214,-0.305519,-8.02779,Q,Q
2023-03-15 11:04:39:651,0,1.44102,-0.369724,-7.9345,Q,Q
2023-03-15 11:04:39:661,0,1.37142,-0.417802,-7.83812,Q,Q
2023-03-15 11:04:39:671,0,1.31713,-0.442304,-7.74199,Q,Q
2023-03-15 11:04:39:681,0,1.27458,-0.458512,-7.64331,Q,Q
2023-03-15 11:04:39:691,0,1.23404,-0.481847,-7.54344,Q,Q
2023-03-15 11:04:39:701,0,1.19834,-0.508801,-7.44636,Q,Q
2023-03-15 11:04:39:711,0,1.15797,-0.552114,-7.34484,Q,Q
2023-03-15 11:04:39:721,0,1.11025,-0.60215,-7.24773,Q,Q
2023-03-15 11:04:39:731,0,1.06296,-0.656254,-7.15587,Q,Q
2023-03-15 11:04:39:741,0,1.02136,-0.715285,-7.07033,Q,Q
2023-03-15 11:04:39:751,0,0.990355,-0.763084,-6.98789,Q,Q
2023-03-15 11:04:39:761,0,0.979682,-0.798964,-6.9081,Q,Q
2023-03-15 11:04:39:771,0,0.980766,-0.82131,-6.82492,Q,Q
2023-03-15 11:04:39:781,0,0.982162,-0.83294,-6.74604,Q,Q
2023-03-15 11:04:39:791,0,0.980116,-0.84432,-6.67248,Q,Q
2023-03-15 11:04:39:801,0,0.964335,-0.854884,-6.60921,Q,Q
2023-03-15 11:04:39:811,0,0.947632,-0.85769,-6.55055,Q,Q
2023-03-15 11:04:39:820,0,0.938794,-0.857816,-6.4962,Q,Q
2023-03-15 11:04:39:830,0,0.936866,-0.860997,-6.45057,Q,Q
2023-03-15 11:04:39:841,0,0.927392,-0.864908,-6.40712,Q,Q
2023-03-15 11:04:39:851,0,0.91757,-0.878362,-6.37278,Q,Q
2023-03-15 11:04:39:861,0,0.909625,-0.899682,-6.3407,Q,Q
2023-03-15 11:04:39:871,0,0.895611,-0.935599,-6.31412,Q,Q
2023-03-15 11:04:39:881,0,0.886127,-0.968678,-6.28936,Q,Q
2023-03-15 11:04:39:891,0,0.881957,-0.991058,-6.26252,Q,Q
2023-03-15 11:04:39:900,0,0.897914,-1.01027,-6.2362,Q,Q
2023-03-15 11:04:39:910,0,0.920238,-1.01994,-6.20378,Q,Q
2023-03-15 11:04:39:920,0,0.936909,-1.02979,-6.16863,Q,Q
2023-03-15 11:04:39:931,0,0.944423,-1.03608,-6.13465,Q,Q
2023-03-15 11:04:39:941,0,0.941012,-1.04315,-6.09922,Q,Q
2023-03-15 11:04:39:951,0,0.934092,-1.05243,-6.0668,Q,Q
2023-03-15 11:04:39:961,0,0.940196,-1.06468,-6.03702,Q,Q
2023-03-15 11:04:39:971,0,0.952623,-1.08125,-6.00589,Q,Q
2023-03-15 11:04:39:981,0,0.972282,-1.10156,-5.97215,Q,Q
2023-03-15 11:04:39:991,0,0.988666,-1.12493,-5.93583,Q,Q
2023-03-15 11:04:40:1,0,0.991324,-1.15227,-5.90161,Q,Q
2023-03-15 11:04:40:11,0,0.985509,-1.18696,-5.87133,Q,Q
2023-03-15 11:04:40:21,0,0.977002,-1.22236,-5.84915,Q,Q
2023-03-15 11:04:40:31,0,0.975768,-1.25745,-5.83364,Q,Q
2023-03-15 11:04:40:41,0,0.976086,-1.30873,-5.81941,Q,Q
2023-03-15 11:04:40:51,0,0.971835,-1.36369,-5.80073,Q,Q
2023-03-15 11:04:40:61,0,0.962536,-1.41026,-5.78162,Q,Q
2023-03-15 11:04:40:70,0,0.953199,-1.45644,-5.76766,Q,Q
2023-03-15 11:04:40:80,0,0.949926,-1.49765,-5.75937,Q,Q
2023-03-15 11:04:40:91,0,0.943947,-1.53192,-5.74772,Q,Q
2023-03-15 11:04:40:101,0,0.933824,-1.56017,-5.73696,Q,Q
2023-03-15 11:04:40:111,0,0.920937,-1.58738,-5.72817,Q,Q
2023-03-15 11:04:40:121,0,0.902221,-1.61487,-5.71828,Q,Q
2023-03-15 11:04:40:131,0,0.879848,-1.64226,-5.70852,Q,Q
2023-03-15 11:04:40:141,0,0.860155,-1.68057,-5.70024,Q,Q
2023-03-15 11:04:40:151,0,0.835547,-1.73378,-5.69395,Q,Q
2023-03-15 11:04:40:161,0,0.808871,-1.77041,-5.68628,Q,Q
2023-03-15 11:04:40:171,0,0.785917,-1.79135,-5.68424,Q,Q
2023-03-15 11:04:40:181,0,0.770589,-1.79166,-5.67962,Q,Q
2023-03-15 11:04:40:191,0,0.765546,-1.79724,-5.67555,Q,Q
2023-03-15 11:04:40:201,0,0.756743,-1.79892,-5.67053,Q,Q
2023-03-15 11:04:40:211,0,0.743251,-1.79695,-5.66265,Q,Q
2023-03-15 11:04:40:221,0,0.728856,-1.78688,-5.65777,Q,Q
2023-03-15 11:04:40:231,0,0.720508,-1.77799,-5.65577,Q,Q
2023-03-15 11:04:40:241,0,0.713129,-1.76756,-5.64896,Q,Q
2023-03-15 11:04:40:251,0,0.711052,-1.75994,-5.64084,Q,Q
2023-03-15 11:04:40:261,0,0.706639,-1.75443,-5.63127,Q,Q
2023-03-15 11:04:40:271,0,0.702132,-1.75078,-5.62417,Q,Q
2023-03-15 11:04:40:280,0,0.697916,-1.749,-5.61701,Q,Q
2023-03-15 11:04:40:290,0,0.699506,-1.74829,-5.60586,Q,Q
2023-03-15 11:04:40:300,0,0.697926,-1.74948,-5.59424,Q,Q
2023-03-15 11:04:40:310,0,0.696897,-1.75039,-5.58248,Q,Q
2023-03-15 11:04:40:320,0,0.696632,-1.75295,-5.56626,Q,Q
2023-03-15 11:04:40:330,0,0.700505,-1.76087,-5.54926,Q,Q
2023-03-15 11:04:40:340,0,0.702663,-1.77186,-5.52983,Q,Q
2023-03-15 11:04:40:350,0,0.703873,-1.78473,-5.5122,Q,Q
2023-03-15 11:04:40:360,0,0.704483,-1.7918,-5.4998,Q,Q
2023-03-15 11:04:40:371,0,0.71097,-1.79548,-5.48744,Q,Q
2023-03-15 11:04:40:381,0,0.714674,-1.80185,-5.47421,Q,Q
2023-03-15 11:04:40:390,0,0.721911,-1.80418,-5.45964,Q,Q
2023-03-15 11:04:40:400,0,0.732321,-1.81274,-5.44551,Q,Q
2023-03-15 11:04:40:410,0,0.739113,-1.81796,-5.42785,Q,Q
2023-03-15 11:04:40:420,0,0.748,-1.82391,-5.41373,Q,Q
2023-03-15 11:04:40:430,0,0.759172,-1.82803,-5.40032,Q,Q
2023-03-15 11:04:40:441,0,0.771625,-1.83045,-5.38854,Q,Q
2023-03-15 11:04:40:451,0,0.779465,-1.82813,-5.37855,Q,Q
2023-03-15 11:04:40:460,0,0.789245,-1.82343,-5.37181,Q,Q
2023-03-15 11:04:40:471,0,0.794396,-1.81862,-5.36821,Q,Q
2023-03-15 11:04:40:480,0,0.801037,-1.81533,-5.36678,Q,Q
2023-03-15 11:04:40:491,0,0.805623,-1.81541,-5.36658,Q,Q
2023-03-15 11:04:40:501,0,0.816662,-1.81756,-5.36894,Q,Q
2023-03-15 11:04:40:511,0,0.82417,-1.81779,-5.36857,Q,Q
2023-03-15 11:04:40:521,0,0.833748,-1.81933,-5.36935,Q,Q
2023-03-15 11:04:40:531,0,0.840593,-1.81935,-5.37052,Q,Q
2023-03-15 11:04:40:541,0,0.850829,-1.8167,-5.38051,Q,Q
2023-03-15 11:04:40:551,0,0.860316,-1.81564,-5.38967,Q,Q
2023-03-15 11:04:40:561,0,0.871102,-1.81527,-5.39875,Q,Q
2023-03-15 11:04:40:571,0,0.883099,-1.8147,-5.40519,Q,Q
2023-03-15 11:04:40:581,0,0.894159,-1.81854,-5.41592,Q,Q
2023-03-15 11:04:40:591,0,0.910326,-1.82475,-5.42372,Q,Q
2023-03-15 11:04:40:601,0,0.928373,-1.83145,-5.43749,Q,Q
2023-03-15 11:04:40:611,0,0.946783,-1.84025,-5.45095,Q,Q
2023-03-15 11:04:40:621,0,0.963578,-1.85411,-5.46832,Q,Q
2023-03-15 11:04:40:631,0,0.983605,-1.87205,-5.48661,Q,Q
2023-03-15 11:04:40:641,0,1.00361,-1.88975,-5.51056,Q,Q
2023-03-15 11:04:40:651,0,1.02685,-1.90673,-5.53109,Q,Q
2023-03-15 11:04:40:661,0,1.05546,-1.9305,-5.55507,Q,Q
2023-03-15 11:04:40:671,0,1.08393,-1.95543,-5.57826,Q,Q
2023-03-15 11:04:40:681,0,1.11247,-1.98468,-5.60703,Q,Q
2023-03-15 11:04:40:691,0,1.14233,-2.01111,-5.63489,Q,Q
2023-03-15 11:04:40:701,0,1.16456,-2.03358,-5.65712,Q,Q
2023-03-15 11:04:40:711,0,1.18749,-2.05778,-5.68175,Q,Q
2023-03-15 11:04:40:720,0,1.21081,-2.08571,-5.70311,Q,Q
2023-03-15 11:04:40:731,0,1.23144,-2.11141,-5.72498,Q,Q
2023-03-15 11:04:40:741,0,1.24712,-2.13055,-5.74286,Q,Q
2023-03-15 11:04:40:751,0,1.25943,-2.14998,-5.76165,Q,Q
2023-03-15 11:04:40:761,0,1.26317,-2.16204,-5.78073,Q,Q
2023-03-15 11:04:40:770,0,1.26755,-2.17366,-5.79178,Q,Q
2023-03-15 11:04:40:781,0,1.27437,-2.19318,-5.80362,Q,Q
2023-03-15 11:04:40:791,0,1.27823,-2.21572,-5.81074,Q,Q
2023-03-15 11:04:40:800,0,1.28026,-2.23733,-5.81876,Q,Q
2023-03-15 11:04:40:811,0,1.27815,-2.25895,-5.83027,Q,Q
2023-03-15 11:04:40:821,0,1.27294,-2.27713,-5.84267,Q,Q
2023-03-15 11:04:40:831,0,1.2629,-2.29168,-5.86104,Q,Q
2023-03-15 11:04:40:841,0,1.24967,-2.30358,-5.87795,Q,Q
2023-03-15 11:04:40:851,0,1.23429,-2.3094,-5.89814,Q,Q
2023-03-15 11:04:40:861,0,1.21954,-2.31135,-5.91792,Q,Q
2023-03-15 11:04:40:871,0,1.20236,-2.31457,-5.94169,Q,Q
2023-03-15 11:04:40:881,0,1.18866,-2.32025,-5.95985,Q,Q
2023-03-15 11:04:40:891,0,1.17522,-2.32363,-5.98205,Q,Q
2023-03-15 11:04:40:901,0,1.16327,-2.32709,-5.99926,Q,Q
2023-03-15 11:04:40:910,0,1.14723,-2.33119,-6.01833,Q,Q
2023-03-15 11:04:40:920,0,1.1294,-2.33469,-6.03717,Q,Q
2023-03-15 11:04:40:930,0,1.11019,-2.3336,-6.05469,Q,Q
2023-03-15 11:04:40:940,0,1.08858,-2.33423,-6.07586,Q,Q
2023-03-15 11:04:40:951,0,1.06466,-2.32875,-6.09666,Q,Q
2023-03-15 11:04:40:961,0,1.03831,-2.32604,-6.11734,Q,Q
2023-03-15 11:04:40:971,0,1.01114,-2.32372,-6.13794,Q,Q
2023-03-15 11:04:40:980,0,0.986563,-2.32602,-6.1577,Q,Q
2023-03-15 11:04:40:991,0,0.96168,-2.32986,-6.17716,Q,Q
2023-03-15 11:04:41:1,0,0.940197,-2.33328,-6.20232,Q,Q
2023-03-15 11:04:41:11,0,0.920317,-2.33411,-6.23288,Q,Q
2023-03-15 11:04:41:20,0,0.90941,-2.33863,-6.2691,Q,Q
2023-03-15 11:04:41:30,0,0.906854,-2.3411,-6.30255,Q,Q
2023-03-15 11:04:41:41,0,0.914529,-2.34978,-6.33879,Q,Q
2023-03-15 11:04:41:51,0,0.925876,-2.36001,-6.37714,Q,Q
2023-03-15 11:04:41:61,0,0.944003,-2.37067,-6.41356,Q,Q
2023-03-15 11:04:41:71,0,0.963977,-2.38345,-6.44401,Q,Q
2023-03-15 11:04:41:81,0,0.987062,-2.39842,-6.47104,Q,Q
2023-03-15 11:04:41:91,0,1.0125,-2.41917,-6.49035,Q,Q
2023-03-15 11:04:41:101,0,1.03649,-2.44438,-6.49906,Q,Q
2023-03-15 11:04:41:111,0,1.06116,-2.47245,-6.50539,Q,Q
2023-03-15 11:04:41:121,0,1.08753,-2.50185,-6.50783,Q,Q
2023-03-15 11:04:41:131,0,1.11302,-2.53226,-6.50305,Q,Q
2023-03-15 11:04:41:141,0,1.13466,-2.56243,-6.49473,Q,Q
2023-03-15 11:04:41:151,0,1.15377,-2.5898,-6.48307,Q,Q
2023-03-15 11:04:41:161,0,1.17186,-2.61607,-6.47006,Q,Q
2023-03-15 11:04:41:171,0,1.18492,-2.63964,-6.45146,Q,Q
2023-03-15 11:04:41:181,0,1.19293,-2.66598,-6.43186,Q,Q
2023-03-15 11:04:41:191,0,1.19493,-2.68653,-6.41253,Q,Q
2023-03-15 11:04:41:201,0,1.19267,-2.70858,-6.39362,Q,Q
2023-03-15 11:04:41:211,0,1.18673,-2.72328,-6.37292,Q,Q
2023-03-15 11:04:41:221,0,1.17759,-2.73282,-6.35075,Q,Q
2023-03-15 11:04:41:231,0,1.17314,-2.74485,-6.33239,Q,Q
2023-03-15 11:04:41:240,0,1.16753,-2.75354,-6.31605,Q,Q
2023-03-15 11:04:41:251,0,1.16423,-2.76267,-6.30104,Q,Q
2023-03-15 11:04:41:260,0,1.16218,-2.76644,-6.28209,Q,Q
2023-03-15 11:04:41:271,0,1.16196,-2.76932,-6.26393,Q,Q
2023-03-15 11:04:41:281,0,1.16188,-2.76898,-6.2477,Q,Q
2023-03-15 11:04:41:291,0,1.15817,-2.77299,-6.2339,Q,Q
2023-03-15 11:04:41:301,0,1.1602,-2.77668,-6.2202,Q,Q
2023-03-15 11:04:41:311,0,1.16264,-2.77695,-6.20872,Q,Q
2023-03-15 11:04:41:321,0,1.16593,-2.77841,-6.20274,Q,Q
2023-03-15 11:04:41:331,0,1.16896,-2.78297,-6.1973,Q,Q
2023-03-15 11:04:41:340,0,1.17288,-2.78647,-6.19266,Q,Q
2023-03-15 11:04:41:351,0,1.17932,-2.79251,-6.18916,Q,Q
2023-03-15 11:04:41:360,0,1.18859,-2.79852,-6.18812,Q,Q
2023-03-15 11:04:41:371,0,1.19739,-2.80062,-6.18425,Q,Q
2023-03-15 11:04:41:381,0,1.20594,-2.80562,-6.17825,Q,Q
2023-03-15 11:04:41:391,0,1.21501,-2.81012,-6.17776,Q,Q
2023-03-15 11:04:41:401,0,1.22291,-2.81553,-6.17775,Q,Q
2023-03-15 11:04:41:411,0,1.23051,-2.81767,-6.17675,Q,Q
2023-03-15 11:04:41:420,0,1.24179,-2.82274,-6.18086,Q,Q
2023-03-15 11:04:41:430,0,1.25296,-2.82557,-6.17941,Q,Q
2023-03-15 11:04:41:440,0,1.26712,-2.83227,-6.17612,Q,Q
2023-03-15 11:04:41:451,0,1.28032,-2.84462,-6.17016,Q,Q
2023-03-15 11:04:41:460,0,1.2969,-2.86381,-6.15902,Q,Q
2023-03-15 11:04:41:471,0,1.31462,-2.88825,-6.14314,Q,Q
2023-03-15 11:04:41:481,0,1.32737,-2.91029,-6.12459,Q,Q
2023-03-15 11:04:41:491,0,1.33657,-2.92868,-6.11136,Q,Q
2023-03-15 11:04:41:500,0,1.34735,-2.94383,-6.09552,Q,Q
2023-03-15 11:04:41:511,0,1.36199,-2.95603,-6.07766,Q,Q
2023-03-15 11:04:41:521,0,1.37728,-2.96635,-6.0602,Q,Q
2023-03-15 11:04:41:531,0,1.40007,-2.9771,-6.03505,Q,Q
2023-03-15 11:04:41:541,0,1.42523,-2.98967,-6.01251,Q,Q
2023-03-15 11:04:41:550,0,1.45225,-2.9973,-5.98637,Q,Q
2023-03-15 11:04:41:561,0,1.47739,-3.00812,-5.95768,Q,Q
2023-03-15 11:04:41:571,0,1.50375,-3.01608,-5.93076,Q,Q
2023-03-15 11:04:41:581,0,1.52282,-3.02477,-5.90436,Q,Q
2023-03-15 11:04:41:591,0,1.53355,-3.02918,-5.88103,Q,Q
2023-03-15 11:04:41:600,0,1.53914,-3.03407,-5.85656,Q,Q
2023-03-15 11:04:41:611,0,1.54348,-3.03864,-5.83512,Q,Q
2023-03-15 11:04:41:620,0,1.54225,-3.04229,-5.81378,Q,Q
2023-03-15 11:04:41:630,0,1.53968,-3.04372,-5.7901,Q,Q
2023-03-15 11:04:41:641,0,1.53599,-3.05068,-5.7721,Q,Q
2023-03-15 11:04:41:651,0,1.53273,-3.05366,-5.75209,Q,Q
2023-03-15 11:04:41:660,0,1.5288,-3.054,-5.73177,Q,Q
2023-03-15 11:04:41:671,0,1.52502,-3.05263,-5.7174,Q,Q
2023-03-15 11:04:41:681,0,1.52366,-3.0485,-5.70331,Q,Q
2023-03-15 11:04:41:691,0,1.5206,-3.04272,-5.68991,Q,Q
2023-03-15 11:04:41:701,0,1.513,-3.03948,-5.67481,Q,Q
2023-03-15 11:04:41:710,0,1.50673,-3.03888,-5.65794,Q,Q
2023-03-15 11:04:41:720,0,1.49845,-3.03604,-5.64131,Q,Q
2023-03-15 11:04:41:731,0,1.48757,-3.03781,-5.6252,Q,Q
2023-03-15 11:04:41:741,0,1.47529,-3.03509,-5.61326,Q,Q
2023-03-15 11:04:41:751,0,1.46624,-3.03165,-5.60252,Q,Q
2023-03-15 11:04:41:760,0,1.45651,-3.02725,-5.59568,Q,Q
2023-03-15 11:04:41:771,0,1.45008,-3.02125,-5.5872,Q,Q
2023-03-15 11:04:41:781,0,1.44565,-3.0152,-5.58252,Q,Q
2023-03-15 11:04:41:791,0,1.438,-3.01139,-5.57447,Q,Q
2023-03-15 11:04:41:801,0,1.43159,-3.00863,-5.57042,Q,Q
2023-03-15 11:04:41:811,0,1.42261,-3.00511,-5.56779,Q,Q
2023-03-15 11:04:41:821,0,1.4113,-3.00291,-5.56403,Q,Q
2023-03-15 11:04:41:831,0,1.39628,-2.99935,-5.56013,Q,Q
2023-03-15 11:04:41:841,0,1.38212,-2.99821,-5.56018,Q,Q
2023-03-15 11:04:41:851,0,1.37016,-2.99272,-5.55944,Q,Q
2023-03-15 11:04:41:861,0,1.35923,-2.99083,-5.56163,Q,Q
2023-03-15 11:04:41:871,0,1.34746,-2.98605,-5.56375,Q,Q
2023-03-15 11:04:41:880,0,1.33836,-2.98435,-5.56815,Q,Q
2023-03-15 11:04:41:891,0,1.32765,-2.97997,-5.56715,Q,Q
2023-03-15 11:04:41:901,0,1.32281,-2.97925,-5.56495,Q,Q
2023-03-15 11:04:41:911,0,1.3193,-2.97858,-5.56354,Q,Q
2023-03-15 11:04:41:920,0,1.3195,-2.97831,-5.5626,Q,Q
2023-03-15 11:04:41:931,0,1.32063,-2.97499,-5.56155,Q,Q
2023-03-15 11:04:41:940,0,1.32048,-2.96941,-5.56272,Q,Q
2023-03-15 11:04:41:950,0,1.31945,-2.96353,-5.56121,Q,Q
2023-03-15 11:04:41:960,0,1.31516,-2.95969,-5.55871,Q,Q
2023-03-15 11:04:41:970,0,1.31604,-2.95635,-5.55212,Q,Q
2023-03-15 11:04:41:980,0,1.30999,-2.95507,-5.54759,Q,Q
2023-03-15 11:04:41:990,0,1.30195,-2.94911,-5.54576,Q,Q
2023-03-15 11:04:42:0,0,1.29485,-2.94034,-5.54054,Q,Q
2023-03-15 11:04:42:10,0,1.28236,-2.93209,-5.53426,Q,Q
2023-03-15 11:04:42:20,0,1.27164,-2.92348,-5.53021,Q,Q
2023-03-15 11:04:42:30,0,1.26197,-2.91658,-5.52407,Q,Q
2023-03-15 11:04:42:40,0,1.25,-2.9088,-5.52029,Q,Q
2023-03-15 11:04:42:50,0,1.23719,-2.90254,-5.51383,Q,Q
2023-03-15 11:04:42:60,0,1.22532,-2.89651,-5.50941,Q,Q
2023-03-15 11:04:42:70,0,1.21433,-2.89204,-5.5049,Q,Q
2023-03-15 11:04:42:80,0,1.20194,-2.88927,-5.49801,Q,Q
2023-03-15 11:04:42:90,0,1.19209,-2.89002,-5.48793,Q,Q
2023-03-15 11:04:42:100,0,1.17352,-2.88513,-5.47895,Q,Q
2023-03-15 11:04:42:110,0,1.15474,-2.87748,-5.47055,Q,Q
2023-03-15 11:04:42:120,0,1.13741,-2.87212,-5.46386,Q,Q
2023-03-15 11:04:42:130,0,1.11838,-2.8684,-5.45707,Q,Q
2023-03-15 11:04:42:140,0,1.09974,-2.86213,-5.45067,Q,Q
2023-03-15 11:04:42:150,0,1.07905,-2.86093,-5.44852,Q,Q
2023-03-15 11:04:42:160,0,1.06567,-2.86434,-5.44712,Q,Q
2023-03-15 11:04:42:170,0,1.0524,-2.86747,-5.44818,Q,Q
2023-03-15 11:04:42:180,0,1.04277,-2.86857,-5.45161,Q,Q
