Timestamp_cmd,imu_cmd,roll_delta,pitch_delta,yaw_delta,voice_type,voice_length
2023-03-14 22:33:40:54,0,-10.7635,-1.04442,21.8387,Q,Q
2023-03-14 22:33:40:62,0,-10.7885,-1.03797,21.8791,Q,Q
2023-03-14 22:33:40:72,0,-10.8114,-1.03271,21.9246,Q,Q
2023-03-14 22:33:40:82,0,-10.8401,-1.03169,21.9669,Q,Q
2023-03-14 22:33:40:92,0,-10.8694,-1.03529,22.0032,Q,Q
2023-03-14 22:33:40:102,0,-10.8971,-1.04354,22.0309,Q,Q
2023-03-14 22:33:40:112,0,-10.9172,-1.04981,22.0482,Q,Q
2023-03-14 22:33:40:122,0,-10.9298,-1.05362,22.0544,Q,Q
2023-03-14 22:33:40:132,0,-10.933,-1.05021,22.0486,Q,Q
2023-03-14 22:33:40:142,0,-10.9342,-1.04544,22.0329,Q,Q
2023-03-14 22:33:40:152,0,-10.9339,-1.02796,22.0091,Q,Q
2023-03-14 22:33:40:162,0,-10.9271,-1.0052,21.987,Q,Q
2023-03-14 22:33:40:172,0,-10.9236,-0.987354,21.9773,Q,Q
2023-03-14 22:33:40:182,0,-10.9341,-0.970885,21.9764,Q,Q
2023-03-14 22:33:40:192,0,-10.956,-0.969697,21.9892,Q,Q
2023-03-14 22:33:40:202,0,-10.9872,-0.981694,22.0068,Q,Q
2023-03-14 22:33:40:212,0,-11.0154,-0.996892,22.0199,Q,Q
2023-03-14 22:33:40:222,0,-11.0351,-1.00744,22.0257,Q,Q
2023-03-14 22:33:40:232,0,-11.0473,-1.01073,22.0274,Q,Q
2023-03-14 22:33:40:242,0,-11.0614,-1.00826,22.0307,Q,Q
2023-03-14 22:33:40:252,0,-11.0816,-1.00867,22.0462,Q,Q
2023-03-14 22:33:40:262,0,-11.119,-1.0177,22.0726,Q,Q
2023-03-14 22:33:40:272,0,-11.1721,-1.03123,22.1063,Q,Q
2023-03-14 22:33:40:282,0,-11.2362,-1.05174,22.1447,Q,Q
2023-03-14 22:33:40:292,0,-11.3053,-1.06791,22.1911,Q,Q
2023-03-14 22:33:40:302,0,-11.3827,-1.0864,22.2467,Q,Q
2023-03-14 22:33:40:312,0,-11.4563,-1.10532,22.3168,Q,Q
2023-03-14 22:33:40:322,0,-11.5174,-1.13541,22.4067,Q,Q
2023-03-14 22:33:40:332,0,-11.581,-1.17095,22.4996,Q,Q
2023-03-14 22:33:40:342,0,-11.6439,-1.20888,22.5941,Q,Q
2023-03-14 22:33:40:352,0,-11.7009,-1.24703,22.6864,Q,Q
2023-03-14 22:33:40:362,0,-11.7577,-1.28422,22.7791,Q,Q
2023-03-14 22:33:40:372,0,-11.8114,-1.32418,22.8721,Q,Q
2023-03-14 22:33:40:382,0,-11.8574,-1.36232,22.9571,Q,Q
2023-03-14 22:33:40:392,0,-11.8916,-1.39602,23.0334,Q,Q
2023-03-14 22:33:40:402,0,-11.912,-1.41894,23.0996,Q,Q
2023-03-14 22:33:40:412,0,-11.9186,-1.43361,23.1556,Q,Q
2023-03-14 22:33:40:422,0,-11.9194,-1.44557,23.1958,Q,Q
2023-03-14 22:33:40:432,0,-11.9141,-1.44226,23.2315,Q,Q
2023-03-14 22:33:40:442,0,-11.8918,-1.42989,23.2546,Q,Q
2023-03-14 22:33:40:452,0,-11.8663,-1.41782,23.2781,Q,Q
2023-03-14 22:33:40:462,0,-11.8363,-1.40523,23.2981,Q,Q
2023-03-14 22:33:40:472,0,-11.8036,-1.3916,23.3076,Q,Q
2023-03-14 22:33:40:482,0,-11.7636,-1.37721,23.3134,Q,Q
2023-03-14 22:33:40:492,0,-11.7221,-1.35949,23.3159,Q,Q
2023-03-14 22:33:40:502,0,-11.6778,-1.33758,23.3167,Q,Q
2023-03-14 22:33:40:512,0,-11.6369,-1.31598,23.3162,Q,Q
2023-03-14 22:33:40:522,0,-11.6002,-1.29454,23.3139,Q,Q
2023-03-14 22:33:40:532,0,-11.5714,-1.27292,23.3117,Q,Q
2023-03-14 22:33:40:542,0,-11.5495,-1.25273,23.3142,Q,Q
2023-03-14 22:33:40:552,0,-11.5389,-1.23855,23.3203,Q,Q
2023-03-14 22:33:40:562,0,-11.5296,-1.22668,23.3261,Q,Q
2023-03-14 22:33:40:572,0,-11.5263,-1.21469,23.3344,Q,Q
2023-03-14 22:33:40:582,0,-11.5267,-1.201,23.3465,Q,Q
2023-03-14 22:33:40:592,0,-11.5323,-1.19032,23.3596,Q,Q
2023-03-14 22:33:40:602,0,-11.5408,-1.18041,23.3771,Q,Q
2023-03-14 22:33:40:612,0,-11.5548,-1.17349,23.3952,Q,Q
2023-03-14 22:33:40:622,0,-11.578,-1.18086,23.4123,Q,Q
2023-03-14 22:33:40:632,0,-11.6098,-1.19295,23.4283,Q,Q
2023-03-14 22:33:40:642,0,-11.643,-1.20564,23.4434,Q,Q
2023-03-14 22:33:40:652,0,-11.6795,-1.21358,23.455,Q,Q
2023-03-14 22:33:40:662,0,-11.7099,-1.21618,23.4625,Q,Q
2023-03-14 22:33:40:672,0,-11.7407,-1.2124,23.4656,Q,Q
2023-03-14 22:33:40:682,0,-11.7799,-1.20782,23.4675,Q,Q
2023-03-14 22:33:40:692,0,-11.8224,-1.20891,23.4695,Q,Q
2023-03-14 22:33:40:702,0,-11.8647,-1.21064,23.4676,Q,Q
2023-03-14 22:33:40:712,0,-11.8975,-1.21597,23.471,Q,Q
2023-03-14 22:33:40:722,0,-11.9327,-1.21989,23.4768,Q,Q
2023-03-14 22:33:40:732,0,-11.966,-1.21975,23.4779,Q,Q
2023-03-14 22:33:40:742,0,-11.9984,-1.21431,23.4759,Q,Q
2023-03-14 22:33:40:752,0,-12.032,-1.20989,23.4761,Q,Q
2023-03-14 22:33:40:762,0,-12.0639,-1.20996,23.4748,Q,Q
2023-03-14 22:33:40:772,0,-12.0916,-1.20444,23.4738,Q,Q
2023-03-14 22:33:40:782,0,-12.1112,-1.20014,23.4758,Q,Q
2023-03-14 22:33:40:792,0,-12.1293,-1.19415,23.4791,Q,Q
2023-03-14 22:33:40:802,0,-12.1423,-1.18417,23.4766,Q,Q
2023-03-14 22:33:40:812,0,-12.1549,-1.173,23.4764,Q,Q
2023-03-14 22:33:40:822,0,-12.1728,-1.16503,23.4777,Q,Q
2023-03-14 22:33:40:832,0,-12.1942,-1.15681,23.4769,Q,Q
2023-03-14 22:33:40:842,0,-12.209,-1.15324,23.4759,Q,Q
2023-03-14 22:33:40:852,0,-12.2239,-1.15285,23.4694,Q,Q
2023-03-14 22:33:40:862,0,-12.2317,-1.14614,23.4611,Q,Q
2023-03-14 22:33:40:872,0,-12.2404,-1.13298,23.4479,Q,Q
2023-03-14 22:33:40:882,0,-12.2534,-1.11782,23.4352,Q,Q
2023-03-14 22:33:40:892,0,-12.2684,-1.10427,23.4266,Q,Q
2023-03-14 22:33:40:902,0,-12.2887,-1.09254,23.4183,Q,Q
2023-03-14 22:33:40:912,0,-12.3056,-1.0817,23.4126,Q,Q
2023-03-14 22:33:40:922,0,-12.3235,-1.07175,23.4147,Q,Q
2023-03-14 22:33:40:932,0,-12.3441,-1.06813,23.4193,Q,Q
2023-03-14 22:33:40:942,0,-12.3658,-1.06898,23.4274,Q,Q
2023-03-14 22:33:40:952,0,-12.3848,-1.07082,23.4388,Q,Q
2023-03-14 22:33:40:962,0,-12.4078,-1.07275,23.4523,Q,Q
2023-03-14 22:33:40:972,0,-12.4291,-1.08188,23.4624,Q,Q
2023-03-14 22:33:40:982,0,-12.4501,-1.09139,23.472,Q,Q
2023-03-14 22:33:40:992,0,-12.4695,-1.09566,23.4778,Q,Q
2023-03-14 22:33:41:2,0,-12.4837,-1.09933,23.4818,Q,Q
2023-03-14 22:33:41:12,0,-12.4954,-1.10621,23.4814,Q,Q
2023-03-14 22:33:41:22,0,-12.5046,-1.11503,23.4776,Q,Q
2023-03-14 22:33:41:32,0,-12.5129,-1.12219,23.4745,Q,Q
2023-03-14 22:33:41:42,0,-12.5219,-1.12581,23.4697,Q,Q
2023-03-14 22:33:41:52,0,-12.5276,-1.12634,23.4651,Q,Q
2023-03-14 22:33:41:62,0,-12.5281,-1.13059,23.4594,Q,Q
2023-03-14 22:33:41:72,0,-12.5267,-1.13328,23.4516,Q,Q
2023-03-14 22:33:41:82,0,-12.5284,-1.13207,23.4406,Q,Q
2023-03-14 22:33:41:92,0,-12.5274,-1.13139,23.4299,Q,Q
2023-03-14 22:33:41:102,0,-12.5311,-1.13194,23.4128,Q,Q
2023-03-14 22:33:41:112,0,-12.5391,-1.13678,23.4001,Q,Q
2023-03-14 22:33:41:122,0,-12.5475,-1.1452,23.3857,Q,Q
2023-03-14 22:33:41:132,0,-12.5609,-1.15921,23.3718,Q,Q
2023-03-14 22:33:41:142,0,-12.5728,-1.17372,23.3546,Q,Q
2023-03-14 22:33:41:152,0,-12.5866,-1.18184,23.3357,Q,Q
2023-03-14 22:33:41:162,0,-12.5861,-1.18935,23.326,Q,Q
2023-03-14 22:33:41:172,0,-12.585,-1.1965,23.3238,Q,Q
2023-03-14 22:33:41:182,0,-12.5829,-1.20268,23.3194,Q,Q
2023-03-14 22:33:41:192,0,-12.585,-1.20562,23.3121,Q,Q
2023-03-14 22:33:41:202,0,-12.5877,-1.20431,23.3037,Q,Q
2023-03-14 22:33:41:212,0,-12.5858,-1.20549,23.2929,Q,Q
2023-03-14 22:33:41:222,0,-12.5802,-1.20382,23.2783,Q,Q
2023-03-14 22:33:41:232,0,-12.5743,-1.19566,23.2683,Q,Q
2023-03-14 22:33:41:242,0,-12.5698,-1.18313,23.2601,Q,Q
2023-03-14 22:33:41:252,0,-12.5704,-1.16891,23.2493,Q,Q
2023-03-14 22:33:41:262,0,-12.5791,-1.15322,23.2341,Q,Q
2023-03-14 22:33:41:272,0,-12.5832,-1.14052,23.2264,Q,Q
2023-03-14 22:33:41:282,0,-12.5922,-1.12452,23.2225,Q,Q
2023-03-14 22:33:41:292,0,-12.6111,-1.11077,23.2198,Q,Q
2023-03-14 22:33:41:302,0,-12.639,-1.10475,23.2191,Q,Q
2023-03-14 22:33:41:312,0,-12.677,-1.10046,23.2197,Q,Q
2023-03-14 22:33:41:322,0,-12.7081,-1.09635,23.232,Q,Q
2023-03-14 22:33:41:332,0,-12.7377,-1.09163,23.2556,Q,Q
2023-03-14 22:33:41:342,0,-12.7637,-1.09028,23.2853,Q,Q
2023-03-14 22:33:41:352,0,-12.7804,-1.09656,23.3146,Q,Q
2023-03-14 22:33:41:362,0,-12.7913,-1.10261,23.3392,Q,Q
2023-03-14 22:33:41:372,0,-12.7953,-1.11487,23.3682,Q,Q
2023-03-14 22:33:41:382,0,-12.7948,-1.13446,23.4006,Q,Q
2023-03-14 22:33:41:392,0,-12.791,-1.15881,23.4294,Q,Q
2023-03-14 22:33:41:402,0,-12.7831,-1.18102,23.4502,Q,Q
2023-03-14 22:33:41:412,0,-12.7699,-1.20524,23.4643,Q,Q
2023-03-14 22:33:41:422,0,-12.7552,-1.21938,23.4818,Q,Q
2023-03-14 22:33:41:432,0,-12.7401,-1.22395,23.4986,Q,Q
2023-03-14 22:33:41:442,0,-12.7233,-1.22307,23.4945,Q,Q
2023-03-14 22:33:41:452,0,-12.6972,-1.21921,23.4721,Q,Q
2023-03-14 22:33:41:462,0,-12.6694,-1.20641,23.4473,Q,Q
2023-03-14 22:33:41:472,0,-12.6423,-1.1793,23.4241,Q,Q
2023-03-14 22:33:41:482,0,-12.6278,-1.15402,23.4029,Q,Q
2023-03-14 22:33:41:492,0,-12.6281,-1.1283,23.3886,Q,Q
2023-03-14 22:33:41:502,0,-12.6398,-1.10025,23.3861,Q,Q
2023-03-14 22:33:41:512,0,-12.6583,-1.07671,23.3981,Q,Q
2023-03-14 22:33:41:522,0,-12.6801,-1.06442,23.4158,Q,Q
2023-03-14 22:33:41:532,0,-12.7064,-1.06593,23.4487,Q,Q
2023-03-14 22:33:41:542,0,-12.7438,-1.0702,23.4876,Q,Q
2023-03-14 22:33:41:552,0,-12.7843,-1.07008,23.5302,Q,Q
2023-03-14 22:33:41:562,0,-12.8288,-1.06339,23.5737,Q,Q
2023-03-14 22:33:41:572,0,-12.8781,-1.05908,23.6262,Q,Q
2023-03-14 22:33:41:582,0,-12.9344,-1.0604,23.6886,Q,Q
2023-03-14 22:33:41:592,0,-12.997,-1.06953,23.7578,Q,Q
2023-03-14 22:33:41:602,0,-13.056,-1.08329,23.8224,Q,Q
2023-03-14 22:33:41:612,0,-13.1014,-1.09223,23.8825,Q,Q
2023-03-14 22:33:41:622,0,-13.133,-1.08703,23.9436,Q,Q
2023-03-14 22:33:41:632,0,-13.1567,-1.06963,23.9954,Q,Q
2023-03-14 22:33:41:642,0,-13.187,-1.03768,24.0377,Q,Q
2023-03-14 22:33:41:652,0,-13.2291,-1.00099,24.0691,Q,Q
2023-03-14 22:33:41:662,0,-13.285,-0.970411,24.095,Q,Q
2023-03-14 22:33:41:672,0,-13.3477,-0.944884,24.1161,Q,Q
2023-03-14 22:33:41:682,0,-13.4143,-0.925292,24.1316,Q,Q
2023-03-14 22:33:41:692,0,-13.4782,-0.913102,24.14,Q,Q
2023-03-14 22:33:41:702,0,-13.5402,-0.903656,24.1466,Q,Q
2023-03-14 22:33:41:712,0,-13.6188,-0.878613,24.1635,Q,Q
2023-03-14 22:33:41:722,0,-13.696,-0.875008,24.1648,Q,Q
2023-03-14 22:33:41:732,0,-13.757,-0.882245,24.1478,Q,Q
2023-03-14 22:33:41:742,0,-13.8084,-0.880203,24.1292,Q,Q
2023-03-14 22:33:41:752,0,-13.8477,-0.873048,24.1031,Q,Q
2023-03-14 22:33:41:762,0,-13.8751,-0.863873,24.0691,Q,Q
2023-03-14 22:33:41:772,0,-13.8895,-0.85353,24.0313,Q,Q
2023-03-14 22:33:41:782,0,-13.8989,-0.836517,23.9914,Q,Q
2023-03-14 22:33:41:792,0,-13.9033,-0.820761,23.9525,Q,Q
2023-03-14 22:33:41:802,0,-13.9035,-0.810327,23.9145,Q,Q
2023-03-14 22:33:41:812,0,-13.9033,-0.809476,23.8857,Q,Q
2023-03-14 22:33:41:822,0,-13.909,-0.812874,23.8646,Q,Q
2023-03-14 22:33:41:832,0,-13.9132,-0.819424,23.8489,Q,Q
2023-03-14 22:33:41:842,0,-13.918,-0.826407,23.8268,Q,Q
2023-03-14 22:33:41:853,0,-13.9205,-0.833275,23.8022,Q,Q
2023-03-14 22:33:41:862,0,-13.9144,-0.83511,23.777,Q,Q
2023-03-14 22:33:41:872,0,-13.8996,-0.836152,23.7432,Q,Q
2023-03-14 22:33:41:882,0,-13.8669,-0.83399,23.7091,Q,Q
2023-03-14 22:33:41:892,0,-13.8257,-0.833035,23.6785,Q,Q
2023-03-14 22:33:41:902,0,-13.7812,-0.826198,23.6406,Q,Q
2023-03-14 22:33:41:912,0,-13.7414,-0.820141,23.5972,Q,Q
2023-03-14 22:33:41:922,0,-13.6966,-0.81505,23.5527,Q,Q
2023-03-14 22:33:41:932,0,-13.6502,-0.806018,23.5058,Q,Q
2023-03-14 22:33:41:942,0,-13.5963,-0.796793,23.4632,Q,Q
2023-03-14 22:33:41:952,0,-13.5524,-0.783649,23.4109,Q,Q
2023-03-14 22:33:41:962,0,-13.5106,-0.763221,23.356,Q,Q
2023-03-14 22:33:41:972,0,-13.4685,-0.740372,23.3012,Q,Q
2023-03-14 22:33:41:982,0,-13.4237,-0.719948,23.2432,Q,Q
2023-03-14 22:33:41:992,0,-13.3799,-0.699468,23.19,Q,Q
2023-03-14 22:33:42:2,0,-13.34,-0.681553,23.1362,Q,Q
2023-03-14 22:33:42:13,0,-13.3043,-0.662036,23.0836,Q,Q
2023-03-14 22:33:42:22,0,-13.2742,-0.646199,23.0376,Q,Q
2023-03-14 22:33:42:32,0,-13.2478,-0.629646,22.9972,Q,Q
2023-03-14 22:33:42:42,0,-13.2253,-0.613603,22.9588,Q,Q
2023-03-14 22:33:42:52,0,-13.2065,-0.594528,22.9235,Q,Q
2023-03-14 22:33:42:62,0,-13.1937,-0.573356,22.897,Q,Q
2023-03-14 22:33:42:72,0,-13.1881,-0.55344,22.8753,Q,Q
2023-03-14 22:33:42:82,0,-13.1827,-0.535228,22.8546,Q,Q
2023-03-14 22:33:42:92,0,-13.1749,-0.515109,22.8327,Q,Q
2023-03-14 22:33:42:102,0,-13.1632,-0.500378,22.8036,Q,Q
2023-03-14 22:33:42:112,0,-13.1495,-0.485888,22.7759,Q,Q
2023-03-14 22:33:42:122,0,-13.139,-0.47569,22.7551,Q,Q
2023-03-14 22:33:42:132,0,-13.1267,-0.47278,22.7373,Q,Q
2023-03-14 22:33:42:142,0,-13.1156,-0.467659,22.7243,Q,Q
2023-03-14 22:33:42:152,0,-13.0996,-0.466709,22.713,Q,Q
2023-03-14 22:33:42:162,0,-13.0904,-0.462571,22.6986,Q,Q
2023-03-14 22:33:42:172,0,-13.085,-0.461354,22.6755,Q,Q
2023-03-14 22:33:42:182,0,-13.0797,-0.462326,22.6629,Q,Q
2023-03-14 22:33:42:192,0,-13.0758,-0.467045,22.6558,Q,Q
2023-03-14 22:33:42:202,0,-13.0712,-0.475424,22.653,Q,Q
2023-03-14 22:33:42:212,0,-13.0653,-0.476117,22.6476,Q,Q
2023-03-14 22:33:42:222,0,-13.0567,-0.47626,22.6439,Q,Q
2023-03-14 22:33:42:232,0,-13.0551,-0.474008,22.6417,Q,Q
2023-03-14 22:33:42:242,0,-13.0544,-0.470708,22.6416,Q,Q
2023-03-14 22:33:42:252,0,-13.0635,-0.48023,22.645,Q,Q
2023-03-14 22:33:42:262,0,-13.0755,-0.512516,22.6504,Q,Q
2023-03-14 22:33:42:272,0,-13.0671,-0.574603,22.6468,Q,Q
2023-03-14 22:33:42:282,0,-13.0398,-0.658157,22.6271,Q,Q
2023-03-14 22:33:42:292,0,-13.004,-0.754222,22.591,Q,Q
2023-03-14 22:33:42:302,0,-12.9718,-0.858855,22.5356,Q,Q
2023-03-14 22:33:42:312,0,-12.9563,-0.961241,22.4627,Q,Q
2023-03-14 22:33:42:322,0,-12.9565,-1.05581,22.3803,Q,Q
2023-03-14 22:33:42:332,0,-12.9695,-1.14278,22.2931,Q,Q
2023-03-14 22:33:42:342,0,-12.9758,-1.22003,22.203,Q,Q
2023-03-14 22:33:42:352,0,-12.975,-1.28948,22.111,Q,Q
2023-03-14 22:33:42:362,0,-12.9695,-1.34583,22.0232,Q,Q
2023-03-14 22:33:42:372,0,-12.9586,-1.38908,21.9365,Q,Q
2023-03-14 22:33:42:382,0,-12.9409,-1.41633,21.856,Q,Q
2023-03-14 22:33:42:392,0,-12.9248,-1.43787,21.7883,Q,Q
2023-03-14 22:33:42:402,0,-12.9104,-1.45527,21.7402,Q,Q
2023-03-14 22:33:42:412,0,-12.9074,-1.46218,21.7107,Q,Q
2023-03-14 22:33:42:422,0,-12.914,-1.46697,21.6943,Q,Q
2023-03-14 22:33:42:432,0,-12.9345,-1.47998,21.6929,Q,Q
2023-03-14 22:33:42:442,0,-12.9657,-1.48889,21.7012,Q,Q
2023-03-14 22:33:42:452,0,-12.9952,-1.49605,21.7205,Q,Q
2023-03-14 22:33:42:462,0,-13.0184,-1.49984,21.7423,Q,Q
2023-03-14 22:33:42:472,0,-13.0367,-1.5029,21.7766,Q,Q
2023-03-14 22:33:42:482,0,-13.0509,-1.50655,21.8187,Q,Q
2023-03-14 22:33:42:492,0,-13.0705,-1.52193,21.869,Q,Q
2023-03-14 22:33:42:502,0,-13.095,-1.54284,21.9249,Q,Q
2023-03-14 22:33:42:512,0,-13.1164,-1.57274,21.9727,Q,Q
2023-03-14 22:33:42:522,0,-13.1345,-1.59829,22.0128,Q,Q
2023-03-14 22:33:42:532,0,-13.1409,-1.61023,22.0402,Q,Q
2023-03-14 22:33:42:542,0,-13.1299,-1.61409,22.0548,Q,Q
2023-03-14 22:33:42:552,0,-13.1056,-1.61141,22.0565,Q,Q
2023-03-14 22:33:42:562,0,-13.0792,-1.60638,22.0418,Q,Q
2023-03-14 22:33:42:573,0,-13.06,-1.59966,22.0302,Q,Q
2023-03-14 22:33:42:582,0,-13.0487,-1.59376,22.0237,Q,Q
2023-03-14 22:33:42:593,0,-13.0482,-1.5983,22.0188,Q,Q
2023-03-14 22:33:42:602,0,-13.0509,-1.60536,22.0227,Q,Q
2023-03-14 22:33:42:612,0,-13.0601,-1.61356,22.0337,Q,Q
2023-03-14 22:33:42:622,0,-13.0719,-1.6267,22.0559,Q,Q
2023-03-14 22:33:42:632,0,-13.0926,-1.64895,22.0891,Q,Q
2023-03-14 22:33:42:642,0,-13.1204,-1.67978,22.1368,Q,Q
2023-03-14 22:33:42:652,0,-13.1495,-1.73382,22.2053,Q,Q
2023-03-14 22:33:42:662,0,-13.1876,-1.79832,22.2854,Q,Q
2023-03-14 22:33:42:673,0,-13.2157,-1.85731,22.3658,Q,Q
2023-03-14 22:33:42:682,0,-13.2302,-1.92093,22.4451,Q,Q
2023-03-14 22:33:42:692,0,-13.2294,-1.98034,22.515,Q,Q
2023-03-14 22:33:42:702,0,-13.208,-2.01146,22.5778,Q,Q
2023-03-14 22:33:42:712,0,-13.1737,-2.02965,22.6271,Q,Q
2023-03-14 22:33:42:722,0,-13.1303,-2.03863,22.6641,Q,Q
2023-03-14 22:33:42:732,0,-13.0876,-2.04104,22.6904,Q,Q
2023-03-14 22:33:42:742,0,-13.0455,-2.04283,22.7074,Q,Q
2023-03-14 22:33:42:752,0,-13.0055,-2.0521,22.7165,Q,Q
2023-03-14 22:33:42:762,0,-12.9712,-2.07058,22.7235,Q,Q
2023-03-14 22:33:42:772,0,-12.9394,-2.09321,22.7248,Q,Q
2023-03-14 22:33:42:782,0,-12.9087,-2.1153,22.7206,Q,Q
2023-03-14 22:33:42:792,0,-12.8701,-2.13402,22.7083,Q,Q
2023-03-14 22:33:42:802,0,-12.8354,-2.14041,22.6869,Q,Q
2023-03-14 22:33:42:812,0,-12.8096,-2.14626,22.6573,Q,Q
2023-03-14 22:33:42:822,0,-12.7911,-2.1514,22.6283,Q,Q
2023-03-14 22:33:42:832,0,-12.7748,-2.15141,22.6024,Q,Q
2023-03-14 22:33:42:842,0,-12.7678,-2.14116,22.5861,Q,Q
2023-03-14 22:33:42:852,0,-12.7648,-2.12603,22.5771,Q,Q
2023-03-14 22:33:42:862,0,-12.7688,-2.10215,22.577,Q,Q
2023-03-14 22:33:42:872,0,-12.7802,-2.07727,22.5811,Q,Q
2023-03-14 22:33:42:882,0,-12.7965,-2.05216,22.5901,Q,Q
2023-03-14 22:33:42:892,0,-12.8219,-2.02897,22.6027,Q,Q
2023-03-14 22:33:42:902,0,-12.8555,-2.01326,22.62,Q,Q
2023-03-14 22:33:42:912,0,-12.8964,-2.00679,22.6472,Q,Q
2023-03-14 22:33:42:922,0,-12.9363,-2.01367,22.68,Q,Q
2023-03-14 22:33:42:932,0,-12.975,-2.03186,22.7129,Q,Q
2023-03-14 22:33:42:942,0,-13.0002,-2.05333,22.7429,Q,Q
2023-03-14 22:33:42:952,0,-13.0098,-2.07524,22.766,Q,Q
2023-03-14 22:33:42:962,0,-13.0059,-2.11031,22.77,Q,Q
2023-03-14 22:33:42:972,0,-13.0014,-2.14446,22.7764,Q,Q
2023-03-14 22:33:42:982,0,-13.0011,-2.18753,22.7798,Q,Q
2023-03-14 22:33:42:992,0,-13.0051,-2.2047,22.7865,Q,Q
2023-03-14 22:33:43:2,0,-12.9945,-2.19753,22.7881,Q,Q
2023-03-14 22:33:43:12,0,-12.9576,-2.17118,22.778,Q,Q
2023-03-14 22:33:43:22,0,-12.9117,-2.14102,22.762,Q,Q
2023-03-14 22:33:43:32,0,-12.8737,-2.1261,22.7489,Q,Q
2023-03-14 22:33:43:42,0,-12.8851,-2.19431,22.7356,Q,Q
2023-03-14 22:33:43:52,0,-12.9233,-2.21314,22.7722,Q,Q
2023-03-14 22:33:43:62,0,-12.9567,-2.21876,22.7965,Q,Q
2023-03-14 22:33:43:72,0,-12.9721,-2.26013,22.8033,Q,Q
2023-03-14 22:33:43:82,0,-12.9777,-2.30663,22.7972,Q,Q
2023-03-14 22:33:43:92,0,-12.9734,-2.31075,22.8021,Q,Q
2023-03-14 22:33:43:102,0,-12.9399,-2.27346,22.805,Q,Q
2023-03-14 22:33:43:112,0,-12.8848,-2.2583,22.7823,Q,Q
2023-03-14 22:33:43:122,0,-12.8441,-2.25377,22.7484,Q,Q
2023-03-14 22:33:43:132,0,-12.8214,-2.24771,22.7194,Q,Q
2023-03-14 22:33:43:142,0,-12.8208,-2.27081,22.6991,Q,Q
2023-03-14 22:33:43:152,0,-12.8744,-2.33462,22.684,Q,Q
2023-03-14 22:33:43:162,0,-12.9492,-2.38071,22.6865,Q,Q
2023-03-14 22:33:43:172,0,-12.9953,-2.34397,22.7186,Q,Q
2023-03-14 22:33:43:182,0,-12.9841,-2.27057,22.7456,Q,Q
2023-03-14 22:33:43:192,0,-12.964,-2.29226,22.7362,Q,Q
2023-03-14 22:33:43:202,0,-12.9787,-2.31633,22.7284,Q,Q
2023-03-14 22:33:43:212,0,-13.0141,-2.33189,22.7288,Q,Q
2023-03-14 22:33:43:222,0,-13.0502,-2.36223,22.7194,Q,Q
2023-03-14 22:33:43:232,0,-13.0847,-2.39385,22.7083,Q,Q
2023-03-14 22:33:43:242,0,-13.1249,-2.4216,22.6955,Q,Q
2023-03-14 22:33:43:252,0,-13.1664,-2.44386,22.6864,Q,Q
2023-03-14 22:33:43:262,0,-13.212,-2.47206,22.6878,Q,Q
2023-03-14 22:33:43:272,0,-13.2598,-2.50232,22.6969,Q,Q
2023-03-14 22:33:43:282,0,-13.3087,-2.52786,22.7077,Q,Q
2023-03-14 22:33:43:292,0,-13.3477,-2.54856,22.7161,Q,Q
2023-03-14 22:33:43:302,0,-13.372,-2.56539,22.7199,Q,Q
2023-03-14 22:33:43:312,0,-13.3938,-2.58247,22.7146,Q,Q
2023-03-14 22:33:43:322,0,-13.4153,-2.60598,22.7095,Q,Q
2023-03-14 22:33:43:332,0,-13.4433,-2.64058,22.7086,Q,Q
2023-03-14 22:33:43:342,0,-13.4857,-2.68158,22.7067,Q,Q
2023-03-14 22:33:43:352,0,-13.5358,-2.71544,22.7109,Q,Q
2023-03-14 22:33:43:362,0,-13.5722,-2.70986,22.7196,Q,Q
2023-03-14 22:33:43:372,0,-13.5818,-2.66543,22.73,Q,Q
2023-03-14 22:33:43:382,0,-13.5774,-2.64418,22.7344,Q,Q
2023-03-14 22:33:43:392,0,-13.5837,-2.63727,22.7368,Q,Q
2023-03-14 22:33:43:402,0,-13.5996,-2.60657,22.7627,Q,Q
2023-03-14 22:33:43:412,0,-13.613,-2.56656,22.7958,Q,Q
2023-03-14 22:33:43:422,0,-13.6164,-2.52205,22.8283,Q,Q
2023-03-14 22:33:43:432,0,-13.6139,-2.47752,22.862,Q,Q
2023-03-14 22:33:43:442,0,-13.617,-2.44678,22.9022,Q,Q
2023-03-14 22:33:43:452,0,-13.6319,-2.42153,22.9482,Q,Q
2023-03-14 22:33:43:462,0,-13.6553,-2.40621,22.9999,Q,Q
2023-03-14 22:33:43:472,0,-13.6874,-2.40003,23.051,Q,Q
2023-03-14 22:33:43:482,0,-13.7199,-2.39803,23.0977,Q,Q
2023-03-14 22:33:43:492,0,-13.7526,-2.40045,23.1406,Q,Q
2023-03-14 22:33:43:502,0,-13.7812,-2.40494,23.1868,Q,Q
2023-03-14 22:33:43:512,0,-13.8141,-2.40907,23.2302,Q,Q
2023-03-14 22:33:43:522,0,-13.842,-2.41694,23.2727,Q,Q
2023-03-14 22:33:43:532,0,-13.8676,-2.4325,23.3208,Q,Q
2023-03-14 22:33:43:542,0,-13.8913,-2.44976,23.3695,Q,Q
2023-03-14 22:33:43:552,0,-13.91,-2.47042,23.4144,Q,Q
2023-03-14 22:33:43:562,0,-13.9308,-2.50219,23.4535,Q,Q
2023-03-14 22:33:43:572,0,-13.9522,-2.54213,23.4878,Q,Q
2023-03-14 22:33:43:582,0,-13.9686,-2.58777,23.5251,Q,Q
2023-03-14 22:33:43:592,0,-13.992,-2.63963,23.5595,Q,Q
2023-03-14 22:33:43:602,0,-14.014,-2.69063,23.5919,Q,Q
2023-03-14 22:33:43:612,0,-14.0374,-2.74512,23.6228,Q,Q
2023-03-14 22:33:43:622,0,-14.0631,-2.79107,23.6496,Q,Q
2023-03-14 22:33:43:632,0,-14.0809,-2.8305,23.6728,Q,Q
2023-03-14 22:33:43:642,0,-14.0951,-2.866,23.692,Q,Q
2023-03-14 22:33:43:652,0,-14.1016,-2.89524,23.7076,Q,Q
2023-03-14 22:33:43:662,0,-14.105,-2.90806,23.7198,Q,Q
2023-03-14 22:33:43:672,0,-14.108,-2.91303,23.7299,Q,Q
2023-03-14 22:33:43:682,0,-14.1083,-2.90769,23.7406,Q,Q
2023-03-14 22:33:43:692,0,-14.1047,-2.89643,23.7496,Q,Q
2023-03-14 22:33:43:702,0,-14.0939,-2.87829,23.7721,Q,Q
2023-03-14 22:33:43:712,0,-14.0923,-2.85937,23.7895,Q,Q
2023-03-14 22:33:43:722,0,-14.0904,-2.83845,23.8062,Q,Q
2023-03-14 22:33:43:732,0,-14.0864,-2.81549,23.8306,Q,Q
2023-03-14 22:33:43:742,0,-14.0858,-2.79242,23.8533,Q,Q
2023-03-14 22:33:43:752,0,-14.0829,-2.77391,23.8778,Q,Q
2023-03-14 22:33:43:762,0,-14.0776,-2.75912,23.9085,Q,Q
2023-03-14 22:33:43:772,0,-14.0721,-2.74775,23.9337,Q,Q
2023-03-14 22:33:43:782,0,-14.0688,-2.73554,23.9577,Q,Q
2023-03-14 22:33:43:792,0,-14.0677,-2.72964,23.9817,Q,Q
2023-03-14 22:33:43:802,0,-14.0656,-2.71931,24.0025,Q,Q
2023-03-14 22:33:43:812,0,-14.0627,-2.7179,24.0259,Q,Q
2023-03-14 22:33:43:822,0,-14.0621,-2.71356,24.0487,Q,Q
2023-03-14 22:33:43:832,0,-14.063,-2.71451,24.0712,Q,Q
2023-03-14 22:33:43:842,0,-14.0598,-2.71313,24.0887,Q,Q
2023-03-14 22:33:43:852,0,-14.0543,-2.71178,24.0996,Q,Q
2023-03-14 22:33:43:862,0,-14.0482,-2.71027,24.102,Q,Q
2023-03-14 22:33:43:872,0,-14.0419,-2.70483,24.1053,Q,Q
2023-03-14 22:33:43:882,0,-14.0358,-2.7026,24.1087,Q,Q
2023-03-14 22:33:43:892,0,-14.0326,-2.6971,24.11,Q,Q
2023-03-14 22:33:43:902,0,-14.0327,-2.69329,24.1117,Q,Q
2023-03-14 22:33:43:912,0,-14.0351,-2.69281,24.1086,Q,Q
2023-03-14 22:33:43:922,0,-14.0402,-2.69144,24.1027,Q,Q
2023-03-14 22:33:43:932,0,-14.0433,-2.69118,24.0984,Q,Q
2023-03-14 22:33:43:942,0,-14.0505,-2.68973,24.0959,Q,Q
2023-03-14 22:33:43:952,0,-14.0594,-2.69054,24.09,Q,Q
2023-03-14 22:33:43:962,0,-14.0676,-2.69199,24.0861,Q,Q
2023-03-14 22:33:43:972,0,-14.0784,-2.69733,24.0832,Q,Q
2023-03-14 22:33:43:982,0,-14.0855,-2.69539,24.0767,Q,Q
2023-03-14 22:33:43:992,0,-14.0916,-2.69915,24.0707,Q,Q
2023-03-14 22:33:44:2,0,-14.0917,-2.69932,24.0607,Q,Q
2023-03-14 22:33:44:12,0,-14.0822,-2.69755,24.0586,Q,Q
2023-03-14 22:33:44:22,0,-14.0815,-2.69759,24.0506,Q,Q
2023-03-14 22:33:44:32,0,-14.0818,-2.69904,24.0392,Q,Q
2023-03-14 22:33:44:42,0,-14.0821,-2.69901,24.0281,Q,Q
2023-03-14 22:33:44:52,0,-14.081,-2.6984,24.0235,Q,Q
2023-03-14 22:33:44:62,0,-14.0802,-2.69862,24.0213,Q,Q
2023-03-14 22:33:44:72,0,-14.0792,-2.69408,24.0185,Q,Q
2023-03-14 22:33:44:82,0,-14.0784,-2.69112,24.0198,Q,Q
2023-03-14 22:33:44:92,0,-14.0771,-2.68759,24.0221,Q,Q
2023-03-14 22:33:44:102,0,-14.0758,-2.68731,24.0234,Q,Q
2023-03-14 22:33:44:112,0,-14.0703,-2.68352,24.0263,Q,Q
2023-03-14 22:33:44:122,0,-14.0623,-2.68245,24.0303,Q,Q
2023-03-14 22:33:44:132,0,-14.0541,-2.68083,24.0354,Q,Q
2023-03-14 22:33:44:142,0,-14.0445,-2.68047,24.0387,Q,Q
2023-03-14 22:33:44:152,0,-14.0331,-2.68121,24.0378,Q,Q
2023-03-14 22:33:44:162,0,-14.0242,-2.68528,24.0368,Q,Q
2023-03-14 22:33:44:172,0,-14.0154,-2.68607,24.0364,Q,Q
2023-03-14 22:33:44:182,0,-14.0079,-2.68505,24.0367,Q,Q
2023-03-14 22:33:44:192,0,-14.003,-2.68604,24.0353,Q,Q
2023-03-14 22:33:44:202,0,-14.0001,-2.68631,24.0394,Q,Q
2023-03-14 22:33:44:212,0,-14.002,-2.69056,24.0459,Q,Q
2023-03-14 22:33:44:222,0,-14.0033,-2.69486,24.0541,Q,Q
2023-03-14 22:33:44:232,0,-14.011,-2.69606,24.0656,Q,Q
2023-03-14 22:33:44:242,0,-14.0181,-2.69857,24.0781,Q,Q
2023-03-14 22:33:44:252,0,-14.0263,-2.69902,24.0907,Q,Q
2023-03-14 22:33:44:262,0,-14.0354,-2.70116,24.1017,Q,Q
2023-03-14 22:33:44:272,0,-14.0412,-2.70237,24.1117,Q,Q
2023-03-14 22:33:44:282,0,-14.0494,-2.70414,24.1204,Q,Q
2023-03-14 22:33:44:292,0,-14.0605,-2.70717,24.1305,Q,Q
2023-03-14 22:33:44:302,0,-14.0675,-2.70858,24.1393,Q,Q
2023-03-14 22:33:44:312,0,-14.0707,-2.70935,24.146,Q,Q
2023-03-14 22:33:44:322,0,-14.0731,-2.70909,24.1573,Q,Q
2023-03-14 22:33:44:332,0,-14.0703,-2.70689,24.1659,Q,Q
2023-03-14 22:33:44:342,0,-14.0639,-2.70389,24.1729,Q,Q
2023-03-14 22:33:44:352,0,-14.0587,-2.69617,24.1814,Q,Q
2023-03-14 22:33:44:362,0,-14.0519,-2.68152,24.1881,Q,Q
2023-03-14 22:33:44:372,0,-14.0449,-2.65925,24.1929,Q,Q
2023-03-14 22:33:44:382,0,-14.0288,-2.62846,24.1986,Q,Q
2023-03-14 22:33:44:392,0,-14.0115,-2.59732,24.1998,Q,Q
2023-03-14 22:33:44:402,0,-13.9886,-2.56385,24.2055,Q,Q
2023-03-14 22:33:44:412,0,-13.9645,-2.52395,24.2123,Q,Q
2023-03-14 22:33:44:422,0,-13.9373,-2.47685,24.2166,Q,Q
2023-03-14 22:33:44:432,0,-13.9047,-2.4478,24.2132,Q,Q
2023-03-14 22:33:44:442,0,-13.883,-2.45946,24.2045,Q,Q
2023-03-14 22:33:44:452,0,-13.8765,-2.46036,24.1986,Q,Q
2023-03-14 22:33:44:462,0,-13.863,-2.4562,24.1987,Q,Q
2023-03-14 22:33:44:472,0,-13.8419,-2.4663,24.194,Q,Q
2023-03-14 22:33:44:482,0,-13.8236,-2.48008,24.1925,Q,Q
2023-03-14 22:33:44:492,0,-13.8055,-2.48714,24.1998,Q,Q
2023-03-14 22:33:44:502,0,-13.7851,-2.50193,24.2046,Q,Q
2023-03-14 22:33:44:512,0,-13.7645,-2.51216,24.2069,Q,Q
2023-03-14 22:33:44:522,0,-13.747,-2.51622,24.206,Q,Q
2023-03-14 22:33:44:532,0,-13.7336,-2.5152,24.2025,Q,Q
2023-03-14 22:33:44:542,0,-13.721,-2.51328,24.2048,Q,Q
2023-03-14 22:33:44:552,0,-13.7132,-2.5083,24.207,Q,Q
2023-03-14 22:33:44:562,0,-13.7169,-2.50415,24.2075,Q,Q
2023-03-14 22:33:44:572,0,-13.7271,-2.49753,24.2132,Q,Q
2023-03-14 22:33:44:582,0,-13.7383,-2.4894,24.225,Q,Q
2023-03-14 22:33:44:592,0,-13.7539,-2.48701,24.2375,Q,Q
2023-03-14 22:33:44:602,0,-13.7689,-2.4875,24.2423,Q,Q
2023-03-14 22:33:44:612,0,-13.7889,-2.493,24.251,Q,Q
2023-03-14 22:33:44:622,0,-13.814,-2.50231,24.2614,Q,Q
2023-03-14 22:33:44:632,0,-13.8432,-2.51074,24.2721,Q,Q
2023-03-14 22:33:44:642,0,-13.8699,-2.50057,24.2908,Q,Q
2023-03-14 22:33:44:652,0,-13.8811,-2.47931,24.3061,Q,Q
2023-03-14 22:33:44:662,0,-13.8883,-2.4713,24.3113,Q,Q
2023-03-14 22:33:44:672,0,-13.9006,-2.45808,24.3252,Q,Q
2023-03-14 22:33:44:682,0,-13.9135,-2.43134,24.3511,Q,Q
2023-03-14 22:33:44:692,0,-13.916,-2.40329,24.3731,Q,Q
2023-03-14 22:33:44:702,0,-13.9138,-2.37564,24.392,Q,Q
2023-03-14 22:33:44:712,0,-13.907,-2.35209,24.4078,Q,Q
2023-03-14 22:33:44:722,0,-13.9057,-2.33322,24.4222,Q,Q
2023-03-14 22:33:44:732,0,-13.9125,-2.31939,24.4383,Q,Q
2023-03-14 22:33:44:742,0,-13.9202,-2.31495,24.4545,Q,Q
2023-03-14 22:33:44:752,0,-13.9269,-2.31067,24.4746,Q,Q
2023-03-14 22:33:44:762,0,-13.9305,-2.31708,24.4999,Q,Q
2023-03-14 22:33:44:772,0,-13.9323,-2.32672,24.5253,Q,Q
2023-03-14 22:33:44:782,0,-13.9313,-2.34096,24.5492,Q,Q
2023-03-14 22:33:44:792,0,-13.9268,-2.34787,24.5754,Q,Q
2023-03-14 22:33:44:802,0,-13.9186,-2.35089,24.6017,Q,Q
2023-03-14 22:33:44:812,0,-13.9117,-2.34953,24.6281,Q,Q
2023-03-14 22:33:44:822,0,-13.901,-2.34556,24.6513,Q,Q
2023-03-14 22:33:44:832,0,-13.8878,-2.3324,24.6717,Q,Q
2023-03-14 22:33:44:842,0,-13.874,-2.31874,24.6871,Q,Q
2023-03-14 22:33:44:852,0,-13.8621,-2.297,24.7055,Q,Q
2023-03-14 22:33:44:862,0,-13.8547,-2.27935,24.7191,Q,Q
2023-03-14 22:33:44:872,0,-13.848,-2.25739,24.7311,Q,Q
2023-03-14 22:33:44:882,0,-13.8418,-2.2338,24.746,Q,Q
2023-03-14 22:33:44:892,0,-13.8378,-2.20998,24.7594,Q,Q
2023-03-14 22:33:44:902,0,-13.8371,-2.18557,24.7793,Q,Q
2023-03-14 22:33:44:912,0,-13.8319,-2.14066,24.7977,Q,Q
2023-03-14 22:33:44:922,0,-13.825,-2.1027,24.814,Q,Q
2023-03-14 22:33:44:932,0,-13.8055,-2.0329,24.8246,Q,Q
2023-03-14 22:33:44:942,0,-13.7807,-1.98163,24.8349,Q,Q
2023-03-14 22:33:44:952,0,-13.7637,-1.9271,24.8476,Q,Q
2023-03-14 22:33:44:962,0,-13.7564,-1.88632,24.8602,Q,Q
2023-03-14 22:33:44:972,0,-13.7554,-1.85514,24.8765,Q,Q
2023-03-14 22:33:44:982,0,-13.7548,-1.83219,24.8897,Q,Q
2023-03-14 22:33:44:992,0,-13.7574,-1.81334,24.9009,Q,Q
2023-03-14 22:33:45:2,0,-13.7644,-1.78544,24.9156,Q,Q
2023-03-14 22:33:45:12,0,-13.7705,-1.75201,24.9357,Q,Q
2023-03-14 22:33:45:22,0,-13.7724,-1.71633,24.9597,Q,Q
2023-03-14 22:33:45:32,0,-13.7745,-1.6818,24.9851,Q,Q
2023-03-14 22:33:45:42,0,-13.7748,-1.6542,25.0107,Q,Q
2023-03-14 22:33:45:52,0,-13.7714,-1.62685,25.041,Q,Q
2023-03-14 22:33:45:62,0,-13.7678,-1.59797,25.0652,Q,Q
2023-03-14 22:33:45:72,0,-13.7561,-1.56498,25.0865,Q,Q
2023-03-14 22:33:45:82,0,-13.7424,-1.53053,25.1056,Q,Q
2023-03-14 22:33:45:92,0,-13.7188,-1.49611,25.1221,Q,Q
2023-03-14 22:33:45:102,0,-13.6953,-1.46135,25.142,Q,Q
2023-03-14 22:33:45:112,0,-13.6742,-1.4307,25.1578,Q,Q
2023-03-14 22:33:45:122,0,-13.6631,-1.40904,25.1733,Q,Q
2023-03-14 22:33:45:132,0,-13.6517,-1.39497,25.1904,Q,Q
2023-03-14 22:33:45:142,0,-13.6447,-1.38454,25.2071,Q,Q
2023-03-14 22:33:45:152,0,-13.6378,-1.37394,25.2252,Q,Q
2023-03-14 22:33:45:162,0,-13.6313,-1.36527,25.2385,Q,Q
2023-03-14 22:33:45:172,0,-13.6255,-1.36049,25.2531,Q,Q
2023-03-14 22:33:45:182,0,-13.624,-1.36494,25.2671,Q,Q
2023-03-14 22:33:45:192,0,-13.6271,-1.37233,25.2834,Q,Q
2023-03-14 22:33:45:202,0,-13.6332,-1.38396,25.3,Q,Q
2023-03-14 22:33:45:212,0,-13.6404,-1.40357,25.3211,Q,Q
2023-03-14 22:33:45:222,0,-13.6586,-1.4253,25.3456,Q,Q
2023-03-14 22:33:45:232,0,-13.6808,-1.44924,25.3697,Q,Q
2023-03-14 22:33:45:242,0,-13.7057,-1.47662,25.3949,Q,Q
2023-03-14 22:33:45:252,0,-13.7314,-1.50268,25.4202,Q,Q
2023-03-14 22:33:45:262,0,-13.7584,-1.53928,25.4388,Q,Q
2023-03-14 22:33:45:272,0,-13.7946,-1.57747,25.4636,Q,Q
2023-03-14 22:33:45:282,0,-13.8263,-1.59996,25.4853,Q,Q
2023-03-14 22:33:45:292,0,-13.8544,-1.62715,25.5058,Q,Q
2023-03-14 22:33:45:302,0,-13.8754,-1.64923,25.5263,Q,Q
2023-03-14 22:33:45:312,0,-13.9004,-1.6701,25.5455,Q,Q
2023-03-14 22:33:45:322,0,-13.9226,-1.69287,25.5609,Q,Q
2023-03-14 22:33:45:332,0,-13.944,-1.72124,25.5736,Q,Q
2023-03-14 22:33:45:342,0,-13.9643,-1.74426,25.5828,Q,Q
2023-03-14 22:33:45:352,0,-13.9801,-1.76136,25.5854,Q,Q
2023-03-14 22:33:45:362,0,-13.9904,-1.77036,25.5815,Q,Q
2023-03-14 22:33:45:372,0,-13.9997,-1.76954,25.5733,Q,Q
2023-03-14 22:33:45:382,0,-13.9991,-1.76306,25.5551,Q,Q
2023-03-14 22:33:45:392,0,-13.9959,-1.757,25.5305,Q,Q
2023-03-14 22:33:45:402,0,-13.9951,-1.74856,25.501,Q,Q
2023-03-14 22:33:45:412,0,-13.9928,-1.73734,25.4697,Q,Q
2023-03-14 22:33:45:422,0,-13.9877,-1.72422,25.4364,Q,Q
2023-03-14 22:33:45:432,0,-13.9866,-1.71501,25.4015,Q,Q
2023-03-14 22:33:45:442,0,-13.9852,-1.70448,25.3731,Q,Q
2023-03-14 22:33:45:452,0,-13.9853,-1.68984,25.347,Q,Q
2023-03-14 22:33:45:462,0,-13.9854,-1.67286,25.3237,Q,Q
2023-03-14 22:33:45:472,0,-13.9828,-1.65286,25.3028,Q,Q
2023-03-14 22:33:45:482,0,-13.9809,-1.63382,25.2839,Q,Q
2023-03-14 22:33:45:492,0,-13.9765,-1.61508,25.2708,Q,Q
2023-03-14 22:33:45:502,0,-13.9736,-1.59707,25.2576,Q,Q
2023-03-14 22:33:45:512,0,-13.9683,-1.57729,25.2426,Q,Q
2023-03-14 22:33:45:522,0,-13.9645,-1.56019,25.2248,Q,Q
2023-03-14 22:33:45:532,0,-13.9632,-1.54318,25.2036,Q,Q
2023-03-14 22:33:45:542,0,-13.9594,-1.52676,25.1847,Q,Q
2023-03-14 22:33:45:552,0,-13.9586,-1.51317,25.1651,Q,Q
2023-03-14 22:33:45:562,0,-13.9604,-1.50058,25.1462,Q,Q
2023-03-14 22:33:45:572,0,-13.9621,-1.48838,25.1303,Q,Q
2023-03-14 22:33:45:582,0,-13.9612,-1.477,25.1168,Q,Q
2023-03-14 22:33:45:592,0,-13.971,-1.46909,25.1085,Q,Q
2023-03-14 22:33:45:602,0,-13.9867,-1.46463,25.1058,Q,Q
2023-03-14 22:33:45:612,0,-14.0065,-1.46288,25.1046,Q,Q
2023-03-14 22:33:45:622,0,-14.0277,-1.46259,25.1032,Q,Q
2023-03-14 22:33:45:632,0,-14.0474,-1.46072,25.1083,Q,Q
2023-03-14 22:33:45:642,0,-14.0594,-1.45982,25.1092,Q,Q
2023-03-14 22:33:45:652,0,-14.0703,-1.45959,25.1037,Q,Q
2023-03-14 22:33:45:662,0,-14.0842,-1.4598,25.0944,Q,Q
2023-03-14 22:33:45:672,0,-14.0962,-1.46013,25.0872,Q,Q
2023-03-14 22:33:45:682,0,-14.1019,-1.4609,25.0808,Q,Q
2023-03-14 22:33:45:692,0,-14.0984,-1.46451,25.0738,Q,Q
2023-03-14 22:33:45:702,0,-14.0943,-1.46634,25.0589,Q,Q
2023-03-14 22:33:45:712,0,-14.0887,-1.47113,25.0484,Q,Q
2023-03-14 22:33:45:722,0,-14.0744,-1.47028,25.0435,Q,Q
2023-03-14 22:33:45:732,0,-14.0537,-1.47205,25.039,Q,Q
2023-03-14 22:33:45:742,0,-14.033,-1.46808,25.0305,Q,Q
2023-03-14 22:33:45:752,0,-14.0037,-1.46115,25.0151,Q,Q
2023-03-14 22:33:45:762,0,-13.9672,-1.45196,24.9904,Q,Q
2023-03-14 22:33:45:772,0,-13.9264,-1.44067,24.9573,Q,Q
2023-03-14 22:33:45:782,0,-13.8841,-1.42267,24.928,Q,Q
2023-03-14 22:33:45:792,0,-13.8424,-1.40059,24.9001,Q,Q
2023-03-14 22:33:45:802,0,-13.8043,-1.37874,24.8761,Q,Q
2023-03-14 22:33:45:812,0,-13.7712,-1.35998,24.8548,Q,Q
2023-03-14 22:33:45:822,0,-13.7533,-1.34652,24.8367,Q,Q
2023-03-14 22:33:45:832,0,-13.7427,-1.34082,24.8267,Q,Q
2023-03-14 22:33:45:842,0,-13.7427,-1.33966,24.8263,Q,Q
2023-03-14 22:33:45:852,0,-13.7476,-1.34401,24.8252,Q,Q
2023-03-14 22:33:45:862,0,-13.7568,-1.34997,24.8259,Q,Q
2023-03-14 22:33:45:872,0,-13.7664,-1.35176,24.8293,Q,Q
2023-03-14 22:33:45:882,0,-13.7813,-1.35401,24.8315,Q,Q
2023-03-14 22:33:45:892,0,-13.7945,-1.3582,24.8359,Q,Q
2023-03-14 22:33:45:902,0,-13.8055,-1.36603,24.8401,Q,Q
2023-03-14 22:33:45:912,0,-13.8166,-1.37386,24.8452,Q,Q
2023-03-14 22:33:45:922,0,-13.8275,-1.38046,24.8519,Q,Q
2023-03-14 22:33:45:932,0,-13.8375,-1.39467,24.856,Q,Q
2023-03-14 22:33:45:942,0,-13.8484,-1.40852,24.8599,Q,Q
2023-03-14 22:33:45:952,0,-13.857,-1.42446,24.8688,Q,Q
2023-03-14 22:33:45:962,0,-13.8661,-1.4328,24.872,Q,Q
2023-03-14 22:33:45:972,0,-13.8752,-1.44274,24.8735,Q,Q
2023-03-14 22:33:45:982,0,-13.8843,-1.45364,24.8759,Q,Q
2023-03-14 22:33:45:992,0,-13.8988,-1.46473,24.8795,Q,Q
2023-03-14 22:33:46:2,0,-13.9072,-1.46729,24.8813,Q,Q
2023-03-14 22:33:46:12,0,-13.9058,-1.47141,24.8873,Q,Q
2023-03-14 22:33:46:22,0,-13.9034,-1.47865,24.8931,Q,Q
2023-03-14 22:33:46:32,0,-13.8999,-1.48292,24.9012,Q,Q
2023-03-14 22:33:46:42,0,-13.8929,-1.48898,24.9081,Q,Q
2023-03-14 22:33:46:52,0,-13.8853,-1.49466,24.9122,Q,Q
2023-03-14 22:33:46:62,0,-13.876,-1.50478,24.9154,Q,Q
2023-03-14 22:33:46:72,0,-13.8685,-1.51018,24.9156,Q,Q
2023-03-14 22:33:46:82,0,-13.8547,-1.5145,24.916,Q,Q
2023-03-14 22:33:46:92,0,-13.8362,-1.51933,24.9069,Q,Q
2023-03-14 22:33:46:102,0,-13.8156,-1.5169,24.8917,Q,Q
2023-03-14 22:33:46:112,0,-13.7919,-1.51361,24.8774,Q,Q
2023-03-14 22:33:46:122,0,-13.7742,-1.51027,24.8629,Q,Q
2023-03-14 22:33:46:132,0,-13.7651,-1.50862,24.8534,Q,Q
2023-03-14 22:33:46:142,0,-13.7686,-1.51782,24.8443,Q,Q
2023-03-14 22:33:46:152,0,-13.7879,-1.53084,24.843,Q,Q
2023-03-14 22:33:46:162,0,-13.8173,-1.54394,24.8587,Q,Q
2023-03-14 22:33:46:172,0,-13.8569,-1.56217,24.8774,Q,Q
2023-03-14 22:33:46:182,0,-13.8968,-1.57604,24.9039,Q,Q
2023-03-14 22:33:46:192,0,-13.9392,-1.58326,24.9362,Q,Q
2023-03-14 22:33:46:202,0,-13.9736,-1.58367,24.9633,Q,Q
2023-03-14 22:33:46:212,0,-13.9917,-1.57786,24.985,Q,Q
2023-03-14 22:33:46:222,0,-13.9967,-1.56527,24.9988,Q,Q
2023-03-14 22:33:46:232,0,-13.9878,-1.54367,25.008,Q,Q
2023-03-14 22:33:46:242,0,-13.9704,-1.50993,25.0209,Q,Q
2023-03-14 22:33:46:252,0,-13.9428,-1.46752,25.0173,Q,Q
2023-03-14 22:33:46:262,0,-13.9077,-1.41556,25.008,Q,Q
2023-03-14 22:33:46:272,0,-13.8709,-1.36083,24.992,Q,Q
2023-03-14 22:33:46:282,0,-13.8367,-1.30028,24.9723,Q,Q
2023-03-14 22:33:46:292,0,-13.8107,-1.24187,24.9454,Q,Q
2023-03-14 22:33:46:302,0,-13.7943,-1.19307,24.9138,Q,Q
2023-03-14 22:33:46:312,0,-13.7762,-1.15109,24.8847,Q,Q
2023-03-14 22:33:46:322,0,-13.7668,-1.1144,24.8574,Q,Q
2023-03-14 22:33:46:332,0,-13.7596,-1.07958,24.8348,Q,Q
2023-03-14 22:33:46:342,0,-13.7594,-1.06283,24.8162,Q,Q
2023-03-14 22:33:46:352,0,-13.7718,-1.06189,24.8024,Q,Q
2023-03-14 22:33:46:362,0,-13.7972,-1.07064,24.7884,Q,Q
2023-03-14 22:33:46:372,0,-13.8306,-1.08555,24.7797,Q,Q
2023-03-14 22:33:46:382,0,-13.8769,-1.10208,24.774,Q,Q
2023-03-14 22:33:46:392,0,-13.9274,-1.12339,24.7694,Q,Q
2023-03-14 22:33:46:402,0,-13.9725,-1.14205,24.7612,Q,Q
2023-03-14 22:33:46:412,0,-14.0062,-1.16665,24.75,Q,Q
2023-03-14 22:33:46:422,0,-14.033,-1.18743,24.7325,Q,Q
2023-03-14 22:33:46:432,0,-14.0535,-1.21262,24.7114,Q,Q
2023-03-14 22:33:46:442,0,-14.0721,-1.24503,24.6872,Q,Q
2023-03-14 22:33:46:452,0,-14.0961,-1.28115,24.6646,Q,Q
2023-03-14 22:33:46:462,0,-14.1221,-1.31577,24.6463,Q,Q
2023-03-14 22:33:46:472,0,-14.154,-1.35295,24.6334,Q,Q
2023-03-14 22:33:46:482,0,-14.1923,-1.3972,24.6292,Q,Q
2023-03-14 22:33:46:492,0,-14.2336,-1.44899,24.627,Q,Q
2023-03-14 22:33:46:502,0,-14.2707,-1.50519,24.6349,Q,Q
2023-03-14 22:33:46:512,0,-14.3039,-1.56298,24.6456,Q,Q
2023-03-14 22:33:46:522,0,-14.3284,-1.61477,24.6619,Q,Q
2023-03-14 22:33:46:532,0,-14.339,-1.66501,24.6804,Q,Q
2023-03-14 22:33:46:542,0,-14.3421,-1.71323,24.6971,Q,Q
2023-03-14 22:33:46:552,0,-14.344,-1.76296,24.7146,Q,Q
2023-03-14 22:33:46:562,0,-14.3494,-1.80967,24.7399,Q,Q
2023-03-14 22:33:46:572,0,-14.3676,-1.85833,24.7715,Q,Q
2023-03-14 22:33:46:582,0,-14.3817,-1.90208,24.7994,Q,Q
2023-03-14 22:33:46:592,0,-14.3908,-1.93594,24.8214,Q,Q
2023-03-14 22:33:46:602,0,-14.3902,-1.95663,24.8338,Q,Q
2023-03-14 22:33:46:612,0,-14.3896,-1.96922,24.8285,Q,Q
2023-03-14 22:33:46:622,0,-14.3919,-1.98121,24.8202,Q,Q
2023-03-14 22:33:46:632,0,-14.3992,-1.99327,24.8054,Q,Q
2023-03-14 22:33:46:642,0,-14.418,-2.01045,24.792,Q,Q
2023-03-14 22:33:46:653,0,-14.4396,-2.03428,24.775,Q,Q
2023-03-14 22:33:46:662,0,-14.4736,-2.08828,24.7512,Q,Q
2023-03-14 22:33:46:672,0,-14.4897,-2.14969,24.7276,Q,Q
2023-03-14 22:33:46:682,0,-14.5072,-2.19939,24.6894,Q,Q
2023-03-14 22:33:46:692,0,-14.5038,-2.23382,24.6364,Q,Q
2023-03-14 22:33:46:702,0,-14.4934,-2.26352,24.5854,Q,Q
2023-03-14 22:33:46:712,0,-14.4814,-2.3001,24.5402,Q,Q
2023-03-14 22:33:46:722,0,-14.4718,-2.34339,24.5017,Q,Q
2023-03-14 22:33:46:733,0,-14.4669,-2.3828,24.4638,Q,Q
2023-03-14 22:33:46:742,0,-14.4586,-2.42878,24.4306,Q,Q
2023-03-14 22:33:46:752,0,-14.455,-2.47543,24.4075,Q,Q
2023-03-14 22:33:46:762,0,-14.4612,-2.53758,24.3784,Q,Q
2023-03-14 22:33:46:772,0,-14.4953,-2.64111,24.3443,Q,Q
2023-03-14 22:33:46:782,0,-14.5411,-2.70062,24.3386,Q,Q
2023-03-14 22:33:46:792,0,-14.5592,-2.66362,24.3339,Q,Q
2023-03-14 22:33:46:802,0,-14.5626,-2.6781,24.3018,Q,Q
2023-03-14 22:33:46:812,0,-14.5815,-2.69833,24.2718,Q,Q
2023-03-14 22:33:46:822,0,-14.6082,-2.71838,24.2548,Q,Q
2023-03-14 22:33:46:832,0,-14.648,-2.75098,24.2536,Q,Q
2023-03-14 22:33:46:842,0,-14.6833,-2.75951,24.2618,Q,Q
2023-03-14 22:33:46:852,0,-14.7149,-2.78672,24.2779,Q,Q
2023-03-14 22:33:46:862,0,-14.7427,-2.80816,24.2977,Q,Q
2023-03-14 22:33:46:872,0,-14.7666,-2.82565,24.3141,Q,Q
2023-03-14 22:33:46:882,0,-14.7828,-2.8345,24.3356,Q,Q
2023-03-14 22:33:46:892,0,-14.7837,-2.82764,24.353,Q,Q
2023-03-14 22:33:46:902,0,-14.7694,-2.81361,24.3634,Q,Q
2023-03-14 22:33:46:913,0,-14.7554,-2.80507,24.3708,Q,Q
2023-03-14 22:33:46:922,0,-14.7462,-2.78562,24.3854,Q,Q
2023-03-14 22:33:46:932,0,-14.74,-2.75758,24.4021,Q,Q
2023-03-14 22:33:46:942,0,-14.7403,-2.73929,24.4177,Q,Q
2023-03-14 22:33:46:952,0,-14.7528,-2.72117,24.438,Q,Q
2023-03-14 22:33:46:962,0,-14.7628,-2.69725,24.4649,Q,Q
2023-03-14 22:33:46:972,0,-14.767,-2.66552,24.4954,Q,Q
2023-03-14 22:33:46:982,0,-14.7642,-2.63153,24.5296,Q,Q
2023-03-14 22:33:46:992,0,-14.7546,-2.60428,24.5606,Q,Q
2023-03-14 22:33:47:2,0,-14.7435,-2.58655,24.5858,Q,Q
2023-03-14 22:33:47:12,0,-14.7331,-2.55301,24.6086,Q,Q
2023-03-14 22:33:47:22,0,-14.7138,-2.52287,24.6276,Q,Q
2023-03-14 22:33:47:32,0,-14.6919,-2.49237,24.6422,Q,Q
2023-03-14 22:33:47:42,0,-14.672,-2.46245,24.659,Q,Q
2023-03-14 22:33:47:52,0,-14.658,-2.43552,24.6746,Q,Q
2023-03-14 22:33:47:62,0,-14.6522,-2.40644,24.6973,Q,Q
2023-03-14 22:33:47:72,0,-14.6433,-2.38263,24.7221,Q,Q
2023-03-14 22:33:47:82,0,-14.635,-2.35056,24.7481,Q,Q
2023-03-14 22:33:47:92,0,-14.629,-2.32338,24.772,Q,Q
2023-03-14 22:33:47:102,0,-14.622,-2.2971,24.7936,Q,Q
2023-03-14 22:33:47:112,0,-14.6121,-2.27502,24.8158,Q,Q
2023-03-14 22:33:47:122,0,-14.6032,-2.25724,24.8397,Q,Q
2023-03-14 22:33:47:132,0,-14.5978,-2.24666,24.8681,Q,Q
2023-03-14 22:33:47:142,0,-14.5876,-2.23713,24.8913,Q,Q
2023-03-14 22:33:47:152,0,-14.5799,-2.23494,24.9083,Q,Q
2023-03-14 22:33:47:162,0,-14.5719,-2.23145,24.9174,Q,Q
2023-03-14 22:33:47:172,0,-14.5609,-2.22589,24.9253,Q,Q
2023-03-14 22:33:47:182,0,-14.5496,-2.2191,24.9292,Q,Q
2023-03-14 22:33:47:192,0,-14.54,-2.2169,24.9286,Q,Q
2023-03-14 22:33:47:202,0,-14.5299,-2.2136,24.9224,Q,Q
2023-03-14 22:33:47:212,0,-14.518,-2.21916,24.9155,Q,Q
2023-03-14 22:33:47:222,0,-14.5081,-2.2236,24.903,Q,Q
2023-03-14 22:33:47:232,0,-14.5032,-2.23826,24.8893,Q,Q
2023-03-14 22:33:47:242,0,-14.496,-2.251,24.8774,Q,Q
2023-03-14 22:33:47:252,0,-14.4891,-2.25864,24.8639,Q,Q
2023-03-14 22:33:47:262,0,-14.4835,-2.2712,24.8528,Q,Q
2023-03-14 22:33:47:272,0,-14.4764,-2.27927,24.8413,Q,Q
2023-03-14 22:33:47:282,0,-14.4663,-2.28203,24.8231,Q,Q
2023-03-14 22:33:47:292,0,-14.4555,-2.287,24.8035,Q,Q
2023-03-14 22:33:47:302,0,-14.4403,-2.28234,24.7868,Q,Q
2023-03-14 22:33:47:312,0,-14.4236,-2.27314,24.7673,Q,Q
2023-03-14 22:33:47:322,0,-14.4078,-2.26453,24.7482,Q,Q
2023-03-14 22:33:47:332,0,-14.394,-2.25814,24.7269,Q,Q
2023-03-14 22:33:47:342,0,-14.3815,-2.24985,24.707,Q,Q
2023-03-14 22:33:47:352,0,-14.3693,-2.23755,24.6884,Q,Q
2023-03-14 22:33:47:362,0,-14.3586,-2.22658,24.6739,Q,Q
2023-03-14 22:33:47:372,0,-14.3534,-2.21126,24.6629,Q,Q
2023-03-14 22:33:47:382,0,-14.3463,-2.19796,24.6561,Q,Q
2023-03-14 22:33:47:392,0,-14.3423,-2.18671,24.6512,Q,Q
2023-03-14 22:33:47:402,0,-14.3349,-2.1768,24.652,Q,Q
2023-03-14 22:33:47:412,0,-14.3312,-2.16633,24.6512,Q,Q
2023-03-14 22:33:47:422,0,-14.3274,-2.15973,24.6536,Q,Q
2023-03-14 22:33:47:432,0,-14.3213,-2.15333,24.6609,Q,Q
2023-03-14 22:33:47:442,0,-14.3158,-2.15389,24.6654,Q,Q
2023-03-14 22:33:47:452,0,-14.3078,-2.1555,24.6677,Q,Q
2023-03-14 22:33:47:462,0,-14.2978,-2.15356,24.6725,Q,Q
2023-03-14 22:33:47:472,0,-14.2836,-2.15475,24.6819,Q,Q
2023-03-14 22:33:47:482,0,-14.2616,-2.1538,24.7011,Q,Q
2023-03-14 22:33:47:492,0,-14.2501,-2.15535,24.7176,Q,Q
2023-03-14 22:33:47:502,0,-14.2383,-2.15354,24.7284,Q,Q
2023-03-14 22:33:47:512,0,-14.2273,-2.14937,24.7374,Q,Q
2023-03-14 22:33:47:522,0,-14.2169,-2.14658,24.7422,Q,Q
2023-03-14 22:33:47:532,0,-14.2042,-2.14765,24.7488,Q,Q
2023-03-14 22:33:47:542,0,-14.1948,-2.14762,24.7541,Q,Q
2023-03-14 22:33:47:552,0,-14.184,-2.14684,24.7598,Q,Q
2023-03-14 22:33:47:562,0,-14.1773,-2.14268,24.7658,Q,Q
2023-03-14 22:33:47:572,0,-14.1671,-2.1367,24.7746,Q,Q
2023-03-14 22:33:47:582,0,-14.1577,-2.13817,24.7864,Q,Q
2023-03-14 22:33:47:592,0,-14.1446,-2.1356,24.8022,Q,Q
2023-03-14 22:33:47:602,0,-14.1392,-2.14526,24.8188,Q,Q
2023-03-14 22:33:47:612,0,-14.1395,-2.15234,24.841,Q,Q
2023-03-14 22:33:47:622,0,-14.1376,-2.14741,24.8636,Q,Q
2023-03-14 22:33:47:632,0,-14.1327,-2.14691,24.8837,Q,Q
2023-03-14 22:33:47:642,0,-14.1259,-2.15342,24.898,Q,Q
2023-03-14 22:33:47:653,0,-14.1237,-2.16235,24.9097,Q,Q
2023-03-14 22:33:47:662,0,-14.1211,-2.17358,24.9216,Q,Q
2023-03-14 22:33:47:672,0,-14.1207,-2.18375,24.9287,Q,Q
2023-03-14 22:33:47:682,0,-14.1227,-2.19373,24.9352,Q,Q
2023-03-14 22:33:47:692,0,-14.1288,-2.20468,24.9374,Q,Q
2023-03-14 22:33:47:702,0,-14.1361,-2.21441,24.9395,Q,Q
2023-03-14 22:33:47:712,0,-14.1456,-2.22113,24.9344,Q,Q
2023-03-14 22:33:47:722,0,-14.1553,-2.22814,24.9251,Q,Q
2023-03-14 22:33:47:732,0,-14.1537,-2.23198,24.9134,Q,Q
2023-03-14 22:33:47:742,0,-14.1456,-2.23549,24.9036,Q,Q
2023-03-14 22:33:47:752,0,-14.1321,-2.23699,24.8921,Q,Q
2023-03-14 22:33:47:762,0,-14.1155,-2.23809,24.8859,Q,Q
2023-03-14 22:33:47:772,0,-14.1017,-2.23689,24.8778,Q,Q
2023-03-14 22:33:47:782,0,-14.0921,-2.23879,24.8682,Q,Q
2023-03-14 22:33:47:792,0,-14.0821,-2.24107,24.8595,Q,Q
2023-03-14 22:33:47:802,0,-14.0719,-2.24491,24.8503,Q,Q
2023-03-14 22:33:47:812,0,-14.0625,-2.24517,24.8436,Q,Q
2023-03-14 22:33:47:822,0,-14.0464,-2.24941,24.8328,Q,Q
2023-03-14 22:33:47:832,0,-14.0329,-2.25342,24.8187,Q,Q
2023-03-14 22:33:47:842,0,-14.018,-2.26197,24.8078,Q,Q
2023-03-14 22:33:47:852,0,-14.0076,-2.27902,24.8022,Q,Q
2023-03-14 22:33:47:862,0,-13.9951,-2.29564,24.8023,Q,Q
2023-03-14 22:33:47:872,0,-13.9823,-2.31558,24.803,Q,Q
2023-03-14 22:33:47:882,0,-13.9791,-2.33637,24.8025,Q,Q
2023-03-14 22:33:47:892,0,-13.9711,-2.35531,24.8039,Q,Q
2023-03-14 22:33:47:902,0,-13.9678,-2.37342,24.8076,Q,Q
2023-03-14 22:33:47:912,0,-13.9632,-2.39034,24.8079,Q,Q
2023-03-14 22:33:47:922,0,-13.9605,-2.4061,24.8116,Q,Q
2023-03-14 22:33:47:932,0,-13.9589,-2.42062,24.8183,Q,Q
2023-03-14 22:33:47:942,0,-13.9591,-2.43351,24.8235,Q,Q
2023-03-14 22:33:47:953,0,-13.9542,-2.44216,24.8266,Q,Q
2023-03-14 22:33:47:962,0,-13.9538,-2.45176,24.8284,Q,Q
2023-03-14 22:33:47:972,0,-13.9495,-2.46247,24.8272,Q,Q
2023-03-14 22:33:47:982,0,-13.9478,-2.47345,24.8275,Q,Q
2023-03-14 22:33:47:992,0,-13.9514,-2.48582,24.8249,Q,Q
2023-03-14 22:33:48:2,0,-13.9632,-2.49832,24.8297,Q,Q
2023-03-14 22:33:48:12,0,-13.9788,-2.50678,24.8314,Q,Q
2023-03-14 22:33:48:22,0,-13.9973,-2.51959,24.8356,Q,Q
2023-03-14 22:33:48:32,0,-14.0156,-2.53561,24.8382,Q,Q
2023-03-14 22:33:48:42,0,-14.0276,-2.54679,24.8411,Q,Q
2023-03-14 22:33:48:52,0,-14.0368,-2.55648,24.8441,Q,Q
2023-03-14 22:33:48:62,0,-14.0489,-2.56427,24.8449,Q,Q
2023-03-14 22:33:48:72,0,-14.0535,-2.56668,24.8439,Q,Q
2023-03-14 22:33:48:82,0,-14.0601,-2.56736,24.8428,Q,Q
2023-03-14 22:33:48:92,0,-14.0605,-2.56435,24.8447,Q,Q
2023-03-14 22:33:48:102,0,-14.0578,-2.55889,24.8356,Q,Q
2023-03-14 22:33:48:112,0,-14.0598,-2.56669,24.8237,Q,Q
2023-03-14 22:33:48:122,0,-14.0641,-2.57961,24.814,Q,Q
2023-03-14 22:33:48:132,0,-14.074,-2.57813,24.8095,Q,Q
2023-03-14 22:33:48:142,0,-14.0731,-2.56889,24.8038,Q,Q
2023-03-14 22:33:48:152,0,-14.0707,-2.56367,24.7935,Q,Q
2023-03-14 22:33:48:162,0,-14.0703,-2.55467,24.7825,Q,Q
2023-03-14 22:33:48:172,0,-14.0692,-2.54734,24.7779,Q,Q
2023-03-14 22:33:48:182,0,-14.0678,-2.53978,24.7675,Q,Q
2023-03-14 22:33:48:192,0,-14.0658,-2.52726,24.7544,Q,Q
2023-03-14 22:33:48:202,0,-14.0603,-2.51524,24.7395,Q,Q
2023-03-14 22:33:48:212,0,-14.0557,-2.50396,24.7234,Q,Q
2023-03-14 22:33:48:222,0,-14.0584,-2.49699,24.7118,Q,Q
2023-03-14 22:33:48:232,0,-14.0582,-2.48864,24.7048,Q,Q
2023-03-14 22:33:48:242,0,-14.0546,-2.48113,24.7009,Q,Q
2023-03-14 22:33:48:252,0,-14.0476,-2.4786,24.6966,Q,Q
2023-03-14 22:33:48:262,0,-14.0444,-2.47498,24.6967,Q,Q
2023-03-14 22:33:48:272,0,-14.04,-2.47212,24.7008,Q,Q
2023-03-14 22:33:48:282,0,-14.0313,-2.46987,24.7037,Q,Q
2023-03-14 22:33:48:292,0,-14.0193,-2.4702,24.704,Q,Q
2023-03-14 22:33:48:302,0,-14.0067,-2.46394,24.7048,Q,Q
2023-03-14 22:33:48:312,0,-13.9853,-2.43601,24.7083,Q,Q
2023-03-14 22:33:48:322,0,-13.9611,-2.40699,24.7117,Q,Q
2023-03-14 22:33:48:332,0,-13.9364,-2.38117,24.7113,Q,Q
2023-03-14 22:33:48:342,0,-13.9147,-2.3601,24.7111,Q,Q
2023-03-14 22:33:48:352,0,-13.9002,-2.33481,24.7103,Q,Q
2023-03-14 22:33:48:362,0,-13.8783,-2.30324,24.7096,Q,Q
2023-03-14 22:33:48:372,0,-13.8522,-2.27096,24.7101,Q,Q
2023-03-14 22:33:48:382,0,-13.8217,-2.23607,24.7088,Q,Q
2023-03-14 22:33:48:392,0,-13.8008,-2.23467,24.7046,Q,Q
2023-03-14 22:33:48:402,0,-13.8028,-2.2443,24.7011,Q,Q
2023-03-14 22:33:48:412,0,-13.805,-2.23217,24.705,Q,Q
2023-03-14 22:33:48:422,0,-13.799,-2.22252,24.7051,Q,Q
2023-03-14 22:33:48:432,0,-13.7868,-2.22447,24.6989,Q,Q
2023-03-14 22:33:48:442,0,-13.7878,-2.23376,24.6853,Q,Q
2023-03-14 22:33:48:452,0,-13.7932,-2.23414,24.671,Q,Q
2023-03-14 22:33:48:462,0,-13.7912,-2.23376,24.6524,Q,Q
2023-03-14 22:33:48:472,0,-13.7898,-2.22902,24.6303,Q,Q
2023-03-14 22:33:48:482,0,-13.7852,-2.21944,24.6063,Q,Q
2023-03-14 22:33:48:492,0,-13.7864,-2.20793,24.5829,Q,Q
2023-03-14 22:33:48:502,0,-13.7896,-2.19561,24.5656,Q,Q
2023-03-14 22:33:48:512,0,-13.7973,-2.18416,24.556,Q,Q
2023-03-14 22:33:48:522,0,-13.8028,-2.17148,24.5419,Q,Q
2023-03-14 22:33:48:532,0,-13.8053,-2.16264,24.5285,Q,Q
2023-03-14 22:33:48:542,0,-13.7999,-2.14733,24.5148,Q,Q
2023-03-14 22:33:48:552,0,-13.7988,-2.13397,24.5051,Q,Q
2023-03-14 22:33:48:562,0,-13.8004,-2.13039,24.4917,Q,Q
2023-03-14 22:33:48:572,0,-13.7939,-2.12878,24.4707,Q,Q
2023-03-14 22:33:48:582,0,-13.7882,-2.12891,24.4512,Q,Q
2023-03-14 22:33:48:592,0,-13.7874,-2.1278,24.4246,Q,Q
2023-03-14 22:33:48:602,0,-13.7868,-2.13327,24.3971,Q,Q
2023-03-14 22:33:48:612,0,-13.7844,-2.138,24.362,Q,Q
2023-03-14 22:33:48:622,0,-13.7811,-2.14495,24.3202,Q,Q
2023-03-14 22:33:48:632,0,-13.7742,-2.16278,24.2793,Q,Q
2023-03-14 22:33:48:642,0,-13.7646,-2.18662,24.2333,Q,Q
2023-03-14 22:33:48:652,0,-13.7544,-2.20784,24.1839,Q,Q
2023-03-14 22:33:48:662,0,-13.7405,-2.21826,24.1252,Q,Q
2023-03-14 22:33:48:672,0,-13.7269,-2.22938,24.0615,Q,Q
2023-03-14 22:33:48:682,0,-13.7094,-2.22971,23.9966,Q,Q
2023-03-14 22:33:48:692,0,-13.6915,-2.22551,23.9364,Q,Q
2023-03-14 22:33:48:702,0,-13.6764,-2.21382,23.8705,Q,Q
2023-03-14 22:33:48:712,0,-13.6635,-2.20266,23.8102,Q,Q
2023-03-14 22:33:48:722,0,-13.6521,-2.18683,23.7537,Q,Q
2023-03-14 22:33:48:732,0,-13.6385,-2.17087,23.7023,Q,Q
2023-03-14 22:33:48:742,0,-13.6271,-2.15445,23.6573,Q,Q
2023-03-14 22:33:48:752,0,-13.6185,-2.13821,23.6204,Q,Q
2023-03-14 22:33:48:762,0,-13.6073,-2.12374,23.5865,Q,Q
2023-03-14 22:33:48:772,0,-13.5944,-2.10761,23.562,Q,Q
2023-03-14 22:33:48:782,0,-13.5789,-2.09584,23.5396,Q,Q
2023-03-14 22:33:48:792,0,-13.5613,-2.0821,23.5132,Q,Q
2023-03-14 22:33:48:802,0,-13.5464,-2.06648,23.4881,Q,Q
2023-03-14 22:33:48:812,0,-13.5331,-2.0559,23.4613,Q,Q
2023-03-14 22:33:48:822,0,-13.5237,-2.0515,23.4454,Q,Q
2023-03-14 22:33:48:832,0,-13.5123,-2.05286,23.435,Q,Q
2023-03-14 22:33:48:842,0,-13.5006,-2.05855,23.4258,Q,Q
2023-03-14 22:33:48:852,0,-13.4849,-2.07087,23.418,Q,Q
2023-03-14 22:33:48:862,0,-13.4664,-2.08257,23.4093,Q,Q
2023-03-14 22:33:48:872,0,-13.4472,-2.09791,23.3994,Q,Q
2023-03-14 22:33:48:882,0,-13.4289,-2.10973,23.391,Q,Q
2023-03-14 22:33:48:892,0,-13.4094,-2.11742,23.3797,Q,Q
2023-03-14 22:33:48:902,0,-13.3782,-2.12774,23.3638,Q,Q
2023-03-14 22:33:48:912,0,-13.3379,-2.13749,23.3497,Q,Q
2023-03-14 22:33:48:922,0,-13.2973,-2.149,23.344,Q,Q
2023-03-14 22:33:48:932,0,-13.2562,-2.15991,23.3409,Q,Q
2023-03-14 22:33:48:942,0,-13.217,-2.17372,23.3382,Q,Q
2023-03-14 22:33:48:952,0,-13.1804,-2.19133,23.3381,Q,Q
2023-03-14 22:33:48:962,0,-13.1414,-2.21625,23.3428,Q,Q
2023-03-14 22:33:48:972,0,-13.1082,-2.24022,23.3427,Q,Q
2023-03-14 22:33:48:982,0,-13.0756,-2.26076,23.3425,Q,Q
2023-03-14 22:33:48:992,0,-13.0457,-2.27894,23.338,Q,Q
2023-03-14 22:33:49:2,0,-13.0206,-2.29314,23.3323,Q,Q
2023-03-14 22:33:49:12,0,-12.9973,-2.30877,23.3302,Q,Q
2023-03-14 22:33:49:22,0,-12.9825,-2.319,23.3255,Q,Q
2023-03-14 22:33:49:32,0,-12.9752,-2.32773,23.3265,Q,Q
2023-03-14 22:33:49:42,0,-12.9767,-2.33355,23.3305,Q,Q
2023-03-14 22:33:49:52,0,-12.988,-2.34632,23.3424,Q,Q
2023-03-14 22:33:49:62,0,-13.0109,-2.36281,23.3523,Q,Q
2023-03-14 22:33:49:73,0,-13.0355,-2.37659,23.3633,Q,Q
2023-03-14 22:33:49:82,0,-13.059,-2.38967,23.3758,Q,Q
2023-03-14 22:33:49:92,0,-13.0795,-2.39479,23.3889,Q,Q
2023-03-14 22:33:49:102,0,-13.0956,-2.40086,23.407,Q,Q
2023-03-14 22:33:49:112,0,-13.1123,-2.40238,23.4251,Q,Q
2023-03-14 22:33:49:122,0,-13.126,-2.39953,23.4408,Q,Q
2023-03-14 22:33:49:132,0,-13.1392,-2.39584,23.4558,Q,Q
2023-03-14 22:33:49:142,0,-13.1544,-2.39235,23.4727,Q,Q
2023-03-14 22:33:49:152,0,-13.1663,-2.38451,23.4869,Q,Q
2023-03-14 22:33:49:162,0,-13.1741,-2.37468,23.5002,Q,Q
2023-03-14 22:33:49:172,0,-13.1746,-2.3609,23.5098,Q,Q
2023-03-14 22:33:49:182,0,-13.1742,-2.34379,23.51,Q,Q
2023-03-14 22:33:49:192,0,-13.1772,-2.32967,23.5005,Q,Q
2023-03-14 22:33:49:202,0,-13.1784,-2.31443,23.4925,Q,Q
2023-03-14 22:33:49:212,0,-13.1785,-2.29649,23.4834,Q,Q
2023-03-14 22:33:49:222,0,-13.176,-2.28691,23.4716,Q,Q
2023-03-14 22:33:49:232,0,-13.1735,-2.27881,23.456,Q,Q
2023-03-14 22:33:49:242,0,-13.1707,-2.27705,23.4388,Q,Q
2023-03-14 22:33:49:252,0,-13.1676,-2.27407,23.4196,Q,Q
2023-03-14 22:33:49:262,0,-13.1595,-2.27098,23.3974,Q,Q
2023-03-14 22:33:49:272,0,-13.1545,-2.26684,23.3717,Q,Q
2023-03-14 22:33:49:282,0,-13.1507,-2.26697,23.3449,Q,Q
2023-03-14 22:33:49:292,0,-13.1499,-2.26521,23.3166,Q,Q
2023-03-14 22:33:49:302,0,-13.1435,-2.2585,23.2775,Q,Q
2023-03-14 22:33:49:312,0,-13.1359,-2.24826,23.2329,Q,Q
2023-03-14 22:33:49:322,0,-13.1268,-2.2378,23.1759,Q,Q
2023-03-14 22:33:49:332,0,-13.1054,-2.23089,23.1171,Q,Q
2023-03-14 22:33:49:342,0,-13.083,-2.22651,23.0563,Q,Q
2023-03-14 22:33:49:352,0,-13.0672,-2.22017,23.0025,Q,Q
2023-03-14 22:33:49:362,0,-13.0567,-2.21721,22.9526,Q,Q
2023-03-14 22:33:49:372,0,-13.055,-2.21595,22.9043,Q,Q
2023-03-14 22:33:49:382,0,-13.0519,-2.22196,22.8664,Q,Q
2023-03-14 22:33:49:392,0,-13.0428,-2.22828,22.8398,Q,Q
2023-03-14 22:33:49:402,0,-13.0256,-2.23555,22.8179,Q,Q
2023-03-14 22:33:49:412,0,-13.0049,-2.23844,22.7935,Q,Q
2023-03-14 22:33:49:423,0,-12.9882,-2.23202,22.771,Q,Q
2023-03-14 22:33:49:432,0,-12.9718,-2.22643,22.7578,Q,Q
2023-03-14 22:33:49:442,0,-12.9603,-2.22014,22.7497,Q,Q
2023-03-14 22:33:49:452,0,-12.9543,-2.21537,22.7519,Q,Q
2023-03-14 22:33:49:462,0,-12.9503,-2.21315,22.7678,Q,Q
2023-03-14 22:33:49:472,0,-12.9508,-2.21076,22.789,Q,Q
2023-03-14 22:33:49:482,0,-12.9499,-2.2136,22.8207,Q,Q
2023-03-14 22:33:49:492,0,-12.9524,-2.21532,22.8586,Q,Q
2023-03-14 22:33:49:502,0,-12.9624,-2.21615,22.8994,Q,Q
2023-03-14 22:33:49:512,0,-12.9781,-2.21705,22.9439,Q,Q
2023-03-14 22:33:49:522,0,-13.0101,-2.22751,22.9851,Q,Q
2023-03-14 22:33:49:532,0,-13.0606,-2.24433,23.031,Q,Q
2023-03-14 22:33:49:542,0,-13.1171,-2.26877,23.0746,Q,Q
2023-03-14 22:33:49:552,0,-13.1641,-2.29704,23.1197,Q,Q
2023-03-14 22:33:49:562,0,-13.2044,-2.32525,23.1646,Q,Q
2023-03-14 22:33:49:572,0,-13.2431,-2.35242,23.2141,Q,Q
2023-03-14 22:33:49:582,0,-13.2841,-2.3787,23.2615,Q,Q
2023-03-14 22:33:49:592,0,-13.3302,-2.40118,23.3008,Q,Q
2023-03-14 22:33:49:602,0,-13.3786,-2.42733,23.3389,Q,Q
2023-03-14 22:33:49:612,0,-13.4254,-2.44851,23.3651,Q,Q
2023-03-14 22:33:49:622,0,-13.4711,-2.46685,23.383,Q,Q
2023-03-14 22:33:49:632,0,-13.5089,-2.48447,23.3925,Q,Q
2023-03-14 22:33:49:642,0,-13.5324,-2.50557,23.3964,Q,Q
2023-03-14 22:33:49:652,0,-13.5436,-2.53123,23.4012,Q,Q
2023-03-14 22:33:49:662,0,-13.5471,-2.56898,23.4157,Q,Q
2023-03-14 22:33:49:672,0,-13.5475,-2.61402,23.4396,Q,Q
2023-03-14 22:33:49:682,0,-13.5501,-2.65683,23.4675,Q,Q
2023-03-14 22:33:49:692,0,-13.5665,-2.69119,23.4913,Q,Q
2023-03-14 22:33:49:702,0,-13.5938,-2.71103,23.5058,Q,Q
2023-03-14 22:33:49:712,0,-13.6269,-2.72136,23.5059,Q,Q
2023-03-14 22:33:49:722,0,-13.6583,-2.72378,23.5008,Q,Q
2023-03-14 22:33:49:732,0,-13.6739,-2.72309,23.4891,Q,Q
2023-03-14 22:33:49:742,0,-13.6664,-2.73514,23.4842,Q,Q
2023-03-14 22:33:49:752,0,-13.6337,-2.75789,23.4926,Q,Q
2023-03-14 22:33:49:762,0,-13.5935,-2.78904,23.5245,Q,Q
2023-03-14 22:33:49:772,0,-13.5519,-2.80413,23.5771,Q,Q
2023-03-14 22:33:49:782,0,-13.5166,-2.80568,23.6359,Q,Q
2023-03-14 22:33:49:792,0,-13.4976,-2.79075,23.6927,Q,Q
2023-03-14 22:33:49:802,0,-13.4988,-2.75736,23.7422,Q,Q
2023-03-14 22:33:49:812,0,-13.516,-2.71586,23.782,Q,Q
2023-03-14 22:33:49:822,0,-13.5366,-2.6641,23.8079,Q,Q
2023-03-14 22:33:49:832,0,-13.546,-2.61612,23.8349,Q,Q
2023-03-14 22:33:49:842,0,-13.5315,-2.58171,23.8718,Q,Q
2023-03-14 22:33:49:852,0,-13.5038,-2.55948,23.929,Q,Q
2023-03-14 22:33:49:862,0,-13.4602,-2.54319,23.9949,Q,Q
2023-03-14 22:33:49:872,0,-13.4169,-2.53482,24.0666,Q,Q
2023-03-14 22:33:49:882,0,-13.3833,-2.5245,24.1463,Q,Q
2023-03-14 22:33:49:892,0,-13.3758,-2.51265,24.2218,Q,Q
2023-03-14 22:33:49:902,0,-13.3887,-2.49442,24.2755,Q,Q
2023-03-14 22:33:49:912,0,-13.4051,-2.46791,24.3083,Q,Q
2023-03-14 22:33:49:922,0,-13.4206,-2.45611,24.3318,Q,Q
2023-03-14 22:33:49:932,0,-13.4383,-2.46289,24.3637,Q,Q
2023-03-14 22:33:49:942,0,-13.4464,-2.48698,24.4098,Q,Q
2023-03-14 22:33:49:952,0,-13.4415,-2.52161,24.4639,Q,Q
2023-03-14 22:33:49:962,0,-13.43,-2.55997,24.5254,Q,Q
2023-03-14 22:33:49:973,0,-13.4171,-2.59449,24.5891,Q,Q
2023-03-14 22:33:49:982,0,-13.4126,-2.61848,24.657,Q,Q
2023-03-14 22:33:49:992,0,-13.418,-2.63515,24.7229,Q,Q
2023-03-14 22:33:50:2,0,-13.439,-2.65608,24.7907,Q,Q
2023-03-14 22:33:50:12,0,-13.4649,-2.67783,24.8625,Q,Q
2023-03-14 22:33:50:22,0,-13.4962,-2.70945,24.9407,Q,Q
2023-03-14 22:33:50:32,0,-13.5252,-2.74376,25.0157,Q,Q
2023-03-14 22:33:50:42,0,-13.5538,-2.78649,25.0914,Q,Q
2023-03-14 22:33:50:52,0,-13.5795,-2.82807,25.1678,Q,Q
2023-03-14 22:33:50:62,0,-13.608,-2.86885,25.232,Q,Q
2023-03-14 22:33:50:72,0,-13.6365,-2.90984,25.2859,Q,Q
2023-03-14 22:33:50:82,0,-13.6702,-2.94397,25.3325,Q,Q
2023-03-14 22:33:50:92,0,-13.7077,-2.97981,25.3797,Q,Q
2023-03-14 22:33:50:102,0,-13.7536,-3.01841,25.4261,Q,Q
2023-03-14 22:33:50:112,0,-13.8041,-3.05845,25.4728,Q,Q
2023-03-14 22:33:50:122,0,-13.8635,-3.10132,25.5164,Q,Q
2023-03-14 22:33:50:132,0,-13.9252,-3.14481,25.5511,Q,Q
2023-03-14 22:33:50:142,0,-13.989,-3.18537,25.5786,Q,Q
2023-03-14 22:33:50:152,0,-14.0603,-3.22669,25.6022,Q,Q
2023-03-14 22:33:50:162,0,-14.1303,-3.27496,25.6209,Q,Q
2023-03-14 22:33:50:172,0,-14.1895,-3.32413,25.6305,Q,Q
2023-03-14 22:33:50:182,0,-14.2391,-3.37415,25.6335,Q,Q
2023-03-14 22:33:50:193,0,-14.2786,-3.42175,25.623,Q,Q
2023-03-14 22:33:50:202,0,-14.3115,-3.46577,25.5987,Q,Q
2023-03-14 22:33:50:212,0,-14.3398,-3.50821,25.5668,Q,Q
2023-03-14 22:33:50:222,0,-14.3621,-3.55849,25.5301,Q,Q
2023-03-14 22:33:50:232,0,-14.3836,-3.61087,25.4935,Q,Q
2023-03-14 22:33:50:242,0,-14.4055,-3.66452,25.4631,Q,Q
2023-03-14 22:33:50:252,0,-14.4268,-3.71789,25.4262,Q,Q
2023-03-14 22:33:50:262,0,-14.4495,-3.76649,25.3913,Q,Q
2023-03-14 22:33:50:272,0,-14.4721,-3.81158,25.3596,Q,Q
2023-03-14 22:33:50:282,0,-14.4979,-3.85236,25.3301,Q,Q
2023-03-14 22:33:50:292,0,-14.5196,-3.88967,25.3074,Q,Q
2023-03-14 22:33:50:302,0,-14.535,-3.91834,25.2905,Q,Q
2023-03-14 22:33:50:312,0,-14.5396,-3.94418,25.2789,Q,Q
2023-03-14 22:33:50:322,0,-14.5352,-3.97562,25.2734,Q,Q
2023-03-14 22:33:50:332,0,-14.5197,-4.01205,25.2758,Q,Q
2023-03-14 22:33:50:342,0,-14.5073,-4.04852,25.2849,Q,Q
2023-03-14 22:33:50:352,0,-14.4895,-4.0866,25.2932,Q,Q
2023-03-14 22:33:50:362,0,-14.4683,-4.12168,25.3037,Q,Q
2023-03-14 22:33:50:372,0,-14.4457,-4.16084,25.3155,Q,Q
2023-03-14 22:33:50:382,0,-14.4171,-4.20201,25.3341,Q,Q
2023-03-14 22:33:50:392,0,-14.391,-4.24609,25.3574,Q,Q
2023-03-14 22:33:50:402,0,-14.3629,-4.29107,25.3866,Q,Q
2023-03-14 22:33:50:412,0,-14.3445,-4.33614,25.4276,Q,Q
2023-03-14 22:33:50:422,0,-14.3289,-4.38069,25.4789,Q,Q
2023-03-14 22:33:50:432,0,-14.3128,-4.42024,25.5362,Q,Q
2023-03-14 22:33:50:442,0,-14.303,-4.45288,25.5939,Q,Q
2023-03-14 22:33:50:452,0,-14.2943,-4.48069,25.6553,Q,Q
2023-03-14 22:33:50:462,0,-14.2835,-4.4995,25.7179,Q,Q
2023-03-14 22:33:50:472,0,-14.2745,-4.515,25.7839,Q,Q
2023-03-14 22:33:50:482,0,-14.2603,-4.52071,25.8487,Q,Q
2023-03-14 22:33:50:492,0,-14.2378,-4.52043,25.9149,Q,Q
2023-03-14 22:33:50:502,0,-14.2099,-4.51251,25.9778,Q,Q
2023-03-14 22:33:50:512,0,-14.1735,-4.50352,26.0419,Q,Q
2023-03-14 22:33:50:522,0,-14.1396,-4.49008,26.1,Q,Q
2023-03-14 22:33:50:532,0,-14.106,-4.46884,26.1552,Q,Q
2023-03-14 22:33:50:542,0,-14.0762,-4.44783,26.209,Q,Q
2023-03-14 22:33:50:552,0,-14.0522,-4.42406,26.2611,Q,Q
2023-03-14 22:33:50:562,0,-14.037,-4.39857,26.3122,Q,Q
2023-03-14 22:33:50:572,0,-14.026,-4.36949,26.354,Q,Q
2023-03-14 22:33:50:582,0,-14.0225,-4.33903,26.3864,Q,Q
2023-03-14 22:33:50:592,0,-14.0199,-4.31053,26.4121,Q,Q
2023-03-14 22:33:50:602,0,-14.0202,-4.28111,26.427,Q,Q
2023-03-14 22:33:50:612,0,-14.0225,-4.25096,26.4341,Q,Q
2023-03-14 22:33:50:622,0,-14.0295,-4.22239,26.4307,Q,Q
