Timestamp_cmd,imu_cmd,roll_delta,pitch_delta,yaw_delta,voice_type,voice_length
2023-03-15 22:18:24:349,0,-9.48093,-4.95757,-20.1145,Q,Q
2023-03-15 22:18:24:356,0,-9.47094,-4.97027,-20.0907,Q,Q
2023-03-15 22:18:24:366,0,-9.4613,-4.98484,-20.0662,Q,Q
2023-03-15 22:18:24:376,0,-9.45851,-5.00237,-20.041,Q,Q
2023-03-15 22:18:24:386,0,-9.4558,-5.01654,-20.0179,Q,Q
2023-03-15 22:18:24:396,0,-9.44828,-5.03218,-19.995,Q,Q
2023-03-15 22:18:24:406,0,-9.44598,-5.04664,-19.9773,Q,Q
2023-03-15 22:18:24:416,0,-9.43644,-5.06327,-19.9572,Q,Q
2023-03-15 22:18:24:426,0,-9.42219,-5.0722,-19.9348,Q,Q
2023-03-15 22:18:24:436,0,-9.40315,-5.08601,-19.9101,Q,Q
2023-03-15 22:18:24:446,0,-9.3848,-5.09485,-19.8859,Q,Q
2023-03-15 22:18:24:456,0,-9.36742,-5.10122,-19.8675,Q,Q
2023-03-15 22:18:24:466,0,-9.35435,-5.09636,-19.8454,Q,Q
2023-03-15 22:18:24:476,0,-9.34435,-5.08993,-19.8264,Q,Q
2023-03-15 22:18:24:486,0,-9.3435,-5.08792,-19.8087,Q,Q
2023-03-15 22:18:24:496,0,-9.35494,-5.08648,-19.7901,Q,Q
2023-03-15 22:18:24:506,0,-9.37029,-5.08133,-19.7752,Q,Q
2023-03-15 22:18:24:516,0,-9.37745,-5.07159,-19.7631,Q,Q
2023-03-15 22:18:24:526,0,-9.3758,-5.06013,-19.7546,Q,Q
2023-03-15 22:18:24:536,0,-9.36979,-5.04376,-19.7473,Q,Q
2023-03-15 22:18:24:546,0,-9.35999,-5.02629,-19.7412,Q,Q
2023-03-15 22:18:24:556,0,-9.34983,-5.01829,-19.7362,Q,Q
2023-03-15 22:18:24:566,0,-9.34975,-5.0185,-19.7338,Q,Q
2023-03-15 22:18:24:576,0,-9.35773,-5.02187,-19.7348,Q,Q
2023-03-15 22:18:24:586,0,-9.36623,-5.02065,-19.7332,Q,Q
2023-03-15 22:18:24:596,0,-9.36763,-5.0168,-19.733,Q,Q
2023-03-15 22:18:24:606,0,-9.36127,-5.0188,-19.7313,Q,Q
2023-03-15 22:18:24:616,0,-9.36095,-5.02523,-19.7224,Q,Q
2023-03-15 22:18:24:626,0,-9.36802,-5.02862,-19.7129,Q,Q
2023-03-15 22:18:24:636,0,-9.37322,-5.02683,-19.7011,Q,Q
2023-03-15 22:18:24:646,0,-9.373,-5.02344,-19.6922,Q,Q
2023-03-15 22:18:24:656,0,-9.36587,-5.01308,-19.6801,Q,Q
2023-03-15 22:18:24:666,0,-9.36142,-4.9991,-19.6758,Q,Q
2023-03-15 22:18:24:676,0,-9.36457,-4.98239,-19.6709,Q,Q
2023-03-15 22:18:24:686,0,-9.37582,-4.96163,-19.6712,Q,Q
2023-03-15 22:18:24:696,0,-9.38841,-4.94254,-19.6718,Q,Q
2023-03-15 22:18:24:706,0,-9.40123,-4.92354,-19.68,Q,Q
2023-03-15 22:18:24:716,0,-9.40701,-4.90405,-19.6902,Q,Q
2023-03-15 22:18:24:726,0,-9.40779,-4.8835,-19.7034,Q,Q
2023-03-15 22:18:24:736,0,-9.39684,-4.87472,-19.7168,Q,Q
2023-03-15 22:18:24:746,0,-9.38217,-4.86986,-19.7307,Q,Q
2023-03-15 22:18:24:756,0,-9.36698,-4.86842,-19.7372,Q,Q
2023-03-15 22:18:24:766,0,-9.35131,-4.87198,-19.7383,Q,Q
2023-03-15 22:18:24:776,0,-9.32743,-4.87367,-19.7309,Q,Q
2023-03-15 22:18:24:786,0,-9.2988,-4.87546,-19.7175,Q,Q
2023-03-15 22:18:24:796,0,-9.27412,-4.88496,-19.6899,Q,Q
2023-03-15 22:18:24:806,0,-9.25953,-4.89821,-19.6582,Q,Q
2023-03-15 22:18:24:816,0,-9.24331,-4.90947,-19.6272,Q,Q
2023-03-15 22:18:24:826,0,-9.23149,-4.91786,-19.5915,Q,Q
2023-03-15 22:18:24:836,0,-9.22174,-4.92451,-19.5483,Q,Q
2023-03-15 22:18:24:846,0,-9.2104,-4.93049,-19.5062,Q,Q
2023-03-15 22:18:24:856,0,-9.19978,-4.93574,-19.4652,Q,Q
2023-03-15 22:18:24:866,0,-9.1905,-4.9411,-19.4297,Q,Q
2023-03-15 22:18:24:876,0,-9.1861,-4.94543,-19.3981,Q,Q
2023-03-15 22:18:24:886,0,-9.18063,-4.94947,-19.3709,Q,Q
2023-03-15 22:18:24:896,0,-9.17066,-4.95664,-19.3514,Q,Q
2023-03-15 22:18:24:906,0,-9.15676,-4.97218,-19.3314,Q,Q
2023-03-15 22:18:24:916,0,-9.14966,-4.98682,-19.3177,Q,Q
2023-03-15 22:18:24:926,0,-9.14786,-4.99734,-19.3078,Q,Q
2023-03-15 22:18:24:936,0,-9.1518,-5.00797,-19.3,Q,Q
2023-03-15 22:18:24:946,0,-9.15875,-5.01389,-19.2936,Q,Q
2023-03-15 22:18:24:956,0,-9.16447,-5.01977,-19.2919,Q,Q
2023-03-15 22:18:24:966,0,-9.16582,-5.02687,-19.2917,Q,Q
2023-03-15 22:18:24:976,0,-9.16135,-5.02931,-19.2949,Q,Q
2023-03-15 22:18:24:986,0,-9.15511,-5.03392,-19.296,Q,Q
2023-03-15 22:18:24:996,0,-9.14958,-5.03584,-19.2938,Q,Q
2023-03-15 22:18:25:6,0,-9.14102,-5.03378,-19.2938,Q,Q
2023-03-15 22:18:25:16,0,-9.13165,-5.03376,-19.291,Q,Q
2023-03-15 22:18:25:26,0,-9.12425,-5.03009,-19.2865,Q,Q
2023-03-15 22:18:25:36,0,-9.11665,-5.02745,-19.2818,Q,Q
2023-03-15 22:18:25:46,0,-9.1138,-5.02616,-19.2742,Q,Q
2023-03-15 22:18:25:56,0,-9.11179,-5.02888,-19.2608,Q,Q
2023-03-15 22:18:25:66,0,-9.11333,-5.02828,-19.2495,Q,Q
2023-03-15 22:18:25:76,0,-9.11905,-5.02635,-19.2355,Q,Q
2023-03-15 22:18:25:86,0,-9.12616,-5.02407,-19.2285,Q,Q
2023-03-15 22:18:25:96,0,-9.13645,-5.01812,-19.2219,Q,Q
2023-03-15 22:18:25:106,0,-9.14407,-5.01325,-19.22,Q,Q
2023-03-15 22:18:25:116,0,-9.14806,-5.00912,-19.2163,Q,Q
2023-03-15 22:18:25:126,0,-9.14952,-5.00697,-19.2128,Q,Q
2023-03-15 22:18:25:135,0,-9.15392,-5.00408,-19.2115,Q,Q
2023-03-15 22:18:25:146,0,-9.15669,-5.00037,-19.2126,Q,Q
2023-03-15 22:18:25:156,0,-9.16778,-4.99232,-19.2165,Q,Q
2023-03-15 22:18:25:166,0,-9.17339,-4.98541,-19.2198,Q,Q
2023-03-15 22:18:25:176,0,-9.18521,-4.97654,-19.218,Q,Q
2023-03-15 22:18:25:185,0,-9.20007,-4.9658,-19.214,Q,Q
2023-03-15 22:18:25:196,0,-9.21945,-4.95785,-19.2074,Q,Q
2023-03-15 22:18:25:205,0,-9.23633,-4.95025,-19.2032,Q,Q
2023-03-15 22:18:25:216,0,-9.24863,-4.94011,-19.1998,Q,Q
2023-03-15 22:18:25:226,0,-9.25511,-4.93169,-19.198,Q,Q
2023-03-15 22:18:25:236,0,-9.25767,-4.91749,-19.1989,Q,Q
2023-03-15 22:18:25:245,0,-9.26303,-4.90737,-19.1977,Q,Q
2023-03-15 22:18:25:255,0,-9.26913,-4.89575,-19.1997,Q,Q
2023-03-15 22:18:25:266,0,-9.27976,-4.8858,-19.201,Q,Q
2023-03-15 22:18:25:276,0,-9.29111,-4.87607,-19.2062,Q,Q
2023-03-15 22:18:25:286,0,-9.30055,-4.86659,-19.21,Q,Q
2023-03-15 22:18:25:296,0,-9.30631,-4.85926,-19.2097,Q,Q
2023-03-15 22:18:25:306,0,-9.3111,-4.8452,-19.2049,Q,Q
2023-03-15 22:18:25:316,0,-9.31871,-4.83648,-19.1992,Q,Q
2023-03-15 22:18:25:326,0,-9.33031,-4.82344,-19.1851,Q,Q
2023-03-15 22:18:25:336,0,-9.34131,-4.80982,-19.1645,Q,Q
2023-03-15 22:18:25:346,0,-9.35395,-4.79879,-19.1469,Q,Q
2023-03-15 22:18:25:356,0,-9.36712,-4.78248,-19.1283,Q,Q
2023-03-15 22:18:25:366,0,-9.38024,-4.76684,-19.1079,Q,Q
2023-03-15 22:18:25:376,0,-9.39288,-4.74788,-19.0847,Q,Q
2023-03-15 22:18:25:386,0,-9.41085,-4.73179,-19.0599,Q,Q
2023-03-15 22:18:25:396,0,-9.42977,-4.72147,-19.0367,Q,Q
2023-03-15 22:18:25:406,0,-9.45336,-4.71689,-19.0085,Q,Q
2023-03-15 22:18:25:416,0,-9.47914,-4.7159,-18.9814,Q,Q
2023-03-15 22:18:25:426,0,-9.49991,-4.71825,-18.9513,Q,Q
2023-03-15 22:18:25:436,0,-9.52209,-4.71958,-18.919,Q,Q
2023-03-15 22:18:25:446,0,-9.54478,-4.72243,-18.8812,Q,Q
2023-03-15 22:18:25:456,0,-9.56616,-4.72531,-18.848,Q,Q
2023-03-15 22:18:25:466,0,-9.58395,-4.72279,-18.8127,Q,Q
2023-03-15 22:18:25:476,0,-9.60285,-4.72523,-18.7762,Q,Q
2023-03-15 22:18:25:486,0,-9.62177,-4.72922,-18.7384,Q,Q
2023-03-15 22:18:25:496,0,-9.63783,-4.73372,-18.6998,Q,Q
2023-03-15 22:18:25:505,0,-9.64897,-4.73797,-18.6657,Q,Q
2023-03-15 22:18:25:516,0,-9.65381,-4.74043,-18.6359,Q,Q
2023-03-15 22:18:25:525,0,-9.65486,-4.74413,-18.6113,Q,Q
2023-03-15 22:18:25:536,0,-9.65595,-4.75136,-18.5884,Q,Q
2023-03-15 22:18:25:545,0,-9.66345,-4.7542,-18.566,Q,Q
2023-03-15 22:18:25:556,0,-9.67289,-4.76268,-18.5377,Q,Q
2023-03-15 22:18:25:565,0,-9.6824,-4.77727,-18.5066,Q,Q
2023-03-15 22:18:25:576,0,-9.68877,-4.80545,-18.4682,Q,Q
2023-03-15 22:18:25:585,0,-9.69567,-4.83324,-18.4231,Q,Q
2023-03-15 22:18:25:596,0,-9.70184,-4.85839,-18.3751,Q,Q
2023-03-15 22:18:25:605,0,-9.71066,-4.8807,-18.325,Q,Q
2023-03-15 22:18:25:615,0,-9.71868,-4.89655,-18.2749,Q,Q
2023-03-15 22:18:25:625,0,-9.73362,-4.90875,-18.2197,Q,Q
2023-03-15 22:18:25:635,0,-9.7493,-4.91498,-18.1621,Q,Q
2023-03-15 22:18:25:645,0,-9.76012,-4.92164,-18.1099,Q,Q
2023-03-15 22:18:25:655,0,-9.76822,-4.92916,-18.0539,Q,Q
2023-03-15 22:18:25:665,0,-9.77073,-4.93619,-17.9948,Q,Q
2023-03-15 22:18:25:675,0,-9.7652,-4.93792,-17.936,Q,Q
2023-03-15 22:18:25:685,0,-9.76184,-4.94361,-17.877,Q,Q
2023-03-15 22:18:25:695,0,-9.76625,-4.95244,-17.8047,Q,Q
2023-03-15 22:18:25:705,0,-9.77537,-4.96031,-17.7319,Q,Q
2023-03-15 22:18:25:715,0,-9.78415,-4.96799,-17.6502,Q,Q
2023-03-15 22:18:25:725,0,-9.79177,-4.97459,-17.5634,Q,Q
2023-03-15 22:18:25:735,0,-9.79883,-4.98237,-17.47,Q,Q
2023-03-15 22:18:25:745,0,-9.81081,-4.98048,-17.3707,Q,Q
2023-03-15 22:18:25:755,0,-9.82046,-4.97326,-17.2694,Q,Q
2023-03-15 22:18:25:765,0,-9.83914,-4.96359,-17.1662,Q,Q
2023-03-15 22:18:25:775,0,-9.86135,-4.95447,-17.0644,Q,Q
2023-03-15 22:18:25:785,0,-9.87313,-4.94319,-16.9669,Q,Q
2023-03-15 22:18:25:795,0,-9.8792,-4.92822,-16.8755,Q,Q
2023-03-15 22:18:25:805,0,-9.87894,-4.91086,-16.787,Q,Q
2023-03-15 22:18:25:815,0,-9.88142,-4.89315,-16.7038,Q,Q
2023-03-15 22:18:25:825,0,-9.88124,-4.88144,-16.623,Q,Q
2023-03-15 22:18:25:835,0,-9.88565,-4.872,-16.5363,Q,Q
2023-03-15 22:18:25:846,0,-9.9021,-4.86152,-16.4491,Q,Q
2023-03-15 22:18:25:855,0,-9.92622,-4.8517,-16.358,Q,Q
2023-03-15 22:18:25:866,0,-9.95788,-4.84784,-16.2704,Q,Q
2023-03-15 22:18:25:875,0,-9.99065,-4.84327,-16.1841,Q,Q
2023-03-15 22:18:25:886,0,-10.0176,-4.8402,-16.1053,Q,Q
2023-03-15 22:18:25:896,0,-10.0399,-4.83112,-16.0321,Q,Q
2023-03-15 22:18:25:905,0,-10.0556,-4.82493,-15.9701,Q,Q
2023-03-15 22:18:25:916,0,-10.0657,-4.81686,-15.9122,Q,Q
2023-03-15 22:18:25:925,0,-10.0715,-4.80933,-15.8541,Q,Q
2023-03-15 22:18:25:936,0,-10.0846,-4.80445,-15.7935,Q,Q
2023-03-15 22:18:25:945,0,-10.0992,-4.80216,-15.7388,Q,Q
2023-03-15 22:18:25:955,0,-10.1194,-4.80155,-15.6851,Q,Q
2023-03-15 22:18:25:965,0,-10.1442,-4.80272,-15.6283,Q,Q
2023-03-15 22:18:25:975,0,-10.173,-4.80527,-15.5697,Q,Q
2023-03-15 22:18:25:985,0,-10.1979,-4.80447,-15.5164,Q,Q
2023-03-15 22:18:25:995,0,-10.215,-4.80075,-15.4709,Q,Q
2023-03-15 22:18:26:5,0,-10.2206,-4.79725,-15.4335,Q,Q
2023-03-15 22:18:26:15,0,-10.2183,-4.79811,-15.4009,Q,Q
2023-03-15 22:18:26:25,0,-10.2055,-4.79968,-15.3709,Q,Q
2023-03-15 22:18:26:35,0,-10.1846,-4.80232,-15.3461,Q,Q
2023-03-15 22:18:26:45,0,-10.1601,-4.79988,-15.3232,Q,Q
2023-03-15 22:18:26:55,0,-10.1323,-4.79925,-15.3051,Q,Q
2023-03-15 22:18:26:65,0,-10.0991,-4.80313,-15.2847,Q,Q
2023-03-15 22:18:26:75,0,-10.0638,-4.79768,-15.2647,Q,Q
2023-03-15 22:18:26:85,0,-10.0191,-4.78148,-15.268,Q,Q
2023-03-15 22:18:26:95,0,-9.96585,-4.76228,-15.2884,Q,Q
2023-03-15 22:18:26:105,0,-9.89624,-4.73554,-15.3183,Q,Q
2023-03-15 22:18:26:115,0,-9.82311,-4.71167,-15.3458,Q,Q
2023-03-15 22:18:26:125,0,-9.75009,-4.68859,-15.3721,Q,Q
2023-03-15 22:18:26:135,0,-9.68685,-4.66657,-15.4084,Q,Q
2023-03-15 22:18:26:145,0,-9.63338,-4.64644,-15.4568,Q,Q
2023-03-15 22:18:26:155,0,-9.58214,-4.62298,-15.5072,Q,Q
2023-03-15 22:18:26:165,0,-9.53119,-4.60033,-15.5625,Q,Q
2023-03-15 22:18:26:175,0,-9.47489,-4.58118,-15.6209,Q,Q
2023-03-15 22:18:26:185,0,-9.40998,-4.56683,-15.6819,Q,Q
2023-03-15 22:18:26:195,0,-9.34459,-4.54802,-15.7429,Q,Q
2023-03-15 22:18:26:205,0,-9.27158,-4.52006,-15.8071,Q,Q
2023-03-15 22:18:26:215,0,-9.19232,-4.49252,-15.8841,Q,Q
2023-03-15 22:18:26:225,0,-9.11566,-4.45937,-15.9643,Q,Q
2023-03-15 22:18:26:236,0,-9.04195,-4.42836,-16.0452,Q,Q
2023-03-15 22:18:26:245,0,-8.97248,-4.39849,-16.1265,Q,Q
2023-03-15 22:18:26:255,0,-8.90602,-4.37363,-16.2044,Q,Q
2023-03-15 22:18:26:265,0,-8.85123,-4.35362,-16.2733,Q,Q
2023-03-15 22:18:26:275,0,-8.81016,-4.33406,-16.3393,Q,Q
2023-03-15 22:18:26:285,0,-8.77672,-4.31657,-16.4024,Q,Q
2023-03-15 22:18:26:295,0,-8.75421,-4.29935,-16.4597,Q,Q
2023-03-15 22:18:26:305,0,-8.73861,-4.27965,-16.5168,Q,Q
2023-03-15 22:18:26:315,0,-8.72848,-4.25793,-16.5764,Q,Q
2023-03-15 22:18:26:325,0,-8.71565,-4.22634,-16.6371,Q,Q
2023-03-15 22:18:26:335,0,-8.70777,-4.18986,-16.6938,Q,Q
2023-03-15 22:18:26:345,0,-8.69975,-4.14752,-16.7631,Q,Q
2023-03-15 22:18:26:355,0,-8.69106,-4.1076,-16.8275,Q,Q
2023-03-15 22:18:26:365,0,-8.68747,-4.0665,-16.8936,Q,Q
2023-03-15 22:18:26:375,0,-8.67988,-4.03282,-16.9656,Q,Q
2023-03-15 22:18:26:385,0,-8.67014,-4.00216,-17.0273,Q,Q
2023-03-15 22:18:26:395,0,-8.66249,-3.97211,-17.0827,Q,Q
2023-03-15 22:18:26:405,0,-8.65817,-3.94684,-17.1413,Q,Q
2023-03-15 22:18:26:415,0,-8.65611,-3.92554,-17.2069,Q,Q
2023-03-15 22:18:26:425,0,-8.65529,-3.90591,-17.2806,Q,Q
2023-03-15 22:18:26:435,0,-8.64402,-3.88875,-17.3529,Q,Q
2023-03-15 22:18:26:445,0,-8.62454,-3.87498,-17.4232,Q,Q
2023-03-15 22:18:26:455,0,-8.60097,-3.85558,-17.495,Q,Q
2023-03-15 22:18:26:465,0,-8.57815,-3.84556,-17.5589,Q,Q
2023-03-15 22:18:26:475,0,-8.56215,-3.83767,-17.6146,Q,Q
2023-03-15 22:18:26:485,0,-8.54944,-3.83007,-17.662,Q,Q
2023-03-15 22:18:26:495,0,-8.53954,-3.82668,-17.7075,Q,Q
2023-03-15 22:18:26:505,0,-8.52808,-3.82505,-17.7512,Q,Q
2023-03-15 22:18:26:515,0,-8.51304,-3.82447,-17.7956,Q,Q
2023-03-15 22:18:26:525,0,-8.49357,-3.82488,-17.8335,Q,Q
2023-03-15 22:18:26:535,0,-8.46807,-3.8388,-17.86,Q,Q
2023-03-15 22:18:26:545,0,-8.44379,-3.85658,-17.8732,Q,Q
2023-03-15 22:18:26:555,0,-8.42323,-3.88022,-17.8771,Q,Q
2023-03-15 22:18:26:565,0,-8.40742,-3.90012,-17.8713,Q,Q
2023-03-15 22:18:26:575,0,-8.39835,-3.92681,-17.8558,Q,Q
2023-03-15 22:18:26:585,0,-8.39581,-3.9454,-17.8382,Q,Q
2023-03-15 22:18:26:595,0,-8.40955,-3.97138,-17.8155,Q,Q
2023-03-15 22:18:26:605,0,-8.43055,-4.00024,-17.7966,Q,Q
2023-03-15 22:18:26:615,0,-8.4437,-4.027,-17.7835,Q,Q
2023-03-15 22:18:26:625,0,-8.44943,-4.05367,-17.7798,Q,Q
2023-03-15 22:18:26:635,0,-8.45313,-4.06842,-17.7885,Q,Q
2023-03-15 22:18:26:645,0,-8.46295,-4.07894,-17.8118,Q,Q
2023-03-15 22:18:26:655,0,-8.47676,-4.08627,-17.8477,Q,Q
2023-03-15 22:18:26:665,0,-8.48758,-4.09675,-17.8941,Q,Q
2023-03-15 22:18:26:675,0,-8.48891,-4.10645,-17.943,Q,Q
2023-03-15 22:18:26:685,0,-8.48917,-4.11662,-17.9905,Q,Q
2023-03-15 22:18:26:695,0,-8.49067,-4.12288,-18.0395,Q,Q
2023-03-15 22:18:26:705,0,-8.49563,-4.12478,-18.0985,Q,Q
2023-03-15 22:18:26:715,0,-8.51167,-4.11813,-18.1568,Q,Q
2023-03-15 22:18:26:725,0,-8.53559,-4.10978,-18.2152,Q,Q
2023-03-15 22:18:26:735,0,-8.56903,-4.10283,-18.2675,Q,Q
2023-03-15 22:18:26:745,0,-8.60513,-4.10164,-18.3185,Q,Q
2023-03-15 22:18:26:755,0,-8.64217,-4.09125,-18.3668,Q,Q
2023-03-15 22:18:26:765,0,-8.67869,-4.08153,-18.4167,Q,Q
2023-03-15 22:18:26:775,0,-8.71823,-4.07836,-18.4651,Q,Q
2023-03-15 22:18:26:785,0,-8.75755,-4.07769,-18.5183,Q,Q
2023-03-15 22:18:26:795,0,-8.79235,-4.08201,-18.5676,Q,Q
2023-03-15 22:18:26:805,0,-8.81835,-4.09719,-18.6084,Q,Q
2023-03-15 22:18:26:815,0,-8.838,-4.1176,-18.6423,Q,Q
2023-03-15 22:18:26:825,0,-8.85237,-4.1392,-18.6759,Q,Q
2023-03-15 22:18:26:835,0,-8.85646,-4.15842,-18.7055,Q,Q
2023-03-15 22:18:26:845,0,-8.85346,-4.17409,-18.7327,Q,Q
2023-03-15 22:18:26:855,0,-8.84715,-4.18444,-18.7529,Q,Q
2023-03-15 22:18:26:865,0,-8.84569,-4.1891,-18.7668,Q,Q
2023-03-15 22:18:26:875,0,-8.84749,-4.19813,-18.7632,Q,Q
2023-03-15 22:18:26:885,0,-8.85849,-4.20601,-18.7547,Q,Q
2023-03-15 22:18:26:895,0,-8.86995,-4.20405,-18.7381,Q,Q
2023-03-15 22:18:26:905,0,-8.88686,-4.19885,-18.725,Q,Q
2023-03-15 22:18:26:915,0,-8.90016,-4.18935,-18.716,Q,Q
2023-03-15 22:18:26:925,0,-8.91022,-4.17459,-18.6942,Q,Q
2023-03-15 22:18:26:935,0,-8.91786,-4.15911,-18.6645,Q,Q
2023-03-15 22:18:26:945,0,-8.92856,-4.146,-18.6272,Q,Q
2023-03-15 22:18:26:955,0,-8.94645,-4.13559,-18.5834,Q,Q
2023-03-15 22:18:26:965,0,-8.96401,-4.13359,-18.5317,Q,Q
2023-03-15 22:18:26:975,0,-8.98897,-4.13168,-18.4713,Q,Q
2023-03-15 22:18:26:985,0,-9.02084,-4.13614,-18.4078,Q,Q
2023-03-15 22:18:26:995,0,-9.0453,-4.14486,-18.3431,Q,Q
2023-03-15 22:18:27:5,0,-9.05868,-4.15597,-18.2757,Q,Q
2023-03-15 22:18:27:15,0,-9.06334,-4.16992,-18.2095,Q,Q
2023-03-15 22:18:27:25,0,-9.07174,-4.18276,-18.1531,Q,Q
2023-03-15 22:18:27:35,0,-9.08483,-4.20051,-18.1062,Q,Q
2023-03-15 22:18:27:45,0,-9.11837,-4.22042,-18.073,Q,Q
2023-03-15 22:18:27:55,0,-9.17512,-4.24568,-18.052,Q,Q
2023-03-15 22:18:27:65,0,-9.24099,-4.27196,-18.0521,Q,Q
2023-03-15 22:18:27:75,0,-9.29618,-4.2993,-18.0689,Q,Q
2023-03-15 22:18:27:85,0,-9.34231,-4.32767,-18.0901,Q,Q
2023-03-15 22:18:27:95,0,-9.39673,-4.34906,-18.1106,Q,Q
2023-03-15 22:18:27:105,0,-9.47391,-4.37195,-18.1372,Q,Q
2023-03-15 22:18:27:115,0,-9.56127,-4.39098,-18.1683,Q,Q
2023-03-15 22:18:27:125,0,-9.63637,-4.40635,-18.2055,Q,Q
2023-03-15 22:18:27:135,0,-9.68969,-4.41675,-18.2523,Q,Q
2023-03-15 22:18:27:145,0,-9.72111,-4.41839,-18.3042,Q,Q
2023-03-15 22:18:27:155,0,-9.74074,-4.40862,-18.3577,Q,Q
2023-03-15 22:18:27:165,0,-9.75538,-4.40116,-18.4007,Q,Q
2023-03-15 22:18:27:175,0,-9.78942,-4.40113,-18.437,Q,Q
2023-03-15 22:18:27:185,0,-9.83187,-4.40424,-18.4804,Q,Q
2023-03-15 22:18:27:195,0,-9.86396,-4.40868,-18.5319,Q,Q
2023-03-15 22:18:27:205,0,-9.86813,-4.40475,-18.5846,Q,Q
2023-03-15 22:18:27:215,0,-9.85717,-4.39408,-18.6445,Q,Q
2023-03-15 22:18:27:225,0,-9.83867,-4.37847,-18.6963,Q,Q
2023-03-15 22:18:27:235,0,-9.8143,-4.36163,-18.7412,Q,Q
2023-03-15 22:18:27:245,0,-9.78286,-4.34795,-18.78,Q,Q
2023-03-15 22:18:27:255,0,-9.75353,-4.33329,-18.8182,Q,Q
2023-03-15 22:18:27:265,0,-9.72263,-4.31104,-18.8643,Q,Q
2023-03-15 22:18:27:275,0,-9.69216,-4.27985,-18.9098,Q,Q
2023-03-15 22:18:27:285,0,-9.66297,-4.24835,-18.9588,Q,Q
2023-03-15 22:18:27:295,0,-9.63334,-4.2172,-19.0133,Q,Q
2023-03-15 22:18:27:305,0,-9.60617,-4.1877,-19.0737,Q,Q
2023-03-15 22:18:27:315,0,-9.59066,-4.15073,-19.1371,Q,Q
2023-03-15 22:18:27:325,0,-9.59533,-4.11143,-19.2099,Q,Q
2023-03-15 22:18:27:335,0,-9.62212,-4.07276,-19.2921,Q,Q
2023-03-15 22:18:27:345,0,-9.66745,-4.02579,-19.3864,Q,Q
2023-03-15 22:18:27:355,0,-9.71881,-3.97373,-19.4851,Q,Q
2023-03-15 22:18:27:365,0,-9.76103,-3.92055,-19.5881,Q,Q
2023-03-15 22:18:27:375,0,-9.78683,-3.87165,-19.6954,Q,Q
2023-03-15 22:18:27:385,0,-9.7948,-3.82452,-19.798,Q,Q
2023-03-15 22:18:27:395,0,-9.79426,-3.7779,-19.8878,Q,Q
2023-03-15 22:18:27:405,0,-9.7891,-3.73804,-19.9692,Q,Q
2023-03-15 22:18:27:415,0,-9.76872,-3.70244,-20.0478,Q,Q
2023-03-15 22:18:27:425,0,-9.72715,-3.67303,-20.1227,Q,Q
2023-03-15 22:18:27:435,0,-9.6695,-3.64111,-20.1928,Q,Q
2023-03-15 22:18:27:445,0,-9.60211,-3.60764,-20.2482,Q,Q
2023-03-15 22:18:27:455,0,-9.53158,-3.578,-20.3057,Q,Q
2023-03-15 22:18:27:465,0,-9.44728,-3.55125,-20.3614,Q,Q
2023-03-15 22:18:27:475,0,-9.34578,-3.52547,-20.4237,Q,Q
2023-03-15 22:18:27:485,0,-9.22815,-3.50408,-20.4907,Q,Q
2023-03-15 22:18:27:495,0,-9.10881,-3.47649,-20.5491,Q,Q
2023-03-15 22:18:27:505,0,-8.98656,-3.44669,-20.6053,Q,Q
2023-03-15 22:18:27:515,0,-8.87005,-3.40446,-20.662,Q,Q
2023-03-15 22:18:27:525,0,-8.75513,-3.35722,-20.7192,Q,Q
2023-03-15 22:18:27:535,0,-8.63393,-3.30797,-20.7721,Q,Q
2023-03-15 22:18:27:545,0,-8.49972,-3.25618,-20.8112,Q,Q
2023-03-15 22:18:27:555,0,-8.36188,-3.20521,-20.83,Q,Q
2023-03-15 22:18:27:565,0,-8.24069,-3.16136,-20.8233,Q,Q
2023-03-15 22:18:27:575,0,-8.15314,-3.13816,-20.7961,Q,Q
2023-03-15 22:18:27:585,0,-8.09748,-3.13146,-20.7579,Q,Q
2023-03-15 22:18:27:595,0,-8.05539,-3.1431,-20.7117,Q,Q
2023-03-15 22:18:27:605,0,-8.01564,-3.16415,-20.6603,Q,Q
2023-03-15 22:18:27:615,0,-7.96957,-3.19045,-20.6127,Q,Q
2023-03-15 22:18:27:625,0,-7.93106,-3.22248,-20.5666,Q,Q
2023-03-15 22:18:27:635,0,-7.90953,-3.26107,-20.5204,Q,Q
2023-03-15 22:18:27:645,0,-7.90474,-3.3077,-20.4798,Q,Q
2023-03-15 22:18:27:655,0,-7.91679,-3.36088,-20.4496,Q,Q
2023-03-15 22:18:27:667,0,-7.94486,-3.41575,-20.421,Q,Q
2023-03-15 22:18:27:675,0,-7.98994,-3.47033,-20.397,Q,Q
2023-03-15 22:18:27:685,0,-8.06312,-3.53302,-20.3693,Q,Q
2023-03-15 22:18:27:695,0,-8.15467,-3.59768,-20.343,Q,Q
2023-03-15 22:18:27:705,0,-8.24884,-3.67069,-20.3245,Q,Q
2023-03-15 22:18:27:715,0,-8.33203,-3.74419,-20.3095,Q,Q
2023-03-15 22:18:27:725,0,-8.40534,-3.81599,-20.3031,Q,Q
2023-03-15 22:18:27:735,0,-8.47404,-3.88316,-20.3025,Q,Q
2023-03-15 22:18:27:745,0,-8.53991,-3.94495,-20.3097,Q,Q
2023-03-15 22:18:27:755,0,-8.61611,-4.00556,-20.3187,Q,Q
2023-03-15 22:18:27:765,0,-8.70877,-4.0649,-20.3369,Q,Q
2023-03-15 22:18:27:775,0,-8.81421,-4.12695,-20.3604,Q,Q
2023-03-15 22:18:27:785,0,-8.9296,-4.19797,-20.3845,Q,Q
2023-03-15 22:18:27:795,0,-9.04947,-4.27572,-20.4177,Q,Q
2023-03-15 22:18:27:805,0,-9.16367,-4.36146,-20.4605,Q,Q
2023-03-15 22:18:27:815,0,-9.24656,-4.44542,-20.5298,Q,Q
2023-03-15 22:18:27:825,0,-9.26622,-4.51277,-20.6137,Q,Q
2023-03-15 22:18:27:835,0,-9.27545,-4.56248,-20.6984,Q,Q
2023-03-15 22:18:27:845,0,-9.29723,-4.5867,-20.7923,Q,Q
2023-03-15 22:18:27:855,0,-9.34086,-4.59805,-20.8935,Q,Q
2023-03-15 22:18:27:865,0,-9.40497,-4.59944,-20.9968,Q,Q
2023-03-15 22:18:27:875,0,-9.49348,-4.59354,-21.1007,Q,Q
2023-03-15 22:18:27:885,0,-9.58987,-4.5807,-21.2068,Q,Q
2023-03-15 22:18:27:895,0,-9.67977,-4.56138,-21.314,Q,Q
2023-03-15 22:18:27:905,0,-9.75389,-4.53033,-21.4153,Q,Q
2023-03-15 22:18:27:915,0,-9.82937,-4.50087,-21.5047,Q,Q
2023-03-15 22:18:27:925,0,-9.90877,-4.47154,-21.5812,Q,Q
2023-03-15 22:18:27:935,0,-9.98318,-4.44158,-21.6512,Q,Q
2023-03-15 22:18:27:945,0,-10.0525,-4.40842,-21.7113,Q,Q
2023-03-15 22:18:27:955,0,-10.1254,-4.37692,-21.7514,Q,Q
2023-03-15 22:18:27:965,0,-10.1971,-4.34967,-21.7833,Q,Q
2023-03-15 22:18:27:975,0,-10.2477,-4.332,-21.8098,Q,Q
2023-03-15 22:18:27:985,0,-10.2786,-4.31891,-21.8169,Q,Q
2023-03-15 22:18:27:995,0,-10.2982,-4.31157,-21.8044,Q,Q
2023-03-15 22:18:28:5,0,-10.3348,-4.31959,-21.7671,Q,Q
2023-03-15 22:18:28:15,0,-10.3985,-4.34843,-21.7154,Q,Q
2023-03-15 22:18:28:25,0,-10.4862,-4.40702,-21.6463,Q,Q
2023-03-15 22:18:28:35,0,-10.5878,-4.48336,-21.5672,Q,Q
2023-03-15 22:18:28:45,0,-10.6946,-4.57842,-21.4838,Q,Q
2023-03-15 22:18:28:55,0,-10.794,-4.67954,-21.399,Q,Q
2023-03-15 22:18:28:65,0,-10.8673,-4.77586,-21.3172,Q,Q
2023-03-15 22:18:28:75,0,-10.91,-4.86261,-21.2378,Q,Q
2023-03-15 22:18:28:85,0,-10.9365,-4.9347,-21.1577,Q,Q
2023-03-15 22:18:28:95,0,-10.9626,-4.99944,-21.0708,Q,Q
2023-03-15 22:18:28:105,0,-10.9889,-5.06587,-20.975,Q,Q
2023-03-15 22:18:28:115,0,-10.9996,-5.13834,-20.8624,Q,Q
2023-03-15 22:18:28:125,0,-11.0021,-5.21785,-20.7378,Q,Q
2023-03-15 22:18:28:135,0,-10.9845,-5.3042,-20.5997,Q,Q
2023-03-15 22:18:28:145,0,-10.9443,-5.39801,-20.4483,Q,Q
2023-03-15 22:18:28:155,0,-10.8929,-5.48711,-20.2854,Q,Q
2023-03-15 22:18:28:165,0,-10.8362,-5.56879,-20.1179,Q,Q
2023-03-15 22:18:28:175,0,-10.7728,-5.637,-19.9571,Q,Q
2023-03-15 22:18:28:185,0,-10.7041,-5.68643,-19.8077,Q,Q
2023-03-15 22:18:28:195,0,-10.6342,-5.71666,-19.6743,Q,Q
2023-03-15 22:18:28:205,0,-10.5668,-5.72867,-19.5563,Q,Q
2023-03-15 22:18:28:215,0,-10.5094,-5.72217,-19.4603,Q,Q
2023-03-15 22:18:28:225,0,-10.4707,-5.70462,-19.3827,Q,Q
2023-03-15 22:18:28:235,0,-10.4629,-5.6844,-19.3214,Q,Q
2023-03-15 22:18:28:245,0,-10.4806,-5.65985,-19.2772,Q,Q
2023-03-15 22:18:28:255,0,-10.5246,-5.63964,-19.2437,Q,Q
2023-03-15 22:18:28:265,0,-10.5778,-5.62855,-19.2201,Q,Q
2023-03-15 22:18:28:275,0,-10.6431,-5.62288,-19.1996,Q,Q
2023-03-15 22:18:28:285,0,-10.7171,-5.62837,-19.1823,Q,Q
2023-03-15 22:18:28:295,0,-10.7877,-5.63751,-19.1645,Q,Q
2023-03-15 22:18:28:305,0,-10.8552,-5.65131,-19.1379,Q,Q
2023-03-15 22:18:28:315,0,-10.9214,-5.66501,-19.0917,Q,Q
2023-03-15 22:18:28:325,0,-10.9919,-5.68041,-19.0317,Q,Q
2023-03-15 22:18:28:335,0,-11.0634,-5.70113,-18.9584,Q,Q
2023-03-15 22:18:28:345,0,-11.138,-5.7226,-18.872,Q,Q
2023-03-15 22:18:28:355,0,-11.2017,-5.74352,-18.7865,Q,Q
2023-03-15 22:18:28:365,0,-11.2504,-5.75279,-18.6943,Q,Q
2023-03-15 22:18:28:375,0,-11.288,-5.761,-18.5946,Q,Q
2023-03-15 22:18:28:385,0,-11.3125,-5.76957,-18.4905,Q,Q
2023-03-15 22:18:28:395,0,-11.3272,-5.78299,-18.3818,Q,Q
2023-03-15 22:18:28:405,0,-11.3273,-5.80108,-18.2805,Q,Q
2023-03-15 22:18:28:415,0,-11.3214,-5.81693,-18.1857,Q,Q
2023-03-15 22:18:28:425,0,-11.3191,-5.83142,-18.0944,Q,Q
2023-03-15 22:18:28:435,0,-11.3207,-5.84571,-18.0042,Q,Q
2023-03-15 22:18:28:445,0,-11.3229,-5.86792,-17.9153,Q,Q
2023-03-15 22:18:28:455,0,-11.3213,-5.89291,-17.8271,Q,Q
2023-03-15 22:18:28:465,0,-11.3071,-5.92223,-17.7461,Q,Q
2023-03-15 22:18:28:475,0,-11.2773,-5.94365,-17.6718,Q,Q
2023-03-15 22:18:28:485,0,-11.2297,-5.95384,-17.6157,Q,Q
2023-03-15 22:18:28:495,0,-11.1792,-5.95219,-17.5603,Q,Q
2023-03-15 22:18:28:505,0,-11.125,-5.93918,-17.5055,Q,Q
2023-03-15 22:18:28:515,0,-11.0754,-5.92714,-17.4522,Q,Q
2023-03-15 22:18:28:525,0,-11.0291,-5.92254,-17.3988,Q,Q
2023-03-15 22:18:28:535,0,-10.9849,-5.92192,-17.3486,Q,Q
2023-03-15 22:18:28:545,0,-10.9373,-5.91933,-17.2986,Q,Q
2023-03-15 22:18:28:555,0,-10.8782,-5.92098,-17.2501,Q,Q
2023-03-15 22:18:28:565,0,-10.8171,-5.91776,-17.2098,Q,Q
2023-03-15 22:18:28:575,0,-10.7562,-5.90873,-17.1851,Q,Q
2023-03-15 22:18:28:585,0,-10.6936,-5.896,-17.1666,Q,Q
2023-03-15 22:18:28:595,0,-10.6342,-5.88183,-17.1583,Q,Q
2023-03-15 22:18:28:605,0,-10.5706,-5.86917,-17.1509,Q,Q
2023-03-15 22:18:28:615,0,-10.5115,-5.86177,-17.1417,Q,Q
2023-03-15 22:18:28:625,0,-10.4595,-5.86252,-17.1342,Q,Q
2023-03-15 22:18:28:635,0,-10.4174,-5.87134,-17.123,Q,Q
2023-03-15 22:18:28:645,0,-10.388,-5.88168,-17.1103,Q,Q
2023-03-15 22:18:28:655,0,-10.363,-5.89466,-17.0959,Q,Q
2023-03-15 22:18:28:665,0,-10.3378,-5.90111,-17.0849,Q,Q
2023-03-15 22:18:28:675,0,-10.3114,-5.90615,-17.0756,Q,Q
2023-03-15 22:18:28:685,0,-10.2914,-5.9082,-17.054,Q,Q
2023-03-15 22:18:28:695,0,-10.2824,-5.90536,-17.0269,Q,Q
2023-03-15 22:18:28:705,0,-10.2806,-5.89892,-16.9943,Q,Q
2023-03-15 22:18:28:715,0,-10.2891,-5.88662,-16.9557,Q,Q
2023-03-15 22:18:28:725,0,-10.3034,-5.86874,-16.9164,Q,Q
2023-03-15 22:18:28:735,0,-10.3261,-5.84567,-16.8717,Q,Q
2023-03-15 22:18:28:744,0,-10.3498,-5.81904,-16.8302,Q,Q
2023-03-15 22:18:28:755,0,-10.3775,-5.79172,-16.7842,Q,Q
2023-03-15 22:18:28:765,0,-10.3985,-5.76825,-16.7417,Q,Q
2023-03-15 22:18:28:775,0,-10.4131,-5.74908,-16.7076,Q,Q
2023-03-15 22:18:28:785,0,-10.4139,-5.7356,-16.6843,Q,Q
2023-03-15 22:18:28:795,0,-10.4061,-5.72482,-16.6704,Q,Q
2023-03-15 22:18:28:805,0,-10.3865,-5.71247,-16.6643,Q,Q
2023-03-15 22:18:28:815,0,-10.3595,-5.70384,-16.6673,Q,Q
2023-03-15 22:18:28:825,0,-10.331,-5.70107,-16.6771,Q,Q
2023-03-15 22:18:28:835,0,-10.3049,-5.70012,-16.6862,Q,Q
2023-03-15 22:18:28:845,0,-10.2813,-5.69853,-16.6969,Q,Q
2023-03-15 22:18:28:855,0,-10.2514,-5.69772,-16.7147,Q,Q
2023-03-15 22:18:28:865,0,-10.2163,-5.69997,-16.7286,Q,Q
2023-03-15 22:18:28:875,0,-10.1804,-5.70389,-16.7412,Q,Q
2023-03-15 22:18:28:885,0,-10.1415,-5.71145,-16.7492,Q,Q
2023-03-15 22:18:28:894,0,-10.0977,-5.71643,-16.7586,Q,Q
2023-03-15 22:18:28:905,0,-10.0539,-5.72677,-16.766,Q,Q
2023-03-15 22:18:28:915,0,-10.0089,-5.73615,-16.7679,Q,Q
2023-03-15 22:18:28:925,0,-9.97074,-5.74274,-16.7651,Q,Q
2023-03-15 22:18:28:935,0,-9.93599,-5.7491,-16.7602,Q,Q
2023-03-15 22:18:28:944,0,-9.91112,-5.75726,-16.7538,Q,Q
2023-03-15 22:18:28:955,0,-9.89069,-5.76872,-16.7416,Q,Q
2023-03-15 22:18:28:965,0,-9.8678,-5.78098,-16.7281,Q,Q
2023-03-15 22:18:28:974,0,-9.84781,-5.79518,-16.7181,Q,Q
2023-03-15 22:18:28:985,0,-9.82764,-5.80462,-16.7025,Q,Q
2023-03-15 22:18:28:995,0,-9.80454,-5.81511,-16.6901,Q,Q
2023-03-15 22:18:29:5,0,-9.78042,-5.82395,-16.6735,Q,Q
2023-03-15 22:18:29:15,0,-9.75786,-5.83186,-16.6621,Q,Q
2023-03-15 22:18:29:25,0,-9.73953,-5.83591,-16.6542,Q,Q
2023-03-15 22:18:29:35,0,-9.71941,-5.83688,-16.6477,Q,Q
2023-03-15 22:18:29:45,0,-9.70434,-5.83452,-16.6417,Q,Q
2023-03-15 22:18:29:55,0,-9.69164,-5.83164,-16.634,Q,Q
2023-03-15 22:18:29:65,0,-9.67713,-5.82611,-16.6293,Q,Q
2023-03-15 22:18:29:75,0,-9.66549,-5.81941,-16.6247,Q,Q
2023-03-15 22:18:29:85,0,-9.65259,-5.81319,-16.6236,Q,Q
2023-03-15 22:18:29:95,0,-9.63396,-5.80888,-16.6213,Q,Q
2023-03-15 22:18:29:105,0,-9.61491,-5.80413,-16.6237,Q,Q
2023-03-15 22:18:29:115,0,-9.59238,-5.80272,-16.6234,Q,Q
2023-03-15 22:18:29:125,0,-9.56792,-5.79948,-16.6224,Q,Q
2023-03-15 22:18:29:135,0,-9.54394,-5.79426,-16.6172,Q,Q
2023-03-15 22:18:29:145,0,-9.52231,-5.79324,-16.61,Q,Q
2023-03-15 22:18:29:155,0,-9.5056,-5.79363,-16.6008,Q,Q
2023-03-15 22:18:29:165,0,-9.47943,-5.79682,-16.5886,Q,Q
2023-03-15 22:18:29:175,0,-9.45448,-5.80142,-16.5699,Q,Q
2023-03-15 22:18:29:185,0,-9.4266,-5.80742,-16.5445,Q,Q
2023-03-15 22:18:29:195,0,-9.40518,-5.81482,-16.5195,Q,Q
2023-03-15 22:18:29:205,0,-9.39398,-5.81964,-16.4926,Q,Q
2023-03-15 22:18:29:215,0,-9.38598,-5.8214,-16.4656,Q,Q
2023-03-15 22:18:29:224,0,-9.38169,-5.82562,-16.4318,Q,Q
2023-03-15 22:18:29:235,0,-9.38159,-5.82417,-16.4026,Q,Q
2023-03-15 22:18:29:245,0,-9.37913,-5.82315,-16.3761,Q,Q
2023-03-15 22:18:29:254,0,-9.36889,-5.81837,-16.356,Q,Q
2023-03-15 22:18:29:264,0,-9.35094,-5.81077,-16.3397,Q,Q
2023-03-15 22:18:29:275,0,-9.33155,-5.79966,-16.3315,Q,Q
2023-03-15 22:18:29:284,0,-9.30717,-5.78612,-16.3206,Q,Q
2023-03-15 22:18:29:295,0,-9.28107,-5.77114,-16.3148,Q,Q
2023-03-15 22:18:29:305,0,-9.25611,-5.75514,-16.3078,Q,Q
2023-03-15 22:18:29:315,0,-9.23546,-5.73559,-16.2984,Q,Q
2023-03-15 22:18:29:325,0,-9.21902,-5.71808,-16.2969,Q,Q
2023-03-15 22:18:29:335,0,-9.20684,-5.69827,-16.2944,Q,Q
2023-03-15 22:18:29:345,0,-9.19898,-5.67943,-16.293,Q,Q
2023-03-15 22:18:29:355,0,-9.18803,-5.6574,-16.2924,Q,Q
2023-03-15 22:18:29:364,0,-9.17741,-5.63019,-16.2915,Q,Q
2023-03-15 22:18:29:375,0,-9.16145,-5.60036,-16.2927,Q,Q
2023-03-15 22:18:29:384,0,-9.14533,-5.57435,-16.2869,Q,Q
2023-03-15 22:18:29:395,0,-9.12611,-5.54937,-16.2779,Q,Q
2023-03-15 22:18:29:405,0,-9.11279,-5.52773,-16.2673,Q,Q
2023-03-15 22:18:29:415,0,-9.11014,-5.50925,-16.255,Q,Q
2023-03-15 22:18:29:425,0,-9.11183,-5.4922,-16.2479,Q,Q
2023-03-15 22:18:29:435,0,-9.11423,-5.47433,-16.2427,Q,Q
2023-03-15 22:18:29:444,0,-9.11826,-5.45957,-16.239,Q,Q
2023-03-15 22:18:29:455,0,-9.11915,-5.44386,-16.2429,Q,Q
2023-03-15 22:18:29:464,0,-9.11719,-5.42622,-16.2481,Q,Q
2023-03-15 22:18:29:474,0,-9.11432,-5.41582,-16.2512,Q,Q
2023-03-15 22:18:29:485,0,-9.11277,-5.40624,-16.2573,Q,Q
2023-03-15 22:18:29:495,0,-9.1064,-5.39774,-16.2631,Q,Q
2023-03-15 22:18:29:504,0,-9.09934,-5.39299,-16.2735,Q,Q
2023-03-15 22:18:29:514,0,-9.09828,-5.39178,-16.2786,Q,Q
2023-03-15 22:18:29:524,0,-9.09141,-5.39151,-16.2787,Q,Q
2023-03-15 22:18:29:534,0,-9.0863,-5.39537,-16.2749,Q,Q
2023-03-15 22:18:29:544,0,-9.08673,-5.40103,-16.2665,Q,Q
2023-03-15 22:18:29:555,0,-9.08461,-5.41344,-16.2528,Q,Q
2023-03-15 22:18:29:565,0,-9.08713,-5.42086,-16.2374,Q,Q
2023-03-15 22:18:29:575,0,-9.09083,-5.42921,-16.219,Q,Q
2023-03-15 22:18:29:584,0,-9.08874,-5.44029,-16.1962,Q,Q
2023-03-15 22:18:29:594,0,-9.08589,-5.4501,-16.1717,Q,Q
2023-03-15 22:18:29:604,0,-9.07856,-5.45977,-16.1471,Q,Q
2023-03-15 22:18:29:614,0,-9.067,-5.46668,-16.1226,Q,Q
2023-03-15 22:18:29:624,0,-9.0585,-5.47455,-16.095,Q,Q
2023-03-15 22:18:29:635,0,-9.05336,-5.48233,-16.071,Q,Q
2023-03-15 22:18:29:644,0,-9.05281,-5.48851,-16.0518,Q,Q
2023-03-15 22:18:29:655,0,-9.05608,-5.492,-16.036,Q,Q
2023-03-15 22:18:29:664,0,-9.05615,-5.49294,-16.0273,Q,Q
2023-03-15 22:18:29:674,0,-9.0579,-5.49242,-16.0218,Q,Q
2023-03-15 22:18:29:684,0,-9.05508,-5.49418,-16.0179,Q,Q
2023-03-15 22:18:29:694,0,-9.05089,-5.49208,-16.0178,Q,Q
2023-03-15 22:18:29:704,0,-9.04304,-5.48988,-16.0244,Q,Q
2023-03-15 22:18:29:714,0,-9.03403,-5.48675,-16.0314,Q,Q
2023-03-15 22:18:29:724,0,-9.02069,-5.48044,-16.042,Q,Q
2023-03-15 22:18:29:735,0,-9.00727,-5.47171,-16.0542,Q,Q
2023-03-15 22:18:29:744,0,-8.99296,-5.46624,-16.0671,Q,Q
2023-03-15 22:18:29:755,0,-8.97265,-5.45948,-16.0809,Q,Q
2023-03-15 22:18:29:764,0,-8.95252,-5.44867,-16.0921,Q,Q
2023-03-15 22:18:29:775,0,-8.92953,-5.43967,-16.1009,Q,Q
2023-03-15 22:18:29:784,0,-8.90977,-5.43037,-16.1088,Q,Q
2023-03-15 22:18:29:794,0,-8.89394,-5.42146,-16.1163,Q,Q
2023-03-15 22:18:29:804,0,-8.87632,-5.41438,-16.1235,Q,Q
2023-03-15 22:18:29:814,0,-8.85828,-5.40956,-16.1273,Q,Q
2023-03-15 22:18:29:824,0,-8.83958,-5.4045,-16.1255,Q,Q
2023-03-15 22:18:29:834,0,-8.81971,-5.40001,-16.1253,Q,Q
2023-03-15 22:18:29:844,0,-8.80399,-5.38957,-16.1267,Q,Q
2023-03-15 22:18:29:854,0,-8.78849,-5.38291,-16.126,Q,Q
2023-03-15 22:18:29:864,0,-8.77188,-5.37822,-16.1262,Q,Q
2023-03-15 22:18:29:875,0,-8.75675,-5.37511,-16.1296,Q,Q
2023-03-15 22:18:29:885,0,-8.74101,-5.37279,-16.1326,Q,Q
2023-03-15 22:18:29:895,0,-8.72335,-5.36977,-16.1355,Q,Q
2023-03-15 22:18:29:905,0,-8.70965,-5.36722,-16.1387,Q,Q
2023-03-15 22:18:29:914,0,-8.70154,-5.36974,-16.1359,Q,Q
2023-03-15 22:18:29:924,0,-8.702,-5.37495,-16.1272,Q,Q
2023-03-15 22:18:29:935,0,-8.69633,-5.38485,-16.1168,Q,Q
2023-03-15 22:18:29:944,0,-8.68644,-5.3937,-16.1051,Q,Q
2023-03-15 22:18:29:954,0,-8.6763,-5.40645,-16.0861,Q,Q
2023-03-15 22:18:29:964,0,-8.67064,-5.41771,-16.0602,Q,Q
2023-03-15 22:18:29:974,0,-8.67113,-5.4254,-16.0316,Q,Q
2023-03-15 22:18:29:984,0,-8.68025,-5.43406,-16.0002,Q,Q
2023-03-15 22:18:29:995,0,-8.69134,-5.43817,-15.9732,Q,Q
2023-03-15 22:18:30:4,0,-8.70405,-5.44003,-15.9477,Q,Q
2023-03-15 22:18:30:14,0,-8.72119,-5.4376,-15.924,Q,Q
2023-03-15 22:18:30:24,0,-8.73514,-5.43916,-15.9034,Q,Q
2023-03-15 22:18:30:34,0,-8.7475,-5.44564,-15.8883,Q,Q
2023-03-15 22:18:30:44,0,-8.75335,-5.45688,-15.8773,Q,Q
2023-03-15 22:18:30:54,0,-8.74781,-5.47942,-15.8751,Q,Q
2023-03-15 22:18:30:64,0,-8.73728,-5.50539,-15.8777,Q,Q
2023-03-15 22:18:30:74,0,-8.72594,-5.53729,-15.8879,Q,Q
2023-03-15 22:18:30:84,0,-8.7157,-5.56842,-15.8963,Q,Q
2023-03-15 22:18:30:94,0,-8.70817,-5.59616,-15.9084,Q,Q
2023-03-15 22:18:30:104,0,-8.70941,-5.62398,-15.9263,Q,Q
2023-03-15 22:18:30:114,0,-8.71445,-5.65172,-15.9407,Q,Q
2023-03-15 22:18:30:124,0,-8.71421,-5.68345,-15.9537,Q,Q
2023-03-15 22:18:30:134,0,-8.71352,-5.71538,-15.9709,Q,Q
2023-03-15 22:18:30:144,0,-8.70336,-5.73871,-15.9852,Q,Q
2023-03-15 22:18:30:154,0,-8.69186,-5.75961,-16.001,Q,Q
2023-03-15 22:18:30:164,0,-8.6727,-5.77822,-16.0101,Q,Q
2023-03-15 22:18:30:174,0,-8.65365,-5.7962,-16.0135,Q,Q
2023-03-15 22:18:30:184,0,-8.64205,-5.80604,-16.0036,Q,Q
2023-03-15 22:18:30:194,0,-8.63941,-5.81502,-15.9894,Q,Q
2023-03-15 22:18:30:204,0,-8.63822,-5.81273,-15.9665,Q,Q
2023-03-15 22:18:30:214,0,-8.63707,-5.80182,-15.9334,Q,Q
2023-03-15 22:18:30:224,0,-8.63528,-5.78176,-15.8891,Q,Q
2023-03-15 22:18:30:234,0,-8.63452,-5.76,-15.8381,Q,Q
2023-03-15 22:18:30:244,0,-8.62999,-5.74152,-15.7867,Q,Q
2023-03-15 22:18:30:254,0,-8.62944,-5.75455,-15.7304,Q,Q
2023-03-15 22:18:30:264,0,-8.65027,-5.74069,-15.6825,Q,Q
2023-03-15 22:18:30:274,0,-8.6496,-5.70336,-15.6458,Q,Q
2023-03-15 22:18:30:284,0,-8.64418,-5.66698,-15.6223,Q,Q
2023-03-15 22:18:30:294,0,-8.64364,-5.62813,-15.6089,Q,Q
2023-03-15 22:18:30:304,0,-8.65442,-5.58388,-15.59,Q,Q
2023-03-15 22:18:30:314,0,-8.68056,-5.55964,-15.5664,Q,Q
2023-03-15 22:18:30:324,0,-8.73139,-5.52685,-15.5419,Q,Q
2023-03-15 22:18:30:334,0,-8.76587,-5.47666,-15.5348,Q,Q
2023-03-15 22:18:30:344,0,-8.78375,-5.45029,-15.5318,Q,Q
2023-03-15 22:18:30:354,0,-8.81373,-5.43903,-15.5218,Q,Q
2023-03-15 22:18:30:364,0,-8.86286,-5.43821,-15.528,Q,Q
2023-03-15 22:18:30:374,0,-8.90376,-5.42249,-15.5551,Q,Q
2023-03-15 22:18:30:384,0,-8.92537,-5.40155,-15.5929,Q,Q
2023-03-15 22:18:30:394,0,-8.93996,-5.38372,-15.6225,Q,Q
2023-03-15 22:18:30:404,0,-8.96461,-5.37217,-15.6497,Q,Q
2023-03-15 22:18:30:414,0,-8.99232,-5.36227,-15.6653,Q,Q
2023-03-15 22:18:30:424,0,-9.02249,-5.35535,-15.6728,Q,Q
2023-03-15 22:18:30:434,0,-9.04912,-5.35369,-15.6744,Q,Q
2023-03-15 22:18:30:444,0,-9.07591,-5.35332,-15.6743,Q,Q
2023-03-15 22:18:30:454,0,-9.09433,-5.34808,-15.6722,Q,Q
2023-03-15 22:18:30:464,0,-9.10421,-5.3425,-15.6667,Q,Q
2023-03-15 22:18:30:474,0,-9.10644,-5.34769,-15.654,Q,Q
2023-03-15 22:18:30:484,0,-9.11493,-5.37302,-15.6336,Q,Q
2023-03-15 22:18:30:494,0,-9.13749,-5.41063,-15.6073,Q,Q
2023-03-15 22:18:30:504,0,-9.16281,-5.44972,-15.5834,Q,Q
2023-03-15 22:18:30:514,0,-9.18276,-5.48206,-15.5576,Q,Q
2023-03-15 22:18:30:524,0,-9.19428,-5.51247,-15.5283,Q,Q
2023-03-15 22:18:30:534,0,-9.19657,-5.54403,-15.4999,Q,Q
2023-03-15 22:18:30:544,0,-9.20291,-5.58518,-15.4728,Q,Q
2023-03-15 22:18:30:554,0,-9.2174,-5.63348,-15.4476,Q,Q
2023-03-15 22:18:30:564,0,-9.23771,-5.67804,-15.4275,Q,Q
2023-03-15 22:18:30:574,0,-9.2546,-5.71227,-15.4145,Q,Q
2023-03-15 22:18:30:584,0,-9.26749,-5.72829,-15.4062,Q,Q
2023-03-15 22:18:30:594,0,-9.27192,-5.72192,-15.4021,Q,Q
2023-03-15 22:18:30:604,0,-9.26361,-5.70765,-15.4053,Q,Q
2023-03-15 22:18:30:614,0,-9.25866,-5.69609,-15.4074,Q,Q
2023-03-15 22:18:30:624,0,-9.26384,-5.68523,-15.4084,Q,Q
2023-03-15 22:18:30:634,0,-9.27343,-5.67024,-15.4135,Q,Q
2023-03-15 22:18:30:644,0,-9.28112,-5.65213,-15.4208,Q,Q
2023-03-15 22:18:30:654,0,-9.29123,-5.63439,-15.4329,Q,Q
2023-03-15 22:18:30:664,0,-9.30877,-5.61967,-15.4494,Q,Q
2023-03-15 22:18:30:674,0,-9.32397,-5.60679,-15.4663,Q,Q
2023-03-15 22:18:30:684,0,-9.33282,-5.59985,-15.4852,Q,Q
2023-03-15 22:18:30:694,0,-9.33348,-5.60176,-15.4961,Q,Q
2023-03-15 22:18:30:704,0,-9.33354,-5.61367,-15.4967,Q,Q
2023-03-15 22:18:30:714,0,-9.3362,-5.63808,-15.4928,Q,Q
2023-03-15 22:18:30:724,0,-9.34485,-5.66886,-15.4863,Q,Q
2023-03-15 22:18:30:734,0,-9.35727,-5.70522,-15.4759,Q,Q
2023-03-15 22:18:30:744,0,-9.36916,-5.73656,-15.4602,Q,Q
2023-03-15 22:18:30:754,0,-9.37398,-5.76183,-15.4415,Q,Q
2023-03-15 22:18:30:764,0,-9.37699,-5.78794,-15.4228,Q,Q
2023-03-15 22:18:30:774,0,-9.37913,-5.80374,-15.4017,Q,Q
2023-03-15 22:18:30:784,0,-9.37145,-5.81043,-15.3784,Q,Q
2023-03-15 22:18:30:794,0,-9.35413,-5.814,-15.354,Q,Q
2023-03-15 22:18:30:804,0,-9.33917,-5.80973,-15.3263,Q,Q
2023-03-15 22:18:30:814,0,-9.32634,-5.81011,-15.2966,Q,Q
2023-03-15 22:18:30:824,0,-9.31792,-5.80983,-15.2724,Q,Q
2023-03-15 22:18:30:834,0,-9.31664,-5.80123,-15.2527,Q,Q
2023-03-15 22:18:30:844,0,-9.31326,-5.79274,-15.2399,Q,Q
2023-03-15 22:18:30:854,0,-9.31217,-5.77884,-15.2299,Q,Q
2023-03-15 22:18:30:864,0,-9.31091,-5.76613,-15.2214,Q,Q
2023-03-15 22:18:30:874,0,-9.30789,-5.75378,-15.2161,Q,Q
2023-03-15 22:18:30:884,0,-9.30209,-5.7468,-15.2121,Q,Q
2023-03-15 22:18:30:894,0,-9.30205,-5.74112,-15.2088,Q,Q
2023-03-15 22:18:30:904,0,-9.2968,-5.73713,-15.2138,Q,Q
2023-03-15 22:18:30:914,0,-9.28966,-5.73627,-15.2181,Q,Q
2023-03-15 22:18:30:924,0,-9.28047,-5.7389,-15.2204,Q,Q
2023-03-15 22:18:30:934,0,-9.27804,-5.74007,-15.2239,Q,Q
2023-03-15 22:18:30:944,0,-9.28031,-5.7323,-15.2275,Q,Q
2023-03-15 22:18:30:954,0,-9.26953,-5.71659,-15.2349,Q,Q
2023-03-15 22:18:30:964,0,-9.25634,-5.70535,-15.2427,Q,Q
2023-03-15 22:18:30:974,0,-9.25145,-5.70195,-15.2463,Q,Q
2023-03-15 22:18:30:984,0,-9.25197,-5.70322,-15.2449,Q,Q
2023-03-15 22:18:30:994,0,-9.25363,-5.70526,-15.2482,Q,Q
2023-03-15 22:18:31:4,0,-9.24942,-5.70165,-15.2483,Q,Q
2023-03-15 22:18:31:14,0,-9.23464,-5.6989,-15.2488,Q,Q
2023-03-15 22:18:31:24,0,-9.2208,-5.69299,-15.2483,Q,Q
2023-03-15 22:18:31:34,0,-9.20897,-5.68994,-15.2451,Q,Q
2023-03-15 22:18:31:44,0,-9.19243,-5.67772,-15.2416,Q,Q
2023-03-15 22:18:31:54,0,-9.1727,-5.66744,-15.2403,Q,Q
2023-03-15 22:18:31:64,0,-9.15477,-5.6625,-15.233,Q,Q
2023-03-15 22:18:31:74,0,-9.13998,-5.65949,-15.2204,Q,Q
2023-03-15 22:18:31:84,0,-9.12982,-5.65654,-15.2014,Q,Q
2023-03-15 22:18:31:94,0,-9.12537,-5.65653,-15.1828,Q,Q
2023-03-15 22:18:31:104,0,-9.11893,-5.66084,-15.1636,Q,Q
2023-03-15 22:18:31:114,0,-9.11124,-5.66812,-15.1384,Q,Q
2023-03-15 22:18:31:124,0,-9.10806,-5.67518,-15.1153,Q,Q
2023-03-15 22:18:31:134,0,-9.10698,-5.68203,-15.0917,Q,Q
2023-03-15 22:18:31:144,0,-9.10773,-5.68556,-15.0716,Q,Q
2023-03-15 22:18:31:154,0,-9.11349,-5.68988,-15.0532,Q,Q
2023-03-15 22:18:31:164,0,-9.11001,-5.68858,-15.0389,Q,Q
2023-03-15 22:18:31:174,0,-9.10867,-5.68398,-15.0294,Q,Q
2023-03-15 22:18:31:184,0,-9.10304,-5.67979,-15.0194,Q,Q
2023-03-15 22:18:31:194,0,-9.09684,-5.67823,-15.0094,Q,Q
2023-03-15 22:18:31:204,0,-9.09061,-5.67473,-14.9939,Q,Q
2023-03-15 22:18:31:214,0,-9.08174,-5.67325,-14.977,Q,Q
2023-03-15 22:18:31:224,0,-9.07412,-5.67043,-14.9604,Q,Q
2023-03-15 22:18:31:234,0,-9.06752,-5.66227,-14.9396,Q,Q
2023-03-15 22:18:31:244,0,-9.05712,-5.6536,-14.9189,Q,Q
2023-03-15 22:18:31:254,0,-9.04357,-5.64627,-14.8943,Q,Q
2023-03-15 22:18:31:264,0,-9.03376,-5.63891,-14.8713,Q,Q
2023-03-15 22:18:31:274,0,-9.02522,-5.62815,-14.8458,Q,Q
2023-03-15 22:18:31:284,0,-9.01639,-5.61848,-14.8218,Q,Q
2023-03-15 22:18:31:294,0,-9.01227,-5.61082,-14.7989,Q,Q
2023-03-15 22:18:31:304,0,-9.01252,-5.60184,-14.7788,Q,Q
2023-03-15 22:18:31:314,0,-9.01109,-5.59344,-14.7615,Q,Q
2023-03-15 22:18:31:324,0,-9.0116,-5.58909,-14.7488,Q,Q
2023-03-15 22:18:31:334,0,-9.00567,-5.58546,-14.7369,Q,Q
2023-03-15 22:18:31:344,0,-8.99962,-5.58429,-14.7256,Q,Q
2023-03-15 22:18:31:354,0,-8.99144,-5.58419,-14.7171,Q,Q
2023-03-15 22:18:31:364,0,-8.98381,-5.58617,-14.7145,Q,Q
2023-03-15 22:18:31:374,0,-8.98077,-5.58316,-14.7104,Q,Q
2023-03-15 22:18:31:384,0,-8.97861,-5.58095,-14.7087,Q,Q
2023-03-15 22:18:31:394,0,-8.97965,-5.57809,-14.7094,Q,Q
2023-03-15 22:18:31:404,0,-8.9779,-5.57723,-14.7113,Q,Q
2023-03-15 22:18:31:414,0,-8.9809,-5.57614,-14.7091,Q,Q
2023-03-15 22:18:31:424,0,-8.9877,-5.56969,-14.7035,Q,Q
2023-03-15 22:18:31:434,0,-8.99289,-5.5653,-14.7006,Q,Q
2023-03-15 22:18:31:444,0,-8.9954,-5.56615,-14.6914,Q,Q
2023-03-15 22:18:31:454,0,-8.99337,-5.5676,-14.6785,Q,Q
2023-03-15 22:18:31:464,0,-8.99379,-5.56817,-14.6636,Q,Q
2023-03-15 22:18:31:474,0,-9.00004,-5.56911,-14.6525,Q,Q
2023-03-15 22:18:31:484,0,-9.00647,-5.56625,-14.6418,Q,Q
2023-03-15 22:18:31:494,0,-9.01009,-5.5596,-14.6301,Q,Q
2023-03-15 22:18:31:504,0,-9.005,-5.55254,-14.625,Q,Q
2023-03-15 22:18:31:514,0,-8.99651,-5.54378,-14.6239,Q,Q
2023-03-15 22:18:31:524,0,-8.98026,-5.5363,-14.6219,Q,Q
2023-03-15 22:18:31:534,0,-8.96386,-5.52605,-14.6214,Q,Q
2023-03-15 22:18:31:544,0,-8.94978,-5.51777,-14.6207,Q,Q
2023-03-15 22:18:31:554,0,-8.9369,-5.51358,-14.6294,Q,Q
2023-03-15 22:18:31:564,0,-8.92384,-5.50619,-14.6338,Q,Q
2023-03-15 22:18:31:574,0,-8.92632,-5.49444,-14.6399,Q,Q
2023-03-15 22:18:31:584,0,-8.93662,-5.48113,-14.6474,Q,Q
2023-03-15 22:18:31:594,0,-8.96116,-5.47216,-14.6537,Q,Q
2023-03-15 22:18:31:604,0,-8.98565,-5.46894,-14.6564,Q,Q
2023-03-15 22:18:31:613,0,-9.0001,-5.46765,-14.6587,Q,Q
2023-03-15 22:18:31:623,0,-9.00341,-5.46336,-14.6614,Q,Q
2023-03-15 22:18:31:634,0,-9.00614,-5.45976,-14.6582,Q,Q
2023-03-15 22:18:31:644,0,-9.01524,-5.45486,-14.6563,Q,Q
2023-03-15 22:18:31:654,0,-9.02716,-5.44699,-14.656,Q,Q
2023-03-15 22:18:31:664,0,-9.04088,-5.44413,-14.6502,Q,Q
2023-03-15 22:18:31:674,0,-9.0536,-5.44687,-14.6469,Q,Q
2023-03-15 22:18:31:683,0,-9.06614,-5.45002,-14.6448,Q,Q
2023-03-15 22:18:31:694,0,-9.07402,-5.45303,-14.644,Q,Q
2023-03-15 22:18:31:704,0,-9.07785,-5.45463,-14.6475,Q,Q
2023-03-15 22:18:31:714,0,-9.08052,-5.45281,-14.65,Q,Q
2023-03-15 22:18:31:724,0,-9.08717,-5.44897,-14.6539,Q,Q
2023-03-15 22:18:31:734,0,-9.08663,-5.44978,-14.6597,Q,Q
2023-03-15 22:18:31:744,0,-9.08212,-5.44689,-14.6656,Q,Q
2023-03-15 22:18:31:754,0,-9.07119,-5.45207,-14.6697,Q,Q
2023-03-15 22:18:31:764,0,-9.05752,-5.45499,-14.6719,Q,Q
2023-03-15 22:18:31:774,0,-9.04492,-5.45133,-14.674,Q,Q
2023-03-15 22:18:31:784,0,-9.03035,-5.45212,-14.6709,Q,Q
2023-03-15 22:18:31:794,0,-9.02225,-5.45362,-14.6675,Q,Q
2023-03-15 22:18:31:804,0,-9.01602,-5.45709,-14.6629,Q,Q
2023-03-15 22:18:31:814,0,-9.00783,-5.46194,-14.655,Q,Q
2023-03-15 22:18:31:824,0,-8.99646,-5.46753,-14.6499,Q,Q
2023-03-15 22:18:31:834,0,-8.98793,-5.47217,-14.6444,Q,Q
2023-03-15 22:18:31:844,0,-8.97813,-5.48174,-14.6332,Q,Q
2023-03-15 22:18:31:854,0,-8.96872,-5.48646,-14.6249,Q,Q
2023-03-15 22:18:31:864,0,-8.95331,-5.48778,-14.6151,Q,Q
2023-03-15 22:18:31:874,0,-8.93464,-5.4889,-14.6098,Q,Q
2023-03-15 22:18:31:884,0,-8.9193,-5.49447,-14.5998,Q,Q
2023-03-15 22:18:31:894,0,-8.90889,-5.49939,-14.5921,Q,Q
2023-03-15 22:18:31:903,0,-8.89781,-5.50401,-14.5857,Q,Q
2023-03-15 22:18:31:914,0,-8.88438,-5.50392,-14.5814,Q,Q
2023-03-15 22:18:31:924,0,-8.87645,-5.50384,-14.5794,Q,Q
2023-03-15 22:18:31:934,0,-8.87288,-5.50128,-14.5802,Q,Q
2023-03-15 22:18:31:944,0,-8.87476,-5.49801,-14.588,Q,Q
2023-03-15 22:18:31:954,0,-8.87986,-5.4994,-14.5938,Q,Q
2023-03-15 22:18:31:964,0,-8.88392,-5.49855,-14.6024,Q,Q
2023-03-15 22:18:31:974,0,-8.88715,-5.49806,-14.6094,Q,Q
2023-03-15 22:18:31:984,0,-8.88933,-5.49616,-14.6204,Q,Q
2023-03-15 22:18:31:994,0,-8.89214,-5.49427,-14.6311,Q,Q
2023-03-15 22:18:32:4,0,-8.89455,-5.48899,-14.6393,Q,Q
2023-03-15 22:18:32:14,0,-8.89271,-5.48431,-14.6442,Q,Q
2023-03-15 22:18:32:24,0,-8.89495,-5.47572,-14.6414,Q,Q
2023-03-15 22:18:32:34,0,-8.90115,-5.46865,-14.6405,Q,Q
2023-03-15 22:18:32:44,0,-8.90519,-5.46018,-14.6425,Q,Q
2023-03-15 22:18:32:54,0,-8.90809,-5.45243,-14.6448,Q,Q
2023-03-15 22:18:32:64,0,-8.90359,-5.44772,-14.6485,Q,Q
2023-03-15 22:18:32:74,0,-8.89386,-5.44178,-14.6495,Q,Q
2023-03-15 22:18:32:84,0,-8.89144,-5.43066,-14.6529,Q,Q
2023-03-15 22:18:32:94,0,-8.88632,-5.42268,-14.654,Q,Q
2023-03-15 22:18:32:104,0,-8.88131,-5.4137,-14.6609,Q,Q
2023-03-15 22:18:32:114,0,-8.87773,-5.40695,-14.6664,Q,Q
2023-03-15 22:18:32:124,0,-8.87868,-5.40088,-14.6737,Q,Q
2023-03-15 22:18:32:134,0,-8.88496,-5.39345,-14.6798,Q,Q
2023-03-15 22:18:32:144,0,-8.89226,-5.38642,-14.6896,Q,Q
2023-03-15 22:18:32:154,0,-8.90051,-5.38039,-14.6969,Q,Q
2023-03-15 22:18:32:164,0,-8.91301,-5.38252,-14.7017,Q,Q
2023-03-15 22:18:32:174,0,-8.92418,-5.38214,-14.7049,Q,Q
2023-03-15 22:18:32:184,0,-8.92047,-5.38729,-14.7108,Q,Q
2023-03-15 22:18:32:194,0,-8.91845,-5.39648,-14.7062,Q,Q
2023-03-15 22:18:32:204,0,-8.92382,-5.40736,-14.696,Q,Q
2023-03-15 22:18:32:214,0,-8.93064,-5.41275,-14.6932,Q,Q
2023-03-15 22:18:32:224,0,-8.94379,-5.40885,-14.6874,Q,Q
2023-03-15 22:18:32:234,0,-8.95464,-5.40061,-14.6775,Q,Q
2023-03-15 22:18:32:244,0,-8.96559,-5.39181,-14.6727,Q,Q
2023-03-15 22:18:32:254,0,-8.98201,-5.3791,-14.6719,Q,Q
2023-03-15 22:18:32:264,0,-8.99542,-5.36459,-14.6744,Q,Q
2023-03-15 22:18:32:274,0,-9.00377,-5.35051,-14.6787,Q,Q
2023-03-15 22:18:32:284,0,-9.00543,-5.33777,-14.6855,Q,Q
2023-03-15 22:18:32:294,0,-9.00275,-5.32903,-14.6934,Q,Q
2023-03-15 22:18:32:304,0,-9.0012,-5.32621,-14.7013,Q,Q
2023-03-15 22:18:32:314,0,-9.0007,-5.32817,-14.7079,Q,Q
2023-03-15 22:18:32:324,0,-9.00981,-5.33731,-14.7099,Q,Q
2023-03-15 22:18:32:333,0,-9.02422,-5.34506,-14.711,Q,Q
2023-03-15 22:18:32:344,0,-9.03481,-5.34957,-14.7135,Q,Q
2023-03-15 22:18:32:354,0,-9.04253,-5.35454,-14.7107,Q,Q
2023-03-15 22:18:32:364,0,-9.05794,-5.35884,-14.7073,Q,Q
2023-03-15 22:18:32:374,0,-9.07264,-5.35616,-14.7045,Q,Q
2023-03-15 22:18:32:384,0,-9.08764,-5.34837,-14.7047,Q,Q
2023-03-15 22:18:32:394,0,-9.09889,-5.33618,-14.7079,Q,Q
2023-03-15 22:18:32:404,0,-9.10788,-5.32776,-14.7022,Q,Q
2023-03-15 22:18:32:414,0,-9.11876,-5.31693,-14.7011,Q,Q
2023-03-15 22:18:32:424,0,-9.12987,-5.30516,-14.702,Q,Q
2023-03-15 22:18:32:434,0,-9.13708,-5.29227,-14.7076,Q,Q
2023-03-15 22:18:32:444,0,-9.13853,-5.27341,-14.7162,Q,Q
2023-03-15 22:18:32:454,0,-9.13925,-5.25842,-14.7251,Q,Q
2023-03-15 22:18:32:464,0,-9.1382,-5.24475,-14.7376,Q,Q
2023-03-15 22:18:32:474,0,-9.13287,-5.23296,-14.7465,Q,Q
2023-03-15 22:18:32:484,0,-9.12837,-5.22449,-14.7558,Q,Q
2023-03-15 22:18:32:494,0,-9.12425,-5.21376,-14.7646,Q,Q
2023-03-15 22:18:32:504,0,-9.11815,-5.20331,-14.7705,Q,Q
2023-03-15 22:18:32:514,0,-9.10945,-5.1965,-14.7745,Q,Q
2023-03-15 22:18:32:524,0,-9.09945,-5.19386,-14.7754,Q,Q
2023-03-15 22:18:32:534,0,-9.08681,-5.18907,-14.7694,Q,Q
2023-03-15 22:18:32:544,0,-9.07454,-5.19044,-14.7633,Q,Q
2023-03-15 22:18:32:554,0,-9.0671,-5.1885,-14.7515,Q,Q
2023-03-15 22:18:32:564,0,-9.06062,-5.18443,-14.7388,Q,Q
2023-03-15 22:18:32:574,0,-9.05536,-5.18564,-14.7251,Q,Q
2023-03-15 22:18:32:584,0,-9.05581,-5.18987,-14.7125,Q,Q
2023-03-15 22:18:32:594,0,-9.06023,-5.19513,-14.6981,Q,Q
2023-03-15 22:18:32:604,0,-9.07003,-5.20261,-14.6874,Q,Q
2023-03-15 22:18:32:614,0,-9.0769,-5.20526,-14.6816,Q,Q
2023-03-15 22:18:32:624,0,-9.07158,-5.20844,-14.6761,Q,Q
2023-03-15 22:18:32:634,0,-9.06895,-5.21301,-14.6691,Q,Q
2023-03-15 22:18:32:644,0,-9.07125,-5.2151,-14.6606,Q,Q
2023-03-15 22:18:32:654,0,-9.07577,-5.21746,-14.6519,Q,Q
2023-03-15 22:18:32:664,0,-9.0773,-5.21613,-14.6493,Q,Q
2023-03-15 22:18:32:673,0,-9.08024,-5.2198,-14.643,Q,Q
2023-03-15 22:18:32:683,0,-9.08125,-5.22152,-14.6363,Q,Q
2023-03-15 22:18:32:693,0,-9.08064,-5.22334,-14.6275,Q,Q
2023-03-15 22:18:32:703,0,-9.08347,-5.22363,-14.6176,Q,Q
2023-03-15 22:18:32:713,0,-9.08507,-5.22788,-14.608,Q,Q
2023-03-15 22:18:32:724,0,-9.08411,-5.23028,-14.5976,Q,Q
2023-03-15 22:18:32:734,0,-9.08289,-5.23915,-14.5878,Q,Q
2023-03-15 22:18:32:744,0,-9.08375,-5.2516,-14.5776,Q,Q
2023-03-15 22:18:32:753,0,-9.08409,-5.26451,-14.5672,Q,Q
2023-03-15 22:18:32:763,0,-9.08013,-5.27699,-14.558,Q,Q
2023-03-15 22:18:32:773,0,-9.07329,-5.28901,-14.5495,Q,Q
2023-03-15 22:18:32:783,0,-9.06687,-5.29883,-14.5423,Q,Q
2023-03-15 22:18:32:794,0,-9.05882,-5.30461,-14.5312,Q,Q
2023-03-15 22:18:32:804,0,-9.05596,-5.30829,-14.5193,Q,Q
2023-03-15 22:18:32:814,0,-9.05568,-5.3087,-14.5083,Q,Q
2023-03-15 22:18:32:824,0,-9.05233,-5.30774,-14.4988,Q,Q
2023-03-15 22:18:32:834,0,-9.04723,-5.30378,-14.4899,Q,Q
2023-03-15 22:18:32:843,0,-9.04331,-5.29748,-14.4793,Q,Q
2023-03-15 22:18:32:853,0,-9.0409,-5.28951,-14.4656,Q,Q
2023-03-15 22:18:32:863,0,-9.03899,-5.27957,-14.4509,Q,Q
2023-03-15 22:18:32:874,0,-9.03991,-5.26739,-14.4399,Q,Q
2023-03-15 22:18:32:884,0,-9.04839,-5.25543,-14.4313,Q,Q
2023-03-15 22:18:32:894,0,-9.06128,-5.24211,-14.4228,Q,Q
2023-03-15 22:18:32:903,0,-9.07837,-5.23298,-14.4184,Q,Q
2023-03-15 22:18:32:914,0,-9.09164,-5.22416,-14.4161,Q,Q
2023-03-15 22:18:32:923,0,-9.09655,-5.22461,-14.4091,Q,Q
2023-03-15 22:18:32:934,0,-9.10691,-5.22535,-14.4023,Q,Q
2023-03-15 22:18:32:943,0,-9.12113,-5.22614,-14.3938,Q,Q
2023-03-15 22:18:32:954,0,-9.14346,-5.22359,-14.3863,Q,Q
2023-03-15 22:18:32:964,0,-9.17593,-5.21283,-14.376,Q,Q
2023-03-15 22:18:32:974,0,-9.2132,-5.20747,-14.3692,Q,Q
2023-03-15 22:18:32:984,0,-9.25405,-5.19734,-14.3622,Q,Q
2023-03-15 22:18:32:994,0,-9.29976,-5.18685,-14.3512,Q,Q
2023-03-15 22:18:33:4,0,-9.33668,-5.1761,-14.3421,Q,Q
2023-03-15 22:18:33:14,0,-9.36733,-5.16381,-14.3357,Q,Q
2023-03-15 22:18:33:23,0,-9.39166,-5.15461,-14.3328,Q,Q
2023-03-15 22:18:33:33,0,-9.41,-5.14136,-14.3308,Q,Q
2023-03-15 22:18:33:43,0,-9.42768,-5.13044,-14.3253,Q,Q
2023-03-15 22:18:33:53,0,-9.45235,-5.1186,-14.3152,Q,Q
2023-03-15 22:18:33:63,0,-9.48476,-5.11268,-14.3073,Q,Q
2023-03-15 22:18:33:73,0,-9.52137,-5.10757,-14.3015,Q,Q
2023-03-15 22:18:33:83,0,-9.5524,-5.10899,-14.3016,Q,Q
2023-03-15 22:18:33:94,0,-9.5652,-5.11184,-14.3039,Q,Q
2023-03-15 22:18:33:103,0,-9.57073,-5.11197,-14.3002,Q,Q
2023-03-15 22:18:33:114,0,-9.57746,-5.10791,-14.3032,Q,Q
2023-03-15 22:18:33:123,0,-9.58598,-5.10123,-14.3012,Q,Q
2023-03-15 22:18:33:133,0,-9.59704,-5.09588,-14.3021,Q,Q
2023-03-15 22:18:33:143,0,-9.61227,-5.09285,-14.2942,Q,Q
2023-03-15 22:18:33:153,0,-9.6316,-5.0968,-14.2791,Q,Q
2023-03-15 22:18:33:163,0,-9.65692,-5.10574,-14.2603,Q,Q
2023-03-15 22:18:33:173,0,-9.68907,-5.11611,-14.2429,Q,Q
2023-03-15 22:18:33:183,0,-9.71857,-5.12596,-14.228,Q,Q
2023-03-15 22:18:33:193,0,-9.74408,-5.13662,-14.2137,Q,Q
2023-03-15 22:18:33:203,0,-9.76107,-5.15508,-14.199,Q,Q
2023-03-15 22:18:33:214,0,-9.77213,-5.17053,-14.1807,Q,Q
2023-03-15 22:18:33:223,0,-9.77967,-5.18041,-14.1618,Q,Q
2023-03-15 22:18:33:234,0,-9.78654,-5.18995,-14.1445,Q,Q
2023-03-15 22:18:33:243,0,-9.79486,-5.19756,-14.1236,Q,Q
2023-03-15 22:18:33:253,0,-9.81091,-5.20604,-14.098,Q,Q
2023-03-15 22:18:33:263,0,-9.83433,-5.2115,-14.0751,Q,Q
2023-03-15 22:18:33:273,0,-9.85455,-5.21855,-14.0524,Q,Q
2023-03-15 22:18:33:283,0,-9.8695,-5.22987,-14.0336,Q,Q
2023-03-15 22:18:33:293,0,-9.87608,-5.24129,-14.013,Q,Q
2023-03-15 22:18:33:303,0,-9.87096,-5.25286,-13.9899,Q,Q
2023-03-15 22:18:33:313,0,-9.86693,-5.26073,-13.9614,Q,Q
2023-03-15 22:18:33:323,0,-9.85904,-5.27277,-13.93,Q,Q
2023-03-15 22:18:33:333,0,-9.85259,-5.28707,-13.8975,Q,Q
2023-03-15 22:18:33:343,0,-9.85297,-5.30212,-13.8675,Q,Q
2023-03-15 22:18:33:353,0,-9.84914,-5.31896,-13.8412,Q,Q
2023-03-15 22:18:33:363,0,-9.84736,-5.33508,-13.8158,Q,Q
2023-03-15 22:18:33:373,0,-9.84103,-5.35124,-13.7911,Q,Q
2023-03-15 22:18:33:383,0,-9.8288,-5.3635,-13.7702,Q,Q
2023-03-15 22:18:33:393,0,-9.81741,-5.37214,-13.7482,Q,Q
2023-03-15 22:18:33:403,0,-9.801,-5.38051,-13.7288,Q,Q
2023-03-15 22:18:33:413,0,-9.7831,-5.38713,-13.7123,Q,Q
2023-03-15 22:18:33:423,0,-9.76348,-5.3884,-13.7,Q,Q
2023-03-15 22:18:33:433,0,-9.73929,-5.38755,-13.6896,Q,Q
2023-03-15 22:18:33:443,0,-9.71323,-5.38685,-13.6794,Q,Q
2023-03-15 22:18:33:453,0,-9.68759,-5.38886,-13.6711,Q,Q
2023-03-15 22:18:33:463,0,-9.65976,-5.39136,-13.6619,Q,Q
2023-03-15 22:18:33:473,0,-9.63431,-5.39683,-13.6567,Q,Q
2023-03-15 22:18:33:483,0,-9.60783,-5.40018,-13.6528,Q,Q
2023-03-15 22:18:33:493,0,-9.58156,-5.405,-13.6493,Q,Q
2023-03-15 22:18:33:503,0,-9.55507,-5.40729,-13.6431,Q,Q
2023-03-15 22:18:33:513,0,-9.52683,-5.41087,-13.6359,Q,Q
2023-03-15 22:18:33:523,0,-9.50192,-5.41715,-13.6281,Q,Q
2023-03-15 22:18:33:533,0,-9.477,-5.42546,-13.6168,Q,Q
2023-03-15 22:18:33:543,0,-9.45816,-5.44083,-13.6082,Q,Q
2023-03-15 22:18:33:553,0,-9.44321,-5.45591,-13.5967,Q,Q
2023-03-15 22:18:33:563,0,-9.42972,-5.47323,-13.5862,Q,Q
2023-03-15 22:18:33:573,0,-9.41162,-5.48892,-13.5775,Q,Q
2023-03-15 22:18:33:583,0,-9.39957,-5.50762,-13.5685,Q,Q
2023-03-15 22:18:33:593,0,-9.38714,-5.52386,-13.5551,Q,Q
2023-03-15 22:18:33:603,0,-9.37736,-5.53813,-13.544,Q,Q
2023-03-15 22:18:33:613,0,-9.36766,-5.54307,-13.5325,Q,Q
2023-03-15 22:18:33:623,0,-9.35638,-5.54681,-13.5227,Q,Q
2023-03-15 22:18:33:633,0,-9.3491,-5.55048,-13.511,Q,Q
2023-03-15 22:18:33:643,0,-9.34557,-5.55167,-13.4962,Q,Q
2023-03-15 22:18:33:653,0,-9.34052,-5.55101,-13.483,Q,Q
2023-03-15 22:18:33:663,0,-9.33746,-5.54948,-13.4679,Q,Q
2023-03-15 22:18:33:673,0,-9.33223,-5.55166,-13.4466,Q,Q
2023-03-15 22:18:33:683,0,-9.33543,-5.55377,-13.4257,Q,Q
2023-03-15 22:18:33:693,0,-9.34663,-5.55143,-13.4065,Q,Q
2023-03-15 22:18:33:703,0,-9.35651,-5.5487,-13.3878,Q,Q
2023-03-15 22:18:33:713,0,-9.36309,-5.54641,-13.3787,Q,Q
2023-03-15 22:18:33:723,0,-9.36486,-5.53986,-13.3695,Q,Q
2023-03-15 22:18:33:733,0,-9.35893,-5.53873,-13.3598,Q,Q
2023-03-15 22:18:33:743,0,-9.35035,-5.54153,-13.3522,Q,Q
2023-03-15 22:18:33:753,0,-9.33724,-5.54996,-13.3455,Q,Q
2023-03-15 22:18:33:763,0,-9.33136,-5.55891,-13.3439,Q,Q
2023-03-15 22:18:33:773,0,-9.32152,-5.56829,-13.3411,Q,Q
2023-03-15 22:18:33:783,0,-9.31469,-5.57685,-13.3397,Q,Q
2023-03-15 22:18:33:793,0,-9.30808,-5.58422,-13.3362,Q,Q
2023-03-15 22:18:33:803,0,-9.30403,-5.5928,-13.3308,Q,Q
2023-03-15 22:18:33:813,0,-9.30361,-5.60017,-13.3281,Q,Q
2023-03-15 22:18:33:823,0,-9.30246,-5.61316,-13.3251,Q,Q
2023-03-15 22:18:33:833,0,-9.30795,-5.61645,-13.3245,Q,Q
2023-03-15 22:18:33:843,0,-9.30686,-5.60882,-13.3272,Q,Q
2023-03-15 22:18:33:853,0,-9.29818,-5.59822,-13.3312,Q,Q
2023-03-15 22:18:33:863,0,-9.28832,-5.59014,-13.3333,Q,Q
2023-03-15 22:18:33:873,0,-9.29117,-5.58581,-13.332,Q,Q
2023-03-15 22:18:33:883,0,-9.30062,-5.58718,-13.3286,Q,Q
2023-03-15 22:18:33:893,0,-9.31203,-5.59312,-13.3252,Q,Q
2023-03-15 22:18:33:903,0,-9.32118,-5.59756,-13.3273,Q,Q
2023-03-15 22:18:33:913,0,-9.32802,-5.59689,-13.3315,Q,Q
2023-03-15 22:18:33:923,0,-9.33318,-5.59542,-13.3391,Q,Q
2023-03-15 22:18:33:933,0,-9.3352,-5.59672,-13.3481,Q,Q
2023-03-15 22:18:33:943,0,-9.33521,-5.59687,-13.3538,Q,Q
2023-03-15 22:18:33:953,0,-9.33288,-5.59418,-13.364,Q,Q
2023-03-15 22:18:33:963,0,-9.3222,-5.58816,-13.3709,Q,Q
2023-03-15 22:18:33:973,0,-9.30188,-5.5842,-13.3801,Q,Q
2023-03-15 22:18:33:983,0,-9.28104,-5.58195,-13.3865,Q,Q
2023-03-15 22:18:33:993,0,-9.27217,-5.57671,-13.3862,Q,Q
2023-03-15 22:18:34:3,0,-9.26277,-5.5719,-13.3894,Q,Q
2023-03-15 22:18:34:13,0,-9.25464,-5.56829,-13.3884,Q,Q
2023-03-15 22:18:34:23,0,-9.2477,-5.56635,-13.3846,Q,Q
2023-03-15 22:18:34:33,0,-9.2461,-5.56096,-13.3751,Q,Q
2023-03-15 22:18:34:43,0,-9.24562,-5.55588,-13.3668,Q,Q
2023-03-15 22:18:34:53,0,-9.24731,-5.55128,-13.3576,Q,Q
2023-03-15 22:18:34:63,0,-9.24531,-5.54835,-13.3474,Q,Q
2023-03-15 22:18:34:73,0,-9.24282,-5.54996,-13.3384,Q,Q
2023-03-15 22:18:34:83,0,-9.23865,-5.54905,-13.327,Q,Q
2023-03-15 22:18:34:93,0,-9.23254,-5.55295,-13.3166,Q,Q
2023-03-15 22:18:34:103,0,-9.2287,-5.5539,-13.3089,Q,Q
2023-03-15 22:18:34:113,0,-9.22228,-5.55323,-13.3046,Q,Q
2023-03-15 22:18:34:123,0,-9.21653,-5.55485,-13.2959,Q,Q
2023-03-15 22:18:34:133,0,-9.21041,-5.55438,-13.2918,Q,Q
2023-03-15 22:18:34:143,0,-9.20603,-5.55336,-13.2878,Q,Q
2023-03-15 22:18:34:153,0,-9.20393,-5.54925,-13.2838,Q,Q
2023-03-15 22:18:34:163,0,-9.19983,-5.54463,-13.2827,Q,Q
2023-03-15 22:18:34:173,0,-9.19606,-5.54007,-13.2809,Q,Q
2023-03-15 22:18:34:183,0,-9.19496,-5.53787,-13.2779,Q,Q
2023-03-15 22:18:34:193,0,-9.19281,-5.53693,-13.279,Q,Q
2023-03-15 22:18:34:203,0,-9.18562,-5.53501,-13.2808,Q,Q
2023-03-15 22:18:34:213,0,-9.17765,-5.53145,-13.2826,Q,Q
2023-03-15 22:18:34:223,0,-9.17411,-5.53215,-13.2806,Q,Q
2023-03-15 22:18:34:233,0,-9.17122,-5.52671,-13.2765,Q,Q
2023-03-15 22:18:34:243,0,-9.16457,-5.52613,-13.2709,Q,Q
2023-03-15 22:18:34:253,0,-9.15926,-5.52593,-13.2706,Q,Q
2023-03-15 22:18:34:263,0,-9.15389,-5.52545,-13.2662,Q,Q
2023-03-15 22:18:34:273,0,-9.15011,-5.52383,-13.2609,Q,Q
2023-03-15 22:18:34:283,0,-9.14205,-5.52155,-13.2551,Q,Q
2023-03-15 22:18:34:293,0,-9.13611,-5.51589,-13.2505,Q,Q
2023-03-15 22:18:34:303,0,-9.12701,-5.51402,-13.2449,Q,Q
2023-03-15 22:18:34:313,0,-9.12272,-5.51081,-13.241,Q,Q
2023-03-15 22:18:34:323,0,-9.12001,-5.51353,-13.2395,Q,Q
2023-03-15 22:18:34:333,0,-9.10924,-5.51363,-13.2407,Q,Q
2023-03-15 22:18:34:343,0,-9.09735,-5.51246,-13.2366,Q,Q
2023-03-15 22:18:34:353,0,-9.09148,-5.51218,-13.2317,Q,Q
2023-03-15 22:18:34:363,0,-9.08572,-5.5063,-13.2247,Q,Q
2023-03-15 22:18:34:373,0,-9.0805,-5.50218,-13.2172,Q,Q
2023-03-15 22:18:34:383,0,-9.07013,-5.50521,-13.2119,Q,Q
2023-03-15 22:18:34:393,0,-9.06146,-5.50927,-13.1984,Q,Q
2023-03-15 22:18:34:403,0,-9.05655,-5.51526,-13.1789,Q,Q
2023-03-15 22:18:34:413,0,-9.05863,-5.52576,-13.1584,Q,Q
2023-03-15 22:18:34:423,0,-9.0677,-5.5331,-13.1399,Q,Q
2023-03-15 22:18:34:433,0,-9.07687,-5.53797,-13.1275,Q,Q
2023-03-15 22:18:34:443,0,-9.08615,-5.54157,-13.1095,Q,Q
2023-03-15 22:18:34:453,0,-9.09258,-5.542,-13.0954,Q,Q
2023-03-15 22:18:34:463,0,-9.09213,-5.5431,-13.089,Q,Q
2023-03-15 22:18:34:473,0,-9.08429,-5.54729,-13.0805,Q,Q
2023-03-15 22:18:34:483,0,-9.0739,-5.54829,-13.0741,Q,Q
2023-03-15 22:18:34:493,0,-9.06564,-5.54739,-13.0713,Q,Q
2023-03-15 22:18:34:503,0,-9.05704,-5.54583,-13.07,Q,Q
2023-03-15 22:18:34:513,0,-9.05097,-5.54567,-13.0724,Q,Q
2023-03-15 22:18:34:523,0,-9.06052,-5.54362,-13.0743,Q,Q
2023-03-15 22:18:34:533,0,-9.06454,-5.54547,-13.0789,Q,Q
2023-03-15 22:18:34:543,0,-9.06269,-5.54856,-13.0842,Q,Q
2023-03-15 22:18:34:553,0,-9.06639,-5.54405,-13.0884,Q,Q
2023-03-15 22:18:34:563,0,-9.08522,-5.54349,-13.0875,Q,Q
2023-03-15 22:18:34:573,0,-9.1161,-5.53372,-13.0833,Q,Q
2023-03-15 22:18:34:583,0,-9.1497,-5.52743,-13.0819,Q,Q
2023-03-15 22:18:34:593,0,-9.17441,-5.5198,-13.0827,Q,Q
2023-03-15 22:18:34:603,0,-9.18748,-5.5139,-13.084,Q,Q
2023-03-15 22:18:34:613,0,-9.19374,-5.5084,-13.0802,Q,Q
2023-03-15 22:18:34:623,0,-9.20409,-5.50314,-13.0766,Q,Q
2023-03-15 22:18:34:633,0,-9.21441,-5.50028,-13.0737,Q,Q
2023-03-15 22:18:34:643,0,-9.2234,-5.49702,-13.0752,Q,Q
2023-03-15 22:18:34:653,0,-9.22714,-5.49029,-13.079,Q,Q
2023-03-15 22:18:34:663,0,-9.23378,-5.48391,-13.0833,Q,Q
2023-03-15 22:18:34:673,0,-9.24179,-5.47902,-13.0898,Q,Q
2023-03-15 22:18:34:683,0,-9.24067,-5.47379,-13.0969,Q,Q
2023-03-15 22:18:34:693,0,-9.24437,-5.46798,-13.106,Q,Q
2023-03-15 22:18:34:703,0,-9.2445,-5.46452,-13.1135,Q,Q
2023-03-15 22:18:34:713,0,-9.23175,-5.46315,-13.1208,Q,Q
2023-03-15 22:18:34:723,0,-9.21299,-5.46519,-13.1284,Q,Q
2023-03-15 22:18:34:733,0,-9.19241,-5.46762,-13.1308,Q,Q
