Timestamp_cmd,imu_cmd,roll_delta,pitch_delta,yaw_delta,voice_type,voice_length
2023-03-15 15:11:57:747,0,0.484326,-4.3156,-7.03982,Q,Q
2023-03-15 15:11:57:748,0,0.486468,-4.33136,-7.0614,Q,Q
2023-03-15 15:11:57:758,0,0.491793,-4.34803,-7.08841,Q,Q
2023-03-15 15:11:57:768,0,0.50518,-4.36183,-7.12189,Q,Q
2023-03-15 15:11:57:779,0,0.516215,-4.37823,-7.15913,Q,Q
2023-03-15 15:11:57:789,0,0.532358,-4.39543,-7.20181,Q,Q
2023-03-15 15:11:57:798,0,0.551047,-4.41172,-7.23797,Q,Q
2023-03-15 15:11:57:809,0,0.568023,-4.42654,-7.27611,Q,Q
2023-03-15 15:11:57:819,0,0.583922,-4.43531,-7.31105,Q,Q
2023-03-15 15:11:57:829,0,0.593736,-4.44038,-7.34048,Q,Q
2023-03-15 15:11:57:839,0,0.598946,-4.4436,-7.35743,Q,Q
2023-03-15 15:11:57:849,0,0.597428,-4.44319,-7.36894,Q,Q
2023-03-15 15:11:57:859,0,0.591082,-4.4365,-7.37233,Q,Q
2023-03-15 15:11:57:869,0,0.579691,-4.42821,-7.37157,Q,Q
2023-03-15 15:11:57:879,0,0.568162,-4.42133,-7.36228,Q,Q
2023-03-15 15:11:57:889,0,0.555975,-4.41767,-7.35502,Q,Q
2023-03-15 15:11:57:899,0,0.547668,-4.41153,-7.34495,Q,Q
2023-03-15 15:11:57:909,0,0.533795,-4.40914,-7.33681,Q,Q
2023-03-15 15:11:57:919,0,0.524513,-4.40566,-7.33425,Q,Q
2023-03-15 15:11:57:929,0,0.514418,-4.39966,-7.33292,Q,Q
2023-03-15 15:11:57:939,0,0.500391,-4.39506,-7.33748,Q,Q
2023-03-15 15:11:57:949,0,0.48115,-4.39407,-7.34596,Q,Q
2023-03-15 15:11:57:959,0,0.458391,-4.39315,-7.36088,Q,Q
2023-03-15 15:11:57:969,0,0.436692,-4.39195,-7.37613,Q,Q
2023-03-15 15:11:57:979,0,0.417895,-4.38732,-7.39437,Q,Q
2023-03-15 15:11:57:989,0,0.400195,-4.37923,-7.41255,Q,Q
2023-03-15 15:11:57:999,0,0.383029,-4.36925,-7.4356,Q,Q
2023-03-15 15:11:58:9,0,0.368843,-4.35976,-7.45337,Q,Q
2023-03-15 15:11:58:19,0,0.355053,-4.35046,-7.46838,Q,Q
2023-03-15 15:11:58:29,0,0.34246,-4.3377,-7.48225,Q,Q
2023-03-15 15:11:58:39,0,0.332844,-4.32307,-7.49376,Q,Q
2023-03-15 15:11:58:49,0,0.322821,-4.30527,-7.50027,Q,Q
2023-03-15 15:11:58:59,0,0.313551,-4.29325,-7.50308,Q,Q
2023-03-15 15:11:58:68,0,0.307601,-4.27706,-7.50403,Q,Q
2023-03-15 15:11:58:79,0,0.299443,-4.2684,-7.50773,Q,Q
2023-03-15 15:11:58:89,0,0.297446,-4.25856,-7.51078,Q,Q
2023-03-15 15:11:58:99,0,0.295506,-4.24622,-7.51811,Q,Q
2023-03-15 15:11:58:109,0,0.295568,-4.23735,-7.52423,Q,Q
2023-03-15 15:11:58:119,0,0.29524,-4.22647,-7.53329,Q,Q
2023-03-15 15:11:58:129,0,0.298849,-4.21905,-7.54415,Q,Q
2023-03-15 15:11:58:139,0,0.304909,-4.21335,-7.54905,Q,Q
2023-03-15 15:11:58:149,0,0.314854,-4.2101,-7.55252,Q,Q
2023-03-15 15:11:58:158,0,0.329254,-4.20741,-7.55188,Q,Q
2023-03-15 15:11:58:169,0,0.342257,-4.20528,-7.5473,Q,Q
2023-03-15 15:11:58:179,0,0.352474,-4.20041,-7.53912,Q,Q
2023-03-15 15:11:58:189,0,0.363848,-4.1962,-7.53045,Q,Q
2023-03-15 15:11:58:198,0,0.381086,-4.1922,-7.52115,Q,Q
2023-03-15 15:11:58:208,0,0.399645,-4.18746,-7.50411,Q,Q
2023-03-15 15:11:58:219,0,0.420591,-4.18123,-7.49165,Q,Q
2023-03-15 15:11:58:229,0,0.432342,-4.18731,-7.47378,Q,Q
2023-03-15 15:11:58:239,0,0.438875,-4.17371,-7.45582,Q,Q
2023-03-15 15:11:58:249,0,0.449525,-4.15996,-7.44543,Q,Q
2023-03-15 15:11:58:259,0,0.456436,-4.15209,-7.43847,Q,Q
2023-03-15 15:11:58:269,0,0.454044,-4.1587,-7.44355,Q,Q
2023-03-15 15:11:58:279,0,0.441384,-4.16273,-7.44873,Q,Q
2023-03-15 15:11:58:289,0,0.43554,-4.154,-7.45505,Q,Q
2023-03-15 15:11:58:299,0,0.450265,-4.14961,-7.46495,Q,Q
2023-03-15 15:11:58:309,0,0.466225,-4.15081,-7.47626,Q,Q
2023-03-15 15:11:58:319,0,0.481754,-4.16091,-7.48793,Q,Q
2023-03-15 15:11:58:328,0,0.494041,-4.17576,-7.50853,Q,Q
2023-03-15 15:11:58:338,0,0.501498,-4.19739,-7.52883,Q,Q
2023-03-15 15:11:58:348,0,0.513357,-4.22183,-7.54718,Q,Q
2023-03-15 15:11:58:358,0,0.52137,-4.24597,-7.56767,Q,Q
2023-03-15 15:11:58:368,0,0.52196,-4.27134,-7.5909,Q,Q
2023-03-15 15:11:58:378,0,0.517888,-4.29696,-7.60848,Q,Q
2023-03-15 15:11:58:388,0,0.511629,-4.31776,-7.62448,Q,Q
2023-03-15 15:11:58:398,0,0.511283,-4.33243,-7.64034,Q,Q
2023-03-15 15:11:58:408,0,0.51953,-4.34428,-7.65704,Q,Q
2023-03-15 15:11:58:418,0,0.53829,-4.34351,-7.67371,Q,Q
2023-03-15 15:11:58:428,0,0.559938,-4.35485,-7.69313,Q,Q
2023-03-15 15:11:58:438,0,0.575859,-4.36281,-7.71398,Q,Q
2023-03-15 15:11:58:448,0,0.594941,-4.37042,-7.74322,Q,Q
2023-03-15 15:11:58:458,0,0.61849,-4.37923,-7.76902,Q,Q
2023-03-15 15:11:58:468,0,0.636024,-4.38836,-7.79274,Q,Q
2023-03-15 15:11:58:478,0,0.649177,-4.39933,-7.81521,Q,Q
2023-03-15 15:11:58:488,0,0.652208,-4.41782,-7.83932,Q,Q
2023-03-15 15:11:58:498,0,0.651014,-4.43847,-7.86179,Q,Q
2023-03-15 15:11:58:508,0,0.642063,-4.4693,-7.88136,Q,Q
2023-03-15 15:11:58:518,0,0.629031,-4.49212,-7.89696,Q,Q
2023-03-15 15:11:58:528,0,0.615541,-4.51638,-7.91546,Q,Q
2023-03-15 15:11:58:539,0,0.599861,-4.5344,-7.93211,Q,Q
2023-03-15 15:11:58:548,0,0.586066,-4.55009,-7.942,Q,Q
2023-03-15 15:11:58:558,0,0.565649,-4.56485,-7.9461,Q,Q
2023-03-15 15:11:58:568,0,0.541522,-4.5749,-7.94463,Q,Q
2023-03-15 15:11:58:578,0,0.52104,-4.57621,-7.94232,Q,Q
2023-03-15 15:11:58:589,0,0.509218,-4.56682,-7.935,Q,Q
2023-03-15 15:11:58:599,0,0.498496,-4.56085,-7.92369,Q,Q
2023-03-15 15:11:58:609,0,0.475016,-4.55917,-7.90978,Q,Q
2023-03-15 15:11:58:619,0,0.438853,-4.55209,-7.89478,Q,Q
2023-03-15 15:11:58:629,0,0.400009,-4.5403,-7.88299,Q,Q
2023-03-15 15:11:58:639,0,0.360373,-4.52264,-7.87499,Q,Q
2023-03-15 15:11:58:649,0,0.334147,-4.51137,-7.87194,Q,Q
2023-03-15 15:11:58:658,0,0.314925,-4.49881,-7.87098,Q,Q
2023-03-15 15:11:58:668,0,0.295912,-4.49065,-7.87495,Q,Q
2023-03-15 15:11:58:679,0,0.283702,-4.48236,-7.88383,Q,Q
2023-03-15 15:11:58:689,0,0.272379,-4.4757,-7.89595,Q,Q
2023-03-15 15:11:58:699,0,0.266369,-4.47418,-7.90744,Q,Q
2023-03-15 15:11:58:708,0,0.255113,-4.47954,-7.92343,Q,Q
2023-03-15 15:11:58:719,0,0.237083,-4.48376,-7.93688,Q,Q
2023-03-15 15:11:58:729,0,0.220912,-4.48655,-7.95285,Q,Q
2023-03-15 15:11:58:739,0,0.209659,-4.49293,-7.97157,Q,Q
2023-03-15 15:11:58:749,0,0.203049,-4.49606,-7.98765,Q,Q
2023-03-15 15:11:58:759,0,0.198311,-4.50461,-7.99917,Q,Q
2023-03-15 15:11:58:769,0,0.193231,-4.51339,-8.00463,Q,Q
2023-03-15 15:11:58:779,0,0.188263,-4.52421,-8.0042,Q,Q
2023-03-15 15:11:58:789,0,0.183021,-4.54246,-7.99801,Q,Q
2023-03-15 15:11:58:799,0,0.171572,-4.56147,-7.9886,Q,Q
2023-03-15 15:11:58:809,0,0.158064,-4.57971,-7.98187,Q,Q
2023-03-15 15:11:58:819,0,0.144256,-4.59585,-7.97853,Q,Q
2023-03-15 15:11:58:829,0,0.129822,-4.61029,-7.98338,Q,Q
2023-03-15 15:11:58:839,0,0.124856,-4.62118,-7.99082,Q,Q
2023-03-15 15:11:58:849,0,0.124393,-4.62209,-8.00545,Q,Q
2023-03-15 15:11:58:859,0,0.128834,-4.62787,-8.0169,Q,Q
2023-03-15 15:11:58:869,0,0.133203,-4.63568,-8.03234,Q,Q
2023-03-15 15:11:58:879,0,0.136309,-4.64824,-8.04547,Q,Q
2023-03-15 15:11:58:888,0,0.131178,-4.66071,-8.05668,Q,Q
2023-03-15 15:11:58:899,0,0.122782,-4.67163,-8.06715,Q,Q
2023-03-15 15:11:58:909,0,0.117451,-4.68273,-8.0823,Q,Q
2023-03-15 15:11:58:919,0,0.114019,-4.68772,-8.09628,Q,Q
2023-03-15 15:11:58:928,0,0.118355,-4.6907,-8.10995,Q,Q
2023-03-15 15:11:58:938,0,0.118888,-4.69108,-8.12218,Q,Q
2023-03-15 15:11:58:948,0,0.122567,-4.68917,-8.13318,Q,Q
2023-03-15 15:11:58:958,0,0.1264,-4.68057,-8.14646,Q,Q
2023-03-15 15:11:58:968,0,0.124813,-4.67002,-8.15977,Q,Q
2023-03-15 15:11:58:978,0,0.126176,-4.65148,-8.17644,Q,Q
2023-03-15 15:11:58:989,0,0.123546,-4.63463,-8.18815,Q,Q
2023-03-15 15:11:58:998,0,0.119975,-4.61976,-8.19645,Q,Q
2023-03-15 15:11:59:9,0,0.114162,-4.6086,-8.20646,Q,Q
2023-03-15 15:11:59:19,0,0.111254,-4.6,-8.21517,Q,Q
2023-03-15 15:11:59:28,0,0.111909,-4.58532,-8.22405,Q,Q
2023-03-15 15:11:59:39,0,0.112995,-4.57331,-8.23286,Q,Q
2023-03-15 15:11:59:49,0,0.111208,-4.55947,-8.24198,Q,Q
2023-03-15 15:11:59:59,0,0.113619,-4.54619,-8.24878,Q,Q
2023-03-15 15:11:59:69,0,0.114665,-4.53668,-8.25318,Q,Q
2023-03-15 15:11:59:78,0,0.113598,-4.52363,-8.25786,Q,Q
2023-03-15 15:11:59:89,0,0.110676,-4.51792,-8.26535,Q,Q
2023-03-15 15:11:59:98,0,0.105706,-4.51587,-8.27534,Q,Q
2023-03-15 15:11:59:109,0,0.0997856,-4.5122,-8.28825,Q,Q
2023-03-15 15:11:59:118,0,0.0948591,-4.50595,-8.29869,Q,Q
2023-03-15 15:11:59:128,0,0.0936426,-4.50391,-8.30459,Q,Q
2023-03-15 15:11:59:138,0,0.0888624,-4.4995,-8.30767,Q,Q
2023-03-15 15:11:59:148,0,0.0840042,-4.49672,-8.31364,Q,Q
2023-03-15 15:11:59:158,0,0.0788421,-4.49092,-8.31778,Q,Q
2023-03-15 15:11:59:169,0,0.0738056,-4.49066,-8.31792,Q,Q
2023-03-15 15:11:59:178,0,0.0713961,-4.4934,-8.31546,Q,Q
2023-03-15 15:11:59:188,0,0.0597293,-4.49889,-8.31003,Q,Q
2023-03-15 15:11:59:199,0,0.0451327,-4.5065,-8.30296,Q,Q
2023-03-15 15:11:59:209,0,0.0325146,-4.51618,-8.29604,Q,Q
2023-03-15 15:11:59:218,0,0.0208931,-4.51832,-8.28907,Q,Q
2023-03-15 15:11:59:229,0,0.00638607,-4.5195,-8.27765,Q,Q
2023-03-15 15:11:59:239,0,-0.00563055,-4.52236,-8.26596,Q,Q
2023-03-15 15:11:59:248,0,-0.0174698,-4.52092,-8.25686,Q,Q
2023-03-15 15:11:59:258,0,-0.0232427,-4.52281,-8.25068,Q,Q
2023-03-15 15:11:59:268,0,-0.0273625,-4.51925,-8.24802,Q,Q
2023-03-15 15:11:59:278,0,-0.0276024,-4.51745,-8.24575,Q,Q
2023-03-15 15:11:59:289,0,-0.0245862,-4.51222,-8.24581,Q,Q
2023-03-15 15:11:59:298,0,-0.0179552,-4.50345,-8.25357,Q,Q
2023-03-15 15:11:59:309,0,-0.0202229,-4.49733,-8.25969,Q,Q
2023-03-15 15:11:59:318,0,-0.0214667,-4.49322,-8.26596,Q,Q
2023-03-15 15:11:59:329,0,-0.0251027,-4.4877,-8.27384,Q,Q
2023-03-15 15:11:59:339,0,-0.0300876,-4.48545,-8.28413,Q,Q
2023-03-15 15:11:59:349,0,-0.0324201,-4.48753,-8.29799,Q,Q
2023-03-15 15:11:59:359,0,-0.0316166,-4.49372,-8.31187,Q,Q
2023-03-15 15:11:59:369,0,-0.0268388,-4.49945,-8.32444,Q,Q
2023-03-15 15:11:59:379,0,-0.0212399,-4.50739,-8.34293,Q,Q
2023-03-15 15:11:59:389,0,-0.0104206,-4.50784,-8.36188,Q,Q
2023-03-15 15:11:59:399,0,0.00674968,-4.51086,-8.38666,Q,Q
2023-03-15 15:11:59:408,0,0.0303033,-4.51464,-8.40387,Q,Q
2023-03-15 15:11:59:419,0,0.0543805,-4.52375,-8.41967,Q,Q
2023-03-15 15:11:59:429,0,0.0753167,-4.53794,-8.43361,Q,Q
2023-03-15 15:11:59:438,0,0.0966541,-4.54954,-8.44695,Q,Q
2023-03-15 15:11:59:448,0,0.115422,-4.55334,-8.45677,Q,Q
2023-03-15 15:11:59:458,0,0.132068,-4.55319,-8.46193,Q,Q
2023-03-15 15:11:59:469,0,0.14476,-4.54844,-8.4588,Q,Q
2023-03-15 15:11:59:478,0,0.15217,-4.54213,-8.45195,Q,Q
2023-03-15 15:11:59:489,0,0.157816,-4.53054,-8.44624,Q,Q
2023-03-15 15:11:59:498,0,0.161165,-4.51629,-8.43974,Q,Q
2023-03-15 15:11:59:509,0,0.168052,-4.49818,-8.43619,Q,Q
2023-03-15 15:11:59:518,0,0.183465,-4.46847,-8.4455,Q,Q
2023-03-15 15:11:59:529,0,0.206713,-4.43691,-8.47026,Q,Q
2023-03-15 15:11:59:539,0,0.236313,-4.39312,-8.50841,Q,Q
2023-03-15 15:11:59:549,0,0.271836,-4.3458,-8.55348,Q,Q
2023-03-15 15:11:59:558,0,0.308834,-4.29847,-8.61101,Q,Q
2023-03-15 15:11:59:569,0,0.342068,-4.24382,-8.67726,Q,Q
2023-03-15 15:11:59:578,0,0.372748,-4.1984,-8.74433,Q,Q
2023-03-15 15:11:59:589,0,0.389305,-4.16434,-8.8113,Q,Q
2023-03-15 15:11:59:599,0,0.40146,-4.11688,-8.87638,Q,Q
2023-03-15 15:11:59:609,0,0.421716,-4.0718,-8.94354,Q,Q
2023-03-15 15:11:59:619,0,0.447549,-4.02606,-9.00138,Q,Q
2023-03-15 15:11:59:629,0,0.465619,-3.98998,-9.05794,Q,Q
2023-03-15 15:11:59:639,0,0.477684,-3.95578,-9.11206,Q,Q
2023-03-15 15:11:59:648,0,0.49023,-3.9145,-9.16728,Q,Q
2023-03-15 15:11:59:659,0,0.509612,-3.87127,-9.21393,Q,Q
2023-03-15 15:11:59:669,0,0.524545,-3.82848,-9.2548,Q,Q
2023-03-15 15:11:59:679,0,0.535342,-3.78464,-9.28537,Q,Q
2023-03-15 15:11:59:689,0,0.542897,-3.74112,-9.31234,Q,Q
2023-03-15 15:11:59:698,0,0.546691,-3.69975,-9.33954,Q,Q
2023-03-15 15:11:59:709,0,0.546293,-3.65576,-9.36353,Q,Q
2023-03-15 15:11:59:718,0,0.54266,-3.60845,-9.3828,Q,Q
2023-03-15 15:11:59:728,0,0.542478,-3.5605,-9.40355,Q,Q
2023-03-15 15:11:59:738,0,0.542151,-3.51062,-9.42616,Q,Q
2023-03-15 15:11:59:748,0,0.544414,-3.46456,-9.44913,Q,Q
2023-03-15 15:11:59:759,0,0.54576,-3.42288,-9.47176,Q,Q
2023-03-15 15:11:59:769,0,0.548516,-3.38977,-9.49551,Q,Q
2023-03-15 15:11:59:779,0,0.55622,-3.34449,-9.52398,Q,Q
2023-03-15 15:11:59:789,0,0.574704,-3.29525,-9.56047,Q,Q
2023-03-15 15:11:59:798,0,0.600093,-3.25137,-9.59677,Q,Q
2023-03-15 15:11:59:809,0,0.624554,-3.2124,-9.62831,Q,Q
2023-03-15 15:11:59:819,0,0.644214,-3.18464,-9.66277,Q,Q
2023-03-15 15:11:59:829,0,0.665891,-3.16956,-9.70263,Q,Q
2023-03-15 15:11:59:839,0,0.691528,-3.15957,-9.74349,Q,Q
2023-03-15 15:11:59:849,0,0.715974,-3.15837,-9.77992,Q,Q
2023-03-15 15:11:59:859,0,0.737305,-3.15803,-9.81947,Q,Q
2023-03-15 15:11:59:869,0,0.754494,-3.16833,-9.85735,Q,Q
2023-03-15 15:11:59:879,0,0.77144,-3.18784,-9.88912,Q,Q
2023-03-15 15:11:59:889,0,0.782866,-3.21412,-9.92077,Q,Q
2023-03-15 15:11:59:899,0,0.793047,-3.24386,-9.95498,Q,Q
2023-03-15 15:11:59:909,0,0.810644,-3.27036,-9.99657,Q,Q
2023-03-15 15:11:59:919,0,0.831147,-3.30042,-10.0384,Q,Q
2023-03-15 15:11:59:929,0,0.850671,-3.33434,-10.0769,Q,Q
2023-03-15 15:11:59:939,0,0.863078,-3.37204,-10.1116,Q,Q
2023-03-15 15:11:59:949,0,0.864524,-3.41269,-10.1471,Q,Q
2023-03-15 15:11:59:959,0,0.86087,-3.4498,-10.1849,Q,Q
2023-03-15 15:11:59:969,0,0.853198,-3.48681,-10.2123,Q,Q
2023-03-15 15:11:59:979,0,0.838436,-3.53077,-10.2317,Q,Q
2023-03-15 15:11:59:989,0,0.815562,-3.58668,-10.2426,Q,Q
2023-03-15 15:11:59:999,0,0.787697,-3.64189,-10.2507,Q,Q
2023-03-15 15:12:00:9,0,0.759847,-3.69558,-10.2549,Q,Q
2023-03-15 15:12:00:19,0,0.737953,-3.74477,-10.255,Q,Q
2023-03-15 15:12:00:29,0,0.719833,-3.78814,-10.2481,Q,Q
2023-03-15 15:12:00:39,0,0.705314,-3.8286,-10.2372,Q,Q
2023-03-15 15:12:00:49,0,0.697918,-3.86671,-10.2169,Q,Q
2023-03-15 15:12:00:59,0,0.692955,-3.90464,-10.1891,Q,Q
2023-03-15 15:12:00:69,0,0.688388,-3.94305,-10.1574,Q,Q
2023-03-15 15:12:00:79,0,0.685493,-3.98017,-10.1266,Q,Q
2023-03-15 15:12:00:89,0,0.685134,-4.01652,-10.0975,Q,Q
2023-03-15 15:12:00:99,0,0.685212,-4.05104,-10.071,Q,Q
2023-03-15 15:12:00:109,0,0.689418,-4.09199,-10.0473,Q,Q
2023-03-15 15:12:00:119,0,0.691804,-4.12286,-10.0215,Q,Q
2023-03-15 15:12:00:129,0,0.691549,-4.15974,-10.0061,Q,Q
2023-03-15 15:12:00:138,0,0.686678,-4.20415,-9.9935,Q,Q
2023-03-15 15:12:00:148,0,0.677979,-4.24967,-9.97928,Q,Q
2023-03-15 15:12:00:159,0,0.668561,-4.27814,-9.97086,Q,Q
2023-03-15 15:12:00:169,0,0.664917,-4.29804,-9.96776,Q,Q
2023-03-15 15:12:00:179,0,0.670225,-4.31216,-9.96276,Q,Q
2023-03-15 15:12:00:189,0,0.672199,-4.3256,-9.95582,Q,Q
2023-03-15 15:12:00:199,0,0.676655,-4.33235,-9.9543,Q,Q
2023-03-15 15:12:00:209,0,0.68627,-4.33232,-9.95984,Q,Q
2023-03-15 15:12:00:218,0,0.703593,-4.32486,-9.96759,Q,Q
2023-03-15 15:12:00:229,0,0.731419,-4.31435,-9.9746,Q,Q
2023-03-15 15:12:00:239,0,0.759697,-4.30757,-9.98091,Q,Q
2023-03-15 15:12:00:249,0,0.784172,-4.29709,-9.99115,Q,Q
2023-03-15 15:12:00:259,0,0.810396,-4.28879,-10.0093,Q,Q
2023-03-15 15:12:00:269,0,0.839483,-4.2795,-10.0317,Q,Q
2023-03-15 15:12:00:279,0,0.869173,-4.27374,-10.0549,Q,Q
2023-03-15 15:12:00:289,0,0.898398,-4.26662,-10.0851,Q,Q
2023-03-15 15:12:00:299,0,0.931968,-4.25699,-10.1213,Q,Q
2023-03-15 15:12:00:309,0,0.967785,-4.25037,-10.159,Q,Q
2023-03-15 15:12:00:319,0,1.00232,-4.24257,-10.1967,Q,Q
2023-03-15 15:12:00:329,0,1.03571,-4.24059,-10.2327,Q,Q
2023-03-15 15:12:00:339,0,1.06983,-4.23932,-10.2694,Q,Q
2023-03-15 15:12:00:349,0,1.10328,-4.24228,-10.3061,Q,Q
2023-03-15 15:12:00:359,0,1.14031,-4.24517,-10.3416,Q,Q
2023-03-15 15:12:00:369,0,1.17316,-4.24936,-10.3681,Q,Q
2023-03-15 15:12:00:379,0,1.20525,-4.25616,-10.3885,Q,Q
2023-03-15 15:12:00:389,0,1.23275,-4.26378,-10.4055,Q,Q
2023-03-15 15:12:00:399,0,1.25931,-4.27238,-10.4158,Q,Q
2023-03-15 15:12:00:409,0,1.28152,-4.2805,-10.4223,Q,Q
2023-03-15 15:12:00:419,0,1.29867,-4.29342,-10.4236,Q,Q
2023-03-15 15:12:00:429,0,1.31458,-4.30877,-10.4173,Q,Q
2023-03-15 15:12:00:439,0,1.32272,-4.32467,-10.4113,Q,Q
2023-03-15 15:12:00:449,0,1.32754,-4.34324,-10.4031,Q,Q
2023-03-15 15:12:00:459,0,1.33374,-4.36496,-10.3942,Q,Q
2023-03-15 15:12:00:469,0,1.34094,-4.38191,-10.3817,Q,Q
2023-03-15 15:12:00:479,0,1.35125,-4.39695,-10.3698,Q,Q
2023-03-15 15:12:00:489,0,1.36904,-4.41076,-10.3552,Q,Q
2023-03-15 15:12:00:498,0,1.38701,-4.43055,-10.3396,Q,Q
2023-03-15 15:12:00:508,0,1.40228,-4.45047,-10.323,Q,Q
2023-03-15 15:12:00:519,0,1.41584,-4.4701,-10.3113,Q,Q
2023-03-15 15:12:00:529,0,1.43158,-4.48919,-10.3015,Q,Q
2023-03-15 15:12:00:539,0,1.45122,-4.50369,-10.2943,Q,Q
2023-03-15 15:12:00:549,0,1.47145,-4.51532,-10.2923,Q,Q
2023-03-15 15:12:00:558,0,1.48757,-4.52607,-10.2933,Q,Q
2023-03-15 15:12:00:569,0,1.50729,-4.53383,-10.299,Q,Q
2023-03-15 15:12:00:579,0,1.52555,-4.54045,-10.3068,Q,Q
2023-03-15 15:12:00:588,0,1.54185,-4.54057,-10.3201,Q,Q
2023-03-15 15:12:00:599,0,1.55357,-4.54015,-10.3316,Q,Q
2023-03-15 15:12:00:609,0,1.56115,-4.54177,-10.3443,Q,Q
2023-03-15 15:12:00:619,0,1.56834,-4.53915,-10.3562,Q,Q
2023-03-15 15:12:00:628,0,1.57038,-4.53042,-10.3696,Q,Q
2023-03-15 15:12:00:638,0,1.56974,-4.51933,-10.3796,Q,Q
2023-03-15 15:12:00:648,0,1.56947,-4.51333,-10.3901,Q,Q
2023-03-15 15:12:00:658,0,1.56546,-4.50754,-10.3937,Q,Q
2023-03-15 15:12:00:668,0,1.56191,-4.49552,-10.4,Q,Q
2023-03-15 15:12:00:678,0,1.56192,-4.48269,-10.4049,Q,Q
2023-03-15 15:12:00:689,0,1.56442,-4.47223,-10.4089,Q,Q
2023-03-15 15:12:00:698,0,1.56629,-4.46803,-10.4105,Q,Q
2023-03-15 15:12:00:708,0,1.57122,-4.46325,-10.4101,Q,Q
2023-03-15 15:12:00:718,0,1.57491,-4.45897,-10.4116,Q,Q
2023-03-15 15:12:00:729,0,1.58313,-4.45735,-10.4053,Q,Q
2023-03-15 15:12:00:738,0,1.59194,-4.46296,-10.3985,Q,Q
2023-03-15 15:12:00:748,0,1.60311,-4.47201,-10.3929,Q,Q
2023-03-15 15:12:00:758,0,1.61193,-4.48886,-10.3881,Q,Q
2023-03-15 15:12:00:768,0,1.63174,-4.51238,-10.3835,Q,Q
2023-03-15 15:12:00:778,0,1.65773,-4.53927,-10.3882,Q,Q
2023-03-15 15:12:00:788,0,1.68039,-4.57305,-10.3939,Q,Q
2023-03-15 15:12:00:798,0,1.69523,-4.60936,-10.3995,Q,Q
2023-03-15 15:12:00:808,0,1.7021,-4.63884,-10.4043,Q,Q
2023-03-15 15:12:00:818,0,1.70399,-4.66694,-10.4106,Q,Q
2023-03-15 15:12:00:828,0,1.70278,-4.69089,-10.4188,Q,Q
2023-03-15 15:12:00:838,0,1.70174,-4.71141,-10.4254,Q,Q
2023-03-15 15:12:00:848,0,1.69711,-4.73434,-10.4338,Q,Q
2023-03-15 15:12:00:858,0,1.68996,-4.75371,-10.4426,Q,Q
2023-03-15 15:12:00:868,0,1.67684,-4.76894,-10.4516,Q,Q
2023-03-15 15:12:00:878,0,1.66966,-4.77808,-10.4617,Q,Q
2023-03-15 15:12:00:888,0,1.66384,-4.7808,-10.4703,Q,Q
2023-03-15 15:12:00:898,0,1.65974,-4.77367,-10.4791,Q,Q
2023-03-15 15:12:00:908,0,1.65225,-4.76335,-10.4849,Q,Q
2023-03-15 15:12:00:918,0,1.64189,-4.74811,-10.4912,Q,Q
2023-03-15 15:12:00:928,0,1.6215,-4.73167,-10.4948,Q,Q
2023-03-15 15:12:00:939,0,1.60524,-4.71292,-10.4989,Q,Q
2023-03-15 15:12:00:948,0,1.5809,-4.6943,-10.5031,Q,Q
2023-03-15 15:12:00:959,0,1.55252,-4.67518,-10.5154,Q,Q
2023-03-15 15:12:00:968,0,1.52277,-4.65754,-10.5293,Q,Q
2023-03-15 15:12:00:978,0,1.49406,-4.6375,-10.5471,Q,Q
2023-03-15 15:12:00:989,0,1.47175,-4.61786,-10.572,Q,Q
2023-03-15 15:12:00:998,0,1.45461,-4.59921,-10.601,Q,Q
2023-03-15 15:12:01:9,0,1.43672,-4.57819,-10.6319,Q,Q
2023-03-15 15:12:01:18,0,1.42501,-4.55932,-10.6604,Q,Q
2023-03-15 15:12:01:28,0,1.41476,-4.54281,-10.6895,Q,Q
2023-03-15 15:12:01:38,0,1.40267,-4.53057,-10.7207,Q,Q
2023-03-15 15:12:01:48,0,1.3973,-4.51478,-10.7538,Q,Q
2023-03-15 15:12:01:59,0,1.38737,-4.49879,-10.7871,Q,Q
2023-03-15 15:12:01:68,0,1.37651,-4.48282,-10.825,Q,Q
2023-03-15 15:12:01:78,0,1.36648,-4.46727,-10.8598,Q,Q
2023-03-15 15:12:01:89,0,1.35069,-4.4561,-10.8903,Q,Q
2023-03-15 15:12:01:98,0,1.33618,-4.44367,-10.9178,Q,Q
2023-03-15 15:12:01:108,0,1.32171,-4.43337,-10.9455,Q,Q
2023-03-15 15:12:01:119,0,1.30423,-4.42198,-10.9738,Q,Q
2023-03-15 15:12:01:128,0,1.28343,-4.41212,-11.0019,Q,Q
2023-03-15 15:12:01:138,0,1.25778,-4.4045,-11.0256,Q,Q
2023-03-15 15:12:01:148,0,1.23291,-4.39721,-11.0499,Q,Q
2023-03-15 15:12:01:159,0,1.20469,-4.40175,-11.0753,Q,Q
2023-03-15 15:12:01:168,0,1.17512,-4.40567,-11.0976,Q,Q
2023-03-15 15:12:01:178,0,1.14947,-4.40843,-11.1212,Q,Q
2023-03-15 15:12:01:189,0,1.13102,-4.41216,-11.1421,Q,Q
2023-03-15 15:12:01:198,0,1.11311,-4.41467,-11.1641,Q,Q
2023-03-15 15:12:01:208,0,1.09401,-4.42058,-11.1857,Q,Q
2023-03-15 15:12:01:219,0,1.07178,-4.42635,-11.2061,Q,Q
2023-03-15 15:12:01:228,0,1.04974,-4.42693,-11.2295,Q,Q
2023-03-15 15:12:01:238,0,1.03276,-4.42552,-11.2509,Q,Q
2023-03-15 15:12:01:248,0,1.01631,-4.42755,-11.2722,Q,Q
2023-03-15 15:12:01:259,0,0.997953,-4.43261,-11.2966,Q,Q
2023-03-15 15:12:01:269,0,0.985744,-4.43409,-11.323,Q,Q
2023-03-15 15:12:01:278,0,0.981803,-4.43705,-11.3475,Q,Q
2023-03-15 15:12:01:288,0,0.986393,-4.43335,-11.3748,Q,Q
2023-03-15 15:12:01:298,0,0.990164,-4.42685,-11.4035,Q,Q
2023-03-15 15:12:01:308,0,0.993902,-4.41922,-11.4286,Q,Q
2023-03-15 15:12:01:319,0,0.991253,-4.41538,-11.4526,Q,Q
2023-03-15 15:12:01:328,0,0.989965,-4.40982,-11.4752,Q,Q
2023-03-15 15:12:01:339,0,0.986733,-4.4036,-11.4991,Q,Q
2023-03-15 15:12:01:348,0,0.984248,-4.39715,-11.5208,Q,Q
2023-03-15 15:12:01:358,0,0.981843,-4.39128,-11.5409,Q,Q
2023-03-15 15:12:01:368,0,0.980996,-4.38776,-11.5602,Q,Q
2023-03-15 15:12:01:378,0,0.985172,-4.39285,-11.5778,Q,Q
2023-03-15 15:12:01:389,0,0.991968,-4.39396,-11.5925,Q,Q
2023-03-15 15:12:01:398,0,0.995496,-4.39405,-11.6055,Q,Q
2023-03-15 15:12:01:408,0,1.00484,-4.39502,-11.62,Q,Q
2023-03-15 15:12:01:418,0,1.01941,-4.39832,-11.6275,Q,Q
2023-03-15 15:12:01:428,0,1.03219,-4.40144,-11.6323,Q,Q
2023-03-15 15:12:01:439,0,1.04383,-4.40688,-11.6354,Q,Q
2023-03-15 15:12:01:449,0,1.05465,-4.41344,-11.6352,Q,Q
2023-03-15 15:12:01:459,0,1.06609,-4.42231,-11.6326,Q,Q
2023-03-15 15:12:01:469,0,1.08028,-4.43391,-11.6331,Q,Q
2023-03-15 15:12:01:479,0,1.09906,-4.4427,-11.6355,Q,Q
2023-03-15 15:12:01:489,0,1.11776,-4.44987,-11.6404,Q,Q
2023-03-15 15:12:01:499,0,1.13383,-4.45406,-11.6457,Q,Q
2023-03-15 15:12:01:509,0,1.14924,-4.45601,-11.6514,Q,Q
2023-03-15 15:12:01:518,0,1.16869,-4.45862,-11.6575,Q,Q
2023-03-15 15:12:01:528,0,1.18487,-4.45949,-11.6654,Q,Q
2023-03-15 15:12:01:538,0,1.19947,-4.46236,-11.6737,Q,Q
2023-03-15 15:12:01:549,0,1.2152,-4.46383,-11.6883,Q,Q
2023-03-15 15:12:01:558,0,1.23453,-4.47141,-11.6922,Q,Q
2023-03-15 15:12:01:569,0,1.25066,-4.48218,-11.6921,Q,Q
2023-03-15 15:12:01:578,0,1.26282,-4.49702,-11.6902,Q,Q
2023-03-15 15:12:01:588,0,1.27467,-4.51014,-11.6865,Q,Q
2023-03-15 15:12:01:599,0,1.28498,-4.51964,-11.676,Q,Q
2023-03-15 15:12:01:609,0,1.29442,-4.52942,-11.6636,Q,Q
2023-03-15 15:12:01:619,0,1.30083,-4.54078,-11.6506,Q,Q
2023-03-15 15:12:01:629,0,1.31111,-4.55286,-11.636,Q,Q
2023-03-15 15:12:01:639,0,1.32563,-4.56472,-11.6204,Q,Q
2023-03-15 15:12:01:649,0,1.33853,-4.57297,-11.6045,Q,Q
2023-03-15 15:12:01:659,0,1.35383,-4.5796,-11.5923,Q,Q
2023-03-15 15:12:01:669,0,1.36332,-4.58378,-11.5839,Q,Q
2023-03-15 15:12:01:679,0,1.37861,-4.59296,-11.5748,Q,Q
2023-03-15 15:12:01:689,0,1.3882,-4.59778,-11.5648,Q,Q
2023-03-15 15:12:01:699,0,1.39478,-4.60314,-11.5583,Q,Q
2023-03-15 15:12:01:708,0,1.40181,-4.60995,-11.5591,Q,Q
2023-03-15 15:12:01:718,0,1.40412,-4.61869,-11.557,Q,Q
2023-03-15 15:12:01:728,0,1.40744,-4.62608,-11.5591,Q,Q
2023-03-15 15:12:01:739,0,1.41207,-4.63259,-11.5651,Q,Q
2023-03-15 15:12:01:749,0,1.41659,-4.63728,-11.5691,Q,Q
2023-03-15 15:12:01:759,0,1.42571,-4.64053,-11.5794,Q,Q
2023-03-15 15:12:01:768,0,1.43382,-4.6442,-11.5838,Q,Q
2023-03-15 15:12:01:778,0,1.4423,-4.64482,-11.5896,Q,Q
2023-03-15 15:12:01:789,0,1.45183,-4.64463,-11.599,Q,Q
2023-03-15 15:12:01:799,0,1.46561,-4.65108,-11.6021,Q,Q
2023-03-15 15:12:01:809,0,1.47954,-4.66096,-11.6041,Q,Q
2023-03-15 15:12:01:819,0,1.50007,-4.67099,-11.6086,Q,Q
2023-03-15 15:12:01:829,0,1.52452,-4.67914,-11.612,Q,Q
2023-03-15 15:12:01:839,0,1.54946,-4.68469,-11.6125,Q,Q
2023-03-15 15:12:01:849,0,1.57379,-4.69093,-11.6119,Q,Q
2023-03-15 15:12:01:859,0,1.59554,-4.6916,-11.6106,Q,Q
2023-03-15 15:12:01:869,0,1.62548,-4.68284,-11.6106,Q,Q
2023-03-15 15:12:01:878,0,1.65577,-4.68091,-11.6071,Q,Q
2023-03-15 15:12:01:889,0,1.67777,-4.68682,-11.5985,Q,Q
2023-03-15 15:12:01:899,0,1.69518,-4.69335,-11.5954,Q,Q
2023-03-15 15:12:01:909,0,1.71246,-4.70221,-11.5922,Q,Q
2023-03-15 15:12:01:919,0,1.73443,-4.7067,-11.5954,Q,Q
2023-03-15 15:12:01:929,0,1.75651,-4.70832,-11.5916,Q,Q
2023-03-15 15:12:01:939,0,1.77194,-4.71422,-11.5871,Q,Q
2023-03-15 15:12:01:949,0,1.78849,-4.72055,-11.5824,Q,Q
2023-03-15 15:12:01:959,0,1.80475,-4.72562,-11.5774,Q,Q
2023-03-15 15:12:01:969,0,1.81929,-4.73263,-11.5723,Q,Q
2023-03-15 15:12:01:979,0,1.83251,-4.73799,-11.5667,Q,Q
2023-03-15 15:12:01:989,0,1.84558,-4.74134,-11.5573,Q,Q
2023-03-15 15:12:01:999,0,1.85773,-4.74796,-11.5462,Q,Q
2023-03-15 15:12:02:9,0,1.86861,-4.75416,-11.5365,Q,Q
2023-03-15 15:12:02:19,0,1.86909,-4.76329,-11.5184,Q,Q
2023-03-15 15:12:02:29,0,1.86709,-4.77028,-11.5033,Q,Q
2023-03-15 15:12:02:38,0,1.86978,-4.77509,-11.4909,Q,Q
2023-03-15 15:12:02:49,0,1.87621,-4.7768,-11.4826,Q,Q
2023-03-15 15:12:02:59,0,1.88471,-4.77359,-11.4775,Q,Q
2023-03-15 15:12:02:69,0,1.89236,-4.77348,-11.4685,Q,Q
2023-03-15 15:12:02:78,0,1.89751,-4.77083,-11.4648,Q,Q
2023-03-15 15:12:02:89,0,1.90293,-4.77275,-11.4597,Q,Q
2023-03-15 15:12:02:99,0,1.90844,-4.77236,-11.4585,Q,Q
2023-03-15 15:12:02:109,0,1.91864,-4.77129,-11.4574,Q,Q
2023-03-15 15:12:02:119,0,1.92966,-4.76816,-11.4571,Q,Q
2023-03-15 15:12:02:128,0,1.9381,-4.7687,-11.4599,Q,Q
2023-03-15 15:12:02:138,0,1.95037,-4.76588,-11.4611,Q,Q
2023-03-15 15:12:02:148,0,1.95656,-4.76317,-11.4641,Q,Q
2023-03-15 15:12:02:158,0,1.96402,-4.7581,-11.464,Q,Q
2023-03-15 15:12:02:168,0,1.96697,-4.74995,-11.4654,Q,Q
2023-03-15 15:12:02:178,0,1.96816,-4.74206,-11.4703,Q,Q
2023-03-15 15:12:02:188,0,1.9704,-4.73557,-11.4727,Q,Q
2023-03-15 15:12:02:198,0,1.9673,-4.72815,-11.4736,Q,Q
2023-03-15 15:12:02:208,0,1.96699,-4.72023,-11.4728,Q,Q
2023-03-15 15:12:02:218,0,1.96418,-4.71213,-11.4678,Q,Q
2023-03-15 15:12:02:228,0,1.96405,-4.7047,-11.4634,Q,Q
2023-03-15 15:12:02:238,0,1.95861,-4.69982,-11.4595,Q,Q
2023-03-15 15:12:02:248,0,1.9557,-4.69445,-11.4552,Q,Q
2023-03-15 15:12:02:258,0,1.9541,-4.68535,-11.4482,Q,Q
2023-03-15 15:12:02:268,0,1.95139,-4.67793,-11.4399,Q,Q
2023-03-15 15:12:02:278,0,1.9456,-4.67433,-11.4275,Q,Q
2023-03-15 15:12:02:288,0,1.93583,-4.67645,-11.4162,Q,Q
2023-03-15 15:12:02:298,0,1.93102,-4.67933,-11.4052,Q,Q
2023-03-15 15:12:02:308,0,1.93089,-4.68675,-11.3919,Q,Q
2023-03-15 15:12:02:318,0,1.92673,-4.69773,-11.3734,Q,Q
2023-03-15 15:12:02:328,0,1.91883,-4.71235,-11.3495,Q,Q
2023-03-15 15:12:02:338,0,1.91146,-4.72645,-11.3268,Q,Q
2023-03-15 15:12:02:348,0,1.90547,-4.74408,-11.3035,Q,Q
2023-03-15 15:12:02:358,0,1.89926,-4.75938,-11.2831,Q,Q
2023-03-15 15:12:02:368,0,1.89461,-4.7755,-11.2628,Q,Q
2023-03-15 15:12:02:378,0,1.88899,-4.79109,-11.2441,Q,Q
2023-03-15 15:12:02:388,0,1.8908,-4.80548,-11.2279,Q,Q
2023-03-15 15:12:02:398,0,1.89075,-4.82453,-11.2144,Q,Q
2023-03-15 15:12:02:408,0,1.89273,-4.84247,-11.2009,Q,Q
2023-03-15 15:12:02:418,0,1.89048,-4.86045,-11.1878,Q,Q
2023-03-15 15:12:02:428,0,1.88828,-4.87586,-11.1729,Q,Q
2023-03-15 15:12:02:438,0,1.88432,-4.88862,-11.1625,Q,Q
2023-03-15 15:12:02:448,0,1.88278,-4.90142,-11.1539,Q,Q
2023-03-15 15:12:02:458,0,1.8774,-4.91616,-11.1511,Q,Q
2023-03-15 15:12:02:468,0,1.87346,-4.92794,-11.1476,Q,Q
2023-03-15 15:12:02:478,0,1.87021,-4.93964,-11.1452,Q,Q
2023-03-15 15:12:02:488,0,1.86481,-4.94831,-11.1423,Q,Q
2023-03-15 15:12:02:498,0,1.86308,-4.95407,-11.1407,Q,Q
2023-03-15 15:12:02:509,0,1.86136,-4.95908,-11.1407,Q,Q
2023-03-15 15:12:02:518,0,1.86196,-4.95704,-11.1472,Q,Q
2023-03-15 15:12:02:528,0,1.86374,-4.95651,-11.1506,Q,Q
2023-03-15 15:12:02:538,0,1.87149,-4.96035,-11.1547,Q,Q
2023-03-15 15:12:02:548,0,1.88051,-4.96495,-11.1562,Q,Q
2023-03-15 15:12:02:559,0,1.8866,-4.96921,-11.1584,Q,Q
2023-03-15 15:12:02:568,0,1.89385,-4.97262,-11.1613,Q,Q
2023-03-15 15:12:02:578,0,1.90242,-4.97813,-11.1672,Q,Q
2023-03-15 15:12:02:589,0,1.91094,-4.97906,-11.1712,Q,Q
2023-03-15 15:12:02:598,0,1.91573,-4.97933,-11.173,Q,Q
2023-03-15 15:12:02:609,0,1.92204,-4.97783,-11.1769,Q,Q
2023-03-15 15:12:02:618,0,1.93002,-4.98061,-11.1761,Q,Q
2023-03-15 15:12:02:628,0,1.93711,-4.98651,-11.1751,Q,Q
2023-03-15 15:12:02:639,0,1.94829,-4.98701,-11.1763,Q,Q
2023-03-15 15:12:02:648,0,1.95831,-4.98585,-11.1747,Q,Q
2023-03-15 15:12:02:659,0,1.96441,-4.98842,-11.1711,Q,Q
2023-03-15 15:12:02:669,0,1.97232,-4.99495,-11.1715,Q,Q
2023-03-15 15:12:02:679,0,1.97434,-5.00242,-11.1684,Q,Q
2023-03-15 15:12:02:689,0,1.97651,-5.01281,-11.1615,Q,Q
2023-03-15 15:12:02:699,0,1.9794,-5.02463,-11.1488,Q,Q
2023-03-15 15:12:02:709,0,1.98057,-5.03753,-11.1335,Q,Q
2023-03-15 15:12:02:719,0,1.98218,-5.0442,-11.1157,Q,Q
2023-03-15 15:12:02:728,0,1.97709,-5.05399,-11.0941,Q,Q
2023-03-15 15:12:02:739,0,1.97158,-5.06371,-11.069,Q,Q
2023-03-15 15:12:02:749,0,1.96967,-5.07726,-11.048,Q,Q
2023-03-15 15:12:02:759,0,1.96324,-5.08994,-11.0271,Q,Q
2023-03-15 15:12:02:769,0,1.9566,-5.09965,-11.006,Q,Q
2023-03-15 15:12:02:778,0,1.95066,-5.10991,-10.9909,Q,Q
2023-03-15 15:12:02:789,0,1.94758,-5.12177,-10.9813,Q,Q
2023-03-15 15:12:02:799,0,1.94152,-5.13131,-10.9719,Q,Q
2023-03-15 15:12:02:808,0,1.94026,-5.13773,-10.9673,Q,Q
2023-03-15 15:12:02:819,0,1.93683,-5.14577,-10.9654,Q,Q
2023-03-15 15:12:02:829,0,1.93628,-5.15066,-10.9714,Q,Q
2023-03-15 15:12:02:839,0,1.93892,-5.1524,-10.9779,Q,Q
2023-03-15 15:12:02:849,0,1.94105,-5.15373,-10.9884,Q,Q
2023-03-15 15:12:02:859,0,1.9458,-5.14852,-11.0019,Q,Q
2023-03-15 15:12:02:869,0,1.95095,-5.14371,-11.0135,Q,Q
2023-03-15 15:12:02:879,0,1.95399,-5.13614,-11.029,Q,Q
2023-03-15 15:12:02:888,0,1.95456,-5.13149,-11.0434,Q,Q
2023-03-15 15:12:02:899,0,1.95819,-5.12421,-11.0559,Q,Q
2023-03-15 15:12:02:909,0,1.96113,-5.11736,-11.0693,Q,Q
2023-03-15 15:12:02:919,0,1.96326,-5.10943,-11.078,Q,Q
2023-03-15 15:12:02:929,0,1.96579,-5.10228,-11.0833,Q,Q
2023-03-15 15:12:02:939,0,1.97232,-5.09421,-11.0888,Q,Q
2023-03-15 15:12:02:949,0,1.97855,-5.08531,-11.0942,Q,Q
2023-03-15 15:12:02:959,0,1.98113,-5.07509,-11.0975,Q,Q
2023-03-15 15:12:02:969,0,1.98653,-5.06922,-11.1031,Q,Q
2023-03-15 15:12:02:979,0,1.99058,-5.06175,-11.1074,Q,Q
2023-03-15 15:12:02:989,0,1.99596,-5.05345,-11.1091,Q,Q
2023-03-15 15:12:02:999,0,1.99804,-5.0468,-11.111,Q,Q
2023-03-15 15:12:03:8,0,2.00057,-5.03835,-11.1102,Q,Q
2023-03-15 15:12:03:19,0,1.9992,-5.03128,-11.1147,Q,Q
2023-03-15 15:12:03:28,0,1.9995,-5.02682,-11.1191,Q,Q
2023-03-15 15:12:03:38,0,1.99916,-5.01905,-11.1239,Q,Q
2023-03-15 15:12:03:48,0,2.00129,-5.01566,-11.1277,Q,Q
2023-03-15 15:12:03:59,0,2.00553,-5.01156,-11.1293,Q,Q
2023-03-15 15:12:03:69,0,2.00478,-5.0115,-11.1256,Q,Q
2023-03-15 15:12:03:79,0,2.00108,-5.01305,-11.1223,Q,Q
2023-03-15 15:12:03:89,0,1.99416,-5.01354,-11.1241,Q,Q
2023-03-15 15:12:03:98,0,1.98996,-5.01393,-11.1221,Q,Q
2023-03-15 15:12:03:109,0,1.98568,-5.01105,-11.1207,Q,Q
2023-03-15 15:12:03:118,0,1.988,-5.01056,-11.118,Q,Q
2023-03-15 15:12:03:128,0,1.98954,-5.01222,-11.1126,Q,Q
2023-03-15 15:12:03:139,0,1.99311,-5.01398,-11.1083,Q,Q
2023-03-15 15:12:03:149,0,1.99847,-5.01304,-11.1081,Q,Q
2023-03-15 15:12:03:159,0,2.0019,-5.01054,-11.1106,Q,Q
2023-03-15 15:12:03:168,0,2.00397,-5.00921,-11.112,Q,Q
2023-03-15 15:12:03:179,0,2.00399,-5.00877,-11.112,Q,Q
2023-03-15 15:12:03:189,0,2.00091,-5.01008,-11.115,Q,Q
2023-03-15 15:12:03:199,0,1.99577,-5.00828,-11.1164,Q,Q
2023-03-15 15:12:03:209,0,1.98776,-5.00877,-11.1155,Q,Q
2023-03-15 15:12:03:219,0,1.98108,-5.00815,-11.1151,Q,Q
2023-03-15 15:12:03:229,0,1.97474,-5.00878,-11.1145,Q,Q
2023-03-15 15:12:03:239,0,1.97154,-5.0089,-11.1109,Q,Q
2023-03-15 15:12:03:249,0,1.9656,-5.00763,-11.1017,Q,Q
2023-03-15 15:12:03:259,0,1.95694,-5.0025,-11.0959,Q,Q
2023-03-15 15:12:03:269,0,1.94798,-4.99994,-11.0909,Q,Q
2023-03-15 15:12:03:279,0,1.94215,-5.001,-11.0906,Q,Q
2023-03-15 15:12:03:289,0,1.94063,-5.00438,-11.0873,Q,Q
2023-03-15 15:12:03:299,0,1.9396,-5.00904,-11.0869,Q,Q
2023-03-15 15:12:03:309,0,1.94409,-5.0126,-11.0893,Q,Q
2023-03-15 15:12:03:318,0,1.95133,-5.01632,-11.0955,Q,Q
2023-03-15 15:12:03:329,0,1.95829,-5.01799,-11.0995,Q,Q
2023-03-15 15:12:03:339,0,1.9639,-5.01952,-11.1059,Q,Q
2023-03-15 15:12:03:349,0,1.97071,-5.01852,-11.1097,Q,Q
2023-03-15 15:12:03:359,0,1.97873,-5.01397,-11.1148,Q,Q
2023-03-15 15:12:03:369,0,1.98661,-5.01674,-11.1196,Q,Q
2023-03-15 15:12:03:379,0,1.99504,-5.01808,-11.1207,Q,Q
2023-03-15 15:12:03:388,0,2.00324,-5.01625,-11.1232,Q,Q
2023-03-15 15:12:03:398,0,2.00938,-5.0155,-11.1246,Q,Q
2023-03-15 15:12:03:409,0,2.01697,-5.01427,-11.1288,Q,Q
2023-03-15 15:12:03:419,0,2.02569,-5.01633,-11.1298,Q,Q
2023-03-15 15:12:03:429,0,2.03318,-5.01916,-11.1353,Q,Q
2023-03-15 15:12:03:439,0,2.0388,-5.01925,-11.1384,Q,Q
2023-03-15 15:12:03:449,0,2.0461,-5.02421,-11.136,Q,Q
2023-03-15 15:12:03:459,0,2.0465,-5.02814,-11.1337,Q,Q
2023-03-15 15:12:03:469,0,2.04753,-5.03292,-11.1303,Q,Q
2023-03-15 15:12:03:479,0,2.04834,-5.03628,-11.1249,Q,Q
2023-03-15 15:12:03:489,0,2.04908,-5.04186,-11.1166,Q,Q
2023-03-15 15:12:03:499,0,2.04866,-5.04552,-11.1101,Q,Q
2023-03-15 15:12:03:509,0,2.04672,-5.04565,-11.1007,Q,Q
2023-03-15 15:12:03:519,0,2.04121,-5.04524,-11.0881,Q,Q
2023-03-15 15:12:03:529,0,2.04079,-5.0454,-11.0766,Q,Q
2023-03-15 15:12:03:539,0,2.03358,-5.04487,-11.0624,Q,Q
2023-03-15 15:12:03:549,0,2.02741,-5.04377,-11.0533,Q,Q
2023-03-15 15:12:03:559,0,2.02286,-5.04584,-11.0485,Q,Q
2023-03-15 15:12:03:568,0,2.02273,-5.04331,-11.0456,Q,Q
2023-03-15 15:12:03:578,0,2.0226,-5.04303,-11.0481,Q,Q
2023-03-15 15:12:03:589,0,2.02625,-5.04053,-11.0534,Q,Q
2023-03-15 15:12:03:598,0,2.03291,-5.02934,-11.0589,Q,Q
2023-03-15 15:12:03:608,0,2.04277,-5.02201,-11.0708,Q,Q
2023-03-15 15:12:03:618,0,2.04736,-5.02143,-11.0855,Q,Q
2023-03-15 15:12:03:628,0,2.04795,-5.02364,-11.0986,Q,Q
2023-03-15 15:12:03:638,0,2.04934,-5.02398,-11.115,Q,Q
2023-03-15 15:12:03:648,0,2.05422,-5.01959,-11.1307,Q,Q
2023-03-15 15:12:03:658,0,2.06189,-5.01339,-11.1446,Q,Q
2023-03-15 15:12:03:668,0,2.0716,-5.00793,-11.1527,Q,Q
2023-03-15 15:12:03:678,0,2.08049,-5.00033,-11.1635,Q,Q
2023-03-15 15:12:03:688,0,2.09034,-4.99129,-11.1703,Q,Q
2023-03-15 15:12:03:698,0,2.09888,-4.98202,-11.1793,Q,Q
2023-03-15 15:12:03:708,0,2.11051,-4.96462,-11.1905,Q,Q
2023-03-15 15:12:03:718,0,2.12076,-4.95077,-11.1994,Q,Q
2023-03-15 15:12:03:728,0,2.13044,-4.93414,-11.2096,Q,Q
2023-03-15 15:12:03:738,0,2.13431,-4.92289,-11.2187,Q,Q
2023-03-15 15:12:03:748,0,2.14529,-4.91609,-11.2302,Q,Q
2023-03-15 15:12:03:758,0,2.15563,-4.90929,-11.2434,Q,Q
2023-03-15 15:12:03:769,0,2.17014,-4.90058,-11.2515,Q,Q
2023-03-15 15:12:03:779,0,2.18501,-4.89624,-11.2576,Q,Q
2023-03-15 15:12:03:789,0,2.19008,-4.89212,-11.2559,Q,Q
2023-03-15 15:12:03:799,0,2.19068,-4.88869,-11.2556,Q,Q
2023-03-15 15:12:03:809,0,2.1869,-4.88795,-11.258,Q,Q
2023-03-15 15:12:03:819,0,2.18657,-4.87871,-11.2606,Q,Q
2023-03-15 15:12:03:829,0,2.18491,-4.87166,-11.2625,Q,Q
2023-03-15 15:12:03:839,0,2.18274,-4.86501,-11.2669,Q,Q
2023-03-15 15:12:03:849,0,2.18317,-4.85805,-11.27,Q,Q
2023-03-15 15:12:03:859,0,2.18965,-4.84495,-11.276,Q,Q
2023-03-15 15:12:03:869,0,2.19691,-4.82942,-11.2852,Q,Q
2023-03-15 15:12:03:879,0,2.20638,-4.8184,-11.2956,Q,Q
2023-03-15 15:12:03:889,0,2.2114,-4.81021,-11.3054,Q,Q
2023-03-15 15:12:03:899,0,2.2099,-4.79796,-11.3192,Q,Q
2023-03-15 15:12:03:909,0,2.20632,-4.78566,-11.3339,Q,Q
2023-03-15 15:12:03:919,0,2.20533,-4.77443,-11.3484,Q,Q
2023-03-15 15:12:03:929,0,2.20339,-4.76807,-11.3594,Q,Q
2023-03-15 15:12:03:939,0,2.19691,-4.76095,-11.369,Q,Q
2023-03-15 15:12:03:949,0,2.1894,-4.7572,-11.3806,Q,Q
2023-03-15 15:12:03:959,0,2.18182,-4.75316,-11.3875,Q,Q
2023-03-15 15:12:03:968,0,2.17624,-4.74491,-11.3973,Q,Q
2023-03-15 15:12:03:978,0,2.16875,-4.7404,-11.4062,Q,Q
2023-03-15 15:12:03:989,0,2.15828,-4.7353,-11.4136,Q,Q
2023-03-15 15:12:03:999,0,2.15734,-4.73245,-11.4221,Q,Q
2023-03-15 15:12:04:8,0,2.16143,-4.73306,-11.4273,Q,Q
2023-03-15 15:12:04:19,0,2.16418,-4.73485,-11.4306,Q,Q
2023-03-15 15:12:04:29,0,2.17042,-4.73765,-11.4332,Q,Q
2023-03-15 15:12:04:38,0,2.17691,-4.74428,-11.4378,Q,Q
2023-03-15 15:12:04:48,0,2.18224,-4.74721,-11.4409,Q,Q
2023-03-15 15:12:04:58,0,2.18401,-4.74797,-11.4381,Q,Q
2023-03-15 15:12:04:68,0,2.18747,-4.7512,-11.4356,Q,Q
2023-03-15 15:12:04:78,0,2.19092,-4.75309,-11.4333,Q,Q
2023-03-15 15:12:04:88,0,2.19128,-4.75642,-11.4331,Q,Q
2023-03-15 15:12:04:98,0,2.19501,-4.76108,-11.4314,Q,Q
2023-03-15 15:12:04:108,0,2.19468,-4.76387,-11.429,Q,Q
2023-03-15 15:12:04:118,0,2.19554,-4.76545,-11.4274,Q,Q
2023-03-15 15:12:04:129,0,2.19803,-4.76878,-11.4293,Q,Q
2023-03-15 15:12:04:139,0,2.2025,-4.77471,-11.4318,Q,Q
2023-03-15 15:12:04:149,0,2.20586,-4.78177,-11.4359,Q,Q
2023-03-15 15:12:04:158,0,2.20461,-4.7856,-11.4397,Q,Q
2023-03-15 15:12:04:169,0,2.20376,-4.79246,-11.439,Q,Q
2023-03-15 15:12:04:179,0,2.19729,-4.80129,-11.4428,Q,Q
2023-03-15 15:12:04:189,0,2.19292,-4.80499,-11.4482,Q,Q
2023-03-15 15:12:04:199,0,2.18924,-4.81094,-11.4512,Q,Q
2023-03-15 15:12:04:209,0,2.18299,-4.81459,-11.4507,Q,Q
2023-03-15 15:12:04:219,0,2.17927,-4.82239,-11.4526,Q,Q
2023-03-15 15:12:04:229,0,2.17475,-4.8254,-11.4515,Q,Q
2023-03-15 15:12:04:239,0,2.17027,-4.82455,-11.4544,Q,Q
2023-03-15 15:12:04:249,0,2.16443,-4.82178,-11.4559,Q,Q
2023-03-15 15:12:04:259,0,2.15839,-4.81991,-11.4599,Q,Q
2023-03-15 15:12:04:269,0,2.15292,-4.81685,-11.4661,Q,Q
2023-03-15 15:12:04:279,0,2.14764,-4.81301,-11.4723,Q,Q
2023-03-15 15:12:04:288,0,2.14545,-4.8103,-11.4766,Q,Q
2023-03-15 15:12:04:299,0,2.14403,-4.80675,-11.4832,Q,Q
2023-03-15 15:12:04:309,0,2.1469,-4.79939,-11.4885,Q,Q
2023-03-15 15:12:04:319,0,2.1497,-4.79612,-11.4944,Q,Q
2023-03-15 15:12:04:329,0,2.155,-4.79521,-11.501,Q,Q
2023-03-15 15:12:04:338,0,2.15544,-4.79669,-11.5049,Q,Q
2023-03-15 15:12:04:348,0,2.15705,-4.79695,-11.5094,Q,Q
2023-03-15 15:12:04:359,0,2.15932,-4.79369,-11.5165,Q,Q
2023-03-15 15:12:04:369,0,2.16142,-4.79289,-11.5196,Q,Q
2023-03-15 15:12:04:379,0,2.16139,-4.79178,-11.5247,Q,Q
2023-03-15 15:12:04:389,0,2.1628,-4.79042,-11.5281,Q,Q
2023-03-15 15:12:04:399,0,2.1612,-4.78556,-11.5336,Q,Q
2023-03-15 15:12:04:409,0,2.16296,-4.77863,-11.5421,Q,Q
2023-03-15 15:12:04:419,0,2.16294,-4.77418,-11.547,Q,Q
2023-03-15 15:12:04:429,0,2.16362,-4.7702,-11.5504,Q,Q
2023-03-15 15:12:04:439,0,2.1633,-4.76912,-11.5592,Q,Q
2023-03-15 15:12:04:449,0,2.16395,-4.76533,-11.5679,Q,Q
2023-03-15 15:12:04:459,0,2.16335,-4.76168,-11.5788,Q,Q
2023-03-15 15:12:04:469,0,2.16342,-4.7586,-11.5886,Q,Q
2023-03-15 15:12:04:479,0,2.16329,-4.75707,-11.5982,Q,Q
2023-03-15 15:12:04:489,0,2.16334,-4.75314,-11.6099,Q,Q
2023-03-15 15:12:04:499,0,2.1637,-4.75116,-11.6213,Q,Q
2023-03-15 15:12:04:509,0,2.1723,-4.74944,-11.6298,Q,Q
2023-03-15 15:12:04:519,0,2.18354,-4.75299,-11.6336,Q,Q
2023-03-15 15:12:04:529,0,2.19018,-4.7564,-11.6339,Q,Q
2023-03-15 15:12:04:539,0,2.19695,-4.75911,-11.6343,Q,Q
2023-03-15 15:12:04:549,0,2.20022,-4.76143,-11.6339,Q,Q
2023-03-15 15:12:04:559,0,2.20212,-4.76065,-11.636,Q,Q
2023-03-15 15:12:04:569,0,2.20225,-4.76144,-11.6357,Q,Q
2023-03-15 15:12:04:579,0,2.1982,-4.75889,-11.632,Q,Q
2023-03-15 15:12:04:589,0,2.19641,-4.7573,-11.6277,Q,Q
2023-03-15 15:12:04:598,0,2.19584,-4.75055,-11.6289,Q,Q
2023-03-15 15:12:04:608,0,2.20202,-4.74905,-11.6321,Q,Q
2023-03-15 15:12:04:618,0,2.20977,-4.74174,-11.6404,Q,Q
2023-03-15 15:12:04:628,0,2.21639,-4.73519,-11.6464,Q,Q
2023-03-15 15:12:04:638,0,2.21895,-4.72823,-11.6541,Q,Q
2023-03-15 15:12:04:648,0,2.22182,-4.71911,-11.6623,Q,Q
2023-03-15 15:12:04:659,0,2.22603,-4.71299,-11.6711,Q,Q
2023-03-15 15:12:04:669,0,2.22316,-4.70676,-11.6791,Q,Q
2023-03-15 15:12:04:679,0,2.21767,-4.70227,-11.6884,Q,Q
2023-03-15 15:12:04:689,0,2.20969,-4.69515,-11.6975,Q,Q
2023-03-15 15:12:04:699,0,2.20009,-4.68977,-11.7094,Q,Q
2023-03-15 15:12:04:709,0,2.19176,-4.68296,-11.7168,Q,Q
2023-03-15 15:12:04:719,0,2.18562,-4.67425,-11.7274,Q,Q
2023-03-15 15:12:04:729,0,2.18042,-4.66636,-11.7373,Q,Q
2023-03-15 15:12:04:739,0,2.17709,-4.66252,-11.7444,Q,Q
2023-03-15 15:12:04:749,0,2.18334,-4.6583,-11.7497,Q,Q
2023-03-15 15:12:04:759,0,2.18696,-4.65524,-11.751,Q,Q
2023-03-15 15:12:04:769,0,2.18987,-4.65633,-11.7484,Q,Q
2023-03-15 15:12:04:779,0,2.19376,-4.65652,-11.7475,Q,Q
2023-03-15 15:12:04:789,0,2.20196,-4.6522,-11.7501,Q,Q
2023-03-15 15:12:04:799,0,2.21141,-4.65356,-11.7513,Q,Q
2023-03-15 15:12:04:809,0,2.22227,-4.65278,-11.7509,Q,Q
2023-03-15 15:12:04:819,0,2.23625,-4.65129,-11.7501,Q,Q
2023-03-15 15:12:04:829,0,2.25286,-4.64882,-11.7464,Q,Q
2023-03-15 15:12:04:839,0,2.26177,-4.64537,-11.7438,Q,Q
2023-03-15 15:12:04:849,0,2.26663,-4.64204,-11.7409,Q,Q
2023-03-15 15:12:04:859,0,2.2732,-4.64132,-11.7375,Q,Q
2023-03-15 15:12:04:869,0,2.2802,-4.64584,-11.7349,Q,Q
2023-03-15 15:12:04:879,0,2.283,-4.64778,-11.7359,Q,Q
2023-03-15 15:12:04:889,0,2.28825,-4.6481,-11.7329,Q,Q
2023-03-15 15:12:04:899,0,2.29131,-4.65006,-11.7295,Q,Q
2023-03-15 15:12:04:909,0,2.296,-4.65391,-11.7235,Q,Q
2023-03-15 15:12:04:919,0,2.29775,-4.65887,-11.7165,Q,Q
2023-03-15 15:12:04:929,0,2.29715,-4.66221,-11.7063,Q,Q
2023-03-15 15:12:04:939,0,2.29483,-4.66382,-11.6985,Q,Q
2023-03-15 15:12:04:949,0,2.29051,-4.66475,-11.6886,Q,Q
2023-03-15 15:12:04:959,0,2.28351,-4.6711,-11.6743,Q,Q
2023-03-15 15:12:04:969,0,2.27823,-4.67739,-11.6661,Q,Q
2023-03-15 15:12:04:979,0,2.27214,-4.68419,-11.6603,Q,Q
2023-03-15 15:12:04:989,0,2.26597,-4.69301,-11.6538,Q,Q
2023-03-15 15:12:04:999,0,2.263,-4.69963,-11.6505,Q,Q
2023-03-15 15:12:05:9,0,2.25975,-4.70704,-11.6484,Q,Q
2023-03-15 15:12:05:19,0,2.25521,-4.71334,-11.6464,Q,Q
2023-03-15 15:12:05:29,0,2.25277,-4.71808,-11.6475,Q,Q
2023-03-15 15:12:05:39,0,2.25188,-4.72308,-11.65,Q,Q
2023-03-15 15:12:05:49,0,2.25213,-4.72791,-11.6528,Q,Q
2023-03-15 15:12:05:59,0,2.25581,-4.7294,-11.6533,Q,Q
2023-03-15 15:12:05:69,0,2.26014,-4.72999,-11.6549,Q,Q
2023-03-15 15:12:05:79,0,2.26603,-4.73293,-11.654,Q,Q
2023-03-15 15:12:05:89,0,2.27104,-4.73449,-11.6491,Q,Q
2023-03-15 15:12:05:99,0,2.28035,-4.73893,-11.6456,Q,Q
2023-03-15 15:12:05:109,0,2.28576,-4.74155,-11.6418,Q,Q
2023-03-15 15:12:05:119,0,2.29076,-4.74293,-11.6374,Q,Q
2023-03-15 15:12:05:129,0,2.29891,-4.74389,-11.6305,Q,Q
2023-03-15 15:12:05:139,0,2.30471,-4.74648,-11.6237,Q,Q
2023-03-15 15:12:05:149,0,2.3088,-4.75058,-11.6193,Q,Q
2023-03-15 15:12:05:159,0,2.3139,-4.75736,-11.6103,Q,Q
2023-03-15 15:12:05:169,0,2.31418,-4.76326,-11.6031,Q,Q
2023-03-15 15:12:05:179,0,2.31918,-4.76656,-11.5956,Q,Q
2023-03-15 15:12:05:189,0,2.32764,-4.77279,-11.5899,Q,Q
2023-03-15 15:12:05:199,0,2.33342,-4.78303,-11.5838,Q,Q
2023-03-15 15:12:05:209,0,2.3355,-4.79135,-11.5806,Q,Q
2023-03-15 15:12:05:219,0,2.33699,-4.80319,-11.5793,Q,Q
2023-03-15 15:12:05:229,0,2.33894,-4.8113,-11.5802,Q,Q
2023-03-15 15:12:05:239,0,2.34182,-4.81935,-11.5795,Q,Q
2023-03-15 15:12:05:249,0,2.34631,-4.82554,-11.5789,Q,Q
2023-03-15 15:12:05:259,0,2.34412,-4.83436,-11.5762,Q,Q
2023-03-15 15:12:05:269,0,2.34721,-4.84494,-11.573,Q,Q
2023-03-15 15:12:05:279,0,2.3525,-4.85643,-11.5626,Q,Q
2023-03-15 15:12:05:289,0,2.35451,-4.8723,-11.5536,Q,Q
2023-03-15 15:12:05:299,0,2.354,-4.88307,-11.54,Q,Q
2023-03-15 15:12:05:309,0,2.35109,-4.89316,-11.527,Q,Q
2023-03-15 15:12:05:319,0,2.34732,-4.90197,-11.5148,Q,Q
2023-03-15 15:12:05:329,0,2.34166,-4.90785,-11.5016,Q,Q
2023-03-15 15:12:05:339,0,2.33818,-4.91324,-11.4892,Q,Q
2023-03-15 15:12:05:349,0,2.33913,-4.92129,-11.479,Q,Q
2023-03-15 15:12:05:359,0,2.33903,-4.93111,-11.4706,Q,Q
2023-03-15 15:12:05:369,0,2.34374,-4.94061,-11.4644,Q,Q
2023-03-15 15:12:05:378,0,2.34754,-4.94739,-11.4602,Q,Q
2023-03-15 15:12:05:388,0,2.35489,-4.94946,-11.4606,Q,Q
2023-03-15 15:12:05:399,0,2.35966,-4.94842,-11.4681,Q,Q
2023-03-15 15:12:05:409,0,2.36169,-4.95342,-11.4701,Q,Q
2023-03-15 15:12:05:419,0,2.36217,-4.9568,-11.4764,Q,Q
2023-03-15 15:12:05:429,0,2.36245,-4.95729,-11.4825,Q,Q
2023-03-15 15:12:05:439,0,2.35704,-4.95926,-11.489,Q,Q
2023-03-15 15:12:05:449,0,2.35391,-4.95818,-11.4987,Q,Q
2023-03-15 15:12:05:459,0,2.34604,-4.95582,-11.5037,Q,Q
2023-03-15 15:12:05:469,0,2.34587,-4.95183,-11.5088,Q,Q
2023-03-15 15:12:05:479,0,2.33954,-4.95185,-11.5138,Q,Q
2023-03-15 15:12:05:489,0,2.33999,-4.95008,-11.5182,Q,Q
2023-03-15 15:12:05:499,0,2.33998,-4.94459,-11.5276,Q,Q
2023-03-15 15:12:05:509,0,2.34753,-4.93699,-11.536,Q,Q
2023-03-15 15:12:05:519,0,2.35778,-4.93436,-11.5421,Q,Q
2023-03-15 15:12:05:529,0,2.36926,-4.937,-11.5464,Q,Q
2023-03-15 15:12:05:539,0,2.38603,-4.93859,-11.5506,Q,Q
2023-03-15 15:12:05:549,0,2.40438,-4.93662,-11.5543,Q,Q
2023-03-15 15:12:05:559,0,2.42426,-4.93862,-11.5562,Q,Q
2023-03-15 15:12:05:569,0,2.43934,-4.93911,-11.5603,Q,Q
2023-03-15 15:12:05:579,0,2.45228,-4.93633,-11.5623,Q,Q
2023-03-15 15:12:05:589,0,2.46503,-4.93604,-11.5608,Q,Q
2023-03-15 15:12:05:599,0,2.47592,-4.93452,-11.5569,Q,Q
2023-03-15 15:12:05:609,0,2.4882,-4.9329,-11.5587,Q,Q
2023-03-15 15:12:05:619,0,2.50074,-4.93155,-11.557,Q,Q
2023-03-15 15:12:05:629,0,2.50943,-4.92822,-11.5546,Q,Q
2023-03-15 15:12:05:638,0,2.5214,-4.92495,-11.5567,Q,Q
2023-03-15 15:12:05:648,0,2.52913,-4.92883,-11.5587,Q,Q
2023-03-15 15:12:05:659,0,2.53492,-4.93367,-11.5581,Q,Q
2023-03-15 15:12:05:669,0,2.54089,-4.93687,-11.557,Q,Q
2023-03-15 15:12:05:679,0,2.54844,-4.94009,-11.5577,Q,Q
2023-03-15 15:12:05:689,0,2.54823,-4.9422,-11.5507,Q,Q
2023-03-15 15:12:05:699,0,2.5456,-4.94251,-11.5516,Q,Q
2023-03-15 15:12:05:709,0,2.54191,-4.94336,-11.5464,Q,Q
2023-03-15 15:12:05:719,0,2.53828,-4.9443,-11.539,Q,Q
2023-03-15 15:12:05:729,0,2.53328,-4.94427,-11.5336,Q,Q
2023-03-15 15:12:05:739,0,2.52682,-4.94129,-11.5282,Q,Q
2023-03-15 15:12:05:749,0,2.52208,-4.93702,-11.5217,Q,Q
2023-03-15 15:12:05:759,0,2.52105,-4.93211,-11.5231,Q,Q
2023-03-15 15:12:05:769,0,2.52192,-4.92691,-11.5274,Q,Q
2023-03-15 15:12:05:779,0,2.52229,-4.92163,-11.5337,Q,Q
2023-03-15 15:12:05:789,0,2.52222,-4.91468,-11.5437,Q,Q
2023-03-15 15:12:05:799,0,2.53236,-4.90547,-11.5536,Q,Q
2023-03-15 15:12:05:809,0,2.54054,-4.89661,-11.5626,Q,Q
2023-03-15 15:12:05:819,0,2.54745,-4.88938,-11.5763,Q,Q
2023-03-15 15:12:05:829,0,2.55477,-4.87998,-11.5907,Q,Q
2023-03-15 15:12:05:839,0,2.57075,-4.85343,-11.6072,Q,Q
2023-03-15 15:12:05:849,0,2.59522,-4.82907,-11.624,Q,Q
2023-03-15 15:12:05:859,0,2.61075,-4.81845,-11.6293,Q,Q
2023-03-15 15:12:05:869,0,2.61837,-4.81434,-11.6304,Q,Q
2023-03-15 15:12:05:879,0,2.62057,-4.81407,-11.6336,Q,Q
2023-03-15 15:12:05:888,0,2.62193,-4.81049,-11.6404,Q,Q
2023-03-15 15:12:05:898,0,2.62623,-4.8075,-11.6437,Q,Q
2023-03-15 15:12:05:908,0,2.62506,-4.80388,-11.6427,Q,Q
2023-03-15 15:12:05:919,0,2.62119,-4.80258,-11.6361,Q,Q
2023-03-15 15:12:05:929,0,2.61688,-4.80011,-11.6321,Q,Q
2023-03-15 15:12:05:939,0,2.61541,-4.79892,-11.6234,Q,Q
2023-03-15 15:12:05:949,0,2.61716,-4.79234,-11.6178,Q,Q
2023-03-15 15:12:05:959,0,2.62132,-4.78813,-11.6114,Q,Q
2023-03-15 15:12:05:969,0,2.62339,-4.78882,-11.6008,Q,Q
2023-03-15 15:12:05:979,0,2.62058,-4.78829,-11.5903,Q,Q
2023-03-15 15:12:05:989,0,2.62097,-4.79091,-11.583,Q,Q
2023-03-15 15:12:05:999,0,2.6217,-4.78754,-11.5757,Q,Q
2023-03-15 15:12:06:9,0,2.6249,-4.78156,-11.5701,Q,Q
2023-03-15 15:12:06:19,0,2.629,-4.7754,-11.5589,Q,Q
2023-03-15 15:12:06:29,0,2.62723,-4.76835,-11.5428,Q,Q
2023-03-15 15:12:06:39,0,2.6298,-4.76026,-11.53,Q,Q
2023-03-15 15:12:06:49,0,2.62584,-4.75564,-11.5174,Q,Q
2023-03-15 15:12:06:59,0,2.62367,-4.75162,-11.5072,Q,Q
2023-03-15 15:12:06:68,0,2.62416,-4.75192,-11.496,Q,Q
2023-03-15 15:12:06:79,0,2.62334,-4.75821,-11.483,Q,Q
2023-03-15 15:12:06:89,0,2.61881,-4.76885,-11.4703,Q,Q
2023-03-15 15:12:06:99,0,2.61232,-4.77515,-11.4665,Q,Q
2023-03-15 15:12:06:109,0,2.60019,-4.78185,-11.4613,Q,Q
2023-03-15 15:12:06:119,0,2.5916,-4.78882,-11.4594,Q,Q
2023-03-15 15:12:06:129,0,2.58613,-4.79259,-11.4589,Q,Q
2023-03-15 15:12:06:139,0,2.58153,-4.79777,-11.4591,Q,Q
2023-03-15 15:12:06:149,0,2.57495,-4.7988,-11.4606,Q,Q
2023-03-15 15:12:06:159,0,2.56993,-4.80108,-11.4633,Q,Q
2023-03-15 15:12:06:169,0,2.56837,-4.80269,-11.4641,Q,Q
2023-03-15 15:12:06:178,0,2.56624,-4.7982,-11.4694,Q,Q
2023-03-15 15:12:06:189,0,2.56472,-4.79627,-11.4728,Q,Q
2023-03-15 15:12:06:199,0,2.55833,-4.78965,-11.4725,Q,Q
2023-03-15 15:12:06:209,0,2.55126,-4.78272,-11.4735,Q,Q
2023-03-15 15:12:06:219,0,2.54459,-4.77926,-11.4778,Q,Q
2023-03-15 15:12:06:229,0,2.53312,-4.77568,-11.483,Q,Q
2023-03-15 15:12:06:239,0,2.52382,-4.76834,-11.4887,Q,Q
2023-03-15 15:12:06:249,0,2.51407,-4.76062,-11.4938,Q,Q
2023-03-15 15:12:06:259,0,2.50589,-4.75685,-11.5034,Q,Q
2023-03-15 15:12:06:269,0,2.5003,-4.75199,-11.5081,Q,Q
2023-03-15 15:12:06:279,0,2.49477,-4.74932,-11.5175,Q,Q
2023-03-15 15:12:06:289,0,2.48862,-4.74313,-11.5248,Q,Q
2023-03-15 15:12:06:299,0,2.48332,-4.74045,-11.5314,Q,Q
2023-03-15 15:12:06:309,0,2.4836,-4.73989,-11.5328,Q,Q
2023-03-15 15:12:06:319,0,2.48721,-4.73815,-11.5357,Q,Q
2023-03-15 15:12:06:329,0,2.4936,-4.74081,-11.5303,Q,Q
2023-03-15 15:12:06:339,0,2.49886,-4.7443,-11.5216,Q,Q
2023-03-15 15:12:06:349,0,2.50867,-4.74363,-11.5156,Q,Q
2023-03-15 15:12:06:359,0,2.51505,-4.74274,-11.5111,Q,Q
2023-03-15 15:12:06:369,0,2.52131,-4.74426,-11.5029,Q,Q
2023-03-15 15:12:06:379,0,2.52605,-4.74275,-11.4968,Q,Q
2023-03-15 15:12:06:389,0,2.53038,-4.73957,-11.4865,Q,Q
2023-03-15 15:12:06:398,0,2.53155,-4.73876,-11.4802,Q,Q
2023-03-15 15:12:06:408,0,2.53251,-4.73739,-11.4739,Q,Q
2023-03-15 15:12:06:418,0,2.53282,-4.74142,-11.4683,Q,Q
2023-03-15 15:12:06:429,0,2.53036,-4.74054,-11.4671,Q,Q
2023-03-15 15:12:06:439,0,2.52941,-4.74084,-11.4679,Q,Q
2023-03-15 15:12:06:449,0,2.52786,-4.74131,-11.4676,Q,Q
2023-03-15 15:12:06:459,0,2.52053,-4.74322,-11.4709,Q,Q
2023-03-15 15:12:06:469,0,2.51622,-4.74694,-11.4724,Q,Q
2023-03-15 15:12:06:479,0,2.51016,-4.75171,-11.4706,Q,Q
2023-03-15 15:12:06:489,0,2.50212,-4.75373,-11.4691,Q,Q
2023-03-15 15:12:06:499,0,2.49274,-4.75609,-11.4655,Q,Q
2023-03-15 15:12:06:509,0,2.47873,-4.75886,-11.46,Q,Q
2023-03-15 15:12:06:518,0,2.46639,-4.75853,-11.4555,Q,Q
2023-03-15 15:12:06:529,0,2.45579,-4.75807,-11.4484,Q,Q
2023-03-15 15:12:06:539,0,2.43996,-4.75502,-11.4399,Q,Q
2023-03-15 15:12:06:549,0,2.42969,-4.75095,-11.4362,Q,Q
2023-03-15 15:12:06:559,0,2.41888,-4.74719,-11.4336,Q,Q
2023-03-15 15:12:06:569,0,2.41067,-4.74484,-11.4323,Q,Q
2023-03-15 15:12:06:579,0,2.40402,-4.73989,-11.4338,Q,Q
2023-03-15 15:12:06:589,0,2.39813,-4.73789,-11.4351,Q,Q
2023-03-15 15:12:06:599,0,2.39644,-4.73124,-11.4358,Q,Q
2023-03-15 15:12:06:609,0,2.39451,-4.72493,-11.4356,Q,Q
2023-03-15 15:12:06:619,0,2.39627,-4.70759,-11.4399,Q,Q
2023-03-15 15:12:06:629,0,2.40095,-4.68793,-11.4438,Q,Q
2023-03-15 15:12:06:638,0,2.40461,-4.677,-11.4408,Q,Q
2023-03-15 15:12:06:648,0,2.40148,-4.67737,-11.4348,Q,Q
2023-03-15 15:12:06:659,0,2.38919,-4.68571,-11.4285,Q,Q
2023-03-15 15:12:06:669,0,2.3815,-4.68829,-11.4272,Q,Q
2023-03-15 15:12:06:679,0,2.39094,-4.68289,-11.4334,Q,Q
2023-03-15 15:12:06:689,0,2.40477,-4.67785,-11.4389,Q,Q
2023-03-15 15:12:06:699,0,2.41315,-4.67734,-11.4414,Q,Q
2023-03-15 15:12:06:709,0,2.41128,-4.67608,-11.4449,Q,Q
2023-03-15 15:12:06:719,0,2.41377,-4.67226,-11.455,Q,Q
2023-03-15 15:12:06:729,0,2.42123,-4.67228,-11.462,Q,Q
2023-03-15 15:12:06:739,0,2.42884,-4.6737,-11.4661,Q,Q
2023-03-15 15:12:06:749,0,2.43163,-4.67531,-11.4653,Q,Q
2023-03-15 15:12:06:759,0,2.42864,-4.67914,-11.4599,Q,Q
2023-03-15 15:12:06:769,0,2.42438,-4.68167,-11.4554,Q,Q
2023-03-15 15:12:06:779,0,2.42574,-4.68234,-11.446,Q,Q
2023-03-15 15:12:06:789,0,2.42544,-4.68266,-11.4418,Q,Q
2023-03-15 15:12:06:799,0,2.4261,-4.68214,-11.4328,Q,Q
2023-03-15 15:12:06:809,0,2.42833,-4.68675,-11.4228,Q,Q
2023-03-15 15:12:06:819,0,2.43269,-4.69214,-11.4157,Q,Q
2023-03-15 15:12:06:829,0,2.43805,-4.69536,-11.4099,Q,Q
2023-03-15 15:12:06:839,0,2.44497,-4.7042,-11.4058,Q,Q
2023-03-15 15:12:06:849,0,2.45016,-4.71268,-11.4057,Q,Q
2023-03-15 15:12:06:859,0,2.45612,-4.7235,-11.4066,Q,Q
2023-03-15 15:12:06:869,0,2.45932,-4.74111,-11.4141,Q,Q
2023-03-15 15:12:06:879,0,2.46211,-4.76149,-11.4231,Q,Q
2023-03-15 15:12:06:889,0,2.46464,-4.77071,-11.433,Q,Q
2023-03-15 15:12:06:899,0,2.47736,-4.76314,-11.4574,Q,Q
2023-03-15 15:12:06:908,0,2.49872,-4.75473,-11.4845,Q,Q
2023-03-15 15:12:06:918,0,2.51314,-4.76557,-11.5024,Q,Q
2023-03-15 15:12:06:929,0,2.51113,-4.78359,-11.5069,Q,Q
2023-03-15 15:12:06:939,0,2.50565,-4.801,-11.5227,Q,Q
2023-03-15 15:12:06:949,0,2.50574,-4.8121,-11.5316,Q,Q
2023-03-15 15:12:06:959,0,2.50603,-4.8232,-11.5358,Q,Q
2023-03-15 15:12:06:969,0,2.4987,-4.8345,-11.5336,Q,Q
2023-03-15 15:12:06:978,0,2.47769,-4.85057,-11.5302,Q,Q
2023-03-15 15:12:06:989,0,2.45416,-4.85977,-11.5241,Q,Q
2023-03-15 15:12:06:999,0,2.4387,-4.86579,-11.5232,Q,Q
2023-03-15 15:12:07:9,0,2.42455,-4.87144,-11.5189,Q,Q
2023-03-15 15:12:07:19,0,2.41155,-4.87425,-11.5135,Q,Q
2023-03-15 15:12:07:29,0,2.39831,-4.87959,-11.5137,Q,Q
2023-03-15 15:12:07:39,0,2.39117,-4.88417,-11.5246,Q,Q
2023-03-15 15:12:07:49,0,2.37864,-4.88707,-11.5338,Q,Q
2023-03-15 15:12:07:59,0,2.36828,-4.88796,-11.5475,Q,Q
2023-03-15 15:12:07:69,0,2.35734,-4.89012,-11.5634,Q,Q
2023-03-15 15:12:07:78,0,2.34389,-4.88971,-11.5814,Q,Q
2023-03-15 15:12:07:89,0,2.32564,-4.88657,-11.5981,Q,Q
2023-03-15 15:12:07:99,0,2.30484,-4.87685,-11.6125,Q,Q
2023-03-15 15:12:07:109,0,2.28492,-4.86459,-11.6321,Q,Q
2023-03-15 15:12:07:119,0,2.26554,-4.85533,-11.6466,Q,Q
2023-03-15 15:12:07:129,0,2.24425,-4.84583,-11.6629,Q,Q
2023-03-15 15:12:07:139,0,2.22797,-4.83423,-11.6804,Q,Q
2023-03-15 15:12:07:149,0,2.21264,-4.8186,-11.6941,Q,Q
2023-03-15 15:12:07:159,0,2.20483,-4.80292,-11.7059,Q,Q
2023-03-15 15:12:07:169,0,2.19309,-4.79103,-11.7152,Q,Q
2023-03-15 15:12:07:179,0,2.18394,-4.78365,-11.7194,Q,Q
2023-03-15 15:12:07:189,0,2.17428,-4.77484,-11.7198,Q,Q
2023-03-15 15:12:07:199,0,2.16654,-4.76875,-11.7236,Q,Q
2023-03-15 15:12:07:209,0,2.15614,-4.76339,-11.7226,Q,Q
2023-03-15 15:12:07:219,0,2.14694,-4.75936,-11.7223,Q,Q
2023-03-15 15:12:07:229,0,2.13236,-4.75662,-11.7187,Q,Q
2023-03-15 15:12:07:239,0,2.12062,-4.75637,-11.7159,Q,Q
2023-03-15 15:12:07:249,0,2.10287,-4.75594,-11.7099,Q,Q
2023-03-15 15:12:07:259,0,2.08984,-4.75921,-11.7088,Q,Q
2023-03-15 15:12:07:269,0,2.08119,-4.75616,-11.7057,Q,Q
2023-03-15 15:12:07:278,0,2.07411,-4.75509,-11.7057,Q,Q
2023-03-15 15:12:07:289,0,2.06633,-4.75677,-11.7055,Q,Q
2023-03-15 15:12:07:299,0,2.05694,-4.76103,-11.7037,Q,Q
2023-03-15 15:12:07:309,0,2.05343,-4.76243,-11.7107,Q,Q
2023-03-15 15:12:07:319,0,2.04739,-4.76462,-11.7151,Q,Q
2023-03-15 15:12:07:329,0,2.04366,-4.76933,-11.7163,Q,Q
2023-03-15 15:12:07:339,0,2.04057,-4.7761,-11.715,Q,Q
2023-03-15 15:12:07:349,0,2.03179,-4.78426,-11.7122,Q,Q
2023-03-15 15:12:07:359,0,2.02429,-4.79509,-11.7114,Q,Q
2023-03-15 15:12:07:369,0,2.01807,-4.8012,-11.7064,Q,Q
2023-03-15 15:12:07:379,0,2.01256,-4.8085,-11.6981,Q,Q
2023-03-15 15:12:07:389,0,2.00771,-4.8144,-11.6863,Q,Q
2023-03-15 15:12:07:399,0,2.00395,-4.81672,-11.676,Q,Q
2023-03-15 15:12:07:409,0,1.99654,-4.82165,-11.666,Q,Q
2023-03-15 15:12:07:418,0,1.99304,-4.82548,-11.6532,Q,Q
2023-03-15 15:12:07:429,0,1.9835,-4.82957,-11.641,Q,Q
2023-03-15 15:12:07:439,0,1.97463,-4.83185,-11.6294,Q,Q
2023-03-15 15:12:07:449,0,1.96471,-4.8375,-11.6205,Q,Q
2023-03-15 15:12:07:459,0,1.96206,-4.83953,-11.6174,Q,Q
2023-03-15 15:12:07:469,0,1.96064,-4.84581,-11.6123,Q,Q
2023-03-15 15:12:07:479,0,1.95577,-4.84884,-11.6087,Q,Q
2023-03-15 15:12:07:489,0,1.95191,-4.85126,-11.6106,Q,Q
2023-03-15 15:12:07:499,0,1.94878,-4.85248,-11.6124,Q,Q
2023-03-15 15:12:07:509,0,1.94433,-4.85445,-11.6215,Q,Q
2023-03-15 15:12:07:519,0,1.9416,-4.85307,-11.623,Q,Q
2023-03-15 15:12:07:529,0,1.93838,-4.85408,-11.6258,Q,Q
2023-03-15 15:12:07:539,0,1.93488,-4.8539,-11.63,Q,Q
2023-03-15 15:12:07:549,0,1.93434,-4.8528,-11.6325,Q,Q
2023-03-15 15:12:07:559,0,1.93563,-4.85093,-11.637,Q,Q
2023-03-15 15:12:07:569,0,1.93191,-4.8528,-11.6358,Q,Q
2023-03-15 15:12:07:579,0,1.9301,-4.85098,-11.6389,Q,Q
2023-03-15 15:12:07:589,0,1.93065,-4.85208,-11.6412,Q,Q
2023-03-15 15:12:07:599,0,1.93186,-4.85217,-11.6411,Q,Q
2023-03-15 15:12:07:609,0,1.93427,-4.85349,-11.6397,Q,Q
2023-03-15 15:12:07:619,0,1.93941,-4.85706,-11.6407,Q,Q
2023-03-15 15:12:07:629,0,1.94263,-4.86079,-11.6397,Q,Q
2023-03-15 15:12:07:639,0,1.94505,-4.86777,-11.6378,Q,Q
2023-03-15 15:12:07:649,0,1.94818,-4.87309,-11.6343,Q,Q
2023-03-15 15:12:07:659,0,1.95285,-4.87941,-11.6284,Q,Q
2023-03-15 15:12:07:668,0,1.95383,-4.8849,-11.6221,Q,Q
2023-03-15 15:12:07:679,0,1.95871,-4.88722,-11.6142,Q,Q
2023-03-15 15:12:07:689,0,1.9618,-4.88943,-11.6081,Q,Q
2023-03-15 15:12:07:698,0,1.9662,-4.89139,-11.6029,Q,Q
2023-03-15 15:12:07:708,0,1.96928,-4.8941,-11.5973,Q,Q
2023-03-15 15:12:07:718,0,1.97179,-4.89569,-11.5994,Q,Q
2023-03-15 15:12:07:728,0,1.97709,-4.89437,-11.5992,Q,Q
2023-03-15 15:12:07:738,0,1.98151,-4.89399,-11.6058,Q,Q
2023-03-15 15:12:07:749,0,1.98843,-4.89116,-11.6123,Q,Q
2023-03-15 15:12:07:759,0,1.99804,-4.89153,-11.6156,Q,Q
2023-03-15 15:12:07:769,0,2.00667,-4.88997,-11.6175,Q,Q
2023-03-15 15:12:07:779,0,2.01359,-4.88725,-11.6197,Q,Q
2023-03-15 15:12:07:789,0,2.0212,-4.88299,-11.627,Q,Q
2023-03-15 15:12:07:799,0,2.02869,-4.88348,-11.6309,Q,Q
2023-03-15 15:12:07:809,0,2.03746,-4.88932,-11.629,Q,Q
2023-03-15 15:12:07:819,0,2.04311,-4.89883,-11.6242,Q,Q
2023-03-15 15:12:07:829,0,2.04191,-4.90807,-11.6125,Q,Q
2023-03-15 15:12:07:839,0,2.04114,-4.91339,-11.6029,Q,Q
2023-03-15 15:12:07:849,0,2.0385,-4.92188,-11.5941,Q,Q
2023-03-15 15:12:07:859,0,2.03626,-4.92881,-11.5838,Q,Q
2023-03-15 15:12:07:869,0,2.03799,-4.93385,-11.574,Q,Q
2023-03-15 15:12:07:879,0,2.03766,-4.93471,-11.5652,Q,Q
2023-03-15 15:12:07:889,0,2.04067,-4.93351,-11.5582,Q,Q
2023-03-15 15:12:07:899,0,2.0422,-4.93444,-11.556,Q,Q
2023-03-15 15:12:07:909,0,2.04621,-4.93378,-11.5518,Q,Q
2023-03-15 15:12:07:919,0,2.05547,-4.92715,-11.556,Q,Q
2023-03-15 15:12:07:928,0,2.05977,-4.91952,-11.5667,Q,Q
2023-03-15 15:12:07:939,0,2.0595,-4.91331,-11.579,Q,Q
2023-03-15 15:12:07:949,0,2.0569,-4.91134,-11.5937,Q,Q
2023-03-15 15:12:07:959,0,2.04873,-4.9081,-11.6108,Q,Q
2023-03-15 15:12:07:969,0,2.04379,-4.90771,-11.6265,Q,Q
2023-03-15 15:12:07:979,0,2.03748,-4.90672,-11.639,Q,Q
2023-03-15 15:12:07:989,0,2.0319,-4.90405,-11.6479,Q,Q
2023-03-15 15:12:07:999,0,2.0271,-4.8976,-11.6577,Q,Q
2023-03-15 15:12:08:9,0,2.0215,-4.89132,-11.6646,Q,Q
2023-03-15 15:12:08:19,0,2.0187,-4.88394,-11.6693,Q,Q
2023-03-15 15:12:08:29,0,2.01826,-4.87466,-11.6724,Q,Q
2023-03-15 15:12:08:39,0,2.02117,-4.86517,-11.6706,Q,Q
2023-03-15 15:12:08:49,0,2.0297,-4.86077,-11.6701,Q,Q
2023-03-15 15:12:08:59,0,2.03968,-4.86082,-11.6652,Q,Q
2023-03-15 15:12:08:69,0,2.04804,-4.86354,-11.6589,Q,Q
2023-03-15 15:12:08:79,0,2.05513,-4.8678,-11.6583,Q,Q
2023-03-15 15:12:08:89,0,2.06387,-4.8714,-11.6616,Q,Q
2023-03-15 15:12:08:99,0,2.06919,-4.8707,-11.6685,Q,Q
2023-03-15 15:12:08:109,0,2.07635,-4.87277,-11.6712,Q,Q
2023-03-15 15:12:08:119,0,2.08431,-4.8747,-11.677,Q,Q
2023-03-15 15:12:08:129,0,2.0899,-4.87491,-11.6809,Q,Q
2023-03-15 15:12:08:139,0,2.10035,-4.87579,-11.6827,Q,Q
2023-03-15 15:12:08:149,0,2.10887,-4.87694,-11.6875,Q,Q
2023-03-15 15:12:08:159,0,2.11701,-4.87601,-11.6874,Q,Q
2023-03-15 15:12:08:169,0,2.12752,-4.87965,-11.6856,Q,Q
2023-03-15 15:12:08:178,0,2.1336,-4.8844,-11.6821,Q,Q
2023-03-15 15:12:08:189,0,2.13682,-4.89071,-11.6765,Q,Q
2023-03-15 15:12:08:199,0,2.13719,-4.89642,-11.6702,Q,Q
2023-03-15 15:12:08:209,0,2.1389,-4.90129,-11.6612,Q,Q
2023-03-15 15:12:08:218,0,2.13884,-4.90657,-11.6511,Q,Q
2023-03-15 15:12:08:229,0,2.13919,-4.91594,-11.6419,Q,Q
2023-03-15 15:12:08:239,0,2.13673,-4.92595,-11.6289,Q,Q
2023-03-15 15:12:08:249,0,2.13087,-4.93587,-11.6176,Q,Q
2023-03-15 15:12:08:259,0,2.12656,-4.94252,-11.6059,Q,Q
