Timestamp_cmd,imu_cmd,roll_delta,pitch_delta,yaw_delta,voice_type,voice_length
2023-03-15 12:13:09:928,0,-11.6849,-4.76111,-38.2165,Q,Q
2023-03-15 12:13:09:936,0,-11.8474,-4.8036,-38.3137,Q,Q
2023-03-15 12:13:09:946,0,-12.0122,-4.85321,-38.4131,Q,Q
2023-03-15 12:13:09:956,0,-12.1616,-4.90169,-38.5201,Q,Q
2023-03-15 12:13:09:966,0,-12.2935,-4.94153,-38.6305,Q,Q
2023-03-15 12:13:09:976,0,-12.4172,-4.97067,-38.7376,Q,Q
2023-03-15 12:13:09:986,0,-12.5454,-4.99573,-38.842,Q,Q
2023-03-15 12:13:09:996,0,-12.6746,-5.01785,-38.9444,Q,Q
2023-03-15 12:13:10:6,0,-12.8164,-5.03633,-39.0393,Q,Q
2023-03-15 12:13:10:16,0,-12.9694,-5.04652,-39.1228,Q,Q
2023-03-15 12:13:10:26,0,-13.13,-5.06244,-39.1935,Q,Q
2023-03-15 12:13:10:36,0,-13.2911,-5.08462,-39.2486,Q,Q
2023-03-15 12:13:10:47,0,-13.43,-5.11881,-39.2828,Q,Q
2023-03-15 12:13:10:56,0,-13.5281,-5.16844,-39.3018,Q,Q
2023-03-15 12:13:10:66,0,-13.5692,-5.22614,-39.3142,Q,Q
2023-03-15 12:13:10:76,0,-13.5496,-5.28657,-39.3252,Q,Q
2023-03-15 12:13:10:86,0,-13.4919,-5.33725,-39.3427,Q,Q
2023-03-15 12:13:10:96,0,-13.4169,-5.37408,-39.3711,Q,Q
2023-03-15 12:13:10:106,0,-13.3497,-5.39923,-39.4072,Q,Q
2023-03-15 12:13:10:116,0,-13.3129,-5.41182,-39.4484,Q,Q
2023-03-15 12:13:10:127,0,-13.3097,-5.41954,-39.4891,Q,Q
2023-03-15 12:13:10:137,0,-13.332,-5.42483,-39.5294,Q,Q
2023-03-15 12:13:10:147,0,-13.3573,-5.42503,-39.5699,Q,Q
2023-03-15 12:13:10:157,0,-13.3749,-5.42099,-39.6055,Q,Q
2023-03-15 12:13:10:167,0,-13.3764,-5.40621,-39.6262,Q,Q
2023-03-15 12:13:10:176,0,-13.3608,-5.38451,-39.6324,Q,Q
2023-03-15 12:13:10:186,0,-13.3274,-5.3501,-39.6125,Q,Q
2023-03-15 12:13:10:196,0,-13.2935,-5.30653,-39.562,Q,Q
2023-03-15 12:13:10:207,0,-13.2609,-5.25097,-39.4766,Q,Q
2023-03-15 12:13:10:216,0,-13.2384,-5.18979,-39.3545,Q,Q
2023-03-15 12:13:10:226,0,-13.2209,-5.11764,-39.1974,Q,Q
2023-03-15 12:13:10:237,0,-13.2031,-5.04111,-39.0058,Q,Q
2023-03-15 12:13:10:247,0,-13.18,-4.96226,-38.7775,Q,Q
2023-03-15 12:13:10:256,0,-13.1357,-4.8908,-38.5219,Q,Q
2023-03-15 12:13:10:266,0,-13.0631,-4.81911,-38.2474,Q,Q
2023-03-15 12:13:10:277,0,-12.9432,-4.74337,-37.9631,Q,Q
2023-03-15 12:13:10:287,0,-12.7784,-4.65012,-37.669,Q,Q
2023-03-15 12:13:10:297,0,-12.5914,-4.54097,-37.3612,Q,Q
2023-03-15 12:13:10:306,0,-12.4012,-4.41341,-37.0301,Q,Q
2023-03-15 12:13:10:317,0,-12.2362,-4.28465,-36.6704,Q,Q
2023-03-15 12:13:10:327,0,-12.0979,-4.17083,-36.2927,Q,Q
2023-03-15 12:13:10:337,0,-11.9687,-4.08041,-35.9103,Q,Q
2023-03-15 12:13:10:347,0,-11.83,-4.00661,-35.5313,Q,Q
2023-03-15 12:13:10:357,0,-11.6823,-3.94192,-35.1615,Q,Q
2023-03-15 12:13:10:367,0,-11.5358,-3.87917,-34.8038,Q,Q
2023-03-15 12:13:10:376,0,-11.3962,-3.81896,-34.4594,Q,Q
2023-03-15 12:13:10:387,0,-11.2617,-3.76523,-34.1212,Q,Q
2023-03-15 12:13:10:397,0,-11.1247,-3.71962,-33.786,Q,Q
2023-03-15 12:13:10:407,0,-10.9692,-3.67379,-33.4572,Q,Q
2023-03-15 12:13:10:417,0,-10.7864,-3.62757,-33.1294,Q,Q
2023-03-15 12:13:10:426,0,-10.572,-3.59752,-32.7985,Q,Q
2023-03-15 12:13:10:437,0,-10.3518,-3.64018,-32.4597,Q,Q
2023-03-15 12:13:10:447,0,-10.1427,-3.64337,-32.1184,Q,Q
2023-03-15 12:13:10:457,0,-9.90431,-3.61467,-31.8018,Q,Q
2023-03-15 12:13:10:467,0,-9.62132,-3.61692,-31.5059,Q,Q
2023-03-15 12:13:10:477,0,-9.32249,-3.60412,-31.2031,Q,Q
2023-03-15 12:13:10:487,0,-9.01486,-3.57081,-30.9004,Q,Q
2023-03-15 12:13:10:497,0,-8.7177,-3.53679,-30.6163,Q,Q
2023-03-15 12:13:10:506,0,-8.4256,-3.49292,-30.344,Q,Q
2023-03-15 12:13:10:516,0,-8.15214,-3.45653,-30.083,Q,Q
2023-03-15 12:13:10:526,0,-7.89926,-3.44096,-29.8295,Q,Q
2023-03-15 12:13:10:536,0,-7.67175,-3.43108,-29.5862,Q,Q
2023-03-15 12:13:10:546,0,-7.46818,-3.42643,-29.3503,Q,Q
2023-03-15 12:13:10:556,0,-7.28383,-3.43225,-29.122,Q,Q
2023-03-15 12:13:10:566,0,-7.10119,-3.45088,-28.9085,Q,Q
2023-03-15 12:13:10:576,0,-6.91689,-3.46604,-28.7162,Q,Q
2023-03-15 12:13:10:586,0,-6.71987,-3.47367,-28.5411,Q,Q
2023-03-15 12:13:10:596,0,-6.52529,-3.47107,-28.379,Q,Q
2023-03-15 12:13:10:606,0,-6.33878,-3.46051,-28.2231,Q,Q
2023-03-15 12:13:10:616,0,-6.17493,-3.4518,-28.0689,Q,Q
2023-03-15 12:13:10:626,0,-6.03764,-3.44303,-27.9168,Q,Q
2023-03-15 12:13:10:636,0,-5.93094,-3.44126,-27.7738,Q,Q
2023-03-15 12:13:10:646,0,-5.8528,-3.4459,-27.6349,Q,Q
2023-03-15 12:13:10:656,0,-5.79286,-3.45957,-27.5069,Q,Q
2023-03-15 12:13:10:666,0,-5.73934,-3.47998,-27.3855,Q,Q
2023-03-15 12:13:10:676,0,-5.67958,-3.50463,-27.276,Q,Q
2023-03-15 12:13:10:688,0,-5.60744,-3.52867,-27.1761,Q,Q
2023-03-15 12:13:10:696,0,-5.52145,-3.5514,-27.088,Q,Q
2023-03-15 12:13:10:706,0,-5.43326,-3.56547,-27.0042,Q,Q
2023-03-15 12:13:10:716,0,-5.34623,-3.57119,-26.929,Q,Q
2023-03-15 12:13:10:726,0,-5.2707,-3.57019,-26.8584,Q,Q
2023-03-15 12:13:10:736,0,-5.1967,-3.56542,-26.7934,Q,Q
2023-03-15 12:13:10:746,0,-5.1252,-3.55406,-26.7342,Q,Q
2023-03-15 12:13:10:756,0,-5.05705,-3.53147,-26.6802,Q,Q
2023-03-15 12:13:10:766,0,-4.98323,-3.50307,-26.6225,Q,Q
2023-03-15 12:13:10:776,0,-4.90204,-3.46989,-26.5624,Q,Q
2023-03-15 12:13:10:786,0,-4.80832,-3.42763,-26.5015,Q,Q
2023-03-15 12:13:10:796,0,-4.70905,-3.38187,-26.4357,Q,Q
2023-03-15 12:13:10:806,0,-4.6081,-3.33271,-26.3624,Q,Q
2023-03-15 12:13:10:816,0,-4.51921,-3.28604,-26.2794,Q,Q
2023-03-15 12:13:10:826,0,-4.44049,-3.24022,-26.1964,Q,Q
2023-03-15 12:13:10:836,0,-4.37651,-3.19389,-26.1107,Q,Q
2023-03-15 12:13:10:846,0,-4.33114,-3.15094,-26.0255,Q,Q
2023-03-15 12:13:10:856,0,-4.31545,-3.11254,-25.9361,Q,Q
2023-03-15 12:13:10:866,0,-4.31326,-3.07596,-25.855,Q,Q
2023-03-15 12:13:10:876,0,-4.32496,-3.04994,-25.7766,Q,Q
2023-03-15 12:13:10:887,0,-4.32154,-3.01707,-25.7129,Q,Q
2023-03-15 12:13:10:896,0,-4.28514,-2.98065,-25.6588,Q,Q
2023-03-15 12:13:10:907,0,-4.22732,-2.94959,-25.616,Q,Q
2023-03-15 12:13:10:916,0,-4.17839,-2.91304,-25.5745,Q,Q
2023-03-15 12:13:10:927,0,-4.15897,-2.86641,-25.5403,Q,Q
2023-03-15 12:13:10:936,0,-4.17137,-2.8143,-25.509,Q,Q
2023-03-15 12:13:10:947,0,-4.20975,-2.76325,-25.4845,Q,Q
2023-03-15 12:13:10:957,0,-4.26398,-2.71834,-25.4732,Q,Q
2023-03-15 12:13:10:967,0,-4.32577,-2.67454,-25.4753,Q,Q
2023-03-15 12:13:10:977,0,-4.39735,-2.64517,-25.4838,Q,Q
2023-03-15 12:13:10:986,0,-4.48011,-2.62161,-25.5115,Q,Q
2023-03-15 12:13:10:996,0,-4.57216,-2.59,-25.5549,Q,Q
2023-03-15 12:13:11:6,0,-4.66925,-2.56667,-25.6201,Q,Q
2023-03-15 12:13:11:16,0,-4.77274,-2.5517,-25.7004,Q,Q
2023-03-15 12:13:11:26,0,-4.87986,-2.54121,-25.7925,Q,Q
2023-03-15 12:13:11:36,0,-4.98988,-2.52457,-25.9018,Q,Q
2023-03-15 12:13:11:46,0,-5.09387,-2.50626,-26.0182,Q,Q
2023-03-15 12:13:11:56,0,-5.19357,-2.48549,-26.1376,Q,Q
2023-03-15 12:13:11:66,0,-5.28311,-2.46622,-26.2598,Q,Q
2023-03-15 12:13:11:76,0,-5.37465,-2.4477,-26.3843,Q,Q
2023-03-15 12:13:11:86,0,-5.47273,-2.43575,-26.514,Q,Q
2023-03-15 12:13:11:96,0,-5.5912,-2.42648,-26.6439,Q,Q
2023-03-15 12:13:11:106,0,-5.73357,-2.40547,-26.7758,Q,Q
2023-03-15 12:13:11:116,0,-5.88885,-2.37807,-26.9128,Q,Q
2023-03-15 12:13:11:126,0,-6.04361,-2.34948,-27.0548,Q,Q
2023-03-15 12:13:11:136,0,-6.1954,-2.3188,-27.1936,Q,Q
2023-03-15 12:13:11:146,0,-6.34664,-2.28816,-27.3228,Q,Q
2023-03-15 12:13:11:156,0,-6.50675,-2.25597,-27.4466,Q,Q
2023-03-15 12:13:11:166,0,-6.66803,-2.22981,-27.5557,Q,Q
2023-03-15 12:13:11:176,0,-6.82656,-2.20476,-27.6611,Q,Q
2023-03-15 12:13:11:186,0,-6.98084,-2.1746,-27.7557,Q,Q
2023-03-15 12:13:11:196,0,-7.12832,-2.13455,-27.8412,Q,Q
2023-03-15 12:13:11:206,0,-7.26016,-2.09507,-27.922,Q,Q
2023-03-15 12:13:11:216,0,-7.38085,-2.04818,-27.9872,Q,Q
2023-03-15 12:13:11:226,0,-7.49195,-1.99837,-28.0417,Q,Q
2023-03-15 12:13:11:236,0,-7.58984,-1.94613,-28.0867,Q,Q
2023-03-15 12:13:11:246,0,-7.67797,-1.8927,-28.1246,Q,Q
2023-03-15 12:13:11:256,0,-7.75011,-1.84011,-28.1553,Q,Q
2023-03-15 12:13:11:266,0,-7.81374,-1.79125,-28.1792,Q,Q
2023-03-15 12:13:11:276,0,-7.87121,-1.7482,-28.2046,Q,Q
2023-03-15 12:13:11:286,0,-7.92264,-1.71355,-28.2244,Q,Q
2023-03-15 12:13:11:296,0,-7.9712,-1.68587,-28.2487,Q,Q
2023-03-15 12:13:11:306,0,-8.02261,-1.65838,-28.2738,Q,Q
2023-03-15 12:13:11:316,0,-8.07752,-1.63131,-28.2995,Q,Q
2023-03-15 12:13:11:326,0,-8.1423,-1.60816,-28.324,Q,Q
2023-03-15 12:13:11:336,0,-8.21792,-1.58397,-28.3485,Q,Q
2023-03-15 12:13:11:346,0,-8.2994,-1.56141,-28.3726,Q,Q
2023-03-15 12:13:11:356,0,-8.38959,-1.53609,-28.3895,Q,Q
2023-03-15 12:13:11:366,0,-8.49321,-1.51207,-28.3989,Q,Q
2023-03-15 12:13:11:376,0,-8.60625,-1.49248,-28.3965,Q,Q
2023-03-15 12:13:11:386,0,-8.72957,-1.47666,-28.3973,Q,Q
2023-03-15 12:13:11:396,0,-8.86256,-1.4555,-28.3965,Q,Q
2023-03-15 12:13:11:406,0,-9.00796,-1.43265,-28.3892,Q,Q
2023-03-15 12:13:11:416,0,-9.16184,-1.40535,-28.3802,Q,Q
2023-03-15 12:13:11:426,0,-9.31228,-1.38332,-28.3688,Q,Q
2023-03-15 12:13:11:436,0,-9.44543,-1.35845,-28.356,Q,Q
2023-03-15 12:13:11:446,0,-9.55966,-1.33226,-28.3452,Q,Q
2023-03-15 12:13:11:456,0,-9.65148,-1.304,-28.3299,Q,Q
2023-03-15 12:13:11:466,0,-9.73263,-1.27241,-28.3117,Q,Q
2023-03-15 12:13:11:476,0,-9.80344,-1.23803,-28.2949,Q,Q
2023-03-15 12:13:11:486,0,-9.8701,-1.20706,-28.2764,Q,Q
2023-03-15 12:13:11:496,0,-9.92853,-1.18474,-28.2669,Q,Q
2023-03-15 12:13:11:506,0,-9.972,-1.16543,-28.2679,Q,Q
2023-03-15 12:13:11:516,0,-10.0046,-1.14421,-28.2704,Q,Q
2023-03-15 12:13:11:526,0,-10.0319,-1.12734,-28.276,Q,Q
2023-03-15 12:13:11:536,0,-10.0514,-1.11261,-28.2791,Q,Q
2023-03-15 12:13:11:546,0,-10.0745,-1.09849,-28.2777,Q,Q
2023-03-15 12:13:11:556,0,-10.1036,-1.08647,-28.2673,Q,Q
2023-03-15 12:13:11:566,0,-10.164,-1.07513,-28.2546,Q,Q
2023-03-15 12:13:11:576,0,-10.2687,-1.06598,-28.2331,Q,Q
2023-03-15 12:13:11:586,0,-10.4207,-1.06215,-28.198,Q,Q
2023-03-15 12:13:11:596,0,-10.606,-1.07339,-28.1555,Q,Q
2023-03-15 12:13:11:606,0,-10.801,-1.09682,-28.1037,Q,Q
2023-03-15 12:13:11:616,0,-10.9862,-1.12931,-28.0517,Q,Q
2023-03-15 12:13:11:626,0,-11.1458,-1.16064,-27.9978,Q,Q
2023-03-15 12:13:11:636,0,-11.2781,-1.18995,-27.9377,Q,Q
2023-03-15 12:13:11:646,0,-11.3788,-1.21622,-27.8742,Q,Q
2023-03-15 12:13:11:656,0,-11.4611,-1.23248,-27.8011,Q,Q
2023-03-15 12:13:11:667,0,-11.5243,-1.2458,-27.7271,Q,Q
2023-03-15 12:13:11:676,0,-11.5751,-1.26079,-27.6511,Q,Q
2023-03-15 12:13:11:686,0,-11.6075,-1.26914,-27.5706,Q,Q
2023-03-15 12:13:11:696,0,-11.6301,-1.27778,-27.4889,Q,Q
2023-03-15 12:13:11:706,0,-11.6442,-1.28486,-27.4097,Q,Q
2023-03-15 12:13:11:716,0,-11.6468,-1.29221,-27.3347,Q,Q
2023-03-15 12:13:11:726,0,-11.6425,-1.30158,-27.2613,Q,Q
2023-03-15 12:13:11:736,0,-11.6315,-1.3118,-27.1895,Q,Q
2023-03-15 12:13:11:746,0,-11.6019,-1.32481,-27.1229,Q,Q
2023-03-15 12:13:11:756,0,-11.5653,-1.33579,-27.0627,Q,Q
2023-03-15 12:13:11:766,0,-11.525,-1.34191,-27.0076,Q,Q
2023-03-15 12:13:11:776,0,-11.4786,-1.34695,-26.9535,Q,Q
2023-03-15 12:13:11:786,0,-11.4297,-1.35104,-26.9026,Q,Q
2023-03-15 12:13:11:796,0,-11.3779,-1.35369,-26.8569,Q,Q
2023-03-15 12:13:11:806,0,-11.3202,-1.35359,-26.8134,Q,Q
2023-03-15 12:13:11:816,0,-11.2651,-1.35278,-26.7757,Q,Q
2023-03-15 12:13:11:826,0,-11.2138,-1.3523,-26.7472,Q,Q
2023-03-15 12:13:11:836,0,-11.1653,-1.34808,-26.7359,Q,Q
2023-03-15 12:13:11:846,0,-11.1241,-1.34277,-26.7335,Q,Q
2023-03-15 12:13:11:856,0,-11.0902,-1.33159,-26.738,Q,Q
2023-03-15 12:13:11:866,0,-11.0576,-1.32001,-26.7542,Q,Q
2023-03-15 12:13:11:876,0,-11.0264,-1.31406,-26.7749,Q,Q
2023-03-15 12:13:11:886,0,-10.9773,-1.31481,-26.8087,Q,Q
2023-03-15 12:13:11:896,0,-10.9023,-1.31276,-26.8472,Q,Q
2023-03-15 12:13:11:907,0,-10.813,-1.30339,-26.8865,Q,Q
2023-03-15 12:13:11:916,0,-10.7246,-1.29204,-26.921,Q,Q
2023-03-15 12:13:11:926,0,-10.6493,-1.27795,-26.9524,Q,Q
2023-03-15 12:13:11:936,0,-10.5893,-1.26582,-26.9763,Q,Q
2023-03-15 12:13:11:946,0,-10.5481,-1.25098,-26.9947,Q,Q
2023-03-15 12:13:11:956,0,-10.5174,-1.24506,-27.006,Q,Q
2023-03-15 12:13:11:966,0,-10.4845,-1.24394,-27.0036,Q,Q
2023-03-15 12:13:11:976,0,-10.4447,-1.24517,-26.9935,Q,Q
2023-03-15 12:13:11:986,0,-10.3965,-1.24737,-26.9701,Q,Q
2023-03-15 12:13:11:996,0,-10.3427,-1.24731,-26.9329,Q,Q
2023-03-15 12:13:12:6,0,-10.2887,-1.24619,-26.8791,Q,Q
2023-03-15 12:13:12:16,0,-10.248,-1.24195,-26.8176,Q,Q
2023-03-15 12:13:12:26,0,-10.2149,-1.23506,-26.7469,Q,Q
2023-03-15 12:13:12:36,0,-10.1887,-1.22576,-26.6694,Q,Q
2023-03-15 12:13:12:46,0,-10.1661,-1.21869,-26.5867,Q,Q
2023-03-15 12:13:12:56,0,-10.1522,-1.21137,-26.4979,Q,Q
2023-03-15 12:13:12:67,0,-10.1472,-1.21027,-26.4066,Q,Q
2023-03-15 12:13:12:76,0,-10.1461,-1.2096,-26.3169,Q,Q
2023-03-15 12:13:12:86,0,-10.1533,-1.21871,-26.2286,Q,Q
2023-03-15 12:13:12:96,0,-10.161,-1.22793,-26.1436,Q,Q
2023-03-15 12:13:12:106,0,-10.1719,-1.2395,-26.0597,Q,Q
2023-03-15 12:13:12:117,0,-10.1723,-1.25269,-25.9773,Q,Q
2023-03-15 12:13:12:126,0,-10.1665,-1.26579,-25.8952,Q,Q
2023-03-15 12:13:12:136,0,-10.1606,-1.27357,-25.8162,Q,Q
2023-03-15 12:13:12:146,0,-10.1546,-1.27787,-25.7334,Q,Q
2023-03-15 12:13:12:156,0,-10.1423,-1.28951,-25.6514,Q,Q
2023-03-15 12:13:12:167,0,-10.119,-1.30139,-25.5697,Q,Q
2023-03-15 12:13:12:176,0,-10.0841,-1.31782,-25.4861,Q,Q
2023-03-15 12:13:12:186,0,-10.0485,-1.3321,-25.405,Q,Q
2023-03-15 12:13:12:196,0,-10.0139,-1.34381,-25.3229,Q,Q
2023-03-15 12:13:12:206,0,-9.97512,-1.35388,-25.2442,Q,Q
2023-03-15 12:13:12:216,0,-9.93946,-1.36324,-25.1652,Q,Q
2023-03-15 12:13:12:226,0,-9.90778,-1.37203,-25.0888,Q,Q
2023-03-15 12:13:12:236,0,-9.87901,-1.38485,-25.013,Q,Q
2023-03-15 12:13:12:246,0,-9.84877,-1.40223,-24.9377,Q,Q
2023-03-15 12:13:12:256,0,-9.82256,-1.42186,-24.8612,Q,Q
2023-03-15 12:13:12:266,0,-9.80558,-1.4424,-24.7828,Q,Q
2023-03-15 12:13:12:276,0,-9.79442,-1.47019,-24.704,Q,Q
2023-03-15 12:13:12:286,0,-9.78648,-1.49392,-24.6295,Q,Q
2023-03-15 12:13:12:296,0,-9.78554,-1.51637,-24.5556,Q,Q
2023-03-15 12:13:12:306,0,-9.78606,-1.54306,-24.4865,Q,Q
2023-03-15 12:13:12:316,0,-9.79046,-1.568,-24.4173,Q,Q
2023-03-15 12:13:12:326,0,-9.80055,-1.5897,-24.3501,Q,Q
2023-03-15 12:13:12:336,0,-9.81143,-1.61304,-24.285,Q,Q
2023-03-15 12:13:12:346,0,-9.83036,-1.63493,-24.2226,Q,Q
2023-03-15 12:13:12:356,0,-9.86657,-1.65161,-24.1586,Q,Q
2023-03-15 12:13:12:366,0,-9.90897,-1.66695,-24.0976,Q,Q
2023-03-15 12:13:12:376,0,-9.94767,-1.68063,-24.0387,Q,Q
2023-03-15 12:13:12:387,0,-9.97695,-1.69782,-23.9829,Q,Q
2023-03-15 12:13:12:397,0,-9.99356,-1.71292,-23.9249,Q,Q
2023-03-15 12:13:12:407,0,-10.003,-1.72641,-23.8635,Q,Q
2023-03-15 12:13:12:417,0,-10.0113,-1.73906,-23.8007,Q,Q
2023-03-15 12:13:12:426,0,-10.0188,-1.75421,-23.7375,Q,Q
2023-03-15 12:13:12:436,0,-10.0229,-1.769,-23.6741,Q,Q
2023-03-15 12:13:12:447,0,-10.0223,-1.78871,-23.6074,Q,Q
2023-03-15 12:13:12:457,0,-10.0224,-1.80493,-23.5403,Q,Q
2023-03-15 12:13:12:467,0,-10.0237,-1.82221,-23.4748,Q,Q
2023-03-15 12:13:12:477,0,-10.026,-1.83836,-23.4119,Q,Q
2023-03-15 12:13:12:486,0,-10.0273,-1.85903,-23.3494,Q,Q
2023-03-15 12:13:12:496,0,-10.0298,-1.87441,-23.2901,Q,Q
2023-03-15 12:13:12:506,0,-10.0271,-1.88852,-23.2315,Q,Q
2023-03-15 12:13:12:517,0,-10.0189,-1.90209,-23.1729,Q,Q
2023-03-15 12:13:12:527,0,-9.99934,-1.91932,-23.1084,Q,Q
2023-03-15 12:13:12:536,0,-9.97145,-1.93754,-23.0418,Q,Q
2023-03-15 12:13:12:547,0,-9.94103,-1.95181,-22.9751,Q,Q
2023-03-15 12:13:12:557,0,-9.90771,-1.96595,-22.9103,Q,Q
2023-03-15 12:13:12:567,0,-9.88039,-1.97924,-22.8473,Q,Q
2023-03-15 12:13:12:577,0,-9.85748,-1.99033,-22.7872,Q,Q
2023-03-15 12:13:12:587,0,-9.8333,-1.99676,-22.7337,Q,Q
2023-03-15 12:13:12:597,0,-9.81315,-2.00146,-22.6798,Q,Q
2023-03-15 12:13:12:607,0,-9.79521,-2.00463,-22.6284,Q,Q
2023-03-15 12:13:12:617,0,-9.7773,-2.00706,-22.5814,Q,Q
2023-03-15 12:13:12:626,0,-9.76499,-2.01107,-22.54,Q,Q
2023-03-15 12:13:12:636,0,-9.75147,-2.01529,-22.5012,Q,Q
2023-03-15 12:13:12:646,0,-9.73624,-2.01986,-22.4648,Q,Q
2023-03-15 12:13:12:656,0,-9.71436,-2.02255,-22.4276,Q,Q
2023-03-15 12:13:12:666,0,-9.69083,-2.02582,-22.3887,Q,Q
2023-03-15 12:13:12:676,0,-9.6637,-2.02731,-22.3485,Q,Q
2023-03-15 12:13:12:686,0,-9.63724,-2.0301,-22.3075,Q,Q
2023-03-15 12:13:12:696,0,-9.61262,-2.03219,-22.2653,Q,Q
2023-03-15 12:13:12:706,0,-9.59404,-2.03613,-22.2201,Q,Q
2023-03-15 12:13:12:716,0,-9.58016,-2.04165,-22.1737,Q,Q
2023-03-15 12:13:12:726,0,-9.57565,-2.04766,-22.1223,Q,Q
2023-03-15 12:13:12:736,0,-9.572,-2.05448,-22.0739,Q,Q
2023-03-15 12:13:12:746,0,-9.56938,-2.05974,-22.0261,Q,Q
2023-03-15 12:13:12:756,0,-9.5629,-2.0625,-21.9801,Q,Q
2023-03-15 12:13:12:766,0,-9.55164,-2.06449,-21.9298,Q,Q
2023-03-15 12:13:12:776,0,-9.53894,-2.06578,-21.8794,Q,Q
2023-03-15 12:13:12:786,0,-9.51895,-2.0678,-21.8332,Q,Q
2023-03-15 12:13:12:797,0,-9.50074,-2.067,-21.7929,Q,Q
2023-03-15 12:13:12:807,0,-9.48349,-2.06789,-21.7541,Q,Q
2023-03-15 12:13:12:817,0,-9.46704,-2.0656,-21.7213,Q,Q
2023-03-15 12:13:12:827,0,-9.45244,-2.06114,-21.6875,Q,Q
2023-03-15 12:13:12:837,0,-9.43758,-2.05782,-21.6531,Q,Q
2023-03-15 12:13:12:847,0,-9.42502,-2.0527,-21.6271,Q,Q
2023-03-15 12:13:12:857,0,-9.41206,-2.04967,-21.6015,Q,Q
2023-03-15 12:13:12:867,0,-9.4081,-2.04855,-21.5743,Q,Q
2023-03-15 12:13:12:876,0,-9.41106,-2.04875,-21.5502,Q,Q
2023-03-15 12:13:12:887,0,-9.41567,-2.05042,-21.5297,Q,Q
2023-03-15 12:13:12:897,0,-9.41712,-2.05106,-21.5114,Q,Q
2023-03-15 12:13:12:907,0,-9.41074,-2.0496,-21.4951,Q,Q
2023-03-15 12:13:12:917,0,-9.39717,-2.04378,-21.4766,Q,Q
2023-03-15 12:13:12:927,0,-9.38189,-2.04362,-21.4582,Q,Q
2023-03-15 12:13:12:937,0,-9.35826,-2.03994,-21.443,Q,Q
2023-03-15 12:13:12:947,0,-9.3321,-2.03626,-21.4211,Q,Q
2023-03-15 12:13:12:957,0,-9.30557,-2.03432,-21.3963,Q,Q
2023-03-15 12:13:12:967,0,-9.28289,-2.03367,-21.3641,Q,Q
2023-03-15 12:13:12:977,0,-9.26491,-2.03241,-21.3328,Q,Q
2023-03-15 12:13:12:987,0,-9.24782,-2.03384,-21.2954,Q,Q
2023-03-15 12:13:12:997,0,-9.23514,-2.03772,-21.263,Q,Q
2023-03-15 12:13:13:6,0,-9.22297,-2.03898,-21.2315,Q,Q
2023-03-15 12:13:13:17,0,-9.20289,-2.04141,-21.1998,Q,Q
2023-03-15 12:13:13:27,0,-9.17522,-2.04207,-21.1694,Q,Q
2023-03-15 12:13:13:36,0,-9.14916,-2.03825,-21.138,Q,Q
2023-03-15 12:13:13:46,0,-9.12128,-2.03689,-21.1085,Q,Q
2023-03-15 12:13:13:57,0,-9.10033,-2.03412,-21.0769,Q,Q
2023-03-15 12:13:13:67,0,-9.08203,-2.03087,-21.0506,Q,Q
2023-03-15 12:13:13:77,0,-9.06814,-2.02953,-21.0194,Q,Q
2023-03-15 12:13:13:87,0,-9.05956,-2.02814,-20.9921,Q,Q
2023-03-15 12:13:13:97,0,-9.05028,-2.0254,-20.9618,Q,Q
2023-03-15 12:13:13:107,0,-9.0395,-2.02729,-20.9278,Q,Q
2023-03-15 12:13:13:117,0,-9.03075,-2.03101,-20.8954,Q,Q
2023-03-15 12:13:13:126,0,-9.01957,-2.03614,-20.8602,Q,Q
2023-03-15 12:13:13:137,0,-9.0073,-2.03877,-20.8265,Q,Q
2023-03-15 12:13:13:147,0,-8.99288,-2.04881,-20.7905,Q,Q
2023-03-15 12:13:13:157,0,-8.9784,-2.05929,-20.755,Q,Q
2023-03-15 12:13:13:167,0,-8.96651,-2.06828,-20.7231,Q,Q
2023-03-15 12:13:13:176,0,-8.95449,-2.0706,-20.6907,Q,Q
2023-03-15 12:13:13:187,0,-8.94761,-2.07284,-20.6585,Q,Q
2023-03-15 12:13:13:197,0,-8.93638,-2.06948,-20.6271,Q,Q
2023-03-15 12:13:13:207,0,-8.91775,-2.06599,-20.6005,Q,Q
2023-03-15 12:13:13:217,0,-8.89303,-2.06484,-20.5711,Q,Q
2023-03-15 12:13:13:227,0,-8.8647,-2.06906,-20.5404,Q,Q
2023-03-15 12:13:13:237,0,-8.8324,-2.07477,-20.5138,Q,Q
2023-03-15 12:13:13:246,0,-8.79986,-2.08117,-20.4897,Q,Q
2023-03-15 12:13:13:256,0,-8.77438,-2.08259,-20.4657,Q,Q
2023-03-15 12:13:13:267,0,-8.75216,-2.0877,-20.4414,Q,Q
2023-03-15 12:13:13:277,0,-8.72704,-2.09357,-20.4169,Q,Q
2023-03-15 12:13:13:287,0,-8.69706,-2.10056,-20.392,Q,Q
2023-03-15 12:13:13:297,0,-8.66887,-2.10538,-20.3657,Q,Q
2023-03-15 12:13:13:307,0,-8.63985,-2.10674,-20.3336,Q,Q
2023-03-15 12:13:13:317,0,-8.62016,-2.10905,-20.2955,Q,Q
2023-03-15 12:13:13:327,0,-8.59883,-2.11607,-20.2534,Q,Q
2023-03-15 12:13:13:337,0,-8.58075,-2.12364,-20.2072,Q,Q
2023-03-15 12:13:13:347,0,-8.56887,-2.12685,-20.158,Q,Q
2023-03-15 12:13:13:357,0,-8.56225,-2.13598,-20.1072,Q,Q
2023-03-15 12:13:13:367,0,-8.55515,-2.14839,-20.0563,Q,Q
2023-03-15 12:13:13:377,0,-8.54939,-2.15921,-20.0033,Q,Q
2023-03-15 12:13:13:387,0,-8.54124,-2.17463,-19.9534,Q,Q
2023-03-15 12:13:13:397,0,-8.53818,-2.18957,-19.9028,Q,Q
2023-03-15 12:13:13:407,0,-8.53505,-2.20135,-19.8562,Q,Q
2023-03-15 12:13:13:417,0,-8.53181,-2.21273,-19.8041,Q,Q
2023-03-15 12:13:13:427,0,-8.52668,-2.22778,-19.7515,Q,Q
2023-03-15 12:13:13:437,0,-8.51946,-2.23897,-19.7028,Q,Q
2023-03-15 12:13:13:447,0,-8.50717,-2.24972,-19.649,Q,Q
2023-03-15 12:13:13:457,0,-8.48944,-2.26108,-19.5923,Q,Q
2023-03-15 12:13:13:467,0,-8.47069,-2.26729,-19.5416,Q,Q
2023-03-15 12:13:13:477,0,-8.44949,-2.27439,-19.4888,Q,Q
2023-03-15 12:13:13:487,0,-8.43025,-2.27709,-19.4352,Q,Q
2023-03-15 12:13:13:497,0,-8.41255,-2.28108,-19.379,Q,Q
2023-03-15 12:13:13:507,0,-8.39489,-2.28223,-19.3217,Q,Q
2023-03-15 12:13:13:517,0,-8.37653,-2.28249,-19.2664,Q,Q
2023-03-15 12:13:13:527,0,-8.35416,-2.28108,-19.2097,Q,Q
2023-03-15 12:13:13:537,0,-8.33484,-2.28212,-19.149,Q,Q
2023-03-15 12:13:13:546,0,-8.31425,-2.28175,-19.0886,Q,Q
2023-03-15 12:13:13:557,0,-8.2876,-2.28259,-19.0286,Q,Q
2023-03-15 12:13:13:567,0,-8.2615,-2.28547,-18.9718,Q,Q
2023-03-15 12:13:13:577,0,-8.22993,-2.28251,-18.917,Q,Q
2023-03-15 12:13:13:587,0,-8.20492,-2.28145,-18.8577,Q,Q
2023-03-15 12:13:13:597,0,-8.18331,-2.27602,-18.8001,Q,Q
2023-03-15 12:13:13:606,0,-8.1641,-2.26958,-18.7378,Q,Q
2023-03-15 12:13:13:617,0,-8.15091,-2.26636,-18.6805,Q,Q
2023-03-15 12:13:13:627,0,-8.13605,-2.26277,-18.6202,Q,Q
2023-03-15 12:13:13:637,0,-8.12375,-2.25757,-18.5622,Q,Q
2023-03-15 12:13:13:647,0,-8.11289,-2.25045,-18.5048,Q,Q
2023-03-15 12:13:13:656,0,-8.10067,-2.24662,-18.4478,Q,Q
2023-03-15 12:13:13:666,0,-8.08749,-2.24344,-18.3872,Q,Q
2023-03-15 12:13:13:676,0,-8.07339,-2.24416,-18.3246,Q,Q
2023-03-15 12:13:13:686,0,-8.05752,-2.24777,-18.2651,Q,Q
2023-03-15 12:13:13:696,0,-8.04059,-2.25005,-18.1997,Q,Q
2023-03-15 12:13:13:706,0,-8.02597,-2.25241,-18.1306,Q,Q
2023-03-15 12:13:13:717,0,-8.0211,-2.25948,-18.0616,Q,Q
2023-03-15 12:13:13:727,0,-8.03209,-2.26525,-17.9897,Q,Q
2023-03-15 12:13:13:736,0,-8.0489,-2.27352,-17.918,Q,Q
2023-03-15 12:13:13:747,0,-8.06983,-2.28127,-17.8433,Q,Q
2023-03-15 12:13:13:757,0,-8.10043,-2.28686,-17.7629,Q,Q
2023-03-15 12:13:13:766,0,-8.12976,-2.29351,-17.6772,Q,Q
2023-03-15 12:13:13:777,0,-8.15626,-2.30473,-17.587,Q,Q
2023-03-15 12:13:13:787,0,-8.18678,-2.31219,-17.4959,Q,Q
2023-03-15 12:13:13:797,0,-8.21501,-2.32016,-17.3988,Q,Q
2023-03-15 12:13:13:807,0,-8.23803,-2.32392,-17.2978,Q,Q
2023-03-15 12:13:13:817,0,-8.25867,-2.32798,-17.1948,Q,Q
2023-03-15 12:13:13:827,0,-8.27923,-2.32648,-17.0836,Q,Q
2023-03-15 12:13:13:837,0,-8.29469,-2.32836,-16.964,Q,Q
2023-03-15 12:13:13:847,0,-8.31242,-2.32408,-16.8354,Q,Q
2023-03-15 12:13:13:857,0,-8.33162,-2.32148,-16.7008,Q,Q
2023-03-15 12:13:13:867,0,-8.35282,-2.31736,-16.5568,Q,Q
2023-03-15 12:13:13:877,0,-8.37462,-2.31179,-16.4117,Q,Q
2023-03-15 12:13:13:887,0,-8.40318,-2.30201,-16.2615,Q,Q
2023-03-15 12:13:13:897,0,-8.43275,-2.29224,-16.1061,Q,Q
2023-03-15 12:13:13:907,0,-8.46648,-2.27964,-15.9426,Q,Q
2023-03-15 12:13:13:917,0,-8.49692,-2.27112,-15.7768,Q,Q
2023-03-15 12:13:13:927,0,-8.5247,-2.26397,-15.6028,Q,Q
2023-03-15 12:13:13:937,0,-8.55394,-2.25982,-15.4283,Q,Q
2023-03-15 12:13:13:947,0,-8.58618,-2.25476,-15.2477,Q,Q
2023-03-15 12:13:13:957,0,-8.61456,-2.25192,-15.0668,Q,Q
2023-03-15 12:13:13:967,0,-8.6453,-2.25359,-14.8863,Q,Q
2023-03-15 12:13:13:976,0,-8.67644,-2.2579,-14.6989,Q,Q
2023-03-15 12:13:13:986,0,-8.7113,-2.26558,-14.5078,Q,Q
2023-03-15 12:13:13:997,0,-8.74834,-2.27433,-14.3182,Q,Q
2023-03-15 12:13:14:7,0,-8.78376,-2.2866,-14.1355,Q,Q
2023-03-15 12:13:14:17,0,-8.80926,-2.29881,-13.9492,Q,Q
2023-03-15 12:13:14:27,0,-8.82385,-2.3068,-13.7677,Q,Q
2023-03-15 12:13:14:37,0,-8.83024,-2.31193,-13.5879,Q,Q
2023-03-15 12:13:14:47,0,-8.83229,-2.31268,-13.4102,Q,Q
2023-03-15 12:13:14:56,0,-8.82972,-2.31621,-13.2317,Q,Q
2023-03-15 12:13:14:67,0,-8.82935,-2.318,-13.05,Q,Q
2023-03-15 12:13:14:77,0,-8.83289,-2.32005,-12.8745,Q,Q
2023-03-15 12:13:14:87,0,-8.83938,-2.31912,-12.7064,Q,Q
2023-03-15 12:13:14:97,0,-8.84503,-2.32116,-12.5412,Q,Q
2023-03-15 12:13:14:106,0,-8.85041,-2.32644,-12.3779,Q,Q
2023-03-15 12:13:14:117,0,-8.84903,-2.3355,-12.2159,Q,Q
2023-03-15 12:13:14:127,0,-8.84392,-2.34062,-12.049,Q,Q
2023-03-15 12:13:14:137,0,-8.8336,-2.34999,-11.8821,Q,Q
2023-03-15 12:13:14:147,0,-8.82316,-2.35864,-11.7217,Q,Q
2023-03-15 12:13:14:157,0,-8.80647,-2.36211,-11.5673,Q,Q
2023-03-15 12:13:14:167,0,-8.79,-2.36204,-11.4178,Q,Q
2023-03-15 12:13:14:177,0,-8.76547,-2.36406,-11.2758,Q,Q
2023-03-15 12:13:14:187,0,-8.7284,-2.36544,-11.1413,Q,Q
2023-03-15 12:13:14:197,0,-8.68261,-2.364,-11.0164,Q,Q
2023-03-15 12:13:14:207,0,-8.6305,-2.36396,-10.9037,Q,Q
2023-03-15 12:13:14:217,0,-8.57667,-2.36743,-10.8035,Q,Q
2023-03-15 12:13:14:227,0,-8.52272,-2.37692,-10.7131,Q,Q
2023-03-15 12:13:14:237,0,-8.46887,-2.39137,-10.6358,Q,Q
2023-03-15 12:13:14:247,0,-8.4132,-2.41136,-10.5753,Q,Q
2023-03-15 12:13:14:257,0,-8.35643,-2.43527,-10.5235,Q,Q
2023-03-15 12:13:14:267,0,-8.29232,-2.45973,-10.4825,Q,Q
2023-03-15 12:13:14:277,0,-8.21836,-2.48954,-10.4529,Q,Q
2023-03-15 12:13:14:286,0,-8.13814,-2.52132,-10.4323,Q,Q
2023-03-15 12:13:14:296,0,-8.05431,-2.55021,-10.4176,Q,Q
2023-03-15 12:13:14:306,0,-7.96957,-2.58022,-10.4061,Q,Q
2023-03-15 12:13:14:317,0,-7.88966,-2.61241,-10.4039,Q,Q
2023-03-15 12:13:14:326,0,-7.8146,-2.64287,-10.4036,Q,Q
2023-03-15 12:13:14:337,0,-7.74235,-2.67171,-10.4036,Q,Q
2023-03-15 12:13:14:346,0,-7.67053,-2.69767,-10.4068,Q,Q
2023-03-15 12:13:14:357,0,-7.60815,-2.72438,-10.4101,Q,Q
2023-03-15 12:13:14:367,0,-7.54923,-2.74646,-10.4172,Q,Q
2023-03-15 12:13:14:377,0,-7.49777,-2.77103,-10.4219,Q,Q
2023-03-15 12:13:14:387,0,-7.45157,-2.79119,-10.4276,Q,Q
2023-03-15 12:13:14:397,0,-7.4089,-2.80734,-10.4356,Q,Q
2023-03-15 12:13:14:407,0,-7.37204,-2.82371,-10.4343,Q,Q
2023-03-15 12:13:14:417,0,-7.33886,-2.83261,-10.4316,Q,Q
2023-03-15 12:13:14:427,0,-7.30824,-2.8398,-10.429,Q,Q
2023-03-15 12:13:14:437,0,-7.27711,-2.84469,-10.4246,Q,Q
2023-03-15 12:13:14:447,0,-7.2506,-2.84556,-10.4182,Q,Q
2023-03-15 12:13:14:457,0,-7.22375,-2.83877,-10.4079,Q,Q
2023-03-15 12:13:14:467,0,-7.20235,-2.83679,-10.3947,Q,Q
2023-03-15 12:13:14:477,0,-7.17624,-2.83593,-10.3755,Q,Q
2023-03-15 12:13:14:487,0,-7.15037,-2.83181,-10.3558,Q,Q
2023-03-15 12:13:14:497,0,-7.12721,-2.82833,-10.3399,Q,Q
2023-03-15 12:13:14:507,0,-7.10825,-2.82231,-10.3247,Q,Q
2023-03-15 12:13:14:517,0,-7.08999,-2.8077,-10.3098,Q,Q
2023-03-15 12:13:14:527,0,-7.0774,-2.79256,-10.2984,Q,Q
2023-03-15 12:13:14:537,0,-7.06947,-2.77509,-10.29,Q,Q
2023-03-15 12:13:14:547,0,-7.06694,-2.76416,-10.2806,Q,Q
2023-03-15 12:13:14:556,0,-7.06563,-2.75271,-10.2701,Q,Q
2023-03-15 12:13:14:567,0,-7.06786,-2.74374,-10.2586,Q,Q
2023-03-15 12:13:14:577,0,-7.0758,-2.73908,-10.2534,Q,Q
2023-03-15 12:13:14:587,0,-7.08422,-2.73364,-10.2504,Q,Q
2023-03-15 12:13:14:597,0,-7.09473,-2.72582,-10.2503,Q,Q
2023-03-15 12:13:14:607,0,-7.1025,-2.71878,-10.2539,Q,Q
2023-03-15 12:13:14:617,0,-7.10885,-2.70871,-10.2598,Q,Q
2023-03-15 12:13:14:627,0,-7.11744,-2.70111,-10.2695,Q,Q
2023-03-15 12:13:14:637,0,-7.12292,-2.69209,-10.2751,Q,Q
2023-03-15 12:13:14:647,0,-7.12657,-2.68664,-10.2821,Q,Q
2023-03-15 12:13:14:657,0,-7.12135,-2.68267,-10.2834,Q,Q
2023-03-15 12:13:14:667,0,-7.10834,-2.68632,-10.2815,Q,Q
2023-03-15 12:13:14:676,0,-7.09037,-2.68577,-10.2782,Q,Q
2023-03-15 12:13:14:687,0,-7.07357,-2.68462,-10.275,Q,Q
2023-03-15 12:13:14:696,0,-7.05885,-2.68154,-10.2658,Q,Q
2023-03-15 12:13:14:706,0,-7.05929,-2.67494,-10.2528,Q,Q
2023-03-15 12:13:14:717,0,-7.06391,-2.66505,-10.2423,Q,Q
2023-03-15 12:13:14:727,0,-7.06561,-2.65496,-10.2326,Q,Q
2023-03-15 12:13:14:736,0,-7.06612,-2.6439,-10.2245,Q,Q
2023-03-15 12:13:14:747,0,-7.06245,-2.63337,-10.2117,Q,Q
2023-03-15 12:13:14:757,0,-7.05677,-2.62359,-10.198,Q,Q
2023-03-15 12:13:14:767,0,-7.04965,-2.61306,-10.1859,Q,Q
2023-03-15 12:13:14:777,0,-7.04501,-2.59926,-10.1702,Q,Q
2023-03-15 12:13:14:787,0,-7.04203,-2.58922,-10.154,Q,Q
2023-03-15 12:13:14:796,0,-7.03964,-2.57838,-10.1414,Q,Q
2023-03-15 12:13:14:807,0,-7.04165,-2.56157,-10.1342,Q,Q
2023-03-15 12:13:14:817,0,-7.04642,-2.54077,-10.1234,Q,Q
2023-03-15 12:13:14:827,0,-7.0466,-2.51716,-10.1145,Q,Q
2023-03-15 12:13:14:837,0,-7.0415,-2.49445,-10.1018,Q,Q
2023-03-15 12:13:14:847,0,-7.03213,-2.47112,-10.0878,Q,Q
2023-03-15 12:13:14:857,0,-7.01909,-2.44782,-10.0696,Q,Q
2023-03-15 12:13:14:867,0,-7.00791,-2.426,-10.0476,Q,Q
2023-03-15 12:13:14:876,0,-6.99341,-2.40319,-10.0207,Q,Q
2023-03-15 12:13:14:887,0,-6.98161,-2.3771,-9.99324,Q,Q
2023-03-15 12:13:14:897,0,-6.96809,-2.35395,-9.96149,Q,Q
2023-03-15 12:13:14:907,0,-6.96101,-2.32648,-9.92866,Q,Q
2023-03-15 12:13:14:917,0,-6.95206,-2.30271,-9.88586,Q,Q
2023-03-15 12:13:14:927,0,-6.95185,-2.27562,-9.84853,Q,Q
2023-03-15 12:13:14:937,0,-6.95501,-2.25131,-9.80794,Q,Q
2023-03-15 12:13:14:947,0,-6.96102,-2.23111,-9.76959,Q,Q
2023-03-15 12:13:14:957,0,-6.97297,-2.21606,-9.73015,Q,Q
2023-03-15 12:13:14:967,0,-6.98608,-2.20109,-9.69677,Q,Q
2023-03-15 12:13:14:977,0,-7.00101,-2.19106,-9.66393,Q,Q
2023-03-15 12:13:14:987,0,-7.01195,-2.18531,-9.63151,Q,Q
2023-03-15 12:13:14:997,0,-7.02091,-2.1782,-9.60173,Q,Q
2023-03-15 12:13:15:7,0,-7.02554,-2.1729,-9.57533,Q,Q
2023-03-15 12:13:15:17,0,-7.02796,-2.16519,-9.55071,Q,Q
2023-03-15 12:13:15:27,0,-7.03269,-2.15904,-9.52322,Q,Q
2023-03-15 12:13:15:37,0,-7.03222,-2.15515,-9.4933,Q,Q
2023-03-15 12:13:15:47,0,-7.03016,-2.15106,-9.45756,Q,Q
2023-03-15 12:13:15:56,0,-7.03285,-2.14468,-9.42088,Q,Q
2023-03-15 12:13:15:67,0,-7.03432,-2.13979,-9.38724,Q,Q
2023-03-15 12:13:15:77,0,-7.03213,-2.13294,-9.3505,Q,Q
2023-03-15 12:13:15:87,0,-7.03283,-2.12807,-9.3115,Q,Q
2023-03-15 12:13:15:97,0,-7.03157,-2.1203,-9.26724,Q,Q
2023-03-15 12:13:15:107,0,-7.0274,-2.11391,-9.22292,Q,Q
2023-03-15 12:13:15:117,0,-7.02936,-2.11076,-9.17811,Q,Q
2023-03-15 12:13:15:127,0,-7.04439,-2.10975,-9.13918,Q,Q
2023-03-15 12:13:15:137,0,-7.06293,-2.10051,-9.11012,Q,Q
2023-03-15 12:13:15:147,0,-7.08526,-2.08069,-9.0815,Q,Q
2023-03-15 12:13:15:157,0,-7.10896,-2.05639,-9.05657,Q,Q
2023-03-15 12:13:15:167,0,-7.13059,-2.03048,-9.04418,Q,Q
2023-03-15 12:13:15:177,0,-7.14053,-1.99908,-9.03245,Q,Q
2023-03-15 12:13:15:187,0,-7.1449,-1.9596,-9.0211,Q,Q
2023-03-15 12:13:15:197,0,-7.15105,-1.91976,-9.00611,Q,Q
2023-03-15 12:13:15:207,0,-7.15482,-1.87414,-8.99441,Q,Q
2023-03-15 12:13:15:217,0,-7.15792,-1.82723,-8.97809,Q,Q
2023-03-15 12:13:15:227,0,-7.1598,-1.77478,-8.96452,Q,Q
2023-03-15 12:13:15:237,0,-7.15984,-1.72504,-8.9475,Q,Q
2023-03-15 12:13:15:247,0,-7.15428,-1.67902,-8.92173,Q,Q
2023-03-15 12:13:15:257,0,-7.14783,-1.63724,-8.89458,Q,Q
2023-03-15 12:13:15:267,0,-7.14298,-1.60363,-8.86522,Q,Q
2023-03-15 12:13:15:277,0,-7.14204,-1.56959,-8.83802,Q,Q
2023-03-15 12:13:15:287,0,-7.14515,-1.54108,-8.8083,Q,Q
2023-03-15 12:13:15:297,0,-7.1488,-1.51399,-8.77971,Q,Q
2023-03-15 12:13:15:307,0,-7.14901,-1.48818,-8.75488,Q,Q
2023-03-15 12:13:15:316,0,-7.15313,-1.46523,-8.72953,Q,Q
2023-03-15 12:13:15:327,0,-7.15125,-1.4391,-8.70764,Q,Q
2023-03-15 12:13:15:337,0,-7.14937,-1.41485,-8.68833,Q,Q
2023-03-15 12:13:15:347,0,-7.14783,-1.3904,-8.6658,Q,Q
2023-03-15 12:13:15:357,0,-7.14782,-1.366,-8.64447,Q,Q
2023-03-15 12:13:15:367,0,-7.14807,-1.3464,-8.62834,Q,Q
2023-03-15 12:13:15:377,0,-7.14656,-1.32892,-8.61397,Q,Q
2023-03-15 12:13:15:387,0,-7.14454,-1.31538,-8.59804,Q,Q
2023-03-15 12:13:15:397,0,-7.14383,-1.3069,-8.57873,Q,Q
2023-03-15 12:13:15:407,0,-7.1393,-1.30778,-8.56044,Q,Q
2023-03-15 12:13:15:417,0,-7.13749,-1.31068,-8.54455,Q,Q
2023-03-15 12:13:15:427,0,-7.14141,-1.31454,-8.5253,Q,Q
2023-03-15 12:13:15:437,0,-7.14286,-1.32284,-8.51299,Q,Q
2023-03-15 12:13:15:447,0,-7.14674,-1.33807,-8.50195,Q,Q
2023-03-15 12:13:15:457,0,-7.1526,-1.35054,-8.49448,Q,Q
2023-03-15 12:13:15:467,0,-7.15311,-1.36932,-8.49243,Q,Q
2023-03-15 12:13:15:477,0,-7.15326,-1.38471,-8.4934,Q,Q
2023-03-15 12:13:15:487,0,-7.14657,-1.40369,-8.49529,Q,Q
2023-03-15 12:13:15:497,0,-7.13459,-1.42169,-8.49697,Q,Q
2023-03-15 12:13:15:507,0,-7.12163,-1.43919,-8.50356,Q,Q
2023-03-15 12:13:15:517,0,-7.11323,-1.44753,-8.5115,Q,Q
2023-03-15 12:13:15:527,0,-7.10964,-1.45551,-8.52376,Q,Q
2023-03-15 12:13:15:537,0,-7.11365,-1.46202,-8.53709,Q,Q
2023-03-15 12:13:15:547,0,-7.12509,-1.46358,-8.55252,Q,Q
2023-03-15 12:13:15:557,0,-7.13684,-1.46721,-8.5691,Q,Q
2023-03-15 12:13:15:566,0,-7.14839,-1.4732,-8.58155,Q,Q
2023-03-15 12:13:15:576,0,-7.16578,-1.48117,-8.58968,Q,Q
2023-03-15 12:13:15:587,0,-7.18461,-1.49255,-8.60135,Q,Q
2023-03-15 12:13:15:597,0,-7.20201,-1.50467,-8.61416,Q,Q
2023-03-15 12:13:15:607,0,-7.22013,-1.51587,-8.62957,Q,Q
2023-03-15 12:13:15:617,0,-7.24305,-1.52362,-8.64987,Q,Q
2023-03-15 12:13:15:627,0,-7.26332,-1.52869,-8.67252,Q,Q
2023-03-15 12:13:15:637,0,-7.28577,-1.5309,-8.69425,Q,Q
2023-03-15 12:13:15:647,0,-7.30633,-1.52741,-8.71505,Q,Q
2023-03-15 12:13:15:657,0,-7.32356,-1.52298,-8.73704,Q,Q
2023-03-15 12:13:15:667,0,-7.34049,-1.51617,-8.75849,Q,Q
2023-03-15 12:13:15:677,0,-7.35789,-1.508,-8.78087,Q,Q
2023-03-15 12:13:15:687,0,-7.37612,-1.50555,-8.80503,Q,Q
2023-03-15 12:13:15:697,0,-7.38819,-1.50031,-8.82714,Q,Q
2023-03-15 12:13:15:707,0,-7.39821,-1.49325,-8.84926,Q,Q
2023-03-15 12:13:15:717,0,-7.40336,-1.48257,-8.86618,Q,Q
2023-03-15 12:13:15:727,0,-7.40107,-1.46506,-8.88341,Q,Q
2023-03-15 12:13:15:737,0,-7.39417,-1.44228,-8.89866,Q,Q
2023-03-15 12:13:15:747,0,-7.37965,-1.41686,-8.90498,Q,Q
2023-03-15 12:13:15:757,0,-7.36873,-1.38812,-8.90333,Q,Q
2023-03-15 12:13:15:767,0,-7.35589,-1.35799,-8.89353,Q,Q
2023-03-15 12:13:15:777,0,-7.35039,-1.32782,-8.87791,Q,Q
2023-03-15 12:13:15:787,0,-7.346,-1.30455,-8.86456,Q,Q
2023-03-15 12:13:15:797,0,-7.34885,-1.2829,-8.84861,Q,Q
2023-03-15 12:13:15:807,0,-7.35548,-1.26424,-8.82781,Q,Q
2023-03-15 12:13:15:817,0,-7.36438,-1.24605,-8.80985,Q,Q
2023-03-15 12:13:15:827,0,-7.37204,-1.23395,-8.79393,Q,Q
2023-03-15 12:13:15:836,0,-7.38079,-1.22704,-8.7773,Q,Q
2023-03-15 12:13:15:847,0,-7.38499,-1.22285,-8.76188,Q,Q
2023-03-15 12:13:15:857,0,-7.39531,-1.21911,-8.74598,Q,Q
2023-03-15 12:13:15:867,0,-7.40633,-1.21742,-8.73212,Q,Q
2023-03-15 12:13:15:877,0,-7.41503,-1.21644,-8.72179,Q,Q
2023-03-15 12:13:15:887,0,-7.42846,-1.2169,-8.71372,Q,Q
2023-03-15 12:13:15:897,0,-7.44101,-1.21904,-8.71195,Q,Q
2023-03-15 12:13:15:907,0,-7.45038,-1.22242,-8.7105,Q,Q
2023-03-15 12:13:15:917,0,-7.45846,-1.22828,-8.70882,Q,Q
2023-03-15 12:13:15:927,0,-7.46221,-1.23165,-8.70532,Q,Q
2023-03-15 12:13:15:937,0,-7.46217,-1.23748,-8.70619,Q,Q
2023-03-15 12:13:15:947,0,-7.45799,-1.24269,-8.70529,Q,Q
2023-03-15 12:13:15:957,0,-7.45695,-1.24579,-8.71067,Q,Q
2023-03-15 12:13:15:967,0,-7.46338,-1.24834,-8.71182,Q,Q
2023-03-15 12:13:15:977,0,-7.46836,-1.24958,-8.71709,Q,Q
2023-03-15 12:13:15:987,0,-7.47012,-1.25071,-8.72191,Q,Q
2023-03-15 12:13:15:997,0,-7.46903,-1.25451,-8.72709,Q,Q
2023-03-15 12:13:16:7,0,-7.46938,-1.26015,-8.73352,Q,Q
2023-03-15 12:13:16:17,0,-7.46483,-1.27095,-8.74345,Q,Q
2023-03-15 12:13:16:27,0,-7.46123,-1.27846,-8.75351,Q,Q
2023-03-15 12:13:16:37,0,-7.45963,-1.28843,-8.76578,Q,Q
2023-03-15 12:13:16:47,0,-7.45121,-1.29931,-8.78091,Q,Q
2023-03-15 12:13:16:56,0,-7.44194,-1.31335,-8.80081,Q,Q
2023-03-15 12:13:16:67,0,-7.43357,-1.3281,-8.81715,Q,Q
2023-03-15 12:13:16:77,0,-7.42877,-1.34652,-8.83845,Q,Q
2023-03-15 12:13:16:87,0,-7.42183,-1.36855,-8.86597,Q,Q
2023-03-15 12:13:16:97,0,-7.41182,-1.38921,-8.89497,Q,Q
2023-03-15 12:13:16:107,0,-7.39552,-1.41359,-8.92858,Q,Q
2023-03-15 12:13:16:117,0,-7.37566,-1.43731,-8.96318,Q,Q
2023-03-15 12:13:16:127,0,-7.355,-1.46215,-9.00015,Q,Q
2023-03-15 12:13:16:137,0,-7.32918,-1.48417,-9.04021,Q,Q
2023-03-15 12:13:16:147,0,-7.30433,-1.50413,-9.08373,Q,Q
2023-03-15 12:13:16:156,0,-7.27918,-1.52924,-9.12865,Q,Q
2023-03-15 12:13:16:167,0,-7.25558,-1.55462,-9.17603,Q,Q
2023-03-15 12:13:16:177,0,-7.2303,-1.57667,-9.22387,Q,Q
2023-03-15 12:13:16:187,0,-7.2058,-1.59917,-9.27137,Q,Q
2023-03-15 12:13:16:197,0,-7.17693,-1.62539,-9.31838,Q,Q
2023-03-15 12:13:16:207,0,-7.14607,-1.65466,-9.36462,Q,Q
2023-03-15 12:13:16:217,0,-7.11768,-1.68524,-9.4105,Q,Q
2023-03-15 12:13:16:227,0,-7.08776,-1.71373,-9.45845,Q,Q
2023-03-15 12:13:16:237,0,-7.05856,-1.74013,-9.50794,Q,Q
2023-03-15 12:13:16:247,0,-7.03067,-1.76277,-9.55459,Q,Q
2023-03-15 12:13:16:257,0,-7.00249,-1.78854,-9.59928,Q,Q
2023-03-15 12:13:16:267,0,-6.977,-1.8157,-9.64371,Q,Q
2023-03-15 12:13:16:277,0,-6.9503,-1.8412,-9.68197,Q,Q
2023-03-15 12:13:16:286,0,-6.92768,-1.86559,-9.7211,Q,Q
2023-03-15 12:13:16:297,0,-6.90812,-1.88691,-9.76171,Q,Q
2023-03-15 12:13:16:307,0,-6.89084,-1.91138,-9.80103,Q,Q
2023-03-15 12:13:16:317,0,-6.87722,-1.93803,-9.84311,Q,Q
2023-03-15 12:13:16:327,0,-6.86225,-1.96311,-9.88277,Q,Q
2023-03-15 12:13:16:337,0,-6.84852,-1.98821,-9.92216,Q,Q
2023-03-15 12:13:16:347,0,-6.82891,-2.01476,-9.96283,Q,Q
2023-03-15 12:13:16:357,0,-6.80845,-2.04023,-10.0053,Q,Q
2023-03-15 12:13:16:367,0,-6.78418,-2.06708,-10.05,Q,Q
2023-03-15 12:13:16:377,0,-6.76013,-2.09006,-10.0966,Q,Q
2023-03-15 12:13:16:387,0,-6.73313,-2.1097,-10.1456,Q,Q
2023-03-15 12:13:16:397,0,-6.70312,-2.13483,-10.1936,Q,Q
2023-03-15 12:13:16:407,0,-6.6676,-2.16284,-10.2406,Q,Q
2023-03-15 12:13:16:417,0,-6.62998,-2.19129,-10.2874,Q,Q
2023-03-15 12:13:16:427,0,-6.5982,-2.22274,-10.3335,Q,Q
2023-03-15 12:13:16:437,0,-6.57029,-2.25378,-10.3831,Q,Q
2023-03-15 12:13:16:447,0,-6.54703,-2.29055,-10.4295,Q,Q
2023-03-15 12:13:16:457,0,-6.53182,-2.32876,-10.4824,Q,Q
2023-03-15 12:13:16:467,0,-6.51973,-2.36948,-10.5384,Q,Q
2023-03-15 12:13:16:476,0,-6.50604,-2.41068,-10.6078,Q,Q
2023-03-15 12:13:16:487,0,-6.48544,-2.4514,-10.6792,Q,Q
2023-03-15 12:13:16:497,0,-6.44835,-2.49118,-10.7519,Q,Q
2023-03-15 12:13:16:506,0,-6.4089,-2.53495,-10.8327,Q,Q
2023-03-15 12:13:16:517,0,-6.36896,-2.58072,-10.9184,Q,Q
2023-03-15 12:13:16:527,0,-6.33105,-2.62392,-11.0137,Q,Q
2023-03-15 12:13:16:537,0,-6.29859,-2.66692,-11.1153,Q,Q
2023-03-15 12:13:16:547,0,-6.26982,-2.70954,-11.2222,Q,Q
2023-03-15 12:13:16:557,0,-6.2404,-2.75287,-11.3421,Q,Q
2023-03-15 12:13:16:566,0,-6.21219,-2.79754,-11.472,Q,Q
2023-03-15 12:13:16:576,0,-6.18124,-2.84493,-11.6092,Q,Q
2023-03-15 12:13:16:587,0,-6.14732,-2.89871,-11.7544,Q,Q
2023-03-15 12:13:16:597,0,-6.11102,-2.96362,-11.9073,Q,Q
2023-03-15 12:13:16:607,0,-6.07024,-3.03227,-12.0671,Q,Q
2023-03-15 12:13:16:617,0,-6.02773,-3.10559,-12.2401,Q,Q
2023-03-15 12:13:16:627,0,-5.98656,-3.18393,-12.4249,Q,Q
2023-03-15 12:13:16:637,0,-5.94122,-3.26632,-12.6324,Q,Q
2023-03-15 12:13:16:646,0,-5.89426,-3.35171,-12.8654,Q,Q
2023-03-15 12:13:16:657,0,-5.84261,-3.44116,-13.1213,Q,Q
2023-03-15 12:13:16:667,0,-5.78829,-3.52972,-13.4131,Q,Q
2023-03-15 12:13:16:677,0,-5.73317,-3.61634,-13.7337,Q,Q
2023-03-15 12:13:16:687,0,-5.68219,-3.7035,-14.077,Q,Q
2023-03-15 12:13:16:697,0,-5.63398,-3.80491,-14.4387,Q,Q
2023-03-15 12:13:16:707,0,-5.58541,-3.91966,-14.8301,Q,Q
2023-03-15 12:13:16:717,0,-5.54642,-4.04902,-15.2702,Q,Q
2023-03-15 12:13:16:727,0,-5.50904,-4.19089,-15.7652,Q,Q
2023-03-15 12:13:16:737,0,-5.46947,-4.33935,-16.3295,Q,Q
2023-03-15 12:13:16:747,0,-5.42512,-4.49559,-16.96,Q,Q
2023-03-15 12:13:16:757,0,-5.36445,-4.6526,-17.6609,Q,Q
2023-03-15 12:13:16:767,0,-5.27975,-4.81943,-18.4378,Q,Q
2023-03-15 12:13:16:777,0,-5.16773,-4.99373,-19.2917,Q,Q
2023-03-15 12:13:16:787,0,-5.03193,-5.18173,-20.2223,Q,Q
2023-03-15 12:13:16:797,0,-4.86838,-5.38044,-21.2412,Q,Q
2023-03-15 12:13:16:807,0,-4.68725,-5.58602,-22.3292,Q,Q
2023-03-15 12:13:16:817,0,-4.48056,-5.79748,-23.4772,Q,Q
2023-03-15 12:13:16:827,0,-4.24791,-6.02077,-24.6686,Q,Q
2023-03-15 12:13:16:837,0,-3.99284,-6.25536,-25.8977,Q,Q
2023-03-15 12:13:16:847,0,-3.7245,-6.49897,-27.1719,Q,Q
2023-03-15 12:13:16:857,0,-3.44922,-6.75688,-28.4938,Q,Q
2023-03-15 12:13:16:866,0,-3.16765,-7.01825,-29.8522,Q,Q
2023-03-15 12:13:16:877,0,-2.88201,-7.27638,-31.2452,Q,Q
2023-03-15 12:13:16:887,0,-2.59624,-7.53132,-32.654,Q,Q
2023-03-15 12:13:16:897,0,-2.30584,-7.793,-34.0715,Q,Q
2023-03-15 12:13:16:907,0,-2.01323,-8.05896,-35.5003,Q,Q
2023-03-15 12:13:16:917,0,-1.72754,-8.32706,-36.9403,Q,Q
2023-03-15 12:13:16:927,0,-1.44412,-8.59706,-38.394,Q,Q
2023-03-15 12:13:16:937,0,-1.17656,-8.86292,-39.8572,Q,Q
2023-03-15 12:13:16:947,0,-0.924818,-9.11467,-41.3317,Q,Q
2023-03-15 12:13:16:957,0,-0.682766,-9.34958,-42.7988,Q,Q
2023-03-15 12:13:16:967,0,-0.448869,-9.56775,-44.2451,Q,Q
2023-03-15 12:13:16:977,0,-0.214781,-9.77728,-45.6634,Q,Q
2023-03-15 12:13:16:987,0,0.0271116,-9.98839,-47.059,Q,Q
2023-03-15 12:13:16:997,0,0.273073,-10.1988,-48.452,Q,Q
2023-03-15 12:13:17:7,0,0.515449,-10.3924,-49.8447,Q,Q
2023-03-15 12:13:17:17,0,0.753939,-10.5621,-51.2177,Q,Q
2023-03-15 12:13:17:27,0,0.991239,-10.7064,-52.5422,Q,Q
2023-03-15 12:13:17:37,0,1.22756,-10.8324,-53.8134,Q,Q
2023-03-15 12:13:17:47,0,1.45641,-10.9435,-55.029,Q,Q
2023-03-15 12:13:17:57,0,1.66872,-11.0468,-56.2011,Q,Q
2023-03-15 12:13:17:67,0,1.85129,-11.1386,-57.3367,Q,Q
2023-03-15 12:13:17:77,0,1.99621,-11.2254,-58.4609,Q,Q
2023-03-15 12:13:17:87,0,2.10037,-11.289,-59.573,Q,Q
2023-03-15 12:13:17:97,0,2.1735,-11.3349,-60.6465,Q,Q
2023-03-15 12:13:17:107,0,2.22977,-11.354,-61.6587,Q,Q
2023-03-15 12:13:17:117,0,2.29031,-11.3876,-62.6144,Q,Q
2023-03-15 12:13:17:127,0,2.34403,-11.4558,-63.5067,Q,Q
2023-03-15 12:13:17:137,0,2.37672,-11.5257,-64.3301,Q,Q
2023-03-15 12:13:17:147,0,2.38544,-11.5938,-65.1039,Q,Q
2023-03-15 12:13:17:157,0,2.37522,-11.6599,-65.8433,Q,Q
2023-03-15 12:13:17:167,0,2.34729,-11.7047,-66.5301,Q,Q
2023-03-15 12:13:17:177,0,2.31039,-11.735,-67.1581,Q,Q
2023-03-15 12:13:17:187,0,2.26133,-11.7497,-67.7227,Q,Q
2023-03-15 12:13:17:197,0,2.20361,-11.7518,-68.2294,Q,Q
2023-03-15 12:13:17:207,0,2.14276,-11.7541,-68.6839,Q,Q
2023-03-15 12:13:17:217,0,2.06932,-11.7731,-69.0943,Q,Q
2023-03-15 12:13:17:227,0,1.97495,-11.7819,-69.4639,Q,Q
2023-03-15 12:13:17:237,0,1.8626,-11.7929,-69.7932,Q,Q
2023-03-15 12:13:17:247,0,1.73853,-11.8029,-70.0897,Q,Q
2023-03-15 12:13:17:257,0,1.61432,-11.8207,-70.3582,Q,Q
2023-03-15 12:13:17:267,0,1.49756,-11.8379,-70.6099,Q,Q
2023-03-15 12:13:17:277,0,1.39233,-11.8488,-70.8458,Q,Q
2023-03-15 12:13:17:287,0,1.30319,-11.8541,-71.0581,Q,Q
2023-03-15 12:13:17:297,0,1.23108,-11.8458,-71.2372,Q,Q
2023-03-15 12:13:17:307,0,1.16761,-11.8384,-71.3876,Q,Q
2023-03-15 12:13:17:317,0,1.10383,-11.8275,-71.5157,Q,Q
2023-03-15 12:13:17:327,0,1.03599,-11.8145,-71.634,Q,Q
2023-03-15 12:13:17:337,0,0.958126,-11.7949,-71.74,Q,Q
2023-03-15 12:13:17:347,0,0.875465,-11.7736,-71.8359,Q,Q
2023-03-15 12:13:17:357,0,0.792276,-11.7524,-71.9191,Q,Q
2023-03-15 12:13:17:367,0,0.711556,-11.7327,-72.003,Q,Q
2023-03-15 12:13:17:376,0,0.63653,-11.7201,-72.0903,Q,Q
2023-03-15 12:13:17:387,0,0.563877,-11.7075,-72.1788,Q,Q
2023-03-15 12:13:17:397,0,0.488409,-11.6911,-72.2717,Q,Q
2023-03-15 12:13:17:407,0,0.403419,-11.6729,-72.3732,Q,Q
2023-03-15 12:13:17:417,0,0.316413,-11.6468,-72.4784,Q,Q
2023-03-15 12:13:17:427,0,0.235747,-11.6173,-72.5816,Q,Q
2023-03-15 12:13:17:437,0,0.168136,-11.584,-72.686,Q,Q
2023-03-15 12:13:17:447,0,0.110563,-11.553,-72.796,Q,Q
2023-03-15 12:13:17:457,0,0.0570776,-11.5153,-72.9121,Q,Q
2023-03-15 12:13:17:467,0,0.00326301,-11.4838,-73.0295,Q,Q
2023-03-15 12:13:17:477,0,-0.0530722,-11.4565,-73.1513,Q,Q
2023-03-15 12:13:17:487,0,-0.110007,-11.4286,-73.2811,Q,Q
2023-03-15 12:13:17:497,0,-0.160897,-11.3931,-73.4141,Q,Q
2023-03-15 12:13:17:507,0,-0.206476,-11.3594,-73.542,Q,Q
2023-03-15 12:13:17:517,0,-0.245164,-11.331,-73.6673,Q,Q
2023-03-15 12:13:17:527,0,-0.278792,-11.3031,-73.7935,Q,Q
2023-03-15 12:13:17:537,0,-0.309427,-11.2853,-73.9156,Q,Q
2023-03-15 12:13:17:547,0,-0.33832,-11.279,-74.0423,Q,Q
2023-03-15 12:13:17:557,0,-0.360759,-11.275,-74.182,Q,Q
2023-03-15 12:13:17:567,0,-0.377431,-11.2738,-74.3277,Q,Q
2023-03-15 12:13:17:577,0,-0.387937,-11.2667,-74.4799,Q,Q
2023-03-15 12:13:17:587,0,-0.401027,-11.2616,-74.6286,Q,Q
2023-03-15 12:13:17:597,0,-0.418892,-11.2537,-74.7703,Q,Q
2023-03-15 12:13:17:607,0,-0.445316,-11.2442,-74.8997,Q,Q
2023-03-15 12:13:17:617,0,-0.479173,-11.2311,-75.0169,Q,Q
2023-03-15 12:13:17:627,0,-0.519139,-11.215,-75.1282,Q,Q
2023-03-15 12:13:17:637,0,-0.558632,-11.2021,-75.2344,Q,Q
2023-03-15 12:13:17:647,0,-0.586377,-11.1861,-75.3359,Q,Q
2023-03-15 12:13:17:657,0,-0.601734,-11.1636,-75.4325,Q,Q
2023-03-15 12:13:17:667,0,-0.601036,-11.1401,-75.5254,Q,Q
2023-03-15 12:13:17:677,0,-0.588696,-11.1146,-75.6161,Q,Q
2023-03-15 12:13:17:687,0,-0.575294,-11.0861,-75.7003,Q,Q
2023-03-15 12:13:17:697,0,-0.557674,-11.0585,-75.7799,Q,Q
2023-03-15 12:13:17:707,0,-0.546949,-11.0295,-75.8625,Q,Q
2023-03-15 12:13:17:717,0,-0.534991,-10.9936,-75.9491,Q,Q
2023-03-15 12:13:17:727,0,-0.531141,-10.9479,-76.0332,Q,Q
2023-03-15 12:13:17:737,0,-0.531843,-10.8902,-76.1059,Q,Q
2023-03-15 12:13:17:747,0,-0.533224,-10.8222,-76.1656,Q,Q
2023-03-15 12:13:17:757,0,-0.537295,-10.7452,-76.1979,Q,Q
2023-03-15 12:13:17:767,0,-0.543492,-10.6516,-76.2026,Q,Q
2023-03-15 12:13:17:777,0,-0.56364,-10.5424,-76.1693,Q,Q
2023-03-15 12:13:17:787,0,-0.599892,-10.4064,-76.0859,Q,Q
2023-03-15 12:13:17:797,0,-0.639843,-10.2457,-75.9432,Q,Q
2023-03-15 12:13:17:807,0,-0.675571,-10.0485,-75.7261,Q,Q
2023-03-15 12:13:17:817,0,-0.697823,-9.81549,-75.4264,Q,Q
2023-03-15 12:13:17:827,0,-0.70534,-9.54749,-75.0325,Q,Q
2023-03-15 12:13:17:837,0,-0.70212,-9.25466,-74.5389,Q,Q
2023-03-15 12:13:17:847,0,-0.707189,-8.93306,-73.9323,Q,Q
2023-03-15 12:13:17:857,0,-0.728835,-8.58786,-73.1983,Q,Q
2023-03-15 12:13:17:867,0,-0.743213,-8.21255,-72.3343,Q,Q
2023-03-15 12:13:17:877,0,-0.711868,-7.81838,-71.3679,Q,Q
2023-03-15 12:13:17:887,0,-0.604893,-7.40182,-70.3288,Q,Q
2023-03-15 12:13:17:897,0,-0.413848,-6.95862,-69.2416,Q,Q
2023-03-15 12:13:17:907,0,-0.155709,-6.4786,-68.1267,Q,Q
2023-03-15 12:13:17:917,0,0.133759,-5.98082,-66.9835,Q,Q
2023-03-15 12:13:17:927,0,0.431812,-5.47928,-65.8243,Q,Q
2023-03-15 12:13:17:937,0,0.729384,-4.99706,-64.6559,Q,Q
2023-03-15 12:13:17:947,0,1.03776,-4.55529,-63.4982,Q,Q
2023-03-15 12:13:17:957,0,1.36819,-4.14858,-62.3641,Q,Q
2023-03-15 12:13:17:967,0,1.72839,-3.77984,-61.2592,Q,Q
2023-03-15 12:13:17:977,0,2.11338,-3.4373,-60.1948,Q,Q
2023-03-15 12:13:17:987,0,2.50482,-3.1495,-59.1884,Q,Q
2023-03-15 12:13:17:997,0,2.883,-2.89454,-58.2363,Q,Q
2023-03-15 12:13:18:7,0,3.22975,-2.66241,-57.3502,Q,Q
2023-03-15 12:13:18:17,0,3.54135,-2.44513,-56.5358,Q,Q
2023-03-15 12:13:18:27,0,3.83,-2.26849,-55.7978,Q,Q
2023-03-15 12:13:18:37,0,4.0903,-2.13179,-55.1169,Q,Q
2023-03-15 12:13:18:47,0,4.32731,-2.01756,-54.4812,Q,Q
2023-03-15 12:13:18:57,0,4.54842,-1.93342,-53.9007,Q,Q
2023-03-15 12:13:18:67,0,4.7561,-1.88018,-53.3776,Q,Q
2023-03-15 12:13:18:77,0,4.9398,-1.83048,-52.9035,Q,Q
2023-03-15 12:13:18:87,0,5.10158,-1.79258,-52.4804,Q,Q
2023-03-15 12:13:18:97,0,5.23467,-1.76847,-52.1075,Q,Q
2023-03-15 12:13:18:107,0,5.34912,-1.75478,-51.7885,Q,Q
2023-03-15 12:13:18:117,0,5.44684,-1.76084,-51.5146,Q,Q
2023-03-15 12:13:18:127,0,5.52264,-1.77846,-51.2859,Q,Q
2023-03-15 12:13:18:137,0,5.5854,-1.80311,-51.1019,Q,Q
2023-03-15 12:13:18:147,0,5.63945,-1.83912,-50.9542,Q,Q
2023-03-15 12:13:18:157,0,5.68729,-1.8794,-50.8351,Q,Q
2023-03-15 12:13:18:167,0,5.72627,-1.92622,-50.739,Q,Q
2023-03-15 12:13:18:177,0,5.76166,-1.98022,-50.6623,Q,Q
2023-03-15 12:13:18:187,0,5.79941,-2.03596,-50.5995,Q,Q
2023-03-15 12:13:18:197,0,5.82571,-2.09602,-50.5476,Q,Q
2023-03-15 12:13:18:207,0,5.84174,-2.1541,-50.4997,Q,Q
2023-03-15 12:13:18:217,0,5.85163,-2.21508,-50.4581,Q,Q
2023-03-15 12:13:18:227,0,5.85371,-2.27298,-50.4202,Q,Q
2023-03-15 12:13:18:237,0,5.85326,-2.32918,-50.3814,Q,Q
2023-03-15 12:13:18:247,0,5.84926,-2.38759,-50.3464,Q,Q
2023-03-15 12:13:18:257,0,5.84114,-2.44468,-50.3086,Q,Q
2023-03-15 12:13:18:267,0,5.83359,-2.50077,-50.2771,Q,Q
2023-03-15 12:13:18:277,0,5.82571,-2.54982,-50.2453,Q,Q
2023-03-15 12:13:18:287,0,5.81646,-2.60084,-50.2099,Q,Q
2023-03-15 12:13:18:297,0,5.80107,-2.64929,-50.1749,Q,Q
2023-03-15 12:13:18:307,0,5.78023,-2.69578,-50.1429,Q,Q
2023-03-15 12:13:18:317,0,5.74363,-2.7389,-50.1136,Q,Q
2023-03-15 12:13:18:327,0,5.69339,-2.77687,-50.0879,Q,Q
2023-03-15 12:13:18:337,0,5.62962,-2.81498,-50.0682,Q,Q
2023-03-15 12:13:18:347,0,5.55556,-2.85677,-50.0552,Q,Q
2023-03-15 12:13:18:357,0,5.47753,-2.89635,-50.0463,Q,Q
2023-03-15 12:13:18:367,0,5.4012,-2.93675,-50.0456,Q,Q
2023-03-15 12:13:18:377,0,5.32773,-2.97161,-50.0535,Q,Q
2023-03-15 12:13:18:387,0,5.25944,-3.00239,-50.068,Q,Q
2023-03-15 12:13:18:397,0,5.19899,-3.02912,-50.0874,Q,Q
2023-03-15 12:13:18:407,0,5.14354,-3.04822,-50.1117,Q,Q
2023-03-15 12:13:18:417,0,5.09146,-3.06578,-50.137,Q,Q
2023-03-15 12:13:18:427,0,5.042,-3.07551,-50.1534,Q,Q
2023-03-15 12:13:18:437,0,4.99965,-3.10366,-50.1691,Q,Q
2023-03-15 12:13:18:447,0,4.95489,-3.13525,-50.1784,Q,Q
2023-03-15 12:13:18:457,0,4.90264,-3.16627,-50.1771,Q,Q
2023-03-15 12:13:18:467,0,4.84237,-3.20887,-50.1737,Q,Q
2023-03-15 12:13:18:477,0,4.77068,-3.23772,-50.1676,Q,Q
2023-03-15 12:13:18:487,0,4.70371,-3.26403,-50.1602,Q,Q
2023-03-15 12:13:18:497,0,4.64163,-3.28984,-50.1482,Q,Q
2023-03-15 12:13:18:507,0,4.58816,-3.3029,-50.1278,Q,Q
2023-03-15 12:13:18:517,0,4.52539,-3.31887,-50.0993,Q,Q
2023-03-15 12:13:18:527,0,4.45367,-3.3307,-50.0643,Q,Q
2023-03-15 12:13:18:537,0,4.37645,-3.33991,-50.0258,Q,Q
2023-03-15 12:13:18:547,0,4.29606,-3.35125,-49.9849,Q,Q
2023-03-15 12:13:18:557,0,4.21427,-3.35909,-49.9406,Q,Q
2023-03-15 12:13:18:567,0,4.14123,-3.37184,-49.8953,Q,Q
2023-03-15 12:13:18:577,0,4.06904,-3.38612,-49.8467,Q,Q
2023-03-15 12:13:18:587,0,4.00561,-3.40102,-49.7911,Q,Q
2023-03-15 12:13:18:597,0,3.95006,-3.41668,-49.7333,Q,Q
2023-03-15 12:13:18:607,0,3.89908,-3.44503,-49.6755,Q,Q
2023-03-15 12:13:18:617,0,3.85413,-3.46892,-49.612,Q,Q
2023-03-15 12:13:18:627,0,3.81224,-3.49198,-49.5459,Q,Q
2023-03-15 12:13:18:637,0,3.77021,-3.5213,-49.48,Q,Q
2023-03-15 12:13:18:646,0,3.73571,-3.54806,-49.417,Q,Q
2023-03-15 12:13:18:656,0,3.70978,-3.5754,-49.3579,Q,Q
2023-03-15 12:13:18:666,0,3.69617,-3.60236,-49.2957,Q,Q
2023-03-15 12:13:18:677,0,3.69341,-3.62997,-49.2364,Q,Q
2023-03-15 12:13:18:686,0,3.69517,-3.66036,-49.1806,Q,Q
2023-03-15 12:13:18:697,0,3.69404,-3.6937,-49.1243,Q,Q
2023-03-15 12:13:18:707,0,3.69212,-3.72792,-49.0662,Q,Q
2023-03-15 12:13:18:717,0,3.68715,-3.76097,-49.0127,Q,Q
2023-03-15 12:13:18:727,0,3.67911,-3.79481,-48.9608,Q,Q
2023-03-15 12:13:18:737,0,3.67576,-3.83167,-48.9158,Q,Q
2023-03-15 12:13:18:747,0,3.67349,-3.86809,-48.8732,Q,Q
2023-03-15 12:13:18:757,0,3.67256,-3.90334,-48.8389,Q,Q
2023-03-15 12:13:18:767,0,3.67604,-3.94154,-48.803,Q,Q
2023-03-15 12:13:18:777,0,3.67446,-3.98002,-48.7714,Q,Q
2023-03-15 12:13:18:787,0,3.66648,-4.01865,-48.7454,Q,Q
2023-03-15 12:13:18:797,0,3.6458,-4.05575,-48.7191,Q,Q
2023-03-15 12:13:18:807,0,3.6152,-4.09219,-48.7011,Q,Q
2023-03-15 12:13:18:817,0,3.58481,-4.1294,-48.6904,Q,Q
2023-03-15 12:13:18:827,0,3.55209,-4.16331,-48.6861,Q,Q
2023-03-15 12:13:18:837,0,3.52437,-4.19646,-48.6917,Q,Q
2023-03-15 12:13:18:847,0,3.49856,-4.22272,-48.7036,Q,Q
2023-03-15 12:13:18:857,0,3.47972,-4.2429,-48.7173,Q,Q
2023-03-15 12:13:18:867,0,3.4668,-4.26804,-48.7371,Q,Q
2023-03-15 12:13:18:877,0,3.44876,-4.29171,-48.7576,Q,Q
2023-03-15 12:13:18:887,0,3.42978,-4.31228,-48.7765,Q,Q
2023-03-15 12:13:18:897,0,3.41283,-4.33483,-48.7935,Q,Q
2023-03-15 12:13:18:907,0,3.3985,-4.35958,-48.8118,Q,Q
2023-03-15 12:13:18:917,0,3.3876,-4.38091,-48.8257,Q,Q
2023-03-15 12:13:18:927,0,3.37477,-4.40348,-48.8379,Q,Q
2023-03-15 12:13:18:937,0,3.36222,-4.41667,-48.8507,Q,Q
2023-03-15 12:13:18:947,0,3.35181,-4.4301,-48.8629,Q,Q
2023-03-15 12:13:18:957,0,3.34161,-4.44253,-48.8761,Q,Q
2023-03-15 12:13:18:967,0,3.33484,-4.45486,-48.8856,Q,Q
2023-03-15 12:13:18:977,0,3.33614,-4.46739,-48.8916,Q,Q
2023-03-15 12:13:18:987,0,3.34197,-4.47734,-48.8983,Q,Q
2023-03-15 12:13:18:997,0,3.34723,-4.48545,-48.9013,Q,Q
2023-03-15 12:13:19:7,0,3.35216,-4.49341,-48.9038,Q,Q
2023-03-15 12:13:19:17,0,3.35353,-4.50899,-48.899,Q,Q
2023-03-15 12:13:19:27,0,3.34742,-4.52413,-48.8894,Q,Q
2023-03-15 12:13:19:37,0,3.33807,-4.53553,-48.881,Q,Q
2023-03-15 12:13:19:47,0,3.33008,-4.54828,-48.8709,Q,Q
2023-03-15 12:13:19:57,0,3.32919,-4.56117,-48.8595,Q,Q
2023-03-15 12:13:19:67,0,3.32968,-4.57295,-48.8419,Q,Q
2023-03-15 12:13:19:77,0,3.33471,-4.58252,-48.8186,Q,Q
2023-03-15 12:13:19:87,0,3.34425,-4.59199,-48.7924,Q,Q
2023-03-15 12:13:19:97,0,3.35764,-4.60179,-48.768,Q,Q
2023-03-15 12:13:19:107,0,3.37494,-4.61441,-48.7398,Q,Q
2023-03-15 12:13:19:117,0,3.38657,-4.62497,-48.7127,Q,Q
2023-03-15 12:13:19:127,0,3.40386,-4.63771,-48.6817,Q,Q
2023-03-15 12:13:19:137,0,3.41619,-4.6525,-48.6467,Q,Q
2023-03-15 12:13:19:147,0,3.4306,-4.66768,-48.6138,Q,Q
2023-03-15 12:13:19:157,0,3.44515,-4.68487,-48.5807,Q,Q
2023-03-15 12:13:19:167,0,3.45595,-4.70371,-48.5465,Q,Q
2023-03-15 12:13:19:177,0,3.47566,-4.71744,-48.5089,Q,Q
2023-03-15 12:13:19:187,0,3.49375,-4.73448,-48.4704,Q,Q
2023-03-15 12:13:19:197,0,3.51866,-4.74932,-48.4332,Q,Q
2023-03-15 12:13:19:207,0,3.5387,-4.76793,-48.3998,Q,Q
2023-03-15 12:13:19:217,0,3.56103,-4.7861,-48.3606,Q,Q
2023-03-15 12:13:19:227,0,3.57854,-4.8039,-48.3215,Q,Q
2023-03-15 12:13:19:237,0,3.59677,-4.82507,-48.2825,Q,Q
2023-03-15 12:13:19:247,0,3.6122,-4.84335,-48.2463,Q,Q
2023-03-15 12:13:19:257,0,3.62653,-4.85985,-48.2096,Q,Q
2023-03-15 12:13:19:267,0,3.63845,-4.87994,-48.1681,Q,Q
2023-03-15 12:13:19:277,0,3.64726,-4.90158,-48.1257,Q,Q
2023-03-15 12:13:19:287,0,3.65607,-4.92646,-48.0867,Q,Q
2023-03-15 12:13:19:297,0,3.66093,-4.95441,-48.0494,Q,Q
2023-03-15 12:13:19:307,0,3.66364,-4.97835,-48.0157,Q,Q
2023-03-15 12:13:19:317,0,3.66507,-5.00145,-47.9777,Q,Q
2023-03-15 12:13:19:327,0,3.66415,-5.02442,-47.9417,Q,Q
2023-03-15 12:13:19:337,0,3.66422,-5.04975,-47.9063,Q,Q
2023-03-15 12:13:19:347,0,3.65921,-5.07848,-47.8707,Q,Q
2023-03-15 12:13:19:357,0,3.6517,-5.1074,-47.8376,Q,Q
2023-03-15 12:13:19:367,0,3.63919,-5.13735,-47.81,Q,Q
2023-03-15 12:13:19:377,0,3.6309,-5.1695,-47.7839,Q,Q
2023-03-15 12:13:19:387,0,3.62271,-5.20233,-47.7606,Q,Q
2023-03-15 12:13:19:397,0,3.61822,-5.23518,-47.738,Q,Q
2023-03-15 12:13:19:407,0,3.61255,-5.26494,-47.7174,Q,Q
2023-03-15 12:13:19:417,0,3.60899,-5.29426,-47.6984,Q,Q
2023-03-15 12:13:19:427,0,3.60398,-5.32413,-47.6832,Q,Q
2023-03-15 12:13:19:436,0,3.60008,-5.34652,-47.6721,Q,Q
2023-03-15 12:13:19:447,0,3.59652,-5.37364,-47.662,Q,Q
2023-03-15 12:13:19:457,0,3.59134,-5.40889,-47.6572,Q,Q
2023-03-15 12:13:19:467,0,3.57139,-5.43842,-47.6466,Q,Q
2023-03-15 12:13:19:477,0,3.54963,-5.46796,-47.6377,Q,Q
2023-03-15 12:13:19:487,0,3.52818,-5.50049,-47.636,Q,Q
2023-03-15 12:13:19:497,0,3.5179,-5.53295,-47.6397,Q,Q
2023-03-15 12:13:19:507,0,3.5101,-5.5631,-47.6427,Q,Q
2023-03-15 12:13:19:517,0,3.49733,-5.59163,-47.641,Q,Q
2023-03-15 12:13:19:527,0,3.49021,-5.62338,-47.6364,Q,Q
2023-03-15 12:13:19:537,0,3.4807,-5.65266,-47.6293,Q,Q
2023-03-15 12:13:19:547,0,3.47106,-5.67912,-47.6256,Q,Q
2023-03-15 12:13:19:557,0,3.45919,-5.70464,-47.6167,Q,Q
2023-03-15 12:13:19:567,0,3.44321,-5.73015,-47.6044,Q,Q
2023-03-15 12:13:19:577,0,3.42178,-5.75293,-47.5888,Q,Q
2023-03-15 12:13:19:587,0,3.39884,-5.77877,-47.572,Q,Q
2023-03-15 12:13:19:597,0,3.35846,-5.8003,-47.5444,Q,Q
2023-03-15 12:13:19:607,0,3.30888,-5.82237,-47.5122,Q,Q
2023-03-15 12:13:19:617,0,3.25619,-5.84665,-47.4758,Q,Q
2023-03-15 12:13:19:627,0,3.1955,-5.86677,-47.4325,Q,Q
2023-03-15 12:13:19:637,0,3.13045,-5.88281,-47.3851,Q,Q
2023-03-15 12:13:19:647,0,3.06154,-5.90298,-47.3289,Q,Q
2023-03-15 12:13:19:657,0,2.97908,-5.92671,-47.2676,Q,Q
2023-03-15 12:13:19:667,0,2.88523,-5.94835,-47.1968,Q,Q
2023-03-15 12:13:19:677,0,2.77538,-5.96239,-47.1121,Q,Q
2023-03-15 12:13:19:686,0,2.64569,-5.97469,-47.009,Q,Q
2023-03-15 12:13:19:696,0,2.49496,-5.98549,-46.898,Q,Q
2023-03-15 12:13:19:707,0,2.32058,-5.99478,-46.7735,Q,Q
2023-03-15 12:13:19:717,0,2.12806,-5.99917,-46.6374,Q,Q
2023-03-15 12:13:19:727,0,1.91847,-6.00073,-46.4855,Q,Q
2023-03-15 12:13:19:737,0,1.6927,-5.99902,-46.3158,Q,Q
2023-03-15 12:13:19:747,0,1.45272,-5.99567,-46.136,Q,Q
2023-03-15 12:13:19:757,0,1.19653,-5.99482,-45.942,Q,Q
2023-03-15 12:13:19:767,0,0.92289,-6.00054,-45.7311,Q,Q
2023-03-15 12:13:19:777,0,0.63736,-6.01228,-45.5074,Q,Q
2023-03-15 12:13:19:787,0,0.34097,-6.02637,-45.2704,Q,Q
2023-03-15 12:13:19:797,0,0.0238243,-6.04641,-45.0245,Q,Q
2023-03-15 12:13:19:807,0,-0.31042,-6.06804,-44.7789,Q,Q
2023-03-15 12:13:19:817,0,-0.659914,-6.08992,-44.5348,Q,Q
2023-03-15 12:13:19:827,0,-1.02108,-6.10586,-44.2926,Q,Q
2023-03-15 12:13:19:837,0,-1.3824,-6.11569,-44.0552,Q,Q
2023-03-15 12:13:19:847,0,-1.7418,-6.12237,-43.8249,Q,Q
2023-03-15 12:13:19:857,0,-2.08861,-6.11881,-43.5986,Q,Q
2023-03-15 12:13:19:867,0,-2.41381,-6.11546,-43.3835,Q,Q
2023-03-15 12:13:19:877,0,-2.71419,-6.11033,-43.1681,Q,Q
2023-03-15 12:13:19:887,0,-2.98996,-6.11175,-42.9542,Q,Q
2023-03-15 12:13:19:897,0,-3.22193,-6.12532,-42.7427,Q,Q
2023-03-15 12:13:19:907,0,-3.41935,-6.14832,-42.5338,Q,Q
2023-03-15 12:13:19:917,0,-3.59832,-6.1836,-42.3293,Q,Q
2023-03-15 12:13:19:927,0,-3.76715,-6.2288,-42.1278,Q,Q
2023-03-15 12:13:19:937,0,-3.9467,-6.27519,-41.9327,Q,Q
2023-03-15 12:13:19:947,0,-4.15151,-6.31648,-41.7468,Q,Q
2023-03-15 12:13:19:957,0,-4.39731,-6.35003,-41.5668,Q,Q
2023-03-15 12:13:19:967,0,-4.69569,-6.37847,-41.3995,Q,Q
2023-03-15 12:13:19:977,0,-5.03767,-6.3984,-41.2466,Q,Q
2023-03-15 12:13:19:987,0,-5.40556,-6.40633,-41.1076,Q,Q
2023-03-15 12:13:19:997,0,-5.77628,-6.40171,-40.9817,Q,Q
2023-03-15 12:13:20:7,0,-6.13726,-6.38278,-40.8662,Q,Q
2023-03-15 12:13:20:17,0,-6.48206,-6.34578,-40.7615,Q,Q
2023-03-15 12:13:20:27,0,-6.8032,-6.29687,-40.6609,Q,Q
2023-03-15 12:13:20:37,0,-7.09948,-6.23723,-40.5636,Q,Q
2023-03-15 12:13:20:47,0,-7.3728,-6.17104,-40.4656,Q,Q
2023-03-15 12:13:20:57,0,-7.6354,-6.09921,-40.3635,Q,Q
2023-03-15 12:13:20:67,0,-7.89768,-6.03449,-40.2587,Q,Q
2023-03-15 12:13:20:77,0,-8.15623,-5.98528,-40.1548,Q,Q
2023-03-15 12:13:20:87,0,-8.39576,-5.94875,-40.0629,Q,Q
2023-03-15 12:13:20:97,0,-8.60589,-5.92004,-39.9849,Q,Q
2023-03-15 12:13:20:107,0,-8.77395,-5.8901,-39.9221,Q,Q
2023-03-15 12:13:20:117,0,-8.89389,-5.85969,-39.8762,Q,Q
2023-03-15 12:13:20:127,0,-8.9629,-5.82873,-39.8433,Q,Q
2023-03-15 12:13:20:137,0,-8.99045,-5.79033,-39.8173,Q,Q
2023-03-15 12:13:20:147,0,-8.99317,-5.75902,-39.7959,Q,Q
2023-03-15 12:13:20:157,0,-8.9846,-5.72457,-39.7702,Q,Q
2023-03-15 12:13:20:167,0,-8.97238,-5.68851,-39.7447,Q,Q
2023-03-15 12:13:20:177,0,-8.95978,-5.64831,-39.7178,Q,Q
2023-03-15 12:13:20:187,0,-8.96237,-5.61506,-39.6904,Q,Q
2023-03-15 12:13:20:197,0,-8.97981,-5.57652,-39.6566,Q,Q
2023-03-15 12:13:20:207,0,-9.01572,-5.54209,-39.6129,Q,Q
2023-03-15 12:13:20:217,0,-9.07857,-5.51095,-39.565,Q,Q
2023-03-15 12:13:20:227,0,-9.1585,-5.47822,-39.5106,Q,Q
2023-03-15 12:13:20:237,0,-9.25334,-5.45165,-39.4464,Q,Q
2023-03-15 12:13:20:247,0,-9.35295,-5.42689,-39.3772,Q,Q
2023-03-15 12:13:20:257,0,-9.45085,-5.39553,-39.3077,Q,Q
2023-03-15 12:13:20:267,0,-9.54552,-5.35181,-39.2378,Q,Q
2023-03-15 12:13:20:277,0,-9.64655,-5.30221,-39.1643,Q,Q
2023-03-15 12:13:20:287,0,-9.76288,-5.24079,-39.0918,Q,Q
2023-03-15 12:13:20:297,0,-9.90493,-5.16662,-39.0208,Q,Q
2023-03-15 12:13:20:307,0,-10.0663,-5.08279,-38.9579,Q,Q
2023-03-15 12:13:20:317,0,-10.2395,-4.99772,-38.9042,Q,Q
2023-03-15 12:13:20:327,0,-10.4153,-4.91279,-38.8647,Q,Q
2023-03-15 12:13:20:337,0,-10.5832,-4.82303,-38.8364,Q,Q
2023-03-15 12:13:20:347,0,-10.7388,-4.72664,-38.8264,Q,Q
2023-03-15 12:13:20:357,0,-10.8805,-4.63199,-38.8324,Q,Q
