Timestamp_cmd,imu_cmd,roll_delta,pitch_delta,yaw_delta
2023-03-11 20:14:02:755,0,0.0576677,-0.408755,87.3157
2023-03-11 20:14:02:763,0,0.0410453,-0.391061,87.2957
2023-03-11 20:14:02:773,0,0.0245865,-0.373815,87.2804
2023-03-11 20:14:02:783,0,0.00423266,-0.362032,87.2744
2023-03-11 20:14:02:793,0,-0.0151963,-0.35554,87.2729
2023-03-11 20:14:02:803,0,-0.0379003,-0.353566,87.2848
2023-03-11 20:14:02:813,0,-0.0523969,-0.356625,87.3031
2023-03-11 20:14:02:823,0,-0.0520253,-0.370367,87.3275
2023-03-11 20:14:02:833,0,-0.0409206,-0.386606,87.3603
2023-03-11 20:14:02:843,0,-0.0197702,-0.404016,87.3952
2023-03-11 20:14:02:853,0,0.00909581,-0.411056,87.4339
2023-03-11 20:14:02:863,0,0.0344094,-0.410843,87.4759
2023-03-11 20:14:02:873,0,0.0514662,-0.39278,87.5127
2023-03-11 20:14:02:883,0,0.0574452,-0.368707,87.5513
2023-03-11 20:14:02:893,0,0.0556393,-0.33824,87.5888
2023-03-11 20:14:02:903,0,0.0472586,-0.302329,87.6235
2023-03-11 20:14:02:913,0,0.0319655,-0.260496,87.6547
2023-03-11 20:14:02:923,0,0.0139403,-0.218327,87.6786
2023-03-11 20:14:02:933,0,-0.0080803,-0.174406,87.6974
2023-03-11 20:14:02:943,0,-0.0353131,-0.136816,87.711
2023-03-11 20:14:02:953,0,-0.0654998,-0.107289,87.7189
2023-03-11 20:14:02:963,0,-0.0944146,-0.0877209,87.7255
2023-03-11 20:14:02:973,0,-0.125361,-0.082745,87.7275
2023-03-11 20:14:02:984,0,-0.155622,-0.0881874,87.7251
2023-03-11 20:14:02:993,0,-0.194241,-0.103378,87.7256
2023-03-11 20:14:03:3,0,-0.233479,-0.129035,87.7279
2023-03-11 20:14:03:13,0,-0.279214,-0.160854,87.7367
2023-03-11 20:14:03:23,0,-0.317768,-0.203409,87.7477
2023-03-11 20:14:03:33,0,-0.351806,-0.254136,87.7643
2023-03-11 20:14:03:43,0,-0.381742,-0.3164,87.7872
2023-03-11 20:14:03:54,0,-0.402832,-0.384345,87.8177
2023-03-11 20:14:03:64,0,-0.415172,-0.453033,87.8475
2023-03-11 20:14:03:73,0,-0.41638,-0.521968,87.8774
2023-03-11 20:14:03:84,0,-0.411878,-0.581077,87.9095
2023-03-11 20:14:03:94,0,-0.397271,-0.636116,87.9374
2023-03-11 20:14:03:103,0,-0.37824,-0.680951,87.9624
2023-03-11 20:14:03:113,0,-0.349162,-0.720174,87.9806
2023-03-11 20:14:03:123,0,-0.31226,-0.76073,87.9973
2023-03-11 20:14:03:133,0,-0.274927,-0.793364,88.0096
2023-03-11 20:14:03:143,0,-0.237144,-0.816184,88.0136
2023-03-11 20:14:03:153,0,-0.200529,-0.832098,88.0137
2023-03-11 20:14:03:163,0,-0.16989,-0.836813,88.0068
2023-03-11 20:14:03:173,0,-0.139814,-0.835372,87.9927
2023-03-11 20:14:03:183,0,-0.118096,-0.826521,87.9782
2023-03-11 20:14:03:194,0,-0.0959751,-0.816399,87.9605
2023-03-11 20:14:03:203,0,-0.0739338,-0.79754,87.9394
2023-03-11 20:14:03:213,0,-0.0560847,-0.780613,87.919
2023-03-11 20:14:03:223,0,-0.0408772,-0.759364,87.8961
2023-03-11 20:14:03:234,0,-0.0274675,-0.736408,87.8782
2023-03-11 20:14:03:243,0,-0.0184149,-0.715714,87.8583
2023-03-11 20:14:03:253,0,-0.0107101,-0.696965,87.8435
2023-03-11 20:14:03:263,0,-0.0042985,-0.68468,87.8298
2023-03-11 20:14:03:273,0,-0.00831898,-0.673812,87.8169
2023-03-11 20:14:03:284,0,-0.0144449,-0.662407,87.8077
2023-03-11 20:14:03:293,0,-0.0256324,-0.6545,87.7969
2023-03-11 20:14:03:303,0,-0.0439294,-0.646603,87.7895
2023-03-11 20:14:03:313,0,-0.0636226,-0.635363,87.7836
2023-03-11 20:14:03:323,0,-0.0867359,-0.622787,87.7794
2023-03-11 20:14:03:333,0,-0.108057,-0.613451,87.775
2023-03-11 20:14:03:343,0,-0.132311,-0.601391,87.7761
2023-03-11 20:14:03:353,0,-0.157937,-0.595963,87.7834
2023-03-11 20:14:03:363,0,-0.181976,-0.589836,87.7927
2023-03-11 20:14:03:373,0,-0.206558,-0.577503,87.8032
2023-03-11 20:14:03:383,0,-0.226412,-0.568651,87.8129
2023-03-11 20:14:03:393,0,-0.24403,-0.553525,87.8229
2023-03-11 20:14:03:403,0,-0.261534,-0.543684,87.8293
2023-03-11 20:14:03:413,0,-0.276431,-0.531088,87.8333
2023-03-11 20:14:03:423,0,-0.289809,-0.515379,87.8368
2023-03-11 20:14:03:433,0,-0.298187,-0.501465,87.837
2023-03-11 20:14:03:443,0,-0.306826,-0.487245,87.8365
2023-03-11 20:14:03:453,0,-0.31288,-0.47419,87.834
2023-03-11 20:14:03:463,0,-0.3163,-0.463892,87.8282
2023-03-11 20:14:03:473,0,-0.321116,-0.458097,87.8212
2023-03-11 20:14:03:483,0,-0.326623,-0.45296,87.8175
2023-03-11 20:14:03:493,0,-0.325968,-0.451886,87.8177
2023-03-11 20:14:03:503,0,-0.327276,-0.453858,87.8174
2023-03-11 20:14:03:513,0,-0.332125,-0.452803,87.8153
2023-03-11 20:14:03:523,0,-0.336092,-0.452841,87.8184
2023-03-11 20:14:03:533,0,-0.338285,-0.45534,87.8183
2023-03-11 20:14:03:543,0,-0.341214,-0.454645,87.8203
2023-03-11 20:14:03:553,0,-0.341898,-0.457732,87.821
2023-03-11 20:14:03:563,0,-0.33856,-0.459865,87.8177
2023-03-11 20:14:03:573,0,-0.33455,-0.46067,87.8118
2023-03-11 20:14:03:583,0,-0.327351,-0.460503,87.7962
2023-03-11 20:14:03:594,0,-0.321376,-0.458039,87.7809
2023-03-11 20:14:03:603,0,-0.310223,-0.457419,87.7636
2023-03-11 20:14:03:613,0,-0.30131,-0.453656,87.742
2023-03-11 20:14:03:623,0,-0.295463,-0.451768,87.7266
2023-03-11 20:14:03:633,0,-0.292262,-0.445361,87.7116
2023-03-11 20:14:03:644,0,-0.291645,-0.439615,87.7042
2023-03-11 20:14:03:653,0,-0.292661,-0.430238,87.6964
2023-03-11 20:14:03:663,0,-0.295409,-0.413794,87.6882
2023-03-11 20:14:03:673,0,-0.296008,-0.391212,87.6855
2023-03-11 20:14:03:683,0,-0.301246,-0.367142,87.6793
2023-03-11 20:14:03:693,0,-0.301525,-0.346528,87.6736
2023-03-11 20:14:03:703,0,-0.307741,-0.331938,87.6652
2023-03-11 20:14:03:713,0,-0.311055,-0.330662,87.6648
2023-03-11 20:14:03:723,0,-0.32245,-0.342196,87.6794
2023-03-11 20:14:03:733,0,-0.339278,-0.361296,87.7025
2023-03-11 20:14:03:744,0,-0.357986,-0.388324,87.7353
2023-03-11 20:14:03:754,0,-0.379596,-0.426879,87.7782
2023-03-11 20:14:03:763,0,-0.397034,-0.468988,87.8245
2023-03-11 20:14:03:773,0,-0.415545,-0.516157,87.877
2023-03-11 20:14:03:783,0,-0.428312,-0.5608,87.9307
2023-03-11 20:14:03:794,0,-0.437252,-0.604957,87.9834
2023-03-11 20:14:03:803,0,-0.446563,-0.645157,88.0352
2023-03-11 20:14:03:813,0,-0.45455,-0.676078,88.0763
2023-03-11 20:14:03:823,0,-0.461876,-0.69981,88.1111
2023-03-11 20:14:03:833,0,-0.472423,-0.71922,88.1379
2023-03-11 20:14:03:843,0,-0.48641,-0.734889,88.1586
2023-03-11 20:14:03:853,0,-0.506952,-0.749785,88.1751
2023-03-11 20:14:03:863,0,-0.53792,-0.760928,88.1827
2023-03-11 20:14:03:873,0,-0.572752,-0.779564,88.1889
2023-03-11 20:14:03:883,0,-0.610025,-0.799508,88.1831
2023-03-11 20:14:03:893,0,-0.649786,-0.820118,88.1723
2023-03-11 20:14:03:903,0,-0.689157,-0.838447,88.1518
2023-03-11 20:14:03:913,0,-0.728634,-0.856838,88.1283
2023-03-11 20:14:03:923,0,-0.762267,-0.869155,88.0993
2023-03-11 20:14:03:933,0,-0.788916,-0.882,88.0694
2023-03-11 20:14:03:943,0,-0.802412,-0.897565,88.046
2023-03-11 20:14:03:953,0,-0.805289,-0.916502,88.0249
2023-03-11 20:14:03:963,0,-0.792419,-0.93471,88.0025
2023-03-11 20:14:03:973,0,-0.775746,-0.956025,87.9848
2023-03-11 20:14:03:983,0,-0.751174,-0.977279,87.9695
2023-03-11 20:14:03:993,0,-0.729326,-0.998513,87.9606
2023-03-11 20:14:04:3,0,-0.712571,-1.01818,87.9582
2023-03-11 20:14:04:13,0,-0.698116,-1.03744,87.96
2023-03-11 20:14:04:23,0,-0.691778,-1.05728,87.9663
2023-03-11 20:14:04:33,0,-0.687366,-1.07692,87.9755
2023-03-11 20:14:04:43,0,-0.686773,-1.09934,87.9834
2023-03-11 20:14:04:53,0,-0.68265,-1.1182,87.99
2023-03-11 20:14:04:63,0,-0.671893,-1.1388,87.9976
2023-03-11 20:14:04:73,0,-0.660536,-1.16233,88.002
2023-03-11 20:14:04:83,0,-0.644981,-1.18348,88.0038
2023-03-11 20:14:04:93,0,-0.628099,-1.20129,88.0021
2023-03-11 20:14:04:103,0,-0.613862,-1.21748,87.9944
2023-03-11 20:14:04:113,0,-0.598747,-1.23764,87.9851
2023-03-11 20:14:04:123,0,-0.581689,-1.2558,87.968
2023-03-11 20:14:04:133,0,-0.564577,-1.27571,87.9496
2023-03-11 20:14:04:143,0,-0.55032,-1.29065,87.9246
2023-03-11 20:14:04:153,0,-0.53725,-1.30817,87.8943
2023-03-11 20:14:04:163,0,-0.52497,-1.32943,87.8619
2023-03-11 20:14:04:173,0,-0.517647,-1.35286,87.8291
2023-03-11 20:14:04:183,0,-0.506811,-1.38027,87.798
2023-03-11 20:14:04:193,0,-0.499124,-1.40751,87.7687
2023-03-11 20:14:04:203,0,-0.492314,-1.43758,87.7393
2023-03-11 20:14:04:213,0,-0.493533,-1.46513,87.7126
2023-03-11 20:14:04:223,0,-0.496965,-1.49148,87.6884
2023-03-11 20:14:04:233,0,-0.499533,-1.5105,87.6676
2023-03-11 20:14:04:243,0,-0.501482,-1.52911,87.6462
2023-03-11 20:14:04:253,0,-0.507679,-1.54521,87.6218
2023-03-11 20:14:04:263,0,-0.512903,-1.55416,87.6017
2023-03-11 20:14:04:273,0,-0.514935,-1.56263,87.5765
2023-03-11 20:14:04:283,0,-0.518894,-1.56875,87.5527
2023-03-11 20:14:04:293,0,-0.518158,-1.57001,87.5266
2023-03-11 20:14:04:303,0,-0.509667,-1.57734,87.4993
2023-03-11 20:14:04:313,0,-0.501442,-1.5889,87.4687
2023-03-11 20:14:04:323,0,-0.495562,-1.6018,87.4459
2023-03-11 20:14:04:333,0,-0.493357,-1.61494,87.423
2023-03-11 20:14:04:343,0,-0.495367,-1.63009,87.3989
2023-03-11 20:14:04:353,0,-0.50019,-1.6387,87.3775
2023-03-11 20:14:04:363,0,-0.509733,-1.6466,87.3637
2023-03-11 20:14:04:374,0,-0.522546,-1.65733,87.3543
2023-03-11 20:14:04:384,0,-0.533735,-1.66502,87.3469
2023-03-11 20:14:04:394,0,-0.543602,-1.6726,87.3455
2023-03-11 20:14:04:403,0,-0.548651,-1.67045,87.3488
2023-03-11 20:14:04:413,0,-0.547999,-1.67093,87.3541
2023-03-11 20:14:04:423,0,-0.548792,-1.66781,87.3625
2023-03-11 20:14:04:433,0,-0.558201,-1.66564,87.3749
2023-03-11 20:14:04:443,0,-0.578082,-1.66477,87.3892
2023-03-11 20:14:04:453,0,-0.609369,-1.66764,87.413
2023-03-11 20:14:04:463,0,-0.653349,-1.6766,87.4376
2023-03-11 20:14:04:473,0,-0.708717,-1.68883,87.4661
2023-03-11 20:14:04:483,0,-0.760842,-1.70279,87.498
2023-03-11 20:14:04:493,0,-0.81269,-1.72417,87.5316
2023-03-11 20:14:04:503,0,-0.856721,-1.7518,87.5667
2023-03-11 20:14:04:513,0,-0.898455,-1.784,87.6076
2023-03-11 20:14:04:523,0,-0.932009,-1.814,87.6449
2023-03-11 20:14:04:534,0,-0.953859,-1.84001,87.6787
2023-03-11 20:14:04:543,0,-0.968928,-1.86026,87.7091
2023-03-11 20:14:04:553,0,-0.973825,-1.86935,87.7248
2023-03-11 20:14:04:563,0,-0.971465,-1.86329,87.7262
2023-03-11 20:14:04:573,0,-0.956291,-1.83749,87.721
2023-03-11 20:14:04:583,0,-0.942061,-1.79701,87.7064
2023-03-11 20:14:04:593,0,-0.938182,-1.74718,87.6863
2023-03-11 20:14:04:603,0,-0.946346,-1.69889,87.6656
2023-03-11 20:14:04:614,0,-0.969071,-1.6554,87.6487
2023-03-11 20:14:04:623,0,-0.993897,-1.6143,87.6302
2023-03-11 20:14:04:634,0,-1.01327,-1.56155,87.6005
2023-03-11 20:14:04:644,0,-1.02388,-1.50273,87.559
2023-03-11 20:14:04:654,0,-1.02041,-1.42958,87.5061
2023-03-11 20:14:04:663,0,-1.01171,-1.3434,87.4475
2023-03-11 20:14:04:674,0,-1.00907,-1.2548,87.3873
2023-03-11 20:14:04:684,0,-1.02617,-1.17282,87.3345
2023-03-11 20:14:04:694,0,-1.07072,-1.10309,87.2931
2023-03-11 20:14:04:704,0,-1.14217,-1.04897,87.2602
2023-03-11 20:14:04:714,0,-1.24015,-1.01454,87.2386
2023-03-11 20:14:04:723,0,-1.35109,-0.987386,87.2226
2023-03-11 20:14:04:734,0,-1.46577,-0.957787,87.2045
2023-03-11 20:14:04:743,0,-1.58137,-0.922237,87.1833
2023-03-11 20:14:04:754,0,-1.69818,-0.881824,87.1574
2023-03-11 20:14:04:763,0,-1.82387,-0.83908,87.1342
2023-03-11 20:14:04:774,0,-1.9648,-0.800266,87.1157
2023-03-11 20:14:04:783,0,-2.12943,-0.778593,87.1037
2023-03-11 20:14:04:793,0,-2.31697,-0.768553,87.0985
2023-03-11 20:14:04:804,0,-2.5246,-0.770017,87.1002
2023-03-11 20:14:04:814,0,-2.75319,-0.783552,87.1026
2023-03-11 20:14:04:824,0,-2.98095,-0.803497,87.1112
2023-03-11 20:14:04:834,0,-3.18705,-0.83118,87.1178
2023-03-11 20:14:04:844,0,-3.36921,-0.854982,87.1228
2023-03-11 20:14:04:854,0,-3.53224,-0.874587,87.1288
2023-03-11 20:14:04:863,0,-3.67859,-0.900774,87.1329
2023-03-11 20:14:04:873,0,-3.81477,-0.924966,87.1345
2023-03-11 20:14:04:884,0,-3.94492,-0.94844,87.1289
2023-03-11 20:14:04:894,0,-4.07042,-0.969486,87.1227
2023-03-11 20:14:04:903,0,-4.19222,-0.991182,87.1142
2023-03-11 20:14:04:914,0,-4.31509,-1.0139,87.106
2023-03-11 20:14:04:924,0,-4.43507,-1.03719,87.0988
2023-03-11 20:14:04:934,0,-4.54443,-1.06647,87.0897
2023-03-11 20:14:04:944,0,-4.63703,-1.10394,87.0795
2023-03-11 20:14:04:954,0,-4.71712,-1.15196,87.0727
2023-03-11 20:14:04:964,0,-4.79528,-1.20791,87.064
2023-03-11 20:14:04:974,0,-4.86904,-1.26282,87.0552
2023-03-11 20:14:04:984,0,-4.94054,-1.31273,87.0446
2023-03-11 20:14:04:994,0,-4.98917,-1.35744,87.0328
2023-03-11 20:14:05:3,0,-5.01934,-1.38598,87.021
2023-03-11 20:14:05:14,0,-5.03954,-1.40135,87.009
2023-03-11 20:14:05:23,0,-5.06238,-1.40273,86.9961
2023-03-11 20:14:05:33,0,-5.08642,-1.40138,86.9861
2023-03-11 20:14:05:43,0,-5.11256,-1.39518,86.9798
2023-03-11 20:14:05:54,0,-5.14566,-1.38373,86.9761
2023-03-11 20:14:05:63,0,-5.19709,-1.36985,86.98
2023-03-11 20:14:05:74,0,-5.25853,-1.35611,86.985
2023-03-11 20:14:05:84,0,-5.33138,-1.3513,86.9935
2023-03-11 20:14:05:93,0,-5.41415,-1.35379,87.0052
2023-03-11 20:14:05:103,0,-5.49368,-1.36007,87.0186
2023-03-11 20:14:05:114,0,-5.5625,-1.37278,87.0269
2023-03-11 20:14:05:124,0,-5.61649,-1.38687,87.038
2023-03-11 20:14:05:133,0,-5.6709,-1.39592,87.0434
2023-03-11 20:14:05:144,0,-5.73629,-1.41,87.05
2023-03-11 20:14:05:154,0,-5.81042,-1.43054,87.0582
2023-03-11 20:14:05:163,0,-5.89574,-1.45242,87.0642
2023-03-11 20:14:05:174,0,-5.98379,-1.47735,87.0672
2023-03-11 20:14:05:183,0,-6.06587,-1.49731,87.0689
2023-03-11 20:14:05:194,0,-6.13858,-1.51919,87.0669
2023-03-11 20:14:05:203,0,-6.20171,-1.53428,87.0625
2023-03-11 20:14:05:214,0,-6.25837,-1.54945,87.0563
2023-03-11 20:14:05:224,0,-6.31411,-1.56295,87.0518
2023-03-11 20:14:05:234,0,-6.37716,-1.57882,87.0458
2023-03-11 20:14:05:243,0,-6.45204,-1.59275,87.0426
2023-03-11 20:14:05:254,0,-6.53088,-1.60849,87.0335
2023-03-11 20:14:05:264,0,-6.6026,-1.62694,87.0258
2023-03-11 20:14:05:274,0,-6.66223,-1.64721,87.0192
2023-03-11 20:14:05:284,0,-6.72045,-1.6685,87.0088
2023-03-11 20:14:05:294,0,-6.77866,-1.69361,86.9954
2023-03-11 20:14:05:304,0,-6.83843,-1.72113,86.9808
2023-03-11 20:14:05:313,0,-6.89658,-1.74589,86.9622
2023-03-11 20:14:05:323,0,-6.94747,-1.77436,86.9465
2023-03-11 20:14:05:333,0,-6.99056,-1.79802,86.9289
2023-03-11 20:14:05:344,0,-7.02925,-1.81781,86.9201
2023-03-11 20:14:05:354,0,-7.07039,-1.83877,86.9129
2023-03-11 20:14:05:363,0,-7.11624,-1.8578,86.9094
2023-03-11 20:14:05:374,0,-7.16248,-1.87238,86.9101
2023-03-11 20:14:05:384,0,-7.20553,-1.885,86.9116
2023-03-11 20:14:05:394,0,-7.24409,-1.89081,86.917
2023-03-11 20:14:05:404,0,-7.28929,-1.89265,86.9252
2023-03-11 20:14:05:414,0,-7.33555,-1.89492,86.9353
2023-03-11 20:14:05:424,0,-7.39161,-1.89848,86.9492
2023-03-11 20:14:05:434,0,-7.44737,-1.90454,86.9684
2023-03-11 20:14:05:444,0,-7.50075,-1.91224,86.9877
2023-03-11 20:14:05:454,0,-7.54592,-1.91933,87.0113
2023-03-11 20:14:05:464,0,-7.58756,-1.92687,87.0414
2023-03-11 20:14:05:474,0,-7.63319,-1.93088,87.0726
2023-03-11 20:14:05:484,0,-7.6731,-1.93235,87.1016
2023-03-11 20:14:05:494,0,-7.70787,-1.93217,87.1342
2023-03-11 20:14:05:504,0,-7.74222,-1.9245,87.1668
2023-03-11 20:14:05:514,0,-7.78056,-1.91499,87.1957
2023-03-11 20:14:05:524,0,-7.82331,-1.90294,87.2237
2023-03-11 20:14:05:533,0,-7.86919,-1.89356,87.2484
2023-03-11 20:14:05:544,0,-7.91194,-1.8871,87.2744
2023-03-11 20:14:05:554,0,-7.9506,-1.88698,87.2978
2023-03-11 20:14:05:564,0,-7.99125,-1.88399,87.3196
2023-03-11 20:14:05:574,0,-8.03619,-1.88039,87.3389
2023-03-11 20:14:05:583,0,-8.09238,-1.87519,87.3568
2023-03-11 20:14:05:593,0,-8.15557,-1.87109,87.3681
2023-03-11 20:14:05:603,0,-8.22474,-1.86422,87.3792
2023-03-11 20:14:05:613,0,-8.29696,-1.86125,87.3913
2023-03-11 20:14:05:623,0,-8.36704,-1.86241,87.4044
2023-03-11 20:14:05:633,0,-8.42626,-1.86096,87.4126
2023-03-11 20:14:05:644,0,-8.46984,-1.85714,87.4185
2023-03-11 20:14:05:654,0,-8.5011,-1.85232,87.4213
2023-03-11 20:14:05:663,0,-8.52526,-1.84694,87.4265
2023-03-11 20:14:05:674,0,-8.54953,-1.83722,87.4274
2023-03-11 20:14:05:684,0,-8.57701,-1.83369,87.4263
2023-03-11 20:14:05:694,0,-8.60439,-1.83379,87.4284
2023-03-11 20:14:05:704,0,-8.62809,-1.83096,87.4287
2023-03-11 20:14:05:714,0,-8.6537,-1.82734,87.425
2023-03-11 20:14:05:724,0,-8.67644,-1.82906,87.4202
2023-03-11 20:14:05:734,0,-8.69835,-1.83171,87.4172
2023-03-11 20:14:05:744,0,-8.7139,-1.83203,87.4084
2023-03-11 20:14:05:753,0,-8.72659,-1.82576,87.3936
2023-03-11 20:14:05:763,0,-8.73589,-1.81757,87.3759
2023-03-11 20:14:05:773,0,-8.74677,-1.81246,87.3549
2023-03-11 20:14:05:784,0,-8.75439,-1.80626,87.3359
2023-03-11 20:14:05:794,0,-8.76045,-1.80239,87.3147
2023-03-11 20:14:05:804,0,-8.76622,-1.8012,87.2982
2023-03-11 20:14:05:814,0,-8.77561,-1.8012,87.2806
2023-03-11 20:14:05:824,0,-8.79104,-1.7995,87.2662
2023-03-11 20:14:05:834,0,-8.8068,-1.80209,87.254
2023-03-11 20:14:05:844,0,-8.8161,-1.80303,87.2438
2023-03-11 20:14:05:854,0,-8.8177,-1.80192,87.2383
2023-03-11 20:14:05:863,0,-8.81541,-1.80545,87.2315
2023-03-11 20:14:05:874,0,-8.80672,-1.80934,87.2283
2023-03-11 20:14:05:883,0,-8.79899,-1.81533,87.2258
2023-03-11 20:14:05:894,0,-8.79332,-1.82606,87.2278
2023-03-11 20:14:05:904,0,-8.79466,-1.83521,87.2323
2023-03-11 20:14:05:914,0,-8.79827,-1.8472,87.2371
2023-03-11 20:14:05:924,0,-8.79381,-1.85639,87.2422
2023-03-11 20:14:05:933,0,-8.78025,-1.869,87.2535
2023-03-11 20:14:05:944,0,-8.76378,-1.87846,87.2602
2023-03-11 20:14:05:954,0,-8.74115,-1.88143,87.2723
2023-03-11 20:14:05:964,0,-8.72048,-1.88832,87.2832
2023-03-11 20:14:05:974,0,-8.70129,-1.88834,87.2976
2023-03-11 20:14:05:984,0,-8.68154,-1.89002,87.312
2023-03-11 20:14:05:994,0,-8.65749,-1.88629,87.3221
2023-03-11 20:14:06:3,0,-8.62045,-1.88467,87.3321
2023-03-11 20:14:06:14,0,-8.57138,-1.88464,87.3357
2023-03-11 20:14:06:24,0,-8.51383,-1.88215,87.3414
2023-03-11 20:14:06:34,0,-8.45162,-1.8775,87.3405
2023-03-11 20:14:06:43,0,-8.38726,-1.87652,87.3421
2023-03-11 20:14:06:54,0,-8.31663,-1.87616,87.3504
2023-03-11 20:14:06:64,0,-8.24433,-1.8765,87.3603
2023-03-11 20:14:06:73,0,-8.16718,-1.87824,87.3687
2023-03-11 20:14:06:84,0,-8.08914,-1.88766,87.3816
2023-03-11 20:14:06:94,0,-8.00733,-1.89404,87.3951
2023-03-11 20:14:06:103,0,-7.92299,-1.90398,87.4074
2023-03-11 20:14:06:114,0,-7.83664,-1.91179,87.4269
2023-03-11 20:14:06:123,0,-7.74512,-1.92074,87.4513
2023-03-11 20:14:06:133,0,-7.64949,-1.93366,87.4792
2023-03-11 20:14:06:144,0,-7.55272,-1.94485,87.5062
2023-03-11 20:14:06:154,0,-7.45647,-1.95429,87.5311
2023-03-11 20:14:06:164,0,-7.35475,-1.96448,87.5534
2023-03-11 20:14:06:174,0,-7.25681,-1.978,87.5794
2023-03-11 20:14:06:184,0,-7.15739,-1.99549,87.6044
2023-03-11 20:14:06:194,0,-7.06243,-2.01169,87.6288
2023-03-11 20:14:06:204,0,-6.97506,-2.03217,87.6522
2023-03-11 20:14:06:214,0,-6.89156,-2.05106,87.674
2023-03-11 20:14:06:223,0,-6.81343,-2.06809,87.6933
2023-03-11 20:14:06:234,0,-6.74544,-2.0851,87.7075
2023-03-11 20:14:06:244,0,-6.67922,-2.10711,87.7199
2023-03-11 20:14:06:254,0,-6.60573,-2.13405,87.725
2023-03-11 20:14:06:264,0,-6.52757,-2.1597,87.72
2023-03-11 20:14:06:274,0,-6.43649,-2.17996,87.713
2023-03-11 20:14:06:284,0,-6.34997,-2.19657,87.702
2023-03-11 20:14:06:294,0,-6.27732,-2.21421,87.6921
2023-03-11 20:14:06:304,0,-6.19768,-2.23194,87.6822
2023-03-11 20:14:06:314,0,-6.11042,-2.24863,87.6704
2023-03-11 20:14:06:324,0,-6.01529,-2.25614,87.654
2023-03-11 20:14:06:334,0,-5.92431,-2.25782,87.6362
2023-03-11 20:14:06:344,0,-5.85172,-2.26062,87.6213
2023-03-11 20:14:06:354,0,-5.79605,-2.26028,87.6126
2023-03-11 20:14:06:363,0,-5.74805,-2.26212,87.6104
2023-03-11 20:14:06:373,0,-5.70846,-2.26706,87.6122
2023-03-11 20:14:06:384,0,-5.66714,-2.26878,87.619
2023-03-11 20:14:06:394,0,-5.6137,-2.26835,87.6246
2023-03-11 20:14:06:404,0,-5.53898,-2.26226,87.6304
2023-03-11 20:14:06:414,0,-5.4531,-2.25589,87.6393
2023-03-11 20:14:06:424,0,-5.36992,-2.25076,87.6502
2023-03-11 20:14:06:434,0,-5.28973,-2.24682,87.6629
2023-03-11 20:14:06:444,0,-5.21425,-2.23891,87.6767
2023-03-11 20:14:06:454,0,-5.14036,-2.23496,87.7002
2023-03-11 20:14:06:464,0,-5.06009,-2.22617,87.723
2023-03-11 20:14:06:474,0,-4.97664,-2.22252,87.7542
2023-03-11 20:14:06:484,0,-4.90015,-2.22109,87.7901
2023-03-11 20:14:06:497,0,-4.82813,-2.21734,87.825
2023-03-11 20:14:06:504,0,-4.76117,-2.21636,87.867
2023-03-11 20:14:06:514,0,-4.70002,-2.21944,87.9061
2023-03-11 20:14:06:524,0,-4.64125,-2.22319,87.9418
2023-03-11 20:14:06:534,0,-4.59078,-2.22818,87.9772
2023-03-11 20:14:06:544,0,-4.54621,-2.23995,88.0104
2023-03-11 20:14:06:554,0,-4.50746,-2.25662,88.0374
2023-03-11 20:14:06:563,0,-4.47921,-2.27756,88.0636
2023-03-11 20:14:06:574,0,-4.45507,-2.29893,88.0866
2023-03-11 20:14:06:584,0,-4.43624,-2.32268,88.1085
2023-03-11 20:14:06:593,0,-4.4163,-2.34162,88.1263
2023-03-11 20:14:06:603,0,-4.40416,-2.36515,88.14
2023-03-11 20:14:06:613,0,-4.40032,-2.38768,88.1545
2023-03-11 20:14:06:623,0,-4.39935,-2.40822,88.1621
2023-03-11 20:14:06:633,0,-4.3965,-2.42559,88.1668
2023-03-11 20:14:06:643,0,-4.39586,-2.43781,88.1692
2023-03-11 20:14:06:653,0,-4.40515,-2.44418,88.1753
2023-03-11 20:14:06:663,0,-4.4105,-2.44964,88.179
2023-03-11 20:14:06:673,0,-4.41711,-2.45593,88.1843
2023-03-11 20:14:06:683,0,-4.42283,-2.46117,88.197
2023-03-11 20:14:06:693,0,-4.42874,-2.46844,88.2104
2023-03-11 20:14:06:704,0,-4.43891,-2.46386,88.2309
2023-03-11 20:14:06:714,0,-4.45256,-2.46338,88.2541
2023-03-11 20:14:06:724,0,-4.4693,-2.45668,88.2764
2023-03-11 20:14:06:734,0,-4.48644,-2.45256,88.2946
2023-03-11 20:14:06:744,0,-4.49936,-2.44228,88.3007
2023-03-11 20:14:06:754,0,-4.49921,-2.43136,88.2921
2023-03-11 20:14:06:763,0,-4.4878,-2.42227,88.273
2023-03-11 20:14:06:774,0,-4.47364,-2.41194,88.2417
2023-03-11 20:14:06:784,0,-4.45688,-2.40391,88.2024
2023-03-11 20:14:06:794,0,-4.446,-2.39949,88.1628
2023-03-11 20:14:06:804,0,-4.43938,-2.39273,88.1182
2023-03-11 20:14:06:813,0,-4.43237,-2.38656,88.0724
2023-03-11 20:14:06:823,0,-4.4182,-2.38609,88.0278
2023-03-11 20:14:06:834,0,-4.40602,-2.39577,87.9918
2023-03-11 20:14:06:844,0,-4.39236,-2.41083,87.9642
2023-03-11 20:14:06:854,0,-4.38183,-2.42406,87.9388
2023-03-11 20:14:06:864,0,-4.3737,-2.43874,87.9193
2023-03-11 20:14:06:874,0,-4.36288,-2.45613,87.9069
2023-03-11 20:14:06:884,0,-4.35224,-2.47082,87.9028
2023-03-11 20:14:06:894,0,-4.34419,-2.48315,87.9081
2023-03-11 20:14:06:903,0,-4.33969,-2.49597,87.9171
2023-03-11 20:14:06:914,0,-4.33194,-2.50084,87.9311
2023-03-11 20:14:06:923,0,-4.32023,-2.50091,87.9416
2023-03-11 20:14:06:934,0,-4.31009,-2.49829,87.9497
2023-03-11 20:14:06:943,0,-4.30317,-2.49626,87.956
2023-03-11 20:14:06:954,0,-4.29504,-2.49185,87.9634
2023-03-11 20:14:06:963,0,-4.28975,-2.48905,87.9704
2023-03-11 20:14:06:974,0,-4.28356,-2.47547,87.9713
2023-03-11 20:14:06:984,0,-4.28124,-2.46074,87.9718
2023-03-11 20:14:06:994,0,-4.28698,-2.44015,87.9701
2023-03-11 20:14:07:4,0,-4.29308,-2.41496,87.9654
2023-03-11 20:14:07:14,0,-4.30497,-2.3914,87.963
2023-03-11 20:14:07:24,0,-4.31423,-2.36699,87.9601
2023-03-11 20:14:07:34,0,-4.32327,-2.34221,87.9604
2023-03-11 20:14:07:43,0,-4.3345,-2.3168,87.9589
2023-03-11 20:14:07:54,0,-4.34454,-2.29297,87.9553
2023-03-11 20:14:07:64,0,-4.35532,-2.2684,87.9548
2023-03-11 20:14:07:74,0,-4.36618,-2.24946,87.9544
2023-03-11 20:14:07:84,0,-4.38237,-2.23688,87.9603
2023-03-11 20:14:07:94,0,-4.40404,-2.22772,87.9693
2023-03-11 20:14:07:104,0,-4.43262,-2.22384,87.983
2023-03-11 20:14:07:114,0,-4.46689,-2.21835,87.9978
2023-03-11 20:14:07:124,0,-4.49918,-2.216,88.0169
2023-03-11 20:14:07:134,0,-4.525,-2.2159,88.0359
2023-03-11 20:14:07:144,0,-4.54441,-2.21494,88.0526
2023-03-11 20:14:07:154,0,-4.56497,-2.21001,88.0642
2023-03-11 20:14:07:163,0,-4.5856,-2.20688,88.0731
2023-03-11 20:14:07:173,0,-4.60669,-2.20207,88.0762
2023-03-11 20:14:07:183,0,-4.6301,-2.20307,88.0787
2023-03-11 20:14:07:194,0,-4.65909,-2.20342,88.0844
2023-03-11 20:14:07:203,0,-4.687,-2.20447,88.0945
2023-03-11 20:14:07:214,0,-4.70599,-2.206,88.1053
2023-03-11 20:14:07:223,0,-4.71831,-2.2032,88.1184
2023-03-11 20:14:07:233,0,-4.71907,-2.1903,88.1247
2023-03-11 20:14:07:244,0,-4.71034,-2.16536,88.1245
2023-03-11 20:14:07:254,0,-4.69434,-2.13239,88.1192
2023-03-11 20:14:07:264,0,-4.67539,-2.09097,88.1101
2023-03-11 20:14:07:274,0,-4.65878,-2.04617,88.1007
2023-03-11 20:14:07:284,0,-4.65061,-2.00192,88.0899
2023-03-11 20:14:07:294,0,-4.65035,-1.95711,88.0723
2023-03-11 20:14:07:304,0,-4.65297,-1.91896,88.0525
2023-03-11 20:14:07:314,0,-4.66311,-1.88718,88.0355
2023-03-11 20:14:07:323,0,-4.68171,-1.86348,88.0199
2023-03-11 20:14:07:333,0,-4.70495,-1.84786,88.0055
2023-03-11 20:14:07:343,0,-4.73187,-1.8381,87.9827
2023-03-11 20:14:07:353,0,-4.75527,-1.82693,87.9573
2023-03-11 20:14:07:363,0,-4.77215,-1.82146,87.9276
2023-03-11 20:14:07:373,0,-4.78589,-1.82095,87.8953
2023-03-11 20:14:07:383,0,-4.80044,-1.82779,87.8602
2023-03-11 20:14:07:394,0,-4.81565,-1.83803,87.8248
2023-03-11 20:14:07:404,0,-4.83495,-1.85139,87.7916
2023-03-11 20:14:07:413,0,-4.85896,-1.86977,87.7593
2023-03-11 20:14:07:423,0,-4.88308,-1.88879,87.7313
2023-03-11 20:14:07:434,0,-4.90503,-1.9059,87.7029
2023-03-11 20:14:07:444,0,-4.9286,-1.92405,87.6806
2023-03-11 20:14:07:454,0,-4.9545,-1.93723,87.6629
2023-03-11 20:14:07:463,0,-4.98105,-1.94867,87.6498
2023-03-11 20:14:07:473,0,-5.01375,-1.96279,87.645
2023-03-11 20:14:07:483,0,-5.03761,-1.97598,87.6454
2023-03-11 20:14:07:494,0,-5.05832,-1.98657,87.6489
2023-03-11 20:14:07:503,0,-5.07631,-1.99178,87.657
2023-03-11 20:14:07:513,0,-5.0894,-1.98841,87.6692
2023-03-11 20:14:07:523,0,-5.09616,-1.98423,87.6808
2023-03-11 20:14:07:534,0,-5.09257,-1.98487,87.6879
2023-03-11 20:14:07:544,0,-5.08603,-1.9884,87.7037
2023-03-11 20:14:07:554,0,-5.08023,-1.99686,87.7204
2023-03-11 20:14:07:564,0,-5.0722,-2.00583,87.7452
2023-03-11 20:14:07:574,0,-5.06972,-2.01636,87.7714
2023-03-11 20:14:07:584,0,-5.06864,-2.02359,87.8018
2023-03-11 20:14:07:594,0,-5.06858,-2.03766,87.8317
2023-03-11 20:14:07:604,0,-5.06476,-2.05456,87.8625
2023-03-11 20:14:07:613,0,-5.05936,-2.07246,87.8948
2023-03-11 20:14:07:623,0,-5.04998,-2.09158,87.9251
2023-03-11 20:14:07:633,0,-5.03693,-2.10952,87.9541
2023-03-11 20:14:07:643,0,-5.02856,-2.12867,87.9813
2023-03-11 20:14:07:654,0,-5.02346,-2.15156,88.0049
2023-03-11 20:14:07:663,0,-5.01776,-2.17295,88.0297
2023-03-11 20:14:07:673,0,-5.01173,-2.19095,88.0544
2023-03-11 20:14:07:684,0,-5.00838,-2.20958,88.0763
2023-03-11 20:14:07:694,0,-5.01111,-2.22469,88.0919
2023-03-11 20:14:07:704,0,-5.01681,-2.24135,88.1106
2023-03-11 20:14:07:713,0,-5.02574,-2.25661,88.1265
2023-03-11 20:14:07:723,0,-5.02862,-2.27199,88.1417
2023-03-11 20:14:07:734,0,-5.03261,-2.28615,88.1585
2023-03-11 20:14:07:743,0,-5.03406,-2.3007,88.1728
2023-03-11 20:14:07:753,0,-5.04046,-2.312,88.19
2023-03-11 20:14:07:763,0,-5.03991,-2.32269,88.2012
2023-03-11 20:14:07:773,0,-5.03841,-2.33516,88.2142
2023-03-11 20:14:07:783,0,-5.03556,-2.35131,88.2239
2023-03-11 20:14:07:794,0,-5.0312,-2.36613,88.2311
2023-03-11 20:14:07:803,0,-5.02107,-2.38093,88.2328
2023-03-11 20:14:07:814,0,-5.01182,-2.39025,88.2325
2023-03-11 20:14:07:824,0,-4.99756,-2.39271,88.2266
2023-03-11 20:14:07:834,0,-4.97817,-2.39147,88.2155
2023-03-11 20:14:07:844,0,-4.95931,-2.39058,88.1997
2023-03-11 20:14:07:854,0,-4.937,-2.3888,88.181
2023-03-11 20:14:07:863,0,-4.91497,-2.38401,88.1654
2023-03-11 20:14:07:873,0,-4.90086,-2.38384,88.1549
2023-03-11 20:14:07:883,0,-4.88972,-2.38202,88.1489
2023-03-11 20:14:07:893,0,-4.8787,-2.38043,88.1429
2023-03-11 20:14:07:904,0,-4.86168,-2.38047,88.1403
2023-03-11 20:14:07:914,0,-4.84088,-2.3826,88.1332
2023-03-11 20:14:07:924,0,-4.82076,-2.38887,88.1303
2023-03-11 20:14:07:934,0,-4.79523,-2.40637,88.1233
2023-03-11 20:14:07:944,0,-4.76579,-2.42296,88.1096
2023-03-11 20:14:07:954,0,-4.73387,-2.43934,88.0915
2023-03-11 20:14:07:963,0,-4.70716,-2.4489,88.0724
2023-03-11 20:14:07:974,0,-4.68884,-2.44663,88.0522
2023-03-11 20:14:07:983,0,-4.68044,-2.42751,88.0325
2023-03-11 20:14:07:994,0,-4.67426,-2.3872,88.0066
2023-03-11 20:14:08:4,0,-4.66991,-2.33031,87.9745
2023-03-11 20:14:08:14,0,-4.65502,-2.268,87.9343
2023-03-11 20:14:08:23,0,-4.63035,-2.19805,87.8868
2023-03-11 20:14:08:33,0,-4.59689,-2.11877,87.8249
2023-03-11 20:14:08:44,0,-4.56618,-2.04574,87.7601
2023-03-11 20:14:08:54,0,-4.53806,-1.9839,87.6984
2023-03-11 20:14:08:63,0,-4.51806,-1.93827,87.642
2023-03-11 20:14:08:74,0,-4.50444,-1.89956,87.5928
2023-03-11 20:14:08:84,0,-4.4987,-1.87618,87.551
2023-03-11 20:14:08:94,0,-4.49777,-1.85875,87.5176
2023-03-11 20:14:08:104,0,-4.49561,-1.84722,87.4878
2023-03-11 20:14:08:114,0,-4.49797,-1.83753,87.4602
2023-03-11 20:14:08:123,0,-4.49383,-1.83177,87.4318
2023-03-11 20:14:08:133,0,-4.49123,-1.82704,87.4104
2023-03-11 20:14:08:143,0,-4.49556,-1.82029,87.3947
2023-03-11 20:14:08:154,0,-4.5031,-1.81417,87.3841
2023-03-11 20:14:08:164,0,-4.51319,-1.81129,87.3774
2023-03-11 20:14:08:174,0,-4.52863,-1.80484,87.3795
2023-03-11 20:14:08:183,0,-4.54811,-1.80246,87.3888
2023-03-11 20:14:08:193,0,-4.56932,-1.80039,87.4059
2023-03-11 20:14:08:204,0,-4.58507,-1.79648,87.4295
2023-03-11 20:14:08:214,0,-4.58485,-1.78441,87.4582
2023-03-11 20:14:08:224,0,-4.58021,-1.76554,87.4893
2023-03-11 20:14:08:234,0,-4.5621,-1.74777,87.5241
2023-03-11 20:14:08:244,0,-4.53789,-1.72967,87.5622
2023-03-11 20:14:08:253,0,-4.5037,-1.71271,87.596
2023-03-11 20:14:08:263,0,-4.46344,-1.69459,87.6305
2023-03-11 20:14:08:274,0,-4.41669,-1.68871,87.6681
2023-03-11 20:14:08:284,0,-4.36975,-1.69033,87.7045
2023-03-11 20:14:08:294,0,-4.32781,-1.69016,87.7369
2023-03-11 20:14:08:304,0,-4.28272,-1.69987,87.7666
2023-03-11 20:14:08:314,0,-4.23442,-1.71799,87.7943
2023-03-11 20:14:08:324,0,-4.18239,-1.74455,87.8251
2023-03-11 20:14:08:334,0,-4.13235,-1.77825,87.8572
2023-03-11 20:14:08:344,0,-4.08679,-1.81723,87.8973
2023-03-11 20:14:08:353,0,-4.04599,-1.86069,87.9439
2023-03-11 20:14:08:364,0,-4.01203,-1.90644,87.9945
2023-03-11 20:14:08:374,0,-3.9883,-1.95509,88.0529
2023-03-11 20:14:08:383,0,-3.97766,-2.0032,88.1115
2023-03-11 20:14:08:393,0,-3.97334,-2.04912,88.1746
2023-03-11 20:14:08:404,0,-3.97244,-2.08404,88.2326
2023-03-11 20:14:08:414,0,-3.96296,-2.11351,88.2867
2023-03-11 20:14:08:424,0,-3.94201,-2.13855,88.3351
2023-03-11 20:14:08:434,0,-3.90754,-2.15882,88.3709
2023-03-11 20:14:08:444,0,-3.86786,-2.17405,88.3993
2023-03-11 20:14:08:454,0,-3.82127,-2.18525,88.4224
2023-03-11 20:14:08:463,0,-3.77759,-2.19688,88.4351
2023-03-11 20:14:08:474,0,-3.74089,-2.2059,88.4369
2023-03-11 20:14:08:483,0,-3.70913,-2.21887,88.4313
2023-03-11 20:14:08:494,0,-3.68215,-2.22622,88.4131
2023-03-11 20:14:08:503,0,-3.64885,-2.22451,88.3769
2023-03-11 20:14:08:514,0,-3.61801,-2.21978,88.3263
2023-03-11 20:14:08:523,0,-3.58854,-2.21168,88.2791
2023-03-11 20:14:08:534,0,-3.55823,-2.20106,88.2293
2023-03-11 20:14:08:544,0,-3.53008,-2.1925,88.1819
2023-03-11 20:14:08:554,0,-3.49678,-2.18927,88.1423
2023-03-11 20:14:08:564,0,-3.45936,-2.19765,88.1203
2023-03-11 20:14:08:574,0,-3.4329,-2.2197,88.1176
2023-03-11 20:14:08:584,0,-3.4122,-2.24461,88.1254
2023-03-11 20:14:08:594,0,-3.39931,-2.27264,88.1386
2023-03-11 20:14:08:604,0,-3.3942,-2.30227,88.1587
2023-03-11 20:14:08:613,0,-3.40594,-2.33343,88.1821
2023-03-11 20:14:08:623,0,-3.43201,-2.36174,88.2125
2023-03-11 20:14:08:634,0,-3.47394,-2.38578,88.2429
2023-03-11 20:14:08:643,0,-3.5206,-2.40191,88.2758
2023-03-11 20:14:08:653,0,-3.57418,-2.41423,88.3126
2023-03-11 20:14:08:663,0,-3.62492,-2.42387,88.3531
2023-03-11 20:14:08:673,0,-3.66441,-2.43495,88.4039
2023-03-11 20:14:08:683,0,-3.68852,-2.44534,88.4609
2023-03-11 20:14:08:693,0,-3.69637,-2.45615,88.5252
2023-03-11 20:14:08:703,0,-3.68993,-2.46885,88.599
2023-03-11 20:14:08:713,0,-3.6789,-2.48113,88.6811
2023-03-11 20:14:08:723,0,-3.657,-2.49147,88.7694
2023-03-11 20:14:08:734,0,-3.63011,-2.5026,88.8577
2023-03-11 20:14:08:744,0,-3.60452,-2.5174,88.9462
2023-03-11 20:14:08:754,0,-3.58288,-2.52681,89.0292
2023-03-11 20:14:08:764,0,-3.56782,-2.53725,89.1028
2023-03-11 20:14:08:774,0,-3.5587,-2.54674,89.1591
2023-03-11 20:14:08:784,0,-3.55566,-2.55019,89.1961
2023-03-11 20:14:08:794,0,-3.56347,-2.54481,89.2136
2023-03-11 20:14:08:804,0,-3.57026,-2.54127,89.2158
2023-03-11 20:14:08:814,0,-3.57588,-2.5331,89.1982
2023-03-11 20:14:08:824,0,-3.57502,-2.52264,89.1701
2023-03-11 20:14:08:834,0,-3.57534,-2.51007,89.1384
2023-03-11 20:14:08:844,0,-3.57115,-2.4983,89.1085
2023-03-11 20:14:08:854,0,-3.56457,-2.48897,89.0847
2023-03-11 20:14:08:864,0,-3.5581,-2.48305,89.0661
2023-03-11 20:14:08:874,0,-3.54938,-2.47491,89.0547
2023-03-11 20:14:08:884,0,-3.54144,-2.47203,89.0493
2023-03-11 20:14:08:893,0,-3.5319,-2.47483,89.0535
2023-03-11 20:14:08:903,0,-3.51595,-2.47896,89.0608
2023-03-11 20:14:08:913,0,-3.50133,-2.48321,89.0743
2023-03-11 20:14:08:923,0,-3.48873,-2.48736,89.0831
2023-03-11 20:14:08:934,0,-3.4778,-2.49362,89.0906
2023-03-11 20:14:08:943,0,-3.46803,-2.5034,89.0976
2023-03-11 20:14:08:954,0,-3.45799,-2.50702,89.1022
2023-03-11 20:14:08:963,0,-3.45308,-2.51409,89.1109
2023-03-11 20:14:08:973,0,-3.45087,-2.519,89.1181
2023-03-11 20:14:08:984,0,-3.45526,-2.52068,89.1247
2023-03-11 20:14:08:993,0,-3.45985,-2.52366,89.1338
2023-03-11 20:14:09:3,0,-3.45395,-2.51922,89.1461
2023-03-11 20:14:09:13,0,-3.43679,-2.51018,89.1599
2023-03-11 20:14:09:23,0,-3.4089,-2.49781,89.1738
2023-03-11 20:14:09:33,0,-3.3685,-2.48644,89.1864
2023-03-11 20:14:09:43,0,-3.32609,-2.47259,89.2
2023-03-11 20:14:09:53,0,-3.28098,-2.46025,89.2144
2023-03-11 20:14:09:64,0,-3.23884,-2.4459,89.2288
2023-03-11 20:14:09:74,0,-3.20313,-2.43185,89.2495
2023-03-11 20:14:09:84,0,-3.17061,-2.41361,89.2714
2023-03-11 20:14:09:94,0,-3.13955,-2.39534,89.296
2023-03-11 20:14:09:104,0,-3.1107,-2.38213,89.3212
2023-03-11 20:14:09:114,0,-3.08541,-2.37433,89.3539
2023-03-11 20:14:09:123,0,-3.0618,-2.37141,89.3899
2023-03-11 20:14:09:134,0,-3.0447,-2.3702,89.4302
2023-03-11 20:14:09:143,0,-3.02782,-2.36785,89.4693
2023-03-11 20:14:09:154,0,-3.01122,-2.36296,89.5031
2023-03-11 20:14:09:164,0,-2.99938,-2.35672,89.5347
2023-03-11 20:14:09:174,0,-2.9837,-2.34624,89.5643
2023-03-11 20:14:09:184,0,-2.97284,-2.32641,89.5786
2023-03-11 20:14:09:194,0,-2.96676,-2.30255,89.5873
2023-03-11 20:14:09:204,0,-2.9629,-2.27466,89.5874
2023-03-11 20:14:09:214,0,-2.96153,-2.24374,89.5831
2023-03-11 20:14:09:223,0,-2.96175,-2.21016,89.5765
2023-03-11 20:14:09:234,0,-2.96395,-2.17474,89.5699
2023-03-11 20:14:09:243,0,-2.96679,-2.14048,89.5657
2023-03-11 20:14:09:254,0,-2.96473,-2.10184,89.556
2023-03-11 20:14:09:264,0,-2.96192,-2.06622,89.5445
2023-03-11 20:14:09:273,0,-2.95511,-2.03288,89.5349
2023-03-11 20:14:09:284,0,-2.94394,-2.00965,89.5334
2023-03-11 20:14:09:294,0,-2.93315,-1.99636,89.5451
2023-03-11 20:14:09:304,0,-2.92312,-1.99071,89.5652
2023-03-11 20:14:09:313,0,-2.9104,-1.99842,89.6049
2023-03-11 20:14:09:323,0,-2.8941,-2.01148,89.6562
2023-03-11 20:14:09:334,0,-2.87475,-2.02489,89.715
2023-03-11 20:14:09:344,0,-2.84995,-2.03632,89.7799
2023-03-11 20:14:09:354,0,-2.81993,-2.04818,89.8458
2023-03-11 20:14:09:364,0,-2.79613,-2.05055,89.9139
2023-03-11 20:14:09:374,0,-2.77241,-2.05358,89.9865
2023-03-11 20:14:09:384,0,-2.74734,-2.05717,90.0601
2023-03-11 20:14:09:394,0,-2.71813,-2.05938,90.1278
2023-03-11 20:14:09:403,0,-2.69205,-2.06137,90.1865
2023-03-11 20:14:09:413,0,-2.67201,-2.05803,90.2323
2023-03-11 20:14:09:424,0,-2.65992,-2.04833,90.2749
2023-03-11 20:14:09:434,0,-2.66142,-2.02837,90.3067
2023-03-11 20:14:09:444,0,-2.67484,-2.00072,90.3275
2023-03-11 20:14:09:454,0,-2.69681,-1.97384,90.3338
2023-03-11 20:14:09:464,0,-2.72923,-1.94267,90.3347
2023-03-11 20:14:09:474,0,-2.76364,-1.91128,90.326
2023-03-11 20:14:09:484,0,-2.79398,-1.87784,90.3124
2023-03-11 20:14:09:493,0,-2.82041,-1.84829,90.2951
2023-03-11 20:14:09:503,0,-2.83514,-1.82003,90.2847
2023-03-11 20:14:09:514,0,-2.83779,-1.79375,90.2774
2023-03-11 20:14:09:523,0,-2.82976,-1.77049,90.2753
2023-03-11 20:14:09:534,0,-2.8131,-1.74719,90.2817
2023-03-11 20:14:09:544,0,-2.78834,-1.72498,90.2968
2023-03-11 20:14:09:554,0,-2.7603,-1.70544,90.3166
2023-03-11 20:14:09:564,0,-2.72787,-1.69469,90.3405
2023-03-11 20:14:09:574,0,-2.69332,-1.68621,90.3724
2023-03-11 20:14:09:584,0,-2.65581,-1.68501,90.4124
2023-03-11 20:14:09:594,0,-2.61323,-1.68573,90.4598
2023-03-11 20:14:09:604,0,-2.55868,-1.68446,90.5068
2023-03-11 20:14:09:614,0,-2.48969,-1.68545,90.5603
2023-03-11 20:14:09:623,0,-2.41321,-1.68594,90.6178
2023-03-11 20:14:09:633,0,-2.33457,-1.69218,90.6796
2023-03-11 20:14:09:644,0,-2.25756,-1.69746,90.7433
2023-03-11 20:14:09:654,0,-2.18773,-1.69962,90.8123
2023-03-11 20:14:09:664,0,-2.1177,-1.7086,90.8864
2023-03-11 20:14:09:674,0,-2.05288,-1.7186,90.9609
2023-03-11 20:14:09:684,0,-2.00257,-1.72983,91.0385
2023-03-11 20:14:09:694,0,-1.95692,-1.74988,91.1084
2023-03-11 20:14:09:704,0,-1.91749,-1.78157,91.1785
2023-03-11 20:14:09:714,0,-1.88262,-1.81816,91.2508
2023-03-11 20:14:09:724,0,-1.85205,-1.86371,91.3238
2023-03-11 20:14:09:733,0,-1.82393,-1.91879,91.3983
2023-03-11 20:14:09:743,0,-1.80429,-1.97696,91.4724
2023-03-11 20:14:09:754,0,-1.79704,-2.04365,91.5496
2023-03-11 20:14:09:763,0,-1.80244,-2.11758,91.637
2023-03-11 20:14:09:774,0,-1.81958,-2.20246,91.7282
2023-03-11 20:14:09:784,0,-1.84015,-2.28774,91.8253
2023-03-11 20:14:09:794,0,-1.86855,-2.37737,91.928
2023-03-11 20:14:09:804,0,-1.89543,-2.4595,92.0352
2023-03-11 20:14:09:814,0,-1.92444,-2.53238,92.1382
2023-03-11 20:14:09:823,0,-1.95048,-2.59539,92.2381
2023-03-11 20:14:09:834,0,-1.97278,-2.64901,92.3337
2023-03-11 20:14:09:844,0,-1.98078,-2.69483,92.4252
2023-03-11 20:14:09:854,0,-1.97426,-2.74125,92.5094
2023-03-11 20:14:09:864,0,-1.95477,-2.78764,92.5947
2023-03-11 20:14:09:874,0,-1.92398,-2.83167,92.6767
2023-03-11 20:14:09:884,0,-1.89413,-2.87766,92.7561
2023-03-11 20:14:09:894,0,-1.87272,-2.92243,92.8311
2023-03-11 20:14:09:904,0,-1.86894,-2.96354,92.8988
2023-03-11 20:14:09:914,0,-1.87664,-3.00397,92.9544
2023-03-11 20:14:09:924,0,-1.88398,-3.04328,92.9972
2023-03-11 20:14:09:934,0,-1.89505,-3.08015,93.0223
2023-03-11 20:14:09:944,0,-1.9052,-3.1099,93.0322
2023-03-11 20:14:09:953,0,-1.91861,-3.12931,93.0206
2023-03-11 20:14:09:964,0,-1.93737,-3.14164,92.9964
2023-03-11 20:14:09:974,0,-1.96755,-3.14035,92.9524
2023-03-11 20:14:09:984,0,-2.01195,-3.1343,92.89
2023-03-11 20:14:09:994,0,-2.0623,-3.11744,92.8195
2023-03-11 20:14:10:4,0,-2.11329,-3.09886,92.7386
2023-03-11 20:14:10:14,0,-2.16281,-3.08145,92.6518
2023-03-11 20:14:10:23,0,-2.20844,-3.06624,92.5638
2023-03-11 20:14:10:34,0,-2.24171,-3.05759,92.4691
2023-03-11 20:14:10:44,0,-2.26457,-3.05003,92.3742
2023-03-11 20:14:10:54,0,-2.27931,-3.04669,92.2852
2023-03-11 20:14:10:64,0,-2.28478,-3.04741,92.2001
2023-03-11 20:14:10:74,0,-2.2927,-3.05228,92.1228
2023-03-11 20:14:10:84,0,-2.29325,-3.05482,92.0548
2023-03-11 20:14:10:94,0,-2.29625,-3.05758,91.9944
2023-03-11 20:14:10:104,0,-2.3014,-3.06172,91.9419
2023-03-11 20:14:10:114,0,-2.30613,-3.06742,91.9073
2023-03-11 20:14:10:124,0,-2.3104,-3.07517,91.8873
2023-03-11 20:14:10:134,0,-2.31413,-3.07923,91.8786
2023-03-11 20:14:10:143,0,-2.31577,-3.08683,91.8836
2023-03-11 20:14:10:154,0,-2.31314,-3.08671,91.9026
2023-03-11 20:14:10:164,0,-2.31248,-3.0851,91.9282
2023-03-11 20:14:10:174,0,-2.31523,-3.07958,91.9591
2023-03-11 20:14:10:184,0,-2.3227,-3.06862,91.9959
2023-03-11 20:14:10:194,0,-2.33161,-3.05869,92.0318
2023-03-11 20:14:10:204,0,-2.35156,-3.04483,92.0633
2023-03-11 20:14:10:214,0,-2.3706,-3.0316,92.0852
2023-03-11 20:14:10:224,0,-2.39102,-3.01937,92.0929
2023-03-11 20:14:10:234,0,-2.40431,-3.00576,92.091
2023-03-11 20:14:10:244,0,-2.41101,-2.99199,92.0734
2023-03-11 20:14:10:253,0,-2.41051,-2.97507,92.0419
2023-03-11 20:14:10:263,0,-2.40264,-2.9631,92.0067
2023-03-11 20:14:10:273,0,-2.39127,-2.95134,91.9604
2023-03-11 20:14:10:284,0,-2.3789,-2.94277,91.9077
2023-03-11 20:14:10:294,0,-2.36604,-2.9289,91.8515
2023-03-11 20:14:10:304,0,-2.35998,-2.91553,91.7917
2023-03-11 20:14:10:314,0,-2.35855,-2.9005,91.7315
2023-03-11 20:14:10:324,0,-2.36704,-2.88607,91.6755
2023-03-11 20:14:10:334,0,-2.37684,-2.86985,91.6226
2023-03-11 20:14:10:344,0,-2.38576,-2.85443,91.5787
2023-03-11 20:14:10:354,0,-2.39665,-2.83458,91.5427
2023-03-11 20:14:10:364,0,-2.40629,-2.81714,91.5171
2023-03-11 20:14:10:373,0,-2.41395,-2.80252,91.5008
2023-03-11 20:14:10:384,0,-2.42228,-2.79463,91.4944
2023-03-11 20:14:10:394,0,-2.43239,-2.79189,91.4977
2023-03-11 20:14:10:404,0,-2.44218,-2.79183,91.5024
2023-03-11 20:14:10:414,0,-2.4645,-2.78755,91.5079
2023-03-11 20:14:10:423,0,-2.49683,-2.77969,91.4983
2023-03-11 20:14:10:434,0,-2.53837,-2.76722,91.4768
2023-03-11 20:14:10:444,0,-2.58987,-2.74936,91.4425
2023-03-11 20:14:10:454,0,-2.64732,-2.72462,91.3895
2023-03-11 20:14:10:464,0,-2.70249,-2.69551,91.3209
2023-03-11 20:14:10:473,0,-2.75222,-2.66477,91.2409
2023-03-11 20:14:10:484,0,-2.79799,-2.63215,91.1521
2023-03-11 20:14:10:494,0,-2.83822,-2.60502,91.0598
2023-03-11 20:14:10:504,0,-2.87652,-2.57454,90.9696
2023-03-11 20:14:10:514,0,-2.90894,-2.54981,90.88
2023-03-11 20:14:10:524,0,-2.93783,-2.52729,90.7942
2023-03-11 20:14:10:534,0,-2.95893,-2.50345,90.7153
2023-03-11 20:14:10:544,0,-2.97437,-2.48213,90.6427
2023-03-11 20:14:10:554,0,-2.98681,-2.46344,90.5798
2023-03-11 20:14:10:564,0,-2.9901,-2.44771,90.5262
2023-03-11 20:14:10:574,0,-2.98741,-2.43343,90.4789
2023-03-11 20:14:10:584,0,-2.98033,-2.42157,90.4414
2023-03-11 20:14:10:594,0,-2.97224,-2.40604,90.4124
2023-03-11 20:14:10:604,0,-2.96318,-2.39405,90.3906
2023-03-11 20:14:10:613,0,-2.95301,-2.38518,90.3722
2023-03-11 20:14:10:623,0,-2.94576,-2.38368,90.3583
2023-03-11 20:14:10:634,0,-2.93281,-2.39086,90.3513
2023-03-11 20:14:10:643,0,-2.92531,-2.40559,90.3487
2023-03-11 20:14:10:654,0,-2.9177,-2.42453,90.3506
2023-03-11 20:14:10:663,0,-2.91104,-2.44434,90.3537
2023-03-11 20:14:10:673,0,-2.90592,-2.4599,90.3539
2023-03-11 20:14:10:683,0,-2.9001,-2.47517,90.3554
2023-03-11 20:14:10:694,0,-2.89717,-2.48899,90.3497
2023-03-11 20:14:10:703,0,-2.89853,-2.50197,90.3438
2023-03-11 20:14:10:714,0,-2.89527,-2.51431,90.3355
2023-03-11 20:14:10:723,0,-2.89594,-2.52502,90.3268
2023-03-11 20:14:10:734,0,-2.89818,-2.53771,90.3138
2023-03-11 20:14:10:743,0,-2.90468,-2.5412,90.2988
2023-03-11 20:14:10:753,0,-2.90409,-2.54442,90.2779
2023-03-11 20:14:10:764,0,-2.90349,-2.54396,90.254
2023-03-11 20:14:10:773,0,-2.90089,-2.5344,90.2247
2023-03-11 20:14:10:783,0,-2.90185,-2.52663,90.1968
2023-03-11 20:14:10:793,0,-2.90351,-2.50976,90.1658
2023-03-11 20:14:10:803,0,-2.90877,-2.49128,90.1288
2023-03-11 20:14:10:814,0,-2.91692,-2.47064,90.0931
2023-03-11 20:14:10:823,0,-2.92367,-2.44269,90.0485
2023-03-11 20:14:10:834,0,-2.93133,-2.41757,90.0037
2023-03-11 20:14:10:844,0,-2.94121,-2.38861,89.9596
2023-03-11 20:14:10:853,0,-2.9515,-2.35448,89.9078
2023-03-11 20:14:10:864,0,-2.9581,-2.32101,89.852
2023-03-11 20:14:10:874,0,-2.96057,-2.28673,89.7929
2023-03-11 20:14:10:884,0,-2.95715,-2.25283,89.7349
2023-03-11 20:14:10:894,0,-2.95489,-2.22213,89.6721
2023-03-11 20:14:10:904,0,-2.95007,-2.18653,89.6067
2023-03-11 20:14:10:914,0,-2.94586,-2.15275,89.5437
2023-03-11 20:14:10:924,0,-2.94472,-2.12028,89.4813
2023-03-11 20:14:10:934,0,-2.94647,-2.08724,89.423
2023-03-11 20:14:10:944,0,-2.95059,-2.05395,89.3655
2023-03-11 20:14:10:954,0,-2.96213,-2.01935,89.3113
2023-03-11 20:14:10:964,0,-2.97453,-1.98009,89.2594
2023-03-11 20:14:10:974,0,-2.9803,-1.94177,89.2088
2023-03-11 20:14:10:984,0,-2.98735,-1.9056,89.1625
2023-03-11 20:14:10:994,0,-2.99467,-1.87272,89.1175
2023-03-11 20:14:11:4,0,-2.9993,-1.83921,89.074
2023-03-11 20:14:11:14,0,-2.99825,-1.80645,89.0334
2023-03-11 20:14:11:23,0,-2.99564,-1.775,88.9959
2023-03-11 20:14:11:34,0,-2.98732,-1.74826,88.9569
2023-03-11 20:14:11:44,0,-2.98307,-1.7208,88.9207
2023-03-11 20:14:11:54,0,-2.98085,-1.69458,88.8857
2023-03-11 20:14:11:63,0,-2.97724,-1.66829,88.8498
2023-03-11 20:14:11:73,0,-2.97244,-1.64274,88.8162
2023-03-11 20:14:11:83,0,-2.97234,-1.62247,88.7853
2023-03-11 20:14:11:94,0,-2.97505,-1.60081,88.7529
2023-03-11 20:14:11:103,0,-2.97817,-1.57785,88.7213
2023-03-11 20:14:11:114,0,-2.97988,-1.55844,88.6924
2023-03-11 20:14:11:124,0,-2.98387,-1.53972,88.6625
2023-03-11 20:14:11:134,0,-2.9927,-1.52475,88.6349
2023-03-11 20:14:11:144,0,-3.0003,-1.50933,88.6089
2023-03-11 20:14:11:154,0,-3.00923,-1.49508,88.5825
2023-03-11 20:14:11:164,0,-3.02056,-1.48608,88.5572
2023-03-11 20:14:11:174,0,-3.03589,-1.47897,88.5346
2023-03-11 20:14:11:184,0,-3.04974,-1.47044,88.5136
2023-03-11 20:14:11:194,0,-3.06659,-1.46564,88.4974
2023-03-11 20:14:11:204,0,-3.08433,-1.4601,88.4855
2023-03-11 20:14:11:214,0,-3.10319,-1.45437,88.4726
2023-03-11 20:14:11:224,0,-3.12208,-1.45033,88.4599
2023-03-11 20:14:11:233,0,-3.13715,-1.44752,88.4519
2023-03-11 20:14:11:244,0,-3.15179,-1.44505,88.4444
2023-03-11 20:14:11:254,0,-3.15707,-1.4433,88.4385
2023-03-11 20:14:11:263,0,-3.16552,-1.44376,88.4318
2023-03-11 20:14:11:274,0,-3.16633,-1.44024,88.4228
2023-03-11 20:14:11:283,0,-3.16428,-1.4406,88.4167
2023-03-11 20:14:11:293,0,-3.15834,-1.44473,88.4107
2023-03-11 20:14:11:303,0,-3.15401,-1.44524,88.407
2023-03-11 20:14:11:314,0,-3.14968,-1.44987,88.4079
2023-03-11 20:14:11:324,0,-3.14412,-1.45176,88.4117
2023-03-11 20:14:11:334,0,-3.14038,-1.45504,88.4182
2023-03-11 20:14:11:344,0,-3.13361,-1.45461,88.4226
2023-03-11 20:14:11:354,0,-3.12456,-1.45838,88.4308
2023-03-11 20:14:11:364,0,-3.11256,-1.46418,88.4418
2023-03-11 20:14:11:374,0,-3.09902,-1.46931,88.45
2023-03-11 20:14:11:384,0,-3.08975,-1.46625,88.4542
2023-03-11 20:14:11:394,0,-3.07323,-1.45929,88.4586
2023-03-11 20:14:11:404,0,-3.05463,-1.45805,88.4553
2023-03-11 20:14:11:414,0,-3.03355,-1.46667,88.4565
2023-03-11 20:14:11:424,0,-3.01197,-1.48136,88.4609
2023-03-11 20:14:11:434,0,-2.99627,-1.49557,88.4711
2023-03-11 20:14:11:444,0,-2.98233,-1.5132,88.4785
2023-03-11 20:14:11:454,0,-2.96299,-1.52488,88.4859
2023-03-11 20:14:11:464,0,-2.94323,-1.53587,88.4919
2023-03-11 20:14:11:474,0,-2.92498,-1.54751,88.5013
2023-03-11 20:14:11:484,0,-2.90304,-1.55962,88.51
2023-03-11 20:14:11:494,0,-2.87681,-1.57139,88.5224
2023-03-11 20:14:11:503,0,-2.8486,-1.58181,88.5328
2023-03-11 20:14:11:514,0,-2.82278,-1.59177,88.546
2023-03-11 20:14:11:523,0,-2.79881,-1.60028,88.5591
2023-03-11 20:14:11:534,0,-2.7801,-1.60916,88.5727
2023-03-11 20:14:11:544,0,-2.76484,-1.61386,88.585
2023-03-11 20:14:11:554,0,-2.75433,-1.61403,88.5961
2023-03-11 20:14:11:564,0,-2.74681,-1.61161,88.6046
2023-03-11 20:14:11:573,0,-2.73704,-1.60709,88.6114
2023-03-11 20:14:11:583,0,-2.73253,-1.60388,88.6163
2023-03-11 20:14:11:594,0,-2.731,-1.60276,88.6194
2023-03-11 20:14:11:603,0,-2.72636,-1.60277,88.6203
2023-03-11 20:14:11:614,0,-2.72222,-1.60599,88.6198
2023-03-11 20:14:11:623,0,-2.72061,-1.60608,88.6172
2023-03-11 20:14:11:633,0,-2.72104,-1.60227,88.6078
2023-03-11 20:14:11:643,0,-2.72241,-1.59607,88.6004
2023-03-11 20:14:11:654,0,-2.72241,-1.59302,88.5948
2023-03-11 20:14:11:663,0,-2.71881,-1.59678,88.5882
2023-03-11 20:14:11:674,0,-2.71806,-1.59837,88.587
2023-03-11 20:14:11:684,0,-2.72031,-1.59914,88.5856
2023-03-11 20:14:11:694,0,-2.71908,-1.59731,88.5864
2023-03-11 20:14:11:704,0,-2.71657,-1.59506,88.5893
2023-03-11 20:14:11:714,0,-2.71122,-1.59289,88.589
2023-03-11 20:14:11:724,0,-2.70669,-1.58622,88.5913
2023-03-11 20:14:11:734,0,-2.6957,-1.5851,88.5949
2023-03-11 20:14:11:744,0,-2.68412,-1.58699,88.5978
2023-03-11 20:14:11:753,0,-2.67316,-1.59067,88.5981
2023-03-11 20:14:11:764,0,-2.65835,-1.5961,88.6025
2023-03-11 20:14:11:774,0,-2.6439,-1.60499,88.6059
2023-03-11 20:14:11:784,0,-2.62933,-1.6146,88.6108
2023-03-11 20:14:11:793,0,-2.61404,-1.62462,88.6167
2023-03-11 20:14:11:803,0,-2.60016,-1.63714,88.6235
2023-03-11 20:14:11:814,0,-2.58636,-1.64936,88.6332
2023-03-11 20:14:11:824,0,-2.5743,-1.66091,88.6439
2023-03-11 20:14:11:834,0,-2.56446,-1.67038,88.6576
2023-03-11 20:14:11:844,0,-2.55402,-1.68064,88.674
2023-03-11 20:14:11:854,0,-2.54475,-1.68686,88.6905
2023-03-11 20:14:11:864,0,-2.53398,-1.69345,88.7076
2023-03-11 20:14:11:874,0,-2.52677,-1.6977,88.7257
2023-03-11 20:14:11:884,0,-2.51285,-1.70069,88.7479
2023-03-11 20:14:11:894,0,-2.50024,-1.70372,88.7647
2023-03-11 20:14:11:904,0,-2.4844,-1.70546,88.7799
2023-03-11 20:14:11:914,0,-2.46828,-1.70735,88.798
2023-03-11 20:14:11:924,0,-2.45388,-1.70875,88.8185
2023-03-11 20:14:11:933,0,-2.43853,-1.71067,88.84
2023-03-11 20:14:11:943,0,-2.42,-1.71107,88.8616
2023-03-11 20:14:11:954,0,-2.39777,-1.71307,88.8861
2023-03-11 20:14:11:964,0,-2.37789,-1.71634,88.9146
2023-03-11 20:14:11:974,0,-2.35505,-1.71896,88.9423
2023-03-11 20:14:11:984,0,-2.33123,-1.72021,88.9741
2023-03-11 20:14:11:994,0,-2.30715,-1.72156,88.9992
2023-03-11 20:14:12:3,0,-2.277,-1.71909,89.02
2023-03-11 20:14:12:14,0,-2.23927,-1.71457,89.0422
2023-03-11 20:14:12:23,0,-2.18945,-1.7075,89.0603
2023-03-11 20:14:12:33,0,-2.14053,-1.702,89.0731
2023-03-11 20:14:12:44,0,-2.09627,-1.69761,89.0902
2023-03-11 20:14:12:54,0,-2.05416,-1.69696,89.1105
2023-03-11 20:14:12:64,0,-2.01458,-1.69854,89.1304
2023-03-11 20:14:12:74,0,-1.977,-1.70498,89.1534
2023-03-11 20:14:12:83,0,-1.93768,-1.71193,89.1827
2023-03-11 20:14:12:93,0,-1.90182,-1.71997,89.2115
2023-03-11 20:14:12:103,0,-1.86986,-1.7275,89.2421
2023-03-11 20:14:12:114,0,-1.8369,-1.73883,89.2755
2023-03-11 20:14:12:124,0,-1.80743,-1.74963,89.3055
2023-03-11 20:14:12:134,0,-1.77403,-1.7583,89.3344
2023-03-11 20:14:12:143,0,-1.74619,-1.76971,89.3639
2023-03-11 20:14:12:154,0,-1.72629,-1.77544,89.3865
2023-03-11 20:14:12:163,0,-1.70312,-1.77991,89.4048
2023-03-11 20:14:12:174,0,-1.68143,-1.78953,89.4247
2023-03-11 20:14:12:184,0,-1.66021,-1.80325,89.4384
2023-03-11 20:14:12:193,0,-1.63369,-1.82048,89.4541
2023-03-11 20:14:12:203,0,-1.60726,-1.84153,89.4709
2023-03-11 20:14:12:214,0,-1.57755,-1.86162,89.4919
2023-03-11 20:14:12:224,0,-1.55214,-1.88347,89.5124
2023-03-11 20:14:12:233,0,-1.52926,-1.89907,89.5357
2023-03-11 20:14:12:243,0,-1.50782,-1.91127,89.5647
2023-03-11 20:14:12:253,0,-1.48331,-1.92727,89.5978
2023-03-11 20:14:12:263,0,-1.45393,-1.94448,89.6316
2023-03-11 20:14:12:274,0,-1.41745,-1.95521,89.6652
2023-03-11 20:14:12:284,0,-1.37997,-1.95909,89.7008
2023-03-11 20:14:12:294,0,-1.33908,-1.96897,89.7328
2023-03-11 20:14:12:303,0,-1.2965,-1.97382,89.7651
2023-03-11 20:14:12:313,0,-1.2464,-1.97568,89.7993
2023-03-11 20:14:12:323,0,-1.19564,-1.97738,89.8281
2023-03-11 20:14:12:334,0,-1.1435,-1.9693,89.8574
2023-03-11 20:14:12:344,0,-1.09663,-1.9614,89.8799
2023-03-11 20:14:12:353,0,-1.04756,-1.9529,89.9015
2023-03-11 20:14:12:363,0,-0.995236,-1.94481,89.9155
2023-03-11 20:14:12:374,0,-0.944874,-1.93686,89.9289
2023-03-11 20:14:12:384,0,-0.895407,-1.92968,89.9408
2023-03-11 20:14:12:394,0,-0.849227,-1.92402,89.9496
2023-03-11 20:14:12:404,0,-0.812239,-1.91368,89.9563
2023-03-11 20:14:12:414,0,-0.774681,-1.90294,89.9579
2023-03-11 20:14:12:423,0,-0.737626,-1.89108,89.9571
2023-03-11 20:14:12:434,0,-0.694832,-1.88338,89.9539
2023-03-11 20:14:12:443,0,-0.649929,-1.87152,89.9459
2023-03-11 20:14:12:454,0,-0.611689,-1.86256,89.9359
2023-03-11 20:14:12:463,0,-0.574574,-1.85641,89.9267
2023-03-11 20:14:12:474,0,-0.531827,-1.84897,89.9144
2023-03-11 20:14:12:483,0,-0.490376,-1.8412,89.9019
2023-03-11 20:14:12:493,0,-0.450059,-1.83322,89.8922
2023-03-11 20:14:12:503,0,-0.410475,-1.81729,89.8885
2023-03-11 20:14:12:514,0,-0.368055,-1.79682,89.8875
2023-03-11 20:14:12:523,0,-0.322019,-1.78129,89.8848
2023-03-11 20:14:12:534,0,-0.275478,-1.76812,89.8801
2023-03-11 20:14:12:543,0,-0.235138,-1.7538,89.8753
2023-03-11 20:14:12:554,0,-0.193953,-1.74438,89.8725
2023-03-11 20:14:12:563,0,-0.15296,-1.7422,89.8735
2023-03-11 20:14:12:574,0,-0.1098,-1.74403,89.8773
2023-03-11 20:14:12:584,0,-0.071095,-1.74775,89.8791
2023-03-11 20:14:12:594,0,-0.0401511,-1.75217,89.8844
2023-03-11 20:14:12:603,0,-0.0131884,-1.75408,89.8926
2023-03-11 20:14:12:613,0,0.0101719,-1.7591,89.9031
2023-03-11 20:14:12:623,0,0.0356976,-1.76741,89.9127
2023-03-11 20:14:12:634,0,0.0591846,-1.77187,89.9228
2023-03-11 20:14:12:644,0,0.0764061,-1.77836,89.9363
2023-03-11 20:14:12:654,0,0.0907156,-1.7825,89.9492
2023-03-11 20:14:12:664,0,0.104481,-1.78806,89.962
2023-03-11 20:14:12:674,0,0.114892,-1.79082,89.9727
2023-03-11 20:14:12:684,0,0.123171,-1.79218,89.9814
2023-03-11 20:14:12:694,0,0.13095,-1.79083,89.9909
2023-03-11 20:14:12:704,0,0.141525,-1.79301,89.9995
2023-03-11 20:14:12:714,0,0.148271,-1.79536,90.0056
2023-03-11 20:14:12:723,0,0.154685,-1.79955,90.0107
2023-03-11 20:14:12:734,0,0.159773,-1.79746,90.0104
2023-03-11 20:14:12:743,0,0.165019,-1.79822,90.0053
2023-03-11 20:14:12:754,0,0.170041,-1.79459,89.9993
2023-03-11 20:14:12:764,0,0.17654,-1.79295,89.9909
2023-03-11 20:14:12:774,0,0.183618,-1.78851,89.9826
2023-03-11 20:14:12:784,0,0.188719,-1.78331,89.9731
2023-03-11 20:14:12:794,0,0.19888,-1.78203,89.9636
2023-03-11 20:14:12:804,0,0.204722,-1.77858,89.9553
2023-03-11 20:14:12:814,0,0.210238,-1.77902,89.9489
2023-03-11 20:14:12:823,0,0.211646,-1.78211,89.9449
2023-03-11 20:14:12:833,0,0.214157,-1.7825,89.9388
2023-03-11 20:14:12:843,0,0.218534,-1.78262,89.9391
2023-03-11 20:14:12:854,0,0.218461,-1.78288,89.9399
2023-03-11 20:14:12:863,0,0.215652,-1.78316,89.9447
2023-03-11 20:14:12:874,0,0.220686,-1.77872,89.9512
2023-03-11 20:14:12:884,0,0.226604,-1.77292,89.9533
2023-03-11 20:14:12:894,0,0.234627,-1.76472,89.9584
2023-03-11 20:14:12:904,0,0.244665,-1.75981,89.9561
2023-03-11 20:14:12:914,0,0.253281,-1.7543,89.9533
2023-03-11 20:14:12:924,0,0.25659,-1.74303,89.947
2023-03-11 20:14:12:934,0,0.265411,-1.73382,89.9352
2023-03-11 20:14:12:943,0,0.277802,-1.72335,89.9164
2023-03-11 20:14:12:954,0,0.289576,-1.72445,89.9026
2023-03-11 20:14:12:964,0,0.297865,-1.7297,89.8892
2023-03-11 20:14:12:974,0,0.301585,-1.7365,89.8748
2023-03-11 20:14:12:984,0,0.306207,-1.74358,89.8645
2023-03-11 20:14:12:993,0,0.305228,-1.75143,89.854
2023-03-11 20:14:13:3,0,0.302365,-1.7601,89.8392
2023-03-11 20:14:13:14,0,0.300668,-1.76511,89.8209
2023-03-11 20:14:13:23,0,0.299141,-1.77245,89.7968
2023-03-11 20:14:13:34,0,0.301568,-1.78278,89.769
2023-03-11 20:14:13:43,0,0.306772,-1.79735,89.734
2023-03-11 20:14:13:54,0,0.310519,-1.81763,89.6908
2023-03-11 20:14:13:63,0,0.309464,-1.84452,89.6387
2023-03-11 20:14:13:73,0,0.299094,-1.87457,89.5877
2023-03-11 20:14:13:83,0,0.274704,-1.91061,89.5411
2023-03-11 20:14:13:94,0,0.228485,-1.95328,89.4982
2023-03-11 20:14:13:103,0,0.177597,-1.99974,89.456
2023-03-11 20:14:13:114,0,0.141332,-2.03907,89.4108
2023-03-11 20:14:13:123,0,0.128734,-2.07437,89.3545
2023-03-11 20:14:13:133,0,0.141888,-2.10041,89.2856
2023-03-11 20:14:13:143,0,0.180978,-2.11505,89.2003
2023-03-11 20:14:13:153,0,0.241404,-2.12282,89.1085
2023-03-11 20:14:13:163,0,0.310883,-2.12179,89.0159
2023-03-11 20:14:13:174,0,0.377012,-2.10817,88.9252
2023-03-11 20:14:13:183,0,0.428629,-2.0827,88.8477
2023-03-11 20:14:13:194,0,0.454582,-2.0527,88.7855
2023-03-11 20:14:13:204,0,0.458872,-2.01202,88.7483
2023-03-11 20:14:13:214,0,0.448204,-1.96292,88.7318
2023-03-11 20:14:13:224,0,0.426842,-1.91079,88.739
2023-03-11 20:14:13:234,0,0.398059,-1.85754,88.7677
2023-03-11 20:14:13:243,0,0.362216,-1.80889,88.816
2023-03-11 20:14:13:253,0,0.328881,-1.75846,88.8698
2023-03-11 20:14:13:264,0,0.300635,-1.71389,88.9222
2023-03-11 20:14:13:274,0,0.275488,-1.66982,88.9702
2023-03-11 20:14:13:284,0,0.252391,-1.63102,89.0162
2023-03-11 20:14:13:294,0,0.226379,-1.59726,89.0567
2023-03-11 20:14:13:303,0,0.196055,-1.5708,89.0918
2023-03-11 20:14:13:313,0,0.161458,-1.55113,89.1228
2023-03-11 20:14:13:323,0,0.126486,-1.53354,89.1499
2023-03-11 20:14:13:334,0,0.0937549,-1.515,89.1803
2023-03-11 20:14:13:343,0,0.0620673,-1.49654,89.2056
2023-03-11 20:14:13:354,0,0.0401285,-1.47336,89.2285
2023-03-11 20:14:13:364,0,0.036263,-1.43759,89.2418
2023-03-11 20:14:13:374,0,0.0404707,-1.3871,89.2515
2023-03-11 20:14:13:384,0,0.0439008,-1.32704,89.2613
2023-03-11 20:14:13:394,0,0.0289417,-1.26078,89.2723
2023-03-11 20:14:13:404,0,-0.0131616,-1.19679,89.2897
2023-03-11 20:14:13:414,0,-0.0859266,-1.13495,89.3161
2023-03-11 20:14:13:424,0,-0.187025,-1.07344,89.3515
2023-03-11 20:14:13:434,0,-0.302599,-1.01465,89.39
2023-03-11 20:14:13:444,0,-0.422372,-0.958561,89.4233
2023-03-11 20:14:13:453,0,-0.545392,-0.900621,89.4487
2023-03-11 20:14:13:464,0,-0.666126,-0.846902,89.4627
2023-03-11 20:14:13:473,0,-0.780072,-0.795327,89.4657
2023-03-11 20:14:13:484,0,-0.882339,-0.751654,89.4587
2023-03-11 20:14:13:494,0,-0.975575,-0.717919,89.4441
2023-03-11 20:14:13:503,0,-1.06377,-0.691312,89.4205
2023-03-11 20:14:13:514,0,-1.15002,-0.679493,89.3933
2023-03-11 20:14:13:524,0,-1.23699,-0.676823,89.3627
2023-03-11 20:14:13:534,0,-1.31812,-0.683275,89.331
2023-03-11 20:14:13:544,0,-1.39252,-0.693939,89.3019
2023-03-11 20:14:13:554,0,-1.46673,-0.709281,89.2772
2023-03-11 20:14:13:564,0,-1.53476,-0.721003,89.2548
2023-03-11 20:14:13:574,0,-1.59304,-0.73615,89.2406
2023-03-11 20:14:13:584,0,-1.6513,-0.757125,89.2301
2023-03-11 20:14:13:594,0,-1.71183,-0.782661,89.2303
2023-03-11 20:14:13:604,0,-1.77315,-0.817448,89.2449
2023-03-11 20:14:13:614,0,-1.82969,-0.861296,89.2664
2023-03-11 20:14:13:623,0,-1.87394,-0.919881,89.2903
2023-03-11 20:14:13:634,0,-1.91318,-0.978424,89.325
2023-03-11 20:14:13:644,0,-1.9476,-1.03926,89.363
2023-03-11 20:14:13:654,0,-1.97806,-1.10851,89.4083
2023-03-11 20:14:13:664,0,-2.01343,-1.1799,89.4644
2023-03-11 20:14:13:674,0,-2.05467,-1.26162,89.5312
2023-03-11 20:14:13:684,0,-2.10415,-1.33938,89.6071
2023-03-11 20:14:13:694,0,-2.15073,-1.41633,89.6919
2023-03-11 20:14:13:703,0,-2.1901,-1.49394,89.7761
2023-03-11 20:14:13:714,0,-2.22628,-1.56683,89.8598
2023-03-11 20:14:13:723,0,-2.25682,-1.63848,89.9414
2023-03-11 20:14:13:734,0,-2.28682,-1.70638,90.0196
2023-03-11 20:14:13:744,0,-2.30838,-1.76968,90.089
2023-03-11 20:14:13:754,0,-2.32284,-1.83038,90.1509
2023-03-11 20:14:13:763,0,-2.331,-1.8826,90.2028
2023-03-11 20:14:13:774,0,-2.3307,-1.93276,90.2441
2023-03-11 20:14:13:784,0,-2.32428,-1.97479,90.2748
2023-03-11 20:14:13:793,0,-2.31404,-2.00611,90.2968
2023-03-11 20:14:13:804,0,-2.30755,-2.0302,90.31
2023-03-11 20:14:13:814,0,-2.31077,-2.04804,90.3177
2023-03-11 20:14:13:824,0,-2.31759,-2.06733,90.3238
2023-03-11 20:14:13:834,0,-2.33118,-2.07261,90.322
2023-03-11 20:14:13:844,0,-2.34154,-2.06977,90.3149
2023-03-11 20:14:13:853,0,-2.35031,-2.0589,90.3031
2023-03-11 20:14:13:863,0,-2.36097,-2.03833,90.2873
2023-03-11 20:14:13:873,0,-2.3634,-2.01347,90.2616
2023-03-11 20:14:13:883,0,-2.36742,-1.97976,90.2298
2023-03-11 20:14:13:893,0,-2.37643,-1.94662,90.1981
2023-03-11 20:14:13:903,0,-2.39045,-1.91163,90.1631
2023-03-11 20:14:13:913,0,-2.41121,-1.87578,90.1315
2023-03-11 20:14:13:924,0,-2.43817,-1.84056,90.1023
2023-03-11 20:14:13:934,0,-2.46786,-1.80623,90.0756
2023-03-11 20:14:13:943,0,-2.49502,-1.76948,90.0485
2023-03-11 20:14:13:954,0,-2.52059,-1.73291,90.0225
2023-03-11 20:14:13:964,0,-2.54289,-1.69774,89.9992
2023-03-11 20:14:13:974,0,-2.56364,-1.66998,89.9828
2023-03-11 20:14:13:984,0,-2.59007,-1.64154,89.9708
2023-03-11 20:14:13:994,0,-2.62233,-1.61802,89.964
2023-03-11 20:14:14:3,0,-2.65552,-1.59391,89.9657
2023-03-11 20:14:14:14,0,-2.6873,-1.57797,89.9678
2023-03-11 20:14:14:23,0,-2.71788,-1.56744,89.9746
2023-03-11 20:14:14:34,0,-2.74591,-1.568,89.9798
2023-03-11 20:14:14:43,0,-2.77473,-1.57572,89.9869
2023-03-11 20:14:14:54,0,-2.79663,-1.57995,89.9958
2023-03-11 20:14:14:64,0,-2.81254,-1.59861,90.0053
2023-03-11 20:14:14:74,0,-2.83452,-1.62802,90.0077
