Timestamp_cmd,imu_cmd,roll_delta,pitch_delta,yaw_delta
2023-03-11 17:56:33:413,0,-5.68397,-0.109019,85.0188
2023-03-11 17:56:33:421,0,-5.66994,-0.116403,85.008
2023-03-11 17:56:33:431,0,-5.65616,-0.124497,84.9936
2023-03-11 17:56:33:441,0,-5.64405,-0.12277,84.9753
2023-03-11 17:56:33:451,0,-5.6309,-0.117453,84.9535
2023-03-11 17:56:33:461,0,-5.62026,-0.115351,84.9367
2023-03-11 17:56:33:471,0,-5.60901,-0.108286,84.9183
2023-03-11 17:56:33:481,0,-5.60051,-0.105188,84.903
2023-03-11 17:56:33:491,0,-5.5897,-0.104785,84.8905
2023-03-11 17:56:33:501,0,-5.57778,-0.104437,84.8805
2023-03-11 17:56:33:511,0,-5.56705,-0.10589,84.8756
2023-03-11 17:56:33:521,0,-5.55914,-0.102043,84.8713
2023-03-11 17:56:33:531,0,-5.56048,-0.0927564,84.8681
2023-03-11 17:56:33:541,0,-5.56004,-0.0853521,84.8644
2023-03-11 17:56:33:551,0,-5.56158,-0.077037,84.8601
2023-03-11 17:56:33:561,0,-5.55818,-0.0720555,84.8596
2023-03-11 17:56:33:571,0,-5.55336,-0.071916,84.8579
2023-03-11 17:56:33:581,0,-5.55572,-0.0704478,84.8531
2023-03-11 17:56:33:591,0,-5.56186,-0.0728952,84.8528
2023-03-11 17:56:33:601,0,-5.57343,-0.072893,84.8511
2023-03-11 17:56:33:611,0,-5.58177,-0.0780475,84.8534
2023-03-11 17:56:33:621,0,-5.58652,-0.0856355,84.8547
2023-03-11 17:56:33:631,0,-5.59259,-0.0975307,84.8613
2023-03-11 17:56:33:641,0,-5.60405,-0.107669,84.8757
2023-03-11 17:56:33:651,0,-5.61278,-0.118225,84.8921
2023-03-11 17:56:33:661,0,-5.62143,-0.128519,84.9104
2023-03-11 17:56:33:671,0,-5.63128,-0.13088,84.9289
2023-03-11 17:56:33:681,0,-5.6412,-0.138541,84.9476
2023-03-11 17:56:33:691,0,-5.65079,-0.143715,84.9713
2023-03-11 17:56:33:701,0,-5.65661,-0.147748,84.9901
2023-03-11 17:56:33:711,0,-5.66611,-0.152999,85.0037
2023-03-11 17:56:33:721,0,-5.67358,-0.156606,85.0152
2023-03-11 17:56:33:731,0,-5.67744,-0.162873,85.0233
2023-03-11 17:56:33:741,0,-5.677,-0.170611,85.0257
2023-03-11 17:56:33:751,0,-5.67383,-0.178217,85.0252
2023-03-11 17:56:33:761,0,-5.66717,-0.187985,85.0208
2023-03-11 17:56:33:771,0,-5.66401,-0.198392,85.0151
2023-03-11 17:56:33:781,0,-5.66058,-0.212407,85.0042
2023-03-11 17:56:33:791,0,-5.65642,-0.220171,84.9938
2023-03-11 17:56:33:801,0,-5.65137,-0.223071,84.9827
2023-03-11 17:56:33:811,0,-5.64548,-0.229684,84.9731
2023-03-11 17:56:33:821,0,-5.63702,-0.232368,84.9661
2023-03-11 17:56:33:831,0,-5.62738,-0.238404,84.9629
2023-03-11 17:56:33:841,0,-5.61341,-0.239237,84.9639
2023-03-11 17:56:33:851,0,-5.59615,-0.238541,84.9657
2023-03-11 17:56:33:861,0,-5.58071,-0.236311,84.9668
2023-03-11 17:56:33:871,0,-5.56403,-0.235647,84.9716
2023-03-11 17:56:33:881,0,-5.54905,-0.235532,84.9792
2023-03-11 17:56:33:891,0,-5.53498,-0.235698,84.9813
2023-03-11 17:56:33:901,0,-5.52356,-0.236885,84.9878
2023-03-11 17:56:33:911,0,-5.51838,-0.241733,84.9925
2023-03-11 17:56:33:921,0,-5.51784,-0.247937,84.9968
2023-03-11 17:56:33:931,0,-5.51829,-0.253431,85.0012
2023-03-11 17:56:33:941,0,-5.51917,-0.259168,85.0034
2023-03-11 17:56:33:951,0,-5.52028,-0.265006,85.0032
2023-03-11 17:56:33:961,0,-5.52189,-0.272543,85.0059
2023-03-11 17:56:33:971,0,-5.52119,-0.280193,85.0044
2023-03-11 17:56:33:981,0,-5.51412,-0.28591,85.0051
2023-03-11 17:56:33:991,0,-5.5037,-0.293675,85.0058
2023-03-11 17:56:34:1,0,-5.49302,-0.299945,85.0046
2023-03-11 17:56:34:11,0,-5.48636,-0.304682,85.0034
2023-03-11 17:56:34:21,0,-5.47872,-0.312076,85.0048
2023-03-11 17:56:34:31,0,-5.4737,-0.319554,85.0055
2023-03-11 17:56:34:41,0,-5.47233,-0.332003,85.007
2023-03-11 17:56:34:51,0,-5.46719,-0.344744,85.0105
2023-03-11 17:56:34:61,0,-5.46363,-0.359385,85.0105
2023-03-11 17:56:34:71,0,-5.46158,-0.371056,85.0157
2023-03-11 17:56:34:81,0,-5.45439,-0.382746,85.0173
2023-03-11 17:56:34:91,0,-5.44159,-0.388221,85.0167
2023-03-11 17:56:34:101,0,-5.42205,-0.393917,85.0112
2023-03-11 17:56:34:111,0,-5.40416,-0.397801,85.008
2023-03-11 17:56:34:121,0,-5.39134,-0.398863,85.0042
2023-03-11 17:56:34:131,0,-5.38339,-0.399477,85.0006
2023-03-11 17:56:34:141,0,-5.37747,-0.400863,84.9994
2023-03-11 17:56:34:151,0,-5.37906,-0.404052,84.9958
2023-03-11 17:56:34:161,0,-5.38367,-0.408835,84.9945
2023-03-11 17:56:34:171,0,-5.37457,-0.42356,84.9907
2023-03-11 17:56:34:181,0,-5.36548,-0.439972,84.9926
2023-03-11 17:56:34:191,0,-5.34892,-0.456918,84.9932
2023-03-11 17:56:34:201,0,-5.33327,-0.477114,84.995
2023-03-11 17:56:34:211,0,-5.31422,-0.494262,85.0006
2023-03-11 17:56:34:221,0,-5.29899,-0.512375,85.0051
2023-03-11 17:56:34:231,0,-5.28683,-0.530115,85.0128
2023-03-11 17:56:34:241,0,-5.27133,-0.544283,85.0203
2023-03-11 17:56:34:251,0,-5.26514,-0.561305,85.0267
2023-03-11 17:56:34:261,0,-5.25692,-0.576046,85.0326
2023-03-11 17:56:34:271,0,-5.24873,-0.591382,85.0411
2023-03-11 17:56:34:281,0,-5.24304,-0.603128,85.0472
2023-03-11 17:56:34:291,0,-5.23191,-0.614798,85.0505
2023-03-11 17:56:34:301,0,-5.2201,-0.623465,85.0553
2023-03-11 17:56:34:311,0,-5.21444,-0.632637,85.0611
2023-03-11 17:56:34:321,0,-5.21153,-0.640619,85.062
2023-03-11 17:56:34:331,0,-5.20717,-0.649641,85.0665
2023-03-11 17:56:34:341,0,-5.20404,-0.656394,85.0676
2023-03-11 17:56:34:352,0,-5.20217,-0.66306,85.0667
2023-03-11 17:56:34:361,0,-5.20501,-0.666451,85.0651
2023-03-11 17:56:34:371,0,-5.21151,-0.667989,85.063
2023-03-11 17:56:34:381,0,-5.22134,-0.665638,85.0566
2023-03-11 17:56:34:391,0,-5.23062,-0.662226,85.0487
2023-03-11 17:56:34:401,0,-5.23671,-0.657321,85.0369
2023-03-11 17:56:34:411,0,-5.24054,-0.652806,85.0275
2023-03-11 17:56:34:421,0,-5.24248,-0.649406,85.0187
2023-03-11 17:56:34:431,0,-5.24717,-0.644672,85.0089
2023-03-11 17:56:34:441,0,-5.24762,-0.637612,84.9974
2023-03-11 17:56:34:451,0,-5.24849,-0.630176,84.985
2023-03-11 17:56:34:461,0,-5.24855,-0.618622,84.971
2023-03-11 17:56:34:471,0,-5.24633,-0.607773,84.9613
2023-03-11 17:56:34:481,0,-5.24365,-0.598101,84.952
2023-03-11 17:56:34:491,0,-5.24013,-0.590728,84.9428
2023-03-11 17:56:34:501,0,-5.23909,-0.582434,84.9373
2023-03-11 17:56:34:511,0,-5.23258,-0.581039,84.9307
2023-03-11 17:56:34:521,0,-5.22778,-0.579874,84.9209
2023-03-11 17:56:34:531,0,-5.22371,-0.580358,84.9159
2023-03-11 17:56:34:541,0,-5.21644,-0.585459,84.912
2023-03-11 17:56:34:551,0,-5.2118,-0.592176,84.9113
2023-03-11 17:56:34:561,0,-5.20546,-0.600137,84.9126
2023-03-11 17:56:34:571,0,-5.20541,-0.607179,84.9153
2023-03-11 17:56:34:581,0,-5.20454,-0.616369,84.921
2023-03-11 17:56:34:591,0,-5.20378,-0.624413,84.9286
2023-03-11 17:56:34:601,0,-5.20828,-0.634237,84.9397
2023-03-11 17:56:34:611,0,-5.21395,-0.642176,84.9518
2023-03-11 17:56:34:621,0,-5.22195,-0.652482,84.9692
2023-03-11 17:56:34:631,0,-5.22865,-0.664749,84.9792
2023-03-11 17:56:34:641,0,-5.23793,-0.674914,84.9927
2023-03-11 17:56:34:651,0,-5.25102,-0.68768,85.006
2023-03-11 17:56:34:661,0,-5.26059,-0.699964,85.0186
2023-03-11 17:56:34:671,0,-5.26902,-0.706072,85.0273
2023-03-11 17:56:34:681,0,-5.28017,-0.714315,85.0355
2023-03-11 17:56:34:691,0,-5.29086,-0.717684,85.0417
2023-03-11 17:56:34:701,0,-5.30539,-0.718848,85.0445
2023-03-11 17:56:34:711,0,-5.31757,-0.720052,85.0443
2023-03-11 17:56:34:721,0,-5.32801,-0.717862,85.0441
2023-03-11 17:56:34:731,0,-5.34008,-0.714168,85.0427
2023-03-11 17:56:34:741,0,-5.3582,-0.705671,85.0395
2023-03-11 17:56:34:751,0,-5.37048,-0.698808,85.0361
2023-03-11 17:56:34:761,0,-5.38648,-0.694411,85.0339
2023-03-11 17:56:34:771,0,-5.39719,-0.685118,85.0263
2023-03-11 17:56:34:781,0,-5.40446,-0.679303,85.0211
2023-03-11 17:56:34:791,0,-5.41328,-0.673801,85.015
2023-03-11 17:56:34:801,0,-5.42106,-0.669762,85.0145
2023-03-11 17:56:34:811,0,-5.43137,-0.664451,85.0092
2023-03-11 17:56:34:821,0,-5.44024,-0.65783,85.0053
2023-03-11 17:56:34:831,0,-5.44586,-0.655396,85.0002
2023-03-11 17:56:34:841,0,-5.45142,-0.655112,84.9976
2023-03-11 17:56:34:851,0,-5.45847,-0.65624,85.0002
2023-03-11 17:56:34:861,0,-5.4653,-0.656165,85.0038
2023-03-11 17:56:34:871,0,-5.47034,-0.662306,85.0116
2023-03-11 17:56:34:881,0,-5.47586,-0.668121,85.0208
2023-03-11 17:56:34:891,0,-5.47887,-0.671351,85.0295
2023-03-11 17:56:34:901,0,-5.47676,-0.676408,85.0369
2023-03-11 17:56:34:911,0,-5.47696,-0.678951,85.0467
2023-03-11 17:56:34:921,0,-5.47668,-0.681324,85.053
2023-03-11 17:56:34:931,0,-5.46963,-0.674908,85.0591
2023-03-11 17:56:34:941,0,-5.46344,-0.672732,85.0658
2023-03-11 17:56:34:951,0,-5.45565,-0.673759,85.0719
2023-03-11 17:56:34:961,0,-5.44559,-0.66934,85.0711
2023-03-11 17:56:34:971,0,-5.43351,-0.675212,85.0701
2023-03-11 17:56:34:981,0,-5.42124,-0.683532,85.0695
2023-03-11 17:56:34:991,0,-5.4117,-0.692449,85.0692
2023-03-11 17:56:35:1,0,-5.40655,-0.702157,85.0758
2023-03-11 17:56:35:11,0,-5.40484,-0.706063,85.0813
2023-03-11 17:56:35:21,0,-5.40644,-0.709804,85.0875
2023-03-11 17:56:35:31,0,-5.41227,-0.706802,85.0995
2023-03-11 17:56:35:41,0,-5.41781,-0.703688,85.109
2023-03-11 17:56:35:51,0,-5.42912,-0.705756,85.1214
2023-03-11 17:56:35:61,0,-5.43877,-0.707815,85.1324
2023-03-11 17:56:35:71,0,-5.44556,-0.709818,85.1408
2023-03-11 17:56:35:81,0,-5.44959,-0.70944,85.1498
2023-03-11 17:56:35:91,0,-5.45516,-0.713095,85.1539
2023-03-11 17:56:35:101,0,-5.45749,-0.71695,85.1541
2023-03-11 17:56:35:111,0,-5.4655,-0.717908,85.1513
2023-03-11 17:56:35:121,0,-5.47577,-0.719572,85.1511
2023-03-11 17:56:35:131,0,-5.48953,-0.720923,85.1476
2023-03-11 17:56:35:141,0,-5.50319,-0.724487,85.1416
2023-03-11 17:56:35:151,0,-5.52008,-0.725704,85.1367
2023-03-11 17:56:35:161,0,-5.53612,-0.728748,85.1312
2023-03-11 17:56:35:171,0,-5.55023,-0.728107,85.1301
2023-03-11 17:56:35:181,0,-5.56472,-0.72703,85.1292
2023-03-11 17:56:35:191,0,-5.57398,-0.724598,85.1286
2023-03-11 17:56:35:201,0,-5.57418,-0.722044,85.1316
2023-03-11 17:56:35:211,0,-5.57187,-0.720073,85.1309
2023-03-11 17:56:35:221,0,-5.56859,-0.717243,85.1314
2023-03-11 17:56:35:231,0,-5.56485,-0.716553,85.1331
2023-03-11 17:56:35:241,0,-5.56132,-0.709477,85.1356
2023-03-11 17:56:35:251,0,-5.56291,-0.702369,85.1326
2023-03-11 17:56:35:261,0,-5.56573,-0.693419,85.1278
2023-03-11 17:56:35:271,0,-5.57033,-0.682005,85.1221
2023-03-11 17:56:35:281,0,-5.57469,-0.674568,85.1183
2023-03-11 17:56:35:291,0,-5.58044,-0.666242,85.1143
2023-03-11 17:56:35:301,0,-5.58337,-0.656879,85.1084
2023-03-11 17:56:35:311,0,-5.57802,-0.648114,85.0971
2023-03-11 17:56:35:321,0,-5.56603,-0.640635,85.0889
2023-03-11 17:56:35:331,0,-5.55412,-0.63494,85.0783
2023-03-11 17:56:35:341,0,-5.54363,-0.634384,85.0687
2023-03-11 17:56:35:351,0,-5.53347,-0.63966,85.0591
2023-03-11 17:56:35:361,0,-5.52724,-0.640697,85.0507
2023-03-11 17:56:35:371,0,-5.52187,-0.645455,85.0436
2023-03-11 17:56:35:381,0,-5.51589,-0.646311,85.0393
2023-03-11 17:56:35:391,0,-5.5169,-0.648891,85.0351
2023-03-11 17:56:35:401,0,-5.51434,-0.656198,85.034
2023-03-11 17:56:35:411,0,-5.5077,-0.664747,85.0362
2023-03-11 17:56:35:421,0,-5.50069,-0.671298,85.0402
2023-03-11 17:56:35:431,0,-5.49507,-0.677748,85.0435
2023-03-11 17:56:35:441,0,-5.48788,-0.684407,85.0508
2023-03-11 17:56:35:451,0,-5.47988,-0.689174,85.0558
2023-03-11 17:56:35:461,0,-5.47098,-0.693755,85.0615
2023-03-11 17:56:35:471,0,-5.4666,-0.697037,85.066
2023-03-11 17:56:35:481,0,-5.46405,-0.700839,85.0696
2023-03-11 17:56:35:491,0,-5.46205,-0.709627,85.0756
2023-03-11 17:56:35:501,0,-5.45797,-0.719385,85.0818
2023-03-11 17:56:35:511,0,-5.46042,-0.728311,85.0888
2023-03-11 17:56:35:521,0,-5.46413,-0.735379,85.0916
2023-03-11 17:56:35:531,0,-5.46522,-0.741378,85.0896
2023-03-11 17:56:35:541,0,-5.46685,-0.748712,85.0941
2023-03-11 17:56:35:551,0,-5.46995,-0.753639,85.0974
2023-03-11 17:56:35:561,0,-5.47181,-0.751478,85.0997
2023-03-11 17:56:35:571,0,-5.4766,-0.75683,85.1028
2023-03-11 17:56:35:581,0,-5.48239,-0.761036,85.1054
2023-03-11 17:56:35:591,0,-5.48182,-0.762946,85.1084
2023-03-11 17:56:35:601,0,-5.4808,-0.763442,85.1076
2023-03-11 17:56:35:611,0,-5.48114,-0.762398,85.1118
2023-03-11 17:56:35:621,0,-5.4832,-0.764136,85.1145
2023-03-11 17:56:35:631,0,-5.48601,-0.763316,85.1138
2023-03-11 17:56:35:641,0,-5.48993,-0.761493,85.1143
2023-03-11 17:56:35:651,0,-5.49542,-0.757991,85.1154
2023-03-11 17:56:35:661,0,-5.49623,-0.753219,85.1128
2023-03-11 17:56:35:671,0,-5.50185,-0.750678,85.1088
2023-03-11 17:56:35:681,0,-5.50189,-0.74361,85.104
2023-03-11 17:56:35:691,0,-5.50638,-0.734514,85.0957
2023-03-11 17:56:35:701,0,-5.50797,-0.727741,85.0832
2023-03-11 17:56:35:711,0,-5.5085,-0.718009,85.0691
2023-03-11 17:56:35:721,0,-5.51387,-0.705035,85.0567
2023-03-11 17:56:35:731,0,-5.52123,-0.69239,85.0387
2023-03-11 17:56:35:741,0,-5.53099,-0.679976,85.023
2023-03-11 17:56:35:751,0,-5.53927,-0.663495,85.0076
2023-03-11 17:56:35:761,0,-5.54536,-0.654684,84.9932
2023-03-11 17:56:35:771,0,-5.5476,-0.646711,84.9856
2023-03-11 17:56:35:781,0,-5.55193,-0.647258,84.9813
2023-03-11 17:56:35:791,0,-5.55341,-0.647084,84.9793
2023-03-11 17:56:35:801,0,-5.5568,-0.645843,84.9813
2023-03-11 17:56:35:811,0,-5.56089,-0.644271,84.9839
2023-03-11 17:56:35:821,0,-5.56615,-0.645099,84.9857
2023-03-11 17:56:35:831,0,-5.57109,-0.646001,84.9954
2023-03-11 17:56:35:841,0,-5.57807,-0.649774,85.0062
2023-03-11 17:56:35:851,0,-5.58626,-0.654635,85.0164
2023-03-11 17:56:35:861,0,-5.59831,-0.660848,85.0293
2023-03-11 17:56:35:871,0,-5.60923,-0.670286,85.0405
2023-03-11 17:56:35:881,0,-5.62132,-0.67526,85.0491
2023-03-11 17:56:35:891,0,-5.63223,-0.68058,85.0553
2023-03-11 17:56:35:901,0,-5.64129,-0.691917,85.0636
2023-03-11 17:56:35:911,0,-5.65466,-0.699661,85.0696
2023-03-11 17:56:35:921,0,-5.66548,-0.706926,85.0764
2023-03-11 17:56:35:931,0,-5.67696,-0.712944,85.0804
2023-03-11 17:56:35:941,0,-5.68951,-0.720184,85.0853
2023-03-11 17:56:35:951,0,-5.69798,-0.723876,85.0874
2023-03-11 17:56:35:961,0,-5.70965,-0.731709,85.0904
2023-03-11 17:56:35:971,0,-5.72112,-0.736635,85.094
2023-03-11 17:56:35:981,0,-5.73242,-0.737532,85.0942
2023-03-11 17:56:35:991,0,-5.74134,-0.734603,85.0908
2023-03-11 17:56:36:1,0,-5.74875,-0.732659,85.0848
2023-03-11 17:56:36:11,0,-5.75193,-0.73072,85.0775
2023-03-11 17:56:36:21,0,-5.75195,-0.732918,85.0739
2023-03-11 17:56:36:31,0,-5.75448,-0.735644,85.0722
2023-03-11 17:56:36:41,0,-5.75582,-0.731378,85.0679
2023-03-11 17:56:36:51,0,-5.75541,-0.725307,85.065
2023-03-11 17:56:36:61,0,-5.75286,-0.717152,85.0654
2023-03-11 17:56:36:71,0,-5.74648,-0.706585,85.066
2023-03-11 17:56:36:81,0,-5.73886,-0.700956,85.0687
2023-03-11 17:56:36:91,0,-5.73335,-0.696147,85.0727
2023-03-11 17:56:36:101,0,-5.73,-0.690148,85.0716
2023-03-11 17:56:36:111,0,-5.72424,-0.68499,85.0697
2023-03-11 17:56:36:121,0,-5.72003,-0.684091,85.0678
2023-03-11 17:56:36:131,0,-5.71956,-0.681938,85.0638
2023-03-11 17:56:36:141,0,-5.72251,-0.68428,85.0571
2023-03-11 17:56:36:151,0,-5.72181,-0.688654,85.0501
2023-03-11 17:56:36:161,0,-5.72236,-0.693979,85.0443
2023-03-11 17:56:36:171,0,-5.72684,-0.696705,85.0365
2023-03-11 17:56:36:181,0,-5.73216,-0.696888,85.0306
2023-03-11 17:56:36:191,0,-5.73956,-0.695823,85.0292
2023-03-11 17:56:36:201,0,-5.74781,-0.693957,85.0337
2023-03-11 17:56:36:211,0,-5.75872,-0.690155,85.0398
2023-03-11 17:56:36:221,0,-5.76984,-0.685586,85.0499
2023-03-11 17:56:36:231,0,-5.78264,-0.681548,85.062
2023-03-11 17:56:36:241,0,-5.79268,-0.678,85.0748
2023-03-11 17:56:36:251,0,-5.80447,-0.675795,85.088
2023-03-11 17:56:36:261,0,-5.81163,-0.672777,85.0995
2023-03-11 17:56:36:271,0,-5.81584,-0.674421,85.1129
2023-03-11 17:56:36:281,0,-5.81845,-0.674878,85.1196
2023-03-11 17:56:36:291,0,-5.82397,-0.677556,85.1228
2023-03-11 17:56:36:301,0,-5.8265,-0.676107,85.1229
2023-03-11 17:56:36:311,0,-5.83015,-0.675313,85.119
2023-03-11 17:56:36:321,0,-5.83871,-0.674857,85.1127
2023-03-11 17:56:36:331,0,-5.85254,-0.676861,85.1024
2023-03-11 17:56:36:341,0,-5.86096,-0.671509,85.0947
2023-03-11 17:56:36:351,0,-5.8677,-0.664033,85.0856
2023-03-11 17:56:36:361,0,-5.8714,-0.657131,85.0799
2023-03-11 17:56:36:371,0,-5.87112,-0.64944,85.0799
2023-03-11 17:56:36:381,0,-5.86267,-0.642769,85.0772
2023-03-11 17:56:36:391,0,-5.85279,-0.641494,85.0777
2023-03-11 17:56:36:401,0,-5.84142,-0.642174,85.0796
2023-03-11 17:56:36:411,0,-5.83118,-0.644995,85.0789
2023-03-11 17:56:36:421,0,-5.8299,-0.647736,85.0768
2023-03-11 17:56:36:431,0,-5.82804,-0.65003,85.0772
2023-03-11 17:56:36:441,0,-5.82685,-0.647426,85.0755
2023-03-11 17:56:36:451,0,-5.82963,-0.648699,85.0724
2023-03-11 17:56:36:461,0,-5.82718,-0.649109,85.07
2023-03-11 17:56:36:471,0,-5.82315,-0.649909,85.0656
2023-03-11 17:56:36:481,0,-5.81456,-0.648064,85.0621
2023-03-11 17:56:36:491,0,-5.80766,-0.643824,85.0555
2023-03-11 17:56:36:501,0,-5.80031,-0.637784,85.0526
2023-03-11 17:56:36:511,0,-5.79745,-0.63236,85.0468
2023-03-11 17:56:36:521,0,-5.79699,-0.624174,85.0415
2023-03-11 17:56:36:531,0,-5.8003,-0.616512,85.0359
2023-03-11 17:56:36:541,0,-5.80034,-0.607755,85.0333
2023-03-11 17:56:36:551,0,-5.79686,-0.600748,85.0306
2023-03-11 17:56:36:561,0,-5.78655,-0.597662,85.0302
2023-03-11 17:56:36:571,0,-5.77765,-0.598524,85.0293
2023-03-11 17:56:36:581,0,-5.76958,-0.598948,85.0333
2023-03-11 17:56:36:591,0,-5.76298,-0.598025,85.0377
2023-03-11 17:56:36:601,0,-5.7595,-0.599984,85.0456
2023-03-11 17:56:36:611,0,-5.7604,-0.604261,85.0577
2023-03-11 17:56:36:621,0,-5.76594,-0.610247,85.0707
2023-03-11 17:56:36:631,0,-5.76876,-0.612226,85.0901
2023-03-11 17:56:36:641,0,-5.77548,-0.617623,85.105
2023-03-11 17:56:36:651,0,-5.78164,-0.620035,85.1194
2023-03-11 17:56:36:661,0,-5.78608,-0.621662,85.1296
2023-03-11 17:56:36:671,0,-5.78935,-0.62097,85.1329
2023-03-11 17:56:36:681,0,-5.79568,-0.619134,85.1342
2023-03-11 17:56:36:691,0,-5.79444,-0.617973,85.135
2023-03-11 17:56:36:701,0,-5.79588,-0.615967,85.1352
2023-03-11 17:56:36:711,0,-5.79867,-0.611686,85.1326
2023-03-11 17:56:36:721,0,-5.80239,-0.60555,85.128
2023-03-11 17:56:36:731,0,-5.8048,-0.598051,85.1222
2023-03-11 17:56:36:741,0,-5.80722,-0.581669,85.1147
2023-03-11 17:56:36:751,0,-5.81494,-0.564407,85.1087
2023-03-11 17:56:36:761,0,-5.82346,-0.542102,85.1015
2023-03-11 17:56:36:771,0,-5.82904,-0.518438,85.0912
2023-03-11 17:56:36:781,0,-5.83119,-0.498289,85.0811
2023-03-11 17:56:36:791,0,-5.83255,-0.483177,85.0709
2023-03-11 17:56:36:801,0,-5.82736,-0.47333,85.0643
2023-03-11 17:56:36:811,0,-5.82352,-0.466662,85.0576
2023-03-11 17:56:36:821,0,-5.81738,-0.459618,85.0495
2023-03-11 17:56:36:831,0,-5.8072,-0.450375,85.0389
2023-03-11 17:56:36:841,0,-5.80056,-0.441893,85.0277
2023-03-11 17:56:36:851,0,-5.79698,-0.435517,85.0182
2023-03-11 17:56:36:861,0,-5.79,-0.435495,85.0042
2023-03-11 17:56:36:871,0,-5.78476,-0.433867,84.9956
2023-03-11 17:56:36:881,0,-5.78329,-0.433801,84.9873
2023-03-11 17:56:36:891,0,-5.78112,-0.433738,84.9802
2023-03-11 17:56:36:901,0,-5.77443,-0.439923,84.9756
2023-03-11 17:56:36:911,0,-5.76729,-0.448369,84.9753
2023-03-11 17:56:36:921,0,-5.76042,-0.456555,84.9819
2023-03-11 17:56:36:931,0,-5.74857,-0.474593,84.9942
2023-03-11 17:56:36:941,0,-5.73512,-0.491248,85.0118
2023-03-11 17:56:36:951,0,-5.71993,-0.511724,85.0349
2023-03-11 17:56:36:961,0,-5.70411,-0.533902,85.0623
2023-03-11 17:56:36:971,0,-5.68822,-0.55277,85.0916
2023-03-11 17:56:36:981,0,-5.67755,-0.571051,85.1208
2023-03-11 17:56:36:991,0,-5.66638,-0.589941,85.1486
2023-03-11 17:56:37:1,0,-5.65524,-0.60538,85.1762
2023-03-11 17:56:37:11,0,-5.64354,-0.620032,85.1988
2023-03-11 17:56:37:21,0,-5.63574,-0.637976,85.2159
2023-03-11 17:56:37:31,0,-5.62517,-0.655184,85.2285
2023-03-11 17:56:37:41,0,-5.61105,-0.668866,85.2389
2023-03-11 17:56:37:51,0,-5.59876,-0.681528,85.2479
2023-03-11 17:56:37:61,0,-5.58709,-0.690564,85.2537
2023-03-11 17:56:37:71,0,-5.57596,-0.694976,85.2561
2023-03-11 17:56:37:81,0,-5.56959,-0.701335,85.2566
2023-03-11 17:56:37:91,0,-5.56215,-0.705334,85.2566
2023-03-11 17:56:37:101,0,-5.55336,-0.704954,85.2561
2023-03-11 17:56:37:111,0,-5.5459,-0.705211,85.2583
2023-03-11 17:56:37:121,0,-5.53935,-0.705199,85.2602
2023-03-11 17:56:37:131,0,-5.5341,-0.705898,85.2668
2023-03-11 17:56:37:141,0,-5.52875,-0.709848,85.2731
2023-03-11 17:56:37:151,0,-5.52381,-0.711319,85.2773
2023-03-11 17:56:37:161,0,-5.52168,-0.715972,85.2847
2023-03-11 17:56:37:171,0,-5.51998,-0.723962,85.2924
2023-03-11 17:56:37:181,0,-5.52763,-0.724496,85.2998
2023-03-11 17:56:37:191,0,-5.5397,-0.73155,85.3053
2023-03-11 17:56:37:201,0,-5.55168,-0.73707,85.3097
2023-03-11 17:56:37:211,0,-5.56351,-0.74236,85.3171
2023-03-11 17:56:37:221,0,-5.58243,-0.751647,85.3195
2023-03-11 17:56:37:231,0,-5.5983,-0.762798,85.3236
2023-03-11 17:56:37:241,0,-5.61201,-0.768571,85.3291
2023-03-11 17:56:37:251,0,-5.62442,-0.773055,85.334
2023-03-11 17:56:37:261,0,-5.63574,-0.77834,85.332
2023-03-11 17:56:37:271,0,-5.64699,-0.783721,85.3289
2023-03-11 17:56:37:281,0,-5.66014,-0.787092,85.3294
2023-03-11 17:56:37:291,0,-5.67118,-0.796065,85.3281
2023-03-11 17:56:37:301,0,-5.68923,-0.802765,85.3264
2023-03-11 17:56:37:311,0,-5.70634,-0.81177,85.3244
2023-03-11 17:56:37:321,0,-5.71525,-0.820441,85.3155
2023-03-11 17:56:37:331,0,-5.7129,-0.831798,85.3006
2023-03-11 17:56:37:341,0,-5.69968,-0.845223,85.286
2023-03-11 17:56:37:351,0,-5.6844,-0.860499,85.2727
2023-03-11 17:56:37:361,0,-5.67047,-0.879893,85.2623
2023-03-11 17:56:37:371,0,-5.66175,-0.904064,85.2545
2023-03-11 17:56:37:381,0,-5.65922,-0.929474,85.2496
2023-03-11 17:56:37:391,0,-5.66444,-0.955607,85.2484
2023-03-11 17:56:37:401,0,-5.67781,-0.980853,85.2509
2023-03-11 17:56:37:411,0,-5.69416,-1.00816,85.2567
2023-03-11 17:56:37:421,0,-5.71486,-1.03239,85.2632
2023-03-11 17:56:37:431,0,-5.73669,-1.05546,85.273
2023-03-11 17:56:37:441,0,-5.75713,-1.07139,85.2815
2023-03-11 17:56:37:451,0,-5.77421,-1.0865,85.2915
2023-03-11 17:56:37:461,0,-5.79365,-1.10266,85.2992
2023-03-11 17:56:37:471,0,-5.81359,-1.11894,85.3068
2023-03-11 17:56:37:481,0,-5.84264,-1.13456,85.3117
2023-03-11 17:56:37:491,0,-5.88068,-1.14098,85.3225
2023-03-11 17:56:37:501,0,-5.91429,-1.14139,85.3294
2023-03-11 17:56:37:511,0,-5.94553,-1.14571,85.3393
2023-03-11 17:56:37:521,0,-5.97566,-1.15138,85.3507
2023-03-11 17:56:37:531,0,-6.01439,-1.1537,85.3627
2023-03-11 17:56:37:541,0,-6.05218,-1.1581,85.3794
2023-03-11 17:56:37:551,0,-6.08371,-1.16592,85.3931
2023-03-11 17:56:37:561,0,-6.1029,-1.17159,85.4094
2023-03-11 17:56:37:571,0,-6.11489,-1.17635,85.4244
2023-03-11 17:56:37:581,0,-6.12218,-1.17755,85.4408
2023-03-11 17:56:37:591,0,-6.12696,-1.18228,85.4584
2023-03-11 17:56:37:601,0,-6.12751,-1.18055,85.476
2023-03-11 17:56:37:611,0,-6.12684,-1.17905,85.4875
2023-03-11 17:56:37:621,0,-6.12326,-1.17769,85.4984
2023-03-11 17:56:37:631,0,-6.12272,-1.17698,85.5074
2023-03-11 17:56:37:641,0,-6.12509,-1.17707,85.5147
2023-03-11 17:56:37:651,0,-6.12433,-1.18155,85.5156
2023-03-11 17:56:37:661,0,-6.12353,-1.18723,85.5113
2023-03-11 17:56:37:671,0,-6.12495,-1.19385,85.5018
2023-03-11 17:56:37:681,0,-6.11905,-1.2051,85.4876
2023-03-11 17:56:37:691,0,-6.11628,-1.21598,85.4688
2023-03-11 17:56:37:701,0,-6.10955,-1.23004,85.4486
2023-03-11 17:56:37:711,0,-6.10208,-1.24222,85.432
2023-03-11 17:56:37:721,0,-6.09413,-1.2527,85.4105
2023-03-11 17:56:37:731,0,-6.08855,-1.26268,85.396
2023-03-11 17:56:37:741,0,-6.08263,-1.27312,85.3847
2023-03-11 17:56:37:751,0,-6.07734,-1.28225,85.378
2023-03-11 17:56:37:761,0,-6.06956,-1.28945,85.3758
2023-03-11 17:56:37:771,0,-6.06634,-1.29353,85.3756
2023-03-11 17:56:37:781,0,-6.05911,-1.2993,85.3793
2023-03-11 17:56:37:791,0,-6.05339,-1.30336,85.3858
2023-03-11 17:56:37:801,0,-6.05084,-1.30962,85.3911
2023-03-11 17:56:37:811,0,-6.04315,-1.3182,85.4029
2023-03-11 17:56:37:821,0,-6.03657,-1.32625,85.4128
2023-03-11 17:56:37:831,0,-6.02526,-1.33382,85.4218
2023-03-11 17:56:37:841,0,-6.01386,-1.34062,85.4308
2023-03-11 17:56:37:851,0,-6.00085,-1.34347,85.4403
2023-03-11 17:56:37:861,0,-5.98608,-1.34375,85.4486
2023-03-11 17:56:37:871,0,-5.97354,-1.34747,85.4554
2023-03-11 17:56:37:881,0,-5.9642,-1.34348,85.4594
2023-03-11 17:56:37:891,0,-5.95457,-1.34181,85.4658
2023-03-11 17:56:37:901,0,-5.94527,-1.34126,85.4704
2023-03-11 17:56:37:911,0,-5.935,-1.34125,85.4718
2023-03-11 17:56:37:921,0,-5.92833,-1.34083,85.4725
2023-03-11 17:56:37:931,0,-5.91837,-1.34342,85.4736
2023-03-11 17:56:37:941,0,-5.91187,-1.34719,85.4751
2023-03-11 17:56:37:951,0,-5.898,-1.3505,85.4808
2023-03-11 17:56:37:961,0,-5.88579,-1.35389,85.4825
2023-03-11 17:56:37:971,0,-5.86833,-1.35703,85.4829
2023-03-11 17:56:37:981,0,-5.85324,-1.36106,85.486
2023-03-11 17:56:37:991,0,-5.8348,-1.36342,85.4905
2023-03-11 17:56:38:1,0,-5.82095,-1.36434,85.496
2023-03-11 17:56:38:11,0,-5.80906,-1.36463,85.5036
2023-03-11 17:56:38:21,0,-5.79352,-1.36222,85.509
2023-03-11 17:56:38:31,0,-5.77837,-1.3602,85.5146
2023-03-11 17:56:38:41,0,-5.76037,-1.35493,85.5135
2023-03-11 17:56:38:51,0,-5.7424,-1.35011,85.5109
2023-03-11 17:56:38:61,0,-5.72661,-1.3417,85.5061
2023-03-11 17:56:38:71,0,-5.7102,-1.33372,85.5029
2023-03-11 17:56:38:81,0,-5.6962,-1.32059,85.4949
2023-03-11 17:56:38:91,0,-5.68071,-1.31267,85.4882
2023-03-11 17:56:38:101,0,-5.66867,-1.30577,85.4775
2023-03-11 17:56:38:111,0,-5.65597,-1.30236,85.4678
2023-03-11 17:56:38:121,0,-5.64507,-1.30008,85.4628
2023-03-11 17:56:38:131,0,-5.64,-1.30245,85.4621
2023-03-11 17:56:38:141,0,-5.63903,-1.30275,85.4613
2023-03-11 17:56:38:151,0,-5.64555,-1.30146,85.4633
2023-03-11 17:56:38:161,0,-5.64979,-1.30069,85.4698
2023-03-11 17:56:38:171,0,-5.65427,-1.30175,85.4792
2023-03-11 17:56:38:181,0,-5.6558,-1.30209,85.4884
2023-03-11 17:56:38:191,0,-5.65955,-1.305,85.5038
2023-03-11 17:56:38:201,0,-5.66328,-1.30696,85.5164
2023-03-11 17:56:38:211,0,-5.66861,-1.30398,85.5308
2023-03-11 17:56:38:221,0,-5.67334,-1.30513,85.541
2023-03-11 17:56:38:231,0,-5.67639,-1.30614,85.5513
2023-03-11 17:56:38:241,0,-5.68329,-1.30727,85.5573
2023-03-11 17:56:38:251,0,-5.69513,-1.31356,85.5664
2023-03-11 17:56:38:261,0,-5.70648,-1.32051,85.5709
2023-03-11 17:56:38:271,0,-5.72122,-1.33217,85.5722
2023-03-11 17:56:38:281,0,-5.72908,-1.3405,85.5704
2023-03-11 17:56:38:291,0,-5.73787,-1.34525,85.5642
2023-03-11 17:56:38:301,0,-5.74796,-1.35315,85.559
2023-03-11 17:56:38:311,0,-5.7599,-1.3541,85.553
2023-03-11 17:56:38:321,0,-5.76912,-1.34759,85.5438
2023-03-11 17:56:38:331,0,-5.77568,-1.34517,85.5313
2023-03-11 17:56:38:341,0,-5.7782,-1.34496,85.5206
2023-03-11 17:56:38:351,0,-5.77988,-1.34317,85.5133
2023-03-11 17:56:38:361,0,-5.77911,-1.34376,85.5082
2023-03-11 17:56:38:371,0,-5.77343,-1.33915,85.5085
2023-03-11 17:56:38:381,0,-5.76792,-1.33608,85.5064
2023-03-11 17:56:38:391,0,-5.76002,-1.33129,85.5044
2023-03-11 17:56:38:401,0,-5.75317,-1.32698,85.5055
2023-03-11 17:56:38:411,0,-5.74922,-1.32343,85.502
2023-03-11 17:56:38:421,0,-5.74518,-1.32609,85.502
2023-03-11 17:56:38:431,0,-5.74639,-1.33416,85.5025
2023-03-11 17:56:38:441,0,-5.74947,-1.3456,85.5048
2023-03-11 17:56:38:451,0,-5.75092,-1.35935,85.5143
2023-03-11 17:56:38:461,0,-5.74787,-1.37836,85.5263
2023-03-11 17:56:38:471,0,-5.7411,-1.40184,85.5389
2023-03-11 17:56:38:481,0,-5.73229,-1.42199,85.5485
2023-03-11 17:56:38:491,0,-5.7163,-1.44136,85.5631
2023-03-11 17:56:38:501,0,-5.69958,-1.46198,85.5769
2023-03-11 17:56:38:511,0,-5.68215,-1.47846,85.5878
2023-03-11 17:56:38:521,0,-5.66278,-1.50284,85.5981
2023-03-11 17:56:38:531,0,-5.64624,-1.52455,85.6108
2023-03-11 17:56:38:541,0,-5.62932,-1.54735,85.6202
2023-03-11 17:56:38:551,0,-5.61156,-1.56966,85.6293
2023-03-11 17:56:38:561,0,-5.59436,-1.58843,85.6342
2023-03-11 17:56:38:571,0,-5.57991,-1.60588,85.64
2023-03-11 17:56:38:581,0,-5.56718,-1.61865,85.6428
2023-03-11 17:56:38:591,0,-5.55169,-1.6293,85.6366
2023-03-11 17:56:38:601,0,-5.53748,-1.63537,85.6256
2023-03-11 17:56:38:611,0,-5.52723,-1.64179,85.6156
2023-03-11 17:56:38:621,0,-5.52074,-1.64777,85.6085
2023-03-11 17:56:38:631,0,-5.51613,-1.65067,85.6036
2023-03-11 17:56:38:641,0,-5.51328,-1.64725,85.5933
2023-03-11 17:56:38:651,0,-5.51565,-1.64341,85.5835
2023-03-11 17:56:38:661,0,-5.52029,-1.63936,85.5769
2023-03-11 17:56:38:671,0,-5.52386,-1.63162,85.5704
2023-03-11 17:56:38:681,0,-5.52257,-1.62912,85.567
2023-03-11 17:56:38:691,0,-5.52229,-1.62221,85.5593
2023-03-11 17:56:38:701,0,-5.52209,-1.61337,85.5524
2023-03-11 17:56:38:711,0,-5.52326,-1.6056,85.5445
2023-03-11 17:56:38:721,0,-5.53011,-1.59892,85.5397
2023-03-11 17:56:38:731,0,-5.53884,-1.59461,85.532
2023-03-11 17:56:38:741,0,-5.54494,-1.59212,85.5264
2023-03-11 17:56:38:751,0,-5.55264,-1.58666,85.5232
2023-03-11 17:56:38:761,0,-5.55848,-1.58317,85.5233
2023-03-11 17:56:38:771,0,-5.56083,-1.58139,85.5235
2023-03-11 17:56:38:780,0,-5.56035,-1.58154,85.5224
2023-03-11 17:56:38:791,0,-5.5588,-1.57879,85.5242
2023-03-11 17:56:38:801,0,-5.55407,-1.57797,85.5252
2023-03-11 17:56:38:811,0,-5.54647,-1.57596,85.5273
2023-03-11 17:56:38:821,0,-5.5356,-1.57269,85.5284
2023-03-11 17:56:38:831,0,-5.52736,-1.56742,85.5313
2023-03-11 17:56:38:841,0,-5.51747,-1.56876,85.5343
2023-03-11 17:56:38:851,0,-5.50401,-1.57176,85.5384
2023-03-11 17:56:38:861,0,-5.48653,-1.57498,85.5432
2023-03-11 17:56:38:871,0,-5.47229,-1.58504,85.5484
2023-03-11 17:56:38:881,0,-5.46051,-1.59572,85.5536
2023-03-11 17:56:38:891,0,-5.45378,-1.61112,85.5629
2023-03-11 17:56:38:901,0,-5.44467,-1.62855,85.5724
2023-03-11 17:56:38:911,0,-5.4391,-1.64418,85.581
2023-03-11 17:56:38:921,0,-5.42917,-1.65904,85.5887
2023-03-11 17:56:38:931,0,-5.42129,-1.6703,85.5985
2023-03-11 17:56:38:941,0,-5.41639,-1.68097,85.6077
2023-03-11 17:56:38:950,0,-5.41332,-1.68937,85.6196
2023-03-11 17:56:38:961,0,-5.40934,-1.69988,85.6263
2023-03-11 17:56:38:971,0,-5.40589,-1.70532,85.6342
2023-03-11 17:56:38:981,0,-5.40429,-1.70677,85.6424
2023-03-11 17:56:38:991,0,-5.40529,-1.71073,85.6473
2023-03-11 17:56:39:1,0,-5.40721,-1.70987,85.6527
2023-03-11 17:56:39:11,0,-5.40925,-1.70775,85.6578
2023-03-11 17:56:39:21,0,-5.41344,-1.70348,85.662
2023-03-11 17:56:39:31,0,-5.41396,-1.69876,85.6635
2023-03-11 17:56:39:41,0,-5.42161,-1.69685,85.6625
2023-03-11 17:56:39:51,0,-5.42394,-1.69622,85.6644
2023-03-11 17:56:39:61,0,-5.42445,-1.69108,85.6648
2023-03-11 17:56:39:71,0,-5.42461,-1.68151,85.6608
2023-03-11 17:56:39:80,0,-5.41883,-1.67296,85.6548
2023-03-11 17:56:39:91,0,-5.41206,-1.66624,85.6482
2023-03-11 17:56:39:100,0,-5.40617,-1.66388,85.6443
2023-03-11 17:56:39:111,0,-5.40039,-1.66165,85.642
2023-03-11 17:56:39:121,0,-5.39589,-1.65591,85.6377
2023-03-11 17:56:39:131,0,-5.39283,-1.64687,85.6378
2023-03-11 17:56:39:141,0,-5.38352,-1.63723,85.6389
2023-03-11 17:56:39:151,0,-5.37875,-1.63033,85.6401
2023-03-11 17:56:39:161,0,-5.37153,-1.62567,85.6391
2023-03-11 17:56:39:171,0,-5.3696,-1.62326,85.6392
2023-03-11 17:56:39:181,0,-5.36838,-1.62302,85.6447
2023-03-11 17:56:39:190,0,-5.36413,-1.62366,85.6518
2023-03-11 17:56:39:201,0,-5.35892,-1.62275,85.6544
2023-03-11 17:56:39:211,0,-5.35149,-1.62596,85.6555
2023-03-11 17:56:39:220,0,-5.34484,-1.62605,85.6555
2023-03-11 17:56:39:230,0,-5.3383,-1.62972,85.6563
2023-03-11 17:56:39:241,0,-5.33472,-1.63253,85.6607
2023-03-11 17:56:39:251,0,-5.33573,-1.63497,85.6647
2023-03-11 17:56:39:261,0,-5.3369,-1.63624,85.6662
2023-03-11 17:56:39:271,0,-5.33881,-1.63865,85.6724
2023-03-11 17:56:39:281,0,-5.34182,-1.63831,85.6759
2023-03-11 17:56:39:291,0,-5.34363,-1.64144,85.6819
2023-03-11 17:56:39:301,0,-5.34609,-1.64202,85.6873
2023-03-11 17:56:39:311,0,-5.34795,-1.64256,85.6939
2023-03-11 17:56:39:321,0,-5.34568,-1.64146,85.6999
2023-03-11 17:56:39:331,0,-5.34787,-1.64048,85.7044
2023-03-11 17:56:39:341,0,-5.34969,-1.63563,85.7063
2023-03-11 17:56:39:351,0,-5.35556,-1.63566,85.7105
2023-03-11 17:56:39:361,0,-5.36288,-1.63316,85.7142
2023-03-11 17:56:39:371,0,-5.37397,-1.63202,85.718
2023-03-11 17:56:39:381,0,-5.38839,-1.6303,85.7185
2023-03-11 17:56:39:391,0,-5.40207,-1.62735,85.7196
2023-03-11 17:56:39:401,0,-5.41313,-1.62186,85.7159
2023-03-11 17:56:39:411,0,-5.42322,-1.61834,85.712
2023-03-11 17:56:39:421,0,-5.43218,-1.61679,85.7065
2023-03-11 17:56:39:431,0,-5.4361,-1.61432,85.6987
2023-03-11 17:56:39:441,0,-5.44052,-1.61087,85.6958
2023-03-11 17:56:39:451,0,-5.44639,-1.60686,85.6912
2023-03-11 17:56:39:461,0,-5.45888,-1.60257,85.6891
2023-03-11 17:56:39:471,0,-5.47494,-1.59754,85.6887
2023-03-11 17:56:39:481,0,-5.4882,-1.5945,85.6914
2023-03-11 17:56:39:491,0,-5.49647,-1.59551,85.6944
2023-03-11 17:56:39:501,0,-5.5061,-1.59692,85.6962
2023-03-11 17:56:39:511,0,-5.5109,-1.5929,85.6985
2023-03-11 17:56:39:521,0,-5.50888,-1.5896,85.7045
2023-03-11 17:56:39:531,0,-5.50875,-1.58591,85.7092
2023-03-11 17:56:39:541,0,-5.50816,-1.58209,85.713
2023-03-11 17:56:39:551,0,-5.50734,-1.57792,85.7129
2023-03-11 17:56:39:561,0,-5.50596,-1.57066,85.7135
2023-03-11 17:56:39:571,0,-5.5056,-1.56084,85.7118
2023-03-11 17:56:39:581,0,-5.50885,-1.55006,85.706
2023-03-11 17:56:39:591,0,-5.51423,-1.53779,85.7007
2023-03-11 17:56:39:601,0,-5.51003,-1.53166,85.6936
2023-03-11 17:56:39:611,0,-5.50423,-1.53226,85.6857
2023-03-11 17:56:39:621,0,-5.49924,-1.5334,85.6802
2023-03-11 17:56:39:631,0,-5.49605,-1.5375,85.6749
2023-03-11 17:56:39:641,0,-5.49855,-1.54139,85.6714
2023-03-11 17:56:39:651,0,-5.50324,-1.54181,85.6713
2023-03-11 17:56:39:661,0,-5.51114,-1.54054,85.671
2023-03-11 17:56:39:671,0,-5.52093,-1.53845,85.6727
2023-03-11 17:56:39:681,0,-5.52928,-1.53769,85.6772
2023-03-11 17:56:39:691,0,-5.54364,-1.53926,85.6823
2023-03-11 17:56:39:701,0,-5.55455,-1.53899,85.6909
2023-03-11 17:56:39:711,0,-5.56568,-1.53904,85.7017
2023-03-11 17:56:39:721,0,-5.58218,-1.53441,85.7089
2023-03-11 17:56:39:731,0,-5.5964,-1.53045,85.7161
2023-03-11 17:56:39:741,0,-5.60836,-1.52521,85.7191
2023-03-11 17:56:39:751,0,-5.618,-1.52007,85.7245
2023-03-11 17:56:39:761,0,-5.62878,-1.50907,85.7228
2023-03-11 17:56:39:771,0,-5.64059,-1.49863,85.7186
2023-03-11 17:56:39:781,0,-5.65151,-1.48683,85.7158
2023-03-11 17:56:39:791,0,-5.66163,-1.4758,85.7094
2023-03-11 17:56:39:801,0,-5.67252,-1.46548,85.6989
2023-03-11 17:56:39:811,0,-5.68579,-1.44819,85.6904
2023-03-11 17:56:39:821,0,-5.69657,-1.43513,85.6776
2023-03-11 17:56:39:831,0,-5.70125,-1.42369,85.6676
2023-03-11 17:56:39:841,0,-5.70357,-1.41597,85.6582
2023-03-11 17:56:39:851,0,-5.70706,-1.40928,85.6513
2023-03-11 17:56:39:861,0,-5.70657,-1.40613,85.645
2023-03-11 17:56:39:871,0,-5.70426,-1.40305,85.6408
2023-03-11 17:56:39:881,0,-5.7009,-1.39726,85.6408
2023-03-11 17:56:39:891,0,-5.69144,-1.38998,85.6351
2023-03-11 17:56:39:901,0,-5.68526,-1.38443,85.632
2023-03-11 17:56:39:911,0,-5.68106,-1.38421,85.6308
2023-03-11 17:56:39:921,0,-5.67497,-1.38583,85.6315
2023-03-11 17:56:39:931,0,-5.66765,-1.38582,85.6335
2023-03-11 17:56:39:941,0,-5.65938,-1.38944,85.6326
2023-03-11 17:56:39:951,0,-5.64997,-1.39261,85.6329
2023-03-11 17:56:39:961,0,-5.63706,-1.39607,85.6317
2023-03-11 17:56:39:971,0,-5.62146,-1.40475,85.6308
2023-03-11 17:56:39:981,0,-5.60737,-1.41586,85.6313
2023-03-11 17:56:39:991,0,-5.59837,-1.43021,85.6345
2023-03-11 17:56:40:1,0,-5.58867,-1.44774,85.644
2023-03-11 17:56:40:11,0,-5.57843,-1.45657,85.6547
2023-03-11 17:56:40:21,0,-5.57144,-1.46316,85.6673
2023-03-11 17:56:40:31,0,-5.56699,-1.46661,85.6862
2023-03-11 17:56:40:41,0,-5.56366,-1.46919,85.7048
2023-03-11 17:56:40:51,0,-5.56009,-1.46968,85.7271
2023-03-11 17:56:40:61,0,-5.56044,-1.46928,85.7458
2023-03-11 17:56:40:71,0,-5.56369,-1.47037,85.7657
2023-03-11 17:56:40:81,0,-5.57154,-1.46477,85.7794
2023-03-11 17:56:40:91,0,-5.57985,-1.46519,85.7912
2023-03-11 17:56:40:101,0,-5.59351,-1.46158,85.7994
2023-03-11 17:56:40:111,0,-5.61074,-1.45694,85.8011
2023-03-11 17:56:40:121,0,-5.62428,-1.45284,85.8032
2023-03-11 17:56:40:131,0,-5.64403,-1.44857,85.7984
2023-03-11 17:56:40:141,0,-5.66562,-1.44352,85.793
2023-03-11 17:56:40:151,0,-5.68345,-1.44053,85.7867
2023-03-11 17:56:40:161,0,-5.70594,-1.43824,85.7764
2023-03-11 17:56:40:171,0,-5.72466,-1.4335,85.77
2023-03-11 17:56:40:181,0,-5.73991,-1.43129,85.7606
2023-03-11 17:56:40:191,0,-5.75563,-1.42924,85.7512
2023-03-11 17:56:40:201,0,-5.76551,-1.41945,85.7394
2023-03-11 17:56:40:211,0,-5.77745,-1.41426,85.7294
2023-03-11 17:56:40:221,0,-5.7878,-1.41003,85.7216
2023-03-11 17:56:40:231,0,-5.79479,-1.40064,85.7213
2023-03-11 17:56:40:241,0,-5.80681,-1.39196,85.7235
2023-03-11 17:56:40:251,0,-5.81744,-1.38205,85.7311
2023-03-11 17:56:40:261,0,-5.8316,-1.37168,85.7424
2023-03-11 17:56:40:271,0,-5.84417,-1.36132,85.7515
2023-03-11 17:56:40:281,0,-5.85336,-1.35245,85.7547
2023-03-11 17:56:40:291,0,-5.86255,-1.33732,85.753
2023-03-11 17:56:40:301,0,-5.86968,-1.32537,85.7499
2023-03-11 17:56:40:311,0,-5.87443,-1.31457,85.7423
2023-03-11 17:56:40:321,0,-5.87487,-1.30838,85.7318
2023-03-11 17:56:40:331,0,-5.87422,-1.3009,85.7232
2023-03-11 17:56:40:341,0,-5.87592,-1.30216,85.7104
2023-03-11 17:56:40:351,0,-5.87412,-1.30532,85.6957
2023-03-11 17:56:40:361,0,-5.87055,-1.31001,85.685
2023-03-11 17:56:40:371,0,-5.86962,-1.32187,85.6781
2023-03-11 17:56:40:381,0,-5.86367,-1.33294,85.6758
2023-03-11 17:56:40:391,0,-5.85726,-1.34665,85.6785
2023-03-11 17:56:40:401,0,-5.85052,-1.36276,85.6843
2023-03-11 17:56:40:411,0,-5.84811,-1.37629,85.7003
2023-03-11 17:56:40:421,0,-5.84249,-1.38796,85.7176
2023-03-11 17:56:40:431,0,-5.84016,-1.4038,85.7396
2023-03-11 17:56:40:441,0,-5.84042,-1.41956,85.7648
2023-03-11 17:56:40:451,0,-5.84276,-1.43379,85.7913
2023-03-11 17:56:40:461,0,-5.84038,-1.45164,85.8201
2023-03-11 17:56:40:471,0,-5.84042,-1.46916,85.8463
2023-03-11 17:56:40:481,0,-5.8417,-1.4812,85.8669
2023-03-11 17:56:40:491,0,-5.84332,-1.49258,85.8843
2023-03-11 17:56:40:501,0,-5.84481,-1.50488,85.8956
2023-03-11 17:56:40:511,0,-5.85007,-1.51467,85.9078
2023-03-11 17:56:40:521,0,-5.85666,-1.51626,85.9127
2023-03-11 17:56:40:531,0,-5.8653,-1.51754,85.9132
2023-03-11 17:56:40:541,0,-5.87587,-1.51449,85.9115
2023-03-11 17:56:40:551,0,-5.886,-1.51162,85.9075
2023-03-11 17:56:40:561,0,-5.89687,-1.49909,85.8962
2023-03-11 17:56:40:571,0,-5.91193,-1.48574,85.8814
2023-03-11 17:56:40:581,0,-5.92474,-1.46774,85.8658
2023-03-11 17:56:40:591,0,-5.93642,-1.45137,85.8487
2023-03-11 17:56:40:601,0,-5.93982,-1.43402,85.8341
2023-03-11 17:56:40:611,0,-5.93754,-1.41837,85.818
2023-03-11 17:56:40:621,0,-5.93773,-1.40717,85.8106
2023-03-11 17:56:40:631,0,-5.93368,-1.39781,85.805
2023-03-11 17:56:40:641,0,-5.92906,-1.38647,85.8004
2023-03-11 17:56:40:651,0,-5.92614,-1.3734,85.7967
2023-03-11 17:56:40:661,0,-5.92475,-1.36369,85.7956
2023-03-11 17:56:40:671,0,-5.92017,-1.35769,85.7903
2023-03-11 17:56:40:681,0,-5.92019,-1.35096,85.7848
2023-03-11 17:56:40:691,0,-5.92007,-1.34451,85.7778
2023-03-11 17:56:40:701,0,-5.92063,-1.3413,85.7643
2023-03-11 17:56:40:711,0,-5.92306,-1.34379,85.7487
2023-03-11 17:56:40:721,0,-5.92839,-1.3452,85.7349
2023-03-11 17:56:40:731,0,-5.93488,-1.34842,85.7242
2023-03-11 17:56:40:741,0,-5.93698,-1.35606,85.7141
2023-03-11 17:56:40:751,0,-5.94166,-1.36203,85.7117
2023-03-11 17:56:40:761,0,-5.94077,-1.37033,85.7099
2023-03-11 17:56:40:771,0,-5.94241,-1.3775,85.7149
2023-03-11 17:56:40:781,0,-5.94041,-1.38414,85.7234
2023-03-11 17:56:40:791,0,-5.94456,-1.38935,85.7331
2023-03-11 17:56:40:801,0,-5.95225,-1.40092,85.7458
2023-03-11 17:56:40:811,0,-5.95896,-1.41331,85.7627
2023-03-11 17:56:40:821,0,-5.96701,-1.42468,85.7783
2023-03-11 17:56:40:831,0,-5.97393,-1.43448,85.7942
2023-03-11 17:56:40:841,0,-5.97709,-1.44729,85.8045
2023-03-11 17:56:40:851,0,-5.9822,-1.45777,85.8127
2023-03-11 17:56:40:861,0,-5.98216,-1.46832,85.8182
2023-03-11 17:56:40:871,0,-5.98276,-1.47697,85.8222
2023-03-11 17:56:40:881,0,-5.98394,-1.48386,85.8255
2023-03-11 17:56:40:891,0,-5.98487,-1.48911,85.8276
2023-03-11 17:56:40:901,0,-5.98726,-1.49418,85.8318
2023-03-11 17:56:40:911,0,-5.99618,-1.49589,85.834
2023-03-11 17:56:40:921,0,-6.00341,-1.4942,85.8397
2023-03-11 17:56:40:931,0,-6.00985,-1.49222,85.8434
2023-03-11 17:56:40:941,0,-6.01785,-1.4863,85.8426
2023-03-11 17:56:40:951,0,-6.02139,-1.4778,85.84
2023-03-11 17:56:40:961,0,-6.029,-1.46756,85.8399
2023-03-11 17:56:40:971,0,-6.03405,-1.45282,85.8371
2023-03-11 17:56:40:981,0,-6.03981,-1.44184,85.8319
2023-03-11 17:56:40:991,0,-6.0431,-1.43047,85.8264
2023-03-11 17:56:41:1,0,-6.04829,-1.42061,85.8199
2023-03-11 17:56:41:11,0,-6.05005,-1.40772,85.8148
2023-03-11 17:56:41:21,0,-6.05268,-1.39626,85.8165
2023-03-11 17:56:41:31,0,-6.05395,-1.3846,85.8135
2023-03-11 17:56:41:41,0,-6.05284,-1.36764,85.8146
2023-03-11 17:56:41:51,0,-6.04943,-1.35027,85.8141
2023-03-11 17:56:41:61,0,-6.04397,-1.33998,85.8117
2023-03-11 17:56:41:71,0,-6.0358,-1.32795,85.8086
2023-03-11 17:56:41:81,0,-6.03044,-1.31757,85.8047
2023-03-11 17:56:41:91,0,-6.02223,-1.30885,85.8021
2023-03-11 17:56:41:101,0,-6.01259,-1.29824,85.7971
2023-03-11 17:56:41:111,0,-6.00504,-1.29303,85.7969
2023-03-11 17:56:41:121,0,-5.99332,-1.28979,85.7944
2023-03-11 17:56:41:131,0,-5.97654,-1.29451,85.7914
2023-03-11 17:56:41:141,0,-5.95835,-1.29526,85.7911
2023-03-11 17:56:41:151,0,-5.94327,-1.30035,85.7938
2023-03-11 17:56:41:161,0,-5.9396,-1.30345,85.8016
2023-03-11 17:56:41:171,0,-5.93911,-1.30802,85.8103
2023-03-11 17:56:41:181,0,-5.94187,-1.31091,85.8206
2023-03-11 17:56:41:191,0,-5.94807,-1.31246,85.8308
2023-03-11 17:56:41:201,0,-5.95557,-1.31165,85.8414
2023-03-11 17:56:41:211,0,-5.96569,-1.30788,85.8512
2023-03-11 17:56:41:221,0,-5.97751,-1.30396,85.8626
2023-03-11 17:56:41:231,0,-5.99163,-1.30242,85.8707
2023-03-11 17:56:41:241,0,-6.00127,-1.29768,85.8715
2023-03-11 17:56:41:251,0,-6.00918,-1.28836,85.8727
2023-03-11 17:56:41:261,0,-6.01898,-1.28048,85.8681
2023-03-11 17:56:41:271,0,-6.02902,-1.27242,85.8642
2023-03-11 17:56:41:281,0,-6.03963,-1.26048,85.8595
2023-03-11 17:56:41:291,0,-6.05141,-1.24822,85.8539
2023-03-11 17:56:41:301,0,-6.06424,-1.23205,85.8445
2023-03-11 17:56:41:311,0,-6.07424,-1.22208,85.8378
2023-03-11 17:56:41:321,0,-6.08565,-1.20973,85.8321
2023-03-11 17:56:41:331,0,-6.09638,-1.19824,85.8272
2023-03-11 17:56:41:341,0,-6.11023,-1.18318,85.8236
2023-03-11 17:56:41:351,0,-6.12219,-1.16839,85.8173
2023-03-11 17:56:41:361,0,-6.12633,-1.15826,85.8105
2023-03-11 17:56:41:371,0,-6.1279,-1.15489,85.8074
2023-03-11 17:56:41:381,0,-6.12984,-1.15324,85.8097
2023-03-11 17:56:41:391,0,-6.12792,-1.15063,85.8116
2023-03-11 17:56:41:401,0,-6.12346,-1.14531,85.8097
2023-03-11 17:56:41:411,0,-6.12221,-1.13738,85.8104
2023-03-11 17:56:41:421,0,-6.1209,-1.12719,85.8067
2023-03-11 17:56:41:431,0,-6.11785,-1.11899,85.8027
2023-03-11 17:56:41:441,0,-6.1205,-1.1093,85.8013
2023-03-11 17:56:41:451,0,-6.11852,-1.1037,85.7963
2023-03-11 17:56:41:461,0,-6.11691,-1.09436,85.7877
2023-03-11 17:56:41:471,0,-6.11381,-1.08599,85.7753
2023-03-11 17:56:41:481,0,-6.10912,-1.07605,85.7673
2023-03-11 17:56:41:491,0,-6.1044,-1.06621,85.7563
2023-03-11 17:56:41:501,0,-6.09826,-1.05973,85.7482
2023-03-11 17:56:41:511,0,-6.08619,-1.05579,85.7399
2023-03-11 17:56:41:521,0,-6.07514,-1.05523,85.7354
2023-03-11 17:56:41:531,0,-6.06127,-1.05386,85.7329
2023-03-11 17:56:41:541,0,-6.05053,-1.05134,85.7355
2023-03-11 17:56:41:551,0,-6.03987,-1.05258,85.7442
2023-03-11 17:56:41:561,0,-6.02936,-1.05096,85.7525
2023-03-11 17:56:41:571,0,-6.01943,-1.05002,85.7585
2023-03-11 17:56:41:581,0,-6.00908,-1.04972,85.7644
2023-03-11 17:56:41:591,0,-6.00258,-1.05531,85.7714
2023-03-11 17:56:41:601,0,-5.99753,-1.05993,85.7765
2023-03-11 17:56:41:611,0,-5.99389,-1.06782,85.7775
2023-03-11 17:56:41:621,0,-5.99358,-1.07375,85.7785
2023-03-11 17:56:41:631,0,-5.99012,-1.08028,85.7715
2023-03-11 17:56:41:641,0,-5.98841,-1.08539,85.7686
2023-03-11 17:56:41:651,0,-5.98659,-1.08896,85.7654
2023-03-11 17:56:41:661,0,-5.98722,-1.08977,85.7613
2023-03-11 17:56:41:671,0,-5.989,-1.09436,85.7601
2023-03-11 17:56:41:681,0,-5.99174,-1.09779,85.7598
2023-03-11 17:56:41:691,0,-5.99216,-1.10249,85.7591
2023-03-11 17:56:41:701,0,-5.99433,-1.10191,85.7603
2023-03-11 17:56:41:711,0,-5.99635,-1.10443,85.7602
2023-03-11 17:56:41:721,0,-5.99944,-1.10328,85.7608
2023-03-11 17:56:41:731,0,-6.00289,-1.10647,85.7587
2023-03-11 17:56:41:741,0,-6.00676,-1.11101,85.7561
2023-03-11 17:56:41:751,0,-6.01433,-1.11502,85.755
2023-03-11 17:56:41:761,0,-6.0191,-1.11349,85.7518
2023-03-11 17:56:41:771,0,-6.02067,-1.11562,85.7483
2023-03-11 17:56:41:781,0,-6.02049,-1.11988,85.7437
2023-03-11 17:56:41:791,0,-6.01604,-1.12214,85.7375
2023-03-11 17:56:41:801,0,-6.01102,-1.12331,85.7322
2023-03-11 17:56:41:811,0,-6.00639,-1.12188,85.729
2023-03-11 17:56:41:821,0,-6.00266,-1.11968,85.7276
2023-03-11 17:56:41:831,0,-5.99897,-1.11724,85.7255
2023-03-11 17:56:41:841,0,-5.99136,-1.11259,85.7228
2023-03-11 17:56:41:851,0,-5.9866,-1.10987,85.7226
2023-03-11 17:56:41:861,0,-5.98276,-1.10687,85.7205
2023-03-11 17:56:41:871,0,-5.98158,-1.10312,85.7179
2023-03-11 17:56:41:881,0,-5.97887,-1.0959,85.7112
2023-03-11 17:56:41:891,0,-5.97858,-1.09044,85.7027
2023-03-11 17:56:41:901,0,-5.97893,-1.08668,85.6946
2023-03-11 17:56:41:911,0,-5.98054,-1.08228,85.6844
2023-03-11 17:56:41:921,0,-5.97832,-1.08432,85.6738
2023-03-11 17:56:41:931,0,-5.97902,-1.08454,85.6619
2023-03-11 17:56:41:941,0,-5.98469,-1.08689,85.6573
2023-03-11 17:56:41:951,0,-5.99301,-1.09115,85.6538
2023-03-11 17:56:41:961,0,-6.00315,-1.0942,85.6507
2023-03-11 17:56:41:971,0,-6.01167,-1.09611,85.6514
2023-03-11 17:56:41:981,0,-6.02267,-1.0993,85.6551
2023-03-11 17:56:41:991,0,-6.03137,-1.10644,85.6598
2023-03-11 17:56:42:1,0,-6.045,-1.115,85.6638
2023-03-11 17:56:42:11,0,-6.0581,-1.1207,85.674
2023-03-11 17:56:42:21,0,-6.06892,-1.12746,85.6817
2023-03-11 17:56:42:31,0,-6.08287,-1.13553,85.6892
2023-03-11 17:56:42:41,0,-6.09506,-1.14079,85.6969
2023-03-11 17:56:42:51,0,-6.10721,-1.14827,85.6978
2023-03-11 17:56:42:61,0,-6.11847,-1.14993,85.6987
2023-03-11 17:56:42:71,0,-6.12924,-1.15293,85.6958
2023-03-11 17:56:42:81,0,-6.14137,-1.15261,85.6943
2023-03-11 17:56:42:91,0,-6.15561,-1.14807,85.6889
2023-03-11 17:56:42:101,0,-6.16583,-1.14465,85.6808
2023-03-11 17:56:42:111,0,-6.17714,-1.14187,85.6741
2023-03-11 17:56:42:121,0,-6.19154,-1.13621,85.6661
2023-03-11 17:56:42:131,0,-6.20691,-1.1289,85.6576
2023-03-11 17:56:42:141,0,-6.21852,-1.11589,85.6438
2023-03-11 17:56:42:151,0,-6.22793,-1.10487,85.6313
2023-03-11 17:56:42:161,0,-6.23588,-1.09644,85.619
2023-03-11 17:56:42:171,0,-6.24107,-1.08726,85.6086
2023-03-11 17:56:42:181,0,-6.24493,-1.08411,85.5993
2023-03-11 17:56:42:191,0,-6.24841,-1.08087,85.5895
2023-03-11 17:56:42:201,0,-6.25097,-1.07142,85.5802
2023-03-11 17:56:42:211,0,-6.252,-1.06521,85.5739
2023-03-11 17:56:42:221,0,-6.24704,-1.06034,85.566
2023-03-11 17:56:42:231,0,-6.24517,-1.05061,85.5599
2023-03-11 17:56:42:241,0,-6.23792,-1.04238,85.5573
2023-03-11 17:56:42:251,0,-6.23382,-1.03246,85.5522
2023-03-11 17:56:42:261,0,-6.22881,-1.02537,85.5512
2023-03-11 17:56:42:271,0,-6.22098,-1.02108,85.5507
2023-03-11 17:56:42:281,0,-6.21147,-1.01777,85.5491
2023-03-11 17:56:42:291,0,-6.20183,-1.01653,85.5447
2023-03-11 17:56:42:301,0,-6.19334,-1.01743,85.5404
2023-03-11 17:56:42:311,0,-6.18729,-1.01987,85.5303
2023-03-11 17:56:42:321,0,-6.18619,-1.02681,85.5211
2023-03-11 17:56:42:331,0,-6.18311,-1.03454,85.5126
2023-03-11 17:56:42:341,0,-6.1787,-1.04429,85.5058
2023-03-11 17:56:42:351,0,-6.17501,-1.05452,85.5031
2023-03-11 17:56:42:361,0,-6.16683,-1.06472,85.4961
2023-03-11 17:56:42:371,0,-6.1645,-1.0726,85.5002
2023-03-11 17:56:42:381,0,-6.16052,-1.07984,85.5062
2023-03-11 17:56:42:391,0,-6.16017,-1.08297,85.5091
2023-03-11 17:56:42:401,0,-6.16459,-1.08798,85.517
2023-03-11 17:56:42:411,0,-6.17284,-1.08963,85.5248
2023-03-11 17:56:42:421,0,-6.18094,-1.09498,85.5344
2023-03-11 17:56:42:431,0,-6.18928,-1.09818,85.5396
2023-03-11 17:56:42:441,0,-6.19841,-1.10002,85.543
2023-03-11 17:56:42:451,0,-6.21193,-1.09998,85.5428
2023-03-11 17:56:42:461,0,-6.22362,-1.10167,85.5432
2023-03-11 17:56:42:471,0,-6.23186,-1.10413,85.5359
2023-03-11 17:56:42:481,0,-6.24423,-1.1086,85.531
2023-03-11 17:56:42:491,0,-6.25551,-1.11186,85.5266
2023-03-11 17:56:42:501,0,-6.26509,-1.11377,85.5231
2023-03-11 17:56:42:511,0,-6.27331,-1.11593,85.5191
2023-03-11 17:56:42:521,0,-6.28342,-1.11396,85.5137
2023-03-11 17:56:42:531,0,-6.28968,-1.11663,85.5089
2023-03-11 17:56:42:541,0,-6.29296,-1.1155,85.5063
2023-03-11 17:56:42:551,0,-6.29632,-1.11783,85.5067
2023-03-11 17:56:42:561,0,-6.29943,-1.11843,85.5034
2023-03-11 17:56:42:571,0,-6.30048,-1.12075,85.5013
2023-03-11 17:56:42:581,0,-6.30109,-1.12002,85.5036
2023-03-11 17:56:42:591,0,-6.30494,-1.12595,85.5048
2023-03-11 17:56:42:601,0,-6.30703,-1.12985,85.5048
2023-03-11 17:56:42:611,0,-6.31133,-1.1296,85.5053
2023-03-11 17:56:42:621,0,-6.31371,-1.12837,85.5071
2023-03-11 17:56:42:631,0,-6.31543,-1.12514,85.5109
2023-03-11 17:56:42:641,0,-6.3151,-1.12552,85.5137
2023-03-11 17:56:42:651,0,-6.31394,-1.12432,85.5182
2023-03-11 17:56:42:661,0,-6.31521,-1.11938,85.5217
2023-03-11 17:56:42:671,0,-6.3166,-1.11477,85.5229
2023-03-11 17:56:42:681,0,-6.31475,-1.11366,85.5252
2023-03-11 17:56:42:691,0,-6.3158,-1.10766,85.5243
2023-03-11 17:56:42:701,0,-6.31383,-1.1044,85.5241
2023-03-11 17:56:42:711,0,-6.30625,-1.10694,85.5189
2023-03-11 17:56:42:721,0,-6.29969,-1.10818,85.5191
2023-03-11 17:56:42:731,0,-6.29918,-1.11356,85.5187
2023-03-11 17:56:42:741,0,-6.3006,-1.12127,85.5186
2023-03-11 17:56:42:751,0,-6.30489,-1.12732,85.5188
2023-03-11 17:56:42:761,0,-6.31404,-1.1353,85.518
2023-03-11 17:56:42:771,0,-6.32325,-1.13868,85.5235
2023-03-11 17:56:42:781,0,-6.33634,-1.14553,85.5269
2023-03-11 17:56:42:791,0,-6.34667,-1.15239,85.535
2023-03-11 17:56:42:801,0,-6.3551,-1.15863,85.5401
2023-03-11 17:56:42:811,0,-6.36664,-1.16432,85.5463
2023-03-11 17:56:42:821,0,-6.37982,-1.16984,85.5546
2023-03-11 17:56:42:831,0,-6.39405,-1.17321,85.5597
2023-03-11 17:56:42:841,0,-6.40441,-1.17683,85.5665
2023-03-11 17:56:42:851,0,-6.41824,-1.17588,85.5704
2023-03-11 17:56:42:861,0,-6.43141,-1.17409,85.5685
2023-03-11 17:56:42:871,0,-6.44636,-1.16693,85.569
2023-03-11 17:56:42:881,0,-6.45759,-1.16198,85.567
2023-03-11 17:56:42:891,0,-6.46507,-1.15717,85.5634
2023-03-11 17:56:42:901,0,-6.47538,-1.15326,85.5574
2023-03-11 17:56:42:911,0,-6.48946,-1.14424,85.5479
2023-03-11 17:56:42:921,0,-6.50107,-1.13375,85.5445
2023-03-11 17:56:42:931,0,-6.51061,-1.11877,85.5328
2023-03-11 17:56:42:941,0,-6.51503,-1.10594,85.522
2023-03-11 17:56:42:951,0,-6.51894,-1.09687,85.5149
2023-03-11 17:56:42:961,0,-6.52107,-1.09479,85.5084
2023-03-11 17:56:42:971,0,-6.52035,-1.08977,85.5068
2023-03-11 17:56:42:981,0,-6.51896,-1.08459,85.5022
2023-03-11 17:56:42:991,0,-6.51281,-1.07789,85.5008
2023-03-11 17:56:43:1,0,-6.50436,-1.07377,85.5015
2023-03-11 17:56:43:11,0,-6.49905,-1.06584,85.5031
2023-03-11 17:56:43:21,0,-6.49229,-1.05975,85.5031
2023-03-11 17:56:43:31,0,-6.48312,-1.05968,85.5012
2023-03-11 17:56:43:41,0,-6.47554,-1.05996,85.5011
2023-03-11 17:56:43:51,0,-6.46621,-1.06148,85.4974
2023-03-11 17:56:43:61,0,-6.4591,-1.06189,85.4951
2023-03-11 17:56:43:71,0,-6.45042,-1.0645,85.4942
2023-03-11 17:56:43:81,0,-6.44385,-1.06964,85.49
2023-03-11 17:56:43:91,0,-6.43675,-1.07442,85.4869
2023-03-11 17:56:43:101,0,-6.43114,-1.07976,85.4857
2023-03-11 17:56:43:111,0,-6.4219,-1.08162,85.4858
2023-03-11 17:56:43:121,0,-6.41319,-1.08864,85.4879
2023-03-11 17:56:43:131,0,-6.40215,-1.09568,85.4914
2023-03-11 17:56:43:141,0,-6.39349,-1.10242,85.4963
2023-03-11 17:56:43:151,0,-6.38637,-1.11224,85.5057
2023-03-11 17:56:43:161,0,-6.38114,-1.11912,85.5147
2023-03-11 17:56:43:171,0,-6.37719,-1.12244,85.523
2023-03-11 17:56:43:181,0,-6.37621,-1.12768,85.5326
2023-03-11 17:56:43:191,0,-6.37369,-1.13036,85.5384
2023-03-11 17:56:43:201,0,-6.36966,-1.13593,85.5427
2023-03-11 17:56:43:211,0,-6.36411,-1.13955,85.5482
2023-03-11 17:56:43:221,0,-6.36021,-1.14647,85.5523
2023-03-11 17:56:43:231,0,-6.35897,-1.15207,85.5518
2023-03-11 17:56:43:241,0,-6.35832,-1.15932,85.5527
2023-03-11 17:56:43:251,0,-6.35959,-1.16157,85.5495
2023-03-11 17:56:43:261,0,-6.36452,-1.16407,85.5465
2023-03-11 17:56:43:271,0,-6.36925,-1.16832,85.543
2023-03-11 17:56:43:281,0,-6.36901,-1.17246,85.5396
2023-03-11 17:56:43:291,0,-6.36753,-1.17428,85.5362
2023-03-11 17:56:43:301,0,-6.36166,-1.17575,85.5373
2023-03-11 17:56:43:311,0,-6.3583,-1.17723,85.5409
2023-03-11 17:56:43:321,0,-6.3532,-1.17615,85.543
2023-03-11 17:56:43:331,0,-6.34492,-1.17817,85.5505
2023-03-11 17:56:43:341,0,-6.3378,-1.17608,85.5554
2023-03-11 17:56:43:351,0,-6.33268,-1.17767,85.5619
2023-03-11 17:56:43:361,0,-6.32945,-1.17789,85.5672
2023-03-11 17:56:43:371,0,-6.32471,-1.18,85.5736
2023-03-11 17:56:43:381,0,-6.32334,-1.18269,85.579
2023-03-11 17:56:43:391,0,-6.31882,-1.18699,85.5844
2023-03-11 17:56:43:401,0,-6.31344,-1.19271,85.5869
2023-03-11 17:56:43:411,0,-6.30141,-1.19552,85.5923
2023-03-11 17:56:43:421,0,-6.29092,-1.20024,85.5958
2023-03-11 17:56:43:431,0,-6.27894,-1.20517,85.5966
2023-03-11 17:56:43:441,0,-6.26722,-1.20776,85.5993
2023-03-11 17:56:43:451,0,-6.25516,-1.21306,85.606
2023-03-11 17:56:43:461,0,-6.24483,-1.21564,85.6069
2023-03-11 17:56:43:471,0,-6.23662,-1.21795,85.6072
2023-03-11 17:56:43:481,0,-6.22854,-1.21897,85.6062
2023-03-11 17:56:43:491,0,-6.2299,-1.22352,85.6074
2023-03-11 17:56:43:501,0,-6.23003,-1.22463,85.6084
2023-03-11 17:56:43:511,0,-6.22958,-1.2289,85.6074
2023-03-11 17:56:43:521,0,-6.22713,-1.23585,85.6063
2023-03-11 17:56:43:531,0,-6.22602,-1.25366,85.609
2023-03-11 17:56:43:541,0,-6.22636,-1.26879,85.6149
2023-03-11 17:56:43:551,0,-6.23141,-1.28559,85.6252
2023-03-11 17:56:43:561,0,-6.23812,-1.30244,85.638
2023-03-11 17:56:43:571,0,-6.24476,-1.31811,85.6543
2023-03-11 17:56:43:581,0,-6.25355,-1.33327,85.671
2023-03-11 17:56:43:591,0,-6.26297,-1.34704,85.6918
2023-03-11 17:56:43:601,0,-6.27057,-1.36244,85.7106
2023-03-11 17:56:43:611,0,-6.28267,-1.37214,85.7294
2023-03-11 17:56:43:621,0,-6.29233,-1.37946,85.7436
2023-03-11 17:56:43:631,0,-6.30346,-1.38609,85.7578
2023-03-11 17:56:43:641,0,-6.31037,-1.38943,85.7639
2023-03-11 17:56:43:651,0,-6.31885,-1.39039,85.7716
2023-03-11 17:56:43:661,0,-6.32867,-1.38892,85.7717
2023-03-11 17:56:43:671,0,-6.33431,-1.38577,85.7672
2023-03-11 17:56:43:681,0,-6.34223,-1.37873,85.7627
2023-03-11 17:56:43:691,0,-6.34752,-1.36997,85.7526
2023-03-11 17:56:43:701,0,-6.35651,-1.35874,85.742
2023-03-11 17:56:43:711,0,-6.3649,-1.34474,85.7325
2023-03-11 17:56:43:721,0,-6.37158,-1.33497,85.7245
2023-03-11 17:56:43:731,0,-6.38216,-1.32136,85.7182
2023-03-11 17:56:43:741,0,-6.38922,-1.30414,85.7111
2023-03-11 17:56:43:751,0,-6.39496,-1.28828,85.7023
2023-03-11 17:56:43:761,0,-6.39808,-1.27448,85.6936
2023-03-11 17:56:43:771,0,-6.39699,-1.26446,85.6877
2023-03-11 17:56:43:781,0,-6.39841,-1.25481,85.6826
2023-03-11 17:56:43:791,0,-6.39741,-1.24905,85.6812
2023-03-11 17:56:43:801,0,-6.39594,-1.24858,85.6815
2023-03-11 17:56:43:811,0,-6.39792,-1.24541,85.6859
2023-03-11 17:56:43:821,0,-6.39777,-1.24261,85.6884
2023-03-11 17:56:43:831,0,-6.39758,-1.24056,85.6961
2023-03-11 17:56:43:841,0,-6.39859,-1.24086,85.706
2023-03-11 17:56:43:851,0,-6.39391,-1.24013,85.7123
2023-03-11 17:56:43:861,0,-6.39435,-1.24319,85.7209
2023-03-11 17:56:43:871,0,-6.39557,-1.24691,85.7291
2023-03-11 17:56:43:881,0,-6.39635,-1.25571,85.7391
2023-03-11 17:56:43:891,0,-6.39551,-1.26487,85.7445
2023-03-11 17:56:43:901,0,-6.39812,-1.27465,85.7499
2023-03-11 17:56:43:911,0,-6.39955,-1.28266,85.7555
2023-03-11 17:56:43:921,0,-6.4024,-1.29614,85.768
2023-03-11 17:56:43:931,0,-6.40509,-1.30675,85.7789
2023-03-11 17:56:43:941,0,-6.40436,-1.31576,85.7882
2023-03-11 17:56:43:951,0,-6.40638,-1.32408,85.7977
2023-03-11 17:56:43:961,0,-6.40609,-1.33274,85.8073
2023-03-11 17:56:43:971,0,-6.40809,-1.33904,85.8118
2023-03-11 17:56:43:981,0,-6.41233,-1.3471,85.8195
2023-03-11 17:56:43:991,0,-6.41666,-1.35104,85.828
2023-03-11 17:56:44:1,0,-6.42325,-1.35804,85.8342
2023-03-11 17:56:44:11,0,-6.43145,-1.36349,85.8408
2023-03-11 17:56:44:21,0,-6.43706,-1.36872,85.8453
2023-03-11 17:56:44:31,0,-6.44472,-1.37224,85.8485
2023-03-11 17:56:44:41,0,-6.4511,-1.37333,85.8507
2023-03-11 17:56:44:51,0,-6.46078,-1.37472,85.8529
2023-03-11 17:56:44:61,0,-6.47086,-1.37889,85.8544
2023-03-11 17:56:44:71,0,-6.47913,-1.37716,85.8551
2023-03-11 17:56:44:81,0,-6.48966,-1.37848,85.8549
2023-03-11 17:56:44:91,0,-6.49944,-1.37827,85.8544
2023-03-11 17:56:44:101,0,-6.5094,-1.37919,85.8559
2023-03-11 17:56:44:111,0,-6.51848,-1.37525,85.8545
2023-03-11 17:56:44:121,0,-6.52463,-1.36954,85.8528
2023-03-11 17:56:44:131,0,-6.52893,-1.36663,85.8496
2023-03-11 17:56:44:141,0,-6.53208,-1.36397,85.8453
2023-03-11 17:56:44:151,0,-6.53554,-1.35589,85.8412
2023-03-11 17:56:44:161,0,-6.53622,-1.34912,85.8346
2023-03-11 17:56:44:171,0,-6.54152,-1.34292,85.8316
2023-03-11 17:56:44:181,0,-6.54346,-1.33724,85.8319
2023-03-11 17:56:44:191,0,-6.54531,-1.33499,85.8339
2023-03-11 17:56:44:201,0,-6.55184,-1.33257,85.8336
2023-03-11 17:56:44:211,0,-6.55125,-1.33253,85.8362
2023-03-11 17:56:44:221,0,-6.55198,-1.33103,85.8369
2023-03-11 17:56:44:231,0,-6.55214,-1.33295,85.8419
2023-03-11 17:56:44:241,0,-6.55384,-1.3359,85.8474
2023-03-11 17:56:44:251,0,-6.55797,-1.33903,85.8521
2023-03-11 17:56:44:261,0,-6.55976,-1.33994,85.8609
2023-03-11 17:56:44:271,0,-6.56274,-1.33905,85.8645
2023-03-11 17:56:44:281,0,-6.5684,-1.33733,85.8649
2023-03-11 17:56:44:291,0,-6.57164,-1.3371,85.8639
2023-03-11 17:56:44:301,0,-6.57701,-1.33404,85.8615
2023-03-11 17:56:44:311,0,-6.58176,-1.33244,85.8595
2023-03-11 17:56:44:321,0,-6.58926,-1.33179,85.8547
2023-03-11 17:56:44:331,0,-6.59592,-1.33599,85.8491
2023-03-11 17:56:44:340,0,-6.60118,-1.33869,85.845
2023-03-11 17:56:44:351,0,-6.60301,-1.33871,85.8401
2023-03-11 17:56:44:361,0,-6.60463,-1.34266,85.8352
2023-03-11 17:56:44:371,0,-6.6016,-1.35417,85.835
2023-03-11 17:56:44:381,0,-6.6002,-1.36636,85.8366
2023-03-11 17:56:44:391,0,-6.60448,-1.37931,85.8401
2023-03-11 17:56:44:401,0,-6.60887,-1.38681,85.8489
2023-03-11 17:56:44:411,0,-6.615,-1.39027,85.8582
2023-03-11 17:56:44:421,0,-6.62401,-1.39503,85.8681
2023-03-11 17:56:44:431,0,-6.63531,-1.40447,85.884
2023-03-11 17:56:44:441,0,-6.64887,-1.41289,85.8995
2023-03-11 17:56:44:451,0,-6.65531,-1.42312,85.9169
2023-03-11 17:56:44:461,0,-6.65899,-1.43406,85.9332
2023-03-11 17:56:44:471,0,-6.66399,-1.44149,85.944
2023-03-11 17:56:44:481,0,-6.66616,-1.44548,85.9498
2023-03-11 17:56:44:491,0,-6.67059,-1.45135,85.9594
2023-03-11 17:56:44:501,0,-6.67546,-1.4516,85.9659
2023-03-11 17:56:44:511,0,-6.68406,-1.45509,85.9678
2023-03-11 17:56:44:521,0,-6.69548,-1.45256,85.9689
2023-03-11 17:56:44:531,0,-6.70734,-1.45035,85.9663
2023-03-11 17:56:44:541,0,-6.71686,-1.44966,85.96
2023-03-11 17:56:44:551,0,-6.7241,-1.44772,85.9561
2023-03-11 17:56:44:561,0,-6.73254,-1.44432,85.9496
2023-03-11 17:56:44:571,0,-6.7378,-1.43821,85.94
2023-03-11 17:56:44:581,0,-6.74142,-1.43301,85.9309
2023-03-11 17:56:44:591,0,-6.74047,-1.42544,85.919
2023-03-11 17:56:44:601,0,-6.73693,-1.41718,85.9051
2023-03-11 17:56:44:611,0,-6.73386,-1.41564,85.8967
2023-03-11 17:56:44:621,0,-6.72771,-1.41215,85.8907
2023-03-11 17:56:44:631,0,-6.72846,-1.41176,85.886
2023-03-11 17:56:44:641,0,-6.72867,-1.40571,85.8815
2023-03-11 17:56:44:651,0,-6.73134,-1.40017,85.8815
2023-03-11 17:56:44:661,0,-6.73578,-1.39151,85.8837
2023-03-11 17:56:44:671,0,-6.74075,-1.3798,85.886
2023-03-11 17:56:44:681,0,-6.74849,-1.36739,85.8872
2023-03-11 17:56:44:691,0,-6.7559,-1.3603,85.8911
2023-03-11 17:56:44:701,0,-6.76355,-1.35583,85.8909
2023-03-11 17:56:44:711,0,-6.77217,-1.35525,85.8901
2023-03-11 17:56:44:721,0,-6.77533,-1.3561,85.8897
