Timestamp_cmd,imu_cmd,roll_delta,pitch_delta,yaw_delta,voice_type,voice_length
2023-03-15 12:53:53:899,0,-6.93468,-4.96509,-40.6542,Q,Q
2023-03-15 12:53:53:907,0,-6.93697,-4.96434,-40.6397,Q,Q
2023-03-15 12:53:53:917,0,-6.93858,-4.96477,-40.6257,Q,Q
2023-03-15 12:53:53:927,0,-6.94203,-4.96326,-40.6137,Q,Q
2023-03-15 12:53:53:937,0,-6.94563,-4.95981,-40.6056,Q,Q
2023-03-15 12:53:53:948,0,-6.94279,-4.95519,-40.5999,Q,Q
2023-03-15 12:53:53:957,0,-6.94365,-4.94757,-40.5886,Q,Q
2023-03-15 12:53:53:967,0,-6.94252,-4.94578,-40.5716,Q,Q
2023-03-15 12:53:53:977,0,-6.9398,-4.94812,-40.5546,Q,Q
2023-03-15 12:53:53:987,0,-6.9407,-4.95688,-40.5348,Q,Q
2023-03-15 12:53:53:997,0,-6.93981,-4.9703,-40.5134,Q,Q
2023-03-15 12:53:54:7,0,-6.93941,-4.98092,-40.497,Q,Q
2023-03-15 12:53:54:17,0,-6.93215,-4.98389,-40.4849,Q,Q
2023-03-15 12:53:54:27,0,-6.92561,-4.98443,-40.467,Q,Q
2023-03-15 12:53:54:37,0,-6.92075,-4.98562,-40.4486,Q,Q
2023-03-15 12:53:54:47,0,-6.91452,-4.97837,-40.4287,Q,Q
2023-03-15 12:53:54:58,0,-6.90574,-4.97983,-40.4103,Q,Q
2023-03-15 12:53:54:67,0,-6.89685,-4.98199,-40.3896,Q,Q
2023-03-15 12:53:54:77,0,-6.89064,-4.98386,-40.374,Q,Q
2023-03-15 12:53:54:88,0,-6.88905,-4.98601,-40.357,Q,Q
2023-03-15 12:53:54:98,0,-6.88874,-4.98884,-40.3464,Q,Q
2023-03-15 12:53:54:107,0,-6.89078,-4.98878,-40.338,Q,Q
2023-03-15 12:53:54:117,0,-6.89408,-4.99042,-40.3313,Q,Q
2023-03-15 12:53:54:128,0,-6.89286,-4.99631,-40.3224,Q,Q
2023-03-15 12:53:54:138,0,-6.88661,-5.00066,-40.3143,Q,Q
2023-03-15 12:53:54:147,0,-6.88166,-5.00682,-40.3061,Q,Q
2023-03-15 12:53:54:157,0,-6.87013,-5.01162,-40.2965,Q,Q
2023-03-15 12:53:54:167,0,-6.8599,-5.01474,-40.2871,Q,Q
2023-03-15 12:53:54:177,0,-6.84963,-5.01621,-40.2741,Q,Q
2023-03-15 12:53:54:187,0,-6.83767,-5.01693,-40.2562,Q,Q
2023-03-15 12:53:54:197,0,-6.8317,-5.01747,-40.2307,Q,Q
2023-03-15 12:53:54:207,0,-6.82721,-5.01308,-40.2057,Q,Q
2023-03-15 12:53:54:218,0,-6.8252,-5.00595,-40.1786,Q,Q
2023-03-15 12:53:54:227,0,-6.82134,-4.99337,-40.1472,Q,Q
2023-03-15 12:53:54:237,0,-6.81973,-4.98466,-40.1141,Q,Q
2023-03-15 12:53:54:248,0,-6.81581,-4.97605,-40.0766,Q,Q
2023-03-15 12:53:54:258,0,-6.81582,-4.97336,-40.0366,Q,Q
2023-03-15 12:53:54:267,0,-6.81664,-4.97006,-40.0029,Q,Q
2023-03-15 12:53:54:277,0,-6.82008,-4.97017,-39.9663,Q,Q
2023-03-15 12:53:54:288,0,-6.82669,-4.96842,-39.9361,Q,Q
2023-03-15 12:53:54:297,0,-6.83488,-4.96549,-39.9101,Q,Q
2023-03-15 12:53:54:307,0,-6.84465,-4.96336,-39.889,Q,Q
2023-03-15 12:53:54:317,0,-6.8575,-4.96095,-39.8638,Q,Q
2023-03-15 12:53:54:327,0,-6.87006,-4.96411,-39.8422,Q,Q
2023-03-15 12:53:54:337,0,-6.88834,-4.96529,-39.8261,Q,Q
2023-03-15 12:53:54:347,0,-6.90328,-4.97035,-39.8081,Q,Q
2023-03-15 12:53:54:357,0,-6.91724,-4.9744,-39.7959,Q,Q
2023-03-15 12:53:54:367,0,-6.92924,-4.98016,-39.7837,Q,Q
2023-03-15 12:53:54:377,0,-6.94179,-4.98985,-39.7737,Q,Q
2023-03-15 12:53:54:387,0,-6.9485,-4.99492,-39.7624,Q,Q
2023-03-15 12:53:54:397,0,-6.95762,-4.99996,-39.7505,Q,Q
2023-03-15 12:53:54:408,0,-6.96205,-5.00882,-39.739,Q,Q
2023-03-15 12:53:54:418,0,-6.96682,-5.01579,-39.7228,Q,Q
2023-03-15 12:53:54:428,0,-6.97239,-5.0206,-39.7064,Q,Q
2023-03-15 12:53:54:437,0,-6.97647,-5.02387,-39.6855,Q,Q
2023-03-15 12:53:54:448,0,-6.98415,-5.02756,-39.6654,Q,Q
2023-03-15 12:53:54:458,0,-6.99165,-5.03044,-39.6431,Q,Q
2023-03-15 12:53:54:468,0,-6.99467,-5.03429,-39.6209,Q,Q
2023-03-15 12:53:54:477,0,-6.99982,-5.0332,-39.5995,Q,Q
2023-03-15 12:53:54:487,0,-7.00334,-5.03222,-39.5804,Q,Q
2023-03-15 12:53:54:497,0,-7.00267,-5.03141,-39.5626,Q,Q
2023-03-15 12:53:54:507,0,-7.00253,-5.02749,-39.5447,Q,Q
2023-03-15 12:53:54:517,0,-7.0008,-5.026,-39.5266,Q,Q
2023-03-15 12:53:54:527,0,-7.00037,-5.02555,-39.5064,Q,Q
2023-03-15 12:53:54:537,0,-7.00251,-5.02648,-39.4866,Q,Q
2023-03-15 12:53:54:547,0,-7.0039,-5.02739,-39.4667,Q,Q
2023-03-15 12:53:54:557,0,-7.00608,-5.02878,-39.4473,Q,Q
2023-03-15 12:53:54:567,0,-7.00716,-5.02758,-39.4309,Q,Q
2023-03-15 12:53:54:577,0,-7.00887,-5.02302,-39.4128,Q,Q
2023-03-15 12:53:54:587,0,-7.00992,-5.02001,-39.3973,Q,Q
2023-03-15 12:53:54:597,0,-7.01052,-5.01615,-39.3805,Q,Q
2023-03-15 12:53:54:607,0,-7.01654,-5.01335,-39.3652,Q,Q
2023-03-15 12:53:54:617,0,-7.02339,-5.00853,-39.352,Q,Q
2023-03-15 12:53:54:627,0,-7.02395,-5.00867,-39.3412,Q,Q
2023-03-15 12:53:54:637,0,-7.02425,-5.00842,-39.3343,Q,Q
2023-03-15 12:53:54:647,0,-7.02189,-5.00756,-39.3238,Q,Q
2023-03-15 12:53:54:657,0,-7.02232,-5.00763,-39.3147,Q,Q
2023-03-15 12:53:54:667,0,-7.02115,-5.00603,-39.3099,Q,Q
2023-03-15 12:53:54:677,0,-7.02012,-5.00682,-39.3025,Q,Q
2023-03-15 12:53:54:687,0,-7.01711,-5.00613,-39.2973,Q,Q
2023-03-15 12:53:54:697,0,-7.01172,-5.00483,-39.2924,Q,Q
2023-03-15 12:53:54:707,0,-7.0082,-5.00357,-39.2878,Q,Q
2023-03-15 12:53:54:717,0,-7.00471,-5.00389,-39.2857,Q,Q
2023-03-15 12:53:54:727,0,-7.00304,-5.00591,-39.2799,Q,Q
2023-03-15 12:53:54:737,0,-6.99985,-5.00546,-39.2751,Q,Q
2023-03-15 12:53:54:747,0,-6.99711,-5.00698,-39.268,Q,Q
2023-03-15 12:53:54:757,0,-6.98759,-5.01,-39.2606,Q,Q
2023-03-15 12:53:54:767,0,-6.97909,-5.00926,-39.2522,Q,Q
2023-03-15 12:53:54:777,0,-6.96838,-5.00808,-39.2422,Q,Q
2023-03-15 12:53:54:787,0,-6.95538,-5.00828,-39.2336,Q,Q
2023-03-15 12:53:54:797,0,-6.93678,-5.00994,-39.2291,Q,Q
2023-03-15 12:53:54:807,0,-6.91647,-5.01134,-39.2166,Q,Q
2023-03-15 12:53:54:817,0,-6.88914,-5.0161,-39.2062,Q,Q
2023-03-15 12:53:54:827,0,-6.8632,-5.02163,-39.1996,Q,Q
2023-03-15 12:53:54:837,0,-6.83393,-5.02562,-39.1952,Q,Q
2023-03-15 12:53:54:847,0,-6.80248,-5.03016,-39.1899,Q,Q
2023-03-15 12:53:54:857,0,-6.77332,-5.0346,-39.1847,Q,Q
2023-03-15 12:53:54:867,0,-6.74616,-5.04034,-39.1834,Q,Q
2023-03-15 12:53:54:877,0,-6.72748,-5.04678,-39.1805,Q,Q
2023-03-15 12:53:54:887,0,-6.70912,-5.05623,-39.1865,Q,Q
2023-03-15 12:53:54:897,0,-6.69468,-5.06819,-39.1937,Q,Q
2023-03-15 12:53:54:907,0,-6.68618,-5.0792,-39.2073,Q,Q
2023-03-15 12:53:54:917,0,-6.67867,-5.0935,-39.2149,Q,Q
2023-03-15 12:53:54:927,0,-6.67402,-5.10979,-39.2265,Q,Q
2023-03-15 12:53:54:937,0,-6.67001,-5.12354,-39.2417,Q,Q
2023-03-15 12:53:54:947,0,-6.66468,-5.13396,-39.2601,Q,Q
2023-03-15 12:53:54:957,0,-6.66014,-5.14366,-39.283,Q,Q
2023-03-15 12:53:54:967,0,-6.65578,-5.14815,-39.3032,Q,Q
2023-03-15 12:53:54:977,0,-6.64824,-5.15571,-39.3193,Q,Q
2023-03-15 12:53:54:987,0,-6.6367,-5.16474,-39.3296,Q,Q
2023-03-15 12:53:54:997,0,-6.62149,-5.17964,-39.3349,Q,Q
2023-03-15 12:53:55:7,0,-6.61166,-5.19761,-39.3358,Q,Q
2023-03-15 12:53:55:17,0,-6.59947,-5.21304,-39.3341,Q,Q
2023-03-15 12:53:55:27,0,-6.58482,-5.22768,-39.3332,Q,Q
2023-03-15 12:53:55:37,0,-6.56445,-5.23324,-39.327,Q,Q
2023-03-15 12:53:55:47,0,-6.54387,-5.23521,-39.3196,Q,Q
2023-03-15 12:53:55:57,0,-6.52151,-5.23579,-39.313,Q,Q
2023-03-15 12:53:55:67,0,-6.49966,-5.23645,-39.3034,Q,Q
2023-03-15 12:53:55:77,0,-6.4771,-5.23677,-39.2927,Q,Q
2023-03-15 12:53:55:87,0,-6.45148,-5.23584,-39.2844,Q,Q
2023-03-15 12:53:55:97,0,-6.42558,-5.23387,-39.2787,Q,Q
2023-03-15 12:53:55:107,0,-6.39819,-5.22822,-39.274,Q,Q
2023-03-15 12:53:55:117,0,-6.37151,-5.22456,-39.2644,Q,Q
2023-03-15 12:53:55:127,0,-6.35076,-5.22209,-39.2584,Q,Q
2023-03-15 12:53:55:137,0,-6.33378,-5.21997,-39.2494,Q,Q
2023-03-15 12:53:55:147,0,-6.31766,-5.21994,-39.2415,Q,Q
2023-03-15 12:53:55:157,0,-6.30654,-5.21903,-39.2348,Q,Q
2023-03-15 12:53:55:167,0,-6.29729,-5.21836,-39.2308,Q,Q
2023-03-15 12:53:55:177,0,-6.28655,-5.21395,-39.2257,Q,Q
2023-03-15 12:53:55:187,0,-6.2769,-5.21297,-39.22,Q,Q
2023-03-15 12:53:55:197,0,-6.26509,-5.2154,-39.2151,Q,Q
2023-03-15 12:53:55:207,0,-6.25878,-5.21967,-39.2037,Q,Q
2023-03-15 12:53:55:217,0,-6.25492,-5.22214,-39.2001,Q,Q
2023-03-15 12:53:55:227,0,-6.25012,-5.22465,-39.1944,Q,Q
2023-03-15 12:53:55:237,0,-6.24358,-5.22387,-39.1897,Q,Q
2023-03-15 12:53:55:247,0,-6.23969,-5.22442,-39.184,Q,Q
2023-03-15 12:53:55:257,0,-6.23378,-5.2249,-39.176,Q,Q
2023-03-15 12:53:55:267,0,-6.22517,-5.23155,-39.1704,Q,Q
2023-03-15 12:53:55:277,0,-6.21155,-5.23798,-39.1648,Q,Q
2023-03-15 12:53:55:287,0,-6.19749,-5.24294,-39.1574,Q,Q
2023-03-15 12:53:55:297,0,-6.17926,-5.25129,-39.1497,Q,Q
2023-03-15 12:53:55:307,0,-6.16068,-5.25441,-39.1412,Q,Q
2023-03-15 12:53:55:317,0,-6.1414,-5.25818,-39.1306,Q,Q
2023-03-15 12:53:55:327,0,-6.12229,-5.26317,-39.1199,Q,Q
2023-03-15 12:53:55:337,0,-6.10025,-5.27169,-39.1048,Q,Q
2023-03-15 12:53:55:347,0,-6.07608,-5.28238,-39.091,Q,Q
2023-03-15 12:53:55:357,0,-6.04633,-5.29465,-39.0761,Q,Q
2023-03-15 12:53:55:367,0,-6.01372,-5.30788,-39.0631,Q,Q
2023-03-15 12:53:55:377,0,-5.97837,-5.3186,-39.0499,Q,Q
2023-03-15 12:53:55:387,0,-5.93816,-5.33083,-39.0373,Q,Q
2023-03-15 12:53:55:397,0,-5.89386,-5.34347,-39.0221,Q,Q
2023-03-15 12:53:55:407,0,-5.84744,-5.35864,-39.0059,Q,Q
2023-03-15 12:53:55:417,0,-5.79547,-5.37513,-38.9911,Q,Q
2023-03-15 12:53:55:427,0,-5.74116,-5.38927,-38.9726,Q,Q
2023-03-15 12:53:55:437,0,-5.68335,-5.40344,-38.9554,Q,Q
2023-03-15 12:53:55:447,0,-5.62594,-5.4178,-38.9349,Q,Q
2023-03-15 12:53:55:457,0,-5.56913,-5.43628,-38.9103,Q,Q
2023-03-15 12:53:55:467,0,-5.51628,-5.45052,-38.8884,Q,Q
2023-03-15 12:53:55:477,0,-5.45979,-5.4647,-38.8652,Q,Q
2023-03-15 12:53:55:487,0,-5.40092,-5.47622,-38.8477,Q,Q
2023-03-15 12:53:55:497,0,-5.34389,-5.48495,-38.8274,Q,Q
2023-03-15 12:53:55:507,0,-5.28456,-5.48823,-38.8087,Q,Q
2023-03-15 12:53:55:517,0,-5.22079,-5.48976,-38.7936,Q,Q
2023-03-15 12:53:55:527,0,-5.15352,-5.48848,-38.7801,Q,Q
2023-03-15 12:53:55:537,0,-5.08546,-5.49049,-38.7631,Q,Q
2023-03-15 12:53:55:547,0,-5.01891,-5.48785,-38.7471,Q,Q
2023-03-15 12:53:55:557,0,-4.95445,-5.48049,-38.7354,Q,Q
2023-03-15 12:53:55:567,0,-4.89214,-5.47449,-38.7264,Q,Q
2023-03-15 12:53:55:577,0,-4.82876,-5.46526,-38.7177,Q,Q
2023-03-15 12:53:55:587,0,-4.76652,-5.45293,-38.7127,Q,Q
2023-03-15 12:53:55:597,0,-4.70383,-5.43948,-38.7097,Q,Q
2023-03-15 12:53:55:607,0,-4.63461,-5.42769,-38.71,Q,Q
2023-03-15 12:53:55:617,0,-4.56544,-5.41525,-38.7083,Q,Q
2023-03-15 12:53:55:627,0,-4.49479,-5.40315,-38.7074,Q,Q
2023-03-15 12:53:55:637,0,-4.42121,-5.39591,-38.7073,Q,Q
2023-03-15 12:53:55:647,0,-4.34289,-5.3883,-38.7048,Q,Q
2023-03-15 12:53:55:657,0,-4.26438,-5.38819,-38.6975,Q,Q
2023-03-15 12:53:55:667,0,-4.18969,-5.38862,-38.6925,Q,Q
2023-03-15 12:53:55:677,0,-4.11917,-5.39228,-38.6843,Q,Q
2023-03-15 12:53:55:687,0,-4.05301,-5.39436,-38.6711,Q,Q
2023-03-15 12:53:55:697,0,-3.98908,-5.39609,-38.6535,Q,Q
2023-03-15 12:53:55:707,0,-3.92368,-5.3954,-38.6309,Q,Q
2023-03-15 12:53:55:717,0,-3.85996,-5.39122,-38.6002,Q,Q
2023-03-15 12:53:55:727,0,-3.79924,-5.38901,-38.5637,Q,Q
2023-03-15 12:53:55:737,0,-3.73984,-5.38502,-38.5186,Q,Q
2023-03-15 12:53:55:747,0,-3.68144,-5.38261,-38.465,Q,Q
2023-03-15 12:53:55:757,0,-3.62347,-5.37377,-38.4053,Q,Q
2023-03-15 12:53:55:767,0,-3.56471,-5.36895,-38.3355,Q,Q
2023-03-15 12:53:55:777,0,-3.51226,-5.35938,-38.2594,Q,Q
2023-03-15 12:53:55:787,0,-3.45595,-5.34875,-38.1776,Q,Q
2023-03-15 12:53:55:797,0,-3.40325,-5.34204,-38.0936,Q,Q
2023-03-15 12:53:55:807,0,-3.34575,-5.33529,-38.0072,Q,Q
2023-03-15 12:53:55:817,0,-3.28601,-5.32426,-37.9211,Q,Q
2023-03-15 12:53:55:827,0,-3.22405,-5.31432,-37.8308,Q,Q
2023-03-15 12:53:55:837,0,-3.16283,-5.29479,-37.7428,Q,Q
2023-03-15 12:53:55:847,0,-3.1012,-5.27384,-37.6555,Q,Q
2023-03-15 12:53:55:857,0,-3.0414,-5.24679,-37.5713,Q,Q
2023-03-15 12:53:55:867,0,-2.98609,-5.2187,-37.4947,Q,Q
2023-03-15 12:53:55:877,0,-2.93378,-5.18947,-37.4162,Q,Q
2023-03-15 12:53:55:887,0,-2.88916,-5.16476,-37.3451,Q,Q
2023-03-15 12:53:55:897,0,-2.85245,-5.13639,-37.2803,Q,Q
2023-03-15 12:53:55:907,0,-2.82466,-5.11186,-37.2185,Q,Q
2023-03-15 12:53:55:917,0,-2.80545,-5.08997,-37.1636,Q,Q
2023-03-15 12:53:55:927,0,-2.78281,-5.07142,-37.115,Q,Q
2023-03-15 12:53:55:937,0,-2.75964,-5.06006,-37.0721,Q,Q
2023-03-15 12:53:55:947,0,-2.74182,-5.05861,-37.0289,Q,Q
2023-03-15 12:53:55:957,0,-2.7315,-5.06718,-36.9904,Q,Q
2023-03-15 12:53:55:967,0,-2.73087,-5.08017,-36.9516,Q,Q
2023-03-15 12:53:55:977,0,-2.73989,-5.09127,-36.9118,Q,Q
2023-03-15 12:53:55:987,0,-2.76298,-5.10327,-36.8725,Q,Q
2023-03-15 12:53:55:997,0,-2.78699,-5.1128,-36.8331,Q,Q
2023-03-15 12:53:56:7,0,-2.81281,-5.12154,-36.7885,Q,Q
2023-03-15 12:53:56:17,0,-2.83684,-5.12716,-36.7397,Q,Q
2023-03-15 12:53:56:27,0,-2.86173,-5.1289,-36.6817,Q,Q
2023-03-15 12:53:56:37,0,-2.8867,-5.12653,-36.6178,Q,Q
2023-03-15 12:53:56:47,0,-2.91534,-5.12411,-36.5465,Q,Q
2023-03-15 12:53:56:57,0,-2.9438,-5.12442,-36.4709,Q,Q
2023-03-15 12:53:56:67,0,-2.97914,-5.12803,-36.39,Q,Q
2023-03-15 12:53:56:77,0,-3.01663,-5.13063,-36.3093,Q,Q
2023-03-15 12:53:56:87,0,-3.05632,-5.14313,-36.2295,Q,Q
2023-03-15 12:53:56:97,0,-3.10024,-5.15877,-36.1472,Q,Q
2023-03-15 12:53:56:107,0,-3.14496,-5.18115,-36.0671,Q,Q
2023-03-15 12:53:56:117,0,-3.18902,-5.20998,-35.9919,Q,Q
2023-03-15 12:53:56:127,0,-3.23102,-5.24075,-35.9142,Q,Q
2023-03-15 12:53:56:137,0,-3.26873,-5.27405,-35.839,Q,Q
2023-03-15 12:53:56:147,0,-3.3034,-5.31097,-35.7626,Q,Q
2023-03-15 12:53:56:157,0,-3.34056,-5.34836,-35.6832,Q,Q
2023-03-15 12:53:56:167,0,-3.38043,-5.38361,-35.6059,Q,Q
2023-03-15 12:53:56:177,0,-3.41968,-5.4176,-35.5293,Q,Q
2023-03-15 12:53:56:187,0,-3.46327,-5.44742,-35.4518,Q,Q
2023-03-15 12:53:56:197,0,-3.51145,-5.47809,-35.3715,Q,Q
2023-03-15 12:53:56:207,0,-3.5596,-5.50817,-35.29,Q,Q
2023-03-15 12:53:56:217,0,-3.60506,-5.54133,-35.2034,Q,Q
2023-03-15 12:53:56:227,0,-3.65305,-5.57661,-35.1143,Q,Q
2023-03-15 12:53:56:237,0,-3.7,-5.61034,-35.0274,Q,Q
2023-03-15 12:53:56:247,0,-3.74589,-5.64187,-34.9415,Q,Q
2023-03-15 12:53:56:257,0,-3.7918,-5.67414,-34.8536,Q,Q
2023-03-15 12:53:56:267,0,-3.83885,-5.70364,-34.767,Q,Q
2023-03-15 12:53:56:277,0,-3.88645,-5.72888,-34.6782,Q,Q
2023-03-15 12:53:56:287,0,-3.9345,-5.75218,-34.5905,Q,Q
2023-03-15 12:53:56:297,0,-3.98729,-5.76648,-34.4997,Q,Q
2023-03-15 12:53:56:307,0,-4.04506,-5.78232,-34.4101,Q,Q
2023-03-15 12:53:56:317,0,-4.10985,-5.7933,-34.32,Q,Q
2023-03-15 12:53:56:327,0,-4.18428,-5.80202,-34.2268,Q,Q
2023-03-15 12:53:56:337,0,-4.2653,-5.81423,-34.1324,Q,Q
2023-03-15 12:53:56:347,0,-4.35366,-5.82675,-34.0388,Q,Q
2023-03-15 12:53:56:357,0,-4.44783,-5.84184,-33.9458,Q,Q
2023-03-15 12:53:56:367,0,-4.54412,-5.85371,-33.861,Q,Q
2023-03-15 12:53:56:377,0,-4.64181,-5.86549,-33.7781,Q,Q
2023-03-15 12:53:56:387,0,-4.73951,-5.87403,-33.6957,Q,Q
2023-03-15 12:53:56:397,0,-4.84017,-5.8792,-33.6168,Q,Q
2023-03-15 12:53:56:407,0,-4.93525,-5.88369,-33.5438,Q,Q
2023-03-15 12:53:56:417,0,-5.02901,-5.8866,-33.4737,Q,Q
2023-03-15 12:53:56:427,0,-5.12337,-5.88938,-33.4088,Q,Q
2023-03-15 12:53:56:437,0,-5.2076,-5.8925,-33.3496,Q,Q
2023-03-15 12:53:56:447,0,-5.28852,-5.89228,-33.2955,Q,Q
2023-03-15 12:53:56:457,0,-5.36478,-5.88649,-33.2461,Q,Q
2023-03-15 12:53:56:467,0,-5.43532,-5.88101,-33.2026,Q,Q
2023-03-15 12:53:56:477,0,-5.50641,-5.87578,-33.1622,Q,Q
2023-03-15 12:53:56:488,0,-5.57838,-5.86989,-33.1277,Q,Q
2023-03-15 12:53:56:497,0,-5.64544,-5.86117,-33.095,Q,Q
2023-03-15 12:53:56:507,0,-5.71244,-5.85812,-33.067,Q,Q
2023-03-15 12:53:56:517,0,-5.77734,-5.85769,-33.0422,Q,Q
2023-03-15 12:53:56:527,0,-5.83134,-5.86427,-33.0181,Q,Q
2023-03-15 12:53:56:537,0,-5.8827,-5.87253,-32.9929,Q,Q
2023-03-15 12:53:56:547,0,-5.92104,-5.8847,-32.9657,Q,Q
2023-03-15 12:53:56:557,0,-5.95282,-5.89631,-32.9411,Q,Q
2023-03-15 12:53:56:567,0,-5.97937,-5.90604,-32.9166,Q,Q
2023-03-15 12:53:56:577,0,-5.99504,-5.91269,-32.8899,Q,Q
2023-03-15 12:53:56:587,0,-6.00599,-5.91593,-32.8675,Q,Q
2023-03-15 12:53:56:597,0,-6.01791,-5.91665,-32.8377,Q,Q
2023-03-15 12:53:56:607,0,-6.03437,-5.9139,-32.8039,Q,Q
2023-03-15 12:53:56:618,0,-6.05621,-5.90699,-32.7691,Q,Q
2023-03-15 12:53:56:627,0,-6.07949,-5.90149,-32.7311,Q,Q
2023-03-15 12:53:56:637,0,-6.10139,-5.89558,-32.6941,Q,Q
2023-03-15 12:53:56:647,0,-6.12374,-5.88572,-32.6605,Q,Q
2023-03-15 12:53:56:657,0,-6.14722,-5.87578,-32.6267,Q,Q
2023-03-15 12:53:56:667,0,-6.17103,-5.8664,-32.5939,Q,Q
2023-03-15 12:53:56:678,0,-6.1985,-5.86105,-32.5643,Q,Q
2023-03-15 12:53:56:687,0,-6.22547,-5.8548,-32.5365,Q,Q
2023-03-15 12:53:56:697,0,-6.25246,-5.84931,-32.5057,Q,Q
2023-03-15 12:53:56:707,0,-6.28101,-5.84268,-32.4815,Q,Q
2023-03-15 12:53:56:717,0,-6.30131,-5.83689,-32.4611,Q,Q
2023-03-15 12:53:56:727,0,-6.32993,-5.82928,-32.4419,Q,Q
2023-03-15 12:53:56:737,0,-6.35616,-5.821,-32.425,Q,Q
2023-03-15 12:53:56:747,0,-6.38391,-5.81537,-32.4034,Q,Q
2023-03-15 12:53:56:757,0,-6.41387,-5.80948,-32.3867,Q,Q
2023-03-15 12:53:56:767,0,-6.44171,-5.80757,-32.364,Q,Q
2023-03-15 12:53:56:777,0,-6.47334,-5.80542,-32.3418,Q,Q
2023-03-15 12:53:56:787,0,-6.50619,-5.80228,-32.3178,Q,Q
2023-03-15 12:53:56:797,0,-6.53355,-5.80066,-32.2948,Q,Q
2023-03-15 12:53:56:807,0,-6.55918,-5.79858,-32.2685,Q,Q
2023-03-15 12:53:56:817,0,-6.58755,-5.80035,-32.2397,Q,Q
2023-03-15 12:53:56:828,0,-6.61423,-5.80141,-32.2083,Q,Q
2023-03-15 12:53:56:837,0,-6.63796,-5.79869,-32.1768,Q,Q
2023-03-15 12:53:56:847,0,-6.66137,-5.79542,-32.1488,Q,Q
2023-03-15 12:53:56:857,0,-6.68815,-5.79151,-32.1153,Q,Q
2023-03-15 12:53:56:868,0,-6.71694,-5.78559,-32.0888,Q,Q
2023-03-15 12:53:56:877,0,-6.7479,-5.78649,-32.0604,Q,Q
2023-03-15 12:53:56:887,0,-6.77492,-5.79378,-32.0301,Q,Q
2023-03-15 12:53:56:897,0,-6.80391,-5.80897,-31.9943,Q,Q
2023-03-15 12:53:56:907,0,-6.82771,-5.82772,-31.9616,Q,Q
2023-03-15 12:53:56:917,0,-6.84907,-5.84934,-31.9305,Q,Q
2023-03-15 12:53:56:927,0,-6.86722,-5.86942,-31.9078,Q,Q
2023-03-15 12:53:56:937,0,-6.88395,-5.88111,-31.889,Q,Q
2023-03-15 12:53:56:947,0,-6.89352,-5.89223,-31.8689,Q,Q
2023-03-15 12:53:56:957,0,-6.9038,-5.90215,-31.8514,Q,Q
2023-03-15 12:53:56:967,0,-6.9127,-5.91246,-31.8355,Q,Q
2023-03-15 12:53:56:977,0,-6.91855,-5.92233,-31.8231,Q,Q
2023-03-15 12:53:56:987,0,-6.9269,-5.93163,-31.8101,Q,Q
2023-03-15 12:53:56:997,0,-6.93837,-5.93704,-31.8006,Q,Q
2023-03-15 12:53:57:7,0,-6.95143,-5.94056,-31.7927,Q,Q
2023-03-15 12:53:57:17,0,-6.96516,-5.94525,-31.7838,Q,Q
2023-03-15 12:53:57:27,0,-6.98252,-5.94925,-31.7732,Q,Q
2023-03-15 12:53:57:37,0,-7.00081,-5.95145,-31.7651,Q,Q
2023-03-15 12:53:57:47,0,-7.02141,-5.95424,-31.7582,Q,Q
2023-03-15 12:53:57:57,0,-7.0424,-5.95377,-31.751,Q,Q
2023-03-15 12:53:57:67,0,-7.06372,-5.95456,-31.7458,Q,Q
2023-03-15 12:53:57:77,0,-7.0786,-5.9546,-31.7389,Q,Q
2023-03-15 12:53:57:87,0,-7.09472,-5.95832,-31.7312,Q,Q
2023-03-15 12:53:57:97,0,-7.11093,-5.95778,-31.7213,Q,Q
2023-03-15 12:53:57:107,0,-7.12173,-5.95666,-31.7092,Q,Q
2023-03-15 12:53:57:117,0,-7.13645,-5.95171,-31.6971,Q,Q
2023-03-15 12:53:57:128,0,-7.14846,-5.94555,-31.6894,Q,Q
2023-03-15 12:53:57:137,0,-7.15715,-5.93943,-31.6805,Q,Q
2023-03-15 12:53:57:147,0,-7.16023,-5.934,-31.6661,Q,Q
2023-03-15 12:53:57:157,0,-7.16086,-5.92732,-31.651,Q,Q
2023-03-15 12:53:57:168,0,-7.16733,-5.9275,-31.6332,Q,Q
2023-03-15 12:53:57:177,0,-7.168,-5.92954,-31.6168,Q,Q
2023-03-15 12:53:57:187,0,-7.16872,-5.93185,-31.6006,Q,Q
2023-03-15 12:53:57:197,0,-7.16733,-5.93394,-31.5863,Q,Q
2023-03-15 12:53:57:207,0,-7.16507,-5.93154,-31.5772,Q,Q
2023-03-15 12:53:57:218,0,-7.16523,-5.93041,-31.5679,Q,Q
2023-03-15 12:53:57:228,0,-7.16198,-5.92626,-31.5592,Q,Q
2023-03-15 12:53:57:237,0,-7.15901,-5.92196,-31.5494,Q,Q
2023-03-15 12:53:57:247,0,-7.15948,-5.91847,-31.5394,Q,Q
2023-03-15 12:53:57:257,0,-7.15702,-5.91813,-31.5289,Q,Q
2023-03-15 12:53:57:267,0,-7.15447,-5.91822,-31.5191,Q,Q
2023-03-15 12:53:57:277,0,-7.15696,-5.91891,-31.5105,Q,Q
2023-03-15 12:53:57:287,0,-7.15947,-5.92084,-31.5033,Q,Q
2023-03-15 12:53:57:297,0,-7.16001,-5.92063,-31.4953,Q,Q
2023-03-15 12:53:57:307,0,-7.15729,-5.92651,-31.4848,Q,Q
2023-03-15 12:53:57:317,0,-7.15753,-5.93473,-31.4716,Q,Q
2023-03-15 12:53:57:327,0,-7.15735,-5.94345,-31.4596,Q,Q
2023-03-15 12:53:57:337,0,-7.1581,-5.94959,-31.443,Q,Q
2023-03-15 12:53:57:347,0,-7.15949,-5.95767,-31.427,Q,Q
2023-03-15 12:53:57:357,0,-7.15871,-5.96368,-31.4086,Q,Q
2023-03-15 12:53:57:367,0,-7.15621,-5.96674,-31.3893,Q,Q
2023-03-15 12:53:57:377,0,-7.15671,-5.96904,-31.3679,Q,Q
2023-03-15 12:53:57:387,0,-7.15372,-5.97314,-31.3477,Q,Q
2023-03-15 12:53:57:397,0,-7.15054,-5.97634,-31.3235,Q,Q
2023-03-15 12:53:57:408,0,-7.14114,-5.97974,-31.3016,Q,Q
2023-03-15 12:53:57:417,0,-7.13469,-5.98458,-31.2776,Q,Q
2023-03-15 12:53:57:427,0,-7.12834,-5.98907,-31.2548,Q,Q
2023-03-15 12:53:57:437,0,-7.12397,-5.99666,-31.2336,Q,Q
2023-03-15 12:53:57:448,0,-7.12027,-6.00117,-31.2082,Q,Q
2023-03-15 12:53:57:457,0,-7.11964,-6.0088,-31.1863,Q,Q
2023-03-15 12:53:57:467,0,-7.1181,-6.01488,-31.164,Q,Q
2023-03-15 12:53:57:477,0,-7.1224,-6.02288,-31.1451,Q,Q
2023-03-15 12:53:57:487,0,-7.13027,-6.02874,-31.123,Q,Q
2023-03-15 12:53:57:497,0,-7.14076,-6.03696,-31.0998,Q,Q
2023-03-15 12:53:57:507,0,-7.14658,-6.04166,-31.0756,Q,Q
2023-03-15 12:53:57:517,0,-7.15279,-6.04636,-31.0499,Q,Q
2023-03-15 12:53:57:527,0,-7.1579,-6.05169,-31.0263,Q,Q
2023-03-15 12:53:57:537,0,-7.16734,-6.06233,-30.9983,Q,Q
2023-03-15 12:53:57:547,0,-7.17445,-6.07321,-30.9683,Q,Q
2023-03-15 12:53:57:557,0,-7.18231,-6.08566,-30.936,Q,Q
2023-03-15 12:53:57:567,0,-7.19072,-6.09869,-30.9006,Q,Q
2023-03-15 12:53:57:577,0,-7.19633,-6.11208,-30.8676,Q,Q
2023-03-15 12:53:57:587,0,-7.20063,-6.12356,-30.8328,Q,Q
2023-03-15 12:53:57:597,0,-7.20826,-6.13469,-30.797,Q,Q
2023-03-15 12:53:57:607,0,-7.2148,-6.14651,-30.7622,Q,Q
2023-03-15 12:53:57:617,0,-7.22073,-6.16352,-30.7261,Q,Q
2023-03-15 12:53:57:627,0,-7.22766,-6.17798,-30.6882,Q,Q
2023-03-15 12:53:57:637,0,-7.23668,-6.19311,-30.6479,Q,Q
2023-03-15 12:53:57:647,0,-7.24747,-6.20514,-30.6014,Q,Q
2023-03-15 12:53:57:657,0,-7.26083,-6.21897,-30.5519,Q,Q
2023-03-15 12:53:57:667,0,-7.28009,-6.23219,-30.5023,Q,Q
2023-03-15 12:53:57:677,0,-7.30085,-6.24698,-30.4482,Q,Q
2023-03-15 12:53:57:688,0,-7.32262,-6.26124,-30.3879,Q,Q
2023-03-15 12:53:57:697,0,-7.34511,-6.27426,-30.3289,Q,Q
2023-03-15 12:53:57:707,0,-7.3679,-6.28679,-30.271,Q,Q
2023-03-15 12:53:57:717,0,-7.38705,-6.29897,-30.2126,Q,Q
2023-03-15 12:53:57:727,0,-7.40735,-6.31384,-30.1534,Q,Q
2023-03-15 12:53:57:737,0,-7.42802,-6.3271,-30.0972,Q,Q
2023-03-15 12:53:57:747,0,-7.44814,-6.33552,-30.0419,Q,Q
2023-03-15 12:53:57:757,0,-7.47029,-6.34835,-29.9844,Q,Q
2023-03-15 12:53:57:767,0,-7.48803,-6.3636,-29.9307,Q,Q
2023-03-15 12:53:57:777,0,-7.50759,-6.37987,-29.8784,Q,Q
2023-03-15 12:53:57:787,0,-7.52877,-6.39508,-29.8363,Q,Q
2023-03-15 12:53:57:797,0,-7.54558,-6.40674,-29.7963,Q,Q
2023-03-15 12:53:57:807,0,-7.56449,-6.41127,-29.76,Q,Q
2023-03-15 12:53:57:817,0,-7.58047,-6.40959,-29.7273,Q,Q
2023-03-15 12:53:57:827,0,-7.59166,-6.41765,-29.6968,Q,Q
2023-03-15 12:53:57:837,0,-7.5995,-6.42891,-29.66,Q,Q
2023-03-15 12:53:57:847,0,-7.604,-6.44921,-29.6236,Q,Q
2023-03-15 12:53:57:857,0,-7.61441,-6.47473,-29.587,Q,Q
2023-03-15 12:53:57:867,0,-7.62686,-6.49358,-29.5561,Q,Q
2023-03-15 12:53:57:877,0,-7.63803,-6.50972,-29.5269,Q,Q
2023-03-15 12:53:57:887,0,-7.64778,-6.5224,-29.5006,Q,Q
2023-03-15 12:53:57:897,0,-7.65568,-6.53235,-29.4709,Q,Q
2023-03-15 12:53:57:907,0,-7.66581,-6.53789,-29.4413,Q,Q
2023-03-15 12:53:57:917,0,-7.67516,-6.5423,-29.4164,Q,Q
2023-03-15 12:53:57:927,0,-7.68029,-6.54387,-29.3925,Q,Q
2023-03-15 12:53:57:937,0,-7.69237,-6.54874,-29.3725,Q,Q
2023-03-15 12:53:57:947,0,-7.70476,-6.55223,-29.3549,Q,Q
2023-03-15 12:53:57:957,0,-7.72005,-6.55229,-29.3405,Q,Q
2023-03-15 12:53:57:967,0,-7.73439,-6.55597,-29.328,Q,Q
2023-03-15 12:53:57:977,0,-7.74935,-6.55981,-29.3211,Q,Q
2023-03-15 12:53:57:987,0,-7.76021,-6.56539,-29.3118,Q,Q
2023-03-15 12:53:57:997,0,-7.77176,-6.57035,-29.3077,Q,Q
2023-03-15 12:53:58:7,0,-7.77977,-6.57299,-29.3026,Q,Q
2023-03-15 12:53:58:17,0,-7.78613,-6.57948,-29.2975,Q,Q
2023-03-15 12:53:58:27,0,-7.7978,-6.58363,-29.2915,Q,Q
2023-03-15 12:53:58:37,0,-7.80719,-6.58697,-29.2862,Q,Q
2023-03-15 12:53:58:47,0,-7.81561,-6.59362,-29.2821,Q,Q
2023-03-15 12:53:58:57,0,-7.82406,-6.59974,-29.2735,Q,Q
2023-03-15 12:53:58:67,0,-7.83773,-6.59985,-29.2627,Q,Q
2023-03-15 12:53:58:77,0,-7.84807,-6.59874,-29.2574,Q,Q
2023-03-15 12:53:58:87,0,-7.86037,-6.59854,-29.2449,Q,Q
2023-03-15 12:53:58:97,0,-7.87266,-6.60072,-29.2341,Q,Q
2023-03-15 12:53:58:107,0,-7.87968,-6.60403,-29.2192,Q,Q
2023-03-15 12:53:58:117,0,-7.88524,-6.60967,-29.206,Q,Q
2023-03-15 12:53:58:127,0,-7.89213,-6.61477,-29.1917,Q,Q
2023-03-15 12:53:58:137,0,-7.89974,-6.61683,-29.1801,Q,Q
2023-03-15 12:53:58:147,0,-7.90598,-6.61814,-29.1669,Q,Q
2023-03-15 12:53:58:157,0,-7.91616,-6.62064,-29.1541,Q,Q
2023-03-15 12:53:58:167,0,-7.92528,-6.61604,-29.1414,Q,Q
2023-03-15 12:53:58:177,0,-7.93269,-6.61376,-29.1295,Q,Q
2023-03-15 12:53:58:187,0,-7.94213,-6.61146,-29.1171,Q,Q
2023-03-15 12:53:58:197,0,-7.94995,-6.61198,-29.1052,Q,Q
2023-03-15 12:53:58:207,0,-7.96121,-6.61281,-29.0929,Q,Q
2023-03-15 12:53:58:217,0,-7.97682,-6.61255,-29.0846,Q,Q
2023-03-15 12:53:58:227,0,-7.99296,-6.61003,-29.072,Q,Q
2023-03-15 12:53:58:237,0,-8.00453,-6.6082,-29.0623,Q,Q
2023-03-15 12:53:58:247,0,-8.01756,-6.60565,-29.0479,Q,Q
2023-03-15 12:53:58:257,0,-8.03122,-6.60254,-29.0307,Q,Q
2023-03-15 12:53:58:267,0,-8.0481,-6.60248,-29.0134,Q,Q
2023-03-15 12:53:58:277,0,-8.06454,-6.60518,-28.9932,Q,Q
2023-03-15 12:53:58:287,0,-8.08437,-6.60586,-28.9704,Q,Q
2023-03-15 12:53:58:297,0,-8.09944,-6.60517,-28.9459,Q,Q
2023-03-15 12:53:58:307,0,-8.11726,-6.60346,-28.9195,Q,Q
2023-03-15 12:53:58:317,0,-8.13489,-6.59866,-28.892,Q,Q
2023-03-15 12:53:58:327,0,-8.14621,-6.59701,-28.8654,Q,Q
2023-03-15 12:53:58:337,0,-8.15416,-6.58994,-28.8353,Q,Q
2023-03-15 12:53:58:347,0,-8.16005,-6.58535,-28.8039,Q,Q
2023-03-15 12:53:58:357,0,-8.16523,-6.57725,-28.7731,Q,Q
2023-03-15 12:53:58:367,0,-8.16832,-6.56757,-28.7426,Q,Q
2023-03-15 12:53:58:377,0,-8.17815,-6.56361,-28.7066,Q,Q
2023-03-15 12:53:58:387,0,-8.19085,-6.56065,-28.668,Q,Q
2023-03-15 12:53:58:397,0,-8.20574,-6.55182,-28.6288,Q,Q
2023-03-15 12:53:58:407,0,-8.21773,-6.54577,-28.5904,Q,Q
2023-03-15 12:53:58:417,0,-8.23469,-6.54508,-28.5457,Q,Q
2023-03-15 12:53:58:427,0,-8.251,-6.54397,-28.4979,Q,Q
2023-03-15 12:53:58:437,0,-8.2669,-6.54345,-28.4493,Q,Q
2023-03-15 12:53:58:447,0,-8.2864,-6.54368,-28.3928,Q,Q
2023-03-15 12:53:58:457,0,-8.30522,-6.5435,-28.3359,Q,Q
2023-03-15 12:53:58:467,0,-8.33034,-6.54337,-28.2811,Q,Q
2023-03-15 12:53:58:477,0,-8.35889,-6.54444,-28.2212,Q,Q
2023-03-15 12:53:58:487,0,-8.39038,-6.54699,-28.1654,Q,Q
2023-03-15 12:53:58:497,0,-8.41691,-6.55041,-28.1083,Q,Q
2023-03-15 12:53:58:507,0,-8.44156,-6.55054,-28.0501,Q,Q
2023-03-15 12:53:58:517,0,-8.4692,-6.55087,-27.9922,Q,Q
2023-03-15 12:53:58:527,0,-8.50008,-6.55347,-27.9338,Q,Q
2023-03-15 12:53:58:537,0,-8.52959,-6.55301,-27.8745,Q,Q
2023-03-15 12:53:58:547,0,-8.55698,-6.55154,-27.8123,Q,Q
2023-03-15 12:53:58:557,0,-8.58052,-6.55117,-27.752,Q,Q
2023-03-15 12:53:58:567,0,-8.60484,-6.54994,-27.6912,Q,Q
2023-03-15 12:53:58:577,0,-8.63534,-6.55149,-27.6287,Q,Q
2023-03-15 12:53:58:587,0,-8.66306,-6.54865,-27.5541,Q,Q
2023-03-15 12:53:58:597,0,-8.6952,-6.54699,-27.4682,Q,Q
2023-03-15 12:53:58:607,0,-8.72993,-6.5439,-27.372,Q,Q
2023-03-15 12:53:58:617,0,-8.76574,-6.53905,-27.2578,Q,Q
2023-03-15 12:53:58:627,0,-8.80368,-6.53364,-27.1233,Q,Q
2023-03-15 12:53:58:637,0,-8.85284,-6.52544,-26.9687,Q,Q
2023-03-15 12:53:58:647,0,-8.91061,-6.51414,-26.7925,Q,Q
2023-03-15 12:53:58:657,0,-8.97682,-6.49884,-26.5963,Q,Q
2023-03-15 12:53:58:667,0,-9.04973,-6.47359,-26.3841,Q,Q
2023-03-15 12:53:58:677,0,-9.13372,-6.44593,-26.1567,Q,Q
2023-03-15 12:53:58:687,0,-9.2269,-6.41254,-25.911,Q,Q
2023-03-15 12:53:58:697,0,-9.32332,-6.37467,-25.6486,Q,Q
2023-03-15 12:53:58:707,0,-9.42941,-6.33403,-25.3724,Q,Q
2023-03-15 12:53:58:717,0,-9.53859,-6.28889,-25.0868,Q,Q
2023-03-15 12:53:58:727,0,-9.6472,-6.24103,-24.7959,Q,Q
2023-03-15 12:53:58:737,0,-9.75979,-6.19251,-24.494,Q,Q
2023-03-15 12:53:58:747,0,-9.8708,-6.14725,-24.1839,Q,Q
2023-03-15 12:53:58:757,0,-9.97982,-6.11087,-23.8665,Q,Q
2023-03-15 12:53:58:767,0,-10.0892,-6.08222,-23.5406,Q,Q
2023-03-15 12:53:58:777,0,-10.2015,-6.05719,-23.2125,Q,Q
2023-03-15 12:53:58:787,0,-10.3082,-6.03472,-22.8895,Q,Q
2023-03-15 12:53:58:797,0,-10.4121,-6.01603,-22.5727,Q,Q
2023-03-15 12:53:58:807,0,-10.5163,-6.00183,-22.2635,Q,Q
2023-03-15 12:53:58:817,0,-10.6121,-5.99419,-21.9632,Q,Q
2023-03-15 12:53:58:827,0,-10.7021,-5.99198,-21.6748,Q,Q
2023-03-15 12:53:58:837,0,-10.7816,-5.99431,-21.3986,Q,Q
2023-03-15 12:53:58:847,0,-10.8552,-5.99739,-21.1386,Q,Q
2023-03-15 12:53:58:857,0,-10.9223,-6.00895,-20.8903,Q,Q
2023-03-15 12:53:58:867,0,-10.9885,-6.02342,-20.6588,Q,Q
2023-03-15 12:53:58:877,0,-11.0529,-6.03968,-20.4376,Q,Q
2023-03-15 12:53:58:887,0,-11.1079,-6.06021,-20.2319,Q,Q
2023-03-15 12:53:58:897,0,-11.1567,-6.08252,-20.0353,Q,Q
2023-03-15 12:53:58:907,0,-11.1924,-6.10717,-19.8502,Q,Q
2023-03-15 12:53:58:917,0,-11.2244,-6.13281,-19.6788,Q,Q
2023-03-15 12:53:58:927,0,-11.2457,-6.15758,-19.5157,Q,Q
2023-03-15 12:53:58:937,0,-11.262,-6.18817,-19.3624,Q,Q
2023-03-15 12:53:58:947,0,-11.2706,-6.22271,-19.2155,Q,Q
2023-03-15 12:53:58:957,0,-11.2754,-6.26113,-19.0725,Q,Q
2023-03-15 12:53:58:967,0,-11.276,-6.30308,-18.9389,Q,Q
2023-03-15 12:53:58:977,0,-11.2761,-6.35096,-18.8076,Q,Q
2023-03-15 12:53:58:987,0,-11.2737,-6.39517,-18.6851,Q,Q
2023-03-15 12:53:58:997,0,-11.2717,-6.4409,-18.5704,Q,Q
2023-03-15 12:53:59:7,0,-11.2673,-6.485,-18.4579,Q,Q
2023-03-15 12:53:59:17,0,-11.2618,-6.52712,-18.3491,Q,Q
2023-03-15 12:53:59:27,0,-11.2593,-6.5703,-18.238,Q,Q
2023-03-15 12:53:59:37,0,-11.256,-6.61346,-18.1315,Q,Q
2023-03-15 12:53:59:47,0,-11.2571,-6.65209,-18.0261,Q,Q
2023-03-15 12:53:59:57,0,-11.259,-6.69311,-17.9241,Q,Q
2023-03-15 12:53:59:67,0,-11.2642,-6.73243,-17.8221,Q,Q
2023-03-15 12:53:59:77,0,-11.2758,-6.76527,-17.7243,Q,Q
2023-03-15 12:53:59:87,0,-11.2883,-6.79735,-17.633,Q,Q
2023-03-15 12:53:59:97,0,-11.3053,-6.82608,-17.5447,Q,Q
2023-03-15 12:53:59:107,0,-11.3245,-6.85232,-17.4623,Q,Q
2023-03-15 12:53:59:117,0,-11.3484,-6.87484,-17.3782,Q,Q
2023-03-15 12:53:59:127,0,-11.3731,-6.89076,-17.3017,Q,Q
2023-03-15 12:53:59:137,0,-11.4007,-6.91003,-17.2285,Q,Q
2023-03-15 12:53:59:147,0,-11.4297,-6.93072,-17.1591,Q,Q
2023-03-15 12:53:59:157,0,-11.4573,-6.94416,-17.0987,Q,Q
2023-03-15 12:53:59:167,0,-11.4851,-6.96054,-17.0423,Q,Q
2023-03-15 12:53:59:177,0,-11.5138,-6.9743,-16.9905,Q,Q
2023-03-15 12:53:59:187,0,-11.5481,-6.98669,-16.941,Q,Q
2023-03-15 12:53:59:197,0,-11.5762,-7.00303,-16.8951,Q,Q
2023-03-15 12:53:59:207,0,-11.6064,-7.01719,-16.8496,Q,Q
2023-03-15 12:53:59:217,0,-11.6347,-7.0324,-16.8056,Q,Q
2023-03-15 12:53:59:227,0,-11.6614,-7.04394,-16.7639,Q,Q
2023-03-15 12:53:59:237,0,-11.6905,-7.05465,-16.7242,Q,Q
2023-03-15 12:53:59:247,0,-11.7124,-7.07013,-16.6862,Q,Q
2023-03-15 12:53:59:257,0,-11.7372,-7.07799,-16.6467,Q,Q
2023-03-15 12:53:59:267,0,-11.7543,-7.08388,-16.607,Q,Q
2023-03-15 12:53:59:277,0,-11.7712,-7.09035,-16.569,Q,Q
2023-03-15 12:53:59:287,0,-11.7891,-7.09636,-16.5319,Q,Q
2023-03-15 12:53:59:297,0,-11.8065,-7.09971,-16.4918,Q,Q
2023-03-15 12:53:59:307,0,-11.8247,-7.10042,-16.4519,Q,Q
2023-03-15 12:53:59:317,0,-11.8417,-7.10026,-16.4133,Q,Q
2023-03-15 12:53:59:327,0,-11.8585,-7.09928,-16.377,Q,Q
2023-03-15 12:53:59:337,0,-11.8772,-7.09374,-16.3415,Q,Q
2023-03-15 12:53:59:347,0,-11.8957,-7.09161,-16.3132,Q,Q
2023-03-15 12:53:59:357,0,-11.912,-7.0857,-16.2829,Q,Q
2023-03-15 12:53:59:367,0,-11.9304,-7.08372,-16.2565,Q,Q
2023-03-15 12:53:59:377,0,-11.9495,-7.08354,-16.2314,Q,Q
2023-03-15 12:53:59:387,0,-11.9667,-7.08111,-16.2083,Q,Q
2023-03-15 12:53:59:397,0,-11.9826,-7.07992,-16.1884,Q,Q
2023-03-15 12:53:59:407,0,-11.9983,-7.07495,-16.1716,Q,Q
2023-03-15 12:53:59:417,0,-12.016,-7.07486,-16.1592,Q,Q
2023-03-15 12:53:59:427,0,-12.0318,-7.07678,-16.1512,Q,Q
2023-03-15 12:53:59:437,0,-12.0495,-7.07404,-16.1412,Q,Q
2023-03-15 12:53:59:447,0,-12.0648,-7.06784,-16.1366,Q,Q
2023-03-15 12:53:59:457,0,-12.0793,-7.06415,-16.136,Q,Q
2023-03-15 12:53:59:467,0,-12.0982,-7.05913,-16.134,Q,Q
2023-03-15 12:53:59:477,0,-12.1134,-7.0535,-16.1367,Q,Q
2023-03-15 12:53:59:487,0,-12.1222,-7.05011,-16.1379,Q,Q
2023-03-15 12:53:59:497,0,-12.1287,-7.0446,-16.1422,Q,Q
2023-03-15 12:53:59:507,0,-12.1332,-7.03892,-16.1494,Q,Q
2023-03-15 12:53:59:517,0,-12.1354,-7.03178,-16.1526,Q,Q
2023-03-15 12:53:59:527,0,-12.1371,-7.02664,-16.1626,Q,Q
2023-03-15 12:53:59:537,0,-12.1336,-7.0199,-16.1766,Q,Q
2023-03-15 12:53:59:547,0,-12.1285,-7.01392,-16.1902,Q,Q
2023-03-15 12:53:59:557,0,-12.1278,-7.01202,-16.198,Q,Q
2023-03-15 12:53:59:567,0,-12.127,-7.00895,-16.2118,Q,Q
2023-03-15 12:53:59:577,0,-12.1248,-7.00653,-16.2232,Q,Q
2023-03-15 12:53:59:587,0,-12.1244,-7.00015,-16.2335,Q,Q
2023-03-15 12:53:59:597,0,-12.124,-6.99308,-16.2398,Q,Q
2023-03-15 12:53:59:607,0,-12.1254,-6.99041,-16.2463,Q,Q
2023-03-15 12:53:59:617,0,-12.1279,-6.98738,-16.2515,Q,Q
2023-03-15 12:53:59:627,0,-12.133,-6.9811,-16.253,Q,Q
2023-03-15 12:53:59:637,0,-12.1411,-6.97192,-16.2592,Q,Q
2023-03-15 12:53:59:647,0,-12.1481,-6.96219,-16.263,Q,Q
2023-03-15 12:53:59:657,0,-12.155,-6.95144,-16.269,Q,Q
2023-03-15 12:53:59:667,0,-12.1579,-6.93866,-16.2744,Q,Q
2023-03-15 12:53:59:677,0,-12.1566,-6.93077,-16.2729,Q,Q
2023-03-15 12:53:59:687,0,-12.1515,-6.93316,-16.2658,Q,Q
2023-03-15 12:53:59:697,0,-12.1474,-6.9388,-16.2537,Q,Q
2023-03-15 12:53:59:707,0,-12.145,-6.94842,-16.2424,Q,Q
2023-03-15 12:53:59:717,0,-12.1455,-6.95818,-16.2334,Q,Q
2023-03-15 12:53:59:727,0,-12.1448,-6.9667,-16.2293,Q,Q
2023-03-15 12:53:59:737,0,-12.1488,-6.96703,-16.2214,Q,Q
2023-03-15 12:53:59:748,0,-12.149,-6.96826,-16.212,Q,Q
2023-03-15 12:53:59:757,0,-12.1456,-6.96792,-16.2005,Q,Q
2023-03-15 12:53:59:767,0,-12.1402,-6.96872,-16.1895,Q,Q
2023-03-15 12:53:59:778,0,-12.1311,-6.96421,-16.1801,Q,Q
2023-03-15 12:53:59:787,0,-12.1235,-6.96308,-16.1735,Q,Q
2023-03-15 12:53:59:797,0,-12.1136,-6.95516,-16.1678,Q,Q
2023-03-15 12:53:59:807,0,-12.1074,-6.95032,-16.1636,Q,Q
2023-03-15 12:53:59:817,0,-12.1009,-6.94379,-16.1644,Q,Q
2023-03-15 12:53:59:827,0,-12.0949,-6.93566,-16.1706,Q,Q
2023-03-15 12:53:59:837,0,-12.0873,-6.92746,-16.1777,Q,Q
2023-03-15 12:53:59:847,0,-12.0789,-6.92269,-16.186,Q,Q
2023-03-15 12:53:59:857,0,-12.0741,-6.91793,-16.1965,Q,Q
2023-03-15 12:53:59:867,0,-12.0638,-6.91617,-16.2084,Q,Q
2023-03-15 12:53:59:877,0,-12.0554,-6.91486,-16.2182,Q,Q
2023-03-15 12:53:59:887,0,-12.045,-6.91681,-16.2309,Q,Q
2023-03-15 12:53:59:897,0,-12.0322,-6.91641,-16.2423,Q,Q
2023-03-15 12:53:59:907,0,-12.0236,-6.91899,-16.2538,Q,Q
2023-03-15 12:53:59:917,0,-12.0142,-6.91856,-16.2652,Q,Q
2023-03-15 12:53:59:927,0,-12.0066,-6.91387,-16.2769,Q,Q
2023-03-15 12:53:59:937,0,-11.9979,-6.90708,-16.2927,Q,Q
2023-03-15 12:53:59:947,0,-11.9877,-6.90333,-16.3062,Q,Q
2023-03-15 12:53:59:957,0,-11.9744,-6.89605,-16.318,Q,Q
2023-03-15 12:53:59:967,0,-11.9604,-6.89121,-16.3258,Q,Q
2023-03-15 12:53:59:977,0,-11.9446,-6.88842,-16.3295,Q,Q
2023-03-15 12:53:59:987,0,-11.9284,-6.8795,-16.3332,Q,Q
2023-03-15 12:53:59:997,0,-11.9126,-6.87477,-16.3371,Q,Q
2023-03-15 12:54:00:7,0,-11.8941,-6.86968,-16.3406,Q,Q
2023-03-15 12:54:00:17,0,-11.879,-6.86258,-16.3423,Q,Q
2023-03-15 12:54:00:27,0,-11.8634,-6.85667,-16.338,Q,Q
2023-03-15 12:54:00:37,0,-11.8524,-6.8553,-16.3339,Q,Q
2023-03-15 12:54:00:47,0,-11.8408,-6.85215,-16.3282,Q,Q
2023-03-15 12:54:00:57,0,-11.831,-6.8523,-16.3238,Q,Q
2023-03-15 12:54:00:67,0,-11.8216,-6.8498,-16.3109,Q,Q
2023-03-15 12:54:00:77,0,-11.813,-6.84803,-16.2982,Q,Q
2023-03-15 12:54:00:87,0,-11.8054,-6.84875,-16.284,Q,Q
2023-03-15 12:54:00:97,0,-11.7973,-6.84846,-16.2676,Q,Q
2023-03-15 12:54:00:107,0,-11.7939,-6.84934,-16.2547,Q,Q
2023-03-15 12:54:00:117,0,-11.7914,-6.85023,-16.2383,Q,Q
2023-03-15 12:54:00:127,0,-11.7889,-6.84781,-16.2243,Q,Q
2023-03-15 12:54:00:137,0,-11.7889,-6.84833,-16.2066,Q,Q
2023-03-15 12:54:00:147,0,-11.7895,-6.85084,-16.1872,Q,Q
2023-03-15 12:54:00:157,0,-11.7896,-6.85249,-16.1644,Q,Q
2023-03-15 12:54:00:167,0,-11.7925,-6.85117,-16.1415,Q,Q
2023-03-15 12:54:00:177,0,-11.7935,-6.84873,-16.1196,Q,Q
2023-03-15 12:54:00:187,0,-11.7971,-6.84675,-16.0995,Q,Q
2023-03-15 12:54:00:197,0,-11.7992,-6.84351,-16.0831,Q,Q
2023-03-15 12:54:00:207,0,-11.8052,-6.83932,-16.067,Q,Q
2023-03-15 12:54:00:217,0,-11.8091,-6.83855,-16.0532,Q,Q
2023-03-15 12:54:00:227,0,-11.8165,-6.83735,-16.0422,Q,Q
2023-03-15 12:54:00:237,0,-11.8218,-6.83657,-16.0267,Q,Q
2023-03-15 12:54:00:247,0,-11.8251,-6.83699,-16.0114,Q,Q
2023-03-15 12:54:00:257,0,-11.8313,-6.83414,-16.0027,Q,Q
2023-03-15 12:54:00:267,0,-11.8402,-6.83469,-15.9975,Q,Q
2023-03-15 12:54:00:277,0,-11.8534,-6.83563,-15.9943,Q,Q
2023-03-15 12:54:00:287,0,-11.8664,-6.83575,-15.9919,Q,Q
2023-03-15 12:54:00:297,0,-11.8781,-6.83486,-15.9936,Q,Q
2023-03-15 12:54:00:307,0,-11.8935,-6.83427,-15.9967,Q,Q
2023-03-15 12:54:00:317,0,-11.9105,-6.83475,-16.0008,Q,Q
2023-03-15 12:54:00:327,0,-11.9275,-6.8334,-16.0063,Q,Q
2023-03-15 12:54:00:337,0,-11.9409,-6.8303,-16.0103,Q,Q
2023-03-15 12:54:00:347,0,-11.9538,-6.82782,-16.0144,Q,Q
2023-03-15 12:54:00:357,0,-11.9641,-6.82346,-16.0225,Q,Q
2023-03-15 12:54:00:367,0,-11.9711,-6.82082,-16.0267,Q,Q
2023-03-15 12:54:00:377,0,-11.9824,-6.81432,-16.0324,Q,Q
2023-03-15 12:54:00:387,0,-11.9942,-6.80786,-16.0341,Q,Q
2023-03-15 12:54:00:397,0,-12.0067,-6.80044,-16.0396,Q,Q
2023-03-15 12:54:00:407,0,-12.0189,-6.79127,-16.0411,Q,Q
2023-03-15 12:54:00:417,0,-12.0323,-6.78214,-16.0446,Q,Q
2023-03-15 12:54:00:427,0,-12.0457,-6.77924,-16.0486,Q,Q
2023-03-15 12:54:00:437,0,-12.0576,-6.77057,-16.0552,Q,Q
2023-03-15 12:54:00:447,0,-12.0648,-6.76202,-16.0629,Q,Q
2023-03-15 12:54:00:457,0,-12.0709,-6.75417,-16.0685,Q,Q
2023-03-15 12:54:00:467,0,-12.0756,-6.75021,-16.0726,Q,Q
2023-03-15 12:54:00:477,0,-12.08,-6.74448,-16.0761,Q,Q
2023-03-15 12:54:00:487,0,-12.0863,-6.73969,-16.078,Q,Q
2023-03-15 12:54:00:497,0,-12.0879,-6.73488,-16.0785,Q,Q
2023-03-15 12:54:00:507,0,-12.0912,-6.73406,-16.0784,Q,Q
2023-03-15 12:54:00:517,0,-12.0961,-6.73158,-16.0768,Q,Q
2023-03-15 12:54:00:527,0,-12.1041,-6.72701,-16.0739,Q,Q
2023-03-15 12:54:00:537,0,-12.1087,-6.71881,-16.071,Q,Q
2023-03-15 12:54:00:547,0,-12.1138,-6.71123,-16.067,Q,Q
2023-03-15 12:54:00:557,0,-12.1205,-6.70552,-16.0593,Q,Q
2023-03-15 12:54:00:567,0,-12.1249,-6.69947,-16.0545,Q,Q
2023-03-15 12:54:00:577,0,-12.1319,-6.68994,-16.0488,Q,Q
2023-03-15 12:54:00:587,0,-12.1398,-6.67362,-16.0442,Q,Q
2023-03-15 12:54:00:597,0,-12.1452,-6.65851,-16.0406,Q,Q
2023-03-15 12:54:00:607,0,-12.1506,-6.64208,-16.0396,Q,Q
2023-03-15 12:54:00:617,0,-12.1541,-6.63116,-16.0386,Q,Q
2023-03-15 12:54:00:627,0,-12.1589,-6.62353,-16.0348,Q,Q
2023-03-15 12:54:00:637,0,-12.1617,-6.62956,-16.0241,Q,Q
2023-03-15 12:54:00:647,0,-12.1704,-6.63232,-16.0177,Q,Q
2023-03-15 12:54:00:657,0,-12.1776,-6.63583,-16.0127,Q,Q
2023-03-15 12:54:00:667,0,-12.1871,-6.63454,-16.0099,Q,Q
2023-03-15 12:54:00:677,0,-12.197,-6.63203,-16.0075,Q,Q
2023-03-15 12:54:00:687,0,-12.2093,-6.6256,-16.0061,Q,Q
2023-03-15 12:54:00:697,0,-12.2204,-6.61795,-16.0028,Q,Q
2023-03-15 12:54:00:707,0,-12.2325,-6.61079,-16.0,Q,Q
2023-03-15 12:54:00:717,0,-12.2502,-6.60678,-15.9973,Q,Q
2023-03-15 12:54:00:727,0,-12.2686,-6.60136,-15.9983,Q,Q
2023-03-15 12:54:00:737,0,-12.2909,-6.59597,-16.004,Q,Q
2023-03-15 12:54:00:747,0,-12.3178,-6.58884,-16.0127,Q,Q
2023-03-15 12:54:00:757,0,-12.3487,-6.58126,-16.0233,Q,Q
2023-03-15 12:54:00:767,0,-12.3889,-6.57282,-16.0355,Q,Q
2023-03-15 12:54:00:777,0,-12.4353,-6.56566,-16.0539,Q,Q
2023-03-15 12:54:00:787,0,-12.4894,-6.56343,-16.0702,Q,Q
2023-03-15 12:54:00:797,0,-12.5418,-6.56402,-16.0897,Q,Q
2023-03-15 12:54:00:807,0,-12.5897,-6.56804,-16.1071,Q,Q
2023-03-15 12:54:00:817,0,-12.6333,-6.57347,-16.1277,Q,Q
2023-03-15 12:54:00:827,0,-12.665,-6.58253,-16.1492,Q,Q
2023-03-15 12:54:00:837,0,-12.6725,-6.59605,-16.1705,Q,Q
2023-03-15 12:54:00:847,0,-12.6518,-6.60707,-16.1926,Q,Q
2023-03-15 12:54:00:857,0,-12.5977,-6.61224,-16.2128,Q,Q
2023-03-15 12:54:00:867,0,-12.5252,-6.61372,-16.2327,Q,Q
2023-03-15 12:54:00:877,0,-12.4411,-6.60931,-16.2447,Q,Q
2023-03-15 12:54:00:887,0,-12.3525,-6.61279,-16.2504,Q,Q
2023-03-15 12:54:00:897,0,-12.2642,-6.61495,-16.249,Q,Q
2023-03-15 12:54:00:907,0,-12.1771,-6.62211,-16.243,Q,Q
2023-03-15 12:54:00:917,0,-12.0931,-6.62683,-16.2308,Q,Q
2023-03-15 12:54:00:927,0,-12.0085,-6.62776,-16.2145,Q,Q
2023-03-15 12:54:00:937,0,-11.9285,-6.63322,-16.1935,Q,Q
2023-03-15 12:54:00:947,0,-11.853,-6.63253,-16.1657,Q,Q
2023-03-15 12:54:00:957,0,-11.7846,-6.62888,-16.1356,Q,Q
2023-03-15 12:54:00:967,0,-11.7225,-6.62402,-16.1002,Q,Q
2023-03-15 12:54:00:977,0,-11.6665,-6.61634,-16.0655,Q,Q
2023-03-15 12:54:00:987,0,-11.6205,-6.61109,-16.0307,Q,Q
2023-03-15 12:54:00:997,0,-11.5774,-6.60205,-15.9951,Q,Q
2023-03-15 12:54:01:7,0,-11.5384,-6.59746,-15.9587,Q,Q
2023-03-15 12:54:01:17,0,-11.5162,-6.59186,-15.9243,Q,Q
2023-03-15 12:54:01:27,0,-11.4995,-6.59076,-15.8948,Q,Q
2023-03-15 12:54:01:37,0,-11.4821,-6.59124,-15.8714,Q,Q
2023-03-15 12:54:01:47,0,-11.4611,-6.59459,-15.8469,Q,Q
2023-03-15 12:54:01:57,0,-11.447,-6.60085,-15.8241,Q,Q
2023-03-15 12:54:01:67,0,-11.4385,-6.60715,-15.8055,Q,Q
2023-03-15 12:54:01:77,0,-11.4292,-6.62185,-15.7907,Q,Q
2023-03-15 12:54:01:87,0,-11.4135,-6.63899,-15.7823,Q,Q
2023-03-15 12:54:01:97,0,-11.3946,-6.65653,-15.7724,Q,Q
2023-03-15 12:54:01:107,0,-11.3737,-6.6752,-15.7686,Q,Q
2023-03-15 12:54:01:117,0,-11.3488,-6.69411,-15.7634,Q,Q
2023-03-15 12:54:01:127,0,-11.3248,-6.71079,-15.7518,Q,Q
2023-03-15 12:54:01:137,0,-11.3043,-6.72338,-15.7347,Q,Q
2023-03-15 12:54:01:147,0,-11.2877,-6.73885,-15.712,Q,Q
2023-03-15 12:54:01:157,0,-11.2644,-6.76539,-15.6855,Q,Q
2023-03-15 12:54:01:167,0,-11.2373,-6.79246,-15.656,Q,Q
2023-03-15 12:54:01:177,0,-11.2005,-6.81206,-15.6235,Q,Q
2023-03-15 12:54:01:187,0,-11.1606,-6.8267,-15.5848,Q,Q
2023-03-15 12:54:01:197,0,-11.1169,-6.8384,-15.5351,Q,Q
2023-03-15 12:54:01:207,0,-11.0782,-6.84583,-15.4788,Q,Q
2023-03-15 12:54:01:217,0,-11.0478,-6.85118,-15.4155,Q,Q
2023-03-15 12:54:01:227,0,-11.0246,-6.85611,-15.3401,Q,Q
2023-03-15 12:54:01:237,0,-11.0071,-6.86043,-15.2612,Q,Q
2023-03-15 12:54:01:247,0,-10.995,-6.86888,-15.1779,Q,Q
2023-03-15 12:54:01:257,0,-10.9909,-6.87846,-15.0857,Q,Q
2023-03-15 12:54:01:267,0,-10.9881,-6.89364,-14.987,Q,Q
2023-03-15 12:54:01:277,0,-10.9787,-6.91382,-14.8824,Q,Q
2023-03-15 12:54:01:287,0,-10.9613,-6.93483,-14.7784,Q,Q
2023-03-15 12:54:01:297,0,-10.9302,-6.95818,-14.674,Q,Q
2023-03-15 12:54:01:307,0,-10.8883,-6.97684,-14.565,Q,Q
2023-03-15 12:54:01:317,0,-10.8319,-6.99848,-14.459,Q,Q
2023-03-15 12:54:01:327,0,-10.7674,-7.01892,-14.3509,Q,Q
2023-03-15 12:54:01:337,0,-10.7019,-7.03967,-14.2406,Q,Q
2023-03-15 12:54:01:347,0,-10.638,-7.06725,-14.1271,Q,Q
2023-03-15 12:54:01:357,0,-10.5795,-7.09145,-14.0165,Q,Q
2023-03-15 12:54:01:367,0,-10.5298,-7.12379,-13.9078,Q,Q
2023-03-15 12:54:01:377,0,-10.4948,-7.1543,-13.8015,Q,Q
2023-03-15 12:54:01:387,0,-10.467,-7.18468,-13.7013,Q,Q
2023-03-15 12:54:01:397,0,-10.4478,-7.21375,-13.6125,Q,Q
2023-03-15 12:54:01:407,0,-10.4302,-7.24425,-13.5325,Q,Q
2023-03-15 12:54:01:417,0,-10.4178,-7.27669,-13.4587,Q,Q
2023-03-15 12:54:01:427,0,-10.4068,-7.30669,-13.3923,Q,Q
2023-03-15 12:54:01:437,0,-10.3909,-7.33852,-13.3358,Q,Q
2023-03-15 12:54:01:447,0,-10.3639,-7.36607,-13.2899,Q,Q
2023-03-15 12:54:01:457,0,-10.3333,-7.3896,-13.2511,Q,Q
2023-03-15 12:54:01:467,0,-10.301,-7.40925,-13.2206,Q,Q
2023-03-15 12:54:01:477,0,-10.2653,-7.42543,-13.1958,Q,Q
2023-03-15 12:54:01:487,0,-10.2297,-7.44043,-13.1743,Q,Q
2023-03-15 12:54:01:497,0,-10.1972,-7.45088,-13.1534,Q,Q
2023-03-15 12:54:01:507,0,-10.177,-7.46333,-13.1323,Q,Q
2023-03-15 12:54:01:517,0,-10.1602,-7.46828,-13.1089,Q,Q
2023-03-15 12:54:01:527,0,-10.1565,-7.47622,-13.0775,Q,Q
2023-03-15 12:54:01:537,0,-10.1622,-7.48735,-13.0405,Q,Q
2023-03-15 12:54:01:547,0,-10.1784,-7.49828,-12.9984,Q,Q
2023-03-15 12:54:01:557,0,-10.1842,-7.50565,-12.9622,Q,Q
2023-03-15 12:54:01:567,0,-10.1812,-7.50733,-12.925,Q,Q
2023-03-15 12:54:01:577,0,-10.164,-7.50532,-12.8847,Q,Q
2023-03-15 12:54:01:587,0,-10.1364,-7.50142,-12.845,Q,Q
2023-03-15 12:54:01:597,0,-10.109,-7.50056,-12.8058,Q,Q
2023-03-15 12:54:01:607,0,-10.0735,-7.50042,-12.7643,Q,Q
2023-03-15 12:54:01:617,0,-10.036,-7.49854,-12.7275,Q,Q
2023-03-15 12:54:01:627,0,-10.0002,-7.50837,-12.6867,Q,Q
2023-03-15 12:54:01:637,0,-9.97182,-7.52032,-12.65,Q,Q
2023-03-15 12:54:01:647,0,-9.95191,-7.53,-12.6128,Q,Q
2023-03-15 12:54:01:657,0,-9.93796,-7.53265,-12.5811,Q,Q
2023-03-15 12:54:01:667,0,-9.92619,-7.53489,-12.5566,Q,Q
2023-03-15 12:54:01:677,0,-9.914,-7.53325,-12.5367,Q,Q
2023-03-15 12:54:01:687,0,-9.90206,-7.52696,-12.5195,Q,Q
2023-03-15 12:54:01:697,0,-9.89145,-7.52087,-12.5116,Q,Q
2023-03-15 12:54:01:707,0,-9.87937,-7.51703,-12.5052,Q,Q
2023-03-15 12:54:01:717,0,-9.86364,-7.51369,-12.5005,Q,Q
2023-03-15 12:54:01:727,0,-9.84718,-7.51,-12.5,Q,Q
2023-03-15 12:54:01:737,0,-9.83799,-7.50734,-12.4994,Q,Q
2023-03-15 12:54:01:747,0,-9.83788,-7.50496,-12.5034,Q,Q
2023-03-15 12:54:01:757,0,-9.83449,-7.49831,-12.5072,Q,Q
2023-03-15 12:54:01:767,0,-9.83464,-7.49265,-12.5123,Q,Q
2023-03-15 12:54:01:777,0,-9.83776,-7.48296,-12.5195,Q,Q
2023-03-15 12:54:01:787,0,-9.84764,-7.46592,-12.5307,Q,Q
2023-03-15 12:54:01:797,0,-9.86829,-7.44845,-12.5426,Q,Q
2023-03-15 12:54:01:807,0,-9.89699,-7.42975,-12.5566,Q,Q
2023-03-15 12:54:01:817,0,-9.9263,-7.40758,-12.5741,Q,Q
2023-03-15 12:54:01:827,0,-9.94863,-7.38484,-12.5895,Q,Q
2023-03-15 12:54:01:837,0,-9.97215,-7.35911,-12.606,Q,Q
2023-03-15 12:54:01:847,0,-9.9905,-7.33742,-12.6252,Q,Q
2023-03-15 12:54:01:857,0,-10.0042,-7.31396,-12.6479,Q,Q
2023-03-15 12:54:01:867,0,-10.016,-7.28919,-12.6702,Q,Q
2023-03-15 12:54:01:877,0,-10.0251,-7.26532,-12.6925,Q,Q
2023-03-15 12:54:01:887,0,-10.0325,-7.23753,-12.7138,Q,Q
2023-03-15 12:54:01:897,0,-10.0391,-7.21113,-12.7339,Q,Q
2023-03-15 12:54:01:907,0,-10.0501,-7.18693,-12.7556,Q,Q
2023-03-15 12:54:01:917,0,-10.0684,-7.16556,-12.7732,Q,Q
2023-03-15 12:54:01:927,0,-10.0907,-7.14792,-12.7949,Q,Q
2023-03-15 12:54:01:937,0,-10.1132,-7.1323,-12.8124,Q,Q
2023-03-15 12:54:01:947,0,-10.1305,-7.11343,-12.8381,Q,Q
2023-03-15 12:54:01:957,0,-10.1391,-7.09617,-12.8582,Q,Q
2023-03-15 12:54:01:967,0,-10.1388,-7.07873,-12.8734,Q,Q
2023-03-15 12:54:01:977,0,-10.1256,-7.06291,-12.8857,Q,Q
2023-03-15 12:54:01:987,0,-10.1165,-7.04749,-12.8899,Q,Q
2023-03-15 12:54:01:997,0,-10.1064,-7.03565,-12.8935,Q,Q
2023-03-15 12:54:02:7,0,-10.0997,-7.02385,-12.8938,Q,Q
2023-03-15 12:54:02:17,0,-10.0875,-7.0176,-12.887,Q,Q
2023-03-15 12:54:02:27,0,-10.0625,-7.01563,-12.875,Q,Q
2023-03-15 12:54:02:37,0,-10.0324,-7.01285,-12.8548,Q,Q
2023-03-15 12:54:02:47,0,-10.0022,-7.0165,-12.8292,Q,Q
2023-03-15 12:54:02:57,0,-9.9759,-7.02194,-12.7994,Q,Q
2023-03-15 12:54:02:67,0,-9.94813,-7.03285,-12.7676,Q,Q
2023-03-15 12:54:02:77,0,-9.92649,-7.04462,-12.7378,Q,Q
2023-03-15 12:54:02:87,0,-9.90874,-7.05961,-12.7095,Q,Q
2023-03-15 12:54:02:97,0,-9.89672,-7.07586,-12.6796,Q,Q
2023-03-15 12:54:02:107,0,-9.89545,-7.08999,-12.6505,Q,Q
2023-03-15 12:54:02:117,0,-9.8912,-7.10627,-12.6267,Q,Q
2023-03-15 12:54:02:127,0,-9.89058,-7.12498,-12.606,Q,Q
2023-03-15 12:54:02:137,0,-9.88257,-7.1393,-12.5981,Q,Q
2023-03-15 12:54:02:147,0,-9.85933,-7.14529,-12.5932,Q,Q
2023-03-15 12:54:02:157,0,-9.82987,-7.14531,-12.5913,Q,Q
2023-03-15 12:54:02:167,0,-9.8019,-7.14133,-12.5929,Q,Q
2023-03-15 12:54:02:177,0,-9.78385,-7.13409,-12.5935,Q,Q
2023-03-15 12:54:02:187,0,-9.77337,-7.12466,-12.5992,Q,Q
2023-03-15 12:54:02:197,0,-9.77118,-7.11191,-12.6062,Q,Q
2023-03-15 12:54:02:207,0,-9.77649,-7.10343,-12.6187,Q,Q
2023-03-15 12:54:02:217,0,-9.78898,-7.09747,-12.6327,Q,Q
2023-03-15 12:54:02:227,0,-9.7999,-7.08991,-12.6465,Q,Q
2023-03-15 12:54:02:237,0,-9.80308,-7.07989,-12.6639,Q,Q
2023-03-15 12:54:02:247,0,-9.79486,-7.06646,-12.6775,Q,Q
2023-03-15 12:54:02:257,0,-9.77865,-7.05464,-12.6868,Q,Q
2023-03-15 12:54:02:267,0,-9.75651,-7.04888,-12.6925,Q,Q
2023-03-15 12:54:02:277,0,-9.73729,-7.04388,-12.6962,Q,Q
2023-03-15 12:54:02:287,0,-9.71555,-7.0366,-12.6999,Q,Q
2023-03-15 12:54:02:297,0,-9.69134,-7.03515,-12.7042,Q,Q
2023-03-15 12:54:02:307,0,-9.65626,-7.03383,-12.7009,Q,Q
2023-03-15 12:54:02:317,0,-9.61307,-7.03196,-12.7021,Q,Q
2023-03-15 12:54:02:327,0,-9.56828,-7.03113,-12.6983,Q,Q
2023-03-15 12:54:02:337,0,-9.5203,-7.03326,-12.6961,Q,Q
2023-03-15 12:54:02:347,0,-9.46963,-7.0348,-12.6917,Q,Q
2023-03-15 12:54:02:357,0,-9.42463,-7.03574,-12.6837,Q,Q
2023-03-15 12:54:02:367,0,-9.38179,-7.03701,-12.6729,Q,Q
2023-03-15 12:54:02:377,0,-9.33921,-7.03975,-12.665,Q,Q
2023-03-15 12:54:02:387,0,-9.29898,-7.04064,-12.6549,Q,Q
2023-03-15 12:54:02:397,0,-9.25253,-7.04157,-12.6449,Q,Q
2023-03-15 12:54:02:407,0,-9.20213,-7.03771,-12.6337,Q,Q
2023-03-15 12:54:02:417,0,-9.15997,-7.03468,-12.6203,Q,Q
2023-03-15 12:54:02:427,0,-9.11148,-7.03251,-12.6089,Q,Q
2023-03-15 12:54:02:437,0,-9.05463,-7.03136,-12.6,Q,Q
2023-03-15 12:54:02:447,0,-8.99962,-7.02789,-12.5946,Q,Q
2023-03-15 12:54:02:457,0,-8.94802,-7.01984,-12.5872,Q,Q
2023-03-15 12:54:02:467,0,-8.90459,-7.00848,-12.5826,Q,Q
2023-03-15 12:54:02:477,0,-8.87552,-7.00017,-12.5759,Q,Q
2023-03-15 12:54:02:487,0,-8.85576,-6.99785,-12.5733,Q,Q
2023-03-15 12:54:02:497,0,-8.84323,-6.99424,-12.569,Q,Q
2023-03-15 12:54:02:507,0,-8.83941,-6.99335,-12.5664,Q,Q
2023-03-15 12:54:02:517,0,-8.83842,-6.99441,-12.5594,Q,Q
2023-03-15 12:54:02:527,0,-8.84087,-7.00128,-12.5566,Q,Q
2023-03-15 12:54:02:537,0,-8.83582,-7.01095,-12.5553,Q,Q
2023-03-15 12:54:02:547,0,-8.81625,-7.02576,-12.5556,Q,Q
2023-03-15 12:54:02:557,0,-8.7816,-7.03843,-12.5482,Q,Q
2023-03-15 12:54:02:567,0,-8.73195,-7.05457,-12.5391,Q,Q
2023-03-15 12:54:02:577,0,-8.6718,-7.06557,-12.5255,Q,Q
2023-03-15 12:54:02:587,0,-8.60652,-7.0787,-12.5062,Q,Q
2023-03-15 12:54:02:597,0,-8.54866,-7.08871,-12.4826,Q,Q
2023-03-15 12:54:02:607,0,-8.49627,-7.10229,-12.4519,Q,Q
2023-03-15 12:54:02:617,0,-8.45626,-7.11779,-12.4111,Q,Q
2023-03-15 12:54:02:627,0,-8.42964,-7.1397,-12.3634,Q,Q
2023-03-15 12:54:02:637,0,-8.41968,-7.1731,-12.3086,Q,Q
2023-03-15 12:54:02:647,0,-8.42943,-7.20594,-12.2554,Q,Q
2023-03-15 12:54:02:657,0,-8.45974,-7.23595,-12.2,Q,Q
2023-03-15 12:54:02:667,0,-8.49538,-7.26561,-12.1508,Q,Q
2023-03-15 12:54:02:677,0,-8.52121,-7.29565,-12.1063,Q,Q
2023-03-15 12:54:02:687,0,-8.53267,-7.31881,-12.0632,Q,Q
2023-03-15 12:54:02:697,0,-8.53365,-7.33162,-12.0211,Q,Q
2023-03-15 12:54:02:707,0,-8.5332,-7.34227,-11.976,Q,Q
2023-03-15 12:54:02:717,0,-8.54247,-7.35192,-11.9327,Q,Q
2023-03-15 12:54:02:727,0,-8.555,-7.36071,-11.8907,Q,Q
2023-03-15 12:54:02:737,0,-8.56799,-7.36757,-11.8484,Q,Q
2023-03-15 12:54:02:747,0,-8.59189,-7.37321,-11.806,Q,Q
2023-03-15 12:54:02:757,0,-8.61969,-7.38282,-11.7623,Q,Q
2023-03-15 12:54:02:767,0,-8.65554,-7.39171,-11.7159,Q,Q
2023-03-15 12:54:02:777,0,-8.68493,-7.40081,-11.6672,Q,Q
2023-03-15 12:54:02:787,0,-8.70562,-7.4135,-11.617,Q,Q
2023-03-15 12:54:02:797,0,-8.71503,-7.42761,-11.5682,Q,Q
2023-03-15 12:54:02:807,0,-8.71881,-7.44474,-11.5187,Q,Q
2023-03-15 12:54:02:817,0,-8.7228,-7.46436,-11.4739,Q,Q
2023-03-15 12:54:02:827,0,-8.72718,-7.48255,-11.4301,Q,Q
2023-03-15 12:54:02:837,0,-8.73204,-7.4999,-11.3913,Q,Q
2023-03-15 12:54:02:847,0,-8.73896,-7.51657,-11.3584,Q,Q
2023-03-15 12:54:02:857,0,-8.7517,-7.52954,-11.3301,Q,Q
2023-03-15 12:54:02:867,0,-8.76616,-7.54025,-11.3117,Q,Q
2023-03-15 12:54:02:877,0,-8.78179,-7.54918,-11.2954,Q,Q
2023-03-15 12:54:02:887,0,-8.8001,-7.5528,-11.2833,Q,Q
2023-03-15 12:54:02:897,0,-8.82219,-7.5586,-11.2742,Q,Q
2023-03-15 12:54:02:907,0,-8.83985,-7.56039,-11.2705,Q,Q
2023-03-15 12:54:02:917,0,-8.85981,-7.55712,-11.2686,Q,Q
2023-03-15 12:54:02:927,0,-8.87434,-7.55392,-11.2689,Q,Q
2023-03-15 12:54:02:937,0,-8.8876,-7.5483,-11.2645,Q,Q
2023-03-15 12:54:02:947,0,-8.8982,-7.53622,-11.2633,Q,Q
2023-03-15 12:54:02:957,0,-8.9147,-7.52024,-11.2583,Q,Q
2023-03-15 12:54:02:967,0,-8.92925,-7.50414,-11.2553,Q,Q
2023-03-15 12:54:02:977,0,-8.94467,-7.48359,-11.2461,Q,Q
2023-03-15 12:54:02:987,0,-8.96084,-7.46418,-11.2384,Q,Q
2023-03-15 12:54:02:997,0,-8.9826,-7.44025,-11.2292,Q,Q
2023-03-15 12:54:03:7,0,-9.00829,-7.41946,-11.219,Q,Q
2023-03-15 12:54:03:17,0,-9.03696,-7.40354,-11.2126,Q,Q
2023-03-15 12:54:03:27,0,-9.0639,-7.39099,-11.203,Q,Q
2023-03-15 12:54:03:37,0,-9.08428,-7.37856,-11.198,Q,Q
2023-03-15 12:54:03:47,0,-9.10367,-7.35796,-11.189,Q,Q
2023-03-15 12:54:03:57,0,-9.12127,-7.34612,-11.1854,Q,Q
2023-03-15 12:54:03:67,0,-9.1317,-7.33336,-11.1787,Q,Q
2023-03-15 12:54:03:77,0,-9.13183,-7.32062,-11.1734,Q,Q
2023-03-15 12:54:03:87,0,-9.13184,-7.30733,-11.1599,Q,Q
2023-03-15 12:54:03:97,0,-9.13912,-7.30005,-11.1485,Q,Q
2023-03-15 12:54:03:107,0,-9.14756,-7.29299,-11.138,Q,Q
2023-03-15 12:54:03:117,0,-9.15466,-7.28368,-11.1271,Q,Q
2023-03-15 12:54:03:127,0,-9.16264,-7.26983,-11.117,Q,Q
2023-03-15 12:54:03:137,0,-9.17229,-7.25739,-11.1043,Q,Q
2023-03-15 12:54:03:147,0,-9.18299,-7.24277,-11.0904,Q,Q
2023-03-15 12:54:03:157,0,-9.19767,-7.22996,-11.0782,Q,Q
2023-03-15 12:54:03:167,0,-9.21756,-7.21848,-11.07,Q,Q
2023-03-15 12:54:03:177,0,-9.24139,-7.20272,-11.0627,Q,Q
2023-03-15 12:54:03:187,0,-9.26807,-7.191,-11.055,Q,Q
2023-03-15 12:54:03:197,0,-9.29442,-7.17791,-11.0505,Q,Q
2023-03-15 12:54:03:207,0,-9.3193,-7.16568,-11.0537,Q,Q
2023-03-15 12:54:03:217,0,-9.35135,-7.15566,-11.0552,Q,Q
2023-03-15 12:54:03:227,0,-9.38067,-7.14803,-11.0558,Q,Q
2023-03-15 12:54:03:237,0,-9.42034,-7.14118,-11.0541,Q,Q
2023-03-15 12:54:03:247,0,-9.45732,-7.12834,-11.0579,Q,Q
2023-03-15 12:54:03:257,0,-9.49502,-7.12062,-11.0602,Q,Q
2023-03-15 12:54:03:267,0,-9.53129,-7.11438,-11.0607,Q,Q
2023-03-15 12:54:03:277,0,-9.57261,-7.10698,-11.0616,Q,Q
2023-03-15 12:54:03:287,0,-9.612,-7.10322,-11.0611,Q,Q
2023-03-15 12:54:03:297,0,-9.64898,-7.10124,-11.0575,Q,Q
2023-03-15 12:54:03:307,0,-9.68908,-7.09602,-11.0537,Q,Q
2023-03-15 12:54:03:317,0,-9.72855,-7.09159,-11.051,Q,Q
2023-03-15 12:54:03:327,0,-9.77247,-7.08495,-11.048,Q,Q
2023-03-15 12:54:03:337,0,-9.81975,-7.07954,-11.0413,Q,Q
2023-03-15 12:54:03:347,0,-9.86967,-7.07195,-11.0338,Q,Q
2023-03-15 12:54:03:357,0,-9.91426,-7.06497,-11.0304,Q,Q
2023-03-15 12:54:03:367,0,-9.9586,-7.05741,-11.0248,Q,Q
2023-03-15 12:54:03:377,0,-9.99211,-7.04926,-11.0126,Q,Q
2023-03-15 12:54:03:387,0,-10.0181,-7.0477,-10.9979,Q,Q
2023-03-15 12:54:03:397,0,-10.0325,-7.04752,-10.9826,Q,Q
2023-03-15 12:54:03:407,0,-10.0332,-7.0527,-10.9675,Q,Q
2023-03-15 12:54:03:417,0,-10.0199,-7.0649,-10.9493,Q,Q
2023-03-15 12:54:03:427,0,-10.0005,-7.08556,-10.9269,Q,Q
2023-03-15 12:54:03:437,0,-9.9742,-7.11491,-10.8992,Q,Q
2023-03-15 12:54:03:447,0,-9.94199,-7.14901,-10.8704,Q,Q
2023-03-15 12:54:03:457,0,-9.90651,-7.18657,-10.8394,Q,Q
2023-03-15 12:54:03:467,0,-9.86591,-7.2312,-10.8061,Q,Q
2023-03-15 12:54:03:477,0,-9.81667,-7.27878,-10.7728,Q,Q
2023-03-15 12:54:03:487,0,-9.75908,-7.32782,-10.7292,Q,Q
2023-03-15 12:54:03:497,0,-9.69427,-7.38853,-10.6751,Q,Q
2023-03-15 12:54:03:507,0,-9.62416,-7.4576,-10.6109,Q,Q
2023-03-15 12:54:03:517,0,-9.55543,-7.53122,-10.5446,Q,Q
2023-03-15 12:54:03:527,0,-9.50572,-7.60326,-10.479,Q,Q
2023-03-15 12:54:03:537,0,-9.471,-7.67051,-10.4226,Q,Q
2023-03-15 12:54:03:547,0,-9.45671,-7.72868,-10.3692,Q,Q
2023-03-15 12:54:03:557,0,-9.46187,-7.77469,-10.3255,Q,Q
2023-03-15 12:54:03:567,0,-9.47848,-7.81371,-10.2919,Q,Q
2023-03-15 12:54:03:577,0,-9.5122,-7.83553,-10.2712,Q,Q
2023-03-15 12:54:03:587,0,-9.56277,-7.8412,-10.2731,Q,Q
2023-03-15 12:54:03:597,0,-9.6208,-7.82682,-10.2899,Q,Q
2023-03-15 12:54:03:607,0,-9.67752,-7.80329,-10.3182,Q,Q
2023-03-15 12:54:03:617,0,-9.73296,-7.77362,-10.3545,Q,Q
2023-03-15 12:54:03:627,0,-9.78078,-7.74566,-10.3931,Q,Q
2023-03-15 12:54:03:637,0,-9.83002,-7.72251,-10.4338,Q,Q
2023-03-15 12:54:03:647,0,-9.87215,-7.70244,-10.4821,Q,Q
2023-03-15 12:54:03:657,0,-9.91942,-7.68617,-10.5349,Q,Q
2023-03-15 12:54:03:667,0,-9.96556,-7.67027,-10.5938,Q,Q
2023-03-15 12:54:03:677,0,-10.0106,-7.65855,-10.6489,Q,Q
2023-03-15 12:54:03:687,0,-10.0546,-7.65107,-10.7065,Q,Q
2023-03-15 12:54:03:697,0,-10.0931,-7.6438,-10.7637,Q,Q
2023-03-15 12:54:03:707,0,-10.1271,-7.64092,-10.8164,Q,Q
2023-03-15 12:54:03:717,0,-10.1523,-7.6372,-10.8631,Q,Q
2023-03-15 12:54:03:727,0,-10.1725,-7.63694,-10.9004,Q,Q
2023-03-15 12:54:03:737,0,-10.1858,-7.63786,-10.9338,Q,Q
2023-03-15 12:54:03:747,0,-10.1919,-7.6387,-10.9583,Q,Q
2023-03-15 12:54:03:757,0,-10.1886,-7.63607,-10.9721,Q,Q
2023-03-15 12:54:03:767,0,-10.1808,-7.63427,-10.9736,Q,Q
2023-03-15 12:54:03:777,0,-10.1697,-7.63212,-10.9678,Q,Q
2023-03-15 12:54:03:787,0,-10.1525,-7.63397,-10.9508,Q,Q
2023-03-15 12:54:03:797,0,-10.1348,-7.63397,-10.9223,Q,Q
2023-03-15 12:54:03:807,0,-10.121,-7.6302,-10.885,Q,Q
2023-03-15 12:54:03:817,0,-10.1115,-7.6199,-10.8453,Q,Q
2023-03-15 12:54:03:827,0,-10.1093,-7.61222,-10.7972,Q,Q
2023-03-15 12:54:03:837,0,-10.1151,-7.602,-10.7464,Q,Q
2023-03-15 12:54:03:847,0,-10.1222,-7.58888,-10.6983,Q,Q
2023-03-15 12:54:03:857,0,-10.1329,-7.5711,-10.6569,Q,Q
2023-03-15 12:54:03:867,0,-10.1464,-7.54272,-10.6184,Q,Q
2023-03-15 12:54:03:877,0,-10.1585,-7.51211,-10.5841,Q,Q
2023-03-15 12:54:03:887,0,-10.1706,-7.47911,-10.5548,Q,Q
2023-03-15 12:54:03:897,0,-10.1897,-7.4484,-10.5321,Q,Q
2023-03-15 12:54:03:907,0,-10.2121,-7.41504,-10.5191,Q,Q
2023-03-15 12:54:03:917,0,-10.2401,-7.37802,-10.5089,Q,Q
2023-03-15 12:54:03:927,0,-10.272,-7.34123,-10.5111,Q,Q
2023-03-15 12:54:03:937,0,-10.3048,-7.30273,-10.5235,Q,Q
2023-03-15 12:54:03:947,0,-10.3326,-7.26742,-10.5427,Q,Q
2023-03-15 12:54:03:957,0,-10.3591,-7.23145,-10.5687,Q,Q
2023-03-15 12:54:03:967,0,-10.3805,-7.1974,-10.5986,Q,Q
2023-03-15 12:54:03:977,0,-10.4005,-7.16053,-10.6327,Q,Q
2023-03-15 12:54:03:987,0,-10.4173,-7.12771,-10.6671,Q,Q
2023-03-15 12:54:03:997,0,-10.4336,-7.10137,-10.7018,Q,Q
2023-03-15 12:54:04:7,0,-10.4479,-7.07337,-10.7392,Q,Q
2023-03-15 12:54:04:17,0,-10.4651,-7.05055,-10.774,Q,Q
2023-03-15 12:54:04:27,0,-10.4814,-7.03261,-10.8089,Q,Q
2023-03-15 12:54:04:37,0,-10.4989,-7.01744,-10.8431,Q,Q
2023-03-15 12:54:04:47,0,-10.5192,-7.00674,-10.8791,Q,Q
2023-03-15 12:54:04:57,0,-10.5383,-6.99712,-10.9125,Q,Q
2023-03-15 12:54:04:67,0,-10.5564,-6.99077,-10.9385,Q,Q
2023-03-15 12:54:04:77,0,-10.5684,-6.98978,-10.9612,Q,Q
2023-03-15 12:54:04:87,0,-10.5782,-6.98976,-10.9783,Q,Q
2023-03-15 12:54:04:97,0,-10.5886,-6.99286,-10.9938,Q,Q
2023-03-15 12:54:04:107,0,-10.5968,-6.99442,-11.0037,Q,Q
2023-03-15 12:54:04:117,0,-10.6017,-6.99607,-11.0121,Q,Q
2023-03-15 12:54:04:127,0,-10.6063,-6.99558,-11.0201,Q,Q
2023-03-15 12:54:04:137,0,-10.6102,-6.99784,-11.0277,Q,Q
2023-03-15 12:54:04:147,0,-10.618,-7.00123,-11.0342,Q,Q
2023-03-15 12:54:04:157,0,-10.6203,-7.00131,-11.0344,Q,Q
2023-03-15 12:54:04:167,0,-10.6212,-7.00199,-11.0346,Q,Q
2023-03-15 12:54:04:177,0,-10.6273,-7.00725,-11.0274,Q,Q
2023-03-15 12:54:04:187,0,-10.6371,-7.01209,-11.0184,Q,Q
2023-03-15 12:54:04:197,0,-10.6553,-7.01214,-11.0078,Q,Q
2023-03-15 12:54:04:207,0,-10.679,-7.01171,-10.9946,Q,Q
2023-03-15 12:54:04:217,0,-10.7136,-7.00777,-10.9774,Q,Q
2023-03-15 12:54:04:227,0,-10.7577,-7.00109,-10.9592,Q,Q
2023-03-15 12:54:04:237,0,-10.8115,-6.99823,-10.9421,Q,Q
2023-03-15 12:54:04:247,0,-10.8817,-6.99474,-10.9196,Q,Q
2023-03-15 12:54:04:257,0,-10.962,-6.99495,-10.898,Q,Q
2023-03-15 12:54:04:267,0,-11.0387,-6.99464,-10.876,Q,Q
2023-03-15 12:54:04:277,0,-11.1162,-6.99355,-10.8611,Q,Q
2023-03-15 12:54:04:287,0,-11.1929,-6.99054,-10.8459,Q,Q
2023-03-15 12:54:04:297,0,-11.2707,-6.98605,-10.8349,Q,Q
