Timestamp_cmd,imu_cmd,roll_delta,pitch_delta,yaw_delta,voice_type,voice_length
2023-03-15 11:54:19:816,0,-78.7661,0.49865,77.8925,Q,Q
2023-03-15 11:54:19:824,0,-78.765,0.497193,77.8904,Q,Q
2023-03-15 11:54:19:835,0,-78.7618,0.501102,77.8906,Q,Q
2023-03-15 11:54:19:844,0,-78.7613,0.502509,77.891,Q,Q
2023-03-15 11:54:19:855,0,-78.7611,0.502423,77.8874,Q,Q
2023-03-15 11:54:19:865,0,-78.7615,0.50282,77.8835,Q,Q
2023-03-15 11:54:19:875,0,-78.7602,0.501689,77.8817,Q,Q
2023-03-15 11:54:19:885,0,-78.7598,0.503819,77.8819,Q,Q
2023-03-15 11:54:19:895,0,-78.7596,0.501163,77.882,Q,Q
2023-03-15 11:54:19:905,0,-78.7581,0.500626,77.8816,Q,Q
2023-03-15 11:54:19:915,0,-78.7592,0.499489,77.8805,Q,Q
2023-03-15 11:54:19:925,0,-78.7598,0.500387,77.8779,Q,Q
2023-03-15 11:54:19:935,0,-78.7587,0.498219,77.8746,Q,Q
2023-03-15 11:54:19:945,0,-78.7581,0.495662,77.8754,Q,Q
2023-03-15 11:54:19:955,0,-78.7594,0.493985,77.8741,Q,Q
2023-03-15 11:54:19:965,0,-78.7629,0.492433,77.8729,Q,Q
2023-03-15 11:54:19:975,0,-78.7628,0.492754,77.8738,Q,Q
2023-03-15 11:54:19:985,0,-78.7625,0.492107,77.8742,Q,Q
2023-03-15 11:54:19:995,0,-78.7634,0.489889,77.8723,Q,Q
2023-03-15 11:54:20:5,0,-78.7625,0.488168,77.8765,Q,Q
2023-03-15 11:54:20:15,0,-78.763,0.488082,77.8727,Q,Q
2023-03-15 11:54:20:25,0,-78.7639,0.487622,77.8712,Q,Q
2023-03-15 11:54:20:35,0,-78.7639,0.488555,77.8669,Q,Q
2023-03-15 11:54:20:45,0,-78.7614,0.486572,77.8656,Q,Q
2023-03-15 11:54:20:55,0,-78.7622,0.48562,77.8661,Q,Q
2023-03-15 11:54:20:65,0,-78.7624,0.489939,77.8655,Q,Q
2023-03-15 11:54:20:75,0,-78.7611,0.492826,77.8667,Q,Q
2023-03-15 11:54:20:85,0,-78.7597,0.491018,77.8662,Q,Q
2023-03-15 11:54:20:95,0,-78.7565,0.491612,77.863,Q,Q
2023-03-15 11:54:20:105,0,-78.7563,0.489499,77.8616,Q,Q
2023-03-15 11:54:20:115,0,-78.7571,0.490542,77.8619,Q,Q
2023-03-15 11:54:20:125,0,-78.7555,0.490119,77.8612,Q,Q
2023-03-15 11:54:20:135,0,-78.7519,0.489344,77.8602,Q,Q
2023-03-15 11:54:20:145,0,-78.7492,0.490235,77.8599,Q,Q
2023-03-15 11:54:20:155,0,-78.7494,0.489984,77.8606,Q,Q
2023-03-15 11:54:20:165,0,-78.7525,0.489649,77.8615,Q,Q
2023-03-15 11:54:20:175,0,-78.7524,0.486205,77.8597,Q,Q
2023-03-15 11:54:20:185,0,-78.7523,0.484866,77.8612,Q,Q
2023-03-15 11:54:20:195,0,-78.7508,0.483856,77.8603,Q,Q
2023-03-15 11:54:20:205,0,-78.7452,0.48671,77.8592,Q,Q
2023-03-15 11:54:20:215,0,-78.7446,0.488095,77.8594,Q,Q
2023-03-15 11:54:20:225,0,-78.7426,0.485745,77.857,Q,Q
2023-03-15 11:54:20:235,0,-78.7423,0.487298,77.8564,Q,Q
2023-03-15 11:54:20:245,0,-78.7414,0.489319,77.8582,Q,Q
2023-03-15 11:54:20:255,0,-78.7446,0.488979,77.8594,Q,Q
2023-03-15 11:54:20:265,0,-78.7455,0.488438,77.8618,Q,Q
2023-03-15 11:54:20:275,0,-78.7461,0.4897,77.862,Q,Q
2023-03-15 11:54:20:285,0,-78.7498,0.490431,77.8656,Q,Q
2023-03-15 11:54:20:294,0,-78.7488,0.488594,77.8648,Q,Q
2023-03-15 11:54:20:304,0,-78.7487,0.489456,77.8634,Q,Q
2023-03-15 11:54:20:315,0,-78.7481,0.49139,77.8624,Q,Q
2023-03-15 11:54:20:325,0,-78.7449,0.488527,77.8604,Q,Q
2023-03-15 11:54:20:334,0,-78.7463,0.490689,77.8638,Q,Q
2023-03-15 11:54:20:344,0,-78.7457,0.490096,77.8634,Q,Q
2023-03-15 11:54:20:355,0,-78.7426,0.489354,77.8607,Q,Q
2023-03-15 11:54:20:365,0,-78.7432,0.489784,77.8588,Q,Q
2023-03-15 11:54:20:375,0,-78.7425,0.48764,77.8571,Q,Q
2023-03-15 11:54:20:385,0,-78.7439,0.486836,77.8571,Q,Q
2023-03-15 11:54:20:395,0,-78.7447,0.488209,77.8544,Q,Q
2023-03-15 11:54:20:405,0,-78.7449,0.488284,77.8567,Q,Q
2023-03-15 11:54:20:414,0,-78.7464,0.488636,77.8568,Q,Q
2023-03-15 11:54:20:424,0,-78.7461,0.487407,77.8572,Q,Q
2023-03-15 11:54:20:434,0,-78.7464,0.491134,77.857,Q,Q
2023-03-15 11:54:20:444,0,-78.7474,0.49225,77.8542,Q,Q
2023-03-15 11:54:20:454,0,-78.746,0.491213,77.8548,Q,Q
2023-03-15 11:54:20:464,0,-78.744,0.489473,77.8532,Q,Q
2023-03-15 11:54:20:474,0,-78.7442,0.490611,77.85,Q,Q
2023-03-15 11:54:20:484,0,-78.7437,0.49355,77.8501,Q,Q
2023-03-15 11:54:20:494,0,-78.7442,0.495666,77.8456,Q,Q
2023-03-15 11:54:20:504,0,-78.7477,0.49674,77.8455,Q,Q
2023-03-15 11:54:20:514,0,-78.7486,0.497282,77.843,Q,Q
2023-03-15 11:54:20:524,0,-78.7441,0.49799,77.843,Q,Q
2023-03-15 11:54:20:534,0,-78.7478,0.499319,77.8427,Q,Q
2023-03-15 11:54:20:544,0,-78.7489,0.496845,77.8416,Q,Q
2023-03-15 11:54:20:554,0,-78.7484,0.498059,77.8414,Q,Q
2023-03-15 11:54:20:564,0,-78.7496,0.495921,77.8385,Q,Q
2023-03-15 11:54:20:574,0,-78.7497,0.494088,77.841,Q,Q
2023-03-15 11:54:20:584,0,-78.7509,0.491209,77.8403,Q,Q
2023-03-15 11:54:20:594,0,-78.749,0.490092,77.837,Q,Q
2023-03-15 11:54:20:604,0,-78.7471,0.49321,77.8332,Q,Q
2023-03-15 11:54:20:614,0,-78.747,0.489104,77.8329,Q,Q
2023-03-15 11:54:20:625,0,-78.7467,0.491755,77.8301,Q,Q
2023-03-15 11:54:20:635,0,-78.7441,0.490673,77.8284,Q,Q
2023-03-15 11:54:20:645,0,-78.7427,0.493922,77.8279,Q,Q
2023-03-15 11:54:20:655,0,-78.7435,0.494698,77.8277,Q,Q
2023-03-15 11:54:20:665,0,-78.7436,0.49247,77.826,Q,Q
2023-03-15 11:54:20:674,0,-78.743,0.493063,77.8233,Q,Q
2023-03-15 11:54:20:684,0,-78.7384,0.49334,77.8238,Q,Q
2023-03-15 11:54:20:694,0,-78.736,0.492372,77.8252,Q,Q
2023-03-15 11:54:20:704,0,-78.7332,0.493703,77.8245,Q,Q
2023-03-15 11:54:20:714,0,-78.7313,0.492876,77.8233,Q,Q
2023-03-15 11:54:20:724,0,-78.7321,0.491233,77.8232,Q,Q
2023-03-15 11:54:20:734,0,-78.735,0.491783,77.8215,Q,Q
2023-03-15 11:54:20:744,0,-78.7364,0.490953,77.819,Q,Q
2023-03-15 11:54:20:754,0,-78.7353,0.489857,77.8196,Q,Q
2023-03-15 11:54:20:764,0,-78.7327,0.488775,77.8226,Q,Q
2023-03-15 11:54:20:774,0,-78.7321,0.488197,77.823,Q,Q
2023-03-15 11:54:20:784,0,-78.732,0.486982,77.8228,Q,Q
2023-03-15 11:54:20:794,0,-78.7283,0.488521,77.8242,Q,Q
2023-03-15 11:54:20:804,0,-78.727,0.489575,77.8253,Q,Q
2023-03-15 11:54:20:814,0,-78.7282,0.486247,77.823,Q,Q
2023-03-15 11:54:20:824,0,-78.7309,0.484873,77.8256,Q,Q
2023-03-15 11:54:20:834,0,-78.7278,0.486528,77.8202,Q,Q
2023-03-15 11:54:20:844,0,-78.7277,0.485264,77.8202,Q,Q
2023-03-15 11:54:20:854,0,-78.7299,0.482435,77.8172,Q,Q
2023-03-15 11:54:20:864,0,-78.7292,0.480374,77.8197,Q,Q
2023-03-15 11:54:20:874,0,-78.7284,0.481726,77.8208,Q,Q
2023-03-15 11:54:20:884,0,-78.7285,0.482071,77.8201,Q,Q
2023-03-15 11:54:20:894,0,-78.7308,0.480787,77.8204,Q,Q
2023-03-15 11:54:20:904,0,-78.7286,0.481198,77.8179,Q,Q
2023-03-15 11:54:20:914,0,-78.7277,0.480023,77.8186,Q,Q
2023-03-15 11:54:20:924,0,-78.7265,0.481689,77.8156,Q,Q
2023-03-15 11:54:20:935,0,-78.7246,0.481188,77.8122,Q,Q
2023-03-15 11:54:20:945,0,-78.7201,0.480149,77.8133,Q,Q
2023-03-15 11:54:20:955,0,-78.7164,0.477813,77.8108,Q,Q
2023-03-15 11:54:20:965,0,-78.7182,0.4751,77.8087,Q,Q
2023-03-15 11:54:20:975,0,-78.72,0.478126,77.8093,Q,Q
2023-03-15 11:54:20:985,0,-78.7228,0.478268,77.806,Q,Q
2023-03-15 11:54:20:995,0,-78.7229,0.474994,77.8031,Q,Q
2023-03-15 11:54:21:4,0,-78.7206,0.475477,77.8054,Q,Q
2023-03-15 11:54:21:14,0,-78.72,0.476873,77.8047,Q,Q
2023-03-15 11:54:21:24,0,-78.7201,0.476034,77.8072,Q,Q
2023-03-15 11:54:21:34,0,-78.7208,0.479572,77.8068,Q,Q
2023-03-15 11:54:21:44,0,-78.7172,0.480082,77.8078,Q,Q
2023-03-15 11:54:21:54,0,-78.7186,0.480037,77.8096,Q,Q
2023-03-15 11:54:21:64,0,-78.7181,0.479867,77.8081,Q,Q
2023-03-15 11:54:21:74,0,-78.7206,0.480874,77.8077,Q,Q
2023-03-15 11:54:21:84,0,-78.7222,0.479797,77.8102,Q,Q
2023-03-15 11:54:21:94,0,-78.7216,0.477776,77.8083,Q,Q
2023-03-15 11:54:21:104,0,-78.7232,0.477957,77.8049,Q,Q
2023-03-15 11:54:21:114,0,-78.7242,0.477092,77.8052,Q,Q
2023-03-15 11:54:21:124,0,-78.7261,0.475182,77.8065,Q,Q
2023-03-15 11:54:21:134,0,-78.7287,0.476116,77.8072,Q,Q
2023-03-15 11:54:21:144,0,-78.7295,0.476569,77.8083,Q,Q
2023-03-15 11:54:21:155,0,-78.7339,0.477362,77.8095,Q,Q
2023-03-15 11:54:21:165,0,-78.7343,0.479429,77.81,Q,Q
2023-03-15 11:54:21:175,0,-78.7347,0.480179,77.8101,Q,Q
2023-03-15 11:54:21:185,0,-78.736,0.479079,77.8073,Q,Q
2023-03-15 11:54:21:195,0,-78.737,0.484096,77.8077,Q,Q
2023-03-15 11:54:21:205,0,-78.739,0.48094,77.8083,Q,Q
2023-03-15 11:54:21:214,0,-78.7397,0.482463,77.8087,Q,Q
2023-03-15 11:54:21:225,0,-78.7379,0.482539,77.8085,Q,Q
2023-03-15 11:54:21:235,0,-78.7368,0.483846,77.806,Q,Q
2023-03-15 11:54:21:245,0,-78.7353,0.484919,77.8098,Q,Q
2023-03-15 11:54:21:255,0,-78.7371,0.484096,77.8106,Q,Q
2023-03-15 11:54:21:265,0,-78.7377,0.484733,77.8134,Q,Q
2023-03-15 11:54:21:275,0,-78.7381,0.487631,77.8129,Q,Q
2023-03-15 11:54:21:285,0,-78.7401,0.49024,77.8114,Q,Q
2023-03-15 11:54:21:295,0,-78.7384,0.488596,77.8113,Q,Q
2023-03-15 11:54:21:305,0,-78.7375,0.486377,77.8127,Q,Q
2023-03-15 11:54:21:315,0,-78.7361,0.482387,77.8139,Q,Q
2023-03-15 11:54:21:325,0,-78.7359,0.48426,77.8104,Q,Q
2023-03-15 11:54:21:335,0,-78.7351,0.484894,77.8131,Q,Q
2023-03-15 11:54:21:344,0,-78.7363,0.487316,77.8153,Q,Q
2023-03-15 11:54:21:355,0,-78.7383,0.487026,77.818,Q,Q
2023-03-15 11:54:21:365,0,-78.7381,0.489761,77.8159,Q,Q
2023-03-15 11:54:21:375,0,-78.7395,0.489621,77.8136,Q,Q
2023-03-15 11:54:21:384,0,-78.7411,0.485007,77.812,Q,Q
2023-03-15 11:54:21:395,0,-78.7441,0.483342,77.8125,Q,Q
2023-03-15 11:54:21:405,0,-78.7441,0.483047,77.8132,Q,Q
2023-03-15 11:54:21:414,0,-78.7465,0.482272,77.8123,Q,Q
2023-03-15 11:54:21:425,0,-78.7471,0.478804,77.8094,Q,Q
2023-03-15 11:54:21:435,0,-78.7443,0.478475,77.8077,Q,Q
2023-03-15 11:54:21:445,0,-78.7419,0.478838,77.8063,Q,Q
2023-03-15 11:54:21:455,0,-78.7424,0.48139,77.8059,Q,Q
2023-03-15 11:54:21:464,0,-78.7425,0.481195,77.8048,Q,Q
2023-03-15 11:54:21:475,0,-78.743,0.482357,77.7998,Q,Q
2023-03-15 11:54:21:485,0,-78.7442,0.480266,77.7997,Q,Q
2023-03-15 11:54:21:495,0,-78.7407,0.480561,77.7987,Q,Q
2023-03-15 11:54:21:505,0,-78.7401,0.479519,77.7996,Q,Q
2023-03-15 11:54:21:514,0,-78.7372,0.476438,77.7997,Q,Q
2023-03-15 11:54:21:525,0,-78.7358,0.475748,77.7983,Q,Q
2023-03-15 11:54:21:535,0,-78.7348,0.475547,77.7962,Q,Q
2023-03-15 11:54:21:545,0,-78.7344,0.476045,77.7974,Q,Q
2023-03-15 11:54:21:555,0,-78.7327,0.479302,77.7969,Q,Q
2023-03-15 11:54:21:564,0,-78.7333,0.481554,77.7956,Q,Q
2023-03-15 11:54:21:575,0,-78.7324,0.481212,77.7963,Q,Q
2023-03-15 11:54:21:584,0,-78.7337,0.477719,77.7964,Q,Q
2023-03-15 11:54:21:595,0,-78.7322,0.479083,77.7984,Q,Q
2023-03-15 11:54:21:605,0,-78.7321,0.479784,77.799,Q,Q
2023-03-15 11:54:21:615,0,-78.7316,0.480118,77.7995,Q,Q
2023-03-15 11:54:21:625,0,-78.7303,0.481355,77.7978,Q,Q
2023-03-15 11:54:21:635,0,-78.728,0.478904,77.7973,Q,Q
2023-03-15 11:54:21:645,0,-78.7237,0.479369,77.7956,Q,Q
2023-03-15 11:54:21:655,0,-78.7233,0.481912,77.7931,Q,Q
2023-03-15 11:54:21:664,0,-78.725,0.484653,77.7933,Q,Q
2023-03-15 11:54:21:675,0,-78.724,0.484543,77.7962,Q,Q
2023-03-15 11:54:21:685,0,-78.7252,0.483472,77.7983,Q,Q
2023-03-15 11:54:21:695,0,-78.7243,0.483121,77.7977,Q,Q
2023-03-15 11:54:21:705,0,-78.7224,0.48235,77.7975,Q,Q
2023-03-15 11:54:21:715,0,-78.7211,0.483859,77.7997,Q,Q
2023-03-15 11:54:21:725,0,-78.7255,0.482825,77.7982,Q,Q
2023-03-15 11:54:21:735,0,-78.7244,0.48126,77.8029,Q,Q
2023-03-15 11:54:21:745,0,-78.7204,0.481237,77.8041,Q,Q
2023-03-15 11:54:21:755,0,-78.7204,0.48347,77.8001,Q,Q
2023-03-15 11:54:21:765,0,-78.7254,0.482682,77.7976,Q,Q
2023-03-15 11:54:21:775,0,-78.7258,0.481616,77.7968,Q,Q
2023-03-15 11:54:21:785,0,-78.725,0.485473,77.7971,Q,Q
2023-03-15 11:54:21:795,0,-78.7253,0.484201,77.7964,Q,Q
2023-03-15 11:54:21:805,0,-78.7223,0.487168,77.7969,Q,Q
2023-03-15 11:54:21:815,0,-78.7239,0.48722,77.7963,Q,Q
2023-03-15 11:54:21:825,0,-78.7221,0.485113,77.7966,Q,Q
2023-03-15 11:54:21:835,0,-78.7254,0.483146,77.7932,Q,Q
2023-03-15 11:54:21:845,0,-78.7269,0.480021,77.7947,Q,Q
2023-03-15 11:54:21:855,0,-78.7249,0.481398,77.7931,Q,Q
2023-03-15 11:54:21:865,0,-78.7213,0.482359,77.792,Q,Q
2023-03-15 11:54:21:875,0,-78.7211,0.480464,77.7925,Q,Q
2023-03-15 11:54:21:885,0,-78.7226,0.479927,77.7943,Q,Q
2023-03-15 11:54:21:895,0,-78.7216,0.479199,77.7941,Q,Q
2023-03-15 11:54:21:905,0,-78.7205,0.481188,77.7976,Q,Q
2023-03-15 11:54:21:915,0,-78.721,0.481733,77.8004,Q,Q
2023-03-15 11:54:21:925,0,-78.719,0.485076,77.8009,Q,Q
2023-03-15 11:54:21:935,0,-78.7171,0.482182,77.7993,Q,Q
2023-03-15 11:54:21:945,0,-78.7175,0.482964,77.7994,Q,Q
2023-03-15 11:54:21:955,0,-78.7181,0.482562,77.8015,Q,Q
2023-03-15 11:54:21:965,0,-78.719,0.479195,77.802,Q,Q
2023-03-15 11:54:21:975,0,-78.719,0.478906,77.8009,Q,Q
2023-03-15 11:54:21:985,0,-78.7182,0.478844,77.7987,Q,Q
2023-03-15 11:54:21:995,0,-78.7202,0.477986,77.7998,Q,Q
2023-03-15 11:54:22:5,0,-78.7207,0.481226,77.7966,Q,Q
2023-03-15 11:54:22:15,0,-78.72,0.481804,77.7996,Q,Q
2023-03-15 11:54:22:25,0,-78.7209,0.480693,77.7996,Q,Q
2023-03-15 11:54:22:34,0,-78.7204,0.478456,77.7994,Q,Q
2023-03-15 11:54:22:44,0,-78.7207,0.48036,77.8,Q,Q
2023-03-15 11:54:22:54,0,-78.7206,0.479869,77.8,Q,Q
2023-03-15 11:54:22:64,0,-78.7214,0.477999,77.8005,Q,Q
2023-03-15 11:54:22:74,0,-78.7211,0.477466,77.7951,Q,Q
2023-03-15 11:54:22:84,0,-78.7226,0.477239,77.7969,Q,Q
2023-03-15 11:54:22:94,0,-78.7197,0.47682,77.7955,Q,Q
2023-03-15 11:54:22:104,0,-78.7214,0.477762,77.7981,Q,Q
2023-03-15 11:54:22:114,0,-78.721,0.479259,77.7964,Q,Q
2023-03-15 11:54:22:124,0,-78.7228,0.480623,77.7954,Q,Q
2023-03-15 11:54:22:134,0,-78.7207,0.481305,77.7957,Q,Q
2023-03-15 11:54:22:144,0,-78.7244,0.48072,77.7957,Q,Q
2023-03-15 11:54:22:154,0,-78.7231,0.481364,77.7942,Q,Q
2023-03-15 11:54:22:164,0,-78.7246,0.482119,77.7951,Q,Q
2023-03-15 11:54:22:174,0,-78.7261,0.482365,77.7949,Q,Q
2023-03-15 11:54:22:184,0,-78.7242,0.483977,77.7969,Q,Q
2023-03-15 11:54:22:194,0,-78.7232,0.483605,77.7956,Q,Q
2023-03-15 11:54:22:204,0,-78.7232,0.483457,77.7913,Q,Q
2023-03-15 11:54:22:214,0,-78.7241,0.482745,77.7883,Q,Q
2023-03-15 11:54:22:224,0,-78.7233,0.48352,77.7896,Q,Q
2023-03-15 11:54:22:234,0,-78.7228,0.482473,77.7865,Q,Q
2023-03-15 11:54:22:244,0,-78.7215,0.48017,77.7866,Q,Q
2023-03-15 11:54:22:254,0,-78.7233,0.480615,77.7902,Q,Q
2023-03-15 11:54:22:264,0,-78.7221,0.479278,77.7895,Q,Q
2023-03-15 11:54:22:274,0,-78.7172,0.480754,77.7883,Q,Q
2023-03-15 11:54:22:285,0,-78.7161,0.482984,77.7869,Q,Q
2023-03-15 11:54:22:295,0,-78.7126,0.483689,77.7842,Q,Q
2023-03-15 11:54:22:305,0,-78.713,0.484551,77.7819,Q,Q
2023-03-15 11:54:22:315,0,-78.7119,0.486003,77.7799,Q,Q
2023-03-15 11:54:22:325,0,-78.7121,0.487234,77.7776,Q,Q
2023-03-15 11:54:22:335,0,-78.7153,0.486673,77.7753,Q,Q
2023-03-15 11:54:22:345,0,-78.7131,0.484966,77.7701,Q,Q
2023-03-15 11:54:22:355,0,-78.7107,0.485623,77.7696,Q,Q
2023-03-15 11:54:22:364,0,-78.7099,0.483838,77.7676,Q,Q
2023-03-15 11:54:22:375,0,-78.7077,0.481309,77.7647,Q,Q
2023-03-15 11:54:22:385,0,-78.7065,0.481529,77.7621,Q,Q
2023-03-15 11:54:22:395,0,-78.7067,0.483768,77.7641,Q,Q
2023-03-15 11:54:22:405,0,-78.7047,0.482404,77.7614,Q,Q
2023-03-15 11:54:22:415,0,-78.7069,0.481988,77.7634,Q,Q
2023-03-15 11:54:22:425,0,-78.7054,0.481318,77.7627,Q,Q
2023-03-15 11:54:22:435,0,-78.7085,0.479838,77.759,Q,Q
2023-03-15 11:54:22:445,0,-78.7117,0.478303,77.7606,Q,Q
2023-03-15 11:54:22:455,0,-78.7105,0.478306,77.761,Q,Q
2023-03-15 11:54:22:465,0,-78.7079,0.480067,77.7615,Q,Q
2023-03-15 11:54:22:475,0,-78.7075,0.479855,77.7594,Q,Q
2023-03-15 11:54:22:485,0,-78.7063,0.476869,77.7585,Q,Q
2023-03-15 11:54:22:495,0,-78.7059,0.476907,77.7579,Q,Q
2023-03-15 11:54:22:505,0,-78.7026,0.476072,77.7576,Q,Q
2023-03-15 11:54:22:515,0,-78.7018,0.476851,77.758,Q,Q
2023-03-15 11:54:22:525,0,-78.7003,0.476866,77.7575,Q,Q
2023-03-15 11:54:22:535,0,-78.6992,0.473586,77.7559,Q,Q
2023-03-15 11:54:22:545,0,-78.6963,0.47227,77.7585,Q,Q
2023-03-15 11:54:22:555,0,-78.697,0.473855,77.7544,Q,Q
2023-03-15 11:54:22:565,0,-78.698,0.472163,77.7526,Q,Q
2023-03-15 11:54:22:575,0,-78.6988,0.474444,77.7536,Q,Q
2023-03-15 11:54:22:585,0,-78.7011,0.476129,77.7531,Q,Q
2023-03-15 11:54:22:595,0,-78.7023,0.475876,77.7515,Q,Q
2023-03-15 11:54:22:605,0,-78.701,0.475879,77.7499,Q,Q
2023-03-15 11:54:22:615,0,-78.7017,0.475836,77.7463,Q,Q
2023-03-15 11:54:22:625,0,-78.7007,0.473481,77.7475,Q,Q
2023-03-15 11:54:22:635,0,-78.702,0.47656,77.7495,Q,Q
2023-03-15 11:54:22:645,0,-78.7043,0.474969,77.7504,Q,Q
2023-03-15 11:54:22:655,0,-78.7055,0.477155,77.7531,Q,Q
2023-03-15 11:54:22:665,0,-78.7064,0.475803,77.7502,Q,Q
2023-03-15 11:54:22:675,0,-78.7024,0.474724,77.7517,Q,Q
2023-03-15 11:54:22:685,0,-78.7047,0.47709,77.7553,Q,Q
2023-03-15 11:54:22:695,0,-78.7028,0.475177,77.7546,Q,Q
2023-03-15 11:54:22:705,0,-78.7021,0.474732,77.7507,Q,Q
2023-03-15 11:54:22:715,0,-78.7029,0.47462,77.7503,Q,Q
2023-03-15 11:54:22:725,0,-78.7003,0.475229,77.75,Q,Q
2023-03-15 11:54:22:735,0,-78.7028,0.475524,77.7503,Q,Q
2023-03-15 11:54:22:745,0,-78.7052,0.474442,77.7489,Q,Q
2023-03-15 11:54:22:755,0,-78.7031,0.472999,77.7482,Q,Q
2023-03-15 11:54:22:765,0,-78.7008,0.473838,77.7476,Q,Q
2023-03-15 11:54:22:775,0,-78.7011,0.471996,77.7445,Q,Q
2023-03-15 11:54:22:785,0,-78.6994,0.472252,77.7439,Q,Q
2023-03-15 11:54:22:795,0,-78.7016,0.471236,77.7441,Q,Q
2023-03-15 11:54:22:805,0,-78.7024,0.470474,77.7459,Q,Q
2023-03-15 11:54:22:815,0,-78.7041,0.469273,77.7455,Q,Q
2023-03-15 11:54:22:825,0,-78.7072,0.468752,77.7458,Q,Q
2023-03-15 11:54:22:835,0,-78.7084,0.470459,77.7475,Q,Q
2023-03-15 11:54:22:845,0,-78.7072,0.46846,77.7477,Q,Q
2023-03-15 11:54:22:855,0,-78.7071,0.466897,77.7469,Q,Q
2023-03-15 11:54:22:865,0,-78.7068,0.46782,77.7481,Q,Q
2023-03-15 11:54:22:875,0,-78.7077,0.46726,77.7483,Q,Q
2023-03-15 11:54:22:885,0,-78.7091,0.466594,77.7486,Q,Q
2023-03-15 11:54:22:895,0,-78.7076,0.468365,77.7503,Q,Q
2023-03-15 11:54:22:905,0,-78.7105,0.470555,77.7496,Q,Q
2023-03-15 11:54:22:915,0,-78.7137,0.471526,77.7482,Q,Q
2023-03-15 11:54:22:925,0,-78.7132,0.471821,77.7476,Q,Q
2023-03-15 11:54:22:935,0,-78.7125,0.472925,77.7504,Q,Q
2023-03-15 11:54:22:945,0,-78.7103,0.472153,77.7516,Q,Q
2023-03-15 11:54:22:955,0,-78.7117,0.472473,77.7519,Q,Q
2023-03-15 11:54:22:965,0,-78.7134,0.471144,77.7537,Q,Q
2023-03-15 11:54:22:975,0,-78.7138,0.471724,77.7509,Q,Q
2023-03-15 11:54:22:985,0,-78.7142,0.471445,77.7501,Q,Q
2023-03-15 11:54:22:995,0,-78.7138,0.472666,77.7509,Q,Q
2023-03-15 11:54:23:5,0,-78.7126,0.472416,77.7498,Q,Q
2023-03-15 11:54:23:15,0,-78.7123,0.473586,77.7491,Q,Q
2023-03-15 11:54:23:25,0,-78.7134,0.473348,77.7484,Q,Q
2023-03-15 11:54:23:35,0,-78.7159,0.471995,77.7499,Q,Q
2023-03-15 11:54:23:45,0,-78.719,0.473119,77.7525,Q,Q
2023-03-15 11:54:23:55,0,-78.7182,0.470638,77.752,Q,Q
2023-03-15 11:54:23:65,0,-78.7176,0.472588,77.7474,Q,Q
2023-03-15 11:54:23:75,0,-78.719,0.470415,77.7471,Q,Q
2023-03-15 11:54:23:85,0,-78.7154,0.470778,77.7464,Q,Q
2023-03-15 11:54:23:94,0,-78.7135,0.471903,77.7448,Q,Q
2023-03-15 11:54:23:104,0,-78.7133,0.470981,77.7452,Q,Q
2023-03-15 11:54:23:115,0,-78.713,0.468426,77.7457,Q,Q
2023-03-15 11:54:23:125,0,-78.7124,0.469934,77.7431,Q,Q
2023-03-15 11:54:23:135,0,-78.7131,0.469105,77.7453,Q,Q
2023-03-15 11:54:23:145,0,-78.712,0.469659,77.7454,Q,Q
2023-03-15 11:54:23:155,0,-78.7129,0.466984,77.7443,Q,Q
2023-03-15 11:54:23:165,0,-78.7144,0.462777,77.7462,Q,Q
2023-03-15 11:54:23:175,0,-78.7151,0.462464,77.7461,Q,Q
2023-03-15 11:54:23:185,0,-78.7114,0.461031,77.7456,Q,Q
2023-03-15 11:54:23:195,0,-78.71,0.461022,77.7441,Q,Q
2023-03-15 11:54:23:205,0,-78.7142,0.461175,77.7393,Q,Q
2023-03-15 11:54:23:215,0,-78.7143,0.462569,77.7367,Q,Q
2023-03-15 11:54:23:225,0,-78.7153,0.461377,77.7347,Q,Q
2023-03-15 11:54:23:235,0,-78.7149,0.46213,77.7359,Q,Q
2023-03-15 11:54:23:245,0,-78.7112,0.463277,77.7371,Q,Q
2023-03-15 11:54:23:255,0,-78.7091,0.467159,77.7377,Q,Q
2023-03-15 11:54:23:265,0,-78.7095,0.467523,77.7394,Q,Q
2023-03-15 11:54:23:275,0,-78.7081,0.469582,77.7395,Q,Q
2023-03-15 11:54:23:285,0,-78.7062,0.470168,77.7366,Q,Q
2023-03-15 11:54:23:295,0,-78.7061,0.469776,77.7339,Q,Q
2023-03-15 11:54:23:305,0,-78.707,0.465981,77.7346,Q,Q
2023-03-15 11:54:23:315,0,-78.7073,0.466877,77.7339,Q,Q
2023-03-15 11:54:23:325,0,-78.7098,0.466979,77.7339,Q,Q
2023-03-15 11:54:23:334,0,-78.71,0.466279,77.7349,Q,Q
2023-03-15 11:54:23:344,0,-78.7079,0.464897,77.7324,Q,Q
2023-03-15 11:54:23:355,0,-78.706,0.462761,77.7326,Q,Q
2023-03-15 11:54:23:365,0,-78.7043,0.463153,77.7353,Q,Q
2023-03-15 11:54:23:375,0,-78.7038,0.463415,77.7351,Q,Q
2023-03-15 11:54:23:385,0,-78.7037,0.462747,77.7354,Q,Q
2023-03-15 11:54:23:395,0,-78.7031,0.45985,77.7345,Q,Q
2023-03-15 11:54:23:405,0,-78.7006,0.460939,77.7361,Q,Q
2023-03-15 11:54:23:415,0,-78.7008,0.461434,77.7357,Q,Q
2023-03-15 11:54:23:425,0,-78.6977,0.45718,77.736,Q,Q
2023-03-15 11:54:23:435,0,-78.7011,0.455387,77.7362,Q,Q
2023-03-15 11:54:23:445,0,-78.7036,0.455336,77.7353,Q,Q
2023-03-15 11:54:23:455,0,-78.7038,0.454649,77.7353,Q,Q
2023-03-15 11:54:23:465,0,-78.7025,0.454886,77.7324,Q,Q
2023-03-15 11:54:23:475,0,-78.7035,0.457747,77.7305,Q,Q
2023-03-15 11:54:23:485,0,-78.7066,0.457989,77.7338,Q,Q
2023-03-15 11:54:23:495,0,-78.7031,0.459008,77.735,Q,Q
2023-03-15 11:54:23:505,0,-78.705,0.455744,77.7352,Q,Q
2023-03-15 11:54:23:515,0,-78.7034,0.455504,77.7342,Q,Q
2023-03-15 11:54:23:525,0,-78.7014,0.454596,77.7355,Q,Q
2023-03-15 11:54:23:535,0,-78.7002,0.455358,77.7351,Q,Q
2023-03-15 11:54:23:545,0,-78.7032,0.453482,77.7345,Q,Q
2023-03-15 11:54:23:555,0,-78.7046,0.451799,77.7344,Q,Q
2023-03-15 11:54:23:565,0,-78.7034,0.451386,77.7355,Q,Q
2023-03-15 11:54:23:575,0,-78.7037,0.453243,77.7379,Q,Q
2023-03-15 11:54:23:585,0,-78.7044,0.452909,77.7388,Q,Q
2023-03-15 11:54:23:595,0,-78.7042,0.45293,77.739,Q,Q
2023-03-15 11:54:23:605,0,-78.7028,0.453011,77.7413,Q,Q
2023-03-15 11:54:23:615,0,-78.7055,0.453705,77.7397,Q,Q
2023-03-15 11:54:23:625,0,-78.703,0.451696,77.7424,Q,Q
2023-03-15 11:54:23:635,0,-78.6997,0.452936,77.7412,Q,Q
2023-03-15 11:54:23:644,0,-78.6987,0.452578,77.7421,Q,Q
2023-03-15 11:54:23:655,0,-78.6952,0.452082,77.7414,Q,Q
2023-03-15 11:54:23:665,0,-78.6955,0.451927,77.7393,Q,Q
2023-03-15 11:54:23:675,0,-78.6932,0.453197,77.7375,Q,Q
2023-03-15 11:54:23:685,0,-78.6952,0.455147,77.7396,Q,Q
2023-03-15 11:54:23:695,0,-78.6963,0.458117,77.7412,Q,Q
2023-03-15 11:54:23:705,0,-78.6931,0.461112,77.7398,Q,Q
2023-03-15 11:54:23:715,0,-78.6927,0.463091,77.7379,Q,Q
2023-03-15 11:54:23:725,0,-78.6925,0.461915,77.7395,Q,Q
2023-03-15 11:54:23:735,0,-78.6925,0.460811,77.74,Q,Q
2023-03-15 11:54:23:745,0,-78.6958,0.462543,77.7382,Q,Q
2023-03-15 11:54:23:755,0,-78.6949,0.460788,77.739,Q,Q
2023-03-15 11:54:23:765,0,-78.6929,0.459205,77.736,Q,Q
2023-03-15 11:54:23:775,0,-78.6953,0.461397,77.7346,Q,Q
2023-03-15 11:54:23:785,0,-78.6933,0.463903,77.7349,Q,Q
2023-03-15 11:54:23:795,0,-78.6944,0.468449,77.7353,Q,Q
2023-03-15 11:54:23:805,0,-78.6926,0.46863,77.7346,Q,Q
2023-03-15 11:54:23:815,0,-78.692,0.468562,77.7362,Q,Q
2023-03-15 11:54:23:825,0,-78.6925,0.468248,77.7384,Q,Q
2023-03-15 11:54:23:835,0,-78.6905,0.466769,77.7387,Q,Q
2023-03-15 11:54:23:844,0,-78.6925,0.468196,77.7397,Q,Q
2023-03-15 11:54:23:855,0,-78.6932,0.468592,77.7401,Q,Q
2023-03-15 11:54:23:865,0,-78.6941,0.469273,77.7406,Q,Q
2023-03-15 11:54:23:875,0,-78.6945,0.46843,77.7381,Q,Q
2023-03-15 11:54:23:885,0,-78.6946,0.467825,77.7393,Q,Q
2023-03-15 11:54:23:894,0,-78.6933,0.466851,77.7388,Q,Q
2023-03-15 11:54:23:905,0,-78.6918,0.467986,77.7356,Q,Q
2023-03-15 11:54:23:915,0,-78.6929,0.468717,77.7367,Q,Q
2023-03-15 11:54:23:925,0,-78.693,0.469808,77.738,Q,Q
2023-03-15 11:54:23:935,0,-78.694,0.472578,77.7387,Q,Q
2023-03-15 11:54:23:945,0,-78.6945,0.473252,77.7389,Q,Q
2023-03-15 11:54:23:955,0,-78.6911,0.474571,77.7393,Q,Q
2023-03-15 11:54:23:965,0,-78.6916,0.4747,77.7431,Q,Q
2023-03-15 11:54:23:975,0,-78.6949,0.472142,77.7443,Q,Q
2023-03-15 11:54:23:985,0,-78.6979,0.472519,77.7441,Q,Q
2023-03-15 11:54:23:995,0,-78.6983,0.469838,77.7428,Q,Q
2023-03-15 11:54:24:5,0,-78.6996,0.472428,77.7433,Q,Q
2023-03-15 11:54:24:15,0,-78.6993,0.47185,77.7461,Q,Q
2023-03-15 11:54:24:25,0,-78.6965,0.473757,77.7426,Q,Q
2023-03-15 11:54:24:35,0,-78.6968,0.476309,77.7412,Q,Q
2023-03-15 11:54:24:45,0,-78.6971,0.477746,77.7418,Q,Q
2023-03-15 11:54:24:55,0,-78.6982,0.477245,77.7406,Q,Q
2023-03-15 11:54:24:65,0,-78.6993,0.478596,77.741,Q,Q
2023-03-15 11:54:24:75,0,-78.6969,0.476132,77.74,Q,Q
2023-03-15 11:54:24:85,0,-78.6968,0.476092,77.7382,Q,Q
2023-03-15 11:54:24:95,0,-78.6968,0.477581,77.7378,Q,Q
2023-03-15 11:54:24:105,0,-78.6999,0.478918,77.7384,Q,Q
2023-03-15 11:54:24:115,0,-78.7019,0.474965,77.7398,Q,Q
2023-03-15 11:54:24:125,0,-78.7027,0.473378,77.7404,Q,Q
2023-03-15 11:54:24:135,0,-78.704,0.473052,77.7399,Q,Q
2023-03-15 11:54:24:145,0,-78.7049,0.475376,77.7424,Q,Q
2023-03-15 11:54:24:155,0,-78.7055,0.476331,77.7395,Q,Q
2023-03-15 11:54:24:165,0,-78.7047,0.47599,77.74,Q,Q
2023-03-15 11:54:24:175,0,-78.7028,0.477512,77.7397,Q,Q
2023-03-15 11:54:24:185,0,-78.7019,0.478126,77.7393,Q,Q
2023-03-15 11:54:24:195,0,-78.7018,0.479254,77.7395,Q,Q
2023-03-15 11:54:24:205,0,-78.7004,0.481129,77.7386,Q,Q
2023-03-15 11:54:24:215,0,-78.7011,0.478737,77.74,Q,Q
2023-03-15 11:54:24:225,0,-78.7003,0.478639,77.7398,Q,Q
2023-03-15 11:54:24:235,0,-78.7008,0.477522,77.7412,Q,Q
2023-03-15 11:54:24:245,0,-78.7047,0.477115,77.7414,Q,Q
2023-03-15 11:54:24:255,0,-78.7065,0.476949,77.7443,Q,Q
2023-03-15 11:54:24:265,0,-78.7058,0.478894,77.743,Q,Q
2023-03-15 11:54:24:275,0,-78.7065,0.480967,77.7425,Q,Q
2023-03-15 11:54:24:285,0,-78.7088,0.481732,77.7422,Q,Q
2023-03-15 11:54:24:295,0,-78.7093,0.485044,77.742,Q,Q
2023-03-15 11:54:24:305,0,-78.7106,0.482094,77.7423,Q,Q
2023-03-15 11:54:24:315,0,-78.7111,0.479731,77.7385,Q,Q
2023-03-15 11:54:24:325,0,-78.7121,0.478402,77.7366,Q,Q
2023-03-15 11:54:24:335,0,-78.7137,0.479107,77.7368,Q,Q
2023-03-15 11:54:24:345,0,-78.7121,0.479037,77.7342,Q,Q
2023-03-15 11:54:24:355,0,-78.7158,0.477216,77.7338,Q,Q
2023-03-15 11:54:24:365,0,-78.7156,0.478975,77.7341,Q,Q
2023-03-15 11:54:24:375,0,-78.7145,0.479829,77.7346,Q,Q
2023-03-15 11:54:24:385,0,-78.7164,0.480945,77.7338,Q,Q
2023-03-15 11:54:24:395,0,-78.718,0.480051,77.7315,Q,Q
2023-03-15 11:54:24:405,0,-78.7212,0.478886,77.7295,Q,Q
2023-03-15 11:54:24:415,0,-78.7228,0.479193,77.7255,Q,Q
2023-03-15 11:54:24:425,0,-78.7238,0.47863,77.7276,Q,Q
2023-03-15 11:54:24:435,0,-78.7215,0.477585,77.7228,Q,Q
2023-03-15 11:54:24:445,0,-78.7192,0.478837,77.7247,Q,Q
2023-03-15 11:54:24:455,0,-78.7209,0.477336,77.7254,Q,Q
2023-03-15 11:54:24:465,0,-78.7207,0.47963,77.727,Q,Q
2023-03-15 11:54:24:475,0,-78.7198,0.476941,77.7251,Q,Q
2023-03-15 11:54:24:485,0,-78.7199,0.477435,77.7234,Q,Q
2023-03-15 11:54:24:495,0,-78.7212,0.477203,77.7234,Q,Q
2023-03-15 11:54:24:505,0,-78.7225,0.47863,77.7228,Q,Q
2023-03-15 11:54:24:515,0,-78.7207,0.476549,77.725,Q,Q
2023-03-15 11:54:24:525,0,-78.7226,0.478934,77.7244,Q,Q
2023-03-15 11:54:24:535,0,-78.7263,0.480392,77.7236,Q,Q
2023-03-15 11:54:24:545,0,-78.7269,0.480382,77.7259,Q,Q
2023-03-15 11:54:24:555,0,-78.7255,0.481845,77.727,Q,Q
2023-03-15 11:54:24:565,0,-78.7256,0.480473,77.7234,Q,Q
2023-03-15 11:54:24:575,0,-78.7236,0.479621,77.7258,Q,Q
2023-03-15 11:54:24:585,0,-78.7211,0.479381,77.7284,Q,Q
2023-03-15 11:54:24:595,0,-78.7212,0.479327,77.7295,Q,Q
2023-03-15 11:54:24:605,0,-78.7199,0.478066,77.7292,Q,Q
2023-03-15 11:54:24:615,0,-78.718,0.477328,77.7277,Q,Q
2023-03-15 11:54:24:625,0,-78.7174,0.476457,77.7273,Q,Q
2023-03-15 11:54:24:635,0,-78.7176,0.479292,77.7288,Q,Q
2023-03-15 11:54:24:645,0,-78.718,0.479722,77.7288,Q,Q
2023-03-15 11:54:24:655,0,-78.7188,0.479029,77.7279,Q,Q
2023-03-15 11:54:24:665,0,-78.7179,0.477731,77.7269,Q,Q
2023-03-15 11:54:24:675,0,-78.718,0.476945,77.7242,Q,Q
2023-03-15 11:54:24:685,0,-78.7192,0.474232,77.7227,Q,Q
2023-03-15 11:54:24:695,0,-78.7161,0.477575,77.7223,Q,Q
2023-03-15 11:54:24:705,0,-78.7124,0.479405,77.7232,Q,Q
2023-03-15 11:54:24:715,0,-78.7107,0.480418,77.7227,Q,Q
2023-03-15 11:54:24:725,0,-78.7106,0.481827,77.7194,Q,Q
2023-03-15 11:54:24:735,0,-78.7106,0.477721,77.7189,Q,Q
2023-03-15 11:54:24:745,0,-78.7117,0.477971,77.7198,Q,Q
2023-03-15 11:54:24:755,0,-78.7117,0.474351,77.7181,Q,Q
2023-03-15 11:54:24:765,0,-78.7131,0.477021,77.7206,Q,Q
2023-03-15 11:54:24:775,0,-78.7102,0.477325,77.7191,Q,Q
2023-03-15 11:54:24:785,0,-78.7047,0.4746,77.7188,Q,Q
2023-03-15 11:54:24:795,0,-78.7048,0.473106,77.7187,Q,Q
2023-03-15 11:54:24:805,0,-78.7055,0.476009,77.7182,Q,Q
2023-03-15 11:54:24:815,0,-78.7037,0.474845,77.7206,Q,Q
2023-03-15 11:54:24:825,0,-78.7029,0.474844,77.7248,Q,Q
2023-03-15 11:54:24:835,0,-78.701,0.473269,77.7237,Q,Q
2023-03-15 11:54:24:845,0,-78.6988,0.473879,77.7218,Q,Q
2023-03-15 11:54:24:855,0,-78.6983,0.473339,77.722,Q,Q
2023-03-15 11:54:24:865,0,-78.698,0.471484,77.7223,Q,Q
2023-03-15 11:54:24:874,0,-78.6987,0.471784,77.7228,Q,Q
2023-03-15 11:54:24:885,0,-78.6976,0.470132,77.7233,Q,Q
2023-03-15 11:54:24:895,0,-78.6971,0.469703,77.7254,Q,Q
2023-03-15 11:54:24:905,0,-78.6971,0.469101,77.7281,Q,Q
2023-03-15 11:54:24:915,0,-78.6997,0.466539,77.726,Q,Q
2023-03-15 11:54:24:925,0,-78.7015,0.465079,77.7256,Q,Q
2023-03-15 11:54:24:935,0,-78.7038,0.463033,77.7299,Q,Q
2023-03-15 11:54:24:945,0,-78.7037,0.461255,77.7321,Q,Q
2023-03-15 11:54:24:954,0,-78.7074,0.458967,77.7334,Q,Q
2023-03-15 11:54:24:964,0,-78.7085,0.458396,77.7347,Q,Q
2023-03-15 11:54:24:975,0,-78.7086,0.459351,77.7347,Q,Q
2023-03-15 11:54:24:985,0,-78.7067,0.459703,77.7326,Q,Q
2023-03-15 11:54:24:995,0,-78.7076,0.463763,77.7311,Q,Q
2023-03-15 11:54:25:5,0,-78.7089,0.461423,77.7336,Q,Q
2023-03-15 11:54:25:15,0,-78.7134,0.460054,77.7336,Q,Q
2023-03-15 11:54:25:25,0,-78.7118,0.457396,77.7326,Q,Q
2023-03-15 11:54:25:35,0,-78.7112,0.455992,77.7322,Q,Q
2023-03-15 11:54:25:45,0,-78.71,0.458039,77.7288,Q,Q
2023-03-15 11:54:25:55,0,-78.7119,0.457598,77.73,Q,Q
2023-03-15 11:54:25:65,0,-78.7122,0.45785,77.7291,Q,Q
2023-03-15 11:54:25:75,0,-78.7119,0.46003,77.7284,Q,Q
2023-03-15 11:54:25:85,0,-78.7113,0.459576,77.7289,Q,Q
2023-03-15 11:54:25:95,0,-78.7134,0.460158,77.7278,Q,Q
2023-03-15 11:54:25:105,0,-78.714,0.459416,77.7269,Q,Q
2023-03-15 11:54:25:115,0,-78.716,0.461245,77.7289,Q,Q
2023-03-15 11:54:25:125,0,-78.7174,0.461489,77.7283,Q,Q
2023-03-15 11:54:25:135,0,-78.718,0.465505,77.728,Q,Q
2023-03-15 11:54:25:145,0,-78.7165,0.466062,77.7287,Q,Q
2023-03-15 11:54:25:155,0,-78.7147,0.46638,77.7329,Q,Q
2023-03-15 11:54:25:165,0,-78.7153,0.464715,77.7304,Q,Q
2023-03-15 11:54:25:175,0,-78.7131,0.461829,77.7274,Q,Q
2023-03-15 11:54:25:185,0,-78.7098,0.459017,77.7316,Q,Q
2023-03-15 11:54:25:195,0,-78.7152,0.46166,77.7359,Q,Q
2023-03-15 11:54:25:205,0,-78.7162,0.464236,77.7377,Q,Q
2023-03-15 11:54:25:215,0,-78.7141,0.464411,77.7415,Q,Q
2023-03-15 11:54:25:225,0,-78.7116,0.463404,77.7429,Q,Q
2023-03-15 11:54:25:235,0,-78.7112,0.462686,77.7441,Q,Q
2023-03-15 11:54:25:245,0,-78.7113,0.460703,77.7448,Q,Q
2023-03-15 11:54:25:255,0,-78.7138,0.460058,77.7458,Q,Q
2023-03-15 11:54:25:264,0,-78.7159,0.458224,77.7474,Q,Q
2023-03-15 11:54:25:274,0,-78.7154,0.457791,77.7448,Q,Q
2023-03-15 11:54:25:284,0,-78.7157,0.459256,77.7404,Q,Q
2023-03-15 11:54:25:294,0,-78.7174,0.464173,77.7387,Q,Q
2023-03-15 11:54:25:305,0,-78.716,0.464767,77.7375,Q,Q
2023-03-15 11:54:25:314,0,-78.7161,0.463388,77.7368,Q,Q
2023-03-15 11:54:25:324,0,-78.7161,0.461808,77.7388,Q,Q
2023-03-15 11:54:25:334,0,-78.7164,0.460766,77.738,Q,Q
2023-03-15 11:54:25:344,0,-78.7186,0.461478,77.7381,Q,Q
2023-03-15 11:54:25:355,0,-78.7222,0.460522,77.7372,Q,Q
2023-03-15 11:54:25:365,0,-78.7248,0.457638,77.7366,Q,Q
2023-03-15 11:54:25:375,0,-78.7236,0.458155,77.7348,Q,Q
2023-03-15 11:54:25:385,0,-78.7242,0.45804,77.736,Q,Q
2023-03-15 11:54:25:395,0,-78.7252,0.456099,77.7356,Q,Q
2023-03-15 11:54:25:405,0,-78.7248,0.455173,77.7352,Q,Q
2023-03-15 11:54:25:415,0,-78.7272,0.4529,77.7339,Q,Q
2023-03-15 11:54:25:425,0,-78.7288,0.452266,77.7348,Q,Q
2023-03-15 11:54:25:435,0,-78.7275,0.452752,77.7341,Q,Q
2023-03-15 11:54:25:445,0,-78.7253,0.451255,77.7367,Q,Q
2023-03-15 11:54:25:455,0,-78.7245,0.454053,77.7351,Q,Q
2023-03-15 11:54:25:465,0,-78.7236,0.45428,77.7351,Q,Q
2023-03-15 11:54:25:475,0,-78.7246,0.452849,77.7339,Q,Q
2023-03-15 11:54:25:485,0,-78.7225,0.454444,77.7303,Q,Q
2023-03-15 11:54:25:495,0,-78.7214,0.455489,77.73,Q,Q
2023-03-15 11:54:25:505,0,-78.7219,0.453942,77.7274,Q,Q
2023-03-15 11:54:25:515,0,-78.7215,0.452938,77.7266,Q,Q
2023-03-15 11:54:25:525,0,-78.7232,0.452058,77.7315,Q,Q
2023-03-15 11:54:25:535,0,-78.7264,0.451612,77.7301,Q,Q
2023-03-15 11:54:25:545,0,-78.73,0.450623,77.7285,Q,Q
2023-03-15 11:54:25:555,0,-78.7333,0.449607,77.7278,Q,Q
2023-03-15 11:54:25:565,0,-78.7316,0.451142,77.7296,Q,Q
2023-03-15 11:54:25:575,0,-78.7297,0.445925,77.7319,Q,Q
2023-03-15 11:54:25:585,0,-78.7318,0.44614,77.7319,Q,Q
2023-03-15 11:54:25:595,0,-78.7326,0.447219,77.7286,Q,Q
2023-03-15 11:54:25:605,0,-78.7358,0.445236,77.7302,Q,Q
2023-03-15 11:54:25:615,0,-78.7372,0.446339,77.7259,Q,Q
2023-03-15 11:54:25:625,0,-78.737,0.444128,77.7274,Q,Q
2023-03-15 11:54:25:635,0,-78.7368,0.445514,77.7284,Q,Q
2023-03-15 11:54:25:645,0,-78.7397,0.444994,77.7288,Q,Q
2023-03-15 11:54:25:655,0,-78.7434,0.447508,77.7268,Q,Q
2023-03-15 11:54:25:665,0,-78.7443,0.44784,77.728,Q,Q
2023-03-15 11:54:25:675,0,-78.7443,0.446769,77.7294,Q,Q
2023-03-15 11:54:25:685,0,-78.7462,0.448705,77.7291,Q,Q
2023-03-15 11:54:25:695,0,-78.7458,0.446411,77.7294,Q,Q
2023-03-15 11:54:25:705,0,-78.748,0.445617,77.7289,Q,Q
2023-03-15 11:54:25:715,0,-78.7454,0.445438,77.7267,Q,Q
2023-03-15 11:54:25:725,0,-78.7482,0.445252,77.7293,Q,Q
2023-03-15 11:54:25:735,0,-78.7469,0.448402,77.7258,Q,Q
2023-03-15 11:54:25:745,0,-78.7473,0.448621,77.7249,Q,Q
2023-03-15 11:54:25:755,0,-78.7483,0.445148,77.7235,Q,Q
2023-03-15 11:54:25:765,0,-78.7481,0.442204,77.7228,Q,Q
2023-03-15 11:54:25:775,0,-78.7477,0.443501,77.7197,Q,Q
2023-03-15 11:54:25:785,0,-78.7499,0.444833,77.7158,Q,Q
2023-03-15 11:54:25:795,0,-78.7512,0.443636,77.7171,Q,Q
2023-03-15 11:54:25:805,0,-78.7528,0.443949,77.7198,Q,Q
2023-03-15 11:54:25:815,0,-78.7516,0.44408,77.721,Q,Q
2023-03-15 11:54:25:825,0,-78.7507,0.442098,77.7213,Q,Q
2023-03-15 11:54:25:835,0,-78.7502,0.442038,77.7213,Q,Q
2023-03-15 11:54:25:845,0,-78.7537,0.442259,77.721,Q,Q
2023-03-15 11:54:25:855,0,-78.7539,0.442027,77.7203,Q,Q
2023-03-15 11:54:25:865,0,-78.7566,0.446883,77.7189,Q,Q
2023-03-15 11:54:25:875,0,-78.7548,0.447697,77.718,Q,Q
2023-03-15 11:54:25:885,0,-78.7552,0.446148,77.7202,Q,Q
2023-03-15 11:54:25:895,0,-78.7557,0.448812,77.7203,Q,Q
2023-03-15 11:54:25:905,0,-78.7539,0.447311,77.721,Q,Q
2023-03-15 11:54:25:915,0,-78.7545,0.449401,77.7185,Q,Q
2023-03-15 11:54:25:925,0,-78.757,0.44961,77.7173,Q,Q
2023-03-15 11:54:25:935,0,-78.7547,0.447989,77.721,Q,Q
2023-03-15 11:54:25:945,0,-78.756,0.449376,77.7177,Q,Q
2023-03-15 11:54:25:955,0,-78.7522,0.447841,77.7161,Q,Q
2023-03-15 11:54:25:965,0,-78.7543,0.450942,77.7136,Q,Q
2023-03-15 11:54:25:974,0,-78.7563,0.450141,77.7111,Q,Q
2023-03-15 11:54:25:985,0,-78.7582,0.448226,77.713,Q,Q
2023-03-15 11:54:25:995,0,-78.7553,0.445457,77.7118,Q,Q
2023-03-15 11:54:26:5,0,-78.7515,0.447474,77.7098,Q,Q
2023-03-15 11:54:26:15,0,-78.7543,0.449197,77.7104,Q,Q
2023-03-15 11:54:26:25,0,-78.7556,0.446746,77.7112,Q,Q
2023-03-15 11:54:26:35,0,-78.7548,0.446671,77.7132,Q,Q
2023-03-15 11:54:26:45,0,-78.759,0.444949,77.714,Q,Q
2023-03-15 11:54:26:55,0,-78.762,0.445632,77.7149,Q,Q
2023-03-15 11:54:26:65,0,-78.7634,0.449641,77.7157,Q,Q
2023-03-15 11:54:26:75,0,-78.7614,0.449066,77.7155,Q,Q
2023-03-15 11:54:26:85,0,-78.7598,0.448081,77.7155,Q,Q
2023-03-15 11:54:26:95,0,-78.7596,0.44707,77.7157,Q,Q
2023-03-15 11:54:26:105,0,-78.7598,0.446565,77.7176,Q,Q
2023-03-15 11:54:26:115,0,-78.7617,0.442955,77.7179,Q,Q
2023-03-15 11:54:26:125,0,-78.7625,0.444187,77.72,Q,Q
2023-03-15 11:54:26:135,0,-78.7638,0.444288,77.7209,Q,Q
2023-03-15 11:54:26:145,0,-78.7625,0.444929,77.7192,Q,Q
2023-03-15 11:54:26:155,0,-78.7626,0.443304,77.7188,Q,Q
2023-03-15 11:54:26:165,0,-78.7625,0.443666,77.7154,Q,Q
2023-03-15 11:54:26:175,0,-78.7588,0.443696,77.7167,Q,Q
2023-03-15 11:54:26:185,0,-78.7581,0.443643,77.7174,Q,Q
2023-03-15 11:54:26:195,0,-78.759,0.442594,77.7186,Q,Q
2023-03-15 11:54:26:205,0,-78.7587,0.443379,77.7177,Q,Q
2023-03-15 11:54:26:215,0,-78.7596,0.443652,77.7181,Q,Q
2023-03-15 11:54:26:225,0,-78.7573,0.444202,77.719,Q,Q
2023-03-15 11:54:26:235,0,-78.76,0.446907,77.7184,Q,Q
2023-03-15 11:54:26:245,0,-78.7597,0.444672,77.7179,Q,Q
2023-03-15 11:54:26:255,0,-78.7623,0.443586,77.7186,Q,Q
2023-03-15 11:54:26:265,0,-78.7639,0.441092,77.7218,Q,Q
2023-03-15 11:54:26:275,0,-78.7631,0.438713,77.7215,Q,Q
2023-03-15 11:54:26:285,0,-78.7635,0.44055,77.7227,Q,Q
2023-03-15 11:54:26:295,0,-78.7613,0.443443,77.7213,Q,Q
2023-03-15 11:54:26:304,0,-78.7633,0.441894,77.721,Q,Q
2023-03-15 11:54:26:314,0,-78.7592,0.440037,77.7216,Q,Q
2023-03-15 11:54:26:324,0,-78.7593,0.441894,77.7228,Q,Q
2023-03-15 11:54:26:334,0,-78.7607,0.439865,77.7236,Q,Q
2023-03-15 11:54:26:344,0,-78.7577,0.442879,77.7226,Q,Q
2023-03-15 11:54:26:354,0,-78.757,0.442978,77.7207,Q,Q
2023-03-15 11:54:26:365,0,-78.7594,0.443431,77.7182,Q,Q
2023-03-15 11:54:26:375,0,-78.7568,0.442732,77.7201,Q,Q
2023-03-15 11:54:26:384,0,-78.7543,0.44513,77.72,Q,Q
2023-03-15 11:54:26:394,0,-78.7553,0.444186,77.7206,Q,Q
2023-03-15 11:54:26:404,0,-78.7595,0.443411,77.7195,Q,Q
2023-03-15 11:54:26:415,0,-78.7613,0.441995,77.7199,Q,Q
2023-03-15 11:54:26:425,0,-78.759,0.443516,77.7189,Q,Q
2023-03-15 11:54:26:435,0,-78.757,0.442205,77.7214,Q,Q
2023-03-15 11:54:26:445,0,-78.7562,0.442999,77.7208,Q,Q
2023-03-15 11:54:26:455,0,-78.758,0.44402,77.725,Q,Q
2023-03-15 11:54:26:465,0,-78.7575,0.443912,77.727,Q,Q
2023-03-15 11:54:26:475,0,-78.7568,0.444872,77.7285,Q,Q
2023-03-15 11:54:26:485,0,-78.7586,0.444795,77.7282,Q,Q
2023-03-15 11:54:26:495,0,-78.7586,0.446738,77.7297,Q,Q
2023-03-15 11:54:26:505,0,-78.7576,0.446862,77.7316,Q,Q
2023-03-15 11:54:26:515,0,-78.7573,0.446061,77.7271,Q,Q
2023-03-15 11:54:26:525,0,-78.7583,0.446328,77.724,Q,Q
2023-03-15 11:54:26:535,0,-78.7581,0.448566,77.7251,Q,Q
2023-03-15 11:54:26:545,0,-78.7599,0.445939,77.7228,Q,Q
2023-03-15 11:54:26:555,0,-78.7617,0.450579,77.7211,Q,Q
2023-03-15 11:54:26:565,0,-78.7639,0.452083,77.7218,Q,Q
2023-03-15 11:54:26:575,0,-78.7618,0.453877,77.7179,Q,Q
2023-03-15 11:54:26:585,0,-78.7616,0.454584,77.7136,Q,Q
2023-03-15 11:54:26:595,0,-78.7602,0.454881,77.7126,Q,Q
2023-03-15 11:54:26:605,0,-78.761,0.451325,77.7145,Q,Q
2023-03-15 11:54:26:615,0,-78.7596,0.45243,77.713,Q,Q
2023-03-15 11:54:26:625,0,-78.7572,0.452595,77.7153,Q,Q
2023-03-15 11:54:26:635,0,-78.7573,0.451936,77.7183,Q,Q
2023-03-15 11:54:26:645,0,-78.7543,0.451296,77.7206,Q,Q
2023-03-15 11:54:26:655,0,-78.7544,0.45282,77.7193,Q,Q
2023-03-15 11:54:26:665,0,-78.7556,0.451642,77.7189,Q,Q
2023-03-15 11:54:26:675,0,-78.7571,0.451349,77.7175,Q,Q
2023-03-15 11:54:26:685,0,-78.7544,0.449294,77.7169,Q,Q
2023-03-15 11:54:26:695,0,-78.7529,0.449341,77.7193,Q,Q
2023-03-15 11:54:26:705,0,-78.7545,0.44633,77.7201,Q,Q
2023-03-15 11:54:26:715,0,-78.7511,0.444538,77.7178,Q,Q
2023-03-15 11:54:26:725,0,-78.7503,0.444008,77.7217,Q,Q
2023-03-15 11:54:26:735,0,-78.7523,0.442664,77.727,Q,Q
2023-03-15 11:54:26:745,0,-78.7536,0.444573,77.728,Q,Q
2023-03-15 11:54:26:755,0,-78.7525,0.445996,77.7275,Q,Q
2023-03-15 11:54:26:765,0,-78.7523,0.446854,77.7257,Q,Q
2023-03-15 11:54:26:775,0,-78.7522,0.446487,77.7249,Q,Q
2023-03-15 11:54:26:785,0,-78.7487,0.444866,77.7232,Q,Q
2023-03-15 11:54:26:795,0,-78.7483,0.445842,77.7233,Q,Q
2023-03-15 11:54:26:805,0,-78.7488,0.445093,77.7221,Q,Q
2023-03-15 11:54:26:814,0,-78.7496,0.443941,77.7236,Q,Q
2023-03-15 11:54:26:825,0,-78.7527,0.444194,77.7216,Q,Q
2023-03-15 11:54:26:835,0,-78.7554,0.445504,77.7211,Q,Q
2023-03-15 11:54:26:845,0,-78.7568,0.444439,77.7223,Q,Q
2023-03-15 11:54:26:855,0,-78.7554,0.444454,77.7212,Q,Q
2023-03-15 11:54:26:865,0,-78.7547,0.445164,77.7258,Q,Q
2023-03-15 11:54:26:875,0,-78.7541,0.443736,77.7273,Q,Q
2023-03-15 11:54:26:885,0,-78.7523,0.443252,77.7296,Q,Q
2023-03-15 11:54:26:895,0,-78.7519,0.442657,77.7304,Q,Q
2023-03-15 11:54:26:905,0,-78.7494,0.443097,77.7341,Q,Q
2023-03-15 11:54:26:915,0,-78.7471,0.443788,77.7352,Q,Q
2023-03-15 11:54:26:925,0,-78.7459,0.44204,77.7357,Q,Q
2023-03-15 11:54:26:935,0,-78.7449,0.445007,77.7315,Q,Q
2023-03-15 11:54:26:945,0,-78.7468,0.445266,77.7319,Q,Q
2023-03-15 11:54:26:955,0,-78.7462,0.443952,77.7321,Q,Q
2023-03-15 11:54:26:965,0,-78.745,0.442863,77.7283,Q,Q
2023-03-15 11:54:26:975,0,-78.7445,0.443277,77.7299,Q,Q
2023-03-15 11:54:26:985,0,-78.7427,0.44094,77.7258,Q,Q
2023-03-15 11:54:26:995,0,-78.7424,0.441727,77.7256,Q,Q
2023-03-15 11:54:27:5,0,-78.7445,0.44097,77.7237,Q,Q
2023-03-15 11:54:27:15,0,-78.7441,0.442218,77.723,Q,Q
2023-03-15 11:54:27:25,0,-78.7458,0.440458,77.7249,Q,Q
2023-03-15 11:54:27:35,0,-78.7453,0.439646,77.7235,Q,Q
2023-03-15 11:54:27:45,0,-78.7444,0.437874,77.7195,Q,Q
2023-03-15 11:54:27:55,0,-78.7444,0.438797,77.7246,Q,Q
2023-03-15 11:54:27:65,0,-78.7453,0.438971,77.7249,Q,Q
2023-03-15 11:54:27:75,0,-78.7449,0.436051,77.7204,Q,Q
2023-03-15 11:54:27:85,0,-78.7435,0.437943,77.7213,Q,Q
2023-03-15 11:54:27:95,0,-78.7401,0.439911,77.724,Q,Q
2023-03-15 11:54:27:105,0,-78.7401,0.438579,77.7253,Q,Q
2023-03-15 11:54:27:115,0,-78.738,0.436067,77.7214,Q,Q
2023-03-15 11:54:27:125,0,-78.7386,0.434566,77.7216,Q,Q
2023-03-15 11:54:27:135,0,-78.7394,0.433234,77.721,Q,Q
2023-03-15 11:54:27:145,0,-78.7403,0.433631,77.7253,Q,Q
2023-03-15 11:54:27:155,0,-78.7398,0.432968,77.7255,Q,Q
2023-03-15 11:54:27:165,0,-78.741,0.433268,77.7254,Q,Q
2023-03-15 11:54:27:175,0,-78.7394,0.433091,77.7225,Q,Q
2023-03-15 11:54:27:185,0,-78.7357,0.433707,77.7215,Q,Q
2023-03-15 11:54:27:195,0,-78.7372,0.43333,77.7233,Q,Q
2023-03-15 11:54:27:205,0,-78.7393,0.434526,77.7236,Q,Q
2023-03-15 11:54:27:215,0,-78.7385,0.43237,77.7222,Q,Q
2023-03-15 11:54:27:225,0,-78.7412,0.429593,77.7233,Q,Q
2023-03-15 11:54:27:235,0,-78.7385,0.428628,77.7249,Q,Q
2023-03-15 11:54:27:245,0,-78.7411,0.42845,77.7249,Q,Q
2023-03-15 11:54:27:255,0,-78.7391,0.428935,77.7241,Q,Q
2023-03-15 11:54:27:265,0,-78.7398,0.427657,77.7208,Q,Q
2023-03-15 11:54:27:275,0,-78.7415,0.426459,77.7202,Q,Q
2023-03-15 11:54:27:285,0,-78.7392,0.430005,77.7227,Q,Q
2023-03-15 11:54:27:295,0,-78.7381,0.430602,77.7251,Q,Q
2023-03-15 11:54:27:305,0,-78.7399,0.431823,77.7242,Q,Q
2023-03-15 11:54:27:315,0,-78.7404,0.432055,77.7257,Q,Q
2023-03-15 11:54:27:325,0,-78.7386,0.43142,77.7275,Q,Q
2023-03-15 11:54:27:335,0,-78.7362,0.429372,77.726,Q,Q
2023-03-15 11:54:27:345,0,-78.7357,0.427015,77.7276,Q,Q
2023-03-15 11:54:27:355,0,-78.735,0.427274,77.7298,Q,Q
2023-03-15 11:54:27:365,0,-78.737,0.429319,77.7312,Q,Q
2023-03-15 11:54:27:375,0,-78.7371,0.428906,77.7287,Q,Q
2023-03-15 11:54:27:385,0,-78.7393,0.42849,77.7295,Q,Q
2023-03-15 11:54:27:394,0,-78.7426,0.428588,77.7324,Q,Q
2023-03-15 11:54:27:404,0,-78.7411,0.428585,77.7301,Q,Q
2023-03-15 11:54:27:414,0,-78.7393,0.427951,77.7298,Q,Q
2023-03-15 11:54:27:424,0,-78.7405,0.42541,77.7282,Q,Q
2023-03-15 11:54:27:435,0,-78.7386,0.426867,77.7278,Q,Q
2023-03-15 11:54:27:444,0,-78.7386,0.426492,77.7301,Q,Q
2023-03-15 11:54:27:455,0,-78.7384,0.426764,77.7299,Q,Q
2023-03-15 11:54:27:465,0,-78.7397,0.426321,77.7305,Q,Q
2023-03-15 11:54:27:475,0,-78.7392,0.428295,77.731,Q,Q
2023-03-15 11:54:27:485,0,-78.7378,0.427491,77.7324,Q,Q
2023-03-15 11:54:27:495,0,-78.7368,0.422597,77.7321,Q,Q
2023-03-15 11:54:27:505,0,-78.738,0.424249,77.7299,Q,Q
2023-03-15 11:54:27:515,0,-78.7362,0.425809,77.7292,Q,Q
2023-03-15 11:54:27:525,0,-78.7356,0.424854,77.7274,Q,Q
2023-03-15 11:54:27:535,0,-78.7382,0.425102,77.7274,Q,Q
2023-03-15 11:54:27:545,0,-78.7359,0.425132,77.7287,Q,Q
2023-03-15 11:54:27:555,0,-78.7338,0.425516,77.7279,Q,Q
2023-03-15 11:54:27:565,0,-78.7301,0.427253,77.7264,Q,Q
2023-03-15 11:54:27:575,0,-78.7325,0.424528,77.7292,Q,Q
2023-03-15 11:54:27:585,0,-78.7314,0.423987,77.7288,Q,Q
2023-03-15 11:54:27:595,0,-78.7289,0.42467,77.7274,Q,Q
2023-03-15 11:54:27:605,0,-78.7298,0.42649,77.7245,Q,Q
2023-03-15 11:54:27:615,0,-78.7294,0.426097,77.7226,Q,Q
2023-03-15 11:54:27:625,0,-78.7296,0.426366,77.7227,Q,Q
2023-03-15 11:54:27:635,0,-78.7304,0.423434,77.7247,Q,Q
2023-03-15 11:54:27:645,0,-78.7326,0.424543,77.7247,Q,Q
2023-03-15 11:54:27:655,0,-78.7306,0.42115,77.7278,Q,Q
2023-03-15 11:54:27:665,0,-78.7302,0.419452,77.7261,Q,Q
2023-03-15 11:54:27:675,0,-78.7314,0.419278,77.7227,Q,Q
2023-03-15 11:54:27:685,0,-78.7309,0.417923,77.7264,Q,Q
2023-03-15 11:54:27:695,0,-78.7295,0.416723,77.7267,Q,Q
2023-03-15 11:54:27:705,0,-78.7293,0.412787,77.7264,Q,Q
2023-03-15 11:54:27:715,0,-78.7289,0.416024,77.7235,Q,Q
2023-03-15 11:54:27:725,0,-78.7291,0.415437,77.7242,Q,Q
2023-03-15 11:54:27:735,0,-78.7286,0.412759,77.7251,Q,Q
2023-03-15 11:54:27:745,0,-78.7274,0.413385,77.7249,Q,Q
2023-03-15 11:54:27:755,0,-78.7263,0.414789,77.7226,Q,Q
2023-03-15 11:54:27:765,0,-78.7242,0.414693,77.7262,Q,Q
2023-03-15 11:54:27:775,0,-78.7231,0.415859,77.7293,Q,Q
2023-03-15 11:54:27:785,0,-78.7253,0.416011,77.7269,Q,Q
2023-03-15 11:54:27:795,0,-78.7244,0.414779,77.7276,Q,Q
2023-03-15 11:54:27:805,0,-78.727,0.415092,77.7243,Q,Q
2023-03-15 11:54:27:815,0,-78.7253,0.415915,77.7256,Q,Q
2023-03-15 11:54:27:825,0,-78.7224,0.414387,77.7239,Q,Q
2023-03-15 11:54:27:835,0,-78.7265,0.418296,77.7244,Q,Q
2023-03-15 11:54:27:845,0,-78.7256,0.419758,77.7228,Q,Q
2023-03-15 11:54:27:855,0,-78.7248,0.418381,77.7241,Q,Q
2023-03-15 11:54:27:865,0,-78.7254,0.420346,77.7231,Q,Q
2023-03-15 11:54:27:875,0,-78.726,0.42019,77.7254,Q,Q
2023-03-15 11:54:27:885,0,-78.7227,0.421785,77.726,Q,Q
2023-03-15 11:54:27:895,0,-78.7211,0.421753,77.727,Q,Q
2023-03-15 11:54:27:905,0,-78.7244,0.42081,77.726,Q,Q
2023-03-15 11:54:27:915,0,-78.7245,0.42142,77.7276,Q,Q
2023-03-15 11:54:27:925,0,-78.725,0.422843,77.7266,Q,Q
2023-03-15 11:54:27:935,0,-78.7238,0.421423,77.7245,Q,Q
2023-03-15 11:54:27:945,0,-78.7241,0.424109,77.7222,Q,Q
2023-03-15 11:54:27:955,0,-78.7231,0.42225,77.726,Q,Q
2023-03-15 11:54:27:965,0,-78.7257,0.424974,77.7279,Q,Q
2023-03-15 11:54:27:975,0,-78.7255,0.427473,77.7291,Q,Q
2023-03-15 11:54:27:985,0,-78.7257,0.427979,77.7301,Q,Q
2023-03-15 11:54:27:995,0,-78.7246,0.425743,77.7309,Q,Q
2023-03-15 11:54:28:5,0,-78.725,0.422725,77.7365,Q,Q
2023-03-15 11:54:28:15,0,-78.7252,0.42174,77.7381,Q,Q
2023-03-15 11:54:28:25,0,-78.7279,0.419738,77.7391,Q,Q
2023-03-15 11:54:28:35,0,-78.7253,0.418695,77.7403,Q,Q
2023-03-15 11:54:28:45,0,-78.7248,0.41872,77.7386,Q,Q
2023-03-15 11:54:28:55,0,-78.7242,0.417205,77.7405,Q,Q
2023-03-15 11:54:28:65,0,-78.7238,0.418004,77.7441,Q,Q
2023-03-15 11:54:28:74,0,-78.7247,0.416153,77.7452,Q,Q
2023-03-15 11:54:28:84,0,-78.7267,0.416107,77.7464,Q,Q
2023-03-15 11:54:28:94,0,-78.7267,0.418596,77.746,Q,Q
2023-03-15 11:54:28:105,0,-78.7267,0.419164,77.7449,Q,Q
2023-03-15 11:54:28:115,0,-78.7241,0.41964,77.7466,Q,Q
2023-03-15 11:54:28:125,0,-78.7231,0.422557,77.7472,Q,Q
2023-03-15 11:54:28:134,0,-78.7252,0.420765,77.7507,Q,Q
2023-03-15 11:54:28:144,0,-78.7244,0.42115,77.7508,Q,Q
2023-03-15 11:54:28:154,0,-78.7233,0.424093,77.7506,Q,Q
2023-03-15 11:54:28:164,0,-78.7198,0.425391,77.7503,Q,Q
2023-03-15 11:54:28:174,0,-78.7228,0.425086,77.7506,Q,Q
2023-03-15 11:54:28:184,0,-78.7236,0.424942,77.7504,Q,Q
2023-03-15 11:54:28:194,0,-78.7224,0.428905,77.7505,Q,Q
2023-03-15 11:54:28:204,0,-78.7237,0.428016,77.7492,Q,Q
2023-03-15 11:54:28:214,0,-78.7194,0.428067,77.7488,Q,Q
2023-03-15 11:54:28:224,0,-78.718,0.423925,77.7503,Q,Q
2023-03-15 11:54:28:234,0,-78.7187,0.426085,77.7528,Q,Q
2023-03-15 11:54:28:245,0,-78.7195,0.428198,77.7516,Q,Q
2023-03-15 11:54:28:255,0,-78.7197,0.427736,77.7549,Q,Q
2023-03-15 11:54:28:265,0,-78.7217,0.427141,77.7527,Q,Q
2023-03-15 11:54:28:275,0,-78.7218,0.425077,77.7537,Q,Q
2023-03-15 11:54:28:285,0,-78.7256,0.421992,77.752,Q,Q
2023-03-15 11:54:28:295,0,-78.7254,0.420357,77.7536,Q,Q
2023-03-15 11:54:28:305,0,-78.7228,0.420673,77.7514,Q,Q
2023-03-15 11:54:28:315,0,-78.7217,0.41897,77.7524,Q,Q
2023-03-15 11:54:28:325,0,-78.7221,0.418702,77.7493,Q,Q
2023-03-15 11:54:28:335,0,-78.7255,0.416055,77.7482,Q,Q
2023-03-15 11:54:28:345,0,-78.7228,0.418676,77.7495,Q,Q
2023-03-15 11:54:28:355,0,-78.7238,0.419278,77.7508,Q,Q
2023-03-15 11:54:28:365,0,-78.7227,0.419814,77.7494,Q,Q
2023-03-15 11:54:28:375,0,-78.7215,0.420168,77.7484,Q,Q
2023-03-15 11:54:28:385,0,-78.7221,0.420192,77.7478,Q,Q
2023-03-15 11:54:28:395,0,-78.7199,0.422206,77.7459,Q,Q
2023-03-15 11:54:28:405,0,-78.719,0.421958,77.7497,Q,Q
2023-03-15 11:54:28:415,0,-78.7212,0.421,77.7509,Q,Q
2023-03-15 11:54:28:425,0,-78.7194,0.421126,77.7527,Q,Q
2023-03-15 11:54:28:435,0,-78.722,0.421327,77.7549,Q,Q
2023-03-15 11:54:28:445,0,-78.7231,0.420889,77.7567,Q,Q
2023-03-15 11:54:28:455,0,-78.7218,0.423038,77.7564,Q,Q
2023-03-15 11:54:28:465,0,-78.7222,0.421995,77.7587,Q,Q
2023-03-15 11:54:28:475,0,-78.7244,0.421686,77.759,Q,Q
2023-03-15 11:54:28:485,0,-78.7245,0.422235,77.7561,Q,Q
2023-03-15 11:54:28:495,0,-78.724,0.423354,77.7584,Q,Q
2023-03-15 11:54:28:505,0,-78.7254,0.421222,77.7565,Q,Q
2023-03-15 11:54:28:515,0,-78.7269,0.420683,77.7563,Q,Q
2023-03-15 11:54:28:525,0,-78.7256,0.423667,77.7556,Q,Q
2023-03-15 11:54:28:535,0,-78.7242,0.425153,77.7576,Q,Q
2023-03-15 11:54:28:545,0,-78.727,0.42478,77.7577,Q,Q
2023-03-15 11:54:28:555,0,-78.7278,0.421381,77.7582,Q,Q
2023-03-15 11:54:28:565,0,-78.7266,0.421344,77.7585,Q,Q
2023-03-15 11:54:28:575,0,-78.7244,0.422722,77.7582,Q,Q
2023-03-15 11:54:28:585,0,-78.7216,0.420999,77.7545,Q,Q
2023-03-15 11:54:28:595,0,-78.7186,0.420602,77.7535,Q,Q
2023-03-15 11:54:28:605,0,-78.7172,0.422491,77.7568,Q,Q
2023-03-15 11:54:28:615,0,-78.7175,0.425241,77.7552,Q,Q
2023-03-15 11:54:28:625,0,-78.7182,0.428948,77.755,Q,Q
2023-03-15 11:54:28:635,0,-78.7157,0.426338,77.7588,Q,Q
2023-03-15 11:54:28:645,0,-78.7149,0.427199,77.7579,Q,Q
2023-03-15 11:54:28:655,0,-78.7131,0.424355,77.7563,Q,Q
2023-03-15 11:54:28:665,0,-78.7121,0.422706,77.757,Q,Q
2023-03-15 11:54:28:675,0,-78.709,0.425099,77.7567,Q,Q
2023-03-15 11:54:28:685,0,-78.7086,0.424646,77.7545,Q,Q
2023-03-15 11:54:28:695,0,-78.7093,0.427287,77.7599,Q,Q
2023-03-15 11:54:28:705,0,-78.7098,0.428397,77.7626,Q,Q
2023-03-15 11:54:28:715,0,-78.7104,0.426286,77.7661,Q,Q
2023-03-15 11:54:28:725,0,-78.7122,0.426891,77.766,Q,Q
2023-03-15 11:54:28:735,0,-78.7114,0.425212,77.7685,Q,Q
2023-03-15 11:54:28:745,0,-78.7111,0.425726,77.7721,Q,Q
2023-03-15 11:54:28:755,0,-78.7102,0.427115,77.7726,Q,Q
2023-03-15 11:54:28:765,0,-78.7114,0.427087,77.7673,Q,Q
2023-03-15 11:54:28:775,0,-78.715,0.425619,77.7672,Q,Q
2023-03-15 11:54:28:785,0,-78.7121,0.424504,77.7669,Q,Q
2023-03-15 11:54:28:795,0,-78.7097,0.42484,77.7669,Q,Q
2023-03-15 11:54:28:805,0,-78.7092,0.428334,77.7651,Q,Q
2023-03-15 11:54:28:815,0,-78.7107,0.427154,77.7647,Q,Q
2023-03-15 11:54:28:825,0,-78.7086,0.428952,77.7638,Q,Q
2023-03-15 11:54:28:835,0,-78.709,0.427042,77.7662,Q,Q
2023-03-15 11:54:28:845,0,-78.7066,0.425489,77.7692,Q,Q
2023-03-15 11:54:28:855,0,-78.7076,0.424945,77.7706,Q,Q
2023-03-15 11:54:28:865,0,-78.7078,0.424728,77.7667,Q,Q
2023-03-15 11:54:28:875,0,-78.7095,0.425653,77.768,Q,Q
2023-03-15 11:54:28:885,0,-78.7091,0.424235,77.7665,Q,Q
2023-03-15 11:54:28:895,0,-78.7096,0.426108,77.7704,Q,Q
2023-03-15 11:54:28:905,0,-78.7066,0.427693,77.7694,Q,Q
2023-03-15 11:54:28:915,0,-78.7036,0.429266,77.768,Q,Q
2023-03-15 11:54:28:925,0,-78.7009,0.429479,77.768,Q,Q
2023-03-15 11:54:28:935,0,-78.7039,0.429313,77.769,Q,Q
2023-03-15 11:54:28:945,0,-78.7018,0.427861,77.7663,Q,Q
2023-03-15 11:54:28:955,0,-78.7023,0.428002,77.7649,Q,Q
2023-03-15 11:54:28:964,0,-78.7042,0.429773,77.7655,Q,Q
2023-03-15 11:54:28:975,0,-78.7044,0.427634,77.7641,Q,Q
2023-03-15 11:54:28:984,0,-78.7029,0.425362,77.7644,Q,Q
2023-03-15 11:54:28:995,0,-78.7031,0.42711,77.7627,Q,Q
2023-03-15 11:54:29:5,0,-78.7014,0.426751,77.7599,Q,Q
2023-03-15 11:54:29:15,0,-78.7014,0.423365,77.7609,Q,Q
2023-03-15 11:54:29:25,0,-78.7009,0.423086,77.7618,Q,Q
2023-03-15 11:54:29:35,0,-78.7026,0.423099,77.7646,Q,Q
2023-03-15 11:54:29:45,0,-78.6987,0.420321,77.7653,Q,Q
2023-03-15 11:54:29:55,0,-78.7,0.418994,77.7662,Q,Q
2023-03-15 11:54:29:65,0,-78.7015,0.418806,77.7694,Q,Q
2023-03-15 11:54:29:75,0,-78.7028,0.414734,77.77,Q,Q
2023-03-15 11:54:29:85,0,-78.7029,0.416611,77.7683,Q,Q
2023-03-15 11:54:29:95,0,-78.7053,0.41664,77.7679,Q,Q
2023-03-15 11:54:29:105,0,-78.706,0.416098,77.7716,Q,Q
2023-03-15 11:54:29:115,0,-78.7051,0.415641,77.7706,Q,Q
2023-03-15 11:54:29:125,0,-78.7082,0.415972,77.7706,Q,Q
2023-03-15 11:54:29:135,0,-78.7069,0.416277,77.7748,Q,Q
2023-03-15 11:54:29:145,0,-78.706,0.416708,77.7788,Q,Q
2023-03-15 11:54:29:155,0,-78.705,0.418851,77.7809,Q,Q
2023-03-15 11:54:29:165,0,-78.7041,0.419706,77.7809,Q,Q
2023-03-15 11:54:29:175,0,-78.7069,0.419411,77.7825,Q,Q
2023-03-15 11:54:29:184,0,-78.7037,0.423541,77.7816,Q,Q
2023-03-15 11:54:29:194,0,-78.705,0.424351,77.7803,Q,Q
2023-03-15 11:54:29:204,0,-78.7033,0.425822,77.7803,Q,Q
2023-03-15 11:54:29:214,0,-78.6981,0.425367,77.7782,Q,Q
2023-03-15 11:54:29:224,0,-78.6979,0.425378,77.7787,Q,Q
2023-03-15 11:54:29:234,0,-78.6969,0.423328,77.782,Q,Q
2023-03-15 11:54:29:244,0,-78.697,0.42067,77.7812,Q,Q
2023-03-15 11:54:29:255,0,-78.699,0.418465,77.7821,Q,Q
2023-03-15 11:54:29:265,0,-78.7019,0.415871,77.7837,Q,Q
2023-03-15 11:54:29:275,0,-78.704,0.418283,77.7869,Q,Q
2023-03-15 11:54:29:285,0,-78.7013,0.418371,77.7875,Q,Q
2023-03-15 11:54:29:295,0,-78.7003,0.419963,77.7888,Q,Q
2023-03-15 11:54:29:305,0,-78.7013,0.417879,77.7903,Q,Q
2023-03-15 11:54:29:315,0,-78.702,0.42129,77.79,Q,Q
2023-03-15 11:54:29:325,0,-78.7023,0.4231,77.79,Q,Q
2023-03-15 11:54:29:335,0,-78.7022,0.424448,77.7886,Q,Q
2023-03-15 11:54:29:345,0,-78.7039,0.422045,77.7886,Q,Q
2023-03-15 11:54:29:354,0,-78.7004,0.420918,77.786,Q,Q
2023-03-15 11:54:29:364,0,-78.7007,0.420846,77.7884,Q,Q
2023-03-15 11:54:29:374,0,-78.7013,0.423035,77.788,Q,Q
2023-03-15 11:54:29:384,0,-78.7039,0.421817,77.7898,Q,Q
2023-03-15 11:54:29:394,0,-78.7056,0.422324,77.7912,Q,Q
2023-03-15 11:54:29:404,0,-78.7067,0.423571,77.7938,Q,Q
2023-03-15 11:54:29:414,0,-78.7059,0.422555,77.7908,Q,Q
2023-03-15 11:54:29:424,0,-78.706,0.424517,77.79,Q,Q
2023-03-15 11:54:29:434,0,-78.7048,0.422828,77.7889,Q,Q
2023-03-15 11:54:29:444,0,-78.707,0.42163,77.7919,Q,Q
2023-03-15 11:54:29:455,0,-78.7077,0.420694,77.7938,Q,Q
2023-03-15 11:54:29:465,0,-78.7073,0.418792,77.7934,Q,Q
2023-03-15 11:54:29:475,0,-78.7042,0.419357,77.7964,Q,Q
2023-03-15 11:54:29:485,0,-78.7012,0.420419,77.7959,Q,Q
2023-03-15 11:54:29:495,0,-78.7036,0.421324,77.7982,Q,Q
2023-03-15 11:54:29:505,0,-78.7041,0.422604,77.7985,Q,Q
2023-03-15 11:54:29:515,0,-78.7039,0.420788,77.8018,Q,Q
2023-03-15 11:54:29:525,0,-78.7045,0.422953,77.7985,Q,Q
2023-03-15 11:54:29:535,0,-78.7039,0.423102,77.7944,Q,Q
2023-03-15 11:54:29:545,0,-78.7053,0.423208,77.7947,Q,Q
2023-03-15 11:54:29:555,0,-78.7074,0.424744,77.793,Q,Q
2023-03-15 11:54:29:565,0,-78.7086,0.423878,77.794,Q,Q
2023-03-15 11:54:29:575,0,-78.7123,0.422601,77.7941,Q,Q
2023-03-15 11:54:29:585,0,-78.7173,0.42212,77.7931,Q,Q
2023-03-15 11:54:29:595,0,-78.7162,0.42149,77.7926,Q,Q
2023-03-15 11:54:29:605,0,-78.7182,0.423463,77.7945,Q,Q
2023-03-15 11:54:29:615,0,-78.7212,0.425292,77.7941,Q,Q
2023-03-15 11:54:29:625,0,-78.7226,0.427247,77.7975,Q,Q
2023-03-15 11:54:29:635,0,-78.7205,0.423811,77.7953,Q,Q
2023-03-15 11:54:29:645,0,-78.7216,0.425392,77.798,Q,Q
2023-03-15 11:54:29:655,0,-78.7222,0.424348,77.7994,Q,Q
2023-03-15 11:54:29:665,0,-78.7204,0.420332,77.7987,Q,Q
2023-03-15 11:54:29:675,0,-78.7183,0.42251,77.7961,Q,Q
2023-03-15 11:54:29:685,0,-78.7192,0.421957,77.7992,Q,Q
2023-03-15 11:54:29:695,0,-78.7207,0.423616,77.7984,Q,Q
2023-03-15 11:54:29:705,0,-78.7188,0.422589,77.7981,Q,Q
2023-03-15 11:54:29:715,0,-78.7229,0.427143,77.8019,Q,Q
2023-03-15 11:54:29:725,0,-78.7217,0.425924,77.8022,Q,Q
2023-03-15 11:54:29:735,0,-78.7251,0.424367,77.8006,Q,Q
2023-03-15 11:54:29:745,0,-78.7236,0.42618,77.8051,Q,Q
2023-03-15 11:54:29:755,0,-78.7212,0.426326,77.8063,Q,Q
2023-03-15 11:54:29:765,0,-78.7201,0.426967,77.8062,Q,Q
2023-03-15 11:54:29:775,0,-78.7203,0.427671,77.8066,Q,Q
2023-03-15 11:54:29:785,0,-78.7201,0.428389,77.8074,Q,Q
2023-03-15 11:54:29:795,0,-78.7192,0.428088,77.8057,Q,Q
2023-03-15 11:54:29:805,0,-78.719,0.42953,77.8084,Q,Q
2023-03-15 11:54:29:815,0,-78.7182,0.43156,77.8102,Q,Q
2023-03-15 11:54:29:825,0,-78.7207,0.428857,77.8137,Q,Q
2023-03-15 11:54:29:835,0,-78.721,0.428704,77.8108,Q,Q
2023-03-15 11:54:29:845,0,-78.7206,0.429406,77.8094,Q,Q
2023-03-15 11:54:29:855,0,-78.7217,0.429103,77.806,Q,Q
2023-03-15 11:54:29:865,0,-78.7225,0.432208,77.8032,Q,Q
2023-03-15 11:54:29:875,0,-78.7219,0.43376,77.802,Q,Q
2023-03-15 11:54:29:885,0,-78.7215,0.436177,77.8041,Q,Q
2023-03-15 11:54:29:895,0,-78.7224,0.436437,77.8031,Q,Q
2023-03-15 11:54:29:905,0,-78.7256,0.436372,77.802,Q,Q
2023-03-15 11:54:29:915,0,-78.7262,0.436246,77.8003,Q,Q
2023-03-15 11:54:29:925,0,-78.7251,0.434983,77.8031,Q,Q
2023-03-15 11:54:29:935,0,-78.7243,0.436826,77.8047,Q,Q
2023-03-15 11:54:29:945,0,-78.7225,0.437462,77.8072,Q,Q
2023-03-15 11:54:29:955,0,-78.7215,0.440264,77.8074,Q,Q
2023-03-15 11:54:29:965,0,-78.7214,0.439232,77.8065,Q,Q
2023-03-15 11:54:29:975,0,-78.7224,0.439382,77.8081,Q,Q
2023-03-15 11:54:29:985,0,-78.7253,0.437197,77.8082,Q,Q
2023-03-15 11:54:29:994,0,-78.726,0.437462,77.8117,Q,Q
2023-03-15 11:54:30:5,0,-78.7259,0.439025,77.8101,Q,Q
2023-03-15 11:54:30:15,0,-78.7203,0.438004,77.8104,Q,Q
2023-03-15 11:54:30:25,0,-78.7203,0.43613,77.8062,Q,Q
2023-03-15 11:54:30:34,0,-78.7176,0.434729,77.806,Q,Q
2023-03-15 11:54:30:44,0,-78.7188,0.433765,77.8041,Q,Q
2023-03-15 11:54:30:54,0,-78.7192,0.435311,77.8026,Q,Q
2023-03-15 11:54:30:64,0,-78.7206,0.436632,77.8043,Q,Q
2023-03-15 11:54:30:74,0,-78.7235,0.437883,77.8048,Q,Q
2023-03-15 11:54:30:84,0,-78.724,0.437311,77.8031,Q,Q
2023-03-15 11:54:30:94,0,-78.7239,0.438059,77.8028,Q,Q
2023-03-15 11:54:30:104,0,-78.7235,0.438111,77.8012,Q,Q
2023-03-15 11:54:30:114,0,-78.7218,0.437396,77.8049,Q,Q
2023-03-15 11:54:30:124,0,-78.7257,0.437891,77.8028,Q,Q
2023-03-15 11:54:30:134,0,-78.7278,0.436593,77.8024,Q,Q
2023-03-15 11:54:30:144,0,-78.7302,0.434689,77.8006,Q,Q
2023-03-15 11:54:30:154,0,-78.7313,0.434782,77.7994,Q,Q
2023-03-15 11:54:30:164,0,-78.7327,0.435608,77.8012,Q,Q
2023-03-15 11:54:30:174,0,-78.7316,0.431244,77.8028,Q,Q
2023-03-15 11:54:30:184,0,-78.7291,0.430359,77.8065,Q,Q
2023-03-15 11:54:30:194,0,-78.7256,0.431194,77.8105,Q,Q
2023-03-15 11:54:30:205,0,-78.7218,0.42834,77.8116,Q,Q
2023-03-15 11:54:30:215,0,-78.7214,0.425078,77.809,Q,Q
2023-03-15 11:54:30:225,0,-78.7195,0.426538,77.8077,Q,Q
2023-03-15 11:54:30:234,0,-78.7171,0.424989,77.8115,Q,Q
2023-03-15 11:54:30:244,0,-78.7151,0.423261,77.8147,Q,Q
2023-03-15 11:54:30:254,0,-78.7158,0.423751,77.817,Q,Q
2023-03-15 11:54:30:264,0,-78.7175,0.422506,77.8186,Q,Q
2023-03-15 11:54:30:275,0,-78.7213,0.424404,77.8177,Q,Q
2023-03-15 11:54:30:284,0,-78.7208,0.423166,77.8195,Q,Q
2023-03-15 11:54:30:294,0,-78.7203,0.423926,77.8189,Q,Q
2023-03-15 11:54:30:304,0,-78.7192,0.42195,77.8211,Q,Q
2023-03-15 11:54:30:314,0,-78.718,0.421933,77.8197,Q,Q
2023-03-15 11:54:30:324,0,-78.7206,0.420315,77.821,Q,Q
2023-03-15 11:54:30:334,0,-78.7223,0.420257,77.8236,Q,Q
2023-03-15 11:54:30:344,0,-78.7218,0.422701,77.8251,Q,Q
2023-03-15 11:54:30:354,0,-78.7183,0.419359,77.8239,Q,Q
2023-03-15 11:54:30:364,0,-78.7179,0.415379,77.8249,Q,Q
2023-03-15 11:54:30:374,0,-78.7168,0.415028,77.8252,Q,Q
2023-03-15 11:54:30:384,0,-78.7173,0.416053,77.8244,Q,Q
2023-03-15 11:54:30:394,0,-78.7146,0.415108,77.82,Q,Q
