Timestamp_cmd,imu_cmd,roll_delta,pitch_delta,yaw_delta
2023-03-11 20:18:29:38,0,-5.46278,-0.918354,90.5988
2023-03-11 20:18:29:46,0,-5.4663,-0.924396,90.5919
2023-03-11 20:18:29:56,0,-5.47097,-0.929888,90.5897
2023-03-11 20:18:29:66,0,-5.47638,-0.940019,90.5911
2023-03-11 20:18:29:76,0,-5.4802,-0.954077,90.5977
2023-03-11 20:18:29:86,0,-5.48348,-0.966834,90.6087
2023-03-11 20:18:29:96,0,-5.47873,-0.978805,90.6159
2023-03-11 20:18:29:106,0,-5.47355,-0.993646,90.6217
2023-03-11 20:18:29:116,0,-5.46614,-1.01221,90.6259
2023-03-11 20:18:29:126,0,-5.45646,-1.03746,90.6328
2023-03-11 20:18:29:136,0,-5.4438,-1.06768,90.6423
2023-03-11 20:18:29:146,0,-5.42846,-1.10103,90.6492
2023-03-11 20:18:29:156,0,-5.41166,-1.13478,90.6571
2023-03-11 20:18:29:166,0,-5.39229,-1.16801,90.6633
2023-03-11 20:18:29:176,0,-5.37194,-1.19932,90.6647
2023-03-11 20:18:29:187,0,-5.35062,-1.22156,90.6657
2023-03-11 20:18:29:197,0,-5.32408,-1.23268,90.6639
2023-03-11 20:18:29:207,0,-5.2976,-1.23973,90.6585
2023-03-11 20:18:29:216,0,-5.27075,-1.24032,90.6574
2023-03-11 20:18:29:226,0,-5.25095,-1.23708,90.6638
2023-03-11 20:18:29:236,0,-5.2351,-1.23004,90.6779
2023-03-11 20:18:29:247,0,-5.23232,-1.22139,90.7012
2023-03-11 20:18:29:257,0,-5.23961,-1.20838,90.7317
2023-03-11 20:18:29:266,0,-5.25507,-1.19458,90.7668
2023-03-11 20:18:29:277,0,-5.2726,-1.17935,90.802
2023-03-11 20:18:29:287,0,-5.2897,-1.16425,90.8346
2023-03-11 20:18:29:297,0,-5.31057,-1.15294,90.8631
2023-03-11 20:18:29:307,0,-5.33417,-1.15347,90.8889
2023-03-11 20:18:29:317,0,-5.35404,-1.1654,90.9125
2023-03-11 20:18:29:327,0,-5.37976,-1.18166,90.9316
2023-03-11 20:18:29:337,0,-5.40537,-1.19994,90.9446
2023-03-11 20:18:29:346,0,-5.43427,-1.22268,90.9522
2023-03-11 20:18:29:357,0,-5.46727,-1.24756,90.9591
2023-03-11 20:18:29:366,0,-5.50164,-1.27098,90.9625
2023-03-11 20:18:29:376,0,-5.53677,-1.29656,90.9629
2023-03-11 20:18:29:386,0,-5.56632,-1.3182,90.9619
2023-03-11 20:18:29:396,0,-5.58473,-1.33709,90.9575
2023-03-11 20:18:29:406,0,-5.59552,-1.35481,90.9532
2023-03-11 20:18:29:416,0,-5.59526,-1.37179,90.9456
2023-03-11 20:18:29:426,0,-5.5883,-1.38704,90.9383
2023-03-11 20:18:29:436,0,-5.57455,-1.40114,90.9314
2023-03-11 20:18:29:446,0,-5.56634,-1.41381,90.9248
2023-03-11 20:18:29:456,0,-5.55232,-1.42737,90.9222
2023-03-11 20:18:29:466,0,-5.54131,-1.44232,90.9234
2023-03-11 20:18:29:476,0,-5.5303,-1.45783,90.9306
2023-03-11 20:18:29:486,0,-5.51525,-1.47211,90.945
2023-03-11 20:18:29:496,0,-5.49602,-1.48656,90.9631
2023-03-11 20:18:29:506,0,-5.46939,-1.50153,90.9835
2023-03-11 20:18:29:516,0,-5.43995,-1.51158,91.0055
2023-03-11 20:18:29:526,0,-5.40597,-1.52473,91.0306
2023-03-11 20:18:29:536,0,-5.37703,-1.53287,91.0562
2023-03-11 20:18:29:546,0,-5.35358,-1.54101,91.0833
2023-03-11 20:18:29:556,0,-5.33392,-1.55068,91.1117
2023-03-11 20:18:29:566,0,-5.3174,-1.56062,91.1378
2023-03-11 20:18:29:576,0,-5.30864,-1.5691,91.1637
2023-03-11 20:18:29:586,0,-5.30662,-1.57042,91.1858
2023-03-11 20:18:29:596,0,-5.30894,-1.5726,91.2045
2023-03-11 20:18:29:606,0,-5.31534,-1.57644,91.222
2023-03-11 20:18:29:616,0,-5.32527,-1.57896,91.2363
2023-03-11 20:18:29:626,0,-5.33659,-1.58482,91.249
2023-03-11 20:18:29:636,0,-5.34869,-1.58176,91.2566
2023-03-11 20:18:29:646,0,-5.35838,-1.57936,91.2642
2023-03-11 20:18:29:656,0,-5.3632,-1.56911,91.2682
2023-03-11 20:18:29:666,0,-5.36193,-1.56001,91.2676
2023-03-11 20:18:29:676,0,-5.3645,-1.54471,91.264
2023-03-11 20:18:29:686,0,-5.36852,-1.52741,91.2602
2023-03-11 20:18:29:696,0,-5.3766,-1.5112,91.2561
2023-03-11 20:18:29:706,0,-5.38393,-1.49545,91.2565
2023-03-11 20:18:29:716,0,-5.39098,-1.47985,91.254
2023-03-11 20:18:29:726,0,-5.39853,-1.46589,91.2512
2023-03-11 20:18:29:736,0,-5.40301,-1.45059,91.2495
2023-03-11 20:18:29:746,0,-5.40472,-1.43823,91.2413
2023-03-11 20:18:29:756,0,-5.40109,-1.4253,91.2305
2023-03-11 20:18:29:766,0,-5.39445,-1.41077,91.2174
2023-03-11 20:18:29:776,0,-5.38603,-1.39798,91.2025
2023-03-11 20:18:29:786,0,-5.37318,-1.38806,91.187
2023-03-11 20:18:29:796,0,-5.35753,-1.38208,91.1653
2023-03-11 20:18:29:806,0,-5.34134,-1.36892,91.1397
2023-03-11 20:18:29:816,0,-5.32434,-1.34957,91.1139
2023-03-11 20:18:29:826,0,-5.30345,-1.33908,91.0861
2023-03-11 20:18:29:836,0,-5.28754,-1.32686,91.0564
2023-03-11 20:18:29:846,0,-5.27817,-1.31162,91.031
2023-03-11 20:18:29:856,0,-5.26896,-1.2998,91.0087
2023-03-11 20:18:29:866,0,-5.25989,-1.28122,90.99
2023-03-11 20:18:29:876,0,-5.24345,-1.26314,90.965
2023-03-11 20:18:29:886,0,-5.22118,-1.24442,90.9456
2023-03-11 20:18:29:896,0,-5.19686,-1.2269,90.9306
2023-03-11 20:18:29:906,0,-5.1716,-1.2048,90.9178
2023-03-11 20:18:29:916,0,-5.15024,-1.17914,90.9056
2023-03-11 20:18:29:926,0,-5.13555,-1.14731,90.8954
2023-03-11 20:18:29:936,0,-5.1291,-1.11121,90.8892
2023-03-11 20:18:29:946,0,-5.13213,-1.07508,90.8899
2023-03-11 20:18:29:956,0,-5.14527,-1.04113,90.8975
2023-03-11 20:18:29:966,0,-5.16574,-1.01856,90.914
2023-03-11 20:18:29:976,0,-5.19232,-1.00471,90.9385
2023-03-11 20:18:29:986,0,-5.22157,-0.99597,90.9697
2023-03-11 20:18:29:996,0,-5.24859,-0.994183,91.0029
2023-03-11 20:18:30:6,0,-5.26641,-0.997578,91.0286
2023-03-11 20:18:30:16,0,-5.27056,-1.00604,91.0505
2023-03-11 20:18:30:26,0,-5.27003,-1.0112,91.0666
2023-03-11 20:18:30:36,0,-5.26538,-1.01662,91.0769
2023-03-11 20:18:30:46,0,-5.26253,-1.02044,91.0812
2023-03-11 20:18:30:56,0,-5.26706,-1.01816,91.0798
2023-03-11 20:18:30:66,0,-5.27995,-1.00974,91.0777
2023-03-11 20:18:30:76,0,-5.29518,-0.994917,91.069
2023-03-11 20:18:30:86,0,-5.31224,-0.97598,91.0564
2023-03-11 20:18:30:96,0,-5.33368,-0.952168,91.0442
2023-03-11 20:18:30:106,0,-5.35462,-0.922286,91.0352
2023-03-11 20:18:30:116,0,-5.37389,-0.889496,91.0229
2023-03-11 20:18:30:126,0,-5.38988,-0.855635,91.0081
2023-03-11 20:18:30:136,0,-5.40403,-0.826976,90.993
2023-03-11 20:18:30:146,0,-5.41427,-0.799829,90.9805
2023-03-11 20:18:30:156,0,-5.42687,-0.774458,90.9654
2023-03-11 20:18:30:166,0,-5.43425,-0.754927,90.9473
2023-03-11 20:18:30:176,0,-5.4443,-0.733547,90.9271
2023-03-11 20:18:30:186,0,-5.45475,-0.713296,90.9044
2023-03-11 20:18:30:196,0,-5.46062,-0.694592,90.8834
2023-03-11 20:18:30:206,0,-5.4668,-0.686473,90.8596
2023-03-11 20:18:30:216,0,-5.4662,-0.680855,90.8408
2023-03-11 20:18:30:226,0,-5.46076,-0.683266,90.829
2023-03-11 20:18:30:236,0,-5.44918,-0.686023,90.8188
2023-03-11 20:18:30:246,0,-5.43327,-0.696842,90.8115
2023-03-11 20:18:30:256,0,-5.41369,-0.711237,90.8114
2023-03-11 20:18:30:266,0,-5.38687,-0.722325,90.8134
2023-03-11 20:18:30:276,0,-5.36133,-0.738312,90.8181
2023-03-11 20:18:30:286,0,-5.33385,-0.751044,90.8193
2023-03-11 20:18:30:296,0,-5.31717,-0.761054,90.826
2023-03-11 20:18:30:306,0,-5.3063,-0.768196,90.8344
2023-03-11 20:18:30:316,0,-5.29383,-0.773509,90.8428
2023-03-11 20:18:30:326,0,-5.29007,-0.770984,90.8485
2023-03-11 20:18:30:336,0,-5.2856,-0.765433,90.8548
2023-03-11 20:18:30:346,0,-5.28404,-0.75606,90.8609
2023-03-11 20:18:30:356,0,-5.28372,-0.746298,90.8643
2023-03-11 20:18:30:366,0,-5.28678,-0.733671,90.8693
2023-03-11 20:18:30:376,0,-5.29414,-0.722834,90.8716
2023-03-11 20:18:30:386,0,-5.30679,-0.707026,90.8687
2023-03-11 20:18:30:396,0,-5.32161,-0.692901,90.8664
2023-03-11 20:18:30:406,0,-5.33834,-0.680932,90.8635
2023-03-11 20:18:30:416,0,-5.35966,-0.668019,90.862
2023-03-11 20:18:30:426,0,-5.38033,-0.661349,90.8594
2023-03-11 20:18:30:436,0,-5.40085,-0.656231,90.8551
2023-03-11 20:18:30:446,0,-5.42418,-0.650831,90.856
2023-03-11 20:18:30:456,0,-5.44476,-0.64799,90.853
2023-03-11 20:18:30:466,0,-5.4641,-0.646051,90.8442
2023-03-11 20:18:30:476,0,-5.48282,-0.649086,90.8386
2023-03-11 20:18:30:486,0,-5.49849,-0.655537,90.8335
2023-03-11 20:18:30:496,0,-5.51313,-0.66098,90.8286
2023-03-11 20:18:30:506,0,-5.52601,-0.671147,90.8279
2023-03-11 20:18:30:516,0,-5.53435,-0.684228,90.8239
2023-03-11 20:18:30:526,0,-5.54019,-0.694375,90.8191
2023-03-11 20:18:30:536,0,-5.53986,-0.703931,90.8164
2023-03-11 20:18:30:546,0,-5.53627,-0.715442,90.8148
2023-03-11 20:18:30:556,0,-5.53187,-0.726774,90.8135
2023-03-11 20:18:30:566,0,-5.52432,-0.737997,90.813
2023-03-11 20:18:30:576,0,-5.51533,-0.751061,90.8115
2023-03-11 20:18:30:586,0,-5.50495,-0.758929,90.8085
2023-03-11 20:18:30:596,0,-5.49252,-0.767335,90.8048
2023-03-11 20:18:30:606,0,-5.48506,-0.76894,90.7999
2023-03-11 20:18:30:616,0,-5.47609,-0.771507,90.7934
2023-03-11 20:18:30:626,0,-5.4691,-0.772745,90.7832
2023-03-11 20:18:30:636,0,-5.46066,-0.775052,90.7701
2023-03-11 20:18:30:646,0,-5.45458,-0.779076,90.7582
2023-03-11 20:18:30:656,0,-5.4475,-0.785686,90.7469
2023-03-11 20:18:30:666,0,-5.4422,-0.800649,90.739
2023-03-11 20:18:30:676,0,-5.43371,-0.814949,90.7301
2023-03-11 20:18:30:686,0,-5.41759,-0.835298,90.7234
2023-03-11 20:18:30:696,0,-5.39875,-0.857964,90.7226
2023-03-11 20:18:30:706,0,-5.38508,-0.878169,90.7244
2023-03-11 20:18:30:716,0,-5.3711,-0.895247,90.7276
2023-03-11 20:18:30:726,0,-5.359,-0.91185,90.7265
2023-03-11 20:18:30:736,0,-5.34828,-0.924888,90.7292
2023-03-11 20:18:30:746,0,-5.33849,-0.931971,90.7346
2023-03-11 20:18:30:756,0,-5.33311,-0.942421,90.744
2023-03-11 20:18:30:766,0,-5.32483,-0.952836,90.7561
2023-03-11 20:18:30:776,0,-5.31722,-0.951713,90.7658
2023-03-11 20:18:30:787,0,-5.30793,-0.948768,90.7677
2023-03-11 20:18:30:796,0,-5.30054,-0.939754,90.7681
2023-03-11 20:18:30:807,0,-5.29148,-0.925934,90.7631
2023-03-11 20:18:30:816,0,-5.27977,-0.91102,90.7567
2023-03-11 20:18:30:827,0,-5.27511,-0.890292,90.7493
2023-03-11 20:18:30:836,0,-5.2817,-0.869115,90.74
2023-03-11 20:18:30:847,0,-5.29315,-0.843005,90.7342
2023-03-11 20:18:30:857,0,-5.31272,-0.825283,90.7321
2023-03-11 20:18:30:867,0,-5.33905,-0.811062,90.7344
2023-03-11 20:18:30:877,0,-5.36625,-0.799458,90.7417
2023-03-11 20:18:30:886,0,-5.39927,-0.797426,90.7536
2023-03-11 20:18:30:896,0,-5.42907,-0.800628,90.7684
2023-03-11 20:18:30:907,0,-5.45538,-0.809415,90.7841
2023-03-11 20:18:30:917,0,-5.47066,-0.816373,90.8028
2023-03-11 20:18:30:927,0,-5.4763,-0.82992,90.8172
2023-03-11 20:18:30:937,0,-5.4747,-0.84835,90.8317
2023-03-11 20:18:30:947,0,-5.47017,-0.872315,90.8465
2023-03-11 20:18:30:957,0,-5.46758,-0.895518,90.8529
2023-03-11 20:18:30:967,0,-5.4649,-0.915681,90.8602
2023-03-11 20:18:30:977,0,-5.46284,-0.932305,90.8632
2023-03-11 20:18:30:987,0,-5.45609,-0.946757,90.8658
2023-03-11 20:18:30:997,0,-5.44876,-0.956116,90.8666
2023-03-11 20:18:31:7,0,-5.43612,-0.962341,90.8631
2023-03-11 20:18:31:16,0,-5.42364,-0.969922,90.8631
2023-03-11 20:18:31:27,0,-5.40889,-0.975164,90.8676
2023-03-11 20:18:31:36,0,-5.39415,-0.980607,90.8711
2023-03-11 20:18:31:46,0,-5.37789,-0.984613,90.8739
2023-03-11 20:18:31:56,0,-5.36335,-0.992626,90.8748
2023-03-11 20:18:31:67,0,-5.34817,-0.997567,90.8754
2023-03-11 20:18:31:77,0,-5.33658,-1.00094,90.8722
2023-03-11 20:18:31:87,0,-5.32617,-1.00607,90.8702
2023-03-11 20:18:31:97,0,-5.32144,-1.01172,90.8661
2023-03-11 20:18:31:107,0,-5.31462,-1.01495,90.8595
2023-03-11 20:18:31:117,0,-5.31134,-1.01956,90.8555
2023-03-11 20:18:31:127,0,-5.31027,-1.02408,90.8515
2023-03-11 20:18:31:136,0,-5.31065,-1.02891,90.8532
2023-03-11 20:18:31:146,0,-5.31052,-1.034,90.853
2023-03-11 20:18:31:156,0,-5.31088,-1.03538,90.8575
2023-03-11 20:18:31:166,0,-5.31342,-1.04162,90.8623
2023-03-11 20:18:31:176,0,-5.32223,-1.04772,90.8677
2023-03-11 20:18:31:186,0,-5.3291,-1.05335,90.8781
2023-03-11 20:18:31:196,0,-5.33959,-1.05925,90.885
2023-03-11 20:18:31:207,0,-5.3491,-1.06639,90.8918
2023-03-11 20:18:31:216,0,-5.36254,-1.07452,90.8963
2023-03-11 20:18:31:227,0,-5.37559,-1.08394,90.8947
2023-03-11 20:18:31:236,0,-5.39096,-1.09089,90.8912
2023-03-11 20:18:31:247,0,-5.40309,-1.09318,90.8874
2023-03-11 20:18:31:256,0,-5.41282,-1.09357,90.8806
2023-03-11 20:18:31:266,0,-5.41814,-1.09009,90.8681
2023-03-11 20:18:31:276,0,-5.42416,-1.09065,90.8591
2023-03-11 20:18:31:287,0,-5.42671,-1.09237,90.8527
2023-03-11 20:18:31:296,0,-5.42117,-1.09402,90.8474
2023-03-11 20:18:31:306,0,-5.4155,-1.09513,90.8426
2023-03-11 20:18:31:316,0,-5.41005,-1.09319,90.8367
2023-03-11 20:18:31:326,0,-5.4045,-1.09635,90.8386
2023-03-11 20:18:31:336,0,-5.39587,-1.10029,90.8406
2023-03-11 20:18:31:346,0,-5.39035,-1.10589,90.8399
2023-03-11 20:18:31:356,0,-5.38582,-1.11231,90.8427
2023-03-11 20:18:31:366,0,-5.38279,-1.11977,90.8472
2023-03-11 20:18:31:376,0,-5.38091,-1.12864,90.8541
2023-03-11 20:18:31:386,0,-5.38212,-1.13736,90.8572
2023-03-11 20:18:31:396,0,-5.38055,-1.14534,90.8637
2023-03-11 20:18:31:406,0,-5.38043,-1.15399,90.8682
2023-03-11 20:18:31:416,0,-5.37984,-1.1592,90.8787
2023-03-11 20:18:31:427,0,-5.37844,-1.16254,90.8889
2023-03-11 20:18:31:436,0,-5.3777,-1.16559,90.8997
2023-03-11 20:18:31:447,0,-5.38196,-1.16938,90.9084
2023-03-11 20:18:31:457,0,-5.38999,-1.17733,90.9162
2023-03-11 20:18:31:467,0,-5.39078,-1.18708,90.9211
2023-03-11 20:18:31:476,0,-5.38891,-1.19978,90.9296
2023-03-11 20:18:31:486,0,-5.38892,-1.21821,90.9386
2023-03-11 20:18:31:496,0,-5.38406,-1.23826,90.9486
2023-03-11 20:18:31:506,0,-5.38282,-1.26092,90.961
2023-03-11 20:18:31:516,0,-5.3865,-1.28242,90.9754
2023-03-11 20:18:31:526,0,-5.39067,-1.29942,90.9882
2023-03-11 20:18:31:536,0,-5.39811,-1.31217,91.0057
2023-03-11 20:18:31:546,0,-5.40528,-1.32905,91.0244
2023-03-11 20:18:31:556,0,-5.40923,-1.34359,91.0419
2023-03-11 20:18:31:566,0,-5.41223,-1.35569,91.0636
2023-03-11 20:18:31:576,0,-5.41668,-1.36377,91.0809
2023-03-11 20:18:31:586,0,-5.4178,-1.37137,91.0932
2023-03-11 20:18:31:597,0,-5.41976,-1.37887,91.1067
2023-03-11 20:18:31:607,0,-5.42346,-1.38443,91.1129
2023-03-11 20:18:31:617,0,-5.43204,-1.38848,91.1199
2023-03-11 20:18:31:627,0,-5.44372,-1.39526,91.1232
2023-03-11 20:18:31:636,0,-5.44693,-1.39875,91.1225
2023-03-11 20:18:31:646,0,-5.44992,-1.39844,91.1197
2023-03-11 20:18:31:656,0,-5.44723,-1.39661,91.1139
2023-03-11 20:18:31:666,0,-5.44842,-1.39494,91.1061
2023-03-11 20:18:31:677,0,-5.45033,-1.3931,91.0962
2023-03-11 20:18:31:687,0,-5.45957,-1.38759,91.0871
2023-03-11 20:18:31:696,0,-5.46797,-1.38619,91.0732
2023-03-11 20:18:31:707,0,-5.47818,-1.38272,91.0642
2023-03-11 20:18:31:717,0,-5.48802,-1.37852,91.0559
2023-03-11 20:18:31:727,0,-5.49404,-1.3833,91.0477
2023-03-11 20:18:31:736,0,-5.49796,-1.38962,91.0441
2023-03-11 20:18:31:746,0,-5.49613,-1.3947,91.0446
2023-03-11 20:18:31:756,0,-5.49457,-1.40063,91.0441
2023-03-11 20:18:31:766,0,-5.4951,-1.40257,91.0439
2023-03-11 20:18:31:776,0,-5.49724,-1.39974,91.0443
2023-03-11 20:18:31:786,0,-5.49951,-1.39726,91.0469
2023-03-11 20:18:31:796,0,-5.5057,-1.3939,91.0429
2023-03-11 20:18:31:806,0,-5.50956,-1.39322,91.0417
2023-03-11 20:18:31:816,0,-5.51332,-1.38872,91.0406
2023-03-11 20:18:31:826,0,-5.52344,-1.38358,91.0385
2023-03-11 20:18:31:836,0,-5.5322,-1.37576,91.0324
2023-03-11 20:18:31:846,0,-5.53193,-1.37372,91.0258
2023-03-11 20:18:31:856,0,-5.52681,-1.37194,91.0229
2023-03-11 20:18:31:866,0,-5.51991,-1.37274,91.0167
2023-03-11 20:18:31:876,0,-5.50936,-1.3754,91.0107
2023-03-11 20:18:31:886,0,-5.49944,-1.38056,91.007
2023-03-11 20:18:31:896,0,-5.4894,-1.38798,91.0083
2023-03-11 20:18:31:906,0,-5.48385,-1.39747,91.0095
2023-03-11 20:18:31:916,0,-5.48231,-1.40722,91.0097
2023-03-11 20:18:31:927,0,-5.48185,-1.42158,91.0123
2023-03-11 20:18:31:936,0,-5.4836,-1.43784,91.015
2023-03-11 20:18:31:946,0,-5.4866,-1.45439,91.0215
2023-03-11 20:18:31:956,0,-5.48798,-1.47005,91.0259
2023-03-11 20:18:31:966,0,-5.49435,-1.48528,91.034
2023-03-11 20:18:31:976,0,-5.49806,-1.50009,91.0416
2023-03-11 20:18:31:986,0,-5.50379,-1.5118,91.0508
2023-03-11 20:18:31:996,0,-5.50754,-1.52314,91.0614
2023-03-11 20:18:32:6,0,-5.51195,-1.5357,91.0692
2023-03-11 20:18:32:16,0,-5.51597,-1.54603,91.0767
2023-03-11 20:18:32:27,0,-5.52039,-1.54972,91.0833
2023-03-11 20:18:32:36,0,-5.52734,-1.5543,91.0881
2023-03-11 20:18:32:47,0,-5.5324,-1.55792,91.0882
2023-03-11 20:18:32:57,0,-5.54004,-1.55972,91.0857
2023-03-11 20:18:32:66,0,-5.54523,-1.55782,91.0794
2023-03-11 20:18:32:76,0,-5.55269,-1.5522,91.0728
2023-03-11 20:18:32:86,0,-5.56059,-1.54784,91.0604
2023-03-11 20:18:32:96,0,-5.56534,-1.54244,91.0422
2023-03-11 20:18:32:106,0,-5.56466,-1.53626,91.0246
2023-03-11 20:18:32:117,0,-5.56409,-1.52982,91.0072
2023-03-11 20:18:32:126,0,-5.55937,-1.52451,90.989
2023-03-11 20:18:32:136,0,-5.5529,-1.51469,90.9702
2023-03-11 20:18:32:146,0,-5.54692,-1.50554,90.9539
2023-03-11 20:18:32:156,0,-5.53888,-1.49578,90.9406
2023-03-11 20:18:32:166,0,-5.53591,-1.48979,90.9301
2023-03-11 20:18:32:176,0,-5.53559,-1.47802,90.9166
2023-03-11 20:18:32:186,0,-5.53666,-1.46864,90.9096
2023-03-11 20:18:32:196,0,-5.53947,-1.45644,90.9046
2023-03-11 20:18:32:207,0,-5.54589,-1.44436,90.8978
2023-03-11 20:18:32:216,0,-5.54664,-1.4354,90.8972
2023-03-11 20:18:32:227,0,-5.54057,-1.42715,90.896
2023-03-11 20:18:32:236,0,-5.52624,-1.4209,90.9007
2023-03-11 20:18:32:246,0,-5.51412,-1.42406,90.9057
2023-03-11 20:18:32:256,0,-5.50222,-1.41991,90.915
2023-03-11 20:18:32:266,0,-5.48556,-1.41969,90.9261
2023-03-11 20:18:32:276,0,-5.46583,-1.4262,90.9392
2023-03-11 20:18:32:286,0,-5.44542,-1.43797,90.9602
2023-03-11 20:18:32:296,0,-5.42993,-1.44574,90.9826
2023-03-11 20:18:32:306,0,-5.41539,-1.4598,91.0076
2023-03-11 20:18:32:317,0,-5.3985,-1.47117,91.0334
2023-03-11 20:18:32:327,0,-5.38106,-1.48161,91.0591
2023-03-11 20:18:32:337,0,-5.367,-1.49176,91.0827
2023-03-11 20:18:32:346,0,-5.35499,-1.50226,91.1083
2023-03-11 20:18:32:357,0,-5.33942,-1.51373,91.1307
2023-03-11 20:18:32:367,0,-5.32273,-1.52292,91.1477
2023-03-11 20:18:32:376,0,-5.3028,-1.52862,91.1595
2023-03-11 20:18:32:386,0,-5.2865,-1.53413,91.1717
2023-03-11 20:18:32:396,0,-5.27337,-1.53521,91.1781
2023-03-11 20:18:32:406,0,-5.26485,-1.52994,91.1806
2023-03-11 20:18:32:416,0,-5.26377,-1.52207,91.1782
2023-03-11 20:18:32:426,0,-5.26278,-1.51218,91.1699
2023-03-11 20:18:32:436,0,-5.268,-1.49808,91.1611
2023-03-11 20:18:32:446,0,-5.27457,-1.48242,91.1541
2023-03-11 20:18:32:456,0,-5.28401,-1.46921,91.1495
2023-03-11 20:18:32:466,0,-5.29903,-1.4534,91.1416
2023-03-11 20:18:32:476,0,-5.32268,-1.4361,91.1391
2023-03-11 20:18:32:487,0,-5.34727,-1.4214,91.1386
2023-03-11 20:18:32:497,0,-5.37412,-1.40082,91.138
2023-03-11 20:18:32:507,0,-5.3988,-1.38271,91.1328
2023-03-11 20:18:32:517,0,-5.41888,-1.36596,91.1303
2023-03-11 20:18:32:527,0,-5.43542,-1.35657,91.128
2023-03-11 20:18:32:537,0,-5.44955,-1.35404,91.1308
2023-03-11 20:18:32:546,0,-5.45926,-1.35266,91.1323
2023-03-11 20:18:32:557,0,-5.46481,-1.35322,91.1359
2023-03-11 20:18:32:567,0,-5.46002,-1.35346,91.1388
2023-03-11 20:18:32:576,0,-5.45345,-1.35839,91.144
2023-03-11 20:18:32:586,0,-5.45005,-1.36297,91.1475
2023-03-11 20:18:32:596,0,-5.4474,-1.37084,91.153
2023-03-11 20:18:32:606,0,-5.44492,-1.38262,91.151
2023-03-11 20:18:32:616,0,-5.44795,-1.39512,91.1509
2023-03-11 20:18:32:627,0,-5.45377,-1.40737,91.1514
2023-03-11 20:18:32:637,0,-5.46449,-1.42007,91.1532
2023-03-11 20:18:32:646,0,-5.47509,-1.43368,91.1533
2023-03-11 20:18:32:657,0,-5.47934,-1.4467,91.1621
2023-03-11 20:18:32:667,0,-5.47406,-1.46223,91.176
2023-03-11 20:18:32:676,0,-5.47401,-1.47695,91.1921
2023-03-11 20:18:32:687,0,-5.47514,-1.49531,91.2142
2023-03-11 20:18:32:697,0,-5.47978,-1.51292,91.2379
2023-03-11 20:18:32:707,0,-5.48985,-1.52783,91.2603
2023-03-11 20:18:32:717,0,-5.50691,-1.53593,91.2852
2023-03-11 20:18:32:726,0,-5.52392,-1.54625,91.2965
2023-03-11 20:18:32:737,0,-5.54462,-1.55612,91.3015
2023-03-11 20:18:32:747,0,-5.56311,-1.56951,91.307
2023-03-11 20:18:32:757,0,-5.57351,-1.58259,91.3051
2023-03-11 20:18:32:767,0,-5.57915,-1.59705,91.3008
2023-03-11 20:18:32:777,0,-5.5824,-1.61197,91.2949
2023-03-11 20:18:32:787,0,-5.5817,-1.62775,91.288
2023-03-11 20:18:32:797,0,-5.58478,-1.64083,91.2825
2023-03-11 20:18:32:807,0,-5.59179,-1.65144,91.2787
2023-03-11 20:18:32:816,0,-5.60518,-1.65719,91.277
2023-03-11 20:18:32:826,0,-5.6226,-1.66281,91.2781
2023-03-11 20:18:32:836,0,-5.64121,-1.66289,91.2788
2023-03-11 20:18:32:846,0,-5.65508,-1.65827,91.2852
2023-03-11 20:18:32:856,0,-5.66808,-1.64658,91.2906
2023-03-11 20:18:32:866,0,-5.67501,-1.63272,91.3009
2023-03-11 20:18:32:876,0,-5.67997,-1.61142,91.3092
2023-03-11 20:18:32:886,0,-5.68524,-1.58667,91.3183
2023-03-11 20:18:32:896,0,-5.68716,-1.55921,91.3212
2023-03-11 20:18:32:906,0,-5.69257,-1.53747,91.3231
2023-03-11 20:18:32:917,0,-5.69894,-1.50992,91.3218
2023-03-11 20:18:32:926,0,-5.70663,-1.48385,91.3202
2023-03-11 20:18:32:936,0,-5.71287,-1.45652,91.3123
2023-03-11 20:18:32:946,0,-5.72002,-1.43117,91.3046
2023-03-11 20:18:32:956,0,-5.72704,-1.3981,91.2969
2023-03-11 20:18:32:967,0,-5.73655,-1.36424,91.2843
2023-03-11 20:18:32:977,0,-5.75336,-1.33038,91.2809
2023-03-11 20:18:32:987,0,-5.78303,-1.2973,91.2793
2023-03-11 20:18:32:996,0,-5.81635,-1.26862,91.276
2023-03-11 20:18:33:7,0,-5.84975,-1.23912,91.2671
2023-03-11 20:18:33:16,0,-5.88006,-1.21006,91.2496
2023-03-11 20:18:33:27,0,-5.90649,-1.18075,91.2187
2023-03-11 20:18:33:37,0,-5.92199,-1.15333,91.1731
2023-03-11 20:18:33:47,0,-5.92323,-1.12864,91.1184
2023-03-11 20:18:33:56,0,-5.91441,-1.10775,91.0591
2023-03-11 20:18:33:66,0,-5.90198,-1.08776,91.0033
2023-03-11 20:18:33:76,0,-5.89243,-1.07325,90.9568
2023-03-11 20:18:33:86,0,-5.88077,-1.05929,90.9274
2023-03-11 20:18:33:96,0,-5.86942,-1.04832,90.9187
2023-03-11 20:18:33:106,0,-5.85001,-1.03912,90.9284
2023-03-11 20:18:33:116,0,-5.82962,-1.02645,90.9589
2023-03-11 20:18:33:126,0,-5.80208,-1.01349,91.0004
2023-03-11 20:18:33:136,0,-5.77918,-0.999916,91.0478
2023-03-11 20:18:33:146,0,-5.75507,-0.983357,91.1016
2023-03-11 20:18:33:156,0,-5.73798,-0.958604,91.1534
2023-03-11 20:18:33:167,0,-5.73304,-0.933208,91.2009
2023-03-11 20:18:33:176,0,-5.74013,-0.907454,91.2457
2023-03-11 20:18:33:187,0,-5.76507,-0.882454,91.2874
2023-03-11 20:18:33:197,0,-5.79203,-0.863016,91.3258
2023-03-11 20:18:33:206,0,-5.8181,-0.845835,91.3561
2023-03-11 20:18:33:216,0,-5.84241,-0.835831,91.3776
2023-03-11 20:18:33:226,0,-5.85903,-0.825576,91.3908
2023-03-11 20:18:33:237,0,-5.86565,-0.818719,91.3953
2023-03-11 20:18:33:247,0,-5.86733,-0.819727,91.3996
2023-03-11 20:18:33:257,0,-5.86487,-0.821908,91.4025
2023-03-11 20:18:33:267,0,-5.8644,-0.824078,91.4095
2023-03-11 20:18:33:277,0,-5.87145,-0.830933,91.4181
2023-03-11 20:18:33:287,0,-5.88409,-0.841379,91.4336
2023-03-11 20:18:33:297,0,-5.90492,-0.858596,91.4569
2023-03-11 20:18:33:307,0,-5.93,-0.879417,91.4886
2023-03-11 20:18:33:317,0,-5.95592,-0.907668,91.5277
2023-03-11 20:18:33:327,0,-5.98096,-0.93337,91.5661
2023-03-11 20:18:33:336,0,-6.00615,-0.952204,91.6044
2023-03-11 20:18:33:347,0,-6.03419,-0.970341,91.6411
2023-03-11 20:18:33:356,0,-6.06471,-0.984351,91.6716
2023-03-11 20:18:33:367,0,-6.09614,-0.996672,91.7004
2023-03-11 20:18:33:376,0,-6.1252,-1.01277,91.7234
2023-03-11 20:18:33:387,0,-6.15037,-1.02887,91.7421
2023-03-11 20:18:33:396,0,-6.17117,-1.04435,91.7571
2023-03-11 20:18:33:406,0,-6.18258,-1.05671,91.7642
2023-03-11 20:18:33:416,0,-6.18542,-1.06352,91.7655
2023-03-11 20:18:33:426,0,-6.18124,-1.06178,91.753
2023-03-11 20:18:33:436,0,-6.1685,-1.05291,91.741
2023-03-11 20:18:33:446,0,-6.14705,-1.04128,91.7243
2023-03-11 20:18:33:456,0,-6.12134,-1.02934,91.7055
2023-03-11 20:18:33:466,0,-6.09076,-1.01714,91.6833
2023-03-11 20:18:33:477,0,-6.05381,-1.00645,91.6583
2023-03-11 20:18:33:486,0,-6.00776,-1.00067,91.6292
2023-03-11 20:18:33:497,0,-5.95713,-1.00225,91.5967
2023-03-11 20:18:33:506,0,-5.89782,-1.01064,91.5618
2023-03-11 20:18:33:516,0,-5.82896,-1.02221,91.5199
2023-03-11 20:18:33:527,0,-5.7633,-1.03558,91.4724
2023-03-11 20:18:33:536,0,-5.69871,-1.0452,91.4251
2023-03-11 20:18:33:547,0,-5.65242,-1.05897,91.3798
2023-03-11 20:18:33:556,0,-5.61941,-1.07951,91.3395
2023-03-11 20:18:33:567,0,-5.59888,-1.10035,91.3032
2023-03-11 20:18:33:576,0,-5.5912,-1.12859,91.2774
2023-03-11 20:18:33:587,0,-5.59062,-1.16106,91.2622
2023-03-11 20:18:33:597,0,-5.58935,-1.19948,91.2623
2023-03-11 20:18:33:607,0,-5.58227,-1.23522,91.2759
2023-03-11 20:18:33:616,0,-5.57193,-1.27148,91.2983
2023-03-11 20:18:33:627,0,-5.56221,-1.30496,91.3205
2023-03-11 20:18:33:636,0,-5.55975,-1.33316,91.3457
2023-03-11 20:18:33:647,0,-5.56418,-1.35578,91.3719
2023-03-11 20:18:33:656,0,-5.56969,-1.37107,91.3908
2023-03-11 20:18:33:666,0,-5.58036,-1.38738,91.4067
2023-03-11 20:18:33:676,0,-5.59367,-1.40483,91.4175
2023-03-11 20:18:33:686,0,-5.60848,-1.42083,91.4184
2023-03-11 20:18:33:696,0,-5.62109,-1.43749,91.4104
2023-03-11 20:18:33:706,0,-5.62736,-1.44796,91.3938
2023-03-11 20:18:33:716,0,-5.62624,-1.45979,91.3662
2023-03-11 20:18:33:726,0,-5.6209,-1.47313,91.3319
2023-03-11 20:18:33:736,0,-5.61596,-1.48573,91.295
2023-03-11 20:18:33:746,0,-5.60577,-1.49738,91.2525
2023-03-11 20:18:33:756,0,-5.59925,-1.50286,91.2078
2023-03-11 20:18:33:766,0,-5.59676,-1.50097,91.1664
2023-03-11 20:18:33:776,0,-5.59749,-1.49649,91.1262
2023-03-11 20:18:33:786,0,-5.59887,-1.49894,91.0866
2023-03-11 20:18:33:796,0,-5.59921,-1.50551,91.049
2023-03-11 20:18:33:806,0,-5.60634,-1.51092,91.0149
2023-03-11 20:18:33:816,0,-5.61295,-1.52002,90.987
2023-03-11 20:18:33:826,0,-5.62741,-1.52996,90.9639
2023-03-11 20:18:33:836,0,-5.64978,-1.54427,90.9431
2023-03-11 20:18:33:846,0,-5.67771,-1.55467,90.9239
2023-03-11 20:18:33:856,0,-5.70775,-1.56651,90.9129
2023-03-11 20:18:33:866,0,-5.73774,-1.57862,90.903
2023-03-11 20:18:33:876,0,-5.75882,-1.589,90.8961
2023-03-11 20:18:33:886,0,-5.77013,-1.59911,90.8881
2023-03-11 20:18:33:896,0,-5.77351,-1.60403,90.8833
2023-03-11 20:18:33:907,0,-5.76977,-1.60428,90.877
2023-03-11 20:18:33:917,0,-5.76087,-1.59471,90.8726
2023-03-11 20:18:33:926,0,-5.74269,-1.58359,90.8627
2023-03-11 20:18:33:936,0,-5.71806,-1.5675,90.8489
2023-03-11 20:18:33:947,0,-5.69684,-1.5524,90.8422
2023-03-11 20:18:33:956,0,-5.68395,-1.53561,90.8325
2023-03-11 20:18:33:966,0,-5.67602,-1.5237,90.8257
2023-03-11 20:18:33:976,0,-5.67382,-1.51534,90.821
2023-03-11 20:18:33:986,0,-5.67624,-1.50979,90.8221
2023-03-11 20:18:33:996,0,-5.6785,-1.50505,90.8235
2023-03-11 20:18:34:6,0,-5.68013,-1.49922,90.8297
2023-03-11 20:18:34:16,0,-5.67556,-1.49915,90.8363
2023-03-11 20:18:34:26,0,-5.65841,-1.50246,90.8373
2023-03-11 20:18:34:36,0,-5.64086,-1.50898,90.8436
2023-03-11 20:18:34:47,0,-5.62816,-1.51502,90.8443
2023-03-11 20:18:34:57,0,-5.6247,-1.52161,90.8448
2023-03-11 20:18:34:66,0,-5.63146,-1.52182,90.8388
2023-03-11 20:18:34:76,0,-5.64135,-1.52073,90.829
2023-03-11 20:18:34:87,0,-5.65149,-1.5211,90.8131
2023-03-11 20:18:34:96,0,-5.66017,-1.51893,90.7948
2023-03-11 20:18:34:107,0,-5.66058,-1.52248,90.7717
2023-03-11 20:18:34:117,0,-5.6459,-1.53743,90.7404
2023-03-11 20:18:34:126,0,-5.62091,-1.55269,90.7068
2023-03-11 20:18:34:136,0,-5.59195,-1.57189,90.6663
2023-03-11 20:18:34:146,0,-5.55964,-1.58568,90.6278
2023-03-11 20:18:34:156,0,-5.53302,-1.59384,90.5972
2023-03-11 20:18:34:166,0,-5.5168,-1.59148,90.5774
2023-03-11 20:18:34:176,0,-5.50999,-1.58175,90.5651
2023-03-11 20:18:34:186,0,-5.5171,-1.56614,90.55
2023-03-11 20:18:34:196,0,-5.52741,-1.54509,90.5378
2023-03-11 20:18:34:206,0,-5.53578,-1.5291,90.5273
2023-03-11 20:18:34:216,0,-5.5386,-1.52378,90.519
2023-03-11 20:18:34:226,0,-5.53175,-1.53432,90.5109
2023-03-11 20:18:34:236,0,-5.52595,-1.55744,90.5018
2023-03-11 20:18:34:246,0,-5.51376,-1.58969,90.4894
2023-03-11 20:18:34:256,0,-5.50431,-1.62006,90.4723
2023-03-11 20:18:34:266,0,-5.50301,-1.64475,90.4522
2023-03-11 20:18:34:276,0,-5.51562,-1.66688,90.4319
2023-03-11 20:18:34:286,0,-5.54209,-1.68915,90.4117
2023-03-11 20:18:34:297,0,-5.5813,-1.71599,90.3921
2023-03-11 20:18:34:306,0,-5.62787,-1.74678,90.3827
2023-03-11 20:18:34:316,0,-5.68771,-1.77666,90.3804
2023-03-11 20:18:34:327,0,-5.74844,-1.80205,90.3852
2023-03-11 20:18:34:336,0,-5.81175,-1.8271,90.3921
2023-03-11 20:18:34:346,0,-5.87073,-1.84402,90.4092
2023-03-11 20:18:34:356,0,-5.92229,-1.86389,90.4344
2023-03-11 20:18:34:367,0,-5.96347,-1.8813,90.471
2023-03-11 20:18:34:377,0,-5.99414,-1.88928,90.5179
2023-03-11 20:18:34:387,0,-6.01264,-1.88837,90.5732
2023-03-11 20:18:34:397,0,-6.01981,-1.87694,90.6352
2023-03-11 20:18:34:407,0,-6.01538,-1.86013,90.6972
2023-03-11 20:18:34:417,0,-6.00056,-1.83658,90.7549
2023-03-11 20:18:34:427,0,-5.98162,-1.80547,90.8161
2023-03-11 20:18:34:437,0,-5.96045,-1.77197,90.872
2023-03-11 20:18:34:447,0,-5.93496,-1.7377,90.9283
2023-03-11 20:18:34:457,0,-5.91493,-1.70886,90.9811
2023-03-11 20:18:34:467,0,-5.8936,-1.68256,91.0279
2023-03-11 20:18:34:477,0,-5.87853,-1.66064,91.0678
2023-03-11 20:18:34:487,0,-5.87453,-1.64423,91.0943
2023-03-11 20:18:34:497,0,-5.87658,-1.62664,91.1091
2023-03-11 20:18:34:507,0,-5.8797,-1.61727,91.1091
2023-03-11 20:18:34:517,0,-5.87732,-1.60902,91.0878
2023-03-11 20:18:34:527,0,-5.872,-1.61199,91.0555
2023-03-11 20:18:34:537,0,-5.86625,-1.61946,91.0099
2023-03-11 20:18:34:547,0,-5.85721,-1.6398,90.9617
2023-03-11 20:18:34:556,0,-5.84974,-1.66706,90.9178
2023-03-11 20:18:34:566,0,-5.84801,-1.70057,90.8755
2023-03-11 20:18:34:577,0,-5.8497,-1.73632,90.8411
2023-03-11 20:18:34:587,0,-5.85907,-1.77497,90.8147
2023-03-11 20:18:34:597,0,-5.8701,-1.8117,90.7951
2023-03-11 20:18:34:607,0,-5.87947,-1.84403,90.7793
2023-03-11 20:18:34:616,0,-5.87899,-1.87363,90.7627
2023-03-11 20:18:34:627,0,-5.86505,-1.89541,90.7391
2023-03-11 20:18:34:636,0,-5.84029,-1.9127,90.7112
2023-03-11 20:18:34:646,0,-5.81178,-1.92291,90.6787
2023-03-11 20:18:34:656,0,-5.78157,-1.9283,90.6457
2023-03-11 20:18:34:666,0,-5.7552,-1.93926,90.6136
2023-03-11 20:18:34:676,0,-5.73177,-1.9491,90.5866
2023-03-11 20:18:34:686,0,-5.71634,-1.95591,90.5591
2023-03-11 20:18:34:696,0,-5.70334,-1.9638,90.5359
2023-03-11 20:18:34:707,0,-5.69102,-1.97344,90.5158
2023-03-11 20:18:34:717,0,-5.67724,-1.9803,90.4982
2023-03-11 20:18:34:727,0,-5.65768,-1.98781,90.4803
2023-03-11 20:18:34:737,0,-5.63223,-1.99449,90.4659
2023-03-11 20:18:34:747,0,-5.59953,-2.00152,90.452
2023-03-11 20:18:34:757,0,-5.56512,-2.01221,90.4417
2023-03-11 20:18:34:767,0,-5.53921,-2.02629,90.4384
2023-03-11 20:18:34:777,0,-5.52227,-2.03716,90.4402
2023-03-11 20:18:34:787,0,-5.51481,-2.04854,90.444
2023-03-11 20:18:34:796,0,-5.51648,-2.05709,90.4566
2023-03-11 20:18:34:806,0,-5.52128,-2.06451,90.4655
2023-03-11 20:18:34:817,0,-5.52222,-2.06821,90.4785
2023-03-11 20:18:34:826,0,-5.5195,-2.06607,90.4843
2023-03-11 20:18:34:836,0,-5.51616,-2.05851,90.4788
2023-03-11 20:18:34:846,0,-5.50872,-2.04238,90.4636
2023-03-11 20:18:34:857,0,-5.50928,-2.02229,90.4298
2023-03-11 20:18:34:867,0,-5.51995,-1.99245,90.374
2023-03-11 20:18:34:877,0,-5.53886,-1.96259,90.3045
2023-03-11 20:18:34:887,0,-5.5693,-1.93032,90.2201
2023-03-11 20:18:34:897,0,-5.60332,-1.89519,90.1285
2023-03-11 20:18:34:907,0,-5.63986,-1.85815,90.0257
2023-03-11 20:18:34:916,0,-5.67485,-1.81492,89.9276
2023-03-11 20:18:34:926,0,-5.70651,-1.77596,89.8353
2023-03-11 20:18:34:936,0,-5.72623,-1.729,89.7504
2023-03-11 20:18:34:946,0,-5.7332,-1.68657,89.6793
2023-03-11 20:18:34:956,0,-5.72107,-1.65408,89.6182
2023-03-11 20:18:34:966,0,-5.70293,-1.62374,89.568
2023-03-11 20:18:34:977,0,-5.68344,-1.60567,89.5327
2023-03-11 20:18:34:986,0,-5.67263,-1.60541,89.5059
2023-03-11 20:18:34:997,0,-5.67357,-1.62872,89.5037
2023-03-11 20:18:35:6,0,-5.68723,-1.664,89.5168
2023-03-11 20:18:35:17,0,-5.71973,-1.71136,89.543
2023-03-11 20:18:35:26,0,-5.76465,-1.76951,89.5821
2023-03-11 20:18:35:37,0,-5.81857,-1.82968,89.6284
2023-03-11 20:18:35:46,0,-5.87762,-1.8861,89.674
2023-03-11 20:18:35:57,0,-5.93033,-1.93751,89.7137
2023-03-11 20:18:35:67,0,-5.97091,-1.98443,89.7399
2023-03-11 20:18:35:77,0,-5.99866,-2.0199,89.7531
2023-03-11 20:18:35:87,0,-6.01784,-2.04649,89.7563
2023-03-11 20:18:35:97,0,-6.03164,-2.06869,89.7483
2023-03-11 20:18:35:107,0,-6.0347,-2.08781,89.7268
2023-03-11 20:18:35:117,0,-6.03258,-2.10403,89.6956
2023-03-11 20:18:35:127,0,-6.03237,-2.11599,89.6517
2023-03-11 20:18:35:137,0,-6.03164,-2.11883,89.5988
2023-03-11 20:18:35:146,0,-6.03212,-2.11336,89.5351
2023-03-11 20:18:35:156,0,-6.04041,-2.10098,89.4595
2023-03-11 20:18:35:166,0,-6.05551,-2.07871,89.3765
2023-03-11 20:18:35:176,0,-6.07046,-2.05378,89.293
2023-03-11 20:18:35:186,0,-6.08589,-2.02574,89.2052
2023-03-11 20:18:35:197,0,-6.1024,-1.99142,89.1219
2023-03-11 20:18:35:207,0,-6.12497,-1.95814,89.0419
2023-03-11 20:18:35:217,0,-6.15441,-1.9277,88.9658
2023-03-11 20:18:35:227,0,-6.19066,-1.89592,88.8935
2023-03-11 20:18:35:236,0,-6.23031,-1.86283,88.8212
2023-03-11 20:18:35:247,0,-6.27069,-1.83615,88.7551
2023-03-11 20:18:35:256,0,-6.30952,-1.81214,88.694
2023-03-11 20:18:35:266,0,-6.34393,-1.79261,88.6372
2023-03-11 20:18:35:276,0,-6.37474,-1.77288,88.5831
2023-03-11 20:18:35:286,0,-6.39441,-1.75059,88.5341
2023-03-11 20:18:35:296,0,-6.40825,-1.72692,88.4937
2023-03-11 20:18:35:307,0,-6.41838,-1.69953,88.4591
2023-03-11 20:18:35:317,0,-6.42198,-1.67225,88.4304
2023-03-11 20:18:35:327,0,-6.42579,-1.6405,88.4115
2023-03-11 20:18:35:337,0,-6.41719,-1.61022,88.4023
2023-03-11 20:18:35:346,0,-6.40793,-1.57931,88.4046
2023-03-11 20:18:35:356,0,-6.40192,-1.55013,88.4123
2023-03-11 20:18:35:367,0,-6.39739,-1.51601,88.4277
2023-03-11 20:18:35:376,0,-6.39717,-1.48363,88.4424
2023-03-11 20:18:35:386,0,-6.40215,-1.45533,88.4569
2023-03-11 20:18:35:397,0,-6.41462,-1.42737,88.4768
2023-03-11 20:18:35:406,0,-6.43146,-1.40153,88.495
2023-03-11 20:18:35:416,0,-6.45278,-1.38255,88.511
2023-03-11 20:18:35:426,0,-6.46758,-1.36278,88.521
2023-03-11 20:18:35:436,0,-6.47672,-1.34463,88.5358
2023-03-11 20:18:35:446,0,-6.4911,-1.33157,88.5447
2023-03-11 20:18:35:456,0,-6.50183,-1.31231,88.5536
2023-03-11 20:18:35:467,0,-6.50884,-1.28981,88.5515
2023-03-11 20:18:35:476,0,-6.51344,-1.27039,88.5459
2023-03-11 20:18:35:487,0,-6.51073,-1.25525,88.5434
2023-03-11 20:18:35:497,0,-6.5032,-1.24048,88.5437
2023-03-11 20:18:35:507,0,-6.49756,-1.22921,88.5497
2023-03-11 20:18:35:517,0,-6.49099,-1.21986,88.557
2023-03-11 20:18:35:527,0,-6.47898,-1.21208,88.5672
2023-03-11 20:18:35:536,0,-6.46822,-1.20178,88.5759
2023-03-11 20:18:35:547,0,-6.45549,-1.19463,88.5812
2023-03-11 20:18:35:556,0,-6.44054,-1.19237,88.5879
2023-03-11 20:18:35:567,0,-6.4218,-1.188,88.5906
2023-03-11 20:18:35:576,0,-6.40451,-1.18066,88.5897
2023-03-11 20:18:35:586,0,-6.39206,-1.18351,88.5861
2023-03-11 20:18:35:597,0,-6.37913,-1.1884,88.5789
2023-03-11 20:18:35:607,0,-6.36294,-1.19445,88.5725
2023-03-11 20:18:35:617,0,-6.35163,-1.20638,88.5642
2023-03-11 20:18:35:627,0,-6.34355,-1.22357,88.5594
2023-03-11 20:18:35:637,0,-6.33916,-1.24023,88.5561
2023-03-11 20:18:35:646,0,-6.33669,-1.25897,88.5581
2023-03-11 20:18:35:656,0,-6.33502,-1.27517,88.5631
2023-03-11 20:18:35:667,0,-6.33873,-1.29575,88.5765
2023-03-11 20:18:35:676,0,-6.34991,-1.31433,88.5916
2023-03-11 20:18:35:686,0,-6.36122,-1.33742,88.6111
2023-03-11 20:18:35:696,0,-6.3776,-1.36801,88.6307
2023-03-11 20:18:35:706,0,-6.39833,-1.39983,88.6544
2023-03-11 20:18:35:717,0,-6.4108,-1.43926,88.6817
2023-03-11 20:18:35:727,0,-6.41384,-1.48582,88.7079
2023-03-11 20:18:35:737,0,-6.41737,-1.5393,88.7326
2023-03-11 20:18:35:747,0,-6.42123,-1.59204,88.7635
2023-03-11 20:18:35:756,0,-6.43062,-1.64767,88.793
2023-03-11 20:18:35:767,0,-6.43423,-1.69697,88.8231
2023-03-11 20:18:35:776,0,-6.4382,-1.73582,88.8516
2023-03-11 20:18:35:787,0,-6.44492,-1.77106,88.8804
2023-03-11 20:18:35:796,0,-6.4514,-1.80544,88.9148
2023-03-11 20:18:35:807,0,-6.4567,-1.83329,88.9468
2023-03-11 20:18:35:816,0,-6.45702,-1.85898,88.9779
2023-03-11 20:18:35:826,0,-6.45254,-1.87802,89.0148
2023-03-11 20:18:35:837,0,-6.44085,-1.89507,89.0477
2023-03-11 20:18:35:847,0,-6.4296,-1.90859,89.0815
2023-03-11 20:18:35:857,0,-6.42146,-1.92018,89.1148
2023-03-11 20:18:35:867,0,-6.41335,-1.92608,89.147
2023-03-11 20:18:35:876,0,-6.40461,-1.92374,89.1764
2023-03-11 20:18:35:887,0,-6.39562,-1.92481,89.2047
2023-03-11 20:18:35:897,0,-6.38169,-1.92104,89.2254
2023-03-11 20:18:35:907,0,-6.36748,-1.90833,89.2437
2023-03-11 20:18:35:916,0,-6.35038,-1.89611,89.2602
2023-03-11 20:18:35:927,0,-6.32923,-1.87986,89.275
2023-03-11 20:18:35:936,0,-6.30889,-1.86049,89.285
2023-03-11 20:18:35:946,0,-6.28899,-1.84058,89.2966
2023-03-11 20:18:35:956,0,-6.26335,-1.82194,89.3038
2023-03-11 20:18:35:967,0,-6.23904,-1.80778,89.3178
2023-03-11 20:18:35:977,0,-6.21967,-1.79795,89.3306
2023-03-11 20:18:35:986,0,-6.20741,-1.79165,89.3428
2023-03-11 20:18:35:997,0,-6.20393,-1.785,89.356
2023-03-11 20:18:36:7,0,-6.2043,-1.78154,89.3704
2023-03-11 20:18:36:17,0,-6.20901,-1.78049,89.3858
2023-03-11 20:18:36:27,0,-6.21415,-1.77896,89.4008
2023-03-11 20:18:36:37,0,-6.22182,-1.7836,89.4182
2023-03-11 20:18:36:47,0,-6.23024,-1.78749,89.4359
2023-03-11 20:18:36:57,0,-6.23743,-1.79242,89.4523
2023-03-11 20:18:36:66,0,-6.24563,-1.79818,89.4691
2023-03-11 20:18:36:76,0,-6.24567,-1.80012,89.4818
2023-03-11 20:18:36:87,0,-6.25068,-1.80286,89.4899
2023-03-11 20:18:36:97,0,-6.25489,-1.80946,89.4938
2023-03-11 20:18:36:106,0,-6.26549,-1.81525,89.4962
2023-03-11 20:18:36:116,0,-6.2742,-1.81884,89.4971
2023-03-11 20:18:36:127,0,-6.2917,-1.82019,89.5004
2023-03-11 20:18:36:137,0,-6.30431,-1.81986,89.501
2023-03-11 20:18:36:147,0,-6.31687,-1.82337,89.5005
2023-03-11 20:18:36:157,0,-6.33228,-1.83085,89.5018
2023-03-11 20:18:36:167,0,-6.34908,-1.83822,89.5014
2023-03-11 20:18:36:176,0,-6.36411,-1.84355,89.5003
2023-03-11 20:18:36:186,0,-6.3723,-1.85209,89.4997
2023-03-11 20:18:36:196,0,-6.37729,-1.86095,89.5006
2023-03-11 20:18:36:206,0,-6.38206,-1.87297,89.5036
2023-03-11 20:18:36:217,0,-6.38609,-1.88784,89.5068
2023-03-11 20:18:36:226,0,-6.38439,-1.89829,89.5124
2023-03-11 20:18:36:236,0,-6.383,-1.90878,89.5167
2023-03-11 20:18:36:247,0,-6.37741,-1.91181,89.5229
2023-03-11 20:18:36:256,0,-6.37239,-1.91058,89.5292
2023-03-11 20:18:36:267,0,-6.36261,-1.91049,89.5384
2023-03-11 20:18:36:276,0,-6.35169,-1.91022,89.5508
2023-03-11 20:18:36:287,0,-6.3418,-1.91116,89.5647
2023-03-11 20:18:36:297,0,-6.32883,-1.91201,89.5781
2023-03-11 20:18:36:307,0,-6.31658,-1.9117,89.5892
2023-03-11 20:18:36:317,0,-6.30346,-1.91186,89.6017
2023-03-11 20:18:36:326,0,-6.29557,-1.91253,89.6147
2023-03-11 20:18:36:336,0,-6.29032,-1.91612,89.6292
2023-03-11 20:18:36:347,0,-6.2876,-1.91996,89.6447
2023-03-11 20:18:36:357,0,-6.28311,-1.92413,89.6568
2023-03-11 20:18:36:367,0,-6.27884,-1.93317,89.6747
2023-03-11 20:18:36:377,0,-6.27517,-1.94427,89.6918
2023-03-11 20:18:36:387,0,-6.26855,-1.95663,89.7143
2023-03-11 20:18:36:396,0,-6.26709,-1.97114,89.7382
2023-03-11 20:18:36:406,0,-6.26178,-1.9854,89.7619
2023-03-11 20:18:36:416,0,-6.25699,-1.99759,89.7898
2023-03-11 20:18:36:426,0,-6.24921,-2.0125,89.8141
2023-03-11 20:18:36:436,0,-6.24344,-2.02662,89.8366
2023-03-11 20:18:36:446,0,-6.23917,-2.04063,89.8591
2023-03-11 20:18:36:456,0,-6.23454,-2.05395,89.8823
2023-03-11 20:18:36:466,0,-6.23315,-2.07035,89.9018
2023-03-11 20:18:36:476,0,-6.23023,-2.08547,89.9204
2023-03-11 20:18:36:487,0,-6.23284,-2.0973,89.937
2023-03-11 20:18:36:497,0,-6.23661,-2.11432,89.9536
2023-03-11 20:18:36:507,0,-6.24385,-2.12426,89.9683
2023-03-11 20:18:36:516,0,-6.25046,-2.13911,89.9765
2023-03-11 20:18:36:527,0,-6.25731,-2.1505,89.9841
2023-03-11 20:18:36:536,0,-6.26393,-2.1606,89.9863
2023-03-11 20:18:36:547,0,-6.2677,-2.1737,89.986
2023-03-11 20:18:36:557,0,-6.26745,-2.18764,89.9852
2023-03-11 20:18:36:567,0,-6.26961,-2.19677,89.9827
2023-03-11 20:18:36:577,0,-6.26968,-2.20373,89.9779
2023-03-11 20:18:36:586,0,-6.26464,-2.20392,89.9745
2023-03-11 20:18:36:596,0,-6.26536,-2.20022,89.9751
2023-03-11 20:18:36:607,0,-6.26475,-2.19493,89.9768
2023-03-11 20:18:36:617,0,-6.26377,-2.19258,89.9791
2023-03-11 20:18:36:627,0,-6.26532,-2.189,89.9852
2023-03-11 20:18:36:637,0,-6.26921,-2.18456,89.9931
2023-03-11 20:18:36:647,0,-6.27244,-2.18283,90.0011
2023-03-11 20:18:36:656,0,-6.27059,-2.18412,90.0096
2023-03-11 20:18:36:666,0,-6.26968,-2.19684,90.0222
2023-03-11 20:18:36:677,0,-6.26657,-2.21165,90.0369
2023-03-11 20:18:36:687,0,-6.26825,-2.22852,90.0546
2023-03-11 20:18:36:696,0,-6.26652,-2.24664,90.0709
2023-03-11 20:18:36:706,0,-6.27298,-2.2578,90.0864
2023-03-11 20:18:36:716,0,-6.28267,-2.27088,90.1046
2023-03-11 20:18:36:726,0,-6.29592,-2.2839,90.1289
2023-03-11 20:18:36:736,0,-6.30935,-2.2962,90.1515
2023-03-11 20:18:36:747,0,-6.31731,-2.30661,90.1744
2023-03-11 20:18:36:757,0,-6.32236,-2.31461,90.1984
2023-03-11 20:18:36:766,0,-6.32297,-2.31933,90.2162
2023-03-11 20:18:36:776,0,-6.32494,-2.32588,90.2348
2023-03-11 20:18:36:786,0,-6.32913,-2.33179,90.248
2023-03-11 20:18:36:796,0,-6.33431,-2.33268,90.2586
2023-03-11 20:18:36:807,0,-6.34098,-2.34136,90.267
2023-03-11 20:18:36:816,0,-6.35141,-2.34689,90.2747
2023-03-11 20:18:36:826,0,-6.36614,-2.34959,90.2795
2023-03-11 20:18:36:836,0,-6.37869,-2.35265,90.2845
2023-03-11 20:18:36:846,0,-6.38941,-2.36147,90.2909
2023-03-11 20:18:36:856,0,-6.40253,-2.37292,90.2993
2023-03-11 20:18:36:867,0,-6.41061,-2.37726,90.3105
2023-03-11 20:18:36:876,0,-6.41925,-2.3818,90.3195
2023-03-11 20:18:36:886,0,-6.42734,-2.38125,90.3279
2023-03-11 20:18:36:896,0,-6.4298,-2.38695,90.3368
2023-03-11 20:18:36:906,0,-6.43201,-2.39246,90.3448
2023-03-11 20:18:36:916,0,-6.42949,-2.39789,90.3534
2023-03-11 20:18:36:926,0,-6.4302,-2.40303,90.3616
2023-03-11 20:18:36:937,0,-6.43399,-2.40601,90.3674
2023-03-11 20:18:36:946,0,-6.43153,-2.40467,90.3753
2023-03-11 20:18:36:956,0,-6.4295,-2.40668,90.3829
2023-03-11 20:18:36:966,0,-6.42803,-2.40576,90.3912
2023-03-11 20:18:36:976,0,-6.42142,-2.4052,90.3996
2023-03-11 20:18:36:987,0,-6.40967,-2.40062,90.4064
2023-03-11 20:18:36:997,0,-6.39587,-2.39577,90.411
2023-03-11 20:18:37:7,0,-6.38149,-2.39589,90.415
2023-03-11 20:18:37:17,0,-6.36659,-2.39266,90.4198
2023-03-11 20:18:37:27,0,-6.35423,-2.39154,90.4245
2023-03-11 20:18:37:36,0,-6.34144,-2.39164,90.4321
2023-03-11 20:18:37:46,0,-6.3301,-2.39241,90.4357
2023-03-11 20:18:37:56,0,-6.32067,-2.39489,90.4383
2023-03-11 20:18:37:66,0,-6.31463,-2.39567,90.4393
2023-03-11 20:18:37:76,0,-6.303,-2.39875,90.4413
2023-03-11 20:18:37:86,0,-6.29121,-2.39442,90.4469
2023-03-11 20:18:37:96,0,-6.27907,-2.39269,90.4481
2023-03-11 20:18:37:107,0,-6.26757,-2.38977,90.4473
2023-03-11 20:18:37:117,0,-6.25844,-2.38559,90.445
2023-03-11 20:18:37:127,0,-6.25291,-2.38196,90.4465
2023-03-11 20:18:37:137,0,-6.24645,-2.37388,90.4455
2023-03-11 20:18:37:147,0,-6.24014,-2.36551,90.4451
2023-03-11 20:18:37:156,0,-6.23525,-2.36094,90.4419
2023-03-11 20:18:37:167,0,-6.23027,-2.35578,90.4416
2023-03-11 20:18:37:177,0,-6.22593,-2.34627,90.4422
2023-03-11 20:18:37:187,0,-6.22289,-2.33964,90.4444
2023-03-11 20:18:37:197,0,-6.22254,-2.33125,90.4479
2023-03-11 20:18:37:206,0,-6.22585,-2.32948,90.4603
2023-03-11 20:18:37:216,0,-6.23328,-2.32622,90.4698
2023-03-11 20:18:37:226,0,-6.24428,-2.32582,90.483
2023-03-11 20:18:37:236,0,-6.24984,-2.32561,90.4976
2023-03-11 20:18:37:247,0,-6.25832,-2.3276,90.5102
2023-03-11 20:18:37:256,0,-6.26925,-2.33654,90.5281
2023-03-11 20:18:37:266,0,-6.27658,-2.34605,90.5427
2023-03-11 20:18:37:277,0,-6.28905,-2.35859,90.5575
2023-03-11 20:18:37:287,0,-6.30113,-2.36939,90.5662
2023-03-11 20:18:37:297,0,-6.30822,-2.37888,90.5771
2023-03-11 20:18:37:307,0,-6.31421,-2.38486,90.5833
2023-03-11 20:18:37:317,0,-6.32064,-2.39279,90.5855
2023-03-11 20:18:37:327,0,-6.32453,-2.39725,90.5853
2023-03-11 20:18:37:337,0,-6.33272,-2.39911,90.5854
2023-03-11 20:18:37:347,0,-6.33969,-2.39856,90.5845
2023-03-11 20:18:37:356,0,-6.34712,-2.40166,90.5822
2023-03-11 20:18:37:367,0,-6.35155,-2.40521,90.5801
2023-03-11 20:18:37:377,0,-6.35381,-2.41112,90.5792
2023-03-11 20:18:37:387,0,-6.35786,-2.42363,90.5812
2023-03-11 20:18:37:397,0,-6.35896,-2.43934,90.5864
2023-03-11 20:18:37:407,0,-6.36396,-2.45508,90.5944
2023-03-11 20:18:37:417,0,-6.37256,-2.47208,90.6067
2023-03-11 20:18:37:426,0,-6.37924,-2.48242,90.6171
2023-03-11 20:18:37:437,0,-6.38528,-2.49292,90.6346
2023-03-11 20:18:37:447,0,-6.39299,-2.50315,90.6519
2023-03-11 20:18:37:457,0,-6.39904,-2.5095,90.6674
2023-03-11 20:18:37:467,0,-6.40249,-2.51316,90.6825
2023-03-11 20:18:37:477,0,-6.40277,-2.51789,90.6922
2023-03-11 20:18:37:486,0,-6.39754,-2.51965,90.7009
2023-03-11 20:18:37:496,0,-6.3904,-2.52341,90.7058
2023-03-11 20:18:37:507,0,-6.38463,-2.52068,90.7071
2023-03-11 20:18:37:517,0,-6.38554,-2.51899,90.7018
2023-03-11 20:18:37:526,0,-6.38729,-2.5149,90.6959
2023-03-11 20:18:37:536,0,-6.39026,-2.50839,90.6843
2023-03-11 20:18:37:547,0,-6.39631,-2.50137,90.6693
2023-03-11 20:18:37:557,0,-6.40217,-2.4951,90.6561
2023-03-11 20:18:37:567,0,-6.40563,-2.49017,90.643
2023-03-11 20:18:37:577,0,-6.41195,-2.48548,90.6361
2023-03-11 20:18:37:587,0,-6.41367,-2.47662,90.6286
2023-03-11 20:18:37:596,0,-6.4106,-2.46569,90.6215
2023-03-11 20:18:37:606,0,-6.40297,-2.4544,90.6154
2023-03-11 20:18:37:616,0,-6.39228,-2.44273,90.6099
2023-03-11 20:18:37:627,0,-6.38559,-2.43819,90.6061
2023-03-11 20:18:37:637,0,-6.37689,-2.43168,90.605
2023-03-11 20:18:37:647,0,-6.37138,-2.42204,90.6068
2023-03-11 20:18:37:657,0,-6.36461,-2.41265,90.6069
2023-03-11 20:18:37:667,0,-6.35784,-2.40328,90.6058
2023-03-11 20:18:37:677,0,-6.34735,-2.39349,90.6038
2023-03-11 20:18:37:686,0,-6.33354,-2.38615,90.6071
2023-03-11 20:18:37:696,0,-6.31142,-2.37937,90.6057
2023-03-11 20:18:37:707,0,-6.28856,-2.37038,90.6038
2023-03-11 20:18:37:716,0,-6.26669,-2.36634,90.6026
2023-03-11 20:18:37:727,0,-6.23949,-2.36423,90.6033
2023-03-11 20:18:37:736,0,-6.21434,-2.36322,90.602
2023-03-11 20:18:37:746,0,-6.18828,-2.36272,90.6007
2023-03-11 20:18:37:756,0,-6.16296,-2.36588,90.6047
2023-03-11 20:18:37:767,0,-6.13869,-2.36774,90.604
2023-03-11 20:18:37:777,0,-6.11398,-2.37797,90.6071
2023-03-11 20:18:37:787,0,-6.08923,-2.38889,90.6139
2023-03-11 20:18:37:797,0,-6.06421,-2.39786,90.6183
2023-03-11 20:18:37:807,0,-6.03966,-2.40578,90.6241
2023-03-11 20:18:37:817,0,-6.01764,-2.41263,90.6308
2023-03-11 20:18:37:827,0,-5.99465,-2.42528,90.6396
2023-03-11 20:18:37:837,0,-5.97242,-2.4316,90.651
2023-03-11 20:18:37:847,0,-5.94964,-2.44095,90.6604
2023-03-11 20:18:37:857,0,-5.92653,-2.44706,90.6748
2023-03-11 20:18:37:867,0,-5.90672,-2.45422,90.6838
2023-03-11 20:18:37:876,0,-5.88966,-2.45766,90.6931
2023-03-11 20:18:37:887,0,-5.87441,-2.46238,90.6981
2023-03-11 20:18:37:896,0,-5.86085,-2.46688,90.7025
2023-03-11 20:18:37:907,0,-5.8535,-2.46841,90.7015
2023-03-11 20:18:37:916,0,-5.85023,-2.46993,90.6976
2023-03-11 20:18:37:927,0,-5.84395,-2.47111,90.689
2023-03-11 20:18:37:937,0,-5.83796,-2.47108,90.6808
2023-03-11 20:18:37:947,0,-5.83402,-2.47206,90.6724
2023-03-11 20:18:37:956,0,-5.82779,-2.4719,90.6626
2023-03-11 20:18:37:966,0,-5.82379,-2.47268,90.647
2023-03-11 20:18:37:977,0,-5.82357,-2.47805,90.6346
2023-03-11 20:18:37:987,0,-5.82511,-2.4803,90.6245
2023-03-11 20:18:37:997,0,-5.83086,-2.48224,90.6206
2023-03-11 20:18:38:6,0,-5.84044,-2.48195,90.6158
2023-03-11 20:18:38:17,0,-5.84973,-2.4776,90.6148
2023-03-11 20:18:38:26,0,-5.85831,-2.47491,90.6122
2023-03-11 20:18:38:36,0,-5.86325,-2.46594,90.6137
2023-03-11 20:18:38:46,0,-5.85995,-2.45723,90.6126
2023-03-11 20:18:38:56,0,-5.85281,-2.44116,90.6132
2023-03-11 20:18:38:66,0,-5.83832,-2.43175,90.6111
2023-03-11 20:18:38:76,0,-5.82644,-2.41763,90.6069
2023-03-11 20:18:38:87,0,-5.81248,-2.40211,90.6024
2023-03-11 20:18:38:96,0,-5.79983,-2.38929,90.591
2023-03-11 20:18:38:107,0,-5.78023,-2.38261,90.5807
2023-03-11 20:18:38:117,0,-5.76232,-2.38347,90.5691
2023-03-11 20:18:38:127,0,-5.74422,-2.38498,90.5575
2023-03-11 20:18:38:137,0,-5.73079,-2.38741,90.546
2023-03-11 20:18:38:147,0,-5.72197,-2.39085,90.5351
2023-03-11 20:18:38:157,0,-5.71591,-2.39306,90.5299
2023-03-11 20:18:38:167,0,-5.71291,-2.39559,90.5227
2023-03-11 20:18:38:176,0,-5.71453,-2.39506,90.5212
2023-03-11 20:18:38:186,0,-5.71941,-2.39569,90.5233
2023-03-11 20:18:38:196,0,-5.72568,-2.39479,90.5296
2023-03-11 20:18:38:206,0,-5.73739,-2.39521,90.5389
2023-03-11 20:18:38:216,0,-5.75526,-2.39348,90.5527
2023-03-11 20:18:38:226,0,-5.77765,-2.3911,90.566
2023-03-11 20:18:38:236,0,-5.79497,-2.39208,90.5804
2023-03-11 20:18:38:246,0,-5.81378,-2.38795,90.5949
2023-03-11 20:18:38:256,0,-5.82507,-2.38721,90.6019
2023-03-11 20:18:38:266,0,-5.83628,-2.37922,90.6061
2023-03-11 20:18:38:276,0,-5.83947,-2.37592,90.604
2023-03-11 20:18:38:287,0,-5.83859,-2.371,90.5989
2023-03-11 20:18:38:297,0,-5.83065,-2.36901,90.5957
2023-03-11 20:18:38:306,0,-5.81844,-2.36472,90.5883
2023-03-11 20:18:38:317,0,-5.8029,-2.35468,90.5801
2023-03-11 20:18:38:327,0,-5.7896,-2.34123,90.5696
2023-03-11 20:18:38:337,0,-5.76429,-2.33344,90.5604
2023-03-11 20:18:38:347,0,-5.73838,-2.3296,90.5533
2023-03-11 20:18:38:357,0,-5.70972,-2.32977,90.5496
2023-03-11 20:18:38:367,0,-5.68325,-2.32667,90.5447
2023-03-11 20:18:38:377,0,-5.65597,-2.31961,90.5405
2023-03-11 20:18:38:387,0,-5.62814,-2.31613,90.5343
2023-03-11 20:18:38:397,0,-5.60279,-2.30865,90.5346
2023-03-11 20:18:38:407,0,-5.58004,-2.30516,90.5358
2023-03-11 20:18:38:416,0,-5.56054,-2.30192,90.537
2023-03-11 20:18:38:427,0,-5.54386,-2.29709,90.541
2023-03-11 20:18:38:437,0,-5.52573,-2.29449,90.5451
2023-03-11 20:18:38:446,0,-5.50983,-2.2957,90.5514
2023-03-11 20:18:38:456,0,-5.49493,-2.29921,90.5594
2023-03-11 20:18:38:467,0,-5.48058,-2.30633,90.5679
2023-03-11 20:18:38:477,0,-5.46585,-2.31384,90.577
2023-03-11 20:18:38:487,0,-5.45285,-2.31855,90.5881
2023-03-11 20:18:38:497,0,-5.43896,-2.32583,90.5997
2023-03-11 20:18:38:507,0,-5.42508,-2.33296,90.6114
2023-03-11 20:18:38:517,0,-5.41283,-2.34345,90.6233
2023-03-11 20:18:38:527,0,-5.40009,-2.35442,90.6354
2023-03-11 20:18:38:537,0,-5.39068,-2.36328,90.6503
2023-03-11 20:18:38:547,0,-5.38307,-2.37285,90.6657
2023-03-11 20:18:38:557,0,-5.37293,-2.38053,90.6772
2023-03-11 20:18:38:566,0,-5.36609,-2.38322,90.6898
2023-03-11 20:18:38:577,0,-5.35723,-2.38724,90.7052
2023-03-11 20:18:38:586,0,-5.34402,-2.38904,90.7163
2023-03-11 20:18:38:597,0,-5.33127,-2.39172,90.7245
2023-03-11 20:18:38:607,0,-5.3198,-2.39208,90.7299
2023-03-11 20:18:38:617,0,-5.31092,-2.39021,90.7317
2023-03-11 20:18:38:627,0,-5.30286,-2.38806,90.732
2023-03-11 20:18:38:637,0,-5.29718,-2.38539,90.7305
2023-03-11 20:18:38:647,0,-5.29263,-2.38365,90.7274
2023-03-11 20:18:38:656,0,-5.29306,-2.38126,90.7203
2023-03-11 20:18:38:667,0,-5.29312,-2.37654,90.714
2023-03-11 20:18:38:677,0,-5.29509,-2.3743,90.7092
2023-03-11 20:18:38:687,0,-5.30184,-2.36913,90.7035
2023-03-11 20:18:38:697,0,-5.30471,-2.36504,90.7006
2023-03-11 20:18:38:707,0,-5.30469,-2.3624,90.6965
2023-03-11 20:18:38:716,0,-5.30201,-2.35523,90.6954
2023-03-11 20:18:38:727,0,-5.2953,-2.3467,90.6957
2023-03-11 20:18:38:736,0,-5.28894,-2.33835,90.6979
2023-03-11 20:18:38:747,0,-5.28397,-2.3307,90.6966
2023-03-11 20:18:38:756,0,-5.28066,-2.3253,90.6997
2023-03-11 20:18:38:766,0,-5.27716,-2.31905,90.6957
2023-03-11 20:18:38:776,0,-5.28063,-2.31183,90.6955
2023-03-11 20:18:38:786,0,-5.28441,-2.30574,90.6957
2023-03-11 20:18:38:797,0,-5.29108,-2.30055,90.6943
2023-03-11 20:18:38:806,0,-5.29759,-2.29284,90.6919
2023-03-11 20:18:38:817,0,-5.3041,-2.29127,90.6935
2023-03-11 20:18:38:827,0,-5.30532,-2.29482,90.6947
2023-03-11 20:18:38:837,0,-5.30821,-2.303,90.6951
2023-03-11 20:18:38:847,0,-5.31458,-2.31488,90.7005
2023-03-11 20:18:38:857,0,-5.32533,-2.32206,90.7064
2023-03-11 20:18:38:867,0,-5.33773,-2.32955,90.7128
2023-03-11 20:18:38:877,0,-5.35634,-2.33505,90.7212
2023-03-11 20:18:38:887,0,-5.38293,-2.33973,90.7342
2023-03-11 20:18:38:896,0,-5.41172,-2.34133,90.7451
2023-03-11 20:18:38:906,0,-5.43986,-2.34141,90.7562
2023-03-11 20:18:38:916,0,-5.46459,-2.33929,90.7693
2023-03-11 20:18:38:926,0,-5.48914,-2.33889,90.7799
2023-03-11 20:18:38:936,0,-5.51323,-2.33484,90.7897
2023-03-11 20:18:38:947,0,-5.53101,-2.32707,90.7979
2023-03-11 20:18:38:956,0,-5.55144,-2.32246,90.7995
2023-03-11 20:18:38:966,0,-5.57317,-2.31374,90.7955
2023-03-11 20:18:38:976,0,-5.59305,-2.30706,90.794
2023-03-11 20:18:38:986,0,-5.61623,-2.29902,90.7855
2023-03-11 20:18:38:997,0,-5.6386,-2.29043,90.774
2023-03-11 20:18:39:7,0,-5.66057,-2.28788,90.7622
2023-03-11 20:18:39:16,0,-5.68492,-2.28129,90.7541
2023-03-11 20:18:39:26,0,-5.7123,-2.27512,90.7485
2023-03-11 20:18:39:36,0,-5.7352,-2.26646,90.7431
2023-03-11 20:18:39:47,0,-5.75779,-2.25724,90.7339
2023-03-11 20:18:39:56,0,-5.77197,-2.24739,90.7213
2023-03-11 20:18:39:67,0,-5.79284,-2.24157,90.723
2023-03-11 20:18:39:76,0,-5.81097,-2.23458,90.7219
2023-03-11 20:18:39:87,0,-5.82171,-2.23013,90.7233
2023-03-11 20:18:39:97,0,-5.83064,-2.22345,90.7214
2023-03-11 20:18:39:107,0,-5.83647,-2.21394,90.7203
2023-03-11 20:18:39:116,0,-5.845,-2.20505,90.7182
2023-03-11 20:18:39:126,0,-5.84989,-2.1982,90.717
2023-03-11 20:18:39:136,0,-5.85195,-2.18989,90.7155
2023-03-11 20:18:39:146,0,-5.85502,-2.18277,90.717
2023-03-11 20:18:39:156,0,-5.86068,-2.17712,90.7163
2023-03-11 20:18:39:167,0,-5.86037,-2.17239,90.7149
2023-03-11 20:18:39:177,0,-5.86211,-2.16578,90.7148
2023-03-11 20:18:39:187,0,-5.86122,-2.16231,90.7129
2023-03-11 20:18:39:197,0,-5.86053,-2.16018,90.7072
2023-03-11 20:18:39:207,0,-5.85818,-2.16025,90.7011
2023-03-11 20:18:39:217,0,-5.8576,-2.16028,90.6983
2023-03-11 20:18:39:227,0,-5.85684,-2.162,90.6955
2023-03-11 20:18:39:237,0,-5.85691,-2.16377,90.6959
2023-03-11 20:18:39:246,0,-5.85965,-2.16642,90.6978
2023-03-11 20:18:39:256,0,-5.86374,-2.16777,90.6982
2023-03-11 20:18:39:267,0,-5.86824,-2.17103,90.7061
2023-03-11 20:18:39:276,0,-5.87395,-2.17457,90.713
2023-03-11 20:18:39:286,0,-5.87981,-2.17957,90.7243
2023-03-11 20:18:39:296,0,-5.88946,-2.18171,90.7326
2023-03-11 20:18:39:306,0,-5.89723,-2.18477,90.7397
2023-03-11 20:18:39:317,0,-5.90546,-2.18733,90.7429
2023-03-11 20:18:39:327,0,-5.91519,-2.18906,90.7467
2023-03-11 20:18:39:337,0,-5.92316,-2.19177,90.7454
2023-03-11 20:18:39:347,0,-5.93401,-2.19133,90.7413
2023-03-11 20:18:39:357,0,-5.94112,-2.18671,90.7376
2023-03-11 20:18:39:367,0,-5.9456,-2.18494,90.7326
2023-03-11 20:18:39:376,0,-5.95522,-2.1813,90.7258
2023-03-11 20:18:39:386,0,-5.95977,-2.17902,90.7177
2023-03-11 20:18:39:396,0,-5.96606,-2.17581,90.7094
2023-03-11 20:18:39:406,0,-5.97199,-2.17357,90.7016
2023-03-11 20:18:39:416,0,-5.97845,-2.16812,90.6944
2023-03-11 20:18:39:427,0,-5.98643,-2.167,90.6905
2023-03-11 20:18:39:436,0,-5.9954,-2.16424,90.6841
2023-03-11 20:18:39:447,0,-5.9946,-2.15918,90.6876
2023-03-11 20:18:39:457,0,-5.99667,-2.1546,90.6881
2023-03-11 20:18:39:467,0,-5.99168,-2.14666,90.6909
2023-03-11 20:18:39:477,0,-5.98756,-2.14047,90.6941
2023-03-11 20:18:39:487,0,-5.98148,-2.13263,90.6932
2023-03-11 20:18:39:497,0,-5.97812,-2.12425,90.692
2023-03-11 20:18:39:507,0,-5.9759,-2.11771,90.6903
2023-03-11 20:18:39:517,0,-5.97519,-2.10757,90.6856
2023-03-11 20:18:39:527,0,-5.97641,-2.1031,90.6822
2023-03-11 20:18:39:537,0,-5.97333,-2.10339,90.6748
2023-03-11 20:18:39:547,0,-5.97154,-2.1087,90.6714
2023-03-11 20:18:39:557,0,-5.97792,-2.11903,90.6663
2023-03-11 20:18:39:567,0,-5.97519,-2.13002,90.6649
2023-03-11 20:18:39:577,0,-5.98256,-2.14161,90.6707
2023-03-11 20:18:39:587,0,-5.99189,-2.15077,90.6773
2023-03-11 20:18:39:597,0,-6.00449,-2.15576,90.6872
2023-03-11 20:18:39:607,0,-6.01818,-2.16206,90.7012
2023-03-11 20:18:39:616,0,-6.03237,-2.16688,90.7156
2023-03-11 20:18:39:627,0,-6.0436,-2.17033,90.7326
2023-03-11 20:18:39:637,0,-6.04853,-2.17339,90.7478
2023-03-11 20:18:39:647,0,-6.051,-2.1736,90.7591
2023-03-11 20:18:39:657,0,-6.05376,-2.17311,90.7704
2023-03-11 20:18:39:667,0,-6.05525,-2.16987,90.776
2023-03-11 20:18:39:676,0,-6.06247,-2.16855,90.7774
2023-03-11 20:18:39:687,0,-6.06832,-2.16359,90.777
2023-03-11 20:18:39:697,0,-6.07702,-2.16032,90.7717
2023-03-11 20:18:39:707,0,-6.08761,-2.15798,90.7626
2023-03-11 20:18:39:717,0,-6.0978,-2.15052,90.7475
2023-03-11 20:18:39:727,0,-6.10612,-2.14635,90.7313
2023-03-11 20:18:39:737,0,-6.11512,-2.14257,90.7174
2023-03-11 20:18:39:746,0,-6.12039,-2.13811,90.7071
2023-03-11 20:18:39:757,0,-6.13025,-2.12913,90.6944
2023-03-11 20:18:39:766,0,-6.13155,-2.11743,90.6822
2023-03-11 20:18:39:776,0,-6.12995,-2.10965,90.6751
2023-03-11 20:18:39:786,0,-6.12569,-2.10392,90.672
2023-03-11 20:18:39:796,0,-6.11797,-2.10086,90.6732
2023-03-11 20:18:39:806,0,-6.11059,-2.0981,90.6745
2023-03-11 20:18:39:817,0,-6.10172,-2.09651,90.6736
2023-03-11 20:18:39:827,0,-6.08943,-2.09214,90.6785
2023-03-11 20:18:39:837,0,-6.08018,-2.08573,90.6805
2023-03-11 20:18:39:847,0,-6.07122,-2.08089,90.6801
2023-03-11 20:18:39:857,0,-6.06011,-2.0774,90.6811
2023-03-11 20:18:39:867,0,-6.05214,-2.0749,90.6787
2023-03-11 20:18:39:877,0,-6.04411,-2.07508,90.6798
2023-03-11 20:18:39:886,0,-6.03767,-2.0755,90.6808
2023-03-11 20:18:39:897,0,-6.02899,-2.07939,90.6783
2023-03-11 20:18:39:907,0,-6.02834,-2.08567,90.6774
2023-03-11 20:18:39:916,0,-6.02397,-2.08656,90.6773
2023-03-11 20:18:39:927,0,-6.02409,-2.09639,90.6807
2023-03-11 20:18:39:937,0,-6.02644,-2.10787,90.6847
2023-03-11 20:18:39:947,0,-6.02637,-2.11453,90.6902
2023-03-11 20:18:39:957,0,-6.0295,-2.12214,90.6977
2023-03-11 20:18:39:967,0,-6.03089,-2.13004,90.7047
2023-03-11 20:18:39:977,0,-6.0365,-2.13799,90.7126
2023-03-11 20:18:39:986,0,-6.04246,-2.14812,90.7227
2023-03-11 20:18:39:996,0,-6.04619,-2.15712,90.7369
2023-03-11 20:18:40:6,0,-6.05161,-2.16385,90.7498
2023-03-11 20:18:40:16,0,-6.05899,-2.1696,90.7589
2023-03-11 20:18:40:26,0,-6.06751,-2.17495,90.7702
2023-03-11 20:18:40:36,0,-6.07489,-2.17798,90.7774
2023-03-11 20:18:40:46,0,-6.08484,-2.17912,90.7809
2023-03-11 20:18:40:56,0,-6.09437,-2.17717,90.788
2023-03-11 20:18:40:66,0,-6.10549,-2.17223,90.7938
2023-03-11 20:18:40:77,0,-6.11319,-2.16526,90.801
2023-03-11 20:18:40:87,0,-6.12496,-2.15683,90.8045
2023-03-11 20:18:40:96,0,-6.13624,-2.15021,90.8078
2023-03-11 20:18:40:107,0,-6.14503,-2.14404,90.8105
2023-03-11 20:18:40:117,0,-6.15928,-2.14071,90.8135
2023-03-11 20:18:40:127,0,-6.17292,-2.13763,90.812
2023-03-11 20:18:40:136,0,-6.18132,-2.13192,90.8119
2023-03-11 20:18:40:147,0,-6.19042,-2.12568,90.8103
2023-03-11 20:18:40:157,0,-6.20082,-2.12322,90.8094
2023-03-11 20:18:40:167,0,-6.21044,-2.11738,90.8116
2023-03-11 20:18:40:176,0,-6.21786,-2.1133,90.8078
2023-03-11 20:18:40:187,0,-6.21969,-2.10751,90.8011
2023-03-11 20:18:40:196,0,-6.2202,-2.10206,90.7959
2023-03-11 20:18:40:207,0,-6.21801,-2.09978,90.7915
2023-03-11 20:18:40:217,0,-6.21371,-2.09237,90.7833
2023-03-11 20:18:40:227,0,-6.21074,-2.08443,90.7749
2023-03-11 20:18:40:237,0,-6.20732,-2.0748,90.7654
2023-03-11 20:18:40:246,0,-6.20697,-2.06368,90.7545
2023-03-11 20:18:40:256,0,-6.20938,-2.05465,90.7448
2023-03-11 20:18:40:266,0,-6.21334,-2.05152,90.734
2023-03-11 20:18:40:276,0,-6.21238,-2.05595,90.7248
2023-03-11 20:18:40:286,0,-6.21303,-2.06227,90.7231
2023-03-11 20:18:40:296,0,-6.21311,-2.06962,90.7206
2023-03-11 20:18:40:306,0,-6.21282,-2.07819,90.72
2023-03-11 20:18:40:316,0,-6.21654,-2.08318,90.7262
2023-03-11 20:18:40:326,0,-6.22002,-2.08477,90.7376
2023-03-11 20:18:40:336,0,-6.23077,-2.08875,90.7501
2023-03-11 20:18:40:346,0,-6.24122,-2.08735,90.7621
2023-03-11 20:18:40:356,0,-6.25378,-2.08933,90.774
2023-03-11 20:18:40:366,0,-6.25967,-2.08942,90.7865
2023-03-11 20:18:40:376,0,-6.2641,-2.08467,90.7967
2023-03-11 20:18:40:386,0,-6.26432,-2.07745,90.8021
2023-03-11 20:18:40:396,0,-6.26416,-2.07112,90.8025
2023-03-11 20:18:40:406,0,-6.26572,-2.06416,90.7966
