Timestamp_cmd,imu_cmd,roll_delta,pitch_delta,yaw_delta,voice_type,voice_length
2023-03-15 13:51:54:696,0,0.269911,-6.76777,61.9306,Q,Q
2023-03-15 13:51:54:699,0,0.199442,-6.74185,62.0081,Q,Q
2023-03-15 13:51:54:709,0,0.122086,-6.72365,62.086,Q,Q
2023-03-15 13:51:54:719,0,0.0376401,-6.7125,62.1694,Q,Q
2023-03-15 13:51:54:729,0,-0.0465427,-6.70893,62.258,Q,Q
2023-03-15 13:51:54:739,0,-0.137945,-6.71367,62.3455,Q,Q
2023-03-15 13:51:54:749,0,-0.22415,-6.72181,62.4332,Q,Q
2023-03-15 13:51:54:759,0,-0.299041,-6.73071,62.5167,Q,Q
2023-03-15 13:51:54:769,0,-0.355989,-6.73684,62.5901,Q,Q
2023-03-15 13:51:54:779,0,-0.396322,-6.73582,62.6554,Q,Q
2023-03-15 13:51:54:789,0,-0.427295,-6.71597,62.708,Q,Q
2023-03-15 13:51:54:799,0,-0.456073,-6.68144,62.7492,Q,Q
2023-03-15 13:51:54:809,0,-0.481946,-6.63189,62.776,Q,Q
2023-03-15 13:51:54:819,0,-0.508593,-6.56626,62.8004,Q,Q
2023-03-15 13:51:54:829,0,-0.536894,-6.49014,62.8225,Q,Q
2023-03-15 13:51:54:839,0,-0.564967,-6.40602,62.8441,Q,Q
2023-03-15 13:51:54:849,0,-0.589559,-6.30658,62.8622,Q,Q
2023-03-15 13:51:54:859,0,-0.61529,-6.19783,62.8824,Q,Q
2023-03-15 13:51:54:869,0,-0.650037,-6.07439,62.9062,Q,Q
2023-03-15 13:51:54:879,0,-0.697948,-5.9464,62.929,Q,Q
2023-03-15 13:51:54:889,0,-0.759715,-5.81053,62.9549,Q,Q
2023-03-15 13:51:54:899,0,-0.833933,-5.67609,62.9796,Q,Q
2023-03-15 13:51:54:909,0,-0.925442,-5.53901,63.0035,Q,Q
2023-03-15 13:51:54:919,0,-1.02101,-5.39823,63.0214,Q,Q
2023-03-15 13:51:54:929,0,-1.11963,-5.25696,63.0371,Q,Q
2023-03-15 13:51:54:939,0,-1.2228,-5.12003,63.0542,Q,Q
2023-03-15 13:51:54:949,0,-1.32418,-4.97922,63.0637,Q,Q
2023-03-15 13:51:54:959,0,-1.43106,-4.84397,63.0724,Q,Q
2023-03-15 13:51:54:969,0,-1.53371,-4.71337,63.0825,Q,Q
2023-03-15 13:51:54:979,0,-1.63313,-4.58423,63.0884,Q,Q
2023-03-15 13:51:54:989,0,-1.72721,-4.46128,63.0923,Q,Q
2023-03-15 13:51:54:999,0,-1.81746,-4.33909,63.0905,Q,Q
2023-03-15 13:51:55:9,0,-1.9056,-4.21739,63.0832,Q,Q
2023-03-15 13:51:55:19,0,-1.99632,-4.10373,63.0741,Q,Q
2023-03-15 13:51:55:29,0,-2.08048,-3.99968,63.0694,Q,Q
2023-03-15 13:51:55:39,0,-2.16846,-3.90624,63.0731,Q,Q
2023-03-15 13:51:55:49,0,-2.25467,-3.81987,63.0873,Q,Q
2023-03-15 13:51:55:59,0,-2.33464,-3.73389,63.1021,Q,Q
2023-03-15 13:51:55:69,0,-2.40675,-3.65278,63.1187,Q,Q
2023-03-15 13:51:55:79,0,-2.46737,-3.56806,63.1391,Q,Q
2023-03-15 13:51:55:89,0,-2.51847,-3.48769,63.1664,Q,Q
2023-03-15 13:51:55:99,0,-2.55755,-3.41272,63.2018,Q,Q
2023-03-15 13:51:55:109,0,-2.57866,-3.3469,63.2557,Q,Q
2023-03-15 13:51:55:119,0,-2.59839,-3.2825,63.3285,Q,Q
2023-03-15 13:51:55:129,0,-2.6158,-3.22383,63.4132,Q,Q
2023-03-15 13:51:55:139,0,-2.63332,-3.15716,63.4992,Q,Q
2023-03-15 13:51:55:149,0,-2.6538,-3.08897,63.5911,Q,Q
2023-03-15 13:51:55:159,0,-2.67578,-3.02123,63.677,Q,Q
2023-03-15 13:51:55:169,0,-2.70128,-2.95942,63.7577,Q,Q
2023-03-15 13:51:55:179,0,-2.72862,-2.90809,63.8363,Q,Q
2023-03-15 13:51:55:189,0,-2.75504,-2.86891,63.9098,Q,Q
2023-03-15 13:51:55:199,0,-2.79091,-2.84313,63.9797,Q,Q
2023-03-15 13:51:55:209,0,-2.83836,-2.8272,64.0363,Q,Q
2023-03-15 13:51:55:219,0,-2.89824,-2.82573,64.0942,Q,Q
2023-03-15 13:51:55:229,0,-2.9753,-2.83652,64.1449,Q,Q
2023-03-15 13:51:55:239,0,-3.05869,-2.86027,64.184,Q,Q
2023-03-15 13:51:55:249,0,-3.13754,-2.89793,64.2113,Q,Q
2023-03-15 13:51:55:259,0,-3.21897,-2.95768,64.2292,Q,Q
2023-03-15 13:51:55:269,0,-3.29225,-3.03717,64.2409,Q,Q
2023-03-15 13:51:55:279,0,-3.35701,-3.13463,64.245,Q,Q
2023-03-15 13:51:55:289,0,-3.41731,-3.24561,64.2415,Q,Q
2023-03-15 13:51:55:299,0,-3.47116,-3.36222,64.2241,Q,Q
2023-03-15 13:51:55:308,0,-3.51366,-3.47761,64.1935,Q,Q
2023-03-15 13:51:55:318,0,-3.55059,-3.58705,64.1583,Q,Q
2023-03-15 13:51:55:328,0,-3.57975,-3.69557,64.1165,Q,Q
2023-03-15 13:51:55:338,0,-3.60055,-3.7994,64.0817,Q,Q
2023-03-15 13:51:55:348,0,-3.61078,-3.90544,64.0525,Q,Q
2023-03-15 13:51:55:358,0,-3.61027,-4.01428,64.0338,Q,Q
2023-03-15 13:51:55:368,0,-3.60632,-4.1201,64.0245,Q,Q
2023-03-15 13:51:55:378,0,-3.60025,-4.22038,64.0278,Q,Q
2023-03-15 13:51:55:388,0,-3.59719,-4.31313,64.0339,Q,Q
2023-03-15 13:51:55:398,0,-3.58409,-4.39445,64.039,Q,Q
2023-03-15 13:51:55:409,0,-3.56416,-4.47322,64.0459,Q,Q
2023-03-15 13:51:55:418,0,-3.53513,-4.54651,64.0564,Q,Q
2023-03-15 13:51:55:429,0,-3.50726,-4.61898,64.068,Q,Q
2023-03-15 13:51:55:439,0,-3.47859,-4.6914,64.0812,Q,Q
2023-03-15 13:51:55:449,0,-3.45409,-4.76528,64.0984,Q,Q
2023-03-15 13:51:55:459,0,-3.4268,-4.84506,64.1177,Q,Q
2023-03-15 13:51:55:469,0,-3.39973,-4.92406,64.1422,Q,Q
2023-03-15 13:51:55:479,0,-3.372,-5.00085,64.1694,Q,Q
2023-03-15 13:51:55:489,0,-3.34535,-5.08021,64.1917,Q,Q
2023-03-15 13:51:55:499,0,-3.32121,-5.15456,64.2075,Q,Q
2023-03-15 13:51:55:509,0,-3.29078,-5.22432,64.218,Q,Q
2023-03-15 13:51:55:519,0,-3.26096,-5.2912,64.2211,Q,Q
2023-03-15 13:51:55:529,0,-3.23207,-5.35621,64.2179,Q,Q
2023-03-15 13:51:55:539,0,-3.20273,-5.42168,64.2093,Q,Q
2023-03-15 13:51:55:549,0,-3.17249,-5.48806,64.1925,Q,Q
2023-03-15 13:51:55:559,0,-3.14462,-5.55312,64.1663,Q,Q
2023-03-15 13:51:55:569,0,-3.10981,-5.61412,64.1343,Q,Q
2023-03-15 13:51:55:579,0,-3.07905,-5.67235,64.1007,Q,Q
2023-03-15 13:51:55:589,0,-3.04188,-5.72405,64.0649,Q,Q
2023-03-15 13:51:55:599,0,-3.00439,-5.77892,64.0244,Q,Q
2023-03-15 13:51:55:609,0,-2.97063,-5.83561,63.979,Q,Q
2023-03-15 13:51:55:619,0,-2.94043,-5.88536,63.9293,Q,Q
2023-03-15 13:51:55:629,0,-2.9075,-5.93232,63.8704,Q,Q
2023-03-15 13:51:55:639,0,-2.87983,-5.97454,63.8038,Q,Q
2023-03-15 13:51:55:649,0,-2.84996,-6.01698,63.7266,Q,Q
2023-03-15 13:51:55:659,0,-2.81395,-6.04838,63.6329,Q,Q
2023-03-15 13:51:55:669,0,-2.772,-6.07503,63.5219,Q,Q
2023-03-15 13:51:55:679,0,-2.72206,-6.09882,63.4017,Q,Q
2023-03-15 13:51:55:689,0,-2.66986,-6.12659,63.285,Q,Q
2023-03-15 13:51:55:699,0,-2.61775,-6.15631,63.163,Q,Q
2023-03-15 13:51:55:709,0,-2.56708,-6.18758,63.0353,Q,Q
2023-03-15 13:51:55:719,0,-2.51972,-6.22106,62.9005,Q,Q
2023-03-15 13:51:55:729,0,-2.4763,-6.2524,62.7406,Q,Q
2023-03-15 13:51:55:739,0,-2.43155,-6.27622,62.5365,Q,Q
2023-03-15 13:51:55:749,0,-2.37673,-6.30264,62.2723,Q,Q
2023-03-15 13:51:55:759,0,-2.3129,-6.34713,61.955,Q,Q
2023-03-15 13:51:55:769,0,-2.24673,-6.42252,61.5873,Q,Q
2023-03-15 13:51:55:779,0,-2.18158,-6.53129,61.134,Q,Q
2023-03-15 13:51:55:789,0,-2.1183,-6.66663,60.5442,Q,Q
2023-03-15 13:51:55:799,0,-2.04116,-6.81869,59.747,Q,Q
2023-03-15 13:51:55:809,0,-1.92793,-6.98308,58.6827,Q,Q
2023-03-15 13:51:55:819,0,-1.76921,-7.16267,57.3346,Q,Q
2023-03-15 13:51:55:829,0,-1.57323,-7.36656,55.7313,Q,Q
2023-03-15 13:51:55:839,0,-1.35145,-7.6275,53.9218,Q,Q
2023-03-15 13:51:55:849,0,-1.13202,-7.9564,51.9147,Q,Q
2023-03-15 13:51:55:859,0,-0.926922,-8.33164,49.6715,Q,Q
2023-03-15 13:51:55:869,0,-0.72262,-8.72909,47.1309,Q,Q
2023-03-15 13:51:55:879,0,-0.500738,-9.12253,44.2414,Q,Q
2023-03-15 13:51:55:889,0,-0.24078,-9.48656,40.9931,Q,Q
2023-03-15 13:51:55:899,0,0.0702853,-9.8218,37.451,Q,Q
2023-03-15 13:51:55:909,0,0.434934,-10.1314,33.7051,Q,Q
2023-03-15 13:51:55:919,0,0.824037,-10.4274,29.8575,Q,Q
2023-03-15 13:51:55:929,0,1.22245,-10.7258,25.9727,Q,Q
2023-03-15 13:51:55:939,0,1.6046,-11.039,22.0763,Q,Q
2023-03-15 13:51:55:949,0,1.96728,-11.3324,18.1319,Q,Q
2023-03-15 13:51:55:959,0,2.31821,-11.551,14.098,Q,Q
2023-03-15 13:51:55:969,0,2.66989,-11.6502,9.99521,Q,Q
2023-03-15 13:51:55:979,0,3.02688,-11.6291,5.88864,Q,Q
2023-03-15 13:51:55:989,0,3.38745,-11.5253,1.84057,Q,Q
2023-03-15 13:51:55:999,0,3.74162,-11.3807,-2.09671,Q,Q
2023-03-15 13:51:56:9,0,4.07548,-11.2286,-5.88065,Q,Q
2023-03-15 13:51:56:19,0,4.37097,-11.0853,-9.49114,Q,Q
2023-03-15 13:51:56:29,0,4.62342,-10.9416,-12.9249,Q,Q
2023-03-15 13:51:56:39,0,4.82824,-10.789,-16.1826,Q,Q
2023-03-15 13:51:56:49,0,4.98732,-10.6202,-19.2581,Q,Q
2023-03-15 13:51:56:59,0,5.10104,-10.4429,-22.1389,Q,Q
2023-03-15 13:51:56:69,0,5.17539,-10.2669,-24.8243,Q,Q
2023-03-15 13:51:56:79,0,5.22496,-10.1023,-27.3022,Q,Q
2023-03-15 13:51:56:89,0,5.25853,-9.94847,-29.5813,Q,Q
2023-03-15 13:51:56:99,0,5.27326,-9.80741,-31.6591,Q,Q
2023-03-15 13:51:56:109,0,5.26747,-9.67784,-33.5552,Q,Q
2023-03-15 13:51:56:119,0,5.23839,-9.53864,-35.2786,Q,Q
2023-03-15 13:51:56:129,0,5.19819,-9.38715,-36.8379,Q,Q
2023-03-15 13:51:56:139,0,5.15014,-9.23057,-38.2332,Q,Q
2023-03-15 13:51:56:149,0,5.09387,-9.08263,-39.4738,Q,Q
2023-03-15 13:51:56:159,0,5.02232,-8.94372,-40.5712,Q,Q
2023-03-15 13:51:56:169,0,4.93955,-8.81212,-41.5424,Q,Q
2023-03-15 13:51:56:179,0,4.84788,-8.67702,-42.4069,Q,Q
2023-03-15 13:51:56:189,0,4.75079,-8.52888,-43.1646,Q,Q
2023-03-15 13:51:56:199,0,4.66885,-8.37844,-43.8128,Q,Q
2023-03-15 13:51:56:209,0,4.58355,-8.23231,-44.3462,Q,Q
2023-03-15 13:51:56:219,0,4.49538,-8.10632,-44.7657,Q,Q
2023-03-15 13:51:56:229,0,4.38979,-8.00748,-45.0865,Q,Q
2023-03-15 13:51:56:239,0,4.28076,-7.92339,-45.3138,Q,Q
2023-03-15 13:51:56:249,0,4.18246,-7.85475,-45.4631,Q,Q
2023-03-15 13:51:56:259,0,4.09052,-7.79559,-45.5391,Q,Q
2023-03-15 13:51:56:269,0,4.0076,-7.73296,-45.5538,Q,Q
2023-03-15 13:51:56:279,0,3.93633,-7.66984,-45.5132,Q,Q
2023-03-15 13:51:56:289,0,3.87424,-7.60756,-45.4025,Q,Q
2023-03-15 13:51:56:299,0,3.81807,-7.56355,-45.2093,Q,Q
2023-03-15 13:51:56:309,0,3.76583,-7.54789,-44.941,Q,Q
2023-03-15 13:51:56:319,0,3.71088,-7.54659,-44.606,Q,Q
2023-03-15 13:51:56:329,0,3.65497,-7.54958,-44.178,Q,Q
2023-03-15 13:51:56:339,0,3.60331,-7.56467,-43.6216,Q,Q
2023-03-15 13:51:56:349,0,3.56063,-7.5845,-42.9185,Q,Q
2023-03-15 13:51:56:359,0,3.52672,-7.60079,-42.0563,Q,Q
2023-03-15 13:51:56:369,0,3.48954,-7.60702,-41.0339,Q,Q
2023-03-15 13:51:56:379,0,3.42999,-7.63738,-39.8464,Q,Q
2023-03-15 13:51:56:389,0,3.32951,-7.59058,-38.4394,Q,Q
2023-03-15 13:51:56:399,0,3.2077,-7.53781,-36.8106,Q,Q
2023-03-15 13:51:56:409,0,3.05542,-7.51825,-34.887,Q,Q
2023-03-15 13:51:56:419,0,2.84859,-7.47543,-32.7021,Q,Q
2023-03-15 13:51:56:429,0,2.59672,-7.43171,-30.3188,Q,Q
2023-03-15 13:51:56:439,0,2.31142,-7.35862,-27.767,Q,Q
2023-03-15 13:51:56:449,0,2.00986,-7.24453,-25.0719,Q,Q
2023-03-15 13:51:56:459,0,1.72578,-7.09587,-22.2686,Q,Q
2023-03-15 13:51:56:469,0,1.47154,-6.92377,-19.3836,Q,Q
2023-03-15 13:51:56:479,0,1.25579,-6.72437,-16.4442,Q,Q
2023-03-15 13:51:56:489,0,1.08657,-6.49443,-13.4789,Q,Q
2023-03-15 13:51:56:499,0,0.960904,-6.25418,-10.5063,Q,Q
2023-03-15 13:51:56:509,0,0.862244,-6.02374,-7.54913,Q,Q
2023-03-15 13:51:56:519,0,0.785274,-5.8271,-4.63564,Q,Q
2023-03-15 13:51:56:529,0,0.730448,-5.66626,-1.80463,Q,Q
2023-03-15 13:51:56:539,0,0.718228,-5.52894,0.894152,Q,Q
2023-03-15 13:51:56:549,0,0.754422,-5.39821,3.42123,Q,Q
2023-03-15 13:51:56:559,0,0.829347,-5.25742,5.77388,Q,Q
2023-03-15 13:51:56:569,0,0.933358,-5.0926,7.94684,Q,Q
2023-03-15 13:51:56:579,0,1.04903,-4.91998,9.95542,Q,Q
2023-03-15 13:51:56:589,0,1.1684,-4.75901,11.8151,Q,Q
2023-03-15 13:51:56:599,0,1.27316,-4.62752,13.5461,Q,Q
2023-03-15 13:51:56:609,0,1.36478,-4.52819,15.1454,Q,Q
2023-03-15 13:51:56:619,0,1.44622,-4.45413,16.6037,Q,Q
2023-03-15 13:51:56:629,0,1.51864,-4.38887,17.936,Q,Q
2023-03-15 13:51:56:639,0,1.58415,-4.33351,19.1584,Q,Q
2023-03-15 13:51:56:649,0,1.64209,-4.27869,20.2971,Q,Q
2023-03-15 13:51:56:659,0,1.68724,-4.27702,21.4012,Q,Q
2023-03-15 13:51:56:669,0,1.69942,-4.34637,22.5548,Q,Q
2023-03-15 13:51:56:679,0,1.71335,-4.37914,23.9002,Q,Q
2023-03-15 13:51:56:689,0,1.79966,-4.40127,25.3782,Q,Q
2023-03-15 13:51:56:699,0,1.93831,-4.4628,26.9008,Q,Q
2023-03-15 13:51:56:709,0,2.07661,-4.50974,28.4467,Q,Q
2023-03-15 13:51:56:719,0,2.1956,-4.50324,30.0422,Q,Q
2023-03-15 13:51:56:729,0,2.28803,-4.46912,31.7125,Q,Q
2023-03-15 13:51:56:739,0,2.38179,-4.41866,33.4907,Q,Q
2023-03-15 13:51:56:749,0,2.49203,-4.36562,35.3579,Q,Q
2023-03-15 13:51:56:759,0,2.60093,-4.33191,37.2892,Q,Q
2023-03-15 13:51:56:769,0,2.68602,-4.30733,39.2527,Q,Q
2023-03-15 13:51:56:779,0,2.72333,-4.2497,41.213,Q,Q
2023-03-15 13:51:56:789,0,2.73514,-4.15434,43.1572,Q,Q
2023-03-15 13:51:56:798,0,2.73791,-4.0378,45.0704,Q,Q
2023-03-15 13:51:56:808,0,2.75104,-3.93013,46.9511,Q,Q
2023-03-15 13:51:56:818,0,2.78554,-3.83754,48.7983,Q,Q
2023-03-15 13:51:56:828,0,2.83164,-3.73856,50.5799,Q,Q
2023-03-15 13:51:56:838,0,2.87637,-3.63302,52.2777,Q,Q
2023-03-15 13:51:56:848,0,2.91653,-3.53021,53.8849,Q,Q
2023-03-15 13:51:56:858,0,2.94089,-3.44087,55.4056,Q,Q
2023-03-15 13:51:56:868,0,2.95138,-3.3663,56.8368,Q,Q
2023-03-15 13:51:56:878,0,2.94654,-3.30305,58.1641,Q,Q
2023-03-15 13:51:56:888,0,2.9203,-3.2617,59.3766,Q,Q
2023-03-15 13:51:56:898,0,2.87894,-3.22115,60.4981,Q,Q
2023-03-15 13:51:56:908,0,2.83311,-3.1985,61.5227,Q,Q
2023-03-15 13:51:56:918,0,2.77029,-3.18536,62.4618,Q,Q
2023-03-15 13:51:56:929,0,2.68911,-3.19071,63.303,Q,Q
2023-03-15 13:51:56:938,0,2.58781,-3.20655,64.0574,Q,Q
2023-03-15 13:51:56:948,0,2.46828,-3.22769,64.7331,Q,Q
2023-03-15 13:51:56:958,0,2.33659,-3.25838,65.3316,Q,Q
2023-03-15 13:51:56:968,0,2.2006,-3.30914,65.8646,Q,Q
2023-03-15 13:51:56:978,0,2.0626,-3.36535,66.3413,Q,Q
2023-03-15 13:51:56:988,0,1.92419,-3.42693,66.7675,Q,Q
2023-03-15 13:51:56:998,0,1.79748,-3.49234,67.1438,Q,Q
2023-03-15 13:51:57:8,0,1.68085,-3.55632,67.4671,Q,Q
2023-03-15 13:51:57:18,0,1.5685,-3.62262,67.7439,Q,Q
2023-03-15 13:51:57:28,0,1.45606,-3.69822,67.9855,Q,Q
2023-03-15 13:51:57:38,0,1.34934,-3.78138,68.1919,Q,Q
2023-03-15 13:51:57:48,0,1.24724,-3.86972,68.3738,Q,Q
2023-03-15 13:51:57:58,0,1.15929,-3.95282,68.5312,Q,Q
2023-03-15 13:51:57:68,0,1.08348,-4.03061,68.6688,Q,Q
2023-03-15 13:51:57:78,0,1.0224,-4.11257,68.7976,Q,Q
2023-03-15 13:51:57:88,0,0.972611,-4.19579,68.923,Q,Q
2023-03-15 13:51:57:98,0,0.931589,-4.27393,69.0427,Q,Q
2023-03-15 13:51:57:108,0,0.894466,-4.34259,69.1568,Q,Q
2023-03-15 13:51:57:118,0,0.861664,-4.3954,69.2624,Q,Q
2023-03-15 13:51:57:128,0,0.832695,-4.43605,69.3643,Q,Q
2023-03-15 13:51:57:138,0,0.802561,-4.46382,69.4643,Q,Q
2023-03-15 13:51:57:148,0,0.775394,-4.47708,69.5609,Q,Q
2023-03-15 13:51:57:158,0,0.74988,-4.48259,69.6585,Q,Q
2023-03-15 13:51:57:169,0,0.720997,-4.48297,69.762,Q,Q
2023-03-15 13:51:57:178,0,0.689663,-4.48961,69.8732,Q,Q
2023-03-15 13:51:57:188,0,0.651903,-4.49595,69.9825,Q,Q
2023-03-15 13:51:57:198,0,0.605379,-4.4967,70.091,Q,Q
2023-03-15 13:51:57:208,0,0.553811,-4.49303,70.1925,Q,Q
2023-03-15 13:51:57:218,0,0.504664,-4.48868,70.2917,Q,Q
2023-03-15 13:51:57:228,0,0.458867,-4.48496,70.391,Q,Q
2023-03-15 13:51:57:238,0,0.420206,-4.48764,70.495,Q,Q
2023-03-15 13:51:57:248,0,0.378233,-4.49915,70.6038,Q,Q
2023-03-15 13:51:57:258,0,0.331488,-4.51448,70.7181,Q,Q
2023-03-15 13:51:57:269,0,0.278481,-4.53313,70.8327,Q,Q
2023-03-15 13:51:57:278,0,0.221005,-4.54867,70.9386,Q,Q
2023-03-15 13:51:57:288,0,0.162761,-4.55952,71.037,Q,Q
2023-03-15 13:51:57:298,0,0.106427,-4.56955,71.1284,Q,Q
2023-03-15 13:51:57:308,0,0.0572216,-4.57416,71.2156,Q,Q
2023-03-15 13:51:57:318,0,0.0162462,-4.57738,71.3079,Q,Q
2023-03-15 13:51:57:329,0,-0.0185544,-4.57831,71.4033,Q,Q
2023-03-15 13:51:57:338,0,-0.0547381,-4.58047,71.4986,Q,Q
2023-03-15 13:51:57:349,0,-0.0893258,-4.57653,71.5909,Q,Q
2023-03-15 13:51:57:358,0,-0.127987,-4.56793,71.68,Q,Q
2023-03-15 13:51:57:369,0,-0.164384,-4.5529,71.7622,Q,Q
2023-03-15 13:51:57:378,0,-0.198901,-4.53607,71.8376,Q,Q
2023-03-15 13:51:57:388,0,-0.233587,-4.52415,71.909,Q,Q
2023-03-15 13:51:57:398,0,-0.266729,-4.51705,71.9815,Q,Q
2023-03-15 13:51:57:408,0,-0.296718,-4.50962,72.05,Q,Q
2023-03-15 13:51:57:418,0,-0.326629,-4.50324,72.1104,Q,Q
2023-03-15 13:51:57:428,0,-0.353069,-4.48707,72.1642,Q,Q
2023-03-15 13:51:57:438,0,-0.380043,-4.47174,72.2097,Q,Q
2023-03-15 13:51:57:448,0,-0.410078,-4.45795,72.2489,Q,Q
2023-03-15 13:51:57:458,0,-0.440705,-4.45084,72.2924,Q,Q
2023-03-15 13:51:57:468,0,-0.473927,-4.44433,72.325,Q,Q
2023-03-15 13:51:57:478,0,-0.506827,-4.4398,72.3508,Q,Q
2023-03-15 13:51:57:488,0,-0.538846,-4.43163,72.371,Q,Q
2023-03-15 13:51:57:498,0,-0.576535,-4.42133,72.3908,Q,Q
2023-03-15 13:51:57:508,0,-0.612541,-4.40702,72.4111,Q,Q
2023-03-15 13:51:57:518,0,-0.643389,-4.391,72.4376,Q,Q
2023-03-15 13:51:57:528,0,-0.66612,-4.36557,72.4636,Q,Q
2023-03-15 13:51:57:538,0,-0.683666,-4.33506,72.4846,Q,Q
2023-03-15 13:51:57:548,0,-0.693474,-4.30298,72.508,Q,Q
2023-03-15 13:51:57:558,0,-0.704838,-4.27014,72.5233,Q,Q
2023-03-15 13:51:57:569,0,-0.716014,-4.23056,72.5366,Q,Q
2023-03-15 13:51:57:579,0,-0.720144,-4.19503,72.5425,Q,Q
2023-03-15 13:51:57:588,0,-0.723204,-4.16658,72.5461,Q,Q
2023-03-15 13:51:57:599,0,-0.724913,-4.13779,72.5449,Q,Q
2023-03-15 13:51:57:608,0,-0.721844,-4.11255,72.5412,Q,Q
2023-03-15 13:51:57:618,0,-0.716497,-4.09021,72.5378,Q,Q
2023-03-15 13:51:57:629,0,-0.708384,-4.07544,72.5312,Q,Q
2023-03-15 13:51:57:638,0,-0.70748,-4.06382,72.5203,Q,Q
2023-03-15 13:51:57:649,0,-0.708239,-4.04942,72.5056,Q,Q
2023-03-15 13:51:57:659,0,-0.713897,-4.03308,72.4882,Q,Q
2023-03-15 13:51:57:669,0,-0.7128,-4.01731,72.4691,Q,Q
2023-03-15 13:51:57:679,0,-0.71872,-4.00524,72.4495,Q,Q
2023-03-15 13:51:57:689,0,-0.733055,-3.98931,72.4254,Q,Q
2023-03-15 13:51:57:699,0,-0.746567,-3.9717,72.3976,Q,Q
2023-03-15 13:51:57:709,0,-0.759918,-3.95854,72.3719,Q,Q
2023-03-15 13:51:57:719,0,-0.769013,-3.94578,72.3446,Q,Q
2023-03-15 13:51:57:729,0,-0.785662,-3.93874,72.3214,Q,Q
2023-03-15 13:51:57:739,0,-0.800441,-3.93131,72.3062,Q,Q
2023-03-15 13:51:57:749,0,-0.816087,-3.92744,72.293,Q,Q
2023-03-15 13:51:57:759,0,-0.836547,-3.92528,72.2828,Q,Q
2023-03-15 13:51:57:769,0,-0.851394,-3.92391,72.2662,Q,Q
2023-03-15 13:51:57:779,0,-0.869619,-3.92277,72.2486,Q,Q
2023-03-15 13:51:57:789,0,-0.886905,-3.92408,72.2319,Q,Q
2023-03-15 13:51:57:799,0,-0.905212,-3.93104,72.2141,Q,Q
2023-03-15 13:51:57:809,0,-0.920703,-3.94236,72.2059,Q,Q
2023-03-15 13:51:57:819,0,-0.932931,-3.95746,72.2043,Q,Q
2023-03-15 13:51:57:829,0,-0.945441,-3.97056,72.2033,Q,Q
2023-03-15 13:51:57:839,0,-0.957943,-3.98711,72.2081,Q,Q
2023-03-15 13:51:57:849,0,-0.973262,-4.00497,72.2178,Q,Q
2023-03-15 13:51:57:859,0,-0.992214,-4.02683,72.2245,Q,Q
2023-03-15 13:51:57:869,0,-1.01105,-4.04461,72.2284,Q,Q
2023-03-15 13:51:57:879,0,-1.03047,-4.06687,72.2276,Q,Q
2023-03-15 13:51:57:889,0,-1.04413,-4.09119,72.2188,Q,Q
2023-03-15 13:51:57:899,0,-1.05553,-4.11603,72.2074,Q,Q
2023-03-15 13:51:57:909,0,-1.06017,-4.14069,72.1959,Q,Q
2023-03-15 13:51:57:919,0,-1.06127,-4.16642,72.1844,Q,Q
2023-03-15 13:51:57:929,0,-1.0529,-4.18858,72.1731,Q,Q
2023-03-15 13:51:57:939,0,-1.04274,-4.21024,72.1633,Q,Q
2023-03-15 13:51:57:949,0,-1.03153,-4.23106,72.1545,Q,Q
2023-03-15 13:51:57:959,0,-1.02051,-4.24571,72.1413,Q,Q
2023-03-15 13:51:57:969,0,-1.00966,-4.25794,72.1271,Q,Q
2023-03-15 13:51:57:979,0,-1.00199,-4.26988,72.1143,Q,Q
2023-03-15 13:51:57:989,0,-0.994016,-4.28857,72.1003,Q,Q
2023-03-15 13:51:57:999,0,-0.984324,-4.30842,72.088,Q,Q
2023-03-15 13:51:58:9,0,-0.969816,-4.32397,72.0661,Q,Q
2023-03-15 13:51:58:19,0,-0.955743,-4.33928,72.0397,Q,Q
2023-03-15 13:51:58:29,0,-0.942207,-4.35502,72.0135,Q,Q
2023-03-15 13:51:58:39,0,-0.926117,-4.36904,71.9893,Q,Q
2023-03-15 13:51:58:49,0,-0.908943,-4.38445,71.9628,Q,Q
2023-03-15 13:51:58:59,0,-0.895403,-4.39609,71.9378,Q,Q
2023-03-15 13:51:58:69,0,-0.877469,-4.40853,71.9026,Q,Q
2023-03-15 13:51:58:79,0,-0.860922,-4.41979,71.8692,Q,Q
2023-03-15 13:51:58:89,0,-0.842737,-4.43342,71.8338,Q,Q
2023-03-15 13:51:58:99,0,-0.824143,-4.44623,71.8011,Q,Q
2023-03-15 13:51:58:109,0,-0.805258,-4.45988,71.7696,Q,Q
2023-03-15 13:51:58:119,0,-0.785451,-4.47342,71.7403,Q,Q
2023-03-15 13:51:58:129,0,-0.761604,-4.48517,71.7074,Q,Q
2023-03-15 13:51:58:139,0,-0.739738,-4.49519,71.6798,Q,Q
2023-03-15 13:51:58:149,0,-0.719275,-4.50853,71.6517,Q,Q
2023-03-15 13:51:58:159,0,-0.695209,-4.52254,71.6307,Q,Q
2023-03-15 13:51:58:169,0,-0.672443,-4.53035,71.6045,Q,Q
2023-03-15 13:51:58:179,0,-0.651976,-4.54224,71.5807,Q,Q
2023-03-15 13:51:58:189,0,-0.624974,-4.54973,71.5532,Q,Q
2023-03-15 13:51:58:199,0,-0.594819,-4.5596,71.5199,Q,Q
2023-03-15 13:51:58:209,0,-0.564992,-4.5746,71.4883,Q,Q
2023-03-15 13:51:58:219,0,-0.533711,-4.59694,71.4579,Q,Q
2023-03-15 13:51:58:229,0,-0.504727,-4.62422,71.4225,Q,Q
2023-03-15 13:51:58:239,0,-0.482109,-4.65736,71.3719,Q,Q
2023-03-15 13:51:58:249,0,-0.45807,-4.69551,71.2998,Q,Q
2023-03-15 13:51:58:259,0,-0.429676,-4.74286,71.197,Q,Q
2023-03-15 13:51:58:269,0,-0.394365,-4.79395,71.0553,Q,Q
2023-03-15 13:51:58:279,0,-0.354355,-4.8497,70.8637,Q,Q
2023-03-15 13:51:58:289,0,-0.311247,-4.91942,70.6135,Q,Q
2023-03-15 13:51:58:299,0,-0.265192,-5.00496,70.2861,Q,Q
2023-03-15 13:51:58:309,0,-0.213627,-5.09996,69.8453,Q,Q
2023-03-15 13:51:58:319,0,-0.156364,-5.20662,69.266,Q,Q
2023-03-15 13:51:58:329,0,-0.0796619,-5.32154,68.5274,Q,Q
2023-03-15 13:51:58:339,0,0.00259516,-5.45193,67.6216,Q,Q
2023-03-15 13:51:58:349,0,0.0843376,-5.60501,66.5547,Q,Q
2023-03-15 13:51:58:359,0,0.157572,-5.78775,65.3307,Q,Q
2023-03-15 13:51:58:369,0,0.217171,-5.99455,63.9551,Q,Q
2023-03-15 13:51:58:379,0,0.265961,-6.22526,62.4303,Q,Q
2023-03-15 13:51:58:389,0,0.306039,-6.47444,60.7703,Q,Q
2023-03-15 13:51:58:399,0,0.350311,-6.74445,58.9903,Q,Q
2023-03-15 13:51:58:409,0,0.404442,-7.03228,57.1119,Q,Q
2023-03-15 13:51:58:419,0,0.473016,-7.32455,55.1438,Q,Q
2023-03-15 13:51:58:429,0,0.562991,-7.6241,53.1055,Q,Q
2023-03-15 13:51:58:439,0,0.676983,-7.91725,51.0295,Q,Q
2023-03-15 13:51:58:449,0,0.815918,-8.20786,48.94,Q,Q
2023-03-15 13:51:58:459,0,0.971423,-8.48509,46.8454,Q,Q
2023-03-15 13:51:58:468,0,1.13592,-8.73922,44.7537,Q,Q
2023-03-15 13:51:58:478,0,1.31205,-8.96465,42.689,Q,Q
2023-03-15 13:51:58:488,0,1.50959,-9.15935,40.683,Q,Q
2023-03-15 13:51:58:498,0,1.72276,-9.32788,38.7608,Q,Q
2023-03-15 13:51:58:508,0,1.95421,-9.47386,36.9501,Q,Q
2023-03-15 13:51:58:518,0,2.19027,-9.60527,35.2799,Q,Q
2023-03-15 13:51:58:528,0,2.419,-9.72982,33.7704,Q,Q
2023-03-15 13:51:58:538,0,2.62674,-9.83202,32.4036,Q,Q
2023-03-15 13:51:58:549,0,2.80602,-9.89057,31.1446,Q,Q
2023-03-15 13:51:58:559,0,2.96082,-9.88385,29.9594,Q,Q
2023-03-15 13:51:58:569,0,3.0947,-9.81368,28.8469,Q,Q
2023-03-15 13:51:58:579,0,3.21674,-9.69849,27.7985,Q,Q
2023-03-15 13:51:58:589,0,3.3248,-9.55593,26.823,Q,Q
2023-03-15 13:51:58:599,0,3.42966,-9.41306,25.9272,Q,Q
2023-03-15 13:51:58:609,0,3.53296,-9.28218,25.1189,Q,Q
2023-03-15 13:51:58:619,0,3.62583,-9.16398,24.3982,Q,Q
2023-03-15 13:51:58:629,0,3.70832,-9.05374,23.7454,Q,Q
2023-03-15 13:51:58:639,0,3.78134,-8.9413,23.1516,Q,Q
2023-03-15 13:51:58:649,0,3.84984,-8.82031,22.61,Q,Q
2023-03-15 13:51:58:659,0,3.92172,-8.69207,22.118,Q,Q
2023-03-15 13:51:58:669,0,3.99357,-8.5624,21.6645,Q,Q
2023-03-15 13:51:58:679,0,4.05945,-8.41604,21.244,Q,Q
2023-03-15 13:51:58:689,0,4.12111,-8.24305,20.8412,Q,Q
2023-03-15 13:51:58:699,0,4.18438,-8.03322,20.444,Q,Q
2023-03-15 13:51:58:709,0,4.24871,-7.79771,20.0578,Q,Q
2023-03-15 13:51:58:719,0,4.3025,-7.53785,19.6876,Q,Q
2023-03-15 13:51:58:729,0,4.33312,-7.27404,19.3432,Q,Q
2023-03-15 13:51:58:739,0,4.34612,-7.01821,19.0301,Q,Q
2023-03-15 13:51:58:749,0,4.33295,-6.78917,18.7528,Q,Q
2023-03-15 13:51:58:759,0,4.30429,-6.59418,18.5218,Q,Q
2023-03-15 13:51:58:769,0,4.2627,-6.44962,18.3397,Q,Q
2023-03-15 13:51:58:779,0,4.21249,-6.36399,18.2089,Q,Q
2023-03-15 13:51:58:789,0,4.14375,-6.3435,18.1281,Q,Q
2023-03-15 13:51:58:799,0,4.05767,-6.37609,18.0992,Q,Q
2023-03-15 13:51:58:809,0,3.95945,-6.458,18.1062,Q,Q
2023-03-15 13:51:58:819,0,3.84878,-6.58187,18.1419,Q,Q
2023-03-15 13:51:58:829,0,3.74624,-6.72556,18.1941,Q,Q
2023-03-15 13:51:58:839,0,3.65577,-6.87909,18.2593,Q,Q
2023-03-15 13:51:58:849,0,3.57535,-7.03373,18.3268,Q,Q
2023-03-15 13:51:58:859,0,3.50672,-7.1848,18.3942,Q,Q
2023-03-15 13:51:58:869,0,3.45009,-7.33259,18.4538,Q,Q
2023-03-15 13:51:58:879,0,3.39906,-7.48033,18.5012,Q,Q
2023-03-15 13:51:58:889,0,3.35099,-7.61882,18.5313,Q,Q
2023-03-15 13:51:58:899,0,3.31268,-7.74118,18.5467,Q,Q
2023-03-15 13:51:58:909,0,3.29066,-7.85915,18.5377,Q,Q
2023-03-15 13:51:58:919,0,3.28051,-7.96263,18.5109,Q,Q
2023-03-15 13:51:58:929,0,3.27694,-8.06113,18.4741,Q,Q
2023-03-15 13:51:58:939,0,3.27475,-8.15174,18.431,Q,Q
2023-03-15 13:51:58:949,0,3.2688,-8.23201,18.3795,Q,Q
2023-03-15 13:51:58:959,0,3.25696,-8.29728,18.3113,Q,Q
2023-03-15 13:51:58:969,0,3.24503,-8.34959,18.2284,Q,Q
2023-03-15 13:51:58:979,0,3.23319,-8.37952,18.1378,Q,Q
2023-03-15 13:51:58:989,0,3.21852,-8.39592,18.0419,Q,Q
2023-03-15 13:51:58:999,0,3.2112,-8.4089,17.9377,Q,Q
2023-03-15 13:51:59:9,0,3.20193,-8.41425,17.8294,Q,Q
2023-03-15 13:51:59:19,0,3.19147,-8.41208,17.7178,Q,Q
2023-03-15 13:51:59:29,0,3.19154,-8.39097,17.5903,Q,Q
2023-03-15 13:51:59:39,0,3.20433,-8.35441,17.4484,Q,Q
2023-03-15 13:51:59:49,0,3.23152,-8.29579,17.2912,Q,Q
2023-03-15 13:51:59:59,0,3.26698,-8.22035,17.1205,Q,Q
2023-03-15 13:51:59:69,0,3.30887,-8.12813,16.9337,Q,Q
2023-03-15 13:51:59:79,0,3.35532,-8.02563,16.7343,Q,Q
2023-03-15 13:51:59:89,0,3.40936,-7.91132,16.5282,Q,Q
2023-03-15 13:51:59:99,0,3.46339,-7.79305,16.3133,Q,Q
2023-03-15 13:51:59:109,0,3.52034,-7.67773,16.0924,Q,Q
2023-03-15 13:51:59:119,0,3.58044,-7.56909,15.8734,Q,Q
2023-03-15 13:51:59:129,0,3.63735,-7.46846,15.6589,Q,Q
2023-03-15 13:51:59:139,0,3.70235,-7.37562,15.4555,Q,Q
2023-03-15 13:51:59:149,0,3.76789,-7.29958,15.26,Q,Q
2023-03-15 13:51:59:159,0,3.83064,-7.23471,15.069,Q,Q
2023-03-15 13:51:59:169,0,3.89083,-7.17886,14.8799,Q,Q
2023-03-15 13:51:59:179,0,3.95061,-7.13085,14.6868,Q,Q
2023-03-15 13:51:59:189,0,4.0134,-7.08486,14.4909,Q,Q
2023-03-15 13:51:59:199,0,4.07298,-7.04161,14.289,Q,Q
2023-03-15 13:51:59:209,0,4.12557,-7.0027,14.0842,Q,Q
2023-03-15 13:51:59:219,0,4.16541,-6.97733,13.871,Q,Q
2023-03-15 13:51:59:229,0,4.19584,-6.96425,13.6636,Q,Q
2023-03-15 13:51:59:239,0,4.20694,-6.96924,13.463,Q,Q
2023-03-15 13:51:59:249,0,4.19975,-6.98655,13.267,Q,Q
2023-03-15 13:51:59:259,0,4.18334,-7.00969,13.0677,Q,Q
2023-03-15 13:51:59:269,0,4.15488,-7.0308,12.8607,Q,Q
2023-03-15 13:51:59:279,0,4.11736,-7.05776,12.6527,Q,Q
2023-03-15 13:51:59:289,0,4.063,-7.09062,12.4559,Q,Q
2023-03-15 13:51:59:299,0,3.99626,-7.12414,12.2762,Q,Q
2023-03-15 13:51:59:309,0,3.91578,-7.15974,12.1163,Q,Q
2023-03-15 13:51:59:319,0,3.81521,-7.21145,11.9943,Q,Q
2023-03-15 13:51:59:329,0,3.68438,-7.28437,11.9363,Q,Q
2023-03-15 13:51:59:339,0,3.52198,-7.35993,11.9525,Q,Q
2023-03-15 13:51:59:349,0,3.33631,-7.43229,12.0421,Q,Q
2023-03-15 13:51:59:359,0,3.12996,-7.49177,12.2083,Q,Q
2023-03-15 13:51:59:369,0,2.90861,-7.52475,12.4512,Q,Q
2023-03-15 13:51:59:379,0,2.68381,-7.52339,12.7874,Q,Q
2023-03-15 13:51:59:389,0,2.47018,-7.51147,13.2574,Q,Q
2023-03-15 13:51:59:399,0,2.26719,-7.50701,13.8903,Q,Q
2023-03-15 13:51:59:409,0,2.07236,-7.51914,14.6886,Q,Q
2023-03-15 13:51:59:419,0,1.89052,-7.53114,15.6223,Q,Q
2023-03-15 13:51:59:429,0,1.71566,-7.52988,16.6771,Q,Q
2023-03-15 13:51:59:439,0,1.54839,-7.51925,17.8563,Q,Q
2023-03-15 13:51:59:449,0,1.38263,-7.50756,19.1669,Q,Q
2023-03-15 13:51:59:459,0,1.20897,-7.49895,20.6125,Q,Q
2023-03-15 13:51:59:469,0,1.0113,-7.49067,22.1721,Q,Q
2023-03-15 13:51:59:479,0,0.786217,-7.46994,23.8266,Q,Q
2023-03-15 13:51:59:489,0,0.527807,-7.4266,25.5519,Q,Q
2023-03-15 13:51:59:499,0,0.232294,-7.34867,27.318,Q,Q
2023-03-15 13:51:59:508,0,-0.0941076,-7.23785,29.1157,Q,Q
2023-03-15 13:51:59:518,0,-0.443606,-7.10211,30.9428,Q,Q
2023-03-15 13:51:59:528,0,-0.81606,-6.94912,32.8014,Q,Q
2023-03-15 13:51:59:538,0,-1.18651,-6.78171,34.6857,Q,Q
2023-03-15 13:51:59:549,0,-1.54762,-6.60261,36.586,Q,Q
2023-03-15 13:51:59:559,0,-1.90682,-6.40999,38.4872,Q,Q
2023-03-15 13:51:59:569,0,-2.28229,-6.19077,40.3551,Q,Q
2023-03-15 13:51:59:579,0,-2.68073,-5.93416,42.1632,Q,Q
2023-03-15 13:51:59:589,0,-3.09399,-5.64939,43.9003,Q,Q
2023-03-15 13:51:59:599,0,-3.50289,-5.35094,45.5701,Q,Q
2023-03-15 13:51:59:609,0,-3.89757,-5.04829,47.172,Q,Q
2023-03-15 13:51:59:619,0,-4.25769,-4.75896,48.7032,Q,Q
2023-03-15 13:51:59:629,0,-4.57849,-4.48217,50.1544,Q,Q
2023-03-15 13:51:59:639,0,-4.86303,-4.21951,51.529,Q,Q
2023-03-15 13:51:59:649,0,-5.1167,-3.97281,52.8295,Q,Q
2023-03-15 13:51:59:659,0,-5.34535,-3.74126,54.0683,Q,Q
2023-03-15 13:51:59:669,0,-5.554,-3.51734,55.2407,Q,Q
2023-03-15 13:51:59:679,0,-5.7498,-3.28876,56.3477,Q,Q
2023-03-15 13:51:59:689,0,-5.94415,-3.05261,57.3742,Q,Q
2023-03-15 13:51:59:699,0,-6.12729,-2.8027,58.3112,Q,Q
2023-03-15 13:51:59:709,0,-6.29143,-2.54231,59.143,Q,Q
2023-03-15 13:51:59:719,0,-6.42028,-2.28586,59.863,Q,Q
2023-03-15 13:51:59:729,0,-6.5005,-2.04161,60.4726,Q,Q
2023-03-15 13:51:59:739,0,-6.53086,-1.8223,60.9841,Q,Q
2023-03-15 13:51:59:749,0,-6.5184,-1.63504,61.4075,Q,Q
2023-03-15 13:51:59:759,0,-6.4686,-1.49548,61.7578,Q,Q
2023-03-15 13:51:59:769,0,-6.39304,-1.39416,62.0328,Q,Q
2023-03-15 13:51:59:779,0,-6.30307,-1.3162,62.2187,Q,Q
2023-03-15 13:51:59:789,0,-6.19604,-1.2448,62.2962,Q,Q
2023-03-15 13:51:59:799,0,-6.06322,-1.17785,62.2561,Q,Q
2023-03-15 13:51:59:809,0,-5.91425,-1.1252,62.1092,Q,Q
2023-03-15 13:51:59:818,0,-5.76343,-1.08997,61.8655,Q,Q
2023-03-15 13:51:59:829,0,-5.63307,-1.07851,61.5243,Q,Q
2023-03-15 13:51:59:839,0,-5.51986,-1.0908,61.0661,Q,Q
2023-03-15 13:51:59:849,0,-5.41904,-1.12149,60.4717,Q,Q
2023-03-15 13:51:59:859,0,-5.31462,-1.16736,59.7244,Q,Q
2023-03-15 13:51:59:869,0,-5.19586,-1.22509,58.8196,Q,Q
2023-03-15 13:51:59:879,0,-5.0781,-1.30133,57.7683,Q,Q
2023-03-15 13:51:59:889,0,-4.97616,-1.40187,56.5889,Q,Q
2023-03-15 13:51:59:899,0,-4.90028,-1.53196,55.2872,Q,Q
2023-03-15 13:51:59:909,0,-4.84754,-1.68429,53.8562,Q,Q
2023-03-15 13:51:59:919,0,-4.8038,-1.84199,52.2909,Q,Q
2023-03-15 13:51:59:929,0,-4.76769,-1.99131,50.5899,Q,Q
2023-03-15 13:51:59:939,0,-4.73379,-2.13727,48.7612,Q,Q
2023-03-15 13:51:59:949,0,-4.6861,-2.27382,46.8065,Q,Q
2023-03-15 13:51:59:959,0,-4.61538,-2.39643,44.7305,Q,Q
2023-03-15 13:51:59:969,0,-4.52346,-2.51486,42.5593,Q,Q
2023-03-15 13:51:59:979,0,-4.4068,-2.63722,40.3352,Q,Q
2023-03-15 13:51:59:989,0,-4.27009,-2.79177,38.1237,Q,Q
2023-03-15 13:51:59:999,0,-4.11742,-3.01611,35.9933,Q,Q
2023-03-15 13:52:00:9,0,-3.94824,-3.29443,33.9758,Q,Q
2023-03-15 13:52:00:19,0,-3.76608,-3.5987,32.0578,Q,Q
2023-03-15 13:52:00:29,0,-3.56882,-3.87294,30.1986,Q,Q
2023-03-15 13:52:00:39,0,-3.35088,-4.07756,28.3935,Q,Q
2023-03-15 13:52:00:49,0,-3.11644,-4.21361,26.6492,Q,Q
2023-03-15 13:52:00:59,0,-2.87588,-4.28894,24.9829,Q,Q
2023-03-15 13:52:00:69,0,-2.62139,-4.33276,23.4052,Q,Q
2023-03-15 13:52:00:79,0,-2.36398,-4.35982,21.9312,Q,Q
2023-03-15 13:52:00:89,0,-2.11946,-4.38458,20.5838,Q,Q
2023-03-15 13:52:00:99,0,-1.89793,-4.4094,19.3647,Q,Q
2023-03-15 13:52:00:109,0,-1.7016,-4.43272,18.2621,Q,Q
2023-03-15 13:52:00:119,0,-1.52534,-4.44581,17.2666,Q,Q
2023-03-15 13:52:00:129,0,-1.37256,-4.44505,16.3661,Q,Q
2023-03-15 13:52:00:139,0,-1.23348,-4.4331,15.5587,Q,Q
2023-03-15 13:52:00:148,0,-1.11051,-4.42085,14.8402,Q,Q
2023-03-15 13:52:00:159,0,-1.00726,-4.41345,14.2101,Q,Q
2023-03-15 13:52:00:169,0,-0.914878,-4.41819,13.6546,Q,Q
2023-03-15 13:52:00:179,0,-0.827544,-4.43985,13.167,Q,Q
2023-03-15 13:52:00:189,0,-0.734231,-4.4675,12.7363,Q,Q
2023-03-15 13:52:00:199,0,-0.637077,-4.5058,12.3592,Q,Q
2023-03-15 13:52:00:209,0,-0.537893,-4.54846,12.0324,Q,Q
2023-03-15 13:52:00:219,0,-0.436162,-4.59824,11.7536,Q,Q
2023-03-15 13:52:00:229,0,-0.332722,-4.65499,11.5127,Q,Q
2023-03-15 13:52:00:239,0,-0.227412,-4.71061,11.3046,Q,Q
2023-03-15 13:52:00:249,0,-0.128627,-4.76719,11.1249,Q,Q
2023-03-15 13:52:00:259,0,-0.0339666,-4.81784,10.9644,Q,Q
2023-03-15 13:52:00:269,0,0.0548192,-4.8632,10.8127,Q,Q
2023-03-15 13:52:00:279,0,0.148115,-4.9023,10.6745,Q,Q
2023-03-15 13:52:00:289,0,0.239543,-4.94112,10.5449,Q,Q
2023-03-15 13:52:00:299,0,0.323136,-4.97656,10.4312,Q,Q
2023-03-15 13:52:00:309,0,0.410164,-5.01189,10.3186,Q,Q
2023-03-15 13:52:00:319,0,0.494694,-5.04795,10.219,Q,Q
2023-03-15 13:52:00:329,0,0.570003,-5.08182,10.1308,Q,Q
2023-03-15 13:52:00:339,0,0.639036,-5.10679,10.0453,Q,Q
2023-03-15 13:52:00:349,0,0.699615,-5.12444,9.95804,Q,Q
2023-03-15 13:52:00:359,0,0.75345,-5.14288,9.8648,Q,Q
2023-03-15 13:52:00:369,0,0.799887,-5.16072,9.77789,Q,Q
2023-03-15 13:52:00:379,0,0.842323,-5.18782,9.69596,Q,Q
2023-03-15 13:52:00:389,0,0.875605,-5.22094,9.62251,Q,Q
2023-03-15 13:52:00:399,0,0.90053,-5.26354,9.56454,Q,Q
2023-03-15 13:52:00:409,0,0.911012,-5.31333,9.52102,Q,Q
2023-03-15 13:52:00:419,0,0.91458,-5.37586,9.48862,Q,Q
2023-03-15 13:52:00:429,0,0.895861,-5.45349,9.47143,Q,Q
2023-03-15 13:52:00:439,0,0.87375,-5.5114,9.46497,Q,Q
2023-03-15 13:52:00:449,0,0.861728,-5.57047,9.45527,Q,Q
2023-03-15 13:52:00:459,0,0.844137,-5.61381,9.43744,Q,Q
2023-03-15 13:52:00:469,0,0.822762,-5.66394,9.4076,Q,Q
2023-03-15 13:52:00:479,0,0.788775,-5.70806,9.37543,Q,Q
2023-03-15 13:52:00:489,0,0.744608,-5.7538,9.3477,Q,Q
2023-03-15 13:52:00:499,0,0.694454,-5.79815,9.3176,Q,Q
2023-03-15 13:52:00:509,0,0.656412,-5.84667,9.28459,Q,Q
2023-03-15 13:52:00:519,0,0.627253,-5.89524,9.25031,Q,Q
2023-03-15 13:52:00:529,0,0.608976,-5.94313,9.21278,Q,Q
2023-03-15 13:52:00:539,0,0.603489,-5.98232,9.17136,Q,Q
2023-03-15 13:52:00:549,0,0.614394,-6.01095,9.11559,Q,Q
2023-03-15 13:52:00:559,0,0.632256,-6.0311,9.04933,Q,Q
2023-03-15 13:52:00:569,0,0.652915,-6.03497,8.97175,Q,Q
2023-03-15 13:52:00:579,0,0.679219,-6.03097,8.88896,Q,Q
2023-03-15 13:52:00:589,0,0.708035,-6.02433,8.80176,Q,Q
2023-03-15 13:52:00:599,0,0.730581,-6.01065,8.71145,Q,Q
2023-03-15 13:52:00:609,0,0.754546,-5.98946,8.62347,Q,Q
2023-03-15 13:52:00:619,0,0.779368,-5.96629,8.53891,Q,Q
2023-03-15 13:52:00:629,0,0.795984,-5.94229,8.46067,Q,Q
2023-03-15 13:52:00:639,0,0.809752,-5.90452,8.3844,Q,Q
2023-03-15 13:52:00:649,0,0.82032,-5.87133,8.31071,Q,Q
2023-03-15 13:52:00:659,0,0.826809,-5.83264,8.24548,Q,Q
2023-03-15 13:52:00:669,0,0.83065,-5.79839,8.18308,Q,Q
2023-03-15 13:52:00:679,0,0.832025,-5.7687,8.1189,Q,Q
2023-03-15 13:52:00:689,0,0.828734,-5.74039,8.05381,Q,Q
2023-03-15 13:52:00:699,0,0.826284,-5.71668,7.98798,Q,Q
2023-03-15 13:52:00:709,0,0.82612,-5.6949,7.91935,Q,Q
2023-03-15 13:52:00:719,0,0.826042,-5.6761,7.85803,Q,Q
2023-03-15 13:52:00:729,0,0.831176,-5.6637,7.79943,Q,Q
2023-03-15 13:52:00:739,0,0.83231,-5.65707,7.74274,Q,Q
2023-03-15 13:52:00:749,0,0.830573,-5.65323,7.6896,Q,Q
2023-03-15 13:52:00:759,0,0.830843,-5.65314,7.63072,Q,Q
2023-03-15 13:52:00:769,0,0.833037,-5.64701,7.57342,Q,Q
2023-03-15 13:52:00:779,0,0.829754,-5.6446,7.52225,Q,Q
2023-03-15 13:52:00:789,0,0.830768,-5.64487,7.4766,Q,Q
2023-03-15 13:52:00:799,0,0.832367,-5.64714,7.43434,Q,Q
2023-03-15 13:52:00:809,0,0.827893,-5.65703,7.40278,Q,Q
2023-03-15 13:52:00:819,0,0.829554,-5.66924,7.37555,Q,Q
2023-03-15 13:52:00:829,0,0.828905,-5.67565,7.3575,Q,Q
2023-03-15 13:52:00:838,0,0.831363,-5.68245,7.33773,Q,Q
2023-03-15 13:52:00:849,0,0.832687,-5.68356,7.31978,Q,Q
2023-03-15 13:52:00:859,0,0.834199,-5.6777,7.3046,Q,Q
2023-03-15 13:52:00:869,0,0.831996,-5.66883,7.29294,Q,Q
2023-03-15 13:52:00:879,0,0.829654,-5.65728,7.28697,Q,Q
2023-03-15 13:52:00:889,0,0.824249,-5.6456,7.28173,Q,Q
2023-03-15 13:52:00:899,0,0.81525,-5.6246,7.28362,Q,Q
2023-03-15 13:52:00:909,0,0.80514,-5.60478,7.28345,Q,Q
2023-03-15 13:52:00:919,0,0.791168,-5.58719,7.2844,Q,Q
2023-03-15 13:52:00:929,0,0.778471,-5.56756,7.28283,Q,Q
2023-03-15 13:52:00:939,0,0.760422,-5.5479,7.2788,Q,Q
2023-03-15 13:52:00:949,0,0.744113,-5.52605,7.27091,Q,Q
2023-03-15 13:52:00:959,0,0.730194,-5.50733,7.26218,Q,Q
2023-03-15 13:52:00:969,0,0.717441,-5.48735,7.24794,Q,Q
2023-03-15 13:52:00:979,0,0.703434,-5.46815,7.22927,Q,Q
2023-03-15 13:52:00:989,0,0.695455,-5.45047,7.20762,Q,Q
2023-03-15 13:52:00:999,0,0.687597,-5.43533,7.17987,Q,Q
2023-03-15 13:52:01:9,0,0.68113,-5.42204,7.15049,Q,Q
2023-03-15 13:52:01:19,0,0.671495,-5.40579,7.11459,Q,Q
2023-03-15 13:52:01:29,0,0.658632,-5.39181,7.0735,Q,Q
2023-03-15 13:52:01:39,0,0.645315,-5.37937,7.02864,Q,Q
2023-03-15 13:52:01:49,0,0.632057,-5.3707,6.97982,Q,Q
2023-03-15 13:52:01:59,0,0.623977,-5.36326,6.92728,Q,Q
2023-03-15 13:52:01:69,0,0.621627,-5.35529,6.87195,Q,Q
2023-03-15 13:52:01:79,0,0.618238,-5.3435,6.81582,Q,Q
2023-03-15 13:52:01:89,0,0.61258,-5.32967,6.76173,Q,Q
2023-03-15 13:52:01:99,0,0.597181,-5.31077,6.70992,Q,Q
2023-03-15 13:52:01:109,0,0.571373,-5.29251,6.65571,Q,Q
2023-03-15 13:52:01:119,0,0.534595,-5.27313,6.60068,Q,Q
2023-03-15 13:52:01:129,0,0.494085,-5.25709,6.54339,Q,Q
2023-03-15 13:52:01:139,0,0.459469,-5.2416,6.48708,Q,Q
2023-03-15 13:52:01:149,0,0.428219,-5.22864,6.43144,Q,Q
2023-03-15 13:52:01:159,0,0.399115,-5.21294,6.37863,Q,Q
2023-03-15 13:52:01:169,0,0.36454,-5.19892,6.3208,Q,Q
2023-03-15 13:52:01:179,0,0.319504,-5.18867,6.25734,Q,Q
2023-03-15 13:52:01:189,0,0.266005,-5.17598,6.18625,Q,Q
2023-03-15 13:52:01:199,0,0.203719,-5.15995,6.10807,Q,Q
2023-03-15 13:52:01:209,0,0.14026,-5.14828,6.02139,Q,Q
2023-03-15 13:52:01:219,0,0.0787521,-5.13456,5.93511,Q,Q
2023-03-15 13:52:01:229,0,0.0263839,-5.12768,5.84478,Q,Q
2023-03-15 13:52:01:239,0,-0.0243868,-5.11787,5.7544,Q,Q
2023-03-15 13:52:01:249,0,-0.0724979,-5.10807,5.66734,Q,Q
2023-03-15 13:52:01:259,0,-0.123903,-5.09182,5.58259,Q,Q
2023-03-15 13:52:01:269,0,-0.181639,-5.07727,5.49874,Q,Q
2023-03-15 13:52:01:279,0,-0.238571,-5.06416,5.41119,Q,Q
2023-03-15 13:52:01:289,0,-0.28986,-5.05655,5.32273,Q,Q
2023-03-15 13:52:01:299,0,-0.33549,-5.05438,5.23675,Q,Q
2023-03-15 13:52:01:309,0,-0.373076,-5.05898,5.15155,Q,Q
2023-03-15 13:52:01:319,0,-0.410553,-5.06624,5.07486,Q,Q
2023-03-15 13:52:01:329,0,-0.448482,-5.07608,5.00389,Q,Q
2023-03-15 13:52:01:339,0,-0.48359,-5.08754,4.93594,Q,Q
2023-03-15 13:52:01:349,0,-0.522667,-5.10398,4.87473,Q,Q
2023-03-15 13:52:01:359,0,-0.563143,-5.12264,4.82097,Q,Q
2023-03-15 13:52:01:369,0,-0.602432,-5.14736,4.77889,Q,Q
2023-03-15 13:52:01:379,0,-0.637562,-5.17199,4.74085,Q,Q
2023-03-15 13:52:01:389,0,-0.661245,-5.19518,4.70927,Q,Q
2023-03-15 13:52:01:399,0,-0.680243,-5.21635,4.68552,Q,Q
2023-03-15 13:52:01:409,0,-0.697083,-5.23881,4.67025,Q,Q
2023-03-15 13:52:01:419,0,-0.711898,-5.26054,4.65761,Q,Q
2023-03-15 13:52:01:429,0,-0.727456,-5.27605,4.65939,Q,Q
2023-03-15 13:52:01:439,0,-0.737535,-5.29533,4.66717,Q,Q
2023-03-15 13:52:01:449,0,-0.747554,-5.31373,4.67742,Q,Q
2023-03-15 13:52:01:459,0,-0.752527,-5.33314,4.69002,Q,Q
2023-03-15 13:52:01:469,0,-0.750389,-5.34527,4.70119,Q,Q
2023-03-15 13:52:01:479,0,-0.743156,-5.35617,4.71991,Q,Q
2023-03-15 13:52:01:489,0,-0.733995,-5.36798,4.73958,Q,Q
2023-03-15 13:52:01:499,0,-0.72455,-5.37898,4.76049,Q,Q
2023-03-15 13:52:01:509,0,-0.707103,-5.3912,4.78232,Q,Q
2023-03-15 13:52:01:519,0,-0.689775,-5.4063,4.80835,Q,Q
2023-03-15 13:52:01:529,0,-0.668007,-5.4234,4.83626,Q,Q
2023-03-15 13:52:01:539,0,-0.646547,-5.44062,4.86475,Q,Q
2023-03-15 13:52:01:549,0,-0.628121,-5.45911,4.90121,Q,Q
2023-03-15 13:52:01:559,0,-0.610318,-5.4744,4.93781,Q,Q
2023-03-15 13:52:01:569,0,-0.590609,-5.49136,4.98032,Q,Q
2023-03-15 13:52:01:579,0,-0.571853,-5.50751,5.02177,Q,Q
2023-03-15 13:52:01:589,0,-0.554555,-5.5259,5.06834,Q,Q
2023-03-15 13:52:01:599,0,-0.538944,-5.54205,5.11838,Q,Q
2023-03-15 13:52:01:609,0,-0.519819,-5.55668,5.17161,Q,Q
2023-03-15 13:52:01:619,0,-0.502498,-5.57097,5.22707,Q,Q
2023-03-15 13:52:01:629,0,-0.487027,-5.58386,5.27701,Q,Q
2023-03-15 13:52:01:639,0,-0.471783,-5.59145,5.32827,Q,Q
2023-03-15 13:52:01:649,0,-0.455904,-5.59794,5.37892,Q,Q
2023-03-15 13:52:01:659,0,-0.435795,-5.60057,5.42768,Q,Q
2023-03-15 13:52:01:669,0,-0.418704,-5.6042,5.47598,Q,Q
2023-03-15 13:52:01:679,0,-0.403986,-5.61253,5.52221,Q,Q
2023-03-15 13:52:01:689,0,-0.394106,-5.62217,5.57099,Q,Q
2023-03-15 13:52:01:698,0,-0.386823,-5.63242,5.6184,Q,Q
2023-03-15 13:52:01:708,0,-0.376114,-5.64262,5.66416,Q,Q
2023-03-15 13:52:01:719,0,-0.369386,-5.65328,5.70774,Q,Q
2023-03-15 13:52:01:729,0,-0.362323,-5.66446,5.7418,Q,Q
2023-03-15 13:52:01:739,0,-0.353224,-5.67182,5.77291,Q,Q
2023-03-15 13:52:01:749,0,-0.348345,-5.68204,5.79943,Q,Q
2023-03-15 13:52:01:759,0,-0.346481,-5.6955,5.82111,Q,Q
2023-03-15 13:52:01:769,0,-0.342204,-5.70844,5.84093,Q,Q
2023-03-15 13:52:01:779,0,-0.33662,-5.72016,5.85562,Q,Q
2023-03-15 13:52:01:789,0,-0.32909,-5.73449,5.87159,Q,Q
2023-03-15 13:52:01:799,0,-0.318635,-5.74729,5.8835,Q,Q
2023-03-15 13:52:01:809,0,-0.310833,-5.75902,5.89175,Q,Q
2023-03-15 13:52:01:819,0,-0.302905,-5.77161,5.9054,Q,Q
2023-03-15 13:52:01:829,0,-0.291792,-5.78442,5.91953,Q,Q
2023-03-15 13:52:01:839,0,-0.276635,-5.79564,5.93096,Q,Q
2023-03-15 13:52:01:849,0,-0.259828,-5.80727,5.94362,Q,Q
2023-03-15 13:52:01:859,0,-0.245543,-5.81948,5.96405,Q,Q
2023-03-15 13:52:01:869,0,-0.236412,-5.83021,5.98496,Q,Q
2023-03-15 13:52:01:879,0,-0.231332,-5.84135,6.00571,Q,Q
2023-03-15 13:52:01:889,0,-0.228059,-5.85219,6.02324,Q,Q
2023-03-15 13:52:01:899,0,-0.223684,-5.85845,6.0444,Q,Q
2023-03-15 13:52:01:909,0,-0.223929,-5.86604,6.06739,Q,Q
2023-03-15 13:52:01:919,0,-0.221949,-5.86817,6.07904,Q,Q
2023-03-15 13:52:01:929,0,-0.217451,-5.86361,6.0897,Q,Q
2023-03-15 13:52:01:939,0,-0.206293,-5.856,6.09533,Q,Q
2023-03-15 13:52:01:949,0,-0.185632,-5.84846,6.09575,Q,Q
2023-03-15 13:52:01:959,0,-0.162358,-5.8342,6.09496,Q,Q
2023-03-15 13:52:01:969,0,-0.141255,-5.81921,6.0952,Q,Q
2023-03-15 13:52:01:979,0,-0.122029,-5.80478,6.09549,Q,Q
2023-03-15 13:52:01:989,0,-0.108327,-5.79623,6.09395,Q,Q
2023-03-15 13:52:01:999,0,-0.10476,-5.79621,6.09033,Q,Q
2023-03-15 13:52:02:9,0,-0.100209,-5.79681,6.08182,Q,Q
2023-03-15 13:52:02:19,0,-0.0912338,-5.79033,6.06726,Q,Q
2023-03-15 13:52:02:29,0,-0.0764347,-5.7827,6.04843,Q,Q
2023-03-15 13:52:02:39,0,-0.059615,-5.7673,6.02874,Q,Q
2023-03-15 13:52:02:49,0,-0.0465419,-5.75591,6.00192,Q,Q
2023-03-15 13:52:02:59,0,-0.0355508,-5.74638,5.97738,Q,Q
2023-03-15 13:52:02:69,0,-0.0276759,-5.74204,5.95465,Q,Q
2023-03-15 13:52:02:79,0,-0.0227467,-5.74291,5.93066,Q,Q
2023-03-15 13:52:02:89,0,-0.0176391,-5.74367,5.9069,Q,Q
2023-03-15 13:52:02:99,0,-0.00897467,-5.74546,5.8791,Q,Q
2023-03-15 13:52:02:109,0,0.00330711,-5.74636,5.85031,Q,Q
2023-03-15 13:52:02:119,0,0.0179325,-5.73673,5.8204,Q,Q
2023-03-15 13:52:02:129,0,0.0327546,-5.72621,5.79208,Q,Q
2023-03-15 13:52:02:139,0,0.0491951,-5.71492,5.76695,Q,Q
2023-03-15 13:52:02:149,0,0.0666069,-5.70644,5.74561,Q,Q
2023-03-15 13:52:02:159,0,0.0800801,-5.69681,5.72581,Q,Q
2023-03-15 13:52:02:169,0,0.0889207,-5.6892,5.7057,Q,Q
2023-03-15 13:52:02:179,0,0.100226,-5.6787,5.68437,Q,Q
2023-03-15 13:52:02:189,0,0.110504,-5.67134,5.66273,Q,Q
2023-03-15 13:52:02:198,0,0.123017,-5.66526,5.63846,Q,Q
2023-03-15 13:52:02:209,0,0.13249,-5.65903,5.62074,Q,Q
2023-03-15 13:52:02:219,0,0.147186,-5.65343,5.6045,Q,Q
2023-03-15 13:52:02:229,0,0.157479,-5.65295,5.58804,Q,Q
2023-03-15 13:52:02:239,0,0.164852,-5.65424,5.57629,Q,Q
2023-03-15 13:52:02:249,0,0.17212,-5.65417,5.56407,Q,Q
2023-03-15 13:52:02:259,0,0.175479,-5.65381,5.54968,Q,Q
2023-03-15 13:52:02:269,0,0.177111,-5.65368,5.54041,Q,Q
2023-03-15 13:52:02:279,0,0.179416,-5.65833,5.52987,Q,Q
2023-03-15 13:52:02:289,0,0.18492,-5.65858,5.51515,Q,Q
2023-03-15 13:52:02:299,0,0.18695,-5.65432,5.49849,Q,Q
2023-03-15 13:52:02:309,0,0.188124,-5.65164,5.47789,Q,Q
2023-03-15 13:52:02:318,0,0.194703,-5.64365,5.45648,Q,Q
2023-03-15 13:52:02:329,0,0.204267,-5.63216,5.42548,Q,Q
2023-03-15 13:52:02:339,0,0.218652,-5.62041,5.39195,Q,Q
2023-03-15 13:52:02:349,0,0.236307,-5.61245,5.35137,Q,Q
2023-03-15 13:52:02:359,0,0.250478,-5.60778,5.30339,Q,Q
2023-03-15 13:52:02:369,0,0.265368,-5.6054,5.25214,Q,Q
2023-03-15 13:52:02:379,0,0.274612,-5.60421,5.18892,Q,Q
2023-03-15 13:52:02:389,0,0.289022,-5.60342,5.12287,Q,Q
2023-03-15 13:52:02:399,0,0.309018,-5.59807,5.05367,Q,Q
2023-03-15 13:52:02:409,0,0.326421,-5.59663,4.98408,Q,Q
2023-03-15 13:52:02:419,0,0.345739,-5.5901,4.90649,Q,Q
2023-03-15 13:52:02:429,0,0.366147,-5.58593,4.82596,Q,Q
2023-03-15 13:52:02:439,0,0.382562,-5.58588,4.74819,Q,Q
2023-03-15 13:52:02:449,0,0.393486,-5.58879,4.66751,Q,Q
2023-03-15 13:52:02:459,0,0.398392,-5.59012,4.58408,Q,Q
2023-03-15 13:52:02:469,0,0.407888,-5.58596,4.49965,Q,Q
2023-03-15 13:52:02:479,0,0.415495,-5.58033,4.41426,Q,Q
2023-03-15 13:52:02:489,0,0.424558,-5.56678,4.33056,Q,Q
2023-03-15 13:52:02:499,0,0.433212,-5.55082,4.24939,Q,Q
2023-03-15 13:52:02:509,0,0.43766,-5.53541,4.17227,Q,Q
2023-03-15 13:52:02:519,0,0.442108,-5.51912,4.1065,Q,Q
2023-03-15 13:52:02:529,0,0.441622,-5.5017,4.03938,Q,Q
2023-03-15 13:52:02:539,0,0.449274,-5.48496,3.98164,Q,Q
2023-03-15 13:52:02:549,0,0.460446,-5.47045,3.92976,Q,Q
2023-03-15 13:52:02:559,0,0.47051,-5.45826,3.88691,Q,Q
2023-03-15 13:52:02:569,0,0.469221,-5.451,3.84923,Q,Q
2023-03-15 13:52:02:579,0,0.464614,-5.44221,3.81434,Q,Q
2023-03-15 13:52:02:589,0,0.45455,-5.4339,3.78281,Q,Q
2023-03-15 13:52:02:599,0,0.446316,-5.42455,3.74846,Q,Q
2023-03-15 13:52:02:609,0,0.437498,-5.41142,3.71993,Q,Q
2023-03-15 13:52:02:619,0,0.426918,-5.39769,3.69416,Q,Q
2023-03-15 13:52:02:629,0,0.417753,-5.38517,3.67001,Q,Q
2023-03-15 13:52:02:639,0,0.411065,-5.37255,3.64571,Q,Q
2023-03-15 13:52:02:649,0,0.410423,-5.35801,3.6197,Q,Q
2023-03-15 13:52:02:659,0,0.408595,-5.34016,3.59311,Q,Q
2023-03-15 13:52:02:669,0,0.403716,-5.32501,3.56259,Q,Q
2023-03-15 13:52:02:679,0,0.397553,-5.30975,3.53256,Q,Q
2023-03-15 13:52:02:689,0,0.38618,-5.29904,3.5006,Q,Q
2023-03-15 13:52:02:699,0,0.379147,-5.29109,3.46684,Q,Q
2023-03-15 13:52:02:709,0,0.374953,-5.28462,3.43038,Q,Q
2023-03-15 13:52:02:719,0,0.369702,-5.28184,3.39837,Q,Q
2023-03-15 13:52:02:729,0,0.363829,-5.27718,3.36331,Q,Q
2023-03-15 13:52:02:739,0,0.355424,-5.26927,3.32877,Q,Q
2023-03-15 13:52:02:749,0,0.347509,-5.25845,3.30093,Q,Q
2023-03-15 13:52:02:759,0,0.335158,-5.24445,3.2738,Q,Q
2023-03-15 13:52:02:769,0,0.324892,-5.23252,3.25013,Q,Q
2023-03-15 13:52:02:779,0,0.314521,-5.22224,3.23197,Q,Q
2023-03-15 13:52:02:789,0,0.303356,-5.21747,3.22199,Q,Q
2023-03-15 13:52:02:799,0,0.289253,-5.21538,3.21249,Q,Q
2023-03-15 13:52:02:809,0,0.274419,-5.20939,3.20321,Q,Q
2023-03-15 13:52:02:819,0,0.267634,-5.20379,3.1957,Q,Q
2023-03-15 13:52:02:829,0,0.262861,-5.19804,3.19133,Q,Q
2023-03-15 13:52:02:839,0,0.261945,-5.19292,3.18694,Q,Q
2023-03-15 13:52:02:849,0,0.260783,-5.18903,3.18838,Q,Q
2023-03-15 13:52:02:859,0,0.264876,-5.19236,3.18478,Q,Q
2023-03-15 13:52:02:869,0,0.271798,-5.19629,3.18579,Q,Q
2023-03-15 13:52:02:879,0,0.282267,-5.20316,3.19555,Q,Q
2023-03-15 13:52:02:889,0,0.294049,-5.20428,3.20769,Q,Q
2023-03-15 13:52:02:899,0,0.309745,-5.21021,3.22018,Q,Q
2023-03-15 13:52:02:909,0,0.323628,-5.21282,3.23952,Q,Q
2023-03-15 13:52:02:919,0,0.337686,-5.21844,3.26283,Q,Q
2023-03-15 13:52:02:929,0,0.349359,-5.22219,3.2936,Q,Q
2023-03-15 13:52:02:939,0,0.362915,-5.22826,3.33299,Q,Q
2023-03-15 13:52:02:949,0,0.377609,-5.2349,3.38479,Q,Q
2023-03-15 13:52:02:959,0,0.3934,-5.24541,3.44817,Q,Q
2023-03-15 13:52:02:969,0,0.410431,-5.25046,3.52301,Q,Q
2023-03-15 13:52:02:979,0,0.430074,-5.25725,3.61146,Q,Q
2023-03-15 13:52:02:989,0,0.452524,-5.26438,3.71494,Q,Q
2023-03-15 13:52:02:999,0,0.473412,-5.2787,3.83848,Q,Q
2023-03-15 13:52:03:9,0,0.487086,-5.29533,3.97378,Q,Q
2023-03-15 13:52:03:19,0,0.500671,-5.30338,4.11793,Q,Q
2023-03-15 13:52:03:29,0,0.511034,-5.31464,4.27248,Q,Q
2023-03-15 13:52:03:39,0,0.5198,-5.3241,4.43298,Q,Q
2023-03-15 13:52:03:49,0,0.528433,-5.33577,4.59577,Q,Q
2023-03-15 13:52:03:59,0,0.537191,-5.34602,4.76418,Q,Q
2023-03-15 13:52:03:69,0,0.549273,-5.35333,4.93478,Q,Q
2023-03-15 13:52:03:79,0,0.570157,-5.36611,5.10374,Q,Q
2023-03-15 13:52:03:89,0,0.594475,-5.38361,5.27374,Q,Q
2023-03-15 13:52:03:99,0,0.616829,-5.41094,5.44192,Q,Q
2023-03-15 13:52:03:109,0,0.635462,-5.43717,5.60688,Q,Q
2023-03-15 13:52:03:119,0,0.654538,-5.46689,5.7662,Q,Q
2023-03-15 13:52:03:129,0,0.670643,-5.49759,5.91647,Q,Q
2023-03-15 13:52:03:139,0,0.685905,-5.52336,6.05472,Q,Q
2023-03-15 13:52:03:149,0,0.702701,-5.54094,6.18084,Q,Q
2023-03-15 13:52:03:159,0,0.722736,-5.54897,6.29801,Q,Q
2023-03-15 13:52:03:169,0,0.746228,-5.55689,6.40338,Q,Q
2023-03-15 13:52:03:179,0,0.771145,-5.56929,6.5042,Q,Q
2023-03-15 13:52:03:189,0,0.78921,-5.5843,6.59439,Q,Q
2023-03-15 13:52:03:199,0,0.804284,-5.60173,6.6744,Q,Q
2023-03-15 13:52:03:209,0,0.815604,-5.62382,6.74561,Q,Q
2023-03-15 13:52:03:219,0,0.828339,-5.64455,6.81273,Q,Q
2023-03-15 13:52:03:229,0,0.846256,-5.65984,6.86973,Q,Q
2023-03-15 13:52:03:239,0,0.867631,-5.67043,6.91758,Q,Q
2023-03-15 13:52:03:249,0,0.896252,-5.67684,6.96106,Q,Q
2023-03-15 13:52:03:259,0,0.923821,-5.68733,7.00967,Q,Q
2023-03-15 13:52:03:269,0,0.941958,-5.70625,7.05982,Q,Q
2023-03-15 13:52:03:279,0,0.953389,-5.73185,7.10648,Q,Q
2023-03-15 13:52:03:289,0,0.963318,-5.75176,7.15013,Q,Q
2023-03-15 13:52:03:299,0,0.974272,-5.76699,7.18924,Q,Q
2023-03-15 13:52:03:309,0,0.982594,-5.78239,7.22505,Q,Q
2023-03-15 13:52:03:318,0,0.987505,-5.79454,7.25804,Q,Q
2023-03-15 13:52:03:329,0,0.990665,-5.8031,7.28568,Q,Q
2023-03-15 13:52:03:339,0,0.994452,-5.80741,7.30826,Q,Q
2023-03-15 13:52:03:349,0,1.00147,-5.81261,7.32785,Q,Q
2023-03-15 13:52:03:359,0,1.01142,-5.81156,7.34626,Q,Q
2023-03-15 13:52:03:369,0,1.0192,-5.81,7.36245,Q,Q
2023-03-15 13:52:03:379,0,1.02585,-5.80831,7.37812,Q,Q
2023-03-15 13:52:03:389,0,1.0239,-5.80871,7.39097,Q,Q
2023-03-15 13:52:03:399,0,1.01941,-5.80918,7.4018,Q,Q
2023-03-15 13:52:03:409,0,1.01266,-5.81071,7.40766,Q,Q
2023-03-15 13:52:03:419,0,0.999973,-5.81032,7.41212,Q,Q
2023-03-15 13:52:03:429,0,0.986569,-5.80965,7.41965,Q,Q
2023-03-15 13:52:03:439,0,0.974163,-5.80506,7.42519,Q,Q
2023-03-15 13:52:03:449,0,0.961144,-5.79965,7.43252,Q,Q
2023-03-15 13:52:03:459,0,0.943559,-5.79124,7.44292,Q,Q
2023-03-15 13:52:03:469,0,0.930262,-5.78268,7.45407,Q,Q
2023-03-15 13:52:03:479,0,0.914207,-5.77585,7.46698,Q,Q
2023-03-15 13:52:03:489,0,0.896242,-5.76761,7.48968,Q,Q
2023-03-15 13:52:03:499,0,0.879887,-5.75806,7.52161,Q,Q
2023-03-15 13:52:03:509,0,0.86427,-5.74092,7.56052,Q,Q
2023-03-15 13:52:03:519,0,0.850487,-5.72389,7.59928,Q,Q
2023-03-15 13:52:03:529,0,0.835146,-5.70616,7.64228,Q,Q
2023-03-15 13:52:03:539,0,0.822633,-5.68278,7.68501,Q,Q
2023-03-15 13:52:03:549,0,0.814228,-5.66063,7.73037,Q,Q
2023-03-15 13:52:03:559,0,0.803391,-5.63304,7.77542,Q,Q
2023-03-15 13:52:03:569,0,0.795697,-5.5946,7.8101,Q,Q
2023-03-15 13:52:03:579,0,0.796188,-5.55703,7.83667,Q,Q
2023-03-15 13:52:03:589,0,0.800045,-5.51962,7.85855,Q,Q
2023-03-15 13:52:03:599,0,0.799516,-5.48318,7.87483,Q,Q
2023-03-15 13:52:03:609,0,0.792573,-5.44948,7.8831,Q,Q
2023-03-15 13:52:03:619,0,0.775317,-5.41876,7.88862,Q,Q
2023-03-15 13:52:03:629,0,0.751406,-5.39679,7.89288,Q,Q
2023-03-15 13:52:03:639,0,0.729707,-5.37752,7.88823,Q,Q
2023-03-15 13:52:03:649,0,0.713661,-5.358,7.87533,Q,Q
2023-03-15 13:52:03:659,0,0.708706,-5.3335,7.84985,Q,Q
2023-03-15 13:52:03:669,0,0.717405,-5.29865,7.80814,Q,Q
2023-03-15 13:52:03:679,0,0.739073,-5.24183,7.7365,Q,Q
2023-03-15 13:52:03:689,0,0.764507,-5.14952,7.63243,Q,Q
2023-03-15 13:52:03:699,0,0.79418,-5.02504,7.49118,Q,Q
2023-03-15 13:52:03:709,0,0.829457,-4.86914,7.32366,Q,Q
2023-03-15 13:52:03:719,0,0.861195,-4.69539,7.13762,Q,Q
2023-03-15 13:52:03:729,0,0.888856,-4.52478,6.95035,Q,Q
2023-03-15 13:52:03:739,0,0.904478,-4.37476,6.77836,Q,Q
2023-03-15 13:52:03:749,0,0.908536,-4.26117,6.63116,Q,Q
2023-03-15 13:52:03:759,0,0.892377,-4.19225,6.51985,Q,Q
2023-03-15 13:52:03:769,0,0.86287,-4.165,6.44543,Q,Q
2023-03-15 13:52:03:779,0,0.828925,-4.17042,6.39762,Q,Q
2023-03-15 13:52:03:789,0,0.792662,-4.20098,6.37481,Q,Q
2023-03-15 13:52:03:799,0,0.758698,-4.24745,6.37886,Q,Q
2023-03-15 13:52:03:809,0,0.728094,-4.30429,6.40847,Q,Q
2023-03-15 13:52:03:818,0,0.696856,-4.36581,6.45265,Q,Q
2023-03-15 13:52:03:829,0,0.669857,-4.42997,6.51796,Q,Q
2023-03-15 13:52:03:839,0,0.642851,-4.49178,6.60614,Q,Q
2023-03-15 13:52:03:849,0,0.621191,-4.55639,6.71868,Q,Q
2023-03-15 13:52:03:859,0,0.597016,-4.61509,6.85874,Q,Q
2023-03-15 13:52:03:869,0,0.573478,-4.67212,7.01812,Q,Q
2023-03-15 13:52:03:879,0,0.548034,-4.72708,7.20725,Q,Q
2023-03-15 13:52:03:889,0,0.519196,-4.78129,7.41789,Q,Q
2023-03-15 13:52:03:899,0,0.48556,-4.82825,7.64396,Q,Q
2023-03-15 13:52:03:909,0,0.447417,-4.86132,7.87429,Q,Q
2023-03-15 13:52:03:919,0,0.411328,-4.88048,8.1065,Q,Q
2023-03-15 13:52:03:929,0,0.377976,-4.888,8.33085,Q,Q
2023-03-15 13:52:03:939,0,0.342828,-4.89115,8.55904,Q,Q
2023-03-15 13:52:03:949,0,0.312549,-4.89547,8.78617,Q,Q
2023-03-15 13:52:03:959,0,0.278699,-4.90864,9.00435,Q,Q
2023-03-15 13:52:03:969,0,0.248625,-4.9299,9.21217,Q,Q
2023-03-15 13:52:03:979,0,0.228196,-4.95233,9.40958,Q,Q
2023-03-15 13:52:03:989,0,0.224795,-4.9704,9.57962,Q,Q
2023-03-15 13:52:03:999,0,0.24375,-4.98176,9.71591,Q,Q
2023-03-15 13:52:04:9,0,0.280782,-4.97825,9.81856,Q,Q
2023-03-15 13:52:04:19,0,0.32235,-4.96184,9.89189,Q,Q
2023-03-15 13:52:04:29,0,0.348542,-4.9386,9.92619,Q,Q
2023-03-15 13:52:04:39,0,0.351707,-4.90354,9.94081,Q,Q
2023-03-15 13:52:04:49,0,0.302296,-4.88192,9.94953,Q,Q
2023-03-15 13:52:04:59,0,0.205307,-4.88123,9.95397,Q,Q
2023-03-15 13:52:04:69,0,0.0515941,-4.88892,9.94215,Q,Q
2023-03-15 13:52:04:79,0,-0.148261,-4.89024,9.91561,Q,Q
2023-03-15 13:52:04:89,0,-0.393314,-4.8907,9.8748,Q,Q
2023-03-15 13:52:04:99,0,-0.677384,-4.88708,9.80976,Q,Q
2023-03-15 13:52:04:109,0,-0.990066,-4.87441,9.72223,Q,Q
2023-03-15 13:52:04:119,0,-1.31821,-4.85707,9.61773,Q,Q
2023-03-15 13:52:04:129,0,-1.65691,-4.84798,9.50834,Q,Q
2023-03-15 13:52:04:139,0,-2.00798,-4.85656,9.40296,Q,Q
2023-03-15 13:52:04:149,0,-2.37353,-4.87764,9.30547,Q,Q
2023-03-15 13:52:04:159,0,-2.75012,-4.90525,9.20774,Q,Q
2023-03-15 13:52:04:169,0,-3.12417,-4.9437,9.11148,Q,Q
2023-03-15 13:52:04:179,0,-3.48847,-4.99265,9.01922,Q,Q
2023-03-15 13:52:04:189,0,-3.8251,-5.06062,8.94247,Q,Q
2023-03-15 13:52:04:199,0,-4.12337,-5.1387,8.88421,Q,Q
2023-03-15 13:52:04:209,0,-4.3784,-5.21559,8.84903,Q,Q
2023-03-15 13:52:04:219,0,-4.58961,-5.27839,8.82901,Q,Q
2023-03-15 13:52:04:229,0,-4.75908,-5.32414,8.82099,Q,Q
2023-03-15 13:52:04:239,0,-4.89068,-5.36263,8.82499,Q,Q
2023-03-15 13:52:04:249,0,-5.00082,-5.37794,8.83338,Q,Q
2023-03-15 13:52:04:259,0,-5.09188,-5.3786,8.83305,Q,Q
2023-03-15 13:52:04:269,0,-5.16113,-5.36939,8.84008,Q,Q
2023-03-15 13:52:04:279,0,-5.22654,-5.35167,8.86751,Q,Q
2023-03-15 13:52:04:289,0,-5.29554,-5.3463,8.91094,Q,Q
2023-03-15 13:52:04:299,0,-5.37966,-5.34312,8.96325,Q,Q
2023-03-15 13:52:04:309,0,-5.48335,-5.32598,9.01359,Q,Q
2023-03-15 13:52:04:319,0,-5.59617,-5.30373,9.05652,Q,Q
2023-03-15 13:52:04:329,0,-5.71218,-5.27264,9.09714,Q,Q
2023-03-15 13:52:04:339,0,-5.8179,-5.23899,9.1278,Q,Q
2023-03-15 13:52:04:349,0,-5.90719,-5.21544,9.15668,Q,Q
2023-03-15 13:52:04:359,0,-5.97313,-5.1863,9.17822,Q,Q
2023-03-15 13:52:04:369,0,-6.00473,-5.16334,9.19466,Q,Q
2023-03-15 13:52:04:379,0,-5.99369,-5.14271,9.20226,Q,Q
2023-03-15 13:52:04:389,0,-5.93584,-5.12676,9.20297,Q,Q
2023-03-15 13:52:04:399,0,-5.8349,-5.10469,9.18961,Q,Q
2023-03-15 13:52:04:409,0,-5.70021,-5.09054,9.17303,Q,Q
2023-03-15 13:52:04:419,0,-5.53439,-5.08622,9.14996,Q,Q
2023-03-15 13:52:04:429,0,-5.34539,-5.08648,9.12125,Q,Q
2023-03-15 13:52:04:439,0,-5.13726,-5.09736,9.08903,Q,Q
2023-03-15 13:52:04:449,0,-4.90216,-5.11403,9.04637,Q,Q
2023-03-15 13:52:04:459,0,-4.64539,-5.13165,8.99624,Q,Q
2023-03-15 13:52:04:469,0,-4.36925,-5.15659,8.94401,Q,Q
2023-03-15 13:52:04:479,0,-4.07284,-5.18926,8.88332,Q,Q
2023-03-15 13:52:04:489,0,-3.76686,-5.23966,8.8225,Q,Q
2023-03-15 13:52:04:499,0,-3.45966,-5.29668,8.75797,Q,Q
2023-03-15 13:52:04:509,0,-3.13989,-5.34952,8.70018,Q,Q
2023-03-15 13:52:04:518,0,-2.79266,-5.42726,8.63467,Q,Q
2023-03-15 13:52:04:529,0,-2.44214,-5.53575,8.56998,Q,Q
2023-03-15 13:52:04:539,0,-2.09679,-5.6323,8.51483,Q,Q
2023-03-15 13:52:04:549,0,-1.74463,-5.73337,8.45008,Q,Q
2023-03-15 13:52:04:559,0,-1.38938,-5.83197,8.38123,Q,Q
2023-03-15 13:52:04:569,0,-1.04628,-5.93276,8.31341,Q,Q
2023-03-15 13:52:04:579,0,-0.726043,-6.01981,8.25181,Q,Q
2023-03-15 13:52:04:589,0,-0.42696,-6.10552,8.18619,Q,Q
2023-03-15 13:52:04:599,0,-0.154277,-6.17682,8.11736,Q,Q
2023-03-15 13:52:04:609,0,0.0848645,-6.2364,8.04834,Q,Q
2023-03-15 13:52:04:619,0,0.298982,-6.28407,7.97697,Q,Q
2023-03-15 13:52:04:629,0,0.488208,-6.33129,7.91384,Q,Q
2023-03-15 13:52:04:639,0,0.653384,-6.37924,7.85881,Q,Q
2023-03-15 13:52:04:649,0,0.799378,-6.42436,7.81795,Q,Q
2023-03-15 13:52:04:659,0,0.932292,-6.46895,7.78598,Q,Q
2023-03-15 13:52:04:669,0,1.04648,-6.50775,7.76829,Q,Q
2023-03-15 13:52:04:679,0,1.1421,-6.54557,7.76587,Q,Q
2023-03-15 13:52:04:689,0,1.21269,-6.57557,7.77278,Q,Q
2023-03-15 13:52:04:699,0,1.25968,-6.59319,7.78666,Q,Q
2023-03-15 13:52:04:709,0,1.29436,-6.5972,7.80121,Q,Q
2023-03-15 13:52:04:719,0,1.32458,-6.58771,7.81972,Q,Q
2023-03-15 13:52:04:729,0,1.34966,-6.57603,7.84316,Q,Q
2023-03-15 13:52:04:739,0,1.36764,-6.56621,7.86717,Q,Q
2023-03-15 13:52:04:749,0,1.37716,-6.55846,7.89077,Q,Q
2023-03-15 13:52:04:759,0,1.38514,-6.55612,7.91497,Q,Q
2023-03-15 13:52:04:769,0,1.39648,-6.55361,7.9426,Q,Q
2023-03-15 13:52:04:779,0,1.41836,-6.54946,7.96829,Q,Q
2023-03-15 13:52:04:789,0,1.44304,-6.54451,7.98767,Q,Q
2023-03-15 13:52:04:799,0,1.47287,-6.53673,8.01062,Q,Q
2023-03-15 13:52:04:809,0,1.50654,-6.52909,8.03138,Q,Q
2023-03-15 13:52:04:818,0,1.54096,-6.5258,8.04781,Q,Q
2023-03-15 13:52:04:829,0,1.58737,-6.51398,8.05867,Q,Q
2023-03-15 13:52:04:839,0,1.63939,-6.50154,8.06351,Q,Q
2023-03-15 13:52:04:849,0,1.7007,-6.48907,8.0601,Q,Q
2023-03-15 13:52:04:859,0,1.76537,-6.47849,8.04785,Q,Q
2023-03-15 13:52:04:869,0,1.82455,-6.4763,8.039,Q,Q
2023-03-15 13:52:04:879,0,1.87562,-6.48595,8.0311,Q,Q
2023-03-15 13:52:04:889,0,1.91733,-6.50116,8.0202,Q,Q
2023-03-15 13:52:04:899,0,1.95785,-6.52992,8.00721,Q,Q
2023-03-15 13:52:04:909,0,1.99178,-6.56468,7.99019,Q,Q
2023-03-15 13:52:04:919,0,2.02679,-6.60081,7.97273,Q,Q
2023-03-15 13:52:04:929,0,2.05878,-6.64092,7.94937,Q,Q
2023-03-15 13:52:04:939,0,2.0912,-6.67755,7.92542,Q,Q
2023-03-15 13:52:04:949,0,2.1188,-6.71701,7.90042,Q,Q
2023-03-15 13:52:04:959,0,2.14066,-6.75698,7.87925,Q,Q
2023-03-15 13:52:04:969,0,2.15035,-6.80194,7.86444,Q,Q
2023-03-15 13:52:04:979,0,2.15333,-6.84585,7.8464,Q,Q
2023-03-15 13:52:04:989,0,2.14506,-6.88238,7.82977,Q,Q
2023-03-15 13:52:04:999,0,2.13905,-6.91752,7.81832,Q,Q
2023-03-15 13:52:05:9,0,2.13331,-6.94638,7.81419,Q,Q
2023-03-15 13:52:05:19,0,2.12629,-6.97187,7.82202,Q,Q
2023-03-15 13:52:05:29,0,2.12039,-6.9972,7.83705,Q,Q
2023-03-15 13:52:05:39,0,2.11428,-7.01967,7.85792,Q,Q
2023-03-15 13:52:05:49,0,2.10502,-7.04161,7.89233,Q,Q
2023-03-15 13:52:05:59,0,2.09491,-7.0573,7.93164,Q,Q
2023-03-15 13:52:05:69,0,2.07879,-7.07377,7.97431,Q,Q
2023-03-15 13:52:05:79,0,2.05987,-7.08944,8.02688,Q,Q
2023-03-15 13:52:05:89,0,2.03243,-7.10428,8.09167,Q,Q
2023-03-15 13:52:05:99,0,1.99394,-7.11046,8.16659,Q,Q
2023-03-15 13:52:05:109,0,1.95682,-7.11185,8.25311,Q,Q
2023-03-15 13:52:05:119,0,1.91738,-7.11499,8.34828,Q,Q
2023-03-15 13:52:05:129,0,1.87075,-7.12154,8.45602,Q,Q
2023-03-15 13:52:05:139,0,1.8199,-7.1333,8.56788,Q,Q
2023-03-15 13:52:05:149,0,1.75832,-7.14315,8.68201,Q,Q
2023-03-15 13:52:05:159,0,1.69624,-7.15634,8.8004,Q,Q
2023-03-15 13:52:05:169,0,1.62744,-7.17525,8.91821,Q,Q
2023-03-15 13:52:05:179,0,1.54117,-7.19787,9.03411,Q,Q
2023-03-15 13:52:05:189,0,1.44734,-7.2223,9.14241,Q,Q
2023-03-15 13:52:05:199,0,1.34883,-7.24577,9.2485,Q,Q
2023-03-15 13:52:05:209,0,1.24931,-7.27381,9.34799,Q,Q
2023-03-15 13:52:05:219,0,1.14571,-7.3029,9.44284,Q,Q
2023-03-15 13:52:05:229,0,1.03943,-7.32748,9.53564,Q,Q
2023-03-15 13:52:05:239,0,0.925122,-7.35049,9.62023,Q,Q
2023-03-15 13:52:05:249,0,0.802524,-7.36519,9.69771,Q,Q
2023-03-15 13:52:05:259,0,0.67734,-7.37425,9.77318,Q,Q
2023-03-15 13:52:05:268,0,0.545569,-7.37696,9.84566,Q,Q
