Timestamp_cmd,imu_cmd,roll_delta,pitch_delta,yaw_delta
2023-03-10 23:40:50:491,0,9.34243,-10.2613,84.0682
2023-03-10 23:40:50:498,0,9.32125,-10.2702,84.0356
2023-03-10 23:40:50:508,0,9.29856,-10.279,84.0001
2023-03-10 23:40:50:518,0,9.27065,-10.2915,83.9665
2023-03-10 23:40:50:528,0,9.24998,-10.3125,83.9324
2023-03-10 23:40:50:538,0,9.23028,-10.3328,83.8879
2023-03-10 23:40:50:548,0,9.2102,-10.3533,83.8437
2023-03-10 23:40:50:558,0,9.18915,-10.3779,83.7952
2023-03-10 23:40:50:568,0,9.16756,-10.4048,83.7419
2023-03-10 23:40:50:578,0,9.14107,-10.4379,83.6871
2023-03-10 23:40:50:588,0,9.11729,-10.4736,83.6302
2023-03-10 23:40:50:598,0,9.09942,-10.5116,83.5642
2023-03-10 23:40:50:608,0,9.08735,-10.5505,83.4934
2023-03-10 23:40:50:618,0,9.08006,-10.5987,83.4167
2023-03-10 23:40:50:628,0,9.07991,-10.6454,83.3298
2023-03-10 23:40:50:638,0,9.07958,-10.689,83.2388
2023-03-10 23:40:50:648,0,9.08276,-10.7347,83.1414
2023-03-10 23:40:50:658,0,9.08493,-10.7787,83.0453
2023-03-10 23:40:50:668,0,9.0887,-10.8181,82.9474
2023-03-10 23:40:50:678,0,9.09419,-10.8523,82.8471
2023-03-10 23:40:50:688,0,9.10027,-10.8823,82.7495
2023-03-10 23:40:50:698,0,9.11116,-10.9026,82.6562
2023-03-10 23:40:50:708,0,9.12164,-10.9226,82.5696
2023-03-10 23:40:50:718,0,9.12921,-10.931,82.4831
2023-03-10 23:40:50:728,0,9.13069,-10.9338,82.4042
2023-03-10 23:40:50:738,0,9.12875,-10.9318,82.3327
2023-03-10 23:40:50:748,0,9.1281,-10.9351,82.2694
2023-03-10 23:40:50:758,0,9.12996,-10.9456,82.2162
2023-03-10 23:40:50:768,0,9.12978,-10.9674,82.1779
2023-03-10 23:40:50:778,0,9.12224,-10.9961,82.1546
2023-03-10 23:40:50:788,0,9.10194,-11.0296,82.1489
2023-03-10 23:40:50:798,0,9.07217,-11.0577,82.1526
2023-03-10 23:40:50:808,0,9.03313,-11.0786,82.1685
2023-03-10 23:40:50:818,0,8.99211,-11.0982,82.1933
2023-03-10 23:40:50:828,0,8.94943,-11.1153,82.2253
2023-03-10 23:40:50:838,0,8.91388,-11.1376,82.2701
2023-03-10 23:40:50:848,0,8.87753,-11.1636,82.3215
2023-03-10 23:40:50:858,0,8.83843,-11.192,82.378
2023-03-10 23:40:50:868,0,8.79397,-11.2234,82.4351
2023-03-10 23:40:50:878,0,8.74132,-11.2519,82.4945
2023-03-10 23:40:50:888,0,8.68652,-11.2762,82.5511
2023-03-10 23:40:50:898,0,8.6347,-11.2906,82.6034
2023-03-10 23:40:50:908,0,8.57914,-11.2982,82.6533
2023-03-10 23:40:50:918,0,8.52576,-11.3019,82.7008
2023-03-10 23:40:50:928,0,8.47345,-11.3077,82.7523
2023-03-10 23:40:50:938,0,8.42368,-11.3173,82.8052
2023-03-10 23:40:50:948,0,8.37179,-11.3283,82.8611
2023-03-10 23:40:50:958,0,8.31547,-11.335,82.9108
2023-03-10 23:40:50:968,0,8.25926,-11.3397,82.9602
2023-03-10 23:40:50:978,0,8.20737,-11.3429,83.012
2023-03-10 23:40:50:988,0,8.15182,-11.352,83.0662
2023-03-10 23:40:50:998,0,8.10229,-11.3573,83.1223
2023-03-10 23:40:51:8,0,8.0624,-11.3596,83.1808
2023-03-10 23:40:51:18,0,8.01951,-11.3614,83.2454
2023-03-10 23:40:51:28,0,7.98066,-11.3623,83.3102
2023-03-10 23:40:51:38,0,7.94158,-11.3617,83.3765
2023-03-10 23:40:51:48,0,7.90298,-11.3483,83.4412
2023-03-10 23:40:51:58,0,7.85247,-11.333,83.5085
2023-03-10 23:40:51:68,0,7.79964,-11.3189,83.5775
2023-03-10 23:40:51:78,0,7.74545,-11.2973,83.6445
2023-03-10 23:40:51:88,0,7.68935,-11.2693,83.7142
2023-03-10 23:40:51:98,0,7.63699,-11.2431,83.7801
2023-03-10 23:40:51:108,0,7.5812,-11.2124,83.8452
2023-03-10 23:40:51:118,0,7.5226,-11.182,83.908
2023-03-10 23:40:51:128,0,7.46384,-11.1542,83.9652
2023-03-10 23:40:51:139,0,7.40992,-11.1282,84.0165
2023-03-10 23:40:51:148,0,7.36023,-11.1006,84.0626
2023-03-10 23:40:51:158,0,7.31883,-11.0794,84.1005
2023-03-10 23:40:51:168,0,7.28222,-11.0628,84.1342
2023-03-10 23:40:51:178,0,7.24331,-11.0573,84.1749
2023-03-10 23:40:51:188,0,7.20439,-11.0579,84.2155
2023-03-10 23:40:51:198,0,7.15209,-11.0609,84.2617
2023-03-10 23:40:51:208,0,7.08818,-11.0586,84.3086
2023-03-10 23:40:51:218,0,7.01968,-11.0453,84.3498
2023-03-10 23:40:51:228,0,6.94165,-11.0187,84.3821
2023-03-10 23:40:51:238,0,6.86282,-10.9787,84.4091
2023-03-10 23:40:51:248,0,6.79027,-10.9328,84.426
2023-03-10 23:40:51:258,0,6.71966,-10.8863,84.441
2023-03-10 23:40:51:268,0,6.65444,-10.8391,84.4532
2023-03-10 23:40:51:278,0,6.59239,-10.7907,84.4636
2023-03-10 23:40:51:288,0,6.53514,-10.749,84.4783
2023-03-10 23:40:51:298,0,6.4809,-10.7057,84.4902
2023-03-10 23:40:51:308,0,6.43357,-10.6686,84.5057
2023-03-10 23:40:51:318,0,6.39498,-10.6259,84.5309
2023-03-10 23:40:51:328,0,6.36305,-10.5719,84.5527
2023-03-10 23:40:51:338,0,6.33542,-10.5071,84.5761
2023-03-10 23:40:51:348,0,6.31286,-10.4393,84.5981
2023-03-10 23:40:51:358,0,6.30712,-10.3669,84.6177
2023-03-10 23:40:51:368,0,6.32089,-10.3018,84.6438
2023-03-10 23:40:51:378,0,6.35204,-10.247,84.6792
2023-03-10 23:40:51:388,0,6.39821,-10.1992,84.7195
2023-03-10 23:40:51:398,0,6.45169,-10.1572,84.7658
2023-03-10 23:40:51:408,0,6.51216,-10.1119,84.808
2023-03-10 23:40:51:418,0,6.57378,-10.0592,84.8421
2023-03-10 23:40:51:428,0,6.62733,-9.94835,84.8686
2023-03-10 23:40:51:438,0,6.69841,-9.71542,84.8118
2023-03-10 23:40:51:448,0,6.62781,-9.77763,85.0091
2023-03-10 23:40:51:458,0,6.67955,-9.74617,84.9462
2023-03-10 23:40:51:468,0,6.69081,-9.63239,84.8378
2023-03-10 23:40:51:478,0,6.7209,-9.5184,84.7904
2023-03-10 23:40:51:488,0,6.81361,-9.44377,84.817
2023-03-10 23:40:51:498,0,6.89972,-9.4186,84.8788
2023-03-10 23:40:51:508,0,6.95187,-9.38313,84.8816
2023-03-10 23:40:51:518,0,6.97864,-9.31471,84.8355
2023-03-10 23:40:51:528,0,6.99023,-9.21094,84.7723
2023-03-10 23:40:51:538,0,6.99897,-9.10654,84.7143
2023-03-10 23:40:51:548,0,7.00874,-9.02174,84.6577
2023-03-10 23:40:51:558,0,7.00656,-8.9484,84.6088
2023-03-10 23:40:51:568,0,6.98714,-8.87758,84.569
2023-03-10 23:40:51:578,0,6.95493,-8.81497,84.5267
2023-03-10 23:40:51:588,0,6.90853,-8.75835,84.4891
2023-03-10 23:40:51:598,0,6.85444,-8.71272,84.4616
2023-03-10 23:40:51:608,0,6.80867,-8.67601,84.4374
2023-03-10 23:40:51:618,0,6.77051,-8.65057,84.4206
2023-03-10 23:40:51:628,0,6.74623,-8.63351,84.409
2023-03-10 23:40:51:638,0,6.72889,-8.62528,84.4046
2023-03-10 23:40:51:648,0,6.70826,-8.62439,84.4137
2023-03-10 23:40:51:658,0,6.68314,-8.62584,84.4309
2023-03-10 23:40:51:668,0,6.64641,-8.63142,84.4499
2023-03-10 23:40:51:678,0,6.60577,-8.63833,84.476
2023-03-10 23:40:51:688,0,6.56605,-8.65078,84.5114
2023-03-10 23:40:51:698,0,6.53201,-8.67664,84.5591
2023-03-10 23:40:51:708,0,6.50958,-8.71546,84.6245
2023-03-10 23:40:51:718,0,6.50128,-8.76274,84.7096
2023-03-10 23:40:51:728,0,6.50496,-8.81599,84.8071
2023-03-10 23:40:51:738,0,6.52041,-8.87449,84.9193
2023-03-10 23:40:51:748,0,6.54229,-8.93136,85.0386
2023-03-10 23:40:51:758,0,6.56093,-8.97665,85.1588
2023-03-10 23:40:51:769,0,6.58356,-9.01021,85.2722
2023-03-10 23:40:51:778,0,6.60214,-9.04332,85.3862
2023-03-10 23:40:51:788,0,6.62665,-9.08299,85.5043
2023-03-10 23:40:51:799,0,6.64285,-9.14128,85.6342
2023-03-10 23:40:51:808,0,6.66485,-9.20307,85.7671
2023-03-10 23:40:51:819,0,6.68789,-9.27419,85.8962
2023-03-10 23:40:51:828,0,6.71524,-9.34494,86.0207
2023-03-10 23:40:51:838,0,6.74735,-9.41153,86.1404
2023-03-10 23:40:51:849,0,6.78121,-9.46854,86.256
2023-03-10 23:40:51:858,0,6.81615,-9.51917,86.357
2023-03-10 23:40:51:868,0,6.84487,-9.56275,86.4496
2023-03-10 23:40:51:879,0,6.87363,-9.60912,86.5391
2023-03-10 23:40:51:888,0,6.89358,-9.65983,86.6278
2023-03-10 23:40:51:898,0,6.90925,-9.71368,86.7179
2023-03-10 23:40:51:908,0,6.9219,-9.76732,86.8049
2023-03-10 23:40:51:919,0,6.9318,-9.81841,86.889
2023-03-10 23:40:51:928,0,6.94482,-9.86518,86.9634
2023-03-10 23:40:51:939,0,6.94979,-9.90289,87.0246
2023-03-10 23:40:51:948,0,6.96015,-9.93415,87.0743
2023-03-10 23:40:51:959,0,6.96955,-9.96182,87.1163
2023-03-10 23:40:51:968,0,6.98131,-9.98914,87.1493
2023-03-10 23:40:51:978,0,6.99236,-10.0137,87.1724
2023-03-10 23:40:51:988,0,7.00529,-10.0354,87.1836
2023-03-10 23:40:51:998,0,7.02271,-10.0477,87.184
2023-03-10 23:40:52:8,0,7.05005,-10.0522,87.1722
2023-03-10 23:40:52:19,0,7.08429,-10.0494,87.1524
2023-03-10 23:40:52:28,0,7.12349,-10.0372,87.1237
2023-03-10 23:40:52:39,0,7.17131,-10.0258,87.0926
2023-03-10 23:40:52:48,0,7.22276,-10.013,87.0574
2023-03-10 23:40:52:59,0,7.27455,-9.99667,87.0181
2023-03-10 23:40:52:68,0,7.32579,-9.98138,86.9762
2023-03-10 23:40:52:79,0,7.38214,-9.95996,86.9337
2023-03-10 23:40:52:88,0,7.43797,-9.9385,86.8875
2023-03-10 23:40:52:98,0,7.50356,-9.91559,86.8387
2023-03-10 23:40:52:108,0,7.57012,-9.89083,86.7911
2023-03-10 23:40:52:118,0,7.63643,-9.86771,86.7432
2023-03-10 23:40:52:128,0,7.69503,-9.84696,86.6947
2023-03-10 23:40:52:139,0,7.74706,-9.82861,86.6512
2023-03-10 23:40:52:148,0,7.79194,-9.81141,86.6089
2023-03-10 23:40:52:158,0,7.83401,-9.79232,86.5711
2023-03-10 23:40:52:168,0,7.87266,-9.77566,86.5368
2023-03-10 23:40:52:178,0,7.90772,-9.75966,86.507
2023-03-10 23:40:52:188,0,7.93655,-9.74769,86.4868
2023-03-10 23:40:52:198,0,7.96091,-9.73827,86.4746
2023-03-10 23:40:52:208,0,7.98254,-9.73509,86.4757
2023-03-10 23:40:52:218,0,8.00248,-9.73778,86.487
2023-03-10 23:40:52:228,0,8.01091,-9.74846,86.5147
2023-03-10 23:40:52:238,0,8.01073,-9.76696,86.5573
2023-03-10 23:40:52:248,0,8.00417,-9.77626,86.5987
2023-03-10 23:40:52:258,0,7.99296,-9.77767,86.6339
2023-03-10 23:40:52:268,0,7.98046,-9.77343,86.6576
2023-03-10 23:40:52:278,0,7.96685,-9.76895,86.6806
2023-03-10 23:40:52:288,0,7.95194,-9.76652,86.6998
2023-03-10 23:40:52:298,0,7.93742,-9.77286,86.7186
2023-03-10 23:40:52:308,0,7.92134,-9.78283,86.7344
2023-03-10 23:40:52:318,0,7.90363,-9.79108,86.7484
2023-03-10 23:40:52:328,0,7.88696,-9.80119,86.76
2023-03-10 23:40:52:338,0,7.8767,-9.81343,86.7665
2023-03-10 23:40:52:348,0,7.86559,-9.82883,86.7784
2023-03-10 23:40:52:358,0,7.85541,-9.84477,86.7898
2023-03-10 23:40:52:369,0,7.85218,-9.8541,86.7986
2023-03-10 23:40:52:379,0,7.8441,-9.85993,86.8061
2023-03-10 23:40:52:388,0,7.83725,-9.86551,86.8155
2023-03-10 23:40:52:398,0,7.82391,-9.87063,86.8267
2023-03-10 23:40:52:408,0,7.80849,-9.86981,86.8436
2023-03-10 23:40:52:418,0,7.7942,-9.86416,86.8685
2023-03-10 23:40:52:428,0,7.78322,-9.85455,86.8966
2023-03-10 23:40:52:438,0,7.77279,-9.83628,86.9302
2023-03-10 23:40:52:448,0,7.76181,-9.80833,86.9684
2023-03-10 23:40:52:458,0,7.74465,-9.77607,87.0187
2023-03-10 23:40:52:468,0,7.72144,-9.7427,87.0728
2023-03-10 23:40:52:479,0,7.70032,-9.70511,87.1367
2023-03-10 23:40:52:488,0,7.68338,-9.67213,87.2068
2023-03-10 23:40:52:498,0,7.67543,-9.63647,87.2839
2023-03-10 23:40:52:508,0,7.68159,-9.59489,87.3571
2023-03-10 23:40:52:519,0,7.69377,-9.54827,87.4337
2023-03-10 23:40:52:529,0,7.71221,-9.49566,87.5112
2023-03-10 23:40:52:539,0,7.73401,-9.44688,87.5873
2023-03-10 23:40:52:548,0,7.75359,-9.39635,87.6743
2023-03-10 23:40:52:558,0,7.76749,-9.34242,87.7637
2023-03-10 23:40:52:568,0,7.78179,-9.29448,87.8611
2023-03-10 23:40:52:579,0,7.79228,-9.25472,87.9635
2023-03-10 23:40:52:588,0,7.80493,-9.22968,88.0823
2023-03-10 23:40:52:599,0,7.82938,-9.21583,88.2116
2023-03-10 23:40:52:608,0,7.8669,-9.19593,88.3359
2023-03-10 23:40:52:618,0,7.91566,-9.16553,88.4463
2023-03-10 23:40:52:628,0,7.97234,-9.11575,88.547
2023-03-10 23:40:52:639,0,8.02555,-9.06562,88.6302
2023-03-10 23:40:52:649,0,8.07025,-9.02088,88.7036
2023-03-10 23:40:52:659,0,8.10576,-8.97942,88.7703
2023-03-10 23:40:52:669,0,8.13863,-8.94681,88.8301
2023-03-10 23:40:52:679,0,8.17409,-8.91959,88.8809
2023-03-10 23:40:52:688,0,8.21965,-8.89063,88.9265
2023-03-10 23:40:52:699,0,8.27577,-8.86659,88.9698
2023-03-10 23:40:52:709,0,8.33127,-8.84661,89.0047
2023-03-10 23:40:52:719,0,8.38547,-8.8209,89.0278
2023-03-10 23:40:52:728,0,8.44151,-8.79512,89.0421
2023-03-10 23:40:52:738,0,8.49966,-8.77236,89.0519
2023-03-10 23:40:52:748,0,8.5544,-8.75281,89.0573
2023-03-10 23:40:52:759,0,8.60517,-8.73839,89.0633
2023-03-10 23:40:52:769,0,8.65443,-8.73485,89.0712
2023-03-10 23:40:52:778,0,8.69986,-8.74316,89.0764
2023-03-10 23:40:52:788,0,8.7402,-8.76274,89.0858
2023-03-10 23:40:52:798,0,8.78042,-8.78961,89.0933
2023-03-10 23:40:52:808,0,8.81667,-8.83004,89.1093
2023-03-10 23:40:52:818,0,8.85292,-8.87326,89.132
2023-03-10 23:40:52:828,0,8.89232,-8.91483,89.1565
2023-03-10 23:40:52:838,0,8.92662,-8.95318,89.1826
2023-03-10 23:40:52:849,0,8.9593,-8.9881,89.2084
2023-03-10 23:40:52:859,0,8.98677,-9.02066,89.2359
2023-03-10 23:40:52:869,0,9.01027,-9.04824,89.2649
2023-03-10 23:40:52:878,0,9.03092,-9.07703,89.2942
2023-03-10 23:40:52:889,0,9.0425,-9.09637,89.3238
2023-03-10 23:40:52:898,0,9.05311,-9.1071,89.3501
2023-03-10 23:40:52:908,0,9.05813,-9.10668,89.3736
2023-03-10 23:40:52:919,0,9.05918,-9.09768,89.3951
2023-03-10 23:40:52:929,0,9.05514,-9.08351,89.4174
2023-03-10 23:40:52:939,0,9.04571,-9.07174,89.4478
2023-03-10 23:40:52:949,0,9.02881,-9.06714,89.4848
2023-03-10 23:40:52:958,0,9.0106,-9.05885,89.5317
2023-03-10 23:40:52:969,0,8.99141,-9.05421,89.5806
2023-03-10 23:40:52:979,0,8.97432,-9.05019,89.6395
2023-03-10 23:40:52:989,0,8.97064,-9.03851,89.7007
2023-03-10 23:40:52:998,0,8.97077,-9.0171,89.759
2023-03-10 23:40:53:8,0,8.97919,-8.98534,89.8149
2023-03-10 23:40:53:18,0,8.9834,-8.94626,89.8689
2023-03-10 23:40:53:28,0,8.97395,-8.914,89.9253
2023-03-10 23:40:53:39,0,8.95198,-8.89372,89.9903
2023-03-10 23:40:53:49,0,8.92398,-8.88965,90.0653
2023-03-10 23:40:53:59,0,8.89007,-8.89064,90.1454
2023-03-10 23:40:53:69,0,8.86435,-8.89678,90.2238
2023-03-10 23:40:53:78,0,8.84281,-8.90434,90.3001
2023-03-10 23:40:53:88,0,8.83573,-8.90618,90.3705
2023-03-10 23:40:53:98,0,8.83323,-8.89775,90.4278
2023-03-10 23:40:53:109,0,8.83518,-8.88685,90.4799
2023-03-10 23:40:53:118,0,8.83101,-8.87183,90.5276
2023-03-10 23:40:53:129,0,8.82323,-8.8571,90.5689
2023-03-10 23:40:53:138,0,8.81109,-8.84503,90.6076
2023-03-10 23:40:53:149,0,8.80036,-8.83979,90.6422
2023-03-10 23:40:53:159,0,8.80028,-8.83743,90.6699
2023-03-10 23:40:53:169,0,8.81127,-8.8377,90.6935
2023-03-10 23:40:53:179,0,8.83901,-8.84506,90.7104
2023-03-10 23:40:53:189,0,8.88269,-8.85509,90.7297
2023-03-10 23:40:53:199,0,8.92617,-8.87114,90.7401
2023-03-10 23:40:53:209,0,8.97402,-8.88274,90.7435
2023-03-10 23:40:53:219,0,9.01964,-8.88653,90.7397
2023-03-10 23:40:53:229,0,9.06068,-8.88816,90.7317
2023-03-10 23:40:53:239,0,9.09679,-8.89112,90.7262
2023-03-10 23:40:53:248,0,9.13847,-8.90171,90.7247
2023-03-10 23:40:53:258,0,9.18716,-8.92087,90.7311
2023-03-10 23:40:53:269,0,9.24281,-8.94501,90.7463
2023-03-10 23:40:53:279,0,9.30002,-8.9707,90.7664
2023-03-10 23:40:53:288,0,9.357,-8.9865,90.7845
2023-03-10 23:40:53:298,0,9.40639,-8.99089,90.793
2023-03-10 23:40:53:308,0,9.44286,-8.99474,90.7912
2023-03-10 23:40:53:318,0,9.46937,-8.99175,90.7805
2023-03-10 23:40:53:328,0,9.48545,-8.99302,90.762
2023-03-10 23:40:53:339,0,9.50102,-9.0051,90.7434
2023-03-10 23:40:53:349,0,9.51456,-9.02231,90.7239
2023-03-10 23:40:53:359,0,9.52626,-9.04415,90.7008
2023-03-10 23:40:53:369,0,9.53442,-9.06962,90.6757
2023-03-10 23:40:53:378,0,9.53675,-9.10014,90.6508
2023-03-10 23:40:53:388,0,9.53327,-9.13796,90.6286
2023-03-10 23:40:53:398,0,9.52746,-9.1743,90.6068
2023-03-10 23:40:53:408,0,9.52392,-9.20821,90.5856
2023-03-10 23:40:53:418,0,9.5345,-9.24339,90.5592
2023-03-10 23:40:53:428,0,9.55905,-9.28165,90.5338
2023-03-10 23:40:53:438,0,9.58353,-9.32322,90.5158
2023-03-10 23:40:53:449,0,9.60414,-9.37305,90.5042
2023-03-10 23:40:53:459,0,9.61465,-9.42503,90.4963
2023-03-10 23:40:53:469,0,9.61698,-9.47947,90.4935
2023-03-10 23:40:53:479,0,9.61607,-9.53015,90.4964
2023-03-10 23:40:53:489,0,9.61799,-9.57294,90.5051
2023-03-10 23:40:53:498,0,9.6261,-9.60683,90.5104
2023-03-10 23:40:53:508,0,9.64202,-9.63515,90.5174
2023-03-10 23:40:53:518,0,9.66387,-9.65762,90.521
2023-03-10 23:40:53:528,0,9.68855,-9.67732,90.5218
2023-03-10 23:40:53:538,0,9.70925,-9.69663,90.5245
2023-03-10 23:40:53:548,0,9.73107,-9.71665,90.5197
2023-03-10 23:40:53:558,0,9.756,-9.73749,90.5074
2023-03-10 23:40:53:568,0,9.78141,-9.76303,90.4949
2023-03-10 23:40:53:578,0,9.80773,-9.79819,90.484
2023-03-10 23:40:53:589,0,9.83632,-9.82298,90.4695
2023-03-10 23:40:53:599,0,9.86636,-9.84031,90.4495
2023-03-10 23:40:53:608,0,9.89716,-9.85364,90.4236
2023-03-10 23:40:53:619,0,9.92539,-9.8691,90.3926
2023-03-10 23:40:53:629,0,9.94625,-9.8769,90.3612
2023-03-10 23:40:53:639,0,9.96692,-9.87747,90.3252
2023-03-10 23:40:53:649,0,9.98527,-9.87552,90.2853
2023-03-10 23:40:53:659,0,10.0095,-9.86783,90.2416
2023-03-10 23:40:53:669,0,10.0411,-9.861,90.2076
2023-03-10 23:40:53:678,0,10.085,-9.85144,90.1781
2023-03-10 23:40:53:689,0,10.1362,-9.84662,90.1584
2023-03-10 23:40:53:699,0,10.1828,-9.83888,90.1494
2023-03-10 23:40:53:709,0,10.216,-9.83347,90.1486
2023-03-10 23:40:53:719,0,10.2348,-9.82245,90.1551
2023-03-10 23:40:53:729,0,10.2352,-9.81237,90.1726
2023-03-10 23:40:53:739,0,10.2246,-9.80957,90.2024
2023-03-10 23:40:53:749,0,10.2108,-9.80782,90.2457
2023-03-10 23:40:53:759,0,10.2083,-9.80257,90.2995
2023-03-10 23:40:53:769,0,10.2108,-9.79445,90.3562
2023-03-10 23:40:53:778,0,10.2158,-9.78228,90.4153
2023-03-10 23:40:53:788,0,10.2197,-9.77084,90.4731
2023-03-10 23:40:53:798,0,10.2178,-9.75768,90.5308
2023-03-10 23:40:53:808,0,10.2121,-9.74357,90.5912
2023-03-10 23:40:53:818,0,10.1969,-9.72806,90.649
2023-03-10 23:40:53:829,0,10.1784,-9.70818,90.7046
2023-03-10 23:40:53:839,0,10.1598,-9.68795,90.7668
2023-03-10 23:40:53:849,0,10.1436,-9.67277,90.8345
2023-03-10 23:40:53:859,0,10.1254,-9.65322,90.9027
2023-03-10 23:40:53:868,0,10.1084,-9.63383,90.967
2023-03-10 23:40:53:879,0,10.0883,-9.6185,91.0261
2023-03-10 23:40:53:889,0,10.0696,-9.60269,91.0846
2023-03-10 23:40:53:899,0,10.0492,-9.58632,91.1403
2023-03-10 23:40:53:908,0,10.0222,-9.57236,91.1858
2023-03-10 23:40:53:918,0,9.99006,-9.56203,91.231
2023-03-10 23:40:53:928,0,9.95557,-9.55686,91.2713
2023-03-10 23:40:53:939,0,9.91677,-9.56064,91.3116
2023-03-10 23:40:53:949,0,9.88093,-9.56988,91.3537
2023-03-10 23:40:53:959,0,9.84491,-9.57998,91.3994
2023-03-10 23:40:53:969,0,9.80965,-9.58786,91.4448
2023-03-10 23:40:53:979,0,9.77258,-9.59807,91.4872
2023-03-10 23:40:53:988,0,9.73176,-9.60784,91.5286
2023-03-10 23:40:53:998,0,9.6898,-9.61566,91.5624
2023-03-10 23:40:54:8,0,9.64248,-9.62784,91.5904
2023-03-10 23:40:54:19,0,9.59441,-9.63974,91.6122
2023-03-10 23:40:54:28,0,9.55024,-9.65027,91.6293
2023-03-10 23:40:54:38,0,9.50698,-9.65943,91.6426
2023-03-10 23:40:54:48,0,9.47006,-9.66536,91.6542
2023-03-10 23:40:54:59,0,9.43681,-9.67043,91.6611
2023-03-10 23:40:54:68,0,9.40854,-9.67877,91.6751
2023-03-10 23:40:54:79,0,9.38318,-9.69246,91.6915
2023-03-10 23:40:54:88,0,9.36022,-9.71508,91.7127
2023-03-10 23:40:54:99,0,9.33445,-9.74274,91.7347
2023-03-10 23:40:54:108,0,9.30989,-9.769,91.7501
2023-03-10 23:40:54:119,0,9.28391,-9.79404,91.764
2023-03-10 23:40:54:129,0,9.25495,-9.81827,91.7739
2023-03-10 23:40:54:138,0,9.23115,-9.84388,91.7807
2023-03-10 23:40:54:148,0,9.20636,-9.87133,91.7911
2023-03-10 23:40:54:158,0,9.18592,-9.89566,91.7976
2023-03-10 23:40:54:169,0,9.16863,-9.92276,91.8037
2023-03-10 23:40:54:179,0,9.15742,-9.95654,91.814
2023-03-10 23:40:54:189,0,9.15004,-9.98734,91.8235
2023-03-10 23:40:54:198,0,9.14051,-10.0191,91.8323
2023-03-10 23:40:54:209,0,9.12938,-10.0485,91.8431
2023-03-10 23:40:54:219,0,9.12378,-10.0742,91.8526
2023-03-10 23:40:54:229,0,9.12021,-10.1001,91.8632
2023-03-10 23:40:54:239,0,9.12123,-10.1265,91.874
2023-03-10 23:40:54:249,0,9.11731,-10.1455,91.8846
2023-03-10 23:40:54:258,0,9.11235,-10.1612,91.8978
2023-03-10 23:40:54:268,0,9.10115,-10.1745,91.9189
2023-03-10 23:40:54:279,0,9.09069,-10.1872,91.9413
2023-03-10 23:40:54:288,0,9.08363,-10.2028,91.9713
2023-03-10 23:40:54:299,0,9.07978,-10.2105,92.0067
2023-03-10 23:40:54:309,0,9.08342,-10.2123,92.0396
2023-03-10 23:40:54:318,0,9.09354,-10.2068,92.0719
2023-03-10 23:40:54:328,0,9.1131,-10.1979,92.1004
2023-03-10 23:40:54:338,0,9.12824,-10.1881,92.1292
2023-03-10 23:40:54:348,0,9.13559,-10.1709,92.1581
2023-03-10 23:40:54:358,0,9.14644,-10.1512,92.1868
2023-03-10 23:40:54:368,0,9.15412,-10.1307,92.2134
2023-03-10 23:40:54:379,0,9.16075,-10.1043,92.2411
2023-03-10 23:40:54:388,0,9.17042,-10.0777,92.2741
2023-03-10 23:40:54:398,0,9.18355,-10.0484,92.3079
2023-03-10 23:40:54:408,0,9.1956,-10.0217,92.3449
2023-03-10 23:40:54:418,0,9.21002,-9.99169,92.3763
2023-03-10 23:40:54:428,0,9.21963,-9.96336,92.4073
2023-03-10 23:40:54:438,0,9.22793,-9.93717,92.4425
2023-03-10 23:40:54:449,0,9.23304,-9.91862,92.4776
2023-03-10 23:40:54:458,0,9.2424,-9.90653,92.5126
2023-03-10 23:40:54:468,0,9.24665,-9.89787,92.5459
2023-03-10 23:40:54:478,0,9.25115,-9.89765,92.5752
2023-03-10 23:40:54:488,0,9.25511,-9.89649,92.6037
2023-03-10 23:40:54:498,0,9.25682,-9.89532,92.6248
2023-03-10 23:40:54:508,0,9.25929,-9.89377,92.6393
2023-03-10 23:40:54:518,0,9.25562,-9.89367,92.6444
2023-03-10 23:40:54:528,0,9.25294,-9.89284,92.6409
2023-03-10 23:40:54:538,0,9.25387,-9.89024,92.6304
2023-03-10 23:40:54:548,0,9.25513,-9.88619,92.6098
2023-03-10 23:40:54:558,0,9.25863,-9.88335,92.5793
2023-03-10 23:40:54:568,0,9.25908,-9.87841,92.5528
2023-03-10 23:40:54:578,0,9.26185,-9.87589,92.5267
2023-03-10 23:40:54:589,0,9.26395,-9.87213,92.5012
2023-03-10 23:40:54:598,0,9.26997,-9.86615,92.4749
2023-03-10 23:40:54:608,0,9.27473,-9.85829,92.4524
2023-03-10 23:40:54:618,0,9.27772,-9.85453,92.432
2023-03-10 23:40:54:628,0,9.28284,-9.84281,92.4138
2023-03-10 23:40:54:638,0,9.28072,-9.832,92.401
2023-03-10 23:40:54:649,0,9.27413,-9.81884,92.3903
2023-03-10 23:40:54:659,0,9.26232,-9.80559,92.3863
2023-03-10 23:40:54:668,0,9.25044,-9.79184,92.385
2023-03-10 23:40:54:678,0,9.23962,-9.77944,92.3826
2023-03-10 23:40:54:688,0,9.22983,-9.76823,92.3808
2023-03-10 23:40:54:699,0,9.22359,-9.75463,92.3774
2023-03-10 23:40:54:709,0,9.21643,-9.74344,92.3752
2023-03-10 23:40:54:718,0,9.20603,-9.73319,92.3745
2023-03-10 23:40:54:729,0,9.19586,-9.72484,92.3745
2023-03-10 23:40:54:739,0,9.18372,-9.71502,92.376
2023-03-10 23:40:54:748,0,9.16945,-9.71053,92.3824
2023-03-10 23:40:54:759,0,9.15815,-9.70332,92.3855
2023-03-10 23:40:54:769,0,9.1488,-9.70302,92.3862
2023-03-10 23:40:54:779,0,9.14492,-9.70005,92.3842
2023-03-10 23:40:54:788,0,9.14287,-9.69836,92.3819
2023-03-10 23:40:54:798,0,9.14486,-9.69604,92.3735
2023-03-10 23:40:54:808,0,9.1455,-9.69243,92.3644
2023-03-10 23:40:54:818,0,9.14763,-9.68984,92.3515
2023-03-10 23:40:54:828,0,9.15033,-9.69404,92.3373
2023-03-10 23:40:54:838,0,9.15021,-9.70172,92.3205
2023-03-10 23:40:54:848,0,9.14682,-9.71322,92.3019
2023-03-10 23:40:54:858,0,9.13926,-9.72191,92.2785
2023-03-10 23:40:54:868,0,9.12789,-9.72682,92.2508
2023-03-10 23:40:54:878,0,9.11675,-9.73119,92.2257
2023-03-10 23:40:54:888,0,9.10856,-9.73644,92.2007
2023-03-10 23:40:54:898,0,9.10002,-9.73769,92.1824
2023-03-10 23:40:54:908,0,9.09434,-9.73874,92.1618
2023-03-10 23:40:54:918,0,9.08358,-9.73646,92.1456
2023-03-10 23:40:54:928,0,9.06891,-9.72835,92.1343
2023-03-10 23:40:54:938,0,9.05687,-9.72054,92.1193
2023-03-10 23:40:54:948,0,9.04528,-9.7095,92.1063
2023-03-10 23:40:54:958,0,9.02751,-9.70165,92.0973
2023-03-10 23:40:54:968,0,9.01137,-9.6985,92.0923
2023-03-10 23:40:54:979,0,8.99375,-9.69745,92.0854
2023-03-10 23:40:54:988,0,8.97673,-9.69671,92.0742
2023-03-10 23:40:54:999,0,8.96391,-9.69865,92.0541
2023-03-10 23:40:55:9,0,8.95103,-9.69662,92.0268
2023-03-10 23:40:55:19,0,8.93266,-9.69023,91.9973
2023-03-10 23:40:55:29,0,8.91533,-9.68326,91.9667
2023-03-10 23:40:55:38,0,8.90192,-9.67196,91.933
2023-03-10 23:40:55:49,0,8.88794,-9.66056,91.8996
2023-03-10 23:40:55:59,0,8.87017,-9.65089,91.8723
2023-03-10 23:40:55:69,0,8.85462,-9.64122,91.8462
2023-03-10 23:40:55:79,0,8.83229,-9.6324,91.8226
2023-03-10 23:40:55:89,0,8.81264,-9.62315,91.7981
2023-03-10 23:40:55:98,0,8.79248,-9.61188,91.7745
2023-03-10 23:40:55:108,0,8.77345,-9.59753,91.7526
2023-03-10 23:40:55:118,0,8.75179,-9.58105,91.7324
2023-03-10 23:40:55:129,0,8.73191,-9.56665,91.7111
2023-03-10 23:40:55:139,0,8.70922,-9.55676,91.6933
2023-03-10 23:40:55:149,0,8.68088,-9.54884,91.6776
2023-03-10 23:40:55:159,0,8.64993,-9.53894,91.6591
2023-03-10 23:40:55:168,0,8.61603,-9.52919,91.6397
2023-03-10 23:40:55:179,0,8.58347,-9.52094,91.6245
2023-03-10 23:40:55:189,0,8.55426,-9.51256,91.6073
2023-03-10 23:40:55:199,0,8.52771,-9.5005,91.5893
2023-03-10 23:40:55:208,0,8.51656,-9.48907,91.5642
2023-03-10 23:40:55:218,0,8.50882,-9.4813,91.5404
2023-03-10 23:40:55:228,0,8.49897,-9.47777,91.5198
2023-03-10 23:40:55:238,0,8.48749,-9.47466,91.5012
2023-03-10 23:40:55:248,0,8.47121,-9.47758,91.4807
2023-03-10 23:40:55:258,0,8.44995,-9.48225,91.4533
2023-03-10 23:40:55:268,0,8.42295,-9.47982,91.4212
2023-03-10 23:40:55:278,0,8.39268,-9.47823,91.3796
2023-03-10 23:40:55:288,0,8.35819,-9.47902,91.336
2023-03-10 23:40:55:298,0,8.32775,-9.48282,91.2804
2023-03-10 23:40:55:308,0,8.29632,-9.48381,91.2215
2023-03-10 23:40:55:318,0,8.26435,-9.48714,91.1528
2023-03-10 23:40:55:328,0,8.23424,-9.48954,91.0788
2023-03-10 23:40:55:338,0,8.20393,-9.49531,91.0035
2023-03-10 23:40:55:348,0,8.17551,-9.50311,90.925
2023-03-10 23:40:55:358,0,8.14943,-9.50853,90.8422
2023-03-10 23:40:55:368,0,8.12061,-9.5147,90.7632
2023-03-10 23:40:55:379,0,8.09294,-9.52516,90.6864
2023-03-10 23:40:55:388,0,8.07182,-9.53041,90.6124
2023-03-10 23:40:55:398,0,8.05551,-9.53428,90.548
2023-03-10 23:40:55:408,0,8.03984,-9.53655,90.487
2023-03-10 23:40:55:418,0,8.0197,-9.53782,90.4337
2023-03-10 23:40:55:428,0,7.99963,-9.53726,90.3889
2023-03-10 23:40:55:438,0,7.98983,-9.53431,90.3496
2023-03-10 23:40:55:448,0,7.98394,-9.52859,90.3172
2023-03-10 23:40:55:458,0,7.98424,-9.52178,90.2917
2023-03-10 23:40:55:468,0,7.98912,-9.51099,90.2694
2023-03-10 23:40:55:478,0,7.99333,-9.49981,90.2524
2023-03-10 23:40:55:489,0,7.9975,-9.48641,90.2406
2023-03-10 23:40:55:498,0,7.99991,-9.47222,90.2327
2023-03-10 23:40:55:508,0,8.00221,-9.4598,90.2283
2023-03-10 23:40:55:518,0,8.00857,-9.44727,90.2187
2023-03-10 23:40:55:528,0,8.02449,-9.43301,90.214
2023-03-10 23:40:55:538,0,8.03737,-9.42031,90.2092
2023-03-10 23:40:55:548,0,8.05427,-9.41225,90.2031
2023-03-10 23:40:55:558,0,8.06341,-9.40089,90.1968
2023-03-10 23:40:55:568,0,8.07011,-9.39795,90.1902
2023-03-10 23:40:55:579,0,8.07797,-9.39847,90.1815
2023-03-10 23:40:55:588,0,8.08664,-9.3989,90.1751
2023-03-10 23:40:55:598,0,8.09514,-9.39793,90.1664
2023-03-10 23:40:55:608,0,8.10375,-9.39521,90.161
2023-03-10 23:40:55:618,0,8.11112,-9.39519,90.157
2023-03-10 23:40:55:628,0,8.11589,-9.39233,90.1522
2023-03-10 23:40:55:638,0,8.12145,-9.39262,90.1468
2023-03-10 23:40:55:648,0,8.12612,-9.39083,90.1407
2023-03-10 23:40:55:658,0,8.13487,-9.39214,90.1382
2023-03-10 23:40:55:668,0,8.14816,-9.39107,90.1363
2023-03-10 23:40:55:678,0,8.16231,-9.39123,90.1367
2023-03-10 23:40:55:688,0,8.17331,-9.39274,90.1322
2023-03-10 23:40:55:698,0,8.18,-9.39417,90.1228
2023-03-10 23:40:55:708,0,8.18429,-9.39706,90.1181
2023-03-10 23:40:55:718,0,8.19456,-9.39743,90.1121
2023-03-10 23:40:55:728,0,8.20636,-9.39914,90.1138
2023-03-10 23:40:55:738,0,8.2167,-9.39723,90.112
2023-03-10 23:40:55:748,0,8.22704,-9.39386,90.1163
2023-03-10 23:40:55:758,0,8.23406,-9.39309,90.1199
2023-03-10 23:40:55:768,0,8.23647,-9.3907,90.1267
2023-03-10 23:40:55:778,0,8.23672,-9.38547,90.1295
2023-03-10 23:40:55:788,0,8.2341,-9.37916,90.1348
2023-03-10 23:40:55:798,0,8.23743,-9.37246,90.138
2023-03-10 23:40:55:808,0,8.23723,-9.35997,90.1388
2023-03-10 23:40:55:818,0,8.24685,-9.3504,90.1323
2023-03-10 23:40:55:828,0,8.25452,-9.34506,90.1272
2023-03-10 23:40:55:838,0,8.26075,-9.34079,90.1163
2023-03-10 23:40:55:848,0,8.27184,-9.34101,90.1024
2023-03-10 23:40:55:858,0,8.28677,-9.34136,90.0865
2023-03-10 23:40:55:868,0,8.29187,-9.34231,90.0706
2023-03-10 23:40:55:878,0,8.29424,-9.34032,90.0492
2023-03-10 23:40:55:888,0,8.29722,-9.33537,90.0274
2023-03-10 23:40:55:898,0,8.29748,-9.33452,90.0055
2023-03-10 23:40:55:909,0,8.29194,-9.33441,89.9901
2023-03-10 23:40:55:918,0,8.28748,-9.33809,89.9726
2023-03-10 23:40:55:928,0,8.27934,-9.34383,89.9536
2023-03-10 23:40:55:938,0,8.27276,-9.34982,89.932
2023-03-10 23:40:55:948,0,8.26385,-9.35289,89.9151
2023-03-10 23:40:55:958,0,8.26471,-9.35619,89.8977
2023-03-10 23:40:55:968,0,8.2715,-9.35823,89.8811
2023-03-10 23:40:55:979,0,8.28008,-9.3638,89.8654
2023-03-10 23:40:55:988,0,8.29139,-9.3672,89.8484
2023-03-10 23:40:55:999,0,8.29944,-9.37354,89.8322
2023-03-10 23:40:56:9,0,8.30488,-9.38252,89.8128
2023-03-10 23:40:56:19,0,8.30186,-9.39195,89.7914
2023-03-10 23:40:56:29,0,8.29783,-9.39734,89.7588
2023-03-10 23:40:56:38,0,8.29525,-9.40171,89.7252
2023-03-10 23:40:56:49,0,8.3005,-9.41076,89.6894
2023-03-10 23:40:56:58,0,8.30407,-9.42675,89.6504
2023-03-10 23:40:56:69,0,8.30706,-9.44045,89.6085
2023-03-10 23:40:56:78,0,8.31062,-9.45676,89.5669
2023-03-10 23:40:56:88,0,8.30999,-9.47142,89.524
2023-03-10 23:40:56:99,0,8.30544,-9.48651,89.4826
2023-03-10 23:40:56:109,0,8.29451,-9.50202,89.4446
2023-03-10 23:40:56:119,0,8.28387,-9.51772,89.4107
2023-03-10 23:40:56:128,0,8.27707,-9.53127,89.3738
2023-03-10 23:40:56:138,0,8.27371,-9.53946,89.3385
2023-03-10 23:40:56:148,0,8.2771,-9.54512,89.3032
2023-03-10 23:40:56:159,0,8.28301,-9.54798,89.2697
2023-03-10 23:40:56:169,0,8.28999,-9.55053,89.2351
2023-03-10 23:40:56:179,0,8.29307,-9.55412,89.2054
2023-03-10 23:40:56:189,0,8.29939,-9.55803,89.1772
2023-03-10 23:40:56:198,0,8.30626,-9.55301,89.1495
2023-03-10 23:40:56:209,0,8.31282,-9.54548,89.1294
2023-03-10 23:40:56:218,0,8.32718,-9.5373,89.1135
2023-03-10 23:40:56:228,0,8.34174,-9.534,89.1046
2023-03-10 23:40:56:238,0,8.35653,-9.52501,89.0998
2023-03-10 23:40:56:248,0,8.36892,-9.51609,89.0963
2023-03-10 23:40:56:258,0,8.3766,-9.50416,89.0961
2023-03-10 23:40:56:269,0,8.3804,-9.4986,89.0949
2023-03-10 23:40:56:279,0,8.37889,-9.4942,89.0963
2023-03-10 23:40:56:289,0,8.37331,-9.48962,89.0983
2023-03-10 23:40:56:299,0,8.3669,-9.49379,89.0968
2023-03-10 23:40:56:309,0,8.36073,-9.4927,89.0921
2023-03-10 23:40:56:319,0,8.35535,-9.49299,89.0875
2023-03-10 23:40:56:329,0,8.34491,-9.49588,89.0856
2023-03-10 23:40:56:338,0,8.33187,-9.50092,89.0848
2023-03-10 23:40:56:349,0,8.31719,-9.5066,89.0866
2023-03-10 23:40:56:359,0,8.30358,-9.51048,89.0869
2023-03-10 23:40:56:368,0,8.29132,-9.51555,89.0917
2023-03-10 23:40:56:378,0,8.28027,-9.52537,89.1007
2023-03-10 23:40:56:388,0,8.26693,-9.53474,89.114
2023-03-10 23:40:56:398,0,8.25916,-9.53944,89.1235
2023-03-10 23:40:56:408,0,8.24933,-9.53912,89.1345
2023-03-10 23:40:56:418,0,8.23517,-9.53713,89.147
2023-03-10 23:40:56:428,0,8.22128,-9.53168,89.1536
2023-03-10 23:40:56:439,0,8.20849,-9.52778,89.1606
2023-03-10 23:40:56:449,0,8.197,-9.52452,89.1601
2023-03-10 23:40:56:459,0,8.19012,-9.51704,89.1576
2023-03-10 23:40:56:468,0,8.18682,-9.51461,89.1528
2023-03-10 23:40:56:479,0,8.18481,-9.51302,89.1462
2023-03-10 23:40:56:488,0,8.18156,-9.51073,89.1393
2023-03-10 23:40:56:498,0,8.17604,-9.50999,89.1321
2023-03-10 23:40:56:508,0,8.17113,-9.50795,89.129
2023-03-10 23:40:56:518,0,8.16076,-9.50948,89.1248
2023-03-10 23:40:56:528,0,8.15628,-9.51053,89.1246
2023-03-10 23:40:56:538,0,8.15101,-9.51443,89.125
2023-03-10 23:40:56:548,0,8.14478,-9.52114,89.1271
2023-03-10 23:40:56:559,0,8.14527,-9.52407,89.1338
2023-03-10 23:40:56:569,0,8.14822,-9.52755,89.1388
2023-03-10 23:40:56:578,0,8.14631,-9.52826,89.1487
2023-03-10 23:40:56:588,0,8.14592,-9.53194,89.1531
2023-03-10 23:40:56:599,0,8.14741,-9.53799,89.1657
2023-03-10 23:40:56:609,0,8.14378,-9.54431,89.1773
2023-03-10 23:40:56:618,0,8.14128,-9.55216,89.1964
2023-03-10 23:40:56:628,0,8.13701,-9.56385,89.2209
2023-03-10 23:40:56:638,0,8.13197,-9.57101,89.2409
2023-03-10 23:40:56:649,0,8.1248,-9.57757,89.2596
2023-03-10 23:40:56:659,0,8.11803,-9.58265,89.278
2023-03-10 23:40:56:669,0,8.11711,-9.583,89.2921
2023-03-10 23:40:56:679,0,8.11167,-9.57927,89.3034
2023-03-10 23:40:56:688,0,8.10625,-9.57683,89.3164
2023-03-10 23:40:56:698,0,8.10265,-9.57596,89.3277
2023-03-10 23:40:56:708,0,8.09399,-9.57572,89.339
2023-03-10 23:40:56:718,0,8.08454,-9.57648,89.351
2023-03-10 23:40:56:728,0,8.07324,-9.57523,89.3605
2023-03-10 23:40:56:738,0,8.07248,-9.57201,89.3654
2023-03-10 23:40:56:748,0,8.07323,-9.56688,89.3648
2023-03-10 23:40:56:758,0,8.07606,-9.56159,89.3556
2023-03-10 23:40:56:768,0,8.08269,-9.55793,89.3459
2023-03-10 23:40:56:778,0,8.09155,-9.56046,89.3346
2023-03-10 23:40:56:788,0,8.10236,-9.56046,89.3193
2023-03-10 23:40:56:798,0,8.10707,-9.56002,89.3058
2023-03-10 23:40:56:808,0,8.11326,-9.56002,89.2936
2023-03-10 23:40:56:818,0,8.11572,-9.5643,89.2861
2023-03-10 23:40:56:828,0,8.12172,-9.56759,89.2792
2023-03-10 23:40:56:838,0,8.12717,-9.5667,89.2746
2023-03-10 23:40:56:848,0,8.14158,-9.5634,89.2698
2023-03-10 23:40:56:858,0,8.15478,-9.56199,89.2644
2023-03-10 23:40:56:868,0,8.17009,-9.55797,89.2586
2023-03-10 23:40:56:878,0,8.18652,-9.55242,89.2546
2023-03-10 23:40:56:888,0,8.1999,-9.54874,89.2537
2023-03-10 23:40:56:898,0,8.2095,-9.54742,89.2523
2023-03-10 23:40:56:908,0,8.22105,-9.54298,89.25
2023-03-10 23:40:56:918,0,8.23092,-9.53822,89.2504
2023-03-10 23:40:56:928,0,8.24003,-9.53933,89.2519
2023-03-10 23:40:56:938,0,8.24916,-9.53863,89.2597
2023-03-10 23:40:56:948,0,8.25462,-9.54808,89.2693
2023-03-10 23:40:56:958,0,8.25789,-9.55595,89.2817
2023-03-10 23:40:56:968,0,8.26053,-9.56517,89.2935
2023-03-10 23:40:56:978,0,8.25989,-9.57064,89.3076
2023-03-10 23:40:56:988,0,8.25534,-9.58001,89.3226
2023-03-10 23:40:56:998,0,8.24833,-9.59483,89.3389
2023-03-10 23:40:57:8,0,8.24258,-9.61005,89.3537
2023-03-10 23:40:57:18,0,8.2373,-9.62455,89.3723
2023-03-10 23:40:57:28,0,8.23372,-9.63951,89.3867
2023-03-10 23:40:57:38,0,8.23342,-9.64662,89.3955
2023-03-10 23:40:57:48,0,8.22828,-9.64918,89.4014
2023-03-10 23:40:57:58,0,8.22274,-9.64826,89.4058
2023-03-10 23:40:57:68,0,8.20805,-9.64293,89.4086
2023-03-10 23:40:57:78,0,8.19229,-9.64031,89.4119
2023-03-10 23:40:57:88,0,8.17227,-9.64175,89.4177
2023-03-10 23:40:57:98,0,8.15,-9.64871,89.4275
2023-03-10 23:40:57:108,0,8.13021,-9.65591,89.4392
2023-03-10 23:40:57:118,0,8.11247,-9.65486,89.4492
2023-03-10 23:40:57:128,0,8.09252,-9.65363,89.4646
2023-03-10 23:40:57:138,0,8.07827,-9.65193,89.4739
2023-03-10 23:40:57:148,0,8.06024,-9.64613,89.4896
2023-03-10 23:40:57:158,0,8.03888,-9.64129,89.501
2023-03-10 23:40:57:168,0,8.014,-9.63803,89.5115
2023-03-10 23:40:57:178,0,7.99074,-9.63588,89.5169
2023-03-10 23:40:57:188,0,7.97567,-9.63149,89.5231
2023-03-10 23:40:57:198,0,7.96182,-9.63137,89.525
2023-03-10 23:40:57:208,0,7.94563,-9.64031,89.5347
2023-03-10 23:40:57:218,0,7.93116,-9.65382,89.5469
2023-03-10 23:40:57:228,0,7.91871,-9.67282,89.5593
2023-03-10 23:40:57:238,0,7.91007,-9.68384,89.5764
2023-03-10 23:40:57:248,0,7.90523,-9.69102,89.5926
2023-03-10 23:40:57:258,0,7.90083,-9.6912,89.6085
2023-03-10 23:40:57:268,0,7.89399,-9.68786,89.6282
2023-03-10 23:40:57:278,0,7.88682,-9.6879,89.6503
2023-03-10 23:40:57:288,0,7.8745,-9.69136,89.6752
2023-03-10 23:40:57:298,0,7.86498,-9.69978,89.7093
2023-03-10 23:40:57:308,0,7.85727,-9.71321,89.7458
2023-03-10 23:40:57:318,0,7.85014,-9.72755,89.7819
2023-03-10 23:40:57:328,0,7.84168,-9.74474,89.8167
2023-03-10 23:40:57:338,0,7.83751,-9.75796,89.8497
2023-03-10 23:40:57:348,0,7.83829,-9.77241,89.8823
2023-03-10 23:40:57:358,0,7.83945,-9.78948,89.9124
2023-03-10 23:40:57:369,0,7.83867,-9.80161,89.9391
2023-03-10 23:40:57:379,0,7.8382,-9.81094,89.9639
2023-03-10 23:40:57:389,0,7.84304,-9.82477,89.986
2023-03-10 23:40:57:398,0,7.84308,-9.83959,90.0074
2023-03-10 23:40:57:408,0,7.8497,-9.85907,90.0271
2023-03-10 23:40:57:418,0,7.86136,-9.88219,90.0452
2023-03-10 23:40:57:428,0,7.88264,-9.90677,90.0633
2023-03-10 23:40:57:439,0,7.90723,-9.93185,90.0742
2023-03-10 23:40:57:448,0,7.93737,-9.94859,90.0757
2023-03-10 23:40:57:459,0,7.964,-9.96177,90.0745
2023-03-10 23:40:57:468,0,7.98701,-9.95926,90.0643
2023-03-10 23:40:57:478,0,8.00824,-9.95571,90.0473
2023-03-10 23:40:57:489,0,8.02834,-9.95012,90.0309
2023-03-10 23:40:57:499,0,8.04666,-9.9459,90.0094
2023-03-10 23:40:57:509,0,8.06326,-9.93561,89.994
2023-03-10 23:40:57:519,0,8.0841,-9.93149,89.975
2023-03-10 23:40:57:528,0,8.1052,-9.92512,89.9608
2023-03-10 23:40:57:539,0,8.12581,-9.92249,89.9525
2023-03-10 23:40:57:549,0,8.14927,-9.92145,89.9451
2023-03-10 23:40:57:559,0,8.17044,-9.91712,89.9378
2023-03-10 23:40:57:568,0,8.18952,-9.91158,89.9296
2023-03-10 23:40:57:579,0,8.20415,-9.90482,89.9275
2023-03-10 23:40:57:589,0,8.21075,-9.90168,89.9206
2023-03-10 23:40:57:599,0,8.21588,-9.89499,89.9085
2023-03-10 23:40:57:609,0,8.21891,-9.88851,89.8966
2023-03-10 23:40:57:618,0,8.22585,-9.8868,89.8926
2023-03-10 23:40:57:628,0,8.23539,-9.88545,89.8884
2023-03-10 23:40:57:639,0,8.24382,-9.88412,89.8901
2023-03-10 23:40:57:648,0,8.24735,-9.88431,89.8972
2023-03-10 23:40:57:658,0,8.24338,-9.88474,89.905
2023-03-10 23:40:57:668,0,8.23907,-9.88905,89.9163
2023-03-10 23:40:57:678,0,8.22761,-9.89457,89.9347
2023-03-10 23:40:57:688,0,8.21539,-9.89989,89.9515
2023-03-10 23:40:57:698,0,8.2045,-9.9079,89.9635
2023-03-10 23:40:57:708,0,8.19816,-9.9126,89.9729
2023-03-10 23:40:57:719,0,8.19209,-9.91937,89.9805
2023-03-10 23:40:57:729,0,8.18827,-9.9222,89.9845
2023-03-10 23:40:57:739,0,8.1885,-9.92441,89.9832
2023-03-10 23:40:57:749,0,8.18677,-9.92811,89.9833
2023-03-10 23:40:57:759,0,8.18232,-9.93423,89.9856
2023-03-10 23:40:57:769,0,8.18004,-9.94326,89.9842
2023-03-10 23:40:57:778,0,8.17974,-9.94996,89.9812
2023-03-10 23:40:57:788,0,8.1813,-9.95703,89.9779
2023-03-10 23:40:57:798,0,8.18644,-9.96564,89.974
2023-03-10 23:40:57:808,0,8.18564,-9.97056,89.9747
2023-03-10 23:40:57:818,0,8.18564,-9.97813,89.9746
2023-03-10 23:40:57:828,0,8.18229,-9.98548,89.9825
2023-03-10 23:40:57:838,0,8.18137,-9.99303,89.9875
2023-03-10 23:40:57:848,0,8.17814,-9.99714,89.9979
2023-03-10 23:40:57:859,0,8.17166,-10.0004,90.0103
2023-03-10 23:40:57:868,0,8.16609,-10.0023,90.0231
2023-03-10 23:40:57:878,0,8.15954,-10.0034,90.0356
2023-03-10 23:40:57:888,0,8.15435,-10.0062,90.0467
2023-03-10 23:40:57:898,0,8.14899,-10.0117,90.0596
2023-03-10 23:40:57:908,0,8.14808,-10.0165,90.0727
2023-03-10 23:40:57:918,0,8.14751,-10.0247,90.0819
2023-03-10 23:40:57:928,0,8.1448,-10.0321,90.0907
2023-03-10 23:40:57:938,0,8.14555,-10.0364,90.095
2023-03-10 23:40:57:948,0,8.14266,-10.0403,90.0974
2023-03-10 23:40:57:958,0,8.14215,-10.0485,90.1013
2023-03-10 23:40:57:968,0,8.13388,-10.0602,90.1114
2023-03-10 23:40:57:978,0,8.12239,-10.0786,90.1201
2023-03-10 23:40:57:988,0,8.1072,-10.091,90.1242
2023-03-10 23:40:57:998,0,8.09622,-10.1022,90.1291
2023-03-10 23:40:58:8,0,8.09048,-10.11,90.1383
2023-03-10 23:40:58:18,0,8.08386,-10.1169,90.1464
2023-03-10 23:40:58:28,0,8.07866,-10.1291,90.1564
2023-03-10 23:40:58:38,0,8.08258,-10.1372,90.1653
2023-03-10 23:40:58:48,0,8.08906,-10.1437,90.173
2023-03-10 23:40:58:58,0,8.09716,-10.1475,90.1777
2023-03-10 23:40:58:68,0,8.10744,-10.1493,90.1788
2023-03-10 23:40:58:78,0,8.10914,-10.1531,90.1771
2023-03-10 23:40:58:88,0,8.11299,-10.1537,90.1729
2023-03-10 23:40:58:98,0,8.11993,-10.153,90.1633
2023-03-10 23:40:58:108,0,8.12522,-10.1543,90.1506
2023-03-10 23:40:58:119,0,8.12862,-10.1535,90.1384
2023-03-10 23:40:58:128,0,8.13244,-10.1555,90.1235
2023-03-10 23:40:58:138,0,8.13621,-10.1567,90.1046
2023-03-10 23:40:58:148,0,8.13875,-10.1596,90.0861
2023-03-10 23:40:58:158,0,8.13748,-10.1565,90.0665
2023-03-10 23:40:58:169,0,8.13497,-10.1514,90.042
2023-03-10 23:40:58:179,0,8.13121,-10.1473,90.0143
2023-03-10 23:40:58:188,0,8.13605,-10.1392,89.9853
2023-03-10 23:40:58:199,0,8.14137,-10.1283,89.9556
2023-03-10 23:40:58:209,0,8.1477,-10.1166,89.9192
2023-03-10 23:40:58:218,0,8.15687,-10.1056,89.8846
2023-03-10 23:40:58:228,0,8.16505,-10.0986,89.8534
2023-03-10 23:40:58:238,0,8.17167,-10.0994,89.8294
2023-03-10 23:40:58:248,0,8.17061,-10.1063,89.8133
2023-03-10 23:40:58:258,0,8.17082,-10.1067,89.7995
2023-03-10 23:40:58:268,0,8.17588,-10.1071,89.7928
2023-03-10 23:40:58:278,0,8.18333,-10.1094,89.788
2023-03-10 23:40:58:288,0,8.18978,-10.1097,89.7883
2023-03-10 23:40:58:298,0,8.19691,-10.1086,89.7903
2023-03-10 23:40:58:308,0,8.20311,-10.1092,89.7963
2023-03-10 23:40:58:318,0,8.20947,-10.1083,89.8028
2023-03-10 23:40:58:328,0,8.21619,-10.1112,89.8056
2023-03-10 23:40:58:338,0,8.21574,-10.1178,89.8065
2023-03-10 23:40:58:348,0,8.21213,-10.1266,89.8054
2023-03-10 23:40:58:358,0,8.20523,-10.1351,89.8075
2023-03-10 23:40:58:368,0,8.19249,-10.147,89.8117
2023-03-10 23:40:58:378,0,8.17885,-10.158,89.8116
2023-03-10 23:40:58:389,0,8.16002,-10.1744,89.8149
2023-03-10 23:40:58:399,0,8.14136,-10.1877,89.8165
2023-03-10 23:40:58:409,0,8.12489,-10.1996,89.8163
2023-03-10 23:40:58:418,0,8.10845,-10.2098,89.8204
2023-03-10 23:40:58:428,0,8.09258,-10.2176,89.8188
2023-03-10 23:40:58:438,0,8.07982,-10.2201,89.8207
2023-03-10 23:40:58:449,0,8.06715,-10.22,89.8239
2023-03-10 23:40:58:459,0,8.05366,-10.2174,89.8287
2023-03-10 23:40:58:468,0,8.03758,-10.2122,89.8356
2023-03-10 23:40:58:479,0,8.02388,-10.2092,89.8393
2023-03-10 23:40:58:489,0,8.00958,-10.2047,89.8443
2023-03-10 23:40:58:498,0,7.99729,-10.2004,89.844
2023-03-10 23:40:58:509,0,7.98656,-10.1971,89.8414
2023-03-10 23:40:58:519,0,7.97667,-10.1949,89.8404
2023-03-10 23:40:58:528,0,7.9697,-10.1895,89.8382
2023-03-10 23:40:58:538,0,7.9638,-10.1848,89.8339
2023-03-10 23:40:58:548,0,7.96321,-10.1766,89.8294
2023-03-10 23:40:58:558,0,7.9641,-10.1725,89.8216
2023-03-10 23:40:58:568,0,7.96903,-10.1681,89.8107
2023-03-10 23:40:58:578,0,7.97403,-10.1606,89.8004
2023-03-10 23:40:58:588,0,7.97617,-10.1557,89.7892
2023-03-10 23:40:58:598,0,7.9809,-10.152,89.7804
2023-03-10 23:40:58:608,0,7.98008,-10.1494,89.7738
2023-03-10 23:40:58:618,0,7.97763,-10.1443,89.7685
2023-03-10 23:40:58:628,0,7.97571,-10.1391,89.7625
2023-03-10 23:40:58:638,0,7.97392,-10.1339,89.7596
2023-03-10 23:40:58:649,0,7.97612,-10.1267,89.7554
2023-03-10 23:40:58:658,0,7.97654,-10.1208,89.7548
2023-03-10 23:40:58:669,0,7.97397,-10.1148,89.7574
2023-03-10 23:40:58:679,0,7.96768,-10.1087,89.7581
2023-03-10 23:40:58:689,0,7.96156,-10.102,89.7589
2023-03-10 23:40:58:699,0,7.95827,-10.0968,89.7575
2023-03-10 23:40:58:709,0,7.95426,-10.0916,89.7596
2023-03-10 23:40:58:718,0,7.94885,-10.0928,89.7643
2023-03-10 23:40:58:728,0,7.94216,-10.0978,89.7685
2023-03-10 23:40:58:739,0,7.93602,-10.1015,89.7729
2023-03-10 23:40:58:748,0,7.92943,-10.1104,89.7806
2023-03-10 23:40:58:759,0,7.91969,-10.1165,89.7877
2023-03-10 23:40:58:769,0,7.91291,-10.1198,89.7933
2023-03-10 23:40:58:778,0,7.90445,-10.1274,89.8008
2023-03-10 23:40:58:789,0,7.89083,-10.1341,89.8094
2023-03-10 23:40:58:798,0,7.87371,-10.1355,89.8213
2023-03-10 23:40:58:809,0,7.84331,-10.1335,89.839
2023-03-10 23:40:58:819,0,7.81041,-10.1296,89.8579
2023-03-10 23:40:58:829,0,7.76737,-10.122,89.8773
2023-03-10 23:40:58:839,0,7.73059,-10.1139,89.8976
2023-03-10 23:40:58:848,0,7.69726,-10.1039,89.9232
2023-03-10 23:40:58:858,0,7.66679,-10.0888,89.9515
2023-03-10 23:40:58:869,0,7.64146,-10.0747,89.9809
2023-03-10 23:40:58:879,0,7.62059,-10.0594,90.0119
2023-03-10 23:40:58:889,0,7.60483,-10.0489,90.0406
2023-03-10 23:40:58:899,0,7.59429,-10.0419,90.0693
2023-03-10 23:40:58:909,0,7.58579,-10.038,90.0995
2023-03-10 23:40:58:918,0,7.57916,-10.0309,90.1272
2023-03-10 23:40:58:929,0,7.57681,-10.0258,90.1513
2023-03-10 23:40:58:938,0,7.57981,-10.0201,90.1722
2023-03-10 23:40:58:948,0,7.58399,-10.0204,90.195
2023-03-10 23:40:58:958,0,7.58705,-10.0228,90.2206
2023-03-10 23:40:58:968,0,7.58751,-10.0265,90.2451
2023-03-10 23:40:58:978,0,7.58523,-10.0308,90.2682
2023-03-10 23:40:58:989,0,7.58867,-10.0377,90.2927
2023-03-10 23:40:58:999,0,7.59388,-10.0467,90.3202
2023-03-10 23:40:59:9,0,7.60178,-10.0592,90.3511
2023-03-10 23:40:59:19,0,7.61201,-10.0745,90.3844
2023-03-10 23:40:59:29,0,7.62743,-10.0925,90.4147
2023-03-10 23:40:59:38,0,7.64757,-10.1104,90.4431
2023-03-10 23:40:59:49,0,7.6706,-10.1252,90.4722
2023-03-10 23:40:59:59,0,7.69129,-10.1395,90.4958
2023-03-10 23:40:59:69,0,7.71253,-10.1525,90.5153
2023-03-10 23:40:59:79,0,7.73274,-10.1636,90.5328
2023-03-10 23:40:59:89,0,7.75796,-10.1756,90.5491
2023-03-10 23:40:59:99,0,7.78267,-10.191,90.5667
2023-03-10 23:40:59:108,0,7.81026,-10.2054,90.5795
2023-03-10 23:40:59:119,0,7.83978,-10.2168,90.5911
2023-03-10 23:40:59:128,0,7.87031,-10.2321,90.6015
2023-03-10 23:40:59:139,0,7.89913,-10.247,90.6108
2023-03-10 23:40:59:148,0,7.92449,-10.2628,90.6241
2023-03-10 23:40:59:158,0,7.94596,-10.2842,90.6373
2023-03-10 23:40:59:169,0,7.96439,-10.2993,90.6503
2023-03-10 23:40:59:179,0,7.98142,-10.31,90.6596
2023-03-10 23:40:59:188,0,8.00337,-10.3154,90.6612
2023-03-10 23:40:59:198,0,8.02809,-10.325,90.663
2023-03-10 23:40:59:208,0,8.04788,-10.3325,90.6608
2023-03-10 23:40:59:218,0,8.06931,-10.346,90.6614
2023-03-10 23:40:59:228,0,8.09014,-10.3589,90.6605
2023-03-10 23:40:59:238,0,8.10793,-10.374,90.6621
2023-03-10 23:40:59:248,0,8.12149,-10.3849,90.6689
2023-03-10 23:40:59:258,0,8.13184,-10.3884,90.6741
2023-03-10 23:40:59:268,0,8.13685,-10.3896,90.6787
2023-03-10 23:40:59:279,0,8.14069,-10.3919,90.6827
2023-03-10 23:40:59:289,0,8.14377,-10.393,90.6907
2023-03-10 23:40:59:298,0,8.14329,-10.3995,90.702
2023-03-10 23:40:59:308,0,8.1437,-10.4066,90.7167
2023-03-10 23:40:59:318,0,8.14645,-10.4183,90.7356
2023-03-10 23:40:59:328,0,8.15094,-10.4376,90.7563
2023-03-10 23:40:59:339,0,8.15095,-10.4627,90.7859
2023-03-10 23:40:59:348,0,8.14245,-10.4916,90.8213
2023-03-10 23:40:59:358,0,8.12888,-10.5132,90.8588
2023-03-10 23:40:59:368,0,8.10906,-10.5259,90.8914
2023-03-10 23:40:59:378,0,8.08936,-10.5341,90.9207
2023-03-10 23:40:59:388,0,8.06944,-10.5396,90.9483
2023-03-10 23:40:59:398,0,8.0573,-10.5478,90.9721
2023-03-10 23:40:59:408,0,8.057,-10.5573,90.9922
2023-03-10 23:40:59:418,0,8.06291,-10.5643,91.0115
2023-03-10 23:40:59:429,0,8.07062,-10.5703,91.0322
2023-03-10 23:40:59:439,0,8.07348,-10.5757,91.0545
2023-03-10 23:40:59:448,0,8.07424,-10.5779,91.08
2023-03-10 23:40:59:458,0,8.06966,-10.5789,91.101
2023-03-10 23:40:59:468,0,8.06391,-10.5796,91.1172
2023-03-10 23:40:59:478,0,8.05462,-10.5797,91.1321
2023-03-10 23:40:59:488,0,8.0389,-10.5768,91.1425
2023-03-10 23:40:59:498,0,8.0234,-10.5793,91.1464
2023-03-10 23:40:59:509,0,8.00921,-10.5823,91.1447
2023-03-10 23:40:59:518,0,7.9949,-10.5907,91.1361
2023-03-10 23:40:59:529,0,7.97339,-10.5987,91.1232
2023-03-10 23:40:59:538,0,7.95314,-10.6117,91.1116
2023-03-10 23:40:59:548,0,7.92717,-10.6224,91.0976
2023-03-10 23:40:59:559,0,7.89381,-10.6345,91.0876
2023-03-10 23:40:59:568,0,7.86813,-10.6438,91.0789
2023-03-10 23:40:59:579,0,7.84909,-10.6579,91.0729
2023-03-10 23:40:59:588,0,7.83633,-10.6728,91.0626
2023-03-10 23:40:59:598,0,7.83163,-10.69,91.051
2023-03-10 23:40:59:608,0,7.83253,-10.7096,91.0363
2023-03-10 23:40:59:618,0,7.83576,-10.7357,91.0214
2023-03-10 23:40:59:628,0,7.84689,-10.7627,91.0043
2023-03-10 23:40:59:638,0,7.85688,-10.7863,90.9838
2023-03-10 23:40:59:649,0,7.8698,-10.8111,90.9574
2023-03-10 23:40:59:658,0,7.88713,-10.8359,90.9224
2023-03-10 23:40:59:668,0,7.9099,-10.8571,90.8858
2023-03-10 23:40:59:679,0,7.93306,-10.876,90.8487
2023-03-10 23:40:59:688,0,7.95473,-10.8948,90.8057
2023-03-10 23:40:59:699,0,7.97336,-10.9099,90.7635
2023-03-10 23:40:59:709,0,7.99149,-10.9212,90.7232
2023-03-10 23:40:59:719,0,8.00504,-10.9307,90.6863
2023-03-10 23:40:59:729,0,8.0172,-10.9353,90.6446
2023-03-10 23:40:59:739,0,8.0248,-10.9319,90.6082
2023-03-10 23:40:59:749,0,8.03201,-10.9185,90.5722
2023-03-10 23:40:59:759,0,8.03959,-10.9021,90.5452
2023-03-10 23:40:59:769,0,8.0501,-10.8794,90.5172
2023-03-10 23:40:59:778,0,8.05999,-10.8504,90.4864
2023-03-10 23:40:59:788,0,8.07304,-10.8228,90.4582
2023-03-10 23:40:59:799,0,8.08575,-10.8017,90.4289
2023-03-10 23:40:59:809,0,8.10008,-10.7817,90.3996
2023-03-10 23:40:59:818,0,8.12,-10.7613,90.3649
2023-03-10 23:40:59:829,0,8.14212,-10.7458,90.3337
2023-03-10 23:40:59:838,0,8.16445,-10.744,90.3037
2023-03-10 23:40:59:849,0,8.18606,-10.7501,90.2773
2023-03-10 23:40:59:859,0,8.20287,-10.7559,90.2536
2023-03-10 23:40:59:868,0,8.21246,-10.7672,90.2319
2023-03-10 23:40:59:878,0,8.21788,-10.7735,90.207
2023-03-10 23:40:59:888,0,8.21922,-10.7802,90.1818
2023-03-10 23:40:59:898,0,8.21805,-10.7888,90.1542
2023-03-10 23:40:59:908,0,8.21979,-10.8025,90.1339
2023-03-10 23:40:59:918,0,8.2158,-10.8199,90.1105
2023-03-10 23:40:59:928,0,8.21471,-10.8396,90.0926
2023-03-10 23:40:59:938,0,8.2116,-10.8591,90.0811
2023-03-10 23:40:59:948,0,8.20374,-10.8712,90.0747
2023-03-10 23:40:59:958,0,8.20218,-10.8817,90.0765
2023-03-10 23:40:59:968,0,8.20009,-10.8887,90.0965
2023-03-10 23:40:59:978,0,8.20353,-10.8891,90.1263
2023-03-10 23:40:59:988,0,8.21124,-10.8918,90.1598
2023-03-10 23:40:59:999,0,8.21852,-10.8844,90.1928
2023-03-10 23:41:00:9,0,8.2202,-10.8752,90.223
2023-03-10 23:41:00:18,0,8.21635,-10.8606,90.249
2023-03-10 23:41:00:28,0,8.21013,-10.8468,90.2734
2023-03-10 23:41:00:38,0,8.20233,-10.8291,90.2939
2023-03-10 23:41:00:48,0,8.19378,-10.8147,90.3091
2023-03-10 23:41:00:59,0,8.18553,-10.8023,90.3198
2023-03-10 23:41:00:68,0,8.17714,-10.7928,90.3277
2023-03-10 23:41:00:79,0,8.17368,-10.7865,90.3298
2023-03-10 23:41:00:89,0,8.16815,-10.7793,90.3345
2023-03-10 23:41:00:99,0,8.15759,-10.7765,90.3338
2023-03-10 23:41:00:108,0,8.15019,-10.7741,90.3312
2023-03-10 23:41:00:119,0,8.14002,-10.7743,90.3265
2023-03-10 23:41:00:129,0,8.12592,-10.7748,90.3176
2023-03-10 23:41:00:139,0,8.11285,-10.7698,90.3041
2023-03-10 23:41:00:149,0,8.10129,-10.7662,90.2909
2023-03-10 23:41:00:158,0,8.09485,-10.7635,90.2718
2023-03-10 23:41:00:168,0,8.09191,-10.7661,90.2545
2023-03-10 23:41:00:178,0,8.08849,-10.7681,90.2397
2023-03-10 23:41:00:188,0,8.09041,-10.7739,90.2275
2023-03-10 23:41:00:198,0,8.08803,-10.7749,90.2126
2023-03-10 23:41:00:208,0,8.08757,-10.7695,90.1974
2023-03-10 23:41:00:218,0,8.08563,-10.7636,90.1852
2023-03-10 23:41:00:228,0,8.0831,-10.7624,90.1679
2023-03-10 23:41:00:238,0,8.07583,-10.7564,90.1559
2023-03-10 23:41:00:248,0,8.07634,-10.7482,90.1407
2023-03-10 23:41:00:258,0,8.07934,-10.7462,90.1316
2023-03-10 23:41:00:268,0,8.08471,-10.7437,90.1209
2023-03-10 23:41:00:279,0,8.08732,-10.7375,90.107
2023-03-10 23:41:00:288,0,8.09216,-10.7319,90.0922
2023-03-10 23:41:00:298,0,8.09588,-10.7258,90.0813
2023-03-10 23:41:00:308,0,8.09991,-10.7148,90.0706
2023-03-10 23:41:00:318,0,8.10397,-10.7047,90.0609
2023-03-10 23:41:00:329,0,8.10579,-10.6934,90.054
2023-03-10 23:41:00:339,0,8.11248,-10.6792,90.0473
2023-03-10 23:41:00:349,0,8.11817,-10.6693,90.0426
2023-03-10 23:41:00:358,0,8.1287,-10.6612,90.041
2023-03-10 23:41:00:368,0,8.13493,-10.6508,90.0403
2023-03-10 23:41:00:379,0,8.14233,-10.6414,90.0391
2023-03-10 23:41:00:389,0,8.14891,-10.6315,90.0425
2023-03-10 23:41:00:399,0,8.15333,-10.6197,90.045
2023-03-10 23:41:00:409,0,8.15732,-10.6065,90.0451
2023-03-10 23:41:00:419,0,8.16191,-10.5925,90.0397
2023-03-10 23:41:00:429,0,8.16572,-10.5781,90.036
2023-03-10 23:41:00:438,0,8.17276,-10.5613,90.0252
2023-03-10 23:41:00:448,0,8.1772,-10.5454,90.0155
2023-03-10 23:41:00:458,0,8.17513,-10.5297,90.0032
2023-03-10 23:41:00:468,0,8.17013,-10.5148,89.9926
2023-03-10 23:41:00:478,0,8.1647,-10.5042,89.9837
2023-03-10 23:41:00:488,0,8.157,-10.4954,89.9738
2023-03-10 23:41:00:498,0,8.14817,-10.4866,89.9614
2023-03-10 23:41:00:508,0,8.13968,-10.4805,89.9506
2023-03-10 23:41:00:518,0,8.13182,-10.4713,89.9387
2023-03-10 23:41:00:529,0,8.12226,-10.4623,89.9312
2023-03-10 23:41:00:539,0,8.11548,-10.4506,89.9227
2023-03-10 23:41:00:549,0,8.11049,-10.4438,89.9185
2023-03-10 23:41:00:559,0,8.10442,-10.435,89.9123
2023-03-10 23:41:00:569,0,8.09787,-10.427,89.9097
2023-03-10 23:41:00:579,0,8.09478,-10.4188,89.9104
2023-03-10 23:41:00:589,0,8.08913,-10.4106,89.9074
2023-03-10 23:41:00:599,0,8.08243,-10.4012,89.9053
2023-03-10 23:41:00:609,0,8.08139,-10.3894,89.9043
2023-03-10 23:41:00:619,0,8.08078,-10.3845,89.9019
2023-03-10 23:41:00:629,0,8.07915,-10.3771,89.8997
2023-03-10 23:41:00:638,0,8.08293,-10.3712,89.8992
2023-03-10 23:41:00:648,0,8.08871,-10.3689,89.899
2023-03-10 23:41:00:659,0,8.09073,-10.3608,89.8961
2023-03-10 23:41:00:668,0,8.09186,-10.3556,89.8967
2023-03-10 23:41:00:679,0,8.08545,-10.3522,89.8997
2023-03-10 23:41:00:688,0,8.08049,-10.3483,89.9018
2023-03-10 23:41:00:698,0,8.07324,-10.3476,89.9074
2023-03-10 23:41:00:708,0,8.06646,-10.3461,89.9138
2023-03-10 23:41:00:718,0,8.0623,-10.3419,89.9166
2023-03-10 23:41:00:728,0,8.06095,-10.3381,89.9187
2023-03-10 23:41:00:738,0,8.06191,-10.3367,89.9249
2023-03-10 23:41:00:748,0,8.06969,-10.3377,89.9308
2023-03-10 23:41:00:758,0,8.07713,-10.3373,89.9379
2023-03-10 23:41:00:768,0,8.08352,-10.3353,89.9464
2023-03-10 23:41:00:778,0,8.08733,-10.3336,89.9534
2023-03-10 23:41:00:788,0,8.09262,-10.3281,89.9581
2023-03-10 23:41:00:798,0,8.09909,-10.322,89.9664
2023-03-10 23:41:00:808,0,8.10527,-10.3186,89.9742
2023-03-10 23:41:00:819,0,8.11188,-10.3095,89.9754
2023-03-10 23:41:00:828,0,8.12217,-10.304,89.9763
2023-03-10 23:41:00:838,0,8.12704,-10.3034,89.9824
2023-03-10 23:41:00:848,0,8.1333,-10.3056,89.9877
2023-03-10 23:41:00:858,0,8.1364,-10.3074,90.0
2023-03-10 23:41:00:868,0,8.14527,-10.3029,90.0174
2023-03-10 23:41:00:878,0,8.15769,-10.2962,90.0388
2023-03-10 23:41:00:888,0,8.17965,-10.2891,90.0642
2023-03-10 23:41:00:898,0,8.20101,-10.2835,90.0981
2023-03-10 23:41:00:908,0,8.22019,-10.2665,90.1405
2023-03-10 23:41:00:919,0,8.23091,-10.2446,90.1862
2023-03-10 23:41:00:928,0,8.24065,-10.2241,90.2333
2023-03-10 23:41:00:939,0,8.24604,-10.1999,90.2742
2023-03-10 23:41:00:948,0,8.24756,-10.1817,90.3209
2023-03-10 23:41:00:959,0,8.24798,-10.1694,90.3592
2023-03-10 23:41:00:969,0,8.24719,-10.1577,90.3896
2023-03-10 23:41:00:979,0,8.24124,-10.1489,90.416
2023-03-10 23:41:00:988,0,8.24099,-10.1438,90.4319
2023-03-10 23:41:00:998,0,8.23809,-10.1397,90.4477
2023-03-10 23:41:01:8,0,8.23325,-10.137,90.4568
2023-03-10 23:41:01:18,0,8.23154,-10.1396,90.4611
2023-03-10 23:41:01:28,0,8.22423,-10.1437,90.4698
2023-03-10 23:41:01:38,0,8.21214,-10.1522,90.4743
2023-03-10 23:41:01:48,0,8.20175,-10.1606,90.4779
2023-03-10 23:41:01:59,0,8.19178,-10.1633,90.4774
2023-03-10 23:41:01:69,0,8.18749,-10.1598,90.4755
2023-03-10 23:41:01:79,0,8.19288,-10.1544,90.4652
2023-03-10 23:41:01:89,0,8.20414,-10.1462,90.4563
2023-03-10 23:41:01:99,0,8.22099,-10.1394,90.453
2023-03-10 23:41:01:108,0,8.23822,-10.1351,90.4604
2023-03-10 23:41:01:119,0,8.252,-10.1316,90.4687
2023-03-10 23:41:01:129,0,8.25825,-10.127,90.4763
2023-03-10 23:41:01:139,0,8.26516,-10.1121,90.4809
2023-03-10 23:41:01:148,0,8.26849,-10.0956,90.4808
2023-03-10 23:41:01:159,0,8.26925,-10.0699,90.4829
2023-03-10 23:41:01:169,0,8.27466,-10.0442,90.4749
2023-03-10 23:41:01:178,0,8.27923,-10.0197,90.466
2023-03-10 23:41:01:189,0,8.28232,-10.0013,90.4545
2023-03-10 23:41:01:199,0,8.28474,-9.98548,90.4396
2023-03-10 23:41:01:209,0,8.29179,-9.97981,90.4315
2023-03-10 23:41:01:218,0,8.30211,-9.97586,90.4228
2023-03-10 23:41:01:228,0,8.309,-9.97774,90.4168
2023-03-10 23:41:01:239,0,8.31592,-9.98071,90.4099
2023-03-10 23:41:01:249,0,8.31899,-9.98121,90.4051
2023-03-10 23:41:01:259,0,8.31349,-9.98203,90.3988
2023-03-10 23:41:01:268,0,8.31102,-9.98387,90.3952
2023-03-10 23:41:01:279,0,8.3044,-9.98657,90.3929
2023-03-10 23:41:01:289,0,8.29909,-9.99196,90.3922
2023-03-10 23:41:01:299,0,8.29111,-9.99704,90.3933
2023-03-10 23:41:01:309,0,8.28113,-10.0047,90.397
2023-03-10 23:41:01:319,0,8.27145,-10.0122,90.3975
2023-03-10 23:41:01:329,0,8.25952,-10.0182,90.4026
2023-03-10 23:41:01:339,0,8.25001,-10.0211,90.409
2023-03-10 23:41:01:348,0,8.23891,-10.0212,90.4147
2023-03-10 23:41:01:358,0,8.22958,-10.0225,90.4258
2023-03-10 23:41:01:369,0,8.22005,-10.0209,90.4367
2023-03-10 23:41:01:378,0,8.21018,-10.0142,90.4484
2023-03-10 23:41:01:389,0,8.20175,-10.0104,90.4554
2023-03-10 23:41:01:399,0,8.19257,-10.0054,90.4631
2023-03-10 23:41:01:409,0,8.1853,-10.0012,90.4662
2023-03-10 23:41:01:419,0,8.17739,-9.99603,90.4663
2023-03-10 23:41:01:429,0,8.16995,-9.99296,90.4684
2023-03-10 23:41:01:439,0,8.16243,-9.99055,90.4703
2023-03-10 23:41:01:449,0,8.15685,-9.99119,90.4653
2023-03-10 23:41:01:459,0,8.15538,-9.98484,90.4618
2023-03-10 23:41:01:469,0,8.15613,-9.98171,90.4606
2023-03-10 23:41:01:479,0,8.15632,-9.97681,90.4602
2023-03-10 23:41:01:489,0,8.16128,-9.9746,90.4597
2023-03-10 23:41:01:498,0,8.16239,-9.97131,90.4595
2023-03-10 23:41:01:508,0,8.16359,-9.97157,90.4615
2023-03-10 23:41:01:518,0,8.1649,-9.97421,90.4632
2023-03-10 23:41:01:528,0,8.16578,-9.97599,90.4695
2023-03-10 23:41:01:538,0,8.16644,-9.98265,90.4762
2023-03-10 23:41:01:549,0,8.16574,-9.99064,90.484
2023-03-10 23:41:01:559,0,8.16677,-10.0024,90.4956
2023-03-10 23:41:01:568,0,8.16634,-10.0115,90.5042
2023-03-10 23:41:01:579,0,8.16618,-10.023,90.5137
2023-03-10 23:41:01:589,0,8.16303,-10.036,90.5235
2023-03-10 23:41:01:598,0,8.16281,-10.0461,90.5365
2023-03-10 23:41:01:609,0,8.16541,-10.0605,90.5511
2023-03-10 23:41:01:619,0,8.17036,-10.0748,90.5612
2023-03-10 23:41:01:629,0,8.1752,-10.085,90.5695
2023-03-10 23:41:01:639,0,8.18332,-10.0941,90.5745
2023-03-10 23:41:01:648,0,8.19257,-10.1032,90.5813
2023-03-10 23:41:01:659,0,8.20234,-10.1102,90.5827
2023-03-10 23:41:01:669,0,8.20699,-10.1189,90.5843
2023-03-10 23:41:01:678,0,8.20764,-10.1253,90.5871
2023-03-10 23:41:01:688,0,8.20455,-10.1301,90.5836
2023-03-10 23:41:01:699,0,8.20515,-10.131,90.5786
2023-03-10 23:41:01:708,0,8.20654,-10.1369,90.5714
2023-03-10 23:41:01:719,0,8.21109,-10.147,90.5668
2023-03-10 23:41:01:729,0,8.21083,-10.1596,90.5683
2023-03-10 23:41:01:739,0,8.21362,-10.1752,90.57
2023-03-10 23:41:01:749,0,8.21341,-10.185,90.5713
2023-03-10 23:41:01:758,0,8.21583,-10.1907,90.5729
2023-03-10 23:41:01:768,0,8.21824,-10.1988,90.5751
2023-03-10 23:41:01:779,0,8.21957,-10.205,90.5792
2023-03-10 23:41:01:789,0,8.22195,-10.213,90.5829
2023-03-10 23:41:01:799,0,8.22997,-10.22,90.5875
2023-03-10 23:41:01:809,0,8.24026,-10.2256,90.5904
2023-03-10 23:41:01:818,0,8.25118,-10.2317,90.5929
2023-03-10 23:41:01:828,0,8.26299,-10.2363,90.5963
2023-03-10 23:41:01:838,0,8.27288,-10.2402,90.596
2023-03-10 23:41:01:848,0,8.28297,-10.241,90.5936
2023-03-10 23:41:01:859,0,8.29112,-10.2397,90.5904
2023-03-10 23:41:01:868,0,8.29584,-10.2331,90.5829
2023-03-10 23:41:01:878,0,8.3003,-10.2314,90.5763
2023-03-10 23:41:01:888,0,8.30015,-10.2259,90.5698
2023-03-10 23:41:01:898,0,8.3027,-10.2242,90.5598
2023-03-10 23:41:01:908,0,8.29768,-10.2159,90.5529
2023-03-10 23:41:01:919,0,8.29274,-10.2142,90.5473
2023-03-10 23:41:01:929,0,8.2881,-10.2146,90.5419
2023-03-10 23:41:01:938,0,8.28489,-10.2152,90.5383
2023-03-10 23:41:01:949,0,8.28265,-10.2102,90.5333
2023-03-10 23:41:01:958,0,8.28256,-10.2022,90.5233
2023-03-10 23:41:01:968,0,8.27951,-10.1994,90.5145
2023-03-10 23:41:01:979,0,8.27753,-10.2028,90.5058
2023-03-10 23:41:01:989,0,8.27632,-10.2094,90.4997
2023-03-10 23:41:01:998,0,8.27353,-10.2174,90.4946
2023-03-10 23:41:02:8,0,8.27263,-10.2182,90.4889
2023-03-10 23:41:02:18,0,8.26966,-10.2182,90.4817
2023-03-10 23:41:02:28,0,8.26949,-10.2158,90.4752
2023-03-10 23:41:02:38,0,8.26805,-10.2126,90.4761
2023-03-10 23:41:02:49,0,8.27041,-10.2138,90.4782
2023-03-10 23:41:02:59,0,8.27192,-10.2136,90.4778
2023-03-10 23:41:02:68,0,8.26845,-10.215,90.4804
2023-03-10 23:41:02:79,0,8.26766,-10.2164,90.4849
2023-03-10 23:41:02:89,0,8.2646,-10.2195,90.4865
