Timestamp_cmd,imu_cmd,roll_delta,pitch_delta,yaw_delta,voice_type,voice_length
2023-03-14 17:30:31:209,0,-1.71882,-5.63239,69.6155,Q,Q
2023-03-14 17:30:31:217,0,-1.71716,-5.61434,69.6147,Q,Q
2023-03-14 17:30:31:227,0,-1.70946,-5.60024,69.6153,Q,Q
2023-03-14 17:30:31:237,0,-1.70206,-5.59292,69.6188,Q,Q
2023-03-14 17:30:31:247,0,-1.69273,-5.58924,69.6227,Q,Q
2023-03-14 17:30:31:257,0,-1.68707,-5.59222,69.6316,Q,Q
2023-03-14 17:30:31:267,0,-1.67918,-5.59841,69.6365,Q,Q
2023-03-14 17:30:31:277,0,-1.67144,-5.60563,69.6463,Q,Q
2023-03-14 17:30:31:287,0,-1.66596,-5.61441,69.6596,Q,Q
2023-03-14 17:30:31:297,0,-1.6661,-5.62264,69.6716,Q,Q
2023-03-14 17:30:31:307,0,-1.6648,-5.63075,69.6862,Q,Q
2023-03-14 17:30:31:317,0,-1.6637,-5.64294,69.6965,Q,Q
2023-03-14 17:30:31:327,0,-1.65789,-5.65222,69.7052,Q,Q
2023-03-14 17:30:31:337,0,-1.65457,-5.65797,69.7182,Q,Q
2023-03-14 17:30:31:347,0,-1.6548,-5.66945,69.7302,Q,Q
2023-03-14 17:30:31:357,0,-1.65673,-5.68072,69.7419,Q,Q
2023-03-14 17:30:31:367,0,-1.65719,-5.68898,69.7527,Q,Q
2023-03-14 17:30:31:377,0,-1.66059,-5.69807,69.7654,Q,Q
2023-03-14 17:30:31:387,0,-1.65997,-5.70732,69.7779,Q,Q
2023-03-14 17:30:31:397,0,-1.65557,-5.7118,69.7836,Q,Q
2023-03-14 17:30:31:407,0,-1.65212,-5.71825,69.7912,Q,Q
2023-03-14 17:30:31:417,0,-1.64441,-5.72208,69.7916,Q,Q
2023-03-14 17:30:31:427,0,-1.63359,-5.72276,69.793,Q,Q
2023-03-14 17:30:31:437,0,-1.62276,-5.72291,69.7908,Q,Q
2023-03-14 17:30:31:447,0,-1.6069,-5.72007,69.7813,Q,Q
2023-03-14 17:30:31:457,0,-1.59112,-5.71721,69.7711,Q,Q
2023-03-14 17:30:31:467,0,-1.58305,-5.71785,69.7608,Q,Q
2023-03-14 17:30:31:477,0,-1.57491,-5.71987,69.7482,Q,Q
2023-03-14 17:30:31:487,0,-1.5715,-5.72252,69.734,Q,Q
2023-03-14 17:30:31:497,0,-1.57126,-5.72367,69.7207,Q,Q
2023-03-14 17:30:31:507,0,-1.5691,-5.72263,69.7085,Q,Q
2023-03-14 17:30:31:517,0,-1.56976,-5.72211,69.6976,Q,Q
2023-03-14 17:30:31:527,0,-1.56834,-5.71905,69.6934,Q,Q
2023-03-14 17:30:31:537,0,-1.56653,-5.71681,69.694,Q,Q
2023-03-14 17:30:31:547,0,-1.57171,-5.71094,69.6971,Q,Q
2023-03-14 17:30:31:557,0,-1.57472,-5.70267,69.701,Q,Q
2023-03-14 17:30:31:567,0,-1.58114,-5.69684,69.7097,Q,Q
2023-03-14 17:30:31:577,0,-1.58638,-5.68783,69.716,Q,Q
2023-03-14 17:30:31:587,0,-1.59357,-5.68215,69.7298,Q,Q
2023-03-14 17:30:31:597,0,-1.59829,-5.67845,69.7407,Q,Q
2023-03-14 17:30:31:607,0,-1.60047,-5.67644,69.7538,Q,Q
2023-03-14 17:30:31:617,0,-1.60486,-5.66936,69.7681,Q,Q
2023-03-14 17:30:31:627,0,-1.61094,-5.66464,69.7796,Q,Q
2023-03-14 17:30:31:637,0,-1.61592,-5.65736,69.791,Q,Q
2023-03-14 17:30:31:647,0,-1.61975,-5.64882,69.8002,Q,Q
2023-03-14 17:30:31:657,0,-1.62634,-5.64168,69.8078,Q,Q
2023-03-14 17:30:31:667,0,-1.63241,-5.63529,69.8126,Q,Q
2023-03-14 17:30:31:677,0,-1.6368,-5.6335,69.8148,Q,Q
2023-03-14 17:30:31:687,0,-1.64193,-5.63299,69.8151,Q,Q
2023-03-14 17:30:31:697,0,-1.64537,-5.63394,69.817,Q,Q
2023-03-14 17:30:31:707,0,-1.64774,-5.63312,69.8166,Q,Q
2023-03-14 17:30:31:717,0,-1.64919,-5.63317,69.8087,Q,Q
2023-03-14 17:30:31:727,0,-1.64478,-5.63398,69.8,Q,Q
2023-03-14 17:30:31:737,0,-1.64022,-5.63472,69.786,Q,Q
2023-03-14 17:30:31:747,0,-1.63663,-5.62953,69.7661,Q,Q
2023-03-14 17:30:31:757,0,-1.63043,-5.62275,69.7494,Q,Q
2023-03-14 17:30:31:767,0,-1.62486,-5.61535,69.7279,Q,Q
2023-03-14 17:30:31:777,0,-1.61702,-5.61056,69.7033,Q,Q
2023-03-14 17:30:31:787,0,-1.60852,-5.60975,69.6856,Q,Q
2023-03-14 17:30:31:797,0,-1.5987,-5.61356,69.6738,Q,Q
2023-03-14 17:30:31:807,0,-1.59333,-5.61195,69.6684,Q,Q
2023-03-14 17:30:31:817,0,-1.59075,-5.60949,69.6667,Q,Q
2023-03-14 17:30:31:827,0,-1.59325,-5.60674,69.6699,Q,Q
2023-03-14 17:30:31:837,0,-1.59833,-5.6021,69.6779,Q,Q
2023-03-14 17:30:31:847,0,-1.60697,-5.60231,69.6893,Q,Q
2023-03-14 17:30:31:857,0,-1.61344,-5.6048,69.7044,Q,Q
2023-03-14 17:30:31:867,0,-1.61408,-5.60899,69.725,Q,Q
2023-03-14 17:30:31:877,0,-1.60942,-5.61319,69.7457,Q,Q
2023-03-14 17:30:31:886,0,-1.60184,-5.61897,69.764,Q,Q
2023-03-14 17:30:31:897,0,-1.59372,-5.63133,69.7788,Q,Q
2023-03-14 17:30:31:906,0,-1.58483,-5.64109,69.787,Q,Q
2023-03-14 17:30:31:916,0,-1.57771,-5.65391,69.787,Q,Q
2023-03-14 17:30:31:926,0,-1.57088,-5.66714,69.7834,Q,Q
2023-03-14 17:30:31:936,0,-1.56552,-5.68275,69.7734,Q,Q
2023-03-14 17:30:31:947,0,-1.56383,-5.70169,69.7626,Q,Q
2023-03-14 17:30:31:956,0,-1.56662,-5.71537,69.7475,Q,Q
2023-03-14 17:30:31:967,0,-1.56594,-5.7284,69.7286,Q,Q
2023-03-14 17:30:31:976,0,-1.56518,-5.74306,69.716,Q,Q
2023-03-14 17:30:31:986,0,-1.56309,-5.75148,69.7048,Q,Q
2023-03-14 17:30:31:997,0,-1.55765,-5.7586,69.6965,Q,Q
2023-03-14 17:30:32:6,0,-1.55421,-5.76233,69.6915,Q,Q
2023-03-14 17:30:32:17,0,-1.55224,-5.76727,69.6908,Q,Q
2023-03-14 17:30:32:26,0,-1.54703,-5.77148,69.6932,Q,Q
2023-03-14 17:30:32:36,0,-1.54863,-5.77338,69.6979,Q,Q
2023-03-14 17:30:32:47,0,-1.54465,-5.77309,69.7031,Q,Q
2023-03-14 17:30:32:57,0,-1.54376,-5.77015,69.7076,Q,Q
2023-03-14 17:30:32:66,0,-1.54095,-5.77067,69.7118,Q,Q
2023-03-14 17:30:32:77,0,-1.54191,-5.76992,69.7164,Q,Q
2023-03-14 17:30:32:86,0,-1.54,-5.77202,69.7214,Q,Q
2023-03-14 17:30:32:97,0,-1.53497,-5.77979,69.7234,Q,Q
2023-03-14 17:30:32:107,0,-1.53139,-5.78447,69.7292,Q,Q
2023-03-14 17:30:32:117,0,-1.52585,-5.78643,69.732,Q,Q
2023-03-14 17:30:32:127,0,-1.52352,-5.7888,69.7319,Q,Q
2023-03-14 17:30:32:137,0,-1.52608,-5.78915,69.7374,Q,Q
2023-03-14 17:30:32:147,0,-1.5278,-5.78967,69.7419,Q,Q
2023-03-14 17:30:32:157,0,-1.52883,-5.79069,69.7475,Q,Q
2023-03-14 17:30:32:167,0,-1.52829,-5.79441,69.7518,Q,Q
2023-03-14 17:30:32:177,0,-1.52594,-5.79344,69.7574,Q,Q
2023-03-14 17:30:32:187,0,-1.52353,-5.79413,69.7639,Q,Q
2023-03-14 17:30:32:197,0,-1.51847,-5.79421,69.7702,Q,Q
2023-03-14 17:30:32:207,0,-1.51065,-5.79773,69.7781,Q,Q
2023-03-14 17:30:32:217,0,-1.50051,-5.79779,69.784,Q,Q
2023-03-14 17:30:32:227,0,-1.49218,-5.80248,69.7937,Q,Q
2023-03-14 17:30:32:237,0,-1.4857,-5.80593,69.8013,Q,Q
2023-03-14 17:30:32:247,0,-1.4846,-5.81318,69.8115,Q,Q
2023-03-14 17:30:32:257,0,-1.48019,-5.819,69.8199,Q,Q
2023-03-14 17:30:32:267,0,-1.48176,-5.82101,69.8287,Q,Q
2023-03-14 17:30:32:277,0,-1.47951,-5.8249,69.8415,Q,Q
2023-03-14 17:30:32:287,0,-1.47913,-5.82399,69.849,Q,Q
2023-03-14 17:30:32:297,0,-1.47889,-5.82414,69.8555,Q,Q
2023-03-14 17:30:32:307,0,-1.47922,-5.82683,69.8642,Q,Q
2023-03-14 17:30:32:317,0,-1.48251,-5.82905,69.8725,Q,Q
2023-03-14 17:30:32:327,0,-1.4862,-5.82859,69.8764,Q,Q
2023-03-14 17:30:32:337,0,-1.48494,-5.82774,69.8763,Q,Q
2023-03-14 17:30:32:347,0,-1.48355,-5.82847,69.8759,Q,Q
2023-03-14 17:30:32:357,0,-1.48252,-5.82487,69.8749,Q,Q
2023-03-14 17:30:32:367,0,-1.4812,-5.82246,69.875,Q,Q
2023-03-14 17:30:32:377,0,-1.47603,-5.81404,69.8755,Q,Q
2023-03-14 17:30:32:387,0,-1.47068,-5.80231,69.874,Q,Q
2023-03-14 17:30:32:397,0,-1.46635,-5.79128,69.8682,Q,Q
2023-03-14 17:30:32:407,0,-1.4668,-5.78131,69.8638,Q,Q
2023-03-14 17:30:32:417,0,-1.47252,-5.76429,69.8554,Q,Q
2023-03-14 17:30:32:427,0,-1.4776,-5.7441,69.8443,Q,Q
2023-03-14 17:30:32:437,0,-1.48188,-5.7236,69.8238,Q,Q
2023-03-14 17:30:32:447,0,-1.47837,-5.70091,69.7978,Q,Q
2023-03-14 17:30:32:457,0,-1.46545,-5.6803,69.7753,Q,Q
2023-03-14 17:30:32:467,0,-1.44665,-5.66967,69.7508,Q,Q
2023-03-14 17:30:32:477,0,-1.42341,-5.6694,69.7342,Q,Q
2023-03-14 17:30:32:487,0,-1.40912,-5.67954,69.7269,Q,Q
2023-03-14 17:30:32:497,0,-1.40046,-5.69325,69.7283,Q,Q
2023-03-14 17:30:32:507,0,-1.39202,-5.69934,69.7374,Q,Q
2023-03-14 17:30:32:517,0,-1.39014,-5.70431,69.7495,Q,Q
2023-03-14 17:30:32:527,0,-1.38918,-5.7074,69.7677,Q,Q
2023-03-14 17:30:32:537,0,-1.38866,-5.70797,69.7886,Q,Q
2023-03-14 17:30:32:547,0,-1.39102,-5.7047,69.8125,Q,Q
2023-03-14 17:30:32:557,0,-1.39426,-5.69892,69.844,Q,Q
2023-03-14 17:30:32:567,0,-1.4,-5.6954,69.8733,Q,Q
2023-03-14 17:30:32:577,0,-1.40879,-5.69161,69.9051,Q,Q
2023-03-14 17:30:32:587,0,-1.42103,-5.6905,69.9363,Q,Q
2023-03-14 17:30:32:597,0,-1.42921,-5.68797,69.9627,Q,Q
2023-03-14 17:30:32:607,0,-1.4349,-5.68477,69.993,Q,Q
2023-03-14 17:30:32:617,0,-1.43267,-5.67212,70.0206,Q,Q
2023-03-14 17:30:32:627,0,-1.42456,-5.66266,70.048,Q,Q
2023-03-14 17:30:32:637,0,-1.41138,-5.65081,70.0698,Q,Q
2023-03-14 17:30:32:647,0,-1.40031,-5.64068,70.0968,Q,Q
2023-03-14 17:30:32:657,0,-1.38862,-5.63744,70.1217,Q,Q
2023-03-14 17:30:32:667,0,-1.37628,-5.63575,70.1464,Q,Q
2023-03-14 17:30:32:677,0,-1.3647,-5.63787,70.1763,Q,Q
2023-03-14 17:30:32:687,0,-1.35379,-5.63814,70.2091,Q,Q
2023-03-14 17:30:32:697,0,-1.34104,-5.63991,70.2388,Q,Q
2023-03-14 17:30:32:707,0,-1.32581,-5.6379,70.268,Q,Q
2023-03-14 17:30:32:717,0,-1.30443,-5.63321,70.2987,Q,Q
2023-03-14 17:30:32:727,0,-1.27972,-5.63185,70.3246,Q,Q
2023-03-14 17:30:32:737,0,-1.25116,-5.63278,70.3495,Q,Q
2023-03-14 17:30:32:747,0,-1.22247,-5.63576,70.3734,Q,Q
2023-03-14 17:30:32:757,0,-1.20096,-5.63381,70.3943,Q,Q
2023-03-14 17:30:32:767,0,-1.18774,-5.63357,70.4117,Q,Q
2023-03-14 17:30:32:777,0,-1.18096,-5.63075,70.4238,Q,Q
2023-03-14 17:30:32:787,0,-1.17791,-5.62165,70.4333,Q,Q
2023-03-14 17:30:32:797,0,-1.17314,-5.6109,70.441,Q,Q
2023-03-14 17:30:32:807,0,-1.16488,-5.59854,70.4475,Q,Q
2023-03-14 17:30:32:817,0,-1.15373,-5.58331,70.4539,Q,Q
2023-03-14 17:30:32:827,0,-1.1491,-5.566,70.4572,Q,Q
2023-03-14 17:30:32:837,0,-1.14899,-5.54882,70.4608,Q,Q
2023-03-14 17:30:32:847,0,-1.15065,-5.52721,70.4636,Q,Q
2023-03-14 17:30:32:857,0,-1.15186,-5.50776,70.4632,Q,Q
2023-03-14 17:30:32:867,0,-1.15682,-5.49082,70.4596,Q,Q
2023-03-14 17:30:32:877,0,-1.16699,-5.47197,70.452,Q,Q
2023-03-14 17:30:32:887,0,-1.17246,-5.461,70.445,Q,Q
2023-03-14 17:30:32:897,0,-1.17641,-5.45318,70.4361,Q,Q
2023-03-14 17:30:32:907,0,-1.18118,-5.44374,70.4294,Q,Q
2023-03-14 17:30:32:917,0,-1.18758,-5.43589,70.4305,Q,Q
2023-03-14 17:30:32:927,0,-1.19568,-5.43415,70.4326,Q,Q
2023-03-14 17:30:32:937,0,-1.20723,-5.43094,70.4409,Q,Q
2023-03-14 17:30:32:947,0,-1.21782,-5.42747,70.4561,Q,Q
2023-03-14 17:30:32:957,0,-1.23018,-5.42666,70.4703,Q,Q
2023-03-14 17:30:32:967,0,-1.24364,-5.42743,70.4914,Q,Q
2023-03-14 17:30:32:977,0,-1.25097,-5.42665,70.5216,Q,Q
2023-03-14 17:30:32:987,0,-1.26044,-5.42378,70.5525,Q,Q
2023-03-14 17:30:32:997,0,-1.26941,-5.42041,70.5863,Q,Q
2023-03-14 17:30:33:7,0,-1.2715,-5.41746,70.6151,Q,Q
2023-03-14 17:30:33:17,0,-1.27317,-5.41388,70.6401,Q,Q
2023-03-14 17:30:33:27,0,-1.25895,-5.40847,70.6555,Q,Q
2023-03-14 17:30:33:37,0,-1.23509,-5.39116,70.6535,Q,Q
2023-03-14 17:30:33:47,0,-1.19868,-5.36131,70.6338,Q,Q
2023-03-14 17:30:33:57,0,-1.15777,-5.32362,70.5965,Q,Q
2023-03-14 17:30:33:67,0,-1.12614,-5.27261,70.5497,Q,Q
2023-03-14 17:30:33:77,0,-1.11273,-5.2154,70.4914,Q,Q
2023-03-14 17:30:33:87,0,-1.12086,-5.15983,70.4294,Q,Q
2023-03-14 17:30:33:97,0,-1.15421,-5.1063,70.3637,Q,Q
2023-03-14 17:30:33:107,0,-1.21199,-5.05483,70.3028,Q,Q
2023-03-14 17:30:33:117,0,-1.289,-5.01357,70.2444,Q,Q
2023-03-14 17:30:33:127,0,-1.38113,-4.98793,70.1888,Q,Q
2023-03-14 17:30:33:137,0,-1.49064,-4.97591,70.136,Q,Q
2023-03-14 17:30:33:147,0,-1.61464,-4.96673,70.0833,Q,Q
2023-03-14 17:30:33:157,0,-1.7679,-4.95727,70.0298,Q,Q
2023-03-14 17:30:33:167,0,-1.94735,-4.95015,69.9858,Q,Q
2023-03-14 17:30:33:177,0,-2.1667,-4.94903,69.9645,Q,Q
2023-03-14 17:30:33:187,0,-2.42461,-4.96493,69.9632,Q,Q
2023-03-14 17:30:33:197,0,-2.71233,-4.99229,69.988,Q,Q
2023-03-14 17:30:33:207,0,-3.00445,-5.03256,70.0321,Q,Q
2023-03-14 17:30:33:217,0,-3.27842,-5.07773,70.0952,Q,Q
2023-03-14 17:30:33:227,0,-3.52835,-5.11716,70.1774,Q,Q
2023-03-14 17:30:33:237,0,-3.74354,-5.14533,70.278,Q,Q
2023-03-14 17:30:33:247,0,-3.93037,-5.16676,70.3995,Q,Q
2023-03-14 17:30:33:257,0,-4.09825,-5.18183,70.5321,Q,Q
2023-03-14 17:30:33:267,0,-4.25278,-5.18788,70.667,Q,Q
2023-03-14 17:30:33:277,0,-4.40033,-5.19002,70.8008,Q,Q
2023-03-14 17:30:33:287,0,-4.53499,-5.18441,70.9293,Q,Q
2023-03-14 17:30:33:297,0,-4.65777,-5.17563,71.0495,Q,Q
2023-03-14 17:30:33:307,0,-4.76231,-5.16353,71.1576,Q,Q
2023-03-14 17:30:33:317,0,-4.85672,-5.14989,71.2593,Q,Q
2023-03-14 17:30:33:327,0,-4.93449,-5.13125,71.3483,Q,Q
2023-03-14 17:30:33:336,0,-4.98822,-5.1141,71.4292,Q,Q
2023-03-14 17:30:33:347,0,-5.02513,-5.08909,71.4985,Q,Q
2023-03-14 17:30:33:357,0,-5.04685,-5.06714,71.5521,Q,Q
2023-03-14 17:30:33:367,0,-5.05248,-5.04533,71.5933,Q,Q
2023-03-14 17:30:33:377,0,-5.04467,-5.01855,71.6175,Q,Q
2023-03-14 17:30:33:387,0,-5.02841,-4.98352,71.6193,Q,Q
2023-03-14 17:30:33:397,0,-5.01155,-4.94166,71.6041,Q,Q
2023-03-14 17:30:33:407,0,-4.98829,-4.88894,71.5671,Q,Q
2023-03-14 17:30:33:417,0,-4.96497,-4.83349,71.5093,Q,Q
2023-03-14 17:30:33:427,0,-4.95688,-4.78268,71.4431,Q,Q
2023-03-14 17:30:33:437,0,-4.96322,-4.73749,71.3652,Q,Q
2023-03-14 17:30:33:447,0,-4.98712,-4.70371,71.2888,Q,Q
2023-03-14 17:30:33:457,0,-5.01984,-4.67308,71.2136,Q,Q
2023-03-14 17:30:33:467,0,-5.05915,-4.64406,71.1436,Q,Q
2023-03-14 17:30:33:477,0,-5.10341,-4.62183,71.0849,Q,Q
2023-03-14 17:30:33:487,0,-5.16536,-4.60099,71.0354,Q,Q
2023-03-14 17:30:33:497,0,-5.24344,-4.58365,71.0045,Q,Q
2023-03-14 17:30:33:507,0,-5.34622,-4.56712,70.9879,Q,Q
2023-03-14 17:30:33:517,0,-5.46742,-4.55357,70.9928,Q,Q
2023-03-14 17:30:33:527,0,-5.59285,-4.5444,71.0204,Q,Q
2023-03-14 17:30:33:537,0,-5.7066,-4.52928,71.0663,Q,Q
2023-03-14 17:30:33:547,0,-5.80792,-4.50423,71.1285,Q,Q
2023-03-14 17:30:33:557,0,-5.90132,-4.46954,71.2037,Q,Q
2023-03-14 17:30:33:567,0,-5.99317,-4.42908,71.2878,Q,Q
2023-03-14 17:30:33:577,0,-6.08422,-4.38569,71.3789,Q,Q
2023-03-14 17:30:33:587,0,-6.18564,-4.34149,71.4712,Q,Q
2023-03-14 17:30:33:597,0,-6.28766,-4.29767,71.5638,Q,Q
2023-03-14 17:30:33:607,0,-6.39198,-4.25522,71.654,Q,Q
2023-03-14 17:30:33:617,0,-6.49344,-4.21546,71.741,Q,Q
2023-03-14 17:30:33:627,0,-6.58919,-4.17712,71.8144,Q,Q
2023-03-14 17:30:33:637,0,-6.67798,-4.13837,71.8753,Q,Q
2023-03-14 17:30:33:647,0,-6.76611,-4.10226,71.9251,Q,Q
2023-03-14 17:30:33:657,0,-6.85478,-4.06957,71.9604,Q,Q
2023-03-14 17:30:33:667,0,-6.94457,-4.04156,71.9903,Q,Q
2023-03-14 17:30:33:677,0,-7.03223,-4.01799,72.0043,Q,Q
2023-03-14 17:30:33:687,0,-7.11696,-3.99867,72.0071,Q,Q
2023-03-14 17:30:33:697,0,-7.18922,-3.98099,71.9939,Q,Q
2023-03-14 17:30:33:707,0,-7.24541,-3.96949,71.9693,Q,Q
2023-03-14 17:30:33:717,0,-7.29446,-3.96069,71.9387,Q,Q
2023-03-14 17:30:33:727,0,-7.33519,-3.95579,71.9003,Q,Q
2023-03-14 17:30:33:737,0,-7.37676,-3.95552,71.8616,Q,Q
2023-03-14 17:30:33:747,0,-7.41894,-3.95777,71.8235,Q,Q
2023-03-14 17:30:33:757,0,-7.4633,-3.96369,71.7919,Q,Q
2023-03-14 17:30:33:767,0,-7.51721,-3.96828,71.7648,Q,Q
2023-03-14 17:30:33:777,0,-7.56804,-3.97442,71.7449,Q,Q
2023-03-14 17:30:33:787,0,-7.61008,-3.97419,71.7271,Q,Q
2023-03-14 17:30:33:797,0,-7.64495,-3.97082,71.7171,Q,Q
2023-03-14 17:30:33:807,0,-7.67575,-3.96378,71.7118,Q,Q
2023-03-14 17:30:33:817,0,-7.70511,-3.95733,71.7087,Q,Q
2023-03-14 17:30:33:827,0,-7.7456,-3.94707,71.7135,Q,Q
2023-03-14 17:30:33:837,0,-7.78836,-3.93385,71.7159,Q,Q
2023-03-14 17:30:33:847,0,-7.83482,-3.92592,71.7198,Q,Q
2023-03-14 17:30:33:857,0,-7.88182,-3.91682,71.7211,Q,Q
2023-03-14 17:30:33:867,0,-7.92356,-3.9073,71.7205,Q,Q
2023-03-14 17:30:33:877,0,-7.96677,-3.89864,71.7123,Q,Q
2023-03-14 17:30:33:887,0,-8.01141,-3.88896,71.7013,Q,Q
2023-03-14 17:30:33:897,0,-8.07003,-3.8817,71.6842,Q,Q
2023-03-14 17:30:33:907,0,-8.1297,-3.8765,71.6625,Q,Q
2023-03-14 17:30:33:917,0,-8.19401,-3.87187,71.6393,Q,Q
2023-03-14 17:30:33:927,0,-8.26049,-3.87039,71.6141,Q,Q
2023-03-14 17:30:33:937,0,-8.32422,-3.87481,71.5867,Q,Q
2023-03-14 17:30:33:947,0,-8.38104,-3.88068,71.5621,Q,Q
2023-03-14 17:30:33:957,0,-8.43385,-3.88006,71.5408,Q,Q
2023-03-14 17:30:33:967,0,-8.48716,-3.8767,71.524,Q,Q
2023-03-14 17:30:33:977,0,-8.54367,-3.8711,71.5083,Q,Q
2023-03-14 17:30:33:987,0,-8.60473,-3.8658,71.496,Q,Q
2023-03-14 17:30:33:997,0,-8.67461,-3.85388,71.4903,Q,Q
2023-03-14 17:30:34:7,0,-8.74987,-3.8465,71.4846,Q,Q
2023-03-14 17:30:34:17,0,-8.82382,-3.83512,71.4766,Q,Q
2023-03-14 17:30:34:27,0,-8.89996,-3.82092,71.4673,Q,Q
2023-03-14 17:30:34:37,0,-8.97147,-3.8084,71.457,Q,Q
2023-03-14 17:30:34:47,0,-9.03901,-3.79579,71.4436,Q,Q
2023-03-14 17:30:34:57,0,-9.10842,-3.78431,71.4322,Q,Q
2023-03-14 17:30:34:67,0,-9.18305,-3.77696,71.4175,Q,Q
2023-03-14 17:30:34:77,0,-9.26638,-3.77435,71.4007,Q,Q
2023-03-14 17:30:34:87,0,-9.35835,-3.77839,71.3829,Q,Q
2023-03-14 17:30:34:97,0,-9.45816,-3.78905,71.3609,Q,Q
2023-03-14 17:30:34:107,0,-9.5464,-3.80203,71.3323,Q,Q
2023-03-14 17:30:34:117,0,-9.61739,-3.82033,71.2998,Q,Q
2023-03-14 17:30:34:127,0,-9.66889,-3.83481,71.263,Q,Q
2023-03-14 17:30:34:137,0,-9.71003,-3.84428,71.2257,Q,Q
2023-03-14 17:30:34:147,0,-9.74751,-3.85619,71.1902,Q,Q
2023-03-14 17:30:34:157,0,-9.77918,-3.86568,71.1578,Q,Q
2023-03-14 17:30:34:167,0,-9.81508,-3.88288,71.1334,Q,Q
2023-03-14 17:30:34:177,0,-9.83771,-3.90592,71.1104,Q,Q
2023-03-14 17:30:34:187,0,-9.85105,-3.92841,71.0898,Q,Q
2023-03-14 17:30:34:197,0,-9.84904,-3.94986,71.0693,Q,Q
2023-03-14 17:30:34:207,0,-9.83962,-3.96779,71.06,Q,Q
2023-03-14 17:30:34:217,0,-9.82415,-3.9846,71.0528,Q,Q
2023-03-14 17:30:34:227,0,-9.80961,-3.99793,71.049,Q,Q
2023-03-14 17:30:34:237,0,-9.79439,-4.01013,71.0532,Q,Q
2023-03-14 17:30:34:247,0,-9.77727,-4.02059,71.0622,Q,Q
2023-03-14 17:30:34:257,0,-9.75605,-4.03114,71.0743,Q,Q
2023-03-14 17:30:34:267,0,-9.72913,-4.04225,71.088,Q,Q
2023-03-14 17:30:34:277,0,-9.70451,-4.05443,71.1027,Q,Q
2023-03-14 17:30:34:287,0,-9.67836,-4.06466,71.1265,Q,Q
2023-03-14 17:30:34:297,0,-9.64888,-4.07655,71.1509,Q,Q
2023-03-14 17:30:34:307,0,-9.61908,-4.09494,71.1773,Q,Q
2023-03-14 17:30:34:317,0,-9.59568,-4.10745,71.2096,Q,Q
2023-03-14 17:30:34:327,0,-9.56872,-4.11783,71.2406,Q,Q
2023-03-14 17:30:34:337,0,-9.53115,-4.12837,71.2685,Q,Q
2023-03-14 17:30:34:347,0,-9.48775,-4.13849,71.2937,Q,Q
2023-03-14 17:30:34:357,0,-9.43154,-4.14387,71.3119,Q,Q
2023-03-14 17:30:34:367,0,-9.36525,-4.14948,71.3208,Q,Q
2023-03-14 17:30:34:377,0,-9.29895,-4.16312,71.3227,Q,Q
2023-03-14 17:30:34:387,0,-9.23623,-4.17889,71.3244,Q,Q
2023-03-14 17:30:34:397,0,-9.17475,-4.19896,71.319,Q,Q
2023-03-14 17:30:34:407,0,-9.11751,-4.2195,71.3083,Q,Q
2023-03-14 17:30:34:417,0,-9.05951,-4.24329,71.2959,Q,Q
2023-03-14 17:30:34:427,0,-9.00022,-4.26254,71.2861,Q,Q
2023-03-14 17:30:34:437,0,-8.93584,-4.28596,71.28,Q,Q
2023-03-14 17:30:34:447,0,-8.87006,-4.30633,71.2764,Q,Q
2023-03-14 17:30:34:457,0,-8.8009,-4.33035,71.2738,Q,Q
2023-03-14 17:30:34:467,0,-8.73635,-4.3572,71.2699,Q,Q
2023-03-14 17:30:34:477,0,-8.66858,-4.38233,71.2532,Q,Q
2023-03-14 17:30:34:487,0,-8.60808,-4.41075,71.233,Q,Q
2023-03-14 17:30:34:497,0,-8.55102,-4.43414,71.2116,Q,Q
2023-03-14 17:30:34:507,0,-8.49289,-4.45552,71.1928,Q,Q
2023-03-14 17:30:34:517,0,-8.44469,-4.48151,71.1774,Q,Q
2023-03-14 17:30:34:527,0,-8.39799,-4.50421,71.169,Q,Q
2023-03-14 17:30:34:537,0,-8.353,-4.51824,71.1686,Q,Q
2023-03-14 17:30:34:547,0,-8.31083,-4.52851,71.1728,Q,Q
2023-03-14 17:30:34:557,0,-8.27117,-4.53301,71.1829,Q,Q
2023-03-14 17:30:34:567,0,-8.23275,-4.53612,71.1927,Q,Q
2023-03-14 17:30:34:577,0,-8.19128,-4.53517,71.2073,Q,Q
2023-03-14 17:30:34:587,0,-8.14891,-4.53895,71.2215,Q,Q
2023-03-14 17:30:34:597,0,-8.10508,-4.53945,71.2306,Q,Q
2023-03-14 17:30:34:607,0,-8.05912,-4.53822,71.2395,Q,Q
2023-03-14 17:30:34:617,0,-8.01638,-4.53729,71.2429,Q,Q
2023-03-14 17:30:34:627,0,-7.97536,-4.54161,71.2449,Q,Q
2023-03-14 17:30:34:637,0,-7.93201,-4.54654,71.2468,Q,Q
2023-03-14 17:30:34:647,0,-7.89586,-4.55224,71.2474,Q,Q
2023-03-14 17:30:34:657,0,-7.86111,-4.55941,71.2485,Q,Q
2023-03-14 17:30:34:667,0,-7.82748,-4.56469,71.2461,Q,Q
2023-03-14 17:30:34:677,0,-7.79605,-4.57388,71.2486,Q,Q
2023-03-14 17:30:34:687,0,-7.76472,-4.57973,71.2525,Q,Q
2023-03-14 17:30:34:697,0,-7.73619,-4.58204,71.259,Q,Q
2023-03-14 17:30:34:707,0,-7.70848,-4.59251,71.2637,Q,Q
2023-03-14 17:30:34:717,0,-7.6798,-4.59995,71.2704,Q,Q
2023-03-14 17:30:34:727,0,-7.6534,-4.60913,71.2783,Q,Q
2023-03-14 17:30:34:737,0,-7.62507,-4.62016,71.2842,Q,Q
2023-03-14 17:30:34:747,0,-7.59771,-4.63334,71.2898,Q,Q
2023-03-14 17:30:34:757,0,-7.57092,-4.64941,71.2973,Q,Q
2023-03-14 17:30:34:767,0,-7.54504,-4.66478,71.3085,Q,Q
2023-03-14 17:30:34:777,0,-7.51959,-4.68014,71.3165,Q,Q
2023-03-14 17:30:34:787,0,-7.49264,-4.69626,71.3269,Q,Q
2023-03-14 17:30:34:797,0,-7.46685,-4.71113,71.3386,Q,Q
2023-03-14 17:30:34:807,0,-7.43985,-4.72753,71.3529,Q,Q
2023-03-14 17:30:34:817,0,-7.41469,-4.74397,71.3669,Q,Q
2023-03-14 17:30:34:827,0,-7.3937,-4.76315,71.385,Q,Q
2023-03-14 17:30:34:837,0,-7.37137,-4.78352,71.4035,Q,Q
2023-03-14 17:30:34:847,0,-7.34985,-4.79999,71.4222,Q,Q
2023-03-14 17:30:34:857,0,-7.33515,-4.81445,71.4421,Q,Q
2023-03-14 17:30:34:867,0,-7.31891,-4.82468,71.4607,Q,Q
2023-03-14 17:30:34:877,0,-7.29918,-4.83234,71.4835,Q,Q
2023-03-14 17:30:34:887,0,-7.27862,-4.83819,71.5065,Q,Q
2023-03-14 17:30:34:897,0,-7.25715,-4.84323,71.526,Q,Q
2023-03-14 17:30:34:907,0,-7.24205,-4.84757,71.5445,Q,Q
2023-03-14 17:30:34:917,0,-7.2284,-4.84995,71.5621,Q,Q
2023-03-14 17:30:34:927,0,-7.21749,-4.85516,71.58,Q,Q
2023-03-14 17:30:34:937,0,-7.21042,-4.86109,71.5924,Q,Q
2023-03-14 17:30:34:947,0,-7.19772,-4.86552,71.6054,Q,Q
2023-03-14 17:30:34:957,0,-7.18371,-4.87442,71.6157,Q,Q
2023-03-14 17:30:34:967,0,-7.17058,-4.88076,71.6258,Q,Q
2023-03-14 17:30:34:977,0,-7.15641,-4.88527,71.6293,Q,Q
2023-03-14 17:30:34:987,0,-7.13991,-4.89128,71.631,Q,Q
2023-03-14 17:30:34:997,0,-7.12234,-4.89992,71.6284,Q,Q
2023-03-14 17:30:35:7,0,-7.10428,-4.90415,71.6256,Q,Q
2023-03-14 17:30:35:17,0,-7.08825,-4.91111,71.6218,Q,Q
2023-03-14 17:30:35:27,0,-7.07195,-4.91514,71.617,Q,Q
2023-03-14 17:30:35:37,0,-7.05582,-4.92001,71.6103,Q,Q
2023-03-14 17:30:35:47,0,-7.03829,-4.92546,71.6089,Q,Q
2023-03-14 17:30:35:57,0,-7.0168,-4.92963,71.6024,Q,Q
2023-03-14 17:30:35:67,0,-6.9928,-4.93528,71.5999,Q,Q
2023-03-14 17:30:35:77,0,-6.97246,-4.94104,71.5976,Q,Q
2023-03-14 17:30:35:87,0,-6.95162,-4.94878,71.5963,Q,Q
2023-03-14 17:30:35:97,0,-6.92781,-4.95421,71.5986,Q,Q
2023-03-14 17:30:35:107,0,-6.90644,-4.96013,71.5993,Q,Q
2023-03-14 17:30:35:117,0,-6.88539,-4.96425,71.5996,Q,Q
2023-03-14 17:30:35:127,0,-6.86701,-4.96809,71.6003,Q,Q
2023-03-14 17:30:35:137,0,-6.84768,-4.9752,71.6,Q,Q
2023-03-14 17:30:35:147,0,-6.8298,-4.97917,71.5998,Q,Q
2023-03-14 17:30:35:157,0,-6.80981,-4.98294,71.6062,Q,Q
2023-03-14 17:30:35:167,0,-6.78951,-4.98788,71.6111,Q,Q
2023-03-14 17:30:35:177,0,-6.76794,-4.99528,71.6163,Q,Q
2023-03-14 17:30:35:187,0,-6.74296,-4.99861,71.6224,Q,Q
2023-03-14 17:30:35:197,0,-6.72021,-5.00402,71.6266,Q,Q
2023-03-14 17:30:35:207,0,-6.6927,-5.0123,71.6331,Q,Q
2023-03-14 17:30:35:217,0,-6.66714,-5.01706,71.6398,Q,Q
2023-03-14 17:30:35:227,0,-6.63954,-5.02549,71.6423,Q,Q
2023-03-14 17:30:35:237,0,-6.61436,-5.03472,71.65,Q,Q
2023-03-14 17:30:35:247,0,-6.58791,-5.04476,71.6602,Q,Q
2023-03-14 17:30:35:257,0,-6.56214,-5.05526,71.6703,Q,Q
2023-03-14 17:30:35:267,0,-6.53567,-5.06544,71.6797,Q,Q
2023-03-14 17:30:35:277,0,-6.50788,-5.06997,71.6886,Q,Q
2023-03-14 17:30:35:287,0,-6.48144,-5.07782,71.6982,Q,Q
2023-03-14 17:30:35:297,0,-6.45314,-5.08805,71.7061,Q,Q
2023-03-14 17:30:35:307,0,-6.42274,-5.09957,71.7167,Q,Q
2023-03-14 17:30:35:317,0,-6.39528,-5.11099,71.7251,Q,Q
2023-03-14 17:30:35:327,0,-6.36839,-5.11996,71.7345,Q,Q
2023-03-14 17:30:35:337,0,-6.34122,-5.12615,71.742,Q,Q
2023-03-14 17:30:35:347,0,-6.31745,-5.13277,71.7465,Q,Q
2023-03-14 17:30:35:357,0,-6.29509,-5.13621,71.7528,Q,Q
2023-03-14 17:30:35:367,0,-6.26913,-5.13604,71.753,Q,Q
2023-03-14 17:30:35:377,0,-6.24167,-5.13629,71.7516,Q,Q
2023-03-14 17:30:35:388,0,-6.21074,-5.13732,71.7497,Q,Q
2023-03-14 17:30:35:397,0,-6.18058,-5.13741,71.7474,Q,Q
2023-03-14 17:30:35:407,0,-6.15501,-5.14194,71.7484,Q,Q
2023-03-14 17:30:35:417,0,-6.12504,-5.15156,71.7505,Q,Q
2023-03-14 17:30:35:427,0,-6.09007,-5.16794,71.7559,Q,Q
2023-03-14 17:30:35:437,0,-6.04424,-5.20359,71.7751,Q,Q
2023-03-14 17:30:35:447,0,-5.99506,-5.23782,71.8002,Q,Q
2023-03-14 17:30:35:457,0,-5.94719,-5.27687,71.8316,Q,Q
2023-03-14 17:30:35:467,0,-5.899,-5.31104,71.862,Q,Q
2023-03-14 17:30:35:477,0,-5.851,-5.34254,71.8921,Q,Q
2023-03-14 17:30:35:487,0,-5.80393,-5.36877,71.9165,Q,Q
2023-03-14 17:30:35:497,0,-5.75446,-5.39429,71.9395,Q,Q
2023-03-14 17:30:35:507,0,-5.70458,-5.41259,71.9601,Q,Q
2023-03-14 17:30:35:517,0,-5.65484,-5.42874,71.9851,Q,Q
2023-03-14 17:30:35:527,0,-5.60839,-5.44072,72.0088,Q,Q
2023-03-14 17:30:35:537,0,-5.56231,-5.45488,72.0248,Q,Q
2023-03-14 17:30:35:547,0,-5.51798,-5.46182,72.0397,Q,Q
2023-03-14 17:30:35:557,0,-5.46967,-5.46538,72.051,Q,Q
2023-03-14 17:30:35:567,0,-5.42407,-5.47096,72.0526,Q,Q
2023-03-14 17:30:35:577,0,-5.3845,-5.47171,72.053,Q,Q
2023-03-14 17:30:35:587,0,-5.35106,-5.47263,72.0447,Q,Q
2023-03-14 17:30:35:597,0,-5.31951,-5.47262,72.0357,Q,Q
2023-03-14 17:30:35:607,0,-5.29154,-5.4708,72.0204,Q,Q
2023-03-14 17:30:35:617,0,-5.26675,-5.46697,72.001,Q,Q
2023-03-14 17:30:35:627,0,-5.24327,-5.46119,71.978,Q,Q
2023-03-14 17:30:35:637,0,-5.21924,-5.4599,71.9556,Q,Q
2023-03-14 17:30:35:647,0,-5.19439,-5.45659,71.9297,Q,Q
2023-03-14 17:30:35:657,0,-5.16798,-5.453,71.9072,Q,Q
2023-03-14 17:30:35:667,0,-5.14583,-5.45237,71.8892,Q,Q
2023-03-14 17:30:35:677,0,-5.12633,-5.45194,71.8682,Q,Q
2023-03-14 17:30:35:687,0,-5.10737,-5.45386,71.8486,Q,Q
2023-03-14 17:30:35:697,0,-5.09681,-5.45679,71.8383,Q,Q
2023-03-14 17:30:35:707,0,-5.08683,-5.46128,71.8287,Q,Q
2023-03-14 17:30:35:717,0,-5.08098,-5.47167,71.8215,Q,Q
2023-03-14 17:30:35:727,0,-5.07812,-5.47719,71.816,Q,Q
2023-03-14 17:30:35:737,0,-5.07624,-5.48483,71.8123,Q,Q
2023-03-14 17:30:35:747,0,-5.07328,-5.49188,71.8106,Q,Q
2023-03-14 17:30:35:757,0,-5.07643,-5.5026,71.8179,Q,Q
2023-03-14 17:30:35:767,0,-5.08072,-5.51357,71.8265,Q,Q
2023-03-14 17:30:35:777,0,-5.08861,-5.51585,71.8316,Q,Q
2023-03-14 17:30:35:787,0,-5.09708,-5.51092,71.8386,Q,Q
2023-03-14 17:30:35:797,0,-5.11023,-5.50008,71.8505,Q,Q
2023-03-14 17:30:35:807,0,-5.12224,-5.4832,71.8561,Q,Q
2023-03-14 17:30:35:817,0,-5.13564,-5.46156,71.8622,Q,Q
2023-03-14 17:30:35:827,0,-5.15617,-5.43635,71.8708,Q,Q
2023-03-14 17:30:35:837,0,-5.18356,-5.40991,71.8832,Q,Q
2023-03-14 17:30:35:847,0,-5.21335,-5.38087,71.8979,Q,Q
2023-03-14 17:30:35:857,0,-5.24674,-5.35212,71.9156,Q,Q
2023-03-14 17:30:35:867,0,-5.27702,-5.31998,71.9398,Q,Q
2023-03-14 17:30:35:877,0,-5.30043,-5.28615,71.9566,Q,Q
2023-03-14 17:30:35:887,0,-5.30858,-5.24469,71.9668,Q,Q
2023-03-14 17:30:35:897,0,-5.30006,-5.18852,71.9722,Q,Q
2023-03-14 17:30:35:907,0,-5.27549,-5.12271,71.973,Q,Q
2023-03-14 17:30:35:917,0,-5.24105,-5.04798,71.9723,Q,Q
2023-03-14 17:30:35:927,0,-5.20342,-4.9665,71.9634,Q,Q
2023-03-14 17:30:35:937,0,-5.16502,-4.88609,71.9503,Q,Q
2023-03-14 17:30:35:947,0,-5.11976,-4.81047,71.9288,Q,Q
2023-03-14 17:30:35:957,0,-5.05612,-4.73478,71.8981,Q,Q
2023-03-14 17:30:35:967,0,-4.96436,-4.66106,71.8459,Q,Q
2023-03-14 17:30:35:977,0,-4.83175,-4.58732,71.7529,Q,Q
2023-03-14 17:30:35:987,0,-4.66759,-4.51655,71.6417,Q,Q
2023-03-14 17:30:35:997,0,-4.49139,-4.46575,71.5221,Q,Q
2023-03-14 17:30:36:7,0,-4.32542,-4.44856,71.4067,Q,Q
2023-03-14 17:30:36:17,0,-4.18409,-4.4665,71.3035,Q,Q
2023-03-14 17:30:36:27,0,-4.07618,-4.52095,71.2115,Q,Q
2023-03-14 17:30:36:37,0,-3.99971,-4.603,71.1308,Q,Q
2023-03-14 17:30:36:47,0,-3.94762,-4.70114,71.0523,Q,Q
2023-03-14 17:30:36:57,0,-3.90569,-4.80755,70.9694,Q,Q
2023-03-14 17:30:36:67,0,-3.86167,-4.91073,70.891,Q,Q
2023-03-14 17:30:36:77,0,-3.813,-5.01736,70.8186,Q,Q
2023-03-14 17:30:36:87,0,-3.7703,-5.12039,70.7474,Q,Q
2023-03-14 17:30:36:97,0,-3.75113,-5.21536,70.6827,Q,Q
2023-03-14 17:30:36:107,0,-3.75416,-5.30364,70.6212,Q,Q
2023-03-14 17:30:36:117,0,-3.77991,-5.38275,70.5659,Q,Q
2023-03-14 17:30:36:127,0,-3.82228,-5.46311,70.509,Q,Q
2023-03-14 17:30:36:137,0,-3.8698,-5.53051,70.4533,Q,Q
2023-03-14 17:30:36:147,0,-3.92248,-5.58163,70.3981,Q,Q
2023-03-14 17:30:36:157,0,-3.96206,-5.61454,70.3418,Q,Q
2023-03-14 17:30:36:167,0,-3.98364,-5.63092,70.28,Q,Q
2023-03-14 17:30:36:177,0,-3.98865,-5.62991,70.2172,Q,Q
2023-03-14 17:30:36:187,0,-3.98887,-5.61736,70.1569,Q,Q
2023-03-14 17:30:36:197,0,-4.00146,-5.59891,70.0976,Q,Q
2023-03-14 17:30:36:207,0,-4.02603,-5.58214,70.029,Q,Q
2023-03-14 17:30:36:217,0,-4.05816,-5.5693,69.9462,Q,Q
2023-03-14 17:30:36:227,0,-4.09037,-5.55539,69.8482,Q,Q
2023-03-14 17:30:36:237,0,-4.11312,-5.57685,69.7282,Q,Q
2023-03-14 17:30:36:247,0,-4.11722,-5.56705,69.6074,Q,Q
2023-03-14 17:30:36:257,0,-4.08586,-5.57474,69.4851,Q,Q
2023-03-14 17:30:36:267,0,-4.03198,-5.58477,69.3799,Q,Q
2023-03-14 17:30:36:277,0,-3.97605,-5.60692,69.288,Q,Q
2023-03-14 17:30:36:287,0,-3.93452,-5.64462,69.1901,Q,Q
2023-03-14 17:30:36:297,0,-3.91701,-5.68912,69.0879,Q,Q
2023-03-14 17:30:36:307,0,-3.91237,-5.73739,68.991,Q,Q
2023-03-14 17:30:36:317,0,-3.90543,-5.79468,68.8954,Q,Q
2023-03-14 17:30:36:327,0,-3.89377,-5.84949,68.8017,Q,Q
2023-03-14 17:30:36:337,0,-3.87278,-5.89706,68.7132,Q,Q
2023-03-14 17:30:36:347,0,-3.82971,-5.93378,68.6403,Q,Q
2023-03-14 17:30:36:357,0,-3.77456,-5.96902,68.5866,Q,Q
2023-03-14 17:30:36:367,0,-3.7145,-6.00506,68.546,Q,Q
2023-03-14 17:30:36:377,0,-3.65746,-6.04022,68.5193,Q,Q
2023-03-14 17:30:36:387,0,-3.60434,-6.07235,68.506,Q,Q
2023-03-14 17:30:36:397,0,-3.55236,-6.10751,68.5001,Q,Q
2023-03-14 17:30:36:407,0,-3.50358,-6.14965,68.5022,Q,Q
2023-03-14 17:30:36:417,0,-3.47464,-6.19309,68.5071,Q,Q
2023-03-14 17:30:36:427,0,-3.45624,-6.24054,68.515,Q,Q
2023-03-14 17:30:36:437,0,-3.44938,-6.28111,68.534,Q,Q
2023-03-14 17:30:36:447,0,-3.44388,-6.32288,68.5492,Q,Q
2023-03-14 17:30:36:457,0,-3.43661,-6.36219,68.565,Q,Q
2023-03-14 17:30:36:467,0,-3.4353,-6.40334,68.5729,Q,Q
2023-03-14 17:30:36:477,0,-3.44012,-6.45631,68.5779,Q,Q
2023-03-14 17:30:36:487,0,-3.45612,-6.51089,68.5708,Q,Q
2023-03-14 17:30:36:497,0,-3.48416,-6.568,68.5547,Q,Q
2023-03-14 17:30:36:507,0,-3.52024,-6.6229,68.5242,Q,Q
2023-03-14 17:30:36:517,0,-3.56109,-6.67523,68.4764,Q,Q
2023-03-14 17:30:36:527,0,-3.6077,-6.71914,68.4128,Q,Q
2023-03-14 17:30:36:537,0,-3.64927,-6.74898,68.3305,Q,Q
2023-03-14 17:30:36:547,0,-3.68303,-6.76033,68.2364,Q,Q
2023-03-14 17:30:36:557,0,-3.71006,-6.7621,68.1342,Q,Q
2023-03-14 17:30:36:567,0,-3.72428,-6.75984,68.0346,Q,Q
2023-03-14 17:30:36:577,0,-3.71887,-6.74945,67.9401,Q,Q
2023-03-14 17:30:36:587,0,-3.69314,-6.73928,67.8481,Q,Q
2023-03-14 17:30:36:597,0,-3.65615,-6.72047,67.7596,Q,Q
2023-03-14 17:30:36:607,0,-3.61706,-6.70926,67.6776,Q,Q
2023-03-14 17:30:36:617,0,-3.56836,-6.63187,67.6241,Q,Q
2023-03-14 17:30:36:627,0,-3.49739,-6.56672,67.5519,Q,Q
2023-03-14 17:30:36:637,0,-3.41492,-6.50233,67.4869,Q,Q
2023-03-14 17:30:36:650,0,-3.33764,-6.42718,67.4319,Q,Q
2023-03-14 17:30:36:657,0,-3.25666,-6.3485,67.3869,Q,Q
2023-03-14 17:30:36:667,0,-3.16294,-6.2713,67.3536,Q,Q
2023-03-14 17:30:36:677,0,-3.06049,-6.19476,67.3294,Q,Q
2023-03-14 17:30:36:687,0,-2.9482,-6.11669,67.3149,Q,Q
2023-03-14 17:30:36:697,0,-2.82575,-6.03675,67.3051,Q,Q
2023-03-14 17:30:36:707,0,-2.70166,-5.96088,67.3057,Q,Q
2023-03-14 17:30:36:717,0,-2.574,-5.89832,67.3183,Q,Q
2023-03-14 17:30:36:727,0,-2.45333,-5.84978,67.3464,Q,Q
2023-03-14 17:30:36:737,0,-2.34425,-5.81767,67.3841,Q,Q
2023-03-14 17:30:36:747,0,-2.24719,-5.79836,67.4284,Q,Q
2023-03-14 17:30:36:757,0,-2.1661,-5.78747,67.4754,Q,Q
2023-03-14 17:30:36:767,0,-2.10091,-5.78567,67.5277,Q,Q
2023-03-14 17:30:36:777,0,-2.05237,-5.79078,67.5788,Q,Q
2023-03-14 17:30:36:787,0,-2.0173,-5.80568,67.6258,Q,Q
2023-03-14 17:30:36:797,0,-1.99699,-5.82323,67.668,Q,Q
2023-03-14 17:30:36:807,0,-1.99174,-5.84385,67.7055,Q,Q
2023-03-14 17:30:36:817,0,-1.99636,-5.86899,67.7356,Q,Q
2023-03-14 17:30:36:827,0,-2.01474,-5.898,67.7607,Q,Q
2023-03-14 17:30:36:837,0,-2.04208,-5.92565,67.7804,Q,Q
2023-03-14 17:30:36:847,0,-2.07145,-5.95074,67.7937,Q,Q
2023-03-14 17:30:36:857,0,-2.10685,-5.97128,67.8025,Q,Q
2023-03-14 17:30:36:867,0,-2.14589,-5.99663,67.7974,Q,Q
2023-03-14 17:30:36:877,0,-2.18028,-6.01906,67.7682,Q,Q
2023-03-14 17:30:36:887,0,-2.2005,-6.04021,67.7023,Q,Q
2023-03-14 17:30:36:897,0,-2.20193,-6.05499,67.6025,Q,Q
2023-03-14 17:30:36:907,0,-2.18765,-6.06789,67.4691,Q,Q
2023-03-14 17:30:36:917,0,-2.15801,-6.08703,67.3118,Q,Q
2023-03-14 17:30:36:927,0,-2.1228,-6.12123,67.1381,Q,Q
2023-03-14 17:30:36:937,0,-2.08547,-6.17519,66.9348,Q,Q
2023-03-14 17:30:36:947,0,-2.03969,-6.244,66.6816,Q,Q
2023-03-14 17:30:36:957,0,-1.99778,-6.32206,66.3783,Q,Q
2023-03-14 17:30:36:967,0,-1.95142,-6.40707,66.0254,Q,Q
2023-03-14 17:30:36:977,0,-1.90975,-6.49605,65.6432,Q,Q
2023-03-14 17:30:36:987,0,-1.87683,-6.59257,65.2339,Q,Q
2023-03-14 17:30:36:997,0,-1.84904,-6.68986,64.8167,Q,Q
2023-03-14 17:30:37:7,0,-1.82914,-6.78141,64.395,Q,Q
2023-03-14 17:30:37:17,0,-1.80219,-6.86254,63.974,Q,Q
2023-03-14 17:30:37:27,0,-1.7747,-6.93127,63.5623,Q,Q
2023-03-14 17:30:37:37,0,-1.73785,-6.98136,63.1633,Q,Q
2023-03-14 17:30:37:47,0,-1.6947,-7.01138,62.7832,Q,Q
2023-03-14 17:30:37:57,0,-1.64895,-7.01488,62.4311,Q,Q
2023-03-14 17:30:37:67,0,-1.59379,-6.99228,62.1136,Q,Q
2023-03-14 17:30:37:77,0,-1.54128,-6.94914,61.83,Q,Q
2023-03-14 17:30:37:87,0,-1.49539,-6.89877,61.5847,Q,Q
2023-03-14 17:30:37:97,0,-1.46061,-6.83783,61.3846,Q,Q
2023-03-14 17:30:37:107,0,-1.43779,-6.7633,61.2266,Q,Q
2023-03-14 17:30:37:117,0,-1.42446,-6.68474,61.1064,Q,Q
2023-03-14 17:30:37:127,0,-1.42032,-6.60587,61.03,Q,Q
2023-03-14 17:30:37:137,0,-1.42233,-6.53396,61.001,Q,Q
2023-03-14 17:30:37:147,0,-1.4376,-6.4732,61.017,Q,Q
2023-03-14 17:30:37:157,0,-1.46049,-6.42084,61.069,Q,Q
2023-03-14 17:30:37:167,0,-1.48377,-6.37756,61.1527,Q,Q
2023-03-14 17:30:37:177,0,-1.50932,-6.34738,61.263,Q,Q
2023-03-14 17:30:37:187,0,-1.52868,-6.331,61.3946,Q,Q
2023-03-14 17:30:37:197,0,-1.53749,-6.32166,61.5361,Q,Q
2023-03-14 17:30:37:207,0,-1.53543,-6.3187,61.6801,Q,Q
2023-03-14 17:30:37:217,0,-1.52248,-6.31594,61.8226,Q,Q
2023-03-14 17:30:37:227,0,-1.50508,-6.3082,61.9593,Q,Q
2023-03-14 17:30:37:237,0,-1.48766,-6.3014,62.0957,Q,Q
2023-03-14 17:30:37:247,0,-1.47115,-6.30658,62.2263,Q,Q
2023-03-14 17:30:37:257,0,-1.45968,-6.31958,62.3499,Q,Q
2023-03-14 17:30:37:267,0,-1.4593,-6.34389,62.4733,Q,Q
2023-03-14 17:30:37:277,0,-1.46749,-6.37663,62.5976,Q,Q
2023-03-14 17:30:37:287,0,-1.48873,-6.40912,62.7181,Q,Q
2023-03-14 17:30:37:297,0,-1.50845,-6.44354,62.8358,Q,Q
2023-03-14 17:30:37:307,0,-1.53474,-6.48385,62.9569,Q,Q
2023-03-14 17:30:37:317,0,-1.56749,-6.52593,63.0755,Q,Q
2023-03-14 17:30:37:327,0,-1.59569,-6.56841,63.1925,Q,Q
2023-03-14 17:30:37:337,0,-1.61374,-6.60851,63.3102,Q,Q
2023-03-14 17:30:37:347,0,-1.6166,-6.64519,63.4219,Q,Q
2023-03-14 17:30:37:357,0,-1.61058,-6.67956,63.5339,Q,Q
2023-03-14 17:30:37:367,0,-1.59961,-6.7103,63.6424,Q,Q
2023-03-14 17:30:37:377,0,-1.58791,-6.73601,63.7447,Q,Q
2023-03-14 17:30:37:387,0,-1.57846,-6.75531,63.8478,Q,Q
2023-03-14 17:30:37:397,0,-1.57665,-6.76135,63.9497,Q,Q
2023-03-14 17:30:37:407,0,-1.57431,-6.75891,64.046,Q,Q
2023-03-14 17:30:37:417,0,-1.56491,-6.74513,64.1221,Q,Q
2023-03-14 17:30:37:427,0,-1.55205,-6.7241,64.1841,Q,Q
2023-03-14 17:30:37:437,0,-1.5406,-6.69967,64.2321,Q,Q
2023-03-14 17:30:37:447,0,-1.5345,-6.683,64.2752,Q,Q
2023-03-14 17:30:37:457,0,-1.52875,-6.67249,64.3102,Q,Q
2023-03-14 17:30:37:467,0,-1.52209,-6.67303,64.3393,Q,Q
2023-03-14 17:30:37:477,0,-1.51698,-6.67706,64.3658,Q,Q
2023-03-14 17:30:37:487,0,-1.51918,-6.67925,64.3915,Q,Q
2023-03-14 17:30:37:497,0,-1.5231,-6.67887,64.4108,Q,Q
2023-03-14 17:30:37:507,0,-1.52962,-6.67029,64.4219,Q,Q
2023-03-14 17:30:37:517,0,-1.52667,-6.65125,64.4287,Q,Q
2023-03-14 17:30:37:527,0,-1.52119,-6.63347,64.4258,Q,Q
2023-03-14 17:30:37:537,0,-1.5122,-6.61859,64.4228,Q,Q
2023-03-14 17:30:37:547,0,-1.50532,-6.6031,64.4165,Q,Q
2023-03-14 17:30:37:557,0,-1.50054,-6.58555,64.4098,Q,Q
2023-03-14 17:30:37:567,0,-1.49545,-6.56737,64.401,Q,Q
2023-03-14 17:30:37:577,0,-1.49932,-6.54678,64.3942,Q,Q
2023-03-14 17:30:37:587,0,-1.51345,-6.52801,64.3793,Q,Q
2023-03-14 17:30:37:597,0,-1.52821,-6.50555,64.3619,Q,Q
2023-03-14 17:30:37:607,0,-1.54874,-6.4786,64.3413,Q,Q
2023-03-14 17:30:37:617,0,-1.57677,-6.44631,64.3132,Q,Q
2023-03-14 17:30:37:627,0,-1.61355,-6.41497,64.2814,Q,Q
2023-03-14 17:30:37:637,0,-1.66117,-6.38861,64.2418,Q,Q
2023-03-14 17:30:37:647,0,-1.71829,-6.37836,64.2041,Q,Q
2023-03-14 17:30:37:657,0,-1.78121,-6.40148,64.1776,Q,Q
2023-03-14 17:30:37:667,0,-1.84793,-6.45468,64.1772,Q,Q
2023-03-14 17:30:37:677,0,-1.9059,-6.53203,64.211,Q,Q
2023-03-14 17:30:37:687,0,-1.95881,-6.62435,64.2756,Q,Q
2023-03-14 17:30:37:697,0,-1.99411,-6.70705,64.36,Q,Q
2023-03-14 17:30:37:707,0,-2.01591,-6.76587,64.4529,Q,Q
2023-03-14 17:30:37:717,0,-2.01927,-6.80123,64.5448,Q,Q
2023-03-14 17:30:37:727,0,-2.01634,-6.81883,64.6328,Q,Q
2023-03-14 17:30:37:737,0,-2.01351,-6.82313,64.7112,Q,Q
2023-03-14 17:30:37:747,0,-2.01273,-6.8104,64.7823,Q,Q
2023-03-14 17:30:37:757,0,-2.01432,-6.78718,64.846,Q,Q
2023-03-14 17:30:37:767,0,-2.01562,-6.76499,64.9027,Q,Q
2023-03-14 17:30:37:777,0,-2.02374,-6.73971,64.9503,Q,Q
2023-03-14 17:30:37:787,0,-2.03765,-6.70732,64.9856,Q,Q
2023-03-14 17:30:37:797,0,-2.05462,-6.677,65.0073,Q,Q
2023-03-14 17:30:37:807,0,-2.07203,-6.64715,65.0234,Q,Q
2023-03-14 17:30:37:817,0,-2.09401,-6.62196,65.0338,Q,Q
2023-03-14 17:30:37:827,0,-2.11751,-6.603,65.0341,Q,Q
2023-03-14 17:30:37:837,0,-2.13603,-6.59125,65.0249,Q,Q
2023-03-14 17:30:37:847,0,-2.14667,-6.58124,65.0179,Q,Q
2023-03-14 17:30:37:857,0,-2.1575,-6.57805,65.0103,Q,Q
2023-03-14 17:30:37:867,0,-2.16754,-6.57789,65.0053,Q,Q
2023-03-14 17:30:37:877,0,-2.17991,-6.57709,65.0021,Q,Q
2023-03-14 17:30:37:887,0,-2.18834,-6.5752,65.0107,Q,Q
2023-03-14 17:30:37:897,0,-2.19903,-6.57317,65.0296,Q,Q
2023-03-14 17:30:37:907,0,-2.21302,-6.56065,65.0568,Q,Q
2023-03-14 17:30:37:917,0,-2.2258,-6.54772,65.0918,Q,Q
2023-03-14 17:30:37:927,0,-2.23671,-6.53219,65.1337,Q,Q
2023-03-14 17:30:37:937,0,-2.25137,-6.51322,65.1743,Q,Q
2023-03-14 17:30:37:947,0,-2.26794,-6.49533,65.2166,Q,Q
2023-03-14 17:30:37:957,0,-2.29926,-6.48616,65.2684,Q,Q
2023-03-14 17:30:37:967,0,-2.3289,-6.48,65.3254,Q,Q
2023-03-14 17:30:37:977,0,-2.35373,-6.4745,65.381,Q,Q
2023-03-14 17:30:37:987,0,-2.37569,-6.46564,65.4373,Q,Q
2023-03-14 17:30:37:997,0,-2.39123,-6.4624,65.4953,Q,Q
2023-03-14 17:30:38:7,0,-2.40061,-6.46676,65.5579,Q,Q
2023-03-14 17:30:38:17,0,-2.41164,-6.47153,65.6173,Q,Q
2023-03-14 17:30:38:27,0,-2.42038,-6.47476,65.676,Q,Q
2023-03-14 17:30:38:37,0,-2.42796,-6.47906,65.7312,Q,Q
2023-03-14 17:30:38:47,0,-2.43418,-6.48433,65.7827,Q,Q
2023-03-14 17:30:38:57,0,-2.43918,-6.48997,65.8266,Q,Q
2023-03-14 17:30:38:67,0,-2.44402,-6.4955,65.8735,Q,Q
2023-03-14 17:30:38:77,0,-2.44486,-6.49818,65.9106,Q,Q
2023-03-14 17:30:38:87,0,-2.44252,-6.49518,65.9381,Q,Q
2023-03-14 17:30:38:97,0,-2.43873,-6.48844,65.9584,Q,Q
2023-03-14 17:30:38:107,0,-2.43108,-6.47532,65.9707,Q,Q
2023-03-14 17:30:38:117,0,-2.42048,-6.46042,65.98,Q,Q
2023-03-14 17:30:38:127,0,-2.41206,-6.44203,65.9784,Q,Q
2023-03-14 17:30:38:137,0,-2.40824,-6.41957,65.978,Q,Q
2023-03-14 17:30:38:147,0,-2.40148,-6.40502,65.9802,Q,Q
2023-03-14 17:30:38:157,0,-2.39834,-6.38879,65.9893,Q,Q
2023-03-14 17:30:38:167,0,-2.39269,-6.37734,66.0001,Q,Q
2023-03-14 17:30:38:177,0,-2.39112,-6.3639,66.0178,Q,Q
2023-03-14 17:30:38:187,0,-2.38747,-6.34912,66.0419,Q,Q
2023-03-14 17:30:38:197,0,-2.38593,-6.33374,66.074,Q,Q
2023-03-14 17:30:38:207,0,-2.38507,-6.31626,66.1046,Q,Q
2023-03-14 17:30:38:217,0,-2.38963,-6.29612,66.1312,Q,Q
2023-03-14 17:30:38:227,0,-2.39723,-6.2754,66.156,Q,Q
2023-03-14 17:30:38:237,0,-2.39864,-6.25411,66.1718,Q,Q
2023-03-14 17:30:38:247,0,-2.40243,-6.23557,66.1845,Q,Q
2023-03-14 17:30:38:257,0,-2.40445,-6.21938,66.1921,Q,Q
2023-03-14 17:30:38:267,0,-2.41145,-6.20536,66.1991,Q,Q
2023-03-14 17:30:38:277,0,-2.41363,-6.19161,66.2,Q,Q
2023-03-14 17:30:38:287,0,-2.4171,-6.17937,66.1995,Q,Q
2023-03-14 17:30:38:297,0,-2.4148,-6.16812,66.1967,Q,Q
2023-03-14 17:30:38:307,0,-2.4072,-6.1568,66.1862,Q,Q
2023-03-14 17:30:38:317,0,-2.39391,-6.13223,66.1783,Q,Q
2023-03-14 17:30:38:327,0,-2.37064,-6.10105,66.1708,Q,Q
2023-03-14 17:30:38:337,0,-2.3454,-6.07613,66.1599,Q,Q
2023-03-14 17:30:38:347,0,-2.32558,-6.05473,66.1519,Q,Q
2023-03-14 17:30:38:357,0,-2.31595,-6.04397,66.1425,Q,Q
2023-03-14 17:30:38:367,0,-2.31245,-6.03898,66.1353,Q,Q
2023-03-14 17:30:38:377,0,-2.3109,-6.03674,66.1259,Q,Q
2023-03-14 17:30:38:387,0,-2.30798,-6.03808,66.1199,Q,Q
2023-03-14 17:30:38:397,0,-2.30598,-6.04455,66.1192,Q,Q
2023-03-14 17:30:38:407,0,-2.30094,-6.04867,66.1193,Q,Q
2023-03-14 17:30:38:417,0,-2.29458,-6.04741,66.1175,Q,Q
2023-03-14 17:30:38:427,0,-2.28783,-6.04988,66.116,Q,Q
2023-03-14 17:30:38:437,0,-2.28033,-6.05142,66.1189,Q,Q
2023-03-14 17:30:38:447,0,-2.27544,-6.0532,66.1211,Q,Q
2023-03-14 17:30:38:457,0,-2.27463,-6.05769,66.1288,Q,Q
2023-03-14 17:30:38:467,0,-2.27672,-6.06222,66.1408,Q,Q
2023-03-14 17:30:38:477,0,-2.28013,-6.07194,66.1521,Q,Q
2023-03-14 17:30:38:487,0,-2.28556,-6.08201,66.1607,Q,Q
2023-03-14 17:30:38:497,0,-2.29315,-6.08589,66.1687,Q,Q
2023-03-14 17:30:38:507,0,-2.30046,-6.0895,66.169,Q,Q
2023-03-14 17:30:38:517,0,-2.31521,-6.09622,66.1712,Q,Q
2023-03-14 17:30:38:527,0,-2.33083,-6.10215,66.1737,Q,Q
2023-03-14 17:30:38:537,0,-2.35254,-6.11682,66.1768,Q,Q
2023-03-14 17:30:38:547,0,-2.38087,-6.13846,66.1792,Q,Q
2023-03-14 17:30:38:557,0,-2.41065,-6.16366,66.1834,Q,Q
2023-03-14 17:30:38:567,0,-2.44452,-6.18186,66.1955,Q,Q
2023-03-14 17:30:38:577,0,-2.46255,-6.19453,66.2069,Q,Q
2023-03-14 17:30:38:587,0,-2.4794,-6.20069,66.2223,Q,Q
2023-03-14 17:30:38:597,0,-2.49092,-6.19829,66.2461,Q,Q
2023-03-14 17:30:38:607,0,-2.49622,-6.19783,66.2639,Q,Q
2023-03-14 17:30:38:617,0,-2.50095,-6.19967,66.2827,Q,Q
2023-03-14 17:30:38:627,0,-2.50809,-6.19739,66.298,Q,Q
2023-03-14 17:30:38:637,0,-2.51294,-6.19853,66.3167,Q,Q
2023-03-14 17:30:38:647,0,-2.51754,-6.19718,66.3317,Q,Q
2023-03-14 17:30:38:657,0,-2.51756,-6.20036,66.3458,Q,Q
2023-03-14 17:30:38:667,0,-2.5164,-6.20315,66.3591,Q,Q
2023-03-14 17:30:38:677,0,-2.51045,-6.2074,66.3726,Q,Q
2023-03-14 17:30:38:687,0,-2.49584,-6.21366,66.3803,Q,Q
2023-03-14 17:30:38:697,0,-2.48488,-6.22478,66.3959,Q,Q
2023-03-14 17:30:38:707,0,-2.47309,-6.23803,66.4091,Q,Q
2023-03-14 17:30:38:717,0,-2.46869,-6.25323,66.4235,Q,Q
2023-03-14 17:30:38:727,0,-2.4597,-6.27273,66.4368,Q,Q
2023-03-14 17:30:38:737,0,-2.45208,-6.30082,66.4469,Q,Q
2023-03-14 17:30:38:747,0,-2.44695,-6.3291,66.4529,Q,Q
2023-03-14 17:30:38:757,0,-2.4394,-6.35797,66.4543,Q,Q
2023-03-14 17:30:38:767,0,-2.43573,-6.38565,66.4586,Q,Q
2023-03-14 17:30:38:777,0,-2.42542,-6.4125,66.4558,Q,Q
2023-03-14 17:30:38:787,0,-2.41685,-6.43151,66.4521,Q,Q
2023-03-14 17:30:38:797,0,-2.40366,-6.45047,66.4552,Q,Q
2023-03-14 17:30:38:807,0,-2.39422,-6.46836,66.457,Q,Q
2023-03-14 17:30:38:817,0,-2.38051,-6.4802,66.4619,Q,Q
2023-03-14 17:30:38:827,0,-2.368,-6.4846,66.4689,Q,Q
2023-03-14 17:30:38:837,0,-2.35461,-6.4834,66.4869,Q,Q
2023-03-14 17:30:38:847,0,-2.34124,-6.47411,66.509,Q,Q
2023-03-14 17:30:38:857,0,-2.32882,-6.4598,66.5376,Q,Q
2023-03-14 17:30:38:867,0,-2.31298,-6.43868,66.5664,Q,Q
2023-03-14 17:30:38:877,0,-2.29208,-6.40426,66.5977,Q,Q
2023-03-14 17:30:38:887,0,-2.26687,-6.35816,66.6335,Q,Q
2023-03-14 17:30:38:897,0,-2.23443,-6.30934,66.6625,Q,Q
2023-03-14 17:30:38:907,0,-2.2054,-6.26461,66.6927,Q,Q
2023-03-14 17:30:38:917,0,-2.18449,-6.22736,66.7139,Q,Q
2023-03-14 17:30:38:927,0,-2.16891,-6.20266,66.7301,Q,Q
2023-03-14 17:30:38:937,0,-2.155,-6.19274,66.7379,Q,Q
2023-03-14 17:30:38:947,0,-2.14325,-6.1931,66.7442,Q,Q
2023-03-14 17:30:38:957,0,-2.12327,-6.20631,66.7503,Q,Q
2023-03-14 17:30:38:967,0,-2.09505,-6.23218,66.7636,Q,Q
2023-03-14 17:30:38:977,0,-2.05781,-6.26409,66.7893,Q,Q
2023-03-14 17:30:38:987,0,-2.02112,-6.30687,66.8262,Q,Q
2023-03-14 17:30:38:997,0,-1.9883,-6.34937,66.867,Q,Q
2023-03-14 17:30:39:7,0,-1.96091,-6.38647,66.9155,Q,Q
2023-03-14 17:30:39:17,0,-1.94251,-6.41331,66.9688,Q,Q
2023-03-14 17:30:39:27,0,-1.93069,-6.43261,67.0212,Q,Q
2023-03-14 17:30:39:37,0,-1.92135,-6.43917,67.0721,Q,Q
2023-03-14 17:30:39:47,0,-1.90811,-6.4354,67.1126,Q,Q
2023-03-14 17:30:39:57,0,-1.89747,-6.42616,67.144,Q,Q
2023-03-14 17:30:39:67,0,-1.89053,-6.40914,67.1664,Q,Q
2023-03-14 17:30:39:77,0,-1.88853,-6.39624,67.1908,Q,Q
2023-03-14 17:30:39:87,0,-1.89121,-6.38384,67.217,Q,Q
2023-03-14 17:30:39:97,0,-1.89081,-6.36835,67.2367,Q,Q
2023-03-14 17:30:39:107,0,-1.89102,-6.35608,67.2544,Q,Q
2023-03-14 17:30:39:117,0,-1.89569,-6.34779,67.2723,Q,Q
2023-03-14 17:30:39:127,0,-1.90259,-6.34081,67.2879,Q,Q
2023-03-14 17:30:39:137,0,-1.90256,-6.33006,67.2943,Q,Q
2023-03-14 17:30:39:147,0,-1.89114,-6.31855,67.3025,Q,Q
2023-03-14 17:30:39:157,0,-1.87067,-6.30589,67.3055,Q,Q
2023-03-14 17:30:39:167,0,-1.85158,-6.29522,67.3143,Q,Q
2023-03-14 17:30:39:177,0,-1.83804,-6.28394,67.3224,Q,Q
2023-03-14 17:30:39:187,0,-1.82499,-6.27919,67.3251,Q,Q
2023-03-14 17:30:39:197,0,-1.82172,-6.2751,67.3245,Q,Q
2023-03-14 17:30:39:207,0,-1.82406,-6.26714,67.3215,Q,Q
2023-03-14 17:30:39:217,0,-1.82644,-6.25614,67.3202,Q,Q
2023-03-14 17:30:39:227,0,-1.83489,-6.24375,67.3135,Q,Q
2023-03-14 17:30:39:237,0,-1.85229,-6.23428,67.3073,Q,Q
2023-03-14 17:30:39:247,0,-1.87231,-6.2243,67.3051,Q,Q
2023-03-14 17:30:39:257,0,-1.88957,-6.21964,67.2964,Q,Q
2023-03-14 17:30:39:267,0,-1.91195,-6.21755,67.2863,Q,Q
2023-03-14 17:30:39:277,0,-1.93019,-6.21392,67.2781,Q,Q
2023-03-14 17:30:39:287,0,-1.94487,-6.21502,67.27,Q,Q
2023-03-14 17:30:39:297,0,-1.95727,-6.21498,67.2587,Q,Q
2023-03-14 17:30:39:307,0,-1.96445,-6.2193,67.2471,Q,Q
2023-03-14 17:30:39:317,0,-1.96879,-6.22392,67.2367,Q,Q
2023-03-14 17:30:39:327,0,-1.9702,-6.22761,67.2297,Q,Q
2023-03-14 17:30:39:337,0,-1.96985,-6.22787,67.2248,Q,Q
2023-03-14 17:30:39:347,0,-1.96426,-6.22939,67.2183,Q,Q
2023-03-14 17:30:39:357,0,-1.95389,-6.2319,67.2134,Q,Q
2023-03-14 17:30:39:367,0,-1.94154,-6.23222,67.2067,Q,Q
2023-03-14 17:30:39:377,0,-1.92865,-6.23131,67.2042,Q,Q
2023-03-14 17:30:39:387,0,-1.92102,-6.22769,67.2029,Q,Q
2023-03-14 17:30:39:397,0,-1.90708,-6.22364,67.2019,Q,Q
2023-03-14 17:30:39:407,0,-1.89696,-6.22155,67.1977,Q,Q
2023-03-14 17:30:39:417,0,-1.88564,-6.21429,67.1914,Q,Q
2023-03-14 17:30:39:427,0,-1.87287,-6.20495,67.1824,Q,Q
2023-03-14 17:30:39:437,0,-1.85861,-6.19706,67.1712,Q,Q
2023-03-14 17:30:39:447,0,-1.83883,-6.18649,67.1583,Q,Q
2023-03-14 17:30:39:457,0,-1.81746,-6.1725,67.1452,Q,Q
2023-03-14 17:30:39:467,0,-1.79747,-6.16425,67.1275,Q,Q
2023-03-14 17:30:39:477,0,-1.783,-6.15749,67.1066,Q,Q
2023-03-14 17:30:39:487,0,-1.76315,-6.14516,67.0838,Q,Q
2023-03-14 17:30:39:497,0,-1.73586,-6.13293,67.0645,Q,Q
2023-03-14 17:30:39:507,0,-1.70371,-6.1246,67.042,Q,Q
2023-03-14 17:30:39:517,0,-1.66818,-6.11728,67.021,Q,Q
2023-03-14 17:30:39:527,0,-1.6384,-6.11157,66.9983,Q,Q
2023-03-14 17:30:39:537,0,-1.60943,-6.10503,66.9813,Q,Q
2023-03-14 17:30:39:547,0,-1.57833,-6.10062,66.9618,Q,Q
2023-03-14 17:30:39:557,0,-1.5485,-6.09668,66.9481,Q,Q
2023-03-14 17:30:39:567,0,-1.51464,-6.08765,66.933,Q,Q
2023-03-14 17:30:39:577,0,-1.47328,-6.08433,66.9233,Q,Q
2023-03-14 17:30:39:587,0,-1.43123,-6.08336,66.9153,Q,Q
2023-03-14 17:30:39:597,0,-1.39722,-6.08264,66.9107,Q,Q
2023-03-14 17:30:39:607,0,-1.36936,-6.09124,66.9041,Q,Q
2023-03-14 17:30:39:617,0,-1.34911,-6.10164,66.9029,Q,Q
2023-03-14 17:30:39:627,0,-1.33646,-6.11555,66.9041,Q,Q
2023-03-14 17:30:39:637,0,-1.32671,-6.1335,66.9069,Q,Q
2023-03-14 17:30:39:647,0,-1.31825,-6.15109,66.9076,Q,Q
2023-03-14 17:30:39:657,0,-1.30647,-6.16138,66.9082,Q,Q
2023-03-14 17:30:39:667,0,-1.299,-6.17375,66.9098,Q,Q
2023-03-14 17:30:39:677,0,-1.29129,-6.18501,66.9169,Q,Q
2023-03-14 17:30:39:687,0,-1.28439,-6.19393,66.932,Q,Q
2023-03-14 17:30:39:697,0,-1.28083,-6.199,66.9512,Q,Q
2023-03-14 17:30:39:707,0,-1.26564,-6.20326,66.9767,Q,Q
2023-03-14 17:30:39:717,0,-1.24251,-6.2001,67.0048,Q,Q
2023-03-14 17:30:39:727,0,-1.21545,-6.18793,67.0393,Q,Q
2023-03-14 17:30:39:737,0,-1.19083,-6.17397,67.0748,Q,Q
2023-03-14 17:30:39:747,0,-1.16822,-6.16046,67.1115,Q,Q
2023-03-14 17:30:39:757,0,-1.15317,-6.15089,67.1474,Q,Q
2023-03-14 17:30:39:767,0,-1.13935,-6.14971,67.1833,Q,Q
2023-03-14 17:30:39:777,0,-1.11686,-6.14792,67.2087,Q,Q
2023-03-14 17:30:39:787,0,-1.08739,-6.15221,67.2285,Q,Q
2023-03-14 17:30:39:797,0,-1.06074,-6.1627,67.2452,Q,Q
2023-03-14 17:30:39:807,0,-1.03269,-6.17045,67.2547,Q,Q
2023-03-14 17:30:39:817,0,-1.01026,-6.16965,67.2627,Q,Q
2023-03-14 17:30:39:827,0,-0.988168,-6.16716,67.2671,Q,Q
2023-03-14 17:30:39:837,0,-0.963512,-6.16302,67.2674,Q,Q
2023-03-14 17:30:39:847,0,-0.933892,-6.16093,67.2616,Q,Q
2023-03-14 17:30:39:857,0,-0.889472,-6.15884,67.2554,Q,Q
2023-03-14 17:30:39:867,0,-0.839836,-6.15339,67.2441,Q,Q
2023-03-14 17:30:39:877,0,-0.787454,-6.14185,67.2342,Q,Q
2023-03-14 17:30:39:887,0,-0.745186,-6.12126,67.2293,Q,Q
2023-03-14 17:30:39:897,0,-0.71871,-6.09575,67.2221,Q,Q
2023-03-14 17:30:39:907,0,-0.715929,-6.06987,67.2191,Q,Q
2023-03-14 17:30:39:917,0,-0.736086,-6.06001,67.2205,Q,Q
2023-03-14 17:30:39:927,0,-0.76012,-6.06871,67.2167,Q,Q
2023-03-14 17:30:39:937,0,-0.761087,-6.068,67.2069,Q,Q
2023-03-14 17:30:39:947,0,-0.728124,-6.0629,67.1856,Q,Q
2023-03-14 17:30:39:957,0,-0.666842,-6.05379,67.1723,Q,Q
2023-03-14 17:30:39:967,0,-0.613985,-6.02761,67.1714,Q,Q
2023-03-14 17:30:39:977,0,-0.584442,-5.99478,67.1786,Q,Q
2023-03-14 17:30:39:987,0,-0.580551,-5.97136,67.1892,Q,Q
2023-03-14 17:30:39:997,0,-0.58273,-5.97273,67.2001,Q,Q
2023-03-14 17:30:40:7,0,-0.561779,-5.98132,67.2006,Q,Q
2023-03-14 17:30:40:17,0,-0.506891,-5.97144,67.1944,Q,Q
2023-03-14 17:30:40:27,0,-0.466338,-5.94519,67.196,Q,Q
2023-03-14 17:30:40:37,0,-0.520928,-5.9242,67.2139,Q,Q
2023-03-14 17:30:40:47,0,-0.646167,-5.9096,67.2376,Q,Q
2023-03-14 17:30:40:57,0,-0.75253,-5.90541,67.2543,Q,Q
2023-03-14 17:30:40:67,0,-0.784466,-5.90291,67.2512,Q,Q
2023-03-14 17:30:40:77,0,-0.74454,-5.89478,67.2403,Q,Q
2023-03-14 17:30:40:87,0,-0.675582,-5.8815,67.2218,Q,Q
2023-03-14 17:30:40:97,0,-0.586827,-5.8693,67.1933,Q,Q
2023-03-14 17:30:40:107,0,-0.522213,-5.85767,67.1715,Q,Q
2023-03-14 17:30:40:117,0,-0.506802,-5.83725,67.1598,Q,Q
2023-03-14 17:30:40:127,0,-0.516755,-5.81098,67.1409,Q,Q
2023-03-14 17:30:40:137,0,-0.532174,-5.79093,67.112,Q,Q
2023-03-14 17:30:40:147,0,-0.529554,-5.78056,67.0783,Q,Q
2023-03-14 17:30:40:157,0,-0.502132,-5.76891,67.0414,Q,Q
2023-03-14 17:30:40:167,0,-0.462572,-5.76478,67.0111,Q,Q
2023-03-14 17:30:40:177,0,-0.450014,-5.77056,66.9827,Q,Q
2023-03-14 17:30:40:187,0,-0.464544,-5.77691,66.9621,Q,Q
2023-03-14 17:30:40:197,0,-0.473041,-5.78617,66.9406,Q,Q
2023-03-14 17:30:40:207,0,-0.452398,-5.78949,66.9152,Q,Q
2023-03-14 17:30:40:217,0,-0.388269,-5.78223,66.8941,Q,Q
2023-03-14 17:30:40:227,0,-0.30659,-5.76835,66.8798,Q,Q
2023-03-14 17:30:40:237,0,-0.24343,-5.75965,66.8725,Q,Q
2023-03-14 17:30:40:247,0,-0.206306,-5.75977,66.8714,Q,Q
2023-03-14 17:30:40:257,0,-0.197392,-5.76788,66.873,Q,Q
2023-03-14 17:30:40:267,0,-0.184199,-5.7864,66.8782,Q,Q
2023-03-14 17:30:40:277,0,-0.156289,-5.80413,66.8859,Q,Q
2023-03-14 17:30:40:287,0,-0.122218,-5.81642,66.8947,Q,Q
2023-03-14 17:30:40:297,0,-0.0899933,-5.8218,66.908,Q,Q
2023-03-14 17:30:40:307,0,-0.0669517,-5.82303,66.9275,Q,Q
2023-03-14 17:30:40:317,0,-0.0461867,-5.82442,66.9482,Q,Q
2023-03-14 17:30:40:327,0,-0.0306102,-5.82393,66.9743,Q,Q
2023-03-14 17:30:40:337,0,-0.0244981,-5.828,67.002,Q,Q
2023-03-14 17:30:40:347,0,-0.0366573,-5.84439,67.0367,Q,Q
2023-03-14 17:30:40:357,0,-0.0578707,-5.86132,67.075,Q,Q
2023-03-14 17:30:40:367,0,-0.0797553,-5.88524,67.1119,Q,Q
2023-03-14 17:30:40:377,0,-0.0976271,-5.91031,67.1474,Q,Q
2023-03-14 17:30:40:387,0,-0.110351,-5.93421,67.176,Q,Q
2023-03-14 17:30:40:397,0,-0.118329,-5.9538,67.2034,Q,Q
2023-03-14 17:30:40:407,0,-0.138021,-5.97289,67.2327,Q,Q
2023-03-14 17:30:40:417,0,-0.170478,-5.99136,67.2552,Q,Q
2023-03-14 17:30:40:427,0,-0.198135,-6.01489,67.2744,Q,Q
2023-03-14 17:30:40:437,0,-0.228325,-6.03719,67.2881,Q,Q
2023-03-14 17:30:40:447,0,-0.264413,-6.05179,67.301,Q,Q
2023-03-14 17:30:40:457,0,-0.298229,-6.07165,67.3083,Q,Q
2023-03-14 17:30:40:467,0,-0.329182,-6.0825,67.3057,Q,Q
2023-03-14 17:30:40:477,0,-0.358219,-6.08754,67.3043,Q,Q
2023-03-14 17:30:40:487,0,-0.378214,-6.07813,67.2953,Q,Q
2023-03-14 17:30:40:497,0,-0.390694,-6.06108,67.2917,Q,Q
2023-03-14 17:30:40:507,0,-0.409251,-6.04164,67.2934,Q,Q
2023-03-14 17:30:40:517,0,-0.429494,-6.02631,67.2928,Q,Q
2023-03-14 17:30:40:527,0,-0.455656,-6.01457,67.2963,Q,Q
2023-03-14 17:30:40:537,0,-0.493599,-6.01005,67.2954,Q,Q
2023-03-14 17:30:40:547,0,-0.531026,-6.02158,67.2869,Q,Q
2023-03-14 17:30:40:557,0,-0.556334,-6.03568,67.28,Q,Q
2023-03-14 17:30:40:567,0,-0.56529,-6.04389,67.2753,Q,Q
2023-03-14 17:30:40:577,0,-0.557235,-6.0423,67.2766,Q,Q
2023-03-14 17:30:40:587,0,-0.546598,-6.04139,67.2772,Q,Q
2023-03-14 17:30:40:597,0,-0.541271,-6.03871,67.279,Q,Q
2023-03-14 17:30:40:607,0,-0.538382,-6.02761,67.2843,Q,Q
2023-03-14 17:30:40:617,0,-0.539281,-6.0207,67.2877,Q,Q
2023-03-14 17:30:40:627,0,-0.54309,-6.01276,67.2956,Q,Q
2023-03-14 17:30:40:637,0,-0.558029,-6.02058,67.2956,Q,Q
2023-03-14 17:30:40:647,0,-0.577848,-6.04172,67.2747,Q,Q
2023-03-14 17:30:40:657,0,-0.574556,-6.05915,67.229,Q,Q
2023-03-14 17:30:40:667,0,-0.543146,-6.0654,67.1547,Q,Q
2023-03-14 17:30:40:677,0,-0.497246,-6.0754,67.0587,Q,Q
2023-03-14 17:30:40:687,0,-0.460519,-6.09469,66.9566,Q,Q
2023-03-14 17:30:40:697,0,-0.43778,-6.11162,66.8469,Q,Q
2023-03-14 17:30:40:707,0,-0.412386,-6.12528,66.7312,Q,Q
2023-03-14 17:30:40:717,0,-0.374462,-6.14286,66.6172,Q,Q
2023-03-14 17:30:40:727,0,-0.334348,-6.16624,66.5079,Q,Q
2023-03-14 17:30:40:737,0,-0.281907,-6.18783,66.402,Q,Q
2023-03-14 17:30:40:747,0,-0.201724,-6.20145,66.3079,Q,Q
2023-03-14 17:30:40:757,0,-0.101483,-6.19809,66.2315,Q,Q
2023-03-14 17:30:40:767,0,-0.000842066,-6.19482,66.172,Q,Q
2023-03-14 17:30:40:777,0,0.0899032,-6.18988,66.1251,Q,Q
2023-03-14 17:30:40:787,0,0.168756,-6.1751,66.0966,Q,Q
2023-03-14 17:30:40:797,0,0.252339,-6.15719,66.0952,Q,Q
2023-03-14 17:30:40:807,0,0.332588,-6.13917,66.1241,Q,Q
2023-03-14 17:30:40:817,0,0.398179,-6.11673,66.179,Q,Q
2023-03-14 17:30:40:827,0,0.449858,-6.09308,66.2474,Q,Q
2023-03-14 17:30:40:837,0,0.497216,-6.07516,66.327,Q,Q
2023-03-14 17:30:40:847,0,0.551626,-6.05418,66.4131,Q,Q
2023-03-14 17:30:40:857,0,0.61215,-6.02899,66.5018,Q,Q
2023-03-14 17:30:40:867,0,0.664873,-5.9995,66.5931,Q,Q
2023-03-14 17:30:40:877,0,0.714282,-5.96862,66.6816,Q,Q
2023-03-14 17:30:40:887,0,0.74537,-5.9491,66.7759,Q,Q
2023-03-14 17:30:40:897,0,0.745156,-5.93937,66.8736,Q,Q
2023-03-14 17:30:40:907,0,0.726728,-5.93858,66.9657,Q,Q
2023-03-14 17:30:40:917,0,0.700144,-5.93329,67.0608,Q,Q
2023-03-14 17:30:40:927,0,0.676572,-5.93271,67.1541,Q,Q
2023-03-14 17:30:40:937,0,0.638336,-5.92913,67.2503,Q,Q
2023-03-14 17:30:40:947,0,0.589218,-5.92933,67.3415,Q,Q
2023-03-14 17:30:40:957,0,0.524053,-5.9313,67.4303,Q,Q
2023-03-14 17:30:40:967,0,0.441456,-5.94259,67.5178,Q,Q
2023-03-14 17:30:40:977,0,0.349977,-5.95149,67.6055,Q,Q
2023-03-14 17:30:40:987,0,0.25526,-5.95909,67.6977,Q,Q
2023-03-14 17:30:40:997,0,0.171073,-5.96689,67.7865,Q,Q
2023-03-14 17:30:41:7,0,0.104038,-5.96893,67.8808,Q,Q
2023-03-14 17:30:41:17,0,0.0596244,-5.96842,67.9688,Q,Q
2023-03-14 17:30:41:27,0,0.0243189,-5.96987,68.0519,Q,Q
2023-03-14 17:30:41:37,0,0.00123707,-5.97576,68.1315,Q,Q
2023-03-14 17:30:41:47,0,-0.0147175,-5.97904,68.2047,Q,Q
2023-03-14 17:30:41:56,0,-0.0215886,-5.99042,68.2682,Q,Q
2023-03-14 17:30:41:67,0,-0.00906169,-5.99922,68.3201,Q,Q
2023-03-14 17:30:41:77,0,0.0145149,-6.00948,68.3589,Q,Q
2023-03-14 17:30:41:87,0,0.0391022,-6.01373,68.3866,Q,Q
2023-03-14 17:30:41:97,0,0.0728256,-6.00914,68.4008,Q,Q
2023-03-14 17:30:41:107,0,0.111528,-6.00007,68.3983,Q,Q
2023-03-14 17:30:41:117,0,0.156164,-5.98565,68.3749,Q,Q
2023-03-14 17:30:41:127,0,0.200464,-5.96523,68.3405,Q,Q
2023-03-14 17:30:41:137,0,0.245649,-5.94194,68.2916,Q,Q
2023-03-14 17:30:41:147,0,0.282754,-5.9156,68.2351,Q,Q
2023-03-14 17:30:41:157,0,0.316114,-5.88218,68.17,Q,Q
2023-03-14 17:30:41:167,0,0.349227,-5.85102,68.1085,Q,Q
2023-03-14 17:30:41:177,0,0.374554,-5.82023,68.054,Q,Q
2023-03-14 17:30:41:187,0,0.393835,-5.78887,68.0072,Q,Q
2023-03-14 17:30:41:197,0,0.406234,-5.75558,67.9682,Q,Q
2023-03-14 17:30:41:207,0,0.418143,-5.72365,67.9376,Q,Q
2023-03-14 17:30:41:217,0,0.419894,-5.68952,67.9152,Q,Q
2023-03-14 17:30:41:227,0,0.409582,-5.65118,67.8992,Q,Q
2023-03-14 17:30:41:237,0,0.390799,-5.60999,67.8857,Q,Q
2023-03-14 17:30:41:247,0,0.365909,-5.56673,67.873,Q,Q
2023-03-14 17:30:41:257,0,0.339718,-5.51902,67.8565,Q,Q
2023-03-14 17:30:41:267,0,0.311682,-5.46935,67.8411,Q,Q
2023-03-14 17:30:41:277,0,0.28019,-5.42105,67.8238,Q,Q
2023-03-14 17:30:41:287,0,0.251667,-5.37359,67.8028,Q,Q
2023-03-14 17:30:41:297,0,0.228997,-5.32978,67.7814,Q,Q
2023-03-14 17:30:41:307,0,0.207748,-5.2873,67.7537,Q,Q
2023-03-14 17:30:41:317,0,0.192021,-5.24632,67.7257,Q,Q
2023-03-14 17:30:41:327,0,0.183052,-5.20897,67.6966,Q,Q
2023-03-14 17:30:41:337,0,0.176654,-5.17477,67.667,Q,Q
2023-03-14 17:30:41:347,0,0.171127,-5.13295,67.6385,Q,Q
2023-03-14 17:30:41:357,0,0.174647,-5.08994,67.6099,Q,Q
2023-03-14 17:30:41:367,0,0.175695,-5.05709,67.5838,Q,Q
2023-03-14 17:30:41:377,0,0.174418,-5.03268,67.5587,Q,Q
2023-03-14 17:30:41:387,0,0.174188,-5.01521,67.5323,Q,Q
2023-03-14 17:30:41:397,0,0.174774,-5.00037,67.5046,Q,Q
2023-03-14 17:30:41:407,0,0.180036,-4.99645,67.4786,Q,Q
2023-03-14 17:30:41:417,0,0.192166,-4.99076,67.4531,Q,Q
2023-03-14 17:30:41:427,0,0.211242,-4.98748,67.4258,Q,Q
2023-03-14 17:30:41:437,0,0.234096,-4.97895,67.4022,Q,Q
2023-03-14 17:30:41:447,0,0.267301,-4.96615,67.3799,Q,Q
2023-03-14 17:30:41:457,0,0.300544,-4.95742,67.3617,Q,Q
2023-03-14 17:30:41:467,0,0.330096,-4.95323,67.3462,Q,Q
2023-03-14 17:30:41:477,0,0.345806,-4.95399,67.3328,Q,Q
2023-03-14 17:30:41:487,0,0.353477,-4.96258,67.3215,Q,Q
2023-03-14 17:30:41:497,0,0.361456,-4.96593,67.3118,Q,Q
2023-03-14 17:30:41:507,0,0.373459,-4.96822,67.3017,Q,Q
2023-03-14 17:30:41:517,0,0.38235,-4.96867,67.2958,Q,Q
2023-03-14 17:30:41:527,0,0.388963,-4.96827,67.2941,Q,Q
2023-03-14 17:30:41:537,0,0.390206,-4.97,67.2972,Q,Q
2023-03-14 17:30:41:547,0,0.385345,-4.96828,67.3068,Q,Q
2023-03-14 17:30:41:557,0,0.377035,-4.97201,67.321,Q,Q
2023-03-14 17:30:41:567,0,0.367211,-4.97314,67.3368,Q,Q
2023-03-14 17:30:41:577,0,0.351135,-4.97533,67.3609,Q,Q
2023-03-14 17:30:41:587,0,0.329206,-4.97471,67.3851,Q,Q
2023-03-14 17:30:41:597,0,0.310954,-4.98784,67.4031,Q,Q
2023-03-14 17:30:41:607,0,0.283959,-5.00967,67.4245,Q,Q
2023-03-14 17:30:41:617,0,0.258786,-5.03222,67.4497,Q,Q
2023-03-14 17:30:41:627,0,0.238937,-5.05372,67.4798,Q,Q
2023-03-14 17:30:41:637,0,0.232497,-5.07044,67.5126,Q,Q
2023-03-14 17:30:41:647,0,0.233162,-5.08057,67.5465,Q,Q
2023-03-14 17:30:41:657,0,0.239641,-5.08484,67.5813,Q,Q
2023-03-14 17:30:41:667,0,0.243599,-5.09346,67.6132,Q,Q
2023-03-14 17:30:41:677,0,0.242244,-5.10284,67.6392,Q,Q
2023-03-14 17:30:41:687,0,0.232898,-5.11622,67.6573,Q,Q
2023-03-14 17:30:41:697,0,0.21861,-5.12555,67.6693,Q,Q
2023-03-14 17:30:41:707,0,0.202948,-5.13817,67.6715,Q,Q
2023-03-14 17:30:41:717,0,0.18875,-5.14653,67.6695,Q,Q
2023-03-14 17:30:41:727,0,0.176353,-5.15148,67.6627,Q,Q
2023-03-14 17:30:41:737,0,0.165252,-5.15543,67.648,Q,Q
2023-03-14 17:30:41:747,0,0.159421,-5.16045,67.6256,Q,Q
2023-03-14 17:30:41:757,0,0.158392,-5.16713,67.605,Q,Q
2023-03-14 17:30:41:767,0,0.154346,-5.17538,67.5846,Q,Q
2023-03-14 17:30:41:777,0,0.145999,-5.1875,67.5625,Q,Q
