Timestamp_cmd,imu_cmd,roll_delta,pitch_delta,yaw_delta
2023-03-11 21:02:18:302,0,-5.80081,-6.36472,86.7831
2023-03-11 21:02:18:309,0,-5.79694,-6.36361,86.7817
2023-03-11 21:02:18:319,0,-5.79337,-6.36185,86.7783
2023-03-11 21:02:18:329,0,-5.79532,-6.36592,86.7777
2023-03-11 21:02:18:339,0,-5.80357,-6.36854,86.7763
2023-03-11 21:02:18:349,0,-5.81853,-6.37563,86.7841
2023-03-11 21:02:18:359,0,-5.84073,-6.38563,86.7987
2023-03-11 21:02:18:369,0,-5.86968,-6.40646,86.8227
2023-03-11 21:02:18:379,0,-5.89516,-6.43659,86.8493
2023-03-11 21:02:18:389,0,-5.90226,-6.47401,86.8723
2023-03-11 21:02:18:399,0,-5.88504,-6.51439,86.8888
2023-03-11 21:02:18:409,0,-5.84173,-6.55253,86.8934
2023-03-11 21:02:18:419,0,-5.78133,-6.57167,86.8766
2023-03-11 21:02:18:429,0,-5.71628,-6.57402,86.8398
2023-03-11 21:02:18:439,0,-5.65666,-6.56139,86.7947
2023-03-11 21:02:18:449,0,-5.61812,-6.54222,86.7475
2023-03-11 21:02:18:459,0,-5.60825,-6.51876,86.7039
2023-03-11 21:02:18:469,0,-5.63018,-6.49382,86.6694
2023-03-11 21:02:18:479,0,-5.66798,-6.46903,86.6481
2023-03-11 21:02:18:489,0,-5.7105,-6.44147,86.6402
2023-03-11 21:02:18:499,0,-5.75213,-6.40749,86.6355
2023-03-11 21:02:18:509,0,-5.78956,-6.36841,86.6434
2023-03-11 21:02:18:519,0,-5.8197,-6.32354,86.6513
2023-03-11 21:02:18:529,0,-5.84675,-6.28324,86.6654
2023-03-11 21:02:18:539,0,-5.87119,-6.24577,86.6828
2023-03-11 21:02:18:549,0,-5.90186,-6.21902,86.7108
2023-03-11 21:02:18:559,0,-5.94009,-6.20584,86.7434
2023-03-11 21:02:18:569,0,-5.97517,-6.20095,86.7703
2023-03-11 21:02:18:579,0,-6.00961,-6.19626,86.7922
2023-03-11 21:02:18:589,0,-6.04464,-6.19631,86.8084
2023-03-11 21:02:18:599,0,-6.07413,-6.20325,86.8164
2023-03-11 21:02:18:609,0,-6.09117,-6.21222,86.8096
2023-03-11 21:02:18:619,0,-6.10174,-6.23133,86.7984
2023-03-11 21:02:18:629,0,-6.0988,-6.25504,86.7789
2023-03-11 21:02:18:639,0,-6.08263,-6.28339,86.7525
2023-03-11 21:02:18:649,0,-6.05179,-6.31514,86.7196
2023-03-11 21:02:18:659,0,-6.00938,-6.34574,86.685
2023-03-11 21:02:18:669,0,-5.96506,-6.37429,86.6491
2023-03-11 21:02:18:679,0,-5.92367,-6.40051,86.6103
2023-03-11 21:02:18:689,0,-5.88693,-6.42394,86.5694
2023-03-11 21:02:18:699,0,-5.84899,-6.44087,86.5281
2023-03-11 21:02:18:709,0,-5.80544,-6.4555,86.4849
2023-03-11 21:02:18:719,0,-5.75787,-6.46903,86.4459
2023-03-11 21:02:18:729,0,-5.71048,-6.48366,86.4014
2023-03-11 21:02:18:739,0,-5.66242,-6.49451,86.3539
2023-03-11 21:02:18:749,0,-5.61554,-6.50159,86.3141
2023-03-11 21:02:18:759,0,-5.5712,-6.50466,86.2727
2023-03-11 21:02:18:769,0,-5.52933,-6.50355,86.2318
2023-03-11 21:02:18:779,0,-5.49331,-6.49879,86.1974
2023-03-11 21:02:18:789,0,-5.46623,-6.48913,86.1662
2023-03-11 21:02:18:799,0,-5.45172,-6.4785,86.1421
2023-03-11 21:02:18:809,0,-5.44874,-6.46499,86.1262
2023-03-11 21:02:18:819,0,-5.45215,-6.45111,86.1155
2023-03-11 21:02:18:829,0,-5.46319,-6.43687,86.1125
2023-03-11 21:02:18:839,0,-5.47794,-6.42005,86.11
2023-03-11 21:02:18:849,0,-5.49076,-6.39906,86.1114
2023-03-11 21:02:18:859,0,-5.50576,-6.37433,86.1175
2023-03-11 21:02:18:869,0,-5.52385,-6.34973,86.1286
2023-03-11 21:02:18:879,0,-5.54494,-6.3287,86.1458
2023-03-11 21:02:18:889,0,-5.56614,-6.30923,86.1643
2023-03-11 21:02:18:899,0,-5.58736,-6.29163,86.1865
2023-03-11 21:02:18:909,0,-5.60705,-6.27698,86.2048
2023-03-11 21:02:18:919,0,-5.62168,-6.26459,86.2193
2023-03-11 21:02:18:929,0,-5.63156,-6.25384,86.2286
2023-03-11 21:02:18:939,0,-5.63723,-6.24409,86.2288
2023-03-11 21:02:18:949,0,-5.63534,-6.24099,86.2215
2023-03-11 21:02:18:959,0,-5.63035,-6.24015,86.2111
2023-03-11 21:02:18:969,0,-5.62775,-6.24265,86.2004
2023-03-11 21:02:18:979,0,-5.62782,-6.24599,86.1788
2023-03-11 21:02:18:989,0,-5.63144,-6.25094,86.1575
2023-03-11 21:02:18:999,0,-5.63387,-6.25784,86.1361
2023-03-11 21:02:19:9,0,-5.63376,-6.26979,86.1148
2023-03-11 21:02:19:19,0,-5.63838,-6.28154,86.1004
2023-03-11 21:02:19:29,0,-5.64534,-6.29559,86.0882
2023-03-11 21:02:19:39,0,-5.65478,-6.31143,86.0795
2023-03-11 21:02:19:49,0,-5.66587,-6.32533,86.0709
2023-03-11 21:02:19:59,0,-5.67686,-6.33598,86.0636
2023-03-11 21:02:19:69,0,-5.6892,-6.34362,86.0617
2023-03-11 21:02:19:79,0,-5.69878,-6.35141,86.0624
2023-03-11 21:02:19:89,0,-5.70618,-6.35665,86.0726
2023-03-11 21:02:19:99,0,-5.71287,-6.36035,86.0825
2023-03-11 21:02:19:109,0,-5.72044,-6.35924,86.0926
2023-03-11 21:02:19:119,0,-5.7273,-6.3579,86.1071
2023-03-11 21:02:19:129,0,-5.73742,-6.35752,86.123
2023-03-11 21:02:19:139,0,-5.74744,-6.35669,86.1393
2023-03-11 21:02:19:149,0,-5.75607,-6.35534,86.1563
2023-03-11 21:02:19:159,0,-5.76683,-6.35006,86.1661
2023-03-11 21:02:19:169,0,-5.77717,-6.34701,86.173
2023-03-11 21:02:19:179,0,-5.78873,-6.34504,86.1755
2023-03-11 21:02:19:189,0,-5.79818,-6.34301,86.1767
2023-03-11 21:02:19:199,0,-5.8069,-6.33915,86.1786
2023-03-11 21:02:19:209,0,-5.80862,-6.33213,86.1772
2023-03-11 21:02:19:219,0,-5.80631,-6.32416,86.1679
2023-03-11 21:02:19:229,0,-5.80207,-6.31367,86.1541
2023-03-11 21:02:19:239,0,-5.79834,-6.30506,86.141
2023-03-11 21:02:19:249,0,-5.79049,-6.30015,86.1279
2023-03-11 21:02:19:259,0,-5.78239,-6.29471,86.1149
2023-03-11 21:02:19:269,0,-5.77628,-6.28812,86.105
2023-03-11 21:02:19:279,0,-5.77144,-6.28304,86.0929
2023-03-11 21:02:19:289,0,-5.77087,-6.27926,86.0858
2023-03-11 21:02:19:299,0,-5.76954,-6.27549,86.0835
2023-03-11 21:02:19:309,0,-5.77021,-6.27235,86.0827
2023-03-11 21:02:19:319,0,-5.77055,-6.26754,86.081
2023-03-11 21:02:19:329,0,-5.77052,-6.26343,86.0792
2023-03-11 21:02:19:339,0,-5.76239,-6.2581,86.0791
2023-03-11 21:02:19:349,0,-5.75385,-6.25526,86.0787
2023-03-11 21:02:19:359,0,-5.75134,-6.25215,86.0772
2023-03-11 21:02:19:369,0,-5.75134,-6.25105,86.0772
2023-03-11 21:02:19:379,0,-5.75811,-6.249,86.0785
2023-03-11 21:02:19:389,0,-5.76595,-6.24949,86.0824
2023-03-11 21:02:19:399,0,-5.78049,-6.24877,86.0892
2023-03-11 21:02:19:409,0,-5.79308,-6.25148,86.1013
2023-03-11 21:02:19:419,0,-5.80793,-6.25917,86.1178
2023-03-11 21:02:19:429,0,-5.82444,-6.26585,86.1355
2023-03-11 21:02:19:439,0,-5.83975,-6.2735,86.1599
2023-03-11 21:02:19:449,0,-5.85515,-6.28554,86.1845
2023-03-11 21:02:19:459,0,-5.87092,-6.29946,86.2128
2023-03-11 21:02:19:469,0,-5.88647,-6.3171,86.2479
2023-03-11 21:02:19:479,0,-5.89954,-6.33677,86.2839
2023-03-11 21:02:19:489,0,-5.911,-6.36139,86.3215
2023-03-11 21:02:19:499,0,-5.92443,-6.38688,86.3595
2023-03-11 21:02:19:509,0,-5.9346,-6.41072,86.3961
2023-03-11 21:02:19:519,0,-5.94074,-6.43329,86.4296
2023-03-11 21:02:19:529,0,-5.9456,-6.45809,86.4591
2023-03-11 21:02:19:539,0,-5.94397,-6.48137,86.4849
2023-03-11 21:02:19:549,0,-5.94516,-6.50078,86.5104
2023-03-11 21:02:19:559,0,-5.94956,-6.51691,86.5305
2023-03-11 21:02:19:569,0,-5.95934,-6.53292,86.5471
2023-03-11 21:02:19:579,0,-5.97298,-6.5494,86.5627
2023-03-11 21:02:19:589,0,-5.99135,-6.56776,86.5794
2023-03-11 21:02:19:599,0,-6.01752,-6.58941,86.5947
2023-03-11 21:02:19:609,0,-6.04571,-6.61815,86.6074
2023-03-11 21:02:19:619,0,-6.06703,-6.64491,86.6203
2023-03-11 21:02:19:629,0,-6.07823,-6.67002,86.6295
2023-03-11 21:02:19:639,0,-6.08183,-6.69686,86.6313
2023-03-11 21:02:19:649,0,-6.07752,-6.72149,86.6295
2023-03-11 21:02:19:659,0,-6.06824,-6.7501,86.6261
2023-03-11 21:02:19:669,0,-6.05611,-6.77957,86.616
2023-03-11 21:02:19:679,0,-6.04104,-6.80743,86.6081
2023-03-11 21:02:19:689,0,-6.02248,-6.84466,86.5962
2023-03-11 21:02:19:699,0,-6.00412,-6.87174,86.5818
2023-03-11 21:02:19:709,0,-5.98092,-6.88653,86.5562
2023-03-11 21:02:19:719,0,-5.95781,-6.89404,86.5313
2023-03-11 21:02:19:729,0,-5.93994,-6.903,86.5141
2023-03-11 21:02:19:739,0,-5.92869,-6.91652,86.5072
2023-03-11 21:02:19:749,0,-5.92416,-6.93658,86.5134
2023-03-11 21:02:19:759,0,-5.93213,-6.95978,86.5277
2023-03-11 21:02:19:769,0,-5.94364,-6.97559,86.5454
2023-03-11 21:02:19:779,0,-5.95436,-6.99308,86.5674
2023-03-11 21:02:19:789,0,-5.95781,-7.00171,86.5889
2023-03-11 21:02:19:799,0,-5.95701,-7.00928,86.6094
2023-03-11 21:02:19:809,0,-5.95056,-7.01835,86.6285
2023-03-11 21:02:19:819,0,-5.93982,-7.02701,86.6478
2023-03-11 21:02:19:829,0,-5.92172,-7.03518,86.6566
2023-03-11 21:02:19:839,0,-5.90491,-7.04199,86.6529
2023-03-11 21:02:19:849,0,-5.88813,-7.04544,86.6447
2023-03-11 21:02:19:859,0,-5.87827,-7.05516,86.6282
2023-03-11 21:02:19:869,0,-5.86888,-7.06507,86.6093
2023-03-11 21:02:19:879,0,-5.86598,-7.07653,86.5863
2023-03-11 21:02:19:889,0,-5.8661,-7.09384,86.5625
2023-03-11 21:02:19:899,0,-5.85938,-7.10713,86.5368
2023-03-11 21:02:19:909,0,-5.84099,-7.12161,86.5128
2023-03-11 21:02:19:919,0,-5.80566,-7.12838,86.4918
2023-03-11 21:02:19:929,0,-5.754,-7.12677,86.4699
2023-03-11 21:02:19:939,0,-5.69634,-7.12146,86.4487
2023-03-11 21:02:19:949,0,-5.63478,-7.11274,86.4328
2023-03-11 21:02:19:959,0,-5.58134,-7.1045,86.4161
2023-03-11 21:02:19:969,0,-5.53836,-7.09576,86.4048
2023-03-11 21:02:19:979,0,-5.496,-7.08707,86.3903
2023-03-11 21:02:19:989,0,-5.45827,-7.07253,86.3762
2023-03-11 21:02:19:999,0,-5.42305,-7.05591,86.3544
2023-03-11 21:02:20:9,0,-5.38867,-7.03734,86.3258
2023-03-11 21:02:20:19,0,-5.35356,-7.02317,86.2906
2023-03-11 21:02:20:29,0,-5.32104,-7.00636,86.2514
2023-03-11 21:02:20:39,0,-5.29026,-6.99195,86.2055
2023-03-11 21:02:20:49,0,-5.25809,-6.97385,86.1595
2023-03-11 21:02:20:59,0,-5.23508,-6.95788,86.1118
2023-03-11 21:02:20:69,0,-5.21983,-6.94342,86.0656
2023-03-11 21:02:20:79,0,-5.20976,-6.92732,86.0195
2023-03-11 21:02:20:89,0,-5.20999,-6.90929,85.9787
2023-03-11 21:02:20:99,0,-5.21187,-6.88988,85.9397
2023-03-11 21:02:20:109,0,-5.2129,-6.87589,85.9064
2023-03-11 21:02:20:119,0,-5.21747,-6.85816,85.8789
2023-03-11 21:02:20:129,0,-5.221,-6.83835,85.8567
2023-03-11 21:02:20:139,0,-5.2221,-6.82034,85.8424
2023-03-11 21:02:20:149,0,-5.2277,-6.80471,85.8386
2023-03-11 21:02:20:159,0,-5.23855,-6.78826,85.8431
2023-03-11 21:02:20:169,0,-5.24513,-6.77402,85.8588
2023-03-11 21:02:20:179,0,-5.24825,-6.76519,85.8878
2023-03-11 21:02:20:189,0,-5.24557,-6.75929,85.9216
2023-03-11 21:02:20:199,0,-5.23264,-6.75918,85.9625
2023-03-11 21:02:20:209,0,-5.21917,-6.765,86.0014
2023-03-11 21:02:20:219,0,-5.19748,-6.77986,86.0395
2023-03-11 21:02:20:229,0,-5.1691,-6.79821,86.0727
2023-03-11 21:02:20:239,0,-5.13661,-6.81527,86.1011
2023-03-11 21:02:20:249,0,-5.10207,-6.82516,86.1187
2023-03-11 21:02:20:259,0,-5.0654,-6.83234,86.1294
2023-03-11 21:02:20:269,0,-5.02998,-6.83605,86.1357
2023-03-11 21:02:20:279,0,-5.00239,-6.83665,86.1375
2023-03-11 21:02:20:289,0,-4.98119,-6.83528,86.1371
2023-03-11 21:02:20:299,0,-4.96645,-6.83552,86.1396
2023-03-11 21:02:20:309,0,-4.95989,-6.83288,86.1415
2023-03-11 21:02:20:319,0,-4.95015,-6.82984,86.148
2023-03-11 21:02:20:329,0,-4.94288,-6.82526,86.1506
2023-03-11 21:02:20:339,0,-4.92404,-6.81821,86.1513
2023-03-11 21:02:20:349,0,-4.90146,-6.80195,86.1463
2023-03-11 21:02:20:359,0,-4.87832,-6.78767,86.1387
2023-03-11 21:02:20:369,0,-4.85576,-6.77254,86.1292
2023-03-11 21:02:20:379,0,-4.83728,-6.76173,86.1137
2023-03-11 21:02:20:389,0,-4.82228,-6.74718,86.0977
2023-03-11 21:02:20:399,0,-4.80961,-6.73812,86.0882
2023-03-11 21:02:20:409,0,-4.79685,-6.72759,86.0756
2023-03-11 21:02:20:419,0,-4.77658,-6.71158,86.0603
2023-03-11 21:02:20:429,0,-4.74064,-6.69685,86.0479
2023-03-11 21:02:20:439,0,-4.69678,-6.67887,86.0338
2023-03-11 21:02:20:449,0,-4.64927,-6.66309,86.0267
2023-03-11 21:02:20:459,0,-4.60541,-6.64601,86.0264
2023-03-11 21:02:20:469,0,-4.56675,-6.63287,86.0276
2023-03-11 21:02:20:479,0,-4.52971,-6.61948,86.0312
2023-03-11 21:02:20:489,0,-4.49349,-6.60111,86.0379
2023-03-11 21:02:20:499,0,-4.45926,-6.58636,86.0418
2023-03-11 21:02:20:509,0,-4.43283,-6.56847,86.0445
2023-03-11 21:02:20:519,0,-4.40668,-6.55025,86.0493
2023-03-11 21:02:20:529,0,-4.38672,-6.52881,86.0563
2023-03-11 21:02:20:539,0,-4.37124,-6.50982,86.0608
2023-03-11 21:02:20:549,0,-4.36264,-6.48991,86.0691
2023-03-11 21:02:20:559,0,-4.36479,-6.47286,86.0828
2023-03-11 21:02:20:569,0,-4.37256,-6.45709,86.1008
2023-03-11 21:02:20:579,0,-4.38616,-6.44669,86.1218
2023-03-11 21:02:20:589,0,-4.39878,-6.43313,86.1388
2023-03-11 21:02:20:599,0,-4.41125,-6.42379,86.159
2023-03-11 21:02:20:609,0,-4.42561,-6.41809,86.1798
2023-03-11 21:02:20:619,0,-4.43876,-6.40909,86.2007
2023-03-11 21:02:20:629,0,-4.4541,-6.40258,86.2206
2023-03-11 21:02:20:639,0,-4.4714,-6.39169,86.2381
2023-03-11 21:02:20:649,0,-4.48862,-6.38041,86.2495
2023-03-11 21:02:20:659,0,-4.50352,-6.36727,86.2575
2023-03-11 21:02:20:669,0,-4.52114,-6.35953,86.264
2023-03-11 21:02:20:679,0,-4.53622,-6.35053,86.2681
2023-03-11 21:02:20:689,0,-4.55017,-6.34301,86.2719
2023-03-11 21:02:20:699,0,-4.56738,-6.33874,86.2763
2023-03-11 21:02:20:709,0,-4.58484,-6.33856,86.285
2023-03-11 21:02:20:719,0,-4.60081,-6.33681,86.2925
2023-03-11 21:02:20:729,0,-4.61946,-6.33193,86.3003
2023-03-11 21:02:20:739,0,-4.63374,-6.32275,86.3062
2023-03-11 21:02:20:749,0,-4.6481,-6.314,86.3151
2023-03-11 21:02:20:759,0,-4.65662,-6.30431,86.3185
2023-03-11 21:02:20:769,0,-4.66933,-6.30281,86.3244
2023-03-11 21:02:20:779,0,-4.68692,-6.30256,86.3297
2023-03-11 21:02:20:789,0,-4.70461,-6.30539,86.3377
2023-03-11 21:02:20:799,0,-4.71867,-6.31035,86.346
2023-03-11 21:02:20:809,0,-4.73148,-6.32244,86.3589
2023-03-11 21:02:20:819,0,-4.74278,-6.33687,86.3712
2023-03-11 21:02:20:829,0,-4.75295,-6.35266,86.3834
2023-03-11 21:02:20:839,0,-4.76002,-6.36992,86.3939
2023-03-11 21:02:20:850,0,-4.76532,-6.38798,86.408
2023-03-11 21:02:20:859,0,-4.76747,-6.40716,86.421
2023-03-11 21:02:20:869,0,-4.76923,-6.42748,86.435
2023-03-11 21:02:20:879,0,-4.77188,-6.44596,86.4478
2023-03-11 21:02:20:889,0,-4.77266,-6.46126,86.4619
2023-03-11 21:02:20:899,0,-4.77595,-6.47186,86.4758
2023-03-11 21:02:20:909,0,-4.78465,-6.47978,86.4921
2023-03-11 21:02:20:919,0,-4.79667,-6.48618,86.5082
2023-03-11 21:02:20:929,0,-4.80663,-6.48911,86.5215
2023-03-11 21:02:20:939,0,-4.81143,-6.48969,86.5318
2023-03-11 21:02:20:949,0,-4.81632,-6.49313,86.5409
2023-03-11 21:02:20:959,0,-4.817,-6.49769,86.5529
2023-03-11 21:02:20:969,0,-4.82096,-6.50046,86.5621
2023-03-11 21:02:20:979,0,-4.83072,-6.50269,86.5727
2023-03-11 21:02:20:989,0,-4.83674,-6.49942,86.5845
2023-03-11 21:02:20:999,0,-4.84837,-6.50126,86.5951
2023-03-11 21:02:21:9,0,-4.8607,-6.50236,86.6036
2023-03-11 21:02:21:19,0,-4.86786,-6.50354,86.6093
2023-03-11 21:02:21:29,0,-4.87722,-6.50499,86.6195
2023-03-11 21:02:21:39,0,-4.8878,-6.50746,86.6246
2023-03-11 21:02:21:49,0,-4.89868,-6.51135,86.6296
2023-03-11 21:02:21:59,0,-4.90733,-6.51799,86.6364
2023-03-11 21:02:21:69,0,-4.91349,-6.52223,86.6415
2023-03-11 21:02:21:79,0,-4.91899,-6.52395,86.6477
2023-03-11 21:02:21:89,0,-4.92541,-6.52619,86.6572
2023-03-11 21:02:21:99,0,-4.93149,-6.52257,86.6655
2023-03-11 21:02:21:109,0,-4.93439,-6.51877,86.6745
2023-03-11 21:02:21:119,0,-4.94212,-6.50945,86.6781
2023-03-11 21:02:21:129,0,-4.94747,-6.50202,86.6789
2023-03-11 21:02:21:140,0,-4.95795,-6.49416,86.6804
2023-03-11 21:02:21:149,0,-4.96571,-6.48618,86.6793
2023-03-11 21:02:21:159,0,-4.97288,-6.48232,86.6763
2023-03-11 21:02:21:169,0,-4.97906,-6.48642,86.6746
2023-03-11 21:02:21:179,0,-4.99003,-6.49935,86.679
2023-03-11 21:02:21:189,0,-5.00544,-6.51331,86.6874
2023-03-11 21:02:21:199,0,-5.01582,-6.52716,86.697
2023-03-11 21:02:21:209,0,-5.02628,-6.53642,86.7092
2023-03-11 21:02:21:219,0,-5.04211,-6.5436,86.7216
2023-03-11 21:02:21:229,0,-5.05428,-6.54813,86.7406
2023-03-11 21:02:21:240,0,-5.06934,-6.55573,86.7616
2023-03-11 21:02:21:249,0,-5.07957,-6.55908,86.7775
2023-03-11 21:02:21:259,0,-5.08989,-6.56519,86.7973
2023-03-11 21:02:21:269,0,-5.09694,-6.56634,86.8111
2023-03-11 21:02:21:279,0,-5.10261,-6.56736,86.8235
2023-03-11 21:02:21:289,0,-5.10813,-6.56555,86.826
2023-03-11 21:02:21:299,0,-5.11798,-6.56603,86.8329
2023-03-11 21:02:21:309,0,-5.12376,-6.56574,86.8346
2023-03-11 21:02:21:319,0,-5.12982,-6.56536,86.8339
2023-03-11 21:02:21:329,0,-5.1334,-6.55758,86.8257
2023-03-11 21:02:21:339,0,-5.13854,-6.55079,86.8125
2023-03-11 21:02:21:349,0,-5.1449,-6.54456,86.7987
2023-03-11 21:02:21:359,0,-5.15046,-6.54093,86.7843
2023-03-11 21:02:21:369,0,-5.15825,-6.53549,86.7683
2023-03-11 21:02:21:379,0,-5.16723,-6.52604,86.7547
2023-03-11 21:02:21:389,0,-5.17802,-6.5144,86.7396
2023-03-11 21:02:21:399,0,-5.18547,-6.5042,86.724
2023-03-11 21:02:21:409,0,-5.19304,-6.49862,86.7124
2023-03-11 21:02:21:419,0,-5.19808,-6.49565,86.706
2023-03-11 21:02:21:429,0,-5.20292,-6.48757,86.6975
2023-03-11 21:02:21:439,0,-5.20691,-6.48538,86.6934
2023-03-11 21:02:21:449,0,-5.21256,-6.47658,86.6871
2023-03-11 21:02:21:459,0,-5.21506,-6.475,86.6793
2023-03-11 21:02:21:470,0,-5.21565,-6.47321,86.6739
2023-03-11 21:02:21:480,0,-5.21514,-6.47293,86.6705
2023-03-11 21:02:21:490,0,-5.21599,-6.47088,86.6653
2023-03-11 21:02:21:500,0,-5.21382,-6.46745,86.6579
2023-03-11 21:02:21:510,0,-5.21446,-6.46674,86.6519
2023-03-11 21:02:21:520,0,-5.22075,-6.46435,86.6473
2023-03-11 21:02:21:530,0,-5.22475,-6.46631,86.6439
2023-03-11 21:02:21:540,0,-5.22867,-6.46793,86.6415
2023-03-11 21:02:21:549,0,-5.23658,-6.47481,86.6402
2023-03-11 21:02:21:559,0,-5.24383,-6.47981,86.6396
2023-03-11 21:02:21:569,0,-5.24699,-6.48546,86.6397
2023-03-11 21:02:21:579,0,-5.25524,-6.49019,86.6421
2023-03-11 21:02:21:589,0,-5.2673,-6.49702,86.6492
2023-03-11 21:02:21:600,0,-5.28116,-6.49749,86.6595
2023-03-11 21:02:21:610,0,-5.29283,-6.50679,86.6658
2023-03-11 21:02:21:619,0,-5.30916,-6.51745,86.6773
2023-03-11 21:02:21:629,0,-5.3213,-6.52565,86.6895
2023-03-11 21:02:21:639,0,-5.33519,-6.53331,86.7018
2023-03-11 21:02:21:650,0,-5.34841,-6.53832,86.714
2023-03-11 21:02:21:659,0,-5.36032,-6.54357,86.7219
2023-03-11 21:02:21:669,0,-5.37256,-6.54934,86.7321
2023-03-11 21:02:21:679,0,-5.38316,-6.55379,86.7388
2023-03-11 21:02:21:689,0,-5.39291,-6.55857,86.7464
2023-03-11 21:02:21:699,0,-5.39894,-6.55801,86.7519
2023-03-11 21:02:21:709,0,-5.4042,-6.56024,86.7513
2023-03-11 21:02:21:720,0,-5.4081,-6.56035,86.7535
2023-03-11 21:02:21:729,0,-5.41253,-6.56173,86.7523
2023-03-11 21:02:21:740,0,-5.41903,-6.5651,86.752
2023-03-11 21:02:21:750,0,-5.42748,-6.56396,86.7504
2023-03-11 21:02:21:759,0,-5.43983,-6.56461,86.7514
2023-03-11 21:02:21:769,0,-5.45293,-6.56931,86.7472
2023-03-11 21:02:21:779,0,-5.46681,-6.56502,86.7463
2023-03-11 21:02:21:789,0,-5.47783,-6.56142,86.7457
2023-03-11 21:02:21:799,0,-5.48922,-6.55492,86.7425
2023-03-11 21:02:21:809,0,-5.49832,-6.54657,86.7396
2023-03-11 21:02:21:819,0,-5.50691,-6.53944,86.7354
2023-03-11 21:02:21:829,0,-5.51982,-6.5365,86.7288
2023-03-11 21:02:21:839,0,-5.53607,-6.53643,86.723
2023-03-11 21:02:21:849,0,-5.54863,-6.53479,86.7196
2023-03-11 21:02:21:859,0,-5.56126,-6.53184,86.7156
2023-03-11 21:02:21:869,0,-5.57773,-6.52611,86.7134
2023-03-11 21:02:21:879,0,-5.59122,-6.5192,86.7081
2023-03-11 21:02:21:889,0,-5.60454,-6.51229,86.7031
2023-03-11 21:02:21:899,0,-5.61573,-6.50868,86.7034
2023-03-11 21:02:21:909,0,-5.62177,-6.5095,86.7029
2023-03-11 21:02:21:919,0,-5.62388,-6.51302,86.7096
2023-03-11 21:02:21:929,0,-5.6295,-6.52119,86.7271
2023-03-11 21:02:21:939,0,-5.63759,-6.53515,86.7453
2023-03-11 21:02:21:950,0,-5.64911,-6.54837,86.7679
2023-03-11 21:02:21:959,0,-5.66279,-6.55094,86.7921
2023-03-11 21:02:21:970,0,-5.67248,-6.54311,86.8199
2023-03-11 21:02:21:980,0,-5.68143,-6.54369,86.8403
2023-03-11 21:02:21:989,0,-5.69674,-6.55395,86.8622
2023-03-11 21:02:21:999,0,-5.71096,-6.56259,86.8847
2023-03-11 21:02:22:9,0,-5.72795,-6.5698,86.9025
2023-03-11 21:02:22:19,0,-5.74406,-6.57309,86.916
2023-03-11 21:02:22:29,0,-5.75966,-6.57554,86.9273
2023-03-11 21:02:22:39,0,-5.77005,-6.57299,86.9315
2023-03-11 21:02:22:49,0,-5.77449,-6.57149,86.9324
2023-03-11 21:02:22:59,0,-5.77458,-6.56783,86.9307
2023-03-11 21:02:22:69,0,-5.77,-6.56278,86.932
2023-03-11 21:02:22:79,0,-5.76295,-6.54816,86.933
2023-03-11 21:02:22:89,0,-5.75123,-6.53719,86.9354
2023-03-11 21:02:22:99,0,-5.73618,-6.5246,86.9393
2023-03-11 21:02:22:109,0,-5.72839,-6.51352,86.9416
2023-03-11 21:02:22:119,0,-5.72346,-6.50012,86.9392
2023-03-11 21:02:22:129,0,-5.71943,-6.48715,86.9313
2023-03-11 21:02:22:139,0,-5.71557,-6.47975,86.9232
2023-03-11 21:02:22:149,0,-5.71079,-6.47541,86.9162
2023-03-11 21:02:22:159,0,-5.70715,-6.4731,86.9109
2023-03-11 21:02:22:169,0,-5.70155,-6.47236,86.9041
2023-03-11 21:02:22:179,0,-5.69347,-6.46909,86.8963
2023-03-11 21:02:22:189,0,-5.6795,-6.46625,86.8922
2023-03-11 21:02:22:199,0,-5.65925,-6.46318,86.8893
2023-03-11 21:02:22:209,0,-5.63928,-6.4576,86.889
2023-03-11 21:02:22:219,0,-5.61944,-6.45329,86.8901
2023-03-11 21:02:22:229,0,-5.6061,-6.44454,86.8958
2023-03-11 21:02:22:239,0,-5.60151,-6.44225,86.904
2023-03-11 21:02:22:249,0,-5.60207,-6.43681,86.9165
2023-03-11 21:02:22:259,0,-5.60865,-6.43808,86.9271
2023-03-11 21:02:22:269,0,-5.6189,-6.44858,86.9358
2023-03-11 21:02:22:279,0,-5.62452,-6.46307,86.9425
2023-03-11 21:02:22:289,0,-5.62563,-6.47624,86.9458
2023-03-11 21:02:22:299,0,-5.62761,-6.49223,86.9508
2023-03-11 21:02:22:309,0,-5.62669,-6.50427,86.955
2023-03-11 21:02:22:319,0,-5.63386,-6.51616,86.9554
2023-03-11 21:02:22:329,0,-5.63933,-6.53167,86.9526
2023-03-11 21:02:22:339,0,-5.64213,-6.55226,86.936
2023-03-11 21:02:22:349,0,-5.64227,-6.56924,86.9039
2023-03-11 21:02:22:359,0,-5.62701,-6.58429,86.8481
2023-03-11 21:02:22:369,0,-5.61591,-6.60814,86.7682
2023-03-11 21:02:22:380,0,-5.61746,-6.65241,86.6659
2023-03-11 21:02:22:389,0,-5.63849,-6.71169,86.5557
2023-03-11 21:02:22:399,0,-5.67531,-6.77769,86.4424
2023-03-11 21:02:22:410,0,-5.70541,-6.83361,86.3405
2023-03-11 21:02:22:420,0,-5.71843,-6.90137,86.2395
2023-03-11 21:02:22:429,0,-5.71857,-6.96983,86.142
2023-03-11 21:02:22:439,0,-5.71198,-7.0411,86.0594
2023-03-11 21:02:22:449,0,-5.69217,-7.10763,85.9909
2023-03-11 21:02:22:460,0,-5.67142,-7.16511,85.9354
2023-03-11 21:02:22:470,0,-5.62961,-7.18863,85.8982
2023-03-11 21:02:22:479,0,-5.56656,-7.20476,85.8603
2023-03-11 21:02:22:489,0,-5.50677,-7.20441,85.8323
2023-03-11 21:02:22:499,0,-5.45623,-7.19427,85.8254
2023-03-11 21:02:22:509,0,-5.4245,-7.18371,85.8391
2023-03-11 21:02:22:519,0,-5.40474,-7.16033,85.8737
2023-03-11 21:02:22:530,0,-5.38274,-7.13216,85.9235
2023-03-11 21:02:22:539,0,-5.36008,-7.10815,85.9785
2023-03-11 21:02:22:549,0,-5.33695,-7.08797,86.0383
2023-03-11 21:02:22:559,0,-5.31183,-7.06837,86.105
2023-03-11 21:02:22:569,0,-5.27634,-7.05117,86.1736
2023-03-11 21:02:22:579,0,-5.23431,-7.0241,86.2372
2023-03-11 21:02:22:589,0,-5.18706,-6.98714,86.2905
2023-03-11 21:02:22:599,0,-5.14593,-6.94833,86.341
2023-03-11 21:02:22:609,0,-5.11854,-6.90507,86.3926
2023-03-11 21:02:22:619,0,-5.1193,-6.86556,86.4463
2023-03-11 21:02:22:629,0,-5.14059,-6.82787,86.5002
2023-03-11 21:02:22:639,0,-5.16869,-6.7947,86.5583
2023-03-11 21:02:22:649,0,-5.20096,-6.76731,86.6145
2023-03-11 21:02:22:659,0,-5.2354,-6.74599,86.6651
2023-03-11 21:02:22:669,0,-5.28077,-6.73717,86.7197
2023-03-11 21:02:22:680,0,-5.33829,-6.73682,86.7727
2023-03-11 21:02:22:689,0,-5.40883,-6.74222,86.8289
2023-03-11 21:02:22:699,0,-5.48935,-6.75434,86.881
2023-03-11 21:02:22:709,0,-5.56896,-6.76336,86.9298
2023-03-11 21:02:22:719,0,-5.63092,-6.73093,86.9863
2023-03-11 21:02:22:729,0,-5.6568,-6.68824,87.0353
2023-03-11 21:02:22:739,0,-5.66385,-6.67308,87.0744
2023-03-11 21:02:22:749,0,-5.67343,-6.6748,87.1074
2023-03-11 21:02:22:759,0,-5.68359,-6.69069,87.1308
2023-03-11 21:02:22:769,0,-5.69212,-6.69863,87.1436
2023-03-11 21:02:22:779,0,-5.68523,-6.69317,87.1484
2023-03-11 21:02:22:789,0,-5.67242,-6.68815,87.1543
2023-03-11 21:02:22:799,0,-5.65205,-6.67987,87.1568
2023-03-11 21:02:22:809,0,-5.62503,-6.6708,87.1548
2023-03-11 21:02:22:819,0,-5.58287,-6.66013,87.1483
2023-03-11 21:02:22:829,0,-5.52865,-6.6553,87.1322
2023-03-11 21:02:22:840,0,-5.46004,-6.64984,87.1126
2023-03-11 21:02:22:849,0,-5.38302,-6.64944,87.0988
2023-03-11 21:02:22:859,0,-5.30831,-6.64667,87.0909
2023-03-11 21:02:22:869,0,-5.24406,-6.63924,87.0881
2023-03-11 21:02:22:879,0,-5.19825,-6.6294,87.0873
2023-03-11 21:02:22:889,0,-5.17222,-6.62212,87.0887
2023-03-11 21:02:22:899,0,-5.16594,-6.62874,87.0973
2023-03-11 21:02:22:909,0,-5.17185,-6.64046,87.1077
2023-03-11 21:02:22:919,0,-5.18274,-6.65763,87.1197
2023-03-11 21:02:22:929,0,-5.19003,-6.67658,87.1353
2023-03-11 21:02:22:939,0,-5.19628,-6.68707,87.1464
2023-03-11 21:02:22:949,0,-5.19645,-6.68707,87.1546
2023-03-11 21:02:22:960,0,-5.19632,-6.67388,87.154
2023-03-11 21:02:22:969,0,-5.20502,-6.65538,87.1586
2023-03-11 21:02:22:980,0,-5.21822,-6.63984,87.166
2023-03-11 21:02:22:990,0,-5.24521,-6.63091,87.1788
2023-03-11 21:02:23:0,0,-5.2868,-6.64178,87.1933
2023-03-11 21:02:23:9,0,-5.34154,-6.66189,87.2077
2023-03-11 21:02:23:19,0,-5.39387,-6.67,87.2282
2023-03-11 21:02:23:29,0,-5.43099,-6.6825,87.2455
2023-03-11 21:02:23:39,0,-5.45193,-6.7039,87.262
2023-03-11 21:02:23:50,0,-5.46016,-6.7397,87.279
2023-03-11 21:02:23:60,0,-5.46786,-6.78609,87.2967
2023-03-11 21:02:23:69,0,-5.47505,-6.83498,87.3275
2023-03-11 21:02:23:79,0,-5.47676,-6.88908,87.3641
2023-03-11 21:02:23:89,0,-5.46974,-6.94784,87.4085
2023-03-11 21:02:23:99,0,-5.46213,-7.0055,87.4542
2023-03-11 21:02:23:109,0,-5.45707,-7.06035,87.5017
2023-03-11 21:02:23:119,0,-5.4501,-7.11345,87.5527
2023-03-11 21:02:23:129,0,-5.44213,-7.15912,87.605
2023-03-11 21:02:23:139,0,-5.43251,-7.20113,87.6595
2023-03-11 21:02:23:149,0,-5.4183,-7.23692,87.7119
2023-03-11 21:02:23:159,0,-5.39908,-7.25688,87.755
2023-03-11 21:02:23:169,0,-5.3842,-7.27453,87.7913
2023-03-11 21:02:23:180,0,-5.37377,-7.28655,87.8222
2023-03-11 21:02:23:189,0,-5.36776,-7.29696,87.8475
2023-03-11 21:02:23:200,0,-5.3653,-7.29906,87.8672
2023-03-11 21:02:23:209,0,-5.36389,-7.29785,87.8816
2023-03-11 21:02:23:219,0,-5.36584,-7.29559,87.8884
2023-03-11 21:02:23:229,0,-5.36298,-7.28774,87.8912
2023-03-11 21:02:23:239,0,-5.35201,-7.27884,87.8879
2023-03-11 21:02:23:249,0,-5.33716,-7.26234,87.8826
2023-03-11 21:02:23:259,0,-5.3183,-7.24772,87.8765
2023-03-11 21:02:23:269,0,-5.29631,-7.23715,87.8738
2023-03-11 21:02:23:280,0,-5.28068,-7.23319,87.88
2023-03-11 21:02:23:289,0,-5.27052,-7.23658,87.8929
2023-03-11 21:02:23:300,0,-5.26394,-7.24558,87.9104
2023-03-11 21:02:23:309,0,-5.25762,-7.25953,87.9278
2023-03-11 21:02:23:320,0,-5.25263,-7.27742,87.9428
2023-03-11 21:02:23:329,0,-5.2524,-7.2957,87.9554
2023-03-11 21:02:23:340,0,-5.2478,-7.31019,87.9619
2023-03-11 21:02:23:349,0,-5.24776,-7.32526,87.9683
2023-03-11 21:02:23:360,0,-5.23948,-7.33829,87.9656
2023-03-11 21:02:23:369,0,-5.23362,-7.35015,87.9567
2023-03-11 21:02:23:379,0,-5.23503,-7.36675,87.9413
2023-03-11 21:02:23:389,0,-5.23987,-7.38993,87.9253
2023-03-11 21:02:23:399,0,-5.24525,-7.41022,87.906
2023-03-11 21:02:23:409,0,-5.25018,-7.43349,87.8877
2023-03-11 21:02:23:419,0,-5.25423,-7.46111,87.8648
2023-03-11 21:02:23:429,0,-5.2628,-7.4883,87.8406
2023-03-11 21:02:23:439,0,-5.26863,-7.51907,87.8188
2023-03-11 21:02:23:449,0,-5.27127,-7.54795,87.796
2023-03-11 21:02:23:459,0,-5.27216,-7.57892,87.7707
2023-03-11 21:02:23:469,0,-5.27125,-7.60564,87.7482
2023-03-11 21:02:23:479,0,-5.267,-7.62983,87.7196
2023-03-11 21:02:23:489,0,-5.25746,-7.65163,87.6899
2023-03-11 21:02:23:500,0,-5.24767,-7.67147,87.6582
2023-03-11 21:02:23:509,0,-5.23829,-7.69005,87.6284
2023-03-11 21:02:23:519,0,-5.23229,-7.7072,87.598
2023-03-11 21:02:23:529,0,-5.23958,-7.72337,87.5745
2023-03-11 21:02:23:539,0,-5.243,-7.73938,87.5526
2023-03-11 21:02:23:549,0,-5.24815,-7.74757,87.5339
2023-03-11 21:02:23:559,0,-5.2533,-7.74777,87.5154
2023-03-11 21:02:23:569,0,-5.25305,-7.74848,87.4951
2023-03-11 21:02:23:579,0,-5.2472,-7.74643,87.4809
2023-03-11 21:02:23:589,0,-5.2431,-7.74391,87.4668
2023-03-11 21:02:23:599,0,-5.24098,-7.73737,87.4556
2023-03-11 21:02:23:609,0,-5.24168,-7.73298,87.4446
2023-03-11 21:02:23:619,0,-5.24133,-7.72853,87.4319
2023-03-11 21:02:23:629,0,-5.23733,-7.72465,87.4181
2023-03-11 21:02:23:639,0,-5.2348,-7.73032,87.406
2023-03-11 21:02:23:649,0,-5.24195,-7.747,87.397
2023-03-11 21:02:23:659,0,-5.2538,-7.76975,87.3939
2023-03-11 21:02:23:669,0,-5.27189,-7.80454,87.3932
2023-03-11 21:02:23:679,0,-5.2942,-7.83894,87.3933
2023-03-11 21:02:23:689,0,-5.3203,-7.87422,87.3972
2023-03-11 21:02:23:699,0,-5.35599,-7.90832,87.4069
2023-03-11 21:02:23:709,0,-5.39664,-7.94173,87.4212
2023-03-11 21:02:23:719,0,-5.44028,-7.97219,87.4366
2023-03-11 21:02:23:729,0,-5.47915,-7.99926,87.4503
2023-03-11 21:02:23:739,0,-5.51069,-8.01653,87.4616
2023-03-11 21:02:23:749,0,-5.53329,-8.02934,87.4622
2023-03-11 21:02:23:759,0,-5.54568,-8.03815,87.4506
2023-03-11 21:02:23:769,0,-5.54922,-8.03982,87.4311
2023-03-11 21:02:23:779,0,-5.54618,-8.04034,87.4004
2023-03-11 21:02:23:789,0,-5.5374,-8.03747,87.364
2023-03-11 21:02:23:799,0,-5.52198,-8.03484,87.3219
2023-03-11 21:02:23:809,0,-5.51085,-8.03462,87.2709
2023-03-11 21:02:23:819,0,-5.49537,-8.03635,87.2149
2023-03-11 21:02:23:829,0,-5.48344,-8.04314,87.1607
2023-03-11 21:02:23:839,0,-5.47084,-8.05376,87.1033
2023-03-11 21:02:23:849,0,-5.4546,-8.06504,87.0458
2023-03-11 21:02:23:859,0,-5.44083,-8.07934,86.9905
2023-03-11 21:02:23:869,0,-5.41729,-8.0921,86.9419
2023-03-11 21:02:23:879,0,-5.39574,-8.09798,86.9004
2023-03-11 21:02:23:889,0,-5.37512,-8.10301,86.8667
2023-03-11 21:02:23:899,0,-5.35767,-8.10184,86.8406
2023-03-11 21:02:23:909,0,-5.35081,-8.09567,86.829
2023-03-11 21:02:23:919,0,-5.34628,-8.08721,86.8226
2023-03-11 21:02:23:929,0,-5.34789,-8.07679,86.8206
2023-03-11 21:02:23:939,0,-5.35054,-8.07093,86.823
2023-03-11 21:02:23:949,0,-5.35238,-8.06183,86.8334
2023-03-11 21:02:23:959,0,-5.36144,-8.04997,86.844
2023-03-11 21:02:23:969,0,-5.37608,-8.04132,86.8572
2023-03-11 21:02:23:979,0,-5.40103,-8.03041,86.8762
2023-03-11 21:02:23:989,0,-5.43352,-8.02216,86.8912
2023-03-11 21:02:23:999,0,-5.46852,-8.01514,86.9035
2023-03-11 21:02:24:9,0,-5.50411,-8.0064,86.9122
2023-03-11 21:02:24:19,0,-5.54126,-7.99698,86.914
2023-03-11 21:02:24:29,0,-5.5724,-7.9803,86.9129
2023-03-11 21:02:24:39,0,-5.60225,-7.95868,86.9036
2023-03-11 21:02:24:49,0,-5.62873,-7.93348,86.8854
2023-03-11 21:02:24:59,0,-5.64896,-7.90824,86.8555
2023-03-11 21:02:24:69,0,-5.66672,-7.87753,86.823
2023-03-11 21:02:24:79,0,-5.68677,-7.84806,86.7852
2023-03-11 21:02:24:89,0,-5.69809,-7.81602,86.7423
2023-03-11 21:02:24:100,0,-5.70311,-7.78548,86.6956
2023-03-11 21:02:24:109,0,-5.69065,-7.75829,86.647
2023-03-11 21:02:24:119,0,-5.66572,-7.73772,86.6007
2023-03-11 21:02:24:129,0,-5.63475,-7.72031,86.5546
2023-03-11 21:02:24:139,0,-5.60993,-7.70424,86.5142
2023-03-11 21:02:24:149,0,-5.58836,-7.68773,86.4825
2023-03-11 21:02:24:159,0,-5.5761,-7.67357,86.4587
2023-03-11 21:02:24:169,0,-5.57778,-7.66096,86.4418
2023-03-11 21:02:24:179,0,-5.58738,-7.64982,86.4353
2023-03-11 21:02:24:189,0,-5.6025,-7.6417,86.4369
2023-03-11 21:02:24:199,0,-5.61995,-7.63622,86.448
2023-03-11 21:02:24:209,0,-5.63573,-7.63826,86.464
2023-03-11 21:02:24:219,0,-5.64752,-7.6375,86.481
2023-03-11 21:02:24:229,0,-5.66058,-7.63401,86.5044
2023-03-11 21:02:24:239,0,-5.67654,-7.63189,86.5282
2023-03-11 21:02:24:249,0,-5.69531,-7.63153,86.5517
2023-03-11 21:02:24:260,0,-5.71823,-7.63278,86.5774
2023-03-11 21:02:24:269,0,-5.74455,-7.63753,86.6023
2023-03-11 21:02:24:279,0,-5.77408,-7.64228,86.6261
2023-03-11 21:02:24:289,0,-5.80043,-7.64756,86.6512
2023-03-11 21:02:24:299,0,-5.82327,-7.65234,86.6767
2023-03-11 21:02:24:309,0,-5.84946,-7.65926,86.7009
2023-03-11 21:02:24:319,0,-5.87287,-7.66086,86.72
2023-03-11 21:02:24:329,0,-5.89751,-7.65886,86.7333
2023-03-11 21:02:24:339,0,-5.91697,-7.65127,86.7437
2023-03-11 21:02:24:349,0,-5.9313,-7.64214,86.7456
2023-03-11 21:02:24:359,0,-5.94374,-7.63579,86.7489
2023-03-11 21:02:24:369,0,-5.95562,-7.63274,86.7488
2023-03-11 21:02:24:379,0,-5.96782,-7.62733,86.7457
2023-03-11 21:02:24:389,0,-5.98261,-7.61681,86.7421
2023-03-11 21:02:24:399,0,-5.99833,-7.60065,86.7319
2023-03-11 21:02:24:409,0,-6.00743,-7.58577,86.72
2023-03-11 21:02:24:419,0,-6.01215,-7.57379,86.7101
2023-03-11 21:02:24:429,0,-6.00967,-7.55882,86.6961
2023-03-11 21:02:24:439,0,-6.00077,-7.54135,86.6791
2023-03-11 21:02:24:449,0,-5.98976,-7.52316,86.6603
2023-03-11 21:02:24:459,0,-5.97695,-7.50867,86.64
2023-03-11 21:02:24:469,0,-5.96962,-7.49136,86.6173
2023-03-11 21:02:24:479,0,-5.96025,-7.47632,86.5971
2023-03-11 21:02:24:489,0,-5.95202,-7.46265,86.5737
2023-03-11 21:02:24:499,0,-5.94707,-7.4485,86.5543
2023-03-11 21:02:24:509,0,-5.9391,-7.43679,86.5348
2023-03-11 21:02:24:519,0,-5.93157,-7.42325,86.5193
2023-03-11 21:02:24:529,0,-5.91884,-7.41142,86.5044
2023-03-11 21:02:24:539,0,-5.90768,-7.39821,86.4932
2023-03-11 21:02:24:549,0,-5.89243,-7.38748,86.4828
2023-03-11 21:02:24:559,0,-5.88175,-7.37716,86.4722
2023-03-11 21:02:24:569,0,-5.87048,-7.36701,86.4677
2023-03-11 21:02:24:579,0,-5.85935,-7.35423,86.46
2023-03-11 21:02:24:589,0,-5.84861,-7.34447,86.4598
2023-03-11 21:02:24:599,0,-5.83756,-7.33649,86.4606
2023-03-11 21:02:24:609,0,-5.82656,-7.33277,86.4651
2023-03-11 21:02:24:619,0,-5.81325,-7.33167,86.4683
2023-03-11 21:02:24:629,0,-5.79788,-7.32945,86.4711
2023-03-11 21:02:24:639,0,-5.78222,-7.32977,86.4745
2023-03-11 21:02:24:649,0,-5.76907,-7.33249,86.4809
2023-03-11 21:02:24:659,0,-5.75415,-7.33983,86.4876
2023-03-11 21:02:24:669,0,-5.74629,-7.34813,86.5029
2023-03-11 21:02:24:679,0,-5.74123,-7.35786,86.5178
2023-03-11 21:02:24:689,0,-5.74814,-7.36899,86.5346
2023-03-11 21:02:24:699,0,-5.75037,-7.38184,86.5509
2023-03-11 21:02:24:709,0,-5.75564,-7.39187,86.5695
2023-03-11 21:02:24:719,0,-5.75568,-7.39945,86.5883
2023-03-11 21:02:24:729,0,-5.75502,-7.40639,86.6066
2023-03-11 21:02:24:739,0,-5.75299,-7.41213,86.6245
2023-03-11 21:02:24:749,0,-5.75001,-7.41772,86.6432
2023-03-11 21:02:24:759,0,-5.74562,-7.42184,86.6594
2023-03-11 21:02:24:769,0,-5.74255,-7.42147,86.673
2023-03-11 21:02:24:780,0,-5.74032,-7.41721,86.6821
2023-03-11 21:02:24:789,0,-5.74054,-7.4128,86.6932
2023-03-11 21:02:24:799,0,-5.7393,-7.407,86.6996
2023-03-11 21:02:24:809,0,-5.74042,-7.39984,86.7041
2023-03-11 21:02:24:819,0,-5.7421,-7.39391,86.7072
2023-03-11 21:02:24:829,0,-5.73961,-7.38796,86.7087
2023-03-11 21:02:24:839,0,-5.73965,-7.38716,86.7154
2023-03-11 21:02:24:849,0,-5.74238,-7.38576,86.7238
2023-03-11 21:02:24:859,0,-5.74731,-7.38628,86.7358
2023-03-11 21:02:24:869,0,-5.75637,-7.38119,86.7517
2023-03-11 21:02:24:879,0,-5.77054,-7.37618,86.7684
2023-03-11 21:02:24:889,0,-5.78494,-7.36574,86.7858
2023-03-11 21:02:24:900,0,-5.7975,-7.35081,86.8033
2023-03-11 21:02:24:909,0,-5.80766,-7.3385,86.8224
2023-03-11 21:02:24:919,0,-5.81243,-7.32649,86.838
2023-03-11 21:02:24:929,0,-5.81613,-7.31722,86.8539
2023-03-11 21:02:24:939,0,-5.81369,-7.3055,86.8618
2023-03-11 21:02:24:949,0,-5.81152,-7.29395,86.8662
2023-03-11 21:02:24:959,0,-5.81519,-7.27961,86.8675
2023-03-11 21:02:24:969,0,-5.81863,-7.27176,86.8643
2023-03-11 21:02:24:979,0,-5.82618,-7.26631,86.8585
2023-03-11 21:02:24:989,0,-5.83495,-7.2587,86.8506
2023-03-11 21:02:24:999,0,-5.8404,-7.25095,86.8388
2023-03-11 21:02:25:9,0,-5.84339,-7.24221,86.8287
2023-03-11 21:02:25:19,0,-5.84809,-7.23563,86.8171
2023-03-11 21:02:25:29,0,-5.84992,-7.2278,86.8043
2023-03-11 21:02:25:40,0,-5.85615,-7.2215,86.7929
2023-03-11 21:02:25:49,0,-5.8611,-7.21176,86.7837
2023-03-11 21:02:25:59,0,-5.86337,-7.2016,86.7766
2023-03-11 21:02:25:69,0,-5.86453,-7.19203,86.7713
2023-03-11 21:02:25:79,0,-5.86419,-7.1881,86.7699
2023-03-11 21:02:25:89,0,-5.86575,-7.17925,86.7665
2023-03-11 21:02:25:99,0,-5.86544,-7.16839,86.7642
2023-03-11 21:02:25:109,0,-5.86506,-7.15301,86.7654
2023-03-11 21:02:25:119,0,-5.86725,-7.14048,86.7701
2023-03-11 21:02:25:129,0,-5.86949,-7.12706,86.7741
2023-03-11 21:02:25:139,0,-5.86972,-7.11147,86.7736
2023-03-11 21:02:25:149,0,-5.86604,-7.0959,86.7722
2023-03-11 21:02:25:159,0,-5.85743,-7.07912,86.7766
2023-03-11 21:02:25:169,0,-5.84932,-7.06006,86.7808
2023-03-11 21:02:25:179,0,-5.83664,-7.04127,86.7827
2023-03-11 21:02:25:189,0,-5.81916,-7.02045,86.7861
2023-03-11 21:02:25:200,0,-5.79797,-7.00031,86.7873
2023-03-11 21:02:25:209,0,-5.77031,-6.97901,86.7891
2023-03-11 21:02:25:219,0,-5.73798,-6.95706,86.7927
2023-03-11 21:02:25:229,0,-5.69574,-6.93889,86.7936
2023-03-11 21:02:25:239,0,-5.64626,-6.91883,86.8011
2023-03-11 21:02:25:249,0,-5.59309,-6.90194,86.8106
2023-03-11 21:02:25:260,0,-5.53791,-6.88367,86.8209
2023-03-11 21:02:25:269,0,-5.47724,-6.86537,86.8326
2023-03-11 21:02:25:279,0,-5.4127,-6.85115,86.8426
2023-03-11 21:02:25:289,0,-5.34721,-6.83438,86.8542
2023-03-11 21:02:25:299,0,-5.27814,-6.81804,86.8673
2023-03-11 21:02:25:310,0,-5.20984,-6.80342,86.8824
2023-03-11 21:02:25:319,0,-5.14604,-6.78963,86.8979
2023-03-11 21:02:25:329,0,-5.07927,-6.77589,86.9127
2023-03-11 21:02:25:339,0,-5.01188,-6.75577,86.9257
2023-03-11 21:02:25:349,0,-4.94331,-6.73537,86.9409
2023-03-11 21:02:25:359,0,-4.87905,-6.71372,86.9616
2023-03-11 21:02:25:369,0,-4.81353,-6.69385,86.9802
2023-03-11 21:02:25:379,0,-4.74677,-6.67263,87.0093
2023-03-11 21:02:25:389,0,-4.68067,-6.65028,87.0383
2023-03-11 21:02:25:399,0,-4.61113,-6.62666,87.0719
2023-03-11 21:02:25:409,0,-4.54447,-6.6052,87.1032
2023-03-11 21:02:25:419,0,-4.48152,-6.57877,87.1345
2023-03-11 21:02:25:429,0,-4.41393,-6.5539,87.1686
2023-03-11 21:02:25:439,0,-4.34996,-6.53236,87.2017
2023-03-11 21:02:25:449,0,-4.28653,-6.50549,87.2338
2023-03-11 21:02:25:459,0,-4.22853,-6.48205,87.2614
2023-03-11 21:02:25:469,0,-4.16444,-6.45769,87.289
2023-03-11 21:02:25:479,0,-4.09923,-6.42745,87.3133
2023-03-11 21:02:25:489,0,-4.03376,-6.40202,87.3328
2023-03-11 21:02:25:499,0,-3.96986,-6.37385,87.348
2023-03-11 21:02:25:509,0,-3.91179,-6.3509,87.3629
2023-03-11 21:02:25:519,0,-3.8578,-6.32911,87.3684
2023-03-11 21:02:25:529,0,-3.80314,-6.30755,87.373
2023-03-11 21:02:25:539,0,-3.75411,-6.28591,87.3733
2023-03-11 21:02:25:549,0,-3.7035,-6.27037,87.371
2023-03-11 21:02:25:559,0,-3.64874,-6.25957,87.3685
2023-03-11 21:02:25:569,0,-3.59067,-6.25032,87.3673
2023-03-11 21:02:25:579,0,-3.53008,-6.23898,87.3673
2023-03-11 21:02:25:589,0,-3.46522,-6.22855,87.3673
2023-03-11 21:02:25:599,0,-3.40156,-6.21547,87.3642
2023-03-11 21:02:25:609,0,-3.34249,-6.20768,87.3635
2023-03-11 21:02:25:619,0,-3.2928,-6.19898,87.364
2023-03-11 21:02:25:629,0,-3.24779,-6.19558,87.3684
2023-03-11 21:02:25:639,0,-3.20437,-6.19712,87.3737
2023-03-11 21:02:25:649,0,-3.16308,-6.19442,87.3816
2023-03-11 21:02:25:659,0,-3.12073,-6.19104,87.3905
2023-03-11 21:02:25:669,0,-3.08311,-6.18849,87.401
2023-03-11 21:02:25:679,0,-3.04323,-6.18167,87.415
2023-03-11 21:02:25:689,0,-3.00345,-6.17878,87.4273
2023-03-11 21:02:25:699,0,-2.97129,-6.16968,87.4388
2023-03-11 21:02:25:709,0,-2.93911,-6.16968,87.4466
2023-03-11 21:02:25:719,0,-2.91184,-6.1628,87.4538
2023-03-11 21:02:25:729,0,-2.88728,-6.1571,87.4553
2023-03-11 21:02:25:739,0,-2.86616,-6.15355,87.4621
2023-03-11 21:02:25:749,0,-2.85099,-6.15018,87.4642
2023-03-11 21:02:25:759,0,-2.84334,-6.14443,87.4618
2023-03-11 21:02:25:769,0,-2.84016,-6.1366,87.4575
2023-03-11 21:02:25:779,0,-2.83773,-6.13229,87.4521
2023-03-11 21:02:25:789,0,-2.83717,-6.13086,87.4452
2023-03-11 21:02:25:799,0,-2.83604,-6.13067,87.4372
2023-03-11 21:02:25:809,0,-2.83983,-6.13101,87.4323
2023-03-11 21:02:25:819,0,-2.85038,-6.13301,87.4246
2023-03-11 21:02:25:829,0,-2.86006,-6.12809,87.419
2023-03-11 21:02:25:839,0,-2.87713,-6.12056,87.4124
2023-03-11 21:02:25:849,0,-2.8991,-6.11856,87.4048
2023-03-11 21:02:25:859,0,-2.92317,-6.1153,87.3991
2023-03-11 21:02:25:869,0,-2.9483,-6.116,87.3952
2023-03-11 21:02:25:879,0,-2.97195,-6.1164,87.3894
2023-03-11 21:02:25:889,0,-2.99535,-6.12097,87.3849
2023-03-11 21:02:25:899,0,-3.01865,-6.12558,87.3856
2023-03-11 21:02:25:909,0,-3.03511,-6.13164,87.3828
2023-03-11 21:02:25:919,0,-3.05654,-6.1435,87.3839
2023-03-11 21:02:25:929,0,-3.07554,-6.15329,87.3859
2023-03-11 21:02:25:939,0,-3.09504,-6.16146,87.39
2023-03-11 21:02:25:949,0,-3.11412,-6.17145,87.3993
2023-03-11 21:02:25:959,0,-3.13684,-6.18243,87.4108
2023-03-11 21:02:25:969,0,-3.16125,-6.19147,87.426
2023-03-11 21:02:25:980,0,-3.18365,-6.20133,87.439
2023-03-11 21:02:25:989,0,-3.20645,-6.21356,87.4537
2023-03-11 21:02:25:999,0,-3.23002,-6.22623,87.466
2023-03-11 21:02:26:9,0,-3.25364,-6.23607,87.477
2023-03-11 21:02:26:19,0,-3.27448,-6.24545,87.4886
2023-03-11 21:02:26:29,0,-3.29904,-6.25939,87.4969
2023-03-11 21:02:26:39,0,-3.32446,-6.27676,87.5044
2023-03-11 21:02:26:49,0,-3.35474,-6.29065,87.5109
2023-03-11 21:02:26:59,0,-3.38576,-6.30488,87.5136
2023-03-11 21:02:26:69,0,-3.4182,-6.31691,87.5134
2023-03-11 21:02:26:79,0,-3.4434,-6.32467,87.5115
2023-03-11 21:02:26:89,0,-3.46742,-6.3315,87.5087
2023-03-11 21:02:26:99,0,-3.48872,-6.33374,87.5043
2023-03-11 21:02:26:109,0,-3.50918,-6.33869,87.497
2023-03-11 21:02:26:119,0,-3.53476,-6.33891,87.4896
2023-03-11 21:02:26:129,0,-3.55408,-6.3377,87.4788
2023-03-11 21:02:26:139,0,-3.57211,-6.34045,87.4691
2023-03-11 21:02:26:149,0,-3.58876,-6.33896,87.4627
2023-03-11 21:02:26:159,0,-3.60188,-6.33762,87.4486
2023-03-11 21:02:26:169,0,-3.60951,-6.33342,87.4357
2023-03-11 21:02:26:179,0,-3.61154,-6.32814,87.4203
2023-03-11 21:02:26:189,0,-3.61493,-6.32357,87.4034
2023-03-11 21:02:26:199,0,-3.62185,-6.31731,87.3882
2023-03-11 21:02:26:209,0,-3.62935,-6.31007,87.3707
2023-03-11 21:02:26:219,0,-3.63463,-6.30162,87.355
2023-03-11 21:02:26:229,0,-3.64633,-6.29211,87.3395
2023-03-11 21:02:26:239,0,-3.66278,-6.28066,87.3241
2023-03-11 21:02:26:249,0,-3.67689,-6.26949,87.3042
2023-03-11 21:02:26:259,0,-3.68784,-6.26728,87.2868
2023-03-11 21:02:26:269,0,-3.69991,-6.26884,87.2687
2023-03-11 21:02:26:279,0,-3.71339,-6.27608,87.2538
2023-03-11 21:02:26:289,0,-3.7287,-6.28401,87.2432
2023-03-11 21:02:26:299,0,-3.74798,-6.29237,87.2321
2023-03-11 21:02:26:309,0,-3.77376,-6.30152,87.2272
2023-03-11 21:02:26:319,0,-3.80421,-6.31057,87.2263
2023-03-11 21:02:26:329,0,-3.83647,-6.31976,87.2267
2023-03-11 21:02:26:339,0,-3.8694,-6.33215,87.2325
2023-03-11 21:02:26:349,0,-3.90015,-6.34364,87.2348
2023-03-11 21:02:26:359,0,-3.92278,-6.35601,87.2412
2023-03-11 21:02:26:369,0,-3.94405,-6.36662,87.2512
2023-03-11 21:02:26:379,0,-3.95826,-6.37282,87.257
2023-03-11 21:02:26:389,0,-3.9713,-6.37659,87.2635
2023-03-11 21:02:26:399,0,-3.98432,-6.37919,87.2701
2023-03-11 21:02:26:409,0,-4.0046,-6.38191,87.2773
2023-03-11 21:02:26:419,0,-4.02321,-6.38394,87.2821
2023-03-11 21:02:26:429,0,-4.05034,-6.38876,87.2875
2023-03-11 21:02:26:439,0,-4.07184,-6.39218,87.2934
2023-03-11 21:02:26:449,0,-4.08995,-6.39537,87.2957
2023-03-11 21:02:26:459,0,-4.104,-6.3927,87.2974
2023-03-11 21:02:26:469,0,-4.11275,-6.38461,87.296
2023-03-11 21:02:26:479,0,-4.11429,-6.3727,87.2898
2023-03-11 21:02:26:489,0,-4.10888,-6.36238,87.2837
2023-03-11 21:02:26:499,0,-4.10096,-6.3589,87.2809
2023-03-11 21:02:26:509,0,-4.09455,-6.35482,87.2827
2023-03-11 21:02:26:519,0,-4.0902,-6.34736,87.2867
2023-03-11 21:02:26:529,0,-4.08275,-6.34241,87.2905
2023-03-11 21:02:26:540,0,-4.07754,-6.33185,87.2973
2023-03-11 21:02:26:550,0,-4.07067,-6.32204,87.3056
2023-03-11 21:02:26:560,0,-4.06528,-6.31689,87.3144
2023-03-11 21:02:26:569,0,-4.05937,-6.31268,87.323
2023-03-11 21:02:26:579,0,-4.05874,-6.30868,87.3329
2023-03-11 21:02:26:589,0,-4.05907,-6.30583,87.3487
2023-03-11 21:02:26:599,0,-4.06144,-6.30825,87.3582
2023-03-11 21:02:26:609,0,-4.06519,-6.31025,87.3705
2023-03-11 21:02:26:619,0,-4.06842,-6.31298,87.3814
2023-03-11 21:02:26:629,0,-4.07238,-6.31915,87.391
2023-03-11 21:02:26:640,0,-4.07878,-6.32693,87.3996
2023-03-11 21:02:26:649,0,-4.08343,-6.33407,87.405
2023-03-11 21:02:26:659,0,-4.08607,-6.34597,87.4073
2023-03-11 21:02:26:669,0,-4.08917,-6.35776,87.414
2023-03-11 21:02:26:680,0,-4.09846,-6.37037,87.4164
2023-03-11 21:02:26:689,0,-4.10934,-6.38147,87.4187
2023-03-11 21:02:26:699,0,-4.12148,-6.39335,87.4248
2023-03-11 21:02:26:709,0,-4.13306,-6.40452,87.4294
2023-03-11 21:02:26:719,0,-4.14516,-6.41288,87.4357
2023-03-11 21:02:26:729,0,-4.15314,-6.41996,87.4389
2023-03-11 21:02:26:739,0,-4.15785,-6.42613,87.4448
2023-03-11 21:02:26:749,0,-4.16326,-6.42928,87.4478
2023-03-11 21:02:26:759,0,-4.1703,-6.43586,87.4531
2023-03-11 21:02:26:769,0,-4.17303,-6.44237,87.4576
2023-03-11 21:02:26:780,0,-4.17841,-6.44562,87.4603
2023-03-11 21:02:26:790,0,-4.18612,-6.44899,87.4637
2023-03-11 21:02:26:800,0,-4.19336,-6.45039,87.4665
2023-03-11 21:02:26:809,0,-4.19954,-6.45238,87.4684
2023-03-11 21:02:26:819,0,-4.20194,-6.45538,87.468
2023-03-11 21:02:26:830,0,-4.20354,-6.45699,87.4642
2023-03-11 21:02:26:839,0,-4.20528,-6.46447,87.4647
2023-03-11 21:02:26:849,0,-4.20654,-6.46785,87.4631
2023-03-11 21:02:26:859,0,-4.20855,-6.47074,87.46
2023-03-11 21:02:26:869,0,-4.21146,-6.47147,87.4598
2023-03-11 21:02:26:879,0,-4.20808,-6.4713,87.4585
2023-03-11 21:02:26:889,0,-4.20338,-6.4673,87.4552
2023-03-11 21:02:26:899,0,-4.19704,-6.46164,87.4549
2023-03-11 21:02:26:909,0,-4.1896,-6.45568,87.4499
2023-03-11 21:02:26:919,0,-4.17892,-6.45076,87.446
2023-03-11 21:02:26:929,0,-4.17055,-6.44195,87.4402
2023-03-11 21:02:26:939,0,-4.16695,-6.43452,87.4354
2023-03-11 21:02:26:950,0,-4.16421,-6.42493,87.428
2023-03-11 21:02:26:959,0,-4.15978,-6.41611,87.4165
2023-03-11 21:02:26:969,0,-4.15328,-6.41311,87.4058
2023-03-11 21:02:26:979,0,-4.14139,-6.40942,87.3942
2023-03-11 21:02:26:989,0,-4.13438,-6.41257,87.3869
2023-03-11 21:02:26:999,0,-4.12942,-6.41326,87.3755
2023-03-11 21:02:27:9,0,-4.12683,-6.41579,87.3676
2023-03-11 21:02:27:19,0,-4.13386,-6.41414,87.3623
2023-03-11 21:02:27:29,0,-4.14647,-6.41052,87.3566
2023-03-11 21:02:27:39,0,-4.16401,-6.4048,87.3556
2023-03-11 21:02:27:49,0,-4.18106,-6.40154,87.3531
2023-03-11 21:02:27:59,0,-4.19756,-6.39829,87.3535
2023-03-11 21:02:27:69,0,-4.20887,-6.39021,87.3538
2023-03-11 21:02:27:79,0,-4.21915,-6.37978,87.3502
2023-03-11 21:02:27:89,0,-4.2302,-6.372,87.3469
2023-03-11 21:02:27:99,0,-4.23963,-6.3673,87.3392
2023-03-11 21:02:27:109,0,-4.2501,-6.36454,87.3337
2023-03-11 21:02:27:119,0,-4.25939,-6.36253,87.3235
2023-03-11 21:02:27:129,0,-4.27351,-6.3571,87.3142
2023-03-11 21:02:27:139,0,-4.28387,-6.34946,87.3048
2023-03-11 21:02:27:149,0,-4.29396,-6.34414,87.2958
2023-03-11 21:02:27:159,0,-4.31093,-6.33598,87.2866
2023-03-11 21:02:27:169,0,-4.32849,-6.32967,87.2773
2023-03-11 21:02:27:179,0,-4.34857,-6.32172,87.2687
2023-03-11 21:02:27:189,0,-4.3655,-6.31257,87.2554
2023-03-11 21:02:27:199,0,-4.38066,-6.30291,87.2425
2023-03-11 21:02:27:209,0,-4.39218,-6.29929,87.2339
2023-03-11 21:02:27:219,0,-4.39636,-6.29325,87.2258
2023-03-11 21:02:27:229,0,-4.39991,-6.28759,87.2197
2023-03-11 21:02:27:239,0,-4.39656,-6.27585,87.2106
2023-03-11 21:02:27:249,0,-4.39238,-6.25876,87.2034
2023-03-11 21:02:27:259,0,-4.3896,-6.24643,87.1967
2023-03-11 21:02:27:269,0,-4.38394,-6.23305,87.1867
2023-03-11 21:02:27:279,0,-4.37794,-6.21765,87.1808
2023-03-11 21:02:27:289,0,-4.36779,-6.2037,87.1724
2023-03-11 21:02:27:299,0,-4.35971,-6.19138,87.167
2023-03-11 21:02:27:309,0,-4.35001,-6.18645,87.1589
2023-03-11 21:02:27:319,0,-4.33935,-6.1819,87.1494
2023-03-11 21:02:27:329,0,-4.33012,-6.17621,87.1453
2023-03-11 21:02:27:339,0,-4.32177,-6.17554,87.1426
2023-03-11 21:02:27:349,0,-4.31191,-6.17407,87.1388
2023-03-11 21:02:27:359,0,-4.3031,-6.17438,87.1362
2023-03-11 21:02:27:369,0,-4.30061,-6.17816,87.1404
2023-03-11 21:02:27:379,0,-4.30181,-6.18439,87.1435
2023-03-11 21:02:27:389,0,-4.30357,-6.1904,87.148
2023-03-11 21:02:27:399,0,-4.30813,-6.20035,87.1552
2023-03-11 21:02:27:409,0,-4.31603,-6.20691,87.163
2023-03-11 21:02:27:419,0,-4.32301,-6.21613,87.1737
2023-03-11 21:02:27:429,0,-4.3311,-6.21989,87.1839
2023-03-11 21:02:27:439,0,-4.33668,-6.22596,87.195
2023-03-11 21:02:27:449,0,-4.33787,-6.22611,87.207
2023-03-11 21:02:27:459,0,-4.34423,-6.22298,87.2181
2023-03-11 21:02:27:469,0,-4.35166,-6.21748,87.228
2023-03-11 21:02:27:479,0,-4.36172,-6.21477,87.2396
2023-03-11 21:02:27:489,0,-4.37436,-6.21267,87.2479
2023-03-11 21:02:27:499,0,-4.38735,-6.21109,87.2511
2023-03-11 21:02:27:509,0,-4.40112,-6.20593,87.251
2023-03-11 21:02:27:519,0,-4.41317,-6.19941,87.2473
2023-03-11 21:02:27:529,0,-4.42101,-6.19259,87.2395
2023-03-11 21:02:27:539,0,-4.42433,-6.18709,87.2251
2023-03-11 21:02:27:549,0,-4.4268,-6.18467,87.2121
2023-03-11 21:02:27:559,0,-4.42952,-6.17987,87.2062
2023-03-11 21:02:27:569,0,-4.43055,-6.17628,87.1956
2023-03-11 21:02:27:579,0,-4.43349,-6.17388,87.1925
2023-03-11 21:02:27:589,0,-4.4401,-6.16985,87.1909
2023-03-11 21:02:27:599,0,-4.43847,-6.16568,87.1932
2023-03-11 21:02:27:609,0,-4.4411,-6.16165,87.1971
2023-03-11 21:02:27:619,0,-4.43778,-6.15912,87.2016
2023-03-11 21:02:27:629,0,-4.42913,-6.15509,87.2058
2023-03-11 21:02:27:639,0,-4.41462,-6.1531,87.2081
2023-03-11 21:02:27:649,0,-4.3997,-6.15619,87.2104
2023-03-11 21:02:27:659,0,-4.38273,-6.15834,87.2134
2023-03-11 21:02:27:669,0,-4.36955,-6.16161,87.2158
2023-03-11 21:02:27:679,0,-4.35814,-6.16532,87.2094
2023-03-11 21:02:27:689,0,-4.34784,-6.17161,87.2038
2023-03-11 21:02:27:699,0,-4.33599,-6.18602,87.2042
2023-03-11 21:02:27:709,0,-4.32954,-6.20501,87.212
2023-03-11 21:02:27:719,0,-4.32259,-6.22477,87.2262
2023-03-11 21:02:27:729,0,-4.31963,-6.24343,87.2397
2023-03-11 21:02:27:739,0,-4.31976,-6.25578,87.258
2023-03-11 21:02:27:749,0,-4.3179,-6.26856,87.2784
2023-03-11 21:02:27:759,0,-4.31309,-6.27763,87.296
2023-03-11 21:02:27:769,0,-4.30814,-6.28675,87.3174
2023-03-11 21:02:27:779,0,-4.30067,-6.29516,87.3348
2023-03-11 21:02:27:789,0,-4.29429,-6.29877,87.347
2023-03-11 21:02:27:799,0,-4.28592,-6.30089,87.3553
2023-03-11 21:02:27:809,0,-4.27926,-6.29988,87.3583
2023-03-11 21:02:27:819,0,-4.27264,-6.29768,87.3548
2023-03-11 21:02:27:829,0,-4.26672,-6.29437,87.3455
2023-03-11 21:02:27:839,0,-4.26449,-6.28687,87.3319
2023-03-11 21:02:27:849,0,-4.25673,-6.27817,87.3157
2023-03-11 21:02:27:859,0,-4.25546,-6.26905,87.2975
2023-03-11 21:02:27:869,0,-4.25837,-6.2542,87.2799
2023-03-11 21:02:27:879,0,-4.25946,-6.23734,87.2656
2023-03-11 21:02:27:889,0,-4.26845,-6.22055,87.2493
2023-03-11 21:02:27:899,0,-4.28442,-6.20504,87.2397
2023-03-11 21:02:27:909,0,-4.30416,-6.18366,87.2291
2023-03-11 21:02:27:919,0,-4.31863,-6.16275,87.22
2023-03-11 21:02:27:929,0,-4.33303,-6.14431,87.2118
2023-03-11 21:02:27:939,0,-4.34398,-6.13217,87.2084
2023-03-11 21:02:27:949,0,-4.35295,-6.11729,87.2079
2023-03-11 21:02:27:959,0,-4.36056,-6.10453,87.204
2023-03-11 21:02:27:969,0,-4.36567,-6.09345,87.1992
2023-03-11 21:02:27:979,0,-4.37263,-6.07965,87.1964
2023-03-11 21:02:27:989,0,-4.3848,-6.06809,87.1943
2023-03-11 21:02:27:999,0,-4.39178,-6.06034,87.1925
2023-03-11 21:02:28:9,0,-4.39863,-6.05278,87.1938
2023-03-11 21:02:28:19,0,-4.40859,-6.04964,87.1957
2023-03-11 21:02:28:29,0,-4.41819,-6.0432,87.1944
2023-03-11 21:02:28:39,0,-4.42564,-6.03792,87.1985
2023-03-11 21:02:28:49,0,-4.43338,-6.03939,87.2035
2023-03-11 21:02:28:59,0,-4.43731,-6.03929,87.2034
2023-03-11 21:02:28:69,0,-4.43879,-6.03833,87.2028
2023-03-11 21:02:28:79,0,-4.43659,-6.04197,87.1982
2023-03-11 21:02:28:89,0,-4.43431,-6.0455,87.2003
2023-03-11 21:02:28:99,0,-4.4333,-6.05226,87.2032
2023-03-11 21:02:28:109,0,-4.42831,-6.05785,87.2086
2023-03-11 21:02:28:119,0,-4.42324,-6.06737,87.2145
2023-03-11 21:02:28:129,0,-4.4144,-6.07306,87.2188
2023-03-11 21:02:28:139,0,-4.41468,-6.08209,87.2269
2023-03-11 21:02:28:149,0,-4.41762,-6.08756,87.2362
2023-03-11 21:02:28:159,0,-4.41649,-6.09883,87.2436
2023-03-11 21:02:28:169,0,-4.41413,-6.10733,87.251
2023-03-11 21:02:28:179,0,-4.41217,-6.11124,87.2548
2023-03-11 21:02:28:189,0,-4.40863,-6.11414,87.2549
2023-03-11 21:02:28:199,0,-4.40851,-6.1199,87.2536
2023-03-11 21:02:28:209,0,-4.40602,-6.12494,87.2488
2023-03-11 21:02:28:219,0,-4.40689,-6.12667,87.2401
2023-03-11 21:02:28:229,0,-4.40801,-6.12602,87.2325
2023-03-11 21:02:28:239,0,-4.41087,-6.12399,87.2219
2023-03-11 21:02:28:249,0,-4.41441,-6.11866,87.2063
2023-03-11 21:02:28:259,0,-4.41659,-6.1129,87.1929
2023-03-11 21:02:28:269,0,-4.42002,-6.10536,87.1818
2023-03-11 21:02:28:279,0,-4.42301,-6.10202,87.1732
2023-03-11 21:02:28:289,0,-4.42238,-6.09831,87.1641
2023-03-11 21:02:28:299,0,-4.4225,-6.0952,87.1592
2023-03-11 21:02:28:309,0,-4.42318,-6.08769,87.1548
2023-03-11 21:02:28:319,0,-4.42336,-6.07977,87.1545
2023-03-11 21:02:28:329,0,-4.42047,-6.07356,87.1569
2023-03-11 21:02:28:339,0,-4.42286,-6.06383,87.1613
2023-03-11 21:02:28:349,0,-4.42413,-6.05436,87.164
2023-03-11 21:02:28:359,0,-4.42897,-6.04516,87.1696
2023-03-11 21:02:28:369,0,-4.43416,-6.03695,87.1713
2023-03-11 21:02:28:379,0,-4.43563,-6.02793,87.1718
2023-03-11 21:02:28:389,0,-4.44054,-6.02275,87.168
2023-03-11 21:02:28:399,0,-4.4407,-6.01436,87.1591
2023-03-11 21:02:28:409,0,-4.44293,-6.00788,87.1512
2023-03-11 21:02:28:419,0,-4.44778,-5.99709,87.1439
2023-03-11 21:02:28:429,0,-4.45322,-5.99414,87.1348
2023-03-11 21:02:28:439,0,-4.45407,-5.99104,87.1256
2023-03-11 21:02:28:449,0,-4.44945,-5.99425,87.1216
2023-03-11 21:02:28:459,0,-4.45152,-6.00369,87.1225
2023-03-11 21:02:28:469,0,-4.45121,-6.01349,87.1278
2023-03-11 21:02:28:479,0,-4.4542,-6.02706,87.135
2023-03-11 21:02:28:489,0,-4.46093,-6.0368,87.1415
2023-03-11 21:02:28:499,0,-4.47442,-6.04316,87.1558
2023-03-11 21:02:28:509,0,-4.49251,-6.06052,87.1703
2023-03-11 21:02:28:519,0,-4.51118,-6.07313,87.1904
2023-03-11 21:02:28:529,0,-4.52112,-6.09104,87.2125
2023-03-11 21:02:28:539,0,-4.5274,-6.10528,87.2339
2023-03-11 21:02:28:549,0,-4.52514,-6.12238,87.2545
2023-03-11 21:02:28:559,0,-4.51467,-6.13492,87.271
2023-03-11 21:02:28:569,0,-4.50747,-6.14551,87.2882
2023-03-11 21:02:28:579,0,-4.50321,-6.1535,87.2982
2023-03-11 21:02:28:589,0,-4.49795,-6.16464,87.3095
2023-03-11 21:02:28:599,0,-4.50299,-6.16852,87.3177
2023-03-11 21:02:28:609,0,-4.50754,-6.17266,87.3264
2023-03-11 21:02:28:619,0,-4.51154,-6.17067,87.3319
2023-03-11 21:02:28:629,0,-4.51744,-6.17141,87.3373
2023-03-11 21:02:28:640,0,-4.51928,-6.16697,87.3453
2023-03-11 21:02:28:649,0,-4.51924,-6.15702,87.3533
2023-03-11 21:02:28:659,0,-4.52001,-6.14275,87.3598
2023-03-11 21:02:28:669,0,-4.51887,-6.12998,87.3609
2023-03-11 21:02:28:679,0,-4.51618,-6.12281,87.3607
2023-03-11 21:02:28:689,0,-4.51452,-6.11702,87.3609
2023-03-11 21:02:28:699,0,-4.51279,-6.11342,87.3559
2023-03-11 21:02:28:709,0,-4.50823,-6.10463,87.349
2023-03-11 21:02:28:719,0,-4.50467,-6.09565,87.3364
2023-03-11 21:02:28:729,0,-4.50257,-6.08772,87.326
2023-03-11 21:02:28:739,0,-4.50287,-6.07738,87.3239
2023-03-11 21:02:28:749,0,-4.49997,-6.06526,87.3195
2023-03-11 21:02:28:759,0,-4.49966,-6.05448,87.3165
2023-03-11 21:02:28:769,0,-4.50585,-6.04371,87.3179
2023-03-11 21:02:28:779,0,-4.50945,-6.03459,87.3161
2023-03-11 21:02:28:789,0,-4.51292,-6.02819,87.3162
2023-03-11 21:02:28:799,0,-4.51763,-6.02598,87.3167
2023-03-11 21:02:28:809,0,-4.51944,-6.02671,87.3157
2023-03-11 21:02:28:819,0,-4.52094,-6.0256,87.3133
2023-03-11 21:02:28:829,0,-4.52292,-6.02467,87.3112
2023-03-11 21:02:28:839,0,-4.52487,-6.02781,87.312
2023-03-11 21:02:28:849,0,-4.52806,-6.02681,87.3079
2023-03-11 21:02:28:859,0,-4.52607,-6.02777,87.3061
2023-03-11 21:02:28:869,0,-4.52156,-6.03392,87.3058
2023-03-11 21:02:28:879,0,-4.52072,-6.03601,87.3037
2023-03-11 21:02:28:889,0,-4.52336,-6.0403,87.3031
2023-03-11 21:02:28:899,0,-4.52275,-6.04435,87.3003
2023-03-11 21:02:28:909,0,-4.52032,-6.05215,87.3034
2023-03-11 21:02:28:919,0,-4.51938,-6.06243,87.3066
2023-03-11 21:02:28:929,0,-4.51928,-6.06615,87.3101
2023-03-11 21:02:28:939,0,-4.5148,-6.07214,87.3161
2023-03-11 21:02:28:949,0,-4.51102,-6.08184,87.3212
2023-03-11 21:02:28:959,0,-4.51077,-6.08939,87.3278
2023-03-11 21:02:28:969,0,-4.50943,-6.09637,87.3335
2023-03-11 21:02:28:979,0,-4.50859,-6.09978,87.3385
2023-03-11 21:02:28:989,0,-4.51074,-6.10306,87.3437
2023-03-11 21:02:28:999,0,-4.51504,-6.10754,87.3456
2023-03-11 21:02:29:9,0,-4.51623,-6.10673,87.3474
2023-03-11 21:02:29:19,0,-4.52048,-6.10648,87.3487
2023-03-11 21:02:29:29,0,-4.51739,-6.11017,87.3452
2023-03-11 21:02:29:39,0,-4.51434,-6.10876,87.3387
2023-03-11 21:02:29:49,0,-4.51347,-6.10393,87.3322
2023-03-11 21:02:29:59,0,-4.51463,-6.09875,87.3253
2023-03-11 21:02:29:69,0,-4.52207,-6.0946,87.321
2023-03-11 21:02:29:79,0,-4.53024,-6.08772,87.3157
2023-03-11 21:02:29:89,0,-4.53727,-6.08056,87.3094
2023-03-11 21:02:29:99,0,-4.54249,-6.07507,87.3063
2023-03-11 21:02:29:109,0,-4.54608,-6.07425,87.3054
2023-03-11 21:02:29:119,0,-4.54281,-6.06463,87.3052
2023-03-11 21:02:29:129,0,-4.53945,-6.05759,87.3042
2023-03-11 21:02:29:139,0,-4.53548,-6.0522,87.3047
2023-03-11 21:02:29:149,0,-4.53588,-6.04503,87.3072
2023-03-11 21:02:29:159,0,-4.53784,-6.03883,87.3077
2023-03-11 21:02:29:169,0,-4.54128,-6.02917,87.3099
2023-03-11 21:02:29:179,0,-4.543,-6.02272,87.3092
2023-03-11 21:02:29:189,0,-4.55027,-6.01363,87.3062
2023-03-11 21:02:29:199,0,-4.55547,-6.00823,87.2976
2023-03-11 21:02:29:209,0,-4.56355,-6.00108,87.2856
2023-03-11 21:02:29:219,0,-4.56985,-5.99643,87.2749
2023-03-11 21:02:29:229,0,-4.57211,-5.99916,87.262
2023-03-11 21:02:29:239,0,-4.57251,-6.00854,87.2566
2023-03-11 21:02:29:249,0,-4.57451,-6.02482,87.2602
2023-03-11 21:02:29:259,0,-4.58006,-6.04158,87.2673
2023-03-11 21:02:29:269,0,-4.59021,-6.05674,87.2803
2023-03-11 21:02:29:279,0,-4.60297,-6.07167,87.2996
2023-03-11 21:02:29:289,0,-4.61655,-6.08361,87.3248
2023-03-11 21:02:29:299,0,-4.63241,-6.09319,87.3495
2023-03-11 21:02:29:309,0,-4.6411,-6.09415,87.3725
2023-03-11 21:02:29:319,0,-4.64724,-6.09834,87.3914
2023-03-11 21:02:29:329,0,-4.64817,-6.10246,87.411
2023-03-11 21:02:29:339,0,-4.64642,-6.10505,87.4238
2023-03-11 21:02:29:349,0,-4.64459,-6.10526,87.4281
2023-03-11 21:02:29:359,0,-4.64252,-6.10846,87.4296
2023-03-11 21:02:29:369,0,-4.6415,-6.11004,87.4216
2023-03-11 21:02:29:379,0,-4.64117,-6.11044,87.4072
2023-03-11 21:02:29:389,0,-4.63708,-6.09955,87.3894
2023-03-11 21:02:29:399,0,-4.63936,-6.08939,87.3725
2023-03-11 21:02:29:409,0,-4.63952,-6.08059,87.3524
2023-03-11 21:02:29:419,0,-4.64172,-6.07477,87.3374
2023-03-11 21:02:29:429,0,-4.64331,-6.0697,87.3294
2023-03-11 21:02:29:439,0,-4.64226,-6.06445,87.3208
2023-03-11 21:02:29:449,0,-4.63956,-6.06015,87.3102
2023-03-11 21:02:29:459,0,-4.63107,-6.05783,87.3013
2023-03-11 21:02:29:469,0,-4.61777,-6.05786,87.2943
2023-03-11 21:02:29:479,0,-4.60469,-6.0594,87.2913
2023-03-11 21:02:29:489,0,-4.59421,-6.06172,87.291
2023-03-11 21:02:29:499,0,-4.57674,-6.06832,87.291
2023-03-11 21:02:29:509,0,-4.55836,-6.07193,87.2905
2023-03-11 21:02:29:519,0,-4.54494,-6.0762,87.2932
2023-03-11 21:02:29:529,0,-4.52982,-6.08006,87.2937
2023-03-11 21:02:29:539,0,-4.52406,-6.08411,87.2926
2023-03-11 21:02:29:549,0,-4.51946,-6.0878,87.2953
2023-03-11 21:02:29:559,0,-4.51654,-6.09303,87.3007
2023-03-11 21:02:29:569,0,-4.51338,-6.09372,87.2992
2023-03-11 21:02:29:579,0,-4.50839,-6.10115,87.3043
2023-03-11 21:02:29:589,0,-4.5045,-6.10882,87.3068
2023-03-11 21:02:29:599,0,-4.49871,-6.11539,87.3069
2023-03-11 21:02:29:609,0,-4.49467,-6.11672,87.3105
2023-03-11 21:02:29:619,0,-4.49684,-6.11732,87.3163
2023-03-11 21:02:29:629,0,-4.49963,-6.12313,87.3246
2023-03-11 21:02:29:639,0,-4.5008,-6.12648,87.3331
2023-03-11 21:02:29:649,0,-4.5016,-6.13309,87.3445
2023-03-11 21:02:29:659,0,-4.50019,-6.13937,87.3577
2023-03-11 21:02:29:669,0,-4.49855,-6.14422,87.3729
2023-03-11 21:02:29:679,0,-4.49751,-6.14873,87.3874
2023-03-11 21:02:29:689,0,-4.49608,-6.15235,87.3966
