Timestamp_cmd,imu_cmd,roll_delta,pitch_delta,yaw_delta,voice_type,voice_length
2023-03-15 11:02:27:748,0,0.264516,-3.20487,-4.84959,Q,Q
2023-03-15 11:02:27:756,0,0.238097,-3.20619,-4.8274,Q,Q
2023-03-15 11:02:27:766,0,0.214627,-3.20497,-4.80126,Q,Q
2023-03-15 11:02:27:776,0,0.193038,-3.20352,-4.77776,Q,Q
2023-03-15 11:02:27:786,0,0.170083,-3.20202,-4.75147,Q,Q
2023-03-15 11:02:27:796,0,0.147345,-3.19323,-4.72705,Q,Q
2023-03-15 11:02:27:806,0,0.119552,-3.18682,-4.70332,Q,Q
2023-03-15 11:02:27:816,0,0.0896865,-3.17495,-4.68549,Q,Q
2023-03-15 11:02:27:826,0,0.0618836,-3.16333,-4.66689,Q,Q
2023-03-15 11:02:27:836,0,0.0395941,-3.15522,-4.6491,Q,Q
2023-03-15 11:02:27:846,0,0.0123467,-3.14797,-4.63409,Q,Q
2023-03-15 11:02:27:856,0,-0.0112164,-3.14338,-4.61959,Q,Q
2023-03-15 11:02:27:866,0,-0.038313,-3.14041,-4.61265,Q,Q
2023-03-15 11:02:27:876,0,-0.070952,-3.13719,-4.60883,Q,Q
2023-03-15 11:02:27:886,0,-0.107502,-3.1315,-4.61206,Q,Q
2023-03-15 11:02:27:896,0,-0.14037,-3.12851,-4.6195,Q,Q
2023-03-15 11:02:27:906,0,-0.16812,-3.12086,-4.62662,Q,Q
2023-03-15 11:02:27:916,0,-0.194758,-3.1103,-4.63563,Q,Q
2023-03-15 11:02:27:926,0,-0.221825,-3.09698,-4.64859,Q,Q
2023-03-15 11:02:27:936,0,-0.24235,-3.08027,-4.66189,Q,Q
2023-03-15 11:02:27:946,0,-0.259444,-3.05758,-4.67584,Q,Q
2023-03-15 11:02:27:956,0,-0.274682,-3.03212,-4.69201,Q,Q
2023-03-15 11:02:27:966,0,-0.285131,-3.00056,-4.70944,Q,Q
2023-03-15 11:02:27:976,0,-0.296681,-2.96842,-4.72903,Q,Q
2023-03-15 11:02:27:986,0,-0.308685,-2.94114,-4.74693,Q,Q
2023-03-15 11:02:27:996,0,-0.318582,-2.90903,-4.76189,Q,Q
2023-03-15 11:02:28:6,0,-0.329773,-2.87651,-4.77779,Q,Q
2023-03-15 11:02:28:16,0,-0.337348,-2.84858,-4.79402,Q,Q
2023-03-15 11:02:28:26,0,-0.33585,-2.82338,-4.81459,Q,Q
2023-03-15 11:02:28:36,0,-0.321057,-2.79958,-4.82718,Q,Q
2023-03-15 11:02:28:46,0,-0.303277,-2.77955,-4.83845,Q,Q
2023-03-15 11:02:28:56,0,-0.287638,-2.76156,-4.84618,Q,Q
2023-03-15 11:02:28:66,0,-0.278202,-2.74701,-4.85402,Q,Q
2023-03-15 11:02:28:76,0,-0.271785,-2.73044,-4.86526,Q,Q
2023-03-15 11:02:28:86,0,-0.265509,-2.71389,-4.87737,Q,Q
2023-03-15 11:02:28:96,0,-0.254733,-2.70305,-4.88673,Q,Q
2023-03-15 11:02:28:106,0,-0.241988,-2.69903,-4.89057,Q,Q
2023-03-15 11:02:28:116,0,-0.231567,-2.70392,-4.89706,Q,Q
2023-03-15 11:02:28:126,0,-0.221575,-2.70633,-4.90273,Q,Q
2023-03-15 11:02:28:136,0,-0.205421,-2.70529,-4.90553,Q,Q
2023-03-15 11:02:28:146,0,-0.185993,-2.69585,-4.90712,Q,Q
2023-03-15 11:02:28:156,0,-0.170904,-2.68611,-4.89328,Q,Q
2023-03-15 11:02:28:166,0,-0.17013,-2.67777,-4.8791,Q,Q
2023-03-15 11:02:28:176,0,-0.179982,-2.67303,-4.8668,Q,Q
2023-03-15 11:02:28:186,0,-0.194207,-2.67385,-4.85634,Q,Q
2023-03-15 11:02:28:196,0,-0.200499,-2.67626,-4.85534,Q,Q
2023-03-15 11:02:28:206,0,-0.179746,-2.67897,-4.85746,Q,Q
2023-03-15 11:02:28:216,0,-0.136961,-2.68366,-4.85559,Q,Q
2023-03-15 11:02:28:226,0,-0.079648,-2.6811,-4.8561,Q,Q
2023-03-15 11:02:28:236,0,-0.00350532,-2.66781,-4.84375,Q,Q
2023-03-15 11:02:28:246,0,0.0818846,-2.64126,-4.82435,Q,Q
2023-03-15 11:02:28:256,0,0.162423,-2.60104,-4.79342,Q,Q
2023-03-15 11:02:28:266,0,0.225311,-2.56082,-4.74887,Q,Q
2023-03-15 11:02:28:276,0,0.272554,-2.52041,-4.69777,Q,Q
2023-03-15 11:02:28:286,0,0.313775,-2.48941,-4.6436,Q,Q
2023-03-15 11:02:28:296,0,0.360614,-2.46112,-4.5853,Q,Q
2023-03-15 11:02:28:306,0,0.409996,-2.44215,-4.5188,Q,Q
2023-03-15 11:02:28:316,0,0.457926,-2.42131,-4.45189,Q,Q
2023-03-15 11:02:28:326,0,0.502835,-2.40094,-4.3822,Q,Q
2023-03-15 11:02:28:336,0,0.541,-2.38105,-4.31242,Q,Q
2023-03-15 11:02:28:346,0,0.564626,-2.36117,-4.24196,Q,Q
2023-03-15 11:02:28:356,0,0.571081,-2.34457,-4.17566,Q,Q
2023-03-15 11:02:28:366,0,0.567204,-2.33199,-4.11156,Q,Q
2023-03-15 11:02:28:376,0,0.559062,-2.32158,-4.05285,Q,Q
2023-03-15 11:02:28:386,0,0.551126,-2.31284,-4.00056,Q,Q
2023-03-15 11:02:28:396,0,0.543279,-2.30605,-3.95308,Q,Q
2023-03-15 11:02:28:406,0,0.532326,-2.29789,-3.90758,Q,Q
2023-03-15 11:02:28:416,0,0.518045,-2.29053,-3.87252,Q,Q
2023-03-15 11:02:28:426,0,0.506035,-2.28446,-3.83928,Q,Q
2023-03-15 11:02:28:436,0,0.498154,-2.27958,-3.80817,Q,Q
2023-03-15 11:02:28:446,0,0.492252,-2.27207,-3.78377,Q,Q
2023-03-15 11:02:28:456,0,0.488668,-2.26294,-3.76243,Q,Q
2023-03-15 11:02:28:466,0,0.490412,-2.25212,-3.74496,Q,Q
2023-03-15 11:02:28:476,0,0.503876,-2.24217,-3.72471,Q,Q
2023-03-15 11:02:28:486,0,0.526886,-2.23208,-3.70279,Q,Q
2023-03-15 11:02:28:496,0,0.548854,-2.2238,-3.68134,Q,Q
2023-03-15 11:02:28:506,0,0.572591,-2.21697,-3.66088,Q,Q
2023-03-15 11:02:28:516,0,0.602122,-2.21035,-3.64019,Q,Q
2023-03-15 11:02:28:526,0,0.649619,-2.1933,-3.61814,Q,Q
2023-03-15 11:02:28:536,0,0.711035,-2.17445,-3.59183,Q,Q
2023-03-15 11:02:28:546,0,0.772783,-2.15503,-3.56287,Q,Q
2023-03-15 11:02:28:556,0,0.826276,-2.13234,-3.52912,Q,Q
2023-03-15 11:02:28:566,0,0.859798,-2.1096,-3.49022,Q,Q
2023-03-15 11:02:28:576,0,0.888123,-2.09164,-3.45372,Q,Q
2023-03-15 11:02:28:586,0,0.915707,-2.0771,-3.41467,Q,Q
2023-03-15 11:02:28:596,0,0.933176,-2.06148,-3.37387,Q,Q
2023-03-15 11:02:28:606,0,0.940758,-2.04459,-3.33773,Q,Q
2023-03-15 11:02:28:616,0,0.939717,-2.02441,-3.30103,Q,Q
2023-03-15 11:02:28:626,0,0.932349,-2.00024,-3.26612,Q,Q
2023-03-15 11:02:28:636,0,0.929034,-1.97934,-3.23097,Q,Q
2023-03-15 11:02:28:646,0,0.92421,-1.96139,-3.19667,Q,Q
2023-03-15 11:02:28:656,0,0.919134,-1.95355,-3.16346,Q,Q
2023-03-15 11:02:28:666,0,0.922873,-1.94725,-3.13242,Q,Q
2023-03-15 11:02:28:676,0,0.919957,-1.94364,-3.10793,Q,Q
2023-03-15 11:02:28:686,0,0.90999,-1.94627,-3.08626,Q,Q
2023-03-15 11:02:28:696,0,0.896775,-1.94538,-3.07315,Q,Q
2023-03-15 11:02:28:706,0,0.883781,-1.9494,-3.06443,Q,Q
2023-03-15 11:02:28:716,0,0.878593,-1.95431,-3.05531,Q,Q
2023-03-15 11:02:28:726,0,0.878739,-1.95921,-3.04663,Q,Q
2023-03-15 11:02:28:736,0,0.881541,-1.96394,-3.04054,Q,Q
2023-03-15 11:02:28:746,0,0.886013,-1.96177,-3.03388,Q,Q
2023-03-15 11:02:28:756,0,0.885303,-1.9552,-3.02764,Q,Q
2023-03-15 11:02:28:766,0,0.880919,-1.94743,-3.02088,Q,Q
2023-03-15 11:02:28:776,0,0.877727,-1.93704,-3.01412,Q,Q
2023-03-15 11:02:28:786,0,0.874254,-1.91897,-3.00351,Q,Q
2023-03-15 11:02:28:796,0,0.867624,-1.90013,-2.9905,Q,Q
2023-03-15 11:02:28:806,0,0.857205,-1.88081,-2.97402,Q,Q
2023-03-15 11:02:28:816,0,0.843097,-1.85959,-2.95789,Q,Q
2023-03-15 11:02:28:826,0,0.832741,-1.84068,-2.94004,Q,Q
2023-03-15 11:02:28:836,0,0.828776,-1.82159,-2.92565,Q,Q
2023-03-15 11:02:28:846,0,0.823787,-1.80625,-2.91109,Q,Q
2023-03-15 11:02:28:856,0,0.81672,-1.79165,-2.89535,Q,Q
2023-03-15 11:02:28:866,0,0.811072,-1.77361,-2.88274,Q,Q
2023-03-15 11:02:28:876,0,0.807216,-1.75147,-2.87024,Q,Q
2023-03-15 11:02:28:886,0,0.801823,-1.73048,-2.8607,Q,Q
2023-03-15 11:02:28:896,0,0.799218,-1.70952,-2.84846,Q,Q
2023-03-15 11:02:28:906,0,0.792816,-1.69415,-2.83393,Q,Q
2023-03-15 11:02:28:916,0,0.786129,-1.67922,-2.8192,Q,Q
2023-03-15 11:02:28:926,0,0.776924,-1.66566,-2.80197,Q,Q
2023-03-15 11:02:28:936,0,0.768857,-1.65578,-2.78325,Q,Q
2023-03-15 11:02:28:946,0,0.767522,-1.64698,-2.76898,Q,Q
2023-03-15 11:02:28:956,0,0.771524,-1.64074,-2.75131,Q,Q
2023-03-15 11:02:28:966,0,0.776493,-1.6342,-2.73108,Q,Q
2023-03-15 11:02:28:976,0,0.782657,-1.63449,-2.70804,Q,Q
2023-03-15 11:02:28:986,0,0.789698,-1.63154,-2.68293,Q,Q
2023-03-15 11:02:28:996,0,0.788203,-1.63525,-2.65905,Q,Q
2023-03-15 11:02:29:6,0,0.792918,-1.63727,-2.63625,Q,Q
2023-03-15 11:02:29:16,0,0.794629,-1.63997,-2.60543,Q,Q
2023-03-15 11:02:29:26,0,0.796387,-1.64635,-2.57239,Q,Q
2023-03-15 11:02:29:36,0,0.796164,-1.65237,-2.54392,Q,Q
2023-03-15 11:02:29:46,0,0.793729,-1.65979,-2.51578,Q,Q
2023-03-15 11:02:29:56,0,0.792014,-1.66891,-2.48986,Q,Q
2023-03-15 11:02:29:66,0,0.791468,-1.68239,-2.46023,Q,Q
2023-03-15 11:02:29:76,0,0.790185,-1.69862,-2.43334,Q,Q
2023-03-15 11:02:29:86,0,0.79489,-1.71268,-2.40513,Q,Q
2023-03-15 11:02:29:96,0,0.797381,-1.72599,-2.37537,Q,Q
2023-03-15 11:02:29:106,0,0.803552,-1.73797,-2.34585,Q,Q
2023-03-15 11:02:29:116,0,0.806013,-1.746,-2.31448,Q,Q
2023-03-15 11:02:29:126,0,0.808802,-1.7513,-2.28222,Q,Q
2023-03-15 11:02:29:136,0,0.814315,-1.75323,-2.2488,Q,Q
2023-03-15 11:02:29:146,0,0.825871,-1.75353,-2.21035,Q,Q
2023-03-15 11:02:29:156,0,0.832864,-1.75459,-2.17203,Q,Q
2023-03-15 11:02:29:166,0,0.840992,-1.75666,-2.12907,Q,Q
2023-03-15 11:02:29:176,0,0.845912,-1.75836,-2.08667,Q,Q
2023-03-15 11:02:29:186,0,0.851992,-1.76,-2.05008,Q,Q
2023-03-15 11:02:29:196,0,0.852507,-1.76114,-2.01446,Q,Q
2023-03-15 11:02:29:206,0,0.85136,-1.76417,-1.98438,Q,Q
2023-03-15 11:02:29:216,0,0.848883,-1.76257,-1.95468,Q,Q
2023-03-15 11:02:29:226,0,0.841698,-1.75894,-1.92986,Q,Q
2023-03-15 11:02:29:236,0,0.836559,-1.74823,-1.9048,Q,Q
2023-03-15 11:02:29:246,0,0.831721,-1.73639,-1.8837,Q,Q
2023-03-15 11:02:29:256,0,0.824866,-1.72368,-1.86331,Q,Q
2023-03-15 11:02:29:266,0,0.818897,-1.71062,-1.84322,Q,Q
2023-03-15 11:02:29:276,0,0.816438,-1.69698,-1.82428,Q,Q
2023-03-15 11:02:29:286,0,0.815392,-1.67913,-1.80862,Q,Q
2023-03-15 11:02:29:296,0,0.815192,-1.66091,-1.79034,Q,Q
2023-03-15 11:02:29:306,0,0.812149,-1.6429,-1.77317,Q,Q
2023-03-15 11:02:29:316,0,0.802515,-1.62319,-1.75633,Q,Q
2023-03-15 11:02:29:326,0,0.795161,-1.60591,-1.73887,Q,Q
2023-03-15 11:02:29:336,0,0.795229,-1.58883,-1.71961,Q,Q
2023-03-15 11:02:29:346,0,0.794645,-1.57937,-1.6985,Q,Q
2023-03-15 11:02:29:356,0,0.793475,-1.57603,-1.67962,Q,Q
2023-03-15 11:02:29:366,0,0.791308,-1.57348,-1.65733,Q,Q
2023-03-15 11:02:29:376,0,0.786403,-1.56865,-1.63615,Q,Q
2023-03-15 11:02:29:386,0,0.777366,-1.56291,-1.61734,Q,Q
2023-03-15 11:02:29:396,0,0.761605,-1.55329,-1.60004,Q,Q
2023-03-15 11:02:29:406,0,0.741439,-1.54284,-1.58057,Q,Q
2023-03-15 11:02:29:416,0,0.714931,-1.54944,-1.56737,Q,Q
2023-03-15 11:02:29:426,0,0.681672,-1.54791,-1.5514,Q,Q
2023-03-15 11:02:29:436,0,0.650436,-1.54314,-1.53913,Q,Q
2023-03-15 11:02:29:446,0,0.626177,-1.53007,-1.5301,Q,Q
2023-03-15 11:02:29:456,0,0.610464,-1.51808,-1.52036,Q,Q
2023-03-15 11:02:29:466,0,0.58656,-1.50466,-1.5154,Q,Q
2023-03-15 11:02:29:476,0,0.559329,-1.48672,-1.5098,Q,Q
2023-03-15 11:02:29:486,0,0.52695,-1.47306,-1.50888,Q,Q
2023-03-15 11:02:29:496,0,0.494902,-1.45858,-1.50829,Q,Q
2023-03-15 11:02:29:506,0,0.468615,-1.44631,-1.50592,Q,Q
2023-03-15 11:02:29:516,0,0.447398,-1.43442,-1.49651,Q,Q
2023-03-15 11:02:29:526,0,0.433919,-1.42387,-1.48029,Q,Q
2023-03-15 11:02:29:536,0,0.418588,-1.41575,-1.46097,Q,Q
2023-03-15 11:02:29:546,0,0.401661,-1.40848,-1.43687,Q,Q
2023-03-15 11:02:29:556,0,0.386355,-1.40265,-1.41211,Q,Q
2023-03-15 11:02:29:566,0,0.368269,-1.39897,-1.38706,Q,Q
2023-03-15 11:02:29:576,0,0.355345,-1.38602,-1.36203,Q,Q
2023-03-15 11:02:29:586,0,0.347646,-1.37643,-1.33644,Q,Q
2023-03-15 11:02:29:595,0,0.342773,-1.36664,-1.31022,Q,Q
2023-03-15 11:02:29:606,0,0.342727,-1.35891,-1.28327,Q,Q
2023-03-15 11:02:29:616,0,0.342417,-1.35449,-1.2537,Q,Q
2023-03-15 11:02:29:626,0,0.336661,-1.34491,-1.22843,Q,Q
2023-03-15 11:02:29:636,0,0.327576,-1.33269,-1.20184,Q,Q
2023-03-15 11:02:29:646,0,0.323422,-1.31906,-1.18117,Q,Q
2023-03-15 11:02:29:656,0,0.319954,-1.30298,-1.16212,Q,Q
2023-03-15 11:02:29:666,0,0.316588,-1.29003,-1.14769,Q,Q
2023-03-15 11:02:29:676,0,0.319192,-1.27991,-1.1304,Q,Q
2023-03-15 11:02:29:686,0,0.325867,-1.27153,-1.11723,Q,Q
2023-03-15 11:02:29:696,0,0.332457,-1.2675,-1.10309,Q,Q
2023-03-15 11:02:29:706,0,0.341181,-1.2659,-1.09089,Q,Q
2023-03-15 11:02:29:716,0,0.350921,-1.26561,-1.0778,Q,Q
2023-03-15 11:02:29:726,0,0.360605,-1.27173,-1.07066,Q,Q
2023-03-15 11:02:29:736,0,0.365057,-1.27703,-1.05922,Q,Q
2023-03-15 11:02:29:746,0,0.371105,-1.28156,-1.0488,Q,Q
2023-03-15 11:02:29:756,0,0.376545,-1.28495,-1.0367,Q,Q
2023-03-15 11:02:29:766,0,0.376683,-1.29099,-1.02778,Q,Q
2023-03-15 11:02:29:776,0,0.37724,-1.29785,-1.01322,Q,Q
2023-03-15 11:02:29:786,0,0.378454,-1.30631,-0.996685,Q,Q
2023-03-15 11:02:29:796,0,0.377369,-1.31263,-0.981927,Q,Q
2023-03-15 11:02:29:806,0,0.372153,-1.31456,-0.965763,Q,Q
2023-03-15 11:02:29:816,0,0.36795,-1.31926,-0.947763,Q,Q
2023-03-15 11:02:29:826,0,0.364788,-1.31998,-0.930342,Q,Q
2023-03-15 11:02:29:836,0,0.361911,-1.32169,-0.912506,Q,Q
2023-03-15 11:02:29:846,0,0.361586,-1.32387,-0.898095,Q,Q
2023-03-15 11:02:29:856,0,0.362146,-1.32153,-0.882321,Q,Q
2023-03-15 11:02:29:866,0,0.361142,-1.32015,-0.871035,Q,Q
2023-03-15 11:02:29:876,0,0.364033,-1.31913,-0.859361,Q,Q
2023-03-15 11:02:29:886,0,0.364649,-1.31678,-0.846378,Q,Q
2023-03-15 11:02:29:896,0,0.365414,-1.31604,-0.835958,Q,Q
2023-03-15 11:02:29:906,0,0.367516,-1.31763,-0.827223,Q,Q
2023-03-15 11:02:29:916,0,0.366656,-1.32015,-0.822139,Q,Q
2023-03-15 11:02:29:926,0,0.360836,-1.32102,-0.816454,Q,Q
2023-03-15 11:02:29:936,0,0.35893,-1.32326,-0.816021,Q,Q
2023-03-15 11:02:29:946,0,0.361537,-1.32338,-0.812845,Q,Q
2023-03-15 11:02:29:956,0,0.363167,-1.32323,-0.808163,Q,Q
2023-03-15 11:02:29:966,0,0.36196,-1.32682,-0.799192,Q,Q
2023-03-15 11:02:29:976,0,0.36015,-1.32891,-0.793732,Q,Q
2023-03-15 11:02:29:986,0,0.35578,-1.32961,-0.786314,Q,Q
2023-03-15 11:02:29:996,0,0.349406,-1.33136,-0.782737,Q,Q
2023-03-15 11:02:30:6,0,0.348369,-1.332,-0.781107,Q,Q
2023-03-15 11:02:30:16,0,0.344506,-1.32865,-0.776946,Q,Q
2023-03-15 11:02:30:26,0,0.335812,-1.32587,-0.777312,Q,Q
2023-03-15 11:02:30:36,0,0.328517,-1.32665,-0.777042,Q,Q
2023-03-15 11:02:30:46,0,0.32745,-1.33139,-0.771971,Q,Q
2023-03-15 11:02:30:56,0,0.329429,-1.33904,-0.76651,Q,Q
2023-03-15 11:02:30:66,0,0.332864,-1.35186,-0.758567,Q,Q
2023-03-15 11:02:30:76,0,0.337777,-1.36298,-0.749023,Q,Q
2023-03-15 11:02:30:86,0,0.337837,-1.37747,-0.73694,Q,Q
2023-03-15 11:02:30:96,0,0.336958,-1.39134,-0.728738,Q,Q
2023-03-15 11:02:30:106,0,0.339653,-1.40458,-0.723145,Q,Q
2023-03-15 11:02:30:116,0,0.342221,-1.41203,-0.716166,Q,Q
2023-03-15 11:02:30:126,0,0.345669,-1.42235,-0.708986,Q,Q
2023-03-15 11:02:30:136,0,0.354836,-1.43596,-0.698905,Q,Q
2023-03-15 11:02:30:146,0,0.363172,-1.44922,-0.687859,Q,Q
2023-03-15 11:02:30:156,0,0.376538,-1.46516,-0.681853,Q,Q
2023-03-15 11:02:30:166,0,0.388955,-1.47677,-0.671762,Q,Q
2023-03-15 11:02:30:176,0,0.397225,-1.48367,-0.661083,Q,Q
2023-03-15 11:02:30:186,0,0.402038,-1.4952,-0.654051,Q,Q
2023-03-15 11:02:30:196,0,0.407342,-1.50588,-0.64397,Q,Q
2023-03-15 11:02:30:206,0,0.413129,-1.51572,-0.632409,Q,Q
2023-03-15 11:02:30:216,0,0.419794,-1.53181,-0.619005,Q,Q
2023-03-15 11:02:30:226,0,0.429042,-1.54404,-0.610415,Q,Q
2023-03-15 11:02:30:236,0,0.434566,-1.55455,-0.597088,Q,Q
2023-03-15 11:02:30:246,0,0.444627,-1.57266,-0.580615,Q,Q
2023-03-15 11:02:30:256,0,0.45031,-1.58885,-0.565906,Q,Q
2023-03-15 11:02:30:266,0,0.454543,-1.60005,-0.545435,Q,Q
2023-03-15 11:02:30:276,0,0.462778,-1.61352,-0.525651,Q,Q
2023-03-15 11:02:30:286,0,0.468934,-1.62859,-0.500488,Q,Q
2023-03-15 11:02:30:296,0,0.474513,-1.64006,-0.477673,Q,Q
2023-03-15 11:02:30:306,0,0.484635,-1.65499,-0.45124,Q,Q
2023-03-15 11:02:30:316,0,0.494261,-1.67216,-0.422946,Q,Q
2023-03-15 11:02:30:326,0,0.503281,-1.69193,-0.394639,Q,Q
2023-03-15 11:02:30:336,0,0.51502,-1.71128,-0.364469,Q,Q
2023-03-15 11:02:30:346,0,0.52345,-1.73328,-0.336746,Q,Q
2023-03-15 11:02:30:356,0,0.534716,-1.74907,-0.309595,Q,Q
2023-03-15 11:02:30:366,0,0.542392,-1.76284,-0.288229,Q,Q
2023-03-15 11:02:30:376,0,0.550505,-1.78003,-0.268496,Q,Q
2023-03-15 11:02:30:386,0,0.560442,-1.79188,-0.246745,Q,Q
2023-03-15 11:02:30:396,0,0.560884,-1.80276,-0.227374,Q,Q
2023-03-15 11:02:30:406,0,0.55801,-1.81284,-0.211836,Q,Q
2023-03-15 11:02:30:416,0,0.550138,-1.82351,-0.202221,Q,Q
2023-03-15 11:02:30:426,0,0.537113,-1.83241,-0.193366,Q,Q
2023-03-15 11:02:30:436,0,0.523155,-1.83667,-0.186747,Q,Q
2023-03-15 11:02:30:446,0,0.507716,-1.8429,-0.181612,Q,Q
2023-03-15 11:02:30:456,0,0.494288,-1.84238,-0.175875,Q,Q
2023-03-15 11:02:30:466,0,0.480483,-1.84675,-0.167456,Q,Q
2023-03-15 11:02:30:476,0,0.471311,-1.84793,-0.156194,Q,Q
2023-03-15 11:02:30:486,0,0.469342,-1.85577,-0.144329,Q,Q
2023-03-15 11:02:30:496,0,0.469576,-1.86955,-0.130765,Q,Q
2023-03-15 11:02:30:506,0,0.471145,-1.88059,-0.1124,Q,Q
2023-03-15 11:02:30:516,0,0.471011,-1.8897,-0.0967592,Q,Q
2023-03-15 11:02:30:526,0,0.473868,-1.89934,-0.0790068,Q,Q
2023-03-15 11:02:30:536,0,0.473829,-1.91227,-0.0593889,Q,Q
2023-03-15 11:02:30:546,0,0.47576,-1.92228,-0.0437893,Q,Q
2023-03-15 11:02:30:556,0,0.475779,-1.93199,-0.0279592,Q,Q
2023-03-15 11:02:30:566,0,0.473993,-1.93935,-0.0179032,Q,Q
2023-03-15 11:02:30:576,0,0.469797,-1.94524,-0.0054786,Q,Q
2023-03-15 11:02:30:586,0,0.46365,-1.95166,-0.00220211,Q,Q
2023-03-15 11:02:30:596,0,0.461885,-1.96174,-0.0019266,Q,Q
2023-03-15 11:02:30:606,0,0.460498,-1.97226,-0.00501967,Q,Q
2023-03-15 11:02:30:616,0,0.459979,-1.97552,-0.00550311,Q,Q
2023-03-15 11:02:30:626,0,0.458923,-1.97579,-0.00153922,Q,Q
2023-03-15 11:02:30:636,0,0.461614,-1.97649,0.00195604,Q,Q
2023-03-15 11:02:30:646,0,0.464285,-1.97756,0.0088393,Q,Q
2023-03-15 11:02:30:656,0,0.457424,-1.98043,0.0171945,Q,Q
2023-03-15 11:02:30:666,0,0.447479,-1.98118,0.0236279,Q,Q
2023-03-15 11:02:30:676,0,0.435792,-1.97906,0.0298995,Q,Q
2023-03-15 11:02:30:686,0,0.426767,-1.97982,0.0365346,Q,Q
2023-03-15 11:02:30:696,0,0.420778,-1.98197,0.0481653,Q,Q
2023-03-15 11:02:30:706,0,0.418708,-1.98407,0.0562233,Q,Q
2023-03-15 11:02:30:716,0,0.415736,-1.99034,0.0698273,Q,Q
2023-03-15 11:02:30:726,0,0.416131,-1.99863,0.077598,Q,Q
2023-03-15 11:02:30:736,0,0.41667,-2.0062,0.0876143,Q,Q
2023-03-15 11:02:30:746,0,0.417541,-2.01351,0.0961438,Q,Q
2023-03-15 11:02:30:756,0,0.417249,-2.01883,0.106979,Q,Q
2023-03-15 11:02:30:766,0,0.419718,-2.02408,0.115231,Q,Q
2023-03-15 11:02:30:776,0,0.423039,-2.02639,0.120294,Q,Q
2023-03-15 11:02:30:786,0,0.425515,-2.02753,0.127166,Q,Q
2023-03-15 11:02:30:796,0,0.430776,-2.03316,0.133744,Q,Q
2023-03-15 11:02:30:806,0,0.433627,-2.03786,0.144409,Q,Q
2023-03-15 11:02:30:816,0,0.437843,-2.03365,0.154497,Q,Q
2023-03-15 11:02:30:826,0,0.439971,-2.03049,0.164462,Q,Q
2023-03-15 11:02:30:836,0,0.440437,-2.02962,0.173987,Q,Q
2023-03-15 11:02:30:846,0,0.441993,-2.02578,0.189019,Q,Q
2023-03-15 11:02:30:856,0,0.446332,-2.02475,0.204659,Q,Q
2023-03-15 11:02:30:866,0,0.450664,-2.03145,0.226338,Q,Q
2023-03-15 11:02:30:876,0,0.453412,-2.04063,0.249174,Q,Q
2023-03-15 11:02:30:886,0,0.450534,-2.05007,0.275778,Q,Q
2023-03-15 11:02:30:896,0,0.442501,-2.058,0.29814,Q,Q
2023-03-15 11:02:30:906,0,0.437326,-2.06143,0.32055,Q,Q
2023-03-15 11:02:30:916,0,0.43165,-2.06751,0.343087,Q,Q
2023-03-15 11:02:30:926,0,0.423164,-2.07176,0.363964,Q,Q
2023-03-15 11:02:30:936,0,0.417713,-2.07395,0.385474,Q,Q
2023-03-15 11:02:30:946,0,0.407846,-2.0766,0.409091,Q,Q
2023-03-15 11:02:30:956,0,0.398032,-2.07969,0.429653,Q,Q
2023-03-15 11:02:30:966,0,0.389342,-2.07865,0.446109,Q,Q
2023-03-15 11:02:30:976,0,0.379791,-2.08469,0.467056,Q,Q
2023-03-15 11:02:30:986,0,0.37017,-2.09384,0.478277,Q,Q
2023-03-15 11:02:30:996,0,0.360567,-2.09575,0.487417,Q,Q
2023-03-15 11:02:31:6,0,0.354031,-2.0936,0.495423,Q,Q
2023-03-15 11:02:31:16,0,0.355405,-2.08942,0.502349,Q,Q
2023-03-15 11:02:31:26,0,0.354986,-2.08656,0.504573,Q,Q
2023-03-15 11:02:31:36,0,0.355565,-2.08827,0.507191,Q,Q
2023-03-15 11:02:31:46,0,0.357582,-2.08336,0.506513,Q,Q
2023-03-15 11:02:31:56,0,0.359024,-2.08347,0.506677,Q,Q
2023-03-15 11:02:31:66,0,0.357235,-2.07883,0.505721,Q,Q
2023-03-15 11:02:31:76,0,0.359515,-2.07736,0.508037,Q,Q
2023-03-15 11:02:31:86,0,0.358895,-2.07174,0.506685,Q,Q
2023-03-15 11:02:31:96,0,0.355643,-2.06475,0.504291,Q,Q
2023-03-15 11:02:31:106,0,0.350932,-2.05739,0.502121,Q,Q
2023-03-15 11:02:31:116,0,0.347833,-2.05304,0.504492,Q,Q
2023-03-15 11:02:31:126,0,0.341282,-2.0465,0.511662,Q,Q
2023-03-15 11:02:31:136,0,0.332707,-2.04119,0.520291,Q,Q
2023-03-15 11:02:31:146,0,0.329511,-2.03721,0.527129,Q,Q
2023-03-15 11:02:31:156,0,0.320762,-2.03045,0.538816,Q,Q
2023-03-15 11:02:31:166,0,0.309331,-2.02267,0.547342,Q,Q
2023-03-15 11:02:31:176,0,0.295106,-2.01385,0.556104,Q,Q
2023-03-15 11:02:31:186,0,0.279958,-1.99831,0.561771,Q,Q
2023-03-15 11:02:31:196,0,0.262169,-1.98396,0.565296,Q,Q
2023-03-15 11:02:31:206,0,0.245005,-1.97243,0.562384,Q,Q
2023-03-15 11:02:31:216,0,0.224461,-1.96787,0.560638,Q,Q
2023-03-15 11:02:31:226,0,0.208048,-1.95982,0.557573,Q,Q
2023-03-15 11:02:31:236,0,0.196149,-1.94912,0.551536,Q,Q
2023-03-15 11:02:31:246,0,0.183608,-1.93917,0.541931,Q,Q
2023-03-15 11:02:31:256,0,0.176318,-1.93094,0.534789,Q,Q
2023-03-15 11:02:31:266,0,0.16819,-1.92379,0.522465,Q,Q
2023-03-15 11:02:31:276,0,0.161169,-1.91525,0.513132,Q,Q
2023-03-15 11:02:31:286,0,0.152386,-1.9095,0.496105,Q,Q
2023-03-15 11:02:31:296,0,0.143976,-1.90045,0.484766,Q,Q
2023-03-15 11:02:31:306,0,0.139216,-1.89663,0.471726,Q,Q
2023-03-15 11:02:31:316,0,0.12749,-1.89454,0.463867,Q,Q
2023-03-15 11:02:31:326,0,0.116546,-1.89445,0.455042,Q,Q
2023-03-15 11:02:31:336,0,0.106032,-1.89927,0.449515,Q,Q
2023-03-15 11:02:31:346,0,0.0890435,-1.90644,0.443854,Q,Q
2023-03-15 11:02:31:356,0,0.0753271,-1.91387,0.439641,Q,Q
2023-03-15 11:02:31:366,0,0.0591001,-1.9202,0.437931,Q,Q
2023-03-15 11:02:31:376,0,0.0434695,-1.92301,0.439598,Q,Q
2023-03-15 11:02:31:386,0,0.0324822,-1.92369,0.441155,Q,Q
2023-03-15 11:02:31:396,0,0.0255269,-1.92719,0.443696,Q,Q
2023-03-15 11:02:31:406,0,0.0202449,-1.92881,0.45298,Q,Q
2023-03-15 11:02:31:416,0,0.0160126,-1.93044,0.459646,Q,Q
2023-03-15 11:02:31:426,0,0.0172337,-1.92873,0.470573,Q,Q
2023-03-15 11:02:31:436,0,0.01341,-1.9312,0.482794,Q,Q
2023-03-15 11:02:31:446,0,0.0125165,-1.93247,0.494666,Q,Q
2023-03-15 11:02:31:456,0,0.0102669,-1.93309,0.509198,Q,Q
2023-03-15 11:02:31:466,0,0.00961428,-1.94002,0.524714,Q,Q
2023-03-15 11:02:31:476,0,0.00860821,-1.94538,0.537475,Q,Q
2023-03-15 11:02:31:486,0,0.00786375,-1.95178,0.549173,Q,Q
2023-03-15 11:02:31:496,0,0.00535103,-1.95799,0.557338,Q,Q
2023-03-15 11:02:31:506,0,0.0010177,-1.96468,0.564808,Q,Q
2023-03-15 11:02:31:516,0,-0.00515601,-1.97,0.573555,Q,Q
2023-03-15 11:02:31:526,0,-0.00594409,-1.97751,0.578194,Q,Q
2023-03-15 11:02:31:536,0,-0.00441172,-1.98879,0.584936,Q,Q
2023-03-15 11:02:31:546,0,0.00354399,-2.00103,0.594186,Q,Q
2023-03-15 11:02:31:556,0,0.0143124,-2.01411,0.604844,Q,Q
2023-03-15 11:02:31:566,0,0.0226231,-2.02729,0.619002,Q,Q
2023-03-15 11:02:31:576,0,0.0321734,-2.03746,0.629812,Q,Q
2023-03-15 11:02:31:586,0,0.0419977,-2.04919,0.641448,Q,Q
2023-03-15 11:02:31:596,0,0.0477282,-2.05679,0.656142,Q,Q
2023-03-15 11:02:31:606,0,0.0560885,-2.0631,0.673039,Q,Q
2023-03-15 11:02:31:616,0,0.0637845,-2.06983,0.692561,Q,Q
2023-03-15 11:02:31:626,0,0.0731269,-2.07756,0.713237,Q,Q
2023-03-15 11:02:31:635,0,0.0812457,-2.08288,0.738064,Q,Q
2023-03-15 11:02:31:646,0,0.0943959,-2.08618,0.7607,Q,Q
2023-03-15 11:02:31:656,0,0.108041,-2.08886,0.78203,Q,Q
2023-03-15 11:02:31:666,0,0.116715,-2.08906,0.800472,Q,Q
2023-03-15 11:02:31:676,0,0.122483,-2.08571,0.818492,Q,Q
2023-03-15 11:02:31:686,0,0.132124,-2.08072,0.840117,Q,Q
2023-03-15 11:02:31:696,0,0.139606,-2.07432,0.86731,Q,Q
2023-03-15 11:02:31:706,0,0.141948,-2.06626,0.894005,Q,Q
2023-03-15 11:02:31:716,0,0.138191,-2.0609,0.922259,Q,Q
2023-03-15 11:02:31:726,0,0.125862,-2.05364,0.945811,Q,Q
2023-03-15 11:02:31:736,0,0.1105,-2.04308,0.963286,Q,Q
2023-03-15 11:02:31:746,0,0.097521,-2.03244,0.977059,Q,Q
2023-03-15 11:02:31:756,0,0.0869077,-2.0187,0.98482,Q,Q
2023-03-15 11:02:31:766,0,0.0792384,-2.00671,0.989657,Q,Q
2023-03-15 11:02:31:776,0,0.0737893,-1.99311,0.989799,Q,Q
2023-03-15 11:02:31:786,0,0.0651528,-1.98066,0.986187,Q,Q
2023-03-15 11:02:31:796,0,0.0585068,-1.96124,0.981252,Q,Q
2023-03-15 11:02:31:806,0,0.0512943,-1.94842,0.975615,Q,Q
2023-03-15 11:02:31:816,0,0.0441976,-1.93495,0.965585,Q,Q
2023-03-15 11:02:31:826,0,0.0388585,-1.92507,0.952707,Q,Q
2023-03-15 11:02:31:836,0,0.0350479,-1.91516,0.933532,Q,Q
2023-03-15 11:02:31:846,0,0.0291201,-1.90414,0.915584,Q,Q
2023-03-15 11:02:31:856,0,0.0258318,-1.89133,0.898398,Q,Q
2023-03-15 11:02:31:866,0,0.0219033,-1.88275,0.884227,Q,Q
2023-03-15 11:02:31:876,0,0.0207825,-1.87482,0.869538,Q,Q
2023-03-15 11:02:31:886,0,0.0175417,-1.86823,0.857067,Q,Q
2023-03-15 11:02:31:896,0,0.0152304,-1.86498,0.847681,Q,Q
2023-03-15 11:02:31:906,0,0.013422,-1.86196,0.841387,Q,Q
2023-03-15 11:02:31:916,0,0.0101601,-1.85849,0.836467,Q,Q
2023-03-15 11:02:31:926,0,0.00807192,-1.85319,0.834776,Q,Q
2023-03-15 11:02:31:936,0,0.00602532,-1.84971,0.831734,Q,Q
2023-03-15 11:02:31:946,0,0.00302046,-1.84666,0.83656,Q,Q
2023-03-15 11:02:31:956,0,-0.00293697,-1.84795,0.84002,Q,Q
2023-03-15 11:02:31:966,0,-0.00976197,-1.84732,0.842686,Q,Q
2023-03-15 11:02:31:976,0,-0.0193257,-1.84226,0.847674,Q,Q
2023-03-15 11:02:31:986,0,-0.031741,-1.83822,0.846922,Q,Q
2023-03-15 11:02:31:996,0,-0.0452055,-1.82815,0.845968,Q,Q
2023-03-15 11:02:32:6,0,-0.057717,-1.81543,0.846645,Q,Q
2023-03-15 11:02:32:16,0,-0.0737053,-1.79776,0.842046,Q,Q
2023-03-15 11:02:32:26,0,-0.0943465,-1.77524,0.840105,Q,Q
2023-03-15 11:02:32:36,0,-0.116636,-1.74991,0.838513,Q,Q
2023-03-15 11:02:32:46,0,-0.142907,-1.72842,0.838479,Q,Q
2023-03-15 11:02:32:56,0,-0.174306,-1.70854,0.834751,Q,Q
2023-03-15 11:02:32:66,0,-0.206498,-1.68903,0.827303,Q,Q
2023-03-15 11:02:32:76,0,-0.23438,-1.66739,0.813405,Q,Q
2023-03-15 11:02:32:86,0,-0.256906,-1.64496,0.802704,Q,Q
2023-03-15 11:02:32:96,0,-0.274087,-1.62597,0.790732,Q,Q
2023-03-15 11:02:32:106,0,-0.285442,-1.6114,0.780577,Q,Q
2023-03-15 11:02:32:116,0,-0.299445,-1.59989,0.763984,Q,Q
2023-03-15 11:02:32:126,0,-0.316556,-1.5879,0.754157,Q,Q
2023-03-15 11:02:32:136,0,-0.333062,-1.58069,0.744668,Q,Q
2023-03-15 11:02:32:146,0,-0.345198,-1.56967,0.7335,Q,Q
2023-03-15 11:02:32:156,0,-0.353616,-1.56037,0.726011,Q,Q
2023-03-15 11:02:32:166,0,-0.359396,-1.55135,0.720737,Q,Q
2023-03-15 11:02:32:176,0,-0.360959,-1.54203,0.721104,Q,Q
2023-03-15 11:02:32:186,0,-0.362441,-1.53468,0.727256,Q,Q
2023-03-15 11:02:32:196,0,-0.364833,-1.51923,0.736591,Q,Q
2023-03-15 11:02:32:206,0,-0.365759,-1.50715,0.748457,Q,Q
2023-03-15 11:02:32:216,0,-0.363502,-1.48983,0.76279,Q,Q
2023-03-15 11:02:32:226,0,-0.361427,-1.47394,0.776778,Q,Q
2023-03-15 11:02:32:236,0,-0.363407,-1.45797,0.790033,Q,Q
2023-03-15 11:02:32:246,0,-0.364676,-1.44206,0.80443,Q,Q
2023-03-15 11:02:32:256,0,-0.366973,-1.43055,0.81907,Q,Q
2023-03-15 11:02:32:266,0,-0.36958,-1.42271,0.833849,Q,Q
2023-03-15 11:02:32:276,0,-0.372193,-1.4143,0.84628,Q,Q
2023-03-15 11:02:32:286,0,-0.375802,-1.40781,0.85364,Q,Q
2023-03-15 11:02:32:296,0,-0.383121,-1.40726,0.862239,Q,Q
2023-03-15 11:02:32:306,0,-0.385384,-1.40399,0.869269,Q,Q
2023-03-15 11:02:32:316,0,-0.38993,-1.40069,0.874236,Q,Q
2023-03-15 11:02:32:326,0,-0.39628,-1.39543,0.880284,Q,Q
2023-03-15 11:02:32:336,0,-0.401392,-1.39334,0.888216,Q,Q
2023-03-15 11:02:32:346,0,-0.405888,-1.38859,0.894559,Q,Q
2023-03-15 11:02:32:356,0,-0.410812,-1.38116,0.897748,Q,Q
2023-03-15 11:02:32:366,0,-0.41705,-1.37046,0.901023,Q,Q
2023-03-15 11:02:32:376,0,-0.420667,-1.35738,0.90847,Q,Q
2023-03-15 11:02:32:386,0,-0.424436,-1.34737,0.914219,Q,Q
2023-03-15 11:02:32:396,0,-0.430584,-1.33846,0.921731,Q,Q
2023-03-15 11:02:32:406,0,-0.438981,-1.33114,0.926874,Q,Q
2023-03-15 11:02:32:416,0,-0.449363,-1.32136,0.929798,Q,Q
2023-03-15 11:02:32:426,0,-0.461947,-1.31516,0.929829,Q,Q
2023-03-15 11:02:32:436,0,-0.472879,-1.30954,0.928995,Q,Q
2023-03-15 11:02:32:446,0,-0.483967,-1.30114,0.927841,Q,Q
2023-03-15 11:02:32:456,0,-0.492394,-1.29205,0.921884,Q,Q
2023-03-15 11:02:32:466,0,-0.501872,-1.28424,0.913366,Q,Q
2023-03-15 11:02:32:476,0,-0.511151,-1.27532,0.907156,Q,Q
2023-03-15 11:02:32:486,0,-0.518348,-1.26685,0.899661,Q,Q
2023-03-15 11:02:32:496,0,-0.525918,-1.2581,0.895556,Q,Q
2023-03-15 11:02:32:506,0,-0.531518,-1.25345,0.892353,Q,Q
2023-03-15 11:02:32:516,0,-0.538521,-1.2461,0.885564,Q,Q
2023-03-15 11:02:32:526,0,-0.544889,-1.23621,0.878105,Q,Q
2023-03-15 11:02:32:536,0,-0.550452,-1.22619,0.873218,Q,Q
2023-03-15 11:02:32:546,0,-0.553846,-1.22294,0.868644,Q,Q
2023-03-15 11:02:32:556,0,-0.553741,-1.22229,0.865322,Q,Q
2023-03-15 11:02:32:566,0,-0.554806,-1.2234,0.861596,Q,Q
2023-03-15 11:02:32:576,0,-0.556704,-1.22402,0.861285,Q,Q
2023-03-15 11:02:32:586,0,-0.561917,-1.22188,0.860915,Q,Q
2023-03-15 11:02:32:596,0,-0.570574,-1.21267,0.857314,Q,Q
2023-03-15 11:02:32:606,0,-0.577665,-1.20172,0.855842,Q,Q
2023-03-15 11:02:32:616,0,-0.58032,-1.19557,0.85567,Q,Q
2023-03-15 11:02:32:626,0,-0.583757,-1.19688,0.862071,Q,Q
2023-03-15 11:02:32:636,0,-0.583852,-1.19818,0.868388,Q,Q
2023-03-15 11:02:32:646,0,-0.58179,-1.19974,0.87515,Q,Q
2023-03-15 11:02:32:656,0,-0.580994,-1.19932,0.882545,Q,Q
2023-03-15 11:02:32:666,0,-0.578558,-1.1977,0.890684,Q,Q
2023-03-15 11:02:32:675,0,-0.577211,-1.19611,0.897197,Q,Q
2023-03-15 11:02:32:686,0,-0.578165,-1.19524,0.903123,Q,Q
2023-03-15 11:02:32:696,0,-0.579998,-1.1923,0.912034,Q,Q
2023-03-15 11:02:32:706,0,-0.582742,-1.18626,0.918886,Q,Q
2023-03-15 11:02:32:716,0,-0.587879,-1.18383,0.927986,Q,Q
2023-03-15 11:02:32:726,0,-0.593426,-1.17742,0.934554,Q,Q
2023-03-15 11:02:32:736,0,-0.599774,-1.16876,0.936017,Q,Q
2023-03-15 11:02:32:746,0,-0.60721,-1.16077,0.937848,Q,Q
2023-03-15 11:02:32:756,0,-0.617529,-1.15158,0.93928,Q,Q
2023-03-15 11:02:32:766,0,-0.623355,-1.14433,0.939781,Q,Q
2023-03-15 11:02:32:776,0,-0.635507,-1.13724,0.936172,Q,Q
2023-03-15 11:02:32:786,0,-0.645636,-1.13168,0.931916,Q,Q
2023-03-15 11:02:32:796,0,-0.655961,-1.13167,0.92976,Q,Q
2023-03-15 11:02:32:806,0,-0.669843,-1.12861,0.924221,Q,Q
2023-03-15 11:02:32:816,0,-0.678689,-1.12806,0.920118,Q,Q
2023-03-15 11:02:32:826,0,-0.681978,-1.12512,0.913481,Q,Q
2023-03-15 11:02:32:836,0,-0.683256,-1.12052,0.911968,Q,Q
2023-03-15 11:02:32:846,0,-0.692404,-1.11884,0.911561,Q,Q
2023-03-15 11:02:32:856,0,-0.69878,-1.11519,0.913949,Q,Q
2023-03-15 11:02:32:866,0,-0.701132,-1.10513,0.913241,Q,Q
2023-03-15 11:02:32:876,0,-0.704812,-1.09657,0.913491,Q,Q
2023-03-15 11:02:32:886,0,-0.704413,-1.0947,0.916395,Q,Q
2023-03-15 11:02:32:896,0,-0.709355,-1.09444,0.926773,Q,Q
2023-03-15 11:02:32:906,0,-0.711378,-1.09497,0.934186,Q,Q
2023-03-15 11:02:32:916,0,-0.718689,-1.09581,0.938601,Q,Q
2023-03-15 11:02:32:926,0,-0.724365,-1.0938,0.939706,Q,Q
2023-03-15 11:02:32:936,0,-0.726866,-1.08737,0.93854,Q,Q
2023-03-15 11:02:32:946,0,-0.727672,-1.08544,0.937087,Q,Q
2023-03-15 11:02:32:956,0,-0.7248,-1.08473,0.932848,Q,Q
2023-03-15 11:02:32:966,0,-0.722054,-1.08723,0.931052,Q,Q
2023-03-15 11:02:32:976,0,-0.722158,-1.08927,0.93275,Q,Q
2023-03-15 11:02:32:986,0,-0.721307,-1.08967,0.932048,Q,Q
2023-03-15 11:02:32:996,0,-0.723829,-1.09047,0.931066,Q,Q
2023-03-15 11:02:33:6,0,-0.731357,-1.09475,0.933946,Q,Q
2023-03-15 11:02:33:16,0,-0.735938,-1.09851,0.939091,Q,Q
2023-03-15 11:02:33:26,0,-0.741319,-1.10203,0.941057,Q,Q
2023-03-15 11:02:33:36,0,-0.745478,-1.10522,0.944616,Q,Q
2023-03-15 11:02:33:46,0,-0.750162,-1.11432,0.953555,Q,Q
2023-03-15 11:02:33:56,0,-0.756232,-1.12696,0.961832,Q,Q
2023-03-15 11:02:33:66,0,-0.762664,-1.13546,0.971663,Q,Q
2023-03-15 11:02:33:76,0,-0.763395,-1.14463,0.983418,Q,Q
2023-03-15 11:02:33:86,0,-0.761966,-1.1548,0.998582,Q,Q
2023-03-15 11:02:33:96,0,-0.755469,-1.16748,1.01275,Q,Q
2023-03-15 11:02:33:106,0,-0.756285,-1.17893,1.02971,Q,Q
2023-03-15 11:02:33:116,0,-0.758004,-1.1853,1.04177,Q,Q
2023-03-15 11:02:33:126,0,-0.760566,-1.18971,1.05625,Q,Q
2023-03-15 11:02:33:136,0,-0.761699,-1.2002,1.07078,Q,Q
2023-03-15 11:02:33:146,0,-0.769167,-1.21075,1.0812,Q,Q
2023-03-15 11:02:33:156,0,-0.774039,-1.22428,1.09157,Q,Q
2023-03-15 11:02:33:166,0,-0.776309,-1.23199,1.10057,Q,Q
2023-03-15 11:02:33:176,0,-0.770879,-1.2368,1.111,Q,Q
2023-03-15 11:02:33:186,0,-0.768728,-1.24312,1.12109,Q,Q
2023-03-15 11:02:33:196,0,-0.765356,-1.24931,1.12914,Q,Q
2023-03-15 11:02:33:206,0,-0.766022,-1.25538,1.13547,Q,Q
2023-03-15 11:02:33:216,0,-0.764157,-1.26305,1.14089,Q,Q
2023-03-15 11:02:33:226,0,-0.768019,-1.26845,1.14643,Q,Q
2023-03-15 11:02:33:236,0,-0.769639,-1.2759,1.14945,Q,Q
2023-03-15 11:02:33:246,0,-0.775623,-1.2851,1.15429,Q,Q
2023-03-15 11:02:33:256,0,-0.782453,-1.29497,1.16018,Q,Q
2023-03-15 11:02:33:266,0,-0.789838,-1.30499,1.16746,Q,Q
2023-03-15 11:02:33:276,0,-0.79143,-1.31033,1.17378,Q,Q
2023-03-15 11:02:33:286,0,-0.784166,-1.3122,1.18287,Q,Q
2023-03-15 11:02:33:296,0,-0.771539,-1.31287,1.19798,Q,Q
2023-03-15 11:02:33:306,0,-0.761965,-1.31632,1.21638,Q,Q
2023-03-15 11:02:33:316,0,-0.75164,-1.31876,1.23697,Q,Q
2023-03-15 11:02:33:326,0,-0.747203,-1.31994,1.26094,Q,Q
2023-03-15 11:02:33:336,0,-0.740317,-1.31977,1.28477,Q,Q
2023-03-15 11:02:33:346,0,-0.733829,-1.31793,1.31377,Q,Q
2023-03-15 11:02:33:356,0,-0.726219,-1.31697,1.34156,Q,Q
2023-03-15 11:02:33:366,0,-0.720223,-1.31867,1.36879,Q,Q
2023-03-15 11:02:33:376,0,-0.715003,-1.31458,1.38971,Q,Q
2023-03-15 11:02:33:386,0,-0.713236,-1.3194,1.41074,Q,Q
2023-03-15 11:02:33:396,0,-0.707159,-1.3198,1.42907,Q,Q
2023-03-15 11:02:33:406,0,-0.7022,-1.3248,1.43877,Q,Q
2023-03-15 11:02:33:416,0,-0.699692,-1.32983,1.44769,Q,Q
2023-03-15 11:02:33:426,0,-0.700079,-1.33565,1.45045,Q,Q
2023-03-15 11:02:33:436,0,-0.703623,-1.33863,1.45057,Q,Q
2023-03-15 11:02:33:446,0,-0.708534,-1.34756,1.44827,Q,Q
2023-03-15 11:02:33:456,0,-0.715565,-1.35195,1.44685,Q,Q
2023-03-15 11:02:33:466,0,-0.725045,-1.35552,1.44283,Q,Q
2023-03-15 11:02:33:476,0,-0.732694,-1.35524,1.43892,Q,Q
2023-03-15 11:02:33:486,0,-0.744905,-1.35582,1.43482,Q,Q
2023-03-15 11:02:33:496,0,-0.755616,-1.35536,1.43422,Q,Q
2023-03-15 11:02:33:506,0,-0.762055,-1.3561,1.4406,Q,Q
2023-03-15 11:02:33:516,0,-0.760618,-1.35331,1.44613,Q,Q
2023-03-15 11:02:33:526,0,-0.762064,-1.35188,1.45586,Q,Q
2023-03-15 11:02:33:536,0,-0.762262,-1.34478,1.46612,Q,Q
2023-03-15 11:02:33:546,0,-0.764765,-1.33245,1.47418,Q,Q
2023-03-15 11:02:33:556,0,-0.767692,-1.32316,1.48052,Q,Q
2023-03-15 11:02:33:566,0,-0.769544,-1.31246,1.48922,Q,Q
2023-03-15 11:02:33:576,0,-0.771883,-1.30547,1.4932,Q,Q
2023-03-15 11:02:33:586,0,-0.768812,-1.31058,1.50266,Q,Q
2023-03-15 11:02:33:596,0,-0.765499,-1.31899,1.51005,Q,Q
2023-03-15 11:02:33:606,0,-0.763775,-1.33024,1.51425,Q,Q
2023-03-15 11:02:33:616,0,-0.762653,-1.34019,1.51692,Q,Q
2023-03-15 11:02:33:626,0,-0.764847,-1.35191,1.51294,Q,Q
2023-03-15 11:02:33:636,0,-0.768575,-1.35701,1.50308,Q,Q
2023-03-15 11:02:33:646,0,-0.772869,-1.35829,1.49574,Q,Q
2023-03-15 11:02:33:656,0,-0.776444,-1.36158,1.49058,Q,Q
2023-03-15 11:02:33:666,0,-0.77964,-1.36185,1.49107,Q,Q
2023-03-15 11:02:33:676,0,-0.781109,-1.36038,1.49101,Q,Q
2023-03-15 11:02:33:686,0,-0.788548,-1.35948,1.48793,Q,Q
2023-03-15 11:02:33:696,0,-0.796114,-1.35387,1.48627,Q,Q
2023-03-15 11:02:33:706,0,-0.807583,-1.34754,1.48045,Q,Q
2023-03-15 11:02:33:716,0,-0.825079,-1.3422,1.47329,Q,Q
2023-03-15 11:02:33:726,0,-0.842453,-1.33896,1.46259,Q,Q
2023-03-15 11:02:33:736,0,-0.857057,-1.33419,1.44829,Q,Q
2023-03-15 11:02:33:746,0,-0.864718,-1.33299,1.42941,Q,Q
2023-03-15 11:02:33:756,0,-0.870748,-1.33041,1.40952,Q,Q
2023-03-15 11:02:33:766,0,-0.871942,-1.32511,1.39042,Q,Q
2023-03-15 11:02:33:776,0,-0.880846,-1.32062,1.37009,Q,Q
2023-03-15 11:02:33:786,0,-0.889826,-1.31586,1.34928,Q,Q
2023-03-15 11:02:33:796,0,-0.897319,-1.30826,1.33003,Q,Q
2023-03-15 11:02:33:806,0,-0.906049,-1.30535,1.31453,Q,Q
2023-03-15 11:02:33:816,0,-0.917382,-1.29817,1.29952,Q,Q
2023-03-15 11:02:33:826,0,-0.923917,-1.29117,1.28549,Q,Q
2023-03-15 11:02:33:836,0,-0.933305,-1.27827,1.27106,Q,Q
2023-03-15 11:02:33:846,0,-0.939944,-1.26722,1.26111,Q,Q
2023-03-15 11:02:33:856,0,-0.94455,-1.25709,1.25593,Q,Q
2023-03-15 11:02:33:866,0,-0.948457,-1.25184,1.25511,Q,Q
2023-03-15 11:02:33:876,0,-0.952698,-1.24758,1.25226,Q,Q
2023-03-15 11:02:33:886,0,-0.956288,-1.24061,1.24764,Q,Q
2023-03-15 11:02:33:896,0,-0.959012,-1.23262,1.24194,Q,Q
2023-03-15 11:02:33:906,0,-0.959513,-1.22739,1.23807,Q,Q
2023-03-15 11:02:33:916,0,-0.961963,-1.22031,1.23191,Q,Q
2023-03-15 11:02:33:926,0,-0.963423,-1.21655,1.22715,Q,Q
2023-03-15 11:02:33:936,0,-0.969035,-1.21214,1.22386,Q,Q
2023-03-15 11:02:33:946,0,-0.974603,-1.2118,1.22115,Q,Q
2023-03-15 11:02:33:956,0,-0.973771,-1.21226,1.2171,Q,Q
2023-03-15 11:02:33:966,0,-0.974819,-1.21488,1.21716,Q,Q
2023-03-15 11:02:33:976,0,-0.974656,-1.21574,1.21916,Q,Q
2023-03-15 11:02:33:986,0,-0.975194,-1.21517,1.22212,Q,Q
2023-03-15 11:02:33:996,0,-0.974276,-1.21425,1.22679,Q,Q
2023-03-15 11:02:34:6,0,-0.973855,-1.21484,1.23001,Q,Q
2023-03-15 11:02:34:16,0,-0.972703,-1.21336,1.2341,Q,Q
2023-03-15 11:02:34:26,0,-0.976309,-1.2132,1.23843,Q,Q
2023-03-15 11:02:34:36,0,-0.984009,-1.21239,1.24306,Q,Q
2023-03-15 11:02:34:46,0,-0.990317,-1.21667,1.24524,Q,Q
2023-03-15 11:02:34:56,0,-0.999913,-1.2175,1.25169,Q,Q
2023-03-15 11:02:34:66,0,-1.01056,-1.22093,1.25846,Q,Q
2023-03-15 11:02:34:76,0,-1.01797,-1.22107,1.26292,Q,Q
2023-03-15 11:02:34:86,0,-1.02313,-1.21862,1.26413,Q,Q
2023-03-15 11:02:34:96,0,-1.02718,-1.21971,1.26167,Q,Q
2023-03-15 11:02:34:106,0,-1.03011,-1.2211,1.2553,Q,Q
2023-03-15 11:02:34:116,0,-1.03077,-1.22349,1.25193,Q,Q
2023-03-15 11:02:34:126,0,-1.02744,-1.22219,1.24525,Q,Q
2023-03-15 11:02:34:136,0,-1.02229,-1.22336,1.23995,Q,Q
2023-03-15 11:02:34:146,0,-1.02062,-1.22505,1.23602,Q,Q
2023-03-15 11:02:34:156,0,-1.02673,-1.22692,1.23194,Q,Q
2023-03-15 11:02:34:166,0,-1.03242,-1.22633,1.22343,Q,Q
2023-03-15 11:02:34:176,0,-1.03817,-1.22364,1.21787,Q,Q
2023-03-15 11:02:34:186,0,-1.04114,-1.22155,1.20865,Q,Q
2023-03-15 11:02:34:196,0,-1.04214,-1.21782,1.20344,Q,Q
2023-03-15 11:02:34:206,0,-1.0445,-1.21514,1.19461,Q,Q
2023-03-15 11:02:34:216,0,-1.04608,-1.21547,1.18765,Q,Q
2023-03-15 11:02:34:226,0,-1.04336,-1.21599,1.17881,Q,Q
2023-03-15 11:02:34:236,0,-1.0404,-1.2154,1.16642,Q,Q
2023-03-15 11:02:34:246,0,-1.04019,-1.21553,1.15991,Q,Q
2023-03-15 11:02:34:256,0,-1.04189,-1.21403,1.15095,Q,Q
2023-03-15 11:02:34:266,0,-1.04327,-1.21343,1.14239,Q,Q
2023-03-15 11:02:34:276,0,-1.0476,-1.21193,1.13332,Q,Q
2023-03-15 11:02:34:285,0,-1.053,-1.21395,1.12301,Q,Q
2023-03-15 11:02:34:295,0,-1.057,-1.2119,1.1163,Q,Q
2023-03-15 11:02:34:306,0,-1.05995,-1.2087,1.10743,Q,Q
2023-03-15 11:02:34:316,0,-1.06333,-1.20615,1.09927,Q,Q
2023-03-15 11:02:34:326,0,-1.06527,-1.19936,1.09484,Q,Q
2023-03-15 11:02:34:336,0,-1.06631,-1.19642,1.08948,Q,Q
2023-03-15 11:02:34:346,0,-1.06785,-1.19097,1.08874,Q,Q
2023-03-15 11:02:34:356,0,-1.06664,-1.19049,1.0879,Q,Q
2023-03-15 11:02:34:366,0,-1.0677,-1.18807,1.08591,Q,Q
2023-03-15 11:02:34:376,0,-1.06536,-1.18756,1.08462,Q,Q
2023-03-15 11:02:34:386,0,-1.06659,-1.17871,1.08431,Q,Q
2023-03-15 11:02:34:396,0,-1.06936,-1.17612,1.0826,Q,Q
2023-03-15 11:02:34:406,0,-1.07729,-1.17238,1.07761,Q,Q
2023-03-15 11:02:34:416,0,-1.08152,-1.16207,1.07189,Q,Q
2023-03-15 11:02:34:426,0,-1.09135,-1.15288,1.06679,Q,Q
2023-03-15 11:02:34:436,0,-1.09761,-1.14518,1.05886,Q,Q
2023-03-15 11:02:34:446,0,-1.10445,-1.13791,1.05111,Q,Q
2023-03-15 11:02:34:456,0,-1.10934,-1.12686,1.0464,Q,Q
2023-03-15 11:02:34:466,0,-1.1158,-1.11985,1.04155,Q,Q
2023-03-15 11:02:34:476,0,-1.12346,-1.11171,1.03635,Q,Q
2023-03-15 11:02:34:486,0,-1.13061,-1.1053,1.02981,Q,Q
2023-03-15 11:02:34:496,0,-1.13888,-1.09894,1.02371,Q,Q
2023-03-15 11:02:34:506,0,-1.14511,-1.092,1.0154,Q,Q
2023-03-15 11:02:34:516,0,-1.15269,-1.08314,1.00509,Q,Q
2023-03-15 11:02:34:526,0,-1.15691,-1.06978,0.992232,Q,Q
2023-03-15 11:02:34:536,0,-1.16201,-1.05914,0.97883,Q,Q
2023-03-15 11:02:34:546,0,-1.16659,-1.04742,0.96594,Q,Q
2023-03-15 11:02:34:556,0,-1.17001,-1.04295,0.957804,Q,Q
2023-03-15 11:02:34:566,0,-1.16795,-1.03792,0.950407,Q,Q
2023-03-15 11:02:34:576,0,-1.16561,-1.03835,0.942592,Q,Q
2023-03-15 11:02:34:586,0,-1.16742,-1.04165,0.933607,Q,Q
2023-03-15 11:02:34:596,0,-1.17021,-1.04234,0.92741,Q,Q
2023-03-15 11:02:34:606,0,-1.17055,-1.04245,0.915571,Q,Q
2023-03-15 11:02:34:616,0,-1.17401,-1.04259,0.907769,Q,Q
2023-03-15 11:02:34:626,0,-1.17427,-1.04096,0.901188,Q,Q
2023-03-15 11:02:34:636,0,-1.17566,-1.04058,0.897131,Q,Q
2023-03-15 11:02:34:646,0,-1.17148,-1.03876,0.897122,Q,Q
2023-03-15 11:02:34:656,0,-1.17064,-1.03831,0.896247,Q,Q
2023-03-15 11:02:34:666,0,-1.17057,-1.03364,0.896282,Q,Q
2023-03-15 11:02:34:676,0,-1.17474,-1.02807,0.896977,Q,Q
2023-03-15 11:02:34:686,0,-1.18326,-1.02219,0.902024,Q,Q
2023-03-15 11:02:34:696,0,-1.19001,-1.01697,0.906422,Q,Q
2023-03-15 11:02:34:706,0,-1.19384,-1.01235,0.906478,Q,Q
2023-03-15 11:02:34:715,0,-1.1988,-1.00817,0.907397,Q,Q
2023-03-15 11:02:34:726,0,-1.20083,-1.00223,0.903151,Q,Q
2023-03-15 11:02:34:736,0,-1.20284,-1.00381,0.903702,Q,Q
2023-03-15 11:02:34:746,0,-1.21062,-1.00547,0.899335,Q,Q
2023-03-15 11:02:34:756,0,-1.21333,-1.00976,0.889502,Q,Q
2023-03-15 11:02:34:766,0,-1.22072,-1.01406,0.883006,Q,Q
2023-03-15 11:02:34:776,0,-1.22546,-1.02032,0.876009,Q,Q
2023-03-15 11:02:34:786,0,-1.23345,-1.02698,0.869279,Q,Q
2023-03-15 11:02:34:796,0,-1.23672,-1.03115,0.863768,Q,Q
2023-03-15 11:02:34:806,0,-1.23833,-1.03468,0.859527,Q,Q
2023-03-15 11:02:34:816,0,-1.23537,-1.03907,0.85848,Q,Q
2023-03-15 11:02:34:826,0,-1.23171,-1.04726,0.858923,Q,Q
2023-03-15 11:02:34:836,0,-1.22082,-1.05293,0.861924,Q,Q
2023-03-15 11:02:34:846,0,-1.2123,-1.0591,0.866013,Q,Q
2023-03-15 11:02:34:856,0,-1.20023,-1.06257,0.877091,Q,Q
2023-03-15 11:02:34:866,0,-1.19086,-1.06634,0.885587,Q,Q
2023-03-15 11:02:34:876,0,-1.17851,-1.06404,0.891319,Q,Q
2023-03-15 11:02:34:886,0,-1.16918,-1.06011,0.89721,Q,Q
2023-03-15 11:02:34:896,0,-1.16188,-1.0547,0.901801,Q,Q
2023-03-15 11:02:34:906,0,-1.15693,-1.04712,0.902053,Q,Q
2023-03-15 11:02:34:916,0,-1.15151,-1.04018,0.904146,Q,Q
2023-03-15 11:02:34:926,0,-1.14568,-1.03353,0.898757,Q,Q
2023-03-15 11:02:34:936,0,-1.14723,-1.02737,0.893637,Q,Q
2023-03-15 11:02:34:946,0,-1.14891,-1.02311,0.882635,Q,Q
2023-03-15 11:02:34:956,0,-1.14819,-1.01972,0.871489,Q,Q
2023-03-15 11:02:34:966,0,-1.14743,-1.01585,0.857935,Q,Q
2023-03-15 11:02:34:976,0,-1.14773,-1.01319,0.84681,Q,Q
2023-03-15 11:02:34:986,0,-1.14797,-1.01267,0.831883,Q,Q
2023-03-15 11:02:34:996,0,-1.14611,-1.01641,0.816029,Q,Q
2023-03-15 11:02:35:6,0,-1.14465,-1.01849,0.807649,Q,Q
2023-03-15 11:02:35:16,0,-1.14605,-1.0156,0.801813,Q,Q
2023-03-15 11:02:35:26,0,-1.14813,-1.02039,0.801091,Q,Q
2023-03-15 11:02:35:36,0,-1.14799,-1.02081,0.801796,Q,Q
2023-03-15 11:02:35:46,0,-1.1446,-1.02035,0.80018,Q,Q
2023-03-15 11:02:35:56,0,-1.14042,-1.02094,0.802899,Q,Q
2023-03-15 11:02:35:66,0,-1.13449,-1.01946,0.804879,Q,Q
2023-03-15 11:02:35:76,0,-1.12708,-1.01742,0.81041,Q,Q
2023-03-15 11:02:35:86,0,-1.11749,-1.01624,0.814313,Q,Q
2023-03-15 11:02:35:96,0,-1.10799,-1.01479,0.816438,Q,Q
2023-03-15 11:02:35:106,0,-1.09941,-1.0096,0.818948,Q,Q
2023-03-15 11:02:35:116,0,-1.0898,-1.00595,0.819418,Q,Q
2023-03-15 11:02:35:126,0,-1.07735,-1.00534,0.81556,Q,Q
2023-03-15 11:02:35:136,0,-1.06705,-1.00681,0.809474,Q,Q
2023-03-15 11:02:35:146,0,-1.05906,-1.00818,0.797978,Q,Q
2023-03-15 11:02:35:156,0,-1.05754,-1.01079,0.78909,Q,Q
2023-03-15 11:02:35:166,0,-1.05871,-1.01684,0.779289,Q,Q
2023-03-15 11:02:35:176,0,-1.0554,-1.02747,0.765492,Q,Q
2023-03-15 11:02:35:186,0,-1.05279,-1.04393,0.746587,Q,Q
2023-03-15 11:02:35:196,0,-1.04706,-1.06143,0.72233,Q,Q
2023-03-15 11:02:35:206,0,-1.03203,-1.07516,0.691977,Q,Q
2023-03-15 11:02:35:216,0,-1.00336,-1.08746,0.656543,Q,Q
2023-03-15 11:02:35:225,0,-0.960731,-1.09291,0.621916,Q,Q
2023-03-15 11:02:35:236,0,-0.90557,-1.10186,0.582207,Q,Q
2023-03-15 11:02:35:246,0,-0.827749,-1.11012,0.542421,Q,Q
2023-03-15 11:02:35:256,0,-0.730568,-1.12221,0.502225,Q,Q
2023-03-15 11:02:35:266,0,-0.616129,-1.13375,0.463834,Q,Q
2023-03-15 11:02:35:276,0,-0.489443,-1.13835,0.426217,Q,Q
2023-03-15 11:02:35:285,0,-0.364872,-1.14079,0.389063,Q,Q
2023-03-15 11:02:35:295,0,-0.243964,-1.14788,0.358843,Q,Q
2023-03-15 11:02:35:306,0,-0.125647,-1.15944,0.322523,Q,Q
2023-03-15 11:02:35:316,0,-0.00525846,-1.16924,0.287567,Q,Q
2023-03-15 11:02:35:326,0,0.122856,-1.17629,0.25676,Q,Q
2023-03-15 11:02:35:336,0,0.25912,-1.18869,0.222168,Q,Q
2023-03-15 11:02:35:346,0,0.401101,-1.20426,0.186792,Q,Q
2023-03-15 11:02:35:356,0,0.544898,-1.21896,0.159815,Q,Q
2023-03-15 11:02:35:366,0,0.67685,-1.23636,0.135358,Q,Q
2023-03-15 11:02:35:376,0,0.802919,-1.2481,0.0976785,Q,Q
2023-03-15 11:02:35:386,0,0.916235,-1.25444,0.0500496,Q,Q
2023-03-15 11:02:35:396,0,1.02524,-1.26311,0.00872191,Q,Q
2023-03-15 11:02:35:406,0,1.12577,-1.27163,-0.0309188,Q,Q
2023-03-15 11:02:35:416,0,1.22058,-1.27821,-0.071214,Q,Q
2023-03-15 11:02:35:426,0,1.30404,-1.28583,-0.112671,Q,Q
2023-03-15 11:02:35:436,0,1.37837,-1.28949,-0.152943,Q,Q
2023-03-15 11:02:35:446,0,1.4435,-1.29438,-0.192951,Q,Q
2023-03-15 11:02:35:456,0,1.49824,-1.30496,-0.233633,Q,Q
2023-03-15 11:02:35:466,0,1.55161,-1.31356,-0.278859,Q,Q
2023-03-15 11:02:35:476,0,1.59554,-1.31912,-0.322535,Q,Q
2023-03-15 11:02:35:486,0,1.63941,-1.3256,-0.36818,Q,Q
2023-03-15 11:02:35:496,0,1.6801,-1.33569,-0.416014,Q,Q
2023-03-15 11:02:35:506,0,1.71999,-1.34511,-0.465619,Q,Q
2023-03-15 11:02:35:516,0,1.76735,-1.36155,-0.516452,Q,Q
2023-03-15 11:02:35:526,0,1.8123,-1.38072,-0.563462,Q,Q
2023-03-15 11:02:35:536,0,1.85732,-1.40628,-0.611192,Q,Q
2023-03-15 11:02:35:546,0,1.90085,-1.43684,-0.662434,Q,Q
2023-03-15 11:02:35:556,0,1.94651,-1.46987,-0.714542,Q,Q
2023-03-15 11:02:35:566,0,1.9982,-1.50504,-0.770819,Q,Q
2023-03-15 11:02:35:576,0,2.0566,-1.54382,-0.830232,Q,Q
2023-03-15 11:02:35:586,0,2.11914,-1.57996,-0.891177,Q,Q
2023-03-15 11:02:35:596,0,2.18947,-1.62233,-0.951105,Q,Q
2023-03-15 11:02:35:606,0,2.2627,-1.6634,-1.0134,Q,Q
2023-03-15 11:02:35:616,0,2.34065,-1.70512,-1.07848,Q,Q
2023-03-15 11:02:35:626,0,2.42083,-1.75277,-1.14333,Q,Q
2023-03-15 11:02:35:636,0,2.50332,-1.79911,-1.20357,Q,Q
2023-03-15 11:02:35:646,0,2.58172,-1.84079,-1.26536,Q,Q
2023-03-15 11:02:35:656,0,2.65628,-1.88411,-1.32671,Q,Q
2023-03-15 11:02:35:666,0,2.7291,-1.92307,-1.3851,Q,Q
2023-03-15 11:02:35:676,0,2.80584,-1.96072,-1.44192,Q,Q
2023-03-15 11:02:35:686,0,2.88164,-1.99598,-1.49848,Q,Q
2023-03-15 11:02:35:696,0,2.96073,-2.02881,-1.55078,Q,Q
2023-03-15 11:02:35:706,0,3.04238,-2.05906,-1.59702,Q,Q
2023-03-15 11:02:35:716,0,3.1303,-2.08982,-1.63707,Q,Q
2023-03-15 11:02:35:726,0,3.21214,-2.12333,-1.67349,Q,Q
2023-03-15 11:02:35:736,0,3.29209,-2.15348,-1.70175,Q,Q
2023-03-15 11:02:35:746,0,3.3676,-2.18442,-1.72453,Q,Q
2023-03-15 11:02:35:756,0,3.43786,-2.21466,-1.74508,Q,Q
2023-03-15 11:02:35:766,0,3.4995,-2.24229,-1.75592,Q,Q
2023-03-15 11:02:35:776,0,3.55037,-2.2672,-1.76686,Q,Q
2023-03-15 11:02:35:786,0,3.59436,-2.2933,-1.77558,Q,Q
2023-03-15 11:02:35:796,0,3.63246,-2.31854,-1.77875,Q,Q
2023-03-15 11:02:35:806,0,3.66217,-2.34331,-1.77916,Q,Q
2023-03-15 11:02:35:816,0,3.69009,-2.36181,-1.77288,Q,Q
2023-03-15 11:02:35:826,0,3.71862,-2.38196,-1.76362,Q,Q
2023-03-15 11:02:35:836,0,3.74605,-2.40353,-1.74701,Q,Q
2023-03-15 11:02:35:846,0,3.76466,-2.42819,-1.72961,Q,Q
2023-03-15 11:02:35:856,0,3.77557,-2.44718,-1.71025,Q,Q
2023-03-15 11:02:35:866,0,3.78375,-2.46476,-1.68758,Q,Q
2023-03-15 11:02:35:876,0,3.79053,-2.48,-1.65438,Q,Q
2023-03-15 11:02:35:886,0,3.7964,-2.49626,-1.61491,Q,Q
2023-03-15 11:02:35:896,0,3.80167,-2.5107,-1.57238,Q,Q
2023-03-15 11:02:35:906,0,3.8035,-2.52867,-1.52696,Q,Q
2023-03-15 11:02:35:916,0,3.80246,-2.54275,-1.47514,Q,Q
2023-03-15 11:02:35:926,0,3.80459,-2.55826,-1.42125,Q,Q
2023-03-15 11:02:35:936,0,3.80832,-2.57576,-1.36459,Q,Q
2023-03-15 11:02:35:946,0,3.81259,-2.59703,-1.30257,Q,Q
2023-03-15 11:02:35:956,0,3.81883,-2.6188,-1.23794,Q,Q
2023-03-15 11:02:35:966,0,3.82202,-2.64841,-1.17286,Q,Q
2023-03-15 11:02:35:976,0,3.82232,-2.6802,-1.10709,Q,Q
2023-03-15 11:02:35:986,0,3.81458,-2.71516,-1.04288,Q,Q
2023-03-15 11:02:35:996,0,3.80124,-2.7512,-0.982247,Q,Q
2023-03-15 11:02:36:6,0,3.78679,-2.78304,-0.915936,Q,Q
2023-03-15 11:02:36:16,0,3.7728,-2.82081,-0.855226,Q,Q
2023-03-15 11:02:36:26,0,3.75766,-2.85983,-0.790036,Q,Q
2023-03-15 11:02:36:36,0,3.73925,-2.90139,-0.728807,Q,Q
2023-03-15 11:02:36:46,0,3.72335,-2.9407,-0.668761,Q,Q
2023-03-15 11:02:36:56,0,3.70517,-2.97713,-0.610231,Q,Q
2023-03-15 11:02:36:66,0,3.68508,-3.01675,-0.55195,Q,Q
2023-03-15 11:02:36:76,0,3.66277,-3.05352,-0.501095,Q,Q
2023-03-15 11:02:36:86,0,3.63558,-3.0907,-0.451453,Q,Q
2023-03-15 11:02:36:96,0,3.60646,-3.13208,-0.407234,Q,Q
2023-03-15 11:02:36:106,0,3.57115,-3.17156,-0.365647,Q,Q
2023-03-15 11:02:36:116,0,3.53024,-3.20981,-0.328304,Q,Q
2023-03-15 11:02:36:126,0,3.48875,-3.25116,-0.300792,Q,Q
2023-03-15 11:02:36:136,0,3.44894,-3.29161,-0.278974,Q,Q
2023-03-15 11:02:36:146,0,3.41279,-3.33101,-0.262171,Q,Q
2023-03-15 11:02:36:156,0,3.384,-3.37583,-0.248757,Q,Q
2023-03-15 11:02:36:166,0,3.36018,-3.42172,-0.236737,Q,Q
2023-03-15 11:02:36:176,0,3.33736,-3.46745,-0.226205,Q,Q
2023-03-15 11:02:36:186,0,3.31083,-3.51379,-0.21977,Q,Q
2023-03-15 11:02:36:196,0,3.28302,-3.56324,-0.213587,Q,Q
2023-03-15 11:02:36:206,0,3.25595,-3.61551,-0.214043,Q,Q
2023-03-15 11:02:36:216,0,3.22963,-3.66596,-0.211455,Q,Q
2023-03-15 11:02:36:226,0,3.20641,-3.71633,-0.209018,Q,Q
2023-03-15 11:02:36:236,0,3.18938,-3.76945,-0.204211,Q,Q
2023-03-15 11:02:36:246,0,3.187,-3.82555,-0.190244,Q,Q
2023-03-15 11:02:36:256,0,3.19338,-3.88584,-0.161063,Q,Q
2023-03-15 11:02:36:266,0,3.20842,-3.94774,-0.117448,Q,Q
2023-03-15 11:02:36:276,0,3.22682,-4.01347,-0.0637062,Q,Q
2023-03-15 11:02:36:286,0,3.2432,-4.08568,0.00264687,Q,Q
2023-03-15 11:02:36:296,0,3.25482,-4.1581,0.078414,Q,Q
2023-03-15 11:02:36:306,0,3.26572,-4.22978,0.158236,Q,Q
2023-03-15 11:02:36:316,0,3.27069,-4.30046,0.241578,Q,Q
2023-03-15 11:02:36:326,0,3.28347,-4.37167,0.331063,Q,Q
2023-03-15 11:02:36:336,0,3.3125,-4.44748,0.429267,Q,Q
2023-03-15 11:02:36:345,0,3.35616,-4.53206,0.540391,Q,Q
2023-03-15 11:02:36:356,0,3.40375,-4.61946,0.660078,Q,Q
2023-03-15 11:02:36:366,0,3.44862,-4.71218,0.786473,Q,Q
2023-03-15 11:02:36:376,0,3.47906,-4.8042,0.917769,Q,Q
2023-03-15 11:02:36:386,0,3.48728,-4.89357,1.04477,Q,Q
2023-03-15 11:02:36:396,0,3.47778,-4.97295,1.16814,Q,Q
2023-03-15 11:02:36:406,0,3.462,-5.0512,1.28317,Q,Q
2023-03-15 11:02:36:416,0,3.43992,-5.11941,1.39837,Q,Q
2023-03-15 11:02:36:426,0,3.41975,-5.18011,1.51098,Q,Q
2023-03-15 11:02:36:436,0,3.39833,-5.23945,1.62473,Q,Q
2023-03-15 11:02:36:446,0,3.38195,-5.30327,1.73829,Q,Q
2023-03-15 11:02:36:456,0,3.3686,-5.38397,1.84378,Q,Q
2023-03-15 11:02:36:466,0,3.35462,-5.4767,1.93825,Q,Q
2023-03-15 11:02:36:476,0,3.36242,-5.59051,2.02546,Q,Q
2023-03-15 11:02:36:486,0,3.38611,-5.72019,2.10473,Q,Q
2023-03-15 11:02:36:496,0,3.4259,-5.85939,2.1733,Q,Q
2023-03-15 11:02:36:506,0,3.45997,-6.00952,2.23054,Q,Q
2023-03-15 11:02:36:516,0,3.48349,-6.15794,2.27482,Q,Q
2023-03-15 11:02:36:526,0,3.49912,-6.30491,2.30419,Q,Q
2023-03-15 11:02:36:536,0,3.50696,-6.44053,2.3205,Q,Q
2023-03-15 11:02:36:546,0,3.50999,-6.57308,2.33029,Q,Q
2023-03-15 11:02:36:556,0,3.51317,-6.70127,2.33288,Q,Q
2023-03-15 11:02:36:566,0,3.51384,-6.83182,2.33672,Q,Q
2023-03-15 11:02:36:576,0,3.5099,-6.9524,2.336,Q,Q
2023-03-15 11:02:36:586,0,3.5075,-7.06616,2.33283,Q,Q
2023-03-15 11:02:36:596,0,3.50243,-7.17041,2.32797,Q,Q
2023-03-15 11:02:36:606,0,3.4928,-7.26758,2.32611,Q,Q
2023-03-15 11:02:36:616,0,3.47621,-7.3577,2.32252,Q,Q
2023-03-15 11:02:36:626,0,3.45533,-7.43873,2.3142,Q,Q
2023-03-15 11:02:36:636,0,3.42455,-7.5131,2.30707,Q,Q
2023-03-15 11:02:36:646,0,3.39307,-7.5774,2.29853,Q,Q
2023-03-15 11:02:36:656,0,3.36336,-7.63807,2.28645,Q,Q
2023-03-15 11:02:36:666,0,3.33054,-7.68669,2.27226,Q,Q
2023-03-15 11:02:36:676,0,3.30734,-7.72241,2.25649,Q,Q
2023-03-15 11:02:36:686,0,3.28395,-7.74876,2.24201,Q,Q
2023-03-15 11:02:36:696,0,3.26409,-7.76562,2.22752,Q,Q
2023-03-15 11:02:36:706,0,3.24475,-7.77845,2.21529,Q,Q
2023-03-15 11:02:36:716,0,3.22435,-7.7852,2.19818,Q,Q
2023-03-15 11:02:36:726,0,3.20523,-7.78208,2.17723,Q,Q
2023-03-15 11:02:36:736,0,3.18126,-7.76329,2.15501,Q,Q
2023-03-15 11:02:36:746,0,3.16001,-7.73717,2.12749,Q,Q
2023-03-15 11:02:36:756,0,3.13745,-7.71099,2.09524,Q,Q
2023-03-15 11:02:36:765,0,3.11585,-7.68038,2.06086,Q,Q
2023-03-15 11:02:36:776,0,3.09421,-7.64545,2.02371,Q,Q
2023-03-15 11:02:36:785,0,3.07747,-7.60295,1.98864,Q,Q
2023-03-15 11:02:36:796,0,3.06661,-7.56188,1.95134,Q,Q
2023-03-15 11:02:36:806,0,3.05702,-7.51658,1.91477,Q,Q
2023-03-15 11:02:36:816,0,3.04969,-7.46804,1.88151,Q,Q
2023-03-15 11:02:36:826,0,3.04905,-7.4162,1.84674,Q,Q
2023-03-15 11:02:36:836,0,3.0419,-7.36252,1.81968,Q,Q
2023-03-15 11:02:36:846,0,3.0438,-7.30643,1.7995,Q,Q
2023-03-15 11:02:36:856,0,3.05567,-7.249,1.78696,Q,Q
2023-03-15 11:02:36:866,0,3.07202,-7.19511,1.78068,Q,Q
2023-03-15 11:02:36:876,0,3.0951,-7.14262,1.78669,Q,Q
2023-03-15 11:02:36:886,0,3.12222,-7.08463,1.79354,Q,Q
2023-03-15 11:02:36:896,0,3.15802,-7.02484,1.80782,Q,Q
2023-03-15 11:02:36:906,0,3.20304,-6.96072,1.8278,Q,Q
2023-03-15 11:02:36:916,0,3.25078,-6.90506,1.861,Q,Q
2023-03-15 11:02:36:926,0,3.28662,-6.865,1.89625,Q,Q
2023-03-15 11:02:36:936,0,3.30869,-6.81937,1.94413,Q,Q
2023-03-15 11:02:36:946,0,3.32247,-6.76173,1.99849,Q,Q
2023-03-15 11:02:36:956,0,3.3382,-6.69872,2.05317,Q,Q
2023-03-15 11:02:36:966,0,3.34811,-6.64119,2.11017,Q,Q
2023-03-15 11:02:36:976,0,3.34844,-6.58882,2.16239,Q,Q
2023-03-15 11:02:36:986,0,3.34383,-6.53915,2.20705,Q,Q
2023-03-15 11:02:36:996,0,3.33796,-6.49103,2.25227,Q,Q
2023-03-15 11:02:37:6,0,3.34751,-6.4316,2.2963,Q,Q
2023-03-15 11:02:37:16,0,3.37225,-6.37148,2.33663,Q,Q
2023-03-15 11:02:37:26,0,3.39827,-6.3146,2.37592,Q,Q
2023-03-15 11:02:37:36,0,3.41554,-6.26251,2.41384,Q,Q
2023-03-15 11:02:37:46,0,3.42333,-6.20373,2.45297,Q,Q
2023-03-15 11:02:37:56,0,3.43066,-6.13432,2.49333,Q,Q
2023-03-15 11:02:37:66,0,3.44967,-6.06818,2.53257,Q,Q
2023-03-15 11:02:37:76,0,3.47693,-6.01025,2.58169,Q,Q
2023-03-15 11:02:37:86,0,3.50361,-5.96109,2.63264,Q,Q
2023-03-15 11:02:37:96,0,3.52385,-5.91716,2.69488,Q,Q
2023-03-15 11:02:37:106,0,3.53664,-5.87359,2.75552,Q,Q
2023-03-15 11:02:37:116,0,3.54111,-5.83384,2.81443,Q,Q
2023-03-15 11:02:37:126,0,3.53515,-5.79288,2.87067,Q,Q
2023-03-15 11:02:37:136,0,3.51915,-5.75129,2.92186,Q,Q
2023-03-15 11:02:37:146,0,3.49675,-5.70371,2.9651,Q,Q
2023-03-15 11:02:37:156,0,3.46702,-5.65224,3.0002,Q,Q
2023-03-15 11:02:37:166,0,3.43493,-5.59371,3.02809,Q,Q
2023-03-15 11:02:37:176,0,3.40051,-5.54206,3.04991,Q,Q
2023-03-15 11:02:37:186,0,3.36808,-5.48843,3.07006,Q,Q
2023-03-15 11:02:37:196,0,3.34646,-5.42766,3.08887,Q,Q
2023-03-15 11:02:37:206,0,3.33525,-5.37082,3.1077,Q,Q
2023-03-15 11:02:37:216,0,3.33819,-5.32463,3.12747,Q,Q
2023-03-15 11:02:37:226,0,3.34855,-5.28948,3.15571,Q,Q
2023-03-15 11:02:37:236,0,3.36112,-5.26472,3.19054,Q,Q
2023-03-15 11:02:37:246,0,3.38146,-5.25059,3.23303,Q,Q
2023-03-15 11:02:37:256,0,3.40253,-5.2395,3.28085,Q,Q
2023-03-15 11:02:37:265,0,3.43025,-5.2292,3.33367,Q,Q
2023-03-15 11:02:37:275,0,3.46239,-5.22589,3.38748,Q,Q
2023-03-15 11:02:37:286,0,3.49092,-5.22445,3.44718,Q,Q
2023-03-15 11:02:37:296,0,3.51862,-5.2212,3.51132,Q,Q
2023-03-15 11:02:37:306,0,3.54758,-5.22167,3.58161,Q,Q
2023-03-15 11:02:37:316,0,3.57293,-5.21988,3.64975,Q,Q
2023-03-15 11:02:37:326,0,3.59729,-5.21791,3.72081,Q,Q
2023-03-15 11:02:37:336,0,3.6142,-5.21195,3.78937,Q,Q
2023-03-15 11:02:37:345,0,3.62814,-5.19838,3.85783,Q,Q
2023-03-15 11:02:37:356,0,3.63808,-5.17208,3.91788,Q,Q
2023-03-15 11:02:37:366,0,3.64552,-5.13988,3.97,Q,Q
2023-03-15 11:02:37:376,0,3.65325,-5.1005,4.01597,Q,Q
2023-03-15 11:02:37:386,0,3.65992,-5.04436,4.05376,Q,Q
2023-03-15 11:02:37:396,0,3.66421,-4.97537,4.07336,Q,Q
2023-03-15 11:02:37:406,0,3.65813,-4.88729,4.06667,Q,Q
2023-03-15 11:02:37:416,0,3.6432,-4.77526,4.03503,Q,Q
2023-03-15 11:02:37:426,0,3.61934,-4.64155,3.97925,Q,Q
2023-03-15 11:02:37:436,0,3.59192,-4.50089,3.90973,Q,Q
2023-03-15 11:02:37:446,0,3.56375,-4.36452,3.82977,Q,Q
2023-03-15 11:02:37:456,0,3.54433,-4.24268,3.74917,Q,Q
2023-03-15 11:02:37:466,0,3.53111,-4.13916,3.66748,Q,Q
2023-03-15 11:02:37:476,0,3.52613,-4.05764,3.59741,Q,Q
2023-03-15 11:02:37:486,0,3.53047,-4.00513,3.53667,Q,Q
2023-03-15 11:02:37:496,0,3.54527,-3.97506,3.48321,Q,Q
2023-03-15 11:02:37:506,0,3.56822,-3.96316,3.43846,Q,Q
2023-03-15 11:02:37:516,0,3.59168,-3.96112,3.40776,Q,Q
2023-03-15 11:02:37:526,0,3.62779,-3.96308,3.38625,Q,Q
2023-03-15 11:02:37:536,0,3.6724,-3.97375,3.38645,Q,Q
2023-03-15 11:02:37:546,0,3.72063,-3.98648,3.4,Q,Q
2023-03-15 11:02:37:556,0,3.76915,-3.99855,3.42658,Q,Q
2023-03-15 11:02:37:566,0,3.81374,-4.01044,3.46782,Q,Q
2023-03-15 11:02:37:576,0,3.85353,-4.02414,3.51669,Q,Q
2023-03-15 11:02:37:586,0,3.88886,-4.03924,3.5782,Q,Q
2023-03-15 11:02:37:596,0,3.92004,-4.05728,3.64639,Q,Q
2023-03-15 11:02:37:606,0,3.9399,-4.07655,3.71715,Q,Q
2023-03-15 11:02:37:616,0,3.9503,-4.09579,3.78912,Q,Q
2023-03-15 11:02:37:626,0,3.95377,-4.11234,3.85484,Q,Q
2023-03-15 11:02:37:636,0,3.94514,-4.12237,3.91008,Q,Q
2023-03-15 11:02:37:646,0,3.93169,-4.12665,3.95828,Q,Q
2023-03-15 11:02:37:656,0,3.9179,-4.12706,3.9928,Q,Q
2023-03-15 11:02:37:666,0,3.89788,-4.12489,4.0143,Q,Q
2023-03-15 11:02:37:676,0,3.88056,-4.11987,4.02023,Q,Q
2023-03-15 11:02:37:686,0,3.86914,-4.11032,4.01078,Q,Q
2023-03-15 11:02:37:696,0,3.86098,-4.0955,3.99048,Q,Q
2023-03-15 11:02:37:706,0,3.85494,-4.07752,3.95484,Q,Q
2023-03-15 11:02:37:716,0,3.84991,-4.05627,3.90982,Q,Q
2023-03-15 11:02:37:726,0,3.84521,-4.03306,3.85744,Q,Q
2023-03-15 11:02:37:736,0,3.83764,-4.0068,3.79262,Q,Q
2023-03-15 11:02:37:746,0,3.83478,-3.98013,3.72409,Q,Q
2023-03-15 11:02:37:756,0,3.83481,-3.94966,3.65126,Q,Q
2023-03-15 11:02:37:766,0,3.83933,-3.92595,3.57701,Q,Q
2023-03-15 11:02:37:775,0,3.84564,-3.90913,3.50419,Q,Q
2023-03-15 11:02:37:785,0,3.85163,-3.90195,3.4429,Q,Q
2023-03-15 11:02:37:795,0,3.85925,-3.89984,3.38641,Q,Q
2023-03-15 11:02:37:806,0,3.87398,-3.90024,3.33852,Q,Q
2023-03-15 11:02:37:816,0,3.89174,-3.91182,3.30121,Q,Q
2023-03-15 11:02:37:826,0,3.91101,-3.9303,3.26809,Q,Q
2023-03-15 11:02:37:836,0,3.92094,-3.94933,3.24916,Q,Q
2023-03-15 11:02:37:846,0,3.9195,-3.96431,3.23911,Q,Q
2023-03-15 11:02:37:855,0,3.90934,-3.97812,3.23309,Q,Q
2023-03-15 11:02:37:866,0,3.89519,-3.99168,3.22725,Q,Q
2023-03-15 11:02:37:876,0,3.87404,-4.00022,3.22486,Q,Q
2023-03-15 11:02:37:886,0,3.8489,-4.00819,3.22552,Q,Q
2023-03-15 11:02:37:896,0,3.82058,-4.01429,3.22791,Q,Q
2023-03-15 11:02:37:906,0,3.79795,-4.02046,3.23219,Q,Q
2023-03-15 11:02:37:916,0,3.77821,-4.02526,3.23943,Q,Q
2023-03-15 11:02:37:926,0,3.76279,-4.03275,3.24658,Q,Q
2023-03-15 11:02:37:936,0,3.74719,-4.04167,3.2571,Q,Q
2023-03-15 11:02:37:945,0,3.73432,-4.04469,3.26367,Q,Q
2023-03-15 11:02:37:955,0,3.72674,-4.04904,3.27692,Q,Q
2023-03-15 11:02:37:965,0,3.71914,-4.05447,3.28193,Q,Q
2023-03-15 11:02:37:976,0,3.70605,-4.05288,3.28909,Q,Q
2023-03-15 11:02:37:986,0,3.69309,-4.05219,3.29311,Q,Q
2023-03-15 11:02:37:995,0,3.67776,-4.05107,3.29909,Q,Q
2023-03-15 11:02:38:6,0,3.6662,-4.04859,3.29634,Q,Q
2023-03-15 11:02:38:16,0,3.65349,-4.04697,3.29554,Q,Q
2023-03-15 11:02:38:26,0,3.6444,-4.04466,3.2886,Q,Q
2023-03-15 11:02:38:36,0,3.63496,-4.0453,3.28011,Q,Q
2023-03-15 11:02:38:46,0,3.63045,-4.04557,3.2698,Q,Q
2023-03-15 11:02:38:56,0,3.62648,-4.04649,3.26469,Q,Q
2023-03-15 11:02:38:66,0,3.62445,-4.04854,3.25431,Q,Q
2023-03-15 11:02:38:76,0,3.6246,-4.05254,3.24686,Q,Q
2023-03-15 11:02:38:86,0,3.62853,-4.05835,3.24072,Q,Q
2023-03-15 11:02:38:96,0,3.63117,-4.06521,3.23848,Q,Q
2023-03-15 11:02:38:106,0,3.63551,-4.07198,3.24046,Q,Q
2023-03-15 11:02:38:116,0,3.64005,-4.0831,3.24636,Q,Q
2023-03-15 11:02:38:126,0,3.64562,-4.0929,3.25222,Q,Q
2023-03-15 11:02:38:136,0,3.64624,-4.10119,3.25742,Q,Q
2023-03-15 11:02:38:146,0,3.64192,-4.10809,3.26134,Q,Q
2023-03-15 11:02:38:156,0,3.6308,-4.11413,3.26612,Q,Q
