Timestamp_cmd,imu_cmd,roll_delta,pitch_delta,yaw_delta,voice_type,voice_length
2023-03-15 13:22:54:955,0,-3.44529,-7.12998,-78.4914,Q,Q
2023-03-15 13:22:54:963,0,-3.44941,-7.13157,-78.4904,Q,Q
2023-03-15 13:22:54:973,0,-3.45129,-7.13565,-78.4887,Q,Q
2023-03-15 13:22:54:983,0,-3.45593,-7.1385,-78.4872,Q,Q
2023-03-15 13:22:54:993,0,-3.45795,-7.14588,-78.4837,Q,Q
2023-03-15 13:22:55:3,0,-3.46274,-7.15319,-78.484,Q,Q
2023-03-15 13:22:55:13,0,-3.47013,-7.16013,-78.4881,Q,Q
2023-03-15 13:22:55:23,0,-3.47936,-7.16253,-78.498,Q,Q
2023-03-15 13:22:55:33,0,-3.48782,-7.16131,-78.5073,Q,Q
2023-03-15 13:22:55:43,0,-3.49565,-7.16437,-78.5181,Q,Q
2023-03-15 13:22:55:53,0,-3.50562,-7.16794,-78.5264,Q,Q
2023-03-15 13:22:55:63,0,-3.5156,-7.17385,-78.5367,Q,Q
2023-03-15 13:22:55:73,0,-3.52605,-7.17961,-78.5454,Q,Q
2023-03-15 13:22:55:83,0,-3.53753,-7.19054,-78.5565,Q,Q
2023-03-15 13:22:55:93,0,-3.55174,-7.19994,-78.5667,Q,Q
2023-03-15 13:22:55:103,0,-3.56618,-7.2125,-78.5778,Q,Q
2023-03-15 13:22:55:113,0,-3.58363,-7.22256,-78.5853,Q,Q
2023-03-15 13:22:55:123,0,-3.60112,-7.23369,-78.591,Q,Q
2023-03-15 13:22:55:133,0,-3.61743,-7.24182,-78.5939,Q,Q
2023-03-15 13:22:55:143,0,-3.63806,-7.25344,-78.5932,Q,Q
2023-03-15 13:22:55:153,0,-3.6565,-7.26905,-78.59,Q,Q
2023-03-15 13:22:55:163,0,-3.67834,-7.28269,-78.5857,Q,Q
2023-03-15 13:22:55:173,0,-3.69558,-7.29086,-78.5792,Q,Q
2023-03-15 13:22:55:183,0,-3.71068,-7.29802,-78.577,Q,Q
2023-03-15 13:22:55:193,0,-3.72544,-7.30623,-78.5759,Q,Q
2023-03-15 13:22:55:203,0,-3.74399,-7.31066,-78.5705,Q,Q
2023-03-15 13:22:55:213,0,-3.76274,-7.31612,-78.5612,Q,Q
2023-03-15 13:22:55:223,0,-3.78259,-7.31982,-78.5504,Q,Q
2023-03-15 13:22:55:233,0,-3.80587,-7.32202,-78.5366,Q,Q
2023-03-15 13:22:55:243,0,-3.83307,-7.32821,-78.5128,Q,Q
2023-03-15 13:22:55:253,0,-3.86021,-7.33265,-78.4839,Q,Q
2023-03-15 13:22:55:263,0,-3.89125,-7.33817,-78.4389,Q,Q
2023-03-15 13:22:55:273,0,-3.92712,-7.33987,-78.3727,Q,Q
2023-03-15 13:22:55:283,0,-3.96922,-7.33611,-78.2671,Q,Q
2023-03-15 13:22:55:293,0,-4.01858,-7.32697,-78.1066,Q,Q
2023-03-15 13:22:55:303,0,-4.08331,-7.31652,-77.874,Q,Q
2023-03-15 13:22:55:313,0,-4.1495,-7.31238,-77.5626,Q,Q
2023-03-15 13:22:55:323,0,-4.22734,-7.30306,-77.1663,Q,Q
2023-03-15 13:22:55:333,0,-4.32941,-7.28539,-76.6883,Q,Q
2023-03-15 13:22:55:343,0,-4.44654,-7.25429,-76.1213,Q,Q
2023-03-15 13:22:55:353,0,-4.5799,-7.20937,-75.4564,Q,Q
2023-03-15 13:22:55:363,0,-4.74538,-7.15181,-74.6769,Q,Q
2023-03-15 13:22:55:373,0,-4.93394,-7.08725,-73.7803,Q,Q
2023-03-15 13:22:55:383,0,-5.14378,-7.01366,-72.7751,Q,Q
2023-03-15 13:22:55:393,0,-5.38031,-6.93534,-71.6842,Q,Q
2023-03-15 13:22:55:404,0,-5.637,-6.84165,-70.5209,Q,Q
2023-03-15 13:22:55:413,0,-5.9174,-6.71608,-69.2953,Q,Q
2023-03-15 13:22:55:423,0,-6.22821,-6.57104,-68.0145,Q,Q
2023-03-15 13:22:55:433,0,-6.56115,-6.414,-66.6829,Q,Q
2023-03-15 13:22:55:444,0,-6.8951,-6.25871,-65.3261,Q,Q
2023-03-15 13:22:55:453,0,-7.21779,-6.10841,-63.9744,Q,Q
2023-03-15 13:22:55:463,0,-7.51547,-5.95913,-62.6546,Q,Q
2023-03-15 13:22:55:473,0,-7.77388,-5.80777,-61.3788,Q,Q
2023-03-15 13:22:55:483,0,-7.98906,-5.66444,-60.154,Q,Q
2023-03-15 13:22:55:493,0,-8.17725,-5.53159,-58.9671,Q,Q
2023-03-15 13:22:55:503,0,-8.3433,-5.40511,-57.826,Q,Q
2023-03-15 13:22:55:513,0,-8.50043,-5.28477,-56.731,Q,Q
2023-03-15 13:22:55:523,0,-8.64194,-5.17174,-55.6851,Q,Q
2023-03-15 13:22:55:533,0,-8.78065,-5.06405,-54.7088,Q,Q
2023-03-15 13:22:55:543,0,-8.9119,-4.96637,-53.8101,Q,Q
2023-03-15 13:22:55:553,0,-9.02697,-4.87198,-52.9956,Q,Q
2023-03-15 13:22:55:563,0,-9.12652,-4.79071,-52.2636,Q,Q
2023-03-15 13:22:55:573,0,-9.20715,-4.70853,-51.6065,Q,Q
2023-03-15 13:22:55:583,0,-9.27438,-4.63828,-51.0181,Q,Q
2023-03-15 13:22:55:593,0,-9.33062,-4.58914,-50.4917,Q,Q
2023-03-15 13:22:55:603,0,-9.37699,-4.5586,-50.0192,Q,Q
2023-03-15 13:22:55:613,0,-9.41417,-4.54792,-49.5953,Q,Q
2023-03-15 13:22:55:623,0,-9.44713,-4.54808,-49.2127,Q,Q
2023-03-15 13:22:55:633,0,-9.47193,-4.56004,-48.8712,Q,Q
2023-03-15 13:22:55:643,0,-9.49605,-4.578,-48.5666,Q,Q
2023-03-15 13:22:55:653,0,-9.51225,-4.60092,-48.2893,Q,Q
2023-03-15 13:22:55:663,0,-9.52925,-4.62144,-48.0411,Q,Q
2023-03-15 13:22:55:673,0,-9.54541,-4.64546,-47.8176,Q,Q
2023-03-15 13:22:55:683,0,-9.56096,-4.6648,-47.6153,Q,Q
2023-03-15 13:22:55:693,0,-9.58057,-4.67785,-47.4348,Q,Q
2023-03-15 13:22:55:703,0,-9.59998,-4.68673,-47.2647,Q,Q
2023-03-15 13:22:55:713,0,-9.6256,-4.68519,-47.1058,Q,Q
2023-03-15 13:22:55:723,0,-9.6553,-4.67785,-46.9584,Q,Q
2023-03-15 13:22:55:733,0,-9.68675,-4.66685,-46.8194,Q,Q
2023-03-15 13:22:55:743,0,-9.71743,-4.65249,-46.6907,Q,Q
2023-03-15 13:22:55:753,0,-9.74482,-4.62902,-46.5714,Q,Q
2023-03-15 13:22:55:763,0,-9.76836,-4.60399,-46.4616,Q,Q
2023-03-15 13:22:55:773,0,-9.7833,-4.5791,-46.3549,Q,Q
2023-03-15 13:22:55:783,0,-9.79559,-4.55502,-46.2553,Q,Q
2023-03-15 13:22:55:793,0,-9.80494,-4.52975,-46.1605,Q,Q
2023-03-15 13:22:55:803,0,-9.81516,-4.50489,-46.0666,Q,Q
2023-03-15 13:22:55:813,0,-9.82487,-4.48214,-45.9757,Q,Q
2023-03-15 13:22:55:823,0,-9.82826,-4.457,-45.8875,Q,Q
2023-03-15 13:22:55:833,0,-9.82604,-4.43292,-45.7955,Q,Q
2023-03-15 13:22:55:843,0,-9.81694,-4.40356,-45.7036,Q,Q
2023-03-15 13:22:55:853,0,-9.80416,-4.37313,-45.6077,Q,Q
2023-03-15 13:22:55:863,0,-9.78973,-4.34294,-45.5077,Q,Q
2023-03-15 13:22:55:873,0,-9.77384,-4.31133,-45.4008,Q,Q
2023-03-15 13:22:55:884,0,-9.75787,-4.27637,-45.2926,Q,Q
2023-03-15 13:22:55:894,0,-9.74252,-4.24451,-45.1845,Q,Q
2023-03-15 13:22:55:903,0,-9.72885,-4.21257,-45.0716,Q,Q
2023-03-15 13:22:55:913,0,-9.71838,-4.17961,-44.9546,Q,Q
2023-03-15 13:22:55:923,0,-9.70839,-4.14486,-44.8339,Q,Q
2023-03-15 13:22:55:933,0,-9.69128,-4.11255,-44.7073,Q,Q
2023-03-15 13:22:55:944,0,-9.66859,-4.0809,-44.5711,Q,Q
2023-03-15 13:22:55:953,0,-9.63886,-4.0531,-44.4318,Q,Q
2023-03-15 13:22:55:963,0,-9.60262,-4.02657,-44.2828,Q,Q
2023-03-15 13:22:55:973,0,-9.56265,-4.00059,-44.1252,Q,Q
2023-03-15 13:22:55:983,0,-9.51046,-3.97479,-43.9511,Q,Q
2023-03-15 13:22:55:993,0,-9.45072,-3.95081,-43.7666,Q,Q
2023-03-15 13:22:56:4,0,-9.37784,-3.92588,-43.5616,Q,Q
2023-03-15 13:22:56:14,0,-9.29111,-3.90363,-43.3377,Q,Q
2023-03-15 13:22:56:24,0,-9.19096,-3.88203,-43.0956,Q,Q
2023-03-15 13:22:56:33,0,-9.07611,-3.86401,-42.8388,Q,Q
2023-03-15 13:22:56:43,0,-8.94868,-3.83721,-42.5685,Q,Q
2023-03-15 13:22:56:53,0,-8.81191,-3.80848,-42.2775,Q,Q
2023-03-15 13:22:56:63,0,-8.6666,-3.77663,-41.9791,Q,Q
2023-03-15 13:22:56:73,0,-8.51897,-3.74457,-41.6678,Q,Q
2023-03-15 13:22:56:83,0,-8.37147,-3.71016,-41.3435,Q,Q
2023-03-15 13:22:56:93,0,-8.22138,-3.67564,-41.0083,Q,Q
2023-03-15 13:22:56:103,0,-8.07268,-3.64396,-40.6646,Q,Q
2023-03-15 13:22:56:113,0,-7.92352,-3.6132,-40.3178,Q,Q
2023-03-15 13:22:56:123,0,-7.77481,-3.58406,-39.968,Q,Q
2023-03-15 13:22:56:133,0,-7.63079,-3.55358,-39.6154,Q,Q
2023-03-15 13:22:56:143,0,-7.49605,-3.52535,-39.2655,Q,Q
2023-03-15 13:22:56:153,0,-7.36923,-3.50054,-38.9151,Q,Q
2023-03-15 13:22:56:163,0,-7.24851,-3.47605,-38.567,Q,Q
2023-03-15 13:22:56:173,0,-7.13625,-3.45418,-38.2304,Q,Q
2023-03-15 13:22:56:183,0,-7.03255,-3.4358,-37.8994,Q,Q
2023-03-15 13:22:56:193,0,-6.94407,-3.42536,-37.5687,Q,Q
2023-03-15 13:22:56:203,0,-6.86357,-3.422,-37.2461,Q,Q
2023-03-15 13:22:56:213,0,-6.78814,-3.42438,-36.9304,Q,Q
2023-03-15 13:22:56:223,0,-6.71223,-3.42581,-36.618,Q,Q
2023-03-15 13:22:56:233,0,-6.63686,-3.42897,-36.3104,Q,Q
2023-03-15 13:22:56:243,0,-6.56608,-3.4332,-36.0063,Q,Q
2023-03-15 13:22:56:253,0,-6.50008,-3.43633,-35.7023,Q,Q
2023-03-15 13:22:56:263,0,-6.43815,-3.43849,-35.4006,Q,Q
2023-03-15 13:22:56:273,0,-6.38071,-3.44504,-35.0981,Q,Q
2023-03-15 13:22:56:283,0,-6.32948,-3.44537,-34.7927,Q,Q
2023-03-15 13:22:56:293,0,-6.28556,-3.44892,-34.4884,Q,Q
2023-03-15 13:22:56:303,0,-6.2457,-3.45254,-34.1884,Q,Q
2023-03-15 13:22:56:313,0,-6.20912,-3.45773,-33.8828,Q,Q
2023-03-15 13:22:56:323,0,-6.17631,-3.46391,-33.5814,Q,Q
2023-03-15 13:22:56:333,0,-6.14357,-3.46555,-33.2793,Q,Q
2023-03-15 13:22:56:343,0,-6.11291,-3.46938,-32.9809,Q,Q
2023-03-15 13:22:56:353,0,-6.08053,-3.47056,-32.6852,Q,Q
2023-03-15 13:22:56:363,0,-6.05364,-3.47489,-32.3934,Q,Q
2023-03-15 13:22:56:373,0,-6.02877,-3.47349,-32.1079,Q,Q
2023-03-15 13:22:56:383,0,-6.00342,-3.47123,-31.8275,Q,Q
2023-03-15 13:22:56:393,0,-5.98575,-3.46615,-31.5561,Q,Q
2023-03-15 13:22:56:403,0,-5.96457,-3.45866,-31.2924,Q,Q
2023-03-15 13:22:56:413,0,-5.94716,-3.45291,-31.0404,Q,Q
2023-03-15 13:22:56:423,0,-5.93039,-3.44606,-30.7903,Q,Q
2023-03-15 13:22:56:433,0,-5.90786,-3.43824,-30.5527,Q,Q
2023-03-15 13:22:56:443,0,-5.88754,-3.43026,-30.3247,Q,Q
2023-03-15 13:22:56:453,0,-5.86681,-3.42153,-30.1075,Q,Q
2023-03-15 13:22:56:463,0,-5.84507,-3.41454,-29.9022,Q,Q
2023-03-15 13:22:56:473,0,-5.82408,-3.40672,-29.7062,Q,Q
2023-03-15 13:22:56:483,0,-5.80152,-3.40459,-29.5262,Q,Q
2023-03-15 13:22:56:493,0,-5.77616,-3.40481,-29.3513,Q,Q
2023-03-15 13:22:56:503,0,-5.74517,-3.41803,-29.1888,Q,Q
2023-03-15 13:22:56:513,0,-5.71819,-3.43016,-29.0402,Q,Q
2023-03-15 13:22:56:523,0,-5.6955,-3.44769,-28.898,Q,Q
2023-03-15 13:22:56:533,0,-5.67365,-3.46956,-28.7659,Q,Q
2023-03-15 13:22:56:543,0,-5.65678,-3.49416,-28.6431,Q,Q
2023-03-15 13:22:56:553,0,-5.64096,-3.52093,-28.5257,Q,Q
2023-03-15 13:22:56:563,0,-5.62617,-3.55152,-28.4169,Q,Q
2023-03-15 13:22:56:573,0,-5.6154,-3.58441,-28.3081,Q,Q
2023-03-15 13:22:56:583,0,-5.60532,-3.61523,-28.2058,Q,Q
2023-03-15 13:22:56:593,0,-5.59348,-3.64279,-28.1108,Q,Q
2023-03-15 13:22:56:603,0,-5.58423,-3.66567,-28.0204,Q,Q
2023-03-15 13:22:56:613,0,-5.57678,-3.68449,-27.929,Q,Q
2023-03-15 13:22:56:623,0,-5.5679,-3.70158,-27.8387,Q,Q
2023-03-15 13:22:56:633,0,-5.55434,-3.70988,-27.7498,Q,Q
2023-03-15 13:22:56:643,0,-5.54035,-3.71911,-27.6573,Q,Q
2023-03-15 13:22:56:653,0,-5.52473,-3.72439,-27.5684,Q,Q
2023-03-15 13:22:56:663,0,-5.51349,-3.72961,-27.4771,Q,Q
2023-03-15 13:22:56:673,0,-5.50366,-3.73151,-27.3813,Q,Q
2023-03-15 13:22:56:683,0,-5.49777,-3.73226,-27.279,Q,Q
2023-03-15 13:22:56:693,0,-5.4889,-3.72707,-27.1796,Q,Q
2023-03-15 13:22:56:703,0,-5.48304,-3.7174,-27.0752,Q,Q
2023-03-15 13:22:56:713,0,-5.47913,-3.70779,-26.9693,Q,Q
2023-03-15 13:22:56:723,0,-5.47768,-3.69665,-26.8649,Q,Q
2023-03-15 13:22:56:733,0,-5.47723,-3.68135,-26.7567,Q,Q
2023-03-15 13:22:56:743,0,-5.47659,-3.66446,-26.6469,Q,Q
2023-03-15 13:22:56:753,0,-5.47683,-3.645,-26.5369,Q,Q
2023-03-15 13:22:56:763,0,-5.47746,-3.62672,-26.4188,Q,Q
2023-03-15 13:22:56:773,0,-5.47362,-3.60341,-26.2962,Q,Q
2023-03-15 13:22:56:783,0,-5.47039,-3.58678,-26.1684,Q,Q
2023-03-15 13:22:56:793,0,-5.46644,-3.57007,-26.0375,Q,Q
2023-03-15 13:22:56:803,0,-5.46109,-3.55414,-25.9045,Q,Q
2023-03-15 13:22:56:813,0,-5.45397,-3.53099,-25.767,Q,Q
2023-03-15 13:22:56:823,0,-5.44792,-3.50919,-25.6236,Q,Q
2023-03-15 13:22:56:833,0,-5.44501,-3.48552,-25.477,Q,Q
2023-03-15 13:22:56:843,0,-5.43519,-3.45704,-25.3296,Q,Q
2023-03-15 13:22:56:853,0,-5.42674,-3.43144,-25.1773,Q,Q
2023-03-15 13:22:56:863,0,-5.41625,-3.4041,-25.0236,Q,Q
2023-03-15 13:22:56:873,0,-5.4105,-3.37986,-24.8677,Q,Q
2023-03-15 13:22:56:883,0,-5.40403,-3.35578,-24.7093,Q,Q
2023-03-15 13:22:56:893,0,-5.40074,-3.33631,-24.5535,Q,Q
2023-03-15 13:22:56:903,0,-5.39757,-3.32049,-24.3976,Q,Q
2023-03-15 13:22:56:913,0,-5.39454,-3.30695,-24.2471,Q,Q
2023-03-15 13:22:56:923,0,-5.39101,-3.29866,-24.0983,Q,Q
2023-03-15 13:22:56:933,0,-5.39135,-3.29402,-23.9509,Q,Q
2023-03-15 13:22:56:944,0,-5.38596,-3.29396,-23.8095,Q,Q
2023-03-15 13:22:56:953,0,-5.3815,-3.29587,-23.6715,Q,Q
2023-03-15 13:22:56:963,0,-5.37814,-3.29866,-23.536,Q,Q
2023-03-15 13:22:56:973,0,-5.37835,-3.30246,-23.4095,Q,Q
2023-03-15 13:22:56:983,0,-5.37936,-3.30719,-23.2928,Q,Q
2023-03-15 13:22:56:993,0,-5.38146,-3.31716,-23.1834,Q,Q
2023-03-15 13:22:57:3,0,-5.37605,-3.32293,-23.0785,Q,Q
2023-03-15 13:22:57:13,0,-5.3708,-3.33414,-22.981,Q,Q
2023-03-15 13:22:57:23,0,-5.3635,-3.34423,-22.8908,Q,Q
2023-03-15 13:22:57:33,0,-5.35145,-3.35463,-22.8066,Q,Q
2023-03-15 13:22:57:43,0,-5.3398,-3.36596,-22.7256,Q,Q
2023-03-15 13:22:57:53,0,-5.32781,-3.37636,-22.6504,Q,Q
2023-03-15 13:22:57:63,0,-5.30969,-3.38513,-22.5733,Q,Q
2023-03-15 13:22:57:73,0,-5.29521,-3.39395,-22.4973,Q,Q
2023-03-15 13:22:57:83,0,-5.28231,-3.40398,-22.4277,Q,Q
2023-03-15 13:22:57:93,0,-5.27199,-3.41414,-22.3565,Q,Q
2023-03-15 13:22:57:103,0,-5.26175,-3.42464,-22.2837,Q,Q
2023-03-15 13:22:57:113,0,-5.25327,-3.43046,-22.2117,Q,Q
2023-03-15 13:22:57:123,0,-5.24398,-3.43717,-22.1386,Q,Q
2023-03-15 13:22:57:133,0,-5.23947,-3.44129,-22.0652,Q,Q
2023-03-15 13:22:57:143,0,-5.23334,-3.44364,-21.9893,Q,Q
2023-03-15 13:22:57:153,0,-5.23016,-3.44549,-21.9144,Q,Q
2023-03-15 13:22:57:164,0,-5.22493,-3.44451,-21.8409,Q,Q
2023-03-15 13:22:57:173,0,-5.21817,-3.44518,-21.7683,Q,Q
2023-03-15 13:22:57:183,0,-5.212,-3.44218,-21.6974,Q,Q
2023-03-15 13:22:57:193,0,-5.20457,-3.43918,-21.6274,Q,Q
2023-03-15 13:22:57:203,0,-5.19798,-3.43786,-21.5585,Q,Q
2023-03-15 13:22:57:213,0,-5.19091,-3.43596,-21.4861,Q,Q
2023-03-15 13:22:57:223,0,-5.18296,-3.43895,-21.4103,Q,Q
2023-03-15 13:22:57:233,0,-5.17914,-3.43995,-21.3378,Q,Q
2023-03-15 13:22:57:243,0,-5.17258,-3.44416,-21.2707,Q,Q
2023-03-15 13:22:57:253,0,-5.16434,-3.44933,-21.2036,Q,Q
2023-03-15 13:22:57:264,0,-5.15651,-3.45442,-21.1317,Q,Q
2023-03-15 13:22:57:273,0,-5.15087,-3.45945,-21.0648,Q,Q
2023-03-15 13:22:57:283,0,-5.14535,-3.46492,-20.9972,Q,Q
2023-03-15 13:22:57:293,0,-5.13841,-3.47206,-20.9271,Q,Q
2023-03-15 13:22:57:303,0,-5.13137,-3.47724,-20.8595,Q,Q
2023-03-15 13:22:57:313,0,-5.11909,-3.47972,-20.7924,Q,Q
2023-03-15 13:22:57:323,0,-5.103,-3.48469,-20.7229,Q,Q
2023-03-15 13:22:57:333,0,-5.08737,-3.49039,-20.6511,Q,Q
2023-03-15 13:22:57:343,0,-5.07198,-3.49826,-20.5763,Q,Q
2023-03-15 13:22:57:353,0,-5.05744,-3.50506,-20.5046,Q,Q
2023-03-15 13:22:57:363,0,-5.03985,-3.50889,-20.4328,Q,Q
2023-03-15 13:22:57:373,0,-5.02099,-3.50922,-20.3607,Q,Q
2023-03-15 13:22:57:383,0,-4.99957,-3.50829,-20.2881,Q,Q
2023-03-15 13:22:57:393,0,-4.98027,-3.51114,-20.2127,Q,Q
2023-03-15 13:22:57:403,0,-4.95497,-3.51995,-20.1321,Q,Q
2023-03-15 13:22:57:413,0,-4.9321,-3.53041,-20.0451,Q,Q
2023-03-15 13:22:57:423,0,-4.91643,-3.54893,-19.9636,Q,Q
2023-03-15 13:22:57:433,0,-4.90501,-3.5625,-19.8833,Q,Q
2023-03-15 13:22:57:443,0,-4.89339,-3.57863,-19.808,Q,Q
2023-03-15 13:22:57:453,0,-4.88207,-3.59225,-19.7333,Q,Q
2023-03-15 13:22:57:463,0,-4.86645,-3.60619,-19.6618,Q,Q
2023-03-15 13:22:57:473,0,-4.85531,-3.6176,-19.5935,Q,Q
2023-03-15 13:22:57:483,0,-4.84039,-3.62652,-19.5269,Q,Q
2023-03-15 13:22:57:493,0,-4.82509,-3.63287,-19.4566,Q,Q
2023-03-15 13:22:57:503,0,-4.808,-3.63945,-19.3915,Q,Q
2023-03-15 13:22:57:513,0,-4.79387,-3.6452,-19.3263,Q,Q
2023-03-15 13:22:57:523,0,-4.77835,-3.65019,-19.2677,Q,Q
2023-03-15 13:22:57:533,0,-4.76539,-3.65499,-19.2082,Q,Q
2023-03-15 13:22:57:543,0,-4.75511,-3.66259,-19.1506,Q,Q
2023-03-15 13:22:57:553,0,-4.74528,-3.66672,-19.0966,Q,Q
2023-03-15 13:22:57:563,0,-4.7395,-3.66964,-19.0447,Q,Q
2023-03-15 13:22:57:573,0,-4.73577,-3.67242,-18.9958,Q,Q
2023-03-15 13:22:57:583,0,-4.73454,-3.67579,-18.9456,Q,Q
2023-03-15 13:22:57:593,0,-4.73377,-3.67574,-18.895,Q,Q
2023-03-15 13:22:57:603,0,-4.7364,-3.67934,-18.8479,Q,Q
2023-03-15 13:22:57:613,0,-4.74316,-3.68048,-18.7967,Q,Q
2023-03-15 13:22:57:623,0,-4.75238,-3.67785,-18.7459,Q,Q
2023-03-15 13:22:57:633,0,-4.76679,-3.67574,-18.6991,Q,Q
2023-03-15 13:22:57:643,0,-4.7767,-3.66715,-18.6527,Q,Q
2023-03-15 13:22:57:653,0,-4.78893,-3.65692,-18.6021,Q,Q
2023-03-15 13:22:57:663,0,-4.80417,-3.65149,-18.5499,Q,Q
2023-03-15 13:22:57:673,0,-4.8216,-3.64394,-18.4948,Q,Q
2023-03-15 13:22:57:683,0,-4.83912,-3.63539,-18.4391,Q,Q
2023-03-15 13:22:57:693,0,-4.85717,-3.62482,-18.387,Q,Q
2023-03-15 13:22:57:703,0,-4.8772,-3.61495,-18.3335,Q,Q
2023-03-15 13:22:57:713,0,-4.89921,-3.60481,-18.2867,Q,Q
2023-03-15 13:22:57:723,0,-4.91973,-3.59238,-18.2434,Q,Q
2023-03-15 13:22:57:733,0,-4.94351,-3.57568,-18.1967,Q,Q
2023-03-15 13:22:57:743,0,-4.96085,-3.55951,-18.1516,Q,Q
2023-03-15 13:22:57:753,0,-4.97954,-3.54631,-18.1048,Q,Q
2023-03-15 13:22:57:763,0,-4.99367,-3.52955,-18.0635,Q,Q
2023-03-15 13:22:57:773,0,-5.0137,-3.51719,-18.021,Q,Q
2023-03-15 13:22:57:783,0,-5.0296,-3.50792,-17.9838,Q,Q
2023-03-15 13:22:57:794,0,-5.04803,-3.49774,-17.9435,Q,Q
2023-03-15 13:22:57:803,0,-5.06807,-3.48842,-17.905,Q,Q
2023-03-15 13:22:57:813,0,-5.08797,-3.48153,-17.8654,Q,Q
2023-03-15 13:22:57:823,0,-5.10714,-3.47128,-17.824,Q,Q
2023-03-15 13:22:57:833,0,-5.12573,-3.46311,-17.7857,Q,Q
2023-03-15 13:22:57:844,0,-5.14657,-3.45811,-17.7461,Q,Q
2023-03-15 13:22:57:854,0,-5.16928,-3.45442,-17.7094,Q,Q
2023-03-15 13:22:57:864,0,-5.18957,-3.4518,-17.6727,Q,Q
2023-03-15 13:22:57:873,0,-5.20828,-3.45169,-17.6349,Q,Q
2023-03-15 13:22:57:883,0,-5.22167,-3.45536,-17.5996,Q,Q
2023-03-15 13:22:57:893,0,-5.2337,-3.45686,-17.5619,Q,Q
2023-03-15 13:22:57:904,0,-5.24238,-3.45732,-17.5255,Q,Q
2023-03-15 13:22:57:913,0,-5.25021,-3.45915,-17.4876,Q,Q
2023-03-15 13:22:57:924,0,-5.25793,-3.45909,-17.4501,Q,Q
2023-03-15 13:22:57:934,0,-5.26147,-3.45804,-17.4121,Q,Q
2023-03-15 13:22:57:943,0,-5.26599,-3.45664,-17.3784,Q,Q
2023-03-15 13:22:57:954,0,-5.26677,-3.45905,-17.3421,Q,Q
2023-03-15 13:22:57:963,0,-5.265,-3.45579,-17.3094,Q,Q
2023-03-15 13:22:57:974,0,-5.26094,-3.45694,-17.2719,Q,Q
2023-03-15 13:22:57:984,0,-5.26127,-3.45495,-17.2375,Q,Q
2023-03-15 13:22:57:994,0,-5.25872,-3.45257,-17.2057,Q,Q
2023-03-15 13:22:58:4,0,-5.25467,-3.45289,-17.174,Q,Q
2023-03-15 13:22:58:14,0,-5.24746,-3.45407,-17.1398,Q,Q
2023-03-15 13:22:58:23,0,-5.24132,-3.45316,-17.1082,Q,Q
2023-03-15 13:22:58:34,0,-5.23783,-3.44943,-17.0782,Q,Q
2023-03-15 13:22:58:44,0,-5.23611,-3.44754,-17.0442,Q,Q
2023-03-15 13:22:58:54,0,-5.23589,-3.44575,-17.0072,Q,Q
2023-03-15 13:22:58:63,0,-5.2361,-3.44372,-16.9666,Q,Q
2023-03-15 13:22:58:74,0,-5.24377,-3.4375,-16.9262,Q,Q
2023-03-15 13:22:58:83,0,-5.25535,-3.43042,-16.8836,Q,Q
2023-03-15 13:22:58:94,0,-5.27159,-3.42065,-16.8316,Q,Q
2023-03-15 13:22:58:104,0,-5.29127,-3.41446,-16.7793,Q,Q
2023-03-15 13:22:58:114,0,-5.31178,-3.40787,-16.7232,Q,Q
2023-03-15 13:22:58:124,0,-5.33022,-3.40007,-16.6598,Q,Q
2023-03-15 13:22:58:134,0,-5.3483,-3.39535,-16.5954,Q,Q
2023-03-15 13:22:58:144,0,-5.36741,-3.38951,-16.5293,Q,Q
2023-03-15 13:22:58:154,0,-5.3835,-3.3808,-16.4605,Q,Q
2023-03-15 13:22:58:164,0,-5.3994,-3.37576,-16.3887,Q,Q
2023-03-15 13:22:58:174,0,-5.41529,-3.37263,-16.3209,Q,Q
2023-03-15 13:22:58:184,0,-5.42839,-3.37208,-16.2535,Q,Q
2023-03-15 13:22:58:193,0,-5.43984,-3.36734,-16.1816,Q,Q
2023-03-15 13:22:58:204,0,-5.44801,-3.36889,-16.1097,Q,Q
2023-03-15 13:22:58:214,0,-5.45682,-3.37127,-16.0371,Q,Q
2023-03-15 13:22:58:224,0,-5.46565,-3.37933,-15.9661,Q,Q
2023-03-15 13:22:58:234,0,-5.47157,-3.39134,-15.8917,Q,Q
2023-03-15 13:22:58:244,0,-5.47903,-3.40214,-15.8187,Q,Q
2023-03-15 13:22:58:254,0,-5.48495,-3.4152,-15.749,Q,Q
2023-03-15 13:22:58:264,0,-5.48452,-3.42772,-15.6849,Q,Q
2023-03-15 13:22:58:274,0,-5.48062,-3.44043,-15.6253,Q,Q
2023-03-15 13:22:58:284,0,-5.46908,-3.45314,-15.5686,Q,Q
2023-03-15 13:22:58:293,0,-5.45281,-3.4699,-15.5137,Q,Q
2023-03-15 13:22:58:303,0,-5.42906,-3.4878,-15.4573,Q,Q
2023-03-15 13:22:58:314,0,-5.39956,-3.50595,-15.4043,Q,Q
2023-03-15 13:22:58:324,0,-5.36885,-3.52555,-15.3556,Q,Q
2023-03-15 13:22:58:334,0,-5.33934,-3.54428,-15.3076,Q,Q
2023-03-15 13:22:58:344,0,-5.311,-3.56706,-15.2609,Q,Q
2023-03-15 13:22:58:353,0,-5.28288,-3.58536,-15.2171,Q,Q
2023-03-15 13:22:58:364,0,-5.24668,-3.60387,-15.1779,Q,Q
2023-03-15 13:22:58:374,0,-5.20664,-3.62483,-15.1385,Q,Q
2023-03-15 13:22:58:384,0,-5.16062,-3.64678,-15.1031,Q,Q
2023-03-15 13:22:58:394,0,-5.10483,-3.66789,-15.0755,Q,Q
2023-03-15 13:22:58:404,0,-5.04433,-3.68973,-15.051,Q,Q
2023-03-15 13:22:58:413,0,-4.97581,-3.71052,-15.0361,Q,Q
2023-03-15 13:22:58:423,0,-4.90309,-3.73026,-15.0264,Q,Q
2023-03-15 13:22:58:433,0,-4.82037,-3.74772,-15.0253,Q,Q
2023-03-15 13:22:58:443,0,-4.7351,-3.76352,-15.0293,Q,Q
2023-03-15 13:22:58:453,0,-4.64442,-3.78003,-15.0434,Q,Q
2023-03-15 13:22:58:463,0,-4.54618,-3.79438,-15.0649,Q,Q
2023-03-15 13:22:58:473,0,-4.44139,-3.80532,-15.0974,Q,Q
2023-03-15 13:22:58:483,0,-4.32996,-3.81584,-15.1362,Q,Q
2023-03-15 13:22:58:493,0,-4.21573,-3.82791,-15.1819,Q,Q
2023-03-15 13:22:58:504,0,-4.0921,-3.84012,-15.2411,Q,Q
2023-03-15 13:22:58:513,0,-3.96497,-3.85386,-15.308,Q,Q
2023-03-15 13:22:58:524,0,-3.83893,-3.87218,-15.3869,Q,Q
2023-03-15 13:22:58:534,0,-3.70871,-3.89199,-15.4819,Q,Q
2023-03-15 13:22:58:544,0,-3.56961,-3.91904,-15.5874,Q,Q
2023-03-15 13:22:58:554,0,-3.42001,-3.94491,-15.7049,Q,Q
2023-03-15 13:22:58:564,0,-3.26832,-3.97774,-15.8263,Q,Q
2023-03-15 13:22:58:573,0,-3.10813,-4.01325,-15.9609,Q,Q
2023-03-15 13:22:58:584,0,-2.94438,-4.05078,-16.1081,Q,Q
2023-03-15 13:22:58:594,0,-2.77184,-4.0946,-16.2683,Q,Q
2023-03-15 13:22:58:603,0,-2.58715,-4.13622,-16.4462,Q,Q
2023-03-15 13:22:58:613,0,-2.38989,-4.17484,-16.6366,Q,Q
2023-03-15 13:22:58:624,0,-2.1868,-4.20673,-16.8457,Q,Q
2023-03-15 13:22:58:634,0,-1.97757,-4.23888,-17.0702,Q,Q
2023-03-15 13:22:58:644,0,-1.75682,-4.26477,-17.3033,Q,Q
2023-03-15 13:22:58:654,0,-1.5226,-4.29731,-17.5579,Q,Q
2023-03-15 13:22:58:664,0,-1.26265,-4.33389,-17.8377,Q,Q
2023-03-15 13:22:58:674,0,-0.976765,-4.37139,-18.1366,Q,Q
2023-03-15 13:22:58:684,0,-0.672005,-4.40955,-18.4555,Q,Q
2023-03-15 13:22:58:694,0,-0.351714,-4.44928,-18.7894,Q,Q
2023-03-15 13:22:58:704,0,-0.0254047,-4.49175,-19.1461,Q,Q
2023-03-15 13:22:58:713,0,0.306792,-4.53959,-19.5252,Q,Q
2023-03-15 13:22:58:724,0,0.638441,-4.58933,-19.9236,Q,Q
2023-03-15 13:22:58:734,0,0.968828,-4.63892,-20.3447,Q,Q
2023-03-15 13:22:58:744,0,1.29622,-4.6826,-20.7772,Q,Q
2023-03-15 13:22:58:754,0,1.61097,-4.72392,-21.2242,Q,Q
2023-03-15 13:22:58:764,0,1.9075,-4.76552,-21.6823,Q,Q
2023-03-15 13:22:58:774,0,2.1884,-4.79587,-22.1438,Q,Q
2023-03-15 13:22:58:784,0,2.45336,-4.82458,-22.6125,Q,Q
2023-03-15 13:22:58:794,0,2.69577,-4.83849,-23.0795,Q,Q
2023-03-15 13:22:58:804,0,2.91584,-4.84405,-23.5483,Q,Q
2023-03-15 13:22:58:814,0,3.10883,-4.83483,-24.0154,Q,Q
2023-03-15 13:22:58:823,0,3.27633,-4.8214,-24.4788,Q,Q
2023-03-15 13:22:58:834,0,3.4129,-4.79973,-24.9344,Q,Q
2023-03-15 13:22:58:844,0,3.51262,-4.76361,-25.384,Q,Q
2023-03-15 13:22:58:854,0,3.57941,-4.71514,-25.8246,Q,Q
2023-03-15 13:22:58:864,0,3.61274,-4.65955,-26.2503,Q,Q
2023-03-15 13:22:58:874,0,3.61142,-4.59532,-26.6592,Q,Q
2023-03-15 13:22:58:884,0,3.57091,-4.52399,-27.0441,Q,Q
2023-03-15 13:22:58:894,0,3.49532,-4.45203,-27.4083,Q,Q
2023-03-15 13:22:58:904,0,3.39738,-4.38489,-27.7484,Q,Q
2023-03-15 13:22:58:914,0,3.28072,-4.32441,-28.0634,Q,Q
2023-03-15 13:22:58:923,0,3.14602,-4.26866,-28.3523,Q,Q
2023-03-15 13:22:58:933,0,3.01193,-4.21935,-28.6188,Q,Q
2023-03-15 13:22:58:943,0,2.87918,-4.17256,-28.8641,Q,Q
2023-03-15 13:22:58:954,0,2.76055,-4.12753,-29.093,Q,Q
2023-03-15 13:22:58:964,0,2.66589,-4.07542,-29.3061,Q,Q
2023-03-15 13:22:58:974,0,2.59948,-4.01466,-29.5124,Q,Q
2023-03-15 13:22:58:983,0,2.5543,-3.94252,-29.7014,Q,Q
2023-03-15 13:22:58:994,0,2.52969,-3.8628,-29.8745,Q,Q
2023-03-15 13:22:59:4,0,2.50652,-3.79422,-30.0253,Q,Q
2023-03-15 13:22:59:14,0,2.47454,-3.73312,-30.1631,Q,Q
2023-03-15 13:22:59:23,0,2.42644,-3.6831,-30.286,Q,Q
2023-03-15 13:22:59:34,0,2.35581,-3.64236,-30.3949,Q,Q
2023-03-15 13:22:59:44,0,2.2534,-3.61477,-30.4956,Q,Q
2023-03-15 13:22:59:54,0,2.13874,-3.59941,-30.5935,Q,Q
2023-03-15 13:22:59:63,0,2.02446,-3.5866,-30.6996,Q,Q
2023-03-15 13:22:59:73,0,1.92294,-3.56264,-30.8067,Q,Q
2023-03-15 13:22:59:84,0,1.83502,-3.52869,-30.9211,Q,Q
2023-03-15 13:22:59:93,0,1.76325,-3.47556,-31.0383,Q,Q
2023-03-15 13:22:59:104,0,1.69793,-3.40725,-31.1489,Q,Q
2023-03-15 13:22:59:114,0,1.6278,-3.3308,-31.258,Q,Q
2023-03-15 13:22:59:124,0,1.54122,-3.25111,-31.3635,Q,Q
2023-03-15 13:22:59:134,0,1.43643,-3.17771,-31.4606,Q,Q
2023-03-15 13:22:59:144,0,1.32234,-3.11816,-31.5523,Q,Q
2023-03-15 13:22:59:154,0,1.20229,-3.07849,-31.6406,Q,Q
2023-03-15 13:22:59:164,0,1.0981,-3.05681,-31.7363,Q,Q
2023-03-15 13:22:59:174,0,1.03182,-3.04608,-31.8314,Q,Q
2023-03-15 13:22:59:184,0,1.00316,-3.03841,-31.9286,Q,Q
2023-03-15 13:22:59:194,0,1.02559,-3.0288,-32.0243,Q,Q
2023-03-15 13:22:59:204,0,1.08551,-3.01597,-32.1096,Q,Q
2023-03-15 13:22:59:214,0,1.15858,-3.00201,-32.1688,Q,Q
2023-03-15 13:22:59:224,0,1.2063,-3.00253,-32.2199,Q,Q
2023-03-15 13:22:59:234,0,1.24484,-3.02032,-32.2602,Q,Q
2023-03-15 13:22:59:244,0,1.26215,-3.06439,-32.2915,Q,Q
2023-03-15 13:22:59:254,0,1.25227,-3.12992,-32.3139,Q,Q
2023-03-15 13:22:59:264,0,1.23353,-3.21322,-32.3365,Q,Q
2023-03-15 13:22:59:274,0,1.22895,-3.3068,-32.3542,Q,Q
2023-03-15 13:22:59:284,0,1.25724,-3.40116,-32.3722,Q,Q
2023-03-15 13:22:59:294,0,1.32317,-3.48585,-32.3868,Q,Q
2023-03-15 13:22:59:304,0,1.41193,-3.56066,-32.3952,Q,Q
2023-03-15 13:22:59:314,0,1.51064,-3.63614,-32.3881,Q,Q
2023-03-15 13:22:59:324,0,1.60142,-3.71922,-32.3712,Q,Q
2023-03-15 13:22:59:334,0,1.67222,-3.81082,-32.3491,Q,Q
2023-03-15 13:22:59:344,0,1.72186,-3.91573,-32.3119,Q,Q
2023-03-15 13:22:59:354,0,1.74879,-4.03571,-32.2656,Q,Q
2023-03-15 13:22:59:364,0,1.76205,-4.17049,-32.2184,Q,Q
2023-03-15 13:22:59:374,0,1.78507,-4.30915,-32.1792,Q,Q
2023-03-15 13:22:59:384,0,1.83554,-4.43177,-32.1481,Q,Q
2023-03-15 13:22:59:394,0,1.91713,-4.52544,-32.1221,Q,Q
2023-03-15 13:22:59:404,0,2.02306,-4.58404,-32.097,Q,Q
2023-03-15 13:22:59:414,0,2.141,-4.60721,-32.0703,Q,Q
2023-03-15 13:22:59:424,0,2.2439,-4.60806,-32.0399,Q,Q
2023-03-15 13:22:59:434,0,2.32519,-4.58188,-32.0181,Q,Q
2023-03-15 13:22:59:443,0,2.36553,-4.5407,-31.9934,Q,Q
2023-03-15 13:22:59:454,0,2.3638,-4.48775,-31.9713,Q,Q
2023-03-15 13:22:59:464,0,2.32924,-4.432,-31.9621,Q,Q
2023-03-15 13:22:59:473,0,2.27185,-4.37861,-31.9624,Q,Q
2023-03-15 13:22:59:483,0,2.20612,-4.32165,-31.9729,Q,Q
2023-03-15 13:22:59:494,0,2.14235,-4.26,-32.0002,Q,Q
2023-03-15 13:22:59:504,0,2.08314,-4.1971,-32.0401,Q,Q
2023-03-15 13:22:59:514,0,2.03571,-4.13335,-32.0882,Q,Q
2023-03-15 13:22:59:523,0,1.99772,-4.07249,-32.1439,Q,Q
2023-03-15 13:22:59:534,0,1.96589,-4.01356,-32.1995,Q,Q
2023-03-15 13:22:59:543,0,1.93088,-3.95532,-32.2556,Q,Q
2023-03-15 13:22:59:554,0,1.89242,-3.90554,-32.3033,Q,Q
2023-03-15 13:22:59:563,0,1.85238,-3.86805,-32.3442,Q,Q
2023-03-15 13:22:59:574,0,1.81694,-3.83958,-32.3779,Q,Q
2023-03-15 13:22:59:583,0,1.79311,-3.81916,-32.405,Q,Q
2023-03-15 13:22:59:594,0,1.78977,-3.80174,-32.4271,Q,Q
2023-03-15 13:22:59:604,0,1.80729,-3.78226,-32.4392,Q,Q
2023-03-15 13:22:59:614,0,1.85231,-3.76509,-32.4424,Q,Q
2023-03-15 13:22:59:624,0,1.91618,-3.75278,-32.4313,Q,Q
2023-03-15 13:22:59:634,0,1.98665,-3.74823,-32.4039,Q,Q
2023-03-15 13:22:59:643,0,2.05617,-3.74884,-32.3574,Q,Q
2023-03-15 13:22:59:654,0,2.12208,-3.76557,-32.2958,Q,Q
2023-03-15 13:22:59:664,0,2.17769,-3.79446,-32.2193,Q,Q
2023-03-15 13:22:59:674,0,2.21704,-3.83599,-32.1272,Q,Q
2023-03-15 13:22:59:684,0,2.22878,-3.88656,-32.0207,Q,Q
2023-03-15 13:22:59:694,0,2.21368,-3.95603,-31.9039,Q,Q
2023-03-15 13:22:59:703,0,2.18216,-4.03666,-31.7771,Q,Q
2023-03-15 13:22:59:714,0,2.14734,-4.12876,-31.6494,Q,Q
2023-03-15 13:22:59:723,0,2.12131,-4.22434,-31.5209,Q,Q
2023-03-15 13:22:59:733,0,2.10208,-4.32027,-31.3899,Q,Q
2023-03-15 13:22:59:744,0,2.09241,-4.41628,-31.2569,Q,Q
2023-03-15 13:22:59:754,0,2.07714,-4.51285,-31.1185,Q,Q
2023-03-15 13:22:59:764,0,2.05585,-4.61048,-30.9841,Q,Q
2023-03-15 13:22:59:774,0,2.02012,-4.70478,-30.8543,Q,Q
2023-03-15 13:22:59:784,0,1.97116,-4.7899,-30.732,Q,Q
2023-03-15 13:22:59:794,0,1.91704,-4.87217,-30.6224,Q,Q
2023-03-15 13:22:59:804,0,1.86307,-4.94892,-30.5241,Q,Q
2023-03-15 13:22:59:814,0,1.82098,-5.01584,-30.4374,Q,Q
2023-03-15 13:22:59:824,0,1.79331,-5.0752,-30.3673,Q,Q
2023-03-15 13:22:59:834,0,1.78832,-5.12308,-30.3091,Q,Q
2023-03-15 13:22:59:844,0,1.80217,-5.1663,-30.2613,Q,Q
2023-03-15 13:22:59:854,0,1.82897,-5.20652,-30.2219,Q,Q
2023-03-15 13:22:59:864,0,1.85809,-5.24696,-30.1932,Q,Q
2023-03-15 13:22:59:874,0,1.88378,-5.28412,-30.175,Q,Q
2023-03-15 13:22:59:884,0,1.8973,-5.32047,-30.1684,Q,Q
2023-03-15 13:22:59:894,0,1.90271,-5.35413,-30.1747,Q,Q
2023-03-15 13:22:59:904,0,1.89027,-5.38377,-30.1953,Q,Q
2023-03-15 13:22:59:914,0,1.86857,-5.40213,-30.2329,Q,Q
2023-03-15 13:22:59:924,0,1.836,-5.41495,-30.2787,Q,Q
2023-03-15 13:22:59:934,0,1.80299,-5.42025,-30.3378,Q,Q
2023-03-15 13:22:59:944,0,1.76783,-5.41859,-30.4108,Q,Q
2023-03-15 13:22:59:953,0,1.7329,-5.40781,-30.4888,Q,Q
2023-03-15 13:22:59:964,0,1.69325,-5.38805,-30.5689,Q,Q
2023-03-15 13:22:59:974,0,1.64755,-5.36626,-30.6552,Q,Q
2023-03-15 13:22:59:984,0,1.59516,-5.33345,-30.7529,Q,Q
2023-03-15 13:22:59:994,0,1.53853,-5.2897,-30.8562,Q,Q
2023-03-15 13:23:00:4,0,1.48389,-5.23956,-30.9577,Q,Q
2023-03-15 13:23:00:13,0,1.44196,-5.19198,-31.0557,Q,Q
2023-03-15 13:23:00:24,0,1.41583,-5.15352,-31.1443,Q,Q
2023-03-15 13:23:00:34,0,1.40187,-5.12116,-31.2228,Q,Q
2023-03-15 13:23:00:44,0,1.39982,-5.09007,-31.2931,Q,Q
2023-03-15 13:23:00:54,0,1.40445,-5.07378,-31.3599,Q,Q
2023-03-15 13:23:00:64,0,1.39518,-5.07234,-31.4169,Q,Q
2023-03-15 13:23:00:73,0,1.38799,-5.01613,-31.4684,Q,Q
2023-03-15 13:23:00:84,0,1.40795,-4.96267,-31.5301,Q,Q
2023-03-15 13:23:00:94,0,1.43297,-4.91075,-31.5773,Q,Q
2023-03-15 13:23:00:104,0,1.44393,-4.85713,-31.6121,Q,Q
2023-03-15 13:23:00:114,0,1.43558,-4.80242,-31.6541,Q,Q
2023-03-15 13:23:00:124,0,1.40954,-4.74156,-31.6974,Q,Q
2023-03-15 13:23:00:134,0,1.38179,-4.67867,-31.7372,Q,Q
2023-03-15 13:23:00:144,0,1.35607,-4.62649,-31.7723,Q,Q
2023-03-15 13:23:00:154,0,1.33221,-4.58877,-31.7998,Q,Q
2023-03-15 13:23:00:164,0,1.31342,-4.5633,-31.8119,Q,Q
2023-03-15 13:23:00:174,0,1.3022,-4.53916,-31.8176,Q,Q
2023-03-15 13:23:00:184,0,1.30989,-4.51607,-31.8147,Q,Q
2023-03-15 13:23:00:194,0,1.33002,-4.493,-31.8044,Q,Q
2023-03-15 13:23:00:204,0,1.35078,-4.4665,-31.7859,Q,Q
2023-03-15 13:23:00:214,0,1.36622,-4.4294,-31.7591,Q,Q
2023-03-15 13:23:00:224,0,1.37506,-4.38681,-31.7296,Q,Q
2023-03-15 13:23:00:234,0,1.37835,-4.33287,-31.7006,Q,Q
2023-03-15 13:23:00:244,0,1.37808,-4.26621,-31.6618,Q,Q
2023-03-15 13:23:00:254,0,1.37425,-4.19335,-31.6204,Q,Q
2023-03-15 13:23:00:264,0,1.37217,-4.11664,-31.576,Q,Q
2023-03-15 13:23:00:274,0,1.36683,-4.04277,-31.5298,Q,Q
2023-03-15 13:23:00:283,0,1.3646,-3.97498,-31.4819,Q,Q
2023-03-15 13:23:00:293,0,1.36742,-3.91082,-31.4328,Q,Q
2023-03-15 13:23:00:303,0,1.36392,-3.85157,-31.3937,Q,Q
2023-03-15 13:23:00:313,0,1.35465,-3.79659,-31.3599,Q,Q
2023-03-15 13:23:00:323,0,1.33979,-3.74657,-31.3323,Q,Q
2023-03-15 13:23:00:333,0,1.31762,-3.703,-31.3077,Q,Q
2023-03-15 13:23:00:343,0,1.2953,-3.66303,-31.2881,Q,Q
2023-03-15 13:23:00:353,0,1.26432,-3.62748,-31.2697,Q,Q
2023-03-15 13:23:00:363,0,1.22861,-3.60033,-31.2555,Q,Q
2023-03-15 13:23:00:374,0,1.18507,-3.58186,-31.2411,Q,Q
2023-03-15 13:23:00:384,0,1.13858,-3.57106,-31.2223,Q,Q
2023-03-15 13:23:00:394,0,1.08912,-3.566,-31.2023,Q,Q
2023-03-15 13:23:00:404,0,1.03702,-3.56359,-31.1772,Q,Q
2023-03-15 13:23:00:414,0,0.984724,-3.56646,-31.1479,Q,Q
2023-03-15 13:23:00:424,0,0.928735,-3.57624,-31.1125,Q,Q
2023-03-15 13:23:00:434,0,0.869302,-3.59871,-31.0708,Q,Q
2023-03-15 13:23:00:444,0,0.803901,-3.63516,-31.0197,Q,Q
2023-03-15 13:23:00:453,0,0.73469,-3.68149,-30.9603,Q,Q
2023-03-15 13:23:00:463,0,0.659842,-3.7388,-30.8974,Q,Q
2023-03-15 13:23:00:474,0,0.579742,-3.80475,-30.8264,Q,Q
2023-03-15 13:23:00:484,0,0.497939,-3.88088,-30.7502,Q,Q
2023-03-15 13:23:00:494,0,0.419832,-3.95999,-30.6668,Q,Q
2023-03-15 13:23:00:504,0,0.344063,-4.04444,-30.5758,Q,Q
2023-03-15 13:23:00:514,0,0.267395,-4.12785,-30.4778,Q,Q
2023-03-15 13:23:00:524,0,0.192279,-4.21395,-30.3716,Q,Q
2023-03-15 13:23:00:534,0,0.113388,-4.29988,-30.2655,Q,Q
2023-03-15 13:23:00:544,0,0.0349859,-4.38298,-30.1592,Q,Q
2023-03-15 13:23:00:554,0,-0.0453353,-4.46523,-30.0502,Q,Q
2023-03-15 13:23:00:564,0,-0.125713,-4.54886,-29.9358,Q,Q
2023-03-15 13:23:00:574,0,-0.201278,-4.63756,-29.8215,Q,Q
2023-03-15 13:23:00:584,0,-0.268332,-4.72425,-29.7027,Q,Q
2023-03-15 13:23:00:593,0,-0.33031,-4.8086,-29.5821,Q,Q
2023-03-15 13:23:00:604,0,-0.387298,-4.89028,-29.4601,Q,Q
2023-03-15 13:23:00:614,0,-0.441426,-4.97419,-29.3346,Q,Q
2023-03-15 13:23:00:624,0,-0.499159,-5.05201,-29.2128,Q,Q
2023-03-15 13:23:00:634,0,-0.574591,-5.12558,-29.092,Q,Q
2023-03-15 13:23:00:644,0,-0.658318,-5.19339,-28.9762,Q,Q
2023-03-15 13:23:00:654,0,-0.749399,-5.2531,-28.8607,Q,Q
2023-03-15 13:23:00:664,0,-0.839282,-5.31784,-28.7461,Q,Q
2023-03-15 13:23:00:674,0,-0.913128,-5.38406,-28.6309,Q,Q
2023-03-15 13:23:00:684,0,-0.972156,-5.45416,-28.5227,Q,Q
2023-03-15 13:23:00:694,0,-1.01771,-5.52148,-28.417,Q,Q
2023-03-15 13:23:00:704,0,-1.05064,-5.57945,-28.3167,Q,Q
2023-03-15 13:23:00:714,0,-1.07373,-5.62601,-28.2312,Q,Q
2023-03-15 13:23:00:724,0,-1.1007,-5.66416,-28.1504,Q,Q
2023-03-15 13:23:00:734,0,-1.13303,-5.69207,-28.0772,Q,Q
2023-03-15 13:23:00:744,0,-1.16911,-5.70993,-28.0135,Q,Q
2023-03-15 13:23:00:754,0,-1.21265,-5.72559,-27.954,Q,Q
2023-03-15 13:23:00:764,0,-1.25912,-5.73699,-27.9034,Q,Q
2023-03-15 13:23:00:774,0,-1.31473,-5.74237,-27.8643,Q,Q
2023-03-15 13:23:00:784,0,-1.37481,-5.74546,-27.8353,Q,Q
2023-03-15 13:23:00:794,0,-1.43598,-5.74513,-27.8091,Q,Q
2023-03-15 13:23:00:804,0,-1.50284,-5.73337,-27.7874,Q,Q
2023-03-15 13:23:00:814,0,-1.57168,-5.71338,-27.7712,Q,Q
2023-03-15 13:23:00:824,0,-1.64173,-5.68806,-27.7577,Q,Q
2023-03-15 13:23:00:834,0,-1.71762,-5.66061,-27.746,Q,Q
2023-03-15 13:23:00:844,0,-1.79731,-5.63042,-27.7325,Q,Q
2023-03-15 13:23:00:854,0,-1.87844,-5.60371,-27.7198,Q,Q
2023-03-15 13:23:00:864,0,-1.94893,-5.57963,-27.6962,Q,Q
2023-03-15 13:23:00:874,0,-2.0057,-5.56289,-27.6714,Q,Q
2023-03-15 13:23:00:884,0,-2.05075,-5.55966,-27.6422,Q,Q
2023-03-15 13:23:00:894,0,-2.07557,-5.56491,-27.6139,Q,Q
2023-03-15 13:23:00:904,0,-2.08062,-5.57303,-27.5859,Q,Q
2023-03-15 13:23:00:914,0,-2.06559,-5.58777,-27.5602,Q,Q
2023-03-15 13:23:00:924,0,-2.03825,-5.60004,-27.5323,Q,Q
2023-03-15 13:23:00:934,0,-1.99646,-5.61571,-27.5042,Q,Q
2023-03-15 13:23:00:944,0,-1.94733,-5.6317,-27.4739,Q,Q
2023-03-15 13:23:00:954,0,-1.8922,-5.65369,-27.4365,Q,Q
2023-03-15 13:23:00:964,0,-1.83592,-5.68401,-27.3955,Q,Q
2023-03-15 13:23:00:974,0,-1.78909,-5.72314,-27.3527,Q,Q
2023-03-15 13:23:00:983,0,-1.76404,-5.7637,-27.3176,Q,Q
2023-03-15 13:23:00:993,0,-1.76876,-5.79937,-27.2858,Q,Q
2023-03-15 13:23:01:3,0,-1.79866,-5.82632,-27.2627,Q,Q
2023-03-15 13:23:01:14,0,-1.83821,-5.84673,-27.2416,Q,Q
2023-03-15 13:23:01:24,0,-1.87489,-5.85997,-27.2196,Q,Q
2023-03-15 13:23:01:34,0,-1.9052,-5.86984,-27.1917,Q,Q
2023-03-15 13:23:01:44,0,-1.93022,-5.87272,-27.1588,Q,Q
2023-03-15 13:23:01:54,0,-1.95081,-5.86171,-27.1153,Q,Q
2023-03-15 13:23:01:64,0,-1.97702,-5.8439,-27.0671,Q,Q
2023-03-15 13:23:01:74,0,-2.01091,-5.81482,-27.012,Q,Q
2023-03-15 13:23:01:84,0,-2.05253,-5.78933,-26.9469,Q,Q
2023-03-15 13:23:01:94,0,-2.10715,-5.75248,-26.8789,Q,Q
2023-03-15 13:23:01:103,0,-2.16147,-5.70244,-26.8167,Q,Q
2023-03-15 13:23:01:113,0,-2.21282,-5.63547,-26.7533,Q,Q
2023-03-15 13:23:01:123,0,-2.25823,-5.55469,-26.6968,Q,Q
2023-03-15 13:23:01:134,0,-2.2926,-5.46124,-26.6441,Q,Q
2023-03-15 13:23:01:144,0,-2.31956,-5.35646,-26.5969,Q,Q
2023-03-15 13:23:01:154,0,-2.33912,-5.23681,-26.5532,Q,Q
2023-03-15 13:23:01:164,0,-2.35365,-5.1062,-26.5146,Q,Q
2023-03-15 13:23:01:174,0,-2.36246,-4.97154,-26.4791,Q,Q
2023-03-15 13:23:01:184,0,-2.36566,-4.83918,-26.4464,Q,Q
2023-03-15 13:23:01:194,0,-2.36589,-4.70518,-26.4118,Q,Q
2023-03-15 13:23:01:204,0,-2.36115,-4.57874,-26.3787,Q,Q
2023-03-15 13:23:01:214,0,-2.36188,-4.46133,-26.3468,Q,Q
2023-03-15 13:23:01:224,0,-2.37536,-4.34915,-26.3197,Q,Q
2023-03-15 13:23:01:234,0,-2.39817,-4.23566,-26.2956,Q,Q
2023-03-15 13:23:01:244,0,-2.42319,-4.12186,-26.2778,Q,Q
2023-03-15 13:23:01:254,0,-2.45618,-4.00695,-26.2608,Q,Q
2023-03-15 13:23:01:264,0,-2.50108,-3.896,-26.2447,Q,Q
2023-03-15 13:23:01:274,0,-2.54977,-3.79795,-26.2227,Q,Q
2023-03-15 13:23:01:284,0,-2.60027,-3.71015,-26.1889,Q,Q
2023-03-15 13:23:01:294,0,-2.64427,-3.63089,-26.1426,Q,Q
2023-03-15 13:23:01:304,0,-2.68009,-3.56046,-26.0874,Q,Q
2023-03-15 13:23:01:314,0,-2.70334,-3.49031,-26.026,Q,Q
2023-03-15 13:23:01:324,0,-2.71691,-3.42128,-25.9579,Q,Q
2023-03-15 13:23:01:334,0,-2.73144,-3.36256,-25.8846,Q,Q
2023-03-15 13:23:01:344,0,-2.74832,-3.31663,-25.8063,Q,Q
2023-03-15 13:23:01:354,0,-2.77654,-3.27696,-25.7284,Q,Q
2023-03-15 13:23:01:364,0,-2.80654,-3.24733,-25.6605,Q,Q
2023-03-15 13:23:01:374,0,-2.83231,-3.22278,-25.5965,Q,Q
2023-03-15 13:23:01:384,0,-2.85415,-3.20063,-25.5353,Q,Q
2023-03-15 13:23:01:394,0,-2.87771,-3.19298,-25.4779,Q,Q
2023-03-15 13:23:01:404,0,-2.8988,-3.19012,-25.425,Q,Q
2023-03-15 13:23:01:414,0,-2.91581,-3.19673,-25.3693,Q,Q
2023-03-15 13:23:01:424,0,-2.92757,-3.20679,-25.3132,Q,Q
2023-03-15 13:23:01:434,0,-2.93168,-3.21875,-25.2478,Q,Q
2023-03-15 13:23:01:444,0,-2.94345,-3.23304,-25.1788,Q,Q
2023-03-15 13:23:01:454,0,-2.95553,-3.24962,-25.1112,Q,Q
2023-03-15 13:23:01:464,0,-2.97495,-3.25955,-25.0418,Q,Q
2023-03-15 13:23:01:474,0,-2.9901,-3.26423,-24.9715,Q,Q
2023-03-15 13:23:01:484,0,-2.99938,-3.26271,-24.9072,Q,Q
2023-03-15 13:23:01:493,0,-2.99945,-3.25161,-24.8456,Q,Q
2023-03-15 13:23:01:504,0,-2.99228,-3.24119,-24.7839,Q,Q
2023-03-15 13:23:01:514,0,-2.97663,-3.23407,-24.7248,Q,Q
2023-03-15 13:23:01:524,0,-2.96156,-3.2354,-24.663,Q,Q
2023-03-15 13:23:01:534,0,-2.94837,-3.24303,-24.6043,Q,Q
2023-03-15 13:23:01:544,0,-2.94171,-3.252,-24.556,Q,Q
2023-03-15 13:23:01:554,0,-2.94459,-3.26168,-24.5176,Q,Q
2023-03-15 13:23:01:564,0,-2.94739,-3.27136,-24.484,Q,Q
2023-03-15 13:23:01:574,0,-2.95111,-3.27685,-24.457,Q,Q
2023-03-15 13:23:01:584,0,-2.94962,-3.28304,-24.4372,Q,Q
2023-03-15 13:23:01:594,0,-2.952,-3.29066,-24.4272,Q,Q
2023-03-15 13:23:01:604,0,-2.96373,-3.30165,-24.4246,Q,Q
2023-03-15 13:23:01:614,0,-2.97045,-3.31517,-24.4334,Q,Q
2023-03-15 13:23:01:624,0,-2.97265,-3.32886,-24.449,Q,Q
2023-03-15 13:23:01:634,0,-2.97109,-3.3477,-24.4728,Q,Q
2023-03-15 13:23:01:644,0,-2.96012,-3.36908,-24.51,Q,Q
2023-03-15 13:23:01:654,0,-2.94091,-3.38765,-24.5551,Q,Q
2023-03-15 13:23:01:664,0,-2.90989,-3.40409,-24.6081,Q,Q
2023-03-15 13:23:01:674,0,-2.8747,-3.4104,-24.6708,Q,Q
2023-03-15 13:23:01:684,0,-2.84387,-3.40936,-24.7323,Q,Q
2023-03-15 13:23:01:694,0,-2.81998,-3.40343,-24.7965,Q,Q
2023-03-15 13:23:01:704,0,-2.80523,-3.39537,-24.8574,Q,Q
2023-03-15 13:23:01:714,0,-2.80593,-3.38988,-24.9175,Q,Q
2023-03-15 13:23:01:724,0,-2.81882,-3.38699,-24.975,Q,Q
2023-03-15 13:23:01:734,0,-2.84029,-3.38607,-25.0295,Q,Q
2023-03-15 13:23:01:744,0,-2.86009,-3.38205,-25.0785,Q,Q
2023-03-15 13:23:01:754,0,-2.87885,-3.37875,-25.1252,Q,Q
2023-03-15 13:23:01:764,0,-2.89052,-3.37179,-25.1696,Q,Q
2023-03-15 13:23:01:774,0,-2.90421,-3.36086,-25.2061,Q,Q
2023-03-15 13:23:01:784,0,-2.91691,-3.35451,-25.2378,Q,Q
2023-03-15 13:23:01:794,0,-2.92807,-3.34631,-25.2652,Q,Q
2023-03-15 13:23:01:804,0,-2.93655,-3.33705,-25.2864,Q,Q
2023-03-15 13:23:01:814,0,-2.95292,-3.32331,-25.3044,Q,Q
2023-03-15 13:23:01:824,0,-2.97405,-3.30482,-25.3231,Q,Q
2023-03-15 13:23:01:834,0,-2.99406,-3.288,-25.3401,Q,Q
2023-03-15 13:23:01:844,0,-3.01079,-3.27902,-25.3575,Q,Q
2023-03-15 13:23:01:854,0,-3.02013,-3.28252,-25.3681,Q,Q
2023-03-15 13:23:01:864,0,-3.02496,-3.28905,-25.3767,Q,Q
2023-03-15 13:23:01:874,0,-3.03626,-3.29692,-25.3878,Q,Q
2023-03-15 13:23:01:884,0,-3.05485,-3.3069,-25.3944,Q,Q
2023-03-15 13:23:01:894,0,-3.07294,-3.31917,-25.3988,Q,Q
2023-03-15 13:23:01:904,0,-3.08932,-3.33602,-25.4079,Q,Q
2023-03-15 13:23:01:914,0,-3.10175,-3.35536,-25.413,Q,Q
2023-03-15 13:23:01:924,0,-3.11774,-3.37048,-25.4176,Q,Q
2023-03-15 13:23:01:934,0,-3.13679,-3.39081,-25.4159,Q,Q
2023-03-15 13:23:01:944,0,-3.16304,-3.41163,-25.412,Q,Q
2023-03-15 13:23:01:954,0,-3.18901,-3.4303,-25.407,Q,Q
2023-03-15 13:23:01:964,0,-3.21331,-3.44923,-25.4001,Q,Q
2023-03-15 13:23:01:974,0,-3.23392,-3.46577,-25.3933,Q,Q
2023-03-15 13:23:01:984,0,-3.25437,-3.48191,-25.3853,Q,Q
2023-03-15 13:23:01:994,0,-3.26689,-3.49972,-25.3708,Q,Q
2023-03-15 13:23:02:4,0,-3.27392,-3.51205,-25.3516,Q,Q
2023-03-15 13:23:02:13,0,-3.28031,-3.52438,-25.3355,Q,Q
2023-03-15 13:23:02:24,0,-3.27628,-3.53418,-25.3175,Q,Q
2023-03-15 13:23:02:34,0,-3.27368,-3.54658,-25.2913,Q,Q
2023-03-15 13:23:02:44,0,-3.26946,-3.55844,-25.2646,Q,Q
2023-03-15 13:23:02:54,0,-3.26898,-3.57034,-25.2376,Q,Q
2023-03-15 13:23:02:64,0,-3.27543,-3.57843,-25.21,Q,Q
2023-03-15 13:23:02:74,0,-3.29226,-3.57484,-25.1853,Q,Q
2023-03-15 13:23:02:84,0,-3.31865,-3.5697,-25.1617,Q,Q
2023-03-15 13:23:02:94,0,-3.35243,-3.55937,-25.1403,Q,Q
2023-03-15 13:23:02:104,0,-3.39099,-3.54758,-25.1121,Q,Q
2023-03-15 13:23:02:114,0,-3.43271,-3.54419,-25.0768,Q,Q
2023-03-15 13:23:02:124,0,-3.47188,-3.54454,-25.0385,Q,Q
2023-03-15 13:23:02:134,0,-3.50319,-3.55279,-25.006,Q,Q
2023-03-15 13:23:02:143,0,-3.52686,-3.56172,-24.9779,Q,Q
2023-03-15 13:23:02:154,0,-3.54592,-3.5727,-24.9529,Q,Q
2023-03-15 13:23:02:164,0,-3.56697,-3.58237,-24.9289,Q,Q
2023-03-15 13:23:02:174,0,-3.58359,-3.60096,-24.9083,Q,Q
2023-03-15 13:23:02:184,0,-3.59834,-3.61755,-24.89,Q,Q
2023-03-15 13:23:02:194,0,-3.61345,-3.63721,-24.873,Q,Q
2023-03-15 13:23:02:204,0,-3.62523,-3.65575,-24.8583,Q,Q
2023-03-15 13:23:02:214,0,-3.62841,-3.67288,-24.8457,Q,Q
2023-03-15 13:23:02:224,0,-3.63279,-3.68835,-24.8329,Q,Q
2023-03-15 13:23:02:234,0,-3.62642,-3.70025,-24.8188,Q,Q
2023-03-15 13:23:02:244,0,-3.61322,-3.70746,-24.8033,Q,Q
2023-03-15 13:23:02:254,0,-3.59611,-3.7123,-24.7866,Q,Q
2023-03-15 13:23:02:264,0,-3.57753,-3.71041,-24.7648,Q,Q
2023-03-15 13:23:02:274,0,-3.55825,-3.70817,-24.7362,Q,Q
2023-03-15 13:23:02:284,0,-3.54417,-3.7033,-24.7121,Q,Q
2023-03-15 13:23:02:294,0,-3.528,-3.69976,-24.6873,Q,Q
2023-03-15 13:23:02:304,0,-3.51299,-3.69689,-24.6612,Q,Q
2023-03-15 13:23:02:314,0,-3.50241,-3.69506,-24.6344,Q,Q
2023-03-15 13:23:02:324,0,-3.49235,-3.68859,-24.6136,Q,Q
2023-03-15 13:23:02:334,0,-3.48136,-3.68427,-24.591,Q,Q
2023-03-15 13:23:02:344,0,-3.46899,-3.67609,-24.5721,Q,Q
2023-03-15 13:23:02:354,0,-3.45646,-3.66745,-24.5569,Q,Q
2023-03-15 13:23:02:364,0,-3.44773,-3.65787,-24.5381,Q,Q
2023-03-15 13:23:02:374,0,-3.43684,-3.65467,-24.5158,Q,Q
2023-03-15 13:23:02:384,0,-3.43243,-3.64938,-24.4918,Q,Q
2023-03-15 13:23:02:394,0,-3.42688,-3.6477,-24.4671,Q,Q
2023-03-15 13:23:02:404,0,-3.42391,-3.64832,-24.4418,Q,Q
2023-03-15 13:23:02:414,0,-3.417,-3.64995,-24.4151,Q,Q
2023-03-15 13:23:02:424,0,-3.40616,-3.65078,-24.3872,Q,Q
2023-03-15 13:23:02:434,0,-3.39327,-3.652,-24.3613,Q,Q
2023-03-15 13:23:02:444,0,-3.38075,-3.64488,-24.3318,Q,Q
2023-03-15 13:23:02:454,0,-3.36473,-3.63755,-24.2992,Q,Q
2023-03-15 13:23:02:464,0,-3.34645,-3.63088,-24.2675,Q,Q
2023-03-15 13:23:02:474,0,-3.33099,-3.62526,-24.2308,Q,Q
2023-03-15 13:23:02:484,0,-3.31599,-3.62344,-24.1896,Q,Q
2023-03-15 13:23:02:494,0,-3.30204,-3.62256,-24.1438,Q,Q
2023-03-15 13:23:02:504,0,-3.29079,-3.62566,-24.0984,Q,Q
2023-03-15 13:23:02:514,0,-3.28345,-3.63357,-24.0526,Q,Q
2023-03-15 13:23:02:524,0,-3.27747,-3.64517,-24.0047,Q,Q
2023-03-15 13:23:02:534,0,-3.27542,-3.66082,-23.9589,Q,Q
2023-03-15 13:23:02:544,0,-3.2767,-3.6788,-23.9196,Q,Q
2023-03-15 13:23:02:554,0,-3.28157,-3.69296,-23.8822,Q,Q
2023-03-15 13:23:02:564,0,-3.28815,-3.71007,-23.8507,Q,Q
2023-03-15 13:23:02:574,0,-3.29147,-3.72673,-23.8242,Q,Q
2023-03-15 13:23:02:584,0,-3.29562,-3.74905,-23.8013,Q,Q
2023-03-15 13:23:02:594,0,-3.2992,-3.76671,-23.779,Q,Q
2023-03-15 13:23:02:604,0,-3.30786,-3.7807,-23.7613,Q,Q
2023-03-15 13:23:02:614,0,-3.31871,-3.7845,-23.7423,Q,Q
2023-03-15 13:23:02:624,0,-3.33429,-3.78527,-23.7278,Q,Q
2023-03-15 13:23:02:634,0,-3.34854,-3.77691,-23.7194,Q,Q
2023-03-15 13:23:02:644,0,-3.36476,-3.7651,-23.7113,Q,Q
2023-03-15 13:23:02:654,0,-3.38178,-3.75775,-23.6997,Q,Q
2023-03-15 13:23:02:664,0,-3.39398,-3.74882,-23.6928,Q,Q
2023-03-15 13:23:02:674,0,-3.39724,-3.74402,-23.6886,Q,Q
2023-03-15 13:23:02:684,0,-3.39826,-3.73599,-23.682,Q,Q
2023-03-15 13:23:02:694,0,-3.39769,-3.72631,-23.6773,Q,Q
2023-03-15 13:23:02:704,0,-3.39714,-3.71804,-23.6716,Q,Q
2023-03-15 13:23:02:714,0,-3.39336,-3.71019,-23.6642,Q,Q
2023-03-15 13:23:02:724,0,-3.387,-3.70656,-23.6582,Q,Q
2023-03-15 13:23:02:734,0,-3.38155,-3.70437,-23.6519,Q,Q
2023-03-15 13:23:02:744,0,-3.37836,-3.70303,-23.6424,Q,Q
2023-03-15 13:23:02:754,0,-3.38066,-3.7022,-23.6354,Q,Q
2023-03-15 13:23:02:764,0,-3.38595,-3.6965,-23.6269,Q,Q
2023-03-15 13:23:02:774,0,-3.39602,-3.69298,-23.6174,Q,Q
2023-03-15 13:23:02:784,0,-3.40915,-3.687,-23.6049,Q,Q
2023-03-15 13:23:02:794,0,-3.42551,-3.68457,-23.5939,Q,Q
2023-03-15 13:23:02:804,0,-3.44338,-3.6806,-23.5808,Q,Q
2023-03-15 13:23:02:814,0,-3.45733,-3.67831,-23.5654,Q,Q
2023-03-15 13:23:02:824,0,-3.47194,-3.67314,-23.5505,Q,Q
2023-03-15 13:23:02:834,0,-3.48356,-3.66562,-23.528,Q,Q
2023-03-15 13:23:02:844,0,-3.5012,-3.66029,-23.5108,Q,Q
2023-03-15 13:23:02:854,0,-3.52267,-3.64986,-23.4958,Q,Q
2023-03-15 13:23:02:864,0,-3.54478,-3.64095,-23.4765,Q,Q
2023-03-15 13:23:02:874,0,-3.57318,-3.63152,-23.4615,Q,Q
2023-03-15 13:23:02:884,0,-3.60371,-3.6198,-23.4506,Q,Q
2023-03-15 13:23:02:894,0,-3.63295,-3.60922,-23.4392,Q,Q
2023-03-15 13:23:02:904,0,-3.65654,-3.59589,-23.4299,Q,Q
2023-03-15 13:23:02:914,0,-3.67471,-3.57865,-23.4245,Q,Q
2023-03-15 13:23:02:924,0,-3.68914,-3.56138,-23.4191,Q,Q
2023-03-15 13:23:02:934,0,-3.70132,-3.54265,-23.4162,Q,Q
2023-03-15 13:23:02:944,0,-3.70865,-3.52436,-23.4151,Q,Q
2023-03-15 13:23:02:954,0,-3.7173,-3.50667,-23.4129,Q,Q
2023-03-15 13:23:02:964,0,-3.72783,-3.4868,-23.4117,Q,Q
2023-03-15 13:23:02:974,0,-3.73755,-3.47297,-23.4051,Q,Q
2023-03-15 13:23:02:984,0,-3.7501,-3.46248,-23.3984,Q,Q
2023-03-15 13:23:02:994,0,-3.76167,-3.45602,-23.389,Q,Q
2023-03-15 13:23:03:4,0,-3.7734,-3.45298,-23.3806,Q,Q
2023-03-15 13:23:03:14,0,-3.78608,-3.45431,-23.3698,Q,Q
2023-03-15 13:23:03:24,0,-3.79947,-3.45174,-23.3603,Q,Q
2023-03-15 13:23:03:33,0,-3.81098,-3.44613,-23.3482,Q,Q
2023-03-15 13:23:03:44,0,-3.81981,-3.44293,-23.3385,Q,Q
2023-03-15 13:23:03:54,0,-3.82237,-3.44059,-23.3291,Q,Q
2023-03-15 13:23:03:64,0,-3.81839,-3.43566,-23.3203,Q,Q
2023-03-15 13:23:03:74,0,-3.81131,-3.43231,-23.3091,Q,Q
2023-03-15 13:23:03:84,0,-3.8052,-3.43112,-23.2988,Q,Q
2023-03-15 13:23:03:94,0,-3.80018,-3.43544,-23.2889,Q,Q
2023-03-15 13:23:03:104,0,-3.7992,-3.43669,-23.2788,Q,Q
2023-03-15 13:23:03:114,0,-3.8061,-3.4407,-23.2682,Q,Q
2023-03-15 13:23:03:124,0,-3.81999,-3.44826,-23.2562,Q,Q
2023-03-15 13:23:03:134,0,-3.82893,-3.45637,-23.2418,Q,Q
2023-03-15 13:23:03:144,0,-3.83756,-3.46721,-23.2248,Q,Q
2023-03-15 13:23:03:154,0,-3.83915,-3.47779,-23.2125,Q,Q
2023-03-15 13:23:03:164,0,-3.83336,-3.48784,-23.1966,Q,Q
2023-03-15 13:23:03:174,0,-3.82405,-3.49927,-23.1775,Q,Q
2023-03-15 13:23:03:184,0,-3.81267,-3.51017,-23.153,Q,Q
2023-03-15 13:23:03:194,0,-3.79842,-3.52103,-23.12,Q,Q
2023-03-15 13:23:03:204,0,-3.78995,-3.53505,-23.0855,Q,Q
2023-03-15 13:23:03:214,0,-3.78529,-3.54567,-23.047,Q,Q
2023-03-15 13:23:03:224,0,-3.78451,-3.55805,-23.0111,Q,Q
2023-03-15 13:23:03:234,0,-3.79329,-3.56744,-22.9802,Q,Q
2023-03-15 13:23:03:244,0,-3.80177,-3.57434,-22.9523,Q,Q
2023-03-15 13:23:03:254,0,-3.80728,-3.57682,-22.9239,Q,Q
2023-03-15 13:23:03:264,0,-3.81643,-3.57327,-22.9038,Q,Q
2023-03-15 13:23:03:274,0,-3.82311,-3.56913,-22.8885,Q,Q
2023-03-15 13:23:03:284,0,-3.82825,-3.56095,-22.8735,Q,Q
2023-03-15 13:23:03:294,0,-3.83486,-3.55212,-22.8612,Q,Q
2023-03-15 13:23:03:304,0,-3.84609,-3.53771,-22.851,Q,Q
2023-03-15 13:23:03:314,0,-3.85873,-3.52148,-22.8438,Q,Q
2023-03-15 13:23:03:324,0,-3.873,-3.50508,-22.8382,Q,Q
2023-03-15 13:23:03:334,0,-3.89447,-3.49159,-22.8315,Q,Q
2023-03-15 13:23:03:344,0,-3.919,-3.48151,-22.8278,Q,Q
2023-03-15 13:23:03:354,0,-3.94217,-3.47925,-22.8238,Q,Q
2023-03-15 13:23:03:364,0,-3.96429,-3.47855,-22.8237,Q,Q
2023-03-15 13:23:03:374,0,-3.98153,-3.47664,-22.8211,Q,Q
2023-03-15 13:23:03:384,0,-3.99633,-3.47167,-22.8187,Q,Q
2023-03-15 13:23:03:394,0,-4.00812,-3.4671,-22.8154,Q,Q
2023-03-15 13:23:03:404,0,-4.01468,-3.46178,-22.8098,Q,Q
2023-03-15 13:23:03:414,0,-4.014,-3.45657,-22.8018,Q,Q
2023-03-15 13:23:03:424,0,-4.01096,-3.45522,-22.7952,Q,Q
2023-03-15 13:23:03:433,0,-4.01111,-3.45443,-22.7863,Q,Q
2023-03-15 13:23:03:443,0,-4.01109,-3.45045,-22.7726,Q,Q
2023-03-15 13:23:03:453,0,-4.01621,-3.44436,-22.7592,Q,Q
2023-03-15 13:23:03:463,0,-4.0233,-3.4428,-22.75,Q,Q
2023-03-15 13:23:03:473,0,-4.03521,-3.44464,-22.7426,Q,Q
2023-03-15 13:23:03:483,0,-4.05041,-3.44429,-22.7344,Q,Q
2023-03-15 13:23:03:493,0,-4.06494,-3.44904,-22.7312,Q,Q
2023-03-15 13:23:03:504,0,-4.08049,-3.45493,-22.73,Q,Q
2023-03-15 13:23:03:514,0,-4.0892,-3.46287,-22.7335,Q,Q
2023-03-15 13:23:03:524,0,-4.08846,-3.46986,-22.7386,Q,Q
2023-03-15 13:23:03:534,0,-4.08632,-3.47853,-22.7418,Q,Q
2023-03-15 13:23:03:543,0,-4.08305,-3.48504,-22.7469,Q,Q
2023-03-15 13:23:03:554,0,-4.08028,-3.48842,-22.7561,Q,Q
2023-03-15 13:23:03:564,0,-4.0803,-3.48869,-22.7624,Q,Q
2023-03-15 13:23:03:574,0,-4.08149,-3.49265,-22.7731,Q,Q
2023-03-15 13:23:03:584,0,-4.08507,-3.49246,-22.7802,Q,Q
2023-03-15 13:23:03:594,0,-4.08917,-3.49358,-22.7833,Q,Q
2023-03-15 13:23:03:604,0,-4.09496,-3.49643,-22.7838,Q,Q
2023-03-15 13:23:03:614,0,-4.10215,-3.5011,-22.7818,Q,Q
2023-03-15 13:23:03:624,0,-4.11214,-3.50376,-22.7816,Q,Q
2023-03-15 13:23:03:634,0,-4.11895,-3.50775,-22.7809,Q,Q
2023-03-15 13:23:03:644,0,-4.12585,-3.51073,-22.7885,Q,Q
2023-03-15 13:23:03:654,0,-4.1332,-3.51593,-22.7968,Q,Q
2023-03-15 13:23:03:664,0,-4.13814,-3.52161,-22.8087,Q,Q
2023-03-15 13:23:03:674,0,-4.15142,-3.52671,-22.8175,Q,Q
2023-03-15 13:23:03:684,0,-4.16316,-3.52826,-22.8254,Q,Q
2023-03-15 13:23:03:694,0,-4.17968,-3.53389,-22.8348,Q,Q
2023-03-15 13:23:03:704,0,-4.19794,-3.53874,-22.8508,Q,Q
2023-03-15 13:23:03:714,0,-4.21707,-3.54547,-22.8675,Q,Q
2023-03-15 13:23:03:724,0,-4.23814,-3.54688,-22.8866,Q,Q
2023-03-15 13:23:03:734,0,-4.25445,-3.55226,-22.9096,Q,Q
2023-03-15 13:23:03:744,0,-4.27354,-3.55673,-22.9367,Q,Q
2023-03-15 13:23:03:754,0,-4.28346,-3.56104,-22.9649,Q,Q
2023-03-15 13:23:03:764,0,-4.29225,-3.57127,-22.9957,Q,Q
2023-03-15 13:23:03:774,0,-4.30058,-3.5835,-23.0261,Q,Q
2023-03-15 13:23:03:784,0,-4.30279,-3.59417,-23.0621,Q,Q
2023-03-15 13:23:03:794,0,-4.30636,-3.60551,-23.0961,Q,Q
2023-03-15 13:23:03:804,0,-4.31011,-3.62033,-23.1314,Q,Q
2023-03-15 13:23:03:814,0,-4.3111,-3.63608,-23.1683,Q,Q
2023-03-15 13:23:03:824,0,-4.30865,-3.65161,-23.2067,Q,Q
2023-03-15 13:23:03:834,0,-4.30558,-3.66284,-23.2468,Q,Q
2023-03-15 13:23:03:844,0,-4.30207,-3.67381,-23.2896,Q,Q
2023-03-15 13:23:03:854,0,-4.29595,-3.68753,-23.3291,Q,Q
2023-03-15 13:23:03:864,0,-4.29291,-3.70032,-23.3708,Q,Q
2023-03-15 13:23:03:874,0,-4.28865,-3.71512,-23.4129,Q,Q
2023-03-15 13:23:03:884,0,-4.2779,-3.73223,-23.4568,Q,Q
2023-03-15 13:23:03:894,0,-4.26397,-3.74673,-23.5013,Q,Q
2023-03-15 13:23:03:904,0,-4.24907,-3.75861,-23.5446,Q,Q
2023-03-15 13:23:03:914,0,-4.23539,-3.77164,-23.5904,Q,Q
2023-03-15 13:23:03:924,0,-4.21614,-3.78356,-23.6356,Q,Q
2023-03-15 13:23:03:934,0,-4.20024,-3.78992,-23.6819,Q,Q
2023-03-15 13:23:03:944,0,-4.18278,-3.79575,-23.7278,Q,Q
2023-03-15 13:23:03:954,0,-4.16098,-3.80441,-23.7733,Q,Q
2023-03-15 13:23:03:964,0,-4.1462,-3.81358,-23.8179,Q,Q
2023-03-15 13:23:03:974,0,-4.13358,-3.82477,-23.8647,Q,Q
2023-03-15 13:23:03:984,0,-4.12211,-3.83222,-23.9128,Q,Q
2023-03-15 13:23:03:994,0,-4.11532,-3.83945,-23.959,Q,Q
2023-03-15 13:23:04:4,0,-4.11147,-3.84544,-24.0015,Q,Q
2023-03-15 13:23:04:14,0,-4.1036,-3.85423,-24.0402,Q,Q
2023-03-15 13:23:04:24,0,-4.09517,-3.86756,-24.0816,Q,Q
2023-03-15 13:23:04:34,0,-4.08007,-3.88672,-24.1191,Q,Q
2023-03-15 13:23:04:44,0,-4.06497,-3.90156,-24.1616,Q,Q
2023-03-15 13:23:04:53,0,-4.05265,-3.91432,-24.2005,Q,Q
2023-03-15 13:23:04:64,0,-4.0401,-3.92726,-24.2405,Q,Q
2023-03-15 13:23:04:74,0,-4.03381,-3.93608,-24.2784,Q,Q
2023-03-15 13:23:04:84,0,-4.02406,-3.94633,-24.3116,Q,Q
2023-03-15 13:23:04:94,0,-4.01867,-3.95731,-24.3393,Q,Q
2023-03-15 13:23:04:104,0,-4.0151,-3.96638,-24.3629,Q,Q
2023-03-15 13:23:04:114,0,-4.01347,-3.97398,-24.3891,Q,Q
2023-03-15 13:23:04:124,0,-4.01245,-3.97832,-24.4064,Q,Q
2023-03-15 13:23:04:134,0,-4.01342,-3.98223,-24.4204,Q,Q
2023-03-15 13:23:04:144,0,-4.0133,-3.98434,-24.4309,Q,Q
2023-03-15 13:23:04:154,0,-4.01642,-3.98627,-24.4338,Q,Q
2023-03-15 13:23:04:164,0,-4.01355,-3.99683,-24.4386,Q,Q
2023-03-15 13:23:04:174,0,-3.99104,-4.01313,-24.4508,Q,Q
2023-03-15 13:23:04:184,0,-3.96378,-4.02233,-24.4644,Q,Q
2023-03-15 13:23:04:194,0,-3.94295,-4.02713,-24.4707,Q,Q
2023-03-15 13:23:04:204,0,-3.93242,-4.02814,-24.4783,Q,Q
2023-03-15 13:23:04:214,0,-3.9269,-4.03253,-24.4779,Q,Q
2023-03-15 13:23:04:224,0,-3.91587,-4.03657,-24.4751,Q,Q
2023-03-15 13:23:04:234,0,-3.90223,-4.04171,-24.4673,Q,Q
2023-03-15 13:23:04:244,0,-3.8873,-4.0412,-24.4594,Q,Q
2023-03-15 13:23:04:254,0,-3.86576,-4.04101,-24.4486,Q,Q
2023-03-15 13:23:04:264,0,-3.8419,-4.04225,-24.4393,Q,Q
2023-03-15 13:23:04:274,0,-3.82076,-4.04943,-24.4306,Q,Q
2023-03-15 13:23:04:284,0,-3.79891,-4.05505,-24.4177,Q,Q
2023-03-15 13:23:04:294,0,-3.77486,-4.06081,-24.4061,Q,Q
2023-03-15 13:23:04:304,0,-3.76011,-4.06495,-24.3985,Q,Q
2023-03-15 13:23:04:314,0,-3.74734,-4.06685,-24.3939,Q,Q
2023-03-15 13:23:04:324,0,-3.73435,-4.0666,-24.3934,Q,Q
2023-03-15 13:23:04:334,0,-3.72398,-4.06737,-24.3962,Q,Q
2023-03-15 13:23:04:344,0,-3.71485,-4.06791,-24.4007,Q,Q
2023-03-15 13:23:04:354,0,-3.70749,-4.07022,-24.4047,Q,Q
2023-03-15 13:23:04:364,0,-3.70721,-4.07275,-24.412,Q,Q
2023-03-15 13:23:04:374,0,-3.70094,-4.07632,-24.4231,Q,Q
2023-03-15 13:23:04:384,0,-3.69195,-4.08026,-24.436,Q,Q
2023-03-15 13:23:04:394,0,-3.686,-4.08387,-24.4511,Q,Q
2023-03-15 13:23:04:404,0,-3.68081,-4.08424,-24.4636,Q,Q
2023-03-15 13:23:04:414,0,-3.6752,-4.08408,-24.4777,Q,Q
2023-03-15 13:23:04:424,0,-3.67717,-4.08392,-24.4957,Q,Q
2023-03-15 13:23:04:434,0,-3.6849,-4.07833,-24.5121,Q,Q
2023-03-15 13:23:04:444,0,-3.69454,-4.07863,-24.5285,Q,Q
2023-03-15 13:23:04:454,0,-3.70719,-4.0803,-24.543,Q,Q
2023-03-15 13:23:04:464,0,-3.72369,-4.08059,-24.5611,Q,Q
2023-03-15 13:23:04:474,0,-3.73412,-4.0815,-24.5824,Q,Q
2023-03-15 13:23:04:484,0,-3.74194,-4.08379,-24.6034,Q,Q
2023-03-15 13:23:04:493,0,-3.74536,-4.08322,-24.6214,Q,Q
2023-03-15 13:23:04:504,0,-3.74631,-4.08669,-24.6404,Q,Q
2023-03-15 13:23:04:514,0,-3.74464,-4.08617,-24.6593,Q,Q
2023-03-15 13:23:04:524,0,-3.74523,-4.08554,-24.6786,Q,Q
2023-03-15 13:23:04:534,0,-3.74209,-4.0853,-24.701,Q,Q
2023-03-15 13:23:04:544,0,-3.73726,-4.07858,-24.7267,Q,Q
2023-03-15 13:23:04:554,0,-3.73311,-4.07592,-24.7519,Q,Q
2023-03-15 13:23:04:564,0,-3.73198,-4.07031,-24.774,Q,Q
2023-03-15 13:23:04:573,0,-3.73518,-4.06366,-24.7924,Q,Q
2023-03-15 13:23:04:583,0,-3.73763,-4.06289,-24.815,Q,Q
2023-03-15 13:23:04:594,0,-3.74779,-4.06231,-24.8367,Q,Q
2023-03-15 13:23:04:604,0,-3.75669,-4.06349,-24.8559,Q,Q
2023-03-15 13:23:04:614,0,-3.76438,-4.05566,-24.8767,Q,Q
2023-03-15 13:23:04:624,0,-3.7749,-4.05339,-24.8919,Q,Q
2023-03-15 13:23:04:634,0,-3.78612,-4.0468,-24.9075,Q,Q
2023-03-15 13:23:04:644,0,-3.80636,-4.04384,-24.9207,Q,Q
2023-03-15 13:23:04:654,0,-3.82687,-4.03862,-24.9312,Q,Q
2023-03-15 13:23:04:664,0,-3.8448,-4.03367,-24.9406,Q,Q
2023-03-15 13:23:04:674,0,-3.86254,-4.03116,-24.9499,Q,Q
2023-03-15 13:23:04:684,0,-3.87938,-4.0249,-24.9564,Q,Q
2023-03-15 13:23:04:694,0,-3.89616,-4.01779,-24.9608,Q,Q
2023-03-15 13:23:04:704,0,-3.91627,-4.00774,-24.9658,Q,Q
2023-03-15 13:23:04:714,0,-3.93235,-3.99156,-24.9717,Q,Q
2023-03-15 13:23:04:724,0,-3.94819,-3.97817,-24.9772,Q,Q
2023-03-15 13:23:04:734,0,-3.96837,-3.96626,-24.9779,Q,Q
2023-03-15 13:23:04:744,0,-3.9822,-3.95759,-24.9786,Q,Q
2023-03-15 13:23:04:754,0,-3.98114,-3.9528,-24.9796,Q,Q
2023-03-15 13:23:04:764,0,-3.97475,-3.95261,-24.978,Q,Q
2023-03-15 13:23:04:774,0,-3.9816,-3.95106,-24.9758,Q,Q
2023-03-15 13:23:04:784,0,-3.99673,-3.95072,-24.9734,Q,Q
2023-03-15 13:23:04:794,0,-4.00923,-3.9551,-24.9747,Q,Q
2023-03-15 13:23:04:804,0,-4.01387,-3.95788,-24.9748,Q,Q
2023-03-15 13:23:04:814,0,-4.02486,-3.95887,-24.9691,Q,Q
2023-03-15 13:23:04:824,0,-4.0351,-3.95731,-24.9642,Q,Q
2023-03-15 13:23:04:834,0,-4.05094,-3.96045,-24.9583,Q,Q
2023-03-15 13:23:04:844,0,-4.06948,-3.96126,-24.9525,Q,Q
2023-03-15 13:23:04:854,0,-4.0806,-3.95788,-24.9436,Q,Q
2023-03-15 13:23:04:864,0,-4.09308,-3.96368,-24.9312,Q,Q
2023-03-15 13:23:04:874,0,-4.11064,-3.96756,-24.9164,Q,Q
2023-03-15 13:23:04:884,0,-4.12657,-3.9636,-24.9047,Q,Q
2023-03-15 13:23:04:894,0,-4.14146,-3.96583,-24.8976,Q,Q
2023-03-15 13:23:04:904,0,-4.16205,-3.96765,-24.8883,Q,Q
2023-03-15 13:23:04:914,0,-4.18395,-3.96981,-24.8817,Q,Q
2023-03-15 13:23:04:924,0,-4.20316,-3.97112,-24.8792,Q,Q
2023-03-15 13:23:04:934,0,-4.22567,-3.97099,-24.8735,Q,Q
2023-03-15 13:23:04:944,0,-4.23419,-3.97171,-24.8676,Q,Q
2023-03-15 13:23:04:954,0,-4.24661,-3.97444,-24.8686,Q,Q
2023-03-15 13:23:04:964,0,-4.23301,-3.98039,-24.8777,Q,Q
2023-03-15 13:23:04:974,0,-4.21043,-3.98036,-24.8811,Q,Q
2023-03-15 13:23:04:984,0,-4.19727,-3.97355,-24.8835,Q,Q
2023-03-15 13:23:04:994,0,-4.20131,-3.96765,-24.8814,Q,Q
2023-03-15 13:23:05:4,0,-4.20845,-3.96811,-24.881,Q,Q
2023-03-15 13:23:05:14,0,-4.20504,-3.97087,-24.8831,Q,Q
2023-03-15 13:23:05:24,0,-4.19675,-3.97078,-24.8817,Q,Q
2023-03-15 13:23:05:34,0,-4.1881,-3.96731,-24.8796,Q,Q
2023-03-15 13:23:05:44,0,-4.17688,-3.96406,-24.881,Q,Q
2023-03-15 13:23:05:54,0,-4.16432,-3.95857,-24.8804,Q,Q
2023-03-15 13:23:05:64,0,-4.15354,-3.95456,-24.8792,Q,Q
2023-03-15 13:23:05:74,0,-4.13802,-3.94994,-24.8775,Q,Q
2023-03-15 13:23:05:83,0,-4.1306,-3.94546,-24.8758,Q,Q
2023-03-15 13:23:05:94,0,-4.12431,-3.93947,-24.8753,Q,Q
2023-03-15 13:23:05:104,0,-4.12172,-3.93465,-24.8743,Q,Q
2023-03-15 13:23:05:114,0,-4.12298,-3.93175,-24.8745,Q,Q
2023-03-15 13:23:05:124,0,-4.12218,-3.92926,-24.8782,Q,Q
2023-03-15 13:23:05:134,0,-4.12297,-3.92247,-24.8774,Q,Q
2023-03-15 13:23:05:144,0,-4.12322,-3.9219,-24.8729,Q,Q
2023-03-15 13:23:05:154,0,-4.12284,-3.92069,-24.8721,Q,Q
2023-03-15 13:23:05:164,0,-4.1241,-3.92254,-24.8714,Q,Q
2023-03-15 13:23:05:174,0,-4.12358,-3.92275,-24.8673,Q,Q
2023-03-15 13:23:05:184,0,-4.12576,-3.92271,-24.862,Q,Q
2023-03-15 13:23:05:194,0,-4.12717,-3.92543,-24.858,Q,Q
2023-03-15 13:23:05:204,0,-4.1323,-3.9281,-24.8506,Q,Q
2023-03-15 13:23:05:214,0,-4.13501,-3.93116,-24.8472,Q,Q
2023-03-15 13:23:05:224,0,-4.14072,-3.93264,-24.8371,Q,Q
2023-03-15 13:23:05:234,0,-4.14549,-3.93722,-24.8295,Q,Q
2023-03-15 13:23:05:244,0,-4.15269,-3.93831,-24.8214,Q,Q
2023-03-15 13:23:05:254,0,-4.154,-3.93778,-24.819,Q,Q
2023-03-15 13:23:05:264,0,-4.15511,-3.93695,-24.8111,Q,Q
2023-03-15 13:23:05:274,0,-4.15159,-3.9368,-24.8068,Q,Q
2023-03-15 13:23:05:284,0,-4.14884,-3.9363,-24.8005,Q,Q
2023-03-15 13:23:05:294,0,-4.14356,-3.93984,-24.7983,Q,Q
2023-03-15 13:23:05:304,0,-4.13819,-3.9454,-24.7933,Q,Q
2023-03-15 13:23:05:314,0,-4.13365,-3.94927,-24.7903,Q,Q
2023-03-15 13:23:05:324,0,-4.13277,-3.95053,-24.7853,Q,Q
2023-03-15 13:23:05:334,0,-4.13241,-3.95717,-24.7803,Q,Q
2023-03-15 13:23:05:344,0,-4.13484,-3.96145,-24.7808,Q,Q
2023-03-15 13:23:05:354,0,-4.14309,-3.96576,-24.78,Q,Q
2023-03-15 13:23:05:364,0,-4.15031,-3.97505,-24.7763,Q,Q
2023-03-15 13:23:05:374,0,-4.15688,-3.97911,-24.7733,Q,Q
