Timestamp_cmd,imu_cmd,roll_delta,pitch_delta,yaw_delta
2023-03-11 16:35:58:950,0,-12.483,-6.2642,85.7187
2023-03-11 16:35:58:958,0,-12.4949,-6.27257,85.7328
2023-03-11 16:35:58:968,0,-12.5042,-6.27751,85.749
2023-03-11 16:35:58:978,0,-12.5162,-6.28441,85.7659
2023-03-11 16:35:58:988,0,-12.5289,-6.28747,85.7783
2023-03-11 16:35:58:998,0,-12.5325,-6.28666,85.7893
2023-03-11 16:35:59:8,0,-12.5373,-6.28642,85.7965
2023-03-11 16:35:59:18,0,-12.5388,-6.28557,85.7972
2023-03-11 16:35:59:28,0,-12.5347,-6.28453,85.7953
2023-03-11 16:35:59:38,0,-12.5242,-6.28353,85.7923
2023-03-11 16:35:59:48,0,-12.5082,-6.28607,85.7798
2023-03-11 16:35:59:58,0,-12.4917,-6.29206,85.7629
2023-03-11 16:35:59:68,0,-12.479,-6.30064,85.754
2023-03-11 16:35:59:78,0,-12.4657,-6.30977,85.7459
2023-03-11 16:35:59:88,0,-12.4557,-6.32221,85.7383
2023-03-11 16:35:59:98,0,-12.4464,-6.33201,85.732
2023-03-11 16:35:59:108,0,-12.4365,-6.34489,85.7295
2023-03-11 16:35:59:118,0,-12.4311,-6.35664,85.7339
2023-03-11 16:35:59:128,0,-12.4255,-6.37141,85.7397
2023-03-11 16:35:59:138,0,-12.4255,-6.38124,85.7464
2023-03-11 16:35:59:148,0,-12.4233,-6.39087,85.7552
2023-03-11 16:35:59:158,0,-12.4238,-6.40266,85.7642
2023-03-11 16:35:59:168,0,-12.4264,-6.41378,85.7759
2023-03-11 16:35:59:178,0,-12.4348,-6.42253,85.7849
2023-03-11 16:35:59:188,0,-12.4402,-6.43009,85.7899
2023-03-11 16:35:59:198,0,-12.4547,-6.43717,85.7969
2023-03-11 16:35:59:208,0,-12.4696,-6.44232,85.8019
2023-03-11 16:35:59:218,0,-12.4862,-6.44515,85.8092
2023-03-11 16:35:59:228,0,-12.5021,-6.44735,85.8114
2023-03-11 16:35:59:239,0,-12.5164,-6.44484,85.8106
2023-03-11 16:35:59:248,0,-12.5272,-6.44236,85.8041
2023-03-11 16:35:59:258,0,-12.5302,-6.43862,85.7953
2023-03-11 16:35:59:269,0,-12.5328,-6.43465,85.7832
2023-03-11 16:35:59:279,0,-12.5311,-6.43163,85.7711
2023-03-11 16:35:59:288,0,-12.5336,-6.42434,85.7553
2023-03-11 16:35:59:298,0,-12.5333,-6.41389,85.7401
2023-03-11 16:35:59:308,0,-12.5303,-6.4066,85.7239
2023-03-11 16:35:59:318,0,-12.5229,-6.4015,85.7067
2023-03-11 16:35:59:328,0,-12.5163,-6.40055,85.693
2023-03-11 16:35:59:338,0,-12.5037,-6.4034,85.6786
2023-03-11 16:35:59:348,0,-12.4911,-6.40469,85.6628
2023-03-11 16:35:59:358,0,-12.4808,-6.40687,85.6497
2023-03-11 16:35:59:368,0,-12.4737,-6.41252,85.6408
2023-03-11 16:35:59:378,0,-12.4676,-6.4238,85.6378
2023-03-11 16:35:59:388,0,-12.4605,-6.43694,85.6402
2023-03-11 16:35:59:398,0,-12.4582,-6.44662,85.6469
2023-03-11 16:35:59:408,0,-12.4542,-6.45365,85.6571
2023-03-11 16:35:59:418,0,-12.4523,-6.46047,85.6704
2023-03-11 16:35:59:428,0,-12.4496,-6.46409,85.6843
2023-03-11 16:35:59:438,0,-12.4496,-6.46864,85.6988
2023-03-11 16:35:59:448,0,-12.4512,-6.4701,85.7122
2023-03-11 16:35:59:458,0,-12.4559,-6.47244,85.7216
2023-03-11 16:35:59:468,0,-12.4631,-6.474,85.7261
2023-03-11 16:35:59:478,0,-12.4766,-6.47866,85.7329
2023-03-11 16:35:59:488,0,-12.4902,-6.48417,85.7333
2023-03-11 16:35:59:498,0,-12.5077,-6.48978,85.7392
2023-03-11 16:35:59:508,0,-12.5253,-6.49675,85.7449
2023-03-11 16:35:59:518,0,-12.5447,-6.50014,85.7486
2023-03-11 16:35:59:528,0,-12.5664,-6.49721,85.7556
2023-03-11 16:35:59:538,0,-12.5846,-6.49405,85.7579
2023-03-11 16:35:59:548,0,-12.5989,-6.49557,85.7624
2023-03-11 16:35:59:558,0,-12.6131,-6.49746,85.7653
2023-03-11 16:35:59:568,0,-12.626,-6.50536,85.7684
2023-03-11 16:35:59:578,0,-12.6403,-6.51038,85.7749
2023-03-11 16:35:59:588,0,-12.6503,-6.51646,85.7812
2023-03-11 16:35:59:598,0,-12.6542,-6.52002,85.7858
2023-03-11 16:35:59:608,0,-12.6569,-6.52261,85.7926
2023-03-11 16:35:59:618,0,-12.6622,-6.53085,85.7972
2023-03-11 16:35:59:628,0,-12.666,-6.53845,85.8025
2023-03-11 16:35:59:638,0,-12.6722,-6.54232,85.804
2023-03-11 16:35:59:648,0,-12.6735,-6.55145,85.8087
2023-03-11 16:35:59:658,0,-12.6769,-6.55843,85.812
2023-03-11 16:35:59:668,0,-12.681,-6.56655,85.8128
2023-03-11 16:35:59:678,0,-12.6797,-6.57742,85.815
2023-03-11 16:35:59:688,0,-12.6784,-6.58747,85.8178
2023-03-11 16:35:59:698,0,-12.6777,-6.59428,85.8194
2023-03-11 16:35:59:708,0,-12.673,-6.60601,85.8228
2023-03-11 16:35:59:718,0,-12.6627,-6.61404,85.827
2023-03-11 16:35:59:728,0,-12.6549,-6.6176,85.8306
2023-03-11 16:35:59:738,0,-12.6493,-6.61787,85.8375
2023-03-11 16:35:59:748,0,-12.6405,-6.61902,85.8449
2023-03-11 16:35:59:758,0,-12.6264,-6.61482,85.8543
2023-03-11 16:35:59:768,0,-12.6096,-6.60583,85.8641
2023-03-11 16:35:59:778,0,-12.5945,-6.59567,85.8711
2023-03-11 16:35:59:788,0,-12.5823,-6.58221,85.8794
2023-03-11 16:35:59:798,0,-12.5663,-6.56334,85.8838
2023-03-11 16:35:59:808,0,-12.55,-6.54687,85.8836
2023-03-11 16:35:59:818,0,-12.5311,-6.53298,85.8792
2023-03-11 16:35:59:828,0,-12.5176,-6.52229,85.8671
2023-03-11 16:35:59:838,0,-12.5016,-6.5162,85.8503
2023-03-11 16:35:59:848,0,-12.4839,-6.51352,85.8288
2023-03-11 16:35:59:859,0,-12.464,-6.51377,85.8095
2023-03-11 16:35:59:868,0,-12.4477,-6.51808,85.784
2023-03-11 16:35:59:879,0,-12.4376,-6.52489,85.7635
2023-03-11 16:35:59:888,0,-12.4356,-6.53361,85.7514
2023-03-11 16:35:59:898,0,-12.4381,-6.54644,85.7382
2023-03-11 16:35:59:908,0,-12.438,-6.56272,85.7326
2023-03-11 16:35:59:918,0,-12.4369,-6.57725,85.7341
2023-03-11 16:35:59:928,0,-12.4358,-6.59334,85.7439
2023-03-11 16:35:59:938,0,-12.4404,-6.61246,85.7573
2023-03-11 16:35:59:948,0,-12.4414,-6.62443,85.7768
2023-03-11 16:35:59:958,0,-12.4466,-6.63116,85.7978
2023-03-11 16:35:59:968,0,-12.451,-6.64146,85.817
2023-03-11 16:35:59:978,0,-12.4578,-6.64903,85.8382
2023-03-11 16:35:59:988,0,-12.4643,-6.65839,85.8604
2023-03-11 16:35:59:999,0,-12.4732,-6.66979,85.8773
2023-03-11 16:36:00:8,0,-12.4788,-6.67706,85.8896
2023-03-11 16:36:00:18,0,-12.4837,-6.68054,85.8975
2023-03-11 16:36:00:28,0,-12.4902,-6.68721,85.8981
2023-03-11 16:36:00:38,0,-12.493,-6.69065,85.897
2023-03-11 16:36:00:48,0,-12.5016,-6.68975,85.8887
2023-03-11 16:36:00:58,0,-12.5078,-6.68519,85.8798
2023-03-11 16:36:00:69,0,-12.5122,-6.67709,85.8666
2023-03-11 16:36:00:79,0,-12.5138,-6.67033,85.8536
2023-03-11 16:36:00:89,0,-12.5162,-6.66683,85.841
2023-03-11 16:36:00:98,0,-12.5167,-6.67019,85.8348
2023-03-11 16:36:00:108,0,-12.5151,-6.67358,85.8299
2023-03-11 16:36:00:119,0,-12.5116,-6.67999,85.8273
2023-03-11 16:36:00:128,0,-12.5087,-6.68707,85.8306
2023-03-11 16:36:00:139,0,-12.5085,-6.69101,85.8404
2023-03-11 16:36:00:148,0,-12.51,-6.69416,85.853
2023-03-11 16:36:00:158,0,-12.5089,-6.70122,85.8663
2023-03-11 16:36:00:168,0,-12.5068,-6.70609,85.8816
2023-03-11 16:36:00:178,0,-12.5089,-6.71295,85.9008
2023-03-11 16:36:00:188,0,-12.5095,-6.7212,85.9174
2023-03-11 16:36:00:198,0,-12.5151,-6.72621,85.9313
2023-03-11 16:36:00:208,0,-12.529,-6.72738,85.9399
2023-03-11 16:36:00:218,0,-12.5492,-6.72872,85.9473
2023-03-11 16:36:00:228,0,-12.5735,-6.72644,85.948
2023-03-11 16:36:00:239,0,-12.6101,-6.71367,85.9512
2023-03-11 16:36:00:249,0,-12.6525,-6.69374,85.9535
2023-03-11 16:36:00:259,0,-12.6924,-6.67172,85.9602
2023-03-11 16:36:00:268,0,-12.7366,-6.6517,85.978
2023-03-11 16:36:00:278,0,-12.7825,-6.63465,86.004
2023-03-11 16:36:00:289,0,-12.8345,-6.61852,86.042
2023-03-11 16:36:00:299,0,-12.8845,-6.60325,86.0884
2023-03-11 16:36:00:308,0,-12.9276,-6.5863,86.1359
2023-03-11 16:36:00:318,0,-12.9678,-6.57638,86.1888
2023-03-11 16:36:00:328,0,-13.0085,-6.56669,86.2464
2023-03-11 16:36:00:339,0,-13.0548,-6.56304,86.3033
2023-03-11 16:36:00:348,0,-13.0992,-6.56508,86.3521
2023-03-11 16:36:00:359,0,-13.1429,-6.58238,86.397
2023-03-11 16:36:00:369,0,-13.181,-6.62361,86.4405
2023-03-11 16:36:00:378,0,-13.2146,-6.68711,86.4835
2023-03-11 16:36:00:388,0,-13.2486,-6.76199,86.5268
2023-03-11 16:36:00:398,0,-13.2919,-6.83657,86.5589
2023-03-11 16:36:00:408,0,-13.3379,-6.91799,86.5771
2023-03-11 16:36:00:418,0,-13.4,-6.99886,86.5867
2023-03-11 16:36:00:428,0,-13.4756,-7.07853,86.588
2023-03-11 16:36:00:438,0,-13.5635,-7.14961,86.5761
2023-03-11 16:36:00:448,0,-13.6576,-7.22193,86.5579
2023-03-11 16:36:00:458,0,-13.7543,-7.29707,86.533
2023-03-11 16:36:00:468,0,-13.846,-7.37091,86.507
2023-03-11 16:36:00:478,0,-13.9316,-7.44252,86.49
2023-03-11 16:36:00:488,0,-14.0165,-7.50479,86.4766
2023-03-11 16:36:00:498,0,-14.0981,-7.55759,86.4802
2023-03-11 16:36:00:508,0,-14.1792,-7.59949,86.4993
2023-03-11 16:36:00:518,0,-14.2577,-7.62728,86.5362
2023-03-11 16:36:00:528,0,-14.3323,-7.6509,86.5848
2023-03-11 16:36:00:538,0,-14.4052,-7.67394,86.6474
2023-03-11 16:36:00:548,0,-14.4749,-7.69964,86.7205
2023-03-11 16:36:00:558,0,-14.5475,-7.72283,86.7967
2023-03-11 16:36:00:568,0,-14.6317,-7.76013,86.8641
2023-03-11 16:36:00:578,0,-14.7381,-7.81051,86.9193
2023-03-11 16:36:00:588,0,-14.8658,-7.84909,86.9578
2023-03-11 16:36:00:598,0,-14.9906,-7.83881,86.9777
2023-03-11 16:36:00:609,0,-15.1075,-7.81265,86.9784
2023-03-11 16:36:00:619,0,-15.2276,-7.80023,86.9624
2023-03-11 16:36:00:629,0,-15.3733,-7.81493,86.9353
2023-03-11 16:36:00:639,0,-15.5366,-7.84665,86.9047
2023-03-11 16:36:00:648,0,-15.7086,-7.89225,86.8755
2023-03-11 16:36:00:659,0,-15.8872,-7.94639,86.853
2023-03-11 16:36:00:668,0,-16.0748,-8.00172,86.8364
2023-03-11 16:36:00:678,0,-16.2758,-8.05584,86.8293
2023-03-11 16:36:00:688,0,-16.4899,-8.09875,86.8206
2023-03-11 16:36:00:698,0,-16.7152,-8.13311,86.8159
2023-03-11 16:36:00:708,0,-16.9503,-8.15994,86.8072
2023-03-11 16:36:00:718,0,-17.2026,-8.17538,86.7931
2023-03-11 16:36:00:728,0,-17.4632,-8.18841,86.7745
2023-03-11 16:36:00:739,0,-17.7218,-8.19899,86.7527
2023-03-11 16:36:00:749,0,-17.9788,-8.20495,86.7291
2023-03-11 16:36:00:759,0,-18.219,-8.20508,86.6984
2023-03-11 16:36:00:769,0,-18.4628,-8.20769,86.6691
2023-03-11 16:36:00:779,0,-18.7073,-8.21103,86.6398
2023-03-11 16:36:00:788,0,-18.9513,-8.21185,86.6045
2023-03-11 16:36:00:799,0,-19.1944,-8.21345,86.5797
2023-03-11 16:36:00:809,0,-19.444,-8.21278,86.5627
2023-03-11 16:36:00:819,0,-19.6963,-8.2093,86.5555
2023-03-11 16:36:00:828,0,-19.9498,-8.20788,86.5553
2023-03-11 16:36:00:839,0,-20.1985,-8.20702,86.5634
2023-03-11 16:36:00:849,0,-20.4391,-8.21056,86.5871
2023-03-11 16:36:00:858,0,-20.68,-8.2227,86.6165
2023-03-11 16:36:00:868,0,-20.9167,-8.23786,86.656
2023-03-11 16:36:00:878,0,-21.1507,-8.2522,86.7025
2023-03-11 16:36:00:889,0,-21.3915,-8.26291,86.7603
2023-03-11 16:36:00:898,0,-21.6356,-8.27394,86.8257
2023-03-11 16:36:00:908,0,-21.8806,-8.28682,86.8962
2023-03-11 16:36:00:918,0,-22.1257,-8.30166,86.9762
2023-03-11 16:36:00:928,0,-22.37,-8.30899,87.0604
2023-03-11 16:36:00:938,0,-22.6161,-8.31435,87.1483
2023-03-11 16:36:00:948,0,-22.8581,-8.31588,87.2401
2023-03-11 16:36:00:958,0,-23.0989,-8.30869,87.3334
2023-03-11 16:36:00:968,0,-23.3389,-8.29862,87.429
2023-03-11 16:36:00:978,0,-23.5751,-8.28889,87.5222
2023-03-11 16:36:00:988,0,-23.8096,-8.28529,87.614
2023-03-11 16:36:00:999,0,-24.0359,-8.28248,87.7019
2023-03-11 16:36:01:9,0,-24.2592,-8.27362,87.7862
2023-03-11 16:36:01:19,0,-24.4706,-8.26393,87.8682
2023-03-11 16:36:01:28,0,-24.6709,-8.25356,87.9403
2023-03-11 16:36:01:38,0,-24.8575,-8.23857,88.0048
2023-03-11 16:36:01:49,0,-25.0272,-8.21487,88.0598
2023-03-11 16:36:01:58,0,-25.178,-8.19001,88.1114
2023-03-11 16:36:01:69,0,-25.3136,-8.16287,88.156
2023-03-11 16:36:01:78,0,-25.4357,-8.1471,88.1984
2023-03-11 16:36:01:88,0,-25.5427,-8.13726,88.2341
2023-03-11 16:36:01:98,0,-25.6351,-8.12478,88.2586
2023-03-11 16:36:01:108,0,-25.713,-8.11147,88.2796
2023-03-11 16:36:01:118,0,-25.7761,-8.09789,88.294
2023-03-11 16:36:01:128,0,-25.8218,-8.08211,88.2974
2023-03-11 16:36:01:138,0,-25.8505,-8.06171,88.2944
2023-03-11 16:36:01:148,0,-25.864,-8.03911,88.285
2023-03-11 16:36:01:158,0,-25.8588,-8.01483,88.2698
2023-03-11 16:36:01:168,0,-25.8363,-7.98742,88.2435
2023-03-11 16:36:01:178,0,-25.7985,-7.95512,88.2138
2023-03-11 16:36:01:188,0,-25.7482,-7.91971,88.1778
2023-03-11 16:36:01:198,0,-25.6907,-7.89051,88.1354
2023-03-11 16:36:01:208,0,-25.6225,-7.85652,88.0919
2023-03-11 16:36:01:218,0,-25.5338,-7.82496,88.042
2023-03-11 16:36:01:228,0,-25.4246,-7.789,87.9905
2023-03-11 16:36:01:238,0,-25.2973,-7.75187,87.9358
2023-03-11 16:36:01:248,0,-25.1488,-7.71941,87.8776
2023-03-11 16:36:01:258,0,-24.9731,-7.68828,87.8131
2023-03-11 16:36:01:268,0,-24.7633,-7.64823,87.7426
2023-03-11 16:36:01:279,0,-24.5209,-7.60054,87.6653
2023-03-11 16:36:01:288,0,-24.2583,-7.5501,87.5785
2023-03-11 16:36:01:299,0,-23.9892,-7.5029,87.4879
2023-03-11 16:36:01:309,0,-23.7077,-7.45854,87.3924
2023-03-11 16:36:01:319,0,-23.416,-7.41416,87.2985
2023-03-11 16:36:01:328,0,-23.1219,-7.36666,87.206
2023-03-11 16:36:01:339,0,-22.8282,-7.31855,87.1135
2023-03-11 16:36:01:348,0,-22.5338,-7.2688,87.0259
2023-03-11 16:36:01:358,0,-22.2397,-7.21944,86.9364
2023-03-11 16:36:01:368,0,-21.9556,-7.17149,86.8536
2023-03-11 16:36:01:379,0,-21.6824,-7.12661,86.7739
2023-03-11 16:36:01:388,0,-21.4171,-7.09025,86.7018
2023-03-11 16:36:01:399,0,-21.1617,-7.06124,86.6308
2023-03-11 16:36:01:409,0,-20.9168,-7.03222,86.5668
2023-03-11 16:36:01:418,0,-20.6834,-7.01005,86.5073
2023-03-11 16:36:01:428,0,-20.463,-6.99176,86.4537
2023-03-11 16:36:01:438,0,-20.2582,-6.97491,86.4025
2023-03-11 16:36:01:448,0,-20.0678,-6.95594,86.3612
2023-03-11 16:36:01:458,0,-19.8901,-6.93242,86.3235
2023-03-11 16:36:01:468,0,-19.7279,-6.9115,86.2946
2023-03-11 16:36:01:478,0,-19.5785,-6.88717,86.27
2023-03-11 16:36:01:488,0,-19.4416,-6.86692,86.2505
2023-03-11 16:36:01:498,0,-19.3129,-6.84747,86.2401
2023-03-11 16:36:01:508,0,-19.1897,-6.83338,86.2345
2023-03-11 16:36:01:518,0,-19.0671,-6.82132,86.2337
2023-03-11 16:36:01:528,0,-18.9579,-6.80959,86.2386
2023-03-11 16:36:01:538,0,-18.8526,-6.79741,86.2459
2023-03-11 16:36:01:548,0,-18.7548,-6.78375,86.255
2023-03-11 16:36:01:558,0,-18.6676,-6.76967,86.2578
2023-03-11 16:36:01:569,0,-18.5823,-6.7587,86.2656
2023-03-11 16:36:01:579,0,-18.5058,-6.75199,86.2723
2023-03-11 16:36:01:589,0,-18.4433,-6.75665,86.2772
2023-03-11 16:36:01:599,0,-18.3869,-6.76362,86.2794
2023-03-11 16:36:01:609,0,-18.3362,-6.77202,86.2817
2023-03-11 16:36:01:618,0,-18.2915,-6.7845,86.2858
2023-03-11 16:36:01:629,0,-18.2537,-6.78675,86.2839
2023-03-11 16:36:01:638,0,-18.2155,-6.78782,86.2863
2023-03-11 16:36:01:649,0,-18.1769,-6.7811,86.2844
2023-03-11 16:36:01:659,0,-18.1465,-6.78207,86.2812
2023-03-11 16:36:01:669,0,-18.1213,-6.77921,86.2783
2023-03-11 16:36:01:679,0,-18.1038,-6.7716,86.2701
2023-03-11 16:36:01:688,0,-18.0863,-6.76873,86.2614
2023-03-11 16:36:01:699,0,-18.074,-6.7619,86.2495
2023-03-11 16:36:01:709,0,-18.0679,-6.76246,86.234
2023-03-11 16:36:01:719,0,-18.0689,-6.75933,86.2207
2023-03-11 16:36:01:728,0,-18.0703,-6.7541,86.2053
2023-03-11 16:36:01:739,0,-18.0713,-6.74799,86.1927
2023-03-11 16:36:01:749,0,-18.0737,-6.7428,86.1829
2023-03-11 16:36:01:759,0,-18.0809,-6.73255,86.1755
2023-03-11 16:36:01:769,0,-18.0867,-6.7197,86.1688
2023-03-11 16:36:01:778,0,-18.0923,-6.70461,86.1704
2023-03-11 16:36:01:788,0,-18.0923,-6.68516,86.1684
2023-03-11 16:36:01:799,0,-18.0917,-6.66591,86.1679
2023-03-11 16:36:01:808,0,-18.0908,-6.6513,86.1666
2023-03-11 16:36:01:818,0,-18.0894,-6.6341,86.1708
2023-03-11 16:36:01:828,0,-18.0804,-6.61787,86.1738
2023-03-11 16:36:01:838,0,-18.0653,-6.59789,86.1727
2023-03-11 16:36:01:849,0,-18.0408,-6.57759,86.1724
2023-03-11 16:36:01:858,0,-18.0159,-6.55845,86.1728
2023-03-11 16:36:01:868,0,-17.9914,-6.54058,86.1732
2023-03-11 16:36:01:879,0,-17.9686,-6.52965,86.1759
2023-03-11 16:36:01:888,0,-17.944,-6.51683,86.1788
2023-03-11 16:36:01:898,0,-17.9196,-6.50572,86.1803
2023-03-11 16:36:01:908,0,-17.8968,-6.49876,86.1819
2023-03-11 16:36:01:919,0,-17.8722,-6.49051,86.181
2023-03-11 16:36:01:928,0,-17.8505,-6.4846,86.1819
2023-03-11 16:36:01:938,0,-17.8289,-6.48313,86.184
2023-03-11 16:36:01:949,0,-17.8091,-6.48079,86.1847
2023-03-11 16:36:01:959,0,-17.7865,-6.47735,86.1894
2023-03-11 16:36:01:968,0,-17.7644,-6.47416,86.1908
2023-03-11 16:36:01:978,0,-17.7412,-6.47037,86.1938
2023-03-11 16:36:01:989,0,-17.717,-6.46851,86.203
2023-03-11 16:36:01:999,0,-17.6935,-6.46223,86.2112
2023-03-11 16:36:02:9,0,-17.6619,-6.45634,86.2231
2023-03-11 16:36:02:19,0,-17.6294,-6.44327,86.2333
2023-03-11 16:36:02:28,0,-17.5932,-6.43053,86.2451
2023-03-11 16:36:02:38,0,-17.557,-6.41885,86.2583
2023-03-11 16:36:02:48,0,-17.5196,-6.40632,86.2668
2023-03-11 16:36:02:58,0,-17.4858,-6.39261,86.2775
2023-03-11 16:36:02:68,0,-17.4497,-6.37598,86.2828
2023-03-11 16:36:02:78,0,-17.4136,-6.36233,86.2904
2023-03-11 16:36:02:88,0,-17.3755,-6.34558,86.2927
2023-03-11 16:36:02:98,0,-17.3433,-6.33013,86.2959
2023-03-11 16:36:02:109,0,-17.3115,-6.31409,86.2945
2023-03-11 16:36:02:118,0,-17.2806,-6.29805,86.2942
2023-03-11 16:36:02:128,0,-17.2481,-6.28462,86.2959
2023-03-11 16:36:02:138,0,-17.2148,-6.2764,86.2953
2023-03-11 16:36:02:148,0,-17.1813,-6.26842,86.2991
2023-03-11 16:36:02:159,0,-17.1492,-6.25976,86.2981
2023-03-11 16:36:02:169,0,-17.1143,-6.25512,86.2916
2023-03-11 16:36:02:179,0,-17.0838,-6.25,86.283
2023-03-11 16:36:02:189,0,-17.0595,-6.2506,86.2718
2023-03-11 16:36:02:199,0,-17.0409,-6.24804,86.2592
2023-03-11 16:36:02:209,0,-17.031,-6.24296,86.2459
2023-03-11 16:36:02:218,0,-17.0229,-6.23501,86.233
2023-03-11 16:36:02:228,0,-17.0126,-6.2316,86.2233
2023-03-11 16:36:02:238,0,-17.0028,-6.22772,86.2175
2023-03-11 16:36:02:248,0,-16.9921,-6.22237,86.2113
2023-03-11 16:36:02:258,0,-16.9851,-6.21953,86.2097
2023-03-11 16:36:02:268,0,-16.9811,-6.216,86.2082
2023-03-11 16:36:02:278,0,-16.9763,-6.21377,86.2097
2023-03-11 16:36:02:288,0,-16.9725,-6.21689,86.2142
2023-03-11 16:36:02:298,0,-16.9699,-6.2258,86.2228
2023-03-11 16:36:02:308,0,-16.9695,-6.24332,86.2424
2023-03-11 16:36:02:318,0,-16.9752,-6.2691,86.2713
2023-03-11 16:36:02:328,0,-16.9835,-6.29807,86.3043
2023-03-11 16:36:02:338,0,-16.9991,-6.33006,86.3456
2023-03-11 16:36:02:348,0,-17.0184,-6.36407,86.3928
2023-03-11 16:36:02:358,0,-17.0336,-6.40306,86.4445
2023-03-11 16:36:02:368,0,-17.0494,-6.44064,86.5017
2023-03-11 16:36:02:378,0,-17.063,-6.48191,86.5604
2023-03-11 16:36:02:388,0,-17.0729,-6.52163,86.6158
2023-03-11 16:36:02:398,0,-17.0816,-6.55889,86.668
2023-03-11 16:36:02:408,0,-17.0883,-6.58732,86.7149
2023-03-11 16:36:02:418,0,-17.0915,-6.6131,86.7507
2023-03-11 16:36:02:428,0,-17.0901,-6.63721,86.7795
2023-03-11 16:36:02:438,0,-17.0912,-6.65811,86.7985
2023-03-11 16:36:02:448,0,-17.0891,-6.67902,86.8043
2023-03-11 16:36:02:458,0,-17.086,-6.70245,86.8048
2023-03-11 16:36:02:468,0,-17.0828,-6.72421,86.7961
2023-03-11 16:36:02:478,0,-17.0871,-6.7447,86.7859
2023-03-11 16:36:02:488,0,-17.0973,-6.76344,86.7733
2023-03-11 16:36:02:498,0,-17.1121,-6.77586,86.7642
2023-03-11 16:36:02:508,0,-17.1333,-6.78393,86.756
2023-03-11 16:36:02:518,0,-17.1532,-6.7906,86.7522
2023-03-11 16:36:02:528,0,-17.1711,-6.80117,86.7569
2023-03-11 16:36:02:538,0,-17.1871,-6.81476,86.7674
2023-03-11 16:36:02:548,0,-17.202,-6.82657,86.7838
2023-03-11 16:36:02:558,0,-17.2104,-6.83418,86.8049
2023-03-11 16:36:02:568,0,-17.2257,-6.83888,86.8295
2023-03-11 16:36:02:578,0,-17.2426,-6.83673,86.8538
2023-03-11 16:36:02:588,0,-17.2624,-6.82234,86.8734
2023-03-11 16:36:02:598,0,-17.2862,-6.80266,86.8908
2023-03-11 16:36:02:608,0,-17.3177,-6.77985,86.9014
2023-03-11 16:36:02:618,0,-17.351,-6.76151,86.915
2023-03-11 16:36:02:628,0,-17.3863,-6.74601,86.9212
2023-03-11 16:36:02:638,0,-17.4214,-6.73113,86.9254
2023-03-11 16:36:02:648,0,-17.4513,-6.71806,86.9241
2023-03-11 16:36:02:658,0,-17.4825,-6.71122,86.9208
2023-03-11 16:36:02:668,0,-17.5116,-6.70194,86.913
2023-03-11 16:36:02:678,0,-17.5383,-6.69204,86.9021
2023-03-11 16:36:02:688,0,-17.556,-6.68607,86.8917
2023-03-11 16:36:02:698,0,-17.5742,-6.68165,86.8842
2023-03-11 16:36:02:708,0,-17.5895,-6.68109,86.8738
2023-03-11 16:36:02:718,0,-17.5989,-6.6838,86.8666
2023-03-11 16:36:02:728,0,-17.6038,-6.69278,86.8621
2023-03-11 16:36:02:738,0,-17.6056,-6.70746,86.8578
2023-03-11 16:36:02:748,0,-17.6037,-6.73029,86.8624
2023-03-11 16:36:02:758,0,-17.5965,-6.7474,86.8703
2023-03-11 16:36:02:768,0,-17.5885,-6.76241,86.8856
2023-03-11 16:36:02:778,0,-17.5779,-6.77347,86.9071
2023-03-11 16:36:02:788,0,-17.5722,-6.77614,86.9329
2023-03-11 16:36:02:798,0,-17.5623,-6.7747,86.9577
2023-03-11 16:36:02:808,0,-17.5539,-6.76557,86.9828
2023-03-11 16:36:02:818,0,-17.5476,-6.75283,87.0108
2023-03-11 16:36:02:828,0,-17.5453,-6.73432,87.0326
2023-03-11 16:36:02:838,0,-17.5411,-6.71608,87.049
2023-03-11 16:36:02:848,0,-17.5402,-6.70087,87.0551
2023-03-11 16:36:02:858,0,-17.5382,-6.6859,87.0583
2023-03-11 16:36:02:868,0,-17.5353,-6.67217,87.0554
2023-03-11 16:36:02:878,0,-17.5383,-6.65771,87.0441
2023-03-11 16:36:02:888,0,-17.5421,-6.64271,87.0278
2023-03-11 16:36:02:899,0,-17.5501,-6.62983,87.0063
2023-03-11 16:36:02:908,0,-17.5592,-6.62106,86.9843
2023-03-11 16:36:02:918,0,-17.5654,-6.61879,86.9603
2023-03-11 16:36:02:928,0,-17.5675,-6.61362,86.9382
2023-03-11 16:36:02:939,0,-17.5663,-6.61297,86.9147
2023-03-11 16:36:02:949,0,-17.5602,-6.61307,86.8979
2023-03-11 16:36:02:958,0,-17.5467,-6.61485,86.878
2023-03-11 16:36:02:968,0,-17.5291,-6.61975,86.8622
2023-03-11 16:36:02:978,0,-17.5108,-6.62601,86.8519
2023-03-11 16:36:02:988,0,-17.4886,-6.63208,86.8476
2023-03-11 16:36:02:998,0,-17.4708,-6.64385,86.8495
2023-03-11 16:36:03:8,0,-17.4516,-6.65378,86.8564
2023-03-11 16:36:03:19,0,-17.4337,-6.66503,86.866
2023-03-11 16:36:03:28,0,-17.4154,-6.68039,86.8791
2023-03-11 16:36:03:38,0,-17.3978,-6.70007,86.898
2023-03-11 16:36:03:48,0,-17.3811,-6.72092,86.9177
2023-03-11 16:36:03:58,0,-17.3691,-6.7348,86.9359
2023-03-11 16:36:03:68,0,-17.3575,-6.74313,86.9515
2023-03-11 16:36:03:78,0,-17.3468,-6.74927,86.9663
2023-03-11 16:36:03:88,0,-17.3364,-6.75413,86.9779
2023-03-11 16:36:03:99,0,-17.3259,-6.7588,86.9847
2023-03-11 16:36:03:108,0,-17.3149,-6.76033,86.9908
2023-03-11 16:36:03:119,0,-17.3018,-6.76021,86.9928
2023-03-11 16:36:03:128,0,-17.2869,-6.75613,86.99
2023-03-11 16:36:03:138,0,-17.2747,-6.75276,86.9847
2023-03-11 16:36:03:148,0,-17.2636,-6.75029,86.9744
2023-03-11 16:36:03:158,0,-17.2526,-6.74256,86.9614
2023-03-11 16:36:03:168,0,-17.2414,-6.73868,86.9441
2023-03-11 16:36:03:179,0,-17.2346,-6.7352,86.9306
2023-03-11 16:36:03:188,0,-17.2269,-6.72811,86.9168
2023-03-11 16:36:03:198,0,-17.2211,-6.72054,86.9037
2023-03-11 16:36:03:208,0,-17.2167,-6.71634,86.8956
2023-03-11 16:36:03:219,0,-17.2126,-6.71293,86.8893
2023-03-11 16:36:03:228,0,-17.2093,-6.70935,86.8892
2023-03-11 16:36:03:238,0,-17.2066,-6.70425,86.8877
2023-03-11 16:36:03:248,0,-17.2004,-6.70071,86.8875
2023-03-11 16:36:03:258,0,-17.1913,-6.69831,86.89
2023-03-11 16:36:03:268,0,-17.1831,-6.69797,86.8908
2023-03-11 16:36:03:278,0,-17.1686,-6.69909,86.8962
2023-03-11 16:36:03:289,0,-17.1551,-6.7008,86.8999
2023-03-11 16:36:03:298,0,-17.1428,-6.70018,86.9024
2023-03-11 16:36:03:308,0,-17.1289,-6.69751,86.9033
2023-03-11 16:36:03:318,0,-17.1202,-6.69309,86.9042
2023-03-11 16:36:03:328,0,-17.1122,-6.6918,86.9048
2023-03-11 16:36:03:338,0,-17.1093,-6.6919,86.909
2023-03-11 16:36:03:348,0,-17.1078,-6.69212,86.9082
2023-03-11 16:36:03:358,0,-17.1062,-6.68891,86.9087
2023-03-11 16:36:03:368,0,-17.0964,-6.69057,86.9021
2023-03-11 16:36:03:378,0,-17.0849,-6.69061,86.892
2023-03-11 16:36:03:388,0,-17.0701,-6.68848,86.8794
2023-03-11 16:36:03:398,0,-17.0546,-6.68187,86.8662
2023-03-11 16:36:03:408,0,-17.0378,-6.67351,86.8486
2023-03-11 16:36:03:418,0,-17.0173,-6.65725,86.8274
2023-03-11 16:36:03:428,0,-16.993,-6.64377,86.8071
2023-03-11 16:36:03:438,0,-16.9731,-6.63188,86.7869
2023-03-11 16:36:03:448,0,-16.9507,-6.6267,86.7676
2023-03-11 16:36:03:458,0,-16.9293,-6.62887,86.7526
2023-03-11 16:36:03:468,0,-16.9065,-6.63384,86.7377
2023-03-11 16:36:03:478,0,-16.8822,-6.64229,86.7228
2023-03-11 16:36:03:488,0,-16.8585,-6.65258,86.709
2023-03-11 16:36:03:498,0,-16.8382,-6.66575,86.6948
2023-03-11 16:36:03:508,0,-16.8232,-6.68209,86.6838
2023-03-11 16:36:03:518,0,-16.8082,-6.69536,86.67
2023-03-11 16:36:03:528,0,-16.7941,-6.70997,86.6559
2023-03-11 16:36:03:538,0,-16.7812,-6.72049,86.6428
2023-03-11 16:36:03:548,0,-16.768,-6.72748,86.6285
2023-03-11 16:36:03:558,0,-16.7559,-6.73112,86.6172
2023-03-11 16:36:03:568,0,-16.7459,-6.73646,86.6125
2023-03-11 16:36:03:578,0,-16.7359,-6.73886,86.6082
2023-03-11 16:36:03:588,0,-16.7265,-6.74318,86.6084
2023-03-11 16:36:03:598,0,-16.7238,-6.74931,86.6095
2023-03-11 16:36:03:609,0,-16.7206,-6.75125,86.614
2023-03-11 16:36:03:618,0,-16.72,-6.75155,86.6193
2023-03-11 16:36:03:628,0,-16.7195,-6.75097,86.6289
2023-03-11 16:36:03:639,0,-16.7202,-6.75083,86.6428
2023-03-11 16:36:03:648,0,-16.7192,-6.74829,86.6582
2023-03-11 16:36:03:658,0,-16.7184,-6.74235,86.6763
2023-03-11 16:36:03:668,0,-16.7168,-6.73671,86.687
2023-03-11 16:36:03:678,0,-16.7146,-6.72702,86.699
2023-03-11 16:36:03:688,0,-16.7125,-6.71647,86.7079
2023-03-11 16:36:03:698,0,-16.7127,-6.70178,86.7147
2023-03-11 16:36:03:708,0,-16.7114,-6.68868,86.7173
2023-03-11 16:36:03:718,0,-16.7089,-6.67427,86.7212
2023-03-11 16:36:03:728,0,-16.7063,-6.65294,86.7208
2023-03-11 16:36:03:738,0,-16.6957,-6.63648,86.7205
2023-03-11 16:36:03:748,0,-16.6777,-6.62014,86.7133
2023-03-11 16:36:03:758,0,-16.6646,-6.60746,86.707
2023-03-11 16:36:03:768,0,-16.6557,-6.59985,86.7016
2023-03-11 16:36:03:778,0,-16.6481,-6.59032,86.6944
2023-03-11 16:36:03:788,0,-16.6459,-6.58126,86.6889
2023-03-11 16:36:03:798,0,-16.649,-6.56752,86.6822
2023-03-11 16:36:03:808,0,-16.6566,-6.56237,86.6749
2023-03-11 16:36:03:818,0,-16.6683,-6.55607,86.6707
2023-03-11 16:36:03:828,0,-16.6745,-6.55158,86.6656
2023-03-11 16:36:03:838,0,-16.6736,-6.54755,86.659
2023-03-11 16:36:03:848,0,-16.6697,-6.54642,86.6576
2023-03-11 16:36:03:858,0,-16.667,-6.54303,86.6571
2023-03-11 16:36:03:868,0,-16.6653,-6.53961,86.6553
2023-03-11 16:36:03:878,0,-16.6656,-6.53649,86.6552
2023-03-11 16:36:03:888,0,-16.6662,-6.53303,86.6505
2023-03-11 16:36:03:898,0,-16.6714,-6.5293,86.643
2023-03-11 16:36:03:908,0,-16.6748,-6.52668,86.6363
2023-03-11 16:36:03:918,0,-16.6822,-6.52277,86.6323
2023-03-11 16:36:03:928,0,-16.6907,-6.51657,86.6287
2023-03-11 16:36:03:938,0,-16.695,-6.50846,86.6283
2023-03-11 16:36:03:948,0,-16.6952,-6.49087,86.6338
2023-03-11 16:36:03:958,0,-16.6885,-6.47109,86.6381
2023-03-11 16:36:03:968,0,-16.6737,-6.4395,86.6445
2023-03-11 16:36:03:978,0,-16.6487,-6.39949,86.6478
2023-03-11 16:36:03:988,0,-16.6178,-6.35817,86.6515
2023-03-11 16:36:03:998,0,-16.5874,-6.32098,86.6575
2023-03-11 16:36:04:8,0,-16.5605,-6.29008,86.6564
2023-03-11 16:36:04:18,0,-16.5389,-6.26424,86.6577
2023-03-11 16:36:04:28,0,-16.5237,-6.2385,86.6569
2023-03-11 16:36:04:38,0,-16.512,-6.21933,86.6534
2023-03-11 16:36:04:48,0,-16.5021,-6.19861,86.6482
2023-03-11 16:36:04:58,0,-16.4939,-6.17749,86.6398
2023-03-11 16:36:04:68,0,-16.4909,-6.15888,86.6268
2023-03-11 16:36:04:78,0,-16.4916,-6.1375,86.6159
2023-03-11 16:36:04:88,0,-16.4911,-6.11969,86.6007
2023-03-11 16:36:04:98,0,-16.4935,-6.1028,86.5871
2023-03-11 16:36:04:108,0,-16.4972,-6.08908,86.5816
2023-03-11 16:36:04:118,0,-16.5092,-6.07649,86.5732
2023-03-11 16:36:04:128,0,-16.5244,-6.0646,86.5697
2023-03-11 16:36:04:138,0,-16.5431,-6.05086,86.5686
2023-03-11 16:36:04:148,0,-16.5686,-6.04301,86.5722
2023-03-11 16:36:04:158,0,-16.5959,-6.03644,86.5826
2023-03-11 16:36:04:168,0,-16.6242,-6.03565,86.5913
2023-03-11 16:36:04:178,0,-16.6513,-6.03826,86.6053
2023-03-11 16:36:04:188,0,-16.6776,-6.03522,86.6184
2023-03-11 16:36:04:198,0,-16.7001,-6.02973,86.628
2023-03-11 16:36:04:208,0,-16.7185,-6.02165,86.64
2023-03-11 16:36:04:218,0,-16.7344,-6.01632,86.6522
2023-03-11 16:36:04:228,0,-16.7481,-6.00511,86.6601
2023-03-11 16:36:04:238,0,-16.7584,-5.99264,86.6649
2023-03-11 16:36:04:248,0,-16.7685,-5.97481,86.6699
2023-03-11 16:36:04:258,0,-16.7821,-5.96231,86.6732
2023-03-11 16:36:04:268,0,-16.8008,-5.94638,86.6767
2023-03-11 16:36:04:278,0,-16.8171,-5.93298,86.6794
2023-03-11 16:36:04:288,0,-16.8349,-5.92089,86.6845
2023-03-11 16:36:04:298,0,-16.8562,-5.90968,86.692
2023-03-11 16:36:04:308,0,-16.872,-5.90141,86.6981
2023-03-11 16:36:04:318,0,-16.8869,-5.8935,86.7072
2023-03-11 16:36:04:328,0,-16.8991,-5.88884,86.7211
2023-03-11 16:36:04:339,0,-16.9081,-5.88467,86.7368
2023-03-11 16:36:04:348,0,-16.9082,-5.88013,86.7566
2023-03-11 16:36:04:359,0,-16.9115,-5.87129,86.7773
2023-03-11 16:36:04:368,0,-16.911,-5.86322,86.7958
2023-03-11 16:36:04:378,0,-16.9069,-5.85723,86.8169
2023-03-11 16:36:04:388,0,-16.9018,-5.85155,86.8369
2023-03-11 16:36:04:398,0,-16.9007,-5.84935,86.8561
2023-03-11 16:36:04:409,0,-16.8952,-5.84495,86.8755
2023-03-11 16:36:04:418,0,-16.8909,-5.84497,86.8918
2023-03-11 16:36:04:428,0,-16.8892,-5.84383,86.9052
2023-03-11 16:36:04:438,0,-16.8852,-5.83922,86.9137
2023-03-11 16:36:04:448,0,-16.8796,-5.83448,86.9213
2023-03-11 16:36:04:458,0,-16.8795,-5.83784,86.9283
2023-03-11 16:36:04:468,0,-16.8815,-5.84685,86.9399
2023-03-11 16:36:04:478,0,-16.8823,-5.85685,86.9524
2023-03-11 16:36:04:488,0,-16.8882,-5.87093,86.9667
2023-03-11 16:36:04:498,0,-16.893,-5.87981,86.9829
2023-03-11 16:36:04:508,0,-16.9089,-5.88733,87.0007
2023-03-11 16:36:04:518,0,-16.92,-5.8939,87.0154
2023-03-11 16:36:04:528,0,-16.9296,-5.90177,87.0306
2023-03-11 16:36:04:538,0,-16.9375,-5.90243,87.0424
2023-03-11 16:36:04:548,0,-16.9396,-5.89984,87.0526
2023-03-11 16:36:04:558,0,-16.9301,-5.89406,87.057
2023-03-11 16:36:04:568,0,-16.9137,-5.88358,87.051
2023-03-11 16:36:04:578,0,-16.8906,-5.86757,87.0381
2023-03-11 16:36:04:588,0,-16.8665,-5.85531,87.0186
2023-03-11 16:36:04:598,0,-16.8411,-5.84057,86.9938
2023-03-11 16:36:04:608,0,-16.8155,-5.8203,86.9673
2023-03-11 16:36:04:618,0,-16.7901,-5.79019,86.9348
2023-03-11 16:36:04:628,0,-16.7726,-5.75609,86.8991
2023-03-11 16:36:04:638,0,-16.7585,-5.71873,86.8533
2023-03-11 16:36:04:648,0,-16.7517,-5.6817,86.8074
2023-03-11 16:36:04:658,0,-16.7453,-5.64358,86.7578
2023-03-11 16:36:04:668,0,-16.7407,-5.60459,86.7073
2023-03-11 16:36:04:678,0,-16.7277,-5.56786,86.652
2023-03-11 16:36:04:688,0,-16.7128,-5.53458,86.6011
2023-03-11 16:36:04:698,0,-16.6969,-5.50385,86.5549
2023-03-11 16:36:04:708,0,-16.6831,-5.47993,86.5172
2023-03-11 16:36:04:718,0,-16.6712,-5.45259,86.4867
2023-03-11 16:36:04:728,0,-16.6614,-5.42502,86.4576
2023-03-11 16:36:04:738,0,-16.6541,-5.39618,86.4349
2023-03-11 16:36:04:748,0,-16.656,-5.36956,86.4219
2023-03-11 16:36:04:758,0,-16.6578,-5.34564,86.4102
2023-03-11 16:36:04:768,0,-16.6652,-5.32635,86.4119
2023-03-11 16:36:04:779,0,-16.6753,-5.3107,86.4212
2023-03-11 16:36:04:788,0,-16.6861,-5.30499,86.4317
2023-03-11 16:36:04:798,0,-16.6986,-5.30088,86.4515
2023-03-11 16:36:04:808,0,-16.709,-5.29981,86.4747
2023-03-11 16:36:04:818,0,-16.7211,-5.3037,86.5033
2023-03-11 16:36:04:828,0,-16.7302,-5.31072,86.5295
2023-03-11 16:36:04:839,0,-16.7414,-5.32296,86.5558
2023-03-11 16:36:04:848,0,-16.754,-5.33785,86.5796
2023-03-11 16:36:04:859,0,-16.7672,-5.35403,86.6043
2023-03-11 16:36:04:868,0,-16.7786,-5.36867,86.6272
2023-03-11 16:36:04:878,0,-16.7863,-5.38343,86.6467
2023-03-11 16:36:04:888,0,-16.7937,-5.39595,86.6626
2023-03-11 16:36:04:898,0,-16.7936,-5.41215,86.6746
2023-03-11 16:36:04:908,0,-16.7946,-5.42327,86.6862
2023-03-11 16:36:04:919,0,-16.7971,-5.43324,86.6932
2023-03-11 16:36:04:928,0,-16.7959,-5.44324,86.6965
2023-03-11 16:36:04:938,0,-16.7942,-5.44948,86.6994
2023-03-11 16:36:04:948,0,-16.7932,-5.4514,86.7021
2023-03-11 16:36:04:959,0,-16.7938,-5.4558,86.7035
2023-03-11 16:36:04:968,0,-16.7942,-5.45876,86.7042
2023-03-11 16:36:04:979,0,-16.7954,-5.45738,86.7026
2023-03-11 16:36:04:988,0,-16.7976,-5.45948,86.6951
2023-03-11 16:36:04:998,0,-16.7991,-5.46408,86.6865
2023-03-11 16:36:05:8,0,-16.8024,-5.46962,86.6766
2023-03-11 16:36:05:18,0,-16.8066,-5.47527,86.6641
2023-03-11 16:36:05:28,0,-16.808,-5.48268,86.6486
2023-03-11 16:36:05:38,0,-16.8079,-5.49187,86.6328
2023-03-11 16:36:05:48,0,-16.8139,-5.50171,86.6225
2023-03-11 16:36:05:58,0,-16.8185,-5.50961,86.62
2023-03-11 16:36:05:68,0,-16.8239,-5.51629,86.616
2023-03-11 16:36:05:79,0,-16.831,-5.52469,86.6159
2023-03-11 16:36:05:88,0,-16.8394,-5.5298,86.6169
2023-03-11 16:36:05:98,0,-16.8449,-5.53178,86.6166
2023-03-11 16:36:05:108,0,-16.8527,-5.53678,86.6188
2023-03-11 16:36:05:119,0,-16.8649,-5.53991,86.6177
2023-03-11 16:36:05:128,0,-16.8756,-5.54277,86.6158
2023-03-11 16:36:05:139,0,-16.8872,-5.55022,86.6153
2023-03-11 16:36:05:148,0,-16.9024,-5.55742,86.6138
2023-03-11 16:36:05:158,0,-16.9159,-5.5655,86.61
2023-03-11 16:36:05:168,0,-16.923,-5.57871,86.6053
2023-03-11 16:36:05:178,0,-16.9331,-5.59676,86.5994
2023-03-11 16:36:05:188,0,-16.9381,-5.616,86.5972
2023-03-11 16:36:05:198,0,-16.947,-5.63492,86.598
2023-03-11 16:36:05:208,0,-16.9564,-5.65157,86.602
2023-03-11 16:36:05:218,0,-16.9651,-5.6675,86.6096
2023-03-11 16:36:05:228,0,-16.9754,-5.68376,86.617
2023-03-11 16:36:05:239,0,-16.9875,-5.70093,86.6269
2023-03-11 16:36:05:248,0,-16.9999,-5.71404,86.638
2023-03-11 16:36:05:258,0,-17.0088,-5.72332,86.6503
2023-03-11 16:36:05:268,0,-17.0161,-5.73461,86.66
2023-03-11 16:36:05:278,0,-17.017,-5.7432,86.671
2023-03-11 16:36:05:288,0,-17.0167,-5.74837,86.6781
2023-03-11 16:36:05:298,0,-17.0149,-5.75539,86.6817
2023-03-11 16:36:05:308,0,-17.0105,-5.76112,86.6847
2023-03-11 16:36:05:318,0,-17.0088,-5.764,86.6821
2023-03-11 16:36:05:328,0,-17.004,-5.76462,86.6758
2023-03-11 16:36:05:338,0,-17.0028,-5.76578,86.6694
2023-03-11 16:36:05:348,0,-17.0013,-5.76868,86.6607
2023-03-11 16:36:05:359,0,-16.9955,-5.76967,86.6515
2023-03-11 16:36:05:368,0,-16.9884,-5.76882,86.6386
2023-03-11 16:36:05:378,0,-16.988,-5.76267,86.6253
2023-03-11 16:36:05:388,0,-16.9778,-5.75215,86.6097
2023-03-11 16:36:05:398,0,-16.9681,-5.74404,86.5939
2023-03-11 16:36:05:408,0,-16.9591,-5.73647,86.5736
2023-03-11 16:36:05:418,0,-16.9523,-5.72863,86.5488
2023-03-11 16:36:05:428,0,-16.9482,-5.71988,86.5261
2023-03-11 16:36:05:438,0,-16.9436,-5.70946,86.4971
2023-03-11 16:36:05:448,0,-16.9411,-5.70079,86.4679
2023-03-11 16:36:05:458,0,-16.9394,-5.69715,86.4417
2023-03-11 16:36:05:468,0,-16.9396,-5.69173,86.4203
2023-03-11 16:36:05:479,0,-16.9408,-5.68542,86.3995
2023-03-11 16:36:05:488,0,-16.941,-5.67691,86.3863
2023-03-11 16:36:05:498,0,-16.9474,-5.67262,86.3787
2023-03-11 16:36:05:508,0,-16.9559,-5.67487,86.3743
2023-03-11 16:36:05:518,0,-16.9633,-5.67429,86.3753
2023-03-11 16:36:05:528,0,-16.9702,-5.67665,86.3802
2023-03-11 16:36:05:538,0,-16.9832,-5.68279,86.3888
2023-03-11 16:36:05:548,0,-16.9913,-5.68836,86.3978
2023-03-11 16:36:05:559,0,-16.9967,-5.69758,86.4086
2023-03-11 16:36:05:568,0,-16.9988,-5.70561,86.417
2023-03-11 16:36:05:578,0,-17.0023,-5.71648,86.4257
2023-03-11 16:36:05:588,0,-17.0012,-5.73043,86.4364
2023-03-11 16:36:05:598,0,-16.9965,-5.74348,86.4452
2023-03-11 16:36:05:608,0,-16.9921,-5.75502,86.4556
2023-03-11 16:36:05:618,0,-16.9899,-5.76808,86.4633
2023-03-11 16:36:05:628,0,-16.9868,-5.78193,86.4697
2023-03-11 16:36:05:638,0,-16.9854,-5.79616,86.4775
2023-03-11 16:36:05:648,0,-16.9816,-5.80905,86.4833
2023-03-11 16:36:05:658,0,-16.9707,-5.82221,86.4888
2023-03-11 16:36:05:668,0,-16.9561,-5.83656,86.4889
2023-03-11 16:36:05:678,0,-16.9375,-5.84314,86.4921
2023-03-11 16:36:05:688,0,-16.923,-5.85168,86.4936
2023-03-11 16:36:05:698,0,-16.9047,-5.86543,86.4927
2023-03-11 16:36:05:708,0,-16.8848,-5.87668,86.4909
2023-03-11 16:36:05:718,0,-16.8628,-5.88787,86.49
2023-03-11 16:36:05:728,0,-16.8432,-5.89535,86.487
2023-03-11 16:36:05:738,0,-16.8309,-5.89977,86.478
2023-03-11 16:36:05:748,0,-16.8162,-5.90623,86.471
2023-03-11 16:36:05:758,0,-16.805,-5.90989,86.4645
2023-03-11 16:36:05:768,0,-16.7985,-5.9115,86.4575
2023-03-11 16:36:05:778,0,-16.7944,-5.91287,86.4482
2023-03-11 16:36:05:788,0,-16.7947,-5.91406,86.438
2023-03-11 16:36:05:798,0,-16.7942,-5.916,86.4289
2023-03-11 16:36:05:809,0,-16.7972,-5.91136,86.4248
2023-03-11 16:36:05:818,0,-16.801,-5.9076,86.4226
2023-03-11 16:36:05:828,0,-16.8042,-5.89892,86.4251
2023-03-11 16:36:05:839,0,-16.8044,-5.89305,86.4283
2023-03-11 16:36:05:848,0,-16.8077,-5.88418,86.4361
2023-03-11 16:36:05:858,0,-16.8097,-5.87537,86.4454
2023-03-11 16:36:05:868,0,-16.814,-5.86784,86.4556
2023-03-11 16:36:05:878,0,-16.8182,-5.86761,86.465
2023-03-11 16:36:05:888,0,-16.8213,-5.86869,86.4794
2023-03-11 16:36:05:898,0,-16.8262,-5.87321,86.4961
2023-03-11 16:36:05:908,0,-16.8243,-5.88056,86.5054
2023-03-11 16:36:05:918,0,-16.8226,-5.88542,86.5155
2023-03-11 16:36:05:928,0,-16.8179,-5.89121,86.5231
2023-03-11 16:36:05:938,0,-16.8145,-5.89571,86.5278
2023-03-11 16:36:05:948,0,-16.8163,-5.89597,86.5306
2023-03-11 16:36:05:958,0,-16.8171,-5.89705,86.5306
2023-03-11 16:36:05:968,0,-16.817,-5.89865,86.5306
2023-03-11 16:36:05:978,0,-16.8198,-5.89919,86.5283
2023-03-11 16:36:05:988,0,-16.8225,-5.90368,86.5258
2023-03-11 16:36:05:998,0,-16.8248,-5.90433,86.5237
2023-03-11 16:36:06:8,0,-16.8262,-5.90106,86.5203
2023-03-11 16:36:06:19,0,-16.8279,-5.89972,86.5183
2023-03-11 16:36:06:28,0,-16.8317,-5.89824,86.5206
2023-03-11 16:36:06:38,0,-16.8377,-5.8964,86.5248
2023-03-11 16:36:06:48,0,-16.8465,-5.89457,86.5296
2023-03-11 16:36:06:58,0,-16.8559,-5.89295,86.5304
2023-03-11 16:36:06:68,0,-16.8641,-5.88843,86.5338
2023-03-11 16:36:06:78,0,-16.8719,-5.88035,86.5389
2023-03-11 16:36:06:88,0,-16.8778,-5.87158,86.5437
2023-03-11 16:36:06:98,0,-16.8782,-5.86854,86.5468
2023-03-11 16:36:06:108,0,-16.8771,-5.86606,86.5503
2023-03-11 16:36:06:118,0,-16.8679,-5.86088,86.5539
2023-03-11 16:36:06:128,0,-16.8632,-5.85709,86.5615
2023-03-11 16:36:06:138,0,-16.8596,-5.85372,86.5675
2023-03-11 16:36:06:148,0,-16.8539,-5.85056,86.5729
2023-03-11 16:36:06:159,0,-16.8463,-5.85066,86.5756
2023-03-11 16:36:06:168,0,-16.8418,-5.84908,86.579
2023-03-11 16:36:06:178,0,-16.8312,-5.84683,86.5832
2023-03-11 16:36:06:188,0,-16.8211,-5.84755,86.5851
2023-03-11 16:36:06:198,0,-16.8099,-5.85041,86.5884
2023-03-11 16:36:06:208,0,-16.7977,-5.85114,86.5904
2023-03-11 16:36:06:218,0,-16.7839,-5.84948,86.5911
2023-03-11 16:36:06:228,0,-16.7716,-5.84712,86.5898
2023-03-11 16:36:06:238,0,-16.7591,-5.84824,86.5862
2023-03-11 16:36:06:248,0,-16.7484,-5.84767,86.5813
2023-03-11 16:36:06:259,0,-16.7368,-5.84663,86.5763
2023-03-11 16:36:06:268,0,-16.7268,-5.84664,86.5681
2023-03-11 16:36:06:278,0,-16.7197,-5.85014,86.5631
2023-03-11 16:36:06:288,0,-16.7122,-5.85417,86.5635
2023-03-11 16:36:06:298,0,-16.7045,-5.85841,86.5638
2023-03-11 16:36:06:308,0,-16.6935,-5.86366,86.5636
2023-03-11 16:36:06:318,0,-16.6803,-5.8712,86.5677
2023-03-11 16:36:06:328,0,-16.6732,-5.87796,86.5748
2023-03-11 16:36:06:338,0,-16.6622,-5.88189,86.5823
2023-03-11 16:36:06:348,0,-16.6531,-5.88646,86.5927
2023-03-11 16:36:06:358,0,-16.6428,-5.89359,86.6025
2023-03-11 16:36:06:368,0,-16.6385,-5.9002,86.6138
2023-03-11 16:36:06:379,0,-16.6362,-5.90997,86.631
2023-03-11 16:36:06:388,0,-16.6328,-5.91921,86.6457
2023-03-11 16:36:06:398,0,-16.6296,-5.93003,86.6591
2023-03-11 16:36:06:408,0,-16.6231,-5.94139,86.6694
2023-03-11 16:36:06:418,0,-16.6163,-5.94837,86.6785
2023-03-11 16:36:06:428,0,-16.6105,-5.95837,86.6883
2023-03-11 16:36:06:438,0,-16.6053,-5.96539,86.7023
2023-03-11 16:36:06:448,0,-16.6009,-5.97241,86.7168
2023-03-11 16:36:06:458,0,-16.6002,-5.97988,86.7353
2023-03-11 16:36:06:468,0,-16.5956,-5.99013,86.757
2023-03-11 16:36:06:478,0,-16.5908,-6.00164,86.7813
2023-03-11 16:36:06:488,0,-16.5791,-6.01381,86.8095
2023-03-11 16:36:06:498,0,-16.5676,-6.025,86.8364
2023-03-11 16:36:06:508,0,-16.5524,-6.03273,86.859
2023-03-11 16:36:06:518,0,-16.5381,-6.04062,86.878
2023-03-11 16:36:06:528,0,-16.519,-6.04472,86.8917
2023-03-11 16:36:06:538,0,-16.5051,-6.04863,86.9035
2023-03-11 16:36:06:548,0,-16.4899,-6.05135,86.9129
2023-03-11 16:36:06:558,0,-16.4748,-6.05079,86.919
2023-03-11 16:36:06:568,0,-16.46,-6.05111,86.9213
2023-03-11 16:36:06:578,0,-16.4416,-6.05883,86.926
2023-03-11 16:36:06:588,0,-16.4254,-6.0697,86.9296
2023-03-11 16:36:06:598,0,-16.4146,-6.08286,86.9349
2023-03-11 16:36:06:608,0,-16.4062,-6.09945,86.9418
2023-03-11 16:36:06:619,0,-16.4041,-6.11204,86.9473
2023-03-11 16:36:06:629,0,-16.4015,-6.12106,86.9542
2023-03-11 16:36:06:638,0,-16.4008,-6.13062,86.9648
2023-03-11 16:36:06:648,0,-16.3999,-6.1379,86.9757
2023-03-11 16:36:06:658,0,-16.4009,-6.14445,86.9929
2023-03-11 16:36:06:668,0,-16.4,-6.14894,87.0068
2023-03-11 16:36:06:678,0,-16.3951,-6.15355,87.0164
2023-03-11 16:36:06:688,0,-16.3872,-6.15292,87.0244
2023-03-11 16:36:06:698,0,-16.3831,-6.15666,87.0285
2023-03-11 16:36:06:708,0,-16.3823,-6.15642,87.0322
2023-03-11 16:36:06:718,0,-16.3843,-6.15804,87.0329
2023-03-11 16:36:06:728,0,-16.39,-6.16019,87.0297
2023-03-11 16:36:06:738,0,-16.3988,-6.1618,87.0279
2023-03-11 16:36:06:748,0,-16.4111,-6.16201,87.0264
2023-03-11 16:36:06:759,0,-16.4213,-6.16285,87.0244
2023-03-11 16:36:06:768,0,-16.4292,-6.16339,87.0227
2023-03-11 16:36:06:778,0,-16.4408,-6.16166,87.023
2023-03-11 16:36:06:788,0,-16.4465,-6.157,87.0172
2023-03-11 16:36:06:798,0,-16.4477,-6.15105,87.0104
2023-03-11 16:36:06:808,0,-16.4483,-6.14715,87.0044
2023-03-11 16:36:06:818,0,-16.4466,-6.14515,87.0055
2023-03-11 16:36:06:829,0,-16.4474,-6.14095,87.0044
2023-03-11 16:36:06:838,0,-16.4412,-6.13192,87.0013
2023-03-11 16:36:06:848,0,-16.4351,-6.11963,86.9998
2023-03-11 16:36:06:858,0,-16.4295,-6.11109,87.0009
2023-03-11 16:36:06:868,0,-16.4189,-6.10383,87.0002
2023-03-11 16:36:06:879,0,-16.4069,-6.09882,87.0041
2023-03-11 16:36:06:888,0,-16.3943,-6.09441,87.0007
2023-03-11 16:36:06:898,0,-16.3812,-6.09715,86.9999
2023-03-11 16:36:06:908,0,-16.3676,-6.10074,86.9997
2023-03-11 16:36:06:918,0,-16.3514,-6.10148,86.9956
2023-03-11 16:36:06:928,0,-16.3339,-6.10174,86.9895
2023-03-11 16:36:06:938,0,-16.3148,-6.10376,86.9824
2023-03-11 16:36:06:948,0,-16.2956,-6.10765,86.9706
2023-03-11 16:36:06:958,0,-16.2763,-6.11206,86.9618
2023-03-11 16:36:06:968,0,-16.2585,-6.1172,86.9559
2023-03-11 16:36:06:978,0,-16.2365,-6.12055,86.9485
2023-03-11 16:36:06:988,0,-16.2198,-6.12455,86.9443
2023-03-11 16:36:06:999,0,-16.2017,-6.12827,86.943
2023-03-11 16:36:07:9,0,-16.1878,-6.13254,86.9421
2023-03-11 16:36:07:19,0,-16.1739,-6.13345,86.9402
2023-03-11 16:36:07:29,0,-16.163,-6.13796,86.9431
2023-03-11 16:36:07:38,0,-16.1537,-6.13926,86.9442
2023-03-11 16:36:07:48,0,-16.1467,-6.13782,86.9416
2023-03-11 16:36:07:58,0,-16.1395,-6.13695,86.9366
2023-03-11 16:36:07:68,0,-16.1408,-6.13505,86.9316
2023-03-11 16:36:07:78,0,-16.1395,-6.13521,86.9255
2023-03-11 16:36:07:88,0,-16.1469,-6.13346,86.9182
2023-03-11 16:36:07:99,0,-16.1536,-6.13259,86.9068
2023-03-11 16:36:07:108,0,-16.1608,-6.12858,86.8948
2023-03-11 16:36:07:118,0,-16.1658,-6.12359,86.8816
2023-03-11 16:36:07:128,0,-16.1719,-6.12126,86.8721
2023-03-11 16:36:07:139,0,-16.1763,-6.12003,86.8673
2023-03-11 16:36:07:148,0,-16.1812,-6.12062,86.8631
2023-03-11 16:36:07:158,0,-16.1852,-6.12132,86.8645
2023-03-11 16:36:07:168,0,-16.1849,-6.11953,86.8688
2023-03-11 16:36:07:178,0,-16.1884,-6.11972,86.8728
2023-03-11 16:36:07:188,0,-16.1901,-6.12107,86.881
2023-03-11 16:36:07:199,0,-16.191,-6.12347,86.8959
2023-03-11 16:36:07:208,0,-16.1881,-6.12602,86.9024
2023-03-11 16:36:07:219,0,-16.1816,-6.12508,86.9049
2023-03-11 16:36:07:228,0,-16.1785,-6.12106,86.9064
2023-03-11 16:36:07:238,0,-16.1765,-6.12186,86.9044
2023-03-11 16:36:07:248,0,-16.1701,-6.12226,86.8984
2023-03-11 16:36:07:259,0,-16.167,-6.12094,86.8936
2023-03-11 16:36:07:269,0,-16.1633,-6.12021,86.8885
2023-03-11 16:36:07:278,0,-16.1605,-6.12133,86.8777
2023-03-11 16:36:07:289,0,-16.1542,-6.12685,86.8721
2023-03-11 16:36:07:299,0,-16.1478,-6.13497,86.8715
2023-03-11 16:36:07:308,0,-16.1411,-6.14775,86.8757
2023-03-11 16:36:07:319,0,-16.1396,-6.16417,86.8833
2023-03-11 16:36:07:328,0,-16.1434,-6.17877,86.8935
2023-03-11 16:36:07:339,0,-16.1502,-6.18689,86.9071
2023-03-11 16:36:07:348,0,-16.1662,-6.19632,86.9193
2023-03-11 16:36:07:359,0,-16.1808,-6.2056,86.927
2023-03-11 16:36:07:368,0,-16.1948,-6.21001,86.9379
2023-03-11 16:36:07:379,0,-16.2016,-6.21827,86.947
2023-03-11 16:36:07:389,0,-16.2126,-6.22512,86.9513
2023-03-11 16:36:07:398,0,-16.2244,-6.23273,86.9537
2023-03-11 16:36:07:408,0,-16.2378,-6.23784,86.9549
2023-03-11 16:36:07:418,0,-16.2482,-6.23937,86.9521
2023-03-11 16:36:07:428,0,-16.2629,-6.23749,86.948
2023-03-11 16:36:07:439,0,-16.2793,-6.23632,86.947
2023-03-11 16:36:07:448,0,-16.3036,-6.23102,86.9465
2023-03-11 16:36:07:458,0,-16.3275,-6.22454,86.9432
2023-03-11 16:36:07:468,0,-16.3506,-6.21856,86.9398
2023-03-11 16:36:07:478,0,-16.3746,-6.21494,86.9392
2023-03-11 16:36:07:488,0,-16.3947,-6.20413,86.9375
2023-03-11 16:36:07:498,0,-16.4136,-6.19001,86.933
2023-03-11 16:36:07:508,0,-16.4285,-6.17486,86.926
2023-03-11 16:36:07:518,0,-16.4438,-6.16319,86.9222
2023-03-11 16:36:07:529,0,-16.4562,-6.15312,86.9193
2023-03-11 16:36:07:538,0,-16.465,-6.14271,86.9176
2023-03-11 16:36:07:548,0,-16.4814,-6.13652,86.9138
2023-03-11 16:36:07:558,0,-16.4953,-6.12932,86.908
2023-03-11 16:36:07:569,0,-16.5083,-6.11957,86.9019
2023-03-11 16:36:07:578,0,-16.5198,-6.11243,86.8971
2023-03-11 16:36:07:588,0,-16.5302,-6.10305,86.8866
2023-03-11 16:36:07:598,0,-16.5397,-6.09279,86.8793
2023-03-11 16:36:07:608,0,-16.5516,-6.08142,86.8714
2023-03-11 16:36:07:619,0,-16.5569,-6.0705,86.866
2023-03-11 16:36:07:629,0,-16.5661,-6.06196,86.8589
2023-03-11 16:36:07:638,0,-16.573,-6.05453,86.8569
2023-03-11 16:36:07:649,0,-16.5753,-6.05268,86.8538
2023-03-11 16:36:07:658,0,-16.5786,-6.05107,86.8518
2023-03-11 16:36:07:668,0,-16.5816,-6.05054,86.853
2023-03-11 16:36:07:679,0,-16.5871,-6.05177,86.8526
2023-03-11 16:36:07:688,0,-16.5919,-6.05181,86.8541
2023-03-11 16:36:07:699,0,-16.5928,-6.05564,86.8579
2023-03-11 16:36:07:709,0,-16.5951,-6.05849,86.8683
2023-03-11 16:36:07:719,0,-16.5956,-6.06543,86.8776
2023-03-11 16:36:07:729,0,-16.5946,-6.06934,86.8886
2023-03-11 16:36:07:739,0,-16.5897,-6.07614,86.8951
2023-03-11 16:36:07:748,0,-16.5836,-6.08531,86.9037
2023-03-11 16:36:07:758,0,-16.5767,-6.08998,86.9099
2023-03-11 16:36:07:769,0,-16.5697,-6.09687,86.9135
2023-03-11 16:36:07:779,0,-16.561,-6.1044,86.9153
2023-03-11 16:36:07:788,0,-16.5556,-6.1095,86.9175
2023-03-11 16:36:07:799,0,-16.5526,-6.11521,86.9179
2023-03-11 16:36:07:808,0,-16.5494,-6.11886,86.9197
2023-03-11 16:36:07:819,0,-16.5439,-6.12247,86.9182
2023-03-11 16:36:07:829,0,-16.5418,-6.12505,86.9144
2023-03-11 16:36:07:838,0,-16.5385,-6.12863,86.9112
2023-03-11 16:36:07:848,0,-16.5345,-6.1283,86.9084
2023-03-11 16:36:07:858,0,-16.5274,-6.12757,86.9025
2023-03-11 16:36:07:868,0,-16.5195,-6.1269,86.8964
2023-03-11 16:36:07:878,0,-16.5172,-6.12595,86.8911
2023-03-11 16:36:07:888,0,-16.5138,-6.12967,86.8824
2023-03-11 16:36:07:898,0,-16.5104,-6.12704,86.8797
2023-03-11 16:36:07:908,0,-16.5084,-6.12708,86.8802
2023-03-11 16:36:07:918,0,-16.5057,-6.12646,86.8792
2023-03-11 16:36:07:928,0,-16.5024,-6.12556,86.8783
2023-03-11 16:36:07:938,0,-16.4962,-6.12597,86.8766
2023-03-11 16:36:07:948,0,-16.486,-6.1217,86.876
2023-03-11 16:36:07:958,0,-16.4784,-6.11832,86.875
2023-03-11 16:36:07:968,0,-16.4671,-6.11519,86.8747
2023-03-11 16:36:07:978,0,-16.4569,-6.11172,86.8725
2023-03-11 16:36:07:988,0,-16.4514,-6.10573,86.8664
2023-03-11 16:36:07:998,0,-16.4477,-6.1029,86.8591
2023-03-11 16:36:08:8,0,-16.4429,-6.09939,86.8456
2023-03-11 16:36:08:18,0,-16.4305,-6.09853,86.8344
2023-03-11 16:36:08:28,0,-16.4161,-6.10602,86.8259
2023-03-11 16:36:08:38,0,-16.4045,-6.11488,86.82
2023-03-11 16:36:08:48,0,-16.3972,-6.12245,86.8156
2023-03-11 16:36:08:58,0,-16.3918,-6.13109,86.8129
2023-03-11 16:36:08:68,0,-16.3905,-6.138,86.8092
2023-03-11 16:36:08:78,0,-16.39,-6.14087,86.8087
2023-03-11 16:36:08:88,0,-16.3899,-6.14408,86.8096
2023-03-11 16:36:08:98,0,-16.3924,-6.14421,86.8109
2023-03-11 16:36:08:108,0,-16.3927,-6.14972,86.8068
2023-03-11 16:36:08:118,0,-16.3971,-6.148,86.8058
2023-03-11 16:36:08:128,0,-16.3981,-6.14273,86.8039
2023-03-11 16:36:08:138,0,-16.3956,-6.13837,86.7997
2023-03-11 16:36:08:148,0,-16.3964,-6.13445,86.7934
2023-03-11 16:36:08:158,0,-16.3958,-6.12572,86.7856
2023-03-11 16:36:08:168,0,-16.3944,-6.1159,86.7737
2023-03-11 16:36:08:178,0,-16.3977,-6.1031,86.7601
2023-03-11 16:36:08:188,0,-16.4053,-6.08989,86.7513
2023-03-11 16:36:08:198,0,-16.4139,-6.07358,86.7397
2023-03-11 16:36:08:208,0,-16.4295,-6.05784,86.7317
2023-03-11 16:36:08:218,0,-16.4445,-6.03765,86.7239
2023-03-11 16:36:08:228,0,-16.4555,-6.01937,86.7144
2023-03-11 16:36:08:238,0,-16.4686,-5.99815,86.7003
2023-03-11 16:36:08:248,0,-16.4735,-5.98115,86.6894
2023-03-11 16:36:08:258,0,-16.4756,-5.96674,86.6805
2023-03-11 16:36:08:268,0,-16.4787,-5.95538,86.6709
2023-03-11 16:36:08:278,0,-16.4804,-5.94441,86.661
2023-03-11 16:36:08:288,0,-16.4817,-5.93413,86.6567
2023-03-11 16:36:08:298,0,-16.484,-5.924,86.6521
2023-03-11 16:36:08:308,0,-16.482,-5.91069,86.649
2023-03-11 16:36:08:318,0,-16.4782,-5.90259,86.6467
2023-03-11 16:36:08:328,0,-16.4725,-5.89597,86.646
2023-03-11 16:36:08:338,0,-16.465,-5.89112,86.6423
2023-03-11 16:36:08:348,0,-16.4526,-5.88556,86.6401
2023-03-11 16:36:08:358,0,-16.4398,-5.88266,86.6336
2023-03-11 16:36:08:368,0,-16.4307,-5.87761,86.629
2023-03-11 16:36:08:378,0,-16.4182,-5.87697,86.6226
2023-03-11 16:36:08:388,0,-16.4069,-5.87687,86.6178
2023-03-11 16:36:08:398,0,-16.3951,-5.87518,86.6172
2023-03-11 16:36:08:408,0,-16.3844,-5.87318,86.6176
2023-03-11 16:36:08:418,0,-16.3714,-5.86924,86.6214
2023-03-11 16:36:08:428,0,-16.3625,-5.86585,86.6274
2023-03-11 16:36:08:438,0,-16.3484,-5.86532,86.6321
2023-03-11 16:36:08:448,0,-16.3314,-5.86187,86.6425
2023-03-11 16:36:08:458,0,-16.318,-5.86445,86.6518
2023-03-11 16:36:08:468,0,-16.3061,-5.86085,86.6613
2023-03-11 16:36:08:478,0,-16.2924,-5.85828,86.6741
2023-03-11 16:36:08:488,0,-16.2834,-5.85474,86.681
2023-03-11 16:36:08:498,0,-16.2724,-5.85107,86.6875
2023-03-11 16:36:08:508,0,-16.2633,-5.84758,86.6963
2023-03-11 16:36:08:518,0,-16.2552,-5.84764,86.7012
2023-03-11 16:36:08:528,0,-16.2482,-5.83934,86.7036
2023-03-11 16:36:08:538,0,-16.2457,-5.83539,86.7025
2023-03-11 16:36:08:548,0,-16.2398,-5.82764,86.6962
2023-03-11 16:36:08:558,0,-16.2388,-5.82062,86.6914
2023-03-11 16:36:08:568,0,-16.2347,-5.8075,86.6871
2023-03-11 16:36:08:578,0,-16.2296,-5.7985,86.6802
2023-03-11 16:36:08:588,0,-16.2293,-5.78711,86.6747
2023-03-11 16:36:08:598,0,-16.2278,-5.77442,86.6687
2023-03-11 16:36:08:608,0,-16.2299,-5.7648,86.662
2023-03-11 16:36:08:618,0,-16.2273,-5.74753,86.6576
2023-03-11 16:36:08:628,0,-16.2301,-5.73439,86.6519
2023-03-11 16:36:08:638,0,-16.2281,-5.72317,86.6449
2023-03-11 16:36:08:648,0,-16.2256,-5.70798,86.6378
2023-03-11 16:36:08:658,0,-16.2212,-5.69482,86.6373
2023-03-11 16:36:08:668,0,-16.2153,-5.68053,86.6317
2023-03-11 16:36:08:678,0,-16.2124,-5.66497,86.6248
2023-03-11 16:36:08:688,0,-16.2085,-5.65041,86.6212
2023-03-11 16:36:08:698,0,-16.2021,-5.6346,86.6135
2023-03-11 16:36:08:708,0,-16.1957,-5.61324,86.606
2023-03-11 16:36:08:718,0,-16.187,-5.5973,86.5971
2023-03-11 16:36:08:728,0,-16.1773,-5.58066,86.5885
2023-03-11 16:36:08:738,0,-16.1691,-5.56368,86.5783
2023-03-11 16:36:08:748,0,-16.1621,-5.54832,86.5688
2023-03-11 16:36:08:758,0,-16.1554,-5.53846,86.5595
2023-03-11 16:36:08:768,0,-16.1485,-5.52944,86.5462
2023-03-11 16:36:08:778,0,-16.1466,-5.52205,86.5391
2023-03-11 16:36:08:788,0,-16.1519,-5.51427,86.5323
2023-03-11 16:36:08:798,0,-16.1604,-5.50945,86.529
2023-03-11 16:36:08:808,0,-16.1691,-5.50118,86.5247
2023-03-11 16:36:08:818,0,-16.1768,-5.49459,86.5211
2023-03-11 16:36:08:828,0,-16.1833,-5.48606,86.523
2023-03-11 16:36:08:838,0,-16.1896,-5.47708,86.5232
2023-03-11 16:36:08:848,0,-16.196,-5.46791,86.5267
2023-03-11 16:36:08:858,0,-16.1989,-5.45815,86.5292
2023-03-11 16:36:08:868,0,-16.2037,-5.45036,86.5286
2023-03-11 16:36:08:878,0,-16.2112,-5.43784,86.5251
2023-03-11 16:36:08:888,0,-16.2136,-5.42738,86.5197
2023-03-11 16:36:08:898,0,-16.2157,-5.41741,86.5126
2023-03-11 16:36:08:908,0,-16.2216,-5.40288,86.5039
2023-03-11 16:36:08:918,0,-16.2259,-5.39062,86.4924
2023-03-11 16:36:08:928,0,-16.2294,-5.3788,86.4812
2023-03-11 16:36:08:938,0,-16.231,-5.3664,86.4707
2023-03-11 16:36:08:948,0,-16.2325,-5.35951,86.4608
2023-03-11 16:36:08:958,0,-16.2351,-5.34389,86.4529
2023-03-11 16:36:08:968,0,-16.2362,-5.32698,86.4412
2023-03-11 16:36:08:978,0,-16.2354,-5.30986,86.4303
2023-03-11 16:36:08:988,0,-16.2315,-5.29996,86.4198
2023-03-11 16:36:08:998,0,-16.2251,-5.29487,86.408
2023-03-11 16:36:09:8,0,-16.2187,-5.28954,86.4007
2023-03-11 16:36:09:18,0,-16.2101,-5.28207,86.3941
2023-03-11 16:36:09:28,0,-16.2,-5.27414,86.3842
2023-03-11 16:36:09:38,0,-16.1904,-5.26809,86.3802
2023-03-11 16:36:09:48,0,-16.1785,-5.26158,86.3751
2023-03-11 16:36:09:58,0,-16.1703,-5.2538,86.3737
2023-03-11 16:36:09:68,0,-16.1644,-5.24547,86.3752
2023-03-11 16:36:09:78,0,-16.1567,-5.24129,86.3752
2023-03-11 16:36:09:88,0,-16.1489,-5.23809,86.3709
2023-03-11 16:36:09:98,0,-16.1369,-5.23278,86.3729
2023-03-11 16:36:09:108,0,-16.1261,-5.23084,86.3723
2023-03-11 16:36:09:118,0,-16.1146,-5.23171,86.3705
2023-03-11 16:36:09:128,0,-16.1019,-5.23667,86.3647
2023-03-11 16:36:09:138,0,-16.0943,-5.24512,86.3587
2023-03-11 16:36:09:148,0,-16.0839,-5.25381,86.3562
2023-03-11 16:36:09:158,0,-16.076,-5.26385,86.3557
2023-03-11 16:36:09:168,0,-16.0628,-5.27025,86.3577
2023-03-11 16:36:09:178,0,-16.0481,-5.27849,86.36
2023-03-11 16:36:09:188,0,-16.0393,-5.28839,86.3634
2023-03-11 16:36:09:198,0,-16.0313,-5.29343,86.3712
2023-03-11 16:36:09:208,0,-16.0221,-5.2975,86.3776
2023-03-11 16:36:09:218,0,-16.0157,-5.3008,86.3846
2023-03-11 16:36:09:228,0,-16.0109,-5.30518,86.3899
2023-03-11 16:36:09:238,0,-16.0081,-5.30691,86.3957
2023-03-11 16:36:09:248,0,-16.0018,-5.31051,86.398
2023-03-11 16:36:09:258,0,-15.9957,-5.3172,86.4012
2023-03-11 16:36:09:268,0,-15.9887,-5.32131,86.4021
2023-03-11 16:36:09:278,0,-15.9838,-5.32524,86.3989
2023-03-11 16:36:09:288,0,-15.9802,-5.32776,86.3944
2023-03-11 16:36:09:298,0,-15.9808,-5.32743,86.3866
2023-03-11 16:36:09:308,0,-15.9803,-5.32731,86.3813
2023-03-11 16:36:09:318,0,-15.9787,-5.329,86.3733
2023-03-11 16:36:09:328,0,-15.9748,-5.33095,86.3685
2023-03-11 16:36:09:338,0,-15.9702,-5.33409,86.3608
2023-03-11 16:36:09:348,0,-15.9691,-5.33296,86.3574
2023-03-11 16:36:09:358,0,-15.9716,-5.33306,86.3513
2023-03-11 16:36:09:368,0,-15.9683,-5.33448,86.3478
2023-03-11 16:36:09:378,0,-15.9623,-5.33349,86.3428
2023-03-11 16:36:09:388,0,-15.9556,-5.3355,86.339
2023-03-11 16:36:09:398,0,-15.9511,-5.33978,86.3373
2023-03-11 16:36:09:408,0,-15.9464,-5.34154,86.3338
2023-03-11 16:36:09:418,0,-15.9433,-5.34155,86.331
2023-03-11 16:36:09:428,0,-15.9384,-5.34011,86.326
2023-03-11 16:36:09:438,0,-15.9343,-5.33971,86.3275
2023-03-11 16:36:09:448,0,-15.935,-5.33822,86.3279
2023-03-11 16:36:09:458,0,-15.931,-5.33984,86.3253
2023-03-11 16:36:09:468,0,-15.926,-5.34051,86.3183
2023-03-11 16:36:09:478,0,-15.9187,-5.34264,86.3127
2023-03-11 16:36:09:488,0,-15.9159,-5.3411,86.3085
2023-03-11 16:36:09:498,0,-15.9114,-5.33837,86.3045
2023-03-11 16:36:09:508,0,-15.9046,-5.34165,86.3027
2023-03-11 16:36:09:518,0,-15.8993,-5.34943,86.2983
2023-03-11 16:36:09:528,0,-15.8914,-5.36027,86.2974
2023-03-11 16:36:09:538,0,-15.8862,-5.37429,86.2995
2023-03-11 16:36:09:548,0,-15.8803,-5.39281,86.3089
2023-03-11 16:36:09:558,0,-15.8752,-5.40587,86.3161
2023-03-11 16:36:09:568,0,-15.8736,-5.41982,86.3277
2023-03-11 16:36:09:578,0,-15.8771,-5.43229,86.3433
2023-03-11 16:36:09:588,0,-15.8783,-5.44255,86.359
2023-03-11 16:36:09:598,0,-15.8766,-5.45413,86.3755
2023-03-11 16:36:09:608,0,-15.872,-5.46609,86.385
2023-03-11 16:36:09:618,0,-15.8686,-5.47551,86.3931
2023-03-11 16:36:09:628,0,-15.8675,-5.48468,86.4042
2023-03-11 16:36:09:638,0,-15.8673,-5.49067,86.4027
2023-03-11 16:36:09:648,0,-15.864,-5.49773,86.4028
2023-03-11 16:36:09:658,0,-15.8608,-5.50242,86.396
2023-03-11 16:36:09:668,0,-15.8575,-5.50535,86.3876
2023-03-11 16:36:09:678,0,-15.8582,-5.50421,86.381
2023-03-11 16:36:09:688,0,-15.8573,-5.50399,86.3691
2023-03-11 16:36:09:698,0,-15.8579,-5.50033,86.3588
2023-03-11 16:36:09:708,0,-15.8609,-5.49876,86.3505
2023-03-11 16:36:09:718,0,-15.861,-5.49649,86.3421
2023-03-11 16:36:09:728,0,-15.8571,-5.49252,86.3316
2023-03-11 16:36:09:738,0,-15.8486,-5.49041,86.3179
2023-03-11 16:36:09:748,0,-15.8408,-5.49248,86.3101
2023-03-11 16:36:09:758,0,-15.8325,-5.49769,86.3028
2023-03-11 16:36:09:768,0,-15.8218,-5.50392,86.2974
2023-03-11 16:36:09:778,0,-15.8094,-5.51352,86.2921
2023-03-11 16:36:09:788,0,-15.7967,-5.5206,86.2886
2023-03-11 16:36:09:798,0,-15.7843,-5.52813,86.2859
2023-03-11 16:36:09:808,0,-15.7716,-5.53535,86.2843
2023-03-11 16:36:09:818,0,-15.7595,-5.54616,86.2864
2023-03-11 16:36:09:828,0,-15.7458,-5.55551,86.2896
2023-03-11 16:36:09:838,0,-15.7345,-5.56786,86.2891
2023-03-11 16:36:09:848,0,-15.7233,-5.57758,86.2898
2023-03-11 16:36:09:858,0,-15.709,-5.58994,86.2917
2023-03-11 16:36:09:868,0,-15.6977,-5.60031,86.2952
2023-03-11 16:36:09:878,0,-15.6875,-5.61358,86.2983
2023-03-11 16:36:09:888,0,-15.6786,-5.62692,86.3016
2023-03-11 16:36:09:898,0,-15.674,-5.64094,86.3022
2023-03-11 16:36:09:908,0,-15.6705,-5.65367,86.3071
2023-03-11 16:36:09:918,0,-15.6663,-5.66906,86.3139
2023-03-11 16:36:09:928,0,-15.6624,-5.67907,86.3199
2023-03-11 16:36:09:938,0,-15.6577,-5.69245,86.329
2023-03-11 16:36:09:948,0,-15.6558,-5.70402,86.3426
2023-03-11 16:36:09:958,0,-15.6513,-5.71523,86.3552
2023-03-11 16:36:09:968,0,-15.6467,-5.72464,86.3724
2023-03-11 16:36:09:978,0,-15.6409,-5.73226,86.3855
2023-03-11 16:36:09:988,0,-15.6395,-5.73785,86.3933
2023-03-11 16:36:09:998,0,-15.6388,-5.74322,86.4013
2023-03-11 16:36:10:8,0,-15.6357,-5.74693,86.4087
2023-03-11 16:36:10:18,0,-15.6312,-5.75033,86.4091
2023-03-11 16:36:10:28,0,-15.6272,-5.75384,86.4067
2023-03-11 16:36:10:38,0,-15.6265,-5.75832,86.4012
2023-03-11 16:36:10:48,0,-15.6226,-5.76136,86.3968
2023-03-11 16:36:10:58,0,-15.6219,-5.76562,86.3918
2023-03-11 16:36:10:68,0,-15.6248,-5.77184,86.3876
2023-03-11 16:36:10:78,0,-15.6256,-5.77788,86.3791
2023-03-11 16:36:10:88,0,-15.626,-5.78528,86.3748
2023-03-11 16:36:10:98,0,-15.6269,-5.79191,86.3755
2023-03-11 16:36:10:108,0,-15.6212,-5.80318,86.3786
2023-03-11 16:36:10:118,0,-15.6206,-5.80982,86.3856
2023-03-11 16:36:10:128,0,-15.6114,-5.81927,86.3955
2023-03-11 16:36:10:138,0,-15.6053,-5.82819,86.41
2023-03-11 16:36:10:148,0,-15.594,-5.83334,86.4191
2023-03-11 16:36:10:158,0,-15.5808,-5.83846,86.4292
2023-03-11 16:36:10:168,0,-15.5635,-5.84552,86.4394
2023-03-11 16:36:10:178,0,-15.546,-5.8509,86.4512
2023-03-11 16:36:10:188,0,-15.5229,-5.85852,86.4563
2023-03-11 16:36:10:198,0,-15.4987,-5.86335,86.4633
2023-03-11 16:36:10:208,0,-15.472,-5.86484,86.4631
2023-03-11 16:36:10:218,0,-15.4426,-5.86489,86.4637
2023-03-11 16:36:10:228,0,-15.404,-5.86239,86.4538
2023-03-11 16:36:10:238,0,-15.3575,-5.86222,86.4432
2023-03-11 16:36:10:248,0,-15.3036,-5.85959,86.4305
2023-03-11 16:36:10:258,0,-15.2362,-5.85885,86.4151
2023-03-11 16:36:10:268,0,-15.1438,-5.85185,86.3893
2023-03-11 16:36:10:278,0,-15.0379,-5.8435,86.3651
2023-03-11 16:36:10:288,0,-14.9078,-5.84022,86.3377
2023-03-11 16:36:10:298,0,-14.7529,-5.84012,86.3094
2023-03-11 16:36:10:308,0,-14.5769,-5.84787,86.2831
2023-03-11 16:36:10:318,0,-14.3713,-5.86416,86.2554
2023-03-11 16:36:10:328,0,-14.1187,-5.88256,86.2259
2023-03-11 16:36:10:339,0,-13.7996,-5.90056,86.201
