Timestamp_cmd,imu_cmd,roll_delta,pitch_delta,yaw_delta,voice_type,voice_length
2023-03-14 21:39:43:930,0,-9.73218,1.0056,46.7197,Q,Q
2023-03-14 21:39:43:939,0,-9.73877,0.977506,46.7472,Q,Q
2023-03-14 21:39:43:949,0,-9.7473,0.952585,46.7666,Q,Q
2023-03-14 21:39:43:959,0,-9.76071,0.932164,46.777,Q,Q
2023-03-14 21:39:43:969,0,-9.77124,0.908882,46.7696,Q,Q
2023-03-14 21:39:43:979,0,-9.78914,0.89121,46.7582,Q,Q
2023-03-14 21:39:43:989,0,-9.80414,0.875074,46.7427,Q,Q
2023-03-14 21:39:43:999,0,-9.81922,0.856139,46.7207,Q,Q
2023-03-14 21:39:44:9,0,-9.83272,0.839333,46.6907,Q,Q
2023-03-14 21:39:44:19,0,-9.84474,0.819298,46.6667,Q,Q
2023-03-14 21:39:44:29,0,-9.85896,0.798444,46.6441,Q,Q
2023-03-14 21:39:44:39,0,-9.87682,0.778274,46.6228,Q,Q
2023-03-14 21:39:44:49,0,-9.88962,0.768733,46.5998,Q,Q
2023-03-14 21:39:44:59,0,-9.89017,0.765655,46.5816,Q,Q
2023-03-14 21:39:44:69,0,-9.88705,0.775525,46.561,Q,Q
2023-03-14 21:39:44:79,0,-9.87874,0.788534,46.5501,Q,Q
2023-03-14 21:39:44:89,0,-9.87225,0.80748,46.5448,Q,Q
2023-03-14 21:39:44:99,0,-9.8675,0.831147,46.5536,Q,Q
2023-03-14 21:39:44:109,0,-9.86852,0.859514,46.5706,Q,Q
2023-03-14 21:39:44:119,0,-9.86771,0.892353,46.59,Q,Q
2023-03-14 21:39:44:129,0,-9.87076,0.921789,46.6162,Q,Q
2023-03-14 21:39:44:139,0,-9.87565,0.958633,46.643,Q,Q
2023-03-14 21:39:44:149,0,-9.88473,1.00063,46.6699,Q,Q
2023-03-14 21:39:44:159,0,-9.89124,1.04492,46.6986,Q,Q
2023-03-14 21:39:44:169,0,-9.90623,1.09466,46.7287,Q,Q
2023-03-14 21:39:44:179,0,-9.93094,1.14444,46.7625,Q,Q
2023-03-14 21:39:44:189,0,-9.97054,1.18663,46.7974,Q,Q
2023-03-14 21:39:44:199,0,-10.0243,1.21979,46.8333,Q,Q
2023-03-14 21:39:44:209,0,-10.0856,1.24049,46.8669,Q,Q
2023-03-14 21:39:44:219,0,-10.1529,1.25604,46.9011,Q,Q
2023-03-14 21:39:44:229,0,-10.2162,1.25762,46.9353,Q,Q
2023-03-14 21:39:44:239,0,-10.2834,1.25784,46.964,Q,Q
2023-03-14 21:39:44:249,0,-10.3413,1.25345,46.9878,Q,Q
2023-03-14 21:39:44:259,0,-10.3914,1.24456,47.0067,Q,Q
2023-03-14 21:39:44:269,0,-10.4356,1.22858,47.0223,Q,Q
2023-03-14 21:39:44:279,0,-10.4709,1.2075,47.0359,Q,Q
2023-03-14 21:39:44:289,0,-10.4975,1.18044,47.0452,Q,Q
2023-03-14 21:39:44:299,0,-10.5202,1.15243,47.0521,Q,Q
2023-03-14 21:39:44:309,0,-10.5351,1.12529,47.0599,Q,Q
2023-03-14 21:39:44:319,0,-10.5389,1.10013,47.0577,Q,Q
2023-03-14 21:39:44:329,0,-10.5309,1.0832,47.0493,Q,Q
2023-03-14 21:39:44:339,0,-10.5187,1.07166,47.0394,Q,Q
2023-03-14 21:39:44:349,0,-10.4991,1.06268,47.0288,Q,Q
2023-03-14 21:39:44:359,0,-10.4828,1.06119,47.0207,Q,Q
2023-03-14 21:39:44:369,0,-10.4612,1.05737,47.0166,Q,Q
2023-03-14 21:39:44:379,0,-10.4412,1.0509,47.0139,Q,Q
2023-03-14 21:39:44:389,0,-10.4245,1.04883,47.0113,Q,Q
2023-03-14 21:39:44:399,0,-10.4169,1.04485,47.0105,Q,Q
2023-03-14 21:39:44:409,0,-10.4184,1.04629,47.0079,Q,Q
2023-03-14 21:39:44:419,0,-10.4216,1.05412,47.0028,Q,Q
2023-03-14 21:39:44:429,0,-10.4229,1.06369,46.9943,Q,Q
2023-03-14 21:39:44:439,0,-10.4306,1.0742,46.9827,Q,Q
2023-03-14 21:39:44:449,0,-10.4403,1.08538,46.9686,Q,Q
2023-03-14 21:39:44:459,0,-10.4476,1.0927,46.9544,Q,Q
2023-03-14 21:39:44:469,0,-10.4582,1.0976,46.9377,Q,Q
2023-03-14 21:39:44:479,0,-10.4705,1.10199,46.9203,Q,Q
2023-03-14 21:39:44:489,0,-10.4851,1.10204,46.9061,Q,Q
2023-03-14 21:39:44:499,0,-10.4989,1.09722,46.8873,Q,Q
2023-03-14 21:39:44:509,0,-10.5144,1.09214,46.8729,Q,Q
2023-03-14 21:39:44:519,0,-10.5344,1.08468,46.8614,Q,Q
2023-03-14 21:39:44:529,0,-10.5533,1.0753,46.8512,Q,Q
2023-03-14 21:39:44:539,0,-10.5721,1.06818,46.8462,Q,Q
2023-03-14 21:39:44:549,0,-10.5924,1.05816,46.8412,Q,Q
2023-03-14 21:39:44:559,0,-10.6112,1.05333,46.835,Q,Q
2023-03-14 21:39:44:569,0,-10.6302,1.04494,46.8258,Q,Q
2023-03-14 21:39:44:579,0,-10.6478,1.03677,46.8161,Q,Q
2023-03-14 21:39:44:589,0,-10.6605,1.02433,46.8092,Q,Q
2023-03-14 21:39:44:599,0,-10.6775,1.01021,46.8046,Q,Q
2023-03-14 21:39:44:609,0,-10.6964,1.00051,46.8044,Q,Q
2023-03-14 21:39:44:619,0,-10.7089,0.991055,46.8066,Q,Q
2023-03-14 21:39:44:629,0,-10.7252,0.980496,46.8019,Q,Q
2023-03-14 21:39:44:639,0,-10.7423,0.96483,46.8021,Q,Q
2023-03-14 21:39:44:649,0,-10.7545,0.946547,46.8062,Q,Q
2023-03-14 21:39:44:659,0,-10.769,0.926132,46.8111,Q,Q
2023-03-14 21:39:44:669,0,-10.7852,0.904336,46.8216,Q,Q
2023-03-14 21:39:44:679,0,-10.7906,0.885642,46.8335,Q,Q
2023-03-14 21:39:44:689,0,-10.7953,0.872275,46.8448,Q,Q
2023-03-14 21:39:44:699,0,-10.796,0.858073,46.8605,Q,Q
2023-03-14 21:39:44:709,0,-10.7924,0.845292,46.8753,Q,Q
2023-03-14 21:39:44:719,0,-10.7913,0.833589,46.8947,Q,Q
2023-03-14 21:39:44:729,0,-10.7943,0.816452,46.9139,Q,Q
2023-03-14 21:39:44:739,0,-10.7924,0.799017,46.9362,Q,Q
2023-03-14 21:39:44:749,0,-10.7916,0.781806,46.9583,Q,Q
2023-03-14 21:39:44:759,0,-10.7906,0.765471,46.9769,Q,Q
2023-03-14 21:39:44:769,0,-10.7871,0.750776,46.9859,Q,Q
2023-03-14 21:39:44:779,0,-10.7828,0.734907,46.9907,Q,Q
2023-03-14 21:39:44:789,0,-10.7774,0.725489,46.9881,Q,Q
2023-03-14 21:39:44:799,0,-10.7694,0.716909,46.9829,Q,Q
2023-03-14 21:39:44:809,0,-10.7666,0.715419,46.9723,Q,Q
2023-03-14 21:39:44:819,0,-10.7659,0.715275,46.9614,Q,Q
2023-03-14 21:39:44:829,0,-10.77,0.7124,46.9576,Q,Q
2023-03-14 21:39:44:839,0,-10.7774,0.716568,46.9522,Q,Q
2023-03-14 21:39:44:849,0,-10.7891,0.719557,46.9507,Q,Q
2023-03-14 21:39:44:859,0,-10.8057,0.722731,46.9522,Q,Q
2023-03-14 21:39:44:869,0,-10.8272,0.730191,46.9567,Q,Q
2023-03-14 21:39:44:879,0,-10.8496,0.736074,46.9632,Q,Q
2023-03-14 21:39:44:889,0,-10.8691,0.742605,46.9693,Q,Q
2023-03-14 21:39:44:899,0,-10.8808,0.745982,46.9777,Q,Q
2023-03-14 21:39:44:909,0,-10.8836,0.748598,46.9812,Q,Q
2023-03-14 21:39:44:919,0,-10.8764,0.75289,46.9778,Q,Q
2023-03-14 21:39:44:929,0,-10.8668,0.754353,46.9737,Q,Q
2023-03-14 21:39:44:939,0,-10.8501,0.749528,46.9634,Q,Q
2023-03-14 21:39:44:949,0,-10.838,0.750708,46.9461,Q,Q
2023-03-14 21:39:44:959,0,-10.8232,0.750563,46.9272,Q,Q
2023-03-14 21:39:44:969,0,-10.8156,0.753499,46.8932,Q,Q
2023-03-14 21:39:44:979,0,-10.8131,0.761327,46.8522,Q,Q
2023-03-14 21:39:44:989,0,-10.8201,0.767093,46.8113,Q,Q
2023-03-14 21:39:44:999,0,-10.8319,0.771021,46.7711,Q,Q
2023-03-14 21:39:45:9,0,-10.8554,0.776984,46.7314,Q,Q
2023-03-14 21:39:45:19,0,-10.8813,0.783823,46.6912,Q,Q
2023-03-14 21:39:45:29,0,-10.9103,0.789932,46.6534,Q,Q
2023-03-14 21:39:45:39,0,-10.941,0.795224,46.623,Q,Q
2023-03-14 21:39:45:49,0,-10.9763,0.79397,46.6005,Q,Q
2023-03-14 21:39:45:59,0,-11.0111,0.78933,46.5922,Q,Q
2023-03-14 21:39:45:69,0,-11.0445,0.78497,46.5902,Q,Q
2023-03-14 21:39:45:79,0,-11.0744,0.775578,46.5977,Q,Q
2023-03-14 21:39:45:89,0,-11.0974,0.765224,46.6099,Q,Q
2023-03-14 21:39:45:99,0,-11.1095,0.757749,46.6254,Q,Q
2023-03-14 21:39:45:109,0,-11.1157,0.751092,46.6475,Q,Q
2023-03-14 21:39:45:118,0,-11.1184,0.746862,46.669,Q,Q
2023-03-14 21:39:45:129,0,-11.1163,0.743106,46.6902,Q,Q
2023-03-14 21:39:45:139,0,-11.1123,0.743068,46.7142,Q,Q
2023-03-14 21:39:45:149,0,-11.1062,0.746792,46.7296,Q,Q
2023-03-14 21:39:45:159,0,-11.0972,0.758442,46.7445,Q,Q
2023-03-14 21:39:45:169,0,-11.0837,0.771901,46.7543,Q,Q
2023-03-14 21:39:45:179,0,-11.0707,0.787796,46.7599,Q,Q
2023-03-14 21:39:45:189,0,-11.0602,0.804214,46.7603,Q,Q
2023-03-14 21:39:45:198,0,-11.0582,0.821254,46.7657,Q,Q
2023-03-14 21:39:45:209,0,-11.0631,0.839096,46.7698,Q,Q
2023-03-14 21:39:45:219,0,-11.0774,0.856518,46.7715,Q,Q
2023-03-14 21:39:45:228,0,-11.0926,0.88015,46.7703,Q,Q
2023-03-14 21:39:45:239,0,-11.1103,0.90647,46.7656,Q,Q
2023-03-14 21:39:45:248,0,-11.1278,0.935281,46.7633,Q,Q
2023-03-14 21:39:45:258,0,-11.1406,0.96153,46.7586,Q,Q
2023-03-14 21:39:45:268,0,-11.1517,0.981275,46.7588,Q,Q
2023-03-14 21:39:45:279,0,-11.1626,0.996968,46.754,Q,Q
2023-03-14 21:39:45:289,0,-11.1644,1.01187,46.7472,Q,Q
2023-03-14 21:39:45:299,0,-11.1705,1.02293,46.7395,Q,Q
2023-03-14 21:39:45:309,0,-11.1805,1.03373,46.7324,Q,Q
2023-03-14 21:39:45:319,0,-11.1937,1.03971,46.7164,Q,Q
2023-03-14 21:39:45:329,0,-11.2077,1.0469,46.6949,Q,Q
2023-03-14 21:39:45:339,0,-11.2244,1.04981,46.6755,Q,Q
2023-03-14 21:39:45:349,0,-11.2433,1.05048,46.6531,Q,Q
2023-03-14 21:39:45:359,0,-11.2579,1.05056,46.6284,Q,Q
2023-03-14 21:39:45:369,0,-11.2689,1.05276,46.5966,Q,Q
2023-03-14 21:39:45:379,0,-11.2793,1.05571,46.5603,Q,Q
2023-03-14 21:39:45:389,0,-11.2896,1.06129,46.5202,Q,Q
2023-03-14 21:39:45:399,0,-11.3057,1.0634,46.4847,Q,Q
2023-03-14 21:39:45:409,0,-11.3228,1.06215,46.4511,Q,Q
2023-03-14 21:39:45:419,0,-11.3402,1.06189,46.416,Q,Q
2023-03-14 21:39:45:429,0,-11.3561,1.05813,46.3763,Q,Q
2023-03-14 21:39:45:439,0,-11.3708,1.05357,46.3347,Q,Q
2023-03-14 21:39:45:449,0,-11.3827,1.04888,46.2913,Q,Q
2023-03-14 21:39:45:459,0,-11.3914,1.03607,46.2512,Q,Q
2023-03-14 21:39:45:469,0,-11.391,1.0186,46.2065,Q,Q
2023-03-14 21:39:45:479,0,-11.3847,0.997341,46.159,Q,Q
2023-03-14 21:39:45:489,0,-11.37,0.973509,46.1005,Q,Q
2023-03-14 21:39:45:499,0,-11.3432,0.950114,46.0314,Q,Q
2023-03-14 21:39:45:509,0,-11.3156,0.929549,45.9553,Q,Q
2023-03-14 21:39:45:519,0,-11.2879,0.909947,45.87,Q,Q
2023-03-14 21:39:45:529,0,-11.2636,0.890558,45.7781,Q,Q
2023-03-14 21:39:45:539,0,-11.2408,0.870981,45.6808,Q,Q
2023-03-14 21:39:45:549,0,-11.2206,0.850409,45.5765,Q,Q
2023-03-14 21:39:45:559,0,-11.2137,0.836817,45.4707,Q,Q
2023-03-14 21:39:45:569,0,-11.2089,0.827729,45.3625,Q,Q
2023-03-14 21:39:45:579,0,-11.2128,0.818285,45.2503,Q,Q
2023-03-14 21:39:45:589,0,-11.2261,0.811008,45.1351,Q,Q
2023-03-14 21:39:45:599,0,-11.2388,0.800489,45.0289,Q,Q
2023-03-14 21:39:45:609,0,-11.25,0.783464,44.9412,Q,Q
2023-03-14 21:39:45:619,0,-11.2539,0.761324,44.8716,Q,Q
2023-03-14 21:39:45:629,0,-11.2517,0.738181,44.817,Q,Q
2023-03-14 21:39:45:639,0,-11.241,0.720461,44.7626,Q,Q
2023-03-14 21:39:45:648,0,-11.2231,0.713304,44.7068,Q,Q
2023-03-14 21:39:45:658,0,-11.2013,0.715941,44.6462,Q,Q
2023-03-14 21:39:45:669,0,-11.1785,0.727631,44.5871,Q,Q
2023-03-14 21:39:45:679,0,-11.1572,0.750399,44.5363,Q,Q
2023-03-14 21:39:45:689,0,-11.1397,0.782711,44.5011,Q,Q
2023-03-14 21:39:45:699,0,-11.1226,0.81577,44.4811,Q,Q
2023-03-14 21:39:45:709,0,-11.1084,0.852754,44.4731,Q,Q
2023-03-14 21:39:45:719,0,-11.1069,0.898578,44.4733,Q,Q
2023-03-14 21:39:45:729,0,-11.1133,0.950964,44.4745,Q,Q
2023-03-14 21:39:45:739,0,-11.1288,1.01031,44.4682,Q,Q
2023-03-14 21:39:45:749,0,-11.1483,1.07071,44.4631,Q,Q
2023-03-14 21:39:45:759,0,-11.1706,1.12687,44.4562,Q,Q
2023-03-14 21:39:45:769,0,-11.1882,1.17386,44.452,Q,Q
2023-03-14 21:39:45:779,0,-11.2086,1.20968,44.4524,Q,Q
2023-03-14 21:39:45:789,0,-11.2332,1.24495,44.4583,Q,Q
2023-03-14 21:39:45:799,0,-11.2693,1.28213,44.4665,Q,Q
2023-03-14 21:39:45:809,0,-11.3135,1.31666,44.4731,Q,Q
2023-03-14 21:39:45:819,0,-11.358,1.3504,44.4786,Q,Q
2023-03-14 21:39:45:829,0,-11.405,1.37779,44.4822,Q,Q
2023-03-14 21:39:45:839,0,-11.4547,1.40449,44.4834,Q,Q
2023-03-14 21:39:45:849,0,-11.5078,1.42951,44.4844,Q,Q
2023-03-14 21:39:45:859,0,-11.5586,1.4538,44.4809,Q,Q
2023-03-14 21:39:45:869,0,-11.6029,1.48077,44.4755,Q,Q
2023-03-14 21:39:45:879,0,-11.6358,1.51062,44.4724,Q,Q
2023-03-14 21:39:45:889,0,-11.6634,1.54027,44.4617,Q,Q
2023-03-14 21:39:45:899,0,-11.685,1.57141,44.4552,Q,Q
2023-03-14 21:39:45:909,0,-11.7018,1.6032,44.4528,Q,Q
2023-03-14 21:39:45:919,0,-11.721,1.63591,44.4541,Q,Q
2023-03-14 21:39:45:929,0,-11.7436,1.66013,44.4589,Q,Q
2023-03-14 21:39:45:939,0,-11.7711,1.6763,44.4593,Q,Q
2023-03-14 21:39:45:949,0,-11.7933,1.68688,44.4654,Q,Q
2023-03-14 21:39:45:959,0,-11.8093,1.68705,44.4704,Q,Q
2023-03-14 21:39:45:969,0,-11.8212,1.69239,44.4776,Q,Q
2023-03-14 21:39:45:979,0,-11.8255,1.69487,44.4901,Q,Q
2023-03-14 21:39:45:989,0,-11.8275,1.68918,44.509,Q,Q
2023-03-14 21:39:45:999,0,-11.833,1.68071,44.5343,Q,Q
2023-03-14 21:39:46:9,0,-11.8464,1.66583,44.5694,Q,Q
2023-03-14 21:39:46:19,0,-11.8658,1.63677,44.6095,Q,Q
2023-03-14 21:39:46:29,0,-11.8903,1.59697,44.6508,Q,Q
2023-03-14 21:39:46:39,0,-11.9156,1.54967,44.6838,Q,Q
2023-03-14 21:39:46:49,0,-11.9342,1.49906,44.7083,Q,Q
2023-03-14 21:39:46:59,0,-11.9381,1.45119,44.7192,Q,Q
2023-03-14 21:39:46:69,0,-11.9313,1.40434,44.723,Q,Q
2023-03-14 21:39:46:79,0,-11.923,1.36432,44.7216,Q,Q
2023-03-14 21:39:46:89,0,-11.9198,1.33064,44.7161,Q,Q
2023-03-14 21:39:46:99,0,-11.9218,1.3044,44.7129,Q,Q
2023-03-14 21:39:46:109,0,-11.9406,1.28783,44.7019,Q,Q
2023-03-14 21:39:46:119,0,-11.9669,1.27593,44.6893,Q,Q
2023-03-14 21:39:46:129,0,-12.008,1.26379,44.6757,Q,Q
2023-03-14 21:39:46:139,0,-12.0648,1.25823,44.6602,Q,Q
2023-03-14 21:39:46:149,0,-12.1314,1.25729,44.6329,Q,Q
2023-03-14 21:39:46:159,0,-12.1984,1.26032,44.5971,Q,Q
2023-03-14 21:39:46:169,0,-12.2642,1.27096,44.5536,Q,Q
2023-03-14 21:39:46:179,0,-12.3337,1.28456,44.5138,Q,Q
2023-03-14 21:39:46:189,0,-12.4087,1.30287,44.4782,Q,Q
2023-03-14 21:39:46:199,0,-12.4926,1.32388,44.444,Q,Q
2023-03-14 21:39:46:209,0,-12.5925,1.34757,44.4125,Q,Q
2023-03-14 21:39:46:219,0,-12.7113,1.37184,44.3898,Q,Q
2023-03-14 21:39:46:229,0,-12.8551,1.3917,44.3725,Q,Q
2023-03-14 21:39:46:239,0,-13.0151,1.40559,44.3552,Q,Q
2023-03-14 21:39:46:249,0,-13.1793,1.41708,44.336,Q,Q
2023-03-14 21:39:46:259,0,-13.3367,1.41655,44.309,Q,Q
2023-03-14 21:39:46:269,0,-13.4769,1.40653,44.2841,Q,Q
2023-03-14 21:39:46:279,0,-13.5994,1.39034,44.265,Q,Q
2023-03-14 21:39:46:289,0,-13.7069,1.37221,44.2509,Q,Q
2023-03-14 21:39:46:299,0,-13.8057,1.35191,44.2419,Q,Q
2023-03-14 21:39:46:309,0,-13.9014,1.32827,44.2361,Q,Q
2023-03-14 21:39:46:319,0,-13.9973,1.29686,44.2366,Q,Q
2023-03-14 21:39:46:329,0,-14.1005,1.25708,44.2376,Q,Q
2023-03-14 21:39:46:339,0,-14.2103,1.21877,44.2389,Q,Q
2023-03-14 21:39:46:349,0,-14.3235,1.17611,44.2403,Q,Q
2023-03-14 21:39:46:359,0,-14.4314,1.14314,44.2329,Q,Q
2023-03-14 21:39:46:369,0,-14.5308,1.11226,44.2133,Q,Q
2023-03-14 21:39:46:379,0,-14.6175,1.08899,44.1899,Q,Q
2023-03-14 21:39:46:389,0,-14.6851,1.0726,44.1598,Q,Q
2023-03-14 21:39:46:399,0,-14.7424,1.06,44.1262,Q,Q
2023-03-14 21:39:46:409,0,-14.7867,1.05238,44.091,Q,Q
2023-03-14 21:39:46:419,0,-14.8303,1.04365,44.0523,Q,Q
2023-03-14 21:39:46:429,0,-14.8779,1.02972,44.0174,Q,Q
2023-03-14 21:39:46:439,0,-14.9354,1.00733,43.9841,Q,Q
2023-03-14 21:39:46:449,0,-15.0046,0.978159,43.9563,Q,Q
2023-03-14 21:39:46:459,0,-15.0687,0.94386,43.9248,Q,Q
2023-03-14 21:39:46:469,0,-15.1235,0.914713,43.8906,Q,Q
2023-03-14 21:39:46:479,0,-15.176,0.892349,43.8566,Q,Q
2023-03-14 21:39:46:489,0,-15.2251,0.874927,43.8207,Q,Q
2023-03-14 21:39:46:499,0,-15.2786,0.861113,43.7816,Q,Q
2023-03-14 21:39:46:509,0,-15.3417,0.848708,43.7377,Q,Q
2023-03-14 21:39:46:519,0,-15.4196,0.832968,43.6915,Q,Q
2023-03-14 21:39:46:529,0,-15.5124,0.806243,43.6476,Q,Q
2023-03-14 21:39:46:539,0,-15.6193,0.775279,43.6082,Q,Q
2023-03-14 21:39:46:549,0,-15.7401,0.743436,43.574,Q,Q
2023-03-14 21:39:46:559,0,-15.8742,0.71199,43.5413,Q,Q
2023-03-14 21:39:46:569,0,-16.0193,0.685238,43.5067,Q,Q
2023-03-14 21:39:46:579,0,-16.1631,0.658735,43.4678,Q,Q
2023-03-14 21:39:46:589,0,-16.3002,0.63516,43.428,Q,Q
2023-03-14 21:39:46:599,0,-16.4291,0.620246,43.3882,Q,Q
2023-03-14 21:39:46:609,0,-16.5551,0.607823,43.3446,Q,Q
2023-03-14 21:39:46:619,0,-16.6716,0.593144,43.3018,Q,Q
2023-03-14 21:39:46:629,0,-16.7908,0.578265,43.2642,Q,Q
2023-03-14 21:39:46:639,0,-16.9053,0.563208,43.232,Q,Q
2023-03-14 21:39:46:649,0,-17.0265,0.545509,43.2123,Q,Q
2023-03-14 21:39:46:659,0,-17.1508,0.52355,43.1953,Q,Q
2023-03-14 21:39:46:669,0,-17.2875,0.496619,43.1806,Q,Q
2023-03-14 21:39:46:679,0,-17.4262,0.470927,43.1667,Q,Q
2023-03-14 21:39:46:689,0,-17.5622,0.453491,43.1466,Q,Q
2023-03-14 21:39:46:699,0,-17.6802,0.43268,43.1258,Q,Q
2023-03-14 21:39:46:709,0,-17.7835,0.410878,43.1037,Q,Q
2023-03-14 21:39:46:719,0,-17.8777,0.388513,43.0826,Q,Q
2023-03-14 21:39:46:729,0,-17.9714,0.371012,43.059,Q,Q
2023-03-14 21:39:46:739,0,-18.0699,0.343939,43.0376,Q,Q
2023-03-14 21:39:46:749,0,-18.1729,0.311058,43.0224,Q,Q
2023-03-14 21:39:46:759,0,-18.2871,0.276712,43.0147,Q,Q
2023-03-14 21:39:46:769,0,-18.4102,0.240752,43.0068,Q,Q
2023-03-14 21:39:46:779,0,-18.5359,0.207128,42.9946,Q,Q
2023-03-14 21:39:46:789,0,-18.6512,0.170113,42.9867,Q,Q
2023-03-14 21:39:46:799,0,-18.7567,0.129277,42.9868,Q,Q
2023-03-14 21:39:46:809,0,-18.8551,0.0890082,42.9969,Q,Q
2023-03-14 21:39:46:819,0,-18.9492,0.0566867,43.0131,Q,Q
2023-03-14 21:39:46:829,0,-19.048,0.0178353,43.0361,Q,Q
2023-03-14 21:39:46:839,0,-19.151,-0.0221679,43.0632,Q,Q
2023-03-14 21:39:46:849,0,-19.2517,-0.061773,43.0961,Q,Q
2023-03-14 21:39:46:859,0,-19.3413,-0.104188,43.1287,Q,Q
2023-03-14 21:39:46:869,0,-19.4219,-0.144301,43.1629,Q,Q
2023-03-14 21:39:46:879,0,-19.4967,-0.18794,43.1957,Q,Q
2023-03-14 21:39:46:889,0,-19.5697,-0.233738,43.2296,Q,Q
2023-03-14 21:39:46:899,0,-19.6382,-0.273424,43.2567,Q,Q
2023-03-14 21:39:46:909,0,-19.6964,-0.309787,43.2838,Q,Q
2023-03-14 21:39:46:919,0,-19.7412,-0.339337,43.3104,Q,Q
2023-03-14 21:39:46:929,0,-19.7692,-0.368978,43.3378,Q,Q
2023-03-14 21:39:46:939,0,-19.7834,-0.389102,43.3558,Q,Q
2023-03-14 21:39:46:949,0,-19.7917,-0.404217,43.3733,Q,Q
2023-03-14 21:39:46:959,0,-19.7948,-0.410297,43.3889,Q,Q
2023-03-14 21:39:46:969,0,-19.7992,-0.412208,43.4059,Q,Q
2023-03-14 21:39:46:979,0,-19.8064,-0.410594,43.4149,Q,Q
2023-03-14 21:39:46:989,0,-19.8161,-0.408471,43.4219,Q,Q
2023-03-14 21:39:46:999,0,-19.8297,-0.4009,43.4207,Q,Q
2023-03-14 21:39:47:9,0,-19.8391,-0.387209,43.4149,Q,Q
2023-03-14 21:39:47:19,0,-19.8433,-0.380975,43.4111,Q,Q
2023-03-14 21:39:47:29,0,-19.8362,-0.374983,43.4075,Q,Q
2023-03-14 21:39:47:39,0,-19.8277,-0.374295,43.4067,Q,Q
2023-03-14 21:39:47:49,0,-19.815,-0.372476,43.4057,Q,Q
2023-03-14 21:39:47:59,0,-19.8018,-0.367787,43.4015,Q,Q
2023-03-14 21:39:47:69,0,-19.7902,-0.359652,43.3972,Q,Q
2023-03-14 21:39:47:79,0,-19.7756,-0.356419,43.3907,Q,Q
2023-03-14 21:39:47:89,0,-19.7655,-0.352579,43.384,Q,Q
2023-03-14 21:39:47:99,0,-19.7483,-0.350823,43.38,Q,Q
2023-03-14 21:39:47:109,0,-19.7284,-0.347636,43.3754,Q,Q
2023-03-14 21:39:47:119,0,-19.7019,-0.352101,43.3712,Q,Q
2023-03-14 21:39:47:129,0,-19.6705,-0.355434,43.3689,Q,Q
2023-03-14 21:39:47:139,0,-19.6343,-0.356809,43.3638,Q,Q
2023-03-14 21:39:47:149,0,-19.5946,-0.36029,43.3584,Q,Q
2023-03-14 21:39:47:159,0,-19.5455,-0.37,43.3557,Q,Q
2023-03-14 21:39:47:169,0,-19.4926,-0.377407,43.3482,Q,Q
2023-03-14 21:39:47:179,0,-19.4283,-0.384956,43.3451,Q,Q
2023-03-14 21:39:47:189,0,-19.351,-0.394699,43.3372,Q,Q
2023-03-14 21:39:47:199,0,-19.2678,-0.404073,43.3273,Q,Q
2023-03-14 21:39:47:209,0,-19.1704,-0.414128,43.3178,Q,Q
2023-03-14 21:39:47:219,0,-19.0668,-0.419305,43.3133,Q,Q
2023-03-14 21:39:47:229,0,-18.9636,-0.425874,43.3069,Q,Q
2023-03-14 21:39:47:239,0,-18.8616,-0.42962,43.2951,Q,Q
2023-03-14 21:39:47:249,0,-18.7608,-0.435926,43.2813,Q,Q
2023-03-14 21:39:47:259,0,-18.6598,-0.45156,43.2655,Q,Q
2023-03-14 21:39:47:269,0,-18.5525,-0.468339,43.2432,Q,Q
2023-03-14 21:39:47:279,0,-18.4301,-0.489431,43.2131,Q,Q
2023-03-14 21:39:47:289,0,-18.2997,-0.50786,43.1804,Q,Q
2023-03-14 21:39:47:299,0,-18.1671,-0.523706,43.1492,Q,Q
2023-03-14 21:39:47:309,0,-18.0394,-0.538009,43.1172,Q,Q
2023-03-14 21:39:47:319,0,-17.9191,-0.555815,43.0886,Q,Q
2023-03-14 21:39:47:329,0,-17.8134,-0.564104,43.0594,Q,Q
2023-03-14 21:39:47:339,0,-17.7147,-0.575472,43.0281,Q,Q
2023-03-14 21:39:47:349,0,-17.6161,-0.582282,42.9924,Q,Q
2023-03-14 21:39:47:359,0,-17.5185,-0.582139,42.9553,Q,Q
2023-03-14 21:39:47:369,0,-17.4252,-0.57583,42.919,Q,Q
2023-03-14 21:39:47:379,0,-17.3351,-0.565785,42.8845,Q,Q
2023-03-14 21:39:47:389,0,-17.2531,-0.553618,42.8488,Q,Q
2023-03-14 21:39:47:399,0,-17.1705,-0.538754,42.8163,Q,Q
2023-03-14 21:39:47:409,0,-17.0912,-0.528713,42.7814,Q,Q
2023-03-14 21:39:47:419,0,-17.0105,-0.515235,42.7432,Q,Q
2023-03-14 21:39:47:429,0,-16.9279,-0.494561,42.6995,Q,Q
2023-03-14 21:39:47:439,0,-16.8462,-0.473851,42.6506,Q,Q
2023-03-14 21:39:47:449,0,-16.7659,-0.444805,42.5968,Q,Q
2023-03-14 21:39:47:459,0,-16.684,-0.414622,42.537,Q,Q
2023-03-14 21:39:47:469,0,-16.6053,-0.385824,42.4708,Q,Q
2023-03-14 21:39:47:479,0,-16.524,-0.354911,42.3984,Q,Q
2023-03-14 21:39:47:489,0,-16.433,-0.32934,42.3226,Q,Q
2023-03-14 21:39:47:499,0,-16.335,-0.304314,42.2398,Q,Q
2023-03-14 21:39:47:509,0,-16.236,-0.279881,42.1548,Q,Q
2023-03-14 21:39:47:519,0,-16.1452,-0.257832,42.0667,Q,Q
2023-03-14 21:39:47:529,0,-16.0608,-0.235397,41.9755,Q,Q
2023-03-14 21:39:47:539,0,-15.983,-0.213058,41.8841,Q,Q
2023-03-14 21:39:47:549,0,-15.9169,-0.193835,41.7899,Q,Q
2023-03-14 21:39:47:559,0,-15.8605,-0.171992,41.7033,Q,Q
2023-03-14 21:39:47:568,0,-15.8091,-0.151483,41.6157,Q,Q
2023-03-14 21:39:47:579,0,-15.7602,-0.127561,41.5256,Q,Q
2023-03-14 21:39:47:589,0,-15.7151,-0.100523,41.4384,Q,Q
2023-03-14 21:39:47:599,0,-15.6713,-0.0716438,41.3537,Q,Q
2023-03-14 21:39:47:609,0,-15.6347,-0.0439347,41.2711,Q,Q
2023-03-14 21:39:47:619,0,-15.5993,-0.0195794,41.1941,Q,Q
2023-03-14 21:39:47:629,0,-15.5663,-0.00111628,41.124,Q,Q
2023-03-14 21:39:47:639,0,-15.5388,0.0149517,41.0602,Q,Q
2023-03-14 21:39:47:649,0,-15.5185,0.0340555,41.0008,Q,Q
2023-03-14 21:39:47:659,0,-15.5038,0.0540011,40.9395,Q,Q
2023-03-14 21:39:47:669,0,-15.4864,0.0733958,40.8772,Q,Q
2023-03-14 21:39:47:679,0,-15.4644,0.0927398,40.8173,Q,Q
2023-03-14 21:39:47:689,0,-15.4371,0.113512,40.7603,Q,Q
2023-03-14 21:39:47:699,0,-15.4051,0.127621,40.7074,Q,Q
2023-03-14 21:39:47:709,0,-15.3744,0.140763,40.6542,Q,Q
2023-03-14 21:39:47:719,0,-15.3445,0.156858,40.604,Q,Q
2023-03-14 21:39:47:729,0,-15.3144,0.173639,40.5564,Q,Q
2023-03-14 21:39:47:739,0,-15.2879,0.191203,40.5068,Q,Q
2023-03-14 21:39:47:749,0,-15.2633,0.213275,40.4563,Q,Q
2023-03-14 21:39:47:759,0,-15.2452,0.234114,40.401,Q,Q
2023-03-14 21:39:47:769,0,-15.2281,0.2548,40.3404,Q,Q
2023-03-14 21:39:47:779,0,-15.2081,0.26953,40.2773,Q,Q
2023-03-14 21:39:47:789,0,-15.1806,0.281533,40.2123,Q,Q
2023-03-14 21:39:47:799,0,-15.1559,0.294845,40.1471,Q,Q
2023-03-14 21:39:47:809,0,-15.1317,0.3066,40.0819,Q,Q
2023-03-14 21:39:47:819,0,-15.1046,0.320327,40.0169,Q,Q
2023-03-14 21:39:47:829,0,-15.079,0.333608,39.9541,Q,Q
2023-03-14 21:39:47:839,0,-15.0536,0.350379,39.8899,Q,Q
2023-03-14 21:39:47:849,0,-15.0311,0.36907,39.8232,Q,Q
2023-03-14 21:39:47:859,0,-15.0125,0.389719,39.751,Q,Q
2023-03-14 21:39:47:869,0,-14.9959,0.407697,39.68,Q,Q
2023-03-14 21:39:47:879,0,-14.9741,0.422139,39.6094,Q,Q
2023-03-14 21:39:47:889,0,-14.9487,0.432623,39.5461,Q,Q
2023-03-14 21:39:47:899,0,-14.9243,0.440228,39.4883,Q,Q
2023-03-14 21:39:47:909,0,-14.9007,0.445274,39.4392,Q,Q
2023-03-14 21:39:47:919,0,-14.8814,0.449932,39.3906,Q,Q
2023-03-14 21:39:47:929,0,-14.8606,0.455808,39.3479,Q,Q
2023-03-14 21:39:47:939,0,-14.843,0.462809,39.3072,Q,Q
2023-03-14 21:39:47:949,0,-14.8294,0.469284,39.2654,Q,Q
2023-03-14 21:39:47:959,0,-14.8212,0.474297,39.2282,Q,Q
2023-03-14 21:39:47:969,0,-14.8057,0.482269,39.1948,Q,Q
2023-03-14 21:39:47:979,0,-14.7854,0.485575,39.1636,Q,Q
2023-03-14 21:39:47:989,0,-14.7592,0.486011,39.139,Q,Q
2023-03-14 21:39:47:999,0,-14.736,0.484896,39.1174,Q,Q
2023-03-14 21:39:48:9,0,-14.719,0.483031,39.0974,Q,Q
2023-03-14 21:39:48:19,0,-14.6999,0.480634,39.0754,Q,Q
2023-03-14 21:39:48:29,0,-14.6809,0.480613,39.0489,Q,Q
2023-03-14 21:39:48:39,0,-14.6595,0.482504,39.0238,Q,Q
2023-03-14 21:39:48:49,0,-14.6358,0.483673,39.0003,Q,Q
2023-03-14 21:39:48:59,0,-14.6134,0.479661,38.9797,Q,Q
2023-03-14 21:39:48:69,0,-14.5929,0.468071,38.9607,Q,Q
2023-03-14 21:39:48:79,0,-14.5749,0.449864,38.9415,Q,Q
2023-03-14 21:39:48:89,0,-14.5651,0.428174,38.9254,Q,Q
2023-03-14 21:39:48:99,0,-14.5499,0.404777,38.9092,Q,Q
2023-03-14 21:39:48:109,0,-14.5295,0.382898,38.8854,Q,Q
2023-03-14 21:39:48:119,0,-14.5095,0.368592,38.8571,Q,Q
2023-03-14 21:39:48:129,0,-14.4911,0.360281,38.8241,Q,Q
2023-03-14 21:39:48:139,0,-14.4715,0.359335,38.7865,Q,Q
2023-03-14 21:39:48:149,0,-14.4502,0.356993,38.7425,Q,Q
2023-03-14 21:39:48:159,0,-14.4253,0.354995,38.6934,Q,Q
2023-03-14 21:39:48:169,0,-14.3993,0.356959,38.6421,Q,Q
2023-03-14 21:39:48:179,0,-14.3756,0.356838,38.5894,Q,Q
2023-03-14 21:39:48:189,0,-14.3569,0.356524,38.5288,Q,Q
2023-03-14 21:39:48:199,0,-14.34,0.356781,38.4656,Q,Q
2023-03-14 21:39:48:209,0,-14.3196,0.358127,38.4006,Q,Q
2023-03-14 21:39:48:219,0,-14.297,0.363131,38.3324,Q,Q
2023-03-14 21:39:48:229,0,-14.2702,0.363981,38.263,Q,Q
2023-03-14 21:39:48:239,0,-14.2382,0.366764,38.1921,Q,Q
2023-03-14 21:39:48:249,0,-14.2089,0.370308,38.122,Q,Q
2023-03-14 21:39:48:259,0,-14.1794,0.372142,38.0494,Q,Q
2023-03-14 21:39:48:269,0,-14.1515,0.372049,37.9746,Q,Q
2023-03-14 21:39:48:279,0,-14.1219,0.377519,37.8953,Q,Q
2023-03-14 21:39:48:289,0,-14.0856,0.382924,37.8119,Q,Q
2023-03-14 21:39:48:299,0,-14.0524,0.39212,37.7319,Q,Q
2023-03-14 21:39:48:309,0,-14.0149,0.398755,37.653,Q,Q
2023-03-14 21:39:48:319,0,-13.9749,0.410389,37.5824,Q,Q
2023-03-14 21:39:48:329,0,-13.9359,0.417901,37.5138,Q,Q
2023-03-14 21:39:48:339,0,-13.8963,0.422355,37.4446,Q,Q
2023-03-14 21:39:48:349,0,-13.8592,0.428079,37.3782,Q,Q
2023-03-14 21:39:48:359,0,-13.8206,0.43391,37.3095,Q,Q
2023-03-14 21:39:48:369,0,-13.7699,0.439545,37.2374,Q,Q
2023-03-14 21:39:48:379,0,-13.7164,0.447358,37.1682,Q,Q
2023-03-14 21:39:48:389,0,-13.6632,0.458986,37.0919,Q,Q
2023-03-14 21:39:48:399,0,-13.6077,0.472962,37.0086,Q,Q
2023-03-14 21:39:48:409,0,-13.5575,0.485516,36.918,Q,Q
2023-03-14 21:39:48:419,0,-13.513,0.488187,36.8234,Q,Q
2023-03-14 21:39:48:429,0,-13.4797,0.487548,36.7181,Q,Q
2023-03-14 21:39:48:439,0,-13.4524,0.477654,36.6071,Q,Q
2023-03-14 21:39:48:449,0,-13.4293,0.460669,36.4873,Q,Q
2023-03-14 21:39:48:459,0,-13.4086,0.436627,36.3583,Q,Q
2023-03-14 21:39:48:469,0,-13.3859,0.408331,36.2154,Q,Q
2023-03-14 21:39:48:479,0,-13.3589,0.377699,36.0576,Q,Q
2023-03-14 21:39:48:489,0,-13.3249,0.350129,35.8795,Q,Q
2023-03-14 21:39:48:499,0,-13.292,0.321797,35.6915,Q,Q
2023-03-14 21:39:48:509,0,-13.2671,0.286402,35.494,Q,Q
2023-03-14 21:39:48:519,0,-13.2478,0.241153,35.2815,Q,Q
2023-03-14 21:39:48:529,0,-13.2281,0.190278,35.0615,Q,Q
2023-03-14 21:39:48:539,0,-13.2051,0.135451,34.8305,Q,Q
2023-03-14 21:39:48:549,0,-13.1753,0.0799831,34.5971,Q,Q
2023-03-14 21:39:48:559,0,-13.1475,0.027051,34.3594,Q,Q
2023-03-14 21:39:48:569,0,-13.1202,-0.0270626,34.1282,Q,Q
2023-03-14 21:39:48:579,0,-13.1033,-0.0812811,33.8993,Q,Q
2023-03-14 21:39:48:589,0,-13.0975,-0.134645,33.6742,Q,Q
2023-03-14 21:39:48:599,0,-13.0991,-0.186116,33.4535,Q,Q
2023-03-14 21:39:48:609,0,-13.1033,-0.230109,33.2459,Q,Q
2023-03-14 21:39:48:619,0,-13.1155,-0.267699,33.052,Q,Q
2023-03-14 21:39:48:629,0,-13.1327,-0.297787,32.8662,Q,Q
2023-03-14 21:39:48:639,0,-13.1504,-0.320799,32.6865,Q,Q
2023-03-14 21:39:48:649,0,-13.1662,-0.329467,32.5109,Q,Q
2023-03-14 21:39:48:659,0,-13.1771,-0.33199,32.3392,Q,Q
2023-03-14 21:39:48:669,0,-13.1766,-0.330064,32.1772,Q,Q
2023-03-14 21:39:48:679,0,-13.1743,-0.323358,32.0228,Q,Q
2023-03-14 21:39:48:689,0,-13.1709,-0.30964,31.8831,Q,Q
2023-03-14 21:39:48:699,0,-13.1678,-0.293601,31.7504,Q,Q
2023-03-14 21:39:48:709,0,-13.1679,-0.276623,31.6188,Q,Q
2023-03-14 21:39:48:719,0,-13.1716,-0.255475,31.486,Q,Q
2023-03-14 21:39:48:729,0,-13.1738,-0.225207,31.3586,Q,Q
2023-03-14 21:39:48:739,0,-13.1735,-0.190515,31.232,Q,Q
2023-03-14 21:39:48:749,0,-13.1687,-0.155097,31.1114,Q,Q
2023-03-14 21:39:48:759,0,-13.1584,-0.119116,30.9982,Q,Q
2023-03-14 21:39:48:769,0,-13.1462,-0.0835664,30.8854,Q,Q
2023-03-14 21:39:48:779,0,-13.1313,-0.0432487,30.78,Q,Q
2023-03-14 21:39:48:789,0,-13.1163,-0.00863947,30.6774,Q,Q
2023-03-14 21:39:48:799,0,-13.1066,0.0189907,30.5852,Q,Q
2023-03-14 21:39:48:809,0,-13.0966,0.0396849,30.4941,Q,Q
2023-03-14 21:39:48:819,0,-13.0951,0.0523862,30.4048,Q,Q
2023-03-14 21:39:48:829,0,-13.0961,0.059509,30.3186,Q,Q
2023-03-14 21:39:48:839,0,-13.0979,0.0673952,30.2317,Q,Q
2023-03-14 21:39:48:849,0,-13.0985,0.0683932,30.1374,Q,Q
2023-03-14 21:39:48:859,0,-13.0994,0.0684897,30.0343,Q,Q
2023-03-14 21:39:48:869,0,-13.1008,0.0601908,29.9324,Q,Q
2023-03-14 21:39:48:879,0,-13.1,0.0474952,29.8255,Q,Q
2023-03-14 21:39:48:889,0,-13.096,0.0275628,29.7173,Q,Q
2023-03-14 21:39:48:899,0,-13.0927,0.00547293,29.607,Q,Q
2023-03-14 21:39:48:909,0,-13.0825,-0.0191655,29.4978,Q,Q
2023-03-14 21:39:48:919,0,-13.0588,-0.04424,29.3833,Q,Q
2023-03-14 21:39:48:929,0,-13.0234,-0.0660158,29.2675,Q,Q
2023-03-14 21:39:48:939,0,-12.9783,-0.0823004,29.1491,Q,Q
2023-03-14 21:39:48:949,0,-12.921,-0.084969,29.0309,Q,Q
2023-03-14 21:39:48:959,0,-12.8653,-0.0771088,28.9168,Q,Q
2023-03-14 21:39:48:969,0,-12.8133,-0.0597584,28.7989,Q,Q
2023-03-14 21:39:48:979,0,-12.7658,-0.0336756,28.6786,Q,Q
2023-03-14 21:39:48:989,0,-12.7273,0.00596371,28.5524,Q,Q
2023-03-14 21:39:48:999,0,-12.6921,0.0506805,28.4195,Q,Q
2023-03-14 21:39:49:9,0,-12.6637,0.0950223,28.2836,Q,Q
2023-03-14 21:39:49:19,0,-12.6333,0.141721,28.1444,Q,Q
2023-03-14 21:39:49:29,0,-12.6049,0.186733,28.0049,Q,Q
2023-03-14 21:39:49:39,0,-12.5838,0.229289,27.8633,Q,Q
2023-03-14 21:39:49:49,0,-12.566,0.26955,27.724,Q,Q
2023-03-14 21:39:49:59,0,-12.5506,0.307534,27.5814,Q,Q
2023-03-14 21:39:49:69,0,-12.5377,0.345928,27.4403,Q,Q
2023-03-14 21:39:49:79,0,-12.5285,0.39245,27.3047,Q,Q
2023-03-14 21:39:49:89,0,-12.535,0.440052,27.1744,Q,Q
2023-03-14 21:39:49:99,0,-12.5507,0.488252,27.042,Q,Q
2023-03-14 21:39:49:109,0,-12.5843,0.530294,26.9124,Q,Q
2023-03-14 21:39:49:119,0,-12.6381,0.565313,26.7809,Q,Q
2023-03-14 21:39:49:129,0,-12.7037,0.600644,26.6456,Q,Q
2023-03-14 21:39:49:139,0,-12.7661,0.632268,26.5053,Q,Q
2023-03-14 21:39:49:149,0,-12.8181,0.666037,26.3543,Q,Q
2023-03-14 21:39:49:159,0,-12.8536,0.702492,26.2018,Q,Q
2023-03-14 21:39:49:169,0,-12.869,0.744044,26.0487,Q,Q
2023-03-14 21:39:49:179,0,-12.8706,0.788053,25.895,Q,Q
2023-03-14 21:39:49:189,0,-12.8714,0.83755,25.7447,Q,Q
2023-03-14 21:39:49:199,0,-12.8681,0.881761,25.5963,Q,Q
2023-03-14 21:39:49:209,0,-12.8644,0.924476,25.4532,Q,Q
2023-03-14 21:39:49:219,0,-12.856,0.965295,25.3118,Q,Q
2023-03-14 21:39:49:229,0,-12.8481,1.00417,25.1722,Q,Q
2023-03-14 21:39:49:239,0,-12.8438,1.04058,25.0299,Q,Q
2023-03-14 21:39:49:249,0,-12.8458,1.07765,24.8862,Q,Q
2023-03-14 21:39:49:259,0,-12.855,1.11139,24.7469,Q,Q
2023-03-14 21:39:49:269,0,-12.8669,1.13584,24.6117,Q,Q
2023-03-14 21:39:49:279,0,-12.8831,1.15884,24.4821,Q,Q
2023-03-14 21:39:49:289,0,-12.8973,1.17042,24.3562,Q,Q
2023-03-14 21:39:49:299,0,-12.8993,1.17842,24.2307,Q,Q
2023-03-14 21:39:49:309,0,-12.8865,1.18289,24.1061,Q,Q
2023-03-14 21:39:49:319,0,-12.8571,1.18883,23.9848,Q,Q
2023-03-14 21:39:49:329,0,-12.8251,1.19559,23.8638,Q,Q
2023-03-14 21:39:49:339,0,-12.7962,1.1995,23.7451,Q,Q
2023-03-14 21:39:49:349,0,-12.7731,1.19006,23.629,Q,Q
2023-03-14 21:39:49:359,0,-12.7596,1.17107,23.5213,Q,Q
2023-03-14 21:39:49:369,0,-12.7454,1.14962,23.412,Q,Q
2023-03-14 21:39:49:379,0,-12.7321,1.1206,23.3054,Q,Q
2023-03-14 21:39:49:389,0,-12.7096,1.08367,23.1999,Q,Q
2023-03-14 21:39:49:399,0,-12.6823,1.04343,23.0917,Q,Q
2023-03-14 21:39:49:409,0,-12.6469,0.998661,22.9792,Q,Q
2023-03-14 21:39:49:419,0,-12.6064,0.952101,22.8544,Q,Q
2023-03-14 21:39:49:429,0,-12.567,0.905699,22.7222,Q,Q
2023-03-14 21:39:49:439,0,-12.5398,0.856758,22.5851,Q,Q
2023-03-14 21:39:49:449,0,-12.518,0.802773,22.4434,Q,Q
2023-03-14 21:39:49:459,0,-12.5002,0.745967,22.3,Q,Q
2023-03-14 21:39:49:469,0,-12.4817,0.69036,22.159,Q,Q
2023-03-14 21:39:49:479,0,-12.4616,0.638199,22.0217,Q,Q
2023-03-14 21:39:49:489,0,-12.446,0.588387,21.8869,Q,Q
2023-03-14 21:39:49:499,0,-12.4371,0.539103,21.7551,Q,Q
2023-03-14 21:39:49:509,0,-12.4343,0.490017,21.6297,Q,Q
2023-03-14 21:39:49:519,0,-12.4364,0.444767,21.5089,Q,Q
2023-03-14 21:39:49:529,0,-12.4315,0.398127,21.3945,Q,Q
2023-03-14 21:39:49:539,0,-12.4164,0.354235,21.286,Q,Q
2023-03-14 21:39:49:549,0,-12.3948,0.316864,21.1824,Q,Q
2023-03-14 21:39:49:559,0,-12.3596,0.282465,21.0841,Q,Q
2023-03-14 21:39:49:569,0,-12.3128,0.249272,20.9922,Q,Q
2023-03-14 21:39:49:579,0,-12.2632,0.221862,20.9108,Q,Q
2023-03-14 21:39:49:589,0,-12.2138,0.198459,20.8436,Q,Q
2023-03-14 21:39:49:599,0,-12.1615,0.17847,20.7842,Q,Q
2023-03-14 21:39:49:609,0,-12.1038,0.159982,20.7279,Q,Q
2023-03-14 21:39:49:619,0,-12.0476,0.139997,20.6783,Q,Q
2023-03-14 21:39:49:629,0,-11.9946,0.122497,20.639,Q,Q
2023-03-14 21:39:49:639,0,-11.943,0.102323,20.6064,Q,Q
2023-03-14 21:39:49:649,0,-11.8967,0.0783345,20.5819,Q,Q
2023-03-14 21:39:49:659,0,-11.8516,0.0465411,20.5602,Q,Q
2023-03-14 21:39:49:669,0,-11.8114,0.0146648,20.5415,Q,Q
2023-03-14 21:39:49:679,0,-11.7633,-0.00881687,20.5314,Q,Q
2023-03-14 21:39:49:689,0,-11.7168,-0.0401994,20.516,Q,Q
2023-03-14 21:39:49:699,0,-11.6812,-0.0766353,20.5097,Q,Q
2023-03-14 21:39:49:709,0,-11.6604,-0.121744,20.5053,Q,Q
2023-03-14 21:39:49:719,0,-11.6476,-0.167141,20.4933,Q,Q
2023-03-14 21:39:49:729,0,-11.6368,-0.208529,20.4678,Q,Q
2023-03-14 21:39:49:739,0,-11.6296,-0.246586,20.4276,Q,Q
2023-03-14 21:39:49:749,0,-11.6214,-0.285295,20.3767,Q,Q
2023-03-14 21:39:49:759,0,-11.614,-0.313856,20.3173,Q,Q
2023-03-14 21:39:49:769,0,-11.604,-0.346317,20.2541,Q,Q
2023-03-14 21:39:49:779,0,-11.6034,-0.387379,20.1889,Q,Q
2023-03-14 21:39:49:789,0,-11.6099,-0.437793,20.1302,Q,Q
2023-03-14 21:39:49:799,0,-11.6311,-0.500831,20.0772,Q,Q
2023-03-14 21:39:49:809,0,-11.6593,-0.56284,20.0263,Q,Q
2023-03-14 21:39:49:819,0,-11.6861,-0.623309,19.9859,Q,Q
2023-03-14 21:39:49:829,0,-11.7082,-0.681033,19.9539,Q,Q
2023-03-14 21:39:49:839,0,-11.7335,-0.735204,19.932,Q,Q
2023-03-14 21:39:49:849,0,-11.7484,-0.786405,19.9245,Q,Q
2023-03-14 21:39:49:859,0,-11.7661,-0.833824,19.931,Q,Q
2023-03-14 21:39:49:869,0,-11.7759,-0.873957,19.9468,Q,Q
2023-03-14 21:39:49:879,0,-11.7833,-0.913676,19.9711,Q,Q
2023-03-14 21:39:49:889,0,-11.7932,-0.943822,20.0001,Q,Q
2023-03-14 21:39:49:899,0,-11.8021,-0.967942,20.0315,Q,Q
2023-03-14 21:39:49:909,0,-11.815,-0.983089,20.066,Q,Q
2023-03-14 21:39:49:919,0,-11.8374,-1.0002,20.1072,Q,Q
2023-03-14 21:39:49:929,0,-11.867,-1.01989,20.1473,Q,Q
2023-03-14 21:39:49:939,0,-11.8961,-1.0358,20.1897,Q,Q
2023-03-14 21:39:49:949,0,-11.9337,-1.04848,20.2317,Q,Q
2023-03-14 21:39:49:959,0,-11.977,-1.06152,20.2702,Q,Q
2023-03-14 21:39:49:969,0,-12.0155,-1.07048,20.306,Q,Q
2023-03-14 21:39:49:979,0,-12.049,-1.07259,20.3342,Q,Q
2023-03-14 21:39:49:989,0,-12.0825,-1.07475,20.3612,Q,Q
2023-03-14 21:39:49:999,0,-12.1106,-1.06707,20.3842,Q,Q
2023-03-14 21:39:50:9,0,-12.1448,-1.06079,20.4062,Q,Q
2023-03-14 21:39:50:19,0,-12.1767,-1.04884,20.4237,Q,Q
2023-03-14 21:39:50:29,0,-12.2038,-1.0388,20.441,Q,Q
2023-03-14 21:39:50:39,0,-12.2355,-1.02748,20.4573,Q,Q
2023-03-14 21:39:50:49,0,-12.2577,-1.01727,20.4753,Q,Q
2023-03-14 21:39:50:59,0,-12.2737,-1.00816,20.498,Q,Q
2023-03-14 21:39:50:69,0,-12.2817,-0.994507,20.5209,Q,Q
2023-03-14 21:39:50:79,0,-12.2852,-0.979794,20.5433,Q,Q
2023-03-14 21:39:50:89,0,-12.2861,-0.961431,20.5614,Q,Q
2023-03-14 21:39:50:99,0,-12.2856,-0.940824,20.5799,Q,Q
2023-03-14 21:39:50:109,0,-12.2778,-0.92217,20.5878,Q,Q
2023-03-14 21:39:50:119,0,-12.2654,-0.905713,20.5821,Q,Q
2023-03-14 21:39:50:129,0,-12.2479,-0.895655,20.567,Q,Q
2023-03-14 21:39:50:139,0,-12.2275,-0.882528,20.5394,Q,Q
2023-03-14 21:39:50:149,0,-12.2026,-0.871708,20.4937,Q,Q
2023-03-14 21:39:50:159,0,-12.1783,-0.866114,20.4371,Q,Q
2023-03-14 21:39:50:169,0,-12.1552,-0.867996,20.3716,Q,Q
2023-03-14 21:39:50:179,0,-12.1366,-0.876555,20.2928,Q,Q
2023-03-14 21:39:50:189,0,-12.1137,-0.888364,20.1996,Q,Q
2023-03-14 21:39:50:199,0,-12.0872,-0.903317,20.0904,Q,Q
2023-03-14 21:39:50:209,0,-12.0618,-0.917592,19.9702,Q,Q
2023-03-14 21:39:50:219,0,-12.031,-0.934741,19.837,Q,Q
2023-03-14 21:39:50:229,0,-11.9971,-0.960359,19.6994,Q,Q
2023-03-14 21:39:50:239,0,-11.9607,-0.997138,19.5571,Q,Q
2023-03-14 21:39:50:249,0,-11.9208,-1.04853,19.4103,Q,Q
2023-03-14 21:39:50:259,0,-11.8677,-1.1024,19.267,Q,Q
2023-03-14 21:39:50:269,0,-11.8124,-1.16681,19.1251,Q,Q
2023-03-14 21:39:50:279,0,-11.7589,-1.23439,18.9891,Q,Q
2023-03-14 21:39:50:289,0,-11.7126,-1.30644,18.8568,Q,Q
2023-03-14 21:39:50:299,0,-11.6679,-1.37606,18.7337,Q,Q
2023-03-14 21:39:50:309,0,-11.626,-1.44479,18.6196,Q,Q
2023-03-14 21:39:50:319,0,-11.5861,-1.51002,18.5141,Q,Q
2023-03-14 21:39:50:329,0,-11.5533,-1.5722,18.4208,Q,Q
2023-03-14 21:39:50:339,0,-11.5277,-1.62992,18.3314,Q,Q
2023-03-14 21:39:50:349,0,-11.5067,-1.68351,18.2539,Q,Q
2023-03-14 21:39:50:359,0,-11.4831,-1.73445,18.1767,Q,Q
2023-03-14 21:39:50:369,0,-11.463,-1.77665,18.1082,Q,Q
2023-03-14 21:39:50:379,0,-11.4498,-1.81646,18.0514,Q,Q
2023-03-14 21:39:50:389,0,-11.4384,-1.85271,18.0042,Q,Q
2023-03-14 21:39:50:399,0,-11.4347,-1.88429,17.969,Q,Q
2023-03-14 21:39:50:409,0,-11.4351,-1.91553,17.9403,Q,Q
2023-03-14 21:39:50:419,0,-11.4348,-1.95172,17.9132,Q,Q
2023-03-14 21:39:50:429,0,-11.4246,-1.98752,17.8836,Q,Q
2023-03-14 21:39:50:439,0,-11.4068,-2.02435,17.8505,Q,Q
2023-03-14 21:39:50:449,0,-11.3915,-2.06053,17.8202,Q,Q
2023-03-14 21:39:50:459,0,-11.3769,-2.09466,17.7864,Q,Q
2023-03-14 21:39:50:469,0,-11.3635,-2.12859,17.7519,Q,Q
2023-03-14 21:39:50:479,0,-11.3462,-2.15787,17.7127,Q,Q
2023-03-14 21:39:50:489,0,-11.3313,-2.1856,17.6779,Q,Q
2023-03-14 21:39:50:499,0,-11.3198,-2.21363,17.6439,Q,Q
2023-03-14 21:39:50:509,0,-11.3079,-2.24265,17.6067,Q,Q
2023-03-14 21:39:50:519,0,-11.2938,-2.2788,17.5741,Q,Q
2023-03-14 21:39:50:529,0,-11.2773,-2.31297,17.539,Q,Q
2023-03-14 21:39:50:539,0,-11.2554,-2.34494,17.4953,Q,Q
2023-03-14 21:39:50:549,0,-11.2337,-2.37239,17.443,Q,Q
2023-03-14 21:39:50:559,0,-11.2105,-2.40081,17.3871,Q,Q
2023-03-14 21:39:50:569,0,-11.1973,-2.42615,17.3231,Q,Q
2023-03-14 21:39:50:579,0,-11.1923,-2.45674,17.258,Q,Q
2023-03-14 21:39:50:589,0,-11.1978,-2.48895,17.1879,Q,Q
2023-03-14 21:39:50:599,0,-11.209,-2.52004,17.1167,Q,Q
2023-03-14 21:39:50:609,0,-11.2232,-2.5537,17.0487,Q,Q
2023-03-14 21:39:50:619,0,-11.2352,-2.58482,16.9817,Q,Q
2023-03-14 21:39:50:629,0,-11.2401,-2.61161,16.9099,Q,Q
2023-03-14 21:39:50:639,0,-11.2356,-2.63279,16.8393,Q,Q
2023-03-14 21:39:50:649,0,-11.2225,-2.65507,16.7715,Q,Q
2023-03-14 21:39:50:659,0,-11.2111,-2.68643,16.7058,Q,Q
2023-03-14 21:39:50:669,0,-11.1991,-2.71741,16.6428,Q,Q
2023-03-14 21:39:50:679,0,-11.1845,-2.74906,16.583,Q,Q
2023-03-14 21:39:50:689,0,-11.1674,-2.78085,16.5283,Q,Q
2023-03-14 21:39:50:699,0,-11.1435,-2.80489,16.4715,Q,Q
2023-03-14 21:39:50:709,0,-11.1117,-2.82704,16.4175,Q,Q
2023-03-14 21:39:50:719,0,-11.0771,-2.8377,16.364,Q,Q
2023-03-14 21:39:50:729,0,-11.045,-2.8615,16.3175,Q,Q
2023-03-14 21:39:50:739,0,-11.0164,-2.88468,16.2726,Q,Q
2023-03-14 21:39:50:749,0,-10.9777,-2.90605,16.2258,Q,Q
2023-03-14 21:39:50:759,0,-10.9328,-2.93742,16.1766,Q,Q
2023-03-14 21:39:50:769,0,-10.8871,-2.9753,16.1279,Q,Q
2023-03-14 21:39:50:779,0,-10.8457,-3.01366,16.0875,Q,Q
2023-03-14 21:39:50:789,0,-10.8021,-3.05091,16.0412,Q,Q
2023-03-14 21:39:50:799,0,-10.758,-3.09042,15.9956,Q,Q
2023-03-14 21:39:50:809,0,-10.7094,-3.12786,15.9513,Q,Q
2023-03-14 21:39:50:819,0,-10.6566,-3.15745,15.9058,Q,Q
2023-03-14 21:39:50:829,0,-10.6084,-3.18566,15.8614,Q,Q
2023-03-14 21:39:50:839,0,-10.5637,-3.22192,15.8169,Q,Q
2023-03-14 21:39:50:849,0,-10.5157,-3.25598,15.7725,Q,Q
2023-03-14 21:39:50:859,0,-10.4699,-3.29461,15.7308,Q,Q
2023-03-14 21:39:50:869,0,-10.4209,-3.33234,15.6911,Q,Q
2023-03-14 21:39:50:879,0,-10.3766,-3.36995,15.6507,Q,Q
2023-03-14 21:39:50:889,0,-10.3317,-3.4057,15.6101,Q,Q
2023-03-14 21:39:50:899,0,-10.2994,-3.44052,15.569,Q,Q
2023-03-14 21:39:50:909,0,-10.2688,-3.47451,15.5257,Q,Q
2023-03-14 21:39:50:919,0,-10.2406,-3.50494,15.4822,Q,Q
2023-03-14 21:39:50:929,0,-10.2157,-3.53161,15.435,Q,Q
2023-03-14 21:39:50:939,0,-10.1916,-3.55998,15.3819,Q,Q
2023-03-14 21:39:50:949,0,-10.1686,-3.57954,15.3264,Q,Q
2023-03-14 21:39:50:959,0,-10.1436,-3.59544,15.2742,Q,Q
2023-03-14 21:39:50:969,0,-10.1204,-3.60898,15.2216,Q,Q
2023-03-14 21:39:50:979,0,-10.0978,-3.61582,15.1712,Q,Q
2023-03-14 21:39:50:989,0,-10.0876,-3.6193,15.1212,Q,Q
2023-03-14 21:39:50:999,0,-10.0771,-3.61954,15.0709,Q,Q
2023-03-14 21:39:51:9,0,-10.0707,-3.61931,15.0184,Q,Q
2023-03-14 21:39:51:19,0,-10.068,-3.61721,14.9671,Q,Q
2023-03-14 21:39:51:29,0,-10.0692,-3.61173,14.9244,Q,Q
2023-03-14 21:39:51:39,0,-10.0764,-3.60611,14.8821,Q,Q
2023-03-14 21:39:51:49,0,-10.0851,-3.59849,14.836,Q,Q
2023-03-14 21:39:51:59,0,-10.0934,-3.60219,14.7896,Q,Q
2023-03-14 21:39:51:69,0,-10.1028,-3.60947,14.7413,Q,Q
2023-03-14 21:39:51:79,0,-10.1165,-3.61188,14.6951,Q,Q
2023-03-14 21:39:51:89,0,-10.1311,-3.61452,14.6465,Q,Q
2023-03-14 21:39:51:99,0,-10.1486,-3.61569,14.6003,Q,Q
2023-03-14 21:39:51:109,0,-10.1668,-3.62015,14.5585,Q,Q
2023-03-14 21:39:51:119,0,-10.1823,-3.62383,14.5156,Q,Q
2023-03-14 21:39:51:129,0,-10.191,-3.63136,14.4799,Q,Q
2023-03-14 21:39:51:139,0,-10.2012,-3.63424,14.4501,Q,Q
2023-03-14 21:39:51:149,0,-10.2106,-3.6378,14.4292,Q,Q
2023-03-14 21:39:51:159,0,-10.2201,-3.63788,14.4127,Q,Q
2023-03-14 21:39:51:168,0,-10.234,-3.64022,14.401,Q,Q
2023-03-14 21:39:51:179,0,-10.2561,-3.64705,14.3978,Q,Q
2023-03-14 21:39:51:189,0,-10.2838,-3.65425,14.401,Q,Q
2023-03-14 21:39:51:199,0,-10.3099,-3.66543,14.4086,Q,Q
2023-03-14 21:39:51:209,0,-10.3306,-3.67262,14.4179,Q,Q
2023-03-14 21:39:51:219,0,-10.3478,-3.67971,14.4286,Q,Q
2023-03-14 21:39:51:229,0,-10.3567,-3.68153,14.4408,Q,Q
2023-03-14 21:39:51:239,0,-10.3668,-3.67729,14.4557,Q,Q
2023-03-14 21:39:51:249,0,-10.3717,-3.67204,14.466,Q,Q
2023-03-14 21:39:51:259,0,-10.3765,-3.661,14.4809,Q,Q
2023-03-14 21:39:51:269,0,-10.3777,-3.64447,14.4979,Q,Q
2023-03-14 21:39:51:279,0,-10.38,-3.63135,14.5209,Q,Q
2023-03-14 21:39:51:289,0,-10.3886,-3.61638,14.5419,Q,Q
2023-03-14 21:39:51:299,0,-10.4019,-3.59475,14.5588,Q,Q
2023-03-14 21:39:51:309,0,-10.4149,-3.57083,14.5714,Q,Q
2023-03-14 21:39:51:319,0,-10.4195,-3.54323,14.5817,Q,Q
2023-03-14 21:39:51:329,0,-10.4241,-3.5238,14.5883,Q,Q
2023-03-14 21:39:51:339,0,-10.4337,-3.51091,14.5993,Q,Q
2023-03-14 21:39:51:349,0,-10.4499,-3.50176,14.6134,Q,Q
2023-03-14 21:39:51:359,0,-10.4739,-3.50073,14.6264,Q,Q
2023-03-14 21:39:51:369,0,-10.5068,-3.50766,14.6459,Q,Q
2023-03-14 21:39:51:379,0,-10.5395,-3.51399,14.6677,Q,Q
2023-03-14 21:39:51:389,0,-10.5749,-3.52085,14.6902,Q,Q
2023-03-14 21:39:51:399,0,-10.6087,-3.51777,14.7143,Q,Q
2023-03-14 21:39:51:409,0,-10.636,-3.50968,14.7419,Q,Q
2023-03-14 21:39:51:419,0,-10.6644,-3.49749,14.7738,Q,Q
2023-03-14 21:39:51:429,0,-10.6926,-3.48198,14.8078,Q,Q
2023-03-14 21:39:51:439,0,-10.7238,-3.469,14.8456,Q,Q
2023-03-14 21:39:51:449,0,-10.7609,-3.46147,14.892,Q,Q
2023-03-14 21:39:51:459,0,-10.805,-3.45192,14.9389,Q,Q
2023-03-14 21:39:51:469,0,-10.8492,-3.43883,14.9905,Q,Q
2023-03-14 21:39:51:479,0,-10.8943,-3.41931,15.0455,Q,Q
2023-03-14 21:39:51:489,0,-10.9347,-3.3975,15.1029,Q,Q
2023-03-14 21:39:51:499,0,-10.9675,-3.37061,15.1568,Q,Q
2023-03-14 21:39:51:509,0,-10.9959,-3.34298,15.2056,Q,Q
2023-03-14 21:39:51:519,0,-11.0188,-3.3117,15.2447,Q,Q
2023-03-14 21:39:51:529,0,-11.0391,-3.27945,15.2831,Q,Q
2023-03-14 21:39:51:539,0,-11.0565,-3.2538,15.3153,Q,Q
2023-03-14 21:39:51:549,0,-11.0695,-3.23887,15.344,Q,Q
2023-03-14 21:39:51:559,0,-11.0814,-3.23037,15.3674,Q,Q
2023-03-14 21:39:51:569,0,-11.0925,-3.22346,15.3865,Q,Q
2023-03-14 21:39:51:579,0,-11.1121,-3.22357,15.4014,Q,Q
2023-03-14 21:39:51:589,0,-11.127,-3.22215,15.4105,Q,Q
2023-03-14 21:39:51:599,0,-11.1429,-3.21943,15.4097,Q,Q
2023-03-14 21:39:51:609,0,-11.1526,-3.22226,15.4047,Q,Q
2023-03-14 21:39:51:619,0,-11.1616,-3.2203,15.3955,Q,Q
2023-03-14 21:39:51:629,0,-11.1671,-3.21927,15.3824,Q,Q
2023-03-14 21:39:51:639,0,-11.1654,-3.22001,15.3579,Q,Q
2023-03-14 21:39:51:649,0,-11.1599,-3.22096,15.3296,Q,Q
2023-03-14 21:39:51:659,0,-11.1495,-3.21817,15.3001,Q,Q
2023-03-14 21:39:51:669,0,-11.1377,-3.21989,15.2672,Q,Q
2023-03-14 21:39:51:679,0,-11.1328,-3.22242,15.2314,Q,Q
2023-03-14 21:39:51:689,0,-11.1266,-3.22312,15.1956,Q,Q
2023-03-14 21:39:51:699,0,-11.1232,-3.22438,15.1555,Q,Q
2023-03-14 21:39:51:709,0,-11.1245,-3.21989,15.1201,Q,Q
2023-03-14 21:39:51:719,0,-11.1278,-3.21512,15.0811,Q,Q
2023-03-14 21:39:51:729,0,-11.1252,-3.21497,15.048,Q,Q
2023-03-14 21:39:51:739,0,-11.1235,-3.21322,15.0153,Q,Q
2023-03-14 21:39:51:749,0,-11.1207,-3.20582,14.9785,Q,Q
2023-03-14 21:39:51:759,0,-11.1183,-3.19729,14.9502,Q,Q
2023-03-14 21:39:51:769,0,-11.1244,-3.18208,14.9212,Q,Q
2023-03-14 21:39:51:779,0,-11.1321,-3.16568,14.8872,Q,Q
2023-03-14 21:39:51:789,0,-11.1384,-3.15257,14.8587,Q,Q
2023-03-14 21:39:51:799,0,-11.1422,-3.14229,14.8327,Q,Q
2023-03-14 21:39:51:809,0,-11.144,-3.13616,14.8091,Q,Q
2023-03-14 21:39:51:819,0,-11.1466,-3.12518,14.7868,Q,Q
2023-03-14 21:39:51:829,0,-11.1478,-3.114,14.7657,Q,Q
2023-03-14 21:39:51:839,0,-11.1507,-3.09958,14.7437,Q,Q
2023-03-14 21:39:51:849,0,-11.151,-3.0854,14.7208,Q,Q
2023-03-14 21:39:51:859,0,-11.152,-3.06923,14.699,Q,Q
2023-03-14 21:39:51:869,0,-11.1492,-3.05408,14.6784,Q,Q
2023-03-14 21:39:51:879,0,-11.1519,-3.04213,14.6593,Q,Q
2023-03-14 21:39:51:889,0,-11.1541,-3.03682,14.6399,Q,Q
2023-03-14 21:39:51:899,0,-11.1564,-3.03292,14.6257,Q,Q
2023-03-14 21:39:51:909,0,-11.1578,-3.02895,14.6116,Q,Q
2023-03-14 21:39:51:919,0,-11.1564,-3.03125,14.5983,Q,Q
2023-03-14 21:39:51:929,0,-11.1538,-3.0341,14.5859,Q,Q
2023-03-14 21:39:51:939,0,-11.1484,-3.03108,14.5766,Q,Q
2023-03-14 21:39:51:949,0,-11.1442,-3.02908,14.563,Q,Q
2023-03-14 21:39:51:959,0,-11.1352,-3.02196,14.5499,Q,Q
2023-03-14 21:39:51:969,0,-11.1266,-3.01881,14.5356,Q,Q
2023-03-14 21:39:51:979,0,-11.1206,-3.01256,14.5277,Q,Q
2023-03-14 21:39:51:989,0,-11.12,-3.01074,14.5165,Q,Q
2023-03-14 21:39:51:999,0,-11.1196,-3.0138,14.5105,Q,Q
2023-03-14 21:39:52:9,0,-11.1181,-3.01667,14.5035,Q,Q
2023-03-14 21:39:52:19,0,-11.1179,-3.01995,14.4924,Q,Q
2023-03-14 21:39:52:29,0,-11.1145,-3.02435,14.4855,Q,Q
2023-03-14 21:39:52:39,0,-11.1102,-3.02509,14.4749,Q,Q
2023-03-14 21:39:52:49,0,-11.1099,-3.02465,14.4646,Q,Q
2023-03-14 21:39:52:59,0,-11.1076,-3.02126,14.451,Q,Q
2023-03-14 21:39:52:69,0,-11.1053,-3.02185,14.4373,Q,Q
2023-03-14 21:39:52:79,0,-11.1011,-3.01805,14.4227,Q,Q
2023-03-14 21:39:52:89,0,-11.0927,-3.01346,14.403,Q,Q
2023-03-14 21:39:52:99,0,-11.0814,-3.00791,14.382,Q,Q
2023-03-14 21:39:52:109,0,-11.0623,-2.99993,14.357,Q,Q
2023-03-14 21:39:52:119,0,-11.0456,-2.99024,14.3309,Q,Q
2023-03-14 21:39:52:129,0,-11.033,-2.98084,14.3036,Q,Q
2023-03-14 21:39:52:139,0,-11.027,-2.97349,14.2708,Q,Q
2023-03-14 21:39:52:149,0,-11.0218,-2.96917,14.2448,Q,Q
2023-03-14 21:39:52:159,0,-11.0143,-2.96636,14.2152,Q,Q
2023-03-14 21:39:52:169,0,-11.0094,-2.96022,14.1853,Q,Q
2023-03-14 21:39:52:179,0,-11.0013,-2.9581,14.155,Q,Q
2023-03-14 21:39:52:189,0,-10.9955,-2.95836,14.1303,Q,Q
2023-03-14 21:39:52:198,0,-10.9854,-2.95741,14.1019,Q,Q
2023-03-14 21:39:52:209,0,-10.9751,-2.95404,14.0781,Q,Q
2023-03-14 21:39:52:219,0,-10.9588,-2.95111,14.0501,Q,Q
2023-03-14 21:39:52:229,0,-10.9468,-2.9469,14.0242,Q,Q
2023-03-14 21:39:52:239,0,-10.9419,-2.94412,13.9955,Q,Q
2023-03-14 21:39:52:249,0,-10.9388,-2.94379,13.9646,Q,Q
2023-03-14 21:39:52:259,0,-10.933,-2.94165,13.9339,Q,Q
2023-03-14 21:39:52:269,0,-10.9254,-2.94086,13.9044,Q,Q
2023-03-14 21:39:52:279,0,-10.9224,-2.9409,13.8741,Q,Q
2023-03-14 21:39:52:289,0,-10.9182,-2.93914,13.8409,Q,Q
2023-03-14 21:39:52:299,0,-10.9194,-2.93798,13.805,Q,Q
2023-03-14 21:39:52:309,0,-10.9164,-2.94071,13.773,Q,Q
2023-03-14 21:39:52:319,0,-10.9161,-2.94474,13.7417,Q,Q
2023-03-14 21:39:52:329,0,-10.9192,-2.94859,13.7164,Q,Q
2023-03-14 21:39:52:339,0,-10.9274,-2.9521,13.6849,Q,Q
2023-03-14 21:39:52:349,0,-10.9385,-2.95884,13.6537,Q,Q
2023-03-14 21:39:52:359,0,-10.9383,-2.96001,13.6203,Q,Q
2023-03-14 21:39:52:369,0,-10.9371,-2.95815,13.5854,Q,Q
2023-03-14 21:39:52:379,0,-10.9339,-2.95802,13.5518,Q,Q
2023-03-14 21:39:52:389,0,-10.9248,-2.95639,13.5197,Q,Q
2023-03-14 21:39:52:399,0,-10.9168,-2.95548,13.4917,Q,Q
2023-03-14 21:39:52:409,0,-10.9056,-2.95328,13.4667,Q,Q
2023-03-14 21:39:52:419,0,-10.8886,-2.95314,13.4398,Q,Q
2023-03-14 21:39:52:429,0,-10.8746,-2.95341,13.4148,Q,Q
2023-03-14 21:39:52:439,0,-10.8603,-2.94966,13.3913,Q,Q
2023-03-14 21:39:52:449,0,-10.8467,-2.94289,13.3671,Q,Q
2023-03-14 21:39:52:459,0,-10.8354,-2.93391,13.3394,Q,Q
2023-03-14 21:39:52:469,0,-10.8208,-2.92392,13.3092,Q,Q
2023-03-14 21:39:52:479,0,-10.8081,-2.90894,13.278,Q,Q
2023-03-14 21:39:52:489,0,-10.7896,-2.89383,13.2464,Q,Q
2023-03-14 21:39:52:499,0,-10.7732,-2.87714,13.2152,Q,Q
2023-03-14 21:39:52:509,0,-10.7585,-2.86404,13.1827,Q,Q
2023-03-14 21:39:52:519,0,-10.7497,-2.85944,13.1569,Q,Q
2023-03-14 21:39:52:529,0,-10.7492,-2.8626,13.1342,Q,Q
2023-03-14 21:39:52:539,0,-10.7568,-2.86617,13.1122,Q,Q
2023-03-14 21:39:52:549,0,-10.7655,-2.87356,13.0862,Q,Q
2023-03-14 21:39:52:559,0,-10.7713,-2.88072,13.0542,Q,Q
2023-03-14 21:39:52:569,0,-10.7758,-2.88737,13.0208,Q,Q
2023-03-14 21:39:52:579,0,-10.7754,-2.8966,12.987,Q,Q
2023-03-14 21:39:52:589,0,-10.7717,-2.90861,12.9544,Q,Q
2023-03-14 21:39:52:599,0,-10.767,-2.92369,12.9263,Q,Q
2023-03-14 21:39:52:609,0,-10.7655,-2.93822,12.8988,Q,Q
2023-03-14 21:39:52:619,0,-10.7689,-2.9472,12.8709,Q,Q
2023-03-14 21:39:52:629,0,-10.7731,-2.95329,12.8376,Q,Q
2023-03-14 21:39:52:639,0,-10.7771,-2.96033,12.8068,Q,Q
2023-03-14 21:39:52:649,0,-10.7792,-2.96479,12.7782,Q,Q
2023-03-14 21:39:52:659,0,-10.7779,-2.9667,12.7499,Q,Q
2023-03-14 21:39:52:669,0,-10.7755,-2.96975,12.7196,Q,Q
2023-03-14 21:39:52:679,0,-10.7685,-2.9735,12.6913,Q,Q
2023-03-14 21:39:52:689,0,-10.7606,-2.9762,12.6671,Q,Q
2023-03-14 21:39:52:699,0,-10.7488,-2.97649,12.6401,Q,Q
2023-03-14 21:39:52:709,0,-10.7393,-2.97729,12.6173,Q,Q
2023-03-14 21:39:52:719,0,-10.7322,-2.97789,12.5923,Q,Q
2023-03-14 21:39:52:729,0,-10.7224,-2.97876,12.5706,Q,Q
2023-03-14 21:39:52:739,0,-10.7147,-2.97852,12.5474,Q,Q
2023-03-14 21:39:52:749,0,-10.7089,-2.9777,12.5261,Q,Q
2023-03-14 21:39:52:759,0,-10.6989,-2.98159,12.5054,Q,Q
2023-03-14 21:39:52:769,0,-10.6881,-2.98152,12.4818,Q,Q
2023-03-14 21:39:52:779,0,-10.6821,-2.98135,12.4632,Q,Q
2023-03-14 21:39:52:789,0,-10.6741,-2.9837,12.4471,Q,Q
2023-03-14 21:39:52:799,0,-10.6705,-2.98615,12.4337,Q,Q
2023-03-14 21:39:52:809,0,-10.6655,-2.98742,12.4192,Q,Q
2023-03-14 21:39:52:819,0,-10.6619,-2.99421,12.4035,Q,Q
2023-03-14 21:39:52:829,0,-10.6596,-2.99807,12.3908,Q,Q
2023-03-14 21:39:52:839,0,-10.6568,-2.99869,12.3765,Q,Q
2023-03-14 21:39:52:849,0,-10.6549,-3.00406,12.3644,Q,Q
2023-03-14 21:39:52:859,0,-10.6525,-3.00538,12.3538,Q,Q
2023-03-14 21:39:52:869,0,-10.6479,-3.00759,12.3407,Q,Q
2023-03-14 21:39:52:879,0,-10.6415,-3.01456,12.3309,Q,Q
2023-03-14 21:39:52:889,0,-10.6361,-3.01765,12.3239,Q,Q
2023-03-14 21:39:52:899,0,-10.6322,-3.01836,12.3165,Q,Q
2023-03-14 21:39:52:909,0,-10.6325,-3.02195,12.3113,Q,Q
2023-03-14 21:39:52:919,0,-10.6305,-3.02469,12.3025,Q,Q
2023-03-14 21:39:52:929,0,-10.6246,-3.0247,12.2912,Q,Q
2023-03-14 21:39:52:939,0,-10.6196,-3.02569,12.2832,Q,Q
2023-03-14 21:39:52:949,0,-10.607,-3.023,12.2726,Q,Q
2023-03-14 21:39:52:959,0,-10.5967,-3.02046,12.259,Q,Q
2023-03-14 21:39:52:969,0,-10.5892,-3.01756,12.2442,Q,Q
2023-03-14 21:39:52:979,0,-10.5762,-3.01024,12.2324,Q,Q
2023-03-14 21:39:52:989,0,-10.5644,-2.99961,12.2204,Q,Q
2023-03-14 21:39:52:999,0,-10.5594,-2.99634,12.21,Q,Q
2023-03-14 21:39:53:9,0,-10.5556,-2.99831,12.2024,Q,Q
2023-03-14 21:39:53:19,0,-10.5497,-2.99671,12.1961,Q,Q
2023-03-14 21:39:53:29,0,-10.5423,-2.99737,12.1816,Q,Q
2023-03-14 21:39:53:39,0,-10.5334,-3.00085,12.1686,Q,Q
2023-03-14 21:39:53:49,0,-10.5266,-3.0026,12.1542,Q,Q
2023-03-14 21:39:53:59,0,-10.5261,-3.00755,12.1397,Q,Q
2023-03-14 21:39:53:69,0,-10.5267,-3.01496,12.1213,Q,Q
2023-03-14 21:39:53:79,0,-10.5255,-3.02083,12.1,Q,Q
2023-03-14 21:39:53:89,0,-10.5233,-3.02407,12.0767,Q,Q
2023-03-14 21:39:53:99,0,-10.5217,-3.03199,12.0525,Q,Q
2023-03-14 21:39:53:109,0,-10.5224,-3.0496,12.0291,Q,Q
2023-03-14 21:39:53:119,0,-10.5232,-3.06981,12.0072,Q,Q
2023-03-14 21:39:53:129,0,-10.5271,-3.08703,11.985,Q,Q
2023-03-14 21:39:53:139,0,-10.5323,-3.10716,11.9613,Q,Q
2023-03-14 21:39:53:149,0,-10.5394,-3.12295,11.9369,Q,Q
2023-03-14 21:39:53:159,0,-10.5455,-3.13495,11.913,Q,Q
2023-03-14 21:39:53:169,0,-10.5459,-3.14348,11.8872,Q,Q
2023-03-14 21:39:53:179,0,-10.5405,-3.15333,11.8617,Q,Q
2023-03-14 21:39:53:189,0,-10.5278,-3.16468,11.8409,Q,Q
2023-03-14 21:39:53:199,0,-10.5125,-3.17613,11.8217,Q,Q
2023-03-14 21:39:53:209,0,-10.4964,-3.1832,11.8054,Q,Q
2023-03-14 21:39:53:219,0,-10.4805,-3.17676,11.7883,Q,Q
2023-03-14 21:39:53:229,0,-10.4634,-3.16763,11.7733,Q,Q
2023-03-14 21:39:53:239,0,-10.4485,-3.1599,11.7616,Q,Q
2023-03-14 21:39:53:249,0,-10.4339,-3.15615,11.7517,Q,Q
2023-03-14 21:39:53:259,0,-10.4201,-3.14903,11.7375,Q,Q
2023-03-14 21:39:53:269,0,-10.4065,-3.14377,11.7259,Q,Q
2023-03-14 21:39:53:279,0,-10.3974,-3.13874,11.7155,Q,Q
2023-03-14 21:39:53:289,0,-10.3885,-3.13539,11.7023,Q,Q
2023-03-14 21:39:53:299,0,-10.386,-3.1262,11.6873,Q,Q
2023-03-14 21:39:53:309,0,-10.3866,-3.11861,11.6738,Q,Q
2023-03-14 21:39:53:319,0,-10.3893,-3.11356,11.6568,Q,Q
2023-03-14 21:39:53:329,0,-10.3935,-3.10662,11.6386,Q,Q
2023-03-14 21:39:53:339,0,-10.3957,-3.09573,11.6185,Q,Q
2023-03-14 21:39:53:349,0,-10.3969,-3.08798,11.5954,Q,Q
2023-03-14 21:39:53:359,0,-10.3974,-3.08589,11.5743,Q,Q
2023-03-14 21:39:53:369,0,-10.3995,-3.08746,11.5587,Q,Q
2023-03-14 21:39:53:379,0,-10.4059,-3.09241,11.5439,Q,Q
2023-03-14 21:39:53:389,0,-10.4112,-3.09845,11.53,Q,Q
2023-03-14 21:39:53:399,0,-10.4181,-3.1084,11.5142,Q,Q
2023-03-14 21:39:53:409,0,-10.4268,-3.11375,11.4997,Q,Q
2023-03-14 21:39:53:419,0,-10.4361,-3.11695,11.4848,Q,Q
2023-03-14 21:39:53:429,0,-10.4444,-3.12392,11.4701,Q,Q
2023-03-14 21:39:53:439,0,-10.4522,-3.13096,11.4515,Q,Q
2023-03-14 21:39:53:449,0,-10.4547,-3.13509,11.4334,Q,Q
2023-03-14 21:39:53:459,0,-10.4556,-3.14058,11.4166,Q,Q
2023-03-14 21:39:53:469,0,-10.46,-3.14336,11.3995,Q,Q
2023-03-14 21:39:53:479,0,-10.4593,-3.14364,11.3832,Q,Q
2023-03-14 21:39:53:489,0,-10.4566,-3.1448,11.3715,Q,Q
2023-03-14 21:39:53:499,0,-10.453,-3.14444,11.3599,Q,Q
2023-03-14 21:39:53:509,0,-10.448,-3.14565,11.3517,Q,Q
2023-03-14 21:39:53:519,0,-10.4404,-3.15115,11.345,Q,Q
2023-03-14 21:39:53:529,0,-10.4327,-3.15516,11.3396,Q,Q
2023-03-14 21:39:53:539,0,-10.4246,-3.15889,11.3376,Q,Q
2023-03-14 21:39:53:549,0,-10.4176,-3.16737,11.3374,Q,Q
2023-03-14 21:39:53:559,0,-10.4127,-3.17733,11.3395,Q,Q
2023-03-14 21:39:53:569,0,-10.4099,-3.18696,11.3404,Q,Q
2023-03-14 21:39:53:579,0,-10.406,-3.19686,11.3405,Q,Q
2023-03-14 21:39:53:589,0,-10.4079,-3.19929,11.3392,Q,Q
2023-03-14 21:39:53:599,0,-10.408,-3.20345,11.338,Q,Q
2023-03-14 21:39:53:609,0,-10.4107,-3.20695,11.3349,Q,Q
2023-03-14 21:39:53:619,0,-10.4152,-3.21082,11.3318,Q,Q
2023-03-14 21:39:53:629,0,-10.4116,-3.21174,11.3232,Q,Q
2023-03-14 21:39:53:639,0,-10.4057,-3.20944,11.3126,Q,Q
2023-03-14 21:39:53:649,0,-10.4013,-3.20701,11.2996,Q,Q
2023-03-14 21:39:53:659,0,-10.4029,-3.20597,11.289,Q,Q
2023-03-14 21:39:53:669,0,-10.4033,-3.20419,11.2775,Q,Q
2023-03-14 21:39:53:679,0,-10.4092,-3.20246,11.2657,Q,Q
2023-03-14 21:39:53:689,0,-10.414,-3.20191,11.256,Q,Q
2023-03-14 21:39:53:699,0,-10.4176,-3.20179,11.2427,Q,Q
2023-03-14 21:39:53:709,0,-10.4239,-3.2023,11.2324,Q,Q
2023-03-14 21:39:53:719,0,-10.4289,-3.20081,11.2222,Q,Q
2023-03-14 21:39:53:729,0,-10.4351,-3.19958,11.2137,Q,Q
2023-03-14 21:39:53:739,0,-10.4407,-3.20143,11.2061,Q,Q
2023-03-14 21:39:53:749,0,-10.4443,-3.20136,11.1976,Q,Q
2023-03-14 21:39:53:759,0,-10.4481,-3.20119,11.1899,Q,Q
2023-03-14 21:39:53:769,0,-10.4501,-3.20302,11.1823,Q,Q
2023-03-14 21:39:53:779,0,-10.4514,-3.20009,11.1749,Q,Q
2023-03-14 21:39:53:789,0,-10.4506,-3.20269,11.1659,Q,Q
2023-03-14 21:39:53:799,0,-10.4511,-3.2029,11.1539,Q,Q
2023-03-14 21:39:53:809,0,-10.455,-3.2005,11.1436,Q,Q
2023-03-14 21:39:53:819,0,-10.4568,-3.20072,11.1293,Q,Q
2023-03-14 21:39:53:829,0,-10.453,-3.2019,11.1153,Q,Q
2023-03-14 21:39:53:839,0,-10.4519,-3.20016,11.0996,Q,Q
2023-03-14 21:39:53:849,0,-10.4524,-3.19551,11.0806,Q,Q
2023-03-14 21:39:53:859,0,-10.4515,-3.2008,11.0618,Q,Q
2023-03-14 21:39:53:869,0,-10.4531,-3.20503,11.0478,Q,Q
2023-03-14 21:39:53:879,0,-10.4524,-3.21255,11.0348,Q,Q
2023-03-14 21:39:53:889,0,-10.4466,-3.21816,11.025,Q,Q
2023-03-14 21:39:53:899,0,-10.4388,-3.22082,11.0163,Q,Q
2023-03-14 21:39:53:909,0,-10.4354,-3.23046,11.0082,Q,Q
2023-03-14 21:39:53:919,0,-10.4322,-3.23712,11.0023,Q,Q
2023-03-14 21:39:53:929,0,-10.4261,-3.24084,10.9933,Q,Q
2023-03-14 21:39:53:939,0,-10.4171,-3.24242,10.9852,Q,Q
2023-03-14 21:39:53:949,0,-10.4079,-3.24388,10.9764,Q,Q
2023-03-14 21:39:53:959,0,-10.4038,-3.24596,10.967,Q,Q
2023-03-14 21:39:53:969,0,-10.3976,-3.24325,10.9608,Q,Q
2023-03-14 21:39:53:979,0,-10.3927,-3.24073,10.9544,Q,Q
2023-03-14 21:39:53:989,0,-10.3882,-3.24071,10.9435,Q,Q
2023-03-14 21:39:53:999,0,-10.3907,-3.23741,10.9346,Q,Q
2023-03-14 21:39:54:9,0,-10.3917,-3.23456,10.9235,Q,Q
2023-03-14 21:39:54:19,0,-10.3961,-3.23238,10.9078,Q,Q
2023-03-14 21:39:54:29,0,-10.4011,-3.22801,10.8898,Q,Q
2023-03-14 21:39:54:39,0,-10.4069,-3.22295,10.8737,Q,Q
2023-03-14 21:39:54:49,0,-10.4142,-3.2193,10.8569,Q,Q
2023-03-14 21:39:54:59,0,-10.4244,-3.21516,10.8394,Q,Q
2023-03-14 21:39:54:69,0,-10.4348,-3.21518,10.8172,Q,Q
2023-03-14 21:39:54:79,0,-10.4471,-3.21498,10.7989,Q,Q
2023-03-14 21:39:54:89,0,-10.4562,-3.21515,10.7834,Q,Q
2023-03-14 21:39:54:99,0,-10.4635,-3.21276,10.7673,Q,Q
2023-03-14 21:39:54:109,0,-10.4723,-3.21029,10.7496,Q,Q
2023-03-14 21:39:54:119,0,-10.4771,-3.20553,10.7318,Q,Q
2023-03-14 21:39:54:129,0,-10.4775,-3.20082,10.7197,Q,Q
2023-03-14 21:39:54:139,0,-10.4755,-3.19728,10.7093,Q,Q
2023-03-14 21:39:54:149,0,-10.4761,-3.19774,10.7014,Q,Q
2023-03-14 21:39:54:159,0,-10.4794,-3.19281,10.6907,Q,Q
2023-03-14 21:39:54:169,0,-10.4784,-3.18667,10.6879,Q,Q
2023-03-14 21:39:54:179,0,-10.4778,-3.17699,10.6845,Q,Q
2023-03-14 21:39:54:189,0,-10.4766,-3.17383,10.6791,Q,Q
2023-03-14 21:39:54:199,0,-10.4771,-3.16751,10.6706,Q,Q
2023-03-14 21:39:54:209,0,-10.4774,-3.1613,10.6657,Q,Q
2023-03-14 21:39:54:219,0,-10.4725,-3.15306,10.6585,Q,Q
2023-03-14 21:39:54:229,0,-10.4711,-3.15027,10.6486,Q,Q
2023-03-14 21:39:54:239,0,-10.4656,-3.14955,10.642,Q,Q
2023-03-14 21:39:54:249,0,-10.4587,-3.14924,10.6359,Q,Q
2023-03-14 21:39:54:259,0,-10.4497,-3.14843,10.6337,Q,Q
2023-03-14 21:39:54:269,0,-10.4376,-3.15213,10.6338,Q,Q
2023-03-14 21:39:54:279,0,-10.4287,-3.15138,10.6327,Q,Q
2023-03-14 21:39:54:289,0,-10.4221,-3.1537,10.6331,Q,Q
2023-03-14 21:39:54:299,0,-10.417,-3.15713,10.6368,Q,Q
2023-03-14 21:39:54:309,0,-10.4178,-3.15773,10.638,Q,Q
2023-03-14 21:39:54:319,0,-10.4197,-3.15655,10.6412,Q,Q
2023-03-14 21:39:54:329,0,-10.4254,-3.15698,10.644,Q,Q
2023-03-14 21:39:54:339,0,-10.4301,-3.1538,10.6525,Q,Q
2023-03-14 21:39:54:349,0,-10.4393,-3.15062,10.6603,Q,Q
2023-03-14 21:39:54:359,0,-10.4488,-3.14651,10.6661,Q,Q
2023-03-14 21:39:54:369,0,-10.4573,-3.14773,10.6749,Q,Q
2023-03-14 21:39:54:379,0,-10.4682,-3.14697,10.6846,Q,Q
2023-03-14 21:39:54:389,0,-10.4793,-3.14761,10.6917,Q,Q
2023-03-14 21:39:54:399,0,-10.486,-3.14439,10.6966,Q,Q
2023-03-14 21:39:54:409,0,-10.4889,-3.13849,10.6994,Q,Q
2023-03-14 21:39:54:419,0,-10.4967,-3.13191,10.7019,Q,Q
2023-03-14 21:39:54:429,0,-10.504,-3.12753,10.6998,Q,Q
2023-03-14 21:39:54:439,0,-10.5116,-3.12446,10.6954,Q,Q
2023-03-14 21:39:54:449,0,-10.5161,-3.11987,10.6854,Q,Q
2023-03-14 21:39:54:459,0,-10.5204,-3.1184,10.6769,Q,Q
2023-03-14 21:39:54:469,0,-10.5277,-3.11371,10.6708,Q,Q
2023-03-14 21:39:54:479,0,-10.5316,-3.10889,10.6652,Q,Q
2023-03-14 21:39:54:489,0,-10.5311,-3.10708,10.6588,Q,Q
2023-03-14 21:39:54:499,0,-10.5275,-3.10469,10.6566,Q,Q
