Timestamp_cmd,imu_cmd,roll_delta,pitch_delta,yaw_delta,voice_type,voice_length
2023-03-15 21:22:23:842,0,-54.7727,1.90582,148.035,Q,Q
2023-03-15 21:22:23:850,0,-54.7762,1.90594,148.035,Q,Q
2023-03-15 21:22:23:860,0,-54.7784,1.90907,148.036,Q,Q
2023-03-15 21:22:23:870,0,-54.7784,1.91146,148.036,Q,Q
2023-03-15 21:22:23:880,0,-54.7763,1.91091,148.037,Q,Q
2023-03-15 21:22:23:891,0,-54.7788,1.90982,148.038,Q,Q
2023-03-15 21:22:23:901,0,-54.7796,1.90596,148.037,Q,Q
2023-03-15 21:22:23:911,0,-54.7764,1.90635,148.039,Q,Q
2023-03-15 21:22:23:921,0,-54.7767,1.9028,148.039,Q,Q
2023-03-15 21:22:23:931,0,-54.7754,1.89917,148.038,Q,Q
2023-03-15 21:22:23:941,0,-54.7749,1.89908,148.037,Q,Q
2023-03-15 21:22:23:951,0,-54.7691,1.89823,148.037,Q,Q
2023-03-15 21:22:23:961,0,-54.7671,1.89326,148.036,Q,Q
2023-03-15 21:22:23:971,0,-54.7644,1.89575,148.037,Q,Q
2023-03-15 21:22:23:981,0,-54.7642,1.89343,148.037,Q,Q
2023-03-15 21:22:23:991,0,-54.7646,1.89364,148.032,Q,Q
2023-03-15 21:22:24:0,0,-54.7666,1.89338,148.031,Q,Q
2023-03-15 21:22:24:11,0,-54.766,1.8937,148.033,Q,Q
2023-03-15 21:22:24:21,0,-54.766,1.8969,148.034,Q,Q
2023-03-15 21:22:24:31,0,-54.7656,1.89696,148.031,Q,Q
2023-03-15 21:22:24:41,0,-54.7666,1.89907,148.032,Q,Q
2023-03-15 21:22:24:51,0,-54.7676,1.90006,148.034,Q,Q
2023-03-15 21:22:24:61,0,-54.7654,1.89784,148.035,Q,Q
2023-03-15 21:22:24:71,0,-54.7623,1.89733,148.038,Q,Q
2023-03-15 21:22:24:81,0,-54.7631,1.89777,148.037,Q,Q
2023-03-15 21:22:24:91,0,-54.7636,1.89713,148.037,Q,Q
2023-03-15 21:22:24:101,0,-54.7653,1.89593,148.036,Q,Q
2023-03-15 21:22:24:111,0,-54.7638,1.89842,148.037,Q,Q
2023-03-15 21:22:24:121,0,-54.7624,1.89643,148.037,Q,Q
2023-03-15 21:22:24:131,0,-54.7615,1.89802,148.038,Q,Q
2023-03-15 21:22:24:141,0,-54.7605,1.89829,148.04,Q,Q
2023-03-15 21:22:24:151,0,-54.7614,1.89768,148.04,Q,Q
2023-03-15 21:22:24:161,0,-54.7629,1.90029,148.039,Q,Q
2023-03-15 21:22:24:170,0,-54.7633,1.8998,148.039,Q,Q
2023-03-15 21:22:24:181,0,-54.7621,1.89772,148.04,Q,Q
2023-03-15 21:22:24:191,0,-54.7596,1.89841,148.039,Q,Q
2023-03-15 21:22:24:201,0,-54.761,1.8989,148.037,Q,Q
2023-03-15 21:22:24:211,0,-54.7627,1.89626,148.038,Q,Q
2023-03-15 21:22:24:221,0,-54.7632,1.89861,148.041,Q,Q
2023-03-15 21:22:24:231,0,-54.7616,1.8971,148.043,Q,Q
2023-03-15 21:22:24:240,0,-54.7626,1.89457,148.043,Q,Q
2023-03-15 21:22:24:251,0,-54.7615,1.89476,148.042,Q,Q
2023-03-15 21:22:24:260,0,-54.7615,1.89595,148.04,Q,Q
2023-03-15 21:22:24:271,0,-54.7615,1.89744,148.038,Q,Q
2023-03-15 21:22:24:281,0,-54.7602,1.89822,148.041,Q,Q
2023-03-15 21:22:24:291,0,-54.7605,1.89763,148.036,Q,Q
2023-03-15 21:22:24:300,0,-54.7629,1.89963,148.034,Q,Q
2023-03-15 21:22:24:310,0,-54.7614,1.89856,148.033,Q,Q
2023-03-15 21:22:24:320,0,-54.7627,1.89554,148.032,Q,Q
2023-03-15 21:22:24:330,0,-54.762,1.89613,148.033,Q,Q
2023-03-15 21:22:24:340,0,-54.7632,1.89462,148.033,Q,Q
2023-03-15 21:22:24:350,0,-54.7632,1.89073,148.032,Q,Q
2023-03-15 21:22:24:360,0,-54.7644,1.88676,148.032,Q,Q
2023-03-15 21:22:24:370,0,-54.7647,1.88529,148.035,Q,Q
2023-03-15 21:22:24:380,0,-54.766,1.88498,148.036,Q,Q
2023-03-15 21:22:24:390,0,-54.7677,1.88305,148.039,Q,Q
2023-03-15 21:22:24:400,0,-54.7717,1.87862,148.04,Q,Q
2023-03-15 21:22:24:410,0,-54.7719,1.87514,148.038,Q,Q
2023-03-15 21:22:24:421,0,-54.7737,1.87405,148.04,Q,Q
2023-03-15 21:22:24:430,0,-54.774,1.87465,148.041,Q,Q
2023-03-15 21:22:24:440,0,-54.7696,1.87611,148.04,Q,Q
2023-03-15 21:22:24:450,0,-54.7701,1.87314,148.042,Q,Q
2023-03-15 21:22:24:460,0,-54.77,1.87313,148.04,Q,Q
2023-03-15 21:22:24:470,0,-54.7698,1.8763,148.042,Q,Q
2023-03-15 21:22:24:480,0,-54.7676,1.87605,148.044,Q,Q
2023-03-15 21:22:24:490,0,-54.7693,1.87592,148.044,Q,Q
2023-03-15 21:22:24:500,0,-54.7687,1.87515,148.044,Q,Q
2023-03-15 21:22:24:510,0,-54.7669,1.88035,148.045,Q,Q
2023-03-15 21:22:24:520,0,-54.7681,1.87966,148.043,Q,Q
2023-03-15 21:22:24:530,0,-54.7724,1.87948,148.042,Q,Q
2023-03-15 21:22:24:540,0,-54.7712,1.87854,148.047,Q,Q
2023-03-15 21:22:24:550,0,-54.7733,1.87703,148.047,Q,Q
2023-03-15 21:22:24:560,0,-54.7723,1.87476,148.046,Q,Q
2023-03-15 21:22:24:570,0,-54.7702,1.87397,148.047,Q,Q
2023-03-15 21:22:24:580,0,-54.7706,1.87734,148.044,Q,Q
2023-03-15 21:22:24:590,0,-54.7688,1.87468,148.042,Q,Q
2023-03-15 21:22:24:600,0,-54.7683,1.87277,148.039,Q,Q
2023-03-15 21:22:24:610,0,-54.7691,1.87324,148.039,Q,Q
2023-03-15 21:22:24:620,0,-54.7688,1.87015,148.037,Q,Q
2023-03-15 21:22:24:630,0,-54.7689,1.86981,148.038,Q,Q
2023-03-15 21:22:24:640,0,-54.7686,1.86886,148.04,Q,Q
2023-03-15 21:22:24:650,0,-54.7663,1.8673,148.041,Q,Q
2023-03-15 21:22:24:660,0,-54.7664,1.86477,148.039,Q,Q
2023-03-15 21:22:24:670,0,-54.7665,1.86222,148.036,Q,Q
2023-03-15 21:22:24:680,0,-54.7643,1.86264,148.035,Q,Q
2023-03-15 21:22:24:690,0,-54.7627,1.86404,148.036,Q,Q
2023-03-15 21:22:24:700,0,-54.7638,1.86689,148.039,Q,Q
2023-03-15 21:22:24:711,0,-54.765,1.86591,148.041,Q,Q
2023-03-15 21:22:24:721,0,-54.7668,1.8655,148.043,Q,Q
2023-03-15 21:22:24:730,0,-54.769,1.86652,148.042,Q,Q
2023-03-15 21:22:24:740,0,-54.7743,1.86693,148.045,Q,Q
2023-03-15 21:22:24:750,0,-54.7721,1.86281,148.042,Q,Q
2023-03-15 21:22:24:760,0,-54.7732,1.86253,148.042,Q,Q
2023-03-15 21:22:24:770,0,-54.7784,1.86514,148.039,Q,Q
2023-03-15 21:22:24:780,0,-54.7772,1.8653,148.038,Q,Q
2023-03-15 21:22:24:790,0,-54.775,1.86824,148.036,Q,Q
2023-03-15 21:22:24:800,0,-54.7738,1.8691,148.038,Q,Q
2023-03-15 21:22:24:810,0,-54.772,1.86774,148.04,Q,Q
2023-03-15 21:22:24:820,0,-54.7726,1.86508,148.038,Q,Q
2023-03-15 21:22:24:830,0,-54.7721,1.86569,148.039,Q,Q
2023-03-15 21:22:24:840,0,-54.774,1.8672,148.041,Q,Q
2023-03-15 21:22:24:850,0,-54.7752,1.86527,148.044,Q,Q
2023-03-15 21:22:24:860,0,-54.7713,1.862,148.046,Q,Q
2023-03-15 21:22:24:871,0,-54.7743,1.86365,148.046,Q,Q
2023-03-15 21:22:24:881,0,-54.7769,1.86525,148.047,Q,Q
2023-03-15 21:22:24:891,0,-54.7783,1.86593,148.048,Q,Q
2023-03-15 21:22:24:900,0,-54.7789,1.86625,148.049,Q,Q
2023-03-15 21:22:24:911,0,-54.7811,1.86853,148.045,Q,Q
2023-03-15 21:22:24:921,0,-54.7812,1.87201,148.046,Q,Q
2023-03-15 21:22:24:930,0,-54.7817,1.87513,148.044,Q,Q
2023-03-15 21:22:24:940,0,-54.7849,1.87373,148.045,Q,Q
2023-03-15 21:22:24:951,0,-54.7832,1.87662,148.046,Q,Q
2023-03-15 21:22:24:961,0,-54.7882,1.87777,148.042,Q,Q
2023-03-15 21:22:24:970,0,-54.7884,1.87812,148.039,Q,Q
2023-03-15 21:22:24:981,0,-54.7891,1.87839,148.038,Q,Q
2023-03-15 21:22:24:991,0,-54.7867,1.88087,148.037,Q,Q
2023-03-15 21:22:25:1,0,-54.7855,1.88407,148.038,Q,Q
2023-03-15 21:22:25:10,0,-54.7878,1.88148,148.036,Q,Q
2023-03-15 21:22:25:20,0,-54.786,1.88231,148.035,Q,Q
2023-03-15 21:22:25:30,0,-54.7905,1.87984,148.037,Q,Q
2023-03-15 21:22:25:40,0,-54.7887,1.88007,148.039,Q,Q
2023-03-15 21:22:25:51,0,-54.7878,1.87944,148.038,Q,Q
2023-03-15 21:22:25:61,0,-54.7854,1.87944,148.036,Q,Q
2023-03-15 21:22:25:71,0,-54.7818,1.88094,148.036,Q,Q
2023-03-15 21:22:25:81,0,-54.7847,1.881,148.038,Q,Q
2023-03-15 21:22:25:90,0,-54.7852,1.88287,148.04,Q,Q
2023-03-15 21:22:25:100,0,-54.7876,1.88311,148.039,Q,Q
2023-03-15 21:22:25:111,0,-54.7872,1.88454,148.039,Q,Q
2023-03-15 21:22:25:120,0,-54.7916,1.88245,148.036,Q,Q
2023-03-15 21:22:25:131,0,-54.79,1.88171,148.035,Q,Q
2023-03-15 21:22:25:141,0,-54.7946,1.88033,148.031,Q,Q
2023-03-15 21:22:25:151,0,-54.7943,1.88399,148.029,Q,Q
2023-03-15 21:22:25:161,0,-54.7943,1.88355,148.029,Q,Q
2023-03-15 21:22:25:171,0,-54.793,1.88401,148.028,Q,Q
2023-03-15 21:22:25:180,0,-54.794,1.88205,148.028,Q,Q
2023-03-15 21:22:25:190,0,-54.7938,1.88297,148.029,Q,Q
2023-03-15 21:22:25:201,0,-54.7945,1.87914,148.034,Q,Q
2023-03-15 21:22:25:211,0,-54.7936,1.88004,148.034,Q,Q
2023-03-15 21:22:25:220,0,-54.7922,1.88072,148.033,Q,Q
2023-03-15 21:22:25:231,0,-54.7944,1.8832,148.031,Q,Q
2023-03-15 21:22:25:240,0,-54.7953,1.88172,148.033,Q,Q
2023-03-15 21:22:25:251,0,-54.7976,1.8831,148.033,Q,Q
2023-03-15 21:22:25:261,0,-54.7994,1.88403,148.031,Q,Q
2023-03-15 21:22:25:270,0,-54.7996,1.88443,148.032,Q,Q
2023-03-15 21:22:25:281,0,-54.799,1.88887,148.03,Q,Q
2023-03-15 21:22:25:290,0,-54.7976,1.88751,148.03,Q,Q
2023-03-15 21:22:25:301,0,-54.7942,1.88912,148.032,Q,Q
2023-03-15 21:22:25:310,0,-54.7932,1.88949,148.031,Q,Q
2023-03-15 21:22:25:320,0,-54.7946,1.88994,148.031,Q,Q
2023-03-15 21:22:25:331,0,-54.7947,1.89197,148.031,Q,Q
2023-03-15 21:22:25:340,0,-54.7933,1.89111,148.032,Q,Q
2023-03-15 21:22:25:350,0,-54.7919,1.89175,148.034,Q,Q
2023-03-15 21:22:25:361,0,-54.7919,1.89079,148.031,Q,Q
2023-03-15 21:22:25:370,0,-54.7929,1.89217,148.03,Q,Q
2023-03-15 21:22:25:381,0,-54.7943,1.89113,148.03,Q,Q
2023-03-15 21:22:25:391,0,-54.7932,1.89296,148.03,Q,Q
2023-03-15 21:22:25:401,0,-54.793,1.89491,148.03,Q,Q
2023-03-15 21:22:25:411,0,-54.7927,1.89654,148.029,Q,Q
2023-03-15 21:22:25:420,0,-54.7935,1.89895,148.028,Q,Q
2023-03-15 21:22:25:430,0,-54.7915,1.90107,148.027,Q,Q
2023-03-15 21:22:25:440,0,-54.7931,1.90243,148.026,Q,Q
2023-03-15 21:22:25:451,0,-54.7957,1.90341,148.025,Q,Q
2023-03-15 21:22:25:460,0,-54.7983,1.9071,148.024,Q,Q
2023-03-15 21:22:25:470,0,-54.7985,1.90319,148.022,Q,Q
2023-03-15 21:22:25:480,0,-54.7999,1.90622,148.025,Q,Q
2023-03-15 21:22:25:491,0,-54.8008,1.90578,148.026,Q,Q
2023-03-15 21:22:25:500,0,-54.8007,1.90853,148.025,Q,Q
2023-03-15 21:22:25:511,0,-54.7992,1.9082,148.028,Q,Q
2023-03-15 21:22:25:520,0,-54.8005,1.90849,148.026,Q,Q
2023-03-15 21:22:25:530,0,-54.7998,1.90889,148.029,Q,Q
2023-03-15 21:22:25:540,0,-54.8029,1.90816,148.029,Q,Q
2023-03-15 21:22:25:551,0,-54.804,1.90914,148.029,Q,Q
2023-03-15 21:22:25:561,0,-54.8052,1.90803,148.029,Q,Q
2023-03-15 21:22:25:570,0,-54.8053,1.90552,148.026,Q,Q
2023-03-15 21:22:25:580,0,-54.8039,1.90693,148.024,Q,Q
2023-03-15 21:22:25:591,0,-54.8009,1.90706,148.023,Q,Q
2023-03-15 21:22:25:601,0,-54.8036,1.90926,148.023,Q,Q
2023-03-15 21:22:25:610,0,-54.803,1.91103,148.025,Q,Q
2023-03-15 21:22:25:620,0,-54.8024,1.91114,148.026,Q,Q
2023-03-15 21:22:25:630,0,-54.806,1.91407,148.022,Q,Q
2023-03-15 21:22:25:640,0,-54.8045,1.91464,148.019,Q,Q
2023-03-15 21:22:25:650,0,-54.808,1.91655,148.018,Q,Q
2023-03-15 21:22:25:660,0,-54.8055,1.91694,148.018,Q,Q
2023-03-15 21:22:25:670,0,-54.8054,1.91707,148.019,Q,Q
2023-03-15 21:22:25:680,0,-54.8058,1.9163,148.017,Q,Q
2023-03-15 21:22:25:690,0,-54.809,1.91325,148.017,Q,Q
2023-03-15 21:22:25:700,0,-54.8036,1.91714,148.019,Q,Q
2023-03-15 21:22:25:710,0,-54.7979,1.92235,148.019,Q,Q
2023-03-15 21:22:25:720,0,-54.8124,1.91388,148.017,Q,Q
2023-03-15 21:22:25:730,0,-54.7905,1.92814,148.017,Q,Q
2023-03-15 21:22:25:740,0,-54.7832,1.9276,148.019,Q,Q
2023-03-15 21:22:25:751,0,-54.799,1.92336,148.017,Q,Q
2023-03-15 21:22:25:760,0,-54.7747,1.92917,148.019,Q,Q
2023-03-15 21:22:25:770,0,-54.7874,1.92337,148.019,Q,Q
2023-03-15 21:22:25:780,0,-54.7808,1.92336,148.022,Q,Q
2023-03-15 21:22:25:790,0,-54.7773,1.92006,148.022,Q,Q
2023-03-15 21:22:25:800,0,-54.7855,1.91631,148.02,Q,Q
2023-03-15 21:22:25:810,0,-54.7832,1.91656,148.019,Q,Q
2023-03-15 21:22:25:820,0,-54.789,1.91531,148.018,Q,Q
2023-03-15 21:22:25:830,0,-54.7901,1.91374,148.018,Q,Q
2023-03-15 21:22:25:840,0,-54.7949,1.90784,148.016,Q,Q
2023-03-15 21:22:25:850,0,-54.7912,1.9081,148.017,Q,Q
2023-03-15 21:22:25:860,0,-54.8085,1.89686,148.016,Q,Q
2023-03-15 21:22:25:870,0,-54.7958,1.90349,148.019,Q,Q
2023-03-15 21:22:25:880,0,-54.8025,1.90056,148.021,Q,Q
2023-03-15 21:22:25:891,0,-54.8104,1.89844,148.022,Q,Q
2023-03-15 21:22:25:900,0,-54.7945,1.90375,148.023,Q,Q
2023-03-15 21:22:25:910,0,-54.8079,1.89599,148.022,Q,Q
2023-03-15 21:22:25:920,0,-54.8022,1.89968,148.023,Q,Q
2023-03-15 21:22:25:930,0,-54.8051,1.89995,148.024,Q,Q
2023-03-15 21:22:25:940,0,-54.8048,1.8957,148.025,Q,Q
2023-03-15 21:22:25:950,0,-54.8031,1.89733,148.025,Q,Q
2023-03-15 21:22:25:960,0,-54.8014,1.89782,148.025,Q,Q
2023-03-15 21:22:25:970,0,-54.8027,1.89741,148.024,Q,Q
2023-03-15 21:22:25:980,0,-54.7997,1.89439,148.025,Q,Q
2023-03-15 21:22:25:990,0,-54.8001,1.89313,148.025,Q,Q
2023-03-15 21:22:26:0,0,-54.7995,1.88938,148.027,Q,Q
2023-03-15 21:22:26:11,0,-54.7962,1.88764,148.025,Q,Q
2023-03-15 21:22:26:20,0,-54.7935,1.88716,148.025,Q,Q
2023-03-15 21:22:26:30,0,-54.7938,1.8879,148.023,Q,Q
2023-03-15 21:22:26:40,0,-54.7915,1.88888,148.024,Q,Q
2023-03-15 21:22:26:50,0,-54.791,1.88906,148.021,Q,Q
2023-03-15 21:22:26:60,0,-54.7911,1.89047,148.021,Q,Q
2023-03-15 21:22:26:70,0,-54.7989,1.89099,148.022,Q,Q
2023-03-15 21:22:26:80,0,-54.7942,1.89207,148.024,Q,Q
2023-03-15 21:22:26:90,0,-54.7966,1.89011,148.025,Q,Q
2023-03-15 21:22:26:100,0,-54.7936,1.88995,148.025,Q,Q
2023-03-15 21:22:26:110,0,-54.7936,1.88766,148.027,Q,Q
2023-03-15 21:22:26:120,0,-54.7943,1.88797,148.028,Q,Q
2023-03-15 21:22:26:130,0,-54.7946,1.88697,148.029,Q,Q
2023-03-15 21:22:26:140,0,-54.7942,1.88599,148.029,Q,Q
2023-03-15 21:22:26:150,0,-54.7917,1.88458,148.028,Q,Q
2023-03-15 21:22:26:160,0,-54.7914,1.88622,148.028,Q,Q
2023-03-15 21:22:26:170,0,-54.7908,1.88598,148.03,Q,Q
2023-03-15 21:22:26:180,0,-54.791,1.88544,148.028,Q,Q
2023-03-15 21:22:26:190,0,-54.7914,1.88771,148.026,Q,Q
2023-03-15 21:22:26:200,0,-54.7893,1.88617,148.027,Q,Q
2023-03-15 21:22:26:210,0,-54.7865,1.88809,148.024,Q,Q
2023-03-15 21:22:26:220,0,-54.7857,1.88664,148.023,Q,Q
2023-03-15 21:22:26:230,0,-54.7853,1.88826,148.026,Q,Q
2023-03-15 21:22:26:240,0,-54.7862,1.88931,148.026,Q,Q
2023-03-15 21:22:26:250,0,-54.7831,1.8902,148.027,Q,Q
2023-03-15 21:22:26:260,0,-54.7825,1.88987,148.029,Q,Q
2023-03-15 21:22:26:270,0,-54.7849,1.89137,148.031,Q,Q
2023-03-15 21:22:26:280,0,-54.7882,1.89028,148.03,Q,Q
2023-03-15 21:22:26:290,0,-54.7884,1.89339,148.031,Q,Q
2023-03-15 21:22:26:300,0,-54.7906,1.89584,148.03,Q,Q
2023-03-15 21:22:26:310,0,-54.7886,1.89348,148.032,Q,Q
2023-03-15 21:22:26:320,0,-54.7877,1.89361,148.034,Q,Q
2023-03-15 21:22:26:330,0,-54.7895,1.89433,148.035,Q,Q
2023-03-15 21:22:26:340,0,-54.7872,1.89515,148.034,Q,Q
2023-03-15 21:22:26:350,0,-54.7886,1.89656,148.034,Q,Q
2023-03-15 21:22:26:360,0,-54.7895,1.89926,148.034,Q,Q
2023-03-15 21:22:26:370,0,-54.7903,1.89967,148.033,Q,Q
2023-03-15 21:22:26:380,0,-54.7905,1.90053,148.029,Q,Q
2023-03-15 21:22:26:390,0,-54.7923,1.90322,148.029,Q,Q
2023-03-15 21:22:26:400,0,-54.7921,1.90275,148.029,Q,Q
2023-03-15 21:22:26:410,0,-54.791,1.902,148.027,Q,Q
2023-03-15 21:22:26:420,0,-54.7932,1.9007,148.028,Q,Q
2023-03-15 21:22:26:430,0,-54.7951,1.89839,148.028,Q,Q
2023-03-15 21:22:26:440,0,-54.7947,1.89808,148.031,Q,Q
2023-03-15 21:22:26:450,0,-54.7913,1.89956,148.031,Q,Q
2023-03-15 21:22:26:460,0,-54.7982,1.88833,148.033,Q,Q
2023-03-15 21:22:26:470,0,-54.8237,1.88333,148.031,Q,Q
2023-03-15 21:22:26:480,0,-54.7723,1.90696,148.032,Q,Q
2023-03-15 21:22:26:490,0,-54.8355,1.87932,148.025,Q,Q
2023-03-15 21:22:26:500,0,-54.8135,1.89391,148.017,Q,Q
2023-03-15 21:22:26:510,0,-54.7874,1.9007,148.02,Q,Q
2023-03-15 21:22:26:520,0,-54.8164,1.89171,148.019,Q,Q
2023-03-15 21:22:26:530,0,-54.7859,1.9051,148.02,Q,Q
2023-03-15 21:22:26:540,0,-54.7932,1.9036,148.02,Q,Q
2023-03-15 21:22:26:550,0,-54.7935,1.90278,148.018,Q,Q
2023-03-15 21:22:26:560,0,-54.7865,1.90284,148.019,Q,Q
2023-03-15 21:22:26:570,0,-54.7809,1.90445,148.019,Q,Q
2023-03-15 21:22:26:580,0,-54.7825,1.90112,148.019,Q,Q
2023-03-15 21:22:26:590,0,-54.7878,1.90101,148.02,Q,Q
2023-03-15 21:22:26:600,0,-54.7805,1.90135,148.019,Q,Q
2023-03-15 21:22:26:610,0,-54.7903,1.8972,148.019,Q,Q
2023-03-15 21:22:26:620,0,-54.7807,1.89887,148.019,Q,Q
2023-03-15 21:22:26:630,0,-54.7848,1.89709,148.018,Q,Q
2023-03-15 21:22:26:640,0,-54.7818,1.8956,148.017,Q,Q
2023-03-15 21:22:26:650,0,-54.7765,1.89477,148.019,Q,Q
2023-03-15 21:22:26:660,0,-54.7819,1.89289,148.021,Q,Q
2023-03-15 21:22:26:670,0,-54.7804,1.89462,148.02,Q,Q
2023-03-15 21:22:26:680,0,-54.78,1.89391,148.02,Q,Q
2023-03-15 21:22:26:690,0,-54.7748,1.88949,148.02,Q,Q
2023-03-15 21:22:26:700,0,-54.777,1.89084,148.019,Q,Q
2023-03-15 21:22:26:710,0,-54.7766,1.89013,148.019,Q,Q
2023-03-15 21:22:26:720,0,-54.7741,1.89068,148.02,Q,Q
2023-03-15 21:22:26:730,0,-54.7761,1.8906,148.019,Q,Q
2023-03-15 21:22:26:740,0,-54.7769,1.88998,148.022,Q,Q
2023-03-15 21:22:26:750,0,-54.7768,1.88674,148.021,Q,Q
2023-03-15 21:22:26:760,0,-54.7741,1.88617,148.021,Q,Q
2023-03-15 21:22:26:770,0,-54.7763,1.88761,148.02,Q,Q
2023-03-15 21:22:26:780,0,-54.7715,1.88773,148.02,Q,Q
2023-03-15 21:22:26:790,0,-54.7713,1.8906,148.021,Q,Q
2023-03-15 21:22:26:800,0,-54.7684,1.8881,148.023,Q,Q
2023-03-15 21:22:26:810,0,-54.7696,1.88522,148.025,Q,Q
2023-03-15 21:22:26:820,0,-54.7695,1.88478,148.025,Q,Q
2023-03-15 21:22:26:830,0,-54.768,1.88709,148.028,Q,Q
2023-03-15 21:22:26:840,0,-54.7689,1.88825,148.027,Q,Q
2023-03-15 21:22:26:850,0,-54.7685,1.88442,148.028,Q,Q
2023-03-15 21:22:26:860,0,-54.7689,1.88591,148.028,Q,Q
2023-03-15 21:22:26:870,0,-54.7687,1.88824,148.028,Q,Q
2023-03-15 21:22:26:880,0,-54.7707,1.88888,148.028,Q,Q
2023-03-15 21:22:26:890,0,-54.7712,1.88826,148.029,Q,Q
2023-03-15 21:22:26:900,0,-54.7722,1.88595,148.031,Q,Q
2023-03-15 21:22:26:910,0,-54.7751,1.8861,148.032,Q,Q
2023-03-15 21:22:26:920,0,-54.7787,1.88526,148.031,Q,Q
2023-03-15 21:22:26:930,0,-54.7783,1.88601,148.03,Q,Q
2023-03-15 21:22:26:940,0,-54.7825,1.88827,148.03,Q,Q
2023-03-15 21:22:26:950,0,-54.7806,1.88972,148.029,Q,Q
2023-03-15 21:22:26:960,0,-54.7813,1.88981,148.031,Q,Q
2023-03-15 21:22:26:970,0,-54.7829,1.89041,148.03,Q,Q
2023-03-15 21:22:26:980,0,-54.7839,1.89085,148.033,Q,Q
2023-03-15 21:22:26:990,0,-54.785,1.89091,148.035,Q,Q
2023-03-15 21:22:27:0,0,-54.784,1.89033,148.034,Q,Q
2023-03-15 21:22:27:10,0,-54.7885,1.88805,148.037,Q,Q
2023-03-15 21:22:27:20,0,-54.7894,1.8888,148.039,Q,Q
2023-03-15 21:22:27:30,0,-54.7864,1.88774,148.034,Q,Q
2023-03-15 21:22:27:40,0,-54.7878,1.886,148.036,Q,Q
2023-03-15 21:22:27:50,0,-54.7872,1.88391,148.036,Q,Q
2023-03-15 21:22:27:60,0,-54.7878,1.88229,148.036,Q,Q
2023-03-15 21:22:27:70,0,-54.7895,1.88553,148.034,Q,Q
2023-03-15 21:22:27:80,0,-54.7883,1.88255,148.037,Q,Q
2023-03-15 21:22:27:90,0,-54.7893,1.88481,148.037,Q,Q
2023-03-15 21:22:27:100,0,-54.7897,1.88327,148.039,Q,Q
2023-03-15 21:22:27:110,0,-54.7913,1.88336,148.041,Q,Q
2023-03-15 21:22:27:120,0,-54.7932,1.88046,148.041,Q,Q
2023-03-15 21:22:27:130,0,-54.7919,1.88213,148.04,Q,Q
2023-03-15 21:22:27:140,0,-54.7924,1.88358,148.04,Q,Q
2023-03-15 21:22:27:150,0,-54.795,1.88167,148.039,Q,Q
2023-03-15 21:22:27:160,0,-54.7956,1.88258,148.04,Q,Q
2023-03-15 21:22:27:170,0,-54.7948,1.88646,148.04,Q,Q
2023-03-15 21:22:27:180,0,-54.7977,1.88708,148.039,Q,Q
2023-03-15 21:22:27:190,0,-54.7962,1.88904,148.039,Q,Q
2023-03-15 21:22:27:200,0,-54.7976,1.89052,148.04,Q,Q
2023-03-15 21:22:27:210,0,-54.7972,1.88931,148.037,Q,Q
2023-03-15 21:22:27:220,0,-54.7967,1.89133,148.037,Q,Q
2023-03-15 21:22:27:230,0,-54.7971,1.89074,148.036,Q,Q
2023-03-15 21:22:27:240,0,-54.7964,1.89052,148.039,Q,Q
2023-03-15 21:22:27:250,0,-54.7944,1.89249,148.042,Q,Q
2023-03-15 21:22:27:260,0,-54.7918,1.89109,148.044,Q,Q
2023-03-15 21:22:27:270,0,-54.791,1.89137,148.043,Q,Q
2023-03-15 21:22:27:280,0,-54.7918,1.89249,148.043,Q,Q
2023-03-15 21:22:27:290,0,-54.7915,1.89504,148.046,Q,Q
2023-03-15 21:22:27:300,0,-54.79,1.89425,148.049,Q,Q
2023-03-15 21:22:27:310,0,-54.7899,1.89511,148.051,Q,Q
2023-03-15 21:22:27:320,0,-54.788,1.89484,148.05,Q,Q
2023-03-15 21:22:27:330,0,-54.7869,1.89425,148.051,Q,Q
2023-03-15 21:22:27:340,0,-54.7873,1.89346,148.051,Q,Q
2023-03-15 21:22:27:350,0,-54.7885,1.89252,148.05,Q,Q
2023-03-15 21:22:27:360,0,-54.7885,1.89344,148.047,Q,Q
2023-03-15 21:22:27:370,0,-54.7866,1.89456,148.047,Q,Q
2023-03-15 21:22:27:380,0,-54.7837,1.89464,148.048,Q,Q
2023-03-15 21:22:27:390,0,-54.7823,1.89375,148.051,Q,Q
2023-03-15 21:22:27:400,0,-54.7805,1.89238,148.052,Q,Q
2023-03-15 21:22:27:410,0,-54.7796,1.89321,148.055,Q,Q
2023-03-15 21:22:27:420,0,-54.7779,1.89352,148.055,Q,Q
2023-03-15 21:22:27:430,0,-54.7783,1.89035,148.056,Q,Q
2023-03-15 21:22:27:440,0,-54.7785,1.89156,148.056,Q,Q
2023-03-15 21:22:27:450,0,-54.7811,1.89199,148.054,Q,Q
2023-03-15 21:22:27:460,0,-54.78,1.88986,148.053,Q,Q
2023-03-15 21:22:27:470,0,-54.7807,1.88774,148.051,Q,Q
2023-03-15 21:22:27:480,0,-54.7785,1.88944,148.048,Q,Q
2023-03-15 21:22:27:490,0,-54.7822,1.89001,148.049,Q,Q
2023-03-15 21:22:27:500,0,-54.7838,1.89211,148.05,Q,Q
2023-03-15 21:22:27:510,0,-54.7864,1.8969,148.052,Q,Q
2023-03-15 21:22:27:520,0,-54.7854,1.89445,148.051,Q,Q
2023-03-15 21:22:27:530,0,-54.7814,1.89206,148.049,Q,Q
2023-03-15 21:22:27:540,0,-54.7831,1.89244,148.049,Q,Q
2023-03-15 21:22:27:553,0,-54.7837,1.89153,148.049,Q,Q
2023-03-15 21:22:27:559,0,-54.7849,1.89127,148.051,Q,Q
2023-03-15 21:22:27:569,0,-54.7837,1.8919,148.054,Q,Q
2023-03-15 21:22:27:579,0,-54.7849,1.89088,148.053,Q,Q
2023-03-15 21:22:27:589,0,-54.7865,1.88916,148.052,Q,Q
2023-03-15 21:22:27:599,0,-54.7845,1.88997,148.049,Q,Q
2023-03-15 21:22:27:609,0,-54.7847,1.89104,148.05,Q,Q
2023-03-15 21:22:27:620,0,-54.783,1.89039,148.049,Q,Q
2023-03-15 21:22:27:630,0,-54.781,1.88838,148.049,Q,Q
2023-03-15 21:22:27:640,0,-54.7823,1.89012,148.053,Q,Q
2023-03-15 21:22:27:650,0,-54.7845,1.88884,148.053,Q,Q
2023-03-15 21:22:27:660,0,-54.7859,1.88819,148.053,Q,Q
2023-03-15 21:22:27:670,0,-54.7876,1.88819,148.056,Q,Q
2023-03-15 21:22:27:680,0,-54.7866,1.88756,148.057,Q,Q
2023-03-15 21:22:27:690,0,-54.7872,1.88438,148.058,Q,Q
2023-03-15 21:22:27:700,0,-54.7891,1.8816,148.059,Q,Q
2023-03-15 21:22:27:710,0,-54.7934,1.88264,148.058,Q,Q
2023-03-15 21:22:27:720,0,-54.793,1.88357,148.054,Q,Q
2023-03-15 21:22:27:730,0,-54.7936,1.88406,148.054,Q,Q
2023-03-15 21:22:27:740,0,-54.7949,1.88584,148.054,Q,Q
2023-03-15 21:22:27:750,0,-54.7929,1.88815,148.053,Q,Q
2023-03-15 21:22:27:760,0,-54.7906,1.88703,148.053,Q,Q
2023-03-15 21:22:27:770,0,-54.7914,1.88629,148.054,Q,Q
2023-03-15 21:22:27:780,0,-54.7891,1.88451,148.055,Q,Q
2023-03-15 21:22:27:790,0,-54.7864,1.88312,148.056,Q,Q
2023-03-15 21:22:27:800,0,-54.7846,1.88659,148.061,Q,Q
2023-03-15 21:22:27:810,0,-54.7851,1.8884,148.065,Q,Q
2023-03-15 21:22:27:820,0,-54.7858,1.89052,148.063,Q,Q
2023-03-15 21:22:27:830,0,-54.7827,1.8927,148.063,Q,Q
2023-03-15 21:22:27:840,0,-54.7835,1.89356,148.062,Q,Q
2023-03-15 21:22:27:850,0,-54.7833,1.89288,148.065,Q,Q
2023-03-15 21:22:27:860,0,-54.7837,1.89059,148.065,Q,Q
2023-03-15 21:22:27:870,0,-54.7818,1.88858,148.062,Q,Q
2023-03-15 21:22:27:880,0,-54.7801,1.8898,148.063,Q,Q
2023-03-15 21:22:27:890,0,-54.7817,1.88908,148.063,Q,Q
2023-03-15 21:22:27:900,0,-54.7809,1.89426,148.066,Q,Q
2023-03-15 21:22:27:910,0,-54.7835,1.89146,148.066,Q,Q
2023-03-15 21:22:27:920,0,-54.785,1.89103,148.065,Q,Q
2023-03-15 21:22:27:930,0,-54.7842,1.89122,148.065,Q,Q
2023-03-15 21:22:27:940,0,-54.7821,1.89191,148.066,Q,Q
2023-03-15 21:22:27:950,0,-54.784,1.89467,148.066,Q,Q
2023-03-15 21:22:27:960,0,-54.7855,1.89419,148.064,Q,Q
2023-03-15 21:22:27:970,0,-54.784,1.89251,148.065,Q,Q
2023-03-15 21:22:27:980,0,-54.7852,1.89102,148.067,Q,Q
2023-03-15 21:22:27:990,0,-54.7863,1.89009,148.071,Q,Q
2023-03-15 21:22:28:0,0,-54.7849,1.89186,148.075,Q,Q
2023-03-15 21:22:28:10,0,-54.7858,1.89088,148.076,Q,Q
2023-03-15 21:22:28:20,0,-54.7871,1.88915,148.071,Q,Q
2023-03-15 21:22:28:30,0,-54.7891,1.8888,148.071,Q,Q
2023-03-15 21:22:28:40,0,-54.7922,1.89082,148.069,Q,Q
2023-03-15 21:22:28:50,0,-54.7917,1.88882,148.067,Q,Q
2023-03-15 21:22:28:60,0,-54.7919,1.88959,148.066,Q,Q
2023-03-15 21:22:28:70,0,-54.7929,1.88988,148.065,Q,Q
2023-03-15 21:22:28:80,0,-54.7935,1.89148,148.065,Q,Q
2023-03-15 21:22:28:90,0,-54.7944,1.8919,148.066,Q,Q
2023-03-15 21:22:28:100,0,-54.7954,1.89659,148.065,Q,Q
2023-03-15 21:22:28:110,0,-54.7943,1.89388,148.067,Q,Q
2023-03-15 21:22:28:120,0,-54.7943,1.89543,148.068,Q,Q
2023-03-15 21:22:28:130,0,-54.7939,1.8955,148.069,Q,Q
2023-03-15 21:22:28:140,0,-54.7985,1.89874,148.072,Q,Q
2023-03-15 21:22:28:150,0,-54.8002,1.89805,148.07,Q,Q
2023-03-15 21:22:28:160,0,-54.8016,1.89892,148.069,Q,Q
2023-03-15 21:22:28:170,0,-54.8034,1.90039,148.069,Q,Q
2023-03-15 21:22:28:180,0,-54.8026,1.89672,148.067,Q,Q
2023-03-15 21:22:28:190,0,-54.8003,1.89758,148.069,Q,Q
2023-03-15 21:22:28:200,0,-54.8024,1.89847,148.071,Q,Q
2023-03-15 21:22:28:209,0,-54.8016,1.90155,148.071,Q,Q
2023-03-15 21:22:28:219,0,-54.8005,1.90246,148.074,Q,Q
2023-03-15 21:22:28:229,0,-54.7992,1.90505,148.072,Q,Q
2023-03-15 21:22:28:239,0,-54.8021,1.90593,148.072,Q,Q
2023-03-15 21:22:28:249,0,-54.799,1.90646,148.072,Q,Q
2023-03-15 21:22:28:259,0,-54.8001,1.90622,148.075,Q,Q
2023-03-15 21:22:28:269,0,-54.8005,1.90922,148.075,Q,Q
2023-03-15 21:22:28:280,0,-54.802,1.91094,148.076,Q,Q
2023-03-15 21:22:28:290,0,-54.8006,1.91119,148.076,Q,Q
2023-03-15 21:22:28:300,0,-54.8008,1.91236,148.075,Q,Q
2023-03-15 21:22:28:310,0,-54.8004,1.91471,148.073,Q,Q
2023-03-15 21:22:28:320,0,-54.8025,1.91429,148.074,Q,Q
2023-03-15 21:22:28:330,0,-54.8013,1.91423,148.074,Q,Q
2023-03-15 21:22:28:340,0,-54.7996,1.91481,148.072,Q,Q
2023-03-15 21:22:28:350,0,-54.8005,1.91432,148.07,Q,Q
2023-03-15 21:22:28:360,0,-54.8005,1.91652,148.073,Q,Q
2023-03-15 21:22:28:370,0,-54.8019,1.91746,148.078,Q,Q
2023-03-15 21:22:28:380,0,-54.8005,1.91672,148.078,Q,Q
2023-03-15 21:22:28:390,0,-54.798,1.91478,148.079,Q,Q
2023-03-15 21:22:28:400,0,-54.798,1.91666,148.074,Q,Q
2023-03-15 21:22:28:410,0,-54.7968,1.91822,148.075,Q,Q
2023-03-15 21:22:28:420,0,-54.7981,1.91671,148.075,Q,Q
2023-03-15 21:22:28:430,0,-54.798,1.91723,148.073,Q,Q
2023-03-15 21:22:28:440,0,-54.796,1.91752,148.075,Q,Q
2023-03-15 21:22:28:450,0,-54.7936,1.91854,148.074,Q,Q
2023-03-15 21:22:28:460,0,-54.7888,1.92089,148.074,Q,Q
2023-03-15 21:22:28:470,0,-54.7867,1.92083,148.072,Q,Q
2023-03-15 21:22:28:480,0,-54.7878,1.92071,148.072,Q,Q
2023-03-15 21:22:28:490,0,-54.7892,1.91968,148.071,Q,Q
2023-03-15 21:22:28:500,0,-54.79,1.92088,148.075,Q,Q
2023-03-15 21:22:28:510,0,-54.7867,1.92121,148.077,Q,Q
2023-03-15 21:22:28:520,0,-54.7859,1.92147,148.077,Q,Q
2023-03-15 21:22:28:530,0,-54.7872,1.92112,148.075,Q,Q
2023-03-15 21:22:28:540,0,-54.7869,1.92161,148.078,Q,Q
2023-03-15 21:22:28:550,0,-54.7871,1.92213,148.074,Q,Q
2023-03-15 21:22:28:560,0,-54.7863,1.92105,148.072,Q,Q
2023-03-15 21:22:28:570,0,-54.7858,1.92039,148.072,Q,Q
2023-03-15 21:22:28:580,0,-54.7893,1.92261,148.07,Q,Q
2023-03-15 21:22:28:590,0,-54.7878,1.92284,148.074,Q,Q
2023-03-15 21:22:28:600,0,-54.7885,1.92364,148.074,Q,Q
2023-03-15 21:22:28:610,0,-54.7875,1.92366,148.072,Q,Q
2023-03-15 21:22:28:620,0,-54.7852,1.92726,148.071,Q,Q
2023-03-15 21:22:28:630,0,-54.7837,1.92865,148.069,Q,Q
2023-03-15 21:22:28:640,0,-54.7856,1.92881,148.07,Q,Q
2023-03-15 21:22:28:650,0,-54.7857,1.92848,148.069,Q,Q
2023-03-15 21:22:28:660,0,-54.7874,1.92847,148.07,Q,Q
2023-03-15 21:22:28:670,0,-54.7903,1.92932,148.069,Q,Q
2023-03-15 21:22:28:680,0,-54.7894,1.93088,148.072,Q,Q
2023-03-15 21:22:28:690,0,-54.7875,1.92868,148.075,Q,Q
2023-03-15 21:22:28:700,0,-54.7876,1.92741,148.076,Q,Q
2023-03-15 21:22:28:710,0,-54.7865,1.92795,148.076,Q,Q
2023-03-15 21:22:28:720,0,-54.7893,1.92485,148.075,Q,Q
2023-03-15 21:22:28:730,0,-54.7893,1.92563,148.076,Q,Q
2023-03-15 21:22:28:740,0,-54.7892,1.92505,148.076,Q,Q
2023-03-15 21:22:28:750,0,-54.7924,1.92594,148.076,Q,Q
2023-03-15 21:22:28:760,0,-54.792,1.92553,148.075,Q,Q
2023-03-15 21:22:28:770,0,-54.7912,1.92556,148.077,Q,Q
2023-03-15 21:22:28:780,0,-54.7914,1.92446,148.079,Q,Q
2023-03-15 21:22:28:789,0,-54.7896,1.92136,148.079,Q,Q
2023-03-15 21:22:28:799,0,-54.7892,1.92356,148.079,Q,Q
2023-03-15 21:22:28:810,0,-54.7895,1.92226,148.079,Q,Q
2023-03-15 21:22:28:820,0,-54.7932,1.92427,148.081,Q,Q
2023-03-15 21:22:28:830,0,-54.7999,1.92454,148.082,Q,Q
2023-03-15 21:22:28:839,0,-54.7991,1.92555,148.083,Q,Q
2023-03-15 21:22:28:849,0,-54.799,1.92726,148.08,Q,Q
2023-03-15 21:22:28:859,0,-54.7995,1.92591,148.077,Q,Q
2023-03-15 21:22:28:869,0,-54.7983,1.92635,148.077,Q,Q
2023-03-15 21:22:28:879,0,-54.7985,1.92751,148.078,Q,Q
2023-03-15 21:22:28:890,0,-54.7985,1.92765,148.08,Q,Q
2023-03-15 21:22:28:900,0,-54.7993,1.92505,148.081,Q,Q
2023-03-15 21:22:28:910,0,-54.7977,1.92469,148.084,Q,Q
2023-03-15 21:22:28:919,0,-54.7991,1.92519,148.081,Q,Q
2023-03-15 21:22:28:930,0,-54.798,1.92369,148.08,Q,Q
2023-03-15 21:22:28:940,0,-54.7983,1.92414,148.079,Q,Q
2023-03-15 21:22:28:950,0,-54.8003,1.92459,148.079,Q,Q
2023-03-15 21:22:28:960,0,-54.8011,1.92681,148.08,Q,Q
2023-03-15 21:22:28:970,0,-54.801,1.92852,148.084,Q,Q
2023-03-15 21:22:28:980,0,-54.8014,1.92789,148.084,Q,Q
2023-03-15 21:22:28:990,0,-54.8034,1.92785,148.083,Q,Q
2023-03-15 21:22:29:0,0,-54.8013,1.92503,148.084,Q,Q
2023-03-15 21:22:29:10,0,-54.7984,1.92503,148.081,Q,Q
2023-03-15 21:22:29:20,0,-54.7966,1.92586,148.082,Q,Q
2023-03-15 21:22:29:30,0,-54.7946,1.9251,148.084,Q,Q
2023-03-15 21:22:29:40,0,-54.7923,1.92469,148.083,Q,Q
2023-03-15 21:22:29:50,0,-54.7931,1.92659,148.083,Q,Q
2023-03-15 21:22:29:60,0,-54.795,1.92594,148.081,Q,Q
2023-03-15 21:22:29:70,0,-54.7951,1.92611,148.08,Q,Q
2023-03-15 21:22:29:80,0,-54.7953,1.92369,148.078,Q,Q
2023-03-15 21:22:29:90,0,-54.7973,1.9273,148.079,Q,Q
2023-03-15 21:22:29:100,0,-54.798,1.92604,148.078,Q,Q
2023-03-15 21:22:29:110,0,-54.7966,1.92639,148.073,Q,Q
2023-03-15 21:22:29:120,0,-54.7952,1.92436,148.072,Q,Q
2023-03-15 21:22:29:130,0,-54.7947,1.92226,148.072,Q,Q
2023-03-15 21:22:29:140,0,-54.7918,1.92343,148.071,Q,Q
2023-03-15 21:22:29:150,0,-54.7895,1.9237,148.069,Q,Q
2023-03-15 21:22:29:160,0,-54.7912,1.9226,148.07,Q,Q
2023-03-15 21:22:29:170,0,-54.7924,1.9223,148.068,Q,Q
2023-03-15 21:22:29:180,0,-54.7911,1.92055,148.064,Q,Q
2023-03-15 21:22:29:190,0,-54.7909,1.92343,148.062,Q,Q
2023-03-15 21:22:29:200,0,-54.7921,1.92324,148.062,Q,Q
2023-03-15 21:22:29:210,0,-54.7914,1.92191,148.061,Q,Q
2023-03-15 21:22:29:220,0,-54.7914,1.92384,148.059,Q,Q
2023-03-15 21:22:29:230,0,-54.7925,1.9261,148.06,Q,Q
2023-03-15 21:22:29:240,0,-54.7925,1.92615,148.061,Q,Q
2023-03-15 21:22:29:250,0,-54.791,1.92672,148.06,Q,Q
2023-03-15 21:22:29:260,0,-54.7902,1.93173,148.064,Q,Q
2023-03-15 21:22:29:270,0,-54.7891,1.93232,148.065,Q,Q
2023-03-15 21:22:29:279,0,-54.7911,1.93161,148.068,Q,Q
2023-03-15 21:22:29:290,0,-54.7924,1.92908,148.068,Q,Q
2023-03-15 21:22:29:300,0,-54.7913,1.92919,148.065,Q,Q
2023-03-15 21:22:29:310,0,-54.7914,1.93031,148.063,Q,Q
2023-03-15 21:22:29:320,0,-54.7893,1.93318,148.064,Q,Q
2023-03-15 21:22:29:330,0,-54.7887,1.93464,148.067,Q,Q
2023-03-15 21:22:29:340,0,-54.792,1.93537,148.065,Q,Q
2023-03-15 21:22:29:350,0,-54.7912,1.9347,148.065,Q,Q
2023-03-15 21:22:29:360,0,-54.7904,1.93498,148.065,Q,Q
2023-03-15 21:22:29:370,0,-54.7904,1.93815,148.063,Q,Q
2023-03-15 21:22:29:380,0,-54.7918,1.93571,148.062,Q,Q
2023-03-15 21:22:29:390,0,-54.7928,1.93607,148.06,Q,Q
2023-03-15 21:22:29:400,0,-54.7923,1.93574,148.062,Q,Q
2023-03-15 21:22:29:410,0,-54.7912,1.93367,148.063,Q,Q
2023-03-15 21:22:29:420,0,-54.7921,1.93167,148.066,Q,Q
2023-03-15 21:22:29:430,0,-54.7935,1.93301,148.063,Q,Q
2023-03-15 21:22:29:440,0,-54.7943,1.93589,148.064,Q,Q
2023-03-15 21:22:29:450,0,-54.7961,1.93776,148.066,Q,Q
2023-03-15 21:22:29:460,0,-54.7951,1.93805,148.064,Q,Q
2023-03-15 21:22:29:470,0,-54.7969,1.93808,148.062,Q,Q
2023-03-15 21:22:29:480,0,-54.7983,1.94055,148.06,Q,Q
2023-03-15 21:22:29:490,0,-54.7985,1.94275,148.059,Q,Q
2023-03-15 21:22:29:499,0,-54.7973,1.94391,148.057,Q,Q
2023-03-15 21:22:29:510,0,-54.7972,1.94316,148.059,Q,Q
2023-03-15 21:22:29:520,0,-54.7947,1.94291,148.057,Q,Q
2023-03-15 21:22:29:530,0,-54.7966,1.9419,148.055,Q,Q
2023-03-15 21:22:29:540,0,-54.7976,1.94212,148.053,Q,Q
2023-03-15 21:22:29:550,0,-54.7983,1.94116,148.051,Q,Q
2023-03-15 21:22:29:560,0,-54.7964,1.9405,148.052,Q,Q
2023-03-15 21:22:29:570,0,-54.7981,1.94164,148.051,Q,Q
2023-03-15 21:22:29:580,0,-54.7986,1.9402,148.053,Q,Q
2023-03-15 21:22:29:590,0,-54.7989,1.9404,148.057,Q,Q
2023-03-15 21:22:29:599,0,-54.8003,1.94328,148.056,Q,Q
2023-03-15 21:22:29:610,0,-54.798,1.94306,148.056,Q,Q
2023-03-15 21:22:29:620,0,-54.7976,1.9431,148.053,Q,Q
2023-03-15 21:22:29:630,0,-54.7935,1.9448,148.05,Q,Q
2023-03-15 21:22:29:640,0,-54.7912,1.94596,148.047,Q,Q
2023-03-15 21:22:29:650,0,-54.793,1.9459,148.045,Q,Q
2023-03-15 21:22:29:660,0,-54.7869,1.94456,148.044,Q,Q
2023-03-15 21:22:29:670,0,-54.7872,1.94652,148.044,Q,Q
2023-03-15 21:22:29:680,0,-54.7876,1.9486,148.045,Q,Q
2023-03-15 21:22:29:690,0,-54.7893,1.94655,148.047,Q,Q
2023-03-15 21:22:29:700,0,-54.7889,1.945,148.049,Q,Q
2023-03-15 21:22:29:710,0,-54.7898,1.94268,148.051,Q,Q
2023-03-15 21:22:29:719,0,-54.7888,1.94364,148.05,Q,Q
2023-03-15 21:22:29:730,0,-54.788,1.94665,148.052,Q,Q
2023-03-15 21:22:29:740,0,-54.7896,1.94463,148.051,Q,Q
2023-03-15 21:22:29:750,0,-54.7902,1.9441,148.048,Q,Q
2023-03-15 21:22:29:760,0,-54.7889,1.94193,148.05,Q,Q
2023-03-15 21:22:29:770,0,-54.7896,1.94094,148.048,Q,Q
2023-03-15 21:22:29:780,0,-54.7921,1.94129,148.049,Q,Q
2023-03-15 21:22:29:790,0,-54.7934,1.94076,148.048,Q,Q
2023-03-15 21:22:29:800,0,-54.7932,1.93911,148.047,Q,Q
2023-03-15 21:22:29:810,0,-54.7922,1.94002,148.046,Q,Q
2023-03-15 21:22:29:820,0,-54.7897,1.94013,148.045,Q,Q
2023-03-15 21:22:29:830,0,-54.7904,1.94092,148.041,Q,Q
2023-03-15 21:22:29:840,0,-54.7895,1.94226,148.043,Q,Q
2023-03-15 21:22:29:850,0,-54.7865,1.94538,148.043,Q,Q
2023-03-15 21:22:29:860,0,-54.785,1.94406,148.044,Q,Q
2023-03-15 21:22:29:870,0,-54.7846,1.9408,148.045,Q,Q
2023-03-15 21:22:29:880,0,-54.7817,1.94108,148.044,Q,Q
2023-03-15 21:22:29:890,0,-54.7862,1.94061,148.044,Q,Q
2023-03-15 21:22:29:900,0,-54.7849,1.93882,148.045,Q,Q
2023-03-15 21:22:29:910,0,-54.7847,1.93802,148.043,Q,Q
2023-03-15 21:22:29:920,0,-54.7824,1.94079,148.042,Q,Q
2023-03-15 21:22:29:930,0,-54.7836,1.94088,148.044,Q,Q
2023-03-15 21:22:29:940,0,-54.7827,1.94001,148.044,Q,Q
2023-03-15 21:22:29:950,0,-54.783,1.94194,148.044,Q,Q
2023-03-15 21:22:29:960,0,-54.7833,1.94114,148.046,Q,Q
2023-03-15 21:22:29:970,0,-54.7816,1.93905,148.049,Q,Q
2023-03-15 21:22:29:980,0,-54.7824,1.94177,148.047,Q,Q
2023-03-15 21:22:29:989,0,-54.7844,1.93926,148.046,Q,Q
2023-03-15 21:22:30:0,0,-54.7833,1.93992,148.047,Q,Q
2023-03-15 21:22:30:10,0,-54.7856,1.93876,148.046,Q,Q
2023-03-15 21:22:30:20,0,-54.7879,1.9397,148.045,Q,Q
2023-03-15 21:22:30:30,0,-54.7876,1.93945,148.044,Q,Q
2023-03-15 21:22:30:40,0,-54.791,1.94128,148.042,Q,Q
2023-03-15 21:22:30:50,0,-54.7935,1.94128,148.042,Q,Q
2023-03-15 21:22:30:60,0,-54.7905,1.94353,148.039,Q,Q
2023-03-15 21:22:30:70,0,-54.7922,1.94242,148.038,Q,Q
2023-03-15 21:22:30:80,0,-54.7926,1.94201,148.039,Q,Q
2023-03-15 21:22:30:90,0,-54.7922,1.94174,148.038,Q,Q
2023-03-15 21:22:30:99,0,-54.7891,1.94022,148.037,Q,Q
2023-03-15 21:22:30:109,0,-54.789,1.94007,148.037,Q,Q
2023-03-15 21:22:30:119,0,-54.791,1.93797,148.037,Q,Q
2023-03-15 21:22:30:130,0,-54.792,1.94,148.036,Q,Q
2023-03-15 21:22:30:140,0,-54.793,1.94239,148.035,Q,Q
2023-03-15 21:22:30:149,0,-54.7944,1.9444,148.034,Q,Q
2023-03-15 21:22:30:159,0,-54.7927,1.94538,148.037,Q,Q
2023-03-15 21:22:30:169,0,-54.7949,1.94532,148.037,Q,Q
2023-03-15 21:22:30:180,0,-54.796,1.94565,148.036,Q,Q
2023-03-15 21:22:30:190,0,-54.7949,1.9459,148.038,Q,Q
2023-03-15 21:22:30:200,0,-54.7948,1.94778,148.037,Q,Q
2023-03-15 21:22:30:210,0,-54.7952,1.94617,148.035,Q,Q
2023-03-15 21:22:30:220,0,-54.7943,1.94565,148.035,Q,Q
2023-03-15 21:22:30:230,0,-54.7962,1.94439,148.033,Q,Q
2023-03-15 21:22:30:240,0,-54.7953,1.94238,148.033,Q,Q
2023-03-15 21:22:30:250,0,-54.7939,1.93991,148.033,Q,Q
2023-03-15 21:22:30:260,0,-54.796,1.93907,148.034,Q,Q
2023-03-15 21:22:30:270,0,-54.7939,1.93984,148.035,Q,Q
2023-03-15 21:22:30:280,0,-54.7947,1.94029,148.033,Q,Q
2023-03-15 21:22:30:290,0,-54.7982,1.93819,148.035,Q,Q
2023-03-15 21:22:30:300,0,-54.7973,1.93913,148.037,Q,Q
2023-03-15 21:22:30:310,0,-54.7971,1.93999,148.036,Q,Q
2023-03-15 21:22:30:320,0,-54.7965,1.94079,148.036,Q,Q
2023-03-15 21:22:30:330,0,-54.797,1.94025,148.036,Q,Q
2023-03-15 21:22:30:340,0,-54.7981,1.93956,148.037,Q,Q
2023-03-15 21:22:30:350,0,-54.8004,1.93928,148.035,Q,Q
2023-03-15 21:22:30:360,0,-54.7986,1.93911,148.036,Q,Q
2023-03-15 21:22:30:369,0,-54.7978,1.93621,148.033,Q,Q
2023-03-15 21:22:30:380,0,-54.7978,1.93683,148.037,Q,Q
2023-03-15 21:22:30:390,0,-54.7986,1.93375,148.037,Q,Q
2023-03-15 21:22:30:400,0,-54.7995,1.93667,148.036,Q,Q
2023-03-15 21:22:30:410,0,-54.8001,1.93431,148.034,Q,Q
2023-03-15 21:22:30:419,0,-54.7987,1.9332,148.034,Q,Q
2023-03-15 21:22:30:429,0,-54.7985,1.93342,148.032,Q,Q
2023-03-15 21:22:30:439,0,-54.8005,1.93004,148.034,Q,Q
2023-03-15 21:22:30:449,0,-54.7996,1.92899,148.036,Q,Q
2023-03-15 21:22:30:460,0,-54.7955,1.93034,148.038,Q,Q
2023-03-15 21:22:30:470,0,-54.796,1.93371,148.039,Q,Q
2023-03-15 21:22:30:480,0,-54.7941,1.93508,148.041,Q,Q
2023-03-15 21:22:30:489,0,-54.7946,1.93524,148.042,Q,Q
2023-03-15 21:22:30:499,0,-54.7934,1.94095,148.042,Q,Q
2023-03-15 21:22:30:509,0,-54.7916,1.93881,148.04,Q,Q
2023-03-15 21:22:30:519,0,-54.7875,1.94367,148.041,Q,Q
2023-03-15 21:22:30:529,0,-54.789,1.94479,148.042,Q,Q
2023-03-15 21:22:30:539,0,-54.7875,1.94554,148.041,Q,Q
2023-03-15 21:22:30:549,0,-54.7871,1.9445,148.04,Q,Q
2023-03-15 21:22:30:559,0,-54.7847,1.94481,148.04,Q,Q
2023-03-15 21:22:30:569,0,-54.7854,1.94206,148.04,Q,Q
2023-03-15 21:22:30:579,0,-54.7861,1.94254,148.037,Q,Q
2023-03-15 21:22:30:589,0,-54.7891,1.94238,148.04,Q,Q
2023-03-15 21:22:30:599,0,-54.7917,1.94509,148.039,Q,Q
2023-03-15 21:22:30:609,0,-54.7907,1.9444,148.038,Q,Q
2023-03-15 21:22:30:619,0,-54.7899,1.94552,148.04,Q,Q
2023-03-15 21:22:30:629,0,-54.788,1.94298,148.04,Q,Q
2023-03-15 21:22:30:639,0,-54.7908,1.94011,148.04,Q,Q
2023-03-15 21:22:30:649,0,-54.7899,1.94074,148.038,Q,Q
2023-03-15 21:22:30:659,0,-54.7912,1.94188,148.036,Q,Q
2023-03-15 21:22:30:669,0,-54.7919,1.94441,148.033,Q,Q
2023-03-15 21:22:30:679,0,-54.7908,1.94496,148.032,Q,Q
2023-03-15 21:22:30:689,0,-54.7915,1.94442,148.029,Q,Q
2023-03-15 21:22:30:699,0,-54.7909,1.94269,148.027,Q,Q
2023-03-15 21:22:30:709,0,-54.794,1.94282,148.029,Q,Q
2023-03-15 21:22:30:719,0,-54.797,1.94076,148.03,Q,Q
2023-03-15 21:22:30:729,0,-54.7983,1.94342,148.033,Q,Q
2023-03-15 21:22:30:739,0,-54.8011,1.94135,148.036,Q,Q
2023-03-15 21:22:30:749,0,-54.8043,1.94286,148.038,Q,Q
2023-03-15 21:22:30:759,0,-54.8057,1.94188,148.039,Q,Q
2023-03-15 21:22:30:769,0,-54.8049,1.94133,148.038,Q,Q
2023-03-15 21:22:30:779,0,-54.8023,1.9421,148.038,Q,Q
2023-03-15 21:22:30:789,0,-54.8022,1.94022,148.04,Q,Q
2023-03-15 21:22:30:799,0,-54.8034,1.93977,148.042,Q,Q
2023-03-15 21:22:30:809,0,-54.8031,1.93769,148.043,Q,Q
2023-03-15 21:22:30:819,0,-54.8053,1.93695,148.043,Q,Q
2023-03-15 21:22:30:829,0,-54.8048,1.93398,148.041,Q,Q
2023-03-15 21:22:30:839,0,-54.8036,1.93569,148.043,Q,Q
2023-03-15 21:22:30:850,0,-54.8019,1.93745,148.046,Q,Q
2023-03-15 21:22:30:859,0,-54.8021,1.93788,148.045,Q,Q
2023-03-15 21:22:30:869,0,-54.8023,1.93712,148.047,Q,Q
2023-03-15 21:22:30:879,0,-54.8038,1.93677,148.044,Q,Q
2023-03-15 21:22:30:889,0,-54.8048,1.93931,148.044,Q,Q
2023-03-15 21:22:30:899,0,-54.8076,1.94194,148.041,Q,Q
2023-03-15 21:22:30:909,0,-54.8074,1.94141,148.04,Q,Q
2023-03-15 21:22:30:919,0,-54.8082,1.94255,148.039,Q,Q
2023-03-15 21:22:30:930,0,-54.8081,1.93941,148.041,Q,Q
2023-03-15 21:22:30:939,0,-54.8093,1.93761,148.042,Q,Q
2023-03-15 21:22:30:949,0,-54.8088,1.93854,148.043,Q,Q
2023-03-15 21:22:30:959,0,-54.8081,1.93674,148.043,Q,Q
2023-03-15 21:22:30:969,0,-54.8052,1.94011,148.043,Q,Q
2023-03-15 21:22:30:979,0,-54.806,1.94128,148.043,Q,Q
2023-03-15 21:22:30:989,0,-54.8052,1.94173,148.041,Q,Q
2023-03-15 21:22:30:999,0,-54.8055,1.93818,148.044,Q,Q
2023-03-15 21:22:31:9,0,-54.8057,1.94067,148.045,Q,Q
2023-03-15 21:22:31:19,0,-54.8072,1.94102,148.043,Q,Q
2023-03-15 21:22:31:29,0,-54.8049,1.94151,148.04,Q,Q
2023-03-15 21:22:31:39,0,-54.8034,1.93962,148.041,Q,Q
2023-03-15 21:22:31:49,0,-54.8054,1.9412,148.04,Q,Q
2023-03-15 21:22:31:59,0,-54.8055,1.94074,148.039,Q,Q
2023-03-15 21:22:31:69,0,-54.8033,1.94167,148.037,Q,Q
2023-03-15 21:22:31:79,0,-54.8025,1.94301,148.036,Q,Q
2023-03-15 21:22:31:89,0,-54.8039,1.94617,148.038,Q,Q
2023-03-15 21:22:31:99,0,-54.8084,1.94514,148.039,Q,Q
2023-03-15 21:22:31:110,0,-54.8076,1.94563,148.039,Q,Q
2023-03-15 21:22:31:119,0,-54.8088,1.94497,148.04,Q,Q
2023-03-15 21:22:31:129,0,-54.807,1.94438,148.04,Q,Q
2023-03-15 21:22:31:139,0,-54.8065,1.9459,148.043,Q,Q
2023-03-15 21:22:31:149,0,-54.8054,1.94446,148.043,Q,Q
2023-03-15 21:22:31:159,0,-54.8028,1.9471,148.041,Q,Q
2023-03-15 21:22:31:169,0,-54.8055,1.94508,148.042,Q,Q
2023-03-15 21:22:31:179,0,-54.8049,1.94661,148.044,Q,Q
2023-03-15 21:22:31:189,0,-54.8075,1.94546,148.043,Q,Q
2023-03-15 21:22:31:199,0,-54.8082,1.946,148.042,Q,Q
2023-03-15 21:22:31:209,0,-54.8085,1.94787,148.04,Q,Q
2023-03-15 21:22:31:219,0,-54.8091,1.94602,148.04,Q,Q
2023-03-15 21:22:31:229,0,-54.8103,1.94614,148.042,Q,Q
2023-03-15 21:22:31:239,0,-54.8087,1.9445,148.039,Q,Q
2023-03-15 21:22:31:249,0,-54.8106,1.94615,148.04,Q,Q
2023-03-15 21:22:31:259,0,-54.8093,1.94774,148.04,Q,Q
2023-03-15 21:22:31:269,0,-54.809,1.94543,148.042,Q,Q
2023-03-15 21:22:31:279,0,-54.8088,1.94484,148.045,Q,Q
2023-03-15 21:22:31:289,0,-54.8059,1.94367,148.048,Q,Q
2023-03-15 21:22:31:299,0,-54.8037,1.94178,148.052,Q,Q
2023-03-15 21:22:31:309,0,-54.8008,1.94364,148.05,Q,Q
2023-03-15 21:22:31:319,0,-54.8011,1.94186,148.05,Q,Q
2023-03-15 21:22:31:330,0,-54.8022,1.94418,148.048,Q,Q
2023-03-15 21:22:31:339,0,-54.8038,1.94355,148.048,Q,Q
2023-03-15 21:22:31:349,0,-54.8013,1.94256,148.05,Q,Q
2023-03-15 21:22:31:359,0,-54.7987,1.94417,148.05,Q,Q
2023-03-15 21:22:31:369,0,-54.7987,1.94219,148.052,Q,Q
2023-03-15 21:22:31:379,0,-54.8015,1.94485,148.054,Q,Q
2023-03-15 21:22:31:389,0,-54.7986,1.94268,148.054,Q,Q
2023-03-15 21:22:31:399,0,-54.8003,1.94468,148.057,Q,Q
2023-03-15 21:22:31:409,0,-54.8015,1.94061,148.057,Q,Q
2023-03-15 21:22:31:419,0,-54.8039,1.94183,148.053,Q,Q
2023-03-15 21:22:31:429,0,-54.8059,1.94467,148.053,Q,Q
2023-03-15 21:22:31:439,0,-54.8067,1.94266,148.052,Q,Q
2023-03-15 21:22:31:449,0,-54.8043,1.94251,148.053,Q,Q
2023-03-15 21:22:31:459,0,-54.8026,1.94229,148.052,Q,Q
2023-03-15 21:22:31:469,0,-54.8065,1.94236,148.054,Q,Q
2023-03-15 21:22:31:479,0,-54.8092,1.94291,148.055,Q,Q
2023-03-15 21:22:31:489,0,-54.8079,1.94254,148.053,Q,Q
2023-03-15 21:22:31:499,0,-54.8069,1.94277,148.051,Q,Q
2023-03-15 21:22:31:509,0,-54.8069,1.94499,148.051,Q,Q
2023-03-15 21:22:31:519,0,-54.8066,1.94386,148.051,Q,Q
2023-03-15 21:22:31:529,0,-54.805,1.94132,148.05,Q,Q
2023-03-15 21:22:31:539,0,-54.8036,1.94102,148.052,Q,Q
2023-03-15 21:22:31:549,0,-54.8086,1.94153,148.052,Q,Q
2023-03-15 21:22:31:559,0,-54.809,1.94007,148.051,Q,Q
2023-03-15 21:22:31:569,0,-54.8111,1.94049,148.049,Q,Q
2023-03-15 21:22:31:579,0,-54.8104,1.93687,148.048,Q,Q
2023-03-15 21:22:31:589,0,-54.8111,1.93815,148.05,Q,Q
2023-03-15 21:22:31:599,0,-54.8092,1.93848,148.049,Q,Q
2023-03-15 21:22:31:609,0,-54.8066,1.93992,148.048,Q,Q
2023-03-15 21:22:31:619,0,-54.8078,1.93591,148.048,Q,Q
2023-03-15 21:22:31:629,0,-54.8068,1.937,148.047,Q,Q
2023-03-15 21:22:31:639,0,-54.8076,1.93557,148.048,Q,Q
2023-03-15 21:22:31:649,0,-54.8068,1.93802,148.049,Q,Q
2023-03-15 21:22:31:659,0,-54.8086,1.93479,148.05,Q,Q
2023-03-15 21:22:31:669,0,-54.8086,1.93192,148.051,Q,Q
2023-03-15 21:22:31:679,0,-54.8103,1.93017,148.051,Q,Q
2023-03-15 21:22:31:689,0,-54.8075,1.92846,148.05,Q,Q
2023-03-15 21:22:31:699,0,-54.8061,1.92641,148.049,Q,Q
2023-03-15 21:22:31:709,0,-54.8051,1.92301,148.047,Q,Q
2023-03-15 21:22:31:719,0,-54.8059,1.92315,148.045,Q,Q
2023-03-15 21:22:31:729,0,-54.8055,1.92626,148.042,Q,Q
2023-03-15 21:22:31:739,0,-54.8053,1.92611,148.043,Q,Q
2023-03-15 21:22:31:749,0,-54.8037,1.9271,148.042,Q,Q
2023-03-15 21:22:31:759,0,-54.8024,1.92628,148.042,Q,Q
2023-03-15 21:22:31:769,0,-54.8018,1.92899,148.042,Q,Q
2023-03-15 21:22:31:779,0,-54.7993,1.93047,148.042,Q,Q
2023-03-15 21:22:31:789,0,-54.7993,1.93093,148.041,Q,Q
2023-03-15 21:22:31:799,0,-54.8003,1.93044,148.041,Q,Q
2023-03-15 21:22:31:809,0,-54.7991,1.93195,148.044,Q,Q
2023-03-15 21:22:31:819,0,-54.7967,1.93131,148.043,Q,Q
2023-03-15 21:22:31:829,0,-54.7954,1.93106,148.045,Q,Q
2023-03-15 21:22:31:839,0,-54.7957,1.92998,148.047,Q,Q
2023-03-15 21:22:31:849,0,-54.7942,1.92932,148.047,Q,Q
2023-03-15 21:22:31:859,0,-54.7935,1.93083,148.05,Q,Q
2023-03-15 21:22:31:869,0,-54.7952,1.92811,148.052,Q,Q
2023-03-15 21:22:31:879,0,-54.7947,1.92755,148.054,Q,Q
2023-03-15 21:22:31:889,0,-54.795,1.92787,148.055,Q,Q
2023-03-15 21:22:31:899,0,-54.7946,1.92895,148.057,Q,Q
2023-03-15 21:22:31:909,0,-54.7969,1.93027,148.057,Q,Q
2023-03-15 21:22:31:919,0,-54.7978,1.92519,148.056,Q,Q
2023-03-15 21:22:31:929,0,-54.7993,1.92268,148.057,Q,Q
2023-03-15 21:22:31:939,0,-54.8008,1.92005,148.056,Q,Q
2023-03-15 21:22:31:949,0,-54.8015,1.919,148.058,Q,Q
2023-03-15 21:22:31:959,0,-54.803,1.92039,148.053,Q,Q
2023-03-15 21:22:31:969,0,-54.8005,1.92048,148.054,Q,Q
2023-03-15 21:22:31:979,0,-54.798,1.92185,148.053,Q,Q
2023-03-15 21:22:31:989,0,-54.7954,1.92181,148.055,Q,Q
2023-03-15 21:22:31:999,0,-54.7931,1.92315,148.059,Q,Q
2023-03-15 21:22:32:9,0,-54.792,1.9275,148.06,Q,Q
2023-03-15 21:22:32:19,0,-54.792,1.92459,148.063,Q,Q
2023-03-15 21:22:32:29,0,-54.7909,1.92626,148.063,Q,Q
2023-03-15 21:22:32:39,0,-54.7934,1.92767,148.062,Q,Q
2023-03-15 21:22:32:49,0,-54.7945,1.92879,148.062,Q,Q
2023-03-15 21:22:32:59,0,-54.7941,1.92943,148.064,Q,Q
2023-03-15 21:22:32:69,0,-54.7931,1.92847,148.065,Q,Q
2023-03-15 21:22:32:79,0,-54.7925,1.92964,148.066,Q,Q
2023-03-15 21:22:32:89,0,-54.7941,1.92689,148.067,Q,Q
2023-03-15 21:22:32:99,0,-54.7955,1.92511,148.065,Q,Q
2023-03-15 21:22:32:109,0,-54.7986,1.92848,148.065,Q,Q
2023-03-15 21:22:32:119,0,-54.7995,1.92892,148.066,Q,Q
2023-03-15 21:22:32:129,0,-54.8005,1.92821,148.063,Q,Q
2023-03-15 21:22:32:139,0,-54.8006,1.93104,148.063,Q,Q
2023-03-15 21:22:32:149,0,-54.8018,1.9312,148.061,Q,Q
2023-03-15 21:22:32:159,0,-54.8019,1.93048,148.061,Q,Q
2023-03-15 21:22:32:169,0,-54.8056,1.92885,148.061,Q,Q
2023-03-15 21:22:32:179,0,-54.806,1.93087,148.06,Q,Q
2023-03-15 21:22:32:189,0,-54.8051,1.93186,148.059,Q,Q
2023-03-15 21:22:32:199,0,-54.8019,1.93173,148.059,Q,Q
2023-03-15 21:22:32:209,0,-54.7995,1.93205,148.058,Q,Q
2023-03-15 21:22:32:219,0,-54.7993,1.93284,148.055,Q,Q
2023-03-15 21:22:32:229,0,-54.7991,1.93406,148.055,Q,Q
2023-03-15 21:22:32:239,0,-54.7989,1.93248,148.055,Q,Q
2023-03-15 21:22:32:249,0,-54.8014,1.93028,148.054,Q,Q
2023-03-15 21:22:32:259,0,-54.8005,1.931,148.05,Q,Q
2023-03-15 21:22:32:269,0,-54.7983,1.93139,148.052,Q,Q
2023-03-15 21:22:32:279,0,-54.7988,1.92867,148.05,Q,Q
2023-03-15 21:22:32:289,0,-54.8011,1.93271,148.048,Q,Q
2023-03-15 21:22:32:299,0,-54.7989,1.93196,148.048,Q,Q
2023-03-15 21:22:32:309,0,-54.7984,1.93189,148.048,Q,Q
2023-03-15 21:22:32:319,0,-54.7935,1.9327,148.045,Q,Q
2023-03-15 21:22:32:329,0,-54.794,1.93296,148.046,Q,Q
2023-03-15 21:22:32:339,0,-54.7924,1.93216,148.046,Q,Q
2023-03-15 21:22:32:349,0,-54.789,1.93264,148.044,Q,Q
2023-03-15 21:22:32:359,0,-54.7874,1.93321,148.044,Q,Q
2023-03-15 21:22:32:369,0,-54.7839,1.93213,148.041,Q,Q
2023-03-15 21:22:32:379,0,-54.7841,1.92932,148.042,Q,Q
2023-03-15 21:22:32:389,0,-54.7873,1.92998,148.044,Q,Q
2023-03-15 21:22:32:399,0,-54.7881,1.93511,148.044,Q,Q
2023-03-15 21:22:32:409,0,-54.7867,1.93555,148.044,Q,Q
2023-03-15 21:22:32:419,0,-54.7859,1.9345,148.046,Q,Q
2023-03-15 21:22:32:429,0,-54.7842,1.93422,148.05,Q,Q
2023-03-15 21:22:32:439,0,-54.7859,1.93343,148.051,Q,Q
2023-03-15 21:22:32:449,0,-54.787,1.93504,148.053,Q,Q
2023-03-15 21:22:32:459,0,-54.7863,1.93754,148.054,Q,Q
2023-03-15 21:22:32:469,0,-54.7876,1.93656,148.056,Q,Q
2023-03-15 21:22:32:479,0,-54.7864,1.93593,148.056,Q,Q
2023-03-15 21:22:32:489,0,-54.7833,1.93545,148.056,Q,Q
2023-03-15 21:22:32:499,0,-54.7847,1.93459,148.057,Q,Q
2023-03-15 21:22:32:509,0,-54.7832,1.9342,148.059,Q,Q
2023-03-15 21:22:32:519,0,-54.7809,1.93336,148.058,Q,Q
2023-03-15 21:22:32:529,0,-54.7823,1.93226,148.058,Q,Q
2023-03-15 21:22:32:539,0,-54.7805,1.93454,148.059,Q,Q
2023-03-15 21:22:32:549,0,-54.7799,1.93545,148.057,Q,Q
2023-03-15 21:22:32:559,0,-54.783,1.93615,148.056,Q,Q
2023-03-15 21:22:32:569,0,-54.7841,1.93529,148.055,Q,Q
2023-03-15 21:22:32:579,0,-54.7828,1.93706,148.057,Q,Q
2023-03-15 21:22:32:589,0,-54.7809,1.93856,148.057,Q,Q
2023-03-15 21:22:32:599,0,-54.7814,1.93877,148.06,Q,Q
2023-03-15 21:22:32:609,0,-54.7794,1.93878,148.062,Q,Q
2023-03-15 21:22:32:619,0,-54.7784,1.93732,148.058,Q,Q
2023-03-15 21:22:32:629,0,-54.7756,1.94172,148.057,Q,Q
2023-03-15 21:22:32:639,0,-54.7753,1.9405,148.055,Q,Q
2023-03-15 21:22:32:649,0,-54.7764,1.94341,148.058,Q,Q
2023-03-15 21:22:32:659,0,-54.7753,1.94183,148.054,Q,Q
2023-03-15 21:22:32:669,0,-54.7774,1.9414,148.052,Q,Q
2023-03-15 21:22:32:679,0,-54.7774,1.9429,148.052,Q,Q
2023-03-15 21:22:32:689,0,-54.7767,1.94243,148.052,Q,Q
2023-03-15 21:22:32:699,0,-54.7763,1.94122,148.052,Q,Q
2023-03-15 21:22:32:709,0,-54.7751,1.93959,148.055,Q,Q
2023-03-15 21:22:32:719,0,-54.7736,1.93945,148.054,Q,Q
2023-03-15 21:22:32:729,0,-54.773,1.93774,148.051,Q,Q
2023-03-15 21:22:32:739,0,-54.7737,1.93769,148.053,Q,Q
2023-03-15 21:22:32:749,0,-54.7734,1.93666,148.054,Q,Q
2023-03-15 21:22:32:759,0,-54.7766,1.93635,148.055,Q,Q
2023-03-15 21:22:32:769,0,-54.7764,1.93378,148.051,Q,Q
2023-03-15 21:22:32:779,0,-54.7741,1.93541,148.05,Q,Q
2023-03-15 21:22:32:789,0,-54.7735,1.93469,148.051,Q,Q
2023-03-15 21:22:32:799,0,-54.7734,1.93435,148.051,Q,Q
2023-03-15 21:22:32:809,0,-54.7731,1.93269,148.051,Q,Q
2023-03-15 21:22:32:819,0,-54.7727,1.9333,148.049,Q,Q
2023-03-15 21:22:32:829,0,-54.7715,1.92934,148.047,Q,Q
2023-03-15 21:22:32:839,0,-54.7696,1.92567,148.049,Q,Q
2023-03-15 21:22:32:849,0,-54.7719,1.92665,148.05,Q,Q
2023-03-15 21:22:32:859,0,-54.7713,1.92811,148.048,Q,Q
2023-03-15 21:22:32:869,0,-54.7692,1.92645,148.049,Q,Q
2023-03-15 21:22:32:879,0,-54.7701,1.92792,148.047,Q,Q
2023-03-15 21:22:32:889,0,-54.7696,1.92944,148.049,Q,Q
2023-03-15 21:22:32:899,0,-54.7693,1.92897,148.048,Q,Q
2023-03-15 21:22:32:909,0,-54.768,1.9262,148.049,Q,Q
2023-03-15 21:22:32:919,0,-54.7673,1.92802,148.048,Q,Q
2023-03-15 21:22:32:929,0,-54.7651,1.92389,148.047,Q,Q
2023-03-15 21:22:32:939,0,-54.7652,1.9227,148.048,Q,Q
2023-03-15 21:22:32:949,0,-54.766,1.92537,148.05,Q,Q
2023-03-15 21:22:32:959,0,-54.766,1.92553,148.051,Q,Q
2023-03-15 21:22:32:969,0,-54.7658,1.92413,148.049,Q,Q
2023-03-15 21:22:32:979,0,-54.7665,1.92755,148.046,Q,Q
2023-03-15 21:22:32:989,0,-54.765,1.92451,148.045,Q,Q
2023-03-15 21:22:32:999,0,-54.7605,1.92416,148.042,Q,Q
2023-03-15 21:22:33:9,0,-54.7609,1.92573,148.041,Q,Q
2023-03-15 21:22:33:19,0,-54.7631,1.92567,148.04,Q,Q
2023-03-15 21:22:33:29,0,-54.762,1.92602,148.039,Q,Q
2023-03-15 21:22:33:39,0,-54.7601,1.92556,148.038,Q,Q
2023-03-15 21:22:33:49,0,-54.762,1.92573,148.039,Q,Q
2023-03-15 21:22:33:59,0,-54.7603,1.92717,148.042,Q,Q
2023-03-15 21:22:33:69,0,-54.7627,1.92794,148.042,Q,Q
2023-03-15 21:22:33:79,0,-54.7604,1.92916,148.043,Q,Q
2023-03-15 21:22:33:89,0,-54.7608,1.93042,148.047,Q,Q
2023-03-15 21:22:33:99,0,-54.7598,1.92735,148.044,Q,Q
2023-03-15 21:22:33:109,0,-54.7637,1.92867,148.044,Q,Q
2023-03-15 21:22:33:119,0,-54.7668,1.926,148.042,Q,Q
2023-03-15 21:22:33:129,0,-54.7687,1.92633,148.046,Q,Q
2023-03-15 21:22:33:139,0,-54.7668,1.92624,148.045,Q,Q
2023-03-15 21:22:33:149,0,-54.766,1.9258,148.044,Q,Q
2023-03-15 21:22:33:159,0,-54.7668,1.92426,148.044,Q,Q
2023-03-15 21:22:33:169,0,-54.7673,1.92256,148.042,Q,Q
2023-03-15 21:22:33:179,0,-54.7625,1.92605,148.042,Q,Q
2023-03-15 21:22:33:189,0,-54.7606,1.92568,148.044,Q,Q
2023-03-15 21:22:33:199,0,-54.7579,1.92392,148.046,Q,Q
2023-03-15 21:22:33:209,0,-54.7564,1.92523,148.048,Q,Q
2023-03-15 21:22:33:219,0,-54.7589,1.92344,148.047,Q,Q
2023-03-15 21:22:33:229,0,-54.7588,1.92397,148.048,Q,Q
2023-03-15 21:22:33:239,0,-54.7628,1.92635,148.046,Q,Q
2023-03-15 21:22:33:249,0,-54.7576,1.92794,148.047,Q,Q
2023-03-15 21:22:33:259,0,-54.7585,1.92915,148.047,Q,Q
2023-03-15 21:22:33:269,0,-54.7582,1.92839,148.047,Q,Q
2023-03-15 21:22:33:279,0,-54.7565,1.92692,148.046,Q,Q
2023-03-15 21:22:33:289,0,-54.7554,1.92675,148.049,Q,Q
2023-03-15 21:22:33:299,0,-54.7552,1.92764,148.048,Q,Q
2023-03-15 21:22:33:309,0,-54.7558,1.92809,148.047,Q,Q
2023-03-15 21:22:33:319,0,-54.756,1.92588,148.048,Q,Q
2023-03-15 21:22:33:329,0,-54.7559,1.92569,148.05,Q,Q
2023-03-15 21:22:33:339,0,-54.7549,1.92747,148.049,Q,Q
2023-03-15 21:22:33:349,0,-54.7541,1.92805,148.05,Q,Q
2023-03-15 21:22:33:359,0,-54.752,1.92529,148.05,Q,Q
2023-03-15 21:22:33:369,0,-54.7498,1.92639,148.048,Q,Q
2023-03-15 21:22:33:379,0,-54.7492,1.92509,148.043,Q,Q
2023-03-15 21:22:33:389,0,-54.7485,1.92418,148.042,Q,Q
2023-03-15 21:22:33:399,0,-54.746,1.92531,148.043,Q,Q
2023-03-15 21:22:33:409,0,-54.748,1.92534,148.04,Q,Q
2023-03-15 21:22:33:419,0,-54.7505,1.92681,148.04,Q,Q
2023-03-15 21:22:33:429,0,-54.753,1.92571,148.042,Q,Q
2023-03-15 21:22:33:439,0,-54.7536,1.92863,148.044,Q,Q
2023-03-15 21:22:33:449,0,-54.7552,1.9287,148.043,Q,Q
2023-03-15 21:22:33:459,0,-54.7564,1.92903,148.044,Q,Q
2023-03-15 21:22:33:469,0,-54.7561,1.93155,148.04,Q,Q
2023-03-15 21:22:33:479,0,-54.7597,1.93127,148.042,Q,Q
2023-03-15 21:22:33:489,0,-54.7582,1.9333,148.044,Q,Q
2023-03-15 21:22:33:499,0,-54.7596,1.93576,148.047,Q,Q
2023-03-15 21:22:33:509,0,-54.7617,1.93597,148.049,Q,Q
2023-03-15 21:22:33:519,0,-54.7616,1.93668,148.049,Q,Q
2023-03-15 21:22:33:529,0,-54.7623,1.93766,148.048,Q,Q
2023-03-15 21:22:33:539,0,-54.7635,1.93781,148.047,Q,Q
2023-03-15 21:22:33:549,0,-54.7618,1.93719,148.047,Q,Q
2023-03-15 21:22:33:559,0,-54.7643,1.93725,148.05,Q,Q
2023-03-15 21:22:33:569,0,-54.7653,1.93502,148.049,Q,Q
2023-03-15 21:22:33:579,0,-54.7646,1.93495,148.045,Q,Q
2023-03-15 21:22:33:589,0,-54.7633,1.93328,148.045,Q,Q
2023-03-15 21:22:33:599,0,-54.7622,1.93589,148.047,Q,Q
2023-03-15 21:22:33:609,0,-54.7623,1.93625,148.047,Q,Q
2023-03-15 21:22:33:619,0,-54.7633,1.93723,148.048,Q,Q
2023-03-15 21:22:33:629,0,-54.7676,1.93676,148.048,Q,Q
2023-03-15 21:22:33:639,0,-54.7695,1.93617,148.052,Q,Q
2023-03-15 21:22:33:649,0,-54.767,1.93722,148.053,Q,Q
2023-03-15 21:22:33:659,0,-54.7679,1.9367,148.054,Q,Q
2023-03-15 21:22:33:669,0,-54.766,1.93672,148.055,Q,Q
2023-03-15 21:22:33:679,0,-54.7662,1.93709,148.055,Q,Q
2023-03-15 21:22:33:689,0,-54.7674,1.93835,148.054,Q,Q
2023-03-15 21:22:33:699,0,-54.7664,1.9385,148.056,Q,Q
2023-03-15 21:22:33:709,0,-54.7643,1.9377,148.058,Q,Q
2023-03-15 21:22:33:719,0,-54.7673,1.93647,148.057,Q,Q
2023-03-15 21:22:33:729,0,-54.7661,1.93435,148.057,Q,Q
2023-03-15 21:22:33:739,0,-54.7661,1.93306,148.059,Q,Q
2023-03-15 21:22:33:749,0,-54.7676,1.93337,148.058,Q,Q
2023-03-15 21:22:33:759,0,-54.7672,1.9318,148.057,Q,Q
2023-03-15 21:22:33:769,0,-54.7685,1.93243,148.059,Q,Q
2023-03-15 21:22:33:779,0,-54.7709,1.93081,148.06,Q,Q
2023-03-15 21:22:33:789,0,-54.7752,1.92693,148.058,Q,Q
2023-03-15 21:22:33:799,0,-54.7728,1.92836,148.06,Q,Q
2023-03-15 21:22:33:809,0,-54.7715,1.92606,148.055,Q,Q
2023-03-15 21:22:33:819,0,-54.77,1.92588,148.058,Q,Q
2023-03-15 21:22:33:829,0,-54.7696,1.92553,148.054,Q,Q
2023-03-15 21:22:33:839,0,-54.7699,1.92743,148.052,Q,Q
2023-03-15 21:22:33:849,0,-54.7652,1.92822,148.05,Q,Q
2023-03-15 21:22:33:859,0,-54.7647,1.92745,148.048,Q,Q
2023-03-15 21:22:33:869,0,-54.7639,1.9251,148.049,Q,Q
2023-03-15 21:22:33:879,0,-54.7621,1.91906,148.047,Q,Q
2023-03-15 21:22:33:889,0,-54.7631,1.918,148.045,Q,Q
2023-03-15 21:22:33:899,0,-54.7657,1.91882,148.045,Q,Q
2023-03-15 21:22:33:909,0,-54.7692,1.91864,148.044,Q,Q
2023-03-15 21:22:33:919,0,-54.7701,1.92076,148.044,Q,Q
2023-03-15 21:22:33:929,0,-54.7713,1.92369,148.045,Q,Q
2023-03-15 21:22:33:939,0,-54.7725,1.92697,148.046,Q,Q
2023-03-15 21:22:33:949,0,-54.7727,1.9272,148.048,Q,Q
2023-03-15 21:22:33:959,0,-54.7732,1.92359,148.05,Q,Q
2023-03-15 21:22:33:969,0,-54.7744,1.92536,148.051,Q,Q
2023-03-15 21:22:33:979,0,-54.7732,1.92287,148.053,Q,Q
2023-03-15 21:22:33:989,0,-54.7732,1.92088,148.056,Q,Q
2023-03-15 21:22:33:999,0,-54.7734,1.92088,148.054,Q,Q
2023-03-15 21:22:34:9,0,-54.7727,1.92221,148.053,Q,Q
2023-03-15 21:22:34:19,0,-54.775,1.92378,148.051,Q,Q
2023-03-15 21:22:34:29,0,-54.7756,1.92136,148.051,Q,Q
2023-03-15 21:22:34:39,0,-54.7761,1.92175,148.05,Q,Q
2023-03-15 21:22:34:49,0,-54.7738,1.9212,148.052,Q,Q
2023-03-15 21:22:34:59,0,-54.7767,1.92256,148.051,Q,Q
2023-03-15 21:22:34:69,0,-54.7763,1.92203,148.048,Q,Q
2023-03-15 21:22:34:79,0,-54.7752,1.91883,148.047,Q,Q
2023-03-15 21:22:34:89,0,-54.7768,1.91871,148.046,Q,Q
2023-03-15 21:22:34:99,0,-54.7757,1.91812,148.046,Q,Q
2023-03-15 21:22:34:109,0,-54.7761,1.91876,148.047,Q,Q
2023-03-15 21:22:34:119,0,-54.7758,1.91684,148.047,Q,Q
2023-03-15 21:22:34:129,0,-54.7751,1.91356,148.046,Q,Q
2023-03-15 21:22:34:139,0,-54.7738,1.9169,148.046,Q,Q
2023-03-15 21:22:34:149,0,-54.7722,1.91802,148.046,Q,Q
2023-03-15 21:22:34:159,0,-54.7698,1.91855,148.048,Q,Q
2023-03-15 21:22:34:169,0,-54.7715,1.9169,148.049,Q,Q
2023-03-15 21:22:34:179,0,-54.7726,1.91786,148.051,Q,Q
2023-03-15 21:22:34:189,0,-54.7713,1.91585,148.05,Q,Q
2023-03-15 21:22:34:198,0,-54.7742,1.91497,148.053,Q,Q
2023-03-15 21:22:34:209,0,-54.7741,1.91291,148.053,Q,Q
2023-03-15 21:22:34:219,0,-54.7732,1.91396,148.055,Q,Q
2023-03-15 21:22:34:229,0,-54.7741,1.91569,148.051,Q,Q
2023-03-15 21:22:34:239,0,-54.7751,1.91453,148.051,Q,Q
2023-03-15 21:22:34:249,0,-54.7745,1.91529,148.049,Q,Q
2023-03-15 21:22:34:259,0,-54.7748,1.91676,148.048,Q,Q
2023-03-15 21:22:34:269,0,-54.7744,1.91389,148.046,Q,Q
2023-03-15 21:22:34:279,0,-54.775,1.91558,148.046,Q,Q
2023-03-15 21:22:34:289,0,-54.7745,1.91568,148.046,Q,Q
2023-03-15 21:22:34:299,0,-54.7731,1.91735,148.047,Q,Q
2023-03-15 21:22:34:309,0,-54.7721,1.91466,148.047,Q,Q
2023-03-15 21:22:34:319,0,-54.7702,1.91549,148.045,Q,Q
2023-03-15 21:22:34:329,0,-54.7706,1.91714,148.045,Q,Q
2023-03-15 21:22:34:339,0,-54.7684,1.91744,148.049,Q,Q
2023-03-15 21:22:34:349,0,-54.7696,1.91573,148.046,Q,Q
2023-03-15 21:22:34:359,0,-54.7693,1.91461,148.044,Q,Q
2023-03-15 21:22:34:369,0,-54.7716,1.91404,148.044,Q,Q
2023-03-15 21:22:34:379,0,-54.771,1.91096,148.044,Q,Q
2023-03-15 21:22:34:389,0,-54.7685,1.90894,148.045,Q,Q
2023-03-15 21:22:34:399,0,-54.7696,1.90591,148.043,Q,Q
2023-03-15 21:22:34:409,0,-54.7719,1.90829,148.04,Q,Q
2023-03-15 21:22:34:419,0,-54.774,1.9086,148.04,Q,Q
2023-03-15 21:22:34:429,0,-54.7707,1.90778,148.039,Q,Q
2023-03-15 21:22:34:439,0,-54.7675,1.90825,148.037,Q,Q
2023-03-15 21:22:34:449,0,-54.7669,1.90862,148.037,Q,Q
2023-03-15 21:22:34:459,0,-54.7633,1.91082,148.036,Q,Q
2023-03-15 21:22:34:469,0,-54.7643,1.91156,148.038,Q,Q
2023-03-15 21:22:34:479,0,-54.765,1.91011,148.038,Q,Q
2023-03-15 21:22:34:489,0,-54.7633,1.90844,148.036,Q,Q
2023-03-15 21:22:34:499,0,-54.7602,1.90654,148.04,Q,Q
2023-03-15 21:22:34:509,0,-54.7577,1.90712,148.042,Q,Q
2023-03-15 21:22:34:519,0,-54.7577,1.9048,148.04,Q,Q
2023-03-15 21:22:34:529,0,-54.755,1.90509,148.039,Q,Q
2023-03-15 21:22:34:539,0,-54.7534,1.90492,148.041,Q,Q
2023-03-15 21:22:34:549,0,-54.7514,1.9067,148.044,Q,Q
2023-03-15 21:22:34:559,0,-54.7513,1.90756,148.042,Q,Q
2023-03-15 21:22:34:569,0,-54.7518,1.91215,148.042,Q,Q
2023-03-15 21:22:34:579,0,-54.7487,1.91262,148.043,Q,Q
2023-03-15 21:22:34:589,0,-54.7504,1.91234,148.043,Q,Q
2023-03-15 21:22:34:599,0,-54.7501,1.91405,148.04,Q,Q
2023-03-15 21:22:34:609,0,-54.7504,1.91623,148.041,Q,Q
