Timestamp_cmd,imu_cmd,roll_delta,pitch_delta,yaw_delta,voice_type,voice_length
2023-03-15 11:51:53:770,0,-78.7248,0.45167,78.0204,Q,Q
2023-03-15 11:51:53:777,0,-78.7258,0.45237,78.0214,Q,Q
2023-03-15 11:51:53:787,0,-78.7292,0.45035,78.0192,Q,Q
2023-03-15 11:51:53:797,0,-78.7274,0.451703,78.0214,Q,Q
2023-03-15 11:51:53:807,0,-78.7264,0.451863,78.0232,Q,Q
2023-03-15 11:51:53:817,0,-78.7258,0.455242,78.0238,Q,Q
2023-03-15 11:51:53:827,0,-78.7272,0.457157,78.023,Q,Q
2023-03-15 11:51:53:837,0,-78.7292,0.458673,78.0246,Q,Q
2023-03-15 11:51:53:847,0,-78.7297,0.457505,78.0254,Q,Q
2023-03-15 11:51:53:857,0,-78.7306,0.459076,78.0242,Q,Q
2023-03-15 11:51:53:868,0,-78.7302,0.460217,78.0232,Q,Q
2023-03-15 11:51:53:877,0,-78.7312,0.460456,78.0215,Q,Q
2023-03-15 11:51:53:887,0,-78.7312,0.459655,78.0202,Q,Q
2023-03-15 11:51:53:897,0,-78.7292,0.46142,78.0196,Q,Q
2023-03-15 11:51:53:907,0,-78.7264,0.457887,78.0167,Q,Q
2023-03-15 11:51:53:917,0,-78.7256,0.457507,78.0192,Q,Q
2023-03-15 11:51:53:927,0,-78.7242,0.456767,78.0216,Q,Q
2023-03-15 11:51:53:937,0,-78.7237,0.458595,78.0216,Q,Q
2023-03-15 11:51:53:947,0,-78.7244,0.457205,78.0207,Q,Q
2023-03-15 11:51:53:957,0,-78.7254,0.455891,78.0196,Q,Q
2023-03-15 11:51:53:967,0,-78.7246,0.456614,78.023,Q,Q
2023-03-15 11:51:53:977,0,-78.7257,0.45618,78.0235,Q,Q
2023-03-15 11:51:53:987,0,-78.7278,0.45549,78.0244,Q,Q
2023-03-15 11:51:53:997,0,-78.7279,0.456396,78.0229,Q,Q
2023-03-15 11:51:54:7,0,-78.7273,0.45485,78.0212,Q,Q
2023-03-15 11:51:54:17,0,-78.7256,0.4568,78.0213,Q,Q
2023-03-15 11:51:54:27,0,-78.7252,0.457717,78.0205,Q,Q
2023-03-15 11:51:54:37,0,-78.7248,0.457069,78.0197,Q,Q
2023-03-15 11:51:54:47,0,-78.7234,0.460147,78.019,Q,Q
2023-03-15 11:51:54:57,0,-78.7207,0.460538,78.0175,Q,Q
2023-03-15 11:51:54:67,0,-78.7198,0.462225,78.017,Q,Q
2023-03-15 11:51:54:77,0,-78.7188,0.462533,78.0177,Q,Q
2023-03-15 11:51:54:87,0,-78.7194,0.46353,78.0193,Q,Q
2023-03-15 11:51:54:97,0,-78.7184,0.461453,78.0206,Q,Q
2023-03-15 11:51:54:107,0,-78.7161,0.460902,78.0199,Q,Q
2023-03-15 11:51:54:117,0,-78.7179,0.462122,78.0211,Q,Q
2023-03-15 11:51:54:127,0,-78.7183,0.460235,78.0233,Q,Q
2023-03-15 11:51:54:137,0,-78.7194,0.460219,78.024,Q,Q
2023-03-15 11:51:54:147,0,-78.7182,0.457279,78.0257,Q,Q
2023-03-15 11:51:54:157,0,-78.7211,0.454179,78.0256,Q,Q
2023-03-15 11:51:54:167,0,-78.7199,0.45739,78.0263,Q,Q
2023-03-15 11:51:54:177,0,-78.7206,0.461785,78.0252,Q,Q
2023-03-15 11:51:54:187,0,-78.719,0.463575,78.028,Q,Q
2023-03-15 11:51:54:197,0,-78.7216,0.461788,78.0279,Q,Q
2023-03-15 11:51:54:207,0,-78.7216,0.460599,78.0284,Q,Q
2023-03-15 11:51:54:217,0,-78.7241,0.460947,78.0292,Q,Q
2023-03-15 11:51:54:227,0,-78.7262,0.461938,78.0286,Q,Q
2023-03-15 11:51:54:237,0,-78.7263,0.464374,78.0286,Q,Q
2023-03-15 11:51:54:247,0,-78.7266,0.468032,78.0276,Q,Q
2023-03-15 11:51:54:257,0,-78.7251,0.469744,78.0296,Q,Q
2023-03-15 11:51:54:267,0,-78.7249,0.470317,78.0332,Q,Q
2023-03-15 11:51:54:277,0,-78.7236,0.468149,78.0322,Q,Q
2023-03-15 11:51:54:287,0,-78.7227,0.468264,78.0333,Q,Q
2023-03-15 11:51:54:297,0,-78.7237,0.466182,78.0347,Q,Q
2023-03-15 11:51:54:308,0,-78.7232,0.465218,78.0382,Q,Q
2023-03-15 11:51:54:317,0,-78.7213,0.465332,78.04,Q,Q
2023-03-15 11:51:54:327,0,-78.7208,0.465312,78.0419,Q,Q
2023-03-15 11:51:54:337,0,-78.7194,0.469358,78.0396,Q,Q
2023-03-15 11:51:54:347,0,-78.7209,0.470945,78.0397,Q,Q
2023-03-15 11:51:54:357,0,-78.7229,0.467824,78.04,Q,Q
2023-03-15 11:51:54:367,0,-78.7234,0.468296,78.0416,Q,Q
2023-03-15 11:51:54:377,0,-78.7239,0.467511,78.0389,Q,Q
2023-03-15 11:51:54:387,0,-78.7287,0.468768,78.0374,Q,Q
2023-03-15 11:51:54:397,0,-78.7297,0.469434,78.0408,Q,Q
2023-03-15 11:51:54:407,0,-78.7327,0.470897,78.0426,Q,Q
2023-03-15 11:51:54:417,0,-78.7335,0.472014,78.0415,Q,Q
2023-03-15 11:51:54:427,0,-78.7351,0.47388,78.039,Q,Q
2023-03-15 11:51:54:437,0,-78.7362,0.475265,78.0391,Q,Q
2023-03-15 11:51:54:447,0,-78.7349,0.475691,78.0382,Q,Q
2023-03-15 11:51:54:457,0,-78.7371,0.474919,78.0394,Q,Q
2023-03-15 11:51:54:467,0,-78.7369,0.475535,78.0364,Q,Q
2023-03-15 11:51:54:477,0,-78.7384,0.476112,78.0355,Q,Q
2023-03-15 11:51:54:487,0,-78.7374,0.475595,78.0348,Q,Q
2023-03-15 11:51:54:497,0,-78.738,0.476403,78.0357,Q,Q
2023-03-15 11:51:54:507,0,-78.7369,0.477394,78.0333,Q,Q
2023-03-15 11:51:54:517,0,-78.7382,0.475001,78.0342,Q,Q
2023-03-15 11:51:54:527,0,-78.7357,0.474797,78.032,Q,Q
2023-03-15 11:51:54:537,0,-78.734,0.480672,78.0314,Q,Q
2023-03-15 11:51:54:547,0,-78.7314,0.48264,78.0321,Q,Q
2023-03-15 11:51:54:557,0,-78.728,0.483883,78.0314,Q,Q
2023-03-15 11:51:54:567,0,-78.7253,0.48322,78.0321,Q,Q
2023-03-15 11:51:54:577,0,-78.7241,0.481144,78.0334,Q,Q
2023-03-15 11:51:54:587,0,-78.7231,0.48194,78.0309,Q,Q
2023-03-15 11:51:54:597,0,-78.722,0.478669,78.0301,Q,Q
2023-03-15 11:51:54:607,0,-78.7241,0.478196,78.0321,Q,Q
2023-03-15 11:51:54:617,0,-78.7224,0.476985,78.0344,Q,Q
2023-03-15 11:51:54:627,0,-78.724,0.476691,78.0346,Q,Q
2023-03-15 11:51:54:637,0,-78.7208,0.476213,78.0325,Q,Q
2023-03-15 11:51:54:647,0,-78.7209,0.474289,78.0327,Q,Q
2023-03-15 11:51:54:657,0,-78.7239,0.472614,78.0334,Q,Q
2023-03-15 11:51:54:667,0,-78.7218,0.473985,78.0325,Q,Q
2023-03-15 11:51:54:677,0,-78.7212,0.473599,78.0289,Q,Q
2023-03-15 11:51:54:687,0,-78.7212,0.471607,78.0315,Q,Q
2023-03-15 11:51:54:697,0,-78.7211,0.47142,78.0334,Q,Q
2023-03-15 11:51:54:707,0,-78.7229,0.47235,78.0304,Q,Q
2023-03-15 11:51:54:717,0,-78.72,0.473383,78.0296,Q,Q
2023-03-15 11:51:54:727,0,-78.717,0.472735,78.0331,Q,Q
2023-03-15 11:51:54:737,0,-78.7168,0.471199,78.0292,Q,Q
2023-03-15 11:51:54:747,0,-78.714,0.471485,78.0307,Q,Q
2023-03-15 11:51:54:757,0,-78.7144,0.46883,78.0275,Q,Q
2023-03-15 11:51:54:767,0,-78.7182,0.466612,78.0281,Q,Q
2023-03-15 11:51:54:777,0,-78.7187,0.465654,78.0259,Q,Q
2023-03-15 11:51:54:787,0,-78.7195,0.467737,78.0272,Q,Q
2023-03-15 11:51:54:797,0,-78.7187,0.47119,78.0257,Q,Q
2023-03-15 11:51:54:807,0,-78.7153,0.46899,78.0236,Q,Q
2023-03-15 11:51:54:817,0,-78.7147,0.467675,78.0232,Q,Q
2023-03-15 11:51:54:828,0,-78.7144,0.469481,78.0245,Q,Q
2023-03-15 11:51:54:837,0,-78.7151,0.471127,78.0244,Q,Q
2023-03-15 11:51:54:847,0,-78.715,0.470434,78.0249,Q,Q
2023-03-15 11:51:54:857,0,-78.7147,0.473321,78.0229,Q,Q
2023-03-15 11:51:54:867,0,-78.7151,0.47373,78.0214,Q,Q
2023-03-15 11:51:54:877,0,-78.7152,0.471058,78.0188,Q,Q
2023-03-15 11:51:54:887,0,-78.7149,0.470102,78.0219,Q,Q
2023-03-15 11:51:54:897,0,-78.715,0.469896,78.0203,Q,Q
2023-03-15 11:51:54:907,0,-78.7157,0.471323,78.0195,Q,Q
2023-03-15 11:51:54:917,0,-78.7158,0.472539,78.0198,Q,Q
2023-03-15 11:51:54:927,0,-78.7164,0.473681,78.0198,Q,Q
2023-03-15 11:51:54:937,0,-78.7179,0.476188,78.0178,Q,Q
2023-03-15 11:51:54:947,0,-78.7156,0.47407,78.0183,Q,Q
2023-03-15 11:51:54:957,0,-78.713,0.473504,78.0188,Q,Q
2023-03-15 11:51:54:967,0,-78.7129,0.472692,78.0181,Q,Q
2023-03-15 11:51:54:977,0,-78.7112,0.474907,78.019,Q,Q
2023-03-15 11:51:54:987,0,-78.713,0.476393,78.0207,Q,Q
2023-03-15 11:51:54:997,0,-78.7158,0.476759,78.0212,Q,Q
2023-03-15 11:51:55:7,0,-78.7134,0.479031,78.0217,Q,Q
2023-03-15 11:51:55:17,0,-78.7106,0.477486,78.0237,Q,Q
2023-03-15 11:51:55:27,0,-78.7122,0.477703,78.025,Q,Q
2023-03-15 11:51:55:37,0,-78.7146,0.478573,78.022,Q,Q
2023-03-15 11:51:55:47,0,-78.7138,0.480981,78.0215,Q,Q
2023-03-15 11:51:55:57,0,-78.7126,0.479581,78.0208,Q,Q
2023-03-15 11:51:55:67,0,-78.71,0.481886,78.0248,Q,Q
2023-03-15 11:51:55:77,0,-78.7071,0.48278,78.0214,Q,Q
2023-03-15 11:51:55:87,0,-78.7065,0.481657,78.0206,Q,Q
2023-03-15 11:51:55:97,0,-78.7071,0.480478,78.0226,Q,Q
2023-03-15 11:51:55:107,0,-78.7062,0.478976,78.0242,Q,Q
2023-03-15 11:51:55:117,0,-78.7049,0.484421,78.0253,Q,Q
2023-03-15 11:51:55:127,0,-78.704,0.487899,78.0261,Q,Q
2023-03-15 11:51:55:137,0,-78.7034,0.485655,78.0264,Q,Q
2023-03-15 11:51:55:147,0,-78.7048,0.483044,78.0263,Q,Q
2023-03-15 11:51:55:157,0,-78.7078,0.483423,78.0263,Q,Q
2023-03-15 11:51:55:167,0,-78.7101,0.484943,78.0266,Q,Q
2023-03-15 11:51:55:177,0,-78.7151,0.485379,78.0273,Q,Q
2023-03-15 11:51:55:187,0,-78.7151,0.484058,78.0259,Q,Q
2023-03-15 11:51:55:197,0,-78.7147,0.4838,78.029,Q,Q
2023-03-15 11:51:55:207,0,-78.7158,0.487721,78.0266,Q,Q
2023-03-15 11:51:55:217,0,-78.7176,0.487778,78.0295,Q,Q
2023-03-15 11:51:55:227,0,-78.7194,0.48782,78.0273,Q,Q
2023-03-15 11:51:55:237,0,-78.7187,0.489678,78.024,Q,Q
2023-03-15 11:51:55:247,0,-78.7186,0.488516,78.0206,Q,Q
2023-03-15 11:51:55:257,0,-78.7184,0.487981,78.0219,Q,Q
2023-03-15 11:51:55:267,0,-78.7193,0.487116,78.0247,Q,Q
2023-03-15 11:51:55:277,0,-78.7223,0.491307,78.0292,Q,Q
2023-03-15 11:51:55:287,0,-78.721,0.488681,78.0289,Q,Q
2023-03-15 11:51:55:297,0,-78.7171,0.492528,78.0296,Q,Q
2023-03-15 11:51:55:307,0,-78.7199,0.49464,78.0306,Q,Q
2023-03-15 11:51:55:317,0,-78.7192,0.492412,78.0322,Q,Q
2023-03-15 11:51:55:327,0,-78.7211,0.490206,78.033,Q,Q
2023-03-15 11:51:55:337,0,-78.7218,0.489815,78.0302,Q,Q
2023-03-15 11:51:55:347,0,-78.7231,0.491399,78.0285,Q,Q
2023-03-15 11:51:55:357,0,-78.7227,0.491482,78.0277,Q,Q
2023-03-15 11:51:55:367,0,-78.7214,0.493594,78.0294,Q,Q
2023-03-15 11:51:55:377,0,-78.7217,0.493578,78.0305,Q,Q
2023-03-15 11:51:55:387,0,-78.7234,0.492375,78.0325,Q,Q
2023-03-15 11:51:55:397,0,-78.7231,0.489813,78.0302,Q,Q
2023-03-15 11:51:55:407,0,-78.7254,0.489388,78.0335,Q,Q
2023-03-15 11:51:55:417,0,-78.7262,0.487772,78.0358,Q,Q
2023-03-15 11:51:55:427,0,-78.7248,0.490126,78.0383,Q,Q
2023-03-15 11:51:55:437,0,-78.7235,0.489669,78.0394,Q,Q
2023-03-15 11:51:55:447,0,-78.7229,0.490619,78.042,Q,Q
2023-03-15 11:51:55:457,0,-78.7225,0.489687,78.0394,Q,Q
2023-03-15 11:51:55:467,0,-78.723,0.488773,78.0408,Q,Q
2023-03-15 11:51:55:477,0,-78.7248,0.491236,78.0371,Q,Q
2023-03-15 11:51:55:487,0,-78.7265,0.491404,78.0385,Q,Q
2023-03-15 11:51:55:497,0,-78.7284,0.490011,78.0364,Q,Q
2023-03-15 11:51:55:507,0,-78.7258,0.491107,78.0347,Q,Q
2023-03-15 11:51:55:517,0,-78.7259,0.489492,78.0332,Q,Q
2023-03-15 11:51:55:527,0,-78.7294,0.489766,78.0322,Q,Q
2023-03-15 11:51:55:537,0,-78.7324,0.492196,78.0325,Q,Q
2023-03-15 11:51:55:547,0,-78.7328,0.491105,78.0332,Q,Q
2023-03-15 11:51:55:557,0,-78.7312,0.489667,78.0359,Q,Q
2023-03-15 11:51:55:567,0,-78.7319,0.489661,78.0394,Q,Q
2023-03-15 11:51:55:577,0,-78.7315,0.487953,78.0388,Q,Q
2023-03-15 11:51:55:587,0,-78.7358,0.488489,78.0374,Q,Q
2023-03-15 11:51:55:597,0,-78.7327,0.486799,78.038,Q,Q
2023-03-15 11:51:55:607,0,-78.7365,0.48539,78.0388,Q,Q
2023-03-15 11:51:55:617,0,-78.7388,0.485846,78.0389,Q,Q
2023-03-15 11:51:55:627,0,-78.741,0.485184,78.039,Q,Q
2023-03-15 11:51:55:637,0,-78.7425,0.48689,78.0383,Q,Q
2023-03-15 11:51:55:647,0,-78.7433,0.486716,78.0377,Q,Q
2023-03-15 11:51:55:657,0,-78.7425,0.483899,78.0371,Q,Q
2023-03-15 11:51:55:667,0,-78.7437,0.483019,78.0383,Q,Q
2023-03-15 11:51:55:677,0,-78.7441,0.482783,78.0364,Q,Q
2023-03-15 11:51:55:687,0,-78.7441,0.483116,78.0384,Q,Q
2023-03-15 11:51:55:697,0,-78.7422,0.485159,78.0406,Q,Q
2023-03-15 11:51:55:707,0,-78.7396,0.482156,78.0405,Q,Q
2023-03-15 11:51:55:717,0,-78.7372,0.481742,78.0408,Q,Q
2023-03-15 11:51:55:727,0,-78.74,0.482929,78.0423,Q,Q
2023-03-15 11:51:55:737,0,-78.7416,0.483311,78.0423,Q,Q
2023-03-15 11:51:55:747,0,-78.7434,0.483006,78.0407,Q,Q
2023-03-15 11:51:55:757,0,-78.7414,0.481503,78.0402,Q,Q
2023-03-15 11:51:55:767,0,-78.7398,0.478306,78.0413,Q,Q
2023-03-15 11:51:55:777,0,-78.735,0.482837,78.0413,Q,Q
2023-03-15 11:51:55:787,0,-78.7365,0.482682,78.0381,Q,Q
2023-03-15 11:51:55:797,0,-78.7399,0.484977,78.0368,Q,Q
2023-03-15 11:51:55:807,0,-78.74,0.485592,78.0384,Q,Q
2023-03-15 11:51:55:817,0,-78.7379,0.488694,78.0384,Q,Q
2023-03-15 11:51:55:827,0,-78.7402,0.489484,78.0383,Q,Q
2023-03-15 11:51:55:837,0,-78.7378,0.49046,78.0377,Q,Q
2023-03-15 11:51:55:847,0,-78.7396,0.489637,78.0372,Q,Q
2023-03-15 11:51:55:857,0,-78.7395,0.48591,78.0384,Q,Q
2023-03-15 11:51:55:867,0,-78.7388,0.483482,78.0394,Q,Q
2023-03-15 11:51:55:877,0,-78.7399,0.483474,78.0378,Q,Q
2023-03-15 11:51:55:887,0,-78.7394,0.485996,78.0366,Q,Q
2023-03-15 11:51:55:897,0,-78.7374,0.482063,78.0356,Q,Q
2023-03-15 11:51:55:907,0,-78.7399,0.484404,78.034,Q,Q
2023-03-15 11:51:55:917,0,-78.7397,0.48607,78.0363,Q,Q
2023-03-15 11:51:55:927,0,-78.7369,0.486563,78.0391,Q,Q
2023-03-15 11:51:55:937,0,-78.7351,0.487591,78.0387,Q,Q
2023-03-15 11:51:55:947,0,-78.7349,0.483419,78.0399,Q,Q
2023-03-15 11:51:55:957,0,-78.7341,0.485009,78.0404,Q,Q
2023-03-15 11:51:55:967,0,-78.7322,0.489661,78.0414,Q,Q
2023-03-15 11:51:55:977,0,-78.7321,0.491996,78.0418,Q,Q
2023-03-15 11:51:55:987,0,-78.7335,0.492211,78.0392,Q,Q
2023-03-15 11:51:55:997,0,-78.7324,0.491813,78.0373,Q,Q
2023-03-15 11:51:56:7,0,-78.7343,0.489781,78.0366,Q,Q
2023-03-15 11:51:56:17,0,-78.7343,0.489744,78.0369,Q,Q
2023-03-15 11:51:56:27,0,-78.7356,0.490285,78.0368,Q,Q
2023-03-15 11:51:56:37,0,-78.7363,0.491414,78.037,Q,Q
2023-03-15 11:51:56:47,0,-78.7365,0.488815,78.0365,Q,Q
2023-03-15 11:51:56:57,0,-78.7369,0.485438,78.0363,Q,Q
2023-03-15 11:51:56:67,0,-78.7356,0.484198,78.0359,Q,Q
2023-03-15 11:51:56:77,0,-78.7338,0.483827,78.0402,Q,Q
2023-03-15 11:51:56:87,0,-78.7318,0.486688,78.0422,Q,Q
2023-03-15 11:51:56:97,0,-78.7327,0.486111,78.0428,Q,Q
2023-03-15 11:51:56:107,0,-78.7358,0.487953,78.0439,Q,Q
2023-03-15 11:51:56:117,0,-78.7353,0.486826,78.0426,Q,Q
2023-03-15 11:51:56:127,0,-78.7346,0.489593,78.0399,Q,Q
2023-03-15 11:51:56:137,0,-78.7332,0.488092,78.0375,Q,Q
2023-03-15 11:51:56:147,0,-78.7337,0.487694,78.0388,Q,Q
2023-03-15 11:51:56:157,0,-78.7338,0.484911,78.0391,Q,Q
2023-03-15 11:51:56:167,0,-78.7343,0.486651,78.0376,Q,Q
2023-03-15 11:51:56:177,0,-78.7369,0.489244,78.0357,Q,Q
2023-03-15 11:51:56:187,0,-78.7373,0.491178,78.0308,Q,Q
2023-03-15 11:51:56:197,0,-78.7376,0.491475,78.0311,Q,Q
2023-03-15 11:51:56:207,0,-78.7366,0.490813,78.0316,Q,Q
2023-03-15 11:51:56:217,0,-78.7376,0.492114,78.0347,Q,Q
2023-03-15 11:51:56:227,0,-78.7409,0.491505,78.0371,Q,Q
2023-03-15 11:51:56:237,0,-78.7416,0.492381,78.0403,Q,Q
2023-03-15 11:51:56:247,0,-78.7417,0.492173,78.0385,Q,Q
2023-03-15 11:51:56:257,0,-78.7419,0.493313,78.0379,Q,Q
2023-03-15 11:51:56:267,0,-78.7382,0.497562,78.0352,Q,Q
2023-03-15 11:51:56:277,0,-78.7382,0.498571,78.0336,Q,Q
2023-03-15 11:51:56:287,0,-78.7404,0.501398,78.03,Q,Q
2023-03-15 11:51:56:297,0,-78.7399,0.500155,78.0312,Q,Q
2023-03-15 11:51:56:307,0,-78.7398,0.499195,78.0293,Q,Q
2023-03-15 11:51:56:317,0,-78.7418,0.49706,78.0289,Q,Q
2023-03-15 11:51:56:327,0,-78.7388,0.499877,78.0313,Q,Q
2023-03-15 11:51:56:337,0,-78.7404,0.499611,78.0334,Q,Q
2023-03-15 11:51:56:347,0,-78.7406,0.497891,78.0327,Q,Q
2023-03-15 11:51:56:357,0,-78.7411,0.497309,78.0321,Q,Q
2023-03-15 11:51:56:367,0,-78.743,0.497218,78.0336,Q,Q
2023-03-15 11:51:56:377,0,-78.7443,0.500853,78.0329,Q,Q
2023-03-15 11:51:56:387,0,-78.7422,0.501298,78.0323,Q,Q
2023-03-15 11:51:56:397,0,-78.7411,0.500592,78.0311,Q,Q
2023-03-15 11:51:56:407,0,-78.7434,0.499804,78.0329,Q,Q
2023-03-15 11:51:56:417,0,-78.7451,0.498019,78.0347,Q,Q
2023-03-15 11:51:56:427,0,-78.7462,0.498692,78.0354,Q,Q
2023-03-15 11:51:56:437,0,-78.7478,0.49834,78.0343,Q,Q
2023-03-15 11:51:56:447,0,-78.7461,0.499485,78.032,Q,Q
2023-03-15 11:51:56:457,0,-78.7435,0.498306,78.031,Q,Q
2023-03-15 11:51:56:467,0,-78.7411,0.498828,78.0303,Q,Q
2023-03-15 11:51:56:477,0,-78.7441,0.501111,78.0289,Q,Q
2023-03-15 11:51:56:487,0,-78.7443,0.50069,78.0298,Q,Q
2023-03-15 11:51:56:497,0,-78.7473,0.50179,78.031,Q,Q
2023-03-15 11:51:56:507,0,-78.7454,0.500489,78.0319,Q,Q
2023-03-15 11:51:56:517,0,-78.7442,0.500881,78.0302,Q,Q
2023-03-15 11:51:56:527,0,-78.7396,0.498809,78.0291,Q,Q
2023-03-15 11:51:56:537,0,-78.7397,0.496484,78.0268,Q,Q
2023-03-15 11:51:56:547,0,-78.7454,0.495249,78.0254,Q,Q
2023-03-15 11:51:56:557,0,-78.7449,0.492641,78.0247,Q,Q
2023-03-15 11:51:56:567,0,-78.7441,0.492471,78.0241,Q,Q
2023-03-15 11:51:56:577,0,-78.7424,0.492805,78.0239,Q,Q
2023-03-15 11:51:56:587,0,-78.7479,0.494952,78.0218,Q,Q
2023-03-15 11:51:56:597,0,-78.7493,0.496243,78.0212,Q,Q
2023-03-15 11:51:56:607,0,-78.7478,0.496793,78.0226,Q,Q
2023-03-15 11:51:56:617,0,-78.7477,0.496539,78.0219,Q,Q
2023-03-15 11:51:56:627,0,-78.7512,0.497365,78.0222,Q,Q
2023-03-15 11:51:56:637,0,-78.7489,0.496659,78.0209,Q,Q
2023-03-15 11:51:56:647,0,-78.7484,0.496755,78.0196,Q,Q
2023-03-15 11:51:56:657,0,-78.7485,0.498265,78.0162,Q,Q
2023-03-15 11:51:56:667,0,-78.7483,0.496121,78.0138,Q,Q
2023-03-15 11:51:56:677,0,-78.7491,0.494047,78.0133,Q,Q
2023-03-15 11:51:56:687,0,-78.751,0.493672,78.0106,Q,Q
2023-03-15 11:51:56:697,0,-78.751,0.493369,78.0125,Q,Q
2023-03-15 11:51:56:707,0,-78.7526,0.492485,78.0129,Q,Q
2023-03-15 11:51:56:717,0,-78.7547,0.490817,78.0135,Q,Q
2023-03-15 11:51:56:727,0,-78.7512,0.491226,78.0138,Q,Q
2023-03-15 11:51:56:737,0,-78.751,0.491021,78.0106,Q,Q
2023-03-15 11:51:56:747,0,-78.7498,0.488008,78.0099,Q,Q
2023-03-15 11:51:56:757,0,-78.7494,0.486514,78.0105,Q,Q
2023-03-15 11:51:56:767,0,-78.7524,0.486188,78.0102,Q,Q
2023-03-15 11:51:56:777,0,-78.7524,0.485859,78.0075,Q,Q
2023-03-15 11:51:56:787,0,-78.7504,0.485441,78.007,Q,Q
2023-03-15 11:51:56:797,0,-78.7499,0.483134,78.0078,Q,Q
2023-03-15 11:51:56:807,0,-78.7478,0.482367,78.0065,Q,Q
2023-03-15 11:51:56:817,0,-78.7482,0.478226,78.0083,Q,Q
2023-03-15 11:51:56:827,0,-78.7482,0.478029,78.0124,Q,Q
2023-03-15 11:51:56:837,0,-78.746,0.47536,78.0123,Q,Q
2023-03-15 11:51:56:847,0,-78.7444,0.476619,78.0139,Q,Q
2023-03-15 11:51:56:857,0,-78.7424,0.477216,78.0123,Q,Q
2023-03-15 11:51:56:867,0,-78.7384,0.474993,78.0144,Q,Q
2023-03-15 11:51:56:877,0,-78.7375,0.476575,78.013,Q,Q
2023-03-15 11:51:56:887,0,-78.7387,0.474778,78.0121,Q,Q
2023-03-15 11:51:56:897,0,-78.7402,0.476663,78.0127,Q,Q
2023-03-15 11:51:56:907,0,-78.739,0.477534,78.0122,Q,Q
2023-03-15 11:51:56:917,0,-78.7369,0.477394,78.0105,Q,Q
2023-03-15 11:51:56:927,0,-78.7359,0.477228,78.0146,Q,Q
2023-03-15 11:51:56:937,0,-78.735,0.476449,78.0124,Q,Q
2023-03-15 11:51:56:947,0,-78.7368,0.479338,78.0138,Q,Q
2023-03-15 11:51:56:957,0,-78.7368,0.480732,78.0128,Q,Q
2023-03-15 11:51:56:967,0,-78.7376,0.479158,78.0129,Q,Q
2023-03-15 11:51:56:977,0,-78.737,0.476789,78.0147,Q,Q
2023-03-15 11:51:56:987,0,-78.7376,0.477597,78.0146,Q,Q
2023-03-15 11:51:56:997,0,-78.7395,0.47743,78.0126,Q,Q
2023-03-15 11:51:57:7,0,-78.7391,0.476047,78.0111,Q,Q
2023-03-15 11:51:57:17,0,-78.7361,0.476519,78.0104,Q,Q
2023-03-15 11:51:57:27,0,-78.7377,0.478205,78.0112,Q,Q
2023-03-15 11:51:57:37,0,-78.7353,0.479448,78.0093,Q,Q
2023-03-15 11:51:57:47,0,-78.7367,0.479552,78.0081,Q,Q
2023-03-15 11:51:57:57,0,-78.7375,0.480706,78.0062,Q,Q
2023-03-15 11:51:57:67,0,-78.7395,0.478044,78.0072,Q,Q
2023-03-15 11:51:57:77,0,-78.7348,0.475895,78.0084,Q,Q
2023-03-15 11:51:57:87,0,-78.7304,0.477611,78.0108,Q,Q
2023-03-15 11:51:57:97,0,-78.7328,0.477912,78.0108,Q,Q
2023-03-15 11:51:57:107,0,-78.7291,0.478247,78.0142,Q,Q
2023-03-15 11:51:57:117,0,-78.7294,0.478368,78.016,Q,Q
2023-03-15 11:51:57:127,0,-78.7276,0.478585,78.0153,Q,Q
2023-03-15 11:51:57:137,0,-78.7273,0.478858,78.0157,Q,Q
2023-03-15 11:51:57:148,0,-78.7265,0.478094,78.0159,Q,Q
2023-03-15 11:51:57:157,0,-78.7221,0.479894,78.0159,Q,Q
2023-03-15 11:51:57:167,0,-78.7223,0.482849,78.0144,Q,Q
2023-03-15 11:51:57:177,0,-78.72,0.483537,78.0163,Q,Q
2023-03-15 11:51:57:187,0,-78.7198,0.48426,78.0165,Q,Q
2023-03-15 11:51:57:197,0,-78.7204,0.484019,78.0145,Q,Q
2023-03-15 11:51:57:207,0,-78.721,0.483943,78.0146,Q,Q
2023-03-15 11:51:57:217,0,-78.7234,0.486897,78.0132,Q,Q
2023-03-15 11:51:57:227,0,-78.7235,0.487886,78.0146,Q,Q
2023-03-15 11:51:57:237,0,-78.7218,0.488963,78.0138,Q,Q
2023-03-15 11:51:57:247,0,-78.7212,0.487363,78.015,Q,Q
2023-03-15 11:51:57:257,0,-78.7219,0.48698,78.0132,Q,Q
2023-03-15 11:51:57:267,0,-78.7228,0.484067,78.0124,Q,Q
2023-03-15 11:51:57:277,0,-78.7229,0.483529,78.0105,Q,Q
2023-03-15 11:51:57:287,0,-78.7231,0.485705,78.0128,Q,Q
2023-03-15 11:51:57:297,0,-78.7257,0.486183,78.0133,Q,Q
2023-03-15 11:51:57:307,0,-78.7263,0.486625,78.0124,Q,Q
2023-03-15 11:51:57:317,0,-78.728,0.487063,78.011,Q,Q
2023-03-15 11:51:57:327,0,-78.7253,0.489512,78.011,Q,Q
2023-03-15 11:51:57:337,0,-78.7253,0.49092,78.0101,Q,Q
2023-03-15 11:51:57:347,0,-78.7274,0.48998,78.0103,Q,Q
2023-03-15 11:51:57:357,0,-78.7258,0.491183,78.0127,Q,Q
2023-03-15 11:51:57:367,0,-78.7259,0.489136,78.0114,Q,Q
2023-03-15 11:51:57:377,0,-78.7268,0.486383,78.007,Q,Q
2023-03-15 11:51:57:387,0,-78.7271,0.487432,78.0066,Q,Q
2023-03-15 11:51:57:397,0,-78.7299,0.487938,78.0103,Q,Q
2023-03-15 11:51:57:407,0,-78.7295,0.490165,78.01,Q,Q
2023-03-15 11:51:57:417,0,-78.7275,0.49153,78.0097,Q,Q
2023-03-15 11:51:57:427,0,-78.728,0.492914,78.0086,Q,Q
2023-03-15 11:51:57:437,0,-78.7263,0.492113,78.0098,Q,Q
2023-03-15 11:51:57:447,0,-78.7295,0.488761,78.011,Q,Q
2023-03-15 11:51:57:457,0,-78.7296,0.488581,78.007,Q,Q
2023-03-15 11:51:57:467,0,-78.7261,0.485912,78.0067,Q,Q
2023-03-15 11:51:57:477,0,-78.7254,0.48807,78.0036,Q,Q
2023-03-15 11:51:57:487,0,-78.7248,0.488228,78.0051,Q,Q
2023-03-15 11:51:57:497,0,-78.7255,0.490199,78.0074,Q,Q
2023-03-15 11:51:57:507,0,-78.7247,0.490289,78.0084,Q,Q
2023-03-15 11:51:57:517,0,-78.7231,0.491929,78.0078,Q,Q
2023-03-15 11:51:57:527,0,-78.7202,0.494542,78.008,Q,Q
2023-03-15 11:51:57:537,0,-78.7213,0.494614,78.0072,Q,Q
2023-03-15 11:51:57:547,0,-78.7205,0.493327,78.0085,Q,Q
2023-03-15 11:51:57:557,0,-78.7189,0.494804,78.0108,Q,Q
2023-03-15 11:51:57:567,0,-78.7195,0.494164,78.0086,Q,Q
2023-03-15 11:51:57:577,0,-78.7197,0.493974,78.0082,Q,Q
2023-03-15 11:51:57:587,0,-78.7227,0.494972,78.0072,Q,Q
2023-03-15 11:51:57:597,0,-78.7232,0.49876,78.0093,Q,Q
2023-03-15 11:51:57:607,0,-78.7238,0.500143,78.0093,Q,Q
2023-03-15 11:51:57:617,0,-78.721,0.49979,78.0076,Q,Q
2023-03-15 11:51:57:627,0,-78.7225,0.500361,78.0069,Q,Q
2023-03-15 11:51:57:637,0,-78.7186,0.498751,78.0091,Q,Q
2023-03-15 11:51:57:647,0,-78.7192,0.499633,78.0063,Q,Q
2023-03-15 11:51:57:657,0,-78.72,0.499187,78.0051,Q,Q
2023-03-15 11:51:57:667,0,-78.7184,0.499581,78.001,Q,Q
2023-03-15 11:51:57:677,0,-78.7207,0.500327,78.0021,Q,Q
2023-03-15 11:51:57:687,0,-78.7228,0.49644,78.0035,Q,Q
2023-03-15 11:51:57:697,0,-78.7224,0.495518,78.0022,Q,Q
2023-03-15 11:51:57:707,0,-78.7221,0.494579,78.0015,Q,Q
2023-03-15 11:51:57:717,0,-78.7241,0.496031,77.9984,Q,Q
2023-03-15 11:51:57:727,0,-78.7235,0.494907,77.9985,Q,Q
2023-03-15 11:51:57:737,0,-78.7243,0.494946,78.0008,Q,Q
2023-03-15 11:51:57:747,0,-78.7235,0.495574,77.9991,Q,Q
2023-03-15 11:51:57:757,0,-78.7233,0.497829,77.9978,Q,Q
2023-03-15 11:51:57:767,0,-78.7226,0.49616,77.9962,Q,Q
2023-03-15 11:51:57:777,0,-78.7249,0.496269,77.9958,Q,Q
2023-03-15 11:51:57:787,0,-78.725,0.497848,77.9988,Q,Q
2023-03-15 11:51:57:797,0,-78.7233,0.49741,78.0017,Q,Q
2023-03-15 11:51:57:807,0,-78.7259,0.495863,78.0024,Q,Q
2023-03-15 11:51:57:817,0,-78.7284,0.494434,78.0014,Q,Q
2023-03-15 11:51:57:827,0,-78.7284,0.496836,78.0013,Q,Q
2023-03-15 11:51:57:837,0,-78.7304,0.496223,77.9993,Q,Q
2023-03-15 11:51:57:847,0,-78.7314,0.501119,78.0005,Q,Q
2023-03-15 11:51:57:857,0,-78.7343,0.502871,78.0008,Q,Q
2023-03-15 11:51:57:867,0,-78.7349,0.501185,78.0016,Q,Q
2023-03-15 11:51:57:877,0,-78.7327,0.498742,78.0021,Q,Q
2023-03-15 11:51:57:887,0,-78.7331,0.499056,78.0033,Q,Q
2023-03-15 11:51:57:897,0,-78.7359,0.499892,78.0033,Q,Q
2023-03-15 11:51:57:907,0,-78.7363,0.501518,78.006,Q,Q
2023-03-15 11:51:57:917,0,-78.7364,0.497631,78.0047,Q,Q
2023-03-15 11:51:57:927,0,-78.7375,0.494031,78.0053,Q,Q
2023-03-15 11:51:57:937,0,-78.7363,0.494321,78.005,Q,Q
2023-03-15 11:51:57:947,0,-78.7372,0.496187,78.0039,Q,Q
2023-03-15 11:51:57:957,0,-78.736,0.495961,78.0036,Q,Q
2023-03-15 11:51:57:967,0,-78.7372,0.496674,78.0027,Q,Q
2023-03-15 11:51:57:977,0,-78.7394,0.495912,78.008,Q,Q
2023-03-15 11:51:57:988,0,-78.7375,0.495167,78.0061,Q,Q
2023-03-15 11:51:57:997,0,-78.7379,0.495278,78.0046,Q,Q
2023-03-15 11:51:58:8,0,-78.7375,0.494394,78.0077,Q,Q
2023-03-15 11:51:58:17,0,-78.74,0.493362,78.0073,Q,Q
2023-03-15 11:51:58:28,0,-78.7399,0.494097,78.0067,Q,Q
2023-03-15 11:51:58:37,0,-78.7439,0.49214,78.0105,Q,Q
2023-03-15 11:51:58:47,0,-78.7431,0.493972,78.0095,Q,Q
2023-03-15 11:51:58:57,0,-78.7417,0.494587,78.0098,Q,Q
2023-03-15 11:51:58:67,0,-78.7411,0.498552,78.0086,Q,Q
2023-03-15 11:51:58:77,0,-78.7375,0.498784,78.0086,Q,Q
2023-03-15 11:51:58:87,0,-78.7368,0.499763,78.0082,Q,Q
2023-03-15 11:51:58:98,0,-78.7348,0.501513,78.0054,Q,Q
2023-03-15 11:51:58:107,0,-78.7336,0.501396,78.0044,Q,Q
2023-03-15 11:51:58:118,0,-78.7321,0.500017,78.0051,Q,Q
2023-03-15 11:51:58:127,0,-78.7327,0.499572,78.0062,Q,Q
2023-03-15 11:51:58:137,0,-78.7296,0.502358,78.0055,Q,Q
2023-03-15 11:51:58:147,0,-78.7302,0.500538,78.005,Q,Q
2023-03-15 11:51:58:158,0,-78.731,0.50125,78.0053,Q,Q
2023-03-15 11:51:58:167,0,-78.7325,0.50427,78.0097,Q,Q
2023-03-15 11:51:58:177,0,-78.7329,0.502931,78.0103,Q,Q
2023-03-15 11:51:58:187,0,-78.7349,0.502644,78.0105,Q,Q
2023-03-15 11:51:58:197,0,-78.7331,0.503438,78.0092,Q,Q
2023-03-15 11:51:58:207,0,-78.7327,0.499928,78.0114,Q,Q
2023-03-15 11:51:58:217,0,-78.7339,0.499366,78.0107,Q,Q
2023-03-15 11:51:58:228,0,-78.7354,0.502214,78.0105,Q,Q
2023-03-15 11:51:58:237,0,-78.736,0.502355,78.0116,Q,Q
2023-03-15 11:51:58:247,0,-78.7363,0.501518,78.0097,Q,Q
2023-03-15 11:51:58:257,0,-78.7365,0.500162,78.0088,Q,Q
2023-03-15 11:51:58:268,0,-78.7347,0.498508,78.01,Q,Q
2023-03-15 11:51:58:277,0,-78.7334,0.498121,78.0088,Q,Q
2023-03-15 11:51:58:287,0,-78.7344,0.495231,78.0083,Q,Q
2023-03-15 11:51:58:297,0,-78.7338,0.492821,78.0063,Q,Q
2023-03-15 11:51:58:307,0,-78.733,0.491548,78.0049,Q,Q
2023-03-15 11:51:58:317,0,-78.7327,0.491071,78.0051,Q,Q
2023-03-15 11:51:58:327,0,-78.733,0.489321,78.0024,Q,Q
2023-03-15 11:51:58:337,0,-78.7361,0.488252,78.0023,Q,Q
2023-03-15 11:51:58:347,0,-78.7367,0.48562,77.9991,Q,Q
2023-03-15 11:51:58:357,0,-78.739,0.483182,78.0008,Q,Q
2023-03-15 11:51:58:367,0,-78.7376,0.482893,77.9975,Q,Q
2023-03-15 11:51:58:377,0,-78.7411,0.484376,77.9979,Q,Q
2023-03-15 11:51:58:387,0,-78.7413,0.486068,77.9974,Q,Q
2023-03-15 11:51:58:397,0,-78.7398,0.488949,77.9967,Q,Q
2023-03-15 11:51:58:407,0,-78.7419,0.490859,77.9961,Q,Q
2023-03-15 11:51:58:417,0,-78.7408,0.490645,77.9944,Q,Q
2023-03-15 11:51:58:427,0,-78.7387,0.492534,77.9951,Q,Q
2023-03-15 11:51:58:437,0,-78.7364,0.490267,77.9971,Q,Q
2023-03-15 11:51:58:447,0,-78.7367,0.49034,77.9947,Q,Q
2023-03-15 11:51:58:457,0,-78.7351,0.488242,77.9932,Q,Q
2023-03-15 11:51:58:467,0,-78.7382,0.489473,77.9933,Q,Q
2023-03-15 11:51:58:477,0,-78.7384,0.490508,77.9929,Q,Q
2023-03-15 11:51:58:487,0,-78.7378,0.489817,77.9931,Q,Q
2023-03-15 11:51:58:497,0,-78.7409,0.488229,77.9955,Q,Q
2023-03-15 11:51:58:507,0,-78.7406,0.485834,77.9975,Q,Q
2023-03-15 11:51:58:517,0,-78.7408,0.48478,77.9984,Q,Q
2023-03-15 11:51:58:528,0,-78.7405,0.485747,77.9961,Q,Q
2023-03-15 11:51:58:538,0,-78.7412,0.484161,77.9961,Q,Q
2023-03-15 11:51:58:548,0,-78.742,0.482556,77.9966,Q,Q
2023-03-15 11:51:58:557,0,-78.7402,0.483317,77.9974,Q,Q
2023-03-15 11:51:58:568,0,-78.7397,0.480618,77.9967,Q,Q
2023-03-15 11:51:58:578,0,-78.7415,0.477787,77.9965,Q,Q
2023-03-15 11:51:58:588,0,-78.7396,0.477708,77.9961,Q,Q
2023-03-15 11:51:58:598,0,-78.7388,0.476021,77.9959,Q,Q
2023-03-15 11:51:58:607,0,-78.7383,0.477717,77.9945,Q,Q
2023-03-15 11:51:58:618,0,-78.7377,0.476122,77.9929,Q,Q
2023-03-15 11:51:58:627,0,-78.7333,0.47641,77.9955,Q,Q
2023-03-15 11:51:58:638,0,-78.7328,0.476897,77.993,Q,Q
2023-03-15 11:51:58:648,0,-78.7346,0.473172,77.9945,Q,Q
2023-03-15 11:51:58:657,0,-78.736,0.472461,77.9949,Q,Q
2023-03-15 11:51:58:668,0,-78.734,0.47227,77.9951,Q,Q
2023-03-15 11:51:58:677,0,-78.7331,0.468442,77.9973,Q,Q
2023-03-15 11:51:58:687,0,-78.7329,0.469143,77.9994,Q,Q
2023-03-15 11:51:58:697,0,-78.7343,0.469112,77.997,Q,Q
2023-03-15 11:51:58:708,0,-78.7331,0.468027,77.9922,Q,Q
2023-03-15 11:51:58:718,0,-78.7313,0.470863,77.9904,Q,Q
2023-03-15 11:51:58:727,0,-78.7294,0.473998,77.9921,Q,Q
2023-03-15 11:51:58:737,0,-78.7325,0.472785,77.9918,Q,Q
2023-03-15 11:51:58:748,0,-78.7304,0.473324,77.9904,Q,Q
2023-03-15 11:51:58:758,0,-78.7301,0.475628,77.993,Q,Q
2023-03-15 11:51:58:768,0,-78.732,0.472538,77.9937,Q,Q
2023-03-15 11:51:58:778,0,-78.7324,0.471458,77.9942,Q,Q
2023-03-15 11:51:58:788,0,-78.7348,0.47017,77.9907,Q,Q
2023-03-15 11:51:58:797,0,-78.7349,0.470091,77.991,Q,Q
2023-03-15 11:51:58:807,0,-78.7376,0.466347,77.9905,Q,Q
2023-03-15 11:51:58:818,0,-78.7372,0.467749,77.9917,Q,Q
2023-03-15 11:51:58:828,0,-78.7358,0.466425,77.9933,Q,Q
2023-03-15 11:51:58:837,0,-78.7359,0.469319,77.9939,Q,Q
2023-03-15 11:51:58:847,0,-78.7376,0.467915,77.9955,Q,Q
2023-03-15 11:51:58:857,0,-78.7384,0.470773,77.9917,Q,Q
2023-03-15 11:51:58:867,0,-78.7416,0.470889,77.9948,Q,Q
2023-03-15 11:51:58:877,0,-78.744,0.472173,77.9939,Q,Q
2023-03-15 11:51:58:887,0,-78.7436,0.47216,77.9945,Q,Q
2023-03-15 11:51:58:897,0,-78.7405,0.474677,77.9966,Q,Q
2023-03-15 11:51:58:907,0,-78.7354,0.475349,77.9981,Q,Q
2023-03-15 11:51:58:917,0,-78.7348,0.47512,77.9946,Q,Q
2023-03-15 11:51:58:927,0,-78.7334,0.47375,77.9928,Q,Q
2023-03-15 11:51:58:937,0,-78.7332,0.475144,77.9918,Q,Q
2023-03-15 11:51:58:947,0,-78.7329,0.477509,77.9911,Q,Q
2023-03-15 11:51:58:957,0,-78.7329,0.477964,77.9904,Q,Q
2023-03-15 11:51:58:967,0,-78.7346,0.478958,77.9896,Q,Q
2023-03-15 11:51:58:977,0,-78.7353,0.481419,77.9876,Q,Q
2023-03-15 11:51:58:987,0,-78.7312,0.481199,77.9873,Q,Q
2023-03-15 11:51:58:997,0,-78.7283,0.481957,77.9867,Q,Q
2023-03-15 11:51:59:7,0,-78.7302,0.482658,77.9854,Q,Q
2023-03-15 11:51:59:17,0,-78.7371,0.481268,77.9867,Q,Q
2023-03-15 11:51:59:27,0,-78.7451,0.481034,77.9868,Q,Q
2023-03-15 11:51:59:37,0,-78.7493,0.475388,77.9888,Q,Q
2023-03-15 11:51:59:47,0,-78.7468,0.474323,77.9855,Q,Q
2023-03-15 11:51:59:57,0,-78.7396,0.471952,77.9881,Q,Q
2023-03-15 11:51:59:67,0,-78.7347,0.473938,77.9897,Q,Q
2023-03-15 11:51:59:77,0,-78.7362,0.473569,77.9945,Q,Q
2023-03-15 11:51:59:87,0,-78.7405,0.473267,77.9947,Q,Q
2023-03-15 11:51:59:97,0,-78.7437,0.473692,77.9947,Q,Q
2023-03-15 11:51:59:108,0,-78.7381,0.472675,77.9954,Q,Q
2023-03-15 11:51:59:117,0,-78.7309,0.474908,77.9917,Q,Q
2023-03-15 11:51:59:127,0,-78.728,0.474396,77.9906,Q,Q
2023-03-15 11:51:59:137,0,-78.7309,0.47124,77.9881,Q,Q
2023-03-15 11:51:59:147,0,-78.7372,0.47436,77.9898,Q,Q
2023-03-15 11:51:59:157,0,-78.7439,0.477968,77.987,Q,Q
2023-03-15 11:51:59:167,0,-78.7431,0.479676,77.9841,Q,Q
2023-03-15 11:51:59:177,0,-78.7346,0.478963,77.9835,Q,Q
2023-03-15 11:51:59:187,0,-78.7302,0.481243,77.9818,Q,Q
2023-03-15 11:51:59:197,0,-78.7282,0.479895,77.9835,Q,Q
2023-03-15 11:51:59:208,0,-78.7292,0.480151,77.9853,Q,Q
2023-03-15 11:51:59:217,0,-78.7368,0.478972,77.9833,Q,Q
2023-03-15 11:51:59:228,0,-78.7436,0.478336,77.9828,Q,Q
2023-03-15 11:51:59:238,0,-78.7448,0.477358,77.9844,Q,Q
2023-03-15 11:51:59:248,0,-78.7395,0.477392,77.9862,Q,Q
2023-03-15 11:51:59:258,0,-78.7365,0.48105,77.9876,Q,Q
2023-03-15 11:51:59:268,0,-78.7366,0.478157,77.9869,Q,Q
2023-03-15 11:51:59:277,0,-78.7377,0.474714,77.989,Q,Q
2023-03-15 11:51:59:287,0,-78.7422,0.477592,77.9865,Q,Q
2023-03-15 11:51:59:297,0,-78.7388,0.478494,77.9865,Q,Q
2023-03-15 11:51:59:307,0,-78.7369,0.478677,77.9849,Q,Q
2023-03-15 11:51:59:317,0,-78.7341,0.478929,77.9846,Q,Q
2023-03-15 11:51:59:327,0,-78.7325,0.476829,77.9835,Q,Q
2023-03-15 11:51:59:337,0,-78.7357,0.473656,77.9824,Q,Q
2023-03-15 11:51:59:347,0,-78.7397,0.471986,77.9804,Q,Q
2023-03-15 11:51:59:357,0,-78.7407,0.473456,77.9805,Q,Q
2023-03-15 11:51:59:367,0,-78.7379,0.472445,77.9798,Q,Q
2023-03-15 11:51:59:377,0,-78.7385,0.472861,77.9804,Q,Q
2023-03-15 11:51:59:387,0,-78.7402,0.474742,77.9829,Q,Q
2023-03-15 11:51:59:397,0,-78.7414,0.474786,77.9863,Q,Q
2023-03-15 11:51:59:407,0,-78.7436,0.475467,77.9879,Q,Q
2023-03-15 11:51:59:417,0,-78.7429,0.471109,77.9859,Q,Q
2023-03-15 11:51:59:427,0,-78.7436,0.470835,77.9851,Q,Q
2023-03-15 11:51:59:437,0,-78.7465,0.470385,77.9838,Q,Q
2023-03-15 11:51:59:447,0,-78.7471,0.468496,77.9803,Q,Q
2023-03-15 11:51:59:457,0,-78.7471,0.468683,77.9814,Q,Q
2023-03-15 11:51:59:467,0,-78.7472,0.470189,77.9797,Q,Q
2023-03-15 11:51:59:477,0,-78.7501,0.471743,77.979,Q,Q
2023-03-15 11:51:59:487,0,-78.7518,0.472274,77.9775,Q,Q
2023-03-15 11:51:59:497,0,-78.7541,0.472483,77.9785,Q,Q
2023-03-15 11:51:59:507,0,-78.7486,0.472649,77.978,Q,Q
2023-03-15 11:51:59:518,0,-78.7498,0.472395,77.9767,Q,Q
2023-03-15 11:51:59:527,0,-78.7483,0.472603,77.9782,Q,Q
2023-03-15 11:51:59:537,0,-78.7477,0.471612,77.9827,Q,Q
2023-03-15 11:51:59:547,0,-78.7476,0.471883,77.9858,Q,Q
2023-03-15 11:51:59:557,0,-78.7477,0.472533,77.9853,Q,Q
2023-03-15 11:51:59:567,0,-78.7462,0.473008,77.983,Q,Q
2023-03-15 11:51:59:577,0,-78.745,0.472853,77.9816,Q,Q
2023-03-15 11:51:59:588,0,-78.7487,0.473095,77.9819,Q,Q
2023-03-15 11:51:59:597,0,-78.754,0.471666,77.985,Q,Q
2023-03-15 11:51:59:607,0,-78.7553,0.471403,77.9836,Q,Q
2023-03-15 11:51:59:617,0,-78.7544,0.469469,77.9831,Q,Q
2023-03-15 11:51:59:627,0,-78.7504,0.469246,77.9832,Q,Q
2023-03-15 11:51:59:637,0,-78.7472,0.469933,77.9847,Q,Q
2023-03-15 11:51:59:647,0,-78.7468,0.4714,77.9853,Q,Q
2023-03-15 11:51:59:657,0,-78.7459,0.470746,77.9843,Q,Q
2023-03-15 11:51:59:667,0,-78.7471,0.47131,77.9829,Q,Q
2023-03-15 11:51:59:677,0,-78.747,0.47134,77.9829,Q,Q
2023-03-15 11:51:59:687,0,-78.7448,0.469277,77.9825,Q,Q
2023-03-15 11:51:59:697,0,-78.742,0.467498,77.982,Q,Q
2023-03-15 11:51:59:707,0,-78.746,0.467701,77.9814,Q,Q
2023-03-15 11:51:59:717,0,-78.7497,0.463578,77.9824,Q,Q
2023-03-15 11:51:59:727,0,-78.7513,0.46519,77.9864,Q,Q
2023-03-15 11:51:59:737,0,-78.7497,0.465696,77.9881,Q,Q
2023-03-15 11:51:59:747,0,-78.7511,0.467116,77.9898,Q,Q
2023-03-15 11:51:59:757,0,-78.7509,0.469138,77.9942,Q,Q
2023-03-15 11:51:59:767,0,-78.7518,0.469679,77.9917,Q,Q
2023-03-15 11:51:59:777,0,-78.7516,0.467899,77.9938,Q,Q
2023-03-15 11:51:59:787,0,-78.7544,0.46768,77.9947,Q,Q
2023-03-15 11:51:59:797,0,-78.7537,0.467315,77.9959,Q,Q
2023-03-15 11:51:59:807,0,-78.7526,0.46685,77.9962,Q,Q
2023-03-15 11:51:59:817,0,-78.7539,0.467366,77.9982,Q,Q
2023-03-15 11:51:59:827,0,-78.7561,0.467659,77.9925,Q,Q
2023-03-15 11:51:59:837,0,-78.759,0.468974,77.9924,Q,Q
2023-03-15 11:51:59:847,0,-78.7601,0.469244,77.9929,Q,Q
2023-03-15 11:51:59:857,0,-78.7582,0.471243,77.9919,Q,Q
2023-03-15 11:51:59:867,0,-78.7581,0.469701,77.9912,Q,Q
2023-03-15 11:51:59:877,0,-78.7584,0.468687,77.9927,Q,Q
2023-03-15 11:51:59:887,0,-78.7611,0.470278,77.9909,Q,Q
2023-03-15 11:51:59:897,0,-78.7601,0.47226,77.9914,Q,Q
2023-03-15 11:51:59:907,0,-78.7575,0.471648,77.9941,Q,Q
2023-03-15 11:51:59:917,0,-78.7579,0.472276,77.9898,Q,Q
2023-03-15 11:51:59:927,0,-78.7611,0.47368,77.9902,Q,Q
2023-03-15 11:51:59:937,0,-78.7642,0.473675,77.9909,Q,Q
2023-03-15 11:51:59:947,0,-78.767,0.470669,77.9902,Q,Q
2023-03-15 11:51:59:957,0,-78.767,0.469566,77.9903,Q,Q
2023-03-15 11:51:59:967,0,-78.7653,0.468405,77.9898,Q,Q
2023-03-15 11:51:59:977,0,-78.7665,0.467632,77.9906,Q,Q
2023-03-15 11:51:59:987,0,-78.764,0.469462,77.9903,Q,Q
2023-03-15 11:51:59:997,0,-78.7637,0.470471,77.9937,Q,Q
2023-03-15 11:52:00:7,0,-78.7671,0.470665,77.9989,Q,Q
2023-03-15 11:52:00:17,0,-78.7622,0.470127,77.9994,Q,Q
2023-03-15 11:52:00:27,0,-78.7656,0.471475,78.0007,Q,Q
2023-03-15 11:52:00:37,0,-78.7636,0.470462,78.0038,Q,Q
2023-03-15 11:52:00:47,0,-78.7632,0.467555,78.0069,Q,Q
2023-03-15 11:52:00:57,0,-78.7628,0.468041,78.0105,Q,Q
2023-03-15 11:52:00:67,0,-78.7668,0.469776,78.0095,Q,Q
2023-03-15 11:52:00:77,0,-78.7673,0.469615,78.0112,Q,Q
2023-03-15 11:52:00:88,0,-78.7632,0.467452,78.0143,Q,Q
2023-03-15 11:52:00:98,0,-78.7622,0.468105,78.0168,Q,Q
2023-03-15 11:52:00:108,0,-78.7659,0.466937,78.0184,Q,Q
2023-03-15 11:52:00:118,0,-78.7686,0.464774,78.0202,Q,Q
2023-03-15 11:52:00:128,0,-78.7716,0.466812,78.0195,Q,Q
2023-03-15 11:52:00:137,0,-78.7717,0.467744,78.0172,Q,Q
2023-03-15 11:52:00:148,0,-78.7696,0.464134,78.018,Q,Q
2023-03-15 11:52:00:158,0,-78.7673,0.462668,78.0172,Q,Q
2023-03-15 11:52:00:167,0,-78.7708,0.461649,78.0198,Q,Q
2023-03-15 11:52:00:177,0,-78.773,0.459375,78.0198,Q,Q
2023-03-15 11:52:00:187,0,-78.7765,0.459469,78.0196,Q,Q
2023-03-15 11:52:00:197,0,-78.7763,0.460627,78.02,Q,Q
2023-03-15 11:52:00:207,0,-78.7735,0.462187,78.0161,Q,Q
2023-03-15 11:52:00:217,0,-78.773,0.463187,78.0146,Q,Q
2023-03-15 11:52:00:227,0,-78.7706,0.46433,78.0156,Q,Q
2023-03-15 11:52:00:237,0,-78.7689,0.461457,78.0165,Q,Q
2023-03-15 11:52:00:247,0,-78.7721,0.464797,78.0178,Q,Q
2023-03-15 11:52:00:257,0,-78.7735,0.462293,78.0183,Q,Q
2023-03-15 11:52:00:267,0,-78.7787,0.462606,78.0135,Q,Q
2023-03-15 11:52:00:277,0,-78.7767,0.465582,78.0145,Q,Q
2023-03-15 11:52:00:287,0,-78.7778,0.470976,78.0146,Q,Q
2023-03-15 11:52:00:297,0,-78.778,0.469677,78.0163,Q,Q
2023-03-15 11:52:00:307,0,-78.7775,0.468502,78.0166,Q,Q
2023-03-15 11:52:00:317,0,-78.7787,0.466116,78.0202,Q,Q
2023-03-15 11:52:00:327,0,-78.7773,0.464354,78.0223,Q,Q
2023-03-15 11:52:00:337,0,-78.7786,0.463117,78.0238,Q,Q
2023-03-15 11:52:00:347,0,-78.7806,0.463242,78.0226,Q,Q
2023-03-15 11:52:00:357,0,-78.781,0.4612,78.023,Q,Q
2023-03-15 11:52:00:367,0,-78.7812,0.462465,78.0255,Q,Q
2023-03-15 11:52:00:377,0,-78.7809,0.464522,78.0275,Q,Q
2023-03-15 11:52:00:387,0,-78.7839,0.461471,78.0275,Q,Q
2023-03-15 11:52:00:397,0,-78.786,0.460151,78.0273,Q,Q
2023-03-15 11:52:00:408,0,-78.7851,0.460193,78.0254,Q,Q
2023-03-15 11:52:00:417,0,-78.7907,0.460058,78.0251,Q,Q
2023-03-15 11:52:00:427,0,-78.7883,0.458234,78.0231,Q,Q
2023-03-15 11:52:00:437,0,-78.7858,0.460358,78.0223,Q,Q
2023-03-15 11:52:00:447,0,-78.7841,0.458402,78.024,Q,Q
2023-03-15 11:52:00:457,0,-78.7896,0.462342,78.0254,Q,Q
2023-03-15 11:52:00:467,0,-78.7885,0.461941,78.0271,Q,Q
2023-03-15 11:52:00:477,0,-78.7913,0.459706,78.0221,Q,Q
2023-03-15 11:52:00:487,0,-78.7916,0.461717,78.0226,Q,Q
2023-03-15 11:52:00:497,0,-78.7942,0.464195,78.0198,Q,Q
2023-03-15 11:52:00:507,0,-78.7923,0.462821,78.0181,Q,Q
2023-03-15 11:52:00:517,0,-78.7907,0.462918,78.0183,Q,Q
2023-03-15 11:52:00:527,0,-78.7876,0.460662,78.0176,Q,Q
2023-03-15 11:52:00:537,0,-78.7864,0.460159,78.0174,Q,Q
2023-03-15 11:52:00:547,0,-78.7882,0.459978,78.0175,Q,Q
2023-03-15 11:52:00:557,0,-78.788,0.460135,78.0181,Q,Q
2023-03-15 11:52:00:567,0,-78.7913,0.458132,78.0193,Q,Q
2023-03-15 11:52:00:577,0,-78.7924,0.458685,78.0199,Q,Q
2023-03-15 11:52:00:587,0,-78.7923,0.459766,78.0221,Q,Q
2023-03-15 11:52:00:597,0,-78.7914,0.45781,78.0259,Q,Q
2023-03-15 11:52:00:607,0,-78.7887,0.456586,78.0256,Q,Q
2023-03-15 11:52:00:617,0,-78.7907,0.455099,78.0237,Q,Q
2023-03-15 11:52:00:627,0,-78.7911,0.456342,78.023,Q,Q
2023-03-15 11:52:00:637,0,-78.793,0.45675,78.0261,Q,Q
2023-03-15 11:52:00:647,0,-78.7904,0.456324,78.0239,Q,Q
2023-03-15 11:52:00:657,0,-78.7898,0.455696,78.023,Q,Q
2023-03-15 11:52:00:667,0,-78.7877,0.45319,78.0214,Q,Q
2023-03-15 11:52:00:677,0,-78.7846,0.450172,78.0216,Q,Q
2023-03-15 11:52:00:687,0,-78.7864,0.449751,78.0187,Q,Q
2023-03-15 11:52:00:697,0,-78.7863,0.44827,78.0182,Q,Q
2023-03-15 11:52:00:707,0,-78.7865,0.447391,78.0184,Q,Q
2023-03-15 11:52:00:717,0,-78.7877,0.449437,78.0215,Q,Q
2023-03-15 11:52:00:727,0,-78.7884,0.447381,78.0215,Q,Q
2023-03-15 11:52:00:737,0,-78.79,0.44989,78.0197,Q,Q
2023-03-15 11:52:00:747,0,-78.7917,0.452409,78.0212,Q,Q
2023-03-15 11:52:00:757,0,-78.7917,0.454728,78.0219,Q,Q
2023-03-15 11:52:00:767,0,-78.7909,0.457128,78.0254,Q,Q
2023-03-15 11:52:00:777,0,-78.7926,0.455252,78.0249,Q,Q
2023-03-15 11:52:00:787,0,-78.7906,0.455502,78.0242,Q,Q
2023-03-15 11:52:00:797,0,-78.7892,0.458563,78.0232,Q,Q
2023-03-15 11:52:00:807,0,-78.7892,0.458535,78.024,Q,Q
2023-03-15 11:52:00:817,0,-78.7887,0.457549,78.0238,Q,Q
2023-03-15 11:52:00:827,0,-78.7858,0.459702,78.0222,Q,Q
2023-03-15 11:52:00:837,0,-78.7893,0.459241,78.0224,Q,Q
2023-03-15 11:52:00:847,0,-78.7884,0.458049,78.021,Q,Q
2023-03-15 11:52:00:857,0,-78.7928,0.456214,78.0224,Q,Q
2023-03-15 11:52:00:867,0,-78.793,0.456583,78.0254,Q,Q
2023-03-15 11:52:00:877,0,-78.793,0.457874,78.0263,Q,Q
2023-03-15 11:52:00:887,0,-78.7936,0.457531,78.0243,Q,Q
2023-03-15 11:52:00:897,0,-78.7955,0.459133,78.0264,Q,Q
2023-03-15 11:52:00:907,0,-78.7977,0.458939,78.0277,Q,Q
2023-03-15 11:52:00:917,0,-78.7979,0.457891,78.0282,Q,Q
2023-03-15 11:52:00:927,0,-78.7967,0.458196,78.028,Q,Q
2023-03-15 11:52:00:937,0,-78.7944,0.455981,78.0272,Q,Q
2023-03-15 11:52:00:947,0,-78.7985,0.451913,78.0262,Q,Q
2023-03-15 11:52:00:957,0,-78.7976,0.454023,78.0277,Q,Q
2023-03-15 11:52:00:967,0,-78.7968,0.454512,78.0275,Q,Q
2023-03-15 11:52:00:977,0,-78.7968,0.456304,78.0278,Q,Q
2023-03-15 11:52:00:987,0,-78.797,0.456643,78.0275,Q,Q
2023-03-15 11:52:00:997,0,-78.7981,0.459532,78.0272,Q,Q
2023-03-15 11:52:01:7,0,-78.7981,0.459861,78.0299,Q,Q
2023-03-15 11:52:01:17,0,-78.7987,0.461272,78.0281,Q,Q
2023-03-15 11:52:01:27,0,-78.7969,0.466134,78.0283,Q,Q
2023-03-15 11:52:01:37,0,-78.7979,0.464988,78.0311,Q,Q
2023-03-15 11:52:01:47,0,-78.7962,0.463362,78.0325,Q,Q
2023-03-15 11:52:01:57,0,-78.7991,0.463442,78.0337,Q,Q
2023-03-15 11:52:01:67,0,-78.797,0.463076,78.031,Q,Q
2023-03-15 11:52:01:77,0,-78.799,0.461407,78.0321,Q,Q
2023-03-15 11:52:01:87,0,-78.7983,0.462679,78.0302,Q,Q
2023-03-15 11:52:01:97,0,-78.7977,0.46015,78.0314,Q,Q
2023-03-15 11:52:01:107,0,-78.7992,0.461259,78.0274,Q,Q
2023-03-15 11:52:01:117,0,-78.7965,0.460762,78.0279,Q,Q
2023-03-15 11:52:01:127,0,-78.7956,0.459924,78.0259,Q,Q
2023-03-15 11:52:01:137,0,-78.7979,0.458845,78.0247,Q,Q
2023-03-15 11:52:01:148,0,-78.7974,0.458046,78.0253,Q,Q
2023-03-15 11:52:01:157,0,-78.7964,0.459388,78.0263,Q,Q
2023-03-15 11:52:01:168,0,-78.7955,0.459996,78.0297,Q,Q
2023-03-15 11:52:01:177,0,-78.7926,0.462059,78.0296,Q,Q
2023-03-15 11:52:01:188,0,-78.7881,0.461486,78.0304,Q,Q
2023-03-15 11:52:01:198,0,-78.7862,0.462473,78.0291,Q,Q
2023-03-15 11:52:01:207,0,-78.7869,0.460476,78.0308,Q,Q
2023-03-15 11:52:01:217,0,-78.7901,0.459609,78.0293,Q,Q
2023-03-15 11:52:01:227,0,-78.7915,0.458559,78.0295,Q,Q
2023-03-15 11:52:01:237,0,-78.7922,0.459116,78.0305,Q,Q
2023-03-15 11:52:01:247,0,-78.7908,0.457372,78.0331,Q,Q
2023-03-15 11:52:01:257,0,-78.7917,0.45667,78.0351,Q,Q
2023-03-15 11:52:01:268,0,-78.7864,0.454137,78.0348,Q,Q
2023-03-15 11:52:01:277,0,-78.7884,0.456877,78.0389,Q,Q
2023-03-15 11:52:01:287,0,-78.7868,0.459995,78.0396,Q,Q
2023-03-15 11:52:01:297,0,-78.7891,0.461579,78.0367,Q,Q
2023-03-15 11:52:01:307,0,-78.7926,0.461565,78.0353,Q,Q
2023-03-15 11:52:01:317,0,-78.7931,0.459207,78.0339,Q,Q
2023-03-15 11:52:01:327,0,-78.7911,0.45829,78.0329,Q,Q
2023-03-15 11:52:01:337,0,-78.7893,0.459773,78.0346,Q,Q
2023-03-15 11:52:01:347,0,-78.7929,0.460195,78.0314,Q,Q
2023-03-15 11:52:01:357,0,-78.7932,0.457103,78.0317,Q,Q
2023-03-15 11:52:01:367,0,-78.7935,0.458478,78.0301,Q,Q
2023-03-15 11:52:01:377,0,-78.7942,0.458645,78.0294,Q,Q
2023-03-15 11:52:01:387,0,-78.7908,0.458769,78.0288,Q,Q
2023-03-15 11:52:01:397,0,-78.7881,0.457368,78.0287,Q,Q
2023-03-15 11:52:01:407,0,-78.7912,0.458129,78.0273,Q,Q
2023-03-15 11:52:01:417,0,-78.7915,0.457753,78.0265,Q,Q
2023-03-15 11:52:01:427,0,-78.7908,0.458369,78.0286,Q,Q
2023-03-15 11:52:01:437,0,-78.7932,0.460167,78.0274,Q,Q
2023-03-15 11:52:01:447,0,-78.7916,0.459281,78.0314,Q,Q
2023-03-15 11:52:01:457,0,-78.7912,0.457294,78.031,Q,Q
2023-03-15 11:52:01:467,0,-78.7965,0.457509,78.0319,Q,Q
2023-03-15 11:52:01:477,0,-78.7955,0.45959,78.0301,Q,Q
2023-03-15 11:52:01:487,0,-78.7951,0.460579,78.03,Q,Q
2023-03-15 11:52:01:497,0,-78.7969,0.457077,78.0277,Q,Q
2023-03-15 11:52:01:507,0,-78.7948,0.457226,78.029,Q,Q
2023-03-15 11:52:01:517,0,-78.7932,0.458775,78.0306,Q,Q
2023-03-15 11:52:01:527,0,-78.7915,0.462305,78.0302,Q,Q
2023-03-15 11:52:01:537,0,-78.7915,0.46412,78.0315,Q,Q
2023-03-15 11:52:01:547,0,-78.7915,0.463844,78.0289,Q,Q
2023-03-15 11:52:01:557,0,-78.7918,0.46157,78.0299,Q,Q
2023-03-15 11:52:01:567,0,-78.7895,0.462436,78.0314,Q,Q
2023-03-15 11:52:01:577,0,-78.7891,0.462822,78.0311,Q,Q
2023-03-15 11:52:01:587,0,-78.7868,0.4617,78.033,Q,Q
2023-03-15 11:52:01:597,0,-78.787,0.463239,78.0323,Q,Q
2023-03-15 11:52:01:607,0,-78.7866,0.461548,78.0345,Q,Q
2023-03-15 11:52:01:617,0,-78.7874,0.462572,78.036,Q,Q
2023-03-15 11:52:01:627,0,-78.7865,0.463872,78.0352,Q,Q
2023-03-15 11:52:01:637,0,-78.7866,0.463787,78.035,Q,Q
2023-03-15 11:52:01:647,0,-78.7892,0.463354,78.0324,Q,Q
2023-03-15 11:52:01:657,0,-78.7894,0.466691,78.0281,Q,Q
2023-03-15 11:52:01:667,0,-78.7934,0.46678,78.0283,Q,Q
2023-03-15 11:52:01:677,0,-78.7918,0.469244,78.0269,Q,Q
2023-03-15 11:52:01:687,0,-78.7905,0.468322,78.0289,Q,Q
2023-03-15 11:52:01:697,0,-78.7915,0.469544,78.0266,Q,Q
2023-03-15 11:52:01:707,0,-78.7882,0.47016,78.0278,Q,Q
2023-03-15 11:52:01:717,0,-78.79,0.470075,78.0286,Q,Q
2023-03-15 11:52:01:727,0,-78.7878,0.469709,78.0312,Q,Q
2023-03-15 11:52:01:737,0,-78.7899,0.468251,78.0308,Q,Q
2023-03-15 11:52:01:747,0,-78.7936,0.467267,78.0296,Q,Q
2023-03-15 11:52:01:757,0,-78.7871,0.466403,78.0313,Q,Q
2023-03-15 11:52:01:767,0,-78.7867,0.468167,78.0322,Q,Q
2023-03-15 11:52:01:777,0,-78.7883,0.470696,78.0331,Q,Q
2023-03-15 11:52:01:787,0,-78.7861,0.469905,78.0344,Q,Q
2023-03-15 11:52:01:797,0,-78.787,0.469619,78.0334,Q,Q
2023-03-15 11:52:01:807,0,-78.7876,0.471166,78.032,Q,Q
2023-03-15 11:52:01:817,0,-78.7865,0.473159,78.0308,Q,Q
2023-03-15 11:52:01:827,0,-78.7868,0.473029,78.0266,Q,Q
2023-03-15 11:52:01:837,0,-78.7847,0.470225,78.0254,Q,Q
2023-03-15 11:52:01:847,0,-78.7863,0.468559,78.0247,Q,Q
2023-03-15 11:52:01:857,0,-78.7881,0.468662,78.0293,Q,Q
2023-03-15 11:52:01:867,0,-78.7879,0.466824,78.0321,Q,Q
2023-03-15 11:52:01:877,0,-78.7874,0.466227,78.0323,Q,Q
2023-03-15 11:52:01:887,0,-78.7857,0.463386,78.0327,Q,Q
2023-03-15 11:52:01:897,0,-78.7867,0.466737,78.0345,Q,Q
2023-03-15 11:52:01:907,0,-78.7866,0.465868,78.035,Q,Q
2023-03-15 11:52:01:917,0,-78.7896,0.467149,78.0374,Q,Q
2023-03-15 11:52:01:927,0,-78.7882,0.467118,78.0356,Q,Q
2023-03-15 11:52:01:937,0,-78.7923,0.468309,78.0336,Q,Q
2023-03-15 11:52:01:947,0,-78.7969,0.466642,78.0346,Q,Q
2023-03-15 11:52:01:957,0,-78.7969,0.467642,78.0357,Q,Q
2023-03-15 11:52:01:967,0,-78.7983,0.470461,78.0354,Q,Q
2023-03-15 11:52:01:977,0,-78.7958,0.469242,78.0338,Q,Q
2023-03-15 11:52:01:987,0,-78.7933,0.471801,78.0355,Q,Q
2023-03-15 11:52:01:997,0,-78.7937,0.472405,78.0344,Q,Q
2023-03-15 11:52:02:7,0,-78.7956,0.475709,78.0305,Q,Q
2023-03-15 11:52:02:17,0,-78.7981,0.47383,78.0293,Q,Q
2023-03-15 11:52:02:27,0,-78.7979,0.473761,78.0305,Q,Q
2023-03-15 11:52:02:37,0,-78.7978,0.473519,78.0324,Q,Q
2023-03-15 11:52:02:47,0,-78.7963,0.471682,78.0337,Q,Q
2023-03-15 11:52:02:57,0,-78.8013,0.47004,78.0292,Q,Q
2023-03-15 11:52:02:67,0,-78.799,0.470023,78.0293,Q,Q
2023-03-15 11:52:02:77,0,-78.8018,0.471731,78.0298,Q,Q
2023-03-15 11:52:02:87,0,-78.8017,0.469709,78.0305,Q,Q
2023-03-15 11:52:02:97,0,-78.8031,0.470389,78.0316,Q,Q
2023-03-15 11:52:02:107,0,-78.8018,0.472004,78.0318,Q,Q
2023-03-15 11:52:02:117,0,-78.8015,0.473481,78.0331,Q,Q
2023-03-15 11:52:02:127,0,-78.802,0.47439,78.0333,Q,Q
2023-03-15 11:52:02:137,0,-78.8042,0.474099,78.0324,Q,Q
2023-03-15 11:52:02:147,0,-78.8022,0.472932,78.0302,Q,Q
2023-03-15 11:52:02:157,0,-78.7998,0.473745,78.0322,Q,Q
2023-03-15 11:52:02:167,0,-78.8019,0.473653,78.0326,Q,Q
2023-03-15 11:52:02:177,0,-78.8018,0.474623,78.0329,Q,Q
2023-03-15 11:52:02:187,0,-78.8011,0.472084,78.0328,Q,Q
2023-03-15 11:52:02:197,0,-78.7998,0.474842,78.0332,Q,Q
2023-03-15 11:52:02:207,0,-78.8013,0.47511,78.0362,Q,Q
2023-03-15 11:52:02:217,0,-78.7972,0.47536,78.039,Q,Q
2023-03-15 11:52:02:227,0,-78.7982,0.474226,78.0392,Q,Q
2023-03-15 11:52:02:237,0,-78.7939,0.47624,78.0413,Q,Q
2023-03-15 11:52:02:247,0,-78.7927,0.475576,78.0406,Q,Q
2023-03-15 11:52:02:257,0,-78.791,0.472555,78.0414,Q,Q
2023-03-15 11:52:02:267,0,-78.7908,0.468647,78.0436,Q,Q
2023-03-15 11:52:02:277,0,-78.7915,0.469804,78.0452,Q,Q
2023-03-15 11:52:02:287,0,-78.7924,0.472326,78.0449,Q,Q
2023-03-15 11:52:02:297,0,-78.7925,0.47182,78.0456,Q,Q
2023-03-15 11:52:02:307,0,-78.7929,0.468847,78.0469,Q,Q
2023-03-15 11:52:02:318,0,-78.7928,0.466734,78.0451,Q,Q
2023-03-15 11:52:02:328,0,-78.79,0.465784,78.0483,Q,Q
2023-03-15 11:52:02:337,0,-78.7913,0.465199,78.0451,Q,Q
2023-03-15 11:52:02:347,0,-78.7953,0.461528,78.0466,Q,Q
2023-03-15 11:52:02:357,0,-78.7937,0.460645,78.0472,Q,Q
2023-03-15 11:52:02:367,0,-78.7922,0.463191,78.0494,Q,Q
2023-03-15 11:52:02:377,0,-78.791,0.462845,78.0495,Q,Q
2023-03-15 11:52:02:387,0,-78.792,0.461759,78.0493,Q,Q
2023-03-15 11:52:02:397,0,-78.7927,0.459345,78.0464,Q,Q
2023-03-15 11:52:02:407,0,-78.7941,0.459815,78.0467,Q,Q
2023-03-15 11:52:02:417,0,-78.7966,0.45901,78.0454,Q,Q
2023-03-15 11:52:02:427,0,-78.8001,0.455858,78.0405,Q,Q
2023-03-15 11:52:02:437,0,-78.7998,0.45323,78.0379,Q,Q
2023-03-15 11:52:02:447,0,-78.7977,0.452591,78.036,Q,Q
2023-03-15 11:52:02:457,0,-78.7987,0.454079,78.0364,Q,Q
2023-03-15 11:52:02:467,0,-78.7981,0.455301,78.0388,Q,Q
2023-03-15 11:52:02:477,0,-78.7983,0.456847,78.0402,Q,Q
2023-03-15 11:52:02:488,0,-78.7988,0.458604,78.0398,Q,Q
2023-03-15 11:52:02:497,0,-78.8005,0.456893,78.0389,Q,Q
2023-03-15 11:52:02:507,0,-78.7968,0.457748,78.0418,Q,Q
2023-03-15 11:52:02:517,0,-78.7988,0.458677,78.0392,Q,Q
2023-03-15 11:52:02:528,0,-78.8007,0.461128,78.0412,Q,Q
2023-03-15 11:52:02:537,0,-78.7999,0.463357,78.0387,Q,Q
2023-03-15 11:52:02:547,0,-78.799,0.463911,78.0402,Q,Q
2023-03-15 11:52:02:557,0,-78.8003,0.46448,78.0417,Q,Q
2023-03-15 11:52:02:567,0,-78.8021,0.465304,78.0435,Q,Q
2023-03-15 11:52:02:578,0,-78.8022,0.465723,78.0451,Q,Q
2023-03-15 11:52:02:588,0,-78.8013,0.464847,78.0463,Q,Q
2023-03-15 11:52:02:597,0,-78.8004,0.466221,78.0432,Q,Q
2023-03-15 11:52:02:607,0,-78.7998,0.464844,78.0421,Q,Q
2023-03-15 11:52:02:617,0,-78.797,0.467212,78.0397,Q,Q
2023-03-15 11:52:02:627,0,-78.7956,0.465848,78.0399,Q,Q
2023-03-15 11:52:02:637,0,-78.7978,0.463458,78.0401,Q,Q
2023-03-15 11:52:02:647,0,-78.7964,0.464654,78.0411,Q,Q
2023-03-15 11:52:02:657,0,-78.7974,0.46407,78.0437,Q,Q
2023-03-15 11:52:02:667,0,-78.7977,0.465583,78.0459,Q,Q
2023-03-15 11:52:02:677,0,-78.7976,0.466474,78.0485,Q,Q
2023-03-15 11:52:02:687,0,-78.7964,0.464768,78.0511,Q,Q
2023-03-15 11:52:02:697,0,-78.7961,0.460144,78.0521,Q,Q
2023-03-15 11:52:02:707,0,-78.7972,0.461363,78.0526,Q,Q
2023-03-15 11:52:02:717,0,-78.7959,0.458278,78.054,Q,Q
2023-03-15 11:52:02:727,0,-78.7977,0.459361,78.0566,Q,Q
2023-03-15 11:52:02:737,0,-78.7986,0.458521,78.057,Q,Q
2023-03-15 11:52:02:747,0,-78.796,0.459032,78.0581,Q,Q
2023-03-15 11:52:02:757,0,-78.7915,0.457393,78.0568,Q,Q
2023-03-15 11:52:02:767,0,-78.7914,0.456733,78.058,Q,Q
2023-03-15 11:52:02:777,0,-78.7935,0.45469,78.0592,Q,Q
2023-03-15 11:52:02:787,0,-78.796,0.456562,78.0619,Q,Q
2023-03-15 11:52:02:797,0,-78.7983,0.457775,78.0621,Q,Q
2023-03-15 11:52:02:807,0,-78.7975,0.457689,78.0625,Q,Q
2023-03-15 11:52:02:817,0,-78.7969,0.457218,78.0656,Q,Q
2023-03-15 11:52:02:827,0,-78.7917,0.453312,78.0676,Q,Q
2023-03-15 11:52:02:837,0,-78.7919,0.454769,78.0645,Q,Q
2023-03-15 11:52:02:847,0,-78.7961,0.455166,78.0629,Q,Q
2023-03-15 11:52:02:857,0,-78.8,0.455051,78.0652,Q,Q
2023-03-15 11:52:02:867,0,-78.8001,0.453372,78.0674,Q,Q
2023-03-15 11:52:02:877,0,-78.7941,0.449806,78.0678,Q,Q
2023-03-15 11:52:02:887,0,-78.791,0.45017,78.0698,Q,Q
2023-03-15 11:52:02:897,0,-78.7885,0.448754,78.0724,Q,Q
2023-03-15 11:52:02:907,0,-78.7921,0.450578,78.0707,Q,Q
2023-03-15 11:52:02:917,0,-78.7955,0.448279,78.07,Q,Q
2023-03-15 11:52:02:928,0,-78.7957,0.447134,78.0722,Q,Q
2023-03-15 11:52:02:937,0,-78.795,0.444837,78.0743,Q,Q
2023-03-15 11:52:02:947,0,-78.79,0.443692,78.0736,Q,Q
2023-03-15 11:52:02:957,0,-78.7899,0.44492,78.0757,Q,Q
2023-03-15 11:52:02:967,0,-78.7958,0.447634,78.0726,Q,Q
2023-03-15 11:52:02:977,0,-78.7977,0.447168,78.0719,Q,Q
2023-03-15 11:52:02:987,0,-78.798,0.447702,78.0705,Q,Q
2023-03-15 11:52:02:997,0,-78.7944,0.446985,78.0702,Q,Q
2023-03-15 11:52:03:7,0,-78.7908,0.450411,78.0743,Q,Q
2023-03-15 11:52:03:17,0,-78.7927,0.452235,78.0762,Q,Q
2023-03-15 11:52:03:27,0,-78.7938,0.452939,78.0774,Q,Q
2023-03-15 11:52:03:37,0,-78.7958,0.454287,78.0802,Q,Q
2023-03-15 11:52:03:47,0,-78.7965,0.452949,78.078,Q,Q
2023-03-15 11:52:03:57,0,-78.7923,0.449469,78.0778,Q,Q
2023-03-15 11:52:03:67,0,-78.7919,0.44833,78.0798,Q,Q
2023-03-15 11:52:03:77,0,-78.7919,0.448429,78.0768,Q,Q
2023-03-15 11:52:03:87,0,-78.7959,0.446691,78.0768,Q,Q
2023-03-15 11:52:03:97,0,-78.8003,0.448093,78.0751,Q,Q
2023-03-15 11:52:03:107,0,-78.7984,0.447462,78.0735,Q,Q
2023-03-15 11:52:03:117,0,-78.795,0.450263,78.0744,Q,Q
2023-03-15 11:52:03:127,0,-78.7911,0.450476,78.0718,Q,Q
2023-03-15 11:52:03:137,0,-78.7906,0.452268,78.072,Q,Q
2023-03-15 11:52:03:147,0,-78.7911,0.450834,78.0723,Q,Q
2023-03-15 11:52:03:157,0,-78.7929,0.447336,78.0717,Q,Q
2023-03-15 11:52:03:167,0,-78.7958,0.445643,78.0728,Q,Q
2023-03-15 11:52:03:177,0,-78.7972,0.447912,78.0706,Q,Q
2023-03-15 11:52:03:188,0,-78.7949,0.449157,78.074,Q,Q
2023-03-15 11:52:03:198,0,-78.7903,0.45178,78.0761,Q,Q
2023-03-15 11:52:03:207,0,-78.7883,0.450922,78.0765,Q,Q
2023-03-15 11:52:03:217,0,-78.7906,0.450157,78.0769,Q,Q
2023-03-15 11:52:03:228,0,-78.7947,0.452127,78.0766,Q,Q
2023-03-15 11:52:03:237,0,-78.7922,0.447891,78.0756,Q,Q
2023-03-15 11:52:03:247,0,-78.7862,0.447529,78.0776,Q,Q
2023-03-15 11:52:03:257,0,-78.7863,0.448529,78.0788,Q,Q
2023-03-15 11:52:03:267,0,-78.791,0.446218,78.0795,Q,Q
2023-03-15 11:52:03:277,0,-78.7941,0.443131,78.0833,Q,Q
2023-03-15 11:52:03:287,0,-78.7976,0.442065,78.0868,Q,Q
2023-03-15 11:52:03:297,0,-78.7968,0.444096,78.0863,Q,Q
2023-03-15 11:52:03:308,0,-78.7911,0.443861,78.0867,Q,Q
2023-03-15 11:52:03:317,0,-78.7902,0.447524,78.0883,Q,Q
2023-03-15 11:52:03:328,0,-78.7899,0.447697,78.0896,Q,Q
2023-03-15 11:52:03:337,0,-78.7918,0.447956,78.0898,Q,Q
2023-03-15 11:52:03:347,0,-78.794,0.450426,78.0882,Q,Q
2023-03-15 11:52:03:357,0,-78.7905,0.447695,78.0864,Q,Q
2023-03-15 11:52:03:367,0,-78.7887,0.447531,78.088,Q,Q
2023-03-15 11:52:03:377,0,-78.7877,0.447779,78.0893,Q,Q
2023-03-15 11:52:03:387,0,-78.7897,0.447081,78.0927,Q,Q
2023-03-15 11:52:03:397,0,-78.7927,0.448678,78.0951,Q,Q
2023-03-15 11:52:03:407,0,-78.7961,0.451374,78.0969,Q,Q
2023-03-15 11:52:03:417,0,-78.7988,0.451951,78.0977,Q,Q
2023-03-15 11:52:03:427,0,-78.799,0.451978,78.0973,Q,Q
2023-03-15 11:52:03:437,0,-78.7977,0.452936,78.0938,Q,Q
2023-03-15 11:52:03:447,0,-78.7974,0.452108,78.0945,Q,Q
2023-03-15 11:52:03:457,0,-78.7983,0.451544,78.0951,Q,Q
2023-03-15 11:52:03:468,0,-78.7936,0.448545,78.0984,Q,Q
2023-03-15 11:52:03:477,0,-78.793,0.449671,78.0956,Q,Q
2023-03-15 11:52:03:487,0,-78.7896,0.450431,78.096,Q,Q
2023-03-15 11:52:03:497,0,-78.7898,0.447991,78.0987,Q,Q
2023-03-15 11:52:03:508,0,-78.7898,0.449189,78.1012,Q,Q
2023-03-15 11:52:03:518,0,-78.789,0.445559,78.1026,Q,Q
2023-03-15 11:52:03:528,0,-78.7911,0.441867,78.1023,Q,Q
2023-03-15 11:52:03:537,0,-78.7934,0.444223,78.1064,Q,Q
2023-03-15 11:52:03:548,0,-78.7924,0.441206,78.109,Q,Q
2023-03-15 11:52:03:558,0,-78.7929,0.440344,78.11,Q,Q
2023-03-15 11:52:03:568,0,-78.7957,0.439233,78.1089,Q,Q
2023-03-15 11:52:03:577,0,-78.7959,0.440048,78.1115,Q,Q
2023-03-15 11:52:03:588,0,-78.795,0.441494,78.1136,Q,Q
2023-03-15 11:52:03:598,0,-78.7967,0.442368,78.1162,Q,Q
2023-03-15 11:52:03:608,0,-78.7966,0.437926,78.1168,Q,Q
2023-03-15 11:52:03:618,0,-78.801,0.435457,78.1179,Q,Q
2023-03-15 11:52:03:628,0,-78.801,0.434573,78.1178,Q,Q
2023-03-15 11:52:03:637,0,-78.8012,0.432952,78.1165,Q,Q
2023-03-15 11:52:03:647,0,-78.8012,0.4359,78.1161,Q,Q
2023-03-15 11:52:03:658,0,-78.8011,0.439181,78.1172,Q,Q
2023-03-15 11:52:03:668,0,-78.7996,0.439849,78.1197,Q,Q
2023-03-15 11:52:03:677,0,-78.8006,0.440088,78.1166,Q,Q
2023-03-15 11:52:03:687,0,-78.7967,0.443596,78.1215,Q,Q
2023-03-15 11:52:03:698,0,-78.7985,0.44455,78.1235,Q,Q
2023-03-15 11:52:03:707,0,-78.7964,0.444344,78.1255,Q,Q
2023-03-15 11:52:03:718,0,-78.7925,0.443153,78.126,Q,Q
2023-03-15 11:52:03:728,0,-78.7925,0.442616,78.125,Q,Q
2023-03-15 11:52:03:738,0,-78.7928,0.445347,78.1235,Q,Q
2023-03-15 11:52:03:748,0,-78.7954,0.446253,78.1215,Q,Q
2023-03-15 11:52:03:757,0,-78.7955,0.447569,78.1208,Q,Q
2023-03-15 11:52:03:767,0,-78.7926,0.448311,78.1227,Q,Q
2023-03-15 11:52:03:777,0,-78.7941,0.447122,78.1223,Q,Q
2023-03-15 11:52:03:787,0,-78.7927,0.447921,78.1223,Q,Q
2023-03-15 11:52:03:797,0,-78.7903,0.446484,78.1208,Q,Q
2023-03-15 11:52:03:807,0,-78.7908,0.444348,78.1193,Q,Q
2023-03-15 11:52:03:818,0,-78.7896,0.44606,78.1195,Q,Q
2023-03-15 11:52:03:828,0,-78.7908,0.44727,78.1191,Q,Q
2023-03-15 11:52:03:838,0,-78.7935,0.448623,78.1193,Q,Q
2023-03-15 11:52:03:847,0,-78.7945,0.451645,78.1185,Q,Q
2023-03-15 11:52:03:857,0,-78.7941,0.451058,78.1189,Q,Q
2023-03-15 11:52:03:867,0,-78.793,0.448987,78.1209,Q,Q
2023-03-15 11:52:03:877,0,-78.7951,0.449443,78.1227,Q,Q
2023-03-15 11:52:03:887,0,-78.7938,0.447335,78.1233,Q,Q
2023-03-15 11:52:03:897,0,-78.7967,0.449534,78.1234,Q,Q
2023-03-15 11:52:03:908,0,-78.797,0.452015,78.1246,Q,Q
2023-03-15 11:52:03:917,0,-78.797,0.451961,78.1247,Q,Q
2023-03-15 11:52:03:928,0,-78.798,0.451665,78.1227,Q,Q
2023-03-15 11:52:03:937,0,-78.7972,0.450218,78.1246,Q,Q
2023-03-15 11:52:03:947,0,-78.7986,0.452082,78.1265,Q,Q
2023-03-15 11:52:03:957,0,-78.8004,0.453742,78.1241,Q,Q
2023-03-15 11:52:03:967,0,-78.7994,0.457626,78.1217,Q,Q
2023-03-15 11:52:03:977,0,-78.7982,0.459463,78.1224,Q,Q
2023-03-15 11:52:03:987,0,-78.7976,0.455785,78.1225,Q,Q
2023-03-15 11:52:03:997,0,-78.7958,0.454774,78.1225,Q,Q
2023-03-15 11:52:04:7,0,-78.7927,0.453058,78.1226,Q,Q
2023-03-15 11:52:04:17,0,-78.7931,0.457705,78.1239,Q,Q
2023-03-15 11:52:04:27,0,-78.7963,0.457864,78.1228,Q,Q
2023-03-15 11:52:04:37,0,-78.7995,0.455965,78.1231,Q,Q
2023-03-15 11:52:04:47,0,-78.8013,0.455651,78.1279,Q,Q
2023-03-15 11:52:04:57,0,-78.8007,0.456228,78.1281,Q,Q
2023-03-15 11:52:04:67,0,-78.7978,0.453031,78.1281,Q,Q
2023-03-15 11:52:04:77,0,-78.7987,0.453645,78.1261,Q,Q
2023-03-15 11:52:04:87,0,-78.7938,0.455351,78.1284,Q,Q
2023-03-15 11:52:04:97,0,-78.7927,0.456957,78.132,Q,Q
2023-03-15 11:52:04:107,0,-78.7933,0.45827,78.1334,Q,Q
2023-03-15 11:52:04:117,0,-78.7923,0.45697,78.1332,Q,Q
2023-03-15 11:52:04:127,0,-78.794,0.457222,78.132,Q,Q
2023-03-15 11:52:04:137,0,-78.7961,0.456499,78.1334,Q,Q
2023-03-15 11:52:04:147,0,-78.7964,0.456438,78.1315,Q,Q
2023-03-15 11:52:04:157,0,-78.7994,0.454964,78.1322,Q,Q
2023-03-15 11:52:04:167,0,-78.7981,0.456477,78.1298,Q,Q
2023-03-15 11:52:04:177,0,-78.796,0.453758,78.1316,Q,Q
2023-03-15 11:52:04:187,0,-78.797,0.453795,78.1291,Q,Q
2023-03-15 11:52:04:197,0,-78.7939,0.454892,78.1292,Q,Q
2023-03-15 11:52:04:207,0,-78.7947,0.455187,78.1282,Q,Q
2023-03-15 11:52:04:217,0,-78.7953,0.457515,78.1291,Q,Q
2023-03-15 11:52:04:227,0,-78.7943,0.454624,78.1296,Q,Q
2023-03-15 11:52:04:237,0,-78.7927,0.453637,78.1305,Q,Q
2023-03-15 11:52:04:247,0,-78.7913,0.453448,78.1284,Q,Q
2023-03-15 11:52:04:257,0,-78.7899,0.45763,78.1265,Q,Q
2023-03-15 11:52:04:267,0,-78.7924,0.457536,78.1243,Q,Q
2023-03-15 11:52:04:277,0,-78.7916,0.458206,78.1282,Q,Q
2023-03-15 11:52:04:287,0,-78.7938,0.457534,78.1246,Q,Q
2023-03-15 11:52:04:297,0,-78.7952,0.45647,78.1217,Q,Q
2023-03-15 11:52:04:307,0,-78.7946,0.456121,78.1193,Q,Q
2023-03-15 11:52:04:317,0,-78.7933,0.456471,78.1168,Q,Q
2023-03-15 11:52:04:327,0,-78.7972,0.456131,78.1169,Q,Q
2023-03-15 11:52:04:337,0,-78.7962,0.455691,78.1164,Q,Q
2023-03-15 11:52:04:347,0,-78.7954,0.456071,78.1194,Q,Q
