Timestamp_cmd,imu_cmd,roll_delta,pitch_delta,yaw_delta,voice_type,voice_length
2023-03-15 14:57:10:44,0,-1.34024,-0.830045,-15.0362,Q,Q
2023-03-15 14:57:10:51,0,-1.32835,-0.819632,-15.0692,Q,Q
2023-03-15 14:57:10:61,0,-1.3179,-0.811153,-15.1044,Q,Q
2023-03-15 14:57:10:72,0,-1.30687,-0.804248,-15.1359,Q,Q
2023-03-15 14:57:10:82,0,-1.29876,-0.798339,-15.1674,Q,Q
2023-03-15 14:57:10:91,0,-1.29338,-0.794071,-15.1929,Q,Q
2023-03-15 14:57:10:101,0,-1.29249,-0.789842,-15.2184,Q,Q
2023-03-15 14:57:10:111,0,-1.29818,-0.785853,-15.2424,Q,Q
2023-03-15 14:57:10:121,0,-1.30277,-0.785297,-15.263,Q,Q
2023-03-15 14:57:10:131,0,-1.30907,-0.78328,-15.2841,Q,Q
2023-03-15 14:57:10:142,0,-1.31083,-0.781613,-15.3066,Q,Q
2023-03-15 14:57:10:152,0,-1.30893,-0.78475,-15.324,Q,Q
2023-03-15 14:57:10:161,0,-1.29787,-0.786445,-15.3444,Q,Q
2023-03-15 14:57:10:171,0,-1.28801,-0.791738,-15.3642,Q,Q
2023-03-15 14:57:10:182,0,-1.26998,-0.79834,-15.3848,Q,Q
2023-03-15 14:57:10:191,0,-1.25316,-0.804174,-15.406,Q,Q
2023-03-15 14:57:10:202,0,-1.23571,-0.803144,-15.4242,Q,Q
2023-03-15 14:57:10:212,0,-1.22008,-0.804243,-15.4426,Q,Q
2023-03-15 14:57:10:222,0,-1.20464,-0.804327,-15.4584,Q,Q
2023-03-15 14:57:10:232,0,-1.18983,-0.805155,-15.4727,Q,Q
2023-03-15 14:57:10:242,0,-1.17713,-0.805322,-15.4857,Q,Q
2023-03-15 14:57:10:252,0,-1.16787,-0.811613,-15.4978,Q,Q
2023-03-15 14:57:10:262,0,-1.157,-0.817632,-15.5077,Q,Q
2023-03-15 14:57:10:272,0,-1.14261,-0.82289,-15.5174,Q,Q
2023-03-15 14:57:10:281,0,-1.1346,-0.828101,-15.5259,Q,Q
2023-03-15 14:57:10:292,0,-1.12442,-0.839821,-15.5338,Q,Q
2023-03-15 14:57:10:302,0,-1.12077,-0.847018,-15.5414,Q,Q
2023-03-15 14:57:10:312,0,-1.11478,-0.853694,-15.5494,Q,Q
2023-03-15 14:57:10:322,0,-1.10676,-0.865721,-15.5607,Q,Q
2023-03-15 14:57:10:332,0,-1.0988,-0.87163,-15.5729,Q,Q
2023-03-15 14:57:10:342,0,-1.08962,-0.878275,-15.5816,Q,Q
2023-03-15 14:57:10:352,0,-1.08334,-0.88762,-15.5843,Q,Q
2023-03-15 14:57:10:362,0,-1.08457,-0.899535,-15.5838,Q,Q
2023-03-15 14:57:10:372,0,-1.08406,-0.908963,-15.5826,Q,Q
2023-03-15 14:57:10:382,0,-1.08872,-0.913385,-15.5813,Q,Q
2023-03-15 14:57:10:392,0,-1.09063,-0.916247,-15.5793,Q,Q
2023-03-15 14:57:10:402,0,-1.09675,-0.919595,-15.5741,Q,Q
2023-03-15 14:57:10:411,0,-1.10227,-0.920891,-15.5671,Q,Q
2023-03-15 14:57:10:422,0,-1.1086,-0.921227,-15.5589,Q,Q
2023-03-15 14:57:10:432,0,-1.11346,-0.922094,-15.5489,Q,Q
2023-03-15 14:57:10:442,0,-1.11821,-0.922354,-15.5374,Q,Q
2023-03-15 14:57:10:452,0,-1.12256,-0.922001,-15.526,Q,Q
2023-03-15 14:57:10:462,0,-1.12287,-0.923875,-15.5144,Q,Q
2023-03-15 14:57:10:471,0,-1.12239,-0.926212,-15.5061,Q,Q
2023-03-15 14:57:10:481,0,-1.12505,-0.928763,-15.4976,Q,Q
2023-03-15 14:57:10:492,0,-1.12471,-0.92471,-15.4941,Q,Q
2023-03-15 14:57:10:502,0,-1.12583,-0.921813,-15.4951,Q,Q
2023-03-15 14:57:10:512,0,-1.12923,-0.91676,-15.4951,Q,Q
2023-03-15 14:57:10:522,0,-1.12784,-0.912851,-15.5028,Q,Q
2023-03-15 14:57:10:531,0,-1.13038,-0.908918,-15.5122,Q,Q
2023-03-15 14:57:10:542,0,-1.13476,-0.902414,-15.522,Q,Q
2023-03-15 14:57:10:552,0,-1.13569,-0.89893,-15.5335,Q,Q
2023-03-15 14:57:10:562,0,-1.13792,-0.896415,-15.5499,Q,Q
2023-03-15 14:57:10:572,0,-1.1363,-0.893456,-15.5714,Q,Q
2023-03-15 14:57:10:582,0,-1.13115,-0.891707,-15.5903,Q,Q
2023-03-15 14:57:10:592,0,-1.12711,-0.889027,-15.6059,Q,Q
2023-03-15 14:57:10:602,0,-1.12922,-0.88726,-15.6217,Q,Q
2023-03-15 14:57:10:612,0,-1.12943,-0.890516,-15.639,Q,Q
2023-03-15 14:57:10:621,0,-1.12752,-0.889988,-15.6613,Q,Q
2023-03-15 14:57:10:631,0,-1.12622,-0.887424,-15.6862,Q,Q
2023-03-15 14:57:10:641,0,-1.12191,-0.884364,-15.7073,Q,Q
2023-03-15 14:57:10:651,0,-1.12097,-0.882765,-15.7247,Q,Q
2023-03-15 14:57:10:661,0,-1.12409,-0.883763,-15.7375,Q,Q
2023-03-15 14:57:10:671,0,-1.13356,-0.883323,-15.7488,Q,Q
2023-03-15 14:57:10:681,0,-1.146,-0.878917,-15.7606,Q,Q
2023-03-15 14:57:10:691,0,-1.16291,-0.878992,-15.7766,Q,Q
2023-03-15 14:57:10:701,0,-1.18252,-0.87786,-15.7898,Q,Q
2023-03-15 14:57:10:711,0,-1.20092,-0.875637,-15.8024,Q,Q
2023-03-15 14:57:10:721,0,-1.2196,-0.871421,-15.8183,Q,Q
2023-03-15 14:57:10:731,0,-1.23388,-0.870213,-15.8377,Q,Q
2023-03-15 14:57:10:741,0,-1.24811,-0.869526,-15.857,Q,Q
2023-03-15 14:57:10:751,0,-1.26069,-0.870119,-15.8761,Q,Q
2023-03-15 14:57:10:762,0,-1.26947,-0.865496,-15.8985,Q,Q
2023-03-15 14:57:10:772,0,-1.27882,-0.860392,-15.9245,Q,Q
2023-03-15 14:57:10:782,0,-1.28684,-0.859288,-15.9496,Q,Q
2023-03-15 14:57:10:792,0,-1.29209,-0.857026,-15.9751,Q,Q
2023-03-15 14:57:10:802,0,-1.29721,-0.860151,-16.0021,Q,Q
2023-03-15 14:57:10:812,0,-1.30295,-0.863515,-16.0291,Q,Q
2023-03-15 14:57:10:822,0,-1.31135,-0.870872,-16.053,Q,Q
2023-03-15 14:57:10:831,0,-1.32335,-0.876153,-16.0798,Q,Q
2023-03-15 14:57:10:842,0,-1.33633,-0.884776,-16.1009,Q,Q
2023-03-15 14:57:10:852,0,-1.3498,-0.894488,-16.125,Q,Q
2023-03-15 14:57:10:862,0,-1.36414,-0.899032,-16.1521,Q,Q
2023-03-15 14:57:10:872,0,-1.36958,-0.899487,-16.1818,Q,Q
2023-03-15 14:57:10:882,0,-1.37655,-0.895178,-16.2106,Q,Q
2023-03-15 14:57:10:892,0,-1.37592,-0.889734,-16.23,Q,Q
2023-03-15 14:57:10:902,0,-1.37762,-0.884154,-16.2469,Q,Q
2023-03-15 14:57:10:912,0,-1.38018,-0.87682,-16.2641,Q,Q
2023-03-15 14:57:10:922,0,-1.38395,-0.868656,-16.2809,Q,Q
2023-03-15 14:57:10:932,0,-1.39274,-0.861959,-16.2994,Q,Q
2023-03-15 14:57:10:941,0,-1.40528,-0.854904,-16.3177,Q,Q
2023-03-15 14:57:10:952,0,-1.41457,-0.84575,-16.334,Q,Q
2023-03-15 14:57:10:962,0,-1.42595,-0.84439,-16.3542,Q,Q
2023-03-15 14:57:10:972,0,-1.43668,-0.842371,-16.3748,Q,Q
2023-03-15 14:57:10:982,0,-1.44818,-0.844266,-16.3918,Q,Q
2023-03-15 14:57:10:992,0,-1.45485,-0.853658,-16.4065,Q,Q
2023-03-15 14:57:11:2,0,-1.46239,-0.861532,-16.4197,Q,Q
2023-03-15 14:57:11:12,0,-1.46544,-0.873837,-16.4241,Q,Q
2023-03-15 14:57:11:22,0,-1.47262,-0.885245,-16.4244,Q,Q
2023-03-15 14:57:11:32,0,-1.48235,-0.900743,-16.4216,Q,Q
2023-03-15 14:57:11:42,0,-1.49013,-0.912227,-16.4196,Q,Q
2023-03-15 14:57:11:51,0,-1.50257,-0.91913,-16.419,Q,Q
2023-03-15 14:57:11:62,0,-1.51589,-0.924698,-16.4212,Q,Q
2023-03-15 14:57:11:72,0,-1.52916,-0.930237,-16.4264,Q,Q
2023-03-15 14:57:11:81,0,-1.53819,-0.933117,-16.4308,Q,Q
2023-03-15 14:57:11:91,0,-1.55018,-0.941265,-16.4374,Q,Q
2023-03-15 14:57:11:102,0,-1.55681,-0.947008,-16.443,Q,Q
2023-03-15 14:57:11:112,0,-1.5665,-0.951946,-16.454,Q,Q
2023-03-15 14:57:11:122,0,-1.57728,-0.958014,-16.4664,Q,Q
2023-03-15 14:57:11:132,0,-1.58458,-0.963702,-16.4832,Q,Q
2023-03-15 14:57:11:142,0,-1.58805,-0.971025,-16.4959,Q,Q
2023-03-15 14:57:11:152,0,-1.5945,-0.976165,-16.5082,Q,Q
2023-03-15 14:57:11:161,0,-1.60137,-0.97857,-16.5192,Q,Q
2023-03-15 14:57:11:171,0,-1.60418,-0.977899,-16.5309,Q,Q
2023-03-15 14:57:11:181,0,-1.6064,-0.977066,-16.5433,Q,Q
2023-03-15 14:57:11:191,0,-1.60522,-0.980054,-16.5571,Q,Q
2023-03-15 14:57:11:201,0,-1.59985,-0.980682,-16.5744,Q,Q
2023-03-15 14:57:11:212,0,-1.59051,-0.977076,-16.5892,Q,Q
2023-03-15 14:57:11:221,0,-1.58536,-0.97459,-16.6058,Q,Q
2023-03-15 14:57:11:231,0,-1.58287,-0.971043,-16.6193,Q,Q
2023-03-15 14:57:11:242,0,-1.58158,-0.968732,-16.6309,Q,Q
2023-03-15 14:57:11:251,0,-1.58016,-0.97038,-16.6423,Q,Q
2023-03-15 14:57:11:262,0,-1.57698,-0.971164,-16.6583,Q,Q
2023-03-15 14:57:11:272,0,-1.57313,-0.973124,-16.6731,Q,Q
2023-03-15 14:57:11:282,0,-1.56568,-0.972003,-16.6854,Q,Q
2023-03-15 14:57:11:291,0,-1.55933,-0.973392,-16.7014,Q,Q
2023-03-15 14:57:11:302,0,-1.55385,-0.969892,-16.7172,Q,Q
2023-03-15 14:57:11:312,0,-1.54716,-0.965757,-16.7309,Q,Q
2023-03-15 14:57:11:322,0,-1.54634,-0.963642,-16.7414,Q,Q
2023-03-15 14:57:11:332,0,-1.54453,-0.959793,-16.7497,Q,Q
2023-03-15 14:57:11:342,0,-1.54478,-0.954348,-16.7539,Q,Q
2023-03-15 14:57:11:352,0,-1.54357,-0.952399,-16.7634,Q,Q
2023-03-15 14:57:11:362,0,-1.54394,-0.946706,-16.7718,Q,Q
2023-03-15 14:57:11:372,0,-1.54406,-0.943275,-16.7818,Q,Q
2023-03-15 14:57:11:382,0,-1.54543,-0.940215,-16.7935,Q,Q
2023-03-15 14:57:11:392,0,-1.55174,-0.937588,-16.8084,Q,Q
2023-03-15 14:57:11:402,0,-1.55955,-0.935698,-16.8254,Q,Q
2023-03-15 14:57:11:412,0,-1.57197,-0.930624,-16.8449,Q,Q
2023-03-15 14:57:11:422,0,-1.58636,-0.928109,-16.8614,Q,Q
2023-03-15 14:57:11:432,0,-1.60188,-0.926004,-16.8787,Q,Q
2023-03-15 14:57:11:442,0,-1.61907,-0.926464,-16.8832,Q,Q
2023-03-15 14:57:11:452,0,-1.63356,-0.93068,-16.8868,Q,Q
2023-03-15 14:57:11:462,0,-1.64596,-0.930754,-16.8904,Q,Q
2023-03-15 14:57:11:472,0,-1.64753,-0.930624,-16.9006,Q,Q
2023-03-15 14:57:11:482,0,-1.63971,-0.934166,-16.9124,Q,Q
2023-03-15 14:57:11:491,0,-1.62804,-0.931251,-16.9228,Q,Q
2023-03-15 14:57:11:502,0,-1.6172,-0.928657,-16.9347,Q,Q
2023-03-15 14:57:11:511,0,-1.60404,-0.923278,-16.9451,Q,Q
2023-03-15 14:57:11:522,0,-1.59927,-0.920832,-16.9524,Q,Q
2023-03-15 14:57:11:532,0,-1.59168,-0.917567,-16.9632,Q,Q
2023-03-15 14:57:11:542,0,-1.59147,-0.915563,-16.9788,Q,Q
2023-03-15 14:57:11:552,0,-1.58889,-0.91787,-16.9941,Q,Q
2023-03-15 14:57:11:562,0,-1.58581,-0.920776,-17.0067,Q,Q
2023-03-15 14:57:11:572,0,-1.58136,-0.923815,-17.0174,Q,Q
2023-03-15 14:57:11:582,0,-1.58052,-0.926114,-17.0266,Q,Q
2023-03-15 14:57:11:592,0,-1.58008,-0.930969,-17.0308,Q,Q
2023-03-15 14:57:11:602,0,-1.58305,-0.935689,-17.0346,Q,Q
2023-03-15 14:57:11:612,0,-1.5878,-0.936238,-17.042,Q,Q
2023-03-15 14:57:11:622,0,-1.58415,-0.934515,-17.0483,Q,Q
2023-03-15 14:57:11:632,0,-1.58322,-0.931765,-17.0493,Q,Q
2023-03-15 14:57:11:642,0,-1.58351,-0.928736,-17.0494,Q,Q
2023-03-15 14:57:11:652,0,-1.58375,-0.923526,-17.0505,Q,Q
2023-03-15 14:57:11:662,0,-1.58315,-0.917419,-17.0543,Q,Q
2023-03-15 14:57:11:672,0,-1.58188,-0.911792,-17.0504,Q,Q
2023-03-15 14:57:11:682,0,-1.57991,-0.90655,-17.0467,Q,Q
2023-03-15 14:57:11:691,0,-1.58206,-0.899953,-17.0439,Q,Q
2023-03-15 14:57:11:702,0,-1.57923,-0.897363,-17.0444,Q,Q
2023-03-15 14:57:11:711,0,-1.5767,-0.894536,-17.0451,Q,Q
2023-03-15 14:57:11:721,0,-1.56909,-0.889107,-17.0465,Q,Q
2023-03-15 14:57:11:731,0,-1.56656,-0.887353,-17.0452,Q,Q
2023-03-15 14:57:11:741,0,-1.56207,-0.890788,-17.0414,Q,Q
2023-03-15 14:57:11:751,0,-1.55321,-0.897991,-17.0444,Q,Q
2023-03-15 14:57:11:761,0,-1.54447,-0.906712,-17.0495,Q,Q
2023-03-15 14:57:11:771,0,-1.53304,-0.914798,-17.0534,Q,Q
2023-03-15 14:57:11:781,0,-1.53129,-0.921575,-17.054,Q,Q
2023-03-15 14:57:11:791,0,-1.52679,-0.928896,-17.0528,Q,Q
2023-03-15 14:57:11:801,0,-1.5254,-0.935163,-17.0538,Q,Q
2023-03-15 14:57:11:811,0,-1.52358,-0.938338,-17.0581,Q,Q
2023-03-15 14:57:11:821,0,-1.52363,-0.945832,-17.0648,Q,Q
2023-03-15 14:57:11:831,0,-1.52412,-0.951109,-17.072,Q,Q
2023-03-15 14:57:11:841,0,-1.51753,-0.957462,-17.0841,Q,Q
2023-03-15 14:57:11:851,0,-1.51714,-0.958687,-17.0958,Q,Q
2023-03-15 14:57:11:861,0,-1.51633,-0.961054,-17.1001,Q,Q
2023-03-15 14:57:11:871,0,-1.51588,-0.960659,-17.108,Q,Q
2023-03-15 14:57:11:882,0,-1.51584,-0.964034,-17.1192,Q,Q
2023-03-15 14:57:11:891,0,-1.51002,-0.964714,-17.1285,Q,Q
2023-03-15 14:57:11:901,0,-1.50284,-0.964833,-17.1386,Q,Q
2023-03-15 14:57:11:911,0,-1.49431,-0.965971,-17.1471,Q,Q
2023-03-15 14:57:11:921,0,-1.48728,-0.96942,-17.1498,Q,Q
2023-03-15 14:57:11:931,0,-1.48402,-0.97679,-17.1549,Q,Q
2023-03-15 14:57:11:941,0,-1.48335,-0.986483,-17.1583,Q,Q
2023-03-15 14:57:11:951,0,-1.47963,-0.996869,-17.1607,Q,Q
2023-03-15 14:57:11:961,0,-1.47313,-1.00446,-17.1658,Q,Q
2023-03-15 14:57:11:971,0,-1.46631,-1.01132,-17.1769,Q,Q
2023-03-15 14:57:11:981,0,-1.45889,-1.01542,-17.1846,Q,Q
2023-03-15 14:57:11:991,0,-1.45178,-1.01746,-17.1995,Q,Q
2023-03-15 14:57:12:1,0,-1.44034,-1.01859,-17.2078,Q,Q
2023-03-15 14:57:12:11,0,-1.42728,-1.01938,-17.2232,Q,Q
2023-03-15 14:57:12:21,0,-1.4236,-1.01823,-17.2362,Q,Q
2023-03-15 14:57:12:32,0,-1.42172,-1.02105,-17.2434,Q,Q
2023-03-15 14:57:12:41,0,-1.41806,-1.02874,-17.2478,Q,Q
2023-03-15 14:57:12:52,0,-1.41702,-1.03763,-17.2547,Q,Q
2023-03-15 14:57:12:61,0,-1.41652,-1.04999,-17.2602,Q,Q
2023-03-15 14:57:12:71,0,-1.41324,-1.05718,-17.2695,Q,Q
2023-03-15 14:57:12:81,0,-1.40887,-1.06022,-17.28,Q,Q
2023-03-15 14:57:12:91,0,-1.40157,-1.0632,-17.2951,Q,Q
2023-03-15 14:57:12:101,0,-1.39412,-1.06605,-17.3065,Q,Q
2023-03-15 14:57:12:111,0,-1.38055,-1.06854,-17.3195,Q,Q
2023-03-15 14:57:12:121,0,-1.37095,-1.07018,-17.3303,Q,Q
2023-03-15 14:57:12:131,0,-1.36708,-1.07215,-17.3364,Q,Q
2023-03-15 14:57:12:141,0,-1.3666,-1.07468,-17.3396,Q,Q
2023-03-15 14:57:12:151,0,-1.36738,-1.07538,-17.3426,Q,Q
2023-03-15 14:57:12:161,0,-1.37411,-1.07524,-17.3461,Q,Q
2023-03-15 14:57:12:171,0,-1.37635,-1.0733,-17.3435,Q,Q
2023-03-15 14:57:12:181,0,-1.3784,-1.07027,-17.3443,Q,Q
2023-03-15 14:57:12:191,0,-1.37829,-1.06946,-17.3484,Q,Q
2023-03-15 14:57:12:201,0,-1.37559,-1.0691,-17.356,Q,Q
2023-03-15 14:57:12:211,0,-1.36804,-1.06692,-17.3611,Q,Q
2023-03-15 14:57:12:221,0,-1.35537,-1.06062,-17.3734,Q,Q
2023-03-15 14:57:12:232,0,-1.34235,-1.05644,-17.3891,Q,Q
2023-03-15 14:57:12:242,0,-1.32989,-1.05072,-17.4076,Q,Q
2023-03-15 14:57:12:251,0,-1.31833,-1.04669,-17.4267,Q,Q
2023-03-15 14:57:12:262,0,-1.31126,-1.04269,-17.4466,Q,Q
2023-03-15 14:57:12:271,0,-1.3091,-1.04342,-17.4594,Q,Q
2023-03-15 14:57:12:282,0,-1.31442,-1.04771,-17.4626,Q,Q
2023-03-15 14:57:12:291,0,-1.32436,-1.05633,-17.468,Q,Q
2023-03-15 14:57:12:301,0,-1.33654,-1.06426,-17.4685,Q,Q
2023-03-15 14:57:12:311,0,-1.34866,-1.06589,-17.4755,Q,Q
2023-03-15 14:57:12:321,0,-1.35896,-1.06575,-17.4886,Q,Q
2023-03-15 14:57:12:331,0,-1.3629,-1.05937,-17.5017,Q,Q
2023-03-15 14:57:12:341,0,-1.36176,-1.05482,-17.5145,Q,Q
2023-03-15 14:57:12:351,0,-1.36364,-1.04964,-17.532,Q,Q
2023-03-15 14:57:12:362,0,-1.36308,-1.04305,-17.5516,Q,Q
2023-03-15 14:57:12:371,0,-1.3568,-1.03546,-17.5737,Q,Q
2023-03-15 14:57:12:381,0,-1.35418,-1.02721,-17.5924,Q,Q
2023-03-15 14:57:12:391,0,-1.35576,-1.02245,-17.607,Q,Q
2023-03-15 14:57:12:401,0,-1.35528,-1.01869,-17.6185,Q,Q
2023-03-15 14:57:12:411,0,-1.35699,-1.01903,-17.6279,Q,Q
2023-03-15 14:57:12:421,0,-1.3617,-1.01895,-17.6383,Q,Q
2023-03-15 14:57:12:431,0,-1.36177,-1.01885,-17.6492,Q,Q
2023-03-15 14:57:12:441,0,-1.35622,-1.01518,-17.6606,Q,Q
2023-03-15 14:57:12:451,0,-1.35111,-1.0158,-17.671,Q,Q
2023-03-15 14:57:12:461,0,-1.34442,-1.01383,-17.6876,Q,Q
2023-03-15 14:57:12:471,0,-1.33629,-1.01046,-17.7016,Q,Q
2023-03-15 14:57:12:481,0,-1.32877,-1.00441,-17.7116,Q,Q
2023-03-15 14:57:12:491,0,-1.3241,-0.998726,-17.7236,Q,Q
2023-03-15 14:57:12:501,0,-1.3194,-0.997187,-17.73,Q,Q
2023-03-15 14:57:12:511,0,-1.31242,-0.995469,-17.7405,Q,Q
2023-03-15 14:57:12:521,0,-1.30658,-1.00168,-17.7505,Q,Q
2023-03-15 14:57:12:532,0,-1.3024,-1.00613,-17.7603,Q,Q
2023-03-15 14:57:12:541,0,-1.30099,-1.00925,-17.7677,Q,Q
2023-03-15 14:57:12:551,0,-1.30135,-1.01204,-17.7749,Q,Q
2023-03-15 14:57:12:561,0,-1.30375,-1.01141,-17.7821,Q,Q
2023-03-15 14:57:12:571,0,-1.30241,-1.00755,-17.7891,Q,Q
2023-03-15 14:57:12:582,0,-1.30254,-1.00771,-17.7948,Q,Q
2023-03-15 14:57:12:591,0,-1.30349,-1.0015,-17.8026,Q,Q
2023-03-15 14:57:12:602,0,-1.30411,-0.999282,-17.8087,Q,Q
2023-03-15 14:57:12:611,0,-1.30567,-0.998088,-17.8145,Q,Q
2023-03-15 14:57:12:621,0,-1.30259,-0.997479,-17.8222,Q,Q
2023-03-15 14:57:12:631,0,-1.29807,-1.0005,-17.8349,Q,Q
2023-03-15 14:57:12:642,0,-1.29357,-1.00054,-17.848,Q,Q
2023-03-15 14:57:12:651,0,-1.29021,-0.999323,-17.8609,Q,Q
2023-03-15 14:57:12:661,0,-1.28981,-1.00025,-17.8745,Q,Q
2023-03-15 14:57:12:671,0,-1.2918,-1.005,-17.8827,Q,Q
2023-03-15 14:57:12:682,0,-1.29687,-1.00658,-17.8915,Q,Q
2023-03-15 14:57:12:691,0,-1.30304,-1.00791,-17.8982,Q,Q
2023-03-15 14:57:12:701,0,-1.30984,-1.00899,-17.9086,Q,Q
2023-03-15 14:57:12:711,0,-1.31298,-1.00819,-17.9182,Q,Q
2023-03-15 14:57:12:721,0,-1.31252,-1.00542,-17.9287,Q,Q
2023-03-15 14:57:12:732,0,-1.31393,-0.99769,-17.9427,Q,Q
2023-03-15 14:57:12:742,0,-1.31332,-0.989802,-17.9548,Q,Q
2023-03-15 14:57:12:751,0,-1.31302,-0.982943,-17.9667,Q,Q
2023-03-15 14:57:12:761,0,-1.3161,-0.976195,-17.9803,Q,Q
2023-03-15 14:57:12:772,0,-1.32111,-0.969734,-17.9923,Q,Q
2023-03-15 14:57:12:782,0,-1.32244,-0.967578,-18.0006,Q,Q
2023-03-15 14:57:12:792,0,-1.32612,-0.968438,-18.0061,Q,Q
2023-03-15 14:57:12:802,0,-1.33574,-0.968088,-18.0135,Q,Q
2023-03-15 14:57:12:811,0,-1.3456,-0.967826,-18.0203,Q,Q
2023-03-15 14:57:12:821,0,-1.35604,-0.967474,-18.0256,Q,Q
2023-03-15 14:57:12:831,0,-1.36726,-0.966892,-18.0279,Q,Q
2023-03-15 14:57:12:841,0,-1.37422,-0.966182,-18.0328,Q,Q
2023-03-15 14:57:12:851,0,-1.38728,-0.964083,-18.0388,Q,Q
2023-03-15 14:57:12:861,0,-1.39865,-0.964391,-18.044,Q,Q
2023-03-15 14:57:12:871,0,-1.4121,-0.957386,-18.0542,Q,Q
2023-03-15 14:57:12:881,0,-1.43005,-0.950387,-18.0642,Q,Q
2023-03-15 14:57:12:891,0,-1.44402,-0.945112,-18.0722,Q,Q
2023-03-15 14:57:12:901,0,-1.45642,-0.934923,-18.087,Q,Q
2023-03-15 14:57:12:911,0,-1.46866,-0.926311,-18.1057,Q,Q
2023-03-15 14:57:12:921,0,-1.47704,-0.918385,-18.1203,Q,Q
2023-03-15 14:57:12:931,0,-1.47663,-0.912851,-18.138,Q,Q
2023-03-15 14:57:12:941,0,-1.47647,-0.909248,-18.1583,Q,Q
2023-03-15 14:57:12:951,0,-1.473,-0.900372,-18.1824,Q,Q
2023-03-15 14:57:12:961,0,-1.47023,-0.892342,-18.2092,Q,Q
2023-03-15 14:57:12:971,0,-1.46105,-0.883653,-18.2382,Q,Q
2023-03-15 14:57:12:981,0,-1.44606,-0.873916,-18.2679,Q,Q
2023-03-15 14:57:12:991,0,-1.43786,-0.858279,-18.2956,Q,Q
2023-03-15 14:57:13:1,0,-1.43212,-0.845342,-18.3265,Q,Q
2023-03-15 14:57:13:11,0,-1.4208,-0.832027,-18.3598,Q,Q
2023-03-15 14:57:13:21,0,-1.40142,-0.818387,-18.3945,Q,Q
2023-03-15 14:57:13:31,0,-1.38268,-0.803105,-18.4187,Q,Q
2023-03-15 14:57:13:41,0,-1.36181,-0.788316,-18.4319,Q,Q
2023-03-15 14:57:13:51,0,-1.34608,-0.77025,-18.448,Q,Q
2023-03-15 14:57:13:61,0,-1.33066,-0.748594,-18.47,Q,Q
2023-03-15 14:57:13:71,0,-1.31441,-0.723024,-18.4931,Q,Q
2023-03-15 14:57:13:81,0,-1.29511,-0.699494,-18.5218,Q,Q
2023-03-15 14:57:13:91,0,-1.27733,-0.674657,-18.5505,Q,Q
2023-03-15 14:57:13:101,0,-1.26319,-0.646822,-18.5866,Q,Q
2023-03-15 14:57:13:111,0,-1.2497,-0.61373,-18.6279,Q,Q
2023-03-15 14:57:13:121,0,-1.23383,-0.580028,-18.6703,Q,Q
2023-03-15 14:57:13:131,0,-1.21789,-0.548636,-18.7204,Q,Q
2023-03-15 14:57:13:141,0,-1.20205,-0.511115,-18.7663,Q,Q
2023-03-15 14:57:13:151,0,-1.18999,-0.476076,-18.8079,Q,Q
2023-03-15 14:57:13:161,0,-1.17958,-0.44418,-18.8475,Q,Q
2023-03-15 14:57:13:171,0,-1.17354,-0.410628,-18.8864,Q,Q
2023-03-15 14:57:13:181,0,-1.16654,-0.381263,-18.9185,Q,Q
2023-03-15 14:57:13:191,0,-1.1599,-0.356188,-18.9455,Q,Q
2023-03-15 14:57:13:201,0,-1.14947,-0.337122,-18.9665,Q,Q
2023-03-15 14:57:13:211,0,-1.14001,-0.323124,-18.9818,Q,Q
2023-03-15 14:57:13:221,0,-1.13041,-0.311454,-18.9914,Q,Q
2023-03-15 14:57:13:231,0,-1.12225,-0.303218,-18.9961,Q,Q
2023-03-15 14:57:13:241,0,-1.12023,-0.29761,-18.9956,Q,Q
2023-03-15 14:57:13:251,0,-1.12385,-0.29426,-18.9961,Q,Q
2023-03-15 14:57:13:261,0,-1.13706,-0.289948,-18.9982,Q,Q
2023-03-15 14:57:13:271,0,-1.15411,-0.281299,-19.003,Q,Q
2023-03-15 14:57:13:281,0,-1.17223,-0.279313,-19.0089,Q,Q
2023-03-15 14:57:13:292,0,-1.19527,-0.275142,-19.0195,Q,Q
2023-03-15 14:57:13:301,0,-1.21273,-0.280882,-19.0372,Q,Q
2023-03-15 14:57:13:312,0,-1.22224,-0.296274,-19.056,Q,Q
2023-03-15 14:57:13:321,0,-1.22892,-0.316364,-19.063,Q,Q
2023-03-15 14:57:13:332,0,-1.23021,-0.344606,-19.0641,Q,Q
2023-03-15 14:57:13:342,0,-1.23665,-0.37748,-19.0562,Q,Q
2023-03-15 14:57:13:351,0,-1.24369,-0.412662,-19.0444,Q,Q
2023-03-15 14:57:13:362,0,-1.25322,-0.44921,-19.0326,Q,Q
2023-03-15 14:57:13:371,0,-1.26381,-0.484411,-19.0178,Q,Q
2023-03-15 14:57:13:382,0,-1.28426,-0.516879,-19.0067,Q,Q
2023-03-15 14:57:13:391,0,-1.30668,-0.547243,-19.0065,Q,Q
2023-03-15 14:57:13:402,0,-1.3323,-0.57372,-19.009,Q,Q
2023-03-15 14:57:13:412,0,-1.35902,-0.597639,-19.0129,Q,Q
2023-03-15 14:57:13:422,0,-1.38531,-0.618928,-19.0199,Q,Q
2023-03-15 14:57:13:432,0,-1.40291,-0.641591,-19.0338,Q,Q
2023-03-15 14:57:13:442,0,-1.4193,-0.665401,-19.0512,Q,Q
2023-03-15 14:57:13:452,0,-1.42899,-0.689137,-19.0772,Q,Q
2023-03-15 14:57:13:462,0,-1.42818,-0.714562,-19.1,Q,Q
2023-03-15 14:57:13:472,0,-1.42194,-0.743317,-19.1278,Q,Q
2023-03-15 14:57:13:482,0,-1.41306,-0.769053,-19.1587,Q,Q
2023-03-15 14:57:13:492,0,-1.40993,-0.789358,-19.1875,Q,Q
2023-03-15 14:57:13:502,0,-1.40908,-0.798793,-19.2251,Q,Q
2023-03-15 14:57:13:512,0,-1.40985,-0.801001,-19.2658,Q,Q
2023-03-15 14:57:13:522,0,-1.41145,-0.789662,-19.3145,Q,Q
2023-03-15 14:57:13:532,0,-1.40775,-0.777997,-19.3643,Q,Q
2023-03-15 14:57:13:541,0,-1.39046,-0.768658,-19.4135,Q,Q
2023-03-15 14:57:13:551,0,-1.36176,-0.768386,-19.4508,Q,Q
2023-03-15 14:57:13:561,0,-1.32091,-0.777647,-19.4739,Q,Q
2023-03-15 14:57:13:571,0,-1.27366,-0.792274,-19.4834,Q,Q
2023-03-15 14:57:13:581,0,-1.23016,-0.806138,-19.4855,Q,Q
2023-03-15 14:57:13:591,0,-1.19418,-0.815534,-19.4782,Q,Q
2023-03-15 14:57:13:601,0,-1.1749,-0.823347,-19.4781,Q,Q
2023-03-15 14:57:13:611,0,-1.17059,-0.817876,-19.4801,Q,Q
2023-03-15 14:57:13:621,0,-1.1781,-0.811182,-19.4902,Q,Q
2023-03-15 14:57:13:631,0,-1.18869,-0.794425,-19.4988,Q,Q
2023-03-15 14:57:13:641,0,-1.1927,-0.780862,-19.5033,Q,Q
2023-03-15 14:57:13:651,0,-1.17686,-0.776879,-19.4939,Q,Q
2023-03-15 14:57:13:661,0,-1.14156,-0.788951,-19.4717,Q,Q
2023-03-15 14:57:13:671,0,-1.09766,-0.811543,-19.4312,Q,Q
2023-03-15 14:57:13:681,0,-1.05283,-0.828187,-19.3786,Q,Q
2023-03-15 14:57:13:691,0,-1.01987,-0.837133,-19.3215,Q,Q
2023-03-15 14:57:13:701,0,-0.996045,-0.835745,-19.2697,Q,Q
2023-03-15 14:57:13:711,0,-0.984472,-0.819502,-19.2259,Q,Q
2023-03-15 14:57:13:721,0,-0.983843,-0.794066,-19.1825,Q,Q
2023-03-15 14:57:13:731,0,-0.995881,-0.769697,-19.1376,Q,Q
2023-03-15 14:57:13:741,0,-1.00732,-0.750047,-19.0974,Q,Q
2023-03-15 14:57:13:751,0,-1.01484,-0.73823,-19.0628,Q,Q
2023-03-15 14:57:13:761,0,-1.01712,-0.732698,-19.0281,Q,Q
2023-03-15 14:57:13:771,0,-1.01793,-0.739663,-18.9887,Q,Q
2023-03-15 14:57:13:782,0,-1.01641,-0.75905,-18.9489,Q,Q
2023-03-15 14:57:13:791,0,-1.01913,-0.780683,-18.9154,Q,Q
2023-03-15 14:57:13:801,0,-1.03496,-0.805206,-18.8923,Q,Q
2023-03-15 14:57:13:812,0,-1.06404,-0.820747,-18.8862,Q,Q
2023-03-15 14:57:13:822,0,-1.09762,-0.830147,-18.8973,Q,Q
2023-03-15 14:57:13:832,0,-1.14027,-0.839977,-18.9224,Q,Q
2023-03-15 14:57:13:842,0,-1.1852,-0.854137,-18.9556,Q,Q
2023-03-15 14:57:13:852,0,-1.22879,-0.874203,-18.9975,Q,Q
2023-03-15 14:57:13:861,0,-1.26979,-0.893026,-19.0464,Q,Q
2023-03-15 14:57:13:872,0,-1.30196,-0.917359,-19.0924,Q,Q
2023-03-15 14:57:13:882,0,-1.3224,-0.940684,-19.1376,Q,Q
2023-03-15 14:57:13:892,0,-1.33257,-0.959127,-19.1776,Q,Q
2023-03-15 14:57:13:902,0,-1.33319,-0.965921,-19.2145,Q,Q
2023-03-15 14:57:13:912,0,-1.32697,-0.96494,-19.2412,Q,Q
2023-03-15 14:57:13:922,0,-1.30593,-0.960354,-19.2567,Q,Q
2023-03-15 14:57:13:932,0,-1.27685,-0.950035,-19.2566,Q,Q
2023-03-15 14:57:13:942,0,-1.23933,-0.939269,-19.2415,Q,Q
2023-03-15 14:57:13:951,0,-1.1857,-0.933547,-19.2063,Q,Q
2023-03-15 14:57:13:961,0,-1.13103,-0.929247,-19.1547,Q,Q
2023-03-15 14:57:13:971,0,-1.07498,-0.93073,-19.0958,Q,Q
2023-03-15 14:57:13:981,0,-1.01793,-0.933751,-19.0279,Q,Q
2023-03-15 14:57:13:991,0,-0.969901,-0.943808,-18.9563,Q,Q
2023-03-15 14:57:14:1,0,-0.927647,-0.958143,-18.8914,Q,Q
2023-03-15 14:57:14:11,0,-0.892032,-0.968598,-18.8311,Q,Q
2023-03-15 14:57:14:21,0,-0.863334,-0.981019,-18.7806,Q,Q
2023-03-15 14:57:14:31,0,-0.837502,-0.991783,-18.7404,Q,Q
2023-03-15 14:57:14:41,0,-0.820082,-1.00416,-18.7115,Q,Q
2023-03-15 14:57:14:51,0,-0.79609,-1.01803,-18.6921,Q,Q
2023-03-15 14:57:14:62,0,-0.769198,-1.03604,-18.6819,Q,Q
2023-03-15 14:57:14:72,0,-0.738739,-1.05803,-18.6802,Q,Q
2023-03-15 14:57:14:82,0,-0.70396,-1.08258,-18.6882,Q,Q
2023-03-15 14:57:14:92,0,-0.668886,-1.10431,-18.7013,Q,Q
2023-03-15 14:57:14:102,0,-0.638115,-1.12956,-18.7152,Q,Q
2023-03-15 14:57:14:112,0,-0.609783,-1.15716,-18.7321,Q,Q
2023-03-15 14:57:14:122,0,-0.586465,-1.1859,-18.7456,Q,Q
2023-03-15 14:57:14:132,0,-0.565991,-1.20325,-18.7661,Q,Q
2023-03-15 14:57:14:142,0,-0.549338,-1.2204,-18.7878,Q,Q
2023-03-15 14:57:14:152,0,-0.528523,-1.23094,-18.8045,Q,Q
2023-03-15 14:57:14:162,0,-0.505096,-1.24443,-18.8117,Q,Q
2023-03-15 14:57:14:172,0,-0.479321,-1.26222,-18.804,Q,Q
2023-03-15 14:57:14:182,0,-0.451988,-1.28088,-18.7897,Q,Q
2023-03-15 14:57:14:192,0,-0.423724,-1.29945,-18.766,Q,Q
2023-03-15 14:57:14:202,0,-0.400675,-1.31775,-18.7358,Q,Q
2023-03-15 14:57:14:212,0,-0.386649,-1.33294,-18.7001,Q,Q
2023-03-15 14:57:14:222,0,-0.381717,-1.35012,-18.6655,Q,Q
2023-03-15 14:57:14:232,0,-0.383338,-1.36116,-18.6349,Q,Q
2023-03-15 14:57:14:242,0,-0.389142,-1.37255,-18.611,Q,Q
2023-03-15 14:57:14:252,0,-0.397154,-1.38842,-18.5917,Q,Q
2023-03-15 14:57:14:261,0,-0.407394,-1.40765,-18.577,Q,Q
2023-03-15 14:57:14:272,0,-0.421221,-1.43029,-18.5758,Q,Q
2023-03-15 14:57:14:282,0,-0.437789,-1.4527,-18.5912,Q,Q
2023-03-15 14:57:14:292,0,-0.457507,-1.47146,-18.6117,Q,Q
2023-03-15 14:57:14:302,0,-0.475999,-1.48427,-18.6452,Q,Q
2023-03-15 14:57:14:312,0,-0.487142,-1.49455,-18.6803,Q,Q
2023-03-15 14:57:14:322,0,-0.500537,-1.50238,-18.716,Q,Q
2023-03-15 14:57:14:332,0,-0.50587,-1.50816,-18.7466,Q,Q
2023-03-15 14:57:14:342,0,-0.499774,-1.51295,-18.7755,Q,Q
2023-03-15 14:57:14:352,0,-0.481749,-1.51787,-18.7971,Q,Q
2023-03-15 14:57:14:362,0,-0.453169,-1.52391,-18.8056,Q,Q
2023-03-15 14:57:14:372,0,-0.421231,-1.5319,-18.7985,Q,Q
2023-03-15 14:57:14:382,0,-0.386235,-1.53639,-18.7797,Q,Q
2023-03-15 14:57:14:392,0,-0.349855,-1.54328,-18.7495,Q,Q
2023-03-15 14:57:14:402,0,-0.308745,-1.52472,-18.7165,Q,Q
2023-03-15 14:57:14:412,0,-0.263613,-1.51817,-18.6879,Q,Q
2023-03-15 14:57:14:422,0,-0.22746,-1.52348,-18.6548,Q,Q
2023-03-15 14:57:14:432,0,-0.201851,-1.52187,-18.63,Q,Q
2023-03-15 14:57:14:442,0,-0.17259,-1.52168,-18.6148,Q,Q
2023-03-15 14:57:14:452,0,-0.140152,-1.52666,-18.6065,Q,Q
2023-03-15 14:57:14:462,0,-0.103136,-1.51966,-18.6004,Q,Q
2023-03-15 14:57:14:472,0,-0.04777,-1.5204,-18.5908,Q,Q
2023-03-15 14:57:14:482,0,0.00114616,-1.53702,-18.5599,Q,Q
2023-03-15 14:57:14:492,0,0.0496328,-1.55946,-18.5063,Q,Q
2023-03-15 14:57:14:502,0,0.1109,-1.57302,-18.4376,Q,Q
2023-03-15 14:57:14:512,0,0.184451,-1.5832,-18.3681,Q,Q
2023-03-15 14:57:14:522,0,0.269752,-1.58301,-18.2802,Q,Q
2023-03-15 14:57:14:531,0,0.363377,-1.57547,-18.1715,Q,Q
2023-03-15 14:57:14:542,0,0.452835,-1.57719,-18.0468,Q,Q
2023-03-15 14:57:14:552,0,0.530895,-1.58882,-17.9247,Q,Q
2023-03-15 14:57:14:562,0,0.601019,-1.60339,-17.7986,Q,Q
2023-03-15 14:57:14:572,0,0.657281,-1.62025,-17.6685,Q,Q
2023-03-15 14:57:14:582,0,0.714867,-1.63673,-17.5364,Q,Q
2023-03-15 14:57:14:592,0,0.770331,-1.65616,-17.4056,Q,Q
2023-03-15 14:57:14:602,0,0.81723,-1.6698,-17.2773,Q,Q
2023-03-15 14:57:14:612,0,0.853917,-1.68576,-17.1642,Q,Q
2023-03-15 14:57:14:622,0,0.874785,-1.6985,-17.0662,Q,Q
2023-03-15 14:57:14:632,0,0.876106,-1.72572,-16.9874,Q,Q
2023-03-15 14:57:14:642,0,0.865044,-1.74271,-16.9186,Q,Q
2023-03-15 14:57:14:652,0,0.850941,-1.75797,-16.8689,Q,Q
2023-03-15 14:57:14:662,0,0.843899,-1.77299,-16.8282,Q,Q
2023-03-15 14:57:14:671,0,0.835647,-1.78974,-16.7987,Q,Q
2023-03-15 14:57:14:682,0,0.830233,-1.81031,-16.7781,Q,Q
2023-03-15 14:57:14:691,0,0.827451,-1.82861,-16.7666,Q,Q
2023-03-15 14:57:14:702,0,0.821886,-1.84437,-16.7653,Q,Q
2023-03-15 14:57:14:712,0,0.811486,-1.86336,-16.7725,Q,Q
2023-03-15 14:57:14:722,0,0.803095,-1.88675,-16.7841,Q,Q
2023-03-15 14:57:14:732,0,0.78916,-1.91556,-16.7994,Q,Q
2023-03-15 14:57:14:742,0,0.772541,-1.94204,-16.816,Q,Q
2023-03-15 14:57:14:752,0,0.755896,-1.96514,-16.8287,Q,Q
2023-03-15 14:57:14:762,0,0.740111,-1.987,-16.8398,Q,Q
2023-03-15 14:57:14:771,0,0.728723,-2.00683,-16.8427,Q,Q
2023-03-15 14:57:14:781,0,0.718179,-2.02182,-16.8364,Q,Q
2023-03-15 14:57:14:791,0,0.712985,-2.03433,-16.8266,Q,Q
2023-03-15 14:57:14:802,0,0.708425,-2.0452,-16.8108,Q,Q
2023-03-15 14:57:14:812,0,0.699378,-2.05667,-16.7903,Q,Q
2023-03-15 14:57:14:822,0,0.689043,-2.06648,-16.7702,Q,Q
2023-03-15 14:57:14:832,0,0.677007,-2.07545,-16.7466,Q,Q
2023-03-15 14:57:14:842,0,0.666961,-2.07925,-16.726,Q,Q
2023-03-15 14:57:14:852,0,0.65971,-2.07926,-16.7093,Q,Q
2023-03-15 14:57:14:862,0,0.656917,-2.07414,-16.6933,Q,Q
2023-03-15 14:57:14:872,0,0.659807,-2.06662,-16.6799,Q,Q
2023-03-15 14:57:14:882,0,0.664135,-2.06079,-16.6713,Q,Q
2023-03-15 14:57:14:892,0,0.669046,-2.05317,-16.6642,Q,Q
2023-03-15 14:57:14:902,0,0.677397,-2.0449,-16.6594,Q,Q
2023-03-15 14:57:14:912,0,0.686771,-2.03193,-16.6541,Q,Q
2023-03-15 14:57:14:922,0,0.699887,-2.01669,-16.6499,Q,Q
2023-03-15 14:57:14:932,0,0.713268,-2.00108,-16.6458,Q,Q
2023-03-15 14:57:14:941,0,0.721725,-1.98598,-16.6319,Q,Q
2023-03-15 14:57:14:952,0,0.727859,-1.97729,-16.6164,Q,Q
2023-03-15 14:57:14:962,0,0.735465,-1.96968,-16.5976,Q,Q
2023-03-15 14:57:14:972,0,0.743867,-1.96939,-16.5774,Q,Q
2023-03-15 14:57:14:982,0,0.748358,-1.97166,-16.5568,Q,Q
2023-03-15 14:57:14:992,0,0.749048,-1.97201,-16.5352,Q,Q
2023-03-15 14:57:15:2,0,0.744644,-1.96987,-16.5166,Q,Q
2023-03-15 14:57:15:11,0,0.738905,-1.97036,-16.5006,Q,Q
2023-03-15 14:57:15:21,0,0.728774,-1.96906,-16.485,Q,Q
2023-03-15 14:57:15:32,0,0.714319,-1.97116,-16.4696,Q,Q
2023-03-15 14:57:15:42,0,0.701422,-1.96899,-16.4515,Q,Q
2023-03-15 14:57:15:52,0,0.685939,-1.96905,-16.434,Q,Q
2023-03-15 14:57:15:62,0,0.671058,-1.96809,-16.4185,Q,Q
2023-03-15 14:57:15:72,0,0.650659,-1.97592,-16.406,Q,Q
2023-03-15 14:57:15:82,0,0.63374,-1.98638,-16.3945,Q,Q
2023-03-15 14:57:15:92,0,0.618087,-1.99441,-16.3827,Q,Q
2023-03-15 14:57:15:102,0,0.599955,-2.00978,-16.3723,Q,Q
2023-03-15 14:57:15:112,0,0.583461,-2.02377,-16.3662,Q,Q
2023-03-15 14:57:15:122,0,0.567738,-2.03779,-16.3608,Q,Q
2023-03-15 14:57:15:132,0,0.551347,-2.04669,-16.3609,Q,Q
2023-03-15 14:57:15:142,0,0.537806,-2.05363,-16.3689,Q,Q
2023-03-15 14:57:15:152,0,0.524714,-2.05915,-16.3738,Q,Q
2023-03-15 14:57:15:162,0,0.515456,-2.0625,-16.3779,Q,Q
2023-03-15 14:57:15:171,0,0.507161,-2.0597,-16.3835,Q,Q
2023-03-15 14:57:15:182,0,0.500572,-2.05536,-16.3925,Q,Q
2023-03-15 14:57:15:192,0,0.498163,-2.04945,-16.4031,Q,Q
2023-03-15 14:57:15:202,0,0.5026,-2.03657,-16.4178,Q,Q
2023-03-15 14:57:15:212,0,0.51026,-2.02349,-16.434,Q,Q
2023-03-15 14:57:15:221,0,0.520115,-2.00318,-16.4468,Q,Q
2023-03-15 14:57:15:232,0,0.526772,-1.98264,-16.4584,Q,Q
2023-03-15 14:57:15:242,0,0.531435,-1.96282,-16.4703,Q,Q
2023-03-15 14:57:15:252,0,0.529776,-1.94947,-16.4831,Q,Q
2023-03-15 14:57:15:262,0,0.525379,-1.93472,-16.4938,Q,Q
2023-03-15 14:57:15:272,0,0.519572,-1.91999,-16.5033,Q,Q
2023-03-15 14:57:15:281,0,0.510529,-1.90417,-16.5117,Q,Q
2023-03-15 14:57:15:291,0,0.496773,-1.88673,-16.5304,Q,Q
2023-03-15 14:57:15:302,0,0.489842,-1.87047,-16.5515,Q,Q
2023-03-15 14:57:15:312,0,0.487369,-1.85403,-16.5721,Q,Q
2023-03-15 14:57:15:322,0,0.489417,-1.84157,-16.5898,Q,Q
2023-03-15 14:57:15:332,0,0.494321,-1.83235,-16.6071,Q,Q
2023-03-15 14:57:15:342,0,0.498373,-1.83021,-16.624,Q,Q
2023-03-15 14:57:15:352,0,0.504313,-1.82717,-16.6376,Q,Q
2023-03-15 14:57:15:362,0,0.511602,-1.8214,-16.6509,Q,Q
2023-03-15 14:57:15:372,0,0.519065,-1.82062,-16.6628,Q,Q
2023-03-15 14:57:15:382,0,0.522377,-1.81391,-16.6757,Q,Q
2023-03-15 14:57:15:392,0,0.527386,-1.80921,-16.6841,Q,Q
2023-03-15 14:57:15:402,0,0.529737,-1.80196,-16.688,Q,Q
2023-03-15 14:57:15:412,0,0.534368,-1.79889,-16.6943,Q,Q
2023-03-15 14:57:15:422,0,0.537469,-1.79563,-16.6962,Q,Q
2023-03-15 14:57:15:432,0,0.545421,-1.79792,-16.6947,Q,Q
2023-03-15 14:57:15:442,0,0.550891,-1.79947,-16.6933,Q,Q
2023-03-15 14:57:15:452,0,0.560904,-1.79995,-16.6901,Q,Q
2023-03-15 14:57:15:462,0,0.568776,-1.80335,-16.6806,Q,Q
2023-03-15 14:57:15:472,0,0.57488,-1.80347,-16.6741,Q,Q
2023-03-15 14:57:15:482,0,0.585183,-1.80376,-16.6691,Q,Q
2023-03-15 14:57:15:492,0,0.591064,-1.8056,-16.6609,Q,Q
2023-03-15 14:57:15:502,0,0.600188,-1.80862,-16.6585,Q,Q
2023-03-15 14:57:15:512,0,0.60637,-1.81478,-16.6543,Q,Q
2023-03-15 14:57:15:522,0,0.612101,-1.82008,-16.6498,Q,Q
2023-03-15 14:57:15:532,0,0.617636,-1.8249,-16.6479,Q,Q
2023-03-15 14:57:15:542,0,0.624592,-1.82582,-16.6432,Q,Q
2023-03-15 14:57:15:551,0,0.628321,-1.82815,-16.6422,Q,Q
2023-03-15 14:57:15:562,0,0.628576,-1.83225,-16.6395,Q,Q
2023-03-15 14:57:15:572,0,0.630616,-1.83524,-16.6363,Q,Q
2023-03-15 14:57:15:582,0,0.631716,-1.83345,-16.6335,Q,Q
2023-03-15 14:57:15:592,0,0.632796,-1.83236,-16.6334,Q,Q
2023-03-15 14:57:15:602,0,0.63472,-1.83085,-16.6287,Q,Q
2023-03-15 14:57:15:612,0,0.639845,-1.83085,-16.6218,Q,Q
2023-03-15 14:57:15:622,0,0.64251,-1.83233,-16.6161,Q,Q
2023-03-15 14:57:15:632,0,0.642699,-1.83741,-16.6104,Q,Q
2023-03-15 14:57:15:642,0,0.641233,-1.83899,-16.6033,Q,Q
2023-03-15 14:57:15:652,0,0.638774,-1.84139,-16.5983,Q,Q
2023-03-15 14:57:15:662,0,0.636736,-1.83957,-16.5939,Q,Q
2023-03-15 14:57:15:672,0,0.630438,-1.84051,-16.5941,Q,Q
2023-03-15 14:57:15:681,0,0.627137,-1.8397,-16.5939,Q,Q
2023-03-15 14:57:15:691,0,0.631034,-1.83711,-16.5931,Q,Q
2023-03-15 14:57:15:702,0,0.633296,-1.83276,-16.5899,Q,Q
2023-03-15 14:57:15:712,0,0.636976,-1.83107,-16.591,Q,Q
2023-03-15 14:57:15:722,0,0.642503,-1.82683,-16.5917,Q,Q
2023-03-15 14:57:15:732,0,0.651119,-1.82074,-16.5938,Q,Q
2023-03-15 14:57:15:742,0,0.657137,-1.81564,-16.5917,Q,Q
2023-03-15 14:57:15:751,0,0.660052,-1.81318,-16.5913,Q,Q
2023-03-15 14:57:15:762,0,0.660998,-1.80867,-16.5857,Q,Q
2023-03-15 14:57:15:772,0,0.65527,-1.8043,-16.5795,Q,Q
2023-03-15 14:57:15:782,0,0.647724,-1.80252,-16.5798,Q,Q
2023-03-15 14:57:15:792,0,0.638737,-1.79484,-16.578,Q,Q
2023-03-15 14:57:15:801,0,0.638688,-1.79203,-16.5761,Q,Q
2023-03-15 14:57:15:811,0,0.639881,-1.79126,-16.5707,Q,Q
2023-03-15 14:57:15:821,0,0.639971,-1.79699,-16.5569,Q,Q
2023-03-15 14:57:15:832,0,0.641417,-1.8043,-16.5425,Q,Q
2023-03-15 14:57:15:842,0,0.6424,-1.81589,-16.5266,Q,Q
2023-03-15 14:57:15:852,0,0.639663,-1.82716,-16.5072,Q,Q
2023-03-15 14:57:15:862,0,0.635334,-1.83623,-16.4884,Q,Q
2023-03-15 14:57:15:872,0,0.628527,-1.84087,-16.4682,Q,Q
2023-03-15 14:57:15:882,0,0.618564,-1.84346,-16.4512,Q,Q
2023-03-15 14:57:15:892,0,0.611811,-1.84479,-16.4349,Q,Q
2023-03-15 14:57:15:902,0,0.60904,-1.84452,-16.4255,Q,Q
2023-03-15 14:57:15:912,0,0.608855,-1.84305,-16.4231,Q,Q
2023-03-15 14:57:15:922,0,0.615718,-1.8447,-16.4177,Q,Q
2023-03-15 14:57:15:932,0,0.624638,-1.84377,-16.4091,Q,Q
2023-03-15 14:57:15:942,0,0.63269,-1.8437,-16.4019,Q,Q
2023-03-15 14:57:15:952,0,0.64129,-1.84276,-16.3895,Q,Q
2023-03-15 14:57:15:962,0,0.646479,-1.84446,-16.3772,Q,Q
2023-03-15 14:57:15:972,0,0.650286,-1.84063,-16.3658,Q,Q
2023-03-15 14:57:15:982,0,0.648304,-1.83585,-16.3554,Q,Q
2023-03-15 14:57:15:992,0,0.641505,-1.83418,-16.345,Q,Q
2023-03-15 14:57:16:2,0,0.63645,-1.83224,-16.3343,Q,Q
2023-03-15 14:57:16:12,0,0.626354,-1.82652,-16.3276,Q,Q
2023-03-15 14:57:16:22,0,0.61568,-1.81868,-16.3231,Q,Q
2023-03-15 14:57:16:32,0,0.608129,-1.81432,-16.3212,Q,Q
2023-03-15 14:57:16:42,0,0.607086,-1.81154,-16.3155,Q,Q
2023-03-15 14:57:16:52,0,0.608395,-1.81116,-16.3089,Q,Q
2023-03-15 14:57:16:62,0,0.612804,-1.81216,-16.3044,Q,Q
2023-03-15 14:57:16:72,0,0.614943,-1.81396,-16.3003,Q,Q
2023-03-15 14:57:16:82,0,0.615945,-1.8132,-16.2974,Q,Q
2023-03-15 14:57:16:92,0,0.619031,-1.81352,-16.2967,Q,Q
2023-03-15 14:57:16:102,0,0.619685,-1.80615,-16.2899,Q,Q
2023-03-15 14:57:16:112,0,0.620817,-1.80582,-16.2809,Q,Q
2023-03-15 14:57:16:122,0,0.621867,-1.80151,-16.2705,Q,Q
2023-03-15 14:57:16:132,0,0.622418,-1.79868,-16.2576,Q,Q
2023-03-15 14:57:16:142,0,0.623453,-1.79465,-16.2428,Q,Q
2023-03-15 14:57:16:152,0,0.629547,-1.79547,-16.2306,Q,Q
2023-03-15 14:57:16:162,0,0.633535,-1.79522,-16.2172,Q,Q
2023-03-15 14:57:16:171,0,0.636352,-1.798,-16.1991,Q,Q
2023-03-15 14:57:16:182,0,0.639045,-1.80056,-16.1875,Q,Q
2023-03-15 14:57:16:192,0,0.639089,-1.80098,-16.1751,Q,Q
2023-03-15 14:57:16:202,0,0.644187,-1.79737,-16.1654,Q,Q
2023-03-15 14:57:16:212,0,0.643569,-1.79333,-16.1545,Q,Q
2023-03-15 14:57:16:222,0,0.639423,-1.79473,-16.1424,Q,Q
2023-03-15 14:57:16:232,0,0.632026,-1.79791,-16.1292,Q,Q
2023-03-15 14:57:16:242,0,0.625847,-1.80321,-16.113,Q,Q
2023-03-15 14:57:16:252,0,0.616019,-1.80932,-16.0942,Q,Q
2023-03-15 14:57:16:262,0,0.599799,-1.81448,-16.076,Q,Q
2023-03-15 14:57:16:272,0,0.586097,-1.82165,-16.0611,Q,Q
2023-03-15 14:57:16:282,0,0.572217,-1.82753,-16.0438,Q,Q
2023-03-15 14:57:16:292,0,0.561,-1.83102,-16.0316,Q,Q
2023-03-15 14:57:16:301,0,0.551266,-1.83422,-16.0237,Q,Q
2023-03-15 14:57:16:311,0,0.542902,-1.83467,-16.0185,Q,Q
2023-03-15 14:57:16:321,0,0.530089,-1.8322,-16.0149,Q,Q
2023-03-15 14:57:16:332,0,0.518302,-1.83388,-16.0135,Q,Q
2023-03-15 14:57:16:342,0,0.507929,-1.837,-16.0111,Q,Q
2023-03-15 14:57:16:352,0,0.499051,-1.84016,-16.0066,Q,Q
2023-03-15 14:57:16:362,0,0.490849,-1.8415,-16.0,Q,Q
2023-03-15 14:57:16:371,0,0.485982,-1.84605,-15.9937,Q,Q
2023-03-15 14:57:16:381,0,0.479098,-1.84725,-15.9884,Q,Q
2023-03-15 14:57:16:391,0,0.473972,-1.84673,-15.9789,Q,Q
2023-03-15 14:57:16:402,0,0.46936,-1.84755,-15.972,Q,Q
2023-03-15 14:57:16:412,0,0.46416,-1.85177,-15.962,Q,Q
2023-03-15 14:57:16:422,0,0.458,-1.85079,-15.9505,Q,Q
2023-03-15 14:57:16:432,0,0.455633,-1.85035,-15.9403,Q,Q
2023-03-15 14:57:16:442,0,0.456914,-1.85393,-15.934,Q,Q
2023-03-15 14:57:16:452,0,0.465455,-1.86046,-15.9273,Q,Q
2023-03-15 14:57:16:462,0,0.475437,-1.86622,-15.9227,Q,Q
2023-03-15 14:57:16:472,0,0.485552,-1.86974,-15.9211,Q,Q
2023-03-15 14:57:16:482,0,0.495641,-1.86939,-15.9177,Q,Q
2023-03-15 14:57:16:492,0,0.506314,-1.87005,-15.9144,Q,Q
2023-03-15 14:57:16:502,0,0.514622,-1.87522,-15.9098,Q,Q
2023-03-15 14:57:16:512,0,0.524528,-1.8774,-15.9048,Q,Q
2023-03-15 14:57:16:522,0,0.532924,-1.88332,-15.8971,Q,Q
2023-03-15 14:57:16:532,0,0.54523,-1.88939,-15.8883,Q,Q
2023-03-15 14:57:16:542,0,0.554369,-1.90069,-15.8767,Q,Q
2023-03-15 14:57:16:552,0,0.56294,-1.91393,-15.8577,Q,Q
2023-03-15 14:57:16:562,0,0.562927,-1.93057,-15.8366,Q,Q
2023-03-15 14:57:16:572,0,0.562899,-1.9396,-15.8179,Q,Q
2023-03-15 14:57:16:582,0,0.559509,-1.95188,-15.8018,Q,Q
2023-03-15 14:57:16:592,0,0.552868,-1.96237,-15.7883,Q,Q
2023-03-15 14:57:16:602,0,0.548688,-1.96834,-15.7762,Q,Q
2023-03-15 14:57:16:612,0,0.552187,-1.97448,-15.7651,Q,Q
2023-03-15 14:57:16:622,0,0.551329,-1.9791,-15.7529,Q,Q
2023-03-15 14:57:16:632,0,0.555661,-1.98614,-15.7495,Q,Q
2023-03-15 14:57:16:642,0,0.564861,-1.9952,-15.7467,Q,Q
2023-03-15 14:57:16:652,0,0.569697,-1.99763,-15.7461,Q,Q
2023-03-15 14:57:16:662,0,0.571561,-2.00291,-15.7407,Q,Q
2023-03-15 14:57:16:672,0,0.569187,-2.0103,-15.7373,Q,Q
2023-03-15 14:57:16:682,0,0.567745,-2.0136,-15.7314,Q,Q
2023-03-15 14:57:16:691,0,0.560303,-2.01886,-15.7249,Q,Q
2023-03-15 14:57:16:702,0,0.554197,-2.02552,-15.7144,Q,Q
2023-03-15 14:57:16:712,0,0.546211,-2.03069,-15.7062,Q,Q
2023-03-15 14:57:16:721,0,0.53961,-2.03349,-15.6977,Q,Q
2023-03-15 14:57:16:732,0,0.533218,-2.03634,-15.6893,Q,Q
2023-03-15 14:57:16:742,0,0.524099,-2.03753,-15.6807,Q,Q
2023-03-15 14:57:16:751,0,0.514896,-2.0357,-15.6772,Q,Q
2023-03-15 14:57:16:762,0,0.512335,-2.03521,-15.6749,Q,Q
2023-03-15 14:57:16:772,0,0.51586,-2.03996,-15.669,Q,Q
2023-03-15 14:57:16:782,0,0.516584,-2.04635,-15.6649,Q,Q
2023-03-15 14:57:16:792,0,0.520847,-2.05079,-15.6586,Q,Q
2023-03-15 14:57:16:802,0,0.526904,-2.0536,-15.6571,Q,Q
2023-03-15 14:57:16:811,0,0.531745,-2.05465,-15.6567,Q,Q
2023-03-15 14:57:16:821,0,0.534771,-2.0573,-15.6551,Q,Q
2023-03-15 14:57:16:831,0,0.542814,-2.05924,-15.651,Q,Q
2023-03-15 14:57:16:842,0,0.553557,-2.06126,-15.6457,Q,Q
2023-03-15 14:57:16:852,0,0.567682,-2.06446,-15.6385,Q,Q
2023-03-15 14:57:16:862,0,0.581095,-2.06945,-15.6254,Q,Q
2023-03-15 14:57:16:872,0,0.592998,-2.0743,-15.6114,Q,Q
2023-03-15 14:57:16:882,0,0.603748,-2.08238,-15.5987,Q,Q
2023-03-15 14:57:16:892,0,0.615246,-2.08978,-15.5876,Q,Q
2023-03-15 14:57:16:902,0,0.622392,-2.10087,-15.5747,Q,Q
2023-03-15 14:57:16:911,0,0.631947,-2.11154,-15.559,Q,Q
2023-03-15 14:57:16:922,0,0.63676,-2.12293,-15.5468,Q,Q
2023-03-15 14:57:16:932,0,0.636018,-2.13923,-15.5341,Q,Q
2023-03-15 14:57:16:942,0,0.633346,-2.16144,-15.5166,Q,Q
2023-03-15 14:57:16:952,0,0.628999,-2.18824,-15.4995,Q,Q
2023-03-15 14:57:16:962,0,0.622307,-2.21891,-15.4845,Q,Q
2023-03-15 14:57:16:972,0,0.618124,-2.24994,-15.4696,Q,Q
2023-03-15 14:57:16:982,0,0.614665,-2.27206,-15.454,Q,Q
2023-03-15 14:57:16:992,0,0.608009,-2.28887,-15.4417,Q,Q
2023-03-15 14:57:17:2,0,0.607964,-2.30834,-15.4229,Q,Q
2023-03-15 14:57:17:12,0,0.607389,-2.33191,-15.4047,Q,Q
2023-03-15 14:57:17:22,0,0.601228,-2.35608,-15.3888,Q,Q
2023-03-15 14:57:17:32,0,0.596022,-2.37598,-15.3786,Q,Q
2023-03-15 14:57:17:42,0,0.596814,-2.38781,-15.3712,Q,Q
2023-03-15 14:57:17:52,0,0.599766,-2.39755,-15.3661,Q,Q
2023-03-15 14:57:17:62,0,0.601812,-2.40066,-15.3632,Q,Q
2023-03-15 14:57:17:72,0,0.602039,-2.3962,-15.3601,Q,Q
2023-03-15 14:57:17:82,0,0.604514,-2.39281,-15.3648,Q,Q
2023-03-15 14:57:17:92,0,0.605527,-2.3906,-15.3666,Q,Q
2023-03-15 14:57:17:102,0,0.608595,-2.38246,-15.3713,Q,Q
2023-03-15 14:57:17:112,0,0.612074,-2.37334,-15.3712,Q,Q
2023-03-15 14:57:17:122,0,0.613302,-2.36911,-15.3758,Q,Q
2023-03-15 14:57:17:132,0,0.614933,-2.36436,-15.3752,Q,Q
2023-03-15 14:57:17:142,0,0.617343,-2.36174,-15.3792,Q,Q
2023-03-15 14:57:17:152,0,0.620532,-2.35621,-15.3801,Q,Q
2023-03-15 14:57:17:162,0,0.621818,-2.35537,-15.3822,Q,Q
2023-03-15 14:57:17:172,0,0.629328,-2.35361,-15.3827,Q,Q
2023-03-15 14:57:17:182,0,0.636762,-2.35167,-15.3823,Q,Q
2023-03-15 14:57:17:192,0,0.645417,-2.34735,-15.386,Q,Q
2023-03-15 14:57:17:202,0,0.652502,-2.34213,-15.3899,Q,Q
2023-03-15 14:57:17:212,0,0.656245,-2.33564,-15.3944,Q,Q
2023-03-15 14:57:17:222,0,0.664334,-2.32773,-15.4037,Q,Q
2023-03-15 14:57:17:232,0,0.671188,-2.3202,-15.4159,Q,Q
2023-03-15 14:57:17:242,0,0.681703,-2.31557,-15.4308,Q,Q
2023-03-15 14:57:17:252,0,0.689108,-2.30972,-15.4429,Q,Q
2023-03-15 14:57:17:262,0,0.697023,-2.30752,-15.4535,Q,Q
2023-03-15 14:57:17:272,0,0.697599,-2.30299,-15.4608,Q,Q
2023-03-15 14:57:17:282,0,0.692618,-2.29999,-15.4671,Q,Q
2023-03-15 14:57:17:292,0,0.689631,-2.29095,-15.4742,Q,Q
2023-03-15 14:57:17:302,0,0.686804,-2.28192,-15.4803,Q,Q
2023-03-15 14:57:17:312,0,0.680699,-2.27233,-15.4868,Q,Q
2023-03-15 14:57:17:322,0,0.6718,-2.26329,-15.4912,Q,Q
2023-03-15 14:57:17:331,0,0.6646,-2.25872,-15.4973,Q,Q
2023-03-15 14:57:17:342,0,0.654996,-2.25277,-15.503,Q,Q
2023-03-15 14:57:17:352,0,0.65072,-2.24801,-15.5079,Q,Q
2023-03-15 14:57:17:362,0,0.643022,-2.24477,-15.5158,Q,Q
2023-03-15 14:57:17:372,0,0.638325,-2.24268,-15.5229,Q,Q
2023-03-15 14:57:17:382,0,0.634178,-2.23541,-15.5313,Q,Q
2023-03-15 14:57:17:392,0,0.629247,-2.22763,-15.5401,Q,Q
2023-03-15 14:57:17:402,0,0.6272,-2.21739,-15.5522,Q,Q
2023-03-15 14:57:17:412,0,0.627337,-2.20775,-15.5707,Q,Q
2023-03-15 14:57:17:422,0,0.625174,-2.201,-15.5889,Q,Q
2023-03-15 14:57:17:432,0,0.627377,-2.19565,-15.6067,Q,Q
2023-03-15 14:57:17:442,0,0.625504,-2.18665,-15.6259,Q,Q
2023-03-15 14:57:17:452,0,0.621322,-2.17118,-15.65,Q,Q
2023-03-15 14:57:17:462,0,0.620526,-2.15202,-15.6797,Q,Q
2023-03-15 14:57:17:472,0,0.623529,-2.13466,-15.7116,Q,Q
2023-03-15 14:57:17:482,0,0.629495,-2.12063,-15.7458,Q,Q
2023-03-15 14:57:17:492,0,0.641039,-2.10934,-15.779,Q,Q
2023-03-15 14:57:17:502,0,0.654961,-2.09611,-15.8168,Q,Q
2023-03-15 14:57:17:512,0,0.673563,-2.07724,-15.8584,Q,Q
2023-03-15 14:57:17:522,0,0.695744,-2.06022,-15.9016,Q,Q
2023-03-15 14:57:17:532,0,0.715565,-2.0367,-15.9406,Q,Q
2023-03-15 14:57:17:542,0,0.736942,-2.01998,-15.9721,Q,Q
2023-03-15 14:57:17:552,0,0.752395,-2.0021,-15.9971,Q,Q
2023-03-15 14:57:17:562,0,0.766636,-1.98383,-16.0183,Q,Q
2023-03-15 14:57:17:572,0,0.777035,-1.96701,-16.0336,Q,Q
2023-03-15 14:57:17:582,0,0.785857,-1.95129,-16.0428,Q,Q
2023-03-15 14:57:17:592,0,0.791008,-1.93282,-16.0512,Q,Q
2023-03-15 14:57:17:602,0,0.793744,-1.91926,-16.0563,Q,Q
2023-03-15 14:57:17:612,0,0.798852,-1.90528,-16.0624,Q,Q
2023-03-15 14:57:17:622,0,0.80234,-1.89173,-16.0702,Q,Q
2023-03-15 14:57:17:632,0,0.80724,-1.88068,-16.0771,Q,Q
2023-03-15 14:57:17:642,0,0.809577,-1.87356,-16.0805,Q,Q
2023-03-15 14:57:17:652,0,0.809549,-1.86465,-16.0832,Q,Q
2023-03-15 14:57:17:662,0,0.808553,-1.85836,-16.0803,Q,Q
2023-03-15 14:57:17:672,0,0.801576,-1.85681,-16.0738,Q,Q
2023-03-15 14:57:17:682,0,0.790077,-1.85915,-16.0647,Q,Q
2023-03-15 14:57:17:691,0,0.777407,-1.86383,-16.055,Q,Q
2023-03-15 14:57:17:702,0,0.759824,-1.87052,-16.0382,Q,Q
2023-03-15 14:57:17:712,0,0.742418,-1.8792,-16.0216,Q,Q
2023-03-15 14:57:17:722,0,0.725842,-1.88985,-16.0042,Q,Q
2023-03-15 14:57:17:732,0,0.710719,-1.90107,-15.9824,Q,Q
2023-03-15 14:57:17:742,0,0.697843,-1.91624,-15.9572,Q,Q
2023-03-15 14:57:17:752,0,0.686756,-1.92986,-15.9328,Q,Q
2023-03-15 14:57:17:762,0,0.678491,-1.945,-15.904,Q,Q
2023-03-15 14:57:17:772,0,0.662802,-1.96114,-15.8823,Q,Q
2023-03-15 14:57:17:782,0,0.647163,-1.9737,-15.8573,Q,Q
2023-03-15 14:57:17:792,0,0.629281,-1.98747,-15.8301,Q,Q
2023-03-15 14:57:17:802,0,0.612709,-2.00012,-15.8012,Q,Q
2023-03-15 14:57:17:812,0,0.589278,-2.01203,-15.7703,Q,Q
2023-03-15 14:57:17:822,0,0.56978,-2.02298,-15.7413,Q,Q
2023-03-15 14:57:17:832,0,0.555237,-2.03519,-15.718,Q,Q
2023-03-15 14:57:17:841,0,0.543425,-2.04705,-15.696,Q,Q
2023-03-15 14:57:17:852,0,0.536842,-2.05769,-15.6757,Q,Q
2023-03-15 14:57:17:862,0,0.532306,-2.06772,-15.6601,Q,Q
2023-03-15 14:57:17:872,0,0.530225,-2.07386,-15.6518,Q,Q
2023-03-15 14:57:17:882,0,0.527694,-2.08143,-15.642,Q,Q
2023-03-15 14:57:17:892,0,0.525947,-2.08535,-15.6381,Q,Q
2023-03-15 14:57:17:902,0,0.521819,-2.08707,-15.6365,Q,Q
2023-03-15 14:57:17:912,0,0.516918,-2.09419,-15.629,Q,Q
2023-03-15 14:57:17:922,0,0.512445,-2.10095,-15.624,Q,Q
2023-03-15 14:57:17:932,0,0.506229,-2.10708,-15.6259,Q,Q
2023-03-15 14:57:17:942,0,0.507759,-2.11335,-15.6283,Q,Q
2023-03-15 14:57:17:952,0,0.513896,-2.11864,-15.6346,Q,Q
2023-03-15 14:57:17:962,0,0.526011,-2.12421,-15.6467,Q,Q
2023-03-15 14:57:17:972,0,0.540432,-2.12833,-15.6582,Q,Q
2023-03-15 14:57:17:982,0,0.555575,-2.13474,-15.6686,Q,Q
2023-03-15 14:57:17:992,0,0.564053,-2.1357,-15.6759,Q,Q
2023-03-15 14:57:18:2,0,0.564477,-2.13548,-15.6822,Q,Q
2023-03-15 14:57:18:12,0,0.556339,-2.12569,-15.6807,Q,Q
2023-03-15 14:57:18:22,0,0.539837,-2.11093,-15.6742,Q,Q
2023-03-15 14:57:18:32,0,0.5224,-2.09396,-15.6598,Q,Q
2023-03-15 14:57:18:42,0,0.502763,-2.08316,-15.6411,Q,Q
2023-03-15 14:57:18:52,0,0.480022,-2.07429,-15.6157,Q,Q
2023-03-15 14:57:18:62,0,0.463868,-2.07417,-15.586,Q,Q
2023-03-15 14:57:18:72,0,0.449101,-2.07726,-15.554,Q,Q
2023-03-15 14:57:18:82,0,0.43562,-2.08826,-15.5194,Q,Q
2023-03-15 14:57:18:92,0,0.429061,-2.09871,-15.4932,Q,Q
2023-03-15 14:57:18:102,0,0.42707,-2.11057,-15.469,Q,Q
2023-03-15 14:57:18:112,0,0.427814,-2.12757,-15.4463,Q,Q
2023-03-15 14:57:18:122,0,0.426068,-2.14699,-15.4239,Q,Q
2023-03-15 14:57:18:132,0,0.418698,-2.16763,-15.399,Q,Q
2023-03-15 14:57:18:142,0,0.411981,-2.18607,-15.3764,Q,Q
2023-03-15 14:57:18:152,0,0.407885,-2.20231,-15.3507,Q,Q
2023-03-15 14:57:18:162,0,0.401322,-2.21819,-15.3201,Q,Q
2023-03-15 14:57:18:172,0,0.396932,-2.23039,-15.2848,Q,Q
2023-03-15 14:57:18:182,0,0.391766,-2.243,-15.2465,Q,Q
2023-03-15 14:57:18:192,0,0.385386,-2.25484,-15.2054,Q,Q
2023-03-15 14:57:18:202,0,0.38861,-2.26658,-15.1568,Q,Q
2023-03-15 14:57:18:212,0,0.395026,-2.27759,-15.1077,Q,Q
2023-03-15 14:57:18:222,0,0.403335,-2.29241,-15.0625,Q,Q
2023-03-15 14:57:18:232,0,0.411757,-2.30677,-15.0129,Q,Q
2023-03-15 14:57:18:242,0,0.4211,-2.32258,-14.9653,Q,Q
2023-03-15 14:57:18:252,0,0.427942,-2.34207,-14.9197,Q,Q
2023-03-15 14:57:18:262,0,0.439812,-2.36731,-14.8795,Q,Q
2023-03-15 14:57:18:272,0,0.452625,-2.39396,-14.8458,Q,Q
2023-03-15 14:57:18:282,0,0.471474,-2.42626,-14.819,Q,Q
2023-03-15 14:57:18:292,0,0.490216,-2.46621,-14.7959,Q,Q
2023-03-15 14:57:18:302,0,0.505467,-2.50972,-14.7728,Q,Q
2023-03-15 14:57:18:312,0,0.527525,-2.55607,-14.76,Q,Q
2023-03-15 14:57:18:322,0,0.55278,-2.60077,-14.7536,Q,Q
2023-03-15 14:57:18:332,0,0.585,-2.64343,-14.7482,Q,Q
2023-03-15 14:57:18:342,0,0.62306,-2.68858,-14.7381,Q,Q
2023-03-15 14:57:18:351,0,0.651492,-2.73365,-14.7224,Q,Q
2023-03-15 14:57:18:361,0,0.671853,-2.77618,-14.7021,Q,Q
2023-03-15 14:57:18:371,0,0.695014,-2.81541,-14.6726,Q,Q
2023-03-15 14:57:18:382,0,0.710174,-2.84488,-14.6509,Q,Q
2023-03-15 14:57:18:392,0,0.732448,-2.866,-14.6411,Q,Q
2023-03-15 14:57:18:402,0,0.761277,-2.87742,-14.6439,Q,Q
2023-03-15 14:57:18:412,0,0.789374,-2.8825,-14.6532,Q,Q
2023-03-15 14:57:18:422,0,0.819173,-2.8759,-14.6724,Q,Q
2023-03-15 14:57:18:432,0,0.846153,-2.86742,-14.6966,Q,Q
2023-03-15 14:57:18:442,0,0.86261,-2.84918,-14.7307,Q,Q
2023-03-15 14:57:18:452,0,0.871449,-2.82746,-14.7776,Q,Q
2023-03-15 14:57:18:462,0,0.875647,-2.79303,-14.8362,Q,Q
2023-03-15 14:57:18:472,0,0.87936,-2.74662,-14.9106,Q,Q
2023-03-15 14:57:18:482,0,0.881805,-2.70726,-14.9827,Q,Q
2023-03-15 14:57:18:492,0,0.887263,-2.67988,-15.054,Q,Q
2023-03-15 14:57:18:502,0,0.89536,-2.65545,-15.1263,Q,Q
2023-03-15 14:57:18:512,0,0.901637,-2.63637,-15.2056,Q,Q
2023-03-15 14:57:18:522,0,0.910038,-2.62287,-15.2847,Q,Q
2023-03-15 14:57:18:532,0,0.911999,-2.61122,-15.3692,Q,Q
2023-03-15 14:57:18:542,0,0.90589,-2.5961,-15.4596,Q,Q
2023-03-15 14:57:18:552,0,0.890024,-2.58036,-15.5448,Q,Q
2023-03-15 14:57:18:562,0,0.869333,-2.56956,-15.6204,Q,Q
2023-03-15 14:57:18:572,0,0.846257,-2.56466,-15.6957,Q,Q
2023-03-15 14:57:18:582,0,0.820444,-2.56306,-15.7652,Q,Q
2023-03-15 14:57:18:592,0,0.790825,-2.56709,-15.8189,Q,Q
2023-03-15 14:57:18:602,0,0.76043,-2.5773,-15.8654,Q,Q
2023-03-15 14:57:18:612,0,0.7343,-2.59568,-15.9051,Q,Q
2023-03-15 14:57:18:622,0,0.71539,-2.61471,-15.9343,Q,Q
2023-03-15 14:57:18:632,0,0.702921,-2.63532,-15.9551,Q,Q
2023-03-15 14:57:18:642,0,0.700452,-2.65943,-15.9638,Q,Q
2023-03-15 14:57:18:652,0,0.703262,-2.68238,-15.9619,Q,Q
2023-03-15 14:57:18:662,0,0.713026,-2.70141,-15.959,Q,Q
2023-03-15 14:57:18:672,0,0.731867,-2.71046,-15.9542,Q,Q
2023-03-15 14:57:18:682,0,0.751871,-2.71003,-15.9484,Q,Q
2023-03-15 14:57:18:692,0,0.764618,-2.69705,-15.9468,Q,Q
2023-03-15 14:57:18:701,0,0.767812,-2.67873,-15.9458,Q,Q
2023-03-15 14:57:18:711,0,0.763653,-2.65295,-15.9431,Q,Q
2023-03-15 14:57:18:722,0,0.756959,-2.62046,-15.9496,Q,Q
2023-03-15 14:57:18:732,0,0.734798,-2.58667,-15.9637,Q,Q
2023-03-15 14:57:18:742,0,0.707436,-2.55821,-15.9851,Q,Q
2023-03-15 14:57:18:752,0,0.678244,-2.53055,-16.0147,Q,Q
2023-03-15 14:57:18:762,0,0.652375,-2.51142,-16.0487,Q,Q
2023-03-15 14:57:18:772,0,0.630486,-2.49986,-16.0902,Q,Q
2023-03-15 14:57:18:782,0,0.615249,-2.48874,-16.1418,Q,Q
2023-03-15 14:57:18:792,0,0.604836,-2.47804,-16.2023,Q,Q
2023-03-15 14:57:18:802,0,0.596258,-2.46528,-16.273,Q,Q
2023-03-15 14:57:18:812,0,0.588484,-2.44873,-16.3414,Q,Q
2023-03-15 14:57:18:822,0,0.578255,-2.42839,-16.411,Q,Q
2023-03-15 14:57:18:832,0,0.56131,-2.4116,-16.4815,Q,Q
2023-03-15 14:57:18:842,0,0.537672,-2.3943,-16.5429,Q,Q
2023-03-15 14:57:18:852,0,0.51211,-2.37867,-16.6003,Q,Q
2023-03-15 14:57:18:862,0,0.488968,-2.37252,-16.6508,Q,Q
2023-03-15 14:57:18:871,0,0.470747,-2.36525,-16.7001,Q,Q
2023-03-15 14:57:18:882,0,0.460182,-2.35688,-16.7502,Q,Q
2023-03-15 14:57:18:892,0,0.454331,-2.34401,-16.7994,Q,Q
2023-03-15 14:57:18:902,0,0.456736,-2.32026,-16.8536,Q,Q
2023-03-15 14:57:18:912,0,0.464739,-2.29077,-16.9105,Q,Q
2023-03-15 14:57:18:922,0,0.471132,-2.25415,-16.9603,Q,Q
2023-03-15 14:57:18:932,0,0.467929,-2.21234,-17.0092,Q,Q
2023-03-15 14:57:18:941,0,0.461376,-2.16813,-17.0542,Q,Q
2023-03-15 14:57:18:951,0,0.453495,-2.12281,-17.0973,Q,Q
2023-03-15 14:57:18:961,0,0.444985,-2.08078,-17.1424,Q,Q
2023-03-15 14:57:18:971,0,0.441576,-2.04557,-17.1887,Q,Q
2023-03-15 14:57:18:982,0,0.44479,-2.01735,-17.2374,Q,Q
2023-03-15 14:57:18:992,0,0.460273,-1.99025,-17.2846,Q,Q
2023-03-15 14:57:19:2,0,0.478587,-1.96856,-17.3255,Q,Q
2023-03-15 14:57:19:12,0,0.499204,-1.95063,-17.3641,Q,Q
2023-03-15 14:57:19:22,0,0.516351,-1.93688,-17.3937,Q,Q
2023-03-15 14:57:19:32,0,0.529609,-1.92822,-17.4167,Q,Q
2023-03-15 14:57:19:42,0,0.533137,-1.92237,-17.4344,Q,Q
2023-03-15 14:57:19:52,0,0.528261,-1.92465,-17.4469,Q,Q
2023-03-15 14:57:19:62,0,0.508483,-1.95087,-17.4593,Q,Q
2023-03-15 14:57:19:72,0,0.478975,-1.97934,-17.4695,Q,Q
2023-03-15 14:57:19:82,0,0.447024,-1.98977,-17.4811,Q,Q
2023-03-15 14:57:19:92,0,0.435066,-1.99757,-17.4907,Q,Q
2023-03-15 14:57:19:102,0,0.433718,-2.00809,-17.4972,Q,Q
2023-03-15 14:57:19:112,0,0.436881,-2.01944,-17.4995,Q,Q
2023-03-15 14:57:19:122,0,0.443249,-2.02934,-17.5002,Q,Q
2023-03-15 14:57:19:132,0,0.442677,-2.04025,-17.4947,Q,Q
2023-03-15 14:57:19:142,0,0.445689,-2.0545,-17.4847,Q,Q
2023-03-15 14:57:19:152,0,0.448536,-2.06844,-17.4796,Q,Q
2023-03-15 14:57:19:162,0,0.459783,-2.08616,-17.4755,Q,Q
2023-03-15 14:57:19:172,0,0.468803,-2.10406,-17.4705,Q,Q
2023-03-15 14:57:19:182,0,0.483034,-2.1238,-17.4678,Q,Q
2023-03-15 14:57:19:192,0,0.511284,-2.14781,-17.4744,Q,Q
2023-03-15 14:57:19:202,0,0.545644,-2.17182,-17.4874,Q,Q
2023-03-15 14:57:19:212,0,0.584542,-2.19945,-17.4977,Q,Q
2023-03-15 14:57:19:222,0,0.626017,-2.22848,-17.5041,Q,Q
2023-03-15 14:57:19:232,0,0.662429,-2.25509,-17.5088,Q,Q
2023-03-15 14:57:19:242,0,0.694689,-2.28243,-17.5061,Q,Q
2023-03-15 14:57:19:252,0,0.721582,-2.30963,-17.5029,Q,Q
2023-03-15 14:57:19:262,0,0.740475,-2.33635,-17.495,Q,Q
2023-03-15 14:57:19:272,0,0.753202,-2.3572,-17.4903,Q,Q
2023-03-15 14:57:19:282,0,0.762669,-2.37519,-17.4815,Q,Q
2023-03-15 14:57:19:292,0,0.769033,-2.39236,-17.4697,Q,Q
2023-03-15 14:57:19:302,0,0.775837,-2.41133,-17.4533,Q,Q
2023-03-15 14:57:19:312,0,0.780537,-2.42714,-17.431,Q,Q
2023-03-15 14:57:19:322,0,0.784408,-2.44399,-17.4035,Q,Q
2023-03-15 14:57:19:332,0,0.780702,-2.46134,-17.3736,Q,Q
2023-03-15 14:57:19:342,0,0.771958,-2.47644,-17.335,Q,Q
2023-03-15 14:57:19:352,0,0.752159,-2.48761,-17.2892,Q,Q
2023-03-15 14:57:19:362,0,0.727843,-2.50033,-17.2398,Q,Q
2023-03-15 14:57:19:372,0,0.70297,-2.50924,-17.1894,Q,Q
2023-03-15 14:57:19:382,0,0.684726,-2.51789,-17.1391,Q,Q
2023-03-15 14:57:19:392,0,0.669358,-2.53192,-17.0846,Q,Q
2023-03-15 14:57:19:402,0,0.657415,-2.55294,-17.0158,Q,Q
2023-03-15 14:57:19:411,0,0.641422,-2.57967,-16.936,Q,Q
2023-03-15 14:57:19:421,0,0.619089,-2.6047,-16.8507,Q,Q
2023-03-15 14:57:19:431,0,0.594827,-2.62613,-16.7644,Q,Q
2023-03-15 14:57:19:441,0,0.570236,-2.63949,-16.6751,Q,Q
2023-03-15 14:57:19:451,0,0.55135,-2.65129,-16.5866,Q,Q
2023-03-15 14:57:19:461,0,0.539265,-2.65506,-16.5026,Q,Q
2023-03-15 14:57:19:471,0,0.532626,-2.64704,-16.4273,Q,Q
2023-03-15 14:57:19:481,0,0.532992,-2.62799,-16.3516,Q,Q
2023-03-15 14:57:19:491,0,0.531955,-2.60198,-16.2767,Q,Q
2023-03-15 14:57:19:502,0,0.530692,-2.5657,-16.2078,Q,Q
2023-03-15 14:57:19:512,0,0.528511,-2.52556,-16.1409,Q,Q
2023-03-15 14:57:19:522,0,0.526062,-2.48004,-16.0783,Q,Q
2023-03-15 14:57:19:532,0,0.513138,-2.43497,-16.0188,Q,Q
2023-03-15 14:57:19:542,0,0.492192,-2.38617,-15.9663,Q,Q
2023-03-15 14:57:19:552,0,0.461814,-2.33254,-15.9177,Q,Q
2023-03-15 14:57:19:562,0,0.417926,-2.2766,-15.8825,Q,Q
2023-03-15 14:57:19:572,0,0.370754,-2.22465,-15.8573,Q,Q
2023-03-15 14:57:19:582,0,0.321645,-2.16922,-15.847,Q,Q
2023-03-15 14:57:19:592,0,0.26992,-2.11132,-15.8478,Q,Q
2023-03-15 14:57:19:602,0,0.221378,-2.05655,-15.8591,Q,Q
2023-03-15 14:57:19:612,0,0.184305,-2.01083,-15.8781,Q,Q
2023-03-15 14:57:19:622,0,0.158499,-1.97673,-15.9036,Q,Q
2023-03-15 14:57:19:632,0,0.14059,-1.95152,-15.9222,Q,Q
2023-03-15 14:57:19:642,0,0.128357,-1.93916,-15.9386,Q,Q
2023-03-15 14:57:19:652,0,0.125129,-1.93589,-15.9524,Q,Q
2023-03-15 14:57:19:662,0,0.131001,-1.93748,-15.9588,Q,Q
2023-03-15 14:57:19:672,0,0.141647,-1.93464,-15.964,Q,Q
2023-03-15 14:57:19:682,0,0.153161,-1.93173,-15.9602,Q,Q
2023-03-15 14:57:19:692,0,0.167739,-1.93127,-15.9505,Q,Q
2023-03-15 14:57:19:701,0,0.177582,-1.92549,-15.9298,Q,Q
2023-03-15 14:57:19:711,0,0.187681,-1.9176,-15.9079,Q,Q
2023-03-15 14:57:19:721,0,0.197009,-1.91025,-15.8849,Q,Q
2023-03-15 14:57:19:732,0,0.206678,-1.90001,-15.8621,Q,Q
2023-03-15 14:57:19:741,0,0.2191,-1.89478,-15.8374,Q,Q
2023-03-15 14:57:19:751,0,0.230392,-1.88589,-15.8131,Q,Q
2023-03-15 14:57:19:761,0,0.241086,-1.88362,-15.7848,Q,Q
2023-03-15 14:57:19:771,0,0.246861,-1.88556,-15.7577,Q,Q
2023-03-15 14:57:19:782,0,0.251605,-1.88913,-15.731,Q,Q
2023-03-15 14:57:19:792,0,0.257114,-1.90076,-15.7043,Q,Q
2023-03-15 14:57:19:802,0,0.258762,-1.91205,-15.6847,Q,Q
2023-03-15 14:57:19:812,0,0.259784,-1.92818,-15.6703,Q,Q
2023-03-15 14:57:19:822,0,0.264318,-1.94132,-15.6611,Q,Q
2023-03-15 14:57:19:832,0,0.271928,-1.95496,-15.6544,Q,Q
2023-03-15 14:57:19:842,0,0.284682,-1.96765,-15.6498,Q,Q
2023-03-15 14:57:19:852,0,0.298467,-1.97783,-15.6469,Q,Q
2023-03-15 14:57:19:862,0,0.310691,-1.98472,-15.6413,Q,Q
2023-03-15 14:57:19:872,0,0.327219,-1.98595,-15.6356,Q,Q
2023-03-15 14:57:19:882,0,0.343561,-1.98722,-15.6248,Q,Q
2023-03-15 14:57:19:892,0,0.356338,-1.98806,-15.613,Q,Q
2023-03-15 14:57:19:902,0,0.371139,-1.98627,-15.5998,Q,Q
2023-03-15 14:57:19:912,0,0.386468,-1.98533,-15.5875,Q,Q
2023-03-15 14:57:19:922,0,0.403097,-1.98572,-15.5809,Q,Q
2023-03-15 14:57:19:932,0,0.416439,-1.98279,-15.5727,Q,Q
2023-03-15 14:57:19:942,0,0.424026,-1.979,-15.5696,Q,Q
2023-03-15 14:57:19:952,0,0.43211,-1.97575,-15.5692,Q,Q
2023-03-15 14:57:19:962,0,0.442304,-1.97397,-15.57,Q,Q
2023-03-15 14:57:19:972,0,0.452877,-1.97087,-15.5721,Q,Q
2023-03-15 14:57:19:982,0,0.459629,-1.97135,-15.5792,Q,Q
2023-03-15 14:57:19:992,0,0.469618,-1.96844,-15.5855,Q,Q
2023-03-15 14:57:20:2,0,0.475687,-1.96891,-15.5962,Q,Q
2023-03-15 14:57:20:12,0,0.484026,-1.96453,-15.6073,Q,Q
2023-03-15 14:57:20:22,0,0.4919,-1.96338,-15.6198,Q,Q
2023-03-15 14:57:20:32,0,0.498774,-1.96191,-15.6302,Q,Q
2023-03-15 14:57:20:42,0,0.507824,-1.96082,-15.6421,Q,Q
2023-03-15 14:57:20:52,0,0.515808,-1.96146,-15.6572,Q,Q
2023-03-15 14:57:20:62,0,0.52316,-1.96154,-15.6758,Q,Q
2023-03-15 14:57:20:72,0,0.532002,-1.96535,-15.6889,Q,Q
2023-03-15 14:57:20:82,0,0.543976,-1.97233,-15.6968,Q,Q
2023-03-15 14:57:20:92,0,0.554102,-1.98258,-15.6977,Q,Q
2023-03-15 14:57:20:102,0,0.560846,-1.99465,-15.6999,Q,Q
2023-03-15 14:57:20:112,0,0.564158,-2.00206,-15.6994,Q,Q
2023-03-15 14:57:20:122,0,0.56336,-2.00432,-15.7001,Q,Q
2023-03-15 14:57:20:132,0,0.560401,-2.00553,-15.7004,Q,Q
2023-03-15 14:57:20:142,0,0.555689,-2.0011,-15.6972,Q,Q
2023-03-15 14:57:20:152,0,0.548599,-1.9995,-15.691,Q,Q
2023-03-15 14:57:20:162,0,0.54632,-1.99723,-15.6826,Q,Q
2023-03-15 14:57:20:172,0,0.546564,-1.99742,-15.6741,Q,Q
2023-03-15 14:57:20:182,0,0.552074,-1.99599,-15.6658,Q,Q
2023-03-15 14:57:20:192,0,0.554905,-1.99638,-15.6605,Q,Q
2023-03-15 14:57:20:202,0,0.560893,-1.99333,-15.6547,Q,Q
2023-03-15 14:57:20:212,0,0.564822,-1.99241,-15.6536,Q,Q
2023-03-15 14:57:20:222,0,0.571332,-1.99227,-15.6551,Q,Q
2023-03-15 14:57:20:232,0,0.576045,-1.98934,-15.6585,Q,Q
2023-03-15 14:57:20:242,0,0.574315,-1.98414,-15.665,Q,Q
2023-03-15 14:57:20:252,0,0.573782,-1.97824,-15.6721,Q,Q
2023-03-15 14:57:20:262,0,0.575992,-1.97744,-15.6735,Q,Q
2023-03-15 14:57:20:272,0,0.570101,-1.9736,-15.6769,Q,Q
2023-03-15 14:57:20:282,0,0.561628,-1.9657,-15.6745,Q,Q
2023-03-15 14:57:20:292,0,0.555408,-1.95912,-15.6777,Q,Q
2023-03-15 14:57:20:302,0,0.552134,-1.95217,-15.6816,Q,Q
2023-03-15 14:57:20:312,0,0.548279,-1.94586,-15.6842,Q,Q
2023-03-15 14:57:20:322,0,0.544756,-1.94124,-15.6759,Q,Q
2023-03-15 14:57:20:332,0,0.544638,-1.9403,-15.6719,Q,Q
2023-03-15 14:57:20:342,0,0.543211,-1.93825,-15.6689,Q,Q
2023-03-15 14:57:20:352,0,0.548006,-1.93941,-15.6638,Q,Q
2023-03-15 14:57:20:362,0,0.549432,-1.93539,-15.6645,Q,Q
2023-03-15 14:57:20:372,0,0.553796,-1.9307,-15.6595,Q,Q
