Timestamp_cmd,imu_cmd,roll_delta,pitch_delta,yaw_delta,voice_type,voice_length
2023-03-15 21:05:19:442,0,-54.307,2.29402,134.399,Q,Q
2023-03-15 21:05:19:451,0,-54.304,2.29581,134.396,Q,Q
2023-03-15 21:05:19:460,0,-54.3046,2.29707,134.395,Q,Q
2023-03-15 21:05:19:471,0,-54.3035,2.29988,134.395,Q,Q
2023-03-15 21:05:19:481,0,-54.3075,2.29989,134.395,Q,Q
2023-03-15 21:05:19:491,0,-54.3072,2.30103,134.395,Q,Q
2023-03-15 21:05:19:501,0,-54.3077,2.29909,134.398,Q,Q
2023-03-15 21:05:19:511,0,-54.3054,2.29842,134.396,Q,Q
2023-03-15 21:05:19:521,0,-54.3043,2.29646,134.398,Q,Q
2023-03-15 21:05:19:531,0,-54.3055,2.29811,134.396,Q,Q
2023-03-15 21:05:19:541,0,-54.3034,2.30101,134.395,Q,Q
2023-03-15 21:05:19:551,0,-54.3039,2.30392,134.397,Q,Q
2023-03-15 21:05:19:561,0,-54.3038,2.30628,134.401,Q,Q
2023-03-15 21:05:19:571,0,-54.3035,2.3047,134.402,Q,Q
2023-03-15 21:05:19:581,0,-54.3057,2.30131,134.402,Q,Q
2023-03-15 21:05:19:591,0,-54.3093,2.30005,134.401,Q,Q
2023-03-15 21:05:19:601,0,-54.3099,2.29942,134.4,Q,Q
2023-03-15 21:05:19:611,0,-54.3105,2.30151,134.4,Q,Q
2023-03-15 21:05:19:621,0,-54.3132,2.30478,134.399,Q,Q
2023-03-15 21:05:19:631,0,-54.3122,2.30648,134.398,Q,Q
2023-03-15 21:05:19:641,0,-54.3145,2.30736,134.401,Q,Q
2023-03-15 21:05:19:651,0,-54.3114,2.30444,134.4,Q,Q
2023-03-15 21:05:19:661,0,-54.3103,2.30389,134.401,Q,Q
2023-03-15 21:05:19:671,0,-54.3077,2.30523,134.402,Q,Q
2023-03-15 21:05:19:681,0,-54.3082,2.3058,134.404,Q,Q
2023-03-15 21:05:19:691,0,-54.3085,2.30257,134.403,Q,Q
2023-03-15 21:05:19:701,0,-54.3096,2.30066,134.4,Q,Q
2023-03-15 21:05:19:711,0,-54.3099,2.30112,134.4,Q,Q
2023-03-15 21:05:19:721,0,-54.308,2.30353,134.4,Q,Q
2023-03-15 21:05:19:731,0,-54.3097,2.30345,134.403,Q,Q
2023-03-15 21:05:19:741,0,-54.3119,2.30234,134.404,Q,Q
2023-03-15 21:05:19:751,0,-54.3109,2.29998,134.406,Q,Q
2023-03-15 21:05:19:761,0,-54.3108,2.30086,134.407,Q,Q
2023-03-15 21:05:19:771,0,-54.3141,2.30036,134.409,Q,Q
2023-03-15 21:05:19:781,0,-54.3131,2.29982,134.409,Q,Q
2023-03-15 21:05:19:791,0,-54.3155,2.29713,134.41,Q,Q
2023-03-15 21:05:19:801,0,-54.3165,2.29811,134.414,Q,Q
2023-03-15 21:05:19:811,0,-54.3167,2.29793,134.414,Q,Q
2023-03-15 21:05:19:821,0,-54.3154,2.29718,134.412,Q,Q
2023-03-15 21:05:19:831,0,-54.316,2.2985,134.411,Q,Q
2023-03-15 21:05:19:841,0,-54.3165,2.29806,134.41,Q,Q
2023-03-15 21:05:19:851,0,-54.3167,2.29845,134.41,Q,Q
2023-03-15 21:05:19:861,0,-54.3183,2.29719,134.409,Q,Q
2023-03-15 21:05:19:871,0,-54.3167,2.29613,134.411,Q,Q
2023-03-15 21:05:19:881,0,-54.3191,2.29503,134.409,Q,Q
2023-03-15 21:05:19:891,0,-54.3203,2.29544,134.41,Q,Q
2023-03-15 21:05:19:901,0,-54.3226,2.29698,134.406,Q,Q
2023-03-15 21:05:19:911,0,-54.3236,2.29504,134.407,Q,Q
2023-03-15 21:05:19:921,0,-54.3232,2.29511,134.404,Q,Q
2023-03-15 21:05:19:930,0,-54.3206,2.29518,134.403,Q,Q
2023-03-15 21:05:19:941,0,-54.3231,2.29543,134.403,Q,Q
2023-03-15 21:05:19:950,0,-54.3236,2.2978,134.401,Q,Q
2023-03-15 21:05:19:960,0,-54.3241,2.2974,134.4,Q,Q
2023-03-15 21:05:19:970,0,-54.3287,2.29949,134.401,Q,Q
2023-03-15 21:05:19:980,0,-54.3283,2.29879,134.402,Q,Q
2023-03-15 21:05:19:990,0,-54.3298,2.30142,134.401,Q,Q
2023-03-15 21:05:20:0,0,-54.3283,2.29896,134.399,Q,Q
2023-03-15 21:05:20:10,0,-54.3261,2.30035,134.398,Q,Q
2023-03-15 21:05:20:20,0,-54.3273,2.30124,134.398,Q,Q
2023-03-15 21:05:20:30,0,-54.3262,2.30156,134.397,Q,Q
2023-03-15 21:05:20:40,0,-54.3292,2.30285,134.398,Q,Q
2023-03-15 21:05:20:50,0,-54.3292,2.30351,134.396,Q,Q
2023-03-15 21:05:20:60,0,-54.3279,2.3053,134.393,Q,Q
2023-03-15 21:05:20:70,0,-54.3256,2.30361,134.398,Q,Q
2023-03-15 21:05:20:80,0,-54.3284,2.30407,134.395,Q,Q
2023-03-15 21:05:20:90,0,-54.3308,2.30207,134.396,Q,Q
2023-03-15 21:05:20:100,0,-54.3273,2.29878,134.396,Q,Q
2023-03-15 21:05:20:111,0,-54.3278,2.3006,134.393,Q,Q
2023-03-15 21:05:20:121,0,-54.3274,2.30109,134.392,Q,Q
2023-03-15 21:05:20:131,0,-54.3252,2.3003,134.394,Q,Q
2023-03-15 21:05:20:141,0,-54.3252,2.30015,134.391,Q,Q
2023-03-15 21:05:20:151,0,-54.3232,2.2957,134.392,Q,Q
2023-03-15 21:05:20:161,0,-54.3268,2.29543,134.391,Q,Q
2023-03-15 21:05:20:171,0,-54.3257,2.29295,134.391,Q,Q
2023-03-15 21:05:20:181,0,-54.3259,2.29644,134.389,Q,Q
2023-03-15 21:05:20:191,0,-54.3259,2.29719,134.393,Q,Q
2023-03-15 21:05:20:201,0,-54.3264,2.29632,134.396,Q,Q
2023-03-15 21:05:20:211,0,-54.3267,2.29498,134.401,Q,Q
2023-03-15 21:05:20:221,0,-54.328,2.29693,134.4,Q,Q
2023-03-15 21:05:20:231,0,-54.3278,2.29828,134.401,Q,Q
2023-03-15 21:05:20:241,0,-54.3279,2.29619,134.401,Q,Q
2023-03-15 21:05:20:251,0,-54.3267,2.29606,134.403,Q,Q
2023-03-15 21:05:20:261,0,-54.3293,2.29505,134.402,Q,Q
2023-03-15 21:05:20:271,0,-54.3302,2.29846,134.402,Q,Q
2023-03-15 21:05:20:280,0,-54.3307,2.29879,134.404,Q,Q
2023-03-15 21:05:20:291,0,-54.3345,2.30281,134.401,Q,Q
2023-03-15 21:05:20:301,0,-54.3345,2.30408,134.403,Q,Q
2023-03-15 21:05:20:311,0,-54.3366,2.30343,134.404,Q,Q
2023-03-15 21:05:20:321,0,-54.3375,2.30715,134.404,Q,Q
2023-03-15 21:05:20:331,0,-54.3367,2.30366,134.402,Q,Q
2023-03-15 21:05:20:341,0,-54.3364,2.30364,134.4,Q,Q
2023-03-15 21:05:20:351,0,-54.3354,2.30286,134.399,Q,Q
2023-03-15 21:05:20:361,0,-54.336,2.30753,134.397,Q,Q
2023-03-15 21:05:20:371,0,-54.3345,2.30944,134.399,Q,Q
2023-03-15 21:05:20:381,0,-54.3368,2.30684,134.396,Q,Q
2023-03-15 21:05:20:391,0,-54.3377,2.30783,134.395,Q,Q
2023-03-15 21:05:20:401,0,-54.3382,2.30389,134.394,Q,Q
2023-03-15 21:05:20:411,0,-54.3419,2.30382,134.396,Q,Q
2023-03-15 21:05:20:421,0,-54.3446,2.30212,134.397,Q,Q
2023-03-15 21:05:20:431,0,-54.3474,2.30026,134.397,Q,Q
2023-03-15 21:05:20:441,0,-54.3483,2.30086,134.397,Q,Q
2023-03-15 21:05:20:451,0,-54.3488,2.30006,134.393,Q,Q
2023-03-15 21:05:20:461,0,-54.3455,2.29844,134.394,Q,Q
2023-03-15 21:05:20:471,0,-54.3463,2.29463,134.393,Q,Q
2023-03-15 21:05:20:481,0,-54.3432,2.29503,134.395,Q,Q
2023-03-15 21:05:20:491,0,-54.3416,2.2965,134.396,Q,Q
2023-03-15 21:05:20:501,0,-54.3416,2.29759,134.393,Q,Q
2023-03-15 21:05:20:511,0,-54.3441,2.29921,134.392,Q,Q
2023-03-15 21:05:20:521,0,-54.3461,2.30029,134.393,Q,Q
2023-03-15 21:05:20:531,0,-54.3505,2.30091,134.393,Q,Q
2023-03-15 21:05:20:541,0,-54.351,2.30095,134.39,Q,Q
2023-03-15 21:05:20:551,0,-54.3517,2.29948,134.389,Q,Q
2023-03-15 21:05:20:561,0,-54.3485,2.3003,134.386,Q,Q
2023-03-15 21:05:20:571,0,-54.3498,2.29981,134.383,Q,Q
2023-03-15 21:05:20:581,0,-54.348,2.30064,134.381,Q,Q
2023-03-15 21:05:20:591,0,-54.3496,2.30296,134.379,Q,Q
2023-03-15 21:05:20:601,0,-54.3495,2.30206,134.377,Q,Q
2023-03-15 21:05:20:611,0,-54.3527,2.30267,134.375,Q,Q
2023-03-15 21:05:20:621,0,-54.3545,2.30318,134.374,Q,Q
2023-03-15 21:05:20:631,0,-54.3545,2.30435,134.374,Q,Q
2023-03-15 21:05:20:641,0,-54.3546,2.30397,134.372,Q,Q
2023-03-15 21:05:20:651,0,-54.3507,2.30456,134.373,Q,Q
2023-03-15 21:05:20:661,0,-54.3483,2.30507,134.376,Q,Q
2023-03-15 21:05:20:671,0,-54.3473,2.30534,134.374,Q,Q
2023-03-15 21:05:20:681,0,-54.3449,2.30526,134.372,Q,Q
2023-03-15 21:05:20:691,0,-54.3437,2.3082,134.372,Q,Q
2023-03-15 21:05:20:701,0,-54.3419,2.3057,134.373,Q,Q
2023-03-15 21:05:20:711,0,-54.3429,2.30632,134.372,Q,Q
2023-03-15 21:05:20:721,0,-54.3445,2.3065,134.373,Q,Q
2023-03-15 21:05:20:731,0,-54.3422,2.30456,134.371,Q,Q
2023-03-15 21:05:20:741,0,-54.3429,2.30736,134.367,Q,Q
2023-03-15 21:05:20:751,0,-54.339,2.30812,134.367,Q,Q
2023-03-15 21:05:20:761,0,-54.3403,2.30542,134.368,Q,Q
2023-03-15 21:05:20:771,0,-54.34,2.30384,134.37,Q,Q
2023-03-15 21:05:20:781,0,-54.3382,2.3016,134.369,Q,Q
2023-03-15 21:05:20:791,0,-54.3389,2.30154,134.372,Q,Q
2023-03-15 21:05:20:801,0,-54.3384,2.30175,134.371,Q,Q
2023-03-15 21:05:20:811,0,-54.3369,2.29918,134.372,Q,Q
2023-03-15 21:05:20:821,0,-54.3324,2.29786,134.373,Q,Q
2023-03-15 21:05:20:831,0,-54.331,2.2981,134.374,Q,Q
2023-03-15 21:05:20:841,0,-54.3328,2.29782,134.374,Q,Q
2023-03-15 21:05:20:851,0,-54.3364,2.29614,134.37,Q,Q
2023-03-15 21:05:20:860,0,-54.3355,2.29605,134.367,Q,Q
2023-03-15 21:05:20:870,0,-54.3322,2.2977,134.367,Q,Q
2023-03-15 21:05:20:881,0,-54.3328,2.29843,134.37,Q,Q
2023-03-15 21:05:20:891,0,-54.3314,2.29848,134.369,Q,Q
2023-03-15 21:05:20:901,0,-54.3301,2.29655,134.37,Q,Q
2023-03-15 21:05:20:911,0,-54.3279,2.29582,134.368,Q,Q
2023-03-15 21:05:20:920,0,-54.3295,2.29808,134.371,Q,Q
2023-03-15 21:05:20:931,0,-54.3292,2.29689,134.371,Q,Q
2023-03-15 21:05:20:941,0,-54.3272,2.29934,134.369,Q,Q
2023-03-15 21:05:20:951,0,-54.3276,2.2959,134.367,Q,Q
2023-03-15 21:05:20:961,0,-54.3278,2.297,134.367,Q,Q
2023-03-15 21:05:20:971,0,-54.3301,2.29731,134.365,Q,Q
2023-03-15 21:05:20:981,0,-54.3293,2.29987,134.364,Q,Q
2023-03-15 21:05:20:991,0,-54.3302,2.30024,134.364,Q,Q
2023-03-15 21:05:21:1,0,-54.3321,2.30019,134.365,Q,Q
2023-03-15 21:05:21:11,0,-54.329,2.30311,134.363,Q,Q
2023-03-15 21:05:21:21,0,-54.3296,2.30208,134.363,Q,Q
2023-03-15 21:05:21:31,0,-54.3283,2.3046,134.366,Q,Q
2023-03-15 21:05:21:41,0,-54.3302,2.30208,134.368,Q,Q
2023-03-15 21:05:21:51,0,-54.3317,2.29962,134.366,Q,Q
2023-03-15 21:05:21:61,0,-54.3284,2.30188,134.366,Q,Q
2023-03-15 21:05:21:71,0,-54.3298,2.30332,134.363,Q,Q
2023-03-15 21:05:21:81,0,-54.3283,2.3056,134.362,Q,Q
2023-03-15 21:05:21:91,0,-54.3291,2.30609,134.361,Q,Q
2023-03-15 21:05:21:101,0,-54.3267,2.30909,134.363,Q,Q
2023-03-15 21:05:21:111,0,-54.3269,2.311,134.362,Q,Q
2023-03-15 21:05:21:121,0,-54.3264,2.31055,134.364,Q,Q
2023-03-15 21:05:21:131,0,-54.328,2.30947,134.362,Q,Q
2023-03-15 21:05:21:141,0,-54.3338,2.30742,134.361,Q,Q
2023-03-15 21:05:21:151,0,-54.3356,2.30953,134.358,Q,Q
2023-03-15 21:05:21:161,0,-54.3342,2.30969,134.36,Q,Q
2023-03-15 21:05:21:171,0,-54.3331,2.31097,134.359,Q,Q
2023-03-15 21:05:21:181,0,-54.3358,2.3124,134.361,Q,Q
2023-03-15 21:05:21:191,0,-54.3367,2.31269,134.36,Q,Q
2023-03-15 21:05:21:201,0,-54.3343,2.30987,134.359,Q,Q
2023-03-15 21:05:21:211,0,-54.336,2.30816,134.36,Q,Q
2023-03-15 21:05:21:221,0,-54.3334,2.30888,134.36,Q,Q
2023-03-15 21:05:21:231,0,-54.3313,2.3042,134.359,Q,Q
2023-03-15 21:05:21:241,0,-54.3324,2.30263,134.356,Q,Q
2023-03-15 21:05:21:251,0,-54.3335,2.30094,134.356,Q,Q
2023-03-15 21:05:21:261,0,-54.3357,2.29967,134.356,Q,Q
2023-03-15 21:05:21:271,0,-54.3327,2.30341,134.36,Q,Q
2023-03-15 21:05:21:281,0,-54.3313,2.30432,134.357,Q,Q
2023-03-15 21:05:21:291,0,-54.3318,2.30422,134.357,Q,Q
2023-03-15 21:05:21:301,0,-54.331,2.30554,134.35,Q,Q
2023-03-15 21:05:21:311,0,-54.331,2.30505,134.345,Q,Q
2023-03-15 21:05:21:321,0,-54.3303,2.30403,134.343,Q,Q
2023-03-15 21:05:21:331,0,-54.329,2.30278,134.345,Q,Q
2023-03-15 21:05:21:341,0,-54.3283,2.30177,134.344,Q,Q
2023-03-15 21:05:21:351,0,-54.3291,2.29973,134.343,Q,Q
2023-03-15 21:05:21:361,0,-54.3323,2.29849,134.341,Q,Q
2023-03-15 21:05:21:371,0,-54.3329,2.30107,134.343,Q,Q
2023-03-15 21:05:21:381,0,-54.3323,2.30041,134.346,Q,Q
2023-03-15 21:05:21:391,0,-54.3312,2.30142,134.347,Q,Q
2023-03-15 21:05:21:401,0,-54.3319,2.30299,134.345,Q,Q
2023-03-15 21:05:21:411,0,-54.332,2.30242,134.349,Q,Q
2023-03-15 21:05:21:421,0,-54.3298,2.3028,134.346,Q,Q
2023-03-15 21:05:21:431,0,-54.3273,2.30312,134.344,Q,Q
2023-03-15 21:05:21:441,0,-54.3264,2.30321,134.341,Q,Q
2023-03-15 21:05:21:451,0,-54.3256,2.30238,134.342,Q,Q
2023-03-15 21:05:21:461,0,-54.3253,2.30384,134.344,Q,Q
2023-03-15 21:05:21:471,0,-54.3234,2.30354,134.343,Q,Q
2023-03-15 21:05:21:481,0,-54.3237,2.30212,134.345,Q,Q
2023-03-15 21:05:21:491,0,-54.3253,2.30067,134.346,Q,Q
2023-03-15 21:05:21:501,0,-54.323,2.29812,134.345,Q,Q
2023-03-15 21:05:21:511,0,-54.3209,2.29666,134.346,Q,Q
2023-03-15 21:05:21:521,0,-54.3193,2.29744,134.345,Q,Q
2023-03-15 21:05:21:531,0,-54.3206,2.29987,134.346,Q,Q
2023-03-15 21:05:21:541,0,-54.3182,2.29848,134.349,Q,Q
2023-03-15 21:05:21:551,0,-54.3178,2.29753,134.35,Q,Q
2023-03-15 21:05:21:561,0,-54.3195,2.29845,134.349,Q,Q
2023-03-15 21:05:21:571,0,-54.3187,2.30218,134.347,Q,Q
2023-03-15 21:05:21:581,0,-54.3163,2.30149,134.347,Q,Q
2023-03-15 21:05:21:591,0,-54.3136,2.30309,134.345,Q,Q
2023-03-15 21:05:21:601,0,-54.3128,2.30524,134.345,Q,Q
2023-03-15 21:05:21:611,0,-54.3141,2.30714,134.344,Q,Q
2023-03-15 21:05:21:621,0,-54.3143,2.30816,134.345,Q,Q
2023-03-15 21:05:21:631,0,-54.3141,2.30821,134.348,Q,Q
2023-03-15 21:05:21:641,0,-54.3149,2.30585,134.351,Q,Q
2023-03-15 21:05:21:651,0,-54.3162,2.30404,134.353,Q,Q
2023-03-15 21:05:21:661,0,-54.3164,2.30153,134.356,Q,Q
2023-03-15 21:05:21:671,0,-54.3153,2.30295,134.357,Q,Q
2023-03-15 21:05:21:681,0,-54.3151,2.30426,134.358,Q,Q
2023-03-15 21:05:21:691,0,-54.3139,2.30017,134.357,Q,Q
2023-03-15 21:05:21:701,0,-54.317,2.29923,134.358,Q,Q
2023-03-15 21:05:21:711,0,-54.314,2.29994,134.356,Q,Q
2023-03-15 21:05:21:721,0,-54.3129,2.2995,134.358,Q,Q
2023-03-15 21:05:21:731,0,-54.3136,2.29634,134.359,Q,Q
2023-03-15 21:05:21:741,0,-54.3151,2.29625,134.358,Q,Q
2023-03-15 21:05:21:751,0,-54.3169,2.29682,134.358,Q,Q
2023-03-15 21:05:21:761,0,-54.3181,2.29794,134.359,Q,Q
2023-03-15 21:05:21:771,0,-54.3203,2.29614,134.359,Q,Q
2023-03-15 21:05:21:781,0,-54.3192,2.29323,134.358,Q,Q
2023-03-15 21:05:21:791,0,-54.3199,2.29669,134.356,Q,Q
2023-03-15 21:05:21:801,0,-54.3197,2.29803,134.358,Q,Q
2023-03-15 21:05:21:811,0,-54.3189,2.29634,134.358,Q,Q
2023-03-15 21:05:21:821,0,-54.32,2.29688,134.36,Q,Q
2023-03-15 21:05:21:831,0,-54.3205,2.29727,134.359,Q,Q
2023-03-15 21:05:21:841,0,-54.3217,2.29741,134.359,Q,Q
2023-03-15 21:05:21:851,0,-54.321,2.29787,134.36,Q,Q
2023-03-15 21:05:21:861,0,-54.3218,2.29548,134.359,Q,Q
2023-03-15 21:05:21:871,0,-54.3236,2.29887,134.359,Q,Q
2023-03-15 21:05:21:881,0,-54.3233,2.29812,134.36,Q,Q
2023-03-15 21:05:21:891,0,-54.3199,2.29487,134.36,Q,Q
2023-03-15 21:05:21:901,0,-54.3219,2.29334,134.359,Q,Q
2023-03-15 21:05:21:911,0,-54.3204,2.29378,134.36,Q,Q
2023-03-15 21:05:21:921,0,-54.3205,2.29638,134.361,Q,Q
2023-03-15 21:05:21:931,0,-54.3194,2.29838,134.36,Q,Q
2023-03-15 21:05:21:941,0,-54.3198,2.30007,134.362,Q,Q
2023-03-15 21:05:21:951,0,-54.3189,2.30322,134.362,Q,Q
2023-03-15 21:05:21:961,0,-54.3199,2.30365,134.362,Q,Q
2023-03-15 21:05:21:971,0,-54.3179,2.30337,134.358,Q,Q
2023-03-15 21:05:21:981,0,-54.3139,2.30411,134.358,Q,Q
2023-03-15 21:05:21:991,0,-54.3165,2.30475,134.36,Q,Q
2023-03-15 21:05:22:1,0,-54.3136,2.30735,134.36,Q,Q
2023-03-15 21:05:22:11,0,-54.3157,2.30824,134.358,Q,Q
2023-03-15 21:05:22:21,0,-54.3152,2.31041,134.36,Q,Q
2023-03-15 21:05:22:31,0,-54.3173,2.31142,134.358,Q,Q
2023-03-15 21:05:22:41,0,-54.318,2.31088,134.355,Q,Q
2023-03-15 21:05:22:51,0,-54.3145,2.30899,134.355,Q,Q
2023-03-15 21:05:22:61,0,-54.3163,2.31005,134.355,Q,Q
2023-03-15 21:05:22:71,0,-54.3127,2.31137,134.353,Q,Q
2023-03-15 21:05:22:81,0,-54.3139,2.3113,134.356,Q,Q
2023-03-15 21:05:22:91,0,-54.3122,2.31173,134.358,Q,Q
2023-03-15 21:05:22:101,0,-54.3158,2.31443,134.358,Q,Q
2023-03-15 21:05:22:111,0,-54.3156,2.3124,134.359,Q,Q
2023-03-15 21:05:22:121,0,-54.3139,2.31271,134.361,Q,Q
2023-03-15 21:05:22:131,0,-54.3155,2.31128,134.362,Q,Q
2023-03-15 21:05:22:141,0,-54.3158,2.31141,134.362,Q,Q
2023-03-15 21:05:22:151,0,-54.3162,2.30934,134.361,Q,Q
2023-03-15 21:05:22:161,0,-54.3159,2.31194,134.361,Q,Q
2023-03-15 21:05:22:171,0,-54.3115,2.31333,134.361,Q,Q
2023-03-15 21:05:22:181,0,-54.3126,2.31499,134.362,Q,Q
2023-03-15 21:05:22:191,0,-54.3128,2.31215,134.362,Q,Q
2023-03-15 21:05:22:201,0,-54.3156,2.31051,134.36,Q,Q
2023-03-15 21:05:22:211,0,-54.3176,2.30992,134.36,Q,Q
2023-03-15 21:05:22:221,0,-54.3152,2.30722,134.36,Q,Q
2023-03-15 21:05:22:231,0,-54.314,2.30558,134.363,Q,Q
2023-03-15 21:05:22:241,0,-54.3144,2.30606,134.364,Q,Q
2023-03-15 21:05:22:251,0,-54.3181,2.30487,134.362,Q,Q
2023-03-15 21:05:22:261,0,-54.3178,2.30254,134.364,Q,Q
2023-03-15 21:05:22:271,0,-54.3213,2.30509,134.363,Q,Q
2023-03-15 21:05:22:281,0,-54.322,2.30295,134.361,Q,Q
2023-03-15 21:05:22:291,0,-54.32,2.30243,134.361,Q,Q
2023-03-15 21:05:22:301,0,-54.3215,2.30524,134.36,Q,Q
2023-03-15 21:05:22:311,0,-54.3196,2.30657,134.36,Q,Q
2023-03-15 21:05:22:321,0,-54.3213,2.30583,134.365,Q,Q
2023-03-15 21:05:22:331,0,-54.3206,2.31034,134.366,Q,Q
2023-03-15 21:05:22:341,0,-54.323,2.30987,134.366,Q,Q
2023-03-15 21:05:22:351,0,-54.3205,2.30794,134.366,Q,Q
2023-03-15 21:05:22:361,0,-54.3119,2.31009,134.368,Q,Q
2023-03-15 21:05:22:371,0,-54.3144,2.30863,134.365,Q,Q
2023-03-15 21:05:22:381,0,-54.3132,2.30911,134.364,Q,Q
2023-03-15 21:05:22:391,0,-54.3121,2.31037,134.362,Q,Q
2023-03-15 21:05:22:401,0,-54.3093,2.31109,134.361,Q,Q
2023-03-15 21:05:22:411,0,-54.3073,2.30843,134.363,Q,Q
2023-03-15 21:05:22:421,0,-54.3068,2.30763,134.364,Q,Q
2023-03-15 21:05:22:431,0,-54.3066,2.31078,134.363,Q,Q
2023-03-15 21:05:22:441,0,-54.303,2.3113,134.363,Q,Q
2023-03-15 21:05:22:451,0,-54.3034,2.31292,134.364,Q,Q
2023-03-15 21:05:22:461,0,-54.3018,2.31155,134.364,Q,Q
2023-03-15 21:05:22:471,0,-54.3021,2.31202,134.36,Q,Q
2023-03-15 21:05:22:481,0,-54.2997,2.3136,134.359,Q,Q
2023-03-15 21:05:22:491,0,-54.2998,2.31449,134.358,Q,Q
2023-03-15 21:05:22:501,0,-54.302,2.31524,134.359,Q,Q
2023-03-15 21:05:22:511,0,-54.3014,2.3149,134.359,Q,Q
2023-03-15 21:05:22:521,0,-54.3013,2.31427,134.362,Q,Q
2023-03-15 21:05:22:531,0,-54.3012,2.31375,134.362,Q,Q
2023-03-15 21:05:22:541,0,-54.2989,2.31521,134.364,Q,Q
2023-03-15 21:05:22:551,0,-54.3002,2.31438,134.363,Q,Q
2023-03-15 21:05:22:561,0,-54.3004,2.31025,134.363,Q,Q
2023-03-15 21:05:22:571,0,-54.3007,2.31091,134.36,Q,Q
2023-03-15 21:05:22:581,0,-54.2994,2.30771,134.358,Q,Q
2023-03-15 21:05:22:591,0,-54.2986,2.30684,134.353,Q,Q
2023-03-15 21:05:22:601,0,-54.3008,2.30227,134.356,Q,Q
2023-03-15 21:05:22:611,0,-54.4063,2.23847,134.353,Q,Q
2023-03-15 21:05:22:621,0,-54.5338,2.20099,134.337,Q,Q
2023-03-15 21:05:22:631,0,-54.4076,2.26298,134.338,Q,Q
2023-03-15 21:05:22:641,0,-54.2718,2.32542,134.358,Q,Q
2023-03-15 21:05:22:651,0,-54.2782,2.32048,134.357,Q,Q
2023-03-15 21:05:22:661,0,-54.2769,2.32003,134.357,Q,Q
2023-03-15 21:05:22:671,0,-54.2832,2.31356,134.356,Q,Q
2023-03-15 21:05:22:681,0,-54.2815,2.31426,134.356,Q,Q
2023-03-15 21:05:22:691,0,-54.2942,2.30092,134.353,Q,Q
2023-03-15 21:05:22:701,0,-54.3285,2.28358,134.348,Q,Q
2023-03-15 21:05:22:711,0,-54.3171,2.29319,134.344,Q,Q
2023-03-15 21:05:22:721,0,-54.2857,2.31024,134.351,Q,Q
2023-03-15 21:05:22:731,0,-54.2817,2.31286,134.354,Q,Q
2023-03-15 21:05:22:741,0,-54.2821,2.31133,134.353,Q,Q
2023-03-15 21:05:22:751,0,-54.2833,2.31109,134.351,Q,Q
2023-03-15 21:05:22:761,0,-54.2824,2.30793,134.351,Q,Q
2023-03-15 21:05:22:771,0,-54.3011,2.29697,134.352,Q,Q
2023-03-15 21:05:22:781,0,-54.2988,2.29939,134.354,Q,Q
2023-03-15 21:05:22:791,0,-54.2853,2.30846,134.355,Q,Q
2023-03-15 21:05:22:801,0,-54.2849,2.30272,134.353,Q,Q
2023-03-15 21:05:22:811,0,-54.2861,2.30533,134.356,Q,Q
2023-03-15 21:05:22:821,0,-54.2855,2.30581,134.359,Q,Q
2023-03-15 21:05:22:831,0,-54.2842,2.30313,134.358,Q,Q
2023-03-15 21:05:22:841,0,-54.2844,2.30128,134.361,Q,Q
2023-03-15 21:05:22:851,0,-54.2802,2.29877,134.361,Q,Q
2023-03-15 21:05:22:861,0,-54.2812,2.29825,134.36,Q,Q
2023-03-15 21:05:22:871,0,-54.2788,2.29879,134.357,Q,Q
2023-03-15 21:05:22:881,0,-54.2771,2.29855,134.359,Q,Q
2023-03-15 21:05:22:891,0,-54.2778,2.29957,134.356,Q,Q
2023-03-15 21:05:22:901,0,-54.2833,2.30283,134.354,Q,Q
2023-03-15 21:05:22:911,0,-54.2834,2.30415,134.354,Q,Q
2023-03-15 21:05:22:921,0,-54.2855,2.30018,134.356,Q,Q
2023-03-15 21:05:22:931,0,-54.2862,2.29857,134.357,Q,Q
2023-03-15 21:05:22:941,0,-54.2842,2.30133,134.36,Q,Q
2023-03-15 21:05:22:951,0,-54.2837,2.30403,134.358,Q,Q
2023-03-15 21:05:22:961,0,-54.2807,2.30504,134.359,Q,Q
2023-03-15 21:05:22:971,0,-54.2824,2.30347,134.36,Q,Q
2023-03-15 21:05:22:981,0,-54.2832,2.30106,134.36,Q,Q
2023-03-15 21:05:22:991,0,-54.2824,2.29938,134.366,Q,Q
2023-03-15 21:05:23:1,0,-54.279,2.30063,134.363,Q,Q
2023-03-15 21:05:23:11,0,-54.2771,2.30548,134.362,Q,Q
2023-03-15 21:05:23:21,0,-54.277,2.30448,134.364,Q,Q
2023-03-15 21:05:23:31,0,-54.2771,2.30638,134.366,Q,Q
2023-03-15 21:05:23:41,0,-54.2813,2.30381,134.364,Q,Q
2023-03-15 21:05:23:51,0,-54.2796,2.30028,134.363,Q,Q
2023-03-15 21:05:23:61,0,-54.2781,2.30164,134.359,Q,Q
2023-03-15 21:05:23:71,0,-54.2733,2.30305,134.358,Q,Q
2023-03-15 21:05:23:81,0,-54.2709,2.30254,134.355,Q,Q
2023-03-15 21:05:23:91,0,-54.2719,2.30178,134.354,Q,Q
2023-03-15 21:05:23:101,0,-54.2765,2.29891,134.352,Q,Q
2023-03-15 21:05:23:111,0,-54.2789,2.29686,134.354,Q,Q
2023-03-15 21:05:23:121,0,-54.2778,2.29727,134.358,Q,Q
2023-03-15 21:05:23:131,0,-54.2751,2.30283,134.36,Q,Q
2023-03-15 21:05:23:141,0,-54.2734,2.30376,134.359,Q,Q
2023-03-15 21:05:23:151,0,-54.2738,2.30275,134.358,Q,Q
2023-03-15 21:05:23:161,0,-54.2768,2.30326,134.358,Q,Q
2023-03-15 21:05:23:171,0,-54.2757,2.30564,134.356,Q,Q
2023-03-15 21:05:23:181,0,-54.2764,2.3026,134.356,Q,Q
2023-03-15 21:05:23:191,0,-54.2781,2.30142,134.353,Q,Q
2023-03-15 21:05:23:201,0,-54.2796,2.30089,134.355,Q,Q
2023-03-15 21:05:23:211,0,-54.279,2.30136,134.353,Q,Q
2023-03-15 21:05:23:221,0,-54.2794,2.30192,134.352,Q,Q
2023-03-15 21:05:23:231,0,-54.2797,2.30243,134.349,Q,Q
2023-03-15 21:05:23:241,0,-54.2818,2.2998,134.346,Q,Q
2023-03-15 21:05:23:251,0,-54.2812,2.29807,134.345,Q,Q
2023-03-15 21:05:23:261,0,-54.2809,2.29687,134.343,Q,Q
2023-03-15 21:05:23:271,0,-54.2825,2.2964,134.345,Q,Q
2023-03-15 21:05:23:281,0,-54.2813,2.29591,134.347,Q,Q
2023-03-15 21:05:23:291,0,-54.277,2.29468,134.346,Q,Q
2023-03-15 21:05:23:301,0,-54.2759,2.2938,134.345,Q,Q
2023-03-15 21:05:23:311,0,-54.2764,2.29302,134.346,Q,Q
2023-03-15 21:05:23:321,0,-54.2736,2.29126,134.346,Q,Q
2023-03-15 21:05:23:331,0,-54.2738,2.29097,134.344,Q,Q
2023-03-15 21:05:23:341,0,-54.2696,2.29015,134.344,Q,Q
2023-03-15 21:05:23:351,0,-54.2649,2.28913,134.345,Q,Q
2023-03-15 21:05:23:361,0,-54.2662,2.2899,134.344,Q,Q
2023-03-15 21:05:23:371,0,-54.2687,2.29113,134.346,Q,Q
2023-03-15 21:05:23:381,0,-54.2677,2.29177,134.346,Q,Q
2023-03-15 21:05:23:391,0,-54.2639,2.29188,134.349,Q,Q
2023-03-15 21:05:23:401,0,-54.265,2.29108,134.352,Q,Q
2023-03-15 21:05:23:411,0,-54.2656,2.29284,134.354,Q,Q
2023-03-15 21:05:23:421,0,-54.2667,2.29656,134.353,Q,Q
2023-03-15 21:05:23:431,0,-54.2704,2.29791,134.353,Q,Q
2023-03-15 21:05:23:441,0,-54.2724,2.29632,134.354,Q,Q
2023-03-15 21:05:23:451,0,-54.2715,2.29597,134.354,Q,Q
2023-03-15 21:05:23:461,0,-54.274,2.29695,134.355,Q,Q
2023-03-15 21:05:23:471,0,-54.2737,2.2953,134.356,Q,Q
2023-03-15 21:05:23:481,0,-54.2726,2.29484,134.356,Q,Q
2023-03-15 21:05:23:491,0,-54.2738,2.29434,134.355,Q,Q
2023-03-15 21:05:23:501,0,-54.273,2.2928,134.359,Q,Q
2023-03-15 21:05:23:511,0,-54.2733,2.28911,134.358,Q,Q
2023-03-15 21:05:23:521,0,-54.2704,2.2876,134.357,Q,Q
2023-03-15 21:05:23:531,0,-54.2687,2.28863,134.355,Q,Q
2023-03-15 21:05:23:541,0,-54.2667,2.28749,134.352,Q,Q
2023-03-15 21:05:23:551,0,-54.268,2.29043,134.349,Q,Q
2023-03-15 21:05:23:561,0,-54.2687,2.29284,134.348,Q,Q
2023-03-15 21:05:23:571,0,-54.2707,2.29448,134.347,Q,Q
2023-03-15 21:05:23:581,0,-54.2729,2.29336,134.348,Q,Q
2023-03-15 21:05:23:591,0,-54.2738,2.29391,134.348,Q,Q
2023-03-15 21:05:23:601,0,-54.2717,2.29129,134.351,Q,Q
2023-03-15 21:05:23:611,0,-54.2715,2.29516,134.35,Q,Q
2023-03-15 21:05:23:621,0,-54.2734,2.296,134.35,Q,Q
2023-03-15 21:05:23:631,0,-54.272,2.29955,134.349,Q,Q
2023-03-15 21:05:23:641,0,-54.2705,2.29679,134.351,Q,Q
2023-03-15 21:05:23:651,0,-54.2691,2.29605,134.349,Q,Q
2023-03-15 21:05:23:661,0,-54.2705,2.29445,134.349,Q,Q
2023-03-15 21:05:23:671,0,-54.2716,2.29397,134.35,Q,Q
2023-03-15 21:05:23:681,0,-54.2703,2.2945,134.351,Q,Q
2023-03-15 21:05:23:691,0,-54.2699,2.29482,134.348,Q,Q
2023-03-15 21:05:23:701,0,-54.268,2.29367,134.345,Q,Q
2023-03-15 21:05:23:711,0,-54.2688,2.29536,134.347,Q,Q
2023-03-15 21:05:23:721,0,-54.2698,2.29723,134.347,Q,Q
2023-03-15 21:05:23:731,0,-54.2693,2.29746,134.349,Q,Q
2023-03-15 21:05:23:741,0,-54.2675,2.29918,134.35,Q,Q
2023-03-15 21:05:23:751,0,-54.2685,2.29828,134.352,Q,Q
2023-03-15 21:05:23:761,0,-54.2662,2.3024,134.35,Q,Q
2023-03-15 21:05:23:771,0,-54.267,2.29938,134.351,Q,Q
2023-03-15 21:05:23:781,0,-54.2681,2.30213,134.351,Q,Q
2023-03-15 21:05:23:791,0,-54.2698,2.30078,134.348,Q,Q
2023-03-15 21:05:23:801,0,-54.272,2.30351,134.348,Q,Q
2023-03-15 21:05:23:811,0,-54.2759,2.30628,134.347,Q,Q
2023-03-15 21:05:23:821,0,-54.2749,2.30688,134.348,Q,Q
2023-03-15 21:05:23:831,0,-54.2765,2.30847,134.348,Q,Q
2023-03-15 21:05:23:841,0,-54.277,2.30946,134.349,Q,Q
2023-03-15 21:05:23:851,0,-54.2786,2.31064,134.347,Q,Q
2023-03-15 21:05:23:861,0,-54.278,2.31145,134.346,Q,Q
2023-03-15 21:05:23:871,0,-54.2791,2.3098,134.348,Q,Q
2023-03-15 21:05:23:881,0,-54.279,2.31047,134.348,Q,Q
2023-03-15 21:05:23:891,0,-54.2787,2.30812,134.349,Q,Q
2023-03-15 21:05:23:901,0,-54.2794,2.30894,134.346,Q,Q
2023-03-15 21:05:23:911,0,-54.2809,2.31003,134.348,Q,Q
2023-03-15 21:05:23:921,0,-54.2838,2.30682,134.348,Q,Q
2023-03-15 21:05:23:931,0,-54.2801,2.30385,134.347,Q,Q
2023-03-15 21:05:23:941,0,-54.2819,2.3023,134.349,Q,Q
2023-03-15 21:05:23:951,0,-54.2849,2.30241,134.35,Q,Q
2023-03-15 21:05:23:961,0,-54.2844,2.30149,134.35,Q,Q
2023-03-15 21:05:23:971,0,-54.2797,2.30077,134.35,Q,Q
2023-03-15 21:05:23:981,0,-54.2806,2.29851,134.347,Q,Q
2023-03-15 21:05:23:991,0,-54.2814,2.29992,134.347,Q,Q
2023-03-15 21:05:24:1,0,-54.2794,2.2992,134.348,Q,Q
2023-03-15 21:05:24:11,0,-54.2784,2.29968,134.348,Q,Q
2023-03-15 21:05:24:21,0,-54.2772,2.30136,134.346,Q,Q
2023-03-15 21:05:24:31,0,-54.2798,2.30281,134.345,Q,Q
2023-03-15 21:05:24:41,0,-54.2789,2.30188,134.344,Q,Q
2023-03-15 21:05:24:51,0,-54.281,2.29719,134.345,Q,Q
2023-03-15 21:05:24:61,0,-54.283,2.29611,134.345,Q,Q
2023-03-15 21:05:24:70,0,-54.2829,2.29618,134.345,Q,Q
2023-03-15 21:05:24:81,0,-54.2851,2.29509,134.346,Q,Q
2023-03-15 21:05:24:91,0,-54.2842,2.2977,134.348,Q,Q
2023-03-15 21:05:24:101,0,-54.2837,2.29566,134.35,Q,Q
2023-03-15 21:05:24:111,0,-54.2791,2.29587,134.349,Q,Q
2023-03-15 21:05:24:121,0,-54.2812,2.29735,134.348,Q,Q
2023-03-15 21:05:24:131,0,-54.2775,2.29586,134.347,Q,Q
2023-03-15 21:05:24:141,0,-54.278,2.29803,134.346,Q,Q
2023-03-15 21:05:24:151,0,-54.2732,2.29425,134.347,Q,Q
2023-03-15 21:05:24:161,0,-54.272,2.2959,134.345,Q,Q
2023-03-15 21:05:24:171,0,-54.2773,2.29526,134.345,Q,Q
2023-03-15 21:05:24:181,0,-54.2843,2.291,134.341,Q,Q
2023-03-15 21:05:24:191,0,-54.2912,2.29103,134.342,Q,Q
2023-03-15 21:05:24:201,0,-54.2837,2.29332,134.344,Q,Q
2023-03-15 21:05:24:211,0,-54.2817,2.29539,134.345,Q,Q
2023-03-15 21:05:24:221,0,-54.2786,2.29377,134.347,Q,Q
2023-03-15 21:05:24:231,0,-54.2787,2.2912,134.347,Q,Q
2023-03-15 21:05:24:241,0,-54.2769,2.29006,134.349,Q,Q
2023-03-15 21:05:24:251,0,-54.2783,2.28699,134.347,Q,Q
2023-03-15 21:05:24:261,0,-54.2733,2.29013,134.35,Q,Q
2023-03-15 21:05:24:271,0,-54.2718,2.29367,134.351,Q,Q
2023-03-15 21:05:24:281,0,-54.2704,2.29603,134.349,Q,Q
2023-03-15 21:05:24:291,0,-54.2708,2.29393,134.348,Q,Q
2023-03-15 21:05:24:301,0,-54.2718,2.29054,134.349,Q,Q
2023-03-15 21:05:24:311,0,-54.2697,2.29107,134.348,Q,Q
2023-03-15 21:05:24:321,0,-54.2677,2.295,134.346,Q,Q
2023-03-15 21:05:24:331,0,-54.2652,2.29618,134.348,Q,Q
2023-03-15 21:05:24:341,0,-54.2653,2.29544,134.348,Q,Q
2023-03-15 21:05:24:351,0,-54.267,2.29484,134.346,Q,Q
2023-03-15 21:05:24:361,0,-54.2663,2.29417,134.347,Q,Q
2023-03-15 21:05:24:371,0,-54.2643,2.29623,134.348,Q,Q
2023-03-15 21:05:24:381,0,-54.2596,2.29804,134.346,Q,Q
2023-03-15 21:05:24:391,0,-54.2585,2.29672,134.344,Q,Q
2023-03-15 21:05:24:401,0,-54.2538,2.29929,134.345,Q,Q
2023-03-15 21:05:24:411,0,-54.254,2.29836,134.346,Q,Q
2023-03-15 21:05:24:421,0,-54.2561,2.29859,134.348,Q,Q
2023-03-15 21:05:24:431,0,-54.2563,2.29835,134.345,Q,Q
2023-03-15 21:05:24:441,0,-54.2554,2.30016,134.347,Q,Q
2023-03-15 21:05:24:451,0,-54.2529,2.3006,134.35,Q,Q
2023-03-15 21:05:24:461,0,-54.2557,2.30283,134.348,Q,Q
2023-03-15 21:05:24:471,0,-54.2579,2.30453,134.348,Q,Q
2023-03-15 21:05:24:481,0,-54.2592,2.30462,134.345,Q,Q
2023-03-15 21:05:24:491,0,-54.2587,2.30448,134.344,Q,Q
2023-03-15 21:05:24:501,0,-54.2568,2.30626,134.342,Q,Q
2023-03-15 21:05:24:511,0,-54.2606,2.305,134.341,Q,Q
2023-03-15 21:05:24:521,0,-54.2608,2.30698,134.341,Q,Q
2023-03-15 21:05:24:531,0,-54.2623,2.30954,134.339,Q,Q
2023-03-15 21:05:24:541,0,-54.2619,2.31019,134.339,Q,Q
2023-03-15 21:05:24:551,0,-54.2598,2.30862,134.34,Q,Q
2023-03-15 21:05:24:561,0,-54.2617,2.30721,134.342,Q,Q
2023-03-15 21:05:24:571,0,-54.2622,2.30553,134.342,Q,Q
2023-03-15 21:05:24:581,0,-54.2624,2.30402,134.34,Q,Q
2023-03-15 21:05:24:591,0,-54.2602,2.3033,134.34,Q,Q
2023-03-15 21:05:24:601,0,-54.2586,2.30521,134.34,Q,Q
2023-03-15 21:05:24:611,0,-54.2557,2.30244,134.343,Q,Q
2023-03-15 21:05:24:621,0,-54.2534,2.3021,134.345,Q,Q
2023-03-15 21:05:24:631,0,-54.2536,2.30036,134.346,Q,Q
2023-03-15 21:05:24:641,0,-54.2533,2.29963,134.347,Q,Q
2023-03-15 21:05:24:651,0,-54.2519,2.30005,134.347,Q,Q
2023-03-15 21:05:24:661,0,-54.2504,2.29945,134.347,Q,Q
2023-03-15 21:05:24:671,0,-54.2512,2.29747,134.349,Q,Q
2023-03-15 21:05:24:681,0,-54.2524,2.29938,134.348,Q,Q
2023-03-15 21:05:24:691,0,-54.256,2.29894,134.348,Q,Q
2023-03-15 21:05:24:701,0,-54.2579,2.29792,134.35,Q,Q
2023-03-15 21:05:24:711,0,-54.2595,2.29825,134.354,Q,Q
2023-03-15 21:05:24:721,0,-54.2661,2.2953,134.355,Q,Q
2023-03-15 21:05:24:731,0,-54.2637,2.29573,134.355,Q,Q
2023-03-15 21:05:24:741,0,-54.2652,2.29479,134.354,Q,Q
2023-03-15 21:05:24:751,0,-54.2657,2.29294,134.354,Q,Q
2023-03-15 21:05:24:761,0,-54.2652,2.29385,134.355,Q,Q
2023-03-15 21:05:24:771,0,-54.2682,2.29388,134.356,Q,Q
2023-03-15 21:05:24:781,0,-54.2681,2.29226,134.355,Q,Q
2023-03-15 21:05:24:791,0,-54.2724,2.29435,134.357,Q,Q
2023-03-15 21:05:24:801,0,-54.2745,2.2926,134.356,Q,Q
2023-03-15 21:05:24:811,0,-54.2729,2.29327,134.356,Q,Q
2023-03-15 21:05:24:821,0,-54.2744,2.29337,134.357,Q,Q
2023-03-15 21:05:24:831,0,-54.2716,2.29275,134.356,Q,Q
2023-03-15 21:05:24:841,0,-54.268,2.29203,134.353,Q,Q
2023-03-15 21:05:24:851,0,-54.265,2.29361,134.355,Q,Q
2023-03-15 21:05:24:861,0,-54.2637,2.29513,134.357,Q,Q
2023-03-15 21:05:24:871,0,-54.2623,2.29268,134.358,Q,Q
2023-03-15 21:05:24:881,0,-54.2639,2.29274,134.361,Q,Q
2023-03-15 21:05:24:891,0,-54.2642,2.29319,134.361,Q,Q
2023-03-15 21:05:24:901,0,-54.2636,2.29296,134.36,Q,Q
2023-03-15 21:05:24:911,0,-54.2662,2.29433,134.359,Q,Q
2023-03-15 21:05:24:921,0,-54.2662,2.29219,134.36,Q,Q
2023-03-15 21:05:24:931,0,-54.2691,2.29139,134.358,Q,Q
2023-03-15 21:05:24:941,0,-54.2674,2.29307,134.355,Q,Q
2023-03-15 21:05:24:951,0,-54.271,2.29268,134.354,Q,Q
2023-03-15 21:05:24:961,0,-54.2746,2.29246,134.354,Q,Q
2023-03-15 21:05:24:971,0,-54.2721,2.29398,134.354,Q,Q
2023-03-15 21:05:24:981,0,-54.2721,2.29555,134.354,Q,Q
2023-03-15 21:05:24:991,0,-54.2747,2.2952,134.355,Q,Q
2023-03-15 21:05:25:1,0,-54.277,2.29672,134.357,Q,Q
2023-03-15 21:05:25:11,0,-54.2773,2.2944,134.356,Q,Q
2023-03-15 21:05:25:21,0,-54.2788,2.29565,134.354,Q,Q
2023-03-15 21:05:25:31,0,-54.2806,2.29685,134.352,Q,Q
2023-03-15 21:05:25:41,0,-54.2826,2.2972,134.349,Q,Q
2023-03-15 21:05:25:51,0,-54.2836,2.29861,134.347,Q,Q
2023-03-15 21:05:25:61,0,-54.2867,2.29955,134.348,Q,Q
2023-03-15 21:05:25:71,0,-54.2882,2.3008,134.349,Q,Q
2023-03-15 21:05:25:81,0,-54.2882,2.30115,134.348,Q,Q
2023-03-15 21:05:25:91,0,-54.2851,2.30068,134.35,Q,Q
2023-03-15 21:05:25:101,0,-54.2868,2.29883,134.351,Q,Q
2023-03-15 21:05:25:111,0,-54.2817,2.29826,134.351,Q,Q
2023-03-15 21:05:25:121,0,-54.2816,2.30011,134.352,Q,Q
2023-03-15 21:05:25:131,0,-54.2814,2.29894,134.352,Q,Q
2023-03-15 21:05:25:141,0,-54.2802,2.29903,134.352,Q,Q
2023-03-15 21:05:25:151,0,-54.2786,2.29797,134.351,Q,Q
2023-03-15 21:05:25:161,0,-54.2776,2.30037,134.348,Q,Q
2023-03-15 21:05:25:171,0,-54.2786,2.29911,134.347,Q,Q
2023-03-15 21:05:25:181,0,-54.2793,2.30179,134.347,Q,Q
2023-03-15 21:05:25:191,0,-54.2786,2.30186,134.35,Q,Q
2023-03-15 21:05:25:201,0,-54.2765,2.30154,134.351,Q,Q
2023-03-15 21:05:25:211,0,-54.2749,2.30138,134.349,Q,Q
2023-03-15 21:05:25:221,0,-54.2763,2.30144,134.348,Q,Q
2023-03-15 21:05:25:231,0,-54.2734,2.30195,134.352,Q,Q
2023-03-15 21:05:25:241,0,-54.2761,2.30607,134.35,Q,Q
2023-03-15 21:05:25:250,0,-54.2769,2.30755,134.348,Q,Q
2023-03-15 21:05:25:260,0,-54.2778,2.3069,134.348,Q,Q
2023-03-15 21:05:25:271,0,-54.2776,2.30623,134.347,Q,Q
2023-03-15 21:05:25:281,0,-54.2754,2.30601,134.347,Q,Q
2023-03-15 21:05:25:291,0,-54.2734,2.30472,134.346,Q,Q
2023-03-15 21:05:25:301,0,-54.273,2.30259,134.348,Q,Q
2023-03-15 21:05:25:311,0,-54.2728,2.30327,134.348,Q,Q
2023-03-15 21:05:25:321,0,-54.2754,2.30289,134.352,Q,Q
2023-03-15 21:05:25:331,0,-54.2745,2.30179,134.354,Q,Q
2023-03-15 21:05:25:341,0,-54.2765,2.30187,134.353,Q,Q
2023-03-15 21:05:25:351,0,-54.278,2.30215,134.352,Q,Q
2023-03-15 21:05:25:361,0,-54.2797,2.30166,134.352,Q,Q
2023-03-15 21:05:25:371,0,-54.2799,2.30283,134.351,Q,Q
2023-03-15 21:05:25:381,0,-54.2799,2.30196,134.352,Q,Q
2023-03-15 21:05:25:391,0,-54.2805,2.30287,134.353,Q,Q
2023-03-15 21:05:25:401,0,-54.28,2.30142,134.353,Q,Q
2023-03-15 21:05:25:411,0,-54.2817,2.30011,134.352,Q,Q
2023-03-15 21:05:25:421,0,-54.282,2.30293,134.351,Q,Q
2023-03-15 21:05:25:431,0,-54.2841,2.29887,134.352,Q,Q
2023-03-15 21:05:25:441,0,-54.2838,2.30203,134.354,Q,Q
2023-03-15 21:05:25:451,0,-54.284,2.30302,134.357,Q,Q
2023-03-15 21:05:25:461,0,-54.286,2.29977,134.356,Q,Q
2023-03-15 21:05:25:471,0,-54.2867,2.30171,134.356,Q,Q
2023-03-15 21:05:25:481,0,-54.2902,2.30283,134.354,Q,Q
2023-03-15 21:05:25:491,0,-54.289,2.30434,134.358,Q,Q
2023-03-15 21:05:25:501,0,-54.2879,2.30213,134.356,Q,Q
2023-03-15 21:05:25:511,0,-54.2876,2.3025,134.355,Q,Q
2023-03-15 21:05:25:521,0,-54.2885,2.30233,134.355,Q,Q
2023-03-15 21:05:25:531,0,-54.291,2.30438,134.353,Q,Q
2023-03-15 21:05:25:541,0,-54.2873,2.30428,134.354,Q,Q
2023-03-15 21:05:25:551,0,-54.2888,2.30223,134.354,Q,Q
2023-03-15 21:05:25:561,0,-54.2895,2.30471,134.355,Q,Q
2023-03-15 21:05:25:571,0,-54.2901,2.30587,134.354,Q,Q
2023-03-15 21:05:25:581,0,-54.291,2.30449,134.356,Q,Q
2023-03-15 21:05:25:591,0,-54.2925,2.30373,134.357,Q,Q
2023-03-15 21:05:25:601,0,-54.2926,2.30282,134.355,Q,Q
2023-03-15 21:05:25:611,0,-54.2901,2.30779,134.356,Q,Q
2023-03-15 21:05:25:621,0,-54.2891,2.30342,134.357,Q,Q
2023-03-15 21:05:25:631,0,-54.2871,2.30411,134.357,Q,Q
2023-03-15 21:05:25:641,0,-54.2902,2.30651,134.357,Q,Q
2023-03-15 21:05:25:651,0,-54.2896,2.30445,134.357,Q,Q
2023-03-15 21:05:25:661,0,-54.2946,2.30317,134.357,Q,Q
2023-03-15 21:05:25:671,0,-54.2934,2.29961,134.358,Q,Q
2023-03-15 21:05:25:681,0,-54.2959,2.29893,134.359,Q,Q
2023-03-15 21:05:25:691,0,-54.2949,2.29938,134.361,Q,Q
2023-03-15 21:05:25:701,0,-54.2943,2.29735,134.357,Q,Q
2023-03-15 21:05:25:711,0,-54.2936,2.29902,134.359,Q,Q
2023-03-15 21:05:25:721,0,-54.2912,2.29769,134.359,Q,Q
2023-03-15 21:05:25:731,0,-54.29,2.29836,134.356,Q,Q
2023-03-15 21:05:25:741,0,-54.2888,2.29454,134.358,Q,Q
2023-03-15 21:05:25:751,0,-54.2882,2.29376,134.357,Q,Q
2023-03-15 21:05:25:760,0,-54.2896,2.29235,134.355,Q,Q
2023-03-15 21:05:25:771,0,-54.2894,2.2907,134.354,Q,Q
2023-03-15 21:05:25:781,0,-54.2912,2.29224,134.353,Q,Q
2023-03-15 21:05:25:791,0,-54.2897,2.29039,134.35,Q,Q
2023-03-15 21:05:25:801,0,-54.2905,2.29206,134.351,Q,Q
2023-03-15 21:05:25:811,0,-54.2916,2.29383,134.348,Q,Q
2023-03-15 21:05:25:821,0,-54.2917,2.29487,134.35,Q,Q
2023-03-15 21:05:25:831,0,-54.2943,2.29787,134.349,Q,Q
2023-03-15 21:05:25:841,0,-54.296,2.29636,134.35,Q,Q
2023-03-15 21:05:25:851,0,-54.2945,2.29428,134.348,Q,Q
2023-03-15 21:05:25:861,0,-54.2969,2.2938,134.348,Q,Q
2023-03-15 21:05:25:871,0,-54.2961,2.29443,134.347,Q,Q
2023-03-15 21:05:25:881,0,-54.2943,2.29468,134.348,Q,Q
2023-03-15 21:05:25:891,0,-54.2958,2.29436,134.349,Q,Q
2023-03-15 21:05:25:901,0,-54.2977,2.29401,134.346,Q,Q
2023-03-15 21:05:25:911,0,-54.2954,2.29375,134.345,Q,Q
2023-03-15 21:05:25:921,0,-54.295,2.29508,134.345,Q,Q
2023-03-15 21:05:25:931,0,-54.295,2.29291,134.345,Q,Q
2023-03-15 21:05:25:941,0,-54.2957,2.29223,134.345,Q,Q
2023-03-15 21:05:25:951,0,-54.2984,2.29058,134.344,Q,Q
2023-03-15 21:05:25:961,0,-54.2987,2.29142,134.343,Q,Q
2023-03-15 21:05:25:971,0,-54.3003,2.29078,134.342,Q,Q
2023-03-15 21:05:25:981,0,-54.3013,2.28991,134.342,Q,Q
2023-03-15 21:05:25:991,0,-54.3006,2.28631,134.339,Q,Q
2023-03-15 21:05:26:1,0,-54.3009,2.2842,134.334,Q,Q
2023-03-15 21:05:26:11,0,-54.3014,2.28713,134.333,Q,Q
2023-03-15 21:05:26:21,0,-54.3002,2.28704,134.333,Q,Q
2023-03-15 21:05:26:31,0,-54.2985,2.29019,134.335,Q,Q
2023-03-15 21:05:26:41,0,-54.2952,2.29088,134.338,Q,Q
2023-03-15 21:05:26:51,0,-54.291,2.29079,134.342,Q,Q
2023-03-15 21:05:26:61,0,-54.2894,2.29435,134.344,Q,Q
2023-03-15 21:05:26:71,0,-54.2936,2.29457,134.344,Q,Q
2023-03-15 21:05:26:81,0,-54.2944,2.29264,134.346,Q,Q
2023-03-15 21:05:26:91,0,-54.295,2.28944,134.348,Q,Q
2023-03-15 21:05:26:101,0,-54.2951,2.28933,134.35,Q,Q
2023-03-15 21:05:26:111,0,-54.2953,2.28698,134.348,Q,Q
2023-03-15 21:05:26:121,0,-54.2978,2.28952,134.346,Q,Q
2023-03-15 21:05:26:131,0,-54.3016,2.29039,134.344,Q,Q
2023-03-15 21:05:26:141,0,-54.3033,2.28855,134.342,Q,Q
2023-03-15 21:05:26:151,0,-54.3032,2.28696,134.34,Q,Q
2023-03-15 21:05:26:161,0,-54.2994,2.28762,134.339,Q,Q
2023-03-15 21:05:26:171,0,-54.2962,2.28952,134.34,Q,Q
2023-03-15 21:05:26:181,0,-54.2955,2.29109,134.336,Q,Q
2023-03-15 21:05:26:191,0,-54.293,2.29016,134.335,Q,Q
2023-03-15 21:05:26:201,0,-54.2944,2.29066,134.337,Q,Q
2023-03-15 21:05:26:211,0,-54.2898,2.29397,134.334,Q,Q
2023-03-15 21:05:26:221,0,-54.2897,2.29318,134.335,Q,Q
2023-03-15 21:05:26:231,0,-54.2883,2.29369,134.333,Q,Q
2023-03-15 21:05:26:241,0,-54.289,2.29292,134.332,Q,Q
2023-03-15 21:05:26:251,0,-54.2935,2.29153,134.329,Q,Q
2023-03-15 21:05:26:261,0,-54.2947,2.29184,134.327,Q,Q
2023-03-15 21:05:26:271,0,-54.2952,2.29255,134.328,Q,Q
2023-03-15 21:05:26:281,0,-54.2987,2.29081,134.331,Q,Q
2023-03-15 21:05:26:291,0,-54.2967,2.29309,134.332,Q,Q
2023-03-15 21:05:26:301,0,-54.2953,2.29457,134.332,Q,Q
2023-03-15 21:05:26:311,0,-54.2914,2.29708,134.334,Q,Q
2023-03-15 21:05:26:321,0,-54.2939,2.29706,134.336,Q,Q
2023-03-15 21:05:26:331,0,-54.2954,2.29876,134.335,Q,Q
2023-03-15 21:05:26:341,0,-54.2932,2.30073,134.338,Q,Q
2023-03-15 21:05:26:351,0,-54.2924,2.30262,134.34,Q,Q
2023-03-15 21:05:26:361,0,-54.2934,2.30322,134.339,Q,Q
2023-03-15 21:05:26:371,0,-54.2925,2.30671,134.339,Q,Q
2023-03-15 21:05:26:381,0,-54.292,2.3044,134.34,Q,Q
2023-03-15 21:05:26:391,0,-54.2915,2.30319,134.341,Q,Q
2023-03-15 21:05:26:401,0,-54.2916,2.30436,134.342,Q,Q
2023-03-15 21:05:26:411,0,-54.2902,2.29938,134.342,Q,Q
2023-03-15 21:05:26:420,0,-54.2909,2.29801,134.341,Q,Q
2023-03-15 21:05:26:431,0,-54.2931,2.29859,134.341,Q,Q
2023-03-15 21:05:26:441,0,-54.2948,2.3,134.342,Q,Q
2023-03-15 21:05:26:451,0,-54.2944,2.29972,134.341,Q,Q
2023-03-15 21:05:26:461,0,-54.2926,2.29837,134.341,Q,Q
2023-03-15 21:05:26:471,0,-54.292,2.29979,134.341,Q,Q
2023-03-15 21:05:26:481,0,-54.2915,2.29726,134.341,Q,Q
2023-03-15 21:05:26:491,0,-54.2933,2.29625,134.345,Q,Q
2023-03-15 21:05:26:501,0,-54.2913,2.29813,134.345,Q,Q
2023-03-15 21:05:26:511,0,-54.289,2.29664,134.344,Q,Q
2023-03-15 21:05:26:521,0,-54.2871,2.29735,134.344,Q,Q
2023-03-15 21:05:26:531,0,-54.285,2.29838,134.341,Q,Q
2023-03-15 21:05:26:541,0,-54.286,2.29987,134.343,Q,Q
2023-03-15 21:05:26:551,0,-54.2848,2.29848,134.345,Q,Q
2023-03-15 21:05:26:561,0,-54.2882,2.30097,134.342,Q,Q
2023-03-15 21:05:26:571,0,-54.2931,2.30123,134.343,Q,Q
2023-03-15 21:05:26:580,0,-54.2901,2.30551,134.341,Q,Q
2023-03-15 21:05:26:590,0,-54.2867,2.30563,134.34,Q,Q
2023-03-15 21:05:26:600,0,-54.2874,2.30579,134.341,Q,Q
2023-03-15 21:05:26:610,0,-54.2903,2.30414,134.34,Q,Q
2023-03-15 21:05:26:620,0,-54.285,2.3029,134.341,Q,Q
2023-03-15 21:05:26:631,0,-54.2877,2.3033,134.341,Q,Q
2023-03-15 21:05:26:641,0,-54.2866,2.30118,134.342,Q,Q
2023-03-15 21:05:26:651,0,-54.2874,2.301,134.346,Q,Q
2023-03-15 21:05:26:661,0,-54.287,2.29969,134.348,Q,Q
2023-03-15 21:05:26:671,0,-54.2833,2.30057,134.348,Q,Q
2023-03-15 21:05:26:681,0,-54.2846,2.30009,134.348,Q,Q
2023-03-15 21:05:26:691,0,-54.281,2.30003,134.348,Q,Q
2023-03-15 21:05:26:701,0,-54.2815,2.30179,134.348,Q,Q
2023-03-15 21:05:26:711,0,-54.2815,2.30506,134.348,Q,Q
2023-03-15 21:05:26:721,0,-54.2834,2.30029,134.348,Q,Q
2023-03-15 21:05:26:731,0,-54.2845,2.29872,134.344,Q,Q
2023-03-15 21:05:26:741,0,-54.2842,2.29852,134.342,Q,Q
2023-03-15 21:05:26:751,0,-54.285,2.29543,134.343,Q,Q
2023-03-15 21:05:26:761,0,-54.2847,2.29567,134.343,Q,Q
2023-03-15 21:05:26:771,0,-54.282,2.29382,134.344,Q,Q
2023-03-15 21:05:26:781,0,-54.284,2.29241,134.344,Q,Q
2023-03-15 21:05:26:790,0,-54.2831,2.29346,134.344,Q,Q
2023-03-15 21:05:26:801,0,-54.2823,2.29233,134.343,Q,Q
2023-03-15 21:05:26:811,0,-54.2857,2.29111,134.344,Q,Q
2023-03-15 21:05:26:821,0,-54.2883,2.28984,134.343,Q,Q
2023-03-15 21:05:26:831,0,-54.2886,2.29213,134.342,Q,Q
2023-03-15 21:05:26:841,0,-54.288,2.29348,134.341,Q,Q
2023-03-15 21:05:26:851,0,-54.2868,2.29476,134.342,Q,Q
2023-03-15 21:05:26:861,0,-54.287,2.29371,134.342,Q,Q
2023-03-15 21:05:26:871,0,-54.2858,2.29278,134.343,Q,Q
2023-03-15 21:05:26:881,0,-54.2848,2.29327,134.345,Q,Q
2023-03-15 21:05:26:891,0,-54.2853,2.29061,134.341,Q,Q
2023-03-15 21:05:26:901,0,-54.2843,2.29038,134.34,Q,Q
2023-03-15 21:05:26:911,0,-54.2855,2.28934,134.339,Q,Q
2023-03-15 21:05:26:921,0,-54.284,2.28835,134.337,Q,Q
2023-03-15 21:05:26:931,0,-54.2846,2.2906,134.34,Q,Q
2023-03-15 21:05:26:941,0,-54.2862,2.29052,134.341,Q,Q
2023-03-15 21:05:26:951,0,-54.2842,2.29115,134.339,Q,Q
2023-03-15 21:05:26:961,0,-54.2833,2.29365,134.342,Q,Q
2023-03-15 21:05:26:971,0,-54.2829,2.29468,134.342,Q,Q
2023-03-15 21:05:26:981,0,-54.2818,2.29572,134.342,Q,Q
2023-03-15 21:05:26:991,0,-54.282,2.29418,134.342,Q,Q
2023-03-15 21:05:27:1,0,-54.2824,2.29343,134.342,Q,Q
2023-03-15 21:05:27:11,0,-54.2863,2.29425,134.34,Q,Q
2023-03-15 21:05:27:21,0,-54.2862,2.29274,134.341,Q,Q
2023-03-15 21:05:27:31,0,-54.2861,2.29277,134.339,Q,Q
2023-03-15 21:05:27:41,0,-54.2844,2.29325,134.34,Q,Q
2023-03-15 21:05:27:51,0,-54.284,2.29542,134.34,Q,Q
2023-03-15 21:05:27:61,0,-54.2831,2.29412,134.34,Q,Q
2023-03-15 21:05:27:71,0,-54.2826,2.29475,134.343,Q,Q
2023-03-15 21:05:27:81,0,-54.2818,2.29409,134.343,Q,Q
2023-03-15 21:05:27:91,0,-54.2796,2.29371,134.343,Q,Q
2023-03-15 21:05:27:101,0,-54.2817,2.29194,134.347,Q,Q
2023-03-15 21:05:27:111,0,-54.2832,2.29019,134.348,Q,Q
2023-03-15 21:05:27:121,0,-54.2818,2.29075,134.349,Q,Q
2023-03-15 21:05:27:131,0,-54.28,2.29219,134.35,Q,Q
2023-03-15 21:05:27:141,0,-54.2821,2.29716,134.348,Q,Q
2023-03-15 21:05:27:151,0,-54.2835,2.29729,134.348,Q,Q
2023-03-15 21:05:27:161,0,-54.282,2.29644,134.349,Q,Q
2023-03-15 21:05:27:171,0,-54.2837,2.29511,134.347,Q,Q
2023-03-15 21:05:27:181,0,-54.2827,2.29606,134.344,Q,Q
2023-03-15 21:05:27:191,0,-54.2827,2.29566,134.346,Q,Q
2023-03-15 21:05:27:201,0,-54.2822,2.29599,134.343,Q,Q
2023-03-15 21:05:27:211,0,-54.2828,2.2953,134.344,Q,Q
2023-03-15 21:05:27:221,0,-54.2836,2.2989,134.345,Q,Q
2023-03-15 21:05:27:231,0,-54.282,2.29917,134.346,Q,Q
2023-03-15 21:05:27:241,0,-54.2808,2.29818,134.345,Q,Q
2023-03-15 21:05:27:251,0,-54.2797,2.2974,134.344,Q,Q
2023-03-15 21:05:27:261,0,-54.2776,2.29783,134.343,Q,Q
2023-03-15 21:05:27:271,0,-54.2752,2.29755,134.342,Q,Q
2023-03-15 21:05:27:281,0,-54.2743,2.29952,134.342,Q,Q
2023-03-15 21:05:27:291,0,-54.2742,2.30224,134.342,Q,Q
2023-03-15 21:05:27:300,0,-54.2724,2.30319,134.343,Q,Q
2023-03-15 21:05:27:311,0,-54.2736,2.30225,134.342,Q,Q
2023-03-15 21:05:27:321,0,-54.2701,2.30239,134.342,Q,Q
2023-03-15 21:05:27:331,0,-54.2709,2.30379,134.345,Q,Q
2023-03-15 21:05:27:341,0,-54.2726,2.30357,134.349,Q,Q
2023-03-15 21:05:27:351,0,-54.2698,2.30352,134.349,Q,Q
2023-03-15 21:05:27:361,0,-54.2666,2.30076,134.348,Q,Q
2023-03-15 21:05:27:371,0,-54.2654,2.29944,134.348,Q,Q
2023-03-15 21:05:27:381,0,-54.2633,2.2984,134.348,Q,Q
2023-03-15 21:05:27:391,0,-54.2628,2.29591,134.349,Q,Q
2023-03-15 21:05:27:401,0,-54.2627,2.29758,134.345,Q,Q
2023-03-15 21:05:27:411,0,-54.2621,2.30038,134.35,Q,Q
2023-03-15 21:05:27:421,0,-54.2615,2.30037,134.349,Q,Q
2023-03-15 21:05:27:431,0,-54.2623,2.30462,134.348,Q,Q
2023-03-15 21:05:27:441,0,-54.2632,2.30645,134.347,Q,Q
2023-03-15 21:05:27:451,0,-54.2633,2.30585,134.349,Q,Q
2023-03-15 21:05:27:461,0,-54.2621,2.30663,134.35,Q,Q
2023-03-15 21:05:27:471,0,-54.2596,2.30523,134.349,Q,Q
2023-03-15 21:05:27:481,0,-54.2599,2.30668,134.347,Q,Q
2023-03-15 21:05:27:491,0,-54.26,2.30937,134.346,Q,Q
2023-03-15 21:05:27:501,0,-54.2597,2.30775,134.348,Q,Q
2023-03-15 21:05:27:511,0,-54.2601,2.30813,134.345,Q,Q
2023-03-15 21:05:27:521,0,-54.26,2.31052,134.347,Q,Q
2023-03-15 21:05:27:531,0,-54.2642,2.31294,134.352,Q,Q
2023-03-15 21:05:27:541,0,-54.264,2.31267,134.355,Q,Q
2023-03-15 21:05:27:551,0,-54.2645,2.31017,134.357,Q,Q
2023-03-15 21:05:27:561,0,-54.2635,2.31039,134.357,Q,Q
2023-03-15 21:05:27:571,0,-54.2631,2.30958,134.356,Q,Q
2023-03-15 21:05:27:581,0,-54.2656,2.31068,134.357,Q,Q
2023-03-15 21:05:27:591,0,-54.264,2.31349,134.357,Q,Q
2023-03-15 21:05:27:601,0,-54.2665,2.3116,134.356,Q,Q
2023-03-15 21:05:27:610,0,-54.2702,2.31066,134.353,Q,Q
2023-03-15 21:05:27:620,0,-54.2736,2.31163,134.352,Q,Q
2023-03-15 21:05:27:630,0,-54.2727,2.31249,134.352,Q,Q
2023-03-15 21:05:27:641,0,-54.2707,2.31306,134.35,Q,Q
2023-03-15 21:05:27:651,0,-54.2709,2.31266,134.35,Q,Q
2023-03-15 21:05:27:661,0,-54.2703,2.31472,134.349,Q,Q
2023-03-15 21:05:27:671,0,-54.27,2.3099,134.345,Q,Q
2023-03-15 21:05:27:681,0,-54.2716,2.30986,134.345,Q,Q
2023-03-15 21:05:27:691,0,-54.2737,2.31025,134.344,Q,Q
2023-03-15 21:05:27:701,0,-54.2739,2.31292,134.343,Q,Q
2023-03-15 21:05:27:711,0,-54.2722,2.31254,134.344,Q,Q
2023-03-15 21:05:27:721,0,-54.2724,2.31048,134.344,Q,Q
2023-03-15 21:05:27:731,0,-54.2705,2.30922,134.345,Q,Q
2023-03-15 21:05:27:741,0,-54.2718,2.31068,134.344,Q,Q
2023-03-15 21:05:27:751,0,-54.2721,2.31376,134.346,Q,Q
2023-03-15 21:05:27:761,0,-54.2733,2.31332,134.347,Q,Q
2023-03-15 21:05:27:771,0,-54.2726,2.31266,134.346,Q,Q
2023-03-15 21:05:27:781,0,-54.2696,2.31068,134.345,Q,Q
2023-03-15 21:05:27:791,0,-54.271,2.30947,134.346,Q,Q
2023-03-15 21:05:27:801,0,-54.2677,2.31114,134.347,Q,Q
2023-03-15 21:05:27:811,0,-54.2702,2.31134,134.348,Q,Q
2023-03-15 21:05:27:820,0,-54.2682,2.30987,134.351,Q,Q
2023-03-15 21:05:27:831,0,-54.2685,2.30754,134.351,Q,Q
2023-03-15 21:05:27:841,0,-54.2702,2.30862,134.351,Q,Q
2023-03-15 21:05:27:851,0,-54.269,2.31047,134.351,Q,Q
2023-03-15 21:05:27:860,0,-54.2715,2.30976,134.351,Q,Q
2023-03-15 21:05:27:871,0,-54.2688,2.30947,134.353,Q,Q
2023-03-15 21:05:27:881,0,-54.2695,2.30924,134.358,Q,Q
2023-03-15 21:05:27:891,0,-54.2671,2.30748,134.356,Q,Q
2023-03-15 21:05:27:901,0,-54.2656,2.30697,134.36,Q,Q
2023-03-15 21:05:27:911,0,-54.2635,2.30292,134.358,Q,Q
2023-03-15 21:05:27:921,0,-54.2641,2.30301,134.359,Q,Q
2023-03-15 21:05:27:931,0,-54.2643,2.30264,134.36,Q,Q
2023-03-15 21:05:27:941,0,-54.2657,2.30523,134.359,Q,Q
2023-03-15 21:05:27:951,0,-54.2643,2.3067,134.361,Q,Q
2023-03-15 21:05:27:961,0,-54.2615,2.30681,134.362,Q,Q
2023-03-15 21:05:27:971,0,-54.265,2.30567,134.364,Q,Q
2023-03-15 21:05:27:981,0,-54.2637,2.3085,134.364,Q,Q
2023-03-15 21:05:27:991,0,-54.2654,2.30934,134.362,Q,Q
2023-03-15 21:05:28:1,0,-54.2659,2.3116,134.361,Q,Q
2023-03-15 21:05:28:11,0,-54.2664,2.31329,134.361,Q,Q
2023-03-15 21:05:28:21,0,-54.2687,2.31054,134.361,Q,Q
2023-03-15 21:05:28:31,0,-54.2669,2.3119,134.362,Q,Q
2023-03-15 21:05:28:40,0,-54.2663,2.31159,134.362,Q,Q
2023-03-15 21:05:28:51,0,-54.2657,2.31287,134.362,Q,Q
2023-03-15 21:05:28:61,0,-54.2659,2.31356,134.362,Q,Q
2023-03-15 21:05:28:71,0,-54.2691,2.31319,134.362,Q,Q
2023-03-15 21:05:28:81,0,-54.268,2.31652,134.366,Q,Q
2023-03-15 21:05:28:91,0,-54.2687,2.31853,134.367,Q,Q
2023-03-15 21:05:28:101,0,-54.2698,2.31884,134.368,Q,Q
2023-03-15 21:05:28:111,0,-54.273,2.31762,134.365,Q,Q
2023-03-15 21:05:28:121,0,-54.2737,2.31743,134.365,Q,Q
2023-03-15 21:05:28:131,0,-54.2751,2.31544,134.362,Q,Q
2023-03-15 21:05:28:141,0,-54.2795,2.31793,134.359,Q,Q
2023-03-15 21:05:28:151,0,-54.2809,2.31977,134.357,Q,Q
2023-03-15 21:05:28:161,0,-54.2805,2.32192,134.359,Q,Q
2023-03-15 21:05:28:171,0,-54.2823,2.3197,134.357,Q,Q
2023-03-15 21:05:28:181,0,-54.2791,2.323,134.361,Q,Q
2023-03-15 21:05:28:191,0,-54.2804,2.32161,134.364,Q,Q
2023-03-15 21:05:28:201,0,-54.2804,2.31984,134.366,Q,Q
2023-03-15 21:05:28:211,0,-54.2809,2.31982,134.367,Q,Q
2023-03-15 21:05:28:221,0,-54.2843,2.32215,134.368,Q,Q
2023-03-15 21:05:28:231,0,-54.2845,2.32183,134.367,Q,Q
2023-03-15 21:05:28:241,0,-54.2858,2.32168,134.37,Q,Q
2023-03-15 21:05:28:251,0,-54.288,2.32292,134.367,Q,Q
2023-03-15 21:05:28:261,0,-54.2857,2.32156,134.371,Q,Q
2023-03-15 21:05:28:271,0,-54.2851,2.32444,134.376,Q,Q
2023-03-15 21:05:28:281,0,-54.2866,2.32066,134.374,Q,Q
2023-03-15 21:05:28:291,0,-54.2834,2.32309,134.372,Q,Q
2023-03-15 21:05:28:300,0,-54.2877,2.32404,134.371,Q,Q
2023-03-15 21:05:28:311,0,-54.2887,2.32371,134.372,Q,Q
2023-03-15 21:05:28:321,0,-54.289,2.32725,134.374,Q,Q
2023-03-15 21:05:28:330,0,-54.289,2.32743,134.376,Q,Q
2023-03-15 21:05:28:341,0,-54.2885,2.32918,134.377,Q,Q
2023-03-15 21:05:28:351,0,-54.2889,2.32876,134.374,Q,Q
2023-03-15 21:05:28:360,0,-54.2858,2.33012,134.375,Q,Q
2023-03-15 21:05:28:371,0,-54.2849,2.32986,134.374,Q,Q
2023-03-15 21:05:28:380,0,-54.2822,2.3299,134.373,Q,Q
2023-03-15 21:05:28:391,0,-54.282,2.32872,134.374,Q,Q
2023-03-15 21:05:28:401,0,-54.2844,2.32746,134.374,Q,Q
2023-03-15 21:05:28:411,0,-54.2819,2.32783,134.373,Q,Q
2023-03-15 21:05:28:421,0,-54.2811,2.32792,134.372,Q,Q
2023-03-15 21:05:28:431,0,-54.2776,2.32899,134.374,Q,Q
2023-03-15 21:05:28:441,0,-54.2754,2.32621,134.378,Q,Q
2023-03-15 21:05:28:451,0,-54.2757,2.32528,134.378,Q,Q
2023-03-15 21:05:28:461,0,-54.2754,2.32527,134.376,Q,Q
2023-03-15 21:05:28:471,0,-54.2764,2.32371,134.376,Q,Q
2023-03-15 21:05:28:481,0,-54.2756,2.32308,134.378,Q,Q
2023-03-15 21:05:28:491,0,-54.2762,2.32012,134.376,Q,Q
2023-03-15 21:05:28:500,0,-54.2754,2.32049,134.374,Q,Q
2023-03-15 21:05:28:511,0,-54.2741,2.31936,134.379,Q,Q
2023-03-15 21:05:28:521,0,-54.2761,2.32122,134.381,Q,Q
2023-03-15 21:05:28:531,0,-54.2769,2.32072,134.381,Q,Q
2023-03-15 21:05:28:541,0,-54.2749,2.3185,134.381,Q,Q
2023-03-15 21:05:28:551,0,-54.2747,2.31463,134.381,Q,Q
2023-03-15 21:05:28:561,0,-54.276,2.3166,134.383,Q,Q
2023-03-15 21:05:28:571,0,-54.2777,2.31485,134.381,Q,Q
2023-03-15 21:05:28:581,0,-54.2786,2.31813,134.38,Q,Q
2023-03-15 21:05:28:591,0,-54.2748,2.31943,134.382,Q,Q
2023-03-15 21:05:28:601,0,-54.2722,2.32101,134.382,Q,Q
2023-03-15 21:05:28:611,0,-54.2738,2.32133,134.381,Q,Q
2023-03-15 21:05:28:621,0,-54.271,2.32074,134.381,Q,Q
2023-03-15 21:05:28:631,0,-54.2707,2.32377,134.381,Q,Q
2023-03-15 21:05:28:640,0,-54.2701,2.32456,134.383,Q,Q
2023-03-15 21:05:28:651,0,-54.269,2.32396,134.383,Q,Q
2023-03-15 21:05:28:661,0,-54.2692,2.32454,134.383,Q,Q
2023-03-15 21:05:28:671,0,-54.2704,2.32669,134.385,Q,Q
2023-03-15 21:05:28:681,0,-54.2706,2.32463,134.383,Q,Q
2023-03-15 21:05:28:691,0,-54.2741,2.32609,134.385,Q,Q
2023-03-15 21:05:28:701,0,-54.2738,2.32411,134.387,Q,Q
2023-03-15 21:05:28:711,0,-54.2743,2.32515,134.386,Q,Q
2023-03-15 21:05:28:720,0,-54.2749,2.32795,134.386,Q,Q
2023-03-15 21:05:28:731,0,-54.2731,2.32887,134.384,Q,Q
2023-03-15 21:05:28:741,0,-54.2731,2.32901,134.386,Q,Q
2023-03-15 21:05:28:751,0,-54.274,2.32647,134.386,Q,Q
2023-03-15 21:05:28:761,0,-54.2752,2.32627,134.387,Q,Q
2023-03-15 21:05:28:771,0,-54.2726,2.32769,134.386,Q,Q
2023-03-15 21:05:28:781,0,-54.2749,2.32649,134.384,Q,Q
2023-03-15 21:05:28:791,0,-54.2737,2.32692,134.39,Q,Q
2023-03-15 21:05:28:801,0,-54.2749,2.32561,134.392,Q,Q
2023-03-15 21:05:28:811,0,-54.2736,2.3278,134.395,Q,Q
2023-03-15 21:05:28:821,0,-54.2754,2.32759,134.394,Q,Q
2023-03-15 21:05:28:831,0,-54.2691,2.32532,134.394,Q,Q
2023-03-15 21:05:28:840,0,-54.2683,2.32383,134.395,Q,Q
2023-03-15 21:05:28:851,0,-54.2691,2.3219,134.391,Q,Q
2023-03-15 21:05:28:861,0,-54.2657,2.32036,134.391,Q,Q
2023-03-15 21:05:28:871,0,-54.2661,2.32018,134.392,Q,Q
2023-03-15 21:05:28:881,0,-54.266,2.32172,134.392,Q,Q
2023-03-15 21:05:28:891,0,-54.2699,2.32013,134.393,Q,Q
2023-03-15 21:05:28:901,0,-54.2733,2.32364,134.395,Q,Q
2023-03-15 21:05:28:911,0,-54.2703,2.32161,134.393,Q,Q
2023-03-15 21:05:28:921,0,-54.2704,2.32001,134.394,Q,Q
2023-03-15 21:05:28:931,0,-54.2694,2.31707,134.395,Q,Q
2023-03-15 21:05:28:941,0,-54.2718,2.31699,134.395,Q,Q
2023-03-15 21:05:28:951,0,-54.2722,2.31789,134.398,Q,Q
2023-03-15 21:05:28:960,0,-54.2721,2.3184,134.397,Q,Q
2023-03-15 21:05:28:971,0,-54.2744,2.31725,134.397,Q,Q
2023-03-15 21:05:28:981,0,-54.274,2.3179,134.396,Q,Q
2023-03-15 21:05:28:991,0,-54.2746,2.32496,134.395,Q,Q
2023-03-15 21:05:29:0,0,-54.2767,2.32402,134.395,Q,Q
2023-03-15 21:05:29:11,0,-54.2753,2.3274,134.394,Q,Q
2023-03-15 21:05:29:21,0,-54.2772,2.32331,134.392,Q,Q
2023-03-15 21:05:29:31,0,-54.2779,2.32667,134.394,Q,Q
2023-03-15 21:05:29:41,0,-54.2755,2.32642,134.398,Q,Q
2023-03-15 21:05:29:51,0,-54.2768,2.32278,134.4,Q,Q
2023-03-15 21:05:29:61,0,-54.2794,2.32287,134.398,Q,Q
2023-03-15 21:05:29:71,0,-54.2787,2.32552,134.396,Q,Q
2023-03-15 21:05:29:81,0,-54.2815,2.32275,134.394,Q,Q
2023-03-15 21:05:29:91,0,-54.2846,2.32282,134.394,Q,Q
2023-03-15 21:05:29:101,0,-54.2853,2.32171,134.392,Q,Q
2023-03-15 21:05:29:111,0,-54.2877,2.32175,134.391,Q,Q
2023-03-15 21:05:29:120,0,-54.2848,2.31947,134.392,Q,Q
2023-03-15 21:05:29:130,0,-54.2857,2.31719,134.391,Q,Q
2023-03-15 21:05:29:140,0,-54.288,2.31597,134.391,Q,Q
2023-03-15 21:05:29:151,0,-54.2878,2.31752,134.389,Q,Q
2023-03-15 21:05:29:161,0,-54.289,2.31762,134.392,Q,Q
2023-03-15 21:05:29:171,0,-54.2872,2.31886,134.396,Q,Q
2023-03-15 21:05:29:180,0,-54.288,2.31922,134.392,Q,Q
2023-03-15 21:05:29:191,0,-54.2861,2.31607,134.395,Q,Q
2023-03-15 21:05:29:201,0,-54.2872,2.31506,134.394,Q,Q
2023-03-15 21:05:29:211,0,-54.2877,2.31497,134.397,Q,Q
2023-03-15 21:05:29:221,0,-54.2877,2.31741,134.394,Q,Q
2023-03-15 21:05:29:231,0,-54.2855,2.31815,134.394,Q,Q
2023-03-15 21:05:29:240,0,-54.2857,2.3207,134.393,Q,Q
2023-03-15 21:05:29:251,0,-54.2879,2.32046,134.397,Q,Q
2023-03-15 21:05:29:260,0,-54.2867,2.3197,134.396,Q,Q
2023-03-15 21:05:29:271,0,-54.29,2.32175,134.396,Q,Q
2023-03-15 21:05:29:281,0,-54.2899,2.32223,134.396,Q,Q
2023-03-15 21:05:29:291,0,-54.2883,2.32172,134.396,Q,Q
2023-03-15 21:05:29:301,0,-54.2885,2.31959,134.396,Q,Q
2023-03-15 21:05:29:311,0,-54.2878,2.31871,134.395,Q,Q
2023-03-15 21:05:29:321,0,-54.288,2.31656,134.396,Q,Q
2023-03-15 21:05:29:331,0,-54.288,2.31602,134.399,Q,Q
2023-03-15 21:05:29:341,0,-54.2871,2.31533,134.399,Q,Q
2023-03-15 21:05:29:351,0,-54.2838,2.31327,134.398,Q,Q
2023-03-15 21:05:29:360,0,-54.2843,2.31427,134.397,Q,Q
2023-03-15 21:05:29:371,0,-54.2844,2.3127,134.394,Q,Q
2023-03-15 21:05:29:381,0,-54.286,2.31147,134.395,Q,Q
2023-03-15 21:05:29:391,0,-54.2865,2.31375,134.393,Q,Q
2023-03-15 21:05:29:401,0,-54.2846,2.31362,134.395,Q,Q
2023-03-15 21:05:29:411,0,-54.283,2.318,134.394,Q,Q
2023-03-15 21:05:29:420,0,-54.2833,2.31705,134.392,Q,Q
2023-03-15 21:05:29:431,0,-54.2831,2.31518,134.393,Q,Q
2023-03-15 21:05:29:440,0,-54.2815,2.31477,134.395,Q,Q
2023-03-15 21:05:29:451,0,-54.2794,2.31445,134.394,Q,Q
2023-03-15 21:05:29:461,0,-54.2772,2.31302,134.393,Q,Q
2023-03-15 21:05:29:471,0,-54.2747,2.30983,134.393,Q,Q
2023-03-15 21:05:29:481,0,-54.2773,2.30645,134.392,Q,Q
2023-03-15 21:05:29:491,0,-54.2752,2.30629,134.395,Q,Q
2023-03-15 21:05:29:501,0,-54.274,2.3057,134.396,Q,Q
2023-03-15 21:05:29:511,0,-54.2708,2.30542,134.4,Q,Q
2023-03-15 21:05:29:520,0,-54.266,2.30534,134.401,Q,Q
2023-03-15 21:05:29:531,0,-54.2661,2.30287,134.4,Q,Q
2023-03-15 21:05:29:541,0,-54.2649,2.29896,134.4,Q,Q
2023-03-15 21:05:29:551,0,-54.2659,2.29998,134.402,Q,Q
2023-03-15 21:05:29:561,0,-54.2646,2.29772,134.403,Q,Q
2023-03-15 21:05:29:571,0,-54.2617,2.30035,134.401,Q,Q
2023-03-15 21:05:29:581,0,-54.2622,2.30197,134.401,Q,Q
2023-03-15 21:05:29:591,0,-54.2619,2.30426,134.399,Q,Q
2023-03-15 21:05:29:601,0,-54.263,2.30494,134.397,Q,Q
2023-03-15 21:05:29:611,0,-54.2646,2.3064,134.398,Q,Q
2023-03-15 21:05:29:620,0,-54.2625,2.30553,134.397,Q,Q
2023-03-15 21:05:29:631,0,-54.2617,2.30342,134.397,Q,Q
2023-03-15 21:05:29:641,0,-54.2618,2.30148,134.399,Q,Q
2023-03-15 21:05:29:651,0,-54.2621,2.29843,134.399,Q,Q
2023-03-15 21:05:29:661,0,-54.2598,2.3008,134.398,Q,Q
2023-03-15 21:05:29:670,0,-54.2613,2.30047,134.404,Q,Q
2023-03-15 21:05:29:681,0,-54.2602,2.29942,134.401,Q,Q
2023-03-15 21:05:29:691,0,-54.2633,2.29939,134.402,Q,Q
2023-03-15 21:05:29:701,0,-54.2627,2.29717,134.403,Q,Q
2023-03-15 21:05:29:711,0,-54.2617,2.2999,134.401,Q,Q
2023-03-15 21:05:29:721,0,-54.2613,2.29937,134.397,Q,Q
2023-03-15 21:05:29:731,0,-54.2609,2.29854,134.397,Q,Q
2023-03-15 21:05:29:741,0,-54.2634,2.30031,134.397,Q,Q
2023-03-15 21:05:29:751,0,-54.264,2.30022,134.399,Q,Q
2023-03-15 21:05:29:761,0,-54.2651,2.30067,134.398,Q,Q
2023-03-15 21:05:29:771,0,-54.2652,2.30154,134.397,Q,Q
2023-03-15 21:05:29:781,0,-54.2626,2.30358,134.397,Q,Q
2023-03-15 21:05:29:790,0,-54.2641,2.30124,134.398,Q,Q
2023-03-15 21:05:29:801,0,-54.2651,2.29949,134.399,Q,Q
2023-03-15 21:05:29:811,0,-54.2641,2.29934,134.399,Q,Q
2023-03-15 21:05:29:821,0,-54.2633,2.29788,134.398,Q,Q
2023-03-15 21:05:29:831,0,-54.2632,2.29433,134.398,Q,Q
2023-03-15 21:05:29:840,0,-54.2607,2.29481,134.4,Q,Q
2023-03-15 21:05:29:851,0,-54.2607,2.2973,134.4,Q,Q
2023-03-15 21:05:29:861,0,-54.2594,2.29688,134.403,Q,Q
2023-03-15 21:05:29:870,0,-54.2584,2.29592,134.406,Q,Q
2023-03-15 21:05:29:881,0,-54.2603,2.29433,134.405,Q,Q
2023-03-15 21:05:29:891,0,-54.2622,2.29387,134.408,Q,Q
2023-03-15 21:05:29:901,0,-54.2624,2.29191,134.411,Q,Q
2023-03-15 21:05:29:911,0,-54.2646,2.29107,134.414,Q,Q
2023-03-15 21:05:29:920,0,-54.2634,2.29355,134.413,Q,Q
2023-03-15 21:05:29:931,0,-54.2623,2.29405,134.413,Q,Q
2023-03-15 21:05:29:941,0,-54.2625,2.29362,134.412,Q,Q
2023-03-15 21:05:29:951,0,-54.261,2.29337,134.415,Q,Q
2023-03-15 21:05:29:961,0,-54.2611,2.29363,134.414,Q,Q
2023-03-15 21:05:29:971,0,-54.2582,2.29148,134.415,Q,Q
2023-03-15 21:05:29:981,0,-54.2588,2.28827,134.414,Q,Q
2023-03-15 21:05:29:991,0,-54.2612,2.28953,134.411,Q,Q
2023-03-15 21:05:30:1,0,-54.261,2.28828,134.41,Q,Q
2023-03-15 21:05:30:11,0,-54.2613,2.28664,134.408,Q,Q
2023-03-15 21:05:30:20,0,-54.262,2.28754,134.406,Q,Q
2023-03-15 21:05:30:31,0,-54.2627,2.29013,134.407,Q,Q
2023-03-15 21:05:30:41,0,-54.2607,2.29062,134.404,Q,Q
2023-03-15 21:05:30:51,0,-54.2629,2.28892,134.405,Q,Q
2023-03-15 21:05:30:61,0,-54.2628,2.28931,134.405,Q,Q
2023-03-15 21:05:30:71,0,-54.263,2.288,134.407,Q,Q
2023-03-15 21:05:30:81,0,-54.2631,2.28794,134.407,Q,Q
2023-03-15 21:05:30:91,0,-54.258,2.28843,134.408,Q,Q
2023-03-15 21:05:30:101,0,-54.2578,2.28589,134.407,Q,Q
2023-03-15 21:05:30:111,0,-54.256,2.28616,134.407,Q,Q
2023-03-15 21:05:30:120,0,-54.2586,2.28611,134.41,Q,Q
2023-03-15 21:05:30:130,0,-54.2559,2.28768,134.409,Q,Q
2023-03-15 21:05:30:140,0,-54.2589,2.28527,134.413,Q,Q
2023-03-15 21:05:30:150,0,-54.2601,2.28581,134.412,Q,Q
2023-03-15 21:05:30:161,0,-54.2595,2.28601,134.416,Q,Q
2023-03-15 21:05:30:171,0,-54.2619,2.28789,134.417,Q,Q
2023-03-15 21:05:30:181,0,-54.2612,2.28257,134.418,Q,Q
2023-03-15 21:05:30:191,0,-54.2626,2.2817,134.417,Q,Q
2023-03-15 21:05:30:201,0,-54.2656,2.28447,134.418,Q,Q
2023-03-15 21:05:30:211,0,-54.2632,2.28361,134.417,Q,Q
