Timestamp_cmd,imu_cmd,roll_delta,pitch_delta,yaw_delta,voice_type,voice_length
2023-03-15 13:44:53:77,0,-2.49791,-0.428045,44.1017,Q,Q
2023-03-15 13:44:53:80,0,-2.48217,-0.41805,44.2001,Q,Q
2023-03-15 13:44:53:90,0,-2.47531,-0.416746,44.2771,Q,Q
2023-03-15 13:44:53:100,0,-2.4776,-0.416895,44.3352,Q,Q
2023-03-15 13:44:53:110,0,-2.48704,-0.419633,44.3833,Q,Q
2023-03-15 13:44:53:120,0,-2.50234,-0.430425,44.4234,Q,Q
2023-03-15 13:44:53:130,0,-2.52813,-0.451453,44.4564,Q,Q
2023-03-15 13:44:53:140,0,-2.56625,-0.474205,44.482,Q,Q
2023-03-15 13:44:53:150,0,-2.61031,-0.498875,44.4957,Q,Q
2023-03-15 13:44:53:160,0,-2.65648,-0.520034,44.4984,Q,Q
2023-03-15 13:44:53:170,0,-2.6981,-0.538154,44.4842,Q,Q
2023-03-15 13:44:53:180,0,-2.73577,-0.554671,44.4411,Q,Q
2023-03-15 13:44:53:190,0,-2.7598,-0.5623,44.3661,Q,Q
2023-03-15 13:44:53:200,0,-2.76219,-0.566547,44.2636,Q,Q
2023-03-15 13:44:53:210,0,-2.74218,-0.568177,44.14,Q,Q
2023-03-15 13:44:53:220,0,-2.70395,-0.568851,43.9948,Q,Q
2023-03-15 13:44:53:230,0,-2.65083,-0.561601,43.8307,Q,Q
2023-03-15 13:44:53:240,0,-2.59278,-0.537209,43.6491,Q,Q
2023-03-15 13:44:53:250,0,-2.53738,-0.504265,43.4547,Q,Q
2023-03-15 13:44:53:260,0,-2.49135,-0.458723,43.2615,Q,Q
2023-03-15 13:44:53:270,0,-2.45728,-0.409806,43.0738,Q,Q
2023-03-15 13:44:53:280,0,-2.43545,-0.352573,42.9002,Q,Q
2023-03-15 13:44:53:291,0,-2.42859,-0.29724,42.7404,Q,Q
2023-03-15 13:44:53:300,0,-2.42613,-0.245969,42.5996,Q,Q
2023-03-15 13:44:53:311,0,-2.42974,-0.201391,42.4868,Q,Q
2023-03-15 13:44:53:321,0,-2.43954,-0.159861,42.3986,Q,Q
2023-03-15 13:44:53:331,0,-2.46282,-0.12483,42.3325,Q,Q
2023-03-15 13:44:53:340,0,-2.49795,-0.098702,42.2883,Q,Q
2023-03-15 13:44:53:350,0,-2.54075,-0.0799954,42.2666,Q,Q
2023-03-15 13:44:53:360,0,-2.59226,-0.0691981,42.2606,Q,Q
2023-03-15 13:44:53:371,0,-2.64477,-0.071515,42.2745,Q,Q
2023-03-15 13:44:53:380,0,-2.69858,-0.084536,42.3049,Q,Q
2023-03-15 13:44:53:390,0,-2.74988,-0.111482,42.3468,Q,Q
2023-03-15 13:44:53:401,0,-2.80074,-0.148361,42.3977,Q,Q
2023-03-15 13:44:53:411,0,-2.84729,-0.1951,42.4537,Q,Q
2023-03-15 13:44:53:420,0,-2.89409,-0.245211,42.5136,Q,Q
2023-03-15 13:44:53:431,0,-2.93739,-0.301898,42.5697,Q,Q
2023-03-15 13:44:53:440,0,-2.98151,-0.360864,42.6274,Q,Q
2023-03-15 13:44:53:450,0,-3.02139,-0.426608,42.6855,Q,Q
2023-03-15 13:44:53:460,0,-3.0533,-0.495151,42.7461,Q,Q
2023-03-15 13:44:53:471,0,-3.07627,-0.563193,42.8034,Q,Q
2023-03-15 13:44:53:480,0,-3.08845,-0.624688,42.8683,Q,Q
2023-03-15 13:44:53:490,0,-3.08933,-0.685347,42.9252,Q,Q
2023-03-15 13:44:53:500,0,-3.08621,-0.733035,42.982,Q,Q
2023-03-15 13:44:53:511,0,-3.07556,-0.780494,43.0427,Q,Q
2023-03-15 13:44:53:521,0,-3.06403,-0.816658,43.1074,Q,Q
2023-03-15 13:44:53:531,0,-3.04698,-0.839226,43.1725,Q,Q
2023-03-15 13:44:53:540,0,-3.01631,-0.846107,43.2343,Q,Q
2023-03-15 13:44:53:550,0,-2.97344,-0.831724,43.294,Q,Q
2023-03-15 13:44:53:561,0,-2.92038,-0.807706,43.354,Q,Q
2023-03-15 13:44:53:571,0,-2.86416,-0.77186,43.4151,Q,Q
2023-03-15 13:44:53:581,0,-2.80796,-0.725452,43.4793,Q,Q
2023-03-15 13:44:53:591,0,-2.75427,-0.675928,43.5471,Q,Q
2023-03-15 13:44:53:600,0,-2.70321,-0.625032,43.6213,Q,Q
2023-03-15 13:44:53:610,0,-2.65153,-0.574766,43.7008,Q,Q
2023-03-15 13:44:53:620,0,-2.59807,-0.527454,43.7843,Q,Q
2023-03-15 13:44:53:631,0,-2.54374,-0.480688,43.8695,Q,Q
2023-03-15 13:44:53:640,0,-2.48984,-0.437009,43.9532,Q,Q
2023-03-15 13:44:53:650,0,-2.4411,-0.393839,44.0441,Q,Q
2023-03-15 13:44:53:660,0,-2.39505,-0.359652,44.1311,Q,Q
2023-03-15 13:44:53:670,0,-2.35182,-0.327288,44.211,Q,Q
2023-03-15 13:44:53:680,0,-2.31039,-0.298986,44.2939,Q,Q
2023-03-15 13:44:53:690,0,-2.27407,-0.273825,44.3725,Q,Q
2023-03-15 13:44:53:700,0,-2.24757,-0.246483,44.4568,Q,Q
2023-03-15 13:44:53:710,0,-2.23184,-0.224162,44.5429,Q,Q
2023-03-15 13:44:53:720,0,-2.22918,-0.201462,44.626,Q,Q
2023-03-15 13:44:53:730,0,-2.23395,-0.183101,44.7102,Q,Q
2023-03-15 13:44:53:740,0,-2.24751,-0.170658,44.8016,Q,Q
2023-03-15 13:44:53:750,0,-2.26772,-0.161465,44.8949,Q,Q
2023-03-15 13:44:53:760,0,-2.29337,-0.161212,44.9879,Q,Q
2023-03-15 13:44:53:770,0,-2.32433,-0.157753,45.0792,Q,Q
2023-03-15 13:44:53:780,0,-2.35399,-0.154785,45.1644,Q,Q
2023-03-15 13:44:53:790,0,-2.38641,-0.156331,45.2439,Q,Q
2023-03-15 13:44:53:800,0,-2.41953,-0.156954,45.3201,Q,Q
2023-03-15 13:44:53:810,0,-2.44764,-0.158669,45.3985,Q,Q
2023-03-15 13:44:53:820,0,-2.47029,-0.164659,45.4813,Q,Q
2023-03-15 13:44:53:830,0,-2.48966,-0.176952,45.5679,Q,Q
2023-03-15 13:44:53:840,0,-2.50814,-0.188071,45.6476,Q,Q
2023-03-15 13:44:53:850,0,-2.52802,-0.201994,45.7261,Q,Q
2023-03-15 13:44:53:860,0,-2.5467,-0.215938,45.8039,Q,Q
2023-03-15 13:44:53:870,0,-2.55957,-0.22277,45.8736,Q,Q
2023-03-15 13:44:53:880,0,-2.56891,-0.226646,45.9404,Q,Q
2023-03-15 13:44:53:890,0,-2.575,-0.229451,46.0056,Q,Q
2023-03-15 13:44:53:900,0,-2.57817,-0.23314,46.0798,Q,Q
2023-03-15 13:44:53:910,0,-2.5824,-0.238209,46.15,Q,Q
2023-03-15 13:44:53:920,0,-2.58461,-0.239129,46.2177,Q,Q
2023-03-15 13:44:53:930,0,-2.59155,-0.238217,46.2883,Q,Q
2023-03-15 13:44:53:940,0,-2.60072,-0.237681,46.3572,Q,Q
2023-03-15 13:44:53:950,0,-2.60876,-0.237379,46.4254,Q,Q
2023-03-15 13:44:53:960,0,-2.62037,-0.236392,46.4861,Q,Q
2023-03-15 13:44:53:970,0,-2.63097,-0.240651,46.5477,Q,Q
2023-03-15 13:44:53:980,0,-2.64364,-0.247149,46.6086,Q,Q
2023-03-15 13:44:53:990,0,-2.65194,-0.255737,46.6772,Q,Q
2023-03-15 13:44:54:0,0,-2.6584,-0.267317,46.7447,Q,Q
2023-03-15 13:44:54:10,0,-2.66119,-0.281636,46.8142,Q,Q
2023-03-15 13:44:54:20,0,-2.66222,-0.295864,46.8897,Q,Q
2023-03-15 13:44:54:30,0,-2.66347,-0.311321,46.963,Q,Q
2023-03-15 13:44:54:40,0,-2.67318,-0.328285,47.0354,Q,Q
2023-03-15 13:44:54:50,0,-2.68365,-0.345294,47.1022,Q,Q
2023-03-15 13:44:54:60,0,-2.69633,-0.362165,47.1701,Q,Q
2023-03-15 13:44:54:70,0,-2.71165,-0.377793,47.2383,Q,Q
2023-03-15 13:44:54:80,0,-2.72544,-0.397345,47.3082,Q,Q
2023-03-15 13:44:54:90,0,-2.73797,-0.417896,47.3794,Q,Q
2023-03-15 13:44:54:100,0,-2.7523,-0.434895,47.4502,Q,Q
2023-03-15 13:44:54:110,0,-2.76587,-0.450955,47.5233,Q,Q
2023-03-15 13:44:54:120,0,-2.78022,-0.462898,47.596,Q,Q
2023-03-15 13:44:54:130,0,-2.7946,-0.472102,47.6658,Q,Q
2023-03-15 13:44:54:140,0,-2.80939,-0.474476,47.7292,Q,Q
2023-03-15 13:44:54:150,0,-2.82236,-0.472478,47.7896,Q,Q
2023-03-15 13:44:54:160,0,-2.84292,-0.471212,47.8513,Q,Q
2023-03-15 13:44:54:170,0,-2.85645,-0.471073,47.9161,Q,Q
2023-03-15 13:44:54:180,0,-2.86867,-0.469608,47.9806,Q,Q
2023-03-15 13:44:54:190,0,-2.88278,-0.461906,48.0415,Q,Q
2023-03-15 13:44:54:200,0,-2.90191,-0.449126,48.1025,Q,Q
2023-03-15 13:44:54:210,0,-2.92927,-0.436767,48.1564,Q,Q
2023-03-15 13:44:54:220,0,-2.95843,-0.427532,48.2133,Q,Q
2023-03-15 13:44:54:230,0,-2.99187,-0.415297,48.2658,Q,Q
2023-03-15 13:44:54:240,0,-3.02986,-0.408543,48.3194,Q,Q
2023-03-15 13:44:54:250,0,-3.06841,-0.396717,48.3682,Q,Q
2023-03-15 13:44:54:260,0,-3.10702,-0.388095,48.4161,Q,Q
2023-03-15 13:44:54:270,0,-3.13805,-0.380943,48.4669,Q,Q
2023-03-15 13:44:54:280,0,-3.16876,-0.370439,48.5193,Q,Q
2023-03-15 13:44:54:290,0,-3.19969,-0.366699,48.5696,Q,Q
2023-03-15 13:44:54:300,0,-3.23031,-0.358127,48.6155,Q,Q
2023-03-15 13:44:54:310,0,-3.25971,-0.346151,48.6582,Q,Q
2023-03-15 13:44:54:320,0,-3.28722,-0.334802,48.7003,Q,Q
2023-03-15 13:44:54:330,0,-3.313,-0.324406,48.7447,Q,Q
2023-03-15 13:44:54:340,0,-3.33306,-0.317642,48.7928,Q,Q
2023-03-15 13:44:54:350,0,-3.35078,-0.310163,48.8393,Q,Q
2023-03-15 13:44:54:360,0,-3.36179,-0.300496,48.8885,Q,Q
2023-03-15 13:44:54:370,0,-3.37309,-0.291298,48.9357,Q,Q
2023-03-15 13:44:54:380,0,-3.38238,-0.279178,48.9823,Q,Q
2023-03-15 13:44:54:390,0,-3.38885,-0.264513,49.0299,Q,Q
2023-03-15 13:44:54:400,0,-3.38763,-0.252112,49.0776,Q,Q
2023-03-15 13:44:54:410,0,-3.37773,-0.235359,49.1164,Q,Q
2023-03-15 13:44:54:420,0,-3.36269,-0.219148,49.1552,Q,Q
2023-03-15 13:44:54:430,0,-3.34462,-0.207695,49.1968,Q,Q
2023-03-15 13:44:54:440,0,-3.32645,-0.192383,49.2354,Q,Q
2023-03-15 13:44:54:450,0,-3.30705,-0.179655,49.2774,Q,Q
2023-03-15 13:44:54:460,0,-3.2849,-0.165277,49.3176,Q,Q
2023-03-15 13:44:54:470,0,-3.26105,-0.14961,49.361,Q,Q
2023-03-15 13:44:54:480,0,-3.23575,-0.130155,49.403,Q,Q
2023-03-15 13:44:54:490,0,-3.20915,-0.109205,49.4483,Q,Q
2023-03-15 13:44:54:500,0,-3.18778,-0.0858048,49.4951,Q,Q
2023-03-15 13:44:54:510,0,-3.16573,-0.0621695,49.5477,Q,Q
2023-03-15 13:44:54:520,0,-3.14662,-0.0375127,49.6024,Q,Q
2023-03-15 13:44:54:530,0,-3.13527,-0.015574,49.6622,Q,Q
2023-03-15 13:44:54:540,0,-3.13437,0.00557173,49.7203,Q,Q
2023-03-15 13:44:54:550,0,-3.1387,0.0243109,49.7789,Q,Q
2023-03-15 13:44:54:560,0,-3.15212,0.0398775,49.8413,Q,Q
2023-03-15 13:44:54:570,0,-3.16205,0.049383,49.9033,Q,Q
2023-03-15 13:44:54:580,0,-3.17531,0.0500432,49.9685,Q,Q
2023-03-15 13:44:54:590,0,-3.19505,0.0455046,50.0322,Q,Q
2023-03-15 13:44:54:600,0,-3.21267,0.0353816,50.0996,Q,Q
2023-03-15 13:44:54:610,0,-3.22724,0.0217221,50.1668,Q,Q
2023-03-15 13:44:54:620,0,-3.24575,0.00911976,50.2332,Q,Q
2023-03-15 13:44:54:630,0,-3.26139,-0.0099281,50.2969,Q,Q
2023-03-15 13:44:54:640,0,-3.28039,-0.0297914,50.3572,Q,Q
2023-03-15 13:44:54:650,0,-3.29847,-0.0525699,50.4117,Q,Q
2023-03-15 13:44:54:660,0,-3.31568,-0.0711005,50.4608,Q,Q
2023-03-15 13:44:54:670,0,-3.33163,-0.0934376,50.5101,Q,Q
2023-03-15 13:44:54:680,0,-3.3436,-0.11691,50.5519,Q,Q
2023-03-15 13:44:54:690,0,-3.35511,-0.135507,50.5916,Q,Q
2023-03-15 13:44:54:700,0,-3.36419,-0.147592,50.6299,Q,Q
2023-03-15 13:44:54:710,0,-3.36996,-0.159655,50.6691,Q,Q
2023-03-15 13:44:54:720,0,-3.37298,-0.167867,50.7104,Q,Q
2023-03-15 13:44:54:730,0,-3.38092,-0.172139,50.749,Q,Q
2023-03-15 13:44:54:740,0,-3.39147,-0.170299,50.7801,Q,Q
2023-03-15 13:44:54:750,0,-3.40666,-0.161344,50.8109,Q,Q
2023-03-15 13:44:54:760,0,-3.42694,-0.15364,50.8387,Q,Q
2023-03-15 13:44:54:770,0,-3.44348,-0.148323,50.8686,Q,Q
2023-03-15 13:44:54:780,0,-3.46026,-0.144752,50.8993,Q,Q
2023-03-15 13:44:54:790,0,-3.47776,-0.143358,50.9332,Q,Q
2023-03-15 13:44:54:800,0,-3.49985,-0.145939,50.9702,Q,Q
2023-03-15 13:44:54:810,0,-3.51954,-0.146645,51.0022,Q,Q
2023-03-15 13:44:54:820,0,-3.53855,-0.149555,51.0322,Q,Q
2023-03-15 13:44:54:830,0,-3.55825,-0.155838,51.0613,Q,Q
2023-03-15 13:44:54:840,0,-3.57723,-0.163515,51.0922,Q,Q
2023-03-15 13:44:54:850,0,-3.58989,-0.173838,51.122,Q,Q
2023-03-15 13:44:54:860,0,-3.60603,-0.188968,51.1533,Q,Q
2023-03-15 13:44:54:870,0,-3.61441,-0.20522,51.1853,Q,Q
2023-03-15 13:44:54:880,0,-3.62211,-0.226388,51.2186,Q,Q
2023-03-15 13:44:54:890,0,-3.63082,-0.244176,51.2465,Q,Q
2023-03-15 13:44:54:900,0,-3.64593,-0.266682,51.2739,Q,Q
2023-03-15 13:44:54:910,0,-3.67023,-0.291795,51.3057,Q,Q
2023-03-15 13:44:54:920,0,-3.69372,-0.317266,51.3356,Q,Q
2023-03-15 13:44:54:930,0,-3.7191,-0.338157,51.3637,Q,Q
2023-03-15 13:44:54:940,0,-3.73553,-0.356821,51.3916,Q,Q
2023-03-15 13:44:54:950,0,-3.75117,-0.371338,51.4195,Q,Q
2023-03-15 13:44:54:960,0,-3.75605,-0.380652,51.442,Q,Q
2023-03-15 13:44:54:970,0,-3.76147,-0.387661,51.4679,Q,Q
2023-03-15 13:44:54:980,0,-3.76618,-0.391087,51.4919,Q,Q
2023-03-15 13:44:54:990,0,-3.76768,-0.390199,51.5143,Q,Q
2023-03-15 13:44:55:0,0,-3.76556,-0.388172,51.5364,Q,Q
2023-03-15 13:44:55:10,0,-3.765,-0.38128,51.5572,Q,Q
2023-03-15 13:44:55:20,0,-3.75688,-0.373853,51.5682,Q,Q
2023-03-15 13:44:55:30,0,-3.74694,-0.36263,51.5785,Q,Q
2023-03-15 13:44:55:40,0,-3.7373,-0.348929,51.5856,Q,Q
2023-03-15 13:44:55:50,0,-3.7292,-0.333298,51.5913,Q,Q
2023-03-15 13:44:55:60,0,-3.71773,-0.315733,51.5977,Q,Q
2023-03-15 13:44:55:70,0,-3.70644,-0.297277,51.6034,Q,Q
2023-03-15 13:44:55:80,0,-3.69564,-0.282161,51.6065,Q,Q
2023-03-15 13:44:55:90,0,-3.69274,-0.266695,51.6043,Q,Q
2023-03-15 13:44:55:100,0,-3.69161,-0.252905,51.6051,Q,Q
2023-03-15 13:44:55:110,0,-3.68618,-0.243834,51.5997,Q,Q
2023-03-15 13:44:55:120,0,-3.67902,-0.24093,51.5904,Q,Q
2023-03-15 13:44:55:130,0,-3.67755,-0.244164,51.5773,Q,Q
2023-03-15 13:44:55:140,0,-3.67435,-0.25091,51.5659,Q,Q
2023-03-15 13:44:55:150,0,-3.67354,-0.2648,51.5565,Q,Q
2023-03-15 13:44:55:160,0,-3.67763,-0.279465,51.5481,Q,Q
2023-03-15 13:44:55:170,0,-3.68116,-0.294031,51.5436,Q,Q
2023-03-15 13:44:55:180,0,-3.68412,-0.313206,51.54,Q,Q
2023-03-15 13:44:55:190,0,-3.6824,-0.327764,51.5392,Q,Q
2023-03-15 13:44:55:200,0,-3.67366,-0.33812,51.5436,Q,Q
2023-03-15 13:44:55:210,0,-3.66074,-0.34805,51.5544,Q,Q
2023-03-15 13:44:55:220,0,-3.64404,-0.357604,51.5707,Q,Q
2023-03-15 13:44:55:230,0,-3.62575,-0.364251,51.5953,Q,Q
2023-03-15 13:44:55:240,0,-3.60654,-0.368051,51.6235,Q,Q
2023-03-15 13:44:55:250,0,-3.5891,-0.372277,51.6563,Q,Q
2023-03-15 13:44:55:260,0,-3.56927,-0.372697,51.6872,Q,Q
2023-03-15 13:44:55:270,0,-3.55256,-0.37077,51.7168,Q,Q
2023-03-15 13:44:55:280,0,-3.53939,-0.366759,51.7433,Q,Q
2023-03-15 13:44:55:290,0,-3.52814,-0.362432,51.7706,Q,Q
2023-03-15 13:44:55:300,0,-3.51701,-0.362548,51.7935,Q,Q
2023-03-15 13:44:55:310,0,-3.51162,-0.362652,51.8151,Q,Q
2023-03-15 13:44:55:320,0,-3.50524,-0.360587,51.8327,Q,Q
2023-03-15 13:44:55:330,0,-3.50132,-0.363424,51.8445,Q,Q
2023-03-15 13:44:55:340,0,-3.50487,-0.361431,51.853,Q,Q
2023-03-15 13:44:55:350,0,-3.50834,-0.362265,51.8548,Q,Q
2023-03-15 13:44:55:360,0,-3.51614,-0.364202,51.8504,Q,Q
2023-03-15 13:44:55:370,0,-3.52064,-0.364634,51.8427,Q,Q
2023-03-15 13:44:55:380,0,-3.52172,-0.363222,51.8365,Q,Q
2023-03-15 13:44:55:390,0,-3.51784,-0.364612,51.8382,Q,Q
2023-03-15 13:44:55:400,0,-3.50748,-0.364534,51.8377,Q,Q
2023-03-15 13:44:55:410,0,-3.50434,-0.365605,51.8404,Q,Q
2023-03-15 13:44:55:420,0,-3.50629,-0.367807,51.8384,Q,Q
2023-03-15 13:44:55:430,0,-3.50998,-0.37585,51.8322,Q,Q
2023-03-15 13:44:55:440,0,-3.51078,-0.387134,51.8247,Q,Q
2023-03-15 13:44:55:450,0,-3.51062,-0.400224,51.8162,Q,Q
2023-03-15 13:44:55:460,0,-3.50895,-0.416711,51.8064,Q,Q
2023-03-15 13:44:55:470,0,-3.50692,-0.438661,51.7933,Q,Q
2023-03-15 13:44:55:480,0,-3.50337,-0.456883,51.779,Q,Q
2023-03-15 13:44:55:490,0,-3.49737,-0.477832,51.7691,Q,Q
2023-03-15 13:44:55:500,0,-3.49555,-0.497483,51.7587,Q,Q
2023-03-15 13:44:55:510,0,-3.49341,-0.514467,51.7518,Q,Q
2023-03-15 13:44:55:520,0,-3.49064,-0.533886,51.7479,Q,Q
2023-03-15 13:44:55:530,0,-3.48133,-0.553535,51.747,Q,Q
2023-03-15 13:44:55:540,0,-3.47395,-0.573347,51.7457,Q,Q
2023-03-15 13:44:55:550,0,-3.46297,-0.588672,51.7462,Q,Q
2023-03-15 13:44:55:560,0,-3.4547,-0.598198,51.7466,Q,Q
2023-03-15 13:44:55:570,0,-3.44164,-0.605113,51.743,Q,Q
2023-03-15 13:44:55:580,0,-3.42883,-0.606691,51.7359,Q,Q
2023-03-15 13:44:55:590,0,-3.41323,-0.611366,51.7377,Q,Q
2023-03-15 13:44:55:600,0,-3.3988,-0.617321,51.7421,Q,Q
2023-03-15 13:44:55:610,0,-3.38497,-0.628512,51.7462,Q,Q
2023-03-15 13:44:55:620,0,-3.37111,-0.637594,51.7512,Q,Q
2023-03-15 13:44:55:630,0,-3.35831,-0.648295,51.7597,Q,Q
2023-03-15 13:44:55:640,0,-3.35428,-0.659284,51.7663,Q,Q
2023-03-15 13:44:55:650,0,-3.35527,-0.668868,51.7724,Q,Q
2023-03-15 13:44:55:660,0,-3.35868,-0.676455,51.7721,Q,Q
2023-03-15 13:44:55:670,0,-3.36417,-0.683272,51.7688,Q,Q
2023-03-15 13:44:55:680,0,-3.36923,-0.686234,51.7632,Q,Q
2023-03-15 13:44:55:690,0,-3.37684,-0.687708,51.752,Q,Q
2023-03-15 13:44:55:700,0,-3.38215,-0.690574,51.7398,Q,Q
2023-03-15 13:44:55:710,0,-3.38922,-0.694031,51.7276,Q,Q
2023-03-15 13:44:55:720,0,-3.38949,-0.698789,51.7152,Q,Q
2023-03-15 13:44:55:730,0,-3.39273,-0.698387,51.7053,Q,Q
2023-03-15 13:44:55:740,0,-3.39389,-0.69537,51.699,Q,Q
2023-03-15 13:44:55:750,0,-3.39419,-0.690405,51.6946,Q,Q
2023-03-15 13:44:55:760,0,-3.39594,-0.687865,51.6902,Q,Q
2023-03-15 13:44:55:770,0,-3.39638,-0.688265,51.6902,Q,Q
2023-03-15 13:44:55:780,0,-3.40016,-0.687923,51.6868,Q,Q
2023-03-15 13:44:55:790,0,-3.40143,-0.684243,51.6859,Q,Q
2023-03-15 13:44:55:800,0,-3.40578,-0.683953,51.679,Q,Q
2023-03-15 13:44:55:810,0,-3.41249,-0.682327,51.6719,Q,Q
2023-03-15 13:44:55:820,0,-3.42227,-0.684362,51.6667,Q,Q
2023-03-15 13:44:55:830,0,-3.42539,-0.687408,51.6584,Q,Q
2023-03-15 13:44:55:840,0,-3.42359,-0.689503,51.6507,Q,Q
2023-03-15 13:44:55:850,0,-3.42036,-0.695512,51.6406,Q,Q
2023-03-15 13:44:55:860,0,-3.41129,-0.698317,51.6317,Q,Q
2023-03-15 13:44:55:870,0,-3.40578,-0.703797,51.6238,Q,Q
2023-03-15 13:44:55:880,0,-3.40304,-0.711716,51.6112,Q,Q
2023-03-15 13:44:55:890,0,-3.40628,-0.713432,51.5941,Q,Q
2023-03-15 13:44:55:900,0,-3.40733,-0.722879,51.5757,Q,Q
2023-03-15 13:44:55:911,0,-3.4097,-0.729427,51.5506,Q,Q
2023-03-15 13:44:55:920,0,-3.40455,-0.7387,51.5269,Q,Q
2023-03-15 13:44:55:930,0,-3.40148,-0.750305,51.5054,Q,Q
2023-03-15 13:44:55:940,0,-3.40041,-0.762569,51.4853,Q,Q
2023-03-15 13:44:55:950,0,-3.39636,-0.774722,51.4642,Q,Q
2023-03-15 13:44:55:960,0,-3.39153,-0.783889,51.449,Q,Q
2023-03-15 13:44:55:970,0,-3.38413,-0.795654,51.4374,Q,Q
2023-03-15 13:44:55:980,0,-3.37702,-0.806799,51.432,Q,Q
2023-03-15 13:44:55:990,0,-3.37509,-0.816111,51.4273,Q,Q
2023-03-15 13:44:56:0,0,-3.37273,-0.824864,51.4268,Q,Q
2023-03-15 13:44:56:10,0,-3.37222,-0.833178,51.4259,Q,Q
2023-03-15 13:44:56:20,0,-3.3748,-0.839009,51.4272,Q,Q
2023-03-15 13:44:56:30,0,-3.37319,-0.847495,51.4318,Q,Q
2023-03-15 13:44:56:40,0,-3.37375,-0.859005,51.4383,Q,Q
2023-03-15 13:44:56:50,0,-3.37308,-0.870833,51.449,Q,Q
2023-03-15 13:44:56:60,0,-3.37268,-0.878646,51.4615,Q,Q
2023-03-15 13:44:56:70,0,-3.36595,-0.893033,51.4736,Q,Q
2023-03-15 13:44:56:80,0,-3.36128,-0.905416,51.4918,Q,Q
2023-03-15 13:44:56:90,0,-3.35612,-0.920708,51.5102,Q,Q
2023-03-15 13:44:56:100,0,-3.3503,-0.929935,51.5259,Q,Q
2023-03-15 13:44:56:110,0,-3.34807,-0.943198,51.542,Q,Q
2023-03-15 13:44:56:120,0,-3.34622,-0.958021,51.5562,Q,Q
2023-03-15 13:44:56:130,0,-3.34583,-0.96799,51.5638,Q,Q
2023-03-15 13:44:56:140,0,-3.34385,-0.980882,51.5689,Q,Q
2023-03-15 13:44:56:150,0,-3.33858,-0.990948,51.5726,Q,Q
2023-03-15 13:44:56:160,0,-3.33593,-1.00146,51.5715,Q,Q
2023-03-15 13:44:56:170,0,-3.33113,-1.01048,51.5733,Q,Q
2023-03-15 13:44:56:180,0,-3.32655,-1.01964,51.5738,Q,Q
2023-03-15 13:44:56:190,0,-3.32697,-1.02481,51.5782,Q,Q
2023-03-15 13:44:56:200,0,-3.32597,-1.02829,51.5778,Q,Q
2023-03-15 13:44:56:210,0,-3.32768,-1.032,51.5768,Q,Q
2023-03-15 13:44:56:220,0,-3.33006,-1.03825,51.5796,Q,Q
2023-03-15 13:44:56:230,0,-3.33337,-1.04286,51.5864,Q,Q
2023-03-15 13:44:56:240,0,-3.33974,-1.04699,51.5874,Q,Q
2023-03-15 13:44:56:250,0,-3.34485,-1.05087,51.5834,Q,Q
2023-03-15 13:44:56:260,0,-3.35086,-1.05025,51.583,Q,Q
2023-03-15 13:44:56:270,0,-3.35502,-1.05514,51.5815,Q,Q
2023-03-15 13:44:56:280,0,-3.35413,-1.05542,51.5798,Q,Q
2023-03-15 13:44:56:290,0,-3.35154,-1.05488,51.5811,Q,Q
2023-03-15 13:44:56:300,0,-3.35183,-1.05659,51.5844,Q,Q
2023-03-15 13:44:56:310,0,-3.35231,-1.05283,51.5834,Q,Q
2023-03-15 13:44:56:320,0,-3.3518,-1.04852,51.5827,Q,Q
2023-03-15 13:44:56:330,0,-3.34615,-1.0445,51.5803,Q,Q
2023-03-15 13:44:56:340,0,-3.33788,-1.03779,51.5767,Q,Q
2023-03-15 13:44:56:350,0,-3.33259,-1.03487,51.5758,Q,Q
2023-03-15 13:44:56:360,0,-3.32723,-1.03765,51.575,Q,Q
2023-03-15 13:44:56:370,0,-3.32547,-1.04088,51.5738,Q,Q
2023-03-15 13:44:56:380,0,-3.32983,-1.04529,51.5751,Q,Q
2023-03-15 13:44:56:390,0,-3.34252,-1.04831,51.5676,Q,Q
2023-03-15 13:44:56:400,0,-3.35586,-1.05157,51.558,Q,Q
2023-03-15 13:44:56:410,0,-3.37342,-1.05259,51.536,Q,Q
2023-03-15 13:44:56:420,0,-3.3849,-1.05219,51.5112,Q,Q
2023-03-15 13:44:56:430,0,-3.39814,-1.05662,51.4845,Q,Q
2023-03-15 13:44:56:440,0,-3.40887,-1.06208,51.4549,Q,Q
2023-03-15 13:44:56:450,0,-3.4148,-1.06813,51.4186,Q,Q
2023-03-15 13:44:56:460,0,-3.41822,-1.07601,51.3864,Q,Q
2023-03-15 13:44:56:470,0,-3.41907,-1.08696,51.3548,Q,Q
2023-03-15 13:44:56:480,0,-3.41457,-1.10097,51.3195,Q,Q
2023-03-15 13:44:56:490,0,-3.41198,-1.11407,51.2873,Q,Q
2023-03-15 13:44:56:500,0,-3.40779,-1.12883,51.2438,Q,Q
2023-03-15 13:44:56:511,0,-3.40441,-1.14601,51.1872,Q,Q
2023-03-15 13:44:56:520,0,-3.40518,-1.16454,51.1122,Q,Q
2023-03-15 13:44:56:530,0,-3.40618,-1.18288,51.0179,Q,Q
2023-03-15 13:44:56:540,0,-3.40886,-1.2055,50.895,Q,Q
2023-03-15 13:44:56:550,0,-3.41084,-1.23268,50.739,Q,Q
2023-03-15 13:44:56:560,0,-3.41751,-1.27371,50.5434,Q,Q
2023-03-15 13:44:56:570,0,-3.42939,-1.32171,50.2863,Q,Q
2023-03-15 13:44:56:580,0,-3.43928,-1.37335,49.9528,Q,Q
2023-03-15 13:44:56:590,0,-3.44696,-1.42965,49.5166,Q,Q
2023-03-15 13:44:56:600,0,-3.46354,-1.4873,48.9691,Q,Q
2023-03-15 13:44:56:610,0,-3.50063,-1.5559,48.3108,Q,Q
2023-03-15 13:44:56:620,0,-3.56049,-1.6435,47.5538,Q,Q
2023-03-15 13:44:56:631,0,-3.61858,-1.75292,46.7105,Q,Q
2023-03-15 13:44:56:640,0,-3.66986,-1.88538,45.8017,Q,Q
2023-03-15 13:44:56:651,0,-3.71443,-2.03798,44.8462,Q,Q
2023-03-15 13:44:56:660,0,-3.75237,-2.20726,43.8525,Q,Q
2023-03-15 13:44:56:671,0,-3.78776,-2.39496,42.8301,Q,Q
2023-03-15 13:44:56:680,0,-3.82047,-2.5923,41.775,Q,Q
2023-03-15 13:44:56:690,0,-3.85344,-2.77855,40.6856,Q,Q
2023-03-15 13:44:56:700,0,-3.88429,-2.94951,39.5723,Q,Q
2023-03-15 13:44:56:710,0,-3.90699,-3.10379,38.463,Q,Q
2023-03-15 13:44:56:720,0,-3.91537,-3.25529,37.3949,Q,Q
2023-03-15 13:44:56:730,0,-3.91268,-3.40713,36.3848,Q,Q
2023-03-15 13:44:56:740,0,-3.91258,-3.55569,35.4292,Q,Q
2023-03-15 13:44:56:750,0,-3.91591,-3.68263,34.5089,Q,Q
2023-03-15 13:44:56:760,0,-3.92579,-3.77492,33.6131,Q,Q
2023-03-15 13:44:56:770,0,-3.94284,-3.83093,32.732,Q,Q
2023-03-15 13:44:56:780,0,-3.9593,-3.85242,31.8723,Q,Q
2023-03-15 13:44:56:790,0,-3.97274,-3.8561,31.0607,Q,Q
2023-03-15 13:44:56:800,0,-3.97983,-3.85454,30.3064,Q,Q
2023-03-15 13:44:56:810,0,-3.98713,-3.84723,29.6138,Q,Q
2023-03-15 13:44:56:820,0,-4.00385,-3.82835,28.9715,Q,Q
2023-03-15 13:44:56:830,0,-4.03045,-3.7867,28.3649,Q,Q
2023-03-15 13:44:56:840,0,-4.06816,-3.72277,27.7854,Q,Q
2023-03-15 13:44:56:850,0,-4.11585,-3.64335,27.2221,Q,Q
2023-03-15 13:44:56:860,0,-4.1692,-3.55956,26.6607,Q,Q
2023-03-15 13:44:56:870,0,-4.22715,-3.47476,26.1032,Q,Q
2023-03-15 13:44:56:880,0,-4.27618,-3.39933,25.5575,Q,Q
2023-03-15 13:44:56:890,0,-4.31457,-3.35097,25.0464,Q,Q
2023-03-15 13:44:56:900,0,-4.3413,-3.33354,24.5673,Q,Q
2023-03-15 13:44:56:910,0,-4.36281,-3.33784,24.1185,Q,Q
2023-03-15 13:44:56:920,0,-4.38277,-3.34895,23.6852,Q,Q
2023-03-15 13:44:56:930,0,-4.40375,-3.37028,23.2655,Q,Q
2023-03-15 13:44:56:940,0,-4.42647,-3.39763,22.8592,Q,Q
2023-03-15 13:44:56:950,0,-4.45555,-3.43386,22.4668,Q,Q
2023-03-15 13:44:56:960,0,-4.49598,-3.46938,22.0783,Q,Q
2023-03-15 13:44:56:971,0,-4.54156,-3.50309,21.7037,Q,Q
2023-03-15 13:44:56:980,0,-4.59098,-3.54532,21.3471,Q,Q
2023-03-15 13:44:56:991,0,-4.63935,-3.59672,21.017,Q,Q
2023-03-15 13:44:57:1,0,-4.68967,-3.65397,20.7095,Q,Q
2023-03-15 13:44:57:10,0,-4.74467,-3.71599,20.4183,Q,Q
2023-03-15 13:44:57:20,0,-4.7989,-3.7779,20.1411,Q,Q
2023-03-15 13:44:57:30,0,-4.85936,-3.83791,19.8726,Q,Q
2023-03-15 13:44:57:40,0,-4.92991,-3.89345,19.6055,Q,Q
2023-03-15 13:44:57:50,0,-5.00902,-3.94267,19.3447,Q,Q
2023-03-15 13:44:57:60,0,-5.09384,-3.9912,19.09,Q,Q
2023-03-15 13:44:57:70,0,-5.17659,-4.03829,18.8422,Q,Q
2023-03-15 13:44:57:80,0,-5.25623,-4.08026,18.599,Q,Q
2023-03-15 13:44:57:91,0,-5.31965,-4.12352,18.3645,Q,Q
2023-03-15 13:44:57:101,0,-5.37189,-4.16797,18.1402,Q,Q
2023-03-15 13:44:57:111,0,-5.41329,-4.20897,17.9258,Q,Q
2023-03-15 13:44:57:121,0,-5.45299,-4.24574,17.7191,Q,Q
2023-03-15 13:44:57:131,0,-5.49086,-4.27357,17.5137,Q,Q
2023-03-15 13:44:57:140,0,-5.5312,-4.29803,17.3142,Q,Q
2023-03-15 13:44:57:151,0,-5.57209,-4.32413,17.1274,Q,Q
2023-03-15 13:44:57:160,0,-5.61021,-4.35403,16.9536,Q,Q
2023-03-15 13:44:57:171,0,-5.63632,-4.38322,16.7944,Q,Q
2023-03-15 13:44:57:180,0,-5.65111,-4.41407,16.6374,Q,Q
2023-03-15 13:44:57:190,0,-5.64904,-4.43531,16.4811,Q,Q
2023-03-15 13:44:57:200,0,-5.63807,-4.44795,16.3293,Q,Q
2023-03-15 13:44:57:210,0,-5.6114,-4.45393,16.1803,Q,Q
2023-03-15 13:44:57:220,0,-5.5801,-4.45558,16.0359,Q,Q
2023-03-15 13:44:57:230,0,-5.54759,-4.45849,15.8995,Q,Q
2023-03-15 13:44:57:240,0,-5.51789,-4.46743,15.772,Q,Q
2023-03-15 13:44:57:250,0,-5.49059,-4.48613,15.653,Q,Q
2023-03-15 13:44:57:260,0,-5.46796,-4.50721,15.5389,Q,Q
2023-03-15 13:44:57:270,0,-5.44321,-4.5242,15.4197,Q,Q
2023-03-15 13:44:57:280,0,-5.42166,-4.54164,15.3043,Q,Q
2023-03-15 13:44:57:290,0,-5.40085,-4.55556,15.1849,Q,Q
2023-03-15 13:44:57:300,0,-5.38475,-4.5609,15.0553,Q,Q
2023-03-15 13:44:57:310,0,-5.36482,-4.5616,14.9207,Q,Q
2023-03-15 13:44:57:320,0,-5.34313,-4.56826,14.7947,Q,Q
2023-03-15 13:44:57:331,0,-5.32295,-4.58602,14.6727,Q,Q
2023-03-15 13:44:57:340,0,-5.29428,-4.60506,14.5529,Q,Q
2023-03-15 13:44:57:350,0,-5.26071,-4.62283,14.4369,Q,Q
2023-03-15 13:44:57:360,0,-5.21961,-4.6463,14.3189,Q,Q
2023-03-15 13:44:57:371,0,-5.17623,-4.66171,14.1972,Q,Q
2023-03-15 13:44:57:380,0,-5.12683,-4.67077,14.0702,Q,Q
2023-03-15 13:44:57:391,0,-5.07204,-4.67045,13.9389,Q,Q
2023-03-15 13:44:57:400,0,-5.01963,-4.66672,13.8062,Q,Q
2023-03-15 13:44:57:411,0,-4.97179,-4.66317,13.6765,Q,Q
2023-03-15 13:44:57:420,0,-4.92324,-4.65881,13.549,Q,Q
2023-03-15 13:44:57:430,0,-4.86835,-4.65867,13.4266,Q,Q
2023-03-15 13:44:57:440,0,-4.81015,-4.65302,13.3096,Q,Q
2023-03-15 13:44:57:451,0,-4.74792,-4.64,13.1925,Q,Q
2023-03-15 13:44:57:460,0,-4.68023,-4.6223,13.0795,Q,Q
2023-03-15 13:44:57:470,0,-4.61218,-4.59762,12.9714,Q,Q
2023-03-15 13:44:57:481,0,-4.54734,-4.57336,12.8699,Q,Q
2023-03-15 13:44:57:490,0,-4.4828,-4.54678,12.7815,Q,Q
2023-03-15 13:44:57:500,0,-4.4172,-4.51976,12.7005,Q,Q
2023-03-15 13:44:57:511,0,-4.34711,-4.49066,12.6289,Q,Q
2023-03-15 13:44:57:521,0,-4.26683,-4.45951,12.554,Q,Q
2023-03-15 13:44:57:531,0,-4.18238,-4.42507,12.4826,Q,Q
2023-03-15 13:44:57:541,0,-4.0937,-4.38948,12.4129,Q,Q
2023-03-15 13:44:57:550,0,-4.01178,-4.35347,12.3421,Q,Q
2023-03-15 13:44:57:561,0,-3.93707,-4.3151,12.2729,Q,Q
2023-03-15 13:44:57:570,0,-3.87047,-4.27789,12.2049,Q,Q
2023-03-15 13:44:57:580,0,-3.81892,-4.24721,12.1356,Q,Q
2023-03-15 13:44:57:590,0,-3.77284,-4.22558,12.066,Q,Q
2023-03-15 13:44:57:600,0,-3.73231,-4.21001,11.9966,Q,Q
2023-03-15 13:44:57:611,0,-3.69862,-4.20488,11.9237,Q,Q
2023-03-15 13:44:57:620,0,-3.66488,-4.20431,11.8487,Q,Q
2023-03-15 13:44:57:631,0,-3.62992,-4.20766,11.7704,Q,Q
2023-03-15 13:44:57:640,0,-3.5955,-4.21597,11.6989,Q,Q
2023-03-15 13:44:57:650,0,-3.56414,-4.22507,11.6282,Q,Q
2023-03-15 13:44:57:660,0,-3.53951,-4.23375,11.5691,Q,Q
2023-03-15 13:44:57:671,0,-3.52039,-4.24403,11.517,Q,Q
2023-03-15 13:44:57:680,0,-3.50211,-4.25723,11.4769,Q,Q
2023-03-15 13:44:57:690,0,-3.485,-4.26975,11.4448,Q,Q
2023-03-15 13:44:57:700,0,-3.46755,-4.28981,11.4209,Q,Q
2023-03-15 13:44:57:710,0,-3.45022,-4.30571,11.3983,Q,Q
2023-03-15 13:44:57:720,0,-3.433,-4.32338,11.3833,Q,Q
2023-03-15 13:44:57:730,0,-3.41896,-4.34356,11.3787,Q,Q
2023-03-15 13:44:57:740,0,-3.41049,-4.3688,11.3863,Q,Q
2023-03-15 13:44:57:750,0,-3.41552,-4.40118,11.4117,Q,Q
2023-03-15 13:44:57:760,0,-3.42815,-4.43679,11.4598,Q,Q
2023-03-15 13:44:57:770,0,-3.44917,-4.4805,11.5295,Q,Q
2023-03-15 13:44:57:780,0,-3.47914,-4.5228,11.6068,Q,Q
2023-03-15 13:44:57:791,0,-3.51416,-4.55891,11.6907,Q,Q
2023-03-15 13:44:57:800,0,-3.54896,-4.58846,11.7756,Q,Q
2023-03-15 13:44:57:810,0,-3.58447,-4.6118,11.8628,Q,Q
2023-03-15 13:44:57:820,0,-3.62722,-4.63092,11.9443,Q,Q
2023-03-15 13:44:57:830,0,-3.66846,-4.64911,12.0107,Q,Q
2023-03-15 13:44:57:840,0,-3.70422,-4.66374,12.0634,Q,Q
2023-03-15 13:44:57:851,0,-3.72813,-4.6799,12.0962,Q,Q
2023-03-15 13:44:57:861,0,-3.72952,-4.70076,12.1131,Q,Q
2023-03-15 13:44:57:871,0,-3.70627,-4.71876,12.1108,Q,Q
2023-03-15 13:44:57:880,0,-3.66914,-4.7343,12.087,Q,Q
2023-03-15 13:44:57:890,0,-3.61509,-4.74781,12.0483,Q,Q
2023-03-15 13:44:57:900,0,-3.55947,-4.75495,11.9959,Q,Q
2023-03-15 13:44:57:911,0,-3.5049,-4.75002,11.9338,Q,Q
2023-03-15 13:44:57:920,0,-3.46517,-4.73964,11.8679,Q,Q
2023-03-15 13:44:57:930,0,-3.43384,-4.72396,11.7995,Q,Q
2023-03-15 13:44:57:940,0,-3.41628,-4.69603,11.7332,Q,Q
2023-03-15 13:44:57:951,0,-3.40482,-4.66622,11.6648,Q,Q
2023-03-15 13:44:57:961,0,-3.40208,-4.63061,11.5943,Q,Q
2023-03-15 13:44:57:970,0,-3.40496,-4.59036,11.5288,Q,Q
2023-03-15 13:44:57:980,0,-3.42221,-4.55478,11.4783,Q,Q
2023-03-15 13:44:57:990,0,-3.45297,-4.51943,11.4412,Q,Q
2023-03-15 13:44:58:0,0,-3.49909,-4.48921,11.4136,Q,Q
2023-03-15 13:44:58:10,0,-3.55393,-4.46147,11.3976,Q,Q
2023-03-15 13:44:58:20,0,-3.60987,-4.43141,11.3929,Q,Q
2023-03-15 13:44:58:30,0,-3.67502,-4.40402,11.3937,Q,Q
2023-03-15 13:44:58:40,0,-3.74388,-4.38061,11.4059,Q,Q
2023-03-15 13:44:58:51,0,-3.81302,-4.36407,11.4235,Q,Q
2023-03-15 13:44:58:60,0,-3.88919,-4.34538,11.4397,Q,Q
2023-03-15 13:44:58:70,0,-3.96637,-4.32406,11.4532,Q,Q
2023-03-15 13:44:58:80,0,-4.04471,-4.29746,11.4783,Q,Q
2023-03-15 13:44:58:90,0,-4.11881,-4.2719,11.5135,Q,Q
2023-03-15 13:44:58:100,0,-4.18286,-4.25108,11.5591,Q,Q
2023-03-15 13:44:58:110,0,-4.24287,-4.23101,11.6208,Q,Q
2023-03-15 13:44:58:120,0,-4.29741,-4.21069,11.6911,Q,Q
2023-03-15 13:44:58:130,0,-4.33899,-4.18841,11.7659,Q,Q
2023-03-15 13:44:58:140,0,-4.35586,-4.16543,11.8359,Q,Q
2023-03-15 13:44:58:151,0,-4.34721,-4.14177,11.8987,Q,Q
2023-03-15 13:44:58:160,0,-4.3165,-4.12505,11.9566,Q,Q
2023-03-15 13:44:58:171,0,-4.27934,-4.11575,12.0122,Q,Q
2023-03-15 13:44:58:181,0,-4.24799,-4.11673,12.0621,Q,Q
2023-03-15 13:44:58:190,0,-4.22576,-4.12469,12.1062,Q,Q
2023-03-15 13:44:58:200,0,-4.20795,-4.14106,12.1423,Q,Q
2023-03-15 13:44:58:211,0,-4.18597,-4.16193,12.1677,Q,Q
2023-03-15 13:44:58:221,0,-4.15354,-4.18831,12.1806,Q,Q
2023-03-15 13:44:58:231,0,-4.11121,-4.22202,12.1883,Q,Q
2023-03-15 13:44:58:240,0,-4.06455,-4.26407,12.193,Q,Q
2023-03-15 13:44:58:250,0,-4.01292,-4.30868,12.1948,Q,Q
2023-03-15 13:44:58:260,0,-3.9535,-4.34747,12.1906,Q,Q
2023-03-15 13:44:58:271,0,-3.88694,-4.38963,12.1747,Q,Q
2023-03-15 13:44:58:280,0,-3.8263,-4.43224,12.1432,Q,Q
2023-03-15 13:44:58:290,0,-3.77524,-4.46895,12.0853,Q,Q
2023-03-15 13:44:58:300,0,-3.72868,-4.49428,12.0212,Q,Q
2023-03-15 13:44:58:310,0,-3.6831,-4.50032,11.9513,Q,Q
2023-03-15 13:44:58:320,0,-3.64059,-4.50164,11.8898,Q,Q
2023-03-15 13:44:58:330,0,-3.61852,-4.49606,11.8449,Q,Q
2023-03-15 13:44:58:340,0,-3.62376,-4.48171,11.8293,Q,Q
2023-03-15 13:44:58:350,0,-3.64947,-4.46442,11.8411,Q,Q
2023-03-15 13:44:58:360,0,-3.69345,-4.43304,11.8624,Q,Q
2023-03-15 13:44:58:370,0,-3.75633,-4.38573,11.8734,Q,Q
2023-03-15 13:44:58:380,0,-3.81812,-4.3177,11.8732,Q,Q
2023-03-15 13:44:58:390,0,-3.87579,-4.2446,11.8824,Q,Q
2023-03-15 13:44:58:400,0,-3.91974,-4.17714,11.9103,Q,Q
2023-03-15 13:44:58:410,0,-3.94019,-4.11191,11.9446,Q,Q
2023-03-15 13:44:58:420,0,-3.93705,-4.04245,11.9652,Q,Q
2023-03-15 13:44:58:430,0,-3.90703,-3.97891,11.9743,Q,Q
2023-03-15 13:44:58:440,0,-3.86936,-3.92403,11.9841,Q,Q
2023-03-15 13:44:58:450,0,-3.83701,-3.88545,12.0018,Q,Q
2023-03-15 13:44:58:461,0,-3.81963,-3.86256,12.0251,Q,Q
2023-03-15 13:44:58:471,0,-3.81464,-3.85823,12.0483,Q,Q
2023-03-15 13:44:58:480,0,-3.82288,-3.86196,12.0691,Q,Q
2023-03-15 13:44:58:490,0,-3.83803,-3.8685,12.0872,Q,Q
2023-03-15 13:44:58:500,0,-3.85548,-3.88269,12.1014,Q,Q
2023-03-15 13:44:58:510,0,-3.88404,-3.90052,12.1089,Q,Q
2023-03-15 13:44:58:521,0,-3.9226,-3.91854,12.1079,Q,Q
2023-03-15 13:44:58:531,0,-3.97145,-3.93517,12.097,Q,Q
2023-03-15 13:44:58:540,0,-4.02494,-3.95343,12.0784,Q,Q
2023-03-15 13:44:58:551,0,-4.07277,-3.97022,12.0455,Q,Q
2023-03-15 13:44:58:560,0,-4.11299,-3.98258,12.0002,Q,Q
2023-03-15 13:44:58:571,0,-4.14611,-3.99449,11.9539,Q,Q
2023-03-15 13:44:58:580,0,-4.17175,-4.00664,11.9144,Q,Q
2023-03-15 13:44:58:591,0,-4.19199,-4.01282,11.8862,Q,Q
2023-03-15 13:44:58:600,0,-4.21689,-4.02032,11.8646,Q,Q
2023-03-15 13:44:58:610,0,-4.24621,-4.02153,11.8508,Q,Q
2023-03-15 13:44:58:621,0,-4.27502,-4.01901,11.8429,Q,Q
2023-03-15 13:44:58:631,0,-4.30874,-4.01119,11.8364,Q,Q
2023-03-15 13:44:58:640,0,-4.34327,-3.9995,11.8326,Q,Q
2023-03-15 13:44:58:651,0,-4.37962,-3.98633,11.8221,Q,Q
2023-03-15 13:44:58:660,0,-4.41596,-3.97589,11.8129,Q,Q
2023-03-15 13:44:58:670,0,-4.44486,-3.96296,11.7981,Q,Q
2023-03-15 13:44:58:681,0,-4.46572,-3.95436,11.7817,Q,Q
2023-03-15 13:44:58:690,0,-4.47917,-3.94685,11.7666,Q,Q
2023-03-15 13:44:58:700,0,-4.4867,-3.93679,11.7488,Q,Q
2023-03-15 13:44:58:710,0,-4.49459,-3.92224,11.7257,Q,Q
2023-03-15 13:44:58:720,0,-4.49907,-3.90423,11.6974,Q,Q
2023-03-15 13:44:58:730,0,-4.50315,-3.89271,11.655,Q,Q
2023-03-15 13:44:58:740,0,-4.50561,-3.88057,11.5988,Q,Q
2023-03-15 13:44:58:750,0,-4.50561,-3.87722,11.5347,Q,Q
2023-03-15 13:44:58:760,0,-4.50958,-3.87984,11.4635,Q,Q
2023-03-15 13:44:58:770,0,-4.50964,-3.88446,11.3872,Q,Q
2023-03-15 13:44:58:780,0,-4.51105,-3.89291,11.3055,Q,Q
2023-03-15 13:44:58:791,0,-4.51584,-3.90294,11.2202,Q,Q
2023-03-15 13:44:58:801,0,-4.52608,-3.91316,11.1332,Q,Q
2023-03-15 13:44:58:811,0,-4.54438,-3.92739,11.0449,Q,Q
2023-03-15 13:44:58:820,0,-4.56107,-3.94227,10.9505,Q,Q
2023-03-15 13:44:58:830,0,-4.57823,-3.95342,10.8507,Q,Q
2023-03-15 13:44:58:841,0,-4.58592,-3.96394,10.7456,Q,Q
2023-03-15 13:44:58:850,0,-4.58566,-3.97257,10.6366,Q,Q
2023-03-15 13:44:58:861,0,-4.56651,-3.97415,10.5341,Q,Q
2023-03-15 13:44:58:870,0,-4.53721,-3.9798,10.4368,Q,Q
2023-03-15 13:44:58:880,0,-4.49833,-3.98662,10.3487,Q,Q
2023-03-15 13:44:58:891,0,-4.45477,-3.98902,10.2725,Q,Q
2023-03-15 13:44:58:900,0,-4.40381,-3.98458,10.2089,Q,Q
2023-03-15 13:44:58:910,0,-4.34422,-3.96711,10.1532,Q,Q
2023-03-15 13:44:58:920,0,-4.28196,-3.92886,10.1011,Q,Q
2023-03-15 13:44:58:930,0,-4.21523,-3.87559,10.0468,Q,Q
2023-03-15 13:44:58:941,0,-4.14336,-3.81152,9.9867,Q,Q
2023-03-15 13:44:58:951,0,-4.06274,-3.73741,9.91738,Q,Q
2023-03-15 13:44:58:960,0,-3.97824,-3.65359,9.83653,Q,Q
2023-03-15 13:44:58:971,0,-3.88174,-3.57388,9.74124,Q,Q
2023-03-15 13:44:58:980,0,-3.77642,-3.50159,9.63726,Q,Q
2023-03-15 13:44:58:990,0,-3.67444,-3.43721,9.52366,Q,Q
2023-03-15 13:44:59:0,0,-3.57499,-3.38502,9.39946,Q,Q
2023-03-15 13:44:59:10,0,-3.47515,-3.34516,9.26782,Q,Q
2023-03-15 13:44:59:20,0,-3.38543,-3.33086,9.14703,Q,Q
2023-03-15 13:44:59:30,0,-3.31603,-3.34245,9.04344,Q,Q
2023-03-15 13:44:59:40,0,-3.26843,-3.38508,8.96364,Q,Q
2023-03-15 13:44:59:50,0,-3.25007,-3.45432,8.90581,Q,Q
2023-03-15 13:44:59:60,0,-3.26661,-3.53647,8.86052,Q,Q
2023-03-15 13:44:59:70,0,-3.30648,-3.62295,8.81822,Q,Q
2023-03-15 13:44:59:80,0,-3.35824,-3.70954,8.77268,Q,Q
2023-03-15 13:44:59:90,0,-3.40995,-3.79099,8.72588,Q,Q
2023-03-15 13:44:59:100,0,-3.45037,-3.87124,8.68331,Q,Q
2023-03-15 13:44:59:110,0,-3.4858,-3.94459,8.63818,Q,Q
2023-03-15 13:44:59:120,0,-3.51398,-4.00647,8.5876,Q,Q
2023-03-15 13:44:59:130,0,-3.54079,-4.05472,8.53313,Q,Q
2023-03-15 13:44:59:140,0,-3.56578,-4.09175,8.47855,Q,Q
2023-03-15 13:44:59:150,0,-3.57984,-4.12011,8.42478,Q,Q
2023-03-15 13:44:59:160,0,-3.58287,-4.14009,8.37087,Q,Q
2023-03-15 13:44:59:170,0,-3.57279,-4.1534,8.31637,Q,Q
2023-03-15 13:44:59:180,0,-3.55932,-4.16739,8.26658,Q,Q
2023-03-15 13:44:59:190,0,-3.54916,-4.17803,8.21987,Q,Q
2023-03-15 13:44:59:200,0,-3.55065,-4.18855,8.17995,Q,Q
2023-03-15 13:44:59:210,0,-3.55987,-4.19606,8.1355,Q,Q
2023-03-15 13:44:59:220,0,-3.57135,-4.20011,8.09382,Q,Q
2023-03-15 13:44:59:230,0,-3.57694,-4.19444,8.05084,Q,Q
2023-03-15 13:44:59:240,0,-3.5697,-4.17527,8.00751,Q,Q
2023-03-15 13:44:59:251,0,-3.55272,-4.14871,7.96108,Q,Q
2023-03-15 13:44:59:260,0,-3.52579,-4.105,7.91214,Q,Q
2023-03-15 13:44:59:270,0,-3.49231,-4.05254,7.85413,Q,Q
2023-03-15 13:44:59:280,0,-3.4615,-3.98926,7.79342,Q,Q
2023-03-15 13:44:59:291,0,-3.42556,-3.92518,7.72072,Q,Q
2023-03-15 13:44:59:301,0,-3.38096,-3.85932,7.6396,Q,Q
2023-03-15 13:44:59:311,0,-3.32518,-3.79759,7.55931,Q,Q
2023-03-15 13:44:59:320,0,-3.25566,-3.73936,7.47865,Q,Q
2023-03-15 13:44:59:331,0,-3.18025,-3.68769,7.40173,Q,Q
2023-03-15 13:44:59:341,0,-3.10884,-3.63885,7.33325,Q,Q
2023-03-15 13:44:59:350,0,-3.04036,-3.59213,7.26841,Q,Q
2023-03-15 13:44:59:360,0,-2.98319,-3.54889,7.21354,Q,Q
2023-03-15 13:44:59:371,0,-2.93571,-3.5072,7.16079,Q,Q
2023-03-15 13:44:59:380,0,-2.89568,-3.4652,7.1061,Q,Q
2023-03-15 13:44:59:391,0,-2.86002,-3.42226,7.05102,Q,Q
2023-03-15 13:44:59:401,0,-2.82633,-3.37497,6.99085,Q,Q
2023-03-15 13:44:59:411,0,-2.79438,-3.32996,6.93339,Q,Q
2023-03-15 13:44:59:421,0,-2.77296,-3.2882,6.87953,Q,Q
2023-03-15 13:44:59:431,0,-2.75752,-3.25251,6.82973,Q,Q
2023-03-15 13:44:59:441,0,-2.75363,-3.22493,6.77979,Q,Q
2023-03-15 13:44:59:451,0,-2.75565,-3.19572,6.73052,Q,Q
2023-03-15 13:44:59:460,0,-2.76587,-3.16831,6.68676,Q,Q
2023-03-15 13:44:59:471,0,-2.7804,-3.14376,6.6446,Q,Q
2023-03-15 13:44:59:480,0,-2.798,-3.12392,6.60655,Q,Q
2023-03-15 13:44:59:491,0,-2.82055,-3.10957,6.57368,Q,Q
2023-03-15 13:44:59:501,0,-2.8443,-3.10298,6.54259,Q,Q
2023-03-15 13:44:59:510,0,-2.86423,-3.09903,6.51075,Q,Q
2023-03-15 13:44:59:520,0,-2.87474,-3.09256,6.48084,Q,Q
2023-03-15 13:44:59:530,0,-2.8747,-3.08491,6.44887,Q,Q
2023-03-15 13:44:59:540,0,-2.86975,-3.08294,6.41596,Q,Q
2023-03-15 13:44:59:550,0,-2.86238,-3.07962,6.37809,Q,Q
2023-03-15 13:44:59:560,0,-2.85222,-3.0804,6.33342,Q,Q
2023-03-15 13:44:59:570,0,-2.84079,-3.0826,6.28687,Q,Q
2023-03-15 13:44:59:580,0,-2.81882,-3.09257,6.2369,Q,Q
2023-03-15 13:44:59:590,0,-2.78663,-3.10517,6.18386,Q,Q
2023-03-15 13:44:59:600,0,-2.74797,-3.12549,6.12499,Q,Q
2023-03-15 13:44:59:610,0,-2.70329,-3.15117,6.06949,Q,Q
2023-03-15 13:44:59:620,0,-2.6573,-3.17566,6.01414,Q,Q
2023-03-15 13:44:59:630,0,-2.60911,-3.20245,5.95567,Q,Q
2023-03-15 13:44:59:641,0,-2.56381,-3.23267,5.89996,Q,Q
2023-03-15 13:44:59:651,0,-2.51743,-3.26243,5.843,Q,Q
2023-03-15 13:44:59:660,0,-2.47325,-3.29656,5.78608,Q,Q
2023-03-15 13:44:59:671,0,-2.42959,-3.33132,5.73013,Q,Q
2023-03-15 13:44:59:681,0,-2.38647,-3.36422,5.68181,Q,Q
2023-03-15 13:44:59:690,0,-2.34701,-3.40103,5.64046,Q,Q
2023-03-15 13:44:59:700,0,-2.3153,-3.43484,5.60233,Q,Q
2023-03-15 13:44:59:710,0,-2.28697,-3.47408,5.57278,Q,Q
2023-03-15 13:44:59:720,0,-2.26315,-3.51169,5.54763,Q,Q
2023-03-15 13:44:59:730,0,-2.24261,-3.54555,5.5208,Q,Q
2023-03-15 13:44:59:740,0,-2.21515,-3.56944,5.49343,Q,Q
2023-03-15 13:44:59:750,0,-2.1892,-3.59294,5.47254,Q,Q
2023-03-15 13:44:59:760,0,-2.16264,-3.60476,5.45272,Q,Q
2023-03-15 13:44:59:770,0,-2.13859,-3.61247,5.42973,Q,Q
2023-03-15 13:44:59:780,0,-2.09765,-3.61226,5.40529,Q,Q
2023-03-15 13:44:59:790,0,-2.04662,-3.61047,5.38036,Q,Q
2023-03-15 13:44:59:800,0,-1.98194,-3.60513,5.35905,Q,Q
2023-03-15 13:44:59:810,0,-1.91516,-3.60081,5.33605,Q,Q
2023-03-15 13:44:59:820,0,-1.85229,-3.59693,5.32073,Q,Q
2023-03-15 13:44:59:830,0,-1.79818,-3.59712,5.30704,Q,Q
2023-03-15 13:44:59:840,0,-1.74435,-3.60832,5.29715,Q,Q
2023-03-15 13:44:59:850,0,-1.685,-3.61961,5.28784,Q,Q
2023-03-15 13:44:59:860,0,-1.61999,-3.63717,5.27888,Q,Q
2023-03-15 13:44:59:870,0,-1.55048,-3.65386,5.27214,Q,Q
2023-03-15 13:44:59:880,0,-1.48465,-3.67701,5.27362,Q,Q
2023-03-15 13:44:59:890,0,-1.42243,-3.69887,5.27807,Q,Q
2023-03-15 13:44:59:900,0,-1.3719,-3.71872,5.28567,Q,Q
2023-03-15 13:44:59:910,0,-1.32321,-3.73494,5.29866,Q,Q
2023-03-15 13:44:59:920,0,-1.27891,-3.74954,5.31241,Q,Q
2023-03-15 13:44:59:930,0,-1.23347,-3.75822,5.32907,Q,Q
2023-03-15 13:44:59:940,0,-1.18318,-3.76295,5.3476,Q,Q
2023-03-15 13:44:59:950,0,-1.13937,-3.7718,5.36871,Q,Q
2023-03-15 13:44:59:960,0,-1.09713,-3.77603,5.38967,Q,Q
2023-03-15 13:44:59:970,0,-1.06731,-3.78009,5.40848,Q,Q
2023-03-15 13:44:59:980,0,-1.03977,-3.78592,5.42192,Q,Q
2023-03-15 13:44:59:990,0,-1.01802,-3.78902,5.42934,Q,Q
2023-03-15 13:45:00:1,0,-0.999388,-3.78517,5.43387,Q,Q
2023-03-15 13:45:00:10,0,-0.983845,-3.77949,5.43768,Q,Q
2023-03-15 13:45:00:20,0,-0.976074,-3.77447,5.43994,Q,Q
2023-03-15 13:45:00:30,0,-0.970599,-3.76963,5.43959,Q,Q
2023-03-15 13:45:00:40,0,-0.971701,-3.76372,5.4435,Q,Q
2023-03-15 13:45:00:50,0,-0.973359,-3.75586,5.4485,Q,Q
2023-03-15 13:45:00:60,0,-0.979338,-3.74677,5.45462,Q,Q
2023-03-15 13:45:00:70,0,-0.982821,-3.73614,5.45933,Q,Q
2023-03-15 13:45:00:80,0,-0.986275,-3.72185,5.46122,Q,Q
2023-03-15 13:45:00:90,0,-0.988678,-3.7079,5.4657,Q,Q
2023-03-15 13:45:00:100,0,-0.986936,-3.69892,5.46664,Q,Q
2023-03-15 13:45:00:110,0,-0.995236,-3.69272,5.4716,Q,Q
2023-03-15 13:45:00:120,0,-1.00798,-3.6849,5.46767,Q,Q
2023-03-15 13:45:00:131,0,-1.02184,-3.6762,5.45769,Q,Q
2023-03-15 13:45:00:141,0,-1.03909,-3.66664,5.43981,Q,Q
2023-03-15 13:45:00:151,0,-1.05636,-3.65986,5.41962,Q,Q
2023-03-15 13:45:00:161,0,-1.07248,-3.64868,5.39503,Q,Q
2023-03-15 13:45:00:171,0,-1.08635,-3.63957,5.36515,Q,Q
2023-03-15 13:45:00:180,0,-1.09686,-3.63263,5.32865,Q,Q
2023-03-15 13:45:00:190,0,-1.10529,-3.62452,5.28893,Q,Q
2023-03-15 13:45:00:200,0,-1.11187,-3.61967,5.25217,Q,Q
2023-03-15 13:45:00:210,0,-1.11925,-3.61057,5.21358,Q,Q
2023-03-15 13:45:00:220,0,-1.13059,-3.60504,5.17356,Q,Q
2023-03-15 13:45:00:230,0,-1.13815,-3.59755,5.13316,Q,Q
2023-03-15 13:45:00:240,0,-1.14388,-3.59488,5.10397,Q,Q
2023-03-15 13:45:00:250,0,-1.1521,-3.59393,5.07313,Q,Q
2023-03-15 13:45:00:260,0,-1.15833,-3.59211,5.04845,Q,Q
2023-03-15 13:45:00:270,0,-1.16773,-3.59005,5.0326,Q,Q
2023-03-15 13:45:00:280,0,-1.17966,-3.58914,5.02223,Q,Q
2023-03-15 13:45:00:290,0,-1.18729,-3.58693,5.01741,Q,Q
2023-03-15 13:45:00:300,0,-1.19391,-3.58378,5.01665,Q,Q
2023-03-15 13:45:00:310,0,-1.20297,-3.58636,5.02382,Q,Q
2023-03-15 13:45:00:320,0,-1.21433,-3.59204,5.02787,Q,Q
2023-03-15 13:45:00:330,0,-1.21819,-3.5989,5.03238,Q,Q
2023-03-15 13:45:00:340,0,-1.21873,-3.60693,5.03758,Q,Q
2023-03-15 13:45:00:350,0,-1.21143,-3.62291,5.04718,Q,Q
2023-03-15 13:45:00:360,0,-1.20319,-3.64011,5.06218,Q,Q
2023-03-15 13:45:00:370,0,-1.18585,-3.65886,5.07942,Q,Q
2023-03-15 13:45:00:380,0,-1.17147,-3.68089,5.10005,Q,Q
2023-03-15 13:45:00:390,0,-1.1557,-3.70398,5.11981,Q,Q
2023-03-15 13:45:00:400,0,-1.13652,-3.73038,5.13937,Q,Q
2023-03-15 13:45:00:411,0,-1.11651,-3.75148,5.15906,Q,Q
2023-03-15 13:45:00:420,0,-1.09113,-3.77474,5.179,Q,Q
2023-03-15 13:45:00:431,0,-1.06558,-3.79453,5.19832,Q,Q
2023-03-15 13:45:00:441,0,-1.04067,-3.81597,5.22427,Q,Q
2023-03-15 13:45:00:451,0,-1.01488,-3.83563,5.25611,Q,Q
2023-03-15 13:45:00:460,0,-0.990515,-3.85943,5.29143,Q,Q
2023-03-15 13:45:00:471,0,-0.972067,-3.87686,5.32889,Q,Q
2023-03-15 13:45:00:480,0,-0.953435,-3.89242,5.37026,Q,Q
2023-03-15 13:45:00:490,0,-0.937656,-3.90847,5.41916,Q,Q
2023-03-15 13:45:00:500,0,-0.924536,-3.92046,5.47781,Q,Q
2023-03-15 13:45:00:510,0,-0.913042,-3.93036,5.53941,Q,Q
2023-03-15 13:45:00:520,0,-0.897993,-3.933,5.60425,Q,Q
2023-03-15 13:45:00:530,0,-0.885179,-3.934,5.67212,Q,Q
2023-03-15 13:45:00:540,0,-0.874395,-3.93827,5.75283,Q,Q
2023-03-15 13:45:00:550,0,-0.870819,-3.94426,5.84334,Q,Q
2023-03-15 13:45:00:560,0,-0.875622,-3.95266,5.93571,Q,Q
2023-03-15 13:45:00:570,0,-0.884278,-3.96067,6.02939,Q,Q
2023-03-15 13:45:00:580,0,-0.890497,-3.96761,6.11796,Q,Q
2023-03-15 13:45:00:590,0,-0.901704,-3.97684,6.19951,Q,Q
2023-03-15 13:45:00:600,0,-0.908399,-3.9846,6.27199,Q,Q
2023-03-15 13:45:00:610,0,-0.921133,-3.99702,6.34184,Q,Q
2023-03-15 13:45:00:621,0,-0.930579,-4.00852,6.39837,Q,Q
2023-03-15 13:45:00:631,0,-0.935257,-4.02481,6.45026,Q,Q
2023-03-15 13:45:00:640,0,-0.937743,-4.04139,6.49457,Q,Q
2023-03-15 13:45:00:651,0,-0.941002,-4.05944,6.53034,Q,Q
2023-03-15 13:45:00:660,0,-0.940449,-4.07606,6.56304,Q,Q
2023-03-15 13:45:00:670,0,-0.942826,-4.09279,6.59044,Q,Q
2023-03-15 13:45:00:680,0,-0.941349,-4.11213,6.61358,Q,Q
2023-03-15 13:45:00:690,0,-0.937965,-4.12663,6.63341,Q,Q
2023-03-15 13:45:00:700,0,-0.930472,-4.14232,6.64478,Q,Q
2023-03-15 13:45:00:710,0,-0.922777,-4.15268,6.65747,Q,Q
2023-03-15 13:45:00:720,0,-0.92024,-4.16226,6.67204,Q,Q
2023-03-15 13:45:00:730,0,-0.918544,-4.16769,6.69189,Q,Q
2023-03-15 13:45:00:740,0,-0.921316,-4.17824,6.71463,Q,Q
2023-03-15 13:45:00:750,0,-0.920589,-4.18422,6.73557,Q,Q
2023-03-15 13:45:00:760,0,-0.919436,-4.18673,6.75607,Q,Q
2023-03-15 13:45:00:770,0,-0.914696,-4.18575,6.77945,Q,Q
2023-03-15 13:45:00:780,0,-0.913195,-4.1866,6.80436,Q,Q
2023-03-15 13:45:00:791,0,-0.914263,-4.18626,6.83091,Q,Q
2023-03-15 13:45:00:800,0,-0.920142,-4.18282,6.85459,Q,Q
2023-03-15 13:45:00:810,0,-0.92828,-4.17586,6.87902,Q,Q
2023-03-15 13:45:00:820,0,-0.941369,-4.16838,6.89972,Q,Q
2023-03-15 13:45:00:830,0,-0.960414,-4.15854,6.91401,Q,Q
2023-03-15 13:45:00:840,0,-0.983958,-4.14656,6.92221,Q,Q
2023-03-15 13:45:00:850,0,-1.00373,-4.13435,6.92371,Q,Q
2023-03-15 13:45:00:860,0,-1.01694,-4.12106,6.92304,Q,Q
2023-03-15 13:45:00:870,0,-1.02806,-4.10821,6.91997,Q,Q
2023-03-15 13:45:00:881,0,-1.03717,-4.09802,6.91912,Q,Q
2023-03-15 13:45:00:891,0,-1.05106,-4.08694,6.91664,Q,Q
2023-03-15 13:45:00:900,0,-1.06457,-4.07761,6.91133,Q,Q
2023-03-15 13:45:00:910,0,-1.0788,-4.06892,6.90706,Q,Q
2023-03-15 13:45:00:920,0,-1.09894,-4.06377,6.90117,Q,Q
2023-03-15 13:45:00:930,0,-1.11968,-4.05617,6.89472,Q,Q
2023-03-15 13:45:00:940,0,-1.13616,-4.04618,6.88451,Q,Q
2023-03-15 13:45:00:951,0,-1.14659,-4.03972,6.87277,Q,Q
2023-03-15 13:45:00:961,0,-1.15251,-4.03135,6.85761,Q,Q
2023-03-15 13:45:00:970,0,-1.15254,-4.02399,6.84408,Q,Q
2023-03-15 13:45:00:980,0,-1.14597,-4.0153,6.82623,Q,Q
2023-03-15 13:45:00:990,0,-1.1408,-4.00963,6.81013,Q,Q
2023-03-15 13:45:01:0,0,-1.13579,-4.00126,6.7934,Q,Q
2023-03-15 13:45:01:10,0,-1.12911,-3.99315,6.77664,Q,Q
2023-03-15 13:45:01:20,0,-1.11613,-3.98828,6.75649,Q,Q
2023-03-15 13:45:01:30,0,-1.10226,-3.98395,6.73505,Q,Q
2023-03-15 13:45:01:40,0,-1.08912,-3.9757,6.71786,Q,Q
2023-03-15 13:45:01:50,0,-1.08102,-3.97012,6.69909,Q,Q
2023-03-15 13:45:01:60,0,-1.06679,-3.96565,6.68112,Q,Q
2023-03-15 13:45:01:70,0,-1.05577,-3.96282,6.65982,Q,Q
2023-03-15 13:45:01:80,0,-1.04888,-3.96237,6.64185,Q,Q
2023-03-15 13:45:01:90,0,-1.04795,-3.96521,6.62227,Q,Q
2023-03-15 13:45:01:100,0,-1.05141,-3.9682,6.60526,Q,Q
2023-03-15 13:45:01:110,0,-1.05805,-3.97105,6.58458,Q,Q
2023-03-15 13:45:01:121,0,-1.05949,-3.97509,6.55939,Q,Q
2023-03-15 13:45:01:131,0,-1.06186,-3.97718,6.53729,Q,Q
2023-03-15 13:45:01:140,0,-1.06527,-3.97684,6.51992,Q,Q
2023-03-15 13:45:01:151,0,-1.06798,-3.97629,6.50378,Q,Q
2023-03-15 13:45:01:160,0,-1.07488,-3.97201,6.49106,Q,Q
2023-03-15 13:45:01:170,0,-1.08969,-3.96858,6.4829,Q,Q
2023-03-15 13:45:01:180,0,-1.10564,-3.9618,6.47624,Q,Q
2023-03-15 13:45:01:190,0,-1.12074,-3.95885,6.47464,Q,Q
2023-03-15 13:45:01:201,0,-1.12559,-3.9543,6.47191,Q,Q
2023-03-15 13:45:01:210,0,-1.12564,-3.95416,6.47202,Q,Q
2023-03-15 13:45:01:220,0,-1.13007,-3.95932,6.47695,Q,Q
2023-03-15 13:45:01:230,0,-1.14187,-3.96804,6.48338,Q,Q
2023-03-15 13:45:01:240,0,-1.15074,-3.97674,6.48866,Q,Q
2023-03-15 13:45:01:250,0,-1.16181,-3.97473,6.49116,Q,Q
2023-03-15 13:45:01:260,0,-1.17109,-3.97354,6.49134,Q,Q
2023-03-15 13:45:01:270,0,-1.1759,-3.97079,6.49101,Q,Q
2023-03-15 13:45:01:280,0,-1.18451,-3.96665,6.48629,Q,Q
2023-03-15 13:45:01:290,0,-1.18621,-3.96504,6.48241,Q,Q
2023-03-15 13:45:01:300,0,-1.18154,-3.96504,6.47383,Q,Q
2023-03-15 13:45:01:310,0,-1.17209,-3.96726,6.46596,Q,Q
2023-03-15 13:45:01:320,0,-1.16371,-3.96743,6.45337,Q,Q
2023-03-15 13:45:01:330,0,-1.15521,-3.96667,6.43854,Q,Q
2023-03-15 13:45:01:340,0,-1.14736,-3.96675,6.42375,Q,Q
2023-03-15 13:45:01:350,0,-1.14156,-3.96772,6.40884,Q,Q
2023-03-15 13:45:01:360,0,-1.13277,-3.97087,6.39255,Q,Q
2023-03-15 13:45:01:370,0,-1.1301,-3.97488,6.37437,Q,Q
2023-03-15 13:45:01:380,0,-1.13081,-3.98169,6.35813,Q,Q
2023-03-15 13:45:01:390,0,-1.13566,-3.98789,6.34241,Q,Q
2023-03-15 13:45:01:400,0,-1.14668,-3.99423,6.3278,Q,Q
2023-03-15 13:45:01:410,0,-1.1643,-4.00015,6.30996,Q,Q
2023-03-15 13:45:01:420,0,-1.18425,-4.00392,6.28857,Q,Q
2023-03-15 13:45:01:430,0,-1.19733,-4.00666,6.2659,Q,Q
2023-03-15 13:45:01:440,0,-1.20894,-4.00838,6.25185,Q,Q
2023-03-15 13:45:01:450,0,-1.2172,-4.01533,6.24891,Q,Q
2023-03-15 13:45:01:460,0,-1.22418,-4.02632,6.25476,Q,Q
2023-03-15 13:45:01:470,0,-1.23159,-4.03862,6.25788,Q,Q
2023-03-15 13:45:01:480,0,-1.24568,-4.04322,6.26184,Q,Q
2023-03-15 13:45:01:490,0,-1.25756,-4.0446,6.26463,Q,Q
2023-03-15 13:45:01:500,0,-1.26599,-4.03871,6.26257,Q,Q
2023-03-15 13:45:01:510,0,-1.27302,-4.03009,6.26221,Q,Q
2023-03-15 13:45:01:520,0,-1.28425,-4.02035,6.26417,Q,Q
2023-03-15 13:45:01:530,0,-1.29332,-4.01534,6.26471,Q,Q
2023-03-15 13:45:01:540,0,-1.30423,-4.00959,6.26344,Q,Q
2023-03-15 13:45:01:550,0,-1.31184,-4.00309,6.26044,Q,Q
2023-03-15 13:45:01:560,0,-1.32078,-3.99498,6.25717,Q,Q
2023-03-15 13:45:01:570,0,-1.32724,-3.98836,6.25105,Q,Q
2023-03-15 13:45:01:580,0,-1.33822,-3.98245,6.2443,Q,Q
2023-03-15 13:45:01:590,0,-1.34369,-3.97379,6.23439,Q,Q
2023-03-15 13:45:01:600,0,-1.35054,-3.9655,6.2277,Q,Q
2023-03-15 13:45:01:610,0,-1.3542,-3.95894,6.21975,Q,Q
2023-03-15 13:45:01:620,0,-1.35472,-3.9538,6.21314,Q,Q
2023-03-15 13:45:01:630,0,-1.35608,-3.95079,6.21002,Q,Q
2023-03-15 13:45:01:640,0,-1.35291,-3.9514,6.20594,Q,Q
2023-03-15 13:45:01:650,0,-1.34974,-3.94909,6.19946,Q,Q
2023-03-15 13:45:01:660,0,-1.34622,-3.94676,6.19509,Q,Q
2023-03-15 13:45:01:671,0,-1.34432,-3.945,6.18973,Q,Q
2023-03-15 13:45:01:680,0,-1.34259,-3.94182,6.18569,Q,Q
2023-03-15 13:45:01:691,0,-1.33859,-3.94051,6.17437,Q,Q
2023-03-15 13:45:01:701,0,-1.3302,-3.93612,6.16518,Q,Q
2023-03-15 13:45:01:711,0,-1.32,-3.93197,6.15562,Q,Q
2023-03-15 13:45:01:721,0,-1.30947,-3.92979,6.14421,Q,Q
2023-03-15 13:45:01:730,0,-1.30373,-3.92608,6.13604,Q,Q
2023-03-15 13:45:01:740,0,-1.30319,-3.92578,6.12634,Q,Q
2023-03-15 13:45:01:750,0,-1.30491,-3.92341,6.11878,Q,Q
2023-03-15 13:45:01:760,0,-1.30254,-3.92139,6.10855,Q,Q
2023-03-15 13:45:01:770,0,-1.30065,-3.92165,6.09617,Q,Q
2023-03-15 13:45:01:780,0,-1.30084,-3.91949,6.08397,Q,Q
2023-03-15 13:45:01:790,0,-1.29955,-3.91468,6.07625,Q,Q
2023-03-15 13:45:01:800,0,-1.2962,-3.91365,6.07073,Q,Q
2023-03-15 13:45:01:811,0,-1.29763,-3.911,6.06378,Q,Q
2023-03-15 13:45:01:821,0,-1.30194,-3.90688,6.0569,Q,Q
2023-03-15 13:45:01:831,0,-1.30426,-3.90226,6.04878,Q,Q
2023-03-15 13:45:01:841,0,-1.30893,-3.89324,6.04472,Q,Q
2023-03-15 13:45:01:851,0,-1.31089,-3.88497,6.04023,Q,Q
2023-03-15 13:45:01:861,0,-1.31703,-3.87941,6.03701,Q,Q
2023-03-15 13:45:01:871,0,-1.31878,-3.87417,6.03571,Q,Q
2023-03-15 13:45:01:881,0,-1.3165,-3.86882,6.03731,Q,Q
2023-03-15 13:45:01:891,0,-1.30643,-3.86838,6.04441,Q,Q
2023-03-15 13:45:01:900,0,-1.29774,-3.87305,6.06103,Q,Q
2023-03-15 13:45:01:910,0,-1.29093,-3.88878,6.0831,Q,Q
2023-03-15 13:45:01:921,0,-1.28787,-3.90411,6.11019,Q,Q
2023-03-15 13:45:01:931,0,-1.29221,-3.92233,6.13699,Q,Q
2023-03-15 13:45:01:940,0,-1.29353,-3.93391,6.16433,Q,Q
2023-03-15 13:45:01:951,0,-1.29227,-3.94453,6.18566,Q,Q
2023-03-15 13:45:01:961,0,-1.29397,-3.95522,6.20403,Q,Q
2023-03-15 13:45:01:971,0,-1.28968,-3.96628,6.22033,Q,Q
2023-03-15 13:45:01:981,0,-1.28647,-3.97402,6.23307,Q,Q
2023-03-15 13:45:01:991,0,-1.2769,-3.9877,6.24577,Q,Q
2023-03-15 13:45:02:1,0,-1.26256,-3.9994,6.25217,Q,Q
2023-03-15 13:45:02:10,0,-1.24102,-4.01213,6.25145,Q,Q
2023-03-15 13:45:02:21,0,-1.22124,-4.01983,6.25253,Q,Q
2023-03-15 13:45:02:31,0,-1.2036,-4.02996,6.2562,Q,Q
2023-03-15 13:45:02:41,0,-1.18842,-4.03724,6.25482,Q,Q
2023-03-15 13:45:02:51,0,-1.17936,-4.04707,6.25906,Q,Q
2023-03-15 13:45:02:60,0,-1.17463,-4.05116,6.26093,Q,Q
2023-03-15 13:45:02:70,0,-1.17523,-4.05491,6.2625,Q,Q
2023-03-15 13:45:02:80,0,-1.17622,-4.05802,6.26218,Q,Q
2023-03-15 13:45:02:90,0,-1.17926,-4.06275,6.26606,Q,Q
2023-03-15 13:45:02:100,0,-1.18519,-4.06576,6.2663,Q,Q
2023-03-15 13:45:02:110,0,-1.18895,-4.06566,6.26558,Q,Q
2023-03-15 13:45:02:120,0,-1.19114,-4.06545,6.26269,Q,Q
2023-03-15 13:45:02:131,0,-1.18558,-4.06572,6.26395,Q,Q
2023-03-15 13:45:02:141,0,-1.18364,-4.07175,6.26883,Q,Q
2023-03-15 13:45:02:150,0,-1.18557,-4.07997,6.27503,Q,Q
2023-03-15 13:45:02:161,0,-1.19172,-4.08609,6.27792,Q,Q
2023-03-15 13:45:02:171,0,-1.19676,-4.09224,6.27519,Q,Q
2023-03-15 13:45:02:181,0,-1.19848,-4.09427,6.26945,Q,Q
2023-03-15 13:45:02:190,0,-1.19956,-4.0993,6.26808,Q,Q
2023-03-15 13:45:02:200,0,-1.19832,-4.10093,6.26617,Q,Q
2023-03-15 13:45:02:210,0,-1.2002,-4.10277,6.26352,Q,Q
2023-03-15 13:45:02:220,0,-1.2092,-4.10912,6.26126,Q,Q
2023-03-15 13:45:02:230,0,-1.21451,-4.11096,6.26072,Q,Q
2023-03-15 13:45:02:240,0,-1.22032,-4.10985,6.26447,Q,Q
2023-03-15 13:45:02:250,0,-1.22008,-4.10889,6.26562,Q,Q
2023-03-15 13:45:02:260,0,-1.22209,-4.10905,6.26637,Q,Q
2023-03-15 13:45:02:270,0,-1.22499,-4.11477,6.27128,Q,Q
2023-03-15 13:45:02:280,0,-1.22442,-4.11881,6.27674,Q,Q
2023-03-15 13:45:02:290,0,-1.21943,-4.12296,6.28689,Q,Q
2023-03-15 13:45:02:300,0,-1.2169,-4.12599,6.29175,Q,Q
2023-03-15 13:45:02:310,0,-1.21578,-4.13378,6.302,Q,Q
2023-03-15 13:45:02:320,0,-1.21042,-4.14306,6.30901,Q,Q
2023-03-15 13:45:02:330,0,-1.20493,-4.15009,6.31592,Q,Q
2023-03-15 13:45:02:340,0,-1.20189,-4.15745,6.31642,Q,Q
2023-03-15 13:45:02:350,0,-1.19884,-4.16219,6.32162,Q,Q
2023-03-15 13:45:02:360,0,-1.18753,-4.1708,6.3227,Q,Q
2023-03-15 13:45:02:370,0,-1.17536,-4.17691,6.32256,Q,Q
2023-03-15 13:45:02:380,0,-1.1637,-4.18392,6.31851,Q,Q
2023-03-15 13:45:02:391,0,-1.15387,-4.18805,6.31072,Q,Q
2023-03-15 13:45:02:401,0,-1.14225,-4.18966,6.30555,Q,Q
2023-03-15 13:45:02:411,0,-1.12804,-4.18893,6.30277,Q,Q
2023-03-15 13:45:02:420,0,-1.11714,-4.18853,6.29848,Q,Q
2023-03-15 13:45:02:431,0,-1.10571,-4.1911,6.28989,Q,Q
2023-03-15 13:45:02:441,0,-1.09283,-4.19685,6.28572,Q,Q
2023-03-15 13:45:02:451,0,-1.07965,-4.19951,6.27891,Q,Q
2023-03-15 13:45:02:461,0,-1.06598,-4.20135,6.2726,Q,Q
2023-03-15 13:45:02:471,0,-1.05261,-4.20114,6.2623,Q,Q
2023-03-15 13:45:02:480,0,-1.04272,-4.19842,6.25442,Q,Q
2023-03-15 13:45:02:490,0,-1.03043,-4.20008,6.24732,Q,Q
2023-03-15 13:45:02:501,0,-1.01933,-4.19965,6.23479,Q,Q
2023-03-15 13:45:02:511,0,-1.00324,-4.19293,6.22632,Q,Q
2023-03-15 13:45:02:520,0,-0.986251,-4.18601,6.21703,Q,Q
2023-03-15 13:45:02:531,0,-0.972338,-4.17809,6.20996,Q,Q
2023-03-15 13:45:02:541,0,-0.956856,-4.17066,6.20169,Q,Q
2023-03-15 13:45:02:551,0,-0.946984,-4.16168,6.19527,Q,Q
2023-03-15 13:45:02:561,0,-0.941487,-4.15397,6.18631,Q,Q
2023-03-15 13:45:02:570,0,-0.940045,-4.15028,6.18266,Q,Q
2023-03-15 13:45:02:580,0,-0.942376,-4.14452,6.17574,Q,Q
2023-03-15 13:45:02:590,0,-0.939151,-4.14227,6.16723,Q,Q
2023-03-15 13:45:02:600,0,-0.932926,-4.14005,6.15791,Q,Q
2023-03-15 13:45:02:611,0,-0.925196,-4.14437,6.16133,Q,Q
2023-03-15 13:45:02:621,0,-0.920788,-4.15419,6.17318,Q,Q
2023-03-15 13:45:02:631,0,-0.921813,-4.16207,6.18545,Q,Q
2023-03-15 13:45:02:641,0,-0.93225,-4.16892,6.1938,Q,Q
2023-03-15 13:45:02:651,0,-0.942741,-4.16925,6.20358,Q,Q
2023-03-15 13:45:02:661,0,-0.95718,-4.16902,6.21314,Q,Q
2023-03-15 13:45:02:671,0,-0.965715,-4.16621,6.22281,Q,Q
2023-03-15 13:45:02:680,0,-0.96996,-4.16474,6.23084,Q,Q
2023-03-15 13:45:02:690,0,-0.970669,-4.16624,6.23854,Q,Q
2023-03-15 13:45:02:700,0,-0.967741,-4.16785,6.24622,Q,Q
2023-03-15 13:45:02:710,0,-0.963294,-4.17191,6.25163,Q,Q
2023-03-15 13:45:02:721,0,-0.959627,-4.17502,6.25465,Q,Q
2023-03-15 13:45:02:731,0,-0.953738,-4.17791,6.25991,Q,Q
2023-03-15 13:45:02:740,0,-0.953409,-4.18226,6.26312,Q,Q
2023-03-15 13:45:02:751,0,-0.955501,-4.1844,6.26265,Q,Q
2023-03-15 13:45:02:761,0,-0.955579,-4.18813,6.264,Q,Q
2023-03-15 13:45:02:771,0,-0.955636,-4.18827,6.26257,Q,Q
2023-03-15 13:45:02:781,0,-0.956659,-4.1879,6.26132,Q,Q
2023-03-15 13:45:02:790,0,-0.963194,-4.18625,6.25623,Q,Q
2023-03-15 13:45:02:800,0,-0.972641,-4.183,6.25326,Q,Q
2023-03-15 13:45:02:811,0,-0.982703,-4.18081,6.25024,Q,Q
2023-03-15 13:45:02:820,0,-0.992982,-4.17707,6.24699,Q,Q
2023-03-15 13:45:02:831,0,-0.999629,-4.17119,6.2409,Q,Q
2023-03-15 13:45:02:841,0,-1.00104,-4.16866,6.237,Q,Q
2023-03-15 13:45:02:851,0,-1.00047,-4.16099,6.23496,Q,Q
2023-03-15 13:45:02:861,0,-1.00483,-4.16,6.23143,Q,Q
2023-03-15 13:45:02:871,0,-1.00662,-4.15826,6.22543,Q,Q
2023-03-15 13:45:02:880,0,-1.00817,-4.15046,6.22221,Q,Q
2023-03-15 13:45:02:890,0,-1.01026,-4.14462,6.2156,Q,Q
2023-03-15 13:45:02:900,0,-1.01951,-4.13263,6.20836,Q,Q
2023-03-15 13:45:02:910,0,-1.02387,-4.11969,6.19794,Q,Q
2023-03-15 13:45:02:920,0,-1.02693,-4.10546,6.18532,Q,Q
2023-03-15 13:45:02:930,0,-1.02722,-4.09504,6.17657,Q,Q
2023-03-15 13:45:02:940,0,-1.0254,-4.08216,6.16398,Q,Q
2023-03-15 13:45:02:951,0,-1.0207,-4.07401,6.15874,Q,Q
2023-03-15 13:45:02:960,0,-1.01587,-4.0645,6.15749,Q,Q
2023-03-15 13:45:02:970,0,-1.01408,-4.06194,6.15624,Q,Q
2023-03-15 13:45:02:980,0,-1.00956,-4.05815,6.15689,Q,Q
2023-03-15 13:45:02:990,0,-1.01075,-4.05553,6.15851,Q,Q
2023-03-15 13:45:03:1,0,-1.01331,-4.05381,6.16143,Q,Q
2023-03-15 13:45:03:11,0,-1.01258,-4.04979,6.16725,Q,Q
2023-03-15 13:45:03:20,0,-1.01566,-4.04574,6.17107,Q,Q
2023-03-15 13:45:03:30,0,-1.01769,-4.0473,6.17674,Q,Q
2023-03-15 13:45:03:40,0,-1.01859,-4.04566,6.1836,Q,Q
2023-03-15 13:45:03:51,0,-1.02271,-4.04311,6.18676,Q,Q
2023-03-15 13:45:03:61,0,-1.03129,-4.04483,6.18485,Q,Q
2023-03-15 13:45:03:71,0,-1.04146,-4.0415,6.18667,Q,Q
2023-03-15 13:45:03:81,0,-1.04479,-4.04063,6.17981,Q,Q
2023-03-15 13:45:03:90,0,-1.04522,-4.03494,6.17508,Q,Q
2023-03-15 13:45:03:100,0,-1.04775,-4.02627,6.16611,Q,Q
2023-03-15 13:45:03:110,0,-1.05192,-4.01661,6.15775,Q,Q
2023-03-15 13:45:03:121,0,-1.05846,-4.00507,6.14403,Q,Q
2023-03-15 13:45:03:131,0,-1.0614,-3.99283,6.12853,Q,Q
2023-03-15 13:45:03:141,0,-1.06438,-3.97655,6.11066,Q,Q
2023-03-15 13:45:03:150,0,-1.06227,-3.95477,6.08534,Q,Q
2023-03-15 13:45:03:160,0,-1.05438,-3.92978,6.05362,Q,Q
2023-03-15 13:45:03:170,0,-1.04428,-3.90459,6.01905,Q,Q
2023-03-15 13:45:03:180,0,-1.02987,-3.87995,5.97902,Q,Q
2023-03-15 13:45:03:190,0,-1.0134,-3.85553,5.93903,Q,Q
2023-03-15 13:45:03:200,0,-0.999193,-3.83883,5.9053,Q,Q
2023-03-15 13:45:03:210,0,-0.985822,-3.83123,5.87065,Q,Q
2023-03-15 13:45:03:220,0,-0.975306,-3.82852,5.84008,Q,Q
2023-03-15 13:45:03:230,0,-0.965974,-3.83194,5.80681,Q,Q
2023-03-15 13:45:03:240,0,-0.95906,-3.83758,5.77778,Q,Q
2023-03-15 13:45:03:250,0,-0.94875,-3.84428,5.75626,Q,Q
2023-03-15 13:45:03:260,0,-0.936916,-3.848,5.73298,Q,Q
2023-03-15 13:45:03:270,0,-0.925349,-3.85624,5.71117,Q,Q
2023-03-15 13:45:03:280,0,-0.907143,-3.85861,5.68655,Q,Q
2023-03-15 13:45:03:291,0,-0.883149,-3.86368,5.66154,Q,Q
2023-03-15 13:45:03:300,0,-0.856331,-3.86163,5.63931,Q,Q
2023-03-15 13:45:03:310,0,-0.83228,-3.86241,5.62677,Q,Q
2023-03-15 13:45:03:320,0,-0.809043,-3.86687,5.61738,Q,Q
2023-03-15 13:45:03:330,0,-0.79456,-3.87055,5.61275,Q,Q
2023-03-15 13:45:03:340,0,-0.771116,-3.87219,5.60932,Q,Q
2023-03-15 13:45:03:350,0,-0.744729,-3.87054,5.60817,Q,Q
2023-03-15 13:45:03:360,0,-0.718795,-3.8667,5.60961,Q,Q
2023-03-15 13:45:03:370,0,-0.696592,-3.86474,5.61947,Q,Q
2023-03-15 13:45:03:380,0,-0.68088,-3.86271,5.62986,Q,Q
2023-03-15 13:45:03:390,0,-0.672546,-3.86051,5.64123,Q,Q
2023-03-15 13:45:03:400,0,-0.668299,-3.8585,5.64466,Q,Q
2023-03-15 13:45:03:410,0,-0.664668,-3.85699,5.64758,Q,Q
2023-03-15 13:45:03:420,0,-0.6543,-3.85675,5.65329,Q,Q
2023-03-15 13:45:03:430,0,-0.638882,-3.85574,5.65341,Q,Q
2023-03-15 13:45:03:440,0,-0.625556,-3.85367,5.6525,Q,Q
2023-03-15 13:45:03:450,0,-0.606967,-3.85211,5.65052,Q,Q
2023-03-15 13:45:03:460,0,-0.585427,-3.85193,5.64901,Q,Q
2023-03-15 13:45:03:470,0,-0.563085,-3.85255,5.64241,Q,Q
2023-03-15 13:45:03:480,0,-0.532942,-3.85496,5.63165,Q,Q
2023-03-15 13:45:03:490,0,-0.504132,-3.86308,5.62277,Q,Q
2023-03-15 13:45:03:500,0,-0.476941,-3.8712,5.61155,Q,Q
2023-03-15 13:45:03:510,0,-0.451323,-3.88067,5.59458,Q,Q
2023-03-15 13:45:03:520,0,-0.422831,-3.88926,5.57787,Q,Q
2023-03-15 13:45:03:530,0,-0.393397,-3.90034,5.55799,Q,Q
2023-03-15 13:45:03:540,0,-0.363659,-3.91367,5.53138,Q,Q
2023-03-15 13:45:03:550,0,-0.326746,-3.93273,5.50225,Q,Q
2023-03-15 13:45:03:561,0,-0.287204,-3.94961,5.47125,Q,Q
2023-03-15 13:45:03:571,0,-0.244535,-3.96828,5.43111,Q,Q
