Timestamp_cmd,imu_cmd,roll_delta,pitch_delta,yaw_delta,voice_type,voice_length
2023-03-15 12:57:47:898,0,-4.54909,-10.7445,23.3186,Q,Q
2023-03-15 12:57:47:906,0,-4.51748,-10.7579,23.2772,Q,Q
2023-03-15 12:57:47:916,0,-4.48409,-10.7651,23.2544,Q,Q
2023-03-15 12:57:47:926,0,-4.44974,-10.7664,23.2536,Q,Q
2023-03-15 12:57:47:936,0,-4.41816,-10.7627,23.2704,Q,Q
2023-03-15 12:57:47:946,0,-4.39204,-10.7544,23.3025,Q,Q
2023-03-15 12:57:47:956,0,-4.37035,-10.7396,23.3488,Q,Q
2023-03-15 12:57:47:966,0,-4.35316,-10.7232,23.4091,Q,Q
2023-03-15 12:57:47:976,0,-4.33361,-10.6995,23.4793,Q,Q
2023-03-15 12:57:47:986,0,-4.32035,-10.6746,23.5554,Q,Q
2023-03-15 12:57:47:996,0,-4.31047,-10.6558,23.6332,Q,Q
2023-03-15 12:57:48:6,0,-4.30454,-10.6387,23.7153,Q,Q
2023-03-15 12:57:48:16,0,-4.30672,-10.6252,23.7911,Q,Q
2023-03-15 12:57:48:26,0,-4.31404,-10.6104,23.8647,Q,Q
2023-03-15 12:57:48:36,0,-4.31841,-10.5936,23.9301,Q,Q
2023-03-15 12:57:48:46,0,-4.32631,-10.5832,23.9819,Q,Q
2023-03-15 12:57:48:56,0,-4.33423,-10.5778,24.0238,Q,Q
2023-03-15 12:57:48:66,0,-4.34707,-10.5763,24.056,Q,Q
2023-03-15 12:57:48:76,0,-4.35736,-10.5724,24.0718,Q,Q
2023-03-15 12:57:48:86,0,-4.3662,-10.5703,24.0777,Q,Q
2023-03-15 12:57:48:96,0,-4.37298,-10.5743,24.0666,Q,Q
2023-03-15 12:57:48:106,0,-4.38111,-10.578,24.0453,Q,Q
2023-03-15 12:57:48:116,0,-4.38691,-10.5835,24.0155,Q,Q
2023-03-15 12:57:48:126,0,-4.3935,-10.5908,23.9811,Q,Q
2023-03-15 12:57:48:136,0,-4.39977,-10.601,23.939,Q,Q
2023-03-15 12:57:48:146,0,-4.40914,-10.6063,23.8953,Q,Q
2023-03-15 12:57:48:156,0,-4.41134,-10.6054,23.8521,Q,Q
2023-03-15 12:57:48:166,0,-4.41113,-10.6015,23.811,Q,Q
2023-03-15 12:57:48:176,0,-4.40797,-10.5943,23.7717,Q,Q
2023-03-15 12:57:48:186,0,-4.40579,-10.5843,23.7352,Q,Q
2023-03-15 12:57:48:196,0,-4.40671,-10.578,23.711,Q,Q
2023-03-15 12:57:48:206,0,-4.40964,-10.5734,23.6957,Q,Q
2023-03-15 12:57:48:216,0,-4.41224,-10.5658,23.6866,Q,Q
2023-03-15 12:57:48:226,0,-4.41415,-10.5579,23.6837,Q,Q
2023-03-15 12:57:48:236,0,-4.42368,-10.5505,23.6902,Q,Q
2023-03-15 12:57:48:246,0,-4.43299,-10.5442,23.7014,Q,Q
2023-03-15 12:57:48:256,0,-4.44123,-10.5338,23.7125,Q,Q
2023-03-15 12:57:48:266,0,-4.44928,-10.5277,23.7318,Q,Q
2023-03-15 12:57:48:276,0,-4.46233,-10.5251,23.7574,Q,Q
2023-03-15 12:57:48:286,0,-4.47529,-10.5212,23.784,Q,Q
2023-03-15 12:57:48:296,0,-4.48831,-10.516,23.8106,Q,Q
2023-03-15 12:57:48:306,0,-4.49383,-10.5111,23.8372,Q,Q
2023-03-15 12:57:48:316,0,-4.502,-10.5143,23.8607,Q,Q
2023-03-15 12:57:48:326,0,-4.5162,-10.5238,23.8856,Q,Q
2023-03-15 12:57:48:336,0,-4.53801,-10.5277,23.9105,Q,Q
2023-03-15 12:57:48:346,0,-4.54958,-10.5318,23.9292,Q,Q
2023-03-15 12:57:48:356,0,-4.55933,-10.538,23.9472,Q,Q
2023-03-15 12:57:48:366,0,-4.57313,-10.5407,23.9618,Q,Q
2023-03-15 12:57:48:376,0,-4.58319,-10.5512,23.9731,Q,Q
2023-03-15 12:57:48:386,0,-4.59455,-10.5587,23.9843,Q,Q
2023-03-15 12:57:48:396,0,-4.60226,-10.5659,23.9935,Q,Q
2023-03-15 12:57:48:406,0,-4.60922,-10.5726,24.001,Q,Q
2023-03-15 12:57:48:416,0,-4.6167,-10.5802,24.0037,Q,Q
2023-03-15 12:57:48:426,0,-4.62384,-10.5837,24.0077,Q,Q
2023-03-15 12:57:48:436,0,-4.62692,-10.5869,24.0065,Q,Q
2023-03-15 12:57:48:446,0,-4.62922,-10.5942,24.0075,Q,Q
2023-03-15 12:57:48:456,0,-4.6286,-10.5959,24.0105,Q,Q
2023-03-15 12:57:48:466,0,-4.6294,-10.5993,24.0106,Q,Q
2023-03-15 12:57:48:476,0,-4.63348,-10.6001,24.0126,Q,Q
2023-03-15 12:57:48:486,0,-4.6317,-10.5996,24.0119,Q,Q
2023-03-15 12:57:48:496,0,-4.63218,-10.5992,24.0127,Q,Q
2023-03-15 12:57:48:506,0,-4.63743,-10.5937,24.0161,Q,Q
2023-03-15 12:57:48:516,0,-4.64475,-10.588,24.0242,Q,Q
2023-03-15 12:57:48:526,0,-4.65517,-10.5751,24.0301,Q,Q
2023-03-15 12:57:48:536,0,-4.66847,-10.5683,24.0302,Q,Q
2023-03-15 12:57:48:546,0,-4.6828,-10.557,24.0338,Q,Q
2023-03-15 12:57:48:556,0,-4.69842,-10.5471,24.0382,Q,Q
2023-03-15 12:57:48:566,0,-4.71859,-10.541,24.0414,Q,Q
2023-03-15 12:57:48:576,0,-4.74103,-10.5302,24.0428,Q,Q
2023-03-15 12:57:48:586,0,-4.76178,-10.5194,24.0441,Q,Q
2023-03-15 12:57:48:596,0,-4.78446,-10.5054,24.0432,Q,Q
2023-03-15 12:57:48:606,0,-4.80646,-10.4924,24.038,Q,Q
2023-03-15 12:57:48:616,0,-4.82525,-10.4834,24.0355,Q,Q
2023-03-15 12:57:48:626,0,-4.84832,-10.4778,24.0325,Q,Q
2023-03-15 12:57:48:636,0,-4.86789,-10.474,24.0293,Q,Q
2023-03-15 12:57:48:646,0,-4.88569,-10.4722,24.0274,Q,Q
2023-03-15 12:57:48:656,0,-4.90432,-10.4724,24.0245,Q,Q
2023-03-15 12:57:48:666,0,-4.91837,-10.4725,24.0186,Q,Q
2023-03-15 12:57:48:676,0,-4.9282,-10.4735,24.0139,Q,Q
2023-03-15 12:57:48:686,0,-4.9374,-10.4741,24.009,Q,Q
2023-03-15 12:57:48:696,0,-4.9453,-10.4756,23.9994,Q,Q
2023-03-15 12:57:48:706,0,-4.94648,-10.4745,23.9884,Q,Q
2023-03-15 12:57:48:716,0,-4.94928,-10.4814,23.9722,Q,Q
2023-03-15 12:57:48:726,0,-4.95278,-10.4891,23.9541,Q,Q
2023-03-15 12:57:48:736,0,-4.9592,-10.4971,23.929,Q,Q
2023-03-15 12:57:48:746,0,-4.97046,-10.5057,23.8973,Q,Q
2023-03-15 12:57:48:756,0,-4.98704,-10.5181,23.855,Q,Q
2023-03-15 12:57:48:766,0,-5.00615,-10.5349,23.8042,Q,Q
2023-03-15 12:57:48:776,0,-5.02012,-10.5506,23.7452,Q,Q
2023-03-15 12:57:48:786,0,-5.03029,-10.5692,23.6798,Q,Q
2023-03-15 12:57:48:796,0,-5.033,-10.591,23.6051,Q,Q
2023-03-15 12:57:48:806,0,-5.02939,-10.6203,23.5242,Q,Q
2023-03-15 12:57:48:816,0,-5.01437,-10.6532,23.4436,Q,Q
2023-03-15 12:57:48:826,0,-4.99657,-10.6822,23.3589,Q,Q
2023-03-15 12:57:48:836,0,-4.98087,-10.6982,23.28,Q,Q
2023-03-15 12:57:48:846,0,-4.96672,-10.7075,23.2072,Q,Q
2023-03-15 12:57:48:856,0,-4.96682,-10.7196,23.1435,Q,Q
2023-03-15 12:57:48:866,0,-4.97213,-10.7294,23.0808,Q,Q
2023-03-15 12:57:48:876,0,-4.98088,-10.7362,23.0204,Q,Q
2023-03-15 12:57:48:886,0,-4.98476,-10.7416,22.9693,Q,Q
2023-03-15 12:57:48:896,0,-4.98439,-10.736,22.9244,Q,Q
2023-03-15 12:57:48:906,0,-4.99303,-10.7273,22.8845,Q,Q
2023-03-15 12:57:48:916,0,-5.01415,-10.712,22.8507,Q,Q
2023-03-15 12:57:48:926,0,-5.04841,-10.6888,22.8204,Q,Q
2023-03-15 12:57:48:936,0,-5.08625,-10.6603,22.7941,Q,Q
2023-03-15 12:57:48:946,0,-5.12143,-10.6359,22.7681,Q,Q
2023-03-15 12:57:48:956,0,-5.14821,-10.6094,22.7403,Q,Q
2023-03-15 12:57:48:966,0,-5.17393,-10.5787,22.7184,Q,Q
2023-03-15 12:57:48:976,0,-5.19027,-10.5574,22.7041,Q,Q
2023-03-15 12:57:48:986,0,-5.1996,-10.5414,22.6918,Q,Q
2023-03-15 12:57:48:996,0,-5.20138,-10.5342,22.6856,Q,Q
2023-03-15 12:57:49:6,0,-5.20079,-10.5305,22.6894,Q,Q
2023-03-15 12:57:49:16,0,-5.20494,-10.5253,22.6922,Q,Q
2023-03-15 12:57:49:26,0,-5.20934,-10.524,22.6981,Q,Q
2023-03-15 12:57:49:36,0,-5.21597,-10.5248,22.7097,Q,Q
2023-03-15 12:57:49:46,0,-5.23204,-10.5222,22.7235,Q,Q
2023-03-15 12:57:49:56,0,-5.25519,-10.5184,22.7381,Q,Q
2023-03-15 12:57:49:66,0,-5.27781,-10.5175,22.7536,Q,Q
2023-03-15 12:57:49:76,0,-5.29664,-10.5191,22.7732,Q,Q
2023-03-15 12:57:49:86,0,-5.325,-10.5274,22.7941,Q,Q
2023-03-15 12:57:49:96,0,-5.35801,-10.5285,22.8163,Q,Q
2023-03-15 12:57:49:106,0,-5.39318,-10.5273,22.8393,Q,Q
2023-03-15 12:57:49:116,0,-5.42811,-10.5247,22.861,Q,Q
2023-03-15 12:57:49:126,0,-5.45822,-10.5199,22.8819,Q,Q
2023-03-15 12:57:49:136,0,-5.4853,-10.5131,22.9047,Q,Q
2023-03-15 12:57:49:146,0,-5.51091,-10.5078,22.9273,Q,Q
2023-03-15 12:57:49:156,0,-5.53591,-10.5072,22.9519,Q,Q
2023-03-15 12:57:49:166,0,-5.55459,-10.5057,22.9768,Q,Q
2023-03-15 12:57:49:176,0,-5.57101,-10.5107,23.0075,Q,Q
2023-03-15 12:57:49:186,0,-5.59249,-10.5127,23.0388,Q,Q
2023-03-15 12:57:49:196,0,-5.61255,-10.5107,23.0708,Q,Q
2023-03-15 12:57:49:206,0,-5.63354,-10.5116,23.1031,Q,Q
2023-03-15 12:57:49:216,0,-5.64687,-10.5076,23.1331,Q,Q
2023-03-15 12:57:49:226,0,-5.64521,-10.5005,23.1728,Q,Q
2023-03-15 12:57:49:236,0,-5.63486,-10.4818,23.2299,Q,Q
2023-03-15 12:57:49:246,0,-5.62901,-10.4592,23.3087,Q,Q
2023-03-15 12:57:49:256,0,-5.61944,-10.426,23.4173,Q,Q
2023-03-15 12:57:49:266,0,-5.6183,-10.3778,23.5612,Q,Q
2023-03-15 12:57:49:276,0,-5.63359,-10.3091,23.7417,Q,Q
2023-03-15 12:57:49:286,0,-5.66415,-10.2143,23.9772,Q,Q
2023-03-15 12:57:49:296,0,-5.71499,-10.0872,24.2831,Q,Q
2023-03-15 12:57:49:306,0,-5.7748,-9.93155,24.666,Q,Q
2023-03-15 12:57:49:316,0,-5.83344,-9.75736,25.1323,Q,Q
2023-03-15 12:57:49:326,0,-5.87867,-9.5664,25.6811,Q,Q
2023-03-15 12:57:49:336,0,-5.91036,-9.35867,26.3083,Q,Q
2023-03-15 12:57:49:346,0,-5.92984,-9.12193,27.0116,Q,Q
2023-03-15 12:57:49:356,0,-5.92852,-8.86139,27.7836,Q,Q
2023-03-15 12:57:49:366,0,-5.90796,-8.58152,28.619,Q,Q
2023-03-15 12:57:49:376,0,-5.88077,-8.29004,29.5081,Q,Q
2023-03-15 12:57:49:386,0,-5.84526,-7.99517,30.4304,Q,Q
2023-03-15 12:57:49:396,0,-5.79902,-7.70062,31.3801,Q,Q
2023-03-15 12:57:49:406,0,-5.74311,-7.40923,32.3504,Q,Q
2023-03-15 12:57:49:416,0,-5.68045,-7.12256,33.325,Q,Q
2023-03-15 12:57:49:426,0,-5.6141,-6.84277,34.2942,Q,Q
2023-03-15 12:57:49:436,0,-5.5388,-6.57644,35.242,Q,Q
2023-03-15 12:57:49:446,0,-5.4551,-6.33242,36.1633,Q,Q
2023-03-15 12:57:49:456,0,-5.37418,-6.1063,37.0478,Q,Q
2023-03-15 12:57:49:466,0,-5.29322,-5.90198,37.8784,Q,Q
2023-03-15 12:57:49:476,0,-5.21663,-5.72023,38.6466,Q,Q
2023-03-15 12:57:49:486,0,-5.14675,-5.56729,39.3492,Q,Q
2023-03-15 12:57:49:496,0,-5.07964,-5.43913,39.9739,Q,Q
2023-03-15 12:57:49:506,0,-5.02299,-5.33206,40.5205,Q,Q
2023-03-15 12:57:49:516,0,-4.96872,-5.25166,40.993,Q,Q
2023-03-15 12:57:49:526,0,-4.91983,-5.19364,41.3884,Q,Q
2023-03-15 12:57:49:536,0,-4.8711,-5.15695,41.7183,Q,Q
2023-03-15 12:57:49:546,0,-4.82798,-5.13787,41.9774,Q,Q
2023-03-15 12:57:49:556,0,-4.78459,-5.13674,42.1741,Q,Q
2023-03-15 12:57:49:566,0,-4.74245,-5.1493,42.3164,Q,Q
2023-03-15 12:57:49:576,0,-4.69964,-5.17436,42.408,Q,Q
2023-03-15 12:57:49:586,0,-4.65862,-5.21364,42.4537,Q,Q
2023-03-15 12:57:49:596,0,-4.62279,-5.26572,42.4609,Q,Q
2023-03-15 12:57:49:606,0,-4.5908,-5.3214,42.4337,Q,Q
2023-03-15 12:57:49:616,0,-4.5561,-5.38036,42.3812,Q,Q
2023-03-15 12:57:49:626,0,-4.51915,-5.43766,42.307,Q,Q
2023-03-15 12:57:49:636,0,-4.49183,-5.49053,42.2167,Q,Q
2023-03-15 12:57:49:646,0,-4.4693,-5.54696,42.1083,Q,Q
2023-03-15 12:57:49:656,0,-4.45112,-5.60509,41.9931,Q,Q
2023-03-15 12:57:49:668,0,-4.4342,-5.66037,41.8705,Q,Q
2023-03-15 12:57:49:676,0,-4.42103,-5.71424,41.7381,Q,Q
2023-03-15 12:57:49:686,0,-4.41475,-5.76572,41.5925,Q,Q
2023-03-15 12:57:49:696,0,-4.41803,-5.82057,41.4367,Q,Q
2023-03-15 12:57:49:706,0,-4.42754,-5.8744,41.2706,Q,Q
2023-03-15 12:57:49:716,0,-4.44369,-5.93653,41.0936,Q,Q
2023-03-15 12:57:49:726,0,-4.46801,-5.99596,40.9054,Q,Q
2023-03-15 12:57:49:736,0,-4.49398,-6.05608,40.7079,Q,Q
2023-03-15 12:57:49:746,0,-4.53166,-6.12657,40.4933,Q,Q
2023-03-15 12:57:49:756,0,-4.57735,-6.20591,40.2608,Q,Q
2023-03-15 12:57:49:766,0,-4.63049,-6.29672,39.9996,Q,Q
2023-03-15 12:57:49:776,0,-4.68501,-6.40383,39.7066,Q,Q
2023-03-15 12:57:49:786,0,-4.74742,-6.53353,39.3706,Q,Q
2023-03-15 12:57:49:796,0,-4.81961,-6.68452,38.9822,Q,Q
2023-03-15 12:57:49:806,0,-4.89564,-6.85182,38.5346,Q,Q
2023-03-15 12:57:49:816,0,-4.97163,-7.04146,38.0234,Q,Q
2023-03-15 12:57:49:826,0,-5.0492,-7.24173,37.4467,Q,Q
2023-03-15 12:57:49:836,0,-5.12644,-7.45292,36.8055,Q,Q
2023-03-15 12:57:49:846,0,-5.19899,-7.67545,36.1085,Q,Q
2023-03-15 12:57:49:856,0,-5.26445,-7.91116,35.3575,Q,Q
2023-03-15 12:57:49:866,0,-5.30989,-8.15375,34.5545,Q,Q
2023-03-15 12:57:49:876,0,-5.32625,-8.40319,33.715,Q,Q
2023-03-15 12:57:49:886,0,-5.31356,-8.66098,32.8429,Q,Q
2023-03-15 12:57:49:896,0,-5.28105,-8.93401,31.945,Q,Q
2023-03-15 12:57:49:906,0,-5.23128,-9.19041,31.0296,Q,Q
2023-03-15 12:57:49:916,0,-5.16476,-9.43252,30.0896,Q,Q
2023-03-15 12:57:49:926,0,-5.09022,-9.65919,29.1336,Q,Q
2023-03-15 12:57:49:936,0,-5.00594,-9.86815,28.1678,Q,Q
2023-03-15 12:57:49:946,0,-4.91518,-10.0619,27.2052,Q,Q
2023-03-15 12:57:49:956,0,-4.80787,-10.2452,26.2565,Q,Q
2023-03-15 12:57:49:966,0,-4.69467,-10.4172,25.3314,Q,Q
2023-03-15 12:57:49:976,0,-4.57983,-10.5724,24.4448,Q,Q
2023-03-15 12:57:49:986,0,-4.47534,-10.7043,23.5958,Q,Q
2023-03-15 12:57:49:996,0,-4.39134,-10.8079,22.7793,Q,Q
2023-03-15 12:57:50:6,0,-4.33976,-10.876,21.9989,Q,Q
2023-03-15 12:57:50:16,0,-4.31733,-10.9122,21.2483,Q,Q
2023-03-15 12:57:50:26,0,-4.32155,-10.9196,20.5239,Q,Q
2023-03-15 12:57:50:36,0,-4.34021,-10.9057,19.8274,Q,Q
2023-03-15 12:57:50:46,0,-4.36534,-10.8768,19.1636,Q,Q
2023-03-15 12:57:50:56,0,-4.38246,-10.8419,18.5373,Q,Q
2023-03-15 12:57:50:66,0,-4.38342,-10.8021,17.9508,Q,Q
2023-03-15 12:57:50:76,0,-4.3584,-10.7615,17.3992,Q,Q
2023-03-15 12:57:50:86,0,-4.3062,-10.7209,16.8858,Q,Q
2023-03-15 12:57:50:96,0,-4.23283,-10.6801,16.4087,Q,Q
2023-03-15 12:57:50:106,0,-4.13755,-10.6414,15.9588,Q,Q
2023-03-15 12:57:50:116,0,-4.02168,-10.6061,15.5315,Q,Q
2023-03-15 12:57:50:126,0,-3.88964,-10.5695,15.129,Q,Q
2023-03-15 12:57:50:136,0,-3.73532,-10.5307,14.7381,Q,Q
2023-03-15 12:57:50:146,0,-3.55971,-10.493,14.3574,Q,Q
2023-03-15 12:57:50:156,0,-3.36964,-10.4527,13.9774,Q,Q
2023-03-15 12:57:50:166,0,-3.17645,-10.4001,13.5906,Q,Q
2023-03-15 12:57:50:176,0,-2.984,-10.3326,13.1974,Q,Q
2023-03-15 12:57:50:186,0,-2.77853,-10.2557,12.7944,Q,Q
2023-03-15 12:57:50:196,0,-2.55268,-10.1635,12.3825,Q,Q
2023-03-15 12:57:50:206,0,-2.31762,-10.0671,11.9588,Q,Q
2023-03-15 12:57:50:216,0,-2.08317,-9.9635,11.5181,Q,Q
2023-03-15 12:57:50:226,0,-1.85313,-9.83523,11.0609,Q,Q
2023-03-15 12:57:50:236,0,-1.62685,-9.691,10.5753,Q,Q
2023-03-15 12:57:50:246,0,-1.40547,-9.54244,10.0585,Q,Q
2023-03-15 12:57:50:256,0,-1.20272,-9.38739,9.51839,Q,Q
2023-03-15 12:57:50:266,0,-1.01237,-9.2049,8.95113,Q,Q
2023-03-15 12:57:50:276,0,-0.820732,-9.00259,8.35033,Q,Q
2023-03-15 12:57:50:286,0,-0.629913,-8.78988,7.72417,Q,Q
2023-03-15 12:57:50:296,0,-0.445442,-8.56329,7.07257,Q,Q
2023-03-15 12:57:50:306,0,-0.262384,-8.32062,6.40837,Q,Q
2023-03-15 12:57:50:316,0,-0.0732615,-8.06591,5.72608,Q,Q
2023-03-15 12:57:50:326,0,0.122088,-7.79687,5.02844,Q,Q
2023-03-15 12:57:50:336,0,0.324237,-7.51544,4.31099,Q,Q
2023-03-15 12:57:50:346,0,0.528088,-7.20832,3.56879,Q,Q
2023-03-15 12:57:50:356,0,0.743663,-6.83307,2.79799,Q,Q
2023-03-15 12:57:50:366,0,0.979878,-6.40997,1.98805,Q,Q
2023-03-15 12:57:50:376,0,1.22533,-5.97187,1.14989,Q,Q
2023-03-15 12:57:50:386,0,1.46201,-5.49535,0.303748,Q,Q
2023-03-15 12:57:50:396,0,1.69404,-4.98939,-0.552724,Q,Q
2023-03-15 12:57:50:406,0,1.9219,-4.46192,-1.41039,Q,Q
2023-03-15 12:57:50:416,0,2.14515,-3.90819,-2.25701,Q,Q
2023-03-15 12:57:50:426,0,2.3593,-3.33413,-3.08871,Q,Q
2023-03-15 12:57:50:436,0,2.54904,-2.75437,-3.90519,Q,Q
2023-03-15 12:57:50:446,0,2.70562,-2.16711,-4.69559,Q,Q
2023-03-15 12:57:50:456,0,2.80797,-1.57812,-5.45337,Q,Q
2023-03-15 12:57:50:466,0,2.84593,-0.987757,-6.19306,Q,Q
2023-03-15 12:57:50:476,0,2.78257,-0.401288,-6.90023,Q,Q
2023-03-15 12:57:50:486,0,2.60958,0.16002,-7.57777,Q,Q
2023-03-15 12:57:50:496,0,2.33701,0.673622,-8.22173,Q,Q
2023-03-15 12:57:50:506,0,1.98465,1.11861,-8.81918,Q,Q
2023-03-15 12:57:50:516,0,1.58852,1.48664,-9.36117,Q,Q
2023-03-15 12:57:50:526,0,1.16759,1.77156,-9.85103,Q,Q
2023-03-15 12:57:50:536,0,0.746013,1.98111,-10.2918,Q,Q
2023-03-15 12:57:50:546,0,0.341964,2.11945,-10.6779,Q,Q
2023-03-15 12:57:50:556,0,-0.0314869,2.21389,-11.0179,Q,Q
2023-03-15 12:57:50:566,0,-0.380094,2.26858,-11.3116,Q,Q
2023-03-15 12:57:50:576,0,-0.704673,2.29733,-11.5538,Q,Q
2023-03-15 12:57:50:586,0,-1.01832,2.30705,-11.7589,Q,Q
2023-03-15 12:57:50:596,0,-1.32326,2.29466,-11.923,Q,Q
2023-03-15 12:57:50:606,0,-1.61014,2.26571,-12.0491,Q,Q
2023-03-15 12:57:50:616,0,-1.87561,2.21911,-12.134,Q,Q
2023-03-15 12:57:50:626,0,-2.1073,2.14304,-12.1858,Q,Q
2023-03-15 12:57:50:636,0,-2.3271,2.02681,-12.2095,Q,Q
2023-03-15 12:57:50:646,0,-2.53235,1.90311,-12.2051,Q,Q
2023-03-15 12:57:50:656,0,-2.70842,1.79874,-12.1822,Q,Q
2023-03-15 12:57:50:666,0,-2.84774,1.69475,-12.1474,Q,Q
2023-03-15 12:57:50:676,0,-2.96676,1.58271,-12.1017,Q,Q
2023-03-15 12:57:50:686,0,-3.07775,1.45575,-12.0439,Q,Q
2023-03-15 12:57:50:696,0,-3.19701,1.33184,-11.9721,Q,Q
2023-03-15 12:57:50:706,0,-3.30466,1.21784,-11.8932,Q,Q
2023-03-15 12:57:50:716,0,-3.40047,1.07877,-11.808,Q,Q
2023-03-15 12:57:50:726,0,-3.48593,0.949037,-11.708,Q,Q
2023-03-15 12:57:50:736,0,-3.54608,0.838098,-11.6004,Q,Q
2023-03-15 12:57:50:746,0,-3.5797,0.69899,-11.4935,Q,Q
2023-03-15 12:57:50:756,0,-3.60987,0.540935,-11.3666,Q,Q
2023-03-15 12:57:50:766,0,-3.63717,0.402094,-11.2189,Q,Q
2023-03-15 12:57:50:776,0,-3.65288,0.266517,-11.0654,Q,Q
2023-03-15 12:57:50:786,0,-3.64713,0.127013,-10.902,Q,Q
2023-03-15 12:57:50:796,0,-3.62706,-0.0112781,-10.7205,Q,Q
2023-03-15 12:57:50:806,0,-3.61103,-0.150715,-10.5227,Q,Q
2023-03-15 12:57:50:816,0,-3.61126,-0.295316,-10.3103,Q,Q
2023-03-15 12:57:50:826,0,-3.61842,-0.451286,-10.0838,Q,Q
2023-03-15 12:57:50:836,0,-3.6194,-0.615348,-9.8395,Q,Q
2023-03-15 12:57:50:846,0,-3.59691,-0.77874,-9.57774,Q,Q
2023-03-15 12:57:50:856,0,-3.54727,-0.943356,-9.30053,Q,Q
2023-03-15 12:57:50:866,0,-3.48188,-1.09903,-9.00935,Q,Q
2023-03-15 12:57:50:875,0,-3.39447,-1.24485,-8.70637,Q,Q
2023-03-15 12:57:50:886,0,-3.2938,-1.38355,-8.39138,Q,Q
2023-03-15 12:57:50:895,0,-3.18702,-1.5149,-8.07096,Q,Q
2023-03-15 12:57:50:905,0,-3.06874,-1.64185,-7.74443,Q,Q
2023-03-15 12:57:50:915,0,-2.94451,-1.76239,-7.41345,Q,Q
2023-03-15 12:57:50:925,0,-2.80736,-1.87143,-7.09701,Q,Q
2023-03-15 12:57:50:935,0,-2.6553,-1.97288,-6.78393,Q,Q
2023-03-15 12:57:50:945,0,-2.48986,-2.05581,-6.48762,Q,Q
2023-03-15 12:57:50:955,0,-2.31376,-2.11665,-6.2017,Q,Q
2023-03-15 12:57:50:965,0,-2.12596,-2.16639,-5.91858,Q,Q
2023-03-15 12:57:50:975,0,-1.93137,-2.20523,-5.6487,Q,Q
2023-03-15 12:57:50:986,0,-1.73796,-2.23768,-5.37783,Q,Q
2023-03-15 12:57:50:996,0,-1.5423,-2.26067,-5.11315,Q,Q
2023-03-15 12:57:51:6,0,-1.3516,-2.2782,-4.86659,Q,Q
2023-03-15 12:57:51:16,0,-1.1858,-2.28922,-4.63339,Q,Q
2023-03-15 12:57:51:26,0,-1.05022,-2.29263,-4.41804,Q,Q
2023-03-15 12:57:51:36,0,-0.965115,-2.27816,-4.22118,Q,Q
2023-03-15 12:57:51:46,0,-0.93479,-2.24755,-4.04299,Q,Q
2023-03-15 12:57:51:56,0,-0.946313,-2.20682,-3.88912,Q,Q
2023-03-15 12:57:51:66,0,-0.983409,-2.16377,-3.75205,Q,Q
2023-03-15 12:57:51:76,0,-1.03759,-2.12086,-3.63544,Q,Q
2023-03-15 12:57:51:86,0,-1.09575,-2.08569,-3.53002,Q,Q
2023-03-15 12:57:51:96,0,-1.1514,-2.05961,-3.43757,Q,Q
2023-03-15 12:57:51:106,0,-1.19,-2.04368,-3.35315,Q,Q
2023-03-15 12:57:51:116,0,-1.21346,-2.03534,-3.27848,Q,Q
2023-03-15 12:57:51:126,0,-1.21433,-2.03698,-3.21396,Q,Q
2023-03-15 12:57:51:136,0,-1.19496,-2.03463,-3.15731,Q,Q
2023-03-15 12:57:51:146,0,-1.16799,-2.0285,-3.11538,Q,Q
2023-03-15 12:57:51:156,0,-1.13579,-2.01733,-3.08692,Q,Q
2023-03-15 12:57:51:166,0,-1.10705,-1.99937,-3.0712,Q,Q
2023-03-15 12:57:51:176,0,-1.07793,-1.97945,-3.07034,Q,Q
2023-03-15 12:57:51:186,0,-1.04779,-1.95768,-3.0751,Q,Q
2023-03-15 12:57:51:196,0,-1.02036,-1.93778,-3.08659,Q,Q
2023-03-15 12:57:51:206,0,-0.998471,-1.92319,-3.09745,Q,Q
2023-03-15 12:57:51:216,0,-0.981412,-1.91824,-3.10871,Q,Q
2023-03-15 12:57:51:226,0,-0.968392,-1.93037,-3.1162,Q,Q
2023-03-15 12:57:51:236,0,-0.954855,-1.9548,-3.12001,Q,Q
2023-03-15 12:57:51:246,0,-0.936165,-1.98514,-3.1218,Q,Q
2023-03-15 12:57:51:256,0,-0.918919,-2.03103,-3.11614,Q,Q
2023-03-15 12:57:51:266,0,-0.900884,-2.08598,-3.10331,Q,Q
2023-03-15 12:57:51:276,0,-0.883388,-2.1488,-3.08044,Q,Q
2023-03-15 12:57:51:286,0,-0.86632,-2.21453,-3.05234,Q,Q
2023-03-15 12:57:51:296,0,-0.842336,-2.28464,-3.01683,Q,Q
2023-03-15 12:57:51:306,0,-0.816154,-2.35662,-2.97689,Q,Q
2023-03-15 12:57:51:316,0,-0.788439,-2.42508,-2.93188,Q,Q
2023-03-15 12:57:51:326,0,-0.758597,-2.49422,-2.88027,Q,Q
2023-03-15 12:57:51:336,0,-0.717366,-2.5619,-2.82357,Q,Q
2023-03-15 12:57:51:346,0,-0.667944,-2.63308,-2.75483,Q,Q
2023-03-15 12:57:51:356,0,-0.612924,-2.71187,-2.68352,Q,Q
2023-03-15 12:57:51:366,0,-0.55444,-2.79064,-2.6063,Q,Q
2023-03-15 12:57:51:376,0,-0.492997,-2.87029,-2.52495,Q,Q
2023-03-15 12:57:51:386,0,-0.428237,-2.94979,-2.44453,Q,Q
2023-03-15 12:57:51:396,0,-0.363942,-3.03837,-2.36117,Q,Q
2023-03-15 12:57:51:406,0,-0.303594,-3.12669,-2.2768,Q,Q
2023-03-15 12:57:51:416,0,-0.245096,-3.21829,-2.19037,Q,Q
2023-03-15 12:57:51:426,0,-0.187168,-3.3097,-2.10404,Q,Q
2023-03-15 12:57:51:436,0,-0.134113,-3.41348,-2.01181,Q,Q
2023-03-15 12:57:51:446,0,-0.0853319,-3.52145,-1.91201,Q,Q
2023-03-15 12:57:51:456,0,-0.0376506,-3.62742,-1.81205,Q,Q
2023-03-15 12:57:51:466,0,0.00484495,-3.73431,-1.70959,Q,Q
2023-03-15 12:57:51:476,0,0.0389349,-3.83771,-1.60289,Q,Q
2023-03-15 12:57:51:486,0,0.0677447,-3.9409,-1.49256,Q,Q
2023-03-15 12:57:51:496,0,0.0872889,-4.03533,-1.38159,Q,Q
2023-03-15 12:57:51:506,0,0.0985203,-4.12317,-1.27038,Q,Q
2023-03-15 12:57:51:516,0,0.105905,-4.20471,-1.15712,Q,Q
2023-03-15 12:57:51:526,0,0.101007,-4.28568,-1.0402,Q,Q
2023-03-15 12:57:51:536,0,0.0925637,-4.36311,-0.927583,Q,Q
2023-03-15 12:57:51:546,0,0.0845101,-4.43729,-0.812508,Q,Q
2023-03-15 12:57:51:556,0,0.0753334,-4.50648,-0.692859,Q,Q
2023-03-15 12:57:51:566,0,0.0659171,-4.57362,-0.57327,Q,Q
2023-03-15 12:57:51:576,0,0.0530816,-4.64157,-0.451215,Q,Q
2023-03-15 12:57:51:586,0,0.0442158,-4.70295,-0.328486,Q,Q
2023-03-15 12:57:51:596,0,0.0275955,-4.75989,-0.207165,Q,Q
2023-03-15 12:57:51:606,0,0.00788975,-4.81516,-0.0839288,Q,Q
2023-03-15 12:57:51:616,0,-0.0182032,-4.86512,0.0432215,Q,Q
2023-03-15 12:57:51:626,0,-0.0572159,-4.91338,0.162607,Q,Q
2023-03-15 12:57:51:636,0,-0.104109,-4.95591,0.281445,Q,Q
2023-03-15 12:57:51:646,0,-0.157318,-4.98283,0.392837,Q,Q
2023-03-15 12:57:51:656,0,-0.210323,-5.00642,0.498052,Q,Q
2023-03-15 12:57:51:666,0,-0.270913,-5.02628,0.598159,Q,Q
2023-03-15 12:57:51:676,0,-0.343657,-5.04272,0.694076,Q,Q
2023-03-15 12:57:51:686,0,-0.422708,-5.06591,0.786707,Q,Q
2023-03-15 12:57:51:696,0,-0.508352,-5.08533,0.871807,Q,Q
2023-03-15 12:57:51:706,0,-0.591588,-5.10613,0.949967,Q,Q
2023-03-15 12:57:51:716,0,-0.671769,-5.12306,1.02717,Q,Q
2023-03-15 12:57:51:726,0,-0.75044,-5.14183,1.09465,Q,Q
2023-03-15 12:57:51:736,0,-0.826436,-5.16294,1.15642,Q,Q
2023-03-15 12:57:51:746,0,-0.903042,-5.17929,1.21296,Q,Q
2023-03-15 12:57:51:756,0,-0.975833,-5.19247,1.26232,Q,Q
2023-03-15 12:57:51:766,0,-1.04317,-5.19758,1.30122,Q,Q
2023-03-15 12:57:51:776,0,-1.10446,-5.19888,1.33085,Q,Q
2023-03-15 12:57:51:786,0,-1.15677,-5.19542,1.35612,Q,Q
2023-03-15 12:57:51:796,0,-1.20701,-5.19908,1.37696,Q,Q
2023-03-15 12:57:51:806,0,-1.24971,-5.20414,1.39498,Q,Q
2023-03-15 12:57:51:816,0,-1.29308,-5.20872,1.41003,Q,Q
2023-03-15 12:57:51:826,0,-1.33701,-5.21303,1.4192,Q,Q
2023-03-15 12:57:51:836,0,-1.38546,-5.22021,1.42395,Q,Q
2023-03-15 12:57:51:846,0,-1.43876,-5.22579,1.42547,Q,Q
2023-03-15 12:57:51:856,0,-1.49203,-5.22911,1.42302,Q,Q
2023-03-15 12:57:51:866,0,-1.54578,-5.23124,1.42026,Q,Q
2023-03-15 12:57:51:876,0,-1.60016,-5.23521,1.41743,Q,Q
2023-03-15 12:57:51:886,0,-1.66167,-5.23947,1.42382,Q,Q
2023-03-15 12:57:51:896,0,-1.72197,-5.2419,1.43085,Q,Q
2023-03-15 12:57:51:906,0,-1.77843,-5.24267,1.43621,Q,Q
2023-03-15 12:57:51:916,0,-1.8348,-5.25018,1.4465,Q,Q
2023-03-15 12:57:51:926,0,-1.89469,-5.2558,1.46243,Q,Q
2023-03-15 12:57:51:935,0,-1.95816,-5.26048,1.48225,Q,Q
2023-03-15 12:57:51:946,0,-2.02513,-5.26683,1.50637,Q,Q
2023-03-15 12:57:51:956,0,-2.09336,-5.27061,1.53406,Q,Q
2023-03-15 12:57:51:966,0,-2.15875,-5.27444,1.56271,Q,Q
2023-03-15 12:57:51:976,0,-2.21867,-5.27929,1.59413,Q,Q
2023-03-15 12:57:51:986,0,-2.27367,-5.28335,1.62684,Q,Q
2023-03-15 12:57:51:996,0,-2.32279,-5.28867,1.66312,Q,Q
2023-03-15 12:57:52:6,0,-2.36732,-5.29267,1.70209,Q,Q
2023-03-15 12:57:52:16,0,-2.40423,-5.30493,1.74131,Q,Q
2023-03-15 12:57:52:26,0,-2.43818,-5.31918,1.78416,Q,Q
2023-03-15 12:57:52:36,0,-2.47345,-5.32646,1.82474,Q,Q
2023-03-15 12:57:52:46,0,-2.49944,-5.329,1.86788,Q,Q
2023-03-15 12:57:52:56,0,-2.5189,-5.33819,1.91243,Q,Q
2023-03-15 12:57:52:66,0,-2.54609,-5.3507,1.95498,Q,Q
2023-03-15 12:57:52:76,0,-2.57563,-5.36009,1.9994,Q,Q
2023-03-15 12:57:52:86,0,-2.60409,-5.37162,2.04501,Q,Q
2023-03-15 12:57:52:96,0,-2.63465,-5.37994,2.08953,Q,Q
2023-03-15 12:57:52:106,0,-2.66034,-5.38626,2.1358,Q,Q
2023-03-15 12:57:52:116,0,-2.6868,-5.39431,2.18037,Q,Q
2023-03-15 12:57:52:126,0,-2.71294,-5.40061,2.23084,Q,Q
2023-03-15 12:57:52:136,0,-2.73855,-5.40725,2.28254,Q,Q
2023-03-15 12:57:52:146,0,-2.76843,-5.41321,2.33225,Q,Q
2023-03-15 12:57:52:156,0,-2.80774,-5.42052,2.39142,Q,Q
2023-03-15 12:57:52:166,0,-2.8457,-5.41679,2.44594,Q,Q
2023-03-15 12:57:52:176,0,-2.89053,-5.41066,2.4991,Q,Q
2023-03-15 12:57:52:186,0,-2.93785,-5.40291,2.55693,Q,Q
2023-03-15 12:57:52:196,0,-2.98565,-5.39141,2.61258,Q,Q
2023-03-15 12:57:52:206,0,-3.03522,-5.37492,2.66749,Q,Q
2023-03-15 12:57:52:216,0,-3.08074,-5.34909,2.7168,Q,Q
2023-03-15 12:57:52:226,0,-3.1165,-5.32161,2.76095,Q,Q
2023-03-15 12:57:52:236,0,-3.14345,-5.29862,2.80636,Q,Q
2023-03-15 12:57:52:246,0,-3.16287,-5.2745,2.84778,Q,Q
2023-03-15 12:57:52:256,0,-3.1734,-5.25243,2.8859,Q,Q
2023-03-15 12:57:52:266,0,-3.17132,-5.23476,2.92574,Q,Q
2023-03-15 12:57:52:276,0,-3.16437,-5.22373,2.96101,Q,Q
2023-03-15 12:57:52:286,0,-3.15359,-5.21741,2.99704,Q,Q
2023-03-15 12:57:52:296,0,-3.1411,-5.21842,3.03265,Q,Q
2023-03-15 12:57:52:306,0,-3.12872,-5.21934,3.06864,Q,Q
2023-03-15 12:57:52:316,0,-3.12122,-5.22337,3.1074,Q,Q
2023-03-15 12:57:52:326,0,-3.11783,-5.23204,3.14367,Q,Q
2023-03-15 12:57:52:336,0,-3.11634,-5.24131,3.183,Q,Q
2023-03-15 12:57:52:346,0,-3.11553,-5.25073,3.21867,Q,Q
2023-03-15 12:57:52:356,0,-3.11397,-5.26266,3.25471,Q,Q
2023-03-15 12:57:52:366,0,-3.11821,-5.26706,3.28949,Q,Q
2023-03-15 12:57:52:376,0,-3.12401,-5.27266,3.3149,Q,Q
2023-03-15 12:57:52:386,0,-3.13142,-5.27831,3.3349,Q,Q
2023-03-15 12:57:52:396,0,-3.14305,-5.27779,3.35455,Q,Q
2023-03-15 12:57:52:406,0,-3.15953,-5.2693,3.36734,Q,Q
2023-03-15 12:57:52:416,0,-3.17785,-5.2597,3.37378,Q,Q
2023-03-15 12:57:52:426,0,-3.19953,-5.25201,3.37698,Q,Q
2023-03-15 12:57:52:436,0,-3.22636,-5.23901,3.37793,Q,Q
2023-03-15 12:57:52:446,0,-3.25457,-5.22676,3.3729,Q,Q
2023-03-15 12:57:52:456,0,-3.28163,-5.21309,3.36313,Q,Q
2023-03-15 12:57:52:466,0,-3.31098,-5.20119,3.35158,Q,Q
2023-03-15 12:57:52:476,0,-3.33919,-5.19038,3.34272,Q,Q
2023-03-15 12:57:52:486,0,-3.36917,-5.18493,3.32588,Q,Q
2023-03-15 12:57:52:496,0,-3.39189,-5.1874,3.30624,Q,Q
2023-03-15 12:57:52:506,0,-3.40972,-5.18808,3.28643,Q,Q
2023-03-15 12:57:52:516,0,-3.42525,-5.19037,3.26314,Q,Q
2023-03-15 12:57:52:526,0,-3.43611,-5.19091,3.23989,Q,Q
2023-03-15 12:57:52:536,0,-3.44306,-5.19528,3.21274,Q,Q
2023-03-15 12:57:52:546,0,-3.45346,-5.20176,3.18742,Q,Q
2023-03-15 12:57:52:556,0,-3.45962,-5.20775,3.16013,Q,Q
2023-03-15 12:57:52:566,0,-3.46444,-5.21567,3.1399,Q,Q
2023-03-15 12:57:52:576,0,-3.46659,-5.22396,3.11803,Q,Q
2023-03-15 12:57:52:586,0,-3.46874,-5.23626,3.10251,Q,Q
2023-03-15 12:57:52:596,0,-3.46761,-5.25127,3.08734,Q,Q
2023-03-15 12:57:52:606,0,-3.46815,-5.27143,3.07952,Q,Q
2023-03-15 12:57:52:616,0,-3.47112,-5.29032,3.07439,Q,Q
2023-03-15 12:57:52:626,0,-3.47511,-5.30461,3.07042,Q,Q
2023-03-15 12:57:52:636,0,-3.48174,-5.3134,3.06919,Q,Q
2023-03-15 12:57:52:646,0,-3.49109,-5.32083,3.06873,Q,Q
2023-03-15 12:57:52:656,0,-3.50051,-5.33076,3.0745,Q,Q
2023-03-15 12:57:52:666,0,-3.51133,-5.3446,3.08523,Q,Q
2023-03-15 12:57:52:676,0,-3.52349,-5.36165,3.09959,Q,Q
2023-03-15 12:57:52:686,0,-3.53867,-5.37766,3.12187,Q,Q
2023-03-15 12:57:52:696,0,-3.56093,-5.39205,3.14554,Q,Q
2023-03-15 12:57:52:706,0,-3.58934,-5.40515,3.17331,Q,Q
2023-03-15 12:57:52:716,0,-3.62098,-5.41109,3.21229,Q,Q
2023-03-15 12:57:52:726,0,-3.67024,-5.41946,3.26164,Q,Q
2023-03-15 12:57:52:736,0,-3.72643,-5.42586,3.31976,Q,Q
2023-03-15 12:57:52:746,0,-3.79385,-5.43158,3.3822,Q,Q
2023-03-15 12:57:52:756,0,-3.86928,-5.44064,3.45746,Q,Q
2023-03-15 12:57:52:766,0,-3.95494,-5.44763,3.54007,Q,Q
2023-03-15 12:57:52:776,0,-4.05515,-5.45133,3.62925,Q,Q
2023-03-15 12:57:52:786,0,-4.16049,-5.45398,3.72498,Q,Q
2023-03-15 12:57:52:796,0,-4.26968,-5.45378,3.82548,Q,Q
2023-03-15 12:57:52:806,0,-4.38339,-5.45273,3.92606,Q,Q
2023-03-15 12:57:52:816,0,-4.49133,-5.45003,4.02794,Q,Q
2023-03-15 12:57:52:826,0,-4.59054,-5.44654,4.13078,Q,Q
2023-03-15 12:57:52:836,0,-4.68463,-5.44409,4.23255,Q,Q
2023-03-15 12:57:52:846,0,-4.77298,-5.44165,4.33315,Q,Q
2023-03-15 12:57:52:856,0,-4.85708,-5.43995,4.43212,Q,Q
2023-03-15 12:57:52:866,0,-4.93156,-5.44118,4.52893,Q,Q
2023-03-15 12:57:52:876,0,-5.00312,-5.43658,4.62231,Q,Q
2023-03-15 12:57:52:886,0,-5.07168,-5.43744,4.71546,Q,Q
2023-03-15 12:57:52:896,0,-5.13706,-5.43588,4.80058,Q,Q
2023-03-15 12:57:52:906,0,-5.20103,-5.4348,4.88005,Q,Q
2023-03-15 12:57:52:916,0,-5.25984,-5.43117,4.94961,Q,Q
2023-03-15 12:57:52:926,0,-5.31989,-5.42573,5.01929,Q,Q
2023-03-15 12:57:52:936,0,-5.37979,-5.42171,5.08124,Q,Q
2023-03-15 12:57:52:946,0,-5.4356,-5.4217,5.14648,Q,Q
2023-03-15 12:57:52:956,0,-5.49072,-5.42133,5.20037,Q,Q
2023-03-15 12:57:52:966,0,-5.55154,-5.41975,5.25345,Q,Q
2023-03-15 12:57:52:976,0,-5.61119,-5.42075,5.30702,Q,Q
2023-03-15 12:57:52:986,0,-5.67211,-5.4241,5.36042,Q,Q
2023-03-15 12:57:52:996,0,-5.73303,-5.42648,5.41081,Q,Q
2023-03-15 12:57:53:6,0,-5.79892,-5.42991,5.46326,Q,Q
2023-03-15 12:57:53:16,0,-5.86563,-5.43166,5.51465,Q,Q
2023-03-15 12:57:53:26,0,-5.93354,-5.43726,5.56476,Q,Q
2023-03-15 12:57:53:36,0,-6.00787,-5.44308,5.61268,Q,Q
2023-03-15 12:57:53:46,0,-6.07917,-5.45361,5.65761,Q,Q
2023-03-15 12:57:53:56,0,-6.15459,-5.46169,5.7012,Q,Q
2023-03-15 12:57:53:66,0,-6.23009,-5.46918,5.74753,Q,Q
2023-03-15 12:57:53:76,0,-6.30709,-5.48,5.79076,Q,Q
2023-03-15 12:57:53:86,0,-6.38293,-5.49138,5.8399,Q,Q
2023-03-15 12:57:53:96,0,-6.45368,-5.50509,5.88561,Q,Q
2023-03-15 12:57:53:106,0,-6.52478,-5.5201,5.93421,Q,Q
2023-03-15 12:57:53:116,0,-6.59679,-5.53809,5.98439,Q,Q
2023-03-15 12:57:53:126,0,-6.66856,-5.55598,6.03563,Q,Q
2023-03-15 12:57:53:136,0,-6.74361,-5.57414,6.09015,Q,Q
2023-03-15 12:57:53:146,0,-6.81895,-5.58993,6.14547,Q,Q
2023-03-15 12:57:53:156,0,-6.89626,-5.60617,6.19973,Q,Q
2023-03-15 12:57:53:166,0,-6.97522,-5.62117,6.26083,Q,Q
2023-03-15 12:57:53:176,0,-7.05549,-5.63677,6.31864,Q,Q
2023-03-15 12:57:53:186,0,-7.14081,-5.65244,6.37563,Q,Q
2023-03-15 12:57:53:196,0,-7.22692,-5.6628,6.43466,Q,Q
2023-03-15 12:57:53:206,0,-7.31124,-5.67722,6.49751,Q,Q
2023-03-15 12:57:53:216,0,-7.39192,-5.68792,6.55904,Q,Q
2023-03-15 12:57:53:226,0,-7.471,-5.70055,6.62433,Q,Q
2023-03-15 12:57:53:236,0,-7.55282,-5.7114,6.69292,Q,Q
2023-03-15 12:57:53:246,0,-7.63291,-5.7201,6.75781,Q,Q
2023-03-15 12:57:53:256,0,-7.70815,-5.72569,6.82482,Q,Q
2023-03-15 12:57:53:266,0,-7.78632,-5.73248,6.89418,Q,Q
2023-03-15 12:57:53:276,0,-7.86203,-5.73811,6.9598,Q,Q
2023-03-15 12:57:53:286,0,-7.93832,-5.74091,7.0256,Q,Q
2023-03-15 12:57:53:296,0,-8.01054,-5.74428,7.08896,Q,Q
2023-03-15 12:57:53:306,0,-8.08342,-5.74453,7.14846,Q,Q
2023-03-15 12:57:53:316,0,-8.15612,-5.74743,7.20782,Q,Q
2023-03-15 12:57:53:326,0,-8.22424,-5.75018,7.26435,Q,Q
2023-03-15 12:57:53:336,0,-8.28435,-5.75152,7.31758,Q,Q
2023-03-15 12:57:53:346,0,-8.34355,-5.7505,7.36886,Q,Q
2023-03-15 12:57:53:356,0,-8.39542,-5.75239,7.41858,Q,Q
2023-03-15 12:57:53:366,0,-8.44365,-5.75326,7.46239,Q,Q
2023-03-15 12:57:53:376,0,-8.48998,-5.74822,7.50612,Q,Q
2023-03-15 12:57:53:386,0,-8.53434,-5.75219,7.54567,Q,Q
2023-03-15 12:57:53:396,0,-8.5717,-5.75371,7.58179,Q,Q
2023-03-15 12:57:53:406,0,-8.612,-5.75688,7.61537,Q,Q
2023-03-15 12:57:53:416,0,-8.64622,-5.75626,7.64447,Q,Q
2023-03-15 12:57:53:426,0,-8.67901,-5.75821,7.67259,Q,Q
2023-03-15 12:57:53:436,0,-8.71112,-5.76431,7.69455,Q,Q
2023-03-15 12:57:53:446,0,-8.73509,-5.76827,7.71862,Q,Q
2023-03-15 12:57:53:456,0,-8.75643,-5.77342,7.73655,Q,Q
2023-03-15 12:57:53:466,0,-8.7756,-5.78037,7.75348,Q,Q
2023-03-15 12:57:53:476,0,-8.79535,-5.78805,7.76527,Q,Q
2023-03-15 12:57:53:486,0,-8.81351,-5.79511,7.77522,Q,Q
2023-03-15 12:57:53:496,0,-8.82876,-5.79875,7.78946,Q,Q
2023-03-15 12:57:53:506,0,-8.84811,-5.80358,7.79861,Q,Q
2023-03-15 12:57:53:516,0,-8.86719,-5.80842,7.80981,Q,Q
2023-03-15 12:57:53:526,0,-8.88898,-5.81394,7.82299,Q,Q
2023-03-15 12:57:53:536,0,-8.91066,-5.81854,7.83002,Q,Q
2023-03-15 12:57:53:546,0,-8.93763,-5.81305,7.8371,Q,Q
2023-03-15 12:57:53:556,0,-8.95955,-5.809,7.84504,Q,Q
2023-03-15 12:57:53:566,0,-8.98397,-5.80781,7.84992,Q,Q
2023-03-15 12:57:53:576,0,-8.99969,-5.8053,7.85592,Q,Q
2023-03-15 12:57:53:586,0,-9.01384,-5.80745,7.86294,Q,Q
2023-03-15 12:57:53:596,0,-9.02747,-5.81451,7.87477,Q,Q
2023-03-15 12:57:53:606,0,-9.03735,-5.82329,7.87878,Q,Q
2023-03-15 12:57:53:616,0,-9.05027,-5.83199,7.88372,Q,Q
2023-03-15 12:57:53:626,0,-9.06753,-5.83931,7.88796,Q,Q
2023-03-15 12:57:53:636,0,-9.08605,-5.84521,7.88806,Q,Q
2023-03-15 12:57:53:646,0,-9.10529,-5.84856,7.88687,Q,Q
2023-03-15 12:57:53:656,0,-9.12585,-5.85313,7.88483,Q,Q
2023-03-15 12:57:53:666,0,-9.14905,-5.86062,7.88002,Q,Q
2023-03-15 12:57:53:676,0,-9.17401,-5.8666,7.8794,Q,Q
2023-03-15 12:57:53:686,0,-9.19768,-5.87022,7.87626,Q,Q
2023-03-15 12:57:53:696,0,-9.21981,-5.87677,7.86855,Q,Q
2023-03-15 12:57:53:706,0,-9.24519,-5.88541,7.86272,Q,Q
2023-03-15 12:57:53:716,0,-9.27066,-5.89314,7.85571,Q,Q
2023-03-15 12:57:53:726,0,-9.29677,-5.89591,7.85016,Q,Q
2023-03-15 12:57:53:736,0,-9.3203,-5.9053,7.84453,Q,Q
2023-03-15 12:57:53:746,0,-9.34605,-5.90787,7.8401,Q,Q
2023-03-15 12:57:53:756,0,-9.36959,-5.91525,7.83335,Q,Q
2023-03-15 12:57:53:766,0,-9.38742,-5.92527,7.82678,Q,Q
2023-03-15 12:57:53:776,0,-9.40371,-5.93682,7.82824,Q,Q
2023-03-15 12:57:53:786,0,-9.41649,-5.94871,7.83077,Q,Q
2023-03-15 12:57:53:796,0,-9.42808,-5.9652,7.83698,Q,Q
2023-03-15 12:57:53:806,0,-9.44177,-5.97914,7.84267,Q,Q
2023-03-15 12:57:53:816,0,-9.45333,-5.99209,7.85046,Q,Q
2023-03-15 12:57:53:826,0,-9.46311,-5.99961,7.85591,Q,Q
2023-03-15 12:57:53:836,0,-9.47046,-6.00738,7.86445,Q,Q
2023-03-15 12:57:53:846,0,-9.47457,-6.01524,7.8711,Q,Q
2023-03-15 12:57:53:856,0,-9.48096,-6.02469,7.88049,Q,Q
2023-03-15 12:57:53:866,0,-9.48834,-6.03409,7.89406,Q,Q
2023-03-15 12:57:53:876,0,-9.49592,-6.03857,7.91242,Q,Q
2023-03-15 12:57:53:886,0,-9.50289,-6.0416,7.92761,Q,Q
2023-03-15 12:57:53:896,0,-9.50521,-6.04145,7.94348,Q,Q
2023-03-15 12:57:53:906,0,-9.51093,-6.04076,7.95807,Q,Q
2023-03-15 12:57:53:916,0,-9.51107,-6.0359,7.9735,Q,Q
2023-03-15 12:57:53:926,0,-9.50794,-6.02903,7.98798,Q,Q
2023-03-15 12:57:53:936,0,-9.49947,-6.01954,8.00497,Q,Q
2023-03-15 12:57:53:946,0,-9.48683,-6.00298,8.02121,Q,Q
2023-03-15 12:57:53:956,0,-9.47897,-5.98292,8.0356,Q,Q
2023-03-15 12:57:53:966,0,-9.47091,-5.95615,8.0521,Q,Q
2023-03-15 12:57:53:976,0,-9.46585,-5.92798,8.07035,Q,Q
2023-03-15 12:57:53:986,0,-9.4587,-5.89757,8.08335,Q,Q
2023-03-15 12:57:53:996,0,-9.45669,-5.87263,8.09947,Q,Q
2023-03-15 12:57:54:6,0,-9.45987,-5.8528,8.11657,Q,Q
2023-03-15 12:57:54:16,0,-9.45975,-5.8371,8.1329,Q,Q
2023-03-15 12:57:54:26,0,-9.46244,-5.82447,8.14477,Q,Q
2023-03-15 12:57:54:36,0,-9.46409,-5.81707,8.15719,Q,Q
2023-03-15 12:57:54:46,0,-9.46611,-5.81519,8.16869,Q,Q
2023-03-15 12:57:54:56,0,-9.46745,-5.8191,8.18021,Q,Q
2023-03-15 12:57:54:66,0,-9.46792,-5.82634,8.1927,Q,Q
2023-03-15 12:57:54:76,0,-9.4698,-5.83709,8.20486,Q,Q
2023-03-15 12:57:54:86,0,-9.46943,-5.84838,8.22314,Q,Q
2023-03-15 12:57:54:96,0,-9.4699,-5.86277,8.2428,Q,Q
2023-03-15 12:57:54:106,0,-9.46974,-5.88045,8.2635,Q,Q
2023-03-15 12:57:54:116,0,-9.4688,-5.89939,8.28663,Q,Q
2023-03-15 12:57:54:126,0,-9.4712,-5.917,8.31446,Q,Q
2023-03-15 12:57:54:136,0,-9.47163,-5.93428,8.34273,Q,Q
2023-03-15 12:57:54:146,0,-9.47312,-5.95033,8.37352,Q,Q
2023-03-15 12:57:54:156,0,-9.47679,-5.9651,8.40268,Q,Q
2023-03-15 12:57:54:166,0,-9.4827,-5.97866,8.43581,Q,Q
2023-03-15 12:57:54:176,0,-9.49185,-5.99433,8.46423,Q,Q
2023-03-15 12:57:54:186,0,-9.50026,-6.0062,8.49463,Q,Q
2023-03-15 12:57:54:196,0,-9.51127,-6.01965,8.52325,Q,Q
2023-03-15 12:57:54:206,0,-9.52264,-6.03224,8.55222,Q,Q
2023-03-15 12:57:54:216,0,-9.53569,-6.04347,8.57654,Q,Q
2023-03-15 12:57:54:226,0,-9.55141,-6.05727,8.59514,Q,Q
2023-03-15 12:57:54:236,0,-9.56406,-6.0685,8.61244,Q,Q
2023-03-15 12:57:54:246,0,-9.57373,-6.07855,8.62315,Q,Q
2023-03-15 12:57:54:256,0,-9.58391,-6.08504,8.6315,Q,Q
2023-03-15 12:57:54:266,0,-9.58896,-6.09119,8.6344,Q,Q
2023-03-15 12:57:54:276,0,-9.59256,-6.09758,8.63888,Q,Q
2023-03-15 12:57:54:286,0,-9.59592,-6.09901,8.64243,Q,Q
2023-03-15 12:57:54:296,0,-9.59778,-6.09875,8.64287,Q,Q
2023-03-15 12:57:54:306,0,-9.60111,-6.10001,8.638,Q,Q
2023-03-15 12:57:54:316,0,-9.60974,-6.09723,8.63066,Q,Q
2023-03-15 12:57:54:326,0,-9.60884,-6.09153,8.62041,Q,Q
2023-03-15 12:57:54:336,0,-9.61191,-6.08656,8.61258,Q,Q
2023-03-15 12:57:54:346,0,-9.61161,-6.08317,8.60217,Q,Q
2023-03-15 12:57:54:356,0,-9.60756,-6.07554,8.5847,Q,Q
2023-03-15 12:57:54:366,0,-9.60493,-6.07167,8.56798,Q,Q
2023-03-15 12:57:54:376,0,-9.60143,-6.06594,8.55512,Q,Q
2023-03-15 12:57:54:386,0,-9.5982,-6.06357,8.5412,Q,Q
2023-03-15 12:57:54:396,0,-9.59324,-6.06143,8.53,Q,Q
2023-03-15 12:57:54:406,0,-9.59193,-6.05655,8.52099,Q,Q
2023-03-15 12:57:54:416,0,-9.59122,-6.05468,8.51311,Q,Q
2023-03-15 12:57:54:426,0,-9.58973,-6.05578,8.50336,Q,Q
2023-03-15 12:57:54:436,0,-9.58939,-6.05843,8.49622,Q,Q
2023-03-15 12:57:54:446,0,-9.59235,-6.0608,8.49243,Q,Q
2023-03-15 12:57:54:456,0,-9.59822,-6.05963,8.48559,Q,Q
2023-03-15 12:57:54:466,0,-9.60281,-6.05972,8.48035,Q,Q
2023-03-15 12:57:54:476,0,-9.60506,-6.06061,8.47868,Q,Q
2023-03-15 12:57:54:486,0,-9.60804,-6.06504,8.47586,Q,Q
2023-03-15 12:57:54:496,0,-9.60573,-6.07174,8.4746,Q,Q
2023-03-15 12:57:54:506,0,-9.60534,-6.08174,8.47712,Q,Q
2023-03-15 12:57:54:516,0,-9.60102,-6.09638,8.48024,Q,Q
2023-03-15 12:57:54:526,0,-9.60066,-6.11101,8.4837,Q,Q
2023-03-15 12:57:54:536,0,-9.60138,-6.1258,8.48361,Q,Q
2023-03-15 12:57:54:546,0,-9.60138,-6.13822,8.48218,Q,Q
2023-03-15 12:57:54:556,0,-9.59992,-6.14833,8.47818,Q,Q
2023-03-15 12:57:54:566,0,-9.60166,-6.15486,8.47905,Q,Q
2023-03-15 12:57:54:576,0,-9.60431,-6.16298,8.48082,Q,Q
2023-03-15 12:57:54:586,0,-9.60814,-6.17414,8.48465,Q,Q
2023-03-15 12:57:54:596,0,-9.61191,-6.1806,8.48759,Q,Q
2023-03-15 12:57:54:606,0,-9.61615,-6.18686,8.49113,Q,Q
2023-03-15 12:57:54:616,0,-9.61888,-6.19234,8.4952,Q,Q
2023-03-15 12:57:54:626,0,-9.62202,-6.20363,8.49625,Q,Q
2023-03-15 12:57:54:636,0,-9.6203,-6.21065,8.49492,Q,Q
2023-03-15 12:57:54:646,0,-9.61014,-6.22316,8.49724,Q,Q
2023-03-15 12:57:54:656,0,-9.59836,-6.23489,8.50111,Q,Q
2023-03-15 12:57:54:666,0,-9.58353,-6.2472,8.5023,Q,Q
2023-03-15 12:57:54:676,0,-9.56616,-6.25973,8.50407,Q,Q
2023-03-15 12:57:54:686,0,-9.54554,-6.27196,8.51016,Q,Q
2023-03-15 12:57:54:696,0,-9.52595,-6.28449,8.51311,Q,Q
2023-03-15 12:57:54:706,0,-9.50289,-6.30294,8.51456,Q,Q
2023-03-15 12:57:54:716,0,-9.48548,-6.31807,8.51448,Q,Q
2023-03-15 12:57:54:726,0,-9.47191,-6.33547,8.51423,Q,Q
2023-03-15 12:57:54:736,0,-9.46136,-6.34858,8.51124,Q,Q
2023-03-15 12:57:54:746,0,-9.45172,-6.36211,8.50561,Q,Q
2023-03-15 12:57:54:756,0,-9.44374,-6.37792,8.50012,Q,Q
2023-03-15 12:57:54:766,0,-9.43865,-6.39072,8.49217,Q,Q
2023-03-15 12:57:54:776,0,-9.43629,-6.40191,8.48287,Q,Q
2023-03-15 12:57:54:786,0,-9.43733,-6.41397,8.474,Q,Q
2023-03-15 12:57:54:796,0,-9.44157,-6.41534,8.46462,Q,Q
2023-03-15 12:57:54:806,0,-9.45,-6.41965,8.4552,Q,Q
2023-03-15 12:57:54:816,0,-9.4617,-6.4181,8.44181,Q,Q
2023-03-15 12:57:54:826,0,-9.47302,-6.40995,8.42881,Q,Q
2023-03-15 12:57:54:836,0,-9.48439,-6.40171,8.42161,Q,Q
2023-03-15 12:57:54:846,0,-9.50106,-6.38821,8.41217,Q,Q
2023-03-15 12:57:54:856,0,-9.51393,-6.37544,8.40095,Q,Q
2023-03-15 12:57:54:866,0,-9.52475,-6.36053,8.39379,Q,Q
2023-03-15 12:57:54:876,0,-9.53596,-6.34655,8.3894,Q,Q
2023-03-15 12:57:54:886,0,-9.54657,-6.33601,8.38136,Q,Q
2023-03-15 12:57:54:896,0,-9.55458,-6.32404,8.37686,Q,Q
2023-03-15 12:57:54:906,0,-9.56615,-6.31816,8.37026,Q,Q
2023-03-15 12:57:54:916,0,-9.57907,-6.3114,8.36181,Q,Q
2023-03-15 12:57:54:926,0,-9.59342,-6.30923,8.35767,Q,Q
2023-03-15 12:57:54:936,0,-9.60535,-6.31093,8.3497,Q,Q
2023-03-15 12:57:54:946,0,-9.61839,-6.30972,8.3444,Q,Q
2023-03-15 12:57:54:956,0,-9.6266,-6.31699,8.34002,Q,Q
2023-03-15 12:57:54:966,0,-9.63416,-6.31981,8.33523,Q,Q
2023-03-15 12:57:54:976,0,-9.64064,-6.32602,8.32926,Q,Q
2023-03-15 12:57:54:986,0,-9.64315,-6.32865,8.32392,Q,Q
2023-03-15 12:57:54:996,0,-9.64242,-6.33207,8.31831,Q,Q
2023-03-15 12:57:55:6,0,-9.63959,-6.33136,8.31337,Q,Q
2023-03-15 12:57:55:16,0,-9.64177,-6.33143,8.30798,Q,Q
2023-03-15 12:57:55:26,0,-9.64307,-6.32986,8.29994,Q,Q
2023-03-15 12:57:55:36,0,-9.64207,-6.329,8.29312,Q,Q
2023-03-15 12:57:55:46,0,-9.64205,-6.32799,8.28529,Q,Q
2023-03-15 12:57:55:56,0,-9.641,-6.32684,8.2767,Q,Q
2023-03-15 12:57:55:66,0,-9.63888,-6.322,8.26932,Q,Q
2023-03-15 12:57:55:76,0,-9.63618,-6.31747,8.26232,Q,Q
2023-03-15 12:57:55:86,0,-9.63637,-6.31571,8.25521,Q,Q
2023-03-15 12:57:55:96,0,-9.63693,-6.31274,8.24982,Q,Q
2023-03-15 12:57:55:106,0,-9.63958,-6.3118,8.24665,Q,Q
2023-03-15 12:57:55:116,0,-9.64381,-6.3132,8.24423,Q,Q
2023-03-15 12:57:55:126,0,-9.65258,-6.31174,8.24299,Q,Q
2023-03-15 12:57:55:136,0,-9.65874,-6.31544,8.24312,Q,Q
2023-03-15 12:57:55:146,0,-9.66863,-6.31346,8.24125,Q,Q
2023-03-15 12:57:55:156,0,-9.67689,-6.31714,8.24327,Q,Q
2023-03-15 12:57:55:166,0,-9.68519,-6.31995,8.24832,Q,Q
2023-03-15 12:57:55:176,0,-9.69107,-6.32381,8.25027,Q,Q
2023-03-15 12:57:55:186,0,-9.69571,-6.32938,8.25064,Q,Q
2023-03-15 12:57:55:196,0,-9.69856,-6.33706,8.25668,Q,Q
2023-03-15 12:57:55:206,0,-9.69893,-6.33926,8.25737,Q,Q
2023-03-15 12:57:55:216,0,-9.70079,-6.34767,8.25728,Q,Q
2023-03-15 12:57:55:226,0,-9.69734,-6.34682,8.25652,Q,Q
2023-03-15 12:57:55:236,0,-9.69336,-6.35152,8.25783,Q,Q
2023-03-15 12:57:55:246,0,-9.69051,-6.35488,8.25655,Q,Q
2023-03-15 12:57:55:256,0,-9.68764,-6.35727,8.25259,Q,Q
2023-03-15 12:57:55:266,0,-9.69147,-6.36126,8.25052,Q,Q
2023-03-15 12:57:55:276,0,-9.69027,-6.36323,8.25071,Q,Q
2023-03-15 12:57:55:286,0,-9.69012,-6.36717,8.24794,Q,Q
2023-03-15 12:57:55:296,0,-9.69306,-6.37018,8.24556,Q,Q
2023-03-15 12:57:55:306,0,-9.69448,-6.36831,8.24563,Q,Q
2023-03-15 12:57:55:316,0,-9.69502,-6.36595,8.24378,Q,Q
2023-03-15 12:57:55:326,0,-9.69517,-6.3666,8.24763,Q,Q
2023-03-15 12:57:55:336,0,-9.69741,-6.36862,8.24782,Q,Q
2023-03-15 12:57:55:346,0,-9.6986,-6.37204,8.25234,Q,Q
2023-03-15 12:57:55:356,0,-9.70312,-6.36999,8.25473,Q,Q
2023-03-15 12:57:55:366,0,-9.71409,-6.36869,8.25963,Q,Q
2023-03-15 12:57:55:376,0,-9.72006,-6.36148,8.26296,Q,Q
2023-03-15 12:57:55:386,0,-9.72661,-6.36117,8.26482,Q,Q
2023-03-15 12:57:55:396,0,-9.73004,-6.36157,8.26183,Q,Q
2023-03-15 12:57:55:406,0,-9.73889,-6.36745,8.26598,Q,Q
2023-03-15 12:57:55:416,0,-9.74228,-6.37897,8.27049,Q,Q
2023-03-15 12:57:55:426,0,-9.74094,-6.38919,8.27344,Q,Q
2023-03-15 12:57:55:436,0,-9.74126,-6.39551,8.27655,Q,Q
2023-03-15 12:57:55:446,0,-9.74419,-6.40073,8.27604,Q,Q
2023-03-15 12:57:55:456,0,-9.74899,-6.40427,8.27011,Q,Q
2023-03-15 12:57:55:466,0,-9.7508,-6.40696,8.26749,Q,Q
2023-03-15 12:57:55:476,0,-9.75257,-6.40726,8.26078,Q,Q
2023-03-15 12:57:55:486,0,-9.76133,-6.40938,8.26144,Q,Q
2023-03-15 12:57:55:496,0,-9.7709,-6.40884,8.25762,Q,Q
2023-03-15 12:57:55:506,0,-9.7777,-6.40565,8.25473,Q,Q
2023-03-15 12:57:55:516,0,-9.782,-6.39715,8.24932,Q,Q
2023-03-15 12:57:55:526,0,-9.7837,-6.38706,8.24282,Q,Q
2023-03-15 12:57:55:536,0,-9.78825,-6.3792,8.23209,Q,Q
2023-03-15 12:57:55:546,0,-9.79277,-6.37257,8.22276,Q,Q
2023-03-15 12:57:55:556,0,-9.798,-6.36394,8.20939,Q,Q
2023-03-15 12:57:55:566,0,-9.79829,-6.35391,8.19951,Q,Q
2023-03-15 12:57:55:576,0,-9.79666,-6.34874,8.18441,Q,Q
2023-03-15 12:57:55:586,0,-9.79393,-6.3472,8.1682,Q,Q
2023-03-15 12:57:55:596,0,-9.78954,-6.34148,8.15429,Q,Q
2023-03-15 12:57:55:606,0,-9.78933,-6.33284,8.13973,Q,Q
2023-03-15 12:57:55:616,0,-9.78459,-6.32744,8.13026,Q,Q
2023-03-15 12:57:55:626,0,-9.77811,-6.31771,8.11781,Q,Q
2023-03-15 12:57:55:636,0,-9.775,-6.30546,8.1045,Q,Q
2023-03-15 12:57:55:646,0,-9.77057,-6.29226,8.08777,Q,Q
2023-03-15 12:57:55:656,0,-9.76664,-6.27754,8.07373,Q,Q
2023-03-15 12:57:55:666,0,-9.76168,-6.26664,8.05746,Q,Q
2023-03-15 12:57:55:676,0,-9.75867,-6.25716,8.04634,Q,Q
2023-03-15 12:57:55:686,0,-9.7509,-6.25023,8.03125,Q,Q
2023-03-15 12:57:55:696,0,-9.74443,-6.2444,8.01744,Q,Q
2023-03-15 12:57:55:706,0,-9.73905,-6.235,8.00001,Q,Q
2023-03-15 12:57:55:716,0,-9.73341,-6.22315,7.97664,Q,Q
2023-03-15 12:57:55:726,0,-9.73007,-6.21388,7.95118,Q,Q
2023-03-15 12:57:55:736,0,-9.72682,-6.20498,7.92403,Q,Q
2023-03-15 12:57:55:746,0,-9.72014,-6.19625,7.89577,Q,Q
2023-03-15 12:57:55:756,0,-9.71834,-6.18361,7.86492,Q,Q
2023-03-15 12:57:55:766,0,-9.71576,-6.17234,7.83167,Q,Q
2023-03-15 12:57:55:776,0,-9.71526,-6.16263,7.79597,Q,Q
2023-03-15 12:57:55:786,0,-9.71184,-6.15319,7.75851,Q,Q
2023-03-15 12:57:55:796,0,-9.71357,-6.14685,7.71947,Q,Q
2023-03-15 12:57:55:806,0,-9.71613,-6.14218,7.67679,Q,Q
2023-03-15 12:57:55:816,0,-9.71661,-6.1419,7.63437,Q,Q
2023-03-15 12:57:55:826,0,-9.71767,-6.14037,7.58853,Q,Q
2023-03-15 12:57:55:836,0,-9.71919,-6.13944,7.54065,Q,Q
2023-03-15 12:57:55:846,0,-9.72778,-6.14272,7.49373,Q,Q
2023-03-15 12:57:55:856,0,-9.73517,-6.14439,7.44201,Q,Q
2023-03-15 12:57:55:866,0,-9.73939,-6.14721,7.38978,Q,Q
2023-03-15 12:57:55:876,0,-9.74268,-6.15025,7.33177,Q,Q
2023-03-15 12:57:55:886,0,-9.74504,-6.15507,7.27592,Q,Q
2023-03-15 12:57:55:896,0,-9.74367,-6.16022,7.22073,Q,Q
2023-03-15 12:57:55:906,0,-9.73771,-6.16444,7.16662,Q,Q
2023-03-15 12:57:55:916,0,-9.73154,-6.16837,7.11235,Q,Q
2023-03-15 12:57:55:926,0,-9.71948,-6.17398,7.06207,Q,Q
2023-03-15 12:57:55:936,0,-9.71059,-6.18189,7.01619,Q,Q
2023-03-15 12:57:55:946,0,-9.69365,-6.18704,6.97141,Q,Q
2023-03-15 12:57:55:956,0,-9.67703,-6.19049,6.9318,Q,Q
2023-03-15 12:57:55:966,0,-9.66047,-6.19177,6.89686,Q,Q
2023-03-15 12:57:55:976,0,-9.64516,-6.19615,6.8661,Q,Q
2023-03-15 12:57:55:986,0,-9.6301,-6.19815,6.83663,Q,Q
2023-03-15 12:57:55:996,0,-9.61415,-6.19545,6.81048,Q,Q
2023-03-15 12:57:56:6,0,-9.60043,-6.19,6.78573,Q,Q
2023-03-15 12:57:56:16,0,-9.58781,-6.19011,6.7617,Q,Q
2023-03-15 12:57:56:26,0,-9.57417,-6.18857,6.74031,Q,Q
2023-03-15 12:57:56:36,0,-9.55939,-6.18689,6.71846,Q,Q
2023-03-15 12:57:56:46,0,-9.54439,-6.18645,6.69798,Q,Q
2023-03-15 12:57:56:56,0,-9.52937,-6.18345,6.67771,Q,Q
2023-03-15 12:57:56:66,0,-9.51649,-6.18499,6.65748,Q,Q
2023-03-15 12:57:56:75,0,-9.50442,-6.18691,6.64001,Q,Q
2023-03-15 12:57:56:86,0,-9.49175,-6.19186,6.62042,Q,Q
2023-03-15 12:57:56:96,0,-9.47856,-6.19848,6.60301,Q,Q
2023-03-15 12:57:56:106,0,-9.46467,-6.20729,6.58189,Q,Q
2023-03-15 12:57:56:116,0,-9.45566,-6.22042,6.56223,Q,Q
2023-03-15 12:57:56:126,0,-9.43884,-6.23143,6.53992,Q,Q
2023-03-15 12:57:56:136,0,-9.42595,-6.24178,6.52106,Q,Q
2023-03-15 12:57:56:146,0,-9.4129,-6.25135,6.50439,Q,Q
2023-03-15 12:57:56:156,0,-9.39637,-6.26241,6.48287,Q,Q
2023-03-15 12:57:56:166,0,-9.3782,-6.28042,6.46632,Q,Q
2023-03-15 12:57:56:176,0,-9.35652,-6.29473,6.45415,Q,Q
2023-03-15 12:57:56:186,0,-9.33097,-6.31277,6.44256,Q,Q
2023-03-15 12:57:56:196,0,-9.30143,-6.33315,6.43045,Q,Q
2023-03-15 12:57:56:206,0,-9.27341,-6.35213,6.41925,Q,Q
2023-03-15 12:57:56:216,0,-9.25137,-6.36937,6.408,Q,Q
2023-03-15 12:57:56:226,0,-9.22714,-6.38439,6.39827,Q,Q
2023-03-15 12:57:56:236,0,-9.20184,-6.40682,6.392,Q,Q
2023-03-15 12:57:56:246,0,-9.17314,-6.42251,6.38768,Q,Q
2023-03-15 12:57:56:256,0,-9.15127,-6.44146,6.3905,Q,Q
2023-03-15 12:57:56:266,0,-9.13076,-6.46095,6.39207,Q,Q
2023-03-15 12:57:56:276,0,-9.10897,-6.47797,6.39709,Q,Q
2023-03-15 12:57:56:286,0,-9.08677,-6.48795,6.40321,Q,Q
2023-03-15 12:57:56:296,0,-9.06629,-6.50278,6.41198,Q,Q
2023-03-15 12:57:56:306,0,-9.04627,-6.52018,6.42423,Q,Q
2023-03-15 12:57:56:316,0,-9.02916,-6.5431,6.43942,Q,Q
2023-03-15 12:57:56:326,0,-9.01467,-6.56998,6.4587,Q,Q
2023-03-15 12:57:56:336,0,-9.00355,-6.60041,6.48265,Q,Q
2023-03-15 12:57:56:346,0,-8.99436,-6.62535,6.51061,Q,Q
2023-03-15 12:57:56:356,0,-8.99067,-6.65259,6.5365,Q,Q
2023-03-15 12:57:56:366,0,-8.9891,-6.68067,6.55933,Q,Q
2023-03-15 12:57:56:376,0,-8.98883,-6.70397,6.57914,Q,Q
2023-03-15 12:57:56:386,0,-8.99025,-6.72464,6.60303,Q,Q
2023-03-15 12:57:56:396,0,-8.99636,-6.74349,6.62331,Q,Q
2023-03-15 12:57:56:406,0,-9.00683,-6.7574,6.64271,Q,Q
2023-03-15 12:57:56:416,0,-9.01941,-6.77203,6.65801,Q,Q
2023-03-15 12:57:56:426,0,-9.03414,-6.78494,6.67291,Q,Q
2023-03-15 12:57:56:436,0,-9.0502,-6.79449,6.68639,Q,Q
2023-03-15 12:57:56:446,0,-9.06705,-6.79911,6.69706,Q,Q
2023-03-15 12:57:56:456,0,-9.09355,-6.80721,6.70761,Q,Q
2023-03-15 12:57:56:466,0,-9.11726,-6.81167,6.71363,Q,Q
2023-03-15 12:57:56:476,0,-9.14017,-6.81483,6.71557,Q,Q
2023-03-15 12:57:56:486,0,-9.16647,-6.82188,6.71277,Q,Q
2023-03-15 12:57:56:496,0,-9.19401,-6.8277,6.70897,Q,Q
2023-03-15 12:57:56:506,0,-9.22272,-6.8347,6.70383,Q,Q
2023-03-15 12:57:56:516,0,-9.25291,-6.83761,6.69977,Q,Q
2023-03-15 12:57:56:526,0,-9.28285,-6.84603,6.69157,Q,Q
2023-03-15 12:57:56:536,0,-9.31293,-6.85251,6.6839,Q,Q
2023-03-15 12:57:56:546,0,-9.34669,-6.85639,6.67689,Q,Q
2023-03-15 12:57:56:556,0,-9.38034,-6.85686,6.66628,Q,Q
2023-03-15 12:57:56:566,0,-9.41352,-6.856,6.6516,Q,Q
2023-03-15 12:57:56:576,0,-9.45329,-6.85281,6.64081,Q,Q
2023-03-15 12:57:56:586,0,-9.4918,-6.85378,6.62907,Q,Q
2023-03-15 12:57:56:596,0,-9.53393,-6.8513,6.61989,Q,Q
2023-03-15 12:57:56:606,0,-9.58058,-6.85271,6.61095,Q,Q
2023-03-15 12:57:56:616,0,-9.63146,-6.85111,6.59936,Q,Q
2023-03-15 12:57:56:626,0,-9.68099,-6.84826,6.58455,Q,Q
2023-03-15 12:57:56:636,0,-9.73368,-6.84177,6.57079,Q,Q
2023-03-15 12:57:56:646,0,-9.78629,-6.83785,6.55008,Q,Q
2023-03-15 12:57:56:656,0,-9.84295,-6.83153,6.53586,Q,Q
2023-03-15 12:57:56:666,0,-9.90431,-6.82246,6.5155,Q,Q
2023-03-15 12:57:56:676,0,-9.97115,-6.81547,6.49456,Q,Q
2023-03-15 12:57:56:686,0,-10.0427,-6.80997,6.4722,Q,Q
2023-03-15 12:57:56:696,0,-10.1144,-6.80332,6.45071,Q,Q
2023-03-15 12:57:56:706,0,-10.1938,-6.79685,6.42201,Q,Q
2023-03-15 12:57:56:716,0,-10.2693,-6.7878,6.39239,Q,Q
2023-03-15 12:57:56:726,0,-10.3494,-6.78108,6.36174,Q,Q
2023-03-15 12:57:56:736,0,-10.4323,-6.77192,6.32613,Q,Q
2023-03-15 12:57:56:746,0,-10.5141,-6.76468,6.28559,Q,Q
2023-03-15 12:57:56:756,0,-10.6009,-6.75707,6.24081,Q,Q
2023-03-15 12:57:56:766,0,-10.6882,-6.75045,6.19662,Q,Q
2023-03-15 12:57:56:776,0,-10.7712,-6.74488,6.15322,Q,Q
2023-03-15 12:57:56:786,0,-10.8532,-6.73857,6.10568,Q,Q
2023-03-15 12:57:56:796,0,-10.9329,-6.73506,6.05509,Q,Q
2023-03-15 12:57:56:806,0,-11.0102,-6.73097,6.00071,Q,Q
2023-03-15 12:57:56:816,0,-11.0877,-6.72929,5.93998,Q,Q
2023-03-15 12:57:56:826,0,-11.163,-6.72567,5.87488,Q,Q
2023-03-15 12:57:56:836,0,-11.2363,-6.72136,5.81193,Q,Q
2023-03-15 12:57:56:846,0,-11.3072,-6.71549,5.74154,Q,Q
2023-03-15 12:57:56:856,0,-11.3724,-6.70605,5.6666,Q,Q
2023-03-15 12:57:56:866,0,-11.436,-6.69395,5.58874,Q,Q
2023-03-15 12:57:56:875,0,-11.5009,-6.67831,5.50962,Q,Q
2023-03-15 12:57:56:885,0,-11.5723,-6.66422,5.4232,Q,Q
2023-03-15 12:57:56:895,0,-11.6411,-6.64689,5.33632,Q,Q
2023-03-15 12:57:56:906,0,-11.708,-6.62658,5.24657,Q,Q
2023-03-15 12:57:56:916,0,-11.7737,-6.60509,5.1524,Q,Q
2023-03-15 12:57:56:926,0,-11.8438,-6.57995,5.056,Q,Q
2023-03-15 12:57:56:936,0,-11.9164,-6.5532,4.9579,Q,Q
2023-03-15 12:57:56:946,0,-11.9853,-6.52411,4.85759,Q,Q
2023-03-15 12:57:56:956,0,-12.0518,-6.49581,4.75473,Q,Q
2023-03-15 12:57:56:966,0,-12.12,-6.46607,4.64842,Q,Q
2023-03-15 12:57:56:976,0,-12.1916,-6.43445,4.54037,Q,Q
2023-03-15 12:57:56:986,0,-12.266,-6.39922,4.43328,Q,Q
2023-03-15 12:57:56:996,0,-12.3408,-6.36623,4.32329,Q,Q
2023-03-15 12:57:57:6,0,-12.4224,-6.32949,4.20601,Q,Q
2023-03-15 12:57:57:16,0,-12.5075,-6.29357,4.08748,Q,Q
2023-03-15 12:57:57:26,0,-12.5991,-6.25705,3.96865,Q,Q
2023-03-15 12:57:57:36,0,-12.6982,-6.21905,3.85022,Q,Q
2023-03-15 12:57:57:46,0,-12.8006,-6.18344,3.72641,Q,Q
2023-03-15 12:57:57:56,0,-12.9116,-6.14506,3.60148,Q,Q
2023-03-15 12:57:57:66,0,-13.0277,-6.10522,3.47217,Q,Q
2023-03-15 12:57:57:76,0,-13.1477,-6.0617,3.34162,Q,Q
2023-03-15 12:57:57:86,0,-13.2734,-6.02187,3.21193,Q,Q
2023-03-15 12:57:57:96,0,-13.4033,-5.97851,3.07593,Q,Q
2023-03-15 12:57:57:106,0,-13.5458,-5.93504,2.93613,Q,Q
2023-03-15 12:57:57:116,0,-13.6959,-5.88914,2.79206,Q,Q
2023-03-15 12:57:57:126,0,-13.8538,-5.84188,2.64027,Q,Q
2023-03-15 12:57:57:136,0,-14.0207,-5.79041,2.48214,Q,Q
2023-03-15 12:57:57:146,0,-14.2007,-5.73567,2.32356,Q,Q
2023-03-15 12:57:57:156,0,-14.3899,-5.6781,2.16014,Q,Q
2023-03-15 12:57:57:166,0,-14.5897,-5.62917,1.99085,Q,Q
2023-03-15 12:57:57:176,0,-14.801,-5.57884,1.81106,Q,Q
2023-03-15 12:57:57:186,0,-15.0118,-5.52645,1.62145,Q,Q
2023-03-15 12:57:57:196,0,-15.2216,-5.47945,1.43221,Q,Q
2023-03-15 12:57:57:206,0,-15.427,-5.43144,1.24191,Q,Q
2023-03-15 12:57:57:216,0,-15.63,-5.38226,1.04575,Q,Q
2023-03-15 12:57:57:226,0,-15.8368,-5.33577,0.845543,Q,Q
2023-03-15 12:57:57:236,0,-16.0547,-5.29221,0.644172,Q,Q
2023-03-15 12:57:57:246,0,-16.2863,-5.24846,0.438483,Q,Q
2023-03-15 12:57:57:256,0,-16.5376,-5.2044,0.226856,Q,Q
2023-03-15 12:57:57:266,0,-16.8135,-5.16137,0.0100569,Q,Q
2023-03-15 12:57:57:276,0,-17.1149,-5.11842,-0.21766,Q,Q
2023-03-15 12:57:57:286,0,-17.4397,-5.07197,-0.442526,Q,Q
2023-03-15 12:57:57:296,0,-17.7852,-5.02677,-0.676732,Q,Q
2023-03-15 12:57:57:306,0,-18.1444,-4.9859,-0.916178,Q,Q
2023-03-15 12:57:57:316,0,-18.5257,-4.94491,-1.16212,Q,Q
2023-03-15 12:57:57:326,0,-18.9225,-4.90675,-1.41673,Q,Q
2023-03-15 12:57:57:336,0,-19.3347,-4.86855,-1.68133,Q,Q
2023-03-15 12:57:57:346,0,-19.7631,-4.83263,-1.95241,Q,Q
2023-03-15 12:57:57:356,0,-20.1985,-4.79787,-2.23374,Q,Q
2023-03-15 12:57:57:366,0,-20.6448,-4.7673,-2.5258,Q,Q
2023-03-15 12:57:57:376,0,-21.0987,-4.7369,-2.82719,Q,Q
2023-03-15 12:57:57:386,0,-21.5661,-4.70856,-3.13999,Q,Q
2023-03-15 12:57:57:396,0,-22.0525,-4.68684,-3.46052,Q,Q
2023-03-15 12:57:57:406,0,-22.564,-4.66759,-3.79621,Q,Q
2023-03-15 12:57:57:416,0,-23.0863,-4.65017,-4.14037,Q,Q
2023-03-15 12:57:57:426,0,-23.6162,-4.64075,-4.49678,Q,Q
2023-03-15 12:57:57:436,0,-24.1439,-4.63175,-4.86546,Q,Q
2023-03-15 12:57:57:446,0,-24.6492,-4.62382,-5.24556,Q,Q
2023-03-15 12:57:57:456,0,-25.1249,-4.61783,-5.63352,Q,Q
2023-03-15 12:57:57:466,0,-25.5676,-4.60933,-6.02856,Q,Q
2023-03-15 12:57:57:476,0,-25.9854,-4.60264,-6.42358,Q,Q
2023-03-15 12:57:57:486,0,-26.38,-4.59065,-6.81713,Q,Q
2023-03-15 12:57:57:496,0,-26.769,-4.58325,-7.21271,Q,Q
2023-03-15 12:57:57:506,0,-27.1599,-4.57828,-7.61499,Q,Q
2023-03-15 12:57:57:516,0,-27.5559,-4.56511,-8.02341,Q,Q
2023-03-15 12:57:57:526,0,-27.9493,-4.55805,-8.43466,Q,Q
2023-03-15 12:57:57:536,0,-28.3267,-4.54614,-8.84219,Q,Q
2023-03-15 12:57:57:546,0,-28.6773,-4.53215,-9.24432,Q,Q
2023-03-15 12:57:57:556,0,-28.9956,-4.51155,-9.6385,Q,Q
2023-03-15 12:57:57:566,0,-29.288,-4.49474,-10.0245,Q,Q
2023-03-15 12:57:57:576,0,-29.5715,-4.48101,-10.4005,Q,Q
2023-03-15 12:57:57:586,0,-29.8501,-4.4685,-10.7669,Q,Q
2023-03-15 12:57:57:596,0,-30.1224,-4.45552,-11.1212,Q,Q
2023-03-15 12:57:57:606,0,-30.3906,-4.44718,-11.462,Q,Q
2023-03-15 12:57:57:616,0,-30.6515,-4.44657,-11.7917,Q,Q
2023-03-15 12:57:57:626,0,-30.9074,-4.44437,-12.1159,Q,Q
2023-03-15 12:57:57:636,0,-31.1592,-4.44607,-12.428,Q,Q
2023-03-15 12:57:57:646,0,-31.3957,-4.45319,-12.723,Q,Q
2023-03-15 12:57:57:656,0,-31.6104,-4.46149,-13.0085,Q,Q
2023-03-15 12:57:57:666,0,-31.7919,-4.4763,-13.2838,Q,Q
2023-03-15 12:57:57:676,0,-31.9365,-4.48445,-13.547,Q,Q
2023-03-15 12:57:57:686,0,-32.0466,-4.48776,-13.7988,Q,Q
2023-03-15 12:57:57:696,0,-32.1378,-4.48323,-14.0367,Q,Q
2023-03-15 12:57:57:706,0,-32.2115,-4.47799,-14.2592,Q,Q
2023-03-15 12:57:57:716,0,-32.284,-4.47037,-14.4719,Q,Q
2023-03-15 12:57:57:726,0,-32.3494,-4.46957,-14.6787,Q,Q
2023-03-15 12:57:57:736,0,-32.4067,-4.47648,-14.8781,Q,Q
2023-03-15 12:57:57:746,0,-32.4544,-4.49548,-15.0783,Q,Q
2023-03-15 12:57:57:756,0,-32.482,-4.51955,-15.277,Q,Q
2023-03-15 12:57:57:766,0,-32.4894,-4.54928,-15.4765,Q,Q
2023-03-15 12:57:57:776,0,-32.4808,-4.58014,-15.6817,Q,Q
2023-03-15 12:57:57:786,0,-32.4744,-4.61253,-15.8851,Q,Q
2023-03-15 12:57:57:796,0,-32.4747,-4.64612,-16.089,Q,Q
2023-03-15 12:57:57:806,0,-32.4785,-4.67349,-16.2885,Q,Q
2023-03-15 12:57:57:816,0,-32.4748,-4.70418,-16.4837,Q,Q
2023-03-15 12:57:57:826,0,-32.475,-4.73569,-16.6766,Q,Q
2023-03-15 12:57:57:836,0,-32.4742,-4.76592,-16.8618,Q,Q
2023-03-15 12:57:57:846,0,-32.4654,-4.79174,-17.0356,Q,Q
2023-03-15 12:57:57:856,0,-32.4475,-4.81354,-17.2061,Q,Q
2023-03-15 12:57:57:866,0,-32.4155,-4.82906,-17.3707,Q,Q
2023-03-15 12:57:57:876,0,-32.3797,-4.84158,-17.5231,Q,Q
2023-03-15 12:57:57:886,0,-32.3442,-4.84809,-17.6691,Q,Q
2023-03-15 12:57:57:896,0,-32.3093,-4.8465,-17.8068,Q,Q
2023-03-15 12:57:57:906,0,-32.2748,-4.84577,-17.9387,Q,Q
2023-03-15 12:57:57:916,0,-32.2405,-4.83596,-18.0583,Q,Q
2023-03-15 12:57:57:926,0,-32.2097,-4.82099,-18.169,Q,Q
2023-03-15 12:57:57:936,0,-32.1654,-4.80748,-18.269,Q,Q
2023-03-15 12:57:57:946,0,-32.1111,-4.78926,-18.3562,Q,Q
2023-03-15 12:57:57:956,0,-32.0391,-4.7668,-18.4263,Q,Q
2023-03-15 12:57:57:966,0,-31.9426,-4.73985,-18.4729,Q,Q
2023-03-15 12:57:57:976,0,-31.8223,-4.7054,-18.5008,Q,Q
2023-03-15 12:57:57:986,0,-31.6786,-4.66078,-18.5048,Q,Q
2023-03-15 12:57:57:996,0,-31.4927,-4.60256,-18.4822,Q,Q
2023-03-15 12:57:58:6,0,-31.2618,-4.52795,-18.4285,Q,Q
2023-03-15 12:57:58:16,0,-30.978,-4.43527,-18.3381,Q,Q
2023-03-15 12:57:58:26,0,-30.6397,-4.32429,-18.2042,Q,Q
2023-03-15 12:57:58:36,0,-30.2367,-4.19006,-18.0305,Q,Q
2023-03-15 12:57:58:46,0,-29.7786,-4.0319,-17.8086,Q,Q
2023-03-15 12:57:58:56,0,-29.2675,-3.85749,-17.5485,Q,Q
2023-03-15 12:57:58:66,0,-28.7077,-3.66802,-17.2515,Q,Q
2023-03-15 12:57:58:76,0,-28.0993,-3.4683,-16.9202,Q,Q
2023-03-15 12:57:58:86,0,-27.4402,-3.25838,-16.554,Q,Q
2023-03-15 12:57:58:96,0,-26.7386,-3.04147,-16.1505,Q,Q
2023-03-15 12:57:58:106,0,-26.0057,-2.82482,-15.7174,Q,Q
2023-03-15 12:57:58:116,0,-25.2583,-2.61182,-15.2552,Q,Q
2023-03-15 12:57:58:126,0,-24.5057,-2.41743,-14.7796,Q,Q
2023-03-15 12:57:58:136,0,-23.7553,-2.24165,-14.2846,Q,Q
2023-03-15 12:57:58:146,0,-23.0059,-2.08157,-13.7796,Q,Q
2023-03-15 12:57:58:156,0,-22.2629,-1.94472,-13.2649,Q,Q
2023-03-15 12:57:58:166,0,-21.5249,-1.82531,-12.7487,Q,Q
2023-03-15 12:57:58:176,0,-20.8101,-1.71845,-12.2341,Q,Q
2023-03-15 12:57:58:186,0,-20.1243,-1.62432,-11.7326,Q,Q
2023-03-15 12:57:58:196,0,-19.4827,-1.54108,-11.2519,Q,Q
2023-03-15 12:57:58:206,0,-18.8912,-1.47131,-10.793,Q,Q
2023-03-15 12:57:58:216,0,-18.3481,-1.41943,-10.3526,Q,Q
2023-03-15 12:57:58:226,0,-17.8458,-1.38763,-9.9291,Q,Q
2023-03-15 12:57:58:236,0,-17.3781,-1.37402,-9.52648,Q,Q
2023-03-15 12:57:58:246,0,-16.9455,-1.37431,-9.15086,Q,Q
2023-03-15 12:57:58:256,0,-16.5413,-1.38826,-8.79869,Q,Q
2023-03-15 12:57:58:266,0,-16.1589,-1.40519,-8.47652,Q,Q
2023-03-15 12:57:58:276,0,-15.7892,-1.43309,-8.17428,Q,Q
2023-03-15 12:57:58:286,0,-15.4337,-1.47337,-7.89061,Q,Q
2023-03-15 12:57:58:296,0,-15.0784,-1.52576,-7.6217,Q,Q
2023-03-15 12:57:58:306,0,-14.7312,-1.58203,-7.36628,Q,Q
2023-03-15 12:57:58:316,0,-14.4009,-1.63973,-7.12716,Q,Q
2023-03-15 12:57:58:326,0,-14.0917,-1.69791,-6.90885,Q,Q
2023-03-15 12:57:58:336,0,-13.8042,-1.75982,-6.70734,Q,Q
2023-03-15 12:57:58:346,0,-13.5303,-1.82366,-6.51605,Q,Q
2023-03-15 12:57:58:356,0,-13.267,-1.89406,-6.33514,Q,Q
2023-03-15 12:57:58:366,0,-13.0128,-1.97004,-6.16235,Q,Q
2023-03-15 12:57:58:376,0,-12.7709,-2.04743,-5.99859,Q,Q
2023-03-15 12:57:58:386,0,-12.5366,-2.12654,-5.84668,Q,Q
2023-03-15 12:57:58:396,0,-12.3117,-2.20503,-5.70426,Q,Q
2023-03-15 12:57:58:406,0,-12.0924,-2.2847,-5.5676,Q,Q
2023-03-15 12:57:58:416,0,-11.8884,-2.36011,-5.44142,Q,Q
2023-03-15 12:57:58:426,0,-11.6988,-2.43252,-5.32513,Q,Q
