Timestamp_cmd,imu_cmd,roll_delta,pitch_delta,yaw_delta,voice_type,voice_length
2023-03-15 21:52:37:709,0,-4.5186,-5.53161,-25.5759,Q,Q
2023-03-15 21:52:37:718,0,-4.51247,-5.53417,-25.5765,Q,Q
2023-03-15 21:52:37:728,0,-4.51048,-5.53803,-25.5777,Q,Q
2023-03-15 21:52:37:738,0,-4.5098,-5.54481,-25.5793,Q,Q
2023-03-15 21:52:37:748,0,-4.51528,-5.55306,-25.5791,Q,Q
2023-03-15 21:52:37:758,0,-4.52185,-5.5571,-25.5792,Q,Q
2023-03-15 21:52:37:768,0,-4.53446,-5.56455,-25.5792,Q,Q
2023-03-15 21:52:37:778,0,-4.5486,-5.57266,-25.5794,Q,Q
2023-03-15 21:52:37:788,0,-4.56051,-5.58169,-25.5761,Q,Q
2023-03-15 21:52:37:798,0,-4.57714,-5.59033,-25.5742,Q,Q
2023-03-15 21:52:37:808,0,-4.58996,-5.60254,-25.5777,Q,Q
2023-03-15 21:52:37:818,0,-4.60391,-5.61107,-25.5803,Q,Q
2023-03-15 21:52:37:828,0,-4.61339,-5.61721,-25.585,Q,Q
2023-03-15 21:52:37:838,0,-4.61726,-5.62126,-25.5917,Q,Q
2023-03-15 21:52:37:848,0,-4.6225,-5.62584,-25.6003,Q,Q
2023-03-15 21:52:37:858,0,-4.62646,-5.6318,-25.6068,Q,Q
2023-03-15 21:52:37:868,0,-4.62566,-5.63266,-25.6152,Q,Q
2023-03-15 21:52:37:878,0,-4.62293,-5.63625,-25.6224,Q,Q
2023-03-15 21:52:37:888,0,-4.62197,-5.64226,-25.626,Q,Q
2023-03-15 21:52:37:898,0,-4.61798,-5.64591,-25.6296,Q,Q
2023-03-15 21:52:37:908,0,-4.61256,-5.65294,-25.6354,Q,Q
2023-03-15 21:52:37:918,0,-4.60781,-5.65704,-25.6378,Q,Q
2023-03-15 21:52:37:928,0,-4.59929,-5.6647,-25.6444,Q,Q
2023-03-15 21:52:37:938,0,-4.59253,-5.66659,-25.6487,Q,Q
2023-03-15 21:52:37:948,0,-4.58712,-5.67529,-25.6471,Q,Q
2023-03-15 21:52:37:958,0,-4.58226,-5.68444,-25.6477,Q,Q
2023-03-15 21:52:37:968,0,-4.57545,-5.69662,-25.6518,Q,Q
2023-03-15 21:52:37:978,0,-4.56782,-5.70954,-25.6497,Q,Q
2023-03-15 21:52:37:988,0,-4.56269,-5.72491,-25.6451,Q,Q
2023-03-15 21:52:37:998,0,-4.55571,-5.74261,-25.6414,Q,Q
2023-03-15 21:52:38:8,0,-4.55085,-5.75961,-25.6347,Q,Q
2023-03-15 21:52:38:18,0,-4.54592,-5.77397,-25.6286,Q,Q
2023-03-15 21:52:38:28,0,-4.54006,-5.78714,-25.6194,Q,Q
2023-03-15 21:52:38:38,0,-4.53622,-5.79976,-25.6122,Q,Q
2023-03-15 21:52:38:48,0,-4.52863,-5.81175,-25.6044,Q,Q
2023-03-15 21:52:38:58,0,-4.51537,-5.82101,-25.5985,Q,Q
2023-03-15 21:52:38:68,0,-4.50538,-5.83357,-25.5929,Q,Q
2023-03-15 21:52:38:78,0,-4.4922,-5.84678,-25.5905,Q,Q
2023-03-15 21:52:38:88,0,-4.47598,-5.85819,-25.5878,Q,Q
2023-03-15 21:52:38:98,0,-4.46532,-5.86862,-25.5868,Q,Q
2023-03-15 21:52:38:108,0,-4.45614,-5.8779,-25.5867,Q,Q
2023-03-15 21:52:38:118,0,-4.44234,-5.88568,-25.5888,Q,Q
2023-03-15 21:52:38:128,0,-4.42761,-5.89752,-25.594,Q,Q
2023-03-15 21:52:38:138,0,-4.41428,-5.90492,-25.6003,Q,Q
2023-03-15 21:52:38:148,0,-4.40471,-5.90794,-25.6,Q,Q
2023-03-15 21:52:38:158,0,-4.39574,-5.91456,-25.5984,Q,Q
2023-03-15 21:52:38:168,0,-4.38586,-5.91946,-25.5974,Q,Q
2023-03-15 21:52:38:178,0,-4.38276,-5.92207,-25.5976,Q,Q
2023-03-15 21:52:38:188,0,-4.37886,-5.92451,-25.5989,Q,Q
2023-03-15 21:52:38:198,0,-4.37844,-5.92673,-25.5989,Q,Q
2023-03-15 21:52:38:208,0,-4.38149,-5.92663,-25.5968,Q,Q
2023-03-15 21:52:38:218,0,-4.38744,-5.92266,-25.5921,Q,Q
2023-03-15 21:52:38:228,0,-4.39134,-5.92259,-25.5897,Q,Q
2023-03-15 21:52:38:238,0,-4.39627,-5.92203,-25.5899,Q,Q
2023-03-15 21:52:38:248,0,-4.40352,-5.92015,-25.589,Q,Q
2023-03-15 21:52:38:258,0,-4.41059,-5.9171,-25.5917,Q,Q
2023-03-15 21:52:38:268,0,-4.41641,-5.9176,-25.5911,Q,Q
2023-03-15 21:52:38:278,0,-4.42359,-5.916,-25.5897,Q,Q
2023-03-15 21:52:38:288,0,-4.43196,-5.9127,-25.5921,Q,Q
2023-03-15 21:52:38:299,0,-4.43938,-5.91045,-25.5934,Q,Q
2023-03-15 21:52:38:308,0,-4.45055,-5.90959,-25.594,Q,Q
2023-03-15 21:52:38:318,0,-4.45669,-5.9096,-25.5947,Q,Q
2023-03-15 21:52:38:328,0,-4.46046,-5.90934,-25.5959,Q,Q
2023-03-15 21:52:38:338,0,-4.46279,-5.90586,-25.5947,Q,Q
2023-03-15 21:52:38:348,0,-4.46427,-5.90576,-25.5955,Q,Q
2023-03-15 21:52:38:358,0,-4.46969,-5.9048,-25.5914,Q,Q
2023-03-15 21:52:38:368,0,-4.47175,-5.90112,-25.5882,Q,Q
2023-03-15 21:52:38:378,0,-4.47549,-5.89502,-25.587,Q,Q
2023-03-15 21:52:38:388,0,-4.47656,-5.88744,-25.5866,Q,Q
2023-03-15 21:52:38:398,0,-4.4723,-5.87912,-25.5902,Q,Q
2023-03-15 21:52:38:408,0,-4.47142,-5.87586,-25.589,Q,Q
2023-03-15 21:52:38:418,0,-4.47252,-5.87476,-25.5859,Q,Q
2023-03-15 21:52:38:428,0,-4.47525,-5.87571,-25.5883,Q,Q
2023-03-15 21:52:38:438,0,-4.48095,-5.88092,-25.5901,Q,Q
2023-03-15 21:52:38:448,0,-4.49131,-5.87952,-25.5919,Q,Q
2023-03-15 21:52:38:458,0,-4.5084,-5.8784,-25.5941,Q,Q
2023-03-15 21:52:38:468,0,-4.52938,-5.87319,-25.5939,Q,Q
2023-03-15 21:52:38:478,0,-4.55124,-5.86848,-25.5955,Q,Q
2023-03-15 21:52:38:488,0,-4.57264,-5.86586,-25.5955,Q,Q
2023-03-15 21:52:38:498,0,-4.60038,-5.86656,-25.5935,Q,Q
2023-03-15 21:52:38:508,0,-4.62469,-5.86093,-25.593,Q,Q
2023-03-15 21:52:38:518,0,-4.64849,-5.85149,-25.5949,Q,Q
2023-03-15 21:52:38:528,0,-4.67076,-5.84292,-25.5955,Q,Q
2023-03-15 21:52:38:538,0,-4.6932,-5.83098,-25.5967,Q,Q
2023-03-15 21:52:38:548,0,-4.71193,-5.81643,-25.6006,Q,Q
2023-03-15 21:52:38:558,0,-4.72867,-5.80286,-25.6038,Q,Q
2023-03-15 21:52:38:568,0,-4.74104,-5.78435,-25.6109,Q,Q
2023-03-15 21:52:38:578,0,-4.75511,-5.76197,-25.6186,Q,Q
2023-03-15 21:52:38:588,0,-4.76289,-5.74168,-25.6287,Q,Q
2023-03-15 21:52:38:598,0,-4.76854,-5.72567,-25.6437,Q,Q
2023-03-15 21:52:38:608,0,-4.78014,-5.70744,-25.6538,Q,Q
2023-03-15 21:52:38:618,0,-4.79472,-5.68671,-25.668,Q,Q
2023-03-15 21:52:38:628,0,-4.8075,-5.66531,-25.682,Q,Q
2023-03-15 21:52:38:638,0,-4.81852,-5.64346,-25.6981,Q,Q
2023-03-15 21:52:38:648,0,-4.83097,-5.62459,-25.7129,Q,Q
2023-03-15 21:52:38:658,0,-4.84099,-5.60706,-25.7256,Q,Q
2023-03-15 21:52:38:668,0,-4.8488,-5.58746,-25.738,Q,Q
2023-03-15 21:52:38:677,0,-4.85753,-5.56931,-25.7492,Q,Q
2023-03-15 21:52:38:688,0,-4.86237,-5.55209,-25.7576,Q,Q
2023-03-15 21:52:38:697,0,-4.86658,-5.5324,-25.7672,Q,Q
2023-03-15 21:52:38:707,0,-4.86981,-5.51207,-25.7702,Q,Q
2023-03-15 21:52:38:717,0,-4.87364,-5.49346,-25.7747,Q,Q
2023-03-15 21:52:38:727,0,-4.88131,-5.4752,-25.7789,Q,Q
2023-03-15 21:52:38:737,0,-4.88602,-5.45535,-25.777,Q,Q
2023-03-15 21:52:38:748,0,-4.89258,-5.43785,-25.7776,Q,Q
2023-03-15 21:52:38:758,0,-4.89303,-5.42219,-25.7796,Q,Q
2023-03-15 21:52:38:768,0,-4.8948,-5.41069,-25.7787,Q,Q
2023-03-15 21:52:38:778,0,-4.89389,-5.39697,-25.7787,Q,Q
2023-03-15 21:52:38:788,0,-4.88941,-5.38257,-25.782,Q,Q
2023-03-15 21:52:38:798,0,-4.88724,-5.3718,-25.7832,Q,Q
2023-03-15 21:52:38:808,0,-4.88214,-5.35604,-25.7854,Q,Q
2023-03-15 21:52:38:818,0,-4.87858,-5.34136,-25.7914,Q,Q
2023-03-15 21:52:38:828,0,-4.87444,-5.33319,-25.791,Q,Q
2023-03-15 21:52:38:838,0,-4.86754,-5.32237,-25.7932,Q,Q
2023-03-15 21:52:38:848,0,-4.86224,-5.31183,-25.7934,Q,Q
2023-03-15 21:52:38:858,0,-4.85526,-5.30691,-25.793,Q,Q
2023-03-15 21:52:38:868,0,-4.85223,-5.30258,-25.7904,Q,Q
2023-03-15 21:52:38:878,0,-4.84652,-5.29868,-25.788,Q,Q
2023-03-15 21:52:38:888,0,-4.84167,-5.29222,-25.7843,Q,Q
2023-03-15 21:52:38:898,0,-4.83652,-5.28723,-25.7784,Q,Q
2023-03-15 21:52:38:908,0,-4.82663,-5.28142,-25.7736,Q,Q
2023-03-15 21:52:38:918,0,-4.82092,-5.27343,-25.7713,Q,Q
2023-03-15 21:52:38:928,0,-4.81517,-5.26625,-25.7661,Q,Q
2023-03-15 21:52:38:938,0,-4.80708,-5.2559,-25.7632,Q,Q
2023-03-15 21:52:38:948,0,-4.79994,-5.2487,-25.764,Q,Q
2023-03-15 21:52:38:958,0,-4.79222,-5.24095,-25.7644,Q,Q
2023-03-15 21:52:38:968,0,-4.78866,-5.23114,-25.7676,Q,Q
2023-03-15 21:52:38:978,0,-4.78072,-5.22395,-25.7734,Q,Q
2023-03-15 21:52:38:988,0,-4.77121,-5.21437,-25.7782,Q,Q
2023-03-15 21:52:38:998,0,-4.76529,-5.20303,-25.7877,Q,Q
2023-03-15 21:52:39:8,0,-4.75701,-5.19243,-25.7943,Q,Q
2023-03-15 21:52:39:18,0,-4.74674,-5.1838,-25.8004,Q,Q
2023-03-15 21:52:39:28,0,-4.74,-5.17288,-25.8033,Q,Q
2023-03-15 21:52:39:38,0,-4.73127,-5.15739,-25.8089,Q,Q
2023-03-15 21:52:39:48,0,-4.7227,-5.14323,-25.8132,Q,Q
2023-03-15 21:52:39:58,0,-4.7155,-5.13171,-25.8178,Q,Q
2023-03-15 21:52:39:68,0,-4.70553,-5.12257,-25.825,Q,Q
2023-03-15 21:52:39:78,0,-4.69852,-5.1095,-25.8301,Q,Q
2023-03-15 21:52:39:88,0,-4.69024,-5.09009,-25.8336,Q,Q
2023-03-15 21:52:39:98,0,-4.68241,-5.06891,-25.8381,Q,Q
2023-03-15 21:52:39:108,0,-4.67471,-5.05332,-25.8438,Q,Q
2023-03-15 21:52:39:118,0,-4.66401,-5.04062,-25.849,Q,Q
2023-03-15 21:52:39:128,0,-4.65503,-5.03166,-25.854,Q,Q
2023-03-15 21:52:39:138,0,-4.64731,-5.02301,-25.8595,Q,Q
2023-03-15 21:52:39:148,0,-4.64295,-5.02151,-25.8684,Q,Q
2023-03-15 21:52:39:158,0,-4.64474,-5.01999,-25.8739,Q,Q
2023-03-15 21:52:39:168,0,-4.64876,-5.01736,-25.878,Q,Q
2023-03-15 21:52:39:178,0,-4.66233,-5.01729,-25.8811,Q,Q
2023-03-15 21:52:39:188,0,-4.67581,-5.01622,-25.8823,Q,Q
2023-03-15 21:52:39:198,0,-4.69207,-5.01759,-25.8834,Q,Q
2023-03-15 21:52:39:208,0,-4.70867,-5.01673,-25.8819,Q,Q
2023-03-15 21:52:39:218,0,-4.7286,-5.01581,-25.8769,Q,Q
2023-03-15 21:52:39:228,0,-4.74392,-5.01651,-25.8739,Q,Q
2023-03-15 21:52:39:238,0,-4.75954,-5.0157,-25.8713,Q,Q
2023-03-15 21:52:39:248,0,-4.77325,-5.01312,-25.8691,Q,Q
2023-03-15 21:52:39:257,0,-4.78547,-5.0073,-25.8692,Q,Q
2023-03-15 21:52:39:268,0,-4.79062,-5.00672,-25.8668,Q,Q
2023-03-15 21:52:39:277,0,-4.79836,-5.00473,-25.8708,Q,Q
2023-03-15 21:52:39:288,0,-4.80117,-4.99771,-25.8734,Q,Q
2023-03-15 21:52:39:297,0,-4.80279,-4.9954,-25.8806,Q,Q
2023-03-15 21:52:39:307,0,-4.80451,-4.99321,-25.8873,Q,Q
2023-03-15 21:52:39:317,0,-4.80837,-4.99276,-25.8963,Q,Q
2023-03-15 21:52:39:327,0,-4.81199,-4.98866,-25.9094,Q,Q
2023-03-15 21:52:39:338,0,-4.80999,-4.98854,-25.9224,Q,Q
2023-03-15 21:52:39:348,0,-4.80628,-4.98722,-25.9331,Q,Q
2023-03-15 21:52:39:357,0,-4.80034,-4.98816,-25.946,Q,Q
2023-03-15 21:52:39:367,0,-4.79578,-4.99115,-25.9574,Q,Q
2023-03-15 21:52:39:377,0,-4.79315,-4.99711,-25.9645,Q,Q
2023-03-15 21:52:39:387,0,-4.78702,-4.99703,-25.969,Q,Q
2023-03-15 21:52:39:397,0,-4.78656,-4.99751,-25.9728,Q,Q
2023-03-15 21:52:39:407,0,-4.78811,-5.00248,-25.9737,Q,Q
2023-03-15 21:52:39:418,0,-4.79058,-5.00169,-25.9733,Q,Q
2023-03-15 21:52:39:428,0,-4.801,-5.00304,-25.9654,Q,Q
2023-03-15 21:52:39:438,0,-4.80498,-5.00627,-25.9607,Q,Q
2023-03-15 21:52:39:448,0,-4.81184,-5.01071,-25.9555,Q,Q
2023-03-15 21:52:39:458,0,-4.81724,-5.01712,-25.9523,Q,Q
2023-03-15 21:52:39:468,0,-4.82208,-5.02331,-25.9483,Q,Q
2023-03-15 21:52:39:478,0,-4.82703,-5.03287,-25.9478,Q,Q
2023-03-15 21:52:39:487,0,-4.82896,-5.04206,-25.9449,Q,Q
2023-03-15 21:52:39:497,0,-4.82827,-5.04762,-25.9466,Q,Q
2023-03-15 21:52:39:507,0,-4.82368,-5.048,-25.9489,Q,Q
2023-03-15 21:52:39:518,0,-4.82162,-5.05822,-25.9487,Q,Q
2023-03-15 21:52:39:528,0,-4.81637,-5.0652,-25.9501,Q,Q
2023-03-15 21:52:39:538,0,-4.81047,-5.06961,-25.9559,Q,Q
2023-03-15 21:52:39:548,0,-4.80798,-5.07605,-25.9567,Q,Q
2023-03-15 21:52:39:558,0,-4.80425,-5.08419,-25.9583,Q,Q
2023-03-15 21:52:39:568,0,-4.80389,-5.09691,-25.9575,Q,Q
2023-03-15 21:52:39:578,0,-4.80449,-5.10358,-25.9582,Q,Q
2023-03-15 21:52:39:588,0,-4.80775,-5.10993,-25.9611,Q,Q
2023-03-15 21:52:39:598,0,-4.81098,-5.11615,-25.9569,Q,Q
2023-03-15 21:52:39:608,0,-4.81035,-5.12291,-25.9543,Q,Q
2023-03-15 21:52:39:618,0,-4.81228,-5.127,-25.9523,Q,Q
2023-03-15 21:52:39:628,0,-4.81327,-5.12996,-25.9508,Q,Q
2023-03-15 21:52:39:638,0,-4.81302,-5.1354,-25.9476,Q,Q
2023-03-15 21:52:39:648,0,-4.81906,-5.13877,-25.9455,Q,Q
2023-03-15 21:52:39:658,0,-4.82469,-5.14566,-25.9438,Q,Q
2023-03-15 21:52:39:668,0,-4.83241,-5.15213,-25.9418,Q,Q
2023-03-15 21:52:39:678,0,-4.83758,-5.15791,-25.9417,Q,Q
2023-03-15 21:52:39:688,0,-4.84281,-5.16252,-25.9441,Q,Q
2023-03-15 21:52:39:698,0,-4.8472,-5.17182,-25.9505,Q,Q
2023-03-15 21:52:39:708,0,-4.84877,-5.18105,-25.956,Q,Q
2023-03-15 21:52:39:718,0,-4.85229,-5.19116,-25.9649,Q,Q
2023-03-15 21:52:39:728,0,-4.85662,-5.20364,-25.968,Q,Q
2023-03-15 21:52:39:738,0,-4.86073,-5.21492,-25.9722,Q,Q
2023-03-15 21:52:39:748,0,-4.86632,-5.22194,-25.9759,Q,Q
2023-03-15 21:52:39:758,0,-4.8735,-5.22959,-25.9811,Q,Q
2023-03-15 21:52:39:768,0,-4.87976,-5.23895,-25.9803,Q,Q
2023-03-15 21:52:39:778,0,-4.88341,-5.24663,-25.9792,Q,Q
2023-03-15 21:52:39:788,0,-4.88333,-5.2562,-25.9798,Q,Q
2023-03-15 21:52:39:798,0,-4.88307,-5.2635,-25.9796,Q,Q
2023-03-15 21:52:39:808,0,-4.88467,-5.2679,-25.98,Q,Q
2023-03-15 21:52:39:818,0,-4.87782,-5.26991,-25.9776,Q,Q
2023-03-15 21:52:39:828,0,-4.87467,-5.2677,-25.9795,Q,Q
2023-03-15 21:52:39:838,0,-4.86686,-5.26994,-25.9806,Q,Q
2023-03-15 21:52:39:848,0,-4.86065,-5.27385,-25.9832,Q,Q
2023-03-15 21:52:39:858,0,-4.8528,-5.28222,-25.9828,Q,Q
2023-03-15 21:52:39:868,0,-4.8476,-5.29341,-25.9835,Q,Q
2023-03-15 21:52:39:878,0,-4.8492,-5.30988,-25.9819,Q,Q
2023-03-15 21:52:39:888,0,-4.85583,-5.32279,-25.9808,Q,Q
2023-03-15 21:52:39:898,0,-4.86285,-5.33257,-25.9777,Q,Q
2023-03-15 21:52:39:908,0,-4.87459,-5.34426,-25.9747,Q,Q
2023-03-15 21:52:39:918,0,-4.89199,-5.3564,-25.963,Q,Q
2023-03-15 21:52:39:928,0,-4.91414,-5.37178,-25.9547,Q,Q
2023-03-15 21:52:39:938,0,-4.93558,-5.39011,-25.9433,Q,Q
2023-03-15 21:52:39:948,0,-4.95567,-5.40631,-25.9326,Q,Q
2023-03-15 21:52:39:957,0,-4.97541,-5.41907,-25.9225,Q,Q
2023-03-15 21:52:39:968,0,-4.99253,-5.42703,-25.9147,Q,Q
2023-03-15 21:52:39:978,0,-5.00733,-5.43359,-25.9099,Q,Q
2023-03-15 21:52:39:988,0,-5.0181,-5.4417,-25.9063,Q,Q
2023-03-15 21:52:39:998,0,-5.02891,-5.44673,-25.9042,Q,Q
2023-03-15 21:52:40:8,0,-5.04118,-5.44994,-25.9071,Q,Q
2023-03-15 21:52:40:18,0,-5.04997,-5.45522,-25.9134,Q,Q
2023-03-15 21:52:40:28,0,-5.05589,-5.4613,-25.921,Q,Q
2023-03-15 21:52:40:38,0,-5.06203,-5.46233,-25.9297,Q,Q
2023-03-15 21:52:40:48,0,-5.06846,-5.46508,-25.9456,Q,Q
2023-03-15 21:52:40:58,0,-5.06998,-5.46766,-25.9641,Q,Q
2023-03-15 21:52:40:68,0,-5.07074,-5.4699,-25.9976,Q,Q
2023-03-15 21:52:40:78,0,-5.05897,-5.47551,-26.041,Q,Q
2023-03-15 21:52:40:88,0,-5.04866,-5.47845,-26.089,Q,Q
2023-03-15 21:52:40:98,0,-5.04143,-5.48645,-26.1397,Q,Q
2023-03-15 21:52:40:108,0,-5.03574,-5.49319,-26.1939,Q,Q
2023-03-15 21:52:40:118,0,-5.03621,-5.49803,-26.253,Q,Q
2023-03-15 21:52:40:128,0,-5.03894,-5.49964,-26.3123,Q,Q
2023-03-15 21:52:40:138,0,-5.04144,-5.49999,-26.3759,Q,Q
2023-03-15 21:52:40:148,0,-5.04748,-5.4945,-26.4355,Q,Q
2023-03-15 21:52:40:158,0,-5.05051,-5.48844,-26.492,Q,Q
2023-03-15 21:52:40:168,0,-5.05595,-5.47868,-26.5425,Q,Q
2023-03-15 21:52:40:178,0,-5.05945,-5.46876,-26.591,Q,Q
2023-03-15 21:52:40:188,0,-5.06164,-5.45917,-26.6291,Q,Q
2023-03-15 21:52:40:198,0,-5.06242,-5.4545,-26.6653,Q,Q
2023-03-15 21:52:40:208,0,-5.06318,-5.44898,-26.6885,Q,Q
2023-03-15 21:52:40:218,0,-5.06108,-5.44881,-26.7089,Q,Q
2023-03-15 21:52:40:228,0,-5.05423,-5.44915,-26.721,Q,Q
2023-03-15 21:52:40:238,0,-5.04643,-5.45392,-26.7299,Q,Q
2023-03-15 21:52:40:248,0,-5.03466,-5.46204,-26.7348,Q,Q
2023-03-15 21:52:40:258,0,-5.02323,-5.47139,-26.7354,Q,Q
2023-03-15 21:52:40:268,0,-5.01147,-5.48276,-26.7337,Q,Q
2023-03-15 21:52:40:278,0,-4.99628,-5.49547,-26.7291,Q,Q
2023-03-15 21:52:40:288,0,-4.98175,-5.50857,-26.7228,Q,Q
2023-03-15 21:52:40:298,0,-4.96972,-5.52434,-26.7146,Q,Q
2023-03-15 21:52:40:308,0,-4.96229,-5.54179,-26.7039,Q,Q
2023-03-15 21:52:40:318,0,-4.9557,-5.55746,-26.6901,Q,Q
2023-03-15 21:52:40:328,0,-4.95349,-5.57107,-26.6782,Q,Q
2023-03-15 21:52:40:338,0,-4.94824,-5.58148,-26.666,Q,Q
2023-03-15 21:52:40:348,0,-4.95006,-5.58861,-26.6569,Q,Q
2023-03-15 21:52:40:358,0,-4.94963,-5.59533,-26.6437,Q,Q
2023-03-15 21:52:40:368,0,-4.94913,-5.59918,-26.6356,Q,Q
2023-03-15 21:52:40:378,0,-4.95104,-5.60584,-26.6319,Q,Q
2023-03-15 21:52:40:388,0,-4.95421,-5.60891,-26.6321,Q,Q
2023-03-15 21:52:40:398,0,-4.95613,-5.61383,-26.6367,Q,Q
2023-03-15 21:52:40:408,0,-4.95582,-5.61684,-26.6441,Q,Q
2023-03-15 21:52:40:418,0,-4.95487,-5.62127,-26.6536,Q,Q
2023-03-15 21:52:40:428,0,-4.95005,-5.62614,-26.6653,Q,Q
2023-03-15 21:52:40:438,0,-4.94437,-5.63448,-26.6813,Q,Q
2023-03-15 21:52:40:448,0,-4.93396,-5.6466,-26.6975,Q,Q
2023-03-15 21:52:40:458,0,-4.92606,-5.65503,-26.7111,Q,Q
2023-03-15 21:52:40:468,0,-4.91261,-5.6666,-26.7229,Q,Q
2023-03-15 21:52:40:478,0,-4.8965,-5.68133,-26.7324,Q,Q
2023-03-15 21:52:40:488,0,-4.87841,-5.69472,-26.7348,Q,Q
2023-03-15 21:52:40:498,0,-4.85545,-5.70993,-26.734,Q,Q
2023-03-15 21:52:40:508,0,-4.83203,-5.72461,-26.7296,Q,Q
2023-03-15 21:52:40:518,0,-4.80607,-5.7383,-26.7204,Q,Q
2023-03-15 21:52:40:528,0,-4.78181,-5.75451,-26.7059,Q,Q
2023-03-15 21:52:40:538,0,-4.75392,-5.76793,-26.6851,Q,Q
2023-03-15 21:52:40:548,0,-4.73282,-5.78097,-26.6565,Q,Q
2023-03-15 21:52:40:558,0,-4.71256,-5.78925,-26.6241,Q,Q
2023-03-15 21:52:40:568,0,-4.69519,-5.79264,-26.585,Q,Q
2023-03-15 21:52:40:578,0,-4.67865,-5.79232,-26.5446,Q,Q
2023-03-15 21:52:40:588,0,-4.66791,-5.79447,-26.5001,Q,Q
2023-03-15 21:52:40:598,0,-4.66172,-5.79504,-26.4571,Q,Q
2023-03-15 21:52:40:608,0,-4.66881,-5.79449,-26.422,Q,Q
2023-03-15 21:52:40:618,0,-4.67854,-5.79505,-26.392,Q,Q
2023-03-15 21:52:40:628,0,-4.69396,-5.80052,-26.3715,Q,Q
2023-03-15 21:52:40:638,0,-4.71089,-5.81438,-26.3629,Q,Q
2023-03-15 21:52:40:648,0,-4.72718,-5.83725,-26.3612,Q,Q
2023-03-15 21:52:40:658,0,-4.73664,-5.8635,-26.3705,Q,Q
2023-03-15 21:52:40:668,0,-4.73155,-5.89704,-26.3911,Q,Q
2023-03-15 21:52:40:678,0,-4.71603,-5.93014,-26.4151,Q,Q
2023-03-15 21:52:40:688,0,-4.69156,-5.95902,-26.4435,Q,Q
2023-03-15 21:52:40:698,0,-4.66236,-5.98012,-26.4707,Q,Q
2023-03-15 21:52:40:708,0,-4.63091,-6.00216,-26.4984,Q,Q
2023-03-15 21:52:40:718,0,-4.59247,-6.02588,-26.5241,Q,Q
2023-03-15 21:52:40:728,0,-4.55572,-6.05029,-26.5436,Q,Q
2023-03-15 21:52:40:738,0,-4.51982,-6.07389,-26.5577,Q,Q
2023-03-15 21:52:40:748,0,-4.48422,-6.10016,-26.5653,Q,Q
2023-03-15 21:52:40:758,0,-4.44669,-6.12355,-26.5652,Q,Q
2023-03-15 21:52:40:768,0,-4.40602,-6.14511,-26.5599,Q,Q
2023-03-15 21:52:40:778,0,-4.36239,-6.16474,-26.5499,Q,Q
2023-03-15 21:52:40:788,0,-4.31542,-6.18133,-26.5387,Q,Q
2023-03-15 21:52:40:798,0,-4.26656,-6.195,-26.5219,Q,Q
2023-03-15 21:52:40:808,0,-4.22274,-6.2045,-26.5031,Q,Q
2023-03-15 21:52:40:818,0,-4.18371,-6.21372,-26.4791,Q,Q
2023-03-15 21:52:40:828,0,-4.15276,-6.22766,-26.4571,Q,Q
2023-03-15 21:52:40:838,0,-4.12478,-6.24089,-26.4343,Q,Q
2023-03-15 21:52:40:848,0,-4.10552,-6.25486,-26.4075,Q,Q
2023-03-15 21:52:40:858,0,-4.09634,-6.27047,-26.3809,Q,Q
2023-03-15 21:52:40:868,0,-4.09089,-6.28399,-26.3576,Q,Q
2023-03-15 21:52:40:878,0,-4.09253,-6.29775,-26.3293,Q,Q
2023-03-15 21:52:40:888,0,-4.09286,-6.30758,-26.3043,Q,Q
2023-03-15 21:52:40:898,0,-4.09867,-6.31817,-26.2779,Q,Q
2023-03-15 21:52:40:908,0,-4.10593,-6.32922,-26.2501,Q,Q
2023-03-15 21:52:40:918,0,-4.1138,-6.33967,-26.2223,Q,Q
2023-03-15 21:52:40:928,0,-4.12525,-6.35226,-26.1952,Q,Q
2023-03-15 21:52:40:938,0,-4.13675,-6.3585,-26.1683,Q,Q
2023-03-15 21:52:40:948,0,-4.15165,-6.36621,-26.142,Q,Q
2023-03-15 21:52:40:958,0,-4.16905,-6.36931,-26.1174,Q,Q
2023-03-15 21:52:40:968,0,-4.18421,-6.36669,-26.097,Q,Q
2023-03-15 21:52:40:978,0,-4.19868,-6.36511,-26.0779,Q,Q
2023-03-15 21:52:40:988,0,-4.20841,-6.36045,-26.0618,Q,Q
2023-03-15 21:52:40:998,0,-4.21723,-6.35295,-26.0479,Q,Q
2023-03-15 21:52:41:8,0,-4.22324,-6.3411,-26.0369,Q,Q
2023-03-15 21:52:41:18,0,-4.22788,-6.32752,-26.0213,Q,Q
2023-03-15 21:52:41:28,0,-4.23423,-6.31241,-26.0145,Q,Q
2023-03-15 21:52:41:38,0,-4.24268,-6.29507,-26.0111,Q,Q
2023-03-15 21:52:41:48,0,-4.25061,-6.27409,-26.0072,Q,Q
2023-03-15 21:52:41:58,0,-4.26134,-6.25158,-26.0085,Q,Q
2023-03-15 21:52:41:68,0,-4.27396,-6.22898,-26.008,Q,Q
2023-03-15 21:52:41:78,0,-4.28997,-6.20685,-26.0138,Q,Q
2023-03-15 21:52:41:88,0,-4.30583,-6.18661,-26.019,Q,Q
2023-03-15 21:52:41:98,0,-4.3159,-6.16555,-26.0277,Q,Q
2023-03-15 21:52:41:108,0,-4.32717,-6.14305,-26.0403,Q,Q
2023-03-15 21:52:41:118,0,-4.33692,-6.11966,-26.0544,Q,Q
2023-03-15 21:52:41:128,0,-4.34528,-6.09676,-26.0696,Q,Q
2023-03-15 21:52:41:138,0,-4.35419,-6.07605,-26.086,Q,Q
2023-03-15 21:52:41:148,0,-4.35609,-6.05721,-26.1015,Q,Q
2023-03-15 21:52:41:158,0,-4.35789,-6.0397,-26.1177,Q,Q
2023-03-15 21:52:41:168,0,-4.35449,-6.01971,-26.1355,Q,Q
2023-03-15 21:52:41:178,0,-4.35023,-6.00477,-26.1477,Q,Q
2023-03-15 21:52:41:188,0,-4.34848,-5.99254,-26.1568,Q,Q
2023-03-15 21:52:41:198,0,-4.3479,-5.97924,-26.1598,Q,Q
2023-03-15 21:52:41:208,0,-4.35295,-5.96871,-26.1584,Q,Q
2023-03-15 21:52:41:218,0,-4.3599,-5.95418,-26.1583,Q,Q
2023-03-15 21:52:41:228,0,-4.35912,-5.93905,-26.1575,Q,Q
2023-03-15 21:52:41:238,0,-4.36023,-5.92472,-26.152,Q,Q
2023-03-15 21:52:41:248,0,-4.35968,-5.9113,-26.1466,Q,Q
2023-03-15 21:52:41:258,0,-4.35897,-5.90592,-26.1423,Q,Q
2023-03-15 21:52:41:268,0,-4.35828,-5.90174,-26.1355,Q,Q
2023-03-15 21:52:41:278,0,-4.35585,-5.89313,-26.13,Q,Q
2023-03-15 21:52:41:288,0,-4.3594,-5.88215,-26.1232,Q,Q
2023-03-15 21:52:41:298,0,-4.36192,-5.8752,-26.1157,Q,Q
2023-03-15 21:52:41:308,0,-4.36816,-5.87321,-26.1088,Q,Q
2023-03-15 21:52:41:318,0,-4.37438,-5.87053,-26.1041,Q,Q
2023-03-15 21:52:41:328,0,-4.3829,-5.86956,-26.0985,Q,Q
2023-03-15 21:52:41:338,0,-4.39444,-5.86788,-26.0969,Q,Q
2023-03-15 21:52:41:348,0,-4.40191,-5.86719,-26.0942,Q,Q
2023-03-15 21:52:41:358,0,-4.40656,-5.86324,-26.0914,Q,Q
2023-03-15 21:52:41:368,0,-4.4129,-5.86153,-26.0881,Q,Q
2023-03-15 21:52:41:378,0,-4.41539,-5.85563,-26.087,Q,Q
2023-03-15 21:52:41:388,0,-4.4183,-5.85255,-26.0892,Q,Q
2023-03-15 21:52:41:398,0,-4.42267,-5.84674,-26.091,Q,Q
2023-03-15 21:52:41:408,0,-4.42196,-5.83727,-26.0926,Q,Q
2023-03-15 21:52:41:418,0,-4.42077,-5.82924,-26.0902,Q,Q
2023-03-15 21:52:41:428,0,-4.42073,-5.81785,-26.0913,Q,Q
2023-03-15 21:52:41:438,0,-4.41836,-5.80664,-26.0951,Q,Q
2023-03-15 21:52:41:448,0,-4.41754,-5.79694,-26.0978,Q,Q
2023-03-15 21:52:41:458,0,-4.41403,-5.78415,-26.0964,Q,Q
2023-03-15 21:52:41:468,0,-4.41168,-5.77681,-26.0996,Q,Q
2023-03-15 21:52:41:478,0,-4.41652,-5.76765,-26.1017,Q,Q
2023-03-15 21:52:41:488,0,-4.42066,-5.75895,-26.1026,Q,Q
2023-03-15 21:52:41:498,0,-4.42556,-5.74665,-26.1071,Q,Q
2023-03-15 21:52:41:508,0,-4.43099,-5.73523,-26.1152,Q,Q
2023-03-15 21:52:41:517,0,-4.43113,-5.72277,-26.1197,Q,Q
2023-03-15 21:52:41:527,0,-4.42863,-5.70304,-26.1259,Q,Q
2023-03-15 21:52:41:537,0,-4.42312,-5.68427,-26.134,Q,Q
2023-03-15 21:52:41:547,0,-4.41727,-5.66615,-26.1424,Q,Q
2023-03-15 21:52:41:557,0,-4.40885,-5.64938,-26.1532,Q,Q
2023-03-15 21:52:41:567,0,-4.40249,-5.63284,-26.1614,Q,Q
2023-03-15 21:52:41:577,0,-4.3976,-5.61986,-26.1714,Q,Q
2023-03-15 21:52:41:587,0,-4.39217,-5.60968,-26.1802,Q,Q
2023-03-15 21:52:41:597,0,-4.39049,-5.59633,-26.1882,Q,Q
2023-03-15 21:52:41:607,0,-4.39091,-5.58278,-26.2017,Q,Q
2023-03-15 21:52:41:617,0,-4.39078,-5.5743,-26.2091,Q,Q
2023-03-15 21:52:41:628,0,-4.39482,-5.56832,-26.2162,Q,Q
2023-03-15 21:52:41:638,0,-4.40146,-5.56613,-26.2214,Q,Q
2023-03-15 21:52:41:648,0,-4.40591,-5.55944,-26.226,Q,Q
2023-03-15 21:52:41:658,0,-4.41194,-5.55177,-26.2326,Q,Q
2023-03-15 21:52:41:668,0,-4.42059,-5.54725,-26.2342,Q,Q
2023-03-15 21:52:41:678,0,-4.4272,-5.53957,-26.2382,Q,Q
2023-03-15 21:52:41:688,0,-4.43467,-5.53537,-26.241,Q,Q
2023-03-15 21:52:41:698,0,-4.43923,-5.53216,-26.2421,Q,Q
2023-03-15 21:52:41:708,0,-4.44623,-5.52912,-26.2447,Q,Q
2023-03-15 21:52:41:718,0,-4.45768,-5.52832,-26.2492,Q,Q
2023-03-15 21:52:41:728,0,-4.46722,-5.53327,-26.2504,Q,Q
2023-03-15 21:52:41:738,0,-4.47609,-5.53943,-26.2543,Q,Q
2023-03-15 21:52:41:748,0,-4.48404,-5.5499,-26.2617,Q,Q
2023-03-15 21:52:41:758,0,-4.49,-5.55761,-26.2666,Q,Q
2023-03-15 21:52:41:768,0,-4.49038,-5.5624,-26.2729,Q,Q
2023-03-15 21:52:41:778,0,-4.48806,-5.56799,-26.2835,Q,Q
2023-03-15 21:52:41:788,0,-4.47985,-5.57219,-26.2966,Q,Q
2023-03-15 21:52:41:798,0,-4.47293,-5.57112,-26.3048,Q,Q
2023-03-15 21:52:41:808,0,-4.46449,-5.56695,-26.3142,Q,Q
2023-03-15 21:52:41:818,0,-4.45937,-5.56376,-26.3279,Q,Q
2023-03-15 21:52:41:828,0,-4.45011,-5.55529,-26.3456,Q,Q
2023-03-15 21:52:41:838,0,-4.43974,-5.54592,-26.364,Q,Q
2023-03-15 21:52:41:848,0,-4.43001,-5.53872,-26.3865,Q,Q
2023-03-15 21:52:41:858,0,-4.41675,-5.52947,-26.4082,Q,Q
2023-03-15 21:52:41:868,0,-4.40464,-5.51738,-26.4348,Q,Q
2023-03-15 21:52:41:878,0,-4.39303,-5.49689,-26.4671,Q,Q
2023-03-15 21:52:41:888,0,-4.39055,-5.4779,-26.5048,Q,Q
2023-03-15 21:52:41:898,0,-4.3889,-5.45655,-26.545,Q,Q
2023-03-15 21:52:41:908,0,-4.39465,-5.43796,-26.5906,Q,Q
2023-03-15 21:52:41:918,0,-4.40398,-5.41833,-26.6355,Q,Q
2023-03-15 21:52:41:928,0,-4.41226,-5.39893,-26.683,Q,Q
2023-03-15 21:52:41:938,0,-4.42767,-5.37997,-26.7311,Q,Q
2023-03-15 21:52:41:948,0,-4.44195,-5.36151,-26.7857,Q,Q
2023-03-15 21:52:41:958,0,-4.46,-5.34525,-26.8439,Q,Q
2023-03-15 21:52:41:968,0,-4.47974,-5.3304,-26.9006,Q,Q
2023-03-15 21:52:41:978,0,-4.49455,-5.31633,-26.9643,Q,Q
2023-03-15 21:52:41:988,0,-4.5144,-5.30463,-27.0234,Q,Q
2023-03-15 21:52:41:998,0,-4.53139,-5.2971,-27.082,Q,Q
2023-03-15 21:52:42:8,0,-4.5515,-5.29016,-27.1363,Q,Q
2023-03-15 21:52:42:18,0,-4.56839,-5.28613,-27.1891,Q,Q
2023-03-15 21:52:42:28,0,-4.58399,-5.28192,-27.2359,Q,Q
2023-03-15 21:52:42:38,0,-4.6013,-5.27458,-27.2769,Q,Q
2023-03-15 21:52:42:48,0,-4.61844,-5.26519,-27.3172,Q,Q
2023-03-15 21:52:42:58,0,-4.6361,-5.25988,-27.3525,Q,Q
2023-03-15 21:52:42:68,0,-4.65281,-5.2541,-27.3805,Q,Q
2023-03-15 21:52:42:78,0,-4.66053,-5.25289,-27.4007,Q,Q
2023-03-15 21:52:42:88,0,-4.66882,-5.25407,-27.41,Q,Q
2023-03-15 21:52:42:98,0,-4.68371,-5.26201,-27.418,Q,Q
2023-03-15 21:52:42:108,0,-4.69295,-5.26988,-27.4207,Q,Q
2023-03-15 21:52:42:118,0,-4.69977,-5.27682,-27.4211,Q,Q
2023-03-15 21:52:42:128,0,-4.69947,-5.28512,-27.4126,Q,Q
2023-03-15 21:52:42:138,0,-4.69352,-5.29339,-27.406,Q,Q
2023-03-15 21:52:42:148,0,-4.67986,-5.30014,-27.4013,Q,Q
2023-03-15 21:52:42:158,0,-4.66197,-5.31105,-27.3934,Q,Q
2023-03-15 21:52:42:168,0,-4.64089,-5.32753,-27.3862,Q,Q
2023-03-15 21:52:42:178,0,-4.61259,-5.34528,-27.3796,Q,Q
2023-03-15 21:52:42:188,0,-4.58218,-5.36799,-27.3723,Q,Q
2023-03-15 21:52:42:198,0,-4.55229,-5.39227,-27.3647,Q,Q
2023-03-15 21:52:42:208,0,-4.52122,-5.41504,-27.3548,Q,Q
2023-03-15 21:52:42:218,0,-4.49005,-5.43639,-27.3443,Q,Q
2023-03-15 21:52:42:228,0,-4.46447,-5.46431,-27.335,Q,Q
2023-03-15 21:52:42:238,0,-4.44079,-5.49403,-27.3212,Q,Q
2023-03-15 21:52:42:248,0,-4.41913,-5.52608,-27.3076,Q,Q
2023-03-15 21:52:42:258,0,-4.40395,-5.55741,-27.2906,Q,Q
2023-03-15 21:52:42:268,0,-4.39329,-5.59132,-27.2728,Q,Q
2023-03-15 21:52:42:278,0,-4.38152,-5.62784,-27.2576,Q,Q
2023-03-15 21:52:42:288,0,-4.37132,-5.66422,-27.2394,Q,Q
2023-03-15 21:52:42:298,0,-4.35968,-5.69943,-27.225,Q,Q
2023-03-15 21:52:42:308,0,-4.34688,-5.73491,-27.2071,Q,Q
2023-03-15 21:52:42:318,0,-4.33119,-5.76754,-27.1883,Q,Q
2023-03-15 21:52:42:328,0,-4.31813,-5.79988,-27.1655,Q,Q
2023-03-15 21:52:42:338,0,-4.30665,-5.83825,-27.1461,Q,Q
2023-03-15 21:52:42:348,0,-4.30291,-5.87326,-27.1274,Q,Q
2023-03-15 21:52:42:358,0,-4.30336,-5.90731,-27.1084,Q,Q
2023-03-15 21:52:42:368,0,-4.30174,-5.94149,-27.09,Q,Q
2023-03-15 21:52:42:378,0,-4.30446,-5.97542,-27.0751,Q,Q
2023-03-15 21:52:42:388,0,-4.30693,-6.0105,-27.0614,Q,Q
2023-03-15 21:52:42:398,0,-4.30831,-6.04075,-27.0502,Q,Q
2023-03-15 21:52:42:408,0,-4.30933,-6.06848,-27.0404,Q,Q
2023-03-15 21:52:42:418,0,-4.30893,-6.09097,-27.0346,Q,Q
2023-03-15 21:52:42:428,0,-4.30796,-6.10739,-27.0278,Q,Q
2023-03-15 21:52:42:438,0,-4.30614,-6.12243,-27.0205,Q,Q
2023-03-15 21:52:42:448,0,-4.30582,-6.13472,-27.0167,Q,Q
2023-03-15 21:52:42:458,0,-4.30679,-6.14994,-27.0146,Q,Q
2023-03-15 21:52:42:468,0,-4.311,-6.16826,-27.0089,Q,Q
2023-03-15 21:52:42:478,0,-4.32298,-6.18404,-27.008,Q,Q
2023-03-15 21:52:42:488,0,-4.34072,-6.20232,-27.0081,Q,Q
2023-03-15 21:52:42:498,0,-4.36034,-6.22083,-27.0085,Q,Q
2023-03-15 21:52:42:508,0,-4.38212,-6.23776,-27.0119,Q,Q
2023-03-15 21:52:42:518,0,-4.41075,-6.25454,-27.0128,Q,Q
2023-03-15 21:52:42:528,0,-4.44206,-6.26699,-27.011,Q,Q
2023-03-15 21:52:42:538,0,-4.47846,-6.27873,-27.0114,Q,Q
2023-03-15 21:52:42:548,0,-4.51859,-6.28845,-27.0135,Q,Q
2023-03-15 21:52:42:557,0,-4.55491,-6.29546,-27.0118,Q,Q
2023-03-15 21:52:42:568,0,-4.594,-6.30402,-27.0094,Q,Q
2023-03-15 21:52:42:577,0,-4.63437,-6.31154,-27.0097,Q,Q
2023-03-15 21:52:42:588,0,-4.66794,-6.31349,-27.0081,Q,Q
2023-03-15 21:52:42:598,0,-4.69879,-6.31282,-27.0094,Q,Q
2023-03-15 21:52:42:608,0,-4.72602,-6.31248,-27.0096,Q,Q
2023-03-15 21:52:42:618,0,-4.74629,-6.31241,-27.0045,Q,Q
2023-03-15 21:52:42:628,0,-4.75923,-6.31433,-27.0042,Q,Q
2023-03-15 21:52:42:638,0,-4.76883,-6.31245,-27.0081,Q,Q
2023-03-15 21:52:42:648,0,-4.77627,-6.3095,-27.0134,Q,Q
2023-03-15 21:52:42:658,0,-4.7775,-6.30984,-27.0159,Q,Q
2023-03-15 21:52:42:668,0,-4.77871,-6.30898,-27.0223,Q,Q
2023-03-15 21:52:42:678,0,-4.78733,-6.30596,-27.0303,Q,Q
2023-03-15 21:52:42:688,0,-4.79309,-6.29864,-27.0371,Q,Q
2023-03-15 21:52:42:698,0,-4.79629,-6.29063,-27.0474,Q,Q
2023-03-15 21:52:42:708,0,-4.79818,-6.28761,-27.0552,Q,Q
2023-03-15 21:52:42:718,0,-4.79774,-6.28614,-27.065,Q,Q
2023-03-15 21:52:42:728,0,-4.8001,-6.28574,-27.0768,Q,Q
2023-03-15 21:52:42:738,0,-4.79871,-6.28259,-27.089,Q,Q
2023-03-15 21:52:42:748,0,-4.79342,-6.27828,-27.1018,Q,Q
2023-03-15 21:52:42:758,0,-4.79073,-6.26891,-27.1153,Q,Q
2023-03-15 21:52:42:768,0,-4.78488,-6.25811,-27.1302,Q,Q
2023-03-15 21:52:42:778,0,-4.77903,-6.25085,-27.146,Q,Q
2023-03-15 21:52:42:788,0,-4.77348,-6.24226,-27.1652,Q,Q
2023-03-15 21:52:42:798,0,-4.76299,-6.23706,-27.1867,Q,Q
2023-03-15 21:52:42:808,0,-4.7554,-6.22903,-27.2053,Q,Q
2023-03-15 21:52:42:818,0,-4.74657,-6.22299,-27.2237,Q,Q
2023-03-15 21:52:42:828,0,-4.7356,-6.2146,-27.2412,Q,Q
2023-03-15 21:52:42:838,0,-4.72508,-6.20562,-27.2601,Q,Q
2023-03-15 21:52:42:848,0,-4.70408,-6.19406,-27.2771,Q,Q
2023-03-15 21:52:42:858,0,-4.68292,-6.18428,-27.2931,Q,Q
2023-03-15 21:52:42:868,0,-4.65834,-6.17578,-27.3117,Q,Q
2023-03-15 21:52:42:878,0,-4.63557,-6.16582,-27.3268,Q,Q
2023-03-15 21:52:42:888,0,-4.60541,-6.15252,-27.3427,Q,Q
2023-03-15 21:52:42:898,0,-4.57799,-6.14262,-27.3577,Q,Q
2023-03-15 21:52:42:908,0,-4.54646,-6.13491,-27.3712,Q,Q
2023-03-15 21:52:42:918,0,-4.51978,-6.12618,-27.3794,Q,Q
2023-03-15 21:52:42:928,0,-4.49189,-6.11835,-27.3861,Q,Q
2023-03-15 21:52:42:938,0,-4.46471,-6.11227,-27.3905,Q,Q
2023-03-15 21:52:42:948,0,-4.44124,-6.1055,-27.3931,Q,Q
2023-03-15 21:52:42:958,0,-4.41876,-6.0993,-27.3902,Q,Q
2023-03-15 21:52:42:968,0,-4.40313,-6.09629,-27.386,Q,Q
2023-03-15 21:52:42:978,0,-4.38987,-6.09086,-27.3849,Q,Q
2023-03-15 21:52:42:988,0,-4.37724,-6.08413,-27.3859,Q,Q
2023-03-15 21:52:42:998,0,-4.36678,-6.07975,-27.3814,Q,Q
2023-03-15 21:52:43:8,0,-4.36368,-6.07731,-27.3849,Q,Q
2023-03-15 21:52:43:18,0,-4.36132,-6.07427,-27.3874,Q,Q
2023-03-15 21:52:43:28,0,-4.36287,-6.0739,-27.3928,Q,Q
2023-03-15 21:52:43:38,0,-4.36395,-6.07311,-27.3985,Q,Q
2023-03-15 21:52:43:48,0,-4.3642,-6.07412,-27.404,Q,Q
2023-03-15 21:52:43:58,0,-4.36368,-6.07092,-27.4098,Q,Q
2023-03-15 21:52:43:68,0,-4.36153,-6.07016,-27.4179,Q,Q
2023-03-15 21:52:43:78,0,-4.35895,-6.06488,-27.4282,Q,Q
2023-03-15 21:52:43:88,0,-4.35412,-6.05646,-27.4376,Q,Q
2023-03-15 21:52:43:98,0,-4.35027,-6.04399,-27.4447,Q,Q
2023-03-15 21:52:43:108,0,-4.34548,-6.03188,-27.4534,Q,Q
2023-03-15 21:52:43:118,0,-4.33573,-6.02224,-27.4605,Q,Q
2023-03-15 21:52:43:128,0,-4.32984,-6.01128,-27.4667,Q,Q
2023-03-15 21:52:43:138,0,-4.32282,-6.00476,-27.4716,Q,Q
2023-03-15 21:52:43:148,0,-4.31487,-6.00224,-27.4811,Q,Q
2023-03-15 21:52:43:158,0,-4.30815,-6.00356,-27.4916,Q,Q
2023-03-15 21:52:43:168,0,-4.30737,-6.00493,-27.5015,Q,Q
2023-03-15 21:52:43:178,0,-4.30238,-6.00461,-27.5124,Q,Q
2023-03-15 21:52:43:188,0,-4.29437,-6.00396,-27.5233,Q,Q
2023-03-15 21:52:43:198,0,-4.28542,-6.00682,-27.5383,Q,Q
2023-03-15 21:52:43:208,0,-4.27217,-6.00991,-27.5475,Q,Q
2023-03-15 21:52:43:218,0,-4.25439,-6.01185,-27.5543,Q,Q
2023-03-15 21:52:43:228,0,-4.23094,-6.01509,-27.5661,Q,Q
2023-03-15 21:52:43:238,0,-4.20214,-6.01427,-27.5774,Q,Q
2023-03-15 21:52:43:248,0,-4.17273,-6.01082,-27.5897,Q,Q
2023-03-15 21:52:43:258,0,-4.1476,-6.00258,-27.598,Q,Q
2023-03-15 21:52:43:268,0,-4.12389,-5.99708,-27.6035,Q,Q
2023-03-15 21:52:43:278,0,-4.1026,-5.98759,-27.6072,Q,Q
2023-03-15 21:52:43:288,0,-4.08841,-5.98067,-27.6078,Q,Q
2023-03-15 21:52:43:298,0,-4.08111,-5.97463,-27.6085,Q,Q
2023-03-15 21:52:43:308,0,-4.07525,-5.97073,-27.6055,Q,Q
2023-03-15 21:52:43:318,0,-4.07239,-5.96424,-27.6051,Q,Q
2023-03-15 21:52:43:328,0,-4.0733,-5.95721,-27.6027,Q,Q
2023-03-15 21:52:43:338,0,-4.0732,-5.9474,-27.6064,Q,Q
2023-03-15 21:52:43:348,0,-4.08102,-5.93745,-27.6092,Q,Q
2023-03-15 21:52:43:358,0,-4.08608,-5.92627,-27.6119,Q,Q
2023-03-15 21:52:43:368,0,-4.09727,-5.91215,-27.6202,Q,Q
2023-03-15 21:52:43:378,0,-4.10752,-5.90458,-27.627,Q,Q
2023-03-15 21:52:43:388,0,-4.1179,-5.89895,-27.6321,Q,Q
2023-03-15 21:52:43:398,0,-4.13356,-5.89106,-27.6392,Q,Q
2023-03-15 21:52:43:408,0,-4.15206,-5.88233,-27.6482,Q,Q
2023-03-15 21:52:43:418,0,-4.17494,-5.87235,-27.6605,Q,Q
2023-03-15 21:52:43:428,0,-4.20061,-5.86388,-27.6683,Q,Q
2023-03-15 21:52:43:438,0,-4.22373,-5.85541,-27.6729,Q,Q
2023-03-15 21:52:43:448,0,-4.25504,-5.8484,-27.6769,Q,Q
2023-03-15 21:52:43:458,0,-4.28605,-5.84181,-27.6817,Q,Q
2023-03-15 21:52:43:468,0,-4.30979,-5.83878,-27.6849,Q,Q
2023-03-15 21:52:43:478,0,-4.33507,-5.83429,-27.6877,Q,Q
2023-03-15 21:52:43:488,0,-4.35825,-5.82829,-27.6834,Q,Q
2023-03-15 21:52:43:498,0,-4.37721,-5.821,-27.6806,Q,Q
2023-03-15 21:52:43:508,0,-4.39602,-5.82033,-27.6743,Q,Q
2023-03-15 21:52:43:518,0,-4.41135,-5.81437,-27.67,Q,Q
2023-03-15 21:52:43:528,0,-4.42413,-5.81087,-27.6624,Q,Q
2023-03-15 21:52:43:538,0,-4.4341,-5.80997,-27.6534,Q,Q
2023-03-15 21:52:43:548,0,-4.44518,-5.8132,-27.6425,Q,Q
2023-03-15 21:52:43:558,0,-4.45355,-5.81521,-27.6313,Q,Q
2023-03-15 21:52:43:568,0,-4.46202,-5.81897,-27.6174,Q,Q
2023-03-15 21:52:43:578,0,-4.47731,-5.82178,-27.6016,Q,Q
2023-03-15 21:52:43:588,0,-4.49084,-5.8261,-27.5859,Q,Q
2023-03-15 21:52:43:598,0,-4.50405,-5.83089,-27.5739,Q,Q
2023-03-15 21:52:43:608,0,-4.51816,-5.83769,-27.5641,Q,Q
2023-03-15 21:52:43:618,0,-4.53543,-5.84776,-27.5545,Q,Q
2023-03-15 21:52:43:628,0,-4.54993,-5.85546,-27.5481,Q,Q
2023-03-15 21:52:43:638,0,-4.56596,-5.86709,-27.5393,Q,Q
2023-03-15 21:52:43:648,0,-4.58197,-5.87918,-27.5336,Q,Q
2023-03-15 21:52:43:658,0,-4.59679,-5.88716,-27.5306,Q,Q
2023-03-15 21:52:43:668,0,-4.60859,-5.89958,-27.5292,Q,Q
2023-03-15 21:52:43:678,0,-4.61792,-5.90999,-27.5284,Q,Q
2023-03-15 21:52:43:688,0,-4.62918,-5.92081,-27.5273,Q,Q
2023-03-15 21:52:43:698,0,-4.6369,-5.92958,-27.5254,Q,Q
2023-03-15 21:52:43:708,0,-4.64432,-5.93757,-27.5285,Q,Q
2023-03-15 21:52:43:718,0,-4.64757,-5.94383,-27.5288,Q,Q
2023-03-15 21:52:43:728,0,-4.64538,-5.94822,-27.525,Q,Q
2023-03-15 21:52:43:738,0,-4.63569,-5.95292,-27.5278,Q,Q
2023-03-15 21:52:43:748,0,-4.62321,-5.95748,-27.5325,Q,Q
2023-03-15 21:52:43:758,0,-4.60749,-5.95641,-27.5355,Q,Q
2023-03-15 21:52:43:768,0,-4.58988,-5.95412,-27.5381,Q,Q
2023-03-15 21:52:43:778,0,-4.56696,-5.94925,-27.5423,Q,Q
2023-03-15 21:52:43:788,0,-4.54175,-5.94469,-27.549,Q,Q
2023-03-15 21:52:43:798,0,-4.51711,-5.94333,-27.5518,Q,Q
2023-03-15 21:52:43:808,0,-4.49238,-5.94725,-27.5537,Q,Q
2023-03-15 21:52:43:818,0,-4.47018,-5.95409,-27.5582,Q,Q
2023-03-15 21:52:43:828,0,-4.45428,-5.96296,-27.5594,Q,Q
2023-03-15 21:52:43:838,0,-4.44537,-5.97086,-27.5592,Q,Q
2023-03-15 21:52:43:848,0,-4.44008,-5.97738,-27.5596,Q,Q
2023-03-15 21:52:43:858,0,-4.44151,-5.98579,-27.5625,Q,Q
2023-03-15 21:52:43:868,0,-4.44651,-5.98748,-27.5624,Q,Q
2023-03-15 21:52:43:878,0,-4.45626,-5.98913,-27.5606,Q,Q
2023-03-15 21:52:43:888,0,-4.46584,-5.9886,-27.5586,Q,Q
2023-03-15 21:52:43:898,0,-4.47771,-5.9862,-27.5548,Q,Q
2023-03-15 21:52:43:908,0,-4.48789,-5.98551,-27.5502,Q,Q
2023-03-15 21:52:43:918,0,-4.49615,-5.98338,-27.5471,Q,Q
2023-03-15 21:52:43:928,0,-4.50199,-5.9808,-27.5435,Q,Q
2023-03-15 21:52:43:938,0,-4.5004,-5.97042,-27.5409,Q,Q
2023-03-15 21:52:43:948,0,-4.49557,-5.96387,-27.5399,Q,Q
2023-03-15 21:52:43:958,0,-4.49556,-5.96123,-27.5426,Q,Q
2023-03-15 21:52:43:968,0,-4.48951,-5.95681,-27.5445,Q,Q
2023-03-15 21:52:43:978,0,-4.48516,-5.95506,-27.5473,Q,Q
2023-03-15 21:52:43:988,0,-4.48155,-5.95204,-27.553,Q,Q
2023-03-15 21:52:43:998,0,-4.47767,-5.94905,-27.553,Q,Q
2023-03-15 21:52:44:8,0,-4.4738,-5.94721,-27.556,Q,Q
2023-03-15 21:52:44:18,0,-4.47376,-5.94116,-27.5567,Q,Q
2023-03-15 21:52:44:28,0,-4.47212,-5.93797,-27.5576,Q,Q
2023-03-15 21:52:44:38,0,-4.46989,-5.93732,-27.5606,Q,Q
2023-03-15 21:52:44:48,0,-4.471,-5.94025,-27.5622,Q,Q
2023-03-15 21:52:44:58,0,-4.47072,-5.94126,-27.5647,Q,Q
2023-03-15 21:52:44:68,0,-4.47031,-5.94334,-27.5635,Q,Q
2023-03-15 21:52:44:78,0,-4.47457,-5.94376,-27.5649,Q,Q
2023-03-15 21:52:44:88,0,-4.48202,-5.94434,-27.5677,Q,Q
2023-03-15 21:52:44:98,0,-4.4908,-5.94599,-27.5692,Q,Q
2023-03-15 21:52:44:108,0,-4.49976,-5.94578,-27.5691,Q,Q
2023-03-15 21:52:44:118,0,-4.50217,-5.94609,-27.5715,Q,Q
2023-03-15 21:52:44:128,0,-4.50529,-5.94584,-27.5675,Q,Q
2023-03-15 21:52:44:138,0,-4.5053,-5.93981,-27.5685,Q,Q
2023-03-15 21:52:44:148,0,-4.5035,-5.94007,-27.569,Q,Q
2023-03-15 21:52:44:158,0,-4.49839,-5.94181,-27.5713,Q,Q
2023-03-15 21:52:44:168,0,-4.48535,-5.94506,-27.5734,Q,Q
2023-03-15 21:52:44:178,0,-4.47403,-5.94903,-27.5766,Q,Q
2023-03-15 21:52:44:188,0,-4.4578,-5.95321,-27.5818,Q,Q
2023-03-15 21:52:44:198,0,-4.44036,-5.95411,-27.5861,Q,Q
2023-03-15 21:52:44:208,0,-4.42307,-5.95471,-27.5856,Q,Q
2023-03-15 21:52:44:218,0,-4.40385,-5.95618,-27.5874,Q,Q
2023-03-15 21:52:44:228,0,-4.38668,-5.95853,-27.588,Q,Q
2023-03-15 21:52:44:238,0,-4.37401,-5.95882,-27.5858,Q,Q
2023-03-15 21:52:44:248,0,-4.36052,-5.96275,-27.5922,Q,Q
2023-03-15 21:52:44:258,0,-4.34485,-5.96041,-27.5959,Q,Q
2023-03-15 21:52:44:267,0,-4.33192,-5.9541,-27.5959,Q,Q
2023-03-15 21:52:44:278,0,-4.31653,-5.9453,-27.5961,Q,Q
2023-03-15 21:52:44:288,0,-4.29943,-5.93759,-27.5965,Q,Q
2023-03-15 21:52:44:298,0,-4.2876,-5.93031,-27.5949,Q,Q
2023-03-15 21:52:44:308,0,-4.27783,-5.92397,-27.5934,Q,Q
2023-03-15 21:52:44:318,0,-4.27189,-5.91353,-27.5931,Q,Q
2023-03-15 21:52:44:328,0,-4.26703,-5.90886,-27.5929,Q,Q
2023-03-15 21:52:44:338,0,-4.26544,-5.90317,-27.5942,Q,Q
2023-03-15 21:52:44:348,0,-4.26927,-5.89623,-27.595,Q,Q
2023-03-15 21:52:44:358,0,-4.27259,-5.88992,-27.596,Q,Q
2023-03-15 21:52:44:368,0,-4.27882,-5.8829,-27.5959,Q,Q
2023-03-15 21:52:44:378,0,-4.28476,-5.87552,-27.5961,Q,Q
2023-03-15 21:52:44:388,0,-4.29189,-5.87239,-27.5933,Q,Q
2023-03-15 21:52:44:398,0,-4.29684,-5.8659,-27.5873,Q,Q
2023-03-15 21:52:44:408,0,-4.29602,-5.86355,-27.5808,Q,Q
2023-03-15 21:52:44:418,0,-4.29604,-5.86365,-27.5723,Q,Q
2023-03-15 21:52:44:428,0,-4.30044,-5.86499,-27.5631,Q,Q
2023-03-15 21:52:44:438,0,-4.30668,-5.87022,-27.5487,Q,Q
2023-03-15 21:52:44:448,0,-4.31635,-5.87394,-27.5356,Q,Q
2023-03-15 21:52:44:458,0,-4.3319,-5.88351,-27.5208,Q,Q
2023-03-15 21:52:44:468,0,-4.35688,-5.89061,-27.5014,Q,Q
2023-03-15 21:52:44:478,0,-4.3854,-5.89789,-27.4831,Q,Q
2023-03-15 21:52:44:488,0,-4.41355,-5.90617,-27.4683,Q,Q
2023-03-15 21:52:44:498,0,-4.43905,-5.91111,-27.4547,Q,Q
2023-03-15 21:52:44:508,0,-4.467,-5.91708,-27.4404,Q,Q
2023-03-15 21:52:44:518,0,-4.49358,-5.92759,-27.4283,Q,Q
2023-03-15 21:52:44:528,0,-4.51799,-5.93736,-27.4169,Q,Q
2023-03-15 21:52:44:538,0,-4.54484,-5.95148,-27.4079,Q,Q
2023-03-15 21:52:44:548,0,-4.57455,-5.96231,-27.3966,Q,Q
2023-03-15 21:52:44:558,0,-4.59685,-5.96685,-27.3909,Q,Q
2023-03-15 21:52:44:568,0,-4.62807,-5.97102,-27.3834,Q,Q
2023-03-15 21:52:44:578,0,-4.65199,-5.97655,-27.3785,Q,Q
2023-03-15 21:52:44:588,0,-4.6662,-5.98304,-27.3769,Q,Q
2023-03-15 21:52:44:598,0,-4.67812,-5.99065,-27.3774,Q,Q
2023-03-15 21:52:44:608,0,-4.6809,-5.99346,-27.3811,Q,Q
2023-03-15 21:52:44:618,0,-4.67864,-5.99638,-27.387,Q,Q
2023-03-15 21:52:44:628,0,-4.67214,-5.99363,-27.3942,Q,Q
2023-03-15 21:52:44:638,0,-4.66246,-5.986,-27.4045,Q,Q
2023-03-15 21:52:44:648,0,-4.65089,-5.98113,-27.4161,Q,Q
2023-03-15 21:52:44:658,0,-4.63819,-5.97541,-27.4281,Q,Q
2023-03-15 21:52:44:668,0,-4.62587,-5.96982,-27.4386,Q,Q
2023-03-15 21:52:44:678,0,-4.61532,-5.96426,-27.4487,Q,Q
2023-03-15 21:52:44:688,0,-4.60653,-5.95715,-27.4608,Q,Q
2023-03-15 21:52:44:698,0,-4.59913,-5.95212,-27.4683,Q,Q
2023-03-15 21:52:44:708,0,-4.5966,-5.94883,-27.477,Q,Q
2023-03-15 21:52:44:718,0,-4.59482,-5.94951,-27.4929,Q,Q
2023-03-15 21:52:44:728,0,-4.58603,-5.94685,-27.5079,Q,Q
2023-03-15 21:52:44:738,0,-4.57821,-5.94357,-27.5177,Q,Q
2023-03-15 21:52:44:748,0,-4.57208,-5.94137,-27.5253,Q,Q
2023-03-15 21:52:44:758,0,-4.57339,-5.9424,-27.5329,Q,Q
2023-03-15 21:52:44:768,0,-4.57099,-5.94438,-27.5396,Q,Q
2023-03-15 21:52:44:778,0,-4.57208,-5.94518,-27.5396,Q,Q
2023-03-15 21:52:44:788,0,-4.57273,-5.94565,-27.5429,Q,Q
2023-03-15 21:52:44:798,0,-4.5732,-5.94733,-27.5454,Q,Q
2023-03-15 21:52:44:808,0,-4.57329,-5.94648,-27.5421,Q,Q
2023-03-15 21:52:44:818,0,-4.57414,-5.94368,-27.5365,Q,Q
2023-03-15 21:52:44:828,0,-4.57263,-5.94413,-27.5356,Q,Q
2023-03-15 21:52:44:838,0,-4.57012,-5.94488,-27.5353,Q,Q
2023-03-15 21:52:44:848,0,-4.56263,-5.94195,-27.5342,Q,Q
2023-03-15 21:52:44:858,0,-4.55691,-5.9408,-27.5312,Q,Q
2023-03-15 21:52:44:868,0,-4.54883,-5.9407,-27.5285,Q,Q
2023-03-15 21:52:44:878,0,-4.53568,-5.94547,-27.53,Q,Q
2023-03-15 21:52:44:888,0,-4.52005,-5.94704,-27.5314,Q,Q
2023-03-15 21:52:44:898,0,-4.5013,-5.9506,-27.5392,Q,Q
2023-03-15 21:52:44:908,0,-4.4764,-5.95216,-27.5454,Q,Q
2023-03-15 21:52:44:918,0,-4.45224,-5.9525,-27.549,Q,Q
2023-03-15 21:52:44:928,0,-4.4331,-5.95272,-27.5545,Q,Q
2023-03-15 21:52:44:938,0,-4.41506,-5.95116,-27.5569,Q,Q
2023-03-15 21:52:44:948,0,-4.39587,-5.94857,-27.5621,Q,Q
2023-03-15 21:52:44:958,0,-4.37826,-5.945,-27.564,Q,Q
2023-03-15 21:52:44:968,0,-4.35989,-5.9404,-27.5661,Q,Q
2023-03-15 21:52:44:978,0,-4.34162,-5.93797,-27.5658,Q,Q
2023-03-15 21:52:44:988,0,-4.32541,-5.93549,-27.5678,Q,Q
2023-03-15 21:52:44:998,0,-4.31064,-5.93514,-27.5634,Q,Q
2023-03-15 21:52:45:8,0,-4.29898,-5.93191,-27.5611,Q,Q
2023-03-15 21:52:45:18,0,-4.28956,-5.92837,-27.5578,Q,Q
2023-03-15 21:52:45:28,0,-4.28087,-5.92663,-27.5562,Q,Q
2023-03-15 21:52:45:38,0,-4.27568,-5.9227,-27.5545,Q,Q
2023-03-15 21:52:45:48,0,-4.27166,-5.91988,-27.5538,Q,Q
2023-03-15 21:52:45:58,0,-4.26697,-5.9155,-27.555,Q,Q
2023-03-15 21:52:45:68,0,-4.26106,-5.90981,-27.5561,Q,Q
2023-03-15 21:52:45:78,0,-4.25796,-5.90602,-27.5565,Q,Q
2023-03-15 21:52:45:88,0,-4.25431,-5.90219,-27.5556,Q,Q
2023-03-15 21:52:45:98,0,-4.25239,-5.89995,-27.5607,Q,Q
2023-03-15 21:52:45:108,0,-4.25192,-5.8943,-27.5637,Q,Q
2023-03-15 21:52:45:118,0,-4.2493,-5.88847,-27.5681,Q,Q
2023-03-15 21:52:45:128,0,-4.24387,-5.87709,-27.5744,Q,Q
2023-03-15 21:52:45:138,0,-4.23395,-5.86218,-27.5804,Q,Q
2023-03-15 21:52:45:148,0,-4.21807,-5.84806,-27.5858,Q,Q
2023-03-15 21:52:45:158,0,-4.20427,-5.83778,-27.5877,Q,Q
2023-03-15 21:52:45:168,0,-4.19117,-5.82927,-27.5907,Q,Q
2023-03-15 21:52:45:178,0,-4.178,-5.82504,-27.5963,Q,Q
2023-03-15 21:52:45:188,0,-4.16893,-5.8194,-27.6055,Q,Q
2023-03-15 21:52:45:198,0,-4.15987,-5.81101,-27.615,Q,Q
2023-03-15 21:52:45:208,0,-4.15499,-5.8024,-27.6179,Q,Q
2023-03-15 21:52:45:218,0,-4.15505,-5.79631,-27.6229,Q,Q
2023-03-15 21:52:45:228,0,-4.16119,-5.79181,-27.6243,Q,Q
2023-03-15 21:52:45:238,0,-4.17032,-5.78719,-27.6237,Q,Q
2023-03-15 21:52:45:248,0,-4.17942,-5.7765,-27.6221,Q,Q
2023-03-15 21:52:45:258,0,-4.18898,-5.76803,-27.6257,Q,Q
2023-03-15 21:52:45:268,0,-4.19668,-5.76053,-27.6274,Q,Q
2023-03-15 21:52:45:278,0,-4.20508,-5.75324,-27.6273,Q,Q
2023-03-15 21:52:45:288,0,-4.20711,-5.74274,-27.6303,Q,Q
2023-03-15 21:52:45:298,0,-4.21068,-5.73038,-27.6347,Q,Q
2023-03-15 21:52:45:308,0,-4.20815,-5.71808,-27.6376,Q,Q
2023-03-15 21:52:45:318,0,-4.20485,-5.70295,-27.6438,Q,Q
2023-03-15 21:52:45:328,0,-4.20038,-5.68965,-27.6493,Q,Q
2023-03-15 21:52:45:338,0,-4.19453,-5.67698,-27.6561,Q,Q
2023-03-15 21:52:45:348,0,-4.18797,-5.66484,-27.6653,Q,Q
2023-03-15 21:52:45:358,0,-4.17943,-5.65495,-27.6731,Q,Q
2023-03-15 21:52:45:368,0,-4.1753,-5.64743,-27.6848,Q,Q
2023-03-15 21:52:45:378,0,-4.16749,-5.64141,-27.691,Q,Q
2023-03-15 21:52:45:388,0,-4.15933,-5.63594,-27.6976,Q,Q
2023-03-15 21:52:45:398,0,-4.15416,-5.63138,-27.7042,Q,Q
2023-03-15 21:52:45:408,0,-4.14707,-5.62892,-27.7085,Q,Q
2023-03-15 21:52:45:418,0,-4.13991,-5.6244,-27.7126,Q,Q
2023-03-15 21:52:45:428,0,-4.13575,-5.61962,-27.713,Q,Q
2023-03-15 21:52:45:438,0,-4.13403,-5.61347,-27.7121,Q,Q
2023-03-15 21:52:45:448,0,-4.13342,-5.60578,-27.71,Q,Q
2023-03-15 21:52:45:458,0,-4.13286,-5.59869,-27.7025,Q,Q
2023-03-15 21:52:45:468,0,-4.13126,-5.59527,-27.6928,Q,Q
2023-03-15 21:52:45:478,0,-4.13318,-5.59474,-27.686,Q,Q
2023-03-15 21:52:45:488,0,-4.136,-5.59587,-27.6793,Q,Q
2023-03-15 21:52:45:498,0,-4.13809,-5.59447,-27.6718,Q,Q
2023-03-15 21:52:45:508,0,-4.13919,-5.59701,-27.665,Q,Q
2023-03-15 21:52:45:518,0,-4.13595,-5.60023,-27.6585,Q,Q
2023-03-15 21:52:45:528,0,-4.12995,-5.60006,-27.6551,Q,Q
2023-03-15 21:52:45:538,0,-4.1229,-5.60114,-27.652,Q,Q
2023-03-15 21:52:45:548,0,-4.11571,-5.60473,-27.6527,Q,Q
2023-03-15 21:52:45:558,0,-4.10505,-5.61035,-27.6487,Q,Q
2023-03-15 21:52:45:568,0,-4.09428,-5.61465,-27.6469,Q,Q
2023-03-15 21:52:45:578,0,-4.08613,-5.61773,-27.6443,Q,Q
2023-03-15 21:52:45:588,0,-4.07401,-5.62042,-27.6426,Q,Q
2023-03-15 21:52:45:598,0,-4.06717,-5.6248,-27.6411,Q,Q
2023-03-15 21:52:45:608,0,-4.06032,-5.62719,-27.6357,Q,Q
2023-03-15 21:52:45:618,0,-4.05522,-5.62685,-27.631,Q,Q
2023-03-15 21:52:45:628,0,-4.05338,-5.62431,-27.6257,Q,Q
2023-03-15 21:52:45:638,0,-4.05352,-5.62722,-27.6211,Q,Q
2023-03-15 21:52:45:648,0,-4.05954,-5.62687,-27.6129,Q,Q
2023-03-15 21:52:45:658,0,-4.06999,-5.62625,-27.6075,Q,Q
2023-03-15 21:52:45:668,0,-4.07858,-5.62744,-27.6029,Q,Q
2023-03-15 21:52:45:678,0,-4.08916,-5.6287,-27.6005,Q,Q
2023-03-15 21:52:45:688,0,-4.0946,-5.62832,-27.5955,Q,Q
2023-03-15 21:52:45:698,0,-4.09905,-5.62735,-27.5923,Q,Q
2023-03-15 21:52:45:708,0,-4.10178,-5.62625,-27.5889,Q,Q
2023-03-15 21:52:45:718,0,-4.10289,-5.62638,-27.5878,Q,Q
2023-03-15 21:52:45:728,0,-4.10681,-5.62086,-27.586,Q,Q
2023-03-15 21:52:45:738,0,-4.10923,-5.6119,-27.5816,Q,Q
2023-03-15 21:52:45:748,0,-4.11019,-5.61119,-27.5794,Q,Q
2023-03-15 21:52:45:758,0,-4.10896,-5.61224,-27.5756,Q,Q
2023-03-15 21:52:45:768,0,-4.11143,-5.61752,-27.569,Q,Q
2023-03-15 21:52:45:778,0,-4.11629,-5.62804,-27.5635,Q,Q
2023-03-15 21:52:45:788,0,-4.11922,-5.63575,-27.5572,Q,Q
2023-03-15 21:52:45:798,0,-4.12619,-5.64536,-27.5523,Q,Q
2023-03-15 21:52:45:808,0,-4.13734,-5.64967,-27.5443,Q,Q
2023-03-15 21:52:45:818,0,-4.14815,-5.65325,-27.5343,Q,Q
2023-03-15 21:52:45:828,0,-4.16669,-5.65692,-27.5233,Q,Q
2023-03-15 21:52:45:838,0,-4.18876,-5.66201,-27.519,Q,Q
2023-03-15 21:52:45:848,0,-4.2089,-5.66844,-27.5176,Q,Q
2023-03-15 21:52:45:858,0,-4.22598,-5.67764,-27.5189,Q,Q
2023-03-15 21:52:45:868,0,-4.24381,-5.68016,-27.5209,Q,Q
2023-03-15 21:52:45:878,0,-4.2519,-5.68376,-27.5341,Q,Q
2023-03-15 21:52:45:888,0,-4.25639,-5.68988,-27.5481,Q,Q
2023-03-15 21:52:45:898,0,-4.25787,-5.69535,-27.5679,Q,Q
2023-03-15 21:52:45:908,0,-4.25846,-5.70053,-27.5879,Q,Q
2023-03-15 21:52:45:918,0,-4.25721,-5.70486,-27.6152,Q,Q
2023-03-15 21:52:45:928,0,-4.25049,-5.70944,-27.6406,Q,Q
2023-03-15 21:52:45:938,0,-4.25059,-5.71431,-27.664,Q,Q
2023-03-15 21:52:45:948,0,-4.25008,-5.71448,-27.6872,Q,Q
2023-03-15 21:52:45:958,0,-4.24652,-5.71744,-27.708,Q,Q
2023-03-15 21:52:45:968,0,-4.24311,-5.71562,-27.7261,Q,Q
2023-03-15 21:52:45:978,0,-4.23948,-5.71483,-27.7402,Q,Q
2023-03-15 21:52:45:988,0,-4.23446,-5.71175,-27.7467,Q,Q
2023-03-15 21:52:45:998,0,-4.22622,-5.7087,-27.7479,Q,Q
2023-03-15 21:52:46:8,0,-4.22069,-5.70391,-27.7462,Q,Q
2023-03-15 21:52:46:18,0,-4.21594,-5.69943,-27.742,Q,Q
2023-03-15 21:52:46:28,0,-4.21031,-5.6908,-27.7372,Q,Q
2023-03-15 21:52:46:38,0,-4.20634,-5.68309,-27.7286,Q,Q
2023-03-15 21:52:46:48,0,-4.20347,-5.67944,-27.7205,Q,Q
2023-03-15 21:52:46:58,0,-4.20002,-5.67533,-27.7131,Q,Q
2023-03-15 21:52:46:68,0,-4.18813,-5.66631,-27.708,Q,Q
2023-03-15 21:52:46:78,0,-4.17953,-5.65598,-27.7064,Q,Q
2023-03-15 21:52:46:88,0,-4.16906,-5.65038,-27.7036,Q,Q
2023-03-15 21:52:46:98,0,-4.15797,-5.64808,-27.7054,Q,Q
2023-03-15 21:52:46:108,0,-4.14101,-5.64717,-27.7096,Q,Q
2023-03-15 21:52:46:118,0,-4.12469,-5.6439,-27.7149,Q,Q
2023-03-15 21:52:46:128,0,-4.10866,-5.6403,-27.7142,Q,Q
2023-03-15 21:52:46:138,0,-4.09119,-5.63646,-27.7147,Q,Q
2023-03-15 21:52:46:148,0,-4.07782,-5.63066,-27.7091,Q,Q
2023-03-15 21:52:46:158,0,-4.06086,-5.62885,-27.7059,Q,Q
2023-03-15 21:52:46:168,0,-4.0463,-5.62581,-27.697,Q,Q
2023-03-15 21:52:46:178,0,-4.03245,-5.62461,-27.6866,Q,Q
2023-03-15 21:52:46:188,0,-4.01779,-5.62067,-27.6759,Q,Q
2023-03-15 21:52:46:198,0,-4.0043,-5.61402,-27.6597,Q,Q
2023-03-15 21:52:46:208,0,-3.98775,-5.61022,-27.6465,Q,Q
2023-03-15 21:52:46:218,0,-3.97437,-5.60629,-27.6314,Q,Q
2023-03-15 21:52:46:228,0,-3.96245,-5.60195,-27.6194,Q,Q
2023-03-15 21:52:46:238,0,-3.95288,-5.59834,-27.6093,Q,Q
2023-03-15 21:52:46:248,0,-3.94798,-5.59488,-27.5982,Q,Q
2023-03-15 21:52:46:258,0,-3.94365,-5.59301,-27.5911,Q,Q
2023-03-15 21:52:46:267,0,-3.94098,-5.59422,-27.5872,Q,Q
2023-03-15 21:52:46:278,0,-3.94145,-5.59718,-27.586,Q,Q
2023-03-15 21:52:46:288,0,-3.93957,-5.5973,-27.5895,Q,Q
2023-03-15 21:52:46:298,0,-3.93703,-5.5975,-27.5943,Q,Q
2023-03-15 21:52:46:308,0,-3.93382,-5.59749,-27.5983,Q,Q
2023-03-15 21:52:46:318,0,-3.92912,-5.59736,-27.6012,Q,Q
2023-03-15 21:52:46:328,0,-3.9255,-5.5958,-27.608,Q,Q
2023-03-15 21:52:46:338,0,-3.92079,-5.59079,-27.6126,Q,Q
2023-03-15 21:52:46:348,0,-3.91202,-5.58104,-27.6197,Q,Q
2023-03-15 21:52:46:358,0,-3.9055,-5.56857,-27.6259,Q,Q
2023-03-15 21:52:46:368,0,-3.89446,-5.56312,-27.6354,Q,Q
2023-03-15 21:52:46:378,0,-3.88399,-5.56156,-27.6455,Q,Q
2023-03-15 21:52:46:388,0,-3.87157,-5.56321,-27.6532,Q,Q
2023-03-15 21:52:46:398,0,-3.86454,-5.56769,-27.6583,Q,Q
2023-03-15 21:52:46:408,0,-3.85391,-5.56724,-27.6639,Q,Q
2023-03-15 21:52:46:418,0,-3.84659,-5.57074,-27.667,Q,Q
2023-03-15 21:52:46:428,0,-3.8417,-5.57403,-27.6682,Q,Q
2023-03-15 21:52:46:438,0,-3.84593,-5.57705,-27.6653,Q,Q
2023-03-15 21:52:46:448,0,-3.85135,-5.57718,-27.6624,Q,Q
2023-03-15 21:52:46:458,0,-3.85821,-5.57486,-27.6546,Q,Q
2023-03-15 21:52:46:468,0,-3.86431,-5.57258,-27.646,Q,Q
2023-03-15 21:52:46:478,0,-3.87545,-5.56862,-27.6353,Q,Q
2023-03-15 21:52:46:488,0,-3.88401,-5.56309,-27.6306,Q,Q
2023-03-15 21:52:46:498,0,-3.88949,-5.55327,-27.6271,Q,Q
2023-03-15 21:52:46:508,0,-3.89562,-5.54717,-27.6249,Q,Q
2023-03-15 21:52:46:518,0,-3.9008,-5.53615,-27.6291,Q,Q
2023-03-15 21:52:46:528,0,-3.90612,-5.53097,-27.6363,Q,Q
2023-03-15 21:52:46:538,0,-3.91123,-5.52758,-27.6457,Q,Q
2023-03-15 21:52:46:548,0,-3.91718,-5.52253,-27.6563,Q,Q
2023-03-15 21:52:46:558,0,-3.91932,-5.51744,-27.6678,Q,Q
2023-03-15 21:52:46:568,0,-3.91822,-5.51289,-27.6802,Q,Q
2023-03-15 21:52:46:578,0,-3.91877,-5.50884,-27.6892,Q,Q
2023-03-15 21:52:46:588,0,-3.92107,-5.50678,-27.7003,Q,Q
2023-03-15 21:52:46:598,0,-3.92421,-5.51125,-27.7063,Q,Q
2023-03-15 21:52:46:608,0,-3.92818,-5.51608,-27.7131,Q,Q
2023-03-15 21:52:46:618,0,-3.92694,-5.52154,-27.7162,Q,Q
2023-03-15 21:52:46:628,0,-3.93264,-5.52251,-27.7159,Q,Q
2023-03-15 21:52:46:638,0,-3.93622,-5.52639,-27.7133,Q,Q
2023-03-15 21:52:46:648,0,-3.94088,-5.52622,-27.7081,Q,Q
2023-03-15 21:52:46:658,0,-3.93979,-5.53002,-27.702,Q,Q
2023-03-15 21:52:46:668,0,-3.94105,-5.53264,-27.6923,Q,Q
2023-03-15 21:52:46:678,0,-3.93923,-5.53434,-27.6811,Q,Q
2023-03-15 21:52:46:688,0,-3.93502,-5.53795,-27.6694,Q,Q
2023-03-15 21:52:46:698,0,-3.92933,-5.53957,-27.6623,Q,Q
2023-03-15 21:52:46:708,0,-3.92112,-5.54455,-27.6562,Q,Q
2023-03-15 21:52:46:718,0,-3.91011,-5.55352,-27.6518,Q,Q
2023-03-15 21:52:46:728,0,-3.90234,-5.55751,-27.6466,Q,Q
2023-03-15 21:52:46:738,0,-3.89127,-5.5655,-27.6464,Q,Q
2023-03-15 21:52:46:748,0,-3.8757,-5.57148,-27.6478,Q,Q
2023-03-15 21:52:46:758,0,-3.8653,-5.5733,-27.6499,Q,Q
2023-03-15 21:52:46:767,0,-3.85111,-5.5813,-27.6488,Q,Q
2023-03-15 21:52:46:778,0,-3.84123,-5.58928,-27.6487,Q,Q
2023-03-15 21:52:46:788,0,-3.83283,-5.59966,-27.6492,Q,Q
2023-03-15 21:52:46:798,0,-3.82954,-5.60927,-27.6496,Q,Q
2023-03-15 21:52:46:808,0,-3.82512,-5.61594,-27.6481,Q,Q
2023-03-15 21:52:46:818,0,-3.82606,-5.62499,-27.6454,Q,Q
2023-03-15 21:52:46:828,0,-3.82878,-5.63105,-27.6434,Q,Q
2023-03-15 21:52:46:838,0,-3.83325,-5.63274,-27.6404,Q,Q
2023-03-15 21:52:46:848,0,-3.84399,-5.63679,-27.6394,Q,Q
2023-03-15 21:52:46:858,0,-3.85446,-5.64044,-27.6392,Q,Q
2023-03-15 21:52:46:868,0,-3.86842,-5.6418,-27.6426,Q,Q
2023-03-15 21:52:46:878,0,-3.88642,-5.64497,-27.6445,Q,Q
2023-03-15 21:52:46:888,0,-3.90741,-5.6482,-27.647,Q,Q
2023-03-15 21:52:46:898,0,-3.92204,-5.64928,-27.6504,Q,Q
2023-03-15 21:52:46:908,0,-3.93426,-5.65132,-27.6528,Q,Q
2023-03-15 21:52:46:918,0,-3.94093,-5.65275,-27.6574,Q,Q
2023-03-15 21:52:46:928,0,-3.94496,-5.65366,-27.663,Q,Q
2023-03-15 21:52:46:938,0,-3.94222,-5.65658,-27.6623,Q,Q
2023-03-15 21:52:46:948,0,-3.93797,-5.65858,-27.6641,Q,Q
2023-03-15 21:52:46:958,0,-3.93195,-5.66368,-27.6601,Q,Q
2023-03-15 21:52:46:968,0,-3.91927,-5.66502,-27.6586,Q,Q
2023-03-15 21:52:46:978,0,-3.90494,-5.66464,-27.6617,Q,Q
2023-03-15 21:52:46:988,0,-3.88971,-5.66145,-27.6606,Q,Q
2023-03-15 21:52:46:998,0,-3.8748,-5.65819,-27.6606,Q,Q
2023-03-15 21:52:47:8,0,-3.85789,-5.65659,-27.6576,Q,Q
2023-03-15 21:52:47:18,0,-3.8413,-5.65883,-27.6581,Q,Q
2023-03-15 21:52:47:28,0,-3.82677,-5.66397,-27.659,Q,Q
2023-03-15 21:52:47:38,0,-3.81333,-5.67395,-27.6522,Q,Q
2023-03-15 21:52:47:48,0,-3.80507,-5.68662,-27.6529,Q,Q
2023-03-15 21:52:47:58,0,-3.8019,-5.69422,-27.654,Q,Q
2023-03-15 21:52:47:68,0,-3.80229,-5.6985,-27.6567,Q,Q
2023-03-15 21:52:47:78,0,-3.80352,-5.70035,-27.6573,Q,Q
2023-03-15 21:52:47:88,0,-3.80775,-5.70423,-27.6555,Q,Q
2023-03-15 21:52:47:98,0,-3.81445,-5.70932,-27.654,Q,Q
2023-03-15 21:52:47:108,0,-3.81693,-5.71106,-27.6557,Q,Q
2023-03-15 21:52:47:118,0,-3.82429,-5.71043,-27.6519,Q,Q
2023-03-15 21:52:47:128,0,-3.8277,-5.70482,-27.6474,Q,Q
2023-03-15 21:52:47:138,0,-3.83153,-5.70346,-27.6458,Q,Q
2023-03-15 21:52:47:148,0,-3.83222,-5.70172,-27.6456,Q,Q
2023-03-15 21:52:47:158,0,-3.83124,-5.70003,-27.646,Q,Q
2023-03-15 21:52:47:168,0,-3.8267,-5.69814,-27.6482,Q,Q
2023-03-15 21:52:47:178,0,-3.81581,-5.69562,-27.6553,Q,Q
2023-03-15 21:52:47:187,0,-3.80578,-5.69068,-27.657,Q,Q
2023-03-15 21:52:47:198,0,-3.79159,-5.68516,-27.6638,Q,Q
2023-03-15 21:52:47:208,0,-3.78167,-5.67625,-27.6674,Q,Q
2023-03-15 21:52:47:218,0,-3.76944,-5.66645,-27.6722,Q,Q
2023-03-15 21:52:47:228,0,-3.7563,-5.66198,-27.6788,Q,Q
2023-03-15 21:52:47:238,0,-3.74214,-5.6587,-27.6841,Q,Q
2023-03-15 21:52:47:248,0,-3.72376,-5.6563,-27.6874,Q,Q
2023-03-15 21:52:47:258,0,-3.71072,-5.65427,-27.6931,Q,Q
2023-03-15 21:52:47:268,0,-3.69799,-5.65273,-27.6965,Q,Q
2023-03-15 21:52:47:278,0,-3.68557,-5.65007,-27.6991,Q,Q
2023-03-15 21:52:47:288,0,-3.67448,-5.64529,-27.6984,Q,Q
2023-03-15 21:52:47:298,0,-3.66167,-5.6395,-27.6981,Q,Q
2023-03-15 21:52:47:308,0,-3.65208,-5.63666,-27.6971,Q,Q
2023-03-15 21:52:47:318,0,-3.64426,-5.63304,-27.6894,Q,Q
2023-03-15 21:52:47:328,0,-3.63575,-5.62938,-27.6854,Q,Q
2023-03-15 21:52:47:338,0,-3.63137,-5.62491,-27.6809,Q,Q
2023-03-15 21:52:47:348,0,-3.62406,-5.62165,-27.6777,Q,Q
2023-03-15 21:52:47:358,0,-3.61668,-5.62398,-27.6692,Q,Q
2023-03-15 21:52:47:368,0,-3.60288,-5.62277,-27.6686,Q,Q
2023-03-15 21:52:47:378,0,-3.58638,-5.62167,-27.6669,Q,Q
2023-03-15 21:52:47:388,0,-3.56638,-5.61874,-27.6693,Q,Q
2023-03-15 21:52:47:398,0,-3.54437,-5.61807,-27.6752,Q,Q
2023-03-15 21:52:47:408,0,-3.52603,-5.61512,-27.6787,Q,Q
2023-03-15 21:52:47:418,0,-3.50443,-5.61151,-27.6818,Q,Q
2023-03-15 21:52:47:428,0,-3.48665,-5.61347,-27.6795,Q,Q
2023-03-15 21:52:47:438,0,-3.47269,-5.61247,-27.6761,Q,Q
2023-03-15 21:52:47:448,0,-3.46143,-5.6112,-27.6707,Q,Q
2023-03-15 21:52:47:458,0,-3.45122,-5.61328,-27.666,Q,Q
2023-03-15 21:52:47:468,0,-3.43927,-5.61266,-27.664,Q,Q
2023-03-15 21:52:47:478,0,-3.43522,-5.61445,-27.6562,Q,Q
2023-03-15 21:52:47:488,0,-3.42978,-5.61726,-27.6495,Q,Q
2023-03-15 21:52:47:498,0,-3.42793,-5.61437,-27.6425,Q,Q
2023-03-15 21:52:47:507,0,-3.42887,-5.61743,-27.63,Q,Q
2023-03-15 21:52:47:517,0,-3.43319,-5.61899,-27.6184,Q,Q
2023-03-15 21:52:47:527,0,-3.43815,-5.61718,-27.6098,Q,Q
2023-03-15 21:52:47:538,0,-3.44187,-5.61862,-27.6034,Q,Q
2023-03-15 21:52:47:548,0,-3.44244,-5.61753,-27.596,Q,Q
2023-03-15 21:52:47:558,0,-3.44292,-5.61794,-27.588,Q,Q
2023-03-15 21:52:47:568,0,-3.44027,-5.61918,-27.5835,Q,Q
2023-03-15 21:52:47:578,0,-3.4377,-5.61996,-27.5746,Q,Q
2023-03-15 21:52:47:588,0,-3.43836,-5.61687,-27.5688,Q,Q
2023-03-15 21:52:47:598,0,-3.44279,-5.61258,-27.5619,Q,Q
2023-03-15 21:52:47:608,0,-3.44483,-5.60565,-27.5584,Q,Q
2023-03-15 21:52:47:618,0,-3.44297,-5.59919,-27.5548,Q,Q
2023-03-15 21:52:47:628,0,-3.43882,-5.5933,-27.5532,Q,Q
2023-03-15 21:52:47:638,0,-3.43308,-5.5943,-27.552,Q,Q
2023-03-15 21:52:47:648,0,-3.4271,-5.59606,-27.5521,Q,Q
2023-03-15 21:52:47:658,0,-3.4251,-5.59827,-27.5526,Q,Q
2023-03-15 21:52:47:668,0,-3.42318,-5.59602,-27.5533,Q,Q
2023-03-15 21:52:47:678,0,-3.42739,-5.58973,-27.5533,Q,Q
2023-03-15 21:52:47:688,0,-3.44221,-5.58517,-27.5555,Q,Q
2023-03-15 21:52:47:698,0,-3.45923,-5.57831,-27.5557,Q,Q
2023-03-15 21:52:47:708,0,-3.48013,-5.56983,-27.5562,Q,Q
2023-03-15 21:52:47:718,0,-3.50291,-5.56804,-27.554,Q,Q
2023-03-15 21:52:47:728,0,-3.52438,-5.56473,-27.5561,Q,Q
2023-03-15 21:52:47:738,0,-3.54583,-5.56121,-27.5604,Q,Q
2023-03-15 21:52:47:748,0,-3.56159,-5.55748,-27.5609,Q,Q
2023-03-15 21:52:47:758,0,-3.57508,-5.55287,-27.5653,Q,Q
2023-03-15 21:52:47:768,0,-3.58347,-5.54603,-27.5711,Q,Q
2023-03-15 21:52:47:778,0,-3.59039,-5.53675,-27.579,Q,Q
2023-03-15 21:52:47:788,0,-3.59285,-5.52971,-27.5868,Q,Q
2023-03-15 21:52:47:798,0,-3.59085,-5.52428,-27.5931,Q,Q
2023-03-15 21:52:47:808,0,-3.58615,-5.51971,-27.6028,Q,Q
2023-03-15 21:52:47:818,0,-3.58249,-5.51495,-27.6126,Q,Q
2023-03-15 21:52:47:828,0,-3.57942,-5.50738,-27.6184,Q,Q
2023-03-15 21:52:47:838,0,-3.57986,-5.49888,-27.624,Q,Q
2023-03-15 21:52:47:848,0,-3.57424,-5.4902,-27.6303,Q,Q
2023-03-15 21:52:47:858,0,-3.57301,-5.48366,-27.6321,Q,Q
2023-03-15 21:52:47:868,0,-3.57064,-5.4765,-27.6358,Q,Q
2023-03-15 21:52:47:878,0,-3.56958,-5.47263,-27.6387,Q,Q
2023-03-15 21:52:47:888,0,-3.5636,-5.46816,-27.6422,Q,Q
2023-03-15 21:52:47:898,0,-3.56047,-5.46511,-27.641,Q,Q
2023-03-15 21:52:47:908,0,-3.56097,-5.46154,-27.6385,Q,Q
2023-03-15 21:52:47:918,0,-3.56175,-5.45904,-27.6348,Q,Q
2023-03-15 21:52:47:928,0,-3.56443,-5.45685,-27.6321,Q,Q
2023-03-15 21:52:47:938,0,-3.56701,-5.45561,-27.6253,Q,Q
2023-03-15 21:52:47:948,0,-3.56733,-5.45512,-27.6192,Q,Q
2023-03-15 21:52:47:958,0,-3.5696,-5.45521,-27.6125,Q,Q
2023-03-15 21:52:47:968,0,-3.5658,-5.45611,-27.6065,Q,Q
2023-03-15 21:52:47:978,0,-3.5631,-5.45753,-27.6051,Q,Q
2023-03-15 21:52:47:988,0,-3.55997,-5.45509,-27.6027,Q,Q
2023-03-15 21:52:47:998,0,-3.54828,-5.45428,-27.6015,Q,Q
2023-03-15 21:52:48:8,0,-3.5339,-5.45192,-27.6,Q,Q
2023-03-15 21:52:48:18,0,-3.51774,-5.45031,-27.5974,Q,Q
2023-03-15 21:52:48:28,0,-3.50126,-5.45427,-27.5949,Q,Q
2023-03-15 21:52:48:38,0,-3.48582,-5.45712,-27.592,Q,Q
2023-03-15 21:52:48:48,0,-3.47442,-5.461,-27.5902,Q,Q
2023-03-15 21:52:48:58,0,-3.46892,-5.46493,-27.5844,Q,Q
2023-03-15 21:52:48:68,0,-3.46307,-5.46595,-27.5784,Q,Q
2023-03-15 21:52:48:78,0,-3.46578,-5.47059,-27.5725,Q,Q
2023-03-15 21:52:48:88,0,-3.47206,-5.47056,-27.5651,Q,Q
2023-03-15 21:52:48:98,0,-3.47828,-5.47168,-27.5597,Q,Q
2023-03-15 21:52:48:108,0,-3.48967,-5.47152,-27.5554,Q,Q
