Timestamp_cmd,imu_cmd,roll_delta,pitch_delta,yaw_delta,voice_type,voice_length
2023-03-15 11:14:01:902,0,-3.41942,5.54431,26.7851,Q,Q
2023-03-15 11:14:01:905,0,-3.46578,5.59289,26.9849,Q,Q
2023-03-15 11:14:01:915,0,-3.52103,5.64839,27.1909,Q,Q
2023-03-15 11:14:01:925,0,-3.5922,5.70705,27.399,Q,Q
2023-03-15 11:14:01:935,0,-3.6821,5.77795,27.6051,Q,Q
2023-03-15 11:14:01:945,0,-3.76883,5.84883,27.8068,Q,Q
2023-03-15 11:14:01:955,0,-3.84313,5.92174,28.0129,Q,Q
2023-03-15 11:14:01:965,0,-3.90602,5.9998,28.2279,Q,Q
2023-03-15 11:14:01:975,0,-3.95779,6.08493,28.4477,Q,Q
2023-03-15 11:14:01:985,0,-4.00489,6.17753,28.6716,Q,Q
2023-03-15 11:14:01:995,0,-4.04722,6.2726,28.8897,Q,Q
2023-03-15 11:14:02:5,0,-4.08833,6.37646,29.0963,Q,Q
2023-03-15 11:14:02:15,0,-4.1285,6.48474,29.2933,Q,Q
2023-03-15 11:14:02:25,0,-4.16376,6.60321,29.4806,Q,Q
2023-03-15 11:14:02:35,0,-4.19782,6.73576,29.6605,Q,Q
2023-03-15 11:14:02:45,0,-4.2401,6.88837,29.8364,Q,Q
2023-03-15 11:14:02:55,0,-4.29399,7.07097,30.0094,Q,Q
2023-03-15 11:14:02:65,0,-4.3613,7.26659,30.1758,Q,Q
2023-03-15 11:14:02:75,0,-4.43659,7.47767,30.3366,Q,Q
2023-03-15 11:14:02:85,0,-4.51356,7.68297,30.4972,Q,Q
2023-03-15 11:14:02:95,0,-4.57795,7.87826,30.6607,Q,Q
2023-03-15 11:14:02:105,0,-4.62731,8.05027,30.8385,Q,Q
2023-03-15 11:14:02:115,0,-4.66598,8.19909,31.0221,Q,Q
2023-03-15 11:14:02:125,0,-4.70451,8.32483,31.1942,Q,Q
2023-03-15 11:14:02:135,0,-4.74696,8.43981,31.3506,Q,Q
2023-03-15 11:14:02:145,0,-4.78946,8.54561,31.4937,Q,Q
2023-03-15 11:14:02:155,0,-4.8262,8.64446,31.6292,Q,Q
2023-03-15 11:14:02:165,0,-4.86008,8.73919,31.7675,Q,Q
2023-03-15 11:14:02:175,0,-4.89124,8.82722,31.9043,Q,Q
2023-03-15 11:14:02:185,0,-4.92167,8.90968,32.0435,Q,Q
2023-03-15 11:14:02:195,0,-4.95472,8.98256,32.1804,Q,Q
2023-03-15 11:14:02:205,0,-4.9829,9.05416,32.3164,Q,Q
2023-03-15 11:14:02:215,0,-5.00928,9.11567,32.4483,Q,Q
2023-03-15 11:14:02:225,0,-5.03293,9.16743,32.5781,Q,Q
2023-03-15 11:14:02:235,0,-5.06224,9.20968,32.7064,Q,Q
2023-03-15 11:14:02:245,0,-5.09829,9.24462,32.8273,Q,Q
2023-03-15 11:14:02:255,0,-5.14116,9.27465,32.9491,Q,Q
2023-03-15 11:14:02:265,0,-5.19309,9.30192,33.0617,Q,Q
2023-03-15 11:14:02:275,0,-5.26099,9.33524,33.1597,Q,Q
2023-03-15 11:14:02:285,0,-5.34313,9.36706,33.239,Q,Q
2023-03-15 11:14:02:295,0,-5.43715,9.39637,33.297,Q,Q
2023-03-15 11:14:02:305,0,-5.53126,9.41379,33.339,Q,Q
2023-03-15 11:14:02:315,0,-5.61526,9.42326,33.3633,Q,Q
2023-03-15 11:14:02:325,0,-5.68932,9.42064,33.3723,Q,Q
2023-03-15 11:14:02:335,0,-5.74498,9.40828,33.3765,Q,Q
2023-03-15 11:14:02:345,0,-5.77792,9.38805,33.3758,Q,Q
2023-03-15 11:14:02:355,0,-5.79085,9.35708,33.3763,Q,Q
2023-03-15 11:14:02:365,0,-5.78588,9.31867,33.3782,Q,Q
2023-03-15 11:14:02:375,0,-5.76478,9.27788,33.3853,Q,Q
2023-03-15 11:14:02:385,0,-5.73171,9.23121,33.4038,Q,Q
2023-03-15 11:14:02:395,0,-5.69393,9.18569,33.4309,Q,Q
2023-03-15 11:14:02:405,0,-5.64305,9.1388,33.4662,Q,Q
2023-03-15 11:14:02:415,0,-5.58108,9.08866,33.506,Q,Q
2023-03-15 11:14:02:425,0,-5.51499,9.03716,33.5528,Q,Q
2023-03-15 11:14:02:435,0,-5.44196,8.98451,33.6039,Q,Q
2023-03-15 11:14:02:445,0,-5.37086,8.92784,33.659,Q,Q
2023-03-15 11:14:02:455,0,-5.30824,8.86768,33.7183,Q,Q
2023-03-15 11:14:02:465,0,-5.24645,8.80247,33.7711,Q,Q
2023-03-15 11:14:02:475,0,-5.18186,8.73513,33.8248,Q,Q
2023-03-15 11:14:02:485,0,-5.11179,8.66429,33.8707,Q,Q
2023-03-15 11:14:02:495,0,-5.04364,8.59249,33.9175,Q,Q
2023-03-15 11:14:02:505,0,-4.97801,8.52547,33.9555,Q,Q
2023-03-15 11:14:02:515,0,-4.92097,8.45535,33.9876,Q,Q
2023-03-15 11:14:02:525,0,-4.8668,8.39522,34.0182,Q,Q
2023-03-15 11:14:02:535,0,-4.81259,8.33783,34.0416,Q,Q
2023-03-15 11:14:02:545,0,-4.7611,8.28002,34.0596,Q,Q
2023-03-15 11:14:02:555,0,-4.69935,8.21958,34.0705,Q,Q
2023-03-15 11:14:02:565,0,-4.62475,8.16126,34.0798,Q,Q
2023-03-15 11:14:02:575,0,-4.53665,8.09338,34.0895,Q,Q
2023-03-15 11:14:02:585,0,-4.44071,8.02776,34.1006,Q,Q
2023-03-15 11:14:02:595,0,-4.34194,7.96324,34.106,Q,Q
2023-03-15 11:14:02:605,0,-4.2532,7.90007,34.104,Q,Q
2023-03-15 11:14:02:615,0,-4.17496,7.84527,34.1063,Q,Q
2023-03-15 11:14:02:625,0,-4.10831,7.78912,34.1083,Q,Q
2023-03-15 11:14:02:635,0,-4.05413,7.73115,34.1174,Q,Q
2023-03-15 11:14:02:645,0,-4.0079,7.67387,34.1362,Q,Q
2023-03-15 11:14:02:654,0,-3.96644,7.61506,34.1639,Q,Q
2023-03-15 11:14:02:664,0,-3.93007,7.55921,34.1946,Q,Q
2023-03-15 11:14:02:674,0,-3.90213,7.51342,34.234,Q,Q
2023-03-15 11:14:02:685,0,-3.88681,7.48169,34.2797,Q,Q
2023-03-15 11:14:02:695,0,-3.88365,7.46427,34.3282,Q,Q
2023-03-15 11:14:02:705,0,-3.88783,7.45717,34.3786,Q,Q
2023-03-15 11:14:02:715,0,-3.89523,7.45277,34.4318,Q,Q
2023-03-15 11:14:02:725,0,-3.88818,7.45471,34.4916,Q,Q
2023-03-15 11:14:02:735,0,-3.86964,7.45371,34.5644,Q,Q
2023-03-15 11:14:02:745,0,-3.83954,7.46034,34.6452,Q,Q
2023-03-15 11:14:02:755,0,-3.80129,7.46813,34.7368,Q,Q
2023-03-15 11:14:02:765,0,-3.76225,7.46476,34.8292,Q,Q
2023-03-15 11:14:02:775,0,-3.73106,7.44837,34.9173,Q,Q
2023-03-15 11:14:02:785,0,-3.71519,7.42687,34.9949,Q,Q
2023-03-15 11:14:02:795,0,-3.7091,7.40085,35.0666,Q,Q
2023-03-15 11:14:02:805,0,-3.71695,7.37102,35.1279,Q,Q
2023-03-15 11:14:02:815,0,-3.72354,7.34494,35.1859,Q,Q
2023-03-15 11:14:02:824,0,-3.72334,7.31064,35.2439,Q,Q
2023-03-15 11:14:02:834,0,-3.72467,7.27149,35.2956,Q,Q
2023-03-15 11:14:02:845,0,-3.72699,7.22996,35.3432,Q,Q
2023-03-15 11:14:02:855,0,-3.73512,7.19177,35.3877,Q,Q
2023-03-15 11:14:02:865,0,-3.74771,7.15868,35.427,Q,Q
2023-03-15 11:14:02:875,0,-3.76054,7.12757,35.4668,Q,Q
2023-03-15 11:14:02:885,0,-3.7697,7.10121,35.5067,Q,Q
2023-03-15 11:14:02:895,0,-3.78157,7.0752,35.555,Q,Q
2023-03-15 11:14:02:905,0,-3.79512,7.05223,35.6014,Q,Q
2023-03-15 11:14:02:915,0,-3.81759,7.03897,35.6466,Q,Q
2023-03-15 11:14:02:925,0,-3.84358,7.03591,35.6834,Q,Q
2023-03-15 11:14:02:935,0,-3.87942,7.04448,35.7158,Q,Q
2023-03-15 11:14:02:945,0,-3.91862,7.05838,35.741,Q,Q
2023-03-15 11:14:02:955,0,-3.95854,7.07436,35.7636,Q,Q
2023-03-15 11:14:02:965,0,-3.99513,7.09079,35.7805,Q,Q
2023-03-15 11:14:02:975,0,-4.02945,7.10984,35.7937,Q,Q
2023-03-15 11:14:02:985,0,-4.0602,7.12509,35.808,Q,Q
2023-03-15 11:14:02:995,0,-4.07897,7.13209,35.8286,Q,Q
2023-03-15 11:14:03:5,0,-4.08296,7.13998,35.8529,Q,Q
2023-03-15 11:14:03:15,0,-4.07925,7.15096,35.8809,Q,Q
2023-03-15 11:14:03:25,0,-4.07625,7.15852,35.9141,Q,Q
2023-03-15 11:14:03:35,0,-4.07898,7.16435,35.9501,Q,Q
2023-03-15 11:14:03:45,0,-4.08636,7.17169,35.9816,Q,Q
2023-03-15 11:14:03:55,0,-4.09047,7.17479,36.0124,Q,Q
2023-03-15 11:14:03:65,0,-4.08705,7.16202,36.0453,Q,Q
2023-03-15 11:14:03:75,0,-4.07612,7.13397,36.087,Q,Q
2023-03-15 11:14:03:85,0,-4.06148,7.09651,36.1315,Q,Q
2023-03-15 11:14:03:95,0,-4.05418,7.05622,36.1687,Q,Q
2023-03-15 11:14:03:105,0,-4.05881,7.01031,36.1919,Q,Q
2023-03-15 11:14:03:115,0,-4.07393,6.96904,36.2019,Q,Q
2023-03-15 11:14:03:125,0,-4.09944,6.92871,36.2071,Q,Q
2023-03-15 11:14:03:135,0,-4.13422,6.89567,36.1967,Q,Q
2023-03-15 11:14:03:145,0,-4.17064,6.8646,36.1793,Q,Q
2023-03-15 11:14:03:155,0,-4.20837,6.83764,36.155,Q,Q
2023-03-15 11:14:03:165,0,-4.24979,6.80721,36.1319,Q,Q
2023-03-15 11:14:03:175,0,-4.28824,6.77133,36.1099,Q,Q
2023-03-15 11:14:03:185,0,-4.32452,6.73367,36.0846,Q,Q
2023-03-15 11:14:03:195,0,-4.36433,6.69459,36.053,Q,Q
2023-03-15 11:14:03:205,0,-4.40376,6.65794,36.0144,Q,Q
2023-03-15 11:14:03:215,0,-4.45314,6.62485,35.956,Q,Q
2023-03-15 11:14:03:225,0,-4.51154,6.58883,35.8763,Q,Q
2023-03-15 11:14:03:235,0,-4.57632,6.54926,35.7701,Q,Q
2023-03-15 11:14:03:245,0,-4.64134,6.49636,35.6371,Q,Q
2023-03-15 11:14:03:255,0,-4.70673,6.43448,35.4698,Q,Q
2023-03-15 11:14:03:265,0,-4.77277,6.35591,35.2644,Q,Q
2023-03-15 11:14:03:275,0,-4.84805,6.26033,35.011,Q,Q
2023-03-15 11:14:03:285,0,-4.93406,6.15006,34.7102,Q,Q
2023-03-15 11:14:03:295,0,-5.0298,6.02384,34.349,Q,Q
2023-03-15 11:14:03:305,0,-5.13372,5.87679,33.9185,Q,Q
2023-03-15 11:14:03:315,0,-5.23366,5.71336,33.4159,Q,Q
2023-03-15 11:14:03:325,0,-5.33579,5.52615,32.8307,Q,Q
2023-03-15 11:14:03:335,0,-5.43613,5.32162,32.1588,Q,Q
2023-03-15 11:14:03:345,0,-5.53862,5.09077,31.3989,Q,Q
2023-03-15 11:14:03:354,0,-5.63522,4.82672,30.5549,Q,Q
2023-03-15 11:14:03:364,0,-5.72347,4.52661,29.6335,Q,Q
2023-03-15 11:14:03:374,0,-5.79097,4.20519,28.6369,Q,Q
2023-03-15 11:14:03:384,0,-5.82881,3.85368,27.5682,Q,Q
2023-03-15 11:14:03:394,0,-5.82045,3.4804,26.432,Q,Q
2023-03-15 11:14:03:404,0,-5.76491,3.08484,25.2423,Q,Q
2023-03-15 11:14:03:414,0,-5.65776,2.67676,24.0102,Q,Q
2023-03-15 11:14:03:424,0,-5.50234,2.26376,22.7481,Q,Q
2023-03-15 11:14:03:434,0,-5.31569,1.87146,21.4772,Q,Q
2023-03-15 11:14:03:444,0,-5.09388,1.50591,20.2034,Q,Q
2023-03-15 11:14:03:455,0,-4.83577,1.167,18.939,Q,Q
2023-03-15 11:14:03:464,0,-4.55454,0.843715,17.6855,Q,Q
2023-03-15 11:14:03:475,0,-4.25766,0.534488,16.4497,Q,Q
2023-03-15 11:14:03:485,0,-3.95569,0.239664,15.2455,Q,Q
2023-03-15 11:14:03:495,0,-3.64989,-0.0430179,14.0846,Q,Q
2023-03-15 11:14:03:504,0,-3.34098,-0.304491,12.9733,Q,Q
2023-03-15 11:14:03:515,0,-3.02488,-0.53103,11.9163,Q,Q
2023-03-15 11:14:03:525,0,-2.71738,-0.718945,10.9166,Q,Q
2023-03-15 11:14:03:534,0,-2.42097,-0.861469,9.96884,Q,Q
2023-03-15 11:14:03:545,0,-2.13904,-0.967391,9.07385,Q,Q
2023-03-15 11:14:03:555,0,-1.87051,-1.03677,8.23674,Q,Q
2023-03-15 11:14:03:565,0,-1.6051,-1.0767,7.45915,Q,Q
2023-03-15 11:14:03:575,0,-1.34011,-1.09519,6.74412,Q,Q
2023-03-15 11:14:03:585,0,-1.06995,-1.09536,6.09132,Q,Q
2023-03-15 11:14:03:594,0,-0.799796,-1.08252,5.51238,Q,Q
2023-03-15 11:14:03:605,0,-0.532028,-1.04643,5.00204,Q,Q
2023-03-15 11:14:03:615,0,-0.275862,-1.00098,4.55576,Q,Q
2023-03-15 11:14:03:624,0,-0.0344592,-0.940495,4.16596,Q,Q
2023-03-15 11:14:03:634,0,0.189919,-0.86703,3.82783,Q,Q
2023-03-15 11:14:03:644,0,0.39866,-0.783019,3.53534,Q,Q
2023-03-15 11:14:03:655,0,0.586763,-0.691365,3.28171,Q,Q
2023-03-15 11:14:03:665,0,0.758469,-0.58926,3.07047,Q,Q
2023-03-15 11:14:03:675,0,0.911097,-0.478482,2.89594,Q,Q
2023-03-15 11:14:03:684,0,1.04457,-0.36167,2.75202,Q,Q
2023-03-15 11:14:03:694,0,1.16801,-0.23901,2.63538,Q,Q
2023-03-15 11:14:03:704,0,1.27965,-0.118697,2.54315,Q,Q
2023-03-15 11:14:03:714,0,1.37512,-0.00486878,2.46707,Q,Q
2023-03-15 11:14:03:724,0,1.46671,0.106057,2.40326,Q,Q
2023-03-15 11:14:03:734,0,1.55112,0.208951,2.34326,Q,Q
2023-03-15 11:14:03:744,0,1.63203,0.304854,2.29548,Q,Q
2023-03-15 11:14:03:754,0,1.71449,0.4022,2.25181,Q,Q
2023-03-15 11:14:03:764,0,1.79604,0.497626,2.20406,Q,Q
2023-03-15 11:14:03:774,0,1.87858,0.588225,2.16475,Q,Q
2023-03-15 11:14:03:784,0,1.96208,0.676862,2.13144,Q,Q
2023-03-15 11:14:03:794,0,2.04056,0.76398,2.10212,Q,Q
2023-03-15 11:14:03:804,0,2.12048,0.845745,2.07346,Q,Q
2023-03-15 11:14:03:814,0,2.19334,0.925052,2.04596,Q,Q
2023-03-15 11:14:03:824,0,2.26963,0.999496,2.02288,Q,Q
2023-03-15 11:14:03:834,0,2.34029,1.07287,2.0016,Q,Q
2023-03-15 11:14:03:844,0,2.4049,1.13831,1.98016,Q,Q
2023-03-15 11:14:03:854,0,2.46135,1.19729,1.96543,Q,Q
2023-03-15 11:14:03:864,0,2.51606,1.24909,1.94297,Q,Q
2023-03-15 11:14:03:874,0,2.57022,1.29549,1.91423,Q,Q
2023-03-15 11:14:03:884,0,2.62064,1.34598,1.88662,Q,Q
2023-03-15 11:14:03:894,0,2.66546,1.39791,1.85247,Q,Q
2023-03-15 11:14:03:904,0,2.70912,1.44834,1.81657,Q,Q
2023-03-15 11:14:03:914,0,2.75275,1.50027,1.77802,Q,Q
2023-03-15 11:14:03:924,0,2.79171,1.55188,1.73242,Q,Q
2023-03-15 11:14:03:934,0,2.82563,1.59828,1.68789,Q,Q
2023-03-15 11:14:03:944,0,2.85828,1.64038,1.64173,Q,Q
2023-03-15 11:14:03:954,0,2.89712,1.68354,1.59843,Q,Q
2023-03-15 11:14:03:964,0,2.93615,1.72499,1.55662,Q,Q
2023-03-15 11:14:03:974,0,2.98355,1.7714,1.52074,Q,Q
2023-03-15 11:14:03:984,0,3.03008,1.81871,1.49336,Q,Q
2023-03-15 11:14:03:994,0,3.0748,1.86863,1.46999,Q,Q
2023-03-15 11:14:04:4,0,3.1104,1.91851,1.45323,Q,Q
2023-03-15 11:14:04:14,0,3.13331,1.96781,1.4409,Q,Q
2023-03-15 11:14:04:24,0,3.14885,2.01599,1.43668,Q,Q
2023-03-15 11:14:04:34,0,3.15113,2.0615,1.43764,Q,Q
2023-03-15 11:14:04:44,0,3.14241,2.10147,1.44899,Q,Q
2023-03-15 11:14:04:54,0,3.11565,2.14646,1.46606,Q,Q
2023-03-15 11:14:04:64,0,3.07621,2.19752,1.48877,Q,Q
2023-03-15 11:14:04:74,0,3.01968,2.25207,1.51968,Q,Q
2023-03-15 11:14:04:84,0,2.95339,2.3141,1.55697,Q,Q
2023-03-15 11:14:04:94,0,2.86871,2.38383,1.6011,Q,Q
2023-03-15 11:14:04:104,0,2.75815,2.46316,1.65742,Q,Q
2023-03-15 11:14:04:114,0,2.62928,2.54983,1.71989,Q,Q
2023-03-15 11:14:04:124,0,2.47926,2.63582,1.79508,Q,Q
2023-03-15 11:14:04:134,0,2.30742,2.72286,1.87996,Q,Q
2023-03-15 11:14:04:144,0,2.11003,2.80211,1.97202,Q,Q
2023-03-15 11:14:04:154,0,1.88399,2.86661,2.06404,Q,Q
2023-03-15 11:14:04:164,0,1.65196,2.92084,2.15351,Q,Q
2023-03-15 11:14:04:174,0,1.42319,2.96897,2.2446,Q,Q
2023-03-15 11:14:04:184,0,1.20942,3.0103,2.33252,Q,Q
2023-03-15 11:14:04:194,0,1.01517,3.05179,2.42417,Q,Q
2023-03-15 11:14:04:204,0,0.841029,3.09863,2.51518,Q,Q
2023-03-15 11:14:04:214,0,0.676987,3.14462,2.60135,Q,Q
2023-03-15 11:14:04:224,0,0.518991,3.19402,2.68445,Q,Q
2023-03-15 11:14:04:234,0,0.364463,3.23699,2.76078,Q,Q
2023-03-15 11:14:04:244,0,0.212608,3.27121,2.82872,Q,Q
2023-03-15 11:14:04:254,0,0.0647401,3.2962,2.88122,Q,Q
2023-03-15 11:14:04:264,0,-0.0683169,3.31176,2.92341,Q,Q
2023-03-15 11:14:04:274,0,-0.180456,3.31799,2.959,Q,Q
2023-03-15 11:14:04:284,0,-0.272234,3.3201,2.99442,Q,Q
2023-03-15 11:14:04:294,0,-0.350397,3.31816,3.02861,Q,Q
2023-03-15 11:14:04:304,0,-0.424412,3.30842,3.05957,Q,Q
2023-03-15 11:14:04:314,0,-0.498404,3.29574,3.08721,Q,Q
2023-03-15 11:14:04:324,0,-0.581353,3.28506,3.10921,Q,Q
2023-03-15 11:14:04:334,0,-0.66957,3.27269,3.12426,Q,Q
2023-03-15 11:14:04:344,0,-0.76253,3.26057,3.13772,Q,Q
2023-03-15 11:14:04:354,0,-0.865649,3.25427,3.15075,Q,Q
2023-03-15 11:14:04:364,0,-0.972164,3.24709,3.16075,Q,Q
2023-03-15 11:14:04:374,0,-1.07945,3.23702,3.16802,Q,Q
2023-03-15 11:14:04:384,0,-1.18691,3.22659,3.1744,Q,Q
2023-03-15 11:14:04:394,0,-1.28389,3.21569,3.18105,Q,Q
2023-03-15 11:14:04:404,0,-1.36982,3.20495,3.19002,Q,Q
2023-03-15 11:14:04:414,0,-1.44822,3.19956,3.20449,Q,Q
2023-03-15 11:14:04:424,0,-1.5271,3.1926,3.2197,Q,Q
2023-03-15 11:14:04:434,0,-1.60895,3.19055,3.23388,Q,Q
2023-03-15 11:14:04:444,0,-1.69231,3.19443,3.24984,Q,Q
2023-03-15 11:14:04:454,0,-1.77924,3.19869,3.26972,Q,Q
2023-03-15 11:14:04:464,0,-1.86888,3.20622,3.29158,Q,Q
2023-03-15 11:14:04:474,0,-1.95333,3.21392,3.31348,Q,Q
2023-03-15 11:14:04:484,0,-2.03554,3.22257,3.33978,Q,Q
2023-03-15 11:14:04:494,0,-2.11302,3.23385,3.36437,Q,Q
2023-03-15 11:14:04:504,0,-2.18719,3.24751,3.39152,Q,Q
2023-03-15 11:14:04:514,0,-2.25599,3.26623,3.42319,Q,Q
2023-03-15 11:14:04:524,0,-2.3169,3.28436,3.45916,Q,Q
2023-03-15 11:14:04:534,0,-2.37073,3.2973,3.5012,Q,Q
2023-03-15 11:14:04:544,0,-2.41261,3.30584,3.54545,Q,Q
2023-03-15 11:14:04:554,0,-2.43852,3.30726,3.5999,Q,Q
2023-03-15 11:14:04:564,0,-2.45555,3.29167,3.6543,Q,Q
2023-03-15 11:14:04:574,0,-2.47176,3.26797,3.71599,Q,Q
2023-03-15 11:14:04:584,0,-2.49293,3.23271,3.77648,Q,Q
2023-03-15 11:14:04:594,0,-2.52797,3.19356,3.83236,Q,Q
2023-03-15 11:14:04:604,0,-2.57164,3.14597,3.88209,Q,Q
2023-03-15 11:14:04:614,0,-2.62217,3.08577,3.91785,Q,Q
2023-03-15 11:14:04:624,0,-2.66295,3.01772,3.95024,Q,Q
2023-03-15 11:14:04:634,0,-2.68548,2.94289,3.9783,Q,Q
2023-03-15 11:14:04:644,0,-2.69239,2.85896,4.00831,Q,Q
2023-03-15 11:14:04:654,0,-2.69303,2.7782,4.04321,Q,Q
2023-03-15 11:14:04:664,0,-2.68393,2.6994,4.0698,Q,Q
2023-03-15 11:14:04:674,0,-2.67786,2.62535,4.08315,Q,Q
2023-03-15 11:14:04:684,0,-2.68121,2.56219,4.08911,Q,Q
2023-03-15 11:14:04:694,0,-2.69212,2.50859,4.08335,Q,Q
2023-03-15 11:14:04:704,0,-2.70784,2.4654,4.06603,Q,Q
2023-03-15 11:14:04:714,0,-2.72138,2.42913,4.0466,Q,Q
2023-03-15 11:14:04:724,0,-2.72966,2.39483,4.02009,Q,Q
2023-03-15 11:14:04:734,0,-2.72698,2.36521,3.99378,Q,Q
2023-03-15 11:14:04:744,0,-2.71836,2.33301,3.96632,Q,Q
2023-03-15 11:14:04:754,0,-2.70607,2.28971,3.9399,Q,Q
2023-03-15 11:14:04:764,0,-2.69457,2.23418,3.91503,Q,Q
2023-03-15 11:14:04:774,0,-2.69136,2.17276,3.89241,Q,Q
2023-03-15 11:14:04:784,0,-2.68898,2.1027,3.86384,Q,Q
2023-03-15 11:14:04:794,0,-2.68395,2.03308,3.82864,Q,Q
2023-03-15 11:14:04:804,0,-2.6797,1.96225,3.79002,Q,Q
2023-03-15 11:14:04:814,0,-2.66813,1.8932,3.74936,Q,Q
2023-03-15 11:14:04:824,0,-2.65355,1.82618,3.7126,Q,Q
2023-03-15 11:14:04:834,0,-2.62759,1.75859,3.68012,Q,Q
2023-03-15 11:14:04:844,0,-2.59292,1.68594,3.65125,Q,Q
2023-03-15 11:14:04:854,0,-2.55595,1.6161,3.62708,Q,Q
2023-03-15 11:14:04:864,0,-2.51598,1.54895,3.59984,Q,Q
2023-03-15 11:14:04:874,0,-2.47726,1.48428,3.58075,Q,Q
2023-03-15 11:14:04:884,0,-2.44265,1.42698,3.56409,Q,Q
2023-03-15 11:14:04:894,0,-2.41043,1.37635,3.5497,Q,Q
2023-03-15 11:14:04:904,0,-2.38014,1.32497,3.53509,Q,Q
2023-03-15 11:14:04:914,0,-2.35103,1.28291,3.52212,Q,Q
2023-03-15 11:14:04:924,0,-2.31674,1.24449,3.51299,Q,Q
2023-03-15 11:14:04:934,0,-2.28144,1.21666,3.50919,Q,Q
2023-03-15 11:14:04:944,0,-2.24664,1.1984,3.50378,Q,Q
2023-03-15 11:14:04:954,0,-2.22283,1.19352,3.50019,Q,Q
2023-03-15 11:14:04:964,0,-2.20589,1.19377,3.49342,Q,Q
2023-03-15 11:14:04:974,0,-2.19058,1.19565,3.48756,Q,Q
2023-03-15 11:14:04:984,0,-2.17492,1.19769,3.48517,Q,Q
2023-03-15 11:14:04:994,0,-2.15464,1.20105,3.48311,Q,Q
2023-03-15 11:14:05:3,0,-2.12707,1.20357,3.48662,Q,Q
2023-03-15 11:14:05:14,0,-2.09181,1.21084,3.49418,Q,Q
2023-03-15 11:14:05:24,0,-2.0552,1.23267,3.50238,Q,Q
2023-03-15 11:14:05:34,0,-2.01304,1.25802,3.51748,Q,Q
2023-03-15 11:14:05:44,0,-1.97458,1.28034,3.53256,Q,Q
2023-03-15 11:14:05:54,0,-1.94617,1.30572,3.54462,Q,Q
2023-03-15 11:14:05:64,0,-1.92042,1.33366,3.55608,Q,Q
2023-03-15 11:14:05:74,0,-1.90365,1.36139,3.56657,Q,Q
2023-03-15 11:14:05:84,0,-1.88129,1.38852,3.57403,Q,Q
2023-03-15 11:14:05:94,0,-1.861,1.41585,3.57981,Q,Q
2023-03-15 11:14:05:104,0,-1.83985,1.44127,3.58036,Q,Q
2023-03-15 11:14:05:114,0,-1.82217,1.46308,3.58067,Q,Q
2023-03-15 11:14:05:124,0,-1.80368,1.4832,3.57872,Q,Q
2023-03-15 11:14:05:134,0,-1.78953,1.50833,3.56681,Q,Q
2023-03-15 11:14:05:144,0,-1.77375,1.53112,3.55157,Q,Q
2023-03-15 11:14:05:154,0,-1.75585,1.54867,3.53665,Q,Q
2023-03-15 11:14:05:164,0,-1.73507,1.5591,3.52363,Q,Q
2023-03-15 11:14:05:174,0,-1.71122,1.56072,3.51369,Q,Q
2023-03-15 11:14:05:184,0,-1.68686,1.55821,3.50269,Q,Q
2023-03-15 11:14:05:194,0,-1.66096,1.55264,3.49541,Q,Q
2023-03-15 11:14:05:204,0,-1.64076,1.54849,3.49127,Q,Q
2023-03-15 11:14:05:214,0,-1.61562,1.55623,3.48758,Q,Q
2023-03-15 11:14:05:224,0,-1.58378,1.56091,3.48234,Q,Q
2023-03-15 11:14:05:234,0,-1.55738,1.55423,3.47363,Q,Q
2023-03-15 11:14:05:244,0,-1.54336,1.53829,3.46784,Q,Q
2023-03-15 11:14:05:254,0,-1.5428,1.52118,3.46395,Q,Q
2023-03-15 11:14:05:264,0,-1.54851,1.50827,3.46006,Q,Q
2023-03-15 11:14:05:274,0,-1.54401,1.49476,3.45662,Q,Q
2023-03-15 11:14:05:284,0,-1.53699,1.47539,3.46107,Q,Q
2023-03-15 11:14:05:294,0,-1.52603,1.45703,3.46976,Q,Q
2023-03-15 11:14:05:304,0,-1.51836,1.43417,3.47829,Q,Q
2023-03-15 11:14:05:314,0,-1.50739,1.41696,3.49317,Q,Q
2023-03-15 11:14:05:324,0,-1.49958,1.40725,3.51245,Q,Q
2023-03-15 11:14:05:334,0,-1.48847,1.40007,3.53454,Q,Q
2023-03-15 11:14:05:344,0,-1.47717,1.39727,3.5597,Q,Q
2023-03-15 11:14:05:354,0,-1.47113,1.39518,3.59034,Q,Q
2023-03-15 11:14:05:364,0,-1.46111,1.39297,3.61946,Q,Q
2023-03-15 11:14:05:374,0,-1.45429,1.39126,3.65444,Q,Q
2023-03-15 11:14:05:384,0,-1.44933,1.3834,3.68692,Q,Q
2023-03-15 11:14:05:394,0,-1.44708,1.37323,3.72068,Q,Q
2023-03-15 11:14:05:404,0,-1.44154,1.37062,3.75377,Q,Q
2023-03-15 11:14:05:414,0,-1.43506,1.36677,3.78387,Q,Q
2023-03-15 11:14:05:424,0,-1.43127,1.36542,3.81235,Q,Q
2023-03-15 11:14:05:434,0,-1.4291,1.35757,3.84079,Q,Q
2023-03-15 11:14:05:444,0,-1.43429,1.34652,3.863,Q,Q
2023-03-15 11:14:05:454,0,-1.44262,1.3379,3.88532,Q,Q
2023-03-15 11:14:05:463,0,-1.45104,1.32421,3.9035,Q,Q
2023-03-15 11:14:05:474,0,-1.46071,1.30863,3.91901,Q,Q
2023-03-15 11:14:05:484,0,-1.46633,1.29462,3.93306,Q,Q
2023-03-15 11:14:05:494,0,-1.46727,1.28382,3.94697,Q,Q
2023-03-15 11:14:05:504,0,-1.46601,1.26896,3.95817,Q,Q
2023-03-15 11:14:05:513,0,-1.46188,1.25618,3.9705,Q,Q
2023-03-15 11:14:05:524,0,-1.45453,1.24328,3.98458,Q,Q
2023-03-15 11:14:05:533,0,-1.45201,1.23023,3.99684,Q,Q
2023-03-15 11:14:05:544,0,-1.45574,1.21952,4.00923,Q,Q
2023-03-15 11:14:05:554,0,-1.46187,1.20975,4.01843,Q,Q
2023-03-15 11:14:05:564,0,-1.47135,1.19935,4.0308,Q,Q
2023-03-15 11:14:05:573,0,-1.47977,1.18744,4.04169,Q,Q
2023-03-15 11:14:05:583,0,-1.48827,1.17379,4.04859,Q,Q
2023-03-15 11:14:05:594,0,-1.49459,1.16369,4.05761,Q,Q
2023-03-15 11:14:05:604,0,-1.49717,1.15281,4.06365,Q,Q
2023-03-15 11:14:05:613,0,-1.48948,1.14288,4.06946,Q,Q
2023-03-15 11:14:05:624,0,-1.47444,1.13101,4.0815,Q,Q
2023-03-15 11:14:05:634,0,-1.45916,1.11802,4.09612,Q,Q
2023-03-15 11:14:05:644,0,-1.44085,1.10913,4.11248,Q,Q
2023-03-15 11:14:05:654,0,-1.42708,1.09715,4.12929,Q,Q
2023-03-15 11:14:05:664,0,-1.4159,1.08699,4.14545,Q,Q
2023-03-15 11:14:05:674,0,-1.40602,1.07517,4.15839,Q,Q
2023-03-15 11:14:05:684,0,-1.3937,1.06263,4.16698,Q,Q
2023-03-15 11:14:05:693,0,-1.37775,1.04505,4.17564,Q,Q
2023-03-15 11:14:05:703,0,-1.35986,1.03298,4.18109,Q,Q
2023-03-15 11:14:05:714,0,-1.34373,1.01977,4.18334,Q,Q
2023-03-15 11:14:05:723,0,-1.32328,1.00656,4.18454,Q,Q
2023-03-15 11:14:05:734,0,-1.30429,0.994241,4.1855,Q,Q
2023-03-15 11:14:05:744,0,-1.2811,0.982887,4.18322,Q,Q
2023-03-15 11:14:05:754,0,-1.25711,0.970796,4.18629,Q,Q
2023-03-15 11:14:05:764,0,-1.2229,0.953542,4.20136,Q,Q
2023-03-15 11:14:05:773,0,-1.18367,0.926762,4.22937,Q,Q
2023-03-15 11:14:05:783,0,-1.14541,0.898531,4.27772,Q,Q
2023-03-15 11:14:05:793,0,-1.1168,0.874974,4.33253,Q,Q
2023-03-15 11:14:05:803,0,-1.10766,0.852175,4.3895,Q,Q
2023-03-15 11:14:05:813,0,-1.11442,0.832762,4.43857,Q,Q
2023-03-15 11:14:05:823,0,-1.13357,0.809301,4.46571,Q,Q
2023-03-15 11:14:05:833,0,-1.16049,0.794948,4.46875,Q,Q
2023-03-15 11:14:05:843,0,-1.17635,0.780438,4.44555,Q,Q
2023-03-15 11:14:05:853,0,-1.18284,0.769387,4.40886,Q,Q
2023-03-15 11:14:05:863,0,-1.16475,0.769151,4.3661,Q,Q
2023-03-15 11:14:05:873,0,-1.13529,0.780856,4.32233,Q,Q
2023-03-15 11:14:05:883,0,-1.09003,0.797804,4.28197,Q,Q
2023-03-15 11:14:05:893,0,-1.03767,0.819768,4.2461,Q,Q
2023-03-15 11:14:05:903,0,-0.990952,0.830246,4.2122,Q,Q
2023-03-15 11:14:05:913,0,-0.951969,0.830291,4.17703,Q,Q
2023-03-15 11:14:05:923,0,-0.924504,0.823301,4.13987,Q,Q
2023-03-15 11:14:05:933,0,-0.908303,0.811165,4.10117,Q,Q
2023-03-15 11:14:05:943,0,-0.890653,0.787809,4.06353,Q,Q
2023-03-15 11:14:05:953,0,-0.862686,0.768759,4.02706,Q,Q
2023-03-15 11:14:05:963,0,-0.816521,0.753723,3.99479,Q,Q
2023-03-15 11:14:05:973,0,-0.759934,0.752638,3.96926,Q,Q
2023-03-15 11:14:05:983,0,-0.694197,0.752101,3.95147,Q,Q
2023-03-15 11:14:05:993,0,-0.624484,0.746588,3.95218,Q,Q
2023-03-15 11:14:06:3,0,-0.547665,0.730711,3.96606,Q,Q
2023-03-15 11:14:06:13,0,-0.471413,0.709868,3.98684,Q,Q
2023-03-15 11:14:06:23,0,-0.396019,0.685572,4.01339,Q,Q
2023-03-15 11:14:06:33,0,-0.326413,0.663589,4.04717,Q,Q
2023-03-15 11:14:06:43,0,-0.266785,0.646016,4.08056,Q,Q
2023-03-15 11:14:06:53,0,-0.216404,0.632377,4.11057,Q,Q
2023-03-15 11:14:06:63,0,-0.179563,0.625238,4.13425,Q,Q
2023-03-15 11:14:06:73,0,-0.154187,0.628057,4.15491,Q,Q
2023-03-15 11:14:06:83,0,-0.137604,0.636713,4.16522,Q,Q
2023-03-15 11:14:06:93,0,-0.127247,0.646638,4.16599,Q,Q
2023-03-15 11:14:06:103,0,-0.117887,0.649853,4.15424,Q,Q
2023-03-15 11:14:06:113,0,-0.113206,0.653291,4.12806,Q,Q
2023-03-15 11:14:06:123,0,-0.110488,0.660837,4.08647,Q,Q
2023-03-15 11:14:06:133,0,-0.111016,0.673264,4.02787,Q,Q
2023-03-15 11:14:06:143,0,-0.111416,0.690079,3.95394,Q,Q
2023-03-15 11:14:06:153,0,-0.115902,0.71684,3.86804,Q,Q
2023-03-15 11:14:06:163,0,-0.119225,0.747481,3.7775,Q,Q
2023-03-15 11:14:06:173,0,-0.121183,0.774722,3.68398,Q,Q
2023-03-15 11:14:06:183,0,-0.122658,0.808368,3.59265,Q,Q
2023-03-15 11:14:06:193,0,-0.119918,0.851848,3.5034,Q,Q
2023-03-15 11:14:06:203,0,-0.107097,0.888941,3.41077,Q,Q
2023-03-15 11:14:06:213,0,-0.094364,0.918711,3.31786,Q,Q
2023-03-15 11:14:06:223,0,-0.0802493,0.936813,3.22168,Q,Q
2023-03-15 11:14:06:233,0,-0.0681319,0.951392,3.12596,Q,Q
2023-03-15 11:14:06:243,0,-0.0536892,0.963991,3.02386,Q,Q
2023-03-15 11:14:06:253,0,-0.0300646,0.979842,2.924,Q,Q
2023-03-15 11:14:06:263,0,0.00285299,0.999796,2.82741,Q,Q
2023-03-15 11:14:06:273,0,0.0476919,1.02733,2.73246,Q,Q
2023-03-15 11:14:06:283,0,0.100693,1.05371,2.64232,Q,Q
2023-03-15 11:14:06:293,0,0.153107,1.08213,2.5552,Q,Q
2023-03-15 11:14:06:303,0,0.203138,1.11229,2.47473,Q,Q
2023-03-15 11:14:06:313,0,0.250855,1.13466,2.40257,Q,Q
2023-03-15 11:14:06:323,0,0.299572,1.1506,2.33712,Q,Q
2023-03-15 11:14:06:333,0,0.349525,1.15883,2.2757,Q,Q
2023-03-15 11:14:06:343,0,0.394248,1.16,2.21731,Q,Q
2023-03-15 11:14:06:353,0,0.427249,1.15562,2.1625,Q,Q
2023-03-15 11:14:06:363,0,0.447494,1.14538,2.11152,Q,Q
2023-03-15 11:14:06:373,0,0.45758,1.1364,2.06136,Q,Q
2023-03-15 11:14:06:383,0,0.459501,1.12632,2.01614,Q,Q
2023-03-15 11:14:06:393,0,0.457405,1.1175,1.96898,Q,Q
2023-03-15 11:14:06:403,0,0.457549,1.1106,1.91751,Q,Q
2023-03-15 11:14:06:413,0,0.459575,1.10257,1.86763,Q,Q
2023-03-15 11:14:06:423,0,0.463097,1.09299,1.81927,Q,Q
2023-03-15 11:14:06:433,0,0.467558,1.08385,1.76866,Q,Q
2023-03-15 11:14:06:443,0,0.466178,1.07635,1.72198,Q,Q
2023-03-15 11:14:06:453,0,0.470587,1.06487,1.67955,Q,Q
2023-03-15 11:14:06:463,0,0.477274,1.05824,1.63834,Q,Q
2023-03-15 11:14:06:473,0,0.486533,1.04908,1.60112,Q,Q
2023-03-15 11:14:06:483,0,0.496388,1.04447,1.55935,Q,Q
2023-03-15 11:14:06:493,0,0.504216,1.04299,1.52422,Q,Q
2023-03-15 11:14:06:503,0,0.507929,1.04411,1.49059,Q,Q
2023-03-15 11:14:06:513,0,0.509241,1.05252,1.45801,Q,Q
2023-03-15 11:14:06:523,0,0.510143,1.07274,1.42972,Q,Q
2023-03-15 11:14:06:533,0,0.517596,1.11098,1.40679,Q,Q
2023-03-15 11:14:06:543,0,0.530552,1.14457,1.3823,Q,Q
2023-03-15 11:14:06:553,0,0.541178,1.17126,1.35513,Q,Q
2023-03-15 11:14:06:563,0,0.546193,1.18959,1.32896,Q,Q
2023-03-15 11:14:06:573,0,0.5438,1.20863,1.30214,Q,Q
2023-03-15 11:14:06:583,0,0.545038,1.23931,1.27942,Q,Q
2023-03-15 11:14:06:593,0,0.557528,1.27607,1.25713,Q,Q
2023-03-15 11:14:06:603,0,0.57504,1.31237,1.23612,Q,Q
2023-03-15 11:14:06:613,0,0.598459,1.36202,1.22089,Q,Q
2023-03-15 11:14:06:623,0,0.631983,1.42945,1.22122,Q,Q
2023-03-15 11:14:06:633,0,0.681768,1.4857,1.22623,Q,Q
2023-03-15 11:14:06:643,0,0.730834,1.53133,1.2378,Q,Q
2023-03-15 11:14:06:653,0,0.775697,1.56783,1.25578,Q,Q
2023-03-15 11:14:06:663,0,0.814477,1.59569,1.27271,Q,Q
2023-03-15 11:14:06:673,0,0.842453,1.61525,1.29034,Q,Q
2023-03-15 11:14:06:683,0,0.867527,1.63031,1.30719,Q,Q
2023-03-15 11:14:06:693,0,0.887391,1.65051,1.31938,Q,Q
2023-03-15 11:14:06:703,0,0.911935,1.67342,1.33454,Q,Q
2023-03-15 11:14:06:713,0,0.935832,1.70157,1.34641,Q,Q
2023-03-15 11:14:06:723,0,0.963655,1.75065,1.36174,Q,Q
2023-03-15 11:14:06:733,0,0.999915,1.79721,1.37368,Q,Q
2023-03-15 11:14:06:743,0,1.04049,1.83483,1.38136,Q,Q
2023-03-15 11:14:06:753,0,1.07203,1.86702,1.38858,Q,Q
2023-03-15 11:14:06:763,0,1.09283,1.89314,1.39086,Q,Q
2023-03-15 11:14:06:773,0,1.10494,1.91427,1.39173,Q,Q
2023-03-15 11:14:06:783,0,1.11634,1.9363,1.39748,Q,Q
2023-03-15 11:14:06:793,0,1.13257,1.9538,1.40519,Q,Q
2023-03-15 11:14:06:803,0,1.14868,1.95917,1.41606,Q,Q
2023-03-15 11:14:06:813,0,1.16246,1.96564,1.42766,Q,Q
2023-03-15 11:14:06:823,0,1.17096,1.96869,1.44521,Q,Q
2023-03-15 11:14:06:833,0,1.17416,1.97537,1.46453,Q,Q
2023-03-15 11:14:06:843,0,1.17306,1.98299,1.48154,Q,Q
2023-03-15 11:14:06:853,0,1.16762,1.99149,1.49521,Q,Q
2023-03-15 11:14:06:863,0,1.16293,2.01066,1.50834,Q,Q
2023-03-15 11:14:06:873,0,1.15908,2.01986,1.51848,Q,Q
2023-03-15 11:14:06:883,0,1.14941,2.01469,1.5274,Q,Q
2023-03-15 11:14:06:893,0,1.14088,2.01324,1.53631,Q,Q
2023-03-15 11:14:06:903,0,1.13491,2.0102,1.53902,Q,Q
2023-03-15 11:14:06:913,0,1.13223,2.00188,1.53899,Q,Q
2023-03-15 11:14:06:923,0,1.13471,1.99023,1.53753,Q,Q
2023-03-15 11:14:06:933,0,1.14421,1.97621,1.53403,Q,Q
2023-03-15 11:14:06:943,0,1.15019,1.95914,1.5308,Q,Q
2023-03-15 11:14:06:953,0,1.15677,1.94118,1.52351,Q,Q
2023-03-15 11:14:06:963,0,1.162,1.9219,1.51961,Q,Q
2023-03-15 11:14:06:973,0,1.16813,1.89883,1.51732,Q,Q
2023-03-15 11:14:06:983,0,1.17526,1.87563,1.51598,Q,Q
2023-03-15 11:14:06:993,0,1.18484,1.85212,1.51824,Q,Q
2023-03-15 11:14:07:3,0,1.18966,1.82731,1.51904,Q,Q
2023-03-15 11:14:07:12,0,1.19463,1.7998,1.51927,Q,Q
2023-03-15 11:14:07:23,0,1.19541,1.77549,1.51922,Q,Q
2023-03-15 11:14:07:33,0,1.19113,1.75127,1.51831,Q,Q
2023-03-15 11:14:07:43,0,1.18108,1.72889,1.51529,Q,Q
2023-03-15 11:14:07:53,0,1.16806,1.70439,1.51149,Q,Q
2023-03-15 11:14:07:62,0,1.1483,1.68061,1.50721,Q,Q
2023-03-15 11:14:07:72,0,1.1274,1.66004,1.50324,Q,Q
2023-03-15 11:14:07:83,0,1.10845,1.64047,1.49484,Q,Q
2023-03-15 11:14:07:93,0,1.08467,1.62543,1.48344,Q,Q
2023-03-15 11:14:07:103,0,1.06339,1.60965,1.47327,Q,Q
2023-03-15 11:14:07:113,0,1.04147,1.59872,1.45723,Q,Q
2023-03-15 11:14:07:123,0,1.02561,1.59188,1.44089,Q,Q
2023-03-15 11:14:07:133,0,1.00965,1.58298,1.42865,Q,Q
2023-03-15 11:14:07:143,0,0.993911,1.57074,1.42275,Q,Q
2023-03-15 11:14:07:153,0,0.977911,1.55925,1.42307,Q,Q
2023-03-15 11:14:07:163,0,0.960429,1.55196,1.42602,Q,Q
2023-03-15 11:14:07:173,0,0.933589,1.55554,1.43171,Q,Q
2023-03-15 11:14:07:183,0,0.90275,1.57397,1.44324,Q,Q
2023-03-15 11:14:07:193,0,0.867431,1.60409,1.46133,Q,Q
2023-03-15 11:14:07:203,0,0.818855,1.63867,1.48532,Q,Q
2023-03-15 11:14:07:213,0,0.753786,1.67811,1.51168,Q,Q
2023-03-15 11:14:07:223,0,0.677049,1.72027,1.54335,Q,Q
2023-03-15 11:14:07:232,0,0.597295,1.75591,1.58164,Q,Q
2023-03-15 11:14:07:242,0,0.518874,1.77904,1.61915,Q,Q
2023-03-15 11:14:07:253,0,0.45077,1.79736,1.65708,Q,Q
2023-03-15 11:14:07:263,0,0.389219,1.816,1.69316,Q,Q
2023-03-15 11:14:07:273,0,0.33637,1.83785,1.73054,Q,Q
2023-03-15 11:14:07:283,0,0.289094,1.85955,1.76551,Q,Q
2023-03-15 11:14:07:293,0,0.23999,1.87771,1.79678,Q,Q
2023-03-15 11:14:07:302,0,0.196928,1.89202,1.82558,Q,Q
2023-03-15 11:14:07:313,0,0.154653,1.89952,1.85131,Q,Q
2023-03-15 11:14:07:323,0,0.109767,1.89766,1.87398,Q,Q
2023-03-15 11:14:07:333,0,0.0636295,1.88868,1.89084,Q,Q
2023-03-15 11:14:07:343,0,0.0263046,1.87646,1.9046,Q,Q
2023-03-15 11:14:07:353,0,-0.011139,1.86609,1.91426,Q,Q
2023-03-15 11:14:07:363,0,-0.0462527,1.85633,1.91803,Q,Q
2023-03-15 11:14:07:373,0,-0.0774873,1.84827,1.91985,Q,Q
2023-03-15 11:14:07:383,0,-0.108303,1.83963,1.91849,Q,Q
2023-03-15 11:14:07:393,0,-0.138429,1.82983,1.91734,Q,Q
2023-03-15 11:14:07:402,0,-0.165787,1.81703,1.91477,Q,Q
2023-03-15 11:14:07:412,0,-0.196497,1.80819,1.91602,Q,Q
2023-03-15 11:14:07:423,0,-0.221718,1.79434,1.91899,Q,Q
2023-03-15 11:14:07:433,0,-0.246627,1.78307,1.92266,Q,Q
2023-03-15 11:14:07:443,0,-0.270945,1.76759,1.92606,Q,Q
2023-03-15 11:14:07:453,0,-0.293675,1.75306,1.92852,Q,Q
2023-03-15 11:14:07:463,0,-0.318752,1.73778,1.93044,Q,Q
2023-03-15 11:14:07:473,0,-0.338821,1.72575,1.93554,Q,Q
2023-03-15 11:14:07:482,0,-0.364973,1.71462,1.94328,Q,Q
2023-03-15 11:14:07:493,0,-0.393765,1.70932,1.94722,Q,Q
2023-03-15 11:14:07:503,0,-0.423592,1.70052,1.95412,Q,Q
2023-03-15 11:14:07:513,0,-0.455102,1.68914,1.96049,Q,Q
2023-03-15 11:14:07:523,0,-0.488584,1.67856,1.9691,Q,Q
2023-03-15 11:14:07:532,0,-0.517414,1.66857,1.98072,Q,Q
2023-03-15 11:14:07:543,0,-0.54458,1.66102,1.99179,Q,Q
2023-03-15 11:14:07:552,0,-0.567281,1.65326,2.00769,Q,Q
2023-03-15 11:14:07:562,0,-0.585324,1.64778,2.02312,Q,Q
2023-03-15 11:14:07:572,0,-0.600577,1.64501,2.03855,Q,Q
2023-03-15 11:14:07:582,0,-0.618663,1.64211,2.05424,Q,Q
2023-03-15 11:14:07:592,0,-0.634435,1.63655,2.07046,Q,Q
2023-03-15 11:14:07:602,0,-0.649844,1.63513,2.09177,Q,Q
2023-03-15 11:14:07:612,0,-0.665661,1.63108,2.11295,Q,Q
2023-03-15 11:14:07:622,0,-0.67738,1.63277,2.1357,Q,Q
2023-03-15 11:14:07:632,0,-0.692688,1.63454,2.15853,Q,Q
2023-03-15 11:14:07:643,0,-0.707864,1.64273,2.1744,Q,Q
2023-03-15 11:14:07:652,0,-0.714109,1.6523,2.18746,Q,Q
2023-03-15 11:14:07:663,0,-0.727537,1.66314,2.19701,Q,Q
2023-03-15 11:14:07:672,0,-0.742453,1.67328,2.20612,Q,Q
2023-03-15 11:14:07:683,0,-0.759365,1.68227,2.21908,Q,Q
2023-03-15 11:14:07:692,0,-0.775483,1.69351,2.22764,Q,Q
2023-03-15 11:14:07:702,0,-0.792055,1.70228,2.23295,Q,Q
2023-03-15 11:14:07:712,0,-0.806828,1.71056,2.2318,Q,Q
2023-03-15 11:14:07:722,0,-0.824547,1.72001,2.23142,Q,Q
2023-03-15 11:14:07:732,0,-0.840107,1.72581,2.23381,Q,Q
2023-03-15 11:14:07:742,0,-0.856658,1.72783,2.23051,Q,Q
2023-03-15 11:14:07:752,0,-0.881441,1.7266,2.22529,Q,Q
2023-03-15 11:14:07:762,0,-0.912388,1.72787,2.21424,Q,Q
2023-03-15 11:14:07:772,0,-0.939485,1.72949,2.20233,Q,Q
2023-03-15 11:14:07:782,0,-0.963743,1.73767,2.18838,Q,Q
2023-03-15 11:14:07:792,0,-0.984003,1.75189,2.17265,Q,Q
2023-03-15 11:14:07:802,0,-1.00154,1.76218,2.16016,Q,Q
2023-03-15 11:14:07:812,0,-1.01846,1.77124,2.14438,Q,Q
2023-03-15 11:14:07:822,0,-1.03073,1.77772,2.13124,Q,Q
2023-03-15 11:14:07:832,0,-1.03904,1.7827,2.11921,Q,Q
2023-03-15 11:14:07:842,0,-1.04718,1.78755,2.11207,Q,Q
2023-03-15 11:14:07:852,0,-1.05345,1.78806,2.10666,Q,Q
2023-03-15 11:14:07:862,0,-1.06004,1.79237,2.10066,Q,Q
2023-03-15 11:14:07:872,0,-1.06793,1.79486,2.09204,Q,Q
2023-03-15 11:14:07:882,0,-1.07652,1.79071,2.08643,Q,Q
2023-03-15 11:14:07:892,0,-1.08163,1.79134,2.07752,Q,Q
2023-03-15 11:14:07:902,0,-1.08418,1.79053,2.07095,Q,Q
2023-03-15 11:14:07:912,0,-1.08281,1.78569,2.06459,Q,Q
2023-03-15 11:14:07:922,0,-1.07785,1.77982,2.05525,Q,Q
2023-03-15 11:14:07:932,0,-1.07067,1.7745,2.04742,Q,Q
2023-03-15 11:14:07:942,0,-1.06743,1.77124,2.03887,Q,Q
2023-03-15 11:14:07:952,0,-1.06324,1.76831,2.03149,Q,Q
2023-03-15 11:14:07:962,0,-1.06047,1.76959,2.02481,Q,Q
2023-03-15 11:14:07:972,0,-1.06304,1.76756,2.02054,Q,Q
2023-03-15 11:14:07:982,0,-1.06891,1.76863,2.01381,Q,Q
2023-03-15 11:14:07:992,0,-1.07343,1.7665,2.00762,Q,Q
2023-03-15 11:14:08:2,0,-1.07354,1.76796,2.00488,Q,Q
2023-03-15 11:14:08:12,0,-1.06827,1.77121,2.00098,Q,Q
2023-03-15 11:14:08:22,0,-1.06642,1.77554,2.00029,Q,Q
2023-03-15 11:14:08:32,0,-1.05762,1.76974,2.00294,Q,Q
2023-03-15 11:14:08:42,0,-1.04687,1.76864,2.00893,Q,Q
2023-03-15 11:14:08:52,0,-1.03808,1.77043,2.01699,Q,Q
2023-03-15 11:14:08:62,0,-1.03094,1.77085,2.03058,Q,Q
2023-03-15 11:14:08:72,0,-1.02912,1.77671,2.04182,Q,Q
2023-03-15 11:14:08:82,0,-1.02943,1.77982,2.05291,Q,Q
2023-03-15 11:14:08:92,0,-1.03262,1.78911,2.06398,Q,Q
2023-03-15 11:14:08:102,0,-1.04164,1.79699,2.07185,Q,Q
2023-03-15 11:14:08:112,0,-1.05415,1.80757,2.07455,Q,Q
2023-03-15 11:14:08:122,0,-1.06912,1.82021,2.07571,Q,Q
2023-03-15 11:14:08:132,0,-1.08212,1.833,2.08242,Q,Q
2023-03-15 11:14:08:142,0,-1.08675,1.83918,2.091,Q,Q
2023-03-15 11:14:08:152,0,-1.09704,1.84333,2.10029,Q,Q
2023-03-15 11:14:08:162,0,-1.10812,1.84165,2.11213,Q,Q
2023-03-15 11:14:08:172,0,-1.11883,1.84075,2.12395,Q,Q
2023-03-15 11:14:08:182,0,-1.13664,1.8416,2.1261,Q,Q
2023-03-15 11:14:08:192,0,-1.15556,1.84225,2.12693,Q,Q
2023-03-15 11:14:08:202,0,-1.17409,1.84222,2.12306,Q,Q
2023-03-15 11:14:08:212,0,-1.18948,1.84366,2.11936,Q,Q
2023-03-15 11:14:08:222,0,-1.20166,1.8424,2.11545,Q,Q
2023-03-15 11:14:08:232,0,-1.21102,1.84282,2.11335,Q,Q
2023-03-15 11:14:08:242,0,-1.22306,1.83689,2.1126,Q,Q
2023-03-15 11:14:08:252,0,-1.24437,1.82056,2.10339,Q,Q
2023-03-15 11:14:08:262,0,-1.27263,1.8095,2.09395,Q,Q
2023-03-15 11:14:08:272,0,-1.29813,1.80634,2.08324,Q,Q
2023-03-15 11:14:08:282,0,-1.32248,1.80393,2.06765,Q,Q
2023-03-15 11:14:08:292,0,-1.34097,1.80383,2.05063,Q,Q
2023-03-15 11:14:08:302,0,-1.35249,1.80192,2.02963,Q,Q
2023-03-15 11:14:08:312,0,-1.36452,1.79403,2.01004,Q,Q
2023-03-15 11:14:08:322,0,-1.37516,1.78539,1.99251,Q,Q
2023-03-15 11:14:08:332,0,-1.38637,1.77826,1.97389,Q,Q
2023-03-15 11:14:08:342,0,-1.39889,1.77355,1.95511,Q,Q
2023-03-15 11:14:08:352,0,-1.41618,1.76162,1.93317,Q,Q
2023-03-15 11:14:08:362,0,-1.44123,1.74618,1.91389,Q,Q
2023-03-15 11:14:08:372,0,-1.47015,1.73377,1.90011,Q,Q
2023-03-15 11:14:08:382,0,-1.49736,1.7304,1.88188,Q,Q
2023-03-15 11:14:08:392,0,-1.51736,1.73368,1.86878,Q,Q
2023-03-15 11:14:08:402,0,-1.53394,1.73925,1.8548,Q,Q
2023-03-15 11:14:08:412,0,-1.54126,1.73867,1.84572,Q,Q
2023-03-15 11:14:08:422,0,-1.54867,1.73903,1.83891,Q,Q
2023-03-15 11:14:08:432,0,-1.55689,1.74424,1.83411,Q,Q
2023-03-15 11:14:08:442,0,-1.56753,1.74863,1.82927,Q,Q
2023-03-15 11:14:08:452,0,-1.57914,1.75065,1.81947,Q,Q
2023-03-15 11:14:08:462,0,-1.59207,1.75342,1.81185,Q,Q
2023-03-15 11:14:08:472,0,-1.60869,1.75416,1.8058,Q,Q
2023-03-15 11:14:08:482,0,-1.62673,1.75862,1.80105,Q,Q
2023-03-15 11:14:08:492,0,-1.63903,1.76746,1.7956,Q,Q
2023-03-15 11:14:08:502,0,-1.64653,1.77445,1.79298,Q,Q
2023-03-15 11:14:08:512,0,-1.64898,1.77455,1.79421,Q,Q
2023-03-15 11:14:08:522,0,-1.65525,1.7695,1.79492,Q,Q
2023-03-15 11:14:08:532,0,-1.66474,1.76126,1.79873,Q,Q
2023-03-15 11:14:08:542,0,-1.6777,1.74992,1.79573,Q,Q
2023-03-15 11:14:08:552,0,-1.69085,1.73091,1.78672,Q,Q
2023-03-15 11:14:08:562,0,-1.70545,1.69826,1.77286,Q,Q
2023-03-15 11:14:08:572,0,-1.71676,1.66212,1.75652,Q,Q
2023-03-15 11:14:08:582,0,-1.73331,1.62373,1.73715,Q,Q
2023-03-15 11:14:08:592,0,-1.74695,1.58076,1.71497,Q,Q
2023-03-15 11:14:08:602,0,-1.75488,1.53262,1.69613,Q,Q
2023-03-15 11:14:08:612,0,-1.76057,1.48399,1.67692,Q,Q
2023-03-15 11:14:08:622,0,-1.77041,1.42427,1.65757,Q,Q
2023-03-15 11:14:08:632,0,-1.7825,1.35833,1.64135,Q,Q
2023-03-15 11:14:08:642,0,-1.7967,1.29474,1.62228,Q,Q
2023-03-15 11:14:08:652,0,-1.80151,1.23163,1.6008,Q,Q
2023-03-15 11:14:08:662,0,-1.8021,1.17121,1.57543,Q,Q
2023-03-15 11:14:08:672,0,-1.79603,1.11941,1.55252,Q,Q
2023-03-15 11:14:08:682,0,-1.78925,1.07401,1.53021,Q,Q
2023-03-15 11:14:08:692,0,-1.78577,1.03012,1.51334,Q,Q
2023-03-15 11:14:08:702,0,-1.79092,0.989757,1.50026,Q,Q
2023-03-15 11:14:08:712,0,-1.80382,0.953089,1.48489,Q,Q
2023-03-15 11:14:08:722,0,-1.82951,0.923711,1.46669,Q,Q
2023-03-15 11:14:08:732,0,-1.86699,0.894661,1.44905,Q,Q
2023-03-15 11:14:08:742,0,-1.9134,0.871759,1.43031,Q,Q
2023-03-15 11:14:08:752,0,-1.96604,0.857858,1.40912,Q,Q
2023-03-15 11:14:08:762,0,-2.02362,0.847049,1.39076,Q,Q
2023-03-15 11:14:08:772,0,-2.06917,0.840075,1.36717,Q,Q
2023-03-15 11:14:08:782,0,-2.1096,0.838976,1.34195,Q,Q
2023-03-15 11:14:08:792,0,-2.1453,0.845108,1.32257,Q,Q
2023-03-15 11:14:08:802,0,-2.17652,0.853922,1.30329,Q,Q
2023-03-15 11:14:08:812,0,-2.20225,0.867851,1.29243,Q,Q
2023-03-15 11:14:08:822,0,-2.22276,0.88097,1.28528,Q,Q
2023-03-15 11:14:08:832,0,-2.2485,0.885976,1.27619,Q,Q
2023-03-15 11:14:08:842,0,-2.27533,0.898443,1.26732,Q,Q
2023-03-15 11:14:08:852,0,-2.29918,0.912641,1.26331,Q,Q
2023-03-15 11:14:08:862,0,-2.32185,0.929122,1.26251,Q,Q
2023-03-15 11:14:08:872,0,-2.33663,0.952173,1.26408,Q,Q
2023-03-15 11:14:08:882,0,-2.34972,0.9692,1.26752,Q,Q
2023-03-15 11:14:08:892,0,-2.36786,0.983501,1.27497,Q,Q
2023-03-15 11:14:08:902,0,-2.38723,0.998642,1.28006,Q,Q
2023-03-15 11:14:08:912,0,-2.40944,1.01567,1.28385,Q,Q
2023-03-15 11:14:08:922,0,-2.43716,1.03289,1.29275,Q,Q
2023-03-15 11:14:08:932,0,-2.46772,1.04969,1.29978,Q,Q
2023-03-15 11:14:08:942,0,-2.50449,1.06502,1.30735,Q,Q
2023-03-15 11:14:08:952,0,-2.5463,1.07191,1.31359,Q,Q
2023-03-15 11:14:08:962,0,-2.5891,1.07187,1.31432,Q,Q
2023-03-15 11:14:08:972,0,-2.64068,1.07501,1.31399,Q,Q
2023-03-15 11:14:08:982,0,-2.68897,1.08356,1.30656,Q,Q
2023-03-15 11:14:08:992,0,-2.72823,1.09337,1.29886,Q,Q
2023-03-15 11:14:09:2,0,-2.7587,1.10108,1.29125,Q,Q
2023-03-15 11:14:09:12,0,-2.79,1.10764,1.28224,Q,Q
2023-03-15 11:14:09:22,0,-2.82146,1.11191,1.27323,Q,Q
2023-03-15 11:14:09:32,0,-2.85018,1.1109,1.26128,Q,Q
2023-03-15 11:14:09:42,0,-2.87924,1.10074,1.25066,Q,Q
2023-03-15 11:14:09:52,0,-2.91281,1.10275,1.24158,Q,Q
2023-03-15 11:14:09:62,0,-2.95088,1.10578,1.22798,Q,Q
2023-03-15 11:14:09:72,0,-2.98818,1.10322,1.21348,Q,Q
2023-03-15 11:14:09:82,0,-3.02016,1.09957,1.20388,Q,Q
2023-03-15 11:14:09:92,0,-3.05008,1.09485,1.2,Q,Q
2023-03-15 11:14:09:102,0,-3.08272,1.08943,1.20069,Q,Q
2023-03-15 11:14:09:111,0,-3.10919,1.09095,1.20542,Q,Q
2023-03-15 11:14:09:121,0,-3.13776,1.0956,1.21389,Q,Q
2023-03-15 11:14:09:131,0,-3.16088,1.0994,1.21935,Q,Q
2023-03-15 11:14:09:142,0,-3.18427,1.10549,1.22502,Q,Q
2023-03-15 11:14:09:152,0,-3.20478,1.10528,1.23248,Q,Q
2023-03-15 11:14:09:162,0,-3.22452,1.10255,1.2453,Q,Q
2023-03-15 11:14:09:172,0,-3.24521,1.09367,1.25899,Q,Q
2023-03-15 11:14:09:182,0,-3.26601,1.084,1.27315,Q,Q
2023-03-15 11:14:09:192,0,-3.28599,1.07255,1.28162,Q,Q
2023-03-15 11:14:09:202,0,-3.30424,1.0585,1.28806,Q,Q
2023-03-15 11:14:09:212,0,-3.32419,1.04478,1.29005,Q,Q
2023-03-15 11:14:09:222,0,-3.34317,1.03368,1.28784,Q,Q
2023-03-15 11:14:09:232,0,-3.35689,1.02538,1.28558,Q,Q
2023-03-15 11:14:09:242,0,-3.35754,1.01394,1.28196,Q,Q
2023-03-15 11:14:09:252,0,-3.34619,1.00195,1.27399,Q,Q
2023-03-15 11:14:09:262,0,-3.32998,0.988311,1.26489,Q,Q
2023-03-15 11:14:09:272,0,-3.31622,0.972869,1.24995,Q,Q
2023-03-15 11:14:09:282,0,-3.3066,0.958472,1.2329,Q,Q
2023-03-15 11:14:09:292,0,-3.29954,0.949753,1.21702,Q,Q
2023-03-15 11:14:09:302,0,-3.30085,0.942667,1.20405,Q,Q
2023-03-15 11:14:09:312,0,-3.31576,0.929665,1.19224,Q,Q
2023-03-15 11:14:09:322,0,-3.3435,0.914317,1.17952,Q,Q
2023-03-15 11:14:09:332,0,-3.36823,0.892884,1.16034,Q,Q
2023-03-15 11:14:09:341,0,-3.37076,0.857247,1.14176,Q,Q
2023-03-15 11:14:09:352,0,-3.36218,0.819015,1.13127,Q,Q
2023-03-15 11:14:09:362,0,-3.35998,0.78554,1.12562,Q,Q
2023-03-15 11:14:09:372,0,-3.38281,0.755155,1.11459,Q,Q
2023-03-15 11:14:09:382,0,-3.41618,0.720932,1.09241,Q,Q
2023-03-15 11:14:09:392,0,-3.44783,0.6796,1.06401,Q,Q
2023-03-15 11:14:09:402,0,-3.47179,0.623794,1.03336,Q,Q
2023-03-15 11:14:09:412,0,-3.49167,0.564371,0.998945,Q,Q
2023-03-15 11:14:09:422,0,-3.51197,0.514528,0.958083,Q,Q
2023-03-15 11:14:09:432,0,-3.53723,0.467543,0.914306,Q,Q
2023-03-15 11:14:09:442,0,-3.56512,0.418911,0.861746,Q,Q
2023-03-15 11:14:09:451,0,-3.60225,0.367981,0.806219,Q,Q
2023-03-15 11:14:09:462,0,-3.64238,0.306746,0.746254,Q,Q
2023-03-15 11:14:09:472,0,-3.68439,0.238465,0.68659,Q,Q
2023-03-15 11:14:09:482,0,-3.72309,0.173917,0.625624,Q,Q
2023-03-15 11:14:09:492,0,-3.75678,0.121122,0.565613,Q,Q
2023-03-15 11:14:09:501,0,-3.78229,0.0749404,0.513894,Q,Q
2023-03-15 11:14:09:512,0,-3.80593,0.0283204,0.466152,Q,Q
2023-03-15 11:14:09:522,0,-3.83276,-0.0174327,0.419095,Q,Q
2023-03-15 11:14:09:532,0,-3.86491,-0.0673764,0.372304,Q,Q
2023-03-15 11:14:09:542,0,-3.90773,-0.119358,0.330669,Q,Q
2023-03-15 11:14:09:552,0,-3.95032,-0.166631,0.295425,Q,Q
2023-03-15 11:14:09:561,0,-4.00075,-0.210086,0.265244,Q,Q
2023-03-15 11:14:09:572,0,-4.04917,-0.250816,0.235166,Q,Q
2023-03-15 11:14:09:581,0,-4.0886,-0.288987,0.212842,Q,Q
2023-03-15 11:14:09:592,0,-4.12699,-0.329215,0.199854,Q,Q
2023-03-15 11:14:09:601,0,-4.16531,-0.36923,0.185864,Q,Q
2023-03-15 11:14:09:611,0,-4.2065,-0.405985,0.177472,Q,Q
2023-03-15 11:14:09:621,0,-4.24953,-0.442058,0.180213,Q,Q
2023-03-15 11:14:09:631,0,-4.29532,-0.483558,0.187215,Q,Q
2023-03-15 11:14:09:641,0,-4.34131,-0.530679,0.199636,Q,Q
2023-03-15 11:14:09:651,0,-4.38834,-0.58188,0.211537,Q,Q
2023-03-15 11:14:09:661,0,-4.42956,-0.636041,0.227033,Q,Q
2023-03-15 11:14:09:672,0,-4.46109,-0.69209,0.243599,Q,Q
2023-03-15 11:14:09:681,0,-4.47816,-0.749929,0.258683,Q,Q
2023-03-15 11:14:09:691,0,-4.48679,-0.807228,0.273272,Q,Q
2023-03-15 11:14:09:701,0,-4.49441,-0.864326,0.287882,Q,Q
2023-03-15 11:14:09:711,0,-4.49526,-0.915842,0.300936,Q,Q
2023-03-15 11:14:09:721,0,-4.49714,-0.969635,0.314728,Q,Q
2023-03-15 11:14:09:731,0,-4.50076,-1.02214,0.324073,Q,Q
2023-03-15 11:14:09:741,0,-4.50146,-1.0756,0.330273,Q,Q
2023-03-15 11:14:09:751,0,-4.49855,-1.12915,0.339903,Q,Q
2023-03-15 11:14:09:761,0,-4.48719,-1.17591,0.351245,Q,Q
2023-03-15 11:14:09:771,0,-4.47207,-1.2254,0.361884,Q,Q
2023-03-15 11:14:09:781,0,-4.44284,-1.27483,0.377991,Q,Q
2023-03-15 11:14:09:791,0,-4.41098,-1.31724,0.393905,Q,Q
2023-03-15 11:14:09:801,0,-4.37966,-1.36116,0.409174,Q,Q
2023-03-15 11:14:09:811,0,-4.35273,-1.40243,0.429234,Q,Q
2023-03-15 11:14:09:821,0,-4.33742,-1.43566,0.448693,Q,Q
2023-03-15 11:14:09:831,0,-4.33052,-1.46947,0.464688,Q,Q
2023-03-15 11:14:09:841,0,-4.34022,-1.50568,0.482761,Q,Q
2023-03-15 11:14:09:851,0,-4.35577,-1.54361,0.494782,Q,Q
2023-03-15 11:14:09:861,0,-4.36689,-1.57331,0.503973,Q,Q
2023-03-15 11:14:09:871,0,-4.37896,-1.60047,0.513625,Q,Q
2023-03-15 11:14:09:881,0,-4.38133,-1.62633,0.516761,Q,Q
2023-03-15 11:14:09:891,0,-4.38193,-1.6468,0.52268,Q,Q
2023-03-15 11:14:09:901,0,-4.37625,-1.66033,0.52884,Q,Q
2023-03-15 11:14:09:911,0,-4.37243,-1.67924,0.529735,Q,Q
2023-03-15 11:14:09:921,0,-4.36904,-1.69536,0.530184,Q,Q
2023-03-15 11:14:09:931,0,-4.36675,-1.71176,0.52771,Q,Q
2023-03-15 11:14:09:941,0,-4.367,-1.72974,0.522633,Q,Q
2023-03-15 11:14:09:951,0,-4.3721,-1.74573,0.518055,Q,Q
2023-03-15 11:14:09:961,0,-4.37568,-1.75819,0.513482,Q,Q
2023-03-15 11:14:09:971,0,-4.38013,-1.76542,0.504081,Q,Q
2023-03-15 11:14:09:981,0,-4.38621,-1.76573,0.494118,Q,Q
2023-03-15 11:14:09:991,0,-4.39416,-1.77052,0.490676,Q,Q
2023-03-15 11:14:10:1,0,-4.39909,-1.77812,0.485025,Q,Q
2023-03-15 11:14:10:11,0,-4.40724,-1.78392,0.482394,Q,Q
2023-03-15 11:14:10:21,0,-4.41436,-1.791,0.479458,Q,Q
2023-03-15 11:14:10:31,0,-4.42133,-1.79572,0.473628,Q,Q
2023-03-15 11:14:10:41,0,-4.42522,-1.80242,0.468247,Q,Q
2023-03-15 11:14:10:51,0,-4.4237,-1.81334,0.461119,Q,Q
2023-03-15 11:14:10:61,0,-4.4232,-1.83056,0.452959,Q,Q
2023-03-15 11:14:10:71,0,-4.41979,-1.83877,0.439714,Q,Q
2023-03-15 11:14:10:81,0,-4.41501,-1.84032,0.425935,Q,Q
2023-03-15 11:14:10:91,0,-4.41056,-1.84111,0.417342,Q,Q
2023-03-15 11:14:10:101,0,-4.41124,-1.84241,0.401392,Q,Q
2023-03-15 11:14:10:111,0,-4.4195,-1.84261,0.387703,Q,Q
2023-03-15 11:14:10:121,0,-4.42841,-1.83916,0.374372,Q,Q
2023-03-15 11:14:10:131,0,-4.44151,-1.83321,0.360163,Q,Q
2023-03-15 11:14:10:141,0,-4.45337,-1.82911,0.342729,Q,Q
2023-03-15 11:14:10:151,0,-4.46353,-1.82388,0.326135,Q,Q
2023-03-15 11:14:10:161,0,-4.47043,-1.82127,0.307296,Q,Q
2023-03-15 11:14:10:171,0,-4.47734,-1.82805,0.295314,Q,Q
2023-03-15 11:14:10:181,0,-4.49071,-1.82728,0.282258,Q,Q
2023-03-15 11:14:10:191,0,-4.50177,-1.81998,0.265287,Q,Q
2023-03-15 11:14:10:201,0,-4.51113,-1.8086,0.252793,Q,Q
2023-03-15 11:14:10:211,0,-4.51897,-1.80058,0.241595,Q,Q
2023-03-15 11:14:10:221,0,-4.53489,-1.7928,0.229234,Q,Q
2023-03-15 11:14:10:231,0,-4.55138,-1.78276,0.218911,Q,Q
2023-03-15 11:14:10:241,0,-4.57016,-1.77364,0.200922,Q,Q
2023-03-15 11:14:10:251,0,-4.58269,-1.76435,0.186731,Q,Q
2023-03-15 11:14:10:261,0,-4.58832,-1.75479,0.17392,Q,Q
2023-03-15 11:14:10:271,0,-4.58949,-1.75323,0.163895,Q,Q
2023-03-15 11:14:10:281,0,-4.58164,-1.7559,0.149912,Q,Q
2023-03-15 11:14:10:291,0,-4.56281,-1.76248,0.139897,Q,Q
2023-03-15 11:14:10:301,0,-4.53676,-1.77498,0.130617,Q,Q
2023-03-15 11:14:10:311,0,-4.50428,-1.78793,0.124987,Q,Q
2023-03-15 11:14:10:321,0,-4.47237,-1.79724,0.115721,Q,Q
2023-03-15 11:14:10:331,0,-4.43975,-1.80429,0.106108,Q,Q
2023-03-15 11:14:10:341,0,-4.40787,-1.81307,0.097173,Q,Q
2023-03-15 11:14:10:351,0,-4.37851,-1.82449,0.0910256,Q,Q
2023-03-15 11:14:10:361,0,-4.35094,-1.83482,0.0858491,Q,Q
2023-03-15 11:14:10:371,0,-4.32149,-1.84412,0.0793545,Q,Q
2023-03-15 11:14:10:381,0,-4.29833,-1.84977,0.07781,Q,Q
2023-03-15 11:14:10:391,0,-4.27241,-1.85422,0.0787564,Q,Q
2023-03-15 11:14:10:401,0,-4.25279,-1.85891,0.0792322,Q,Q
2023-03-15 11:14:10:411,0,-4.23582,-1.86737,0.0826813,Q,Q
2023-03-15 11:14:10:421,0,-4.21521,-1.87801,0.0880898,Q,Q
2023-03-15 11:14:10:431,0,-4.1976,-1.88892,0.0990162,Q,Q
2023-03-15 11:14:10:441,0,-4.17709,-1.89638,0.109967,Q,Q
2023-03-15 11:14:10:451,0,-4.15634,-1.89803,0.126802,Q,Q
2023-03-15 11:14:10:461,0,-4.13653,-1.90057,0.147028,Q,Q
2023-03-15 11:14:10:471,0,-4.11638,-1.90359,0.170059,Q,Q
2023-03-15 11:14:10:481,0,-4.09869,-1.90443,0.196213,Q,Q
2023-03-15 11:14:10:491,0,-4.08464,-1.89987,0.223453,Q,Q
2023-03-15 11:14:10:501,0,-4.07575,-1.89454,0.253347,Q,Q
2023-03-15 11:14:10:511,0,-4.06817,-1.88472,0.28678,Q,Q
2023-03-15 11:14:10:521,0,-4.06388,-1.87415,0.321052,Q,Q
2023-03-15 11:14:10:531,0,-4.05984,-1.86617,0.354359,Q,Q
2023-03-15 11:14:10:541,0,-4.05702,-1.85851,0.386383,Q,Q
2023-03-15 11:14:10:551,0,-4.05866,-1.84946,0.416651,Q,Q
2023-03-15 11:14:10:561,0,-4.05784,-1.84162,0.446644,Q,Q
2023-03-15 11:14:10:571,0,-4.05566,-1.83512,0.474801,Q,Q
2023-03-15 11:14:10:581,0,-4.0545,-1.82799,0.504322,Q,Q
2023-03-15 11:14:10:591,0,-4.05615,-1.82385,0.530449,Q,Q
2023-03-15 11:14:10:601,0,-4.0634,-1.81601,0.552711,Q,Q
2023-03-15 11:14:10:611,0,-4.06886,-1.81186,0.573286,Q,Q
2023-03-15 11:14:10:621,0,-4.07206,-1.80498,0.593591,Q,Q
2023-03-15 11:14:10:631,0,-4.0849,-1.79592,0.612362,Q,Q
2023-03-15 11:14:10:641,0,-4.10571,-1.7852,0.62668,Q,Q
2023-03-15 11:14:10:651,0,-4.12393,-1.77412,0.633555,Q,Q
2023-03-15 11:14:10:661,0,-4.13802,-1.7593,0.640368,Q,Q
2023-03-15 11:14:10:671,0,-4.15048,-1.7482,0.642915,Q,Q
2023-03-15 11:14:10:681,0,-4.16439,-1.74179,0.649717,Q,Q
2023-03-15 11:14:10:691,0,-4.17258,-1.73465,0.656491,Q,Q
2023-03-15 11:14:10:701,0,-4.17755,-1.72788,0.65922,Q,Q
2023-03-15 11:14:10:711,0,-4.18142,-1.72189,0.663434,Q,Q
2023-03-15 11:14:10:721,0,-4.18479,-1.71559,0.668327,Q,Q
2023-03-15 11:14:10:731,0,-4.19309,-1.71315,0.672347,Q,Q
2023-03-15 11:14:10:741,0,-4.19476,-1.70998,0.676947,Q,Q
2023-03-15 11:14:10:751,0,-4.20078,-1.70592,0.677879,Q,Q
2023-03-15 11:14:10:761,0,-4.19895,-1.70791,0.679597,Q,Q
2023-03-15 11:14:10:771,0,-4.19529,-1.71384,0.689946,Q,Q
2023-03-15 11:14:10:781,0,-4.19025,-1.7248,0.704066,Q,Q
2023-03-15 11:14:10:791,0,-4.19264,-1.73297,0.715986,Q,Q
2023-03-15 11:14:10:801,0,-4.20183,-1.74265,0.723921,Q,Q
2023-03-15 11:14:10:811,0,-4.21145,-1.74788,0.726972,Q,Q
2023-03-15 11:14:10:821,0,-4.21924,-1.75293,0.72959,Q,Q
2023-03-15 11:14:10:831,0,-4.21699,-1.75192,0.728972,Q,Q
2023-03-15 11:14:10:841,0,-4.21801,-1.74778,0.726975,Q,Q
2023-03-15 11:14:10:851,0,-4.21837,-1.74408,0.723464,Q,Q
2023-03-15 11:14:10:861,0,-4.22239,-1.73895,0.719063,Q,Q
2023-03-15 11:14:10:871,0,-4.22602,-1.74091,0.71555,Q,Q
2023-03-15 11:14:10:881,0,-4.23131,-1.74321,0.713711,Q,Q
2023-03-15 11:14:10:891,0,-4.23497,-1.73973,0.710875,Q,Q
2023-03-15 11:14:10:901,0,-4.23486,-1.73729,0.704988,Q,Q
2023-03-15 11:14:10:911,0,-4.24395,-1.73754,0.699466,Q,Q
2023-03-15 11:14:10:921,0,-4.25115,-1.73193,0.691947,Q,Q
2023-03-15 11:14:10:931,0,-4.25794,-1.72808,0.686539,Q,Q
2023-03-15 11:14:10:941,0,-4.26654,-1.72249,0.678067,Q,Q
2023-03-15 11:14:10:951,0,-4.27693,-1.71884,0.668128,Q,Q
2023-03-15 11:14:10:961,0,-4.28486,-1.71157,0.662366,Q,Q
2023-03-15 11:14:10:971,0,-4.29815,-1.70349,0.657218,Q,Q
2023-03-15 11:14:10:981,0,-4.31072,-1.69167,0.650573,Q,Q
2023-03-15 11:14:10:991,0,-4.32545,-1.67862,0.645637,Q,Q
2023-03-15 11:14:11:1,0,-4.33872,-1.6641,0.638793,Q,Q
2023-03-15 11:14:11:11,0,-4.3485,-1.64798,0.625697,Q,Q
2023-03-15 11:14:11:21,0,-4.35853,-1.63529,0.615844,Q,Q
2023-03-15 11:14:11:31,0,-4.36456,-1.62608,0.607188,Q,Q
2023-03-15 11:14:11:41,0,-4.3655,-1.6188,0.593036,Q,Q
2023-03-15 11:14:11:51,0,-4.36296,-1.60984,0.581549,Q,Q
2023-03-15 11:14:11:61,0,-4.35629,-1.60079,0.559293,Q,Q
2023-03-15 11:14:11:71,0,-4.341,-1.59125,0.536554,Q,Q
2023-03-15 11:14:11:81,0,-4.32722,-1.58226,0.514591,Q,Q
2023-03-15 11:14:11:91,0,-4.31436,-1.56618,0.4893,Q,Q
2023-03-15 11:14:11:101,0,-4.30797,-1.53955,0.460794,Q,Q
2023-03-15 11:14:11:111,0,-4.30922,-1.5129,0.433304,Q,Q
2023-03-15 11:14:11:121,0,-4.31445,-1.48206,0.40329,Q,Q
2023-03-15 11:14:11:131,0,-4.32595,-1.4494,0.375762,Q,Q
2023-03-15 11:14:11:141,0,-4.33868,-1.42168,0.355108,Q,Q
2023-03-15 11:14:11:151,0,-4.35119,-1.39253,0.335076,Q,Q
2023-03-15 11:14:11:160,0,-4.36267,-1.36679,0.31698,Q,Q
2023-03-15 11:14:11:170,0,-4.37407,-1.34335,0.302823,Q,Q
2023-03-15 11:14:11:180,0,-4.37702,-1.32338,0.292382,Q,Q
2023-03-15 11:14:11:191,0,-4.38155,-1.30835,0.281685,Q,Q
2023-03-15 11:14:11:201,0,-4.38813,-1.29245,0.276662,Q,Q
2023-03-15 11:14:11:210,0,-4.39576,-1.27629,0.275498,Q,Q
2023-03-15 11:14:11:221,0,-4.40397,-1.26547,0.27576,Q,Q
2023-03-15 11:14:11:231,0,-4.40941,-1.25856,0.274829,Q,Q
2023-03-15 11:14:11:241,0,-4.41591,-1.24648,0.282888,Q,Q
2023-03-15 11:14:11:251,0,-4.42516,-1.23426,0.296404,Q,Q
2023-03-15 11:14:11:261,0,-4.43336,-1.22477,0.307852,Q,Q
2023-03-15 11:14:11:271,0,-4.44522,-1.21684,0.318825,Q,Q
2023-03-15 11:14:11:280,0,-4.46112,-1.2121,0.325636,Q,Q
2023-03-15 11:14:11:291,0,-4.4731,-1.20355,0.337763,Q,Q
2023-03-15 11:14:11:300,0,-4.48336,-1.19568,0.345442,Q,Q
2023-03-15 11:14:11:311,0,-4.49304,-1.18861,0.352532,Q,Q
2023-03-15 11:14:11:320,0,-4.50477,-1.18258,0.363469,Q,Q
2023-03-15 11:14:11:331,0,-4.51521,-1.17643,0.375238,Q,Q
2023-03-15 11:14:11:340,0,-4.5278,-1.16526,0.38558,Q,Q
2023-03-15 11:14:11:351,0,-4.53986,-1.15488,0.394226,Q,Q
2023-03-15 11:14:11:361,0,-4.5567,-1.14706,0.400251,Q,Q
2023-03-15 11:14:11:371,0,-4.57769,-1.13955,0.404571,Q,Q
2023-03-15 11:14:11:381,0,-4.59982,-1.13247,0.408203,Q,Q
2023-03-15 11:14:11:391,0,-4.61488,-1.1247,0.409053,Q,Q
2023-03-15 11:14:11:401,0,-4.62645,-1.1177,0.406404,Q,Q
2023-03-15 11:14:11:410,0,-4.63659,-1.11278,0.403405,Q,Q
2023-03-15 11:14:11:420,0,-4.64337,-1.10999,0.402203,Q,Q
2023-03-15 11:14:11:431,0,-4.64662,-1.10576,0.394326,Q,Q
2023-03-15 11:14:11:440,0,-4.64549,-1.10421,0.391042,Q,Q
2023-03-15 11:14:11:451,0,-4.64047,-1.10107,0.385399,Q,Q
2023-03-15 11:14:11:460,0,-4.6388,-1.09604,0.381395,Q,Q
2023-03-15 11:14:11:471,0,-4.63457,-1.09327,0.38093,Q,Q
2023-03-15 11:14:11:480,0,-4.63561,-1.08816,0.379129,Q,Q
2023-03-15 11:14:11:490,0,-4.63974,-1.0795,0.378225,Q,Q
2023-03-15 11:14:11:501,0,-4.65043,-1.064,0.373727,Q,Q
2023-03-15 11:14:11:510,0,-4.66657,-1.04965,0.365255,Q,Q
2023-03-15 11:14:11:520,0,-4.68307,-1.02793,0.352399,Q,Q
2023-03-15 11:14:11:530,0,-4.69793,-1.00407,0.334553,Q,Q
2023-03-15 11:14:11:540,0,-4.71141,-0.983651,0.31935,Q,Q
2023-03-15 11:14:11:551,0,-4.71979,-0.967097,0.309608,Q,Q
2023-03-15 11:14:11:560,0,-4.72669,-0.952245,0.301896,Q,Q
2023-03-15 11:14:11:571,0,-4.73325,-0.942188,0.296647,Q,Q
2023-03-15 11:14:11:580,0,-4.7408,-0.938597,0.29065,Q,Q
2023-03-15 11:14:11:590,0,-4.75317,-0.933847,0.283568,Q,Q
2023-03-15 11:14:11:600,0,-4.77148,-0.921843,0.273153,Q,Q
2023-03-15 11:14:11:610,0,-4.78534,-0.914194,0.260812,Q,Q
2023-03-15 11:14:11:620,0,-4.79937,-0.905664,0.249278,Q,Q
2023-03-15 11:14:11:630,0,-4.80902,-0.898539,0.236767,Q,Q
2023-03-15 11:14:11:640,0,-4.82068,-0.889517,0.225474,Q,Q
2023-03-15 11:14:11:650,0,-4.82943,-0.884827,0.2109,Q,Q
2023-03-15 11:14:11:660,0,-4.83568,-0.880175,0.192919,Q,Q
2023-03-15 11:14:11:670,0,-4.84127,-0.877256,0.175953,Q,Q
2023-03-15 11:14:11:680,0,-4.84599,-0.877387,0.157691,Q,Q
2023-03-15 11:14:11:690,0,-4.84753,-0.878615,0.145706,Q,Q
2023-03-15 11:14:11:700,0,-4.85212,-0.878976,0.130617,Q,Q
2023-03-15 11:14:11:710,0,-4.85627,-0.879328,0.117667,Q,Q
2023-03-15 11:14:11:720,0,-4.85608,-0.878613,0.102077,Q,Q
2023-03-15 11:14:11:730,0,-4.85432,-0.880286,0.0888436,Q,Q
2023-03-15 11:14:11:740,0,-4.85321,-0.880282,0.0805668,Q,Q
2023-03-15 11:14:11:750,0,-4.84962,-0.88088,0.0729349,Q,Q
2023-03-15 11:14:11:760,0,-4.84308,-0.883023,0.0679586,Q,Q
2023-03-15 11:14:11:770,0,-4.83896,-0.88387,0.0649739,Q,Q
2023-03-15 11:14:11:780,0,-4.83725,-0.887425,0.0637672,Q,Q
2023-03-15 11:14:11:790,0,-4.83329,-0.887655,0.0578824,Q,Q
2023-03-15 11:14:11:800,0,-4.83147,-0.883713,0.0539354,Q,Q
2023-03-15 11:14:11:810,0,-4.83162,-0.877875,0.0493014,Q,Q
2023-03-15 11:14:11:820,0,-4.83063,-0.876855,0.0479682,Q,Q
2023-03-15 11:14:11:830,0,-4.83147,-0.880416,0.0468902,Q,Q
2023-03-15 11:14:11:840,0,-4.83477,-0.881202,0.0433233,Q,Q
2023-03-15 11:14:11:850,0,-4.83378,-0.886373,0.0399957,Q,Q
2023-03-15 11:14:11:860,0,-4.83248,-0.887254,0.0371605,Q,Q
2023-03-15 11:14:11:870,0,-4.83035,-0.887894,0.0275188,Q,Q
2023-03-15 11:14:11:880,0,-4.83106,-0.885105,0.0196981,Q,Q
2023-03-15 11:14:11:890,0,-4.82711,-0.879405,0.0107851,Q,Q
2023-03-15 11:14:11:900,0,-4.82117,-0.875873,0.000667172,Q,Q
2023-03-15 11:14:11:910,0,-4.81589,-0.871857,-0.00449676,Q,Q
2023-03-15 11:14:11:920,0,-4.81208,-0.869535,-0.00733628,Q,Q
2023-03-15 11:14:11:930,0,-4.81323,-0.87191,-0.0132414,Q,Q
2023-03-15 11:14:11:940,0,-4.81398,-0.87305,-0.019972,Q,Q
2023-03-15 11:14:11:950,0,-4.81438,-0.870972,-0.0268231,Q,Q
2023-03-15 11:14:11:960,0,-4.81539,-0.86997,-0.0326096,Q,Q
2023-03-15 11:14:11:970,0,-4.81837,-0.869028,-0.03822,Q,Q
2023-03-15 11:14:11:980,0,-4.8154,-0.870984,-0.0426853,Q,Q
2023-03-15 11:14:11:990,0,-4.81299,-0.87363,-0.0446121,Q,Q
2023-03-15 11:14:12:0,0,-4.81033,-0.877269,-0.0460837,Q,Q
2023-03-15 11:14:12:10,0,-4.80401,-0.886911,-0.0441594,Q,Q
2023-03-15 11:14:12:20,0,-4.79848,-0.894098,-0.0387297,Q,Q
2023-03-15 11:14:12:30,0,-4.79051,-0.896663,-0.0349568,Q,Q
2023-03-15 11:14:12:40,0,-4.78639,-0.898122,-0.0358569,Q,Q
2023-03-15 11:14:12:50,0,-4.78727,-0.898533,-0.0341346,Q,Q
2023-03-15 11:14:12:60,0,-4.79046,-0.894154,-0.027404,Q,Q
2023-03-15 11:14:12:70,0,-4.79293,-0.892125,-0.0226814,Q,Q
2023-03-15 11:14:12:80,0,-4.79293,-0.890012,-0.0206708,Q,Q
2023-03-15 11:14:12:90,0,-4.79312,-0.885686,-0.0141545,Q,Q
2023-03-15 11:14:12:100,0,-4.79851,-0.879202,-0.00658405,Q,Q
2023-03-15 11:14:12:110,0,-4.80485,-0.87707,-0.00157984,Q,Q
2023-03-15 11:14:12:120,0,-4.81074,-0.8743,0.00339936,Q,Q
2023-03-15 11:14:12:130,0,-4.81784,-0.869837,0.00536855,Q,Q
2023-03-15 11:14:12:140,0,-4.82563,-0.866782,0.00387953,Q,Q
2023-03-15 11:14:12:150,0,-4.83683,-0.86059,0.00287475,Q,Q
2023-03-15 11:14:12:160,0,-4.85083,-0.852707,0.0033262,Q,Q
2023-03-15 11:14:12:170,0,-4.86852,-0.847527,0.00158285,Q,Q
2023-03-15 11:14:12:180,0,-4.89109,-0.842906,-0.00198394,Q,Q
2023-03-15 11:14:12:190,0,-4.90795,-0.839597,-0.00867065,Q,Q
2023-03-15 11:14:12:200,0,-4.929,-0.833693,-0.0182694,Q,Q
2023-03-15 11:14:12:210,0,-4.95167,-0.83347,-0.0276679,Q,Q
2023-03-15 11:14:12:220,0,-4.97787,-0.837358,-0.0398237,Q,Q
2023-03-15 11:14:12:230,0,-5.00042,-0.838726,-0.0504117,Q,Q
2023-03-15 11:14:12:240,0,-5.01547,-0.833044,-0.0612937,Q,Q
2023-03-15 11:14:12:250,0,-5.0257,-0.821259,-0.068376,Q,Q
2023-03-15 11:14:12:260,0,-5.03485,-0.813775,-0.0793181,Q,Q
2023-03-15 11:14:12:270,0,-5.04461,-0.805917,-0.092449,Q,Q
2023-03-15 11:14:12:280,0,-5.05816,-0.795377,-0.105742,Q,Q
2023-03-15 11:14:12:290,0,-5.06902,-0.785426,-0.117917,Q,Q
2023-03-15 11:14:12:300,0,-5.07936,-0.77668,-0.130636,Q,Q
2023-03-15 11:14:12:310,0,-5.0853,-0.766152,-0.140769,Q,Q
2023-03-15 11:14:12:320,0,-5.0881,-0.762086,-0.151312,Q,Q
2023-03-15 11:14:12:330,0,-5.09095,-0.754216,-0.162053,Q,Q
2023-03-15 11:14:12:340,0,-5.09278,-0.750007,-0.172088,Q,Q
2023-03-15 11:14:12:350,0,-5.09427,-0.749788,-0.182561,Q,Q
2023-03-15 11:14:12:360,0,-5.09438,-0.74679,-0.188527,Q,Q
2023-03-15 11:14:12:370,0,-5.08881,-0.746387,-0.191201,Q,Q
2023-03-15 11:14:12:380,0,-5.07815,-0.743899,-0.189682,Q,Q
2023-03-15 11:14:12:390,0,-5.07213,-0.74539,-0.185478,Q,Q
2023-03-15 11:14:12:400,0,-5.06785,-0.74644,-0.179916,Q,Q
2023-03-15 11:14:12:410,0,-5.06499,-0.748572,-0.171391,Q,Q
2023-03-15 11:14:12:420,0,-5.06028,-0.747906,-0.167458,Q,Q
2023-03-15 11:14:12:430,0,-5.05717,-0.741665,-0.163954,Q,Q
2023-03-15 11:14:12:440,0,-5.05632,-0.73211,-0.156897,Q,Q
2023-03-15 11:14:12:450,0,-5.05801,-0.719772,-0.153011,Q,Q
2023-03-15 11:14:12:460,0,-5.05821,-0.709184,-0.144253,Q,Q
2023-03-15 11:14:12:470,0,-5.05981,-0.698712,-0.135145,Q,Q
