Timestamp_cmd,imu_cmd,roll_delta,pitch_delta,yaw_delta
2023-03-10 21:45:11:842,0,-0.390528,-6.59164,87.8894
2023-03-10 21:45:11:850,0,-0.385142,-6.63186,87.9185
2023-03-10 21:45:11:860,0,-0.377346,-6.65835,87.9375
2023-03-10 21:45:11:870,0,-0.352005,-6.68315,87.9605
2023-03-10 21:45:11:880,0,-0.299252,-6.72273,87.9947
2023-03-10 21:45:11:890,0,-0.234907,-6.77944,88.041
2023-03-10 21:45:11:900,0,-0.17684,-6.84011,88.0958
2023-03-10 21:45:11:910,0,-0.144565,-6.89093,88.1578
2023-03-10 21:45:11:920,0,-0.126703,-6.92864,88.2191
2023-03-10 21:45:11:930,0,-0.120592,-6.95091,88.2711
2023-03-10 21:45:11:940,0,-0.121576,-6.96554,88.3201
2023-03-10 21:45:11:950,0,-0.114797,-6.98311,88.3682
2023-03-10 21:45:11:960,0,-0.0973384,-7.00812,88.4156
2023-03-10 21:45:11:970,0,-0.0649917,-7.04271,88.464
2023-03-10 21:45:11:980,0,-0.0319325,-7.07756,88.5076
2023-03-10 21:45:11:990,0,-0.00133993,-7.10059,88.5354
2023-03-10 21:45:12:0,0,0.0229638,-7.10821,88.5512
2023-03-10 21:45:12:10,0,0.0307476,-7.10322,88.5482
2023-03-10 21:45:12:20,0,0.0355078,-7.09655,88.5266
2023-03-10 21:45:12:30,0,0.0339093,-7.08492,88.4958
2023-03-10 21:45:12:40,0,0.0306762,-7.0791,88.4599
2023-03-10 21:45:12:50,0,0.029256,-7.08169,88.4243
2023-03-10 21:45:12:60,0,0.0245618,-7.09159,88.3926
2023-03-10 21:45:12:71,0,0.0147166,-7.10578,88.3712
2023-03-10 21:45:12:80,0,-0.00526547,-7.11988,88.353
2023-03-10 21:45:12:91,0,-0.0208242,-7.13136,88.3377
2023-03-10 21:45:12:100,0,-0.0360264,-7.14141,88.3167
2023-03-10 21:45:12:111,0,-0.0461612,-7.14516,88.2881
2023-03-10 21:45:12:121,0,-0.047119,-7.14582,88.2527
2023-03-10 21:45:12:130,0,-0.0436606,-7.14653,88.2114
2023-03-10 21:45:12:140,0,-0.0311584,-7.14587,88.1661
2023-03-10 21:45:12:150,0,-0.0216538,-7.15719,88.1222
2023-03-10 21:45:12:160,0,-0.0193804,-7.1795,88.0798
2023-03-10 21:45:12:171,0,-0.0179856,-7.21163,88.0416
2023-03-10 21:45:12:180,0,-0.0113588,-7.24725,88.0034
2023-03-10 21:45:12:190,0,0.00442705,-7.27908,87.9616
2023-03-10 21:45:12:200,0,0.0322325,-7.30576,87.9127
2023-03-10 21:45:12:210,0,0.0756788,-7.32183,87.8554
2023-03-10 21:45:12:220,0,0.12701,-7.33779,87.7885
2023-03-10 21:45:12:230,0,0.177508,-7.35181,87.726
2023-03-10 21:45:12:240,0,0.223942,-7.36775,87.664
2023-03-10 21:45:12:250,0,0.264792,-7.39183,87.6035
2023-03-10 21:45:12:260,0,0.294382,-7.41491,87.5498
2023-03-10 21:45:12:270,0,0.311557,-7.44384,87.4969
2023-03-10 21:45:12:280,0,0.323104,-7.46597,87.4485
2023-03-10 21:45:12:290,0,0.32013,-7.4804,87.3952
2023-03-10 21:45:12:300,0,0.299357,-7.4965,87.3357
2023-03-10 21:45:12:310,0,0.263007,-7.50544,87.2685
2023-03-10 21:45:12:320,0,0.205451,-7.51926,87.1861
2023-03-10 21:45:12:330,0,0.138263,-7.53546,87.0946
2023-03-10 21:45:12:340,0,0.0681778,-7.55372,86.9986
2023-03-10 21:45:12:350,0,0.00819332,-7.58051,86.8949
2023-03-10 21:45:12:361,0,-0.0418676,-7.61996,86.7857
2023-03-10 21:45:12:371,0,-0.0805008,-7.66932,86.6689
2023-03-10 21:45:12:381,0,-0.112972,-7.7213,86.5467
2023-03-10 21:45:12:390,0,-0.133957,-7.76113,86.4234
2023-03-10 21:45:12:400,0,-0.145546,-7.7912,86.3013
2023-03-10 21:45:12:411,0,-0.140746,-7.82121,86.1813
2023-03-10 21:45:12:420,0,-0.127364,-7.8516,86.0725
2023-03-10 21:45:12:430,0,-0.117755,-7.88703,85.9779
2023-03-10 21:45:12:440,0,-0.110421,-7.92097,85.8989
2023-03-10 21:45:12:450,0,-0.103754,-7.94585,85.8279
2023-03-10 21:45:12:460,0,-0.102852,-7.96452,85.7614
2023-03-10 21:45:12:470,0,-0.103662,-7.97416,85.7028
2023-03-10 21:45:12:480,0,-0.117844,-7.98931,85.6558
2023-03-10 21:45:12:491,0,-0.146359,-8.00847,85.632
2023-03-10 21:45:12:501,0,-0.182184,-8.03382,85.6226
2023-03-10 21:45:12:510,0,-0.226088,-8.06214,85.6304
2023-03-10 21:45:12:520,0,-0.27572,-8.09046,85.6492
2023-03-10 21:45:12:530,0,-0.324888,-8.11623,85.6771
2023-03-10 21:45:12:540,0,-0.376051,-8.13035,85.7087
2023-03-10 21:45:12:550,0,-0.422704,-8.13586,85.7419
2023-03-10 21:45:12:560,0,-0.46452,-8.135,85.7789
2023-03-10 21:45:12:570,0,-0.501946,-8.12837,85.8076
2023-03-10 21:45:12:580,0,-0.537177,-8.12151,85.8382
2023-03-10 21:45:12:590,0,-0.566548,-8.11392,85.8753
2023-03-10 21:45:12:600,0,-0.603873,-8.11022,85.9175
2023-03-10 21:45:12:610,0,-0.641512,-8.1034,85.9667
2023-03-10 21:45:12:620,0,-0.690748,-8.10122,86.0198
2023-03-10 21:45:12:631,0,-0.743195,-8.10292,86.0725
2023-03-10 21:45:12:641,0,-0.801008,-8.1018,86.1251
2023-03-10 21:45:12:650,0,-0.853285,-8.09337,86.1703
2023-03-10 21:45:12:660,0,-0.895804,-8.07917,86.2134
2023-03-10 21:45:12:670,0,-0.917227,-8.06634,86.2427
2023-03-10 21:45:12:681,0,-0.93007,-8.05392,86.2677
2023-03-10 21:45:12:690,0,-0.938397,-8.04493,86.2879
2023-03-10 21:45:12:700,0,-0.948426,-8.03896,86.3015
2023-03-10 21:45:12:711,0,-0.961406,-8.03431,86.309
2023-03-10 21:45:12:720,0,-0.980512,-8.02445,86.3044
2023-03-10 21:45:12:730,0,-1.00363,-8.01585,86.2933
2023-03-10 21:45:12:740,0,-1.02785,-8.00438,86.2728
2023-03-10 21:45:12:750,0,-1.04503,-7.99323,86.2508
2023-03-10 21:45:12:760,0,-1.05922,-7.9853,86.2283
2023-03-10 21:45:12:770,0,-1.07546,-7.97815,86.2055
2023-03-10 21:45:12:780,0,-1.10009,-7.97371,86.1855
2023-03-10 21:45:12:791,0,-1.12116,-7.96958,86.1676
2023-03-10 21:45:12:801,0,-1.14939,-7.9646,86.153
2023-03-10 21:45:12:811,0,-1.17696,-7.95867,86.1362
2023-03-10 21:45:12:821,0,-1.20997,-7.95101,86.1227
2023-03-10 21:45:12:830,0,-1.24183,-7.95016,86.1114
2023-03-10 21:45:12:841,0,-1.27681,-7.95246,86.1064
2023-03-10 21:45:12:850,0,-1.31185,-7.96071,86.1032
2023-03-10 21:45:12:860,0,-1.35089,-7.96846,86.1002
2023-03-10 21:45:12:870,0,-1.38353,-7.98113,86.0954
2023-03-10 21:45:12:880,0,-1.41498,-7.99128,86.0924
2023-03-10 21:45:12:890,0,-1.44442,-7.99862,86.0828
2023-03-10 21:45:12:900,0,-1.46915,-8.01184,86.0772
2023-03-10 21:45:12:910,0,-1.49395,-8.02354,86.0688
2023-03-10 21:45:12:920,0,-1.52439,-8.03947,86.0634
2023-03-10 21:45:12:930,0,-1.55756,-8.05579,86.0595
2023-03-10 21:45:12:940,0,-1.59725,-8.08122,86.0602
2023-03-10 21:45:12:950,0,-1.64093,-8.11066,86.0588
2023-03-10 21:45:12:960,0,-1.69071,-8.14054,86.0491
2023-03-10 21:45:12:970,0,-1.74178,-8.16562,86.0258
2023-03-10 21:45:12:980,0,-1.79352,-8.18425,85.9948
2023-03-10 21:45:12:990,0,-1.84054,-8.2068,85.9598
2023-03-10 21:45:13:0,0,-1.88299,-8.23404,85.9288
2023-03-10 21:45:13:10,0,-1.91397,-8.26666,85.8979
2023-03-10 21:45:13:20,0,-1.93398,-8.30107,85.8669
2023-03-10 21:45:13:30,0,-1.94364,-8.33868,85.8345
2023-03-10 21:45:13:40,0,-1.93666,-8.36756,85.7984
2023-03-10 21:45:13:50,0,-1.90956,-8.38368,85.7524
2023-03-10 21:45:13:60,0,-1.86656,-8.38939,85.6962
2023-03-10 21:45:13:70,0,-1.81652,-8.38641,85.6289
2023-03-10 21:45:13:80,0,-1.7697,-8.37561,85.5526
2023-03-10 21:45:13:90,0,-1.73248,-8.36219,85.4801
2023-03-10 21:45:13:100,0,-1.71111,-8.35032,85.4184
2023-03-10 21:45:13:110,0,-1.70826,-8.35157,85.3713
2023-03-10 21:45:13:120,0,-1.72643,-8.36223,85.3436
2023-03-10 21:45:13:130,0,-1.7607,-8.38629,85.335
2023-03-10 21:45:13:140,0,-1.79915,-8.42162,85.3386
2023-03-10 21:45:13:150,0,-1.83382,-8.46153,85.3475
2023-03-10 21:45:13:160,0,-1.85966,-8.50454,85.3599
2023-03-10 21:45:13:170,0,-1.87891,-8.54969,85.3694
2023-03-10 21:45:13:180,0,-1.90372,-8.59063,85.3773
2023-03-10 21:45:13:190,0,-1.9338,-8.62944,85.3924
2023-03-10 21:45:13:200,0,-1.96938,-8.67156,85.4136
2023-03-10 21:45:13:210,0,-2.00516,-8.72122,85.444
2023-03-10 21:45:13:220,0,-2.04253,-8.77239,85.4862
2023-03-10 21:45:13:230,0,-2.07715,-8.81821,85.536
2023-03-10 21:45:13:240,0,-2.10692,-8.8612,85.592
2023-03-10 21:45:13:250,0,-2.12853,-8.90273,85.6465
2023-03-10 21:45:13:260,0,-2.14556,-8.93394,85.6966
2023-03-10 21:45:13:270,0,-2.15777,-8.95807,85.7411
2023-03-10 21:45:13:280,0,-2.16592,-8.97612,85.7801
2023-03-10 21:45:13:290,0,-2.17564,-8.99393,85.8147
2023-03-10 21:45:13:300,0,-2.18422,-9.00922,85.8367
2023-03-10 21:45:13:310,0,-2.20073,-9.02544,85.8528
2023-03-10 21:45:13:321,0,-2.21957,-9.03371,85.8619
2023-03-10 21:45:13:331,0,-2.24203,-9.04529,85.8734
2023-03-10 21:45:13:341,0,-2.26311,-9.0569,85.878
2023-03-10 21:45:13:351,0,-2.28866,-9.06817,85.8809
2023-03-10 21:45:13:361,0,-2.31083,-9.07267,85.8823
2023-03-10 21:45:13:371,0,-2.32772,-9.07251,85.8814
2023-03-10 21:45:13:380,0,-2.34339,-9.07391,85.8817
2023-03-10 21:45:13:391,0,-2.35774,-9.07498,85.8898
2023-03-10 21:45:13:401,0,-2.3781,-9.07259,85.9111
2023-03-10 21:45:13:411,0,-2.40457,-9.06845,85.9395
2023-03-10 21:45:13:421,0,-2.43649,-9.06398,85.9746
2023-03-10 21:45:13:430,0,-2.47032,-9.05915,86.0205
2023-03-10 21:45:13:441,0,-2.50101,-9.058,86.0694
2023-03-10 21:45:13:451,0,-2.52609,-9.05582,86.1237
2023-03-10 21:45:13:460,0,-2.54019,-9.04807,86.174
2023-03-10 21:45:13:470,0,-2.54474,-9.03639,86.2226
2023-03-10 21:45:13:481,0,-2.54192,-9.02651,86.267
2023-03-10 21:45:13:491,0,-2.53655,-9.0224,86.3099
2023-03-10 21:45:13:501,0,-2.54132,-9.01053,86.347
2023-03-10 21:45:13:510,0,-2.54932,-8.99923,86.3765
2023-03-10 21:45:13:520,0,-2.55914,-8.98462,86.4004
2023-03-10 21:45:13:530,0,-2.57651,-8.96716,86.4241
2023-03-10 21:45:13:541,0,-2.59328,-8.95084,86.4409
2023-03-10 21:45:13:550,0,-2.60827,-8.93403,86.4538
2023-03-10 21:45:13:560,0,-2.62729,-8.92287,86.4608
2023-03-10 21:45:13:570,0,-2.64828,-8.91254,86.4627
2023-03-10 21:45:13:581,0,-2.66774,-8.90126,86.4647
2023-03-10 21:45:13:591,0,-2.68985,-8.89087,86.4596
2023-03-10 21:45:13:601,0,-2.71532,-8.88102,86.4529
2023-03-10 21:45:13:611,0,-2.74589,-8.87883,86.4422
2023-03-10 21:45:13:621,0,-2.7711,-8.87689,86.4256
2023-03-10 21:45:13:630,0,-2.78986,-8.87266,86.4027
2023-03-10 21:45:13:641,0,-2.80859,-8.86585,86.3786
2023-03-10 21:45:13:651,0,-2.82976,-8.86461,86.3521
2023-03-10 21:45:13:661,0,-2.84917,-8.86597,86.3256
2023-03-10 21:45:13:671,0,-2.86985,-8.86984,86.295
2023-03-10 21:45:13:681,0,-2.88734,-8.87475,86.2658
2023-03-10 21:45:13:691,0,-2.90909,-8.87848,86.2355
2023-03-10 21:45:13:700,0,-2.93019,-8.88229,86.2056
2023-03-10 21:45:13:711,0,-2.95003,-8.88511,86.1733
2023-03-10 21:45:13:721,0,-2.9668,-8.88697,86.1418
2023-03-10 21:45:13:731,0,-2.98044,-8.88528,86.1087
2023-03-10 21:45:13:741,0,-2.9932,-8.88509,86.0758
2023-03-10 21:45:13:750,0,-3.00795,-8.88697,86.0452
2023-03-10 21:45:13:761,0,-3.02495,-8.88822,86.017
2023-03-10 21:45:13:771,0,-3.04308,-8.88635,85.996
2023-03-10 21:45:13:781,0,-3.06393,-8.88273,85.9753
2023-03-10 21:45:13:790,0,-3.08575,-8.87995,85.9531
2023-03-10 21:45:13:801,0,-3.1114,-8.87919,85.9402
2023-03-10 21:45:13:811,0,-3.13242,-8.87741,85.9319
2023-03-10 21:45:13:821,0,-3.14443,-8.8631,85.922
2023-03-10 21:45:13:831,0,-3.1511,-8.84981,85.9178
2023-03-10 21:45:13:841,0,-3.15037,-8.83816,85.912
2023-03-10 21:45:13:851,0,-3.15526,-8.8297,85.91
2023-03-10 21:45:13:860,0,-3.1638,-8.82826,85.9105
2023-03-10 21:45:13:871,0,-3.1764,-8.83294,85.9108
2023-03-10 21:45:13:881,0,-3.18995,-8.84073,85.9096
2023-03-10 21:45:13:891,0,-3.2045,-8.85142,85.9075
2023-03-10 21:45:13:901,0,-3.21386,-8.86003,85.9004
2023-03-10 21:45:13:911,0,-3.21904,-8.87299,85.8932
2023-03-10 21:45:13:921,0,-3.22706,-8.8862,85.881
2023-03-10 21:45:13:930,0,-3.23815,-8.89655,85.8745
2023-03-10 21:45:13:940,0,-3.24357,-8.90708,85.8706
2023-03-10 21:45:13:950,0,-3.2472,-8.91643,85.8664
2023-03-10 21:45:13:961,0,-3.24938,-8.922,85.8565
2023-03-10 21:45:13:971,0,-3.25177,-8.92657,85.8451
2023-03-10 21:45:13:981,0,-3.25918,-8.92837,85.8331
2023-03-10 21:45:13:991,0,-3.26043,-8.93456,85.8219
2023-03-10 21:45:14:1,0,-3.2593,-8.9379,85.8067
2023-03-10 21:45:14:10,0,-3.25763,-8.94544,85.7901
2023-03-10 21:45:14:21,0,-3.24765,-8.94385,85.7672
2023-03-10 21:45:14:30,0,-3.23992,-8.94101,85.7384
2023-03-10 21:45:14:40,0,-3.2282,-8.93863,85.7091
2023-03-10 21:45:14:50,0,-3.21753,-8.93408,85.6789
2023-03-10 21:45:14:60,0,-3.21327,-8.92904,85.6528
2023-03-10 21:45:14:70,0,-3.21083,-8.92055,85.6228
2023-03-10 21:45:14:81,0,-3.20546,-8.9067,85.589
2023-03-10 21:45:14:90,0,-3.19767,-8.89625,85.5586
2023-03-10 21:45:14:101,0,-3.19365,-8.88862,85.5311
2023-03-10 21:45:14:110,0,-3.19872,-8.88275,85.5057
2023-03-10 21:45:14:121,0,-3.20697,-8.88273,85.4857
2023-03-10 21:45:14:131,0,-3.21749,-8.87882,85.4682
2023-03-10 21:45:14:141,0,-3.23337,-8.88,85.4544
2023-03-10 21:45:14:150,0,-3.24524,-8.88359,85.4467
2023-03-10 21:45:14:160,0,-3.25347,-8.88524,85.4419
2023-03-10 21:45:14:170,0,-3.25932,-8.8826,85.4412
2023-03-10 21:45:14:180,0,-3.26364,-8.88432,85.4461
2023-03-10 21:45:14:190,0,-3.27098,-8.89318,85.4499
2023-03-10 21:45:14:200,0,-3.27407,-8.90047,85.4571
2023-03-10 21:45:14:210,0,-3.27705,-8.91326,85.4706
2023-03-10 21:45:14:220,0,-3.28096,-8.92731,85.4803
2023-03-10 21:45:14:230,0,-3.28681,-8.94687,85.493
2023-03-10 21:45:14:240,0,-3.28872,-8.96518,85.5044
2023-03-10 21:45:14:251,0,-3.29337,-8.98597,85.5121
2023-03-10 21:45:14:261,0,-3.29817,-9.00623,85.5181
2023-03-10 21:45:14:270,0,-3.30575,-9.02653,85.5205
2023-03-10 21:45:14:281,0,-3.31102,-9.0457,85.513
2023-03-10 21:45:14:290,0,-3.30683,-9.06475,85.4969
2023-03-10 21:45:14:301,0,-3.29152,-9.08016,85.4729
2023-03-10 21:45:14:311,0,-3.27028,-9.09396,85.4442
2023-03-10 21:45:14:321,0,-3.24998,-9.1074,85.4153
2023-03-10 21:45:14:331,0,-3.23539,-9.11696,85.3859
2023-03-10 21:45:14:341,0,-3.22449,-9.12545,85.3571
2023-03-10 21:45:14:351,0,-3.21333,-9.12737,85.3334
2023-03-10 21:45:14:361,0,-3.20585,-9.12628,85.3108
2023-03-10 21:45:14:371,0,-3.2001,-9.11948,85.2905
2023-03-10 21:45:14:381,0,-3.19303,-9.11193,85.2771
2023-03-10 21:45:14:391,0,-3.19052,-9.09917,85.2695
2023-03-10 21:45:14:401,0,-3.19049,-9.08625,85.2676
2023-03-10 21:45:14:411,0,-3.19509,-9.0715,85.2665
2023-03-10 21:45:14:421,0,-3.20437,-9.05844,85.2685
2023-03-10 21:45:14:430,0,-3.2182,-9.04786,85.2731
2023-03-10 21:45:14:441,0,-3.23482,-9.03546,85.2791
2023-03-10 21:45:14:451,0,-3.25115,-9.02914,85.2819
2023-03-10 21:45:14:461,0,-3.26655,-9.02412,85.2858
2023-03-10 21:45:14:471,0,-3.28321,-9.02231,85.2877
2023-03-10 21:45:14:481,0,-3.30041,-9.02428,85.2873
2023-03-10 21:45:14:491,0,-3.31933,-9.02692,85.2891
2023-03-10 21:45:14:501,0,-3.34358,-9.03182,85.2908
2023-03-10 21:45:14:511,0,-3.36206,-9.03453,85.2863
2023-03-10 21:45:14:521,0,-3.37685,-9.03683,85.2831
2023-03-10 21:45:14:530,0,-3.39307,-9.03853,85.2791
2023-03-10 21:45:14:541,0,-3.41017,-9.03269,85.2728
2023-03-10 21:45:14:551,0,-3.42298,-9.0264,85.2623
2023-03-10 21:45:14:561,0,-3.43439,-9.01956,85.2518
2023-03-10 21:45:14:571,0,-3.44471,-9.01043,85.2397
2023-03-10 21:45:14:580,0,-3.45206,-9.001,85.2259
2023-03-10 21:45:14:591,0,-3.45918,-8.98908,85.2123
2023-03-10 21:45:14:601,0,-3.46941,-8.97619,85.2039
2023-03-10 21:45:14:611,0,-3.48085,-8.96514,85.1935
2023-03-10 21:45:14:620,0,-3.49773,-8.95498,85.1831
2023-03-10 21:45:14:631,0,-3.51222,-8.94834,85.1732
2023-03-10 21:45:14:640,0,-3.52295,-8.9478,85.1606
2023-03-10 21:45:14:650,0,-3.53198,-8.95226,85.1544
2023-03-10 21:45:14:661,0,-3.53671,-8.96523,85.154
2023-03-10 21:45:14:671,0,-3.53888,-8.97754,85.1577
2023-03-10 21:45:14:681,0,-3.53878,-8.98911,85.1612
2023-03-10 21:45:14:691,0,-3.53838,-9.00086,85.1704
2023-03-10 21:45:14:701,0,-3.54226,-9.00713,85.1819
2023-03-10 21:45:14:711,0,-3.55107,-9.01516,85.1959
2023-03-10 21:45:14:721,0,-3.55395,-9.01762,85.2097
2023-03-10 21:45:14:731,0,-3.55728,-9.02357,85.2261
2023-03-10 21:45:14:741,0,-3.54811,-9.03054,85.238
2023-03-10 21:45:14:751,0,-3.5372,-9.03837,85.2481
2023-03-10 21:45:14:761,0,-3.52281,-9.04863,85.2559
2023-03-10 21:45:14:771,0,-3.5044,-9.05544,85.2595
2023-03-10 21:45:14:781,0,-3.48529,-9.06354,85.2549
2023-03-10 21:45:14:791,0,-3.47222,-9.0675,85.248
2023-03-10 21:45:14:800,0,-3.46283,-9.07507,85.2431
2023-03-10 21:45:14:810,0,-3.46037,-9.08078,85.2366
2023-03-10 21:45:14:820,0,-3.45992,-9.08833,85.2333
2023-03-10 21:45:14:830,0,-3.46351,-9.09418,85.237
2023-03-10 21:45:14:840,0,-3.46933,-9.10068,85.2404
2023-03-10 21:45:14:850,0,-3.46563,-9.10594,85.2408
2023-03-10 21:45:14:860,0,-3.46113,-9.11077,85.2408
2023-03-10 21:45:14:870,0,-3.45452,-9.11661,85.2419
2023-03-10 21:45:14:880,0,-3.44773,-9.13032,85.2419
2023-03-10 21:45:14:890,0,-3.44039,-9.14323,85.2429
2023-03-10 21:45:14:900,0,-3.43374,-9.15357,85.2351
2023-03-10 21:45:14:910,0,-3.43208,-9.15921,85.2255
2023-03-10 21:45:14:920,0,-3.4361,-9.16291,85.2194
2023-03-10 21:45:14:930,0,-3.43869,-9.16373,85.2085
2023-03-10 21:45:14:940,0,-3.44386,-9.16312,85.199
2023-03-10 21:45:14:950,0,-3.45294,-9.16056,85.1957
2023-03-10 21:45:14:960,0,-3.46024,-9.16232,85.1921
2023-03-10 21:45:14:970,0,-3.46625,-9.16558,85.1865
2023-03-10 21:45:14:980,0,-3.46849,-9.16656,85.1831
2023-03-10 21:45:14:990,0,-3.4707,-9.16733,85.1782
2023-03-10 21:45:15:0,0,-3.4675,-9.17456,85.1756
2023-03-10 21:45:15:10,0,-3.46319,-9.1832,85.1729
2023-03-10 21:45:15:20,0,-3.4617,-9.1969,85.1716
2023-03-10 21:45:15:30,0,-3.46203,-9.21199,85.1761
2023-03-10 21:45:15:40,0,-3.45875,-9.2271,85.1777
2023-03-10 21:45:15:50,0,-3.45791,-9.24098,85.1806
2023-03-10 21:45:15:60,0,-3.45358,-9.25589,85.1869
2023-03-10 21:45:15:70,0,-3.44846,-9.27074,85.1919
2023-03-10 21:45:15:80,0,-3.44332,-9.28391,85.2017
2023-03-10 21:45:15:90,0,-3.44247,-9.2993,85.2128
2023-03-10 21:45:15:100,0,-3.43758,-9.31247,85.2242
2023-03-10 21:45:15:110,0,-3.43424,-9.32588,85.2381
2023-03-10 21:45:15:120,0,-3.43174,-9.34024,85.2523
2023-03-10 21:45:15:130,0,-3.4294,-9.35194,85.2685
2023-03-10 21:45:15:140,0,-3.43138,-9.36416,85.2839
2023-03-10 21:45:15:150,0,-3.43282,-9.37835,85.2949
2023-03-10 21:45:15:160,0,-3.43257,-9.38969,85.3069
2023-03-10 21:45:15:170,0,-3.43693,-9.39723,85.3154
2023-03-10 21:45:15:180,0,-3.43695,-9.40079,85.3246
2023-03-10 21:45:15:190,0,-3.44329,-9.40647,85.3337
2023-03-10 21:45:15:200,0,-3.4536,-9.40995,85.344
2023-03-10 21:45:15:210,0,-3.46159,-9.41538,85.3533
2023-03-10 21:45:15:220,0,-3.47888,-9.42264,85.3655
2023-03-10 21:45:15:230,0,-3.49427,-9.42993,85.3743
2023-03-10 21:45:15:240,0,-3.5108,-9.43506,85.3809
2023-03-10 21:45:15:250,0,-3.52654,-9.44454,85.3881
2023-03-10 21:45:15:260,0,-3.53874,-9.45068,85.3997
2023-03-10 21:45:15:270,0,-3.54611,-9.45645,85.4104
2023-03-10 21:45:15:280,0,-3.55934,-9.46364,85.422
2023-03-10 21:45:15:290,0,-3.56903,-9.47274,85.4357
2023-03-10 21:45:15:300,0,-3.57904,-9.48418,85.4549
2023-03-10 21:45:15:310,0,-3.58925,-9.49626,85.482
2023-03-10 21:45:15:320,0,-3.59966,-9.51141,85.5132
2023-03-10 21:45:15:330,0,-3.60878,-9.52439,85.5472
2023-03-10 21:45:15:340,0,-3.61255,-9.53495,85.586
2023-03-10 21:45:15:350,0,-3.60997,-9.54044,85.6261
2023-03-10 21:45:15:360,0,-3.60839,-9.54291,85.6701
2023-03-10 21:45:15:371,0,-3.60316,-9.54146,85.7139
2023-03-10 21:45:15:381,0,-3.60529,-9.54124,85.76
2023-03-10 21:45:15:390,0,-3.60719,-9.54078,85.8084
2023-03-10 21:45:15:400,0,-3.61169,-9.53763,85.8529
2023-03-10 21:45:15:410,0,-3.61891,-9.52848,85.8975
2023-03-10 21:45:15:420,0,-3.63052,-9.52026,85.9381
2023-03-10 21:45:15:431,0,-3.64303,-9.51994,85.9704
2023-03-10 21:45:15:441,0,-3.65474,-9.52569,85.9971
2023-03-10 21:45:15:450,0,-3.66371,-9.53913,86.023
2023-03-10 21:45:15:460,0,-3.67229,-9.5513,86.0397
2023-03-10 21:45:15:471,0,-3.6765,-9.5649,86.0498
2023-03-10 21:45:15:481,0,-3.68189,-9.57643,86.0542
2023-03-10 21:45:15:491,0,-3.68703,-9.58668,86.0533
2023-03-10 21:45:15:501,0,-3.69693,-9.59698,86.0573
2023-03-10 21:45:15:511,0,-3.70823,-9.60469,86.0642
2023-03-10 21:45:15:521,0,-3.71888,-9.60964,86.0714
2023-03-10 21:45:15:531,0,-3.72951,-9.61243,86.0759
2023-03-10 21:45:15:541,0,-3.73323,-9.61575,86.0782
2023-03-10 21:45:15:551,0,-3.73273,-9.61467,86.084
2023-03-10 21:45:15:561,0,-3.72934,-9.61632,86.0897
2023-03-10 21:45:15:571,0,-3.72685,-9.61317,86.0864
2023-03-10 21:45:15:581,0,-3.7189,-9.60679,86.0828
2023-03-10 21:45:15:591,0,-3.71422,-9.60323,86.0782
2023-03-10 21:45:15:601,0,-3.71246,-9.59518,86.0705
2023-03-10 21:45:15:611,0,-3.71306,-9.58668,86.0601
2023-03-10 21:45:15:620,0,-3.71507,-9.57581,86.0535
2023-03-10 21:45:15:631,0,-3.7257,-9.56632,86.0475
2023-03-10 21:45:15:641,0,-3.73932,-9.55199,86.0463
2023-03-10 21:45:15:651,0,-3.75672,-9.53585,86.049
2023-03-10 21:45:15:661,0,-3.77007,-9.52361,86.0536
2023-03-10 21:45:15:671,0,-3.78102,-9.51769,86.0594
2023-03-10 21:45:15:681,0,-3.78755,-9.51622,86.0689
2023-03-10 21:45:15:691,0,-3.80081,-9.51182,86.0833
2023-03-10 21:45:15:701,0,-3.82046,-9.50769,86.0973
2023-03-10 21:45:15:710,0,-3.84088,-9.50651,86.1116
2023-03-10 21:45:15:720,0,-3.86271,-9.50463,86.1267
2023-03-10 21:45:15:730,0,-3.88598,-9.50292,86.1419
2023-03-10 21:45:15:740,0,-3.90797,-9.50171,86.1564
2023-03-10 21:45:15:750,0,-3.9289,-9.50733,86.1738
2023-03-10 21:45:15:760,0,-3.94933,-9.51387,86.1883
2023-03-10 21:45:15:771,0,-3.96506,-9.51651,86.1983
2023-03-10 21:45:15:781,0,-3.97028,-9.52471,86.2029
2023-03-10 21:45:15:790,0,-3.97383,-9.53328,86.2053
2023-03-10 21:45:15:801,0,-3.97416,-9.54364,86.1989
2023-03-10 21:45:15:811,0,-3.96422,-9.55026,86.1887
2023-03-10 21:45:15:821,0,-3.94772,-9.55721,86.1708
2023-03-10 21:45:15:831,0,-3.92838,-9.5625,86.1495
2023-03-10 21:45:15:841,0,-3.90683,-9.56586,86.1271
2023-03-10 21:45:15:851,0,-3.88835,-9.5691,86.109
2023-03-10 21:45:15:861,0,-3.8671,-9.57335,86.0936
2023-03-10 21:45:15:871,0,-3.84576,-9.57857,86.0774
2023-03-10 21:45:15:881,0,-3.82132,-9.57582,86.0617
2023-03-10 21:45:15:891,0,-3.79397,-9.57529,86.0399
2023-03-10 21:45:15:901,0,-3.76527,-9.57037,86.0164
2023-03-10 21:45:15:911,0,-3.73361,-9.5683,85.9888
2023-03-10 21:45:15:921,0,-3.70021,-9.56617,85.959
2023-03-10 21:45:15:931,0,-3.66734,-9.56504,85.9256
2023-03-10 21:45:15:941,0,-3.63972,-9.56304,85.8879
2023-03-10 21:45:15:951,0,-3.62172,-9.56543,85.8494
2023-03-10 21:45:15:961,0,-3.60669,-9.56907,85.8102
2023-03-10 21:45:15:971,0,-3.59654,-9.57177,85.7714
2023-03-10 21:45:15:981,0,-3.58864,-9.57521,85.7362
2023-03-10 21:45:15:991,0,-3.58776,-9.58059,85.7072
2023-03-10 21:45:16:1,0,-3.58969,-9.58223,85.678
2023-03-10 21:45:16:11,0,-3.5898,-9.58505,85.6551
2023-03-10 21:45:16:21,0,-3.59755,-9.5885,85.6358
2023-03-10 21:45:16:31,0,-3.60539,-9.59571,85.6173
2023-03-10 21:45:16:41,0,-3.6168,-9.5997,85.5953
2023-03-10 21:45:16:51,0,-3.62516,-9.59813,85.5677
2023-03-10 21:45:16:61,0,-3.63439,-9.59842,85.5332
2023-03-10 21:45:16:71,0,-3.64492,-9.59773,85.4958
2023-03-10 21:45:16:81,0,-3.65513,-9.60298,85.4593
2023-03-10 21:45:16:91,0,-3.66527,-9.6054,85.4215
2023-03-10 21:45:16:101,0,-3.67819,-9.60638,85.3837
2023-03-10 21:45:16:111,0,-3.69307,-9.60651,85.3524
2023-03-10 21:45:16:121,0,-3.70771,-9.60786,85.3256
2023-03-10 21:45:16:131,0,-3.71118,-9.60518,85.2999
2023-03-10 21:45:16:141,0,-3.70118,-9.60006,85.2789
2023-03-10 21:45:16:151,0,-3.67322,-9.58519,85.2616
2023-03-10 21:45:16:161,0,-3.62729,-9.5673,85.2465
2023-03-10 21:45:16:171,0,-3.57777,-9.54288,85.2319
2023-03-10 21:45:16:181,0,-3.52662,-9.52375,85.224
2023-03-10 21:45:16:191,0,-3.47845,-9.50984,85.221
2023-03-10 21:45:16:201,0,-3.43436,-9.50418,85.2287
2023-03-10 21:45:16:211,0,-3.39521,-9.50535,85.2429
2023-03-10 21:45:16:220,0,-3.35898,-9.50695,85.2635
2023-03-10 21:45:16:231,0,-3.32969,-9.50645,85.2844
2023-03-10 21:45:16:241,0,-3.31293,-9.50421,85.3034
2023-03-10 21:45:16:251,0,-3.29914,-9.49747,85.3183
2023-03-10 21:45:16:261,0,-3.30004,-9.49045,85.3322
2023-03-10 21:45:16:271,0,-3.3165,-9.4868,85.3514
2023-03-10 21:45:16:281,0,-3.34655,-9.48599,85.3764
2023-03-10 21:45:16:291,0,-3.38683,-9.48873,85.4033
2023-03-10 21:45:16:301,0,-3.43212,-9.49664,85.4299
2023-03-10 21:45:16:311,0,-3.47269,-9.50679,85.4514
2023-03-10 21:45:16:321,0,-3.50169,-9.52215,85.4668
2023-03-10 21:45:16:331,0,-3.51827,-9.54291,85.4758
2023-03-10 21:45:16:341,0,-3.51781,-9.56671,85.4781
2023-03-10 21:45:16:351,0,-3.50531,-9.5933,85.4723
2023-03-10 21:45:16:361,0,-3.48469,-9.62877,85.4576
2023-03-10 21:45:16:371,0,-3.4552,-9.66577,85.4381
2023-03-10 21:45:16:381,0,-3.41218,-9.7067,85.4102
2023-03-10 21:45:16:391,0,-3.35861,-9.73967,85.38
2023-03-10 21:45:16:401,0,-3.29346,-9.76148,85.348
2023-03-10 21:45:16:411,0,-3.22761,-9.77728,85.316
2023-03-10 21:45:16:421,0,-3.16443,-9.78286,85.2816
2023-03-10 21:45:16:431,0,-3.10786,-9.7837,85.2525
2023-03-10 21:45:16:441,0,-3.06327,-9.78069,85.2291
2023-03-10 21:45:16:451,0,-3.01943,-9.77632,85.2098
2023-03-10 21:45:16:461,0,-2.98264,-9.77146,85.1979
2023-03-10 21:45:16:471,0,-2.9523,-9.76425,85.1895
2023-03-10 21:45:16:481,0,-2.92373,-9.75519,85.184
2023-03-10 21:45:16:491,0,-2.90298,-9.74632,85.1837
2023-03-10 21:45:16:501,0,-2.88832,-9.74478,85.192
2023-03-10 21:45:16:511,0,-2.88426,-9.74181,85.2037
2023-03-10 21:45:16:521,0,-2.88701,-9.73565,85.2162
2023-03-10 21:45:16:531,0,-2.89346,-9.72968,85.2273
2023-03-10 21:45:16:541,0,-2.90157,-9.72223,85.2351
2023-03-10 21:45:16:551,0,-2.91047,-9.7104,85.2394
2023-03-10 21:45:16:561,0,-2.9161,-9.6984,85.2377
2023-03-10 21:45:16:571,0,-2.92257,-9.68842,85.2341
2023-03-10 21:45:16:581,0,-2.92927,-9.68088,85.23
2023-03-10 21:45:16:591,0,-2.93432,-9.67665,85.2265
2023-03-10 21:45:16:601,0,-2.937,-9.67667,85.2252
2023-03-10 21:45:16:611,0,-2.93657,-9.67906,85.2241
2023-03-10 21:45:16:621,0,-2.93498,-9.67544,85.2222
2023-03-10 21:45:16:631,0,-2.9355,-9.67407,85.2229
2023-03-10 21:45:16:641,0,-2.93691,-9.67272,85.2211
2023-03-10 21:45:16:651,0,-2.94229,-9.66648,85.2206
2023-03-10 21:45:16:661,0,-2.94847,-9.66419,85.2198
2023-03-10 21:45:16:671,0,-2.95483,-9.6612,85.2226
2023-03-10 21:45:16:681,0,-2.95386,-9.65996,85.2214
2023-03-10 21:45:16:691,0,-2.94507,-9.65542,85.2196
2023-03-10 21:45:16:701,0,-2.93041,-9.64818,85.2149
2023-03-10 21:45:16:711,0,-2.91714,-9.64294,85.2109
2023-03-10 21:45:16:721,0,-2.90586,-9.63697,85.2076
2023-03-10 21:45:16:731,0,-2.89692,-9.62978,85.2034
2023-03-10 21:45:16:741,0,-2.88732,-9.62161,85.1991
2023-03-10 21:45:16:751,0,-2.88705,-9.61327,85.2
2023-03-10 21:45:16:761,0,-2.89186,-9.60711,85.2038
2023-03-10 21:45:16:771,0,-2.89457,-9.60002,85.2062
2023-03-10 21:45:16:781,0,-2.89465,-9.59505,85.206
2023-03-10 21:45:16:791,0,-2.89071,-9.58968,85.2061
2023-03-10 21:45:16:801,0,-2.88731,-9.58649,85.206
2023-03-10 21:45:16:811,0,-2.883,-9.58554,85.2027
2023-03-10 21:45:16:821,0,-2.88042,-9.58894,85.2036
2023-03-10 21:45:16:831,0,-2.88465,-9.59311,85.2077
2023-03-10 21:45:16:841,0,-2.89321,-9.59968,85.2148
2023-03-10 21:45:16:851,0,-2.90727,-9.60651,85.226
2023-03-10 21:45:16:861,0,-2.91877,-9.61415,85.2361
2023-03-10 21:45:16:871,0,-2.92671,-9.61921,85.2469
2023-03-10 21:45:16:881,0,-2.93858,-9.62755,85.2623
2023-03-10 21:45:16:891,0,-2.95302,-9.64164,85.2804
2023-03-10 21:45:16:901,0,-2.97139,-9.65652,85.2993
2023-03-10 21:45:16:911,0,-2.98942,-9.66848,85.3178
2023-03-10 21:45:16:921,0,-3.00623,-9.6804,85.3391
2023-03-10 21:45:16:931,0,-3.0226,-9.69695,85.3596
2023-03-10 21:45:16:941,0,-3.03993,-9.71129,85.3818
2023-03-10 21:45:16:951,0,-3.0543,-9.72211,85.3985
2023-03-10 21:45:16:961,0,-3.06495,-9.73173,85.4125
2023-03-10 21:45:16:971,0,-3.07409,-9.74047,85.4256
2023-03-10 21:45:16:981,0,-3.07657,-9.74514,85.4408
2023-03-10 21:45:16:991,0,-3.08207,-9.75203,85.4558
2023-03-10 21:45:17:1,0,-3.08954,-9.75601,85.4697
2023-03-10 21:45:17:11,0,-3.10131,-9.75799,85.485
2023-03-10 21:45:17:21,0,-3.11001,-9.75839,85.4978
2023-03-10 21:45:17:31,0,-3.11725,-9.75452,85.5053
2023-03-10 21:45:17:41,0,-3.12454,-9.74928,85.5074
2023-03-10 21:45:17:51,0,-3.12781,-9.7407,85.5062
2023-03-10 21:45:17:61,0,-3.12866,-9.73344,85.4993
2023-03-10 21:45:17:71,0,-3.13223,-9.7297,85.4903
2023-03-10 21:45:17:81,0,-3.13798,-9.73145,85.4854
2023-03-10 21:45:17:91,0,-3.14397,-9.73501,85.4807
2023-03-10 21:45:17:101,0,-3.16007,-9.73759,85.4734
2023-03-10 21:45:17:111,0,-3.17739,-9.7398,85.468
2023-03-10 21:45:17:121,0,-3.19164,-9.74053,85.4606
2023-03-10 21:45:17:131,0,-3.20958,-9.7381,85.4523
2023-03-10 21:45:17:141,0,-3.2286,-9.73402,85.4506
2023-03-10 21:45:17:150,0,-3.24598,-9.73152,85.4481
2023-03-10 21:45:17:161,0,-3.26734,-9.72683,85.4503
2023-03-10 21:45:17:171,0,-3.28335,-9.71572,85.4492
2023-03-10 21:45:17:181,0,-3.29842,-9.70645,85.4497
2023-03-10 21:45:17:191,0,-3.31194,-9.69708,85.4482
2023-03-10 21:45:17:201,0,-3.32716,-9.68986,85.4462
2023-03-10 21:45:17:211,0,-3.33926,-9.6819,85.4419
2023-03-10 21:45:17:221,0,-3.35257,-9.67253,85.4376
2023-03-10 21:45:17:231,0,-3.37091,-9.66491,85.4316
2023-03-10 21:45:17:241,0,-3.39127,-9.66115,85.4231
2023-03-10 21:45:17:251,0,-3.41349,-9.6588,85.4154
2023-03-10 21:45:17:261,0,-3.43737,-9.66058,85.4096
2023-03-10 21:45:17:271,0,-3.45812,-9.66164,85.4096
2023-03-10 21:45:17:281,0,-3.47063,-9.65914,85.4018
2023-03-10 21:45:17:291,0,-3.46171,-9.6546,85.3898
2023-03-10 21:45:17:301,0,-3.43905,-9.65355,85.3714
2023-03-10 21:45:17:311,0,-3.39937,-9.65686,85.3453
2023-03-10 21:45:17:321,0,-3.35705,-9.65916,85.3168
2023-03-10 21:45:17:331,0,-3.31919,-9.66498,85.2922
2023-03-10 21:45:17:341,0,-3.28241,-9.67026,85.2632
2023-03-10 21:45:17:351,0,-3.25881,-9.6737,85.2356
2023-03-10 21:45:17:361,0,-3.24011,-9.67886,85.209
2023-03-10 21:45:17:371,0,-3.216,-9.68237,85.1795
2023-03-10 21:45:17:381,0,-3.19155,-9.68689,85.1476
2023-03-10 21:45:17:391,0,-3.16638,-9.69188,85.1174
2023-03-10 21:45:17:401,0,-3.1448,-9.69908,85.0833
2023-03-10 21:45:17:411,0,-3.12636,-9.70673,85.0524
2023-03-10 21:45:17:421,0,-3.11318,-9.71768,85.0267
2023-03-10 21:45:17:431,0,-3.11149,-9.72819,85.0048
2023-03-10 21:45:17:441,0,-3.12282,-9.73868,84.9877
2023-03-10 21:45:17:451,0,-3.1391,-9.75482,84.9762
2023-03-10 21:45:17:461,0,-3.14983,-9.7737,84.9764
2023-03-10 21:45:17:471,0,-3.1574,-9.79357,84.9744
2023-03-10 21:45:17:481,0,-3.16037,-9.81192,84.9727
2023-03-10 21:45:17:491,0,-3.15564,-9.82178,84.9755
2023-03-10 21:45:17:501,0,-3.14611,-9.82949,84.9788
2023-03-10 21:45:17:511,0,-3.1399,-9.83482,84.9855
2023-03-10 21:45:17:521,0,-3.14093,-9.8397,84.9934
2023-03-10 21:45:17:531,0,-3.14744,-9.84261,85.0025
2023-03-10 21:45:17:541,0,-3.15605,-9.84778,85.015
2023-03-10 21:45:17:551,0,-3.16817,-9.84898,85.0237
2023-03-10 21:45:17:561,0,-3.17208,-9.84695,85.0297
2023-03-10 21:45:17:571,0,-3.17535,-9.84351,85.033
2023-03-10 21:45:17:581,0,-3.17211,-9.84248,85.0353
2023-03-10 21:45:17:591,0,-3.16556,-9.8385,85.0373
2023-03-10 21:45:17:601,0,-3.15887,-9.83535,85.0383
2023-03-10 21:45:17:611,0,-3.15162,-9.83162,85.0359
2023-03-10 21:45:17:621,0,-3.14203,-9.82576,85.0371
2023-03-10 21:45:17:631,0,-3.13313,-9.81772,85.0436
2023-03-10 21:45:17:641,0,-3.12597,-9.80717,85.0517
2023-03-10 21:45:17:651,0,-3.12039,-9.79779,85.0604
2023-03-10 21:45:17:661,0,-3.11719,-9.7898,85.0712
2023-03-10 21:45:17:671,0,-3.11122,-9.78401,85.0819
2023-03-10 21:45:17:681,0,-3.10953,-9.78029,85.0944
2023-03-10 21:45:17:691,0,-3.11145,-9.77972,85.1078
2023-03-10 21:45:17:701,0,-3.11429,-9.77636,85.1229
2023-03-10 21:45:17:711,0,-3.10808,-9.77509,85.1354
2023-03-10 21:45:17:721,0,-3.09598,-9.7742,85.1454
2023-03-10 21:45:17:731,0,-3.07381,-9.77151,85.1473
2023-03-10 21:45:17:741,0,-3.05016,-9.76909,85.1501
2023-03-10 21:45:17:751,0,-3.02162,-9.76445,85.1507
2023-03-10 21:45:17:761,0,-2.99477,-9.75905,85.1541
2023-03-10 21:45:17:771,0,-2.97777,-9.75113,85.1504
2023-03-10 21:45:17:781,0,-2.95748,-9.74517,85.1464
2023-03-10 21:45:17:791,0,-2.93966,-9.73983,85.1427
2023-03-10 21:45:17:801,0,-2.92196,-9.73497,85.1414
2023-03-10 21:45:17:811,0,-2.90097,-9.72922,85.138
2023-03-10 21:45:17:821,0,-2.88349,-9.72403,85.1279
2023-03-10 21:45:17:831,0,-2.87002,-9.72112,85.1107
2023-03-10 21:45:17:841,0,-2.85202,-9.72141,85.0855
2023-03-10 21:45:17:851,0,-2.8358,-9.72397,85.0586
2023-03-10 21:45:17:861,0,-2.81838,-9.73145,85.0286
2023-03-10 21:45:17:871,0,-2.81154,-9.74915,85.0018
2023-03-10 21:45:17:881,0,-2.81565,-9.77361,84.9846
2023-03-10 21:45:17:891,0,-2.83125,-9.80145,84.9696
2023-03-10 21:45:17:901,0,-2.85433,-9.82703,84.9584
2023-03-10 21:45:17:911,0,-2.87983,-9.85893,84.9517
2023-03-10 21:45:17:921,0,-2.9063,-9.89107,84.9519
2023-03-10 21:45:17:931,0,-2.92802,-9.91853,84.9523
2023-03-10 21:45:17:941,0,-2.94799,-9.94183,84.9539
2023-03-10 21:45:17:951,0,-2.96646,-9.95977,84.9567
2023-03-10 21:45:17:961,0,-2.9862,-9.97848,84.9588
2023-03-10 21:45:17:971,0,-3.00989,-9.99291,84.966
2023-03-10 21:45:17:981,0,-3.0306,-10.0109,84.9723
2023-03-10 21:45:17:991,0,-3.04695,-10.0279,84.9798
2023-03-10 21:45:18:1,0,-3.06272,-10.0442,84.9853
2023-03-10 21:45:18:11,0,-3.077,-10.0582,84.9945
2023-03-10 21:45:18:21,0,-3.08112,-10.0672,84.9984
2023-03-10 21:45:18:31,0,-3.07779,-10.0756,85.004
2023-03-10 21:45:18:41,0,-3.07361,-10.0862,85.011
2023-03-10 21:45:18:51,0,-3.07072,-10.0955,85.0178
2023-03-10 21:45:18:61,0,-3.06591,-10.1017,85.0215
2023-03-10 21:45:18:71,0,-3.06182,-10.1043,85.024
2023-03-10 21:45:18:81,0,-3.05436,-10.0987,85.022
2023-03-10 21:45:18:91,0,-3.04431,-10.0921,85.015
2023-03-10 21:45:18:101,0,-3.03175,-10.0835,85.0092
2023-03-10 21:45:18:111,0,-3.01967,-10.0759,84.9994
2023-03-10 21:45:18:121,0,-3.00887,-10.0659,84.9899
2023-03-10 21:45:18:131,0,-3.00162,-10.058,84.9788
2023-03-10 21:45:18:141,0,-2.99795,-10.0519,84.9674
2023-03-10 21:45:18:151,0,-2.995,-10.0493,84.9578
2023-03-10 21:45:18:161,0,-2.99402,-10.05,84.9479
2023-03-10 21:45:18:171,0,-2.98906,-10.049,84.9385
2023-03-10 21:45:18:181,0,-2.98462,-10.0473,84.9276
2023-03-10 21:45:18:191,0,-2.98429,-10.0467,84.9205
2023-03-10 21:45:18:201,0,-2.98255,-10.0505,84.9133
2023-03-10 21:45:18:211,0,-2.98112,-10.0612,84.9062
2023-03-10 21:45:18:221,0,-2.97477,-10.0718,84.901
2023-03-10 21:45:18:231,0,-2.97041,-10.0896,84.8987
2023-03-10 21:45:18:241,0,-2.96536,-10.1049,84.898
2023-03-10 21:45:18:251,0,-2.95161,-10.117,84.8979
2023-03-10 21:45:18:261,0,-2.93656,-10.1342,84.8974
2023-03-10 21:45:18:271,0,-2.91954,-10.151,84.8995
2023-03-10 21:45:18:281,0,-2.90659,-10.1689,84.9105
2023-03-10 21:45:18:291,0,-2.89599,-10.185,84.922
2023-03-10 21:45:18:301,0,-2.88586,-10.2055,84.935
2023-03-10 21:45:18:311,0,-2.87934,-10.2215,84.947
2023-03-10 21:45:18:321,0,-2.86693,-10.235,84.9569
2023-03-10 21:45:18:331,0,-2.85305,-10.2429,84.9643
2023-03-10 21:45:18:341,0,-2.83664,-10.2481,84.9653
2023-03-10 21:45:18:351,0,-2.81529,-10.2501,84.9663
2023-03-10 21:45:18:361,0,-2.80122,-10.2479,84.967
2023-03-10 21:45:18:371,0,-2.79431,-10.2432,84.9714
2023-03-10 21:45:18:381,0,-2.78499,-10.2443,84.975
2023-03-10 21:45:18:391,0,-2.78395,-10.2426,84.9763
2023-03-10 21:45:18:401,0,-2.77946,-10.2423,84.9743
2023-03-10 21:45:18:411,0,-2.77211,-10.2397,84.9683
2023-03-10 21:45:18:421,0,-2.76468,-10.2338,84.9581
2023-03-10 21:45:18:431,0,-2.75994,-10.2293,84.948
2023-03-10 21:45:18:441,0,-2.75787,-10.2306,84.9362
2023-03-10 21:45:18:451,0,-2.75311,-10.2334,84.9215
2023-03-10 21:45:18:461,0,-2.7484,-10.2333,84.8982
2023-03-10 21:45:18:471,0,-2.74096,-10.2386,84.8717
2023-03-10 21:45:18:481,0,-2.73618,-10.2469,84.8468
2023-03-10 21:45:18:491,0,-2.73172,-10.2476,84.8214
2023-03-10 21:45:18:501,0,-2.7247,-10.2461,84.7947
2023-03-10 21:45:18:511,0,-2.71398,-10.2402,84.7803
2023-03-10 21:45:18:521,0,-2.7125,-10.2265,84.768
2023-03-10 21:45:18:531,0,-2.70914,-10.2098,84.7632
2023-03-10 21:45:18:541,0,-2.70683,-10.196,84.7632
2023-03-10 21:45:18:551,0,-2.70269,-10.1826,84.7646
2023-03-10 21:45:18:561,0,-2.69131,-10.1664,84.7665
2023-03-10 21:45:18:571,0,-2.67448,-10.1436,84.7684
2023-03-10 21:45:18:581,0,-2.65851,-10.1206,84.7689
2023-03-10 21:45:18:591,0,-2.64177,-10.0997,84.7653
2023-03-10 21:45:18:601,0,-2.62715,-10.081,84.7614
2023-03-10 21:45:18:611,0,-2.61535,-10.0701,84.7642
2023-03-10 21:45:18:621,0,-2.60666,-10.066,84.7678
2023-03-10 21:45:18:631,0,-2.60212,-10.0625,84.7765
2023-03-10 21:45:18:641,0,-2.5922,-10.063,84.7872
2023-03-10 21:45:18:651,0,-2.58168,-10.0605,84.7928
2023-03-10 21:45:18:661,0,-2.57294,-10.0569,84.7978
2023-03-10 21:45:18:671,0,-2.56223,-10.0532,84.8027
2023-03-10 21:45:18:680,0,-2.55815,-10.0529,84.8142
2023-03-10 21:45:18:691,0,-2.55894,-10.053,84.8252
2023-03-10 21:45:18:701,0,-2.55921,-10.0514,84.8353
2023-03-10 21:45:18:711,0,-2.55286,-10.0511,84.8452
2023-03-10 21:45:18:721,0,-2.54737,-10.0481,84.8516
2023-03-10 21:45:18:731,0,-2.53916,-10.0482,84.8554
2023-03-10 21:45:18:741,0,-2.53679,-10.0443,84.8594
2023-03-10 21:45:18:751,0,-2.5374,-10.0366,84.8582
2023-03-10 21:45:18:761,0,-2.54024,-10.032,84.8558
2023-03-10 21:45:18:771,0,-2.5483,-10.0313,84.8518
2023-03-10 21:45:18:781,0,-2.55959,-10.0336,84.8439
2023-03-10 21:45:18:791,0,-2.57575,-10.0369,84.8312
2023-03-10 21:45:18:801,0,-2.59329,-10.0407,84.8166
2023-03-10 21:45:18:811,0,-2.60761,-10.0405,84.8026
2023-03-10 21:45:18:821,0,-2.61559,-10.035,84.7795
2023-03-10 21:45:18:831,0,-2.63003,-10.0344,84.7557
2023-03-10 21:45:18:841,0,-2.64108,-10.0319,84.7353
2023-03-10 21:45:18:851,0,-2.65365,-10.03,84.7215
2023-03-10 21:45:18:861,0,-2.66577,-10.0273,84.7107
2023-03-10 21:45:18:871,0,-2.6801,-10.0251,84.7084
2023-03-10 21:45:18:881,0,-2.69648,-10.0154,84.7106
2023-03-10 21:45:18:891,0,-2.7106,-10.0077,84.7188
2023-03-10 21:45:18:901,0,-2.72494,-10.0009,84.7301
2023-03-10 21:45:18:911,0,-2.73536,-9.98962,84.7399
2023-03-10 21:45:18:921,0,-2.74073,-9.98468,84.7559
2023-03-10 21:45:18:931,0,-2.74452,-9.98302,84.7722
2023-03-10 21:45:18:941,0,-2.74413,-9.98438,84.786
2023-03-10 21:45:18:951,0,-2.73991,-9.99586,84.793
2023-03-10 21:45:18:961,0,-2.73335,-10.0032,84.803
2023-03-10 21:45:18:971,0,-2.73016,-10.0137,84.8125
2023-03-10 21:45:18:981,0,-2.72718,-10.0218,84.8181
2023-03-10 21:45:18:991,0,-2.72139,-10.0308,84.8222
2023-03-10 21:45:19:1,0,-2.714,-10.0384,84.8255
2023-03-10 21:45:19:11,0,-2.7077,-10.0455,84.8263
2023-03-10 21:45:19:21,0,-2.70233,-10.0521,84.8279
2023-03-10 21:45:19:31,0,-2.69941,-10.0552,84.8332
2023-03-10 21:45:19:41,0,-2.69865,-10.0609,84.8389
2023-03-10 21:45:19:51,0,-2.70197,-10.0651,84.8478
2023-03-10 21:45:19:61,0,-2.70967,-10.0718,84.8566
2023-03-10 21:45:19:71,0,-2.71463,-10.0762,84.8661
2023-03-10 21:45:19:81,0,-2.71739,-10.0798,84.8744
2023-03-10 21:45:19:91,0,-2.71619,-10.0789,84.8823
2023-03-10 21:45:19:101,0,-2.71286,-10.078,84.8875
2023-03-10 21:45:19:111,0,-2.71076,-10.0747,84.8923
2023-03-10 21:45:19:121,0,-2.71167,-10.0763,84.891
2023-03-10 21:45:19:131,0,-2.71578,-10.078,84.8997
2023-03-10 21:45:19:141,0,-2.72015,-10.0862,84.9083
2023-03-10 21:45:19:151,0,-2.72658,-10.0965,84.9195
2023-03-10 21:45:19:161,0,-2.73249,-10.1089,84.9285
2023-03-10 21:45:19:171,0,-2.73186,-10.1167,84.9359
2023-03-10 21:45:19:181,0,-2.72247,-10.1253,84.9381
2023-03-10 21:45:19:191,0,-2.71084,-10.127,84.9393
2023-03-10 21:45:19:201,0,-2.69628,-10.1283,84.9387
2023-03-10 21:45:19:211,0,-2.68576,-10.1257,84.9384
2023-03-10 21:45:19:221,0,-2.67964,-10.1265,84.9384
2023-03-10 21:45:19:231,0,-2.67504,-10.1247,84.9408
2023-03-10 21:45:19:241,0,-2.67067,-10.1217,84.9447
2023-03-10 21:45:19:251,0,-2.66413,-10.1175,84.9489
2023-03-10 21:45:19:261,0,-2.65349,-10.1156,84.955
2023-03-10 21:45:19:271,0,-2.64263,-10.1145,84.9566
2023-03-10 21:45:19:281,0,-2.62942,-10.1139,84.9616
2023-03-10 21:45:19:291,0,-2.61867,-10.1133,84.9623
2023-03-10 21:45:19:301,0,-2.61569,-10.1175,84.9671
2023-03-10 21:45:19:311,0,-2.62165,-10.1264,84.9722
2023-03-10 21:45:19:321,0,-2.62969,-10.1347,84.9742
2023-03-10 21:45:19:331,0,-2.63829,-10.1503,84.981
2023-03-10 21:45:19:341,0,-2.64079,-10.1687,84.9896
2023-03-10 21:45:19:351,0,-2.63943,-10.1913,84.9962
2023-03-10 21:45:19:361,0,-2.63605,-10.2127,85.0015
2023-03-10 21:45:19:371,0,-2.636,-10.234,85.0026
2023-03-10 21:45:19:381,0,-2.63729,-10.2579,84.9986
2023-03-10 21:45:19:391,0,-2.64024,-10.2795,84.9946
2023-03-10 21:45:19:401,0,-2.64599,-10.3022,84.9833
2023-03-10 21:45:19:411,0,-2.65301,-10.3226,84.9684
2023-03-10 21:45:19:421,0,-2.65781,-10.3404,84.9497
2023-03-10 21:45:19:431,0,-2.65344,-10.3584,84.9245
2023-03-10 21:45:19:441,0,-2.64601,-10.373,84.8991
2023-03-10 21:45:19:451,0,-2.63931,-10.3905,84.8726
2023-03-10 21:45:19:461,0,-2.63465,-10.4073,84.8441
2023-03-10 21:45:19:471,0,-2.63727,-10.4213,84.8162
2023-03-10 21:45:19:481,0,-2.64311,-10.4313,84.7938
2023-03-10 21:45:19:491,0,-2.6467,-10.4373,84.7766
2023-03-10 21:45:19:501,0,-2.64921,-10.4435,84.7654
2023-03-10 21:45:19:511,0,-2.64838,-10.444,84.7637
2023-03-10 21:45:19:521,0,-2.65153,-10.4427,84.7671
2023-03-10 21:45:19:531,0,-2.65673,-10.4358,84.7714
2023-03-10 21:45:19:541,0,-2.65928,-10.4229,84.7731
2023-03-10 21:45:19:551,0,-2.65658,-10.4057,84.7737
2023-03-10 21:45:19:561,0,-2.64963,-10.3887,84.7729
2023-03-10 21:45:19:571,0,-2.64399,-10.3757,84.7749
2023-03-10 21:45:19:581,0,-2.63704,-10.3629,84.7743
2023-03-10 21:45:19:591,0,-2.63602,-10.3502,84.7727
2023-03-10 21:45:19:601,0,-2.63064,-10.3292,84.7696
2023-03-10 21:45:19:611,0,-2.62318,-10.302,84.7656
2023-03-10 21:45:19:621,0,-2.6136,-10.2758,84.7642
2023-03-10 21:45:19:631,0,-2.60729,-10.2457,84.7661
2023-03-10 21:45:19:641,0,-2.60314,-10.2169,84.778
2023-03-10 21:45:19:651,0,-2.60419,-10.1927,84.7939
2023-03-10 21:45:19:661,0,-2.60104,-10.1712,84.8121
2023-03-10 21:45:19:671,0,-2.5954,-10.1554,84.8287
2023-03-10 21:45:19:681,0,-2.58998,-10.1385,84.8414
2023-03-10 21:45:19:691,0,-2.58372,-10.126,84.8443
2023-03-10 21:45:19:701,0,-2.5771,-10.1096,84.8426
2023-03-10 21:45:19:711,0,-2.57001,-10.0935,84.8323
2023-03-10 21:45:19:721,0,-2.56722,-10.0818,84.8131
2023-03-10 21:45:19:731,0,-2.57246,-10.07,84.7889
2023-03-10 21:45:19:741,0,-2.57943,-10.0606,84.7678
2023-03-10 21:45:19:751,0,-2.58969,-10.0528,84.7441
2023-03-10 21:45:19:761,0,-2.60078,-10.0465,84.7228
2023-03-10 21:45:19:771,0,-2.61097,-10.04,84.7043
2023-03-10 21:45:19:781,0,-2.62201,-10.0281,84.6914
2023-03-10 21:45:19:791,0,-2.63858,-10.0201,84.6801
2023-03-10 21:45:19:801,0,-2.65601,-10.006,84.6739
2023-03-10 21:45:19:811,0,-2.67561,-9.99322,84.6772
2023-03-10 21:45:19:821,0,-2.69386,-9.98268,84.6834
2023-03-10 21:45:19:831,0,-2.70889,-9.97625,84.69
2023-03-10 21:45:19:841,0,-2.71781,-9.96934,84.6974
2023-03-10 21:45:19:851,0,-2.72446,-9.96401,84.7058
2023-03-10 21:45:19:861,0,-2.73367,-9.95963,84.7162
2023-03-10 21:45:19:871,0,-2.74124,-9.95578,84.7301
2023-03-10 21:45:19:881,0,-2.75324,-9.95257,84.746
2023-03-10 21:45:19:891,0,-2.76682,-9.94747,84.7635
2023-03-10 21:45:19:901,0,-2.78409,-9.94155,84.7822
2023-03-10 21:45:19:911,0,-2.80032,-9.93244,84.7966
2023-03-10 21:45:19:921,0,-2.81913,-9.91919,84.8019
2023-03-10 21:45:19:931,0,-2.83654,-9.90829,84.8016
2023-03-10 21:45:19:941,0,-2.85042,-9.89501,84.799
2023-03-10 21:45:19:951,0,-2.85759,-9.88399,84.7895
2023-03-10 21:45:19:961,0,-2.86695,-9.87219,84.7796
2023-03-10 21:45:19:971,0,-2.87563,-9.86348,84.7743
2023-03-10 21:45:19:981,0,-2.88288,-9.85539,84.764
2023-03-10 21:45:19:991,0,-2.884,-9.85006,84.7606
2023-03-10 21:45:20:1,0,-2.88472,-9.8434,84.7594
2023-03-10 21:45:20:11,0,-2.87752,-9.83395,84.7591
2023-03-10 21:45:20:21,0,-2.87075,-9.82727,84.765
2023-03-10 21:45:20:31,0,-2.86747,-9.82505,84.7715
2023-03-10 21:45:20:41,0,-2.86285,-9.82219,84.7784
2023-03-10 21:45:20:51,0,-2.85667,-9.8209,84.7849
2023-03-10 21:45:20:61,0,-2.8447,-9.82304,84.793
2023-03-10 21:45:20:71,0,-2.82929,-9.82679,84.8006
2023-03-10 21:45:20:81,0,-2.82067,-9.82759,84.8094
2023-03-10 21:45:20:91,0,-2.81297,-9.82734,84.8205
2023-03-10 21:45:20:101,0,-2.80885,-9.82352,84.8291
2023-03-10 21:45:20:111,0,-2.80823,-9.81832,84.8389
2023-03-10 21:45:20:121,0,-2.81177,-9.80764,84.849
2023-03-10 21:45:20:131,0,-2.81122,-9.8031,84.8612
2023-03-10 21:45:20:141,0,-2.8114,-9.8001,84.8684
2023-03-10 21:45:20:151,0,-2.80875,-9.79398,84.8736
2023-03-10 21:45:20:161,0,-2.80178,-9.78791,84.8771
2023-03-10 21:45:20:171,0,-2.79407,-9.78341,84.8717
2023-03-10 21:45:20:181,0,-2.78618,-9.78076,84.8626
2023-03-10 21:45:20:191,0,-2.77971,-9.77796,84.8509
2023-03-10 21:45:20:201,0,-2.77684,-9.77467,84.8382
2023-03-10 21:45:20:211,0,-2.77936,-9.77524,84.8239
2023-03-10 21:45:20:221,0,-2.7839,-9.78152,84.8171
2023-03-10 21:45:20:231,0,-2.79234,-9.7907,84.8126
2023-03-10 21:45:20:241,0,-2.80208,-9.80314,84.8162
2023-03-10 21:45:20:251,0,-2.81586,-9.8173,84.8262
2023-03-10 21:45:20:261,0,-2.82224,-9.83255,84.8416
2023-03-10 21:45:20:271,0,-2.81941,-9.84553,84.8545
2023-03-10 21:45:20:281,0,-2.80668,-9.85636,84.8713
2023-03-10 21:45:20:291,0,-2.78807,-9.86966,84.8931
2023-03-10 21:45:20:301,0,-2.76936,-9.88006,84.9144
2023-03-10 21:45:20:311,0,-2.74936,-9.88535,84.9329
2023-03-10 21:45:20:321,0,-2.73571,-9.88923,84.9513
2023-03-10 21:45:20:331,0,-2.72052,-9.89168,84.9663
2023-03-10 21:45:20:341,0,-2.70589,-9.88702,84.9791
2023-03-10 21:45:20:351,0,-2.6862,-9.87772,84.9853
2023-03-10 21:45:20:361,0,-2.66555,-9.8667,84.9879
2023-03-10 21:45:20:371,0,-2.64409,-9.85738,84.9878
