Timestamp_cmd,imu_cmd,roll_delta,pitch_delta,yaw_delta,voice_type,voice_length
2023-03-15 15:18:25:548,0,4.09305,-4.695,-14.1568,Q,Q
2023-03-15 15:18:25:556,0,4.09736,-4.6959,-14.1513,Q,Q
2023-03-15 15:18:25:566,0,4.10163,-4.70166,-14.1438,Q,Q
2023-03-15 15:18:25:576,0,4.10602,-4.7134,-14.1369,Q,Q
2023-03-15 15:18:25:586,0,4.10891,-4.72966,-14.1297,Q,Q
2023-03-15 15:18:25:596,0,4.112,-4.75082,-14.1211,Q,Q
2023-03-15 15:18:25:606,0,4.11779,-4.77336,-14.1118,Q,Q
2023-03-15 15:18:25:616,0,4.11985,-4.79728,-14.0992,Q,Q
2023-03-15 15:18:25:626,0,4.12333,-4.82048,-14.0883,Q,Q
2023-03-15 15:18:25:636,0,4.12622,-4.84851,-14.0706,Q,Q
2023-03-15 15:18:25:646,0,4.12393,-4.87902,-14.0573,Q,Q
2023-03-15 15:18:25:656,0,4.12478,-4.90682,-14.0461,Q,Q
2023-03-15 15:18:25:666,0,4.13043,-4.92833,-14.0372,Q,Q
2023-03-15 15:18:25:676,0,4.13943,-4.94471,-14.0301,Q,Q
2023-03-15 15:18:25:686,0,4.15242,-4.95926,-14.0227,Q,Q
2023-03-15 15:18:25:696,0,4.16214,-4.97075,-14.0183,Q,Q
2023-03-15 15:18:25:706,0,4.17084,-4.98079,-14.0172,Q,Q
2023-03-15 15:18:25:716,0,4.17855,-4.98492,-14.0192,Q,Q
2023-03-15 15:18:25:726,0,4.18497,-4.99173,-14.0196,Q,Q
2023-03-15 15:18:25:736,0,4.18711,-4.99625,-14.0242,Q,Q
2023-03-15 15:18:25:746,0,4.18852,-4.9958,-14.0354,Q,Q
2023-03-15 15:18:25:756,0,4.1929,-4.99356,-14.0479,Q,Q
2023-03-15 15:18:25:766,0,4.193,-4.98985,-14.052,Q,Q
2023-03-15 15:18:25:776,0,4.19176,-4.98957,-14.059,Q,Q
2023-03-15 15:18:25:786,0,4.18751,-4.9843,-14.0603,Q,Q
2023-03-15 15:18:25:796,0,4.18487,-4.98435,-14.0595,Q,Q
2023-03-15 15:18:25:806,0,4.18365,-4.98536,-14.0519,Q,Q
2023-03-15 15:18:25:816,0,4.18112,-4.9916,-14.0353,Q,Q
2023-03-15 15:18:25:826,0,4.17265,-4.99626,-14.0208,Q,Q
2023-03-15 15:18:25:836,0,4.16272,-4.99722,-14.0085,Q,Q
2023-03-15 15:18:25:846,0,4.14669,-4.99912,-13.9984,Q,Q
2023-03-15 15:18:25:856,0,4.12764,-4.99735,-13.9922,Q,Q
2023-03-15 15:18:25:866,0,4.1101,-4.99723,-13.9846,Q,Q
2023-03-15 15:18:25:876,0,4.09253,-5.0018,-13.9813,Q,Q
2023-03-15 15:18:25:886,0,4.07187,-5.00948,-13.9768,Q,Q
2023-03-15 15:18:25:896,0,4.05702,-5.0178,-13.9737,Q,Q
2023-03-15 15:18:25:906,0,4.04683,-5.02666,-13.9748,Q,Q
2023-03-15 15:18:25:916,0,4.04265,-5.03449,-13.979,Q,Q
2023-03-15 15:18:25:926,0,4.04316,-5.03893,-13.9883,Q,Q
2023-03-15 15:18:25:936,0,4.03967,-5.03889,-13.9984,Q,Q
2023-03-15 15:18:25:946,0,4.03776,-5.03577,-14.0064,Q,Q
2023-03-15 15:18:25:956,0,4.03035,-5.0316,-14.017,Q,Q
2023-03-15 15:18:25:966,0,4.02381,-5.02522,-14.0289,Q,Q
2023-03-15 15:18:25:976,0,4.01397,-5.01872,-14.0379,Q,Q
2023-03-15 15:18:25:986,0,4.00601,-5.0103,-14.0507,Q,Q
2023-03-15 15:18:25:996,0,3.99462,-5.00223,-14.0643,Q,Q
2023-03-15 15:18:26:6,0,3.98704,-4.99279,-14.076,Q,Q
2023-03-15 15:18:26:16,0,3.98083,-4.97884,-14.0895,Q,Q
2023-03-15 15:18:26:26,0,3.96666,-4.96168,-14.1008,Q,Q
2023-03-15 15:18:26:36,0,3.95788,-4.94034,-14.1169,Q,Q
2023-03-15 15:18:26:46,0,3.95144,-4.92137,-14.131,Q,Q
2023-03-15 15:18:26:56,0,3.95124,-4.90506,-14.1418,Q,Q
2023-03-15 15:18:26:66,0,3.95049,-4.89024,-14.1532,Q,Q
2023-03-15 15:18:26:76,0,3.95213,-4.87832,-14.1634,Q,Q
2023-03-15 15:18:26:86,0,3.95612,-4.86747,-14.1779,Q,Q
2023-03-15 15:18:26:96,0,3.96413,-4.85448,-14.1871,Q,Q
2023-03-15 15:18:26:106,0,3.96806,-4.84636,-14.1956,Q,Q
2023-03-15 15:18:26:116,0,3.97371,-4.84288,-14.2005,Q,Q
2023-03-15 15:18:26:126,0,3.9784,-4.83739,-14.2005,Q,Q
2023-03-15 15:18:26:136,0,3.98009,-4.83249,-14.1973,Q,Q
2023-03-15 15:18:26:146,0,3.98822,-4.83276,-14.1948,Q,Q
2023-03-15 15:18:26:156,0,3.99314,-4.82835,-14.1933,Q,Q
2023-03-15 15:18:26:166,0,3.99916,-4.82851,-14.1865,Q,Q
2023-03-15 15:18:26:176,0,4.00558,-4.83255,-14.1822,Q,Q
2023-03-15 15:18:26:186,0,4.0079,-4.83808,-14.1796,Q,Q
2023-03-15 15:18:26:196,0,4.00949,-4.84078,-14.175,Q,Q
2023-03-15 15:18:26:206,0,4.01262,-4.84547,-14.1686,Q,Q
2023-03-15 15:18:26:216,0,4.01746,-4.85111,-14.1569,Q,Q
2023-03-15 15:18:26:226,0,4.01928,-4.85339,-14.1467,Q,Q
2023-03-15 15:18:26:236,0,4.02778,-4.85311,-14.1342,Q,Q
2023-03-15 15:18:26:246,0,4.03284,-4.85301,-14.1185,Q,Q
2023-03-15 15:18:26:256,0,4.03416,-4.8634,-14.0955,Q,Q
2023-03-15 15:18:26:266,0,4.02636,-4.87995,-14.0762,Q,Q
2023-03-15 15:18:26:276,0,4.01521,-4.89961,-14.0626,Q,Q
2023-03-15 15:18:26:286,0,4.00851,-4.91116,-14.0532,Q,Q
2023-03-15 15:18:26:296,0,4.01004,-4.91985,-14.0471,Q,Q
2023-03-15 15:18:26:306,0,4.01558,-4.93465,-14.0397,Q,Q
2023-03-15 15:18:26:316,0,4.01549,-4.94706,-14.0308,Q,Q
2023-03-15 15:18:26:326,0,4.01406,-4.95726,-14.028,Q,Q
2023-03-15 15:18:26:336,0,4.01949,-4.95721,-14.033,Q,Q
2023-03-15 15:18:26:346,0,4.0349,-4.95187,-14.034,Q,Q
2023-03-15 15:18:26:356,0,4.04738,-4.95309,-14.0328,Q,Q
2023-03-15 15:18:26:366,0,4.0455,-4.96654,-14.0325,Q,Q
2023-03-15 15:18:26:376,0,4.03496,-4.97612,-14.0337,Q,Q
2023-03-15 15:18:26:386,0,4.03171,-4.98475,-14.0428,Q,Q
2023-03-15 15:18:26:396,0,4.03144,-4.98662,-14.0477,Q,Q
2023-03-15 15:18:26:406,0,4.03492,-4.98885,-14.0492,Q,Q
2023-03-15 15:18:26:416,0,4.03569,-4.99014,-14.0476,Q,Q
2023-03-15 15:18:26:426,0,4.03587,-4.98723,-14.0465,Q,Q
2023-03-15 15:18:26:436,0,4.03835,-4.98568,-14.0493,Q,Q
2023-03-15 15:18:26:446,0,4.03996,-4.98461,-14.0541,Q,Q
2023-03-15 15:18:26:456,0,4.03897,-4.98291,-14.0585,Q,Q
2023-03-15 15:18:26:466,0,4.03879,-4.98148,-14.062,Q,Q
2023-03-15 15:18:26:476,0,4.03911,-4.9794,-14.0667,Q,Q
2023-03-15 15:18:26:486,0,4.03605,-4.97545,-14.0728,Q,Q
2023-03-15 15:18:26:496,0,4.03378,-4.97081,-14.0775,Q,Q
2023-03-15 15:18:26:506,0,4.02797,-4.96601,-14.0831,Q,Q
2023-03-15 15:18:26:516,0,4.02196,-4.96045,-14.0877,Q,Q
2023-03-15 15:18:26:526,0,4.02371,-4.95761,-14.0916,Q,Q
2023-03-15 15:18:26:536,0,4.021,-4.95429,-14.096,Q,Q
2023-03-15 15:18:26:546,0,4.01686,-4.95027,-14.0993,Q,Q
2023-03-15 15:18:26:556,0,4.01686,-4.94656,-14.1028,Q,Q
2023-03-15 15:18:26:566,0,4.01738,-4.94024,-14.1086,Q,Q
2023-03-15 15:18:26:576,0,4.01613,-4.93338,-14.114,Q,Q
2023-03-15 15:18:26:586,0,4.01475,-4.92853,-14.1216,Q,Q
2023-03-15 15:18:26:596,0,4.01032,-4.91946,-14.128,Q,Q
2023-03-15 15:18:26:606,0,4.00894,-4.91493,-14.1336,Q,Q
2023-03-15 15:18:26:616,0,4.00804,-4.91708,-14.1375,Q,Q
2023-03-15 15:18:26:626,0,4.00431,-4.9162,-14.1418,Q,Q
2023-03-15 15:18:26:636,0,4.0032,-4.91345,-14.1502,Q,Q
2023-03-15 15:18:26:646,0,4.00669,-4.90788,-14.1549,Q,Q
2023-03-15 15:18:26:656,0,4.01348,-4.90544,-14.156,Q,Q
2023-03-15 15:18:26:666,0,4.01544,-4.91316,-14.149,Q,Q
2023-03-15 15:18:26:676,0,4.01325,-4.92161,-14.1407,Q,Q
2023-03-15 15:18:26:686,0,4.00649,-4.92969,-14.1272,Q,Q
2023-03-15 15:18:26:696,0,3.99382,-4.93171,-14.1151,Q,Q
2023-03-15 15:18:26:706,0,3.98401,-4.93552,-14.1055,Q,Q
2023-03-15 15:18:26:716,0,3.97408,-4.93486,-14.099,Q,Q
2023-03-15 15:18:26:728,0,3.966,-4.93761,-14.0954,Q,Q
2023-03-15 15:18:26:736,0,3.96408,-4.93992,-14.097,Q,Q
2023-03-15 15:18:26:746,0,3.96109,-4.93762,-14.0994,Q,Q
2023-03-15 15:18:26:756,0,3.9642,-4.93301,-14.108,Q,Q
2023-03-15 15:18:26:766,0,3.97052,-4.93203,-14.1188,Q,Q
2023-03-15 15:18:26:776,0,3.97734,-4.92565,-14.1333,Q,Q
2023-03-15 15:18:26:786,0,3.98043,-4.91715,-14.1508,Q,Q
2023-03-15 15:18:26:796,0,3.98632,-4.90826,-14.1696,Q,Q
2023-03-15 15:18:26:806,0,3.98883,-4.89704,-14.1868,Q,Q
2023-03-15 15:18:26:816,0,3.99199,-4.88382,-14.2033,Q,Q
2023-03-15 15:18:26:826,0,3.99266,-4.87012,-14.2203,Q,Q
2023-03-15 15:18:26:836,0,3.98789,-4.85788,-14.2366,Q,Q
2023-03-15 15:18:26:846,0,3.98292,-4.84348,-14.2467,Q,Q
2023-03-15 15:18:26:856,0,3.9734,-4.82999,-14.256,Q,Q
2023-03-15 15:18:26:866,0,3.96365,-4.81534,-14.2699,Q,Q
2023-03-15 15:18:26:876,0,3.95296,-4.79784,-14.2879,Q,Q
2023-03-15 15:18:26:886,0,3.95095,-4.77812,-14.3096,Q,Q
2023-03-15 15:18:26:896,0,3.94992,-4.7635,-14.3269,Q,Q
2023-03-15 15:18:26:906,0,3.95235,-4.75374,-14.339,Q,Q
2023-03-15 15:18:26:916,0,3.95208,-4.74717,-14.3565,Q,Q
2023-03-15 15:18:26:926,0,3.95146,-4.73481,-14.3708,Q,Q
2023-03-15 15:18:26:936,0,3.95119,-4.72334,-14.3915,Q,Q
2023-03-15 15:18:26:946,0,3.95248,-4.71492,-14.4084,Q,Q
2023-03-15 15:18:26:956,0,3.95714,-4.70516,-14.4257,Q,Q
2023-03-15 15:18:26:966,0,3.9618,-4.70126,-14.4433,Q,Q
2023-03-15 15:18:26:976,0,3.9646,-4.69834,-14.4656,Q,Q
2023-03-15 15:18:26:986,0,3.96958,-4.69671,-14.4805,Q,Q
2023-03-15 15:18:26:996,0,3.97495,-4.69878,-14.4967,Q,Q
2023-03-15 15:18:27:6,0,3.9846,-4.69808,-14.5125,Q,Q
2023-03-15 15:18:27:16,0,3.99224,-4.70046,-14.5244,Q,Q
2023-03-15 15:18:27:26,0,4.00068,-4.70608,-14.5342,Q,Q
2023-03-15 15:18:27:36,0,4.00824,-4.71097,-14.5409,Q,Q
2023-03-15 15:18:27:46,0,4.00807,-4.71481,-14.5433,Q,Q
2023-03-15 15:18:27:56,0,4.00906,-4.72043,-14.5415,Q,Q
2023-03-15 15:18:27:66,0,4.01071,-4.72727,-14.5402,Q,Q
2023-03-15 15:18:27:76,0,4.01301,-4.73478,-14.536,Q,Q
2023-03-15 15:18:27:86,0,4.01694,-4.74062,-14.53,Q,Q
2023-03-15 15:18:27:96,0,4.01545,-4.74509,-14.5229,Q,Q
2023-03-15 15:18:27:106,0,4.01476,-4.74823,-14.5133,Q,Q
2023-03-15 15:18:27:116,0,4.015,-4.74676,-14.5094,Q,Q
2023-03-15 15:18:27:126,0,4.01526,-4.7456,-14.5058,Q,Q
2023-03-15 15:18:27:136,0,4.0133,-4.74424,-14.5021,Q,Q
2023-03-15 15:18:27:146,0,4.01204,-4.74048,-14.5037,Q,Q
2023-03-15 15:18:27:156,0,4.01016,-4.73594,-14.509,Q,Q
2023-03-15 15:18:27:166,0,4.0088,-4.72982,-14.5133,Q,Q
2023-03-15 15:18:27:176,0,4.00789,-4.72087,-14.5177,Q,Q
2023-03-15 15:18:27:186,0,4.01111,-4.71176,-14.5235,Q,Q
2023-03-15 15:18:27:196,0,4.01093,-4.70842,-14.5299,Q,Q
2023-03-15 15:18:27:206,0,4.0142,-4.70423,-14.5362,Q,Q
2023-03-15 15:18:27:216,0,4.01653,-4.69953,-14.5421,Q,Q
2023-03-15 15:18:27:226,0,4.01834,-4.696,-14.5499,Q,Q
2023-03-15 15:18:27:236,0,4.02169,-4.69276,-14.5568,Q,Q
2023-03-15 15:18:27:246,0,4.02296,-4.69451,-14.5636,Q,Q
2023-03-15 15:18:27:256,0,4.02522,-4.69417,-14.5702,Q,Q
2023-03-15 15:18:27:266,0,4.02423,-4.69943,-14.5741,Q,Q
2023-03-15 15:18:27:276,0,4.02704,-4.70714,-14.578,Q,Q
2023-03-15 15:18:27:286,0,4.02979,-4.71376,-14.5769,Q,Q
2023-03-15 15:18:27:296,0,4.03383,-4.71817,-14.5748,Q,Q
2023-03-15 15:18:27:306,0,4.03473,-4.72115,-14.5726,Q,Q
2023-03-15 15:18:27:316,0,4.03257,-4.72761,-14.5722,Q,Q
2023-03-15 15:18:27:326,0,4.03306,-4.73348,-14.5672,Q,Q
2023-03-15 15:18:27:336,0,4.02818,-4.74105,-14.5626,Q,Q
2023-03-15 15:18:27:346,0,4.02795,-4.74384,-14.5637,Q,Q
2023-03-15 15:18:27:356,0,4.02991,-4.74992,-14.5598,Q,Q
2023-03-15 15:18:27:366,0,4.02713,-4.75407,-14.5564,Q,Q
2023-03-15 15:18:27:376,0,4.02247,-4.75956,-14.5529,Q,Q
2023-03-15 15:18:27:386,0,4.02197,-4.76601,-14.555,Q,Q
2023-03-15 15:18:27:396,0,4.02069,-4.76914,-14.5625,Q,Q
2023-03-15 15:18:27:406,0,4.01764,-4.7723,-14.5742,Q,Q
2023-03-15 15:18:27:416,0,4.01377,-4.76966,-14.5968,Q,Q
2023-03-15 15:18:27:426,0,4.01157,-4.7565,-14.6248,Q,Q
2023-03-15 15:18:27:436,0,4.01063,-4.74047,-14.6552,Q,Q
2023-03-15 15:18:27:446,0,4.0128,-4.72331,-14.6852,Q,Q
2023-03-15 15:18:27:456,0,4.0141,-4.70933,-14.7069,Q,Q
2023-03-15 15:18:27:466,0,4.01683,-4.69795,-14.7205,Q,Q
2023-03-15 15:18:27:476,0,4.02991,-4.68952,-14.7312,Q,Q
2023-03-15 15:18:27:486,0,4.04611,-4.68674,-14.7326,Q,Q
2023-03-15 15:18:27:496,0,4.06618,-4.68779,-14.7237,Q,Q
2023-03-15 15:18:27:506,0,4.08354,-4.69818,-14.7097,Q,Q
2023-03-15 15:18:27:516,0,4.09769,-4.70192,-14.6917,Q,Q
2023-03-15 15:18:27:526,0,4.1008,-4.71175,-14.6748,Q,Q
2023-03-15 15:18:27:536,0,4.10591,-4.7278,-14.6571,Q,Q
2023-03-15 15:18:27:546,0,4.10996,-4.74307,-14.6412,Q,Q
2023-03-15 15:18:27:556,0,4.119,-4.7587,-14.6227,Q,Q
2023-03-15 15:18:27:566,0,4.13698,-4.77774,-14.6013,Q,Q
2023-03-15 15:18:27:576,0,4.16025,-4.79543,-14.5795,Q,Q
2023-03-15 15:18:27:586,0,4.183,-4.81359,-14.5543,Q,Q
2023-03-15 15:18:27:596,0,4.21348,-4.82965,-14.5214,Q,Q
2023-03-15 15:18:27:606,0,4.24296,-4.84311,-14.4864,Q,Q
2023-03-15 15:18:27:616,0,4.2693,-4.85922,-14.4458,Q,Q
2023-03-15 15:18:27:626,0,4.28807,-4.87553,-14.4063,Q,Q
2023-03-15 15:18:27:636,0,4.29837,-4.89087,-14.3555,Q,Q
2023-03-15 15:18:27:646,0,4.30715,-4.90739,-14.304,Q,Q
2023-03-15 15:18:27:656,0,4.30849,-4.92833,-14.2513,Q,Q
2023-03-15 15:18:27:666,0,4.30992,-4.94965,-14.2006,Q,Q
2023-03-15 15:18:27:676,0,4.31081,-4.97144,-14.1498,Q,Q
2023-03-15 15:18:27:686,0,4.30503,-4.99669,-14.0984,Q,Q
2023-03-15 15:18:27:696,0,4.30133,-5.01617,-14.0501,Q,Q
2023-03-15 15:18:27:706,0,4.29537,-5.03122,-14.0067,Q,Q
2023-03-15 15:18:27:716,0,4.29291,-5.0413,-13.9651,Q,Q
2023-03-15 15:18:27:726,0,4.29329,-5.0595,-13.9218,Q,Q
2023-03-15 15:18:27:736,0,4.29796,-5.0768,-13.8816,Q,Q
2023-03-15 15:18:27:746,0,4.29684,-5.09935,-13.8403,Q,Q
2023-03-15 15:18:27:756,0,4.29544,-5.11917,-13.805,Q,Q
2023-03-15 15:18:27:766,0,4.28769,-5.13967,-13.7809,Q,Q
2023-03-15 15:18:27:776,0,4.27621,-5.16011,-13.7644,Q,Q
2023-03-15 15:18:27:786,0,4.2582,-5.17625,-13.7598,Q,Q
2023-03-15 15:18:27:796,0,4.23723,-5.1902,-13.7684,Q,Q
2023-03-15 15:18:27:806,0,4.20099,-5.20035,-13.7858,Q,Q
2023-03-15 15:18:27:816,0,4.17083,-5.20952,-13.8151,Q,Q
2023-03-15 15:18:27:826,0,4.13915,-5.21308,-13.8514,Q,Q
2023-03-15 15:18:27:836,0,4.10578,-5.21383,-13.8955,Q,Q
2023-03-15 15:18:27:846,0,4.07295,-5.20948,-13.9414,Q,Q
2023-03-15 15:18:27:856,0,4.03935,-5.20026,-13.9901,Q,Q
2023-03-15 15:18:27:866,0,4.01304,-5.18273,-14.0398,Q,Q
2023-03-15 15:18:27:876,0,3.99192,-5.16702,-14.0832,Q,Q
2023-03-15 15:18:27:886,0,3.97002,-5.14852,-14.1285,Q,Q
2023-03-15 15:18:27:896,0,3.95398,-5.1301,-14.1682,Q,Q
2023-03-15 15:18:27:906,0,3.94387,-5.11649,-14.1966,Q,Q
2023-03-15 15:18:27:916,0,3.93539,-5.10713,-14.2173,Q,Q
2023-03-15 15:18:27:926,0,3.93601,-5.09691,-14.2298,Q,Q
2023-03-15 15:18:27:936,0,3.94162,-5.09108,-14.2323,Q,Q
2023-03-15 15:18:27:946,0,3.94898,-5.09118,-14.2285,Q,Q
2023-03-15 15:18:27:956,0,3.95678,-5.08837,-14.2178,Q,Q
2023-03-15 15:18:27:966,0,3.9657,-5.08206,-14.2014,Q,Q
2023-03-15 15:18:27:976,0,3.9732,-5.07371,-14.185,Q,Q
2023-03-15 15:18:27:986,0,3.98667,-5.06565,-14.1602,Q,Q
2023-03-15 15:18:27:996,0,4.00847,-5.06234,-14.1275,Q,Q
2023-03-15 15:18:28:6,0,4.0418,-5.06564,-14.0836,Q,Q
2023-03-15 15:18:28:16,0,4.08705,-5.07411,-14.0328,Q,Q
2023-03-15 15:18:28:26,0,4.15057,-5.08142,-13.9754,Q,Q
2023-03-15 15:18:28:36,0,4.22663,-5.09486,-13.904,Q,Q
2023-03-15 15:18:28:46,0,4.301,-5.10946,-13.8224,Q,Q
2023-03-15 15:18:28:56,0,4.36577,-5.12582,-13.739,Q,Q
2023-03-15 15:18:28:66,0,4.4247,-5.14843,-13.6637,Q,Q
2023-03-15 15:18:28:76,0,4.46757,-5.1784,-13.5901,Q,Q
2023-03-15 15:18:28:86,0,4.50207,-5.21893,-13.5243,Q,Q
2023-03-15 15:18:28:96,0,4.52806,-5.26543,-13.468,Q,Q
2023-03-15 15:18:28:106,0,4.54222,-5.31873,-13.4206,Q,Q
2023-03-15 15:18:28:116,0,4.54611,-5.36714,-13.3904,Q,Q
2023-03-15 15:18:28:126,0,4.54981,-5.41714,-13.3776,Q,Q
2023-03-15 15:18:28:136,0,4.54435,-5.46437,-13.3785,Q,Q
2023-03-15 15:18:28:146,0,4.53758,-5.50587,-13.3895,Q,Q
2023-03-15 15:18:28:156,0,4.53182,-5.5415,-13.4152,Q,Q
2023-03-15 15:18:28:166,0,4.53167,-5.56884,-13.4435,Q,Q
2023-03-15 15:18:28:176,0,4.53796,-5.59111,-13.4674,Q,Q
2023-03-15 15:18:28:186,0,4.55022,-5.60874,-13.4868,Q,Q
2023-03-15 15:18:28:196,0,4.56389,-5.61902,-13.5056,Q,Q
2023-03-15 15:18:28:206,0,4.57906,-5.62358,-13.5099,Q,Q
2023-03-15 15:18:28:216,0,4.59664,-5.62414,-13.5052,Q,Q
2023-03-15 15:18:28:226,0,4.61382,-5.62176,-13.4896,Q,Q
2023-03-15 15:18:28:236,0,4.62448,-5.61468,-13.4655,Q,Q
2023-03-15 15:18:28:246,0,4.63296,-5.60379,-13.4278,Q,Q
2023-03-15 15:18:28:256,0,4.63565,-5.59182,-13.3842,Q,Q
2023-03-15 15:18:28:266,0,4.63022,-5.58157,-13.3389,Q,Q
2023-03-15 15:18:28:276,0,4.61899,-5.57166,-13.3003,Q,Q
2023-03-15 15:18:28:286,0,4.60893,-5.56119,-13.2612,Q,Q
2023-03-15 15:18:28:296,0,4.602,-5.55901,-13.2273,Q,Q
2023-03-15 15:18:28:306,0,4.59536,-5.55776,-13.1919,Q,Q
2023-03-15 15:18:28:316,0,4.58465,-5.56417,-13.1559,Q,Q
2023-03-15 15:18:28:326,0,4.57692,-5.57096,-13.1239,Q,Q
2023-03-15 15:18:28:336,0,4.5681,-5.57753,-13.0936,Q,Q
2023-03-15 15:18:28:346,0,4.56284,-5.57725,-13.0646,Q,Q
2023-03-15 15:18:28:356,0,4.55639,-5.57223,-13.0433,Q,Q
2023-03-15 15:18:28:366,0,4.54851,-5.56313,-13.0304,Q,Q
2023-03-15 15:18:28:376,0,4.53776,-5.5442,-13.0349,Q,Q
2023-03-15 15:18:28:386,0,4.52015,-5.51394,-13.0601,Q,Q
2023-03-15 15:18:28:396,0,4.50148,-5.46671,-13.1108,Q,Q
2023-03-15 15:18:28:406,0,4.47581,-5.41269,-13.1795,Q,Q
2023-03-15 15:18:28:416,0,4.44945,-5.34668,-13.2664,Q,Q
2023-03-15 15:18:28:426,0,4.421,-5.27778,-13.3662,Q,Q
2023-03-15 15:18:28:436,0,4.39411,-5.21705,-13.473,Q,Q
2023-03-15 15:18:28:446,0,4.37061,-5.16336,-13.5724,Q,Q
2023-03-15 15:18:28:456,0,4.35717,-5.12649,-13.662,Q,Q
2023-03-15 15:18:28:466,0,4.35701,-5.09518,-13.7325,Q,Q
2023-03-15 15:18:28:476,0,4.36391,-5.08043,-13.7845,Q,Q
2023-03-15 15:18:28:486,0,4.38115,-5.07769,-13.81,Q,Q
2023-03-15 15:18:28:496,0,4.40215,-5.08112,-13.8121,Q,Q
2023-03-15 15:18:28:506,0,4.42045,-5.096,-13.7854,Q,Q
2023-03-15 15:18:28:516,0,4.43868,-5.11732,-13.7349,Q,Q
2023-03-15 15:18:28:526,0,4.45869,-5.14558,-13.6579,Q,Q
2023-03-15 15:18:28:536,0,4.47578,-5.18178,-13.5578,Q,Q
2023-03-15 15:18:28:546,0,4.48827,-5.22467,-13.4331,Q,Q
2023-03-15 15:18:28:556,0,4.49793,-5.27169,-13.2951,Q,Q
2023-03-15 15:18:28:566,0,4.49785,-5.31903,-13.1526,Q,Q
2023-03-15 15:18:28:576,0,4.49012,-5.36889,-13.0159,Q,Q
2023-03-15 15:18:28:586,0,4.47744,-5.4174,-12.8759,Q,Q
2023-03-15 15:18:28:596,0,4.45222,-5.46188,-12.7508,Q,Q
2023-03-15 15:18:28:606,0,4.42671,-5.50018,-12.6358,Q,Q
2023-03-15 15:18:28:616,0,4.4019,-5.53077,-12.5351,Q,Q
2023-03-15 15:18:28:626,0,4.37674,-5.55442,-12.4536,Q,Q
2023-03-15 15:18:28:636,0,4.35727,-5.571,-12.3922,Q,Q
2023-03-15 15:18:28:646,0,4.34371,-5.58084,-12.3519,Q,Q
2023-03-15 15:18:28:656,0,4.34361,-5.58612,-12.3303,Q,Q
2023-03-15 15:18:28:666,0,4.34977,-5.58459,-12.3229,Q,Q
2023-03-15 15:18:28:676,0,4.36647,-5.58492,-12.3274,Q,Q
2023-03-15 15:18:28:686,0,4.39188,-5.58697,-12.3439,Q,Q
2023-03-15 15:18:28:696,0,4.41925,-5.59109,-12.3659,Q,Q
2023-03-15 15:18:28:706,0,4.45213,-5.59346,-12.3916,Q,Q
2023-03-15 15:18:28:716,0,4.48657,-5.59576,-12.4215,Q,Q
2023-03-15 15:18:28:726,0,4.52255,-5.5955,-12.4494,Q,Q
2023-03-15 15:18:28:736,0,4.55984,-5.59583,-12.4729,Q,Q
2023-03-15 15:18:28:746,0,4.59279,-5.59236,-12.4934,Q,Q
2023-03-15 15:18:28:756,0,4.62829,-5.59051,-12.5069,Q,Q
2023-03-15 15:18:28:766,0,4.66268,-5.5886,-12.5118,Q,Q
2023-03-15 15:18:28:776,0,4.69362,-5.5849,-12.5071,Q,Q
2023-03-15 15:18:28:786,0,4.72679,-5.58436,-12.4953,Q,Q
2023-03-15 15:18:28:796,0,4.76081,-5.5844,-12.48,Q,Q
2023-03-15 15:18:28:806,0,4.79204,-5.58162,-12.462,Q,Q
2023-03-15 15:18:28:816,0,4.82265,-5.58073,-12.4411,Q,Q
2023-03-15 15:18:28:826,0,4.85352,-5.58148,-12.4172,Q,Q
2023-03-15 15:18:28:836,0,4.88053,-5.58084,-12.3931,Q,Q
2023-03-15 15:18:28:846,0,4.90784,-5.57218,-12.3746,Q,Q
2023-03-15 15:18:28:856,0,4.93816,-5.5661,-12.3624,Q,Q
2023-03-15 15:18:28:866,0,4.962,-5.56488,-12.3519,Q,Q
2023-03-15 15:18:28:876,0,4.97532,-5.57319,-12.3482,Q,Q
2023-03-15 15:18:28:886,0,4.98178,-5.57929,-12.3509,Q,Q
2023-03-15 15:18:28:896,0,4.98994,-5.58918,-12.3571,Q,Q
2023-03-15 15:18:28:906,0,4.99804,-5.59975,-12.3632,Q,Q
2023-03-15 15:18:28:916,0,5.00266,-5.6077,-12.3702,Q,Q
2023-03-15 15:18:28:926,0,4.99937,-5.61463,-12.3707,Q,Q
2023-03-15 15:18:28:936,0,4.99998,-5.61862,-12.3699,Q,Q
2023-03-15 15:18:28:946,0,5.00278,-5.62129,-12.3658,Q,Q
2023-03-15 15:18:28:956,0,5.00756,-5.62333,-12.3539,Q,Q
2023-03-15 15:18:28:966,0,5.01057,-5.62748,-12.3357,Q,Q
2023-03-15 15:18:28:976,0,5.01878,-5.62751,-12.3132,Q,Q
2023-03-15 15:18:28:986,0,5.02854,-5.6304,-12.2876,Q,Q
2023-03-15 15:18:28:996,0,5.03448,-5.63622,-12.2616,Q,Q
2023-03-15 15:18:29:6,0,5.03706,-5.6432,-12.2285,Q,Q
2023-03-15 15:18:29:16,0,5.03858,-5.64781,-12.1996,Q,Q
2023-03-15 15:18:29:26,0,5.03703,-5.65042,-12.171,Q,Q
2023-03-15 15:18:29:36,0,5.03937,-5.6583,-12.1447,Q,Q
2023-03-15 15:18:29:46,0,5.03874,-5.66763,-12.1152,Q,Q
2023-03-15 15:18:29:56,0,5.03626,-5.68066,-12.088,Q,Q
2023-03-15 15:18:29:66,0,5.03287,-5.69303,-12.0623,Q,Q
2023-03-15 15:18:29:76,0,5.03929,-5.70696,-12.0373,Q,Q
2023-03-15 15:18:29:86,0,5.04633,-5.72959,-12.0072,Q,Q
2023-03-15 15:18:29:96,0,5.05191,-5.75164,-11.9748,Q,Q
2023-03-15 15:18:29:106,0,5.0503,-5.77206,-11.9383,Q,Q
2023-03-15 15:18:29:116,0,5.04232,-5.79601,-11.897,Q,Q
2023-03-15 15:18:29:126,0,5.03286,-5.81602,-11.8595,Q,Q
2023-03-15 15:18:29:136,0,5.01999,-5.8307,-11.8218,Q,Q
2023-03-15 15:18:29:146,0,5.00354,-5.84834,-11.785,Q,Q
2023-03-15 15:18:29:156,0,4.99356,-5.86305,-11.7541,Q,Q
2023-03-15 15:18:29:166,0,4.98148,-5.87527,-11.7241,Q,Q
2023-03-15 15:18:29:176,0,4.97425,-5.88917,-11.7024,Q,Q
2023-03-15 15:18:29:186,0,4.97275,-5.89341,-11.6847,Q,Q
2023-03-15 15:18:29:196,0,4.97166,-5.89768,-11.6735,Q,Q
2023-03-15 15:18:29:206,0,4.96782,-5.89879,-11.6642,Q,Q
2023-03-15 15:18:29:216,0,4.96233,-5.89748,-11.6613,Q,Q
2023-03-15 15:18:29:226,0,4.95263,-5.89837,-11.6586,Q,Q
2023-03-15 15:18:29:236,0,4.94004,-5.89526,-11.656,Q,Q
2023-03-15 15:18:29:246,0,4.92633,-5.89273,-11.6597,Q,Q
2023-03-15 15:18:29:256,0,4.90977,-5.88731,-11.6597,Q,Q
2023-03-15 15:18:29:266,0,4.89754,-5.88165,-11.658,Q,Q
2023-03-15 15:18:29:276,0,4.88266,-5.8775,-11.661,Q,Q
2023-03-15 15:18:29:286,0,4.86839,-5.8718,-11.66,Q,Q
2023-03-15 15:18:29:296,0,4.85618,-5.8631,-11.661,Q,Q
2023-03-15 15:18:29:306,0,4.84452,-5.85271,-11.6624,Q,Q
2023-03-15 15:18:29:316,0,4.83846,-5.84963,-11.6631,Q,Q
2023-03-15 15:18:29:326,0,4.83455,-5.84593,-11.6622,Q,Q
2023-03-15 15:18:29:336,0,4.83117,-5.84605,-11.6596,Q,Q
2023-03-15 15:18:29:346,0,4.83178,-5.84729,-11.6622,Q,Q
2023-03-15 15:18:29:356,0,4.83091,-5.84565,-11.6628,Q,Q
2023-03-15 15:18:29:366,0,4.8332,-5.84619,-11.6672,Q,Q
2023-03-15 15:18:29:376,0,4.83396,-5.84358,-11.6709,Q,Q
2023-03-15 15:18:29:386,0,4.8431,-5.84408,-11.6716,Q,Q
2023-03-15 15:18:29:396,0,4.851,-5.84027,-11.6735,Q,Q
2023-03-15 15:18:29:406,0,4.85731,-5.83678,-11.6751,Q,Q
2023-03-15 15:18:29:416,0,4.86735,-5.83496,-11.6768,Q,Q
2023-03-15 15:18:29:426,0,4.87427,-5.83449,-11.6763,Q,Q
2023-03-15 15:18:29:436,0,4.88119,-5.83186,-11.6746,Q,Q
2023-03-15 15:18:29:446,0,4.88997,-5.82912,-11.6767,Q,Q
2023-03-15 15:18:29:456,0,4.90044,-5.82701,-11.6755,Q,Q
2023-03-15 15:18:29:466,0,4.90766,-5.82568,-11.6748,Q,Q
2023-03-15 15:18:29:476,0,4.91355,-5.82764,-11.6734,Q,Q
2023-03-15 15:18:29:486,0,4.91827,-5.82747,-11.6704,Q,Q
2023-03-15 15:18:29:496,0,4.92034,-5.82877,-11.6648,Q,Q
2023-03-15 15:18:29:506,0,4.9232,-5.83194,-11.6603,Q,Q
2023-03-15 15:18:29:516,0,4.92515,-5.83525,-11.6523,Q,Q
2023-03-15 15:18:29:526,0,4.9279,-5.8375,-11.6436,Q,Q
2023-03-15 15:18:29:536,0,4.92943,-5.83654,-11.6395,Q,Q
2023-03-15 15:18:29:546,0,4.93397,-5.83675,-11.6353,Q,Q
2023-03-15 15:18:29:556,0,4.93559,-5.83775,-11.6298,Q,Q
2023-03-15 15:18:29:566,0,4.93998,-5.83733,-11.6277,Q,Q
2023-03-15 15:18:29:576,0,4.94081,-5.83892,-11.6286,Q,Q
2023-03-15 15:18:29:586,0,4.94145,-5.83717,-11.6339,Q,Q
2023-03-15 15:18:29:596,0,4.94585,-5.83482,-11.6416,Q,Q
2023-03-15 15:18:29:606,0,4.94657,-5.82724,-11.6543,Q,Q
2023-03-15 15:18:29:616,0,4.94854,-5.82376,-11.6702,Q,Q
2023-03-15 15:18:29:626,0,4.95429,-5.81432,-11.6826,Q,Q
2023-03-15 15:18:29:636,0,4.96074,-5.80557,-11.6948,Q,Q
2023-03-15 15:18:29:646,0,4.97197,-5.79717,-11.7041,Q,Q
2023-03-15 15:18:29:656,0,4.98051,-5.78681,-11.7147,Q,Q
2023-03-15 15:18:29:666,0,4.99156,-5.77851,-11.7218,Q,Q
2023-03-15 15:18:29:676,0,5.00128,-5.76684,-11.7253,Q,Q
2023-03-15 15:18:29:686,0,5.01216,-5.75296,-11.7287,Q,Q
2023-03-15 15:18:29:696,0,5.02285,-5.74369,-11.7264,Q,Q
2023-03-15 15:18:29:706,0,5.03424,-5.73318,-11.7256,Q,Q
2023-03-15 15:18:29:716,0,5.04534,-5.72556,-11.7234,Q,Q
2023-03-15 15:18:29:726,0,5.05709,-5.71823,-11.7219,Q,Q
2023-03-15 15:18:29:736,0,5.06815,-5.71102,-11.7181,Q,Q
2023-03-15 15:18:29:746,0,5.07964,-5.7099,-11.7163,Q,Q
2023-03-15 15:18:29:756,0,5.08916,-5.70853,-11.7164,Q,Q
2023-03-15 15:18:29:766,0,5.09693,-5.70621,-11.7151,Q,Q
2023-03-15 15:18:29:776,0,5.10418,-5.70373,-11.7158,Q,Q
2023-03-15 15:18:29:786,0,5.10764,-5.70716,-11.7156,Q,Q
2023-03-15 15:18:29:796,0,5.11105,-5.71058,-11.7195,Q,Q
2023-03-15 15:18:29:806,0,5.11782,-5.70918,-11.7236,Q,Q
2023-03-15 15:18:29:816,0,5.13166,-5.7072,-11.727,Q,Q
2023-03-15 15:18:29:826,0,5.1471,-5.70918,-11.7253,Q,Q
2023-03-15 15:18:29:836,0,5.15949,-5.70936,-11.7173,Q,Q
2023-03-15 15:18:29:846,0,5.16159,-5.71334,-11.7089,Q,Q
2023-03-15 15:18:29:856,0,5.16094,-5.71956,-11.7029,Q,Q
2023-03-15 15:18:29:866,0,5.15739,-5.72241,-11.6963,Q,Q
2023-03-15 15:18:29:876,0,5.1514,-5.72158,-11.6918,Q,Q
2023-03-15 15:18:29:886,0,5.15074,-5.72334,-11.6911,Q,Q
2023-03-15 15:18:29:896,0,5.14532,-5.72007,-11.6952,Q,Q
2023-03-15 15:18:29:906,0,5.14655,-5.71786,-11.6998,Q,Q
2023-03-15 15:18:29:916,0,5.15292,-5.71293,-11.7063,Q,Q
2023-03-15 15:18:29:926,0,5.15468,-5.7117,-11.7168,Q,Q
2023-03-15 15:18:29:936,0,5.15733,-5.70581,-11.7306,Q,Q
2023-03-15 15:18:29:946,0,5.16324,-5.69807,-11.7455,Q,Q
2023-03-15 15:18:29:956,0,5.16592,-5.68961,-11.7573,Q,Q
2023-03-15 15:18:29:966,0,5.16526,-5.6819,-11.7701,Q,Q
2023-03-15 15:18:29:976,0,5.16425,-5.67653,-11.7815,Q,Q
2023-03-15 15:18:29:986,0,5.15646,-5.66283,-11.792,Q,Q
2023-03-15 15:18:29:996,0,5.14721,-5.65356,-11.7988,Q,Q
2023-03-15 15:18:30:6,0,5.13675,-5.64581,-11.8041,Q,Q
2023-03-15 15:18:30:16,0,5.12631,-5.63477,-11.8102,Q,Q
2023-03-15 15:18:30:26,0,5.11561,-5.62389,-11.8173,Q,Q
2023-03-15 15:18:30:36,0,5.1047,-5.60723,-11.8286,Q,Q
2023-03-15 15:18:30:46,0,5.09871,-5.58895,-11.843,Q,Q
2023-03-15 15:18:30:56,0,5.09437,-5.57765,-11.8552,Q,Q
2023-03-15 15:18:30:66,0,5.09443,-5.56855,-11.8627,Q,Q
2023-03-15 15:18:30:76,0,5.09476,-5.56151,-11.8734,Q,Q
2023-03-15 15:18:30:86,0,5.09195,-5.55832,-11.881,Q,Q
2023-03-15 15:18:30:96,0,5.08633,-5.55673,-11.8894,Q,Q
2023-03-15 15:18:30:106,0,5.08724,-5.55589,-11.8954,Q,Q
2023-03-15 15:18:30:116,0,5.08994,-5.55533,-11.9003,Q,Q
2023-03-15 15:18:30:126,0,5.08965,-5.55004,-11.9063,Q,Q
2023-03-15 15:18:30:136,0,5.0936,-5.54794,-11.9053,Q,Q
2023-03-15 15:18:30:146,0,5.09544,-5.5431,-11.9042,Q,Q
2023-03-15 15:18:30:156,0,5.10151,-5.53883,-11.9056,Q,Q
2023-03-15 15:18:30:166,0,5.11185,-5.51834,-11.9063,Q,Q
2023-03-15 15:18:30:176,0,5.12929,-5.50456,-11.9098,Q,Q
2023-03-15 15:18:30:186,0,5.13866,-5.50629,-11.903,Q,Q
2023-03-15 15:18:30:196,0,5.13001,-5.5154,-11.8915,Q,Q
2023-03-15 15:18:30:206,0,5.12024,-5.52514,-11.8869,Q,Q
2023-03-15 15:18:30:216,0,5.12089,-5.52641,-11.8863,Q,Q
2023-03-15 15:18:30:226,0,5.12467,-5.52494,-11.8815,Q,Q
2023-03-15 15:18:30:236,0,5.12842,-5.5238,-11.8762,Q,Q
2023-03-15 15:18:30:246,0,5.1239,-5.52596,-11.8727,Q,Q
2023-03-15 15:18:30:256,0,5.12181,-5.52582,-11.8673,Q,Q
2023-03-15 15:18:30:266,0,5.1236,-5.52555,-11.8588,Q,Q
2023-03-15 15:18:30:276,0,5.12219,-5.52434,-11.8513,Q,Q
2023-03-15 15:18:30:286,0,5.12148,-5.52047,-11.8426,Q,Q
2023-03-15 15:18:30:296,0,5.11473,-5.5213,-11.8332,Q,Q
2023-03-15 15:18:30:306,0,5.10466,-5.51455,-11.8268,Q,Q
2023-03-15 15:18:30:316,0,5.0949,-5.50931,-11.8241,Q,Q
2023-03-15 15:18:30:326,0,5.08939,-5.50563,-11.8202,Q,Q
2023-03-15 15:18:30:336,0,5.07885,-5.50402,-11.816,Q,Q
2023-03-15 15:18:30:346,0,5.06757,-5.50193,-11.8089,Q,Q
2023-03-15 15:18:30:356,0,5.05432,-5.49896,-11.8003,Q,Q
2023-03-15 15:18:30:366,0,5.04247,-5.49643,-11.7973,Q,Q
2023-03-15 15:18:30:376,0,5.0381,-5.49162,-11.7908,Q,Q
2023-03-15 15:18:30:386,0,5.02926,-5.48826,-11.7794,Q,Q
2023-03-15 15:18:30:396,0,5.01676,-5.47757,-11.7695,Q,Q
2023-03-15 15:18:30:406,0,5.00868,-5.46881,-11.7558,Q,Q
2023-03-15 15:18:30:416,0,4.99801,-5.46653,-11.7407,Q,Q
2023-03-15 15:18:30:426,0,4.98081,-5.46918,-11.7241,Q,Q
2023-03-15 15:18:30:436,0,4.97258,-5.46814,-11.716,Q,Q
2023-03-15 15:18:30:446,0,4.96825,-5.46427,-11.7038,Q,Q
2023-03-15 15:18:30:456,0,4.97109,-5.45994,-11.6934,Q,Q
2023-03-15 15:18:30:466,0,4.97524,-5.45839,-11.684,Q,Q
2023-03-15 15:18:30:476,0,4.9798,-5.46003,-11.6687,Q,Q
2023-03-15 15:18:30:486,0,4.98395,-5.46757,-11.6559,Q,Q
2023-03-15 15:18:30:496,0,4.98672,-5.47628,-11.6477,Q,Q
2023-03-15 15:18:30:506,0,4.98924,-5.48999,-11.6446,Q,Q
2023-03-15 15:18:30:516,0,4.98737,-5.50529,-11.6338,Q,Q
2023-03-15 15:18:30:526,0,4.98773,-5.52167,-11.6228,Q,Q
2023-03-15 15:18:30:536,0,4.98781,-5.53951,-11.6153,Q,Q
2023-03-15 15:18:30:546,0,4.98872,-5.55575,-11.6069,Q,Q
2023-03-15 15:18:30:556,0,4.99632,-5.57017,-11.6015,Q,Q
2023-03-15 15:18:30:566,0,5.01005,-5.58812,-11.5971,Q,Q
2023-03-15 15:18:30:576,0,5.03358,-5.60796,-11.5831,Q,Q
2023-03-15 15:18:30:586,0,5.05472,-5.62735,-11.5661,Q,Q
2023-03-15 15:18:30:596,0,5.07191,-5.64252,-11.5503,Q,Q
2023-03-15 15:18:30:606,0,5.09066,-5.65595,-11.5401,Q,Q
2023-03-15 15:18:30:616,0,5.10174,-5.6651,-11.5308,Q,Q
2023-03-15 15:18:30:626,0,5.1158,-5.66712,-11.5242,Q,Q
2023-03-15 15:18:30:636,0,5.13008,-5.66847,-11.5204,Q,Q
2023-03-15 15:18:30:646,0,5.14181,-5.67152,-11.5253,Q,Q
2023-03-15 15:18:30:656,0,5.16156,-5.66589,-11.5343,Q,Q
2023-03-15 15:18:30:666,0,5.1831,-5.65681,-11.5452,Q,Q
2023-03-15 15:18:30:676,0,5.20511,-5.64508,-11.5578,Q,Q
2023-03-15 15:18:30:686,0,5.23,-5.63296,-11.5742,Q,Q
2023-03-15 15:18:30:696,0,5.2482,-5.62127,-11.5918,Q,Q
2023-03-15 15:18:30:706,0,5.25744,-5.61616,-11.6103,Q,Q
2023-03-15 15:18:30:716,0,5.26728,-5.6042,-11.6263,Q,Q
2023-03-15 15:18:30:726,0,5.27014,-5.59421,-11.6374,Q,Q
2023-03-15 15:18:30:736,0,5.27537,-5.5811,-11.6481,Q,Q
2023-03-15 15:18:30:746,0,5.27253,-5.56455,-11.6571,Q,Q
2023-03-15 15:18:30:756,0,5.26541,-5.54815,-11.659,Q,Q
2023-03-15 15:18:30:766,0,5.25777,-5.53048,-11.6549,Q,Q
2023-03-15 15:18:30:776,0,5.2532,-5.51056,-11.6505,Q,Q
2023-03-15 15:18:30:786,0,5.24888,-5.48895,-11.6462,Q,Q
2023-03-15 15:18:30:796,0,5.24553,-5.46707,-11.6391,Q,Q
2023-03-15 15:18:30:806,0,5.24597,-5.45194,-11.6297,Q,Q
2023-03-15 15:18:30:816,0,5.24838,-5.44127,-11.6199,Q,Q
2023-03-15 15:18:30:826,0,5.24732,-5.43559,-11.6112,Q,Q
2023-03-15 15:18:30:836,0,5.24671,-5.42875,-11.606,Q,Q
2023-03-15 15:18:30:846,0,5.24677,-5.42021,-11.6027,Q,Q
2023-03-15 15:18:30:856,0,5.24666,-5.4122,-11.6048,Q,Q
2023-03-15 15:18:30:866,0,5.2514,-5.4038,-11.6092,Q,Q
2023-03-15 15:18:30:876,0,5.25708,-5.39382,-11.6165,Q,Q
2023-03-15 15:18:30:886,0,5.26208,-5.38577,-11.6231,Q,Q
2023-03-15 15:18:30:896,0,5.26361,-5.37934,-11.6301,Q,Q
2023-03-15 15:18:30:906,0,5.26614,-5.37836,-11.6359,Q,Q
2023-03-15 15:18:30:916,0,5.26792,-5.37665,-11.6416,Q,Q
2023-03-15 15:18:30:926,0,5.27084,-5.37627,-11.6461,Q,Q
2023-03-15 15:18:30:936,0,5.27392,-5.38376,-11.6458,Q,Q
2023-03-15 15:18:30:946,0,5.27828,-5.39661,-11.6409,Q,Q
2023-03-15 15:18:30:956,0,5.28312,-5.40806,-11.6313,Q,Q
2023-03-15 15:18:30:966,0,5.2902,-5.42445,-11.6162,Q,Q
2023-03-15 15:18:30:976,0,5.29697,-5.45081,-11.5947,Q,Q
2023-03-15 15:18:30:986,0,5.29823,-5.4825,-11.5667,Q,Q
2023-03-15 15:18:30:996,0,5.30177,-5.51778,-11.5424,Q,Q
2023-03-15 15:18:31:6,0,5.30135,-5.55764,-11.5156,Q,Q
2023-03-15 15:18:31:16,0,5.30436,-5.5952,-11.4867,Q,Q
2023-03-15 15:18:31:26,0,5.30169,-5.63393,-11.4603,Q,Q
2023-03-15 15:18:31:36,0,5.29731,-5.66738,-11.4302,Q,Q
2023-03-15 15:18:31:46,0,5.2933,-5.69487,-11.4068,Q,Q
2023-03-15 15:18:31:56,0,5.28772,-5.70975,-11.3856,Q,Q
2023-03-15 15:18:31:66,0,5.28366,-5.72001,-11.374,Q,Q
2023-03-15 15:18:31:76,0,5.2771,-5.72644,-11.3692,Q,Q
2023-03-15 15:18:31:86,0,5.26977,-5.73466,-11.3735,Q,Q
2023-03-15 15:18:31:96,0,5.2583,-5.74756,-11.3849,Q,Q
2023-03-15 15:18:31:106,0,5.23857,-5.76822,-11.4036,Q,Q
2023-03-15 15:18:31:116,0,5.21072,-5.793,-11.4313,Q,Q
2023-03-15 15:18:31:126,0,5.18024,-5.82104,-11.4729,Q,Q
2023-03-15 15:18:31:136,0,5.1497,-5.85468,-11.5191,Q,Q
2023-03-15 15:18:31:146,0,5.12556,-5.88976,-11.5758,Q,Q
2023-03-15 15:18:31:156,0,5.10737,-5.92048,-11.6291,Q,Q
2023-03-15 15:18:31:166,0,5.09813,-5.95886,-11.6776,Q,Q
2023-03-15 15:18:31:176,0,5.08858,-5.99613,-11.7168,Q,Q
2023-03-15 15:18:31:186,0,5.08018,-6.01654,-11.7515,Q,Q
2023-03-15 15:18:31:196,0,5.07567,-6.02593,-11.7783,Q,Q
2023-03-15 15:18:31:206,0,5.07512,-6.02643,-11.7938,Q,Q
2023-03-15 15:18:31:216,0,5.06962,-6.01759,-11.7903,Q,Q
2023-03-15 15:18:31:226,0,5.07066,-5.99496,-11.7673,Q,Q
2023-03-15 15:18:31:236,0,5.07837,-5.96337,-11.7235,Q,Q
2023-03-15 15:18:31:246,0,5.0857,-5.92287,-11.6587,Q,Q
2023-03-15 15:18:31:256,0,5.08864,-5.87593,-11.5723,Q,Q
2023-03-15 15:18:31:266,0,5.0844,-5.82419,-11.4764,Q,Q
2023-03-15 15:18:31:276,0,5.0806,-5.77033,-11.3749,Q,Q
2023-03-15 15:18:31:286,0,5.07414,-5.71883,-11.2665,Q,Q
2023-03-15 15:18:31:296,0,5.0625,-5.67247,-11.16,Q,Q
2023-03-15 15:18:31:306,0,5.05288,-5.63556,-11.0617,Q,Q
2023-03-15 15:18:31:316,0,5.04489,-5.60162,-10.9745,Q,Q
2023-03-15 15:18:31:326,0,5.04152,-5.5723,-10.8985,Q,Q
2023-03-15 15:18:31:336,0,5.03506,-5.55206,-10.8325,Q,Q
2023-03-15 15:18:31:346,0,5.02433,-5.54662,-10.7767,Q,Q
2023-03-15 15:18:31:356,0,5.00596,-5.55033,-10.739,Q,Q
2023-03-15 15:18:31:366,0,4.97867,-5.56135,-10.717,Q,Q
2023-03-15 15:18:31:376,0,4.94421,-5.57166,-10.7207,Q,Q
2023-03-15 15:18:31:386,0,4.90165,-5.58592,-10.7452,Q,Q
2023-03-15 15:18:31:396,0,4.86168,-5.6063,-10.7868,Q,Q
2023-03-15 15:18:31:406,0,4.82376,-5.62491,-10.8424,Q,Q
2023-03-15 15:18:31:416,0,4.78881,-5.64802,-10.9084,Q,Q
2023-03-15 15:18:31:426,0,4.75434,-5.67151,-10.9775,Q,Q
2023-03-15 15:18:31:436,0,4.72058,-5.69048,-11.0464,Q,Q
2023-03-15 15:18:31:446,0,4.68623,-5.71173,-11.1123,Q,Q
2023-03-15 15:18:31:456,0,4.64851,-5.7321,-11.177,Q,Q
2023-03-15 15:18:31:466,0,4.61745,-5.75371,-11.2385,Q,Q
2023-03-15 15:18:31:476,0,4.57879,-5.77314,-11.2888,Q,Q
2023-03-15 15:18:31:486,0,4.54242,-5.79791,-11.3327,Q,Q
2023-03-15 15:18:31:496,0,4.50669,-5.82013,-11.375,Q,Q
2023-03-15 15:18:31:506,0,4.47223,-5.84114,-11.4085,Q,Q
2023-03-15 15:18:31:516,0,4.43875,-5.86351,-11.4345,Q,Q
2023-03-15 15:18:31:526,0,4.40774,-5.88673,-11.4498,Q,Q
2023-03-15 15:18:31:536,0,4.38149,-5.90915,-11.4633,Q,Q
2023-03-15 15:18:31:546,0,4.3555,-5.92675,-11.4766,Q,Q
2023-03-15 15:18:31:556,0,4.3412,-5.93904,-11.4799,Q,Q
2023-03-15 15:18:31:566,0,4.33733,-5.95444,-11.4758,Q,Q
2023-03-15 15:18:31:576,0,4.33423,-5.97247,-11.4617,Q,Q
2023-03-15 15:18:31:586,0,4.33021,-5.98367,-11.4467,Q,Q
2023-03-15 15:18:31:596,0,4.32622,-5.99444,-11.4299,Q,Q
2023-03-15 15:18:31:606,0,4.32282,-5.99705,-11.4181,Q,Q
2023-03-15 15:18:31:616,0,4.32254,-5.99437,-11.4067,Q,Q
2023-03-15 15:18:31:626,0,4.32521,-5.99121,-11.4048,Q,Q
2023-03-15 15:18:31:636,0,4.32567,-5.98315,-11.4068,Q,Q
2023-03-15 15:18:31:646,0,4.33028,-5.97347,-11.419,Q,Q
2023-03-15 15:18:31:656,0,4.33291,-5.961,-11.4384,Q,Q
2023-03-15 15:18:31:666,0,4.33887,-5.95047,-11.4636,Q,Q
2023-03-15 15:18:31:676,0,4.34395,-5.94246,-11.4995,Q,Q
2023-03-15 15:18:31:686,0,4.34392,-5.93934,-11.5417,Q,Q
2023-03-15 15:18:31:696,0,4.34115,-5.93532,-11.5852,Q,Q
2023-03-15 15:18:31:706,0,4.33672,-5.92801,-11.6317,Q,Q
2023-03-15 15:18:31:716,0,4.33518,-5.91912,-11.6796,Q,Q
2023-03-15 15:18:31:726,0,4.33695,-5.91143,-11.7188,Q,Q
2023-03-15 15:18:31:736,0,4.33633,-5.90669,-11.7462,Q,Q
2023-03-15 15:18:31:746,0,4.324,-5.90788,-11.7607,Q,Q
2023-03-15 15:18:31:756,0,4.30938,-5.91237,-11.7677,Q,Q
2023-03-15 15:18:31:766,0,4.29409,-5.91186,-11.7671,Q,Q
2023-03-15 15:18:31:776,0,4.28085,-5.90894,-11.7626,Q,Q
2023-03-15 15:18:31:786,0,4.26836,-5.90691,-11.754,Q,Q
2023-03-15 15:18:31:796,0,4.26003,-5.90552,-11.7454,Q,Q
2023-03-15 15:18:31:806,0,4.24875,-5.90601,-11.7343,Q,Q
2023-03-15 15:18:31:816,0,4.24423,-5.90094,-11.7325,Q,Q
2023-03-15 15:18:31:826,0,4.24785,-5.89479,-11.7292,Q,Q
2023-03-15 15:18:31:836,0,4.2545,-5.89347,-11.7256,Q,Q
2023-03-15 15:18:31:846,0,4.26705,-5.89306,-11.7267,Q,Q
2023-03-15 15:18:31:856,0,4.27858,-5.89863,-11.7317,Q,Q
2023-03-15 15:18:31:866,0,4.28927,-5.90341,-11.7373,Q,Q
2023-03-15 15:18:31:876,0,4.29853,-5.90665,-11.742,Q,Q
2023-03-15 15:18:31:886,0,4.31023,-5.90739,-11.7458,Q,Q
2023-03-15 15:18:31:896,0,4.31539,-5.9045,-11.7542,Q,Q
2023-03-15 15:18:31:906,0,4.32665,-5.89805,-11.7637,Q,Q
2023-03-15 15:18:31:916,0,4.34107,-5.89319,-11.7767,Q,Q
2023-03-15 15:18:31:926,0,4.35676,-5.88441,-11.7835,Q,Q
2023-03-15 15:18:31:936,0,4.37277,-5.87419,-11.7953,Q,Q
2023-03-15 15:18:31:946,0,4.39088,-5.863,-11.8061,Q,Q
2023-03-15 15:18:31:956,0,4.41013,-5.85411,-11.8169,Q,Q
2023-03-15 15:18:31:966,0,4.42612,-5.83946,-11.8263,Q,Q
2023-03-15 15:18:31:976,0,4.44204,-5.82859,-11.8401,Q,Q
2023-03-15 15:18:31:986,0,4.45277,-5.81342,-11.8584,Q,Q
2023-03-15 15:18:31:996,0,4.4677,-5.79334,-11.8793,Q,Q
2023-03-15 15:18:32:6,0,4.48397,-5.77827,-11.9002,Q,Q
2023-03-15 15:18:32:16,0,4.5034,-5.76781,-11.9162,Q,Q
2023-03-15 15:18:32:26,0,4.51638,-5.75799,-11.9359,Q,Q
2023-03-15 15:18:32:36,0,4.52795,-5.7477,-11.9518,Q,Q
2023-03-15 15:18:32:46,0,4.54338,-5.72975,-11.9706,Q,Q
2023-03-15 15:18:32:56,0,4.56624,-5.71733,-11.9849,Q,Q
2023-03-15 15:18:32:66,0,4.58391,-5.71309,-11.992,Q,Q
2023-03-15 15:18:32:76,0,4.59207,-5.71479,-11.9906,Q,Q
2023-03-15 15:18:32:86,0,4.59601,-5.72027,-11.9936,Q,Q
2023-03-15 15:18:32:96,0,4.60224,-5.72648,-12.0,Q,Q
2023-03-15 15:18:32:106,0,4.61146,-5.7306,-12.0033,Q,Q
2023-03-15 15:18:32:116,0,4.61637,-5.73696,-12.0019,Q,Q
2023-03-15 15:18:32:126,0,4.62316,-5.74764,-12.0011,Q,Q
2023-03-15 15:18:32:136,0,4.6238,-5.75796,-12.0023,Q,Q
2023-03-15 15:18:32:146,0,4.62273,-5.76775,-12.0028,Q,Q
2023-03-15 15:18:32:156,0,4.61612,-5.77373,-12.0032,Q,Q
2023-03-15 15:18:32:166,0,4.6081,-5.77693,-12.0092,Q,Q
2023-03-15 15:18:32:176,0,4.60742,-5.77916,-12.0178,Q,Q
2023-03-15 15:18:32:186,0,4.60583,-5.78556,-12.0262,Q,Q
2023-03-15 15:18:32:196,0,4.60753,-5.79231,-12.0356,Q,Q
2023-03-15 15:18:32:206,0,4.61877,-5.79487,-12.0485,Q,Q
2023-03-15 15:18:32:216,0,4.63789,-5.79107,-12.0576,Q,Q
2023-03-15 15:18:32:226,0,4.66278,-5.79127,-12.0735,Q,Q
2023-03-15 15:18:32:236,0,4.67754,-5.79139,-12.0729,Q,Q
2023-03-15 15:18:32:246,0,4.69137,-5.78938,-12.0722,Q,Q
2023-03-15 15:18:32:256,0,4.70288,-5.7915,-12.0778,Q,Q
2023-03-15 15:18:32:266,0,4.70929,-5.79092,-12.0785,Q,Q
2023-03-15 15:18:32:276,0,4.7131,-5.78722,-12.0762,Q,Q
2023-03-15 15:18:32:286,0,4.71905,-5.77887,-12.0769,Q,Q
2023-03-15 15:18:32:296,0,4.72652,-5.7738,-12.0788,Q,Q
2023-03-15 15:18:32:306,0,4.72504,-5.77397,-12.0753,Q,Q
2023-03-15 15:18:32:316,0,4.72364,-5.77455,-12.0761,Q,Q
2023-03-15 15:18:32:326,0,4.71746,-5.77685,-12.0826,Q,Q
2023-03-15 15:18:32:336,0,4.71816,-5.77504,-12.0905,Q,Q
2023-03-15 15:18:32:346,0,4.72294,-5.77804,-12.0975,Q,Q
2023-03-15 15:18:32:356,0,4.73084,-5.78293,-12.1014,Q,Q
2023-03-15 15:18:32:366,0,4.7406,-5.78729,-12.1098,Q,Q
2023-03-15 15:18:32:376,0,4.75264,-5.78366,-12.1202,Q,Q
2023-03-15 15:18:32:386,0,4.77023,-5.77701,-12.1329,Q,Q
2023-03-15 15:18:32:396,0,4.78834,-5.76347,-12.1501,Q,Q
2023-03-15 15:18:32:406,0,4.8067,-5.75166,-12.1649,Q,Q
2023-03-15 15:18:32:416,0,4.8157,-5.7413,-12.1867,Q,Q
2023-03-15 15:18:32:426,0,4.82349,-5.73201,-12.213,Q,Q
2023-03-15 15:18:32:436,0,4.83101,-5.72287,-12.2389,Q,Q
2023-03-15 15:18:32:446,0,4.83657,-5.72092,-12.261,Q,Q
2023-03-15 15:18:32:456,0,4.84143,-5.72291,-12.2869,Q,Q
2023-03-15 15:18:32:466,0,4.84691,-5.72583,-12.3036,Q,Q
2023-03-15 15:18:32:476,0,4.85084,-5.73376,-12.3174,Q,Q
2023-03-15 15:18:32:486,0,4.85129,-5.74285,-12.3213,Q,Q
2023-03-15 15:18:32:496,0,4.84892,-5.75617,-12.3185,Q,Q
2023-03-15 15:18:32:506,0,4.84561,-5.77108,-12.3096,Q,Q
2023-03-15 15:18:32:516,0,4.8448,-5.78731,-12.2882,Q,Q
2023-03-15 15:18:32:526,0,4.84639,-5.80273,-12.2597,Q,Q
2023-03-15 15:18:32:536,0,4.8482,-5.8157,-12.23,Q,Q
2023-03-15 15:18:32:546,0,4.84989,-5.83114,-12.1974,Q,Q
2023-03-15 15:18:32:556,0,4.84899,-5.84901,-12.1605,Q,Q
2023-03-15 15:18:32:566,0,4.85185,-5.86205,-12.128,Q,Q
2023-03-15 15:18:32:576,0,4.85686,-5.8749,-12.1013,Q,Q
2023-03-15 15:18:32:586,0,4.86298,-5.88256,-12.0738,Q,Q
2023-03-15 15:18:32:596,0,4.86767,-5.89253,-12.0495,Q,Q
2023-03-15 15:18:32:606,0,4.87093,-5.89944,-12.0328,Q,Q
2023-03-15 15:18:32:616,0,4.87391,-5.90186,-12.0202,Q,Q
2023-03-15 15:18:32:626,0,4.881,-5.90355,-12.0109,Q,Q
2023-03-15 15:18:32:636,0,4.88783,-5.90716,-12.0037,Q,Q
2023-03-15 15:18:32:646,0,4.89103,-5.90393,-11.9979,Q,Q
2023-03-15 15:18:32:656,0,4.89452,-5.89747,-11.9925,Q,Q
2023-03-15 15:18:32:666,0,4.90025,-5.89064,-11.9896,Q,Q
2023-03-15 15:18:32:676,0,4.90951,-5.88563,-11.9855,Q,Q
2023-03-15 15:18:32:686,0,4.9188,-5.87979,-11.9802,Q,Q
2023-03-15 15:18:32:696,0,4.92494,-5.88108,-11.9694,Q,Q
2023-03-15 15:18:32:706,0,4.93202,-5.88543,-11.9564,Q,Q
2023-03-15 15:18:32:716,0,4.93787,-5.89308,-11.9392,Q,Q
2023-03-15 15:18:32:726,0,4.94565,-5.90577,-11.9229,Q,Q
2023-03-15 15:18:32:736,0,4.94972,-5.92241,-11.9075,Q,Q
2023-03-15 15:18:32:746,0,4.95401,-5.94463,-11.8986,Q,Q
2023-03-15 15:18:32:756,0,4.958,-5.9652,-11.8849,Q,Q
2023-03-15 15:18:32:766,0,4.95632,-5.98802,-11.8735,Q,Q
2023-03-15 15:18:32:776,0,4.95229,-6.013,-11.8609,Q,Q
2023-03-15 15:18:32:786,0,4.9479,-6.03868,-11.8503,Q,Q
2023-03-15 15:18:32:796,0,4.94265,-6.06012,-11.8372,Q,Q
2023-03-15 15:18:32:806,0,4.94171,-6.08418,-11.8243,Q,Q
2023-03-15 15:18:32:816,0,4.93391,-6.10522,-11.8082,Q,Q
2023-03-15 15:18:32:826,0,4.92657,-6.12601,-11.7872,Q,Q
2023-03-15 15:18:32:836,0,4.9201,-6.15127,-11.7628,Q,Q
2023-03-15 15:18:32:846,0,4.91178,-6.17306,-11.7369,Q,Q
2023-03-15 15:18:32:856,0,4.89629,-6.19335,-11.7077,Q,Q
2023-03-15 15:18:32:866,0,4.8845,-6.20915,-11.6836,Q,Q
2023-03-15 15:18:32:876,0,4.87234,-6.22079,-11.6612,Q,Q
2023-03-15 15:18:32:886,0,4.8648,-6.2315,-11.6442,Q,Q
2023-03-15 15:18:32:896,0,4.85844,-6.24022,-11.6213,Q,Q
2023-03-15 15:18:32:906,0,4.85504,-6.25049,-11.5952,Q,Q
2023-03-15 15:18:32:916,0,4.84767,-6.26213,-11.5729,Q,Q
2023-03-15 15:18:32:926,0,4.84371,-6.27403,-11.5545,Q,Q
2023-03-15 15:18:32:936,0,4.84039,-6.27839,-11.5336,Q,Q
2023-03-15 15:18:32:946,0,4.83614,-6.28543,-11.5161,Q,Q
2023-03-15 15:18:32:956,0,4.83581,-6.28617,-11.5069,Q,Q
2023-03-15 15:18:32:966,0,4.83667,-6.28275,-11.4986,Q,Q
2023-03-15 15:18:32:976,0,4.83991,-6.27696,-11.4958,Q,Q
2023-03-15 15:18:32:986,0,4.84705,-6.27239,-11.4978,Q,Q
2023-03-15 15:18:32:996,0,4.85643,-6.26814,-11.5043,Q,Q
2023-03-15 15:18:33:6,0,4.86575,-6.26495,-11.5172,Q,Q
2023-03-15 15:18:33:16,0,4.87735,-6.25753,-11.5297,Q,Q
2023-03-15 15:18:33:26,0,4.88647,-6.24719,-11.5448,Q,Q
2023-03-15 15:18:33:36,0,4.89824,-6.23995,-11.5578,Q,Q
2023-03-15 15:18:33:46,0,4.90681,-6.23236,-11.5735,Q,Q
2023-03-15 15:18:33:56,0,4.90766,-6.22104,-11.5881,Q,Q
2023-03-15 15:18:33:66,0,4.91517,-6.21147,-11.6001,Q,Q
2023-03-15 15:18:33:76,0,4.92118,-6.20477,-11.6116,Q,Q
2023-03-15 15:18:33:86,0,4.93224,-6.19079,-11.6214,Q,Q
2023-03-15 15:18:33:96,0,4.94076,-6.1795,-11.6247,Q,Q
2023-03-15 15:18:33:106,0,4.9481,-6.16231,-11.6364,Q,Q
2023-03-15 15:18:33:116,0,4.95991,-6.14505,-11.6411,Q,Q
2023-03-15 15:18:33:126,0,4.97498,-6.13364,-11.6483,Q,Q
2023-03-15 15:18:33:136,0,4.9876,-6.12097,-11.6535,Q,Q
2023-03-15 15:18:33:146,0,5.00091,-6.11169,-11.6567,Q,Q
2023-03-15 15:18:33:156,0,5.01374,-6.10544,-11.6575,Q,Q
2023-03-15 15:18:33:166,0,5.02301,-6.10057,-11.6554,Q,Q
2023-03-15 15:18:33:176,0,5.03518,-6.09904,-11.6529,Q,Q
2023-03-15 15:18:33:186,0,5.04563,-6.09997,-11.6472,Q,Q
2023-03-15 15:18:33:196,0,5.05835,-6.09775,-11.643,Q,Q
2023-03-15 15:18:33:206,0,5.06993,-6.09905,-11.6347,Q,Q
2023-03-15 15:18:33:216,0,5.08354,-6.10036,-11.6293,Q,Q
2023-03-15 15:18:33:226,0,5.09533,-6.10559,-11.6229,Q,Q
2023-03-15 15:18:33:236,0,5.10922,-6.10923,-11.6135,Q,Q
2023-03-15 15:18:33:246,0,5.11977,-6.118,-11.6,Q,Q
2023-03-15 15:18:33:256,0,5.13135,-6.1264,-11.5907,Q,Q
2023-03-15 15:18:33:266,0,5.14407,-6.13063,-11.5766,Q,Q
2023-03-15 15:18:33:276,0,5.15211,-6.13629,-11.5567,Q,Q
2023-03-15 15:18:33:286,0,5.16185,-6.14289,-11.5366,Q,Q
2023-03-15 15:18:33:296,0,5.16999,-6.15178,-11.5137,Q,Q
2023-03-15 15:18:33:306,0,5.18077,-6.16055,-11.4882,Q,Q
2023-03-15 15:18:33:316,0,5.18759,-6.17054,-11.4597,Q,Q
2023-03-15 15:18:33:326,0,5.19654,-6.17408,-11.4306,Q,Q
2023-03-15 15:18:33:336,0,5.20235,-6.17914,-11.4024,Q,Q
2023-03-15 15:18:33:346,0,5.21213,-6.17968,-11.3702,Q,Q
2023-03-15 15:18:33:356,0,5.2151,-6.17863,-11.3427,Q,Q
2023-03-15 15:18:33:366,0,5.2223,-6.17717,-11.3192,Q,Q
2023-03-15 15:18:33:376,0,5.22772,-6.17045,-11.2992,Q,Q
2023-03-15 15:18:33:386,0,5.23009,-6.16107,-11.2822,Q,Q
2023-03-15 15:18:33:396,0,5.23399,-6.1504,-11.2726,Q,Q
2023-03-15 15:18:33:406,0,5.23902,-6.14393,-11.2653,Q,Q
2023-03-15 15:18:33:416,0,5.24156,-6.13286,-11.2629,Q,Q
2023-03-15 15:18:33:426,0,5.24445,-6.12768,-11.2627,Q,Q
2023-03-15 15:18:33:436,0,5.24666,-6.12085,-11.2623,Q,Q
2023-03-15 15:18:33:446,0,5.24944,-6.11461,-11.2637,Q,Q
2023-03-15 15:18:33:456,0,5.25383,-6.10898,-11.2677,Q,Q
2023-03-15 15:18:33:466,0,5.25603,-6.10205,-11.274,Q,Q
2023-03-15 15:18:33:476,0,5.25765,-6.09727,-11.2784,Q,Q
2023-03-15 15:18:33:486,0,5.26359,-6.09402,-11.2795,Q,Q
2023-03-15 15:18:33:496,0,5.26759,-6.08836,-11.2803,Q,Q
2023-03-15 15:18:33:506,0,5.27266,-6.08498,-11.2814,Q,Q
2023-03-15 15:18:33:516,0,5.27332,-6.08384,-11.283,Q,Q
2023-03-15 15:18:33:526,0,5.27273,-6.08177,-11.2793,Q,Q
2023-03-15 15:18:33:536,0,5.2757,-6.07896,-11.2821,Q,Q
2023-03-15 15:18:33:546,0,5.27833,-6.07683,-11.2796,Q,Q
2023-03-15 15:18:33:556,0,5.2809,-6.07078,-11.2746,Q,Q
2023-03-15 15:18:33:566,0,5.2809,-6.06693,-11.2672,Q,Q
2023-03-15 15:18:33:576,0,5.28755,-6.06849,-11.2613,Q,Q
2023-03-15 15:18:33:586,0,5.30041,-6.06999,-11.2509,Q,Q
2023-03-15 15:18:33:596,0,5.31689,-6.07072,-11.2401,Q,Q
2023-03-15 15:18:33:606,0,5.34112,-6.06975,-11.2311,Q,Q
2023-03-15 15:18:33:616,0,5.36864,-6.06444,-11.2155,Q,Q
2023-03-15 15:18:33:626,0,5.39252,-6.06366,-11.199,Q,Q
2023-03-15 15:18:33:636,0,5.41555,-6.06502,-11.1823,Q,Q
2023-03-15 15:18:33:646,0,5.43895,-6.06466,-11.1689,Q,Q
2023-03-15 15:18:33:656,0,5.46241,-6.06485,-11.1528,Q,Q
2023-03-15 15:18:33:666,0,5.48821,-6.06476,-11.1377,Q,Q
2023-03-15 15:18:33:676,0,5.51155,-6.06995,-11.1187,Q,Q
2023-03-15 15:18:33:686,0,5.53476,-6.07758,-11.1015,Q,Q
2023-03-15 15:18:33:696,0,5.55026,-6.08744,-11.0838,Q,Q
2023-03-15 15:18:33:706,0,5.56501,-6.0925,-11.065,Q,Q
2023-03-15 15:18:33:716,0,5.58128,-6.09358,-11.0479,Q,Q
2023-03-15 15:18:33:726,0,5.59863,-6.09654,-11.0342,Q,Q
2023-03-15 15:18:33:736,0,5.61204,-6.09854,-11.0221,Q,Q
2023-03-15 15:18:33:746,0,5.62328,-6.09528,-11.0099,Q,Q
2023-03-15 15:18:33:756,0,5.63155,-6.09299,-11.0033,Q,Q
2023-03-15 15:18:33:766,0,5.63715,-6.09294,-11.0023,Q,Q
2023-03-15 15:18:33:776,0,5.65124,-6.08827,-11.0063,Q,Q
2023-03-15 15:18:33:786,0,5.66669,-6.07815,-11.0117,Q,Q
2023-03-15 15:18:33:796,0,5.67974,-6.07284,-11.021,Q,Q
2023-03-15 15:18:33:806,0,5.69151,-6.07009,-11.03,Q,Q
2023-03-15 15:18:33:816,0,5.70599,-6.06813,-11.0397,Q,Q
2023-03-15 15:18:33:826,0,5.71789,-6.06315,-11.0477,Q,Q
2023-03-15 15:18:33:836,0,5.72559,-6.05599,-11.0538,Q,Q
2023-03-15 15:18:33:846,0,5.73,-6.04892,-11.0587,Q,Q
2023-03-15 15:18:33:856,0,5.72714,-6.04182,-11.0623,Q,Q
2023-03-15 15:18:33:866,0,5.72129,-6.03902,-11.0684,Q,Q
2023-03-15 15:18:33:876,0,5.72045,-6.03436,-11.0791,Q,Q
2023-03-15 15:18:33:886,0,5.71663,-6.0289,-11.0911,Q,Q
2023-03-15 15:18:33:896,0,5.7184,-6.0245,-11.1031,Q,Q
2023-03-15 15:18:33:906,0,5.72475,-6.02224,-11.1146,Q,Q
2023-03-15 15:18:33:916,0,5.73545,-6.01741,-11.1204,Q,Q
2023-03-15 15:18:33:926,0,5.74664,-6.01544,-11.1267,Q,Q
2023-03-15 15:18:33:936,0,5.75327,-6.01873,-11.1324,Q,Q
2023-03-15 15:18:33:946,0,5.75615,-6.02184,-11.1351,Q,Q
2023-03-15 15:18:33:956,0,5.75968,-6.02428,-11.1382,Q,Q
2023-03-15 15:18:33:966,0,5.76273,-6.02894,-11.1398,Q,Q
2023-03-15 15:18:33:976,0,5.7627,-6.02925,-11.1358,Q,Q
2023-03-15 15:18:33:986,0,5.76375,-6.03001,-11.1289,Q,Q
2023-03-15 15:18:33:996,0,5.76652,-6.03335,-11.1236,Q,Q
2023-03-15 15:18:34:6,0,5.77005,-6.03882,-11.1147,Q,Q
2023-03-15 15:18:34:16,0,5.77701,-6.04394,-11.0989,Q,Q
2023-03-15 15:18:34:26,0,5.78909,-6.0557,-11.0821,Q,Q
2023-03-15 15:18:34:36,0,5.80466,-6.07109,-11.0675,Q,Q
2023-03-15 15:18:34:46,0,5.81624,-6.08346,-11.0486,Q,Q
2023-03-15 15:18:34:56,0,5.82748,-6.09295,-11.0342,Q,Q
2023-03-15 15:18:34:66,0,5.83773,-6.1037,-11.0233,Q,Q
2023-03-15 15:18:34:76,0,5.84487,-6.11348,-11.0095,Q,Q
2023-03-15 15:18:34:86,0,5.84984,-6.12773,-10.9979,Q,Q
2023-03-15 15:18:34:96,0,5.85134,-6.14154,-10.9882,Q,Q
2023-03-15 15:18:34:106,0,5.85711,-6.15277,-10.9803,Q,Q
2023-03-15 15:18:34:116,0,5.86301,-6.1594,-10.9727,Q,Q
2023-03-15 15:18:34:126,0,5.87302,-6.16982,-10.963,Q,Q
2023-03-15 15:18:34:136,0,5.87642,-6.17789,-10.9603,Q,Q
2023-03-15 15:18:34:146,0,5.88326,-6.18715,-10.9532,Q,Q
2023-03-15 15:18:34:156,0,5.88775,-6.19604,-10.9527,Q,Q
2023-03-15 15:18:34:166,0,5.89181,-6.20194,-10.9559,Q,Q
2023-03-15 15:18:34:176,0,5.89439,-6.2076,-10.9579,Q,Q
2023-03-15 15:18:34:186,0,5.90246,-6.21199,-10.9653,Q,Q
2023-03-15 15:18:34:196,0,5.91001,-6.21571,-10.9715,Q,Q
2023-03-15 15:18:34:206,0,5.91517,-6.21989,-10.9804,Q,Q
2023-03-15 15:18:34:216,0,5.92443,-6.22367,-10.989,Q,Q
2023-03-15 15:18:34:226,0,5.93424,-6.22053,-10.9985,Q,Q
2023-03-15 15:18:34:236,0,5.94578,-6.22238,-11.0097,Q,Q
2023-03-15 15:18:34:246,0,5.95459,-6.22628,-11.0218,Q,Q
2023-03-15 15:18:34:256,0,5.95566,-6.22969,-11.0296,Q,Q
2023-03-15 15:18:34:266,0,5.95432,-6.23099,-11.039,Q,Q
2023-03-15 15:18:34:276,0,5.95072,-6.22867,-11.0496,Q,Q
2023-03-15 15:18:34:286,0,5.94734,-6.22704,-11.0523,Q,Q
2023-03-15 15:18:34:296,0,5.94236,-6.22627,-11.0525,Q,Q
2023-03-15 15:18:34:306,0,5.93767,-6.22105,-11.0512,Q,Q
2023-03-15 15:18:34:316,0,5.93536,-6.21771,-11.0475,Q,Q
2023-03-15 15:18:34:326,0,5.93382,-6.21944,-11.0415,Q,Q
2023-03-15 15:18:34:336,0,5.93001,-6.22001,-11.036,Q,Q
2023-03-15 15:18:34:346,0,5.92978,-6.21714,-11.0284,Q,Q
2023-03-15 15:18:34:356,0,5.92494,-6.21374,-11.0249,Q,Q
2023-03-15 15:18:34:366,0,5.92389,-6.20914,-11.0175,Q,Q
2023-03-15 15:18:34:376,0,5.92375,-6.21131,-11.0101,Q,Q
2023-03-15 15:18:34:386,0,5.92586,-6.21174,-11.0076,Q,Q
2023-03-15 15:18:34:396,0,5.93196,-6.21355,-11.0059,Q,Q
2023-03-15 15:18:34:406,0,5.94554,-6.21862,-11.0096,Q,Q
2023-03-15 15:18:34:416,0,5.96386,-6.2222,-11.0104,Q,Q
2023-03-15 15:18:34:426,0,5.97744,-6.22339,-11.0064,Q,Q
2023-03-15 15:18:34:436,0,5.99336,-6.23303,-11.0019,Q,Q
2023-03-15 15:18:34:446,0,6.00791,-6.23542,-10.9973,Q,Q
2023-03-15 15:18:34:456,0,6.01876,-6.2392,-10.9933,Q,Q
2023-03-15 15:18:34:466,0,6.02739,-6.24097,-10.9875,Q,Q
2023-03-15 15:18:34:476,0,6.03458,-6.24203,-10.984,Q,Q
2023-03-15 15:18:34:486,0,6.0403,-6.23911,-10.9807,Q,Q
2023-03-15 15:18:34:496,0,6.05171,-6.2315,-10.9801,Q,Q
2023-03-15 15:18:34:506,0,6.06523,-6.22496,-10.9803,Q,Q
2023-03-15 15:18:34:516,0,6.07991,-6.2116,-10.981,Q,Q
2023-03-15 15:18:34:526,0,6.1005,-6.19727,-10.9817,Q,Q
2023-03-15 15:18:34:536,0,6.11389,-6.18216,-10.9834,Q,Q
2023-03-15 15:18:34:546,0,6.12574,-6.17095,-10.9848,Q,Q
2023-03-15 15:18:34:556,0,6.13478,-6.15704,-10.9855,Q,Q
2023-03-15 15:18:34:566,0,6.14557,-6.14551,-10.9872,Q,Q
2023-03-15 15:18:34:576,0,6.15746,-6.13042,-10.9895,Q,Q
2023-03-15 15:18:34:586,0,6.16898,-6.11557,-10.994,Q,Q
2023-03-15 15:18:34:596,0,6.17914,-6.10219,-10.9975,Q,Q
2023-03-15 15:18:34:606,0,6.18591,-6.09148,-11.0,Q,Q
2023-03-15 15:18:34:616,0,6.18532,-6.08049,-11.0044,Q,Q
2023-03-15 15:18:34:626,0,6.18875,-6.0696,-11.0141,Q,Q
2023-03-15 15:18:34:636,0,6.19729,-6.05683,-11.0231,Q,Q
2023-03-15 15:18:34:646,0,6.21181,-6.04172,-11.0359,Q,Q
2023-03-15 15:18:34:656,0,6.23136,-6.02664,-11.0433,Q,Q
2023-03-15 15:18:34:666,0,6.25156,-6.01642,-11.0454,Q,Q
2023-03-15 15:18:34:676,0,6.26191,-6.00776,-11.0475,Q,Q
2023-03-15 15:18:34:686,0,6.27067,-6.00139,-11.0508,Q,Q
2023-03-15 15:18:34:696,0,6.28074,-5.99691,-11.052,Q,Q
2023-03-15 15:18:34:706,0,6.29134,-5.99346,-11.0581,Q,Q
2023-03-15 15:18:34:716,0,6.30295,-5.99098,-11.0595,Q,Q
2023-03-15 15:18:34:726,0,6.31138,-5.99129,-11.0578,Q,Q
2023-03-15 15:18:34:736,0,6.3236,-5.99337,-11.0578,Q,Q
2023-03-15 15:18:34:746,0,6.33755,-5.99433,-11.0529,Q,Q
2023-03-15 15:18:34:756,0,6.35115,-5.9957,-11.0522,Q,Q
2023-03-15 15:18:34:766,0,6.36242,-5.99594,-11.0511,Q,Q
2023-03-15 15:18:34:776,0,6.37505,-5.99341,-11.0469,Q,Q
2023-03-15 15:18:34:786,0,6.38735,-5.99562,-11.04,Q,Q
2023-03-15 15:18:34:796,0,6.39767,-6.0009,-11.0361,Q,Q
2023-03-15 15:18:34:806,0,6.40909,-6.0034,-11.0282,Q,Q
2023-03-15 15:18:34:816,0,6.42017,-6.00888,-11.0242,Q,Q
2023-03-15 15:18:34:826,0,6.42599,-6.01495,-11.017,Q,Q
2023-03-15 15:18:34:836,0,6.42971,-6.02565,-11.0073,Q,Q
2023-03-15 15:18:34:846,0,6.42942,-6.03231,-10.9996,Q,Q
2023-03-15 15:18:34:856,0,6.43014,-6.04088,-10.9943,Q,Q
2023-03-15 15:18:34:866,0,6.43624,-6.05352,-10.9909,Q,Q
2023-03-15 15:18:34:876,0,6.44396,-6.0616,-10.9853,Q,Q
2023-03-15 15:18:34:886,0,6.45376,-6.07034,-10.9809,Q,Q
2023-03-15 15:18:34:896,0,6.46662,-6.07343,-10.9759,Q,Q
2023-03-15 15:18:34:906,0,6.48369,-6.07229,-10.9685,Q,Q
2023-03-15 15:18:34:916,0,6.49864,-6.07465,-10.959,Q,Q
2023-03-15 15:18:34:926,0,6.50984,-6.07484,-10.9483,Q,Q
2023-03-15 15:18:34:936,0,6.52583,-6.07386,-10.936,Q,Q
2023-03-15 15:18:34:946,0,6.53699,-6.07332,-10.9233,Q,Q
2023-03-15 15:18:34:956,0,6.54407,-6.07477,-10.912,Q,Q
2023-03-15 15:18:34:966,0,6.55176,-6.07754,-10.9083,Q,Q
2023-03-15 15:18:34:976,0,6.56075,-6.08225,-10.9047,Q,Q
2023-03-15 15:18:34:986,0,6.57123,-6.08479,-10.9039,Q,Q
2023-03-15 15:18:34:996,0,6.58347,-6.08353,-10.9036,Q,Q
2023-03-15 15:18:35:6,0,6.59501,-6.08101,-10.9014,Q,Q
2023-03-15 15:18:35:16,0,6.60999,-6.07507,-10.8993,Q,Q
2023-03-15 15:18:35:26,0,6.62394,-6.07629,-10.8941,Q,Q
2023-03-15 15:18:35:36,0,6.63461,-6.0775,-10.8899,Q,Q
2023-03-15 15:18:35:46,0,6.64346,-6.07982,-10.8852,Q,Q
2023-03-15 15:18:35:56,0,6.65371,-6.08126,-10.8799,Q,Q
2023-03-15 15:18:35:66,0,6.66601,-6.07867,-10.8759,Q,Q
2023-03-15 15:18:35:76,0,6.67799,-6.07559,-10.8711,Q,Q
2023-03-15 15:18:35:86,0,6.68703,-6.07422,-10.8638,Q,Q
2023-03-15 15:18:35:96,0,6.69651,-6.07543,-10.8577,Q,Q
2023-03-15 15:18:35:106,0,6.70543,-6.07448,-10.8531,Q,Q
2023-03-15 15:18:35:116,0,6.71027,-6.07257,-10.845,Q,Q
2023-03-15 15:18:35:126,0,6.71602,-6.0741,-10.8353,Q,Q
2023-03-15 15:18:35:136,0,6.71666,-6.07329,-10.8254,Q,Q
2023-03-15 15:18:35:146,0,6.71576,-6.0738,-10.8153,Q,Q
2023-03-15 15:18:35:156,0,6.71936,-6.076,-10.8047,Q,Q
2023-03-15 15:18:35:166,0,6.722,-6.08584,-10.79,Q,Q
2023-03-15 15:18:35:176,0,6.72466,-6.09603,-10.7694,Q,Q
2023-03-15 15:18:35:186,0,6.72645,-6.11103,-10.7415,Q,Q
2023-03-15 15:18:35:196,0,6.72555,-6.12334,-10.7154,Q,Q
2023-03-15 15:18:35:206,0,6.71958,-6.13985,-10.6905,Q,Q
2023-03-15 15:18:35:216,0,6.71687,-6.15045,-10.6589,Q,Q
2023-03-15 15:18:35:226,0,6.71521,-6.15999,-10.6253,Q,Q
2023-03-15 15:18:35:236,0,6.72084,-6.17487,-10.5913,Q,Q
2023-03-15 15:18:35:246,0,6.72833,-6.189,-10.56,Q,Q
2023-03-15 15:18:35:256,0,6.73009,-6.20253,-10.5255,Q,Q
2023-03-15 15:18:35:266,0,6.73521,-6.21433,-10.4967,Q,Q
2023-03-15 15:18:35:276,0,6.73635,-6.21948,-10.4712,Q,Q
2023-03-15 15:18:35:286,0,6.74373,-6.22423,-10.4485,Q,Q
2023-03-15 15:18:35:296,0,6.75386,-6.22923,-10.4188,Q,Q
2023-03-15 15:18:35:306,0,6.77046,-6.23679,-10.3831,Q,Q
2023-03-15 15:18:35:316,0,6.79843,-6.24801,-10.3389,Q,Q
2023-03-15 15:18:35:326,0,6.83303,-6.25892,-10.2916,Q,Q
2023-03-15 15:18:35:336,0,6.86959,-6.26923,-10.2501,Q,Q
2023-03-15 15:18:35:346,0,6.90397,-6.27664,-10.2171,Q,Q
2023-03-15 15:18:35:356,0,6.93135,-6.27681,-10.1911,Q,Q
2023-03-15 15:18:35:366,0,6.94243,-6.27593,-10.1703,Q,Q
2023-03-15 15:18:35:376,0,6.9373,-6.27466,-10.1624,Q,Q
2023-03-15 15:18:35:386,0,6.92472,-6.26804,-10.1746,Q,Q
2023-03-15 15:18:35:396,0,6.9035,-6.26049,-10.2,Q,Q
2023-03-15 15:18:35:406,0,6.88167,-6.25283,-10.2382,Q,Q
2023-03-15 15:18:35:416,0,6.85604,-6.24986,-10.2787,Q,Q
2023-03-15 15:18:35:426,0,6.83167,-6.25327,-10.328,Q,Q
2023-03-15 15:18:35:436,0,6.81104,-6.26344,-10.3819,Q,Q
2023-03-15 15:18:35:446,0,6.79301,-6.27325,-10.4434,Q,Q
2023-03-15 15:18:35:456,0,6.7875,-6.28201,-10.5119,Q,Q
2023-03-15 15:18:35:466,0,6.79337,-6.28516,-10.5831,Q,Q
2023-03-15 15:18:35:476,0,6.80432,-6.28617,-10.651,Q,Q
2023-03-15 15:18:35:486,0,6.82505,-6.28913,-10.7147,Q,Q
2023-03-15 15:18:35:496,0,6.84985,-6.28919,-10.7707,Q,Q
2023-03-15 15:18:35:506,0,6.87519,-6.29205,-10.8111,Q,Q
2023-03-15 15:18:35:516,0,6.90118,-6.29556,-10.843,Q,Q
2023-03-15 15:18:35:526,0,6.9287,-6.30147,-10.8578,Q,Q
2023-03-15 15:18:35:536,0,6.95836,-6.30983,-10.8568,Q,Q
2023-03-15 15:18:35:546,0,6.98481,-6.31562,-10.8441,Q,Q
2023-03-15 15:18:35:556,0,7.01221,-6.32106,-10.8258,Q,Q
2023-03-15 15:18:35:566,0,7.03936,-6.32187,-10.7989,Q,Q
2023-03-15 15:18:35:576,0,7.06295,-6.31742,-10.7614,Q,Q
2023-03-15 15:18:35:586,0,7.08032,-6.31159,-10.7182,Q,Q
2023-03-15 15:18:35:596,0,7.09827,-6.30679,-10.6676,Q,Q
2023-03-15 15:18:35:606,0,7.11273,-6.30088,-10.6161,Q,Q
2023-03-15 15:18:35:616,0,7.12524,-6.29343,-10.565,Q,Q
2023-03-15 15:18:35:626,0,7.13007,-6.28638,-10.5048,Q,Q
2023-03-15 15:18:35:636,0,7.13193,-6.27742,-10.4466,Q,Q
2023-03-15 15:18:35:646,0,7.12673,-6.27412,-10.3887,Q,Q
2023-03-15 15:18:35:656,0,7.12157,-6.28053,-10.3321,Q,Q
2023-03-15 15:18:35:666,0,7.11829,-6.28647,-10.2792,Q,Q
2023-03-15 15:18:35:676,0,7.11522,-6.29863,-10.2282,Q,Q
2023-03-15 15:18:35:686,0,7.11657,-6.31346,-10.1843,Q,Q
2023-03-15 15:18:35:696,0,7.11525,-6.33001,-10.1446,Q,Q
2023-03-15 15:18:35:706,0,7.12008,-6.34591,-10.1079,Q,Q
2023-03-15 15:18:35:716,0,7.12018,-6.36338,-10.0727,Q,Q
2023-03-15 15:18:35:726,0,7.12515,-6.38055,-10.0385,Q,Q
2023-03-15 15:18:35:736,0,7.13465,-6.38946,-10.0062,Q,Q
2023-03-15 15:18:35:746,0,7.14004,-6.41364,-9.97729,Q,Q
2023-03-15 15:18:35:756,0,7.1407,-6.43403,-9.94926,Q,Q
2023-03-15 15:18:35:766,0,7.13979,-6.46032,-9.93325,Q,Q
2023-03-15 15:18:35:776,0,7.13979,-6.47753,-9.92638,Q,Q
2023-03-15 15:18:35:786,0,7.1536,-6.49261,-9.93742,Q,Q
2023-03-15 15:18:35:796,0,7.1686,-6.50328,-9.95382,Q,Q
2023-03-15 15:18:35:806,0,7.18778,-6.50346,-9.97166,Q,Q
2023-03-15 15:18:35:816,0,7.20953,-6.49587,-9.99658,Q,Q
2023-03-15 15:18:35:826,0,7.24044,-6.48411,-10.0255,Q,Q
2023-03-15 15:18:35:836,0,7.27145,-6.46853,-10.0487,Q,Q
2023-03-15 15:18:35:846,0,7.29798,-6.44981,-10.0631,Q,Q
2023-03-15 15:18:35:856,0,7.32076,-6.42415,-10.0731,Q,Q
2023-03-15 15:18:35:866,0,7.34049,-6.3919,-10.078,Q,Q
2023-03-15 15:18:35:876,0,7.36339,-6.35656,-10.0785,Q,Q
2023-03-15 15:18:35:886,0,7.3898,-6.32099,-10.0682,Q,Q
2023-03-15 15:18:35:896,0,7.41325,-6.28618,-10.0517,Q,Q
2023-03-15 15:18:35:906,0,7.43745,-6.25055,-10.0321,Q,Q
2023-03-15 15:18:35:916,0,7.45638,-6.21312,-10.0175,Q,Q
2023-03-15 15:18:35:926,0,7.47622,-6.17152,-10.005,Q,Q
2023-03-15 15:18:35:936,0,7.49296,-6.13543,-9.9914,Q,Q
2023-03-15 15:18:35:946,0,7.50412,-6.09664,-9.98731,Q,Q
2023-03-15 15:18:35:956,0,7.51032,-6.0552,-9.98984,Q,Q
2023-03-15 15:18:35:966,0,7.51295,-6.0116,-10.0,Q,Q
2023-03-15 15:18:35:976,0,7.51617,-5.96963,-10.0131,Q,Q
2023-03-15 15:18:35:986,0,7.51791,-5.92797,-10.0352,Q,Q
2023-03-15 15:18:35:996,0,7.51522,-5.88555,-10.0636,Q,Q
2023-03-15 15:18:36:6,0,7.51865,-5.84501,-10.1082,Q,Q
2023-03-15 15:18:36:16,0,7.51465,-5.80451,-10.1595,Q,Q
2023-03-15 15:18:36:26,0,7.51512,-5.76556,-10.2158,Q,Q
2023-03-15 15:18:36:36,0,7.51289,-5.73024,-10.2776,Q,Q
2023-03-15 15:18:36:46,0,7.50129,-5.69485,-10.3458,Q,Q
2023-03-15 15:18:36:56,0,7.48029,-5.65906,-10.4107,Q,Q
2023-03-15 15:18:36:66,0,7.44983,-5.62723,-10.4679,Q,Q
2023-03-15 15:18:36:76,0,7.40676,-5.60917,-10.5197,Q,Q
2023-03-15 15:18:36:86,0,7.35358,-5.60569,-10.559,Q,Q
2023-03-15 15:18:36:96,0,7.2898,-5.60706,-10.593,Q,Q
2023-03-15 15:18:36:106,0,7.21843,-5.61525,-10.6138,Q,Q
2023-03-15 15:18:36:116,0,7.14316,-5.63032,-10.6249,Q,Q
2023-03-15 15:18:36:126,0,7.06999,-5.65192,-10.6292,Q,Q
