Timestamp_cmd,imu_cmd,roll_delta,pitch_delta,yaw_delta,voice_type,voice_length
2023-03-14 21:44:04:42,0,-5.51921,0.900683,24.679,Q,Q
2023-03-14 21:44:04:50,0,-5.53047,0.881493,24.7685,Q,Q
2023-03-14 21:44:04:60,0,-5.53395,0.868645,24.8585,Q,Q
2023-03-14 21:44:04:71,0,-5.52597,0.867524,24.9502,Q,Q
2023-03-14 21:44:04:81,0,-5.5112,0.870908,25.0393,Q,Q
2023-03-14 21:44:04:91,0,-5.49271,0.880787,25.1294,Q,Q
2023-03-14 21:44:04:101,0,-5.4714,0.891066,25.2218,Q,Q
2023-03-14 21:44:04:111,0,-5.45102,0.899377,25.3151,Q,Q
2023-03-14 21:44:04:120,0,-5.43148,0.904043,25.4073,Q,Q
2023-03-14 21:44:04:131,0,-5.40972,0.902432,25.5027,Q,Q
2023-03-14 21:44:04:141,0,-5.38741,0.901554,25.5939,Q,Q
2023-03-14 21:44:04:151,0,-5.36055,0.903131,25.6822,Q,Q
2023-03-14 21:44:04:161,0,-5.3314,0.900037,25.7644,Q,Q
2023-03-14 21:44:04:171,0,-5.30361,0.908713,25.8317,Q,Q
2023-03-14 21:44:04:181,0,-5.27502,0.927373,25.8875,Q,Q
2023-03-14 21:44:04:191,0,-5.24546,0.957384,25.9277,Q,Q
2023-03-14 21:44:04:201,0,-5.21577,0.99402,25.9557,Q,Q
2023-03-14 21:44:04:211,0,-5.19035,1.03518,25.9748,Q,Q
2023-03-14 21:44:04:221,0,-5.17055,1.07277,25.9844,Q,Q
2023-03-14 21:44:04:231,0,-5.15506,1.10888,25.9855,Q,Q
2023-03-14 21:44:04:241,0,-5.14998,1.13985,25.981,Q,Q
2023-03-14 21:44:04:251,0,-5.15272,1.16262,25.9732,Q,Q
2023-03-14 21:44:04:261,0,-5.16975,1.17103,25.9674,Q,Q
2023-03-14 21:44:04:271,0,-5.1958,1.16736,25.9677,Q,Q
2023-03-14 21:44:04:281,0,-5.23346,1.15635,25.9683,Q,Q
2023-03-14 21:44:04:291,0,-5.27558,1.13315,25.9687,Q,Q
2023-03-14 21:44:04:301,0,-5.32518,1.09549,25.9759,Q,Q
2023-03-14 21:44:04:311,0,-5.37909,1.04529,25.984,Q,Q
2023-03-14 21:44:04:321,0,-5.43838,0.982896,25.9942,Q,Q
2023-03-14 21:44:04:331,0,-5.49165,0.915153,26.0034,Q,Q
2023-03-14 21:44:04:340,0,-5.54406,0.832195,26.016,Q,Q
2023-03-14 21:44:04:351,0,-5.59169,0.738946,26.0307,Q,Q
2023-03-14 21:44:04:361,0,-5.63197,0.64377,26.0536,Q,Q
2023-03-14 21:44:04:371,0,-5.66047,0.544114,26.0767,Q,Q
2023-03-14 21:44:04:380,0,-5.68065,0.454649,26.0958,Q,Q
2023-03-14 21:44:04:391,0,-5.69036,0.372299,26.1187,Q,Q
2023-03-14 21:44:04:401,0,-5.68683,0.312922,26.1438,Q,Q
2023-03-14 21:44:04:411,0,-5.67174,0.268621,26.1695,Q,Q
2023-03-14 21:44:04:421,0,-5.64813,0.238844,26.1971,Q,Q
2023-03-14 21:44:04:431,0,-5.6175,0.222026,26.2256,Q,Q
2023-03-14 21:44:04:441,0,-5.58253,0.222614,26.2491,Q,Q
2023-03-14 21:44:04:451,0,-5.53907,0.237588,26.2702,Q,Q
2023-03-14 21:44:04:460,0,-5.49498,0.26103,26.2918,Q,Q
2023-03-14 21:44:04:471,0,-5.44758,0.285173,26.3087,Q,Q
2023-03-14 21:44:04:481,0,-5.39995,0.315647,26.3183,Q,Q
2023-03-14 21:44:04:491,0,-5.35015,0.35162,26.3222,Q,Q
2023-03-14 21:44:04:500,0,-5.30899,0.387887,26.3191,Q,Q
2023-03-14 21:44:04:511,0,-5.27422,0.425397,26.3136,Q,Q
2023-03-14 21:44:04:520,0,-5.24665,0.459159,26.2993,Q,Q
2023-03-14 21:44:04:531,0,-5.22912,0.489046,26.2742,Q,Q
2023-03-14 21:44:04:540,0,-5.2161,0.519039,26.2434,Q,Q
2023-03-14 21:44:04:551,0,-5.20927,0.546911,26.2079,Q,Q
2023-03-14 21:44:04:561,0,-5.20916,0.572003,26.1676,Q,Q
2023-03-14 21:44:04:571,0,-5.21259,0.591655,26.1265,Q,Q
2023-03-14 21:44:04:581,0,-5.22095,0.607044,26.0904,Q,Q
2023-03-14 21:44:04:591,0,-5.2324,0.617028,26.0539,Q,Q
2023-03-14 21:44:04:601,0,-5.24712,0.62148,26.0197,Q,Q
2023-03-14 21:44:04:610,0,-5.26351,0.626991,25.9946,Q,Q
2023-03-14 21:44:04:621,0,-5.28004,0.629141,25.9742,Q,Q
2023-03-14 21:44:04:631,0,-5.3002,0.632322,25.959,Q,Q
2023-03-14 21:44:04:640,0,-5.31994,0.635849,25.9473,Q,Q
2023-03-14 21:44:04:651,0,-5.34172,0.642134,25.9409,Q,Q
2023-03-14 21:44:04:660,0,-5.36325,0.648857,25.9359,Q,Q
2023-03-14 21:44:04:670,0,-5.38482,0.655727,25.9375,Q,Q
2023-03-14 21:44:04:680,0,-5.40729,0.660191,25.9411,Q,Q
2023-03-14 21:44:04:690,0,-5.42786,0.662253,25.9518,Q,Q
2023-03-14 21:44:04:700,0,-5.44767,0.657563,25.9666,Q,Q
2023-03-14 21:44:04:711,0,-5.46574,0.646173,25.9851,Q,Q
2023-03-14 21:44:04:720,0,-5.48077,0.631106,26.0062,Q,Q
2023-03-14 21:44:04:731,0,-5.49053,0.611617,26.0273,Q,Q
2023-03-14 21:44:04:740,0,-5.49916,0.594141,26.0453,Q,Q
2023-03-14 21:44:04:751,0,-5.50609,0.579142,26.0612,Q,Q
2023-03-14 21:44:04:761,0,-5.51152,0.563083,26.0751,Q,Q
2023-03-14 21:44:04:770,0,-5.51824,0.545789,26.0885,Q,Q
2023-03-14 21:44:04:781,0,-5.52347,0.530236,26.0984,Q,Q
2023-03-14 21:44:04:791,0,-5.53382,0.520581,26.101,Q,Q
2023-03-14 21:44:04:801,0,-5.54324,0.51261,26.1012,Q,Q
2023-03-14 21:44:04:811,0,-5.5496,0.510639,26.0974,Q,Q
2023-03-14 21:44:04:821,0,-5.55352,0.510684,26.0904,Q,Q
2023-03-14 21:44:04:831,0,-5.55565,0.514536,26.0841,Q,Q
2023-03-14 21:44:04:841,0,-5.55476,0.521033,26.0754,Q,Q
2023-03-14 21:44:04:851,0,-5.55278,0.526914,26.0623,Q,Q
2023-03-14 21:44:04:860,0,-5.54896,0.53223,26.0505,Q,Q
2023-03-14 21:44:04:871,0,-5.54243,0.545371,26.0385,Q,Q
2023-03-14 21:44:04:880,0,-5.53697,0.559306,26.0289,Q,Q
2023-03-14 21:44:04:891,0,-5.53256,0.575408,26.0184,Q,Q
2023-03-14 21:44:04:901,0,-5.52417,0.588574,26.0115,Q,Q
2023-03-14 21:44:04:911,0,-5.51515,0.603432,25.9992,Q,Q
2023-03-14 21:44:04:921,0,-5.50702,0.612084,25.9888,Q,Q
2023-03-14 21:44:04:931,0,-5.4949,0.610005,25.9771,Q,Q
2023-03-14 21:44:04:941,0,-5.479,0.601822,25.9668,Q,Q
2023-03-14 21:44:04:950,0,-5.47076,0.58737,25.9617,Q,Q
2023-03-14 21:44:04:961,0,-5.4612,0.567848,25.9518,Q,Q
2023-03-14 21:44:04:971,0,-5.45718,0.542045,25.9443,Q,Q
2023-03-14 21:44:04:981,0,-5.45746,0.515277,25.9418,Q,Q
2023-03-14 21:44:04:991,0,-5.45999,0.488189,25.9378,Q,Q
2023-03-14 21:44:05:1,0,-5.46669,0.466875,25.9379,Q,Q
2023-03-14 21:44:05:11,0,-5.47253,0.444185,25.9389,Q,Q
2023-03-14 21:44:05:21,0,-5.47863,0.421568,25.942,Q,Q
2023-03-14 21:44:05:31,0,-5.48426,0.401719,25.9424,Q,Q
2023-03-14 21:44:05:40,0,-5.49047,0.386064,25.9483,Q,Q
2023-03-14 21:44:05:51,0,-5.50007,0.374914,25.9516,Q,Q
2023-03-14 21:44:05:61,0,-5.51404,0.361576,25.9566,Q,Q
2023-03-14 21:44:05:71,0,-5.52808,0.35555,25.9578,Q,Q
2023-03-14 21:44:05:81,0,-5.54482,0.349399,25.9576,Q,Q
2023-03-14 21:44:05:91,0,-5.56363,0.3474,25.9595,Q,Q
2023-03-14 21:44:05:101,0,-5.58203,0.345315,25.9583,Q,Q
2023-03-14 21:44:05:111,0,-5.59649,0.344188,25.9559,Q,Q
2023-03-14 21:44:05:121,0,-5.6027,0.343063,25.9582,Q,Q
2023-03-14 21:44:05:131,0,-5.60216,0.336727,25.9565,Q,Q
2023-03-14 21:44:05:141,0,-5.59867,0.3389,25.954,Q,Q
2023-03-14 21:44:05:151,0,-5.59224,0.337446,25.9512,Q,Q
2023-03-14 21:44:05:161,0,-5.58467,0.335322,25.9467,Q,Q
2023-03-14 21:44:05:171,0,-5.57341,0.332486,25.9461,Q,Q
2023-03-14 21:44:05:181,0,-5.55485,0.329446,25.9515,Q,Q
2023-03-14 21:44:05:191,0,-5.53585,0.329741,25.9585,Q,Q
2023-03-14 21:44:05:201,0,-5.51569,0.327177,25.9695,Q,Q
2023-03-14 21:44:05:211,0,-5.49572,0.325609,25.9796,Q,Q
2023-03-14 21:44:05:220,0,-5.47648,0.327914,25.9838,Q,Q
2023-03-14 21:44:05:231,0,-5.45779,0.328924,25.9827,Q,Q
2023-03-14 21:44:05:241,0,-5.43921,0.330436,25.9812,Q,Q
2023-03-14 21:44:05:250,0,-5.42536,0.328746,25.9806,Q,Q
2023-03-14 21:44:05:260,0,-5.41553,0.324344,25.9827,Q,Q
2023-03-14 21:44:05:271,0,-5.40907,0.314966,25.9909,Q,Q
2023-03-14 21:44:05:281,0,-5.40914,0.305044,26.0095,Q,Q
2023-03-14 21:44:05:291,0,-5.41337,0.290812,26.0349,Q,Q
2023-03-14 21:44:05:301,0,-5.4227,0.275859,26.0622,Q,Q
2023-03-14 21:44:05:311,0,-5.42326,0.269815,26.0877,Q,Q
2023-03-14 21:44:05:321,0,-5.41639,0.262917,26.1074,Q,Q
2023-03-14 21:44:05:331,0,-5.40084,0.26404,26.1223,Q,Q
2023-03-14 21:44:05:340,0,-5.37989,0.268296,26.1347,Q,Q
2023-03-14 21:44:05:350,0,-5.35228,0.271304,26.1515,Q,Q
2023-03-14 21:44:05:360,0,-5.32276,0.275446,26.1702,Q,Q
2023-03-14 21:44:05:370,0,-5.2987,0.28117,26.1908,Q,Q
2023-03-14 21:44:05:380,0,-5.28546,0.287238,26.2164,Q,Q
2023-03-14 21:44:05:390,0,-5.27832,0.290364,26.2451,Q,Q
2023-03-14 21:44:05:400,0,-5.28009,0.301098,26.27,Q,Q
2023-03-14 21:44:05:410,0,-5.28386,0.31178,26.2954,Q,Q
2023-03-14 21:44:05:420,0,-5.28384,0.330575,26.3212,Q,Q
2023-03-14 21:44:05:430,0,-5.28321,0.356912,26.3506,Q,Q
2023-03-14 21:44:05:440,0,-5.28923,0.382659,26.3874,Q,Q
2023-03-14 21:44:05:450,0,-5.30237,0.406336,26.4335,Q,Q
2023-03-14 21:44:05:460,0,-5.32323,0.416357,26.4872,Q,Q
2023-03-14 21:44:05:470,0,-5.34331,0.419507,26.5458,Q,Q
2023-03-14 21:44:05:480,0,-5.35757,0.415004,26.6041,Q,Q
2023-03-14 21:44:05:490,0,-5.36146,0.412832,26.6576,Q,Q
2023-03-14 21:44:05:500,0,-5.36802,0.40425,26.7006,Q,Q
2023-03-14 21:44:05:510,0,-5.36548,0.39542,26.738,Q,Q
2023-03-14 21:44:05:520,0,-5.35963,0.38161,26.7633,Q,Q
2023-03-14 21:44:05:530,0,-5.35064,0.370132,26.787,Q,Q
2023-03-14 21:44:05:540,0,-5.34511,0.3593,26.8044,Q,Q
2023-03-14 21:44:05:551,0,-5.341,0.355373,26.818,Q,Q
2023-03-14 21:44:05:561,0,-5.3462,0.353213,26.8231,Q,Q
2023-03-14 21:44:05:571,0,-5.35777,0.356222,26.826,Q,Q
2023-03-14 21:44:05:581,0,-5.38105,0.356993,26.8242,Q,Q
2023-03-14 21:44:05:590,0,-5.41215,0.356783,26.8167,Q,Q
2023-03-14 21:44:05:600,0,-5.44316,0.362875,26.8036,Q,Q
2023-03-14 21:44:05:611,0,-5.47855,0.36776,26.7854,Q,Q
2023-03-14 21:44:05:620,0,-5.51329,0.372333,26.7649,Q,Q
2023-03-14 21:44:05:630,0,-5.55329,0.375596,26.7408,Q,Q
2023-03-14 21:44:05:641,0,-5.59947,0.378486,26.7164,Q,Q
2023-03-14 21:44:05:651,0,-5.64455,0.380025,26.6943,Q,Q
2023-03-14 21:44:05:660,0,-5.69033,0.382884,26.673,Q,Q
2023-03-14 21:44:05:671,0,-5.73376,0.381972,26.6602,Q,Q
2023-03-14 21:44:05:681,0,-5.77739,0.379939,26.6514,Q,Q
2023-03-14 21:44:05:691,0,-5.81896,0.379095,26.6527,Q,Q
2023-03-14 21:44:05:701,0,-5.85315,0.375142,26.6599,Q,Q
2023-03-14 21:44:05:711,0,-5.88161,0.370882,26.6667,Q,Q
2023-03-14 21:44:05:721,0,-5.90237,0.368538,26.6774,Q,Q
2023-03-14 21:44:05:731,0,-5.91605,0.365519,26.6861,Q,Q
2023-03-14 21:44:05:741,0,-5.92546,0.370116,26.7007,Q,Q
2023-03-14 21:44:05:751,0,-5.93578,0.374718,26.7153,Q,Q
2023-03-14 21:44:05:761,0,-5.94392,0.384123,26.7324,Q,Q
2023-03-14 21:44:05:771,0,-5.95387,0.395234,26.749,Q,Q
2023-03-14 21:44:05:781,0,-5.96318,0.409049,26.7647,Q,Q
2023-03-14 21:44:05:791,0,-5.97931,0.419249,26.7729,Q,Q
2023-03-14 21:44:05:801,0,-5.99927,0.414319,26.7778,Q,Q
2023-03-14 21:44:05:811,0,-6.03493,0.401014,26.7729,Q,Q
2023-03-14 21:44:05:821,0,-6.06963,0.397506,26.7655,Q,Q
2023-03-14 21:44:05:831,0,-6.10229,0.399572,26.75,Q,Q
2023-03-14 21:44:05:841,0,-6.11926,0.403621,26.7276,Q,Q
2023-03-14 21:44:05:851,0,-6.13187,0.404085,26.7058,Q,Q
2023-03-14 21:44:05:861,0,-6.15073,0.39969,26.6843,Q,Q
2023-03-14 21:44:05:871,0,-6.1724,0.393755,26.6639,Q,Q
2023-03-14 21:44:05:881,0,-6.1934,0.384131,26.646,Q,Q
2023-03-14 21:44:05:891,0,-6.20408,0.370593,26.6274,Q,Q
2023-03-14 21:44:05:901,0,-6.20884,0.365152,26.6102,Q,Q
2023-03-14 21:44:05:911,0,-6.1978,0.361653,26.5936,Q,Q
2023-03-14 21:44:05:921,0,-6.17582,0.35903,26.5795,Q,Q
2023-03-14 21:44:05:931,0,-6.14739,0.356688,26.5589,Q,Q
2023-03-14 21:44:05:941,0,-6.11747,0.350072,26.54,Q,Q
2023-03-14 21:44:05:951,0,-6.08801,0.338266,26.5193,Q,Q
2023-03-14 21:44:05:961,0,-6.05665,0.324787,26.4961,Q,Q
2023-03-14 21:44:05:971,0,-6.02055,0.314841,26.4645,Q,Q
2023-03-14 21:44:05:981,0,-5.98256,0.307671,26.4238,Q,Q
2023-03-14 21:44:05:991,0,-5.94182,0.298274,26.3794,Q,Q
2023-03-14 21:44:06:1,0,-5.89859,0.290186,26.3284,Q,Q
2023-03-14 21:44:06:11,0,-5.85293,0.283846,26.2684,Q,Q
2023-03-14 21:44:06:21,0,-5.80697,0.283554,26.205,Q,Q
2023-03-14 21:44:06:31,0,-5.7634,0.283671,26.1355,Q,Q
2023-03-14 21:44:06:41,0,-5.72673,0.285057,26.0663,Q,Q
2023-03-14 21:44:06:51,0,-5.69722,0.287,25.9972,Q,Q
2023-03-14 21:44:06:61,0,-5.67315,0.288119,25.9277,Q,Q
2023-03-14 21:44:06:71,0,-5.65737,0.282137,25.8666,Q,Q
2023-03-14 21:44:06:81,0,-5.65226,0.269595,25.8138,Q,Q
2023-03-14 21:44:06:91,0,-5.65527,0.25091,25.7693,Q,Q
2023-03-14 21:44:06:101,0,-5.66654,0.225334,25.7342,Q,Q
2023-03-14 21:44:06:111,0,-5.67718,0.195828,25.7002,Q,Q
2023-03-14 21:44:06:121,0,-5.69156,0.166107,25.6676,Q,Q
2023-03-14 21:44:06:131,0,-5.70563,0.134882,25.6376,Q,Q
2023-03-14 21:44:06:141,0,-5.71799,0.102349,25.6112,Q,Q
2023-03-14 21:44:06:151,0,-5.72882,0.0708153,25.5856,Q,Q
2023-03-14 21:44:06:160,0,-5.73402,0.0400079,25.5621,Q,Q
2023-03-14 21:44:06:170,0,-5.73794,0.0187689,25.5335,Q,Q
2023-03-14 21:44:06:180,0,-5.73841,0.00415546,25.5006,Q,Q
2023-03-14 21:44:06:191,0,-5.73709,-0.0075651,25.4626,Q,Q
2023-03-14 21:44:06:200,0,-5.73275,-0.0118665,25.4224,Q,Q
2023-03-14 21:44:06:210,0,-5.73446,-0.0176437,25.3813,Q,Q
2023-03-14 21:44:06:220,0,-5.73157,-0.0179788,25.3323,Q,Q
2023-03-14 21:44:06:230,0,-5.72032,-0.0178034,25.2819,Q,Q
2023-03-14 21:44:06:241,0,-5.70712,-0.0174078,25.2315,Q,Q
2023-03-14 21:44:06:251,0,-5.6941,-0.0136283,25.1752,Q,Q
2023-03-14 21:44:06:261,0,-5.6752,-0.00987892,25.1116,Q,Q
2023-03-14 21:44:06:271,0,-5.65006,0.000154609,25.0474,Q,Q
2023-03-14 21:44:06:281,0,-5.62165,0.012636,24.9835,Q,Q
2023-03-14 21:44:06:291,0,-5.58649,0.023897,24.9229,Q,Q
2023-03-14 21:44:06:301,0,-5.55449,0.0328566,24.8639,Q,Q
2023-03-14 21:44:06:311,0,-5.52643,0.0437787,24.8049,Q,Q
2023-03-14 21:44:06:321,0,-5.49889,0.058605,24.7531,Q,Q
2023-03-14 21:44:06:331,0,-5.47679,0.0770682,24.7035,Q,Q
2023-03-14 21:44:06:341,0,-5.45776,0.099691,24.6576,Q,Q
2023-03-14 21:44:06:351,0,-5.44729,0.129113,24.6173,Q,Q
2023-03-14 21:44:06:361,0,-5.44091,0.166641,24.5741,Q,Q
2023-03-14 21:44:06:371,0,-5.44117,0.21126,24.5333,Q,Q
2023-03-14 21:44:06:381,0,-5.44195,0.254928,24.4911,Q,Q
2023-03-14 21:44:06:391,0,-5.44958,0.304782,24.454,Q,Q
2023-03-14 21:44:06:401,0,-5.46325,0.36149,24.4242,Q,Q
2023-03-14 21:44:06:411,0,-5.49033,0.413497,24.3959,Q,Q
2023-03-14 21:44:06:421,0,-5.52415,0.462874,24.3778,Q,Q
2023-03-14 21:44:06:431,0,-5.57186,0.508148,24.3645,Q,Q
2023-03-14 21:44:06:441,0,-5.62851,0.553319,24.3489,Q,Q
2023-03-14 21:44:06:451,0,-5.69576,0.587184,24.3293,Q,Q
2023-03-14 21:44:06:461,0,-5.77162,0.612501,24.3075,Q,Q
2023-03-14 21:44:06:471,0,-5.857,0.620281,24.2917,Q,Q
2023-03-14 21:44:06:481,0,-5.95026,0.618254,24.2762,Q,Q
2023-03-14 21:44:06:491,0,-6.05184,0.6016,24.2594,Q,Q
2023-03-14 21:44:06:501,0,-6.15882,0.577085,24.232,Q,Q
2023-03-14 21:44:06:511,0,-6.27082,0.55044,24.2,Q,Q
2023-03-14 21:44:06:521,0,-6.38516,0.514756,24.165,Q,Q
2023-03-14 21:44:06:531,0,-6.50553,0.470842,24.125,Q,Q
2023-03-14 21:44:06:541,0,-6.61964,0.426589,24.0814,Q,Q
2023-03-14 21:44:06:551,0,-6.72659,0.38278,24.0323,Q,Q
2023-03-14 21:44:06:561,0,-6.82974,0.3373,23.9799,Q,Q
2023-03-14 21:44:06:571,0,-6.93407,0.281282,23.9237,Q,Q
2023-03-14 21:44:06:581,0,-7.04404,0.218893,23.874,Q,Q
2023-03-14 21:44:06:591,0,-7.15605,0.145408,23.83,Q,Q
2023-03-14 21:44:06:601,0,-7.26314,0.0630338,23.7962,Q,Q
2023-03-14 21:44:06:611,0,-7.3614,-0.0213197,23.7723,Q,Q
2023-03-14 21:44:06:621,0,-7.44946,-0.0991888,23.7548,Q,Q
2023-03-14 21:44:06:631,0,-7.53315,-0.16555,23.7435,Q,Q
2023-03-14 21:44:06:641,0,-7.60764,-0.219422,23.7358,Q,Q
2023-03-14 21:44:06:651,0,-7.67711,-0.265661,23.7354,Q,Q
2023-03-14 21:44:06:661,0,-7.74934,-0.308668,23.7425,Q,Q
2023-03-14 21:44:06:671,0,-7.82341,-0.350543,23.7614,Q,Q
2023-03-14 21:44:06:681,0,-7.90498,-0.397718,23.7974,Q,Q
2023-03-14 21:44:06:691,0,-7.99005,-0.458647,23.8447,Q,Q
2023-03-14 21:44:06:701,0,-8.06417,-0.529843,23.8985,Q,Q
2023-03-14 21:44:06:711,0,-8.12734,-0.605813,23.9661,Q,Q
2023-03-14 21:44:06:721,0,-8.18019,-0.683621,24.031,Q,Q
2023-03-14 21:44:06:731,0,-8.22135,-0.756986,24.0876,Q,Q
2023-03-14 21:44:06:741,0,-8.2522,-0.821298,24.1395,Q,Q
2023-03-14 21:44:06:751,0,-8.27789,-0.87783,24.1863,Q,Q
2023-03-14 21:44:06:761,0,-8.30332,-0.935239,24.2274,Q,Q
2023-03-14 21:44:06:771,0,-8.33276,-0.991955,24.2624,Q,Q
2023-03-14 21:44:06:781,0,-8.37179,-1.05105,24.2941,Q,Q
2023-03-14 21:44:06:791,0,-8.40952,-1.10303,24.3166,Q,Q
2023-03-14 21:44:06:801,0,-8.43566,-1.1426,24.3274,Q,Q
2023-03-14 21:44:06:811,0,-8.44833,-1.18258,24.3148,Q,Q
2023-03-14 21:44:06:821,0,-8.4466,-1.21979,24.2895,Q,Q
2023-03-14 21:44:06:831,0,-8.44013,-1.25268,24.2544,Q,Q
2023-03-14 21:44:06:841,0,-8.43538,-1.28563,24.2181,Q,Q
2023-03-14 21:44:06:851,0,-8.42514,-1.3119,24.1867,Q,Q
2023-03-14 21:44:06:861,0,-8.41583,-1.33931,24.1643,Q,Q
2023-03-14 21:44:06:871,0,-8.41041,-1.35632,24.1502,Q,Q
2023-03-14 21:44:06:881,0,-8.40487,-1.36447,24.1453,Q,Q
2023-03-14 21:44:06:891,0,-8.39124,-1.37521,24.1412,Q,Q
2023-03-14 21:44:06:901,0,-8.36774,-1.3846,24.1376,Q,Q
2023-03-14 21:44:06:911,0,-8.33337,-1.39085,24.1366,Q,Q
2023-03-14 21:44:06:921,0,-8.29176,-1.39977,24.1391,Q,Q
2023-03-14 21:44:06:931,0,-8.24751,-1.41588,24.14,Q,Q
2023-03-14 21:44:06:941,0,-8.199,-1.43735,24.1432,Q,Q
2023-03-14 21:44:06:951,0,-8.15546,-1.45701,24.1463,Q,Q
2023-03-14 21:44:06:961,0,-8.11919,-1.47589,24.1526,Q,Q
2023-03-14 21:44:06:971,0,-8.08928,-1.49205,24.1549,Q,Q
2023-03-14 21:44:06:981,0,-8.06555,-1.5092,24.154,Q,Q
2023-03-14 21:44:06:991,0,-8.04437,-1.5232,24.1394,Q,Q
2023-03-14 21:44:07:1,0,-8.02184,-1.52955,24.1118,Q,Q
2023-03-14 21:44:07:11,0,-7.99868,-1.53449,24.0761,Q,Q
2023-03-14 21:44:07:21,0,-7.97793,-1.53982,24.0359,Q,Q
2023-03-14 21:44:07:31,0,-7.95625,-1.54438,23.9892,Q,Q
2023-03-14 21:44:07:41,0,-7.93965,-1.54655,23.9359,Q,Q
2023-03-14 21:44:07:51,0,-7.92587,-1.54632,23.8774,Q,Q
2023-03-14 21:44:07:61,0,-7.91382,-1.53965,23.8119,Q,Q
2023-03-14 21:44:07:71,0,-7.90058,-1.52296,23.7461,Q,Q
2023-03-14 21:44:07:81,0,-7.88587,-1.49881,23.6769,Q,Q
2023-03-14 21:44:07:91,0,-7.87277,-1.47185,23.6059,Q,Q
2023-03-14 21:44:07:101,0,-7.86119,-1.43866,23.5378,Q,Q
2023-03-14 21:44:07:111,0,-7.85111,-1.40309,23.4731,Q,Q
2023-03-14 21:44:07:121,0,-7.84407,-1.36193,23.4108,Q,Q
2023-03-14 21:44:07:131,0,-7.84074,-1.31287,23.354,Q,Q
2023-03-14 21:44:07:141,0,-7.84428,-1.25874,23.3033,Q,Q
2023-03-14 21:44:07:151,0,-7.85203,-1.20243,23.2563,Q,Q
2023-03-14 21:44:07:161,0,-7.86492,-1.1477,23.2201,Q,Q
2023-03-14 21:44:07:171,0,-7.8837,-1.09718,23.1944,Q,Q
2023-03-14 21:44:07:181,0,-7.92016,-1.07446,23.1675,Q,Q
2023-03-14 21:44:07:191,0,-7.9852,-1.07389,23.1478,Q,Q
2023-03-14 21:44:07:201,0,-8.05262,-1.04726,23.1604,Q,Q
2023-03-14 21:44:07:211,0,-8.08052,-1.01638,23.1742,Q,Q
2023-03-14 21:44:07:220,0,-8.06883,-0.986909,23.1893,Q,Q
2023-03-14 21:44:07:231,0,-8.04744,-0.983147,23.2015,Q,Q
2023-03-14 21:44:07:241,0,-8.04114,-0.999886,23.2137,Q,Q
2023-03-14 21:44:07:251,0,-8.04403,-1.02475,23.2265,Q,Q
2023-03-14 21:44:07:261,0,-8.04312,-1.05335,23.2311,Q,Q
2023-03-14 21:44:07:271,0,-8.02767,-1.07941,23.2254,Q,Q
2023-03-14 21:44:07:281,0,-8.00292,-1.09982,23.2108,Q,Q
2023-03-14 21:44:07:291,0,-7.97563,-1.11274,23.1969,Q,Q
2023-03-14 21:44:07:301,0,-7.95367,-1.12404,23.1838,Q,Q
2023-03-14 21:44:07:311,0,-7.93252,-1.12737,23.1721,Q,Q
2023-03-14 21:44:07:321,0,-7.91205,-1.12735,23.1674,Q,Q
2023-03-14 21:44:07:331,0,-7.88559,-1.12425,23.1661,Q,Q
2023-03-14 21:44:07:341,0,-7.8494,-1.1149,23.1708,Q,Q
2023-03-14 21:44:07:351,0,-7.80513,-1.10407,23.1729,Q,Q
2023-03-14 21:44:07:361,0,-7.75641,-1.09641,23.176,Q,Q
2023-03-14 21:44:07:371,0,-7.70771,-1.09962,23.1725,Q,Q
2023-03-14 21:44:07:381,0,-7.66655,-1.10984,23.1723,Q,Q
2023-03-14 21:44:07:391,0,-7.62768,-1.12849,23.1725,Q,Q
2023-03-14 21:44:07:401,0,-7.59459,-1.15127,23.1774,Q,Q
2023-03-14 21:44:07:411,0,-7.56735,-1.17962,23.1773,Q,Q
2023-03-14 21:44:07:421,0,-7.54421,-1.20725,23.1726,Q,Q
2023-03-14 21:44:07:431,0,-7.52846,-1.23528,23.1667,Q,Q
2023-03-14 21:44:07:441,0,-7.51353,-1.26318,23.1537,Q,Q
2023-03-14 21:44:07:451,0,-7.49565,-1.28802,23.1366,Q,Q
2023-03-14 21:44:07:461,0,-7.47603,-1.31962,23.1215,Q,Q
2023-03-14 21:44:07:471,0,-7.456,-1.3449,23.1034,Q,Q
2023-03-14 21:44:07:481,0,-7.43556,-1.36996,23.0829,Q,Q
2023-03-14 21:44:07:491,0,-7.42183,-1.3897,23.0609,Q,Q
2023-03-14 21:44:07:501,0,-7.4126,-1.40626,23.0401,Q,Q
2023-03-14 21:44:07:511,0,-7.40557,-1.41789,23.0175,Q,Q
2023-03-14 21:44:07:521,0,-7.39902,-1.41926,22.9952,Q,Q
2023-03-14 21:44:07:531,0,-7.38054,-1.38842,22.981,Q,Q
2023-03-14 21:44:07:541,0,-7.34182,-1.33035,22.9686,Q,Q
2023-03-14 21:44:07:551,0,-7.28505,-1.27779,22.9445,Q,Q
2023-03-14 21:44:07:561,0,-7.24351,-1.24198,22.9157,Q,Q
2023-03-14 21:44:07:571,0,-7.23201,-1.22483,22.8901,Q,Q
2023-03-14 21:44:07:581,0,-7.24129,-1.20956,22.8656,Q,Q
2023-03-14 21:44:07:591,0,-7.25413,-1.19257,22.8413,Q,Q
2023-03-14 21:44:07:601,0,-7.2552,-1.17524,22.8135,Q,Q
2023-03-14 21:44:07:611,0,-7.2536,-1.15435,22.7947,Q,Q
2023-03-14 21:44:07:621,0,-7.25676,-1.13477,22.7829,Q,Q
2023-03-14 21:44:07:631,0,-7.26595,-1.12243,22.7852,Q,Q
2023-03-14 21:44:07:641,0,-7.28124,-1.11636,22.7896,Q,Q
2023-03-14 21:44:07:651,0,-7.29632,-1.12477,22.8029,Q,Q
2023-03-14 21:44:07:661,0,-7.31253,-1.13811,22.8184,Q,Q
2023-03-14 21:44:07:671,0,-7.33373,-1.16094,22.8393,Q,Q
2023-03-14 21:44:07:681,0,-7.36512,-1.19508,22.8636,Q,Q
2023-03-14 21:44:07:691,0,-7.40337,-1.23013,22.8941,Q,Q
2023-03-14 21:44:07:701,0,-7.4499,-1.26176,22.9204,Q,Q
2023-03-14 21:44:07:711,0,-7.49707,-1.28481,22.9413,Q,Q
2023-03-14 21:44:07:721,0,-7.54031,-1.29967,22.9542,Q,Q
2023-03-14 21:44:07:731,0,-7.57369,-1.3142,22.9651,Q,Q
2023-03-14 21:44:07:741,0,-7.59176,-1.33512,22.9764,Q,Q
2023-03-14 21:44:07:751,0,-7.5941,-1.35869,22.9873,Q,Q
2023-03-14 21:44:07:761,0,-7.58212,-1.38991,23.0057,Q,Q
2023-03-14 21:44:07:771,0,-7.55889,-1.42056,23.029,Q,Q
2023-03-14 21:44:07:781,0,-7.52504,-1.44805,23.0543,Q,Q
2023-03-14 21:44:07:791,0,-7.48089,-1.46784,23.0794,Q,Q
2023-03-14 21:44:07:801,0,-7.42566,-1.48278,23.0982,Q,Q
2023-03-14 21:44:07:811,0,-7.37119,-1.48182,23.1205,Q,Q
2023-03-14 21:44:07:821,0,-7.30947,-1.45457,23.1512,Q,Q
2023-03-14 21:44:07:831,0,-7.22974,-1.42512,23.1801,Q,Q
2023-03-14 21:44:07:841,0,-7.14674,-1.4216,23.1978,Q,Q
2023-03-14 21:44:07:851,0,-7.08954,-1.44419,23.2184,Q,Q
2023-03-14 21:44:07:861,0,-7.05775,-1.48375,23.2397,Q,Q
2023-03-14 21:44:07:871,0,-7.02986,-1.52703,23.2577,Q,Q
2023-03-14 21:44:07:881,0,-6.99827,-1.57476,23.2649,Q,Q
2023-03-14 21:44:07:891,0,-6.95233,-1.60594,23.2629,Q,Q
2023-03-14 21:44:07:901,0,-6.90543,-1.62347,23.2523,Q,Q
2023-03-14 21:44:07:911,0,-6.85897,-1.63067,23.2371,Q,Q
2023-03-14 21:44:07:921,0,-6.82037,-1.64452,23.2031,Q,Q
2023-03-14 21:44:07:931,0,-6.8022,-1.67224,23.1551,Q,Q
2023-03-14 21:44:07:940,0,-6.80669,-1.72034,23.0973,Q,Q
2023-03-14 21:44:07:951,0,-6.82608,-1.78353,23.0421,Q,Q
2023-03-14 21:44:07:961,0,-6.84857,-1.85338,22.9874,Q,Q
2023-03-14 21:44:07:971,0,-6.87824,-1.92483,22.9333,Q,Q
2023-03-14 21:44:07:981,0,-6.91879,-1.98778,22.8896,Q,Q
2023-03-14 21:44:07:991,0,-6.97466,-2.04619,22.8519,Q,Q
2023-03-14 21:44:08:1,0,-7.03352,-2.09708,22.8149,Q,Q
2023-03-14 21:44:08:11,0,-7.095,-2.1337,22.7768,Q,Q
2023-03-14 21:44:08:21,0,-7.15447,-2.15818,22.7426,Q,Q
2023-03-14 21:44:08:31,0,-7.21058,-2.16869,22.713,Q,Q
2023-03-14 21:44:08:41,0,-7.26399,-2.17325,22.6814,Q,Q
2023-03-14 21:44:08:51,0,-7.31558,-2.17513,22.6522,Q,Q
2023-03-14 21:44:08:61,0,-7.36344,-2.17641,22.6255,Q,Q
2023-03-14 21:44:08:71,0,-7.40995,-2.18212,22.597,Q,Q
2023-03-14 21:44:08:81,0,-7.44869,-2.19119,22.5735,Q,Q
2023-03-14 21:44:08:91,0,-7.47762,-2.20592,22.5549,Q,Q
2023-03-14 21:44:08:101,0,-7.49607,-2.22767,22.539,Q,Q
2023-03-14 21:44:08:111,0,-7.5054,-2.25261,22.526,Q,Q
2023-03-14 21:44:08:121,0,-7.50501,-2.2834,22.5141,Q,Q
2023-03-14 21:44:08:131,0,-7.49852,-2.31807,22.5043,Q,Q
2023-03-14 21:44:08:141,0,-7.48331,-2.3575,22.499,Q,Q
2023-03-14 21:44:08:151,0,-7.46212,-2.39289,22.494,Q,Q
2023-03-14 21:44:08:161,0,-7.43909,-2.42985,22.4885,Q,Q
2023-03-14 21:44:08:171,0,-7.4069,-2.46205,22.476,Q,Q
2023-03-14 21:44:08:181,0,-7.36911,-2.48999,22.4533,Q,Q
2023-03-14 21:44:08:191,0,-7.32624,-2.52218,22.4254,Q,Q
2023-03-14 21:44:08:201,0,-7.28196,-2.55636,22.396,Q,Q
2023-03-14 21:44:08:211,0,-7.23448,-2.59252,22.3672,Q,Q
2023-03-14 21:44:08:221,0,-7.18588,-2.62827,22.3368,Q,Q
2023-03-14 21:44:08:231,0,-7.14092,-2.6622,22.3067,Q,Q
2023-03-14 21:44:08:240,0,-7.10624,-2.69296,22.2827,Q,Q
2023-03-14 21:44:08:251,0,-7.07526,-2.7155,22.2563,Q,Q
2023-03-14 21:44:08:261,0,-7.04739,-2.72736,22.2315,Q,Q
2023-03-14 21:44:08:271,0,-7.02086,-2.73462,22.2073,Q,Q
2023-03-14 21:44:08:281,0,-6.99507,-2.74052,22.1854,Q,Q
2023-03-14 21:44:08:291,0,-6.97238,-2.75604,22.1717,Q,Q
2023-03-14 21:44:08:301,0,-6.95791,-2.77667,22.1678,Q,Q
2023-03-14 21:44:08:311,0,-6.94738,-2.80696,22.1716,Q,Q
2023-03-14 21:44:08:321,0,-6.93523,-2.84075,22.1774,Q,Q
2023-03-14 21:44:08:331,0,-6.91711,-2.87639,22.1857,Q,Q
2023-03-14 21:44:08:341,0,-6.90473,-2.91134,22.1999,Q,Q
2023-03-14 21:44:08:351,0,-6.90182,-2.95046,22.2194,Q,Q
2023-03-14 21:44:08:361,0,-6.90583,-2.98403,22.2389,Q,Q
2023-03-14 21:44:08:371,0,-6.91869,-3.0116,22.2569,Q,Q
2023-03-14 21:44:08:381,0,-6.94295,-3.03323,22.2754,Q,Q
2023-03-14 21:44:08:391,0,-6.97003,-3.0486,22.2885,Q,Q
2023-03-14 21:44:08:401,0,-6.99997,-3.05169,22.2959,Q,Q
2023-03-14 21:44:08:411,0,-7.02806,-3.05818,22.2948,Q,Q
2023-03-14 21:44:08:421,0,-7.05443,-3.06466,22.2901,Q,Q
2023-03-14 21:44:08:431,0,-7.08265,-3.07668,22.2866,Q,Q
2023-03-14 21:44:08:441,0,-7.11014,-3.09529,22.282,Q,Q
2023-03-14 21:44:08:451,0,-7.1309,-3.12298,22.2827,Q,Q
2023-03-14 21:44:08:461,0,-7.14707,-3.15436,22.2884,Q,Q
2023-03-14 21:44:08:471,0,-7.15865,-3.184,22.2961,Q,Q
2023-03-14 21:44:08:481,0,-7.16773,-3.20823,22.2999,Q,Q
2023-03-14 21:44:08:491,0,-7.17454,-3.2292,22.3031,Q,Q
2023-03-14 21:44:08:501,0,-7.18652,-3.24721,22.3096,Q,Q
2023-03-14 21:44:08:511,0,-7.1999,-3.25572,22.3179,Q,Q
2023-03-14 21:44:08:521,0,-7.22078,-3.2625,22.3255,Q,Q
2023-03-14 21:44:08:531,0,-7.24331,-3.26458,22.3379,Q,Q
2023-03-14 21:44:08:541,0,-7.26317,-3.26586,22.3549,Q,Q
2023-03-14 21:44:08:551,0,-7.27403,-3.27338,22.3749,Q,Q
2023-03-14 21:44:08:561,0,-7.28159,-3.29035,22.3938,Q,Q
2023-03-14 21:44:08:571,0,-7.27774,-3.30245,22.3985,Q,Q
2023-03-14 21:44:08:581,0,-7.26103,-3.31203,22.4002,Q,Q
2023-03-14 21:44:08:591,0,-7.2402,-3.31182,22.3942,Q,Q
2023-03-14 21:44:08:601,0,-7.2189,-3.30892,22.3828,Q,Q
2023-03-14 21:44:08:611,0,-7.19931,-3.30672,22.3657,Q,Q
2023-03-14 21:44:08:621,0,-7.18444,-3.30331,22.3443,Q,Q
2023-03-14 21:44:08:631,0,-7.167,-3.29721,22.3209,Q,Q
2023-03-14 21:44:08:641,0,-7.14596,-3.28788,22.2892,Q,Q
2023-03-14 21:44:08:651,0,-7.12926,-3.27435,22.2569,Q,Q
2023-03-14 21:44:08:661,0,-7.11141,-3.25394,22.221,Q,Q
2023-03-14 21:44:08:671,0,-7.08992,-3.2295,22.1817,Q,Q
2023-03-14 21:44:08:681,0,-7.0608,-3.20201,22.1407,Q,Q
2023-03-14 21:44:08:691,0,-7.02626,-3.16975,22.0942,Q,Q
2023-03-14 21:44:08:701,0,-6.98991,-3.13437,22.0478,Q,Q
2023-03-14 21:44:08:711,0,-6.95053,-3.0971,21.9976,Q,Q
2023-03-14 21:44:08:721,0,-6.90796,-3.05244,21.9476,Q,Q
2023-03-14 21:44:08:731,0,-6.86773,-3.00305,21.8996,Q,Q
2023-03-14 21:44:08:741,0,-6.82598,-2.951,21.8528,Q,Q
2023-03-14 21:44:08:751,0,-6.78941,-2.89843,21.8088,Q,Q
2023-03-14 21:44:08:761,0,-6.76012,-2.84558,21.767,Q,Q
2023-03-14 21:44:08:771,0,-6.73787,-2.78579,21.7296,Q,Q
2023-03-14 21:44:08:781,0,-6.70661,-2.70887,21.6953,Q,Q
2023-03-14 21:44:08:791,0,-6.6674,-2.62978,21.6576,Q,Q
2023-03-14 21:44:08:801,0,-6.63033,-2.55341,21.612,Q,Q
2023-03-14 21:44:08:811,0,-6.61065,-2.48916,21.5651,Q,Q
2023-03-14 21:44:08:821,0,-6.61648,-2.42656,21.5141,Q,Q
2023-03-14 21:44:08:831,0,-6.63407,-2.3619,21.4543,Q,Q
2023-03-14 21:44:08:841,0,-6.65017,-2.30309,21.3885,Q,Q
2023-03-14 21:44:08:851,0,-6.66886,-2.24884,21.3218,Q,Q
2023-03-14 21:44:08:861,0,-6.68728,-2.18508,21.2639,Q,Q
2023-03-14 21:44:08:871,0,-6.69205,-2.11809,21.2114,Q,Q
2023-03-14 21:44:08:881,0,-6.68916,-2.07583,21.1536,Q,Q
2023-03-14 21:44:08:891,0,-6.69937,-2.06192,21.0976,Q,Q
2023-03-14 21:44:08:901,0,-6.73342,-2.07277,21.047,Q,Q
2023-03-14 21:44:08:911,0,-6.77202,-2.07934,20.995,Q,Q
2023-03-14 21:44:08:921,0,-6.79755,-2.09053,20.9358,Q,Q
2023-03-14 21:44:08:931,0,-6.79954,-2.10128,20.8724,Q,Q
2023-03-14 21:44:08:941,0,-6.78435,-2.08699,20.8121,Q,Q
2023-03-14 21:44:08:951,0,-6.72881,-2.02023,20.7698,Q,Q
2023-03-14 21:44:08:961,0,-6.63038,-1.93616,20.7194,Q,Q
2023-03-14 21:44:08:971,0,-6.516,-1.86184,20.6633,Q,Q
2023-03-14 21:44:08:981,0,-6.42186,-1.81344,20.6124,Q,Q
2023-03-14 21:44:08:991,0,-6.36807,-1.78235,20.5644,Q,Q
2023-03-14 21:44:09:1,0,-6.33967,-1.76396,20.5188,Q,Q
2023-03-14 21:44:09:11,0,-6.31802,-1.74238,20.4648,Q,Q
2023-03-14 21:44:09:21,0,-6.28863,-1.71967,20.4028,Q,Q
2023-03-14 21:44:09:31,0,-6.25377,-1.69182,20.3399,Q,Q
2023-03-14 21:44:09:41,0,-6.22015,-1.66539,20.2827,Q,Q
2023-03-14 21:44:09:51,0,-6.19079,-1.64248,20.2277,Q,Q
2023-03-14 21:44:09:61,0,-6.15803,-1.62399,20.175,Q,Q
2023-03-14 21:44:09:71,0,-6.12391,-1.61209,20.1312,Q,Q
2023-03-14 21:44:09:81,0,-6.09409,-1.60497,20.0955,Q,Q
2023-03-14 21:44:09:91,0,-6.06739,-1.59964,20.0651,Q,Q
2023-03-14 21:44:09:101,0,-6.04691,-1.59352,20.0406,Q,Q
2023-03-14 21:44:09:111,0,-6.03578,-1.58852,20.021,Q,Q
2023-03-14 21:44:09:121,0,-6.03103,-1.59033,20.0064,Q,Q
2023-03-14 21:44:09:131,0,-6.0405,-1.59365,20.0013,Q,Q
2023-03-14 21:44:09:141,0,-6.05865,-1.60543,20.0082,Q,Q
2023-03-14 21:44:09:151,0,-6.09132,-1.62085,20.0238,Q,Q
2023-03-14 21:44:09:161,0,-6.13502,-1.63989,20.0461,Q,Q
2023-03-14 21:44:09:171,0,-6.18941,-1.66505,20.077,Q,Q
2023-03-14 21:44:09:181,0,-6.25282,-1.69459,20.1137,Q,Q
2023-03-14 21:44:09:191,0,-6.32237,-1.725,20.1552,Q,Q
2023-03-14 21:44:09:201,0,-6.39536,-1.75772,20.2033,Q,Q
2023-03-14 21:44:09:211,0,-6.47062,-1.79412,20.2487,Q,Q
2023-03-14 21:44:09:221,0,-6.54175,-1.83694,20.2953,Q,Q
2023-03-14 21:44:09:231,0,-6.61232,-1.87891,20.3407,Q,Q
2023-03-14 21:44:09:241,0,-6.67494,-1.92089,20.3814,Q,Q
2023-03-14 21:44:09:251,0,-6.73542,-1.95642,20.4185,Q,Q
2023-03-14 21:44:09:261,0,-6.78672,-1.98608,20.4508,Q,Q
2023-03-14 21:44:09:271,0,-6.82554,-2.01574,20.4749,Q,Q
2023-03-14 21:44:09:281,0,-6.85406,-2.03643,20.4926,Q,Q
2023-03-14 21:44:09:291,0,-6.86971,-2.04936,20.501,Q,Q
2023-03-14 21:44:09:301,0,-6.86898,-2.05718,20.5009,Q,Q
2023-03-14 21:44:09:311,0,-6.86365,-2.05921,20.4997,Q,Q
2023-03-14 21:44:09:321,0,-6.85189,-2.05565,20.4956,Q,Q
2023-03-14 21:44:09:331,0,-6.83877,-2.05192,20.4843,Q,Q
2023-03-14 21:44:09:341,0,-6.82339,-2.04549,20.4737,Q,Q
2023-03-14 21:44:09:351,0,-6.80629,-2.03432,20.4629,Q,Q
2023-03-14 21:44:09:361,0,-6.78515,-2.02123,20.4478,Q,Q
2023-03-14 21:44:09:371,0,-6.76436,-2.01028,20.4328,Q,Q
2023-03-14 21:44:09:381,0,-6.74136,-1.99877,20.4134,Q,Q
2023-03-14 21:44:09:391,0,-6.71357,-1.98219,20.3927,Q,Q
2023-03-14 21:44:09:401,0,-6.68613,-1.96673,20.3667,Q,Q
2023-03-14 21:44:09:411,0,-6.66296,-1.94634,20.3385,Q,Q
2023-03-14 21:44:09:421,0,-6.63573,-1.9209,20.3061,Q,Q
2023-03-14 21:44:09:431,0,-6.61391,-1.8961,20.2742,Q,Q
2023-03-14 21:44:09:441,0,-6.59727,-1.86642,20.2387,Q,Q
2023-03-14 21:44:09:451,0,-6.57684,-1.84045,20.202,Q,Q
2023-03-14 21:44:09:461,0,-6.55925,-1.81845,20.1606,Q,Q
2023-03-14 21:44:09:471,0,-6.54181,-1.79845,20.1226,Q,Q
2023-03-14 21:44:09:481,0,-6.52771,-1.78536,20.0869,Q,Q
2023-03-14 21:44:09:491,0,-6.51428,-1.77566,20.0579,Q,Q
2023-03-14 21:44:09:501,0,-6.5052,-1.76416,20.0323,Q,Q
2023-03-14 21:44:09:511,0,-6.50117,-1.75302,20.01,Q,Q
2023-03-14 21:44:09:521,0,-6.5037,-1.74439,19.9929,Q,Q
2023-03-14 21:44:09:531,0,-6.5068,-1.73689,19.975,Q,Q
2023-03-14 21:44:09:541,0,-6.51054,-1.73144,19.9632,Q,Q
2023-03-14 21:44:09:551,0,-6.5158,-1.72242,19.9532,Q,Q
2023-03-14 21:44:09:561,0,-6.52352,-1.71655,19.9458,Q,Q
2023-03-14 21:44:09:571,0,-6.53677,-1.71404,19.9431,Q,Q
2023-03-14 21:44:09:581,0,-6.55629,-1.71423,19.9426,Q,Q
2023-03-14 21:44:09:591,0,-6.57691,-1.71504,19.9479,Q,Q
2023-03-14 21:44:09:601,0,-6.60434,-1.7183,19.9534,Q,Q
2023-03-14 21:44:09:611,0,-6.63007,-1.72326,19.959,Q,Q
2023-03-14 21:44:09:621,0,-6.65919,-1.73198,19.9663,Q,Q
2023-03-14 21:44:09:631,0,-6.68476,-1.73933,19.9759,Q,Q
2023-03-14 21:44:09:641,0,-6.71207,-1.75161,19.9881,Q,Q
2023-03-14 21:44:09:651,0,-6.73591,-1.76737,20.0031,Q,Q
2023-03-14 21:44:09:661,0,-6.75852,-1.78308,20.0203,Q,Q
2023-03-14 21:44:09:671,0,-6.7811,-1.79978,20.037,Q,Q
2023-03-14 21:44:09:681,0,-6.7998,-1.80988,20.0503,Q,Q
2023-03-14 21:44:09:691,0,-6.8149,-1.824,20.0641,Q,Q
2023-03-14 21:44:09:701,0,-6.82382,-1.83978,20.0743,Q,Q
2023-03-14 21:44:09:711,0,-6.82684,-1.85569,20.0832,Q,Q
2023-03-14 21:44:09:721,0,-6.82557,-1.87295,20.087,Q,Q
2023-03-14 21:44:09:731,0,-6.81989,-1.88785,20.0897,Q,Q
2023-03-14 21:44:09:741,0,-6.81355,-1.89734,20.0899,Q,Q
2023-03-14 21:44:09:751,0,-6.80875,-1.90483,20.088,Q,Q
2023-03-14 21:44:09:761,0,-6.80382,-1.90677,20.0803,Q,Q
2023-03-14 21:44:09:771,0,-6.79914,-1.90535,20.0712,Q,Q
2023-03-14 21:44:09:781,0,-6.79345,-1.90049,20.0589,Q,Q
2023-03-14 21:44:09:791,0,-6.79196,-1.89447,20.0442,Q,Q
2023-03-14 21:44:09:801,0,-6.78456,-1.88872,20.0266,Q,Q
2023-03-14 21:44:09:811,0,-6.77395,-1.8815,20.0069,Q,Q
2023-03-14 21:44:09:821,0,-6.75769,-1.87878,19.9818,Q,Q
2023-03-14 21:44:09:831,0,-6.74182,-1.8687,19.9603,Q,Q
2023-03-14 21:44:09:841,0,-6.72806,-1.85828,19.934,Q,Q
2023-03-14 21:44:09:851,0,-6.71411,-1.84887,19.9078,Q,Q
2023-03-14 21:44:09:861,0,-6.70616,-1.83557,19.8884,Q,Q
2023-03-14 21:44:09:871,0,-6.69791,-1.82555,19.8717,Q,Q
2023-03-14 21:44:09:881,0,-6.69652,-1.81583,19.8541,Q,Q
2023-03-14 21:44:09:891,0,-6.6968,-1.80597,19.8346,Q,Q
2023-03-14 21:44:09:901,0,-6.69721,-1.79863,19.8169,Q,Q
2023-03-14 21:44:09:911,0,-6.69669,-1.79352,19.7979,Q,Q
2023-03-14 21:44:09:921,0,-6.69649,-1.7847,19.7809,Q,Q
2023-03-14 21:44:09:931,0,-6.69195,-1.77685,19.7653,Q,Q
2023-03-14 21:44:09:941,0,-6.69367,-1.76888,19.7515,Q,Q
2023-03-14 21:44:09:951,0,-6.69621,-1.76269,19.7394,Q,Q
2023-03-14 21:44:09:961,0,-6.69493,-1.75575,19.7249,Q,Q
2023-03-14 21:44:09:971,0,-6.69598,-1.75062,19.7153,Q,Q
2023-03-14 21:44:09:981,0,-6.69803,-1.74427,19.7079,Q,Q
2023-03-14 21:44:09:991,0,-6.70023,-1.73449,19.699,Q,Q
2023-03-14 21:44:10:1,0,-6.70289,-1.72947,19.6938,Q,Q
2023-03-14 21:44:10:11,0,-6.70695,-1.72484,19.6901,Q,Q
2023-03-14 21:44:10:21,0,-6.7102,-1.71955,19.6851,Q,Q
2023-03-14 21:44:10:31,0,-6.70963,-1.71764,19.6845,Q,Q
2023-03-14 21:44:10:41,0,-6.70673,-1.72367,19.6848,Q,Q
2023-03-14 21:44:10:51,0,-6.70604,-1.72946,19.6882,Q,Q
2023-03-14 21:44:10:61,0,-6.70308,-1.73811,19.6952,Q,Q
2023-03-14 21:44:10:71,0,-6.69861,-1.74475,19.7027,Q,Q
2023-03-14 21:44:10:81,0,-6.70248,-1.74996,19.7126,Q,Q
2023-03-14 21:44:10:91,0,-6.69422,-1.74764,19.7208,Q,Q
2023-03-14 21:44:10:101,0,-6.67556,-1.75542,19.7291,Q,Q
2023-03-14 21:44:10:111,0,-6.66032,-1.76901,19.7357,Q,Q
2023-03-14 21:44:10:121,0,-6.65505,-1.78464,19.7389,Q,Q
2023-03-14 21:44:10:131,0,-6.65118,-1.80084,19.738,Q,Q
2023-03-14 21:44:10:141,0,-6.64416,-1.82213,19.7342,Q,Q
2023-03-14 21:44:10:151,0,-6.63176,-1.84484,19.7282,Q,Q
2023-03-14 21:44:10:161,0,-6.62153,-1.86368,19.722,Q,Q
2023-03-14 21:44:10:171,0,-6.61476,-1.88266,19.7145,Q,Q
2023-03-14 21:44:10:181,0,-6.61208,-1.90101,19.7098,Q,Q
2023-03-14 21:44:10:191,0,-6.616,-1.91842,19.7054,Q,Q
2023-03-14 21:44:10:201,0,-6.62203,-1.93343,19.7026,Q,Q
2023-03-14 21:44:10:211,0,-6.6305,-1.94088,19.7013,Q,Q
2023-03-14 21:44:10:221,0,-6.63945,-1.94894,19.6985,Q,Q
2023-03-14 21:44:10:231,0,-6.654,-1.9512,19.6928,Q,Q
2023-03-14 21:44:10:241,0,-6.6591,-1.95686,19.6882,Q,Q
2023-03-14 21:44:10:251,0,-6.66556,-1.96357,19.6853,Q,Q
2023-03-14 21:44:10:261,0,-6.6674,-1.96427,19.6795,Q,Q
2023-03-14 21:44:10:271,0,-6.66879,-1.96506,19.6718,Q,Q
2023-03-14 21:44:10:281,0,-6.66882,-1.96844,19.6629,Q,Q
2023-03-14 21:44:10:290,0,-6.6632,-1.97496,19.6492,Q,Q
2023-03-14 21:44:10:301,0,-6.65143,-1.99268,19.6406,Q,Q
2023-03-14 21:44:10:311,0,-6.63439,-2.01112,19.635,Q,Q
2023-03-14 21:44:10:321,0,-6.61729,-2.03548,19.6293,Q,Q
2023-03-14 21:44:10:331,0,-6.6013,-2.05767,19.6221,Q,Q
2023-03-14 21:44:10:341,0,-6.58188,-2.07941,19.6115,Q,Q
2023-03-14 21:44:10:351,0,-6.56175,-2.10114,19.5988,Q,Q
2023-03-14 21:44:10:361,0,-6.53537,-2.11534,19.5829,Q,Q
2023-03-14 21:44:10:371,0,-6.50596,-2.12785,19.5659,Q,Q
2023-03-14 21:44:10:381,0,-6.47178,-2.14253,19.5454,Q,Q
2023-03-14 21:44:10:391,0,-6.43942,-2.15741,19.5238,Q,Q
2023-03-14 21:44:10:401,0,-6.40901,-2.17031,19.4992,Q,Q
2023-03-14 21:44:10:411,0,-6.38156,-2.18501,19.4713,Q,Q
2023-03-14 21:44:10:421,0,-6.35327,-2.19685,19.4447,Q,Q
2023-03-14 21:44:10:431,0,-6.32233,-2.1999,19.4188,Q,Q
2023-03-14 21:44:10:441,0,-6.29031,-2.18964,19.3904,Q,Q
2023-03-14 21:44:10:451,0,-6.2485,-2.17405,19.3582,Q,Q
2023-03-14 21:44:10:461,0,-6.20691,-2.16204,19.3273,Q,Q
2023-03-14 21:44:10:471,0,-6.17584,-2.15607,19.3001,Q,Q
2023-03-14 21:44:10:481,0,-6.16175,-2.16322,19.2719,Q,Q
2023-03-14 21:44:10:491,0,-6.15494,-2.17099,19.2451,Q,Q
2023-03-14 21:44:10:501,0,-6.14837,-2.18182,19.2142,Q,Q
2023-03-14 21:44:10:511,0,-6.13885,-2.19215,19.1834,Q,Q
2023-03-14 21:44:10:521,0,-6.1286,-2.19812,19.1549,Q,Q
2023-03-14 21:44:10:531,0,-6.11783,-2.19933,19.1203,Q,Q
2023-03-14 21:44:10:541,0,-6.1115,-2.19615,19.0849,Q,Q
2023-03-14 21:44:10:551,0,-6.10251,-2.1894,19.0525,Q,Q
2023-03-14 21:44:10:561,0,-6.09479,-2.1831,19.0244,Q,Q
2023-03-14 21:44:10:571,0,-6.0906,-2.17705,18.9979,Q,Q
2023-03-14 21:44:10:581,0,-6.09141,-2.16991,18.9768,Q,Q
2023-03-14 21:44:10:591,0,-6.09857,-2.15572,18.9527,Q,Q
2023-03-14 21:44:10:601,0,-6.11261,-2.1418,18.9299,Q,Q
2023-03-14 21:44:10:611,0,-6.13272,-2.11933,18.9054,Q,Q
2023-03-14 21:44:10:621,0,-6.15474,-2.09355,18.8771,Q,Q
2023-03-14 21:44:10:631,0,-6.18068,-2.06418,18.8521,Q,Q
2023-03-14 21:44:10:641,0,-6.21588,-2.03336,18.8321,Q,Q
2023-03-14 21:44:10:651,0,-6.24921,-2.00832,18.8103,Q,Q
2023-03-14 21:44:10:661,0,-6.28376,-1.98242,18.7875,Q,Q
2023-03-14 21:44:10:671,0,-6.31581,-1.95808,18.7678,Q,Q
2023-03-14 21:44:10:681,0,-6.34754,-1.93865,18.7495,Q,Q
2023-03-14 21:44:10:691,0,-6.37886,-1.92237,18.734,Q,Q
2023-03-14 21:44:10:701,0,-6.40412,-1.90724,18.7209,Q,Q
2023-03-14 21:44:10:711,0,-6.43156,-1.89902,18.7109,Q,Q
2023-03-14 21:44:10:721,0,-6.46042,-1.88984,18.7041,Q,Q
2023-03-14 21:44:10:731,0,-6.48318,-1.88236,18.6963,Q,Q
2023-03-14 21:44:10:741,0,-6.50147,-1.87368,18.6921,Q,Q
2023-03-14 21:44:10:751,0,-6.51313,-1.86667,18.688,Q,Q
2023-03-14 21:44:10:761,0,-6.52224,-1.86046,18.6834,Q,Q
2023-03-14 21:44:10:771,0,-6.52453,-1.8525,18.6784,Q,Q
2023-03-14 21:44:10:781,0,-6.52177,-1.84376,18.6701,Q,Q
2023-03-14 21:44:10:791,0,-6.51492,-1.83215,18.667,Q,Q
2023-03-14 21:44:10:800,0,-6.50493,-1.82441,18.6615,Q,Q
2023-03-14 21:44:10:811,0,-6.49617,-1.81568,18.655,Q,Q
2023-03-14 21:44:10:821,0,-6.4816,-1.80681,18.6465,Q,Q
2023-03-14 21:44:10:831,0,-6.46963,-1.7989,18.6394,Q,Q
2023-03-14 21:44:10:841,0,-6.45863,-1.791,18.6308,Q,Q
2023-03-14 21:44:10:851,0,-6.45151,-1.78287,18.621,Q,Q
2023-03-14 21:44:10:861,0,-6.44565,-1.77954,18.6094,Q,Q
2023-03-14 21:44:10:871,0,-6.44098,-1.77541,18.5988,Q,Q
2023-03-14 21:44:10:881,0,-6.43972,-1.76906,18.5883,Q,Q
2023-03-14 21:44:10:891,0,-6.44136,-1.76442,18.5754,Q,Q
2023-03-14 21:44:10:901,0,-6.43951,-1.76273,18.5602,Q,Q
2023-03-14 21:44:10:911,0,-6.43504,-1.76353,18.5443,Q,Q
2023-03-14 21:44:10:921,0,-6.43573,-1.76469,18.5278,Q,Q
2023-03-14 21:44:10:931,0,-6.43362,-1.76451,18.5129,Q,Q
2023-03-14 21:44:10:941,0,-6.42593,-1.76451,18.4971,Q,Q
2023-03-14 21:44:10:951,0,-6.41922,-1.76386,18.481,Q,Q
2023-03-14 21:44:10:961,0,-6.40997,-1.76024,18.4656,Q,Q
2023-03-14 21:44:10:971,0,-6.40349,-1.75757,18.449,Q,Q
2023-03-14 21:44:10:981,0,-6.39061,-1.75259,18.4364,Q,Q
2023-03-14 21:44:10:991,0,-6.37884,-1.74636,18.4242,Q,Q
2023-03-14 21:44:11:1,0,-6.36651,-1.73861,18.4142,Q,Q
2023-03-14 21:44:11:11,0,-6.35254,-1.73517,18.406,Q,Q
2023-03-14 21:44:11:21,0,-6.33611,-1.72799,18.3959,Q,Q
2023-03-14 21:44:11:31,0,-6.32445,-1.72536,18.3876,Q,Q
2023-03-14 21:44:11:41,0,-6.31599,-1.72153,18.3787,Q,Q
2023-03-14 21:44:11:51,0,-6.31025,-1.71901,18.3702,Q,Q
2023-03-14 21:44:11:61,0,-6.30501,-1.71765,18.3659,Q,Q
2023-03-14 21:44:11:71,0,-6.29747,-1.71877,18.3612,Q,Q
2023-03-14 21:44:11:81,0,-6.29351,-1.72213,18.3585,Q,Q
2023-03-14 21:44:11:91,0,-6.29212,-1.724,18.3556,Q,Q
2023-03-14 21:44:11:101,0,-6.29013,-1.72922,18.3524,Q,Q
2023-03-14 21:44:11:111,0,-6.28887,-1.73397,18.3464,Q,Q
2023-03-14 21:44:11:121,0,-6.28816,-1.74337,18.3409,Q,Q
2023-03-14 21:44:11:131,0,-6.28605,-1.75431,18.3341,Q,Q
2023-03-14 21:44:11:141,0,-6.28172,-1.76535,18.3278,Q,Q
2023-03-14 21:44:11:151,0,-6.28319,-1.77478,18.3192,Q,Q
2023-03-14 21:44:11:161,0,-6.28209,-1.78536,18.315,Q,Q
2023-03-14 21:44:11:171,0,-6.28105,-1.79479,18.3095,Q,Q
2023-03-14 21:44:11:181,0,-6.27776,-1.79995,18.3048,Q,Q
2023-03-14 21:44:11:191,0,-6.26934,-1.81156,18.3047,Q,Q
2023-03-14 21:44:11:201,0,-6.26212,-1.82291,18.3088,Q,Q
2023-03-14 21:44:11:211,0,-6.2525,-1.83946,18.3125,Q,Q
2023-03-14 21:44:11:221,0,-6.24491,-1.85358,18.3203,Q,Q
2023-03-14 21:44:11:231,0,-6.23767,-1.86888,18.3318,Q,Q
2023-03-14 21:44:11:241,0,-6.23483,-1.8866,18.3474,Q,Q
2023-03-14 21:44:11:251,0,-6.23119,-1.89651,18.3576,Q,Q
2023-03-14 21:44:11:261,0,-6.23233,-1.9096,18.3664,Q,Q
2023-03-14 21:44:11:271,0,-6.23591,-1.91939,18.3788,Q,Q
2023-03-14 21:44:11:281,0,-6.24183,-1.92779,18.3899,Q,Q
2023-03-14 21:44:11:291,0,-6.2487,-1.93939,18.3974,Q,Q
2023-03-14 21:44:11:301,0,-6.25918,-1.94996,18.4061,Q,Q
2023-03-14 21:44:11:311,0,-6.26977,-1.95868,18.4143,Q,Q
2023-03-14 21:44:11:321,0,-6.27931,-1.96429,18.4177,Q,Q
2023-03-14 21:44:11:331,0,-6.29125,-1.97299,18.4191,Q,Q
2023-03-14 21:44:11:341,0,-6.30289,-1.9774,18.4213,Q,Q
2023-03-14 21:44:11:351,0,-6.31742,-1.98013,18.4156,Q,Q
2023-03-14 21:44:11:361,0,-6.33036,-1.97937,18.4076,Q,Q
2023-03-14 21:44:11:371,0,-6.34346,-1.97628,18.4,Q,Q
2023-03-14 21:44:11:381,0,-6.35616,-1.97232,18.3871,Q,Q
2023-03-14 21:44:11:391,0,-6.36545,-1.96855,18.3699,Q,Q
2023-03-14 21:44:11:401,0,-6.37825,-1.95913,18.3539,Q,Q
2023-03-14 21:44:11:411,0,-6.38886,-1.95079,18.3374,Q,Q
2023-03-14 21:44:11:421,0,-6.39914,-1.93916,18.322,Q,Q
2023-03-14 21:44:11:431,0,-6.40102,-1.92862,18.3019,Q,Q
2023-03-14 21:44:11:441,0,-6.40258,-1.91144,18.2774,Q,Q
2023-03-14 21:44:11:451,0,-6.39879,-1.8967,18.2557,Q,Q
2023-03-14 21:44:11:461,0,-6.39373,-1.88597,18.235,Q,Q
2023-03-14 21:44:11:471,0,-6.3918,-1.87632,18.2228,Q,Q
2023-03-14 21:44:11:481,0,-6.38883,-1.87083,18.2124,Q,Q
2023-03-14 21:44:11:491,0,-6.3873,-1.86403,18.2007,Q,Q
2023-03-14 21:44:11:500,0,-6.39111,-1.85568,18.1932,Q,Q
2023-03-14 21:44:11:511,0,-6.39092,-1.84952,18.1872,Q,Q
2023-03-14 21:44:11:521,0,-6.39207,-1.84434,18.1836,Q,Q
2023-03-14 21:44:11:531,0,-6.39589,-1.83725,18.1746,Q,Q
2023-03-14 21:44:11:541,0,-6.40089,-1.8271,18.1671,Q,Q
2023-03-14 21:44:11:551,0,-6.40158,-1.81915,18.1609,Q,Q
2023-03-14 21:44:11:561,0,-6.40063,-1.81153,18.1518,Q,Q
2023-03-14 21:44:11:571,0,-6.39848,-1.80703,18.1439,Q,Q
2023-03-14 21:44:11:581,0,-6.39565,-1.80418,18.1342,Q,Q
2023-03-14 21:44:11:591,0,-6.39096,-1.80237,18.1243,Q,Q
2023-03-14 21:44:11:601,0,-6.38588,-1.80355,18.1111,Q,Q
2023-03-14 21:44:11:611,0,-6.37843,-1.80177,18.0968,Q,Q
2023-03-14 21:44:11:621,0,-6.37199,-1.79962,18.0823,Q,Q
2023-03-14 21:44:11:631,0,-6.36903,-1.79619,18.0707,Q,Q
2023-03-14 21:44:11:641,0,-6.36687,-1.79615,18.0631,Q,Q
2023-03-14 21:44:11:651,0,-6.36473,-1.79645,18.0536,Q,Q
2023-03-14 21:44:11:661,0,-6.36644,-1.79141,18.0449,Q,Q
2023-03-14 21:44:11:671,0,-6.37074,-1.78903,18.0368,Q,Q
2023-03-14 21:44:11:681,0,-6.37441,-1.78317,18.0289,Q,Q
2023-03-14 21:44:11:691,0,-6.37957,-1.77859,18.0177,Q,Q
2023-03-14 21:44:11:701,0,-6.38582,-1.76981,18.0047,Q,Q
2023-03-14 21:44:11:711,0,-6.3916,-1.76105,17.9972,Q,Q
2023-03-14 21:44:11:721,0,-6.39648,-1.75502,17.9834,Q,Q
2023-03-14 21:44:11:731,0,-6.40069,-1.74396,17.9709,Q,Q
2023-03-14 21:44:11:741,0,-6.40308,-1.73201,17.9601,Q,Q
2023-03-14 21:44:11:751,0,-6.4053,-1.72019,17.9465,Q,Q
2023-03-14 21:44:11:761,0,-6.40519,-1.71307,17.933,Q,Q
2023-03-14 21:44:11:771,0,-6.40485,-1.70364,17.9198,Q,Q
2023-03-14 21:44:11:781,0,-6.40655,-1.6936,17.9073,Q,Q
2023-03-14 21:44:11:791,0,-6.40325,-1.68492,17.8891,Q,Q
2023-03-14 21:44:11:801,0,-6.40068,-1.67356,17.8748,Q,Q
2023-03-14 21:44:11:811,0,-6.39682,-1.66762,17.8583,Q,Q
2023-03-14 21:44:11:821,0,-6.393,-1.65863,17.8423,Q,Q
2023-03-14 21:44:11:831,0,-6.38841,-1.64977,17.8258,Q,Q
2023-03-14 21:44:11:841,0,-6.38064,-1.64079,17.8154,Q,Q
2023-03-14 21:44:11:851,0,-6.37429,-1.63699,17.8028,Q,Q
2023-03-14 21:44:11:861,0,-6.36947,-1.63375,17.7908,Q,Q
2023-03-14 21:44:11:871,0,-6.36257,-1.62872,17.7846,Q,Q
2023-03-14 21:44:11:881,0,-6.35604,-1.62928,17.7805,Q,Q
2023-03-14 21:44:11:891,0,-6.34864,-1.6314,17.7764,Q,Q
2023-03-14 21:44:11:901,0,-6.34071,-1.63832,17.7765,Q,Q
2023-03-14 21:44:11:911,0,-6.33392,-1.64301,17.7771,Q,Q
2023-03-14 21:44:11:921,0,-6.32852,-1.64877,17.7795,Q,Q
2023-03-14 21:44:11:931,0,-6.31813,-1.65472,17.7839,Q,Q
2023-03-14 21:44:11:941,0,-6.30743,-1.66143,17.792,Q,Q
2023-03-14 21:44:11:951,0,-6.30034,-1.6716,17.7979,Q,Q
2023-03-14 21:44:11:961,0,-6.29219,-1.6817,17.8062,Q,Q
2023-03-14 21:44:11:971,0,-6.28381,-1.68938,17.8129,Q,Q
2023-03-14 21:44:11:981,0,-6.27508,-1.70009,17.8207,Q,Q
2023-03-14 21:44:11:991,0,-6.263,-1.70779,17.8277,Q,Q
2023-03-14 21:44:12:1,0,-6.25878,-1.71609,17.8337,Q,Q
2023-03-14 21:44:12:11,0,-6.25173,-1.72639,17.8353,Q,Q
2023-03-14 21:44:12:21,0,-6.24793,-1.73448,17.8421,Q,Q
2023-03-14 21:44:12:31,0,-6.24505,-1.7412,17.8504,Q,Q
2023-03-14 21:44:12:41,0,-6.24119,-1.74874,17.8533,Q,Q
2023-03-14 21:44:12:51,0,-6.23776,-1.75473,17.8544,Q,Q
2023-03-14 21:44:12:61,0,-6.23258,-1.75824,17.8543,Q,Q
2023-03-14 21:44:12:71,0,-6.22732,-1.76093,17.8578,Q,Q
2023-03-14 21:44:12:81,0,-6.2222,-1.7639,17.855,Q,Q
2023-03-14 21:44:12:91,0,-6.21976,-1.76437,17.8549,Q,Q
2023-03-14 21:44:12:101,0,-6.22071,-1.76349,17.8518,Q,Q
2023-03-14 21:44:12:111,0,-6.22077,-1.76087,17.8477,Q,Q
2023-03-14 21:44:12:121,0,-6.21982,-1.7538,17.8423,Q,Q
2023-03-14 21:44:12:131,0,-6.21943,-1.75141,17.8323,Q,Q
2023-03-14 21:44:12:141,0,-6.22097,-1.74255,17.8197,Q,Q
2023-03-14 21:44:12:151,0,-6.2193,-1.73827,17.8032,Q,Q
2023-03-14 21:44:12:161,0,-6.2138,-1.73705,17.7909,Q,Q
2023-03-14 21:44:12:171,0,-6.2094,-1.73593,17.7812,Q,Q
2023-03-14 21:44:12:181,0,-6.20211,-1.7389,17.7744,Q,Q
2023-03-14 21:44:12:191,0,-6.19786,-1.74151,17.7734,Q,Q
2023-03-14 21:44:12:201,0,-6.19504,-1.74564,17.7755,Q,Q
2023-03-14 21:44:12:211,0,-6.1966,-1.7447,17.7748,Q,Q
2023-03-14 21:44:12:221,0,-6.1945,-1.74219,17.7761,Q,Q
2023-03-14 21:44:12:231,0,-6.19606,-1.73675,17.7773,Q,Q
2023-03-14 21:44:12:241,0,-6.19573,-1.73265,17.7776,Q,Q
2023-03-14 21:44:12:251,0,-6.19285,-1.72684,17.7792,Q,Q
2023-03-14 21:44:12:261,0,-6.18831,-1.72277,17.7785,Q,Q
2023-03-14 21:44:12:271,0,-6.18416,-1.71969,17.7786,Q,Q
2023-03-14 21:44:12:281,0,-6.17958,-1.71883,17.7808,Q,Q
2023-03-14 21:44:12:291,0,-6.17937,-1.71706,17.783,Q,Q
2023-03-14 21:44:12:301,0,-6.17747,-1.71595,17.7841,Q,Q
2023-03-14 21:44:12:311,0,-6.17498,-1.71725,17.7817,Q,Q
2023-03-14 21:44:12:321,0,-6.17348,-1.71739,17.7787,Q,Q
2023-03-14 21:44:12:331,0,-6.17147,-1.71972,17.7771,Q,Q
2023-03-14 21:44:12:340,0,-6.16831,-1.72199,17.7714,Q,Q
2023-03-14 21:44:12:351,0,-6.16714,-1.72356,17.7647,Q,Q
2023-03-14 21:44:12:361,0,-6.16463,-1.72748,17.7607,Q,Q
2023-03-14 21:44:12:371,0,-6.15916,-1.73135,17.7556,Q,Q
2023-03-14 21:44:12:381,0,-6.1568,-1.73542,17.7487,Q,Q
2023-03-14 21:44:12:391,0,-6.15671,-1.74054,17.7418,Q,Q
2023-03-14 21:44:12:401,0,-6.15513,-1.74412,17.7324,Q,Q
2023-03-14 21:44:12:411,0,-6.15073,-1.74824,17.719,Q,Q
2023-03-14 21:44:12:421,0,-6.14089,-1.74881,17.7079,Q,Q
2023-03-14 21:44:12:431,0,-6.13141,-1.75115,17.6989,Q,Q
2023-03-14 21:44:12:441,0,-6.12066,-1.75309,17.6908,Q,Q
2023-03-14 21:44:12:451,0,-6.111,-1.76224,17.6878,Q,Q
2023-03-14 21:44:12:461,0,-6.10562,-1.76903,17.6873,Q,Q
2023-03-14 21:44:12:471,0,-6.106,-1.77728,17.6861,Q,Q
2023-03-14 21:44:12:481,0,-6.10876,-1.78243,17.6905,Q,Q
2023-03-14 21:44:12:491,0,-6.11245,-1.78682,17.6945,Q,Q
2023-03-14 21:44:12:501,0,-6.11925,-1.7944,17.7003,Q,Q
2023-03-14 21:44:12:511,0,-6.12607,-1.80064,17.705,Q,Q
2023-03-14 21:44:12:521,0,-6.13212,-1.80381,17.7088,Q,Q
2023-03-14 21:44:12:531,0,-6.13898,-1.8072,17.7127,Q,Q
2023-03-14 21:44:12:541,0,-6.14446,-1.81217,17.7186,Q,Q
2023-03-14 21:44:12:551,0,-6.14699,-1.81214,17.7206,Q,Q
2023-03-14 21:44:12:561,0,-6.14731,-1.81916,17.725,Q,Q
2023-03-14 21:44:12:571,0,-6.14782,-1.82702,17.7279,Q,Q
2023-03-14 21:44:12:581,0,-6.13935,-1.83292,17.7296,Q,Q
2023-03-14 21:44:12:591,0,-6.13117,-1.83728,17.7329,Q,Q
2023-03-14 21:44:12:601,0,-6.12038,-1.84052,17.7348,Q,Q
2023-03-14 21:44:12:611,0,-6.10612,-1.8428,17.7394,Q,Q
2023-03-14 21:44:12:621,0,-6.09636,-1.83938,17.7456,Q,Q
2023-03-14 21:44:12:631,0,-6.0894,-1.83251,17.7536,Q,Q
2023-03-14 21:44:12:641,0,-6.08635,-1.82346,17.7627,Q,Q
2023-03-14 21:44:12:651,0,-6.08104,-1.81521,17.7705,Q,Q
2023-03-14 21:44:12:661,0,-6.07641,-1.80444,17.7815,Q,Q
2023-03-14 21:44:12:671,0,-6.07655,-1.79129,17.7894,Q,Q
2023-03-14 21:44:12:681,0,-6.07851,-1.77839,17.7933,Q,Q
2023-03-14 21:44:12:691,0,-6.08711,-1.76355,17.7988,Q,Q
2023-03-14 21:44:12:701,0,-6.08728,-1.74859,17.7992,Q,Q
2023-03-14 21:44:12:711,0,-6.09312,-1.73447,17.8011,Q,Q
2023-03-14 21:44:12:721,0,-6.09486,-1.72153,17.8006,Q,Q
2023-03-14 21:44:12:731,0,-6.09832,-1.71054,17.7944,Q,Q
2023-03-14 21:44:12:741,0,-6.10544,-1.69614,17.7949,Q,Q
2023-03-14 21:44:12:751,0,-6.11347,-1.68475,17.791,Q,Q
2023-03-14 21:44:12:761,0,-6.12028,-1.67385,17.7882,Q,Q
2023-03-14 21:44:12:771,0,-6.13055,-1.66452,17.7832,Q,Q
2023-03-14 21:44:12:781,0,-6.13701,-1.65512,17.7838,Q,Q
2023-03-14 21:44:12:791,0,-6.14637,-1.64518,17.7822,Q,Q
2023-03-14 21:44:12:801,0,-6.15337,-1.63704,17.7805,Q,Q
2023-03-14 21:44:12:811,0,-6.16409,-1.6261,17.7783,Q,Q
2023-03-14 21:44:12:821,0,-6.17079,-1.61687,17.7748,Q,Q
2023-03-14 21:44:12:831,0,-6.17466,-1.60907,17.7726,Q,Q
2023-03-14 21:44:12:841,0,-6.18297,-1.60248,17.7724,Q,Q
2023-03-14 21:44:12:851,0,-6.1877,-1.5971,17.771,Q,Q
2023-03-14 21:44:12:861,0,-6.19366,-1.59389,17.7713,Q,Q
2023-03-14 21:44:12:871,0,-6.1952,-1.59201,17.7718,Q,Q
2023-03-14 21:44:12:881,0,-6.19376,-1.58814,17.7709,Q,Q
2023-03-14 21:44:12:891,0,-6.19503,-1.58505,17.773,Q,Q
2023-03-14 21:44:12:901,0,-6.1918,-1.58381,17.7735,Q,Q
2023-03-14 21:44:12:911,0,-6.18621,-1.57874,17.7751,Q,Q
2023-03-14 21:44:12:921,0,-6.18039,-1.57479,17.7736,Q,Q
2023-03-14 21:44:12:931,0,-6.1787,-1.573,17.7756,Q,Q
2023-03-14 21:44:12:941,0,-6.17619,-1.57434,17.7773,Q,Q
2023-03-14 21:44:12:951,0,-6.17244,-1.57542,17.7768,Q,Q
2023-03-14 21:44:12:961,0,-6.16385,-1.57503,17.773,Q,Q
2023-03-14 21:44:12:971,0,-6.15725,-1.57284,17.7716,Q,Q
2023-03-14 21:44:12:981,0,-6.15066,-1.57082,17.7728,Q,Q
2023-03-14 21:44:12:991,0,-6.14293,-1.56992,17.7735,Q,Q
2023-03-14 21:44:13:1,0,-6.1348,-1.56888,17.7741,Q,Q
2023-03-14 21:44:13:11,0,-6.1259,-1.56637,17.7729,Q,Q
2023-03-14 21:44:13:21,0,-6.11871,-1.56747,17.772,Q,Q
2023-03-14 21:44:13:31,0,-6.10755,-1.56787,17.7701,Q,Q
2023-03-14 21:44:13:41,0,-6.10318,-1.5672,17.7677,Q,Q
2023-03-14 21:44:13:51,0,-6.09854,-1.5678,17.7695,Q,Q
2023-03-14 21:44:13:61,0,-6.09521,-1.56599,17.7684,Q,Q
2023-03-14 21:44:13:71,0,-6.09099,-1.56358,17.7644,Q,Q
2023-03-14 21:44:13:81,0,-6.08701,-1.5639,17.7624,Q,Q
2023-03-14 21:44:13:91,0,-6.08513,-1.56407,17.7584,Q,Q
2023-03-14 21:44:13:101,0,-6.0837,-1.56429,17.7571,Q,Q
2023-03-14 21:44:13:111,0,-6.08216,-1.56797,17.7546,Q,Q
2023-03-14 21:44:13:121,0,-6.08208,-1.57291,17.7531,Q,Q
2023-03-14 21:44:13:131,0,-6.07843,-1.5789,17.7512,Q,Q
2023-03-14 21:44:13:141,0,-6.07636,-1.58165,17.7489,Q,Q
2023-03-14 21:44:13:151,0,-6.07275,-1.58181,17.7471,Q,Q
2023-03-14 21:44:13:161,0,-6.07195,-1.58415,17.7491,Q,Q
2023-03-14 21:44:13:171,0,-6.07157,-1.58918,17.7497,Q,Q
2023-03-14 21:44:13:181,0,-6.07392,-1.58863,17.7505,Q,Q
2023-03-14 21:44:13:191,0,-6.07193,-1.58977,17.7484,Q,Q
2023-03-14 21:44:13:201,0,-6.06945,-1.59217,17.747,Q,Q
2023-03-14 21:44:13:211,0,-6.06588,-1.60165,17.746,Q,Q
2023-03-14 21:44:13:221,0,-6.0626,-1.61402,17.7513,Q,Q
2023-03-14 21:44:13:231,0,-6.0646,-1.62803,17.756,Q,Q
2023-03-14 21:44:13:241,0,-6.06719,-1.63888,17.7604,Q,Q
2023-03-14 21:44:13:251,0,-6.06715,-1.64942,17.7648,Q,Q
2023-03-14 21:44:13:261,0,-6.06624,-1.65712,17.7696,Q,Q
2023-03-14 21:44:13:271,0,-6.064,-1.66164,17.7726,Q,Q
2023-03-14 21:44:13:281,0,-6.05649,-1.66585,17.7728,Q,Q
2023-03-14 21:44:13:291,0,-6.05089,-1.67073,17.7723,Q,Q
2023-03-14 21:44:13:301,0,-6.0416,-1.67209,17.7742,Q,Q
2023-03-14 21:44:13:311,0,-6.03362,-1.67807,17.7742,Q,Q
2023-03-14 21:44:13:321,0,-6.0278,-1.68137,17.7734,Q,Q
2023-03-14 21:44:13:331,0,-6.02718,-1.68407,17.7739,Q,Q
2023-03-14 21:44:13:341,0,-6.02631,-1.68569,17.777,Q,Q
2023-03-14 21:44:13:351,0,-6.0256,-1.68692,17.7757,Q,Q
2023-03-14 21:44:13:361,0,-6.02995,-1.68619,17.7757,Q,Q
2023-03-14 21:44:13:370,0,-6.03491,-1.68336,17.7752,Q,Q
2023-03-14 21:44:13:381,0,-6.03827,-1.68383,17.7722,Q,Q
2023-03-14 21:44:13:391,0,-6.03936,-1.68478,17.77,Q,Q
2023-03-14 21:44:13:401,0,-6.03712,-1.68461,17.766,Q,Q
2023-03-14 21:44:13:411,0,-6.03024,-1.6858,17.7595,Q,Q
2023-03-14 21:44:13:421,0,-6.02374,-1.68645,17.7551,Q,Q
2023-03-14 21:44:13:431,0,-6.01467,-1.68813,17.7498,Q,Q
2023-03-14 21:44:13:441,0,-6.00508,-1.69052,17.7459,Q,Q
2023-03-14 21:44:13:451,0,-5.99472,-1.69002,17.742,Q,Q
2023-03-14 21:44:13:461,0,-5.98351,-1.68341,17.7355,Q,Q
2023-03-14 21:44:13:471,0,-5.97712,-1.67884,17.7271,Q,Q
2023-03-14 21:44:13:481,0,-5.96805,-1.67446,17.7191,Q,Q
2023-03-14 21:44:13:491,0,-5.96207,-1.67552,17.7107,Q,Q
2023-03-14 21:44:13:501,0,-5.95359,-1.67604,17.7045,Q,Q
2023-03-14 21:44:13:511,0,-5.94225,-1.6798,17.7043,Q,Q
2023-03-14 21:44:13:521,0,-5.93014,-1.68285,17.7036,Q,Q
2023-03-14 21:44:13:531,0,-5.92419,-1.68424,17.7036,Q,Q
2023-03-14 21:44:13:541,0,-5.92071,-1.68358,17.705,Q,Q
2023-03-14 21:44:13:551,0,-5.91643,-1.68512,17.7068,Q,Q
2023-03-14 21:44:13:561,0,-5.91314,-1.68122,17.7097,Q,Q
2023-03-14 21:44:13:571,0,-5.90968,-1.67975,17.712,Q,Q
2023-03-14 21:44:13:581,0,-5.90821,-1.68047,17.7154,Q,Q
2023-03-14 21:44:13:591,0,-5.90462,-1.68325,17.7158,Q,Q
2023-03-14 21:44:13:601,0,-5.90282,-1.68811,17.7103,Q,Q
2023-03-14 21:44:13:611,0,-5.90214,-1.69432,17.7039,Q,Q
2023-03-14 21:44:13:621,0,-5.89505,-1.70233,17.695,Q,Q
2023-03-14 21:44:13:631,0,-5.88628,-1.7104,17.6891,Q,Q
2023-03-14 21:44:13:641,0,-5.87861,-1.71733,17.6829,Q,Q
2023-03-14 21:44:13:651,0,-5.87288,-1.72309,17.679,Q,Q
2023-03-14 21:44:13:661,0,-5.86868,-1.72884,17.6701,Q,Q
2023-03-14 21:44:13:671,0,-5.86522,-1.73165,17.666,Q,Q
2023-03-14 21:44:13:681,0,-5.86159,-1.73534,17.6608,Q,Q
2023-03-14 21:44:13:691,0,-5.85931,-1.73519,17.6616,Q,Q
2023-03-14 21:44:13:701,0,-5.86267,-1.73352,17.6651,Q,Q
2023-03-14 21:44:13:711,0,-5.86373,-1.72794,17.6719,Q,Q
2023-03-14 21:44:13:721,0,-5.86864,-1.72319,17.6787,Q,Q
2023-03-14 21:44:13:731,0,-5.8722,-1.71757,17.6823,Q,Q
2023-03-14 21:44:13:741,0,-5.87452,-1.70744,17.6875,Q,Q
2023-03-14 21:44:13:751,0,-5.88183,-1.70047,17.6931,Q,Q
2023-03-14 21:44:13:761,0,-5.88249,-1.69531,17.6932,Q,Q
2023-03-14 21:44:13:771,0,-5.88619,-1.69008,17.6925,Q,Q
2023-03-14 21:44:13:781,0,-5.89028,-1.68492,17.6894,Q,Q
2023-03-14 21:44:13:791,0,-5.89648,-1.67962,17.6852,Q,Q
2023-03-14 21:44:13:801,0,-5.90211,-1.67403,17.6775,Q,Q
2023-03-14 21:44:13:811,0,-5.90672,-1.66946,17.6679,Q,Q
2023-03-14 21:44:13:821,0,-5.91078,-1.66332,17.657,Q,Q
2023-03-14 21:44:13:831,0,-5.91458,-1.65851,17.6487,Q,Q
2023-03-14 21:44:13:841,0,-5.91793,-1.65028,17.642,Q,Q
2023-03-14 21:44:13:851,0,-5.91657,-1.64496,17.635,Q,Q
2023-03-14 21:44:13:860,0,-5.92037,-1.63693,17.6288,Q,Q
2023-03-14 21:44:13:871,0,-5.92482,-1.63371,17.6225,Q,Q
2023-03-14 21:44:13:881,0,-5.92696,-1.62974,17.6199,Q,Q
2023-03-14 21:44:13:891,0,-5.92377,-1.62844,17.6184,Q,Q
2023-03-14 21:44:13:901,0,-5.92345,-1.62757,17.6176,Q,Q
2023-03-14 21:44:13:911,0,-5.9259,-1.62315,17.6192,Q,Q
2023-03-14 21:44:13:921,0,-5.92682,-1.62075,17.6167,Q,Q
2023-03-14 21:44:13:931,0,-5.92551,-1.61852,17.613,Q,Q
2023-03-14 21:44:13:941,0,-5.92411,-1.61785,17.6098,Q,Q
2023-03-14 21:44:13:951,0,-5.9247,-1.62241,17.6079,Q,Q
2023-03-14 21:44:13:961,0,-5.91951,-1.62279,17.604,Q,Q
2023-03-14 21:44:13:971,0,-5.91756,-1.62314,17.6001,Q,Q
2023-03-14 21:44:13:981,0,-5.91251,-1.62453,17.5986,Q,Q
2023-03-14 21:44:13:991,0,-5.90722,-1.62673,17.5948,Q,Q
2023-03-14 21:44:14:1,0,-5.90842,-1.62969,17.5919,Q,Q
2023-03-14 21:44:14:11,0,-5.90685,-1.63085,17.5905,Q,Q
2023-03-14 21:44:14:21,0,-5.91092,-1.63324,17.5911,Q,Q
2023-03-14 21:44:14:31,0,-5.90873,-1.63407,17.5929,Q,Q
2023-03-14 21:44:14:41,0,-5.90982,-1.63709,17.5921,Q,Q
2023-03-14 21:44:14:51,0,-5.90883,-1.63795,17.5935,Q,Q
2023-03-14 21:44:14:61,0,-5.90971,-1.63794,17.5953,Q,Q
2023-03-14 21:44:14:71,0,-5.91346,-1.63845,17.5959,Q,Q
2023-03-14 21:44:14:81,0,-5.91059,-1.63915,17.5968,Q,Q
2023-03-14 21:44:14:91,0,-5.90996,-1.64161,17.5953,Q,Q
2023-03-14 21:44:14:101,0,-5.90304,-1.64394,17.5975,Q,Q
2023-03-14 21:44:14:111,0,-5.89994,-1.64191,17.597,Q,Q
2023-03-14 21:44:14:121,0,-5.89385,-1.63887,17.595,Q,Q
2023-03-14 21:44:14:131,0,-5.89327,-1.63784,17.5965,Q,Q
2023-03-14 21:44:14:141,0,-5.89186,-1.63389,17.5985,Q,Q
2023-03-14 21:44:14:151,0,-5.89438,-1.63167,17.6016,Q,Q
2023-03-14 21:44:14:161,0,-5.89645,-1.6278,17.6056,Q,Q
2023-03-14 21:44:14:171,0,-5.89639,-1.62557,17.6038,Q,Q
2023-03-14 21:44:14:181,0,-5.89847,-1.62407,17.6051,Q,Q
2023-03-14 21:44:14:191,0,-5.90026,-1.62445,17.6072,Q,Q
2023-03-14 21:44:14:201,0,-5.90194,-1.62349,17.6048,Q,Q
2023-03-14 21:44:14:211,0,-5.90069,-1.62013,17.6083,Q,Q
2023-03-14 21:44:14:221,0,-5.90139,-1.6178,17.6068,Q,Q
2023-03-14 21:44:14:231,0,-5.90728,-1.61409,17.6065,Q,Q
2023-03-14 21:44:14:241,0,-5.90895,-1.61335,17.6025,Q,Q
2023-03-14 21:44:14:251,0,-5.91224,-1.60914,17.5979,Q,Q
2023-03-14 21:44:14:261,0,-5.91119,-1.60665,17.5928,Q,Q
2023-03-14 21:44:14:271,0,-5.9088,-1.60415,17.5853,Q,Q
2023-03-14 21:44:14:281,0,-5.90876,-1.60512,17.5798,Q,Q
2023-03-14 21:44:14:291,0,-5.9067,-1.61214,17.578,Q,Q
2023-03-14 21:44:14:301,0,-5.90071,-1.6228,17.5826,Q,Q
2023-03-14 21:44:14:311,0,-5.89847,-1.63106,17.585,Q,Q
2023-03-14 21:44:14:321,0,-5.89491,-1.6357,17.5936,Q,Q
2023-03-14 21:44:14:331,0,-5.8925,-1.63877,17.6024,Q,Q
2023-03-14 21:44:14:341,0,-5.89347,-1.63884,17.6107,Q,Q
2023-03-14 21:44:14:351,0,-5.89574,-1.63726,17.6178,Q,Q
2023-03-14 21:44:14:361,0,-5.8987,-1.63622,17.6245,Q,Q
2023-03-14 21:44:14:371,0,-5.89743,-1.63864,17.6323,Q,Q
2023-03-14 21:44:14:381,0,-5.89219,-1.63974,17.6396,Q,Q
2023-03-14 21:44:14:391,0,-5.88598,-1.63993,17.6454,Q,Q
2023-03-14 21:44:14:401,0,-5.88291,-1.64161,17.6483,Q,Q
2023-03-14 21:44:14:411,0,-5.88475,-1.64463,17.6516,Q,Q
2023-03-14 21:44:14:421,0,-5.89128,-1.64377,17.6512,Q,Q
2023-03-14 21:44:14:431,0,-5.89668,-1.64393,17.6482,Q,Q
2023-03-14 21:44:14:441,0,-5.89991,-1.64357,17.6475,Q,Q
2023-03-14 21:44:14:451,0,-5.90701,-1.6393,17.6456,Q,Q
2023-03-14 21:44:14:461,0,-5.91172,-1.63607,17.6418,Q,Q
2023-03-14 21:44:14:471,0,-5.91562,-1.63293,17.6348,Q,Q
2023-03-14 21:44:14:481,0,-5.91807,-1.62949,17.63,Q,Q
2023-03-14 21:44:14:491,0,-5.9165,-1.6258,17.6236,Q,Q
2023-03-14 21:44:14:501,0,-5.91307,-1.62554,17.6135,Q,Q
2023-03-14 21:44:14:511,0,-5.90805,-1.62523,17.6056,Q,Q
2023-03-14 21:44:14:521,0,-5.90042,-1.62567,17.5975,Q,Q
2023-03-14 21:44:14:531,0,-5.88766,-1.62334,17.5913,Q,Q
2023-03-14 21:44:14:541,0,-5.88133,-1.6173,17.5826,Q,Q
2023-03-14 21:44:14:551,0,-5.86587,-1.61372,17.5725,Q,Q
2023-03-14 21:44:14:561,0,-5.85493,-1.61183,17.5667,Q,Q
2023-03-14 21:44:14:571,0,-5.83883,-1.61255,17.566,Q,Q
2023-03-14 21:44:14:581,0,-5.81895,-1.61646,17.5668,Q,Q
2023-03-14 21:44:14:591,0,-5.803,-1.61958,17.5705,Q,Q
2023-03-14 21:44:14:601,0,-5.78975,-1.62616,17.5752,Q,Q
2023-03-14 21:44:14:611,0,-5.77876,-1.63311,17.5802,Q,Q
2023-03-14 21:44:14:621,0,-5.76765,-1.63856,17.5819,Q,Q
