Timestamp_cmd,imu_cmd,roll_delta,pitch_delta,yaw_delta,voice_type,voice_length
2023-03-15 12:05:17:822,0,-3.60672,-6.50368,-6.77633,Q,Q
2023-03-15 12:05:17:830,0,-3.6104,-6.50736,-6.79246,Q,Q
2023-03-15 12:05:17:840,0,-3.61741,-6.51335,-6.81471,Q,Q
2023-03-15 12:05:17:850,0,-3.62503,-6.51295,-6.83615,Q,Q
2023-03-15 12:05:17:860,0,-3.63395,-6.51618,-6.86276,Q,Q
2023-03-15 12:05:17:870,0,-3.64485,-6.52544,-6.89012,Q,Q
2023-03-15 12:05:17:880,0,-3.65814,-6.53373,-6.92065,Q,Q
2023-03-15 12:05:17:890,0,-3.67163,-6.54194,-6.95356,Q,Q
2023-03-15 12:05:17:900,0,-3.68657,-6.55361,-6.99107,Q,Q
2023-03-15 12:05:17:910,0,-3.70171,-6.56763,-7.03237,Q,Q
2023-03-15 12:05:17:920,0,-3.71769,-6.57989,-7.07613,Q,Q
2023-03-15 12:05:17:930,0,-3.72983,-6.59695,-7.12112,Q,Q
2023-03-15 12:05:17:940,0,-3.73888,-6.61213,-7.17238,Q,Q
2023-03-15 12:05:17:950,0,-3.74772,-6.62797,-7.22016,Q,Q
2023-03-15 12:05:17:960,0,-3.75912,-6.64251,-7.26976,Q,Q
2023-03-15 12:05:17:970,0,-3.77155,-6.65525,-7.32202,Q,Q
2023-03-15 12:05:17:980,0,-3.78345,-6.6661,-7.37716,Q,Q
2023-03-15 12:05:17:990,0,-3.79527,-6.67776,-7.43281,Q,Q
2023-03-15 12:05:18:0,0,-3.80455,-6.69085,-7.49064,Q,Q
2023-03-15 12:05:18:10,0,-3.81432,-6.69435,-7.55601,Q,Q
2023-03-15 12:05:18:20,0,-3.82493,-6.69841,-7.62991,Q,Q
2023-03-15 12:05:18:30,0,-3.841,-6.70584,-7.72093,Q,Q
2023-03-15 12:05:18:40,0,-3.86048,-6.71809,-7.84776,Q,Q
2023-03-15 12:05:18:50,0,-3.88063,-6.7348,-8.02388,Q,Q
2023-03-15 12:05:18:60,0,-3.90211,-6.75841,-8.27005,Q,Q
2023-03-15 12:05:18:70,0,-3.92744,-6.79175,-8.59588,Q,Q
2023-03-15 12:05:18:80,0,-3.95176,-6.83441,-9.01457,Q,Q
2023-03-15 12:05:18:90,0,-3.97455,-6.89885,-9.5331,Q,Q
2023-03-15 12:05:18:100,0,-3.99616,-6.99238,-10.1446,Q,Q
2023-03-15 12:05:18:110,0,-4.02003,-7.11718,-10.8567,Q,Q
2023-03-15 12:05:18:120,0,-4.04397,-7.27238,-11.6865,Q,Q
2023-03-15 12:05:18:130,0,-4.07032,-7.45506,-12.6424,Q,Q
2023-03-15 12:05:18:140,0,-4.08155,-7.65611,-13.73,Q,Q
2023-03-15 12:05:18:150,0,-4.06075,-7.86638,-14.9316,Q,Q
2023-03-15 12:05:18:160,0,-4.00628,-8.07845,-16.2329,Q,Q
2023-03-15 12:05:18:170,0,-3.91084,-8.29373,-17.6103,Q,Q
2023-03-15 12:05:18:180,0,-3.79043,-8.52448,-19.061,Q,Q
2023-03-15 12:05:18:190,0,-3.64881,-8.75826,-20.5725,Q,Q
2023-03-15 12:05:18:200,0,-3.49589,-8.99162,-22.1328,Q,Q
2023-03-15 12:05:18:210,0,-3.33042,-9.2188,-23.7278,Q,Q
2023-03-15 12:05:18:220,0,-3.15794,-9.43684,-25.3392,Q,Q
2023-03-15 12:05:18:230,0,-2.97218,-9.64367,-26.9475,Q,Q
2023-03-15 12:05:18:240,0,-2.77747,-9.83815,-28.5318,Q,Q
2023-03-15 12:05:18:250,0,-2.57183,-10.0151,-30.0782,Q,Q
2023-03-15 12:05:18:260,0,-2.36596,-10.179,-31.576,Q,Q
2023-03-15 12:05:18:270,0,-2.16862,-10.3215,-33.0112,Q,Q
2023-03-15 12:05:18:280,0,-1.99177,-10.4421,-34.3788,Q,Q
2023-03-15 12:05:18:290,0,-1.83093,-10.5449,-35.657,Q,Q
2023-03-15 12:05:18:300,0,-1.69463,-10.632,-36.8427,Q,Q
2023-03-15 12:05:18:310,0,-1.57744,-10.7038,-37.9316,Q,Q
2023-03-15 12:05:18:320,0,-1.47616,-10.7579,-38.925,Q,Q
2023-03-15 12:05:18:330,0,-1.38932,-10.7946,-39.8251,Q,Q
2023-03-15 12:05:18:340,0,-1.31178,-10.8111,-40.6251,Q,Q
2023-03-15 12:05:18:350,0,-1.24368,-10.8081,-41.3345,Q,Q
2023-03-15 12:05:18:360,0,-1.18095,-10.7785,-41.9433,Q,Q
2023-03-15 12:05:18:370,0,-1.12107,-10.732,-42.4542,Q,Q
2023-03-15 12:05:18:380,0,-1.06521,-10.6689,-42.8697,Q,Q
2023-03-15 12:05:18:390,0,-1.01835,-10.5913,-43.1921,Q,Q
2023-03-15 12:05:18:400,0,-0.981632,-10.5036,-43.4165,Q,Q
2023-03-15 12:05:18:410,0,-0.952509,-10.4104,-43.5536,Q,Q
2023-03-15 12:05:18:420,0,-0.932868,-10.3112,-43.6121,Q,Q
2023-03-15 12:05:18:430,0,-0.921166,-10.2074,-43.5951,Q,Q
2023-03-15 12:05:18:440,0,-0.914656,-10.0996,-43.5127,Q,Q
2023-03-15 12:05:18:450,0,-0.916506,-9.99219,-43.3719,Q,Q
2023-03-15 12:05:18:460,0,-0.92722,-9.87574,-43.1774,Q,Q
2023-03-15 12:05:18:470,0,-0.943374,-9.75213,-42.9295,Q,Q
2023-03-15 12:05:18:480,0,-0.965299,-9.62986,-42.6282,Q,Q
2023-03-15 12:05:18:490,0,-1.00046,-9.50054,-42.275,Q,Q
2023-03-15 12:05:18:500,0,-1.04536,-9.36804,-41.8704,Q,Q
2023-03-15 12:05:18:510,0,-1.08823,-9.24429,-41.41,Q,Q
2023-03-15 12:05:18:520,0,-1.12317,-9.11923,-40.883,Q,Q
2023-03-15 12:05:18:530,0,-1.14904,-8.99322,-40.2987,Q,Q
2023-03-15 12:05:18:540,0,-1.16526,-8.86238,-39.6554,Q,Q
2023-03-15 12:05:18:550,0,-1.18189,-8.71618,-38.9525,Q,Q
2023-03-15 12:05:18:560,0,-1.20369,-8.5555,-38.1827,Q,Q
2023-03-15 12:05:18:570,0,-1.23241,-8.37808,-37.3426,Q,Q
2023-03-15 12:05:18:580,0,-1.26265,-8.19289,-36.4303,Q,Q
2023-03-15 12:05:18:590,0,-1.30454,-7.99967,-35.4474,Q,Q
2023-03-15 12:05:18:600,0,-1.35447,-7.79767,-34.4015,Q,Q
2023-03-15 12:05:18:610,0,-1.4098,-7.58507,-33.3022,Q,Q
2023-03-15 12:05:18:620,0,-1.47573,-7.35923,-32.1433,Q,Q
2023-03-15 12:05:18:630,0,-1.54899,-7.13051,-30.9292,Q,Q
2023-03-15 12:05:18:640,0,-1.62969,-6.90075,-29.663,Q,Q
2023-03-15 12:05:18:650,0,-1.72168,-6.66953,-28.3608,Q,Q
2023-03-15 12:05:18:660,0,-1.81424,-6.43173,-27.0334,Q,Q
2023-03-15 12:05:18:670,0,-1.91139,-6.18816,-25.685,Q,Q
2023-03-15 12:05:18:680,0,-2.00594,-5.93816,-24.3374,Q,Q
2023-03-15 12:05:18:690,0,-2.08962,-5.69261,-22.994,Q,Q
2023-03-15 12:05:18:700,0,-2.15522,-5.45407,-21.6714,Q,Q
2023-03-15 12:05:18:710,0,-2.19435,-5.2276,-20.3803,Q,Q
2023-03-15 12:05:18:720,0,-2.21154,-5.00962,-19.1302,Q,Q
2023-03-15 12:05:18:730,0,-2.2026,-4.80629,-17.9244,Q,Q
2023-03-15 12:05:18:740,0,-2.17652,-4.62507,-16.7611,Q,Q
2023-03-15 12:05:18:750,0,-2.14363,-4.46085,-15.6462,Q,Q
2023-03-15 12:05:18:760,0,-2.1059,-4.30826,-14.5852,Q,Q
2023-03-15 12:05:18:770,0,-2.06845,-4.17555,-13.5834,Q,Q
2023-03-15 12:05:18:780,0,-2.03958,-4.05439,-12.6437,Q,Q
2023-03-15 12:05:18:790,0,-2.0188,-3.94811,-11.7675,Q,Q
2023-03-15 12:05:18:800,0,-1.99646,-3.84621,-10.9624,Q,Q
2023-03-15 12:05:18:810,0,-1.97498,-3.75916,-10.221,Q,Q
2023-03-15 12:05:18:820,0,-1.95072,-3.68096,-9.54502,Q,Q
2023-03-15 12:05:18:830,0,-1.92217,-3.61117,-8.93861,Q,Q
2023-03-15 12:05:18:840,0,-1.896,-3.55171,-8.39464,Q,Q
2023-03-15 12:05:18:850,0,-1.87005,-3.50543,-7.90486,Q,Q
2023-03-15 12:05:18:860,0,-1.84365,-3.46948,-7.47463,Q,Q
2023-03-15 12:05:18:870,0,-1.81345,-3.44557,-7.09183,Q,Q
2023-03-15 12:05:18:880,0,-1.78341,-3.43428,-6.75664,Q,Q
2023-03-15 12:05:18:890,0,-1.75409,-3.42867,-6.46006,Q,Q
2023-03-15 12:05:18:900,0,-1.72363,-3.43305,-6.19771,Q,Q
2023-03-15 12:05:18:910,0,-1.69376,-3.44184,-5.96802,Q,Q
2023-03-15 12:05:18:920,0,-1.66033,-3.45563,-5.76915,Q,Q
2023-03-15 12:05:18:930,0,-1.62734,-3.47053,-5.59499,Q,Q
2023-03-15 12:05:18:940,0,-1.59463,-3.4883,-5.43954,Q,Q
2023-03-15 12:05:18:950,0,-1.56371,-3.50322,-5.29903,Q,Q
2023-03-15 12:05:18:960,0,-1.52888,-3.51897,-5.17188,Q,Q
2023-03-15 12:05:18:970,0,-1.49889,-3.5362,-5.05141,Q,Q
2023-03-15 12:05:18:980,0,-1.46427,-3.55283,-4.94014,Q,Q
2023-03-15 12:05:18:990,0,-1.43171,-3.56852,-4.83571,Q,Q
2023-03-15 12:05:19:0,0,-1.40538,-3.59013,-4.73741,Q,Q
2023-03-15 12:05:19:10,0,-1.38244,-3.6047,-4.64427,Q,Q
2023-03-15 12:05:19:20,0,-1.36368,-3.62207,-4.5607,Q,Q
2023-03-15 12:05:19:30,0,-1.34983,-3.63569,-4.48643,Q,Q
2023-03-15 12:05:19:40,0,-1.33385,-3.64642,-4.42095,Q,Q
2023-03-15 12:05:19:50,0,-1.32516,-3.65798,-4.36533,Q,Q
2023-03-15 12:05:19:60,0,-1.3202,-3.67499,-4.319,Q,Q
2023-03-15 12:05:19:70,0,-1.32361,-3.68865,-4.27731,Q,Q
2023-03-15 12:05:19:80,0,-1.33113,-3.70027,-4.24375,Q,Q
2023-03-15 12:05:19:90,0,-1.33699,-3.71855,-4.21684,Q,Q
2023-03-15 12:05:19:100,0,-1.34062,-3.73726,-4.19536,Q,Q
2023-03-15 12:05:19:110,0,-1.34303,-3.75912,-4.18141,Q,Q
2023-03-15 12:05:19:120,0,-1.34873,-3.77931,-4.16687,Q,Q
2023-03-15 12:05:19:130,0,-1.35269,-3.8054,-4.16059,Q,Q
2023-03-15 12:05:19:140,0,-1.36063,-3.82878,-4.15889,Q,Q
2023-03-15 12:05:19:150,0,-1.36588,-3.8519,-4.15528,Q,Q
2023-03-15 12:05:19:160,0,-1.37276,-3.871,-4.15453,Q,Q
2023-03-15 12:05:19:170,0,-1.37855,-3.88911,-4.14806,Q,Q
2023-03-15 12:05:19:180,0,-1.38612,-3.90252,-4.13704,Q,Q
2023-03-15 12:05:19:190,0,-1.39346,-3.91825,-4.11604,Q,Q
2023-03-15 12:05:19:200,0,-1.39588,-3.93038,-4.09123,Q,Q
2023-03-15 12:05:19:210,0,-1.39607,-3.94595,-4.05735,Q,Q
2023-03-15 12:05:19:220,0,-1.39294,-3.96464,-4.0124,Q,Q
2023-03-15 12:05:19:230,0,-1.38653,-3.98536,-3.95937,Q,Q
2023-03-15 12:05:19:240,0,-1.38298,-4.00402,-3.89724,Q,Q
2023-03-15 12:05:19:250,0,-1.38284,-4.02534,-3.82607,Q,Q
2023-03-15 12:05:19:260,0,-1.38747,-4.04587,-3.74976,Q,Q
2023-03-15 12:05:19:270,0,-1.40193,-4.06464,-3.67672,Q,Q
2023-03-15 12:05:19:280,0,-1.42299,-4.07907,-3.60371,Q,Q
2023-03-15 12:05:19:290,0,-1.44675,-4.09477,-3.52694,Q,Q
2023-03-15 12:05:19:300,0,-1.46697,-4.11205,-3.45159,Q,Q
2023-03-15 12:05:19:310,0,-1.49154,-4.13101,-3.37887,Q,Q
2023-03-15 12:05:19:320,0,-1.5205,-4.15013,-3.31263,Q,Q
2023-03-15 12:05:19:330,0,-1.54798,-4.17255,-3.2519,Q,Q
2023-03-15 12:05:19:340,0,-1.58006,-4.196,-3.20224,Q,Q
2023-03-15 12:05:19:350,0,-1.62004,-4.21696,-3.16639,Q,Q
2023-03-15 12:05:19:360,0,-1.66422,-4.24255,-3.14912,Q,Q
2023-03-15 12:05:19:370,0,-1.71787,-4.27306,-3.15679,Q,Q
2023-03-15 12:05:19:380,0,-1.78056,-4.31361,-3.19396,Q,Q
2023-03-15 12:05:19:390,0,-1.86033,-4.35785,-3.26727,Q,Q
2023-03-15 12:05:19:400,0,-1.95808,-4.41102,-3.38318,Q,Q
2023-03-15 12:05:19:410,0,-2.07499,-4.47375,-3.53841,Q,Q
2023-03-15 12:05:19:420,0,-2.2151,-4.55437,-3.73315,Q,Q
2023-03-15 12:05:19:430,0,-2.38201,-4.64468,-3.96624,Q,Q
2023-03-15 12:05:19:440,0,-2.57733,-4.74476,-4.24066,Q,Q
2023-03-15 12:05:19:450,0,-2.80711,-4.85032,-4.55631,Q,Q
2023-03-15 12:05:19:460,0,-3.08201,-4.95373,-4.90432,Q,Q
2023-03-15 12:05:19:470,0,-3.39924,-5.05574,-5.2892,Q,Q
2023-03-15 12:05:19:480,0,-3.7625,-5.15315,-5.70334,Q,Q
2023-03-15 12:05:19:490,0,-4.18035,-5.24599,-6.14319,Q,Q
2023-03-15 12:05:19:500,0,-4.66008,-5.33267,-6.60137,Q,Q
2023-03-15 12:05:19:510,0,-5.18876,-5.4223,-7.07873,Q,Q
2023-03-15 12:05:19:520,0,-5.75874,-5.50358,-7.56102,Q,Q
2023-03-15 12:05:19:530,0,-6.34935,-5.5653,-8.04934,Q,Q
2023-03-15 12:05:19:540,0,-6.94495,-5.62318,-8.53843,Q,Q
2023-03-15 12:05:19:550,0,-7.54874,-5.66699,-9.02988,Q,Q
2023-03-15 12:05:19:560,0,-8.15969,-5.70697,-9.52031,Q,Q
2023-03-15 12:05:19:570,0,-8.78343,-5.74278,-10.0046,Q,Q
2023-03-15 12:05:19:580,0,-9.41718,-5.77651,-10.484,Q,Q
2023-03-15 12:05:19:590,0,-10.0507,-5.81888,-10.9589,Q,Q
2023-03-15 12:05:19:600,0,-10.6803,-5.87522,-11.4247,Q,Q
2023-03-15 12:05:19:610,0,-11.2966,-5.93695,-11.8779,Q,Q
2023-03-15 12:05:19:620,0,-11.8978,-6.00993,-12.3185,Q,Q
2023-03-15 12:05:19:630,0,-12.4759,-6.09357,-12.7391,Q,Q
2023-03-15 12:05:19:640,0,-13.0355,-6.18788,-13.1389,Q,Q
2023-03-15 12:05:19:650,0,-13.5737,-6.28202,-13.5241,Q,Q
2023-03-15 12:05:19:660,0,-14.0867,-6.3712,-13.8875,Q,Q
2023-03-15 12:05:19:670,0,-14.5661,-6.46093,-14.2325,Q,Q
2023-03-15 12:05:19:680,0,-15.0189,-6.54976,-14.5555,Q,Q
2023-03-15 12:05:19:690,0,-15.4359,-6.63279,-14.8518,Q,Q
2023-03-15 12:05:19:700,0,-15.8338,-6.71312,-15.1198,Q,Q
2023-03-15 12:05:19:710,0,-16.2159,-6.78103,-15.3644,Q,Q
2023-03-15 12:05:19:720,0,-16.5982,-6.83954,-15.5902,Q,Q
2023-03-15 12:05:19:730,0,-16.991,-6.89328,-15.7965,Q,Q
2023-03-15 12:05:19:740,0,-17.4035,-6.9377,-15.9789,Q,Q
2023-03-15 12:05:19:750,0,-17.8226,-6.98684,-16.14,Q,Q
2023-03-15 12:05:19:760,0,-18.2312,-7.03668,-16.2792,Q,Q
2023-03-15 12:05:19:770,0,-18.6154,-7.0882,-16.4039,Q,Q
2023-03-15 12:05:19:780,0,-18.9706,-7.12867,-16.5101,Q,Q
2023-03-15 12:05:19:790,0,-19.2859,-7.16024,-16.6083,Q,Q
2023-03-15 12:05:19:800,0,-19.5653,-7.18532,-16.6864,Q,Q
2023-03-15 12:05:19:810,0,-19.8232,-7.19791,-16.7521,Q,Q
2023-03-15 12:05:19:820,0,-20.0685,-7.19696,-16.8086,Q,Q
2023-03-15 12:05:19:830,0,-20.3175,-7.18683,-16.8548,Q,Q
2023-03-15 12:05:19:840,0,-20.5689,-7.16514,-16.898,Q,Q
2023-03-15 12:05:19:850,0,-20.7971,-7.05569,-16.9571,Q,Q
2023-03-15 12:05:19:860,0,-20.9695,-7.01507,-17.0223,Q,Q
2023-03-15 12:05:19:870,0,-21.138,-7.00864,-17.0707,Q,Q
2023-03-15 12:05:19:880,0,-21.3257,-6.93875,-17.1245,Q,Q
2023-03-15 12:05:19:890,0,-21.5217,-6.94437,-17.1909,Q,Q
2023-03-15 12:05:19:900,0,-21.7526,-6.9213,-17.242,Q,Q
2023-03-15 12:05:19:910,0,-21.9912,-6.81657,-17.2741,Q,Q
2023-03-15 12:05:19:920,0,-22.1834,-6.7135,-17.3116,Q,Q
2023-03-15 12:05:19:930,0,-22.3185,-6.63811,-17.3623,Q,Q
2023-03-15 12:05:19:940,0,-22.4097,-6.58075,-17.4233,Q,Q
2023-03-15 12:05:19:950,0,-22.496,-6.53439,-17.4893,Q,Q
2023-03-15 12:05:19:960,0,-22.5965,-6.46673,-17.5575,Q,Q
2023-03-15 12:05:19:970,0,-22.7172,-6.39633,-17.6302,Q,Q
2023-03-15 12:05:19:980,0,-22.844,-6.31743,-17.7047,Q,Q
2023-03-15 12:05:19:990,0,-22.9732,-6.25237,-17.7745,Q,Q
2023-03-15 12:05:20:0,0,-23.0984,-6.20701,-17.8341,Q,Q
2023-03-15 12:05:20:10,0,-23.2306,-6.17456,-17.8854,Q,Q
2023-03-15 12:05:20:20,0,-23.3635,-6.13812,-17.9246,Q,Q
2023-03-15 12:05:20:30,0,-23.4793,-6.10268,-17.9658,Q,Q
2023-03-15 12:05:20:40,0,-23.5828,-6.07221,-18.0057,Q,Q
2023-03-15 12:05:20:50,0,-23.6712,-6.03932,-18.0437,Q,Q
2023-03-15 12:05:20:60,0,-23.7547,-6.01097,-18.0843,Q,Q
2023-03-15 12:05:20:70,0,-23.844,-5.98556,-18.1256,Q,Q
2023-03-15 12:05:20:80,0,-23.9408,-5.96395,-18.1693,Q,Q
2023-03-15 12:05:20:90,0,-24.0416,-5.94733,-18.2088,Q,Q
2023-03-15 12:05:20:100,0,-24.15,-5.94246,-18.2476,Q,Q
2023-03-15 12:05:20:110,0,-24.2648,-5.94423,-18.2882,Q,Q
2023-03-15 12:05:20:120,0,-24.3827,-5.94523,-18.329,Q,Q
2023-03-15 12:05:20:130,0,-24.5049,-5.95145,-18.3726,Q,Q
2023-03-15 12:05:20:140,0,-24.6311,-5.96983,-18.4133,Q,Q
2023-03-15 12:05:20:150,0,-24.769,-6.00811,-18.4502,Q,Q
2023-03-15 12:05:20:160,0,-24.9185,-6.06179,-18.4817,Q,Q
2023-03-15 12:05:20:170,0,-25.085,-6.12654,-18.516,Q,Q
2023-03-15 12:05:20:180,0,-25.2651,-6.20724,-18.5521,Q,Q
2023-03-15 12:05:20:190,0,-25.4466,-6.3037,-18.5926,Q,Q
2023-03-15 12:05:20:200,0,-25.6266,-6.42077,-18.6323,Q,Q
2023-03-15 12:05:20:210,0,-25.7956,-6.5524,-18.6669,Q,Q
2023-03-15 12:05:20:220,0,-25.9426,-6.70032,-18.6941,Q,Q
2023-03-15 12:05:20:230,0,-26.0593,-6.87231,-18.7168,Q,Q
2023-03-15 12:05:20:240,0,-26.1338,-7.06908,-18.7398,Q,Q
2023-03-15 12:05:20:250,0,-26.1666,-7.27999,-18.7581,Q,Q
2023-03-15 12:05:20:260,0,-26.1753,-7.49967,-18.7655,Q,Q
2023-03-15 12:05:20:270,0,-26.1993,-7.72322,-18.7593,Q,Q
2023-03-15 12:05:20:280,0,-26.2672,-7.95944,-18.738,Q,Q
2023-03-15 12:05:20:290,0,-26.3929,-8.21196,-18.6966,Q,Q
2023-03-15 12:05:20:300,0,-26.5694,-8.47298,-18.6462,Q,Q
2023-03-15 12:05:20:310,0,-26.7583,-8.71978,-18.6028,Q,Q
2023-03-15 12:05:20:320,0,-26.9209,-8.95934,-18.5664,Q,Q
2023-03-15 12:05:20:330,0,-27.0485,-9.18886,-18.537,Q,Q
2023-03-15 12:05:20:340,0,-27.1565,-9.40864,-18.5058,Q,Q
2023-03-15 12:05:20:350,0,-27.269,-9.62443,-18.4694,Q,Q
2023-03-15 12:05:20:360,0,-27.4017,-9.83628,-18.4291,Q,Q
2023-03-15 12:05:20:370,0,-27.5396,-10.0391,-18.3938,Q,Q
2023-03-15 12:05:20:380,0,-27.673,-10.2265,-18.3695,Q,Q
2023-03-15 12:05:20:390,0,-27.8008,-10.4195,-18.3516,Q,Q
2023-03-15 12:05:20:400,0,-27.9272,-10.604,-18.342,Q,Q
2023-03-15 12:05:20:410,0,-28.0694,-10.7989,-18.3359,Q,Q
2023-03-15 12:05:20:420,0,-28.2266,-10.9966,-18.3441,Q,Q
2023-03-15 12:05:20:430,0,-28.3987,-11.1965,-18.3715,Q,Q
2023-03-15 12:05:20:440,0,-28.5674,-11.4026,-18.4215,Q,Q
2023-03-15 12:05:20:450,0,-28.7351,-11.5919,-18.4994,Q,Q
2023-03-15 12:05:20:460,0,-28.8936,-11.7644,-18.6026,Q,Q
2023-03-15 12:05:20:470,0,-29.0514,-11.9256,-18.7243,Q,Q
2023-03-15 12:05:20:480,0,-29.2077,-12.0813,-18.8569,Q,Q
2023-03-15 12:05:20:490,0,-29.3691,-12.2262,-18.9921,Q,Q
2023-03-15 12:05:20:500,0,-29.5383,-12.3619,-19.1386,Q,Q
2023-03-15 12:05:20:510,0,-29.7206,-12.4957,-19.289,Q,Q
2023-03-15 12:05:20:520,0,-29.9111,-12.6263,-19.4529,Q,Q
2023-03-15 12:05:20:530,0,-30.1099,-12.7446,-19.6274,Q,Q
2023-03-15 12:05:20:540,0,-30.3102,-12.8554,-19.8108,Q,Q
2023-03-15 12:05:20:550,0,-30.5013,-12.9573,-20.0034,Q,Q
2023-03-15 12:05:20:560,0,-30.6855,-13.0409,-20.1984,Q,Q
2023-03-15 12:05:20:570,0,-30.8651,-13.1201,-20.3854,Q,Q
2023-03-15 12:05:20:580,0,-31.0503,-13.1899,-20.5617,Q,Q
2023-03-15 12:05:20:590,0,-31.2414,-13.2519,-20.7262,Q,Q
2023-03-15 12:05:20:600,0,-31.4327,-13.3106,-20.8803,Q,Q
2023-03-15 12:05:20:610,0,-31.6244,-13.3686,-21.0224,Q,Q
2023-03-15 12:05:20:620,0,-31.8177,-13.4306,-21.1516,Q,Q
2023-03-15 12:05:20:630,0,-32.0078,-13.4918,-21.2778,Q,Q
2023-03-15 12:05:20:640,0,-32.1779,-13.5521,-21.4,Q,Q
2023-03-15 12:05:20:650,0,-32.3179,-13.611,-21.5161,Q,Q
2023-03-15 12:05:20:660,0,-32.4382,-13.6777,-21.6205,Q,Q
2023-03-15 12:05:20:670,0,-32.553,-13.7444,-21.7171,Q,Q
2023-03-15 12:05:20:680,0,-32.6677,-13.8067,-21.7967,Q,Q
2023-03-15 12:05:20:690,0,-32.7645,-13.8644,-21.8664,Q,Q
2023-03-15 12:05:20:700,0,-32.8359,-13.9163,-21.9259,Q,Q
2023-03-15 12:05:20:710,0,-32.8818,-13.9605,-21.9699,Q,Q
2023-03-15 12:05:20:720,0,-32.8951,-13.9956,-21.9999,Q,Q
2023-03-15 12:05:20:730,0,-32.8868,-14.0095,-22.0137,Q,Q
2023-03-15 12:05:20:740,0,-32.8577,-14.0058,-22.0047,Q,Q
2023-03-15 12:05:20:750,0,-32.8166,-13.9888,-21.9871,Q,Q
2023-03-15 12:05:20:760,0,-32.7682,-13.9543,-21.9615,Q,Q
2023-03-15 12:05:20:770,0,-32.7181,-13.9028,-21.9249,Q,Q
2023-03-15 12:05:20:780,0,-32.6855,-13.8267,-21.8771,Q,Q
2023-03-15 12:05:20:790,0,-32.6821,-13.7294,-21.8143,Q,Q
2023-03-15 12:05:20:800,0,-32.7093,-13.6092,-21.7469,Q,Q
2023-03-15 12:05:20:810,0,-32.7681,-13.4825,-21.6763,Q,Q
2023-03-15 12:05:20:820,0,-32.856,-13.3682,-21.593,Q,Q
2023-03-15 12:05:20:830,0,-32.9707,-13.2686,-21.5016,Q,Q
2023-03-15 12:05:20:840,0,-33.0818,-13.1728,-21.4123,Q,Q
2023-03-15 12:05:20:850,0,-33.1878,-13.0892,-21.3379,Q,Q
2023-03-15 12:05:20:860,0,-33.2651,-13.0128,-21.2878,Q,Q
2023-03-15 12:05:20:870,0,-33.3199,-12.941,-21.2601,Q,Q
2023-03-15 12:05:20:880,0,-33.3436,-12.8707,-21.2579,Q,Q
2023-03-15 12:05:20:890,0,-33.3504,-12.8057,-21.2725,Q,Q
2023-03-15 12:05:20:900,0,-33.3421,-12.7442,-21.3061,Q,Q
2023-03-15 12:05:20:910,0,-33.3312,-12.6718,-21.348,Q,Q
2023-03-15 12:05:20:920,0,-33.321,-12.5873,-21.3947,Q,Q
2023-03-15 12:05:20:930,0,-33.3167,-12.494,-21.4473,Q,Q
2023-03-15 12:05:20:940,0,-33.3108,-12.3887,-21.5034,Q,Q
2023-03-15 12:05:20:950,0,-33.3045,-12.2761,-21.5582,Q,Q
2023-03-15 12:05:20:960,0,-33.292,-12.1537,-21.5926,Q,Q
2023-03-15 12:05:20:970,0,-33.2744,-12.0368,-21.5987,Q,Q
2023-03-15 12:05:20:980,0,-33.2586,-11.9302,-21.6018,Q,Q
2023-03-15 12:05:20:990,0,-33.2494,-11.8387,-21.6127,Q,Q
2023-03-15 12:05:21:0,0,-33.2475,-11.7488,-21.629,Q,Q
2023-03-15 12:05:21:10,0,-33.2488,-11.6739,-21.6475,Q,Q
2023-03-15 12:05:21:20,0,-33.245,-11.6172,-21.6778,Q,Q
2023-03-15 12:05:21:30,0,-33.2428,-11.5818,-21.713,Q,Q
2023-03-15 12:05:21:40,0,-33.235,-11.5645,-21.7608,Q,Q
2023-03-15 12:05:21:50,0,-33.2388,-11.5571,-21.8221,Q,Q
2023-03-15 12:05:21:60,0,-33.2479,-11.5649,-21.9011,Q,Q
2023-03-15 12:05:21:70,0,-33.2641,-11.5897,-21.9837,Q,Q
2023-03-15 12:05:21:80,0,-33.2814,-11.6249,-22.0658,Q,Q
2023-03-15 12:05:21:90,0,-33.3008,-11.6709,-22.1536,Q,Q
2023-03-15 12:05:21:100,0,-33.3262,-11.7246,-22.2549,Q,Q
2023-03-15 12:05:21:110,0,-33.3706,-11.7681,-22.3718,Q,Q
2023-03-15 12:05:21:120,0,-33.426,-11.7997,-22.4871,Q,Q
2023-03-15 12:05:21:130,0,-33.4922,-11.8271,-22.5795,Q,Q
2023-03-15 12:05:21:140,0,-33.5563,-11.862,-22.6685,Q,Q
2023-03-15 12:05:21:150,0,-33.6169,-11.9011,-22.754,Q,Q
2023-03-15 12:05:21:160,0,-33.6504,-11.9365,-22.8356,Q,Q
2023-03-15 12:05:21:170,0,-33.6683,-11.9553,-22.9145,Q,Q
2023-03-15 12:05:21:180,0,-33.6924,-11.965,-22.9818,Q,Q
2023-03-15 12:05:21:190,0,-33.732,-11.9702,-23.0351,Q,Q
2023-03-15 12:05:21:200,0,-33.7981,-11.9749,-23.0777,Q,Q
2023-03-15 12:05:21:210,0,-33.8724,-11.982,-23.1144,Q,Q
2023-03-15 12:05:21:220,0,-33.9338,-11.9968,-23.1489,Q,Q
2023-03-15 12:05:21:230,0,-33.9764,-12.0076,-23.1882,Q,Q
2023-03-15 12:05:21:240,0,-33.9986,-12.0125,-23.2304,Q,Q
2023-03-15 12:05:21:250,0,-34.0019,-12.0136,-23.2737,Q,Q
2023-03-15 12:05:21:260,0,-34.0048,-12.014,-23.3191,Q,Q
2023-03-15 12:05:21:270,0,-34.0169,-12.0118,-23.3675,Q,Q
2023-03-15 12:05:21:280,0,-34.041,-12.0049,-23.4184,Q,Q
2023-03-15 12:05:21:290,0,-34.0653,-11.9974,-23.4733,Q,Q
2023-03-15 12:05:21:300,0,-34.0744,-11.9871,-23.5405,Q,Q
2023-03-15 12:05:21:310,0,-34.0686,-11.9756,-23.6277,Q,Q
2023-03-15 12:05:21:320,0,-34.0573,-11.9697,-23.7198,Q,Q
2023-03-15 12:05:21:330,0,-34.0455,-11.9673,-23.8232,Q,Q
2023-03-15 12:05:21:340,0,-34.045,-11.9713,-23.9461,Q,Q
2023-03-15 12:05:21:350,0,-34.052,-11.9731,-24.0857,Q,Q
2023-03-15 12:05:21:360,0,-34.0724,-11.9783,-24.2313,Q,Q
2023-03-15 12:05:21:370,0,-34.0946,-11.9983,-24.378,Q,Q
2023-03-15 12:05:21:380,0,-34.1227,-12.0243,-24.5265,Q,Q
2023-03-15 12:05:21:390,0,-34.1631,-12.0566,-24.674,Q,Q
2023-03-15 12:05:21:400,0,-34.2115,-12.0856,-24.8152,Q,Q
2023-03-15 12:05:21:410,0,-34.2619,-12.1089,-24.9471,Q,Q
2023-03-15 12:05:21:420,0,-34.308,-12.1223,-25.0769,Q,Q
2023-03-15 12:05:21:430,0,-34.3467,-12.1221,-25.198,Q,Q
2023-03-15 12:05:21:440,0,-34.3736,-12.1131,-25.3088,Q,Q
2023-03-15 12:05:21:450,0,-34.3937,-12.0935,-25.413,Q,Q
2023-03-15 12:05:21:460,0,-34.4084,-12.0665,-25.5104,Q,Q
2023-03-15 12:05:21:470,0,-34.4181,-12.0364,-25.6017,Q,Q
2023-03-15 12:05:21:480,0,-34.433,-12.0042,-25.6773,Q,Q
2023-03-15 12:05:21:490,0,-34.4432,-11.9759,-25.7378,Q,Q
2023-03-15 12:05:21:500,0,-34.453,-11.9483,-25.7766,Q,Q
2023-03-15 12:05:21:510,0,-34.4573,-11.9199,-25.7994,Q,Q
2023-03-15 12:05:21:520,0,-34.4622,-11.8914,-25.8054,Q,Q
2023-03-15 12:05:21:530,0,-34.4593,-11.8578,-25.8031,Q,Q
2023-03-15 12:05:21:540,0,-34.4532,-11.8248,-25.7874,Q,Q
2023-03-15 12:05:21:550,0,-34.4432,-11.7894,-25.769,Q,Q
2023-03-15 12:05:21:560,0,-34.4338,-11.753,-25.751,Q,Q
2023-03-15 12:05:21:570,0,-34.4348,-11.7209,-25.7323,Q,Q
2023-03-15 12:05:21:580,0,-34.4361,-11.6902,-25.72,Q,Q
2023-03-15 12:05:21:590,0,-34.4346,-11.6642,-25.7154,Q,Q
2023-03-15 12:05:21:600,0,-34.4295,-11.6479,-25.7274,Q,Q
2023-03-15 12:05:21:610,0,-34.4187,-11.6297,-25.7655,Q,Q
2023-03-15 12:05:21:620,0,-34.4066,-11.6182,-25.8115,Q,Q
2023-03-15 12:05:21:630,0,-34.3972,-11.6147,-25.8801,Q,Q
2023-03-15 12:05:21:640,0,-34.3891,-11.6179,-25.9495,Q,Q
2023-03-15 12:05:21:650,0,-34.3843,-11.6219,-26.0066,Q,Q
2023-03-15 12:05:21:660,0,-34.3768,-11.6313,-26.0469,Q,Q
2023-03-15 12:05:21:670,0,-34.3746,-11.6512,-26.0737,Q,Q
2023-03-15 12:05:21:680,0,-34.3785,-11.6741,-26.0995,Q,Q
2023-03-15 12:05:21:690,0,-34.3847,-11.6831,-26.1325,Q,Q
2023-03-15 12:05:21:700,0,-34.3998,-11.6773,-26.1699,Q,Q
2023-03-15 12:05:21:710,0,-34.4288,-11.6572,-26.2075,Q,Q
2023-03-15 12:05:21:720,0,-34.4712,-11.6228,-26.2288,Q,Q
2023-03-15 12:05:21:730,0,-34.5285,-11.5846,-26.2359,Q,Q
2023-03-15 12:05:21:740,0,-34.5966,-11.5358,-26.2289,Q,Q
2023-03-15 12:05:21:750,0,-34.6707,-11.4708,-26.2172,Q,Q
2023-03-15 12:05:21:760,0,-34.7469,-11.3847,-26.2001,Q,Q
2023-03-15 12:05:21:770,0,-34.8261,-11.2925,-26.1602,Q,Q
2023-03-15 12:05:21:780,0,-34.9054,-11.2085,-26.0749,Q,Q
2023-03-15 12:05:21:790,0,-34.9423,-11.1501,-26.0209,Q,Q
2023-03-15 12:05:21:800,0,-34.9537,-11.1211,-26.015,Q,Q
2023-03-15 12:05:21:810,0,-34.9418,-11.0639,-26.0378,Q,Q
2023-03-15 12:05:21:820,0,-34.9172,-11.0278,-26.0492,Q,Q
2023-03-15 12:05:21:830,0,-34.8991,-11.0053,-26.0548,Q,Q
2023-03-15 12:05:21:840,0,-34.8903,-11.0024,-26.0745,Q,Q
2023-03-15 12:05:21:850,0,-34.8885,-11.0149,-26.1076,Q,Q
2023-03-15 12:05:21:860,0,-34.9042,-11.0261,-26.1364,Q,Q
2023-03-15 12:05:21:870,0,-34.9369,-11.0311,-26.1507,Q,Q
2023-03-15 12:05:21:880,0,-34.9842,-11.0317,-26.1554,Q,Q
2023-03-15 12:05:21:890,0,-35.0321,-11.0336,-26.1648,Q,Q
2023-03-15 12:05:21:900,0,-35.0734,-11.0343,-26.1669,Q,Q
2023-03-15 12:05:21:910,0,-35.1068,-11.0275,-26.1615,Q,Q
2023-03-15 12:05:21:920,0,-35.1328,-11.0203,-26.15,Q,Q
2023-03-15 12:05:21:930,0,-35.1397,-11.0166,-26.1419,Q,Q
2023-03-15 12:05:21:940,0,-35.1419,-11.0106,-26.1389,Q,Q
2023-03-15 12:05:21:950,0,-35.143,-11.0078,-26.1473,Q,Q
2023-03-15 12:05:21:960,0,-35.142,-11.0102,-26.1853,Q,Q
2023-03-15 12:05:21:970,0,-35.1374,-11.014,-26.2218,Q,Q
2023-03-15 12:05:21:980,0,-35.138,-11.017,-26.224,Q,Q
2023-03-15 12:05:21:990,0,-35.147,-11.0224,-26.2076,Q,Q
2023-03-15 12:05:22:0,0,-35.1638,-11.0321,-26.2068,Q,Q
2023-03-15 12:05:22:10,0,-35.181,-11.0384,-26.2244,Q,Q
2023-03-15 12:05:22:20,0,-35.1869,-11.0308,-26.2541,Q,Q
2023-03-15 12:05:22:30,0,-35.1855,-11.0145,-26.2821,Q,Q
2023-03-15 12:05:22:40,0,-35.187,-11.0013,-26.3155,Q,Q
2023-03-15 12:05:22:50,0,-35.1929,-10.9833,-26.3622,Q,Q
2023-03-15 12:05:22:60,0,-35.1981,-10.9595,-26.4165,Q,Q
2023-03-15 12:05:22:70,0,-35.2079,-10.9254,-26.465,Q,Q
2023-03-15 12:05:22:80,0,-35.2281,-10.8793,-26.5045,Q,Q
2023-03-15 12:05:22:90,0,-35.2653,-10.8213,-26.522,Q,Q
2023-03-15 12:05:22:100,0,-35.3024,-10.7685,-26.5303,Q,Q
2023-03-15 12:05:22:110,0,-35.3353,-10.7381,-26.5569,Q,Q
2023-03-15 12:05:22:120,0,-35.3437,-10.7211,-26.601,Q,Q
2023-03-15 12:05:22:130,0,-35.3303,-10.7054,-26.6434,Q,Q
2023-03-15 12:05:22:140,0,-35.3127,-10.7001,-26.6747,Q,Q
2023-03-15 12:05:22:150,0,-35.2956,-10.7092,-26.7116,Q,Q
2023-03-15 12:05:22:160,0,-35.2917,-10.7194,-26.7486,Q,Q
2023-03-15 12:05:22:170,0,-35.2985,-10.7392,-26.7764,Q,Q
2023-03-15 12:05:22:180,0,-35.3218,-10.7538,-26.7864,Q,Q
2023-03-15 12:05:22:190,0,-35.3448,-10.7748,-26.7945,Q,Q
2023-03-15 12:05:22:200,0,-35.3649,-10.7973,-26.8144,Q,Q
2023-03-15 12:05:22:210,0,-35.377,-10.8294,-26.8415,Q,Q
2023-03-15 12:05:22:220,0,-35.3734,-10.865,-26.8704,Q,Q
2023-03-15 12:05:22:230,0,-35.3557,-10.9004,-26.8919,Q,Q
2023-03-15 12:05:22:240,0,-35.3341,-10.9257,-26.8962,Q,Q
2023-03-15 12:05:22:250,0,-35.3167,-10.9435,-26.882,Q,Q
2023-03-15 12:05:22:260,0,-35.3061,-10.9566,-26.8584,Q,Q
2023-03-15 12:05:22:270,0,-35.3007,-10.9603,-26.8363,Q,Q
2023-03-15 12:05:22:280,0,-35.2998,-10.9498,-26.8315,Q,Q
2023-03-15 12:05:22:290,0,-35.3021,-10.9255,-26.8323,Q,Q
2023-03-15 12:05:22:300,0,-35.3001,-10.8936,-26.839,Q,Q
2023-03-15 12:05:22:310,0,-35.2958,-10.8576,-26.8491,Q,Q
2023-03-15 12:05:22:320,0,-35.2852,-10.8254,-26.8709,Q,Q
2023-03-15 12:05:22:330,0,-35.2704,-10.7913,-26.8987,Q,Q
2023-03-15 12:05:22:340,0,-35.2503,-10.7603,-26.9288,Q,Q
2023-03-15 12:05:22:350,0,-35.2325,-10.7288,-26.9647,Q,Q
2023-03-15 12:05:22:360,0,-35.2205,-10.6954,-26.9886,Q,Q
2023-03-15 12:05:22:370,0,-35.2153,-10.6567,-26.9986,Q,Q
2023-03-15 12:05:22:380,0,-35.2085,-10.6361,-26.9953,Q,Q
2023-03-15 12:05:22:390,0,-35.1967,-10.6195,-27.0134,Q,Q
2023-03-15 12:05:22:400,0,-35.1791,-10.5829,-27.021,Q,Q
2023-03-15 12:05:22:410,0,-35.1828,-10.5427,-26.9954,Q,Q
2023-03-15 12:05:22:420,0,-35.1901,-10.5239,-26.9457,Q,Q
2023-03-15 12:05:22:430,0,-35.1996,-10.5063,-26.8926,Q,Q
2023-03-15 12:05:22:440,0,-35.21,-10.4892,-26.846,Q,Q
2023-03-15 12:05:22:450,0,-35.2203,-10.4721,-26.7947,Q,Q
2023-03-15 12:05:22:460,0,-35.2387,-10.4471,-26.7256,Q,Q
2023-03-15 12:05:22:470,0,-35.253,-10.4253,-26.6438,Q,Q
2023-03-15 12:05:22:480,0,-35.2606,-10.4161,-26.5702,Q,Q
2023-03-15 12:05:22:490,0,-35.2532,-10.4092,-26.5098,Q,Q
2023-03-15 12:05:22:500,0,-35.2279,-10.4064,-26.451,Q,Q
2023-03-15 12:05:22:510,0,-35.1958,-10.4041,-26.398,Q,Q
2023-03-15 12:05:22:520,0,-35.1661,-10.4066,-26.3594,Q,Q
2023-03-15 12:05:22:530,0,-35.1416,-10.4087,-26.3352,Q,Q
2023-03-15 12:05:22:540,0,-35.1295,-10.4067,-26.321,Q,Q
2023-03-15 12:05:22:550,0,-35.1329,-10.4053,-26.3173,Q,Q
2023-03-15 12:05:22:560,0,-35.141,-10.3983,-26.3178,Q,Q
2023-03-15 12:05:22:570,0,-35.144,-10.3904,-26.3164,Q,Q
2023-03-15 12:05:22:580,0,-35.1354,-10.3786,-26.3147,Q,Q
2023-03-15 12:05:22:590,0,-35.1129,-10.3638,-26.3114,Q,Q
2023-03-15 12:05:22:600,0,-35.0852,-10.3514,-26.309,Q,Q
2023-03-15 12:05:22:610,0,-35.0522,-10.3388,-26.3041,Q,Q
2023-03-15 12:05:22:620,0,-35.0155,-10.3255,-26.2975,Q,Q
2023-03-15 12:05:22:630,0,-34.9719,-10.3148,-26.3012,Q,Q
2023-03-15 12:05:22:640,0,-34.9253,-10.3036,-26.3061,Q,Q
2023-03-15 12:05:22:650,0,-34.8733,-10.2932,-26.3224,Q,Q
2023-03-15 12:05:22:660,0,-34.8168,-10.2777,-26.3473,Q,Q
2023-03-15 12:05:22:670,0,-34.7575,-10.2586,-26.3831,Q,Q
2023-03-15 12:05:22:680,0,-34.6935,-10.2452,-26.4314,Q,Q
2023-03-15 12:05:22:690,0,-34.6259,-10.238,-26.4885,Q,Q
2023-03-15 12:05:22:700,0,-34.5717,-10.2368,-26.5544,Q,Q
2023-03-15 12:05:22:710,0,-34.54,-10.2374,-26.6234,Q,Q
2023-03-15 12:05:22:720,0,-34.5299,-10.2446,-26.6863,Q,Q
2023-03-15 12:05:22:730,0,-34.5351,-10.2609,-26.7473,Q,Q
2023-03-15 12:05:22:740,0,-34.5468,-10.2729,-26.792,Q,Q
2023-03-15 12:05:22:750,0,-34.5514,-10.2995,-26.8131,Q,Q
2023-03-15 12:05:22:760,0,-34.5446,-10.3353,-26.8199,Q,Q
2023-03-15 12:05:22:770,0,-34.5329,-10.3758,-26.8254,Q,Q
2023-03-15 12:05:22:780,0,-34.5194,-10.4107,-26.8297,Q,Q
2023-03-15 12:05:22:790,0,-34.5126,-10.4339,-26.8273,Q,Q
2023-03-15 12:05:22:800,0,-34.5033,-10.4503,-26.8078,Q,Q
2023-03-15 12:05:22:810,0,-34.4839,-10.4678,-26.7698,Q,Q
2023-03-15 12:05:22:820,0,-34.4465,-10.4829,-26.7136,Q,Q
2023-03-15 12:05:22:830,0,-34.378,-10.5013,-26.6554,Q,Q
2023-03-15 12:05:22:840,0,-34.2781,-10.5143,-26.6059,Q,Q
2023-03-15 12:05:22:850,0,-34.1456,-10.5054,-26.5478,Q,Q
2023-03-15 12:05:22:860,0,-33.9967,-10.489,-26.4758,Q,Q
2023-03-15 12:05:22:870,0,-33.8495,-10.4738,-26.4009,Q,Q
2023-03-15 12:05:22:880,0,-33.7106,-10.4593,-26.3369,Q,Q
2023-03-15 12:05:22:890,0,-33.5853,-10.4385,-26.2832,Q,Q
2023-03-15 12:05:22:900,0,-33.4696,-10.4204,-26.2328,Q,Q
2023-03-15 12:05:22:910,0,-33.3587,-10.396,-26.1848,Q,Q
2023-03-15 12:05:22:920,0,-33.2525,-10.3816,-26.1424,Q,Q
2023-03-15 12:05:22:930,0,-33.1385,-10.3705,-26.1125,Q,Q
2023-03-15 12:05:22:940,0,-33.0126,-10.3674,-26.0867,Q,Q
2023-03-15 12:05:22:950,0,-32.8718,-10.3676,-26.0686,Q,Q
2023-03-15 12:05:22:960,0,-32.723,-10.3717,-26.0535,Q,Q
2023-03-15 12:05:22:970,0,-32.5792,-10.3778,-26.0397,Q,Q
2023-03-15 12:05:22:980,0,-32.4467,-10.3847,-26.0184,Q,Q
2023-03-15 12:05:22:990,0,-32.3248,-10.3963,-25.9865,Q,Q
2023-03-15 12:05:23:0,0,-32.2172,-10.416,-25.9511,Q,Q
2023-03-15 12:05:23:10,0,-32.1114,-10.4388,-25.9297,Q,Q
2023-03-15 12:05:23:20,0,-31.9922,-10.4532,-25.9242,Q,Q
2023-03-15 12:05:23:30,0,-31.8686,-10.4574,-25.9247,Q,Q
2023-03-15 12:05:23:40,0,-31.7476,-10.4628,-25.9342,Q,Q
2023-03-15 12:05:23:50,0,-31.6242,-10.4676,-25.9651,Q,Q
2023-03-15 12:05:23:60,0,-31.5015,-10.4671,-26.0179,Q,Q
2023-03-15 12:05:23:70,0,-31.3805,-10.4591,-26.0873,Q,Q
2023-03-15 12:05:23:80,0,-31.2753,-10.4442,-26.1604,Q,Q
2023-03-15 12:05:23:90,0,-31.1804,-10.4284,-26.239,Q,Q
2023-03-15 12:05:23:100,0,-31.0837,-10.4132,-26.3185,Q,Q
2023-03-15 12:05:23:110,0,-30.9826,-10.3988,-26.3976,Q,Q
2023-03-15 12:05:23:120,0,-30.8732,-10.3763,-26.482,Q,Q
2023-03-15 12:05:23:130,0,-30.7617,-10.3474,-26.569,Q,Q
2023-03-15 12:05:23:140,0,-30.6558,-10.3194,-26.6631,Q,Q
2023-03-15 12:05:23:150,0,-30.5488,-10.2822,-26.7697,Q,Q
2023-03-15 12:05:23:160,0,-30.4429,-10.2355,-26.8856,Q,Q
2023-03-15 12:05:23:170,0,-30.3415,-10.1791,-27.0134,Q,Q
2023-03-15 12:05:23:180,0,-30.2442,-10.1178,-27.157,Q,Q
2023-03-15 12:05:23:190,0,-30.1449,-10.0496,-27.3037,Q,Q
2023-03-15 12:05:23:200,0,-30.044,-9.98085,-27.4489,Q,Q
2023-03-15 12:05:23:210,0,-29.9415,-9.91108,-27.586,Q,Q
2023-03-15 12:05:23:220,0,-29.8429,-9.84518,-27.712,Q,Q
2023-03-15 12:05:23:230,0,-29.7449,-9.78203,-27.8271,Q,Q
2023-03-15 12:05:23:240,0,-29.6469,-9.72287,-27.9403,Q,Q
2023-03-15 12:05:23:250,0,-29.542,-9.65755,-28.0561,Q,Q
2023-03-15 12:05:23:260,0,-29.4335,-9.58923,-28.1821,Q,Q
2023-03-15 12:05:23:270,0,-29.3202,-9.5112,-28.3148,Q,Q
2023-03-15 12:05:23:280,0,-29.2072,-9.42706,-28.4542,Q,Q
2023-03-15 12:05:23:290,0,-29.1007,-9.3365,-28.592,Q,Q
2023-03-15 12:05:23:300,0,-29.0039,-9.23759,-28.7175,Q,Q
2023-03-15 12:05:23:310,0,-28.9267,-9.13787,-28.8254,Q,Q
2023-03-15 12:05:23:320,0,-28.86,-9.04007,-28.9182,Q,Q
2023-03-15 12:05:23:330,0,-28.7893,-8.93813,-29.014,Q,Q
2023-03-15 12:05:23:340,0,-28.7034,-8.8344,-29.1143,Q,Q
2023-03-15 12:05:23:350,0,-28.5961,-8.71135,-29.2298,Q,Q
2023-03-15 12:05:23:360,0,-28.4549,-8.57287,-29.3543,Q,Q
2023-03-15 12:05:23:370,0,-28.2745,-8.4186,-29.476,Q,Q
2023-03-15 12:05:23:380,0,-28.0653,-8.25691,-29.584,Q,Q
2023-03-15 12:05:23:390,0,-27.8297,-8.08817,-29.6693,Q,Q
2023-03-15 12:05:23:400,0,-27.5756,-7.91779,-29.7292,Q,Q
2023-03-15 12:05:23:410,0,-27.3,-7.74801,-29.7592,Q,Q
2023-03-15 12:05:23:420,0,-27.0248,-7.58231,-29.7576,Q,Q
2023-03-15 12:05:23:430,0,-26.7288,-7.41576,-29.7277,Q,Q
2023-03-15 12:05:23:440,0,-26.4002,-7.25083,-29.6803,Q,Q
2023-03-15 12:05:23:450,0,-26.0304,-7.08368,-29.6257,Q,Q
2023-03-15 12:05:23:460,0,-25.6426,-6.90283,-29.5727,Q,Q
2023-03-15 12:05:23:470,0,-25.2533,-6.70924,-29.5179,Q,Q
2023-03-15 12:05:23:480,0,-24.8892,-6.50368,-29.4553,Q,Q
2023-03-15 12:05:23:490,0,-24.5683,-6.28998,-29.3891,Q,Q
2023-03-15 12:05:23:500,0,-24.3026,-6.08211,-29.3039,Q,Q
2023-03-15 12:05:23:510,0,-24.093,-5.87706,-29.1989,Q,Q
2023-03-15 12:05:23:520,0,-23.9288,-5.67587,-29.0903,Q,Q
2023-03-15 12:05:23:530,0,-23.7609,-5.54083,-29.0026,Q,Q
2023-03-15 12:05:23:540,0,-23.6098,-5.40114,-28.8951,Q,Q
2023-03-15 12:05:23:550,0,-23.4764,-5.21418,-28.7631,Q,Q
2023-03-15 12:05:23:560,0,-23.3284,-5.02359,-28.6377,Q,Q
2023-03-15 12:05:23:570,0,-23.1524,-4.82911,-28.5424,Q,Q
2023-03-15 12:05:23:580,0,-22.9541,-4.63255,-28.4707,Q,Q
2023-03-15 12:05:23:590,0,-22.7571,-4.43622,-28.3942,Q,Q
2023-03-15 12:05:23:600,0,-22.5851,-4.23286,-28.3131,Q,Q
2023-03-15 12:05:23:610,0,-22.4322,-4.04166,-28.2225,Q,Q
2023-03-15 12:05:23:620,0,-22.2833,-3.87247,-28.1318,Q,Q
2023-03-15 12:05:23:630,0,-22.1309,-3.72206,-28.0347,Q,Q
2023-03-15 12:05:23:640,0,-21.9703,-3.58992,-27.9461,Q,Q
2023-03-15 12:05:23:650,0,-21.8066,-3.46922,-27.8555,Q,Q
2023-03-15 12:05:23:660,0,-21.6525,-3.34817,-27.7646,Q,Q
2023-03-15 12:05:23:670,0,-21.5143,-3.22211,-27.6703,Q,Q
2023-03-15 12:05:23:680,0,-21.3768,-3.09897,-27.578,Q,Q
2023-03-15 12:05:23:690,0,-21.2411,-2.97406,-27.4814,Q,Q
2023-03-15 12:05:23:700,0,-21.1244,-2.86508,-27.369,Q,Q
2023-03-15 12:05:23:710,0,-21.0408,-2.76992,-27.233,Q,Q
2023-03-15 12:05:23:720,0,-20.9905,-2.69477,-27.0831,Q,Q
2023-03-15 12:05:23:730,0,-20.9644,-2.63911,-26.9228,Q,Q
2023-03-15 12:05:23:740,0,-20.9414,-2.58318,-26.7713,Q,Q
2023-03-15 12:05:23:750,0,-20.8963,-2.5282,-26.6121,Q,Q
2023-03-15 12:05:23:760,0,-20.826,-2.48429,-26.4466,Q,Q
2023-03-15 12:05:23:771,0,-20.7393,-2.44415,-26.2671,Q,Q
2023-03-15 12:05:23:780,0,-20.6552,-2.41316,-26.0898,Q,Q
2023-03-15 12:05:23:791,0,-20.5887,-2.3926,-25.9231,Q,Q
2023-03-15 12:05:23:800,0,-20.5532,-2.37273,-25.7634,Q,Q
2023-03-15 12:05:23:810,0,-20.5515,-2.36037,-25.6024,Q,Q
2023-03-15 12:05:23:820,0,-20.5788,-2.35685,-25.456,Q,Q
2023-03-15 12:05:23:830,0,-20.6283,-2.34779,-25.3357,Q,Q
2023-03-15 12:05:23:840,0,-20.681,-2.34596,-25.2436,Q,Q
2023-03-15 12:05:23:851,0,-20.71,-2.34584,-25.1612,Q,Q
2023-03-15 12:05:23:860,0,-20.711,-2.34901,-25.0943,Q,Q
2023-03-15 12:05:23:870,0,-20.6908,-2.35182,-25.0594,Q,Q
2023-03-15 12:05:23:880,0,-20.6477,-2.35241,-25.0509,Q,Q
2023-03-15 12:05:23:891,0,-20.594,-2.33579,-25.0634,Q,Q
2023-03-15 12:05:23:900,0,-20.5467,-2.31823,-25.0921,Q,Q
2023-03-15 12:05:23:911,0,-20.5116,-2.29607,-25.1292,Q,Q
2023-03-15 12:05:23:920,0,-20.4971,-2.2753,-25.1744,Q,Q
2023-03-15 12:05:23:931,0,-20.5067,-2.2608,-25.2374,Q,Q
2023-03-15 12:05:23:940,0,-20.5404,-2.24917,-25.3106,Q,Q
2023-03-15 12:05:23:950,0,-20.5846,-2.24741,-25.3861,Q,Q
2023-03-15 12:05:23:960,0,-20.6288,-2.24994,-25.463,Q,Q
2023-03-15 12:05:23:970,0,-20.6548,-2.26853,-25.5348,Q,Q
2023-03-15 12:05:23:980,0,-20.6616,-2.29432,-25.6017,Q,Q
2023-03-15 12:05:23:990,0,-20.6585,-2.31925,-25.6655,Q,Q
2023-03-15 12:05:24:0,0,-20.6535,-2.34928,-25.7235,Q,Q
2023-03-15 12:05:24:10,0,-20.653,-2.38552,-25.7732,Q,Q
2023-03-15 12:05:24:20,0,-20.6535,-2.42326,-25.8114,Q,Q
2023-03-15 12:05:24:30,0,-20.6511,-2.46763,-25.84,Q,Q
2023-03-15 12:05:24:40,0,-20.6563,-2.51253,-25.8588,Q,Q
2023-03-15 12:05:24:50,0,-20.6756,-2.5618,-25.8754,Q,Q
2023-03-15 12:05:24:60,0,-20.7014,-2.61522,-25.8901,Q,Q
2023-03-15 12:05:24:70,0,-20.7309,-2.67095,-25.9022,Q,Q
2023-03-15 12:05:24:80,0,-20.7504,-2.72264,-25.9149,Q,Q
2023-03-15 12:05:24:90,0,-20.7469,-2.77022,-25.9199,Q,Q
2023-03-15 12:05:24:100,0,-20.7219,-2.81159,-25.9184,Q,Q
2023-03-15 12:05:24:110,0,-20.6844,-2.84252,-25.9199,Q,Q
2023-03-15 12:05:24:120,0,-20.6415,-2.86782,-25.912,Q,Q
2023-03-15 12:05:24:130,0,-20.6096,-2.87931,-25.9019,Q,Q
2023-03-15 12:05:24:140,0,-20.5875,-2.88218,-25.892,Q,Q
2023-03-15 12:05:24:150,0,-20.5725,-2.88509,-25.8826,Q,Q
2023-03-15 12:05:24:160,0,-20.5607,-2.88055,-25.8695,Q,Q
2023-03-15 12:05:24:170,0,-20.5495,-2.87573,-25.8553,Q,Q
2023-03-15 12:05:24:180,0,-20.5412,-2.86985,-25.8463,Q,Q
2023-03-15 12:05:24:191,0,-20.5369,-2.85799,-25.8448,Q,Q
2023-03-15 12:05:24:200,0,-20.5372,-2.84736,-25.8506,Q,Q
2023-03-15 12:05:24:211,0,-20.5459,-2.83508,-25.8649,Q,Q
2023-03-15 12:05:24:220,0,-20.5582,-2.82457,-25.8827,Q,Q
2023-03-15 12:05:24:230,0,-20.567,-2.82327,-25.9108,Q,Q
2023-03-15 12:05:24:240,0,-20.5634,-2.81784,-25.9464,Q,Q
2023-03-15 12:05:24:251,0,-20.545,-2.81464,-25.9824,Q,Q
2023-03-15 12:05:24:260,0,-20.5176,-2.81332,-26.0201,Q,Q
2023-03-15 12:05:24:271,0,-20.4809,-2.81019,-26.0664,Q,Q
2023-03-15 12:05:24:280,0,-20.4396,-2.80395,-26.1177,Q,Q
2023-03-15 12:05:24:290,0,-20.3964,-2.7931,-26.1648,Q,Q
2023-03-15 12:05:24:300,0,-20.3523,-2.78194,-26.2103,Q,Q
2023-03-15 12:05:24:310,0,-20.3034,-2.7678,-26.2519,Q,Q
2023-03-15 12:05:24:320,0,-20.2412,-2.74679,-26.286,Q,Q
2023-03-15 12:05:24:330,0,-20.1702,-2.71737,-26.3092,Q,Q
2023-03-15 12:05:24:340,0,-20.0968,-2.68687,-26.3146,Q,Q
2023-03-15 12:05:24:350,0,-20.0209,-2.65588,-26.2982,Q,Q
2023-03-15 12:05:24:360,0,-19.9486,-2.62145,-26.2566,Q,Q
2023-03-15 12:05:24:370,0,-19.8693,-2.59422,-26.189,Q,Q
2023-03-15 12:05:24:380,0,-19.7582,-2.5672,-26.0898,Q,Q
2023-03-15 12:05:24:390,0,-19.6058,-2.54637,-25.9665,Q,Q
2023-03-15 12:05:24:400,0,-19.409,-2.52404,-25.8219,Q,Q
2023-03-15 12:05:24:410,0,-19.1705,-2.49865,-25.6572,Q,Q
2023-03-15 12:05:24:420,0,-18.8939,-2.46671,-25.4662,Q,Q
2023-03-15 12:05:24:430,0,-18.5879,-2.43218,-25.2551,Q,Q
2023-03-15 12:05:24:440,0,-18.2692,-2.39739,-25.0262,Q,Q
2023-03-15 12:05:24:450,0,-17.9386,-2.37804,-24.7737,Q,Q
2023-03-15 12:05:24:460,0,-17.6141,-2.36865,-24.5102,Q,Q
2023-03-15 12:05:24:470,0,-17.29,-2.36885,-24.2416,Q,Q
2023-03-15 12:05:24:480,0,-16.9715,-2.37646,-23.9761,Q,Q
2023-03-15 12:05:24:490,0,-16.6391,-2.3898,-23.7135,Q,Q
2023-03-15 12:05:24:500,0,-16.3044,-2.41725,-23.453,Q,Q
2023-03-15 12:05:24:510,0,-15.9437,-2.45276,-23.1908,Q,Q
2023-03-15 12:05:24:520,0,-15.5475,-2.50909,-22.9219,Q,Q
2023-03-15 12:05:24:530,0,-15.1189,-2.58166,-22.6506,Q,Q
2023-03-15 12:05:24:540,0,-14.6858,-2.66582,-22.3855,Q,Q
2023-03-15 12:05:24:550,0,-14.2636,-2.7615,-22.132,Q,Q
2023-03-15 12:05:24:560,0,-13.8691,-2.86042,-21.8994,Q,Q
2023-03-15 12:05:24:570,0,-13.5013,-2.96618,-21.6848,Q,Q
2023-03-15 12:05:24:580,0,-13.1477,-3.08029,-21.487,Q,Q
2023-03-15 12:05:24:590,0,-12.7953,-3.20175,-21.3046,Q,Q
2023-03-15 12:05:24:600,0,-12.432,-3.33376,-21.131,Q,Q
2023-03-15 12:05:24:610,0,-12.0529,-3.47642,-20.9624,Q,Q
2023-03-15 12:05:24:620,0,-11.6516,-3.62789,-20.8054,Q,Q
2023-03-15 12:05:24:630,0,-11.2369,-3.78995,-20.6616,Q,Q
2023-03-15 12:05:24:640,0,-10.8214,-3.9579,-20.5364,Q,Q
2023-03-15 12:05:24:650,0,-10.4213,-4.12273,-20.4287,Q,Q
2023-03-15 12:05:24:660,0,-10.0523,-4.29087,-20.3428,Q,Q
2023-03-15 12:05:24:670,0,-9.71008,-4.45411,-20.2771,Q,Q
2023-03-15 12:05:24:680,0,-9.3903,-4.61597,-20.2314,Q,Q
2023-03-15 12:05:24:690,0,-9.08582,-4.78087,-20.2002,Q,Q
2023-03-15 12:05:24:700,0,-8.78696,-4.95398,-20.1917,Q,Q
2023-03-15 12:05:24:710,0,-8.48062,-5.13166,-20.2022,Q,Q
2023-03-15 12:05:24:720,0,-8.16504,-5.30867,-20.2306,Q,Q
2023-03-15 12:05:24:730,0,-7.84189,-5.47912,-20.2871,Q,Q
2023-03-15 12:05:24:740,0,-7.51215,-5.64386,-20.3629,Q,Q
2023-03-15 12:05:24:750,0,-7.18805,-5.79353,-20.4587,Q,Q
2023-03-15 12:05:24:760,0,-6.87692,-5.9359,-20.5772,Q,Q
2023-03-15 12:05:24:770,0,-6.5737,-6.06782,-20.7144,Q,Q
2023-03-15 12:05:24:780,0,-6.29021,-6.1996,-20.866,Q,Q
2023-03-15 12:05:24:790,0,-6.03149,-6.33261,-21.0326,Q,Q
2023-03-15 12:05:24:800,0,-5.78898,-6.46477,-21.2134,Q,Q
2023-03-15 12:05:24:810,0,-5.55508,-6.59557,-21.4106,Q,Q
2023-03-15 12:05:24:820,0,-5.31853,-6.72738,-21.6159,Q,Q
2023-03-15 12:05:24:830,0,-5.07874,-6.86027,-21.8298,Q,Q
2023-03-15 12:05:24:840,0,-4.83073,-6.98936,-22.0437,Q,Q
2023-03-15 12:05:24:850,0,-4.58725,-7.11508,-22.2609,Q,Q
2023-03-15 12:05:24:860,0,-4.34428,-7.237,-22.4773,Q,Q
2023-03-15 12:05:24:870,0,-4.114,-7.35557,-22.6916,Q,Q
2023-03-15 12:05:24:880,0,-3.90202,-7.45775,-22.9031,Q,Q
2023-03-15 12:05:24:890,0,-3.70699,-7.54723,-23.12,Q,Q
2023-03-15 12:05:24:900,0,-3.54316,-7.61951,-23.3418,Q,Q
2023-03-15 12:05:24:910,0,-3.40846,-7.6739,-23.5717,Q,Q
2023-03-15 12:05:24:920,0,-3.29576,-7.71283,-23.8028,Q,Q
2023-03-15 12:05:24:930,0,-3.18299,-7.74756,-24.0299,Q,Q
2023-03-15 12:05:24:940,0,-3.06,-7.783,-24.2584,Q,Q
2023-03-15 12:05:24:950,0,-2.92164,-7.8189,-24.4764,Q,Q
2023-03-15 12:05:24:960,0,-2.76655,-7.85682,-24.6901,Q,Q
2023-03-15 12:05:24:970,0,-2.60593,-7.88992,-24.9009,Q,Q
2023-03-15 12:05:24:980,0,-2.44417,-7.92047,-25.1154,Q,Q
2023-03-15 12:05:24:990,0,-2.29504,-7.94566,-25.331,Q,Q
2023-03-15 12:05:25:0,0,-2.15902,-7.96523,-25.5515,Q,Q
2023-03-15 12:05:25:10,0,-2.02684,-7.97554,-25.786,Q,Q
2023-03-15 12:05:25:20,0,-1.90062,-7.99168,-26.0377,Q,Q
2023-03-15 12:05:25:30,0,-1.78623,-8.00145,-26.297,Q,Q
2023-03-15 12:05:25:40,0,-1.68454,-8.00593,-26.5755,Q,Q
2023-03-15 12:05:25:50,0,-1.59995,-8.00486,-26.8824,Q,Q
2023-03-15 12:05:25:60,0,-1.53168,-7.99574,-27.2233,Q,Q
2023-03-15 12:05:25:70,0,-1.47494,-7.98345,-27.5941,Q,Q
2023-03-15 12:05:25:80,0,-1.42045,-7.96482,-27.9788,Q,Q
2023-03-15 12:05:25:90,0,-1.35237,-7.95318,-28.3772,Q,Q
2023-03-15 12:05:25:100,0,-1.26654,-7.95258,-28.7909,Q,Q
2023-03-15 12:05:25:110,0,-1.16988,-7.96615,-29.2131,Q,Q
2023-03-15 12:05:25:120,0,-1.07149,-7.99003,-29.6453,Q,Q
2023-03-15 12:05:25:130,0,-0.982953,-8.01778,-30.0921,Q,Q
2023-03-15 12:05:25:140,0,-0.911587,-8.04537,-30.547,Q,Q
2023-03-15 12:05:25:150,0,-0.853915,-8.07142,-31.0071,Q,Q
2023-03-15 12:05:25:160,0,-0.812581,-8.10151,-31.4665,Q,Q
2023-03-15 12:05:25:170,0,-0.781775,-8.1308,-31.929,Q,Q
2023-03-15 12:05:25:180,0,-0.757031,-8.15623,-32.3959,Q,Q
2023-03-15 12:05:25:190,0,-0.750476,-8.17513,-32.8736,Q,Q
2023-03-15 12:05:25:200,0,-0.756699,-8.17958,-33.3538,Q,Q
2023-03-15 12:05:25:210,0,-0.776098,-8.16877,-33.8315,Q,Q
2023-03-15 12:05:25:220,0,-0.806845,-8.14472,-34.2992,Q,Q
2023-03-15 12:05:25:230,0,-0.830667,-8.11394,-34.7516,Q,Q
2023-03-15 12:05:25:240,0,-0.837989,-8.07473,-35.1887,Q,Q
2023-03-15 12:05:25:251,0,-0.820995,-8.03796,-35.6043,Q,Q
2023-03-15 12:05:25:260,0,-0.781079,-8.00885,-35.9926,Q,Q
2023-03-15 12:05:25:270,0,-0.720037,-7.97984,-36.3568,Q,Q
2023-03-15 12:05:25:280,0,-0.647809,-7.92907,-36.7014,Q,Q
2023-03-15 12:05:25:290,0,-0.562816,-7.86493,-37.0248,Q,Q
2023-03-15 12:05:25:300,0,-0.477021,-7.78745,-37.3253,Q,Q
2023-03-15 12:05:25:310,0,-0.407752,-7.71171,-37.6101,Q,Q
2023-03-15 12:05:25:320,0,-0.367613,-7.61825,-37.8698,Q,Q
2023-03-15 12:05:25:330,0,-0.351942,-7.51985,-38.1168,Q,Q
2023-03-15 12:05:25:340,0,-0.333225,-7.41427,-38.3497,Q,Q
2023-03-15 12:05:25:350,0,-0.301007,-7.30201,-38.563,Q,Q
2023-03-15 12:05:25:360,0,-0.247835,-7.1804,-38.7498,Q,Q
2023-03-15 12:05:25:371,0,-0.175294,-7.0584,-38.9161,Q,Q
2023-03-15 12:05:25:380,0,-0.10231,-6.92785,-39.0594,Q,Q
2023-03-15 12:05:25:390,0,-0.0334715,-6.81228,-39.1792,Q,Q
2023-03-15 12:05:25:400,0,0.0206745,-6.70295,-39.2765,Q,Q
2023-03-15 12:05:25:411,0,0.0562106,-6.59278,-39.3485,Q,Q
2023-03-15 12:05:25:420,0,0.100233,-6.49065,-39.4049,Q,Q
2023-03-15 12:05:25:430,0,0.15969,-6.39947,-39.4451,Q,Q
2023-03-15 12:05:25:440,0,0.242633,-6.3253,-39.4715,Q,Q
2023-03-15 12:05:25:451,0,0.336942,-6.26094,-39.4838,Q,Q
2023-03-15 12:05:25:461,0,0.430496,-6.20091,-39.4906,Q,Q
2023-03-15 12:05:25:471,0,0.514228,-6.14674,-39.4931,Q,Q
2023-03-15 12:05:25:480,0,0.588885,-6.09551,-39.4922,Q,Q
2023-03-15 12:05:25:490,0,0.653736,-6.04347,-39.4834,Q,Q
2023-03-15 12:05:25:500,0,0.703809,-5.99506,-39.4683,Q,Q
2023-03-15 12:05:25:511,0,0.743602,-5.94811,-39.4493,Q,Q
2023-03-15 12:05:25:520,0,0.782937,-5.9052,-39.4242,Q,Q
2023-03-15 12:05:25:530,0,0.823613,-5.87067,-39.3912,Q,Q
2023-03-15 12:05:25:540,0,0.867327,-5.84516,-39.351,Q,Q
2023-03-15 12:05:25:550,0,0.917544,-5.82564,-39.3021,Q,Q
2023-03-15 12:05:25:560,0,0.967774,-5.80966,-39.2455,Q,Q
2023-03-15 12:05:25:570,0,1.02478,-5.80073,-39.1816,Q,Q
2023-03-15 12:05:25:580,0,1.08327,-5.79763,-39.1042,Q,Q
2023-03-15 12:05:25:590,0,1.13885,-5.79666,-39.0238,Q,Q
2023-03-15 12:05:25:600,0,1.19536,-5.79762,-38.9359,Q,Q
2023-03-15 12:05:25:610,0,1.23955,-5.79863,-38.8461,Q,Q
2023-03-15 12:05:25:620,0,1.27897,-5.80361,-38.7567,Q,Q
2023-03-15 12:05:25:630,0,1.314,-5.8045,-38.6688,Q,Q
2023-03-15 12:05:25:640,0,1.33731,-5.79562,-38.5847,Q,Q
2023-03-15 12:05:25:650,0,1.36279,-5.78337,-38.5019,Q,Q
2023-03-15 12:05:25:660,0,1.38839,-5.77474,-38.4213,Q,Q
2023-03-15 12:05:25:670,0,1.41928,-5.77155,-38.3423,Q,Q
2023-03-15 12:05:25:680,0,1.45233,-5.76569,-38.2683,Q,Q
2023-03-15 12:05:25:690,0,1.49243,-5.76228,-38.2002,Q,Q
2023-03-15 12:05:25:700,0,1.53017,-5.75798,-38.1336,Q,Q
2023-03-15 12:05:25:710,0,1.57021,-5.75644,-38.0744,Q,Q
2023-03-15 12:05:25:720,0,1.61533,-5.75061,-38.0249,Q,Q
2023-03-15 12:05:25:730,0,1.66842,-5.7406,-37.9869,Q,Q
2023-03-15 12:05:25:740,0,1.74025,-5.72301,-37.9584,Q,Q
2023-03-15 12:05:25:750,0,1.82591,-5.69745,-37.9419,Q,Q
2023-03-15 12:05:25:760,0,1.92655,-5.6626,-37.937,Q,Q
2023-03-15 12:05:25:771,0,2.03859,-5.62824,-37.9378,Q,Q
2023-03-15 12:05:25:780,0,2.16396,-5.59602,-37.9449,Q,Q
2023-03-15 12:05:25:790,0,2.29205,-5.56424,-37.958,Q,Q
2023-03-15 12:05:25:800,0,2.424,-5.53164,-37.9749,Q,Q
2023-03-15 12:05:25:811,0,2.56028,-5.50155,-37.9908,Q,Q
2023-03-15 12:05:25:820,0,2.69775,-5.47962,-38.0027,Q,Q
2023-03-15 12:05:25:830,0,2.82872,-5.47128,-38.0066,Q,Q
2023-03-15 12:05:25:840,0,2.95323,-5.47202,-38.0164,Q,Q
2023-03-15 12:05:25:850,0,3.06421,-5.46905,-38.0333,Q,Q
2023-03-15 12:05:25:860,0,3.15761,-5.46296,-38.0614,Q,Q
2023-03-15 12:05:25:871,0,3.24698,-5.4579,-38.0977,Q,Q
2023-03-15 12:05:25:880,0,3.33196,-5.45101,-38.1412,Q,Q
2023-03-15 12:05:25:891,0,3.41163,-5.44584,-38.1847,Q,Q
2023-03-15 12:05:25:900,0,3.47447,-5.43369,-38.224,Q,Q
2023-03-15 12:05:25:910,0,3.5267,-5.43259,-38.26,Q,Q
2023-03-15 12:05:25:920,0,3.56822,-5.44105,-38.2945,Q,Q
2023-03-15 12:05:25:931,0,3.59854,-5.45835,-38.3269,Q,Q
2023-03-15 12:05:25:940,0,3.6268,-5.47795,-38.3639,Q,Q
2023-03-15 12:05:25:950,0,3.64747,-5.50088,-38.4014,Q,Q
2023-03-15 12:05:25:960,0,3.66526,-5.52444,-38.4383,Q,Q
2023-03-15 12:05:25:971,0,3.68407,-5.53799,-38.4789,Q,Q
2023-03-15 12:05:25:980,0,3.70556,-5.53969,-38.5186,Q,Q
2023-03-15 12:05:25:990,0,3.72602,-5.53967,-38.5537,Q,Q
2023-03-15 12:05:26:0,0,3.74378,-5.52665,-38.584,Q,Q
2023-03-15 12:05:26:10,0,3.75643,-5.51002,-38.6065,Q,Q
2023-03-15 12:05:26:20,0,3.75755,-5.49101,-38.6215,Q,Q
2023-03-15 12:05:26:30,0,3.75207,-5.47322,-38.6332,Q,Q
2023-03-15 12:05:26:40,0,3.74328,-5.45902,-38.6406,Q,Q
2023-03-15 12:05:26:50,0,3.73242,-5.4427,-38.6433,Q,Q
2023-03-15 12:05:26:60,0,3.72246,-5.42715,-38.6396,Q,Q
2023-03-15 12:05:26:70,0,3.71948,-5.414,-38.6261,Q,Q
2023-03-15 12:05:26:80,0,3.72559,-5.40497,-38.6045,Q,Q
2023-03-15 12:05:26:90,0,3.7255,-5.39889,-38.5762,Q,Q
2023-03-15 12:05:26:100,0,3.72509,-5.39684,-38.5412,Q,Q
2023-03-15 12:05:26:110,0,3.71874,-5.39122,-38.503,Q,Q
2023-03-15 12:05:26:120,0,3.70557,-5.38457,-38.4629,Q,Q
2023-03-15 12:05:26:130,0,3.69196,-5.38097,-38.4228,Q,Q
2023-03-15 12:05:26:140,0,3.67502,-5.37501,-38.3791,Q,Q
2023-03-15 12:05:26:150,0,3.66804,-5.37059,-38.3334,Q,Q
2023-03-15 12:05:26:160,0,3.66913,-5.37064,-38.288,Q,Q
2023-03-15 12:05:26:171,0,3.67677,-5.36885,-38.2389,Q,Q
2023-03-15 12:05:26:180,0,3.6803,-5.36736,-38.1887,Q,Q
2023-03-15 12:05:26:191,0,3.6838,-5.36778,-38.142,Q,Q
2023-03-15 12:05:26:200,0,3.6812,-5.36957,-38.0879,Q,Q
2023-03-15 12:05:26:210,0,3.6716,-5.37323,-38.0325,Q,Q
2023-03-15 12:05:26:220,0,3.6597,-5.37846,-37.9794,Q,Q
2023-03-15 12:05:26:231,0,3.64343,-5.38441,-37.9296,Q,Q
2023-03-15 12:05:26:241,0,3.62571,-5.39012,-37.879,Q,Q
2023-03-15 12:05:26:250,0,3.60906,-5.40098,-37.828,Q,Q
2023-03-15 12:05:26:261,0,3.58672,-5.41608,-37.7769,Q,Q
2023-03-15 12:05:26:271,0,3.56435,-5.43049,-37.7274,Q,Q
2023-03-15 12:05:26:281,0,3.5442,-5.44784,-37.6782,Q,Q
2023-03-15 12:05:26:291,0,3.52872,-5.46658,-37.6282,Q,Q
2023-03-15 12:05:26:301,0,3.51239,-5.48044,-37.5786,Q,Q
2023-03-15 12:05:26:311,0,3.50274,-5.49944,-37.5246,Q,Q
2023-03-15 12:05:26:321,0,3.49361,-5.51697,-37.4696,Q,Q
2023-03-15 12:05:26:331,0,3.48128,-5.53542,-37.4129,Q,Q
2023-03-15 12:05:26:340,0,3.46884,-5.55652,-37.3528,Q,Q
2023-03-15 12:05:26:350,0,3.45235,-5.57993,-37.2935,Q,Q
2023-03-15 12:05:26:360,0,3.43371,-5.59958,-37.2376,Q,Q
2023-03-15 12:05:26:371,0,3.42253,-5.61444,-37.1821,Q,Q
2023-03-15 12:05:26:380,0,3.41863,-5.63152,-37.1257,Q,Q
2023-03-15 12:05:26:391,0,3.42247,-5.64563,-37.0703,Q,Q
2023-03-15 12:05:26:400,0,3.43386,-5.65692,-37.0058,Q,Q
2023-03-15 12:05:26:411,0,3.44666,-5.66709,-36.9334,Q,Q
2023-03-15 12:05:26:421,0,3.45771,-5.67772,-36.8515,Q,Q
2023-03-15 12:05:26:430,0,3.46256,-5.68904,-36.7587,Q,Q
2023-03-15 12:05:26:440,0,3.46369,-5.70059,-36.6545,Q,Q
2023-03-15 12:05:26:451,0,3.44923,-5.71723,-36.5363,Q,Q
2023-03-15 12:05:26:460,0,3.42717,-5.7326,-36.4022,Q,Q
2023-03-15 12:05:26:471,0,3.39822,-5.75128,-36.2559,Q,Q
2023-03-15 12:05:26:480,0,3.37283,-5.77015,-36.0969,Q,Q
2023-03-15 12:05:26:491,0,3.34725,-5.78806,-35.927,Q,Q
2023-03-15 12:05:26:500,0,3.32621,-5.80571,-35.7468,Q,Q
2023-03-15 12:05:26:510,0,3.30765,-5.81608,-35.555,Q,Q
2023-03-15 12:05:26:520,0,3.29085,-5.82775,-35.3556,Q,Q
2023-03-15 12:05:26:530,0,3.27445,-5.83627,-35.147,Q,Q
2023-03-15 12:05:26:540,0,3.25817,-5.84877,-34.933,Q,Q
2023-03-15 12:05:26:550,0,3.24113,-5.85773,-34.7186,Q,Q
2023-03-15 12:05:26:560,0,3.21818,-5.86364,-34.5036,Q,Q
2023-03-15 12:05:26:570,0,3.1848,-5.87016,-34.2897,Q,Q
2023-03-15 12:05:26:580,0,3.14942,-5.87351,-34.0784,Q,Q
2023-03-15 12:05:26:590,0,3.11602,-5.8776,-33.8729,Q,Q
2023-03-15 12:05:26:600,0,3.08751,-5.87932,-33.6736,Q,Q
2023-03-15 12:05:26:610,0,3.06637,-5.88242,-33.4856,Q,Q
2023-03-15 12:05:26:620,0,3.05592,-5.88826,-33.3068,Q,Q
2023-03-15 12:05:26:630,0,3.05307,-5.89728,-33.1404,Q,Q
2023-03-15 12:05:26:641,0,3.06006,-5.90548,-32.9851,Q,Q
2023-03-15 12:05:26:651,0,3.06542,-5.91325,-32.8396,Q,Q
2023-03-15 12:05:26:661,0,3.06945,-5.92311,-32.7055,Q,Q
2023-03-15 12:05:26:671,0,3.07058,-5.93396,-32.5847,Q,Q
2023-03-15 12:05:26:680,0,3.07157,-5.94662,-32.4744,Q,Q
2023-03-15 12:05:26:690,0,3.07101,-5.95951,-32.3706,Q,Q
2023-03-15 12:05:26:700,0,3.07174,-5.97529,-32.2777,Q,Q
2023-03-15 12:05:26:711,0,3.07021,-5.99398,-32.1938,Q,Q
2023-03-15 12:05:26:720,0,3.06989,-6.01199,-32.1233,Q,Q
2023-03-15 12:05:26:730,0,3.07819,-6.03041,-32.0609,Q,Q
2023-03-15 12:05:26:740,0,3.08683,-6.04519,-32.0043,Q,Q
2023-03-15 12:05:26:751,0,3.10399,-6.06128,-31.961,Q,Q
2023-03-15 12:05:26:760,0,3.12684,-6.07365,-31.9227,Q,Q
2023-03-15 12:05:26:770,0,3.14746,-6.08121,-31.8884,Q,Q
2023-03-15 12:05:26:780,0,3.16791,-6.08834,-31.8537,Q,Q
2023-03-15 12:05:26:791,0,3.1824,-6.08893,-31.8198,Q,Q
2023-03-15 12:05:26:800,0,3.1828,-6.08857,-31.7855,Q,Q
2023-03-15 12:05:26:811,0,3.16476,-6.09033,-31.7484,Q,Q
2023-03-15 12:05:26:820,0,3.13232,-6.09327,-31.7117,Q,Q
2023-03-15 12:05:26:830,0,3.09206,-6.09354,-31.6772,Q,Q
2023-03-15 12:05:26:840,0,3.05909,-6.08826,-31.6475,Q,Q
2023-03-15 12:05:26:850,0,3.03576,-6.08028,-31.6159,Q,Q
2023-03-15 12:05:26:860,0,3.02525,-6.06626,-31.5862,Q,Q
2023-03-15 12:05:26:870,0,3.03611,-6.04433,-31.5575,Q,Q
2023-03-15 12:05:26:880,0,3.05305,-6.02258,-31.5258,Q,Q
2023-03-15 12:05:26:891,0,3.07274,-6.00029,-31.4883,Q,Q
2023-03-15 12:05:26:900,0,3.08029,-5.9814,-31.45,Q,Q
2023-03-15 12:05:26:911,0,3.07922,-5.95602,-31.4145,Q,Q
2023-03-15 12:05:26:920,0,3.06914,-5.93102,-31.3754,Q,Q
2023-03-15 12:05:26:931,0,3.05894,-5.90659,-31.3333,Q,Q
2023-03-15 12:05:26:940,0,3.04836,-5.88453,-31.2921,Q,Q
2023-03-15 12:05:26:950,0,3.04427,-5.86316,-31.2487,Q,Q
2023-03-15 12:05:26:960,0,3.04161,-5.84667,-31.2014,Q,Q
2023-03-15 12:05:26:970,0,3.03844,-5.82893,-31.1487,Q,Q
2023-03-15 12:05:26:980,0,3.02566,-5.81478,-31.0886,Q,Q
2023-03-15 12:05:26:990,0,2.99384,-5.7998,-31.0261,Q,Q
2023-03-15 12:05:27:0,0,2.95156,-5.79085,-30.9601,Q,Q
2023-03-15 12:05:27:10,0,2.91089,-5.79135,-30.8976,Q,Q
2023-03-15 12:05:27:20,0,2.87832,-5.80374,-30.8356,Q,Q
2023-03-15 12:05:27:30,0,2.8566,-5.82236,-30.7742,Q,Q
2023-03-15 12:05:27:40,0,2.84308,-5.84515,-30.7117,Q,Q
2023-03-15 12:05:27:50,0,2.83224,-5.86521,-30.6454,Q,Q
2023-03-15 12:05:27:60,0,2.8174,-5.88977,-30.5738,Q,Q
2023-03-15 12:05:27:71,0,2.79717,-5.90691,-30.4976,Q,Q
2023-03-15 12:05:27:80,0,2.77709,-5.92425,-30.4128,Q,Q
2023-03-15 12:05:27:90,0,2.74985,-5.94077,-30.3218,Q,Q
2023-03-15 12:05:27:100,0,2.72442,-5.95427,-30.2272,Q,Q
2023-03-15 12:05:27:110,0,2.70586,-5.96281,-30.1288,Q,Q
2023-03-15 12:05:27:120,0,2.69331,-5.97209,-30.03,Q,Q
2023-03-15 12:05:27:131,0,2.68608,-5.9799,-29.9263,Q,Q
2023-03-15 12:05:27:140,0,2.67882,-5.98542,-29.8178,Q,Q
2023-03-15 12:05:27:150,0,2.66379,-5.98643,-29.7108,Q,Q
2023-03-15 12:05:27:161,0,2.63685,-5.99351,-29.6009,Q,Q
2023-03-15 12:05:27:170,0,2.60544,-6.00381,-29.4937,Q,Q
2023-03-15 12:05:27:180,0,2.56973,-6.01509,-29.3901,Q,Q
2023-03-15 12:05:27:191,0,2.53006,-6.0287,-29.2932,Q,Q
2023-03-15 12:05:27:201,0,2.49739,-6.04164,-29.2042,Q,Q
2023-03-15 12:05:27:211,0,2.47088,-6.06151,-29.1258,Q,Q
2023-03-15 12:05:27:221,0,2.45409,-6.08404,-29.0526,Q,Q
2023-03-15 12:05:27:231,0,2.44106,-6.10382,-28.9838,Q,Q
2023-03-15 12:05:27:241,0,2.42439,-6.12367,-28.9225,Q,Q
2023-03-15 12:05:27:251,0,2.40312,-6.14758,-28.8697,Q,Q
2023-03-15 12:05:27:260,0,2.38326,-6.17299,-28.8264,Q,Q
2023-03-15 12:05:27:271,0,2.36708,-6.19898,-28.7917,Q,Q
2023-03-15 12:05:27:280,0,2.35856,-6.21657,-28.7641,Q,Q
2023-03-15 12:05:27:290,0,2.35036,-6.23368,-28.7384,Q,Q
2023-03-15 12:05:27:300,0,2.3376,-6.24905,-28.7202,Q,Q
2023-03-15 12:05:27:311,0,2.32163,-6.26291,-28.7093,Q,Q
2023-03-15 12:05:27:321,0,2.31316,-6.27555,-28.7036,Q,Q
2023-03-15 12:05:27:330,0,2.31182,-6.28544,-28.7001,Q,Q
2023-03-15 12:05:27:340,0,2.31353,-6.29562,-28.7016,Q,Q
2023-03-15 12:05:27:351,0,2.31551,-6.302,-28.706,Q,Q
2023-03-15 12:05:27:360,0,2.31395,-6.306,-28.7128,Q,Q
2023-03-15 12:05:27:371,0,2.30606,-6.30508,-28.7182,Q,Q
2023-03-15 12:05:27:381,0,2.29556,-6.29941,-28.7234,Q,Q
2023-03-15 12:05:27:391,0,2.27966,-6.29581,-28.7357,Q,Q
2023-03-15 12:05:27:401,0,2.25892,-6.29135,-28.744,Q,Q
2023-03-15 12:05:27:411,0,2.23901,-6.28474,-28.7529,Q,Q
2023-03-15 12:05:27:420,0,2.21809,-6.28015,-28.7525,Q,Q
2023-03-15 12:05:27:431,0,2.19293,-6.28464,-28.7557,Q,Q
2023-03-15 12:05:27:440,0,2.1715,-6.28934,-28.7584,Q,Q
2023-03-15 12:05:27:450,0,2.15336,-6.28994,-28.7602,Q,Q
2023-03-15 12:05:27:460,0,2.14425,-6.29554,-28.7631,Q,Q
2023-03-15 12:05:27:471,0,2.13414,-6.29253,-28.7653,Q,Q
2023-03-15 12:05:27:481,0,2.12052,-6.29066,-28.7687,Q,Q
2023-03-15 12:05:27:491,0,2.09552,-6.28751,-28.7704,Q,Q
2023-03-15 12:05:27:500,0,2.06892,-6.28001,-28.7746,Q,Q
2023-03-15 12:05:27:510,0,2.04157,-6.27565,-28.7785,Q,Q
2023-03-15 12:05:27:520,0,2.01649,-6.26793,-28.7861,Q,Q
2023-03-15 12:05:27:530,0,1.99614,-6.25857,-28.7947,Q,Q
2023-03-15 12:05:27:540,0,1.98007,-6.25323,-28.7998,Q,Q
2023-03-15 12:05:27:550,0,1.97038,-6.24447,-28.8078,Q,Q
2023-03-15 12:05:27:560,0,1.96716,-6.23511,-28.8156,Q,Q
2023-03-15 12:05:27:570,0,1.96872,-6.23218,-28.8262,Q,Q
2023-03-15 12:05:27:580,0,1.97132,-6.22634,-28.8341,Q,Q
2023-03-15 12:05:27:591,0,1.97302,-6.22151,-28.8433,Q,Q
2023-03-15 12:05:27:600,0,1.96385,-6.21816,-28.8581,Q,Q
2023-03-15 12:05:27:610,0,1.95433,-6.22064,-28.8737,Q,Q
2023-03-15 12:05:27:620,0,1.94389,-6.22198,-28.8983,Q,Q
2023-03-15 12:05:27:631,0,1.93147,-6.22818,-28.9312,Q,Q
2023-03-15 12:05:27:641,0,1.92083,-6.2397,-28.9761,Q,Q
2023-03-15 12:05:27:651,0,1.91549,-6.24949,-29.0264,Q,Q
2023-03-15 12:05:27:660,0,1.91234,-6.25908,-29.0883,Q,Q
2023-03-15 12:05:27:671,0,1.91032,-6.26721,-29.1513,Q,Q
2023-03-15 12:05:27:680,0,1.90961,-6.2765,-29.218,Q,Q
2023-03-15 12:05:27:691,0,1.90945,-6.28633,-29.282,Q,Q
2023-03-15 12:05:27:701,0,1.91022,-6.29424,-29.3493,Q,Q
2023-03-15 12:05:27:711,0,1.91197,-6.30132,-29.4122,Q,Q
2023-03-15 12:05:27:720,0,1.91697,-6.30645,-29.4711,Q,Q
2023-03-15 12:05:27:731,0,1.9298,-6.30916,-29.5242,Q,Q
2023-03-15 12:05:27:740,0,1.93948,-6.31188,-29.5749,Q,Q
2023-03-15 12:05:27:751,0,1.94205,-6.30761,-29.6173,Q,Q
2023-03-15 12:05:27:760,0,1.94514,-6.30434,-29.6546,Q,Q
2023-03-15 12:05:27:771,0,1.94556,-6.29856,-29.6817,Q,Q
2023-03-15 12:05:27:781,0,1.94568,-6.2963,-29.6993,Q,Q
2023-03-15 12:05:27:790,0,1.94269,-6.29205,-29.709,Q,Q
2023-03-15 12:05:27:800,0,1.93919,-6.28935,-29.7109,Q,Q
2023-03-15 12:05:27:811,0,1.93453,-6.28914,-29.7027,Q,Q
2023-03-15 12:05:27:821,0,1.92466,-6.2918,-29.6853,Q,Q
2023-03-15 12:05:27:831,0,1.91282,-6.29756,-29.6657,Q,Q
2023-03-15 12:05:27:841,0,1.89956,-6.29901,-29.6402,Q,Q
2023-03-15 12:05:27:851,0,1.89007,-6.30305,-29.61,Q,Q
2023-03-15 12:05:27:861,0,1.88078,-6.31139,-29.5744,Q,Q
2023-03-15 12:05:27:871,0,1.87083,-6.32198,-29.5347,Q,Q
2023-03-15 12:05:27:881,0,1.85904,-6.33345,-29.4922,Q,Q
2023-03-15 12:05:27:891,0,1.84692,-6.34758,-29.4504,Q,Q
2023-03-15 12:05:27:901,0,1.83507,-6.36206,-29.4076,Q,Q
2023-03-15 12:05:27:910,0,1.82704,-6.37652,-29.3652,Q,Q
2023-03-15 12:05:27:921,0,1.8204,-6.38915,-29.3209,Q,Q
2023-03-15 12:05:27:931,0,1.80908,-6.40113,-29.2778,Q,Q
2023-03-15 12:05:27:941,0,1.80139,-6.41709,-29.2364,Q,Q
2023-03-15 12:05:27:951,0,1.79366,-6.43422,-29.1989,Q,Q
2023-03-15 12:05:27:961,0,1.7804,-6.45022,-29.1644,Q,Q
2023-03-15 12:05:27:971,0,1.76842,-6.46427,-29.134,Q,Q
2023-03-15 12:05:27:981,0,1.7522,-6.47486,-29.1039,Q,Q
2023-03-15 12:05:27:991,0,1.73968,-6.48933,-29.0782,Q,Q
2023-03-15 12:05:28:1,0,1.7251,-6.50276,-29.0552,Q,Q
2023-03-15 12:05:28:10,0,1.70798,-6.51535,-29.03,Q,Q
2023-03-15 12:05:28:20,0,1.6912,-6.53034,-29.0102,Q,Q
2023-03-15 12:05:28:30,0,1.67428,-6.54537,-28.9938,Q,Q
2023-03-15 12:05:28:40,0,1.65448,-6.55842,-28.9775,Q,Q
2023-03-15 12:05:28:50,0,1.6364,-6.57117,-28.965,Q,Q
2023-03-15 12:05:28:60,0,1.61994,-6.58366,-28.9514,Q,Q
2023-03-15 12:05:28:71,0,1.60788,-6.5925,-28.9382,Q,Q
2023-03-15 12:05:28:81,0,1.60041,-6.60958,-28.9264,Q,Q
2023-03-15 12:05:28:91,0,1.59764,-6.62321,-28.9159,Q,Q
2023-03-15 12:05:28:100,0,1.5987,-6.63424,-28.9041,Q,Q
2023-03-15 12:05:28:111,0,1.60283,-6.64114,-28.8946,Q,Q
2023-03-15 12:05:28:120,0,1.60795,-6.64539,-28.8813,Q,Q
2023-03-15 12:05:28:131,0,1.61192,-6.65078,-28.8667,Q,Q
2023-03-15 12:05:28:141,0,1.61418,-6.65805,-28.8476,Q,Q
2023-03-15 12:05:28:151,0,1.61803,-6.66439,-28.8281,Q,Q
2023-03-15 12:05:28:160,0,1.62614,-6.6701,-28.804,Q,Q
2023-03-15 12:05:28:171,0,1.63537,-6.68289,-28.7763,Q,Q
2023-03-15 12:05:28:181,0,1.64192,-6.69843,-28.7456,Q,Q
2023-03-15 12:05:28:191,0,1.64851,-6.71845,-28.7095,Q,Q
2023-03-15 12:05:28:201,0,1.65218,-6.73284,-28.6703,Q,Q
2023-03-15 12:05:28:211,0,1.65047,-6.74422,-28.6329,Q,Q
2023-03-15 12:05:28:221,0,1.64576,-6.76054,-28.5968,Q,Q
2023-03-15 12:05:28:231,0,1.63033,-6.76777,-28.5548,Q,Q
2023-03-15 12:05:28:240,0,1.61615,-6.77614,-28.5123,Q,Q
2023-03-15 12:05:28:251,0,1.60422,-6.78132,-28.4739,Q,Q
2023-03-15 12:05:28:261,0,1.5945,-6.78056,-28.4333,Q,Q
