Timestamp_cmd,imu_cmd,roll_delta,pitch_delta,yaw_delta,voice_type,voice_length
2023-03-14 22:37:11:692,0,-5.30399,-0.154031,1.85396,Q,Q
2023-03-14 22:37:11:701,0,-5.30295,-0.16488,1.84193,Q,Q
2023-03-14 22:37:11:711,0,-5.29991,-0.170008,1.8365,Q,Q
2023-03-14 22:37:11:721,0,-5.29571,-0.171684,1.83155,Q,Q
2023-03-14 22:37:11:731,0,-5.30095,-0.17382,1.83512,Q,Q
2023-03-14 22:37:11:741,0,-5.30602,-0.181016,1.841,Q,Q
2023-03-14 22:37:11:751,0,-5.31085,-0.18818,1.84537,Q,Q
2023-03-14 22:37:11:761,0,-5.31851,-0.19196,1.8484,Q,Q
2023-03-14 22:37:11:771,0,-5.32225,-0.194336,1.84619,Q,Q
2023-03-14 22:37:11:781,0,-5.32061,-0.192052,1.83659,Q,Q
2023-03-14 22:37:11:791,0,-5.32114,-0.187853,1.83022,Q,Q
2023-03-14 22:37:11:801,0,-5.31191,-0.184575,1.82137,Q,Q
2023-03-14 22:37:11:811,0,-5.30477,-0.183101,1.81076,Q,Q
2023-03-14 22:37:11:821,0,-5.29662,-0.181248,1.799,Q,Q
2023-03-14 22:37:11:831,0,-5.29016,-0.178416,1.78704,Q,Q
2023-03-14 22:37:11:841,0,-5.27978,-0.174195,1.77558,Q,Q
2023-03-14 22:37:11:851,0,-5.27303,-0.169682,1.76394,Q,Q
2023-03-14 22:37:11:861,0,-5.26709,-0.167009,1.75294,Q,Q
2023-03-14 22:37:11:871,0,-5.262,-0.164044,1.74136,Q,Q
2023-03-14 22:37:11:881,0,-5.26256,-0.158024,1.72749,Q,Q
2023-03-14 22:37:11:891,0,-5.26232,-0.146909,1.71047,Q,Q
2023-03-14 22:37:11:901,0,-5.25383,-0.132308,1.69085,Q,Q
2023-03-14 22:37:11:911,0,-5.24409,-0.115498,1.66552,Q,Q
2023-03-14 22:37:11:921,0,-5.23219,-0.0978961,1.63778,Q,Q
2023-03-14 22:37:11:931,0,-5.22335,-0.074551,1.60808,Q,Q
2023-03-14 22:37:11:941,0,-5.21885,-0.050211,1.58375,Q,Q
2023-03-14 22:37:11:951,0,-5.2146,-0.0304531,1.56073,Q,Q
2023-03-14 22:37:11:961,0,-5.21281,-0.0133414,1.54342,Q,Q
2023-03-14 22:37:11:971,0,-5.21473,0.00360885,1.52673,Q,Q
2023-03-14 22:37:11:981,0,-5.22153,0.0235509,1.51364,Q,Q
2023-03-14 22:37:11:991,0,-5.22121,0.0399017,1.49519,Q,Q
2023-03-14 22:37:12:1,0,-5.22168,0.0581844,1.48318,Q,Q
2023-03-14 22:37:12:11,0,-5.22307,0.0702814,1.4709,Q,Q
2023-03-14 22:37:12:21,0,-5.2266,0.0818889,1.46611,Q,Q
2023-03-14 22:37:12:31,0,-5.23719,0.0928519,1.45627,Q,Q
2023-03-14 22:37:12:41,0,-5.24577,0.103734,1.45106,Q,Q
2023-03-14 22:37:12:51,0,-5.25656,0.112719,1.44523,Q,Q
2023-03-14 22:37:12:61,0,-5.26964,0.114677,1.43786,Q,Q
2023-03-14 22:37:12:71,0,-5.27717,0.112821,1.42725,Q,Q
2023-03-14 22:37:12:81,0,-5.27915,0.104317,1.4169,Q,Q
2023-03-14 22:37:12:91,0,-5.26922,0.0929546,1.39995,Q,Q
2023-03-14 22:37:12:101,0,-5.25843,0.0803025,1.3783,Q,Q
2023-03-14 22:37:12:111,0,-5.24351,0.0672341,1.35657,Q,Q
2023-03-14 22:37:12:121,0,-5.22267,0.0566783,1.33409,Q,Q
2023-03-14 22:37:12:131,0,-5.20513,0.0495216,1.31629,Q,Q
2023-03-14 22:37:12:141,0,-5.19242,0.0393906,1.29903,Q,Q
2023-03-14 22:37:12:151,0,-5.18622,0.0263701,1.28794,Q,Q
2023-03-14 22:37:12:161,0,-5.18312,0.00740438,1.28322,Q,Q
2023-03-14 22:37:12:171,0,-5.17884,-0.00641878,1.27646,Q,Q
2023-03-14 22:37:12:181,0,-5.16764,-0.0211184,1.27117,Q,Q
2023-03-14 22:37:12:191,0,-5.15532,-0.0347042,1.26995,Q,Q
2023-03-14 22:37:12:201,0,-5.14631,-0.0481285,1.26985,Q,Q
2023-03-14 22:37:12:211,0,-5.13986,-0.0614509,1.27576,Q,Q
2023-03-14 22:37:12:221,0,-5.13344,-0.0726013,1.27756,Q,Q
2023-03-14 22:37:12:231,0,-5.12962,-0.0827059,1.28006,Q,Q
2023-03-14 22:37:12:241,0,-5.12221,-0.0921906,1.2816,Q,Q
2023-03-14 22:37:12:251,0,-5.11375,-0.0987037,1.28131,Q,Q
2023-03-14 22:37:12:261,0,-5.11493,-0.102443,1.27342,Q,Q
2023-03-14 22:37:12:271,0,-5.112,-0.104894,1.2663,Q,Q
2023-03-14 22:37:12:281,0,-5.11875,-0.103508,1.25816,Q,Q
2023-03-14 22:37:12:291,0,-5.1231,-0.0986551,1.24674,Q,Q
2023-03-14 22:37:12:301,0,-5.12628,-0.0944273,1.23435,Q,Q
2023-03-14 22:37:12:311,0,-5.13401,-0.0857401,1.2202,Q,Q
2023-03-14 22:37:12:321,0,-5.14252,-0.0756269,1.20606,Q,Q
2023-03-14 22:37:12:331,0,-5.15184,-0.0665458,1.19268,Q,Q
2023-03-14 22:37:12:341,0,-5.15763,-0.059376,1.18128,Q,Q
2023-03-14 22:37:12:351,0,-5.16399,-0.0500958,1.17263,Q,Q
2023-03-14 22:37:12:361,0,-5.17318,-0.0392715,1.1643,Q,Q
2023-03-14 22:37:12:371,0,-5.17833,-0.0322331,1.1535,Q,Q
2023-03-14 22:37:12:381,0,-5.17991,-0.0189394,1.14344,Q,Q
2023-03-14 22:37:12:391,0,-5.18319,-0.00604528,1.13419,Q,Q
2023-03-14 22:37:12:401,0,-5.19615,0.00742911,1.12537,Q,Q
2023-03-14 22:37:12:411,0,-5.21119,0.0215421,1.11823,Q,Q
2023-03-14 22:37:12:421,0,-5.2241,0.0375385,1.11073,Q,Q
2023-03-14 22:37:12:431,0,-5.2278,0.0523658,1.10116,Q,Q
2023-03-14 22:37:12:441,0,-5.23207,0.0690356,1.09541,Q,Q
2023-03-14 22:37:12:451,0,-5.2342,0.083946,1.09371,Q,Q
2023-03-14 22:37:12:461,0,-5.24165,0.0965385,1.09433,Q,Q
2023-03-14 22:37:12:471,0,-5.23934,0.107437,1.09296,Q,Q
2023-03-14 22:37:12:481,0,-5.22878,0.119712,1.08888,Q,Q
2023-03-14 22:37:12:491,0,-5.21652,0.131714,1.08209,Q,Q
2023-03-14 22:37:12:501,0,-5.20717,0.142507,1.07322,Q,Q
2023-03-14 22:37:12:511,0,-5.20138,0.160252,1.06126,Q,Q
2023-03-14 22:37:12:521,0,-5.21441,0.173469,1.04578,Q,Q
2023-03-14 22:37:12:531,0,-5.23236,0.18289,1.01656,Q,Q
2023-03-14 22:37:12:541,0,-5.25339,0.180778,0.986431,Q,Q
2023-03-14 22:37:12:551,0,-5.27947,0.168226,0.954811,Q,Q
2023-03-14 22:37:12:561,0,-5.30765,0.151045,0.926682,Q,Q
2023-03-14 22:37:12:571,0,-5.33457,0.128662,0.90084,Q,Q
2023-03-14 22:37:12:581,0,-5.35438,0.106662,0.873258,Q,Q
2023-03-14 22:37:12:591,0,-5.36192,0.0937863,0.845868,Q,Q
2023-03-14 22:37:12:601,0,-5.35436,0.0910557,0.81871,Q,Q
2023-03-14 22:37:12:611,0,-5.32239,0.0897256,0.797319,Q,Q
2023-03-14 22:37:12:621,0,-5.27479,0.0882458,0.787049,Q,Q
2023-03-14 22:37:12:631,0,-5.22514,0.0905863,0.783874,Q,Q
2023-03-14 22:37:12:641,0,-5.18825,0.0957536,0.779043,Q,Q
2023-03-14 22:37:12:651,0,-5.15758,0.0992937,0.77464,Q,Q
2023-03-14 22:37:12:661,0,-5.13235,0.0998902,0.765131,Q,Q
2023-03-14 22:37:12:671,0,-5.10543,0.100821,0.757632,Q,Q
2023-03-14 22:37:12:681,0,-5.07779,0.0976519,0.755082,Q,Q
2023-03-14 22:37:12:691,0,-5.0478,0.0953739,0.757249,Q,Q
2023-03-14 22:37:12:701,0,-5.01427,0.0964192,0.756301,Q,Q
2023-03-14 22:37:12:711,0,-4.98332,0.0984251,0.757604,Q,Q
2023-03-14 22:37:12:721,0,-4.9548,0.0984112,0.761314,Q,Q
2023-03-14 22:37:12:731,0,-4.9285,0.096202,0.766327,Q,Q
2023-03-14 22:37:12:741,0,-4.90357,0.091932,0.76648,Q,Q
2023-03-14 22:37:12:751,0,-4.87748,0.0860951,0.766318,Q,Q
2023-03-14 22:37:12:761,0,-4.84319,0.0842729,0.766004,Q,Q
2023-03-14 22:37:12:771,0,-4.81485,0.0789101,0.765029,Q,Q
2023-03-14 22:37:12:781,0,-4.7919,0.076874,0.761188,Q,Q
2023-03-14 22:37:12:791,0,-4.77534,0.07295,0.753357,Q,Q
2023-03-14 22:37:12:801,0,-4.75792,0.068489,0.74234,Q,Q
2023-03-14 22:37:12:811,0,-4.74016,0.0639122,0.731737,Q,Q
2023-03-14 22:37:12:821,0,-4.71903,0.0569955,0.719003,Q,Q
2023-03-14 22:37:12:831,0,-4.70341,0.0470785,0.704286,Q,Q
2023-03-14 22:37:12:841,0,-4.69072,0.0374624,0.685657,Q,Q
2023-03-14 22:37:12:851,0,-4.68856,0.02857,0.666371,Q,Q
2023-03-14 22:37:12:861,0,-4.70414,0.0144019,0.644171,Q,Q
2023-03-14 22:37:12:871,0,-4.72535,0.000277552,0.614162,Q,Q
2023-03-14 22:37:12:881,0,-4.73172,-0.0103254,0.579042,Q,Q
2023-03-14 22:37:12:891,0,-4.72537,-0.0180871,0.545558,Q,Q
2023-03-14 22:37:12:901,0,-4.70841,-0.0196669,0.514928,Q,Q
2023-03-14 22:37:12:911,0,-4.69808,-0.0154978,0.490825,Q,Q
2023-03-14 22:37:12:921,0,-4.70451,-0.0135122,0.468016,Q,Q
2023-03-14 22:37:12:931,0,-4.71408,-0.0140991,0.445888,Q,Q
2023-03-14 22:37:12:941,0,-4.71826,-0.0184419,0.422185,Q,Q
2023-03-14 22:37:12:951,0,-4.71064,-0.0228861,0.400436,Q,Q
2023-03-14 22:37:12:961,0,-4.69599,-0.0239659,0.381133,Q,Q
2023-03-14 22:37:12:971,0,-4.69081,-0.0200396,0.369491,Q,Q
2023-03-14 22:37:12:981,0,-4.69465,-0.0172773,0.358369,Q,Q
2023-03-14 22:37:12:991,0,-4.70855,-0.0164017,0.345801,Q,Q
2023-03-14 22:37:13:1,0,-4.71717,-0.0109963,0.338033,Q,Q
2023-03-14 22:37:13:11,0,-4.72029,-0.000785137,0.332041,Q,Q
2023-03-14 22:37:13:21,0,-4.72778,0.00698413,0.340632,Q,Q
2023-03-14 22:37:13:31,0,-4.74192,0.0173328,0.353317,Q,Q
2023-03-14 22:37:13:41,0,-4.75727,0.0220086,0.373458,Q,Q
2023-03-14 22:37:13:51,0,-4.77429,0.0244867,0.388124,Q,Q
2023-03-14 22:37:13:61,0,-4.79062,0.0279432,0.403948,Q,Q
2023-03-14 22:37:13:71,0,-4.81158,0.0276181,0.416327,Q,Q
2023-03-14 22:37:13:81,0,-4.82849,0.0243962,0.423777,Q,Q
2023-03-14 22:37:13:91,0,-4.83889,0.0157665,0.427274,Q,Q
2023-03-14 22:37:13:101,0,-4.84099,0.00982198,0.424038,Q,Q
2023-03-14 22:37:13:111,0,-4.83649,0.00716071,0.418036,Q,Q
2023-03-14 22:37:13:121,0,-4.83314,0.00415007,0.407994,Q,Q
2023-03-14 22:37:13:131,0,-4.82943,0.00318915,0.389228,Q,Q
2023-03-14 22:37:13:141,0,-4.8316,0.00237769,0.364077,Q,Q
2023-03-14 22:37:13:151,0,-4.83558,0.00313066,0.334169,Q,Q
2023-03-14 22:37:13:161,0,-4.84221,0.00501063,0.302935,Q,Q
2023-03-14 22:37:13:171,0,-4.84771,0.00644977,0.274281,Q,Q
2023-03-14 22:37:13:181,0,-4.85492,0.0136496,0.243426,Q,Q
2023-03-14 22:37:13:191,0,-4.86111,0.016213,0.217961,Q,Q
2023-03-14 22:37:13:201,0,-4.86227,0.0184392,0.196806,Q,Q
2023-03-14 22:37:13:211,0,-4.86035,0.0190684,0.181599,Q,Q
2023-03-14 22:37:13:221,0,-4.85274,0.0222929,0.174359,Q,Q
2023-03-14 22:37:13:231,0,-4.84472,0.0229326,0.1684,Q,Q
2023-03-14 22:37:13:241,0,-4.84209,0.0265255,0.162428,Q,Q
2023-03-14 22:37:13:251,0,-4.83999,0.0271995,0.160872,Q,Q
2023-03-14 22:37:13:261,0,-4.84301,0.0266635,0.16284,Q,Q
2023-03-14 22:37:13:271,0,-4.84207,0.0237829,0.164211,Q,Q
2023-03-14 22:37:13:281,0,-4.84226,0.0202938,0.163549,Q,Q
2023-03-14 22:37:13:291,0,-4.84295,0.0091814,0.163192,Q,Q
2023-03-14 22:37:13:301,0,-4.83898,0.00297542,0.160477,Q,Q
2023-03-14 22:37:13:311,0,-4.83454,-0.00445355,0.155674,Q,Q
2023-03-14 22:37:13:321,0,-4.82934,-0.0137282,0.145748,Q,Q
2023-03-14 22:37:13:331,0,-4.82448,-0.0186992,0.134856,Q,Q
2023-03-14 22:37:13:341,0,-4.82557,-0.0233007,0.122942,Q,Q
2023-03-14 22:37:13:351,0,-4.83009,-0.0329235,0.105905,Q,Q
2023-03-14 22:37:13:361,0,-4.83647,-0.0393386,0.0812968,Q,Q
2023-03-14 22:37:13:371,0,-4.83874,-0.0476916,0.0546955,Q,Q
2023-03-14 22:37:13:381,0,-4.84467,-0.0593142,0.0246833,Q,Q
2023-03-14 22:37:13:391,0,-4.84601,-0.0720839,-0.00227802,Q,Q
2023-03-14 22:37:13:401,0,-4.85235,-0.0835035,-0.0301258,Q,Q
2023-03-14 22:37:13:411,0,-4.86232,-0.0892847,-0.0572307,Q,Q
2023-03-14 22:37:13:421,0,-4.87602,-0.0936719,-0.0843549,Q,Q
2023-03-14 22:37:13:431,0,-4.8878,-0.0969313,-0.110146,Q,Q
2023-03-14 22:37:13:441,0,-4.89687,-0.100339,-0.133489,Q,Q
2023-03-14 22:37:13:451,0,-4.90936,-0.0984915,-0.155665,Q,Q
2023-03-14 22:37:13:461,0,-4.91946,-0.096351,-0.176073,Q,Q
2023-03-14 22:37:13:471,0,-4.92178,-0.0958374,-0.194796,Q,Q
2023-03-14 22:37:13:481,0,-4.92013,-0.0940285,-0.213157,Q,Q
2023-03-14 22:37:13:491,0,-4.92013,-0.0910221,-0.229138,Q,Q
2023-03-14 22:37:13:501,0,-4.92526,-0.085832,-0.244462,Q,Q
2023-03-14 22:37:13:511,0,-4.93001,-0.0849563,-0.256383,Q,Q
2023-03-14 22:37:13:521,0,-4.93469,-0.0832026,-0.266424,Q,Q
2023-03-14 22:37:13:531,0,-4.94029,-0.083162,-0.272234,Q,Q
2023-03-14 22:37:13:541,0,-4.9486,-0.0851366,-0.283598,Q,Q
2023-03-14 22:37:13:551,0,-4.95611,-0.081387,-0.295121,Q,Q
2023-03-14 22:37:13:561,0,-4.96634,-0.0792212,-0.309059,Q,Q
2023-03-14 22:37:13:571,0,-4.97684,-0.0755646,-0.322301,Q,Q
2023-03-14 22:37:13:581,0,-4.98776,-0.0715489,-0.333042,Q,Q
2023-03-14 22:37:13:591,0,-5.00018,-0.073216,-0.345091,Q,Q
2023-03-14 22:37:13:601,0,-5.01508,-0.070569,-0.356926,Q,Q
2023-03-14 22:37:13:611,0,-5.03141,-0.0671689,-0.371654,Q,Q
2023-03-14 22:37:13:621,0,-5.0409,-0.0659487,-0.389688,Q,Q
2023-03-14 22:37:13:631,0,-5.04783,-0.0687802,-0.405545,Q,Q
2023-03-14 22:37:13:641,0,-5.04599,-0.0732002,-0.416898,Q,Q
2023-03-14 22:37:13:651,0,-5.04626,-0.0741915,-0.428402,Q,Q
2023-03-14 22:37:13:661,0,-5.04415,-0.0729782,-0.439294,Q,Q
2023-03-14 22:37:13:671,0,-5.04607,-0.0733253,-0.448865,Q,Q
2023-03-14 22:37:13:681,0,-5.04938,-0.0752338,-0.457358,Q,Q
2023-03-14 22:37:13:691,0,-5.05439,-0.0745915,-0.46528,Q,Q
2023-03-14 22:37:13:701,0,-5.05664,-0.0781562,-0.47833,Q,Q
2023-03-14 22:37:13:711,0,-5.06095,-0.079196,-0.493082,Q,Q
2023-03-14 22:37:13:721,0,-5.06701,-0.084436,-0.508056,Q,Q
2023-03-14 22:37:13:731,0,-5.06543,-0.0923972,-0.525378,Q,Q
2023-03-14 22:37:13:741,0,-5.06186,-0.09656,-0.545476,Q,Q
2023-03-14 22:37:13:751,0,-5.05228,-0.108036,-0.569962,Q,Q
2023-03-14 22:37:13:761,0,-5.03887,-0.118233,-0.601224,Q,Q
2023-03-14 22:37:13:771,0,-5.03156,-0.128191,-0.631348,Q,Q
2023-03-14 22:37:13:781,0,-5.01549,-0.139863,-0.662302,Q,Q
2023-03-14 22:37:13:791,0,-5.00128,-0.154851,-0.694522,Q,Q
2023-03-14 22:37:13:801,0,-4.9881,-0.169608,-0.723785,Q,Q
2023-03-14 22:37:13:811,0,-4.97389,-0.185219,-0.750529,Q,Q
2023-03-14 22:37:13:821,0,-4.96442,-0.202198,-0.770554,Q,Q
2023-03-14 22:37:13:831,0,-4.95141,-0.218395,-0.786551,Q,Q
2023-03-14 22:37:13:841,0,-4.94076,-0.234834,-0.800075,Q,Q
2023-03-14 22:37:13:851,0,-4.9277,-0.24636,-0.811296,Q,Q
2023-03-14 22:37:13:861,0,-4.91301,-0.257085,-0.820949,Q,Q
2023-03-14 22:37:13:871,0,-4.89762,-0.265371,-0.823733,Q,Q
2023-03-14 22:37:13:881,0,-4.88806,-0.270635,-0.825223,Q,Q
2023-03-14 22:37:13:891,0,-4.87973,-0.275865,-0.823085,Q,Q
2023-03-14 22:37:13:901,0,-4.87534,-0.27907,-0.822377,Q,Q
2023-03-14 22:37:13:911,0,-4.87339,-0.279173,-0.821725,Q,Q
2023-03-14 22:37:13:921,0,-4.875,-0.281204,-0.821748,Q,Q
2023-03-14 22:37:13:931,0,-4.87523,-0.280892,-0.822751,Q,Q
2023-03-14 22:37:13:941,0,-4.87335,-0.281718,-0.823058,Q,Q
2023-03-14 22:37:13:951,0,-4.87655,-0.282453,-0.828428,Q,Q
2023-03-14 22:37:13:961,0,-4.87403,-0.281937,-0.830159,Q,Q
2023-03-14 22:37:13:971,0,-4.87256,-0.281976,-0.832182,Q,Q
2023-03-14 22:37:13:981,0,-4.87767,-0.28181,-0.836767,Q,Q
2023-03-14 22:37:13:991,0,-4.88468,-0.279665,-0.836994,Q,Q
2023-03-14 22:37:14:1,0,-4.89655,-0.280196,-0.83705,Q,Q
2023-03-14 22:37:14:11,0,-4.91024,-0.280569,-0.840247,Q,Q
2023-03-14 22:37:14:21,0,-4.92169,-0.281384,-0.84341,Q,Q
2023-03-14 22:37:14:31,0,-4.93171,-0.281495,-0.850861,Q,Q
2023-03-14 22:37:14:41,0,-4.93474,-0.284243,-0.858548,Q,Q
2023-03-14 22:37:14:51,0,-4.93713,-0.284625,-0.876581,Q,Q
2023-03-14 22:37:14:61,0,-4.93788,-0.278819,-0.898326,Q,Q
2023-03-14 22:37:14:71,0,-4.93635,-0.267976,-0.921975,Q,Q
2023-03-14 22:37:14:81,0,-4.93388,-0.252376,-0.947975,Q,Q
2023-03-14 22:37:14:91,0,-4.93712,-0.238096,-0.974895,Q,Q
2023-03-14 22:37:14:101,0,-4.9412,-0.220638,-0.99903,Q,Q
2023-03-14 22:37:14:111,0,-4.94748,-0.207831,-1.01984,Q,Q
2023-03-14 22:37:14:121,0,-4.95283,-0.197191,-1.03478,Q,Q
2023-03-14 22:37:14:131,0,-4.95782,-0.187293,-1.0538,Q,Q
2023-03-14 22:37:14:141,0,-4.95669,-0.176452,-1.06881,Q,Q
2023-03-14 22:37:14:151,0,-4.95502,-0.164777,-1.08234,Q,Q
2023-03-14 22:37:14:161,0,-4.95213,-0.154164,-1.09259,Q,Q
2023-03-14 22:37:14:171,0,-4.9487,-0.143531,-1.09856,Q,Q
2023-03-14 22:37:14:181,0,-4.94187,-0.137796,-1.10353,Q,Q
2023-03-14 22:37:14:191,0,-4.93529,-0.130881,-1.10321,Q,Q
2023-03-14 22:37:14:201,0,-4.93403,-0.122777,-1.10467,Q,Q
2023-03-14 22:37:14:211,0,-4.92707,-0.116036,-1.10882,Q,Q
2023-03-14 22:37:14:221,0,-4.92478,-0.112675,-1.10981,Q,Q
2023-03-14 22:37:14:231,0,-4.92089,-0.116263,-1.10623,Q,Q
2023-03-14 22:37:14:241,0,-4.92131,-0.122284,-1.10508,Q,Q
2023-03-14 22:37:14:251,0,-4.92061,-0.130331,-1.10656,Q,Q
2023-03-14 22:37:14:261,0,-4.91667,-0.141075,-1.10702,Q,Q
2023-03-14 22:37:14:271,0,-4.91114,-0.14768,-1.11372,Q,Q
2023-03-14 22:37:14:281,0,-4.89908,-0.150937,-1.11617,Q,Q
2023-03-14 22:37:14:291,0,-4.88434,-0.149372,-1.11852,Q,Q
2023-03-14 22:37:14:301,0,-4.86601,-0.142339,-1.12195,Q,Q
2023-03-14 22:37:14:311,0,-4.84957,-0.135962,-1.11959,Q,Q
2023-03-14 22:37:14:321,0,-4.8352,-0.132113,-1.11719,Q,Q
2023-03-14 22:37:14:331,0,-4.82554,-0.129234,-1.1149,Q,Q
2023-03-14 22:37:14:341,0,-4.82337,-0.123732,-1.11389,Q,Q
2023-03-14 22:37:14:351,0,-4.82045,-0.122835,-1.11499,Q,Q
2023-03-14 22:37:14:361,0,-4.81545,-0.123695,-1.12144,Q,Q
2023-03-14 22:37:14:371,0,-4.81223,-0.118554,-1.12907,Q,Q
2023-03-14 22:37:14:381,0,-4.80837,-0.116783,-1.13661,Q,Q
2023-03-14 22:37:14:391,0,-4.80831,-0.113391,-1.14404,Q,Q
2023-03-14 22:37:14:401,0,-4.80933,-0.109574,-1.15319,Q,Q
2023-03-14 22:37:14:411,0,-4.81057,-0.105412,-1.16236,Q,Q
2023-03-14 22:37:14:421,0,-4.81676,-0.105211,-1.16878,Q,Q
2023-03-14 22:37:14:431,0,-4.82466,-0.106452,-1.17386,Q,Q
2023-03-14 22:37:14:441,0,-4.83297,-0.111151,-1.17904,Q,Q
2023-03-14 22:37:14:451,0,-4.8407,-0.110865,-1.18565,Q,Q
2023-03-14 22:37:14:461,0,-4.83944,-0.111872,-1.1926,Q,Q
2023-03-14 22:37:14:471,0,-4.83411,-0.109145,-1.19943,Q,Q
2023-03-14 22:37:14:481,0,-4.8237,-0.110878,-1.20141,Q,Q
2023-03-14 22:37:14:491,0,-4.81703,-0.112012,-1.20382,Q,Q
2023-03-14 22:37:14:501,0,-4.81045,-0.116578,-1.20441,Q,Q
2023-03-14 22:37:14:511,0,-4.80835,-0.112122,-1.20846,Q,Q
2023-03-14 22:37:14:521,0,-4.8061,-0.110319,-1.21139,Q,Q
2023-03-14 22:37:14:531,0,-4.80462,-0.111211,-1.21483,Q,Q
2023-03-14 22:37:14:541,0,-4.80337,-0.112016,-1.21851,Q,Q
2023-03-14 22:37:14:551,0,-4.80261,-0.116461,-1.22124,Q,Q
2023-03-14 22:37:14:561,0,-4.80145,-0.124029,-1.22888,Q,Q
2023-03-14 22:37:14:571,0,-4.79604,-0.130332,-1.23973,Q,Q
2023-03-14 22:37:14:581,0,-4.78901,-0.132485,-1.25141,Q,Q
2023-03-14 22:37:14:591,0,-4.78124,-0.136837,-1.26473,Q,Q
2023-03-14 22:37:14:601,0,-4.7698,-0.14311,-1.27594,Q,Q
2023-03-14 22:37:14:611,0,-4.76299,-0.150899,-1.28211,Q,Q
2023-03-14 22:37:14:621,0,-4.75376,-0.163698,-1.28979,Q,Q
2023-03-14 22:37:14:631,0,-4.74813,-0.176978,-1.29172,Q,Q
2023-03-14 22:37:14:641,0,-4.73984,-0.186074,-1.29367,Q,Q
2023-03-14 22:37:14:651,0,-4.73402,-0.198352,-1.28962,Q,Q
2023-03-14 22:37:14:661,0,-4.73063,-0.207423,-1.28247,Q,Q
2023-03-14 22:37:14:671,0,-4.72782,-0.216998,-1.27567,Q,Q
2023-03-14 22:37:14:681,0,-4.72982,-0.223748,-1.27488,Q,Q
2023-03-14 22:37:14:691,0,-4.72921,-0.237644,-1.27547,Q,Q
2023-03-14 22:37:14:701,0,-4.72915,-0.248058,-1.28059,Q,Q
2023-03-14 22:37:14:711,0,-4.72663,-0.256961,-1.28723,Q,Q
2023-03-14 22:37:14:721,0,-4.72363,-0.266091,-1.29628,Q,Q
2023-03-14 22:37:14:731,0,-4.72006,-0.27023,-1.30895,Q,Q
2023-03-14 22:37:14:741,0,-4.71271,-0.274745,-1.32225,Q,Q
2023-03-14 22:37:14:751,0,-4.70386,-0.278138,-1.33127,Q,Q
2023-03-14 22:37:14:761,0,-4.69492,-0.276748,-1.34234,Q,Q
2023-03-14 22:37:14:771,0,-4.68424,-0.277414,-1.3537,Q,Q
2023-03-14 22:37:14:781,0,-4.67649,-0.280323,-1.36467,Q,Q
2023-03-14 22:37:14:791,0,-4.67203,-0.27701,-1.3763,Q,Q
2023-03-14 22:37:14:801,0,-4.6638,-0.276281,-1.39042,Q,Q
2023-03-14 22:37:14:811,0,-4.6586,-0.275871,-1.39922,Q,Q
2023-03-14 22:37:14:821,0,-4.65015,-0.27329,-1.41043,Q,Q
2023-03-14 22:37:14:831,0,-4.64386,-0.271509,-1.42145,Q,Q
2023-03-14 22:37:14:841,0,-4.63386,-0.26806,-1.43118,Q,Q
2023-03-14 22:37:14:851,0,-4.62435,-0.261793,-1.44108,Q,Q
2023-03-14 22:37:14:861,0,-4.61325,-0.253918,-1.45171,Q,Q
2023-03-14 22:37:14:871,0,-4.60211,-0.248105,-1.46179,Q,Q
2023-03-14 22:37:14:881,0,-4.59156,-0.24058,-1.47188,Q,Q
2023-03-14 22:37:14:891,0,-4.58637,-0.231777,-1.48327,Q,Q
2023-03-14 22:37:14:901,0,-4.58424,-0.225493,-1.4894,Q,Q
2023-03-14 22:37:14:911,0,-4.58387,-0.216174,-1.49916,Q,Q
2023-03-14 22:37:14:921,0,-4.58384,-0.208756,-1.50903,Q,Q
2023-03-14 22:37:14:931,0,-4.5778,-0.198553,-1.51882,Q,Q
2023-03-14 22:37:14:941,0,-4.57714,-0.187563,-1.52558,Q,Q
2023-03-14 22:37:14:951,0,-4.57417,-0.177075,-1.52948,Q,Q
2023-03-14 22:37:14:961,0,-4.57348,-0.169267,-1.5346,Q,Q
2023-03-14 22:37:14:971,0,-4.57304,-0.166315,-1.53788,Q,Q
2023-03-14 22:37:14:981,0,-4.57481,-0.16199,-1.54237,Q,Q
2023-03-14 22:37:14:991,0,-4.57767,-0.161033,-1.54824,Q,Q
2023-03-14 22:37:15:1,0,-4.57444,-0.159504,-1.55232,Q,Q
2023-03-14 22:37:15:11,0,-4.57517,-0.157011,-1.55837,Q,Q
2023-03-14 22:37:15:21,0,-4.58007,-0.159238,-1.56554,Q,Q
2023-03-14 22:37:15:31,0,-4.58401,-0.158033,-1.5713,Q,Q
2023-03-14 22:37:15:41,0,-4.5892,-0.155911,-1.5752,Q,Q
2023-03-14 22:37:15:51,0,-4.59033,-0.151958,-1.5824,Q,Q
2023-03-14 22:37:15:61,0,-4.58719,-0.153214,-1.58684,Q,Q
2023-03-14 22:37:15:71,0,-4.58303,-0.153288,-1.59024,Q,Q
2023-03-14 22:37:15:81,0,-4.5773,-0.150962,-1.59213,Q,Q
2023-03-14 22:37:15:91,0,-4.57485,-0.151009,-1.59626,Q,Q
2023-03-14 22:37:15:101,0,-4.57335,-0.151897,-1.6006,Q,Q
2023-03-14 22:37:15:111,0,-4.56924,-0.155779,-1.60178,Q,Q
2023-03-14 22:37:15:121,0,-4.5639,-0.161525,-1.60145,Q,Q
2023-03-14 22:37:15:131,0,-4.56252,-0.169117,-1.59625,Q,Q
2023-03-14 22:37:15:141,0,-4.56769,-0.175659,-1.59697,Q,Q
2023-03-14 22:37:15:151,0,-4.57008,-0.179917,-1.59595,Q,Q
2023-03-14 22:37:15:161,0,-4.57193,-0.181775,-1.59821,Q,Q
2023-03-14 22:37:15:171,0,-4.57067,-0.179091,-1.59835,Q,Q
2023-03-14 22:37:15:181,0,-4.5718,-0.178714,-1.59965,Q,Q
2023-03-14 22:37:15:191,0,-4.56763,-0.182447,-1.60131,Q,Q
2023-03-14 22:37:15:201,0,-4.56241,-0.186956,-1.60917,Q,Q
2023-03-14 22:37:15:211,0,-4.5556,-0.189992,-1.61743,Q,Q
2023-03-14 22:37:15:221,0,-4.54666,-0.188858,-1.6221,Q,Q
2023-03-14 22:37:15:231,0,-4.54005,-0.188765,-1.63024,Q,Q
2023-03-14 22:37:15:241,0,-4.53721,-0.186039,-1.63764,Q,Q
2023-03-14 22:37:15:251,0,-4.53789,-0.181758,-1.64041,Q,Q
2023-03-14 22:37:15:261,0,-4.54409,-0.175222,-1.64895,Q,Q
2023-03-14 22:37:15:271,0,-4.54971,-0.166531,-1.65581,Q,Q
2023-03-14 22:37:15:281,0,-4.55533,-0.15392,-1.66609,Q,Q
2023-03-14 22:37:15:291,0,-4.56173,-0.144109,-1.67942,Q,Q
2023-03-14 22:37:15:301,0,-4.56911,-0.135582,-1.69149,Q,Q
2023-03-14 22:37:15:311,0,-4.57583,-0.123809,-1.70537,Q,Q
2023-03-14 22:37:15:321,0,-4.58054,-0.108598,-1.71639,Q,Q
2023-03-14 22:37:15:331,0,-4.58448,-0.099689,-1.73435,Q,Q
2023-03-14 22:37:15:341,0,-4.58419,-0.0905749,-1.75264,Q,Q
2023-03-14 22:37:15:351,0,-4.5868,-0.0824639,-1.77282,Q,Q
2023-03-14 22:37:15:361,0,-4.58798,-0.0713817,-1.79484,Q,Q
2023-03-14 22:37:15:371,0,-4.58688,-0.0615266,-1.81594,Q,Q
2023-03-14 22:37:15:381,0,-4.58644,-0.0559591,-1.833,Q,Q
2023-03-14 22:37:15:391,0,-4.59555,-0.051787,-1.84959,Q,Q
2023-03-14 22:37:15:401,0,-4.6086,-0.0511613,-1.86487,Q,Q
2023-03-14 22:37:15:411,0,-4.61957,-0.0468535,-1.88136,Q,Q
2023-03-14 22:37:15:421,0,-4.63171,-0.0452749,-1.89657,Q,Q
2023-03-14 22:37:15:431,0,-4.64109,-0.0384567,-1.91113,Q,Q
2023-03-14 22:37:15:441,0,-4.64802,-0.0336033,-1.93,Q,Q
2023-03-14 22:37:15:451,0,-4.65049,-0.029286,-1.94467,Q,Q
2023-03-14 22:37:15:461,0,-4.64955,-0.0236995,-1.95932,Q,Q
2023-03-14 22:37:15:471,0,-4.64402,-0.0197853,-1.96805,Q,Q
2023-03-14 22:37:15:481,0,-4.64059,-0.015329,-1.97537,Q,Q
2023-03-14 22:37:15:491,0,-4.634,-0.0112627,-1.98035,Q,Q
2023-03-14 22:37:15:501,0,-4.62467,-0.0110154,-1.97938,Q,Q
2023-03-14 22:37:15:511,0,-4.61386,-0.0108783,-1.97678,Q,Q
2023-03-14 22:37:15:521,0,-4.60618,-0.0086021,-1.96972,Q,Q
2023-03-14 22:37:15:531,0,-4.60126,-0.0142356,-1.95995,Q,Q
2023-03-14 22:37:15:541,0,-4.59832,-0.0207129,-1.94846,Q,Q
2023-03-14 22:37:15:551,0,-4.5998,-0.0262312,-1.93636,Q,Q
2023-03-14 22:37:15:561,0,-4.60021,-0.0328969,-1.9241,Q,Q
2023-03-14 22:37:15:571,0,-4.60238,-0.0358733,-1.91342,Q,Q
2023-03-14 22:37:15:581,0,-4.60191,-0.0391859,-1.90666,Q,Q
2023-03-14 22:37:15:591,0,-4.60616,-0.0429832,-1.89829,Q,Q
2023-03-14 22:37:15:601,0,-4.61221,-0.0423799,-1.89161,Q,Q
2023-03-14 22:37:15:611,0,-4.6172,-0.0424743,-1.8885,Q,Q
2023-03-14 22:37:15:621,0,-4.62622,-0.0372181,-1.89018,Q,Q
2023-03-14 22:37:15:631,0,-4.63357,-0.0307061,-1.88692,Q,Q
2023-03-14 22:37:15:641,0,-4.64408,-0.0221642,-1.88802,Q,Q
2023-03-14 22:37:15:651,0,-4.65516,-0.0193853,-1.88585,Q,Q
2023-03-14 22:37:15:661,0,-4.65829,-0.0142779,-1.88841,Q,Q
2023-03-14 22:37:15:671,0,-4.65998,-0.010305,-1.89198,Q,Q
2023-03-14 22:37:15:681,0,-4.65996,-0.00990862,-1.89541,Q,Q
2023-03-14 22:37:15:691,0,-4.66095,-0.0101882,-1.90191,Q,Q
2023-03-14 22:37:15:701,0,-4.65544,-0.0123725,-1.91213,Q,Q
2023-03-14 22:37:15:711,0,-4.65249,-0.0160357,-1.92203,Q,Q
2023-03-14 22:37:15:721,0,-4.64457,-0.0148107,-1.93551,Q,Q
2023-03-14 22:37:15:731,0,-4.63257,-0.00917409,-1.95153,Q,Q
2023-03-14 22:37:15:741,0,-4.6149,-0.0052307,-1.96432,Q,Q
2023-03-14 22:37:15:751,0,-4.59771,-0.00476242,-1.97526,Q,Q
2023-03-14 22:37:15:761,0,-4.5829,-0.00628857,-1.98328,Q,Q
2023-03-14 22:37:15:771,0,-4.57004,-0.00973013,-1.98807,Q,Q
2023-03-14 22:37:15:781,0,-4.55808,-0.0121883,-1.99381,Q,Q
2023-03-14 22:37:15:791,0,-4.54699,-0.0124263,-1.99555,Q,Q
2023-03-14 22:37:15:801,0,-4.53355,-0.00844848,-1.99995,Q,Q
2023-03-14 22:37:15:811,0,-4.52212,-0.0101566,-2.00421,Q,Q
2023-03-14 22:37:15:821,0,-4.50929,-0.0111552,-2.00943,Q,Q
2023-03-14 22:37:15:831,0,-4.50061,-0.0101248,-2.01557,Q,Q
2023-03-14 22:37:15:841,0,-4.49093,-0.00984741,-2.02341,Q,Q
2023-03-14 22:37:15:851,0,-4.4801,-0.00865101,-2.03222,Q,Q
2023-03-14 22:37:15:861,0,-4.47028,-0.00343679,-2.04118,Q,Q
2023-03-14 22:37:15:871,0,-4.46349,-0.00192923,-2.04853,Q,Q
2023-03-14 22:37:15:881,0,-4.45887,0.000301897,-2.05553,Q,Q
2023-03-14 22:37:15:891,0,-4.45612,0.00340746,-2.06034,Q,Q
2023-03-14 22:37:15:901,0,-4.45469,-0.000312181,-2.06554,Q,Q
2023-03-14 22:37:15:911,0,-4.45289,-0.00227479,-2.07003,Q,Q
2023-03-14 22:37:15:921,0,-4.45009,-0.00611715,-2.07047,Q,Q
2023-03-14 22:37:15:931,0,-4.44502,-0.0134822,-2.07134,Q,Q
2023-03-14 22:37:15:941,0,-4.44512,-0.016369,-2.07123,Q,Q
2023-03-14 22:37:15:951,0,-4.44297,-0.0210159,-2.0734,Q,Q
2023-03-14 22:37:15:961,0,-4.44029,-0.0276514,-2.07195,Q,Q
2023-03-14 22:37:15:971,0,-4.43525,-0.0410798,-2.06615,Q,Q
2023-03-14 22:37:15:981,0,-4.43789,-0.0551061,-2.05892,Q,Q
2023-03-14 22:37:15:991,0,-4.44466,-0.0675243,-2.05374,Q,Q
2023-03-14 22:37:16:1,0,-4.4539,-0.0771499,-2.05407,Q,Q
2023-03-14 22:37:16:11,0,-4.45964,-0.0820126,-2.05855,Q,Q
2023-03-14 22:37:16:21,0,-4.46195,-0.0849057,-2.06255,Q,Q
2023-03-14 22:37:16:31,0,-4.46427,-0.0857713,-2.06934,Q,Q
2023-03-14 22:37:16:41,0,-4.46362,-0.0883192,-2.07613,Q,Q
2023-03-14 22:37:16:51,0,-4.46066,-0.0884319,-2.08039,Q,Q
2023-03-14 22:37:16:61,0,-4.45661,-0.0862338,-2.08488,Q,Q
2023-03-14 22:37:16:71,0,-4.45488,-0.088592,-2.0855,Q,Q
2023-03-14 22:37:16:81,0,-4.45683,-0.0888314,-2.0879,Q,Q
2023-03-14 22:37:16:91,0,-4.45983,-0.0840611,-2.09157,Q,Q
2023-03-14 22:37:16:101,0,-4.46409,-0.0786805,-2.10232,Q,Q
2023-03-14 22:37:16:111,0,-4.47141,-0.068138,-2.11335,Q,Q
2023-03-14 22:37:16:121,0,-4.47943,-0.0557852,-2.12708,Q,Q
2023-03-14 22:37:16:131,0,-4.48342,-0.0398215,-2.14363,Q,Q
2023-03-14 22:37:16:141,0,-4.48986,-0.0221896,-2.15758,Q,Q
2023-03-14 22:37:16:151,0,-4.4965,-0.00466954,-2.17562,Q,Q
2023-03-14 22:37:16:161,0,-4.50465,0.0120427,-2.19528,Q,Q
2023-03-14 22:37:16:171,0,-4.51415,0.0256616,-2.21497,Q,Q
2023-03-14 22:37:16:181,0,-4.52606,0.0377459,-2.22997,Q,Q
2023-03-14 22:37:16:191,0,-4.54047,0.0483417,-2.23977,Q,Q
2023-03-14 22:37:16:201,0,-4.55782,0.0517612,-2.24548,Q,Q
2023-03-14 22:37:16:211,0,-4.57347,0.053368,-2.24879,Q,Q
2023-03-14 22:37:16:221,0,-4.5867,0.0512702,-2.25086,Q,Q
2023-03-14 22:37:16:231,0,-4.59227,0.0460572,-2.2472,Q,Q
2023-03-14 22:37:16:241,0,-4.58998,0.0365095,-2.24066,Q,Q
2023-03-14 22:37:16:251,0,-4.59131,0.026809,-2.2284,Q,Q
2023-03-14 22:37:16:261,0,-4.60027,0.0183266,-2.21755,Q,Q
2023-03-14 22:37:16:271,0,-4.61695,0.0121888,-2.2045,Q,Q
2023-03-14 22:37:16:281,0,-4.63765,0.0058028,-2.196,Q,Q
2023-03-14 22:37:16:291,0,-4.64718,-0.00164546,-2.19315,Q,Q
2023-03-14 22:37:16:301,0,-4.64829,-0.00792202,-2.19159,Q,Q
2023-03-14 22:37:16:311,0,-4.64762,-0.0117204,-2.19398,Q,Q
2023-03-14 22:37:16:321,0,-4.65117,-0.0122117,-2.20224,Q,Q
2023-03-14 22:37:16:331,0,-4.65697,-0.0170232,-2.20841,Q,Q
2023-03-14 22:37:16:341,0,-4.65242,-0.0216309,-2.21956,Q,Q
2023-03-14 22:37:16:351,0,-4.64207,-0.027242,-2.22978,Q,Q
2023-03-14 22:37:16:361,0,-4.62241,-0.0330177,-2.23607,Q,Q
2023-03-14 22:37:16:371,0,-4.60816,-0.0386488,-2.23359,Q,Q
2023-03-14 22:37:16:381,0,-4.60837,-0.0497345,-2.22806,Q,Q
2023-03-14 22:37:16:391,0,-4.62262,-0.0590223,-2.22104,Q,Q
2023-03-14 22:37:16:401,0,-4.64831,-0.0697929,-2.21021,Q,Q
2023-03-14 22:37:16:411,0,-4.67803,-0.0761422,-2.20504,Q,Q
2023-03-14 22:37:16:421,0,-4.70282,-0.0853885,-2.19888,Q,Q
2023-03-14 22:37:16:431,0,-4.72502,-0.0904154,-2.19413,Q,Q
2023-03-14 22:37:16:441,0,-4.73598,-0.0912172,-2.18581,Q,Q
2023-03-14 22:37:16:451,0,-4.74225,-0.0899477,-2.1746,Q,Q
2023-03-14 22:37:16:461,0,-4.75341,-0.088303,-2.1645,Q,Q
2023-03-14 22:37:16:471,0,-4.75447,-0.0923055,-2.1525,Q,Q
2023-03-14 22:37:16:481,0,-4.75161,-0.10005,-2.1409,Q,Q
2023-03-14 22:37:16:491,0,-4.75233,-0.107992,-2.12743,Q,Q
2023-03-14 22:37:16:501,0,-4.75865,-0.111132,-2.11946,Q,Q
2023-03-14 22:37:16:511,0,-4.77122,-0.119761,-2.11127,Q,Q
2023-03-14 22:37:16:521,0,-4.78624,-0.12604,-2.10878,Q,Q
2023-03-14 22:37:16:531,0,-4.80442,-0.133719,-2.11284,Q,Q
2023-03-14 22:37:16:541,0,-4.81315,-0.139204,-2.12126,Q,Q
2023-03-14 22:37:16:551,0,-4.81007,-0.146798,-2.135,Q,Q
2023-03-14 22:37:16:561,0,-4.80365,-0.149503,-2.15025,Q,Q
2023-03-14 22:37:16:571,0,-4.80484,-0.156606,-2.16057,Q,Q
2023-03-14 22:37:16:581,0,-4.80961,-0.159304,-2.1775,Q,Q
2023-03-14 22:37:16:591,0,-4.80866,-0.159876,-2.19794,Q,Q
2023-03-14 22:37:16:601,0,-4.80033,-0.162717,-2.21401,Q,Q
2023-03-14 22:37:16:611,0,-4.7895,-0.161966,-2.22403,Q,Q
2023-03-14 22:37:16:621,0,-4.78737,-0.160299,-2.22987,Q,Q
2023-03-14 22:37:16:631,0,-4.7892,-0.16149,-2.23222,Q,Q
2023-03-14 22:37:16:641,0,-4.79232,-0.157864,-2.23599,Q,Q
2023-03-14 22:37:16:651,0,-4.78929,-0.155896,-2.23254,Q,Q
2023-03-14 22:37:16:661,0,-4.78406,-0.153646,-2.22781,Q,Q
2023-03-14 22:37:16:671,0,-4.78263,-0.155576,-2.21698,Q,Q
2023-03-14 22:37:16:681,0,-4.78165,-0.159819,-2.20723,Q,Q
2023-03-14 22:37:16:691,0,-4.78483,-0.163615,-2.19674,Q,Q
2023-03-14 22:37:16:701,0,-4.79206,-0.163041,-2.1853,Q,Q
2023-03-14 22:37:16:711,0,-4.79563,-0.16473,-2.17337,Q,Q
2023-03-14 22:37:16:721,0,-4.80149,-0.167244,-2.16249,Q,Q
2023-03-14 22:37:16:731,0,-4.80825,-0.168948,-2.15045,Q,Q
2023-03-14 22:37:16:741,0,-4.8109,-0.168373,-2.13799,Q,Q
2023-03-14 22:37:16:751,0,-4.8126,-0.165241,-2.12736,Q,Q
2023-03-14 22:37:16:761,0,-4.81577,-0.164515,-2.11384,Q,Q
2023-03-14 22:37:16:771,0,-4.82127,-0.162809,-2.10286,Q,Q
2023-03-14 22:37:16:781,0,-4.82408,-0.160176,-2.0922,Q,Q
2023-03-14 22:37:16:791,0,-4.82397,-0.156577,-2.0753,Q,Q
2023-03-14 22:37:16:801,0,-4.83019,-0.153382,-2.06472,Q,Q
2023-03-14 22:37:16:811,0,-4.8362,-0.153723,-2.05252,Q,Q
2023-03-14 22:37:16:821,0,-4.84034,-0.152539,-2.04502,Q,Q
2023-03-14 22:37:16:831,0,-4.84314,-0.150305,-2.03481,Q,Q
2023-03-14 22:37:16:841,0,-4.84667,-0.149083,-2.02383,Q,Q
2023-03-14 22:37:16:851,0,-4.84612,-0.152447,-2.01106,Q,Q
2023-03-14 22:37:16:861,0,-4.85033,-0.155747,-2.0042,Q,Q
2023-03-14 22:37:16:871,0,-4.84943,-0.15661,-1.99924,Q,Q
2023-03-14 22:37:16:881,0,-4.85235,-0.156035,-1.99755,Q,Q
2023-03-14 22:37:16:891,0,-4.85352,-0.159721,-2.00129,Q,Q
2023-03-14 22:37:16:901,0,-4.85411,-0.162175,-2.00565,Q,Q
2023-03-14 22:37:16:911,0,-4.84743,-0.161546,-2.013,Q,Q
2023-03-14 22:37:16:921,0,-4.84055,-0.158626,-2.02199,Q,Q
2023-03-14 22:37:16:931,0,-4.83991,-0.157493,-2.02646,Q,Q
2023-03-14 22:37:16:941,0,-4.84001,-0.153732,-2.02819,Q,Q
2023-03-14 22:37:16:951,0,-4.84488,-0.150722,-2.03639,Q,Q
2023-03-14 22:37:16:961,0,-4.84606,-0.142329,-2.0407,Q,Q
2023-03-14 22:37:16:971,0,-4.84689,-0.134376,-2.04621,Q,Q
2023-03-14 22:37:16:981,0,-4.848,-0.12321,-2.05183,Q,Q
2023-03-14 22:37:16:991,0,-4.85047,-0.11145,-2.06158,Q,Q
2023-03-14 22:37:17:1,0,-4.85289,-0.0997315,-2.0683,Q,Q
2023-03-14 22:37:17:11,0,-4.85771,-0.088173,-2.07515,Q,Q
2023-03-14 22:37:17:21,0,-4.8666,-0.0755525,-2.08401,Q,Q
2023-03-14 22:37:17:31,0,-4.87609,-0.0699447,-2.09675,Q,Q
2023-03-14 22:37:17:41,0,-4.88757,-0.0635873,-2.11231,Q,Q
2023-03-14 22:37:17:51,0,-4.88994,-0.0613919,-2.12755,Q,Q
2023-03-14 22:37:17:61,0,-4.89278,-0.0670081,-2.13954,Q,Q
2023-03-14 22:37:17:71,0,-4.89531,-0.0709301,-2.15347,Q,Q
2023-03-14 22:37:17:81,0,-4.89664,-0.0744755,-2.16594,Q,Q
2023-03-14 22:37:17:91,0,-4.89903,-0.0768256,-2.17769,Q,Q
2023-03-14 22:37:17:101,0,-4.89787,-0.0810345,-2.18435,Q,Q
2023-03-14 22:37:17:111,0,-4.897,-0.0932291,-2.18381,Q,Q
2023-03-14 22:37:17:121,0,-4.89278,-0.0997477,-2.17867,Q,Q
2023-03-14 22:37:17:131,0,-4.88803,-0.107526,-2.17007,Q,Q
2023-03-14 22:37:17:141,0,-4.88668,-0.115077,-2.16142,Q,Q
2023-03-14 22:37:17:151,0,-4.88355,-0.116161,-2.15488,Q,Q
2023-03-14 22:37:17:161,0,-4.88017,-0.120416,-2.14819,Q,Q
2023-03-14 22:37:17:171,0,-4.87314,-0.123492,-2.14948,Q,Q
2023-03-14 22:37:17:181,0,-4.86403,-0.129473,-2.15463,Q,Q
2023-03-14 22:37:17:191,0,-4.85,-0.133177,-2.16788,Q,Q
2023-03-14 22:37:17:201,0,-4.83697,-0.132958,-2.18193,Q,Q
2023-03-14 22:37:17:211,0,-4.82687,-0.136038,-2.2022,Q,Q
2023-03-14 22:37:17:221,0,-4.81247,-0.135189,-2.22463,Q,Q
2023-03-14 22:37:17:231,0,-4.79663,-0.133564,-2.24996,Q,Q
2023-03-14 22:37:17:241,0,-4.77816,-0.128987,-2.27214,Q,Q
2023-03-14 22:37:17:251,0,-4.76423,-0.127366,-2.29359,Q,Q
2023-03-14 22:37:17:261,0,-4.74864,-0.122519,-2.31569,Q,Q
2023-03-14 22:37:17:271,0,-4.7417,-0.112029,-2.33251,Q,Q
2023-03-14 22:37:17:281,0,-4.73999,-0.0986793,-2.34914,Q,Q
2023-03-14 22:37:17:291,0,-4.74011,-0.0868505,-2.35996,Q,Q
2023-03-14 22:37:17:301,0,-4.74786,-0.075458,-2.36348,Q,Q
2023-03-14 22:37:17:311,0,-4.75752,-0.0679129,-2.35457,Q,Q
2023-03-14 22:37:17:321,0,-4.76959,-0.0704945,-2.33727,Q,Q
2023-03-14 22:37:17:331,0,-4.78463,-0.0769499,-2.31125,Q,Q
2023-03-14 22:37:17:341,0,-4.80399,-0.08506,-2.27285,Q,Q
2023-03-14 22:37:17:351,0,-4.82197,-0.100925,-2.22873,Q,Q
2023-03-14 22:37:17:361,0,-4.83729,-0.115125,-2.18842,Q,Q
2023-03-14 22:37:17:371,0,-4.83979,-0.120521,-2.15617,Q,Q
2023-03-14 22:37:17:381,0,-4.83629,-0.118842,-2.13449,Q,Q
2023-03-14 22:37:17:391,0,-4.82805,-0.111333,-2.1258,Q,Q
2023-03-14 22:37:17:401,0,-4.81826,-0.0991566,-2.12331,Q,Q
2023-03-14 22:37:17:411,0,-4.81255,-0.0845761,-2.12786,Q,Q
2023-03-14 22:37:17:421,0,-4.81234,-0.0770291,-2.12698,Q,Q
2023-03-14 22:37:17:431,0,-4.81548,-0.0736383,-2.1317,Q,Q
2023-03-14 22:37:17:441,0,-4.82367,-0.0765923,-2.13681,Q,Q
2023-03-14 22:37:17:451,0,-4.83412,-0.0774037,-2.14001,Q,Q
2023-03-14 22:37:17:461,0,-4.83694,-0.0759084,-2.15345,Q,Q
2023-03-14 22:37:17:471,0,-4.8275,-0.0708915,-2.16706,Q,Q
2023-03-14 22:37:17:481,0,-4.80797,-0.0635714,-2.18135,Q,Q
2023-03-14 22:37:17:491,0,-4.78324,-0.0506623,-2.20046,Q,Q
2023-03-14 22:37:17:501,0,-4.75257,-0.0341257,-2.21815,Q,Q
2023-03-14 22:37:17:511,0,-4.72355,-0.0170752,-2.22877,Q,Q
2023-03-14 22:37:17:521,0,-4.6958,-0.00148789,-2.23784,Q,Q
2023-03-14 22:37:17:531,0,-4.66928,0.00890757,-2.23875,Q,Q
2023-03-14 22:37:17:541,0,-4.65173,0.0161712,-2.23312,Q,Q
2023-03-14 22:37:17:551,0,-4.63748,0.0166731,-2.22037,Q,Q
2023-03-14 22:37:17:561,0,-4.62872,0.0122878,-2.20704,Q,Q
2023-03-14 22:37:17:571,0,-4.61809,0.00537136,-2.19557,Q,Q
2023-03-14 22:37:17:581,0,-4.60419,0.00138011,-2.18864,Q,Q
2023-03-14 22:37:17:591,0,-4.58624,0.0038781,-2.18267,Q,Q
2023-03-14 22:37:17:601,0,-4.5658,0.00447484,-2.18269,Q,Q
2023-03-14 22:37:17:611,0,-4.54399,0.000608434,-2.17541,Q,Q
2023-03-14 22:37:17:621,0,-4.52892,-0.00773645,-2.16792,Q,Q
2023-03-14 22:37:17:631,0,-4.51773,-0.0215144,-2.16625,Q,Q
2023-03-14 22:37:17:641,0,-4.50873,-0.0351032,-2.16978,Q,Q
2023-03-14 22:37:17:651,0,-4.49589,-0.0516021,-2.17555,Q,Q
2023-03-14 22:37:17:661,0,-4.47873,-0.0683725,-2.18761,Q,Q
2023-03-14 22:37:17:671,0,-4.46046,-0.0786306,-2.20372,Q,Q
2023-03-14 22:37:17:681,0,-4.439,-0.0843865,-2.2269,Q,Q
2023-03-14 22:37:17:691,0,-4.41209,-0.0832861,-2.25122,Q,Q
2023-03-14 22:37:17:701,0,-4.39142,-0.0737246,-2.2805,Q,Q
2023-03-14 22:37:17:711,0,-4.37452,-0.0551889,-2.3085,Q,Q
2023-03-14 22:37:17:721,0,-4.36422,-0.034675,-2.33152,Q,Q
2023-03-14 22:37:17:731,0,-4.35648,-0.0139141,-2.34734,Q,Q
2023-03-14 22:37:17:741,0,-4.35146,-0.00559925,-2.34767,Q,Q
2023-03-14 22:37:17:751,0,-4.35421,-0.00402142,-2.34001,Q,Q
2023-03-14 22:37:17:761,0,-4.36141,-0.0169047,-2.33512,Q,Q
2023-03-14 22:37:17:771,0,-4.36057,-0.0194843,-2.34972,Q,Q
2023-03-14 22:37:17:781,0,-4.34127,-0.0208793,-2.38364,Q,Q
2023-03-14 22:37:17:791,0,-4.30895,-0.0113296,-2.4399,Q,Q
2023-03-14 22:37:17:801,0,-4.268,0.0125246,-2.5118,Q,Q
2023-03-14 22:37:17:811,0,-4.22806,0.0415481,-2.58466,Q,Q
2023-03-14 22:37:17:821,0,-4.20504,0.0613924,-2.64902,Q,Q
2023-03-14 22:37:17:831,0,-4.21267,0.0747124,-2.70124,Q,Q
2023-03-14 22:37:17:841,0,-4.24063,0.0829231,-2.74017,Q,Q
2023-03-14 22:37:17:851,0,-4.28208,0.0867834,-2.77305,Q,Q
2023-03-14 22:37:17:861,0,-4.32065,0.0796902,-2.80241,Q,Q
2023-03-14 22:37:17:871,0,-4.34913,0.0780894,-2.83424,Q,Q
2023-03-14 22:37:17:881,0,-4.37371,0.0873877,-2.86157,Q,Q
2023-03-14 22:37:17:891,0,-4.39316,0.104775,-2.88863,Q,Q
2023-03-14 22:37:17:901,0,-4.41631,0.12707,-2.90266,Q,Q
2023-03-14 22:37:17:911,0,-4.44841,0.15064,-2.90865,Q,Q
2023-03-14 22:37:17:921,0,-4.49712,0.168155,-2.90497,Q,Q
2023-03-14 22:37:17:931,0,-4.55782,0.174607,-2.88696,Q,Q
2023-03-14 22:37:17:941,0,-4.63203,0.173033,-2.8601,Q,Q
2023-03-14 22:37:17:951,0,-4.70664,0.164139,-2.83194,Q,Q
2023-03-14 22:37:17:961,0,-4.77401,0.149654,-2.80668,Q,Q
2023-03-14 22:37:17:971,0,-4.82757,0.14072,-2.78942,Q,Q
2023-03-14 22:37:17:981,0,-4.86623,0.133686,-2.78435,Q,Q
2023-03-14 22:37:17:991,0,-4.89562,0.129695,-2.78346,Q,Q
2023-03-14 22:37:18:1,0,-4.91794,0.121009,-2.78728,Q,Q
2023-03-14 22:37:18:11,0,-4.93792,0.11279,-2.79487,Q,Q
2023-03-14 22:37:18:21,0,-4.95533,0.100725,-2.80738,Q,Q
2023-03-14 22:37:18:31,0,-4.9746,0.0856887,-2.82835,Q,Q
2023-03-14 22:37:18:41,0,-4.99611,0.0721627,-2.85539,Q,Q
2023-03-14 22:37:18:51,0,-5.01935,0.0562882,-2.88667,Q,Q
2023-03-14 22:37:18:61,0,-5.03571,0.0407841,-2.92205,Q,Q
2023-03-14 22:37:18:71,0,-5.04931,0.0278436,-2.95272,Q,Q
2023-03-14 22:37:18:81,0,-5.05762,0.0205695,-2.98062,Q,Q
2023-03-14 22:37:18:91,0,-5.06121,0.0108832,-3.00899,Q,Q
2023-03-14 22:37:18:101,0,-5.06058,0.00708442,-3.0415,Q,Q
2023-03-14 22:37:18:111,0,-5.05918,0.00637417,-3.06477,Q,Q
2023-03-14 22:37:18:121,0,-5.06284,0.0072621,-3.08989,Q,Q
2023-03-14 22:37:18:131,0,-5.0656,0.00444736,-3.10837,Q,Q
2023-03-14 22:37:18:141,0,-5.07014,0.002576,-3.12033,Q,Q
2023-03-14 22:37:18:151,0,-5.07497,-0.000109715,-3.1313,Q,Q
2023-03-14 22:37:18:161,0,-5.08064,-0.00217909,-3.13756,Q,Q
2023-03-14 22:37:18:171,0,-5.08888,0.00369239,-3.13541,Q,Q
2023-03-14 22:37:18:181,0,-5.0998,0.00975168,-3.125,Q,Q
2023-03-14 22:37:18:191,0,-5.11655,0.019711,-3.10401,Q,Q
2023-03-14 22:37:18:201,0,-5.14414,0.0250992,-3.07744,Q,Q
2023-03-14 22:37:18:211,0,-5.1742,0.0223593,-3.04373,Q,Q
2023-03-14 22:37:18:221,0,-5.20216,0.0166023,-3.01133,Q,Q
2023-03-14 22:37:18:231,0,-5.22515,0.0119079,-2.98447,Q,Q
2023-03-14 22:37:18:241,0,-5.2357,0.00535074,-2.96367,Q,Q
2023-03-14 22:37:18:251,0,-5.23857,-2.08856e-06,-2.946,Q,Q
2023-03-14 22:37:18:261,0,-5.23543,0.000990717,-2.94073,Q,Q
2023-03-14 22:37:18:271,0,-5.23442,-0.00344269,-2.93958,Q,Q
2023-03-14 22:37:18:281,0,-5.23905,-0.00782608,-2.94212,Q,Q
2023-03-14 22:37:18:291,0,-5.24879,-0.0125201,-2.94946,Q,Q
2023-03-14 22:37:18:301,0,-5.26568,-0.0256041,-2.95275,Q,Q
2023-03-14 22:37:18:311,0,-5.28437,-0.0376537,-2.95548,Q,Q
2023-03-14 22:37:18:321,0,-5.30361,-0.0487663,-2.95792,Q,Q
2023-03-14 22:37:18:331,0,-5.31796,-0.0607455,-2.9592,Q,Q
2023-03-14 22:37:18:341,0,-5.32168,-0.0696654,-2.95527,Q,Q
2023-03-14 22:37:18:351,0,-5.31566,-0.0786858,-2.94829,Q,Q
2023-03-14 22:37:18:361,0,-5.30822,-0.0857323,-2.93756,Q,Q
2023-03-14 22:37:18:371,0,-5.30169,-0.0886601,-2.91858,Q,Q
2023-03-14 22:37:18:381,0,-5.29986,-0.0984482,-2.8936,Q,Q
2023-03-14 22:37:18:391,0,-5.30094,-0.106165,-2.86486,Q,Q
2023-03-14 22:37:18:401,0,-5.30752,-0.116414,-2.82875,Q,Q
2023-03-14 22:37:18:411,0,-5.31746,-0.131197,-2.78515,Q,Q
2023-03-14 22:37:18:421,0,-5.3233,-0.15159,-2.73751,Q,Q
2023-03-14 22:37:18:431,0,-5.32574,-0.173137,-2.69359,Q,Q
2023-03-14 22:37:18:441,0,-5.32823,-0.196533,-2.65093,Q,Q
2023-03-14 22:37:18:451,0,-5.32572,-0.217229,-2.60993,Q,Q
2023-03-14 22:37:18:461,0,-5.32922,-0.23637,-2.5693,Q,Q
2023-03-14 22:37:18:471,0,-5.32822,-0.256292,-2.53253,Q,Q
2023-03-14 22:37:18:481,0,-5.32743,-0.27239,-2.49807,Q,Q
2023-03-14 22:37:18:491,0,-5.32571,-0.290388,-2.46646,Q,Q
2023-03-14 22:37:18:501,0,-5.32344,-0.304301,-2.43841,Q,Q
2023-03-14 22:37:18:511,0,-5.32162,-0.313712,-2.4122,Q,Q
2023-03-14 22:37:18:521,0,-5.3214,-0.322817,-2.3944,Q,Q
2023-03-14 22:37:18:531,0,-5.31915,-0.323581,-2.37537,Q,Q
2023-03-14 22:37:18:541,0,-5.31488,-0.323236,-2.3623,Q,Q
2023-03-14 22:37:18:551,0,-5.31005,-0.3222,-2.35262,Q,Q
2023-03-14 22:37:18:561,0,-5.30104,-0.317461,-2.34351,Q,Q
2023-03-14 22:37:18:571,0,-5.29839,-0.313942,-2.33657,Q,Q
2023-03-14 22:37:18:581,0,-5.2863,-0.307293,-2.33574,Q,Q
2023-03-14 22:37:18:591,0,-5.27297,-0.30243,-2.33624,Q,Q
2023-03-14 22:37:18:601,0,-5.26467,-0.298027,-2.33894,Q,Q
2023-03-14 22:37:18:611,0,-5.25669,-0.296691,-2.33942,Q,Q
2023-03-14 22:37:18:621,0,-5.25377,-0.294753,-2.34408,Q,Q
2023-03-14 22:37:18:631,0,-5.25139,-0.292258,-2.35274,Q,Q
2023-03-14 22:37:18:641,0,-5.24516,-0.290206,-2.35913,Q,Q
2023-03-14 22:37:18:651,0,-5.2356,-0.287146,-2.36571,Q,Q
2023-03-14 22:37:18:661,0,-5.22275,-0.287791,-2.37038,Q,Q
2023-03-14 22:37:18:671,0,-5.21385,-0.287129,-2.37224,Q,Q
2023-03-14 22:37:18:681,0,-5.19989,-0.292272,-2.37325,Q,Q
2023-03-14 22:37:18:691,0,-5.18349,-0.301527,-2.37375,Q,Q
2023-03-14 22:37:18:701,0,-5.16749,-0.308744,-2.37628,Q,Q
2023-03-14 22:37:18:711,0,-5.14839,-0.316699,-2.38122,Q,Q
2023-03-14 22:37:18:721,0,-5.13387,-0.329866,-2.38693,Q,Q
2023-03-14 22:37:18:731,0,-5.12672,-0.344947,-2.39692,Q,Q
2023-03-14 22:37:18:741,0,-5.12123,-0.357063,-2.40837,Q,Q
2023-03-14 22:37:18:751,0,-5.11686,-0.365523,-2.41915,Q,Q
2023-03-14 22:37:18:761,0,-5.11771,-0.378879,-2.42745,Q,Q
2023-03-14 22:37:18:771,0,-5.12189,-0.393028,-2.43143,Q,Q
2023-03-14 22:37:18:781,0,-5.12875,-0.402353,-2.43145,Q,Q
2023-03-14 22:37:18:791,0,-5.13714,-0.41039,-2.43069,Q,Q
2023-03-14 22:37:18:801,0,-5.14641,-0.413614,-2.4285,Q,Q
2023-03-14 22:37:18:811,0,-5.15734,-0.413858,-2.42759,Q,Q
2023-03-14 22:37:18:821,0,-5.15981,-0.410666,-2.42431,Q,Q
2023-03-14 22:37:18:831,0,-5.1612,-0.404044,-2.42369,Q,Q
2023-03-14 22:37:18:841,0,-5.15677,-0.395387,-2.42682,Q,Q
2023-03-14 22:37:18:851,0,-5.14924,-0.381785,-2.43487,Q,Q
2023-03-14 22:37:18:861,0,-5.13925,-0.369773,-2.44128,Q,Q
2023-03-14 22:37:18:871,0,-5.12765,-0.360897,-2.43841,Q,Q
2023-03-14 22:37:18:881,0,-5.11893,-0.355438,-2.43815,Q,Q
2023-03-14 22:37:18:891,0,-5.11936,-0.349215,-2.44204,Q,Q
2023-03-14 22:37:18:901,0,-5.11759,-0.340158,-2.44382,Q,Q
2023-03-14 22:37:18:911,0,-5.1201,-0.333055,-2.4483,Q,Q
2023-03-14 22:37:18:921,0,-5.12294,-0.323155,-2.44726,Q,Q
2023-03-14 22:37:18:931,0,-5.12352,-0.306103,-2.44633,Q,Q
2023-03-14 22:37:18:941,0,-5.11794,-0.29178,-2.44956,Q,Q
2023-03-14 22:37:18:951,0,-5.10577,-0.280406,-2.45598,Q,Q
2023-03-14 22:37:18:961,0,-5.08752,-0.268332,-2.4602,Q,Q
2023-03-14 22:37:18:971,0,-5.06767,-0.258787,-2.46652,Q,Q
2023-03-14 22:37:18:981,0,-5.04516,-0.250283,-2.46956,Q,Q
2023-03-14 22:37:18:991,0,-5.02577,-0.243261,-2.47368,Q,Q
2023-03-14 22:37:19:1,0,-5.00622,-0.238446,-2.47704,Q,Q
2023-03-14 22:37:19:11,0,-4.98393,-0.232659,-2.48199,Q,Q
2023-03-14 22:37:19:21,0,-4.96565,-0.226094,-2.48713,Q,Q
2023-03-14 22:37:19:31,0,-4.9495,-0.224595,-2.49446,Q,Q
2023-03-14 22:37:19:41,0,-4.93423,-0.219299,-2.50163,Q,Q
2023-03-14 22:37:19:51,0,-4.91493,-0.21557,-2.5102,Q,Q
2023-03-14 22:37:19:61,0,-4.89539,-0.207364,-2.51498,Q,Q
2023-03-14 22:37:19:71,0,-4.87949,-0.197274,-2.52032,Q,Q
2023-03-14 22:37:19:81,0,-4.86083,-0.184957,-2.52529,Q,Q
2023-03-14 22:37:19:91,0,-4.84758,-0.170879,-2.53197,Q,Q
2023-03-14 22:37:19:101,0,-4.8368,-0.156993,-2.53785,Q,Q
2023-03-14 22:37:19:111,0,-4.82802,-0.142811,-2.53909,Q,Q
2023-03-14 22:37:19:121,0,-4.81702,-0.129972,-2.53848,Q,Q
2023-03-14 22:37:19:131,0,-4.80758,-0.1145,-2.53609,Q,Q
2023-03-14 22:37:19:141,0,-4.80423,-0.0996388,-2.53063,Q,Q
2023-03-14 22:37:19:151,0,-4.80271,-0.08291,-2.5235,Q,Q
2023-03-14 22:37:19:161,0,-4.80172,-0.0715682,-2.5121,Q,Q
2023-03-14 22:37:19:171,0,-4.80501,-0.0621938,-2.49368,Q,Q
2023-03-14 22:37:19:181,0,-4.80773,-0.0563711,-2.47298,Q,Q
2023-03-14 22:37:19:191,0,-4.80703,-0.0528427,-2.44806,Q,Q
2023-03-14 22:37:19:201,0,-4.80904,-0.0463182,-2.42316,Q,Q
2023-03-14 22:37:19:211,0,-4.81405,-0.038769,-2.39188,Q,Q
2023-03-14 22:37:19:221,0,-4.81979,-0.0355549,-2.36047,Q,Q
2023-03-14 22:37:19:231,0,-4.82558,-0.0329677,-2.32947,Q,Q
2023-03-14 22:37:19:241,0,-4.82982,-0.0305355,-2.30179,Q,Q
2023-03-14 22:37:19:251,0,-4.82952,-0.0255393,-2.2787,Q,Q
2023-03-14 22:37:19:261,0,-4.83131,-0.0193958,-2.27029,Q,Q
2023-03-14 22:37:19:271,0,-4.83113,-0.0101515,-2.27496,Q,Q
2023-03-14 22:37:19:281,0,-4.82532,-0.00063956,-2.285,Q,Q
2023-03-14 22:37:19:291,0,-4.82391,0.00236853,-2.29676,Q,Q
2023-03-14 22:37:19:301,0,-4.83132,0.00610801,-2.31075,Q,Q
2023-03-14 22:37:19:311,0,-4.8464,0.0107294,-2.32947,Q,Q
2023-03-14 22:37:19:321,0,-4.85711,0.0151415,-2.34794,Q,Q
2023-03-14 22:37:19:331,0,-4.8738,0.0227128,-2.36432,Q,Q
2023-03-14 22:37:19:341,0,-4.89563,0.0340068,-2.37922,Q,Q
2023-03-14 22:37:19:351,0,-4.9186,0.0434887,-2.39009,Q,Q
2023-03-14 22:37:19:361,0,-4.93818,0.0555968,-2.39922,Q,Q
2023-03-14 22:37:19:371,0,-4.95182,0.0677216,-2.40523,Q,Q
2023-03-14 22:37:19:381,0,-4.96225,0.0841898,-2.41121,Q,Q
2023-03-14 22:37:19:391,0,-4.95613,0.103219,-2.41976,Q,Q
2023-03-14 22:37:19:401,0,-4.94324,0.124123,-2.43554,Q,Q
2023-03-14 22:37:19:411,0,-4.9261,0.145877,-2.45381,Q,Q
2023-03-14 22:37:19:421,0,-4.91339,0.163665,-2.47438,Q,Q
2023-03-14 22:37:19:431,0,-4.89872,0.173951,-2.49898,Q,Q
2023-03-14 22:37:19:441,0,-4.8753,0.185492,-2.52098,Q,Q
2023-03-14 22:37:19:451,0,-4.84727,0.192802,-2.54156,Q,Q
2023-03-14 22:37:19:461,0,-4.82207,0.198222,-2.55325,Q,Q
2023-03-14 22:37:19:471,0,-4.79561,0.19934,-2.56365,Q,Q
2023-03-14 22:37:19:481,0,-4.7459,0.196279,-2.57934,Q,Q
2023-03-14 22:37:19:491,0,-4.68801,0.197587,-2.59216,Q,Q
2023-03-14 22:37:19:501,0,-4.64527,0.208184,-2.59975,Q,Q
2023-03-14 22:37:19:511,0,-4.63629,0.215504,-2.60601,Q,Q
2023-03-14 22:37:19:521,0,-4.64205,0.221866,-2.61787,Q,Q
2023-03-14 22:37:19:531,0,-4.62861,0.223108,-2.6314,Q,Q
2023-03-14 22:37:19:541,0,-4.59656,0.21394,-2.6402,Q,Q
2023-03-14 22:37:19:551,0,-4.56802,0.194101,-2.6413,Q,Q
2023-03-14 22:37:19:561,0,-4.54234,0.165984,-2.64178,Q,Q
2023-03-14 22:37:19:571,0,-4.50985,0.137405,-2.63927,Q,Q
2023-03-14 22:37:19:581,0,-4.47259,0.109109,-2.63733,Q,Q
2023-03-14 22:37:19:591,0,-4.4281,0.0887427,-2.63154,Q,Q
2023-03-14 22:37:19:601,0,-4.37668,0.0866714,-2.62442,Q,Q
2023-03-14 22:37:19:611,0,-4.32622,0.0992279,-2.61141,Q,Q
2023-03-14 22:37:19:621,0,-4.28148,0.120542,-2.58846,Q,Q
2023-03-14 22:37:19:631,0,-4.25395,0.143028,-2.55501,Q,Q
2023-03-14 22:37:19:641,0,-4.24894,0.159974,-2.52044,Q,Q
2023-03-14 22:37:19:651,0,-4.26874,0.166121,-2.48783,Q,Q
2023-03-14 22:37:19:661,0,-4.30628,0.169321,-2.46388,Q,Q
2023-03-14 22:37:19:671,0,-4.34347,0.173245,-2.44949,Q,Q
2023-03-14 22:37:19:681,0,-4.35661,0.180586,-2.44992,Q,Q
2023-03-14 22:37:19:691,0,-4.34647,0.188163,-2.45555,Q,Q
2023-03-14 22:37:19:701,0,-4.32595,0.194826,-2.45946,Q,Q
2023-03-14 22:37:19:711,0,-4.30244,0.205674,-2.46153,Q,Q
2023-03-14 22:37:19:721,0,-4.28213,0.215149,-2.46703,Q,Q
2023-03-14 22:37:19:731,0,-4.26841,0.21946,-2.47148,Q,Q
2023-03-14 22:37:19:741,0,-4.27175,0.223777,-2.47103,Q,Q
2023-03-14 22:37:19:751,0,-4.28537,0.225628,-2.47885,Q,Q
2023-03-14 22:37:19:761,0,-4.30236,0.226904,-2.48897,Q,Q
2023-03-14 22:37:19:771,0,-4.31625,0.234452,-2.49228,Q,Q
2023-03-14 22:37:19:781,0,-4.33396,0.243935,-2.49708,Q,Q
2023-03-14 22:37:19:791,0,-4.35688,0.25384,-2.50553,Q,Q
2023-03-14 22:37:19:801,0,-4.38026,0.266771,-2.51325,Q,Q
2023-03-14 22:37:19:811,0,-4.39163,0.286325,-2.51469,Q,Q
2023-03-14 22:37:19:821,0,-4.39534,0.3057,-2.51571,Q,Q
2023-03-14 22:37:19:831,0,-4.39495,0.322116,-2.5079,Q,Q
2023-03-14 22:37:19:841,0,-4.39812,0.338843,-2.49339,Q,Q
2023-03-14 22:37:19:851,0,-4.40681,0.349906,-2.47923,Q,Q
2023-03-14 22:37:19:861,0,-4.42957,0.360203,-2.46589,Q,Q
2023-03-14 22:37:19:871,0,-4.45979,0.370601,-2.4462,Q,Q
2023-03-14 22:37:19:881,0,-4.50324,0.376623,-2.43087,Q,Q
2023-03-14 22:37:19:891,0,-4.55429,0.381002,-2.41769,Q,Q
2023-03-14 22:37:19:901,0,-4.5915,0.382026,-2.40747,Q,Q
2023-03-14 22:37:19:911,0,-4.60932,0.383642,-2.4083,Q,Q
2023-03-14 22:37:19:921,0,-4.60176,0.385117,-2.40452,Q,Q
2023-03-14 22:37:19:931,0,-4.59831,0.393218,-2.39766,Q,Q
2023-03-14 22:37:19:941,0,-4.60903,0.399643,-2.39348,Q,Q
2023-03-14 22:37:19:951,0,-4.63771,0.404806,-2.385,Q,Q
2023-03-14 22:37:19:961,0,-4.67322,0.405285,-2.38035,Q,Q
2023-03-14 22:37:19:971,0,-4.71107,0.392596,-2.38363,Q,Q
2023-03-14 22:37:19:981,0,-4.74,0.374787,-2.38804,Q,Q
2023-03-14 22:37:19:991,0,-4.76174,0.356265,-2.39111,Q,Q
2023-03-14 22:37:20:1,0,-4.78594,0.332176,-2.39839,Q,Q
2023-03-14 22:37:20:11,0,-4.80708,0.310088,-2.39965,Q,Q
2023-03-14 22:37:20:21,0,-4.82083,0.289219,-2.39919,Q,Q
2023-03-14 22:37:20:31,0,-4.83459,0.2673,-2.39332,Q,Q
2023-03-14 22:37:20:41,0,-4.84847,0.247968,-2.38402,Q,Q
2023-03-14 22:37:20:51,0,-4.8596,0.22483,-2.3753,Q,Q
2023-03-14 22:37:20:61,0,-4.86534,0.21305,-2.37518,Q,Q
2023-03-14 22:37:20:71,0,-4.85705,0.220945,-2.38105,Q,Q
2023-03-14 22:37:20:81,0,-4.83686,0.188544,-2.40195,Q,Q
2023-03-14 22:37:20:91,0,-4.83937,0.141744,-2.4003,Q,Q
2023-03-14 22:37:20:101,0,-4.87663,0.0649215,-2.4261,Q,Q
2023-03-14 22:37:20:111,0,-4.94306,-0.0304076,-2.44261,Q,Q
2023-03-14 22:37:20:121,0,-5.01891,-0.0654925,-2.43853,Q,Q
2023-03-14 22:37:20:131,0,-5.05222,-0.0905719,-2.46042,Q,Q
2023-03-14 22:37:20:141,0,-5.05469,-0.0942949,-2.50749,Q,Q
2023-03-14 22:37:20:151,0,-5.04715,-0.0641127,-2.5369,Q,Q
2023-03-14 22:37:20:161,0,-5.04507,-0.0338758,-2.55737,Q,Q
2023-03-14 22:37:20:171,0,-5.0455,-0.0200213,-2.56452,Q,Q
2023-03-14 22:37:20:181,0,-5.0437,-0.0120876,-2.5612,Q,Q
2023-03-14 22:37:20:191,0,-5.02726,-0.0111153,-2.5552,Q,Q
2023-03-14 22:37:20:201,0,-5.00808,-0.00340827,-2.54496,Q,Q
2023-03-14 22:37:20:211,0,-4.99578,0.0129538,-2.52345,Q,Q
2023-03-14 22:37:20:221,0,-4.99215,0.0264032,-2.49879,Q,Q
2023-03-14 22:37:20:231,0,-5.00135,0.0410947,-2.46859,Q,Q
2023-03-14 22:37:20:241,0,-5.02036,0.0615881,-2.43346,Q,Q
2023-03-14 22:37:20:251,0,-5.04596,0.0882154,-2.40486,Q,Q
2023-03-14 22:37:20:261,0,-5.08003,0.123017,-2.37642,Q,Q
2023-03-14 22:37:20:271,0,-5.12518,0.159375,-2.34952,Q,Q
2023-03-14 22:37:20:281,0,-5.16052,0.196317,-2.32737,Q,Q
2023-03-14 22:37:20:291,0,-5.16576,0.2124,-2.31406,Q,Q
2023-03-14 22:37:20:301,0,-5.14504,0.213135,-2.30478,Q,Q
2023-03-14 22:37:20:311,0,-5.11654,0.212156,-2.29212,Q,Q
2023-03-14 22:37:20:321,0,-5.09678,0.213821,-2.278,Q,Q
2023-03-14 22:37:20:331,0,-5.0932,0.220275,-2.2649,Q,Q
2023-03-14 22:37:20:341,0,-5.12241,0.223828,-2.25395,Q,Q
2023-03-14 22:37:20:351,0,-5.17544,0.222794,-2.25697,Q,Q
2023-03-14 22:37:20:361,0,-5.22154,0.213722,-2.27607,Q,Q
2023-03-14 22:37:20:371,0,-5.24401,0.204665,-2.30553,Q,Q
2023-03-14 22:37:20:381,0,-5.24235,0.200343,-2.34239,Q,Q
2023-03-14 22:37:20:391,0,-5.22089,0.200358,-2.38205,Q,Q
2023-03-14 22:37:20:401,0,-5.19445,0.207338,-2.42221,Q,Q
2023-03-14 22:37:20:411,0,-5.17273,0.2166,-2.45374,Q,Q
2023-03-14 22:37:20:421,0,-5.15911,0.226884,-2.47217,Q,Q
2023-03-14 22:37:20:431,0,-5.15119,0.232528,-2.48161,Q,Q
2023-03-14 22:37:20:441,0,-5.14722,0.241917,-2.48735,Q,Q
2023-03-14 22:37:20:451,0,-5.1404,0.251288,-2.48424,Q,Q
2023-03-14 22:37:20:461,0,-5.12644,0.261903,-2.47924,Q,Q
2023-03-14 22:37:20:471,0,-5.11485,0.279503,-2.47132,Q,Q
2023-03-14 22:37:20:481,0,-5.10017,0.300352,-2.47384,Q,Q
2023-03-14 22:37:20:491,0,-5.07597,0.320552,-2.48134,Q,Q
2023-03-14 22:37:20:501,0,-5.05523,0.341706,-2.4959,Q,Q
2023-03-14 22:37:20:511,0,-5.03806,0.359248,-2.51313,Q,Q
2023-03-14 22:37:20:521,0,-5.03155,0.366594,-2.53858,Q,Q
2023-03-14 22:37:20:531,0,-5.03285,0.370843,-2.56526,Q,Q
2023-03-14 22:37:20:541,0,-5.03905,0.371457,-2.59102,Q,Q
2023-03-14 22:37:20:551,0,-5.04719,0.367597,-2.62272,Q,Q
2023-03-14 22:37:20:561,0,-5.05485,0.366602,-2.65056,Q,Q
2023-03-14 22:37:20:571,0,-5.06158,0.360084,-2.67655,Q,Q
2023-03-14 22:37:20:581,0,-5.0611,0.357233,-2.69816,Q,Q
2023-03-14 22:37:20:591,0,-5.05775,0.352194,-2.71208,Q,Q
2023-03-14 22:37:20:601,0,-5.05453,0.346933,-2.71755,Q,Q
2023-03-14 22:37:20:611,0,-5.05751,0.339101,-2.70989,Q,Q
2023-03-14 22:37:20:621,0,-5.06889,0.334901,-2.70185,Q,Q
2023-03-14 22:37:20:631,0,-5.08807,0.330263,-2.69095,Q,Q
2023-03-14 22:37:20:641,0,-5.1076,0.32776,-2.67552,Q,Q
2023-03-14 22:37:20:651,0,-5.12611,0.321937,-2.65529,Q,Q
2023-03-14 22:37:20:661,0,-5.14572,0.311073,-2.63843,Q,Q
2023-03-14 22:37:20:671,0,-5.15685,0.30161,-2.6245,Q,Q
2023-03-14 22:37:20:681,0,-5.16261,0.291381,-2.61615,Q,Q
2023-03-14 22:37:20:691,0,-5.16299,0.280845,-2.61162,Q,Q
2023-03-14 22:37:20:701,0,-5.1569,0.271542,-2.61465,Q,Q
2023-03-14 22:37:20:711,0,-5.14356,0.256202,-2.62122,Q,Q
2023-03-14 22:37:20:721,0,-5.12767,0.242768,-2.63195,Q,Q
2023-03-14 22:37:20:731,0,-5.11249,0.227572,-2.64252,Q,Q
2023-03-14 22:37:20:741,0,-5.10409,0.212199,-2.65356,Q,Q
2023-03-14 22:37:20:751,0,-5.09561,0.193847,-2.66394,Q,Q
2023-03-14 22:37:20:761,0,-5.08963,0.17496,-2.67802,Q,Q
2023-03-14 22:37:20:771,0,-5.07599,0.158029,-2.69675,Q,Q
2023-03-14 22:37:20:781,0,-5.06237,0.147981,-2.72069,Q,Q
2023-03-14 22:37:20:791,0,-5.04979,0.1442,-2.74475,Q,Q
2023-03-14 22:37:20:801,0,-5.0389,0.147917,-2.77104,Q,Q
2023-03-14 22:37:20:811,0,-5.03691,0.152644,-2.79857,Q,Q
2023-03-14 22:37:20:821,0,-5.0412,0.152368,-2.83074,Q,Q
2023-03-14 22:37:20:831,0,-5.04612,0.15716,-2.86314,Q,Q
2023-03-14 22:37:20:841,0,-5.05526,0.151552,-2.89053,Q,Q
2023-03-14 22:37:20:851,0,-5.07521,0.139909,-2.92004,Q,Q
2023-03-14 22:37:20:861,0,-5.10382,0.127744,-2.94756,Q,Q
2023-03-14 22:37:20:871,0,-5.13838,0.113949,-2.97744,Q,Q
2023-03-14 22:37:20:881,0,-5.1755,0.100217,-3.00829,Q,Q
2023-03-14 22:37:20:891,0,-5.21611,0.0882606,-3.03973,Q,Q
2023-03-14 22:37:20:901,0,-5.25728,0.0827962,-3.06534,Q,Q
2023-03-14 22:37:20:911,0,-5.29788,0.0752334,-3.09024,Q,Q
2023-03-14 22:37:20:921,0,-5.3439,0.0681797,-3.10377,Q,Q
2023-03-14 22:37:20:931,0,-5.39266,0.0600769,-3.10766,Q,Q
2023-03-14 22:37:20:941,0,-5.44168,0.0494879,-3.0959,Q,Q
2023-03-14 22:37:20:951,0,-5.48812,0.0365352,-3.07755,Q,Q
2023-03-14 22:37:20:961,0,-5.52841,0.0221322,-3.05375,Q,Q
2023-03-14 22:37:20:971,0,-5.55989,0.00995068,-3.02812,Q,Q
2023-03-14 22:37:20:981,0,-5.58569,-0.0010874,-3.00457,Q,Q
2023-03-14 22:37:20:991,0,-5.60743,-0.00373028,-2.98404,Q,Q
2023-03-14 22:37:21:1,0,-5.62966,-0.00321152,-2.97507,Q,Q
2023-03-14 22:37:21:11,0,-5.64848,0.000787261,-2.97059,Q,Q
2023-03-14 22:37:21:21,0,-5.65938,0.00238556,-2.96722,Q,Q
2023-03-14 22:37:21:31,0,-5.66197,0.00527613,-2.96935,Q,Q
2023-03-14 22:37:21:41,0,-5.65855,0.00688371,-2.97679,Q,Q
2023-03-14 22:37:21:51,0,-5.64476,0.000867102,-2.98989,Q,Q
2023-03-14 22:37:21:61,0,-5.62226,0.00111638,-3.00514,Q,Q
2023-03-14 22:37:21:71,0,-5.5911,0.0012539,-3.02554,Q,Q
2023-03-14 22:37:21:81,0,-5.55575,0.0053164,-3.05566,Q,Q
2023-03-14 22:37:21:91,0,-5.52035,0.0115954,-3.09088,Q,Q
2023-03-14 22:37:21:101,0,-5.48368,0.0242567,-3.12558,Q,Q
2023-03-14 22:37:21:111,0,-5.44629,0.0364076,-3.15727,Q,Q
2023-03-14 22:37:21:121,0,-5.40525,0.0508876,-3.17848,Q,Q
2023-03-14 22:37:21:131,0,-5.36479,0.0662208,-3.18647,Q,Q
2023-03-14 22:37:21:141,0,-5.32071,0.079119,-3.17542,Q,Q
2023-03-14 22:37:21:151,0,-5.2748,0.0906542,-3.15236,Q,Q
2023-03-14 22:37:21:161,0,-5.22719,0.0952555,-3.11947,Q,Q
2023-03-14 22:37:21:171,0,-5.17984,0.0980936,-3.07593,Q,Q
2023-03-14 22:37:21:181,0,-5.13237,0.0966453,-3.03133,Q,Q
2023-03-14 22:37:21:191,0,-5.08898,0.0920044,-2.98746,Q,Q
2023-03-14 22:37:21:201,0,-5.05026,0.0842054,-2.94573,Q,Q
2023-03-14 22:37:21:211,0,-5.02088,0.0707721,-2.90202,Q,Q
2023-03-14 22:37:21:221,0,-5.00402,0.0464852,-2.85966,Q,Q
2023-03-14 22:37:21:231,0,-5.00001,0.0113016,-2.81377,Q,Q
2023-03-14 22:37:21:241,0,-5.0106,-0.0257238,-2.77036,Q,Q
2023-03-14 22:37:21:251,0,-5.02096,-0.0625197,-2.73207,Q,Q
2023-03-14 22:37:21:261,0,-5.03402,-0.105845,-2.69278,Q,Q
2023-03-14 22:37:21:271,0,-5.0483,-0.155629,-2.64787,Q,Q
2023-03-14 22:37:21:281,0,-5.05694,-0.209765,-2.60311,Q,Q
2023-03-14 22:37:21:291,0,-5.05662,-0.266208,-2.55124,Q,Q
2023-03-14 22:37:21:301,0,-5.04667,-0.315881,-2.48554,Q,Q
2023-03-14 22:37:21:311,0,-5.03195,-0.36661,-2.40684,Q,Q
2023-03-14 22:37:21:321,0,-5.02181,-0.408,-2.3205,Q,Q
2023-03-14 22:37:21:331,0,-5.01706,-0.443435,-2.22158,Q,Q
2023-03-14 22:37:21:341,0,-5.02818,-0.472306,-2.11437,Q,Q
2023-03-14 22:37:21:351,0,-5.05188,-0.502971,-1.99744,Q,Q
2023-03-14 22:37:21:361,0,-5.08639,-0.532286,-1.8824,Q,Q
2023-03-14 22:37:21:371,0,-5.12456,-0.555905,-1.7733,Q,Q
2023-03-14 22:37:21:381,0,-5.15414,-0.580861,-1.67374,Q,Q
2023-03-14 22:37:21:391,0,-5.1806,-0.601174,-1.58155,Q,Q
2023-03-14 22:37:21:401,0,-5.20986,-0.62301,-1.49623,Q,Q
2023-03-14 22:37:21:411,0,-5.23145,-0.640273,-1.42066,Q,Q
2023-03-14 22:37:21:421,0,-5.25477,-0.658245,-1.35596,Q,Q
2023-03-14 22:37:21:431,0,-5.271,-0.673687,-1.30035,Q,Q
2023-03-14 22:37:21:441,0,-5.2863,-0.686387,-1.24567,Q,Q
2023-03-14 22:37:21:451,0,-5.30501,-0.693068,-1.20004,Q,Q
2023-03-14 22:37:21:461,0,-5.32266,-0.69243,-1.16794,Q,Q
2023-03-14 22:37:21:471,0,-5.33866,-0.686524,-1.14123,Q,Q
2023-03-14 22:37:21:481,0,-5.35071,-0.677123,-1.1213,Q,Q
2023-03-14 22:37:21:491,0,-5.36203,-0.666895,-1.10198,Q,Q
2023-03-14 22:37:21:501,0,-5.36954,-0.654134,-1.07853,Q,Q
2023-03-14 22:37:21:511,0,-5.37727,-0.63991,-1.06321,Q,Q
2023-03-14 22:37:21:521,0,-5.38568,-0.625366,-1.04701,Q,Q
2023-03-14 22:37:21:531,0,-5.39692,-0.607774,-1.03519,Q,Q
2023-03-14 22:37:21:541,0,-5.40193,-0.589623,-1.02663,Q,Q
2023-03-14 22:37:21:551,0,-5.4059,-0.573925,-1.01875,Q,Q
2023-03-14 22:37:21:561,0,-5.40467,-0.55678,-1.01414,Q,Q
2023-03-14 22:37:21:571,0,-5.39681,-0.540646,-1.01185,Q,Q
2023-03-14 22:37:21:581,0,-5.38072,-0.529653,-1.01292,Q,Q
2023-03-14 22:37:21:591,0,-5.36077,-0.524627,-1.01736,Q,Q
2023-03-14 22:37:21:601,0,-5.34096,-0.527017,-1.02033,Q,Q
2023-03-14 22:37:21:611,0,-5.3232,-0.534971,-1.01972,Q,Q
2023-03-14 22:37:21:621,0,-5.30368,-0.549514,-1.01756,Q,Q
2023-03-14 22:37:21:631,0,-5.28707,-0.562614,-1.0159,Q,Q
2023-03-14 22:37:21:641,0,-5.27441,-0.577398,-1.0088,Q,Q
2023-03-14 22:37:21:651,0,-5.26531,-0.594004,-0.994997,Q,Q
2023-03-14 22:37:21:661,0,-5.25607,-0.609458,-0.980408,Q,Q
2023-03-14 22:37:21:671,0,-5.24479,-0.614397,-0.968956,Q,Q
2023-03-14 22:37:21:681,0,-5.23761,-0.612878,-0.954524,Q,Q
2023-03-14 22:37:21:691,0,-5.23862,-0.603471,-0.933677,Q,Q
2023-03-14 22:37:21:701,0,-5.24943,-0.592667,-0.908593,Q,Q
2023-03-14 22:37:21:711,0,-5.25986,-0.578095,-0.874633,Q,Q
2023-03-14 22:37:21:721,0,-5.26296,-0.562263,-0.82902,Q,Q
2023-03-14 22:37:21:731,0,-5.26104,-0.550303,-0.775999,Q,Q
2023-03-14 22:37:21:741,0,-5.25946,-0.53951,-0.715657,Q,Q
2023-03-14 22:37:21:751,0,-5.26093,-0.532032,-0.655179,Q,Q
2023-03-14 22:37:21:761,0,-5.25839,-0.5329,-0.598518,Q,Q
2023-03-14 22:37:21:771,0,-5.26261,-0.541542,-0.548667,Q,Q
2023-03-14 22:37:21:781,0,-5.26259,-0.552409,-0.515025,Q,Q
2023-03-14 22:37:21:791,0,-5.26743,-0.562934,-0.506156,Q,Q
2023-03-14 22:37:21:801,0,-5.27087,-0.579287,-0.517658,Q,Q
2023-03-14 22:37:21:811,0,-5.27452,-0.592011,-0.544085,Q,Q
2023-03-14 22:37:21:821,0,-5.27988,-0.603918,-0.580554,Q,Q
2023-03-14 22:37:21:831,0,-5.28622,-0.612199,-0.625263,Q,Q
2023-03-14 22:37:21:841,0,-5.29398,-0.610295,-0.678829,Q,Q
2023-03-14 22:37:21:851,0,-5.30178,-0.595169,-0.734397,Q,Q
2023-03-14 22:37:21:861,0,-5.30998,-0.570171,-0.787372,Q,Q
2023-03-14 22:37:21:871,0,-5.31721,-0.534473,-0.834602,Q,Q
