Timestamp_cmd,imu_cmd,roll_delta,pitch_delta,yaw_delta,voice_type,voice_length
2023-03-14 18:14:04:534,0,-13.7819,-5.42367,62.1136,Q,Q
2023-03-14 18:14:04:542,0,-13.7999,-5.40514,62.0986,Q,Q
2023-03-14 18:14:04:552,0,-13.8096,-5.38687,62.082,Q,Q
2023-03-14 18:14:04:562,0,-13.8142,-5.37234,62.0659,Q,Q
2023-03-14 18:14:04:572,0,-13.8199,-5.36004,62.0495,Q,Q
2023-03-14 18:14:04:582,0,-13.8229,-5.34836,62.0347,Q,Q
2023-03-14 18:14:04:592,0,-13.8244,-5.34116,62.0229,Q,Q
2023-03-14 18:14:04:602,0,-13.8268,-5.3366,62.0109,Q,Q
2023-03-14 18:14:04:612,0,-13.8273,-5.33196,61.9979,Q,Q
2023-03-14 18:14:04:622,0,-13.8287,-5.33244,61.9903,Q,Q
2023-03-14 18:14:04:632,0,-13.8299,-5.33341,61.9845,Q,Q
2023-03-14 18:14:04:642,0,-13.8293,-5.33503,61.981,Q,Q
2023-03-14 18:14:04:652,0,-13.8266,-5.33743,61.9786,Q,Q
2023-03-14 18:14:04:662,0,-13.8237,-5.33872,61.9746,Q,Q
2023-03-14 18:14:04:672,0,-13.8191,-5.34066,61.9733,Q,Q
2023-03-14 18:14:04:682,0,-13.8158,-5.34429,61.9718,Q,Q
2023-03-14 18:14:04:692,0,-13.8141,-5.35003,61.9715,Q,Q
2023-03-14 18:14:04:702,0,-13.8124,-5.35901,61.9691,Q,Q
2023-03-14 18:14:04:712,0,-13.8091,-5.36696,61.9677,Q,Q
2023-03-14 18:14:04:722,0,-13.8076,-5.37343,61.9638,Q,Q
2023-03-14 18:14:04:732,0,-13.8011,-5.37936,61.9602,Q,Q
2023-03-14 18:14:04:742,0,-13.7953,-5.38807,61.9512,Q,Q
2023-03-14 18:14:04:752,0,-13.7882,-5.39184,61.9423,Q,Q
2023-03-14 18:14:04:762,0,-13.783,-5.39867,61.9277,Q,Q
2023-03-14 18:14:04:772,0,-13.7801,-5.40713,61.9121,Q,Q
2023-03-14 18:14:04:782,0,-13.7765,-5.41692,61.8995,Q,Q
2023-03-14 18:14:04:792,0,-13.7762,-5.42435,61.8834,Q,Q
2023-03-14 18:14:04:802,0,-13.7767,-5.43222,61.8685,Q,Q
2023-03-14 18:14:04:812,0,-13.7803,-5.43868,61.8557,Q,Q
2023-03-14 18:14:04:822,0,-13.7836,-5.44625,61.8436,Q,Q
2023-03-14 18:14:04:832,0,-13.7865,-5.45316,61.8306,Q,Q
2023-03-14 18:14:04:842,0,-13.7926,-5.45765,61.8251,Q,Q
2023-03-14 18:14:04:852,0,-13.8037,-5.46224,61.8222,Q,Q
2023-03-14 18:14:04:862,0,-13.8099,-5.46283,61.8197,Q,Q
2023-03-14 18:14:04:872,0,-13.8159,-5.46268,61.818,Q,Q
2023-03-14 18:14:04:882,0,-13.8226,-5.45847,61.817,Q,Q
2023-03-14 18:14:04:892,0,-13.8272,-5.45495,61.8161,Q,Q
2023-03-14 18:14:04:902,0,-13.8343,-5.45302,61.8143,Q,Q
2023-03-14 18:14:04:912,0,-13.8402,-5.44877,61.8124,Q,Q
2023-03-14 18:14:04:922,0,-13.8438,-5.44138,61.8091,Q,Q
2023-03-14 18:14:04:932,0,-13.8512,-5.43198,61.8073,Q,Q
2023-03-14 18:14:04:942,0,-13.861,-5.42107,61.8039,Q,Q
2023-03-14 18:14:04:952,0,-13.8712,-5.41216,61.7968,Q,Q
2023-03-14 18:14:04:962,0,-13.8819,-5.40665,61.7875,Q,Q
2023-03-14 18:14:04:972,0,-13.8957,-5.3973,61.7788,Q,Q
2023-03-14 18:14:04:982,0,-13.9104,-5.39153,61.7663,Q,Q
2023-03-14 18:14:04:992,0,-13.9205,-5.38806,61.7544,Q,Q
2023-03-14 18:14:05:2,0,-13.9319,-5.38555,61.7416,Q,Q
2023-03-14 18:14:05:12,0,-13.9374,-5.38266,61.7312,Q,Q
2023-03-14 18:14:05:22,0,-13.9482,-5.38152,61.7211,Q,Q
2023-03-14 18:14:05:32,0,-13.9534,-5.38181,61.7122,Q,Q
2023-03-14 18:14:05:42,0,-13.9602,-5.38121,61.7053,Q,Q
2023-03-14 18:14:05:52,0,-13.9693,-5.38104,61.7005,Q,Q
2023-03-14 18:14:05:62,0,-13.9792,-5.37994,61.6956,Q,Q
2023-03-14 18:14:05:71,0,-13.9924,-5.3782,61.6946,Q,Q
2023-03-14 18:14:05:81,0,-14.0059,-5.38099,61.6927,Q,Q
2023-03-14 18:14:05:91,0,-14.0224,-5.37985,61.6936,Q,Q
2023-03-14 18:14:05:101,0,-14.0397,-5.38019,61.697,Q,Q
2023-03-14 18:14:05:111,0,-14.0524,-5.3773,61.6981,Q,Q
2023-03-14 18:14:05:121,0,-14.0704,-5.37796,61.7044,Q,Q
2023-03-14 18:14:05:131,0,-14.0885,-5.37688,61.7117,Q,Q
2023-03-14 18:14:05:141,0,-14.1088,-5.3725,61.721,Q,Q
2023-03-14 18:14:05:151,0,-14.1323,-5.36883,61.7282,Q,Q
2023-03-14 18:14:05:161,0,-14.165,-5.35937,61.738,Q,Q
2023-03-14 18:14:05:171,0,-14.1957,-5.35094,61.7505,Q,Q
2023-03-14 18:14:05:181,0,-14.2232,-5.34491,61.7632,Q,Q
2023-03-14 18:14:05:191,0,-14.2492,-5.33615,61.7794,Q,Q
2023-03-14 18:14:05:201,0,-14.2695,-5.32326,61.7963,Q,Q
2023-03-14 18:14:05:211,0,-14.2914,-5.31299,61.8176,Q,Q
2023-03-14 18:14:05:221,0,-14.3086,-5.30547,61.8364,Q,Q
2023-03-14 18:14:05:231,0,-14.3244,-5.30225,61.8495,Q,Q
2023-03-14 18:14:05:241,0,-14.3429,-5.30005,61.8627,Q,Q
2023-03-14 18:14:05:251,0,-14.3659,-5.30465,61.8708,Q,Q
2023-03-14 18:14:05:261,0,-14.3914,-5.30868,61.878,Q,Q
2023-03-14 18:14:05:271,0,-14.4081,-5.31531,61.8809,Q,Q
2023-03-14 18:14:05:281,0,-14.4213,-5.32024,61.8846,Q,Q
2023-03-14 18:14:05:291,0,-14.4324,-5.3263,61.8856,Q,Q
2023-03-14 18:14:05:301,0,-14.4514,-5.335,61.8843,Q,Q
2023-03-14 18:14:05:312,0,-14.4795,-5.34236,61.8907,Q,Q
2023-03-14 18:14:05:322,0,-14.5144,-5.3495,61.8987,Q,Q
2023-03-14 18:14:05:332,0,-14.5571,-5.35455,61.9087,Q,Q
2023-03-14 18:14:05:342,0,-14.6108,-5.35613,61.92,Q,Q
2023-03-14 18:14:05:352,0,-14.656,-5.34481,61.9307,Q,Q
2023-03-14 18:14:05:362,0,-14.6818,-5.32161,61.9424,Q,Q
2023-03-14 18:14:05:372,0,-14.6865,-5.2943,61.9538,Q,Q
2023-03-14 18:14:05:382,0,-14.6807,-5.26814,61.9642,Q,Q
2023-03-14 18:14:05:392,0,-14.6773,-5.24249,61.9783,Q,Q
2023-03-14 18:14:05:402,0,-14.6869,-5.22341,61.9915,Q,Q
2023-03-14 18:14:05:412,0,-14.7152,-5.20767,62.0099,Q,Q
2023-03-14 18:14:05:422,0,-14.7577,-5.18933,62.0298,Q,Q
2023-03-14 18:14:05:432,0,-14.8179,-5.1644,62.0463,Q,Q
2023-03-14 18:14:05:442,0,-14.8751,-5.13517,62.0644,Q,Q
2023-03-14 18:14:05:452,0,-14.9183,-5.10252,62.0889,Q,Q
2023-03-14 18:14:05:462,0,-14.9603,-5.07285,62.1276,Q,Q
2023-03-14 18:14:05:472,0,-15.0099,-5.04624,62.1853,Q,Q
2023-03-14 18:14:05:482,0,-15.0753,-5.02599,62.2588,Q,Q
2023-03-14 18:14:05:492,0,-15.1672,-5.01079,62.3512,Q,Q
2023-03-14 18:14:05:502,0,-15.2926,-5.00467,62.4608,Q,Q
2023-03-14 18:14:05:512,0,-15.4536,-5.00788,62.5893,Q,Q
2023-03-14 18:14:05:522,0,-15.6492,-5.01481,62.7349,Q,Q
2023-03-14 18:14:05:532,0,-15.8697,-5.02486,62.8903,Q,Q
2023-03-14 18:14:05:542,0,-16.1152,-5.04063,63.0587,Q,Q
2023-03-14 18:14:05:552,0,-16.3739,-5.07581,63.2424,Q,Q
2023-03-14 18:14:05:562,0,-16.6451,-5.11972,63.4442,Q,Q
2023-03-14 18:14:05:572,0,-16.9302,-5.17651,63.6605,Q,Q
2023-03-14 18:14:05:582,0,-17.2313,-5.25146,63.8819,Q,Q
2023-03-14 18:14:05:592,0,-17.5304,-5.33899,64.0944,Q,Q
2023-03-14 18:14:05:602,0,-17.8047,-5.41889,64.2865,Q,Q
2023-03-14 18:14:05:612,0,-18.0417,-5.47762,64.4411,Q,Q
2023-03-14 18:14:05:622,0,-18.2407,-5.53468,64.5535,Q,Q
2023-03-14 18:14:05:632,0,-18.412,-5.5665,64.6362,Q,Q
2023-03-14 18:14:05:642,0,-18.5577,-5.58914,64.6939,Q,Q
2023-03-14 18:14:05:652,0,-18.691,-5.6103,64.7335,Q,Q
2023-03-14 18:14:05:662,0,-18.8116,-5.62164,64.7595,Q,Q
2023-03-14 18:14:05:672,0,-18.9065,-5.62776,64.7686,Q,Q
2023-03-14 18:14:05:682,0,-18.9806,-5.63196,64.7649,Q,Q
2023-03-14 18:14:05:692,0,-19.0413,-5.6327,64.7509,Q,Q
2023-03-14 18:14:05:702,0,-19.0898,-5.62747,64.736,Q,Q
2023-03-14 18:14:05:712,0,-19.1206,-5.6225,64.719,Q,Q
2023-03-14 18:14:05:722,0,-19.1411,-5.61405,64.7062,Q,Q
2023-03-14 18:14:05:732,0,-19.1665,-5.60638,64.7038,Q,Q
2023-03-14 18:14:05:742,0,-19.2074,-5.59986,64.7101,Q,Q
2023-03-14 18:14:05:752,0,-19.2627,-5.59301,64.7269,Q,Q
2023-03-14 18:14:05:762,0,-19.3234,-5.58628,64.7465,Q,Q
2023-03-14 18:14:05:772,0,-19.3891,-5.57857,64.7642,Q,Q
2023-03-14 18:14:05:782,0,-19.4554,-5.56915,64.7853,Q,Q
2023-03-14 18:14:05:792,0,-19.5222,-5.55848,64.8107,Q,Q
2023-03-14 18:14:05:802,0,-19.5974,-5.54785,64.8379,Q,Q
2023-03-14 18:14:05:812,0,-19.6797,-5.5381,64.8661,Q,Q
2023-03-14 18:14:05:822,0,-19.7675,-5.53203,64.8983,Q,Q
2023-03-14 18:14:05:832,0,-19.8685,-5.52238,64.9339,Q,Q
2023-03-14 18:14:05:842,0,-19.9721,-5.51146,64.9681,Q,Q
2023-03-14 18:14:05:852,0,-20.0685,-5.50197,64.9937,Q,Q
2023-03-14 18:14:05:862,0,-20.1574,-5.49235,65.0077,Q,Q
2023-03-14 18:14:05:872,0,-20.2288,-5.48639,65.0146,Q,Q
2023-03-14 18:14:05:882,0,-20.2841,-5.48202,65.0131,Q,Q
2023-03-14 18:14:05:892,0,-20.3321,-5.48889,65.0058,Q,Q
2023-03-14 18:14:05:902,0,-20.3797,-5.50299,64.9967,Q,Q
2023-03-14 18:14:05:912,0,-20.4218,-5.5208,64.9808,Q,Q
2023-03-14 18:14:05:922,0,-20.4585,-5.53871,64.9587,Q,Q
2023-03-14 18:14:05:932,0,-20.487,-5.55023,64.9265,Q,Q
2023-03-14 18:14:05:942,0,-20.5157,-5.56092,64.8913,Q,Q
2023-03-14 18:14:05:952,0,-20.5425,-5.56466,64.8614,Q,Q
2023-03-14 18:14:05:962,0,-20.5733,-5.56899,64.8343,Q,Q
2023-03-14 18:14:05:972,0,-20.608,-5.57353,64.8149,Q,Q
2023-03-14 18:14:05:982,0,-20.6466,-5.57995,64.7998,Q,Q
2023-03-14 18:14:05:992,0,-20.689,-5.58306,64.7886,Q,Q
2023-03-14 18:14:06:2,0,-20.7311,-5.58641,64.7832,Q,Q
2023-03-14 18:14:06:12,0,-20.7767,-5.58901,64.7859,Q,Q
2023-03-14 18:14:06:22,0,-20.8202,-5.58719,64.7921,Q,Q
2023-03-14 18:14:06:32,0,-20.8466,-5.58321,64.797,Q,Q
2023-03-14 18:14:06:42,0,-20.8617,-5.57253,64.8035,Q,Q
2023-03-14 18:14:06:52,0,-20.8736,-5.56215,64.8168,Q,Q
2023-03-14 18:14:06:62,0,-20.8897,-5.54638,64.8295,Q,Q
2023-03-14 18:14:06:72,0,-20.9124,-5.53183,64.8484,Q,Q
2023-03-14 18:14:06:82,0,-20.9402,-5.51875,64.869,Q,Q
2023-03-14 18:14:06:92,0,-20.9738,-5.50403,64.888,Q,Q
2023-03-14 18:14:06:102,0,-20.9971,-5.50107,64.9025,Q,Q
2023-03-14 18:14:06:112,0,-21.0044,-5.50106,64.9164,Q,Q
2023-03-14 18:14:06:122,0,-20.9983,-5.50989,64.9242,Q,Q
2023-03-14 18:14:06:132,0,-20.9814,-5.52033,64.925,Q,Q
2023-03-14 18:14:06:142,0,-20.9583,-5.5357,64.9219,Q,Q
2023-03-14 18:14:06:152,0,-20.9376,-5.56009,64.9126,Q,Q
2023-03-14 18:14:06:162,0,-20.9115,-5.59035,64.9014,Q,Q
2023-03-14 18:14:06:172,0,-20.875,-5.61644,64.878,Q,Q
2023-03-14 18:14:06:182,0,-20.8332,-5.64373,64.8462,Q,Q
2023-03-14 18:14:06:192,0,-20.7775,-5.67149,64.812,Q,Q
2023-03-14 18:14:06:202,0,-20.7102,-5.69211,64.7766,Q,Q
2023-03-14 18:14:06:212,0,-20.6308,-5.71365,64.7447,Q,Q
2023-03-14 18:14:06:222,0,-20.54,-5.73516,64.7145,Q,Q
2023-03-14 18:14:06:232,0,-20.4348,-5.75203,64.6838,Q,Q
2023-03-14 18:14:06:242,0,-20.3178,-5.76339,64.661,Q,Q
2023-03-14 18:14:06:252,0,-20.1921,-5.77673,64.641,Q,Q
2023-03-14 18:14:06:262,0,-20.068,-5.78738,64.6248,Q,Q
2023-03-14 18:14:06:272,0,-19.9411,-5.79297,64.6058,Q,Q
2023-03-14 18:14:06:282,0,-19.819,-5.79887,64.5814,Q,Q
2023-03-14 18:14:06:292,0,-19.698,-5.80267,64.5609,Q,Q
2023-03-14 18:14:06:302,0,-19.5716,-5.80296,64.5351,Q,Q
2023-03-14 18:14:06:312,0,-19.4463,-5.79808,64.5114,Q,Q
2023-03-14 18:14:06:322,0,-19.3149,-5.79505,64.483,Q,Q
2023-03-14 18:14:06:332,0,-19.1877,-5.79167,64.4558,Q,Q
2023-03-14 18:14:06:342,0,-19.0709,-5.78602,64.4316,Q,Q
2023-03-14 18:14:06:352,0,-18.9595,-5.78047,64.4123,Q,Q
2023-03-14 18:14:06:362,0,-18.8503,-5.77546,64.3949,Q,Q
2023-03-14 18:14:06:372,0,-18.7451,-5.77032,64.3827,Q,Q
2023-03-14 18:14:06:382,0,-18.6413,-5.76343,64.3697,Q,Q
2023-03-14 18:14:06:392,0,-18.5419,-5.75512,64.3554,Q,Q
2023-03-14 18:14:06:402,0,-18.4437,-5.74383,64.3418,Q,Q
2023-03-14 18:14:06:412,0,-18.3428,-5.73441,64.3247,Q,Q
2023-03-14 18:14:06:422,0,-18.2488,-5.7215,64.313,Q,Q
2023-03-14 18:14:06:432,0,-18.1555,-5.71078,64.3045,Q,Q
2023-03-14 18:14:06:442,0,-18.0672,-5.70026,64.296,Q,Q
2023-03-14 18:14:06:452,0,-17.9798,-5.6934,64.2893,Q,Q
2023-03-14 18:14:06:462,0,-17.8982,-5.6844,64.2859,Q,Q
2023-03-14 18:14:06:472,0,-17.8257,-5.67442,64.2807,Q,Q
2023-03-14 18:14:06:482,0,-17.7528,-5.66054,64.281,Q,Q
2023-03-14 18:14:06:492,0,-17.6819,-5.64861,64.2833,Q,Q
2023-03-14 18:14:06:502,0,-17.6104,-5.63572,64.2905,Q,Q
2023-03-14 18:14:06:512,0,-17.5347,-5.62005,64.2984,Q,Q
2023-03-14 18:14:06:522,0,-17.4671,-5.60248,64.3092,Q,Q
2023-03-14 18:14:06:532,0,-17.4028,-5.58916,64.3228,Q,Q
2023-03-14 18:14:06:542,0,-17.3446,-5.57356,64.3426,Q,Q
2023-03-14 18:14:06:552,0,-17.2917,-5.55763,64.363,Q,Q
2023-03-14 18:14:06:562,0,-17.2341,-5.54486,64.3864,Q,Q
2023-03-14 18:14:06:572,0,-17.1733,-5.53268,64.4109,Q,Q
2023-03-14 18:14:06:582,0,-17.1112,-5.52294,64.4401,Q,Q
2023-03-14 18:14:06:592,0,-17.0465,-5.51475,64.4742,Q,Q
2023-03-14 18:14:06:602,0,-16.981,-5.51007,64.5079,Q,Q
2023-03-14 18:14:06:612,0,-16.9216,-5.50737,64.552,Q,Q
2023-03-14 18:14:06:622,0,-16.8632,-5.50344,64.5895,Q,Q
2023-03-14 18:14:06:632,0,-16.8081,-5.49229,64.6292,Q,Q
2023-03-14 18:14:06:642,0,-16.7535,-5.48432,64.6654,Q,Q
2023-03-14 18:14:06:652,0,-16.7021,-5.47214,64.7036,Q,Q
2023-03-14 18:14:06:662,0,-16.6476,-5.45734,64.7431,Q,Q
2023-03-14 18:14:06:672,0,-16.5915,-5.44595,64.7814,Q,Q
2023-03-14 18:14:06:682,0,-16.5339,-5.43558,64.8177,Q,Q
2023-03-14 18:14:06:692,0,-16.4769,-5.42922,64.8546,Q,Q
2023-03-14 18:14:06:702,0,-16.4188,-5.42552,64.8899,Q,Q
2023-03-14 18:14:06:712,0,-16.3577,-5.4218,64.925,Q,Q
2023-03-14 18:14:06:722,0,-16.2965,-5.41889,64.9576,Q,Q
2023-03-14 18:14:06:732,0,-16.2345,-5.4121,64.9842,Q,Q
2023-03-14 18:14:06:742,0,-16.1681,-5.40802,65.0108,Q,Q
2023-03-14 18:14:06:752,0,-16.0992,-5.40599,65.034,Q,Q
2023-03-14 18:14:06:762,0,-16.038,-5.40848,65.0614,Q,Q
2023-03-14 18:14:06:772,0,-15.9841,-5.41665,65.0891,Q,Q
2023-03-14 18:14:06:782,0,-15.9418,-5.42599,65.1111,Q,Q
2023-03-14 18:14:06:792,0,-15.9068,-5.43564,65.1339,Q,Q
2023-03-14 18:14:06:802,0,-15.8773,-5.44772,65.154,Q,Q
2023-03-14 18:14:06:812,0,-15.856,-5.46192,65.1753,Q,Q
2023-03-14 18:14:06:822,0,-15.8479,-5.47582,65.1908,Q,Q
2023-03-14 18:14:06:832,0,-15.8459,-5.48279,65.205,Q,Q
2023-03-14 18:14:06:842,0,-15.8564,-5.49603,65.2171,Q,Q
2023-03-14 18:14:06:852,0,-15.8729,-5.5103,65.2246,Q,Q
2023-03-14 18:14:06:862,0,-15.8997,-5.52895,65.2223,Q,Q
2023-03-14 18:14:06:872,0,-15.9344,-5.55497,65.2205,Q,Q
2023-03-14 18:14:06:882,0,-15.9809,-5.5851,65.212,Q,Q
2023-03-14 18:14:06:892,0,-16.0351,-5.61363,65.1988,Q,Q
2023-03-14 18:14:06:902,0,-16.0875,-5.63465,65.1744,Q,Q
2023-03-14 18:14:06:912,0,-16.1263,-5.64555,65.1366,Q,Q
2023-03-14 18:14:06:922,0,-16.1435,-5.63806,65.0749,Q,Q
2023-03-14 18:14:06:932,0,-16.1358,-5.61174,64.9898,Q,Q
2023-03-14 18:14:06:942,0,-16.1142,-5.57041,64.8857,Q,Q
2023-03-14 18:14:06:952,0,-16.0916,-5.52866,64.7697,Q,Q
2023-03-14 18:14:06:962,0,-16.0856,-5.4836,64.6505,Q,Q
2023-03-14 18:14:06:972,0,-16.0969,-5.44357,64.5288,Q,Q
2023-03-14 18:14:06:982,0,-16.1248,-5.41171,64.4132,Q,Q
2023-03-14 18:14:06:992,0,-16.1682,-5.38957,64.3106,Q,Q
2023-03-14 18:14:07:2,0,-16.2324,-5.38511,64.2218,Q,Q
2023-03-14 18:14:07:12,0,-16.3174,-5.40111,64.1563,Q,Q
2023-03-14 18:14:07:22,0,-16.428,-5.44321,64.1161,Q,Q
2023-03-14 18:14:07:32,0,-16.5478,-5.50327,64.1072,Q,Q
2023-03-14 18:14:07:42,0,-16.6627,-5.57279,64.1224,Q,Q
2023-03-14 18:14:07:52,0,-16.7596,-5.66167,64.1571,Q,Q
2023-03-14 18:14:07:62,0,-16.8363,-5.75579,64.2137,Q,Q
2023-03-14 18:14:07:72,0,-16.8828,-5.84757,64.2829,Q,Q
2023-03-14 18:14:07:82,0,-16.9001,-5.93746,64.3628,Q,Q
2023-03-14 18:14:07:92,0,-16.8938,-6.02416,64.4433,Q,Q
2023-03-14 18:14:07:102,0,-16.8704,-6.10391,64.5238,Q,Q
2023-03-14 18:14:07:112,0,-16.8374,-6.18614,64.6011,Q,Q
2023-03-14 18:14:07:122,0,-16.8049,-6.27409,64.6857,Q,Q
2023-03-14 18:14:07:132,0,-16.77,-6.36053,64.765,Q,Q
2023-03-14 18:14:07:142,0,-16.7283,-6.44964,64.833,Q,Q
2023-03-14 18:14:07:152,0,-16.6825,-6.52903,64.8896,Q,Q
2023-03-14 18:14:07:162,0,-16.6347,-6.59736,64.9297,Q,Q
2023-03-14 18:14:07:172,0,-16.5807,-6.64364,64.9479,Q,Q
2023-03-14 18:14:07:182,0,-16.5249,-6.67856,64.9494,Q,Q
2023-03-14 18:14:07:192,0,-16.4694,-6.70498,64.9396,Q,Q
2023-03-14 18:14:07:202,0,-16.4149,-6.72863,64.9279,Q,Q
2023-03-14 18:14:07:212,0,-16.3589,-6.75921,64.915,Q,Q
2023-03-14 18:14:07:222,0,-16.3017,-6.79318,64.9029,Q,Q
2023-03-14 18:14:07:232,0,-16.2464,-6.81913,64.8787,Q,Q
2023-03-14 18:14:07:242,0,-16.1812,-6.83325,64.8438,Q,Q
2023-03-14 18:14:07:252,0,-16.1108,-6.84782,64.7907,Q,Q
2023-03-14 18:14:07:262,0,-16.0461,-6.85708,64.7342,Q,Q
2023-03-14 18:14:07:272,0,-15.9979,-6.85589,64.6766,Q,Q
2023-03-14 18:14:07:282,0,-15.9608,-6.84466,64.6297,Q,Q
2023-03-14 18:14:07:292,0,-15.9251,-6.83666,64.5911,Q,Q
2023-03-14 18:14:07:302,0,-15.8978,-6.83574,64.5613,Q,Q
2023-03-14 18:14:07:312,0,-15.8749,-6.83814,64.5465,Q,Q
2023-03-14 18:14:07:322,0,-15.857,-6.84347,64.5427,Q,Q
2023-03-14 18:14:07:332,0,-15.827,-6.8502,64.5429,Q,Q
2023-03-14 18:14:07:342,0,-15.7893,-6.85375,64.5338,Q,Q
2023-03-14 18:14:07:352,0,-15.7508,-6.85975,64.5144,Q,Q
2023-03-14 18:14:07:362,0,-15.7175,-6.87627,64.4963,Q,Q
2023-03-14 18:14:07:372,0,-15.6926,-6.90443,64.4846,Q,Q
2023-03-14 18:14:07:382,0,-15.6722,-6.94882,64.4837,Q,Q
2023-03-14 18:14:07:392,0,-15.653,-7.01428,64.5093,Q,Q
2023-03-14 18:14:07:402,0,-15.6462,-7.10491,64.5624,Q,Q
2023-03-14 18:14:07:412,0,-15.6468,-7.18556,64.6423,Q,Q
2023-03-14 18:14:07:422,0,-15.6422,-7.26025,64.7369,Q,Q
2023-03-14 18:14:07:432,0,-15.6391,-7.34148,64.8414,Q,Q
2023-03-14 18:14:07:442,0,-15.6417,-7.43004,64.9574,Q,Q
2023-03-14 18:14:07:452,0,-15.6502,-7.50417,65.0801,Q,Q
2023-03-14 18:14:07:462,0,-15.6499,-7.56615,65.2036,Q,Q
2023-03-14 18:14:07:472,0,-15.6352,-7.61778,65.3181,Q,Q
2023-03-14 18:14:07:482,0,-15.6069,-7.65897,65.4317,Q,Q
2023-03-14 18:14:07:492,0,-15.5768,-7.68226,65.5417,Q,Q
2023-03-14 18:14:07:502,0,-15.5424,-7.69513,65.6399,Q,Q
2023-03-14 18:14:07:512,0,-15.5017,-7.70375,65.7291,Q,Q
2023-03-14 18:14:07:522,0,-15.4604,-7.70684,65.8167,Q,Q
2023-03-14 18:14:07:532,0,-15.431,-7.70934,65.8935,Q,Q
2023-03-14 18:14:07:542,0,-15.4243,-7.71233,65.9553,Q,Q
2023-03-14 18:14:07:552,0,-15.4326,-7.71706,65.996,Q,Q
2023-03-14 18:14:07:562,0,-15.4462,-7.71245,66.013,Q,Q
2023-03-14 18:14:07:572,0,-15.4522,-7.67783,66.0053,Q,Q
2023-03-14 18:14:07:582,0,-15.4356,-7.61994,65.9686,Q,Q
2023-03-14 18:14:07:592,0,-15.3967,-7.55673,65.9113,Q,Q
2023-03-14 18:14:07:602,0,-15.3577,-7.49455,65.8448,Q,Q
2023-03-14 18:14:07:612,0,-15.3255,-7.4159,65.7668,Q,Q
2023-03-14 18:14:07:622,0,-15.2846,-7.32401,65.6752,Q,Q
2023-03-14 18:14:07:632,0,-15.2504,-7.23717,65.5761,Q,Q
2023-03-14 18:14:07:642,0,-15.2257,-7.15301,65.4822,Q,Q
2023-03-14 18:14:07:652,0,-15.209,-7.06415,65.4024,Q,Q
2023-03-14 18:14:07:662,0,-15.1924,-6.9665,65.3213,Q,Q
2023-03-14 18:14:07:672,0,-15.1686,-6.86525,65.2214,Q,Q
2023-03-14 18:14:07:682,0,-15.1483,-6.76562,65.1061,Q,Q
2023-03-14 18:14:07:692,0,-15.1291,-6.67622,64.9951,Q,Q
2023-03-14 18:14:07:702,0,-15.1011,-6.60096,64.8938,Q,Q
2023-03-14 18:14:07:712,0,-15.0651,-6.54163,64.7988,Q,Q
2023-03-14 18:14:07:722,0,-15.0289,-6.49498,64.7137,Q,Q
2023-03-14 18:14:07:732,0,-15.0024,-6.46471,64.6416,Q,Q
2023-03-14 18:14:07:742,0,-14.9839,-6.44065,64.5716,Q,Q
2023-03-14 18:14:07:752,0,-14.9725,-6.42596,64.5011,Q,Q
2023-03-14 18:14:07:762,0,-14.9645,-6.41511,64.4265,Q,Q
2023-03-14 18:14:07:772,0,-14.9543,-6.39992,64.3458,Q,Q
2023-03-14 18:14:07:782,0,-14.94,-6.38635,64.2589,Q,Q
2023-03-14 18:14:07:792,0,-14.9121,-6.36933,64.1698,Q,Q
2023-03-14 18:14:07:802,0,-14.8858,-6.35558,64.0844,Q,Q
2023-03-14 18:14:07:812,0,-14.8697,-6.34765,64.0095,Q,Q
2023-03-14 18:14:07:822,0,-14.8657,-6.3477,63.9419,Q,Q
2023-03-14 18:14:07:832,0,-14.8785,-6.35502,63.8872,Q,Q
2023-03-14 18:14:07:842,0,-14.8981,-6.36984,63.8502,Q,Q
2023-03-14 18:14:07:852,0,-14.9128,-6.38547,63.8333,Q,Q
2023-03-14 18:14:07:862,0,-14.9286,-6.40146,63.8305,Q,Q
2023-03-14 18:14:07:872,0,-14.9385,-6.41568,63.8471,Q,Q
2023-03-14 18:14:07:882,0,-14.9397,-6.4271,63.8784,Q,Q
2023-03-14 18:14:07:892,0,-14.9378,-6.44341,63.9323,Q,Q
2023-03-14 18:14:07:902,0,-14.9361,-6.46677,64.0047,Q,Q
2023-03-14 18:14:07:912,0,-14.9366,-6.48885,64.0878,Q,Q
2023-03-14 18:14:07:922,0,-14.9431,-6.51527,64.1699,Q,Q
2023-03-14 18:14:07:932,0,-14.9559,-6.54845,64.2511,Q,Q
2023-03-14 18:14:07:942,0,-14.9802,-6.57839,64.3262,Q,Q
2023-03-14 18:14:07:952,0,-15.0106,-6.6009,64.3904,Q,Q
2023-03-14 18:14:07:962,0,-15.0363,-6.62644,64.4319,Q,Q
2023-03-14 18:14:07:972,0,-15.0544,-6.65159,64.465,Q,Q
2023-03-14 18:14:07:982,0,-15.0727,-6.68476,64.4846,Q,Q
2023-03-14 18:14:07:992,0,-15.0918,-6.72759,64.4864,Q,Q
2023-03-14 18:14:08:2,0,-15.1115,-6.7858,64.4866,Q,Q
2023-03-14 18:14:08:12,0,-15.1357,-6.86957,64.4893,Q,Q
2023-03-14 18:14:08:22,0,-15.1593,-6.97482,64.5094,Q,Q
2023-03-14 18:14:08:32,0,-15.1877,-7.09762,64.5468,Q,Q
2023-03-14 18:14:08:42,0,-15.214,-7.22696,64.598,Q,Q
2023-03-14 18:14:08:52,0,-15.2327,-7.35234,64.6586,Q,Q
2023-03-14 18:14:08:62,0,-15.2444,-7.47513,64.7351,Q,Q
2023-03-14 18:14:08:72,0,-15.2393,-7.58357,64.8264,Q,Q
2023-03-14 18:14:08:82,0,-15.2186,-7.6709,64.924,Q,Q
2023-03-14 18:14:08:92,0,-15.1865,-7.7357,65.0166,Q,Q
2023-03-14 18:14:08:102,0,-15.1497,-7.76709,65.1032,Q,Q
2023-03-14 18:14:08:112,0,-15.1113,-7.77746,65.1802,Q,Q
2023-03-14 18:14:08:122,0,-15.0688,-7.77264,65.2393,Q,Q
2023-03-14 18:14:08:132,0,-15.029,-7.7559,65.2792,Q,Q
2023-03-14 18:14:08:142,0,-14.9972,-7.7399,65.306,Q,Q
2023-03-14 18:14:08:152,0,-14.9767,-7.73073,65.3274,Q,Q
2023-03-14 18:14:08:162,0,-14.9605,-7.73388,65.3412,Q,Q
2023-03-14 18:14:08:172,0,-14.9437,-7.74056,65.3508,Q,Q
2023-03-14 18:14:08:182,0,-14.9274,-7.74804,65.3559,Q,Q
2023-03-14 18:14:08:192,0,-14.906,-7.74968,65.3624,Q,Q
2023-03-14 18:14:08:202,0,-14.8836,-7.74367,65.3608,Q,Q
2023-03-14 18:14:08:212,0,-14.8607,-7.72359,65.3474,Q,Q
2023-03-14 18:14:08:222,0,-14.8337,-7.69595,65.3235,Q,Q
2023-03-14 18:14:08:232,0,-14.8076,-7.66441,65.2973,Q,Q
2023-03-14 18:14:08:242,0,-14.78,-7.63408,65.2712,Q,Q
2023-03-14 18:14:08:252,0,-14.7564,-7.60428,65.2515,Q,Q
2023-03-14 18:14:08:262,0,-14.7375,-7.58223,65.2376,Q,Q
2023-03-14 18:14:08:272,0,-14.7212,-7.56308,65.2255,Q,Q
2023-03-14 18:14:08:282,0,-14.7112,-7.54485,65.2167,Q,Q
2023-03-14 18:14:08:292,0,-14.7016,-7.52479,65.2116,Q,Q
2023-03-14 18:14:08:302,0,-14.6902,-7.49026,65.2029,Q,Q
2023-03-14 18:14:08:312,0,-14.668,-7.44817,65.1834,Q,Q
2023-03-14 18:14:08:322,0,-14.6408,-7.39984,65.1575,Q,Q
2023-03-14 18:14:08:332,0,-14.6059,-7.33895,65.1259,Q,Q
2023-03-14 18:14:08:342,0,-14.5677,-7.2713,65.0883,Q,Q
2023-03-14 18:14:08:352,0,-14.5217,-7.19795,65.0484,Q,Q
2023-03-14 18:14:08:362,0,-14.4792,-7.12393,65.0003,Q,Q
2023-03-14 18:14:08:372,0,-14.4421,-7.04858,64.945,Q,Q
2023-03-14 18:14:08:382,0,-14.4091,-6.97416,64.8843,Q,Q
2023-03-14 18:14:08:392,0,-14.3797,-6.90131,64.8171,Q,Q
2023-03-14 18:14:08:402,0,-14.3566,-6.82212,64.741,Q,Q
2023-03-14 18:14:08:412,0,-14.3338,-6.74222,64.6635,Q,Q
2023-03-14 18:14:08:422,0,-14.3053,-6.66214,64.5851,Q,Q
2023-03-14 18:14:08:432,0,-14.2708,-6.57903,64.5097,Q,Q
2023-03-14 18:14:08:442,0,-14.236,-6.49605,64.4357,Q,Q
2023-03-14 18:14:08:452,0,-14.2018,-6.41569,64.3685,Q,Q
2023-03-14 18:14:08:462,0,-14.1731,-6.33999,64.3029,Q,Q
2023-03-14 18:14:08:472,0,-14.1483,-6.26422,64.2422,Q,Q
2023-03-14 18:14:08:482,0,-14.1267,-6.19038,64.1777,Q,Q
2023-03-14 18:14:08:492,0,-14.1083,-6.1213,64.1108,Q,Q
2023-03-14 18:14:08:502,0,-14.102,-6.05393,64.0404,Q,Q
2023-03-14 18:14:08:512,0,-14.1011,-5.9885,63.9617,Q,Q
2023-03-14 18:14:08:522,0,-14.104,-5.92925,63.8814,Q,Q
2023-03-14 18:14:08:532,0,-14.1164,-5.87817,63.8086,Q,Q
2023-03-14 18:14:08:542,0,-14.1338,-5.83644,63.7445,Q,Q
2023-03-14 18:14:08:552,0,-14.1551,-5.79741,63.6825,Q,Q
2023-03-14 18:14:08:562,0,-14.1724,-5.76054,63.6182,Q,Q
2023-03-14 18:14:08:572,0,-14.1783,-5.72272,63.5574,Q,Q
2023-03-14 18:14:08:582,0,-14.1768,-5.68292,63.4931,Q,Q
2023-03-14 18:14:08:592,0,-14.1602,-5.64276,63.4239,Q,Q
2023-03-14 18:14:08:602,0,-14.139,-5.61693,63.3566,Q,Q
2023-03-14 18:14:08:612,0,-14.1197,-5.61136,63.2898,Q,Q
2023-03-14 18:14:08:622,0,-14.1093,-5.6153,63.2311,Q,Q
2023-03-14 18:14:08:632,0,-14.0978,-5.6272,63.1723,Q,Q
2023-03-14 18:14:08:642,0,-14.0862,-5.64569,63.1133,Q,Q
2023-03-14 18:14:08:652,0,-14.0769,-5.66985,63.0507,Q,Q
2023-03-14 18:14:08:662,0,-14.0747,-5.6956,62.9969,Q,Q
2023-03-14 18:14:08:672,0,-14.0872,-5.7231,62.9527,Q,Q
2023-03-14 18:14:08:682,0,-14.098,-5.74293,62.9127,Q,Q
2023-03-14 18:14:08:692,0,-14.1026,-5.76538,62.8783,Q,Q
2023-03-14 18:14:08:702,0,-14.1105,-5.79014,62.8479,Q,Q
2023-03-14 18:14:08:712,0,-14.1183,-5.80718,62.8353,Q,Q
2023-03-14 18:14:08:722,0,-14.121,-5.82618,62.8217,Q,Q
2023-03-14 18:14:08:732,0,-14.1254,-5.8475,62.8118,Q,Q
2023-03-14 18:14:08:742,0,-14.1249,-5.86522,62.7996,Q,Q
2023-03-14 18:14:08:752,0,-14.1256,-5.87467,62.7801,Q,Q
2023-03-14 18:14:08:762,0,-14.1259,-5.8794,62.7563,Q,Q
2023-03-14 18:14:08:772,0,-14.1327,-5.88046,62.7262,Q,Q
2023-03-14 18:14:08:782,0,-14.1517,-5.87507,62.6885,Q,Q
2023-03-14 18:14:08:792,0,-14.1744,-5.85564,62.64,Q,Q
2023-03-14 18:14:08:802,0,-14.203,-5.82698,62.5862,Q,Q
2023-03-14 18:14:08:812,0,-14.236,-5.78143,62.5214,Q,Q
2023-03-14 18:14:08:822,0,-14.2734,-5.73075,62.4492,Q,Q
2023-03-14 18:14:08:832,0,-14.3116,-5.67308,62.3678,Q,Q
2023-03-14 18:14:08:842,0,-14.3451,-5.61388,62.2781,Q,Q
2023-03-14 18:14:08:852,0,-14.3805,-5.55899,62.1824,Q,Q
2023-03-14 18:14:08:862,0,-14.4102,-5.50426,62.0724,Q,Q
2023-03-14 18:14:08:872,0,-14.4316,-5.45469,61.9525,Q,Q
2023-03-14 18:14:08:882,0,-14.4483,-5.40252,61.8302,Q,Q
2023-03-14 18:14:08:892,0,-14.4643,-5.34978,61.7141,Q,Q
2023-03-14 18:14:08:902,0,-14.4793,-5.3021,61.5955,Q,Q
2023-03-14 18:14:08:912,0,-14.4915,-5.25082,61.4843,Q,Q
2023-03-14 18:14:08:922,0,-14.5057,-5.19665,61.3808,Q,Q
2023-03-14 18:14:08:932,0,-14.5168,-5.13773,61.2846,Q,Q
2023-03-14 18:14:08:942,0,-14.5258,-5.07058,61.192,Q,Q
2023-03-14 18:14:08:952,0,-14.5291,-4.99589,61.0992,Q,Q
2023-03-14 18:14:08:962,0,-14.5309,-4.91301,61.0016,Q,Q
2023-03-14 18:14:08:972,0,-14.5309,-4.83205,60.9017,Q,Q
2023-03-14 18:14:08:982,0,-14.5386,-4.7616,60.8035,Q,Q
2023-03-14 18:14:08:992,0,-14.5507,-4.71247,60.7182,Q,Q
2023-03-14 18:14:09:2,0,-14.5701,-4.69773,60.6519,Q,Q
2023-03-14 18:14:09:12,0,-14.5909,-4.7139,60.6132,Q,Q
2023-03-14 18:14:09:22,0,-14.6122,-4.75152,60.5986,Q,Q
2023-03-14 18:14:09:32,0,-14.6355,-4.7972,60.6005,Q,Q
2023-03-14 18:14:09:42,0,-14.6435,-4.82755,60.6086,Q,Q
2023-03-14 18:14:09:52,0,-14.6379,-4.84084,60.614,Q,Q
2023-03-14 18:14:09:62,0,-14.6265,-4.83842,60.6143,Q,Q
2023-03-14 18:14:09:72,0,-14.6049,-4.82028,60.6064,Q,Q
2023-03-14 18:14:09:82,0,-14.5873,-4.79878,60.5894,Q,Q
2023-03-14 18:14:09:92,0,-14.5697,-4.78126,60.5668,Q,Q
2023-03-14 18:14:09:102,0,-14.5476,-4.76185,60.5414,Q,Q
2023-03-14 18:14:09:112,0,-14.5231,-4.75069,60.5101,Q,Q
2023-03-14 18:14:09:122,0,-14.4968,-4.74273,60.4754,Q,Q
2023-03-14 18:14:09:132,0,-14.475,-4.73542,60.4403,Q,Q
2023-03-14 18:14:09:142,0,-14.4619,-4.74097,60.4012,Q,Q
2023-03-14 18:14:09:152,0,-14.4544,-4.75344,60.3545,Q,Q
2023-03-14 18:14:09:162,0,-14.4549,-4.7724,60.3113,Q,Q
2023-03-14 18:14:09:172,0,-14.4622,-4.80004,60.268,Q,Q
2023-03-14 18:14:09:182,0,-14.4702,-4.83016,60.2244,Q,Q
2023-03-14 18:14:09:192,0,-14.4736,-4.86136,60.1857,Q,Q
2023-03-14 18:14:09:202,0,-14.4784,-4.89288,60.1504,Q,Q
2023-03-14 18:14:09:212,0,-14.4772,-4.92724,60.1147,Q,Q
2023-03-14 18:14:09:222,0,-14.4727,-4.95997,60.0807,Q,Q
2023-03-14 18:14:09:232,0,-14.4659,-4.98879,60.048,Q,Q
2023-03-14 18:14:09:242,0,-14.4528,-5.01075,60.0179,Q,Q
2023-03-14 18:14:09:252,0,-14.4396,-5.037,59.9875,Q,Q
2023-03-14 18:14:09:262,0,-14.424,-5.06495,59.9569,Q,Q
2023-03-14 18:14:09:272,0,-14.4053,-5.08361,59.9282,Q,Q
2023-03-14 18:14:09:282,0,-14.3844,-5.10686,59.9027,Q,Q
2023-03-14 18:14:09:292,0,-14.365,-5.13585,59.8831,Q,Q
2023-03-14 18:14:09:302,0,-14.3512,-5.16397,59.8701,Q,Q
2023-03-14 18:14:09:312,0,-14.3467,-5.19905,59.8614,Q,Q
2023-03-14 18:14:09:322,0,-14.3471,-5.23278,59.8561,Q,Q
2023-03-14 18:14:09:332,0,-14.3455,-5.26614,59.8579,Q,Q
2023-03-14 18:14:09:342,0,-14.3433,-5.29616,59.8662,Q,Q
2023-03-14 18:14:09:352,0,-14.3437,-5.32534,59.8774,Q,Q
2023-03-14 18:14:09:362,0,-14.3477,-5.35458,59.8962,Q,Q
2023-03-14 18:14:09:372,0,-14.3511,-5.38464,59.9175,Q,Q
2023-03-14 18:14:09:382,0,-14.3497,-5.40208,59.9373,Q,Q
2023-03-14 18:14:09:392,0,-14.3459,-5.4273,59.9581,Q,Q
2023-03-14 18:14:09:402,0,-14.3487,-5.44783,59.9859,Q,Q
2023-03-14 18:14:09:412,0,-14.3536,-5.46915,60.0078,Q,Q
2023-03-14 18:14:09:422,0,-14.3547,-5.49493,60.0335,Q,Q
2023-03-14 18:14:09:432,0,-14.3541,-5.52065,60.0566,Q,Q
2023-03-14 18:14:09:442,0,-14.3554,-5.54515,60.0793,Q,Q
2023-03-14 18:14:09:452,0,-14.3544,-5.5703,60.1018,Q,Q
2023-03-14 18:14:09:462,0,-14.3509,-5.59394,60.1216,Q,Q
2023-03-14 18:14:09:472,0,-14.344,-5.61177,60.1373,Q,Q
2023-03-14 18:14:09:482,0,-14.3358,-5.63455,60.1544,Q,Q
2023-03-14 18:14:09:492,0,-14.333,-5.65002,60.1727,Q,Q
2023-03-14 18:14:09:502,0,-14.3299,-5.66543,60.1853,Q,Q
2023-03-14 18:14:09:512,0,-14.3275,-5.68153,60.1991,Q,Q
2023-03-14 18:14:09:522,0,-14.3239,-5.6963,60.2118,Q,Q
2023-03-14 18:14:09:532,0,-14.3271,-5.7109,60.2279,Q,Q
2023-03-14 18:14:09:542,0,-14.3283,-5.72248,60.2386,Q,Q
2023-03-14 18:14:09:552,0,-14.321,-5.73875,60.2488,Q,Q
2023-03-14 18:14:09:562,0,-14.3071,-5.75606,60.2583,Q,Q
2023-03-14 18:14:09:572,0,-14.2923,-5.7691,60.2663,Q,Q
2023-03-14 18:14:09:582,0,-14.2737,-5.78162,60.268,Q,Q
2023-03-14 18:14:09:592,0,-14.2587,-5.801,60.2737,Q,Q
2023-03-14 18:14:09:602,0,-14.2413,-5.81776,60.2747,Q,Q
2023-03-14 18:14:09:612,0,-14.2266,-5.83383,60.2771,Q,Q
2023-03-14 18:14:09:622,0,-14.2139,-5.85177,60.2821,Q,Q
2023-03-14 18:14:09:632,0,-14.2016,-5.87247,60.2871,Q,Q
2023-03-14 18:14:09:642,0,-14.1894,-5.89246,60.2916,Q,Q
2023-03-14 18:14:09:652,0,-14.1822,-5.91494,60.3038,Q,Q
2023-03-14 18:14:09:662,0,-14.1722,-5.9334,60.3185,Q,Q
2023-03-14 18:14:09:672,0,-14.1662,-5.95043,60.3382,Q,Q
2023-03-14 18:14:09:682,0,-14.1644,-5.96671,60.3619,Q,Q
2023-03-14 18:14:09:692,0,-14.163,-5.98281,60.3859,Q,Q
2023-03-14 18:14:09:702,0,-14.1626,-6.00155,60.4176,Q,Q
2023-03-14 18:14:09:712,0,-14.1667,-6.02521,60.4585,Q,Q
2023-03-14 18:14:09:722,0,-14.1711,-6.05035,60.5005,Q,Q
2023-03-14 18:14:09:732,0,-14.1759,-6.07375,60.5429,Q,Q
2023-03-14 18:14:09:742,0,-14.1789,-6.09691,60.5824,Q,Q
2023-03-14 18:14:09:752,0,-14.1797,-6.11441,60.6227,Q,Q
2023-03-14 18:14:09:762,0,-14.1805,-6.12929,60.6609,Q,Q
2023-03-14 18:14:09:772,0,-14.1745,-6.13787,60.6992,Q,Q
2023-03-14 18:14:09:782,0,-14.1592,-6.13672,60.7358,Q,Q
2023-03-14 18:14:09:792,0,-14.1344,-6.12379,60.7707,Q,Q
2023-03-14 18:14:09:802,0,-14.1071,-6.11535,60.8057,Q,Q
2023-03-14 18:14:09:812,0,-14.0858,-6.11326,60.8374,Q,Q
2023-03-14 18:14:09:822,0,-14.0741,-6.11602,60.872,Q,Q
2023-03-14 18:14:09:832,0,-14.0779,-6.11787,60.9112,Q,Q
2023-03-14 18:14:09:842,0,-14.0828,-6.11792,60.9462,Q,Q
2023-03-14 18:14:09:852,0,-14.0844,-6.11555,60.9744,Q,Q
2023-03-14 18:14:09:862,0,-14.081,-6.11183,61.005,Q,Q
2023-03-14 18:14:09:872,0,-14.0821,-6.11074,61.0355,Q,Q
2023-03-14 18:14:09:882,0,-14.0851,-6.11291,61.0654,Q,Q
2023-03-14 18:14:09:892,0,-14.0835,-6.11675,61.0927,Q,Q
2023-03-14 18:14:09:902,0,-14.0775,-6.12538,61.1202,Q,Q
2023-03-14 18:14:09:912,0,-14.0754,-6.12385,61.1463,Q,Q
2023-03-14 18:14:09:922,0,-14.0759,-6.12424,61.1684,Q,Q
2023-03-14 18:14:09:932,0,-14.0742,-6.12238,61.1835,Q,Q
2023-03-14 18:14:09:942,0,-14.0732,-6.12144,61.1942,Q,Q
2023-03-14 18:14:09:952,0,-14.0661,-6.11751,61.2004,Q,Q
2023-03-14 18:14:09:962,0,-14.0508,-6.11803,61.2033,Q,Q
2023-03-14 18:14:09:972,0,-14.0386,-6.11614,61.2067,Q,Q
2023-03-14 18:14:09:982,0,-14.0287,-6.11511,61.2076,Q,Q
2023-03-14 18:14:09:992,0,-14.0201,-6.11475,61.2074,Q,Q
2023-03-14 18:14:10:2,0,-14.0152,-6.11479,61.2097,Q,Q
2023-03-14 18:14:10:12,0,-14.011,-6.10817,61.2101,Q,Q
2023-03-14 18:14:10:22,0,-14.0107,-6.10205,61.2125,Q,Q
2023-03-14 18:14:10:32,0,-14.0106,-6.08695,61.2143,Q,Q
2023-03-14 18:14:10:42,0,-14.0073,-6.06958,61.2163,Q,Q
2023-03-14 18:14:10:52,0,-14.0008,-6.05745,61.2203,Q,Q
2023-03-14 18:14:10:62,0,-13.9911,-6.04164,61.224,Q,Q
2023-03-14 18:14:10:72,0,-13.9787,-6.02799,61.2305,Q,Q
2023-03-14 18:14:10:82,0,-13.9673,-6.01423,61.2344,Q,Q
2023-03-14 18:14:10:92,0,-13.961,-6.00085,61.2393,Q,Q
2023-03-14 18:14:10:102,0,-13.9568,-5.99102,61.2393,Q,Q
2023-03-14 18:14:10:112,0,-13.9516,-5.9832,61.2386,Q,Q
2023-03-14 18:14:10:122,0,-13.9481,-5.97568,61.2355,Q,Q
2023-03-14 18:14:10:132,0,-13.9474,-5.96599,61.2336,Q,Q
2023-03-14 18:14:10:142,0,-13.9461,-5.95394,61.2256,Q,Q
2023-03-14 18:14:10:152,0,-13.9455,-5.94426,61.2194,Q,Q
2023-03-14 18:14:10:162,0,-13.9423,-5.93527,61.208,Q,Q
2023-03-14 18:14:10:172,0,-13.9408,-5.92155,61.1973,Q,Q
2023-03-14 18:14:10:182,0,-13.9396,-5.90828,61.1866,Q,Q
2023-03-14 18:14:10:192,0,-13.9437,-5.89635,61.1775,Q,Q
2023-03-14 18:14:10:202,0,-13.9425,-5.8876,61.1672,Q,Q
2023-03-14 18:14:10:212,0,-13.9467,-5.87239,61.1605,Q,Q
2023-03-14 18:14:10:222,0,-13.9511,-5.85973,61.1507,Q,Q
2023-03-14 18:14:10:232,0,-13.9526,-5.84681,61.1415,Q,Q
2023-03-14 18:14:10:242,0,-13.9542,-5.83719,61.1308,Q,Q
2023-03-14 18:14:10:252,0,-13.9541,-5.82923,61.1217,Q,Q
2023-03-14 18:14:10:262,0,-13.957,-5.82018,61.1083,Q,Q
2023-03-14 18:14:10:272,0,-13.9578,-5.81095,61.0949,Q,Q
2023-03-14 18:14:10:282,0,-13.9607,-5.80154,61.0846,Q,Q
2023-03-14 18:14:10:292,0,-13.9607,-5.79504,61.0728,Q,Q
2023-03-14 18:14:10:302,0,-13.9583,-5.77992,61.0613,Q,Q
2023-03-14 18:14:10:312,0,-13.9562,-5.7722,61.0492,Q,Q
2023-03-14 18:14:10:322,0,-13.9585,-5.76682,61.036,Q,Q
2023-03-14 18:14:10:332,0,-13.964,-5.76247,61.0275,Q,Q
2023-03-14 18:14:10:342,0,-13.9658,-5.75668,61.0198,Q,Q
2023-03-14 18:14:10:352,0,-13.9666,-5.75231,61.011,Q,Q
2023-03-14 18:14:10:362,0,-13.9618,-5.74759,61.0043,Q,Q
2023-03-14 18:14:10:372,0,-13.9544,-5.74369,60.9992,Q,Q
2023-03-14 18:14:10:382,0,-13.95,-5.73879,60.9937,Q,Q
2023-03-14 18:14:10:392,0,-13.9456,-5.73201,60.9907,Q,Q
2023-03-14 18:14:10:402,0,-13.937,-5.72546,60.9823,Q,Q
2023-03-14 18:14:10:412,0,-13.9274,-5.72203,60.9772,Q,Q
2023-03-14 18:14:10:422,0,-13.9201,-5.71523,60.9708,Q,Q
2023-03-14 18:14:10:432,0,-13.9175,-5.70672,60.9669,Q,Q
2023-03-14 18:14:10:442,0,-13.9104,-5.69395,60.9641,Q,Q
2023-03-14 18:14:10:452,0,-13.9049,-5.69373,60.9586,Q,Q
2023-03-14 18:14:10:462,0,-13.9031,-5.69373,60.9543,Q,Q
2023-03-14 18:14:10:472,0,-13.9016,-5.69193,60.9505,Q,Q
2023-03-14 18:14:10:482,0,-13.8937,-5.68953,60.9478,Q,Q
2023-03-14 18:14:10:492,0,-13.8828,-5.69081,60.9435,Q,Q
2023-03-14 18:14:10:502,0,-13.8773,-5.69381,60.9424,Q,Q
2023-03-14 18:14:10:512,0,-13.8722,-5.70031,60.9483,Q,Q
2023-03-14 18:14:10:522,0,-13.8686,-5.71039,60.9569,Q,Q
2023-03-14 18:14:10:532,0,-13.8629,-5.72328,60.9677,Q,Q
2023-03-14 18:14:10:542,0,-13.8565,-5.73696,60.9827,Q,Q
2023-03-14 18:14:10:552,0,-13.8502,-5.74772,60.9947,Q,Q
2023-03-14 18:14:10:562,0,-13.8471,-5.7585,61.011,Q,Q
2023-03-14 18:14:10:572,0,-13.848,-5.76913,61.0305,Q,Q
2023-03-14 18:14:10:582,0,-13.8452,-5.7804,61.0467,Q,Q
2023-03-14 18:14:10:592,0,-13.8436,-5.79137,61.065,Q,Q
2023-03-14 18:14:10:602,0,-13.8394,-5.80002,61.0828,Q,Q
2023-03-14 18:14:10:612,0,-13.8342,-5.80749,61.0967,Q,Q
2023-03-14 18:14:10:622,0,-13.828,-5.81705,61.1106,Q,Q
2023-03-14 18:14:10:632,0,-13.8256,-5.82592,61.1273,Q,Q
2023-03-14 18:14:10:642,0,-13.8258,-5.8338,61.1429,Q,Q
2023-03-14 18:14:10:652,0,-13.8229,-5.84213,61.1561,Q,Q
2023-03-14 18:14:10:662,0,-13.8233,-5.84918,61.1744,Q,Q
2023-03-14 18:14:10:672,0,-13.8214,-5.85978,61.1909,Q,Q
2023-03-14 18:14:10:682,0,-13.8243,-5.86813,61.2048,Q,Q
2023-03-14 18:14:10:692,0,-13.8248,-5.87446,61.2206,Q,Q
2023-03-14 18:14:10:702,0,-13.8213,-5.8823,61.2391,Q,Q
2023-03-14 18:14:10:712,0,-13.8194,-5.88743,61.2597,Q,Q
2023-03-14 18:14:10:722,0,-13.8144,-5.89216,61.2848,Q,Q
2023-03-14 18:14:10:732,0,-13.8089,-5.89288,61.308,Q,Q
2023-03-14 18:14:10:742,0,-13.8005,-5.89517,61.3274,Q,Q
2023-03-14 18:14:10:752,0,-13.7907,-5.88976,61.3472,Q,Q
2023-03-14 18:14:10:762,0,-13.7718,-5.8668,61.3674,Q,Q
2023-03-14 18:14:10:772,0,-13.7333,-5.83265,61.3854,Q,Q
2023-03-14 18:14:10:782,0,-13.6847,-5.812,61.3986,Q,Q
2023-03-14 18:14:10:792,0,-13.6431,-5.79991,61.4201,Q,Q
2023-03-14 18:14:10:802,0,-13.6164,-5.79601,61.4523,Q,Q
2023-03-14 18:14:10:812,0,-13.6,-5.79912,61.4836,Q,Q
2023-03-14 18:14:10:822,0,-13.5841,-5.79843,61.5187,Q,Q
2023-03-14 18:14:10:832,0,-13.5602,-5.80191,61.5546,Q,Q
2023-03-14 18:14:10:842,0,-13.5336,-5.80531,61.5863,Q,Q
2023-03-14 18:14:10:852,0,-13.51,-5.80754,61.6198,Q,Q
2023-03-14 18:14:10:862,0,-13.4876,-5.81287,61.656,Q,Q
2023-03-14 18:14:10:872,0,-13.4563,-5.78776,61.6919,Q,Q
2023-03-14 18:14:10:882,0,-13.4071,-5.75662,61.724,Q,Q
2023-03-14 18:14:10:892,0,-13.3539,-5.73747,61.7576,Q,Q
2023-03-14 18:14:10:902,0,-13.3045,-5.72431,61.7965,Q,Q
2023-03-14 18:14:10:912,0,-13.269,-5.72163,61.8379,Q,Q
2023-03-14 18:14:10:922,0,-13.2441,-5.72591,61.8835,Q,Q
2023-03-14 18:14:10:932,0,-13.2278,-5.72853,61.9336,Q,Q
2023-03-14 18:14:10:942,0,-13.2113,-5.74094,61.9771,Q,Q
2023-03-14 18:14:10:952,0,-13.1914,-5.76051,62.0151,Q,Q
2023-03-14 18:14:10:962,0,-13.1654,-5.78265,62.0352,Q,Q
2023-03-14 18:14:10:972,0,-13.1416,-5.80368,62.0455,Q,Q
2023-03-14 18:14:10:982,0,-13.1234,-5.81842,62.0455,Q,Q
2023-03-14 18:14:10:992,0,-13.0996,-5.81233,62.0394,Q,Q
2023-03-14 18:14:11:2,0,-13.0729,-5.81487,62.0208,Q,Q
2023-03-14 18:14:11:12,0,-13.0461,-5.83258,62.0009,Q,Q
2023-03-14 18:14:11:22,0,-13.0277,-5.85161,61.9802,Q,Q
2023-03-14 18:14:11:32,0,-13.0193,-5.86678,61.9645,Q,Q
2023-03-14 18:14:11:42,0,-13.0096,-5.87916,61.9528,Q,Q
2023-03-14 18:14:11:52,0,-12.9947,-5.88753,61.9399,Q,Q
2023-03-14 18:14:11:62,0,-12.9811,-5.89167,61.9278,Q,Q
2023-03-14 18:14:11:72,0,-12.9688,-5.89664,61.9218,Q,Q
2023-03-14 18:14:11:82,0,-12.9637,-5.8982,61.9196,Q,Q
2023-03-14 18:14:11:92,0,-12.9648,-5.90266,61.9224,Q,Q
2023-03-14 18:14:11:102,0,-12.9686,-5.90255,61.9267,Q,Q
2023-03-14 18:14:11:112,0,-12.9682,-5.90442,61.9316,Q,Q
2023-03-14 18:14:11:122,0,-12.9687,-5.90203,61.9358,Q,Q
2023-03-14 18:14:11:132,0,-12.9669,-5.89941,61.9403,Q,Q
2023-03-14 18:14:11:142,0,-12.9655,-5.89636,61.9484,Q,Q
2023-03-14 18:14:11:152,0,-12.9619,-5.89207,61.9566,Q,Q
2023-03-14 18:14:11:162,0,-12.9612,-5.88792,61.9623,Q,Q
2023-03-14 18:14:11:172,0,-12.9587,-5.88303,61.9667,Q,Q
2023-03-14 18:14:11:182,0,-12.9611,-5.88131,61.9684,Q,Q
2023-03-14 18:14:11:192,0,-12.961,-5.87826,61.973,Q,Q
2023-03-14 18:14:11:202,0,-12.9596,-5.86946,61.9754,Q,Q
2023-03-14 18:14:11:212,0,-12.9569,-5.86067,61.9771,Q,Q
2023-03-14 18:14:11:222,0,-12.9586,-5.85211,61.979,Q,Q
2023-03-14 18:14:11:232,0,-12.961,-5.8462,61.9808,Q,Q
2023-03-14 18:14:11:242,0,-12.9637,-5.83955,61.9844,Q,Q
2023-03-14 18:14:11:252,0,-12.9642,-5.83102,61.9851,Q,Q
2023-03-14 18:14:11:262,0,-12.965,-5.822,61.9877,Q,Q
2023-03-14 18:14:11:272,0,-12.9674,-5.81542,61.9897,Q,Q
2023-03-14 18:14:11:282,0,-12.9719,-5.80864,61.9908,Q,Q
2023-03-14 18:14:11:292,0,-12.9722,-5.79708,61.984,Q,Q
2023-03-14 18:14:11:302,0,-12.9717,-5.78897,61.9816,Q,Q
2023-03-14 18:14:11:312,0,-12.9698,-5.7819,61.9781,Q,Q
2023-03-14 18:14:11:322,0,-12.965,-5.77412,61.9724,Q,Q
2023-03-14 18:14:11:332,0,-12.962,-5.76254,61.9654,Q,Q
2023-03-14 18:14:11:342,0,-12.9555,-5.74774,61.9598,Q,Q
2023-03-14 18:14:11:352,0,-12.9519,-5.7411,61.9583,Q,Q
2023-03-14 18:14:11:362,0,-12.9493,-5.73521,61.9628,Q,Q
2023-03-14 18:14:11:372,0,-12.9454,-5.72606,61.9688,Q,Q
2023-03-14 18:14:11:382,0,-12.9427,-5.71728,61.9786,Q,Q
2023-03-14 18:14:11:392,0,-12.9386,-5.71214,61.9949,Q,Q
2023-03-14 18:14:11:402,0,-12.9362,-5.70747,62.0078,Q,Q
2023-03-14 18:14:11:412,0,-12.934,-5.69859,62.0251,Q,Q
2023-03-14 18:14:11:422,0,-12.9262,-5.69634,62.0465,Q,Q
2023-03-14 18:14:11:432,0,-12.9203,-5.68758,62.0717,Q,Q
2023-03-14 18:14:11:442,0,-12.9135,-5.67586,62.096,Q,Q
2023-03-14 18:14:11:452,0,-12.9044,-5.6574,62.1213,Q,Q
2023-03-14 18:14:11:462,0,-12.8934,-5.65145,62.1476,Q,Q
2023-03-14 18:14:11:472,0,-12.8875,-5.64233,62.1774,Q,Q
2023-03-14 18:14:11:482,0,-12.8839,-5.63122,62.209,Q,Q
2023-03-14 18:14:11:492,0,-12.8724,-5.61899,62.2412,Q,Q
2023-03-14 18:14:11:502,0,-12.861,-5.60743,62.2716,Q,Q
2023-03-14 18:14:11:512,0,-12.8502,-5.59733,62.3069,Q,Q
2023-03-14 18:14:11:522,0,-12.8384,-5.57918,62.3436,Q,Q
2023-03-14 18:14:11:532,0,-12.8216,-5.55619,62.3788,Q,Q
2023-03-14 18:14:11:542,0,-12.8075,-5.52682,62.4149,Q,Q
2023-03-14 18:14:11:552,0,-12.7843,-5.49335,62.4542,Q,Q
2023-03-14 18:14:11:562,0,-12.7631,-5.46194,62.5053,Q,Q
2023-03-14 18:14:11:572,0,-12.7493,-5.43421,62.5706,Q,Q
2023-03-14 18:14:11:582,0,-12.7391,-5.40187,62.6515,Q,Q
2023-03-14 18:14:11:592,0,-12.7217,-5.36516,62.7438,Q,Q
2023-03-14 18:14:11:602,0,-12.6975,-5.32249,62.8385,Q,Q
2023-03-14 18:14:11:612,0,-12.6643,-5.28027,62.9312,Q,Q
2023-03-14 18:14:11:622,0,-12.632,-5.23213,63.0201,Q,Q
2023-03-14 18:14:11:632,0,-12.5974,-5.17465,63.0915,Q,Q
2023-03-14 18:14:11:642,0,-12.5729,-5.11449,63.1465,Q,Q
2023-03-14 18:14:11:652,0,-12.5632,-5.07299,63.1923,Q,Q
2023-03-14 18:14:11:662,0,-12.563,-5.04713,63.2397,Q,Q
2023-03-14 18:14:11:672,0,-12.5751,-5.03081,63.283,Q,Q
2023-03-14 18:14:11:682,0,-12.5879,-5.02091,63.323,Q,Q
2023-03-14 18:14:11:692,0,-12.6008,-5.01729,63.3483,Q,Q
2023-03-14 18:14:11:702,0,-12.6131,-5.01385,63.3695,Q,Q
2023-03-14 18:14:11:712,0,-12.6275,-5.00738,63.3837,Q,Q
2023-03-14 18:14:11:722,0,-12.6413,-5.00467,63.3958,Q,Q
2023-03-14 18:14:11:732,0,-12.6455,-4.99205,63.3985,Q,Q
2023-03-14 18:14:11:742,0,-12.6477,-4.99166,63.3943,Q,Q
2023-03-14 18:14:11:752,0,-12.6564,-4.9938,63.3903,Q,Q
2023-03-14 18:14:11:762,0,-12.6656,-4.99491,63.3845,Q,Q
2023-03-14 18:14:11:772,0,-12.6707,-4.99585,63.3764,Q,Q
2023-03-14 18:14:11:782,0,-12.6768,-4.99954,63.3635,Q,Q
2023-03-14 18:14:11:792,0,-12.6838,-4.99574,63.3518,Q,Q
2023-03-14 18:14:11:802,0,-12.6964,-4.99117,63.3368,Q,Q
2023-03-14 18:14:11:812,0,-12.7086,-4.98825,63.3252,Q,Q
2023-03-14 18:14:11:822,0,-12.7219,-4.98461,63.3112,Q,Q
2023-03-14 18:14:11:832,0,-12.7338,-4.97966,63.3032,Q,Q
2023-03-14 18:14:11:842,0,-12.7423,-4.97492,63.294,Q,Q
2023-03-14 18:14:11:852,0,-12.7478,-4.97,63.286,Q,Q
2023-03-14 18:14:11:862,0,-12.751,-4.96485,63.2775,Q,Q
2023-03-14 18:14:11:872,0,-12.7494,-4.96018,63.2683,Q,Q
2023-03-14 18:14:11:882,0,-12.7466,-4.95615,63.2546,Q,Q
2023-03-14 18:14:11:892,0,-12.7435,-4.9537,63.2423,Q,Q
2023-03-14 18:14:11:902,0,-12.7369,-4.94845,63.2237,Q,Q
2023-03-14 18:14:11:912,0,-12.7305,-4.94239,63.2027,Q,Q
2023-03-14 18:14:11:922,0,-12.7234,-4.9364,63.1848,Q,Q
2023-03-14 18:14:11:932,0,-12.7129,-4.93373,63.162,Q,Q
2023-03-14 18:14:11:942,0,-12.7036,-4.92648,63.1391,Q,Q
2023-03-14 18:14:11:952,0,-12.6908,-4.92177,63.1184,Q,Q
2023-03-14 18:14:11:962,0,-12.6795,-4.91502,63.0958,Q,Q
2023-03-14 18:14:11:972,0,-12.6665,-4.91331,63.0751,Q,Q
2023-03-14 18:14:11:982,0,-12.6565,-4.91085,63.0607,Q,Q
2023-03-14 18:14:11:992,0,-12.6462,-4.91185,63.0455,Q,Q
2023-03-14 18:14:12:2,0,-12.6386,-4.91008,63.0316,Q,Q
2023-03-14 18:14:12:12,0,-12.6303,-4.91062,63.0192,Q,Q
2023-03-14 18:14:12:22,0,-12.6278,-4.91171,63.009,Q,Q
2023-03-14 18:14:12:32,0,-12.6257,-4.9079,62.9996,Q,Q
2023-03-14 18:14:12:42,0,-12.6279,-4.90639,62.9912,Q,Q
2023-03-14 18:14:12:52,0,-12.6281,-4.90589,62.9792,Q,Q
2023-03-14 18:14:12:62,0,-12.6292,-4.90689,62.9687,Q,Q
2023-03-14 18:14:12:72,0,-12.632,-4.90916,62.9576,Q,Q
2023-03-14 18:14:12:82,0,-12.6346,-4.91192,62.9509,Q,Q
2023-03-14 18:14:12:92,0,-12.6365,-4.91439,62.9459,Q,Q
2023-03-14 18:14:12:102,0,-12.642,-4.91693,62.9368,Q,Q
2023-03-14 18:14:12:112,0,-12.6431,-4.92279,62.9353,Q,Q
2023-03-14 18:14:12:122,0,-12.646,-4.92394,62.9319,Q,Q
2023-03-14 18:14:12:132,0,-12.651,-4.92551,62.9299,Q,Q
2023-03-14 18:14:12:142,0,-12.6555,-4.92841,62.9234,Q,Q
2023-03-14 18:14:12:152,0,-12.655,-4.93126,62.9167,Q,Q
2023-03-14 18:14:12:162,0,-12.6552,-4.92882,62.9114,Q,Q
2023-03-14 18:14:12:172,0,-12.6486,-4.92515,62.9052,Q,Q
2023-03-14 18:14:12:182,0,-12.642,-4.92929,62.8986,Q,Q
2023-03-14 18:14:12:192,0,-12.6368,-4.93013,62.8923,Q,Q
2023-03-14 18:14:12:202,0,-12.633,-4.93575,62.8816,Q,Q
2023-03-14 18:14:12:212,0,-12.631,-4.94149,62.8731,Q,Q
2023-03-14 18:14:12:222,0,-12.6306,-4.94363,62.8637,Q,Q
2023-03-14 18:14:12:232,0,-12.6316,-4.9499,62.8533,Q,Q
2023-03-14 18:14:12:242,0,-12.6326,-4.95288,62.8439,Q,Q
2023-03-14 18:14:12:252,0,-12.634,-4.95612,62.8348,Q,Q
2023-03-14 18:14:12:262,0,-12.6335,-4.96532,62.831,Q,Q
2023-03-14 18:14:12:272,0,-12.6428,-4.96916,62.8239,Q,Q
2023-03-14 18:14:12:282,0,-12.6539,-4.96984,62.823,Q,Q
2023-03-14 18:14:12:292,0,-12.66,-4.97095,62.8186,Q,Q
2023-03-14 18:14:12:302,0,-12.665,-4.97146,62.8179,Q,Q
2023-03-14 18:14:12:312,0,-12.668,-4.96852,62.818,Q,Q
2023-03-14 18:14:12:322,0,-12.6677,-4.96744,62.8208,Q,Q
2023-03-14 18:14:12:332,0,-12.6658,-4.96365,62.8218,Q,Q
2023-03-14 18:14:12:342,0,-12.6596,-4.96045,62.8237,Q,Q
2023-03-14 18:14:12:352,0,-12.6579,-4.95734,62.8235,Q,Q
2023-03-14 18:14:12:362,0,-12.6597,-4.95243,62.8252,Q,Q
2023-03-14 18:14:12:372,0,-12.6608,-4.94504,62.8265,Q,Q
2023-03-14 18:14:12:382,0,-12.6647,-4.94146,62.8255,Q,Q
2023-03-14 18:14:12:392,0,-12.6718,-4.93499,62.8244,Q,Q
2023-03-14 18:14:12:402,0,-12.6739,-4.92594,62.8197,Q,Q
2023-03-14 18:14:12:412,0,-12.6752,-4.91877,62.8171,Q,Q
2023-03-14 18:14:12:422,0,-12.6768,-4.91371,62.8137,Q,Q
2023-03-14 18:14:12:432,0,-12.6811,-4.90616,62.8075,Q,Q
2023-03-14 18:14:12:442,0,-12.6824,-4.8999,62.7998,Q,Q
2023-03-14 18:14:12:452,0,-12.6808,-4.89539,62.795,Q,Q
2023-03-14 18:14:12:462,0,-12.6864,-4.8906,62.7915,Q,Q
2023-03-14 18:14:12:472,0,-12.6915,-4.88435,62.7869,Q,Q
2023-03-14 18:14:12:482,0,-12.6905,-4.87947,62.7833,Q,Q
2023-03-14 18:14:12:492,0,-12.6895,-4.87229,62.7736,Q,Q
2023-03-14 18:14:12:502,0,-12.6855,-4.86958,62.7662,Q,Q
2023-03-14 18:14:12:512,0,-12.6809,-4.86908,62.7615,Q,Q
2023-03-14 18:14:12:522,0,-12.6847,-4.86781,62.7595,Q,Q
2023-03-14 18:14:12:532,0,-12.6914,-4.87294,62.7577,Q,Q
2023-03-14 18:14:12:542,0,-12.7005,-4.87932,62.7565,Q,Q
2023-03-14 18:14:12:552,0,-12.7125,-4.8835,62.7565,Q,Q
2023-03-14 18:14:12:562,0,-12.7225,-4.88613,62.7566,Q,Q
2023-03-14 18:14:12:572,0,-12.7313,-4.88848,62.7606,Q,Q
2023-03-14 18:14:12:582,0,-12.7385,-4.88681,62.7636,Q,Q
2023-03-14 18:14:12:592,0,-12.7441,-4.88761,62.7684,Q,Q
2023-03-14 18:14:12:602,0,-12.752,-4.88721,62.7731,Q,Q
2023-03-14 18:14:12:612,0,-12.7599,-4.88763,62.7798,Q,Q
2023-03-14 18:14:12:622,0,-12.7675,-4.8877,62.7862,Q,Q
2023-03-14 18:14:12:632,0,-12.7724,-4.887,62.7926,Q,Q
2023-03-14 18:14:12:642,0,-12.779,-4.88245,62.8008,Q,Q
2023-03-14 18:14:12:652,0,-12.7883,-4.87879,62.8043,Q,Q
2023-03-14 18:14:12:662,0,-12.802,-4.87382,62.8082,Q,Q
2023-03-14 18:14:12:672,0,-12.8135,-4.87023,62.8143,Q,Q
2023-03-14 18:14:12:682,0,-12.8283,-4.86682,62.8163,Q,Q
2023-03-14 18:14:12:692,0,-12.839,-4.86109,62.8219,Q,Q
2023-03-14 18:14:12:702,0,-12.8526,-4.85928,62.8291,Q,Q
2023-03-14 18:14:12:712,0,-12.8659,-4.85254,62.8343,Q,Q
2023-03-14 18:14:12:722,0,-12.8748,-4.84326,62.8363,Q,Q
2023-03-14 18:14:12:732,0,-12.8863,-4.83897,62.835,Q,Q
2023-03-14 18:14:12:742,0,-12.8922,-4.83193,62.8328,Q,Q
2023-03-14 18:14:12:752,0,-12.8928,-4.82784,62.8259,Q,Q
2023-03-14 18:14:12:762,0,-12.8921,-4.82264,62.8169,Q,Q
2023-03-14 18:14:12:772,0,-12.8914,-4.81903,62.8079,Q,Q
2023-03-14 18:14:12:782,0,-12.8886,-4.81702,62.7943,Q,Q
2023-03-14 18:14:12:792,0,-12.8908,-4.81198,62.7786,Q,Q
2023-03-14 18:14:12:802,0,-12.8942,-4.80789,62.7654,Q,Q
2023-03-14 18:14:12:812,0,-12.899,-4.80971,62.7523,Q,Q
2023-03-14 18:14:12:822,0,-12.9042,-4.81017,62.7386,Q,Q
2023-03-14 18:14:12:832,0,-12.9005,-4.81235,62.7229,Q,Q
2023-03-14 18:14:12:842,0,-12.8996,-4.81138,62.7059,Q,Q
2023-03-14 18:14:12:852,0,-12.8931,-4.80639,62.69,Q,Q
2023-03-14 18:14:12:862,0,-12.8818,-4.80914,62.679,Q,Q
2023-03-14 18:14:12:872,0,-12.8687,-4.81164,62.6692,Q,Q
2023-03-14 18:14:12:882,0,-12.859,-4.8126,62.6591,Q,Q
2023-03-14 18:14:12:892,0,-12.8474,-4.81491,62.652,Q,Q
2023-03-14 18:14:12:902,0,-12.8379,-4.81918,62.6495,Q,Q
2023-03-14 18:14:12:912,0,-12.8271,-4.81961,62.6469,Q,Q
2023-03-14 18:14:12:922,0,-12.8206,-4.82471,62.6467,Q,Q
2023-03-14 18:14:12:932,0,-12.8171,-4.82884,62.65,Q,Q
2023-03-14 18:14:12:942,0,-12.8128,-4.83126,62.6555,Q,Q
2023-03-14 18:14:12:952,0,-12.8095,-4.83179,62.6648,Q,Q
2023-03-14 18:14:12:962,0,-12.8113,-4.8315,62.6745,Q,Q
2023-03-14 18:14:12:972,0,-12.8118,-4.83447,62.6869,Q,Q
2023-03-14 18:14:12:982,0,-12.8121,-4.83381,62.6942,Q,Q
2023-03-14 18:14:12:992,0,-12.8106,-4.83359,62.7035,Q,Q
2023-03-14 18:14:13:2,0,-12.8082,-4.83746,62.7119,Q,Q
2023-03-14 18:14:13:12,0,-12.8055,-4.8411,62.7175,Q,Q
2023-03-14 18:14:13:22,0,-12.8029,-4.84807,62.7243,Q,Q
2023-03-14 18:14:13:32,0,-12.8031,-4.85185,62.7248,Q,Q
2023-03-14 18:14:13:42,0,-12.8017,-4.85501,62.7238,Q,Q
2023-03-14 18:14:13:52,0,-12.8045,-4.85855,62.7186,Q,Q
2023-03-14 18:14:13:62,0,-12.8042,-4.86092,62.7177,Q,Q
2023-03-14 18:14:13:72,0,-12.8046,-4.86387,62.716,Q,Q
2023-03-14 18:14:13:82,0,-12.8042,-4.86561,62.7116,Q,Q
2023-03-14 18:14:13:92,0,-12.8021,-4.86718,62.7087,Q,Q
2023-03-14 18:14:13:102,0,-12.7966,-4.86692,62.7046,Q,Q
2023-03-14 18:14:13:112,0,-12.7923,-4.86672,62.7036,Q,Q
2023-03-14 18:14:13:122,0,-12.7947,-4.87323,62.7077,Q,Q
2023-03-14 18:14:13:132,0,-12.7989,-4.87725,62.7106,Q,Q
2023-03-14 18:14:13:142,0,-12.8018,-4.87727,62.712,Q,Q
2023-03-14 18:14:13:152,0,-12.8043,-4.88162,62.7124,Q,Q
2023-03-14 18:14:13:162,0,-12.8045,-4.88413,62.7118,Q,Q
2023-03-14 18:14:13:172,0,-12.8074,-4.88308,62.7146,Q,Q
2023-03-14 18:14:13:182,0,-12.8106,-4.88434,62.7137,Q,Q
2023-03-14 18:14:13:192,0,-12.8171,-4.88346,62.7131,Q,Q
2023-03-14 18:14:13:202,0,-12.8198,-4.88047,62.7063,Q,Q
2023-03-14 18:14:13:212,0,-12.8216,-4.87607,62.6988,Q,Q
2023-03-14 18:14:13:222,0,-12.825,-4.87109,62.6916,Q,Q
2023-03-14 18:14:13:232,0,-12.8246,-4.86779,62.6822,Q,Q
2023-03-14 18:14:13:242,0,-12.8239,-4.85975,62.6743,Q,Q
2023-03-14 18:14:13:252,0,-12.8251,-4.85754,62.6664,Q,Q
2023-03-14 18:14:13:262,0,-12.8275,-4.85195,62.6612,Q,Q
2023-03-14 18:14:13:272,0,-12.8329,-4.84764,62.6553,Q,Q
2023-03-14 18:14:13:282,0,-12.8344,-4.84334,62.6466,Q,Q
2023-03-14 18:14:13:292,0,-12.8388,-4.84127,62.6406,Q,Q
2023-03-14 18:14:13:302,0,-12.8408,-4.83753,62.634,Q,Q
2023-03-14 18:14:13:312,0,-12.8435,-4.83935,62.6267,Q,Q
2023-03-14 18:14:13:322,0,-12.8474,-4.83661,62.6247,Q,Q
2023-03-14 18:14:13:332,0,-12.8461,-4.83495,62.6166,Q,Q
2023-03-14 18:14:13:342,0,-12.8457,-4.83321,62.6085,Q,Q
2023-03-14 18:14:13:352,0,-12.8369,-4.8287,62.5994,Q,Q
2023-03-14 18:14:13:362,0,-12.8308,-4.82937,62.5923,Q,Q
2023-03-14 18:14:13:372,0,-12.8268,-4.83214,62.5884,Q,Q
2023-03-14 18:14:13:382,0,-12.8198,-4.83513,62.5862,Q,Q
2023-03-14 18:14:13:392,0,-12.8167,-4.83971,62.5817,Q,Q
2023-03-14 18:14:13:402,0,-12.8169,-4.84587,62.5814,Q,Q
2023-03-14 18:14:13:412,0,-12.8166,-4.84952,62.5811,Q,Q
2023-03-14 18:14:13:422,0,-12.8188,-4.85315,62.5794,Q,Q
2023-03-14 18:14:13:432,0,-12.8177,-4.85966,62.5808,Q,Q
2023-03-14 18:14:13:442,0,-12.816,-4.86092,62.5814,Q,Q
2023-03-14 18:14:13:452,0,-12.8133,-4.86458,62.5864,Q,Q
2023-03-14 18:14:13:462,0,-12.8087,-4.86645,62.5928,Q,Q
2023-03-14 18:14:13:472,0,-12.8034,-4.87214,62.6001,Q,Q
2023-03-14 18:14:13:482,0,-12.7966,-4.87149,62.6057,Q,Q
2023-03-14 18:14:13:492,0,-12.7904,-4.87571,62.61,Q,Q
2023-03-14 18:14:13:502,0,-12.7806,-4.87947,62.6174,Q,Q
2023-03-14 18:14:13:512,0,-12.7766,-4.87988,62.6192,Q,Q
2023-03-14 18:14:13:522,0,-12.7713,-4.88022,62.624,Q,Q
2023-03-14 18:14:13:532,0,-12.767,-4.88187,62.6235,Q,Q
2023-03-14 18:14:13:542,0,-12.7633,-4.88513,62.6189,Q,Q
2023-03-14 18:14:13:552,0,-12.76,-4.88699,62.6163,Q,Q
2023-03-14 18:14:13:562,0,-12.7587,-4.88925,62.6143,Q,Q
2023-03-14 18:14:13:572,0,-12.7602,-4.89009,62.6096,Q,Q
2023-03-14 18:14:13:582,0,-12.7574,-4.88886,62.6103,Q,Q
2023-03-14 18:14:13:592,0,-12.7597,-4.88436,62.6078,Q,Q
2023-03-14 18:14:13:602,0,-12.7617,-4.88241,62.6091,Q,Q
2023-03-14 18:14:13:612,0,-12.7634,-4.8762,62.606,Q,Q
2023-03-14 18:14:13:622,0,-12.7634,-4.87187,62.6042,Q,Q
2023-03-14 18:14:13:632,0,-12.7695,-4.86984,62.6021,Q,Q
2023-03-14 18:14:13:642,0,-12.7739,-4.86674,62.6006,Q,Q
2023-03-14 18:14:13:652,0,-12.7745,-4.86691,62.5962,Q,Q
2023-03-14 18:14:13:662,0,-12.772,-4.86364,62.5908,Q,Q
2023-03-14 18:14:13:672,0,-12.768,-4.86341,62.5845,Q,Q
2023-03-14 18:14:13:682,0,-12.7622,-4.86104,62.5799,Q,Q
2023-03-14 18:14:13:692,0,-12.7577,-4.85624,62.5755,Q,Q
2023-03-14 18:14:13:702,0,-12.758,-4.8569,62.5727,Q,Q
2023-03-14 18:14:13:712,0,-12.7583,-4.85269,62.5678,Q,Q
2023-03-14 18:14:13:722,0,-12.7578,-4.84908,62.5644,Q,Q
2023-03-14 18:14:13:732,0,-12.7596,-4.846,62.5627,Q,Q
2023-03-14 18:14:13:742,0,-12.7583,-4.84496,62.5605,Q,Q
2023-03-14 18:14:13:752,0,-12.7594,-4.84626,62.5603,Q,Q
2023-03-14 18:14:13:762,0,-12.7586,-4.84789,62.5614,Q,Q
2023-03-14 18:14:13:772,0,-12.7574,-4.84968,62.565,Q,Q
2023-03-14 18:14:13:782,0,-12.7581,-4.85139,62.5694,Q,Q
2023-03-14 18:14:13:792,0,-12.7573,-4.8529,62.57,Q,Q
2023-03-14 18:14:13:802,0,-12.7575,-4.85453,62.5702,Q,Q
2023-03-14 18:14:13:812,0,-12.7587,-4.85675,62.5733,Q,Q
2023-03-14 18:14:13:822,0,-12.7609,-4.86417,62.5719,Q,Q
2023-03-14 18:14:13:832,0,-12.7644,-4.86709,62.5742,Q,Q
2023-03-14 18:14:13:842,0,-12.7671,-4.87182,62.5791,Q,Q
2023-03-14 18:14:13:852,0,-12.7731,-4.87721,62.5859,Q,Q
2023-03-14 18:14:13:862,0,-12.7797,-4.87915,62.5917,Q,Q
2023-03-14 18:14:13:872,0,-12.7872,-4.88198,62.5995,Q,Q
2023-03-14 18:14:13:882,0,-12.7939,-4.88357,62.6055,Q,Q
2023-03-14 18:14:13:892,0,-12.7994,-4.88412,62.6098,Q,Q
2023-03-14 18:14:13:902,0,-12.8004,-4.88595,62.6173,Q,Q
2023-03-14 18:14:13:912,0,-12.7965,-4.891,62.6216,Q,Q
2023-03-14 18:14:13:922,0,-12.7941,-4.89404,62.6247,Q,Q
2023-03-14 18:14:13:932,0,-12.7892,-4.89679,62.6243,Q,Q
2023-03-14 18:14:13:942,0,-12.783,-4.90393,62.6252,Q,Q
2023-03-14 18:14:13:952,0,-12.7772,-4.91028,62.6244,Q,Q
2023-03-14 18:14:13:962,0,-12.7731,-4.91269,62.6226,Q,Q
2023-03-14 18:14:13:972,0,-12.773,-4.91709,62.6224,Q,Q
2023-03-14 18:14:13:982,0,-12.7723,-4.9221,62.6236,Q,Q
2023-03-14 18:14:13:992,0,-12.7712,-4.92605,62.626,Q,Q
2023-03-14 18:14:14:2,0,-12.7685,-4.92608,62.6249,Q,Q
2023-03-14 18:14:14:12,0,-12.7644,-4.92906,62.6278,Q,Q
2023-03-14 18:14:14:22,0,-12.7585,-4.93791,62.6356,Q,Q
2023-03-14 18:14:14:32,0,-12.7586,-4.94335,62.6448,Q,Q
2023-03-14 18:14:14:42,0,-12.7536,-4.94927,62.6519,Q,Q
2023-03-14 18:14:14:52,0,-12.7548,-4.95426,62.6603,Q,Q
2023-03-14 18:14:14:62,0,-12.7556,-4.9616,62.669,Q,Q
2023-03-14 18:14:14:72,0,-12.7558,-4.96672,62.6772,Q,Q
2023-03-14 18:14:14:82,0,-12.7576,-4.96995,62.6834,Q,Q
2023-03-14 18:14:14:92,0,-12.7609,-4.97369,62.6866,Q,Q
2023-03-14 18:14:14:102,0,-12.7624,-4.9754,62.6872,Q,Q
2023-03-14 18:14:14:112,0,-12.7646,-4.97428,62.6904,Q,Q
2023-03-14 18:14:14:122,0,-12.7662,-4.97726,62.6876,Q,Q
2023-03-14 18:14:14:132,0,-12.7705,-4.98001,62.6895,Q,Q
2023-03-14 18:14:14:142,0,-12.7778,-4.98234,62.6888,Q,Q
2023-03-14 18:14:14:152,0,-12.7796,-4.97933,62.6885,Q,Q
2023-03-14 18:14:14:162,0,-12.7816,-4.97949,62.687,Q,Q
2023-03-14 18:14:14:172,0,-12.7851,-4.9752,62.6837,Q,Q
2023-03-14 18:14:14:182,0,-12.7866,-4.97182,62.6819,Q,Q
2023-03-14 18:14:14:192,0,-12.7903,-4.9698,62.677,Q,Q
2023-03-14 18:14:14:202,0,-12.7945,-4.96316,62.6711,Q,Q
2023-03-14 18:14:14:212,0,-12.7979,-4.96043,62.6639,Q,Q
2023-03-14 18:14:14:222,0,-12.8,-4.95852,62.6583,Q,Q
2023-03-14 18:14:14:232,0,-12.7994,-4.95613,62.6523,Q,Q
2023-03-14 18:14:14:242,0,-12.7984,-4.95372,62.6469,Q,Q
2023-03-14 18:14:14:252,0,-12.7953,-4.95025,62.6394,Q,Q
2023-03-14 18:14:14:262,0,-12.7924,-4.94378,62.6325,Q,Q
2023-03-14 18:14:14:272,0,-12.7853,-4.94086,62.6268,Q,Q
2023-03-14 18:14:14:282,0,-12.7766,-4.94158,62.6206,Q,Q
2023-03-14 18:14:14:292,0,-12.7728,-4.9442,62.6183,Q,Q
2023-03-14 18:14:14:302,0,-12.7685,-4.94844,62.6163,Q,Q
2023-03-14 18:14:14:312,0,-12.766,-4.95163,62.6152,Q,Q
2023-03-14 18:14:14:322,0,-12.765,-4.95355,62.612,Q,Q
2023-03-14 18:14:14:332,0,-12.7611,-4.95898,62.6071,Q,Q
2023-03-14 18:14:14:342,0,-12.7576,-4.96159,62.6055,Q,Q
2023-03-14 18:14:14:352,0,-12.7522,-4.95999,62.6062,Q,Q
2023-03-14 18:14:14:362,0,-12.7494,-4.96037,62.604,Q,Q
2023-03-14 18:14:14:372,0,-12.7445,-4.95945,62.6009,Q,Q
2023-03-14 18:14:14:382,0,-12.7378,-4.9622,62.5958,Q,Q
2023-03-14 18:14:14:392,0,-12.7318,-4.96519,62.5972,Q,Q
2023-03-14 18:14:14:402,0,-12.7257,-4.9681,62.5994,Q,Q
2023-03-14 18:14:14:412,0,-12.7211,-4.97063,62.6011,Q,Q
2023-03-14 18:14:14:422,0,-12.7171,-4.97154,62.6064,Q,Q
2023-03-14 18:14:14:432,0,-12.7152,-4.96903,62.6123,Q,Q
2023-03-14 18:14:14:442,0,-12.7147,-4.96862,62.6206,Q,Q
2023-03-14 18:14:14:452,0,-12.715,-4.97168,62.6284,Q,Q
2023-03-14 18:14:14:462,0,-12.7208,-4.97045,62.6371,Q,Q
2023-03-14 18:14:14:472,0,-12.7279,-4.97233,62.6445,Q,Q
2023-03-14 18:14:14:482,0,-12.7354,-4.97384,62.6542,Q,Q
2023-03-14 18:14:14:492,0,-12.7383,-4.97586,62.6639,Q,Q
2023-03-14 18:14:14:502,0,-12.7407,-4.97498,62.6742,Q,Q
2023-03-14 18:14:14:512,0,-12.7389,-4.97964,62.6852,Q,Q
2023-03-14 18:14:14:522,0,-12.7382,-4.97952,62.6907,Q,Q
2023-03-14 18:14:14:532,0,-12.7374,-4.97719,62.6951,Q,Q
2023-03-14 18:14:14:542,0,-12.7386,-4.97386,62.6982,Q,Q
2023-03-14 18:14:14:552,0,-12.7377,-4.96994,62.699,Q,Q
2023-03-14 18:14:14:562,0,-12.738,-4.96774,62.6957,Q,Q
2023-03-14 18:14:14:572,0,-12.7409,-4.96324,62.6921,Q,Q
2023-03-14 18:14:14:582,0,-12.7403,-4.95964,62.6888,Q,Q
2023-03-14 18:14:14:592,0,-12.741,-4.95478,62.6859,Q,Q
2023-03-14 18:14:14:602,0,-12.7383,-4.95217,62.6773,Q,Q
2023-03-14 18:14:14:612,0,-12.7355,-4.94743,62.6728,Q,Q
2023-03-14 18:14:14:622,0,-12.7315,-4.94667,62.6681,Q,Q
2023-03-14 18:14:14:632,0,-12.7298,-4.94723,62.6646,Q,Q
2023-03-14 18:14:14:642,0,-12.7283,-4.94414,62.6599,Q,Q
2023-03-14 18:14:14:652,0,-12.7201,-4.93791,62.6531,Q,Q
2023-03-14 18:14:14:662,0,-12.7097,-4.93748,62.6474,Q,Q
2023-03-14 18:14:14:672,0,-12.7051,-4.93503,62.641,Q,Q
2023-03-14 18:14:14:682,0,-12.7024,-4.93422,62.6385,Q,Q
2023-03-14 18:14:14:692,0,-12.7014,-4.93461,62.6379,Q,Q
2023-03-14 18:14:14:702,0,-12.6995,-4.93683,62.6389,Q,Q
2023-03-14 18:14:14:712,0,-12.6977,-4.93677,62.6399,Q,Q
2023-03-14 18:14:14:722,0,-12.6959,-4.939,62.6442,Q,Q
2023-03-14 18:14:14:732,0,-12.6967,-4.9402,62.6493,Q,Q
2023-03-14 18:14:14:742,0,-12.6953,-4.94402,62.6499,Q,Q
2023-03-14 18:14:14:752,0,-12.6896,-4.94774,62.6521,Q,Q
2023-03-14 18:14:14:762,0,-12.6865,-4.95241,62.6588,Q,Q
2023-03-14 18:14:14:772,0,-12.6865,-4.95964,62.6661,Q,Q
2023-03-14 18:14:14:782,0,-12.684,-4.96766,62.6728,Q,Q
2023-03-14 18:14:14:792,0,-12.6814,-4.97454,62.6792,Q,Q
2023-03-14 18:14:14:802,0,-12.6823,-4.98363,62.6901,Q,Q
2023-03-14 18:14:14:812,0,-12.6801,-4.98945,62.698,Q,Q
2023-03-14 18:14:14:822,0,-12.6798,-4.99364,62.7034,Q,Q
2023-03-14 18:14:14:832,0,-12.6809,-4.99941,62.7101,Q,Q
2023-03-14 18:14:14:842,0,-12.6817,-5.00413,62.7131,Q,Q
2023-03-14 18:14:14:852,0,-12.6814,-5.00943,62.7168,Q,Q
2023-03-14 18:14:14:862,0,-12.6783,-5.01169,62.7218,Q,Q
2023-03-14 18:14:14:872,0,-12.6767,-5.01583,62.7229,Q,Q
2023-03-14 18:14:14:882,0,-12.6748,-5.01869,62.724,Q,Q
2023-03-14 18:14:14:892,0,-12.6723,-5.02053,62.7254,Q,Q
2023-03-14 18:14:14:902,0,-12.6697,-5.02538,62.7275,Q,Q
2023-03-14 18:14:14:912,0,-12.6708,-5.02862,62.7268,Q,Q
2023-03-14 18:14:14:922,0,-12.6709,-5.03041,62.727,Q,Q
2023-03-14 18:14:14:932,0,-12.6677,-5.03001,62.7279,Q,Q
2023-03-14 18:14:14:942,0,-12.6611,-5.03096,62.7262,Q,Q
2023-03-14 18:14:14:952,0,-12.6612,-5.03573,62.7333,Q,Q
2023-03-14 18:14:14:962,0,-12.6638,-5.04083,62.7395,Q,Q
2023-03-14 18:14:14:972,0,-12.6706,-5.04455,62.7521,Q,Q
2023-03-14 18:14:14:982,0,-12.6737,-5.05311,62.7629,Q,Q
2023-03-14 18:14:14:992,0,-12.6792,-5.05713,62.7719,Q,Q
2023-03-14 18:14:15:2,0,-12.6824,-5.06095,62.7785,Q,Q
2023-03-14 18:14:15:12,0,-12.6875,-5.06258,62.7846,Q,Q
2023-03-14 18:14:15:22,0,-12.6881,-5.06114,62.7904,Q,Q
2023-03-14 18:14:15:32,0,-12.692,-5.06147,62.7956,Q,Q
2023-03-14 18:14:15:42,0,-12.696,-5.06369,62.7996,Q,Q
2023-03-14 18:14:15:52,0,-12.6969,-5.06444,62.8006,Q,Q
2023-03-14 18:14:15:62,0,-12.7012,-5.06511,62.7982,Q,Q
2023-03-14 18:14:15:72,0,-12.7126,-5.06144,62.7961,Q,Q
2023-03-14 18:14:15:82,0,-12.7218,-5.06073,62.7937,Q,Q
2023-03-14 18:14:15:92,0,-12.7277,-5.06405,62.794,Q,Q
2023-03-14 18:14:15:102,0,-12.7366,-5.06216,62.7921,Q,Q
2023-03-14 18:14:15:112,0,-12.7423,-5.05996,62.7891,Q,Q
