Timestamp_cmd,imu_cmd,roll_delta,pitch_delta,yaw_delta
2023-03-11 17:19:33:290,0,-4.04338,-1.23789,88.4965
2023-03-11 17:19:33:298,0,-4.07548,-1.22173,88.4996
2023-03-11 17:19:33:308,0,-4.10034,-1.20526,88.5063
2023-03-11 17:19:33:318,0,-4.11834,-1.18851,88.5144
2023-03-11 17:19:33:328,0,-4.12949,-1.17773,88.5233
2023-03-11 17:19:33:339,0,-4.13562,-1.1608,88.5321
2023-03-11 17:19:33:348,0,-4.13047,-1.14707,88.5371
2023-03-11 17:19:33:358,0,-4.11146,-1.13716,88.5312
2023-03-11 17:19:33:368,0,-4.0822,-1.12434,88.5181
2023-03-11 17:19:33:379,0,-4.04194,-1.10715,88.4997
2023-03-11 17:19:33:388,0,-3.99638,-1.09399,88.4726
2023-03-11 17:19:33:398,0,-3.95174,-1.07706,88.447
2023-03-11 17:19:33:408,0,-3.9066,-1.05738,88.4196
2023-03-11 17:19:33:419,0,-3.86921,-1.03287,88.3904
2023-03-11 17:19:33:429,0,-3.84076,-1.00235,88.3612
2023-03-11 17:19:33:439,0,-3.81675,-0.968994,88.3309
2023-03-11 17:19:33:449,0,-3.79991,-0.937923,88.3067
2023-03-11 17:19:33:459,0,-3.78905,-0.90586,88.2865
2023-03-11 17:19:33:469,0,-3.78309,-0.873086,88.2745
2023-03-11 17:19:33:478,0,-3.79165,-0.843327,88.2658
2023-03-11 17:19:33:488,0,-3.81115,-0.822967,88.2659
2023-03-11 17:19:33:499,0,-3.84796,-0.809641,88.2743
2023-03-11 17:19:33:508,0,-3.89906,-0.805911,88.2863
2023-03-11 17:19:33:518,0,-3.9653,-0.814355,88.3064
2023-03-11 17:19:33:528,0,-4.03489,-0.828393,88.3306
2023-03-11 17:19:33:538,0,-4.10438,-0.846584,88.356
2023-03-11 17:19:33:549,0,-4.16487,-0.86687,88.3822
2023-03-11 17:19:33:559,0,-4.21022,-0.887706,88.4051
2023-03-11 17:19:33:568,0,-4.24383,-0.905984,88.42
2023-03-11 17:19:33:579,0,-4.26844,-0.924375,88.4298
2023-03-11 17:19:33:589,0,-4.29293,-0.950883,88.4371
2023-03-11 17:19:33:599,0,-4.31563,-0.980343,88.4381
2023-03-11 17:19:33:609,0,-4.3353,-1.00824,88.4339
2023-03-11 17:19:33:618,0,-4.35369,-1.03206,88.4232
2023-03-11 17:19:33:628,0,-4.37302,-1.059,88.4134
2023-03-11 17:19:33:638,0,-4.38502,-1.08175,88.3987
2023-03-11 17:19:33:648,0,-4.39613,-1.10488,88.3862
2023-03-11 17:19:33:658,0,-4.39901,-1.12959,88.3712
2023-03-11 17:19:33:668,0,-4.39134,-1.15193,88.3518
2023-03-11 17:19:33:678,0,-4.37517,-1.17519,88.3366
2023-03-11 17:19:33:688,0,-4.353,-1.1977,88.3224
2023-03-11 17:19:33:698,0,-4.33248,-1.22244,88.3048
2023-03-11 17:19:33:709,0,-4.31137,-1.24212,88.2936
2023-03-11 17:19:33:718,0,-4.28394,-1.26029,88.2821
2023-03-11 17:19:33:728,0,-4.25889,-1.2729,88.2705
2023-03-11 17:19:33:738,0,-4.23451,-1.2809,88.2555
2023-03-11 17:19:33:748,0,-4.20908,-1.28223,88.2353
2023-03-11 17:19:33:758,0,-4.18286,-1.28561,88.2155
2023-03-11 17:19:33:768,0,-4.15393,-1.29207,88.2011
2023-03-11 17:19:33:778,0,-4.12344,-1.29883,88.1906
2023-03-11 17:19:33:788,0,-4.09846,-1.30646,88.1819
2023-03-11 17:19:33:798,0,-4.07831,-1.31416,88.177
2023-03-11 17:19:33:808,0,-4.06158,-1.32104,88.1706
2023-03-11 17:19:33:818,0,-4.04553,-1.32206,88.168
2023-03-11 17:19:33:828,0,-4.03242,-1.31983,88.161
2023-03-11 17:19:33:838,0,-4.02283,-1.31678,88.1536
2023-03-11 17:19:33:848,0,-4.01467,-1.31426,88.1461
2023-03-11 17:19:33:858,0,-4.01327,-1.31106,88.141
2023-03-11 17:19:33:868,0,-4.0208,-1.30575,88.1401
2023-03-11 17:19:33:878,0,-4.03184,-1.29862,88.1395
2023-03-11 17:19:33:888,0,-4.04999,-1.29077,88.1398
2023-03-11 17:19:33:898,0,-4.07463,-1.28108,88.1428
2023-03-11 17:19:33:908,0,-4.10464,-1.26722,88.1462
2023-03-11 17:19:33:918,0,-4.13768,-1.2541,88.1544
2023-03-11 17:19:33:928,0,-4.17719,-1.24416,88.1626
2023-03-11 17:19:33:938,0,-4.21769,-1.23731,88.171
2023-03-11 17:19:33:948,0,-4.26333,-1.23238,88.1756
2023-03-11 17:19:33:959,0,-4.30868,-1.22889,88.1824
2023-03-11 17:19:33:968,0,-4.35081,-1.22052,88.184
2023-03-11 17:19:33:978,0,-4.39171,-1.20818,88.181
2023-03-11 17:19:33:988,0,-4.42418,-1.19567,88.1687
2023-03-11 17:19:33:998,0,-4.4503,-1.18171,88.1527
2023-03-11 17:19:34:8,0,-4.47328,-1.16807,88.1367
2023-03-11 17:19:34:18,0,-4.49193,-1.15814,88.1235
2023-03-11 17:19:34:28,0,-4.50649,-1.14718,88.1155
2023-03-11 17:19:34:38,0,-4.52893,-1.13577,88.1111
2023-03-11 17:19:34:48,0,-4.55068,-1.1245,88.1113
2023-03-11 17:19:34:58,0,-4.57364,-1.11496,88.1169
2023-03-11 17:19:34:68,0,-4.59745,-1.10534,88.125
2023-03-11 17:19:34:78,0,-4.61479,-1.09873,88.1347
2023-03-11 17:19:34:88,0,-4.63591,-1.09193,88.1445
2023-03-11 17:19:34:98,0,-4.65318,-1.09112,88.1507
2023-03-11 17:19:34:108,0,-4.66979,-1.09296,88.1598
2023-03-11 17:19:34:118,0,-4.68799,-1.09891,88.1669
2023-03-11 17:19:34:128,0,-4.70368,-1.10969,88.1729
2023-03-11 17:19:34:138,0,-4.71932,-1.12545,88.1755
2023-03-11 17:19:34:148,0,-4.7306,-1.14381,88.1741
2023-03-11 17:19:34:158,0,-4.74253,-1.1621,88.1693
2023-03-11 17:19:34:168,0,-4.74596,-1.18476,88.1607
2023-03-11 17:19:34:178,0,-4.7423,-1.20876,88.147
2023-03-11 17:19:34:188,0,-4.73034,-1.2296,88.1325
2023-03-11 17:19:34:198,0,-4.71269,-1.25213,88.1169
2023-03-11 17:19:34:208,0,-4.68683,-1.27616,88.1038
2023-03-11 17:19:34:218,0,-4.66058,-1.29639,88.0896
2023-03-11 17:19:34:228,0,-4.63713,-1.30914,88.0785
2023-03-11 17:19:34:238,0,-4.60618,-1.32062,88.0687
2023-03-11 17:19:34:248,0,-4.57232,-1.32211,88.0569
2023-03-11 17:19:34:258,0,-4.53709,-1.31394,88.0446
2023-03-11 17:19:34:268,0,-4.50578,-1.29792,88.0338
2023-03-11 17:19:34:278,0,-4.47572,-1.27237,88.0229
2023-03-11 17:19:34:288,0,-4.46087,-1.22754,88.0125
2023-03-11 17:19:34:298,0,-4.46501,-1.16085,87.9962
2023-03-11 17:19:34:308,0,-4.4831,-1.0918,87.9685
2023-03-11 17:19:34:319,0,-4.5041,-1.02499,87.9388
2023-03-11 17:19:34:329,0,-4.52372,-0.974601,87.904
2023-03-11 17:19:34:339,0,-4.53536,-0.94295,87.8755
2023-03-11 17:19:34:349,0,-4.5392,-0.933651,87.8474
2023-03-11 17:19:34:359,0,-4.54802,-0.93889,87.8255
2023-03-11 17:19:34:368,0,-4.55043,-0.95537,87.8012
2023-03-11 17:19:34:378,0,-4.554,-0.972399,87.7789
2023-03-11 17:19:34:388,0,-4.5549,-0.982459,87.756
2023-03-11 17:19:34:398,0,-4.5545,-0.99322,87.7308
2023-03-11 17:19:34:408,0,-4.557,-0.999813,87.699
2023-03-11 17:19:34:418,0,-4.55696,-0.998922,87.6652
2023-03-11 17:19:34:428,0,-4.5559,-0.991496,87.6314
2023-03-11 17:19:34:438,0,-4.55207,-0.978389,87.5977
2023-03-11 17:19:34:448,0,-4.54682,-0.960722,87.5594
2023-03-11 17:19:34:458,0,-4.53807,-0.93756,87.5217
2023-03-11 17:19:34:468,0,-4.53407,-0.908293,87.4846
2023-03-11 17:19:34:478,0,-4.53733,-0.87958,87.4473
2023-03-11 17:19:34:488,0,-4.53898,-0.850993,87.4084
2023-03-11 17:19:34:498,0,-4.54011,-0.824801,87.3751
2023-03-11 17:19:34:508,0,-4.54561,-0.799525,87.3401
2023-03-11 17:19:34:518,0,-4.55211,-0.780379,87.3077
2023-03-11 17:19:34:528,0,-4.56478,-0.767563,87.2771
2023-03-11 17:19:34:538,0,-4.57788,-0.760205,87.249
2023-03-11 17:19:34:548,0,-4.59085,-0.756831,87.2227
2023-03-11 17:19:34:558,0,-4.60456,-0.7596,87.1983
2023-03-11 17:19:34:568,0,-4.61375,-0.76668,87.1782
2023-03-11 17:19:34:578,0,-4.6241,-0.775627,87.1601
2023-03-11 17:19:34:588,0,-4.62291,-0.792811,87.1462
2023-03-11 17:19:34:598,0,-4.6198,-0.811584,87.1371
2023-03-11 17:19:34:608,0,-4.61084,-0.835333,87.1351
2023-03-11 17:19:34:618,0,-4.60295,-0.860276,87.1357
2023-03-11 17:19:34:628,0,-4.5928,-0.884278,87.1495
2023-03-11 17:19:34:638,0,-4.57577,-0.908738,87.1694
2023-03-11 17:19:34:648,0,-4.56228,-0.933364,87.1963
2023-03-11 17:19:34:658,0,-4.5474,-0.957122,87.2337
2023-03-11 17:19:34:668,0,-4.53676,-0.982387,87.2769
2023-03-11 17:19:34:678,0,-4.53275,-1.00119,87.3235
2023-03-11 17:19:34:688,0,-4.53299,-1.0151,87.3676
2023-03-11 17:19:34:698,0,-4.5406,-1.02712,87.4156
2023-03-11 17:19:34:708,0,-4.55324,-1.03707,87.4618
2023-03-11 17:19:34:718,0,-4.57082,-1.0458,87.5037
2023-03-11 17:19:34:728,0,-4.5915,-1.05452,87.5457
2023-03-11 17:19:34:738,0,-4.61558,-1.06224,87.5884
2023-03-11 17:19:34:748,0,-4.6425,-1.07361,87.6302
2023-03-11 17:19:34:758,0,-4.66716,-1.08456,87.6692
2023-03-11 17:19:34:768,0,-4.69376,-1.09125,87.7029
2023-03-11 17:19:34:778,0,-4.71899,-1.10369,87.7365
2023-03-11 17:19:34:788,0,-4.74911,-1.11638,87.7625
2023-03-11 17:19:34:798,0,-4.7767,-1.12424,87.7815
2023-03-11 17:19:34:808,0,-4.8061,-1.13183,87.7932
2023-03-11 17:19:34:818,0,-4.83119,-1.14288,87.7999
2023-03-11 17:19:34:828,0,-4.8537,-1.15188,87.8021
2023-03-11 17:19:34:838,0,-4.87387,-1.1589,87.8
2023-03-11 17:19:34:848,0,-4.88977,-1.16385,87.7924
2023-03-11 17:19:34:858,0,-4.90504,-1.16747,87.7841
2023-03-11 17:19:34:868,0,-4.91498,-1.17383,87.7721
2023-03-11 17:19:34:878,0,-4.92198,-1.18099,87.7554
2023-03-11 17:19:34:888,0,-4.92727,-1.1897,87.748
2023-03-11 17:19:34:898,0,-4.92939,-1.19823,87.7367
2023-03-11 17:19:34:908,0,-4.93159,-1.20231,87.7243
2023-03-11 17:19:34:918,0,-4.9313,-1.21021,87.7149
2023-03-11 17:19:34:928,0,-4.92596,-1.21364,87.7053
2023-03-11 17:19:34:938,0,-4.9162,-1.21074,87.6979
2023-03-11 17:19:34:948,0,-4.9026,-1.20637,87.6948
2023-03-11 17:19:34:958,0,-4.89083,-1.20123,87.6924
2023-03-11 17:19:34:968,0,-4.875,-1.1951,87.6982
2023-03-11 17:19:34:978,0,-4.86198,-1.19028,87.7078
2023-03-11 17:19:34:988,0,-4.85273,-1.18276,87.7195
2023-03-11 17:19:34:998,0,-4.83746,-1.17456,87.7334
2023-03-11 17:19:35:8,0,-4.81885,-1.16781,87.7484
2023-03-11 17:19:35:18,0,-4.79624,-1.16031,87.7629
2023-03-11 17:19:35:29,0,-4.77341,-1.1521,87.772
2023-03-11 17:19:35:39,0,-4.74954,-1.1492,87.7758
2023-03-11 17:19:35:49,0,-4.7265,-1.14566,87.7768
2023-03-11 17:19:35:59,0,-4.70215,-1.14101,87.7704
2023-03-11 17:19:35:68,0,-4.67554,-1.13005,87.7539
2023-03-11 17:19:35:79,0,-4.64688,-1.11947,87.7346
2023-03-11 17:19:35:88,0,-4.62061,-1.10619,87.7142
2023-03-11 17:19:35:98,0,-4.59206,-1.08468,87.6893
2023-03-11 17:19:35:108,0,-4.5683,-1.05949,87.6632
2023-03-11 17:19:35:118,0,-4.55196,-1.03247,87.64
2023-03-11 17:19:35:128,0,-4.53636,-1.00046,87.6161
2023-03-11 17:19:35:139,0,-4.52993,-0.97079,87.5952
2023-03-11 17:19:35:148,0,-4.52993,-0.940935,87.5777
2023-03-11 17:19:35:159,0,-4.53558,-0.909931,87.559
2023-03-11 17:19:35:169,0,-4.54743,-0.880013,87.5421
2023-03-11 17:19:35:179,0,-4.56432,-0.850927,87.5275
2023-03-11 17:19:35:189,0,-4.58369,-0.823481,87.5071
2023-03-11 17:19:35:199,0,-4.60516,-0.79819,87.4861
2023-03-11 17:19:35:209,0,-4.62865,-0.77764,87.4642
2023-03-11 17:19:35:218,0,-4.65327,-0.760861,87.4449
2023-03-11 17:19:35:229,0,-4.68025,-0.753258,87.4257
2023-03-11 17:19:35:239,0,-4.70313,-0.747468,87.4076
2023-03-11 17:19:35:248,0,-4.72163,-0.745351,87.391
2023-03-11 17:19:35:258,0,-4.7403,-0.743521,87.3784
2023-03-11 17:19:35:268,0,-4.76024,-0.748359,87.3673
2023-03-11 17:19:35:279,0,-4.77911,-0.751856,87.361
2023-03-11 17:19:35:289,0,-4.79645,-0.758071,87.3553
2023-03-11 17:19:35:299,0,-4.81341,-0.771152,87.3465
2023-03-11 17:19:35:309,0,-4.82403,-0.784203,87.343
2023-03-11 17:19:35:319,0,-4.8347,-0.797646,87.3451
2023-03-11 17:19:35:329,0,-4.8475,-0.810397,87.3464
2023-03-11 17:19:35:338,0,-4.85546,-0.823,87.3455
2023-03-11 17:19:35:348,0,-4.86168,-0.837052,87.3487
2023-03-11 17:19:35:359,0,-4.86604,-0.847246,87.3483
2023-03-11 17:19:35:369,0,-4.87049,-0.859934,87.3469
2023-03-11 17:19:35:379,0,-4.87643,-0.866697,87.342
2023-03-11 17:19:35:388,0,-4.87407,-0.878579,87.3363
2023-03-11 17:19:35:399,0,-4.87061,-0.894352,87.331
2023-03-11 17:19:35:409,0,-4.86313,-0.907132,87.3253
2023-03-11 17:19:35:419,0,-4.85967,-0.917314,87.3218
2023-03-11 17:19:35:429,0,-4.85587,-0.922281,87.3203
2023-03-11 17:19:35:439,0,-4.85764,-0.920447,87.3201
2023-03-11 17:19:35:449,0,-4.86202,-0.918676,87.3223
2023-03-11 17:19:35:458,0,-4.87274,-0.917665,87.3273
2023-03-11 17:19:35:468,0,-4.88592,-0.912825,87.3361
2023-03-11 17:19:35:478,0,-4.90096,-0.907831,87.3504
2023-03-11 17:19:35:488,0,-4.91314,-0.901525,87.3652
2023-03-11 17:19:35:498,0,-4.92875,-0.893818,87.3795
2023-03-11 17:19:35:508,0,-4.9444,-0.88185,87.3961
2023-03-11 17:19:35:518,0,-4.96472,-0.875286,87.4148
2023-03-11 17:19:35:528,0,-4.9874,-0.870195,87.4307
2023-03-11 17:19:35:538,0,-5.00621,-0.866643,87.4422
2023-03-11 17:19:35:548,0,-5.02675,-0.864147,87.4532
2023-03-11 17:19:35:559,0,-5.04625,-0.860859,87.4634
2023-03-11 17:19:35:569,0,-5.05795,-0.862081,87.4671
2023-03-11 17:19:35:578,0,-5.06454,-0.859313,87.468
2023-03-11 17:19:35:589,0,-5.07248,-0.857934,87.4653
2023-03-11 17:19:35:599,0,-5.07933,-0.85243,87.4605
2023-03-11 17:19:35:609,0,-5.0867,-0.843718,87.4505
2023-03-11 17:19:35:619,0,-5.0897,-0.831054,87.4365
2023-03-11 17:19:35:629,0,-5.09,-0.818171,87.4219
2023-03-11 17:19:35:639,0,-5.09694,-0.808778,87.4087
2023-03-11 17:19:35:649,0,-5.10269,-0.798015,87.4004
2023-03-11 17:19:35:658,0,-5.11226,-0.789366,87.3974
2023-03-11 17:19:35:668,0,-5.11994,-0.779927,87.3984
2023-03-11 17:19:35:679,0,-5.12775,-0.767986,87.3993
2023-03-11 17:19:35:689,0,-5.13231,-0.759276,87.4047
2023-03-11 17:19:35:699,0,-5.13807,-0.748366,87.4117
2023-03-11 17:19:35:709,0,-5.13964,-0.739455,87.4117
2023-03-11 17:19:35:719,0,-5.13789,-0.734924,87.4093
2023-03-11 17:19:35:729,0,-5.13469,-0.73271,87.4066
2023-03-11 17:19:35:738,0,-5.12925,-0.740298,87.4004
2023-03-11 17:19:35:748,0,-5.11982,-0.745388,87.3941
2023-03-11 17:19:35:758,0,-5.11046,-0.752768,87.3827
2023-03-11 17:19:35:768,0,-5.10019,-0.76472,87.3769
2023-03-11 17:19:35:779,0,-5.08337,-0.7727,87.373
2023-03-11 17:19:35:788,0,-5.06884,-0.784088,87.3671
2023-03-11 17:19:35:798,0,-5.04993,-0.795485,87.3659
2023-03-11 17:19:35:809,0,-5.0338,-0.807657,87.372
2023-03-11 17:19:35:818,0,-5.02018,-0.820045,87.3812
2023-03-11 17:19:35:828,0,-5.01068,-0.833613,87.4013
2023-03-11 17:19:35:838,0,-5.00209,-0.847408,87.4277
2023-03-11 17:19:35:849,0,-4.99332,-0.860759,87.4553
2023-03-11 17:19:35:859,0,-4.98306,-0.871976,87.4859
2023-03-11 17:19:35:869,0,-4.97268,-0.885603,87.5115
2023-03-11 17:19:35:879,0,-4.96028,-0.895193,87.5368
2023-03-11 17:19:35:888,0,-4.93903,-0.905188,87.551
2023-03-11 17:19:35:898,0,-4.91505,-0.913011,87.5641
2023-03-11 17:19:35:908,0,-4.88369,-0.920862,87.5678
2023-03-11 17:19:35:918,0,-4.8509,-0.924558,87.5644
2023-03-11 17:19:35:928,0,-4.81652,-0.927125,87.5556
2023-03-11 17:19:35:938,0,-4.78751,-0.925812,87.5447
2023-03-11 17:19:35:948,0,-4.76743,-0.9199,87.5342
2023-03-11 17:19:35:959,0,-4.75323,-0.906748,87.5196
2023-03-11 17:19:35:969,0,-4.75038,-0.893466,87.504
2023-03-11 17:19:35:979,0,-4.75703,-0.875734,87.4897
2023-03-11 17:19:35:989,0,-4.76385,-0.858749,87.471
2023-03-11 17:19:35:999,0,-4.77549,-0.840896,87.4552
2023-03-11 17:19:36:9,0,-4.78642,-0.826751,87.4394
2023-03-11 17:19:36:19,0,-4.79726,-0.812373,87.4251
2023-03-11 17:19:36:29,0,-4.80999,-0.803491,87.4091
2023-03-11 17:19:36:38,0,-4.82481,-0.790729,87.3977
2023-03-11 17:19:36:49,0,-4.84521,-0.786974,87.3874
2023-03-11 17:19:36:59,0,-4.86267,-0.778767,87.3802
2023-03-11 17:19:36:68,0,-4.86543,-0.769851,87.377
2023-03-11 17:19:36:78,0,-4.85172,-0.758313,87.3806
2023-03-11 17:19:36:89,0,-4.82561,-0.746763,87.3902
2023-03-11 17:19:36:98,0,-4.80286,-0.730763,87.4048
2023-03-11 17:19:36:109,0,-4.78149,-0.717869,87.4224
2023-03-11 17:19:36:119,0,-4.76053,-0.704224,87.4391
2023-03-11 17:19:36:129,0,-4.73345,-0.694312,87.4542
2023-03-11 17:19:36:139,0,-4.70205,-0.686752,87.4678
2023-03-11 17:19:36:148,0,-4.66585,-0.676192,87.4779
2023-03-11 17:19:36:158,0,-4.62909,-0.670151,87.485
2023-03-11 17:19:36:169,0,-4.5925,-0.667004,87.4882
2023-03-11 17:19:36:179,0,-4.55517,-0.666451,87.4877
2023-03-11 17:19:36:189,0,-4.52405,-0.669549,87.4868
2023-03-11 17:19:36:199,0,-4.49766,-0.671564,87.487
2023-03-11 17:19:36:209,0,-4.47071,-0.676757,87.479
2023-03-11 17:19:36:219,0,-4.449,-0.685523,87.4722
2023-03-11 17:19:36:229,0,-4.43192,-0.70189,87.4674
2023-03-11 17:19:36:239,0,-4.41667,-0.716194,87.4678
2023-03-11 17:19:36:248,0,-4.4058,-0.736665,87.4696
2023-03-11 17:19:36:259,0,-4.40139,-0.751102,87.4779
2023-03-11 17:19:36:269,0,-4.4028,-0.765056,87.4906
2023-03-11 17:19:36:278,0,-4.40659,-0.776188,87.5099
2023-03-11 17:19:36:289,0,-4.41177,-0.791959,87.5278
2023-03-11 17:19:36:299,0,-4.42204,-0.805364,87.5505
2023-03-11 17:19:36:309,0,-4.43474,-0.820167,87.5782
2023-03-11 17:19:36:319,0,-4.44805,-0.838317,87.6038
2023-03-11 17:19:36:329,0,-4.46674,-0.853972,87.629
2023-03-11 17:19:36:339,0,-4.48761,-0.873156,87.6534
2023-03-11 17:19:36:349,0,-4.50381,-0.890301,87.6761
2023-03-11 17:19:36:359,0,-4.51682,-0.910544,87.6955
2023-03-11 17:19:36:369,0,-4.52933,-0.927542,87.7168
2023-03-11 17:19:36:379,0,-4.53335,-0.941049,87.7344
2023-03-11 17:19:36:389,0,-4.53302,-0.954442,87.7496
2023-03-11 17:19:36:398,0,-4.53279,-0.963283,87.7633
2023-03-11 17:19:36:409,0,-4.53527,-0.969441,87.7706
2023-03-11 17:19:36:419,0,-4.54562,-0.971227,87.7775
2023-03-11 17:19:36:429,0,-4.55845,-0.969069,87.7829
2023-03-11 17:19:36:439,0,-4.57682,-0.966206,87.782
2023-03-11 17:19:36:449,0,-4.59276,-0.957583,87.7755
2023-03-11 17:19:36:459,0,-4.60697,-0.951366,87.7705
2023-03-11 17:19:36:469,0,-4.62329,-0.950492,87.7648
2023-03-11 17:19:36:479,0,-4.63466,-0.943176,87.7596
2023-03-11 17:19:36:488,0,-4.64344,-0.941139,87.7567
2023-03-11 17:19:36:499,0,-4.65565,-0.93382,87.7538
2023-03-11 17:19:36:508,0,-4.66526,-0.923545,87.7519
2023-03-11 17:19:36:519,0,-4.67542,-0.911555,87.7461
2023-03-11 17:19:36:529,0,-4.69019,-0.896521,87.7404
2023-03-11 17:19:36:538,0,-4.70686,-0.881439,87.7307
2023-03-11 17:19:36:549,0,-4.72197,-0.87034,87.7186
2023-03-11 17:19:36:559,0,-4.73773,-0.860533,87.7014
2023-03-11 17:19:36:569,0,-4.7507,-0.848447,87.6853
2023-03-11 17:19:36:579,0,-4.76195,-0.840786,87.6663
2023-03-11 17:19:36:589,0,-4.77165,-0.835145,87.646
2023-03-11 17:19:36:599,0,-4.77697,-0.830906,87.6279
2023-03-11 17:19:36:608,0,-4.78813,-0.82745,87.6122
2023-03-11 17:19:36:619,0,-4.79628,-0.822853,87.5962
2023-03-11 17:19:36:629,0,-4.80516,-0.820019,87.5859
2023-03-11 17:19:36:639,0,-4.81183,-0.813682,87.5779
2023-03-11 17:19:36:649,0,-4.82031,-0.8121,87.573
2023-03-11 17:19:36:659,0,-4.82899,-0.81148,87.5676
2023-03-11 17:19:36:668,0,-4.83544,-0.810243,87.5624
2023-03-11 17:19:36:679,0,-4.84105,-0.811057,87.5629
2023-03-11 17:19:36:689,0,-4.84609,-0.812411,87.5617
2023-03-11 17:19:36:699,0,-4.8507,-0.814226,87.5615
2023-03-11 17:19:36:709,0,-4.85284,-0.810959,87.5588
2023-03-11 17:19:36:719,0,-4.85739,-0.81458,87.5558
2023-03-11 17:19:36:728,0,-4.86101,-0.817471,87.5497
2023-03-11 17:19:36:739,0,-4.86605,-0.821801,87.548
2023-03-11 17:19:36:749,0,-4.86839,-0.826589,87.5422
2023-03-11 17:19:36:758,0,-4.87046,-0.830576,87.5385
2023-03-11 17:19:36:768,0,-4.87601,-0.835384,87.535
2023-03-11 17:19:36:778,0,-4.8827,-0.840544,87.5329
2023-03-11 17:19:36:788,0,-4.8836,-0.843686,87.5263
2023-03-11 17:19:36:799,0,-4.88406,-0.84871,87.5212
2023-03-11 17:19:36:809,0,-4.887,-0.849874,87.5155
2023-03-11 17:19:36:819,0,-4.88612,-0.847599,87.5081
2023-03-11 17:19:36:829,0,-4.8884,-0.843618,87.5005
2023-03-11 17:19:36:838,0,-4.88936,-0.838878,87.4923
2023-03-11 17:19:36:848,0,-4.89211,-0.839045,87.4817
2023-03-11 17:19:36:859,0,-4.8932,-0.837444,87.4689
2023-03-11 17:19:36:869,0,-4.88649,-0.837959,87.4569
2023-03-11 17:19:36:879,0,-4.88044,-0.834079,87.4464
2023-03-11 17:19:36:889,0,-4.8706,-0.83193,87.4354
2023-03-11 17:19:36:899,0,-4.86574,-0.829605,87.4249
2023-03-11 17:19:36:908,0,-4.86232,-0.831933,87.4116
2023-03-11 17:19:36:919,0,-4.85994,-0.832839,87.4036
2023-03-11 17:19:36:929,0,-4.86027,-0.830544,87.3954
2023-03-11 17:19:36:939,0,-4.86392,-0.829817,87.3922
2023-03-11 17:19:36:949,0,-4.86942,-0.828446,87.3902
2023-03-11 17:19:36:958,0,-4.87044,-0.829689,87.3921
2023-03-11 17:19:36:968,0,-4.86682,-0.830293,87.393
2023-03-11 17:19:36:979,0,-4.86131,-0.830889,87.3971
2023-03-11 17:19:36:989,0,-4.84932,-0.830751,87.3997
2023-03-11 17:19:36:999,0,-4.8343,-0.831665,87.4011
2023-03-11 17:19:37:8,0,-4.82375,-0.83428,87.4036
2023-03-11 17:19:37:19,0,-4.81682,-0.839298,87.4034
2023-03-11 17:19:37:29,0,-4.81473,-0.845973,87.4048
2023-03-11 17:19:37:39,0,-4.81599,-0.854219,87.406
2023-03-11 17:19:37:49,0,-4.80951,-0.860958,87.4087
2023-03-11 17:19:37:59,0,-4.7963,-0.874289,87.4122
2023-03-11 17:19:37:69,0,-4.77995,-0.894468,87.4212
2023-03-11 17:19:37:79,0,-4.76514,-0.909737,87.4317
2023-03-11 17:19:37:88,0,-4.75282,-0.924348,87.4435
2023-03-11 17:19:37:99,0,-4.73718,-0.934773,87.4606
2023-03-11 17:19:37:108,0,-4.71997,-0.948856,87.4755
2023-03-11 17:19:37:118,0,-4.70649,-0.958922,87.4901
2023-03-11 17:19:37:129,0,-4.69433,-0.969963,87.5051
2023-03-11 17:19:37:139,0,-4.68587,-0.980181,87.517
2023-03-11 17:19:37:149,0,-4.67845,-0.986574,87.5285
2023-03-11 17:19:37:158,0,-4.6731,-0.992168,87.534
2023-03-11 17:19:37:168,0,-4.67174,-0.992531,87.535
2023-03-11 17:19:37:179,0,-4.66913,-0.991599,87.5338
2023-03-11 17:19:37:189,0,-4.67027,-0.985782,87.5301
2023-03-11 17:19:37:198,0,-4.67633,-0.981014,87.5253
2023-03-11 17:19:37:209,0,-4.68079,-0.976234,87.5196
2023-03-11 17:19:37:218,0,-4.69123,-0.965492,87.5104
2023-03-11 17:19:37:229,0,-4.70227,-0.956983,87.4955
2023-03-11 17:19:37:239,0,-4.71126,-0.947957,87.4831
2023-03-11 17:19:37:249,0,-4.72145,-0.940475,87.4734
2023-03-11 17:19:37:259,0,-4.73082,-0.930073,87.461
2023-03-11 17:19:37:268,0,-4.74316,-0.915867,87.4453
2023-03-11 17:19:37:278,0,-4.75646,-0.902086,87.4331
2023-03-11 17:19:37:289,0,-4.76496,-0.889331,87.419
2023-03-11 17:19:37:298,0,-4.76904,-0.88445,87.4082
2023-03-11 17:19:37:309,0,-4.76805,-0.880731,87.4004
2023-03-11 17:19:37:319,0,-4.76793,-0.875786,87.3933
2023-03-11 17:19:37:328,0,-4.77261,-0.871132,87.3899
2023-03-11 17:19:37:339,0,-4.777,-0.865298,87.385
2023-03-11 17:19:37:349,0,-4.78173,-0.860755,87.3791
2023-03-11 17:19:37:359,0,-4.79419,-0.853897,87.3744
2023-03-11 17:19:37:369,0,-4.80467,-0.849084,87.3703
2023-03-11 17:19:37:379,0,-4.81451,-0.850181,87.366
2023-03-11 17:19:37:389,0,-4.82717,-0.847957,87.3665
2023-03-11 17:19:37:399,0,-4.84264,-0.849216,87.363
2023-03-11 17:19:37:409,0,-4.84949,-0.853334,87.3568
2023-03-11 17:19:37:418,0,-4.85702,-0.860608,87.3484
2023-03-11 17:19:37:429,0,-4.85698,-0.867383,87.3444
2023-03-11 17:19:37:439,0,-4.85886,-0.875804,87.3383
2023-03-11 17:19:37:449,0,-4.85888,-0.882925,87.3392
2023-03-11 17:19:37:459,0,-4.85993,-0.885667,87.3411
2023-03-11 17:19:37:469,0,-4.86165,-0.888842,87.3403
2023-03-11 17:19:37:478,0,-4.86237,-0.893779,87.3398
2023-03-11 17:19:37:489,0,-4.86068,-0.895054,87.3427
2023-03-11 17:19:37:499,0,-4.86276,-0.897038,87.3455
2023-03-11 17:19:37:509,0,-4.86196,-0.897498,87.3477
2023-03-11 17:19:37:519,0,-4.86042,-0.895608,87.3505
2023-03-11 17:19:37:529,0,-4.85892,-0.896358,87.352
2023-03-11 17:19:37:538,0,-4.85518,-0.895545,87.3549
2023-03-11 17:19:37:549,0,-4.85102,-0.893975,87.3548
2023-03-11 17:19:37:558,0,-4.84897,-0.894077,87.3533
2023-03-11 17:19:37:569,0,-4.84484,-0.894246,87.351
2023-03-11 17:19:37:579,0,-4.84532,-0.893738,87.3493
2023-03-11 17:19:37:588,0,-4.85187,-0.893766,87.3472
2023-03-11 17:19:37:599,0,-4.8559,-0.890279,87.3471
2023-03-11 17:19:37:609,0,-4.86519,-0.892174,87.3408
2023-03-11 17:19:37:619,0,-4.87345,-0.892041,87.3344
2023-03-11 17:19:37:629,0,-4.88669,-0.891092,87.3317
2023-03-11 17:19:37:639,0,-4.89755,-0.889334,87.3266
2023-03-11 17:19:37:649,0,-4.90698,-0.887247,87.3211
2023-03-11 17:19:37:659,0,-4.90788,-0.885524,87.3132
2023-03-11 17:19:37:668,0,-4.90897,-0.878183,87.3116
2023-03-11 17:19:37:679,0,-4.90836,-0.873115,87.3123
2023-03-11 17:19:37:689,0,-4.90746,-0.862793,87.313
2023-03-11 17:19:37:699,0,-4.90519,-0.858466,87.317
2023-03-11 17:19:37:709,0,-4.89776,-0.854381,87.319
2023-03-11 17:19:37:719,0,-4.88698,-0.85259,87.3248
2023-03-11 17:19:37:729,0,-4.87559,-0.850257,87.3324
2023-03-11 17:19:37:739,0,-4.86429,-0.846989,87.3396
2023-03-11 17:19:37:749,0,-4.8558,-0.846356,87.3404
2023-03-11 17:19:37:759,0,-4.85273,-0.845108,87.3426
2023-03-11 17:19:37:769,0,-4.85213,-0.839554,87.3442
2023-03-11 17:19:37:779,0,-4.85177,-0.833926,87.3391
2023-03-11 17:19:37:788,0,-4.85187,-0.827528,87.3312
2023-03-11 17:19:37:798,0,-4.84584,-0.820703,87.3245
2023-03-11 17:19:37:809,0,-4.83688,-0.817419,87.3162
2023-03-11 17:19:37:819,0,-4.8259,-0.816618,87.3062
2023-03-11 17:19:37:829,0,-4.81397,-0.817416,87.3026
2023-03-11 17:19:37:839,0,-4.80687,-0.81804,87.3017
2023-03-11 17:19:37:849,0,-4.79976,-0.813865,87.3033
2023-03-11 17:19:37:859,0,-4.79334,-0.815852,87.3046
2023-03-11 17:19:37:869,0,-4.78912,-0.818882,87.3091
2023-03-11 17:19:37:879,0,-4.78814,-0.823859,87.3176
2023-03-11 17:19:37:888,0,-4.78761,-0.833675,87.3272
2023-03-11 17:19:37:899,0,-4.78666,-0.845823,87.3363
2023-03-11 17:19:37:908,0,-4.78585,-0.853692,87.3478
2023-03-11 17:19:37:918,0,-4.78258,-0.862229,87.3564
2023-03-11 17:19:37:928,0,-4.77775,-0.868771,87.3694
2023-03-11 17:19:37:939,0,-4.77649,-0.880336,87.3805
2023-03-11 17:19:37:949,0,-4.77279,-0.890928,87.394
2023-03-11 17:19:37:959,0,-4.77275,-0.901356,87.4099
2023-03-11 17:19:37:969,0,-4.7742,-0.908045,87.4232
2023-03-11 17:19:37:979,0,-4.78041,-0.913363,87.4392
2023-03-11 17:19:37:988,0,-4.78965,-0.914591,87.4481
2023-03-11 17:19:37:999,0,-4.80042,-0.91415,87.4565
2023-03-11 17:19:38:9,0,-4.80863,-0.912894,87.4575
2023-03-11 17:19:38:18,0,-4.81786,-0.910591,87.4549
2023-03-11 17:19:38:29,0,-4.82879,-0.911485,87.4534
2023-03-11 17:19:38:39,0,-4.83747,-0.908304,87.4501
2023-03-11 17:19:38:49,0,-4.8401,-0.903789,87.4416
2023-03-11 17:19:38:59,0,-4.84407,-0.901328,87.4352
2023-03-11 17:19:38:69,0,-4.84567,-0.892295,87.4288
2023-03-11 17:19:38:79,0,-4.85231,-0.883331,87.4181
2023-03-11 17:19:38:88,0,-4.85935,-0.870613,87.4061
2023-03-11 17:19:38:99,0,-4.86181,-0.861108,87.3915
2023-03-11 17:19:38:109,0,-4.86008,-0.854067,87.3801
2023-03-11 17:19:38:119,0,-4.8584,-0.848678,87.3693
2023-03-11 17:19:38:128,0,-4.853,-0.843548,87.3592
2023-03-11 17:19:38:139,0,-4.84782,-0.836184,87.3498
2023-03-11 17:19:38:148,0,-4.83671,-0.82616,87.3431
2023-03-11 17:19:38:159,0,-4.82776,-0.813284,87.3345
2023-03-11 17:19:38:169,0,-4.81611,-0.80738,87.3272
2023-03-11 17:19:38:179,0,-4.80779,-0.803576,87.3265
2023-03-11 17:19:38:189,0,-4.79717,-0.804336,87.3241
2023-03-11 17:19:38:198,0,-4.78925,-0.809856,87.3296
2023-03-11 17:19:38:209,0,-4.78083,-0.815054,87.3318
2023-03-11 17:19:38:219,0,-4.77448,-0.819485,87.3357
2023-03-11 17:19:38:229,0,-4.7688,-0.824408,87.3363
2023-03-11 17:19:38:239,0,-4.7621,-0.834434,87.3376
2023-03-11 17:19:38:249,0,-4.7577,-0.845256,87.334
2023-03-11 17:19:38:259,0,-4.7623,-0.853601,87.3354
2023-03-11 17:19:38:269,0,-4.76916,-0.871034,87.3356
2023-03-11 17:19:38:278,0,-4.77599,-0.885448,87.3346
2023-03-11 17:19:38:288,0,-4.78506,-0.899338,87.3362
2023-03-11 17:19:38:298,0,-4.79513,-0.915513,87.3377
2023-03-11 17:19:38:308,0,-4.80397,-0.92634,87.3395
2023-03-11 17:19:38:318,0,-4.81386,-0.936276,87.3462
2023-03-11 17:19:38:328,0,-4.8299,-0.945194,87.3551
2023-03-11 17:19:38:338,0,-4.84352,-0.954019,87.3667
2023-03-11 17:19:38:348,0,-4.85739,-0.960973,87.3839
2023-03-11 17:19:38:358,0,-4.86888,-0.966127,87.4006
2023-03-11 17:19:38:368,0,-4.8807,-0.973765,87.4151
2023-03-11 17:19:38:378,0,-4.88856,-0.978193,87.4296
2023-03-11 17:19:38:388,0,-4.89661,-0.982636,87.4394
2023-03-11 17:19:38:398,0,-4.9091,-0.988595,87.4478
2023-03-11 17:19:38:408,0,-4.9184,-0.99438,87.4549
2023-03-11 17:19:38:418,0,-4.92971,-0.996373,87.4552
2023-03-11 17:19:38:428,0,-4.93389,-1.00167,87.4509
2023-03-11 17:19:38:438,0,-4.93659,-1.00254,87.4446
2023-03-11 17:19:38:448,0,-4.9362,-1.00655,87.4388
2023-03-11 17:19:38:458,0,-4.92997,-1.00815,87.4315
2023-03-11 17:19:38:468,0,-4.92785,-1.00959,87.4248
2023-03-11 17:19:38:478,0,-4.92445,-1.00887,87.4222
2023-03-11 17:19:38:488,0,-4.92684,-1.00591,87.4215
2023-03-11 17:19:38:498,0,-4.92663,-1.00489,87.4205
2023-03-11 17:19:38:508,0,-4.92589,-1.00519,87.4209
2023-03-11 17:19:38:518,0,-4.92394,-1.00583,87.4186
2023-03-11 17:19:38:528,0,-4.91643,-1.00424,87.4162
2023-03-11 17:19:38:538,0,-4.91141,-0.999893,87.4128
2023-03-11 17:19:38:548,0,-4.90002,-0.998148,87.4109
2023-03-11 17:19:38:558,0,-4.88382,-0.998186,87.4073
2023-03-11 17:19:38:568,0,-4.86941,-0.997831,87.4035
2023-03-11 17:19:38:578,0,-4.85217,-0.995619,87.4002
2023-03-11 17:19:38:588,0,-4.83525,-0.986312,87.4001
2023-03-11 17:19:38:598,0,-4.82383,-0.977895,87.3978
2023-03-11 17:19:38:608,0,-4.81037,-0.969587,87.3932
2023-03-11 17:19:38:618,0,-4.79785,-0.962729,87.387
2023-03-11 17:19:38:628,0,-4.78996,-0.955807,87.3787
2023-03-11 17:19:38:638,0,-4.78443,-0.947545,87.3703
2023-03-11 17:19:38:648,0,-4.78,-0.94083,87.3647
2023-03-11 17:19:38:658,0,-4.76738,-0.93988,87.3622
2023-03-11 17:19:38:668,0,-4.75201,-0.944637,87.3631
2023-03-11 17:19:38:678,0,-4.73218,-0.949103,87.3687
2023-03-11 17:19:38:688,0,-4.71781,-0.951866,87.3843
2023-03-11 17:19:38:698,0,-4.70939,-0.95682,87.4063
2023-03-11 17:19:38:708,0,-4.70434,-0.95927,87.4329
2023-03-11 17:19:38:718,0,-4.70531,-0.966432,87.469
2023-03-11 17:19:38:728,0,-4.70919,-0.975784,87.508
2023-03-11 17:19:38:738,0,-4.71333,-0.987234,87.5508
2023-03-11 17:19:38:748,0,-4.72479,-1.00012,87.5914
2023-03-11 17:19:38:758,0,-4.73196,-1.01413,87.6332
2023-03-11 17:19:38:768,0,-4.74248,-1.03216,87.6711
2023-03-11 17:19:38:778,0,-4.74936,-1.04403,87.7007
2023-03-11 17:19:38:788,0,-4.75431,-1.0506,87.7229
2023-03-11 17:19:38:798,0,-4.76144,-1.05856,87.7435
2023-03-11 17:19:38:808,0,-4.77384,-1.06532,87.7634
2023-03-11 17:19:38:818,0,-4.7836,-1.07203,87.7745
2023-03-11 17:19:38:828,0,-4.7913,-1.07535,87.7817
2023-03-11 17:19:38:838,0,-4.79796,-1.08167,87.7841
2023-03-11 17:19:38:848,0,-4.8087,-1.08603,87.7885
2023-03-11 17:19:38:858,0,-4.82187,-1.08916,87.7898
2023-03-11 17:19:38:868,0,-4.84191,-1.08959,87.7899
2023-03-11 17:19:38:878,0,-4.86027,-1.08504,87.7877
2023-03-11 17:19:38:888,0,-4.88117,-1.07922,87.782
2023-03-11 17:19:38:898,0,-4.90605,-1.0728,87.774
2023-03-11 17:19:38:908,0,-4.91959,-1.07047,87.7701
2023-03-11 17:19:38:919,0,-4.93888,-1.0678,87.7716
2023-03-11 17:19:38:929,0,-4.96113,-1.0643,87.7766
2023-03-11 17:19:38:938,0,-4.98107,-1.06011,87.7805
2023-03-11 17:19:38:948,0,-4.99823,-1.05197,87.7926
2023-03-11 17:19:38:958,0,-5.01354,-1.04084,87.8052
2023-03-11 17:19:38:968,0,-5.02549,-1.03279,87.8201
2023-03-11 17:19:38:978,0,-5.03501,-1.03174,87.8413
2023-03-11 17:19:38:988,0,-5.03864,-1.03039,87.8653
2023-03-11 17:19:38:998,0,-5.02486,-1.03625,87.8916
2023-03-11 17:19:39:8,0,-5.0006,-1.0439,87.9165
2023-03-11 17:19:39:18,0,-4.96674,-1.05424,87.9478
2023-03-11 17:19:39:28,0,-4.92819,-1.07631,87.9759
2023-03-11 17:19:39:38,0,-4.89931,-1.09434,88.0074
2023-03-11 17:19:39:48,0,-4.8879,-1.11434,88.0344
2023-03-11 17:19:39:58,0,-4.88337,-1.13732,88.0644
2023-03-11 17:19:39:68,0,-4.88852,-1.16266,88.0905
2023-03-11 17:19:39:78,0,-4.89136,-1.18691,88.1165
2023-03-11 17:19:39:88,0,-4.88675,-1.21363,88.137
2023-03-11 17:19:39:98,0,-4.88339,-1.23778,88.1568
2023-03-11 17:19:39:108,0,-4.87744,-1.26159,88.169
2023-03-11 17:19:39:118,0,-4.86955,-1.2816,88.1797
2023-03-11 17:19:39:128,0,-4.85972,-1.29199,88.1793
2023-03-11 17:19:39:139,0,-4.84799,-1.30187,88.1709
2023-03-11 17:19:39:149,0,-4.83474,-1.30671,88.1684
2023-03-11 17:19:39:159,0,-4.82733,-1.30943,88.1713
2023-03-11 17:19:39:169,0,-4.82731,-1.31653,88.1797
2023-03-11 17:19:39:179,0,-4.83752,-1.32382,88.1887
2023-03-11 17:19:39:188,0,-4.85312,-1.33038,88.2009
2023-03-11 17:19:39:198,0,-4.86977,-1.3387,88.2118
2023-03-11 17:19:39:208,0,-4.89051,-1.34096,88.2244
2023-03-11 17:19:39:218,0,-4.9083,-1.34499,88.2334
2023-03-11 17:19:39:228,0,-4.92788,-1.34521,88.2401
2023-03-11 17:19:39:238,0,-4.94672,-1.34509,88.2446
2023-03-11 17:19:39:248,0,-4.96301,-1.34506,88.2468
2023-03-11 17:19:39:258,0,-4.97961,-1.35247,88.2485
2023-03-11 17:19:39:268,0,-5.00172,-1.35847,88.2508
2023-03-11 17:19:39:278,0,-5.02464,-1.36792,88.255
2023-03-11 17:19:39:288,0,-5.04367,-1.38046,88.2634
2023-03-11 17:19:39:298,0,-5.06497,-1.39745,88.2796
2023-03-11 17:19:39:308,0,-5.08423,-1.41335,88.2993
2023-03-11 17:19:39:318,0,-5.09864,-1.43045,88.3241
2023-03-11 17:19:39:328,0,-5.10249,-1.44986,88.359
2023-03-11 17:19:39:338,0,-5.11509,-1.47188,88.3984
2023-03-11 17:19:39:348,0,-5.12731,-1.49467,88.4441
2023-03-11 17:19:39:359,0,-5.13714,-1.51696,88.4928
2023-03-11 17:19:39:369,0,-5.15185,-1.53921,88.5425
2023-03-11 17:19:39:379,0,-5.17147,-1.56608,88.5936
2023-03-11 17:19:39:389,0,-5.19468,-1.59578,88.644
2023-03-11 17:19:39:399,0,-5.21688,-1.62284,88.6917
2023-03-11 17:19:39:409,0,-5.23946,-1.65337,88.7364
2023-03-11 17:19:39:419,0,-5.26018,-1.6802,88.7705
2023-03-11 17:19:39:428,0,-5.28064,-1.70425,88.7975
2023-03-11 17:19:39:438,0,-5.29578,-1.72495,88.8162
2023-03-11 17:19:39:449,0,-5.30153,-1.74632,88.8228
2023-03-11 17:19:39:458,0,-5.3028,-1.76797,88.8181
2023-03-11 17:19:39:468,0,-5.30097,-1.79292,88.8077
2023-03-11 17:19:39:479,0,-5.29396,-1.82271,88.786
2023-03-11 17:19:39:488,0,-5.28425,-1.84937,88.7592
2023-03-11 17:19:39:499,0,-5.27331,-1.87323,88.722
2023-03-11 17:19:39:509,0,-5.25336,-1.89198,88.6855
2023-03-11 17:19:39:519,0,-5.2315,-1.91015,88.6457
2023-03-11 17:19:39:529,0,-5.20221,-1.91931,88.6078
2023-03-11 17:19:39:539,0,-5.16974,-1.92585,88.5719
2023-03-11 17:19:39:549,0,-5.13378,-1.92818,88.5331
2023-03-11 17:19:39:559,0,-5.09811,-1.92578,88.4989
2023-03-11 17:19:39:569,0,-5.06059,-1.91258,88.4611
2023-03-11 17:19:39:579,0,-5.02717,-1.89369,88.4211
2023-03-11 17:19:39:588,0,-4.99763,-1.86867,88.3807
2023-03-11 17:19:39:599,0,-4.97156,-1.83672,88.3368
2023-03-11 17:19:39:609,0,-4.95229,-1.8005,88.2912
2023-03-11 17:19:39:619,0,-4.93812,-1.76466,88.2488
2023-03-11 17:19:39:629,0,-4.93716,-1.7318,88.2153
2023-03-11 17:19:39:639,0,-4.9429,-1.69926,88.1864
2023-03-11 17:19:39:649,0,-4.95444,-1.67498,88.1691
2023-03-11 17:19:39:659,0,-4.97257,-1.65365,88.16
2023-03-11 17:19:39:669,0,-4.99046,-1.62787,88.1556
2023-03-11 17:19:39:679,0,-5.00339,-1.61875,88.154
2023-03-11 17:19:39:689,0,-5.01877,-1.61812,88.1587
2023-03-11 17:19:39:699,0,-5.03248,-1.62746,88.166
2023-03-11 17:19:39:708,0,-5.05056,-1.64824,88.1744
2023-03-11 17:19:39:719,0,-5.07796,-1.6768,88.1915
2023-03-11 17:19:39:729,0,-5.11581,-1.70844,88.2119
2023-03-11 17:19:39:739,0,-5.16094,-1.73515,88.2359
2023-03-11 17:19:39:749,0,-5.20846,-1.76292,88.2604
2023-03-11 17:19:39:759,0,-5.25267,-1.78121,88.2858
2023-03-11 17:19:39:769,0,-5.29667,-1.79631,88.3114
2023-03-11 17:19:39:779,0,-5.33846,-1.80325,88.3265
2023-03-11 17:19:39:789,0,-5.37342,-1.80409,88.3402
2023-03-11 17:19:39:799,0,-5.40453,-1.80257,88.343
2023-03-11 17:19:39:809,0,-5.42532,-1.79612,88.3349
2023-03-11 17:19:39:819,0,-5.43076,-1.78048,88.3125
2023-03-11 17:19:39:828,0,-5.42239,-1.76301,88.2827
2023-03-11 17:19:39:838,0,-5.41079,-1.74705,88.245
2023-03-11 17:19:39:848,0,-5.39268,-1.73434,88.2074
2023-03-11 17:19:39:859,0,-5.37265,-1.72268,88.1734
2023-03-11 17:19:39:869,0,-5.35182,-1.71299,88.1409
2023-03-11 17:19:39:879,0,-5.33222,-1.70158,88.1155
2023-03-11 17:19:39:888,0,-5.32246,-1.69873,88.1039
2023-03-11 17:19:39:899,0,-5.32063,-1.70621,88.1058
2023-03-11 17:19:39:909,0,-5.32264,-1.72148,88.1166
2023-03-11 17:19:39:919,0,-5.31513,-1.74864,88.1317
2023-03-11 17:19:39:928,0,-5.29295,-1.76867,88.1535
2023-03-11 17:19:39:939,0,-5.28209,-1.78639,88.1867
2023-03-11 17:19:39:948,0,-5.28685,-1.81227,88.2274
2023-03-11 17:19:39:958,0,-5.29782,-1.84504,88.2737
2023-03-11 17:19:39:968,0,-5.30815,-1.88328,88.323
2023-03-11 17:19:39:978,0,-5.31457,-1.91467,88.3688
2023-03-11 17:19:39:988,0,-5.31692,-1.94254,88.4093
2023-03-11 17:19:39:999,0,-5.32398,-1.96659,88.4513
2023-03-11 17:19:40:8,0,-5.32628,-1.98979,88.4844
2023-03-11 17:19:40:19,0,-5.3286,-2.01268,88.5131
2023-03-11 17:19:40:28,0,-5.3308,-2.03162,88.5313
2023-03-11 17:19:40:39,0,-5.33275,-2.04965,88.5424
2023-03-11 17:19:40:49,0,-5.32765,-2.07039,88.5464
2023-03-11 17:19:40:58,0,-5.31558,-2.09171,88.5501
2023-03-11 17:19:40:68,0,-5.30154,-2.11526,88.548
2023-03-11 17:19:40:79,0,-5.28413,-2.13805,88.5415
2023-03-11 17:19:40:89,0,-5.26096,-2.15986,88.5327
2023-03-11 17:19:40:98,0,-5.23291,-2.17912,88.5244
2023-03-11 17:19:40:108,0,-5.20093,-2.20243,88.5113
2023-03-11 17:19:40:118,0,-5.16653,-2.22144,88.4964
2023-03-11 17:19:40:129,0,-5.13579,-2.24637,88.4844
2023-03-11 17:19:40:139,0,-5.11057,-2.27272,88.4708
2023-03-11 17:19:40:149,0,-5.08591,-2.29744,88.4579
2023-03-11 17:19:40:159,0,-5.07196,-2.32351,88.4485
2023-03-11 17:19:40:169,0,-5.06036,-2.34891,88.4425
2023-03-11 17:19:40:179,0,-5.05378,-2.37503,88.4373
2023-03-11 17:19:40:188,0,-5.05111,-2.39887,88.4379
2023-03-11 17:19:40:199,0,-5.04546,-2.42461,88.4386
2023-03-11 17:19:40:209,0,-5.03357,-2.45457,88.4411
2023-03-11 17:19:40:219,0,-5.01925,-2.49206,88.4461
2023-03-11 17:19:40:229,0,-5.00708,-2.52996,88.4546
2023-03-11 17:19:40:239,0,-4.99879,-2.57048,88.4656
2023-03-11 17:19:40:249,0,-4.9889,-2.6113,88.4772
2023-03-11 17:19:40:258,0,-4.98182,-2.65058,88.4959
2023-03-11 17:19:40:269,0,-4.97785,-2.68552,88.5164
2023-03-11 17:19:40:279,0,-4.97292,-2.71854,88.545
2023-03-11 17:19:40:288,0,-4.97166,-2.74891,88.5798
2023-03-11 17:19:40:299,0,-4.98228,-2.77584,88.6187
2023-03-11 17:19:40:309,0,-4.9949,-2.80284,88.6641
2023-03-11 17:19:40:319,0,-5.01021,-2.82723,88.7075
2023-03-11 17:19:40:329,0,-5.02315,-2.84485,88.7506
2023-03-11 17:19:40:338,0,-5.03251,-2.85457,88.7881
2023-03-11 17:19:40:348,0,-5.0435,-2.86105,88.8224
2023-03-11 17:19:40:359,0,-5.05255,-2.85845,88.8463
2023-03-11 17:19:40:369,0,-5.06503,-2.85432,88.8647
2023-03-11 17:19:40:379,0,-5.08588,-2.85134,88.8776
2023-03-11 17:19:40:389,0,-5.11046,-2.85025,88.8815
2023-03-11 17:19:40:399,0,-5.14339,-2.84651,88.8846
2023-03-11 17:19:40:409,0,-5.18306,-2.83934,88.8855
2023-03-11 17:19:40:419,0,-5.22503,-2.82654,88.8833
2023-03-11 17:19:40:429,0,-5.26963,-2.8132,88.8751
2023-03-11 17:19:40:439,0,-5.30965,-2.80473,88.8686
2023-03-11 17:19:40:448,0,-5.34093,-2.79616,88.8611
2023-03-11 17:19:40:458,0,-5.36807,-2.79156,88.8519
2023-03-11 17:19:40:469,0,-5.39189,-2.78006,88.8453
2023-03-11 17:19:40:479,0,-5.41395,-2.76953,88.8365
2023-03-11 17:19:40:489,0,-5.43131,-2.75586,88.8259
2023-03-11 17:19:40:499,0,-5.45445,-2.74628,88.8165
2023-03-11 17:19:40:509,0,-5.4768,-2.73661,88.8061
2023-03-11 17:19:40:519,0,-5.50183,-2.7319,88.7961
2023-03-11 17:19:40:529,0,-5.5191,-2.72618,88.7789
2023-03-11 17:19:40:539,0,-5.53063,-2.72278,88.7608
2023-03-11 17:19:40:549,0,-5.54283,-2.72162,88.7445
2023-03-11 17:19:40:559,0,-5.55552,-2.72136,88.7299
2023-03-11 17:19:40:569,0,-5.56909,-2.72313,88.7133
2023-03-11 17:19:40:578,0,-5.57864,-2.72511,88.698
2023-03-11 17:19:40:588,0,-5.58358,-2.73106,88.685
2023-03-11 17:19:40:599,0,-5.58841,-2.73473,88.6742
2023-03-11 17:19:40:609,0,-5.59837,-2.7411,88.6682
2023-03-11 17:19:40:619,0,-5.6037,-2.74731,88.6656
2023-03-11 17:19:40:629,0,-5.61168,-2.75165,88.6671
2023-03-11 17:19:40:639,0,-5.62312,-2.7598,88.6706
2023-03-11 17:19:40:648,0,-5.63481,-2.76474,88.6804
2023-03-11 17:19:40:658,0,-5.64217,-2.76995,88.6894
2023-03-11 17:19:40:669,0,-5.64941,-2.77757,88.7018
2023-03-11 17:19:40:679,0,-5.65711,-2.78302,88.7161
2023-03-11 17:19:40:688,0,-5.65798,-2.79433,88.7261
2023-03-11 17:19:40:699,0,-5.65908,-2.79952,88.7356
2023-03-11 17:19:40:708,0,-5.66203,-2.80884,88.7453
2023-03-11 17:19:40:719,0,-5.66618,-2.81763,88.7526
2023-03-11 17:19:40:728,0,-5.66814,-2.8201,88.7539
2023-03-11 17:19:40:739,0,-5.66962,-2.82217,88.7526
2023-03-11 17:19:40:748,0,-5.67297,-2.81909,88.7485
2023-03-11 17:19:40:759,0,-5.67785,-2.81313,88.7424
2023-03-11 17:19:40:769,0,-5.68003,-2.80922,88.7342
2023-03-11 17:19:40:779,0,-5.68847,-2.8049,88.7271
2023-03-11 17:19:40:789,0,-5.69745,-2.79649,88.7185
2023-03-11 17:19:40:799,0,-5.70578,-2.78963,88.7049
2023-03-11 17:19:40:809,0,-5.71207,-2.77985,88.69
2023-03-11 17:19:40:819,0,-5.72221,-2.77358,88.6799
2023-03-11 17:19:40:829,0,-5.73031,-2.76711,88.6686
2023-03-11 17:19:40:839,0,-5.73726,-2.75495,88.6605
2023-03-11 17:19:40:848,0,-5.7452,-2.74218,88.6569
2023-03-11 17:19:40:858,0,-5.74853,-2.73034,88.6529
2023-03-11 17:19:40:868,0,-5.75329,-2.71744,88.6516
2023-03-11 17:19:40:878,0,-5.7588,-2.70464,88.6499
2023-03-11 17:19:40:888,0,-5.76797,-2.69517,88.6463
2023-03-11 17:19:40:898,0,-5.77914,-2.68521,88.6484
2023-03-11 17:19:40:908,0,-5.7843,-2.67588,88.6464
2023-03-11 17:19:40:918,0,-5.79563,-2.66769,88.6439
2023-03-11 17:19:40:928,0,-5.80178,-2.66012,88.6356
2023-03-11 17:19:40:939,0,-5.80568,-2.65613,88.6273
2023-03-11 17:19:40:949,0,-5.8057,-2.66005,88.6183
2023-03-11 17:19:40:958,0,-5.80288,-2.66417,88.6118
2023-03-11 17:19:40:969,0,-5.80467,-2.67284,88.6078
2023-03-11 17:19:40:979,0,-5.80572,-2.68161,88.6027
2023-03-11 17:19:40:988,0,-5.8114,-2.68807,88.6064
2023-03-11 17:19:40:999,0,-5.82154,-2.69721,88.6126
2023-03-11 17:19:41:9,0,-5.8327,-2.70439,88.6242
2023-03-11 17:19:41:19,0,-5.84138,-2.71045,88.6405
2023-03-11 17:19:41:29,0,-5.85617,-2.71224,88.6602
2023-03-11 17:19:41:39,0,-5.87299,-2.71691,88.6798
2023-03-11 17:19:41:49,0,-5.88587,-2.72087,88.6967
2023-03-11 17:19:41:58,0,-5.89963,-2.72619,88.7117
2023-03-11 17:19:41:69,0,-5.9098,-2.73023,88.7236
2023-03-11 17:19:41:79,0,-5.92354,-2.73337,88.7334
2023-03-11 17:19:41:89,0,-5.93907,-2.73313,88.7347
2023-03-11 17:19:41:99,0,-5.95847,-2.73164,88.7354
2023-03-11 17:19:41:109,0,-5.97859,-2.72607,88.7273
2023-03-11 17:19:41:119,0,-6.00222,-2.72183,88.7161
2023-03-11 17:19:41:129,0,-6.02718,-2.71951,88.7085
2023-03-11 17:19:41:139,0,-6.04965,-2.7113,88.701
2023-03-11 17:19:41:149,0,-6.07379,-2.70062,88.6894
2023-03-11 17:19:41:159,0,-6.09628,-2.69133,88.6766
2023-03-11 17:19:41:169,0,-6.1126,-2.68552,88.663
2023-03-11 17:19:41:179,0,-6.12612,-2.68276,88.6516
2023-03-11 17:19:41:189,0,-6.14094,-2.67693,88.6457
2023-03-11 17:19:41:199,0,-6.15241,-2.67339,88.6421
2023-03-11 17:19:41:209,0,-6.15693,-2.66634,88.6379
2023-03-11 17:19:41:219,0,-6.15992,-2.65837,88.6346
2023-03-11 17:19:41:229,0,-6.16115,-2.65056,88.6301
2023-03-11 17:19:41:239,0,-6.16069,-2.64319,88.6293
2023-03-11 17:19:41:249,0,-6.15603,-2.63973,88.6241
2023-03-11 17:19:41:259,0,-6.15166,-2.63769,88.6251
2023-03-11 17:19:41:269,0,-6.14579,-2.63918,88.6255
2023-03-11 17:19:41:278,0,-6.13989,-2.64011,88.6267
2023-03-11 17:19:41:289,0,-6.13273,-2.64167,88.6312
2023-03-11 17:19:41:299,0,-6.12445,-2.63866,88.6368
2023-03-11 17:19:41:309,0,-6.11308,-2.64035,88.6467
2023-03-11 17:19:41:319,0,-6.097,-2.64551,88.6589
2023-03-11 17:19:41:329,0,-6.08607,-2.65018,88.6714
2023-03-11 17:19:41:339,0,-6.07742,-2.65624,88.6888
2023-03-11 17:19:41:349,0,-6.07328,-2.66282,88.7041
2023-03-11 17:19:41:359,0,-6.07476,-2.66802,88.7199
2023-03-11 17:19:41:369,0,-6.07776,-2.67352,88.7354
2023-03-11 17:19:41:378,0,-6.08482,-2.67381,88.7485
2023-03-11 17:19:41:389,0,-6.0917,-2.67567,88.7623
2023-03-11 17:19:41:398,0,-6.09408,-2.67581,88.7738
2023-03-11 17:19:41:409,0,-6.09481,-2.67533,88.7821
2023-03-11 17:19:41:419,0,-6.09374,-2.67503,88.7867
2023-03-11 17:19:41:429,0,-6.09312,-2.67288,88.788
2023-03-11 17:19:41:439,0,-6.09602,-2.6692,88.7862
2023-03-11 17:19:41:449,0,-6.09883,-2.66523,88.7834
2023-03-11 17:19:41:458,0,-6.10157,-2.65682,88.7758
2023-03-11 17:19:41:469,0,-6.10772,-2.65217,88.7659
2023-03-11 17:19:41:478,0,-6.11429,-2.64657,88.7554
2023-03-11 17:19:41:488,0,-6.11682,-2.64161,88.7408
2023-03-11 17:19:41:499,0,-6.1155,-2.63799,88.7256
2023-03-11 17:19:41:509,0,-6.10983,-2.63607,88.7159
2023-03-11 17:19:41:519,0,-6.10252,-2.63454,88.7081
2023-03-11 17:19:41:529,0,-6.0879,-2.6325,88.705
2023-03-11 17:19:41:539,0,-6.07264,-2.63237,88.7
2023-03-11 17:19:41:549,0,-6.05882,-2.6306,88.6953
2023-03-11 17:19:41:559,0,-6.04412,-2.63005,88.6951
2023-03-11 17:19:41:569,0,-6.02725,-2.62933,88.692
2023-03-11 17:19:41:579,0,-6.00745,-2.62757,88.6904
2023-03-11 17:19:41:589,0,-5.98417,-2.6265,88.6884
2023-03-11 17:19:41:599,0,-5.96254,-2.62554,88.6888
2023-03-11 17:19:41:609,0,-5.93923,-2.62465,88.6872
2023-03-11 17:19:41:619,0,-5.92076,-2.62778,88.6874
2023-03-11 17:19:41:629,0,-5.90187,-2.63133,88.6848
2023-03-11 17:19:41:639,0,-5.89093,-2.6323,88.683
2023-03-11 17:19:41:649,0,-5.88265,-2.63711,88.6801
2023-03-11 17:19:41:659,0,-5.87468,-2.64555,88.6762
2023-03-11 17:19:41:669,0,-5.86645,-2.65063,88.6702
2023-03-11 17:19:41:679,0,-5.85912,-2.66195,88.6706
2023-03-11 17:19:41:689,0,-5.85414,-2.67385,88.6726
2023-03-11 17:19:41:699,0,-5.84601,-2.68758,88.6797
2023-03-11 17:19:41:709,0,-5.83987,-2.69798,88.6848
2023-03-11 17:19:41:719,0,-5.83284,-2.70792,88.6963
2023-03-11 17:19:41:729,0,-5.82605,-2.71768,88.7058
2023-03-11 17:19:41:739,0,-5.81978,-2.72328,88.7174
2023-03-11 17:19:41:749,0,-5.81413,-2.73082,88.7322
2023-03-11 17:19:41:759,0,-5.80932,-2.73454,88.75
2023-03-11 17:19:41:769,0,-5.80466,-2.73659,88.7622
2023-03-11 17:19:41:779,0,-5.80405,-2.73566,88.7752
2023-03-11 17:19:41:789,0,-5.80698,-2.73564,88.7851
2023-03-11 17:19:41:799,0,-5.81182,-2.73251,88.7929
2023-03-11 17:19:41:809,0,-5.8208,-2.73289,88.7994
2023-03-11 17:19:41:819,0,-5.82669,-2.73548,88.8041
2023-03-11 17:19:41:829,0,-5.83696,-2.73705,88.8079
2023-03-11 17:19:41:839,0,-5.84274,-2.74179,88.8144
2023-03-11 17:19:41:849,0,-5.84822,-2.73995,88.8226
2023-03-11 17:19:41:859,0,-5.85413,-2.73537,88.8275
2023-03-11 17:19:41:868,0,-5.86389,-2.72466,88.8344
2023-03-11 17:19:41:879,0,-5.86809,-2.7149,88.8378
2023-03-11 17:19:41:889,0,-5.86834,-2.70788,88.8406
2023-03-11 17:19:41:898,0,-5.85997,-2.70474,88.8385
2023-03-11 17:19:41:909,0,-5.85422,-2.70318,88.836
2023-03-11 17:19:41:918,0,-5.84504,-2.70538,88.833
2023-03-11 17:19:41:928,0,-5.83582,-2.70386,88.8262
2023-03-11 17:19:41:938,0,-5.83073,-2.70221,88.817
2023-03-11 17:19:41:948,0,-5.8201,-2.69452,88.8085
2023-03-11 17:19:41:958,0,-5.81445,-2.68952,88.7982
2023-03-11 17:19:41:968,0,-5.80888,-2.68162,88.7914
2023-03-11 17:19:41:978,0,-5.8032,-2.67659,88.7889
2023-03-11 17:19:41:989,0,-5.79797,-2.67496,88.7903
2023-03-11 17:19:41:998,0,-5.79372,-2.67294,88.7933
2023-03-11 17:19:42:9,0,-5.78956,-2.67387,88.8023
2023-03-11 17:19:42:19,0,-5.78897,-2.67477,88.8164
2023-03-11 17:19:42:29,0,-5.79208,-2.67438,88.8345
2023-03-11 17:19:42:39,0,-5.79468,-2.67641,88.8574
2023-03-11 17:19:42:49,0,-5.79603,-2.67302,88.8899
2023-03-11 17:19:42:59,0,-5.78963,-2.6614,88.9284
2023-03-11 17:19:42:69,0,-5.77976,-2.64303,88.9758
2023-03-11 17:19:42:78,0,-5.77171,-2.62542,89.0394
2023-03-11 17:19:42:89,0,-5.76763,-2.6129,89.1118
2023-03-11 17:19:42:99,0,-5.7667,-2.60204,89.1854
2023-03-11 17:19:42:109,0,-5.76818,-2.59377,89.263
2023-03-11 17:19:42:119,0,-5.77186,-2.589,89.3391
2023-03-11 17:19:42:129,0,-5.78074,-2.58942,89.4061
2023-03-11 17:19:42:139,0,-5.78692,-2.59108,89.4658
2023-03-11 17:19:42:149,0,-5.78517,-2.59636,89.5148
2023-03-11 17:19:42:159,0,-5.78432,-2.60417,89.5514
2023-03-11 17:19:42:169,0,-5.78443,-2.61352,89.5793
2023-03-11 17:19:42:178,0,-5.78434,-2.62632,89.5928
2023-03-11 17:19:42:189,0,-5.78255,-2.64165,89.5983
2023-03-11 17:19:42:198,0,-5.7832,-2.65758,89.5972
2023-03-11 17:19:42:208,0,-5.78175,-2.67297,89.5883
2023-03-11 17:19:42:219,0,-5.77899,-2.68768,89.5735
2023-03-11 17:19:42:228,0,-5.78552,-2.70709,89.5593
2023-03-11 17:19:42:239,0,-5.79315,-2.72147,89.5479
2023-03-11 17:19:42:249,0,-5.79871,-2.73449,89.5372
2023-03-11 17:19:42:259,0,-5.80429,-2.7483,89.5293
2023-03-11 17:19:42:269,0,-5.80374,-2.76536,89.5239
2023-03-11 17:19:42:279,0,-5.80284,-2.77711,89.5189
2023-03-11 17:19:42:289,0,-5.80308,-2.78657,89.5134
2023-03-11 17:19:42:298,0,-5.804,-2.7967,89.5101
2023-03-11 17:19:42:309,0,-5.8027,-2.80041,89.5064
2023-03-11 17:19:42:319,0,-5.79618,-2.7977,89.4995
2023-03-11 17:19:42:329,0,-5.78899,-2.79372,89.4921
2023-03-11 17:19:42:338,0,-5.78479,-2.78614,89.4828
2023-03-11 17:19:42:349,0,-5.77773,-2.77654,89.4733
2023-03-11 17:19:42:359,0,-5.77655,-2.76884,89.4646
2023-03-11 17:19:42:369,0,-5.77642,-2.76818,89.4568
2023-03-11 17:19:42:379,0,-5.78124,-2.76686,89.4513
2023-03-11 17:19:42:389,0,-5.79153,-2.7626,89.4479
2023-03-11 17:19:42:399,0,-5.80281,-2.76193,89.442
2023-03-11 17:19:42:408,0,-5.80775,-2.76276,89.433
2023-03-11 17:19:42:418,0,-5.81013,-2.76845,89.4262
2023-03-11 17:19:42:428,0,-5.81548,-2.77546,89.4202
2023-03-11 17:19:42:438,0,-5.82047,-2.78532,89.4188
2023-03-11 17:19:42:448,0,-5.82221,-2.79634,89.4256
2023-03-11 17:19:42:459,0,-5.8283,-2.80966,89.4479
2023-03-11 17:19:42:469,0,-5.84348,-2.82191,89.4852
2023-03-11 17:19:42:478,0,-5.86594,-2.82599,89.5347
2023-03-11 17:19:42:489,0,-5.89016,-2.8242,89.5937
2023-03-11 17:19:42:498,0,-5.91278,-2.81146,89.6579
2023-03-11 17:19:42:508,0,-5.93158,-2.77961,89.7174
2023-03-11 17:19:42:518,0,-5.93792,-2.7397,89.7673
2023-03-11 17:19:42:529,0,-5.9369,-2.68927,89.81
2023-03-11 17:19:42:539,0,-5.92164,-2.63341,89.8383
2023-03-11 17:19:42:548,0,-5.90082,-2.57783,89.8543
2023-03-11 17:19:42:558,0,-5.88091,-2.5247,89.8531
2023-03-11 17:19:42:568,0,-5.85781,-2.47125,89.8312
2023-03-11 17:19:42:579,0,-5.8333,-2.42586,89.7933
2023-03-11 17:19:42:589,0,-5.81142,-2.38751,89.7427
2023-03-11 17:19:42:599,0,-5.78823,-2.34955,89.6817
2023-03-11 17:19:42:609,0,-5.7683,-2.31428,89.619
2023-03-11 17:19:42:619,0,-5.74931,-2.28215,89.5528
2023-03-11 17:19:42:629,0,-5.72948,-2.25312,89.4896
2023-03-11 17:19:42:639,0,-5.70624,-2.22892,89.434
2023-03-11 17:19:42:649,0,-5.68183,-2.21287,89.3815
2023-03-11 17:19:42:659,0,-5.66057,-2.20127,89.3372
2023-03-11 17:19:42:669,0,-5.64003,-2.19075,89.2985
2023-03-11 17:19:42:679,0,-5.62034,-2.18606,89.2673
2023-03-11 17:19:42:688,0,-5.61036,-2.18504,89.2413
2023-03-11 17:19:42:699,0,-5.60443,-2.18686,89.2164
2023-03-11 17:19:42:709,0,-5.60382,-2.1926,89.2012
2023-03-11 17:19:42:719,0,-5.60966,-2.20698,89.1934
2023-03-11 17:19:42:729,0,-5.62528,-2.22506,89.1875
2023-03-11 17:19:42:739,0,-5.64958,-2.24308,89.1872
2023-03-11 17:19:42:748,0,-5.67309,-2.26068,89.1887
2023-03-11 17:19:42:759,0,-5.69162,-2.27503,89.188
2023-03-11 17:19:42:769,0,-5.70945,-2.28908,89.1865
2023-03-11 17:19:42:779,0,-5.72495,-2.29982,89.1856
2023-03-11 17:19:42:788,0,-5.74092,-2.31303,89.1848
2023-03-11 17:19:42:798,0,-5.75748,-2.32455,89.1848
2023-03-11 17:19:42:808,0,-5.77442,-2.33128,89.1844
2023-03-11 17:19:42:818,0,-5.79588,-2.33842,89.1856
2023-03-11 17:19:42:828,0,-5.81809,-2.347,89.1907
2023-03-11 17:19:42:839,0,-5.83862,-2.3523,89.197
2023-03-11 17:19:42:849,0,-5.85992,-2.35351,89.2047
2023-03-11 17:19:42:859,0,-5.88218,-2.35365,89.207
2023-03-11 17:19:42:869,0,-5.90015,-2.34964,89.2088
2023-03-11 17:19:42:879,0,-5.91397,-2.34971,89.2088
2023-03-11 17:19:42:889,0,-5.92473,-2.34854,89.205
2023-03-11 17:19:42:899,0,-5.92928,-2.34678,89.2
2023-03-11 17:19:42:909,0,-5.93267,-2.34765,89.1923
2023-03-11 17:19:42:918,0,-5.93681,-2.35025,89.1861
2023-03-11 17:19:42:928,0,-5.94395,-2.35351,89.1842
2023-03-11 17:19:42:938,0,-5.9563,-2.3555,89.1903
2023-03-11 17:19:42:949,0,-5.97437,-2.35025,89.1916
2023-03-11 17:19:42:959,0,-5.98597,-2.34042,89.1909
2023-03-11 17:19:42:969,0,-5.99314,-2.32529,89.1865
2023-03-11 17:19:42:978,0,-5.99436,-2.30856,89.1788
2023-03-11 17:19:42:988,0,-5.9943,-2.28972,89.1632
2023-03-11 17:19:42:998,0,-5.99495,-2.26908,89.1455
2023-03-11 17:19:43:9,0,-6.00007,-2.25003,89.1238
2023-03-11 17:19:43:19,0,-6.00599,-2.22993,89.0976
2023-03-11 17:19:43:29,0,-6.01016,-2.20891,89.0701
2023-03-11 17:19:43:39,0,-6.02397,-2.18926,89.0453
2023-03-11 17:19:43:49,0,-6.03681,-2.17419,89.0253
2023-03-11 17:19:43:59,0,-6.05132,-2.15918,89.0064
2023-03-11 17:19:43:68,0,-6.06559,-2.1452,88.9871
2023-03-11 17:19:43:78,0,-6.06859,-2.13482,88.9735
2023-03-11 17:19:43:89,0,-6.06351,-2.13382,88.9681
2023-03-11 17:19:43:99,0,-6.05096,-2.13188,88.9685
2023-03-11 17:19:43:109,0,-6.04109,-2.13827,88.9701
2023-03-11 17:19:43:118,0,-6.03548,-2.15217,88.9749
2023-03-11 17:19:43:129,0,-6.02741,-2.168,88.9816
2023-03-11 17:19:43:139,0,-6.02198,-2.18684,88.9922
2023-03-11 17:19:43:149,0,-6.01352,-2.20708,88.9982
2023-03-11 17:19:43:159,0,-6.00221,-2.2334,89.0076
2023-03-11 17:19:43:169,0,-5.98595,-2.2605,89.0165
2023-03-11 17:19:43:179,0,-5.96811,-2.29064,89.0269
2023-03-11 17:19:43:189,0,-5.95142,-2.32173,89.0386
2023-03-11 17:19:43:199,0,-5.93876,-2.35262,89.0532
2023-03-11 17:19:43:209,0,-5.92949,-2.38452,89.0707
2023-03-11 17:19:43:218,0,-5.92291,-2.41245,89.0848
2023-03-11 17:19:43:228,0,-5.91974,-2.43938,89.1011
2023-03-11 17:19:43:239,0,-5.91964,-2.46489,89.1141
2023-03-11 17:19:43:249,0,-5.92455,-2.49072,89.1266
2023-03-11 17:19:43:259,0,-5.93318,-2.51506,89.138
2023-03-11 17:19:43:269,0,-5.93686,-2.53716,89.1505
2023-03-11 17:19:43:279,0,-5.94073,-2.55553,89.1598
2023-03-11 17:19:43:288,0,-5.94792,-2.57006,89.1707
2023-03-11 17:19:43:298,0,-5.95009,-2.58598,89.1826
2023-03-11 17:19:43:308,0,-5.95508,-2.59565,89.1918
2023-03-11 17:19:43:319,0,-5.96619,-2.60378,89.1991
2023-03-11 17:19:43:329,0,-5.9785,-2.61359,89.2033
2023-03-11 17:19:43:339,0,-5.98538,-2.61862,89.2034
2023-03-11 17:19:43:348,0,-5.99242,-2.62331,89.2023
2023-03-11 17:19:43:359,0,-5.99794,-2.6253,89.199
2023-03-11 17:19:43:369,0,-6.00224,-2.62293,89.1925
2023-03-11 17:19:43:379,0,-6.0025,-2.61532,89.1781
2023-03-11 17:19:43:389,0,-5.99992,-2.60609,89.1647
2023-03-11 17:19:43:399,0,-5.99091,-2.60042,89.1492
2023-03-11 17:19:43:409,0,-5.98481,-2.59152,89.133
2023-03-11 17:19:43:419,0,-5.97753,-2.58385,89.1134
2023-03-11 17:19:43:429,0,-5.97723,-2.57464,89.0956
2023-03-11 17:19:43:438,0,-5.97126,-2.56359,89.0788
2023-03-11 17:19:43:449,0,-5.96933,-2.54932,89.0649
2023-03-11 17:19:43:458,0,-5.96389,-2.53623,89.0509
2023-03-11 17:19:43:468,0,-5.96151,-2.52472,89.04
2023-03-11 17:19:43:478,0,-5.96136,-2.51416,89.035
2023-03-11 17:19:43:489,0,-5.96438,-2.50385,89.0276
2023-03-11 17:19:43:498,0,-5.96853,-2.49151,89.0172
2023-03-11 17:19:43:509,0,-5.97341,-2.48089,89.0109
2023-03-11 17:19:43:518,0,-5.97993,-2.46936,89.0051
2023-03-11 17:19:43:529,0,-5.98601,-2.45991,88.9982
2023-03-11 17:19:43:539,0,-5.99511,-2.44829,88.9906
2023-03-11 17:19:43:549,0,-6.00128,-2.43907,88.9875
2023-03-11 17:19:43:559,0,-6.00685,-2.43089,88.9855
2023-03-11 17:19:43:569,0,-6.01556,-2.42462,88.9856
2023-03-11 17:19:43:579,0,-6.01885,-2.41996,88.985
2023-03-11 17:19:43:588,0,-6.02182,-2.41695,88.9826
2023-03-11 17:19:43:599,0,-6.02011,-2.41446,88.9855
2023-03-11 17:19:43:609,0,-6.02252,-2.40516,88.9889
2023-03-11 17:19:43:619,0,-6.0195,-2.39812,88.9932
2023-03-11 17:19:43:629,0,-6.01525,-2.3927,88.9981
2023-03-11 17:19:43:639,0,-6.01305,-2.38881,89.0024
2023-03-11 17:19:43:649,0,-6.00826,-2.38196,89.0062
2023-03-11 17:19:43:659,0,-6.00307,-2.37842,89.0063
2023-03-11 17:19:43:669,0,-5.996,-2.37008,89.0077
2023-03-11 17:19:43:679,0,-5.98778,-2.36661,89.0088
2023-03-11 17:19:43:689,0,-5.97969,-2.35934,89.0024
2023-03-11 17:19:43:698,0,-5.97426,-2.3547,88.9931
2023-03-11 17:19:43:708,0,-5.9716,-2.35292,88.9879
2023-03-11 17:19:43:718,0,-5.97142,-2.349,88.9764
2023-03-11 17:19:43:728,0,-5.97266,-2.34285,88.9654
2023-03-11 17:19:43:739,0,-5.97388,-2.34016,88.9519
2023-03-11 17:19:43:749,0,-5.9732,-2.34086,88.9406
2023-03-11 17:19:43:759,0,-5.97555,-2.33883,88.9249
2023-03-11 17:19:43:769,0,-5.97846,-2.33984,88.9109
2023-03-11 17:19:43:779,0,-5.98029,-2.33486,88.8979
2023-03-11 17:19:43:789,0,-5.98285,-2.33344,88.8888
2023-03-11 17:19:43:798,0,-5.98474,-2.32821,88.8808
2023-03-11 17:19:43:809,0,-5.98255,-2.32313,88.8787
2023-03-11 17:19:43:818,0,-5.9818,-2.31882,88.8727
2023-03-11 17:19:43:829,0,-5.98292,-2.31348,88.8685
2023-03-11 17:19:43:839,0,-5.98125,-2.30699,88.8659
2023-03-11 17:19:43:849,0,-5.98078,-2.30186,88.8623
2023-03-11 17:19:43:858,0,-5.9827,-2.29466,88.8623
2023-03-11 17:19:43:868,0,-5.98709,-2.28549,88.8646
2023-03-11 17:19:43:878,0,-5.98972,-2.27722,88.8664
2023-03-11 17:19:43:888,0,-5.98727,-2.27101,88.8685
2023-03-11 17:19:43:898,0,-5.98441,-2.26902,88.8683
2023-03-11 17:19:43:908,0,-5.97753,-2.26883,88.8693
2023-03-11 17:19:43:918,0,-5.9713,-2.274,88.8777
2023-03-11 17:19:43:928,0,-5.96886,-2.27961,88.8877
2023-03-11 17:19:43:938,0,-5.96649,-2.27983,88.8966
2023-03-11 17:19:43:948,0,-5.95981,-2.28255,88.9115
2023-03-11 17:19:43:958,0,-5.96049,-2.29,88.9283
2023-03-11 17:19:43:968,0,-5.96826,-2.29918,88.9446
2023-03-11 17:19:43:978,0,-5.97506,-2.30819,88.9639
2023-03-11 17:19:43:988,0,-5.97993,-2.31674,88.9826
2023-03-11 17:19:43:998,0,-5.98689,-2.32741,88.9983
2023-03-11 17:19:44:8,0,-5.99017,-2.3364,89.0071
2023-03-11 17:19:44:18,0,-5.99444,-2.34371,89.0153
2023-03-11 17:19:44:28,0,-5.99116,-2.34795,89.0142
2023-03-11 17:19:44:38,0,-5.99169,-2.35214,89.0137
2023-03-11 17:19:44:48,0,-5.99268,-2.35249,89.0083
2023-03-11 17:19:44:58,0,-5.99206,-2.35692,88.9992
2023-03-11 17:19:44:68,0,-5.992,-2.35772,88.9904
2023-03-11 17:19:44:78,0,-5.99049,-2.35831,88.9745
2023-03-11 17:19:44:88,0,-5.98908,-2.35775,88.961
2023-03-11 17:19:44:98,0,-5.99296,-2.35496,88.9438
2023-03-11 17:19:44:108,0,-5.99842,-2.34848,88.9282
2023-03-11 17:19:44:118,0,-6.00289,-2.34115,88.9141
2023-03-11 17:19:44:128,0,-6.00095,-2.33669,88.8999
2023-03-11 17:19:44:138,0,-5.99494,-2.33591,88.8908
2023-03-11 17:19:44:148,0,-5.98908,-2.33026,88.8817
2023-03-11 17:19:44:158,0,-5.98361,-2.32337,88.8744
2023-03-11 17:19:44:168,0,-5.97458,-2.31952,88.868
2023-03-11 17:19:44:178,0,-5.96124,-2.31484,88.8634
2023-03-11 17:19:44:188,0,-5.95595,-2.30603,88.8616
2023-03-11 17:19:44:198,0,-5.95022,-2.30004,88.8628
2023-03-11 17:19:44:208,0,-5.94379,-2.29496,88.8662
2023-03-11 17:19:44:218,0,-5.93971,-2.29094,88.8701
2023-03-11 17:19:44:228,0,-5.93371,-2.29105,88.8711
2023-03-11 17:19:44:238,0,-5.92511,-2.29424,88.8748
2023-03-11 17:19:44:248,0,-5.91879,-2.29951,88.8801
2023-03-11 17:19:44:258,0,-5.91014,-2.30285,88.8798
2023-03-11 17:19:44:268,0,-5.9008,-2.3109,88.8847
2023-03-11 17:19:44:278,0,-5.89007,-2.32015,88.8888
2023-03-11 17:19:44:288,0,-5.87846,-2.32899,88.8907
2023-03-11 17:19:44:298,0,-5.86655,-2.3385,88.8995
2023-03-11 17:19:44:308,0,-5.85442,-2.34942,88.9038
2023-03-11 17:19:44:318,0,-5.84545,-2.35516,88.909
2023-03-11 17:19:44:328,0,-5.8409,-2.36119,88.9177
2023-03-11 17:19:44:338,0,-5.83804,-2.36745,88.926
2023-03-11 17:19:44:348,0,-5.83658,-2.37218,88.934
2023-03-11 17:19:44:358,0,-5.84011,-2.37637,88.9387
2023-03-11 17:19:44:368,0,-5.84199,-2.38339,88.9422
2023-03-11 17:19:44:378,0,-5.84297,-2.38489,88.9444
2023-03-11 17:19:44:388,0,-5.84631,-2.38708,88.9482
2023-03-11 17:19:44:398,0,-5.85169,-2.38583,88.95
2023-03-11 17:19:44:408,0,-5.84985,-2.38305,88.9518
2023-03-11 17:19:44:418,0,-5.85451,-2.38229,88.9513
2023-03-11 17:19:44:428,0,-5.85952,-2.38258,88.9473
2023-03-11 17:19:44:438,0,-5.86226,-2.38349,88.944
2023-03-11 17:19:44:448,0,-5.86802,-2.38333,88.9411
2023-03-11 17:19:44:458,0,-5.87569,-2.38151,88.9365
2023-03-11 17:19:44:468,0,-5.88131,-2.38067,88.9333
2023-03-11 17:19:44:478,0,-5.88607,-2.3826,88.9317
2023-03-11 17:19:44:488,0,-5.8898,-2.38006,88.9327
2023-03-11 17:19:44:498,0,-5.89273,-2.37677,88.9293
2023-03-11 17:19:44:508,0,-5.89337,-2.37388,88.9272
2023-03-11 17:19:44:518,0,-5.89294,-2.36994,88.9265
2023-03-11 17:19:44:528,0,-5.88816,-2.36633,88.9318
2023-03-11 17:19:44:538,0,-5.88691,-2.367,88.9357
2023-03-11 17:19:44:548,0,-5.88294,-2.35943,88.939
2023-03-11 17:19:44:558,0,-5.87923,-2.35397,88.9407
2023-03-11 17:19:44:568,0,-5.87743,-2.34693,88.9435
2023-03-11 17:19:44:578,0,-5.87523,-2.34227,88.9439
2023-03-11 17:19:44:588,0,-5.87258,-2.33735,88.9409
2023-03-11 17:19:44:598,0,-5.86955,-2.33114,88.9385
2023-03-11 17:19:44:608,0,-5.86992,-2.32595,88.939
