Timestamp_cmd,imu_cmd,roll_delta,pitch_delta,yaw_delta
2023-03-11 17:43:41:792,0,-3.05012,-5.73348,87.7149
2023-03-11 17:43:41:801,0,-3.03806,-5.71827,87.6978
2023-03-11 17:43:41:811,0,-3.03278,-5.69996,87.6799
2023-03-11 17:43:41:821,0,-3.03458,-5.68199,87.6643
2023-03-11 17:43:41:831,0,-3.04469,-5.66217,87.649
2023-03-11 17:43:41:841,0,-3.0605,-5.63772,87.6328
2023-03-11 17:43:41:851,0,-3.07196,-5.6204,87.6109
2023-03-11 17:43:41:861,0,-3.07636,-5.60133,87.5871
2023-03-11 17:43:41:871,0,-3.06786,-5.58516,87.5583
2023-03-11 17:43:41:881,0,-3.04414,-5.56884,87.5245
2023-03-11 17:43:41:891,0,-3.00796,-5.5434,87.4842
2023-03-11 17:43:41:901,0,-2.96219,-5.50488,87.4346
2023-03-11 17:43:41:911,0,-2.90728,-5.45988,87.3714
2023-03-11 17:43:41:921,0,-2.84481,-5.39851,87.2969
2023-03-11 17:43:41:931,0,-2.78678,-5.32824,87.2117
2023-03-11 17:43:41:941,0,-2.7301,-5.2576,87.123
2023-03-11 17:43:41:951,0,-2.68731,-5.18426,87.0373
2023-03-11 17:43:41:961,0,-2.65046,-5.10646,86.9591
2023-03-11 17:43:41:971,0,-2.6255,-5.02869,86.8899
2023-03-11 17:43:41:981,0,-2.61231,-4.9465,86.825
2023-03-11 17:43:41:991,0,-2.61196,-4.86717,86.7696
2023-03-11 17:43:42:1,0,-2.62083,-4.79545,86.7164
2023-03-11 17:43:42:11,0,-2.63878,-4.73311,86.6744
2023-03-11 17:43:42:21,0,-2.67047,-4.68341,86.6466
2023-03-11 17:43:42:31,0,-2.70547,-4.65569,86.6258
2023-03-11 17:43:42:41,0,-2.73912,-4.63805,86.6107
2023-03-11 17:43:42:51,0,-2.7702,-4.63724,86.5947
2023-03-11 17:43:42:61,0,-2.7972,-4.64534,86.5837
2023-03-11 17:43:42:71,0,-2.82253,-4.65902,86.5719
2023-03-11 17:43:42:81,0,-2.84409,-4.67793,86.5633
2023-03-11 17:43:42:91,0,-2.86589,-4.69842,86.5586
2023-03-11 17:43:42:101,0,-2.89062,-4.72446,86.557
2023-03-11 17:43:42:111,0,-2.91666,-4.75477,86.5642
2023-03-11 17:43:42:121,0,-2.94234,-4.79213,86.5759
2023-03-11 17:43:42:131,0,-2.97063,-4.83202,86.5966
2023-03-11 17:43:42:141,0,-2.99984,-4.87733,86.6226
2023-03-11 17:43:42:151,0,-3.02534,-4.92091,86.6543
2023-03-11 17:43:42:160,0,-3.04513,-4.96397,86.6899
2023-03-11 17:43:42:170,0,-3.06137,-5.00948,86.7333
2023-03-11 17:43:42:180,0,-3.07771,-5.05139,86.7777
2023-03-11 17:43:42:190,0,-3.09389,-5.08857,86.8244
2023-03-11 17:43:42:200,0,-3.10998,-5.12459,86.8718
2023-03-11 17:43:42:210,0,-3.12746,-5.16249,86.9163
2023-03-11 17:43:42:220,0,-3.14869,-5.1957,86.963
2023-03-11 17:43:42:230,0,-3.17078,-5.22033,87.0047
2023-03-11 17:43:42:241,0,-3.19669,-5.2432,87.0479
2023-03-11 17:43:42:250,0,-3.22067,-5.25694,87.0872
2023-03-11 17:43:42:260,0,-3.24423,-5.25909,87.1167
2023-03-11 17:43:42:270,0,-3.2746,-5.25428,87.1415
2023-03-11 17:43:42:281,0,-3.29831,-5.24922,87.1615
2023-03-11 17:43:42:291,0,-3.32684,-5.24249,87.1809
2023-03-11 17:43:42:301,0,-3.35491,-5.22835,87.1947
2023-03-11 17:43:42:311,0,-3.38122,-5.2121,87.2075
2023-03-11 17:43:42:321,0,-3.40899,-5.19466,87.2142
2023-03-11 17:43:42:331,0,-3.4343,-5.17671,87.213
2023-03-11 17:43:42:341,0,-3.45057,-5.15461,87.203
2023-03-11 17:43:42:351,0,-3.45659,-5.13305,87.1865
2023-03-11 17:43:42:361,0,-3.45196,-5.10712,87.1646
2023-03-11 17:43:42:371,0,-3.44397,-5.07902,87.1326
2023-03-11 17:43:42:381,0,-3.44094,-5.0508,87.1016
2023-03-11 17:43:42:391,0,-3.44097,-5.01498,87.0688
2023-03-11 17:43:42:401,0,-3.44526,-4.98284,87.0372
2023-03-11 17:43:42:410,0,-3.43836,-4.95567,87.0044
2023-03-11 17:43:42:420,0,-3.43051,-4.9342,86.976
2023-03-11 17:43:42:430,0,-3.42497,-4.91973,86.9513
2023-03-11 17:43:42:440,0,-3.41812,-4.90338,86.9348
2023-03-11 17:43:42:451,0,-3.4144,-4.89365,86.9182
2023-03-11 17:43:42:461,0,-3.41043,-4.88874,86.9061
2023-03-11 17:43:42:471,0,-3.40739,-4.88614,86.8968
2023-03-11 17:43:42:481,0,-3.40105,-4.8842,86.893
2023-03-11 17:43:42:491,0,-3.39663,-4.88488,86.8946
2023-03-11 17:43:42:501,0,-3.39522,-4.88805,86.8952
2023-03-11 17:43:42:511,0,-3.40022,-4.89224,86.9036
2023-03-11 17:43:42:521,0,-3.4082,-4.89864,86.9111
2023-03-11 17:43:42:531,0,-3.42216,-4.90939,86.922
2023-03-11 17:43:42:541,0,-3.44165,-4.91978,86.9346
2023-03-11 17:43:42:551,0,-3.45866,-4.9323,86.9496
2023-03-11 17:43:42:561,0,-3.47408,-4.93869,86.9666
2023-03-11 17:43:42:571,0,-3.48862,-4.94564,86.9872
2023-03-11 17:43:42:581,0,-3.50144,-4.94953,87.0063
2023-03-11 17:43:42:591,0,-3.50786,-4.95553,87.0283
2023-03-11 17:43:42:601,0,-3.51302,-4.95953,87.0498
2023-03-11 17:43:42:611,0,-3.52275,-4.95586,87.0724
2023-03-11 17:43:42:621,0,-3.5377,-4.9477,87.0946
2023-03-11 17:43:42:631,0,-3.55277,-4.93907,87.1119
2023-03-11 17:43:42:641,0,-3.56465,-4.9296,87.1286
2023-03-11 17:43:42:651,0,-3.58089,-4.9223,87.1405
2023-03-11 17:43:42:661,0,-3.60054,-4.91288,87.1534
2023-03-11 17:43:42:671,0,-3.61859,-4.90208,87.163
2023-03-11 17:43:42:681,0,-3.63389,-4.88929,87.1683
2023-03-11 17:43:42:691,0,-3.64662,-4.87691,87.1711
2023-03-11 17:43:42:701,0,-3.65793,-4.86873,87.1696
2023-03-11 17:43:42:711,0,-3.66261,-4.85946,87.1654
2023-03-11 17:43:42:721,0,-3.66982,-4.85573,87.1607
2023-03-11 17:43:42:731,0,-3.67534,-4.85604,87.1594
2023-03-11 17:43:42:741,0,-3.6771,-4.85843,87.1543
2023-03-11 17:43:42:751,0,-3.67614,-4.85669,87.1522
2023-03-11 17:43:42:761,0,-3.67288,-4.85212,87.1472
2023-03-11 17:43:42:771,0,-3.66463,-4.84737,87.1409
2023-03-11 17:43:42:781,0,-3.65402,-4.83902,87.1368
2023-03-11 17:43:42:791,0,-3.64491,-4.83283,87.1364
2023-03-11 17:43:42:801,0,-3.6358,-4.82804,87.1366
2023-03-11 17:43:42:811,0,-3.63012,-4.8248,87.1377
2023-03-11 17:43:42:821,0,-3.62297,-4.82303,87.1453
2023-03-11 17:43:42:831,0,-3.61933,-4.82418,87.1519
2023-03-11 17:43:42:841,0,-3.61784,-4.82558,87.1609
2023-03-11 17:43:42:851,0,-3.61695,-4.83327,87.1777
2023-03-11 17:43:42:861,0,-3.61808,-4.84291,87.1896
2023-03-11 17:43:42:871,0,-3.61517,-4.8568,87.2025
2023-03-11 17:43:42:881,0,-3.61038,-4.87199,87.2136
2023-03-11 17:43:42:891,0,-3.5991,-4.88729,87.2295
2023-03-11 17:43:42:901,0,-3.58473,-4.90494,87.2454
2023-03-11 17:43:42:911,0,-3.56921,-4.91856,87.262
2023-03-11 17:43:42:921,0,-3.55078,-4.92947,87.2754
2023-03-11 17:43:42:931,0,-3.53578,-4.93776,87.283
2023-03-11 17:43:42:941,0,-3.5219,-4.94279,87.2894
2023-03-11 17:43:42:951,0,-3.51002,-4.93969,87.2909
2023-03-11 17:43:42:961,0,-3.50356,-4.93102,87.2863
2023-03-11 17:43:42:971,0,-3.50029,-4.92467,87.2768
2023-03-11 17:43:42:981,0,-3.49553,-4.91442,87.2688
2023-03-11 17:43:42:991,0,-3.49381,-4.904,87.2578
2023-03-11 17:43:43:1,0,-3.4936,-4.88758,87.2466
2023-03-11 17:43:43:11,0,-3.49465,-4.87388,87.2355
2023-03-11 17:43:43:21,0,-3.49774,-4.85941,87.228
2023-03-11 17:43:43:31,0,-3.50369,-4.84808,87.2217
2023-03-11 17:43:43:41,0,-3.50998,-4.83417,87.222
2023-03-11 17:43:43:51,0,-3.51255,-4.82147,87.2212
2023-03-11 17:43:43:61,0,-3.51387,-4.8124,87.2241
2023-03-11 17:43:43:71,0,-3.51329,-4.80839,87.2332
2023-03-11 17:43:43:81,0,-3.51164,-4.80841,87.2408
2023-03-11 17:43:43:91,0,-3.51301,-4.81218,87.2483
2023-03-11 17:43:43:101,0,-3.51715,-4.82155,87.2559
2023-03-11 17:43:43:111,0,-3.50919,-4.82842,87.2565
2023-03-11 17:43:43:121,0,-3.50014,-4.84201,87.2572
2023-03-11 17:43:43:131,0,-3.48171,-4.86052,87.2509
2023-03-11 17:43:43:141,0,-3.46403,-4.88213,87.2488
2023-03-11 17:43:43:151,0,-3.4398,-4.90516,87.2423
2023-03-11 17:43:43:161,0,-3.41617,-4.92716,87.2365
2023-03-11 17:43:43:171,0,-3.40211,-4.9423,87.2326
2023-03-11 17:43:43:181,0,-3.38752,-4.95292,87.2295
2023-03-11 17:43:43:191,0,-3.37992,-4.95699,87.2304
2023-03-11 17:43:43:201,0,-3.37212,-4.95612,87.2336
2023-03-11 17:43:43:211,0,-3.3659,-4.95538,87.2444
2023-03-11 17:43:43:221,0,-3.36099,-4.95244,87.2576
2023-03-11 17:43:43:231,0,-3.35723,-4.95285,87.2727
2023-03-11 17:43:43:241,0,-3.35538,-4.95435,87.2933
2023-03-11 17:43:43:251,0,-3.35279,-4.9581,87.3191
2023-03-11 17:43:43:261,0,-3.3515,-4.96952,87.3471
2023-03-11 17:43:43:271,0,-3.35693,-4.98685,87.378
2023-03-11 17:43:43:281,0,-3.36331,-5.00796,87.4143
2023-03-11 17:43:43:291,0,-3.37027,-5.03004,87.4536
2023-03-11 17:43:43:301,0,-3.37115,-5.05148,87.4914
2023-03-11 17:43:43:311,0,-3.36991,-5.07341,87.5252
2023-03-11 17:43:43:321,0,-3.36566,-5.09231,87.5507
2023-03-11 17:43:43:331,0,-3.35907,-5.10455,87.5679
2023-03-11 17:43:43:341,0,-3.35149,-5.11378,87.5752
2023-03-11 17:43:43:351,0,-3.33454,-5.11561,87.5706
2023-03-11 17:43:43:361,0,-3.31567,-5.11494,87.5612
2023-03-11 17:43:43:371,0,-3.29987,-5.11236,87.5446
2023-03-11 17:43:43:381,0,-3.28539,-5.10243,87.5192
2023-03-11 17:43:43:391,0,-3.27457,-5.08837,87.4907
2023-03-11 17:43:43:401,0,-3.26943,-5.06893,87.4558
2023-03-11 17:43:43:411,0,-3.27096,-5.04381,87.4222
2023-03-11 17:43:43:421,0,-3.27543,-5.02151,87.3858
2023-03-11 17:43:43:431,0,-3.28589,-5.00061,87.3502
2023-03-11 17:43:43:441,0,-3.30068,-4.98104,87.3191
2023-03-11 17:43:43:451,0,-3.31895,-4.96615,87.2867
2023-03-11 17:43:43:461,0,-3.34031,-4.95242,87.2607
2023-03-11 17:43:43:470,0,-3.36127,-4.93881,87.2361
2023-03-11 17:43:43:481,0,-3.38037,-4.92979,87.2184
2023-03-11 17:43:43:491,0,-3.39561,-4.92248,87.1967
2023-03-11 17:43:43:501,0,-3.41301,-4.91744,87.1793
2023-03-11 17:43:43:510,0,-3.43347,-4.91714,87.1638
2023-03-11 17:43:43:520,0,-3.45633,-4.91792,87.156
2023-03-11 17:43:43:530,0,-3.48726,-4.91731,87.1514
2023-03-11 17:43:43:541,0,-3.52396,-4.90862,87.1451
2023-03-11 17:43:43:551,0,-3.56167,-4.89879,87.1435
2023-03-11 17:43:43:560,0,-3.59934,-4.8887,87.1414
2023-03-11 17:43:43:570,0,-3.63251,-4.87034,87.1366
2023-03-11 17:43:43:580,0,-3.66332,-4.8522,87.1349
2023-03-11 17:43:43:590,0,-3.68728,-4.83359,87.1304
2023-03-11 17:43:43:600,0,-3.70525,-4.80881,87.1274
2023-03-11 17:43:43:611,0,-3.71845,-4.78221,87.1223
2023-03-11 17:43:43:620,0,-3.7294,-4.75753,87.1152
2023-03-11 17:43:43:631,0,-3.73676,-4.73819,87.1042
2023-03-11 17:43:43:641,0,-3.73982,-4.71687,87.0927
2023-03-11 17:43:43:651,0,-3.74372,-4.69983,87.0773
2023-03-11 17:43:43:661,0,-3.75164,-4.68404,87.0605
2023-03-11 17:43:43:671,0,-3.76021,-4.6678,87.0422
2023-03-11 17:43:43:681,0,-3.76532,-4.65249,87.0219
2023-03-11 17:43:43:691,0,-3.77127,-4.64292,87.0049
2023-03-11 17:43:43:701,0,-3.77618,-4.63632,86.9928
2023-03-11 17:43:43:711,0,-3.77929,-4.63346,86.9834
2023-03-11 17:43:43:721,0,-3.78102,-4.63305,86.9795
2023-03-11 17:43:43:731,0,-3.77795,-4.62991,86.9778
2023-03-11 17:43:43:741,0,-3.77801,-4.62538,86.9814
2023-03-11 17:43:43:751,0,-3.77786,-4.61743,86.9888
2023-03-11 17:43:43:761,0,-3.77756,-4.6128,86.9975
2023-03-11 17:43:43:771,0,-3.77717,-4.60709,87.0097
2023-03-11 17:43:43:781,0,-3.77844,-4.60113,87.0215
2023-03-11 17:43:43:791,0,-3.78345,-4.59861,87.0353
2023-03-11 17:43:43:801,0,-3.78893,-4.5913,87.0459
2023-03-11 17:43:43:811,0,-3.79477,-4.58274,87.0586
2023-03-11 17:43:43:821,0,-3.80099,-4.57299,87.0633
2023-03-11 17:43:43:831,0,-3.80214,-4.56777,87.0671
2023-03-11 17:43:43:841,0,-3.80508,-4.55793,87.0622
2023-03-11 17:43:43:851,0,-3.80559,-4.55334,87.0572
2023-03-11 17:43:43:861,0,-3.80303,-4.54867,87.0444
2023-03-11 17:43:43:871,0,-3.79837,-4.54965,87.0307
2023-03-11 17:43:43:881,0,-3.79266,-4.55565,87.0171
2023-03-11 17:43:43:891,0,-3.7866,-4.55812,87.0014
2023-03-11 17:43:43:901,0,-3.78159,-4.5608,86.9843
2023-03-11 17:43:43:911,0,-3.77936,-4.56569,86.9722
2023-03-11 17:43:43:921,0,-3.78338,-4.56942,86.9688
2023-03-11 17:43:43:931,0,-3.7869,-4.57717,86.9683
2023-03-11 17:43:43:941,0,-3.79033,-4.58809,86.9744
2023-03-11 17:43:43:950,0,-3.79135,-4.5952,86.9862
2023-03-11 17:43:43:960,0,-3.7867,-4.59874,87.0024
2023-03-11 17:43:43:971,0,-3.77527,-4.59747,87.0178
2023-03-11 17:43:43:981,0,-3.76542,-4.59,87.0339
2023-03-11 17:43:43:991,0,-3.76181,-4.58534,87.0468
2023-03-11 17:43:44:0,0,-3.75941,-4.57827,87.0579
2023-03-11 17:43:44:11,0,-3.76492,-4.57138,87.0688
2023-03-11 17:43:44:21,0,-3.77022,-4.5622,87.0734
2023-03-11 17:43:44:31,0,-3.7795,-4.5539,87.0718
2023-03-11 17:43:44:41,0,-3.78417,-4.54185,87.0674
2023-03-11 17:43:44:51,0,-3.78623,-4.52786,87.0536
2023-03-11 17:43:44:61,0,-3.78958,-4.51017,87.0343
2023-03-11 17:43:44:71,0,-3.79248,-4.48743,87.0089
2023-03-11 17:43:44:81,0,-3.79557,-4.46318,86.9749
2023-03-11 17:43:44:91,0,-3.79096,-4.43444,86.9376
2023-03-11 17:43:44:101,0,-3.78571,-4.41349,86.8975
2023-03-11 17:43:44:111,0,-3.78212,-4.39369,86.8646
2023-03-11 17:43:44:121,0,-3.78222,-4.37275,86.8309
2023-03-11 17:43:44:131,0,-3.78478,-4.35289,86.8066
2023-03-11 17:43:44:141,0,-3.79094,-4.3347,86.784
2023-03-11 17:43:44:151,0,-3.79411,-4.31895,86.7661
2023-03-11 17:43:44:161,0,-3.79558,-4.30702,86.7512
2023-03-11 17:43:44:171,0,-3.79485,-4.29711,86.7468
2023-03-11 17:43:44:181,0,-3.78873,-4.28989,86.7478
2023-03-11 17:43:44:191,0,-3.78017,-4.28811,86.7497
2023-03-11 17:43:44:201,0,-3.77116,-4.28277,86.7516
2023-03-11 17:43:44:211,0,-3.76187,-4.27885,86.7551
2023-03-11 17:43:44:221,0,-3.75534,-4.28189,86.7604
2023-03-11 17:43:44:231,0,-3.74902,-4.28459,86.7619
2023-03-11 17:43:44:241,0,-3.73987,-4.28787,86.7618
2023-03-11 17:43:44:251,0,-3.7326,-4.29655,86.7663
2023-03-11 17:43:44:261,0,-3.72231,-4.30748,86.766
2023-03-11 17:43:44:271,0,-3.71019,-4.31356,86.7681
2023-03-11 17:43:44:281,0,-3.69639,-4.32171,86.7705
2023-03-11 17:43:44:291,0,-3.68666,-4.32569,86.7752
2023-03-11 17:43:44:301,0,-3.67389,-4.33108,86.7789
2023-03-11 17:43:44:311,0,-3.65915,-4.33618,86.7853
2023-03-11 17:43:44:321,0,-3.6474,-4.34283,86.7916
2023-03-11 17:43:44:331,0,-3.63895,-4.34808,86.8032
2023-03-11 17:43:44:341,0,-3.6326,-4.35028,86.8121
2023-03-11 17:43:44:351,0,-3.62872,-4.35652,86.816
2023-03-11 17:43:44:361,0,-3.62555,-4.35955,86.8206
2023-03-11 17:43:44:371,0,-3.6194,-4.35834,86.8232
2023-03-11 17:43:44:380,0,-3.61156,-4.35769,86.818
2023-03-11 17:43:44:391,0,-3.60623,-4.35398,86.8145
2023-03-11 17:43:44:401,0,-3.60443,-4.35302,86.809
2023-03-11 17:43:44:411,0,-3.60363,-4.35048,86.8043
2023-03-11 17:43:44:421,0,-3.60617,-4.34906,86.798
2023-03-11 17:43:44:431,0,-3.6104,-4.34278,86.7931
2023-03-11 17:43:44:441,0,-3.61452,-4.33962,86.7867
2023-03-11 17:43:44:451,0,-3.61384,-4.33497,86.7808
2023-03-11 17:43:44:461,0,-3.61703,-4.33003,86.7772
2023-03-11 17:43:44:471,0,-3.6182,-4.32254,86.7696
2023-03-11 17:43:44:481,0,-3.6153,-4.3138,86.7672
2023-03-11 17:43:44:491,0,-3.61177,-4.30598,86.7627
2023-03-11 17:43:44:501,0,-3.6078,-4.29745,86.7613
2023-03-11 17:43:44:511,0,-3.60497,-4.28657,86.7574
2023-03-11 17:43:44:521,0,-3.60508,-4.2792,86.7519
2023-03-11 17:43:44:531,0,-3.60531,-4.26903,86.7463
2023-03-11 17:43:44:541,0,-3.60476,-4.25833,86.7414
2023-03-11 17:43:44:551,0,-3.6038,-4.24732,86.7314
2023-03-11 17:43:44:561,0,-3.60106,-4.23667,86.7201
2023-03-11 17:43:44:571,0,-3.59263,-4.22566,86.7114
2023-03-11 17:43:44:581,0,-3.58002,-4.21808,86.7058
2023-03-11 17:43:44:591,0,-3.56277,-4.20823,86.705
2023-03-11 17:43:44:601,0,-3.54222,-4.19641,86.7071
2023-03-11 17:43:44:611,0,-3.5151,-4.19032,86.7109
2023-03-11 17:43:44:621,0,-3.48381,-4.1835,86.7205
2023-03-11 17:43:44:631,0,-3.44864,-4.18234,86.7301
2023-03-11 17:43:44:641,0,-3.40944,-4.18064,86.7468
2023-03-11 17:43:44:651,0,-3.36927,-4.18143,86.7561
2023-03-11 17:43:44:661,0,-3.33205,-4.1874,86.7691
2023-03-11 17:43:44:671,0,-3.29925,-4.19311,86.7806
2023-03-11 17:43:44:681,0,-3.26524,-4.20218,86.7938
2023-03-11 17:43:44:691,0,-3.23654,-4.20824,86.8012
2023-03-11 17:43:44:701,0,-3.2163,-4.21426,86.8043
2023-03-11 17:43:44:711,0,-3.20406,-4.21992,86.8118
2023-03-11 17:43:44:721,0,-3.1942,-4.22504,86.8163
2023-03-11 17:43:44:731,0,-3.1835,-4.23427,86.8197
2023-03-11 17:43:44:741,0,-3.17822,-4.23755,86.8204
2023-03-11 17:43:44:751,0,-3.17334,-4.23756,86.822
2023-03-11 17:43:44:761,0,-3.17448,-4.24353,86.8224
2023-03-11 17:43:44:771,0,-3.17444,-4.24315,86.8201
2023-03-11 17:43:44:781,0,-3.1787,-4.24202,86.8159
2023-03-11 17:43:44:791,0,-3.18389,-4.23916,86.8115
2023-03-11 17:43:44:801,0,-3.18994,-4.2385,86.8102
2023-03-11 17:43:44:811,0,-3.19775,-4.23246,86.8136
2023-03-11 17:43:44:821,0,-3.20773,-4.22835,86.8148
2023-03-11 17:43:44:831,0,-3.22115,-4.21592,86.8161
2023-03-11 17:43:44:841,0,-3.23215,-4.20279,86.8156
2023-03-11 17:43:44:851,0,-3.23958,-4.1892,86.816
2023-03-11 17:43:44:861,0,-3.24321,-4.17475,86.8227
2023-03-11 17:43:44:871,0,-3.24596,-4.16056,86.8343
2023-03-11 17:43:44:881,0,-3.24645,-4.14903,86.8439
2023-03-11 17:43:44:891,0,-3.25038,-4.13672,86.8545
2023-03-11 17:43:44:901,0,-3.25184,-4.12813,86.8618
2023-03-11 17:43:44:911,0,-3.25326,-4.1171,86.8684
2023-03-11 17:43:44:921,0,-3.24912,-4.10718,86.875
2023-03-11 17:43:44:931,0,-3.24209,-4.10278,86.8813
2023-03-11 17:43:44:941,0,-3.24029,-4.0947,86.8871
2023-03-11 17:43:44:951,0,-3.24175,-4.08491,86.8887
2023-03-11 17:43:44:961,0,-3.24385,-4.07311,86.8874
2023-03-11 17:43:44:971,0,-3.24649,-4.058,86.8814
2023-03-11 17:43:44:981,0,-3.2551,-4.04548,86.8721
2023-03-11 17:43:44:991,0,-3.2583,-4.03567,86.8592
2023-03-11 17:43:45:1,0,-3.25581,-4.03119,86.8534
2023-03-11 17:43:45:11,0,-3.25171,-4.0309,86.8441
2023-03-11 17:43:45:21,0,-3.24567,-4.03871,86.8412
2023-03-11 17:43:45:31,0,-3.24475,-4.04156,86.8437
2023-03-11 17:43:45:41,0,-3.24603,-4.04311,86.8506
2023-03-11 17:43:45:51,0,-3.25077,-4.0461,86.8574
2023-03-11 17:43:45:61,0,-3.26117,-4.04941,86.8672
2023-03-11 17:43:45:71,0,-3.27675,-4.05039,86.8809
2023-03-11 17:43:45:81,0,-3.29188,-4.04725,86.8988
2023-03-11 17:43:45:91,0,-3.30739,-4.04009,86.9141
2023-03-11 17:43:45:101,0,-3.31798,-4.03385,86.9293
2023-03-11 17:43:45:111,0,-3.32331,-4.02633,86.9432
2023-03-11 17:43:45:120,0,-3.32524,-4.02,86.9537
2023-03-11 17:43:45:130,0,-3.31894,-4.0115,86.9623
2023-03-11 17:43:45:141,0,-3.30677,-4.00372,86.9708
2023-03-11 17:43:45:151,0,-3.29822,-4.00016,86.9759
2023-03-11 17:43:45:161,0,-3.29014,-4.00181,86.9758
2023-03-11 17:43:45:171,0,-3.2832,-3.99665,86.977
2023-03-11 17:43:45:181,0,-3.27671,-3.98932,86.9735
2023-03-11 17:43:45:191,0,-3.26614,-3.98274,86.9629
2023-03-11 17:43:45:201,0,-3.26039,-3.9788,86.9512
2023-03-11 17:43:45:211,0,-3.25562,-3.97586,86.9364
2023-03-11 17:43:45:221,0,-3.2464,-3.97361,86.922
2023-03-11 17:43:45:231,0,-3.23819,-3.96965,86.9086
2023-03-11 17:43:45:241,0,-3.22535,-3.9662,86.8943
2023-03-11 17:43:45:251,0,-3.21603,-3.96913,86.8817
2023-03-11 17:43:45:261,0,-3.20912,-3.9676,86.8695
2023-03-11 17:43:45:271,0,-3.21321,-3.96451,86.862
2023-03-11 17:43:45:281,0,-3.21955,-3.95807,86.8527
2023-03-11 17:43:45:291,0,-3.22896,-3.9498,86.8465
2023-03-11 17:43:45:301,0,-3.24085,-3.93614,86.8414
2023-03-11 17:43:45:311,0,-3.25115,-3.92341,86.8385
2023-03-11 17:43:45:321,0,-3.26078,-3.91026,86.8342
2023-03-11 17:43:45:331,0,-3.27511,-3.89532,86.835
2023-03-11 17:43:45:341,0,-3.28934,-3.88716,86.835
2023-03-11 17:43:45:351,0,-3.30667,-3.87896,86.8352
2023-03-11 17:43:45:361,0,-3.32067,-3.87528,86.8367
2023-03-11 17:43:45:371,0,-3.33563,-3.86811,86.8378
2023-03-11 17:43:45:381,0,-3.3461,-3.86622,86.8374
2023-03-11 17:43:45:391,0,-3.35631,-3.86918,86.8429
2023-03-11 17:43:45:401,0,-3.36281,-3.87115,86.8476
2023-03-11 17:43:45:411,0,-3.37516,-3.87357,86.8563
2023-03-11 17:43:45:421,0,-3.38087,-3.87499,86.8655
2023-03-11 17:43:45:431,0,-3.38938,-3.87,86.8776
2023-03-11 17:43:45:441,0,-3.39567,-3.86272,86.8853
2023-03-11 17:43:45:451,0,-3.39526,-3.85879,86.8994
2023-03-11 17:43:45:461,0,-3.39336,-3.8614,86.9109
2023-03-11 17:43:45:471,0,-3.39574,-3.86223,86.9293
2023-03-11 17:43:45:481,0,-3.40188,-3.86503,86.9493
2023-03-11 17:43:45:491,0,-3.41691,-3.8703,86.9707
2023-03-11 17:43:45:501,0,-3.44359,-3.87494,86.997
2023-03-11 17:43:45:511,0,-3.49037,-3.8756,87.0197
2023-03-11 17:43:45:521,0,-3.5451,-3.87325,87.0476
2023-03-11 17:43:45:531,0,-3.60218,-3.86688,87.0701
2023-03-11 17:43:45:541,0,-3.66108,-3.8574,87.0879
2023-03-11 17:43:45:551,0,-3.70769,-3.84918,87.1008
2023-03-11 17:43:45:561,0,-3.74386,-3.83844,87.1111
2023-03-11 17:43:45:571,0,-3.76768,-3.82569,87.1208
2023-03-11 17:43:45:581,0,-3.78112,-3.81257,87.1298
2023-03-11 17:43:45:591,0,-3.79582,-3.79711,87.1352
2023-03-11 17:43:45:601,0,-3.81106,-3.78049,87.1383
2023-03-11 17:43:45:610,0,-3.82289,-3.7693,87.1382
2023-03-11 17:43:45:620,0,-3.83382,-3.76067,87.1372
2023-03-11 17:43:45:630,0,-3.84472,-3.75611,87.1317
2023-03-11 17:43:45:640,0,-3.85668,-3.75606,87.1235
2023-03-11 17:43:45:650,0,-3.87244,-3.75247,87.1079
2023-03-11 17:43:45:660,0,-3.88378,-3.74442,87.0855
2023-03-11 17:43:45:670,0,-3.89232,-3.7336,87.0521
2023-03-11 17:43:45:680,0,-3.89364,-3.72023,87.0165
2023-03-11 17:43:45:690,0,-3.89374,-3.70486,86.9781
2023-03-11 17:43:45:700,0,-3.89339,-3.69684,86.9468
2023-03-11 17:43:45:710,0,-3.89355,-3.69184,86.9236
2023-03-11 17:43:45:720,0,-3.89014,-3.68746,86.9028
2023-03-11 17:43:45:730,0,-3.88359,-3.68351,86.8908
2023-03-11 17:43:45:740,0,-3.87519,-3.68269,86.8822
2023-03-11 17:43:45:750,0,-3.86265,-3.68452,86.8795
2023-03-11 17:43:45:760,0,-3.84747,-3.68828,86.8795
2023-03-11 17:43:45:770,0,-3.83636,-3.69014,86.879
2023-03-11 17:43:45:780,0,-3.82311,-3.69684,86.883
2023-03-11 17:43:45:790,0,-3.81882,-3.70885,86.887
2023-03-11 17:43:45:800,0,-3.81637,-3.72065,86.8848
2023-03-11 17:43:45:810,0,-3.81624,-3.73684,86.8849
2023-03-11 17:43:45:820,0,-3.81636,-3.7569,86.8842
2023-03-11 17:43:45:830,0,-3.81483,-3.78046,86.8868
2023-03-11 17:43:45:840,0,-3.81702,-3.80604,86.891
2023-03-11 17:43:45:850,0,-3.81617,-3.83202,86.9017
2023-03-11 17:43:45:860,0,-3.81365,-3.85395,86.9175
2023-03-11 17:43:45:870,0,-3.81108,-3.8761,86.9405
2023-03-11 17:43:45:880,0,-3.80569,-3.8945,86.964
2023-03-11 17:43:45:890,0,-3.80463,-3.9096,86.9883
2023-03-11 17:43:45:900,0,-3.80782,-3.92034,87.0111
2023-03-11 17:43:45:910,0,-3.80958,-3.92893,87.0318
2023-03-11 17:43:45:920,0,-3.81393,-3.92792,87.0464
2023-03-11 17:43:45:930,0,-3.81969,-3.92218,87.056
2023-03-11 17:43:45:940,0,-3.82682,-3.91466,87.0628
2023-03-11 17:43:45:950,0,-3.83315,-3.90821,87.0632
2023-03-11 17:43:45:960,0,-3.83743,-3.89661,87.0541
2023-03-11 17:43:45:970,0,-3.84104,-3.88131,87.0427
2023-03-11 17:43:45:980,0,-3.83881,-3.87138,87.0278
2023-03-11 17:43:45:990,0,-3.83172,-3.86446,87.0152
2023-03-11 17:43:46:0,0,-3.82021,-3.85506,87.0058
2023-03-11 17:43:46:10,0,-3.80659,-3.85024,86.995
2023-03-11 17:43:46:20,0,-3.78889,-3.84509,86.99
2023-03-11 17:43:46:30,0,-3.77144,-3.84301,86.9856
2023-03-11 17:43:46:40,0,-3.75351,-3.84226,86.9868
2023-03-11 17:43:46:50,0,-3.73656,-3.84909,86.9949
2023-03-11 17:43:46:60,0,-3.72221,-3.85698,87.0124
2023-03-11 17:43:46:70,0,-3.69861,-3.86848,87.0336
2023-03-11 17:43:46:80,0,-3.67058,-3.88802,87.0617
2023-03-11 17:43:46:90,0,-3.64132,-3.91176,87.0881
2023-03-11 17:43:46:100,0,-3.60635,-3.93603,87.1178
2023-03-11 17:43:46:110,0,-3.57258,-3.96745,87.1444
2023-03-11 17:43:46:120,0,-3.53766,-4.00088,87.1699
2023-03-11 17:43:46:130,0,-3.50714,-4.03235,87.1985
2023-03-11 17:43:46:140,0,-3.48174,-4.06439,87.2176
2023-03-11 17:43:46:151,0,-3.4663,-4.09224,87.232
2023-03-11 17:43:46:161,0,-3.45438,-4.12147,87.2452
2023-03-11 17:43:46:171,0,-3.44534,-4.15327,87.2523
2023-03-11 17:43:46:181,0,-3.44263,-4.18309,87.2555
2023-03-11 17:43:46:191,0,-3.44356,-4.21322,87.2604
2023-03-11 17:43:46:201,0,-3.44757,-4.24047,87.2627
2023-03-11 17:43:46:211,0,-3.45692,-4.26478,87.2618
2023-03-11 17:43:46:221,0,-3.4668,-4.2795,87.2654
2023-03-11 17:43:46:231,0,-3.47034,-4.29282,87.266
2023-03-11 17:43:46:241,0,-3.47368,-4.29867,87.2719
2023-03-11 17:43:46:251,0,-3.4786,-4.30243,87.2828
2023-03-11 17:43:46:261,0,-3.48271,-4.30336,87.2993
2023-03-11 17:43:46:271,0,-3.48505,-4.3009,87.3199
2023-03-11 17:43:46:281,0,-3.49399,-4.2981,87.3443
2023-03-11 17:43:46:291,0,-3.5133,-4.28935,87.3674
2023-03-11 17:43:46:300,0,-3.53832,-4.27918,87.3969
2023-03-11 17:43:46:311,0,-3.56345,-4.26565,87.4328
2023-03-11 17:43:46:321,0,-3.58684,-4.24829,87.4669
2023-03-11 17:43:46:331,0,-3.60815,-4.22404,87.5031
2023-03-11 17:43:46:341,0,-3.62515,-4.19286,87.5447
2023-03-11 17:43:46:351,0,-3.63369,-4.15998,87.5905
2023-03-11 17:43:46:361,0,-3.6503,-4.11875,87.6365
2023-03-11 17:43:46:371,0,-3.67098,-4.07107,87.685
2023-03-11 17:43:46:381,0,-3.69366,-4.0237,87.743
2023-03-11 17:43:46:391,0,-3.71421,-3.97642,87.8044
2023-03-11 17:43:46:401,0,-3.73583,-3.93079,87.8724
2023-03-11 17:43:46:411,0,-3.75443,-3.8886,87.9389
2023-03-11 17:43:46:421,0,-3.77429,-3.84639,88.0116
2023-03-11 17:43:46:431,0,-3.79359,-3.8102,88.0817
2023-03-11 17:43:46:441,0,-3.81653,-3.77415,88.1519
2023-03-11 17:43:46:451,0,-3.83577,-3.74125,88.2172
2023-03-11 17:43:46:461,0,-3.85737,-3.71105,88.2788
2023-03-11 17:43:46:471,0,-3.88052,-3.6849,88.3365
2023-03-11 17:43:46:481,0,-3.90565,-3.66819,88.3862
2023-03-11 17:43:46:491,0,-3.93364,-3.65785,88.4276
2023-03-11 17:43:46:501,0,-3.96322,-3.6567,88.4596
2023-03-11 17:43:46:511,0,-3.99527,-3.66077,88.4867
2023-03-11 17:43:46:521,0,-4.02121,-3.67079,88.5058
2023-03-11 17:43:46:531,0,-4.04115,-3.67957,88.5154
2023-03-11 17:43:46:541,0,-4.05325,-3.68865,88.5202
2023-03-11 17:43:46:551,0,-4.06299,-3.70021,88.5224
2023-03-11 17:43:46:561,0,-4.06951,-3.71189,88.5199
2023-03-11 17:43:46:571,0,-4.06765,-3.72559,88.5185
2023-03-11 17:43:46:581,0,-4.06691,-3.74098,88.5149
2023-03-11 17:43:46:591,0,-4.06635,-3.75729,88.5104
2023-03-11 17:43:46:601,0,-4.0702,-3.77575,88.5107
2023-03-11 17:43:46:611,0,-4.07729,-3.79097,88.5124
2023-03-11 17:43:46:621,0,-4.08523,-3.803,88.5169
2023-03-11 17:43:46:631,0,-4.09036,-3.8163,88.5215
2023-03-11 17:43:46:641,0,-4.09624,-3.8309,88.5329
2023-03-11 17:43:46:651,0,-4.09818,-3.85009,88.5442
2023-03-11 17:43:46:661,0,-4.09733,-3.86366,88.5597
2023-03-11 17:43:46:671,0,-4.09661,-3.87449,88.5722
2023-03-11 17:43:46:681,0,-4.09284,-3.88375,88.5815
2023-03-11 17:43:46:691,0,-4.09264,-3.89653,88.593
2023-03-11 17:43:46:701,0,-4.09352,-3.90812,88.6033
2023-03-11 17:43:46:711,0,-4.09595,-3.91868,88.6103
2023-03-11 17:43:46:720,0,-4.09777,-3.92949,88.6127
2023-03-11 17:43:46:730,0,-4.09726,-3.94127,88.6149
2023-03-11 17:43:46:740,0,-4.10056,-3.95021,88.6147
2023-03-11 17:43:46:751,0,-4.10432,-3.9619,88.6128
2023-03-11 17:43:46:761,0,-4.1052,-3.97403,88.6087
2023-03-11 17:43:46:771,0,-4.10153,-3.98493,88.6029
2023-03-11 17:43:46:781,0,-4.09754,-3.99196,88.5962
2023-03-11 17:43:46:791,0,-4.08668,-4.00019,88.5882
2023-03-11 17:43:46:801,0,-4.07842,-4.0124,88.5738
2023-03-11 17:43:46:811,0,-4.07209,-4.0223,88.5633
2023-03-11 17:43:46:821,0,-4.06824,-4.03412,88.5494
2023-03-11 17:43:46:831,0,-4.07307,-4.04403,88.5389
2023-03-11 17:43:46:841,0,-4.0823,-4.05434,88.5331
2023-03-11 17:43:46:851,0,-4.09637,-4.07121,88.5262
2023-03-11 17:43:46:861,0,-4.11787,-4.08578,88.5259
2023-03-11 17:43:46:871,0,-4.1382,-4.10034,88.531
2023-03-11 17:43:46:881,0,-4.1545,-4.11551,88.5356
2023-03-11 17:43:46:891,0,-4.16691,-4.12824,88.5439
2023-03-11 17:43:46:901,0,-4.17816,-4.14298,88.5572
2023-03-11 17:43:46:911,0,-4.18976,-4.15267,88.5749
2023-03-11 17:43:46:921,0,-4.20745,-4.16206,88.5913
2023-03-11 17:43:46:931,0,-4.22662,-4.16982,88.6059
2023-03-11 17:43:46:941,0,-4.25657,-4.1786,88.6244
2023-03-11 17:43:46:951,0,-4.28605,-4.1834,88.645
2023-03-11 17:43:46:961,0,-4.316,-4.18547,88.6652
2023-03-11 17:43:46:971,0,-4.33869,-4.19148,88.6799
2023-03-11 17:43:46:981,0,-4.35342,-4.19726,88.6921
2023-03-11 17:43:46:991,0,-4.35949,-4.20814,88.7035
2023-03-11 17:43:47:1,0,-4.36126,-4.2135,88.715
2023-03-11 17:43:47:11,0,-4.36248,-4.21804,88.7237
2023-03-11 17:43:47:21,0,-4.36126,-4.21808,88.7273
2023-03-11 17:43:47:31,0,-4.36716,-4.21652,88.7313
2023-03-11 17:43:47:41,0,-4.36977,-4.21645,88.7307
2023-03-11 17:43:47:51,0,-4.37418,-4.21381,88.7285
2023-03-11 17:43:47:61,0,-4.38362,-4.21106,88.7219
2023-03-11 17:43:47:71,0,-4.39257,-4.20545,88.7152
2023-03-11 17:43:47:81,0,-4.40558,-4.19847,88.7095
2023-03-11 17:43:47:91,0,-4.41554,-4.19393,88.7052
2023-03-11 17:43:47:101,0,-4.42685,-4.18784,88.7015
2023-03-11 17:43:47:111,0,-4.43837,-4.18156,88.6945
2023-03-11 17:43:47:121,0,-4.44971,-4.17316,88.6942
2023-03-11 17:43:47:131,0,-4.46102,-4.16065,88.6932
2023-03-11 17:43:47:141,0,-4.47696,-4.15189,88.699
2023-03-11 17:43:47:151,0,-4.49472,-4.13992,88.7055
2023-03-11 17:43:47:161,0,-4.51728,-4.13223,88.7169
2023-03-11 17:43:47:171,0,-4.54598,-4.1246,88.7343
2023-03-11 17:43:47:181,0,-4.58161,-4.11476,88.7561
2023-03-11 17:43:47:191,0,-4.61878,-4.10311,88.7824
2023-03-11 17:43:47:201,0,-4.6519,-4.09244,88.8089
2023-03-11 17:43:47:211,0,-4.68144,-4.08174,88.8412
2023-03-11 17:43:47:221,0,-4.71059,-4.07338,88.8742
2023-03-11 17:43:47:231,0,-4.74141,-4.07011,88.9109
2023-03-11 17:43:47:241,0,-4.77125,-4.0638,88.9485
2023-03-11 17:43:47:251,0,-4.80235,-4.0548,88.9864
2023-03-11 17:43:47:261,0,-4.83284,-4.04731,89.0242
2023-03-11 17:43:47:271,0,-4.86954,-4.04114,89.0648
2023-03-11 17:43:47:281,0,-4.9065,-4.03845,89.1025
2023-03-11 17:43:47:291,0,-4.93862,-4.04007,89.1386
2023-03-11 17:43:47:301,0,-4.96982,-4.04336,89.1696
2023-03-11 17:43:47:311,0,-4.99496,-4.04783,89.1977
2023-03-11 17:43:47:321,0,-5.0139,-4.0566,89.222
2023-03-11 17:43:47:331,0,-5.02759,-4.06521,89.2441
2023-03-11 17:43:47:341,0,-5.03852,-4.07911,89.2579
2023-03-11 17:43:47:351,0,-5.04211,-4.09073,89.272
2023-03-11 17:43:47:361,0,-5.04981,-4.10453,89.2768
2023-03-11 17:43:47:371,0,-5.05473,-4.12028,89.2778
2023-03-11 17:43:47:380,0,-5.05201,-4.13932,89.2723
2023-03-11 17:43:47:390,0,-5.04561,-4.15805,89.2652
2023-03-11 17:43:47:400,0,-5.03908,-4.18511,89.2508
2023-03-11 17:43:47:410,0,-5.03026,-4.21133,89.2333
2023-03-11 17:43:47:421,0,-5.01786,-4.23895,89.2122
2023-03-11 17:43:47:431,0,-5.00487,-4.2679,89.1862
2023-03-11 17:43:47:441,0,-4.9909,-4.2953,89.1642
2023-03-11 17:43:47:451,0,-4.97583,-4.32322,89.1367
2023-03-11 17:43:47:461,0,-4.95835,-4.35089,89.1144
2023-03-11 17:43:47:471,0,-4.93819,-4.37735,89.0935
2023-03-11 17:43:47:481,0,-4.92419,-4.39857,89.0729
2023-03-11 17:43:47:491,0,-4.90919,-4.41358,89.0533
2023-03-11 17:43:47:501,0,-4.89457,-4.42119,89.0383
2023-03-11 17:43:47:511,0,-4.89053,-4.42573,89.0277
2023-03-11 17:43:47:521,0,-4.88674,-4.42776,89.0199
2023-03-11 17:43:47:531,0,-4.88878,-4.42773,89.0125
2023-03-11 17:43:47:541,0,-4.89625,-4.42668,89.0152
2023-03-11 17:43:47:551,0,-4.90973,-4.42366,89.0222
2023-03-11 17:43:47:561,0,-4.92311,-4.42376,89.0318
2023-03-11 17:43:47:571,0,-4.93768,-4.4232,89.0429
2023-03-11 17:43:47:581,0,-4.94873,-4.42244,89.0603
2023-03-11 17:43:47:591,0,-4.96489,-4.42501,89.0742
2023-03-11 17:43:47:601,0,-4.97317,-4.42718,89.094
2023-03-11 17:43:47:611,0,-4.98508,-4.42713,89.1112
2023-03-11 17:43:47:621,0,-5.00186,-4.42841,89.129
2023-03-11 17:43:47:631,0,-5.01625,-4.42647,89.1387
2023-03-11 17:43:47:641,0,-5.03485,-4.42655,89.1493
2023-03-11 17:43:47:651,0,-5.05897,-4.42384,89.159
2023-03-11 17:43:47:661,0,-5.08209,-4.42025,89.1628
2023-03-11 17:43:47:671,0,-5.10204,-4.41357,89.1638
2023-03-11 17:43:47:681,0,-5.1231,-4.40905,89.1653
2023-03-11 17:43:47:691,0,-5.14631,-4.40253,89.1637
2023-03-11 17:43:47:701,0,-5.16916,-4.39445,89.157
2023-03-11 17:43:47:711,0,-5.19314,-4.38841,89.1484
2023-03-11 17:43:47:721,0,-5.2132,-4.37932,89.1363
2023-03-11 17:43:47:731,0,-5.23554,-4.36803,89.1254
2023-03-11 17:43:47:741,0,-5.25664,-4.3538,89.1137
2023-03-11 17:43:47:751,0,-5.28142,-4.34271,89.1017
2023-03-11 17:43:47:761,0,-5.31357,-4.32777,89.0941
2023-03-11 17:43:47:771,0,-5.34617,-4.30915,89.0816
2023-03-11 17:43:47:781,0,-5.37976,-4.29452,89.0728
2023-03-11 17:43:47:791,0,-5.40919,-4.28025,89.0612
2023-03-11 17:43:47:801,0,-5.43701,-4.26776,89.0542
2023-03-11 17:43:47:811,0,-5.46013,-4.25755,89.0496
2023-03-11 17:43:47:821,0,-5.48552,-4.24779,89.0426
2023-03-11 17:43:47:831,0,-5.50555,-4.23995,89.0357
2023-03-11 17:43:47:841,0,-5.52525,-4.2308,89.0312
2023-03-11 17:43:47:851,0,-5.54633,-4.22532,89.0263
2023-03-11 17:43:47:861,0,-5.56496,-4.22034,89.0267
2023-03-11 17:43:47:871,0,-5.58373,-4.21199,89.023
2023-03-11 17:43:47:881,0,-5.60233,-4.2078,89.0236
2023-03-11 17:43:47:891,0,-5.61974,-4.20308,89.0266
2023-03-11 17:43:47:901,0,-5.64023,-4.19709,89.0285
2023-03-11 17:43:47:911,0,-5.66453,-4.1928,89.0307
2023-03-11 17:43:47:921,0,-5.69139,-4.1915,89.033
2023-03-11 17:43:47:931,0,-5.71561,-4.18642,89.0309
2023-03-11 17:43:47:941,0,-5.7385,-4.17906,89.0326
2023-03-11 17:43:47:951,0,-5.75663,-4.17125,89.0381
2023-03-11 17:43:47:961,0,-5.7713,-4.16409,89.0397
2023-03-11 17:43:47:971,0,-5.78283,-4.15548,89.0415
2023-03-11 17:43:47:981,0,-5.79093,-4.1473,89.0434
2023-03-11 17:43:47:991,0,-5.80217,-4.13977,89.0471
2023-03-11 17:43:48:1,0,-5.81164,-4.1256,89.0481
2023-03-11 17:43:48:11,0,-5.82281,-4.11233,89.0446
2023-03-11 17:43:48:21,0,-5.83167,-4.09702,89.042
2023-03-11 17:43:48:31,0,-5.84135,-4.08767,89.0368
2023-03-11 17:43:48:41,0,-5.84796,-4.08405,89.0305
2023-03-11 17:43:48:51,0,-5.85288,-4.08058,89.0253
2023-03-11 17:43:48:61,0,-5.85709,-4.07685,89.0158
2023-03-11 17:43:48:71,0,-5.85657,-4.06795,89.0078
2023-03-11 17:43:48:81,0,-5.85389,-4.06041,89.0004
2023-03-11 17:43:48:91,0,-5.84697,-4.05037,88.9956
2023-03-11 17:43:48:101,0,-5.84229,-4.04243,88.9888
2023-03-11 17:43:48:111,0,-5.83993,-4.03349,88.985
2023-03-11 17:43:48:121,0,-5.83702,-4.02652,88.979
2023-03-11 17:43:48:131,0,-5.83654,-4.01809,88.9735
2023-03-11 17:43:48:141,0,-5.83054,-4.01052,88.967
2023-03-11 17:43:48:151,0,-5.82815,-4.0064,88.9598
2023-03-11 17:43:48:161,0,-5.82739,-4.00137,88.9534
2023-03-11 17:43:48:171,0,-5.82423,-3.99773,88.948
2023-03-11 17:43:48:181,0,-5.81715,-3.99656,88.9437
2023-03-11 17:43:48:191,0,-5.81257,-3.99706,88.9378
2023-03-11 17:43:48:201,0,-5.80359,-3.99841,88.9308
2023-03-11 17:43:48:211,0,-5.79912,-4.00261,88.9248
2023-03-11 17:43:48:221,0,-5.79323,-4.00225,88.9201
2023-03-11 17:43:48:231,0,-5.78938,-4.00431,88.9166
2023-03-11 17:43:48:241,0,-5.78427,-4.00767,88.9138
2023-03-11 17:43:48:251,0,-5.78353,-4.00979,88.9192
2023-03-11 17:43:48:261,0,-5.78815,-4.0072,88.9255
2023-03-11 17:43:48:271,0,-5.79042,-4.00765,88.9323
2023-03-11 17:43:48:281,0,-5.79402,-4.00916,88.9383
2023-03-11 17:43:48:291,0,-5.7974,-4.00875,88.9472
2023-03-11 17:43:48:301,0,-5.80126,-4.00901,88.9548
2023-03-11 17:43:48:311,0,-5.80569,-4.01191,88.9567
2023-03-11 17:43:48:321,0,-5.80912,-4.00926,88.9544
2023-03-11 17:43:48:331,0,-5.81281,-4.00954,88.9482
2023-03-11 17:43:48:341,0,-5.81407,-4.00865,88.9407
2023-03-11 17:43:48:351,0,-5.81551,-4.00783,88.9325
2023-03-11 17:43:48:361,0,-5.81597,-4.00522,88.9203
2023-03-11 17:43:48:371,0,-5.81862,-3.9985,88.9108
2023-03-11 17:43:48:381,0,-5.81486,-3.99285,88.9039
2023-03-11 17:43:48:391,0,-5.81275,-3.99058,88.8975
2023-03-11 17:43:48:401,0,-5.81023,-3.98406,88.8927
2023-03-11 17:43:48:411,0,-5.80992,-3.9761,88.89
2023-03-11 17:43:48:421,0,-5.80823,-3.97192,88.8863
2023-03-11 17:43:48:431,0,-5.80539,-3.96562,88.8833
2023-03-11 17:43:48:441,0,-5.80158,-3.95833,88.8835
2023-03-11 17:43:48:451,0,-5.79823,-3.94957,88.8825
2023-03-11 17:43:48:461,0,-5.791,-3.93823,88.8813
2023-03-11 17:43:48:471,0,-5.78653,-3.93092,88.886
2023-03-11 17:43:48:481,0,-5.78378,-3.92014,88.8871
2023-03-11 17:43:48:491,0,-5.78338,-3.91098,88.891
2023-03-11 17:43:48:501,0,-5.78317,-3.90518,88.8925
2023-03-11 17:43:48:511,0,-5.78371,-3.89461,88.8888
2023-03-11 17:43:48:521,0,-5.78558,-3.88667,88.8858
2023-03-11 17:43:48:531,0,-5.78246,-3.8777,88.884
2023-03-11 17:43:48:541,0,-5.77449,-3.86539,88.8798
2023-03-11 17:43:48:551,0,-5.76645,-3.85335,88.8766
2023-03-11 17:43:48:561,0,-5.75597,-3.84539,88.8702
2023-03-11 17:43:48:571,0,-5.75185,-3.83574,88.8669
2023-03-11 17:43:48:581,0,-5.74836,-3.82566,88.8596
2023-03-11 17:43:48:591,0,-5.74562,-3.81343,88.8499
2023-03-11 17:43:48:601,0,-5.74314,-3.80055,88.8454
2023-03-11 17:43:48:611,0,-5.73914,-3.79514,88.8413
2023-03-11 17:43:48:621,0,-5.73823,-3.79097,88.8365
2023-03-11 17:43:48:631,0,-5.7391,-3.78888,88.835
2023-03-11 17:43:48:641,0,-5.73843,-3.78606,88.8334
2023-03-11 17:43:48:651,0,-5.73855,-3.78379,88.8349
2023-03-11 17:43:48:661,0,-5.73777,-3.78341,88.8378
2023-03-11 17:43:48:671,0,-5.74028,-3.78182,88.8407
2023-03-11 17:43:48:681,0,-5.73858,-3.77888,88.8414
2023-03-11 17:43:48:691,0,-5.73615,-3.77558,88.8443
2023-03-11 17:43:48:701,0,-5.73841,-3.76899,88.8493
2023-03-11 17:43:48:711,0,-5.74074,-3.7635,88.8509
2023-03-11 17:43:48:721,0,-5.74696,-3.75929,88.8527
2023-03-11 17:43:48:731,0,-5.75557,-3.7512,88.8537
2023-03-11 17:43:48:741,0,-5.76452,-3.74553,88.852
2023-03-11 17:43:48:751,0,-5.76995,-3.73766,88.8483
2023-03-11 17:43:48:761,0,-5.77842,-3.73069,88.8479
2023-03-11 17:43:48:771,0,-5.7863,-3.71885,88.8395
2023-03-11 17:43:48:781,0,-5.79381,-3.70793,88.8324
2023-03-11 17:43:48:791,0,-5.80062,-3.69914,88.8255
2023-03-11 17:43:48:801,0,-5.80599,-3.68716,88.8164
2023-03-11 17:43:48:811,0,-5.81965,-3.67186,88.8079
2023-03-11 17:43:48:821,0,-5.83314,-3.65506,88.7981
2023-03-11 17:43:48:831,0,-5.84168,-3.64153,88.7884
2023-03-11 17:43:48:841,0,-5.84618,-3.63115,88.7769
2023-03-11 17:43:48:851,0,-5.85127,-3.62021,88.7685
2023-03-11 17:43:48:861,0,-5.85603,-3.61372,88.7662
2023-03-11 17:43:48:871,0,-5.86007,-3.6039,88.7626
2023-03-11 17:43:48:881,0,-5.86479,-3.59507,88.7621
2023-03-11 17:43:48:891,0,-5.86939,-3.58525,88.7575
2023-03-11 17:43:48:901,0,-5.87258,-3.57582,88.7557
2023-03-11 17:43:48:911,0,-5.87364,-3.56424,88.7526
2023-03-11 17:43:48:921,0,-5.87767,-3.55345,88.7482
2023-03-11 17:43:48:931,0,-5.88383,-3.54497,88.7439
2023-03-11 17:43:48:941,0,-5.89109,-3.53827,88.7373
2023-03-11 17:43:48:951,0,-5.89467,-3.53314,88.7289
2023-03-11 17:43:48:961,0,-5.89673,-3.52644,88.724
2023-03-11 17:43:48:971,0,-5.89998,-3.5203,88.7189
2023-03-11 17:43:48:981,0,-5.90257,-3.51728,88.7132
2023-03-11 17:43:48:991,0,-5.90427,-3.5144,88.7094
2023-03-11 17:43:49:1,0,-5.90562,-3.50996,88.7083
2023-03-11 17:43:49:11,0,-5.90874,-3.51013,88.709
2023-03-11 17:43:49:21,0,-5.91745,-3.51079,88.7135
2023-03-11 17:43:49:31,0,-5.92626,-3.50934,88.7191
2023-03-11 17:43:49:41,0,-5.93359,-3.50671,88.7265
2023-03-11 17:43:49:51,0,-5.94338,-3.50389,88.738
2023-03-11 17:43:49:61,0,-5.94627,-3.49886,88.7491
2023-03-11 17:43:49:71,0,-5.94563,-3.49108,88.7576
2023-03-11 17:43:49:81,0,-5.94487,-3.47815,88.7727
2023-03-11 17:43:49:91,0,-5.9401,-3.46787,88.789
2023-03-11 17:43:49:101,0,-5.9402,-3.45607,88.7994
2023-03-11 17:43:49:111,0,-5.94158,-3.44016,88.8107
2023-03-11 17:43:49:121,0,-5.94603,-3.42384,88.8251
2023-03-11 17:43:49:131,0,-5.95275,-3.40717,88.8373
2023-03-11 17:43:49:141,0,-5.96399,-3.39025,88.8507
2023-03-11 17:43:49:151,0,-5.97261,-3.37198,88.8604
2023-03-11 17:43:49:161,0,-5.97931,-3.34979,88.868
2023-03-11 17:43:49:171,0,-5.98829,-3.33113,88.8689
2023-03-11 17:43:49:181,0,-5.99182,-3.30906,88.8682
2023-03-11 17:43:49:191,0,-5.99645,-3.28912,88.8709
2023-03-11 17:43:49:201,0,-5.99664,-3.26895,88.8708
2023-03-11 17:43:49:211,0,-5.99283,-3.24954,88.8665
2023-03-11 17:43:49:220,0,-5.98914,-3.2321,88.8619
2023-03-11 17:43:49:231,0,-5.98616,-3.21181,88.8553
2023-03-11 17:43:49:241,0,-5.9856,-3.19362,88.8498
2023-03-11 17:43:49:251,0,-5.98714,-3.17596,88.8406
2023-03-11 17:43:49:261,0,-5.98921,-3.15725,88.8302
2023-03-11 17:43:49:271,0,-5.99596,-3.13743,88.8192
2023-03-11 17:43:49:281,0,-6.00011,-3.11999,88.8096
2023-03-11 17:43:49:291,0,-6.00395,-3.10279,88.7984
2023-03-11 17:43:49:301,0,-6.00766,-3.08397,88.7859
2023-03-11 17:43:49:311,0,-6.00877,-3.06443,88.7738
2023-03-11 17:43:49:321,0,-6.01253,-3.04709,88.7646
2023-03-11 17:43:49:331,0,-6.01789,-3.03051,88.7592
2023-03-11 17:43:49:341,0,-6.02638,-3.01204,88.7534
2023-03-11 17:43:49:351,0,-6.03755,-2.99631,88.7499
2023-03-11 17:43:49:361,0,-6.05175,-2.97998,88.7447
2023-03-11 17:43:49:371,0,-6.06212,-2.96051,88.741
2023-03-11 17:43:49:381,0,-6.06932,-2.94257,88.7375
2023-03-11 17:43:49:391,0,-6.07934,-2.92397,88.7339
2023-03-11 17:43:49:401,0,-6.09011,-2.90647,88.7307
2023-03-11 17:43:49:411,0,-6.0987,-2.88962,88.725
2023-03-11 17:43:49:421,0,-6.10475,-2.87603,88.7232
2023-03-11 17:43:49:431,0,-6.11803,-2.86132,88.7209
2023-03-11 17:43:49:441,0,-6.1304,-2.84184,88.7161
2023-03-11 17:43:49:451,0,-6.14077,-2.82966,88.7118
2023-03-11 17:43:49:461,0,-6.14764,-2.81798,88.7083
2023-03-11 17:43:49:471,0,-6.14815,-2.81253,88.7145
2023-03-11 17:43:49:481,0,-6.14639,-2.81106,88.7193
2023-03-11 17:43:49:491,0,-6.14654,-2.80781,88.7285
2023-03-11 17:43:49:501,0,-6.14998,-2.80291,88.7422
2023-03-11 17:43:49:511,0,-6.15468,-2.79483,88.7552
2023-03-11 17:43:49:521,0,-6.16022,-2.78736,88.7726
2023-03-11 17:43:49:531,0,-6.16803,-2.78082,88.7939
2023-03-11 17:43:49:541,0,-6.17865,-2.77733,88.8145
2023-03-11 17:43:49:551,0,-6.19267,-2.77789,88.8406
2023-03-11 17:43:49:561,0,-6.20565,-2.77312,88.8652
2023-03-11 17:43:49:571,0,-6.21803,-2.77013,88.8886
2023-03-11 17:43:49:581,0,-6.23011,-2.76481,88.9114
2023-03-11 17:43:49:591,0,-6.2432,-2.75981,88.9318
2023-03-11 17:43:49:601,0,-6.25671,-2.75544,88.952
2023-03-11 17:43:49:611,0,-6.2729,-2.75241,88.9683
2023-03-11 17:43:49:621,0,-6.29168,-2.7473,88.9853
2023-03-11 17:43:49:631,0,-6.31217,-2.74095,88.9949
2023-03-11 17:43:49:641,0,-6.33594,-2.73259,88.9915
2023-03-11 17:43:49:651,0,-6.35801,-2.72335,88.9928
2023-03-11 17:43:49:661,0,-6.38412,-2.71279,88.99
2023-03-11 17:43:49:671,0,-6.40817,-2.70263,88.9808
2023-03-11 17:43:49:681,0,-6.43153,-2.69061,88.9675
2023-03-11 17:43:49:691,0,-6.45004,-2.67416,88.9501
2023-03-11 17:43:49:701,0,-6.46742,-2.66105,88.9314
2023-03-11 17:43:49:711,0,-6.48922,-2.65645,88.914
2023-03-11 17:43:49:721,0,-6.5177,-2.65396,88.8984
2023-03-11 17:43:49:730,0,-6.54332,-2.64596,88.8847
2023-03-11 17:43:49:741,0,-6.56305,-2.63683,88.8772
2023-03-11 17:43:49:751,0,-6.57605,-2.62557,88.867
2023-03-11 17:43:49:761,0,-6.58754,-2.61458,88.8579
2023-03-11 17:43:49:771,0,-6.60181,-2.5999,88.8483
2023-03-11 17:43:49:781,0,-6.61635,-2.5853,88.8404
2023-03-11 17:43:49:791,0,-6.62918,-2.5729,88.8308
2023-03-11 17:43:49:801,0,-6.63999,-2.56272,88.8241
2023-03-11 17:43:49:811,0,-6.65559,-2.55587,88.8187
2023-03-11 17:43:49:821,0,-6.6716,-2.54987,88.8129
2023-03-11 17:43:49:831,0,-6.68124,-2.54772,88.8043
2023-03-11 17:43:49:841,0,-6.69088,-2.54749,88.7977
2023-03-11 17:43:49:851,0,-6.70108,-2.54659,88.7923
2023-03-11 17:43:49:861,0,-6.70541,-2.54189,88.7902
2023-03-11 17:43:49:871,0,-6.70912,-2.53603,88.7878
2023-03-11 17:43:49:881,0,-6.71417,-2.53635,88.7905
2023-03-11 17:43:49:891,0,-6.72485,-2.53623,88.7919
2023-03-11 17:43:49:901,0,-6.7356,-2.5387,88.7942
2023-03-11 17:43:49:911,0,-6.74812,-2.54186,88.8016
2023-03-11 17:43:49:921,0,-6.76162,-2.54065,88.8028
2023-03-11 17:43:49:931,0,-6.77875,-2.53729,88.8045
2023-03-11 17:43:49:941,0,-6.79331,-2.53645,88.8051
2023-03-11 17:43:49:951,0,-6.81276,-2.53392,88.8076
2023-03-11 17:43:49:961,0,-6.83235,-2.53026,88.804
2023-03-11 17:43:49:971,0,-6.84943,-2.52691,88.8014
2023-03-11 17:43:49:981,0,-6.8695,-2.52411,88.7941
2023-03-11 17:43:49:991,0,-6.89299,-2.51603,88.7889
2023-03-11 17:43:50:1,0,-6.9161,-2.50855,88.7869
2023-03-11 17:43:50:11,0,-6.94198,-2.50217,88.7821
2023-03-11 17:43:50:21,0,-6.96947,-2.49202,88.7739
2023-03-11 17:43:50:31,0,-6.9963,-2.47994,88.7706
2023-03-11 17:43:50:41,0,-7.01921,-2.46905,88.7719
2023-03-11 17:43:50:51,0,-7.0399,-2.46113,88.7693
2023-03-11 17:43:50:61,0,-7.05888,-2.45103,88.7677
2023-03-11 17:43:50:71,0,-7.07337,-2.43613,88.7664
2023-03-11 17:43:50:81,0,-7.07969,-2.42137,88.7633
2023-03-11 17:43:50:91,0,-7.08271,-2.40283,88.7595
2023-03-11 17:43:50:101,0,-7.08264,-2.38465,88.7584
2023-03-11 17:43:50:111,0,-7.08028,-2.36761,88.7562
2023-03-11 17:43:50:121,0,-7.07987,-2.35144,88.7549
2023-03-11 17:43:50:131,0,-7.07829,-2.32845,88.753
2023-03-11 17:43:50:141,0,-7.07035,-2.30387,88.7518
2023-03-11 17:43:50:151,0,-7.05835,-2.28047,88.7457
2023-03-11 17:43:50:161,0,-7.04311,-2.25977,88.7381
2023-03-11 17:43:50:171,0,-7.02764,-2.23962,88.7326
2023-03-11 17:43:50:181,0,-7.00983,-2.22019,88.7268
2023-03-11 17:43:50:191,0,-6.99199,-2.20502,88.7198
2023-03-11 17:43:50:201,0,-6.97206,-2.19444,88.7132
2023-03-11 17:43:50:211,0,-6.95901,-2.18662,88.707
2023-03-11 17:43:50:221,0,-6.95173,-2.17607,88.7
2023-03-11 17:43:50:231,0,-6.94543,-2.1665,88.6884
2023-03-11 17:43:50:241,0,-6.94413,-2.15613,88.6804
2023-03-11 17:43:50:251,0,-6.94465,-2.1463,88.6708
2023-03-11 17:43:50:261,0,-6.9413,-2.13529,88.6588
2023-03-11 17:43:50:271,0,-6.93793,-2.12457,88.6487
2023-03-11 17:43:50:281,0,-6.93888,-2.1125,88.6376
2023-03-11 17:43:50:291,0,-6.93606,-2.09989,88.6278
2023-03-11 17:43:50:301,0,-6.9373,-2.08746,88.6195
2023-03-11 17:43:50:311,0,-6.93855,-2.07348,88.6127
2023-03-11 17:43:50:321,0,-6.94413,-2.06115,88.6079
2023-03-11 17:43:50:331,0,-6.94785,-2.05254,88.6073
2023-03-11 17:43:50:341,0,-6.95051,-2.04911,88.6033
2023-03-11 17:43:50:351,0,-6.95117,-2.04693,88.6046
2023-03-11 17:43:50:361,0,-6.95469,-2.04886,88.6054
2023-03-11 17:43:50:371,0,-6.96099,-2.054,88.602
2023-03-11 17:43:50:381,0,-6.96923,-2.05625,88.6007
2023-03-11 17:43:50:391,0,-6.97884,-2.05591,88.6009
2023-03-11 17:43:50:401,0,-6.98477,-2.05781,88.6047
2023-03-11 17:43:50:411,0,-6.99575,-2.05692,88.6095
2023-03-11 17:43:50:421,0,-7.00292,-2.05817,88.6186
2023-03-11 17:43:50:431,0,-7.01251,-2.0582,88.6235
2023-03-11 17:43:50:441,0,-7.02087,-2.05713,88.6354
2023-03-11 17:43:50:451,0,-7.02833,-2.05952,88.6466
2023-03-11 17:43:50:461,0,-7.03351,-2.05914,88.6555
2023-03-11 17:43:50:471,0,-7.03319,-2.05658,88.6693
2023-03-11 17:43:50:481,0,-7.03596,-2.05334,88.6789
2023-03-11 17:43:50:491,0,-7.04102,-2.05148,88.6832
2023-03-11 17:43:50:501,0,-7.04356,-2.04599,88.6826
2023-03-11 17:43:50:511,0,-7.0499,-2.04042,88.6792
2023-03-11 17:43:50:521,0,-7.0541,-2.0338,88.6646
2023-03-11 17:43:50:531,0,-7.05615,-2.02608,88.6494
2023-03-11 17:43:50:541,0,-7.05786,-2.02012,88.6299
2023-03-11 17:43:50:551,0,-7.06154,-2.00928,88.6038
2023-03-11 17:43:50:561,0,-7.06436,-1.99261,88.5743
2023-03-11 17:43:50:571,0,-7.06519,-1.97273,88.5432
2023-03-11 17:43:50:581,0,-7.0629,-1.95923,88.515
2023-03-11 17:43:50:591,0,-7.06226,-1.94258,88.4902
2023-03-11 17:43:50:601,0,-7.06124,-1.93008,88.4704
2023-03-11 17:43:50:611,0,-7.06087,-1.91779,88.4547
2023-03-11 17:43:50:621,0,-7.05502,-1.91001,88.4447
2023-03-11 17:43:50:631,0,-7.03817,-1.90594,88.4398
2023-03-11 17:43:50:641,0,-7.01252,-1.90932,88.4375
2023-03-11 17:43:50:651,0,-6.97904,-1.91294,88.4368
2023-03-11 17:43:50:661,0,-6.94332,-1.92026,88.4352
2023-03-11 17:43:50:671,0,-6.91408,-1.92842,88.4332
2023-03-11 17:43:50:681,0,-6.89381,-1.93777,88.4281
2023-03-11 17:43:50:691,0,-6.88502,-1.95085,88.4238
2023-03-11 17:43:50:701,0,-6.88669,-1.96549,88.4175
2023-03-11 17:43:50:711,0,-6.89273,-1.9825,88.4125
2023-03-11 17:43:50:721,0,-6.90352,-2.00009,88.4082
2023-03-11 17:43:50:731,0,-6.9202,-2.0158,88.4078
2023-03-11 17:43:50:741,0,-6.93408,-2.03942,88.4076
2023-03-11 17:43:50:751,0,-6.94439,-2.06055,88.4069
2023-03-11 17:43:50:761,0,-6.95036,-2.08158,88.4059
2023-03-11 17:43:50:771,0,-6.96062,-2.10356,88.4094
2023-03-11 17:43:50:781,0,-6.96801,-2.11818,88.4182
2023-03-11 17:43:50:791,0,-6.97626,-2.13236,88.4277
2023-03-11 17:43:50:801,0,-6.98869,-2.14821,88.4332
2023-03-11 17:43:50:811,0,-7.00507,-2.15643,88.4406
2023-03-11 17:43:50:821,0,-7.02452,-2.16567,88.4413
2023-03-11 17:43:50:831,0,-7.04466,-2.17718,88.4472
2023-03-11 17:43:50:841,0,-7.06611,-2.18469,88.4498
2023-03-11 17:43:50:851,0,-7.08917,-2.19054,88.4505
2023-03-11 17:43:50:861,0,-7.10456,-2.19064,88.4475
2023-03-11 17:43:50:871,0,-7.1221,-2.1967,88.4459
2023-03-11 17:43:50:881,0,-7.13894,-2.19798,88.4419
2023-03-11 17:43:50:891,0,-7.15193,-2.19923,88.4367
2023-03-11 17:43:50:901,0,-7.1672,-2.1951,88.4324
2023-03-11 17:43:50:911,0,-7.17845,-2.19128,88.4276
2023-03-11 17:43:50:921,0,-7.19079,-2.18603,88.421
2023-03-11 17:43:50:931,0,-7.2024,-2.1762,88.4176
2023-03-11 17:43:50:941,0,-7.21224,-2.1702,88.4111
2023-03-11 17:43:50:951,0,-7.2205,-2.16389,88.4028
2023-03-11 17:43:50:961,0,-7.2288,-2.15605,88.3938
2023-03-11 17:43:50:971,0,-7.23786,-2.15088,88.3863
2023-03-11 17:43:50:981,0,-7.24388,-2.149,88.3821
2023-03-11 17:43:50:991,0,-7.24981,-2.14809,88.3761
2023-03-11 17:43:51:1,0,-7.25151,-2.14519,88.3717
2023-03-11 17:43:51:11,0,-7.24934,-2.14524,88.3679
2023-03-11 17:43:51:21,0,-7.24564,-2.14536,88.3596
2023-03-11 17:43:51:31,0,-7.23581,-2.14429,88.3549
2023-03-11 17:43:51:41,0,-7.22928,-2.14458,88.3492
2023-03-11 17:43:51:51,0,-7.22306,-2.14401,88.3465
2023-03-11 17:43:51:61,0,-7.21938,-2.14528,88.3493
2023-03-11 17:43:51:71,0,-7.21734,-2.14173,88.3493
2023-03-11 17:43:51:81,0,-7.21401,-2.13822,88.3487
2023-03-11 17:43:51:91,0,-7.21052,-2.13891,88.3467
2023-03-11 17:43:51:101,0,-7.20679,-2.13911,88.3462
2023-03-11 17:43:51:111,0,-7.19238,-2.13669,88.35
2023-03-11 17:43:51:121,0,-7.17645,-2.13418,88.352
2023-03-11 17:43:51:131,0,-7.15593,-2.13305,88.3509
2023-03-11 17:43:51:141,0,-7.14196,-2.131,88.3514
2023-03-11 17:43:51:151,0,-7.13348,-2.13096,88.3502
2023-03-11 17:43:51:161,0,-7.13061,-2.13085,88.3449
2023-03-11 17:43:51:171,0,-7.12104,-2.1355,88.3417
2023-03-11 17:43:51:181,0,-7.11033,-2.13833,88.335
2023-03-11 17:43:51:190,0,-7.10705,-2.14341,88.3345
2023-03-11 17:43:51:200,0,-7.10307,-2.14708,88.333
2023-03-11 17:43:51:210,0,-7.10234,-2.15542,88.3312
2023-03-11 17:43:51:221,0,-7.10023,-2.16144,88.3308
2023-03-11 17:43:51:231,0,-7.09835,-2.16435,88.3261
2023-03-11 17:43:51:240,0,-7.09904,-2.1682,88.3273
2023-03-11 17:43:51:251,0,-7.10234,-2.17531,88.3305
2023-03-11 17:43:51:261,0,-7.10964,-2.18282,88.3327
2023-03-11 17:43:51:271,0,-7.11932,-2.18881,88.3376
2023-03-11 17:43:51:280,0,-7.12959,-2.19491,88.3441
2023-03-11 17:43:51:291,0,-7.14277,-2.20122,88.3515
2023-03-11 17:43:51:301,0,-7.15566,-2.20212,88.3591
2023-03-11 17:43:51:310,0,-7.16543,-2.20564,88.3641
2023-03-11 17:43:51:321,0,-7.17472,-2.20695,88.3676
2023-03-11 17:43:51:331,0,-7.18493,-2.2062,88.3668
2023-03-11 17:43:51:341,0,-7.19681,-2.20465,88.3708
2023-03-11 17:43:51:351,0,-7.20674,-2.20254,88.3675
2023-03-11 17:43:51:361,0,-7.2126,-2.19487,88.3612
2023-03-11 17:43:51:371,0,-7.22122,-2.1883,88.3546
2023-03-11 17:43:51:381,0,-7.22619,-2.18819,88.3489
2023-03-11 17:43:51:391,0,-7.23606,-2.18165,88.3413
2023-03-11 17:43:51:401,0,-7.24791,-2.17517,88.3282
2023-03-11 17:43:51:411,0,-7.25404,-2.17296,88.3139
2023-03-11 17:43:51:421,0,-7.25841,-2.16991,88.3001
2023-03-11 17:43:51:431,0,-7.26014,-2.1669,88.2898
2023-03-11 17:43:51:441,0,-7.26183,-2.16821,88.2798
2023-03-11 17:43:51:451,0,-7.2622,-2.16731,88.2697
2023-03-11 17:43:51:461,0,-7.26139,-2.169,88.2641
2023-03-11 17:43:51:471,0,-7.25397,-2.16642,88.2583
2023-03-11 17:43:51:481,0,-7.24589,-2.16561,88.2561
2023-03-11 17:43:51:491,0,-7.23572,-2.16377,88.2534
2023-03-11 17:43:51:501,0,-7.22677,-2.16289,88.255
2023-03-11 17:43:51:511,0,-7.21625,-2.16262,88.2582
2023-03-11 17:43:51:521,0,-7.20616,-2.16501,88.26
2023-03-11 17:43:51:531,0,-7.19463,-2.16898,88.2637
2023-03-11 17:43:51:541,0,-7.18482,-2.17373,88.2715
2023-03-11 17:43:51:551,0,-7.1687,-2.17889,88.2768
2023-03-11 17:43:51:561,0,-7.15383,-2.18712,88.2815
2023-03-11 17:43:51:571,0,-7.14368,-2.19598,88.2861
2023-03-11 17:43:51:581,0,-7.13131,-2.20543,88.29
2023-03-11 17:43:51:591,0,-7.12544,-2.21939,88.2952
2023-03-11 17:43:51:601,0,-7.11926,-2.234,88.3024
2023-03-11 17:43:51:611,0,-7.1154,-2.24704,88.3112
2023-03-11 17:43:51:621,0,-7.11103,-2.25856,88.3199
2023-03-11 17:43:51:631,0,-7.10757,-2.26983,88.3299
2023-03-11 17:43:51:641,0,-7.10858,-2.28016,88.3383
2023-03-11 17:43:51:651,0,-7.11257,-2.28951,88.3491
2023-03-11 17:43:51:661,0,-7.11412,-2.29959,88.3556
2023-03-11 17:43:51:671,0,-7.11827,-2.30796,88.3651
2023-03-11 17:43:51:681,0,-7.11689,-2.31302,88.3749
2023-03-11 17:43:51:691,0,-7.11616,-2.32053,88.3813
2023-03-11 17:43:51:701,0,-7.12086,-2.32746,88.3859
2023-03-11 17:43:51:711,0,-7.12034,-2.33083,88.3887
2023-03-11 17:43:51:721,0,-7.1281,-2.33643,88.39
2023-03-11 17:43:51:731,0,-7.13037,-2.33944,88.3927
2023-03-11 17:43:51:741,0,-7.13388,-2.33787,88.3945
2023-03-11 17:43:51:751,0,-7.13544,-2.33586,88.3931
2023-03-11 17:43:51:761,0,-7.13475,-2.33461,88.3924
2023-03-11 17:43:51:771,0,-7.1326,-2.3308,88.3874
2023-03-11 17:43:51:785,0,-7.12663,-2.32272,88.3834
2023-03-11 17:43:51:791,0,-7.12392,-2.31453,88.3769
2023-03-11 17:43:51:801,0,-7.11698,-2.30673,88.3711
2023-03-11 17:43:51:811,0,-7.11148,-2.29798,88.366
2023-03-11 17:43:51:821,0,-7.10327,-2.29209,88.3593
2023-03-11 17:43:51:831,0,-7.09698,-2.28916,88.3523
2023-03-11 17:43:51:841,0,-7.08705,-2.28645,88.3476
2023-03-11 17:43:51:851,0,-7.08408,-2.28398,88.3423
2023-03-11 17:43:51:861,0,-7.07833,-2.27996,88.3399
2023-03-11 17:43:51:871,0,-7.07097,-2.27694,88.3384
2023-03-11 17:43:51:880,0,-7.06334,-2.274,88.3378
2023-03-11 17:43:51:891,0,-7.05711,-2.27198,88.337
2023-03-11 17:43:51:901,0,-7.0528,-2.27038,88.3379
2023-03-11 17:43:51:911,0,-7.04863,-2.26644,88.3388
2023-03-11 17:43:51:921,0,-7.04146,-2.26168,88.3403
2023-03-11 17:43:51:931,0,-7.03554,-2.25671,88.3419
2023-03-11 17:43:51:941,0,-7.02718,-2.25071,88.3463
2023-03-11 17:43:51:951,0,-7.0249,-2.2483,88.3498
2023-03-11 17:43:51:961,0,-7.02593,-2.24756,88.3519
2023-03-11 17:43:51:971,0,-7.02273,-2.24614,88.3551
2023-03-11 17:43:51:981,0,-7.02134,-2.24613,88.3573
2023-03-11 17:43:51:991,0,-7.01952,-2.24217,88.3605
2023-03-11 17:43:52:1,0,-7.01572,-2.23995,88.3636
2023-03-11 17:43:52:11,0,-7.01159,-2.24168,88.3686
2023-03-11 17:43:52:21,0,-7.00695,-2.2501,88.376
2023-03-11 17:43:52:31,0,-7.0003,-2.25853,88.3846
2023-03-11 17:43:52:41,0,-6.99977,-2.26622,88.3925
2023-03-11 17:43:52:51,0,-6.99737,-2.27367,88.4042
2023-03-11 17:43:52:61,0,-6.99771,-2.27689,88.417
2023-03-11 17:43:52:71,0,-7.0016,-2.28324,88.4289
2023-03-11 17:43:52:81,0,-7.00671,-2.28679,88.4443
2023-03-11 17:43:52:91,0,-7.01203,-2.28618,88.461
2023-03-11 17:43:52:101,0,-7.01424,-2.28613,88.4743
2023-03-11 17:43:52:111,0,-7.01986,-2.28533,88.4846
2023-03-11 17:43:52:121,0,-7.02593,-2.27783,88.4924
2023-03-11 17:43:52:131,0,-7.03057,-2.27325,88.5017
2023-03-11 17:43:52:141,0,-7.03992,-2.2668,88.5114
2023-03-11 17:43:52:151,0,-7.05125,-2.2549,88.5167
2023-03-11 17:43:52:161,0,-7.05858,-2.24538,88.5221
2023-03-11 17:43:52:171,0,-7.06782,-2.23272,88.5231
2023-03-11 17:43:52:181,0,-7.07231,-2.21638,88.5242
2023-03-11 17:43:52:191,0,-7.07933,-2.20554,88.5215
2023-03-11 17:43:52:201,0,-7.08014,-2.19061,88.5164
2023-03-11 17:43:52:211,0,-7.08152,-2.17525,88.5081
2023-03-11 17:43:52:221,0,-7.08719,-2.1561,88.5056
2023-03-11 17:43:52:231,0,-7.08734,-2.13642,88.497
2023-03-11 17:43:52:241,0,-7.08849,-2.11387,88.4857
2023-03-11 17:43:52:251,0,-7.08363,-2.09696,88.4759
2023-03-11 17:43:52:261,0,-7.08074,-2.08323,88.4716
2023-03-11 17:43:52:271,0,-7.0776,-2.06932,88.4656
2023-03-11 17:43:52:281,0,-7.07357,-2.05424,88.46
2023-03-11 17:43:52:291,0,-7.06865,-2.03896,88.456
2023-03-11 17:43:52:301,0,-7.05641,-2.02266,88.4538
2023-03-11 17:43:52:311,0,-7.04667,-2.00557,88.4537
2023-03-11 17:43:52:321,0,-7.03527,-1.98532,88.4529
2023-03-11 17:43:52:331,0,-7.0257,-1.96241,88.453
2023-03-11 17:43:52:341,0,-7.01793,-1.9411,88.4475
2023-03-11 17:43:52:350,0,-7.01087,-1.9236,88.443
2023-03-11 17:43:52:361,0,-7.00725,-1.90469,88.4344
2023-03-11 17:43:52:371,0,-7.0036,-1.887,88.4285
2023-03-11 17:43:52:381,0,-6.99788,-1.8703,88.4197
2023-03-11 17:43:52:391,0,-6.98855,-1.85465,88.4129
2023-03-11 17:43:52:401,0,-6.97884,-1.84136,88.4003
2023-03-11 17:43:52:411,0,-6.97128,-1.82598,88.3922
2023-03-11 17:43:52:421,0,-6.96423,-1.81658,88.3878
2023-03-11 17:43:52:431,0,-6.96158,-1.80525,88.3841
2023-03-11 17:43:52:441,0,-6.96385,-1.79044,88.3826
2023-03-11 17:43:52:451,0,-6.96754,-1.78158,88.3824
2023-03-11 17:43:52:461,0,-6.97066,-1.7683,88.385
2023-03-11 17:43:52:471,0,-6.98034,-1.75624,88.3867
2023-03-11 17:43:52:481,0,-6.98962,-1.74315,88.3915
2023-03-11 17:43:52:491,0,-6.99824,-1.73401,88.4001
2023-03-11 17:43:52:501,0,-7.0108,-1.72129,88.4101
2023-03-11 17:43:52:511,0,-7.01776,-1.70902,88.4209
2023-03-11 17:43:52:521,0,-7.02788,-1.698,88.4322
2023-03-11 17:43:52:531,0,-7.04209,-1.68603,88.4367
2023-03-11 17:43:52:541,0,-7.05472,-1.67277,88.4412
2023-03-11 17:43:52:551,0,-7.0656,-1.66425,88.4466
2023-03-11 17:43:52:561,0,-7.07582,-1.6566,88.4473
2023-03-11 17:43:52:571,0,-7.08886,-1.64757,88.4456
2023-03-11 17:43:52:581,0,-7.10018,-1.63926,88.4408
2023-03-11 17:43:52:591,0,-7.11211,-1.62808,88.4361
2023-03-11 17:43:52:601,0,-7.1227,-1.62256,88.4305
2023-03-11 17:43:52:611,0,-7.13598,-1.6132,88.4244
2023-03-11 17:43:52:621,0,-7.14546,-1.60836,88.4216
2023-03-11 17:43:52:631,0,-7.15071,-1.60035,88.4085
2023-03-11 17:43:52:641,0,-7.15783,-1.59053,88.3942
2023-03-11 17:43:52:651,0,-7.16395,-1.58088,88.384
2023-03-11 17:43:52:661,0,-7.16737,-1.57342,88.3729
2023-03-11 17:43:52:671,0,-7.16904,-1.56811,88.3616
2023-03-11 17:43:52:681,0,-7.17442,-1.56344,88.3511
2023-03-11 17:43:52:691,0,-7.17927,-1.55944,88.339
2023-03-11 17:43:52:701,0,-7.18859,-1.55366,88.329
2023-03-11 17:43:52:711,0,-7.19825,-1.55179,88.3224
2023-03-11 17:43:52:721,0,-7.2033,-1.5515,88.3189
2023-03-11 17:43:52:731,0,-7.20822,-1.54853,88.3125
2023-03-11 17:43:52:741,0,-7.21674,-1.54846,88.3081
2023-03-11 17:43:52:751,0,-7.22577,-1.54771,88.3042
2023-03-11 17:43:52:761,0,-7.233,-1.54699,88.304
2023-03-11 17:43:52:771,0,-7.23789,-1.54678,88.3021
2023-03-11 17:43:52:781,0,-7.24438,-1.54944,88.2991
2023-03-11 17:43:52:791,0,-7.24959,-1.55032,88.2984
2023-03-11 17:43:52:801,0,-7.25243,-1.55546,88.2985
2023-03-11 17:43:52:811,0,-7.25328,-1.55648,88.2928
2023-03-11 17:43:52:821,0,-7.25635,-1.55903,88.288
2023-03-11 17:43:52:831,0,-7.26295,-1.56364,88.2801
2023-03-11 17:43:52:841,0,-7.26552,-1.56911,88.2742
2023-03-11 17:43:52:851,0,-7.26472,-1.57702,88.2695
2023-03-11 17:43:52:861,0,-7.25822,-1.58879,88.2679
2023-03-11 17:43:52:871,0,-7.25363,-1.60011,88.264
2023-03-11 17:43:52:881,0,-7.252,-1.61386,88.2599
2023-03-11 17:43:52:891,0,-7.2487,-1.62823,88.2583
2023-03-11 17:43:52:901,0,-7.24702,-1.6403,88.2542
2023-03-11 17:43:52:911,0,-7.24274,-1.6504,88.249
2023-03-11 17:43:52:921,0,-7.24105,-1.6638,88.2472
2023-03-11 17:43:52:931,0,-7.23935,-1.67262,88.2414
2023-03-11 17:43:52:941,0,-7.24082,-1.68494,88.2404
2023-03-11 17:43:52:951,0,-7.23891,-1.69775,88.2378
2023-03-11 17:43:52:961,0,-7.23917,-1.71021,88.2354
2023-03-11 17:43:52:971,0,-7.23913,-1.7211,88.2343
2023-03-11 17:43:52:980,0,-7.24167,-1.72958,88.2332
2023-03-11 17:43:52:991,0,-7.24429,-1.73763,88.2323
2023-03-11 17:43:53:1,0,-7.24729,-1.74359,88.2283
2023-03-11 17:43:53:11,0,-7.25424,-1.74928,88.223
2023-03-11 17:43:53:21,0,-7.26127,-1.75194,88.2173
2023-03-11 17:43:53:31,0,-7.26566,-1.75218,88.2096
2023-03-11 17:43:53:41,0,-7.26109,-1.75376,88.2014
2023-03-11 17:43:53:51,0,-7.25737,-1.75756,88.1979
2023-03-11 17:43:53:61,0,-7.25541,-1.75978,88.1927
2023-03-11 17:43:53:71,0,-7.24951,-1.75752,88.1853
2023-03-11 17:43:53:81,0,-7.24633,-1.75656,88.1731
2023-03-11 17:43:53:91,0,-7.24081,-1.76463,88.1624
2023-03-11 17:43:53:101,0,-7.23313,-1.77208,88.154
2023-03-11 17:43:53:111,0,-7.22265,-1.78283,88.1447
2023-03-11 17:43:53:121,0,-7.21295,-1.79345,88.1416
2023-03-11 17:43:53:131,0,-7.20118,-1.7987,88.1389
2023-03-11 17:43:53:141,0,-7.18743,-1.80488,88.1363
2023-03-11 17:43:53:151,0,-7.1738,-1.80932,88.1359
2023-03-11 17:43:53:161,0,-7.15508,-1.81692,88.1366
2023-03-11 17:43:53:171,0,-7.14305,-1.82379,88.1395
2023-03-11 17:43:53:181,0,-7.1321,-1.82796,88.1429
2023-03-11 17:43:53:191,0,-7.12628,-1.83672,88.1416
