Timestamp_cmd,imu_cmd,roll_delta,pitch_delta,yaw_delta
2023-03-11 15:47:27:964,0,-14.498,-8.13811,95.5604
2023-03-11 15:47:27:972,0,-14.5057,-8.1203,95.552
2023-03-11 15:47:27:983,0,-14.5104,-8.10481,95.544
2023-03-11 15:47:27:993,0,-14.5174,-8.08589,95.5391
2023-03-11 15:47:28:3,0,-14.52,-8.0671,95.5319
2023-03-11 15:47:28:13,0,-14.5176,-8.04753,95.5245
2023-03-11 15:47:28:23,0,-14.5132,-8.03034,95.5178
2023-03-11 15:47:28:33,0,-14.5022,-8.01663,95.5104
2023-03-11 15:47:28:43,0,-14.4873,-7.99805,95.5023
2023-03-11 15:47:28:53,0,-14.4714,-7.9791,95.493
2023-03-11 15:47:28:62,0,-14.4546,-7.96135,95.482
2023-03-11 15:47:28:72,0,-14.4346,-7.9492,95.4698
2023-03-11 15:47:28:82,0,-14.418,-7.93895,95.4612
2023-03-11 15:47:28:92,0,-14.397,-7.92953,95.4532
2023-03-11 15:47:28:103,0,-14.3735,-7.9234,95.4439
2023-03-11 15:47:28:113,0,-14.3546,-7.92167,95.438
2023-03-11 15:47:28:123,0,-14.3367,-7.92278,95.4351
2023-03-11 15:47:28:133,0,-14.3198,-7.92893,95.4308
2023-03-11 15:47:28:143,0,-14.3012,-7.93814,95.4316
2023-03-11 15:47:28:153,0,-14.2845,-7.94633,95.4314
2023-03-11 15:47:28:163,0,-14.2714,-7.95865,95.4358
2023-03-11 15:47:28:173,0,-14.2636,-7.97289,95.4394
2023-03-11 15:47:28:183,0,-14.2582,-7.98143,95.4416
2023-03-11 15:47:28:193,0,-14.2571,-7.99113,95.4448
2023-03-11 15:47:28:203,0,-14.2587,-7.99673,95.4424
2023-03-11 15:47:28:213,0,-14.2615,-8.00679,95.4429
2023-03-11 15:47:28:223,0,-14.2683,-8.01559,95.4452
2023-03-11 15:47:28:233,0,-14.275,-8.02041,95.451
2023-03-11 15:47:28:243,0,-14.2856,-8.02467,95.4541
2023-03-11 15:47:28:253,0,-14.2959,-8.02862,95.4577
2023-03-11 15:47:28:263,0,-14.3048,-8.0313,95.4585
2023-03-11 15:47:28:273,0,-14.3187,-8.0324,95.4605
2023-03-11 15:47:28:283,0,-14.328,-8.02913,95.4636
2023-03-11 15:47:28:293,0,-14.3357,-8.02581,95.4594
2023-03-11 15:47:28:303,0,-14.3454,-8.01913,95.4542
2023-03-11 15:47:28:312,0,-14.3528,-8.01461,95.4506
2023-03-11 15:47:28:322,0,-14.3594,-8.0074,95.4479
2023-03-11 15:47:28:332,0,-14.3609,-7.99978,95.4402
2023-03-11 15:47:28:342,0,-14.3615,-7.98942,95.4284
2023-03-11 15:47:28:352,0,-14.3627,-7.98282,95.4161
2023-03-11 15:47:28:362,0,-14.3645,-7.97648,95.4034
2023-03-11 15:47:28:372,0,-14.3637,-7.96902,95.3924
2023-03-11 15:47:28:382,0,-14.3628,-7.96554,95.3828
2023-03-11 15:47:28:392,0,-14.3609,-7.9601,95.3742
2023-03-11 15:47:28:402,0,-14.3573,-7.95371,95.3669
2023-03-11 15:47:28:413,0,-14.3487,-7.95164,95.363
2023-03-11 15:47:28:423,0,-14.3377,-7.94105,95.3603
2023-03-11 15:47:28:433,0,-14.326,-7.93279,95.3604
2023-03-11 15:47:28:443,0,-14.3118,-7.92453,95.3571
2023-03-11 15:47:28:453,0,-14.3016,-7.91861,95.3619
2023-03-11 15:47:28:463,0,-14.2945,-7.91143,95.369
2023-03-11 15:47:28:473,0,-14.286,-7.89821,95.3727
2023-03-11 15:47:28:483,0,-14.2795,-7.88594,95.3776
2023-03-11 15:47:28:493,0,-14.2715,-7.87187,95.3772
2023-03-11 15:47:28:503,0,-14.2628,-7.85491,95.3768
2023-03-11 15:47:28:513,0,-14.2517,-7.83302,95.3748
2023-03-11 15:47:28:523,0,-14.2416,-7.81522,95.366
2023-03-11 15:47:28:533,0,-14.2363,-7.79703,95.3549
2023-03-11 15:47:28:543,0,-14.227,-7.78169,95.3404
2023-03-11 15:47:28:553,0,-14.2155,-7.76993,95.3229
2023-03-11 15:47:28:563,0,-14.204,-7.76161,95.3068
2023-03-11 15:47:28:573,0,-14.1972,-7.75922,95.2913
2023-03-11 15:47:28:583,0,-14.19,-7.76532,95.2826
2023-03-11 15:47:28:592,0,-14.1898,-7.77491,95.2811
2023-03-11 15:47:28:602,0,-14.1897,-7.78685,95.2814
2023-03-11 15:47:28:612,0,-14.1925,-7.79631,95.2905
2023-03-11 15:47:28:622,0,-14.1998,-7.81012,95.304
2023-03-11 15:47:28:632,0,-14.2032,-7.8217,95.3176
2023-03-11 15:47:28:642,0,-14.205,-7.83005,95.3339
2023-03-11 15:47:28:653,0,-14.2062,-7.83703,95.3494
2023-03-11 15:47:28:662,0,-14.2054,-7.83875,95.3609
2023-03-11 15:47:28:672,0,-14.2046,-7.84074,95.3688
2023-03-11 15:47:28:682,0,-14.2037,-7.84403,95.3716
2023-03-11 15:47:28:692,0,-14.2094,-7.84942,95.3716
2023-03-11 15:47:28:702,0,-14.2119,-7.85269,95.3693
2023-03-11 15:47:28:712,0,-14.2208,-7.85788,95.3674
2023-03-11 15:47:28:722,0,-14.2301,-7.86459,95.3611
2023-03-11 15:47:28:732,0,-14.2379,-7.87314,95.3527
2023-03-11 15:47:28:742,0,-14.2535,-7.88161,95.3456
2023-03-11 15:47:28:752,0,-14.262,-7.88469,95.3349
2023-03-11 15:47:28:762,0,-14.2759,-7.88456,95.3221
2023-03-11 15:47:28:772,0,-14.2853,-7.88201,95.3101
2023-03-11 15:47:28:782,0,-14.2891,-7.88573,95.2963
2023-03-11 15:47:28:792,0,-14.2977,-7.88669,95.2823
2023-03-11 15:47:28:802,0,-14.3,-7.88938,95.2706
2023-03-11 15:47:28:812,0,-14.3012,-7.89604,95.2604
2023-03-11 15:47:28:822,0,-14.3068,-7.9066,95.2554
2023-03-11 15:47:28:832,0,-14.3141,-7.91419,95.2574
2023-03-11 15:47:28:842,0,-14.3218,-7.92045,95.2585
2023-03-11 15:47:28:852,0,-14.3287,-7.93014,95.2653
2023-03-11 15:47:28:862,0,-14.3318,-7.93743,95.2726
2023-03-11 15:47:28:872,0,-14.3334,-7.94858,95.281
2023-03-11 15:47:28:882,0,-14.3379,-7.95765,95.2911
2023-03-11 15:47:28:893,0,-14.3449,-7.96885,95.3007
2023-03-11 15:47:28:902,0,-14.3506,-7.98439,95.3071
2023-03-11 15:47:28:913,0,-14.3561,-8.00089,95.3121
2023-03-11 15:47:28:922,0,-14.3611,-8.01638,95.3139
2023-03-11 15:47:28:933,0,-14.3705,-8.03726,95.3144
2023-03-11 15:47:28:943,0,-14.3846,-8.05167,95.3187
2023-03-11 15:47:28:953,0,-14.404,-8.07188,95.3213
2023-03-11 15:47:28:962,0,-14.4231,-8.0893,95.3251
2023-03-11 15:47:28:972,0,-14.4495,-8.10814,95.332
2023-03-11 15:47:28:982,0,-14.4822,-8.13145,95.3464
2023-03-11 15:47:28:992,0,-14.5198,-8.15597,95.3608
2023-03-11 15:47:29:2,0,-14.5617,-8.18416,95.3836
2023-03-11 15:47:29:13,0,-14.604,-8.2106,95.4046
2023-03-11 15:47:29:22,0,-14.6504,-8.23435,95.4179
2023-03-11 15:47:29:33,0,-14.7039,-8.25522,95.4339
2023-03-11 15:47:29:43,0,-14.7669,-8.27349,95.4446
2023-03-11 15:47:29:53,0,-14.8349,-8.28994,95.4532
2023-03-11 15:47:29:62,0,-14.9127,-8.31278,95.4673
2023-03-11 15:47:29:73,0,-14.9924,-8.3418,95.4785
2023-03-11 15:47:29:83,0,-15.0707,-8.37892,95.4955
2023-03-11 15:47:29:92,0,-15.1433,-8.42223,95.5163
2023-03-11 15:47:29:103,0,-15.2024,-8.47397,95.5474
2023-03-11 15:47:29:113,0,-15.2441,-8.51959,95.5817
2023-03-11 15:47:29:123,0,-15.274,-8.55656,95.6191
2023-03-11 15:47:29:133,0,-15.2939,-8.58102,95.6502
2023-03-11 15:47:29:143,0,-15.3137,-8.58981,95.6817
2023-03-11 15:47:29:153,0,-15.3371,-8.58026,95.7043
2023-03-11 15:47:29:163,0,-15.3664,-8.56341,95.7157
2023-03-11 15:47:29:173,0,-15.4018,-8.53697,95.7205
2023-03-11 15:47:29:183,0,-15.4452,-8.51812,95.724
2023-03-11 15:47:29:193,0,-15.5,-8.50478,95.7238
2023-03-11 15:47:29:203,0,-15.5728,-8.49527,95.7214
2023-03-11 15:47:29:213,0,-15.6579,-8.48688,95.7115
2023-03-11 15:47:29:223,0,-15.7585,-8.47488,95.7033
2023-03-11 15:47:29:233,0,-15.8764,-8.45768,95.6864
2023-03-11 15:47:29:242,0,-16.006,-8.44595,95.6701
2023-03-11 15:47:29:252,0,-16.1494,-8.43725,95.6571
2023-03-11 15:47:29:263,0,-16.2999,-8.43132,95.6482
2023-03-11 15:47:29:272,0,-16.4574,-8.42718,95.6417
2023-03-11 15:47:29:282,0,-16.6243,-8.42039,95.6312
2023-03-11 15:47:29:292,0,-16.7939,-8.4093,95.6213
2023-03-11 15:47:29:303,0,-16.9622,-8.39167,95.6059
2023-03-11 15:47:29:313,0,-17.1304,-8.3789,95.5811
2023-03-11 15:47:29:323,0,-17.2908,-8.36342,95.545
2023-03-11 15:47:29:333,0,-17.4383,-8.34772,95.4976
2023-03-11 15:47:29:343,0,-17.5805,-8.33395,95.4421
2023-03-11 15:47:29:353,0,-17.7181,-8.31584,95.3776
2023-03-11 15:47:29:363,0,-17.8536,-8.2983,95.3145
2023-03-11 15:47:29:373,0,-17.9894,-8.27549,95.2469
2023-03-11 15:47:29:383,0,-18.1284,-8.24796,95.1797
2023-03-11 15:47:29:393,0,-18.2619,-8.21701,95.0995
2023-03-11 15:47:29:403,0,-18.3824,-8.18295,94.9979
2023-03-11 15:47:29:413,0,-18.4972,-8.14816,94.8737
2023-03-11 15:47:29:423,0,-18.6062,-8.11628,94.7398
2023-03-11 15:47:29:433,0,-18.7203,-8.09626,94.6103
2023-03-11 15:47:29:443,0,-18.8413,-8.08039,94.4928
2023-03-11 15:47:29:453,0,-18.9697,-8.05963,94.3858
2023-03-11 15:47:29:463,0,-19.1147,-8.03224,94.2872
2023-03-11 15:47:29:473,0,-19.2638,-7.99293,94.1965
2023-03-11 15:47:29:483,0,-19.4107,-7.94589,94.1155
2023-03-11 15:47:29:493,0,-19.5511,-7.8846,94.0326
2023-03-11 15:47:29:503,0,-19.6886,-7.82146,93.9503
2023-03-11 15:47:29:513,0,-19.8111,-7.76137,93.8687
2023-03-11 15:47:29:523,0,-19.9236,-7.71038,93.7892
2023-03-11 15:47:29:533,0,-20.0391,-7.66578,93.7111
2023-03-11 15:47:29:543,0,-20.1559,-7.62585,93.6359
2023-03-11 15:47:29:553,0,-20.2813,-7.59256,93.5657
2023-03-11 15:47:29:563,0,-20.4172,-7.5673,93.5044
2023-03-11 15:47:29:573,0,-20.5581,-7.54516,93.4527
2023-03-11 15:47:29:583,0,-20.7023,-7.52939,93.4114
2023-03-11 15:47:29:593,0,-20.8504,-7.51389,93.3912
2023-03-11 15:47:29:603,0,-20.9982,-7.51226,93.3815
2023-03-11 15:47:29:613,0,-21.1424,-7.51241,93.3853
2023-03-11 15:47:29:623,0,-21.2787,-7.51008,93.4018
2023-03-11 15:47:29:633,0,-21.4125,-7.50154,93.4314
2023-03-11 15:47:29:643,0,-21.5464,-7.49191,93.469
2023-03-11 15:47:29:653,0,-21.6766,-7.4826,93.5165
2023-03-11 15:47:29:663,0,-21.7984,-7.46009,93.5626
2023-03-11 15:47:29:673,0,-21.9149,-7.43778,93.6107
2023-03-11 15:47:29:683,0,-22.0258,-7.41764,93.6593
2023-03-11 15:47:29:693,0,-22.1364,-7.4035,93.7095
2023-03-11 15:47:29:703,0,-22.2429,-7.39406,93.7612
2023-03-11 15:47:29:713,0,-22.3437,-7.38992,93.806
2023-03-11 15:47:29:723,0,-22.4312,-7.39015,93.8466
2023-03-11 15:47:29:733,0,-22.4983,-7.39866,93.8797
2023-03-11 15:47:29:743,0,-22.5488,-7.40764,93.9045
2023-03-11 15:47:29:753,0,-22.5861,-7.41672,93.9208
2023-03-11 15:47:29:763,0,-22.6159,-7.42495,93.9268
2023-03-11 15:47:29:773,0,-22.6419,-7.43628,93.9292
2023-03-11 15:47:29:783,0,-22.6664,-7.44933,93.9301
2023-03-11 15:47:29:793,0,-22.6959,-7.46335,93.9358
2023-03-11 15:47:29:803,0,-22.7276,-7.47849,93.9443
2023-03-11 15:47:29:813,0,-22.7549,-7.49602,93.9548
2023-03-11 15:47:29:823,0,-22.7678,-7.50693,93.9705
2023-03-11 15:47:29:833,0,-22.7644,-7.50975,93.9912
2023-03-11 15:47:29:843,0,-22.7499,-7.51413,94.0159
2023-03-11 15:47:29:853,0,-22.7246,-7.51573,94.0388
2023-03-11 15:47:29:863,0,-22.6944,-7.5169,94.0513
2023-03-11 15:47:29:873,0,-22.6577,-7.52097,94.0478
2023-03-11 15:47:29:883,0,-22.6159,-7.52709,94.0273
2023-03-11 15:47:29:893,0,-22.5653,-7.53091,93.9886
2023-03-11 15:47:29:903,0,-22.4993,-7.53846,93.935
2023-03-11 15:47:29:913,0,-22.4123,-7.54843,93.8705
2023-03-11 15:47:29:923,0,-22.3119,-7.55815,93.7999
2023-03-11 15:47:29:933,0,-22.2045,-7.55936,93.7241
2023-03-11 15:47:29:943,0,-22.0866,-7.55927,93.6451
2023-03-11 15:47:29:953,0,-21.967,-7.56284,93.5658
2023-03-11 15:47:29:963,0,-21.8444,-7.56751,93.4932
2023-03-11 15:47:29:973,0,-21.7163,-7.57452,93.4204
2023-03-11 15:47:29:983,0,-21.579,-7.58025,93.3503
2023-03-11 15:47:29:993,0,-21.4316,-7.58761,93.288
2023-03-11 15:47:30:3,0,-21.2742,-7.59413,93.2292
2023-03-11 15:47:30:13,0,-21.1072,-7.59447,93.1782
2023-03-11 15:47:30:23,0,-20.9342,-7.59078,93.1313
2023-03-11 15:47:30:33,0,-20.764,-7.59029,93.0981
2023-03-11 15:47:30:43,0,-20.5978,-7.59093,93.0739
2023-03-11 15:47:30:53,0,-20.4329,-7.59154,93.0567
2023-03-11 15:47:30:63,0,-20.2773,-7.59624,93.0456
2023-03-11 15:47:30:73,0,-20.1305,-7.59798,93.0334
2023-03-11 15:47:30:83,0,-19.9903,-7.60013,93.0269
2023-03-11 15:47:30:93,0,-19.8611,-7.6088,93.0259
2023-03-11 15:47:30:103,0,-19.7389,-7.61737,93.027
2023-03-11 15:47:30:113,0,-19.624,-7.62561,93.0295
2023-03-11 15:47:30:123,0,-19.5158,-7.63808,93.0337
2023-03-11 15:47:30:133,0,-19.4178,-7.64961,93.0385
2023-03-11 15:47:30:143,0,-19.3252,-7.65832,93.0426
2023-03-11 15:47:30:153,0,-19.2426,-7.67036,93.0502
2023-03-11 15:47:30:163,0,-19.1666,-7.68232,93.0618
2023-03-11 15:47:30:173,0,-19.0924,-7.69561,93.0758
2023-03-11 15:47:30:183,0,-19.0213,-7.71637,93.0901
2023-03-11 15:47:30:193,0,-18.9467,-7.73431,93.11
2023-03-11 15:47:30:203,0,-18.8756,-7.75006,93.1259
2023-03-11 15:47:30:213,0,-18.8016,-7.76682,93.1442
2023-03-11 15:47:30:223,0,-18.731,-7.78451,93.156
2023-03-11 15:47:30:233,0,-18.6678,-7.80389,93.1679
2023-03-11 15:47:30:243,0,-18.6171,-7.82376,93.1773
2023-03-11 15:47:30:253,0,-18.5754,-7.84614,93.1906
2023-03-11 15:47:30:263,0,-18.5472,-7.8714,93.2056
2023-03-11 15:47:30:273,0,-18.5209,-7.89555,93.2151
2023-03-11 15:47:30:283,0,-18.496,-7.91728,93.2282
2023-03-11 15:47:30:293,0,-18.4705,-7.93516,93.2364
2023-03-11 15:47:30:303,0,-18.446,-7.94259,93.2359
2023-03-11 15:47:30:313,0,-18.4198,-7.94549,93.2301
2023-03-11 15:47:30:323,0,-18.3929,-7.94631,93.2226
2023-03-11 15:47:30:333,0,-18.3648,-7.95067,93.2138
2023-03-11 15:47:30:343,0,-18.3403,-7.95304,93.1982
2023-03-11 15:47:30:353,0,-18.3187,-7.95559,93.1842
2023-03-11 15:47:30:363,0,-18.3012,-7.95662,93.1665
2023-03-11 15:47:30:373,0,-18.2798,-7.95515,93.1457
2023-03-11 15:47:30:382,0,-18.2582,-7.9504,93.1244
2023-03-11 15:47:30:392,0,-18.2329,-7.94232,93.1058
2023-03-11 15:47:30:403,0,-18.2037,-7.93247,93.0873
2023-03-11 15:47:30:413,0,-18.1753,-7.92137,93.0693
2023-03-11 15:47:30:423,0,-18.1452,-7.9056,93.0557
2023-03-11 15:47:30:433,0,-18.115,-7.89309,93.0429
2023-03-11 15:47:30:443,0,-18.0822,-7.879,93.033
2023-03-11 15:47:30:453,0,-18.0564,-7.86802,93.0209
2023-03-11 15:47:30:463,0,-18.036,-7.85519,93.0077
2023-03-11 15:47:30:473,0,-18.0182,-7.85153,92.9975
2023-03-11 15:47:30:483,0,-18.0035,-7.84932,92.9893
2023-03-11 15:47:30:493,0,-17.9863,-7.85088,92.9831
2023-03-11 15:47:30:503,0,-17.9686,-7.85542,92.977
2023-03-11 15:47:30:513,0,-17.9535,-7.87104,92.9762
2023-03-11 15:47:30:523,0,-17.9403,-7.88606,92.9737
2023-03-11 15:47:30:533,0,-17.9258,-7.90386,92.9757
2023-03-11 15:47:30:543,0,-17.9118,-7.92002,92.9783
2023-03-11 15:47:30:553,0,-17.9009,-7.93559,92.9759
2023-03-11 15:47:30:563,0,-17.8879,-7.95248,92.9747
2023-03-11 15:47:30:573,0,-17.8813,-7.97364,92.9679
2023-03-11 15:47:30:583,0,-17.8703,-7.9912,92.9549
2023-03-11 15:47:30:593,0,-17.8606,-8.01232,92.9285
2023-03-11 15:47:30:603,0,-17.8497,-8.02947,92.8936
2023-03-11 15:47:30:613,0,-17.841,-8.04314,92.852
2023-03-11 15:47:30:623,0,-17.8267,-8.05885,92.8079
2023-03-11 15:47:30:632,0,-17.8158,-8.07393,92.7595
2023-03-11 15:47:30:643,0,-17.8053,-8.08852,92.7126
2023-03-11 15:47:30:653,0,-17.7957,-8.10328,92.6739
2023-03-11 15:47:30:663,0,-17.7883,-8.12255,92.64
2023-03-11 15:47:30:673,0,-17.7792,-8.14131,92.6104
2023-03-11 15:47:30:683,0,-17.7727,-8.15848,92.5943
2023-03-11 15:47:30:693,0,-17.7642,-8.1782,92.5848
2023-03-11 15:47:30:703,0,-17.7556,-8.19413,92.5821
2023-03-11 15:47:30:713,0,-17.7505,-8.20769,92.5878
2023-03-11 15:47:30:723,0,-17.7436,-8.21924,92.6025
2023-03-11 15:47:30:733,0,-17.7359,-8.22792,92.6182
2023-03-11 15:47:30:743,0,-17.7247,-8.23806,92.6408
2023-03-11 15:47:30:754,0,-17.7112,-8.24132,92.6653
2023-03-11 15:47:30:762,0,-17.6984,-8.24637,92.6949
2023-03-11 15:47:30:773,0,-17.6803,-8.24989,92.7242
2023-03-11 15:47:30:783,0,-17.6618,-8.25009,92.7527
2023-03-11 15:47:30:793,0,-17.6449,-8.25021,92.7804
2023-03-11 15:47:30:803,0,-17.626,-8.24717,92.8076
2023-03-11 15:47:30:813,0,-17.606,-8.24118,92.8338
2023-03-11 15:47:30:823,0,-17.5903,-8.23488,92.854
2023-03-11 15:47:30:833,0,-17.5728,-8.22179,92.8694
2023-03-11 15:47:30:843,0,-17.5597,-8.20932,92.8873
2023-03-11 15:47:30:853,0,-17.5486,-8.19992,92.9114
2023-03-11 15:47:30:863,0,-17.5415,-8.19632,92.9384
2023-03-11 15:47:30:873,0,-17.535,-8.19115,92.9721
2023-03-11 15:47:30:883,0,-17.5277,-8.18529,93.0124
2023-03-11 15:47:30:893,0,-17.5263,-8.17642,93.0578
2023-03-11 15:47:30:903,0,-17.5319,-8.16278,93.1084
2023-03-11 15:47:30:913,0,-17.5417,-8.14274,93.1688
2023-03-11 15:47:30:923,0,-17.559,-8.12275,93.2288
2023-03-11 15:47:30:933,0,-17.5815,-8.09908,93.2918
2023-03-11 15:47:30:943,0,-17.6021,-8.07803,93.3565
2023-03-11 15:47:30:953,0,-17.6235,-8.05726,93.4194
2023-03-11 15:47:30:963,0,-17.6451,-8.03826,93.4776
2023-03-11 15:47:30:973,0,-17.6633,-8.02311,93.5302
2023-03-11 15:47:30:983,0,-17.6765,-8.01225,93.5713
2023-03-11 15:47:30:993,0,-17.6904,-8.00915,93.6108
2023-03-11 15:47:31:3,0,-17.6971,-8.01406,93.643
2023-03-11 15:47:31:12,0,-17.7031,-8.02482,93.6664
2023-03-11 15:47:31:22,0,-17.7067,-8.03847,93.6862
2023-03-11 15:47:31:32,0,-17.7072,-8.05424,93.6977
2023-03-11 15:47:31:42,0,-17.711,-8.06751,93.7095
2023-03-11 15:47:31:52,0,-17.7133,-8.0838,93.7088
2023-03-11 15:47:31:62,0,-17.7111,-8.0915,93.6966
2023-03-11 15:47:31:72,0,-17.6998,-8.0991,93.6784
2023-03-11 15:47:31:82,0,-17.6797,-8.10254,93.6544
2023-03-11 15:47:31:92,0,-17.6592,-8.10847,93.624
2023-03-11 15:47:31:102,0,-17.6333,-8.11376,93.597
2023-03-11 15:47:31:112,0,-17.6074,-8.11467,93.5674
2023-03-11 15:47:31:122,0,-17.579,-8.1124,93.5398
2023-03-11 15:47:31:132,0,-17.5481,-8.10575,93.5155
2023-03-11 15:47:31:142,0,-17.5171,-8.09656,93.4944
2023-03-11 15:47:31:152,0,-17.4837,-8.08265,93.4802
2023-03-11 15:47:31:162,0,-17.4516,-8.07198,93.4662
2023-03-11 15:47:31:172,0,-17.4278,-8.06215,93.4578
2023-03-11 15:47:31:182,0,-17.4082,-8.05169,93.4492
2023-03-11 15:47:31:192,0,-17.397,-8.04404,93.4419
2023-03-11 15:47:31:202,0,-17.3863,-8.03825,93.4374
2023-03-11 15:47:31:212,0,-17.3758,-8.03512,93.436
2023-03-11 15:47:31:222,0,-17.3675,-8.03,93.4418
2023-03-11 15:47:31:232,0,-17.3608,-8.02867,93.4527
2023-03-11 15:47:31:242,0,-17.3559,-8.02716,93.4674
2023-03-11 15:47:31:252,0,-17.3538,-8.02568,93.4868
2023-03-11 15:47:31:262,0,-17.3571,-8.0297,93.5087
2023-03-11 15:47:31:272,0,-17.3593,-8.03296,93.5383
2023-03-11 15:47:31:282,0,-17.3616,-8.03345,93.5694
2023-03-11 15:47:31:292,0,-17.3658,-8.03237,93.6011
2023-03-11 15:47:31:302,0,-17.3737,-8.032,93.6355
2023-03-11 15:47:31:312,0,-17.3807,-8.03337,93.6687
2023-03-11 15:47:31:322,0,-17.3854,-8.0323,93.6978
2023-03-11 15:47:31:332,0,-17.3931,-8.03118,93.725
2023-03-11 15:47:31:342,0,-17.3976,-8.0299,93.7491
2023-03-11 15:47:31:352,0,-17.3989,-8.02753,93.7677
2023-03-11 15:47:31:362,0,-17.4011,-8.02613,93.7823
2023-03-11 15:47:31:372,0,-17.3997,-8.02268,93.7912
2023-03-11 15:47:31:382,0,-17.3959,-8.01722,93.8005
2023-03-11 15:47:31:392,0,-17.3881,-8.00807,93.8008
2023-03-11 15:47:31:402,0,-17.3805,-8.00153,93.8005
2023-03-11 15:47:31:412,0,-17.3707,-7.99587,93.8019
2023-03-11 15:47:31:422,0,-17.3626,-7.99077,93.7986
2023-03-11 15:47:31:432,0,-17.35,-7.98758,93.7943
2023-03-11 15:47:31:442,0,-17.344,-7.98572,93.7947
2023-03-11 15:47:31:452,0,-17.3399,-7.98697,93.791
2023-03-11 15:47:31:462,0,-17.3337,-7.98903,93.793
2023-03-11 15:47:31:472,0,-17.3272,-7.99012,93.7992
2023-03-11 15:47:31:482,0,-17.3207,-7.99426,93.8074
2023-03-11 15:47:31:492,0,-17.317,-8.00177,93.819
2023-03-11 15:47:31:502,0,-17.3156,-8.00997,93.8293
2023-03-11 15:47:31:512,0,-17.3172,-8.0195,93.8416
2023-03-11 15:47:31:522,0,-17.3153,-8.02994,93.8535
2023-03-11 15:47:31:532,0,-17.3143,-8.03712,93.864
2023-03-11 15:47:31:542,0,-17.3122,-8.04428,93.875
2023-03-11 15:47:31:552,0,-17.3102,-8.04862,93.8833
2023-03-11 15:47:31:563,0,-17.3095,-8.05591,93.8889
2023-03-11 15:47:31:573,0,-17.3112,-8.06292,93.8923
2023-03-11 15:47:31:582,0,-17.3092,-8.06645,93.8939
2023-03-11 15:47:31:592,0,-17.3097,-8.06462,93.8897
2023-03-11 15:47:31:603,0,-17.3035,-8.06482,93.8796
2023-03-11 15:47:31:612,0,-17.2914,-8.06238,93.8676
2023-03-11 15:47:31:623,0,-17.2795,-8.06221,93.8565
2023-03-11 15:47:31:633,0,-17.269,-8.06276,93.8488
2023-03-11 15:47:31:643,0,-17.26,-8.06301,93.8393
2023-03-11 15:47:31:652,0,-17.2539,-8.06767,93.8329
2023-03-11 15:47:31:662,0,-17.2567,-8.07305,93.8268
2023-03-11 15:47:31:673,0,-17.2576,-8.07382,93.8216
2023-03-11 15:47:31:683,0,-17.2582,-8.07249,93.8194
2023-03-11 15:47:31:693,0,-17.2608,-8.06594,93.8195
2023-03-11 15:47:31:703,0,-17.257,-8.05315,93.8132
2023-03-11 15:47:31:713,0,-17.2528,-8.03878,93.8088
2023-03-11 15:47:31:723,0,-17.2453,-8.02492,93.8039
2023-03-11 15:47:31:733,0,-17.2403,-8.01347,93.7938
2023-03-11 15:47:31:743,0,-17.2396,-8.00201,93.7839
2023-03-11 15:47:31:753,0,-17.2451,-7.99263,93.7691
2023-03-11 15:47:31:763,0,-17.2523,-7.98478,93.7578
2023-03-11 15:47:31:773,0,-17.2623,-7.97726,93.743
2023-03-11 15:47:31:783,0,-17.2737,-7.96689,93.7271
2023-03-11 15:47:31:793,0,-17.2832,-7.95863,93.7111
2023-03-11 15:47:31:803,0,-17.2954,-7.95226,93.6963
2023-03-11 15:47:31:813,0,-17.3072,-7.9391,93.6872
2023-03-11 15:47:31:823,0,-17.3204,-7.92535,93.6752
2023-03-11 15:47:31:833,0,-17.3299,-7.91118,93.6628
2023-03-11 15:47:31:843,0,-17.3366,-7.89686,93.646
2023-03-11 15:47:31:853,0,-17.3426,-7.88417,93.6362
2023-03-11 15:47:31:863,0,-17.3461,-7.87208,93.6278
2023-03-11 15:47:31:873,0,-17.3485,-7.86399,93.6213
2023-03-11 15:47:31:883,0,-17.3533,-7.8613,93.6154
2023-03-11 15:47:31:893,0,-17.3606,-7.85348,93.614
2023-03-11 15:47:31:903,0,-17.3652,-7.84765,93.6133
2023-03-11 15:47:31:913,0,-17.3706,-7.84132,93.6098
2023-03-11 15:47:31:923,0,-17.3727,-7.8332,93.6076
2023-03-11 15:47:31:933,0,-17.3707,-7.8249,93.601
2023-03-11 15:47:31:943,0,-17.3649,-7.822,93.5957
2023-03-11 15:47:31:953,0,-17.3638,-7.82056,93.593
2023-03-11 15:47:31:963,0,-17.3623,-7.82456,93.5873
2023-03-11 15:47:31:973,0,-17.3585,-7.82459,93.5784
2023-03-11 15:47:31:983,0,-17.3581,-7.82624,93.5722
2023-03-11 15:47:31:993,0,-17.3592,-7.83046,93.5705
2023-03-11 15:47:32:3,0,-17.3627,-7.83803,93.5705
2023-03-11 15:47:32:13,0,-17.3627,-7.8429,93.5667
2023-03-11 15:47:32:23,0,-17.3635,-7.85113,93.5704
2023-03-11 15:47:32:33,0,-17.3647,-7.85754,93.5777
2023-03-11 15:47:32:43,0,-17.3642,-7.86253,93.5806
2023-03-11 15:47:32:53,0,-17.3615,-7.86988,93.5856
2023-03-11 15:47:32:63,0,-17.3546,-7.87366,93.5916
2023-03-11 15:47:32:73,0,-17.3475,-7.87683,93.5977
2023-03-11 15:47:32:83,0,-17.3395,-7.88077,93.5969
2023-03-11 15:47:32:92,0,-17.3314,-7.88589,93.599
2023-03-11 15:47:32:103,0,-17.3232,-7.88931,93.5996
2023-03-11 15:47:32:113,0,-17.3158,-7.88632,93.594
2023-03-11 15:47:32:123,0,-17.3071,-7.88514,93.5861
2023-03-11 15:47:32:133,0,-17.2983,-7.88003,93.578
2023-03-11 15:47:32:143,0,-17.2924,-7.8728,93.5741
2023-03-11 15:47:32:153,0,-17.2849,-7.86563,93.5659
2023-03-11 15:47:32:162,0,-17.2769,-7.85358,93.5557
2023-03-11 15:47:32:172,0,-17.2705,-7.84613,93.5511
2023-03-11 15:47:32:182,0,-17.2638,-7.83809,93.546
2023-03-11 15:47:32:193,0,-17.2636,-7.82983,93.5393
2023-03-11 15:47:32:203,0,-17.2627,-7.82378,93.5356
2023-03-11 15:47:32:213,0,-17.2644,-7.81745,93.5323
2023-03-11 15:47:32:222,0,-17.2679,-7.81647,93.5306
2023-03-11 15:47:32:232,0,-17.2734,-7.81063,93.5276
2023-03-11 15:47:32:242,0,-17.2807,-7.80843,93.528
2023-03-11 15:47:32:252,0,-17.2856,-7.80497,93.5249
2023-03-11 15:47:32:262,0,-17.2873,-7.80235,93.522
2023-03-11 15:47:32:273,0,-17.2867,-7.79908,93.5246
2023-03-11 15:47:32:283,0,-17.2865,-7.79519,93.5263
2023-03-11 15:47:32:292,0,-17.2838,-7.79537,93.5244
2023-03-11 15:47:32:302,0,-17.2823,-7.7926,93.5173
2023-03-11 15:47:32:312,0,-17.2816,-7.79061,93.5084
2023-03-11 15:47:32:323,0,-17.2839,-7.78431,93.497
2023-03-11 15:47:32:333,0,-17.2879,-7.77935,93.4829
2023-03-11 15:47:32:342,0,-17.2941,-7.77859,93.4703
2023-03-11 15:47:32:352,0,-17.2989,-7.7777,93.4593
2023-03-11 15:47:32:362,0,-17.3053,-7.78203,93.4547
2023-03-11 15:47:32:372,0,-17.3086,-7.7877,93.4511
2023-03-11 15:47:32:382,0,-17.3136,-7.79518,93.4551
2023-03-11 15:47:32:392,0,-17.3212,-7.80696,93.4623
2023-03-11 15:47:32:402,0,-17.3283,-7.82158,93.4722
2023-03-11 15:47:32:412,0,-17.3327,-7.83356,93.4843
2023-03-11 15:47:32:423,0,-17.339,-7.84319,93.4988
2023-03-11 15:47:32:433,0,-17.3447,-7.85212,93.513
2023-03-11 15:47:32:443,0,-17.3413,-7.86065,93.5237
2023-03-11 15:47:32:453,0,-17.3382,-7.86944,93.5366
2023-03-11 15:47:32:463,0,-17.3351,-7.87956,93.5459
2023-03-11 15:47:32:473,0,-17.336,-7.88676,93.5513
2023-03-11 15:47:32:483,0,-17.3381,-7.89329,93.5562
2023-03-11 15:47:32:493,0,-17.3475,-7.89788,93.5612
2023-03-11 15:47:32:503,0,-17.3612,-7.905,93.5637
2023-03-11 15:47:32:513,0,-17.372,-7.91027,93.5664
2023-03-11 15:47:32:523,0,-17.3837,-7.91474,93.567
2023-03-11 15:47:32:533,0,-17.3913,-7.92115,93.5656
2023-03-11 15:47:32:543,0,-17.3953,-7.92427,93.5661
2023-03-11 15:47:32:553,0,-17.4034,-7.92785,93.5688
2023-03-11 15:47:32:563,0,-17.4122,-7.92362,93.5727
2023-03-11 15:47:32:573,0,-17.4171,-7.91979,93.5788
2023-03-11 15:47:32:583,0,-17.4185,-7.91554,93.5837
2023-03-11 15:47:32:593,0,-17.4208,-7.91279,93.5927
2023-03-11 15:47:32:603,0,-17.4172,-7.91074,93.6074
2023-03-11 15:47:32:613,0,-17.409,-7.90906,93.6241
2023-03-11 15:47:32:623,0,-17.4046,-7.90608,93.6455
2023-03-11 15:47:32:633,0,-17.3952,-7.90433,93.6675
2023-03-11 15:47:32:643,0,-17.3914,-7.90271,93.6951
2023-03-11 15:47:32:653,0,-17.3877,-7.89836,93.7235
2023-03-11 15:47:32:663,0,-17.3835,-7.89855,93.7498
2023-03-11 15:47:32:673,0,-17.3792,-7.89883,93.7739
2023-03-11 15:47:32:683,0,-17.3783,-7.90107,93.794
2023-03-11 15:47:32:693,0,-17.3792,-7.9014,93.8093
2023-03-11 15:47:32:703,0,-17.381,-7.90501,93.816
2023-03-11 15:47:32:713,0,-17.379,-7.90703,93.8161
2023-03-11 15:47:32:723,0,-17.3784,-7.91104,93.8095
2023-03-11 15:47:32:733,0,-17.3778,-7.91637,93.8013
2023-03-11 15:47:32:743,0,-17.377,-7.92403,93.789
2023-03-11 15:47:32:753,0,-17.3753,-7.92958,93.7715
2023-03-11 15:47:32:763,0,-17.3722,-7.93782,93.7562
2023-03-11 15:47:32:773,0,-17.369,-7.94549,93.7385
2023-03-11 15:47:32:783,0,-17.373,-7.95246,93.7242
2023-03-11 15:47:32:793,0,-17.3749,-7.95913,93.7146
2023-03-11 15:47:32:803,0,-17.3724,-7.96271,93.7086
2023-03-11 15:47:32:813,0,-17.369,-7.97017,93.7063
2023-03-11 15:47:32:823,0,-17.3636,-7.97091,93.7082
2023-03-11 15:47:32:833,0,-17.3555,-7.97562,93.712
2023-03-11 15:47:32:843,0,-17.3476,-7.97967,93.7195
2023-03-11 15:47:32:853,0,-17.3384,-7.98495,93.7233
2023-03-11 15:47:32:863,0,-17.3296,-7.98439,93.729
2023-03-11 15:47:32:873,0,-17.321,-7.9887,93.7344
2023-03-11 15:47:32:883,0,-17.3121,-7.99065,93.7392
2023-03-11 15:47:32:893,0,-17.3014,-7.99201,93.7367
2023-03-11 15:47:32:903,0,-17.2935,-8.0005,93.7384
2023-03-11 15:47:32:913,0,-17.2862,-8.00913,93.7364
2023-03-11 15:47:32:923,0,-17.2797,-8.01844,93.7332
2023-03-11 15:47:32:933,0,-17.2702,-8.02888,93.7288
2023-03-11 15:47:32:943,0,-17.2592,-8.04404,93.7269
2023-03-11 15:47:32:953,0,-17.2508,-8.05697,93.7233
2023-03-11 15:47:32:963,0,-17.2424,-8.06423,93.7213
2023-03-11 15:47:32:973,0,-17.2331,-8.07048,93.7256
2023-03-11 15:47:32:983,0,-17.2198,-8.07836,93.7293
2023-03-11 15:47:32:993,0,-17.2085,-8.08591,93.736
2023-03-11 15:47:33:3,0,-17.1944,-8.09509,93.7448
2023-03-11 15:47:33:13,0,-17.1791,-8.10661,93.7563
2023-03-11 15:47:33:23,0,-17.1611,-8.1136,93.7703
2023-03-11 15:47:33:33,0,-17.1391,-8.11805,93.7883
2023-03-11 15:47:33:43,0,-17.1173,-8.1213,93.8049
2023-03-11 15:47:33:53,0,-17.0974,-8.12231,93.8208
2023-03-11 15:47:33:63,0,-17.0797,-8.11958,93.8385
2023-03-11 15:47:33:73,0,-17.0637,-8.11626,93.8514
2023-03-11 15:47:33:83,0,-17.0483,-8.11767,93.8642
2023-03-11 15:47:33:93,0,-17.0344,-8.11898,93.8702
2023-03-11 15:47:33:103,0,-17.0191,-8.12789,93.882
2023-03-11 15:47:33:113,0,-16.9984,-8.13942,93.8928
2023-03-11 15:47:33:123,0,-16.9821,-8.15589,93.9073
2023-03-11 15:47:33:133,0,-16.9692,-8.1745,93.9212
2023-03-11 15:47:33:143,0,-16.962,-8.19508,93.9348
2023-03-11 15:47:33:153,0,-16.9548,-8.21406,93.9466
2023-03-11 15:47:33:163,0,-16.9432,-8.23136,93.9625
2023-03-11 15:47:33:173,0,-16.9302,-8.24531,93.9776
2023-03-11 15:47:33:183,0,-16.9286,-8.25746,93.9931
2023-03-11 15:47:33:192,0,-16.9341,-8.27285,94.0035
2023-03-11 15:47:33:203,0,-16.9339,-8.28909,94.0098
2023-03-11 15:47:33:212,0,-16.9284,-8.30171,94.0173
2023-03-11 15:47:33:223,0,-16.9166,-8.31286,94.0211
2023-03-11 15:47:33:233,0,-16.9049,-8.32825,94.0222
2023-03-11 15:47:33:243,0,-16.8961,-8.3412,94.0217
2023-03-11 15:47:33:253,0,-16.8887,-8.35227,94.0202
2023-03-11 15:47:33:263,0,-16.8786,-8.36494,94.0215
2023-03-11 15:47:33:273,0,-16.8654,-8.37351,94.0216
2023-03-11 15:47:33:283,0,-16.8552,-8.3838,94.0242
2023-03-11 15:47:33:293,0,-16.8447,-8.3925,94.028
2023-03-11 15:47:33:303,0,-16.8347,-8.40305,94.0325
2023-03-11 15:47:33:313,0,-16.8214,-8.40994,94.0429
2023-03-11 15:47:33:323,0,-16.8045,-8.41805,94.0528
2023-03-11 15:47:33:333,0,-16.7894,-8.4283,94.0694
2023-03-11 15:47:33:343,0,-16.7743,-8.4381,94.088
2023-03-11 15:47:33:353,0,-16.7559,-8.44825,94.1098
2023-03-11 15:47:33:363,0,-16.739,-8.45863,94.1359
2023-03-11 15:47:33:373,0,-16.7239,-8.46938,94.1609
2023-03-11 15:47:33:383,0,-16.7015,-8.47956,94.1871
2023-03-11 15:47:33:393,0,-16.681,-8.48793,94.2153
2023-03-11 15:47:33:403,0,-16.6615,-8.49642,94.2465
2023-03-11 15:47:33:413,0,-16.6507,-8.50476,94.2808
2023-03-11 15:47:33:423,0,-16.6425,-8.51103,94.32
2023-03-11 15:47:33:433,0,-16.6344,-8.51947,94.3541
2023-03-11 15:47:33:443,0,-16.6276,-8.52507,94.3946
2023-03-11 15:47:33:453,0,-16.6202,-8.52989,94.4322
2023-03-11 15:47:33:463,0,-16.615,-8.53495,94.4735
2023-03-11 15:47:33:473,0,-16.6092,-8.53791,94.5145
2023-03-11 15:47:33:483,0,-16.608,-8.54468,94.5525
2023-03-11 15:47:33:493,0,-16.6077,-8.5465,94.593
2023-03-11 15:47:33:503,0,-16.6062,-8.54945,94.6306
2023-03-11 15:47:33:513,0,-16.6123,-8.5532,94.6624
2023-03-11 15:47:33:523,0,-16.6168,-8.55426,94.6932
2023-03-11 15:47:33:533,0,-16.6186,-8.55392,94.7228
2023-03-11 15:47:33:543,0,-16.623,-8.55513,94.7472
2023-03-11 15:47:33:553,0,-16.6244,-8.55522,94.7706
2023-03-11 15:47:33:563,0,-16.6187,-8.55371,94.7941
2023-03-11 15:47:33:573,0,-16.6159,-8.55216,94.8138
2023-03-11 15:47:33:583,0,-16.6097,-8.54545,94.829
2023-03-11 15:47:33:593,0,-16.6026,-8.53992,94.8457
2023-03-11 15:47:33:603,0,-16.5952,-8.53297,94.8602
2023-03-11 15:47:33:613,0,-16.5864,-8.52597,94.8724
2023-03-11 15:47:33:623,0,-16.5782,-8.51931,94.8825
2023-03-11 15:47:33:633,0,-16.5719,-8.51012,94.8912
2023-03-11 15:47:33:643,0,-16.5652,-8.50311,94.9004
2023-03-11 15:47:33:653,0,-16.5548,-8.49825,94.9071
2023-03-11 15:47:33:663,0,-16.5431,-8.49047,94.9113
2023-03-11 15:47:33:673,0,-16.5338,-8.48374,94.9159
2023-03-11 15:47:33:683,0,-16.5231,-8.4783,94.925
2023-03-11 15:47:33:693,0,-16.5061,-8.47272,94.9304
2023-03-11 15:47:33:702,0,-16.4874,-8.46686,94.9421
2023-03-11 15:47:33:712,0,-16.4618,-8.45964,94.9538
2023-03-11 15:47:33:723,0,-16.4358,-8.45364,94.9681
2023-03-11 15:47:33:733,0,-16.412,-8.44653,94.9827
2023-03-11 15:47:33:743,0,-16.3854,-8.4402,95.0
2023-03-11 15:47:33:753,0,-16.3553,-8.43073,95.0146
2023-03-11 15:47:33:763,0,-16.3264,-8.41965,95.0296
2023-03-11 15:47:33:773,0,-16.2901,-8.40796,95.0401
2023-03-11 15:47:33:783,0,-16.2546,-8.39913,95.052
2023-03-11 15:47:33:793,0,-16.2197,-8.39067,95.0606
2023-03-11 15:47:33:803,0,-16.1881,-8.38063,95.0653
2023-03-11 15:47:33:813,0,-16.156,-8.37255,95.0725
2023-03-11 15:47:33:823,0,-16.1252,-8.36765,95.0763
2023-03-11 15:47:33:833,0,-16.0948,-8.37424,95.0819
2023-03-11 15:47:33:843,0,-16.0715,-8.38525,95.0898
2023-03-11 15:47:33:853,0,-16.0489,-8.39531,95.1022
2023-03-11 15:47:33:863,0,-16.0318,-8.40739,95.1128
2023-03-11 15:47:33:873,0,-16.0225,-8.41714,95.1223
2023-03-11 15:47:33:883,0,-16.0156,-8.42358,95.1332
2023-03-11 15:47:33:893,0,-16.0116,-8.4272,95.1431
2023-03-11 15:47:33:903,0,-16.009,-8.4304,95.1536
2023-03-11 15:47:33:913,0,-16.0041,-8.42798,95.1629
2023-03-11 15:47:33:923,0,-15.9953,-8.41958,95.17
2023-03-11 15:47:33:933,0,-15.9845,-8.4082,95.1733
2023-03-11 15:47:33:943,0,-15.97,-8.39567,95.1754
2023-03-11 15:47:33:953,0,-15.956,-8.38404,95.1731
2023-03-11 15:47:33:963,0,-15.9448,-8.37266,95.1697
2023-03-11 15:47:33:973,0,-15.9345,-8.36216,95.1647
2023-03-11 15:47:33:983,0,-15.9314,-8.3542,95.1614
2023-03-11 15:47:33:993,0,-15.9268,-8.34635,95.1548
2023-03-11 15:47:34:3,0,-15.9235,-8.34056,95.1502
2023-03-11 15:47:34:13,0,-15.9209,-8.33587,95.1435
2023-03-11 15:47:34:23,0,-15.9114,-8.33161,95.1355
2023-03-11 15:47:34:33,0,-15.9042,-8.32626,95.1241
2023-03-11 15:47:34:43,0,-15.8955,-8.31972,95.1105
2023-03-11 15:47:34:53,0,-15.8836,-8.31121,95.1008
2023-03-11 15:47:34:63,0,-15.8736,-8.311,95.0907
2023-03-11 15:47:34:73,0,-15.8628,-8.31233,95.0814
2023-03-11 15:47:34:83,0,-15.8543,-8.31788,95.0754
2023-03-11 15:47:34:93,0,-15.8447,-8.32047,95.0699
2023-03-11 15:47:34:103,0,-15.8361,-8.32349,95.0671
2023-03-11 15:47:34:113,0,-15.828,-8.32215,95.0647
2023-03-11 15:47:34:123,0,-15.8173,-8.32448,95.0633
2023-03-11 15:47:34:133,0,-15.8067,-8.3268,95.0632
2023-03-11 15:47:34:143,0,-15.8026,-8.32782,95.0648
2023-03-11 15:47:34:153,0,-15.8009,-8.32971,95.0684
2023-03-11 15:47:34:163,0,-15.7977,-8.33338,95.0761
2023-03-11 15:47:34:173,0,-15.797,-8.33677,95.0762
2023-03-11 15:47:34:183,0,-15.8,-8.34091,95.0777
2023-03-11 15:47:34:193,0,-15.8004,-8.35003,95.0755
2023-03-11 15:47:34:203,0,-15.8054,-8.35881,95.0736
2023-03-11 15:47:34:213,0,-15.8067,-8.36834,95.0722
2023-03-11 15:47:34:223,0,-15.8093,-8.37838,95.0713
2023-03-11 15:47:34:233,0,-15.8111,-8.3849,95.0735
2023-03-11 15:47:34:243,0,-15.8135,-8.39349,95.0779
2023-03-11 15:47:34:253,0,-15.8115,-8.40022,95.0814
2023-03-11 15:47:34:263,0,-15.8095,-8.40766,95.0851
2023-03-11 15:47:34:273,0,-15.809,-8.41666,95.0906
2023-03-11 15:47:34:283,0,-15.8061,-8.42272,95.0941
2023-03-11 15:47:34:293,0,-15.8084,-8.42672,95.1018
2023-03-11 15:47:34:303,0,-15.8122,-8.42839,95.108
2023-03-11 15:47:34:313,0,-15.8146,-8.4271,95.1108
2023-03-11 15:47:34:323,0,-15.8187,-8.42983,95.1132
2023-03-11 15:47:34:333,0,-15.8224,-8.43118,95.1146
2023-03-11 15:47:34:343,0,-15.8261,-8.43472,95.1154
2023-03-11 15:47:34:353,0,-15.8333,-8.43753,95.1154
2023-03-11 15:47:34:363,0,-15.8389,-8.44381,95.1124
2023-03-11 15:47:34:373,0,-15.8443,-8.44823,95.1139
2023-03-11 15:47:34:383,0,-15.8503,-8.45438,95.1155
2023-03-11 15:47:34:393,0,-15.8576,-8.46005,95.1141
2023-03-11 15:47:34:403,0,-15.8675,-8.4642,95.1168
2023-03-11 15:47:34:413,0,-15.8751,-8.4676,95.1148
2023-03-11 15:47:34:423,0,-15.883,-8.47159,95.1166
2023-03-11 15:47:34:433,0,-15.8844,-8.47687,95.1212
2023-03-11 15:47:34:443,0,-15.8907,-8.48181,95.1303
2023-03-11 15:47:34:453,0,-15.8948,-8.48569,95.141
2023-03-11 15:47:34:463,0,-15.8964,-8.49029,95.1522
2023-03-11 15:47:34:473,0,-15.9004,-8.49268,95.161
2023-03-11 15:47:34:483,0,-15.9067,-8.49283,95.1704
2023-03-11 15:47:34:493,0,-15.9082,-8.49703,95.1782
2023-03-11 15:47:34:503,0,-15.9142,-8.50226,95.1843
2023-03-11 15:47:34:513,0,-15.9226,-8.50756,95.1953
2023-03-11 15:47:34:523,0,-15.9354,-8.51224,95.2018
2023-03-11 15:47:34:533,0,-15.9465,-8.5208,95.207
2023-03-11 15:47:34:543,0,-15.9544,-8.52831,95.2144
2023-03-11 15:47:34:553,0,-15.9617,-8.53768,95.2203
2023-03-11 15:47:34:563,0,-15.9699,-8.55243,95.2282
2023-03-11 15:47:34:573,0,-15.9797,-8.56835,95.2397
2023-03-11 15:47:34:583,0,-15.9887,-8.58158,95.2497
2023-03-11 15:47:34:593,0,-15.9989,-8.59208,95.2576
2023-03-11 15:47:34:603,0,-16.0099,-8.60071,95.2686
2023-03-11 15:47:34:613,0,-16.0202,-8.60404,95.2778
2023-03-11 15:47:34:623,0,-16.0226,-8.60432,95.2871
2023-03-11 15:47:34:633,0,-16.0275,-8.60677,95.298
2023-03-11 15:47:34:643,0,-16.0266,-8.60681,95.302
2023-03-11 15:47:34:653,0,-16.0237,-8.60588,95.3064
2023-03-11 15:47:34:663,0,-16.0182,-8.59717,95.3086
2023-03-11 15:47:34:673,0,-16.0162,-8.58701,95.3062
2023-03-11 15:47:34:683,0,-16.0191,-8.58146,95.3013
2023-03-11 15:47:34:693,0,-16.0223,-8.57383,95.2918
2023-03-11 15:47:34:702,0,-16.0239,-8.56545,95.2823
2023-03-11 15:47:34:712,0,-16.0266,-8.56198,95.2746
2023-03-11 15:47:34:723,0,-16.0239,-8.56325,95.2705
2023-03-11 15:47:34:732,0,-16.0205,-8.56046,95.2659
2023-03-11 15:47:34:743,0,-16.0167,-8.55407,95.2624
2023-03-11 15:47:34:753,0,-16.01,-8.55123,95.2573
2023-03-11 15:47:34:763,0,-16.0023,-8.54746,95.2522
2023-03-11 15:47:34:773,0,-15.9932,-8.54905,95.2482
2023-03-11 15:47:34:783,0,-15.9851,-8.55288,95.2458
2023-03-11 15:47:34:793,0,-15.9748,-8.55913,95.2442
2023-03-11 15:47:34:803,0,-15.9652,-8.56502,95.2419
2023-03-11 15:47:34:813,0,-15.9581,-8.56892,95.2405
2023-03-11 15:47:34:823,0,-15.9524,-8.57168,95.2354
2023-03-11 15:47:34:833,0,-15.9479,-8.5722,95.2302
2023-03-11 15:47:34:843,0,-15.9428,-8.57289,95.2249
2023-03-11 15:47:34:853,0,-15.9365,-8.57812,95.221
2023-03-11 15:47:34:863,0,-15.9337,-8.58376,95.219
2023-03-11 15:47:34:873,0,-15.9303,-8.58923,95.2175
2023-03-11 15:47:34:883,0,-15.9309,-8.59313,95.215
2023-03-11 15:47:34:893,0,-15.9293,-8.59726,95.2167
2023-03-11 15:47:34:903,0,-15.9266,-8.60016,95.2202
2023-03-11 15:47:34:913,0,-15.9253,-8.60353,95.2213
2023-03-11 15:47:34:923,0,-15.9244,-8.60255,95.2207
2023-03-11 15:47:34:933,0,-15.9232,-8.60752,95.2198
2023-03-11 15:47:34:943,0,-15.9257,-8.60995,95.223
2023-03-11 15:47:34:953,0,-15.9252,-8.61539,95.2243
2023-03-11 15:47:34:963,0,-15.9244,-8.62064,95.2277
2023-03-11 15:47:34:973,0,-15.9198,-8.62624,95.228
2023-03-11 15:47:34:983,0,-15.9102,-8.63051,95.2302
2023-03-11 15:47:34:993,0,-15.9013,-8.63757,95.2336
2023-03-11 15:47:35:3,0,-15.8866,-8.64553,95.2359
2023-03-11 15:47:35:13,0,-15.8699,-8.64769,95.235
2023-03-11 15:47:35:23,0,-15.8512,-8.6491,95.235
2023-03-11 15:47:35:33,0,-15.8315,-8.64971,95.2326
2023-03-11 15:47:35:43,0,-15.8149,-8.64674,95.2248
2023-03-11 15:47:35:53,0,-15.792,-8.64396,95.2134
2023-03-11 15:47:35:63,0,-15.7703,-8.64278,95.204
2023-03-11 15:47:35:73,0,-15.7509,-8.64196,95.1926
2023-03-11 15:47:35:83,0,-15.7364,-8.64421,95.1756
2023-03-11 15:47:35:93,0,-15.7193,-8.64386,95.1593
2023-03-11 15:47:35:103,0,-15.7095,-8.64281,95.1448
2023-03-11 15:47:35:113,0,-15.7,-8.64432,95.1331
2023-03-11 15:47:35:123,0,-15.6875,-8.64254,95.1173
2023-03-11 15:47:35:133,0,-15.6778,-8.64242,95.1066
2023-03-11 15:47:35:143,0,-15.6652,-8.63998,95.0973
2023-03-11 15:47:35:153,0,-15.6531,-8.63697,95.0884
2023-03-11 15:47:35:163,0,-15.6446,-8.63276,95.0859
2023-03-11 15:47:35:173,0,-15.6365,-8.62611,95.0792
2023-03-11 15:47:35:183,0,-15.6271,-8.62292,95.0741
2023-03-11 15:47:35:193,0,-15.6163,-8.61826,95.0675
2023-03-11 15:47:35:203,0,-15.6109,-8.61437,95.0602
2023-03-11 15:47:35:213,0,-15.6074,-8.60996,95.0518
2023-03-11 15:47:35:223,0,-15.5995,-8.60521,95.0453
2023-03-11 15:47:35:233,0,-15.5959,-8.60161,95.0369
2023-03-11 15:47:35:242,0,-15.592,-8.60155,95.0315
2023-03-11 15:47:35:253,0,-15.5907,-8.60748,95.0289
2023-03-11 15:47:35:263,0,-15.5914,-8.6116,95.0287
2023-03-11 15:47:35:273,0,-15.5973,-8.61335,95.0291
2023-03-11 15:47:35:283,0,-15.6038,-8.61527,95.0328
2023-03-11 15:47:35:293,0,-15.6169,-8.61176,95.0357
2023-03-11 15:47:35:303,0,-15.6284,-8.61145,95.0416
2023-03-11 15:47:35:313,0,-15.6386,-8.60513,95.0464
2023-03-11 15:47:35:323,0,-15.6448,-8.59696,95.0567
2023-03-11 15:47:35:333,0,-15.6495,-8.5853,95.0565
2023-03-11 15:47:35:343,0,-15.6491,-8.57732,95.0581
2023-03-11 15:47:35:353,0,-15.652,-8.5658,95.0526
2023-03-11 15:47:35:363,0,-15.651,-8.55796,95.0417
2023-03-11 15:47:35:373,0,-15.6472,-8.54876,95.0287
2023-03-11 15:47:35:383,0,-15.6475,-8.54059,95.0152
2023-03-11 15:47:35:393,0,-15.6478,-8.53629,94.999
2023-03-11 15:47:35:403,0,-15.6525,-8.53403,94.9871
2023-03-11 15:47:35:413,0,-15.6536,-8.53208,94.974
2023-03-11 15:47:35:423,0,-15.6583,-8.53408,94.9638
2023-03-11 15:47:35:433,0,-15.6613,-8.53372,94.9555
2023-03-11 15:47:35:443,0,-15.666,-8.52823,94.9464
2023-03-11 15:47:35:453,0,-15.668,-8.52462,94.9359
2023-03-11 15:47:35:463,0,-15.6626,-8.52197,94.9272
2023-03-11 15:47:35:473,0,-15.6535,-8.51767,94.9174
2023-03-11 15:47:35:483,0,-15.6475,-8.51594,94.9133
2023-03-11 15:47:35:493,0,-15.639,-8.51604,94.9105
2023-03-11 15:47:35:503,0,-15.6315,-8.51247,94.908
2023-03-11 15:47:35:513,0,-15.6246,-8.50791,94.9064
2023-03-11 15:47:35:523,0,-15.6221,-8.50176,94.9081
2023-03-11 15:47:35:533,0,-15.6208,-8.50156,94.9072
2023-03-11 15:47:35:543,0,-15.6194,-8.49696,94.9109
2023-03-11 15:47:35:553,0,-15.6199,-8.4976,94.9132
2023-03-11 15:47:35:563,0,-15.6211,-8.49606,94.9169
2023-03-11 15:47:35:573,0,-15.6263,-8.49531,94.9218
2023-03-11 15:47:35:583,0,-15.6277,-8.49717,94.926
2023-03-11 15:47:35:593,0,-15.6294,-8.49327,94.9279
2023-03-11 15:47:35:603,0,-15.6294,-8.49363,94.9277
2023-03-11 15:47:35:613,0,-15.635,-8.49762,94.9271
2023-03-11 15:47:35:623,0,-15.6395,-8.50283,94.9248
2023-03-11 15:47:35:633,0,-15.643,-8.50678,94.9222
2023-03-11 15:47:35:643,0,-15.6418,-8.50898,94.9198
2023-03-11 15:47:35:653,0,-15.642,-8.51206,94.9219
2023-03-11 15:47:35:663,0,-15.6422,-8.5133,94.9259
2023-03-11 15:47:35:673,0,-15.6432,-8.51702,94.9294
2023-03-11 15:47:35:683,0,-15.642,-8.52067,94.9337
2023-03-11 15:47:35:693,0,-15.6439,-8.51956,94.9347
2023-03-11 15:47:35:703,0,-15.6442,-8.51832,94.9379
2023-03-11 15:47:35:713,0,-15.6423,-8.52034,94.9382
2023-03-11 15:47:35:723,0,-15.6409,-8.51484,94.9386
2023-03-11 15:47:35:733,0,-15.6364,-8.51461,94.9375
2023-03-11 15:47:35:743,0,-15.6368,-8.51359,94.9358
2023-03-11 15:47:35:752,0,-15.6336,-8.51514,94.9358
2023-03-11 15:47:35:763,0,-15.6263,-8.51725,94.9343
2023-03-11 15:47:35:773,0,-15.6234,-8.52136,94.9349
2023-03-11 15:47:35:783,0,-15.6176,-8.52268,94.9352
2023-03-11 15:47:35:793,0,-15.6121,-8.52258,94.9371
2023-03-11 15:47:35:803,0,-15.6099,-8.52371,94.9401
2023-03-11 15:47:35:813,0,-15.6086,-8.52157,94.9427
2023-03-11 15:47:35:823,0,-15.6111,-8.52,94.9452
2023-03-11 15:47:35:833,0,-15.6056,-8.52277,94.9476
2023-03-11 15:47:35:843,0,-15.6001,-8.51736,94.9474
2023-03-11 15:47:35:853,0,-15.5948,-8.51427,94.9449
2023-03-11 15:47:35:863,0,-15.5883,-8.50956,94.9467
2023-03-11 15:47:35:873,0,-15.578,-8.50564,94.9461
2023-03-11 15:47:35:883,0,-15.5754,-8.50026,94.943
2023-03-11 15:47:35:893,0,-15.5709,-8.49411,94.9404
2023-03-11 15:47:35:903,0,-15.5688,-8.48991,94.9372
2023-03-11 15:47:35:913,0,-15.5632,-8.48859,94.9329
2023-03-11 15:47:35:923,0,-15.5566,-8.49351,94.9303
2023-03-11 15:47:35:933,0,-15.5495,-8.49974,94.9256
2023-03-11 15:47:35:943,0,-15.5492,-8.51101,94.9291
2023-03-11 15:47:35:953,0,-15.5501,-8.52184,94.935
2023-03-11 15:47:35:963,0,-15.555,-8.53052,94.9473
2023-03-11 15:47:35:973,0,-15.5609,-8.53854,94.96
2023-03-11 15:47:35:983,0,-15.5686,-8.54185,94.9744
2023-03-11 15:47:35:993,0,-15.575,-8.54342,94.9981
2023-03-11 15:47:36:3,0,-15.5801,-8.54426,95.0198
2023-03-11 15:47:36:13,0,-15.5831,-8.53909,95.0355
2023-03-11 15:47:36:23,0,-15.5876,-8.53235,95.0508
2023-03-11 15:47:36:33,0,-15.5874,-8.52506,95.0542
2023-03-11 15:47:36:43,0,-15.5902,-8.5164,95.0557
2023-03-11 15:47:36:53,0,-15.5925,-8.51054,95.0513
2023-03-11 15:47:36:63,0,-15.5948,-8.50547,95.0465
2023-03-11 15:47:36:73,0,-15.5952,-8.50287,95.0342
2023-03-11 15:47:36:83,0,-15.5924,-8.50012,95.0212
2023-03-11 15:47:36:93,0,-15.5926,-8.4994,95.0128
2023-03-11 15:47:36:103,0,-15.5886,-8.49588,95.0021
2023-03-11 15:47:36:113,0,-15.5888,-8.48959,94.9948
2023-03-11 15:47:36:123,0,-15.5859,-8.4813,94.9847
2023-03-11 15:47:36:133,0,-15.5784,-8.47396,94.9724
2023-03-11 15:47:36:143,0,-15.5686,-8.46266,94.9619
2023-03-11 15:47:36:153,0,-15.5582,-8.45513,94.9528
2023-03-11 15:47:36:163,0,-15.5455,-8.44878,94.9481
2023-03-11 15:47:36:173,0,-15.5328,-8.44498,94.9428
2023-03-11 15:47:36:183,0,-15.519,-8.44021,94.9385
2023-03-11 15:47:36:193,0,-15.5064,-8.4311,94.9358
2023-03-11 15:47:36:203,0,-15.4964,-8.42534,94.9355
2023-03-11 15:47:36:213,0,-15.4885,-8.42079,94.9365
2023-03-11 15:47:36:223,0,-15.4819,-8.41593,94.9418
2023-03-11 15:47:36:233,0,-15.4716,-8.4116,94.9483
2023-03-11 15:47:36:243,0,-15.4639,-8.40985,94.9532
2023-03-11 15:47:36:253,0,-15.4577,-8.40822,94.9564
2023-03-11 15:47:36:262,0,-15.4522,-8.40996,94.9583
2023-03-11 15:47:36:272,0,-15.446,-8.41469,94.9581
2023-03-11 15:47:36:282,0,-15.4419,-8.41963,94.956
2023-03-11 15:47:36:293,0,-15.4392,-8.42398,94.9541
2023-03-11 15:47:36:303,0,-15.4395,-8.43001,94.9501
2023-03-11 15:47:36:313,0,-15.4427,-8.43947,94.9515
2023-03-11 15:47:36:323,0,-15.4475,-8.44552,94.9533
2023-03-11 15:47:36:333,0,-15.4484,-8.45083,94.9519
2023-03-11 15:47:36:343,0,-15.4517,-8.45802,94.9531
2023-03-11 15:47:36:353,0,-15.4539,-8.46205,94.9559
2023-03-11 15:47:36:363,0,-15.4577,-8.46347,94.9625
2023-03-11 15:47:36:373,0,-15.4609,-8.46432,94.9673
2023-03-11 15:47:36:383,0,-15.4673,-8.46855,94.974
2023-03-11 15:47:36:393,0,-15.4746,-8.46775,94.9719
2023-03-11 15:47:36:403,0,-15.484,-8.46465,94.9747
2023-03-11 15:47:36:413,0,-15.4905,-8.46477,94.9763
2023-03-11 15:47:36:423,0,-15.4938,-8.46226,94.9751
2023-03-11 15:47:36:433,0,-15.4955,-8.46495,94.9781
2023-03-11 15:47:36:443,0,-15.5022,-8.46548,94.9774
2023-03-11 15:47:36:453,0,-15.5084,-8.46764,94.9783
2023-03-11 15:47:36:463,0,-15.5151,-8.47176,94.9817
2023-03-11 15:47:36:473,0,-15.5196,-8.46755,94.9842
2023-03-11 15:47:36:483,0,-15.5197,-8.46655,94.9832
2023-03-11 15:47:36:493,0,-15.5188,-8.46374,94.9845
2023-03-11 15:47:36:503,0,-15.5214,-8.45959,94.9891
2023-03-11 15:47:36:513,0,-15.5203,-8.45623,94.9871
2023-03-11 15:47:36:523,0,-15.5164,-8.45328,94.9895
2023-03-11 15:47:36:533,0,-15.5123,-8.44535,94.9831
2023-03-11 15:47:36:543,0,-15.5101,-8.44098,94.9776
2023-03-11 15:47:36:553,0,-15.5069,-8.43424,94.9698
2023-03-11 15:47:36:563,0,-15.5064,-8.42923,94.9616
2023-03-11 15:47:36:572,0,-15.5052,-8.42461,94.9526
2023-03-11 15:47:36:582,0,-15.5032,-8.42719,94.9415
2023-03-11 15:47:36:592,0,-15.5015,-8.42587,94.9293
2023-03-11 15:47:36:603,0,-15.4985,-8.4343,94.9227
2023-03-11 15:47:36:612,0,-15.4963,-8.44396,94.9156
2023-03-11 15:47:36:623,0,-15.4938,-8.45498,94.9164
2023-03-11 15:47:36:632,0,-15.4934,-8.46676,94.9195
2023-03-11 15:47:36:642,0,-15.4974,-8.4764,94.9286
2023-03-11 15:47:36:652,0,-15.5,-8.48086,94.9391
2023-03-11 15:47:36:662,0,-15.5048,-8.48219,94.9568
2023-03-11 15:47:36:672,0,-15.5084,-8.47979,94.973
2023-03-11 15:47:36:682,0,-15.5076,-8.48105,94.9836
2023-03-11 15:47:36:692,0,-15.5091,-8.48116,94.9926
2023-03-11 15:47:36:702,0,-15.5109,-8.47919,95.0008
2023-03-11 15:47:36:713,0,-15.5152,-8.47602,95.0035
2023-03-11 15:47:36:722,0,-15.5157,-8.47576,94.9965
2023-03-11 15:47:36:732,0,-15.5178,-8.47539,94.9904
2023-03-11 15:47:36:742,0,-15.5117,-8.47477,94.98
2023-03-11 15:47:36:752,0,-15.5048,-8.47412,94.963
2023-03-11 15:47:36:762,0,-15.4955,-8.47159,94.9458
2023-03-11 15:47:36:772,0,-15.4837,-8.46801,94.9253
2023-03-11 15:47:36:782,0,-15.4695,-8.4681,94.9078
2023-03-11 15:47:36:793,0,-15.4501,-8.46862,94.8919
2023-03-11 15:47:36:802,0,-15.423,-8.46976,94.8759
2023-03-11 15:47:36:813,0,-15.3933,-8.47071,94.8634
2023-03-11 15:47:36:822,0,-15.3631,-8.47142,94.8483
2023-03-11 15:47:36:832,0,-15.3322,-8.47383,94.8382
2023-03-11 15:47:36:843,0,-15.3024,-8.47652,94.824
2023-03-11 15:47:36:852,0,-15.2747,-8.47851,94.811
2023-03-11 15:47:36:862,0,-15.2569,-8.47575,94.804
2023-03-11 15:47:36:872,0,-15.2353,-8.47457,94.7957
2023-03-11 15:47:36:882,0,-15.2217,-8.47363,94.7885
2023-03-11 15:47:36:892,0,-15.2105,-8.4748,94.7814
2023-03-11 15:47:36:902,0,-15.2015,-8.47579,94.7763
2023-03-11 15:47:36:912,0,-15.1955,-8.48048,94.7745
2023-03-11 15:47:36:922,0,-15.1904,-8.48593,94.7728
2023-03-11 15:47:36:933,0,-15.1897,-8.4928,94.7748
2023-03-11 15:47:36:942,0,-15.1856,-8.50239,94.7756
2023-03-11 15:47:36:952,0,-15.1843,-8.51483,94.7778
2023-03-11 15:47:36:963,0,-15.1799,-8.52413,94.7799
2023-03-11 15:47:36:972,0,-15.176,-8.5314,94.7852
2023-03-11 15:47:36:983,0,-15.1709,-8.54156,94.7911
2023-03-11 15:47:36:992,0,-15.1688,-8.55251,94.7939
2023-03-11 15:47:37:3,0,-15.1649,-8.56539,94.7997
2023-03-11 15:47:37:12,0,-15.1644,-8.57544,94.8051
2023-03-11 15:47:37:23,0,-15.1623,-8.58706,94.8111
2023-03-11 15:47:37:32,0,-15.164,-8.59245,94.8162
2023-03-11 15:47:37:42,0,-15.163,-8.60048,94.8195
2023-03-11 15:47:37:52,0,-15.1669,-8.60522,94.8249
2023-03-11 15:47:37:62,0,-15.1675,-8.60935,94.8278
2023-03-11 15:47:37:72,0,-15.1703,-8.6078,94.8335
2023-03-11 15:47:37:82,0,-15.1692,-8.6083,94.8372
2023-03-11 15:47:37:93,0,-15.1658,-8.60451,94.8373
2023-03-11 15:47:37:102,0,-15.1685,-8.6026,94.8379
2023-03-11 15:47:37:112,0,-15.1696,-8.59759,94.8391
2023-03-11 15:47:37:122,0,-15.1686,-8.59235,94.8372
2023-03-11 15:47:37:132,0,-15.1675,-8.58846,94.8348
2023-03-11 15:47:37:142,0,-15.1662,-8.58843,94.8313
2023-03-11 15:47:37:152,0,-15.1651,-8.58854,94.8278
2023-03-11 15:47:37:162,0,-15.1586,-8.58852,94.8227
2023-03-11 15:47:37:172,0,-15.1499,-8.5907,94.8197
2023-03-11 15:47:37:182,0,-15.1395,-8.59261,94.8204
2023-03-11 15:47:37:192,0,-15.1301,-8.59453,94.8244
2023-03-11 15:47:37:203,0,-15.1178,-8.59872,94.8292
2023-03-11 15:47:37:212,0,-15.1054,-8.6025,94.8352
2023-03-11 15:47:37:222,0,-15.0865,-8.60852,94.8396
2023-03-11 15:47:37:232,0,-15.0664,-8.61103,94.8445
2023-03-11 15:47:37:243,0,-15.0421,-8.61304,94.8505
2023-03-11 15:47:37:252,0,-15.0159,-8.61462,94.8545
2023-03-11 15:47:37:263,0,-14.9911,-8.6159,94.8619
2023-03-11 15:47:37:272,0,-14.9708,-8.61532,94.8676
2023-03-11 15:47:37:283,0,-14.9537,-8.62051,94.8701
2023-03-11 15:47:37:292,0,-14.9394,-8.62436,94.8705
2023-03-11 15:47:37:302,0,-14.9254,-8.62872,94.8711
2023-03-11 15:47:37:312,0,-14.9101,-8.63661,94.8679
2023-03-11 15:47:37:322,0,-14.8932,-8.65035,94.8679
2023-03-11 15:47:37:332,0,-14.8746,-8.66582,94.8685
2023-03-11 15:47:37:342,0,-14.8585,-8.68214,94.8692
2023-03-11 15:47:37:352,0,-14.8425,-8.70031,94.8725
2023-03-11 15:47:37:362,0,-14.8285,-8.71731,94.8746
2023-03-11 15:47:37:373,0,-14.817,-8.73285,94.8782
2023-03-11 15:47:37:382,0,-14.8016,-8.74472,94.8814
2023-03-11 15:47:37:392,0,-14.7859,-8.75557,94.8844
2023-03-11 15:47:37:402,0,-14.7646,-8.76497,94.8868
2023-03-11 15:47:37:412,0,-14.7433,-8.77163,94.8882
2023-03-11 15:47:37:422,0,-14.7233,-8.77324,94.8877
2023-03-11 15:47:37:432,0,-14.6997,-8.77572,94.8866
2023-03-11 15:47:37:442,0,-14.6761,-8.7755,94.8847
2023-03-11 15:47:37:452,0,-14.6522,-8.77828,94.8816
2023-03-11 15:47:37:462,0,-14.6314,-8.78183,94.8729
2023-03-11 15:47:37:473,0,-14.6124,-8.78506,94.8676
2023-03-11 15:47:37:482,0,-14.5918,-8.78788,94.8632
2023-03-11 15:47:37:493,0,-14.5655,-8.79666,94.8611
2023-03-11 15:47:37:502,0,-14.5385,-8.80711,94.8546
2023-03-11 15:47:37:512,0,-14.5083,-8.81446,94.8494
2023-03-11 15:47:37:522,0,-14.4747,-8.81663,94.8382
2023-03-11 15:47:37:532,0,-14.4331,-8.81695,94.8234
2023-03-11 15:47:37:542,0,-14.3919,-8.81857,94.8092
2023-03-11 15:47:37:553,0,-14.3479,-8.82331,94.7931
2023-03-11 15:47:37:562,0,-14.3018,-8.83116,94.7782
2023-03-11 15:47:37:572,0,-14.2553,-8.83774,94.7621
2023-03-11 15:47:37:582,0,-14.2096,-8.84106,94.7507
2023-03-11 15:47:37:592,0,-14.1597,-8.84613,94.737
2023-03-11 15:47:37:602,0,-14.1114,-8.85137,94.7284
2023-03-11 15:47:37:612,0,-14.0612,-8.85699,94.7195
2023-03-11 15:47:37:623,0,-14.0127,-8.86301,94.7164
2023-03-11 15:47:37:632,0,-13.9659,-8.8696,94.7102
2023-03-11 15:47:37:642,0,-13.9184,-8.87771,94.7082
2023-03-11 15:47:37:652,0,-13.8736,-8.88843,94.711
2023-03-11 15:47:37:662,0,-13.8306,-8.90002,94.7083
2023-03-11 15:47:37:672,0,-13.792,-8.90984,94.7075
2023-03-11 15:47:37:682,0,-13.7532,-8.91714,94.7087
2023-03-11 15:47:37:692,0,-13.7156,-8.92573,94.7122
2023-03-11 15:47:37:703,0,-13.6828,-8.93873,94.7173
2023-03-11 15:47:37:712,0,-13.6522,-8.94692,94.7225
2023-03-11 15:47:37:722,0,-13.6241,-8.95162,94.7244
2023-03-11 15:47:37:732,0,-13.5989,-8.95207,94.7284
2023-03-11 15:47:37:742,0,-13.5793,-8.9577,94.7348
2023-03-11 15:47:37:752,0,-13.568,-8.96065,94.743
2023-03-11 15:47:37:762,0,-13.5595,-8.9606,94.7513
2023-03-11 15:47:37:772,0,-13.5539,-8.95481,94.7572
2023-03-11 15:47:37:782,0,-13.5497,-8.94771,94.7665
2023-03-11 15:47:37:792,0,-13.5467,-8.93981,94.7718
2023-03-11 15:47:37:802,0,-13.5439,-8.93204,94.7808
2023-03-11 15:47:37:812,0,-13.5411,-8.92097,94.7883
2023-03-11 15:47:37:822,0,-13.5336,-8.90982,94.7943
2023-03-11 15:47:37:833,0,-13.526,-8.90049,94.8025
2023-03-11 15:47:37:842,0,-13.5238,-8.89034,94.8124
2023-03-11 15:47:37:852,0,-13.5186,-8.88314,94.8186
2023-03-11 15:47:37:862,0,-13.5214,-8.87518,94.8269
2023-03-11 15:47:37:873,0,-13.5255,-8.86554,94.8283
2023-03-11 15:47:37:882,0,-13.5302,-8.85782,94.8352
2023-03-11 15:47:37:893,0,-13.531,-8.85267,94.8322
2023-03-11 15:47:37:903,0,-13.5303,-8.84661,94.8319
2023-03-11 15:47:37:912,0,-13.5303,-8.83818,94.8309
2023-03-11 15:47:37:923,0,-13.5286,-8.83198,94.8278
2023-03-11 15:47:37:932,0,-13.5269,-8.81896,94.8261
2023-03-11 15:47:37:942,0,-13.5206,-8.81181,94.8229
2023-03-11 15:47:37:952,0,-13.5095,-8.80422,94.818
2023-03-11 15:47:37:962,0,-13.4958,-8.79865,94.81
2023-03-11 15:47:37:972,0,-13.4863,-8.78853,94.8013
2023-03-11 15:47:37:983,0,-13.4814,-8.78329,94.7945
2023-03-11 15:47:37:992,0,-13.4758,-8.77309,94.7911
2023-03-11 15:47:38:2,0,-13.47,-8.76675,94.7825
2023-03-11 15:47:38:12,0,-13.4629,-8.75915,94.7726
2023-03-11 15:47:38:23,0,-13.4545,-8.75298,94.7697
2023-03-11 15:47:38:32,0,-13.4474,-8.75055,94.7641
2023-03-11 15:47:38:43,0,-13.4416,-8.75267,94.7599
2023-03-11 15:47:38:52,0,-13.4401,-8.75698,94.759
2023-03-11 15:47:38:62,0,-13.441,-8.75651,94.7599
2023-03-11 15:47:38:72,0,-13.4465,-8.75971,94.7626
2023-03-11 15:47:38:82,0,-13.4532,-8.7541,94.7676
2023-03-11 15:47:38:92,0,-13.4589,-8.74497,94.7718
2023-03-11 15:47:38:102,0,-13.4635,-8.73787,94.7723
2023-03-11 15:47:38:113,0,-13.4703,-8.72809,94.7749
2023-03-11 15:47:38:122,0,-13.4727,-8.7213,94.7767
2023-03-11 15:47:38:133,0,-13.477,-8.71018,94.7757
2023-03-11 15:47:38:142,0,-13.4809,-8.69655,94.7727
2023-03-11 15:47:38:152,0,-13.4889,-8.68681,94.7659
2023-03-11 15:47:38:162,0,-13.4946,-8.67147,94.7557
2023-03-11 15:47:38:172,0,-13.5011,-8.65789,94.7463
2023-03-11 15:47:38:182,0,-13.5111,-8.64759,94.7395
2023-03-11 15:47:38:192,0,-13.5221,-8.63777,94.73
2023-03-11 15:47:38:202,0,-13.529,-8.63267,94.7238
2023-03-11 15:47:38:213,0,-13.5357,-8.62617,94.7186
2023-03-11 15:47:38:222,0,-13.5372,-8.62066,94.7127
2023-03-11 15:47:38:232,0,-13.5386,-8.60917,94.7024
2023-03-11 15:47:38:243,0,-13.5345,-8.59981,94.6923
2023-03-11 15:47:38:252,0,-13.5297,-8.58994,94.679
2023-03-11 15:47:38:263,0,-13.5197,-8.58345,94.6684
2023-03-11 15:47:38:272,0,-13.5145,-8.57816,94.6592
2023-03-11 15:47:38:283,0,-13.5112,-8.57274,94.6536
2023-03-11 15:47:38:292,0,-13.5041,-8.5666,94.6486
2023-03-11 15:47:38:303,0,-13.4999,-8.55857,94.6453
2023-03-11 15:47:38:313,0,-13.4944,-8.55297,94.6413
2023-03-11 15:47:38:322,0,-13.4935,-8.55008,94.6418
2023-03-11 15:47:38:332,0,-13.4929,-8.54561,94.6404
2023-03-11 15:47:38:342,0,-13.4882,-8.54409,94.6415
2023-03-11 15:47:38:353,0,-13.4862,-8.54405,94.6464
2023-03-11 15:47:38:362,0,-13.4853,-8.54629,94.6515
2023-03-11 15:47:38:372,0,-13.4879,-8.54855,94.654
2023-03-11 15:47:38:382,0,-13.495,-8.5511,94.6558
2023-03-11 15:47:38:392,0,-13.5037,-8.55648,94.6577
2023-03-11 15:47:38:402,0,-13.5143,-8.56082,94.6583
2023-03-11 15:47:38:412,0,-13.5197,-8.56895,94.663
2023-03-11 15:47:38:423,0,-13.5283,-8.57323,94.6656
2023-03-11 15:47:38:432,0,-13.5371,-8.58141,94.6683
2023-03-11 15:47:38:443,0,-13.5449,-8.58927,94.6726
2023-03-11 15:47:38:452,0,-13.5498,-8.59603,94.6751
2023-03-11 15:47:38:463,0,-13.5563,-8.60214,94.6787
2023-03-11 15:47:38:472,0,-13.5607,-8.60714,94.6827
2023-03-11 15:47:38:482,0,-13.5614,-8.60895,94.6895
2023-03-11 15:47:38:492,0,-13.5618,-8.61103,94.6936
2023-03-11 15:47:38:503,0,-13.566,-8.60854,94.6984
2023-03-11 15:47:38:513,0,-13.5705,-8.60266,94.7013
2023-03-11 15:47:38:523,0,-13.5736,-8.5988,94.6993
2023-03-11 15:47:38:533,0,-13.5796,-8.59245,94.6975
2023-03-11 15:47:38:543,0,-13.5843,-8.58632,94.6954
2023-03-11 15:47:38:552,0,-13.5935,-8.58185,94.6922
2023-03-11 15:47:38:563,0,-13.6021,-8.5757,94.6855
2023-03-11 15:47:38:572,0,-13.6081,-8.56889,94.6745
2023-03-11 15:47:38:583,0,-13.6124,-8.56542,94.6676
2023-03-11 15:47:38:592,0,-13.6235,-8.55971,94.6609
2023-03-11 15:47:38:602,0,-13.6329,-8.55936,94.6531
2023-03-11 15:47:38:612,0,-13.6394,-8.5562,94.6482
2023-03-11 15:47:38:622,0,-13.6444,-8.55187,94.6407
2023-03-11 15:47:38:633,0,-13.6529,-8.54678,94.6348
2023-03-11 15:47:38:642,0,-13.6615,-8.54034,94.637
2023-03-11 15:47:38:652,0,-13.6673,-8.53368,94.6353
2023-03-11 15:47:38:662,0,-13.6733,-8.52407,94.6356
2023-03-11 15:47:38:672,0,-13.6762,-8.51336,94.633
2023-03-11 15:47:38:682,0,-13.6809,-8.50704,94.6311
2023-03-11 15:47:38:692,0,-13.6841,-8.49953,94.6262
2023-03-11 15:47:38:702,0,-13.6903,-8.49363,94.6195
2023-03-11 15:47:38:712,0,-13.6972,-8.48655,94.6117
2023-03-11 15:47:38:722,0,-13.707,-8.48179,94.6029
2023-03-11 15:47:38:733,0,-13.7148,-8.47989,94.5942
2023-03-11 15:47:38:742,0,-13.7249,-8.48042,94.5847
2023-03-11 15:47:38:753,0,-13.734,-8.48718,94.5794
2023-03-11 15:47:38:762,0,-13.7411,-8.4959,94.5749
2023-03-11 15:47:38:773,0,-13.7507,-8.50814,94.5778
2023-03-11 15:47:38:782,0,-13.7651,-8.51902,94.584
2023-03-11 15:47:38:792,0,-13.7857,-8.52543,94.5934
2023-03-11 15:47:38:802,0,-13.8067,-8.52935,94.6053
2023-03-11 15:47:38:813,0,-13.8249,-8.53347,94.6197
2023-03-11 15:47:38:822,0,-13.8401,-8.53309,94.6375
2023-03-11 15:47:38:832,0,-13.8513,-8.53016,94.6548
2023-03-11 15:47:38:842,0,-13.8583,-8.52886,94.6635
2023-03-11 15:47:38:852,0,-13.8605,-8.52518,94.6695
2023-03-11 15:47:38:862,0,-13.8617,-8.51781,94.6711
2023-03-11 15:47:38:872,0,-13.8667,-8.50838,94.666
2023-03-11 15:47:38:882,0,-13.8712,-8.49497,94.6564
2023-03-11 15:47:38:892,0,-13.8727,-8.48683,94.6411
2023-03-11 15:47:38:902,0,-13.8777,-8.48074,94.6286
2023-03-11 15:47:38:912,0,-13.8839,-8.47503,94.6156
2023-03-11 15:47:38:923,0,-13.8892,-8.46946,94.6
2023-03-11 15:47:38:932,0,-13.8984,-8.46497,94.5867
2023-03-11 15:47:38:942,0,-13.9059,-8.46091,94.5715
2023-03-11 15:47:38:952,0,-13.911,-8.45595,94.5593
2023-03-11 15:47:38:962,0,-13.9137,-8.4456,94.5454
2023-03-11 15:47:38:972,0,-13.9118,-8.4355,94.5364
2023-03-11 15:47:38:983,0,-13.9074,-8.42695,94.5317
2023-03-11 15:47:38:992,0,-13.9035,-8.42167,94.5319
2023-03-11 15:47:39:2,0,-13.8961,-8.41545,94.5337
2023-03-11 15:47:39:12,0,-13.8895,-8.41048,94.5341
2023-03-11 15:47:39:22,0,-13.8817,-8.40434,94.535
2023-03-11 15:47:39:32,0,-13.8704,-8.39773,94.5344
2023-03-11 15:47:39:43,0,-13.856,-8.38836,94.5357
2023-03-11 15:47:39:52,0,-13.8435,-8.38526,94.5402
2023-03-11 15:47:39:63,0,-13.8277,-8.38226,94.542
2023-03-11 15:47:39:72,0,-13.8115,-8.3767,94.5403
2023-03-11 15:47:39:83,0,-13.7935,-8.37335,94.5421
2023-03-11 15:47:39:92,0,-13.7762,-8.37113,94.5409
2023-03-11 15:47:39:102,0,-13.7533,-8.3712,94.5393
2023-03-11 15:47:39:112,0,-13.7256,-8.37224,94.5344
2023-03-11 15:47:39:122,0,-13.6949,-8.36984,94.5319
2023-03-11 15:47:39:132,0,-13.6633,-8.37035,94.5305
2023-03-11 15:47:39:142,0,-13.626,-8.37169,94.5275
2023-03-11 15:47:39:152,0,-13.5885,-8.3736,94.5271
2023-03-11 15:47:39:162,0,-13.5449,-8.37463,94.5252
2023-03-11 15:47:39:172,0,-13.4976,-8.37778,94.5274
2023-03-11 15:47:39:182,0,-13.4445,-8.37828,94.5277
2023-03-11 15:47:39:193,0,-13.386,-8.37899,94.5326
2023-03-11 15:47:39:202,0,-13.3256,-8.37689,94.5401
2023-03-11 15:47:39:212,0,-13.2569,-8.37108,94.5426
2023-03-11 15:47:39:222,0,-13.189,-8.3657,94.551
2023-03-11 15:47:39:232,0,-13.1173,-8.36362,94.5572
2023-03-11 15:47:39:242,0,-13.0421,-8.35782,94.5594
2023-03-11 15:47:39:252,0,-12.9614,-8.35298,94.5589
2023-03-11 15:47:39:262,0,-12.8717,-8.3467,94.5547
2023-03-11 15:47:39:273,0,-12.7775,-8.34071,94.5499
2023-03-11 15:47:39:282,0,-12.6758,-8.33138,94.541
2023-03-11 15:47:39:293,0,-12.5696,-8.32029,94.5293
2023-03-11 15:47:39:302,0,-12.4591,-8.31077,94.5202
2023-03-11 15:47:39:313,0,-12.3372,-8.30437,94.5086
2023-03-11 15:47:39:322,0,-12.1991,-8.29871,94.4978
2023-03-11 15:47:39:332,0,-12.0472,-8.29664,94.4923
2023-03-11 15:47:39:342,0,-11.8833,-8.29525,94.49
2023-03-11 15:47:39:352,0,-11.7067,-8.29539,94.4882
