Timestamp_cmd,imu_cmd,roll_delta,pitch_delta,yaw_delta
2023-03-11 22:52:11:760,0,-10.7377,1.2835,-35.8227
2023-03-11 22:52:11:767,0,-10.7377,1.27009,-35.7786
2023-03-11 22:52:11:777,0,-10.7313,1.26308,-35.739
2023-03-11 22:52:11:787,0,-10.7166,1.27025,-35.7096
2023-03-11 22:52:11:797,0,-10.6985,1.27816,-35.6821
2023-03-11 22:52:11:807,0,-10.6794,1.2782,-35.6452
2023-03-11 22:52:11:817,0,-10.6742,1.27615,-35.5966
2023-03-11 22:52:11:827,0,-10.6758,1.27158,-35.5417
2023-03-11 22:52:11:837,0,-10.6927,1.27063,-35.476
2023-03-11 22:52:11:847,0,-10.7089,1.27641,-35.4013
2023-03-11 22:52:11:857,0,-10.7249,1.29428,-35.3201
2023-03-11 22:52:11:867,0,-10.7404,1.32742,-35.2309
2023-03-11 22:52:11:878,0,-10.7473,1.37461,-35.1453
2023-03-11 22:52:11:887,0,-10.7501,1.42698,-35.0721
2023-03-11 22:52:11:898,0,-10.7478,1.48693,-35.0069
2023-03-11 22:52:11:907,0,-10.7406,1.54353,-34.9465
2023-03-11 22:52:11:918,0,-10.7302,1.5899,-34.8782
2023-03-11 22:52:11:928,0,-10.7154,1.62395,-34.8131
2023-03-11 22:52:11:938,0,-10.6939,1.6408,-34.7566
2023-03-11 22:52:11:947,0,-10.6653,1.64507,-34.7148
2023-03-11 22:52:11:958,0,-10.6376,1.64161,-34.6896
2023-03-11 22:52:11:968,0,-10.6014,1.63182,-34.6757
2023-03-11 22:52:11:978,0,-10.5692,1.61502,-34.678
2023-03-11 22:52:11:988,0,-10.5432,1.58854,-34.6877
2023-03-11 22:52:11:998,0,-10.5345,1.55283,-34.7099
2023-03-11 22:52:12:8,0,-10.5422,1.51455,-34.7381
2023-03-11 22:52:12:18,0,-10.5627,1.46932,-34.7641
2023-03-11 22:52:12:28,0,-10.5872,1.42563,-34.7881
2023-03-11 22:52:12:37,0,-10.6145,1.38702,-34.8081
2023-03-11 22:52:12:48,0,-10.6329,1.3534,-34.821
2023-03-11 22:52:12:58,0,-10.6493,1.32774,-34.8249
2023-03-11 22:52:12:67,0,-10.6612,1.30557,-34.8162
2023-03-11 22:52:12:78,0,-10.6773,1.28235,-34.7855
2023-03-11 22:52:12:87,0,-10.6967,1.26504,-34.7372
2023-03-11 22:52:12:97,0,-10.7149,1.24974,-34.6767
2023-03-11 22:52:12:107,0,-10.7288,1.24026,-34.6017
2023-03-11 22:52:12:117,0,-10.7364,1.24417,-34.5198
2023-03-11 22:52:12:127,0,-10.7367,1.25176,-34.4283
2023-03-11 22:52:12:137,0,-10.7334,1.27014,-34.3332
2023-03-11 22:52:12:147,0,-10.7297,1.29001,-34.2349
2023-03-11 22:52:12:157,0,-10.7261,1.3093,-34.1391
2023-03-11 22:52:12:167,0,-10.7164,1.33085,-34.0487
2023-03-11 22:52:12:177,0,-10.6979,1.35352,-33.9664
2023-03-11 22:52:12:187,0,-10.6785,1.37475,-33.8946
2023-03-11 22:52:12:197,0,-10.6519,1.39834,-33.8358
2023-03-11 22:52:12:207,0,-10.6312,1.41434,-33.7886
2023-03-11 22:52:12:217,0,-10.6123,1.42585,-33.7488
2023-03-11 22:52:12:227,0,-10.5954,1.42959,-33.7161
2023-03-11 22:52:12:237,0,-10.578,1.42651,-33.6908
2023-03-11 22:52:12:247,0,-10.5598,1.41878,-33.6802
2023-03-11 22:52:12:257,0,-10.5431,1.41034,-33.6788
2023-03-11 22:52:12:267,0,-10.5246,1.40133,-33.6854
2023-03-11 22:52:12:277,0,-10.5085,1.39613,-33.693
2023-03-11 22:52:12:287,0,-10.4931,1.39238,-33.6994
2023-03-11 22:52:12:297,0,-10.4804,1.3936,-33.702
2023-03-11 22:52:12:307,0,-10.4634,1.39233,-33.6991
2023-03-11 22:52:12:317,0,-10.446,1.3921,-33.6958
2023-03-11 22:52:12:327,0,-10.425,1.39685,-33.6896
2023-03-11 22:52:12:337,0,-10.4041,1.3975,-33.6815
2023-03-11 22:52:12:347,0,-10.3817,1.39774,-33.6738
2023-03-11 22:52:12:357,0,-10.3572,1.40085,-33.6652
2023-03-11 22:52:12:367,0,-10.3369,1.40086,-33.6517
2023-03-11 22:52:12:377,0,-10.3255,1.40175,-33.6398
2023-03-11 22:52:12:387,0,-10.3155,1.40507,-33.6245
2023-03-11 22:52:12:397,0,-10.3065,1.40427,-33.614
2023-03-11 22:52:12:407,0,-10.303,1.40615,-33.604
2023-03-11 22:52:12:417,0,-10.3034,1.40804,-33.5918
2023-03-11 22:52:12:427,0,-10.3064,1.40809,-33.5816
2023-03-11 22:52:12:438,0,-10.3086,1.40914,-33.5691
2023-03-11 22:52:12:447,0,-10.3192,1.41025,-33.5609
2023-03-11 22:52:12:457,0,-10.3244,1.41187,-33.5523
2023-03-11 22:52:12:467,0,-10.3278,1.40945,-33.5424
2023-03-11 22:52:12:477,0,-10.3284,1.40109,-33.5323
2023-03-11 22:52:12:487,0,-10.3282,1.39204,-33.5181
2023-03-11 22:52:12:497,0,-10.3286,1.38251,-33.5017
2023-03-11 22:52:12:507,0,-10.323,1.3712,-33.4888
2023-03-11 22:52:12:517,0,-10.3125,1.36517,-33.4722
2023-03-11 22:52:12:527,0,-10.2985,1.35877,-33.4569
2023-03-11 22:52:12:537,0,-10.2848,1.35164,-33.4464
2023-03-11 22:52:12:547,0,-10.2706,1.34529,-33.4342
2023-03-11 22:52:12:557,0,-10.2541,1.33822,-33.4198
2023-03-11 22:52:12:567,0,-10.2399,1.33061,-33.4047
2023-03-11 22:52:12:577,0,-10.2314,1.3238,-33.3911
2023-03-11 22:52:12:587,0,-10.2238,1.31606,-33.3808
2023-03-11 22:52:12:597,0,-10.2221,1.30843,-33.3739
2023-03-11 22:52:12:607,0,-10.2204,1.30143,-33.3637
2023-03-11 22:52:12:618,0,-10.2191,1.29458,-33.3525
2023-03-11 22:52:12:627,0,-10.2236,1.28762,-33.3391
2023-03-11 22:52:12:637,0,-10.2278,1.28481,-33.3248
2023-03-11 22:52:12:647,0,-10.2341,1.27703,-33.3092
2023-03-11 22:52:12:657,0,-10.2383,1.26868,-33.2908
2023-03-11 22:52:12:667,0,-10.2441,1.2637,-33.2748
2023-03-11 22:52:12:677,0,-10.2555,1.26436,-33.2653
2023-03-11 22:52:12:687,0,-10.2649,1.26567,-33.2612
2023-03-11 22:52:12:697,0,-10.2751,1.27284,-33.2555
2023-03-11 22:52:12:707,0,-10.2881,1.28182,-33.2491
2023-03-11 22:52:12:717,0,-10.2977,1.28947,-33.2484
2023-03-11 22:52:12:727,0,-10.311,1.29689,-33.2458
2023-03-11 22:52:12:737,0,-10.3233,1.30424,-33.2459
2023-03-11 22:52:12:747,0,-10.3346,1.3134,-33.2513
2023-03-11 22:52:12:757,0,-10.3484,1.3223,-33.2609
2023-03-11 22:52:12:767,0,-10.3652,1.34453,-33.2774
2023-03-11 22:52:12:777,0,-10.3851,1.36736,-33.3035
2023-03-11 22:52:12:787,0,-10.4022,1.39253,-33.329
2023-03-11 22:52:12:797,0,-10.4187,1.41794,-33.3571
2023-03-11 22:52:12:808,0,-10.44,1.44411,-33.386
2023-03-11 22:52:12:817,0,-10.4612,1.46755,-33.4114
2023-03-11 22:52:12:828,0,-10.4843,1.49301,-33.4421
2023-03-11 22:52:12:837,0,-10.5019,1.5176,-33.4736
2023-03-11 22:52:12:847,0,-10.5205,1.54227,-33.4997
2023-03-11 22:52:12:857,0,-10.5391,1.57075,-33.5282
2023-03-11 22:52:12:867,0,-10.5596,1.59301,-33.5554
2023-03-11 22:52:12:877,0,-10.5739,1.61282,-33.5824
2023-03-11 22:52:12:887,0,-10.5903,1.63244,-33.6112
2023-03-11 22:52:12:897,0,-10.6007,1.64698,-33.6422
2023-03-11 22:52:12:907,0,-10.6076,1.66078,-33.6708
2023-03-11 22:52:12:917,0,-10.6086,1.67085,-33.7005
2023-03-11 22:52:12:927,0,-10.6101,1.68013,-33.7311
2023-03-11 22:52:12:937,0,-10.6158,1.6834,-33.762
2023-03-11 22:52:12:947,0,-10.6208,1.68512,-33.7861
2023-03-11 22:52:12:957,0,-10.6269,1.68457,-33.8044
2023-03-11 22:52:12:967,0,-10.6328,1.68237,-33.8191
2023-03-11 22:52:12:977,0,-10.6447,1.68375,-33.8277
2023-03-11 22:52:12:988,0,-10.656,1.68337,-33.8335
2023-03-11 22:52:12:998,0,-10.6694,1.68433,-33.8321
2023-03-11 22:52:13:7,0,-10.68,1.68704,-33.8241
2023-03-11 22:52:13:18,0,-10.6934,1.68773,-33.8114
2023-03-11 22:52:13:27,0,-10.7061,1.68646,-33.7937
2023-03-11 22:52:13:38,0,-10.7148,1.68138,-33.777
2023-03-11 22:52:13:47,0,-10.7252,1.67823,-33.7612
2023-03-11 22:52:13:57,0,-10.7308,1.67173,-33.7514
2023-03-11 22:52:13:67,0,-10.733,1.66387,-33.7438
2023-03-11 22:52:13:77,0,-10.728,1.65275,-33.7384
2023-03-11 22:52:13:87,0,-10.7221,1.63982,-33.7402
2023-03-11 22:52:13:97,0,-10.7156,1.62724,-33.7454
2023-03-11 22:52:13:107,0,-10.7046,1.61282,-33.7564
2023-03-11 22:52:13:117,0,-10.6948,1.603,-33.7753
2023-03-11 22:52:13:127,0,-10.6912,1.60162,-33.7975
2023-03-11 22:52:13:137,0,-10.6964,1.5957,-33.8215
2023-03-11 22:52:13:147,0,-10.7039,1.59532,-33.8499
2023-03-11 22:52:13:157,0,-10.7164,1.59983,-33.8751
2023-03-11 22:52:13:167,0,-10.7349,1.60632,-33.9029
2023-03-11 22:52:13:177,0,-10.7519,1.61477,-33.9227
2023-03-11 22:52:13:187,0,-10.7655,1.61913,-33.9385
2023-03-11 22:52:13:197,0,-10.7775,1.61972,-33.9437
2023-03-11 22:52:13:207,0,-10.7938,1.61818,-33.9424
2023-03-11 22:52:13:217,0,-10.8093,1.61282,-33.9374
2023-03-11 22:52:13:227,0,-10.8281,1.60418,-33.9269
2023-03-11 22:52:13:237,0,-10.8394,1.5997,-33.9132
2023-03-11 22:52:13:247,0,-10.8494,1.59153,-33.8985
2023-03-11 22:52:13:257,0,-10.8519,1.58544,-33.8812
2023-03-11 22:52:13:267,0,-10.845,1.57967,-33.8651
2023-03-11 22:52:13:277,0,-10.8281,1.57141,-33.8454
2023-03-11 22:52:13:287,0,-10.8089,1.55987,-33.817
2023-03-11 22:52:13:297,0,-10.7896,1.54707,-33.7814
2023-03-11 22:52:13:307,0,-10.7666,1.53338,-33.7359
2023-03-11 22:52:13:317,0,-10.7429,1.5221,-33.6825
2023-03-11 22:52:13:327,0,-10.7131,1.51369,-33.6178
2023-03-11 22:52:13:337,0,-10.6855,1.50885,-33.5468
2023-03-11 22:52:13:347,0,-10.6542,1.50881,-33.4717
2023-03-11 22:52:13:357,0,-10.6231,1.51585,-33.3873
2023-03-11 22:52:13:367,0,-10.5896,1.53065,-33.2917
2023-03-11 22:52:13:377,0,-10.5576,1.55152,-33.1765
2023-03-11 22:52:13:387,0,-10.5225,1.57769,-33.0498
2023-03-11 22:52:13:397,0,-10.4826,1.60995,-32.9054
2023-03-11 22:52:13:407,0,-10.4491,1.6513,-32.7432
2023-03-11 22:52:13:417,0,-10.4242,1.69408,-32.5656
2023-03-11 22:52:13:427,0,-10.4099,1.74249,-32.3762
2023-03-11 22:52:13:437,0,-10.3981,1.78996,-32.1774
2023-03-11 22:52:13:447,0,-10.3831,1.83434,-31.9759
2023-03-11 22:52:13:457,0,-10.3671,1.88205,-31.7749
2023-03-11 22:52:13:467,0,-10.3594,1.92295,-31.5722
2023-03-11 22:52:13:477,0,-10.3517,1.95988,-31.3763
2023-03-11 22:52:13:487,0,-10.346,1.98942,-31.1888
2023-03-11 22:52:13:497,0,-10.3417,2.01545,-31.0172
2023-03-11 22:52:13:507,0,-10.3416,2.036,-30.8611
2023-03-11 22:52:13:517,0,-10.3464,2.05179,-30.717
2023-03-11 22:52:13:527,0,-10.3548,2.05737,-30.592
2023-03-11 22:52:13:537,0,-10.3649,2.05875,-30.4837
2023-03-11 22:52:13:547,0,-10.3731,2.05001,-30.3923
2023-03-11 22:52:13:557,0,-10.3826,2.03908,-30.3141
2023-03-11 22:52:13:567,0,-10.3877,2.02773,-30.2445
2023-03-11 22:52:13:577,0,-10.3944,2.01648,-30.1789
2023-03-11 22:52:13:587,0,-10.4012,2.00178,-30.1242
2023-03-11 22:52:13:597,0,-10.4097,1.98814,-30.0813
2023-03-11 22:52:13:607,0,-10.4269,1.9732,-30.043
2023-03-11 22:52:13:617,0,-10.4483,1.9592,-30.0163
2023-03-11 22:52:13:627,0,-10.472,1.94453,-29.9967
2023-03-11 22:52:13:637,0,-10.4962,1.92817,-29.9854
2023-03-11 22:52:13:647,0,-10.521,1.91951,-29.9831
2023-03-11 22:52:13:657,0,-10.5503,1.90606,-29.9921
2023-03-11 22:52:13:667,0,-10.5828,1.89498,-30.0062
2023-03-11 22:52:13:677,0,-10.6148,1.8769,-30.0238
2023-03-11 22:52:13:688,0,-10.6497,1.85556,-30.0406
2023-03-11 22:52:13:698,0,-10.6809,1.83325,-30.0583
2023-03-11 22:52:13:707,0,-10.7119,1.81165,-30.0853
2023-03-11 22:52:13:718,0,-10.7448,1.79727,-30.1186
2023-03-11 22:52:13:727,0,-10.7778,1.78816,-30.1563
2023-03-11 22:52:13:737,0,-10.8098,1.78585,-30.1929
2023-03-11 22:52:13:747,0,-10.8365,1.78305,-30.2339
2023-03-11 22:52:13:757,0,-10.8623,1.78779,-30.2768
2023-03-11 22:52:13:767,0,-10.8861,1.79267,-30.3195
2023-03-11 22:52:13:778,0,-10.9051,1.80031,-30.3595
2023-03-11 22:52:13:788,0,-10.9245,1.80628,-30.3965
2023-03-11 22:52:13:798,0,-10.9438,1.81279,-30.4349
2023-03-11 22:52:13:808,0,-10.9607,1.81735,-30.4759
2023-03-11 22:52:13:818,0,-10.9766,1.82299,-30.5186
2023-03-11 22:52:13:828,0,-10.9887,1.82977,-30.5621
2023-03-11 22:52:13:838,0,-10.992,1.8363,-30.6079
2023-03-11 22:52:13:848,0,-10.9992,1.84247,-30.6522
2023-03-11 22:52:13:857,0,-11.0082,1.84454,-30.6955
2023-03-11 22:52:13:867,0,-11.0211,1.84255,-30.7402
2023-03-11 22:52:13:878,0,-11.0317,1.83457,-30.7793
2023-03-11 22:52:13:887,0,-11.0374,1.82919,-30.8193
2023-03-11 22:52:13:897,0,-11.0355,1.8299,-30.8656
2023-03-11 22:52:13:908,0,-11.026,1.83108,-30.912
2023-03-11 22:52:13:917,0,-11.0078,1.82929,-30.9517
2023-03-11 22:52:13:928,0,-10.9863,1.82478,-30.9831
2023-03-11 22:52:13:938,0,-10.9698,1.81418,-31.016
2023-03-11 22:52:13:947,0,-10.9543,1.8063,-31.0472
2023-03-11 22:52:13:958,0,-10.9374,1.80205,-31.0805
2023-03-11 22:52:13:968,0,-10.9164,1.80051,-31.1059
2023-03-11 22:52:13:977,0,-10.9003,1.80321,-31.1326
2023-03-11 22:52:13:988,0,-10.8832,1.80611,-31.1585
2023-03-11 22:52:13:997,0,-10.8608,1.81353,-31.1884
2023-03-11 22:52:14:7,0,-10.8306,1.82014,-31.2178
2023-03-11 22:52:14:17,0,-10.803,1.82739,-31.2518
2023-03-11 22:52:14:28,0,-10.7766,1.83,-31.2821
2023-03-11 22:52:14:38,0,-10.7511,1.83047,-31.3168
2023-03-11 22:52:14:47,0,-10.7258,1.83331,-31.3535
2023-03-11 22:52:14:58,0,-10.7004,1.83642,-31.3963
2023-03-11 22:52:14:67,0,-10.676,1.83792,-31.435
2023-03-11 22:52:14:78,0,-10.6553,1.84051,-31.4662
2023-03-11 22:52:14:88,0,-10.6451,1.84326,-31.4932
2023-03-11 22:52:14:98,0,-10.6464,1.8446,-31.5193
2023-03-11 22:52:14:107,0,-10.6649,1.84413,-31.5368
2023-03-11 22:52:14:117,0,-10.6914,1.82989,-31.5323
2023-03-11 22:52:14:127,0,-10.7364,1.80412,-31.5092
2023-03-11 22:52:14:137,0,-10.7899,1.77551,-31.4832
2023-03-11 22:52:14:147,0,-10.8446,1.74938,-31.4591
2023-03-11 22:52:14:157,0,-10.8933,1.72629,-31.4339
2023-03-11 22:52:14:167,0,-10.9264,1.71194,-31.4074
2023-03-11 22:52:14:177,0,-10.9364,1.69743,-31.3785
2023-03-11 22:52:14:187,0,-10.9271,1.69358,-31.3522
2023-03-11 22:52:14:197,0,-10.9027,1.69446,-31.3229
2023-03-11 22:52:14:207,0,-10.8779,1.70482,-31.2897
2023-03-11 22:52:14:217,0,-10.8635,1.72187,-31.2571
2023-03-11 22:52:14:227,0,-10.8576,1.74981,-31.224
2023-03-11 22:52:14:237,0,-10.8517,1.78032,-31.2025
2023-03-11 22:52:14:247,0,-10.8433,1.81476,-31.1949
2023-03-11 22:52:14:257,0,-10.8349,1.85151,-31.194
2023-03-11 22:52:14:267,0,-10.8336,1.88871,-31.2003
2023-03-11 22:52:14:277,0,-10.8302,1.92531,-31.2167
2023-03-11 22:52:14:288,0,-10.8321,1.95791,-31.2372
2023-03-11 22:52:14:298,0,-10.8448,1.98997,-31.255
2023-03-11 22:52:14:308,0,-10.8601,2.02249,-31.2736
2023-03-11 22:52:14:318,0,-10.8822,2.05168,-31.2894
2023-03-11 22:52:14:327,0,-10.9021,2.0772,-31.2993
2023-03-11 22:52:14:338,0,-10.919,2.09766,-31.3062
2023-03-11 22:52:14:348,0,-10.9302,2.1132,-31.3123
2023-03-11 22:52:14:358,0,-10.9372,2.12556,-31.3162
2023-03-11 22:52:14:368,0,-10.9363,2.13164,-31.3214
2023-03-11 22:52:14:377,0,-10.9236,2.13787,-31.3271
2023-03-11 22:52:14:387,0,-10.906,2.13591,-31.3299
2023-03-11 22:52:14:397,0,-10.8874,2.12328,-31.3255
2023-03-11 22:52:14:407,0,-10.8752,2.10201,-31.31
2023-03-11 22:52:14:417,0,-10.8708,2.05899,-31.2877
2023-03-11 22:52:14:427,0,-10.8759,2.00898,-31.2605
2023-03-11 22:52:14:437,0,-10.8773,1.95164,-31.2348
2023-03-11 22:52:14:447,0,-10.8712,1.89831,-31.2134
2023-03-11 22:52:14:457,0,-10.8561,1.84657,-31.1989
2023-03-11 22:52:14:468,0,-10.8259,1.79547,-31.1874
2023-03-11 22:52:14:477,0,-10.7822,1.74661,-31.1839
2023-03-11 22:52:14:488,0,-10.7355,1.70299,-31.1821
2023-03-11 22:52:14:498,0,-10.6936,1.66761,-31.1797
2023-03-11 22:52:14:508,0,-10.6514,1.62636,-31.1799
2023-03-11 22:52:14:518,0,-10.6111,1.58681,-31.183
2023-03-11 22:52:14:527,0,-10.5677,1.54812,-31.1893
2023-03-11 22:52:14:538,0,-10.5222,1.51329,-31.1941
2023-03-11 22:52:14:547,0,-10.4834,1.4838,-31.1959
2023-03-11 22:52:14:557,0,-10.4446,1.45641,-31.2013
2023-03-11 22:52:14:568,0,-10.4146,1.43699,-31.2101
2023-03-11 22:52:14:578,0,-10.3794,1.42434,-31.2186
2023-03-11 22:52:14:588,0,-10.3411,1.42122,-31.2312
2023-03-11 22:52:14:597,0,-10.2986,1.43125,-31.2442
2023-03-11 22:52:14:608,0,-10.2595,1.45048,-31.2584
2023-03-11 22:52:14:617,0,-10.2193,1.47274,-31.2676
2023-03-11 22:52:14:628,0,-10.1791,1.49315,-31.2736
2023-03-11 22:52:14:637,0,-10.1457,1.51411,-31.2761
2023-03-11 22:52:14:647,0,-10.1106,1.53101,-31.2729
2023-03-11 22:52:14:657,0,-10.0802,1.55547,-31.2727
2023-03-11 22:52:14:667,0,-10.0436,1.584,-31.2782
2023-03-11 22:52:14:677,0,-10.0081,1.61811,-31.2864
2023-03-11 22:52:14:687,0,-9.97873,1.65932,-31.2897
2023-03-11 22:52:14:697,0,-9.95286,1.70307,-31.2824
2023-03-11 22:52:14:707,0,-9.93702,1.74518,-31.272
2023-03-11 22:52:14:717,0,-9.93063,1.78302,-31.2571
2023-03-11 22:52:14:727,0,-9.93082,1.81478,-31.2369
2023-03-11 22:52:14:737,0,-9.93512,1.84433,-31.2217
2023-03-11 22:52:14:748,0,-9.93479,1.87324,-31.2049
2023-03-11 22:52:14:757,0,-9.93276,1.90215,-31.1919
2023-03-11 22:52:14:767,0,-9.92996,1.93871,-31.1843
2023-03-11 22:52:14:777,0,-9.93415,1.97485,-31.1783
2023-03-11 22:52:14:787,0,-9.9384,2.00633,-31.1765
2023-03-11 22:52:14:797,0,-9.95401,2.03357,-31.172
2023-03-11 22:52:14:807,0,-9.96931,2.05317,-31.1626
2023-03-11 22:52:14:817,0,-9.98165,2.06482,-31.1508
2023-03-11 22:52:14:827,0,-9.99913,2.07168,-31.1311
2023-03-11 22:52:14:837,0,-10.02,2.07747,-31.1086
2023-03-11 22:52:14:847,0,-10.0417,2.08527,-31.0841
2023-03-11 22:52:14:857,0,-10.0655,2.09102,-31.0635
2023-03-11 22:52:14:867,0,-10.0879,2.09943,-31.0343
2023-03-11 22:52:14:877,0,-10.1088,2.10497,-30.9995
2023-03-11 22:52:14:887,0,-10.1295,2.11069,-30.9618
2023-03-11 22:52:14:897,0,-10.1471,2.11614,-30.9217
2023-03-11 22:52:14:907,0,-10.1599,2.11993,-30.8849
2023-03-11 22:52:14:917,0,-10.1704,2.12377,-30.8452
2023-03-11 22:52:14:927,0,-10.182,2.12844,-30.8086
2023-03-11 22:52:14:938,0,-10.1954,2.12787,-30.7779
2023-03-11 22:52:14:947,0,-10.2027,2.12438,-30.7473
2023-03-11 22:52:14:957,0,-10.2055,2.12233,-30.7202
2023-03-11 22:52:14:967,0,-10.1994,2.12214,-30.6987
2023-03-11 22:52:14:978,0,-10.1857,2.11601,-30.6836
2023-03-11 22:52:14:988,0,-10.1696,2.11203,-30.6807
2023-03-11 22:52:14:998,0,-10.1536,2.10684,-30.694
2023-03-11 22:52:15:7,0,-10.1353,2.10485,-30.7141
2023-03-11 22:52:15:17,0,-10.1227,2.1024,-30.7436
2023-03-11 22:52:15:27,0,-10.1131,2.09654,-30.7799
2023-03-11 22:52:15:37,0,-10.102,2.087,-30.8129
2023-03-11 22:52:15:47,0,-10.0939,2.07594,-30.8412
2023-03-11 22:52:15:58,0,-10.0926,2.06496,-30.8714
2023-03-11 22:52:15:67,0,-10.0922,2.05306,-30.8967
2023-03-11 22:52:15:78,0,-10.0859,2.04317,-30.9226
2023-03-11 22:52:15:88,0,-10.0808,2.03333,-30.9511
2023-03-11 22:52:15:98,0,-10.0755,2.02718,-30.979
2023-03-11 22:52:15:108,0,-10.074,2.02128,-31.0008
2023-03-11 22:52:15:118,0,-10.0681,2.00735,-31.0195
2023-03-11 22:52:15:127,0,-10.0661,1.99202,-31.0348
2023-03-11 22:52:15:138,0,-10.063,1.96393,-31.0421
2023-03-11 22:52:15:148,0,-10.0589,1.93615,-31.0458
2023-03-11 22:52:15:158,0,-10.0531,1.91052,-31.0472
2023-03-11 22:52:15:167,0,-10.0543,1.88578,-31.0492
2023-03-11 22:52:15:178,0,-10.0565,1.86636,-31.0519
2023-03-11 22:52:15:188,0,-10.0586,1.84781,-31.0544
2023-03-11 22:52:15:198,0,-10.0582,1.83031,-31.0577
2023-03-11 22:52:15:208,0,-10.0539,1.81688,-31.0602
2023-03-11 22:52:15:218,0,-10.0471,1.80793,-31.0599
2023-03-11 22:52:15:227,0,-10.0398,1.79983,-31.0594
2023-03-11 22:52:15:237,0,-10.0397,1.79758,-31.0592
2023-03-11 22:52:15:247,0,-10.051,1.80118,-31.0596
2023-03-11 22:52:15:258,0,-10.0732,1.80762,-31.0551
2023-03-11 22:52:15:268,0,-10.1019,1.82035,-31.043
2023-03-11 22:52:15:277,0,-10.1444,1.83728,-31.0308
2023-03-11 22:52:15:288,0,-10.1951,1.8599,-31.0128
2023-03-11 22:52:15:298,0,-10.2503,1.88596,-30.9885
2023-03-11 22:52:15:307,0,-10.3024,1.90993,-30.9576
2023-03-11 22:52:15:317,0,-10.3534,1.93491,-30.9222
2023-03-11 22:52:15:327,0,-10.4036,1.95437,-30.8815
2023-03-11 22:52:15:337,0,-10.4486,1.97006,-30.845
2023-03-11 22:52:15:347,0,-10.4918,1.97981,-30.8146
2023-03-11 22:52:15:358,0,-10.5301,1.98654,-30.7883
2023-03-11 22:52:15:368,0,-10.5563,1.98313,-30.7733
2023-03-11 22:52:15:377,0,-10.5735,1.96813,-30.7678
2023-03-11 22:52:15:387,0,-10.5852,1.94619,-30.7751
2023-03-11 22:52:15:398,0,-10.5897,1.92264,-30.7911
2023-03-11 22:52:15:407,0,-10.5916,1.89829,-30.8255
2023-03-11 22:52:15:418,0,-10.5904,1.87158,-30.8672
2023-03-11 22:52:15:427,0,-10.5883,1.85323,-30.9119
2023-03-11 22:52:15:438,0,-10.5848,1.83466,-30.9543
2023-03-11 22:52:15:448,0,-10.5835,1.81835,-30.9953
2023-03-11 22:52:15:458,0,-10.5832,1.80588,-31.0361
2023-03-11 22:52:15:468,0,-10.5815,1.80237,-31.0694
2023-03-11 22:52:15:478,0,-10.5713,1.80153,-31.0997
2023-03-11 22:52:15:487,0,-10.5598,1.80428,-31.1233
2023-03-11 22:52:15:497,0,-10.5464,1.80686,-31.1377
2023-03-11 22:52:15:508,0,-10.5322,1.80839,-31.1495
2023-03-11 22:52:15:518,0,-10.5115,1.80571,-31.157
2023-03-11 22:52:15:527,0,-10.4865,1.80018,-31.16
2023-03-11 22:52:15:538,0,-10.4627,1.79245,-31.1604
2023-03-11 22:52:15:547,0,-10.44,1.78486,-31.1583
2023-03-11 22:52:15:558,0,-10.4199,1.774,-31.1518
2023-03-11 22:52:15:567,0,-10.4049,1.76551,-31.1443
2023-03-11 22:52:15:578,0,-10.3876,1.75956,-31.1311
2023-03-11 22:52:15:588,0,-10.3743,1.7586,-31.1194
2023-03-11 22:52:15:598,0,-10.367,1.75679,-31.108
2023-03-11 22:52:15:607,0,-10.3569,1.75882,-31.1001
2023-03-11 22:52:15:618,0,-10.3477,1.75905,-31.0929
2023-03-11 22:52:15:627,0,-10.3422,1.75876,-31.0875
2023-03-11 22:52:15:637,0,-10.3302,1.75862,-31.0829
2023-03-11 22:52:15:647,0,-10.3167,1.75866,-31.0789
2023-03-11 22:52:15:658,0,-10.3021,1.76092,-31.0768
2023-03-11 22:52:15:667,0,-10.2914,1.76259,-31.0685
2023-03-11 22:52:15:678,0,-10.2826,1.77001,-31.0622
2023-03-11 22:52:15:688,0,-10.279,1.77823,-31.0554
2023-03-11 22:52:15:698,0,-10.2728,1.78933,-31.0435
2023-03-11 22:52:15:708,0,-10.2652,1.79912,-31.0306
2023-03-11 22:52:15:718,0,-10.2615,1.80824,-31.0135
2023-03-11 22:52:15:727,0,-10.2543,1.81691,-30.9937
2023-03-11 22:52:15:738,0,-10.2429,1.82263,-30.9759
2023-03-11 22:52:15:748,0,-10.2325,1.82269,-30.9599
2023-03-11 22:52:15:758,0,-10.2216,1.82677,-30.9448
2023-03-11 22:52:15:767,0,-10.209,1.83217,-30.9292
2023-03-11 22:52:15:777,0,-10.1926,1.83719,-30.9154
2023-03-11 22:52:15:787,0,-10.179,1.83805,-30.9056
2023-03-11 22:52:15:797,0,-10.1625,1.84066,-30.89
2023-03-11 22:52:15:807,0,-10.1496,1.83744,-30.88
2023-03-11 22:52:15:817,0,-10.1378,1.83469,-30.8702
2023-03-11 22:52:15:827,0,-10.1227,1.83328,-30.8631
2023-03-11 22:52:15:838,0,-10.1089,1.83227,-30.8547
2023-03-11 22:52:15:847,0,-10.0993,1.83098,-30.8458
2023-03-11 22:52:15:858,0,-10.0873,1.82831,-30.8371
2023-03-11 22:52:15:868,0,-10.0784,1.83145,-30.8314
2023-03-11 22:52:15:878,0,-10.0741,1.83029,-30.8261
2023-03-11 22:52:15:887,0,-10.0689,1.82784,-30.8194
2023-03-11 22:52:15:898,0,-10.0686,1.82549,-30.8053
2023-03-11 22:52:15:908,0,-10.0685,1.81301,-30.7892
2023-03-11 22:52:15:917,0,-10.0734,1.79485,-30.7775
2023-03-11 22:52:15:927,0,-10.0768,1.78112,-30.7655
2023-03-11 22:52:15:937,0,-10.0888,1.76965,-30.7514
2023-03-11 22:52:15:947,0,-10.1007,1.7576,-30.7372
2023-03-11 22:52:15:957,0,-10.1034,1.74637,-30.7154
2023-03-11 22:52:15:967,0,-10.1053,1.73314,-30.6894
2023-03-11 22:52:15:977,0,-10.1059,1.72347,-30.665
2023-03-11 22:52:15:988,0,-10.1055,1.71522,-30.6398
2023-03-11 22:52:15:998,0,-10.103,1.71135,-30.6158
2023-03-11 22:52:16:7,0,-10.0974,1.70561,-30.5914
2023-03-11 22:52:16:18,0,-10.0891,1.69674,-30.5702
2023-03-11 22:52:16:28,0,-10.0812,1.68789,-30.5474
2023-03-11 22:52:16:38,0,-10.0748,1.67753,-30.5286
2023-03-11 22:52:16:47,0,-10.0655,1.67123,-30.5099
2023-03-11 22:52:16:58,0,-10.0589,1.66968,-30.4952
2023-03-11 22:52:16:67,0,-10.0516,1.67057,-30.4824
2023-03-11 22:52:16:77,0,-10.0478,1.67533,-30.4716
2023-03-11 22:52:16:88,0,-10.0399,1.68432,-30.4604
2023-03-11 22:52:16:98,0,-10.0436,1.69676,-30.4554
2023-03-11 22:52:16:108,0,-10.0458,1.70993,-30.4535
2023-03-11 22:52:16:118,0,-10.0446,1.72773,-30.4518
2023-03-11 22:52:16:128,0,-10.0433,1.73945,-30.4506
2023-03-11 22:52:16:137,0,-10.0421,1.74893,-30.4467
2023-03-11 22:52:16:148,0,-10.0392,1.75453,-30.4495
2023-03-11 22:52:16:157,0,-10.0377,1.75944,-30.4504
2023-03-11 22:52:16:168,0,-10.0345,1.76142,-30.4535
2023-03-11 22:52:16:177,0,-10.0305,1.76227,-30.4577
2023-03-11 22:52:16:187,0,-10.0237,1.7598,-30.4675
2023-03-11 22:52:16:197,0,-10.0087,1.75496,-30.4778
2023-03-11 22:52:16:208,0,-9.98648,1.74697,-30.4855
2023-03-11 22:52:16:218,0,-9.96653,1.73838,-30.4948
2023-03-11 22:52:16:228,0,-9.94496,1.72964,-30.5044
2023-03-11 22:52:16:238,0,-9.93414,1.71964,-30.508
2023-03-11 22:52:16:248,0,-9.92539,1.70988,-30.5038
2023-03-11 22:52:16:258,0,-9.92181,1.70195,-30.4957
2023-03-11 22:52:16:268,0,-9.9145,1.69588,-30.4774
2023-03-11 22:52:16:278,0,-9.90709,1.69193,-30.4496
2023-03-11 22:52:16:287,0,-9.89868,1.68571,-30.4165
2023-03-11 22:52:16:297,0,-9.88381,1.68547,-30.3868
2023-03-11 22:52:16:307,0,-9.86713,1.68843,-30.3515
2023-03-11 22:52:16:317,0,-9.85519,1.69092,-30.3045
2023-03-11 22:52:16:327,0,-9.8467,1.68329,-30.2594
2023-03-11 22:52:16:337,0,-9.84429,1.67198,-30.2169
2023-03-11 22:52:16:347,0,-9.84678,1.6551,-30.1761
2023-03-11 22:52:16:358,0,-9.84531,1.63576,-30.1319
2023-03-11 22:52:16:368,0,-9.84523,1.61548,-30.0924
2023-03-11 22:52:16:377,0,-9.84891,1.59038,-30.0529
2023-03-11 22:52:16:388,0,-9.85341,1.5648,-30.0171
2023-03-11 22:52:16:397,0,-9.85908,1.53255,-29.9811
2023-03-11 22:52:16:408,0,-9.85948,1.49423,-29.9478
2023-03-11 22:52:16:418,0,-9.85197,1.45248,-29.9202
2023-03-11 22:52:16:427,0,-9.83889,1.40957,-29.8899
2023-03-11 22:52:16:437,0,-9.82989,1.3642,-29.8616
2023-03-11 22:52:16:447,0,-9.82307,1.32202,-29.8378
2023-03-11 22:52:16:458,0,-9.81993,1.284,-29.813
2023-03-11 22:52:16:467,0,-9.8143,1.24778,-29.7849
2023-03-11 22:52:16:478,0,-9.81159,1.21232,-29.754
2023-03-11 22:52:16:488,0,-9.8089,1.17284,-29.7125
2023-03-11 22:52:16:498,0,-9.80431,1.13526,-29.6664
2023-03-11 22:52:16:508,0,-9.80066,1.0949,-29.6193
2023-03-11 22:52:16:518,0,-9.79143,1.04589,-29.5688
2023-03-11 22:52:16:527,0,-9.77492,0.995968,-29.514
2023-03-11 22:52:16:537,0,-9.7547,0.94805,-29.4614
2023-03-11 22:52:16:548,0,-9.73197,0.894329,-29.4086
2023-03-11 22:52:16:558,0,-9.70662,0.837202,-29.3423
2023-03-11 22:52:16:568,0,-9.68648,0.777272,-29.2758
2023-03-11 22:52:16:578,0,-9.66934,0.717752,-29.2126
2023-03-11 22:52:16:587,0,-9.65455,0.664642,-29.15
2023-03-11 22:52:16:598,0,-9.63861,0.611958,-29.0876
2023-03-11 22:52:16:608,0,-9.62185,0.552662,-29.0282
2023-03-11 22:52:16:618,0,-9.60474,0.494141,-28.9762
2023-03-11 22:52:16:628,0,-9.58693,0.435299,-28.935
2023-03-11 22:52:16:637,0,-9.5634,0.38049,-28.8982
2023-03-11 22:52:16:648,0,-9.53964,0.333864,-28.8667
2023-03-11 22:52:16:657,0,-9.50791,0.294162,-28.8395
2023-03-11 22:52:16:668,0,-9.48088,0.260905,-28.8134
2023-03-11 22:52:16:678,0,-9.45594,0.243298,-28.7938
2023-03-11 22:52:16:687,0,-9.43314,0.235623,-28.7785
2023-03-11 22:52:16:698,0,-9.40773,0.231811,-28.7632
2023-03-11 22:52:16:707,0,-9.38824,0.232131,-28.7356
2023-03-11 22:52:16:718,0,-9.37249,0.231919,-28.7019
2023-03-11 22:52:16:728,0,-9.36292,0.232073,-28.6675
2023-03-11 22:52:16:738,0,-9.36132,0.242839,-28.631
2023-03-11 22:52:16:748,0,-9.36394,0.260271,-28.59
2023-03-11 22:52:16:758,0,-9.3671,0.282658,-28.5466
2023-03-11 22:52:16:767,0,-9.37199,0.304728,-28.5023
2023-03-11 22:52:16:778,0,-9.37353,0.328666,-28.4579
2023-03-11 22:52:16:788,0,-9.37502,0.351928,-28.4109
2023-03-11 22:52:16:798,0,-9.37279,0.376587,-28.3633
2023-03-11 22:52:16:807,0,-9.3665,0.398543,-28.3253
2023-03-11 22:52:16:817,0,-9.35807,0.420226,-28.2943
2023-03-11 22:52:16:827,0,-9.34765,0.442765,-28.2688
2023-03-11 22:52:16:837,0,-9.33882,0.462804,-28.2575
2023-03-11 22:52:16:848,0,-9.33026,0.480602,-28.257
2023-03-11 22:52:16:857,0,-9.32484,0.494532,-28.2661
2023-03-11 22:52:16:867,0,-9.32299,0.506963,-28.2843
2023-03-11 22:52:16:878,0,-9.32626,0.516379,-28.3113
2023-03-11 22:52:16:888,0,-9.32923,0.524482,-28.346
2023-03-11 22:52:16:898,0,-9.32747,0.539869,-28.3856
2023-03-11 22:52:16:907,0,-9.32593,0.558198,-28.4346
2023-03-11 22:52:16:918,0,-9.32152,0.5884,-28.4955
2023-03-11 22:52:16:927,0,-9.31431,0.622208,-28.5546
2023-03-11 22:52:16:938,0,-9.3045,0.655349,-28.6048
2023-03-11 22:52:16:947,0,-9.29367,0.686021,-28.6475
2023-03-11 22:52:16:958,0,-9.28579,0.719209,-28.6874
2023-03-11 22:52:16:967,0,-9.27759,0.748946,-28.7137
2023-03-11 22:52:16:977,0,-9.26997,0.772624,-28.7363
2023-03-11 22:52:16:987,0,-9.26515,0.792974,-28.7567
2023-03-11 22:52:16:997,0,-9.26698,0.807117,-28.7695
2023-03-11 22:52:17:8,0,-9.27839,0.816121,-28.7791
2023-03-11 22:52:17:18,0,-9.28907,0.823795,-28.792
2023-03-11 22:52:17:27,0,-9.29796,0.826636,-28.8024
2023-03-11 22:52:17:38,0,-9.30426,0.831711,-28.8178
2023-03-11 22:52:17:48,0,-9.30295,0.833403,-28.8343
2023-03-11 22:52:17:58,0,-9.29942,0.834644,-28.8539
2023-03-11 22:52:17:68,0,-9.28711,0.831534,-28.8847
2023-03-11 22:52:17:78,0,-9.26795,0.828853,-28.9242
2023-03-11 22:52:17:87,0,-9.24428,0.825601,-28.9732
2023-03-11 22:52:17:98,0,-9.22299,0.824562,-29.0326
2023-03-11 22:52:17:108,0,-9.20498,0.820278,-29.1036
2023-03-11 22:52:17:118,0,-9.18952,0.818384,-29.1804
2023-03-11 22:52:17:127,0,-9.17788,0.818034,-29.2758
2023-03-11 22:52:17:137,0,-9.16857,0.813514,-29.382
2023-03-11 22:52:17:147,0,-9.15906,0.818042,-29.5084
2023-03-11 22:52:17:157,0,-9.15487,0.821298,-29.646
2023-03-11 22:52:17:168,0,-9.14819,0.819655,-29.7981
2023-03-11 22:52:17:178,0,-9.13934,0.819114,-29.9635
2023-03-11 22:52:17:187,0,-9.13015,0.81605,-30.1328
2023-03-11 22:52:17:198,0,-9.12284,0.810546,-30.3117
2023-03-11 22:52:17:208,0,-9.12163,0.804593,-30.5007
2023-03-11 22:52:17:218,0,-9.12159,0.790028,-30.6941
2023-03-11 22:52:17:227,0,-9.12541,0.774403,-30.8929
2023-03-11 22:52:17:238,0,-9.1282,0.763455,-31.0915
2023-03-11 22:52:17:248,0,-9.13272,0.752318,-31.2877
2023-03-11 22:52:17:258,0,-9.13439,0.740714,-31.4806
2023-03-11 22:52:17:267,0,-9.13228,0.73225,-31.6699
2023-03-11 22:52:17:277,0,-9.13008,0.723366,-31.8533
2023-03-11 22:52:17:288,0,-9.12473,0.719534,-32.032
2023-03-11 22:52:17:298,0,-9.12048,0.71876,-32.2049
2023-03-11 22:52:17:308,0,-9.11731,0.716332,-32.3701
2023-03-11 22:52:17:317,0,-9.11224,0.715178,-32.5248
2023-03-11 22:52:17:327,0,-9.11053,0.718714,-32.6757
2023-03-11 22:52:17:337,0,-9.10937,0.727985,-32.8173
2023-03-11 22:52:17:347,0,-9.10667,0.739265,-32.9526
2023-03-11 22:52:17:357,0,-9.10905,0.75239,-33.0824
2023-03-11 22:52:17:367,0,-9.11187,0.75943,-33.2101
2023-03-11 22:52:17:377,0,-9.11088,0.760307,-33.3443
2023-03-11 22:52:17:387,0,-9.10349,0.753142,-33.4887
2023-03-11 22:52:17:397,0,-9.09085,0.733953,-33.6451
2023-03-11 22:52:17:407,0,-9.07312,0.720724,-33.8096
2023-03-11 22:52:17:418,0,-9.0566,0.710269,-33.9775
2023-03-11 22:52:17:428,0,-9.04715,0.698373,-34.145
2023-03-11 22:52:17:438,0,-9.04942,0.680864,-34.3056
2023-03-11 22:52:17:448,0,-9.06096,0.667397,-34.4616
2023-03-11 22:52:17:458,0,-9.07493,0.655852,-34.6118
2023-03-11 22:52:17:467,0,-9.09473,0.641322,-34.7505
2023-03-11 22:52:17:478,0,-9.11488,0.622452,-34.8737
2023-03-11 22:52:17:487,0,-9.13774,0.607791,-34.9879
2023-03-11 22:52:17:497,0,-9.16026,0.596913,-35.0982
2023-03-11 22:52:17:507,0,-9.18061,0.587529,-35.198
2023-03-11 22:52:17:518,0,-9.19513,0.582242,-35.2851
2023-03-11 22:52:17:527,0,-9.20887,0.579584,-35.3615
2023-03-11 22:52:17:537,0,-9.23199,0.578259,-35.4257
2023-03-11 22:52:17:548,0,-9.25208,0.580097,-35.482
2023-03-11 22:52:17:558,0,-9.26761,0.587896,-35.5294
2023-03-11 22:52:17:567,0,-9.27696,0.601876,-35.5737
2023-03-11 22:52:17:578,0,-9.27982,0.622889,-35.6111
2023-03-11 22:52:17:587,0,-9.2797,0.649338,-35.6408
2023-03-11 22:52:17:598,0,-9.27587,0.682579,-35.6635
2023-03-11 22:52:17:608,0,-9.27825,0.715981,-35.6747
2023-03-11 22:52:17:618,0,-9.28297,0.751563,-35.6805
2023-03-11 22:52:17:628,0,-9.29161,0.784943,-35.6843
2023-03-11 22:52:17:638,0,-9.30157,0.820321,-35.6819
2023-03-11 22:52:17:647,0,-9.31835,0.857119,-35.6782
2023-03-11 22:52:17:658,0,-9.33294,0.895235,-35.6697
2023-03-11 22:52:17:668,0,-9.34538,0.929573,-35.6611
2023-03-11 22:52:17:677,0,-9.35662,0.967011,-35.6536
2023-03-11 22:52:17:687,0,-9.36644,1.00813,-35.6447
2023-03-11 22:52:17:698,0,-9.37251,1.04532,-35.6378
2023-03-11 22:52:17:707,0,-9.37854,1.07453,-35.6224
2023-03-11 22:52:17:718,0,-9.38825,1.10495,-35.6059
2023-03-11 22:52:17:727,0,-9.39596,1.13163,-35.5929
2023-03-11 22:52:17:737,0,-9.40431,1.15702,-35.5813
2023-03-11 22:52:17:747,0,-9.41147,1.1827,-35.5709
2023-03-11 22:52:17:758,0,-9.41465,1.20574,-35.5609
2023-03-11 22:52:17:767,0,-9.41635,1.23109,-35.5523
2023-03-11 22:52:17:778,0,-9.40938,1.25526,-35.5487
2023-03-11 22:52:17:788,0,-9.39847,1.28194,-35.551
2023-03-11 22:52:17:798,0,-9.38345,1.30736,-35.5597
2023-03-11 22:52:17:808,0,-9.36136,1.33117,-35.5757
2023-03-11 22:52:17:818,0,-9.3385,1.35973,-35.5951
2023-03-11 22:52:17:827,0,-9.31374,1.38821,-35.6226
2023-03-11 22:52:17:837,0,-9.29036,1.41525,-35.6523
2023-03-11 22:52:17:847,0,-9.26835,1.43962,-35.685
2023-03-11 22:52:17:857,0,-9.25655,1.46091,-35.7216
2023-03-11 22:52:17:867,0,-9.24433,1.48484,-35.7568
2023-03-11 22:52:17:877,0,-9.23962,1.50175,-35.7923
2023-03-11 22:52:17:887,0,-9.24439,1.51715,-35.8276
2023-03-11 22:52:17:897,0,-9.25266,1.53075,-35.8608
2023-03-11 22:52:17:907,0,-9.26349,1.54157,-35.8895
2023-03-11 22:52:17:918,0,-9.27208,1.55271,-35.9221
2023-03-11 22:52:17:928,0,-9.27535,1.56157,-35.957
2023-03-11 22:52:17:938,0,-9.27612,1.57407,-35.9933
2023-03-11 22:52:17:948,0,-9.27633,1.5862,-36.0311
2023-03-11 22:52:17:958,0,-9.27148,1.58919,-36.0674
2023-03-11 22:52:17:968,0,-9.26744,1.59198,-36.112
2023-03-11 22:52:17:978,0,-9.26152,1.59441,-36.1546
2023-03-11 22:52:17:987,0,-9.25173,1.60471,-36.1853
2023-03-11 22:52:17:997,0,-9.22028,1.62108,-36.1903
2023-03-11 22:52:18:7,0,-9.17435,1.63549,-36.159
2023-03-11 22:52:18:18,0,-9.11218,1.64489,-36.0981
2023-03-11 22:52:18:28,0,-9.03547,1.65234,-36.021
2023-03-11 22:52:18:38,0,-8.95793,1.66829,-35.9496
2023-03-11 22:52:18:48,0,-8.88711,1.69418,-35.8837
2023-03-11 22:52:18:58,0,-8.83017,1.72946,-35.8258
2023-03-11 22:52:18:68,0,-8.79461,1.76237,-35.7863
2023-03-11 22:52:18:78,0,-8.77243,1.79045,-35.7651
2023-03-11 22:52:18:88,0,-8.75523,1.80567,-35.7674
2023-03-11 22:52:18:98,0,-8.74064,1.80038,-35.7951
2023-03-11 22:52:18:108,0,-8.72794,1.78334,-35.8571
2023-03-11 22:52:18:118,0,-8.71761,1.75289,-35.9473
2023-03-11 22:52:18:127,0,-8.70961,1.71388,-36.0572
2023-03-11 22:52:18:137,0,-8.70409,1.6631,-36.1834
2023-03-11 22:52:18:148,0,-8.69843,1.60558,-36.3293
2023-03-11 22:52:18:157,0,-8.69645,1.53996,-36.4849
2023-03-11 22:52:18:168,0,-8.69947,1.467,-36.6611
2023-03-11 22:52:18:178,0,-8.71128,1.38742,-36.8562
2023-03-11 22:52:18:188,0,-8.72461,1.29435,-37.0689
2023-03-11 22:52:18:198,0,-8.7412,1.20507,-37.3102
2023-03-11 22:52:18:208,0,-8.75838,1.12263,-37.5672
2023-03-11 22:52:18:218,0,-8.77123,1.05012,-37.822
2023-03-11 22:52:18:227,0,-8.77535,0.988306,-38.0725
2023-03-11 22:52:18:238,0,-8.77743,0.935966,-38.3132
2023-03-11 22:52:18:248,0,-8.77386,0.891471,-38.5453
2023-03-11 22:52:18:258,0,-8.76338,0.850803,-38.7718
2023-03-11 22:52:18:268,0,-8.75125,0.818598,-38.9966
2023-03-11 22:52:18:278,0,-8.74241,0.79585,-39.2157
2023-03-11 22:52:18:288,0,-8.74473,0.777876,-39.4332
2023-03-11 22:52:18:298,0,-8.75363,0.764936,-39.6479
2023-03-11 22:52:18:308,0,-8.77008,0.753948,-39.8525
2023-03-11 22:52:18:317,0,-8.79159,0.742992,-40.0549
2023-03-11 22:52:18:327,0,-8.81286,0.733802,-40.2496
2023-03-11 22:52:18:337,0,-8.82917,0.725941,-40.4422
2023-03-11 22:52:18:347,0,-8.84199,0.722162,-40.6302
2023-03-11 22:52:18:357,0,-8.8501,0.720608,-40.8127
2023-03-11 22:52:18:367,0,-8.8527,0.719768,-40.9903
2023-03-11 22:52:18:377,0,-8.8526,0.726713,-41.1539
2023-03-11 22:52:18:387,0,-8.852,0.737488,-41.3015
2023-03-11 22:52:18:397,0,-8.85524,0.751173,-41.4232
2023-03-11 22:52:18:407,0,-8.86147,0.772513,-41.5132
2023-03-11 22:52:18:417,0,-8.87227,0.78917,-41.5728
2023-03-11 22:52:18:427,0,-8.87306,0.80813,-41.5993
2023-03-11 22:52:18:438,0,-8.87154,0.826083,-41.6078
2023-03-11 22:52:18:447,0,-8.86369,0.84244,-41.6065
2023-03-11 22:52:18:458,0,-8.84982,0.862733,-41.5991
2023-03-11 22:52:18:468,0,-8.84114,0.891571,-41.585
2023-03-11 22:52:18:478,0,-8.82674,0.91414,-41.5647
2023-03-11 22:52:18:487,0,-8.815,0.93043,-41.5424
2023-03-11 22:52:18:498,0,-8.80202,0.946636,-41.5132
2023-03-11 22:52:18:507,0,-8.78463,0.961009,-41.4842
2023-03-11 22:52:18:517,0,-8.77244,0.975107,-41.4508
2023-03-11 22:52:18:527,0,-8.75582,0.984017,-41.4094
2023-03-11 22:52:18:537,0,-8.73853,0.990819,-41.3636
2023-03-11 22:52:18:547,0,-8.71939,1.00165,-41.3016
2023-03-11 22:52:18:558,0,-8.69633,1.01816,-41.2294
2023-03-11 22:52:18:567,0,-8.67455,1.03472,-41.1423
2023-03-11 22:52:18:578,0,-8.65579,1.05148,-41.0443
2023-03-11 22:52:18:588,0,-8.63515,1.07472,-40.938
2023-03-11 22:52:18:598,0,-8.6161,1.10122,-40.824
2023-03-11 22:52:18:607,0,-8.59499,1.13096,-40.6993
2023-03-11 22:52:18:618,0,-8.57619,1.16476,-40.5592
2023-03-11 22:52:18:628,0,-8.55759,1.2014,-40.4044
2023-03-11 22:52:18:638,0,-8.54186,1.2435,-40.2335
2023-03-11 22:52:18:647,0,-8.52361,1.28828,-40.0425
2023-03-11 22:52:18:657,0,-8.50893,1.33098,-39.843
2023-03-11 22:52:18:668,0,-8.49506,1.36933,-39.6447
2023-03-11 22:52:18:677,0,-8.47246,1.40472,-39.4607
2023-03-11 22:52:18:687,0,-8.44828,1.43343,-39.2991
2023-03-11 22:52:18:697,0,-8.43421,1.45483,-39.1682
2023-03-11 22:52:18:707,0,-8.42446,1.47279,-39.0698
2023-03-11 22:52:18:718,0,-8.42112,1.48349,-38.9912
2023-03-11 22:52:18:727,0,-8.42384,1.47873,-38.9291
2023-03-11 22:52:18:738,0,-8.4309,1.45969,-38.889
2023-03-11 22:52:18:747,0,-8.44076,1.43656,-38.8663
2023-03-11 22:52:18:758,0,-8.45008,1.40956,-38.8543
2023-03-11 22:52:18:768,0,-8.46186,1.38404,-38.8532
2023-03-11 22:52:18:778,0,-8.47561,1.3585,-38.8588
2023-03-11 22:52:18:788,0,-8.48872,1.33849,-38.8644
2023-03-11 22:52:18:798,0,-8.50288,1.3165,-38.8649
2023-03-11 22:52:18:807,0,-8.51392,1.29483,-38.8592
2023-03-11 22:52:18:818,0,-8.51544,1.27472,-38.8508
2023-03-11 22:52:18:827,0,-8.51394,1.25618,-38.8315
2023-03-11 22:52:18:838,0,-8.51443,1.23977,-38.803
2023-03-11 22:52:18:848,0,-8.51135,1.22275,-38.7666
2023-03-11 22:52:18:857,0,-8.50549,1.20982,-38.7215
2023-03-11 22:52:18:867,0,-8.49825,1.19706,-38.6702
2023-03-11 22:52:18:877,0,-8.48593,1.18843,-38.6159
2023-03-11 22:52:18:887,0,-8.47876,1.19059,-38.5594
2023-03-11 22:52:18:897,0,-8.47123,1.19276,-38.5
2023-03-11 22:52:18:907,0,-8.46557,1.20175,-38.4376
2023-03-11 22:52:18:917,0,-8.46133,1.21295,-38.3734
2023-03-11 22:52:18:927,0,-8.45228,1.22847,-38.3106
2023-03-11 22:52:18:937,0,-8.44703,1.2438,-38.2448
2023-03-11 22:52:18:948,0,-8.4453,1.25857,-38.1851
2023-03-11 22:52:18:958,0,-8.44291,1.27276,-38.1268
2023-03-11 22:52:18:967,0,-8.43998,1.28931,-38.0664
2023-03-11 22:52:18:978,0,-8.43582,1.30562,-38.0134
2023-03-11 22:52:18:988,0,-8.43599,1.31743,-37.9608
2023-03-11 22:52:18:998,0,-8.43529,1.32647,-37.9105
2023-03-11 22:52:19:8,0,-8.4321,1.33083,-37.859
2023-03-11 22:52:19:18,0,-8.43111,1.32538,-37.8122
2023-03-11 22:52:19:28,0,-8.43726,1.32007,-37.771
2023-03-11 22:52:19:38,0,-8.44667,1.31757,-37.7341
2023-03-11 22:52:19:48,0,-8.46265,1.31159,-37.7061
2023-03-11 22:52:19:58,0,-8.48241,1.30657,-37.6822
2023-03-11 22:52:19:68,0,-8.50579,1.3027,-37.6616
2023-03-11 22:52:19:77,0,-8.53264,1.30446,-37.6536
2023-03-11 22:52:19:87,0,-8.54828,1.3082,-37.6545
2023-03-11 22:52:19:97,0,-8.55297,1.32023,-37.6635
2023-03-11 22:52:19:108,0,-8.54951,1.33708,-37.6847
2023-03-11 22:52:19:117,0,-8.54586,1.36058,-37.7079
2023-03-11 22:52:19:128,0,-8.53876,1.38493,-37.7394
2023-03-11 22:52:19:137,0,-8.52781,1.4115,-37.7699
2023-03-11 22:52:19:148,0,-8.51872,1.43814,-37.7983
2023-03-11 22:52:19:157,0,-8.51663,1.46223,-37.822
2023-03-11 22:52:19:168,0,-8.51985,1.48588,-37.8347
2023-03-11 22:52:19:177,0,-8.52788,1.50758,-37.8401
2023-03-11 22:52:19:187,0,-8.52999,1.52428,-37.838
2023-03-11 22:52:19:197,0,-8.53424,1.54478,-37.8315
2023-03-11 22:52:19:207,0,-8.53521,1.56753,-37.8164
2023-03-11 22:52:19:218,0,-8.53461,1.5912,-37.8
2023-03-11 22:52:19:228,0,-8.52997,1.61221,-37.7806
2023-03-11 22:52:19:238,0,-8.52677,1.6283,-37.7636
2023-03-11 22:52:19:248,0,-8.51933,1.63554,-37.7414
2023-03-11 22:52:19:258,0,-8.51033,1.64434,-37.7241
2023-03-11 22:52:19:268,0,-8.50151,1.64839,-37.7087
2023-03-11 22:52:19:278,0,-8.48666,1.64833,-37.6943
2023-03-11 22:52:19:288,0,-8.46806,1.6498,-37.6831
2023-03-11 22:52:19:298,0,-8.44996,1.64572,-37.668
2023-03-11 22:52:19:307,0,-8.42862,1.64251,-37.6557
2023-03-11 22:52:19:318,0,-8.40887,1.6348,-37.6361
2023-03-11 22:52:19:328,0,-8.38921,1.62351,-37.6149
2023-03-11 22:52:19:337,0,-8.36455,1.61244,-37.589
2023-03-11 22:52:19:348,0,-8.3433,1.59751,-37.5597
2023-03-11 22:52:19:358,0,-8.32085,1.58322,-37.5257
2023-03-11 22:52:19:367,0,-8.30579,1.5679,-37.4901
2023-03-11 22:52:19:377,0,-8.29646,1.55243,-37.4535
2023-03-11 22:52:19:387,0,-8.28925,1.53815,-37.4134
2023-03-11 22:52:19:397,0,-8.28985,1.52238,-37.3735
2023-03-11 22:52:19:407,0,-8.29475,1.5108,-37.3386
2023-03-11 22:52:19:417,0,-8.30035,1.49751,-37.3053
2023-03-11 22:52:19:427,0,-8.3061,1.48403,-37.2772
2023-03-11 22:52:19:438,0,-8.30868,1.47184,-37.2563
2023-03-11 22:52:19:447,0,-8.31305,1.46041,-37.239
2023-03-11 22:52:19:458,0,-8.31342,1.45153,-37.2304
2023-03-11 22:52:19:468,0,-8.31246,1.44598,-37.2284
2023-03-11 22:52:19:478,0,-8.31373,1.44421,-37.2285
2023-03-11 22:52:19:488,0,-8.30957,1.44222,-37.2356
2023-03-11 22:52:19:498,0,-8.30445,1.4431,-37.2481
2023-03-11 22:52:19:508,0,-8.29775,1.4415,-37.262
2023-03-11 22:52:19:517,0,-8.28942,1.44337,-37.2769
2023-03-11 22:52:19:527,0,-8.2773,1.44831,-37.2946
2023-03-11 22:52:19:538,0,-8.26973,1.44868,-37.3096
2023-03-11 22:52:19:547,0,-8.25981,1.45732,-37.324
2023-03-11 22:52:19:557,0,-8.2548,1.46526,-37.3367
2023-03-11 22:52:19:567,0,-8.25028,1.47504,-37.3473
2023-03-11 22:52:19:577,0,-8.24232,1.48647,-37.3536
2023-03-11 22:52:19:588,0,-8.23589,1.49295,-37.3568
2023-03-11 22:52:19:597,0,-8.22585,1.49922,-37.3603
2023-03-11 22:52:19:607,0,-8.21596,1.50765,-37.3618
2023-03-11 22:52:19:617,0,-8.20938,1.51332,-37.3641
2023-03-11 22:52:19:628,0,-8.20772,1.52043,-37.3598
2023-03-11 22:52:19:638,0,-8.20915,1.52668,-37.3517
2023-03-11 22:52:19:647,0,-8.21303,1.53363,-37.3447
2023-03-11 22:52:19:658,0,-8.21394,1.53861,-37.3406
2023-03-11 22:52:19:668,0,-8.2161,1.54522,-37.334
2023-03-11 22:52:19:677,0,-8.22289,1.5564,-37.3257
2023-03-11 22:52:19:687,0,-8.23145,1.56463,-37.3175
2023-03-11 22:52:19:698,0,-8.23993,1.56854,-37.3131
2023-03-11 22:52:19:707,0,-8.25274,1.57529,-37.3062
2023-03-11 22:52:19:718,0,-8.27014,1.58162,-37.2975
2023-03-11 22:52:19:728,0,-8.28622,1.58512,-37.293
2023-03-11 22:52:19:738,0,-8.29772,1.58651,-37.2807
2023-03-11 22:52:19:748,0,-8.31207,1.57805,-37.2684
2023-03-11 22:52:19:758,0,-8.32797,1.56356,-37.2532
2023-03-11 22:52:19:768,0,-8.34977,1.55109,-37.2382
2023-03-11 22:52:19:777,0,-8.37855,1.53774,-37.2207
2023-03-11 22:52:19:787,0,-8.40194,1.52301,-37.1973
2023-03-11 22:52:19:797,0,-8.43043,1.51323,-37.1787
2023-03-11 22:52:19:807,0,-8.45848,1.50462,-37.1536
2023-03-11 22:52:19:818,0,-8.49005,1.49951,-37.1307
2023-03-11 22:52:19:827,0,-8.51987,1.49573,-37.1098
2023-03-11 22:52:19:837,0,-8.54389,1.49093,-37.0919
2023-03-11 22:52:19:848,0,-8.56163,1.48742,-37.0762
2023-03-11 22:52:19:858,0,-8.57202,1.48615,-37.0609
2023-03-11 22:52:19:868,0,-8.58482,1.48332,-37.0503
2023-03-11 22:52:19:878,0,-8.59605,1.47704,-37.0441
2023-03-11 22:52:19:887,0,-8.60868,1.47271,-37.0458
2023-03-11 22:52:19:897,0,-8.61986,1.47014,-37.0504
2023-03-11 22:52:19:907,0,-8.63193,1.46702,-37.0568
2023-03-11 22:52:19:917,0,-8.64968,1.46581,-37.0717
2023-03-11 22:52:19:928,0,-8.67103,1.46696,-37.0877
2023-03-11 22:52:19:938,0,-8.69599,1.47127,-37.1062
2023-03-11 22:52:19:947,0,-8.72365,1.47978,-37.1286
2023-03-11 22:52:19:958,0,-8.74714,1.49229,-37.1488
2023-03-11 22:52:19:967,0,-8.76668,1.50328,-37.1628
2023-03-11 22:52:19:978,0,-8.77908,1.50855,-37.1689
2023-03-11 22:52:19:988,0,-8.78533,1.51438,-37.1738
2023-03-11 22:52:19:998,0,-8.79481,1.52025,-37.1748
2023-03-11 22:52:20:8,0,-8.80241,1.52756,-37.1743
2023-03-11 22:52:20:18,0,-8.80695,1.53444,-37.176
2023-03-11 22:52:20:28,0,-8.81269,1.5432,-37.1758
2023-03-11 22:52:20:38,0,-8.8117,1.54709,-37.1746
2023-03-11 22:52:20:48,0,-8.81306,1.55158,-37.1729
2023-03-11 22:52:20:58,0,-8.81039,1.5556,-37.1684
2023-03-11 22:52:20:68,0,-8.81491,1.55676,-37.1642
2023-03-11 22:52:20:78,0,-8.81256,1.55228,-37.1621
2023-03-11 22:52:20:88,0,-8.81116,1.54855,-37.1586
2023-03-11 22:52:20:98,0,-8.81313,1.54361,-37.1561
2023-03-11 22:52:20:108,0,-8.81795,1.53619,-37.1537
2023-03-11 22:52:20:118,0,-8.82143,1.52716,-37.1471
2023-03-11 22:52:20:127,0,-8.82326,1.51651,-37.1448
2023-03-11 22:52:20:138,0,-8.82223,1.50988,-37.1375
2023-03-11 22:52:20:148,0,-8.82093,1.50071,-37.1306
2023-03-11 22:52:20:158,0,-8.82088,1.49623,-37.12
2023-03-11 22:52:20:168,0,-8.82074,1.49038,-37.1107
2023-03-11 22:52:20:178,0,-8.81917,1.49056,-37.0994
2023-03-11 22:52:20:188,0,-8.82409,1.4872,-37.0836
2023-03-11 22:52:20:198,0,-8.8299,1.48151,-37.0721
2023-03-11 22:52:20:207,0,-8.8359,1.47892,-37.0637
2023-03-11 22:52:20:218,0,-8.83808,1.47561,-37.0569
2023-03-11 22:52:20:227,0,-8.83835,1.47564,-37.0518
2023-03-11 22:52:20:237,0,-8.83872,1.47146,-37.05
2023-03-11 22:52:20:247,0,-8.83868,1.46208,-37.0456
2023-03-11 22:52:20:258,0,-8.83433,1.45556,-37.0424
2023-03-11 22:52:20:268,0,-8.82832,1.44748,-37.0429
2023-03-11 22:52:20:278,0,-8.82083,1.43717,-37.0437
2023-03-11 22:52:20:288,0,-8.81702,1.42739,-37.0461
2023-03-11 22:52:20:298,0,-8.80994,1.41956,-37.046
2023-03-11 22:52:20:307,0,-8.80392,1.41257,-37.047
2023-03-11 22:52:20:318,0,-8.79855,1.40489,-37.0442
2023-03-11 22:52:20:327,0,-8.79195,1.39673,-37.0406
2023-03-11 22:52:20:338,0,-8.78258,1.39277,-37.0337
2023-03-11 22:52:20:348,0,-8.77607,1.38832,-37.0253
2023-03-11 22:52:20:358,0,-8.76687,1.38207,-37.019
2023-03-11 22:52:20:367,0,-8.75478,1.37559,-37.0087
2023-03-11 22:52:20:377,0,-8.74562,1.36752,-36.9971
2023-03-11 22:52:20:388,0,-8.73375,1.36032,-36.9843
2023-03-11 22:52:20:398,0,-8.72145,1.35594,-36.9722
2023-03-11 22:52:20:407,0,-8.71037,1.34863,-36.9654
2023-03-11 22:52:20:418,0,-8.69974,1.33728,-36.9599
2023-03-11 22:52:20:427,0,-8.68636,1.32859,-36.9536
2023-03-11 22:52:20:437,0,-8.6796,1.3248,-36.9494
2023-03-11 22:52:20:447,0,-8.68002,1.32026,-36.9487
2023-03-11 22:52:20:458,0,-8.68157,1.31216,-36.9474
2023-03-11 22:52:20:468,0,-8.67916,1.30215,-36.9457
2023-03-11 22:52:20:478,0,-8.67394,1.2914,-36.9395
2023-03-11 22:52:20:487,0,-8.66467,1.27356,-36.9354
2023-03-11 22:52:20:498,0,-8.66466,1.25593,-36.9278
2023-03-11 22:52:20:507,0,-8.66688,1.23915,-36.9204
2023-03-11 22:52:20:518,0,-8.67432,1.2244,-36.9105
2023-03-11 22:52:20:528,0,-8.68641,1.21623,-36.9037
2023-03-11 22:52:20:538,0,-8.70155,1.20448,-36.8955
2023-03-11 22:52:20:548,0,-8.71493,1.19435,-36.887
2023-03-11 22:52:20:558,0,-8.72217,1.18904,-36.8815
2023-03-11 22:52:20:568,0,-8.7255,1.18355,-36.8796
2023-03-11 22:52:20:578,0,-8.72501,1.18297,-36.8767
2023-03-11 22:52:20:588,0,-8.7276,1.18055,-36.8752
2023-03-11 22:52:20:598,0,-8.73023,1.17443,-36.8745
2023-03-11 22:52:20:608,0,-8.73629,1.16826,-36.8741
2023-03-11 22:52:20:618,0,-8.74481,1.16451,-36.8757
2023-03-11 22:52:20:628,0,-8.75848,1.16289,-36.882
2023-03-11 22:52:20:638,0,-8.77414,1.16418,-36.8904
2023-03-11 22:52:20:648,0,-8.79254,1.16368,-36.8957
2023-03-11 22:52:20:658,0,-8.81006,1.16453,-36.9021
2023-03-11 22:52:20:668,0,-8.82638,1.1737,-36.908
2023-03-11 22:52:20:677,0,-8.84461,1.18348,-36.9156
2023-03-11 22:52:20:688,0,-8.85735,1.1958,-36.921
2023-03-11 22:52:20:698,0,-8.86588,1.2048,-36.9248
2023-03-11 22:52:20:708,0,-8.86923,1.21225,-36.93
2023-03-11 22:52:20:718,0,-8.87714,1.21869,-36.9351
2023-03-11 22:52:20:727,0,-8.88637,1.22539,-36.943
2023-03-11 22:52:20:737,0,-8.89373,1.22972,-36.9549
2023-03-11 22:52:20:747,0,-8.89969,1.23626,-36.9665
2023-03-11 22:52:20:758,0,-8.90525,1.24358,-36.9779
2023-03-11 22:52:20:767,0,-8.91005,1.24798,-36.9863
2023-03-11 22:52:20:778,0,-8.90868,1.25544,-36.992
2023-03-11 22:52:20:788,0,-8.90505,1.25937,-37.0002
2023-03-11 22:52:20:798,0,-8.90139,1.26453,-37.0021
2023-03-11 22:52:20:808,0,-8.89834,1.2645,-37.0019
2023-03-11 22:52:20:818,0,-8.89296,1.26416,-37.0026
2023-03-11 22:52:20:827,0,-8.89027,1.26479,-37.0028
2023-03-11 22:52:20:838,0,-8.88854,1.26378,-36.9998
2023-03-11 22:52:20:848,0,-8.89065,1.26394,-36.9942
2023-03-11 22:52:20:858,0,-8.89543,1.26462,-36.9906
2023-03-11 22:52:20:868,0,-8.90611,1.26288,-36.9814
2023-03-11 22:52:20:878,0,-8.91849,1.26171,-36.9712
2023-03-11 22:52:20:888,0,-8.93257,1.2644,-36.9625
2023-03-11 22:52:20:898,0,-8.94565,1.26468,-36.955
2023-03-11 22:52:20:908,0,-8.95836,1.26165,-36.95
2023-03-11 22:52:20:917,0,-8.97236,1.2621,-36.9417
2023-03-11 22:52:20:927,0,-8.98462,1.26589,-36.9347
2023-03-11 22:52:20:937,0,-8.99793,1.26696,-36.9232
2023-03-11 22:52:20:947,0,-9.01343,1.27046,-36.9143
2023-03-11 22:52:20:958,0,-9.02841,1.27269,-36.9042
2023-03-11 22:52:20:968,0,-9.04042,1.27375,-36.8945
2023-03-11 22:52:20:978,0,-9.04932,1.27758,-36.8851
2023-03-11 22:52:20:987,0,-9.04988,1.27679,-36.8835
2023-03-11 22:52:20:998,0,-9.04571,1.27762,-36.8803
2023-03-11 22:52:21:8,0,-9.03696,1.27674,-36.8771
2023-03-11 22:52:21:18,0,-9.02901,1.2774,-36.8793
2023-03-11 22:52:21:28,0,-9.02277,1.28068,-36.8799
2023-03-11 22:52:21:37,0,-9.01685,1.28501,-36.8776
2023-03-11 22:52:21:47,0,-9.01071,1.28977,-36.8803
2023-03-11 22:52:21:58,0,-9.0106,1.29203,-36.8805
2023-03-11 22:52:21:67,0,-9.01376,1.29883,-36.8822
2023-03-11 22:52:21:77,0,-9.01737,1.30382,-36.8829
2023-03-11 22:52:21:87,0,-9.01491,1.30563,-36.8823
2023-03-11 22:52:21:98,0,-9.0108,1.30622,-36.8788
2023-03-11 22:52:21:108,0,-9.00525,1.30715,-36.8782
2023-03-11 22:52:21:118,0,-8.99564,1.30551,-36.8778
2023-03-11 22:52:21:128,0,-8.98385,1.30383,-36.8822
2023-03-11 22:52:21:138,0,-8.978,1.30518,-36.8832
2023-03-11 22:52:21:148,0,-8.97315,1.30384,-36.8871
2023-03-11 22:52:21:157,0,-8.97069,1.30336,-36.8928
2023-03-11 22:52:21:168,0,-8.96973,1.30366,-36.8966
2023-03-11 22:52:21:178,0,-8.96747,1.30802,-36.9041
2023-03-11 22:52:21:187,0,-8.96931,1.30939,-36.9079
2023-03-11 22:52:21:197,0,-8.9695,1.30638,-36.9094
2023-03-11 22:52:21:207,0,-8.97107,1.3019,-36.9063
2023-03-11 22:52:21:218,0,-8.9744,1.29974,-36.9077
2023-03-11 22:52:21:228,0,-8.97937,1.29743,-36.9082
2023-03-11 22:52:21:238,0,-8.98456,1.29307,-36.9048
2023-03-11 22:52:21:247,0,-8.98815,1.29822,-36.9035
2023-03-11 22:52:21:258,0,-8.99077,1.30152,-36.903
2023-03-11 22:52:21:268,0,-8.99526,1.30575,-36.9034
2023-03-11 22:52:21:278,0,-8.99615,1.31179,-36.9049
2023-03-11 22:52:21:288,0,-8.99269,1.31876,-36.9111
2023-03-11 22:52:21:298,0,-8.98827,1.33007,-36.9177
2023-03-11 22:52:21:308,0,-8.98332,1.34309,-36.9334
2023-03-11 22:52:21:318,0,-8.987,1.35314,-36.9511
2023-03-11 22:52:21:328,0,-8.98742,1.36291,-36.9703
2023-03-11 22:52:21:337,0,-8.99132,1.37177,-36.9913
2023-03-11 22:52:21:348,0,-8.99843,1.38433,-37.0106
2023-03-11 22:52:21:357,0,-9.00523,1.39521,-37.0267
2023-03-11 22:52:21:368,0,-9.01704,1.40462,-37.0432
2023-03-11 22:52:21:377,0,-9.03093,1.4107,-37.0539
2023-03-11 22:52:21:388,0,-9.03921,1.42112,-37.0644
2023-03-11 22:52:21:398,0,-9.04575,1.43143,-37.074
2023-03-11 22:52:21:408,0,-9.04988,1.44754,-37.0835
2023-03-11 22:52:21:418,0,-9.05465,1.45832,-37.0867
2023-03-11 22:52:21:427,0,-9.05477,1.46367,-37.0848
2023-03-11 22:52:21:437,0,-9.05404,1.46306,-37.0863
2023-03-11 22:52:21:447,0,-9.05413,1.46026,-37.0905
2023-03-11 22:52:21:457,0,-9.05505,1.46416,-37.0933
2023-03-11 22:52:21:468,0,-9.05349,1.46824,-37.0967
2023-03-11 22:52:21:478,0,-9.05217,1.46925,-37.0985
2023-03-11 22:52:21:488,0,-9.04898,1.4721,-37.0975
2023-03-11 22:52:21:498,0,-9.04559,1.47322,-37.0971
2023-03-11 22:52:21:508,0,-9.03667,1.47906,-37.099
2023-03-11 22:52:21:518,0,-9.03413,1.48534,-37.1029
2023-03-11 22:52:21:528,0,-9.03311,1.4912,-37.1099
2023-03-11 22:52:21:538,0,-9.02816,1.5036,-37.1171
2023-03-11 22:52:21:548,0,-9.029,1.51286,-37.131
2023-03-11 22:52:21:558,0,-9.02711,1.52372,-37.1498
2023-03-11 22:52:21:567,0,-9.02103,1.5331,-37.1684
2023-03-11 22:52:21:578,0,-9.02036,1.54061,-37.1844
2023-03-11 22:52:21:588,0,-9.01605,1.54879,-37.2035
2023-03-11 22:52:21:598,0,-9.01736,1.55356,-37.217
2023-03-11 22:52:21:608,0,-9.01831,1.55929,-37.2284
2023-03-11 22:52:21:618,0,-9.02003,1.56783,-37.2406
2023-03-11 22:52:21:628,0,-9.01965,1.57544,-37.2506
2023-03-11 22:52:21:638,0,-9.01676,1.58214,-37.2557
2023-03-11 22:52:21:648,0,-9.01494,1.59148,-37.2585
2023-03-11 22:52:21:658,0,-9.01531,1.59819,-37.2596
2023-03-11 22:52:21:668,0,-9.01696,1.60691,-37.259
2023-03-11 22:52:21:678,0,-9.01353,1.61065,-37.26
2023-03-11 22:52:21:687,0,-9.01596,1.61841,-37.2637
2023-03-11 22:52:21:698,0,-9.01606,1.62487,-37.2665
2023-03-11 22:52:21:708,0,-9.01689,1.62852,-37.2713
2023-03-11 22:52:21:718,0,-9.02335,1.63205,-37.2743
2023-03-11 22:52:21:728,0,-9.03273,1.63435,-37.2701
2023-03-11 22:52:21:738,0,-9.04624,1.63628,-37.2669
2023-03-11 22:52:21:748,0,-9.06285,1.63881,-37.2601
2023-03-11 22:52:21:758,0,-9.0768,1.64206,-37.2551
2023-03-11 22:52:21:768,0,-9.08396,1.64582,-37.2479
2023-03-11 22:52:21:778,0,-9.084,1.64995,-37.2419
2023-03-11 22:52:21:787,0,-9.08027,1.6547,-37.2405
2023-03-11 22:52:21:798,0,-9.06898,1.66331,-37.2362
2023-03-11 22:52:21:808,0,-9.05056,1.67329,-37.2347
2023-03-11 22:52:21:818,0,-9.02746,1.68583,-37.2366
2023-03-11 22:52:21:828,0,-9.00384,1.69627,-37.2438
2023-03-11 22:52:21:838,0,-8.98275,1.70851,-37.2598
2023-03-11 22:52:21:848,0,-8.95999,1.72277,-37.2795
2023-03-11 22:52:21:858,0,-8.93547,1.73545,-37.303
2023-03-11 22:52:21:868,0,-8.91347,1.7507,-37.3302
2023-03-11 22:52:21:878,0,-8.89607,1.76348,-37.3556
2023-03-11 22:52:21:888,0,-8.88266,1.77577,-37.3812
2023-03-11 22:52:21:898,0,-8.86794,1.78633,-37.403
2023-03-11 22:52:21:908,0,-8.85367,1.79993,-37.4234
2023-03-11 22:52:21:917,0,-8.84136,1.80735,-37.4346
2023-03-11 22:52:21:927,0,-8.82833,1.80931,-37.4406
2023-03-11 22:52:21:937,0,-8.82446,1.81059,-37.4405
2023-03-11 22:52:21:947,0,-8.82176,1.81382,-37.4411
2023-03-11 22:52:21:957,0,-8.82164,1.82486,-37.4325
2023-03-11 22:52:21:967,0,-8.82667,1.8325,-37.4215
2023-03-11 22:52:21:978,0,-8.83179,1.83979,-37.4079
2023-03-11 22:52:21:987,0,-8.83435,1.84753,-37.3963
2023-03-11 22:52:21:998,0,-8.83287,1.85339,-37.3846
2023-03-11 22:52:22:8,0,-8.82427,1.86078,-37.3762
2023-03-11 22:52:22:18,0,-8.81017,1.8653,-37.3676
2023-03-11 22:52:22:27,0,-8.79175,1.86994,-37.3646
2023-03-11 22:52:22:38,0,-8.77316,1.87411,-37.3679
2023-03-11 22:52:22:47,0,-8.75152,1.87654,-37.3759
2023-03-11 22:52:22:58,0,-8.73708,1.87996,-37.3862
2023-03-11 22:52:22:68,0,-8.72391,1.88131,-37.4002
2023-03-11 22:52:22:78,0,-8.71465,1.883,-37.4147
2023-03-11 22:52:22:87,0,-8.70334,1.88618,-37.428
2023-03-11 22:52:22:97,0,-8.69271,1.88977,-37.4404
2023-03-11 22:52:22:107,0,-8.68275,1.89606,-37.452
2023-03-11 22:52:22:118,0,-8.67112,1.90578,-37.4629
2023-03-11 22:52:22:128,0,-8.65715,1.91648,-37.4686
2023-03-11 22:52:22:138,0,-8.64699,1.92368,-37.4677
2023-03-11 22:52:22:148,0,-8.6373,1.92713,-37.462
2023-03-11 22:52:22:158,0,-8.62596,1.93259,-37.4561
2023-03-11 22:52:22:167,0,-8.61618,1.93621,-37.4521
2023-03-11 22:52:22:177,0,-8.60855,1.93899,-37.4488
2023-03-11 22:52:22:188,0,-8.60168,1.94399,-37.4466
2023-03-11 22:52:22:198,0,-8.59834,1.94769,-37.4401
2023-03-11 22:52:22:208,0,-8.59621,1.94932,-37.4357
2023-03-11 22:52:22:217,0,-8.59217,1.95164,-37.4279
2023-03-11 22:52:22:228,0,-8.58803,1.95481,-37.4228
2023-03-11 22:52:22:238,0,-8.57937,1.95197,-37.4148
2023-03-11 22:52:22:247,0,-8.56838,1.94937,-37.4028
2023-03-11 22:52:22:258,0,-8.55565,1.94272,-37.3902
2023-03-11 22:52:22:268,0,-8.54061,1.93267,-37.3757
2023-03-11 22:52:22:277,0,-8.52765,1.91993,-37.362
2023-03-11 22:52:22:287,0,-8.51797,1.90994,-37.3515
2023-03-11 22:52:22:297,0,-8.51284,1.89712,-37.3405
2023-03-11 22:52:22:308,0,-8.51084,1.88664,-37.3293
2023-03-11 22:52:22:318,0,-8.5119,1.87488,-37.3214
2023-03-11 22:52:22:328,0,-8.51358,1.86319,-37.3091
2023-03-11 22:52:22:338,0,-8.5137,1.85126,-37.2947
2023-03-11 22:52:22:347,0,-8.51373,1.8407,-37.2798
2023-03-11 22:52:22:358,0,-8.51264,1.83181,-37.2655
2023-03-11 22:52:22:368,0,-8.51328,1.8281,-37.2528
2023-03-11 22:52:22:377,0,-8.51837,1.82188,-37.2379
2023-03-11 22:52:22:388,0,-8.52437,1.82187,-37.2319
2023-03-11 22:52:22:397,0,-8.52842,1.82526,-37.2272
2023-03-11 22:52:22:407,0,-8.53209,1.82552,-37.2227
2023-03-11 22:52:22:417,0,-8.53421,1.82316,-37.2229
2023-03-11 22:52:22:428,0,-8.54127,1.82209,-37.2259
2023-03-11 22:52:22:438,0,-8.54244,1.82312,-37.2319
2023-03-11 22:52:22:448,0,-8.54693,1.81811,-37.2388
2023-03-11 22:52:22:457,0,-8.5519,1.81461,-37.2458
2023-03-11 22:52:22:467,0,-8.55546,1.81159,-37.2521
2023-03-11 22:52:22:478,0,-8.55829,1.80879,-37.2601
2023-03-11 22:52:22:487,0,-8.55954,1.80572,-37.2694
2023-03-11 22:52:22:498,0,-8.56193,1.80263,-37.2799
2023-03-11 22:52:22:508,0,-8.56116,1.80297,-37.2865
2023-03-11 22:52:22:518,0,-8.5567,1.80034,-37.2868
2023-03-11 22:52:22:527,0,-8.54946,1.79878,-37.2878
2023-03-11 22:52:22:538,0,-8.54179,1.79757,-37.2893
2023-03-11 22:52:22:548,0,-8.53773,1.79864,-37.293
2023-03-11 22:52:22:558,0,-8.53037,1.79921,-37.2955
2023-03-11 22:52:22:568,0,-8.5252,1.80104,-37.2972
2023-03-11 22:52:22:578,0,-8.51689,1.80378,-37.3007
2023-03-11 22:52:22:587,0,-8.50901,1.80665,-37.3057
2023-03-11 22:52:22:598,0,-8.50579,1.80544,-37.3106
2023-03-11 22:52:22:608,0,-8.5066,1.80533,-37.3192
2023-03-11 22:52:22:618,0,-8.50399,1.80137,-37.3245
2023-03-11 22:52:22:628,0,-8.49907,1.7914,-37.3221
2023-03-11 22:52:22:638,0,-8.49939,1.77887,-37.3136
2023-03-11 22:52:22:647,0,-8.50006,1.76339,-37.3036
2023-03-11 22:52:22:657,0,-8.50799,1.74952,-37.2896
2023-03-11 22:52:22:668,0,-8.51836,1.73762,-37.2701
2023-03-11 22:52:22:678,0,-8.5289,1.7258,-37.2543
2023-03-11 22:52:22:687,0,-8.54105,1.71592,-37.2335
2023-03-11 22:52:22:697,0,-8.55097,1.70967,-37.2147
2023-03-11 22:52:22:707,0,-8.55795,1.70529,-37.1948
2023-03-11 22:52:22:718,0,-8.56259,1.69919,-37.1832
2023-03-11 22:52:22:727,0,-8.56204,1.69516,-37.1738
2023-03-11 22:52:22:737,0,-8.56007,1.69183,-37.1685
2023-03-11 22:52:22:747,0,-8.55971,1.69103,-37.1681
2023-03-11 22:52:22:757,0,-8.5556,1.68798,-37.1772
2023-03-11 22:52:22:767,0,-8.55507,1.68554,-37.188
2023-03-11 22:52:22:777,0,-8.55364,1.68279,-37.1989
2023-03-11 22:52:22:788,0,-8.55854,1.6855,-37.2128
2023-03-11 22:52:22:798,0,-8.56867,1.68424,-37.2255
2023-03-11 22:52:22:808,0,-8.57534,1.68505,-37.2356
2023-03-11 22:52:22:817,0,-8.57948,1.68491,-37.2394
2023-03-11 22:52:22:828,0,-8.58428,1.69014,-37.2454
2023-03-11 22:52:22:838,0,-8.58783,1.69701,-37.2522
2023-03-11 22:52:22:848,0,-8.58775,1.70386,-37.2542
2023-03-11 22:52:22:858,0,-8.5867,1.7055,-37.2479
2023-03-11 22:52:22:868,0,-8.58378,1.704,-37.2417
2023-03-11 22:52:22:878,0,-8.57803,1.701,-37.235
2023-03-11 22:52:22:887,0,-8.57405,1.69755,-37.2267
2023-03-11 22:52:22:897,0,-8.56572,1.69381,-37.223
2023-03-11 22:52:22:907,0,-8.56028,1.6903,-37.2136
2023-03-11 22:52:22:918,0,-8.55429,1.68165,-37.2073
2023-03-11 22:52:22:927,0,-8.54624,1.67596,-37.2008
2023-03-11 22:52:22:937,0,-8.53662,1.66586,-37.1903
2023-03-11 22:52:22:947,0,-8.52921,1.65375,-37.1811
2023-03-11 22:52:22:958,0,-8.51835,1.64244,-37.1667
2023-03-11 22:52:22:968,0,-8.50584,1.63131,-37.1525
2023-03-11 22:52:22:977,0,-8.49662,1.61665,-37.1354
2023-03-11 22:52:22:987,0,-8.48725,1.60488,-37.1145
2023-03-11 22:52:22:997,0,-8.48238,1.5855,-37.0975
2023-03-11 22:52:23:7,0,-8.47261,1.56731,-37.0814
2023-03-11 22:52:23:18,0,-8.45373,1.54708,-37.0647
2023-03-11 22:52:23:27,0,-8.43241,1.53057,-37.0466
2023-03-11 22:52:23:37,0,-8.41132,1.51101,-37.0284
2023-03-11 22:52:23:47,0,-8.39944,1.49486,-37.0111
2023-03-11 22:52:23:58,0,-8.39279,1.47601,-36.9972
2023-03-11 22:52:23:68,0,-8.38179,1.4589,-36.9851
2023-03-11 22:52:23:78,0,-8.37446,1.44221,-36.9747
2023-03-11 22:52:23:88,0,-8.37124,1.42765,-36.964
2023-03-11 22:52:23:98,0,-8.36847,1.41016,-36.9524
2023-03-11 22:52:23:108,0,-8.36912,1.3925,-36.9447
2023-03-11 22:52:23:118,0,-8.36799,1.38009,-36.9404
