Timestamp_cmd,imu_cmd,roll_delta,pitch_delta,yaw_delta,voice_type,voice_length
2023-03-15 13:36:10:203,0,-0.851556,-3.46741,-17.8809,Q,Q
2023-03-15 13:36:10:211,0,-0.660543,-3.44204,-18.0263,Q,Q
2023-03-15 13:36:10:221,0,-0.4881,-3.39002,-18.1366,Q,Q
2023-03-15 13:36:10:231,0,-0.366081,-3.36339,-18.2416,Q,Q
2023-03-15 13:36:10:242,0,-0.278921,-3.37717,-18.3545,Q,Q
2023-03-15 13:36:10:252,0,-0.200031,-3.40716,-18.4631,Q,Q
2023-03-15 13:36:10:261,0,-0.136287,-3.4278,-18.5446,Q,Q
2023-03-15 13:36:10:272,0,-0.0850887,-3.44312,-18.5908,Q,Q
2023-03-15 13:36:10:282,0,-0.0523458,-3.4583,-18.6195,Q,Q
2023-03-15 13:36:10:291,0,-0.0413728,-3.47509,-18.6511,Q,Q
2023-03-15 13:36:10:301,0,-0.0392011,-3.49332,-18.6897,Q,Q
2023-03-15 13:36:10:311,0,-0.0349563,-3.51041,-18.7331,Q,Q
2023-03-15 13:36:10:321,0,-0.0267944,-3.51633,-18.7664,Q,Q
2023-03-15 13:36:10:331,0,-0.0170764,-3.51672,-18.7922,Q,Q
2023-03-15 13:36:10:341,0,-0.00222274,-3.5193,-18.8182,Q,Q
2023-03-15 13:36:10:351,0,0.00993117,-3.52799,-18.8404,Q,Q
2023-03-15 13:36:10:361,0,0.0190088,-3.53756,-18.8674,Q,Q
2023-03-15 13:36:10:371,0,0.0243921,-3.54597,-18.8892,Q,Q
2023-03-15 13:36:10:381,0,0.0297231,-3.55213,-18.9123,Q,Q
2023-03-15 13:36:10:391,0,0.0344116,-3.55894,-18.9335,Q,Q
2023-03-15 13:36:10:401,0,0.0379934,-3.5606,-18.9537,Q,Q
2023-03-15 13:36:10:411,0,0.0437756,-3.55972,-18.9703,Q,Q
2023-03-15 13:36:10:422,0,0.0484962,-3.55818,-18.9824,Q,Q
2023-03-15 13:36:10:432,0,0.0542664,-3.5541,-18.9936,Q,Q
2023-03-15 13:36:10:442,0,0.0585794,-3.55334,-19.0025,Q,Q
2023-03-15 13:36:10:452,0,0.0643421,-3.55213,-19.0131,Q,Q
2023-03-15 13:36:10:462,0,0.0630931,-3.55256,-19.0171,Q,Q
2023-03-15 13:36:10:472,0,0.0686456,-3.54862,-19.0255,Q,Q
2023-03-15 13:36:10:482,0,0.0694937,-3.54525,-19.0349,Q,Q
2023-03-15 13:36:10:491,0,0.0707133,-3.53773,-19.0423,Q,Q
2023-03-15 13:36:10:502,0,0.0737945,-3.53679,-19.0499,Q,Q
2023-03-15 13:36:10:512,0,0.0795183,-3.53859,-19.0577,Q,Q
2023-03-15 13:36:10:522,0,0.0732545,-3.53966,-19.0559,Q,Q
2023-03-15 13:36:10:532,0,0.0605183,-3.54033,-19.0522,Q,Q
2023-03-15 13:36:10:542,0,0.0493982,-3.5394,-19.0467,Q,Q
2023-03-15 13:36:10:552,0,0.0428233,-3.53575,-19.0351,Q,Q
2023-03-15 13:36:10:562,0,0.00937612,-3.53371,-19.0152,Q,Q
2023-03-15 13:36:10:571,0,-0.0380609,-3.52856,-18.9935,Q,Q
2023-03-15 13:36:10:581,0,-0.107565,-3.51257,-18.9584,Q,Q
2023-03-15 13:36:10:591,0,-0.216385,-3.4833,-18.9024,Q,Q
2023-03-15 13:36:10:601,0,-0.364466,-3.45598,-18.8392,Q,Q
2023-03-15 13:36:10:611,0,-0.533231,-3.45339,-18.7835,Q,Q
2023-03-15 13:36:10:621,0,-0.700927,-3.45912,-18.7349,Q,Q
2023-03-15 13:36:10:631,0,-0.862065,-3.46315,-18.6868,Q,Q
2023-03-15 13:36:10:641,0,-1.00249,-3.46312,-18.6411,Q,Q
2023-03-15 13:36:10:651,0,-1.14576,-3.45609,-18.5886,Q,Q
2023-03-15 13:36:10:661,0,-1.28982,-3.45402,-18.5428,Q,Q
2023-03-15 13:36:10:671,0,-1.43118,-3.45502,-18.5037,Q,Q
2023-03-15 13:36:10:681,0,-1.55235,-3.4654,-18.4725,Q,Q
2023-03-15 13:36:10:691,0,-1.65275,-3.47114,-18.4426,Q,Q
2023-03-15 13:36:10:701,0,-1.72063,-3.47658,-18.4203,Q,Q
2023-03-15 13:36:10:711,0,-1.75436,-3.47553,-18.4013,Q,Q
2023-03-15 13:36:10:721,0,-1.7699,-3.4619,-18.3815,Q,Q
2023-03-15 13:36:10:731,0,-1.76215,-3.4517,-18.361,Q,Q
2023-03-15 13:36:10:741,0,-1.73523,-3.43513,-18.3348,Q,Q
2023-03-15 13:36:10:751,0,-1.70669,-3.43019,-18.3119,Q,Q
2023-03-15 13:36:10:761,0,-1.67768,-3.42246,-18.301,Q,Q
2023-03-15 13:36:10:771,0,-1.63509,-3.41265,-18.3036,Q,Q
2023-03-15 13:36:10:781,0,-1.57995,-3.40184,-18.3049,Q,Q
2023-03-15 13:36:10:791,0,-1.52662,-3.38771,-18.3053,Q,Q
2023-03-15 13:36:10:801,0,-1.47973,-3.36945,-18.2966,Q,Q
2023-03-15 13:36:10:811,0,-1.45998,-3.36646,-18.2816,Q,Q
2023-03-15 13:36:10:821,0,-1.44205,-3.37464,-18.2811,Q,Q
2023-03-15 13:36:10:831,0,-1.40536,-3.38917,-18.3019,Q,Q
2023-03-15 13:36:10:841,0,-1.3379,-3.37735,-18.3163,Q,Q
2023-03-15 13:36:10:851,0,-1.27914,-3.35146,-18.31,Q,Q
2023-03-15 13:36:10:861,0,-1.23064,-3.33523,-18.3066,Q,Q
2023-03-15 13:36:10:871,0,-1.17577,-3.33631,-18.3237,Q,Q
2023-03-15 13:36:10:881,0,-1.09192,-3.36473,-18.3716,Q,Q
2023-03-15 13:36:10:891,0,-0.981194,-3.41215,-18.4522,Q,Q
2023-03-15 13:36:10:901,0,-0.860841,-3.46089,-18.5558,Q,Q
2023-03-15 13:36:10:911,0,-0.73685,-3.51893,-18.6818,Q,Q
2023-03-15 13:36:10:921,0,-0.596317,-3.56799,-18.8178,Q,Q
2023-03-15 13:36:10:931,0,-0.449334,-3.59682,-18.9364,Q,Q
2023-03-15 13:36:10:941,0,-0.313306,-3.60466,-19.0197,Q,Q
2023-03-15 13:36:10:952,0,-0.196119,-3.59737,-19.0688,Q,Q
2023-03-15 13:36:10:961,0,-0.101855,-3.5959,-19.103,Q,Q
2023-03-15 13:36:10:971,0,-0.0177646,-3.60307,-19.131,Q,Q
2023-03-15 13:36:10:981,0,0.0576851,-3.61624,-19.1631,Q,Q
2023-03-15 13:36:10:991,0,0.129076,-3.62666,-19.1911,Q,Q
2023-03-15 13:36:11:1,0,0.194653,-3.63718,-19.2122,Q,Q
2023-03-15 13:36:11:11,0,0.255682,-3.64423,-19.2283,Q,Q
2023-03-15 13:36:11:21,0,0.311811,-3.64578,-19.24,Q,Q
2023-03-15 13:36:11:31,0,0.370073,-3.64872,-19.2501,Q,Q
2023-03-15 13:36:11:41,0,0.423866,-3.64926,-19.2589,Q,Q
2023-03-15 13:36:11:51,0,0.476773,-3.64965,-19.2671,Q,Q
2023-03-15 13:36:11:61,0,0.531318,-3.6509,-19.2734,Q,Q
2023-03-15 13:36:11:71,0,0.587931,-3.65177,-19.2775,Q,Q
2023-03-15 13:36:11:81,0,0.645917,-3.64906,-19.2814,Q,Q
2023-03-15 13:36:11:91,0,0.701861,-3.64046,-19.2857,Q,Q
2023-03-15 13:36:11:101,0,0.757859,-3.63417,-19.2887,Q,Q
2023-03-15 13:36:11:111,0,0.815336,-3.62663,-19.2892,Q,Q
2023-03-15 13:36:11:121,0,0.87451,-3.62119,-19.2883,Q,Q
2023-03-15 13:36:11:131,0,0.934259,-3.62138,-19.2828,Q,Q
2023-03-15 13:36:11:141,0,0.997978,-3.61984,-19.2682,Q,Q
2023-03-15 13:36:11:151,0,1.06131,-3.62243,-19.2513,Q,Q
2023-03-15 13:36:11:161,0,1.12168,-3.62952,-19.2345,Q,Q
2023-03-15 13:36:11:171,0,1.17841,-3.63791,-19.2197,Q,Q
2023-03-15 13:36:11:182,0,1.2277,-3.64258,-19.2101,Q,Q
2023-03-15 13:36:11:192,0,1.27444,-3.64694,-19.1989,Q,Q
2023-03-15 13:36:11:201,0,1.33708,-3.65224,-19.1827,Q,Q
2023-03-15 13:36:11:212,0,1.39238,-3.65191,-19.1599,Q,Q
2023-03-15 13:36:11:222,0,1.42463,-3.65258,-19.1306,Q,Q
2023-03-15 13:36:11:232,0,1.41606,-3.662,-19.0951,Q,Q
2023-03-15 13:36:11:241,0,1.36895,-3.66953,-19.0517,Q,Q
2023-03-15 13:36:11:252,0,1.27428,-3.67465,-18.9943,Q,Q
2023-03-15 13:36:11:262,0,1.14356,-3.68068,-18.9286,Q,Q
2023-03-15 13:36:11:271,0,0.991562,-3.68533,-18.8595,Q,Q
2023-03-15 13:36:11:281,0,0.819546,-3.69814,-18.8019,Q,Q
2023-03-15 13:36:11:291,0,0.635578,-3.70725,-18.7484,Q,Q
2023-03-15 13:36:11:301,0,0.427004,-3.72758,-18.7026,Q,Q
2023-03-15 13:36:11:311,0,0.243764,-3.75786,-18.6786,Q,Q
2023-03-15 13:36:11:321,0,0.0975856,-3.76983,-18.655,Q,Q
2023-03-15 13:36:11:331,0,-0.0347734,-3.76627,-18.6204,Q,Q
2023-03-15 13:36:11:342,0,-0.153713,-3.77092,-18.5958,Q,Q
2023-03-15 13:36:11:351,0,-0.256666,-3.76884,-18.5788,Q,Q
2023-03-15 13:36:11:361,0,-0.351386,-3.76003,-18.5668,Q,Q
2023-03-15 13:36:11:371,0,-0.409536,-3.74974,-18.5612,Q,Q
2023-03-15 13:36:11:382,0,-0.468496,-3.72683,-18.5386,Q,Q
2023-03-15 13:36:11:392,0,-0.555412,-3.69852,-18.4999,Q,Q
2023-03-15 13:36:11:402,0,-0.649479,-3.68935,-18.4655,Q,Q
2023-03-15 13:36:11:412,0,-0.739761,-3.69946,-18.4426,Q,Q
2023-03-15 13:36:11:422,0,-0.806713,-3.7109,-18.4251,Q,Q
2023-03-15 13:36:11:431,0,-0.862695,-3.7147,-18.4119,Q,Q
2023-03-15 13:36:11:442,0,-0.892848,-3.70851,-18.409,Q,Q
2023-03-15 13:36:11:452,0,-0.905297,-3.69984,-18.4054,Q,Q
2023-03-15 13:36:11:462,0,-0.892555,-3.69422,-18.4177,Q,Q
2023-03-15 13:36:11:472,0,-0.875971,-3.68889,-18.4221,Q,Q
2023-03-15 13:36:11:481,0,-0.855183,-3.70113,-18.4355,Q,Q
2023-03-15 13:36:11:492,0,-0.805827,-3.72913,-18.4706,Q,Q
2023-03-15 13:36:11:501,0,-0.714662,-3.77328,-18.5357,Q,Q
2023-03-15 13:36:11:512,0,-0.541655,-3.82645,-18.6509,Q,Q
2023-03-15 13:36:11:521,0,-0.266553,-3.84308,-18.7933,Q,Q
2023-03-15 13:36:11:532,0,0.029104,-3.77402,-18.8899,Q,Q
2023-03-15 13:36:11:541,0,0.259031,-3.69737,-18.9509,Q,Q
2023-03-15 13:36:11:551,0,0.438882,-3.67262,-19.018,Q,Q
2023-03-15 13:36:11:562,0,0.569676,-3.7126,-19.0905,Q,Q
2023-03-15 13:36:11:572,0,0.663064,-3.77878,-19.1553,Q,Q
2023-03-15 13:36:11:581,0,0.725271,-3.84696,-19.1975,Q,Q
2023-03-15 13:36:11:592,0,0.772598,-3.91244,-19.2265,Q,Q
2023-03-15 13:36:11:602,0,0.844694,-3.98608,-19.2651,Q,Q
2023-03-15 13:36:11:611,0,0.945916,-4.06554,-19.3079,Q,Q
2023-03-15 13:36:11:621,0,1.06339,-4.11562,-19.3373,Q,Q
2023-03-15 13:36:11:631,0,1.17365,-4.14031,-19.3534,Q,Q
2023-03-15 13:36:11:642,0,1.26902,-4.13791,-19.3577,Q,Q
2023-03-15 13:36:11:652,0,1.36385,-4.13429,-19.356,Q,Q
2023-03-15 13:36:11:661,0,1.44902,-4.14493,-19.358,Q,Q
2023-03-15 13:36:11:671,0,1.52703,-4.168,-19.3593,Q,Q
2023-03-15 13:36:11:682,0,1.59244,-4.19886,-19.3635,Q,Q
2023-03-15 13:36:11:692,0,1.64044,-4.21901,-19.3627,Q,Q
2023-03-15 13:36:11:702,0,1.67867,-4.22469,-19.3614,Q,Q
2023-03-15 13:36:11:711,0,1.7057,-4.22291,-19.36,Q,Q
2023-03-15 13:36:11:721,0,1.72734,-4.2001,-19.3539,Q,Q
2023-03-15 13:36:11:732,0,1.73515,-4.16687,-19.3534,Q,Q
2023-03-15 13:36:11:741,0,1.73463,-4.14143,-19.3585,Q,Q
2023-03-15 13:36:11:752,0,1.7256,-4.1363,-19.3622,Q,Q
2023-03-15 13:36:11:761,0,1.72594,-4.17015,-19.3812,Q,Q
2023-03-15 13:36:11:772,0,1.7797,-4.21505,-19.3982,Q,Q
2023-03-15 13:36:11:782,0,1.88858,-4.22559,-19.3895,Q,Q
2023-03-15 13:36:11:792,0,1.99967,-4.20989,-19.3732,Q,Q
2023-03-15 13:36:11:801,0,2.07087,-4.17115,-19.3732,Q,Q
2023-03-15 13:36:11:811,0,2.16838,-4.12179,-19.3854,Q,Q
2023-03-15 13:36:11:821,0,2.31878,-4.10747,-19.3811,Q,Q
2023-03-15 13:36:11:832,0,2.47739,-4.09351,-19.3484,Q,Q
2023-03-15 13:36:11:841,0,2.57588,-4.07813,-19.3003,Q,Q
2023-03-15 13:36:11:852,0,2.60957,-4.07648,-19.2922,Q,Q
2023-03-15 13:36:11:861,0,2.64923,-4.09662,-19.3007,Q,Q
2023-03-15 13:36:11:872,0,2.69064,-4.11596,-19.293,Q,Q
2023-03-15 13:36:11:882,0,2.71419,-4.12727,-19.2722,Q,Q
2023-03-15 13:36:11:891,0,2.73166,-4.13327,-19.246,Q,Q
2023-03-15 13:36:11:901,0,2.74804,-4.1394,-19.2284,Q,Q
2023-03-15 13:36:11:911,0,2.76424,-4.12369,-19.2046,Q,Q
2023-03-15 13:36:11:922,0,2.80138,-4.09357,-19.1964,Q,Q
2023-03-15 13:36:11:931,0,2.82639,-4.07844,-19.19,Q,Q
2023-03-15 13:36:11:941,0,2.86287,-4.07339,-19.1858,Q,Q
2023-03-15 13:36:11:952,0,2.9013,-4.06994,-19.1779,Q,Q
2023-03-15 13:36:11:962,0,2.92432,-4.05958,-19.1748,Q,Q
2023-03-15 13:36:11:972,0,2.93651,-4.05336,-19.1733,Q,Q
2023-03-15 13:36:11:982,0,2.95601,-4.0407,-19.1663,Q,Q
2023-03-15 13:36:11:992,0,2.97156,-4.03156,-19.1546,Q,Q
2023-03-15 13:36:12:1,0,2.97431,-4.02528,-19.148,Q,Q
2023-03-15 13:36:12:12,0,2.97087,-4.03172,-19.1407,Q,Q
2023-03-15 13:36:12:22,0,2.97751,-4.03633,-19.1261,Q,Q
2023-03-15 13:36:12:31,0,2.98695,-4.04823,-19.1119,Q,Q
2023-03-15 13:36:12:42,0,2.98937,-4.05889,-19.0975,Q,Q
2023-03-15 13:36:12:51,0,2.97957,-4.07106,-19.0989,Q,Q
2023-03-15 13:36:12:62,0,2.97562,-4.08615,-19.1087,Q,Q
2023-03-15 13:36:12:72,0,2.96848,-4.09289,-19.1129,Q,Q
2023-03-15 13:36:12:82,0,2.95137,-4.10484,-19.1247,Q,Q
2023-03-15 13:36:12:91,0,2.93775,-4.12372,-19.1381,Q,Q
2023-03-15 13:36:12:101,0,2.9136,-4.14257,-19.1558,Q,Q
2023-03-15 13:36:12:111,0,2.87234,-4.17186,-19.169,Q,Q
2023-03-15 13:36:12:121,0,2.80263,-4.20345,-19.19,Q,Q
2023-03-15 13:36:12:131,0,2.73649,-4.24931,-19.2118,Q,Q
2023-03-15 13:36:12:141,0,2.67501,-4.28845,-19.2368,Q,Q
2023-03-15 13:36:12:152,0,2.61544,-4.31053,-19.2465,Q,Q
2023-03-15 13:36:12:162,0,2.54516,-4.3039,-19.2478,Q,Q
2023-03-15 13:36:12:172,0,2.46427,-4.2893,-19.2363,Q,Q
2023-03-15 13:36:12:182,0,2.36457,-4.26353,-19.2129,Q,Q
2023-03-15 13:36:12:192,0,2.24359,-4.21279,-19.1791,Q,Q
2023-03-15 13:36:12:202,0,2.10787,-4.15588,-19.1427,Q,Q
2023-03-15 13:36:12:212,0,1.96228,-4.10297,-19.1121,Q,Q
2023-03-15 13:36:12:222,0,1.8113,-4.05051,-19.0896,Q,Q
2023-03-15 13:36:12:232,0,1.63676,-3.9939,-19.062,Q,Q
2023-03-15 13:36:12:242,0,1.42558,-3.96007,-19.0388,Q,Q
2023-03-15 13:36:12:252,0,1.18509,-3.9399,-19.0112,Q,Q
2023-03-15 13:36:12:262,0,0.929221,-3.93499,-18.9774,Q,Q
2023-03-15 13:36:12:272,0,0.671142,-3.94761,-18.9444,Q,Q
2023-03-15 13:36:12:281,0,0.454658,-3.96722,-18.9194,Q,Q
2023-03-15 13:36:12:292,0,0.259699,-3.98719,-18.8902,Q,Q
2023-03-15 13:36:12:302,0,0.0761419,-4.00708,-18.868,Q,Q
2023-03-15 13:36:12:311,0,-0.0758669,-4.02342,-18.8538,Q,Q
2023-03-15 13:36:12:321,0,-0.177134,-4.02324,-18.8424,Q,Q
2023-03-15 13:36:12:331,0,-0.231236,-4.00318,-18.8357,Q,Q
2023-03-15 13:36:12:341,0,-0.263014,-3.97526,-18.8267,Q,Q
2023-03-15 13:36:12:351,0,-0.302199,-3.95061,-18.8176,Q,Q
2023-03-15 13:36:12:361,0,-0.360811,-3.92155,-18.7934,Q,Q
2023-03-15 13:36:12:371,0,-0.425254,-3.90502,-18.7673,Q,Q
2023-03-15 13:36:12:381,0,-0.47009,-3.88691,-18.7357,Q,Q
2023-03-15 13:36:12:391,0,-0.50913,-3.87283,-18.7054,Q,Q
2023-03-15 13:36:12:401,0,-0.539902,-3.85483,-18.683,Q,Q
2023-03-15 13:36:12:411,0,-0.558781,-3.82358,-18.6601,Q,Q
2023-03-15 13:36:12:421,0,-0.579262,-3.78613,-18.6331,Q,Q
2023-03-15 13:36:12:431,0,-0.600998,-3.76034,-18.607,Q,Q
2023-03-15 13:36:12:441,0,-0.611888,-3.74202,-18.5882,Q,Q
2023-03-15 13:36:12:451,0,-0.61526,-3.72255,-18.57,Q,Q
2023-03-15 13:36:12:461,0,-0.638237,-3.69889,-18.5444,Q,Q
2023-03-15 13:36:12:471,0,-0.668215,-3.68819,-18.5149,Q,Q
2023-03-15 13:36:12:481,0,-0.681505,-3.69081,-18.4972,Q,Q
2023-03-15 13:36:12:491,0,-0.680388,-3.68753,-18.4821,Q,Q
2023-03-15 13:36:12:501,0,-0.678084,-3.67426,-18.4664,Q,Q
2023-03-15 13:36:12:511,0,-0.678215,-3.66587,-18.4528,Q,Q
2023-03-15 13:36:12:521,0,-0.666531,-3.65458,-18.448,Q,Q
2023-03-15 13:36:12:531,0,-0.641885,-3.64135,-18.444,Q,Q
2023-03-15 13:36:12:541,0,-0.609954,-3.63168,-18.4541,Q,Q
2023-03-15 13:36:12:551,0,-0.568878,-3.63586,-18.4857,Q,Q
2023-03-15 13:36:12:561,0,-0.505645,-3.65605,-18.5428,Q,Q
2023-03-15 13:36:12:571,0,-0.404114,-3.69099,-18.6334,Q,Q
2023-03-15 13:36:12:581,0,-0.256619,-3.74505,-18.7681,Q,Q
2023-03-15 13:36:12:591,0,-0.0605348,-3.80548,-18.9517,Q,Q
2023-03-15 13:36:12:601,0,0.181955,-3.84788,-19.1572,Q,Q
2023-03-15 13:36:12:611,0,0.445716,-3.84577,-19.333,Q,Q
2023-03-15 13:36:12:621,0,0.694149,-3.80201,-19.4465,Q,Q
2023-03-15 13:36:12:631,0,0.888777,-3.74719,-19.4969,Q,Q
2023-03-15 13:36:12:641,0,1.01937,-3.70892,-19.517,Q,Q
2023-03-15 13:36:12:651,0,1.08897,-3.70156,-19.5312,Q,Q
2023-03-15 13:36:12:661,0,1.12778,-3.70935,-19.5516,Q,Q
2023-03-15 13:36:12:671,0,1.15513,-3.72408,-19.5791,Q,Q
2023-03-15 13:36:12:681,0,1.18291,-3.73502,-19.6057,Q,Q
2023-03-15 13:36:12:691,0,1.21606,-3.74033,-19.6258,Q,Q
2023-03-15 13:36:12:701,0,1.25197,-3.73826,-19.6421,Q,Q
2023-03-15 13:36:12:711,0,1.28727,-3.72494,-19.6563,Q,Q
2023-03-15 13:36:12:721,0,1.31781,-3.70918,-19.6638,Q,Q
2023-03-15 13:36:12:731,0,1.3407,-3.6955,-19.6635,Q,Q
2023-03-15 13:36:12:741,0,1.36011,-3.68922,-19.6687,Q,Q
2023-03-15 13:36:12:751,0,1.37776,-3.68354,-19.6725,Q,Q
2023-03-15 13:36:12:761,0,1.39005,-3.68055,-19.6681,Q,Q
2023-03-15 13:36:12:771,0,1.38563,-3.67775,-19.6642,Q,Q
2023-03-15 13:36:12:781,0,1.37762,-3.67714,-19.6612,Q,Q
2023-03-15 13:36:12:791,0,1.36803,-3.67287,-19.6498,Q,Q
2023-03-15 13:36:12:801,0,1.35117,-3.6622,-19.6323,Q,Q
2023-03-15 13:36:12:811,0,1.32115,-3.64498,-19.6111,Q,Q
2023-03-15 13:36:12:821,0,1.29119,-3.62628,-19.5851,Q,Q
2023-03-15 13:36:12:831,0,1.23816,-3.61106,-19.5484,Q,Q
2023-03-15 13:36:12:841,0,1.16501,-3.61004,-19.5148,Q,Q
2023-03-15 13:36:12:851,0,1.08836,-3.60908,-19.4734,Q,Q
2023-03-15 13:36:12:861,0,0.987563,-3.58434,-19.4006,Q,Q
2023-03-15 13:36:12:871,0,0.807693,-3.57313,-19.3174,Q,Q
2023-03-15 13:36:12:881,0,0.587133,-3.59062,-19.2529,Q,Q
2023-03-15 13:36:12:891,0,0.373852,-3.62548,-19.2098,Q,Q
2023-03-15 13:36:12:901,0,0.173019,-3.66563,-19.174,Q,Q
2023-03-15 13:36:12:911,0,-0.000730157,-3.70214,-19.1454,Q,Q
2023-03-15 13:36:12:921,0,-0.147532,-3.72747,-19.1079,Q,Q
2023-03-15 13:36:12:931,0,-0.269648,-3.72666,-19.0698,Q,Q
2023-03-15 13:36:12:941,0,-0.399213,-3.73383,-19.0321,Q,Q
2023-03-15 13:36:12:951,0,-0.5246,-3.73652,-18.9999,Q,Q
2023-03-15 13:36:12:961,0,-0.640799,-3.73725,-18.969,Q,Q
2023-03-15 13:36:12:971,0,-0.744491,-3.73532,-18.9466,Q,Q
2023-03-15 13:36:12:981,0,-0.82888,-3.73539,-18.9252,Q,Q
2023-03-15 13:36:12:991,0,-0.895871,-3.7477,-18.9161,Q,Q
2023-03-15 13:36:13:1,0,-0.934034,-3.76027,-18.9215,Q,Q
2023-03-15 13:36:13:11,0,-0.946739,-3.77186,-18.9405,Q,Q
2023-03-15 13:36:13:21,0,-0.944375,-3.79269,-18.9738,Q,Q
2023-03-15 13:36:13:31,0,-0.921495,-3.82489,-19.0282,Q,Q
2023-03-15 13:36:13:41,0,-0.861516,-3.85955,-19.1028,Q,Q
2023-03-15 13:36:13:51,0,-0.745887,-3.8997,-19.2151,Q,Q
2023-03-15 13:36:13:61,0,-0.562332,-3.92908,-19.3554,Q,Q
2023-03-15 13:36:13:71,0,-0.326755,-3.92616,-19.4984,Q,Q
2023-03-15 13:36:13:81,0,-0.0636712,-3.9029,-19.6336,Q,Q
2023-03-15 13:36:13:91,0,0.210158,-3.8698,-19.7575,Q,Q
2023-03-15 13:36:13:101,0,0.462881,-3.82697,-19.8488,Q,Q
2023-03-15 13:36:13:111,0,0.675833,-3.78362,-19.907,Q,Q
2023-03-15 13:36:13:121,0,0.842518,-3.74913,-19.9336,Q,Q
2023-03-15 13:36:13:131,0,0.960928,-3.73245,-19.9463,Q,Q
2023-03-15 13:36:13:141,0,1.04152,-3.73609,-19.9631,Q,Q
2023-03-15 13:36:13:151,0,1.10114,-3.74169,-19.9828,Q,Q
2023-03-15 13:36:13:161,0,1.15461,-3.74932,-19.9992,Q,Q
2023-03-15 13:36:13:171,0,1.20468,-3.75356,-20.008,Q,Q
2023-03-15 13:36:13:181,0,1.25167,-3.74971,-20.0164,Q,Q
2023-03-15 13:36:13:191,0,1.29627,-3.74719,-20.0183,Q,Q
2023-03-15 13:36:13:201,0,1.33562,-3.74405,-20.0199,Q,Q
2023-03-15 13:36:13:211,0,1.36277,-3.74152,-20.0195,Q,Q
2023-03-15 13:36:13:221,0,1.37789,-3.73762,-20.0236,Q,Q
2023-03-15 13:36:13:231,0,1.39008,-3.73776,-20.0333,Q,Q
2023-03-15 13:36:13:241,0,1.39709,-3.73829,-20.0489,Q,Q
2023-03-15 13:36:13:251,0,1.40619,-3.73885,-20.0662,Q,Q
2023-03-15 13:36:13:261,0,1.41434,-3.73685,-20.0824,Q,Q
2023-03-15 13:36:13:271,0,1.4244,-3.73089,-20.1004,Q,Q
2023-03-15 13:36:13:281,0,1.43306,-3.72363,-20.1173,Q,Q
2023-03-15 13:36:13:291,0,1.43991,-3.71547,-20.1386,Q,Q
2023-03-15 13:36:13:301,0,1.45096,-3.70696,-20.1561,Q,Q
2023-03-15 13:36:13:311,0,1.46146,-3.69987,-20.179,Q,Q
2023-03-15 13:36:13:321,0,1.47498,-3.6931,-20.202,Q,Q
2023-03-15 13:36:13:332,0,1.48871,-3.69154,-20.2246,Q,Q
2023-03-15 13:36:13:342,0,1.49757,-3.6912,-20.2459,Q,Q
2023-03-15 13:36:13:352,0,1.5098,-3.69698,-20.272,Q,Q
2023-03-15 13:36:13:362,0,1.52669,-3.70038,-20.2992,Q,Q
2023-03-15 13:36:13:372,0,1.54577,-3.70565,-20.3306,Q,Q
2023-03-15 13:36:13:381,0,1.5721,-3.70997,-20.365,Q,Q
2023-03-15 13:36:13:391,0,1.59987,-3.7123,-20.4046,Q,Q
2023-03-15 13:36:13:402,0,1.63309,-3.71285,-20.4491,Q,Q
2023-03-15 13:36:13:412,0,1.67155,-3.71316,-20.4986,Q,Q
2023-03-15 13:36:13:422,0,1.714,-3.71144,-20.5614,Q,Q
2023-03-15 13:36:13:432,0,1.75739,-3.70925,-20.6272,Q,Q
2023-03-15 13:36:13:442,0,1.80518,-3.70129,-20.7035,Q,Q
2023-03-15 13:36:13:452,0,1.85755,-3.69439,-20.7841,Q,Q
2023-03-15 13:36:13:462,0,1.91205,-3.6855,-20.8721,Q,Q
2023-03-15 13:36:13:472,0,1.97195,-3.67699,-20.9707,Q,Q
2023-03-15 13:36:13:482,0,2.04362,-3.66665,-21.0803,Q,Q
2023-03-15 13:36:13:492,0,2.12474,-3.65885,-21.2013,Q,Q
2023-03-15 13:36:13:502,0,2.21445,-3.64758,-21.3289,Q,Q
2023-03-15 13:36:13:511,0,2.31646,-3.63804,-21.4677,Q,Q
2023-03-15 13:36:13:521,0,2.42638,-3.62806,-21.6133,Q,Q
2023-03-15 13:36:13:531,0,2.5489,-3.61509,-21.7732,Q,Q
2023-03-15 13:36:13:541,0,2.67512,-3.60156,-21.9403,Q,Q
2023-03-15 13:36:13:551,0,2.79912,-3.58338,-22.111,Q,Q
2023-03-15 13:36:13:561,0,2.92552,-3.56153,-22.2905,Q,Q
2023-03-15 13:36:13:571,0,3.05462,-3.53701,-22.4693,Q,Q
2023-03-15 13:36:13:581,0,3.1738,-3.51384,-22.6527,Q,Q
2023-03-15 13:36:13:591,0,3.29912,-3.48814,-22.8364,Q,Q
2023-03-15 13:36:13:601,0,3.41933,-3.45465,-23.0206,Q,Q
2023-03-15 13:36:13:611,0,3.53752,-3.42251,-23.1984,Q,Q
2023-03-15 13:36:13:621,0,3.64403,-3.38915,-23.3747,Q,Q
2023-03-15 13:36:13:631,0,3.74183,-3.35271,-23.546,Q,Q
2023-03-15 13:36:13:641,0,3.83329,-3.31947,-23.7051,Q,Q
2023-03-15 13:36:13:651,0,3.91445,-3.28361,-23.8519,Q,Q
2023-03-15 13:36:13:661,0,3.99005,-3.24255,-23.9861,Q,Q
2023-03-15 13:36:13:671,0,4.05147,-3.20603,-24.1045,Q,Q
2023-03-15 13:36:13:682,0,4.1031,-3.17295,-24.2045,Q,Q
2023-03-15 13:36:13:691,0,4.1385,-3.13887,-24.2834,Q,Q
2023-03-15 13:36:13:702,0,4.16226,-3.10079,-24.3442,Q,Q
2023-03-15 13:36:13:712,0,4.17696,-3.0652,-24.3867,Q,Q
2023-03-15 13:36:13:722,0,4.1784,-3.02946,-24.4102,Q,Q
2023-03-15 13:36:13:732,0,4.17056,-2.99369,-24.4154,Q,Q
2023-03-15 13:36:13:742,0,4.15865,-2.95894,-24.411,Q,Q
2023-03-15 13:36:13:752,0,4.14803,-2.92367,-24.3967,Q,Q
2023-03-15 13:36:13:762,0,4.14171,-2.88354,-24.374,Q,Q
2023-03-15 13:36:13:772,0,4.14913,-2.84116,-24.345,Q,Q
2023-03-15 13:36:13:782,0,4.16219,-2.79412,-24.3099,Q,Q
2023-03-15 13:36:13:792,0,4.18996,-2.74081,-24.2734,Q,Q
2023-03-15 13:36:13:802,0,4.22541,-2.6862,-24.2236,Q,Q
2023-03-15 13:36:13:812,0,4.26838,-2.63836,-24.1637,Q,Q
2023-03-15 13:36:13:821,0,4.3064,-2.59631,-24.1024,Q,Q
2023-03-15 13:36:13:831,0,4.34578,-2.5631,-24.0342,Q,Q
2023-03-15 13:36:13:842,0,4.3802,-2.53169,-23.9692,Q,Q
2023-03-15 13:36:13:852,0,4.40706,-2.49808,-23.9037,Q,Q
2023-03-15 13:36:13:862,0,4.4302,-2.4681,-23.8445,Q,Q
2023-03-15 13:36:13:871,0,4.44534,-2.4332,-23.7866,Q,Q
2023-03-15 13:36:13:882,0,4.45638,-2.40691,-23.7291,Q,Q
2023-03-15 13:36:13:891,0,4.45912,-2.38248,-23.6778,Q,Q
2023-03-15 13:36:13:902,0,4.46057,-2.36213,-23.6323,Q,Q
2023-03-15 13:36:13:912,0,4.46295,-2.34325,-23.5954,Q,Q
2023-03-15 13:36:13:922,0,4.46466,-2.33165,-23.5667,Q,Q
2023-03-15 13:36:13:932,0,4.46786,-2.32241,-23.5414,Q,Q
2023-03-15 13:36:13:942,0,4.46659,-2.3175,-23.5289,Q,Q
2023-03-15 13:36:13:952,0,4.46617,-2.31489,-23.5217,Q,Q
2023-03-15 13:36:13:962,0,4.46598,-2.31413,-23.5259,Q,Q
2023-03-15 13:36:13:972,0,4.47539,-2.31391,-23.535,Q,Q
2023-03-15 13:36:13:982,0,4.48404,-2.31567,-23.5512,Q,Q
2023-03-15 13:36:13:991,0,4.49027,-2.31308,-23.5694,Q,Q
2023-03-15 13:36:14:2,0,4.49403,-2.31232,-23.5867,Q,Q
2023-03-15 13:36:14:12,0,4.49301,-2.31926,-23.6063,Q,Q
2023-03-15 13:36:14:22,0,4.49497,-2.3272,-23.6282,Q,Q
2023-03-15 13:36:14:32,0,4.49592,-2.33619,-23.6537,Q,Q
2023-03-15 13:36:14:42,0,4.50525,-2.33939,-23.6818,Q,Q
2023-03-15 13:36:14:52,0,4.51888,-2.34532,-23.7151,Q,Q
2023-03-15 13:36:14:62,0,4.53938,-2.34792,-23.7428,Q,Q
2023-03-15 13:36:14:71,0,4.56563,-2.34808,-23.7669,Q,Q
2023-03-15 13:36:14:82,0,4.59237,-2.35091,-23.7911,Q,Q
2023-03-15 13:36:14:91,0,4.61896,-2.35706,-23.8135,Q,Q
2023-03-15 13:36:14:102,0,4.64139,-2.36894,-23.839,Q,Q
2023-03-15 13:36:14:111,0,4.66115,-2.37768,-23.8636,Q,Q
2023-03-15 13:36:14:121,0,4.67733,-2.3846,-23.8895,Q,Q
2023-03-15 13:36:14:132,0,4.68859,-2.39429,-23.9138,Q,Q
2023-03-15 13:36:14:142,0,4.69624,-2.40264,-23.9388,Q,Q
2023-03-15 13:36:14:152,0,4.7021,-2.4063,-23.9623,Q,Q
2023-03-15 13:36:14:162,0,4.70406,-2.41048,-23.9838,Q,Q
2023-03-15 13:36:14:172,0,4.70376,-2.41868,-24.0022,Q,Q
2023-03-15 13:36:14:181,0,4.69732,-2.42192,-24.0219,Q,Q
2023-03-15 13:36:14:192,0,4.69247,-2.42626,-24.0371,Q,Q
2023-03-15 13:36:14:202,0,4.69042,-2.43132,-24.0521,Q,Q
2023-03-15 13:36:14:212,0,4.68463,-2.43576,-24.0673,Q,Q
2023-03-15 13:36:14:221,0,4.67671,-2.43883,-24.0756,Q,Q
2023-03-15 13:36:14:232,0,4.6664,-2.44324,-24.0831,Q,Q
2023-03-15 13:36:14:241,0,4.65783,-2.44697,-24.0882,Q,Q
2023-03-15 13:36:14:251,0,4.64759,-2.44541,-24.093,Q,Q
2023-03-15 13:36:14:262,0,4.642,-2.44047,-24.0937,Q,Q
2023-03-15 13:36:14:272,0,4.63678,-2.43476,-24.0972,Q,Q
2023-03-15 13:36:14:282,0,4.62974,-2.43077,-24.0988,Q,Q
2023-03-15 13:36:14:292,0,4.62322,-2.42144,-24.1048,Q,Q
2023-03-15 13:36:14:302,0,4.6177,-2.40727,-24.1119,Q,Q
2023-03-15 13:36:14:312,0,4.61481,-2.39307,-24.123,Q,Q
2023-03-15 13:36:14:321,0,4.61435,-2.37843,-24.1381,Q,Q
2023-03-15 13:36:14:331,0,4.61582,-2.36504,-24.1586,Q,Q
2023-03-15 13:36:14:342,0,4.62237,-2.35233,-24.1862,Q,Q
2023-03-15 13:36:14:352,0,4.63109,-2.33413,-24.2179,Q,Q
2023-03-15 13:36:14:362,0,4.64174,-2.31331,-24.2531,Q,Q
2023-03-15 13:36:14:372,0,4.6533,-2.29786,-24.2866,Q,Q
2023-03-15 13:36:14:382,0,4.65927,-2.28511,-24.3258,Q,Q
2023-03-15 13:36:14:392,0,4.66184,-2.27627,-24.3645,Q,Q
2023-03-15 13:36:14:402,0,4.65903,-2.2654,-24.4014,Q,Q
2023-03-15 13:36:14:412,0,4.65199,-2.26199,-24.4374,Q,Q
2023-03-15 13:36:14:422,0,4.63908,-2.25927,-24.4725,Q,Q
2023-03-15 13:36:14:431,0,4.62349,-2.25242,-24.5087,Q,Q
2023-03-15 13:36:14:441,0,4.60591,-2.2464,-24.5405,Q,Q
2023-03-15 13:36:14:451,0,4.59209,-2.23485,-24.5722,Q,Q
2023-03-15 13:36:14:461,0,4.57499,-2.21935,-24.6014,Q,Q
2023-03-15 13:36:14:471,0,4.55725,-2.20215,-24.6247,Q,Q
2023-03-15 13:36:14:481,0,4.53883,-2.18405,-24.6481,Q,Q
2023-03-15 13:36:14:491,0,4.52088,-2.1658,-24.6713,Q,Q
2023-03-15 13:36:14:501,0,4.50198,-2.14285,-24.6924,Q,Q
2023-03-15 13:36:14:511,0,4.48448,-2.12387,-24.7119,Q,Q
2023-03-15 13:36:14:521,0,4.46648,-2.10283,-24.7313,Q,Q
2023-03-15 13:36:14:531,0,4.45354,-2.08407,-24.752,Q,Q
2023-03-15 13:36:14:542,0,4.44647,-2.06394,-24.7695,Q,Q
2023-03-15 13:36:14:552,0,4.43831,-2.04345,-24.7878,Q,Q
2023-03-15 13:36:14:562,0,4.43553,-2.02358,-24.8091,Q,Q
2023-03-15 13:36:14:571,0,4.43559,-2.00226,-24.8296,Q,Q
2023-03-15 13:36:14:581,0,4.43936,-1.98082,-24.8478,Q,Q
2023-03-15 13:36:14:591,0,4.44797,-1.96109,-24.8608,Q,Q
2023-03-15 13:36:14:602,0,4.45682,-1.93776,-24.8731,Q,Q
2023-03-15 13:36:14:611,0,4.47252,-1.90963,-24.8845,Q,Q
2023-03-15 13:36:14:621,0,4.48866,-1.88145,-24.8922,Q,Q
2023-03-15 13:36:14:632,0,4.50427,-1.84874,-24.8975,Q,Q
2023-03-15 13:36:14:641,0,4.52144,-1.81509,-24.901,Q,Q
2023-03-15 13:36:14:651,0,4.53521,-1.77549,-24.9085,Q,Q
2023-03-15 13:36:14:661,0,4.54611,-1.73272,-24.9154,Q,Q
2023-03-15 13:36:14:671,0,4.55422,-1.68947,-24.9164,Q,Q
2023-03-15 13:36:14:682,0,4.56583,-1.64734,-24.9179,Q,Q
2023-03-15 13:36:14:691,0,4.57752,-1.61071,-24.9168,Q,Q
2023-03-15 13:36:14:702,0,4.58827,-1.57947,-24.9089,Q,Q
2023-03-15 13:36:14:712,0,4.59732,-1.55141,-24.8986,Q,Q
2023-03-15 13:36:14:722,0,4.60412,-1.52853,-24.8916,Q,Q
2023-03-15 13:36:14:731,0,4.61135,-1.50773,-24.8815,Q,Q
2023-03-15 13:36:14:742,0,4.61269,-1.48902,-24.8755,Q,Q
2023-03-15 13:36:14:752,0,4.61159,-1.46998,-24.8681,Q,Q
2023-03-15 13:36:14:762,0,4.60513,-1.45229,-24.8639,Q,Q
2023-03-15 13:36:14:772,0,4.59485,-1.43462,-24.856,Q,Q
2023-03-15 13:36:14:781,0,4.5814,-1.4169,-24.8499,Q,Q
2023-03-15 13:36:14:792,0,4.56902,-1.40441,-24.8444,Q,Q
2023-03-15 13:36:14:801,0,4.5531,-1.39288,-24.8407,Q,Q
2023-03-15 13:36:14:811,0,4.53939,-1.382,-24.84,Q,Q
2023-03-15 13:36:14:822,0,4.52679,-1.37209,-24.8403,Q,Q
2023-03-15 13:36:14:831,0,4.51547,-1.36444,-24.8411,Q,Q
2023-03-15 13:36:14:842,0,4.50509,-1.35925,-24.8418,Q,Q
2023-03-15 13:36:14:852,0,4.49643,-1.35619,-24.846,Q,Q
2023-03-15 13:36:14:861,0,4.4834,-1.35529,-24.8476,Q,Q
2023-03-15 13:36:14:872,0,4.47361,-1.35559,-24.8478,Q,Q
2023-03-15 13:36:14:882,0,4.46075,-1.35689,-24.8488,Q,Q
2023-03-15 13:36:14:892,0,4.44715,-1.36406,-24.8504,Q,Q
2023-03-15 13:36:14:902,0,4.43378,-1.3733,-24.8511,Q,Q
2023-03-15 13:36:14:912,0,4.4219,-1.37778,-24.8505,Q,Q
2023-03-15 13:36:14:921,0,4.40826,-1.38242,-24.8499,Q,Q
2023-03-15 13:36:14:932,0,4.39456,-1.38543,-24.8487,Q,Q
2023-03-15 13:36:14:942,0,4.37919,-1.38861,-24.8489,Q,Q
2023-03-15 13:36:14:952,0,4.36806,-1.39368,-24.8463,Q,Q
2023-03-15 13:36:14:962,0,4.35894,-1.40377,-24.8432,Q,Q
2023-03-15 13:36:14:971,0,4.34925,-1.41407,-24.8415,Q,Q
2023-03-15 13:36:14:982,0,4.33833,-1.42297,-24.8353,Q,Q
2023-03-15 13:36:14:992,0,4.3271,-1.43421,-24.8297,Q,Q
2023-03-15 13:36:15:2,0,4.31925,-1.44535,-24.8288,Q,Q
2023-03-15 13:36:15:12,0,4.31207,-1.45157,-24.8282,Q,Q
2023-03-15 13:36:15:21,0,4.30312,-1.45783,-24.8282,Q,Q
2023-03-15 13:36:15:31,0,4.30027,-1.46141,-24.8286,Q,Q
2023-03-15 13:36:15:41,0,4.29812,-1.46055,-24.8287,Q,Q
2023-03-15 13:36:15:52,0,4.29681,-1.46448,-24.8345,Q,Q
2023-03-15 13:36:15:62,0,4.30287,-1.47117,-24.8415,Q,Q
2023-03-15 13:36:15:72,0,4.30597,-1.47135,-24.8501,Q,Q
2023-03-15 13:36:15:82,0,4.3137,-1.47697,-24.8578,Q,Q
2023-03-15 13:36:15:91,0,4.31715,-1.48674,-24.8668,Q,Q
2023-03-15 13:36:15:101,0,4.31935,-1.49539,-24.8786,Q,Q
2023-03-15 13:36:15:111,0,4.31635,-1.50782,-24.8891,Q,Q
2023-03-15 13:36:15:121,0,4.31599,-1.52093,-24.9022,Q,Q
2023-03-15 13:36:15:131,0,4.31572,-1.52923,-24.913,Q,Q
2023-03-15 13:36:15:141,0,4.31292,-1.53779,-24.9223,Q,Q
2023-03-15 13:36:15:152,0,4.30997,-1.54494,-24.9287,Q,Q
2023-03-15 13:36:15:161,0,4.31011,-1.55319,-24.9364,Q,Q
2023-03-15 13:36:15:171,0,4.30767,-1.55447,-24.9449,Q,Q
2023-03-15 13:36:15:182,0,4.30709,-1.55688,-24.9502,Q,Q
2023-03-15 13:36:15:191,0,4.30365,-1.55348,-24.9539,Q,Q
2023-03-15 13:36:15:202,0,4.30107,-1.55125,-24.9571,Q,Q
2023-03-15 13:36:15:212,0,4.29525,-1.54493,-24.9581,Q,Q
2023-03-15 13:36:15:222,0,4.28825,-1.5385,-24.9628,Q,Q
2023-03-15 13:36:15:231,0,4.28187,-1.52881,-24.9699,Q,Q
2023-03-15 13:36:15:241,0,4.27446,-1.523,-24.9766,Q,Q
2023-03-15 13:36:15:252,0,4.26632,-1.51928,-24.9796,Q,Q
2023-03-15 13:36:15:262,0,4.25619,-1.51491,-24.9846,Q,Q
2023-03-15 13:36:15:271,0,4.24734,-1.50978,-24.9878,Q,Q
2023-03-15 13:36:15:281,0,4.23879,-1.50564,-24.9951,Q,Q
2023-03-15 13:36:15:291,0,4.22155,-1.50384,-25.0034,Q,Q
2023-03-15 13:36:15:302,0,4.20863,-1.50665,-25.0117,Q,Q
2023-03-15 13:36:15:312,0,4.19611,-1.50891,-25.0229,Q,Q
2023-03-15 13:36:15:322,0,4.18248,-1.51095,-25.0437,Q,Q
2023-03-15 13:36:15:332,0,4.16699,-1.51144,-25.0683,Q,Q
2023-03-15 13:36:15:341,0,4.15256,-1.51566,-25.0921,Q,Q
2023-03-15 13:36:15:351,0,4.14186,-1.51687,-25.1139,Q,Q
2023-03-15 13:36:15:362,0,4.13122,-1.52011,-25.1405,Q,Q
2023-03-15 13:36:15:371,0,4.12221,-1.52227,-25.1658,Q,Q
2023-03-15 13:36:15:381,0,4.11081,-1.52498,-25.1896,Q,Q
2023-03-15 13:36:15:392,0,4.09973,-1.53213,-25.21,Q,Q
2023-03-15 13:36:15:402,0,4.09236,-1.54139,-25.2268,Q,Q
2023-03-15 13:36:15:411,0,4.084,-1.55053,-25.2421,Q,Q
2023-03-15 13:36:15:422,0,4.07773,-1.55884,-25.2571,Q,Q
2023-03-15 13:36:15:432,0,4.06927,-1.56906,-25.2661,Q,Q
2023-03-15 13:36:15:441,0,4.06128,-1.58048,-25.2793,Q,Q
2023-03-15 13:36:15:452,0,4.05339,-1.59188,-25.2893,Q,Q
2023-03-15 13:36:15:462,0,4.04926,-1.59887,-25.2937,Q,Q
2023-03-15 13:36:15:471,0,4.04884,-1.60477,-25.2998,Q,Q
2023-03-15 13:36:15:482,0,4.0489,-1.60661,-25.3038,Q,Q
2023-03-15 13:36:15:491,0,4.05172,-1.61376,-25.3027,Q,Q
2023-03-15 13:36:15:502,0,4.05919,-1.61886,-25.2957,Q,Q
2023-03-15 13:36:15:512,0,4.06581,-1.6231,-25.2908,Q,Q
2023-03-15 13:36:15:521,0,4.07121,-1.62623,-25.2837,Q,Q
2023-03-15 13:36:15:531,0,4.07479,-1.62698,-25.2784,Q,Q
2023-03-15 13:36:15:542,0,4.0802,-1.62797,-25.2743,Q,Q
2023-03-15 13:36:15:552,0,4.08555,-1.62832,-25.2678,Q,Q
2023-03-15 13:36:15:562,0,4.09138,-1.63298,-25.2615,Q,Q
2023-03-15 13:36:15:571,0,4.10251,-1.64448,-25.2511,Q,Q
2023-03-15 13:36:15:582,0,4.11705,-1.66289,-25.24,Q,Q
2023-03-15 13:36:15:591,0,4.12929,-1.68654,-25.2248,Q,Q
2023-03-15 13:36:15:601,0,4.14809,-1.70617,-25.2145,Q,Q
2023-03-15 13:36:15:611,0,4.16949,-1.72286,-25.2075,Q,Q
2023-03-15 13:36:15:621,0,4.19155,-1.73338,-25.2064,Q,Q
2023-03-15 13:36:15:631,0,4.21323,-1.74059,-25.2056,Q,Q
2023-03-15 13:36:15:642,0,4.23773,-1.7435,-25.2048,Q,Q
2023-03-15 13:36:15:652,0,4.25968,-1.74481,-25.2005,Q,Q
2023-03-15 13:36:15:662,0,4.28313,-1.74776,-25.2023,Q,Q
2023-03-15 13:36:15:672,0,4.30321,-1.74723,-25.2041,Q,Q
2023-03-15 13:36:15:681,0,4.32472,-1.74889,-25.2063,Q,Q
2023-03-15 13:36:15:691,0,4.34831,-1.74934,-25.2113,Q,Q
2023-03-15 13:36:15:702,0,4.37315,-1.74913,-25.2203,Q,Q
2023-03-15 13:36:15:712,0,4.40058,-1.7479,-25.2276,Q,Q
2023-03-15 13:36:15:721,0,4.42265,-1.74442,-25.2363,Q,Q
2023-03-15 13:36:15:731,0,4.43971,-1.74083,-25.2453,Q,Q
2023-03-15 13:36:15:742,0,4.45719,-1.73646,-25.2572,Q,Q
2023-03-15 13:36:15:751,0,4.4699,-1.73458,-25.2705,Q,Q
2023-03-15 13:36:15:762,0,4.48257,-1.73544,-25.2828,Q,Q
2023-03-15 13:36:15:772,0,4.48728,-1.7372,-25.2965,Q,Q
2023-03-15 13:36:15:782,0,4.49466,-1.73769,-25.309,Q,Q
2023-03-15 13:36:15:791,0,4.49671,-1.73703,-25.3197,Q,Q
2023-03-15 13:36:15:802,0,4.49775,-1.73479,-25.3267,Q,Q
2023-03-15 13:36:15:812,0,4.49983,-1.73174,-25.3333,Q,Q
2023-03-15 13:36:15:822,0,4.50668,-1.72831,-25.3347,Q,Q
2023-03-15 13:36:15:832,0,4.51873,-1.72493,-25.3333,Q,Q
2023-03-15 13:36:15:841,0,4.52755,-1.72478,-25.3293,Q,Q
2023-03-15 13:36:15:851,0,4.53835,-1.72815,-25.3224,Q,Q
2023-03-15 13:36:15:861,0,4.55259,-1.73181,-25.3134,Q,Q
2023-03-15 13:36:15:872,0,4.56067,-1.73216,-25.304,Q,Q
2023-03-15 13:36:15:882,0,4.56894,-1.73202,-25.2951,Q,Q
2023-03-15 13:36:15:892,0,4.57316,-1.72939,-25.2874,Q,Q
2023-03-15 13:36:15:902,0,4.57285,-1.72662,-25.2779,Q,Q
2023-03-15 13:36:15:911,0,4.57152,-1.72566,-25.2689,Q,Q
2023-03-15 13:36:15:922,0,4.569,-1.72898,-25.2581,Q,Q
2023-03-15 13:36:15:931,0,4.5637,-1.72686,-25.2541,Q,Q
2023-03-15 13:36:15:942,0,4.55533,-1.73282,-25.2484,Q,Q
2023-03-15 13:36:15:952,0,4.54663,-1.73616,-25.24,Q,Q
2023-03-15 13:36:15:961,0,4.53579,-1.74002,-25.235,Q,Q
2023-03-15 13:36:15:971,0,4.51745,-1.7422,-25.2347,Q,Q
2023-03-15 13:36:15:981,0,4.49553,-1.74718,-25.2297,Q,Q
2023-03-15 13:36:15:992,0,4.4739,-1.75388,-25.227,Q,Q
2023-03-15 13:36:16:1,0,4.45139,-1.76477,-25.2268,Q,Q
2023-03-15 13:36:16:12,0,4.42518,-1.77748,-25.2251,Q,Q
2023-03-15 13:36:16:21,0,4.40302,-1.78935,-25.2257,Q,Q
2023-03-15 13:36:16:31,0,4.37864,-1.80358,-25.229,Q,Q
2023-03-15 13:36:16:42,0,4.35628,-1.81769,-25.2307,Q,Q
2023-03-15 13:36:16:51,0,4.34106,-1.83386,-25.2365,Q,Q
2023-03-15 13:36:16:62,0,4.32921,-1.84691,-25.2405,Q,Q
2023-03-15 13:36:16:71,0,4.32036,-1.86501,-25.2494,Q,Q
2023-03-15 13:36:16:82,0,4.31399,-1.88159,-25.2517,Q,Q
2023-03-15 13:36:16:92,0,4.30578,-1.90065,-25.2548,Q,Q
2023-03-15 13:36:16:102,0,4.30003,-1.91805,-25.2537,Q,Q
2023-03-15 13:36:16:111,0,4.30053,-1.92985,-25.2518,Q,Q
2023-03-15 13:36:16:121,0,4.29613,-1.94495,-25.2503,Q,Q
2023-03-15 13:36:16:131,0,4.28883,-1.96003,-25.2476,Q,Q
2023-03-15 13:36:16:141,0,4.27974,-1.97162,-25.2434,Q,Q
2023-03-15 13:36:16:152,0,4.27145,-1.98608,-25.2406,Q,Q
2023-03-15 13:36:16:161,0,4.2668,-2.00055,-25.2346,Q,Q
2023-03-15 13:36:16:171,0,4.25883,-2.01287,-25.2313,Q,Q
2023-03-15 13:36:16:181,0,4.25501,-2.01723,-25.2285,Q,Q
2023-03-15 13:36:16:192,0,4.24786,-2.01829,-25.2246,Q,Q
2023-03-15 13:36:16:202,0,4.24006,-2.01983,-25.226,Q,Q
2023-03-15 13:36:16:212,0,4.22956,-2.02178,-25.227,Q,Q
2023-03-15 13:36:16:221,0,4.21824,-2.0216,-25.226,Q,Q
2023-03-15 13:36:16:232,0,4.20227,-2.02012,-25.2269,Q,Q
2023-03-15 13:36:16:241,0,4.18481,-2.01572,-25.2258,Q,Q
2023-03-15 13:36:16:252,0,4.16384,-2.01009,-25.2315,Q,Q
2023-03-15 13:36:16:262,0,4.1421,-2.00426,-25.2393,Q,Q
2023-03-15 13:36:16:272,0,4.11644,-1.99629,-25.2464,Q,Q
2023-03-15 13:36:16:281,0,4.09201,-1.9891,-25.2538,Q,Q
2023-03-15 13:36:16:291,0,4.06545,-1.9822,-25.2641,Q,Q
2023-03-15 13:36:16:302,0,4.04376,-1.97815,-25.2785,Q,Q
2023-03-15 13:36:16:311,0,4.02475,-1.97421,-25.2941,Q,Q
2023-03-15 13:36:16:321,0,4.00875,-1.97201,-25.3079,Q,Q
2023-03-15 13:36:16:331,0,3.9974,-1.97104,-25.3189,Q,Q
2023-03-15 13:36:16:341,0,3.98731,-1.96703,-25.3313,Q,Q
2023-03-15 13:36:16:351,0,3.97857,-1.96227,-25.3412,Q,Q
2023-03-15 13:36:16:361,0,3.97033,-1.95646,-25.3481,Q,Q
2023-03-15 13:36:16:371,0,3.95912,-1.94962,-25.3543,Q,Q
2023-03-15 13:36:16:381,0,3.95519,-1.94279,-25.3615,Q,Q
2023-03-15 13:36:16:391,0,3.94457,-1.93825,-25.3712,Q,Q
2023-03-15 13:36:16:401,0,3.93229,-1.93083,-25.3767,Q,Q
2023-03-15 13:36:16:411,0,3.91903,-1.91868,-25.3772,Q,Q
2023-03-15 13:36:16:421,0,3.90187,-1.90484,-25.3826,Q,Q
2023-03-15 13:36:16:431,0,3.88791,-1.88955,-25.3848,Q,Q
2023-03-15 13:36:16:442,0,3.87805,-1.88143,-25.3867,Q,Q
2023-03-15 13:36:16:451,0,3.87159,-1.882,-25.3883,Q,Q
2023-03-15 13:36:16:461,0,3.86473,-1.88643,-25.3848,Q,Q
2023-03-15 13:36:16:471,0,3.8568,-1.89064,-25.3784,Q,Q
2023-03-15 13:36:16:481,0,3.84693,-1.89297,-25.3731,Q,Q
2023-03-15 13:36:16:491,0,3.83964,-1.89146,-25.3732,Q,Q
2023-03-15 13:36:16:502,0,3.8312,-1.89215,-25.3755,Q,Q
2023-03-15 13:36:16:511,0,3.82198,-1.89061,-25.3864,Q,Q
2023-03-15 13:36:16:521,0,3.81004,-1.89221,-25.4031,Q,Q
2023-03-15 13:36:16:531,0,3.80007,-1.8962,-25.4274,Q,Q
2023-03-15 13:36:16:541,0,3.7936,-1.8923,-25.4505,Q,Q
2023-03-15 13:36:16:551,0,3.78971,-1.88502,-25.476,Q,Q
2023-03-15 13:36:16:561,0,3.78333,-1.87893,-25.5027,Q,Q
2023-03-15 13:36:16:571,0,3.7785,-1.87096,-25.5286,Q,Q
2023-03-15 13:36:16:581,0,3.77287,-1.86205,-25.556,Q,Q
2023-03-15 13:36:16:591,0,3.77265,-1.85993,-25.5804,Q,Q
2023-03-15 13:36:16:601,0,3.76832,-1.86177,-25.6088,Q,Q
2023-03-15 13:36:16:611,0,3.76391,-1.85314,-25.6406,Q,Q
2023-03-15 13:36:16:621,0,3.76095,-1.84516,-25.6788,Q,Q
2023-03-15 13:36:16:631,0,3.75509,-1.83153,-25.722,Q,Q
2023-03-15 13:36:16:641,0,3.74503,-1.81592,-25.7714,Q,Q
2023-03-15 13:36:16:651,0,3.733,-1.79695,-25.8297,Q,Q
2023-03-15 13:36:16:661,0,3.71939,-1.77534,-25.8905,Q,Q
2023-03-15 13:36:16:671,0,3.70363,-1.74112,-25.9539,Q,Q
2023-03-15 13:36:16:681,0,3.68958,-1.70331,-26.024,Q,Q
2023-03-15 13:36:16:691,0,3.67506,-1.66231,-26.0991,Q,Q
2023-03-15 13:36:16:702,0,3.66262,-1.61836,-26.1792,Q,Q
2023-03-15 13:36:16:711,0,3.65802,-1.57522,-26.2571,Q,Q
2023-03-15 13:36:16:721,0,3.65435,-1.53295,-26.3389,Q,Q
2023-03-15 13:36:16:731,0,3.6486,-1.48948,-26.4172,Q,Q
2023-03-15 13:36:16:742,0,3.64399,-1.44531,-26.4942,Q,Q
2023-03-15 13:36:16:751,0,3.63975,-1.40012,-26.573,Q,Q
2023-03-15 13:36:16:761,0,3.63496,-1.35264,-26.6517,Q,Q
2023-03-15 13:36:16:771,0,3.62522,-1.31088,-26.7318,Q,Q
2023-03-15 13:36:16:781,0,3.61253,-1.26682,-26.808,Q,Q
2023-03-15 13:36:16:791,0,3.59561,-1.22432,-26.8867,Q,Q
2023-03-15 13:36:16:801,0,3.57819,-1.17875,-26.956,Q,Q
2023-03-15 13:36:16:811,0,3.56056,-1.13586,-27.0263,Q,Q
2023-03-15 13:36:16:821,0,3.54338,-1.09486,-27.0917,Q,Q
2023-03-15 13:36:16:831,0,3.52888,-1.05704,-27.1542,Q,Q
2023-03-15 13:36:16:841,0,3.51597,-1.02201,-27.212,Q,Q
2023-03-15 13:36:16:851,0,3.50527,-0.99314,-27.2636,Q,Q
2023-03-15 13:36:16:862,0,3.50095,-0.964504,-27.308,Q,Q
2023-03-15 13:36:16:871,0,3.49698,-0.939362,-27.3475,Q,Q
2023-03-15 13:36:16:881,0,3.49502,-0.912834,-27.3765,Q,Q
2023-03-15 13:36:16:891,0,3.49064,-0.889994,-27.4019,Q,Q
2023-03-15 13:36:16:902,0,3.49121,-0.872847,-27.4232,Q,Q
2023-03-15 13:36:16:911,0,3.48836,-0.858797,-27.438,Q,Q
2023-03-15 13:36:16:921,0,3.48345,-0.844788,-27.4464,Q,Q
2023-03-15 13:36:16:931,0,3.47674,-0.831129,-27.4512,Q,Q
2023-03-15 13:36:16:942,0,3.46795,-0.818547,-27.4511,Q,Q
2023-03-15 13:36:16:951,0,3.46014,-0.80338,-27.4515,Q,Q
2023-03-15 13:36:16:962,0,3.44847,-0.789595,-27.4488,Q,Q
2023-03-15 13:36:16:971,0,3.43496,-0.779548,-27.448,Q,Q
2023-03-15 13:36:16:982,0,3.42257,-0.772957,-27.4456,Q,Q
2023-03-15 13:36:16:992,0,3.41075,-0.764293,-27.4485,Q,Q
2023-03-15 13:36:17:2,0,3.39844,-0.760699,-27.4497,Q,Q
2023-03-15 13:36:17:11,0,3.38514,-0.758426,-27.4517,Q,Q
2023-03-15 13:36:17:21,0,3.37218,-0.761478,-27.455,Q,Q
2023-03-15 13:36:17:31,0,3.35568,-0.766623,-27.4602,Q,Q
2023-03-15 13:36:17:41,0,3.34049,-0.770705,-27.4691,Q,Q
2023-03-15 13:36:17:51,0,3.32541,-0.773496,-27.4747,Q,Q
2023-03-15 13:36:17:62,0,3.31064,-0.778851,-27.4833,Q,Q
2023-03-15 13:36:17:71,0,3.30033,-0.786249,-27.4923,Q,Q
2023-03-15 13:36:17:82,0,3.28923,-0.790382,-27.506,Q,Q
2023-03-15 13:36:17:91,0,3.28339,-0.79492,-27.5166,Q,Q
2023-03-15 13:36:17:102,0,3.28088,-0.791906,-27.5267,Q,Q
2023-03-15 13:36:17:111,0,3.278,-0.793613,-27.5373,Q,Q
2023-03-15 13:36:17:121,0,3.27444,-0.794358,-27.5489,Q,Q
2023-03-15 13:36:17:131,0,3.27602,-0.795893,-27.5592,Q,Q
2023-03-15 13:36:17:141,0,3.27889,-0.799261,-27.5662,Q,Q
2023-03-15 13:36:17:151,0,3.28123,-0.802786,-27.5683,Q,Q
2023-03-15 13:36:17:161,0,3.28535,-0.806443,-27.5724,Q,Q
2023-03-15 13:36:17:171,0,3.29244,-0.808586,-27.5755,Q,Q
2023-03-15 13:36:17:181,0,3.29588,-0.815229,-27.5748,Q,Q
2023-03-15 13:36:17:191,0,3.30431,-0.821609,-27.5703,Q,Q
2023-03-15 13:36:17:201,0,3.31352,-0.826039,-27.5671,Q,Q
2023-03-15 13:36:17:211,0,3.31952,-0.834932,-27.559,Q,Q
2023-03-15 13:36:17:221,0,3.32988,-0.834444,-27.5492,Q,Q
2023-03-15 13:36:17:231,0,3.34145,-0.834819,-27.5363,Q,Q
2023-03-15 13:36:17:241,0,3.35334,-0.837861,-27.5221,Q,Q
2023-03-15 13:36:17:251,0,3.37078,-0.840495,-27.5017,Q,Q
2023-03-15 13:36:17:261,0,3.38181,-0.840233,-27.4793,Q,Q
2023-03-15 13:36:17:271,0,3.38761,-0.838623,-27.4585,Q,Q
2023-03-15 13:36:17:281,0,3.39037,-0.839065,-27.4401,Q,Q
2023-03-15 13:36:17:291,0,3.39105,-0.837032,-27.4223,Q,Q
2023-03-15 13:36:17:301,0,3.39621,-0.83436,-27.4057,Q,Q
2023-03-15 13:36:17:311,0,3.40026,-0.838401,-27.3865,Q,Q
2023-03-15 13:36:17:321,0,3.40403,-0.850379,-27.362,Q,Q
2023-03-15 13:36:17:331,0,3.40791,-0.869258,-27.3404,Q,Q
2023-03-15 13:36:17:341,0,3.40561,-0.889104,-27.3215,Q,Q
2023-03-15 13:36:17:351,0,3.40047,-0.908344,-27.3046,Q,Q
2023-03-15 13:36:17:361,0,3.39635,-0.922368,-27.2922,Q,Q
2023-03-15 13:36:17:371,0,3.38555,-0.933967,-27.2779,Q,Q
2023-03-15 13:36:17:381,0,3.37241,-0.943465,-27.2684,Q,Q
2023-03-15 13:36:17:391,0,3.35698,-0.950313,-27.2564,Q,Q
2023-03-15 13:36:17:401,0,3.34151,-0.956091,-27.2487,Q,Q
2023-03-15 13:36:17:411,0,3.32926,-0.959698,-27.2467,Q,Q
2023-03-15 13:36:17:421,0,3.31651,-0.964274,-27.2447,Q,Q
2023-03-15 13:36:17:431,0,3.30782,-0.964215,-27.2457,Q,Q
2023-03-15 13:36:17:441,0,3.30033,-0.967391,-27.2485,Q,Q
2023-03-15 13:36:17:451,0,3.29386,-0.972725,-27.254,Q,Q
2023-03-15 13:36:17:461,0,3.2887,-0.975235,-27.2644,Q,Q
2023-03-15 13:36:17:471,0,3.29233,-0.977421,-27.2726,Q,Q
2023-03-15 13:36:17:481,0,3.29553,-0.983725,-27.2839,Q,Q
2023-03-15 13:36:17:491,0,3.30156,-0.991096,-27.2941,Q,Q
2023-03-15 13:36:17:501,0,3.30556,-0.999973,-27.3062,Q,Q
2023-03-15 13:36:17:511,0,3.31496,-1.00587,-27.315,Q,Q
2023-03-15 13:36:17:521,0,3.31942,-1.01475,-27.3216,Q,Q
2023-03-15 13:36:17:531,0,3.32492,-1.02153,-27.3298,Q,Q
2023-03-15 13:36:17:541,0,3.33039,-1.02548,-27.3324,Q,Q
2023-03-15 13:36:17:551,0,3.34188,-1.02722,-27.3335,Q,Q
2023-03-15 13:36:17:561,0,3.35326,-1.03292,-27.3322,Q,Q
2023-03-15 13:36:17:571,0,3.36592,-1.03814,-27.3261,Q,Q
2023-03-15 13:36:17:581,0,3.37931,-1.0477,-27.3174,Q,Q
2023-03-15 13:36:17:591,0,3.39336,-1.05966,-27.3037,Q,Q
2023-03-15 13:36:17:601,0,3.40505,-1.06993,-27.2891,Q,Q
2023-03-15 13:36:17:611,0,3.41897,-1.08092,-27.2725,Q,Q
2023-03-15 13:36:17:621,0,3.43054,-1.08988,-27.2579,Q,Q
2023-03-15 13:36:17:631,0,3.44112,-1.09436,-27.2419,Q,Q
2023-03-15 13:36:17:641,0,3.45177,-1.09678,-27.2239,Q,Q
2023-03-15 13:36:17:651,0,3.4592,-1.10648,-27.2087,Q,Q
2023-03-15 13:36:17:661,0,3.46099,-1.11435,-27.1919,Q,Q
2023-03-15 13:36:17:671,0,3.46351,-1.12599,-27.1745,Q,Q
2023-03-15 13:36:17:681,0,3.46448,-1.13312,-27.1595,Q,Q
2023-03-15 13:36:17:691,0,3.46176,-1.14188,-27.1474,Q,Q
2023-03-15 13:36:17:701,0,3.46153,-1.15197,-27.1376,Q,Q
2023-03-15 13:36:17:711,0,3.46138,-1.1621,-27.1315,Q,Q
2023-03-15 13:36:17:721,0,3.46343,-1.17201,-27.1267,Q,Q
2023-03-15 13:36:17:731,0,3.46428,-1.18303,-27.1183,Q,Q
2023-03-15 13:36:17:741,0,3.46553,-1.19482,-27.1095,Q,Q
2023-03-15 13:36:17:751,0,3.46991,-1.20688,-27.1034,Q,Q
2023-03-15 13:36:17:761,0,3.46956,-1.218,-27.0942,Q,Q
2023-03-15 13:36:17:771,0,3.47192,-1.22704,-27.0825,Q,Q
2023-03-15 13:36:17:781,0,3.47143,-1.24191,-27.0733,Q,Q
2023-03-15 13:36:17:792,0,3.47413,-1.25262,-27.0587,Q,Q
2023-03-15 13:36:17:801,0,3.47466,-1.26602,-27.0464,Q,Q
2023-03-15 13:36:17:811,0,3.47608,-1.27445,-27.0373,Q,Q
2023-03-15 13:36:17:822,0,3.47713,-1.28458,-27.023,Q,Q
2023-03-15 13:36:17:832,0,3.48041,-1.28983,-27.0112,Q,Q
2023-03-15 13:36:17:841,0,3.48228,-1.30277,-26.9997,Q,Q
2023-03-15 13:36:17:851,0,3.48079,-1.31115,-26.9874,Q,Q
2023-03-15 13:36:17:861,0,3.4787,-1.31885,-26.9765,Q,Q
2023-03-15 13:36:17:871,0,3.47557,-1.33364,-26.9657,Q,Q
2023-03-15 13:36:17:881,0,3.47093,-1.3475,-26.9587,Q,Q
2023-03-15 13:36:17:891,0,3.45922,-1.36626,-26.9504,Q,Q
2023-03-15 13:36:17:901,0,3.44519,-1.38304,-26.947,Q,Q
2023-03-15 13:36:17:911,0,3.43195,-1.40023,-26.9381,Q,Q
2023-03-15 13:36:17:921,0,3.41589,-1.41721,-26.9271,Q,Q
2023-03-15 13:36:17:931,0,3.40687,-1.43113,-26.9133,Q,Q
2023-03-15 13:36:17:942,0,3.39147,-1.44618,-26.8949,Q,Q
2023-03-15 13:36:17:951,0,3.3778,-1.4589,-26.8681,Q,Q
2023-03-15 13:36:17:961,0,3.36762,-1.47198,-26.8357,Q,Q
2023-03-15 13:36:17:971,0,3.35907,-1.48746,-26.8006,Q,Q
2023-03-15 13:36:17:982,0,3.34631,-1.49987,-26.7611,Q,Q
2023-03-15 13:36:17:991,0,3.3357,-1.51402,-26.7111,Q,Q
2023-03-15 13:36:18:1,0,3.32512,-1.52762,-26.6548,Q,Q
2023-03-15 13:36:18:11,0,3.30977,-1.54283,-26.5991,Q,Q
2023-03-15 13:36:18:21,0,3.29411,-1.56042,-26.5458,Q,Q
2023-03-15 13:36:18:31,0,3.27859,-1.58045,-26.4903,Q,Q
2023-03-15 13:36:18:41,0,3.26262,-1.60142,-26.4375,Q,Q
2023-03-15 13:36:18:51,0,3.24786,-1.62139,-26.3884,Q,Q
2023-03-15 13:36:18:61,0,3.23806,-1.64734,-26.3474,Q,Q
2023-03-15 13:36:18:71,0,3.23072,-1.67144,-26.3124,Q,Q
2023-03-15 13:36:18:81,0,3.22621,-1.69522,-26.2804,Q,Q
2023-03-15 13:36:18:91,0,3.21754,-1.7126,-26.2606,Q,Q
2023-03-15 13:36:18:101,0,3.21677,-1.72882,-26.2399,Q,Q
2023-03-15 13:36:18:111,0,3.21628,-1.74508,-26.2311,Q,Q
2023-03-15 13:36:18:121,0,3.21614,-1.75931,-26.221,Q,Q
2023-03-15 13:36:18:131,0,3.22083,-1.77825,-26.2118,Q,Q
2023-03-15 13:36:18:141,0,3.22747,-1.80104,-26.2019,Q,Q
2023-03-15 13:36:18:151,0,3.23159,-1.82506,-26.197,Q,Q
2023-03-15 13:36:18:161,0,3.23103,-1.85254,-26.1861,Q,Q
2023-03-15 13:36:18:171,0,3.22791,-1.87502,-26.1778,Q,Q
2023-03-15 13:36:18:181,0,3.2213,-1.89823,-26.1674,Q,Q
2023-03-15 13:36:18:191,0,3.21251,-1.92029,-26.1596,Q,Q
2023-03-15 13:36:18:201,0,3.20728,-1.93189,-26.1573,Q,Q
2023-03-15 13:36:18:211,0,3.19722,-1.9387,-26.1549,Q,Q
2023-03-15 13:36:18:221,0,3.18499,-1.94052,-26.1472,Q,Q
2023-03-15 13:36:18:231,0,3.17719,-1.93825,-26.1452,Q,Q
2023-03-15 13:36:18:241,0,3.1671,-1.93388,-26.1468,Q,Q
2023-03-15 13:36:18:251,0,3.15529,-1.92838,-26.149,Q,Q
2023-03-15 13:36:18:261,0,3.14222,-1.91929,-26.1533,Q,Q
2023-03-15 13:36:18:271,0,3.12923,-1.90979,-26.1584,Q,Q
2023-03-15 13:36:18:281,0,3.12051,-1.90328,-26.1706,Q,Q
2023-03-15 13:36:18:291,0,3.11286,-1.8994,-26.1821,Q,Q
2023-03-15 13:36:18:301,0,3.1074,-1.89029,-26.1919,Q,Q
2023-03-15 13:36:18:311,0,3.10568,-1.88223,-26.2025,Q,Q
2023-03-15 13:36:18:321,0,3.10878,-1.87705,-26.2055,Q,Q
2023-03-15 13:36:18:331,0,3.10902,-1.87114,-26.2085,Q,Q
2023-03-15 13:36:18:341,0,3.10994,-1.86716,-26.2101,Q,Q
2023-03-15 13:36:18:351,0,3.10855,-1.8641,-26.2091,Q,Q
2023-03-15 13:36:18:361,0,3.10367,-1.86059,-26.2098,Q,Q
2023-03-15 13:36:18:371,0,3.09825,-1.85449,-26.2094,Q,Q
2023-03-15 13:36:18:381,0,3.09312,-1.8464,-26.2059,Q,Q
2023-03-15 13:36:18:391,0,3.08905,-1.84212,-26.1994,Q,Q
2023-03-15 13:36:18:401,0,3.08954,-1.84124,-26.1914,Q,Q
2023-03-15 13:36:18:411,0,3.09119,-1.84447,-26.181,Q,Q
2023-03-15 13:36:18:421,0,3.08908,-1.84369,-26.1736,Q,Q
2023-03-15 13:36:18:431,0,3.09314,-1.8425,-26.1651,Q,Q
2023-03-15 13:36:18:441,0,3.0915,-1.83817,-26.1601,Q,Q
2023-03-15 13:36:18:451,0,3.0953,-1.83519,-26.1554,Q,Q
2023-03-15 13:36:18:461,0,3.09627,-1.83217,-26.1511,Q,Q
2023-03-15 13:36:18:471,0,3.09567,-1.82934,-26.1487,Q,Q
2023-03-15 13:36:18:481,0,3.09107,-1.82568,-26.1481,Q,Q
2023-03-15 13:36:18:491,0,3.08484,-1.82397,-26.1445,Q,Q
2023-03-15 13:36:18:501,0,3.07821,-1.82385,-26.1403,Q,Q
2023-03-15 13:36:18:511,0,3.07071,-1.82912,-26.1355,Q,Q
2023-03-15 13:36:18:522,0,3.06627,-1.83455,-26.1337,Q,Q
2023-03-15 13:36:18:531,0,3.06041,-1.84279,-26.1317,Q,Q
2023-03-15 13:36:18:541,0,3.05977,-1.84701,-26.1282,Q,Q
2023-03-15 13:36:18:551,0,3.05658,-1.85347,-26.1227,Q,Q
2023-03-15 13:36:18:561,0,3.05709,-1.85812,-26.1197,Q,Q
2023-03-15 13:36:18:571,0,3.06054,-1.86515,-26.115,Q,Q
2023-03-15 13:36:18:581,0,3.06505,-1.87369,-26.1108,Q,Q
2023-03-15 13:36:18:591,0,3.0632,-1.87982,-26.1106,Q,Q
2023-03-15 13:36:18:601,0,3.06268,-1.88177,-26.1123,Q,Q
2023-03-15 13:36:18:611,0,3.05912,-1.8803,-26.1139,Q,Q
2023-03-15 13:36:18:621,0,3.05374,-1.88144,-26.1163,Q,Q
2023-03-15 13:36:18:631,0,3.04412,-1.88011,-26.123,Q,Q
2023-03-15 13:36:18:641,0,3.0354,-1.87448,-26.1346,Q,Q
2023-03-15 13:36:18:651,0,3.02706,-1.8691,-26.1462,Q,Q
2023-03-15 13:36:18:661,0,3.01487,-1.85996,-26.1593,Q,Q
2023-03-15 13:36:18:671,0,3.0052,-1.85609,-26.1781,Q,Q
2023-03-15 13:36:18:681,0,2.9962,-1.85452,-26.194,Q,Q
2023-03-15 13:36:18:691,0,2.98608,-1.84669,-26.2166,Q,Q
2023-03-15 13:36:18:701,0,2.97231,-1.8424,-26.238,Q,Q
2023-03-15 13:36:18:711,0,2.96256,-1.83978,-26.2557,Q,Q
2023-03-15 13:36:18:721,0,2.94984,-1.83621,-26.2746,Q,Q
2023-03-15 13:36:18:731,0,2.93729,-1.83257,-26.288,Q,Q
2023-03-15 13:36:18:741,0,2.92448,-1.82643,-26.3004,Q,Q
2023-03-15 13:36:18:751,0,2.91883,-1.82025,-26.3072,Q,Q
2023-03-15 13:36:18:761,0,2.90538,-1.81562,-26.3151,Q,Q
2023-03-15 13:36:18:771,0,2.89366,-1.80906,-26.3207,Q,Q
2023-03-15 13:36:18:781,0,2.88385,-1.80247,-26.3256,Q,Q
2023-03-15 13:36:18:791,0,2.87131,-1.79934,-26.3264,Q,Q
2023-03-15 13:36:18:801,0,2.865,-1.79774,-26.3286,Q,Q
2023-03-15 13:36:18:811,0,2.86101,-1.79524,-26.3314,Q,Q
2023-03-15 13:36:18:821,0,2.86063,-1.79517,-26.3307,Q,Q
2023-03-15 13:36:18:831,0,2.86304,-1.79161,-26.3348,Q,Q
2023-03-15 13:36:18:841,0,2.8709,-1.7915,-26.3363,Q,Q
2023-03-15 13:36:18:851,0,2.88532,-1.79128,-26.338,Q,Q
2023-03-15 13:36:18:861,0,2.90586,-1.79116,-26.3379,Q,Q
2023-03-15 13:36:18:871,0,2.92341,-1.79377,-26.3346,Q,Q
2023-03-15 13:36:18:881,0,2.9454,-1.79269,-26.3311,Q,Q
2023-03-15 13:36:18:891,0,2.96514,-1.7916,-26.326,Q,Q
2023-03-15 13:36:18:901,0,2.98373,-1.78914,-26.319,Q,Q
2023-03-15 13:36:18:911,0,2.99537,-1.78647,-26.3155,Q,Q
2023-03-15 13:36:18:921,0,2.99954,-1.78032,-26.3092,Q,Q
2023-03-15 13:36:18:931,0,3.00397,-1.77618,-26.3034,Q,Q
2023-03-15 13:36:18:941,0,3.00662,-1.77378,-26.2971,Q,Q
2023-03-15 13:36:18:951,0,3.00413,-1.7809,-26.2858,Q,Q
2023-03-15 13:36:18:961,0,3.00053,-1.79271,-26.2738,Q,Q
2023-03-15 13:36:18:971,0,2.99605,-1.80382,-26.2611,Q,Q
2023-03-15 13:36:18:981,0,2.98281,-1.81657,-26.2521,Q,Q
2023-03-15 13:36:18:991,0,2.96722,-1.83342,-26.2373,Q,Q
2023-03-15 13:36:19:1,0,2.95221,-1.84268,-26.226,Q,Q
2023-03-15 13:36:19:11,0,2.93599,-1.85081,-26.2197,Q,Q
2023-03-15 13:36:19:21,0,2.91949,-1.85481,-26.2137,Q,Q
2023-03-15 13:36:19:31,0,2.90307,-1.85761,-26.208,Q,Q
2023-03-15 13:36:19:41,0,2.88819,-1.86139,-26.2015,Q,Q
2023-03-15 13:36:19:51,0,2.8734,-1.86387,-26.1988,Q,Q
2023-03-15 13:36:19:61,0,2.85772,-1.86462,-26.1948,Q,Q
2023-03-15 13:36:19:71,0,2.84231,-1.86343,-26.1946,Q,Q
2023-03-15 13:36:19:81,0,2.82849,-1.8615,-26.1957,Q,Q
2023-03-15 13:36:19:91,0,2.81813,-1.85945,-26.1959,Q,Q
2023-03-15 13:36:19:101,0,2.80553,-1.85724,-26.2021,Q,Q
2023-03-15 13:36:19:111,0,2.79834,-1.85299,-26.2083,Q,Q
2023-03-15 13:36:19:121,0,2.79105,-1.85038,-26.2173,Q,Q
2023-03-15 13:36:19:131,0,2.78427,-1.84681,-26.2217,Q,Q
2023-03-15 13:36:19:141,0,2.7765,-1.84441,-26.2301,Q,Q
2023-03-15 13:36:19:151,0,2.77211,-1.84816,-26.2319,Q,Q
2023-03-15 13:36:19:161,0,2.76188,-1.84794,-26.2333,Q,Q
2023-03-15 13:36:19:171,0,2.75333,-1.84679,-26.2358,Q,Q
2023-03-15 13:36:19:181,0,2.7492,-1.84244,-26.2381,Q,Q
2023-03-15 13:36:19:191,0,2.74505,-1.83382,-26.2392,Q,Q
2023-03-15 13:36:19:201,0,2.74367,-1.82933,-26.2385,Q,Q
2023-03-15 13:36:19:211,0,2.7422,-1.83139,-26.2323,Q,Q
2023-03-15 13:36:19:221,0,2.74253,-1.83411,-26.2235,Q,Q
2023-03-15 13:36:19:231,0,2.74534,-1.83682,-26.2179,Q,Q
2023-03-15 13:36:19:241,0,2.74819,-1.84253,-26.2111,Q,Q
2023-03-15 13:36:19:251,0,2.7506,-1.84689,-26.2015,Q,Q
2023-03-15 13:36:19:261,0,2.75397,-1.84727,-26.1956,Q,Q
2023-03-15 13:36:19:271,0,2.75567,-1.84798,-26.1894,Q,Q
2023-03-15 13:36:19:281,0,2.75952,-1.84555,-26.1838,Q,Q
2023-03-15 13:36:19:291,0,2.7621,-1.84509,-26.1815,Q,Q
2023-03-15 13:36:19:301,0,2.76261,-1.84456,-26.1802,Q,Q
2023-03-15 13:36:19:311,0,2.76623,-1.84318,-26.1818,Q,Q
2023-03-15 13:36:19:321,0,2.77322,-1.84443,-26.1801,Q,Q
2023-03-15 13:36:19:331,0,2.78008,-1.8469,-26.1755,Q,Q
2023-03-15 13:36:19:341,0,2.78817,-1.85218,-26.1746,Q,Q
2023-03-15 13:36:19:351,0,2.79645,-1.8533,-26.1736,Q,Q
2023-03-15 13:36:19:361,0,2.80126,-1.85735,-26.1714,Q,Q
2023-03-15 13:36:19:371,0,2.80585,-1.86133,-26.166,Q,Q
2023-03-15 13:36:19:381,0,2.80768,-1.87208,-26.1615,Q,Q
2023-03-15 13:36:19:391,0,2.80799,-1.87721,-26.1514,Q,Q
2023-03-15 13:36:19:401,0,2.80512,-1.88041,-26.1387,Q,Q
2023-03-15 13:36:19:411,0,2.79824,-1.88249,-26.1249,Q,Q
2023-03-15 13:36:19:421,0,2.79342,-1.88256,-26.1163,Q,Q
2023-03-15 13:36:19:431,0,2.78895,-1.88469,-26.1046,Q,Q
2023-03-15 13:36:19:441,0,2.78277,-1.88319,-26.0968,Q,Q
2023-03-15 13:36:19:451,0,2.77522,-1.8804,-26.088,Q,Q
2023-03-15 13:36:19:461,0,2.77111,-1.87704,-26.0829,Q,Q
2023-03-15 13:36:19:471,0,2.76874,-1.87638,-26.0773,Q,Q
2023-03-15 13:36:19:481,0,2.76387,-1.87132,-26.0751,Q,Q
2023-03-15 13:36:19:491,0,2.75932,-1.86862,-26.0731,Q,Q
2023-03-15 13:36:19:501,0,2.75483,-1.86907,-26.0759,Q,Q
2023-03-15 13:36:19:511,0,2.75411,-1.86779,-26.0808,Q,Q
2023-03-15 13:36:19:521,0,2.75061,-1.86693,-26.088,Q,Q
2023-03-15 13:36:19:531,0,2.74658,-1.86514,-26.093,Q,Q
2023-03-15 13:36:19:541,0,2.74468,-1.86276,-26.1004,Q,Q
2023-03-15 13:36:19:551,0,2.74077,-1.86193,-26.1081,Q,Q
2023-03-15 13:36:19:561,0,2.73549,-1.8597,-26.1105,Q,Q
2023-03-15 13:36:19:571,0,2.73503,-1.85637,-26.1125,Q,Q
2023-03-15 13:36:19:581,0,2.73352,-1.85512,-26.1112,Q,Q
2023-03-15 13:36:19:591,0,2.73285,-1.85454,-26.1135,Q,Q
2023-03-15 13:36:19:601,0,2.72763,-1.85332,-26.1129,Q,Q
2023-03-15 13:36:19:611,0,2.72516,-1.85664,-26.1127,Q,Q
2023-03-15 13:36:19:621,0,2.72417,-1.86233,-26.1092,Q,Q
2023-03-15 13:36:19:631,0,2.72171,-1.86655,-26.1052,Q,Q
2023-03-15 13:36:19:641,0,2.72326,-1.86848,-26.1022,Q,Q
2023-03-15 13:36:19:651,0,2.72409,-1.87305,-26.0967,Q,Q
2023-03-15 13:36:19:661,0,2.72694,-1.87561,-26.0925,Q,Q
2023-03-15 13:36:19:671,0,2.73095,-1.88167,-26.0859,Q,Q
2023-03-15 13:36:19:681,0,2.73376,-1.88541,-26.0791,Q,Q
2023-03-15 13:36:19:691,0,2.73874,-1.88735,-26.0707,Q,Q
2023-03-15 13:36:19:701,0,2.74102,-1.89123,-26.0606,Q,Q
2023-03-15 13:36:19:711,0,2.74213,-1.8996,-26.053,Q,Q
2023-03-15 13:36:19:721,0,2.74061,-1.90147,-26.0473,Q,Q
2023-03-15 13:36:19:731,0,2.73586,-1.90209,-26.0425,Q,Q
2023-03-15 13:36:19:741,0,2.72983,-1.90299,-26.0371,Q,Q
2023-03-15 13:36:19:751,0,2.72495,-1.8973,-26.0319,Q,Q
2023-03-15 13:36:19:761,0,2.72055,-1.89158,-26.0306,Q,Q
2023-03-15 13:36:19:771,0,2.72322,-1.88981,-26.0273,Q,Q
2023-03-15 13:36:19:781,0,2.72825,-1.89509,-26.0192,Q,Q
2023-03-15 13:36:19:791,0,2.72826,-1.90208,-26.0096,Q,Q
2023-03-15 13:36:19:801,0,2.72383,-1.91512,-26.0034,Q,Q
2023-03-15 13:36:19:811,0,2.71674,-1.9265,-25.9969,Q,Q
2023-03-15 13:36:19:821,0,2.70273,-1.93331,-25.9905,Q,Q
2023-03-15 13:36:19:831,0,2.68878,-1.9349,-25.9892,Q,Q
2023-03-15 13:36:19:841,0,2.6731,-1.93325,-25.9863,Q,Q
2023-03-15 13:36:19:851,0,2.66057,-1.93264,-25.9839,Q,Q
2023-03-15 13:36:19:861,0,2.64508,-1.93198,-25.982,Q,Q
2023-03-15 13:36:19:871,0,2.63387,-1.92911,-25.981,Q,Q
2023-03-15 13:36:19:881,0,2.62437,-1.92653,-25.9866,Q,Q
2023-03-15 13:36:19:891,0,2.61596,-1.92335,-25.9896,Q,Q
2023-03-15 13:36:19:901,0,2.6071,-1.92099,-25.9912,Q,Q
2023-03-15 13:36:19:911,0,2.59576,-1.91949,-25.99,Q,Q
2023-03-15 13:36:19:921,0,2.58566,-1.92203,-25.9885,Q,Q
2023-03-15 13:36:19:931,0,2.57157,-1.92642,-25.9884,Q,Q
2023-03-15 13:36:19:941,0,2.55712,-1.9323,-25.9862,Q,Q
2023-03-15 13:36:19:951,0,2.53909,-1.93678,-25.9823,Q,Q
2023-03-15 13:36:19:961,0,2.51982,-1.94194,-25.9799,Q,Q
2023-03-15 13:36:19:971,0,2.5022,-1.94686,-25.9773,Q,Q
2023-03-15 13:36:19:981,0,2.48244,-1.95479,-25.9692,Q,Q
2023-03-15 13:36:19:991,0,2.46477,-1.96326,-25.9662,Q,Q
2023-03-15 13:36:20:1,0,2.45109,-1.96954,-25.9614,Q,Q
2023-03-15 13:36:20:11,0,2.44264,-1.97068,-25.9575,Q,Q
2023-03-15 13:36:20:21,0,2.43565,-1.97243,-25.9527,Q,Q
2023-03-15 13:36:20:31,0,2.43271,-1.97366,-25.9476,Q,Q
2023-03-15 13:36:20:41,0,2.4285,-1.97534,-25.9365,Q,Q
2023-03-15 13:36:20:51,0,2.42985,-1.98044,-25.9257,Q,Q
2023-03-15 13:36:20:61,0,2.42749,-1.98996,-25.9164,Q,Q
2023-03-15 13:36:20:71,0,2.42484,-1.99391,-25.9105,Q,Q
2023-03-15 13:36:20:81,0,2.42631,-1.99593,-25.9068,Q,Q
2023-03-15 13:36:20:91,0,2.42661,-1.99544,-25.9078,Q,Q
2023-03-15 13:36:20:101,0,2.42882,-1.99607,-25.9097,Q,Q
2023-03-15 13:36:20:111,0,2.43042,-1.99729,-25.9085,Q,Q
2023-03-15 13:36:20:121,0,2.43164,-1.99908,-25.9076,Q,Q
2023-03-15 13:36:20:131,0,2.43428,-1.99975,-25.9078,Q,Q
2023-03-15 13:36:20:141,0,2.43789,-2.00046,-25.9096,Q,Q
2023-03-15 13:36:20:151,0,2.44528,-2.00046,-25.9113,Q,Q
2023-03-15 13:36:20:161,0,2.45069,-2.00499,-25.9121,Q,Q
2023-03-15 13:36:20:171,0,2.45368,-2.00635,-25.9083,Q,Q
2023-03-15 13:36:20:181,0,2.45753,-2.01222,-25.9071,Q,Q
2023-03-15 13:36:20:191,0,2.45626,-2.01274,-25.903,Q,Q
2023-03-15 13:36:20:201,0,2.45961,-2.01397,-25.8951,Q,Q
2023-03-15 13:36:20:211,0,2.46102,-2.02041,-25.8824,Q,Q
2023-03-15 13:36:20:221,0,2.46187,-2.02597,-25.8752,Q,Q
2023-03-15 13:36:20:231,0,2.46134,-2.03276,-25.8653,Q,Q
2023-03-15 13:36:20:241,0,2.46589,-2.04019,-25.8569,Q,Q
2023-03-15 13:36:20:251,0,2.46515,-2.04335,-25.8427,Q,Q
2023-03-15 13:36:20:261,0,2.46666,-2.04125,-25.8294,Q,Q
2023-03-15 13:36:20:271,0,2.46503,-2.04046,-25.8199,Q,Q
2023-03-15 13:36:20:281,0,2.46565,-2.0393,-25.8096,Q,Q
2023-03-15 13:36:20:291,0,2.46352,-2.03695,-25.8019,Q,Q
2023-03-15 13:36:20:301,0,2.46098,-2.03,-25.7967,Q,Q
2023-03-15 13:36:20:311,0,2.45817,-2.02359,-25.7924,Q,Q
2023-03-15 13:36:20:321,0,2.45378,-2.02097,-25.7905,Q,Q
2023-03-15 13:36:20:331,0,2.44618,-2.01757,-25.7906,Q,Q
2023-03-15 13:36:20:341,0,2.43045,-2.0147,-25.7928,Q,Q
2023-03-15 13:36:20:351,0,2.41378,-2.01522,-25.7942,Q,Q
2023-03-15 13:36:20:361,0,2.39629,-2.01493,-25.7954,Q,Q
2023-03-15 13:36:20:371,0,2.38207,-2.01468,-25.7985,Q,Q
2023-03-15 13:36:20:381,0,2.36516,-2.01284,-25.8007,Q,Q
2023-03-15 13:36:20:391,0,2.3468,-2.00957,-25.7998,Q,Q
2023-03-15 13:36:20:401,0,2.33551,-2.00187,-25.8054,Q,Q
2023-03-15 13:36:20:411,0,2.32058,-1.99546,-25.8075,Q,Q
2023-03-15 13:36:20:421,0,2.30675,-1.99215,-25.8111,Q,Q
2023-03-15 13:36:20:431,0,2.2924,-1.99101,-25.8143,Q,Q
2023-03-15 13:36:20:441,0,2.28036,-1.98566,-25.8144,Q,Q
2023-03-15 13:36:20:451,0,2.27066,-1.98094,-25.8162,Q,Q
2023-03-15 13:36:20:461,0,2.26418,-1.97947,-25.8204,Q,Q
2023-03-15 13:36:20:471,0,2.26039,-1.98034,-25.8249,Q,Q
2023-03-15 13:36:20:481,0,2.2584,-1.98182,-25.8239,Q,Q
2023-03-15 13:36:20:491,0,2.26082,-1.9821,-25.8233,Q,Q
2023-03-15 13:36:20:501,0,2.26455,-1.98339,-25.8239,Q,Q
2023-03-15 13:36:20:511,0,2.27472,-1.98578,-25.8232,Q,Q
2023-03-15 13:36:20:521,0,2.28283,-1.99072,-25.8217,Q,Q
2023-03-15 13:36:20:531,0,2.29041,-1.99207,-25.8186,Q,Q
2023-03-15 13:36:20:541,0,2.29737,-1.99032,-25.8112,Q,Q
2023-03-15 13:36:20:551,0,2.3081,-1.99015,-25.8024,Q,Q
2023-03-15 13:36:20:561,0,2.31793,-1.98551,-25.7964,Q,Q
2023-03-15 13:36:20:571,0,2.33159,-1.97821,-25.7865,Q,Q
2023-03-15 13:36:20:581,0,2.34219,-1.97597,-25.7778,Q,Q
2023-03-15 13:36:20:591,0,2.35234,-1.97234,-25.7672,Q,Q
2023-03-15 13:36:20:601,0,2.36309,-1.9643,-25.7617,Q,Q
2023-03-15 13:36:20:611,0,2.37378,-1.9614,-25.7551,Q,Q
2023-03-15 13:36:20:621,0,2.38488,-1.96318,-25.745,Q,Q
2023-03-15 13:36:20:631,0,2.39497,-1.97093,-25.7323,Q,Q
2023-03-15 13:36:20:641,0,2.40799,-1.98573,-25.7175,Q,Q
2023-03-15 13:36:20:651,0,2.41461,-2.00588,-25.704,Q,Q
2023-03-15 13:36:20:661,0,2.42356,-2.02337,-25.6915,Q,Q
2023-03-15 13:36:20:671,0,2.4279,-2.03271,-25.6835,Q,Q
2023-03-15 13:36:20:681,0,2.42834,-2.03792,-25.6799,Q,Q
2023-03-15 13:36:20:691,0,2.42396,-2.03818,-25.6747,Q,Q
2023-03-15 13:36:20:701,0,2.4202,-2.04137,-25.6687,Q,Q
