Timestamp_cmd,imu_cmd,roll_delta,pitch_delta,yaw_delta,voice_type,voice_length
2023-03-15 14:13:21:942,0,6.84991,-3.61114,28.3966,Q,Q
2023-03-15 14:13:21:951,0,6.61542,-3.67111,28.7047,Q,Q
2023-03-15 14:13:21:961,0,6.39342,-3.73063,28.9875,Q,Q
2023-03-15 14:13:21:971,0,6.18994,-3.78567,29.2556,Q,Q
2023-03-15 14:13:21:981,0,6.00909,-3.83757,29.5189,Q,Q
2023-03-15 14:13:21:991,0,5.84662,-3.86549,29.7754,Q,Q
2023-03-15 14:13:22:1,0,5.70166,-3.88046,30.0231,Q,Q
2023-03-15 14:13:22:11,0,5.56302,-3.87845,30.2542,Q,Q
2023-03-15 14:13:22:21,0,5.4258,-3.86838,30.4713,Q,Q
2023-03-15 14:13:22:31,0,5.29007,-3.85022,30.6745,Q,Q
2023-03-15 14:13:22:41,0,5.15849,-3.83255,30.8633,Q,Q
2023-03-15 14:13:22:51,0,5.0357,-3.79929,31.0365,Q,Q
2023-03-15 14:13:22:61,0,4.93489,-3.75557,31.1977,Q,Q
2023-03-15 14:13:22:71,0,4.85541,-3.70872,31.3563,Q,Q
2023-03-15 14:13:22:81,0,4.80364,-3.65862,31.5092,Q,Q
2023-03-15 14:13:22:91,0,4.76577,-3.59891,31.6619,Q,Q
2023-03-15 14:13:22:101,0,4.73654,-3.52782,31.8099,Q,Q
2023-03-15 14:13:22:111,0,4.70071,-3.44979,31.9487,Q,Q
2023-03-15 14:13:22:121,0,4.652,-3.36551,32.0812,Q,Q
2023-03-15 14:13:22:131,0,4.59083,-3.28389,32.2127,Q,Q
2023-03-15 14:13:22:141,0,4.52332,-3.21233,32.3436,Q,Q
2023-03-15 14:13:22:151,0,4.45694,-3.14536,32.4759,Q,Q
2023-03-15 14:13:22:161,0,4.38992,-3.0913,32.6084,Q,Q
2023-03-15 14:13:22:171,0,4.31765,-3.03647,32.7471,Q,Q
2023-03-15 14:13:22:181,0,4.24851,-2.9851,32.8831,Q,Q
2023-03-15 14:13:22:191,0,4.18886,-2.93465,33.0166,Q,Q
2023-03-15 14:13:22:201,0,4.14371,-2.88504,33.1566,Q,Q
2023-03-15 14:13:22:211,0,4.11936,-2.8395,33.3034,Q,Q
2023-03-15 14:13:22:221,0,4.10325,-2.79601,33.4613,Q,Q
2023-03-15 14:13:22:231,0,4.09145,-2.74815,33.6216,Q,Q
2023-03-15 14:13:22:241,0,4.0778,-2.69773,33.78,Q,Q
2023-03-15 14:13:22:251,0,4.06399,-2.64001,33.9325,Q,Q
2023-03-15 14:13:22:261,0,4.04099,-2.58696,34.0816,Q,Q
2023-03-15 14:13:22:271,0,4.0093,-2.53692,34.2297,Q,Q
2023-03-15 14:13:22:281,0,3.97962,-2.4882,34.3746,Q,Q
2023-03-15 14:13:22:291,0,3.96148,-2.44003,34.5102,Q,Q
2023-03-15 14:13:22:301,0,3.96076,-2.39579,34.6398,Q,Q
2023-03-15 14:13:22:311,0,3.96294,-2.36418,34.776,Q,Q
2023-03-15 14:13:22:321,0,3.95809,-2.3365,34.9125,Q,Q
2023-03-15 14:13:22:331,0,3.94824,-2.31197,35.0492,Q,Q
2023-03-15 14:13:22:341,0,3.94069,-2.28473,35.1868,Q,Q
2023-03-15 14:13:22:351,0,3.93246,-2.25769,35.3205,Q,Q
2023-03-15 14:13:22:361,0,3.92437,-2.22534,35.4543,Q,Q
2023-03-15 14:13:22:371,0,3.91568,-2.19993,35.5954,Q,Q
2023-03-15 14:13:22:381,0,3.9087,-2.17779,35.7396,Q,Q
2023-03-15 14:13:22:391,0,3.90918,-2.15956,35.8863,Q,Q
2023-03-15 14:13:22:401,0,3.91659,-2.13563,36.0337,Q,Q
2023-03-15 14:13:22:411,0,3.91709,-2.10223,36.177,Q,Q
2023-03-15 14:13:22:421,0,3.90757,-2.07189,36.3121,Q,Q
2023-03-15 14:13:22:431,0,3.89835,-2.04922,36.4443,Q,Q
2023-03-15 14:13:22:441,0,3.88834,-2.03635,36.5735,Q,Q
2023-03-15 14:13:22:451,0,3.88229,-2.03082,36.6957,Q,Q
2023-03-15 14:13:22:461,0,3.87237,-2.03628,36.8202,Q,Q
2023-03-15 14:13:22:471,0,3.86355,-2.04661,36.9348,Q,Q
2023-03-15 14:13:22:481,0,3.85542,-2.05872,37.0355,Q,Q
2023-03-15 14:13:22:491,0,3.8493,-2.07194,37.1343,Q,Q
2023-03-15 14:13:22:501,0,3.84621,-2.08208,37.2251,Q,Q
2023-03-15 14:13:22:511,0,3.84257,-2.09215,37.3061,Q,Q
2023-03-15 14:13:22:521,0,3.84587,-2.09848,37.3785,Q,Q
2023-03-15 14:13:22:531,0,3.86071,-2.10622,37.4416,Q,Q
2023-03-15 14:13:22:541,0,3.88923,-2.10672,37.501,Q,Q
2023-03-15 14:13:22:551,0,3.92551,-2.10603,37.5567,Q,Q
2023-03-15 14:13:22:561,0,3.96546,-2.10746,37.6111,Q,Q
2023-03-15 14:13:22:571,0,4.00012,-2.10281,37.6561,Q,Q
2023-03-15 14:13:22:581,0,4.03624,-2.10129,37.6937,Q,Q
2023-03-15 14:13:22:591,0,4.06996,-2.1006,37.7234,Q,Q
2023-03-15 14:13:22:601,0,4.10017,-2.09825,37.7432,Q,Q
2023-03-15 14:13:22:611,0,4.12751,-2.09508,37.7536,Q,Q
2023-03-15 14:13:22:621,0,4.14505,-2.09888,37.7568,Q,Q
2023-03-15 14:13:22:631,0,4.16316,-2.10683,37.7545,Q,Q
2023-03-15 14:13:22:641,0,4.1709,-2.11655,37.746,Q,Q
2023-03-15 14:13:22:651,0,4.16968,-2.12719,37.7348,Q,Q
2023-03-15 14:13:22:661,0,4.15805,-2.13491,37.7207,Q,Q
2023-03-15 14:13:22:671,0,4.13689,-2.14823,37.7013,Q,Q
2023-03-15 14:13:22:681,0,4.1063,-2.16344,37.6756,Q,Q
2023-03-15 14:13:22:691,0,4.06495,-2.18064,37.632,Q,Q
2023-03-15 14:13:22:701,0,4.01844,-2.20869,37.5677,Q,Q
2023-03-15 14:13:22:711,0,3.96638,-2.25269,37.4689,Q,Q
2023-03-15 14:13:22:721,0,3.91073,-2.30962,37.3189,Q,Q
2023-03-15 14:13:22:731,0,3.84869,-2.38706,37.1032,Q,Q
2023-03-15 14:13:22:741,0,3.77888,-2.49388,36.8088,Q,Q
2023-03-15 14:13:22:751,0,3.7024,-2.63435,36.4169,Q,Q
2023-03-15 14:13:22:761,0,3.61591,-2.81154,35.9134,Q,Q
2023-03-15 14:13:22:771,0,3.51771,-3.02434,35.2786,Q,Q
2023-03-15 14:13:22:781,0,3.40678,-3.26801,34.4958,Q,Q
2023-03-15 14:13:22:791,0,3.28302,-3.53924,33.5589,Q,Q
2023-03-15 14:13:22:801,0,3.1539,-3.84623,32.4691,Q,Q
2023-03-15 14:13:22:811,0,3.02392,-4.17912,31.224,Q,Q
2023-03-15 14:13:22:821,0,2.9171,-4.53576,29.8281,Q,Q
2023-03-15 14:13:22:831,0,2.84102,-4.90996,28.2946,Q,Q
2023-03-15 14:13:22:841,0,2.81042,-5.3044,26.6439,Q,Q
2023-03-15 14:13:22:851,0,2.83004,-5.70825,24.8964,Q,Q
2023-03-15 14:13:22:861,0,2.88273,-6.12465,23.0661,Q,Q
2023-03-15 14:13:22:871,0,2.95897,-6.54412,21.161,Q,Q
2023-03-15 14:13:22:881,0,3.05428,-6.97181,19.1878,Q,Q
2023-03-15 14:13:22:891,0,3.15559,-7.39969,17.1619,Q,Q
2023-03-15 14:13:22:901,0,3.26644,-7.82664,15.1007,Q,Q
2023-03-15 14:13:22:911,0,3.38899,-8.24966,13.0141,Q,Q
2023-03-15 14:13:22:921,0,3.52159,-8.66836,10.9116,Q,Q
2023-03-15 14:13:22:931,0,3.67422,-9.07039,8.79533,Q,Q
2023-03-15 14:13:22:941,0,3.85355,-9.4524,6.67584,Q,Q
2023-03-15 14:13:22:951,0,4.06292,-9.81608,4.56646,Q,Q
2023-03-15 14:13:22:961,0,4.30143,-10.1511,2.48919,Q,Q
2023-03-15 14:13:22:971,0,4.5636,-10.4589,0.448428,Q,Q
2023-03-15 14:13:22:981,0,4.84227,-10.7441,-1.54253,Q,Q
2023-03-15 14:13:22:991,0,5.12898,-11.0017,-3.46883,Q,Q
2023-03-15 14:13:23:1,0,5.40746,-11.2279,-5.32819,Q,Q
2023-03-15 14:13:23:11,0,5.67854,-11.4263,-7.10886,Q,Q
2023-03-15 14:13:23:21,0,5.94442,-11.5863,-8.79471,Q,Q
2023-03-15 14:13:23:31,0,6.20047,-11.7144,-10.3786,Q,Q
2023-03-15 14:13:23:41,0,6.44952,-11.8076,-11.8603,Q,Q
2023-03-15 14:13:23:51,0,6.70158,-11.8665,-13.2352,Q,Q
2023-03-15 14:13:23:61,0,6.95015,-11.891,-14.5011,Q,Q
2023-03-15 14:13:23:71,0,7.19054,-11.8808,-15.655,Q,Q
2023-03-15 14:13:23:81,0,7.42353,-11.8466,-16.7053,Q,Q
2023-03-15 14:13:23:91,0,7.63811,-11.7903,-17.6564,Q,Q
2023-03-15 14:13:23:101,0,7.83875,-11.7112,-18.5084,Q,Q
2023-03-15 14:13:23:111,0,8.01968,-11.6198,-19.2625,Q,Q
2023-03-15 14:13:23:121,0,8.18564,-11.5145,-19.918,Q,Q
2023-03-15 14:13:23:131,0,8.32478,-11.3998,-20.4842,Q,Q
2023-03-15 14:13:23:141,0,8.44766,-11.2764,-20.969,Q,Q
2023-03-15 14:13:23:151,0,8.55261,-11.1499,-21.3675,Q,Q
2023-03-15 14:13:23:161,0,8.63729,-11.0205,-21.6892,Q,Q
2023-03-15 14:13:23:171,0,8.70333,-10.8923,-21.9411,Q,Q
2023-03-15 14:13:23:181,0,8.74863,-10.7708,-22.1318,Q,Q
2023-03-15 14:13:23:191,0,8.77301,-10.6507,-22.2684,Q,Q
2023-03-15 14:13:23:201,0,8.78795,-10.5017,-22.3502,Q,Q
2023-03-15 14:13:23:211,0,8.80241,-10.3797,-22.3956,Q,Q
2023-03-15 14:13:23:221,0,8.78693,-10.2596,-22.3964,Q,Q
2023-03-15 14:13:23:231,0,8.75422,-10.1519,-22.37,Q,Q
2023-03-15 14:13:23:241,0,8.70385,-10.0486,-22.3167,Q,Q
2023-03-15 14:13:23:251,0,8.63599,-9.94364,-22.2341,Q,Q
2023-03-15 14:13:23:261,0,8.55677,-9.83636,-22.1251,Q,Q
2023-03-15 14:13:23:271,0,8.47833,-9.73192,-21.9981,Q,Q
2023-03-15 14:13:23:281,0,8.40045,-9.64026,-21.8507,Q,Q
2023-03-15 14:13:23:291,0,8.31552,-9.55617,-21.6874,Q,Q
2023-03-15 14:13:23:301,0,8.23608,-9.4731,-21.5062,Q,Q
2023-03-15 14:13:23:311,0,8.17021,-9.4083,-21.3245,Q,Q
2023-03-15 14:13:23:321,0,8.10352,-9.34808,-21.1292,Q,Q
2023-03-15 14:13:23:331,0,8.04063,-9.28652,-20.9321,Q,Q
2023-03-15 14:13:23:341,0,7.99308,-9.21852,-20.7309,Q,Q
2023-03-15 14:13:23:351,0,7.95561,-9.15524,-20.5281,Q,Q
2023-03-15 14:13:23:361,0,7.9185,-9.09645,-20.3222,Q,Q
2023-03-15 14:13:23:371,0,7.85734,-9.05927,-20.1178,Q,Q
2023-03-15 14:13:23:381,0,7.80747,-9.02697,-19.9243,Q,Q
2023-03-15 14:13:23:391,0,7.77293,-8.99554,-19.7293,Q,Q
2023-03-15 14:13:23:401,0,7.7415,-8.97184,-19.5323,Q,Q
2023-03-15 14:13:23:411,0,7.69631,-8.94973,-19.3335,Q,Q
2023-03-15 14:13:23:421,0,7.64551,-8.92834,-19.1438,Q,Q
2023-03-15 14:13:23:431,0,7.59578,-8.91821,-18.9603,Q,Q
2023-03-15 14:13:23:441,0,7.55042,-8.90627,-18.7854,Q,Q
2023-03-15 14:13:23:451,0,7.50648,-8.89438,-18.6226,Q,Q
2023-03-15 14:13:23:461,0,7.46206,-8.87599,-18.4679,Q,Q
2023-03-15 14:13:23:471,0,7.42003,-8.85565,-18.3215,Q,Q
2023-03-15 14:13:23:481,0,7.37652,-8.83258,-18.1797,Q,Q
2023-03-15 14:13:23:491,0,7.32722,-8.81503,-18.0473,Q,Q
2023-03-15 14:13:23:501,0,7.26214,-8.80099,-17.9199,Q,Q
2023-03-15 14:13:23:511,0,7.18882,-8.7918,-17.8048,Q,Q
2023-03-15 14:13:23:521,0,7.12252,-8.77866,-17.6933,Q,Q
2023-03-15 14:13:23:531,0,7.06907,-8.75965,-17.5829,Q,Q
2023-03-15 14:13:23:541,0,7.02705,-8.74059,-17.4788,Q,Q
2023-03-15 14:13:23:551,0,6.99114,-8.71859,-17.375,Q,Q
2023-03-15 14:13:23:561,0,6.9566,-8.69688,-17.271,Q,Q
2023-03-15 14:13:23:571,0,6.92341,-8.67047,-17.1691,Q,Q
2023-03-15 14:13:23:581,0,6.89051,-8.63941,-17.069,Q,Q
2023-03-15 14:13:23:591,0,6.85144,-8.60334,-16.9679,Q,Q
2023-03-15 14:13:23:601,0,6.81217,-8.56486,-16.8702,Q,Q
2023-03-15 14:13:23:611,0,6.76751,-8.52536,-16.7764,Q,Q
2023-03-15 14:13:23:621,0,6.72591,-8.48537,-16.6859,Q,Q
2023-03-15 14:13:23:631,0,6.68627,-8.44415,-16.5993,Q,Q
2023-03-15 14:13:23:641,0,6.65268,-8.40392,-16.5188,Q,Q
2023-03-15 14:13:23:651,0,6.6221,-8.36133,-16.4387,Q,Q
2023-03-15 14:13:23:661,0,6.59715,-8.31983,-16.3658,Q,Q
2023-03-15 14:13:23:671,0,6.57544,-8.27876,-16.2965,Q,Q
2023-03-15 14:13:23:681,0,6.5619,-8.24185,-16.2325,Q,Q
2023-03-15 14:13:23:691,0,6.54591,-8.20773,-16.1743,Q,Q
2023-03-15 14:13:23:701,0,6.52251,-8.17711,-16.1174,Q,Q
2023-03-15 14:13:23:711,0,6.49846,-8.14489,-16.0682,Q,Q
2023-03-15 14:13:23:721,0,6.47416,-8.11384,-16.021,Q,Q
2023-03-15 14:13:23:731,0,6.44868,-8.08601,-15.9777,Q,Q
2023-03-15 14:13:23:741,0,6.42647,-8.05533,-15.9345,Q,Q
2023-03-15 14:13:23:751,0,6.41101,-8.03274,-15.8911,Q,Q
2023-03-15 14:13:23:761,0,6.39517,-8.01382,-15.8487,Q,Q
2023-03-15 14:13:23:771,0,6.38036,-7.99507,-15.8066,Q,Q
2023-03-15 14:13:23:781,0,6.36431,-7.97811,-15.7683,Q,Q
2023-03-15 14:13:23:791,0,6.34471,-7.96021,-15.7317,Q,Q
2023-03-15 14:13:23:801,0,6.31995,-7.93966,-15.6952,Q,Q
2023-03-15 14:13:23:811,0,6.29721,-7.92002,-15.6622,Q,Q
2023-03-15 14:13:23:821,0,6.27449,-7.90073,-15.6256,Q,Q
2023-03-15 14:13:23:831,0,6.25825,-7.88558,-15.5894,Q,Q
2023-03-15 14:13:23:841,0,6.24723,-7.87032,-15.5535,Q,Q
2023-03-15 14:13:23:851,0,6.23877,-7.85396,-15.518,Q,Q
2023-03-15 14:13:23:861,0,6.23847,-7.84497,-15.4815,Q,Q
2023-03-15 14:13:23:871,0,6.23872,-7.83606,-15.4447,Q,Q
2023-03-15 14:13:23:881,0,6.24321,-7.82427,-15.4097,Q,Q
2023-03-15 14:13:23:891,0,6.2477,-7.81454,-15.3715,Q,Q
2023-03-15 14:13:23:901,0,6.25098,-7.80885,-15.3354,Q,Q
2023-03-15 14:13:23:911,0,6.25048,-7.80529,-15.2966,Q,Q
2023-03-15 14:13:23:921,0,6.24349,-7.80511,-15.2618,Q,Q
2023-03-15 14:13:23:931,0,6.23636,-7.80692,-15.2284,Q,Q
2023-03-15 14:13:23:941,0,6.22892,-7.81086,-15.1982,Q,Q
2023-03-15 14:13:23:951,0,6.228,-7.81001,-15.1699,Q,Q
2023-03-15 14:13:23:961,0,6.23462,-7.81333,-15.1428,Q,Q
2023-03-15 14:13:23:971,0,6.24335,-7.81812,-15.1198,Q,Q
2023-03-15 14:13:23:981,0,6.25678,-7.82724,-15.0943,Q,Q
2023-03-15 14:13:23:991,0,6.26776,-7.83008,-15.0698,Q,Q
2023-03-15 14:13:24:1,0,6.27612,-7.83532,-15.0475,Q,Q
2023-03-15 14:13:24:11,0,6.27916,-7.8409,-15.0254,Q,Q
2023-03-15 14:13:24:21,0,6.27932,-7.84538,-15.0067,Q,Q
2023-03-15 14:13:24:31,0,6.27564,-7.8455,-14.9905,Q,Q
2023-03-15 14:13:24:41,0,6.27159,-7.84263,-14.9732,Q,Q
2023-03-15 14:13:24:51,0,6.2711,-7.83956,-14.9575,Q,Q
2023-03-15 14:13:24:61,0,6.27444,-7.8389,-14.9397,Q,Q
2023-03-15 14:13:24:71,0,6.28533,-7.83666,-14.9188,Q,Q
2023-03-15 14:13:24:81,0,6.29642,-7.83326,-14.8936,Q,Q
2023-03-15 14:13:24:91,0,6.31018,-7.83083,-14.8642,Q,Q
2023-03-15 14:13:24:101,0,6.32831,-7.82511,-14.8298,Q,Q
2023-03-15 14:13:24:111,0,6.34774,-7.81994,-14.7912,Q,Q
2023-03-15 14:13:24:121,0,6.36612,-7.81702,-14.7451,Q,Q
2023-03-15 14:13:24:131,0,6.37918,-7.81152,-14.6958,Q,Q
2023-03-15 14:13:24:141,0,6.38308,-7.8046,-14.6448,Q,Q
2023-03-15 14:13:24:151,0,6.3845,-7.79707,-14.5883,Q,Q
2023-03-15 14:13:24:161,0,6.38375,-7.79108,-14.5293,Q,Q
2023-03-15 14:13:24:171,0,6.38699,-7.78707,-14.4761,Q,Q
2023-03-15 14:13:24:181,0,6.39128,-7.78246,-14.4189,Q,Q
2023-03-15 14:13:24:191,0,6.40092,-7.77687,-14.3566,Q,Q
2023-03-15 14:13:24:201,0,6.41116,-7.77192,-14.293,Q,Q
2023-03-15 14:13:24:211,0,6.42411,-7.7674,-14.2288,Q,Q
2023-03-15 14:13:24:221,0,6.43987,-7.76221,-14.1667,Q,Q
2023-03-15 14:13:24:231,0,6.45283,-7.75735,-14.1018,Q,Q
2023-03-15 14:13:24:241,0,6.46129,-7.75253,-14.0397,Q,Q
2023-03-15 14:13:24:251,0,6.46782,-7.74906,-13.9807,Q,Q
2023-03-15 14:13:24:261,0,6.4752,-7.74342,-13.9195,Q,Q
2023-03-15 14:13:24:271,0,6.48431,-7.73923,-13.8574,Q,Q
2023-03-15 14:13:24:281,0,6.4944,-7.73403,-13.7985,Q,Q
2023-03-15 14:13:24:291,0,6.50541,-7.72707,-13.7319,Q,Q
2023-03-15 14:13:24:301,0,6.51618,-7.72199,-13.6674,Q,Q
2023-03-15 14:13:24:311,0,6.53215,-7.71983,-13.6061,Q,Q
2023-03-15 14:13:24:321,0,6.54676,-7.71409,-13.5445,Q,Q
2023-03-15 14:13:24:331,0,6.55728,-7.70754,-13.4819,Q,Q
2023-03-15 14:13:24:341,0,6.56113,-7.69981,-13.4181,Q,Q
2023-03-15 14:13:24:351,0,6.56017,-7.69657,-13.3582,Q,Q
2023-03-15 14:13:24:361,0,6.55764,-7.69807,-13.2981,Q,Q
2023-03-15 14:13:24:371,0,6.56146,-7.70019,-13.2351,Q,Q
2023-03-15 14:13:24:381,0,6.56676,-7.70905,-13.1755,Q,Q
2023-03-15 14:13:24:391,0,6.57165,-7.72063,-13.1172,Q,Q
2023-03-15 14:13:24:401,0,6.57234,-7.73092,-13.0612,Q,Q
2023-03-15 14:13:24:411,0,6.56717,-7.74277,-13.0073,Q,Q
2023-03-15 14:13:24:421,0,6.56475,-7.75287,-12.9594,Q,Q
2023-03-15 14:13:24:431,0,6.55689,-7.76242,-12.9142,Q,Q
2023-03-15 14:13:24:441,0,6.54499,-7.76763,-12.8753,Q,Q
2023-03-15 14:13:24:451,0,6.53452,-7.77178,-12.8424,Q,Q
2023-03-15 14:13:24:461,0,6.51852,-7.7759,-12.8089,Q,Q
2023-03-15 14:13:24:471,0,6.50594,-7.78273,-12.7806,Q,Q
2023-03-15 14:13:24:481,0,6.49557,-7.78587,-12.7522,Q,Q
2023-03-15 14:13:24:491,0,6.48987,-7.79245,-12.7269,Q,Q
2023-03-15 14:13:24:501,0,6.49117,-7.79933,-12.7044,Q,Q
2023-03-15 14:13:24:511,0,6.49601,-7.80923,-12.6819,Q,Q
2023-03-15 14:13:24:521,0,6.5042,-7.81686,-12.6589,Q,Q
2023-03-15 14:13:24:531,0,6.51685,-7.82566,-12.6316,Q,Q
2023-03-15 14:13:24:541,0,6.53204,-7.82862,-12.5995,Q,Q
2023-03-15 14:13:24:551,0,6.55079,-7.83408,-12.566,Q,Q
2023-03-15 14:13:24:561,0,6.5683,-7.83842,-12.5326,Q,Q
2023-03-15 14:13:24:571,0,6.58503,-7.8432,-12.493,Q,Q
2023-03-15 14:13:24:581,0,6.60914,-7.84861,-12.4513,Q,Q
2023-03-15 14:13:24:591,0,6.63197,-7.85363,-12.4033,Q,Q
2023-03-15 14:13:24:601,0,6.65774,-7.86189,-12.3463,Q,Q
2023-03-15 14:13:24:611,0,6.68874,-7.86758,-12.2834,Q,Q
2023-03-15 14:13:24:621,0,6.72516,-7.87366,-12.2135,Q,Q
2023-03-15 14:13:24:631,0,6.76134,-7.87774,-12.1362,Q,Q
2023-03-15 14:13:24:641,0,6.79754,-7.88315,-12.0567,Q,Q
2023-03-15 14:13:24:651,0,6.83496,-7.8845,-11.9695,Q,Q
2023-03-15 14:13:24:661,0,6.87224,-7.88287,-11.8813,Q,Q
2023-03-15 14:13:24:671,0,6.90716,-7.87716,-11.7907,Q,Q
2023-03-15 14:13:24:681,0,6.94075,-7.87119,-11.6961,Q,Q
2023-03-15 14:13:24:691,0,6.96725,-7.86925,-11.5976,Q,Q
2023-03-15 14:13:24:701,0,6.98644,-7.87956,-11.499,Q,Q
2023-03-15 14:13:24:711,0,7.00105,-7.89247,-11.4037,Q,Q
2023-03-15 14:13:24:721,0,7.0171,-7.90431,-11.3137,Q,Q
2023-03-15 14:13:24:731,0,7.04219,-7.906,-11.2286,Q,Q
2023-03-15 14:13:24:741,0,7.06363,-7.90634,-11.1433,Q,Q
2023-03-15 14:13:24:751,0,7.0857,-7.9012,-11.0616,Q,Q
2023-03-15 14:13:24:761,0,7.10008,-7.89736,-10.9857,Q,Q
2023-03-15 14:13:24:771,0,7.11523,-7.89532,-10.9186,Q,Q
2023-03-15 14:13:24:781,0,7.14136,-7.8926,-10.8557,Q,Q
2023-03-15 14:13:24:791,0,7.17208,-7.88798,-10.7933,Q,Q
2023-03-15 14:13:24:801,0,7.2177,-7.87811,-10.7336,Q,Q
2023-03-15 14:13:24:811,0,7.26967,-7.86951,-10.6753,Q,Q
2023-03-15 14:13:24:821,0,7.32758,-7.86044,-10.6147,Q,Q
2023-03-15 14:13:24:831,0,7.38114,-7.85145,-10.5601,Q,Q
2023-03-15 14:13:24:841,0,7.4331,-7.8432,-10.5094,Q,Q
2023-03-15 14:13:24:851,0,7.48063,-7.83135,-10.4567,Q,Q
2023-03-15 14:13:24:861,0,7.52422,-7.81824,-10.4057,Q,Q
2023-03-15 14:13:24:871,0,7.56928,-7.80239,-10.354,Q,Q
2023-03-15 14:13:24:881,0,7.60547,-7.78852,-10.3027,Q,Q
2023-03-15 14:13:24:891,0,7.6342,-7.77709,-10.2529,Q,Q
2023-03-15 14:13:24:901,0,7.65714,-7.77024,-10.2057,Q,Q
2023-03-15 14:13:24:911,0,7.68089,-7.76682,-10.1594,Q,Q
2023-03-15 14:13:24:921,0,7.70672,-7.76193,-10.114,Q,Q
2023-03-15 14:13:24:931,0,7.72945,-7.75893,-10.0709,Q,Q
2023-03-15 14:13:24:941,0,7.75883,-7.75582,-10.0263,Q,Q
2023-03-15 14:13:24:951,0,7.78704,-7.74993,-9.98331,Q,Q
2023-03-15 14:13:24:961,0,7.81539,-7.74754,-9.93715,Q,Q
2023-03-15 14:13:24:971,0,7.84041,-7.75389,-9.88933,Q,Q
2023-03-15 14:13:24:981,0,7.86349,-7.75783,-9.84138,Q,Q
2023-03-15 14:13:24:991,0,7.88046,-7.76437,-9.79488,Q,Q
2023-03-15 14:13:25:1,0,7.88904,-7.77102,-9.74871,Q,Q
2023-03-15 14:13:25:11,0,7.88986,-7.7801,-9.70256,Q,Q
2023-03-15 14:13:25:21,0,7.89171,-7.7876,-9.66106,Q,Q
2023-03-15 14:13:25:31,0,7.89369,-7.79659,-9.62027,Q,Q
2023-03-15 14:13:25:41,0,7.90363,-7.81075,-9.57498,Q,Q
2023-03-15 14:13:25:51,0,7.92003,-7.82968,-9.53067,Q,Q
2023-03-15 14:13:25:61,0,7.93981,-7.84845,-9.48763,Q,Q
2023-03-15 14:13:25:71,0,7.96095,-7.86483,-9.4412,Q,Q
2023-03-15 14:13:25:81,0,7.97634,-7.87972,-9.39771,Q,Q
2023-03-15 14:13:25:91,0,7.98632,-7.89776,-9.34994,Q,Q
2023-03-15 14:13:25:101,0,7.99437,-7.90906,-9.30573,Q,Q
2023-03-15 14:13:25:111,0,7.99356,-7.92568,-9.26276,Q,Q
2023-03-15 14:13:25:121,0,7.99356,-7.93734,-9.21628,Q,Q
2023-03-15 14:13:25:131,0,7.98541,-7.94514,-9.1776,Q,Q
2023-03-15 14:13:25:141,0,7.97629,-7.94891,-9.14118,Q,Q
2023-03-15 14:13:25:151,0,7.96959,-7.9588,-9.10556,Q,Q
2023-03-15 14:13:25:161,0,7.96335,-7.96665,-9.07215,Q,Q
2023-03-15 14:13:25:171,0,7.96085,-7.97544,-9.04118,Q,Q
2023-03-15 14:13:25:181,0,7.96367,-7.98341,-9.00983,Q,Q
2023-03-15 14:13:25:191,0,7.96965,-7.98804,-8.98234,Q,Q
2023-03-15 14:13:25:201,0,7.97938,-7.99536,-8.95829,Q,Q
2023-03-15 14:13:25:211,0,7.98823,-7.99927,-8.93362,Q,Q
2023-03-15 14:13:25:221,0,7.99544,-8.00441,-8.90863,Q,Q
2023-03-15 14:13:25:231,0,8.00153,-8.00729,-8.88895,Q,Q
2023-03-15 14:13:25:241,0,8.00774,-8.00882,-8.8751,Q,Q
2023-03-15 14:13:25:251,0,8.01461,-8.01163,-8.86846,Q,Q
2023-03-15 14:13:25:261,0,8.02521,-8.02,-8.86503,Q,Q
2023-03-15 14:13:25:271,0,8.0399,-8.02635,-8.86554,Q,Q
2023-03-15 14:13:25:281,0,8.06109,-8.03477,-8.86296,Q,Q
2023-03-15 14:13:25:291,0,8.08286,-8.04173,-8.86481,Q,Q
2023-03-15 14:13:25:301,0,8.1066,-8.04707,-8.86935,Q,Q
2023-03-15 14:13:25:311,0,8.12891,-8.05236,-8.86955,Q,Q
2023-03-15 14:13:25:321,0,8.14911,-8.05308,-8.86972,Q,Q
2023-03-15 14:13:25:331,0,8.16176,-8.05539,-8.87069,Q,Q
2023-03-15 14:13:25:341,0,8.17212,-8.05444,-8.87085,Q,Q
2023-03-15 14:13:25:351,0,8.17883,-8.04833,-8.87087,Q,Q
2023-03-15 14:13:25:361,0,8.17985,-8.04603,-8.87065,Q,Q
2023-03-15 14:13:25:371,0,8.17709,-8.04259,-8.8656,Q,Q
2023-03-15 14:13:25:381,0,8.17272,-8.03959,-8.86113,Q,Q
2023-03-15 14:13:25:391,0,8.16861,-8.03335,-8.85473,Q,Q
2023-03-15 14:13:25:401,0,8.16523,-8.02829,-8.84408,Q,Q
2023-03-15 14:13:25:411,0,8.16537,-8.02574,-8.83277,Q,Q
2023-03-15 14:13:25:421,0,8.16583,-8.02329,-8.82037,Q,Q
2023-03-15 14:13:25:431,0,8.16617,-8.02117,-8.80622,Q,Q
2023-03-15 14:13:25:441,0,8.16706,-8.01884,-8.79103,Q,Q
2023-03-15 14:13:25:451,0,8.16449,-8.01546,-8.77594,Q,Q
2023-03-15 14:13:25:461,0,8.16122,-8.0109,-8.75542,Q,Q
2023-03-15 14:13:25:471,0,8.15766,-8.00445,-8.73865,Q,Q
2023-03-15 14:13:25:481,0,8.15523,-8.00239,-8.72345,Q,Q
2023-03-15 14:13:25:491,0,8.15682,-8.00019,-8.7098,Q,Q
2023-03-15 14:13:25:501,0,8.15719,-7.99334,-8.69593,Q,Q
2023-03-15 14:13:25:511,0,8.15556,-7.98871,-8.68149,Q,Q
2023-03-15 14:13:25:521,0,8.1563,-7.9783,-8.66818,Q,Q
2023-03-15 14:13:25:531,0,8.15751,-7.96882,-8.65643,Q,Q
2023-03-15 14:13:25:541,0,8.16463,-7.95984,-8.64808,Q,Q
2023-03-15 14:13:25:551,0,8.16775,-7.95244,-8.63713,Q,Q
2023-03-15 14:13:25:561,0,8.17157,-7.94598,-8.62813,Q,Q
2023-03-15 14:13:25:571,0,8.17106,-7.94009,-8.61772,Q,Q
2023-03-15 14:13:25:581,0,8.17036,-7.93474,-8.60969,Q,Q
2023-03-15 14:13:25:591,0,8.16663,-7.92887,-8.60325,Q,Q
2023-03-15 14:13:25:601,0,8.15748,-7.9214,-8.59768,Q,Q
2023-03-15 14:13:25:611,0,8.14914,-7.91728,-8.59213,Q,Q
2023-03-15 14:13:25:621,0,8.14092,-7.91492,-8.58628,Q,Q
2023-03-15 14:13:25:631,0,8.13028,-7.91217,-8.58098,Q,Q
2023-03-15 14:13:25:641,0,8.12198,-7.9061,-8.57438,Q,Q
2023-03-15 14:13:25:651,0,8.11344,-7.90287,-8.56371,Q,Q
2023-03-15 14:13:25:661,0,8.10921,-7.8964,-8.5541,Q,Q
2023-03-15 14:13:25:671,0,8.10607,-7.89279,-8.5413,Q,Q
2023-03-15 14:13:25:681,0,8.10353,-7.88775,-8.52127,Q,Q
2023-03-15 14:13:25:691,0,8.09596,-7.88631,-8.49872,Q,Q
2023-03-15 14:13:25:701,0,8.08475,-7.88545,-8.47337,Q,Q
2023-03-15 14:13:25:711,0,8.07326,-7.88047,-8.44628,Q,Q
2023-03-15 14:13:25:721,0,8.05503,-7.86901,-8.4144,Q,Q
2023-03-15 14:13:25:731,0,8.0317,-7.85568,-8.37784,Q,Q
2023-03-15 14:13:25:741,0,8.01187,-7.84294,-8.33424,Q,Q
2023-03-15 14:13:25:751,0,7.99197,-7.82685,-8.28091,Q,Q
2023-03-15 14:13:25:761,0,7.97481,-7.81375,-8.20578,Q,Q
2023-03-15 14:13:25:771,0,7.95778,-7.80041,-8.11731,Q,Q
2023-03-15 14:13:25:781,0,7.93719,-7.78782,-8.01518,Q,Q
2023-03-15 14:13:25:791,0,7.90814,-7.7701,-7.90081,Q,Q
2023-03-15 14:13:25:801,0,7.87332,-7.75046,-7.77126,Q,Q
2023-03-15 14:13:25:811,0,7.82431,-7.72324,-7.63341,Q,Q
2023-03-15 14:13:25:821,0,7.76707,-7.69405,-7.47191,Q,Q
2023-03-15 14:13:25:831,0,7.69695,-7.664,-7.28615,Q,Q
2023-03-15 14:13:25:841,0,7.62578,-7.63902,-7.0736,Q,Q
2023-03-15 14:13:25:851,0,7.545,-7.61414,-6.82635,Q,Q
2023-03-15 14:13:25:861,0,7.45507,-7.58706,-6.53395,Q,Q
2023-03-15 14:13:25:871,0,7.35663,-7.55803,-6.19705,Q,Q
2023-03-15 14:13:25:881,0,7.24694,-7.52138,-5.81343,Q,Q
2023-03-15 14:13:25:891,0,7.12932,-7.47559,-5.3897,Q,Q
2023-03-15 14:13:25:901,0,7.00001,-7.41553,-4.92722,Q,Q
2023-03-15 14:13:25:911,0,6.85557,-7.34713,-4.43765,Q,Q
2023-03-15 14:13:25:921,0,6.69269,-7.26831,-3.92705,Q,Q
2023-03-15 14:13:25:931,0,6.52393,-7.18283,-3.40496,Q,Q
2023-03-15 14:13:25:941,0,6.35762,-7.09319,-2.87829,Q,Q
2023-03-15 14:13:25:951,0,6.20961,-6.99344,-2.35865,Q,Q
2023-03-15 14:13:25:961,0,6.08628,-6.88151,-1.84297,Q,Q
2023-03-15 14:13:25:971,0,5.9934,-6.75974,-1.33944,Q,Q
2023-03-15 14:13:25:981,0,5.92131,-6.62536,-0.843678,Q,Q
2023-03-15 14:13:25:991,0,5.85395,-6.48423,-0.364797,Q,Q
2023-03-15 14:13:26:1,0,5.7889,-6.34144,0.102308,Q,Q
2023-03-15 14:13:26:11,0,5.72102,-6.20436,0.550745,Q,Q
2023-03-15 14:13:26:21,0,5.64312,-6.06489,0.972001,Q,Q
2023-03-15 14:13:26:31,0,5.55651,-5.92403,1.36704,Q,Q
2023-03-15 14:13:26:41,0,5.46596,-5.78532,1.73077,Q,Q
2023-03-15 14:13:26:51,0,5.38525,-5.65224,2.07028,Q,Q
2023-03-15 14:13:26:61,0,5.31742,-5.52757,2.37933,Q,Q
2023-03-15 14:13:26:71,0,5.25807,-5.40931,2.66555,Q,Q
2023-03-15 14:13:26:81,0,5.20746,-5.3003,2.92207,Q,Q
2023-03-15 14:13:26:91,0,5.15882,-5.20105,3.15383,Q,Q
2023-03-15 14:13:26:101,0,5.11414,-5.11504,3.36801,Q,Q
2023-03-15 14:13:26:111,0,5.0737,-5.04028,3.56525,Q,Q
2023-03-15 14:13:26:121,0,5.02976,-4.97116,3.7488,Q,Q
2023-03-15 14:13:26:131,0,4.98994,-4.91262,3.92119,Q,Q
2023-03-15 14:13:26:141,0,4.9431,-4.864,4.08159,Q,Q
2023-03-15 14:13:26:151,0,4.89621,-4.81944,4.22906,Q,Q
2023-03-15 14:13:26:161,0,4.84238,-4.78584,4.36492,Q,Q
2023-03-15 14:13:26:171,0,4.78616,-4.75771,4.4913,Q,Q
2023-03-15 14:13:26:181,0,4.72785,-4.74001,4.60465,Q,Q
2023-03-15 14:13:26:191,0,4.67628,-4.73372,4.70709,Q,Q
2023-03-15 14:13:26:201,0,4.62315,-4.73802,4.80145,Q,Q
2023-03-15 14:13:26:211,0,4.56658,-4.75328,4.88973,Q,Q
2023-03-15 14:13:26:221,0,4.50297,-4.77853,4.96873,Q,Q
2023-03-15 14:13:26:231,0,4.43696,-4.80333,5.03934,Q,Q
2023-03-15 14:13:26:241,0,4.38267,-4.82937,5.09996,Q,Q
2023-03-15 14:13:26:251,0,4.33347,-4.85286,5.1564,Q,Q
2023-03-15 14:13:26:261,0,4.28891,-4.87783,5.20389,Q,Q
2023-03-15 14:13:26:271,0,4.24777,-4.90896,5.24403,Q,Q
2023-03-15 14:13:26:281,0,4.21028,-4.93305,5.27826,Q,Q
2023-03-15 14:13:26:291,0,4.18007,-4.96161,5.30542,Q,Q
2023-03-15 14:13:26:301,0,4.1549,-4.98488,5.32923,Q,Q
2023-03-15 14:13:26:311,0,4.13275,-5.00064,5.35312,Q,Q
2023-03-15 14:13:26:321,0,4.10744,-5.01826,5.37417,Q,Q
2023-03-15 14:13:26:331,0,4.0805,-5.032,5.39396,Q,Q
2023-03-15 14:13:26:341,0,4.05036,-5.05017,5.40731,Q,Q
2023-03-15 14:13:26:351,0,4.01882,-5.06431,5.41854,Q,Q
2023-03-15 14:13:26:361,0,3.98184,-5.07497,5.43143,Q,Q
2023-03-15 14:13:26:371,0,3.94365,-5.08789,5.44431,Q,Q
2023-03-15 14:13:26:381,0,3.90192,-5.10181,5.45251,Q,Q
2023-03-15 14:13:26:391,0,3.85657,-5.11423,5.46494,Q,Q
2023-03-15 14:13:26:401,0,3.80369,-5.13167,5.47917,Q,Q
2023-03-15 14:13:26:411,0,3.75369,-5.15491,5.49692,Q,Q
2023-03-15 14:13:26:421,0,3.70203,-5.17778,5.51892,Q,Q
2023-03-15 14:13:26:431,0,3.6485,-5.20204,5.54243,Q,Q
2023-03-15 14:13:26:441,0,3.59886,-5.23019,5.56885,Q,Q
2023-03-15 14:13:26:451,0,3.55128,-5.26236,5.59678,Q,Q
2023-03-15 14:13:26:461,0,3.51044,-5.29248,5.6256,Q,Q
2023-03-15 14:13:26:471,0,3.47769,-5.32204,5.65145,Q,Q
2023-03-15 14:13:26:481,0,3.4547,-5.35509,5.67894,Q,Q
2023-03-15 14:13:26:491,0,3.43908,-5.39035,5.70743,Q,Q
2023-03-15 14:13:26:501,0,3.43101,-5.41843,5.73557,Q,Q
2023-03-15 14:13:26:511,0,3.42568,-5.44408,5.75777,Q,Q
2023-03-15 14:13:26:521,0,3.4255,-5.4738,5.77364,Q,Q
2023-03-15 14:13:26:531,0,3.42891,-5.51147,5.78713,Q,Q
2023-03-15 14:13:26:541,0,3.44642,-5.55471,5.79139,Q,Q
2023-03-15 14:13:26:551,0,3.47752,-5.60524,5.78396,Q,Q
2023-03-15 14:13:26:561,0,3.52378,-5.65617,5.76998,Q,Q
2023-03-15 14:13:26:571,0,3.57594,-5.70768,5.74072,Q,Q
2023-03-15 14:13:26:581,0,3.62974,-5.76206,5.69156,Q,Q
2023-03-15 14:13:26:591,0,3.69111,-5.81846,5.61869,Q,Q
2023-03-15 14:13:26:601,0,3.77444,-5.87851,5.52324,Q,Q
2023-03-15 14:13:26:611,0,3.89143,-5.94174,5.40307,Q,Q
2023-03-15 14:13:26:621,0,4.04165,-5.99848,5.26678,Q,Q
2023-03-15 14:13:26:631,0,4.22889,-6.03823,5.11422,Q,Q
2023-03-15 14:13:26:641,0,4.45145,-6.06723,4.94845,Q,Q
2023-03-15 14:13:26:651,0,4.69739,-6.08958,4.77919,Q,Q
2023-03-15 14:13:26:661,0,4.94368,-6.11231,4.60394,Q,Q
2023-03-15 14:13:26:671,0,5.18295,-6.1389,4.42683,Q,Q
2023-03-15 14:13:26:681,0,5.40693,-6.16601,4.24328,Q,Q
2023-03-15 14:13:26:691,0,5.61796,-6.1851,4.06242,Q,Q
2023-03-15 14:13:26:701,0,5.81846,-6.20329,3.88472,Q,Q
2023-03-15 14:13:26:711,0,6.00641,-6.21704,3.71256,Q,Q
2023-03-15 14:13:26:721,0,6.1881,-6.22503,3.55173,Q,Q
2023-03-15 14:13:26:731,0,6.36037,-6.22725,3.40318,Q,Q
2023-03-15 14:13:26:741,0,6.51565,-6.22918,3.26279,Q,Q
2023-03-15 14:13:26:751,0,6.65199,-6.22597,3.13131,Q,Q
2023-03-15 14:13:26:761,0,6.78348,-6.21819,3.0112,Q,Q
2023-03-15 14:13:26:771,0,6.90614,-6.21004,2.9051,Q,Q
2023-03-15 14:13:26:781,0,7.01532,-6.19581,2.81553,Q,Q
2023-03-15 14:13:26:791,0,7.10516,-6.18455,2.73293,Q,Q
2023-03-15 14:13:26:801,0,7.17824,-6.16682,2.65747,Q,Q
2023-03-15 14:13:26:811,0,7.23745,-6.14834,2.59271,Q,Q
2023-03-15 14:13:26:821,0,7.28689,-6.12527,2.53431,Q,Q
2023-03-15 14:13:26:831,0,7.33667,-6.09737,2.48035,Q,Q
2023-03-15 14:13:26:841,0,7.38548,-6.07088,2.43216,Q,Q
2023-03-15 14:13:26:851,0,7.43809,-6.04163,2.38578,Q,Q
2023-03-15 14:13:26:861,0,7.48858,-6.0118,2.34682,Q,Q
2023-03-15 14:13:26:871,0,7.53475,-5.98013,2.31335,Q,Q
2023-03-15 14:13:26:881,0,7.57162,-5.94638,2.2824,Q,Q
2023-03-15 14:13:26:891,0,7.59985,-5.915,2.25581,Q,Q
2023-03-15 14:13:26:901,0,7.61736,-5.88724,2.22719,Q,Q
2023-03-15 14:13:26:911,0,7.62616,-5.86798,2.20111,Q,Q
2023-03-15 14:13:26:921,0,7.62967,-5.85067,2.17741,Q,Q
2023-03-15 14:13:26:931,0,7.63651,-5.83421,2.15513,Q,Q
2023-03-15 14:13:26:941,0,7.64431,-5.82023,2.13477,Q,Q
2023-03-15 14:13:26:951,0,7.65832,-5.80879,2.1088,Q,Q
2023-03-15 14:13:26:961,0,7.67825,-5.80215,2.08666,Q,Q
2023-03-15 14:13:26:971,0,7.70001,-5.7922,2.06011,Q,Q
2023-03-15 14:13:26:981,0,7.71789,-5.78321,2.02646,Q,Q
2023-03-15 14:13:26:991,0,7.73653,-5.77465,1.98589,Q,Q
2023-03-15 14:13:27:1,0,7.77318,-5.76335,1.93597,Q,Q
2023-03-15 14:13:27:11,0,7.82412,-5.7554,1.88222,Q,Q
2023-03-15 14:13:27:21,0,7.89997,-5.74513,1.8272,Q,Q
2023-03-15 14:13:27:31,0,7.99508,-5.74467,1.76929,Q,Q
2023-03-15 14:13:27:41,0,8.11129,-5.7496,1.7161,Q,Q
2023-03-15 14:13:27:51,0,8.24304,-5.75667,1.66697,Q,Q
2023-03-15 14:13:27:61,0,8.38423,-5.77043,1.6204,Q,Q
2023-03-15 14:13:27:71,0,8.51893,-5.78649,1.58324,Q,Q
2023-03-15 14:13:27:81,0,8.65448,-5.80371,1.5492,Q,Q
2023-03-15 14:13:27:91,0,8.78548,-5.81359,1.52119,Q,Q
2023-03-15 14:13:27:101,0,8.90868,-5.82389,1.50263,Q,Q
2023-03-15 14:13:27:111,0,9.01682,-5.82827,1.49517,Q,Q
2023-03-15 14:13:27:121,0,9.11512,-5.83088,1.49569,Q,Q
2023-03-15 14:13:27:131,0,9.19946,-5.83838,1.50303,Q,Q
2023-03-15 14:13:27:141,0,9.27131,-5.84711,1.51942,Q,Q
2023-03-15 14:13:27:151,0,9.33465,-5.85438,1.54496,Q,Q
2023-03-15 14:13:27:161,0,9.39362,-5.86468,1.57845,Q,Q
2023-03-15 14:13:27:171,0,9.44556,-5.8776,1.62162,Q,Q
2023-03-15 14:13:27:181,0,9.49137,-5.88831,1.67025,Q,Q
2023-03-15 14:13:27:191,0,9.527,-5.89341,1.72056,Q,Q
2023-03-15 14:13:27:201,0,9.54979,-5.89872,1.78042,Q,Q
2023-03-15 14:13:27:211,0,9.56636,-5.90826,1.84611,Q,Q
2023-03-15 14:13:27:221,0,9.56943,-5.91735,1.91229,Q,Q
2023-03-15 14:13:27:231,0,9.56654,-5.9297,1.97551,Q,Q
2023-03-15 14:13:27:241,0,9.56053,-5.93866,2.03631,Q,Q
2023-03-15 14:13:27:251,0,9.54557,-5.95296,2.10085,Q,Q
2023-03-15 14:13:27:261,0,9.5342,-5.96696,2.1582,Q,Q
2023-03-15 14:13:27:271,0,9.51916,-5.97889,2.21316,Q,Q
2023-03-15 14:13:27:281,0,9.50377,-5.99023,2.26786,Q,Q
2023-03-15 14:13:27:291,0,9.4913,-6.00535,2.31472,Q,Q
2023-03-15 14:13:27:301,0,9.48185,-6.01992,2.35786,Q,Q
2023-03-15 14:13:27:311,0,9.47226,-6.03228,2.40152,Q,Q
2023-03-15 14:13:27:321,0,9.45306,-6.04752,2.4424,Q,Q
2023-03-15 14:13:27:331,0,9.43527,-6.06374,2.47976,Q,Q
2023-03-15 14:13:27:341,0,9.42828,-6.07738,2.51349,Q,Q
2023-03-15 14:13:27:351,0,9.42706,-6.09418,2.55044,Q,Q
2023-03-15 14:13:27:361,0,9.43018,-6.11385,2.58706,Q,Q
2023-03-15 14:13:27:371,0,9.43745,-6.13019,2.62676,Q,Q
2023-03-15 14:13:27:381,0,9.44017,-6.14591,2.66925,Q,Q
2023-03-15 14:13:27:391,0,9.44433,-6.16068,2.70945,Q,Q
2023-03-15 14:13:27:401,0,9.44223,-6.17347,2.75026,Q,Q
2023-03-15 14:13:27:411,0,9.43302,-6.18418,2.79166,Q,Q
2023-03-15 14:13:27:421,0,9.42396,-6.19579,2.83369,Q,Q
2023-03-15 14:13:27:431,0,9.41437,-6.20282,2.87483,Q,Q
2023-03-15 14:13:27:441,0,9.41041,-6.20939,2.92017,Q,Q
2023-03-15 14:13:27:451,0,9.4134,-6.2152,2.9658,Q,Q
2023-03-15 14:13:27:461,0,9.41784,-6.22166,3.01447,Q,Q
2023-03-15 14:13:27:471,0,9.42471,-6.22559,3.05977,Q,Q
2023-03-15 14:13:27:481,0,9.43004,-6.22888,3.10435,Q,Q
2023-03-15 14:13:27:491,0,9.43753,-6.23245,3.14885,Q,Q
2023-03-15 14:13:27:501,0,9.44878,-6.23056,3.18879,Q,Q
2023-03-15 14:13:27:511,0,9.45945,-6.23257,3.21978,Q,Q
2023-03-15 14:13:27:521,0,9.47051,-6.2339,3.24505,Q,Q
2023-03-15 14:13:27:531,0,9.48564,-6.23608,3.26428,Q,Q
2023-03-15 14:13:27:541,0,9.50221,-6.23827,3.28948,Q,Q
2023-03-15 14:13:27:551,0,9.52261,-6.24173,3.30956,Q,Q
2023-03-15 14:13:27:561,0,9.53915,-6.24464,3.3288,Q,Q
2023-03-15 14:13:27:571,0,9.56222,-6.24551,3.34554,Q,Q
2023-03-15 14:13:27:581,0,9.59239,-6.24911,3.3693,Q,Q
2023-03-15 14:13:27:591,0,9.62776,-6.25129,3.40277,Q,Q
2023-03-15 14:13:27:601,0,9.66191,-6.26,3.45385,Q,Q
2023-03-15 14:13:27:611,0,9.69908,-6.27257,3.52577,Q,Q
2023-03-15 14:13:27:621,0,9.73719,-6.28641,3.61952,Q,Q
2023-03-15 14:13:27:631,0,9.77499,-6.29878,3.73624,Q,Q
2023-03-15 14:13:27:641,0,9.81247,-6.31258,3.8817,Q,Q
2023-03-15 14:13:27:651,0,9.84815,-6.32381,4.04777,Q,Q
2023-03-15 14:13:27:661,0,9.8785,-6.33021,4.23258,Q,Q
2023-03-15 14:13:27:671,0,9.91096,-6.33824,4.43724,Q,Q
2023-03-15 14:13:27:681,0,9.94453,-6.34431,4.66058,Q,Q
2023-03-15 14:13:27:691,0,9.98288,-6.35473,4.89979,Q,Q
2023-03-15 14:13:27:701,0,10.02,-6.36615,5.14946,Q,Q
2023-03-15 14:13:27:711,0,10.0625,-6.38458,5.40986,Q,Q
2023-03-15 14:13:27:721,0,10.1051,-6.40313,5.68114,Q,Q
2023-03-15 14:13:27:731,0,10.1401,-6.42833,5.95587,Q,Q
2023-03-15 14:13:27:741,0,10.1643,-6.45882,6.23085,Q,Q
2023-03-15 14:13:27:751,0,10.1882,-6.49389,6.50117,Q,Q
2023-03-15 14:13:27:761,0,10.2115,-6.52873,6.76575,Q,Q
2023-03-15 14:13:27:771,0,10.2378,-6.56577,7.01854,Q,Q
2023-03-15 14:13:27:781,0,10.2619,-6.60529,7.26382,Q,Q
2023-03-15 14:13:27:791,0,10.2781,-6.6461,7.49603,Q,Q
2023-03-15 14:13:27:801,0,10.2972,-6.68982,7.71491,Q,Q
2023-03-15 14:13:27:811,0,10.3205,-6.73159,7.92019,Q,Q
2023-03-15 14:13:27:821,0,10.3512,-6.77268,8.1197,Q,Q
2023-03-15 14:13:27:831,0,10.3827,-6.8175,8.3049,Q,Q
2023-03-15 14:13:27:841,0,10.4216,-6.86792,8.48004,Q,Q
2023-03-15 14:13:27:851,0,10.4634,-6.91597,8.64135,Q,Q
2023-03-15 14:13:27:861,0,10.5052,-6.96104,8.79353,Q,Q
2023-03-15 14:13:27:871,0,10.5449,-7.00614,8.93204,Q,Q
2023-03-15 14:13:27:881,0,10.5807,-7.04757,9.05679,Q,Q
2023-03-15 14:13:27:891,0,10.6101,-7.08623,9.17313,Q,Q
2023-03-15 14:13:27:901,0,10.6306,-7.12745,9.27934,Q,Q
2023-03-15 14:13:27:911,0,10.6538,-7.16229,9.37578,Q,Q
2023-03-15 14:13:27:921,0,10.6694,-7.19738,9.46166,Q,Q
2023-03-15 14:13:27:931,0,10.6833,-7.22744,9.53448,Q,Q
2023-03-15 14:13:27:941,0,10.6982,-7.25663,9.6005,Q,Q
2023-03-15 14:13:27:951,0,10.7157,-7.28277,9.66005,Q,Q
2023-03-15 14:13:27:961,0,10.7304,-7.30693,9.72134,Q,Q
2023-03-15 14:13:27:971,0,10.7497,-7.3276,9.77163,Q,Q
2023-03-15 14:13:27:981,0,10.7667,-7.3457,9.82044,Q,Q
2023-03-15 14:13:27:991,0,10.7836,-7.3592,9.86386,Q,Q
2023-03-15 14:13:28:1,0,10.7949,-7.37161,9.89918,Q,Q
2023-03-15 14:13:28:11,0,10.802,-7.37765,9.92851,Q,Q
2023-03-15 14:13:28:21,0,10.8073,-7.38141,9.94774,Q,Q
2023-03-15 14:13:28:31,0,10.8139,-7.38277,9.9611,Q,Q
2023-03-15 14:13:28:41,0,10.8191,-7.38753,9.96968,Q,Q
2023-03-15 14:13:28:51,0,10.8226,-7.39429,9.97245,Q,Q
2023-03-15 14:13:28:61,0,10.8291,-7.40311,9.96956,Q,Q
2023-03-15 14:13:28:71,0,10.8435,-7.40926,9.96342,Q,Q
2023-03-15 14:13:28:81,0,10.8666,-7.42017,9.95522,Q,Q
2023-03-15 14:13:28:91,0,10.8888,-7.42696,9.94954,Q,Q
2023-03-15 14:13:28:101,0,10.9097,-7.43574,9.94398,Q,Q
2023-03-15 14:13:28:111,0,10.9291,-7.44456,9.93813,Q,Q
2023-03-15 14:13:28:121,0,10.9456,-7.45541,9.92998,Q,Q
2023-03-15 14:13:28:131,0,10.9642,-7.46706,9.91601,Q,Q
2023-03-15 14:13:28:141,0,10.9853,-7.47999,9.90784,Q,Q
2023-03-15 14:13:28:151,0,11.0101,-7.49495,9.89975,Q,Q
2023-03-15 14:13:28:161,0,11.0372,-7.50922,9.89524,Q,Q
2023-03-15 14:13:28:171,0,11.0627,-7.5198,9.8884,Q,Q
2023-03-15 14:13:28:181,0,11.0862,-7.52799,9.88364,Q,Q
2023-03-15 14:13:28:191,0,11.1119,-7.5363,9.87727,Q,Q
2023-03-15 14:13:28:201,0,11.1338,-7.53819,9.8749,Q,Q
2023-03-15 14:13:28:211,0,11.1553,-7.54376,9.87408,Q,Q
2023-03-15 14:13:28:221,0,11.1751,-7.55458,9.87511,Q,Q
2023-03-15 14:13:28:231,0,11.1836,-7.56884,9.87648,Q,Q
2023-03-15 14:13:28:241,0,11.1816,-7.58318,9.87445,Q,Q
2023-03-15 14:13:28:251,0,11.1767,-7.59694,9.87209,Q,Q
2023-03-15 14:13:28:261,0,11.1677,-7.60879,9.86562,Q,Q
2023-03-15 14:13:28:271,0,11.1665,-7.61376,9.86213,Q,Q
2023-03-15 14:13:28:281,0,11.1666,-7.61233,9.86022,Q,Q
2023-03-15 14:13:28:291,0,11.1665,-7.60981,9.86102,Q,Q
2023-03-15 14:13:28:301,0,11.157,-7.60572,9.86199,Q,Q
2023-03-15 14:13:28:311,0,11.1408,-7.60638,9.8578,Q,Q
2023-03-15 14:13:28:321,0,11.1181,-7.60166,9.85442,Q,Q
2023-03-15 14:13:28:331,0,11.0947,-7.59176,9.84681,Q,Q
2023-03-15 14:13:28:341,0,11.0646,-7.58673,9.83778,Q,Q
2023-03-15 14:13:28:351,0,11.0292,-7.58065,9.82338,Q,Q
2023-03-15 14:13:28:361,0,10.9969,-7.57359,9.80616,Q,Q
2023-03-15 14:13:28:371,0,10.971,-7.57083,9.78829,Q,Q
2023-03-15 14:13:28:381,0,10.9513,-7.5688,9.76771,Q,Q
2023-03-15 14:13:28:391,0,10.9303,-7.56977,9.75254,Q,Q
2023-03-15 14:13:28:401,0,10.9182,-7.57344,9.74075,Q,Q
2023-03-15 14:13:28:411,0,10.9049,-7.57985,9.73244,Q,Q
2023-03-15 14:13:28:421,0,10.892,-7.59178,9.72276,Q,Q
2023-03-15 14:13:28:431,0,10.8743,-7.60272,9.7154,Q,Q
2023-03-15 14:13:28:441,0,10.8549,-7.61209,9.70644,Q,Q
2023-03-15 14:13:28:451,0,10.8335,-7.62053,9.69955,Q,Q
2023-03-15 14:13:28:461,0,10.8138,-7.63041,9.69469,Q,Q
2023-03-15 14:13:28:471,0,10.7866,-7.64626,9.69706,Q,Q
2023-03-15 14:13:28:481,0,10.758,-7.66117,9.69748,Q,Q
2023-03-15 14:13:28:491,0,10.7265,-7.67955,9.69658,Q,Q
2023-03-15 14:13:28:501,0,10.6957,-7.69466,9.69367,Q,Q
2023-03-15 14:13:28:511,0,10.6689,-7.71119,9.68682,Q,Q
2023-03-15 14:13:28:521,0,10.6459,-7.72327,9.68194,Q,Q
2023-03-15 14:13:28:531,0,10.6274,-7.73311,9.67444,Q,Q
2023-03-15 14:13:28:541,0,10.607,-7.74479,9.66999,Q,Q
2023-03-15 14:13:28:551,0,10.586,-7.7541,9.66646,Q,Q
2023-03-15 14:13:28:561,0,10.5671,-7.76116,9.66621,Q,Q
2023-03-15 14:13:28:571,0,10.5483,-7.76666,9.66992,Q,Q
2023-03-15 14:13:28:581,0,10.5268,-7.77417,9.67329,Q,Q
2023-03-15 14:13:28:591,0,10.5051,-7.77451,9.6804,Q,Q
2023-03-15 14:13:28:601,0,10.4834,-7.77391,9.68719,Q,Q
2023-03-15 14:13:28:611,0,10.4619,-7.77155,9.69471,Q,Q
2023-03-15 14:13:28:621,0,10.4352,-7.77257,9.70713,Q,Q
2023-03-15 14:13:28:631,0,10.4148,-7.77532,9.7197,Q,Q
2023-03-15 14:13:28:641,0,10.3987,-7.77006,9.73215,Q,Q
2023-03-15 14:13:28:651,0,10.3798,-7.7683,9.74361,Q,Q
2023-03-15 14:13:28:661,0,10.3611,-7.76569,9.75708,Q,Q
2023-03-15 14:13:28:671,0,10.3386,-7.76444,9.76833,Q,Q
2023-03-15 14:13:28:681,0,10.3122,-7.76263,9.78244,Q,Q
2023-03-15 14:13:28:691,0,10.2874,-7.76501,9.7908,Q,Q
2023-03-15 14:13:28:701,0,10.2573,-7.77512,9.80222,Q,Q
2023-03-15 14:13:28:711,0,10.2288,-7.77791,9.80867,Q,Q
2023-03-15 14:13:28:721,0,10.2065,-7.78043,9.8137,Q,Q
2023-03-15 14:13:28:731,0,10.1875,-7.78013,9.81504,Q,Q
2023-03-15 14:13:28:741,0,10.1685,-7.78286,9.81929,Q,Q
2023-03-15 14:13:28:751,0,10.1489,-7.7888,9.82221,Q,Q
2023-03-15 14:13:28:761,0,10.1268,-7.79476,9.82437,Q,Q
2023-03-15 14:13:28:771,0,10.1018,-7.79879,9.82857,Q,Q
2023-03-15 14:13:28:781,0,10.0764,-7.80167,9.83237,Q,Q
2023-03-15 14:13:28:791,0,10.0484,-7.80037,9.83415,Q,Q
2023-03-15 14:13:28:801,0,10.0188,-7.80314,9.83906,Q,Q
2023-03-15 14:13:28:811,0,9.98268,-7.80904,9.84119,Q,Q
2023-03-15 14:13:28:821,0,9.94301,-7.81572,9.84081,Q,Q
2023-03-15 14:13:28:831,0,9.89747,-7.82237,9.83635,Q,Q
2023-03-15 14:13:28:841,0,9.85274,-7.82733,9.82984,Q,Q
2023-03-15 14:13:28:851,0,9.80789,-7.82989,9.82335,Q,Q
2023-03-15 14:13:28:861,0,9.76545,-7.8343,9.81276,Q,Q
2023-03-15 14:13:28:871,0,9.71467,-7.83898,9.80138,Q,Q
2023-03-15 14:13:28:881,0,9.66177,-7.84587,9.78833,Q,Q
2023-03-15 14:13:28:891,0,9.61057,-7.85354,9.77136,Q,Q
2023-03-15 14:13:28:901,0,9.5616,-7.86512,9.75729,Q,Q
2023-03-15 14:13:28:911,0,9.51263,-7.87645,9.74209,Q,Q
2023-03-15 14:13:28:921,0,9.46494,-7.88892,9.72401,Q,Q
2023-03-15 14:13:28:931,0,9.42043,-7.89849,9.70639,Q,Q
2023-03-15 14:13:28:941,0,9.37421,-7.91022,9.68739,Q,Q
2023-03-15 14:13:28:951,0,9.33206,-7.92124,9.66773,Q,Q
2023-03-15 14:13:28:961,0,9.28864,-7.92984,9.64319,Q,Q
2023-03-15 14:13:28:971,0,9.24185,-7.93855,9.6224,Q,Q
2023-03-15 14:13:28:981,0,9.20275,-7.95212,9.59945,Q,Q
2023-03-15 14:13:28:991,0,9.17224,-7.96194,9.57285,Q,Q
2023-03-15 14:13:29:1,0,9.14546,-7.96995,9.54681,Q,Q
2023-03-15 14:13:29:11,0,9.12155,-7.97794,9.52531,Q,Q
2023-03-15 14:13:29:21,0,9.1002,-7.98506,9.50262,Q,Q
2023-03-15 14:13:29:31,0,9.08404,-7.99327,9.47959,Q,Q
2023-03-15 14:13:29:41,0,9.07511,-8.00138,9.45944,Q,Q
2023-03-15 14:13:29:51,0,9.0709,-8.00595,9.43916,Q,Q
2023-03-15 14:13:29:61,0,9.06957,-8.00783,9.41706,Q,Q
2023-03-15 14:13:29:71,0,9.06488,-8.0091,9.39726,Q,Q
2023-03-15 14:13:29:81,0,9.06195,-8.01556,9.38025,Q,Q
2023-03-15 14:13:29:91,0,9.05379,-8.02632,9.36635,Q,Q
2023-03-15 14:13:29:101,0,9.04105,-8.04177,9.35331,Q,Q
2023-03-15 14:13:29:111,0,9.03112,-8.05457,9.34233,Q,Q
2023-03-15 14:13:29:121,0,9.02016,-8.06235,9.33303,Q,Q
2023-03-15 14:13:29:131,0,9.00824,-8.06698,9.32052,Q,Q
2023-03-15 14:13:29:141,0,8.9971,-8.07166,9.30889,Q,Q
2023-03-15 14:13:29:151,0,8.98525,-8.07756,9.29699,Q,Q
2023-03-15 14:13:29:161,0,8.96881,-8.08412,9.28828,Q,Q
2023-03-15 14:13:29:171,0,8.95191,-8.08603,9.27834,Q,Q
2023-03-15 14:13:29:181,0,8.94406,-8.08099,9.26993,Q,Q
2023-03-15 14:13:29:191,0,8.93331,-8.07369,9.26295,Q,Q
2023-03-15 14:13:29:201,0,8.9216,-8.07191,9.25557,Q,Q
2023-03-15 14:13:29:211,0,8.90575,-8.07071,9.24801,Q,Q
2023-03-15 14:13:29:221,0,8.89,-8.06663,9.23367,Q,Q
2023-03-15 14:13:29:231,0,8.87965,-8.06134,9.22084,Q,Q
2023-03-15 14:13:29:241,0,8.87086,-8.05512,9.20866,Q,Q
2023-03-15 14:13:29:251,0,8.86492,-8.05071,9.19732,Q,Q
2023-03-15 14:13:29:261,0,8.86379,-8.0413,9.18654,Q,Q
2023-03-15 14:13:29:271,0,8.86711,-8.03773,9.1762,Q,Q
2023-03-15 14:13:29:281,0,8.87538,-8.03961,9.16968,Q,Q
2023-03-15 14:13:29:291,0,8.88183,-8.04279,9.16673,Q,Q
2023-03-15 14:13:29:301,0,8.88849,-8.04465,9.16187,Q,Q
2023-03-15 14:13:29:311,0,8.89459,-8.04328,9.15833,Q,Q
2023-03-15 14:13:29:321,0,8.90555,-8.03906,9.15707,Q,Q
2023-03-15 14:13:29:331,0,8.92067,-8.0346,9.15855,Q,Q
2023-03-15 14:13:29:341,0,8.92876,-8.0329,9.1651,Q,Q
2023-03-15 14:13:29:351,0,8.93729,-8.0357,9.17107,Q,Q
2023-03-15 14:13:29:361,0,8.94386,-8.03825,9.18158,Q,Q
2023-03-15 14:13:29:371,0,8.9494,-8.03815,9.19016,Q,Q
2023-03-15 14:13:29:381,0,8.95574,-8.04026,9.19396,Q,Q
2023-03-15 14:13:29:391,0,8.9665,-8.04476,9.20131,Q,Q
2023-03-15 14:13:29:401,0,8.98066,-8.04565,9.20721,Q,Q
2023-03-15 14:13:29:411,0,8.99616,-8.04481,9.21736,Q,Q
2023-03-15 14:13:29:421,0,9.00954,-8.04453,9.22698,Q,Q
2023-03-15 14:13:29:431,0,9.02504,-8.04318,9.24051,Q,Q
2023-03-15 14:13:29:441,0,9.03989,-8.0452,9.25093,Q,Q
2023-03-15 14:13:29:451,0,9.05448,-8.04817,9.26366,Q,Q
2023-03-15 14:13:29:461,0,9.0649,-8.04844,9.28013,Q,Q
2023-03-15 14:13:29:471,0,9.07233,-8.04819,9.29344,Q,Q
2023-03-15 14:13:29:481,0,9.07566,-8.04911,9.31017,Q,Q
2023-03-15 14:13:29:491,0,9.07703,-8.05013,9.32383,Q,Q
2023-03-15 14:13:29:501,0,9.08126,-8.05375,9.3347,Q,Q
2023-03-15 14:13:29:511,0,9.08954,-8.05512,9.34867,Q,Q
2023-03-15 14:13:29:521,0,9.09903,-8.0594,9.36724,Q,Q
2023-03-15 14:13:29:531,0,9.11235,-8.05996,9.3929,Q,Q
2023-03-15 14:13:29:541,0,9.12984,-8.05728,9.41869,Q,Q
2023-03-15 14:13:29:551,0,9.15145,-8.05412,9.44214,Q,Q
2023-03-15 14:13:29:561,0,9.17085,-8.05058,9.46756,Q,Q
2023-03-15 14:13:29:571,0,9.18713,-8.04797,9.4965,Q,Q
2023-03-15 14:13:29:581,0,9.19549,-8.04724,9.52099,Q,Q
2023-03-15 14:13:29:591,0,9.20349,-8.04303,9.54266,Q,Q
2023-03-15 14:13:29:601,0,9.20831,-8.03463,9.56058,Q,Q
2023-03-15 14:13:29:611,0,9.2148,-8.02544,9.58102,Q,Q
2023-03-15 14:13:29:621,0,9.22001,-8.01637,9.59767,Q,Q
2023-03-15 14:13:29:631,0,9.22423,-8.00651,9.61377,Q,Q
2023-03-15 14:13:29:641,0,9.22673,-7.99975,9.63269,Q,Q
2023-03-15 14:13:29:651,0,9.23062,-7.99274,9.64619,Q,Q
2023-03-15 14:13:29:661,0,9.23342,-7.98363,9.66053,Q,Q
2023-03-15 14:13:29:671,0,9.23392,-7.97201,9.67512,Q,Q
2023-03-15 14:13:29:681,0,9.23091,-7.96216,9.68965,Q,Q
2023-03-15 14:13:29:691,0,9.22186,-7.95191,9.70014,Q,Q
2023-03-15 14:13:29:701,0,9.20848,-7.94298,9.70766,Q,Q
2023-03-15 14:13:29:711,0,9.19056,-7.93788,9.71373,Q,Q
2023-03-15 14:13:29:721,0,9.16651,-7.93564,9.71716,Q,Q
2023-03-15 14:13:29:731,0,9.13949,-7.93279,9.71683,Q,Q
2023-03-15 14:13:29:741,0,9.11797,-7.92695,9.72131,Q,Q
2023-03-15 14:13:29:751,0,9.09928,-7.92005,9.72246,Q,Q
2023-03-15 14:13:29:761,0,9.08821,-7.91769,9.72438,Q,Q
2023-03-15 14:13:29:771,0,9.0886,-7.91523,9.73019,Q,Q
2023-03-15 14:13:29:781,0,9.10253,-7.91587,9.73398,Q,Q
2023-03-15 14:13:29:791,0,9.12184,-7.91801,9.74241,Q,Q
2023-03-15 14:13:29:801,0,9.1429,-7.9164,9.75278,Q,Q
2023-03-15 14:13:29:811,0,9.16592,-7.90849,9.76422,Q,Q
2023-03-15 14:13:29:821,0,9.19032,-7.90119,9.77474,Q,Q
2023-03-15 14:13:29:831,0,9.21328,-7.88979,9.78483,Q,Q
2023-03-15 14:13:29:841,0,9.23669,-7.8758,9.7949,Q,Q
2023-03-15 14:13:29:851,0,9.25618,-7.86361,9.80049,Q,Q
2023-03-15 14:13:29:861,0,9.26285,-7.84641,9.80679,Q,Q
2023-03-15 14:13:29:871,0,9.26338,-7.83349,9.80809,Q,Q
2023-03-15 14:13:29:881,0,9.25762,-7.81947,9.81145,Q,Q
2023-03-15 14:13:29:891,0,9.25054,-7.80292,9.81003,Q,Q
2023-03-15 14:13:29:901,0,9.24981,-7.78405,9.80581,Q,Q
2023-03-15 14:13:29:911,0,9.24488,-7.76654,9.80519,Q,Q
2023-03-15 14:13:29:921,0,9.24731,-7.75136,9.80664,Q,Q
2023-03-15 14:13:29:931,0,9.24715,-7.7383,9.80559,Q,Q
2023-03-15 14:13:29:941,0,9.24789,-7.72134,9.80243,Q,Q
2023-03-15 14:13:29:951,0,9.24604,-7.70013,9.80071,Q,Q
2023-03-15 14:13:29:961,0,9.24681,-7.67368,9.80253,Q,Q
2023-03-15 14:13:29:971,0,9.25784,-7.64887,9.80389,Q,Q
2023-03-15 14:13:29:981,0,9.26455,-7.63249,9.81316,Q,Q
2023-03-15 14:13:29:991,0,9.27253,-7.62471,9.82821,Q,Q
2023-03-15 14:13:30:1,0,9.2769,-7.62074,9.84702,Q,Q
2023-03-15 14:13:30:11,0,9.2823,-7.61984,9.87092,Q,Q
2023-03-15 14:13:30:21,0,9.28475,-7.62349,9.89807,Q,Q
2023-03-15 14:13:30:31,0,9.28272,-7.62048,9.92674,Q,Q
2023-03-15 14:13:30:41,0,9.27861,-7.61524,9.9547,Q,Q
2023-03-15 14:13:30:51,0,9.26229,-7.60924,9.99039,Q,Q
2023-03-15 14:13:30:61,0,9.23601,-7.60229,10.0302,Q,Q
2023-03-15 14:13:30:71,0,9.20956,-7.5981,10.0687,Q,Q
2023-03-15 14:13:30:81,0,9.17896,-7.59299,10.1112,Q,Q
2023-03-15 14:13:30:91,0,9.14661,-7.58595,10.1504,Q,Q
2023-03-15 14:13:30:101,0,9.11413,-7.57984,10.1927,Q,Q
2023-03-15 14:13:30:111,0,9.07694,-7.57499,10.236,Q,Q
2023-03-15 14:13:30:121,0,9.03978,-7.57279,10.2824,Q,Q
2023-03-15 14:13:30:131,0,8.99881,-7.57896,10.3316,Q,Q
2023-03-15 14:13:30:141,0,8.95674,-7.58559,10.3822,Q,Q
2023-03-15 14:13:30:151,0,8.91479,-7.59569,10.4327,Q,Q
2023-03-15 14:13:30:161,0,8.87033,-7.60856,10.4804,Q,Q
2023-03-15 14:13:30:171,0,8.82475,-7.62712,10.5289,Q,Q
2023-03-15 14:13:30:181,0,8.78105,-7.64866,10.5771,Q,Q
2023-03-15 14:13:30:191,0,8.74032,-7.66877,10.6268,Q,Q
2023-03-15 14:13:30:201,0,8.69664,-7.69142,10.6744,Q,Q
2023-03-15 14:13:30:211,0,8.65754,-7.71247,10.7248,Q,Q
2023-03-15 14:13:30:221,0,8.62063,-7.73052,10.7739,Q,Q
2023-03-15 14:13:30:231,0,8.58812,-7.7448,10.823,Q,Q
2023-03-15 14:13:30:241,0,8.55851,-7.75874,10.8767,Q,Q
2023-03-15 14:13:30:251,0,8.52973,-7.77924,10.9318,Q,Q
2023-03-15 14:13:30:261,0,8.49999,-7.80315,10.992,Q,Q
2023-03-15 14:13:30:271,0,8.47341,-7.82783,11.058,Q,Q
2023-03-15 14:13:30:281,0,8.44268,-7.84727,11.1264,Q,Q
2023-03-15 14:13:30:291,0,8.41046,-7.86353,11.2005,Q,Q
2023-03-15 14:13:30:301,0,8.37315,-7.87576,11.2842,Q,Q
2023-03-15 14:13:30:311,0,8.32809,-7.88623,11.3797,Q,Q
2023-03-15 14:13:30:321,0,8.27412,-7.89524,11.495,Q,Q
2023-03-15 14:13:30:331,0,8.20844,-7.90238,11.6321,Q,Q
2023-03-15 14:13:30:341,0,8.12831,-7.91593,11.8083,Q,Q
2023-03-15 14:13:30:351,0,8.02935,-7.9369,12.0195,Q,Q
2023-03-15 14:13:30:361,0,7.91348,-7.96241,12.2608,Q,Q
2023-03-15 14:13:30:371,0,7.77959,-7.9893,12.5278,Q,Q
2023-03-15 14:13:30:381,0,7.62117,-8.01337,12.8242,Q,Q
2023-03-15 14:13:30:391,0,7.44471,-8.04002,13.1341,Q,Q
2023-03-15 14:13:30:401,0,7.25266,-8.06307,13.4517,Q,Q
2023-03-15 14:13:30:411,0,7.05556,-8.08418,13.774,Q,Q
2023-03-15 14:13:30:421,0,6.85643,-8.10518,14.1007,Q,Q
2023-03-15 14:13:30:431,0,6.66895,-8.12883,14.4277,Q,Q
2023-03-15 14:13:30:441,0,6.49433,-8.15411,14.746,Q,Q
2023-03-15 14:13:30:451,0,6.34077,-8.17402,15.0565,Q,Q
2023-03-15 14:13:30:461,0,6.20692,-8.19165,15.3549,Q,Q
2023-03-15 14:13:30:471,0,6.09259,-8.20559,15.6355,Q,Q
2023-03-15 14:13:30:481,0,5.98947,-8.21768,15.8975,Q,Q
2023-03-15 14:13:30:491,0,5.90728,-8.22827,16.1379,Q,Q
2023-03-15 14:13:30:501,0,5.84159,-8.2402,16.3557,Q,Q
2023-03-15 14:13:30:511,0,5.79082,-8.24901,16.5524,Q,Q
2023-03-15 14:13:30:521,0,5.75948,-8.25469,16.7232,Q,Q
2023-03-15 14:13:30:531,0,5.73531,-8.26013,16.8683,Q,Q
2023-03-15 14:13:30:542,0,5.72769,-8.27036,16.9934,Q,Q
2023-03-15 14:13:30:551,0,5.72822,-8.28018,17.1002,Q,Q
2023-03-15 14:13:30:561,0,5.73544,-8.28503,17.1844,Q,Q
2023-03-15 14:13:30:571,0,5.74792,-8.29017,17.2465,Q,Q
2023-03-15 14:13:30:581,0,5.76855,-8.30449,17.2899,Q,Q
2023-03-15 14:13:30:591,0,5.79365,-8.31951,17.314,Q,Q
2023-03-15 14:13:30:601,0,5.81301,-8.33471,17.3233,Q,Q
2023-03-15 14:13:30:611,0,5.82912,-8.35524,17.3204,Q,Q
2023-03-15 14:13:30:621,0,5.83792,-8.37651,17.305,Q,Q
2023-03-15 14:13:30:631,0,5.84799,-8.39553,17.2784,Q,Q
2023-03-15 14:13:30:641,0,5.85644,-8.41725,17.2428,Q,Q
2023-03-15 14:13:30:651,0,5.86012,-8.44112,17.2004,Q,Q
2023-03-15 14:13:30:661,0,5.86576,-8.46636,17.1501,Q,Q
2023-03-15 14:13:30:671,0,5.87221,-8.49209,17.0935,Q,Q
2023-03-15 14:13:30:681,0,5.88398,-8.51994,17.0296,Q,Q
2023-03-15 14:13:30:691,0,5.90411,-8.5513,16.96,Q,Q
2023-03-15 14:13:30:701,0,5.9289,-8.58237,16.8837,Q,Q
2023-03-15 14:13:30:711,0,5.95972,-8.61705,16.8018,Q,Q
2023-03-15 14:13:30:721,0,5.99988,-8.64905,16.7154,Q,Q
2023-03-15 14:13:30:731,0,6.04304,-8.68025,16.6251,Q,Q
2023-03-15 14:13:30:741,0,6.09548,-8.71193,16.5273,Q,Q
2023-03-15 14:13:30:751,0,6.15276,-8.73859,16.4276,Q,Q
2023-03-15 14:13:30:761,0,6.21834,-8.76413,16.3238,Q,Q
2023-03-15 14:13:30:771,0,6.29377,-8.78326,16.2133,Q,Q
2023-03-15 14:13:30:781,0,6.37249,-8.79893,16.1041,Q,Q
2023-03-15 14:13:30:791,0,6.46033,-8.81167,15.9926,Q,Q
2023-03-15 14:13:30:801,0,6.54613,-8.81933,15.8815,Q,Q
2023-03-15 14:13:30:811,0,6.63312,-8.82194,15.7717,Q,Q
2023-03-15 14:13:30:821,0,6.72291,-8.82197,15.6622,Q,Q
2023-03-15 14:13:30:831,0,6.81381,-8.8107,15.5543,Q,Q
2023-03-15 14:13:30:841,0,6.90436,-8.80001,15.4516,Q,Q
2023-03-15 14:13:30:851,0,6.98946,-8.78471,15.3557,Q,Q
2023-03-15 14:13:30:861,0,7.07013,-8.76058,15.2649,Q,Q
2023-03-15 14:13:30:871,0,7.14279,-8.73131,15.1784,Q,Q
2023-03-15 14:13:30:881,0,7.20292,-8.69496,15.0996,Q,Q
2023-03-15 14:13:30:891,0,7.25879,-8.66189,15.0235,Q,Q
2023-03-15 14:13:30:901,0,7.30865,-8.62601,14.9571,Q,Q
2023-03-15 14:13:30:911,0,7.36056,-8.58997,14.8942,Q,Q
2023-03-15 14:13:30:921,0,7.40586,-8.55736,14.8396,Q,Q
2023-03-15 14:13:30:931,0,7.44905,-8.52938,14.7934,Q,Q
2023-03-15 14:13:30:941,0,7.48679,-8.50369,14.7556,Q,Q
2023-03-15 14:13:30:951,0,7.51988,-8.47845,14.7158,Q,Q
2023-03-15 14:13:30:961,0,7.54551,-8.45272,14.6774,Q,Q
2023-03-15 14:13:30:971,0,7.56343,-8.42501,14.6407,Q,Q
2023-03-15 14:13:30:981,0,7.57665,-8.40272,14.6051,Q,Q
2023-03-15 14:13:30:991,0,7.5848,-8.38234,14.5731,Q,Q
2023-03-15 14:13:31:1,0,7.58533,-8.36812,14.5425,Q,Q
2023-03-15 14:13:31:11,0,7.5826,-8.35524,14.5124,Q,Q
2023-03-15 14:13:31:21,0,7.57513,-8.34091,14.4846,Q,Q
2023-03-15 14:13:31:31,0,7.56623,-8.33076,14.4564,Q,Q
2023-03-15 14:13:31:41,0,7.55445,-8.31832,14.4313,Q,Q
2023-03-15 14:13:31:51,0,7.54291,-8.30885,14.4056,Q,Q
2023-03-15 14:13:31:61,0,7.53174,-8.30502,14.3847,Q,Q
2023-03-15 14:13:31:71,0,7.5203,-8.29864,14.3625,Q,Q
2023-03-15 14:13:31:81,0,7.50499,-8.29172,14.3447,Q,Q
2023-03-15 14:13:31:91,0,7.49269,-8.28755,14.3293,Q,Q
2023-03-15 14:13:31:101,0,7.48116,-8.28361,14.3204,Q,Q
2023-03-15 14:13:31:111,0,7.46947,-8.28018,14.3117,Q,Q
2023-03-15 14:13:31:121,0,7.45414,-8.27751,14.3074,Q,Q
2023-03-15 14:13:31:131,0,7.43815,-8.2772,14.3046,Q,Q
2023-03-15 14:13:31:141,0,7.42222,-8.27863,14.2999,Q,Q
2023-03-15 14:13:31:151,0,7.40447,-8.27794,14.2904,Q,Q
2023-03-15 14:13:31:161,0,7.38474,-8.28073,14.2875,Q,Q
2023-03-15 14:13:31:171,0,7.36291,-8.28811,14.2791,Q,Q
2023-03-15 14:13:31:181,0,7.34373,-8.29061,14.2738,Q,Q
2023-03-15 14:13:31:191,0,7.32584,-8.29814,14.2662,Q,Q
2023-03-15 14:13:31:201,0,7.31341,-8.30353,14.2577,Q,Q
2023-03-15 14:13:31:211,0,7.30223,-8.30885,14.2466,Q,Q
2023-03-15 14:13:31:221,0,7.29733,-8.31302,14.2313,Q,Q
2023-03-15 14:13:31:231,0,7.29129,-8.31516,14.2137,Q,Q
2023-03-15 14:13:31:241,0,7.28608,-8.31379,14.1917,Q,Q
2023-03-15 14:13:31:251,0,7.28295,-8.31274,14.1706,Q,Q
2023-03-15 14:13:31:261,0,7.28047,-8.31414,14.1481,Q,Q
2023-03-15 14:13:31:271,0,7.27666,-8.31482,14.1191,Q,Q
2023-03-15 14:13:31:281,0,7.27454,-8.31394,14.0884,Q,Q
2023-03-15 14:13:31:291,0,7.27352,-8.31545,14.0541,Q,Q
2023-03-15 14:13:31:301,0,7.27138,-8.31753,14.0241,Q,Q
2023-03-15 14:13:31:311,0,7.26659,-8.31256,13.9891,Q,Q
2023-03-15 14:13:31:321,0,7.26517,-8.30707,13.9551,Q,Q
2023-03-15 14:13:31:331,0,7.26235,-8.30284,13.9205,Q,Q
2023-03-15 14:13:31:341,0,7.25836,-8.29653,13.8882,Q,Q
2023-03-15 14:13:31:351,0,7.2529,-8.29616,13.8607,Q,Q
2023-03-15 14:13:31:361,0,7.24223,-8.29344,13.8379,Q,Q
2023-03-15 14:13:31:371,0,7.22545,-8.2925,13.8261,Q,Q
2023-03-15 14:13:31:381,0,7.20638,-8.28656,13.8212,Q,Q
2023-03-15 14:13:31:391,0,7.1816,-8.28399,13.8233,Q,Q
2023-03-15 14:13:31:401,0,7.15139,-8.28051,13.8295,Q,Q
2023-03-15 14:13:31:411,0,7.11574,-8.28222,13.8397,Q,Q
2023-03-15 14:13:31:421,0,7.07667,-8.2819,13.8547,Q,Q
2023-03-15 14:13:31:431,0,7.03798,-8.28145,13.8724,Q,Q
2023-03-15 14:13:31:441,0,7.008,-8.27682,13.8889,Q,Q
2023-03-15 14:13:31:451,0,6.98616,-8.27299,13.9059,Q,Q
2023-03-15 14:13:31:461,0,6.96699,-8.26842,13.9214,Q,Q
2023-03-15 14:13:31:471,0,6.95555,-8.26735,13.9367,Q,Q
2023-03-15 14:13:31:481,0,6.94639,-8.26493,13.9509,Q,Q
2023-03-15 14:13:31:491,0,6.94061,-8.26369,13.9603,Q,Q
2023-03-15 14:13:31:501,0,6.93417,-8.26181,13.9689,Q,Q
2023-03-15 14:13:31:511,0,6.92731,-8.25822,13.9738,Q,Q
2023-03-15 14:13:31:521,0,6.92027,-8.25543,13.9751,Q,Q
2023-03-15 14:13:31:531,0,6.90865,-8.25512,13.9737,Q,Q
2023-03-15 14:13:31:541,0,6.90583,-8.25408,13.9705,Q,Q
2023-03-15 14:13:31:551,0,6.902,-8.25213,13.9661,Q,Q
2023-03-15 14:13:31:561,0,6.90331,-8.24705,13.9594,Q,Q
2023-03-15 14:13:31:571,0,6.90397,-8.24212,13.9509,Q,Q
2023-03-15 14:13:31:581,0,6.90173,-8.23526,13.9395,Q,Q
2023-03-15 14:13:31:591,0,6.90057,-8.22867,13.9309,Q,Q
2023-03-15 14:13:31:601,0,6.89922,-8.22503,13.9175,Q,Q
2023-03-15 14:13:31:611,0,6.89706,-8.22057,13.9016,Q,Q
2023-03-15 14:13:31:621,0,6.89304,-8.21796,13.8858,Q,Q
2023-03-15 14:13:31:631,0,6.88862,-8.21761,13.8665,Q,Q
2023-03-15 14:13:31:641,0,6.88537,-8.21747,13.845,Q,Q
2023-03-15 14:13:31:651,0,6.8846,-8.21952,13.8224,Q,Q
2023-03-15 14:13:31:661,0,6.88085,-8.22085,13.8016,Q,Q
2023-03-15 14:13:31:671,0,6.87933,-8.22351,13.775,Q,Q
2023-03-15 14:13:31:681,0,6.87745,-8.22683,13.7478,Q,Q
2023-03-15 14:13:31:691,0,6.87523,-8.22948,13.7181,Q,Q
2023-03-15 14:13:31:701,0,6.87452,-8.22967,13.6815,Q,Q
2023-03-15 14:13:31:711,0,6.87839,-8.22917,13.6453,Q,Q
2023-03-15 14:13:31:721,0,6.88446,-8.23219,13.6096,Q,Q
2023-03-15 14:13:31:731,0,6.8903,-8.23546,13.5685,Q,Q
2023-03-15 14:13:31:741,0,6.89096,-8.24093,13.5259,Q,Q
2023-03-15 14:13:31:751,0,6.89366,-8.24155,13.4787,Q,Q
2023-03-15 14:13:31:761,0,6.8942,-8.24225,13.4297,Q,Q
2023-03-15 14:13:31:771,0,6.89531,-8.23815,13.379,Q,Q
2023-03-15 14:13:31:781,0,6.89709,-8.23369,13.3216,Q,Q
2023-03-15 14:13:31:791,0,6.89776,-8.23141,13.2585,Q,Q
2023-03-15 14:13:31:801,0,6.89961,-8.23366,13.195,Q,Q
2023-03-15 14:13:31:811,0,6.90432,-8.23863,13.1316,Q,Q
2023-03-15 14:13:31:821,0,6.90358,-8.2457,13.0684,Q,Q
2023-03-15 14:13:31:831,0,6.90703,-8.25408,12.9984,Q,Q
2023-03-15 14:13:31:841,0,6.90548,-8.26237,12.9351,Q,Q
2023-03-15 14:13:31:851,0,6.90381,-8.26864,12.8667,Q,Q
2023-03-15 14:13:31:861,0,6.8995,-8.27445,12.7944,Q,Q
2023-03-15 14:13:31:871,0,6.88788,-8.27841,12.7223,Q,Q
2023-03-15 14:13:31:881,0,6.87746,-8.27906,12.6506,Q,Q
2023-03-15 14:13:31:891,0,6.86803,-8.28266,12.5769,Q,Q
2023-03-15 14:13:31:901,0,6.86002,-8.28335,12.5083,Q,Q
2023-03-15 14:13:31:911,0,6.85305,-8.2813,12.4444,Q,Q
2023-03-15 14:13:31:921,0,6.84573,-8.27922,12.3807,Q,Q
2023-03-15 14:13:31:931,0,6.83719,-8.27682,12.3181,Q,Q
2023-03-15 14:13:31:941,0,6.82787,-8.27241,12.2599,Q,Q
2023-03-15 14:13:31:951,0,6.82234,-8.26937,12.2046,Q,Q
2023-03-15 14:13:31:961,0,6.81923,-8.26503,12.1513,Q,Q
2023-03-15 14:13:31:971,0,6.81965,-8.26269,12.1044,Q,Q
2023-03-15 14:13:31:982,0,6.82388,-8.25789,12.059,Q,Q
2023-03-15 14:13:31:991,0,6.82884,-8.25185,12.0177,Q,Q
2023-03-15 14:13:32:1,0,6.83255,-8.24783,11.9794,Q,Q
2023-03-15 14:13:32:11,0,6.84095,-8.24385,11.9452,Q,Q
2023-03-15 14:13:32:21,0,6.8504,-8.24081,11.9137,Q,Q
2023-03-15 14:13:32:31,0,6.85906,-8.2327,11.882,Q,Q
2023-03-15 14:13:32:41,0,6.87249,-8.22247,11.8547,Q,Q
2023-03-15 14:13:32:51,0,6.8883,-8.20835,11.8306,Q,Q
2023-03-15 14:13:32:61,0,6.90401,-8.19603,11.8123,Q,Q
2023-03-15 14:13:32:71,0,6.92316,-8.18521,11.7919,Q,Q
2023-03-15 14:13:32:81,0,6.93665,-8.17433,11.7745,Q,Q
2023-03-15 14:13:32:91,0,6.94521,-8.16299,11.757,Q,Q
2023-03-15 14:13:32:102,0,6.95303,-8.15618,11.7425,Q,Q
2023-03-15 14:13:32:111,0,6.95935,-8.14875,11.7282,Q,Q
2023-03-15 14:13:32:121,0,6.96741,-8.14153,11.7114,Q,Q
2023-03-15 14:13:32:131,0,6.97992,-8.13144,11.6917,Q,Q
2023-03-15 14:13:32:141,0,6.98998,-8.12217,11.6751,Q,Q
2023-03-15 14:13:32:151,0,7.00538,-8.1134,11.6576,Q,Q
2023-03-15 14:13:32:161,0,7.02238,-8.10239,11.6387,Q,Q
2023-03-15 14:13:32:171,0,7.03628,-8.09536,11.6246,Q,Q
2023-03-15 14:13:32:181,0,7.04798,-8.09127,11.6105,Q,Q
2023-03-15 14:13:32:191,0,7.05735,-8.08559,11.5934,Q,Q
2023-03-15 14:13:32:201,0,7.06408,-8.08104,11.5791,Q,Q
2023-03-15 14:13:32:211,0,7.07449,-8.07843,11.566,Q,Q
2023-03-15 14:13:32:221,0,7.08381,-8.07617,11.5509,Q,Q
2023-03-15 14:13:32:231,0,7.09273,-8.07627,11.5334,Q,Q
2023-03-15 14:13:32:241,0,7.09345,-8.08012,11.5193,Q,Q
2023-03-15 14:13:32:251,0,7.09513,-8.08247,11.5051,Q,Q
2023-03-15 14:13:32:261,0,7.10432,-8.08581,11.4875,Q,Q
2023-03-15 14:13:32:271,0,7.11278,-8.08872,11.4711,Q,Q
2023-03-15 14:13:32:281,0,7.12328,-8.09087,11.4574,Q,Q
2023-03-15 14:13:32:291,0,7.1392,-8.08726,11.4448,Q,Q
2023-03-15 14:13:32:301,0,7.15481,-8.08114,11.4306,Q,Q
2023-03-15 14:13:32:311,0,7.16924,-8.07492,11.4184,Q,Q
2023-03-15 14:13:32:321,0,7.18225,-8.0704,11.4074,Q,Q
2023-03-15 14:13:32:331,0,7.18973,-8.06605,11.3949,Q,Q
2023-03-15 14:13:32:341,0,7.19526,-8.06306,11.3817,Q,Q
2023-03-15 14:13:32:351,0,7.19767,-8.0578,11.368,Q,Q
2023-03-15 14:13:32:361,0,7.19893,-8.05184,11.3525,Q,Q
2023-03-15 14:13:32:371,0,7.20148,-8.0477,11.3349,Q,Q
2023-03-15 14:13:32:381,0,7.20341,-8.04443,11.3162,Q,Q
2023-03-15 14:13:32:391,0,7.20578,-8.03985,11.2956,Q,Q
2023-03-15 14:13:32:401,0,7.20579,-8.03642,11.2746,Q,Q
2023-03-15 14:13:32:411,0,7.21378,-8.03312,11.2529,Q,Q
2023-03-15 14:13:32:421,0,7.2211,-8.02402,11.2296,Q,Q
2023-03-15 14:13:32:431,0,7.22624,-8.01726,11.209,Q,Q
2023-03-15 14:13:32:441,0,7.22668,-8.01049,11.1872,Q,Q
2023-03-15 14:13:32:451,0,7.23081,-7.99788,11.1674,Q,Q
2023-03-15 14:13:32:461,0,7.23655,-7.98278,11.1434,Q,Q
2023-03-15 14:13:32:471,0,7.24167,-7.97217,11.1212,Q,Q
2023-03-15 14:13:32:481,0,7.2413,-7.96845,11.0971,Q,Q
2023-03-15 14:13:32:491,0,7.23895,-7.95952,11.0735,Q,Q
2023-03-15 14:13:32:501,0,7.23586,-7.9488,11.0495,Q,Q
2023-03-15 14:13:32:511,0,7.23989,-7.93771,11.027,Q,Q
2023-03-15 14:13:32:521,0,7.24183,-7.92821,11.0004,Q,Q
2023-03-15 14:13:32:531,0,7.24346,-7.91819,10.9775,Q,Q
2023-03-15 14:13:32:541,0,7.24432,-7.90592,10.9595,Q,Q
2023-03-15 14:13:32:551,0,7.24808,-7.89757,10.939,Q,Q
2023-03-15 14:13:32:561,0,7.24977,-7.88659,10.9225,Q,Q
2023-03-15 14:13:32:571,0,7.25791,-7.87118,10.9042,Q,Q
2023-03-15 14:13:32:581,0,7.26471,-7.85371,10.885,Q,Q
2023-03-15 14:13:32:591,0,7.26955,-7.84719,10.8662,Q,Q
2023-03-15 14:13:32:602,0,7.2735,-7.84074,10.8494,Q,Q
2023-03-15 14:13:32:611,0,7.28013,-7.83096,10.8309,Q,Q
2023-03-15 14:13:32:621,0,7.28922,-7.82435,10.8131,Q,Q
2023-03-15 14:13:32:631,0,7.29689,-7.81293,10.8011,Q,Q
2023-03-15 14:13:32:641,0,7.31011,-7.80278,10.7869,Q,Q
