Timestamp_cmd,imu_cmd,roll_delta,pitch_delta,yaw_delta,voice_type,voice_length
2023-03-15 14:51:16:239,0,5.47973,-3.30586,-2.08075,Q,Q
2023-03-15 14:51:16:247,0,5.46463,-3.35084,-2.03733,Q,Q
2023-03-15 14:51:16:256,0,5.44452,-3.39944,-1.9982,Q,Q
2023-03-15 14:51:16:267,0,5.43368,-3.45078,-1.97002,Q,Q
2023-03-15 14:51:16:277,0,5.43004,-3.49492,-1.94519,Q,Q
2023-03-15 14:51:16:287,0,5.43147,-3.53337,-1.92095,Q,Q
2023-03-15 14:51:16:297,0,5.43935,-3.56682,-1.90235,Q,Q
2023-03-15 14:51:16:307,0,5.44846,-3.59896,-1.89005,Q,Q
2023-03-15 14:51:16:317,0,5.47141,-3.62637,-1.88384,Q,Q
2023-03-15 14:51:16:327,0,5.50674,-3.64488,-1.88128,Q,Q
2023-03-15 14:51:16:337,0,5.54369,-3.65511,-1.88443,Q,Q
2023-03-15 14:51:16:347,0,5.56632,-3.65183,-1.89693,Q,Q
2023-03-15 14:51:16:357,0,5.58125,-3.64301,-1.92091,Q,Q
2023-03-15 14:51:16:367,0,5.5933,-3.63634,-1.96518,Q,Q
2023-03-15 14:51:16:377,0,5.60771,-3.62464,-2.01671,Q,Q
2023-03-15 14:51:16:387,0,5.62316,-3.60786,-2.0728,Q,Q
2023-03-15 14:51:16:397,0,5.63751,-3.59261,-2.1288,Q,Q
2023-03-15 14:51:16:407,0,5.64875,-3.57624,-2.18798,Q,Q
2023-03-15 14:51:16:417,0,5.65538,-3.56796,-2.24017,Q,Q
2023-03-15 14:51:16:427,0,5.66086,-3.56393,-2.29089,Q,Q
2023-03-15 14:51:16:437,0,5.67004,-3.55788,-2.33653,Q,Q
2023-03-15 14:51:16:447,0,5.68473,-3.55525,-2.3771,Q,Q
2023-03-15 14:51:16:457,0,5.69867,-3.54903,-2.40008,Q,Q
2023-03-15 14:51:16:467,0,5.70266,-3.54641,-2.4054,Q,Q
2023-03-15 14:51:16:477,0,5.6973,-3.54713,-2.39489,Q,Q
2023-03-15 14:51:16:487,0,5.68591,-3.54801,-2.37504,Q,Q
2023-03-15 14:51:16:497,0,5.67158,-3.54492,-2.35047,Q,Q
2023-03-15 14:51:16:507,0,5.65615,-3.54096,-2.316,Q,Q
2023-03-15 14:51:16:517,0,5.64373,-3.5355,-2.28077,Q,Q
2023-03-15 14:51:16:527,0,5.63392,-3.53225,-2.24731,Q,Q
2023-03-15 14:51:16:537,0,5.63078,-3.5295,-2.21625,Q,Q
2023-03-15 14:51:16:547,0,5.6351,-3.53127,-2.18978,Q,Q
2023-03-15 14:51:16:557,0,5.64392,-3.53841,-2.16996,Q,Q
2023-03-15 14:51:16:567,0,5.65151,-3.55413,-2.15365,Q,Q
2023-03-15 14:51:16:577,0,5.6639,-3.57026,-2.14412,Q,Q
2023-03-15 14:51:16:587,0,5.6673,-3.58817,-2.1436,Q,Q
2023-03-15 14:51:16:597,0,5.66859,-3.60761,-2.15043,Q,Q
2023-03-15 14:51:16:607,0,5.66491,-3.62519,-2.16654,Q,Q
2023-03-15 14:51:16:617,0,5.66277,-3.63763,-2.18093,Q,Q
2023-03-15 14:51:16:627,0,5.64344,-3.65131,-2.19704,Q,Q
2023-03-15 14:51:16:637,0,5.61903,-3.66995,-2.22343,Q,Q
2023-03-15 14:51:16:647,0,5.60936,-3.68222,-2.27134,Q,Q
2023-03-15 14:51:16:657,0,5.63168,-3.67931,-2.32682,Q,Q
2023-03-15 14:51:16:667,0,5.671,-3.66543,-2.37656,Q,Q
2023-03-15 14:51:16:677,0,5.70041,-3.6474,-2.41082,Q,Q
2023-03-15 14:51:16:687,0,5.70465,-3.62854,-2.44588,Q,Q
2023-03-15 14:51:16:697,0,5.68966,-3.61629,-2.48607,Q,Q
2023-03-15 14:51:16:707,0,5.66901,-3.60888,-2.532,Q,Q
2023-03-15 14:51:16:717,0,5.65162,-3.59781,-2.58103,Q,Q
2023-03-15 14:51:16:727,0,5.64736,-3.58495,-2.6287,Q,Q
2023-03-15 14:51:16:737,0,5.65194,-3.57223,-2.66616,Q,Q
2023-03-15 14:51:16:747,0,5.66009,-3.56912,-2.68918,Q,Q
2023-03-15 14:51:16:756,0,5.66612,-3.5697,-2.70209,Q,Q
2023-03-15 14:51:16:766,0,5.66564,-3.57539,-2.70647,Q,Q
2023-03-15 14:51:16:777,0,5.6679,-3.58289,-2.70363,Q,Q
2023-03-15 14:51:16:787,0,5.66709,-3.58777,-2.68833,Q,Q
2023-03-15 14:51:16:797,0,5.65245,-3.59033,-2.66631,Q,Q
2023-03-15 14:51:16:807,0,5.62469,-3.59362,-2.63753,Q,Q
2023-03-15 14:51:16:817,0,5.59803,-3.60288,-2.60903,Q,Q
2023-03-15 14:51:16:827,0,5.57297,-3.61155,-2.58952,Q,Q
2023-03-15 14:51:16:837,0,5.56677,-3.61331,-2.5747,Q,Q
2023-03-15 14:51:16:847,0,5.57775,-3.60399,-2.5709,Q,Q
2023-03-15 14:51:16:856,0,5.59023,-3.58613,-2.56872,Q,Q
2023-03-15 14:51:16:866,0,5.59863,-3.57009,-2.56961,Q,Q
2023-03-15 14:51:16:876,0,5.6034,-3.55851,-2.57252,Q,Q
2023-03-15 14:51:16:886,0,5.59942,-3.55113,-2.57914,Q,Q
2023-03-15 14:51:16:896,0,5.59374,-3.54684,-2.59093,Q,Q
2023-03-15 14:51:16:906,0,5.5898,-3.54597,-2.61129,Q,Q
2023-03-15 14:51:16:916,0,5.59158,-3.54128,-2.63413,Q,Q
2023-03-15 14:51:16:926,0,5.60199,-3.53296,-2.6568,Q,Q
2023-03-15 14:51:16:937,0,5.61733,-3.52959,-2.66996,Q,Q
2023-03-15 14:51:16:946,0,5.62485,-3.52656,-2.67602,Q,Q
2023-03-15 14:51:16:956,0,5.6133,-3.52805,-2.66654,Q,Q
2023-03-15 14:51:16:966,0,5.58822,-3.53754,-2.6613,Q,Q
2023-03-15 14:51:16:976,0,5.57872,-3.54903,-2.66352,Q,Q
2023-03-15 14:51:16:987,0,5.59145,-3.55193,-2.6638,Q,Q
2023-03-15 14:51:16:997,0,5.61671,-3.54851,-2.65831,Q,Q
2023-03-15 14:51:17:7,0,5.64097,-3.53607,-2.64788,Q,Q
2023-03-15 14:51:17:17,0,5.65943,-3.52567,-2.63858,Q,Q
2023-03-15 14:51:17:27,0,5.67258,-3.51119,-2.63192,Q,Q
2023-03-15 14:51:17:37,0,5.68832,-3.49785,-2.63243,Q,Q
2023-03-15 14:51:17:47,0,5.71,-3.48109,-2.63287,Q,Q
2023-03-15 14:51:17:57,0,5.72282,-3.46827,-2.63457,Q,Q
2023-03-15 14:51:17:66,0,5.71425,-3.45638,-2.63061,Q,Q
2023-03-15 14:51:17:77,0,5.67963,-3.44985,-2.62477,Q,Q
2023-03-15 14:51:17:87,0,5.63304,-3.44633,-2.61534,Q,Q
2023-03-15 14:51:17:97,0,5.5891,-3.45571,-2.60689,Q,Q
2023-03-15 14:51:17:107,0,5.55248,-3.4709,-2.59361,Q,Q
2023-03-15 14:51:17:117,0,5.52054,-3.48268,-2.57241,Q,Q
2023-03-15 14:51:17:127,0,5.4939,-3.49403,-2.54162,Q,Q
2023-03-15 14:51:17:137,0,5.46392,-3.51256,-2.50152,Q,Q
2023-03-15 14:51:17:147,0,5.43229,-3.53413,-2.45935,Q,Q
2023-03-15 14:51:17:157,0,5.40411,-3.55692,-2.41359,Q,Q
2023-03-15 14:51:17:167,0,5.37125,-3.57921,-2.36778,Q,Q
2023-03-15 14:51:17:177,0,5.34691,-3.60292,-2.32927,Q,Q
2023-03-15 14:51:17:187,0,5.33291,-3.62611,-2.29548,Q,Q
2023-03-15 14:51:17:197,0,5.32627,-3.64741,-2.26848,Q,Q
2023-03-15 14:51:17:207,0,5.33068,-3.66147,-2.25418,Q,Q
2023-03-15 14:51:17:217,0,5.34446,-3.66888,-2.24863,Q,Q
2023-03-15 14:51:17:227,0,5.36329,-3.66997,-2.26142,Q,Q
2023-03-15 14:51:17:237,0,5.384,-3.66665,-2.27798,Q,Q
2023-03-15 14:51:17:247,0,5.40721,-3.65363,-2.29919,Q,Q
2023-03-15 14:51:17:257,0,5.42853,-3.63831,-2.32501,Q,Q
2023-03-15 14:51:17:267,0,5.44386,-3.62741,-2.3468,Q,Q
2023-03-15 14:51:17:277,0,5.45475,-3.61656,-2.37503,Q,Q
2023-03-15 14:51:17:287,0,5.4625,-3.60987,-2.39816,Q,Q
2023-03-15 14:51:17:297,0,5.4689,-3.60371,-2.41441,Q,Q
2023-03-15 14:51:17:307,0,5.47362,-3.59881,-2.42271,Q,Q
2023-03-15 14:51:17:317,0,5.47338,-3.59583,-2.4229,Q,Q
2023-03-15 14:51:17:327,0,5.47317,-3.59488,-2.42361,Q,Q
2023-03-15 14:51:17:337,0,5.47421,-3.59846,-2.4168,Q,Q
2023-03-15 14:51:17:347,0,5.47555,-3.60567,-2.39821,Q,Q
2023-03-15 14:51:17:357,0,5.47515,-3.6174,-2.37308,Q,Q
2023-03-15 14:51:17:367,0,5.47827,-3.62497,-2.35003,Q,Q
2023-03-15 14:51:17:377,0,5.47684,-3.62931,-2.33244,Q,Q
2023-03-15 14:51:17:387,0,5.47137,-3.63057,-2.31868,Q,Q
2023-03-15 14:51:17:397,0,5.46167,-3.62577,-2.31504,Q,Q
2023-03-15 14:51:17:407,0,5.44833,-3.61538,-2.31781,Q,Q
2023-03-15 14:51:17:417,0,5.43105,-3.60511,-2.32678,Q,Q
2023-03-15 14:51:17:427,0,5.41561,-3.59674,-2.33829,Q,Q
2023-03-15 14:51:17:437,0,5.40516,-3.59254,-2.35172,Q,Q
2023-03-15 14:51:17:446,0,5.39836,-3.5898,-2.3686,Q,Q
2023-03-15 14:51:17:456,0,5.3907,-3.58843,-2.38645,Q,Q
2023-03-15 14:51:17:466,0,5.38218,-3.58857,-2.3997,Q,Q
2023-03-15 14:51:17:477,0,5.36709,-3.59221,-2.41446,Q,Q
2023-03-15 14:51:17:486,0,5.35478,-3.5958,-2.42715,Q,Q
2023-03-15 14:51:17:496,0,5.34909,-3.60127,-2.43499,Q,Q
2023-03-15 14:51:17:507,0,5.34571,-3.6114,-2.43849,Q,Q
2023-03-15 14:51:17:517,0,5.34253,-3.62437,-2.43671,Q,Q
2023-03-15 14:51:17:527,0,5.34562,-3.63953,-2.43076,Q,Q
2023-03-15 14:51:17:537,0,5.34787,-3.65593,-2.41767,Q,Q
2023-03-15 14:51:17:547,0,5.34699,-3.66451,-2.40919,Q,Q
2023-03-15 14:51:17:557,0,5.34592,-3.66954,-2.39946,Q,Q
2023-03-15 14:51:17:567,0,5.35241,-3.67154,-2.38975,Q,Q
2023-03-15 14:51:17:577,0,5.3587,-3.67581,-2.37707,Q,Q
2023-03-15 14:51:17:587,0,5.36694,-3.68395,-2.3608,Q,Q
2023-03-15 14:51:17:597,0,5.37384,-3.7011,-2.3415,Q,Q
2023-03-15 14:51:17:607,0,5.3778,-3.71937,-2.3242,Q,Q
2023-03-15 14:51:17:617,0,5.37945,-3.7361,-2.31112,Q,Q
2023-03-15 14:51:17:627,0,5.38288,-3.75239,-2.29727,Q,Q
2023-03-15 14:51:17:637,0,5.38999,-3.76583,-2.28415,Q,Q
2023-03-15 14:51:17:647,0,5.39983,-3.77693,-2.26983,Q,Q
2023-03-15 14:51:17:657,0,5.40814,-3.7926,-2.25199,Q,Q
2023-03-15 14:51:17:667,0,5.41909,-3.80968,-2.23139,Q,Q
2023-03-15 14:51:17:677,0,5.43623,-3.82369,-2.20957,Q,Q
2023-03-15 14:51:17:687,0,5.44769,-3.84162,-2.18495,Q,Q
2023-03-15 14:51:17:697,0,5.45975,-3.85258,-2.15771,Q,Q
2023-03-15 14:51:17:707,0,5.46242,-3.86451,-2.12833,Q,Q
2023-03-15 14:51:17:717,0,5.46513,-3.87659,-2.10186,Q,Q
2023-03-15 14:51:17:727,0,5.47013,-3.88231,-2.08434,Q,Q
2023-03-15 14:51:17:737,0,5.47379,-3.88298,-2.07356,Q,Q
2023-03-15 14:51:17:747,0,5.4817,-3.88059,-2.07562,Q,Q
2023-03-15 14:51:17:757,0,5.48804,-3.87574,-2.07984,Q,Q
2023-03-15 14:51:17:767,0,5.49044,-3.87334,-2.09234,Q,Q
2023-03-15 14:51:17:777,0,5.48606,-3.86861,-2.10678,Q,Q
2023-03-15 14:51:17:787,0,5.4829,-3.8669,-2.12493,Q,Q
2023-03-15 14:51:17:797,0,5.47204,-3.86728,-2.146,Q,Q
2023-03-15 14:51:17:807,0,5.46067,-3.86293,-2.16604,Q,Q
2023-03-15 14:51:17:816,0,5.44977,-3.85136,-2.18379,Q,Q
2023-03-15 14:51:17:827,0,5.44216,-3.8426,-2.20274,Q,Q
2023-03-15 14:51:17:837,0,5.43459,-3.83333,-2.21991,Q,Q
2023-03-15 14:51:17:847,0,5.42909,-3.82609,-2.22799,Q,Q
2023-03-15 14:51:17:857,0,5.4279,-3.81734,-2.23236,Q,Q
2023-03-15 14:51:17:867,0,5.42775,-3.81,-2.23449,Q,Q
2023-03-15 14:51:17:877,0,5.43766,-3.80582,-2.23296,Q,Q
2023-03-15 14:51:17:887,0,5.4435,-3.8062,-2.23359,Q,Q
2023-03-15 14:51:17:897,0,5.45074,-3.79806,-2.23447,Q,Q
2023-03-15 14:51:17:907,0,5.45814,-3.79057,-2.24048,Q,Q
2023-03-15 14:51:17:917,0,5.46156,-3.78282,-2.24987,Q,Q
2023-03-15 14:51:17:927,0,5.47241,-3.77958,-2.26548,Q,Q
2023-03-15 14:51:17:937,0,5.48278,-3.77142,-2.27716,Q,Q
2023-03-15 14:51:17:947,0,5.49138,-3.76562,-2.28736,Q,Q
2023-03-15 14:51:17:957,0,5.50148,-3.76168,-2.2984,Q,Q
2023-03-15 14:51:17:967,0,5.50939,-3.76135,-2.3058,Q,Q
2023-03-15 14:51:17:977,0,5.51961,-3.76383,-2.3109,Q,Q
2023-03-15 14:51:17:987,0,5.52699,-3.76526,-2.30888,Q,Q
2023-03-15 14:51:17:997,0,5.53146,-3.76603,-2.30581,Q,Q
2023-03-15 14:51:18:7,0,5.53739,-3.77095,-2.2966,Q,Q
2023-03-15 14:51:18:17,0,5.54474,-3.77261,-2.28347,Q,Q
2023-03-15 14:51:18:27,0,5.55119,-3.77587,-2.26754,Q,Q
2023-03-15 14:51:18:37,0,5.56045,-3.78014,-2.24854,Q,Q
2023-03-15 14:51:18:47,0,5.56893,-3.78551,-2.22676,Q,Q
2023-03-15 14:51:18:57,0,5.58435,-3.78697,-2.2027,Q,Q
2023-03-15 14:51:18:67,0,5.59811,-3.79013,-2.1823,Q,Q
2023-03-15 14:51:18:77,0,5.61447,-3.78845,-2.16632,Q,Q
2023-03-15 14:51:18:87,0,5.63109,-3.78457,-2.15549,Q,Q
2023-03-15 14:51:18:97,0,5.647,-3.78458,-2.14694,Q,Q
2023-03-15 14:51:18:107,0,5.65871,-3.78187,-2.14114,Q,Q
2023-03-15 14:51:18:117,0,5.66413,-3.77396,-2.1355,Q,Q
2023-03-15 14:51:18:127,0,5.67069,-3.76974,-2.12899,Q,Q
2023-03-15 14:51:18:137,0,5.67652,-3.76379,-2.12522,Q,Q
2023-03-15 14:51:18:147,0,5.67783,-3.75948,-2.11789,Q,Q
2023-03-15 14:51:18:157,0,5.67893,-3.74872,-2.11805,Q,Q
2023-03-15 14:51:18:167,0,5.68026,-3.73632,-2.11476,Q,Q
2023-03-15 14:51:18:177,0,5.67964,-3.72554,-2.10735,Q,Q
2023-03-15 14:51:18:187,0,5.68161,-3.71832,-2.09843,Q,Q
2023-03-15 14:51:18:197,0,5.68215,-3.71693,-2.09052,Q,Q
2023-03-15 14:51:18:207,0,5.68434,-3.7135,-2.0745,Q,Q
2023-03-15 14:51:18:217,0,5.68648,-3.71329,-2.06077,Q,Q
2023-03-15 14:51:18:227,0,5.68587,-3.71377,-2.0412,Q,Q
2023-03-15 14:51:18:237,0,5.68466,-3.71349,-2.01994,Q,Q
2023-03-15 14:51:18:247,0,5.67645,-3.71693,-2.00046,Q,Q
2023-03-15 14:51:18:257,0,5.66373,-3.71843,-1.97983,Q,Q
2023-03-15 14:51:18:267,0,5.64658,-3.7155,-1.96219,Q,Q
2023-03-15 14:51:18:277,0,5.63031,-3.71544,-1.94797,Q,Q
2023-03-15 14:51:18:287,0,5.61877,-3.70662,-1.93496,Q,Q
2023-03-15 14:51:18:297,0,5.60706,-3.69941,-1.9188,Q,Q
2023-03-15 14:51:18:307,0,5.59857,-3.69484,-1.90807,Q,Q
2023-03-15 14:51:18:317,0,5.5908,-3.68667,-1.90469,Q,Q
2023-03-15 14:51:18:327,0,5.58305,-3.67809,-1.90378,Q,Q
2023-03-15 14:51:18:337,0,5.57955,-3.67051,-1.90188,Q,Q
2023-03-15 14:51:18:347,0,5.57426,-3.66215,-1.89698,Q,Q
2023-03-15 14:51:18:357,0,5.56735,-3.66013,-1.88621,Q,Q
2023-03-15 14:51:18:367,0,5.55698,-3.65902,-1.87479,Q,Q
2023-03-15 14:51:18:377,0,5.54425,-3.65363,-1.85714,Q,Q
2023-03-15 14:51:18:387,0,5.52669,-3.6439,-1.83775,Q,Q
2023-03-15 14:51:18:397,0,5.50814,-3.63781,-1.81732,Q,Q
2023-03-15 14:51:18:407,0,5.49099,-3.62772,-1.79094,Q,Q
2023-03-15 14:51:18:416,0,5.46966,-3.61657,-1.77216,Q,Q
2023-03-15 14:51:18:426,0,5.44871,-3.60232,-1.75625,Q,Q
2023-03-15 14:51:18:436,0,5.43676,-3.59038,-1.74922,Q,Q
2023-03-15 14:51:18:446,0,5.42112,-3.57787,-1.7441,Q,Q
2023-03-15 14:51:18:456,0,5.40587,-3.57112,-1.74194,Q,Q
2023-03-15 14:51:18:466,0,5.39132,-3.58002,-1.73886,Q,Q
2023-03-15 14:51:18:476,0,5.37604,-3.58845,-1.74481,Q,Q
2023-03-15 14:51:18:487,0,5.35853,-3.59508,-1.7627,Q,Q
2023-03-15 14:51:18:497,0,5.34352,-3.5994,-1.78968,Q,Q
2023-03-15 14:51:18:507,0,5.32995,-3.60751,-1.82068,Q,Q
2023-03-15 14:51:18:517,0,5.32125,-3.6137,-1.85302,Q,Q
2023-03-15 14:51:18:527,0,5.30997,-3.61994,-1.88398,Q,Q
2023-03-15 14:51:18:537,0,5.30444,-3.62995,-1.91428,Q,Q
2023-03-15 14:51:18:547,0,5.30159,-3.64323,-1.94036,Q,Q
2023-03-15 14:51:18:556,0,5.30298,-3.65598,-1.96096,Q,Q
2023-03-15 14:51:18:566,0,5.30624,-3.67017,-1.97627,Q,Q
2023-03-15 14:51:18:576,0,5.30682,-3.68576,-1.98302,Q,Q
2023-03-15 14:51:18:586,0,5.30763,-3.69991,-1.98006,Q,Q
2023-03-15 14:51:18:596,0,5.30684,-3.71253,-1.97023,Q,Q
2023-03-15 14:51:18:606,0,5.30242,-3.72035,-1.95505,Q,Q
2023-03-15 14:51:18:616,0,5.30192,-3.72544,-1.93915,Q,Q
2023-03-15 14:51:18:626,0,5.29795,-3.72802,-1.91598,Q,Q
2023-03-15 14:51:18:636,0,5.29461,-3.72861,-1.89019,Q,Q
2023-03-15 14:51:18:646,0,5.28985,-3.7266,-1.86126,Q,Q
2023-03-15 14:51:18:656,0,5.28432,-3.71959,-1.83357,Q,Q
2023-03-15 14:51:18:666,0,5.27293,-3.70865,-1.80465,Q,Q
2023-03-15 14:51:18:676,0,5.26195,-3.69936,-1.78097,Q,Q
2023-03-15 14:51:18:687,0,5.24655,-3.6929,-1.75406,Q,Q
2023-03-15 14:51:18:697,0,5.2276,-3.68743,-1.73441,Q,Q
2023-03-15 14:51:18:707,0,5.2075,-3.68454,-1.72177,Q,Q
2023-03-15 14:51:18:717,0,5.19615,-3.68497,-1.72018,Q,Q
2023-03-15 14:51:18:727,0,5.19377,-3.68528,-1.72287,Q,Q
2023-03-15 14:51:18:737,0,5.19408,-3.68768,-1.73338,Q,Q
2023-03-15 14:51:18:747,0,5.19545,-3.68869,-1.74745,Q,Q
2023-03-15 14:51:18:757,0,5.19767,-3.69047,-1.76587,Q,Q
2023-03-15 14:51:18:767,0,5.19961,-3.6917,-1.78583,Q,Q
2023-03-15 14:51:18:777,0,5.19942,-3.69216,-1.80924,Q,Q
2023-03-15 14:51:18:787,0,5.19995,-3.68856,-1.83,Q,Q
2023-03-15 14:51:18:797,0,5.19965,-3.68207,-1.84775,Q,Q
2023-03-15 14:51:18:807,0,5.19897,-3.67447,-1.8621,Q,Q
2023-03-15 14:51:18:817,0,5.19627,-3.66447,-1.86741,Q,Q
2023-03-15 14:51:18:827,0,5.19129,-3.65519,-1.873,Q,Q
2023-03-15 14:51:18:837,0,5.18504,-3.64357,-1.86998,Q,Q
2023-03-15 14:51:18:847,0,5.18332,-3.63339,-1.86532,Q,Q
2023-03-15 14:51:18:857,0,5.18191,-3.6212,-1.86475,Q,Q
2023-03-15 14:51:18:867,0,5.18174,-3.60857,-1.85994,Q,Q
2023-03-15 14:51:18:877,0,5.17648,-3.59673,-1.84962,Q,Q
2023-03-15 14:51:18:887,0,5.16704,-3.58854,-1.84264,Q,Q
2023-03-15 14:51:18:897,0,5.15347,-3.58101,-1.83898,Q,Q
2023-03-15 14:51:18:907,0,5.14077,-3.57277,-1.83402,Q,Q
2023-03-15 14:51:18:917,0,5.12953,-3.56428,-1.83438,Q,Q
2023-03-15 14:51:18:927,0,5.12022,-3.55825,-1.8391,Q,Q
2023-03-15 14:51:18:937,0,5.11083,-3.54903,-1.84453,Q,Q
2023-03-15 14:51:18:947,0,5.10537,-3.54325,-1.85254,Q,Q
2023-03-15 14:51:18:957,0,5.09512,-3.54204,-1.85904,Q,Q
2023-03-15 14:51:18:967,0,5.08884,-3.53636,-1.86918,Q,Q
2023-03-15 14:51:18:977,0,5.0806,-3.52719,-1.8804,Q,Q
2023-03-15 14:51:18:987,0,5.07307,-3.51771,-1.89079,Q,Q
2023-03-15 14:51:18:997,0,5.06395,-3.50492,-1.89733,Q,Q
2023-03-15 14:51:19:7,0,5.04978,-3.49168,-1.89705,Q,Q
2023-03-15 14:51:19:17,0,5.03193,-3.48317,-1.89233,Q,Q
2023-03-15 14:51:19:27,0,5.01196,-3.47503,-1.88033,Q,Q
2023-03-15 14:51:19:37,0,4.99958,-3.47168,-1.85877,Q,Q
2023-03-15 14:51:19:47,0,4.9918,-3.47327,-1.83126,Q,Q
2023-03-15 14:51:19:57,0,4.98461,-3.47212,-1.79847,Q,Q
2023-03-15 14:51:19:67,0,4.97641,-3.47762,-1.76183,Q,Q
2023-03-15 14:51:19:77,0,4.96568,-3.48353,-1.72932,Q,Q
2023-03-15 14:51:19:87,0,4.9519,-3.48902,-1.69785,Q,Q
2023-03-15 14:51:19:97,0,4.93386,-3.49387,-1.66847,Q,Q
2023-03-15 14:51:19:107,0,4.91917,-3.50098,-1.64359,Q,Q
2023-03-15 14:51:19:117,0,4.90411,-3.50894,-1.62319,Q,Q
2023-03-15 14:51:19:127,0,4.89478,-3.52257,-1.60352,Q,Q
2023-03-15 14:51:19:137,0,4.88652,-3.53321,-1.58938,Q,Q
2023-03-15 14:51:19:147,0,4.88063,-3.54566,-1.58303,Q,Q
2023-03-15 14:51:19:157,0,4.875,-3.55597,-1.57559,Q,Q
2023-03-15 14:51:19:167,0,4.87121,-3.56782,-1.56931,Q,Q
2023-03-15 14:51:19:177,0,4.86976,-3.57694,-1.56286,Q,Q
2023-03-15 14:51:19:187,0,4.86722,-3.5859,-1.55904,Q,Q
2023-03-15 14:51:19:197,0,4.86724,-3.59371,-1.55198,Q,Q
2023-03-15 14:51:19:207,0,4.86438,-3.59872,-1.54616,Q,Q
2023-03-15 14:51:19:217,0,4.86081,-3.60048,-1.53937,Q,Q
2023-03-15 14:51:19:227,0,4.85901,-3.60493,-1.53493,Q,Q
2023-03-15 14:51:19:237,0,4.86087,-3.60505,-1.53165,Q,Q
2023-03-15 14:51:19:247,0,4.86243,-3.60227,-1.53184,Q,Q
2023-03-15 14:51:19:257,0,4.86638,-3.60109,-1.53381,Q,Q
2023-03-15 14:51:19:267,0,4.87665,-3.59572,-1.53569,Q,Q
2023-03-15 14:51:19:277,0,4.88485,-3.59631,-1.53581,Q,Q
2023-03-15 14:51:19:287,0,4.8979,-3.60578,-1.53176,Q,Q
2023-03-15 14:51:19:297,0,4.90881,-3.61396,-1.52794,Q,Q
2023-03-15 14:51:19:307,0,4.91466,-3.62225,-1.5224,Q,Q
2023-03-15 14:51:19:317,0,4.91758,-3.62757,-1.51709,Q,Q
2023-03-15 14:51:19:327,0,4.91858,-3.63678,-1.51138,Q,Q
2023-03-15 14:51:19:337,0,4.9174,-3.64621,-1.49685,Q,Q
2023-03-15 14:51:19:347,0,4.91469,-3.656,-1.47673,Q,Q
2023-03-15 14:51:19:357,0,4.9096,-3.66562,-1.45207,Q,Q
2023-03-15 14:51:19:367,0,4.9066,-3.6749,-1.4191,Q,Q
2023-03-15 14:51:19:377,0,4.90176,-3.68601,-1.38141,Q,Q
2023-03-15 14:51:19:387,0,4.89608,-3.69574,-1.34051,Q,Q
2023-03-15 14:51:19:397,0,4.88745,-3.69884,-1.29983,Q,Q
2023-03-15 14:51:19:407,0,4.87485,-3.70188,-1.25912,Q,Q
2023-03-15 14:51:19:417,0,4.86255,-3.70282,-1.22358,Q,Q
2023-03-15 14:51:19:427,0,4.84882,-3.70121,-1.19543,Q,Q
2023-03-15 14:51:19:437,0,4.83705,-3.70046,-1.16983,Q,Q
2023-03-15 14:51:19:447,0,4.82125,-3.69706,-1.15618,Q,Q
2023-03-15 14:51:19:457,0,4.80872,-3.69713,-1.15018,Q,Q
2023-03-15 14:51:19:467,0,4.796,-3.69613,-1.15272,Q,Q
2023-03-15 14:51:19:477,0,4.78324,-3.69646,-1.16107,Q,Q
2023-03-15 14:51:19:487,0,4.77042,-3.69859,-1.17303,Q,Q
2023-03-15 14:51:19:497,0,4.75786,-3.69967,-1.18911,Q,Q
2023-03-15 14:51:19:507,0,4.7417,-3.69809,-1.20571,Q,Q
2023-03-15 14:51:19:517,0,4.72837,-3.69918,-1.2269,Q,Q
2023-03-15 14:51:19:527,0,4.71875,-3.69987,-1.24922,Q,Q
2023-03-15 14:51:19:537,0,4.71126,-3.69523,-1.26456,Q,Q
2023-03-15 14:51:19:547,0,4.70559,-3.69539,-1.27875,Q,Q
2023-03-15 14:51:19:557,0,4.70012,-3.69128,-1.28711,Q,Q
2023-03-15 14:51:19:567,0,4.69048,-3.68967,-1.2902,Q,Q
2023-03-15 14:51:19:576,0,4.69028,-3.68273,-1.29032,Q,Q
2023-03-15 14:51:19:586,0,4.69252,-3.67813,-1.28823,Q,Q
2023-03-15 14:51:19:596,0,4.69326,-3.67818,-1.28527,Q,Q
2023-03-15 14:51:19:606,0,4.69799,-3.67952,-1.28586,Q,Q
2023-03-15 14:51:19:617,0,4.69964,-3.67623,-1.28383,Q,Q
2023-03-15 14:51:19:627,0,4.7046,-3.67453,-1.28869,Q,Q
2023-03-15 14:51:19:637,0,4.7086,-3.67618,-1.29286,Q,Q
2023-03-15 14:51:19:647,0,4.71433,-3.67819,-1.29524,Q,Q
2023-03-15 14:51:19:657,0,4.72404,-3.68024,-1.2949,Q,Q
2023-03-15 14:51:19:667,0,4.73265,-3.68368,-1.2993,Q,Q
2023-03-15 14:51:19:677,0,4.74515,-3.6837,-1.30138,Q,Q
2023-03-15 14:51:19:687,0,4.75398,-3.6847,-1.30303,Q,Q
2023-03-15 14:51:19:696,0,4.76661,-3.68278,-1.30419,Q,Q
2023-03-15 14:51:19:706,0,4.7819,-3.68429,-1.30414,Q,Q
2023-03-15 14:51:19:717,0,4.7929,-3.68158,-1.30313,Q,Q
2023-03-15 14:51:19:727,0,4.8067,-3.67507,-1.30577,Q,Q
2023-03-15 14:51:19:737,0,4.81861,-3.67158,-1.30847,Q,Q
2023-03-15 14:51:19:747,0,4.82683,-3.6685,-1.3102,Q,Q
2023-03-15 14:51:19:757,0,4.83038,-3.66186,-1.31379,Q,Q
2023-03-15 14:51:19:766,0,4.83588,-3.6557,-1.31698,Q,Q
2023-03-15 14:51:19:777,0,4.83373,-3.64666,-1.3225,Q,Q
2023-03-15 14:51:19:787,0,4.83436,-3.63338,-1.33481,Q,Q
2023-03-15 14:51:19:797,0,4.83605,-3.61681,-1.35057,Q,Q
2023-03-15 14:51:19:807,0,4.83784,-3.59579,-1.3726,Q,Q
2023-03-15 14:51:19:817,0,4.84189,-3.57072,-1.39822,Q,Q
2023-03-15 14:51:19:827,0,4.8488,-3.54528,-1.42587,Q,Q
2023-03-15 14:51:19:837,0,4.85331,-3.52089,-1.45686,Q,Q
2023-03-15 14:51:19:847,0,4.85705,-3.49356,-1.4907,Q,Q
2023-03-15 14:51:19:857,0,4.8537,-3.46704,-1.52392,Q,Q
2023-03-15 14:51:19:867,0,4.85219,-3.44257,-1.56371,Q,Q
2023-03-15 14:51:19:877,0,4.84659,-3.41292,-1.60686,Q,Q
2023-03-15 14:51:19:887,0,4.84235,-3.38319,-1.6509,Q,Q
2023-03-15 14:51:19:897,0,4.83818,-3.3504,-1.69525,Q,Q
2023-03-15 14:51:19:907,0,4.83629,-3.31329,-1.73941,Q,Q
2023-03-15 14:51:19:917,0,4.83338,-3.27956,-1.77874,Q,Q
2023-03-15 14:51:19:927,0,4.82663,-3.24263,-1.81347,Q,Q
2023-03-15 14:51:19:937,0,4.82057,-3.2054,-1.84293,Q,Q
2023-03-15 14:51:19:947,0,4.81632,-3.17308,-1.86922,Q,Q
2023-03-15 14:51:19:957,0,4.81444,-3.14077,-1.88962,Q,Q
2023-03-15 14:51:19:967,0,4.80812,-3.11237,-1.90797,Q,Q
2023-03-15 14:51:19:977,0,4.80045,-3.08313,-1.91358,Q,Q
2023-03-15 14:51:19:987,0,4.79122,-3.05817,-1.91795,Q,Q
2023-03-15 14:51:19:997,0,4.7821,-3.03508,-1.92164,Q,Q
2023-03-15 14:51:20:7,0,4.77561,-3.00911,-1.92636,Q,Q
2023-03-15 14:51:20:17,0,4.7735,-2.98435,-1.93209,Q,Q
2023-03-15 14:51:20:27,0,4.77371,-2.95886,-1.9396,Q,Q
2023-03-15 14:51:20:37,0,4.77077,-2.93659,-1.94847,Q,Q
2023-03-15 14:51:20:47,0,4.7633,-2.9118,-1.96571,Q,Q
2023-03-15 14:51:20:57,0,4.75744,-2.88507,-1.98801,Q,Q
2023-03-15 14:51:20:67,0,4.75479,-2.86265,-2.01124,Q,Q
2023-03-15 14:51:20:77,0,4.75354,-2.84306,-2.03802,Q,Q
2023-03-15 14:51:20:87,0,4.75589,-2.82524,-2.06479,Q,Q
2023-03-15 14:51:20:97,0,4.75389,-2.80473,-2.09022,Q,Q
2023-03-15 14:51:20:107,0,4.75131,-2.78115,-2.11694,Q,Q
2023-03-15 14:51:20:117,0,4.74939,-2.76129,-2.145,Q,Q
2023-03-15 14:51:20:127,0,4.75048,-2.74111,-2.16971,Q,Q
2023-03-15 14:51:20:137,0,4.74897,-2.72887,-2.18109,Q,Q
2023-03-15 14:51:20:147,0,4.74816,-2.71491,-2.18878,Q,Q
2023-03-15 14:51:20:157,0,4.74788,-2.70141,-2.1906,Q,Q
2023-03-15 14:51:20:167,0,4.74511,-2.69178,-2.18624,Q,Q
2023-03-15 14:51:20:177,0,4.7452,-2.6865,-2.17507,Q,Q
2023-03-15 14:51:20:187,0,4.74764,-2.68361,-2.16255,Q,Q
2023-03-15 14:51:20:197,0,4.75647,-2.68236,-2.15265,Q,Q
2023-03-15 14:51:20:207,0,4.76627,-2.68216,-2.13695,Q,Q
2023-03-15 14:51:20:217,0,4.77831,-2.68425,-2.12211,Q,Q
2023-03-15 14:51:20:227,0,4.78867,-2.69042,-2.10886,Q,Q
2023-03-15 14:51:20:237,0,4.79933,-2.69334,-2.09813,Q,Q
2023-03-15 14:51:20:247,0,4.80994,-2.69987,-2.08985,Q,Q
2023-03-15 14:51:20:257,0,4.82274,-2.7049,-2.08627,Q,Q
2023-03-15 14:51:20:267,0,4.83055,-2.71118,-2.08425,Q,Q
2023-03-15 14:51:20:277,0,4.83945,-2.72218,-2.07979,Q,Q
2023-03-15 14:51:20:287,0,4.8512,-2.72911,-2.07902,Q,Q
2023-03-15 14:51:20:297,0,4.86053,-2.73689,-2.07614,Q,Q
2023-03-15 14:51:20:307,0,4.87042,-2.74004,-2.07521,Q,Q
2023-03-15 14:51:20:317,0,4.87697,-2.74122,-2.07269,Q,Q
2023-03-15 14:51:20:327,0,4.88155,-2.74163,-2.07116,Q,Q
2023-03-15 14:51:20:337,0,4.88938,-2.74435,-2.06567,Q,Q
2023-03-15 14:51:20:347,0,4.89841,-2.74705,-2.0641,Q,Q
2023-03-15 14:51:20:357,0,4.90872,-2.74903,-2.06084,Q,Q
2023-03-15 14:51:20:367,0,4.92336,-2.74846,-2.0595,Q,Q
2023-03-15 14:51:20:377,0,4.93529,-2.74812,-2.05781,Q,Q
2023-03-15 14:51:20:387,0,4.94902,-2.74179,-2.05453,Q,Q
2023-03-15 14:51:20:397,0,4.96575,-2.74421,-2.04789,Q,Q
2023-03-15 14:51:20:407,0,4.97624,-2.74388,-2.03887,Q,Q
2023-03-15 14:51:20:417,0,4.9844,-2.74618,-2.0276,Q,Q
2023-03-15 14:51:20:427,0,4.9909,-2.74675,-2.01306,Q,Q
2023-03-15 14:51:20:437,0,4.99615,-2.74671,-1.99563,Q,Q
2023-03-15 14:51:20:447,0,4.99942,-2.74931,-1.97577,Q,Q
2023-03-15 14:51:20:457,0,5.00542,-2.75353,-1.94871,Q,Q
2023-03-15 14:51:20:467,0,5.01282,-2.75818,-1.91505,Q,Q
2023-03-15 14:51:20:477,0,5.02039,-2.76533,-1.87458,Q,Q
2023-03-15 14:51:20:487,0,5.03197,-2.77679,-1.83074,Q,Q
2023-03-15 14:51:20:497,0,5.03681,-2.78648,-1.78524,Q,Q
2023-03-15 14:51:20:507,0,5.04912,-2.7965,-1.74195,Q,Q
2023-03-15 14:51:20:516,0,5.06123,-2.81084,-1.69424,Q,Q
2023-03-15 14:51:20:527,0,5.07151,-2.82181,-1.65287,Q,Q
2023-03-15 14:51:20:537,0,5.08352,-2.83604,-1.61401,Q,Q
2023-03-15 14:51:20:547,0,5.09379,-2.85102,-1.57228,Q,Q
2023-03-15 14:51:20:557,0,5.10074,-2.86513,-1.53563,Q,Q
2023-03-15 14:51:20:567,0,5.11139,-2.87859,-1.501,Q,Q
2023-03-15 14:51:20:577,0,5.12238,-2.88808,-1.46928,Q,Q
2023-03-15 14:51:20:587,0,5.13013,-2.89837,-1.43626,Q,Q
2023-03-15 14:51:20:597,0,5.14037,-2.90696,-1.40548,Q,Q
2023-03-15 14:51:20:607,0,5.14721,-2.91688,-1.37792,Q,Q
2023-03-15 14:51:20:617,0,5.15981,-2.93099,-1.35174,Q,Q
2023-03-15 14:51:20:627,0,5.17138,-2.94453,-1.32853,Q,Q
2023-03-15 14:51:20:637,0,5.18237,-2.96309,-1.3066,Q,Q
2023-03-15 14:51:20:647,0,5.18975,-2.98304,-1.28681,Q,Q
2023-03-15 14:51:20:657,0,5.19526,-2.99896,-1.27235,Q,Q
2023-03-15 14:51:20:667,0,5.19873,-3.01206,-1.26947,Q,Q
2023-03-15 14:51:20:677,0,5.20282,-3.02863,-1.27206,Q,Q
2023-03-15 14:51:20:687,0,5.20539,-3.03825,-1.27781,Q,Q
2023-03-15 14:51:20:697,0,5.20826,-3.04604,-1.2817,Q,Q
2023-03-15 14:51:20:707,0,5.21385,-3.05048,-1.29071,Q,Q
2023-03-15 14:51:20:717,0,5.21951,-3.05445,-1.30354,Q,Q
2023-03-15 14:51:20:727,0,5.22848,-3.0581,-1.31968,Q,Q
2023-03-15 14:51:20:737,0,5.24172,-3.06298,-1.33409,Q,Q
2023-03-15 14:51:20:747,0,5.25044,-3.06964,-1.34946,Q,Q
2023-03-15 14:51:20:757,0,5.2598,-3.0759,-1.36511,Q,Q
2023-03-15 14:51:20:767,0,5.26518,-3.08369,-1.37738,Q,Q
2023-03-15 14:51:20:777,0,5.27354,-3.08959,-1.38804,Q,Q
2023-03-15 14:51:20:787,0,5.27841,-3.09846,-1.39662,Q,Q
2023-03-15 14:51:20:797,0,5.28084,-3.10873,-1.40219,Q,Q
2023-03-15 14:51:20:807,0,5.27735,-3.12125,-1.40315,Q,Q
2023-03-15 14:51:20:817,0,5.27505,-3.13435,-1.40021,Q,Q
2023-03-15 14:51:20:827,0,5.27245,-3.14895,-1.39173,Q,Q
2023-03-15 14:51:20:837,0,5.27084,-3.15577,-1.38119,Q,Q
2023-03-15 14:51:20:847,0,5.27408,-3.16178,-1.36984,Q,Q
2023-03-15 14:51:20:857,0,5.27935,-3.16523,-1.35388,Q,Q
2023-03-15 14:51:20:867,0,5.28485,-3.17231,-1.33559,Q,Q
2023-03-15 14:51:20:877,0,5.2886,-3.18394,-1.31626,Q,Q
2023-03-15 14:51:20:887,0,5.28962,-3.19531,-1.29839,Q,Q
2023-03-15 14:51:20:897,0,5.29187,-3.20539,-1.28577,Q,Q
2023-03-15 14:51:20:907,0,5.29442,-3.2099,-1.27123,Q,Q
2023-03-15 14:51:20:917,0,5.29803,-3.21662,-1.25833,Q,Q
2023-03-15 14:51:20:927,0,5.29419,-3.22299,-1.2451,Q,Q
2023-03-15 14:51:20:937,0,5.29527,-3.22705,-1.23373,Q,Q
2023-03-15 14:51:20:947,0,5.29684,-3.23533,-1.22484,Q,Q
2023-03-15 14:51:20:957,0,5.29845,-3.24147,-1.21527,Q,Q
2023-03-15 14:51:20:967,0,5.29987,-3.24518,-1.20568,Q,Q
2023-03-15 14:51:20:977,0,5.29863,-3.25261,-1.19887,Q,Q
2023-03-15 14:51:20:987,0,5.29551,-3.25841,-1.19094,Q,Q
2023-03-15 14:51:20:997,0,5.29476,-3.26648,-1.18338,Q,Q
2023-03-15 14:51:21:7,0,5.29122,-3.27576,-1.17814,Q,Q
2023-03-15 14:51:21:17,0,5.28317,-3.28261,-1.17549,Q,Q
2023-03-15 14:51:21:27,0,5.27917,-3.29006,-1.17541,Q,Q
2023-03-15 14:51:21:37,0,5.27526,-3.29778,-1.17819,Q,Q
2023-03-15 14:51:21:47,0,5.27034,-3.30324,-1.18539,Q,Q
2023-03-15 14:51:21:57,0,5.26471,-3.30843,-1.19652,Q,Q
2023-03-15 14:51:21:67,0,5.25889,-3.30924,-1.20583,Q,Q
2023-03-15 14:51:21:77,0,5.25448,-3.30572,-1.21832,Q,Q
2023-03-15 14:51:21:87,0,5.24964,-3.30349,-1.22977,Q,Q
2023-03-15 14:51:21:97,0,5.2457,-3.30281,-1.24302,Q,Q
2023-03-15 14:51:21:107,0,5.24327,-3.30405,-1.25849,Q,Q
2023-03-15 14:51:21:117,0,5.24196,-3.30345,-1.2697,Q,Q
2023-03-15 14:51:21:127,0,5.24836,-3.30203,-1.27993,Q,Q
2023-03-15 14:51:21:137,0,5.25111,-3.30388,-1.28899,Q,Q
2023-03-15 14:51:21:147,0,5.25477,-3.31158,-1.30026,Q,Q
2023-03-15 14:51:21:157,0,5.25726,-3.31515,-1.30927,Q,Q
2023-03-15 14:51:21:167,0,5.26266,-3.31689,-1.32154,Q,Q
2023-03-15 14:51:21:177,0,5.26873,-3.32248,-1.33238,Q,Q
2023-03-15 14:51:21:187,0,5.27736,-3.32536,-1.34484,Q,Q
2023-03-15 14:51:21:197,0,5.28489,-3.33033,-1.35332,Q,Q
2023-03-15 14:51:21:207,0,5.29136,-3.3338,-1.36098,Q,Q
2023-03-15 14:51:21:217,0,5.29714,-3.33679,-1.3688,Q,Q
2023-03-15 14:51:21:227,0,5.3041,-3.33862,-1.37558,Q,Q
2023-03-15 14:51:21:237,0,5.30958,-3.34192,-1.38253,Q,Q
2023-03-15 14:51:21:247,0,5.31159,-3.34287,-1.38361,Q,Q
2023-03-15 14:51:21:257,0,5.31288,-3.3464,-1.3845,Q,Q
2023-03-15 14:51:21:267,0,5.31656,-3.35225,-1.38264,Q,Q
2023-03-15 14:51:21:277,0,5.31581,-3.35609,-1.37987,Q,Q
2023-03-15 14:51:21:287,0,5.31371,-3.36182,-1.37433,Q,Q
2023-03-15 14:51:21:297,0,5.31346,-3.36403,-1.37107,Q,Q
2023-03-15 14:51:21:307,0,5.31324,-3.36562,-1.3676,Q,Q
2023-03-15 14:51:21:317,0,5.31131,-3.36062,-1.36234,Q,Q
2023-03-15 14:51:21:327,0,5.30868,-3.35807,-1.35675,Q,Q
2023-03-15 14:51:21:337,0,5.30548,-3.3588,-1.34697,Q,Q
2023-03-15 14:51:21:347,0,5.30444,-3.35758,-1.34107,Q,Q
2023-03-15 14:51:21:357,0,5.29795,-3.35455,-1.33778,Q,Q
2023-03-15 14:51:21:367,0,5.29513,-3.34735,-1.34033,Q,Q
2023-03-15 14:51:21:377,0,5.28642,-3.33375,-1.34617,Q,Q
2023-03-15 14:51:21:387,0,5.28172,-3.32043,-1.35582,Q,Q
2023-03-15 14:51:21:397,0,5.2718,-3.30882,-1.36714,Q,Q
2023-03-15 14:51:21:407,0,5.26172,-3.29699,-1.38214,Q,Q
2023-03-15 14:51:21:417,0,5.25255,-3.28471,-1.40012,Q,Q
2023-03-15 14:51:21:427,0,5.24812,-3.27243,-1.41927,Q,Q
2023-03-15 14:51:21:437,0,5.23716,-3.26234,-1.43502,Q,Q
2023-03-15 14:51:21:447,0,5.22438,-3.25428,-1.45018,Q,Q
2023-03-15 14:51:21:457,0,5.21003,-3.24836,-1.46975,Q,Q
2023-03-15 14:51:21:467,0,5.19225,-3.24083,-1.48796,Q,Q
2023-03-15 14:51:21:477,0,5.17394,-3.2288,-1.51162,Q,Q
2023-03-15 14:51:21:487,0,5.1582,-3.21648,-1.53877,Q,Q
2023-03-15 14:51:21:497,0,5.14337,-3.2038,-1.56114,Q,Q
2023-03-15 14:51:21:507,0,5.13088,-3.19386,-1.57699,Q,Q
2023-03-15 14:51:21:517,0,5.12017,-3.18176,-1.59633,Q,Q
2023-03-15 14:51:21:527,0,5.11307,-3.16905,-1.60974,Q,Q
2023-03-15 14:51:21:537,0,5.10542,-3.15549,-1.62411,Q,Q
2023-03-15 14:51:21:547,0,5.10235,-3.14355,-1.63626,Q,Q
2023-03-15 14:51:21:557,0,5.09784,-3.1321,-1.64344,Q,Q
2023-03-15 14:51:21:567,0,5.09506,-3.11938,-1.65095,Q,Q
2023-03-15 14:51:21:577,0,5.09196,-3.11118,-1.65379,Q,Q
2023-03-15 14:51:21:587,0,5.08897,-3.1017,-1.65697,Q,Q
2023-03-15 14:51:21:597,0,5.08255,-3.09459,-1.65511,Q,Q
2023-03-15 14:51:21:607,0,5.07256,-3.0866,-1.65737,Q,Q
2023-03-15 14:51:21:617,0,5.06232,-3.08183,-1.65349,Q,Q
2023-03-15 14:51:21:627,0,5.05443,-3.07476,-1.64687,Q,Q
2023-03-15 14:51:21:637,0,5.04884,-3.06412,-1.63872,Q,Q
2023-03-15 14:51:21:647,0,5.03993,-3.05307,-1.63375,Q,Q
2023-03-15 14:51:21:657,0,5.03519,-3.04361,-1.62939,Q,Q
2023-03-15 14:51:21:667,0,5.0302,-3.0394,-1.61924,Q,Q
2023-03-15 14:51:21:677,0,5.02311,-3.03605,-1.6095,Q,Q
2023-03-15 14:51:21:687,0,5.01816,-3.03659,-1.59986,Q,Q
2023-03-15 14:51:21:697,0,5.00835,-3.0367,-1.59292,Q,Q
2023-03-15 14:51:21:707,0,5.00116,-3.03719,-1.58483,Q,Q
2023-03-15 14:51:21:717,0,4.99645,-3.03827,-1.57627,Q,Q
2023-03-15 14:51:21:727,0,4.98752,-3.04087,-1.56504,Q,Q
2023-03-15 14:51:21:737,0,4.97831,-3.04336,-1.54911,Q,Q
2023-03-15 14:51:21:747,0,4.9665,-3.04791,-1.5343,Q,Q
2023-03-15 14:51:21:757,0,4.95604,-3.05149,-1.52183,Q,Q
2023-03-15 14:51:21:767,0,4.94777,-3.05494,-1.50704,Q,Q
2023-03-15 14:51:21:777,0,4.93832,-3.05801,-1.49648,Q,Q
2023-03-15 14:51:21:787,0,4.93109,-3.06598,-1.48515,Q,Q
2023-03-15 14:51:21:797,0,4.91795,-3.07513,-1.47314,Q,Q
2023-03-15 14:51:21:807,0,4.90402,-3.08664,-1.45974,Q,Q
2023-03-15 14:51:21:817,0,4.88903,-3.10221,-1.44218,Q,Q
2023-03-15 14:51:21:827,0,4.87406,-3.11811,-1.42618,Q,Q
2023-03-15 14:51:21:837,0,4.85968,-3.1331,-1.41023,Q,Q
2023-03-15 14:51:21:847,0,4.84724,-3.14941,-1.39044,Q,Q
2023-03-15 14:51:21:857,0,4.835,-3.16691,-1.369,Q,Q
2023-03-15 14:51:21:867,0,4.82556,-3.18293,-1.33879,Q,Q
2023-03-15 14:51:21:877,0,4.8133,-3.20172,-1.30744,Q,Q
2023-03-15 14:51:21:887,0,4.79979,-3.22125,-1.2753,Q,Q
2023-03-15 14:51:21:897,0,4.78443,-3.2407,-1.24215,Q,Q
2023-03-15 14:51:21:907,0,4.76602,-3.25946,-1.20049,Q,Q
2023-03-15 14:51:21:917,0,4.74474,-3.27891,-1.16181,Q,Q
2023-03-15 14:51:21:927,0,4.72279,-3.29772,-1.11958,Q,Q
2023-03-15 14:51:21:937,0,4.70163,-3.31448,-1.07577,Q,Q
2023-03-15 14:51:21:947,0,4.67843,-3.32835,-1.03211,Q,Q
2023-03-15 14:51:21:957,0,4.65288,-3.34569,-0.986721,Q,Q
2023-03-15 14:51:21:967,0,4.6271,-3.36418,-0.942787,Q,Q
2023-03-15 14:51:21:977,0,4.5996,-3.38396,-0.898256,Q,Q
2023-03-15 14:51:21:987,0,4.57232,-3.40162,-0.856629,Q,Q
2023-03-15 14:51:21:997,0,4.54387,-3.42044,-0.816599,Q,Q
2023-03-15 14:51:22:7,0,4.51851,-3.43937,-0.777779,Q,Q
2023-03-15 14:51:22:17,0,4.49235,-3.45659,-0.740407,Q,Q
2023-03-15 14:51:22:27,0,4.46327,-3.47436,-0.705043,Q,Q
2023-03-15 14:51:22:37,0,4.43835,-3.48874,-0.672607,Q,Q
2023-03-15 14:51:22:47,0,4.41632,-3.49811,-0.641606,Q,Q
2023-03-15 14:51:22:57,0,4.39958,-3.50685,-0.612263,Q,Q
2023-03-15 14:51:22:67,0,4.38197,-3.51958,-0.580681,Q,Q
2023-03-15 14:51:22:77,0,4.35874,-3.52953,-0.54919,Q,Q
2023-03-15 14:51:22:87,0,4.3324,-3.53979,-0.519948,Q,Q
2023-03-15 14:51:22:97,0,4.30771,-3.54815,-0.494269,Q,Q
2023-03-15 14:51:22:107,0,4.28494,-3.55008,-0.470873,Q,Q
2023-03-15 14:51:22:117,0,4.26597,-3.55211,-0.45043,Q,Q
2023-03-15 14:51:22:127,0,4.25501,-3.54704,-0.432688,Q,Q
2023-03-15 14:51:22:137,0,4.24789,-3.53861,-0.415878,Q,Q
2023-03-15 14:51:22:147,0,4.24246,-3.52965,-0.38902,Q,Q
2023-03-15 14:51:22:157,0,4.23672,-3.52262,-0.362761,Q,Q
2023-03-15 14:51:22:167,0,4.23425,-3.51323,-0.334499,Q,Q
2023-03-15 14:51:22:177,0,4.22343,-3.4962,-0.302276,Q,Q
2023-03-15 14:51:22:187,0,4.2175,-3.47848,-0.270533,Q,Q
2023-03-15 14:51:22:197,0,4.20827,-3.45776,-0.237278,Q,Q
2023-03-15 14:51:22:207,0,4.20367,-3.43881,-0.204522,Q,Q
2023-03-15 14:51:22:217,0,4.19858,-3.41682,-0.168921,Q,Q
2023-03-15 14:51:22:227,0,4.19753,-3.39314,-0.131471,Q,Q
2023-03-15 14:51:22:237,0,4.18783,-3.37119,-0.0943196,Q,Q
2023-03-15 14:51:22:247,0,4.17611,-3.35616,-0.0548145,Q,Q
2023-03-15 14:51:22:257,0,4.15393,-3.34179,-0.0154999,Q,Q
2023-03-15 14:51:22:267,0,4.131,-3.32928,0.0159221,Q,Q
2023-03-15 14:51:22:277,0,4.10543,-3.31846,0.0434589,Q,Q
2023-03-15 14:51:22:287,0,4.07444,-3.30709,0.0653424,Q,Q
2023-03-15 14:51:22:297,0,4.04235,-3.2975,0.0820241,Q,Q
2023-03-15 14:51:22:307,0,4.00947,-3.29126,0.0974723,Q,Q
2023-03-15 14:51:22:317,0,3.97461,-3.28787,0.111124,Q,Q
2023-03-15 14:51:22:327,0,3.94071,-3.28682,0.121177,Q,Q
2023-03-15 14:51:22:337,0,3.91132,-3.2883,0.130951,Q,Q
2023-03-15 14:51:22:347,0,3.88339,-3.2832,0.139827,Q,Q
2023-03-15 14:51:22:357,0,3.85836,-3.28459,0.150732,Q,Q
2023-03-15 14:51:22:367,0,3.83368,-3.28744,0.164988,Q,Q
2023-03-15 14:51:22:377,0,3.80833,-3.29096,0.183113,Q,Q
2023-03-15 14:51:22:387,0,3.77766,-3.29663,0.201865,Q,Q
2023-03-15 14:51:22:397,0,3.74498,-3.30208,0.219477,Q,Q
2023-03-15 14:51:22:407,0,3.71518,-3.30146,0.23501,Q,Q
2023-03-15 14:51:22:417,0,3.6883,-3.30526,0.251616,Q,Q
2023-03-15 14:51:22:427,0,3.66625,-3.30727,0.271205,Q,Q
2023-03-15 14:51:22:437,0,3.64526,-3.31024,0.296263,Q,Q
2023-03-15 14:51:22:447,0,3.62155,-3.30902,0.321136,Q,Q
2023-03-15 14:51:22:457,0,3.59991,-3.31084,0.345155,Q,Q
2023-03-15 14:51:22:467,0,3.57918,-3.31495,0.370257,Q,Q
2023-03-15 14:51:22:477,0,3.56266,-3.32008,0.399352,Q,Q
2023-03-15 14:51:22:487,0,3.54522,-3.32903,0.429973,Q,Q
2023-03-15 14:51:22:497,0,3.52426,-3.34319,0.467879,Q,Q
2023-03-15 14:51:22:507,0,3.51042,-3.35576,0.503894,Q,Q
2023-03-15 14:51:22:517,0,3.50031,-3.36736,0.538265,Q,Q
2023-03-15 14:51:22:527,0,3.49262,-3.38112,0.574192,Q,Q
2023-03-15 14:51:22:537,0,3.4846,-3.39272,0.609717,Q,Q
2023-03-15 14:51:22:547,0,3.47933,-3.40479,0.642252,Q,Q
2023-03-15 14:51:22:557,0,3.4728,-3.41542,0.674613,Q,Q
2023-03-15 14:51:22:567,0,3.46304,-3.43255,0.704323,Q,Q
2023-03-15 14:51:22:577,0,3.45225,-3.44747,0.735678,Q,Q
2023-03-15 14:51:22:587,0,3.44284,-3.46464,0.763476,Q,Q
2023-03-15 14:51:22:597,0,3.42951,-3.47822,0.789707,Q,Q
2023-03-15 14:51:22:607,0,3.41324,-3.48927,0.811858,Q,Q
2023-03-15 14:51:22:617,0,3.39778,-3.50221,0.836906,Q,Q
2023-03-15 14:51:22:627,0,3.37484,-3.51636,0.860389,Q,Q
2023-03-15 14:51:22:637,0,3.34448,-3.53218,0.88125,Q,Q
2023-03-15 14:51:22:647,0,3.31351,-3.54497,0.899519,Q,Q
2023-03-15 14:51:22:657,0,3.28842,-3.55649,0.914572,Q,Q
2023-03-15 14:51:22:667,0,3.26504,-3.56469,0.931322,Q,Q
2023-03-15 14:51:22:677,0,3.24613,-3.57313,0.948061,Q,Q
2023-03-15 14:51:22:687,0,3.22827,-3.57967,0.966983,Q,Q
2023-03-15 14:51:22:697,0,3.21184,-3.58623,0.983554,Q,Q
2023-03-15 14:51:22:707,0,3.19843,-3.59377,0.994348,Q,Q
2023-03-15 14:51:22:717,0,3.18818,-3.60273,1.00221,Q,Q
2023-03-15 14:51:22:727,0,3.18167,-3.60744,1.00804,Q,Q
2023-03-15 14:51:22:737,0,3.18173,-3.61168,1.01038,Q,Q
2023-03-15 14:51:22:747,0,3.17691,-3.61526,1.0106,Q,Q
2023-03-15 14:51:22:757,0,3.1789,-3.62252,1.00937,Q,Q
2023-03-15 14:51:22:767,0,3.17666,-3.62927,1.01229,Q,Q
2023-03-15 14:51:22:777,0,3.17663,-3.63563,1.01222,Q,Q
2023-03-15 14:51:22:787,0,3.17657,-3.64361,1.01314,Q,Q
2023-03-15 14:51:22:797,0,3.18235,-3.64997,1.01316,Q,Q
2023-03-15 14:51:22:807,0,3.1874,-3.65632,1.01702,Q,Q
2023-03-15 14:51:22:817,0,3.19223,-3.66436,1.0227,Q,Q
2023-03-15 14:51:22:827,0,3.1956,-3.67427,1.02842,Q,Q
2023-03-15 14:51:22:837,0,3.19705,-3.68652,1.0322,Q,Q
2023-03-15 14:51:22:847,0,3.20024,-3.70013,1.03708,Q,Q
2023-03-15 14:51:22:857,0,3.20746,-3.71313,1.03863,Q,Q
2023-03-15 14:51:22:867,0,3.21781,-3.7266,1.0417,Q,Q
2023-03-15 14:51:22:877,0,3.22871,-3.74366,1.04441,Q,Q
2023-03-15 14:51:22:887,0,3.24564,-3.76113,1.04417,Q,Q
2023-03-15 14:51:22:897,0,3.2594,-3.78255,1.04048,Q,Q
2023-03-15 14:51:22:907,0,3.27446,-3.79949,1.03406,Q,Q
2023-03-15 14:51:22:917,0,3.29371,-3.82012,1.02573,Q,Q
2023-03-15 14:51:22:927,0,3.31095,-3.83778,1.01627,Q,Q
2023-03-15 14:51:22:937,0,3.32919,-3.85381,1.00194,Q,Q
2023-03-15 14:51:22:947,0,3.34165,-3.86701,0.986568,Q,Q
2023-03-15 14:51:22:957,0,3.35074,-3.88274,0.967751,Q,Q
2023-03-15 14:51:22:967,0,3.35577,-3.89415,0.947356,Q,Q
2023-03-15 14:51:22:977,0,3.35272,-3.90153,0.917224,Q,Q
2023-03-15 14:51:22:987,0,3.34392,-3.9006,0.880703,Q,Q
2023-03-15 14:51:22:997,0,3.33699,-3.89468,0.844743,Q,Q
2023-03-15 14:51:23:7,0,3.33136,-3.88864,0.811607,Q,Q
2023-03-15 14:51:23:17,0,3.32873,-3.88361,0.78414,Q,Q
2023-03-15 14:51:23:27,0,3.3276,-3.88078,0.759817,Q,Q
2023-03-15 14:51:23:37,0,3.32677,-3.88314,0.7447,Q,Q
2023-03-15 14:51:23:47,0,3.32531,-3.88452,0.739684,Q,Q
2023-03-15 14:51:23:57,0,3.3203,-3.88666,0.737668,Q,Q
2023-03-15 14:51:23:67,0,3.31038,-3.88175,0.733834,Q,Q
2023-03-15 14:51:23:77,0,3.29862,-3.8732,0.736094,Q,Q
2023-03-15 14:51:23:87,0,3.28571,-3.86165,0.742157,Q,Q
2023-03-15 14:51:23:97,0,3.27143,-3.84222,0.756318,Q,Q
2023-03-15 14:51:23:107,0,3.25553,-3.82095,0.768512,Q,Q
2023-03-15 14:51:23:117,0,3.24182,-3.80095,0.782454,Q,Q
2023-03-15 14:51:23:127,0,3.22305,-3.78371,0.795338,Q,Q
2023-03-15 14:51:23:137,0,3.20442,-3.76378,0.805619,Q,Q
2023-03-15 14:51:23:147,0,3.18767,-3.74988,0.816029,Q,Q
2023-03-15 14:51:23:157,0,3.16969,-3.73668,0.822871,Q,Q
2023-03-15 14:51:23:167,0,3.14939,-3.7304,0.822608,Q,Q
2023-03-15 14:51:23:177,0,3.1301,-3.7242,0.81618,Q,Q
2023-03-15 14:51:23:187,0,3.11244,-3.71867,0.803301,Q,Q
2023-03-15 14:51:23:197,0,3.09529,-3.71603,0.790969,Q,Q
2023-03-15 14:51:23:207,0,3.07825,-3.71325,0.776021,Q,Q
2023-03-15 14:51:23:217,0,3.06196,-3.71254,0.762687,Q,Q
2023-03-15 14:51:23:227,0,3.0414,-3.71145,0.751228,Q,Q
2023-03-15 14:51:23:237,0,3.0197,-3.7148,0.736537,Q,Q
2023-03-15 14:51:23:247,0,3.00036,-3.71418,0.715645,Q,Q
2023-03-15 14:51:23:257,0,2.98734,-3.72072,0.695335,Q,Q
2023-03-15 14:51:23:267,0,2.98103,-3.73066,0.680118,Q,Q
2023-03-15 14:51:23:277,0,2.97941,-3.74493,0.66465,Q,Q
2023-03-15 14:51:23:287,0,2.98043,-3.76485,0.649906,Q,Q
2023-03-15 14:51:23:297,0,2.98807,-3.78055,0.625106,Q,Q
2023-03-15 14:51:23:307,0,3.0029,-3.79348,0.596595,Q,Q
2023-03-15 14:51:23:317,0,3.02031,-3.80066,0.568647,Q,Q
2023-03-15 14:51:23:327,0,3.04329,-3.80513,0.545363,Q,Q
2023-03-15 14:51:23:337,0,3.0645,-3.80657,0.524208,Q,Q
2023-03-15 14:51:23:347,0,3.08586,-3.80468,0.507074,Q,Q
2023-03-15 14:51:23:357,0,3.10058,-3.79748,0.494537,Q,Q
2023-03-15 14:51:23:367,0,3.1123,-3.79007,0.483833,Q,Q
2023-03-15 14:51:23:377,0,3.12648,-3.7836,0.474399,Q,Q
2023-03-15 14:51:23:387,0,3.14426,-3.77394,0.466078,Q,Q
2023-03-15 14:51:23:397,0,3.16732,-3.76201,0.462207,Q,Q
2023-03-15 14:51:23:407,0,3.18949,-3.74986,0.461463,Q,Q
2023-03-15 14:51:23:417,0,3.21466,-3.73178,0.461627,Q,Q
2023-03-15 14:51:23:427,0,3.23094,-3.71252,0.462062,Q,Q
2023-03-15 14:51:23:437,0,3.23663,-3.68665,0.472175,Q,Q
2023-03-15 14:51:23:447,0,3.23314,-3.67314,0.486133,Q,Q
2023-03-15 14:51:23:457,0,3.21866,-3.66667,0.49153,Q,Q
2023-03-15 14:51:23:467,0,3.21986,-3.6604,0.490812,Q,Q
2023-03-15 14:51:23:477,0,3.24032,-3.65243,0.484874,Q,Q
2023-03-15 14:51:23:487,0,3.27218,-3.64227,0.488998,Q,Q
2023-03-15 14:51:23:497,0,3.29547,-3.63655,0.503112,Q,Q
2023-03-15 14:51:23:507,0,3.295,-3.63801,0.520347,Q,Q
2023-03-15 14:51:23:517,0,3.27943,-3.64224,0.532874,Q,Q
2023-03-15 14:51:23:527,0,3.26285,-3.65594,0.535373,Q,Q
2023-03-15 14:51:23:537,0,3.25006,-3.67202,0.529792,Q,Q
2023-03-15 14:51:23:547,0,3.24681,-3.68675,0.519177,Q,Q
2023-03-15 14:51:23:557,0,3.24757,-3.70337,0.51106,Q,Q
2023-03-15 14:51:23:567,0,3.25579,-3.72026,0.501946,Q,Q
2023-03-15 14:51:23:577,0,3.27151,-3.73701,0.490908,Q,Q
2023-03-15 14:51:23:587,0,3.28049,-3.75226,0.48792,Q,Q
2023-03-15 14:51:23:597,0,3.27963,-3.76076,0.487854,Q,Q
2023-03-15 14:51:23:607,0,3.26589,-3.77375,0.481946,Q,Q
2023-03-15 14:51:23:617,0,3.24139,-3.79377,0.470848,Q,Q
2023-03-15 14:51:23:627,0,3.23326,-3.81501,0.45234,Q,Q
2023-03-15 14:51:23:637,0,3.25018,-3.83042,0.428023,Q,Q
2023-03-15 14:51:23:647,0,3.28293,-3.83982,0.410092,Q,Q
2023-03-15 14:51:23:657,0,3.32303,-3.84771,0.396956,Q,Q
2023-03-15 14:51:23:667,0,3.35387,-3.85366,0.395058,Q,Q
2023-03-15 14:51:23:677,0,3.37431,-3.86519,0.397174,Q,Q
2023-03-15 14:51:23:687,0,3.3957,-3.87896,0.395611,Q,Q
2023-03-15 14:51:23:697,0,3.4215,-3.89013,0.398648,Q,Q
2023-03-15 14:51:23:707,0,3.44974,-3.89605,0.409728,Q,Q
2023-03-15 14:51:23:717,0,3.47819,-3.90367,0.423896,Q,Q
2023-03-15 14:51:23:727,0,3.50265,-3.9098,0.443196,Q,Q
2023-03-15 14:51:23:737,0,3.51243,-3.91841,0.468804,Q,Q
2023-03-15 14:51:23:747,0,3.5092,-3.921,0.498695,Q,Q
2023-03-15 14:51:23:757,0,3.4963,-3.91763,0.527492,Q,Q
2023-03-15 14:51:23:767,0,3.47597,-3.90589,0.556096,Q,Q
2023-03-15 14:51:23:777,0,3.45752,-3.88806,0.58965,Q,Q
2023-03-15 14:51:23:787,0,3.43763,-3.85796,0.624026,Q,Q
2023-03-15 14:51:23:797,0,3.41522,-3.81347,0.66199,Q,Q
2023-03-15 14:51:23:807,0,3.38792,-3.76101,0.71126,Q,Q
2023-03-15 14:51:23:817,0,3.35718,-3.70169,0.772091,Q,Q
2023-03-15 14:51:23:827,0,3.31869,-3.64045,0.847793,Q,Q
2023-03-15 14:51:23:837,0,3.2701,-3.58345,0.944391,Q,Q
2023-03-15 14:51:23:847,0,3.20874,-3.53397,1.06435,Q,Q
2023-03-15 14:51:23:857,0,3.13345,-3.49544,1.20566,Q,Q
2023-03-15 14:51:23:867,0,3.03623,-3.46736,1.36086,Q,Q
2023-03-15 14:51:23:877,0,2.93073,-3.44498,1.51612,Q,Q
2023-03-15 14:51:23:887,0,2.81741,-3.43007,1.68583,Q,Q
2023-03-15 14:51:23:897,0,2.6931,-3.43024,1.8688,Q,Q
2023-03-15 14:51:23:907,0,2.56275,-3.44785,2.05902,Q,Q
2023-03-15 14:51:23:917,0,2.43944,-3.46992,2.25363,Q,Q
2023-03-15 14:51:23:927,0,2.31751,-3.50532,2.45609,Q,Q
2023-03-15 14:51:23:937,0,2.1947,-3.5516,2.6611,Q,Q
2023-03-15 14:51:23:947,0,2.08168,-3.6188,2.86554,Q,Q
2023-03-15 14:51:23:957,0,1.98721,-3.69593,3.05932,Q,Q
2023-03-15 14:51:23:967,0,1.90549,-3.78562,3.24674,Q,Q
2023-03-15 14:51:23:977,0,1.83551,-3.88064,3.42684,Q,Q
2023-03-15 14:51:23:987,0,1.77452,-3.98094,3.59881,Q,Q
2023-03-15 14:51:23:997,0,1.72104,-4.07705,3.75422,Q,Q
2023-03-15 14:51:24:7,0,1.66691,-4.17191,3.89244,Q,Q
2023-03-15 14:51:24:17,0,1.60995,-4.25825,4.0134,Q,Q
2023-03-15 14:51:24:27,0,1.56228,-4.33788,4.11529,Q,Q
2023-03-15 14:51:24:37,0,1.51646,-4.41279,4.21119,Q,Q
2023-03-15 14:51:24:47,0,1.46238,-4.48143,4.28993,Q,Q
2023-03-15 14:51:24:57,0,1.41168,-4.53675,4.34821,Q,Q
2023-03-15 14:51:24:67,0,1.37753,-4.58277,4.38812,Q,Q
2023-03-15 14:51:24:77,0,1.35473,-4.61986,4.41687,Q,Q
2023-03-15 14:51:24:87,0,1.35653,-4.64634,4.42077,Q,Q
2023-03-15 14:51:24:97,0,1.40411,-4.65668,4.40114,Q,Q
2023-03-15 14:51:24:107,0,1.48358,-4.65533,4.37361,Q,Q
2023-03-15 14:51:24:117,0,1.55951,-4.64134,4.34703,Q,Q
2023-03-15 14:51:24:127,0,1.6095,-4.62261,4.31389,Q,Q
2023-03-15 14:51:24:137,0,1.64399,-4.61184,4.26311,Q,Q
2023-03-15 14:51:24:147,0,1.67793,-4.60734,4.19722,Q,Q
2023-03-15 14:51:24:157,0,1.72489,-4.60016,4.11667,Q,Q
2023-03-15 14:51:24:167,0,1.78065,-4.59091,4.02632,Q,Q
2023-03-15 14:51:24:177,0,1.82872,-4.5733,3.93148,Q,Q
2023-03-15 14:51:24:187,0,1.87414,-4.5569,3.83248,Q,Q
2023-03-15 14:51:24:197,0,1.92375,-4.54135,3.7321,Q,Q
2023-03-15 14:51:24:207,0,1.96805,-4.52706,3.64021,Q,Q
2023-03-15 14:51:24:217,0,2.0017,-4.50389,3.54771,Q,Q
2023-03-15 14:51:24:227,0,2.01889,-4.47333,3.46094,Q,Q
2023-03-15 14:51:24:237,0,2.01732,-4.44182,3.3777,Q,Q
2023-03-15 14:51:24:247,0,2.00832,-4.41334,3.29814,Q,Q
2023-03-15 14:51:24:257,0,2.00247,-4.38305,3.22526,Q,Q
2023-03-15 14:51:24:267,0,1.99723,-4.35254,3.1665,Q,Q
2023-03-15 14:51:24:277,0,1.98978,-4.31784,3.11052,Q,Q
2023-03-15 14:51:24:287,0,1.99779,-4.28182,3.05786,Q,Q
2023-03-15 14:51:24:297,0,2.01316,-4.24201,3.01764,Q,Q
2023-03-15 14:51:24:307,0,2.01744,-4.20362,2.98474,Q,Q
2023-03-15 14:51:24:317,0,2.00933,-4.16553,2.95413,Q,Q
2023-03-15 14:51:24:327,0,1.98486,-4.13238,2.94519,Q,Q
2023-03-15 14:51:24:337,0,1.9352,-4.11275,2.94127,Q,Q
2023-03-15 14:51:24:347,0,1.88608,-4.09962,2.93418,Q,Q
2023-03-15 14:51:24:357,0,1.85181,-4.09232,2.92559,Q,Q
2023-03-15 14:51:24:367,0,1.83553,-4.08294,2.91128,Q,Q
2023-03-15 14:51:24:377,0,1.83445,-4.06697,2.88628,Q,Q
2023-03-15 14:51:24:387,0,1.83879,-4.04633,2.86335,Q,Q
2023-03-15 14:51:24:397,0,1.84166,-4.03036,2.83546,Q,Q
2023-03-15 14:51:24:407,0,1.8477,-4.01156,2.80345,Q,Q
2023-03-15 14:51:24:417,0,1.85812,-3.98899,2.76832,Q,Q
2023-03-15 14:51:24:427,0,1.86689,-3.96605,2.73628,Q,Q
2023-03-15 14:51:24:437,0,1.86834,-3.94022,2.70503,Q,Q
2023-03-15 14:51:24:447,0,1.87513,-3.91422,2.67177,Q,Q
2023-03-15 14:51:24:457,0,1.89052,-3.88742,2.64833,Q,Q
2023-03-15 14:51:24:467,0,1.89318,-3.86328,2.64343,Q,Q
2023-03-15 14:51:24:477,0,1.87339,-3.8481,2.64497,Q,Q
2023-03-15 14:51:24:487,0,1.85239,-3.83653,2.645,Q,Q
2023-03-15 14:51:24:497,0,1.84852,-3.82238,2.63984,Q,Q
2023-03-15 14:51:24:507,0,1.86893,-3.80458,2.63249,Q,Q
2023-03-15 14:51:24:517,0,1.89675,-3.78357,2.6354,Q,Q
2023-03-15 14:51:24:527,0,1.92298,-3.76712,2.64237,Q,Q
2023-03-15 14:51:24:537,0,1.94634,-3.75534,2.65076,Q,Q
2023-03-15 14:51:24:547,0,1.95837,-3.74783,2.65065,Q,Q
2023-03-15 14:51:24:557,0,1.96395,-3.73829,2.64262,Q,Q
2023-03-15 14:51:24:567,0,1.96608,-3.72551,2.62233,Q,Q
2023-03-15 14:51:24:577,0,1.97434,-3.70711,2.59001,Q,Q
2023-03-15 14:51:24:587,0,1.99008,-3.67757,2.55037,Q,Q
2023-03-15 14:51:24:597,0,2.00851,-3.64233,2.50411,Q,Q
2023-03-15 14:51:24:607,0,2.0279,-3.60576,2.4501,Q,Q
2023-03-15 14:51:24:617,0,2.04762,-3.57283,2.38523,Q,Q
2023-03-15 14:51:24:627,0,2.0735,-3.53214,2.30671,Q,Q
2023-03-15 14:51:24:637,0,2.10648,-3.48371,2.2154,Q,Q
2023-03-15 14:51:24:647,0,2.1346,-3.43395,2.11121,Q,Q
2023-03-15 14:51:24:657,0,2.15043,-3.37818,1.99405,Q,Q
2023-03-15 14:51:24:667,0,2.15732,-3.33196,1.87489,Q,Q
2023-03-15 14:51:24:677,0,2.15587,-3.29644,1.75102,Q,Q
2023-03-15 14:51:24:687,0,2.15468,-3.27528,1.62969,Q,Q
2023-03-15 14:51:24:697,0,2.15223,-3.28001,1.5183,Q,Q
2023-03-15 14:51:24:707,0,2.14842,-3.30487,1.42784,Q,Q
2023-03-15 14:51:24:717,0,2.13679,-3.35824,1.35555,Q,Q
2023-03-15 14:51:24:727,0,2.12079,-3.42759,1.30448,Q,Q
2023-03-15 14:51:24:737,0,2.1133,-3.51233,1.26961,Q,Q
2023-03-15 14:51:24:747,0,2.12167,-3.61618,1.25727,Q,Q
2023-03-15 14:51:24:757,0,2.14653,-3.73419,1.27097,Q,Q
2023-03-15 14:51:24:767,0,2.18059,-3.85688,1.30289,Q,Q
2023-03-15 14:51:24:777,0,2.21917,-3.97134,1.35815,Q,Q
2023-03-15 14:51:24:787,0,2.25251,-4.07972,1.42828,Q,Q
2023-03-15 14:51:24:797,0,2.2832,-4.18115,1.51293,Q,Q
2023-03-15 14:51:24:807,0,2.31217,-4.2648,1.60043,Q,Q
2023-03-15 14:51:24:817,0,2.33022,-4.33601,1.70105,Q,Q
2023-03-15 14:51:24:827,0,2.34534,-4.39008,1.80741,Q,Q
2023-03-15 14:51:24:837,0,2.3653,-4.43652,1.9193,Q,Q
2023-03-15 14:51:24:847,0,2.38675,-4.4806,2.03277,Q,Q
2023-03-15 14:51:24:857,0,2.42004,-4.51949,2.14762,Q,Q
2023-03-15 14:51:24:867,0,2.46539,-4.55049,2.26263,Q,Q
2023-03-15 14:51:24:877,0,2.51711,-4.57925,2.37606,Q,Q
2023-03-15 14:51:24:887,0,2.57402,-4.60505,2.48359,Q,Q
2023-03-15 14:51:24:897,0,2.64321,-4.61983,2.57856,Q,Q
2023-03-15 14:51:24:907,0,2.7271,-4.61727,2.66245,Q,Q
2023-03-15 14:51:24:917,0,2.81004,-4.59982,2.73177,Q,Q
2023-03-15 14:51:24:927,0,2.88642,-4.56631,2.79015,Q,Q
2023-03-15 14:51:24:937,0,2.9582,-4.52652,2.82838,Q,Q
2023-03-15 14:51:24:947,0,3.02483,-4.47447,2.85815,Q,Q
2023-03-15 14:51:24:957,0,3.0858,-4.41785,2.8838,Q,Q
2023-03-15 14:51:24:967,0,3.13576,-4.35518,2.9064,Q,Q
2023-03-15 14:51:24:977,0,3.17586,-4.28985,2.91797,Q,Q
2023-03-15 14:51:24:987,0,3.21123,-4.21608,2.92096,Q,Q
2023-03-15 14:51:24:997,0,3.24168,-4.13212,2.91189,Q,Q
2023-03-15 14:51:25:7,0,3.26181,-4.04307,2.89723,Q,Q
2023-03-15 14:51:25:17,0,3.27304,-3.95671,2.87747,Q,Q
2023-03-15 14:51:25:27,0,3.28056,-3.87612,2.86586,Q,Q
2023-03-15 14:51:25:37,0,3.27365,-3.80296,2.86917,Q,Q
2023-03-15 14:51:25:47,0,3.24964,-3.74015,2.87941,Q,Q
2023-03-15 14:51:25:57,0,3.21388,-3.68822,2.89988,Q,Q
2023-03-15 14:51:25:67,0,3.17827,-3.63628,2.9209,Q,Q
2023-03-15 14:51:25:77,0,3.14661,-3.59049,2.94842,Q,Q
2023-03-15 14:51:25:87,0,3.10721,-3.54507,2.97909,Q,Q
2023-03-15 14:51:25:97,0,3.0648,-3.49859,3.0055,Q,Q
2023-03-15 14:51:25:107,0,3.02827,-3.45586,3.02642,Q,Q
2023-03-15 14:51:25:117,0,2.99767,-3.42918,3.04909,Q,Q
2023-03-15 14:51:25:127,0,2.97058,-3.40624,3.06807,Q,Q
2023-03-15 14:51:25:137,0,2.94485,-3.39386,3.08263,Q,Q
2023-03-15 14:51:25:147,0,2.91805,-3.39069,3.09863,Q,Q
2023-03-15 14:51:25:157,0,2.88837,-3.39294,3.1131,Q,Q
2023-03-15 14:51:25:167,0,2.85846,-3.4093,3.13425,Q,Q
2023-03-15 14:51:25:177,0,2.82281,-3.43483,3.16183,Q,Q
2023-03-15 14:51:25:187,0,2.78113,-3.47047,3.19638,Q,Q
2023-03-15 14:51:25:197,0,2.74127,-3.51679,3.23956,Q,Q
2023-03-15 14:51:25:207,0,2.69953,-3.56824,3.28675,Q,Q
2023-03-15 14:51:25:217,0,2.6669,-3.61782,3.33099,Q,Q
2023-03-15 14:51:25:227,0,2.64408,-3.67001,3.3794,Q,Q
2023-03-15 14:51:25:237,0,2.63126,-3.71902,3.4313,Q,Q
2023-03-15 14:51:25:247,0,2.61344,-3.76165,3.48124,Q,Q
2023-03-15 14:51:25:257,0,2.58883,-3.80397,3.52933,Q,Q
2023-03-15 14:51:25:267,0,2.56281,-3.84739,3.57047,Q,Q
2023-03-15 14:51:25:277,0,2.5229,-3.87973,3.60449,Q,Q
2023-03-15 14:51:25:287,0,2.47862,-3.90488,3.62895,Q,Q
2023-03-15 14:51:25:297,0,2.45594,-3.91911,3.64336,Q,Q
2023-03-15 14:51:25:307,0,2.47423,-3.93081,3.63651,Q,Q
2023-03-15 14:51:25:317,0,2.54412,-3.94116,3.63347,Q,Q
2023-03-15 14:51:25:327,0,2.61027,-3.95128,3.6545,Q,Q
2023-03-15 14:51:25:337,0,2.64053,-3.96078,3.67626,Q,Q
2023-03-15 14:51:25:347,0,2.65041,-3.97861,3.68655,Q,Q
2023-03-15 14:51:25:357,0,2.67157,-3.99704,3.69222,Q,Q
2023-03-15 14:51:25:367,0,2.68846,-4.00779,3.69766,Q,Q
2023-03-15 14:51:25:377,0,2.69861,-4.018,3.69499,Q,Q
2023-03-15 14:51:25:387,0,2.70163,-4.02714,3.68963,Q,Q
2023-03-15 14:51:25:397,0,2.70276,-4.04176,3.68827,Q,Q
2023-03-15 14:51:25:407,0,2.69683,-4.06689,3.67848,Q,Q
2023-03-15 14:51:25:417,0,2.69156,-4.08878,3.66341,Q,Q
2023-03-15 14:51:25:427,0,2.69145,-4.10866,3.64041,Q,Q
2023-03-15 14:51:25:437,0,2.69604,-4.12182,3.61032,Q,Q
2023-03-15 14:51:25:447,0,2.7072,-4.12946,3.57141,Q,Q
2023-03-15 14:51:25:457,0,2.72096,-4.13121,3.52443,Q,Q
2023-03-15 14:51:25:467,0,2.73457,-4.13767,3.47226,Q,Q
2023-03-15 14:51:25:477,0,2.74668,-4.14145,3.4179,Q,Q
2023-03-15 14:51:25:487,0,2.75636,-4.14462,3.36147,Q,Q
2023-03-15 14:51:25:497,0,2.76277,-4.15345,3.30331,Q,Q
2023-03-15 14:51:25:507,0,2.77674,-4.15223,3.2322,Q,Q
2023-03-15 14:51:25:517,0,2.79358,-4.14828,3.15752,Q,Q
2023-03-15 14:51:25:527,0,2.80948,-4.13811,3.07771,Q,Q
2023-03-15 14:51:25:537,0,2.82724,-4.12857,2.9933,Q,Q
2023-03-15 14:51:25:547,0,2.84649,-4.11408,2.90651,Q,Q
2023-03-15 14:51:25:557,0,2.86607,-4.0999,2.82623,Q,Q
2023-03-15 14:51:25:567,0,2.88402,-4.08231,2.75061,Q,Q
2023-03-15 14:51:25:577,0,2.89152,-4.06328,2.67403,Q,Q
2023-03-15 14:51:25:587,0,2.9006,-4.03708,2.59195,Q,Q
2023-03-15 14:51:25:597,0,2.90524,-3.99675,2.50292,Q,Q
2023-03-15 14:51:25:607,0,2.91085,-3.94926,2.40723,Q,Q
2023-03-15 14:51:25:617,0,2.91571,-3.89775,2.31078,Q,Q
2023-03-15 14:51:25:627,0,2.91316,-3.84703,2.2064,Q,Q
2023-03-15 14:51:25:636,0,2.91148,-3.79708,2.08915,Q,Q
2023-03-15 14:51:25:647,0,2.90699,-3.75312,1.96162,Q,Q
2023-03-15 14:51:25:657,0,2.91433,-3.71283,1.81912,Q,Q
2023-03-15 14:51:25:667,0,2.92328,-3.67217,1.66036,Q,Q
2023-03-15 14:51:25:677,0,2.93222,-3.63279,1.4869,Q,Q
2023-03-15 14:51:25:687,0,2.94206,-3.59307,1.29981,Q,Q
2023-03-15 14:51:25:697,0,2.946,-3.54892,1.09533,Q,Q
2023-03-15 14:51:25:707,0,2.94887,-3.5002,0.878561,Q,Q
2023-03-15 14:51:25:717,0,2.94404,-3.44584,0.650986,Q,Q
2023-03-15 14:51:25:727,0,2.92851,-3.39419,0.411634,Q,Q
2023-03-15 14:51:25:737,0,2.90864,-3.34357,0.163736,Q,Q
2023-03-15 14:51:25:747,0,2.8823,-3.29216,-0.0957888,Q,Q
2023-03-15 14:51:25:757,0,2.84934,-3.24332,-0.360402,Q,Q
2023-03-15 14:51:25:767,0,2.80932,-3.19378,-0.630211,Q,Q
2023-03-15 14:51:25:777,0,2.76581,-3.14469,-0.906922,Q,Q
2023-03-15 14:51:25:787,0,2.72107,-3.09662,-1.18127,Q,Q
2023-03-15 14:51:25:797,0,2.6766,-3.056,-1.45331,Q,Q
2023-03-15 14:51:25:807,0,2.63291,-3.01806,-1.72383,Q,Q
2023-03-15 14:51:25:817,0,2.58587,-2.9738,-1.99334,Q,Q
2023-03-15 14:51:25:827,0,2.53312,-2.93624,-2.2634,Q,Q
2023-03-15 14:51:25:837,0,2.48644,-2.89601,-2.53455,Q,Q
2023-03-15 14:51:25:847,0,2.43373,-2.85614,-2.79921,Q,Q
2023-03-15 14:51:25:857,0,2.38756,-2.82238,-3.05563,Q,Q
2023-03-15 14:51:25:867,0,2.33759,-2.79131,-3.30654,Q,Q
2023-03-15 14:51:25:877,0,2.29055,-2.76095,-3.54845,Q,Q
2023-03-15 14:51:25:887,0,2.25038,-2.72927,-3.78824,Q,Q
2023-03-15 14:51:25:897,0,2.21621,-2.70477,-4.01719,Q,Q
2023-03-15 14:51:25:907,0,2.18911,-2.68338,-4.23901,Q,Q
2023-03-15 14:51:25:917,0,2.16635,-2.66231,-4.45194,Q,Q
2023-03-15 14:51:25:927,0,2.15194,-2.64376,-4.65513,Q,Q
2023-03-15 14:51:25:937,0,2.13953,-2.62039,-4.84903,Q,Q
2023-03-15 14:51:25:947,0,2.1283,-2.59923,-5.03534,Q,Q
2023-03-15 14:51:25:957,0,2.1196,-2.58369,-5.20786,Q,Q
2023-03-15 14:51:25:967,0,2.10605,-2.5658,-5.36866,Q,Q
2023-03-15 14:51:25:977,0,2.09013,-2.54733,-5.52695,Q,Q
2023-03-15 14:51:25:987,0,2.07698,-2.52542,-5.67891,Q,Q
2023-03-15 14:51:25:997,0,2.07219,-2.50885,-5.82634,Q,Q
2023-03-15 14:51:26:7,0,2.07665,-2.49367,-5.96635,Q,Q
2023-03-15 14:51:26:17,0,2.08753,-2.4852,-6.09996,Q,Q
2023-03-15 14:51:26:27,0,2.10226,-2.48164,-6.22866,Q,Q
2023-03-15 14:51:26:37,0,2.12462,-2.48255,-6.35144,Q,Q
2023-03-15 14:51:26:47,0,2.14891,-2.48574,-6.47439,Q,Q
2023-03-15 14:51:26:57,0,2.16788,-2.49271,-6.59687,Q,Q
2023-03-15 14:51:26:67,0,2.18329,-2.49457,-6.72212,Q,Q
2023-03-15 14:51:26:77,0,2.19455,-2.4928,-6.85716,Q,Q
2023-03-15 14:51:26:87,0,2.20687,-2.4901,-6.99374,Q,Q
2023-03-15 14:51:26:97,0,2.22304,-2.48834,-7.12452,Q,Q
2023-03-15 14:51:26:107,0,2.24099,-2.49039,-7.24426,Q,Q
2023-03-15 14:51:26:117,0,2.24984,-2.48968,-7.359,Q,Q
2023-03-15 14:51:26:127,0,2.25382,-2.488,-7.46883,Q,Q
2023-03-15 14:51:26:137,0,2.25717,-2.49334,-7.56569,Q,Q
2023-03-15 14:51:26:147,0,2.24571,-2.5075,-7.63891,Q,Q
2023-03-15 14:51:26:157,0,2.21757,-2.53077,-7.70109,Q,Q
2023-03-15 14:51:26:167,0,2.18112,-2.55577,-7.7566,Q,Q
2023-03-15 14:51:26:177,0,2.14434,-2.57779,-7.81308,Q,Q
2023-03-15 14:51:26:187,0,2.11272,-2.59152,-7.87201,Q,Q
2023-03-15 14:51:26:197,0,2.08748,-2.59498,-7.92763,Q,Q
2023-03-15 14:51:26:207,0,2.06544,-2.58569,-7.97829,Q,Q
2023-03-15 14:51:26:217,0,2.04522,-2.56855,-8.02838,Q,Q
2023-03-15 14:51:26:227,0,2.02325,-2.54795,-8.07385,Q,Q
2023-03-15 14:51:26:237,0,1.99202,-2.53356,-8.11285,Q,Q
2023-03-15 14:51:26:247,0,1.95137,-2.51756,-8.14987,Q,Q
2023-03-15 14:51:26:257,0,1.90801,-2.50714,-8.18808,Q,Q
2023-03-15 14:51:26:267,0,1.86344,-2.49441,-8.22762,Q,Q
2023-03-15 14:51:26:277,0,1.82311,-2.4847,-8.27843,Q,Q
2023-03-15 14:51:26:287,0,1.78944,-2.47594,-8.34255,Q,Q
2023-03-15 14:51:26:297,0,1.76691,-2.47012,-8.42028,Q,Q
2023-03-15 14:51:26:307,0,1.75167,-2.47042,-8.50144,Q,Q
2023-03-15 14:51:26:317,0,1.74402,-2.4735,-8.59583,Q,Q
2023-03-15 14:51:26:327,0,1.74656,-2.48648,-8.69518,Q,Q
2023-03-15 14:51:26:337,0,1.74513,-2.49638,-8.79794,Q,Q
2023-03-15 14:51:26:347,0,1.73967,-2.51139,-8.90745,Q,Q
2023-03-15 14:51:26:357,0,1.72862,-2.5276,-9.01043,Q,Q
2023-03-15 14:51:26:367,0,1.71486,-2.54736,-9.10392,Q,Q
2023-03-15 14:51:26:377,0,1.70081,-2.56657,-9.18919,Q,Q
2023-03-15 14:51:26:387,0,1.6794,-2.58126,-9.26691,Q,Q
2023-03-15 14:51:26:397,0,1.65526,-2.59038,-9.34011,Q,Q
2023-03-15 14:51:26:407,0,1.6254,-2.59381,-9.40572,Q,Q
2023-03-15 14:51:26:417,0,1.59367,-2.58988,-9.45926,Q,Q
2023-03-15 14:51:26:427,0,1.56123,-2.58654,-9.50105,Q,Q
2023-03-15 14:51:26:437,0,1.53011,-2.58111,-9.53328,Q,Q
2023-03-15 14:51:26:447,0,1.49462,-2.57505,-9.56058,Q,Q
2023-03-15 14:51:26:457,0,1.46331,-2.56806,-9.5805,Q,Q
2023-03-15 14:51:26:467,0,1.43677,-2.5629,-9.60019,Q,Q
2023-03-15 14:51:26:477,0,1.42075,-2.56247,-9.61907,Q,Q
2023-03-15 14:51:26:487,0,1.4183,-2.56283,-9.63709,Q,Q
2023-03-15 14:51:26:497,0,1.41888,-2.56958,-9.66487,Q,Q
2023-03-15 14:51:26:507,0,1.42476,-2.5841,-9.69847,Q,Q
2023-03-15 14:51:26:517,0,1.4331,-2.60814,-9.73716,Q,Q
2023-03-15 14:51:26:527,0,1.44552,-2.63827,-9.77769,Q,Q
2023-03-15 14:51:26:537,0,1.4613,-2.67728,-9.82309,Q,Q
2023-03-15 14:51:26:547,0,1.47558,-2.72565,-9.87904,Q,Q
2023-03-15 14:51:26:557,0,1.48837,-2.77875,-9.94043,Q,Q
2023-03-15 14:51:26:567,0,1.49963,-2.83079,-10.0076,Q,Q
2023-03-15 14:51:26:577,0,1.51108,-2.8764,-10.0887,Q,Q
2023-03-15 14:51:26:587,0,1.52263,-2.92024,-10.1767,Q,Q
2023-03-15 14:51:26:597,0,1.53209,-2.95443,-10.2651,Q,Q
2023-03-15 14:51:26:607,0,1.54219,-2.98843,-10.3533,Q,Q
2023-03-15 14:51:26:617,0,1.54656,-3.01798,-10.4408,Q,Q
2023-03-15 14:51:26:627,0,1.5467,-3.03954,-10.5265,Q,Q
2023-03-15 14:51:26:637,0,1.53904,-3.05526,-10.6035,Q,Q
2023-03-15 14:51:26:647,0,1.53118,-3.06351,-10.6714,Q,Q
2023-03-15 14:51:26:657,0,1.51337,-3.06451,-10.7298,Q,Q
2023-03-15 14:51:26:667,0,1.49019,-3.0626,-10.7755,Q,Q
2023-03-15 14:51:26:677,0,1.45932,-3.05709,-10.8061,Q,Q
2023-03-15 14:51:26:687,0,1.42901,-3.05298,-10.8182,Q,Q
2023-03-15 14:51:26:697,0,1.39674,-3.04672,-10.8097,Q,Q
2023-03-15 14:51:26:707,0,1.35885,-3.04189,-10.7837,Q,Q
2023-03-15 14:51:26:717,0,1.32218,-3.03731,-10.7485,Q,Q
2023-03-15 14:51:26:727,0,1.29245,-3.03462,-10.7146,Q,Q
2023-03-15 14:51:26:737,0,1.27615,-3.03542,-10.6823,Q,Q
2023-03-15 14:51:26:747,0,1.26653,-3.03667,-10.6484,Q,Q
2023-03-15 14:51:26:757,0,1.25954,-3.03858,-10.6171,Q,Q
2023-03-15 14:51:26:767,0,1.25166,-3.03552,-10.5949,Q,Q
2023-03-15 14:51:26:777,0,1.24091,-3.03585,-10.5769,Q,Q
2023-03-15 14:51:26:787,0,1.23076,-3.03898,-10.5675,Q,Q
2023-03-15 14:51:26:797,0,1.23712,-3.05109,-10.5686,Q,Q
2023-03-15 14:51:26:807,0,1.25665,-3.06144,-10.5756,Q,Q
2023-03-15 14:51:26:817,0,1.28473,-3.07279,-10.5847,Q,Q
2023-03-15 14:51:26:827,0,1.31722,-3.08297,-10.593,Q,Q
2023-03-15 14:51:26:837,0,1.34564,-3.09101,-10.5998,Q,Q
2023-03-15 14:51:26:847,0,1.36948,-3.09953,-10.599,Q,Q
