Timestamp_cmd,imu_cmd,roll_delta,pitch_delta,yaw_delta,voice_type,voice_length
2023-03-15 13:11:53:212,0,-10.4517,-4.99693,-17.7499,Q,Q
2023-03-15 13:11:53:220,0,-10.4471,-4.99681,-17.7319,Q,Q
2023-03-15 13:11:53:230,0,-10.4441,-4.99383,-17.7124,Q,Q
2023-03-15 13:11:53:240,0,-10.4403,-4.99009,-17.6952,Q,Q
2023-03-15 13:11:53:250,0,-10.4362,-4.99025,-17.675,Q,Q
2023-03-15 13:11:53:260,0,-10.434,-4.98947,-17.6589,Q,Q
2023-03-15 13:11:53:270,0,-10.4304,-4.98863,-17.6447,Q,Q
2023-03-15 13:11:53:280,0,-10.4243,-4.98991,-17.628,Q,Q
2023-03-15 13:11:53:290,0,-10.4196,-4.98714,-17.6115,Q,Q
2023-03-15 13:11:53:300,0,-10.4131,-4.98312,-17.5975,Q,Q
2023-03-15 13:11:53:310,0,-10.4113,-4.98208,-17.585,Q,Q
2023-03-15 13:11:53:320,0,-10.4058,-4.98319,-17.5703,Q,Q
2023-03-15 13:11:53:330,0,-10.4018,-4.98038,-17.5554,Q,Q
2023-03-15 13:11:53:340,0,-10.3938,-4.97956,-17.5436,Q,Q
2023-03-15 13:11:53:350,0,-10.3875,-4.97858,-17.5286,Q,Q
2023-03-15 13:11:53:360,0,-10.3831,-4.97885,-17.512,Q,Q
2023-03-15 13:11:53:370,0,-10.3726,-4.97635,-17.4965,Q,Q
2023-03-15 13:11:53:380,0,-10.3637,-4.97531,-17.4776,Q,Q
2023-03-15 13:11:53:390,0,-10.3562,-4.97436,-17.4584,Q,Q
2023-03-15 13:11:53:400,0,-10.3529,-4.97097,-17.4381,Q,Q
2023-03-15 13:11:53:410,0,-10.3493,-4.96801,-17.4197,Q,Q
2023-03-15 13:11:53:420,0,-10.344,-4.96418,-17.4051,Q,Q
2023-03-15 13:11:53:430,0,-10.3376,-4.96061,-17.3908,Q,Q
2023-03-15 13:11:53:440,0,-10.3307,-4.95984,-17.3798,Q,Q
2023-03-15 13:11:53:450,0,-10.3228,-4.95581,-17.3693,Q,Q
2023-03-15 13:11:53:460,0,-10.3102,-4.94792,-17.3603,Q,Q
2023-03-15 13:11:53:470,0,-10.2988,-4.93779,-17.3508,Q,Q
2023-03-15 13:11:53:480,0,-10.2865,-4.92903,-17.342,Q,Q
2023-03-15 13:11:53:490,0,-10.2694,-4.91754,-17.3353,Q,Q
2023-03-15 13:11:53:500,0,-10.2564,-4.91064,-17.3315,Q,Q
2023-03-15 13:11:53:510,0,-10.2418,-4.90406,-17.3294,Q,Q
2023-03-15 13:11:53:520,0,-10.2284,-4.89288,-17.3281,Q,Q
2023-03-15 13:11:53:530,0,-10.2157,-4.88225,-17.3287,Q,Q
2023-03-15 13:11:53:540,0,-10.2035,-4.87396,-17.3276,Q,Q
2023-03-15 13:11:53:550,0,-10.1929,-4.86679,-17.3315,Q,Q
2023-03-15 13:11:53:560,0,-10.1816,-4.86625,-17.333,Q,Q
2023-03-15 13:11:53:570,0,-10.1704,-4.86319,-17.3366,Q,Q
2023-03-15 13:11:53:580,0,-10.1592,-4.86,-17.3429,Q,Q
2023-03-15 13:11:53:590,0,-10.1446,-4.85806,-17.3481,Q,Q
2023-03-15 13:11:53:600,0,-10.1266,-4.85481,-17.3492,Q,Q
2023-03-15 13:11:53:610,0,-10.1145,-4.85432,-17.3489,Q,Q
2023-03-15 13:11:53:620,0,-10.1029,-4.85766,-17.347,Q,Q
2023-03-15 13:11:53:630,0,-10.0915,-4.86533,-17.3445,Q,Q
2023-03-15 13:11:53:640,0,-10.0757,-4.87511,-17.3402,Q,Q
2023-03-15 13:11:53:650,0,-10.0516,-4.88765,-17.3418,Q,Q
2023-03-15 13:11:53:660,0,-10.0114,-4.90636,-17.3561,Q,Q
2023-03-15 13:11:53:670,0,-9.95837,-4.91841,-17.3813,Q,Q
2023-03-15 13:11:53:680,0,-9.89322,-4.92702,-17.4219,Q,Q
2023-03-15 13:11:53:690,0,-9.81814,-4.93753,-17.4807,Q,Q
2023-03-15 13:11:53:700,0,-9.73816,-4.95076,-17.5567,Q,Q
2023-03-15 13:11:53:710,0,-9.65928,-4.97104,-17.6524,Q,Q
2023-03-15 13:11:53:720,0,-9.57882,-5.00065,-17.7758,Q,Q
2023-03-15 13:11:53:730,0,-9.49873,-5.03566,-17.925,Q,Q
2023-03-15 13:11:53:740,0,-9.41207,-5.06921,-18.1014,Q,Q
2023-03-15 13:11:53:750,0,-9.32859,-5.10484,-18.3103,Q,Q
2023-03-15 13:11:53:760,0,-9.23596,-5.14427,-18.5634,Q,Q
2023-03-15 13:11:53:770,0,-9.13189,-5.19236,-18.8563,Q,Q
2023-03-15 13:11:53:780,0,-9.01985,-5.24328,-19.1876,Q,Q
2023-03-15 13:11:53:790,0,-8.89714,-5.30052,-19.5545,Q,Q
2023-03-15 13:11:53:800,0,-8.76893,-5.37112,-19.9542,Q,Q
2023-03-15 13:11:53:810,0,-8.64227,-5.45967,-20.3919,Q,Q
2023-03-15 13:11:53:820,0,-8.5186,-5.56362,-20.8672,Q,Q
2023-03-15 13:11:53:830,0,-8.40071,-5.6878,-21.376,Q,Q
2023-03-15 13:11:53:840,0,-8.28449,-5.83291,-21.9198,Q,Q
2023-03-15 13:11:53:850,0,-8.17121,-5.99431,-22.501,Q,Q
2023-03-15 13:11:53:860,0,-8.05413,-6.16334,-23.1121,Q,Q
2023-03-15 13:11:53:870,0,-7.93049,-6.33702,-23.7541,Q,Q
2023-03-15 13:11:53:880,0,-7.80305,-6.51701,-24.4186,Q,Q
2023-03-15 13:11:53:890,0,-7.6739,-6.70256,-25.1069,Q,Q
2023-03-15 13:11:53:900,0,-7.53779,-6.89261,-25.8151,Q,Q
2023-03-15 13:11:53:910,0,-7.3914,-7.09043,-26.54,Q,Q
2023-03-15 13:11:53:920,0,-7.23862,-7.28699,-27.2767,Q,Q
2023-03-15 13:11:53:930,0,-7.07925,-7.48618,-28.0137,Q,Q
2023-03-15 13:11:53:940,0,-6.92082,-7.68697,-28.7442,Q,Q
2023-03-15 13:11:53:950,0,-6.76005,-7.88953,-29.4665,Q,Q
2023-03-15 13:11:53:960,0,-6.59797,-8.09128,-30.1742,Q,Q
2023-03-15 13:11:53:970,0,-6.44066,-8.2894,-30.8649,Q,Q
2023-03-15 13:11:53:980,0,-6.2851,-8.48023,-31.5354,Q,Q
2023-03-15 13:11:53:990,0,-6.1335,-8.6685,-32.1797,Q,Q
2023-03-15 13:11:54:0,0,-5.98615,-8.84854,-32.7962,Q,Q
2023-03-15 13:11:54:10,0,-5.84156,-9.02575,-33.3886,Q,Q
2023-03-15 13:11:54:20,0,-5.70037,-9.19016,-33.9506,Q,Q
2023-03-15 13:11:54:30,0,-5.56421,-9.3459,-34.486,Q,Q
2023-03-15 13:11:54:40,0,-5.43234,-9.49144,-34.9916,Q,Q
2023-03-15 13:11:54:50,0,-5.30712,-9.6305,-35.4678,Q,Q
2023-03-15 13:11:54:60,0,-5.18625,-9.75924,-35.9114,Q,Q
2023-03-15 13:11:54:70,0,-5.06819,-9.87962,-36.3255,Q,Q
2023-03-15 13:11:54:80,0,-4.95901,-9.99524,-36.7105,Q,Q
2023-03-15 13:11:54:90,0,-4.85398,-10.1074,-37.064,Q,Q
2023-03-15 13:11:54:100,0,-4.75327,-10.2102,-37.388,Q,Q
2023-03-15 13:11:54:110,0,-4.66019,-10.3067,-37.6809,Q,Q
2023-03-15 13:11:54:120,0,-4.57337,-10.3945,-37.9494,Q,Q
2023-03-15 13:11:54:130,0,-4.49012,-10.48,-38.1944,Q,Q
2023-03-15 13:11:54:140,0,-4.4078,-10.5544,-38.4202,Q,Q
2023-03-15 13:11:54:150,0,-4.32668,-10.623,-38.6222,Q,Q
2023-03-15 13:11:54:160,0,-4.25554,-10.6913,-38.8041,Q,Q
2023-03-15 13:11:54:170,0,-4.18826,-10.7634,-38.9725,Q,Q
2023-03-15 13:11:54:180,0,-4.12038,-10.8291,-39.1327,Q,Q
2023-03-15 13:11:54:190,0,-4.05158,-10.8955,-39.2833,Q,Q
2023-03-15 13:11:54:200,0,-3.98616,-10.9562,-39.423,Q,Q
2023-03-15 13:11:54:210,0,-3.9233,-11.0131,-39.555,Q,Q
2023-03-15 13:11:54:220,0,-3.86563,-11.0693,-39.6754,Q,Q
2023-03-15 13:11:54:230,0,-3.8065,-11.1228,-39.7842,Q,Q
2023-03-15 13:11:54:240,0,-3.75659,-11.1726,-39.886,Q,Q
2023-03-15 13:11:54:250,0,-3.71201,-11.2202,-39.9821,Q,Q
2023-03-15 13:11:54:260,0,-3.6696,-11.2662,-40.0687,Q,Q
2023-03-15 13:11:54:270,0,-3.62976,-11.3098,-40.1484,Q,Q
2023-03-15 13:11:54:280,0,-3.59522,-11.3539,-40.2169,Q,Q
2023-03-15 13:11:54:290,0,-3.56544,-11.3884,-40.2781,Q,Q
2023-03-15 13:11:54:300,0,-3.53936,-11.4204,-40.3313,Q,Q
2023-03-15 13:11:54:310,0,-3.51616,-11.4547,-40.3799,Q,Q
2023-03-15 13:11:54:320,0,-3.49829,-11.4874,-40.4161,Q,Q
2023-03-15 13:11:54:330,0,-3.4881,-11.5159,-40.4482,Q,Q
2023-03-15 13:11:54:340,0,-3.48395,-11.5388,-40.4709,Q,Q
2023-03-15 13:11:54:350,0,-3.48158,-11.5559,-40.4965,Q,Q
2023-03-15 13:11:54:360,0,-3.48839,-11.5665,-40.5223,Q,Q
2023-03-15 13:11:54:370,0,-3.50196,-11.5785,-40.5469,Q,Q
2023-03-15 13:11:54:380,0,-3.52097,-11.5855,-40.5714,Q,Q
2023-03-15 13:11:54:390,0,-3.55126,-11.5904,-40.5976,Q,Q
2023-03-15 13:11:54:400,0,-3.58197,-11.597,-40.6212,Q,Q
2023-03-15 13:11:54:410,0,-3.61679,-11.6125,-40.6437,Q,Q
2023-03-15 13:11:54:420,0,-3.65365,-11.6334,-40.6686,Q,Q
2023-03-15 13:11:54:430,0,-3.68641,-11.6559,-40.6912,Q,Q
2023-03-15 13:11:54:440,0,-3.71385,-11.6778,-40.7155,Q,Q
2023-03-15 13:11:54:450,0,-3.73542,-11.7003,-40.74,Q,Q
2023-03-15 13:11:54:460,0,-3.75592,-11.7171,-40.7641,Q,Q
2023-03-15 13:11:54:470,0,-3.77398,-11.7271,-40.7861,Q,Q
2023-03-15 13:11:54:480,0,-3.79699,-11.7331,-40.8058,Q,Q
2023-03-15 13:11:54:490,0,-3.82017,-11.736,-40.8191,Q,Q
2023-03-15 13:11:54:500,0,-3.84171,-11.7395,-40.8302,Q,Q
2023-03-15 13:11:54:510,0,-3.86298,-11.7389,-40.8366,Q,Q
2023-03-15 13:11:54:520,0,-3.88234,-11.7348,-40.8361,Q,Q
2023-03-15 13:11:54:530,0,-3.90193,-11.731,-40.8316,Q,Q
2023-03-15 13:11:54:540,0,-3.92234,-11.7236,-40.8204,Q,Q
2023-03-15 13:11:54:550,0,-3.94467,-11.7156,-40.8072,Q,Q
2023-03-15 13:11:54:560,0,-3.95995,-11.7104,-40.7871,Q,Q
2023-03-15 13:11:54:570,0,-3.96759,-11.709,-40.7647,Q,Q
2023-03-15 13:11:54:580,0,-3.96772,-11.7125,-40.7407,Q,Q
2023-03-15 13:11:54:590,0,-3.96062,-11.72,-40.717,Q,Q
2023-03-15 13:11:54:600,0,-3.95661,-11.7274,-40.6935,Q,Q
2023-03-15 13:11:54:610,0,-3.95711,-11.7361,-40.669,Q,Q
2023-03-15 13:11:54:620,0,-3.96036,-11.7529,-40.6453,Q,Q
2023-03-15 13:11:54:630,0,-3.96466,-11.7704,-40.6288,Q,Q
2023-03-15 13:11:54:640,0,-3.96314,-11.7827,-40.6157,Q,Q
2023-03-15 13:11:54:650,0,-3.95612,-11.7931,-40.6078,Q,Q
2023-03-15 13:11:54:660,0,-3.95253,-11.8006,-40.6003,Q,Q
2023-03-15 13:11:54:670,0,-3.94455,-11.8067,-40.6001,Q,Q
2023-03-15 13:11:54:680,0,-3.93835,-11.8141,-40.5975,Q,Q
2023-03-15 13:11:54:690,0,-3.93375,-11.821,-40.5946,Q,Q
2023-03-15 13:11:54:700,0,-3.93041,-11.8275,-40.5937,Q,Q
2023-03-15 13:11:54:710,0,-3.92555,-11.8319,-40.5947,Q,Q
2023-03-15 13:11:54:720,0,-3.92625,-11.8352,-40.5959,Q,Q
2023-03-15 13:11:54:730,0,-3.93049,-11.8416,-40.6024,Q,Q
2023-03-15 13:11:54:740,0,-3.93573,-11.8512,-40.6183,Q,Q
2023-03-15 13:11:54:750,0,-3.94329,-11.8637,-40.6427,Q,Q
2023-03-15 13:11:54:760,0,-3.95263,-11.873,-40.6704,Q,Q
2023-03-15 13:11:54:770,0,-3.95584,-11.8901,-40.7024,Q,Q
2023-03-15 13:11:54:780,0,-3.96547,-11.9044,-40.7393,Q,Q
2023-03-15 13:11:54:790,0,-3.97484,-11.9167,-40.7827,Q,Q
2023-03-15 13:11:54:800,0,-3.98652,-11.9313,-40.8338,Q,Q
2023-03-15 13:11:54:810,0,-3.99674,-11.9434,-40.8844,Q,Q
2023-03-15 13:11:54:820,0,-4.00912,-11.9517,-40.9353,Q,Q
2023-03-15 13:11:54:830,0,-4.01979,-11.967,-40.984,Q,Q
2023-03-15 13:11:54:840,0,-4.02351,-11.9796,-41.0341,Q,Q
2023-03-15 13:11:54:850,0,-4.02658,-11.9889,-41.0805,Q,Q
2023-03-15 13:11:54:860,0,-4.02667,-11.9965,-41.1232,Q,Q
2023-03-15 13:11:54:870,0,-4.0249,-12.0042,-41.1641,Q,Q
2023-03-15 13:11:54:880,0,-4.02583,-12.0143,-41.2036,Q,Q
2023-03-15 13:11:54:890,0,-4.03044,-12.021,-41.2378,Q,Q
2023-03-15 13:11:54:900,0,-4.03265,-12.0311,-41.2667,Q,Q
2023-03-15 13:11:54:910,0,-4.04298,-12.0372,-41.2966,Q,Q
2023-03-15 13:11:54:920,0,-4.04839,-12.0477,-41.3212,Q,Q
2023-03-15 13:11:54:930,0,-4.05997,-12.0565,-41.3465,Q,Q
2023-03-15 13:11:54:940,0,-4.07126,-12.0714,-41.3648,Q,Q
2023-03-15 13:11:54:950,0,-4.08651,-12.0883,-41.3829,Q,Q
2023-03-15 13:11:54:960,0,-4.10095,-12.1021,-41.3991,Q,Q
2023-03-15 13:11:54:970,0,-4.11388,-12.1157,-41.416,Q,Q
2023-03-15 13:11:54:980,0,-4.12569,-12.1288,-41.4333,Q,Q
2023-03-15 13:11:54:990,0,-4.13949,-12.1477,-41.4491,Q,Q
2023-03-15 13:11:55:0,0,-4.15369,-12.162,-41.4642,Q,Q
2023-03-15 13:11:55:10,0,-4.169,-12.1811,-41.4829,Q,Q
2023-03-15 13:11:55:20,0,-4.18447,-12.2001,-41.5004,Q,Q
2023-03-15 13:11:55:30,0,-4.19859,-12.2177,-41.5178,Q,Q
2023-03-15 13:11:55:40,0,-4.21202,-12.2319,-41.5361,Q,Q
2023-03-15 13:11:55:50,0,-4.22942,-12.2465,-41.5557,Q,Q
2023-03-15 13:11:55:60,0,-4.2413,-12.2562,-41.5786,Q,Q
2023-03-15 13:11:55:70,0,-4.25041,-12.2649,-41.6025,Q,Q
2023-03-15 13:11:55:80,0,-4.26256,-12.2686,-41.6304,Q,Q
2023-03-15 13:11:55:90,0,-4.27677,-12.2753,-41.6605,Q,Q
2023-03-15 13:11:55:100,0,-4.28678,-12.2786,-41.693,Q,Q
2023-03-15 13:11:55:110,0,-4.29978,-12.2824,-41.7274,Q,Q
2023-03-15 13:11:55:120,0,-4.31042,-12.2852,-41.7642,Q,Q
2023-03-15 13:11:55:130,0,-4.3215,-12.2926,-41.8007,Q,Q
2023-03-15 13:11:55:140,0,-4.33497,-12.3012,-41.8398,Q,Q
2023-03-15 13:11:55:150,0,-4.35118,-12.3135,-41.8759,Q,Q
2023-03-15 13:11:55:160,0,-4.3677,-12.3234,-41.9124,Q,Q
2023-03-15 13:11:55:170,0,-4.3827,-12.3334,-41.9433,Q,Q
2023-03-15 13:11:55:180,0,-4.40067,-12.3373,-41.9739,Q,Q
2023-03-15 13:11:55:190,0,-4.41559,-12.3397,-42.0029,Q,Q
2023-03-15 13:11:55:200,0,-4.43115,-12.3402,-42.0287,Q,Q
2023-03-15 13:11:55:210,0,-4.44894,-12.3421,-42.0512,Q,Q
2023-03-15 13:11:55:220,0,-4.46722,-12.3412,-42.0684,Q,Q
2023-03-15 13:11:55:230,0,-4.48672,-12.3372,-42.0753,Q,Q
2023-03-15 13:11:55:240,0,-4.5057,-12.3333,-42.0773,Q,Q
2023-03-15 13:11:55:250,0,-4.5235,-12.3231,-42.0716,Q,Q
2023-03-15 13:11:55:260,0,-4.54237,-12.3073,-42.0583,Q,Q
2023-03-15 13:11:55:270,0,-4.5646,-12.2845,-42.0343,Q,Q
2023-03-15 13:11:55:280,0,-4.58464,-12.26,-41.9999,Q,Q
2023-03-15 13:11:55:290,0,-4.60229,-12.2318,-41.9553,Q,Q
2023-03-15 13:11:55:300,0,-4.62208,-12.201,-41.9024,Q,Q
2023-03-15 13:11:55:310,0,-4.63925,-12.159,-41.837,Q,Q
2023-03-15 13:11:55:320,0,-4.6573,-12.1107,-41.7577,Q,Q
2023-03-15 13:11:55:330,0,-4.67858,-12.0557,-41.6554,Q,Q
2023-03-15 13:11:55:340,0,-4.69941,-12.0001,-41.5288,Q,Q
2023-03-15 13:11:55:350,0,-4.71849,-11.9396,-41.3666,Q,Q
2023-03-15 13:11:55:360,0,-4.73179,-11.8766,-41.1662,Q,Q
2023-03-15 13:11:55:370,0,-4.73949,-11.8054,-40.9158,Q,Q
2023-03-15 13:11:55:380,0,-4.73745,-11.7165,-40.5992,Q,Q
2023-03-15 13:11:55:390,0,-4.72444,-11.6076,-40.1982,Q,Q
2023-03-15 13:11:55:400,0,-4.70192,-11.4661,-39.6906,Q,Q
2023-03-15 13:11:55:410,0,-4.66673,-11.2908,-39.0641,Q,Q
2023-03-15 13:11:55:420,0,-4.62742,-11.0729,-38.3137,Q,Q
2023-03-15 13:11:55:430,0,-4.59322,-10.8018,-37.437,Q,Q
2023-03-15 13:11:55:440,0,-4.56974,-10.485,-36.4496,Q,Q
2023-03-15 13:11:55:450,0,-4.55601,-10.1095,-35.3624,Q,Q
2023-03-15 13:11:55:460,0,-4.5539,-9.67544,-34.1881,Q,Q
2023-03-15 13:11:55:470,0,-4.54973,-9.19201,-32.9321,Q,Q
2023-03-15 13:11:55:480,0,-4.53499,-8.65638,-31.5976,Q,Q
2023-03-15 13:11:55:490,0,-4.50675,-8.09304,-30.1961,Q,Q
2023-03-15 13:11:55:500,0,-4.4649,-7.51443,-28.742,Q,Q
2023-03-15 13:11:55:510,0,-4.4103,-6.93452,-27.2528,Q,Q
2023-03-15 13:11:55:520,0,-4.33915,-6.35473,-25.7502,Q,Q
2023-03-15 13:11:55:530,0,-4.24594,-5.78398,-24.2513,Q,Q
2023-03-15 13:11:55:540,0,-4.13565,-5.22471,-22.7754,Q,Q
2023-03-15 13:11:55:550,0,-4.00492,-4.68321,-21.3452,Q,Q
2023-03-15 13:11:55:560,0,-3.8513,-4.16545,-19.9731,Q,Q
2023-03-15 13:11:55:570,0,-3.67929,-3.67438,-18.6737,Q,Q
2023-03-15 13:11:55:580,0,-3.48947,-3.21307,-17.4471,Q,Q
2023-03-15 13:11:55:590,0,-3.28713,-2.79035,-16.3039,Q,Q
2023-03-15 13:11:55:600,0,-3.07469,-2.40587,-15.2464,Q,Q
2023-03-15 13:11:55:610,0,-2.86369,-2.06015,-14.2692,Q,Q
2023-03-15 13:11:55:620,0,-2.65543,-1.75596,-13.3801,Q,Q
2023-03-15 13:11:55:630,0,-2.46048,-1.48917,-12.572,Q,Q
2023-03-15 13:11:55:640,0,-2.28384,-1.25476,-11.8444,Q,Q
2023-03-15 13:11:55:650,0,-2.12434,-1.05424,-11.2052,Q,Q
2023-03-15 13:11:55:660,0,-1.98917,-0.890849,-10.6535,Q,Q
2023-03-15 13:11:55:670,0,-1.87249,-0.761106,-10.1882,Q,Q
2023-03-15 13:11:55:680,0,-1.76668,-0.663103,-9.80742,Q,Q
2023-03-15 13:11:55:690,0,-1.67357,-0.593321,-9.49836,Q,Q
2023-03-15 13:11:55:700,0,-1.59973,-0.558233,-9.26951,Q,Q
2023-03-15 13:11:55:710,0,-1.54379,-0.553992,-9.10975,Q,Q
2023-03-15 13:11:55:720,0,-1.5068,-0.57171,-9.01929,Q,Q
2023-03-15 13:11:55:730,0,-1.4916,-0.616249,-8.99632,Q,Q
2023-03-15 13:11:55:740,0,-1.49236,-0.682477,-9.03611,Q,Q
2023-03-15 13:11:55:750,0,-1.50621,-0.765998,-9.12665,Q,Q
2023-03-15 13:11:55:760,0,-1.52591,-0.868908,-9.25794,Q,Q
2023-03-15 13:11:55:770,0,-1.54906,-0.994497,-9.41695,Q,Q
2023-03-15 13:11:55:780,0,-1.58355,-1.13943,-9.59987,Q,Q
2023-03-15 13:11:55:790,0,-1.62041,-1.29208,-9.79083,Q,Q
2023-03-15 13:11:55:800,0,-1.65607,-1.4455,-9.98607,Q,Q
2023-03-15 13:11:55:810,0,-1.70093,-1.60205,-10.1886,Q,Q
2023-03-15 13:11:55:820,0,-1.74602,-1.75175,-10.3909,Q,Q
2023-03-15 13:11:55:830,0,-1.79332,-1.89418,-10.5901,Q,Q
2023-03-15 13:11:55:840,0,-1.84814,-2.02885,-10.7779,Q,Q
2023-03-15 13:11:55:850,0,-1.90292,-2.14475,-10.9561,Q,Q
2023-03-15 13:11:55:860,0,-1.95346,-2.2503,-11.1208,Q,Q
2023-03-15 13:11:55:870,0,-2.00383,-2.34919,-11.2669,Q,Q
2023-03-15 13:11:55:880,0,-2.05162,-2.44231,-11.3905,Q,Q
2023-03-15 13:11:55:890,0,-2.09421,-2.5276,-11.4934,Q,Q
2023-03-15 13:11:55:900,0,-2.14285,-2.60483,-11.5757,Q,Q
2023-03-15 13:11:55:910,0,-2.18405,-2.6733,-11.638,Q,Q
2023-03-15 13:11:55:920,0,-2.22701,-2.7343,-11.6748,Q,Q
2023-03-15 13:11:55:930,0,-2.26729,-2.79169,-11.6936,Q,Q
2023-03-15 13:11:55:940,0,-2.30455,-2.83446,-11.6995,Q,Q
2023-03-15 13:11:55:950,0,-2.33885,-2.8703,-11.6857,Q,Q
2023-03-15 13:11:55:960,0,-2.37163,-2.90249,-11.6526,Q,Q
2023-03-15 13:11:55:970,0,-2.41102,-2.92932,-11.6089,Q,Q
2023-03-15 13:11:55:980,0,-2.45563,-2.94992,-11.5528,Q,Q
2023-03-15 13:11:55:990,0,-2.50388,-2.97347,-11.481,Q,Q
2023-03-15 13:11:56:0,0,-2.54953,-2.99321,-11.4031,Q,Q
2023-03-15 13:11:56:10,0,-2.59151,-3.01095,-11.3149,Q,Q
2023-03-15 13:11:56:20,0,-2.63014,-3.02732,-11.2232,Q,Q
2023-03-15 13:11:56:30,0,-2.66434,-3.04253,-11.1231,Q,Q
2023-03-15 13:11:56:40,0,-2.69572,-3.04817,-11.0169,Q,Q
2023-03-15 13:11:56:50,0,-2.72357,-3.05394,-10.9082,Q,Q
2023-03-15 13:11:56:60,0,-2.7557,-3.05536,-10.7938,Q,Q
2023-03-15 13:11:56:70,0,-2.7851,-3.05196,-10.6777,Q,Q
2023-03-15 13:11:56:80,0,-2.81047,-3.0497,-10.5612,Q,Q
2023-03-15 13:11:56:90,0,-2.83064,-3.04099,-10.4462,Q,Q
2023-03-15 13:11:56:100,0,-2.85265,-3.03353,-10.3319,Q,Q
2023-03-15 13:11:56:110,0,-2.8779,-3.02318,-10.2224,Q,Q
2023-03-15 13:11:56:120,0,-2.90195,-3.01236,-10.1183,Q,Q
2023-03-15 13:11:56:130,0,-2.92718,-3.00238,-10.02,Q,Q
2023-03-15 13:11:56:140,0,-2.94943,-2.98837,-9.92636,Q,Q
2023-03-15 13:11:56:150,0,-2.96895,-2.97603,-9.84028,Q,Q
2023-03-15 13:11:56:160,0,-2.98872,-2.96377,-9.76206,Q,Q
2023-03-15 13:11:56:170,0,-3.00905,-2.9493,-9.691,Q,Q
2023-03-15 13:11:56:180,0,-3.02491,-2.93329,-9.62845,Q,Q
2023-03-15 13:11:56:190,0,-3.04343,-2.91405,-9.56929,Q,Q
2023-03-15 13:11:56:200,0,-3.06438,-2.8981,-9.51911,Q,Q
2023-03-15 13:11:56:210,0,-3.08606,-2.878,-9.4804,Q,Q
2023-03-15 13:11:56:220,0,-3.10918,-2.8555,-9.44535,Q,Q
2023-03-15 13:11:56:230,0,-3.1318,-2.83245,-9.41733,Q,Q
2023-03-15 13:11:56:240,0,-3.15483,-2.80647,-9.39404,Q,Q
2023-03-15 13:11:56:250,0,-3.1769,-2.78122,-9.37276,Q,Q
2023-03-15 13:11:56:260,0,-3.19372,-2.75533,-9.35631,Q,Q
2023-03-15 13:11:56:270,0,-3.21119,-2.72941,-9.33549,Q,Q
2023-03-15 13:11:56:280,0,-3.23051,-2.7047,-9.31388,Q,Q
2023-03-15 13:11:56:290,0,-3.24645,-2.6791,-9.28967,Q,Q
2023-03-15 13:11:56:300,0,-3.26231,-2.6563,-9.26536,Q,Q
2023-03-15 13:11:56:310,0,-3.27833,-2.63236,-9.23941,Q,Q
2023-03-15 13:11:56:320,0,-3.28382,-2.608,-9.2105,Q,Q
2023-03-15 13:11:56:330,0,-3.28001,-2.58278,-9.18124,Q,Q
2023-03-15 13:11:56:340,0,-3.26517,-2.56034,-9.14855,Q,Q
2023-03-15 13:11:56:350,0,-3.24404,-2.53577,-9.11046,Q,Q
2023-03-15 13:11:56:360,0,-3.21749,-2.50712,-9.0721,Q,Q
2023-03-15 13:11:56:370,0,-3.17739,-2.47724,-9.03503,Q,Q
2023-03-15 13:11:56:380,0,-3.13078,-2.44836,-8.99024,Q,Q
2023-03-15 13:11:56:390,0,-3.0855,-2.42355,-8.94021,Q,Q
2023-03-15 13:11:56:400,0,-3.03699,-2.40464,-8.88057,Q,Q
2023-03-15 13:11:56:410,0,-2.99213,-2.39046,-8.81846,Q,Q
2023-03-15 13:11:56:420,0,-2.94781,-2.37931,-8.7539,Q,Q
2023-03-15 13:11:56:430,0,-2.91039,-2.36853,-8.68858,Q,Q
2023-03-15 13:11:56:440,0,-2.86095,-2.35504,-8.62738,Q,Q
2023-03-15 13:11:56:450,0,-2.81164,-2.33943,-8.5612,Q,Q
2023-03-15 13:11:56:460,0,-2.76723,-2.32337,-8.49278,Q,Q
2023-03-15 13:11:56:470,0,-2.7283,-2.3043,-8.42506,Q,Q
2023-03-15 13:11:56:480,0,-2.69486,-2.27717,-8.3559,Q,Q
2023-03-15 13:11:56:490,0,-2.66911,-2.25044,-8.28386,Q,Q
2023-03-15 13:11:56:500,0,-2.65597,-2.21875,-8.21039,Q,Q
2023-03-15 13:11:56:510,0,-2.64805,-2.19232,-8.13976,Q,Q
2023-03-15 13:11:56:520,0,-2.62971,-2.17371,-8.07589,Q,Q
2023-03-15 13:11:56:530,0,-2.59106,-2.14885,-8.01268,Q,Q
2023-03-15 13:11:56:540,0,-2.54873,-2.12028,-7.94663,Q,Q
2023-03-15 13:11:56:550,0,-2.51367,-2.08734,-7.87365,Q,Q
2023-03-15 13:11:56:560,0,-2.49397,-2.06152,-7.80227,Q,Q
2023-03-15 13:11:56:570,0,-2.48455,-2.04194,-7.7334,Q,Q
2023-03-15 13:11:56:580,0,-2.47742,-2.02684,-7.66317,Q,Q
2023-03-15 13:11:56:590,0,-2.46832,-2.01026,-7.59329,Q,Q
2023-03-15 13:11:56:600,0,-2.45778,-1.99083,-7.5266,Q,Q
2023-03-15 13:11:56:610,0,-2.44802,-1.97322,-7.45459,Q,Q
2023-03-15 13:11:56:620,0,-2.43923,-1.95555,-7.37716,Q,Q
2023-03-15 13:11:56:630,0,-2.43103,-1.9419,-7.29753,Q,Q
2023-03-15 13:11:56:640,0,-2.4272,-1.92978,-7.21128,Q,Q
2023-03-15 13:11:56:650,0,-2.42403,-1.91724,-7.12284,Q,Q
2023-03-15 13:11:56:660,0,-2.42265,-1.90782,-7.02761,Q,Q
2023-03-15 13:11:56:670,0,-2.41574,-1.89888,-6.93211,Q,Q
2023-03-15 13:11:56:680,0,-2.40581,-1.89519,-6.83133,Q,Q
2023-03-15 13:11:56:690,0,-2.39866,-1.88965,-6.7301,Q,Q
2023-03-15 13:11:56:700,0,-2.39348,-1.88347,-6.62627,Q,Q
2023-03-15 13:11:56:710,0,-2.39115,-1.87908,-6.53021,Q,Q
2023-03-15 13:11:56:720,0,-2.3842,-1.86818,-6.43815,Q,Q
2023-03-15 13:11:56:730,0,-2.37651,-1.85362,-6.34256,Q,Q
2023-03-15 13:11:56:740,0,-2.36503,-1.83229,-6.25439,Q,Q
2023-03-15 13:11:56:750,0,-2.35271,-1.81178,-6.17151,Q,Q
2023-03-15 13:11:56:760,0,-2.3472,-1.79306,-6.08919,Q,Q
2023-03-15 13:11:56:770,0,-2.34277,-1.77574,-6.00777,Q,Q
2023-03-15 13:11:56:780,0,-2.33966,-1.75648,-5.93026,Q,Q
2023-03-15 13:11:56:790,0,-2.34421,-1.74372,-5.85727,Q,Q
2023-03-15 13:11:56:800,0,-2.3508,-1.73433,-5.78392,Q,Q
2023-03-15 13:11:56:810,0,-2.35923,-1.72509,-5.71813,Q,Q
2023-03-15 13:11:56:820,0,-2.37483,-1.7161,-5.65552,Q,Q
2023-03-15 13:11:56:830,0,-2.39377,-1.70908,-5.59566,Q,Q
2023-03-15 13:11:56:840,0,-2.41734,-1.70398,-5.53891,Q,Q
2023-03-15 13:11:56:850,0,-2.43997,-1.70794,-5.48516,Q,Q
2023-03-15 13:11:56:860,0,-2.46617,-1.71215,-5.43709,Q,Q
2023-03-15 13:11:56:870,0,-2.49591,-1.71252,-5.39137,Q,Q
2023-03-15 13:11:56:880,0,-2.52529,-1.71504,-5.34516,Q,Q
2023-03-15 13:11:56:890,0,-2.56108,-1.72307,-5.30068,Q,Q
2023-03-15 13:11:56:900,0,-2.59963,-1.72694,-5.25829,Q,Q
2023-03-15 13:11:56:910,0,-2.63866,-1.73425,-5.21928,Q,Q
2023-03-15 13:11:56:920,0,-2.67923,-1.73581,-5.18365,Q,Q
2023-03-15 13:11:56:930,0,-2.72012,-1.73552,-5.14561,Q,Q
2023-03-15 13:11:56:940,0,-2.75596,-1.72864,-5.10798,Q,Q
2023-03-15 13:11:56:950,0,-2.79272,-1.72126,-5.06905,Q,Q
2023-03-15 13:11:56:960,0,-2.8287,-1.7133,-5.02985,Q,Q
2023-03-15 13:11:56:970,0,-2.86217,-1.70813,-4.98711,Q,Q
2023-03-15 13:11:56:980,0,-2.8934,-1.70342,-4.94908,Q,Q
2023-03-15 13:11:56:990,0,-2.92299,-1.69644,-4.90953,Q,Q
2023-03-15 13:11:57:0,0,-2.95493,-1.68626,-4.8689,Q,Q
2023-03-15 13:11:57:10,0,-2.97865,-1.67542,-4.82714,Q,Q
2023-03-15 13:11:57:20,0,-3.00425,-1.66457,-4.7856,Q,Q
2023-03-15 13:11:57:30,0,-3.02886,-1.65145,-4.74647,Q,Q
2023-03-15 13:11:57:40,0,-3.05664,-1.63944,-4.70322,Q,Q
2023-03-15 13:11:57:50,0,-3.08029,-1.62877,-4.66818,Q,Q
2023-03-15 13:11:57:60,0,-3.10248,-1.6188,-4.63504,Q,Q
2023-03-15 13:11:57:70,0,-3.1204,-1.61074,-4.60049,Q,Q
2023-03-15 13:11:57:80,0,-3.13664,-1.61056,-4.56379,Q,Q
2023-03-15 13:11:57:90,0,-3.14919,-1.61026,-4.53323,Q,Q
2023-03-15 13:11:57:100,0,-3.16038,-1.61446,-4.5004,Q,Q
2023-03-15 13:11:57:110,0,-3.1651,-1.62145,-4.47531,Q,Q
2023-03-15 13:11:57:120,0,-3.17044,-1.62947,-4.4473,Q,Q
2023-03-15 13:11:57:130,0,-3.17133,-1.6416,-4.42237,Q,Q
2023-03-15 13:11:57:140,0,-3.17258,-1.65795,-4.3943,Q,Q
2023-03-15 13:11:57:150,0,-3.17427,-1.67968,-4.36291,Q,Q
2023-03-15 13:11:57:160,0,-3.17897,-1.70533,-4.33365,Q,Q
2023-03-15 13:11:57:170,0,-3.18657,-1.73296,-4.30485,Q,Q
2023-03-15 13:11:57:180,0,-3.19051,-1.75963,-4.27803,Q,Q
2023-03-15 13:11:57:190,0,-3.19088,-1.79225,-4.25401,Q,Q
2023-03-15 13:11:57:200,0,-3.19441,-1.8282,-4.23019,Q,Q
2023-03-15 13:11:57:210,0,-3.19284,-1.86836,-4.21267,Q,Q
2023-03-15 13:11:57:220,0,-3.17992,-1.9023,-4.19721,Q,Q
2023-03-15 13:11:57:230,0,-3.16629,-1.92565,-4.17737,Q,Q
2023-03-15 13:11:57:240,0,-3.16037,-1.94398,-4.16212,Q,Q
2023-03-15 13:11:57:250,0,-3.15666,-1.9643,-4.14246,Q,Q
2023-03-15 13:11:57:260,0,-3.15959,-1.98553,-4.11855,Q,Q
2023-03-15 13:11:57:270,0,-3.16437,-2.0101,-4.09497,Q,Q
2023-03-15 13:11:57:280,0,-3.1771,-2.03742,-4.07826,Q,Q
2023-03-15 13:11:57:290,0,-3.18486,-2.06336,-4.0583,Q,Q
2023-03-15 13:11:57:300,0,-3.18773,-2.08409,-4.0364,Q,Q
2023-03-15 13:11:57:310,0,-3.18262,-2.1036,-4.01097,Q,Q
2023-03-15 13:11:57:320,0,-3.17323,-2.12204,-3.98479,Q,Q
2023-03-15 13:11:57:330,0,-3.16866,-2.14118,-3.95368,Q,Q
2023-03-15 13:11:57:340,0,-3.16646,-2.16044,-3.92204,Q,Q
2023-03-15 13:11:57:350,0,-3.16843,-2.17553,-3.88923,Q,Q
2023-03-15 13:11:57:360,0,-3.17334,-2.19205,-3.85724,Q,Q
2023-03-15 13:11:57:370,0,-3.18055,-2.20647,-3.82347,Q,Q
2023-03-15 13:11:57:380,0,-3.18938,-2.21928,-3.78743,Q,Q
2023-03-15 13:11:57:390,0,-3.20169,-2.22872,-3.75232,Q,Q
2023-03-15 13:11:57:400,0,-3.20969,-2.24162,-3.71469,Q,Q
2023-03-15 13:11:57:410,0,-3.21934,-2.24888,-3.67817,Q,Q
2023-03-15 13:11:57:420,0,-3.2296,-2.25815,-3.64002,Q,Q
2023-03-15 13:11:57:430,0,-3.23997,-2.26448,-3.60239,Q,Q
2023-03-15 13:11:57:440,0,-3.2483,-2.26887,-3.56277,Q,Q
2023-03-15 13:11:57:450,0,-3.2603,-2.274,-3.52309,Q,Q
2023-03-15 13:11:57:460,0,-3.27112,-2.27944,-3.48818,Q,Q
2023-03-15 13:11:57:470,0,-3.28356,-2.28251,-3.45003,Q,Q
2023-03-15 13:11:57:480,0,-3.30099,-2.28544,-3.41233,Q,Q
2023-03-15 13:11:57:490,0,-3.32251,-2.29115,-3.37649,Q,Q
2023-03-15 13:11:57:500,0,-3.34897,-2.29908,-3.33951,Q,Q
2023-03-15 13:11:57:510,0,-3.36951,-2.30806,-3.30222,Q,Q
2023-03-15 13:11:57:520,0,-3.39288,-2.31834,-3.26592,Q,Q
2023-03-15 13:11:57:530,0,-3.41501,-2.32915,-3.23108,Q,Q
2023-03-15 13:11:57:540,0,-3.43554,-2.33763,-3.19946,Q,Q
2023-03-15 13:11:57:550,0,-3.45076,-2.34781,-3.17138,Q,Q
2023-03-15 13:11:57:560,0,-3.46169,-2.35616,-3.14391,Q,Q
2023-03-15 13:11:57:570,0,-3.47157,-2.36405,-3.1152,Q,Q
2023-03-15 13:11:57:580,0,-3.47689,-2.37557,-3.08216,Q,Q
2023-03-15 13:11:57:590,0,-3.48062,-2.38439,-3.05046,Q,Q
2023-03-15 13:11:57:600,0,-3.48364,-2.38964,-3.02018,Q,Q
2023-03-15 13:11:57:610,0,-3.48529,-2.39421,-2.99241,Q,Q
2023-03-15 13:11:57:620,0,-3.47987,-2.39316,-2.9603,Q,Q
2023-03-15 13:11:57:630,0,-3.47436,-2.39138,-2.92902,Q,Q
2023-03-15 13:11:57:640,0,-3.47387,-2.38953,-2.89522,Q,Q
2023-03-15 13:11:57:650,0,-3.46928,-2.38544,-2.86406,Q,Q
2023-03-15 13:11:57:660,0,-3.468,-2.38098,-2.83187,Q,Q
2023-03-15 13:11:57:670,0,-3.46503,-2.37505,-2.79999,Q,Q
2023-03-15 13:11:57:680,0,-3.46281,-2.37292,-2.7673,Q,Q
2023-03-15 13:11:57:690,0,-3.45609,-2.36865,-2.73228,Q,Q
2023-03-15 13:11:57:700,0,-3.44755,-2.36668,-2.69941,Q,Q
2023-03-15 13:11:57:710,0,-3.43666,-2.36689,-2.66685,Q,Q
2023-03-15 13:11:57:720,0,-3.42533,-2.36595,-2.63872,Q,Q
2023-03-15 13:11:57:730,0,-3.41591,-2.35633,-2.60568,Q,Q
2023-03-15 13:11:57:740,0,-3.40923,-2.3497,-2.57147,Q,Q
2023-03-15 13:11:57:750,0,-3.40681,-2.34235,-2.53663,Q,Q
2023-03-15 13:11:57:760,0,-3.40622,-2.33891,-2.49963,Q,Q
2023-03-15 13:11:57:770,0,-3.41237,-2.3386,-2.46329,Q,Q
2023-03-15 13:11:57:780,0,-3.41907,-2.33854,-2.43173,Q,Q
2023-03-15 13:11:57:790,0,-3.43141,-2.33719,-2.40177,Q,Q
2023-03-15 13:11:57:800,0,-3.44459,-2.34137,-2.37067,Q,Q
2023-03-15 13:11:57:810,0,-3.46276,-2.34255,-2.33562,Q,Q
2023-03-15 13:11:57:820,0,-3.48142,-2.35015,-2.30997,Q,Q
2023-03-15 13:11:57:830,0,-3.50159,-2.35346,-2.2867,Q,Q
2023-03-15 13:11:57:840,0,-3.52295,-2.35383,-2.26494,Q,Q
2023-03-15 13:11:57:850,0,-3.54096,-2.34789,-2.24198,Q,Q
2023-03-15 13:11:57:860,0,-3.55997,-2.34655,-2.21648,Q,Q
2023-03-15 13:11:57:870,0,-3.57919,-2.34775,-2.18973,Q,Q
2023-03-15 13:11:57:880,0,-3.59511,-2.35505,-2.15691,Q,Q
2023-03-15 13:11:57:890,0,-3.61479,-2.3613,-2.12675,Q,Q
2023-03-15 13:11:57:900,0,-3.63141,-2.36538,-2.09606,Q,Q
2023-03-15 13:11:57:910,0,-3.64392,-2.36634,-2.06317,Q,Q
2023-03-15 13:11:57:920,0,-3.6529,-2.37028,-2.02962,Q,Q
2023-03-15 13:11:57:930,0,-3.66142,-2.37309,-1.9977,Q,Q
2023-03-15 13:11:57:940,0,-3.66671,-2.37678,-1.96484,Q,Q
2023-03-15 13:11:57:950,0,-3.67041,-2.37824,-1.936,Q,Q
2023-03-15 13:11:57:960,0,-3.66858,-2.38172,-1.9075,Q,Q
2023-03-15 13:11:57:970,0,-3.66731,-2.3883,-1.87849,Q,Q
2023-03-15 13:11:57:980,0,-3.66275,-2.39297,-1.85026,Q,Q
2023-03-15 13:11:57:990,0,-3.65998,-2.39765,-1.82376,Q,Q
2023-03-15 13:11:58:0,0,-3.6563,-2.40138,-1.79903,Q,Q
2023-03-15 13:11:58:10,0,-3.65372,-2.40539,-1.77066,Q,Q
2023-03-15 13:11:58:20,0,-3.65296,-2.40927,-1.74236,Q,Q
2023-03-15 13:11:58:30,0,-3.65149,-2.41514,-1.71189,Q,Q
2023-03-15 13:11:58:40,0,-3.65494,-2.41837,-1.67527,Q,Q
2023-03-15 13:11:58:50,0,-3.65773,-2.42281,-1.64123,Q,Q
2023-03-15 13:11:58:60,0,-3.6619,-2.4335,-1.60393,Q,Q
2023-03-15 13:11:58:70,0,-3.66912,-2.44062,-1.56773,Q,Q
2023-03-15 13:11:58:80,0,-3.68281,-2.44628,-1.53507,Q,Q
2023-03-15 13:11:58:90,0,-3.69295,-2.44742,-1.50202,Q,Q
2023-03-15 13:11:58:100,0,-3.69768,-2.45348,-1.47393,Q,Q
2023-03-15 13:11:58:110,0,-3.69494,-2.46227,-1.4493,Q,Q
2023-03-15 13:11:58:120,0,-3.68838,-2.46961,-1.42421,Q,Q
2023-03-15 13:11:58:130,0,-3.68501,-2.47051,-1.39821,Q,Q
2023-03-15 13:11:58:140,0,-3.6822,-2.47059,-1.36913,Q,Q
2023-03-15 13:11:58:150,0,-3.67956,-2.47103,-1.3399,Q,Q
2023-03-15 13:11:58:160,0,-3.68213,-2.4723,-1.31104,Q,Q
2023-03-15 13:11:58:170,0,-3.68558,-2.4787,-1.28118,Q,Q
2023-03-15 13:11:58:180,0,-3.69235,-2.48999,-1.25356,Q,Q
2023-03-15 13:11:58:190,0,-3.70619,-2.51202,-1.22426,Q,Q
2023-03-15 13:11:58:200,0,-3.71755,-2.5349,-1.19393,Q,Q
2023-03-15 13:11:58:210,0,-3.73289,-2.55337,-1.16384,Q,Q
2023-03-15 13:11:58:220,0,-3.74983,-2.56891,-1.13342,Q,Q
2023-03-15 13:11:58:230,0,-3.76557,-2.58237,-1.10575,Q,Q
2023-03-15 13:11:58:240,0,-3.77995,-2.59551,-1.07848,Q,Q
2023-03-15 13:11:58:250,0,-3.79275,-2.60325,-1.05359,Q,Q
2023-03-15 13:11:58:260,0,-3.80649,-2.60819,-1.03025,Q,Q
2023-03-15 13:11:58:270,0,-3.8183,-2.61941,-1.00725,Q,Q
2023-03-15 13:11:58:280,0,-3.8294,-2.62694,-0.99001,Q,Q
2023-03-15 13:11:58:290,0,-3.83899,-2.6358,-0.971844,Q,Q
2023-03-15 13:11:58:300,0,-3.84298,-2.63882,-0.957349,Q,Q
2023-03-15 13:11:58:310,0,-3.84671,-2.64099,-0.937634,Q,Q
2023-03-15 13:11:58:320,0,-3.84964,-2.64098,-0.920592,Q,Q
2023-03-15 13:11:58:330,0,-3.85819,-2.63856,-0.903611,Q,Q
2023-03-15 13:11:58:340,0,-3.86778,-2.63371,-0.88373,Q,Q
2023-03-15 13:11:58:350,0,-3.87568,-2.63153,-0.866557,Q,Q
2023-03-15 13:11:58:360,0,-3.88487,-2.62819,-0.847646,Q,Q
2023-03-15 13:11:58:370,0,-3.89314,-2.62807,-0.832222,Q,Q
2023-03-15 13:11:58:380,0,-3.89497,-2.62728,-0.81623,Q,Q
2023-03-15 13:11:58:390,0,-3.89656,-2.62901,-0.798868,Q,Q
2023-03-15 13:11:58:400,0,-3.89605,-2.63045,-0.779951,Q,Q
2023-03-15 13:11:58:410,0,-3.89333,-2.6303,-0.761625,Q,Q
2023-03-15 13:11:58:420,0,-3.89053,-2.63018,-0.746468,Q,Q
2023-03-15 13:11:58:430,0,-3.89054,-2.63295,-0.73602,Q,Q
2023-03-15 13:11:58:440,0,-3.88948,-2.6381,-0.72435,Q,Q
2023-03-15 13:11:58:450,0,-3.88423,-2.64438,-0.706602,Q,Q
2023-03-15 13:11:58:460,0,-3.8785,-2.64658,-0.690731,Q,Q
2023-03-15 13:11:58:470,0,-3.87487,-2.65047,-0.673256,Q,Q
2023-03-15 13:11:58:480,0,-3.87184,-2.65878,-0.653186,Q,Q
2023-03-15 13:11:58:490,0,-3.87001,-2.66843,-0.631491,Q,Q
2023-03-15 13:11:58:500,0,-3.86876,-2.67742,-0.611668,Q,Q
2023-03-15 13:11:58:510,0,-3.87053,-2.68388,-0.588381,Q,Q
2023-03-15 13:11:58:520,0,-3.87399,-2.69053,-0.566064,Q,Q
2023-03-15 13:11:58:530,0,-3.87272,-2.6965,-0.540928,Q,Q
2023-03-15 13:11:58:540,0,-3.8755,-2.69863,-0.515691,Q,Q
2023-03-15 13:11:58:550,0,-3.87973,-2.69966,-0.487195,Q,Q
2023-03-15 13:11:58:560,0,-3.88522,-2.70532,-0.457536,Q,Q
2023-03-15 13:11:58:570,0,-3.89488,-2.71493,-0.431619,Q,Q
2023-03-15 13:11:58:580,0,-3.90307,-2.72518,-0.405428,Q,Q
2023-03-15 13:11:58:590,0,-3.90744,-2.73354,-0.381934,Q,Q
2023-03-15 13:11:58:600,0,-3.91429,-2.7404,-0.359366,Q,Q
2023-03-15 13:11:58:610,0,-3.92079,-2.74544,-0.341195,Q,Q
2023-03-15 13:11:58:620,0,-3.92469,-2.75102,-0.325313,Q,Q
2023-03-15 13:11:58:630,0,-3.9341,-2.75477,-0.309032,Q,Q
2023-03-15 13:11:58:640,0,-3.94011,-2.75519,-0.292725,Q,Q
2023-03-15 13:11:58:650,0,-3.94828,-2.75704,-0.284078,Q,Q
2023-03-15 13:11:58:660,0,-3.95897,-2.75399,-0.273975,Q,Q
2023-03-15 13:11:58:670,0,-3.97095,-2.74973,-0.264613,Q,Q
2023-03-15 13:11:58:680,0,-3.97813,-2.74397,-0.258105,Q,Q
2023-03-15 13:11:58:690,0,-3.98656,-2.73422,-0.25194,Q,Q
2023-03-15 13:11:58:700,0,-3.99469,-2.731,-0.245684,Q,Q
2023-03-15 13:11:58:710,0,-4.00443,-2.72951,-0.237907,Q,Q
2023-03-15 13:11:58:720,0,-4.01638,-2.72988,-0.232169,Q,Q
2023-03-15 13:11:58:730,0,-4.0257,-2.72985,-0.218273,Q,Q
2023-03-15 13:11:58:740,0,-4.03392,-2.72569,-0.208208,Q,Q
2023-03-15 13:11:58:750,0,-4.04043,-2.72218,-0.197673,Q,Q
2023-03-15 13:11:58:760,0,-4.04639,-2.72506,-0.181782,Q,Q
2023-03-15 13:11:58:770,0,-4.05825,-2.73353,-0.162202,Q,Q
2023-03-15 13:11:58:780,0,-4.07195,-2.7416,-0.140381,Q,Q
2023-03-15 13:11:58:790,0,-4.08713,-2.74948,-0.12333,Q,Q
2023-03-15 13:11:58:800,0,-4.10711,-2.75726,-0.104943,Q,Q
2023-03-15 13:11:58:810,0,-4.12373,-2.76361,-0.0840216,Q,Q
2023-03-15 13:11:58:820,0,-4.13828,-2.76993,-0.0642546,Q,Q
2023-03-15 13:11:58:830,0,-4.15266,-2.77656,-0.042668,Q,Q
2023-03-15 13:11:58:840,0,-4.16315,-2.78062,-0.023193,Q,Q
2023-03-15 13:11:58:850,0,-4.17108,-2.7809,-0.0060588,Q,Q
2023-03-15 13:11:58:860,0,-4.17607,-2.78242,0.0113983,Q,Q
2023-03-15 13:11:58:870,0,-4.18174,-2.7864,0.0308935,Q,Q
2023-03-15 13:11:58:880,0,-4.18843,-2.78723,0.0471255,Q,Q
2023-03-15 13:11:58:890,0,-4.19822,-2.7858,0.0653281,Q,Q
2023-03-15 13:11:58:900,0,-4.20573,-2.78676,0.0840328,Q,Q
2023-03-15 13:11:58:910,0,-4.21749,-2.791,0.102269,Q,Q
2023-03-15 13:11:58:920,0,-4.23021,-2.79103,0.113576,Q,Q
2023-03-15 13:11:58:930,0,-4.24429,-2.79233,0.125117,Q,Q
2023-03-15 13:11:58:940,0,-4.25976,-2.79301,0.137074,Q,Q
2023-03-15 13:11:58:950,0,-4.27498,-2.79295,0.143643,Q,Q
2023-03-15 13:11:58:960,0,-4.2885,-2.79253,0.14929,Q,Q
2023-03-15 13:11:58:970,0,-4.2967,-2.78532,0.153533,Q,Q
2023-03-15 13:11:58:980,0,-4.30598,-2.77997,0.160381,Q,Q
2023-03-15 13:11:58:990,0,-4.31627,-2.77782,0.164731,Q,Q
2023-03-15 13:11:59:0,0,-4.32189,-2.77547,0.17221,Q,Q
2023-03-15 13:11:59:10,0,-4.33226,-2.77655,0.181383,Q,Q
2023-03-15 13:11:59:20,0,-4.34236,-2.77613,0.188124,Q,Q
2023-03-15 13:11:59:30,0,-4.35171,-2.77422,0.192851,Q,Q
2023-03-15 13:11:59:40,0,-4.35536,-2.7771,0.197459,Q,Q
2023-03-15 13:11:59:50,0,-4.35788,-2.78124,0.208342,Q,Q
2023-03-15 13:11:59:60,0,-4.35841,-2.7913,0.221543,Q,Q
2023-03-15 13:11:59:70,0,-4.36055,-2.80364,0.238734,Q,Q
2023-03-15 13:11:59:80,0,-4.36774,-2.81666,0.25744,Q,Q
2023-03-15 13:11:59:90,0,-4.37647,-2.83064,0.277889,Q,Q
2023-03-15 13:11:59:100,0,-4.38605,-2.84496,0.296944,Q,Q
2023-03-15 13:11:59:110,0,-4.39727,-2.85834,0.315134,Q,Q
2023-03-15 13:11:59:120,0,-4.40522,-2.86277,0.33444,Q,Q
2023-03-15 13:11:59:130,0,-4.41236,-2.87196,0.350902,Q,Q
2023-03-15 13:11:59:140,0,-4.41806,-2.87941,0.369171,Q,Q
2023-03-15 13:11:59:150,0,-4.42599,-2.88902,0.386232,Q,Q
2023-03-15 13:11:59:160,0,-4.43138,-2.89684,0.403381,Q,Q
2023-03-15 13:11:59:170,0,-4.43599,-2.90385,0.420455,Q,Q
2023-03-15 13:11:59:180,0,-4.44278,-2.90592,0.436361,Q,Q
2023-03-15 13:11:59:190,0,-4.44497,-2.91312,0.450377,Q,Q
2023-03-15 13:11:59:200,0,-4.44778,-2.91574,0.464127,Q,Q
2023-03-15 13:11:59:210,0,-4.45594,-2.91397,0.477219,Q,Q
2023-03-15 13:11:59:220,0,-4.46057,-2.91583,0.488176,Q,Q
2023-03-15 13:11:59:230,0,-4.46865,-2.92154,0.501893,Q,Q
2023-03-15 13:11:59:240,0,-4.47425,-2.92074,0.516055,Q,Q
2023-03-15 13:11:59:250,0,-4.47929,-2.92482,0.528808,Q,Q
2023-03-15 13:11:59:260,0,-4.48088,-2.9298,0.540697,Q,Q
2023-03-15 13:11:59:270,0,-4.48278,-2.93343,0.552006,Q,Q
2023-03-15 13:11:59:280,0,-4.48535,-2.93382,0.561905,Q,Q
2023-03-15 13:11:59:290,0,-4.49139,-2.93267,0.570807,Q,Q
2023-03-15 13:11:59:300,0,-4.49315,-2.93064,0.578445,Q,Q
2023-03-15 13:11:59:310,0,-4.49031,-2.93288,0.587283,Q,Q
2023-03-15 13:11:59:320,0,-4.48717,-2.93393,0.59449,Q,Q
2023-03-15 13:11:59:330,0,-4.48006,-2.93771,0.602888,Q,Q
2023-03-15 13:11:59:340,0,-4.47128,-2.94382,0.613902,Q,Q
2023-03-15 13:11:59:350,0,-4.45879,-2.95044,0.623989,Q,Q
2023-03-15 13:11:59:360,0,-4.44917,-2.95576,0.63681,Q,Q
2023-03-15 13:11:59:370,0,-4.43983,-2.96013,0.649714,Q,Q
2023-03-15 13:11:59:380,0,-4.43118,-2.96569,0.66488,Q,Q
2023-03-15 13:11:59:390,0,-4.42506,-2.96563,0.680479,Q,Q
2023-03-15 13:11:59:400,0,-4.41352,-2.96618,0.693782,Q,Q
2023-03-15 13:11:59:410,0,-4.41014,-2.96218,0.708677,Q,Q
2023-03-15 13:11:59:420,0,-4.40691,-2.96279,0.731629,Q,Q
2023-03-15 13:11:59:430,0,-4.40559,-2.96424,0.753397,Q,Q
2023-03-15 13:11:59:440,0,-4.40803,-2.97056,0.776724,Q,Q
2023-03-15 13:11:59:450,0,-4.40826,-2.97757,0.799793,Q,Q
2023-03-15 13:11:59:460,0,-4.41256,-2.98459,0.821284,Q,Q
2023-03-15 13:11:59:470,0,-4.41573,-2.98908,0.840373,Q,Q
2023-03-15 13:11:59:480,0,-4.41878,-2.99276,0.859501,Q,Q
2023-03-15 13:11:59:490,0,-4.41879,-2.99824,0.879847,Q,Q
2023-03-15 13:11:59:500,0,-4.41706,-3.00274,0.900221,Q,Q
2023-03-15 13:11:59:510,0,-4.42083,-3.00771,0.921232,Q,Q
2023-03-15 13:11:59:520,0,-4.42064,-3.01493,0.942345,Q,Q
2023-03-15 13:11:59:530,0,-4.4194,-3.02353,0.96268,Q,Q
2023-03-15 13:11:59:540,0,-4.4159,-3.02961,0.984689,Q,Q
2023-03-15 13:11:59:550,0,-4.41445,-3.0359,1.00798,Q,Q
2023-03-15 13:11:59:560,0,-4.41056,-3.04418,1.03395,Q,Q
2023-03-15 13:11:59:570,0,-4.40645,-3.04586,1.05162,Q,Q
2023-03-15 13:11:59:580,0,-4.40353,-3.04715,1.06738,Q,Q
2023-03-15 13:11:59:590,0,-4.40166,-3.04573,1.08448,Q,Q
2023-03-15 13:11:59:600,0,-4.39955,-3.04805,1.10249,Q,Q
2023-03-15 13:11:59:610,0,-4.39622,-3.05042,1.11869,Q,Q
2023-03-15 13:11:59:620,0,-4.38918,-3.05305,1.13456,Q,Q
2023-03-15 13:11:59:630,0,-4.38064,-3.05808,1.14932,Q,Q
2023-03-15 13:11:59:640,0,-4.37647,-3.06208,1.16402,Q,Q
2023-03-15 13:11:59:650,0,-4.37048,-3.06873,1.17576,Q,Q
2023-03-15 13:11:59:660,0,-4.36153,-3.07517,1.18725,Q,Q
2023-03-15 13:11:59:670,0,-4.35419,-3.0808,1.20266,Q,Q
2023-03-15 13:11:59:681,0,-4.34725,-3.08759,1.21293,Q,Q
2023-03-15 13:11:59:690,0,-4.33829,-3.09643,1.22173,Q,Q
2023-03-15 13:11:59:700,0,-4.33076,-3.10248,1.23308,Q,Q
2023-03-15 13:11:59:710,0,-4.32148,-3.11049,1.24212,Q,Q
2023-03-15 13:11:59:720,0,-4.31712,-3.11902,1.25245,Q,Q
2023-03-15 13:11:59:730,0,-4.30862,-3.12715,1.25925,Q,Q
2023-03-15 13:11:59:740,0,-4.29838,-3.1298,1.2672,Q,Q
2023-03-15 13:11:59:750,0,-4.28734,-3.1341,1.27918,Q,Q
2023-03-15 13:11:59:760,0,-4.28066,-3.13994,1.29135,Q,Q
2023-03-15 13:11:59:770,0,-4.2762,-3.14317,1.30235,Q,Q
2023-03-15 13:11:59:780,0,-4.27157,-3.14256,1.31633,Q,Q
2023-03-15 13:11:59:790,0,-4.26735,-3.14994,1.32614,Q,Q
2023-03-15 13:11:59:800,0,-4.26204,-3.15899,1.34137,Q,Q
2023-03-15 13:11:59:810,0,-4.25856,-3.16461,1.3529,Q,Q
2023-03-15 13:11:59:820,0,-4.25397,-3.16851,1.36164,Q,Q
2023-03-15 13:11:59:830,0,-4.24312,-3.17027,1.37251,Q,Q
2023-03-15 13:11:59:840,0,-4.23716,-3.17393,1.38169,Q,Q
2023-03-15 13:11:59:850,0,-4.22863,-3.18521,1.39349,Q,Q
2023-03-15 13:11:59:860,0,-4.2225,-3.19884,1.40443,Q,Q
2023-03-15 13:11:59:870,0,-4.2175,-3.21333,1.41446,Q,Q
2023-03-15 13:11:59:880,0,-4.21089,-3.22794,1.42668,Q,Q
2023-03-15 13:11:59:890,0,-4.20292,-3.24416,1.43494,Q,Q
2023-03-15 13:11:59:900,0,-4.19398,-3.25231,1.44594,Q,Q
2023-03-15 13:11:59:910,0,-4.17826,-3.26733,1.45841,Q,Q
2023-03-15 13:11:59:920,0,-4.16499,-3.28731,1.47026,Q,Q
2023-03-15 13:11:59:930,0,-4.15528,-3.31042,1.48436,Q,Q
2023-03-15 13:11:59:940,0,-4.14056,-3.338,1.49626,Q,Q
2023-03-15 13:11:59:950,0,-4.12784,-3.35934,1.51182,Q,Q
2023-03-15 13:11:59:960,0,-4.12049,-3.38391,1.52244,Q,Q
2023-03-15 13:11:59:970,0,-4.11632,-3.40965,1.53524,Q,Q
2023-03-15 13:11:59:980,0,-4.11329,-3.43535,1.54849,Q,Q
2023-03-15 13:11:59:990,0,-4.11798,-3.46125,1.56547,Q,Q
2023-03-15 13:12:00:0,0,-4.13176,-3.50033,1.58287,Q,Q
2023-03-15 13:12:00:10,0,-4.15482,-3.5387,1.59869,Q,Q
2023-03-15 13:12:00:20,0,-4.18188,-3.57065,1.61302,Q,Q
2023-03-15 13:12:00:30,0,-4.21017,-3.60048,1.62482,Q,Q
2023-03-15 13:12:00:40,0,-4.23273,-3.63129,1.63245,Q,Q
2023-03-15 13:12:00:50,0,-4.24769,-3.6632,1.63921,Q,Q
2023-03-15 13:12:00:60,0,-4.25628,-3.70208,1.64113,Q,Q
2023-03-15 13:12:00:70,0,-4.25712,-3.74429,1.64402,Q,Q
2023-03-15 13:12:00:80,0,-4.24948,-3.78506,1.64759,Q,Q
2023-03-15 13:12:00:90,0,-4.22738,-3.82217,1.65164,Q,Q
2023-03-15 13:12:00:100,0,-4.19102,-3.86262,1.64958,Q,Q
2023-03-15 13:12:00:110,0,-4.14927,-3.90831,1.65451,Q,Q
2023-03-15 13:12:00:120,0,-4.11222,-3.95446,1.65898,Q,Q
2023-03-15 13:12:00:130,0,-4.07761,-4.00622,1.66814,Q,Q
2023-03-15 13:12:00:140,0,-4.04833,-4.05374,1.67404,Q,Q
2023-03-15 13:12:00:150,0,-4.01684,-4.1064,1.6794,Q,Q
2023-03-15 13:12:00:160,0,-3.99172,-4.16185,1.67962,Q,Q
2023-03-15 13:12:00:170,0,-3.96646,-4.21659,1.68261,Q,Q
2023-03-15 13:12:00:180,0,-3.94255,-4.27942,1.68686,Q,Q
2023-03-15 13:12:00:190,0,-3.9149,-4.34384,1.68306,Q,Q
2023-03-15 13:12:00:200,0,-3.88664,-4.41266,1.67801,Q,Q
2023-03-15 13:12:00:210,0,-3.85477,-4.48291,1.66993,Q,Q
2023-03-15 13:12:00:220,0,-3.81584,-4.55687,1.65789,Q,Q
2023-03-15 13:12:00:230,0,-3.77735,-4.62797,1.64019,Q,Q
2023-03-15 13:12:00:240,0,-3.74036,-4.69463,1.61664,Q,Q
2023-03-15 13:12:00:250,0,-3.70485,-4.76212,1.57987,Q,Q
2023-03-15 13:12:00:260,0,-3.66939,-4.83157,1.5404,Q,Q
2023-03-15 13:12:00:270,0,-3.64206,-4.90054,1.49571,Q,Q
2023-03-15 13:12:00:280,0,-3.6181,-4.97118,1.44621,Q,Q
2023-03-15 13:12:00:290,0,-3.59727,-5.04185,1.3926,Q,Q
2023-03-15 13:12:00:300,0,-3.57689,-5.11151,1.32946,Q,Q
2023-03-15 13:12:00:310,0,-3.55655,-5.18108,1.25921,Q,Q
2023-03-15 13:12:00:320,0,-3.53285,-5.25008,1.17896,Q,Q
2023-03-15 13:12:00:330,0,-3.50721,-5.32611,1.09035,Q,Q
2023-03-15 13:12:00:340,0,-3.47382,-5.40229,0.991588,Q,Q
2023-03-15 13:12:00:350,0,-3.4334,-5.47702,0.880969,Q,Q
2023-03-15 13:12:00:360,0,-3.38663,-5.55877,0.766759,Q,Q
2023-03-15 13:12:00:370,0,-3.33174,-5.64372,0.647227,Q,Q
2023-03-15 13:12:00:380,0,-3.27121,-5.72261,0.517929,Q,Q
2023-03-15 13:12:00:390,0,-3.20787,-5.80103,0.381072,Q,Q
2023-03-15 13:12:00:400,0,-3.14315,-5.87537,0.235406,Q,Q
2023-03-15 13:12:00:410,0,-3.06736,-5.94439,0.0754148,Q,Q
2023-03-15 13:12:00:420,0,-2.97727,-6.00216,-0.0970901,Q,Q
2023-03-15 13:12:00:430,0,-2.85694,-6.04948,-0.290489,Q,Q
2023-03-15 13:12:00:440,0,-2.70369,-6.09332,-0.498218,Q,Q
2023-03-15 13:12:00:450,0,-2.51534,-6.1208,-0.708939,Q,Q
2023-03-15 13:12:00:460,0,-2.29774,-6.14479,-0.92241,Q,Q
2023-03-15 13:12:00:470,0,-2.05287,-6.16303,-1.13427,Q,Q
2023-03-15 13:12:00:480,0,-1.79539,-6.16997,-1.34378,Q,Q
2023-03-15 13:12:00:490,0,-1.53307,-6.16868,-1.54898,Q,Q
2023-03-15 13:12:00:500,0,-1.27901,-6.15766,-1.74872,Q,Q
2023-03-15 13:12:00:510,0,-1.03835,-6.13942,-1.93901,Q,Q
2023-03-15 13:12:00:520,0,-0.821307,-6.1067,-2.11899,Q,Q
2023-03-15 13:12:00:530,0,-0.627431,-6.06745,-2.28731,Q,Q
2023-03-15 13:12:00:540,0,-0.459602,-6.02173,-2.44486,Q,Q
2023-03-15 13:12:00:550,0,-0.328533,-5.97438,-2.58475,Q,Q
2023-03-15 13:12:00:560,0,-0.225145,-5.92673,-2.70929,Q,Q
2023-03-15 13:12:00:570,0,-0.145327,-5.88708,-2.81821,Q,Q
2023-03-15 13:12:00:580,0,-0.0966257,-5.84745,-2.9092,Q,Q
2023-03-15 13:12:00:590,0,-0.0740346,-5.81744,-2.98697,Q,Q
2023-03-15 13:12:00:600,0,-0.0819263,-5.79836,-3.05274,Q,Q
2023-03-15 13:12:00:610,0,-0.113026,-5.78703,-3.11034,Q,Q
2023-03-15 13:12:00:620,0,-0.162773,-5.7687,-3.15846,Q,Q
2023-03-15 13:12:00:630,0,-0.230072,-5.75215,-3.20602,Q,Q
2023-03-15 13:12:00:640,0,-0.311578,-5.73719,-3.24863,Q,Q
2023-03-15 13:12:00:650,0,-0.40952,-5.71734,-3.28253,Q,Q
2023-03-15 13:12:00:660,0,-0.529936,-5.70324,-3.30629,Q,Q
2023-03-15 13:12:00:670,0,-0.682765,-5.69014,-3.32348,Q,Q
2023-03-15 13:12:00:680,0,-0.858858,-5.68004,-3.34268,Q,Q
2023-03-15 13:12:00:690,0,-1.05076,-5.66577,-3.36067,Q,Q
2023-03-15 13:12:00:700,0,-1.24923,-5.64721,-3.37397,Q,Q
2023-03-15 13:12:00:710,0,-1.44633,-5.63479,-3.38857,Q,Q
2023-03-15 13:12:00:720,0,-1.63608,-5.61319,-3.41263,Q,Q
2023-03-15 13:12:00:730,0,-1.81504,-5.57427,-3.44314,Q,Q
2023-03-15 13:12:00:740,0,-1.97679,-5.51476,-3.48424,Q,Q
2023-03-15 13:12:00:750,0,-2.12642,-5.43311,-3.53679,Q,Q
2023-03-15 13:12:00:760,0,-2.26983,-5.33354,-3.59506,Q,Q
2023-03-15 13:12:00:770,0,-2.40338,-5.22781,-3.65487,Q,Q
2023-03-15 13:12:00:780,0,-2.53869,-5.12029,-3.71948,Q,Q
2023-03-15 13:12:00:790,0,-2.68525,-5.01088,-3.78642,Q,Q
2023-03-15 13:12:00:800,0,-2.82946,-4.89346,-3.86254,Q,Q
2023-03-15 13:12:00:810,0,-2.97763,-4.76364,-3.9516,Q,Q
2023-03-15 13:12:00:820,0,-3.12676,-4.59632,-4.06934,Q,Q
2023-03-15 13:12:00:830,0,-3.28126,-4.3765,-4.20978,Q,Q
2023-03-15 13:12:00:840,0,-3.45051,-4.11031,-4.37362,Q,Q
2023-03-15 13:12:00:850,0,-3.64,-3.81898,-4.55065,Q,Q
2023-03-15 13:12:00:860,0,-3.84385,-3.52169,-4.7428,Q,Q
2023-03-15 13:12:00:870,0,-4.05729,-3.22911,-4.93153,Q,Q
2023-03-15 13:12:00:880,0,-4.28782,-2.96249,-5.10895,Q,Q
2023-03-15 13:12:00:890,0,-4.51949,-2.74191,-5.2744,Q,Q
2023-03-15 13:12:00:900,0,-4.77589,-2.56925,-5.41506,Q,Q
2023-03-15 13:12:00:910,0,-5.07973,-2.43248,-5.55298,Q,Q
2023-03-15 13:12:00:920,0,-5.4409,-2.33641,-5.71,Q,Q
2023-03-15 13:12:00:930,0,-5.83726,-2.25592,-5.89294,Q,Q
2023-03-15 13:12:00:940,0,-6.24856,-2.18756,-6.09878,Q,Q
2023-03-15 13:12:00:950,0,-6.66312,-2.11231,-6.31566,Q,Q
2023-03-15 13:12:00:960,0,-7.07593,-2.03896,-6.54011,Q,Q
2023-03-15 13:12:00:970,0,-7.49932,-1.97814,-6.77441,Q,Q
2023-03-15 13:12:00:980,0,-7.93991,-1.92359,-7.02202,Q,Q
2023-03-15 13:12:00:990,0,-8.39955,-1.85557,-7.29778,Q,Q
2023-03-15 13:12:01:0,0,-8.85564,-1.7506,-7.60259,Q,Q
2023-03-15 13:12:01:10,0,-9.27443,-1.61501,-7.91688,Q,Q
2023-03-15 13:12:01:20,0,-9.6411,-1.49862,-8.23591,Q,Q
2023-03-15 13:12:01:30,0,-9.94367,-1.39564,-8.52287,Q,Q
2023-03-15 13:12:01:40,0,-10.2031,-1.3007,-8.77427,Q,Q
2023-03-15 13:12:01:50,0,-10.4356,-1.2146,-8.99911,Q,Q
2023-03-15 13:12:01:60,0,-10.6683,-1.14014,-9.22096,Q,Q
2023-03-15 13:12:01:70,0,-10.924,-1.08914,-9.43393,Q,Q
2023-03-15 13:12:01:80,0,-11.2286,-1.06085,-9.61876,Q,Q
2023-03-15 13:12:01:90,0,-11.5885,-1.05817,-9.79008,Q,Q
2023-03-15 13:12:01:100,0,-11.9793,-1.08545,-9.96914,Q,Q
2023-03-15 13:12:01:110,0,-12.3888,-1.1305,-10.1624,Q,Q
2023-03-15 13:12:01:120,0,-12.8068,-1.19402,-10.3716,Q,Q
2023-03-15 13:12:01:130,0,-13.2311,-1.28169,-10.5985,Q,Q
2023-03-15 13:12:01:140,0,-13.6658,-1.39092,-10.845,Q,Q
2023-03-15 13:12:01:150,0,-14.0825,-1.52067,-11.1099,Q,Q
2023-03-15 13:12:01:160,0,-14.4568,-1.62184,-11.3931,Q,Q
2023-03-15 13:12:01:170,0,-14.7516,-1.65575,-11.7032,Q,Q
2023-03-15 13:12:01:180,0,-14.9404,-1.65604,-12.0409,Q,Q
2023-03-15 13:12:01:190,0,-15.0337,-1.64683,-12.3899,Q,Q
2023-03-15 13:12:01:200,0,-15.0536,-1.62652,-12.7168,Q,Q
2023-03-15 13:12:01:210,0,-15.0422,-1.60347,-13.0126,Q,Q
2023-03-15 13:12:01:220,0,-15.0397,-1.58595,-13.2894,Q,Q
2023-03-15 13:12:01:230,0,-15.062,-1.56538,-13.5568,Q,Q
2023-03-15 13:12:01:240,0,-15.1067,-1.52681,-13.821,Q,Q
2023-03-15 13:12:01:250,0,-15.1555,-1.47443,-14.0792,Q,Q
2023-03-15 13:12:01:260,0,-15.1948,-1.42194,-14.327,Q,Q
2023-03-15 13:12:01:270,0,-15.1998,-1.3717,-14.5557,Q,Q
2023-03-15 13:12:01:280,0,-15.1377,-1.32119,-14.7666,Q,Q
2023-03-15 13:12:01:290,0,-14.9859,-1.28125,-14.9575,Q,Q
2023-03-15 13:12:01:300,0,-14.7232,-1.23183,-15.118,Q,Q
2023-03-15 13:12:01:310,0,-14.3653,-1.20028,-15.2523,Q,Q
2023-03-15 13:12:01:320,0,-13.9548,-1.21,-15.3515,Q,Q
2023-03-15 13:12:01:330,0,-13.5225,-1.22787,-15.4199,Q,Q
2023-03-15 13:12:01:340,0,-13.0819,-1.23855,-15.4636,Q,Q
2023-03-15 13:12:01:350,0,-12.6447,-1.25689,-15.5184,Q,Q
2023-03-15 13:12:01:360,0,-12.2036,-1.26774,-15.5925,Q,Q
2023-03-15 13:12:01:370,0,-11.7618,-1.25567,-15.6881,Q,Q
2023-03-15 13:12:01:380,0,-11.3145,-1.23982,-15.8034,Q,Q
2023-03-15 13:12:01:390,0,-10.8733,-1.23357,-15.93,Q,Q
2023-03-15 13:12:01:400,0,-10.436,-1.24148,-16.0621,Q,Q
2023-03-15 13:12:01:410,0,-9.99966,-1.26977,-16.2005,Q,Q
2023-03-15 13:12:01:420,0,-9.54379,-1.31714,-16.3547,Q,Q
2023-03-15 13:12:01:430,0,-9.05577,-1.37692,-16.5233,Q,Q
2023-03-15 13:12:01:440,0,-8.53656,-1.45181,-16.6964,Q,Q
2023-03-15 13:12:01:450,0,-8.00193,-1.55726,-16.8671,Q,Q
2023-03-15 13:12:01:460,0,-7.46724,-1.68293,-17.0422,Q,Q
2023-03-15 13:12:01:470,0,-6.93183,-1.8205,-17.2135,Q,Q
2023-03-15 13:12:01:480,0,-6.39986,-1.96751,-17.3725,Q,Q
2023-03-15 13:12:01:490,0,-5.8839,-2.12646,-17.516,Q,Q
2023-03-15 13:12:01:500,0,-5.38538,-2.2956,-17.6539,Q,Q
2023-03-15 13:12:01:510,0,-4.89615,-2.47178,-17.7864,Q,Q
2023-03-15 13:12:01:520,0,-4.42042,-2.64676,-17.9138,Q,Q
2023-03-15 13:12:01:530,0,-3.96079,-2.81197,-18.0279,Q,Q
2023-03-15 13:12:01:540,0,-3.51994,-2.96413,-18.1377,Q,Q
2023-03-15 13:12:01:550,0,-3.0957,-3.10332,-18.244,Q,Q
2023-03-15 13:12:01:560,0,-2.68672,-3.23151,-18.3519,Q,Q
2023-03-15 13:12:01:570,0,-2.28814,-3.34237,-18.4674,Q,Q
2023-03-15 13:12:01:580,0,-1.89449,-3.42828,-18.5905,Q,Q
2023-03-15 13:12:01:590,0,-1.50584,-3.49631,-18.7179,Q,Q
2023-03-15 13:12:01:600,0,-1.12675,-3.54862,-18.8486,Q,Q
2023-03-15 13:12:01:610,0,-0.760969,-3.60153,-18.9703,Q,Q
2023-03-15 13:12:01:620,0,-0.412526,-3.66255,-19.0811,Q,Q
2023-03-15 13:12:01:630,0,-0.0851138,-3.73616,-19.1838,Q,Q
2023-03-15 13:12:01:640,0,0.218469,-3.81831,-19.2823,Q,Q
2023-03-15 13:12:01:650,0,0.502172,-3.91713,-19.3754,Q,Q
2023-03-15 13:12:01:660,0,0.772192,-4.02892,-19.4679,Q,Q
2023-03-15 13:12:01:670,0,1.0369,-4.14942,-19.5636,Q,Q
2023-03-15 13:12:01:680,0,1.30528,-4.27159,-19.6531,Q,Q
2023-03-15 13:12:01:690,0,1.57862,-4.39465,-19.7427,Q,Q
2023-03-15 13:12:01:700,0,1.84878,-4.52014,-19.8337,Q,Q
2023-03-15 13:12:01:710,0,2.11008,-4.64395,-19.9267,Q,Q
2023-03-15 13:12:01:720,0,2.36201,-4.76554,-20.0194,Q,Q
2023-03-15 13:12:01:730,0,2.60666,-4.87661,-20.1084,Q,Q
2023-03-15 13:12:01:740,0,2.83323,-4.99397,-20.1913,Q,Q
2023-03-15 13:12:01:750,0,3.04261,-5.10978,-20.2676,Q,Q
2023-03-15 13:12:01:760,0,3.23466,-5.22302,-20.3306,Q,Q
2023-03-15 13:12:01:770,0,3.4163,-5.34339,-20.3803,Q,Q
2023-03-15 13:12:01:780,0,3.59111,-5.47124,-20.4079,Q,Q
2023-03-15 13:12:01:790,0,3.75811,-5.60354,-20.4138,Q,Q
2023-03-15 13:12:01:800,0,3.91866,-5.74981,-20.4029,Q,Q
2023-03-15 13:12:01:810,0,4.08274,-5.90575,-20.3758,Q,Q
2023-03-15 13:12:01:820,0,4.23883,-6.07077,-20.3297,Q,Q
2023-03-15 13:12:01:830,0,4.39286,-6.24105,-20.2675,Q,Q
2023-03-15 13:12:01:840,0,4.53494,-6.41358,-20.1933,Q,Q
2023-03-15 13:12:01:850,0,4.66783,-6.5859,-20.1057,Q,Q
2023-03-15 13:12:01:860,0,4.78414,-6.76029,-20.0082,Q,Q
2023-03-15 13:12:01:870,0,4.88037,-6.92964,-19.8969,Q,Q
2023-03-15 13:12:01:880,0,4.96038,-7.08518,-19.7775,Q,Q
2023-03-15 13:12:01:890,0,5.02783,-7.2326,-19.6631,Q,Q
2023-03-15 13:12:01:900,0,5.07751,-7.36724,-19.5408,Q,Q
2023-03-15 13:12:01:910,0,5.10845,-7.50331,-19.4243,Q,Q
2023-03-15 13:12:01:920,0,5.11817,-7.64339,-19.3169,Q,Q
2023-03-15 13:12:01:930,0,5.11226,-7.78334,-19.2195,Q,Q
2023-03-15 13:12:01:940,0,5.10535,-7.91771,-19.1346,Q,Q
2023-03-15 13:12:01:950,0,5.11023,-8.03966,-19.0568,Q,Q
2023-03-15 13:12:01:960,0,5.13613,-8.14148,-18.9843,Q,Q
2023-03-15 13:12:01:970,0,5.18384,-8.22706,-18.9159,Q,Q
2023-03-15 13:12:01:980,0,5.24996,-8.31404,-18.843,Q,Q
2023-03-15 13:12:01:990,0,5.32973,-8.40663,-18.7604,Q,Q
2023-03-15 13:12:02:0,0,5.40795,-8.5055,-18.6651,Q,Q
2023-03-15 13:12:02:10,0,5.47924,-8.62234,-18.5593,Q,Q
2023-03-15 13:12:02:20,0,5.54996,-8.74803,-18.4415,Q,Q
2023-03-15 13:12:02:30,0,5.61488,-8.87574,-18.3229,Q,Q
2023-03-15 13:12:02:40,0,5.66931,-9.00293,-18.2085,Q,Q
2023-03-15 13:12:02:50,0,5.71361,-9.12193,-18.1054,Q,Q
2023-03-15 13:12:02:60,0,5.7596,-9.22823,-18.0163,Q,Q
2023-03-15 13:12:02:70,0,5.80875,-9.32367,-17.9363,Q,Q
2023-03-15 13:12:02:80,0,5.87737,-9.40954,-17.8699,Q,Q
2023-03-15 13:12:02:90,0,5.95766,-9.48528,-17.8124,Q,Q
2023-03-15 13:12:02:100,0,6.05212,-9.55478,-17.7672,Q,Q
2023-03-15 13:12:02:110,0,6.15729,-9.61143,-17.7338,Q,Q
2023-03-15 13:12:02:120,0,6.27387,-9.65485,-17.7037,Q,Q
2023-03-15 13:12:02:130,0,6.39781,-9.68782,-17.6864,Q,Q
2023-03-15 13:12:02:140,0,6.52946,-9.71812,-17.6758,Q,Q
2023-03-15 13:12:02:150,0,6.65445,-9.74419,-17.6711,Q,Q
2023-03-15 13:12:02:160,0,6.77132,-9.77196,-17.6733,Q,Q
2023-03-15 13:12:02:170,0,6.87555,-9.79173,-17.6674,Q,Q
2023-03-15 13:12:02:180,0,6.96808,-9.80476,-17.663,Q,Q
2023-03-15 13:12:02:190,0,7.05487,-9.81792,-17.6542,Q,Q
2023-03-15 13:12:02:200,0,7.13601,-9.83743,-17.6426,Q,Q
2023-03-15 13:12:02:210,0,7.21324,-9.86239,-17.6301,Q,Q
2023-03-15 13:12:02:220,0,7.29332,-9.89323,-17.6179,Q,Q
2023-03-15 13:12:02:230,0,7.37195,-9.93605,-17.6028,Q,Q
2023-03-15 13:12:02:240,0,7.4514,-9.9857,-17.583,Q,Q
2023-03-15 13:12:02:250,0,7.5296,-10.0237,-17.5543,Q,Q
2023-03-15 13:12:02:260,0,7.61448,-10.0559,-17.5225,Q,Q
2023-03-15 13:12:02:270,0,7.70119,-10.0947,-17.4732,Q,Q
2023-03-15 13:12:02:280,0,7.78254,-10.1268,-17.4058,Q,Q
2023-03-15 13:12:02:290,0,7.86488,-10.1581,-17.3305,Q,Q
2023-03-15 13:12:02:300,0,7.94117,-10.1847,-17.234,Q,Q
2023-03-15 13:12:02:310,0,8.00346,-10.2198,-17.1155,Q,Q
2023-03-15 13:12:02:320,0,8.04598,-10.2597,-16.9762,Q,Q
2023-03-15 13:12:02:330,0,8.06717,-10.3004,-16.814,Q,Q
2023-03-15 13:12:02:340,0,8.06565,-10.3409,-16.6357,Q,Q
2023-03-15 13:12:02:350,0,8.04722,-10.3802,-16.4415,Q,Q
2023-03-15 13:12:02:360,0,8.01814,-10.4203,-16.2326,Q,Q
2023-03-15 13:12:02:370,0,7.97521,-10.4622,-16.0049,Q,Q
2023-03-15 13:12:02:380,0,7.9235,-10.5095,-15.767,Q,Q
2023-03-15 13:12:02:390,0,7.86919,-10.565,-15.5191,Q,Q
2023-03-15 13:12:02:400,0,7.80186,-10.6287,-15.2602,Q,Q
2023-03-15 13:12:02:410,0,7.7123,-10.7,-15.0004,Q,Q
2023-03-15 13:12:02:420,0,7.60371,-10.7641,-14.7423,Q,Q
2023-03-15 13:12:02:430,0,7.47536,-10.8276,-14.4914,Q,Q
2023-03-15 13:12:02:440,0,7.33379,-10.8794,-14.245,Q,Q
2023-03-15 13:12:02:450,0,7.1711,-10.9212,-14.0009,Q,Q
2023-03-15 13:12:02:460,0,6.9975,-10.9576,-13.7615,Q,Q
2023-03-15 13:12:02:470,0,6.80262,-10.9842,-13.5294,Q,Q
2023-03-15 13:12:02:480,0,6.58895,-10.9881,-13.3024,Q,Q
2023-03-15 13:12:02:490,0,6.35899,-10.9692,-13.0843,Q,Q
2023-03-15 13:12:02:500,0,6.09091,-10.9322,-12.8713,Q,Q
2023-03-15 13:12:02:510,0,5.78562,-10.8736,-12.6685,Q,Q
2023-03-15 13:12:02:520,0,5.46582,-10.7936,-12.4899,Q,Q
2023-03-15 13:12:02:530,0,5.14557,-10.6995,-12.3257,Q,Q
2023-03-15 13:12:02:540,0,4.83689,-10.6061,-12.1702,Q,Q
2023-03-15 13:12:02:550,0,4.55234,-10.522,-12.0219,Q,Q
2023-03-15 13:12:02:560,0,4.29415,-10.4586,-11.8828,Q,Q
2023-03-15 13:12:02:570,0,4.06685,-10.414,-11.7524,Q,Q
2023-03-15 13:12:02:580,0,3.86747,-10.3855,-11.6218,Q,Q
2023-03-15 13:12:02:590,0,3.69688,-10.3729,-11.4982,Q,Q
2023-03-15 13:12:02:600,0,3.5452,-10.3779,-11.376,Q,Q
2023-03-15 13:12:02:610,0,3.40098,-10.388,-11.2588,Q,Q
2023-03-15 13:12:02:620,0,3.2666,-10.4091,-11.1479,Q,Q
2023-03-15 13:12:02:630,0,3.13298,-10.4383,-11.0474,Q,Q
2023-03-15 13:12:02:640,0,3.01536,-10.472,-10.9588,Q,Q
2023-03-15 13:12:02:650,0,2.91221,-10.5052,-10.878,Q,Q
2023-03-15 13:12:02:660,0,2.82358,-10.5323,-10.8001,Q,Q
2023-03-15 13:12:02:670,0,2.74436,-10.5461,-10.7297,Q,Q
2023-03-15 13:12:02:680,0,2.67225,-10.553,-10.6579,Q,Q
2023-03-15 13:12:02:690,0,2.60321,-10.5537,-10.5892,Q,Q
2023-03-15 13:12:02:700,0,2.531,-10.5449,-10.52,Q,Q
2023-03-15 13:12:02:710,0,2.46039,-10.5267,-10.4473,Q,Q
2023-03-15 13:12:02:720,0,2.38753,-10.4979,-10.3741,Q,Q
2023-03-15 13:12:02:730,0,2.30996,-10.4707,-10.296,Q,Q
2023-03-15 13:12:02:740,0,2.22616,-10.4459,-10.2181,Q,Q
2023-03-15 13:12:02:750,0,2.14476,-10.4291,-10.1357,Q,Q
2023-03-15 13:12:02:760,0,2.06235,-10.4228,-10.0433,Q,Q
2023-03-15 13:12:02:770,0,1.97724,-10.427,-9.94481,Q,Q
2023-03-15 13:12:02:780,0,1.89189,-10.449,-9.83822,Q,Q
2023-03-15 13:12:02:790,0,1.80592,-10.482,-9.73273,Q,Q
2023-03-15 13:12:02:800,0,1.72382,-10.5232,-9.63058,Q,Q
2023-03-15 13:12:02:810,0,1.64781,-10.5714,-9.52943,Q,Q
2023-03-15 13:12:02:820,0,1.57827,-10.618,-9.43176,Q,Q
2023-03-15 13:12:02:830,0,1.51747,-10.6649,-9.34231,Q,Q
2023-03-15 13:12:02:840,0,1.46286,-10.7107,-9.26117,Q,Q
2023-03-15 13:12:02:850,0,1.41716,-10.7458,-9.19001,Q,Q
2023-03-15 13:12:02:860,0,1.37715,-10.7711,-9.12414,Q,Q
2023-03-15 13:12:02:870,0,1.34821,-10.7869,-9.06634,Q,Q
2023-03-15 13:12:02:880,0,1.32452,-10.801,-9.0145,Q,Q
2023-03-15 13:12:02:890,0,1.30047,-10.8189,-8.96727,Q,Q
2023-03-15 13:12:02:900,0,1.26828,-10.8373,-8.92803,Q,Q
2023-03-15 13:12:02:910,0,1.22454,-10.8609,-8.898,Q,Q
2023-03-15 13:12:02:920,0,1.17612,-10.8904,-8.88102,Q,Q
2023-03-15 13:12:02:930,0,1.11598,-10.911,-8.8824,Q,Q
2023-03-15 13:12:02:940,0,1.05553,-10.9136,-8.89263,Q,Q
2023-03-15 13:12:02:950,0,0.996331,-10.9017,-8.9191,Q,Q
2023-03-15 13:12:02:960,0,0.938882,-10.8771,-8.955,Q,Q
2023-03-15 13:12:02:970,0,0.877364,-10.8448,-8.99166,Q,Q
2023-03-15 13:12:02:980,0,0.813441,-10.8127,-9.03622,Q,Q
2023-03-15 13:12:02:990,0,0.755715,-10.7716,-9.08413,Q,Q
2023-03-15 13:12:03:0,0,0.700673,-10.7337,-9.12922,Q,Q
2023-03-15 13:12:03:10,0,0.639804,-10.7024,-9.17875,Q,Q
2023-03-15 13:12:03:20,0,0.577235,-10.6758,-9.23284,Q,Q
2023-03-15 13:12:03:30,0,0.516873,-10.6545,-9.28846,Q,Q
2023-03-15 13:12:03:40,0,0.458974,-10.6268,-9.35582,Q,Q
2023-03-15 13:12:03:50,0,0.409819,-10.5907,-9.4356,Q,Q
2023-03-15 13:12:03:60,0,0.364706,-10.5494,-9.52889,Q,Q
2023-03-15 13:12:03:70,0,0.322549,-10.5,-9.63744,Q,Q
2023-03-15 13:12:03:80,0,0.280625,-10.4539,-9.76681,Q,Q
2023-03-15 13:12:03:90,0,0.243471,-10.4147,-9.91855,Q,Q
2023-03-15 13:12:03:100,0,0.203893,-10.3782,-10.0891,Q,Q
2023-03-15 13:12:03:110,0,0.163923,-10.3447,-10.2806,Q,Q
2023-03-15 13:12:03:120,0,0.12782,-10.3118,-10.4946,Q,Q
2023-03-15 13:12:03:130,0,0.102302,-10.2794,-10.7285,Q,Q
2023-03-15 13:12:03:140,0,0.071885,-10.2532,-10.9778,Q,Q
2023-03-15 13:12:03:150,0,0.04497,-10.2264,-11.2383,Q,Q
2023-03-15 13:12:03:160,0,0.0221089,-10.1979,-11.5085,Q,Q
2023-03-15 13:12:03:170,0,0.00456233,-10.1734,-11.7797,Q,Q
2023-03-15 13:12:03:180,0,-0.00742298,-10.15,-12.0573,Q,Q
2023-03-15 13:12:03:190,0,-0.0148675,-10.1248,-12.3321,Q,Q
2023-03-15 13:12:03:200,0,-0.0289597,-10.0948,-12.6044,Q,Q
2023-03-15 13:12:03:210,0,-0.0476985,-10.0681,-12.8791,Q,Q
2023-03-15 13:12:03:220,0,-0.0691812,-10.048,-13.1539,Q,Q
2023-03-15 13:12:03:230,0,-0.099383,-10.0306,-13.4256,Q,Q
2023-03-15 13:12:03:240,0,-0.130043,-10.0166,-13.6898,Q,Q
2023-03-15 13:12:03:250,0,-0.165571,-10.0006,-13.9446,Q,Q
2023-03-15 13:12:03:260,0,-0.209639,-9.9724,-14.192,Q,Q
2023-03-15 13:12:03:270,0,-0.254262,-9.93481,-14.4367,Q,Q
2023-03-15 13:12:03:280,0,-0.301955,-9.89479,-14.6776,Q,Q
2023-03-15 13:12:03:290,0,-0.352741,-9.85402,-14.91,Q,Q
2023-03-15 13:12:03:300,0,-0.413234,-9.81514,-15.1348,Q,Q
2023-03-15 13:12:03:310,0,-0.462962,-9.77819,-15.3583,Q,Q
2023-03-15 13:12:03:320,0,-0.502142,-9.74328,-15.5761,Q,Q
2023-03-15 13:12:03:330,0,-0.541335,-9.70767,-15.7796,Q,Q
2023-03-15 13:12:03:340,0,-0.581015,-9.676,-15.9692,Q,Q
2023-03-15 13:12:03:350,0,-0.624937,-9.65076,-16.1468,Q,Q
2023-03-15 13:12:03:360,0,-0.664621,-9.62428,-16.3123,Q,Q
2023-03-15 13:12:03:370,0,-0.713877,-9.60286,-16.4615,Q,Q
2023-03-15 13:12:03:380,0,-0.76523,-9.57998,-16.5959,Q,Q
2023-03-15 13:12:03:390,0,-0.820018,-9.55655,-16.724,Q,Q
2023-03-15 13:12:03:400,0,-0.877694,-9.5289,-16.8347,Q,Q
2023-03-15 13:12:03:410,0,-0.933454,-9.49723,-16.9436,Q,Q
2023-03-15 13:12:03:420,0,-0.983676,-9.4635,-17.0452,Q,Q
2023-03-15 13:12:03:430,0,-1.02314,-9.42664,-17.1418,Q,Q
2023-03-15 13:12:03:440,0,-1.05538,-9.39327,-17.2323,Q,Q
2023-03-15 13:12:03:450,0,-1.08018,-9.35811,-17.3124,Q,Q
2023-03-15 13:12:03:460,0,-1.08851,-9.32816,-17.385,Q,Q
2023-03-15 13:12:03:470,0,-1.08251,-9.30413,-17.4506,Q,Q
2023-03-15 13:12:03:480,0,-1.06765,-9.28603,-17.513,Q,Q
2023-03-15 13:12:03:490,0,-1.05391,-9.27414,-17.5801,Q,Q
2023-03-15 13:12:03:500,0,-1.04778,-9.27148,-17.6477,Q,Q
2023-03-15 13:12:03:510,0,-1.04034,-9.26824,-17.7205,Q,Q
2023-03-15 13:12:03:520,0,-1.03112,-9.25936,-17.8024,Q,Q
2023-03-15 13:12:03:530,0,-1.01789,-9.23702,-17.8975,Q,Q
2023-03-15 13:12:03:540,0,-1.00144,-9.20539,-18.0044,Q,Q
2023-03-15 13:12:03:550,0,-0.99106,-9.16449,-18.1201,Q,Q
2023-03-15 13:12:03:560,0,-0.984674,-9.10857,-18.2414,Q,Q
2023-03-15 13:12:03:570,0,-0.981497,-9.05098,-18.3695,Q,Q
2023-03-15 13:12:03:580,0,-0.971816,-8.98735,-18.4975,Q,Q
2023-03-15 13:12:03:590,0,-0.966617,-8.91899,-18.6245,Q,Q
2023-03-15 13:12:03:600,0,-0.962479,-8.85048,-18.7511,Q,Q
2023-03-15 13:12:03:610,0,-0.96431,-8.78727,-18.8756,Q,Q
2023-03-15 13:12:03:620,0,-0.975878,-8.73092,-18.9976,Q,Q
