Timestamp_cmd,imu_cmd,roll_delta,pitch_delta,yaw_delta
2023-03-10 23:45:57:962,0,-0.706002,-6.78212,90.7205
2023-03-10 23:45:57:970,0,-0.729056,-6.7896,90.7455
2023-03-10 23:45:57:980,0,-0.748906,-6.79698,90.7638
2023-03-10 23:45:57:990,0,-0.770853,-6.79852,90.7784
2023-03-10 23:45:58:0,0,-0.789458,-6.79763,90.7857
2023-03-10 23:45:58:10,0,-0.805419,-6.79036,90.7832
2023-03-10 23:45:58:20,0,-0.82178,-6.7844,90.7776
2023-03-10 23:45:58:30,0,-0.840377,-6.77915,90.7711
2023-03-10 23:45:58:40,0,-0.859678,-6.77719,90.7656
2023-03-10 23:45:58:50,0,-0.879833,-6.77461,90.7643
2023-03-10 23:45:58:60,0,-0.900757,-6.77367,90.7658
2023-03-10 23:45:58:70,0,-0.921929,-6.77233,90.7684
2023-03-10 23:45:58:80,0,-0.939955,-6.76704,90.7675
2023-03-10 23:45:58:90,0,-0.95345,-6.76186,90.7671
2023-03-10 23:45:58:100,0,-0.959918,-6.75459,90.7626
2023-03-10 23:45:58:110,0,-0.963125,-6.74437,90.7582
2023-03-10 23:45:58:120,0,-0.958134,-6.73434,90.7518
2023-03-10 23:45:58:130,0,-0.949486,-6.72605,90.7477
2023-03-10 23:45:58:140,0,-0.936346,-6.72123,90.7431
2023-03-10 23:45:58:150,0,-0.921404,-6.71212,90.7382
2023-03-10 23:45:58:160,0,-0.905047,-6.70635,90.7407
2023-03-10 23:45:58:170,0,-0.888079,-6.70398,90.7512
2023-03-10 23:45:58:180,0,-0.870828,-6.70056,90.757
2023-03-10 23:45:58:190,0,-0.85179,-6.69913,90.765
2023-03-10 23:45:58:200,0,-0.838464,-6.69558,90.7738
2023-03-10 23:45:58:210,0,-0.8245,-6.68981,90.7789
2023-03-10 23:45:58:220,0,-0.810227,-6.68665,90.784
2023-03-10 23:45:58:230,0,-0.791093,-6.68773,90.786
2023-03-10 23:45:58:240,0,-0.770058,-6.68613,90.7853
2023-03-10 23:45:58:250,0,-0.749927,-6.6875,90.7864
2023-03-10 23:45:58:260,0,-0.731089,-6.69053,90.7822
2023-03-10 23:45:58:270,0,-0.717018,-6.68909,90.7776
2023-03-10 23:45:58:280,0,-0.7107,-6.68132,90.7713
2023-03-10 23:45:58:290,0,-0.711279,-6.67524,90.7635
2023-03-10 23:45:58:300,0,-0.714212,-6.66328,90.7534
2023-03-10 23:45:58:310,0,-0.716081,-6.65124,90.7426
2023-03-10 23:45:58:320,0,-0.716778,-6.63878,90.7349
2023-03-10 23:45:58:330,0,-0.71809,-6.62744,90.7274
2023-03-10 23:45:58:339,0,-0.719243,-6.61273,90.7213
2023-03-10 23:45:58:349,0,-0.714917,-6.59711,90.7174
2023-03-10 23:45:58:359,0,-0.710994,-6.58103,90.7148
2023-03-10 23:45:58:369,0,-0.70802,-6.57033,90.7157
2023-03-10 23:45:58:379,0,-0.707271,-6.56471,90.7188
2023-03-10 23:45:58:390,0,-0.708313,-6.55221,90.7232
2023-03-10 23:45:58:400,0,-0.716423,-6.5409,90.7216
2023-03-10 23:45:58:410,0,-0.719781,-6.53172,90.721
2023-03-10 23:45:58:420,0,-0.722084,-6.52269,90.7194
2023-03-10 23:45:58:430,0,-0.727143,-6.51368,90.7168
2023-03-10 23:45:58:440,0,-0.724178,-6.50682,90.7153
2023-03-10 23:45:58:450,0,-0.723582,-6.50049,90.7207
2023-03-10 23:45:58:460,0,-0.719802,-6.49059,90.7247
2023-03-10 23:45:58:470,0,-0.719529,-6.48134,90.7309
2023-03-10 23:45:58:480,0,-0.71297,-6.47281,90.7342
2023-03-10 23:45:58:490,0,-0.707936,-6.46103,90.74
2023-03-10 23:45:58:499,0,-0.70481,-6.45415,90.7405
2023-03-10 23:45:58:509,0,-0.700635,-6.44574,90.7402
2023-03-10 23:45:58:520,0,-0.697927,-6.43971,90.7423
2023-03-10 23:45:58:529,0,-0.6949,-6.43196,90.7394
2023-03-10 23:45:58:539,0,-0.687312,-6.4264,90.7343
2023-03-10 23:45:58:549,0,-0.678675,-6.4173,90.7303
2023-03-10 23:45:58:559,0,-0.664896,-6.41613,90.7254
2023-03-10 23:45:58:569,0,-0.651564,-6.41632,90.7211
2023-03-10 23:45:58:580,0,-0.640274,-6.41225,90.7112
2023-03-10 23:45:58:589,0,-0.631785,-6.40405,90.7009
2023-03-10 23:45:58:599,0,-0.622541,-6.39456,90.6906
2023-03-10 23:45:58:610,0,-0.613815,-6.39043,90.681
2023-03-10 23:45:58:619,0,-0.607325,-6.38976,90.6827
2023-03-10 23:45:58:629,0,-0.599282,-6.3961,90.6868
2023-03-10 23:45:58:639,0,-0.593797,-6.40236,90.6928
2023-03-10 23:45:58:649,0,-0.587935,-6.40346,90.7001
2023-03-10 23:45:58:659,0,-0.583118,-6.40643,90.7099
2023-03-10 23:45:58:669,0,-0.574848,-6.41087,90.7233
2023-03-10 23:45:58:680,0,-0.561942,-6.41569,90.7397
2023-03-10 23:45:58:689,0,-0.54955,-6.41996,90.7557
2023-03-10 23:45:58:699,0,-0.536693,-6.42747,90.7793
2023-03-10 23:45:58:710,0,-0.529251,-6.43644,90.7993
2023-03-10 23:45:58:719,0,-0.524495,-6.44525,90.8256
2023-03-10 23:45:58:729,0,-0.520839,-6.45434,90.8468
2023-03-10 23:45:58:739,0,-0.519558,-6.46586,90.8703
2023-03-10 23:45:58:749,0,-0.516407,-6.48066,90.895
2023-03-10 23:45:58:759,0,-0.509248,-6.49284,90.9173
2023-03-10 23:45:58:769,0,-0.503204,-6.50321,90.942
2023-03-10 23:45:58:780,0,-0.498163,-6.51267,90.9636
2023-03-10 23:45:58:790,0,-0.491056,-6.52442,90.9852
2023-03-10 23:45:58:799,0,-0.484141,-6.54024,91.0101
2023-03-10 23:45:58:810,0,-0.477835,-6.55761,91.0412
2023-03-10 23:45:58:820,0,-0.470729,-6.57928,91.0712
2023-03-10 23:45:58:830,0,-0.463846,-6.60152,91.0975
2023-03-10 23:45:58:839,0,-0.455825,-6.61542,91.1199
2023-03-10 23:45:58:849,0,-0.445762,-6.62978,91.1397
2023-03-10 23:45:58:860,0,-0.435242,-6.63668,91.1515
2023-03-10 23:45:58:869,0,-0.421677,-6.64798,91.1609
2023-03-10 23:45:58:880,0,-0.414675,-6.65485,91.1721
2023-03-10 23:45:58:890,0,-0.407927,-6.66178,91.1843
2023-03-10 23:45:58:900,0,-0.401295,-6.66661,91.1924
2023-03-10 23:45:58:910,0,-0.401045,-6.67183,91.2056
2023-03-10 23:45:58:920,0,-0.400105,-6.67608,91.2154
2023-03-10 23:45:58:930,0,-0.398746,-6.68111,91.2303
2023-03-10 23:45:58:940,0,-0.394303,-6.69125,91.2471
2023-03-10 23:45:58:950,0,-0.396777,-6.70273,91.2614
2023-03-10 23:45:58:960,0,-0.407434,-6.71475,91.2757
2023-03-10 23:45:58:970,0,-0.423259,-6.7289,91.271
2023-03-10 23:45:58:980,0,-0.444264,-6.74023,91.2523
2023-03-10 23:45:58:990,0,-0.470365,-6.74882,91.2201
2023-03-10 23:45:59:0,0,-0.504354,-6.76072,91.1854
2023-03-10 23:45:59:10,0,-0.534928,-6.77063,91.1566
2023-03-10 23:45:59:20,0,-0.556163,-6.77747,91.1369
2023-03-10 23:45:59:30,0,-0.564117,-6.78405,91.1246
2023-03-10 23:45:59:40,0,-0.557586,-6.78385,91.1233
2023-03-10 23:45:59:50,0,-0.534896,-6.78167,91.1339
2023-03-10 23:45:59:60,0,-0.500729,-6.77993,91.1517
2023-03-10 23:45:59:70,0,-0.458339,-6.783,91.168
2023-03-10 23:45:59:80,0,-0.411422,-6.7909,91.1796
2023-03-10 23:45:59:90,0,-0.364264,-6.80195,91.1906
2023-03-10 23:45:59:100,0,-0.31784,-6.82047,91.2011
2023-03-10 23:45:59:110,0,-0.280243,-6.84206,91.2089
2023-03-10 23:45:59:120,0,-0.253171,-6.8687,91.2223
2023-03-10 23:45:59:130,0,-0.22872,-6.89813,91.2396
2023-03-10 23:45:59:140,0,-0.198264,-6.92476,91.2556
2023-03-10 23:45:59:150,0,-0.161857,-6.94898,91.2715
2023-03-10 23:45:59:160,0,-0.114919,-6.96964,91.2842
2023-03-10 23:45:59:170,0,-0.0548584,-6.992,91.2932
2023-03-10 23:45:59:180,0,0.00579553,-7.01552,91.3006
2023-03-10 23:45:59:190,0,0.0621061,-7.03975,91.3103
2023-03-10 23:45:59:200,0,0.111834,-7.06271,91.3247
2023-03-10 23:45:59:210,0,0.157869,-7.08593,91.335
2023-03-10 23:45:59:220,0,0.189861,-7.10039,91.3371
2023-03-10 23:45:59:230,0,0.221143,-7.10327,91.3294
2023-03-10 23:45:59:240,0,0.247711,-7.09007,91.3099
2023-03-10 23:45:59:250,0,0.27937,-7.07647,91.2767
2023-03-10 23:45:59:259,0,0.319751,-7.05903,91.2344
2023-03-10 23:45:59:270,0,0.372991,-7.04482,91.1922
2023-03-10 23:45:59:280,0,0.439244,-7.04279,91.158
2023-03-10 23:45:59:290,0,0.504834,-7.05262,91.135
2023-03-10 23:45:59:300,0,0.561308,-7.07527,91.1231
2023-03-10 23:45:59:310,0,0.602438,-7.10574,91.1209
2023-03-10 23:45:59:320,0,0.627368,-7.13305,91.1242
2023-03-10 23:45:59:330,0,0.63683,-7.15137,91.131
2023-03-10 23:45:59:340,0,0.64349,-7.15898,91.1382
2023-03-10 23:45:59:350,0,0.658272,-7.1721,91.1518
2023-03-10 23:45:59:360,0,0.672799,-7.19395,91.1806
2023-03-10 23:45:59:370,0,0.683182,-7.21107,91.2129
2023-03-10 23:45:59:380,0,0.684815,-7.23164,91.2452
2023-03-10 23:45:59:390,0,0.6737,-7.24168,91.2839
2023-03-10 23:45:59:400,0,0.649243,-7.24675,91.3272
2023-03-10 23:45:59:410,0,0.617254,-7.24803,91.3736
2023-03-10 23:45:59:420,0,0.570603,-7.24652,91.4189
2023-03-10 23:45:59:430,0,0.518089,-7.24636,91.467
2023-03-10 23:45:59:440,0,0.467479,-7.25106,91.5124
2023-03-10 23:45:59:450,0,0.417984,-7.25825,91.5493
2023-03-10 23:45:59:460,0,0.374681,-7.26309,91.5824
2023-03-10 23:45:59:470,0,0.344716,-7.27276,91.6138
2023-03-10 23:45:59:480,0,0.318575,-7.28123,91.6367
2023-03-10 23:45:59:490,0,0.289832,-7.28807,91.649
2023-03-10 23:45:59:500,0,0.258163,-7.29474,91.6509
2023-03-10 23:45:59:510,0,0.224047,-7.30443,91.6426
2023-03-10 23:45:59:520,0,0.198292,-7.31523,91.6301
2023-03-10 23:45:59:530,0,0.173478,-7.33132,91.6147
2023-03-10 23:45:59:540,0,0.15661,-7.35275,91.5976
2023-03-10 23:45:59:550,0,0.147497,-7.37466,91.5794
2023-03-10 23:45:59:560,0,0.141763,-7.39894,91.5561
2023-03-10 23:45:59:570,0,0.14469,-7.42873,91.5331
2023-03-10 23:45:59:580,0,0.142493,-7.45174,91.5071
2023-03-10 23:45:59:590,0,0.139292,-7.47248,91.4768
2023-03-10 23:45:59:600,0,0.138298,-7.48896,91.4467
2023-03-10 23:45:59:610,0,0.130441,-7.50518,91.4174
2023-03-10 23:45:59:620,0,0.117334,-7.5235,91.3902
2023-03-10 23:45:59:630,0,0.101941,-7.54454,91.3696
2023-03-10 23:45:59:640,0,0.0866454,-7.56788,91.3524
2023-03-10 23:45:59:650,0,0.0794871,-7.59115,91.3372
2023-03-10 23:45:59:660,0,0.0862792,-7.61926,91.3263
2023-03-10 23:45:59:670,0,0.091307,-7.64966,91.3192
2023-03-10 23:45:59:680,0,0.0960609,-7.68051,91.3145
2023-03-10 23:45:59:690,0,0.088892,-7.71454,91.3117
2023-03-10 23:45:59:700,0,0.0759851,-7.74701,91.317
2023-03-10 23:45:59:710,0,0.0557673,-7.77594,91.3272
2023-03-10 23:45:59:720,0,0.0331983,-7.79745,91.3434
2023-03-10 23:45:59:730,0,0.00842389,-7.80798,91.3619
2023-03-10 23:45:59:740,0,-0.0127572,-7.80873,91.3785
2023-03-10 23:45:59:750,0,-0.0336443,-7.80128,91.4022
2023-03-10 23:45:59:760,0,-0.0498256,-7.79079,91.425
2023-03-10 23:45:59:770,0,-0.0646207,-7.78234,91.4555
2023-03-10 23:45:59:780,0,-0.0856134,-7.77194,91.4921
2023-03-10 23:45:59:790,0,-0.108069,-7.75696,91.5296
2023-03-10 23:45:59:800,0,-0.133851,-7.73741,91.5701
2023-03-10 23:45:59:810,0,-0.168357,-7.71407,91.6155
2023-03-10 23:45:59:820,0,-0.205793,-7.68331,91.6566
2023-03-10 23:45:59:830,0,-0.24693,-7.65132,91.6982
2023-03-10 23:45:59:840,0,-0.288864,-7.61735,91.7438
2023-03-10 23:45:59:850,0,-0.325542,-7.58354,91.7851
2023-03-10 23:45:59:860,0,-0.35703,-7.54831,91.824
2023-03-10 23:45:59:870,0,-0.376016,-7.51829,91.8685
2023-03-10 23:45:59:880,0,-0.386406,-7.48811,91.914
2023-03-10 23:45:59:890,0,-0.399062,-7.45205,91.959
2023-03-10 23:45:59:900,0,-0.41361,-7.41317,92.003
2023-03-10 23:45:59:910,0,-0.43048,-7.36837,92.0443
2023-03-10 23:45:59:920,0,-0.446803,-7.32378,92.0828
2023-03-10 23:45:59:930,0,-0.463639,-7.2786,92.1195
2023-03-10 23:45:59:940,0,-0.46967,-7.2368,92.1545
2023-03-10 23:45:59:950,0,-0.467201,-7.19621,92.1895
2023-03-10 23:45:59:960,0,-0.457749,-7.15528,92.2234
2023-03-10 23:45:59:970,0,-0.441689,-7.11544,92.2596
2023-03-10 23:45:59:980,0,-0.420371,-7.07801,92.2897
2023-03-10 23:45:59:990,0,-0.396216,-7.04322,92.3215
2023-03-10 23:46:00:0,0,-0.376277,-7.00895,92.3523
2023-03-10 23:46:00:10,0,-0.35689,-6.97477,92.3888
2023-03-10 23:46:00:19,0,-0.338917,-6.94309,92.4328
2023-03-10 23:46:00:30,0,-0.309962,-6.90826,92.4848
2023-03-10 23:46:00:40,0,-0.270253,-6.87273,92.5487
2023-03-10 23:46:00:50,0,-0.220209,-6.8371,92.6166
2023-03-10 23:46:00:60,0,-0.165249,-6.79434,92.6872
2023-03-10 23:46:00:70,0,-0.112015,-6.75392,92.7589
2023-03-10 23:46:00:80,0,-0.0666858,-6.71436,92.8336
2023-03-10 23:46:00:90,0,-0.033612,-6.67308,92.9061
2023-03-10 23:46:00:100,0,-0.00253538,-6.63584,92.9755
2023-03-10 23:46:00:110,0,0.0248404,-6.60005,93.0424
2023-03-10 23:46:00:120,0,0.0523031,-6.56692,93.1095
2023-03-10 23:46:00:130,0,0.0830211,-6.54273,93.1721
2023-03-10 23:46:00:140,0,0.117309,-6.5262,93.2311
2023-03-10 23:46:00:150,0,0.147427,-6.50977,93.2837
2023-03-10 23:46:00:160,0,0.177443,-6.49849,93.3342
2023-03-10 23:46:00:170,0,0.205497,-6.48617,93.3801
2023-03-10 23:46:00:180,0,0.230408,-6.47084,93.4245
2023-03-10 23:46:00:190,0,0.25796,-6.45251,93.4702
2023-03-10 23:46:00:200,0,0.283868,-6.43732,93.5236
2023-03-10 23:46:00:210,0,0.314338,-6.41691,93.5806
2023-03-10 23:46:00:220,0,0.340218,-6.397,93.6459
2023-03-10 23:46:00:230,0,0.36108,-6.374,93.7212
2023-03-10 23:46:00:240,0,0.376599,-6.35103,93.7958
2023-03-10 23:46:00:250,0,0.388727,-6.32708,93.8724
2023-03-10 23:46:00:260,0,0.396547,-6.30257,93.9437
2023-03-10 23:46:00:270,0,0.404297,-6.28311,94.012
2023-03-10 23:46:00:280,0,0.412848,-6.26635,94.0821
2023-03-10 23:46:00:290,0,0.427682,-6.25469,94.1431
2023-03-10 23:46:00:300,0,0.447875,-6.24484,94.1984
2023-03-10 23:46:00:310,0,0.473061,-6.23643,94.2457
2023-03-10 23:46:00:320,0,0.501098,-6.22585,94.2853
2023-03-10 23:46:00:330,0,0.527058,-6.21277,94.3182
2023-03-10 23:46:00:340,0,0.550575,-6.19568,94.3438
2023-03-10 23:46:00:350,0,0.562997,-6.17447,94.3641
2023-03-10 23:46:00:360,0,0.567442,-6.14853,94.3746
2023-03-10 23:46:00:370,0,0.556361,-6.12416,94.3811
2023-03-10 23:46:00:380,0,0.542612,-6.10148,94.382
2023-03-10 23:46:00:390,0,0.53159,-6.08214,94.375
2023-03-10 23:46:00:400,0,0.522457,-6.06984,94.3726
2023-03-10 23:46:00:410,0,0.519066,-6.07119,94.371
2023-03-10 23:46:00:420,0,0.513629,-6.07807,94.3742
2023-03-10 23:46:00:430,0,0.500672,-6.09195,94.3795
2023-03-10 23:46:00:440,0,0.481686,-6.1098,94.3846
2023-03-10 23:46:00:450,0,0.460343,-6.12745,94.3895
2023-03-10 23:46:00:460,0,0.433678,-6.15086,94.3942
2023-03-10 23:46:00:470,0,0.408393,-6.17491,94.3988
2023-03-10 23:46:00:480,0,0.387232,-6.20033,94.4017
2023-03-10 23:46:00:490,0,0.370728,-6.22651,94.4021
2023-03-10 23:46:00:500,0,0.357628,-6.25088,94.4033
2023-03-10 23:46:00:510,0,0.348689,-6.2746,94.4002
2023-03-10 23:46:00:520,0,0.345055,-6.29769,94.4041
2023-03-10 23:46:00:530,0,0.343298,-6.31929,94.4112
2023-03-10 23:46:00:540,0,0.335142,-6.33818,94.4221
2023-03-10 23:46:00:550,0,0.317668,-6.35618,94.4385
2023-03-10 23:46:00:560,0,0.300349,-6.37164,94.4555
2023-03-10 23:46:00:570,0,0.284098,-6.37972,94.4744
2023-03-10 23:46:00:580,0,0.264563,-6.38698,94.4905
2023-03-10 23:46:00:590,0,0.248145,-6.38931,94.5074
2023-03-10 23:46:00:600,0,0.235281,-6.38882,94.525
2023-03-10 23:46:00:610,0,0.228632,-6.38533,94.5417
2023-03-10 23:46:00:620,0,0.224487,-6.37885,94.56
2023-03-10 23:46:00:630,0,0.220402,-6.37245,94.5796
2023-03-10 23:46:00:640,0,0.214748,-6.36551,94.5947
2023-03-10 23:46:00:650,0,0.211892,-6.35543,94.6102
2023-03-10 23:46:00:660,0,0.205491,-6.35076,94.6235
2023-03-10 23:46:00:670,0,0.194827,-6.3481,94.6315
2023-03-10 23:46:00:680,0,0.179726,-6.34453,94.6375
2023-03-10 23:46:00:690,0,0.151407,-6.34297,94.6371
2023-03-10 23:46:00:700,0,0.121139,-6.34213,94.6293
2023-03-10 23:46:00:710,0,0.0974345,-6.34142,94.6194
2023-03-10 23:46:00:720,0,0.0846723,-6.34056,94.6053
2023-03-10 23:46:00:730,0,0.0756005,-6.3369,94.584
2023-03-10 23:46:00:740,0,0.0705065,-6.33813,94.566
2023-03-10 23:46:00:750,0,0.0589214,-6.33482,94.5519
2023-03-10 23:46:00:760,0,0.0479805,-6.33323,94.5349
2023-03-10 23:46:00:770,0,0.0370748,-6.33149,94.5182
2023-03-10 23:46:00:780,0,0.0236953,-6.32885,94.508
2023-03-10 23:46:00:790,0,0.00883963,-6.32973,94.5024
2023-03-10 23:46:00:800,0,-0.00640461,-6.33298,94.5008
2023-03-10 23:46:00:810,0,-0.0203852,-6.34024,94.5033
2023-03-10 23:46:00:820,0,-0.0265569,-6.34853,94.5026
2023-03-10 23:46:00:830,0,-0.0252495,-6.35834,94.5058
2023-03-10 23:46:00:840,0,-0.02392,-6.3655,94.5071
2023-03-10 23:46:00:850,0,-0.02157,-6.37268,94.5096
2023-03-10 23:46:00:860,0,-0.0292914,-6.38282,94.5088
2023-03-10 23:46:00:870,0,-0.0384726,-6.39192,94.5111
2023-03-10 23:46:00:880,0,-0.0505491,-6.39722,94.5107
2023-03-10 23:46:00:890,0,-0.0650149,-6.40912,94.5072
2023-03-10 23:46:00:900,0,-0.0804653,-6.42596,94.5026
2023-03-10 23:46:00:910,0,-0.0902768,-6.44033,94.4968
2023-03-10 23:46:00:920,0,-0.0990134,-6.45669,94.4903
2023-03-10 23:46:00:930,0,-0.108247,-6.47317,94.4832
2023-03-10 23:46:00:940,0,-0.114114,-6.48995,94.4767
2023-03-10 23:46:00:950,0,-0.116846,-6.50469,94.4645
2023-03-10 23:46:00:960,0,-0.119318,-6.51464,94.4466
2023-03-10 23:46:00:970,0,-0.118662,-6.52002,94.4211
2023-03-10 23:46:00:980,0,-0.119749,-6.52849,94.401
2023-03-10 23:46:00:990,0,-0.115216,-6.53649,94.3798
2023-03-10 23:46:01:0,0,-0.1179,-6.54494,94.3668
2023-03-10 23:46:01:10,0,-0.12109,-6.55501,94.3514
2023-03-10 23:46:01:20,0,-0.126035,-6.55874,94.3358
2023-03-10 23:46:01:30,0,-0.123325,-6.55979,94.3233
2023-03-10 23:46:01:40,0,-0.123657,-6.55771,94.3045
2023-03-10 23:46:01:50,0,-0.127008,-6.5547,94.2885
2023-03-10 23:46:01:60,0,-0.125755,-6.5512,94.2746
2023-03-10 23:46:01:70,0,-0.124196,-6.54609,94.262
2023-03-10 23:46:01:80,0,-0.121846,-6.54022,94.2497
2023-03-10 23:46:01:90,0,-0.123957,-6.53835,94.239
2023-03-10 23:46:01:100,0,-0.124122,-6.54159,94.2296
2023-03-10 23:46:01:110,0,-0.125809,-6.54428,94.2238
2023-03-10 23:46:01:120,0,-0.123371,-6.54611,94.214
2023-03-10 23:46:01:130,0,-0.119451,-6.54935,94.2026
2023-03-10 23:46:01:140,0,-0.123534,-6.55312,94.1949
2023-03-10 23:46:01:150,0,-0.12723,-6.56172,94.1821
2023-03-10 23:46:01:160,0,-0.13294,-6.56633,94.1654
2023-03-10 23:46:01:170,0,-0.141,-6.56855,94.1527
2023-03-10 23:46:01:180,0,-0.151571,-6.56965,94.1381
2023-03-10 23:46:01:190,0,-0.162535,-6.57341,94.1185
2023-03-10 23:46:01:200,0,-0.169867,-6.57445,94.1032
2023-03-10 23:46:01:210,0,-0.168726,-6.57797,94.0849
2023-03-10 23:46:01:220,0,-0.167885,-6.58108,94.069
2023-03-10 23:46:01:230,0,-0.164777,-6.58577,94.0559
2023-03-10 23:46:01:240,0,-0.162674,-6.59117,94.0442
2023-03-10 23:46:01:250,0,-0.163958,-6.59541,94.0348
2023-03-10 23:46:01:260,0,-0.16637,-6.59582,94.0251
2023-03-10 23:46:01:270,0,-0.170069,-6.5951,94.0171
2023-03-10 23:46:01:280,0,-0.174481,-6.59629,94.0088
2023-03-10 23:46:01:290,0,-0.181306,-6.59261,93.9985
2023-03-10 23:46:01:300,0,-0.183321,-6.58993,93.9871
2023-03-10 23:46:01:310,0,-0.187247,-6.58152,93.9727
2023-03-10 23:46:01:320,0,-0.19674,-6.57983,93.9603
2023-03-10 23:46:01:330,0,-0.206059,-6.58054,93.9512
2023-03-10 23:46:01:340,0,-0.213332,-6.58671,93.9459
2023-03-10 23:46:01:350,0,-0.217167,-6.59087,93.936
2023-03-10 23:46:01:360,0,-0.220145,-6.59558,93.9321
2023-03-10 23:46:01:370,0,-0.21802,-6.6017,93.927
2023-03-10 23:46:01:380,0,-0.215142,-6.6071,93.9191
2023-03-10 23:46:01:390,0,-0.212007,-6.61298,93.9169
2023-03-10 23:46:01:400,0,-0.215866,-6.62071,93.9143
2023-03-10 23:46:01:410,0,-0.227224,-6.63093,93.9108
2023-03-10 23:46:01:420,0,-0.240691,-6.64159,93.9108
2023-03-10 23:46:01:430,0,-0.253375,-6.64869,93.9116
2023-03-10 23:46:01:440,0,-0.262167,-6.65782,93.9082
2023-03-10 23:46:01:450,0,-0.264293,-6.66402,93.9028
2023-03-10 23:46:01:460,0,-0.260787,-6.66866,93.8995
2023-03-10 23:46:01:470,0,-0.256759,-6.67086,93.8959
2023-03-10 23:46:01:480,0,-0.256754,-6.67264,93.8938
2023-03-10 23:46:01:490,0,-0.261888,-6.67049,93.8942
2023-03-10 23:46:01:500,0,-0.265906,-6.67383,93.8999
2023-03-10 23:46:01:510,0,-0.268194,-6.67582,93.9083
2023-03-10 23:46:01:520,0,-0.271262,-6.68089,93.9205
2023-03-10 23:46:01:530,0,-0.275323,-6.68707,93.9368
2023-03-10 23:46:01:540,0,-0.279652,-6.69133,93.9496
2023-03-10 23:46:01:550,0,-0.282727,-6.69443,93.9586
2023-03-10 23:46:01:560,0,-0.281873,-6.70013,93.9658
2023-03-10 23:46:01:570,0,-0.286226,-6.70846,93.972
2023-03-10 23:46:01:580,0,-0.293017,-6.71869,93.9785
2023-03-10 23:46:01:590,0,-0.298729,-6.73045,93.9808
2023-03-10 23:46:01:600,0,-0.30401,-6.73811,93.9803
2023-03-10 23:46:01:610,0,-0.306378,-6.74562,93.9723
2023-03-10 23:46:01:620,0,-0.299145,-6.75369,93.9599
2023-03-10 23:46:01:630,0,-0.293535,-6.76122,93.9465
2023-03-10 23:46:01:640,0,-0.284185,-6.77126,93.9334
2023-03-10 23:46:01:650,0,-0.273684,-6.77536,93.9204
2023-03-10 23:46:01:660,0,-0.263496,-6.78232,93.9073
2023-03-10 23:46:01:670,0,-0.262616,-6.78867,93.8918
2023-03-10 23:46:01:680,0,-0.257079,-6.79293,93.8749
2023-03-10 23:46:01:690,0,-0.252343,-6.79322,93.8536
2023-03-10 23:46:01:700,0,-0.245126,-6.78925,93.8385
2023-03-10 23:46:01:710,0,-0.240005,-6.78569,93.8215
2023-03-10 23:46:01:720,0,-0.236237,-6.78231,93.805
2023-03-10 23:46:01:730,0,-0.229355,-6.77593,93.7885
2023-03-10 23:46:01:740,0,-0.226198,-6.76914,93.773
2023-03-10 23:46:01:750,0,-0.224804,-6.76222,93.7578
2023-03-10 23:46:01:760,0,-0.229145,-6.76065,93.7473
2023-03-10 23:46:01:770,0,-0.233613,-6.75659,93.7355
2023-03-10 23:46:01:780,0,-0.237352,-6.7559,93.7266
2023-03-10 23:46:01:790,0,-0.233977,-6.74992,93.7142
2023-03-10 23:46:01:800,0,-0.226023,-6.73889,93.6941
2023-03-10 23:46:01:810,0,-0.216786,-6.73761,93.6737
2023-03-10 23:46:01:820,0,-0.210553,-6.73796,93.6579
2023-03-10 23:46:01:830,0,-0.20762,-6.741,93.6428
2023-03-10 23:46:01:840,0,-0.203808,-6.74582,93.6347
2023-03-10 23:46:01:850,0,-0.199186,-6.75228,93.6293
2023-03-10 23:46:01:860,0,-0.196452,-6.75368,93.6229
2023-03-10 23:46:01:869,0,-0.199926,-6.7542,93.6191
2023-03-10 23:46:01:880,0,-0.201333,-6.75867,93.616
2023-03-10 23:46:01:890,0,-0.200041,-6.76261,93.6163
2023-03-10 23:46:01:900,0,-0.195569,-6.77159,93.6167
2023-03-10 23:46:01:910,0,-0.188988,-6.77841,93.6163
2023-03-10 23:46:01:920,0,-0.179465,-6.78973,93.6173
2023-03-10 23:46:01:930,0,-0.172504,-6.80242,93.62
2023-03-10 23:46:01:940,0,-0.166452,-6.81581,93.6204
2023-03-10 23:46:01:950,0,-0.166171,-6.82807,93.6225
2023-03-10 23:46:01:960,0,-0.161578,-6.84033,93.627
2023-03-10 23:46:01:970,0,-0.15587,-6.84958,93.6254
2023-03-10 23:46:01:980,0,-0.154751,-6.85687,93.6243
2023-03-10 23:46:01:990,0,-0.151888,-6.86519,93.6235
2023-03-10 23:46:02:0,0,-0.150316,-6.87341,93.6278
2023-03-10 23:46:02:10,0,-0.147163,-6.88369,93.6299
2023-03-10 23:46:02:20,0,-0.144735,-6.89206,93.6308
2023-03-10 23:46:02:30,0,-0.143878,-6.89755,93.6314
2023-03-10 23:46:02:40,0,-0.14848,-6.9022,93.6307
2023-03-10 23:46:02:50,0,-0.15345,-6.90734,93.6323
2023-03-10 23:46:02:60,0,-0.160096,-6.90963,93.6293
2023-03-10 23:46:02:70,0,-0.167528,-6.90773,93.6217
2023-03-10 23:46:02:80,0,-0.175588,-6.90642,93.6126
2023-03-10 23:46:02:90,0,-0.179546,-6.90853,93.603
2023-03-10 23:46:02:100,0,-0.183666,-6.90616,93.5942
2023-03-10 23:46:02:110,0,-0.186253,-6.90625,93.5841
2023-03-10 23:46:02:120,0,-0.192056,-6.90301,93.5745
2023-03-10 23:46:02:130,0,-0.198074,-6.90552,93.5663
2023-03-10 23:46:02:140,0,-0.203239,-6.9048,93.5619
2023-03-10 23:46:02:150,0,-0.207151,-6.90706,93.5532
2023-03-10 23:46:02:160,0,-0.209124,-6.90607,93.545
2023-03-10 23:46:02:170,0,-0.208859,-6.90452,93.537
2023-03-10 23:46:02:180,0,-0.206206,-6.90279,93.5281
2023-03-10 23:46:02:190,0,-0.204878,-6.90204,93.5209
2023-03-10 23:46:02:200,0,-0.199398,-6.90365,93.5135
2023-03-10 23:46:02:210,0,-0.187473,-6.90683,93.5066
2023-03-10 23:46:02:220,0,-0.173663,-6.90935,93.5023
2023-03-10 23:46:02:230,0,-0.159875,-6.91225,93.495
2023-03-10 23:46:02:240,0,-0.147118,-6.91604,93.488
2023-03-10 23:46:02:250,0,-0.13511,-6.91764,93.4812
2023-03-10 23:46:02:260,0,-0.127262,-6.91922,93.4758
2023-03-10 23:46:02:270,0,-0.120322,-6.9215,93.4722
2023-03-10 23:46:02:280,0,-0.116008,-6.91955,93.4672
2023-03-10 23:46:02:290,0,-0.11203,-6.92343,93.4647
2023-03-10 23:46:02:300,0,-0.108949,-6.92388,93.4613
2023-03-10 23:46:02:310,0,-0.10122,-6.92702,93.4562
2023-03-10 23:46:02:320,0,-0.0902398,-6.9291,93.4526
2023-03-10 23:46:02:330,0,-0.0841736,-6.93261,93.4464
2023-03-10 23:46:02:340,0,-0.078136,-6.93527,93.4436
2023-03-10 23:46:02:350,0,-0.0747597,-6.93795,93.4419
2023-03-10 23:46:02:360,0,-0.0747677,-6.93785,93.4355
2023-03-10 23:46:02:370,0,-0.0791864,-6.93841,93.4287
2023-03-10 23:46:02:380,0,-0.0863891,-6.93769,93.4214
2023-03-10 23:46:02:390,0,-0.0895319,-6.93516,93.4151
2023-03-10 23:46:02:400,0,-0.0898115,-6.93299,93.4094
2023-03-10 23:46:02:410,0,-0.0843877,-6.93078,93.4022
2023-03-10 23:46:02:420,0,-0.0792134,-6.92771,93.389
2023-03-10 23:46:02:430,0,-0.0713555,-6.92366,93.3771
2023-03-10 23:46:02:440,0,-0.0600047,-6.91786,93.3713
2023-03-10 23:46:02:450,0,-0.0516608,-6.9185,93.3638
2023-03-10 23:46:02:460,0,-0.0452076,-6.92272,93.3609
2023-03-10 23:46:02:470,0,-0.0423388,-6.92695,93.3619
2023-03-10 23:46:02:480,0,-0.0441408,-6.9309,93.3644
2023-03-10 23:46:02:490,0,-0.0488522,-6.93132,93.366
2023-03-10 23:46:02:500,0,-0.0501982,-6.92931,93.3645
2023-03-10 23:46:02:510,0,-0.0484983,-6.92377,93.3663
2023-03-10 23:46:02:520,0,-0.045564,-6.92234,93.3616
2023-03-10 23:46:02:530,0,-0.0427691,-6.92427,93.3631
2023-03-10 23:46:02:540,0,-0.0362166,-6.92633,93.3664
2023-03-10 23:46:02:550,0,-0.0332908,-6.92919,93.3699
2023-03-10 23:46:02:560,0,-0.0315426,-6.93512,93.3729
2023-03-10 23:46:02:570,0,-0.0308948,-6.94057,93.3748
2023-03-10 23:46:02:580,0,-0.0321882,-6.94461,93.3708
2023-03-10 23:46:02:590,0,-0.0351771,-6.9482,93.3742
2023-03-10 23:46:02:600,0,-0.0407284,-6.95245,93.3764
2023-03-10 23:46:02:610,0,-0.047533,-6.95943,93.3776
2023-03-10 23:46:02:620,0,-0.0492301,-6.97047,93.3827
2023-03-10 23:46:02:630,0,-0.0416985,-6.97887,93.3827
2023-03-10 23:46:02:640,0,-0.0359842,-6.98457,93.383
2023-03-10 23:46:02:650,0,-0.0305417,-6.99379,93.3843
2023-03-10 23:46:02:660,0,-0.0293576,-7.00056,93.3837
2023-03-10 23:46:02:670,0,-0.0259902,-7.00959,93.3851
2023-03-10 23:46:02:680,0,-0.0285948,-7.01733,93.385
2023-03-10 23:46:02:690,0,-0.0176375,-7.02103,93.3835
2023-03-10 23:46:02:700,0,0.00208794,-7.02075,93.3781
2023-03-10 23:46:02:710,0,0.0288774,-7.01906,93.3766
2023-03-10 23:46:02:720,0,0.0543619,-7.02196,93.3767
2023-03-10 23:46:02:730,0,0.0773761,-7.02631,93.3802
2023-03-10 23:46:02:740,0,0.098923,-7.0286,93.382
2023-03-10 23:46:02:750,0,0.117552,-7.03084,93.3866
2023-03-10 23:46:02:760,0,0.138988,-7.03629,93.3906
2023-03-10 23:46:02:770,0,0.165083,-7.04183,93.3983
2023-03-10 23:46:02:780,0,0.189339,-7.04954,93.4082
2023-03-10 23:46:02:790,0,0.218502,-7.06062,93.4189
2023-03-10 23:46:02:800,0,0.243191,-7.06988,93.4264
2023-03-10 23:46:02:810,0,0.265303,-7.08193,93.4353
2023-03-10 23:46:02:820,0,0.281887,-7.09344,93.4445
2023-03-10 23:46:02:830,0,0.296271,-7.10202,93.453
2023-03-10 23:46:02:840,0,0.317003,-7.10954,93.4619
2023-03-10 23:46:02:850,0,0.340937,-7.11708,93.4774
2023-03-10 23:46:02:860,0,0.358743,-7.12663,93.4913
2023-03-10 23:46:02:870,0,0.373775,-7.13265,93.5107
2023-03-10 23:46:02:880,0,0.384793,-7.13976,93.527
2023-03-10 23:46:02:890,0,0.398368,-7.14955,93.5508
2023-03-10 23:46:02:900,0,0.409901,-7.15472,93.5736
2023-03-10 23:46:02:910,0,0.425268,-7.16104,93.5978
2023-03-10 23:46:02:920,0,0.444483,-7.16478,93.6256
2023-03-10 23:46:02:930,0,0.466839,-7.1677,93.6587
2023-03-10 23:46:02:940,0,0.488953,-7.16839,93.6905
2023-03-10 23:46:02:950,0,0.512716,-7.16498,93.7169
2023-03-10 23:46:02:960,0,0.536131,-7.16078,93.7385
2023-03-10 23:46:02:970,0,0.554927,-7.1549,93.7591
2023-03-10 23:46:02:980,0,0.57013,-7.1499,93.7781
2023-03-10 23:46:02:990,0,0.593235,-7.14721,93.7962
2023-03-10 23:46:03:0,0,0.617165,-7.14406,93.8102
2023-03-10 23:46:03:10,0,0.636759,-7.14187,93.8156
2023-03-10 23:46:03:20,0,0.654922,-7.14531,93.8207
2023-03-10 23:46:03:30,0,0.66967,-7.14962,93.826
2023-03-10 23:46:03:40,0,0.683768,-7.15255,93.828
2023-03-10 23:46:03:50,0,0.696819,-7.15527,93.8263
2023-03-10 23:46:03:60,0,0.708342,-7.15924,93.823
2023-03-10 23:46:03:70,0,0.716381,-7.1605,93.824
2023-03-10 23:46:03:80,0,0.718989,-7.16693,93.8224
2023-03-10 23:46:03:90,0,0.718295,-7.17111,93.8252
2023-03-10 23:46:03:100,0,0.716714,-7.17516,93.8298
2023-03-10 23:46:03:110,0,0.719465,-7.1779,93.8294
2023-03-10 23:46:03:120,0,0.719935,-7.17939,93.8313
2023-03-10 23:46:03:130,0,0.71998,-7.17841,93.834
2023-03-10 23:46:03:140,0,0.716946,-7.17867,93.8337
2023-03-10 23:46:03:150,0,0.712325,-7.17976,93.8364
2023-03-10 23:46:03:160,0,0.707189,-7.17982,93.8414
2023-03-10 23:46:03:170,0,0.698214,-7.18373,93.8454
2023-03-10 23:46:03:180,0,0.688737,-7.18537,93.8515
2023-03-10 23:46:03:190,0,0.679702,-7.18655,93.8589
2023-03-10 23:46:03:200,0,0.675162,-7.18642,93.8627
2023-03-10 23:46:03:210,0,0.668831,-7.18777,93.8688
2023-03-10 23:46:03:220,0,0.663261,-7.19217,93.878
2023-03-10 23:46:03:230,0,0.653387,-7.19794,93.885
2023-03-10 23:46:03:240,0,0.633311,-7.20283,93.8927
2023-03-10 23:46:03:250,0,0.617523,-7.20607,93.9036
2023-03-10 23:46:03:260,0,0.602943,-7.21209,93.9148
2023-03-10 23:46:03:270,0,0.588056,-7.21805,93.925
2023-03-10 23:46:03:280,0,0.577648,-7.22499,93.9365
2023-03-10 23:46:03:290,0,0.569701,-7.23245,93.95
2023-03-10 23:46:03:300,0,0.566406,-7.23831,93.9639
2023-03-10 23:46:03:310,0,0.564656,-7.24284,93.9721
2023-03-10 23:46:03:320,0,0.564833,-7.24706,93.9795
2023-03-10 23:46:03:330,0,0.561369,-7.25027,93.9838
2023-03-10 23:46:03:340,0,0.556911,-7.24971,93.9867
2023-03-10 23:46:03:350,0,0.554978,-7.24742,93.985
2023-03-10 23:46:03:360,0,0.551249,-7.24781,93.9841
2023-03-10 23:46:03:370,0,0.553462,-7.24439,93.982
2023-03-10 23:46:03:380,0,0.551081,-7.23513,93.9793
2023-03-10 23:46:03:390,0,0.549082,-7.23096,93.9736
2023-03-10 23:46:03:400,0,0.55474,-7.22906,93.9666
2023-03-10 23:46:03:409,0,0.558459,-7.2312,93.9668
2023-03-10 23:46:03:420,0,0.555802,-7.23906,93.9698
2023-03-10 23:46:03:430,0,0.546614,-7.24395,93.9715
2023-03-10 23:46:03:440,0,0.532669,-7.24798,93.972
2023-03-10 23:46:03:450,0,0.516499,-7.25039,93.9639
2023-03-10 23:46:03:460,0,0.499195,-7.25268,93.9574
2023-03-10 23:46:03:470,0,0.482415,-7.25303,93.9544
2023-03-10 23:46:03:480,0,0.470504,-7.25443,93.9501
2023-03-10 23:46:03:490,0,0.463596,-7.26052,93.947
2023-03-10 23:46:03:500,0,0.455483,-7.26534,93.9424
2023-03-10 23:46:03:510,0,0.447646,-7.26239,93.938
2023-03-10 23:46:03:520,0,0.438677,-7.25764,93.9328
2023-03-10 23:46:03:530,0,0.427891,-7.25451,93.9234
2023-03-10 23:46:03:540,0,0.411378,-7.24619,93.912
2023-03-10 23:46:03:550,0,0.394527,-7.24076,93.8991
2023-03-10 23:46:03:560,0,0.377093,-7.23013,93.8847
2023-03-10 23:46:03:570,0,0.356659,-7.22228,93.8698
2023-03-10 23:46:03:580,0,0.34042,-7.21807,93.8547
2023-03-10 23:46:03:590,0,0.327197,-7.21415,93.8349
2023-03-10 23:46:03:600,0,0.311782,-7.20925,93.8126
2023-03-10 23:46:03:610,0,0.294567,-7.20523,93.7899
2023-03-10 23:46:03:620,0,0.275941,-7.1987,93.7612
2023-03-10 23:46:03:630,0,0.259686,-7.19758,93.7358
2023-03-10 23:46:03:640,0,0.244695,-7.1915,93.7094
2023-03-10 23:46:03:650,0,0.236359,-7.18181,93.6788
2023-03-10 23:46:03:660,0,0.233406,-7.17135,93.6477
2023-03-10 23:46:03:670,0,0.232586,-7.1584,93.6208
2023-03-10 23:46:03:680,0,0.230926,-7.15058,93.6044
2023-03-10 23:46:03:690,0,0.232466,-7.14703,93.5871
2023-03-10 23:46:03:700,0,0.232907,-7.14298,93.5713
2023-03-10 23:46:03:710,0,0.234173,-7.13806,93.5593
2023-03-10 23:46:03:720,0,0.234247,-7.13319,93.5481
2023-03-10 23:46:03:730,0,0.236198,-7.13014,93.5374
2023-03-10 23:46:03:740,0,0.242551,-7.1245,93.5301
2023-03-10 23:46:03:750,0,0.253093,-7.12024,93.519
2023-03-10 23:46:03:760,0,0.260061,-7.11628,93.511
2023-03-10 23:46:03:770,0,0.267989,-7.10973,93.5033
2023-03-10 23:46:03:780,0,0.273574,-7.10841,93.4941
2023-03-10 23:46:03:790,0,0.280256,-7.10702,93.4853
2023-03-10 23:46:03:800,0,0.293388,-7.10762,93.4749
2023-03-10 23:46:03:810,0,0.306876,-7.11454,93.4667
2023-03-10 23:46:03:820,0,0.322789,-7.11676,93.4608
2023-03-10 23:46:03:830,0,0.333187,-7.12165,93.4558
2023-03-10 23:46:03:840,0,0.340104,-7.12751,93.4584
2023-03-10 23:46:03:850,0,0.344902,-7.1347,93.4581
2023-03-10 23:46:03:860,0,0.346996,-7.13817,93.4587
2023-03-10 23:46:03:870,0,0.346716,-7.1441,93.4609
2023-03-10 23:46:03:880,0,0.343095,-7.15017,93.4683
2023-03-10 23:46:03:890,0,0.337962,-7.15019,93.4723
2023-03-10 23:46:03:900,0,0.333116,-7.14906,93.4787
2023-03-10 23:46:03:910,0,0.328464,-7.15076,93.4832
2023-03-10 23:46:03:919,0,0.325143,-7.15006,93.4876
2023-03-10 23:46:03:930,0,0.321866,-7.14839,93.4917
2023-03-10 23:46:03:940,0,0.321685,-7.14467,93.4902
2023-03-10 23:46:03:950,0,0.322947,-7.14229,93.492
2023-03-10 23:46:03:960,0,0.324498,-7.13693,93.4894
2023-03-10 23:46:03:970,0,0.325567,-7.13309,93.4856
2023-03-10 23:46:03:980,0,0.32685,-7.1291,93.4812
2023-03-10 23:46:03:990,0,0.328647,-7.12086,93.4702
2023-03-10 23:46:04:0,0,0.32316,-7.11654,93.4564
2023-03-10 23:46:04:10,0,0.318304,-7.11256,93.4381
2023-03-10 23:46:04:20,0,0.314002,-7.10669,93.4171
2023-03-10 23:46:04:30,0,0.314583,-7.10396,93.3967
2023-03-10 23:46:04:40,0,0.314524,-7.10237,93.3778
2023-03-10 23:46:04:50,0,0.317901,-7.10306,93.3632
2023-03-10 23:46:04:60,0,0.321237,-7.10668,93.3525
2023-03-10 23:46:04:70,0,0.324113,-7.11173,93.3438
2023-03-10 23:46:04:80,0,0.324704,-7.11636,93.3352
2023-03-10 23:46:04:90,0,0.327846,-7.12205,93.3286
2023-03-10 23:46:04:100,0,0.326736,-7.12649,93.325
2023-03-10 23:46:04:110,0,0.324958,-7.13344,93.3255
2023-03-10 23:46:04:120,0,0.327242,-7.14134,93.3329
2023-03-10 23:46:04:130,0,0.325759,-7.14985,93.3438
2023-03-10 23:46:04:140,0,0.325951,-7.15942,93.3576
2023-03-10 23:46:04:150,0,0.325218,-7.16566,93.3741
2023-03-10 23:46:04:160,0,0.319324,-7.17146,93.3972
2023-03-10 23:46:04:170,0,0.314905,-7.17272,93.4186
2023-03-10 23:46:04:180,0,0.309029,-7.17147,93.439
2023-03-10 23:46:04:190,0,0.301928,-7.16718,93.453
2023-03-10 23:46:04:200,0,0.291249,-7.16331,93.4675
2023-03-10 23:46:04:210,0,0.28179,-7.15689,93.4763
2023-03-10 23:46:04:220,0,0.274105,-7.1534,93.4824
2023-03-10 23:46:04:230,0,0.269838,-7.14648,93.482
2023-03-10 23:46:04:240,0,0.266852,-7.14456,93.4826
2023-03-10 23:46:04:250,0,0.262767,-7.1433,93.4755
2023-03-10 23:46:04:260,0,0.260985,-7.14316,93.4693
2023-03-10 23:46:04:270,0,0.257786,-7.1404,93.4602
2023-03-10 23:46:04:280,0,0.256615,-7.14118,93.4503
2023-03-10 23:46:04:290,0,0.255912,-7.14415,93.4398
2023-03-10 23:46:04:300,0,0.256388,-7.14871,93.4285
2023-03-10 23:46:04:310,0,0.254285,-7.15073,93.4207
2023-03-10 23:46:04:320,0,0.256801,-7.15522,93.4157
2023-03-10 23:46:04:330,0,0.262513,-7.15772,93.4101
2023-03-10 23:46:04:340,0,0.2702,-7.16073,93.4087
2023-03-10 23:46:04:350,0,0.274083,-7.16178,93.4065
2023-03-10 23:46:04:360,0,0.27781,-7.16364,93.406
2023-03-10 23:46:04:370,0,0.28215,-7.16535,93.4085
2023-03-10 23:46:04:380,0,0.28384,-7.17143,93.416
2023-03-10 23:46:04:390,0,0.277454,-7.17524,93.4307
2023-03-10 23:46:04:400,0,0.272273,-7.18188,93.4464
2023-03-10 23:46:04:410,0,0.271163,-7.18438,93.4612
2023-03-10 23:46:04:420,0,0.270879,-7.19036,93.4728
2023-03-10 23:46:04:429,0,0.27365,-7.19331,93.4828
2023-03-10 23:46:04:440,0,0.281126,-7.19705,93.4894
2023-03-10 23:46:04:450,0,0.288107,-7.20481,93.4954
2023-03-10 23:46:04:460,0,0.29995,-7.21287,93.4961
2023-03-10 23:46:04:470,0,0.306726,-7.22467,93.4959
2023-03-10 23:46:04:480,0,0.313409,-7.23244,93.4936
2023-03-10 23:46:04:490,0,0.316247,-7.23932,93.4889
2023-03-10 23:46:04:500,0,0.314666,-7.24442,93.4864
2023-03-10 23:46:04:510,0,0.311122,-7.24994,93.484
2023-03-10 23:46:04:520,0,0.307327,-7.25248,93.4835
2023-03-10 23:46:04:530,0,0.3071,-7.25625,93.4892
2023-03-10 23:46:04:540,0,0.305623,-7.26245,93.4931
2023-03-10 23:46:04:550,0,0.302249,-7.26239,93.4934
2023-03-10 23:46:04:560,0,0.302107,-7.2659,93.496
2023-03-10 23:46:04:570,0,0.304094,-7.27019,93.4992
2023-03-10 23:46:04:580,0,0.306154,-7.27373,93.5001
2023-03-10 23:46:04:590,0,0.308828,-7.28173,93.5025
2023-03-10 23:46:04:600,0,0.309625,-7.28886,93.5045
2023-03-10 23:46:04:609,0,0.311983,-7.29359,93.5041
2023-03-10 23:46:04:619,0,0.315219,-7.29292,93.4963
2023-03-10 23:46:04:629,0,0.325487,-7.29227,93.4853
2023-03-10 23:46:04:639,0,0.334783,-7.29292,93.4718
2023-03-10 23:46:04:649,0,0.345165,-7.29938,93.4586
2023-03-10 23:46:04:659,0,0.35298,-7.30838,93.4466
2023-03-10 23:46:04:669,0,0.361146,-7.32253,93.4371
2023-03-10 23:46:04:679,0,0.366748,-7.33489,93.4302
2023-03-10 23:46:04:689,0,0.375433,-7.34401,93.4237
2023-03-10 23:46:04:699,0,0.383587,-7.34917,93.4193
2023-03-10 23:46:04:709,0,0.39107,-7.35251,93.4151
2023-03-10 23:46:04:719,0,0.397009,-7.36063,93.4089
2023-03-10 23:46:04:729,0,0.40445,-7.37157,93.408
2023-03-10 23:46:04:739,0,0.413295,-7.37812,93.4015
2023-03-10 23:46:04:749,0,0.424714,-7.38346,93.3969
2023-03-10 23:46:04:759,0,0.436166,-7.39021,93.386
2023-03-10 23:46:04:769,0,0.447833,-7.39918,93.3741
2023-03-10 23:46:04:779,0,0.455472,-7.40692,93.3627
2023-03-10 23:46:04:789,0,0.464685,-7.41524,93.3459
2023-03-10 23:46:04:799,0,0.469881,-7.4231,93.3292
2023-03-10 23:46:04:809,0,0.470768,-7.43166,93.3202
2023-03-10 23:46:04:819,0,0.470978,-7.43703,93.3092
2023-03-10 23:46:04:829,0,0.468278,-7.44498,93.2994
2023-03-10 23:46:04:839,0,0.463036,-7.45177,93.2971
2023-03-10 23:46:04:849,0,0.459253,-7.45737,93.299
2023-03-10 23:46:04:859,0,0.459683,-7.46116,93.2985
2023-03-10 23:46:04:869,0,0.4562,-7.46378,93.3056
2023-03-10 23:46:04:879,0,0.455336,-7.46394,93.3152
2023-03-10 23:46:04:889,0,0.455178,-7.46435,93.3236
2023-03-10 23:46:04:899,0,0.455293,-7.46336,93.3288
2023-03-10 23:46:04:909,0,0.452817,-7.46013,93.333
2023-03-10 23:46:04:919,0,0.451243,-7.4589,93.3353
2023-03-10 23:46:04:929,0,0.447302,-7.45981,93.3349
2023-03-10 23:46:04:939,0,0.44637,-7.46189,93.3298
2023-03-10 23:46:04:949,0,0.44142,-7.46246,93.3263
2023-03-10 23:46:04:959,0,0.434554,-7.46559,93.3186
2023-03-10 23:46:04:969,0,0.425728,-7.46925,93.3146
2023-03-10 23:46:04:979,0,0.420788,-7.4727,93.3104
2023-03-10 23:46:04:989,0,0.416273,-7.47539,93.3091
2023-03-10 23:46:04:999,0,0.415442,-7.47827,93.3068
2023-03-10 23:46:05:9,0,0.411829,-7.4787,93.306
2023-03-10 23:46:05:19,0,0.411345,-7.48269,93.31
2023-03-10 23:46:05:29,0,0.411194,-7.48644,93.3127
2023-03-10 23:46:05:39,0,0.414325,-7.48881,93.3181
2023-03-10 23:46:05:49,0,0.411107,-7.48922,93.3237
2023-03-10 23:46:05:59,0,0.410912,-7.49379,93.3269
2023-03-10 23:46:05:69,0,0.405949,-7.49787,93.3317
2023-03-10 23:46:05:79,0,0.401374,-7.50244,93.3392
2023-03-10 23:46:05:89,0,0.398138,-7.50548,93.3473
2023-03-10 23:46:05:99,0,0.398133,-7.50991,93.3501
2023-03-10 23:46:05:109,0,0.396365,-7.51602,93.355
2023-03-10 23:46:05:119,0,0.395379,-7.52258,93.3562
2023-03-10 23:46:05:129,0,0.393805,-7.5284,93.3594
2023-03-10 23:46:05:140,0,0.393204,-7.53567,93.3631
2023-03-10 23:46:05:149,0,0.393676,-7.53833,93.3613
2023-03-10 23:46:05:159,0,0.389834,-7.54429,93.3598
2023-03-10 23:46:05:170,0,0.386033,-7.55088,93.3577
2023-03-10 23:46:05:180,0,0.381526,-7.5602,93.3557
2023-03-10 23:46:05:190,0,0.379076,-7.56583,93.3569
2023-03-10 23:46:05:200,0,0.376954,-7.57094,93.3614
2023-03-10 23:46:05:210,0,0.371348,-7.5775,93.3669
2023-03-10 23:46:05:220,0,0.365757,-7.58343,93.3735
2023-03-10 23:46:05:230,0,0.361299,-7.59283,93.381
2023-03-10 23:46:05:240,0,0.357669,-7.59878,93.3841
2023-03-10 23:46:05:250,0,0.355512,-7.60259,93.3905
2023-03-10 23:46:05:260,0,0.350698,-7.60444,93.3957
2023-03-10 23:46:05:270,0,0.345934,-7.60377,93.3976
2023-03-10 23:46:05:280,0,0.337329,-7.60644,93.399
2023-03-10 23:46:05:290,0,0.329873,-7.6085,93.3976
2023-03-10 23:46:05:300,0,0.323331,-7.60986,93.3988
2023-03-10 23:46:05:310,0,0.31816,-7.61584,93.399
2023-03-10 23:46:05:320,0,0.315409,-7.6192,93.3994
2023-03-10 23:46:05:330,0,0.31121,-7.62296,93.3932
2023-03-10 23:46:05:340,0,0.30871,-7.62595,93.3796
2023-03-10 23:46:05:350,0,0.305749,-7.63304,93.3672
2023-03-10 23:46:05:360,0,0.301433,-7.64624,93.3552
2023-03-10 23:46:05:370,0,0.296614,-7.65792,93.344
2023-03-10 23:46:05:380,0,0.286128,-7.67508,93.3289
2023-03-10 23:46:05:390,0,0.273011,-7.68843,93.3069
2023-03-10 23:46:05:400,0,0.259494,-7.70636,93.2715
2023-03-10 23:46:05:410,0,0.247797,-7.72609,93.2207
2023-03-10 23:46:05:420,0,0.238955,-7.74865,93.1437
2023-03-10 23:46:05:430,0,0.228806,-7.77512,93.0518
2023-03-10 23:46:05:440,0,0.220796,-7.80556,92.9459
2023-03-10 23:46:05:450,0,0.213565,-7.83858,92.8239
2023-03-10 23:46:05:460,0,0.207821,-7.86781,92.6928
2023-03-10 23:46:05:470,0,0.203368,-7.8996,92.5532
2023-03-10 23:46:05:480,0,0.195859,-7.92562,92.4123
2023-03-10 23:46:05:490,0,0.189334,-7.94858,92.2694
2023-03-10 23:46:05:500,0,0.181508,-7.96867,92.1301
2023-03-10 23:46:05:510,0,0.175179,-7.98247,91.991
2023-03-10 23:46:05:520,0,0.170043,-7.99041,91.8616
2023-03-10 23:46:05:530,0,0.161183,-7.99804,91.7367
2023-03-10 23:46:05:540,0,0.154391,-8.00267,91.619
2023-03-10 23:46:05:550,0,0.147055,-8.0049,91.5094
2023-03-10 23:46:05:560,0,0.143283,-8.00387,91.4082
2023-03-10 23:46:05:570,0,0.141108,-8.00579,91.3136
2023-03-10 23:46:05:580,0,0.136089,-8.00774,91.2261
2023-03-10 23:46:05:590,0,0.130899,-8.00906,91.1404
2023-03-10 23:46:05:600,0,0.128287,-8.00756,91.0589
2023-03-10 23:46:05:610,0,0.130746,-7.9984,90.9806
2023-03-10 23:46:05:620,0,0.134985,-7.98819,90.9117
2023-03-10 23:46:05:630,0,0.142097,-7.98164,90.8484
2023-03-10 23:46:05:639,0,0.14822,-7.97855,90.7928
2023-03-10 23:46:05:650,0,0.155122,-7.97822,90.7454
2023-03-10 23:46:05:660,0,0.156012,-7.98028,90.7042
2023-03-10 23:46:05:670,0,0.154416,-7.98296,90.6694
2023-03-10 23:46:05:680,0,0.156933,-7.98413,90.6341
2023-03-10 23:46:05:690,0,0.156668,-7.9891,90.5996
2023-03-10 23:46:05:700,0,0.154641,-7.99223,90.5627
2023-03-10 23:46:05:710,0,0.15398,-7.99865,90.5238
2023-03-10 23:46:05:720,0,0.152167,-8.00515,90.4883
2023-03-10 23:46:05:730,0,0.15125,-8.01346,90.4503
2023-03-10 23:46:05:740,0,0.145645,-8.02635,90.4181
2023-03-10 23:46:05:750,0,0.140309,-8.03996,90.3857
2023-03-10 23:46:05:760,0,0.139605,-8.05318,90.3545
2023-03-10 23:46:05:770,0,0.13859,-8.06713,90.3271
2023-03-10 23:46:05:780,0,0.133391,-8.08032,90.2993
2023-03-10 23:46:05:790,0,0.12649,-8.09678,90.2769
2023-03-10 23:46:05:800,0,0.121251,-8.10945,90.2521
2023-03-10 23:46:05:810,0,0.115072,-8.12018,90.2261
2023-03-10 23:46:05:820,0,0.109746,-8.13071,90.1948
2023-03-10 23:46:05:830,0,0.102865,-8.14047,90.1594
2023-03-10 23:46:05:840,0,0.0958714,-8.15266,90.1196
2023-03-10 23:46:05:850,0,0.0875924,-8.16701,90.0774
2023-03-10 23:46:05:860,0,0.0780788,-8.18044,90.0364
2023-03-10 23:46:05:870,0,0.0707723,-8.18936,89.9922
2023-03-10 23:46:05:880,0,0.0627878,-8.19882,89.9483
2023-03-10 23:46:05:890,0,0.0593549,-8.20565,89.9043
2023-03-10 23:46:05:900,0,0.0573898,-8.21026,89.8609
2023-03-10 23:46:05:910,0,0.0598704,-8.20859,89.8195
2023-03-10 23:46:05:920,0,0.0618593,-8.20578,89.7839
2023-03-10 23:46:05:929,0,0.0626902,-8.1983,89.7543
2023-03-10 23:46:05:939,0,0.0636945,-8.18897,89.7283
2023-03-10 23:46:05:949,0,0.0642035,-8.18196,89.705
2023-03-10 23:46:05:960,0,0.0643083,-8.17619,89.6855
2023-03-10 23:46:05:970,0,0.0653427,-8.16719,89.6661
2023-03-10 23:46:05:980,0,0.0706095,-8.15907,89.6522
2023-03-10 23:46:05:990,0,0.0723535,-8.15029,89.6413
2023-03-10 23:46:06:0,0,0.0739604,-8.14378,89.6369
2023-03-10 23:46:06:10,0,0.0701256,-8.13547,89.6308
2023-03-10 23:46:06:20,0,0.0614066,-8.12368,89.6273
2023-03-10 23:46:06:30,0,0.0528875,-8.11608,89.6248
2023-03-10 23:46:06:40,0,0.0473522,-8.11017,89.63
2023-03-10 23:46:06:50,0,0.0404301,-8.10579,89.6365
2023-03-10 23:46:06:60,0,0.0324336,-8.10142,89.642
2023-03-10 23:46:06:70,0,0.0247245,-8.09859,89.6489
2023-03-10 23:46:06:80,0,0.0182788,-8.09318,89.6536
2023-03-10 23:46:06:90,0,0.0133254,-8.0878,89.6577
2023-03-10 23:46:06:100,0,0.00726224,-8.08681,89.6633
2023-03-10 23:46:06:110,0,0.00313706,-8.08531,89.6694
2023-03-10 23:46:06:120,0,-0.00253586,-8.09092,89.6723
2023-03-10 23:46:06:130,0,-0.005437,-8.09918,89.6783
2023-03-10 23:46:06:140,0,-0.0107954,-8.10704,89.6826
2023-03-10 23:46:06:150,0,-0.0188948,-8.11386,89.6858
2023-03-10 23:46:06:160,0,-0.0241892,-8.11634,89.6842
2023-03-10 23:46:06:170,0,-0.0323654,-8.11869,89.6821
2023-03-10 23:46:06:180,0,-0.0408594,-8.12161,89.6814
2023-03-10 23:46:06:190,0,-0.048956,-8.12191,89.6808
2023-03-10 23:46:06:200,0,-0.0533635,-8.12525,89.6825
2023-03-10 23:46:06:210,0,-0.0569817,-8.12953,89.684
2023-03-10 23:46:06:220,0,-0.0602316,-8.1319,89.6911
2023-03-10 23:46:06:230,0,-0.0573166,-8.12904,89.7002
2023-03-10 23:46:06:240,0,-0.0570754,-8.13354,89.7096
2023-03-10 23:46:06:250,0,-0.0575483,-8.13336,89.7193
2023-03-10 23:46:06:259,0,-0.0585952,-8.13241,89.7315
2023-03-10 23:46:06:270,0,-0.056157,-8.13134,89.7404
2023-03-10 23:46:06:280,0,-0.0546954,-8.13154,89.7448
2023-03-10 23:46:06:290,0,-0.0479408,-8.12889,89.7479
2023-03-10 23:46:06:300,0,-0.0445115,-8.12829,89.7477
2023-03-10 23:46:06:310,0,-0.0421533,-8.1237,89.7475
2023-03-10 23:46:06:320,0,-0.0310296,-8.12218,89.742
2023-03-10 23:46:06:330,0,-0.0246691,-8.12694,89.7432
2023-03-10 23:46:06:340,0,-0.0216516,-8.13072,89.7492
2023-03-10 23:46:06:350,0,-0.0238452,-8.13552,89.7594
2023-03-10 23:46:06:360,0,-0.0297431,-8.14261,89.7686
2023-03-10 23:46:06:370,0,-0.0305074,-8.14285,89.7783
2023-03-10 23:46:06:380,0,-0.0349411,-8.141,89.7864
2023-03-10 23:46:06:390,0,-0.0354589,-8.13975,89.7939
2023-03-10 23:46:06:400,0,-0.0352969,-8.14242,89.8051
2023-03-10 23:46:06:410,0,-0.0304051,-8.14675,89.8145
2023-03-10 23:46:06:420,0,-0.0248361,-8.15147,89.8252
2023-03-10 23:46:06:430,0,-0.0173851,-8.15709,89.8307
2023-03-10 23:46:06:440,0,-0.00501952,-8.16226,89.8337
2023-03-10 23:46:06:450,0,0.00347993,-8.16435,89.8368
2023-03-10 23:46:06:460,0,0.0127043,-8.16508,89.8375
2023-03-10 23:46:06:470,0,0.0208535,-8.1651,89.8415
2023-03-10 23:46:06:480,0,0.0249868,-8.16723,89.8473
2023-03-10 23:46:06:490,0,0.0300618,-8.17003,89.8493
2023-03-10 23:46:06:500,0,0.0330272,-8.17089,89.8533
2023-03-10 23:46:06:510,0,0.0352851,-8.17396,89.8607
2023-03-10 23:46:06:520,0,0.0382146,-8.17409,89.8646
2023-03-10 23:46:06:530,0,0.037456,-8.172,89.8667
2023-03-10 23:46:06:540,0,0.0327105,-8.17438,89.872
2023-03-10 23:46:06:550,0,0.0287731,-8.17616,89.8752
2023-03-10 23:46:06:560,0,0.0227311,-8.17905,89.8825
2023-03-10 23:46:06:570,0,0.0183853,-8.18195,89.8914
2023-03-10 23:46:06:580,0,0.0173743,-8.18162,89.8955
2023-03-10 23:46:06:590,0,0.0199349,-8.18143,89.896
2023-03-10 23:46:06:600,0,0.0273112,-8.17909,89.8996
2023-03-10 23:46:06:610,0,0.0329059,-8.1808,89.9052
2023-03-10 23:46:06:620,0,0.0360683,-8.18196,89.9131
2023-03-10 23:46:06:630,0,0.0398134,-8.17989,89.9193
2023-03-10 23:46:06:640,0,0.0347909,-8.17799,89.925
2023-03-10 23:46:06:650,0,0.0292882,-8.17931,89.9298
2023-03-10 23:46:06:660,0,0.0229419,-8.17609,89.9353
2023-03-10 23:46:06:670,0,0.0197305,-8.17425,89.9398
2023-03-10 23:46:06:680,0,0.0208523,-8.17152,89.9464
2023-03-10 23:46:06:690,0,0.020785,-8.17132,89.9511
2023-03-10 23:46:06:700,0,0.0183108,-8.17365,89.9565
2023-03-10 23:46:06:710,0,0.0136863,-8.17717,89.9618
2023-03-10 23:46:06:720,0,0.00648506,-8.18332,89.9712
2023-03-10 23:46:06:730,0,-0.000702725,-8.19275,89.9782
2023-03-10 23:46:06:740,0,-0.00720828,-8.19942,89.9853
2023-03-10 23:46:06:750,0,-0.0112272,-8.20852,89.9932
2023-03-10 23:46:06:760,0,-0.0124588,-8.21541,90.0027
2023-03-10 23:46:06:770,0,-0.0137754,-8.21959,90.0097
2023-03-10 23:46:06:780,0,-0.0161968,-8.22704,90.0189
2023-03-10 23:46:06:790,0,-0.0213884,-8.23102,90.0316
2023-03-10 23:46:06:800,0,-0.0280634,-8.23768,90.0442
2023-03-10 23:46:06:810,0,-0.0380485,-8.24593,90.0576
2023-03-10 23:46:06:820,0,-0.0460174,-8.25183,90.0695
2023-03-10 23:46:06:830,0,-0.0490956,-8.25745,90.0778
2023-03-10 23:46:06:840,0,-0.0536927,-8.25935,90.0902
2023-03-10 23:46:06:850,0,-0.0562706,-8.26303,90.0978
2023-03-10 23:46:06:860,0,-0.0545392,-8.26547,90.1037
2023-03-10 23:46:06:870,0,-0.0520613,-8.26828,90.1104
2023-03-10 23:46:06:880,0,-0.0503092,-8.26945,90.1159
2023-03-10 23:46:06:890,0,-0.0449824,-8.27231,90.1193
2023-03-10 23:46:06:900,0,-0.0429452,-8.27328,90.1229
2023-03-10 23:46:06:910,0,-0.0409156,-8.27589,90.1235
2023-03-10 23:46:06:920,0,-0.0389569,-8.28134,90.1233
2023-03-10 23:46:06:930,0,-0.0355114,-8.28355,90.1262
2023-03-10 23:46:06:940,0,-0.0301939,-8.28387,90.1287
2023-03-10 23:46:06:950,0,-0.0248075,-8.28634,90.1329
2023-03-10 23:46:06:960,0,-0.0165468,-8.28353,90.1378
2023-03-10 23:46:06:970,0,-0.00992207,-8.28116,90.1423
2023-03-10 23:46:06:980,0,-0.00510557,-8.28056,90.1453
2023-03-10 23:46:06:990,0,-0.00296604,-8.28326,90.151
2023-03-10 23:46:07:0,0,0.00191713,-8.28811,90.1574
2023-03-10 23:46:07:10,0,0.00527446,-8.29266,90.1653
2023-03-10 23:46:07:20,0,0.0126524,-8.29478,90.1704
2023-03-10 23:46:07:30,0,0.0135733,-8.29497,90.18
2023-03-10 23:46:07:40,0,0.0133452,-8.29737,90.1891
2023-03-10 23:46:07:50,0,0.00849786,-8.30195,90.1999
2023-03-10 23:46:07:60,0,0.00276928,-8.30706,90.2103
2023-03-10 23:46:07:70,0,-0.0026388,-8.31179,90.2234
2023-03-10 23:46:07:80,0,-0.0136495,-8.31722,90.2387
2023-03-10 23:46:07:90,0,-0.0240011,-8.32338,90.2544
2023-03-10 23:46:07:100,0,-0.0336842,-8.32769,90.2726
2023-03-10 23:46:07:110,0,-0.0399442,-8.32914,90.2902
2023-03-10 23:46:07:120,0,-0.0468105,-8.33179,90.3048
2023-03-10 23:46:07:130,0,-0.0485953,-8.33344,90.3194
2023-03-10 23:46:07:140,0,-0.0540765,-8.33563,90.3381
2023-03-10 23:46:07:150,0,-0.0547486,-8.33877,90.3549
2023-03-10 23:46:07:160,0,-0.0543038,-8.33995,90.3734
2023-03-10 23:46:07:170,0,-0.0547381,-8.34064,90.3899
2023-03-10 23:46:07:180,0,-0.0546365,-8.34361,90.4062
2023-03-10 23:46:07:190,0,-0.0550257,-8.34382,90.4255
2023-03-10 23:46:07:200,0,-0.0503107,-8.34541,90.4417
2023-03-10 23:46:07:210,0,-0.0407903,-8.34819,90.4602
2023-03-10 23:46:07:220,0,-0.0308645,-8.3489,90.4783
2023-03-10 23:46:07:230,0,-0.0210732,-8.34621,90.4966
2023-03-10 23:46:07:240,0,-0.00851905,-8.34017,90.5094
2023-03-10 23:46:07:250,0,3.75994e-05,-8.33614,90.5175
2023-03-10 23:46:07:260,0,0.0061493,-8.32976,90.5275
2023-03-10 23:46:07:270,0,0.0098857,-8.32886,90.5352
2023-03-10 23:46:07:280,0,0.00299205,-8.3299,90.5461
2023-03-10 23:46:07:290,0,-0.00410571,-8.33195,90.5563
2023-03-10 23:46:07:300,0,-0.00892981,-8.33103,90.5606
2023-03-10 23:46:07:310,0,-0.0110638,-8.33112,90.5695
2023-03-10 23:46:07:320,0,-0.00844229,-8.32891,90.5727
2023-03-10 23:46:07:330,0,-0.00697575,-8.32234,90.5758
2023-03-10 23:46:07:340,0,0.00242946,-8.31971,90.5786
2023-03-10 23:46:07:350,0,0.011223,-8.31928,90.5836
2023-03-10 23:46:07:360,0,0.0163099,-8.32125,90.5896
2023-03-10 23:46:07:370,0,0.0194428,-8.31563,90.5927
2023-03-10 23:46:07:380,0,0.0183387,-8.30493,90.5946
2023-03-10 23:46:07:390,0,0.0147347,-8.29336,90.5926
2023-03-10 23:46:07:400,0,0.00379116,-8.27953,90.5958
2023-03-10 23:46:07:410,0,-0.00753815,-8.26466,90.6072
2023-03-10 23:46:07:420,0,-0.0275165,-8.24493,90.618
2023-03-10 23:46:07:430,0,-0.0533417,-8.22962,90.6391
2023-03-10 23:46:07:440,0,-0.0858321,-8.20976,90.6625
2023-03-10 23:46:07:450,0,-0.120355,-8.19146,90.6974
2023-03-10 23:46:07:460,0,-0.15593,-8.18243,90.7338
2023-03-10 23:46:07:470,0,-0.186264,-8.17142,90.7711
2023-03-10 23:46:07:480,0,-0.210919,-8.16098,90.8155
2023-03-10 23:46:07:490,0,-0.23009,-8.15155,90.8602
2023-03-10 23:46:07:500,0,-0.241659,-8.1414,90.9004
2023-03-10 23:46:07:510,0,-0.246165,-8.1278,90.9391
2023-03-10 23:46:07:520,0,-0.241547,-8.11345,90.9716
2023-03-10 23:46:07:530,0,-0.235078,-8.10213,91.0018
2023-03-10 23:46:07:540,0,-0.221907,-8.09605,91.029
2023-03-10 23:46:07:550,0,-0.205867,-8.08888,91.0521
2023-03-10 23:46:07:560,0,-0.189069,-8.08154,91.0689
2023-03-10 23:46:07:570,0,-0.170284,-8.07173,91.079
2023-03-10 23:46:07:580,0,-0.149463,-8.0612,91.0812
2023-03-10 23:46:07:590,0,-0.129021,-8.04856,91.0769
2023-03-10 23:46:07:600,0,-0.105976,-8.03455,91.0659
2023-03-10 23:46:07:610,0,-0.0818089,-8.02578,91.0534
2023-03-10 23:46:07:620,0,-0.0565923,-8.01404,91.0375
2023-03-10 23:46:07:630,0,-0.0373918,-8.00479,91.0222
2023-03-10 23:46:07:640,0,-0.0209436,-7.99237,91.0111
2023-03-10 23:46:07:650,0,-0.00610151,-7.98195,91.0031
2023-03-10 23:46:07:660,0,0.00669532,-7.97221,90.9959
2023-03-10 23:46:07:670,0,0.0154087,-7.96272,90.9931
2023-03-10 23:46:07:680,0,0.0212538,-7.95735,90.9934
2023-03-10 23:46:07:690,0,0.0302363,-7.95289,91.0014
2023-03-10 23:46:07:700,0,0.0392694,-7.95066,91.0162
2023-03-10 23:46:07:710,0,0.048195,-7.95177,91.0317
2023-03-10 23:46:07:720,0,0.0592135,-7.95716,91.0516
2023-03-10 23:46:07:730,0,0.0730751,-7.9633,91.0739
2023-03-10 23:46:07:740,0,0.0857658,-7.97563,91.1032
2023-03-10 23:46:07:750,0,0.0967182,-7.98818,91.1288
2023-03-10 23:46:07:760,0,0.110138,-8.00522,91.157
2023-03-10 23:46:07:770,0,0.123361,-8.02169,91.1831
2023-03-10 23:46:07:780,0,0.136201,-8.03765,91.2071
2023-03-10 23:46:07:790,0,0.149461,-8.05392,91.2293
2023-03-10 23:46:07:800,0,0.167893,-8.07114,91.2434
2023-03-10 23:46:07:810,0,0.192278,-8.08213,91.2574
2023-03-10 23:46:07:820,0,0.215646,-8.09844,91.2657
2023-03-10 23:46:07:830,0,0.236269,-8.11458,91.2699
2023-03-10 23:46:07:840,0,0.264669,-8.12636,91.2697
2023-03-10 23:46:07:850,0,0.29439,-8.13624,91.2696
2023-03-10 23:46:07:860,0,0.326061,-8.14683,91.2685
2023-03-10 23:46:07:870,0,0.357023,-8.15848,91.2695
2023-03-10 23:46:07:880,0,0.385468,-8.16805,91.2732
2023-03-10 23:46:07:890,0,0.409324,-8.17796,91.277
2023-03-10 23:46:07:900,0,0.435928,-8.18697,91.2778
2023-03-10 23:46:07:910,0,0.457237,-8.1956,91.2821
2023-03-10 23:46:07:920,0,0.481352,-8.20059,91.2834
2023-03-10 23:46:07:930,0,0.502147,-8.20552,91.284
2023-03-10 23:46:07:940,0,0.521161,-8.2054,91.2832
2023-03-10 23:46:07:950,0,0.535473,-8.20858,91.2854
2023-03-10 23:46:07:960,0,0.549834,-8.20992,91.2838
2023-03-10 23:46:07:970,0,0.566017,-8.20836,91.2779
2023-03-10 23:46:07:980,0,0.577696,-8.2094,91.2738
2023-03-10 23:46:07:990,0,0.593748,-8.20699,91.2678
2023-03-10 23:46:08:0,0,0.605228,-8.20687,91.265
2023-03-10 23:46:08:10,0,0.613062,-8.20858,91.2569
2023-03-10 23:46:08:20,0,0.621316,-8.21314,91.2541
2023-03-10 23:46:08:30,0,0.630388,-8.21747,91.2481
2023-03-10 23:46:08:40,0,0.637734,-8.22333,91.2414
2023-03-10 23:46:08:50,0,0.64578,-8.22773,91.2356
2023-03-10 23:46:08:60,0,0.6534,-8.23569,91.2322
2023-03-10 23:46:08:70,0,0.666391,-8.24038,91.224
2023-03-10 23:46:08:80,0,0.681878,-8.24007,91.215
2023-03-10 23:46:08:90,0,0.700046,-8.23795,91.2035
2023-03-10 23:46:08:100,0,0.722066,-8.23356,91.1931
2023-03-10 23:46:08:110,0,0.746738,-8.22206,91.1782
2023-03-10 23:46:08:120,0,0.775374,-8.20995,91.1607
2023-03-10 23:46:08:130,0,0.797521,-8.19754,91.1407
2023-03-10 23:46:08:140,0,0.81016,-8.18909,91.1202
2023-03-10 23:46:08:150,0,0.818045,-8.18253,91.0987
2023-03-10 23:46:08:160,0,0.821928,-8.181,91.0814
2023-03-10 23:46:08:170,0,0.82411,-8.18611,91.0727
2023-03-10 23:46:08:180,0,0.825873,-8.19842,91.0715
2023-03-10 23:46:08:190,0,0.822575,-8.20795,91.0749
2023-03-10 23:46:08:200,0,0.813224,-8.21769,91.0837
2023-03-10 23:46:08:210,0,0.805797,-8.22306,91.0953
2023-03-10 23:46:08:220,0,0.798084,-8.23468,91.106
2023-03-10 23:46:08:230,0,0.789974,-8.24248,91.1221
2023-03-10 23:46:08:240,0,0.788579,-8.25025,91.1431
2023-03-10 23:46:08:250,0,0.787796,-8.2663,91.1675
2023-03-10 23:46:08:260,0,0.782365,-8.27993,91.1936
2023-03-10 23:46:08:270,0,0.779633,-8.29253,91.2135
2023-03-10 23:46:08:280,0,0.771877,-8.30695,91.2352
2023-03-10 23:46:08:290,0,0.769531,-8.31929,91.2556
2023-03-10 23:46:08:300,0,0.768948,-8.32873,91.2724
2023-03-10 23:46:08:310,0,0.767276,-8.33914,91.2886
2023-03-10 23:46:08:320,0,0.770018,-8.33969,91.2994
2023-03-10 23:46:08:330,0,0.767023,-8.34176,91.3038
2023-03-10 23:46:08:340,0,0.764752,-8.3397,91.3039
2023-03-10 23:46:08:350,0,0.757038,-8.33622,91.3048
2023-03-10 23:46:08:360,0,0.749765,-8.33005,91.3017
2023-03-10 23:46:08:370,0,0.740659,-8.32284,91.2981
2023-03-10 23:46:08:380,0,0.738404,-8.3156,91.2896
2023-03-10 23:46:08:390,0,0.742437,-8.3057,91.2805
2023-03-10 23:46:08:400,0,0.748834,-8.29316,91.2663
2023-03-10 23:46:08:410,0,0.761438,-8.27667,91.2438
2023-03-10 23:46:08:420,0,0.77602,-8.26073,91.2193
2023-03-10 23:46:08:430,0,0.790717,-8.24686,91.1936
2023-03-10 23:46:08:440,0,0.805126,-8.24403,91.1686
2023-03-10 23:46:08:450,0,0.815349,-8.23418,91.1475
2023-03-10 23:46:08:460,0,0.825175,-8.23044,91.123
2023-03-10 23:46:08:470,0,0.831498,-8.21623,91.1004
2023-03-10 23:46:08:480,0,0.841431,-8.20457,91.0774
2023-03-10 23:46:08:490,0,0.850968,-8.19428,91.0588
2023-03-10 23:46:08:500,0,0.861722,-8.18534,91.0468
2023-03-10 23:46:08:510,0,0.869753,-8.17767,91.0368
2023-03-10 23:46:08:520,0,0.881104,-8.17306,91.0317
2023-03-10 23:46:08:530,0,0.889398,-8.17111,91.0323
2023-03-10 23:46:08:540,0,0.894187,-8.16577,91.0355
2023-03-10 23:46:08:550,0,0.899013,-8.16545,91.0439
2023-03-10 23:46:08:560,0,0.904739,-8.16846,91.0505
2023-03-10 23:46:08:570,0,0.910036,-8.17389,91.0585
2023-03-10 23:46:08:580,0,0.912564,-8.18227,91.0679
2023-03-10 23:46:08:590,0,0.915695,-8.19184,91.0768
2023-03-10 23:46:08:600,0,0.915519,-8.2033,91.0802
2023-03-10 23:46:08:610,0,0.912693,-8.21187,91.0891
2023-03-10 23:46:08:620,0,0.911773,-8.22492,91.0956
2023-03-10 23:46:08:630,0,0.906302,-8.23622,91.1028
2023-03-10 23:46:08:640,0,0.899378,-8.24248,91.1108
2023-03-10 23:46:08:650,0,0.893563,-8.2459,91.1157
2023-03-10 23:46:08:660,0,0.886442,-8.25007,91.1239
2023-03-10 23:46:08:670,0,0.876638,-8.24982,91.1284
2023-03-10 23:46:08:680,0,0.866949,-8.25059,91.1335
2023-03-10 23:46:08:690,0,0.856433,-8.25031,91.1339
2023-03-10 23:46:08:700,0,0.851113,-8.24994,91.1338
2023-03-10 23:46:08:710,0,0.844778,-8.24824,91.1354
2023-03-10 23:46:08:720,0,0.841642,-8.24197,91.1336
2023-03-10 23:46:08:730,0,0.838772,-8.23818,91.1323
2023-03-10 23:46:08:740,0,0.837014,-8.22847,91.1282
2023-03-10 23:46:08:750,0,0.83578,-8.22022,91.1205
2023-03-10 23:46:08:760,0,0.830824,-8.20934,91.1152
2023-03-10 23:46:08:770,0,0.828121,-8.20062,91.1093
2023-03-10 23:46:08:780,0,0.829537,-8.19005,91.1009
2023-03-10 23:46:08:790,0,0.829535,-8.1787,91.0924
2023-03-10 23:46:08:800,0,0.834856,-8.16615,91.0897
2023-03-10 23:46:08:810,0,0.835606,-8.15776,91.0877
2023-03-10 23:46:08:820,0,0.838061,-8.14633,91.0826
2023-03-10 23:46:08:830,0,0.842161,-8.13669,91.0791
2023-03-10 23:46:08:840,0,0.84595,-8.12798,91.0763
2023-03-10 23:46:08:850,0,0.851234,-8.12064,91.0756
2023-03-10 23:46:08:860,0,0.858264,-8.11612,91.0753
2023-03-10 23:46:08:870,0,0.861746,-8.11487,91.0784
2023-03-10 23:46:08:880,0,0.863207,-8.1159,91.0814
2023-03-10 23:46:08:890,0,0.865098,-8.12091,91.0873
2023-03-10 23:46:08:900,0,0.866678,-8.12422,91.0904
2023-03-10 23:46:08:910,0,0.864589,-8.12651,91.0945
2023-03-10 23:46:08:920,0,0.866397,-8.12746,91.0973
2023-03-10 23:46:08:930,0,0.866598,-8.1314,91.0976
2023-03-10 23:46:08:940,0,0.867706,-8.13287,91.102
2023-03-10 23:46:08:950,0,0.873571,-8.13522,91.1032
2023-03-10 23:46:08:960,0,0.874837,-8.13778,91.1032
2023-03-10 23:46:08:970,0,0.876948,-8.13979,91.1039
2023-03-10 23:46:08:980,0,0.881056,-8.1468,91.1041
2023-03-10 23:46:08:990,0,0.889291,-8.15302,91.1006
2023-03-10 23:46:09:0,0,0.899203,-8.15878,91.0946
2023-03-10 23:46:09:10,0,0.906839,-8.15931,91.0904
2023-03-10 23:46:09:20,0,0.915153,-8.1606,91.0839
2023-03-10 23:46:09:30,0,0.919532,-8.16359,91.0773
2023-03-10 23:46:09:40,0,0.93012,-8.16554,91.0664
2023-03-10 23:46:09:50,0,0.936962,-8.16867,91.0607
2023-03-10 23:46:09:60,0,0.939225,-8.18081,91.0605
2023-03-10 23:46:09:70,0,0.940147,-8.19283,91.0654
2023-03-10 23:46:09:80,0,0.940017,-8.2017,91.069
2023-03-10 23:46:09:90,0,0.937661,-8.20841,91.0777
2023-03-10 23:46:09:100,0,0.934641,-8.21123,91.0879
2023-03-10 23:46:09:110,0,0.931817,-8.21157,91.0975
2023-03-10 23:46:09:120,0,0.92234,-8.21186,91.1053
2023-03-10 23:46:09:130,0,0.918799,-8.21376,91.1154
2023-03-10 23:46:09:140,0,0.914132,-8.21558,91.1243
2023-03-10 23:46:09:150,0,0.910954,-8.2142,91.1287
2023-03-10 23:46:09:160,0,0.905905,-8.21209,91.1292
2023-03-10 23:46:09:170,0,0.90139,-8.21242,91.1261
2023-03-10 23:46:09:180,0,0.897724,-8.20947,91.1222
2023-03-10 23:46:09:190,0,0.895232,-8.206,91.1201
2023-03-10 23:46:09:200,0,0.888735,-8.20069,91.1195
