Timestamp_cmd,imu_cmd,roll_delta,pitch_delta,yaw_delta,voice_type,voice_length
2023-03-15 13:01:17:772,0,-3.43129,-7.12152,-24.9571,Q,Q
2023-03-15 13:01:17:781,0,-3.41355,-7.12124,-24.9948,Q,Q
2023-03-15 13:01:17:791,0,-3.40113,-7.12158,-25.0402,Q,Q
2023-03-15 13:01:17:801,0,-3.3976,-7.1211,-25.0931,Q,Q
2023-03-15 13:01:17:811,0,-3.39327,-7.12093,-25.1566,Q,Q
2023-03-15 13:01:17:821,0,-3.39019,-7.12048,-25.2302,Q,Q
2023-03-15 13:01:17:831,0,-3.37858,-7.11199,-25.309,Q,Q
2023-03-15 13:01:17:841,0,-3.36087,-7.09339,-25.3885,Q,Q
2023-03-15 13:01:17:851,0,-3.34376,-7.06288,-25.4712,Q,Q
2023-03-15 13:01:17:861,0,-3.32899,-7.02796,-25.5555,Q,Q
2023-03-15 13:01:17:871,0,-3.3049,-6.97804,-25.6395,Q,Q
2023-03-15 13:01:17:881,0,-3.25384,-6.9207,-25.7201,Q,Q
2023-03-15 13:01:17:891,0,-3.17805,-6.8496,-25.7929,Q,Q
2023-03-15 13:01:17:901,0,-3.09391,-6.76471,-25.8507,Q,Q
2023-03-15 13:01:17:911,0,-3.02046,-6.67803,-25.8953,Q,Q
2023-03-15 13:01:17:921,0,-2.96279,-6.59039,-25.9241,Q,Q
2023-03-15 13:01:17:931,0,-2.92954,-6.51482,-25.9437,Q,Q
2023-03-15 13:01:17:941,0,-2.90975,-6.44983,-25.9577,Q,Q
2023-03-15 13:01:17:951,0,-2.89716,-6.39275,-25.9643,Q,Q
2023-03-15 13:01:17:961,0,-2.89024,-6.3474,-25.9644,Q,Q
2023-03-15 13:01:17:971,0,-2.88232,-6.31157,-25.961,Q,Q
2023-03-15 13:01:17:981,0,-2.87017,-6.28094,-25.9535,Q,Q
2023-03-15 13:01:17:991,0,-2.8536,-6.2616,-25.9424,Q,Q
2023-03-15 13:01:18:1,0,-2.83058,-6.2476,-25.9302,Q,Q
2023-03-15 13:01:18:11,0,-2.81833,-6.24014,-25.919,Q,Q
2023-03-15 13:01:18:21,0,-2.81461,-6.24062,-25.9103,Q,Q
2023-03-15 13:01:18:31,0,-2.80294,-6.24456,-25.9053,Q,Q
2023-03-15 13:01:18:41,0,-2.78133,-6.25086,-25.8966,Q,Q
2023-03-15 13:01:18:51,0,-2.74954,-6.25998,-25.8828,Q,Q
2023-03-15 13:01:18:61,0,-2.70526,-6.271,-25.8666,Q,Q
2023-03-15 13:01:18:71,0,-2.65801,-6.29159,-25.8422,Q,Q
2023-03-15 13:01:18:81,0,-2.61306,-6.3148,-25.8107,Q,Q
2023-03-15 13:01:18:91,0,-2.56685,-6.34842,-25.7727,Q,Q
2023-03-15 13:01:18:101,0,-2.5195,-6.37924,-25.7296,Q,Q
2023-03-15 13:01:18:111,0,-2.47085,-6.41312,-25.6785,Q,Q
2023-03-15 13:01:18:121,0,-2.42596,-6.44579,-25.6284,Q,Q
2023-03-15 13:01:18:131,0,-2.38943,-6.48403,-25.5769,Q,Q
2023-03-15 13:01:18:141,0,-2.33235,-6.5279,-25.5355,Q,Q
2023-03-15 13:01:18:151,0,-2.2491,-6.56516,-25.4867,Q,Q
2023-03-15 13:01:18:161,0,-2.16932,-6.59319,-25.4343,Q,Q
2023-03-15 13:01:18:171,0,-2.11009,-6.61633,-25.3799,Q,Q
2023-03-15 13:01:18:181,0,-2.06426,-6.63925,-25.3296,Q,Q
2023-03-15 13:01:18:191,0,-2.01812,-6.66823,-25.287,Q,Q
2023-03-15 13:01:18:201,0,-1.95854,-6.69511,-25.2431,Q,Q
2023-03-15 13:01:18:211,0,-1.89152,-6.71309,-25.2075,Q,Q
2023-03-15 13:01:18:221,0,-1.8153,-6.72795,-25.175,Q,Q
2023-03-15 13:01:18:231,0,-1.73469,-6.73718,-25.1428,Q,Q
2023-03-15 13:01:18:241,0,-1.64796,-6.74168,-25.1096,Q,Q
2023-03-15 13:01:18:251,0,-1.55372,-6.74141,-25.0783,Q,Q
2023-03-15 13:01:18:261,0,-1.45614,-6.73492,-25.0473,Q,Q
2023-03-15 13:01:18:271,0,-1.35018,-6.7232,-25.0142,Q,Q
2023-03-15 13:01:18:281,0,-1.2496,-6.70966,-24.9754,Q,Q
2023-03-15 13:01:18:291,0,-1.15135,-6.69134,-24.9375,Q,Q
2023-03-15 13:01:18:301,0,-1.05193,-6.66834,-24.8939,Q,Q
2023-03-15 13:01:18:311,0,-0.951088,-6.64509,-24.8464,Q,Q
2023-03-15 13:01:18:321,0,-0.85787,-6.61657,-24.7984,Q,Q
2023-03-15 13:01:18:331,0,-0.758396,-6.58272,-24.7546,Q,Q
2023-03-15 13:01:18:341,0,-0.650151,-6.54754,-24.7096,Q,Q
2023-03-15 13:01:18:351,0,-0.526387,-6.51068,-24.6616,Q,Q
2023-03-15 13:01:18:361,0,-0.394038,-6.46188,-24.6117,Q,Q
2023-03-15 13:01:18:371,0,-0.254073,-6.41046,-24.5585,Q,Q
2023-03-15 13:01:18:381,0,-0.108789,-6.35332,-24.5133,Q,Q
2023-03-15 13:01:18:391,0,0.0505598,-6.29139,-24.4765,Q,Q
2023-03-15 13:01:18:401,0,0.228803,-6.21933,-24.4541,Q,Q
2023-03-15 13:01:18:410,0,0.432358,-6.1358,-24.4462,Q,Q
2023-03-15 13:01:18:420,0,0.667253,-6.03681,-24.4483,Q,Q
2023-03-15 13:01:18:430,0,0.920057,-5.92402,-24.4567,Q,Q
2023-03-15 13:01:18:440,0,1.17777,-5.79732,-24.4692,Q,Q
2023-03-15 13:01:18:451,0,1.42591,-5.66393,-24.4863,Q,Q
2023-03-15 13:01:18:460,0,1.66458,-5.53307,-24.5068,Q,Q
2023-03-15 13:01:18:471,0,1.89055,-5.40342,-24.5336,Q,Q
2023-03-15 13:01:18:481,0,2.11168,-5.28748,-24.5657,Q,Q
2023-03-15 13:01:18:491,0,2.33491,-5.18037,-24.605,Q,Q
2023-03-15 13:01:18:501,0,2.55496,-5.08511,-24.643,Q,Q
2023-03-15 13:01:18:511,0,2.76801,-4.99605,-24.6841,Q,Q
2023-03-15 13:01:18:521,0,2.95993,-4.91808,-24.7217,Q,Q
2023-03-15 13:01:18:531,0,3.12783,-4.84642,-24.7607,Q,Q
2023-03-15 13:01:18:541,0,3.28384,-4.78278,-24.807,Q,Q
2023-03-15 13:01:18:551,0,3.43193,-4.72286,-24.8522,Q,Q
2023-03-15 13:01:18:561,0,3.5817,-4.67107,-24.8997,Q,Q
2023-03-15 13:01:18:571,0,3.72629,-4.61898,-24.9469,Q,Q
2023-03-15 13:01:18:581,0,3.86974,-4.57181,-24.9867,Q,Q
2023-03-15 13:01:18:591,0,4.00493,-4.52011,-25.0231,Q,Q
2023-03-15 13:01:18:601,0,4.13277,-4.46286,-25.047,Q,Q
2023-03-15 13:01:18:611,0,4.24215,-4.40701,-25.0653,Q,Q
2023-03-15 13:01:18:621,0,4.3491,-4.35002,-25.0754,Q,Q
2023-03-15 13:01:18:631,0,4.46497,-4.29438,-25.0775,Q,Q
2023-03-15 13:01:18:641,0,4.59005,-4.23696,-25.0631,Q,Q
2023-03-15 13:01:18:651,0,4.72678,-4.18441,-25.0384,Q,Q
2023-03-15 13:01:18:661,0,4.87703,-4.1309,-24.9952,Q,Q
2023-03-15 13:01:18:671,0,5.04315,-4.07615,-24.937,Q,Q
2023-03-15 13:01:18:681,0,5.21893,-4.01449,-24.8574,Q,Q
2023-03-15 13:01:18:691,0,5.39235,-3.94934,-24.7618,Q,Q
2023-03-15 13:01:18:701,0,5.56425,-3.87422,-24.6543,Q,Q
2023-03-15 13:01:18:711,0,5.72275,-3.79487,-24.5414,Q,Q
2023-03-15 13:01:18:721,0,5.86937,-3.71016,-24.417,Q,Q
2023-03-15 13:01:18:731,0,6.00035,-3.62705,-24.2831,Q,Q
2023-03-15 13:01:18:741,0,6.12234,-3.54364,-24.15,Q,Q
2023-03-15 13:01:18:750,0,6.24838,-3.4613,-24.0144,Q,Q
2023-03-15 13:01:18:760,0,6.37819,-3.37661,-23.8712,Q,Q
2023-03-15 13:01:18:770,0,6.5022,-3.29069,-23.7174,Q,Q
2023-03-15 13:01:18:780,0,6.61464,-3.20861,-23.5631,Q,Q
2023-03-15 13:01:18:790,0,6.71954,-3.12967,-23.4074,Q,Q
2023-03-15 13:01:18:800,0,6.82076,-3.04903,-23.2513,Q,Q
2023-03-15 13:01:18:810,0,6.91376,-2.96855,-23.0989,Q,Q
2023-03-15 13:01:18:821,0,6.99188,-2.88908,-22.954,Q,Q
2023-03-15 13:01:18:830,0,7.05926,-2.81033,-22.8142,Q,Q
2023-03-15 13:01:18:840,0,7.10959,-2.73458,-22.6849,Q,Q
2023-03-15 13:01:18:851,0,7.15222,-2.66231,-22.5644,Q,Q
2023-03-15 13:01:18:860,0,7.1822,-2.59157,-22.4566,Q,Q
2023-03-15 13:01:18:870,0,7.20639,-2.52257,-22.3532,Q,Q
2023-03-15 13:01:18:880,0,7.23151,-2.46038,-22.267,Q,Q
2023-03-15 13:01:18:890,0,7.26422,-2.39533,-22.1924,Q,Q
2023-03-15 13:01:18:900,0,7.30176,-2.34035,-22.1254,Q,Q
2023-03-15 13:01:18:910,0,7.34254,-2.28017,-22.06,Q,Q
2023-03-15 13:01:18:921,0,7.38539,-2.22242,-22.0012,Q,Q
2023-03-15 13:01:18:930,0,7.42834,-2.16754,-21.9401,Q,Q
2023-03-15 13:01:18:940,0,7.47141,-2.11707,-21.8865,Q,Q
2023-03-15 13:01:18:950,0,7.51398,-2.07464,-21.83,Q,Q
2023-03-15 13:01:18:961,0,7.55327,-2.03417,-21.7813,Q,Q
2023-03-15 13:01:18:971,0,7.58336,-1.99981,-21.7351,Q,Q
2023-03-15 13:01:18:981,0,7.60263,-1.97177,-21.6968,Q,Q
2023-03-15 13:01:18:990,0,7.62095,-1.94558,-21.6667,Q,Q
2023-03-15 13:01:19:1,0,7.63872,-1.92826,-21.644,Q,Q
2023-03-15 13:01:19:11,0,7.65679,-1.90803,-21.6268,Q,Q
2023-03-15 13:01:19:20,0,7.6726,-1.88846,-21.6162,Q,Q
2023-03-15 13:01:19:31,0,7.68189,-1.86702,-21.6063,Q,Q
2023-03-15 13:01:19:40,0,7.68583,-1.84794,-21.5995,Q,Q
2023-03-15 13:01:19:51,0,7.68756,-1.82738,-21.597,Q,Q
2023-03-15 13:01:19:61,0,7.69162,-1.80355,-21.594,Q,Q
2023-03-15 13:01:19:70,0,7.69518,-1.77254,-21.592,Q,Q
2023-03-15 13:01:19:81,0,7.69885,-1.74503,-21.5877,Q,Q
2023-03-15 13:01:19:91,0,7.69285,-1.71283,-21.5779,Q,Q
2023-03-15 13:01:19:101,0,7.67703,-1.68736,-21.571,Q,Q
2023-03-15 13:01:19:111,0,7.64774,-1.66132,-21.5657,Q,Q
2023-03-15 13:01:19:121,0,7.61372,-1.63289,-21.5644,Q,Q
2023-03-15 13:01:19:131,0,7.57857,-1.59929,-21.5628,Q,Q
2023-03-15 13:01:19:141,0,7.54747,-1.56237,-21.5569,Q,Q
2023-03-15 13:01:19:151,0,7.51646,-1.52403,-21.5475,Q,Q
2023-03-15 13:01:19:161,0,7.48463,-1.48456,-21.5315,Q,Q
2023-03-15 13:01:19:171,0,7.45005,-1.44899,-21.5071,Q,Q
2023-03-15 13:01:19:181,0,7.41888,-1.41371,-21.4774,Q,Q
2023-03-15 13:01:19:191,0,7.39366,-1.37567,-21.4401,Q,Q
2023-03-15 13:01:19:201,0,7.36581,-1.34479,-21.3918,Q,Q
2023-03-15 13:01:19:211,0,7.33154,-1.31477,-21.3371,Q,Q
2023-03-15 13:01:19:221,0,7.28713,-1.28264,-21.2817,Q,Q
2023-03-15 13:01:19:231,0,7.23074,-1.25099,-21.2214,Q,Q
2023-03-15 13:01:19:241,0,7.17063,-1.2175,-21.1595,Q,Q
2023-03-15 13:01:19:251,0,7.11141,-1.17871,-21.0992,Q,Q
2023-03-15 13:01:19:261,0,7.05404,-1.14888,-21.0333,Q,Q
2023-03-15 13:01:19:271,0,7.00728,-1.12414,-20.9611,Q,Q
2023-03-15 13:01:19:281,0,6.95454,-1.10356,-20.8781,Q,Q
2023-03-15 13:01:19:291,0,6.90356,-1.09485,-20.7865,Q,Q
2023-03-15 13:01:19:301,0,6.83884,-1.08962,-20.6883,Q,Q
2023-03-15 13:01:19:311,0,6.76762,-1.09185,-20.5893,Q,Q
2023-03-15 13:01:19:321,0,6.69172,-1.09915,-20.4869,Q,Q
2023-03-15 13:01:19:331,0,6.61227,-1.10642,-20.3892,Q,Q
2023-03-15 13:01:19:341,0,6.531,-1.1174,-20.295,Q,Q
2023-03-15 13:01:19:351,0,6.45634,-1.13031,-20.1994,Q,Q
2023-03-15 13:01:19:361,0,6.38544,-1.14227,-20.101,Q,Q
2023-03-15 13:01:19:371,0,6.30911,-1.15704,-19.9989,Q,Q
2023-03-15 13:01:19:381,0,6.22075,-1.17871,-19.8949,Q,Q
2023-03-15 13:01:19:391,0,6.11972,-1.20079,-19.7882,Q,Q
2023-03-15 13:01:19:401,0,6.00108,-1.2276,-19.6767,Q,Q
2023-03-15 13:01:19:411,0,5.85661,-1.25955,-19.5627,Q,Q
2023-03-15 13:01:19:421,0,5.69437,-1.29897,-19.4576,Q,Q
2023-03-15 13:01:19:431,0,5.51379,-1.34548,-19.3536,Q,Q
2023-03-15 13:01:19:441,0,5.32059,-1.38885,-19.2502,Q,Q
2023-03-15 13:01:19:451,0,5.09608,-1.4336,-19.1471,Q,Q
2023-03-15 13:01:19:461,0,4.83856,-1.4788,-19.0453,Q,Q
2023-03-15 13:01:19:471,0,4.54145,-1.53551,-18.9496,Q,Q
2023-03-15 13:01:19:481,0,4.21621,-1.60778,-18.8558,Q,Q
2023-03-15 13:01:19:491,0,3.85886,-1.69648,-18.7725,Q,Q
2023-03-15 13:01:19:501,0,3.45722,-1.79397,-18.7011,Q,Q
2023-03-15 13:01:19:511,0,3.01298,-1.89122,-18.6492,Q,Q
2023-03-15 13:01:19:521,0,2.53525,-1.99274,-18.615,Q,Q
2023-03-15 13:01:19:531,0,2.03913,-2.09418,-18.5925,Q,Q
2023-03-15 13:01:19:541,0,1.51791,-2.18992,-18.5889,Q,Q
2023-03-15 13:01:19:551,0,0.962765,-2.28332,-18.6024,Q,Q
2023-03-15 13:01:19:561,0,0.377426,-2.37284,-18.6362,Q,Q
2023-03-15 13:01:19:571,0,-0.25083,-2.46037,-18.6868,Q,Q
2023-03-15 13:01:19:581,0,-0.93246,-2.56107,-18.7556,Q,Q
2023-03-15 13:01:19:591,0,-1.64166,-2.68853,-18.8442,Q,Q
2023-03-15 13:01:19:601,0,-2.3782,-2.84389,-18.9362,Q,Q
2023-03-15 13:01:19:611,0,-3.13126,-3.03276,-19.0345,Q,Q
2023-03-15 13:01:19:621,0,-3.89004,-3.25018,-19.1302,Q,Q
2023-03-15 13:01:19:631,0,-4.648,-3.49092,-19.221,Q,Q
2023-03-15 13:01:19:641,0,-5.39207,-3.74879,-19.2982,Q,Q
2023-03-15 13:01:19:651,0,-6.12356,-4.01234,-19.361,Q,Q
2023-03-15 13:01:19:661,0,-6.82975,-4.26805,-19.4129,Q,Q
2023-03-15 13:01:19:671,0,-7.51705,-4.5113,-19.4556,Q,Q
2023-03-15 13:01:19:681,0,-8.18307,-4.7476,-19.5037,Q,Q
2023-03-15 13:01:19:691,0,-8.81638,-4.96955,-19.5624,Q,Q
2023-03-15 13:01:19:701,0,-9.38514,-5.17344,-19.6464,Q,Q
2023-03-15 13:01:19:711,0,-9.8592,-5.34701,-19.7559,Q,Q
2023-03-15 13:01:19:721,0,-10.2411,-5.49533,-19.8981,Q,Q
2023-03-15 13:01:19:731,0,-10.5553,-5.62089,-20.0704,Q,Q
2023-03-15 13:01:19:741,0,-10.82,-5.73504,-20.2653,Q,Q
2023-03-15 13:01:19:751,0,-11.0715,-5.85877,-20.489,Q,Q
2023-03-15 13:01:19:761,0,-11.2755,-5.99611,-20.7458,Q,Q
2023-03-15 13:01:19:771,0,-11.458,-6.12722,-21.0223,Q,Q
2023-03-15 13:01:19:781,0,-11.6321,-6.2522,-21.322,Q,Q
2023-03-15 13:01:19:791,0,-11.8021,-6.39031,-21.6499,Q,Q
2023-03-15 13:01:19:801,0,-11.9671,-6.5261,-22.0064,Q,Q
2023-03-15 13:01:19:811,0,-12.1081,-6.66177,-22.3921,Q,Q
2023-03-15 13:01:19:820,0,-12.2161,-6.79316,-22.8009,Q,Q
2023-03-15 13:01:19:830,0,-12.2984,-6.9195,-23.2251,Q,Q
2023-03-15 13:01:19:840,0,-12.3604,-7.04148,-23.6676,Q,Q
2023-03-15 13:01:19:850,0,-12.4104,-7.16458,-24.125,Q,Q
2023-03-15 13:01:19:860,0,-12.4459,-7.28465,-24.6048,Q,Q
2023-03-15 13:01:19:870,0,-12.4624,-7.39575,-25.0982,Q,Q
2023-03-15 13:01:19:880,0,-12.4614,-7.50717,-25.586,Q,Q
2023-03-15 13:01:19:891,0,-12.4538,-7.61693,-26.0769,Q,Q
2023-03-15 13:01:19:901,0,-12.4425,-7.72667,-26.5742,Q,Q
2023-03-15 13:01:19:910,0,-12.4122,-7.83266,-27.0812,Q,Q
2023-03-15 13:01:19:920,0,-12.3697,-7.93813,-27.5863,Q,Q
2023-03-15 13:01:19:930,0,-12.3114,-8.03516,-28.0939,Q,Q
2023-03-15 13:01:19:941,0,-12.2506,-8.12637,-28.6012,Q,Q
2023-03-15 13:01:19:950,0,-12.1857,-8.22254,-29.1033,Q,Q
2023-03-15 13:01:19:961,0,-12.1312,-8.32091,-29.5999,Q,Q
2023-03-15 13:01:19:971,0,-12.0815,-8.42584,-30.0988,Q,Q
2023-03-15 13:01:19:981,0,-12.0315,-8.52763,-30.6057,Q,Q
2023-03-15 13:01:19:991,0,-11.9727,-8.62791,-31.1228,Q,Q
2023-03-15 13:01:20:1,0,-11.9089,-8.72837,-31.649,Q,Q
2023-03-15 13:01:20:11,0,-11.8356,-8.82444,-32.177,Q,Q
2023-03-15 13:01:20:21,0,-11.7569,-8.92152,-32.7061,Q,Q
2023-03-15 13:01:20:31,0,-11.677,-9.00987,-33.2233,Q,Q
2023-03-15 13:01:20:41,0,-11.6074,-9.09427,-33.7308,Q,Q
2023-03-15 13:01:20:51,0,-11.547,-9.17552,-34.2251,Q,Q
2023-03-15 13:01:20:61,0,-11.4873,-9.2482,-34.7057,Q,Q
2023-03-15 13:01:20:71,0,-11.4262,-9.31707,-35.1695,Q,Q
2023-03-15 13:01:20:81,0,-11.3476,-9.38444,-35.6181,Q,Q
2023-03-15 13:01:20:91,0,-11.2567,-9.44278,-36.048,Q,Q
2023-03-15 13:01:20:101,0,-11.1579,-9.49407,-36.4562,Q,Q
2023-03-15 13:01:20:111,0,-11.0572,-9.53893,-36.8395,Q,Q
2023-03-15 13:01:20:121,0,-10.9592,-9.57528,-37.2014,Q,Q
2023-03-15 13:01:20:131,0,-10.8697,-9.60165,-37.538,Q,Q
2023-03-15 13:01:20:141,0,-10.7933,-9.62131,-37.8462,Q,Q
2023-03-15 13:01:20:151,0,-10.7352,-9.62565,-38.1322,Q,Q
2023-03-15 13:01:20:161,0,-10.7018,-9.62408,-38.398,Q,Q
2023-03-15 13:01:20:171,0,-10.6903,-9.62323,-38.6381,Q,Q
2023-03-15 13:01:20:181,0,-10.6959,-9.62219,-38.8608,Q,Q
2023-03-15 13:01:20:191,0,-10.7217,-9.62351,-39.0656,Q,Q
2023-03-15 13:01:20:201,0,-10.752,-9.62428,-39.2558,Q,Q
2023-03-15 13:01:20:211,0,-10.7972,-9.62655,-39.4329,Q,Q
2023-03-15 13:01:20:221,0,-10.8484,-9.62205,-39.5938,Q,Q
2023-03-15 13:01:20:231,0,-10.9134,-9.61683,-39.736,Q,Q
2023-03-15 13:01:20:241,0,-10.9955,-9.61695,-39.8588,Q,Q
2023-03-15 13:01:20:251,0,-11.0892,-9.62821,-39.9693,Q,Q
2023-03-15 13:01:20:261,0,-11.1883,-9.64329,-40.064,Q,Q
2023-03-15 13:01:20:271,0,-11.2838,-9.6631,-40.1454,Q,Q
2023-03-15 13:01:20:281,0,-11.3721,-9.68803,-40.2204,Q,Q
2023-03-15 13:01:20:291,0,-11.4523,-9.71653,-40.2876,Q,Q
2023-03-15 13:01:20:301,0,-11.5257,-9.74049,-40.349,Q,Q
2023-03-15 13:01:20:311,0,-11.5973,-9.76162,-40.4081,Q,Q
2023-03-15 13:01:20:321,0,-11.6694,-9.77992,-40.4596,Q,Q
2023-03-15 13:01:20:331,0,-11.7432,-9.79698,-40.5102,Q,Q
2023-03-15 13:01:20:341,0,-11.8234,-9.81415,-40.5645,Q,Q
2023-03-15 13:01:20:351,0,-11.8929,-9.82991,-40.6206,Q,Q
2023-03-15 13:01:20:361,0,-11.9428,-9.83656,-40.6732,Q,Q
2023-03-15 13:01:20:371,0,-11.9601,-9.82984,-40.7193,Q,Q
2023-03-15 13:01:20:381,0,-11.957,-9.80842,-40.7594,Q,Q
2023-03-15 13:01:20:391,0,-11.939,-9.77953,-40.7884,Q,Q
2023-03-15 13:01:20:401,0,-11.9126,-9.73961,-40.8066,Q,Q
2023-03-15 13:01:20:411,0,-11.875,-9.70194,-40.8189,Q,Q
2023-03-15 13:01:20:421,0,-11.8238,-9.65431,-40.8106,Q,Q
2023-03-15 13:01:20:431,0,-11.7542,-9.60034,-40.7816,Q,Q
2023-03-15 13:01:20:441,0,-11.6697,-9.53735,-40.7299,Q,Q
2023-03-15 13:01:20:451,0,-11.5559,-9.45999,-40.643,Q,Q
2023-03-15 13:01:20:461,0,-11.4212,-9.35494,-40.5151,Q,Q
2023-03-15 13:01:20:471,0,-11.2684,-9.2279,-40.3434,Q,Q
2023-03-15 13:01:20:481,0,-11.118,-9.08164,-40.1285,Q,Q
2023-03-15 13:01:20:491,0,-10.97,-8.91584,-39.866,Q,Q
2023-03-15 13:01:20:501,0,-10.8165,-8.73138,-39.5458,Q,Q
2023-03-15 13:01:20:511,0,-10.6551,-8.51938,-39.1584,Q,Q
2023-03-15 13:01:20:521,0,-10.484,-8.2821,-38.6827,Q,Q
2023-03-15 13:01:20:531,0,-10.2963,-8.02231,-38.104,Q,Q
2023-03-15 13:01:20:541,0,-10.1035,-7.74482,-37.4186,Q,Q
2023-03-15 13:01:20:551,0,-9.91923,-7.44567,-36.6308,Q,Q
2023-03-15 13:01:20:561,0,-9.76367,-7.11796,-35.7476,Q,Q
2023-03-15 13:01:20:571,0,-9.64706,-6.76371,-34.7703,Q,Q
2023-03-15 13:01:20:581,0,-9.55785,-6.38313,-33.6965,Q,Q
2023-03-15 13:01:20:591,0,-9.48583,-5.9872,-32.526,Q,Q
2023-03-15 13:01:20:601,0,-9.42854,-5.57614,-31.2663,Q,Q
2023-03-15 13:01:20:611,0,-9.38894,-5.15658,-29.9455,Q,Q
2023-03-15 13:01:20:621,0,-9.36078,-4.7198,-28.5869,Q,Q
2023-03-15 13:01:20:631,0,-9.35413,-4.25321,-27.2007,Q,Q
2023-03-15 13:01:20:641,0,-9.37379,-3.75081,-25.797,Q,Q
2023-03-15 13:01:20:651,0,-9.41264,-3.21342,-24.3912,Q,Q
2023-03-15 13:01:20:661,0,-9.44256,-2.65305,-23.0223,Q,Q
2023-03-15 13:01:20:671,0,-9.42995,-2.09875,-21.7232,Q,Q
2023-03-15 13:01:20:681,0,-9.37689,-1.57691,-20.5196,Q,Q
2023-03-15 13:01:20:691,0,-9.29358,-1.09907,-19.4217,Q,Q
2023-03-15 13:01:20:701,0,-9.19594,-0.666453,-18.4282,Q,Q
2023-03-15 13:01:20:711,0,-9.09558,-0.281342,-17.5403,Q,Q
2023-03-15 13:01:20:721,0,-9.00485,0.0571978,-16.7565,Q,Q
2023-03-15 13:01:20:731,0,-8.93997,0.350133,-16.0759,Q,Q
2023-03-15 13:01:20:741,0,-8.89817,0.601066,-15.4971,Q,Q
2023-03-15 13:01:20:751,0,-8.86407,0.817465,-15.0061,Q,Q
2023-03-15 13:01:20:761,0,-8.8329,0.99727,-14.6005,Q,Q
2023-03-15 13:01:20:771,0,-8.80081,1.15008,-14.2697,Q,Q
2023-03-15 13:01:20:781,0,-8.76241,1.27113,-14.0023,Q,Q
2023-03-15 13:01:20:791,0,-8.72598,1.36172,-13.7969,Q,Q
2023-03-15 13:01:20:801,0,-8.68122,1.4235,-13.6375,Q,Q
2023-03-15 13:01:20:811,0,-8.63133,1.4629,-13.5212,Q,Q
2023-03-15 13:01:20:821,0,-8.57911,1.48007,-13.4365,Q,Q
2023-03-15 13:01:20:831,0,-8.53195,1.48086,-13.3829,Q,Q
2023-03-15 13:01:20:841,0,-8.48551,1.46896,-13.3561,Q,Q
2023-03-15 13:01:20:851,0,-8.43571,1.44589,-13.3471,Q,Q
2023-03-15 13:01:20:861,0,-8.37855,1.41949,-13.3463,Q,Q
2023-03-15 13:01:20:870,0,-8.31096,1.38941,-13.3507,Q,Q
2023-03-15 13:01:20:881,0,-8.23815,1.35747,-13.3477,Q,Q
2023-03-15 13:01:20:891,0,-8.17193,1.3229,-13.3368,Q,Q
2023-03-15 13:01:20:901,0,-8.1149,1.30059,-13.3191,Q,Q
2023-03-15 13:01:20:911,0,-8.06679,1.28597,-13.2919,Q,Q
2023-03-15 13:01:20:921,0,-8.02525,1.26842,-13.257,Q,Q
2023-03-15 13:01:20:931,0,-7.98073,1.24763,-13.2132,Q,Q
2023-03-15 13:01:20:941,0,-7.93061,1.22704,-13.1719,Q,Q
2023-03-15 13:01:20:951,0,-7.86163,1.21508,-13.1256,Q,Q
2023-03-15 13:01:20:961,0,-7.76695,1.2179,-13.0766,Q,Q
2023-03-15 13:01:20:971,0,-7.65756,1.22018,-13.0213,Q,Q
2023-03-15 13:01:20:981,0,-7.54803,1.2228,-12.9548,Q,Q
2023-03-15 13:01:20:991,0,-7.44294,1.21905,-12.8828,Q,Q
2023-03-15 13:01:21:1,0,-7.34505,1.20089,-12.8113,Q,Q
2023-03-15 13:01:21:11,0,-7.25252,1.17204,-12.7454,Q,Q
2023-03-15 13:01:21:21,0,-7.16004,1.14243,-12.6842,Q,Q
2023-03-15 13:01:21:31,0,-7.05834,1.10999,-12.6248,Q,Q
2023-03-15 13:01:21:41,0,-6.94247,1.07967,-12.5686,Q,Q
2023-03-15 13:01:21:51,0,-6.81939,1.05585,-12.5133,Q,Q
2023-03-15 13:01:21:61,0,-6.68648,1.02592,-12.4553,Q,Q
2023-03-15 13:01:21:71,0,-6.54938,0.994793,-12.4014,Q,Q
2023-03-15 13:01:21:81,0,-6.39666,0.962022,-12.3502,Q,Q
2023-03-15 13:01:21:91,0,-6.21873,0.924857,-12.297,Q,Q
2023-03-15 13:01:21:101,0,-6.01032,0.887694,-12.244,Q,Q
2023-03-15 13:01:21:111,0,-5.78083,0.855144,-12.1817,Q,Q
2023-03-15 13:01:21:121,0,-5.54375,0.827123,-12.1132,Q,Q
2023-03-15 13:01:21:131,0,-5.31027,0.797799,-12.0317,Q,Q
2023-03-15 13:01:21:141,0,-5.0945,0.76718,-11.9461,Q,Q
2023-03-15 13:01:21:151,0,-4.90146,0.739143,-11.8618,Q,Q
2023-03-15 13:01:21:161,0,-4.72856,0.712328,-11.7739,Q,Q
2023-03-15 13:01:21:171,0,-4.57752,0.681984,-11.6888,Q,Q
2023-03-15 13:01:21:181,0,-4.451,0.642219,-11.6085,Q,Q
2023-03-15 13:01:21:191,0,-4.3547,0.587717,-11.534,Q,Q
2023-03-15 13:01:21:201,0,-4.29662,0.52075,-11.4712,Q,Q
2023-03-15 13:01:21:211,0,-4.26338,0.450217,-11.4248,Q,Q
2023-03-15 13:01:21:221,0,-4.23855,0.377862,-11.3922,Q,Q
2023-03-15 13:01:21:231,0,-4.2126,0.301242,-11.3697,Q,Q
2023-03-15 13:01:21:241,0,-4.18804,0.217631,-11.3598,Q,Q
2023-03-15 13:01:21:251,0,-4.16062,0.137083,-11.356,Q,Q
2023-03-15 13:01:21:261,0,-4.13113,0.0574883,-11.3596,Q,Q
2023-03-15 13:01:21:271,0,-4.09908,-0.0192333,-11.359,Q,Q
2023-03-15 13:01:21:281,0,-4.06446,-0.0896589,-11.3658,Q,Q
2023-03-15 13:01:21:291,0,-4.03561,-0.15675,-11.3772,Q,Q
2023-03-15 13:01:21:301,0,-4.02128,-0.211902,-11.3884,Q,Q
2023-03-15 13:01:21:311,0,-4.02119,-0.257666,-11.411,Q,Q
2023-03-15 13:01:21:321,0,-4.01111,-0.298547,-11.4421,Q,Q
2023-03-15 13:01:21:331,0,-3.98012,-0.334028,-11.4678,Q,Q
2023-03-15 13:01:21:341,0,-3.93951,-0.358136,-11.4903,Q,Q
2023-03-15 13:01:21:351,0,-3.87997,-0.366313,-11.5069,Q,Q
2023-03-15 13:01:21:361,0,-3.80959,-0.366311,-11.519,Q,Q
2023-03-15 13:01:21:371,0,-3.73906,-0.361008,-11.5204,Q,Q
2023-03-15 13:01:21:381,0,-3.68115,-0.348288,-11.5153,Q,Q
2023-03-15 13:01:21:391,0,-3.6367,-0.338888,-11.5111,Q,Q
2023-03-15 13:01:21:401,0,-3.6009,-0.328913,-11.5076,Q,Q
2023-03-15 13:01:21:411,0,-3.57124,-0.32129,-11.4994,Q,Q
2023-03-15 13:01:21:421,0,-3.56634,-0.311476,-11.4906,Q,Q
2023-03-15 13:01:21:431,0,-3.58065,-0.307586,-11.4811,Q,Q
2023-03-15 13:01:21:441,0,-3.60255,-0.312372,-11.4638,Q,Q
2023-03-15 13:01:21:451,0,-3.6273,-0.319915,-11.4426,Q,Q
2023-03-15 13:01:21:461,0,-3.65728,-0.326919,-11.4167,Q,Q
2023-03-15 13:01:21:471,0,-3.70468,-0.338133,-11.3914,Q,Q
2023-03-15 13:01:21:481,0,-3.78192,-0.342531,-11.3685,Q,Q
2023-03-15 13:01:21:491,0,-3.91233,-0.327907,-11.3546,Q,Q
2023-03-15 13:01:21:501,0,-4.09273,-0.298129,-11.3511,Q,Q
2023-03-15 13:01:21:511,0,-4.29823,-0.268465,-11.3611,Q,Q
2023-03-15 13:01:21:521,0,-4.49984,-0.244475,-11.3812,Q,Q
2023-03-15 13:01:21:531,0,-4.67733,-0.223108,-11.4067,Q,Q
2023-03-15 13:01:21:541,0,-4.82088,-0.209312,-11.4273,Q,Q
2023-03-15 13:01:21:551,0,-4.95699,-0.195517,-11.4413,Q,Q
2023-03-15 13:01:21:561,0,-5.09518,-0.186001,-11.4506,Q,Q
2023-03-15 13:01:21:571,0,-5.25495,-0.180463,-11.46,Q,Q
2023-03-15 13:01:21:581,0,-5.43376,-0.178347,-11.4693,Q,Q
2023-03-15 13:01:21:591,0,-5.60658,-0.182242,-11.4836,Q,Q
2023-03-15 13:01:21:601,0,-5.74731,-0.191414,-11.4945,Q,Q
2023-03-15 13:01:21:611,0,-5.84837,-0.207898,-11.4947,Q,Q
2023-03-15 13:01:21:621,0,-5.91852,-0.226322,-11.4809,Q,Q
2023-03-15 13:01:21:631,0,-5.97313,-0.251083,-11.4541,Q,Q
2023-03-15 13:01:21:641,0,-6.02615,-0.284157,-11.4182,Q,Q
2023-03-15 13:01:21:651,0,-6.08364,-0.322112,-11.3754,Q,Q
2023-03-15 13:01:21:661,0,-6.13913,-0.366238,-11.3324,Q,Q
2023-03-15 13:01:21:671,0,-6.18891,-0.419063,-11.2933,Q,Q
2023-03-15 13:01:21:681,0,-6.23473,-0.47695,-11.2515,Q,Q
2023-03-15 13:01:21:691,0,-6.26724,-0.540074,-11.2116,Q,Q
2023-03-15 13:01:21:701,0,-6.28903,-0.611402,-11.17,Q,Q
2023-03-15 13:01:21:711,0,-6.29529,-0.680307,-11.1296,Q,Q
2023-03-15 13:01:21:721,0,-6.29471,-0.75551,-11.0838,Q,Q
2023-03-15 13:01:21:731,0,-6.29146,-0.828123,-11.0351,Q,Q
2023-03-15 13:01:21:741,0,-6.28458,-0.904065,-10.9794,Q,Q
2023-03-15 13:01:21:751,0,-6.28058,-0.974625,-10.919,Q,Q
2023-03-15 13:01:21:761,0,-6.28233,-1.04067,-10.8537,Q,Q
2023-03-15 13:01:21:771,0,-6.28376,-1.1098,-10.7853,Q,Q
2023-03-15 13:01:21:781,0,-6.29076,-1.17737,-10.7104,Q,Q
2023-03-15 13:01:21:791,0,-6.2965,-1.24474,-10.6282,Q,Q
2023-03-15 13:01:21:801,0,-6.30624,-1.3116,-10.5418,Q,Q
2023-03-15 13:01:21:811,0,-6.3187,-1.37327,-10.4641,Q,Q
2023-03-15 13:01:21:821,0,-6.32661,-1.42858,-10.3885,Q,Q
2023-03-15 13:01:21:831,0,-6.33673,-1.48326,-10.3166,Q,Q
2023-03-15 13:01:21:841,0,-6.3525,-1.53136,-10.2484,Q,Q
2023-03-15 13:01:21:851,0,-6.38303,-1.57586,-10.1871,Q,Q
2023-03-15 13:01:21:861,0,-6.41675,-1.62051,-10.1379,Q,Q
2023-03-15 13:01:21:871,0,-6.44519,-1.65988,-10.0956,Q,Q
2023-03-15 13:01:21:881,0,-6.46329,-1.69571,-10.056,Q,Q
2023-03-15 13:01:21:891,0,-6.46572,-1.72611,-10.0139,Q,Q
2023-03-15 13:01:21:901,0,-6.44767,-1.75003,-9.9691,Q,Q
2023-03-15 13:01:21:911,0,-6.41813,-1.76687,-9.92525,Q,Q
2023-03-15 13:01:21:921,0,-6.38357,-1.77694,-9.88029,Q,Q
2023-03-15 13:01:21:931,0,-6.35299,-1.78401,-9.82921,Q,Q
2023-03-15 13:01:21:941,0,-6.31771,-1.78752,-9.77726,Q,Q
2023-03-15 13:01:21:951,0,-6.28028,-1.78445,-9.72702,Q,Q
2023-03-15 13:01:21:961,0,-6.23918,-1.77813,-9.67661,Q,Q
2023-03-15 13:01:21:971,0,-6.20368,-1.77627,-9.63128,Q,Q
2023-03-15 13:01:21:981,0,-6.16234,-1.7732,-9.58687,Q,Q
2023-03-15 13:01:21:991,0,-6.11159,-1.77302,-9.54841,Q,Q
2023-03-15 13:01:22:1,0,-6.04429,-1.77495,-9.51002,Q,Q
2023-03-15 13:01:22:11,0,-5.97299,-1.77795,-9.46931,Q,Q
2023-03-15 13:01:22:21,0,-5.89297,-1.78226,-9.42956,Q,Q
2023-03-15 13:01:22:31,0,-5.81879,-1.79,-9.38559,Q,Q
2023-03-15 13:01:22:41,0,-5.74851,-1.80124,-9.34663,Q,Q
2023-03-15 13:01:22:51,0,-5.68206,-1.81178,-9.30766,Q,Q
2023-03-15 13:01:22:61,0,-5.62359,-1.82673,-9.26762,Q,Q
2023-03-15 13:01:22:71,0,-5.57696,-1.8384,-9.23083,Q,Q
2023-03-15 13:01:22:81,0,-5.54048,-1.853,-9.19987,Q,Q
2023-03-15 13:01:22:91,0,-5.51153,-1.87128,-9.17105,Q,Q
2023-03-15 13:01:22:101,0,-5.48443,-1.89092,-9.14291,Q,Q
2023-03-15 13:01:22:111,0,-5.44981,-1.911,-9.11369,Q,Q
2023-03-15 13:01:22:121,0,-5.40679,-1.93717,-9.08744,Q,Q
2023-03-15 13:01:22:131,0,-5.35348,-1.96266,-9.06064,Q,Q
2023-03-15 13:01:22:141,0,-5.28962,-1.9957,-9.03094,Q,Q
2023-03-15 13:01:22:151,0,-5.22038,-2.0298,-9.00408,Q,Q
2023-03-15 13:01:22:161,0,-5.14068,-2.06971,-8.9772,Q,Q
2023-03-15 13:01:22:171,0,-5.04843,-2.11431,-8.94861,Q,Q
2023-03-15 13:01:22:181,0,-4.94617,-2.16207,-8.92453,Q,Q
2023-03-15 13:01:22:191,0,-4.84151,-2.21565,-8.90434,Q,Q
2023-03-15 13:01:22:201,0,-4.73034,-2.27335,-8.88979,Q,Q
2023-03-15 13:01:22:211,0,-4.60928,-2.33826,-8.88583,Q,Q
2023-03-15 13:01:22:221,0,-4.4743,-2.41571,-8.89446,Q,Q
2023-03-15 13:01:22:231,0,-4.31801,-2.5127,-8.91515,Q,Q
2023-03-15 13:01:22:241,0,-4.14334,-2.6262,-8.93836,Q,Q
2023-03-15 13:01:22:251,0,-3.95166,-2.76124,-8.96151,Q,Q
2023-03-15 13:01:22:261,0,-3.74157,-2.91114,-8.98256,Q,Q
2023-03-15 13:01:22:271,0,-3.52212,-3.07463,-8.99699,Q,Q
2023-03-15 13:01:22:281,0,-3.31137,-3.24571,-9.001,Q,Q
2023-03-15 13:01:22:291,0,-3.11254,-3.42525,-8.99358,Q,Q
2023-03-15 13:01:22:301,0,-2.93569,-3.60262,-8.97893,Q,Q
2023-03-15 13:01:22:311,0,-2.78583,-3.78189,-8.95112,Q,Q
2023-03-15 13:01:22:321,0,-2.66195,-3.96754,-8.91506,Q,Q
2023-03-15 13:01:22:331,0,-2.5714,-4.15021,-8.87568,Q,Q
2023-03-15 13:01:22:341,0,-2.5064,-4.32695,-8.82663,Q,Q
2023-03-15 13:01:22:351,0,-2.44823,-4.50232,-8.77077,Q,Q
2023-03-15 13:01:22:361,0,-2.39537,-4.67212,-8.71056,Q,Q
2023-03-15 13:01:22:371,0,-2.33949,-4.82811,-8.64689,Q,Q
2023-03-15 13:01:22:381,0,-2.27932,-4.96669,-8.58105,Q,Q
2023-03-15 13:01:22:391,0,-2.21769,-5.08779,-8.50666,Q,Q
2023-03-15 13:01:22:401,0,-2.15495,-5.19457,-8.42786,Q,Q
2023-03-15 13:01:22:411,0,-2.09211,-5.29384,-8.34586,Q,Q
2023-03-15 13:01:22:421,0,-2.02967,-5.38485,-8.25631,Q,Q
2023-03-15 13:01:22:431,0,-1.9681,-5.46428,-8.1621,Q,Q
2023-03-15 13:01:22:441,0,-1.90068,-5.53788,-8.05815,Q,Q
2023-03-15 13:01:22:451,0,-1.83146,-5.61174,-7.95006,Q,Q
2023-03-15 13:01:22:461,0,-1.75894,-5.6776,-7.83248,Q,Q
2023-03-15 13:01:22:471,0,-1.68447,-5.74262,-7.70624,Q,Q
2023-03-15 13:01:22:481,0,-1.60931,-5.80475,-7.5752,Q,Q
2023-03-15 13:01:22:491,0,-1.53494,-5.86327,-7.43707,Q,Q
2023-03-15 13:01:22:501,0,-1.46543,-5.91154,-7.29575,Q,Q
2023-03-15 13:01:22:511,0,-1.40288,-5.95694,-7.15073,Q,Q
2023-03-15 13:01:22:521,0,-1.34942,-6.00168,-7.00396,Q,Q
2023-03-15 13:01:22:531,0,-1.3104,-6.03959,-6.85632,Q,Q
2023-03-15 13:01:22:541,0,-1.27484,-6.07306,-6.70743,Q,Q
2023-03-15 13:01:22:551,0,-1.25103,-6.10564,-6.55897,Q,Q
2023-03-15 13:01:22:561,0,-1.23441,-6.13319,-6.41466,Q,Q
2023-03-15 13:01:22:571,0,-1.22971,-6.15704,-6.27062,Q,Q
2023-03-15 13:01:22:581,0,-1.23177,-6.17263,-6.13016,Q,Q
2023-03-15 13:01:22:591,0,-1.24289,-6.19129,-5.99134,Q,Q
2023-03-15 13:01:22:601,0,-1.26251,-6.20502,-5.85976,Q,Q
2023-03-15 13:01:22:611,0,-1.28489,-6.2165,-5.73772,Q,Q
2023-03-15 13:01:22:621,0,-1.3112,-6.22464,-5.6206,Q,Q
2023-03-15 13:01:22:631,0,-1.33816,-6.23017,-5.5082,Q,Q
2023-03-15 13:01:22:641,0,-1.36901,-6.23454,-5.39911,Q,Q
2023-03-15 13:01:22:651,0,-1.39816,-6.23256,-5.29676,Q,Q
2023-03-15 13:01:22:661,0,-1.43261,-6.22819,-5.19924,Q,Q
2023-03-15 13:01:22:671,0,-1.46419,-6.22254,-5.10807,Q,Q
2023-03-15 13:01:22:681,0,-1.49805,-6.2125,-5.01999,Q,Q
2023-03-15 13:01:22:691,0,-1.52929,-6.20327,-4.93876,Q,Q
2023-03-15 13:01:22:701,0,-1.55963,-6.19364,-4.85759,Q,Q
2023-03-15 13:01:22:711,0,-1.58981,-6.18893,-4.77992,Q,Q
2023-03-15 13:01:22:721,0,-1.62106,-6.18549,-4.70494,Q,Q
2023-03-15 13:01:22:731,0,-1.64886,-6.18228,-4.63884,Q,Q
2023-03-15 13:01:22:741,0,-1.67174,-6.17935,-4.57708,Q,Q
2023-03-15 13:01:22:751,0,-1.68779,-6.1773,-4.52038,Q,Q
2023-03-15 13:01:22:761,0,-1.69546,-6.17675,-4.46244,Q,Q
2023-03-15 13:01:22:771,0,-1.69749,-6.17566,-4.4079,Q,Q
2023-03-15 13:01:22:781,0,-1.69868,-6.17327,-4.35649,Q,Q
2023-03-15 13:01:22:791,0,-1.69763,-6.16705,-4.31073,Q,Q
2023-03-15 13:01:22:801,0,-1.69898,-6.16348,-4.26549,Q,Q
2023-03-15 13:01:22:811,0,-1.69817,-6.15776,-4.22325,Q,Q
2023-03-15 13:01:22:821,0,-1.70093,-6.14805,-4.18174,Q,Q
2023-03-15 13:01:22:831,0,-1.705,-6.14838,-4.13928,Q,Q
2023-03-15 13:01:22:841,0,-1.7119,-6.1442,-4.09617,Q,Q
2023-03-15 13:01:22:851,0,-1.7137,-6.14493,-4.05365,Q,Q
2023-03-15 13:01:22:861,0,-1.71766,-6.14705,-4.00926,Q,Q
2023-03-15 13:01:22:871,0,-1.7255,-6.14933,-3.96724,Q,Q
2023-03-15 13:01:22:881,0,-1.73715,-6.15069,-3.92463,Q,Q
2023-03-15 13:01:22:891,0,-1.74992,-6.15373,-3.88305,Q,Q
2023-03-15 13:01:22:901,0,-1.76456,-6.15391,-3.8435,Q,Q
2023-03-15 13:01:22:911,0,-1.77574,-6.15511,-3.80569,Q,Q
2023-03-15 13:01:22:921,0,-1.78899,-6.15721,-3.7673,Q,Q
2023-03-15 13:01:22:931,0,-1.80199,-6.15746,-3.72229,Q,Q
2023-03-15 13:01:22:941,0,-1.81566,-6.15648,-3.67629,Q,Q
2023-03-15 13:01:22:951,0,-1.82556,-6.16268,-3.63087,Q,Q
2023-03-15 13:01:22:961,0,-1.83257,-6.16566,-3.58654,Q,Q
2023-03-15 13:01:22:971,0,-1.83913,-6.16774,-3.54066,Q,Q
2023-03-15 13:01:22:981,0,-1.84146,-6.17524,-3.48413,Q,Q
2023-03-15 13:01:22:991,0,-1.83804,-6.18297,-3.40884,Q,Q
2023-03-15 13:01:23:1,0,-1.83812,-6.20169,-3.31467,Q,Q
2023-03-15 13:01:23:11,0,-1.84307,-6.22605,-3.20066,Q,Q
2023-03-15 13:01:23:21,0,-1.85365,-6.25178,-3.08013,Q,Q
2023-03-15 13:01:23:31,0,-1.87528,-6.27293,-2.954,Q,Q
2023-03-15 13:01:23:41,0,-1.90053,-6.29356,-2.82354,Q,Q
2023-03-15 13:01:23:51,0,-1.9289,-6.3089,-2.68811,Q,Q
2023-03-15 13:01:23:61,0,-1.95314,-6.31995,-2.55505,Q,Q
2023-03-15 13:01:23:71,0,-1.97407,-6.32876,-2.42261,Q,Q
2023-03-15 13:01:23:81,0,-1.99539,-6.33004,-2.292,Q,Q
2023-03-15 13:01:23:91,0,-2.0191,-6.32769,-2.16447,Q,Q
2023-03-15 13:01:23:101,0,-2.04027,-6.32123,-2.04781,Q,Q
2023-03-15 13:01:23:111,0,-2.06101,-6.30956,-1.94006,Q,Q
2023-03-15 13:01:23:121,0,-2.07872,-6.29817,-1.84422,Q,Q
2023-03-15 13:01:23:131,0,-2.09834,-6.28286,-1.75442,Q,Q
2023-03-15 13:01:23:141,0,-2.11494,-6.25981,-1.6717,Q,Q
2023-03-15 13:01:23:151,0,-2.13547,-6.24041,-1.59341,Q,Q
2023-03-15 13:01:23:161,0,-2.15705,-6.22,-1.52198,Q,Q
2023-03-15 13:01:23:171,0,-2.18243,-6.20004,-1.45765,Q,Q
2023-03-15 13:01:23:181,0,-2.20825,-6.18445,-1.39776,Q,Q
2023-03-15 13:01:23:191,0,-2.23518,-6.16995,-1.3375,Q,Q
2023-03-15 13:01:23:201,0,-2.26195,-6.15882,-1.28747,Q,Q
2023-03-15 13:01:23:211,0,-2.28656,-6.14729,-1.24509,Q,Q
2023-03-15 13:01:23:221,0,-2.30069,-6.1376,-1.20251,Q,Q
2023-03-15 13:01:23:231,0,-2.31154,-6.1349,-1.15853,Q,Q
2023-03-15 13:01:23:241,0,-2.31276,-6.1395,-1.11441,Q,Q
2023-03-15 13:01:23:251,0,-2.31499,-6.14686,-1.06864,Q,Q
2023-03-15 13:01:23:261,0,-2.32598,-6.15795,-1.01889,Q,Q
2023-03-15 13:01:23:271,0,-2.35499,-6.16827,-0.965169,Q,Q
2023-03-15 13:01:23:281,0,-2.4058,-6.18598,-0.912593,Q,Q
2023-03-15 13:01:23:291,0,-2.46019,-6.20131,-0.865065,Q,Q
2023-03-15 13:01:23:301,0,-2.51412,-6.21816,-0.823153,Q,Q
2023-03-15 13:01:23:311,0,-2.5619,-6.23204,-0.781171,Q,Q
2023-03-15 13:01:23:321,0,-2.60296,-6.2453,-0.739382,Q,Q
2023-03-15 13:01:23:331,0,-2.63899,-6.25398,-0.698552,Q,Q
2023-03-15 13:01:23:341,0,-2.6699,-6.2654,-0.655791,Q,Q
2023-03-15 13:01:23:351,0,-2.68835,-6.273,-0.612169,Q,Q
2023-03-15 13:01:23:361,0,-2.70257,-6.28496,-0.567447,Q,Q
2023-03-15 13:01:23:371,0,-2.71521,-6.29466,-0.515277,Q,Q
2023-03-15 13:01:23:381,0,-2.72183,-6.30388,-0.455579,Q,Q
2023-03-15 13:01:23:391,0,-2.728,-6.31266,-0.397255,Q,Q
2023-03-15 13:01:23:401,0,-2.72843,-6.31339,-0.336967,Q,Q
2023-03-15 13:01:23:411,0,-2.72282,-6.30963,-0.276464,Q,Q
2023-03-15 13:01:23:421,0,-2.71296,-6.31068,-0.21476,Q,Q
2023-03-15 13:01:23:431,0,-2.70075,-6.31323,-0.152045,Q,Q
2023-03-15 13:01:23:441,0,-2.68791,-6.31848,-0.0882359,Q,Q
2023-03-15 13:01:23:451,0,-2.67832,-6.33391,-0.0238064,Q,Q
2023-03-15 13:01:23:461,0,-2.66707,-6.35189,0.0349628,Q,Q
2023-03-15 13:01:23:471,0,-2.65457,-6.37039,0.0895306,Q,Q
2023-03-15 13:01:23:481,0,-2.64005,-6.38815,0.140159,Q,Q
2023-03-15 13:01:23:491,0,-2.63384,-6.40359,0.185096,Q,Q
2023-03-15 13:01:23:501,0,-2.63532,-6.41725,0.228475,Q,Q
2023-03-15 13:01:23:511,0,-2.64543,-6.43038,0.259977,Q,Q
2023-03-15 13:01:23:521,0,-2.6618,-6.44536,0.289573,Q,Q
2023-03-15 13:01:23:531,0,-2.68531,-6.46258,0.316538,Q,Q
2023-03-15 13:01:23:541,0,-2.71192,-6.48534,0.345837,Q,Q
2023-03-15 13:01:23:551,0,-2.74391,-6.5161,0.378218,Q,Q
2023-03-15 13:01:23:561,0,-2.77536,-6.54737,0.409862,Q,Q
2023-03-15 13:01:23:571,0,-2.80053,-6.57741,0.443835,Q,Q
2023-03-15 13:01:23:581,0,-2.82563,-6.59904,0.478326,Q,Q
2023-03-15 13:01:23:591,0,-2.85494,-6.61726,0.516863,Q,Q
2023-03-15 13:01:23:601,0,-2.88635,-6.63151,0.553818,Q,Q
2023-03-15 13:01:23:611,0,-2.91948,-6.63917,0.594203,Q,Q
2023-03-15 13:01:23:621,0,-2.9546,-6.63574,0.637316,Q,Q
2023-03-15 13:01:23:631,0,-2.98599,-6.62974,0.685353,Q,Q
2023-03-15 13:01:23:641,0,-3.02069,-6.62407,0.737368,Q,Q
2023-03-15 13:01:23:651,0,-3.05427,-6.6197,0.794733,Q,Q
2023-03-15 13:01:23:661,0,-3.08844,-6.61833,0.85696,Q,Q
2023-03-15 13:01:23:671,0,-3.11796,-6.62124,0.924724,Q,Q
2023-03-15 13:01:23:681,0,-3.14125,-6.61691,0.995425,Q,Q
2023-03-15 13:01:23:691,0,-3.16489,-6.6092,1.07283,Q,Q
2023-03-15 13:01:23:701,0,-3.19164,-6.60044,1.14865,Q,Q
2023-03-15 13:01:23:711,0,-3.21997,-6.58489,1.22882,Q,Q
2023-03-15 13:01:23:721,0,-3.24549,-6.56799,1.31154,Q,Q
2023-03-15 13:01:23:731,0,-3.27118,-6.54697,1.40109,Q,Q
2023-03-15 13:01:23:741,0,-3.2919,-6.5275,1.49139,Q,Q
2023-03-15 13:01:23:751,0,-3.3121,-6.51289,1.58991,Q,Q
2023-03-15 13:01:23:761,0,-3.32725,-6.49891,1.69195,Q,Q
2023-03-15 13:01:23:771,0,-3.33917,-6.48462,1.79481,Q,Q
2023-03-15 13:01:23:781,0,-3.35179,-6.4713,1.89491,Q,Q
2023-03-15 13:01:23:791,0,-3.36942,-6.45368,1.99105,Q,Q
2023-03-15 13:01:23:801,0,-3.38929,-6.43511,2.08476,Q,Q
2023-03-15 13:01:23:811,0,-3.41414,-6.4096,2.16978,Q,Q
2023-03-15 13:01:23:821,0,-3.44241,-6.38192,2.24875,Q,Q
2023-03-15 13:01:23:831,0,-3.46824,-6.35413,2.31642,Q,Q
2023-03-15 13:01:23:841,0,-3.49257,-6.32656,2.38051,Q,Q
2023-03-15 13:01:23:851,0,-3.51566,-6.30266,2.44162,Q,Q
2023-03-15 13:01:23:861,0,-3.53654,-6.28172,2.4993,Q,Q
2023-03-15 13:01:23:871,0,-3.55846,-6.2667,2.55594,Q,Q
2023-03-15 13:01:23:881,0,-3.57736,-6.25503,2.60593,Q,Q
2023-03-15 13:01:23:891,0,-3.5971,-6.25193,2.65144,Q,Q
2023-03-15 13:01:23:901,0,-3.61423,-6.25193,2.69751,Q,Q
2023-03-15 13:01:23:911,0,-3.63248,-6.25719,2.73654,Q,Q
2023-03-15 13:01:23:921,0,-3.64732,-6.26748,2.76996,Q,Q
2023-03-15 13:01:23:931,0,-3.66063,-6.27928,2.80358,Q,Q
2023-03-15 13:01:23:941,0,-3.67956,-6.29153,2.83471,Q,Q
2023-03-15 13:01:23:951,0,-3.69859,-6.3056,2.86409,Q,Q
2023-03-15 13:01:23:961,0,-3.72707,-6.32089,2.89464,Q,Q
2023-03-15 13:01:23:971,0,-3.75469,-6.33776,2.92904,Q,Q
2023-03-15 13:01:23:981,0,-3.78495,-6.35691,2.96311,Q,Q
2023-03-15 13:01:23:991,0,-3.81504,-6.37859,3.00011,Q,Q
2023-03-15 13:01:24:1,0,-3.83616,-6.39956,3.03518,Q,Q
2023-03-15 13:01:24:11,0,-3.85757,-6.41983,3.07523,Q,Q
2023-03-15 13:01:24:21,0,-3.87561,-6.43823,3.11727,Q,Q
2023-03-15 13:01:24:31,0,-3.89579,-6.45678,3.16187,Q,Q
2023-03-15 13:01:24:41,0,-3.91485,-6.46912,3.20379,Q,Q
2023-03-15 13:01:24:51,0,-3.93169,-6.47801,3.24092,Q,Q
2023-03-15 13:01:24:61,0,-3.94457,-6.48166,3.2748,Q,Q
2023-03-15 13:01:24:71,0,-3.94992,-6.48062,3.30103,Q,Q
2023-03-15 13:01:24:81,0,-3.94897,-6.46941,3.31954,Q,Q
2023-03-15 13:01:24:91,0,-3.94863,-6.45253,3.33978,Q,Q
2023-03-15 13:01:24:101,0,-3.94455,-6.43344,3.35775,Q,Q
2023-03-15 13:01:24:111,0,-3.94018,-6.41644,3.37173,Q,Q
2023-03-15 13:01:24:121,0,-3.93599,-6.40059,3.38477,Q,Q
2023-03-15 13:01:24:131,0,-3.93526,-6.38654,3.40027,Q,Q
2023-03-15 13:01:24:141,0,-3.93733,-6.37654,3.41524,Q,Q
2023-03-15 13:01:24:151,0,-3.93954,-6.36737,3.42834,Q,Q
2023-03-15 13:01:24:161,0,-3.94335,-6.36922,3.44483,Q,Q
2023-03-15 13:01:24:171,0,-3.94844,-6.37195,3.46082,Q,Q
2023-03-15 13:01:24:181,0,-3.95552,-6.37683,3.47743,Q,Q
2023-03-15 13:01:24:191,0,-3.95584,-6.381,3.49488,Q,Q
2023-03-15 13:01:24:201,0,-3.9629,-6.38661,3.51217,Q,Q
2023-03-15 13:01:24:211,0,-3.96934,-6.39139,3.52898,Q,Q
2023-03-15 13:01:24:221,0,-3.9687,-6.39653,3.54634,Q,Q
2023-03-15 13:01:24:230,0,-3.96902,-6.40164,3.56416,Q,Q
2023-03-15 13:01:24:241,0,-3.97095,-6.40435,3.58271,Q,Q
2023-03-15 13:01:24:251,0,-3.97134,-6.40266,3.60114,Q,Q
2023-03-15 13:01:24:261,0,-3.96872,-6.4043,3.61518,Q,Q
2023-03-15 13:01:24:271,0,-3.96633,-6.40202,3.632,Q,Q
2023-03-15 13:01:24:281,0,-3.96659,-6.40046,3.64892,Q,Q
2023-03-15 13:01:24:291,0,-3.96423,-6.39851,3.66726,Q,Q
2023-03-15 13:01:24:301,0,-3.96527,-6.39697,3.68764,Q,Q
2023-03-15 13:01:24:310,0,-3.96422,-6.39501,3.70556,Q,Q
2023-03-15 13:01:24:321,0,-3.96147,-6.40043,3.72127,Q,Q
2023-03-15 13:01:24:331,0,-3.95843,-6.40506,3.73796,Q,Q
2023-03-15 13:01:24:341,0,-3.9561,-6.41123,3.75456,Q,Q
2023-03-15 13:01:24:351,0,-3.95663,-6.41694,3.76981,Q,Q
2023-03-15 13:01:24:361,0,-3.95288,-6.42322,3.78596,Q,Q
2023-03-15 13:01:24:371,0,-3.95173,-6.42988,3.79854,Q,Q
2023-03-15 13:01:24:381,0,-3.95385,-6.4387,3.8087,Q,Q
2023-03-15 13:01:24:391,0,-3.95422,-6.44611,3.81576,Q,Q
2023-03-15 13:01:24:401,0,-3.95291,-6.45516,3.81899,Q,Q
2023-03-15 13:01:24:411,0,-3.95349,-6.46597,3.82048,Q,Q
2023-03-15 13:01:24:421,0,-3.95117,-6.47675,3.82429,Q,Q
2023-03-15 13:01:24:431,0,-3.94711,-6.49173,3.82175,Q,Q
2023-03-15 13:01:24:441,0,-3.94759,-6.50476,3.81632,Q,Q
2023-03-15 13:01:24:451,0,-3.94672,-6.5179,3.80764,Q,Q
2023-03-15 13:01:24:461,0,-3.95002,-6.52849,3.79584,Q,Q
2023-03-15 13:01:24:471,0,-3.95185,-6.53701,3.78581,Q,Q
2023-03-15 13:01:24:481,0,-3.9561,-6.54044,3.77718,Q,Q
2023-03-15 13:01:24:491,0,-3.96115,-6.54604,3.76472,Q,Q
2023-03-15 13:01:24:501,0,-3.9652,-6.5508,3.75538,Q,Q
2023-03-15 13:01:24:511,0,-3.96827,-6.55443,3.74443,Q,Q
2023-03-15 13:01:24:521,0,-3.97425,-6.56099,3.73457,Q,Q
2023-03-15 13:01:24:531,0,-3.97644,-6.55997,3.72683,Q,Q
2023-03-15 13:01:24:541,0,-3.97976,-6.56204,3.724,Q,Q
2023-03-15 13:01:24:551,0,-3.98393,-6.56156,3.72322,Q,Q
2023-03-15 13:01:24:561,0,-3.98541,-6.55958,3.7235,Q,Q
2023-03-15 13:01:24:571,0,-3.98417,-6.55598,3.72827,Q,Q
2023-03-15 13:01:24:581,0,-3.98087,-6.55062,3.73467,Q,Q
2023-03-15 13:01:24:591,0,-3.98373,-6.54383,3.74223,Q,Q
2023-03-15 13:01:24:601,0,-3.98544,-6.53296,3.75773,Q,Q
2023-03-15 13:01:24:611,0,-3.98606,-6.51758,3.77573,Q,Q
2023-03-15 13:01:24:621,0,-3.98162,-6.50621,3.80122,Q,Q
2023-03-15 13:01:24:631,0,-3.98039,-6.50342,3.83269,Q,Q
2023-03-15 13:01:24:641,0,-3.98706,-6.50167,3.86847,Q,Q
2023-03-15 13:01:24:651,0,-4.00549,-6.49971,3.901,Q,Q
2023-03-15 13:01:24:661,0,-4.02695,-6.49574,3.9332,Q,Q
2023-03-15 13:01:24:671,0,-4.05615,-6.48943,3.96441,Q,Q
2023-03-15 13:01:24:681,0,-4.09268,-6.48503,3.99332,Q,Q
2023-03-15 13:01:24:691,0,-4.13985,-6.47976,4.02095,Q,Q
2023-03-15 13:01:24:701,0,-4.20073,-6.47052,4.04542,Q,Q
2023-03-15 13:01:24:711,0,-4.27067,-6.46301,4.06625,Q,Q
2023-03-15 13:01:24:721,0,-4.34733,-6.45467,4.08326,Q,Q
2023-03-15 13:01:24:731,0,-4.43484,-6.44847,4.09801,Q,Q
2023-03-15 13:01:24:740,0,-4.53979,-6.43986,4.10975,Q,Q
2023-03-15 13:01:24:751,0,-4.65834,-6.43309,4.11526,Q,Q
2023-03-15 13:01:24:761,0,-4.7984,-6.42517,4.11968,Q,Q
2023-03-15 13:01:24:771,0,-4.97372,-6.4131,4.11994,Q,Q
2023-03-15 13:01:24:781,0,-5.19084,-6.39478,4.11362,Q,Q
2023-03-15 13:01:24:791,0,-5.45345,-6.36772,4.10229,Q,Q
2023-03-15 13:01:24:801,0,-5.76164,-6.33754,4.08278,Q,Q
2023-03-15 13:01:24:811,0,-6.12184,-6.30125,4.05242,Q,Q
2023-03-15 13:01:24:821,0,-6.53741,-6.26671,4.01021,Q,Q
2023-03-15 13:01:24:831,0,-6.9908,-6.23764,3.93793,Q,Q
2023-03-15 13:01:24:841,0,-7.44,-6.22792,3.83756,Q,Q
2023-03-15 13:01:24:851,0,-7.83407,-6.24037,3.70982,Q,Q
2023-03-15 13:01:24:861,0,-8.12762,-6.27518,3.56919,Q,Q
2023-03-15 13:01:24:871,0,-8.29482,-6.32421,3.41753,Q,Q
2023-03-15 13:01:24:881,0,-8.33678,-6.38161,3.25246,Q,Q
2023-03-15 13:01:24:891,0,-8.26695,-6.43679,3.0762,Q,Q
2023-03-15 13:01:24:901,0,-8.08626,-6.49448,2.88285,Q,Q
2023-03-15 13:01:24:911,0,-7.80149,-6.55574,2.67318,Q,Q
2023-03-15 13:01:24:921,0,-7.40945,-6.61197,2.45436,Q,Q
2023-03-15 13:01:24:931,0,-6.91859,-6.65663,2.23549,Q,Q
2023-03-15 13:01:24:941,0,-6.36558,-6.68351,2.01814,Q,Q
2023-03-15 13:01:24:951,0,-5.78666,-6.69346,1.81476,Q,Q
2023-03-15 13:01:24:961,0,-5.22195,-6.69698,1.62414,Q,Q
2023-03-15 13:01:24:971,0,-4.69244,-6.69715,1.45288,Q,Q
2023-03-15 13:01:24:981,0,-4.20943,-6.69606,1.29415,Q,Q
2023-03-15 13:01:24:991,0,-3.77886,-6.70308,1.14626,Q,Q
2023-03-15 13:01:25:1,0,-3.4039,-6.71957,1.01049,Q,Q
2023-03-15 13:01:25:11,0,-3.08856,-6.73937,0.887599,Q,Q
2023-03-15 13:01:25:21,0,-2.83524,-6.76284,0.781577,Q,Q
2023-03-15 13:01:25:31,0,-2.64061,-6.78106,0.683004,Q,Q
2023-03-15 13:01:25:41,0,-2.52023,-6.80547,0.606277,Q,Q
2023-03-15 13:01:25:51,0,-2.47695,-6.83767,0.546049,Q,Q
2023-03-15 13:01:25:61,0,-2.51937,-6.87873,0.50037,Q,Q
2023-03-15 13:01:25:71,0,-2.64908,-6.92433,0.461092,Q,Q
2023-03-15 13:01:25:81,0,-2.86146,-6.978,0.430255,Q,Q
2023-03-15 13:01:25:91,0,-3.14114,-7.03542,0.402583,Q,Q
2023-03-15 13:01:25:101,0,-3.47124,-7.09534,0.374494,Q,Q
2023-03-15 13:01:25:111,0,-3.8417,-7.15686,0.350296,Q,Q
2023-03-15 13:01:25:121,0,-4.25526,-7.2096,0.325605,Q,Q
2023-03-15 13:01:25:131,0,-4.73104,-7.25218,0.293119,Q,Q
2023-03-15 13:01:25:141,0,-5.26189,-7.27811,0.240863,Q,Q
2023-03-15 13:01:25:151,0,-5.81414,-7.30336,0.157098,Q,Q
2023-03-15 13:01:25:161,0,-6.32326,-7.34798,0.0277984,Q,Q
2023-03-15 13:01:25:171,0,-6.71918,-7.40332,-0.148291,Q,Q
2023-03-15 13:01:25:181,0,-6.93439,-7.46138,-0.364064,Q,Q
2023-03-15 13:01:25:191,0,-6.94832,-7.50206,-0.601696,Q,Q
2023-03-15 13:01:25:201,0,-6.78207,-7.50458,-0.851151,Q,Q
2023-03-15 13:01:25:211,0,-6.5005,-7.49157,-1.09585,Q,Q
2023-03-15 13:01:25:221,0,-6.1807,-7.46593,-1.33431,Q,Q
2023-03-15 13:01:25:231,0,-5.87764,-7.43632,-1.56965,Q,Q
2023-03-15 13:01:25:241,0,-5.61381,-7.42956,-1.81772,Q,Q
2023-03-15 13:01:25:251,0,-5.38128,-7.44045,-2.08391,Q,Q
2023-03-15 13:01:25:261,0,-5.15935,-7.45466,-2.35645,Q,Q
2023-03-15 13:01:25:271,0,-4.94011,-7.4716,-2.63056,Q,Q
2023-03-15 13:01:25:281,0,-4.72834,-7.49188,-2.90893,Q,Q
2023-03-15 13:01:25:291,0,-4.52859,-7.51022,-3.18475,Q,Q
2023-03-15 13:01:25:301,0,-4.36599,-7.52554,-3.45174,Q,Q
2023-03-15 13:01:25:311,0,-4.25405,-7.53332,-3.71332,Q,Q
2023-03-15 13:01:25:321,0,-4.19193,-7.5437,-3.97055,Q,Q
2023-03-15 13:01:25:331,0,-4.20388,-7.55456,-4.21797,Q,Q
2023-03-15 13:01:25:341,0,-4.30514,-7.56576,-4.46627,Q,Q
2023-03-15 13:01:25:351,0,-4.49761,-7.57846,-4.72015,Q,Q
2023-03-15 13:01:25:361,0,-4.74731,-7.59291,-4.97267,Q,Q
2023-03-15 13:01:25:371,0,-5.02072,-7.61384,-5.22369,Q,Q
2023-03-15 13:01:25:381,0,-5.31046,-7.63772,-5.46658,Q,Q
2023-03-15 13:01:25:391,0,-5.63243,-7.66246,-5.70961,Q,Q
2023-03-15 13:01:25:401,0,-5.96925,-7.69087,-5.96905,Q,Q
2023-03-15 13:01:25:411,0,-6.26718,-7.73156,-6.24405,Q,Q
2023-03-15 13:01:25:421,0,-6.46591,-7.77436,-6.53387,Q,Q
2023-03-15 13:01:25:431,0,-6.52286,-7.81383,-6.8327,Q,Q
2023-03-15 13:01:25:441,0,-6.41106,-7.83432,-7.13334,Q,Q
2023-03-15 13:01:25:451,0,-6.13638,-7.84518,-7.41433,Q,Q
2023-03-15 13:01:25:461,0,-5.73796,-7.83586,-7.66618,Q,Q
2023-03-15 13:01:25:471,0,-5.26933,-7.80299,-7.89088,Q,Q
2023-03-15 13:01:25:481,0,-4.77857,-7.75105,-8.08945,Q,Q
2023-03-15 13:01:25:491,0,-4.31314,-7.68462,-8.2585,Q,Q
2023-03-15 13:01:25:501,0,-3.92457,-7.61581,-8.38892,Q,Q
2023-03-15 13:01:25:511,0,-3.63474,-7.55001,-8.49756,Q,Q
2023-03-15 13:01:25:521,0,-3.43365,-7.50016,-8.57991,Q,Q
2023-03-15 13:01:25:531,0,-3.31905,-7.45924,-8.63585,Q,Q
2023-03-15 13:01:25:541,0,-3.28461,-7.43099,-8.67282,Q,Q
2023-03-15 13:01:25:551,0,-3.30839,-7.40501,-8.69632,Q,Q
2023-03-15 13:01:25:561,0,-3.39594,-7.37643,-8.69976,Q,Q
2023-03-15 13:01:25:571,0,-3.54503,-7.346,-8.69185,Q,Q
2023-03-15 13:01:25:581,0,-3.75021,-7.31632,-8.67988,Q,Q
2023-03-15 13:01:25:591,0,-4.00164,-7.2918,-8.67347,Q,Q
2023-03-15 13:01:25:601,0,-4.26259,-7.27172,-8.6781,Q,Q
2023-03-15 13:01:25:611,0,-4.49364,-7.262,-8.7088,Q,Q
2023-03-15 13:01:25:621,0,-4.63382,-7.26313,-8.7542,Q,Q
2023-03-15 13:01:25:631,0,-4.63745,-7.26009,-8.81586,Q,Q
2023-03-15 13:01:25:641,0,-4.49726,-7.23855,-8.87349,Q,Q
2023-03-15 13:01:25:651,0,-4.25546,-7.19927,-8.91115,Q,Q
2023-03-15 13:01:25:661,0,-3.9788,-7.13941,-8.91829,Q,Q
2023-03-15 13:01:25:671,0,-3.71997,-7.07258,-8.90645,Q,Q
2023-03-15 13:01:25:681,0,-3.50776,-7.01414,-8.88115,Q,Q
2023-03-15 13:01:25:691,0,-3.35015,-6.96917,-8.84915,Q,Q
2023-03-15 13:01:25:701,0,-3.24704,-6.92444,-8.81469,Q,Q
2023-03-15 13:01:25:711,0,-3.18614,-6.88324,-8.77841,Q,Q
2023-03-15 13:01:25:721,0,-3.15969,-6.85144,-8.74806,Q,Q
2023-03-15 13:01:25:731,0,-3.15702,-6.81955,-8.72248,Q,Q
2023-03-15 13:01:25:741,0,-3.16451,-6.79494,-8.69373,Q,Q
2023-03-15 13:01:25:751,0,-3.16973,-6.7717,-8.66736,Q,Q
2023-03-15 13:01:25:761,0,-3.16629,-6.75188,-8.63847,Q,Q
2023-03-15 13:01:25:771,0,-3.15494,-6.72881,-8.60867,Q,Q
2023-03-15 13:01:25:780,0,-3.14381,-6.70803,-8.57891,Q,Q
2023-03-15 13:01:25:791,0,-3.14016,-6.6911,-8.53643,Q,Q
2023-03-15 13:01:25:800,0,-3.1429,-6.67669,-8.49327,Q,Q
2023-03-15 13:01:25:811,0,-3.15669,-6.66541,-8.44684,Q,Q
2023-03-15 13:01:25:821,0,-3.17596,-6.65302,-8.39725,Q,Q
2023-03-15 13:01:25:831,0,-3.19785,-6.63787,-8.34874,Q,Q
2023-03-15 13:01:25:841,0,-3.21752,-6.62319,-8.30157,Q,Q
2023-03-15 13:01:25:850,0,-3.22891,-6.60713,-8.25606,Q,Q
2023-03-15 13:01:25:860,0,-3.23677,-6.58805,-8.21184,Q,Q
2023-03-15 13:01:25:871,0,-3.23927,-6.56283,-8.17033,Q,Q
2023-03-15 13:01:25:881,0,-3.23535,-6.53647,-8.13081,Q,Q
2023-03-15 13:01:25:891,0,-3.22402,-6.51618,-8.08965,Q,Q
2023-03-15 13:01:25:901,0,-3.21413,-6.49542,-8.0488,Q,Q
2023-03-15 13:01:25:911,0,-3.20684,-6.4756,-8.00952,Q,Q
2023-03-15 13:01:25:921,0,-3.19858,-6.45364,-7.97045,Q,Q
2023-03-15 13:01:25:931,0,-3.19437,-6.43105,-7.93007,Q,Q
2023-03-15 13:01:25:941,0,-3.19074,-6.41645,-7.89103,Q,Q
2023-03-15 13:01:25:951,0,-3.1928,-6.40629,-7.84705,Q,Q
2023-03-15 13:01:25:961,0,-3.19769,-6.39717,-7.80445,Q,Q
2023-03-15 13:01:25:971,0,-3.20266,-6.39488,-7.75958,Q,Q
2023-03-15 13:01:25:981,0,-3.2008,-6.39551,-7.7165,Q,Q
2023-03-15 13:01:25:991,0,-3.19842,-6.40095,-7.67267,Q,Q
2023-03-15 13:01:26:1,0,-3.19133,-6.40366,-7.62631,Q,Q
2023-03-15 13:01:26:11,0,-3.18668,-6.40738,-7.57684,Q,Q
2023-03-15 13:01:26:21,0,-3.17716,-6.41169,-7.52886,Q,Q
2023-03-15 13:01:26:31,0,-3.16723,-6.41606,-7.47774,Q,Q
2023-03-15 13:01:26:41,0,-3.15894,-6.41921,-7.42468,Q,Q
2023-03-15 13:01:26:51,0,-3.1536,-6.4242,-7.37482,Q,Q
2023-03-15 13:01:26:61,0,-3.14464,-6.4241,-7.32399,Q,Q
2023-03-15 13:01:26:71,0,-3.13783,-6.42812,-7.27008,Q,Q
2023-03-15 13:01:26:81,0,-3.12771,-6.43318,-7.21867,Q,Q
2023-03-15 13:01:26:91,0,-3.11485,-6.43979,-7.16885,Q,Q
2023-03-15 13:01:26:101,0,-3.09861,-6.44855,-7.11815,Q,Q
2023-03-15 13:01:26:111,0,-3.07894,-6.46517,-7.07058,Q,Q
2023-03-15 13:01:26:121,0,-3.06033,-6.47925,-7.02248,Q,Q
2023-03-15 13:01:26:131,0,-3.03936,-6.49392,-6.97731,Q,Q
2023-03-15 13:01:26:141,0,-3.02151,-6.51088,-6.93499,Q,Q
2023-03-15 13:01:26:151,0,-3.00362,-6.5282,-6.89613,Q,Q
2023-03-15 13:01:26:161,0,-2.99044,-6.54901,-6.85361,Q,Q
2023-03-15 13:01:26:171,0,-2.97511,-6.56839,-6.81193,Q,Q
2023-03-15 13:01:26:181,0,-2.96283,-6.58845,-6.77596,Q,Q
2023-03-15 13:01:26:191,0,-2.95487,-6.61306,-6.73824,Q,Q
2023-03-15 13:01:26:201,0,-2.94277,-6.63725,-6.70911,Q,Q
2023-03-15 13:01:26:211,0,-2.93671,-6.66511,-6.68024,Q,Q
2023-03-15 13:01:26:221,0,-2.92813,-6.69236,-6.65093,Q,Q
2023-03-15 13:01:26:231,0,-2.91283,-6.71646,-6.62695,Q,Q
2023-03-15 13:01:26:241,0,-2.89609,-6.74115,-6.60972,Q,Q
2023-03-15 13:01:26:251,0,-2.8769,-6.76132,-6.59569,Q,Q
2023-03-15 13:01:26:261,0,-2.85596,-6.78136,-6.58336,Q,Q
2023-03-15 13:01:26:271,0,-2.83509,-6.80133,-6.56847,Q,Q
2023-03-15 13:01:26:281,0,-2.81541,-6.82443,-6.55603,Q,Q
2023-03-15 13:01:26:291,0,-2.7942,-6.8447,-6.54568,Q,Q
2023-03-15 13:01:26:301,0,-2.77096,-6.87151,-6.53669,Q,Q
2023-03-15 13:01:26:311,0,-2.74804,-6.89786,-6.53026,Q,Q
2023-03-15 13:01:26:321,0,-2.7247,-6.92423,-6.52483,Q,Q
2023-03-15 13:01:26:331,0,-2.69621,-6.94689,-6.5232,Q,Q
2023-03-15 13:01:26:341,0,-2.66138,-6.97033,-6.52524,Q,Q
2023-03-15 13:01:26:351,0,-2.62629,-6.99146,-6.52881,Q,Q
2023-03-15 13:01:26:361,0,-2.58885,-7.01078,-6.53172,Q,Q
2023-03-15 13:01:26:371,0,-2.54952,-7.03003,-6.53735,Q,Q
2023-03-15 13:01:26:381,0,-2.50599,-7.04315,-6.54355,Q,Q
2023-03-15 13:01:26:391,0,-2.45939,-7.05695,-6.55208,Q,Q
2023-03-15 13:01:26:401,0,-2.41553,-7.06619,-6.55741,Q,Q
2023-03-15 13:01:26:411,0,-2.37174,-7.0744,-6.56526,Q,Q
2023-03-15 13:01:26:421,0,-2.32526,-7.08112,-6.56926,Q,Q
2023-03-15 13:01:26:431,0,-2.2791,-7.09257,-6.56967,Q,Q
2023-03-15 13:01:26:441,0,-2.2396,-7.10287,-6.56747,Q,Q
2023-03-15 13:01:26:451,0,-2.20682,-7.11062,-6.56451,Q,Q
2023-03-15 13:01:26:461,0,-2.17249,-7.11713,-6.56493,Q,Q
2023-03-15 13:01:26:471,0,-2.14161,-7.12365,-6.56863,Q,Q
2023-03-15 13:01:26:481,0,-2.10559,-7.12955,-6.57137,Q,Q
2023-03-15 13:01:26:491,0,-2.08086,-7.13843,-6.56915,Q,Q
2023-03-15 13:01:26:501,0,-2.05955,-7.14969,-6.56695,Q,Q
2023-03-15 13:01:26:511,0,-2.04195,-7.15984,-6.56606,Q,Q
2023-03-15 13:01:26:521,0,-2.02752,-7.16859,-6.56636,Q,Q
2023-03-15 13:01:26:531,0,-2.02102,-7.1769,-6.56573,Q,Q
2023-03-15 13:01:26:541,0,-2.02005,-7.18436,-6.56994,Q,Q
2023-03-15 13:01:26:551,0,-2.02082,-7.1899,-6.57966,Q,Q
2023-03-15 13:01:26:561,0,-2.02253,-7.19251,-6.59742,Q,Q
2023-03-15 13:01:26:571,0,-2.02283,-7.19365,-6.61781,Q,Q
2023-03-15 13:01:26:581,0,-2.01577,-7.19094,-6.64478,Q,Q
2023-03-15 13:01:26:591,0,-2.00838,-7.1862,-6.67485,Q,Q
2023-03-15 13:01:26:601,0,-2.00131,-7.18095,-6.70469,Q,Q
2023-03-15 13:01:26:611,0,-1.98527,-7.17685,-6.74446,Q,Q
2023-03-15 13:01:26:621,0,-1.9683,-7.16661,-6.78408,Q,Q
2023-03-15 13:01:26:631,0,-1.94706,-7.15592,-6.82567,Q,Q
2023-03-15 13:01:26:641,0,-1.92406,-7.14395,-6.87127,Q,Q
2023-03-15 13:01:26:651,0,-1.90077,-7.13275,-6.91789,Q,Q
2023-03-15 13:01:26:661,0,-1.88346,-7.11889,-6.96236,Q,Q
2023-03-15 13:01:26:671,0,-1.86417,-7.10554,-7.01282,Q,Q
2023-03-15 13:01:26:681,0,-1.84346,-7.09239,-7.05961,Q,Q
2023-03-15 13:01:26:691,0,-1.81826,-7.08042,-7.10923,Q,Q
2023-03-15 13:01:26:701,0,-1.79728,-7.0649,-7.15759,Q,Q
2023-03-15 13:01:26:711,0,-1.77639,-7.05307,-7.20557,Q,Q
2023-03-15 13:01:26:721,0,-1.75326,-7.03671,-7.25637,Q,Q
2023-03-15 13:01:26:731,0,-1.73119,-7.01449,-7.31148,Q,Q
2023-03-15 13:01:26:741,0,-1.70875,-6.98998,-7.36752,Q,Q
2023-03-15 13:01:26:751,0,-1.69026,-6.9672,-7.42281,Q,Q
2023-03-15 13:01:26:761,0,-1.67498,-6.94439,-7.47971,Q,Q
2023-03-15 13:01:26:771,0,-1.66844,-6.91727,-7.5339,Q,Q
2023-03-15 13:01:26:781,0,-1.66563,-6.88737,-7.59624,Q,Q
2023-03-15 13:01:26:790,0,-1.67064,-6.8539,-7.66714,Q,Q
2023-03-15 13:01:26:801,0,-1.67982,-6.82503,-7.74812,Q,Q
2023-03-15 13:01:26:811,0,-1.68175,-6.78929,-7.83981,Q,Q
2023-03-15 13:01:26:821,0,-1.67396,-6.74895,-7.93858,Q,Q
2023-03-15 13:01:26:831,0,-1.65871,-6.70735,-8.04023,Q,Q
2023-03-15 13:01:26:841,0,-1.63969,-6.66996,-8.14718,Q,Q
2023-03-15 13:01:26:851,0,-1.61815,-6.63233,-8.25933,Q,Q
2023-03-15 13:01:26:861,0,-1.59629,-6.59472,-8.37531,Q,Q
2023-03-15 13:01:26:871,0,-1.57448,-6.55404,-8.49664,Q,Q
2023-03-15 13:01:26:881,0,-1.55256,-6.51379,-8.6208,Q,Q
2023-03-15 13:01:26:891,0,-1.52586,-6.47501,-8.75513,Q,Q
2023-03-15 13:01:26:901,0,-1.49709,-6.43363,-8.89668,Q,Q
2023-03-15 13:01:26:911,0,-1.46451,-6.39281,-9.04393,Q,Q
2023-03-15 13:01:26:921,0,-1.42641,-6.34486,-9.20089,Q,Q
2023-03-15 13:01:26:931,0,-1.37994,-6.29889,-9.36611,Q,Q
2023-03-15 13:01:26:941,0,-1.32907,-6.25131,-9.54359,Q,Q
2023-03-15 13:01:26:951,0,-1.27437,-6.1997,-9.7315,Q,Q
2023-03-15 13:01:26:961,0,-1.21091,-6.14825,-9.92403,Q,Q
2023-03-15 13:01:26:971,0,-1.14247,-6.09352,-10.1304,Q,Q
2023-03-15 13:01:26:981,0,-1.06791,-6.03574,-10.3462,Q,Q
2023-03-15 13:01:26:991,0,-0.990777,-5.97325,-10.5707,Q,Q
2023-03-15 13:01:27:1,0,-0.90366,-5.9127,-10.8076,Q,Q
2023-03-15 13:01:27:11,0,-0.806468,-5.84968,-11.0548,Q,Q
2023-03-15 13:01:27:21,0,-0.709754,-5.77543,-11.3042,Q,Q
2023-03-15 13:01:27:31,0,-0.60469,-5.69786,-11.5591,Q,Q
2023-03-15 13:01:27:41,0,-0.505005,-5.61613,-11.8172,Q,Q
2023-03-15 13:01:27:51,0,-0.408495,-5.53045,-12.0765,Q,Q
2023-03-15 13:01:27:61,0,-0.315324,-5.44396,-12.3364,Q,Q
2023-03-15 13:01:27:71,0,-0.226257,-5.35307,-12.5958,Q,Q
2023-03-15 13:01:27:81,0,-0.135917,-5.2554,-12.8524,Q,Q
2023-03-15 13:01:27:91,0,-0.048571,-5.16061,-13.1057,Q,Q
2023-03-15 13:01:27:101,0,0.0330936,-5.06726,-13.3503,Q,Q
2023-03-15 13:01:27:111,0,0.112144,-4.97066,-13.5873,Q,Q
2023-03-15 13:01:27:121,0,0.189328,-4.87202,-13.8134,Q,Q
2023-03-15 13:01:27:131,0,0.266936,-4.77459,-14.0343,Q,Q
2023-03-15 13:01:27:141,0,0.33964,-4.67479,-14.2461,Q,Q
2023-03-15 13:01:27:151,0,0.413317,-4.58035,-14.4437,Q,Q
2023-03-15 13:01:27:161,0,0.481526,-4.48245,-14.6315,Q,Q
2023-03-15 13:01:27:171,0,0.54737,-4.38843,-14.8079,Q,Q
2023-03-15 13:01:27:181,0,0.609343,-4.29561,-14.9709,Q,Q
2023-03-15 13:01:27:191,0,0.661159,-4.20559,-15.1179,Q,Q
2023-03-15 13:01:27:201,0,0.704662,-4.11643,-15.2567,Q,Q
2023-03-15 13:01:27:211,0,0.746767,-4.02972,-15.3873,Q,Q
2023-03-15 13:01:27:221,0,0.785671,-3.94441,-15.503,Q,Q
2023-03-15 13:01:27:231,0,0.819483,-3.86033,-15.6067,Q,Q
2023-03-15 13:01:27:241,0,0.852379,-3.77739,-15.6996,Q,Q
2023-03-15 13:01:27:251,0,0.884056,-3.70096,-15.7845,Q,Q
2023-03-15 13:01:27:261,0,0.915189,-3.62491,-15.8578,Q,Q
2023-03-15 13:01:27:271,0,0.944161,-3.55406,-15.9207,Q,Q
2023-03-15 13:01:27:281,0,0.978658,-3.48793,-15.9741,Q,Q
2023-03-15 13:01:27:291,0,1.00635,-3.42219,-16.0209,Q,Q
2023-03-15 13:01:27:301,0,1.03606,-3.35966,-16.0598,Q,Q
2023-03-15 13:01:27:311,0,1.06127,-3.29739,-16.0905,Q,Q
2023-03-15 13:01:27:321,0,1.08448,-3.24365,-16.1156,Q,Q
2023-03-15 13:01:27:331,0,1.10402,-3.18942,-16.1332,Q,Q
2023-03-15 13:01:27:341,0,1.12197,-3.14198,-16.1411,Q,Q
2023-03-15 13:01:27:351,0,1.14079,-3.10381,-16.1448,Q,Q
2023-03-15 13:01:27:361,0,1.15707,-3.07639,-16.1462,Q,Q
2023-03-15 13:01:27:371,0,1.17,-3.05049,-16.1466,Q,Q
2023-03-15 13:01:27:381,0,1.18935,-3.02878,-16.1458,Q,Q
2023-03-15 13:01:27:391,0,1.20647,-3.00573,-16.1419,Q,Q
2023-03-15 13:01:27:401,0,1.22763,-2.99175,-16.1392,Q,Q
2023-03-15 13:01:27:411,0,1.24869,-2.98099,-16.1336,Q,Q
2023-03-15 13:01:27:421,0,1.27119,-2.96793,-16.1314,Q,Q
2023-03-15 13:01:27:431,0,1.28768,-2.96307,-16.1233,Q,Q
2023-03-15 13:01:27:441,0,1.29984,-2.95403,-16.1157,Q,Q
2023-03-15 13:01:27:451,0,1.31207,-2.94746,-16.1095,Q,Q
2023-03-15 13:01:27:461,0,1.32281,-2.9433,-16.0994,Q,Q
2023-03-15 13:01:27:471,0,1.34081,-2.946,-16.0885,Q,Q
2023-03-15 13:01:27:481,0,1.35544,-2.96062,-16.0694,Q,Q
2023-03-15 13:01:27:491,0,1.36491,-2.98088,-16.0491,Q,Q
2023-03-15 13:01:27:501,0,1.37324,-3.00114,-16.0281,Q,Q
2023-03-15 13:01:27:511,0,1.38019,-3.02014,-16.0078,Q,Q
2023-03-15 13:01:27:521,0,1.38162,-3.04352,-15.991,Q,Q
2023-03-15 13:01:27:531,0,1.38263,-3.0655,-15.9745,Q,Q
2023-03-15 13:01:27:541,0,1.38232,-3.08282,-15.9528,Q,Q
2023-03-15 13:01:27:551,0,1.37944,-3.09957,-15.9375,Q,Q
2023-03-15 13:01:27:561,0,1.37518,-3.11666,-15.9191,Q,Q
2023-03-15 13:01:27:571,0,1.36637,-3.129,-15.9035,Q,Q
2023-03-15 13:01:27:581,0,1.35643,-3.14428,-15.8886,Q,Q
2023-03-15 13:01:27:591,0,1.34489,-3.15911,-15.876,Q,Q
2023-03-15 13:01:27:601,0,1.33186,-3.17454,-15.8595,Q,Q
2023-03-15 13:01:27:611,0,1.31455,-3.19449,-15.8443,Q,Q
2023-03-15 13:01:27:621,0,1.29682,-3.21145,-15.8287,Q,Q
2023-03-15 13:01:27:631,0,1.27723,-3.2327,-15.8149,Q,Q
2023-03-15 13:01:27:641,0,1.25199,-3.25357,-15.7968,Q,Q
2023-03-15 13:01:27:651,0,1.22606,-3.27152,-15.7787,Q,Q
2023-03-15 13:01:27:661,0,1.19821,-3.2957,-15.7631,Q,Q
2023-03-15 13:01:27:671,0,1.16776,-3.31948,-15.7477,Q,Q
2023-03-15 13:01:27:681,0,1.13782,-3.34225,-15.7301,Q,Q
2023-03-15 13:01:27:691,0,1.1062,-3.36933,-15.7128,Q,Q
2023-03-15 13:01:27:701,0,1.07316,-3.39309,-15.6979,Q,Q
2023-03-15 13:01:27:711,0,1.04436,-3.41688,-15.6845,Q,Q
2023-03-15 13:01:27:721,0,1.0193,-3.43419,-15.6741,Q,Q
2023-03-15 13:01:27:731,0,0.996757,-3.45316,-15.6621,Q,Q
2023-03-15 13:01:27:741,0,0.978198,-3.47185,-15.6454,Q,Q
2023-03-15 13:01:27:751,0,0.964944,-3.49394,-15.6274,Q,Q
2023-03-15 13:01:27:761,0,0.95196,-3.5165,-15.607,Q,Q
2023-03-15 13:01:27:771,0,0.941387,-3.53821,-15.5814,Q,Q
2023-03-15 13:01:27:781,0,0.93366,-3.56324,-15.5552,Q,Q
2023-03-15 13:01:27:790,0,0.924536,-3.58905,-15.5293,Q,Q
2023-03-15 13:01:27:801,0,0.912968,-3.61093,-15.5002,Q,Q
2023-03-15 13:01:27:811,0,0.9079,-3.63249,-15.4746,Q,Q
2023-03-15 13:01:27:821,0,0.906399,-3.65376,-15.4475,Q,Q
2023-03-15 13:01:27:831,0,0.902884,-3.67776,-15.4227,Q,Q
2023-03-15 13:01:27:841,0,0.901311,-3.69797,-15.4015,Q,Q
2023-03-15 13:01:27:851,0,0.902409,-3.71914,-15.3792,Q,Q
2023-03-15 13:01:27:861,0,0.903603,-3.74055,-15.3553,Q,Q
2023-03-15 13:01:27:871,0,0.900735,-3.76052,-15.3295,Q,Q
2023-03-15 13:01:27:881,0,0.898333,-3.77922,-15.3046,Q,Q
2023-03-15 13:01:27:891,0,0.890668,-3.80032,-15.2745,Q,Q
2023-03-15 13:01:27:901,0,0.879918,-3.82334,-15.2483,Q,Q
2023-03-15 13:01:27:911,0,0.866099,-3.84857,-15.2189,Q,Q
2023-03-15 13:01:27:921,0,0.850314,-3.87399,-15.1884,Q,Q
2023-03-15 13:01:27:931,0,0.829331,-3.89948,-15.1595,Q,Q
2023-03-15 13:01:27:941,0,0.802691,-3.92268,-15.1304,Q,Q
2023-03-15 13:01:27:951,0,0.771447,-3.94884,-15.1019,Q,Q
2023-03-15 13:01:27:961,0,0.746784,-3.97345,-15.0724,Q,Q
2023-03-15 13:01:27:971,0,0.719814,-3.99906,-15.0464,Q,Q
2023-03-15 13:01:27:981,0,0.692112,-4.02468,-15.0199,Q,Q
2023-03-15 13:01:27:991,0,0.665629,-4.04328,-14.9966,Q,Q
2023-03-15 13:01:28:1,0,0.639093,-4.05965,-14.9761,Q,Q
2023-03-15 13:01:28:11,0,0.615726,-4.07475,-14.9563,Q,Q
2023-03-15 13:01:28:21,0,0.588697,-4.09089,-14.9385,Q,Q
2023-03-15 13:01:28:31,0,0.564473,-4.10256,-14.9197,Q,Q
2023-03-15 13:01:28:41,0,0.54196,-4.11316,-14.9021,Q,Q
2023-03-15 13:01:28:51,0,0.518734,-4.12743,-14.8887,Q,Q
2023-03-15 13:01:28:61,0,0.494843,-4.13881,-14.874,Q,Q
2023-03-15 13:01:28:71,0,0.472924,-4.1504,-14.8652,Q,Q
2023-03-15 13:01:28:81,0,0.451582,-4.15742,-14.855,Q,Q
2023-03-15 13:01:28:91,0,0.430963,-4.16339,-14.853,Q,Q
2023-03-15 13:01:28:101,0,0.412739,-4.16964,-14.8477,Q,Q
2023-03-15 13:01:28:111,0,0.392877,-4.17172,-14.8466,Q,Q
2023-03-15 13:01:28:121,0,0.374107,-4.17456,-14.8484,Q,Q
2023-03-15 13:01:28:131,0,0.356499,-4.17449,-14.8471,Q,Q
2023-03-15 13:01:28:141,0,0.338245,-4.1722,-14.8457,Q,Q
2023-03-15 13:01:28:151,0,0.318319,-4.17416,-14.8422,Q,Q
2023-03-15 13:01:28:161,0,0.298947,-4.17364,-14.8384,Q,Q
2023-03-15 13:01:28:171,0,0.277329,-4.17495,-14.8327,Q,Q
2023-03-15 13:01:28:181,0,0.253039,-4.1783,-14.8332,Q,Q
2023-03-15 13:01:28:191,0,0.227816,-4.18064,-14.8359,Q,Q
2023-03-15 13:01:28:201,0,0.207481,-4.18485,-14.8345,Q,Q
