Timestamp_cmd,imu_cmd,roll_delta,pitch_delta,yaw_delta,voice_type,voice_length
2023-03-15 20:49:37:959,0,-54.2604,2.34367,134.345,Q,Q
2023-03-15 20:49:37:967,0,-54.2599,2.3446,134.343,Q,Q
2023-03-15 20:49:37:977,0,-54.2609,2.3427,134.342,Q,Q
2023-03-15 20:49:37:987,0,-54.2624,2.34377,134.339,Q,Q
2023-03-15 20:49:37:997,0,-54.2597,2.34135,134.339,Q,Q
2023-03-15 20:49:38:8,0,-54.2576,2.34154,134.337,Q,Q
2023-03-15 20:49:38:17,0,-54.2537,2.34061,134.34,Q,Q
2023-03-15 20:49:38:27,0,-54.2518,2.33949,134.341,Q,Q
2023-03-15 20:49:38:37,0,-54.2531,2.34191,134.342,Q,Q
2023-03-15 20:49:38:47,0,-54.2545,2.34217,134.341,Q,Q
2023-03-15 20:49:38:57,0,-54.2548,2.34208,134.341,Q,Q
2023-03-15 20:49:38:67,0,-54.2546,2.34405,134.342,Q,Q
2023-03-15 20:49:38:77,0,-54.258,2.34374,134.342,Q,Q
2023-03-15 20:49:38:87,0,-54.2573,2.34098,134.342,Q,Q
2023-03-15 20:49:38:97,0,-54.2542,2.33774,134.341,Q,Q
2023-03-15 20:49:38:107,0,-54.253,2.33697,134.34,Q,Q
2023-03-15 20:49:38:117,0,-54.2492,2.33688,134.338,Q,Q
2023-03-15 20:49:38:127,0,-54.2496,2.33585,134.337,Q,Q
2023-03-15 20:49:38:137,0,-54.2498,2.3391,134.34,Q,Q
2023-03-15 20:49:38:147,0,-54.253,2.33965,134.339,Q,Q
2023-03-15 20:49:38:157,0,-54.2536,2.33653,134.338,Q,Q
2023-03-15 20:49:38:168,0,-54.2563,2.33643,134.336,Q,Q
2023-03-15 20:49:38:178,0,-54.2547,2.33708,134.341,Q,Q
2023-03-15 20:49:38:187,0,-54.2518,2.33773,134.341,Q,Q
2023-03-15 20:49:38:198,0,-54.248,2.34012,134.341,Q,Q
2023-03-15 20:49:38:207,0,-54.2467,2.33996,134.342,Q,Q
2023-03-15 20:49:38:218,0,-54.2459,2.34158,134.339,Q,Q
2023-03-15 20:49:38:228,0,-54.2474,2.34225,134.337,Q,Q
2023-03-15 20:49:38:237,0,-54.2486,2.34342,134.336,Q,Q
2023-03-15 20:49:38:247,0,-54.2495,2.3414,134.334,Q,Q
2023-03-15 20:49:38:258,0,-54.2489,2.3418,134.333,Q,Q
2023-03-15 20:49:38:268,0,-54.2455,2.34275,134.335,Q,Q
2023-03-15 20:49:38:278,0,-54.2479,2.3422,134.33,Q,Q
2023-03-15 20:49:38:288,0,-54.248,2.3422,134.328,Q,Q
2023-03-15 20:49:38:297,0,-54.2491,2.34408,134.327,Q,Q
2023-03-15 20:49:38:307,0,-54.249,2.34634,134.327,Q,Q
2023-03-15 20:49:38:317,0,-54.2487,2.34293,134.326,Q,Q
2023-03-15 20:49:38:327,0,-54.2472,2.34344,134.326,Q,Q
2023-03-15 20:49:38:337,0,-54.2472,2.34461,134.328,Q,Q
2023-03-15 20:49:38:347,0,-54.2467,2.34697,134.328,Q,Q
2023-03-15 20:49:38:357,0,-54.2435,2.34773,134.328,Q,Q
2023-03-15 20:49:38:367,0,-54.2441,2.34572,134.328,Q,Q
2023-03-15 20:49:38:377,0,-54.2443,2.34549,134.326,Q,Q
2023-03-15 20:49:38:387,0,-54.2486,2.34384,134.323,Q,Q
2023-03-15 20:49:38:397,0,-54.247,2.34489,134.322,Q,Q
2023-03-15 20:49:38:407,0,-54.2463,2.34484,134.322,Q,Q
2023-03-15 20:49:38:417,0,-54.2467,2.34183,134.32,Q,Q
2023-03-15 20:49:38:427,0,-54.2476,2.34251,134.319,Q,Q
2023-03-15 20:49:38:437,0,-54.2488,2.34067,134.318,Q,Q
2023-03-15 20:49:38:447,0,-54.2504,2.34084,134.318,Q,Q
2023-03-15 20:49:38:458,0,-54.2502,2.34129,134.32,Q,Q
2023-03-15 20:49:38:467,0,-54.2521,2.34105,134.32,Q,Q
2023-03-15 20:49:38:477,0,-54.2522,2.34184,134.325,Q,Q
2023-03-15 20:49:38:487,0,-54.2557,2.34176,134.327,Q,Q
2023-03-15 20:49:38:497,0,-54.2551,2.34389,134.329,Q,Q
2023-03-15 20:49:38:507,0,-54.2551,2.34432,134.33,Q,Q
2023-03-15 20:49:38:517,0,-54.2566,2.34241,134.329,Q,Q
2023-03-15 20:49:38:527,0,-54.2529,2.33905,134.33,Q,Q
2023-03-15 20:49:38:537,0,-54.2502,2.33959,134.332,Q,Q
2023-03-15 20:49:38:547,0,-54.2508,2.33976,134.333,Q,Q
2023-03-15 20:49:38:557,0,-54.2481,2.33899,134.333,Q,Q
2023-03-15 20:49:38:567,0,-54.2472,2.33939,134.332,Q,Q
2023-03-15 20:49:38:577,0,-54.2489,2.3414,134.331,Q,Q
2023-03-15 20:49:38:587,0,-54.248,2.34223,134.332,Q,Q
2023-03-15 20:49:38:597,0,-54.2457,2.34135,134.333,Q,Q
2023-03-15 20:49:38:607,0,-54.2425,2.34345,134.332,Q,Q
2023-03-15 20:49:38:617,0,-54.2419,2.34161,134.332,Q,Q
2023-03-15 20:49:38:627,0,-54.242,2.34286,134.333,Q,Q
2023-03-15 20:49:38:637,0,-54.2454,2.33935,134.332,Q,Q
2023-03-15 20:49:38:647,0,-54.2449,2.34006,134.332,Q,Q
2023-03-15 20:49:38:657,0,-54.2477,2.33703,134.333,Q,Q
2023-03-15 20:49:38:667,0,-54.2507,2.33845,134.334,Q,Q
2023-03-15 20:49:38:677,0,-54.252,2.33941,134.333,Q,Q
2023-03-15 20:49:38:687,0,-54.2523,2.33973,134.334,Q,Q
2023-03-15 20:49:38:697,0,-54.2522,2.34104,134.334,Q,Q
2023-03-15 20:49:38:707,0,-54.253,2.33881,134.334,Q,Q
2023-03-15 20:49:38:717,0,-54.2533,2.34242,134.334,Q,Q
2023-03-15 20:49:38:727,0,-54.2529,2.34243,134.332,Q,Q
2023-03-15 20:49:38:737,0,-54.2541,2.34177,134.334,Q,Q
2023-03-15 20:49:38:747,0,-54.254,2.33649,134.336,Q,Q
2023-03-15 20:49:38:757,0,-54.2534,2.33466,134.339,Q,Q
2023-03-15 20:49:38:767,0,-54.25,2.33514,134.34,Q,Q
2023-03-15 20:49:38:777,0,-54.2499,2.33537,134.338,Q,Q
2023-03-15 20:49:38:787,0,-54.2498,2.33444,134.338,Q,Q
2023-03-15 20:49:38:797,0,-54.2471,2.33684,134.339,Q,Q
2023-03-15 20:49:38:807,0,-54.2499,2.33572,134.336,Q,Q
2023-03-15 20:49:38:817,0,-54.2484,2.33651,134.335,Q,Q
2023-03-15 20:49:38:827,0,-54.2457,2.33716,134.332,Q,Q
2023-03-15 20:49:38:837,0,-54.2456,2.33834,134.334,Q,Q
2023-03-15 20:49:38:847,0,-54.2464,2.33711,134.333,Q,Q
2023-03-15 20:49:38:857,0,-54.2462,2.33848,134.335,Q,Q
2023-03-15 20:49:38:867,0,-54.2467,2.33923,134.336,Q,Q
2023-03-15 20:49:38:877,0,-54.2501,2.33941,134.335,Q,Q
2023-03-15 20:49:38:887,0,-54.248,2.34164,134.339,Q,Q
2023-03-15 20:49:38:897,0,-54.2463,2.34131,134.339,Q,Q
2023-03-15 20:49:38:907,0,-54.2461,2.34199,134.341,Q,Q
2023-03-15 20:49:38:917,0,-54.2445,2.34205,134.339,Q,Q
2023-03-15 20:49:38:927,0,-54.2474,2.34302,134.337,Q,Q
2023-03-15 20:49:38:937,0,-54.2476,2.34118,134.338,Q,Q
2023-03-15 20:49:38:947,0,-54.2471,2.34179,134.337,Q,Q
2023-03-15 20:49:38:957,0,-54.2468,2.34119,134.337,Q,Q
2023-03-15 20:49:38:967,0,-54.2483,2.34336,134.338,Q,Q
2023-03-15 20:49:38:977,0,-54.2525,2.34639,134.338,Q,Q
2023-03-15 20:49:38:987,0,-54.251,2.34737,134.335,Q,Q
2023-03-15 20:49:38:997,0,-54.2507,2.34656,134.333,Q,Q
2023-03-15 20:49:39:7,0,-54.2533,2.34562,134.337,Q,Q
2023-03-15 20:49:39:17,0,-54.2504,2.34688,134.336,Q,Q
2023-03-15 20:49:39:27,0,-54.2493,2.34792,134.34,Q,Q
2023-03-15 20:49:39:37,0,-54.2487,2.34768,134.339,Q,Q
2023-03-15 20:49:39:47,0,-54.2451,2.34711,134.342,Q,Q
2023-03-15 20:49:39:57,0,-54.2452,2.34793,134.344,Q,Q
2023-03-15 20:49:39:67,0,-54.2445,2.34791,134.346,Q,Q
2023-03-15 20:49:39:77,0,-54.2428,2.34544,134.345,Q,Q
2023-03-15 20:49:39:87,0,-54.2424,2.34573,134.343,Q,Q
2023-03-15 20:49:39:97,0,-54.2402,2.34558,134.345,Q,Q
2023-03-15 20:49:39:107,0,-54.2421,2.34454,134.345,Q,Q
2023-03-15 20:49:39:117,0,-54.2429,2.3442,134.343,Q,Q
2023-03-15 20:49:39:127,0,-54.2457,2.3472,134.341,Q,Q
2023-03-15 20:49:39:137,0,-54.2458,2.34997,134.342,Q,Q
2023-03-15 20:49:39:147,0,-54.2443,2.35213,134.341,Q,Q
2023-03-15 20:49:39:157,0,-54.2467,2.35442,134.34,Q,Q
2023-03-15 20:49:39:167,0,-54.2469,2.35774,134.337,Q,Q
2023-03-15 20:49:39:177,0,-54.2472,2.35744,134.335,Q,Q
2023-03-15 20:49:39:187,0,-54.2446,2.35835,134.335,Q,Q
2023-03-15 20:49:39:196,0,-54.2436,2.35726,134.335,Q,Q
2023-03-15 20:49:39:207,0,-54.2453,2.35591,134.334,Q,Q
2023-03-15 20:49:39:217,0,-54.2471,2.35704,134.333,Q,Q
2023-03-15 20:49:39:227,0,-54.245,2.35424,134.332,Q,Q
2023-03-15 20:49:39:237,0,-54.2441,2.35291,134.332,Q,Q
2023-03-15 20:49:39:247,0,-54.241,2.35506,134.332,Q,Q
2023-03-15 20:49:39:257,0,-54.2389,2.35566,134.33,Q,Q
2023-03-15 20:49:39:267,0,-54.2364,2.35644,134.329,Q,Q
2023-03-15 20:49:39:277,0,-54.24,2.35672,134.331,Q,Q
2023-03-15 20:49:39:287,0,-54.2409,2.35507,134.335,Q,Q
2023-03-15 20:49:39:297,0,-54.2387,2.3531,134.334,Q,Q
2023-03-15 20:49:39:306,0,-54.2403,2.35084,134.334,Q,Q
2023-03-15 20:49:39:316,0,-54.2383,2.35194,134.333,Q,Q
2023-03-15 20:49:39:327,0,-54.2354,2.35003,134.334,Q,Q
2023-03-15 20:49:39:336,0,-54.2346,2.34843,134.336,Q,Q
2023-03-15 20:49:39:347,0,-54.2348,2.34829,134.338,Q,Q
2023-03-15 20:49:39:356,0,-54.2365,2.34765,134.339,Q,Q
2023-03-15 20:49:39:367,0,-54.2372,2.34606,134.337,Q,Q
2023-03-15 20:49:39:377,0,-54.2373,2.34862,134.336,Q,Q
2023-03-15 20:49:39:386,0,-54.2369,2.34844,134.333,Q,Q
2023-03-15 20:49:39:397,0,-54.2366,2.34674,134.333,Q,Q
2023-03-15 20:49:39:406,0,-54.2365,2.34595,134.335,Q,Q
2023-03-15 20:49:39:417,0,-54.2371,2.34831,134.334,Q,Q
2023-03-15 20:49:39:427,0,-54.236,2.35035,134.332,Q,Q
2023-03-15 20:49:39:437,0,-54.2345,2.35003,134.334,Q,Q
2023-03-15 20:49:39:447,0,-54.2353,2.35217,134.336,Q,Q
2023-03-15 20:49:39:457,0,-54.2352,2.35501,134.335,Q,Q
2023-03-15 20:49:39:467,0,-54.2362,2.3563,134.334,Q,Q
2023-03-15 20:49:39:477,0,-54.2361,2.35433,134.334,Q,Q
2023-03-15 20:49:39:487,0,-54.237,2.35419,134.335,Q,Q
2023-03-15 20:49:39:497,0,-54.2391,2.35541,134.336,Q,Q
2023-03-15 20:49:39:507,0,-54.2407,2.35805,134.338,Q,Q
2023-03-15 20:49:39:517,0,-54.2436,2.3586,134.338,Q,Q
2023-03-15 20:49:39:527,0,-54.242,2.35912,134.34,Q,Q
2023-03-15 20:49:39:537,0,-54.2403,2.36128,134.339,Q,Q
2023-03-15 20:49:39:547,0,-54.2377,2.35912,134.34,Q,Q
2023-03-15 20:49:39:557,0,-54.2359,2.36138,134.337,Q,Q
2023-03-15 20:49:39:567,0,-54.2351,2.3609,134.335,Q,Q
2023-03-15 20:49:39:577,0,-54.2353,2.36036,134.333,Q,Q
2023-03-15 20:49:39:587,0,-54.2358,2.35809,134.334,Q,Q
2023-03-15 20:49:39:597,0,-54.2323,2.35886,134.335,Q,Q
2023-03-15 20:49:39:607,0,-54.2292,2.35782,134.337,Q,Q
2023-03-15 20:49:39:617,0,-54.2311,2.35807,134.337,Q,Q
2023-03-15 20:49:39:627,0,-54.2294,2.36067,134.336,Q,Q
2023-03-15 20:49:39:637,0,-54.2277,2.35923,134.334,Q,Q
2023-03-15 20:49:39:647,0,-54.2257,2.35567,134.334,Q,Q
2023-03-15 20:49:39:657,0,-54.2253,2.35259,134.333,Q,Q
2023-03-15 20:49:39:667,0,-54.2279,2.34794,134.332,Q,Q
2023-03-15 20:49:39:677,0,-54.2302,2.3498,134.331,Q,Q
2023-03-15 20:49:39:687,0,-54.2316,2.34716,134.328,Q,Q
2023-03-15 20:49:39:697,0,-54.2323,2.34686,134.327,Q,Q
2023-03-15 20:49:39:707,0,-54.2385,2.34693,134.329,Q,Q
2023-03-15 20:49:39:717,0,-54.2363,2.34438,134.33,Q,Q
2023-03-15 20:49:39:727,0,-54.2368,2.34512,134.328,Q,Q
2023-03-15 20:49:39:737,0,-54.2356,2.3433,134.328,Q,Q
2023-03-15 20:49:39:747,0,-54.2346,2.34105,134.327,Q,Q
2023-03-15 20:49:39:757,0,-54.2343,2.33956,134.328,Q,Q
2023-03-15 20:49:39:767,0,-54.2327,2.34287,134.33,Q,Q
2023-03-15 20:49:39:777,0,-54.2313,2.3438,134.331,Q,Q
2023-03-15 20:49:39:787,0,-54.2322,2.34552,134.33,Q,Q
2023-03-15 20:49:39:797,0,-54.2287,2.34805,134.33,Q,Q
2023-03-15 20:49:39:807,0,-54.2285,2.34881,134.329,Q,Q
2023-03-15 20:49:39:817,0,-54.2315,2.34747,134.328,Q,Q
2023-03-15 20:49:39:827,0,-54.2307,2.34619,134.328,Q,Q
2023-03-15 20:49:39:837,0,-54.2312,2.34339,134.327,Q,Q
2023-03-15 20:49:39:847,0,-54.2337,2.34291,134.332,Q,Q
2023-03-15 20:49:39:857,0,-54.2342,2.34072,134.332,Q,Q
2023-03-15 20:49:39:867,0,-54.2368,2.34241,134.336,Q,Q
2023-03-15 20:49:39:877,0,-54.2387,2.34217,134.334,Q,Q
2023-03-15 20:49:39:887,0,-54.2388,2.34413,134.333,Q,Q
2023-03-15 20:49:39:896,0,-54.239,2.34327,134.333,Q,Q
2023-03-15 20:49:39:907,0,-54.2363,2.34429,134.332,Q,Q
2023-03-15 20:49:39:916,0,-54.238,2.3437,134.332,Q,Q
2023-03-15 20:49:39:926,0,-54.2373,2.34448,134.33,Q,Q
2023-03-15 20:49:39:936,0,-54.2357,2.34331,134.329,Q,Q
2023-03-15 20:49:39:946,0,-54.2374,2.34523,134.329,Q,Q
2023-03-15 20:49:39:956,0,-54.2394,2.34692,134.334,Q,Q
2023-03-15 20:49:39:966,0,-54.2362,2.34711,134.334,Q,Q
2023-03-15 20:49:39:976,0,-54.236,2.34855,134.332,Q,Q
2023-03-15 20:49:39:986,0,-54.2349,2.35024,134.332,Q,Q
2023-03-15 20:49:39:996,0,-54.2342,2.35015,134.33,Q,Q
2023-03-15 20:49:40:6,0,-54.2364,2.35066,134.331,Q,Q
2023-03-15 20:49:40:16,0,-54.235,2.35071,134.331,Q,Q
2023-03-15 20:49:40:27,0,-54.2351,2.3505,134.331,Q,Q
2023-03-15 20:49:40:37,0,-54.2329,2.34869,134.329,Q,Q
2023-03-15 20:49:40:47,0,-54.2356,2.35168,134.328,Q,Q
2023-03-15 20:49:40:57,0,-54.2347,2.35123,134.327,Q,Q
2023-03-15 20:49:40:67,0,-54.2337,2.35223,134.328,Q,Q
2023-03-15 20:49:40:76,0,-54.2323,2.35307,134.327,Q,Q
2023-03-15 20:49:40:87,0,-54.2341,2.35047,134.326,Q,Q
2023-03-15 20:49:40:97,0,-54.2351,2.34854,134.325,Q,Q
2023-03-15 20:49:40:106,0,-54.2381,2.34722,134.32,Q,Q
2023-03-15 20:49:40:117,0,-54.2401,2.34658,134.321,Q,Q
2023-03-15 20:49:40:127,0,-54.2406,2.34494,134.323,Q,Q
2023-03-15 20:49:40:137,0,-54.2398,2.34567,134.324,Q,Q
2023-03-15 20:49:40:146,0,-54.2408,2.34564,134.325,Q,Q
2023-03-15 20:49:40:157,0,-54.2424,2.3464,134.323,Q,Q
2023-03-15 20:49:40:166,0,-54.243,2.34516,134.325,Q,Q
2023-03-15 20:49:40:177,0,-54.243,2.34386,134.323,Q,Q
2023-03-15 20:49:40:187,0,-54.2434,2.34532,134.325,Q,Q
2023-03-15 20:49:40:197,0,-54.2433,2.34534,134.325,Q,Q
2023-03-15 20:49:40:207,0,-54.2435,2.34523,134.324,Q,Q
2023-03-15 20:49:40:217,0,-54.244,2.34673,134.325,Q,Q
2023-03-15 20:49:40:227,0,-54.2423,2.3479,134.328,Q,Q
2023-03-15 20:49:40:237,0,-54.2423,2.3507,134.329,Q,Q
2023-03-15 20:49:40:247,0,-54.2403,2.34851,134.326,Q,Q
2023-03-15 20:49:40:257,0,-54.2397,2.34898,134.327,Q,Q
2023-03-15 20:49:40:266,0,-54.2384,2.34838,134.325,Q,Q
2023-03-15 20:49:40:276,0,-54.2348,2.34886,134.327,Q,Q
2023-03-15 20:49:40:287,0,-54.2326,2.34932,134.327,Q,Q
2023-03-15 20:49:40:296,0,-54.2332,2.34841,134.323,Q,Q
2023-03-15 20:49:40:306,0,-54.2326,2.34794,134.323,Q,Q
2023-03-15 20:49:40:316,0,-54.2331,2.34692,134.324,Q,Q
2023-03-15 20:49:40:327,0,-54.2339,2.34646,134.324,Q,Q
2023-03-15 20:49:40:336,0,-54.2354,2.3447,134.323,Q,Q
2023-03-15 20:49:40:346,0,-54.2362,2.34587,134.325,Q,Q
2023-03-15 20:49:40:356,0,-54.2338,2.34692,134.326,Q,Q
2023-03-15 20:49:40:366,0,-54.2362,2.34656,134.326,Q,Q
2023-03-15 20:49:40:376,0,-54.2352,2.34452,134.326,Q,Q
2023-03-15 20:49:40:386,0,-54.235,2.3442,134.324,Q,Q
2023-03-15 20:49:40:396,0,-54.2349,2.34107,134.322,Q,Q
2023-03-15 20:49:40:406,0,-54.2343,2.34089,134.324,Q,Q
2023-03-15 20:49:40:416,0,-54.2332,2.33815,134.326,Q,Q
2023-03-15 20:49:40:426,0,-54.2315,2.33889,134.327,Q,Q
2023-03-15 20:49:40:436,0,-54.2312,2.33839,134.328,Q,Q
2023-03-15 20:49:40:446,0,-54.2287,2.33933,134.327,Q,Q
2023-03-15 20:49:40:456,0,-54.2274,2.33835,134.324,Q,Q
2023-03-15 20:49:40:466,0,-54.2243,2.34072,134.324,Q,Q
2023-03-15 20:49:40:476,0,-54.2248,2.34185,134.328,Q,Q
2023-03-15 20:49:40:486,0,-54.2226,2.34133,134.329,Q,Q
2023-03-15 20:49:40:496,0,-54.2211,2.34397,134.33,Q,Q
2023-03-15 20:49:40:506,0,-54.2209,2.34543,134.331,Q,Q
2023-03-15 20:49:40:516,0,-54.2197,2.34602,134.332,Q,Q
2023-03-15 20:49:40:526,0,-54.2185,2.34682,134.334,Q,Q
2023-03-15 20:49:40:536,0,-54.2157,2.347,134.331,Q,Q
2023-03-15 20:49:40:546,0,-54.2125,2.34841,134.33,Q,Q
2023-03-15 20:49:40:556,0,-54.2159,2.34749,134.328,Q,Q
2023-03-15 20:49:40:566,0,-54.2164,2.34704,134.329,Q,Q
2023-03-15 20:49:40:576,0,-54.2164,2.34492,134.331,Q,Q
2023-03-15 20:49:40:586,0,-54.216,2.34429,134.328,Q,Q
2023-03-15 20:49:40:596,0,-54.2167,2.3442,134.328,Q,Q
2023-03-15 20:49:40:606,0,-54.2214,2.3446,134.328,Q,Q
2023-03-15 20:49:40:616,0,-54.2246,2.34319,134.331,Q,Q
2023-03-15 20:49:40:626,0,-54.2249,2.34374,134.33,Q,Q
2023-03-15 20:49:40:636,0,-54.224,2.34527,134.331,Q,Q
2023-03-15 20:49:40:646,0,-54.2264,2.34356,134.33,Q,Q
2023-03-15 20:49:40:656,0,-54.2254,2.34309,134.328,Q,Q
2023-03-15 20:49:40:666,0,-54.224,2.34211,134.325,Q,Q
2023-03-15 20:49:40:676,0,-54.2233,2.34192,134.327,Q,Q
2023-03-15 20:49:40:686,0,-54.2208,2.34184,134.329,Q,Q
2023-03-15 20:49:40:696,0,-54.2201,2.343,134.328,Q,Q
2023-03-15 20:49:40:706,0,-54.2225,2.34083,134.328,Q,Q
2023-03-15 20:49:40:716,0,-54.2214,2.34219,134.326,Q,Q
2023-03-15 20:49:40:726,0,-54.2203,2.34402,134.326,Q,Q
2023-03-15 20:49:40:736,0,-54.2204,2.34064,134.329,Q,Q
2023-03-15 20:49:40:746,0,-54.2223,2.34229,134.326,Q,Q
2023-03-15 20:49:40:756,0,-54.2229,2.34312,134.323,Q,Q
2023-03-15 20:49:40:766,0,-54.223,2.34185,134.324,Q,Q
2023-03-15 20:49:40:776,0,-54.218,2.33892,134.325,Q,Q
2023-03-15 20:49:40:786,0,-54.2187,2.33716,134.325,Q,Q
2023-03-15 20:49:40:796,0,-54.2175,2.33764,134.324,Q,Q
2023-03-15 20:49:40:806,0,-54.2195,2.33764,134.326,Q,Q
2023-03-15 20:49:40:816,0,-54.2201,2.33877,134.326,Q,Q
2023-03-15 20:49:40:826,0,-54.2215,2.33833,134.326,Q,Q
2023-03-15 20:49:40:836,0,-54.2209,2.33896,134.328,Q,Q
2023-03-15 20:49:40:846,0,-54.222,2.33758,134.331,Q,Q
2023-03-15 20:49:40:856,0,-54.2206,2.33623,134.331,Q,Q
2023-03-15 20:49:40:866,0,-54.2247,2.33542,134.331,Q,Q
2023-03-15 20:49:40:876,0,-54.2275,2.33825,134.327,Q,Q
2023-03-15 20:49:40:886,0,-54.2283,2.34039,134.327,Q,Q
2023-03-15 20:49:40:896,0,-54.2303,2.33913,134.326,Q,Q
2023-03-15 20:49:40:906,0,-54.2272,2.33688,134.327,Q,Q
2023-03-15 20:49:40:916,0,-54.2279,2.33516,134.327,Q,Q
2023-03-15 20:49:40:926,0,-54.2286,2.33542,134.325,Q,Q
2023-03-15 20:49:40:936,0,-54.2291,2.33389,134.327,Q,Q
2023-03-15 20:49:40:946,0,-54.2272,2.33293,134.326,Q,Q
2023-03-15 20:49:40:956,0,-54.2263,2.3334,134.327,Q,Q
2023-03-15 20:49:40:966,0,-54.2287,2.33318,134.325,Q,Q
2023-03-15 20:49:40:976,0,-54.2313,2.33613,134.323,Q,Q
2023-03-15 20:49:40:986,0,-54.2306,2.33398,134.326,Q,Q
2023-03-15 20:49:40:996,0,-54.2274,2.33742,134.324,Q,Q
2023-03-15 20:49:41:6,0,-54.2223,2.33917,134.325,Q,Q
2023-03-15 20:49:41:16,0,-54.2204,2.33946,134.323,Q,Q
2023-03-15 20:49:41:26,0,-54.2246,2.34221,134.324,Q,Q
2023-03-15 20:49:41:36,0,-54.2249,2.33908,134.327,Q,Q
2023-03-15 20:49:41:46,0,-54.2236,2.33926,134.327,Q,Q
2023-03-15 20:49:41:56,0,-54.225,2.3384,134.33,Q,Q
2023-03-15 20:49:41:66,0,-54.2241,2.34037,134.333,Q,Q
2023-03-15 20:49:41:76,0,-54.2289,2.33958,134.334,Q,Q
2023-03-15 20:49:41:86,0,-54.2275,2.34041,134.334,Q,Q
2023-03-15 20:49:41:96,0,-54.2289,2.33894,134.334,Q,Q
2023-03-15 20:49:41:106,0,-54.2295,2.33913,134.334,Q,Q
2023-03-15 20:49:41:116,0,-54.2288,2.33659,134.333,Q,Q
2023-03-15 20:49:41:126,0,-54.227,2.33751,134.334,Q,Q
2023-03-15 20:49:41:136,0,-54.228,2.33802,134.334,Q,Q
2023-03-15 20:49:41:146,0,-54.2272,2.33695,134.332,Q,Q
2023-03-15 20:49:41:156,0,-54.2283,2.33675,134.331,Q,Q
2023-03-15 20:49:41:166,0,-54.2267,2.33753,134.329,Q,Q
2023-03-15 20:49:41:176,0,-54.2292,2.33374,134.329,Q,Q
2023-03-15 20:49:41:186,0,-54.2326,2.33227,134.327,Q,Q
2023-03-15 20:49:41:196,0,-54.2342,2.33045,134.328,Q,Q
2023-03-15 20:49:41:206,0,-54.2356,2.33372,134.328,Q,Q
2023-03-15 20:49:41:216,0,-54.2341,2.33546,134.327,Q,Q
2023-03-15 20:49:41:226,0,-54.2317,2.33707,134.326,Q,Q
2023-03-15 20:49:41:236,0,-54.234,2.33578,134.328,Q,Q
2023-03-15 20:49:41:246,0,-54.2328,2.33537,134.33,Q,Q
2023-03-15 20:49:41:256,0,-54.2347,2.33289,134.333,Q,Q
2023-03-15 20:49:41:266,0,-54.2337,2.33285,134.332,Q,Q
2023-03-15 20:49:41:276,0,-54.2339,2.33199,134.333,Q,Q
2023-03-15 20:49:41:286,0,-54.2375,2.32975,134.333,Q,Q
2023-03-15 20:49:41:296,0,-54.2381,2.33019,134.333,Q,Q
2023-03-15 20:49:41:306,0,-54.2366,2.32783,134.333,Q,Q
2023-03-15 20:49:41:316,0,-54.2374,2.32644,134.333,Q,Q
2023-03-15 20:49:41:326,0,-54.2355,2.32606,134.333,Q,Q
2023-03-15 20:49:41:336,0,-54.2353,2.3271,134.337,Q,Q
2023-03-15 20:49:41:346,0,-54.2347,2.32575,134.338,Q,Q
2023-03-15 20:49:41:356,0,-54.2347,2.32628,134.34,Q,Q
2023-03-15 20:49:41:366,0,-54.2432,2.30908,134.342,Q,Q
2023-03-15 20:49:41:376,0,-54.4391,2.21274,134.337,Q,Q
2023-03-15 20:49:41:386,0,-54.4897,2.20769,134.326,Q,Q
2023-03-15 20:49:41:396,0,-54.3529,2.26926,134.331,Q,Q
2023-03-15 20:49:41:406,0,-54.2175,2.33328,134.347,Q,Q
2023-03-15 20:49:41:416,0,-54.2151,2.33053,134.347,Q,Q
2023-03-15 20:49:41:425,0,-54.2149,2.33199,134.346,Q,Q
2023-03-15 20:49:41:436,0,-54.2223,2.33147,134.345,Q,Q
2023-03-15 20:49:41:446,0,-54.2211,2.3308,134.342,Q,Q
2023-03-15 20:49:41:456,0,-54.2201,2.33135,134.341,Q,Q
2023-03-15 20:49:41:466,0,-54.2206,2.32842,134.34,Q,Q
2023-03-15 20:49:41:476,0,-54.2679,2.29428,134.335,Q,Q
2023-03-15 20:49:41:486,0,-54.3051,2.28292,134.33,Q,Q
2023-03-15 20:49:41:496,0,-54.2552,2.31967,134.333,Q,Q
2023-03-15 20:49:41:506,0,-54.2267,2.32558,134.339,Q,Q
2023-03-15 20:49:41:516,0,-54.2202,2.32876,134.34,Q,Q
2023-03-15 20:49:41:526,0,-54.2262,2.32718,134.34,Q,Q
2023-03-15 20:49:41:536,0,-54.2273,2.32749,134.341,Q,Q
2023-03-15 20:49:41:546,0,-54.226,2.32804,134.344,Q,Q
2023-03-15 20:49:41:556,0,-54.2268,2.32574,134.346,Q,Q
2023-03-15 20:49:41:566,0,-54.2477,2.31246,134.341,Q,Q
2023-03-15 20:49:41:576,0,-54.2404,2.31667,134.346,Q,Q
2023-03-15 20:49:41:586,0,-54.2364,2.31963,134.348,Q,Q
2023-03-15 20:49:41:595,0,-54.2339,2.31965,134.341,Q,Q
2023-03-15 20:49:41:606,0,-54.2367,2.31916,134.34,Q,Q
2023-03-15 20:49:41:616,0,-54.2401,2.32072,134.34,Q,Q
2023-03-15 20:49:41:626,0,-54.2412,2.32209,134.343,Q,Q
2023-03-15 20:49:41:636,0,-54.2399,2.32133,134.343,Q,Q
2023-03-15 20:49:41:646,0,-54.2425,2.32118,134.339,Q,Q
2023-03-15 20:49:41:656,0,-54.2406,2.32336,134.339,Q,Q
2023-03-15 20:49:41:666,0,-54.2374,2.32174,134.34,Q,Q
2023-03-15 20:49:41:676,0,-54.2394,2.32259,134.339,Q,Q
2023-03-15 20:49:41:686,0,-54.2368,2.32385,134.337,Q,Q
2023-03-15 20:49:41:696,0,-54.2368,2.32522,134.34,Q,Q
2023-03-15 20:49:41:706,0,-54.2361,2.32593,134.342,Q,Q
2023-03-15 20:49:41:716,0,-54.2407,2.32271,134.338,Q,Q
2023-03-15 20:49:41:726,0,-54.2408,2.32424,134.335,Q,Q
2023-03-15 20:49:41:736,0,-54.2441,2.32512,134.335,Q,Q
2023-03-15 20:49:41:746,0,-54.2473,2.32677,134.335,Q,Q
2023-03-15 20:49:41:756,0,-54.2494,2.32586,134.336,Q,Q
2023-03-15 20:49:41:766,0,-54.2485,2.32513,134.338,Q,Q
2023-03-15 20:49:41:776,0,-54.2471,2.32577,134.337,Q,Q
2023-03-15 20:49:41:786,0,-54.2486,2.32396,134.339,Q,Q
2023-03-15 20:49:41:796,0,-54.2487,2.32115,134.339,Q,Q
2023-03-15 20:49:41:806,0,-54.2464,2.32296,134.337,Q,Q
2023-03-15 20:49:41:816,0,-54.2476,2.32475,134.336,Q,Q
2023-03-15 20:49:41:826,0,-54.2485,2.32404,134.337,Q,Q
2023-03-15 20:49:41:836,0,-54.2473,2.32548,134.335,Q,Q
2023-03-15 20:49:41:846,0,-54.2475,2.32718,134.336,Q,Q
2023-03-15 20:49:41:856,0,-54.2488,2.32896,134.338,Q,Q
2023-03-15 20:49:41:866,0,-54.2493,2.33033,134.34,Q,Q
2023-03-15 20:49:41:876,0,-54.2466,2.32919,134.34,Q,Q
2023-03-15 20:49:41:886,0,-54.2468,2.3327,134.338,Q,Q
2023-03-15 20:49:41:896,0,-54.2483,2.33445,134.337,Q,Q
2023-03-15 20:49:41:906,0,-54.2487,2.33423,134.34,Q,Q
2023-03-15 20:49:41:916,0,-54.2477,2.33301,134.343,Q,Q
2023-03-15 20:49:41:926,0,-54.2425,2.33253,134.344,Q,Q
2023-03-15 20:49:41:935,0,-54.2432,2.33183,134.345,Q,Q
2023-03-15 20:49:41:946,0,-54.2427,2.33029,134.344,Q,Q
2023-03-15 20:49:41:955,0,-54.2426,2.33072,134.343,Q,Q
2023-03-15 20:49:41:966,0,-54.2422,2.32935,134.346,Q,Q
2023-03-15 20:49:41:976,0,-54.2396,2.32699,134.345,Q,Q
2023-03-15 20:49:41:986,0,-54.2394,2.32691,134.348,Q,Q
2023-03-15 20:49:41:995,0,-54.2385,2.32696,134.348,Q,Q
2023-03-15 20:49:42:6,0,-54.2387,2.32791,134.346,Q,Q
2023-03-15 20:49:42:15,0,-54.235,2.32693,134.347,Q,Q
2023-03-15 20:49:42:26,0,-54.2347,2.3301,134.347,Q,Q
2023-03-15 20:49:42:36,0,-54.2363,2.32892,134.346,Q,Q
2023-03-15 20:49:42:46,0,-54.2353,2.33101,134.347,Q,Q
2023-03-15 20:49:42:55,0,-54.2339,2.33079,134.35,Q,Q
2023-03-15 20:49:42:66,0,-54.2384,2.32922,134.349,Q,Q
2023-03-15 20:49:42:75,0,-54.2407,2.32868,134.348,Q,Q
2023-03-15 20:49:42:86,0,-54.2421,2.33063,134.351,Q,Q
2023-03-15 20:49:42:95,0,-54.2397,2.33084,134.355,Q,Q
2023-03-15 20:49:42:105,0,-54.2393,2.33216,134.354,Q,Q
2023-03-15 20:49:42:115,0,-54.2378,2.33315,134.353,Q,Q
2023-03-15 20:49:42:125,0,-54.2386,2.33153,134.352,Q,Q
2023-03-15 20:49:42:135,0,-54.2424,2.33005,134.351,Q,Q
2023-03-15 20:49:42:145,0,-54.2417,2.3282,134.353,Q,Q
2023-03-15 20:49:42:155,0,-54.2855,2.29401,134.349,Q,Q
2023-03-15 20:49:42:165,0,-54.3119,2.28082,134.343,Q,Q
2023-03-15 20:49:42:175,0,-54.2669,2.31226,134.344,Q,Q
2023-03-15 20:49:42:185,0,-54.245,2.3248,134.348,Q,Q
2023-03-15 20:49:42:195,0,-54.2369,2.32827,134.349,Q,Q
2023-03-15 20:49:42:205,0,-54.2358,2.32801,134.351,Q,Q
2023-03-15 20:49:42:215,0,-54.238,2.32342,134.35,Q,Q
2023-03-15 20:49:42:226,0,-54.2376,2.3201,134.352,Q,Q
2023-03-15 20:49:42:235,0,-54.2357,2.32064,134.348,Q,Q
2023-03-15 20:49:42:245,0,-54.2454,2.31419,134.347,Q,Q
2023-03-15 20:49:42:255,0,-54.2422,2.32036,134.346,Q,Q
2023-03-15 20:49:42:265,0,-54.2378,2.3249,134.349,Q,Q
2023-03-15 20:49:42:275,0,-54.2367,2.3278,134.347,Q,Q
2023-03-15 20:49:42:285,0,-54.2383,2.3292,134.347,Q,Q
2023-03-15 20:49:42:295,0,-54.2398,2.32979,134.345,Q,Q
2023-03-15 20:49:42:305,0,-54.2375,2.33168,134.344,Q,Q
2023-03-15 20:49:42:315,0,-54.2394,2.32941,134.346,Q,Q
2023-03-15 20:49:42:325,0,-54.2386,2.32882,134.345,Q,Q
2023-03-15 20:49:42:335,0,-54.2376,2.3296,134.345,Q,Q
2023-03-15 20:49:42:345,0,-54.2368,2.3313,134.347,Q,Q
2023-03-15 20:49:42:355,0,-54.2362,2.33266,134.351,Q,Q
2023-03-15 20:49:42:365,0,-54.2338,2.33262,134.351,Q,Q
2023-03-15 20:49:42:375,0,-54.2377,2.32949,134.351,Q,Q
2023-03-15 20:49:42:385,0,-54.2343,2.32964,134.352,Q,Q
2023-03-15 20:49:42:395,0,-54.2364,2.32829,134.351,Q,Q
2023-03-15 20:49:42:405,0,-54.2338,2.33128,134.35,Q,Q
2023-03-15 20:49:42:415,0,-54.23,2.3347,134.35,Q,Q
2023-03-15 20:49:42:425,0,-54.2304,2.33515,134.348,Q,Q
2023-03-15 20:49:42:435,0,-54.2305,2.33143,134.345,Q,Q
2023-03-15 20:49:42:445,0,-54.232,2.33505,134.344,Q,Q
2023-03-15 20:49:42:455,0,-54.233,2.33648,134.341,Q,Q
2023-03-15 20:49:42:465,0,-54.2334,2.33831,134.341,Q,Q
2023-03-15 20:49:42:475,0,-54.231,2.33821,134.341,Q,Q
2023-03-15 20:49:42:485,0,-54.2301,2.33949,134.34,Q,Q
2023-03-15 20:49:42:495,0,-54.2289,2.33924,134.34,Q,Q
2023-03-15 20:49:42:505,0,-54.2275,2.33924,134.336,Q,Q
2023-03-15 20:49:42:515,0,-54.2297,2.33815,134.338,Q,Q
2023-03-15 20:49:42:525,0,-54.2278,2.3378,134.336,Q,Q
2023-03-15 20:49:42:535,0,-54.2262,2.3385,134.335,Q,Q
2023-03-15 20:49:42:545,0,-54.226,2.33736,134.336,Q,Q
2023-03-15 20:49:42:555,0,-54.2271,2.33517,134.338,Q,Q
2023-03-15 20:49:42:565,0,-54.2255,2.33314,134.339,Q,Q
2023-03-15 20:49:42:575,0,-54.2236,2.3338,134.337,Q,Q
2023-03-15 20:49:42:585,0,-54.2239,2.33104,134.335,Q,Q
2023-03-15 20:49:42:595,0,-54.2237,2.33157,134.337,Q,Q
2023-03-15 20:49:42:605,0,-54.2232,2.33252,134.336,Q,Q
2023-03-15 20:49:42:615,0,-54.224,2.33395,134.339,Q,Q
2023-03-15 20:49:42:625,0,-54.2224,2.33263,134.34,Q,Q
2023-03-15 20:49:42:635,0,-54.2233,2.32995,134.339,Q,Q
2023-03-15 20:49:42:645,0,-54.2252,2.3317,134.339,Q,Q
2023-03-15 20:49:42:655,0,-54.2263,2.3325,134.338,Q,Q
2023-03-15 20:49:42:665,0,-54.2262,2.33237,134.34,Q,Q
2023-03-15 20:49:42:675,0,-54.2271,2.33247,134.339,Q,Q
2023-03-15 20:49:42:685,0,-54.2282,2.33418,134.338,Q,Q
2023-03-15 20:49:42:695,0,-54.2271,2.33219,134.337,Q,Q
2023-03-15 20:49:42:705,0,-54.2257,2.32889,134.338,Q,Q
2023-03-15 20:49:42:715,0,-54.2249,2.32882,134.338,Q,Q
2023-03-15 20:49:42:725,0,-54.2254,2.32845,134.334,Q,Q
2023-03-15 20:49:42:735,0,-54.2227,2.33025,134.34,Q,Q
2023-03-15 20:49:42:745,0,-54.2229,2.32915,134.343,Q,Q
2023-03-15 20:49:42:755,0,-54.2214,2.32672,134.345,Q,Q
2023-03-15 20:49:42:765,0,-54.2233,2.32775,134.343,Q,Q
2023-03-15 20:49:42:775,0,-54.2223,2.3297,134.343,Q,Q
2023-03-15 20:49:42:785,0,-54.2236,2.32777,134.346,Q,Q
2023-03-15 20:49:42:795,0,-54.2248,2.32734,134.347,Q,Q
2023-03-15 20:49:42:805,0,-54.2273,2.328,134.346,Q,Q
2023-03-15 20:49:42:815,0,-54.2294,2.32557,134.348,Q,Q
2023-03-15 20:49:42:825,0,-54.2289,2.32354,134.348,Q,Q
2023-03-15 20:49:42:835,0,-54.2305,2.32429,134.347,Q,Q
2023-03-15 20:49:42:845,0,-54.2332,2.32359,134.35,Q,Q
2023-03-15 20:49:42:855,0,-54.233,2.32251,134.353,Q,Q
2023-03-15 20:49:42:865,0,-54.2303,2.32235,134.355,Q,Q
2023-03-15 20:49:42:875,0,-54.2294,2.32074,134.353,Q,Q
2023-03-15 20:49:42:885,0,-54.2305,2.32059,134.353,Q,Q
2023-03-15 20:49:42:895,0,-54.2304,2.32132,134.354,Q,Q
2023-03-15 20:49:42:905,0,-54.2312,2.32452,134.354,Q,Q
2023-03-15 20:49:42:915,0,-54.2299,2.32483,134.354,Q,Q
2023-03-15 20:49:42:925,0,-54.2329,2.32597,134.355,Q,Q
2023-03-15 20:49:42:935,0,-54.2326,2.32607,134.354,Q,Q
2023-03-15 20:49:42:945,0,-54.2328,2.32599,134.352,Q,Q
2023-03-15 20:49:42:955,0,-54.2334,2.32749,134.351,Q,Q
2023-03-15 20:49:42:965,0,-54.2313,2.32684,134.351,Q,Q
2023-03-15 20:49:42:975,0,-54.2303,2.32558,134.349,Q,Q
2023-03-15 20:49:42:985,0,-54.2293,2.32297,134.349,Q,Q
2023-03-15 20:49:42:995,0,-54.2303,2.32348,134.349,Q,Q
2023-03-15 20:49:43:5,0,-54.2308,2.32771,134.35,Q,Q
2023-03-15 20:49:43:15,0,-54.2318,2.32728,134.349,Q,Q
2023-03-15 20:49:43:25,0,-54.2313,2.32863,134.35,Q,Q
2023-03-15 20:49:43:35,0,-54.2312,2.32853,134.35,Q,Q
2023-03-15 20:49:43:45,0,-54.2353,2.32943,134.35,Q,Q
2023-03-15 20:49:43:55,0,-54.2366,2.32662,134.347,Q,Q
2023-03-15 20:49:43:65,0,-54.2411,2.32398,134.347,Q,Q
2023-03-15 20:49:43:75,0,-54.2416,2.32658,134.348,Q,Q
2023-03-15 20:49:43:85,0,-54.2403,2.32582,134.346,Q,Q
2023-03-15 20:49:43:95,0,-54.2398,2.32895,134.348,Q,Q
2023-03-15 20:49:43:105,0,-54.2398,2.32939,134.345,Q,Q
2023-03-15 20:49:43:115,0,-54.2391,2.32847,134.345,Q,Q
2023-03-15 20:49:43:125,0,-54.2387,2.32763,134.346,Q,Q
2023-03-15 20:49:43:135,0,-54.2413,2.32735,134.347,Q,Q
2023-03-15 20:49:43:145,0,-54.2409,2.32533,134.348,Q,Q
2023-03-15 20:49:43:155,0,-54.2403,2.32473,134.348,Q,Q
2023-03-15 20:49:43:165,0,-54.2369,2.32292,134.347,Q,Q
2023-03-15 20:49:43:175,0,-54.2377,2.32239,134.347,Q,Q
2023-03-15 20:49:43:185,0,-54.2379,2.32165,134.346,Q,Q
2023-03-15 20:49:43:195,0,-54.2411,2.32027,134.347,Q,Q
2023-03-15 20:49:43:205,0,-54.2409,2.31819,134.346,Q,Q
2023-03-15 20:49:43:215,0,-54.2373,2.32114,134.344,Q,Q
2023-03-15 20:49:43:225,0,-54.2348,2.32218,134.345,Q,Q
2023-03-15 20:49:43:235,0,-54.2324,2.32077,134.345,Q,Q
2023-03-15 20:49:43:245,0,-54.234,2.31929,134.347,Q,Q
2023-03-15 20:49:43:255,0,-54.232,2.31651,134.346,Q,Q
2023-03-15 20:49:43:265,0,-54.2322,2.31738,134.344,Q,Q
2023-03-15 20:49:43:275,0,-54.2324,2.31634,134.345,Q,Q
2023-03-15 20:49:43:285,0,-54.2329,2.31595,134.345,Q,Q
2023-03-15 20:49:43:295,0,-54.2311,2.31792,134.346,Q,Q
2023-03-15 20:49:43:305,0,-54.2307,2.3207,134.347,Q,Q
2023-03-15 20:49:43:315,0,-54.2296,2.32182,134.348,Q,Q
2023-03-15 20:49:43:325,0,-54.2293,2.32143,134.346,Q,Q
2023-03-15 20:49:43:335,0,-54.2315,2.31826,134.346,Q,Q
2023-03-15 20:49:43:345,0,-54.2273,2.31852,134.347,Q,Q
2023-03-15 20:49:43:355,0,-54.2268,2.31925,134.348,Q,Q
2023-03-15 20:49:43:365,0,-54.2273,2.31974,134.346,Q,Q
2023-03-15 20:49:43:375,0,-54.2328,2.31686,134.344,Q,Q
2023-03-15 20:49:43:385,0,-54.2299,2.31429,134.346,Q,Q
2023-03-15 20:49:43:395,0,-54.2274,2.31213,134.349,Q,Q
2023-03-15 20:49:43:405,0,-54.2257,2.31166,134.351,Q,Q
2023-03-15 20:49:43:415,0,-54.2246,2.30983,134.352,Q,Q
2023-03-15 20:49:43:425,0,-54.2216,2.30803,134.352,Q,Q
2023-03-15 20:49:43:435,0,-54.2212,2.3073,134.355,Q,Q
2023-03-15 20:49:43:445,0,-54.2207,2.30551,134.356,Q,Q
2023-03-15 20:49:43:455,0,-54.2218,2.30598,134.354,Q,Q
2023-03-15 20:49:43:465,0,-54.2205,2.30768,134.357,Q,Q
2023-03-15 20:49:43:475,0,-54.2202,2.3069,134.356,Q,Q
2023-03-15 20:49:43:485,0,-54.2194,2.30747,134.356,Q,Q
2023-03-15 20:49:43:495,0,-54.2178,2.30923,134.359,Q,Q
2023-03-15 20:49:43:505,0,-54.2178,2.30901,134.363,Q,Q
2023-03-15 20:49:43:515,0,-54.2181,2.30996,134.366,Q,Q
2023-03-15 20:49:43:525,0,-54.2166,2.30548,134.367,Q,Q
2023-03-15 20:49:43:535,0,-54.2152,2.30429,134.368,Q,Q
2023-03-15 20:49:43:545,0,-54.2178,2.30351,134.367,Q,Q
2023-03-15 20:49:43:555,0,-54.2148,2.30373,134.369,Q,Q
2023-03-15 20:49:43:565,0,-54.2143,2.30366,134.372,Q,Q
2023-03-15 20:49:43:575,0,-54.2137,2.30586,134.371,Q,Q
2023-03-15 20:49:43:585,0,-54.2118,2.30732,134.37,Q,Q
2023-03-15 20:49:43:595,0,-54.2085,2.30791,134.37,Q,Q
2023-03-15 20:49:43:605,0,-54.2085,2.30685,134.371,Q,Q
2023-03-15 20:49:43:615,0,-54.2098,2.30691,134.369,Q,Q
2023-03-15 20:49:43:625,0,-54.212,2.30574,134.369,Q,Q
2023-03-15 20:49:43:635,0,-54.2135,2.3054,134.368,Q,Q
2023-03-15 20:49:43:645,0,-54.2131,2.3087,134.367,Q,Q
2023-03-15 20:49:43:655,0,-54.2138,2.30879,134.365,Q,Q
2023-03-15 20:49:43:665,0,-54.2161,2.30787,134.363,Q,Q
2023-03-15 20:49:43:675,0,-54.2154,2.30798,134.362,Q,Q
2023-03-15 20:49:43:685,0,-54.2149,2.30768,134.362,Q,Q
2023-03-15 20:49:43:695,0,-54.2121,2.30568,134.365,Q,Q
2023-03-15 20:49:43:705,0,-54.2117,2.30569,134.364,Q,Q
2023-03-15 20:49:43:715,0,-54.2168,2.3093,134.36,Q,Q
2023-03-15 20:49:43:725,0,-54.216,2.31031,134.361,Q,Q
2023-03-15 20:49:43:735,0,-54.2151,2.31189,134.362,Q,Q
2023-03-15 20:49:43:745,0,-54.2133,2.312,134.364,Q,Q
2023-03-15 20:49:43:755,0,-54.2132,2.31301,134.364,Q,Q
2023-03-15 20:49:43:765,0,-54.2107,2.31119,134.365,Q,Q
2023-03-15 20:49:43:775,0,-54.2119,2.31235,134.363,Q,Q
2023-03-15 20:49:43:785,0,-54.2123,2.31182,134.362,Q,Q
2023-03-15 20:49:43:795,0,-54.2099,2.31006,134.365,Q,Q
2023-03-15 20:49:43:805,0,-54.2101,2.30999,134.364,Q,Q
2023-03-15 20:49:43:815,0,-54.2099,2.31195,134.362,Q,Q
2023-03-15 20:49:43:825,0,-54.2109,2.31605,134.362,Q,Q
2023-03-15 20:49:43:835,0,-54.2098,2.31472,134.363,Q,Q
2023-03-15 20:49:43:845,0,-54.2097,2.3144,134.361,Q,Q
2023-03-15 20:49:43:855,0,-54.2101,2.31593,134.362,Q,Q
2023-03-15 20:49:43:865,0,-54.2111,2.31616,134.358,Q,Q
2023-03-15 20:49:43:875,0,-54.2116,2.31598,134.36,Q,Q
2023-03-15 20:49:43:885,0,-54.2143,2.31587,134.358,Q,Q
2023-03-15 20:49:43:895,0,-54.2133,2.31404,134.356,Q,Q
2023-03-15 20:49:43:905,0,-54.2132,2.31567,134.357,Q,Q
2023-03-15 20:49:43:915,0,-54.215,2.31773,134.358,Q,Q
2023-03-15 20:49:43:925,0,-54.2125,2.3196,134.356,Q,Q
2023-03-15 20:49:43:935,0,-54.2099,2.31895,134.355,Q,Q
2023-03-15 20:49:43:945,0,-54.2115,2.32146,134.354,Q,Q
2023-03-15 20:49:43:955,0,-54.2097,2.32182,134.355,Q,Q
2023-03-15 20:49:43:965,0,-54.2061,2.32348,134.354,Q,Q
2023-03-15 20:49:43:975,0,-54.2065,2.32131,134.353,Q,Q
2023-03-15 20:49:43:984,0,-54.2053,2.32151,134.354,Q,Q
2023-03-15 20:49:43:995,0,-54.2057,2.3226,134.354,Q,Q
2023-03-15 20:49:44:5,0,-54.2056,2.323,134.354,Q,Q
2023-03-15 20:49:44:15,0,-54.2045,2.32094,134.354,Q,Q
2023-03-15 20:49:44:24,0,-54.2046,2.32192,134.357,Q,Q
2023-03-15 20:49:44:35,0,-54.2048,2.3219,134.356,Q,Q
2023-03-15 20:49:44:45,0,-54.2,2.32181,134.359,Q,Q
2023-03-15 20:49:44:54,0,-54.2009,2.32142,134.357,Q,Q
2023-03-15 20:49:44:65,0,-54.1987,2.32341,134.356,Q,Q
2023-03-15 20:49:44:75,0,-54.1994,2.32541,134.354,Q,Q
2023-03-15 20:49:44:85,0,-54.1993,2.32529,134.353,Q,Q
2023-03-15 20:49:44:95,0,-54.2007,2.32418,134.352,Q,Q
2023-03-15 20:49:44:105,0,-54.2006,2.32496,134.352,Q,Q
2023-03-15 20:49:44:115,0,-54.2,2.32277,134.352,Q,Q
2023-03-15 20:49:44:125,0,-54.2021,2.32264,134.352,Q,Q
2023-03-15 20:49:44:134,0,-54.2063,2.32388,134.351,Q,Q
2023-03-15 20:49:44:144,0,-54.2085,2.32355,134.351,Q,Q
2023-03-15 20:49:44:154,0,-54.2099,2.32287,134.35,Q,Q
2023-03-15 20:49:44:165,0,-54.2076,2.32128,134.351,Q,Q
2023-03-15 20:49:44:174,0,-54.2106,2.31884,134.35,Q,Q
2023-03-15 20:49:44:184,0,-54.2144,2.32106,134.35,Q,Q
2023-03-15 20:49:44:195,0,-54.2116,2.32386,134.349,Q,Q
2023-03-15 20:49:44:205,0,-54.2149,2.3254,134.349,Q,Q
2023-03-15 20:49:44:215,0,-54.2157,2.33029,134.349,Q,Q
2023-03-15 20:49:44:225,0,-54.2145,2.33272,134.35,Q,Q
2023-03-15 20:49:44:235,0,-54.2129,2.3352,134.352,Q,Q
2023-03-15 20:49:44:244,0,-54.2122,2.33731,134.352,Q,Q
2023-03-15 20:49:44:255,0,-54.2138,2.3334,134.352,Q,Q
2023-03-15 20:49:44:264,0,-54.2119,2.33061,134.355,Q,Q
2023-03-15 20:49:44:275,0,-54.2121,2.33024,134.356,Q,Q
2023-03-15 20:49:44:284,0,-54.213,2.32891,134.357,Q,Q
2023-03-15 20:49:44:295,0,-54.2132,2.33005,134.36,Q,Q
2023-03-15 20:49:44:305,0,-54.2139,2.32837,134.362,Q,Q
2023-03-15 20:49:44:315,0,-54.2165,2.32923,134.36,Q,Q
2023-03-15 20:49:44:325,0,-54.2198,2.32686,134.361,Q,Q
2023-03-15 20:49:44:335,0,-54.2216,2.32822,134.361,Q,Q
2023-03-15 20:49:44:344,0,-54.2256,2.32929,134.358,Q,Q
2023-03-15 20:49:44:355,0,-54.2249,2.32732,134.36,Q,Q
2023-03-15 20:49:44:365,0,-54.2242,2.32896,134.359,Q,Q
2023-03-15 20:49:44:375,0,-54.2215,2.32772,134.359,Q,Q
2023-03-15 20:49:44:384,0,-54.2215,2.32616,134.357,Q,Q
2023-03-15 20:49:44:394,0,-54.2232,2.32571,134.358,Q,Q
2023-03-15 20:49:44:404,0,-54.2248,2.32555,134.356,Q,Q
2023-03-15 20:49:44:415,0,-54.223,2.3272,134.355,Q,Q
2023-03-15 20:49:44:424,0,-54.2244,2.32432,134.354,Q,Q
2023-03-15 20:49:44:434,0,-54.2234,2.32224,134.355,Q,Q
2023-03-15 20:49:44:444,0,-54.2215,2.32311,134.356,Q,Q
2023-03-15 20:49:44:455,0,-54.2247,2.32407,134.356,Q,Q
2023-03-15 20:49:44:464,0,-54.2229,2.32586,134.354,Q,Q
2023-03-15 20:49:44:474,0,-54.2248,2.32659,134.356,Q,Q
2023-03-15 20:49:44:484,0,-54.2255,2.3273,134.356,Q,Q
2023-03-15 20:49:44:494,0,-54.2278,2.32527,134.356,Q,Q
2023-03-15 20:49:44:504,0,-54.2275,2.32312,134.354,Q,Q
2023-03-15 20:49:44:514,0,-54.226,2.32634,134.349,Q,Q
2023-03-15 20:49:44:524,0,-54.2262,2.3265,134.348,Q,Q
2023-03-15 20:49:44:534,0,-54.2257,2.32666,134.346,Q,Q
2023-03-15 20:49:44:544,0,-54.2259,2.32801,134.344,Q,Q
2023-03-15 20:49:44:554,0,-54.2257,2.3283,134.346,Q,Q
2023-03-15 20:49:44:564,0,-54.2245,2.32767,134.346,Q,Q
2023-03-15 20:49:44:574,0,-54.2256,2.32975,134.344,Q,Q
2023-03-15 20:49:44:584,0,-54.2256,2.3288,134.342,Q,Q
2023-03-15 20:49:44:594,0,-54.2264,2.32616,134.342,Q,Q
2023-03-15 20:49:44:604,0,-54.2281,2.32644,134.342,Q,Q
2023-03-15 20:49:44:614,0,-54.2279,2.32703,134.343,Q,Q
2023-03-15 20:49:44:624,0,-54.23,2.32887,134.343,Q,Q
2023-03-15 20:49:44:634,0,-54.2293,2.32744,134.344,Q,Q
2023-03-15 20:49:44:644,0,-54.2255,2.32613,134.344,Q,Q
2023-03-15 20:49:44:654,0,-54.2264,2.32541,134.342,Q,Q
2023-03-15 20:49:44:664,0,-54.225,2.32504,134.34,Q,Q
2023-03-15 20:49:44:674,0,-54.2259,2.32341,134.337,Q,Q
2023-03-15 20:49:44:684,0,-54.2248,2.32218,134.338,Q,Q
2023-03-15 20:49:44:694,0,-54.2268,2.32214,134.339,Q,Q
2023-03-15 20:49:44:704,0,-54.2285,2.32336,134.338,Q,Q
2023-03-15 20:49:44:714,0,-54.2282,2.32785,134.339,Q,Q
2023-03-15 20:49:44:724,0,-54.2276,2.32704,134.338,Q,Q
2023-03-15 20:49:44:734,0,-54.2289,2.32735,134.335,Q,Q
2023-03-15 20:49:44:744,0,-54.2293,2.32641,134.339,Q,Q
2023-03-15 20:49:44:754,0,-54.2318,2.32733,134.337,Q,Q
2023-03-15 20:49:44:764,0,-54.2328,2.32744,134.334,Q,Q
2023-03-15 20:49:44:774,0,-54.2342,2.32771,134.335,Q,Q
2023-03-15 20:49:44:784,0,-54.2362,2.32681,134.334,Q,Q
2023-03-15 20:49:44:794,0,-54.238,2.32604,134.335,Q,Q
2023-03-15 20:49:44:804,0,-54.2406,2.32768,134.335,Q,Q
2023-03-15 20:49:44:814,0,-54.2427,2.32736,134.334,Q,Q
2023-03-15 20:49:44:824,0,-54.2417,2.32968,134.335,Q,Q
2023-03-15 20:49:44:834,0,-54.2416,2.32904,134.337,Q,Q
2023-03-15 20:49:44:844,0,-54.2432,2.32443,134.336,Q,Q
2023-03-15 20:49:44:854,0,-54.2427,2.32472,134.335,Q,Q
2023-03-15 20:49:44:864,0,-54.2395,2.3266,134.335,Q,Q
2023-03-15 20:49:44:874,0,-54.2377,2.32628,134.335,Q,Q
2023-03-15 20:49:44:884,0,-54.2382,2.3295,134.332,Q,Q
2023-03-15 20:49:44:894,0,-54.2374,2.32889,134.333,Q,Q
2023-03-15 20:49:44:904,0,-54.2371,2.33021,134.336,Q,Q
2023-03-15 20:49:44:914,0,-54.2378,2.33038,134.339,Q,Q
2023-03-15 20:49:44:924,0,-54.2387,2.32758,134.336,Q,Q
2023-03-15 20:49:44:934,0,-54.2381,2.32587,134.337,Q,Q
2023-03-15 20:49:44:944,0,-54.2372,2.32651,134.34,Q,Q
2023-03-15 20:49:44:954,0,-54.2356,2.32486,134.339,Q,Q
2023-03-15 20:49:44:964,0,-54.2333,2.32449,134.334,Q,Q
2023-03-15 20:49:44:974,0,-54.2319,2.32441,134.334,Q,Q
2023-03-15 20:49:44:984,0,-54.2297,2.3231,134.335,Q,Q
2023-03-15 20:49:44:994,0,-54.2319,2.3179,134.335,Q,Q
2023-03-15 20:49:45:4,0,-54.2336,2.31694,134.334,Q,Q
2023-03-15 20:49:45:14,0,-54.2355,2.31483,134.335,Q,Q
2023-03-15 20:49:45:24,0,-54.2366,2.3169,134.335,Q,Q
2023-03-15 20:49:45:34,0,-54.2332,2.31824,134.334,Q,Q
2023-03-15 20:49:45:44,0,-54.2336,2.31793,134.334,Q,Q
2023-03-15 20:49:45:54,0,-54.2319,2.31888,134.335,Q,Q
2023-03-15 20:49:45:64,0,-54.2319,2.31731,134.335,Q,Q
2023-03-15 20:49:45:74,0,-54.2325,2.31611,134.334,Q,Q
2023-03-15 20:49:45:84,0,-54.2337,2.31716,134.335,Q,Q
2023-03-15 20:49:45:94,0,-54.2324,2.31654,134.336,Q,Q
2023-03-15 20:49:45:104,0,-54.2328,2.31742,134.337,Q,Q
2023-03-15 20:49:45:114,0,-54.2339,2.31864,134.337,Q,Q
2023-03-15 20:49:45:124,0,-54.2323,2.31857,134.337,Q,Q
2023-03-15 20:49:45:134,0,-54.2337,2.31421,134.339,Q,Q
2023-03-15 20:49:45:144,0,-54.234,2.31454,134.338,Q,Q
2023-03-15 20:49:45:154,0,-54.2321,2.31387,134.34,Q,Q
2023-03-15 20:49:45:164,0,-54.2322,2.31549,134.34,Q,Q
2023-03-15 20:49:45:174,0,-54.2313,2.31655,134.338,Q,Q
2023-03-15 20:49:45:184,0,-54.2312,2.31389,134.343,Q,Q
2023-03-15 20:49:45:194,0,-54.2309,2.30947,134.342,Q,Q
2023-03-15 20:49:45:204,0,-54.2338,2.30851,134.344,Q,Q
2023-03-15 20:49:45:214,0,-54.2358,2.30985,134.343,Q,Q
2023-03-15 20:49:45:224,0,-54.2359,2.30871,134.345,Q,Q
2023-03-15 20:49:45:234,0,-54.2343,2.30863,134.344,Q,Q
2023-03-15 20:49:45:244,0,-54.2338,2.30805,134.342,Q,Q
2023-03-15 20:49:45:254,0,-54.2335,2.31132,134.342,Q,Q
2023-03-15 20:49:45:264,0,-54.2363,2.30934,134.342,Q,Q
2023-03-15 20:49:45:274,0,-54.2369,2.31071,134.338,Q,Q
2023-03-15 20:49:45:284,0,-54.2391,2.30949,134.336,Q,Q
2023-03-15 20:49:45:294,0,-54.2392,2.30911,134.332,Q,Q
2023-03-15 20:49:45:304,0,-54.2412,2.30736,134.333,Q,Q
2023-03-15 20:49:45:314,0,-54.242,2.31013,134.331,Q,Q
2023-03-15 20:49:45:324,0,-54.2437,2.31136,134.331,Q,Q
2023-03-15 20:49:45:334,0,-54.2433,2.31162,134.331,Q,Q
2023-03-15 20:49:45:344,0,-54.2444,2.30837,134.329,Q,Q
2023-03-15 20:49:45:354,0,-54.243,2.30557,134.329,Q,Q
2023-03-15 20:49:45:364,0,-54.2435,2.3039,134.33,Q,Q
2023-03-15 20:49:45:374,0,-54.241,2.30011,134.326,Q,Q
2023-03-15 20:49:45:384,0,-54.2405,2.29718,134.324,Q,Q
2023-03-15 20:49:45:394,0,-54.2415,2.29704,134.325,Q,Q
2023-03-15 20:49:45:404,0,-54.2444,2.29693,134.328,Q,Q
2023-03-15 20:49:45:414,0,-54.2425,2.29588,134.329,Q,Q
2023-03-15 20:49:45:424,0,-54.2425,2.2985,134.329,Q,Q
2023-03-15 20:49:45:434,0,-54.2443,2.29774,134.33,Q,Q
2023-03-15 20:49:45:444,0,-54.2457,2.29667,134.328,Q,Q
2023-03-15 20:49:45:454,0,-54.2457,2.29617,134.327,Q,Q
2023-03-15 20:49:45:464,0,-54.2468,2.29969,134.326,Q,Q
2023-03-15 20:49:45:474,0,-54.2456,2.30069,134.326,Q,Q
2023-03-15 20:49:45:484,0,-54.2448,2.29878,134.323,Q,Q
2023-03-15 20:49:45:494,0,-54.2436,2.29741,134.322,Q,Q
2023-03-15 20:49:45:504,0,-54.2453,2.30135,134.324,Q,Q
2023-03-15 20:49:45:514,0,-54.2463,2.30189,134.326,Q,Q
2023-03-15 20:49:45:524,0,-54.2452,2.30316,134.327,Q,Q
2023-03-15 20:49:45:534,0,-54.2482,2.30473,134.326,Q,Q
2023-03-15 20:49:45:544,0,-54.2456,2.30596,134.328,Q,Q
2023-03-15 20:49:45:554,0,-54.2436,2.30643,134.327,Q,Q
2023-03-15 20:49:45:564,0,-54.2441,2.30527,134.328,Q,Q
2023-03-15 20:49:45:574,0,-54.2442,2.305,134.324,Q,Q
2023-03-15 20:49:45:584,0,-54.2444,2.30712,134.326,Q,Q
2023-03-15 20:49:45:594,0,-54.2452,2.30928,134.324,Q,Q
2023-03-15 20:49:45:604,0,-54.2453,2.30937,134.324,Q,Q
2023-03-15 20:49:45:614,0,-54.2423,2.31215,134.326,Q,Q
2023-03-15 20:49:45:624,0,-54.243,2.31124,134.326,Q,Q
2023-03-15 20:49:45:634,0,-54.2441,2.31104,134.325,Q,Q
2023-03-15 20:49:45:644,0,-54.2452,2.30956,134.325,Q,Q
2023-03-15 20:49:45:654,0,-54.2462,2.31173,134.323,Q,Q
2023-03-15 20:49:45:664,0,-54.2464,2.31381,134.324,Q,Q
2023-03-15 20:49:45:674,0,-54.248,2.31359,134.32,Q,Q
2023-03-15 20:49:45:683,0,-54.2467,2.3153,134.32,Q,Q
2023-03-15 20:49:45:694,0,-54.25,2.31517,134.32,Q,Q
2023-03-15 20:49:45:704,0,-54.2485,2.31459,134.321,Q,Q
2023-03-15 20:49:45:714,0,-54.2496,2.31735,134.322,Q,Q
2023-03-15 20:49:45:724,0,-54.248,2.31722,134.322,Q,Q
2023-03-15 20:49:45:734,0,-54.2504,2.31676,134.324,Q,Q
2023-03-15 20:49:45:744,0,-54.252,2.31552,134.326,Q,Q
2023-03-15 20:49:45:754,0,-54.2516,2.31741,134.327,Q,Q
2023-03-15 20:49:45:764,0,-54.2517,2.31668,134.326,Q,Q
2023-03-15 20:49:45:774,0,-54.2538,2.31691,134.327,Q,Q
2023-03-15 20:49:45:784,0,-54.2544,2.31929,134.326,Q,Q
2023-03-15 20:49:45:794,0,-54.2569,2.32129,134.326,Q,Q
2023-03-15 20:49:45:804,0,-54.2541,2.31837,134.325,Q,Q
2023-03-15 20:49:45:814,0,-54.2522,2.31658,134.324,Q,Q
2023-03-15 20:49:45:824,0,-54.2552,2.31692,134.325,Q,Q
2023-03-15 20:49:45:834,0,-54.2551,2.31853,134.325,Q,Q
2023-03-15 20:49:45:844,0,-54.2547,2.31987,134.322,Q,Q
2023-03-15 20:49:45:854,0,-54.2515,2.31972,134.322,Q,Q
2023-03-15 20:49:45:864,0,-54.2505,2.32004,134.321,Q,Q
2023-03-15 20:49:45:874,0,-54.2534,2.32018,134.32,Q,Q
2023-03-15 20:49:45:884,0,-54.2566,2.31949,134.32,Q,Q
2023-03-15 20:49:45:894,0,-54.2562,2.32228,134.319,Q,Q
2023-03-15 20:49:45:904,0,-54.253,2.32226,134.319,Q,Q
2023-03-15 20:49:45:914,0,-54.2538,2.32267,134.322,Q,Q
2023-03-15 20:49:45:924,0,-54.2519,2.32245,134.322,Q,Q
2023-03-15 20:49:45:934,0,-54.2508,2.32572,134.322,Q,Q
2023-03-15 20:49:45:944,0,-54.2502,2.32088,134.321,Q,Q
2023-03-15 20:49:45:954,0,-54.2526,2.32194,134.32,Q,Q
2023-03-15 20:49:45:964,0,-54.2566,2.31996,134.321,Q,Q
2023-03-15 20:49:45:974,0,-54.2563,2.31978,134.323,Q,Q
2023-03-15 20:49:45:984,0,-54.2557,2.31903,134.325,Q,Q
2023-03-15 20:49:45:994,0,-54.2547,2.32036,134.327,Q,Q
2023-03-15 20:49:46:3,0,-54.2501,2.32141,134.328,Q,Q
2023-03-15 20:49:46:14,0,-54.254,2.32354,134.328,Q,Q
2023-03-15 20:49:46:24,0,-54.252,2.32545,134.33,Q,Q
2023-03-15 20:49:46:33,0,-54.2515,2.32558,134.331,Q,Q
2023-03-15 20:49:46:43,0,-54.2486,2.32552,134.331,Q,Q
2023-03-15 20:49:46:53,0,-54.2492,2.32398,134.333,Q,Q
2023-03-15 20:49:46:64,0,-54.2488,2.32534,134.33,Q,Q
2023-03-15 20:49:46:74,0,-54.2487,2.32425,134.331,Q,Q
2023-03-15 20:49:46:83,0,-54.2486,2.32374,134.33,Q,Q
2023-03-15 20:49:46:94,0,-54.2459,2.32599,134.33,Q,Q
2023-03-15 20:49:46:103,0,-54.2449,2.32636,134.332,Q,Q
2023-03-15 20:49:46:114,0,-54.2456,2.33169,134.334,Q,Q
2023-03-15 20:49:46:123,0,-54.248,2.33438,134.334,Q,Q
2023-03-15 20:49:46:134,0,-54.2483,2.33635,134.335,Q,Q
2023-03-15 20:49:46:144,0,-54.2469,2.33624,134.334,Q,Q
2023-03-15 20:49:46:154,0,-54.2475,2.33393,134.331,Q,Q
2023-03-15 20:49:46:163,0,-54.2454,2.33219,134.331,Q,Q
2023-03-15 20:49:46:173,0,-54.2459,2.33152,134.333,Q,Q
2023-03-15 20:49:46:183,0,-54.2495,2.33122,134.334,Q,Q
2023-03-15 20:49:46:193,0,-54.2496,2.33366,134.335,Q,Q
2023-03-15 20:49:46:203,0,-54.2464,2.33326,134.336,Q,Q
2023-03-15 20:49:46:214,0,-54.245,2.33264,134.338,Q,Q
2023-03-15 20:49:46:223,0,-54.2463,2.33156,134.339,Q,Q
2023-03-15 20:49:46:233,0,-54.2433,2.33142,134.339,Q,Q
2023-03-15 20:49:46:243,0,-54.2414,2.32906,134.34,Q,Q
2023-03-15 20:49:46:253,0,-54.2391,2.33076,134.34,Q,Q
2023-03-15 20:49:46:263,0,-54.2397,2.32765,134.34,Q,Q
2023-03-15 20:49:46:273,0,-54.2392,2.32792,134.341,Q,Q
2023-03-15 20:49:46:283,0,-54.2375,2.32692,134.341,Q,Q
2023-03-15 20:49:46:294,0,-54.2352,2.33022,134.343,Q,Q
2023-03-15 20:49:46:303,0,-54.2349,2.32865,134.343,Q,Q
2023-03-15 20:49:46:314,0,-54.2352,2.32875,134.344,Q,Q
2023-03-15 20:49:46:323,0,-54.235,2.32815,134.342,Q,Q
2023-03-15 20:49:46:334,0,-54.234,2.32821,134.341,Q,Q
2023-03-15 20:49:46:343,0,-54.2324,2.32827,134.341,Q,Q
2023-03-15 20:49:46:353,0,-54.2343,2.32824,134.341,Q,Q
2023-03-15 20:49:46:363,0,-54.2314,2.32728,134.339,Q,Q
2023-03-15 20:49:46:373,0,-54.2308,2.3291,134.339,Q,Q
2023-03-15 20:49:46:383,0,-54.2325,2.32825,134.341,Q,Q
2023-03-15 20:49:46:393,0,-54.2335,2.33024,134.339,Q,Q
2023-03-15 20:49:46:403,0,-54.2331,2.32858,134.339,Q,Q
2023-03-15 20:49:46:413,0,-54.2329,2.32749,134.34,Q,Q
2023-03-15 20:49:46:423,0,-54.232,2.32713,134.336,Q,Q
2023-03-15 20:49:46:433,0,-54.2311,2.32774,134.339,Q,Q
2023-03-15 20:49:46:443,0,-54.2307,2.32937,134.341,Q,Q
2023-03-15 20:49:46:454,0,-54.2282,2.32715,134.34,Q,Q
2023-03-15 20:49:46:463,0,-54.2301,2.32901,134.34,Q,Q
2023-03-15 20:49:46:473,0,-54.2295,2.33066,134.34,Q,Q
2023-03-15 20:49:46:483,0,-54.2318,2.33317,134.338,Q,Q
2023-03-15 20:49:46:493,0,-54.2327,2.33374,134.336,Q,Q
2023-03-15 20:49:46:503,0,-54.2359,2.33179,134.334,Q,Q
2023-03-15 20:49:46:513,0,-54.2351,2.33003,134.336,Q,Q
2023-03-15 20:49:46:523,0,-54.2345,2.32853,134.34,Q,Q
2023-03-15 20:49:46:533,0,-54.2371,2.32908,134.341,Q,Q
2023-03-15 20:49:46:543,0,-54.2356,2.33267,134.34,Q,Q
2023-03-15 20:49:46:553,0,-54.2363,2.33327,134.338,Q,Q
2023-03-15 20:49:46:563,0,-54.2362,2.33323,134.337,Q,Q
2023-03-15 20:49:46:573,0,-54.2342,2.33601,134.336,Q,Q
2023-03-15 20:49:46:583,0,-54.2347,2.33688,134.337,Q,Q
2023-03-15 20:49:46:593,0,-54.2352,2.33585,134.335,Q,Q
2023-03-15 20:49:46:603,0,-54.2342,2.33423,134.332,Q,Q
2023-03-15 20:49:46:613,0,-54.2357,2.33533,134.33,Q,Q
2023-03-15 20:49:46:623,0,-54.2365,2.33568,134.331,Q,Q
2023-03-15 20:49:46:633,0,-54.2376,2.33545,134.335,Q,Q
2023-03-15 20:49:46:643,0,-54.2355,2.33889,134.335,Q,Q
2023-03-15 20:49:46:653,0,-54.2361,2.33651,134.332,Q,Q
2023-03-15 20:49:46:663,0,-54.2334,2.33856,134.336,Q,Q
2023-03-15 20:49:46:673,0,-54.2351,2.33344,134.335,Q,Q
2023-03-15 20:49:46:683,0,-54.2368,2.33601,134.335,Q,Q
2023-03-15 20:49:46:693,0,-54.2396,2.33645,134.336,Q,Q
2023-03-15 20:49:46:703,0,-54.2364,2.33722,134.338,Q,Q
2023-03-15 20:49:46:713,0,-54.2365,2.33971,134.337,Q,Q
2023-03-15 20:49:46:723,0,-54.235,2.34196,134.336,Q,Q
2023-03-15 20:49:46:733,0,-54.2339,2.3402,134.337,Q,Q
2023-03-15 20:49:46:743,0,-54.2348,2.34084,134.339,Q,Q
2023-03-15 20:49:46:753,0,-54.2342,2.33771,134.338,Q,Q
2023-03-15 20:49:46:763,0,-54.2328,2.338,134.338,Q,Q
2023-03-15 20:49:46:773,0,-54.2314,2.33605,134.343,Q,Q
2023-03-15 20:49:46:783,0,-54.232,2.33454,134.345,Q,Q
2023-03-15 20:49:46:793,0,-54.2317,2.33352,134.344,Q,Q
2023-03-15 20:49:46:803,0,-54.2296,2.33207,134.342,Q,Q
2023-03-15 20:49:46:813,0,-54.2278,2.33454,134.342,Q,Q
2023-03-15 20:49:46:823,0,-54.2289,2.3349,134.34,Q,Q
2023-03-15 20:49:46:833,0,-54.2277,2.33585,134.337,Q,Q
2023-03-15 20:49:46:843,0,-54.2267,2.33611,134.338,Q,Q
2023-03-15 20:49:46:853,0,-54.226,2.3346,134.336,Q,Q
2023-03-15 20:49:46:863,0,-54.2243,2.33412,134.336,Q,Q
2023-03-15 20:49:46:873,0,-54.2253,2.3324,134.336,Q,Q
2023-03-15 20:49:46:883,0,-54.2261,2.33343,134.338,Q,Q
2023-03-15 20:49:46:893,0,-54.2241,2.33003,134.339,Q,Q
2023-03-15 20:49:46:903,0,-54.2242,2.32758,134.338,Q,Q
2023-03-15 20:49:46:913,0,-54.2241,2.32405,134.337,Q,Q
2023-03-15 20:49:46:923,0,-54.2254,2.32482,134.336,Q,Q
2023-03-15 20:49:46:933,0,-54.2207,2.32122,134.334,Q,Q
2023-03-15 20:49:46:943,0,-54.2214,2.32036,134.333,Q,Q
2023-03-15 20:49:46:953,0,-54.2203,2.32013,134.331,Q,Q
2023-03-15 20:49:46:963,0,-54.2195,2.31825,134.332,Q,Q
2023-03-15 20:49:46:973,0,-54.2205,2.31753,134.333,Q,Q
2023-03-15 20:49:46:983,0,-54.2235,2.3185,134.33,Q,Q
2023-03-15 20:49:46:993,0,-54.2217,2.31824,134.331,Q,Q
2023-03-15 20:49:47:3,0,-54.2224,2.31794,134.331,Q,Q
2023-03-15 20:49:47:13,0,-54.2223,2.31381,134.333,Q,Q
2023-03-15 20:49:47:23,0,-54.2238,2.31317,134.334,Q,Q
2023-03-15 20:49:47:33,0,-54.2245,2.31041,134.335,Q,Q
2023-03-15 20:49:47:43,0,-54.2211,2.30775,134.336,Q,Q
2023-03-15 20:49:47:53,0,-54.217,2.3066,134.335,Q,Q
2023-03-15 20:49:47:63,0,-54.2211,2.30885,134.332,Q,Q
2023-03-15 20:49:47:73,0,-54.2245,2.30653,134.334,Q,Q
2023-03-15 20:49:47:83,0,-54.2253,2.30331,134.335,Q,Q
2023-03-15 20:49:47:93,0,-54.2269,2.30468,134.338,Q,Q
2023-03-15 20:49:47:103,0,-54.2252,2.307,134.336,Q,Q
2023-03-15 20:49:47:113,0,-54.2267,2.30849,134.335,Q,Q
2023-03-15 20:49:47:123,0,-54.223,2.30472,134.337,Q,Q
2023-03-15 20:49:47:133,0,-54.2251,2.30696,134.333,Q,Q
2023-03-15 20:49:47:143,0,-54.2251,2.30809,134.33,Q,Q
2023-03-15 20:49:47:153,0,-54.2282,2.30692,134.328,Q,Q
2023-03-15 20:49:47:163,0,-54.2283,2.30884,134.327,Q,Q
2023-03-15 20:49:47:173,0,-54.2256,2.30985,134.327,Q,Q
2023-03-15 20:49:47:183,0,-54.2231,2.30953,134.326,Q,Q
2023-03-15 20:49:47:193,0,-54.2223,2.30868,134.328,Q,Q
2023-03-15 20:49:47:203,0,-54.2248,2.30714,134.329,Q,Q
2023-03-15 20:49:47:213,0,-54.2228,2.30582,134.33,Q,Q
2023-03-15 20:49:47:223,0,-54.2233,2.30201,134.329,Q,Q
2023-03-15 20:49:47:233,0,-54.224,2.30023,134.33,Q,Q
2023-03-15 20:49:47:243,0,-54.2261,2.30186,134.332,Q,Q
2023-03-15 20:49:47:253,0,-54.2239,2.30269,134.329,Q,Q
2023-03-15 20:49:47:263,0,-54.2251,2.30351,134.332,Q,Q
2023-03-15 20:49:47:273,0,-54.2246,2.30317,134.332,Q,Q
2023-03-15 20:49:47:283,0,-54.2227,2.3016,134.331,Q,Q
2023-03-15 20:49:47:293,0,-54.2215,2.30146,134.332,Q,Q
2023-03-15 20:49:47:303,0,-54.2215,2.30202,134.33,Q,Q
2023-03-15 20:49:47:313,0,-54.2234,2.30152,134.331,Q,Q
2023-03-15 20:49:47:323,0,-54.2233,2.29941,134.331,Q,Q
2023-03-15 20:49:47:333,0,-54.2228,2.30018,134.332,Q,Q
2023-03-15 20:49:47:343,0,-54.2211,2.30172,134.333,Q,Q
2023-03-15 20:49:47:353,0,-54.2219,2.30545,134.332,Q,Q
2023-03-15 20:49:47:363,0,-54.2255,2.30668,134.331,Q,Q
2023-03-15 20:49:47:373,0,-54.223,2.30585,134.332,Q,Q
2023-03-15 20:49:47:383,0,-54.2242,2.30636,134.329,Q,Q
2023-03-15 20:49:47:393,0,-54.2248,2.30829,134.332,Q,Q
2023-03-15 20:49:47:403,0,-54.2251,2.30825,134.332,Q,Q
2023-03-15 20:49:47:413,0,-54.2238,2.30984,134.332,Q,Q
2023-03-15 20:49:47:423,0,-54.2252,2.3056,134.332,Q,Q
2023-03-15 20:49:47:433,0,-54.2255,2.30616,134.334,Q,Q
2023-03-15 20:49:47:443,0,-54.2297,2.303,134.337,Q,Q
2023-03-15 20:49:47:453,0,-54.2291,2.3038,134.337,Q,Q
2023-03-15 20:49:47:463,0,-54.2299,2.30251,134.336,Q,Q
2023-03-15 20:49:47:473,0,-54.2314,2.30287,134.334,Q,Q
2023-03-15 20:49:47:483,0,-54.2303,2.30284,134.334,Q,Q
2023-03-15 20:49:47:493,0,-54.2347,2.30319,134.332,Q,Q
2023-03-15 20:49:47:503,0,-54.2333,2.30065,134.329,Q,Q
2023-03-15 20:49:47:513,0,-54.2353,2.30419,134.329,Q,Q
2023-03-15 20:49:47:523,0,-54.2358,2.30346,134.329,Q,Q
2023-03-15 20:49:47:533,0,-54.2361,2.30398,134.331,Q,Q
2023-03-15 20:49:47:543,0,-54.2346,2.3045,134.332,Q,Q
2023-03-15 20:49:47:553,0,-54.2328,2.30504,134.332,Q,Q
2023-03-15 20:49:47:563,0,-54.229,2.30644,134.331,Q,Q
2023-03-15 20:49:47:573,0,-54.2307,2.30515,134.33,Q,Q
2023-03-15 20:49:47:583,0,-54.228,2.30576,134.329,Q,Q
2023-03-15 20:49:47:593,0,-54.2239,2.30797,134.33,Q,Q
2023-03-15 20:49:47:603,0,-54.2255,2.30887,134.332,Q,Q
2023-03-15 20:49:47:613,0,-54.2249,2.30679,134.33,Q,Q
2023-03-15 20:49:47:623,0,-54.2284,2.30962,134.33,Q,Q
2023-03-15 20:49:47:633,0,-54.2307,2.30978,134.327,Q,Q
2023-03-15 20:49:47:643,0,-54.2325,2.30993,134.328,Q,Q
2023-03-15 20:49:47:653,0,-54.2364,2.30695,134.328,Q,Q
2023-03-15 20:49:47:663,0,-54.2358,2.3046,134.328,Q,Q
2023-03-15 20:49:47:673,0,-54.2352,2.30211,134.329,Q,Q
2023-03-15 20:49:47:683,0,-54.2367,2.30351,134.328,Q,Q
2023-03-15 20:49:47:693,0,-54.2361,2.30393,134.328,Q,Q
2023-03-15 20:49:47:703,0,-54.2374,2.30207,134.326,Q,Q
2023-03-15 20:49:47:713,0,-54.2412,2.30091,134.326,Q,Q
2023-03-15 20:49:47:723,0,-54.2386,2.30213,134.325,Q,Q
2023-03-15 20:49:47:733,0,-54.2406,2.30219,134.327,Q,Q
2023-03-15 20:49:47:743,0,-54.243,2.30321,134.329,Q,Q
2023-03-15 20:49:47:753,0,-54.2439,2.30168,134.329,Q,Q
2023-03-15 20:49:47:763,0,-54.2438,2.30383,134.329,Q,Q
2023-03-15 20:49:47:773,0,-54.243,2.30436,134.325,Q,Q
2023-03-15 20:49:47:782,0,-54.2441,2.30207,134.328,Q,Q
2023-03-15 20:49:47:792,0,-54.2428,2.30217,134.325,Q,Q
2023-03-15 20:49:47:803,0,-54.2446,2.30309,134.326,Q,Q
2023-03-15 20:49:47:812,0,-54.2456,2.30045,134.326,Q,Q
2023-03-15 20:49:47:823,0,-54.2455,2.30098,134.326,Q,Q
2023-03-15 20:49:47:833,0,-54.2446,2.29952,134.328,Q,Q
2023-03-15 20:49:47:843,0,-54.2425,2.30066,134.328,Q,Q
2023-03-15 20:49:47:853,0,-54.2432,2.30401,134.326,Q,Q
2023-03-15 20:49:47:863,0,-54.2414,2.30611,134.325,Q,Q
2023-03-15 20:49:47:873,0,-54.2429,2.30794,134.327,Q,Q
2023-03-15 20:49:47:883,0,-54.244,2.30778,134.326,Q,Q
2023-03-15 20:49:47:893,0,-54.244,2.30927,134.327,Q,Q
2023-03-15 20:49:47:903,0,-54.2428,2.30696,134.328,Q,Q
2023-03-15 20:49:47:913,0,-54.2467,2.30868,134.329,Q,Q
2023-03-15 20:49:47:923,0,-54.2471,2.30894,134.329,Q,Q
2023-03-15 20:49:47:933,0,-54.2473,2.31091,134.331,Q,Q
2023-03-15 20:49:47:943,0,-54.2478,2.3105,134.332,Q,Q
2023-03-15 20:49:47:953,0,-54.2508,2.30613,134.333,Q,Q
2023-03-15 20:49:47:963,0,-54.251,2.30291,134.332,Q,Q
2023-03-15 20:49:47:973,0,-54.2495,2.30253,134.334,Q,Q
2023-03-15 20:49:47:982,0,-54.2484,2.30464,134.334,Q,Q
2023-03-15 20:49:47:992,0,-54.2475,2.30462,134.334,Q,Q
2023-03-15 20:49:48:3,0,-54.2473,2.30193,134.332,Q,Q
2023-03-15 20:49:48:13,0,-54.2452,2.30381,134.332,Q,Q
2023-03-15 20:49:48:23,0,-54.2429,2.30349,134.333,Q,Q
2023-03-15 20:49:48:33,0,-54.2427,2.30458,134.332,Q,Q
2023-03-15 20:49:48:43,0,-54.2398,2.30238,134.332,Q,Q
2023-03-15 20:49:48:53,0,-54.2394,2.30348,134.33,Q,Q
2023-03-15 20:49:48:63,0,-54.2369,2.30203,134.331,Q,Q
2023-03-15 20:49:48:72,0,-54.2388,2.3028,134.336,Q,Q
2023-03-15 20:49:48:83,0,-54.2383,2.30441,134.335,Q,Q
2023-03-15 20:49:48:93,0,-54.2379,2.30185,134.337,Q,Q
2023-03-15 20:49:48:103,0,-54.2378,2.30274,134.337,Q,Q
2023-03-15 20:49:48:112,0,-54.2413,2.30282,134.336,Q,Q
2023-03-15 20:49:48:123,0,-54.2408,2.30143,134.335,Q,Q
2023-03-15 20:49:48:133,0,-54.2393,2.29928,134.337,Q,Q
2023-03-15 20:49:48:143,0,-54.2387,2.30115,134.337,Q,Q
2023-03-15 20:49:48:153,0,-54.2374,2.30169,134.335,Q,Q
2023-03-15 20:49:48:163,0,-54.2352,2.30182,134.332,Q,Q
2023-03-15 20:49:48:173,0,-54.2347,2.29961,134.332,Q,Q
2023-03-15 20:49:48:183,0,-54.2356,2.30216,134.331,Q,Q
2023-03-15 20:49:48:193,0,-54.2341,2.30044,134.334,Q,Q
2023-03-15 20:49:48:203,0,-54.2355,2.29752,134.335,Q,Q
2023-03-15 20:49:48:212,0,-54.2328,2.29666,134.335,Q,Q
2023-03-15 20:49:48:222,0,-54.2337,2.29716,134.334,Q,Q
2023-03-15 20:49:48:232,0,-54.233,2.29879,134.332,Q,Q
2023-03-15 20:49:48:243,0,-54.2335,2.29977,134.334,Q,Q
2023-03-15 20:49:48:253,0,-54.2342,2.29853,134.336,Q,Q
2023-03-15 20:49:48:263,0,-54.2355,2.3,134.335,Q,Q
2023-03-15 20:49:48:272,0,-54.2381,2.29939,134.337,Q,Q
2023-03-15 20:49:48:283,0,-54.2377,2.29862,134.337,Q,Q
2023-03-15 20:49:48:293,0,-54.2369,2.29727,134.337,Q,Q
2023-03-15 20:49:48:303,0,-54.2348,2.29605,134.34,Q,Q
2023-03-15 20:49:48:313,0,-54.2338,2.29694,134.34,Q,Q
2023-03-15 20:49:48:323,0,-54.2365,2.29678,134.341,Q,Q
2023-03-15 20:49:48:332,0,-54.2368,2.29771,134.341,Q,Q
2023-03-15 20:49:48:342,0,-54.2361,2.29642,134.338,Q,Q
2023-03-15 20:49:48:352,0,-54.2383,2.29794,134.34,Q,Q
2023-03-15 20:49:48:363,0,-54.2377,2.29941,134.34,Q,Q
2023-03-15 20:49:48:373,0,-54.2364,2.30037,134.341,Q,Q
2023-03-15 20:49:48:383,0,-54.2363,2.3006,134.341,Q,Q
2023-03-15 20:49:48:392,0,-54.2397,2.30094,134.341,Q,Q
2023-03-15 20:49:48:402,0,-54.2389,2.3019,134.342,Q,Q
2023-03-15 20:49:48:412,0,-54.2373,2.30339,134.341,Q,Q
2023-03-15 20:49:48:422,0,-54.2397,2.3047,134.34,Q,Q
2023-03-15 20:49:48:432,0,-54.2438,2.30368,134.339,Q,Q
2023-03-15 20:49:48:442,0,-54.2459,2.30323,134.339,Q,Q
2023-03-15 20:49:48:452,0,-54.2441,2.3044,134.337,Q,Q
2023-03-15 20:49:48:462,0,-54.246,2.30409,134.334,Q,Q
2023-03-15 20:49:48:472,0,-54.2449,2.30382,134.335,Q,Q
2023-03-15 20:49:48:483,0,-54.2487,2.30346,134.334,Q,Q
2023-03-15 20:49:48:492,0,-54.2498,2.30513,134.334,Q,Q
2023-03-15 20:49:48:502,0,-54.2465,2.30396,134.335,Q,Q
2023-03-15 20:49:48:512,0,-54.246,2.30484,134.335,Q,Q
2023-03-15 20:49:48:522,0,-54.2471,2.30513,134.335,Q,Q
2023-03-15 20:49:48:532,0,-54.2465,2.30352,134.333,Q,Q
2023-03-15 20:49:48:542,0,-54.2444,2.30466,134.336,Q,Q
2023-03-15 20:49:48:552,0,-54.2405,2.30293,134.336,Q,Q
2023-03-15 20:49:48:562,0,-54.2408,2.30147,134.337,Q,Q
2023-03-15 20:49:48:572,0,-54.2383,2.30036,134.336,Q,Q
2023-03-15 20:49:48:582,0,-54.2372,2.30023,134.335,Q,Q
2023-03-15 20:49:48:592,0,-54.2337,2.30151,134.335,Q,Q
2023-03-15 20:49:48:602,0,-54.2312,2.30099,134.338,Q,Q
2023-03-15 20:49:48:612,0,-54.2352,2.30306,134.339,Q,Q
2023-03-15 20:49:48:622,0,-54.2366,2.3038,134.339,Q,Q
2023-03-15 20:49:48:632,0,-54.2369,2.30494,134.341,Q,Q
2023-03-15 20:49:48:642,0,-54.2358,2.30587,134.344,Q,Q
2023-03-15 20:49:48:652,0,-54.236,2.30494,134.344,Q,Q
2023-03-15 20:49:48:662,0,-54.238,2.30359,134.344,Q,Q
2023-03-15 20:49:48:672,0,-54.2396,2.30452,134.345,Q,Q
2023-03-15 20:49:48:682,0,-54.24,2.3042,134.345,Q,Q
2023-03-15 20:49:48:692,0,-54.2379,2.30337,134.345,Q,Q
2023-03-15 20:49:48:702,0,-54.2399,2.30235,134.344,Q,Q
2023-03-15 20:49:48:712,0,-54.2395,2.30008,134.344,Q,Q
2023-03-15 20:49:48:722,0,-54.2412,2.29794,134.343,Q,Q
