Timestamp_cmd,imu_cmd,roll_delta,pitch_delta,yaw_delta,voice_type,voice_length
2023-03-15 13:57:55:981,0,-13.6962,-14.4067,65.8531,Q,Q
2023-03-15 13:57:55:988,0,-13.7188,-14.4643,66.0019,Q,Q
2023-03-15 13:57:55:998,0,-13.7372,-14.5148,66.1443,Q,Q
2023-03-15 13:57:56:8,0,-13.7639,-14.5568,66.2841,Q,Q
2023-03-15 13:57:56:18,0,-13.7934,-14.588,66.4126,Q,Q
2023-03-15 13:57:56:28,0,-13.8243,-14.6085,66.5325,Q,Q
2023-03-15 13:57:56:38,0,-13.8631,-14.6176,66.6399,Q,Q
2023-03-15 13:57:56:48,0,-13.9081,-14.6179,66.733,Q,Q
2023-03-15 13:57:56:58,0,-13.9504,-14.6101,66.8089,Q,Q
2023-03-15 13:57:56:69,0,-13.9936,-14.6018,66.8728,Q,Q
2023-03-15 13:57:56:79,0,-14.0285,-14.5941,66.9242,Q,Q
2023-03-15 13:57:56:89,0,-14.0607,-14.5968,66.9689,Q,Q
2023-03-15 13:57:56:98,0,-14.0773,-14.6156,67.0131,Q,Q
2023-03-15 13:57:56:109,0,-14.0804,-14.6589,67.0481,Q,Q
2023-03-15 13:57:56:119,0,-14.0672,-14.7086,67.0782,Q,Q
2023-03-15 13:57:56:128,0,-14.0307,-14.7677,67.1036,Q,Q
2023-03-15 13:57:56:139,0,-13.9595,-14.8172,67.1124,Q,Q
2023-03-15 13:57:56:149,0,-13.8603,-14.8689,67.1074,Q,Q
2023-03-15 13:57:56:158,0,-13.7409,-14.918,67.0936,Q,Q
2023-03-15 13:57:56:169,0,-13.6144,-14.9668,67.0732,Q,Q
2023-03-15 13:57:56:179,0,-13.4802,-15.0148,67.0439,Q,Q
2023-03-15 13:57:56:188,0,-13.343,-15.056,67.002,Q,Q
2023-03-15 13:57:56:199,0,-13.197,-15.0845,66.9506,Q,Q
2023-03-15 13:57:56:209,0,-13.0464,-15.0976,66.8845,Q,Q
2023-03-15 13:57:56:219,0,-12.8964,-15.09,66.8051,Q,Q
2023-03-15 13:57:56:229,0,-12.7657,-15.0607,66.729,Q,Q
2023-03-15 13:57:56:238,0,-12.648,-15.0139,66.6479,Q,Q
2023-03-15 13:57:56:249,0,-12.5463,-14.952,66.5553,Q,Q
2023-03-15 13:57:56:259,0,-12.4603,-14.8712,66.4559,Q,Q
2023-03-15 13:57:56:269,0,-12.3895,-14.784,66.3424,Q,Q
2023-03-15 13:57:56:279,0,-12.3372,-14.6879,66.2268,Q,Q
2023-03-15 13:57:56:288,0,-12.3044,-14.5912,66.1074,Q,Q
2023-03-15 13:57:56:299,0,-12.2903,-14.4997,65.9845,Q,Q
2023-03-15 13:57:56:309,0,-12.2855,-14.4016,65.8501,Q,Q
2023-03-15 13:57:56:319,0,-12.2833,-14.2969,65.7084,Q,Q
2023-03-15 13:57:56:329,0,-12.2866,-14.192,65.5518,Q,Q
2023-03-15 13:57:56:339,0,-12.3049,-14.082,65.3916,Q,Q
2023-03-15 13:57:56:349,0,-12.3334,-13.968,65.2184,Q,Q
2023-03-15 13:57:56:359,0,-12.3747,-13.8646,65.0389,Q,Q
2023-03-15 13:57:56:369,0,-12.4297,-13.7664,64.8721,Q,Q
2023-03-15 13:57:56:379,0,-12.4863,-13.675,64.713,Q,Q
2023-03-15 13:57:56:389,0,-12.544,-13.5914,64.5692,Q,Q
2023-03-15 13:57:56:398,0,-12.6031,-13.5146,64.4411,Q,Q
2023-03-15 13:57:56:408,0,-12.6629,-13.4387,64.3239,Q,Q
2023-03-15 13:57:56:419,0,-12.7207,-13.3639,64.2182,Q,Q
2023-03-15 13:57:56:429,0,-12.7767,-13.2904,64.1201,Q,Q
2023-03-15 13:57:56:439,0,-12.8291,-13.2118,64.0296,Q,Q
2023-03-15 13:57:56:448,0,-12.875,-13.1401,63.9548,Q,Q
2023-03-15 13:57:56:459,0,-12.9274,-13.0746,63.8995,Q,Q
2023-03-15 13:57:56:469,0,-12.9785,-13.0107,63.8607,Q,Q
2023-03-15 13:57:56:479,0,-13.0256,-12.953,63.8293,Q,Q
2023-03-15 13:57:56:489,0,-13.0677,-12.8966,63.809,Q,Q
2023-03-15 13:57:56:499,0,-13.0975,-12.8453,63.8028,Q,Q
2023-03-15 13:57:56:509,0,-13.1222,-12.7955,63.8155,Q,Q
2023-03-15 13:57:56:518,0,-13.1395,-12.7469,63.8431,Q,Q
2023-03-15 13:57:56:529,0,-13.1575,-12.6962,63.878,Q,Q
2023-03-15 13:57:56:539,0,-13.1764,-12.6325,63.9099,Q,Q
2023-03-15 13:57:56:549,0,-13.1792,-12.561,63.9381,Q,Q
2023-03-15 13:57:56:559,0,-13.174,-12.4858,63.9594,Q,Q
2023-03-15 13:57:56:568,0,-13.172,-12.4085,63.9784,Q,Q
2023-03-15 13:57:56:578,0,-13.1799,-12.332,63.9991,Q,Q
2023-03-15 13:57:56:588,0,-13.1877,-12.2594,64.0205,Q,Q
2023-03-15 13:57:56:598,0,-13.1942,-12.1892,64.0322,Q,Q
2023-03-15 13:57:56:608,0,-13.1946,-12.1137,64.0341,Q,Q
2023-03-15 13:57:56:618,0,-13.1833,-12.0383,64.0289,Q,Q
2023-03-15 13:57:56:628,0,-13.1742,-11.9723,64.0205,Q,Q
2023-03-15 13:57:56:638,0,-13.1716,-11.9121,64.014,Q,Q
2023-03-15 13:57:56:648,0,-13.1627,-11.8617,64.0013,Q,Q
2023-03-15 13:57:56:658,0,-13.1445,-11.8174,63.9796,Q,Q
2023-03-15 13:57:56:668,0,-13.1159,-11.7828,63.951,Q,Q
2023-03-15 13:57:56:678,0,-13.0864,-11.7582,63.9218,Q,Q
2023-03-15 13:57:56:688,0,-13.0464,-11.7372,63.884,Q,Q
2023-03-15 13:57:56:698,0,-13.0053,-11.721,63.8402,Q,Q
2023-03-15 13:57:56:708,0,-12.9609,-11.7106,63.7854,Q,Q
2023-03-15 13:57:56:718,0,-12.9167,-11.7106,63.7311,Q,Q
2023-03-15 13:57:56:728,0,-12.8651,-11.7204,63.6809,Q,Q
2023-03-15 13:57:56:739,0,-12.8156,-11.7402,63.642,Q,Q
2023-03-15 13:57:56:748,0,-12.7658,-11.7645,63.6064,Q,Q
2023-03-15 13:57:56:758,0,-12.7292,-11.7927,63.5718,Q,Q
2023-03-15 13:57:56:769,0,-12.7002,-11.8159,63.5252,Q,Q
2023-03-15 13:57:56:778,0,-12.6668,-11.834,63.4715,Q,Q
2023-03-15 13:57:56:788,0,-12.6287,-11.8469,63.4178,Q,Q
2023-03-15 13:57:56:798,0,-12.5893,-11.8615,63.3644,Q,Q
2023-03-15 13:57:56:808,0,-12.5442,-11.8798,63.3206,Q,Q
2023-03-15 13:57:56:818,0,-12.4825,-11.9054,63.2833,Q,Q
2023-03-15 13:57:56:828,0,-12.4125,-11.9413,63.247,Q,Q
2023-03-15 13:57:56:839,0,-12.338,-11.9744,63.2106,Q,Q
2023-03-15 13:57:56:848,0,-12.2597,-12.0121,63.1769,Q,Q
2023-03-15 13:57:56:858,0,-12.1814,-12.0499,63.142,Q,Q
2023-03-15 13:57:56:869,0,-12.1117,-12.0808,63.1119,Q,Q
2023-03-15 13:57:56:879,0,-12.0431,-12.1073,63.0882,Q,Q
2023-03-15 13:57:56:889,0,-11.9825,-12.1262,63.0775,Q,Q
2023-03-15 13:57:56:898,0,-11.9335,-12.1492,63.0871,Q,Q
2023-03-15 13:57:56:908,0,-11.896,-12.1702,63.1197,Q,Q
2023-03-15 13:57:56:918,0,-11.8722,-12.193,63.169,Q,Q
2023-03-15 13:57:56:928,0,-11.8609,-12.2112,63.2279,Q,Q
2023-03-15 13:57:56:938,0,-11.8528,-12.2205,63.2976,Q,Q
2023-03-15 13:57:56:948,0,-11.8523,-12.2224,63.3764,Q,Q
2023-03-15 13:57:56:959,0,-11.852,-12.2203,63.456,Q,Q
2023-03-15 13:57:56:969,0,-11.8557,-12.2141,63.5363,Q,Q
2023-03-15 13:57:56:978,0,-11.8614,-12.205,63.6148,Q,Q
2023-03-15 13:57:56:989,0,-11.8689,-12.1906,63.6989,Q,Q
2023-03-15 13:57:56:998,0,-11.8751,-12.1716,63.7817,Q,Q
2023-03-15 13:57:57:8,0,-11.8819,-12.157,63.8602,Q,Q
2023-03-15 13:57:57:18,0,-11.8868,-12.1418,63.9389,Q,Q
2023-03-15 13:57:57:28,0,-11.8854,-12.1274,64.0105,Q,Q
2023-03-15 13:57:57:39,0,-11.8714,-12.1122,64.0805,Q,Q
2023-03-15 13:57:57:49,0,-11.8534,-12.1014,64.1489,Q,Q
2023-03-15 13:57:57:58,0,-11.8245,-12.0892,64.2121,Q,Q
2023-03-15 13:57:57:69,0,-11.7926,-12.076,64.2643,Q,Q
2023-03-15 13:57:57:78,0,-11.7616,-12.0685,64.3154,Q,Q
2023-03-15 13:57:57:89,0,-11.7301,-12.0595,64.3586,Q,Q
2023-03-15 13:57:57:98,0,-11.7032,-12.0524,64.4002,Q,Q
2023-03-15 13:57:57:109,0,-11.6728,-12.0479,64.4406,Q,Q
2023-03-15 13:57:57:119,0,-11.6438,-12.0412,64.476,Q,Q
2023-03-15 13:57:57:128,0,-11.6138,-12.0358,64.5113,Q,Q
2023-03-15 13:57:57:138,0,-11.5837,-12.0308,64.5454,Q,Q
2023-03-15 13:57:57:148,0,-11.5499,-12.0259,64.5759,Q,Q
2023-03-15 13:57:57:158,0,-11.5165,-12.0213,64.6023,Q,Q
2023-03-15 13:57:57:168,0,-11.4894,-12.0201,64.6331,Q,Q
2023-03-15 13:57:57:178,0,-11.4692,-12.0248,64.6671,Q,Q
2023-03-15 13:57:57:188,0,-11.4504,-12.0307,64.696,Q,Q
2023-03-15 13:57:57:198,0,-11.4289,-12.035,64.7211,Q,Q
2023-03-15 13:57:57:208,0,-11.4138,-12.0388,64.7448,Q,Q
2023-03-15 13:57:57:218,0,-11.3983,-12.044,64.7625,Q,Q
2023-03-15 13:57:57:228,0,-11.3887,-12.0512,64.7825,Q,Q
2023-03-15 13:57:57:238,0,-11.3784,-12.0562,64.8018,Q,Q
2023-03-15 13:57:57:248,0,-11.3731,-12.0622,64.8249,Q,Q
2023-03-15 13:57:57:258,0,-11.3694,-12.068,64.8518,Q,Q
2023-03-15 13:57:57:268,0,-11.3682,-12.0729,64.8792,Q,Q
2023-03-15 13:57:57:278,0,-11.3728,-12.0775,64.9113,Q,Q
2023-03-15 13:57:57:288,0,-11.3753,-12.0747,64.9431,Q,Q
2023-03-15 13:57:57:298,0,-11.3804,-12.0731,64.974,Q,Q
2023-03-15 13:57:57:308,0,-11.3829,-12.0699,65.0122,Q,Q
2023-03-15 13:57:57:318,0,-11.3879,-12.0637,65.0489,Q,Q
2023-03-15 13:57:57:328,0,-11.3955,-12.057,65.0899,Q,Q
2023-03-15 13:57:57:338,0,-11.4005,-12.0451,65.1231,Q,Q
2023-03-15 13:57:57:348,0,-11.4071,-12.0352,65.156,Q,Q
2023-03-15 13:57:57:358,0,-11.4136,-12.0282,65.1869,Q,Q
2023-03-15 13:57:57:368,0,-11.4199,-12.022,65.2173,Q,Q
2023-03-15 13:57:57:378,0,-11.4277,-12.0171,65.2476,Q,Q
2023-03-15 13:57:57:388,0,-11.4352,-12.0116,65.2772,Q,Q
2023-03-15 13:57:57:398,0,-11.4391,-12.0063,65.3061,Q,Q
2023-03-15 13:57:57:408,0,-11.4427,-12.0036,65.3313,Q,Q
2023-03-15 13:57:57:418,0,-11.4426,-12.0006,65.357,Q,Q
2023-03-15 13:57:57:428,0,-11.4426,-12.0018,65.3752,Q,Q
2023-03-15 13:57:57:438,0,-11.4425,-12.0008,65.3947,Q,Q
2023-03-15 13:57:57:448,0,-11.4429,-12.0015,65.4098,Q,Q
2023-03-15 13:57:57:458,0,-11.4361,-12.0031,65.4192,Q,Q
2023-03-15 13:57:57:468,0,-11.4263,-12.0109,65.4261,Q,Q
2023-03-15 13:57:57:478,0,-11.4157,-12.0185,65.4362,Q,Q
2023-03-15 13:57:57:488,0,-11.4071,-12.0239,65.447,Q,Q
2023-03-15 13:57:57:498,0,-11.3988,-12.0323,65.4586,Q,Q
2023-03-15 13:57:57:508,0,-11.3853,-12.0385,65.4748,Q,Q
2023-03-15 13:57:57:518,0,-11.3711,-12.0444,65.4945,Q,Q
2023-03-15 13:57:57:528,0,-11.364,-12.0495,65.5137,Q,Q
2023-03-15 13:57:57:538,0,-11.3464,-12.0411,65.5338,Q,Q
2023-03-15 13:57:57:548,0,-11.3216,-12.0237,65.5455,Q,Q
2023-03-15 13:57:57:558,0,-11.2826,-11.9996,65.5495,Q,Q
2023-03-15 13:57:57:568,0,-11.2462,-11.9773,65.558,Q,Q
2023-03-15 13:57:57:578,0,-11.2076,-11.949,65.5679,Q,Q
2023-03-15 13:57:57:588,0,-11.1751,-11.9193,65.5796,Q,Q
2023-03-15 13:57:57:598,0,-11.1446,-11.8895,65.5962,Q,Q
2023-03-15 13:57:57:608,0,-11.1213,-11.8586,65.6119,Q,Q
2023-03-15 13:57:57:618,0,-11.0984,-11.8346,65.6359,Q,Q
2023-03-15 13:57:57:628,0,-11.0789,-11.8172,65.6656,Q,Q
2023-03-15 13:57:57:638,0,-11.0648,-11.805,65.7035,Q,Q
2023-03-15 13:57:57:648,0,-11.0469,-11.8051,65.7469,Q,Q
2023-03-15 13:57:57:658,0,-11.0301,-11.8106,65.7972,Q,Q
2023-03-15 13:57:57:668,0,-11.0174,-11.8192,65.8502,Q,Q
2023-03-15 13:57:57:678,0,-11.0063,-11.8356,65.9037,Q,Q
2023-03-15 13:57:57:688,0,-10.9948,-11.8532,65.9551,Q,Q
2023-03-15 13:57:57:698,0,-10.978,-11.8738,66.0032,Q,Q
2023-03-15 13:57:57:708,0,-10.9539,-11.8902,66.0492,Q,Q
2023-03-15 13:57:57:718,0,-10.9233,-11.9024,66.0922,Q,Q
2023-03-15 13:57:57:728,0,-10.8862,-11.9141,66.1315,Q,Q
2023-03-15 13:57:57:738,0,-10.8466,-11.9267,66.1731,Q,Q
2023-03-15 13:57:57:748,0,-10.8072,-11.9301,66.2151,Q,Q
2023-03-15 13:57:57:758,0,-10.7723,-11.9332,66.2548,Q,Q
2023-03-15 13:57:57:768,0,-10.7424,-11.932,66.2921,Q,Q
2023-03-15 13:57:57:778,0,-10.7244,-11.9295,66.3264,Q,Q
2023-03-15 13:57:57:788,0,-10.7089,-11.923,66.3579,Q,Q
2023-03-15 13:57:57:798,0,-10.6983,-11.9164,66.3834,Q,Q
2023-03-15 13:57:57:808,0,-10.6897,-11.9074,66.4073,Q,Q
2023-03-15 13:57:57:818,0,-10.6841,-11.8951,66.4326,Q,Q
2023-03-15 13:57:57:828,0,-10.6769,-11.8819,66.4617,Q,Q
2023-03-15 13:57:57:838,0,-10.6699,-11.8756,66.4952,Q,Q
2023-03-15 13:57:57:848,0,-10.669,-11.8775,66.5287,Q,Q
2023-03-15 13:57:57:858,0,-10.6771,-11.8816,66.5618,Q,Q
2023-03-15 13:57:57:868,0,-10.6877,-11.8902,66.5902,Q,Q
2023-03-15 13:57:57:878,0,-10.6952,-11.8963,66.6145,Q,Q
2023-03-15 13:57:57:888,0,-10.6984,-11.9094,66.6423,Q,Q
2023-03-15 13:57:57:898,0,-10.6969,-11.9273,66.6668,Q,Q
2023-03-15 13:57:57:908,0,-10.6948,-11.9453,66.6985,Q,Q
2023-03-15 13:57:57:918,0,-10.6879,-11.9693,66.7305,Q,Q
2023-03-15 13:57:57:928,0,-10.6805,-11.9956,66.7668,Q,Q
2023-03-15 13:57:57:938,0,-10.6724,-12.0159,66.8035,Q,Q
2023-03-15 13:57:57:948,0,-10.6664,-12.0395,66.8434,Q,Q
2023-03-15 13:57:57:958,0,-10.6649,-12.0595,66.8898,Q,Q
2023-03-15 13:57:57:968,0,-10.6619,-12.0781,66.935,Q,Q
2023-03-15 13:57:57:978,0,-10.6605,-12.0983,66.9842,Q,Q
2023-03-15 13:57:57:988,0,-10.6548,-12.1168,67.0373,Q,Q
2023-03-15 13:57:57:998,0,-10.6484,-12.1394,67.0918,Q,Q
2023-03-15 13:57:58:8,0,-10.6468,-12.1592,67.1482,Q,Q
2023-03-15 13:57:58:18,0,-10.6489,-12.1814,67.2065,Q,Q
2023-03-15 13:57:58:28,0,-10.6506,-12.2001,67.2587,Q,Q
2023-03-15 13:57:58:38,0,-10.6541,-12.2178,67.306,Q,Q
2023-03-15 13:57:58:48,0,-10.6565,-12.2324,67.3471,Q,Q
2023-03-15 13:57:58:58,0,-10.6598,-12.2446,67.3853,Q,Q
2023-03-15 13:57:58:68,0,-10.6635,-12.2551,67.4149,Q,Q
2023-03-15 13:57:58:78,0,-10.6668,-12.2645,67.4417,Q,Q
2023-03-15 13:57:58:88,0,-10.6705,-12.2672,67.4672,Q,Q
2023-03-15 13:57:58:98,0,-10.6715,-12.2718,67.493,Q,Q
2023-03-15 13:57:58:108,0,-10.673,-12.2779,67.5202,Q,Q
2023-03-15 13:57:58:118,0,-10.6715,-12.28,67.541,Q,Q
2023-03-15 13:57:58:128,0,-10.6712,-12.2844,67.5602,Q,Q
2023-03-15 13:57:58:138,0,-10.6692,-12.2829,67.5795,Q,Q
2023-03-15 13:57:58:148,0,-10.6668,-12.2849,67.596,Q,Q
2023-03-15 13:57:58:158,0,-10.6673,-12.2854,67.6148,Q,Q
2023-03-15 13:57:58:168,0,-10.6669,-12.2858,67.628,Q,Q
2023-03-15 13:57:58:178,0,-10.6726,-12.2833,67.64,Q,Q
2023-03-15 13:57:58:188,0,-10.6753,-12.282,67.649,Q,Q
2023-03-15 13:57:58:198,0,-10.6763,-12.2774,67.6486,Q,Q
2023-03-15 13:57:58:208,0,-10.6777,-12.2737,67.6506,Q,Q
2023-03-15 13:57:58:218,0,-10.679,-12.2682,67.6539,Q,Q
2023-03-15 13:57:58:228,0,-10.6808,-12.2631,67.6582,Q,Q
2023-03-15 13:57:58:239,0,-10.6879,-12.2576,67.6663,Q,Q
2023-03-15 13:57:58:248,0,-10.6932,-12.2525,67.6718,Q,Q
2023-03-15 13:57:58:258,0,-10.7001,-12.2477,67.6792,Q,Q
2023-03-15 13:57:58:268,0,-10.7016,-12.2444,67.6929,Q,Q
2023-03-15 13:57:58:278,0,-10.7083,-12.2408,67.7024,Q,Q
2023-03-15 13:57:58:288,0,-10.7186,-12.2365,67.7196,Q,Q
2023-03-15 13:57:58:298,0,-10.7255,-12.2306,67.7346,Q,Q
2023-03-15 13:57:58:308,0,-10.7337,-12.2222,67.7481,Q,Q
2023-03-15 13:57:58:318,0,-10.7384,-12.2131,67.7598,Q,Q
2023-03-15 13:57:58:328,0,-10.7458,-12.2035,67.771,Q,Q
2023-03-15 13:57:58:338,0,-10.7564,-12.1941,67.7795,Q,Q
2023-03-15 13:57:58:348,0,-10.7665,-12.1841,67.7915,Q,Q
2023-03-15 13:57:58:358,0,-10.7722,-12.1739,67.8037,Q,Q
2023-03-15 13:57:58:368,0,-10.7804,-12.165,67.8167,Q,Q
2023-03-15 13:57:58:378,0,-10.7844,-12.1533,67.8265,Q,Q
2023-03-15 13:57:58:388,0,-10.7868,-12.1428,67.8351,Q,Q
2023-03-15 13:57:58:398,0,-10.7929,-12.1293,67.84,Q,Q
2023-03-15 13:57:58:408,0,-10.7987,-12.1171,67.8478,Q,Q
2023-03-15 13:57:58:418,0,-10.8014,-12.1035,67.8497,Q,Q
2023-03-15 13:57:58:428,0,-10.805,-12.092,67.8525,Q,Q
2023-03-15 13:57:58:439,0,-10.8148,-12.0792,67.8526,Q,Q
2023-03-15 13:57:58:448,0,-10.8274,-12.0647,67.8582,Q,Q
2023-03-15 13:57:58:458,0,-10.8399,-12.0549,67.8618,Q,Q
2023-03-15 13:57:58:468,0,-10.8572,-12.0495,67.8654,Q,Q
2023-03-15 13:57:58:478,0,-10.8767,-12.0426,67.869,Q,Q
2023-03-15 13:57:58:488,0,-10.8893,-12.029,67.8748,Q,Q
2023-03-15 13:57:58:498,0,-10.8972,-12.0214,67.881,Q,Q
2023-03-15 13:57:58:508,0,-10.9077,-12.0164,67.8921,Q,Q
2023-03-15 13:57:58:518,0,-10.9212,-12.0139,67.9056,Q,Q
2023-03-15 13:57:58:528,0,-10.934,-12.0109,67.9206,Q,Q
2023-03-15 13:57:58:538,0,-10.9428,-12.0077,67.9281,Q,Q
2023-03-15 13:57:58:548,0,-10.9525,-12.0026,67.9353,Q,Q
2023-03-15 13:57:58:558,0,-10.9608,-12.0013,67.9499,Q,Q
2023-03-15 13:57:58:568,0,-10.9634,-12.0032,67.9617,Q,Q
2023-03-15 13:57:58:578,0,-10.9697,-12.0109,67.9827,Q,Q
2023-03-15 13:57:58:588,0,-10.9779,-12.0242,67.998,Q,Q
2023-03-15 13:57:58:598,0,-10.9907,-12.0383,68.0166,Q,Q
2023-03-15 13:57:58:608,0,-10.9996,-12.0465,68.0293,Q,Q
2023-03-15 13:57:58:618,0,-11.0058,-12.0523,68.0386,Q,Q
2023-03-15 13:57:58:629,0,-11.0094,-12.0547,68.0495,Q,Q
2023-03-15 13:57:58:638,0,-11.0115,-12.0592,68.0637,Q,Q
2023-03-15 13:57:58:649,0,-11.017,-12.0668,68.0788,Q,Q
2023-03-15 13:57:58:659,0,-11.0259,-12.0742,68.0968,Q,Q
2023-03-15 13:57:58:669,0,-11.0294,-12.0784,68.1094,Q,Q
2023-03-15 13:57:58:679,0,-11.032,-12.0743,68.117,Q,Q
2023-03-15 13:57:58:688,0,-11.0366,-12.0711,68.1281,Q,Q
2023-03-15 13:57:58:699,0,-11.0386,-12.0715,68.137,Q,Q
2023-03-15 13:57:58:709,0,-11.0435,-12.0714,68.1434,Q,Q
2023-03-15 13:57:58:718,0,-11.0569,-12.0732,68.1502,Q,Q
2023-03-15 13:57:58:729,0,-11.0672,-12.0673,68.1554,Q,Q
2023-03-15 13:57:58:739,0,-11.0704,-12.059,68.1561,Q,Q
2023-03-15 13:57:58:749,0,-11.0677,-12.0485,68.1524,Q,Q
2023-03-15 13:57:58:759,0,-11.0675,-12.0387,68.1447,Q,Q
2023-03-15 13:57:58:769,0,-11.067,-12.0302,68.1354,Q,Q
2023-03-15 13:57:58:779,0,-11.0686,-12.0207,68.1228,Q,Q
2023-03-15 13:57:58:788,0,-11.0669,-12.0118,68.1142,Q,Q
2023-03-15 13:57:58:798,0,-11.0687,-12.0025,68.1075,Q,Q
2023-03-15 13:57:58:808,0,-11.0709,-11.9941,68.1003,Q,Q
2023-03-15 13:57:58:819,0,-11.0703,-11.9891,68.0926,Q,Q
2023-03-15 13:57:58:829,0,-11.0743,-11.9859,68.0809,Q,Q
2023-03-15 13:57:58:838,0,-11.0787,-11.9836,68.063,Q,Q
2023-03-15 13:57:58:848,0,-11.0832,-11.9819,68.0499,Q,Q
2023-03-15 13:57:58:859,0,-11.089,-11.9763,68.0304,Q,Q
2023-03-15 13:57:58:869,0,-11.0893,-11.97,68.0081,Q,Q
2023-03-15 13:57:58:878,0,-11.0868,-11.9645,67.9862,Q,Q
2023-03-15 13:57:58:888,0,-11.082,-11.958,67.9677,Q,Q
2023-03-15 13:57:58:898,0,-11.078,-11.9492,67.949,Q,Q
2023-03-15 13:57:58:908,0,-11.0764,-11.9425,67.9287,Q,Q
2023-03-15 13:57:58:918,0,-11.071,-11.9379,67.9138,Q,Q
2023-03-15 13:57:58:928,0,-11.0672,-11.9337,67.9014,Q,Q
2023-03-15 13:57:58:938,0,-11.0638,-11.9302,67.8902,Q,Q
2023-03-15 13:57:58:948,0,-11.0607,-11.9258,67.8794,Q,Q
2023-03-15 13:57:58:958,0,-11.0583,-11.9185,67.8648,Q,Q
2023-03-15 13:57:58:968,0,-11.0515,-11.9136,67.8478,Q,Q
2023-03-15 13:57:58:978,0,-11.0457,-11.9046,67.8252,Q,Q
2023-03-15 13:57:58:988,0,-11.0436,-11.8952,67.8052,Q,Q
2023-03-15 13:57:58:998,0,-11.0406,-11.8795,67.7842,Q,Q
2023-03-15 13:57:59:8,0,-11.0367,-11.8671,67.7586,Q,Q
2023-03-15 13:57:59:18,0,-11.0298,-11.8514,67.7342,Q,Q
2023-03-15 13:57:59:28,0,-11.019,-11.838,67.7087,Q,Q
2023-03-15 13:57:59:38,0,-11.0076,-11.8257,67.6855,Q,Q
2023-03-15 13:57:59:48,0,-10.9956,-11.8121,67.6589,Q,Q
2023-03-15 13:57:59:58,0,-10.9849,-11.7945,67.6286,Q,Q
2023-03-15 13:57:59:68,0,-10.9718,-11.7765,67.5904,Q,Q
2023-03-15 13:57:59:78,0,-10.959,-11.7529,67.5526,Q,Q
2023-03-15 13:57:59:88,0,-10.9481,-11.7275,67.5118,Q,Q
2023-03-15 13:57:59:98,0,-10.9398,-11.7033,67.4742,Q,Q
2023-03-15 13:57:59:108,0,-10.9296,-11.6789,67.4361,Q,Q
2023-03-15 13:57:59:118,0,-10.9168,-11.6571,67.4022,Q,Q
2023-03-15 13:57:59:128,0,-10.8998,-11.6342,67.3653,Q,Q
2023-03-15 13:57:59:138,0,-10.882,-11.6175,67.3247,Q,Q
2023-03-15 13:57:59:149,0,-10.8601,-11.5981,67.2793,Q,Q
2023-03-15 13:57:59:158,0,-10.8329,-11.5864,67.2262,Q,Q
2023-03-15 13:57:59:169,0,-10.8119,-11.5762,67.1603,Q,Q
2023-03-15 13:57:59:178,0,-10.7913,-11.5622,67.0724,Q,Q
2023-03-15 13:57:59:188,0,-10.7625,-11.5457,66.9505,Q,Q
2023-03-15 13:57:59:199,0,-10.7253,-11.5336,66.7796,Q,Q
2023-03-15 13:57:59:209,0,-10.6913,-11.5254,66.5566,Q,Q
2023-03-15 13:57:59:219,0,-10.6463,-11.5198,66.2566,Q,Q
2023-03-15 13:57:59:229,0,-10.5974,-11.5165,65.8545,Q,Q
2023-03-15 13:57:59:239,0,-10.5404,-11.5083,65.3199,Q,Q
2023-03-15 13:57:59:249,0,-10.471,-11.492,64.6314,Q,Q
2023-03-15 13:57:59:259,0,-10.3929,-11.4718,63.7717,Q,Q
2023-03-15 13:57:59:269,0,-10.3044,-11.4575,62.7394,Q,Q
2023-03-15 13:57:59:279,0,-10.1982,-11.4561,61.5395,Q,Q
2023-03-15 13:57:59:289,0,-10.0744,-11.4635,60.169,Q,Q
2023-03-15 13:57:59:299,0,-9.92955,-11.4797,58.639,Q,Q
2023-03-15 13:57:59:309,0,-9.76768,-11.5007,56.9634,Q,Q
2023-03-15 13:57:59:318,0,-9.59357,-11.5149,55.1588,Q,Q
2023-03-15 13:57:59:328,0,-9.4141,-11.5142,53.2397,Q,Q
2023-03-15 13:57:59:338,0,-9.23265,-11.497,51.2313,Q,Q
2023-03-15 13:57:59:349,0,-9.0502,-11.4613,49.1541,Q,Q
2023-03-15 13:57:59:358,0,-8.87853,-11.4112,47.0418,Q,Q
2023-03-15 13:57:59:369,0,-8.72782,-11.3605,44.9135,Q,Q
2023-03-15 13:57:59:379,0,-8.6073,-11.3161,42.8019,Q,Q
2023-03-15 13:57:59:389,0,-8.52922,-11.2759,40.7294,Q,Q
2023-03-15 13:57:59:399,0,-8.49349,-11.2412,38.7059,Q,Q
2023-03-15 13:57:59:408,0,-8.49996,-11.2112,36.7412,Q,Q
2023-03-15 13:57:59:418,0,-8.53477,-11.1868,34.8562,Q,Q
2023-03-15 13:57:59:429,0,-8.59398,-11.1656,33.0617,Q,Q
2023-03-15 13:57:59:438,0,-8.66076,-11.1519,31.3679,Q,Q
2023-03-15 13:57:59:448,0,-8.71972,-11.1432,29.7777,Q,Q
2023-03-15 13:57:59:458,0,-8.76953,-11.1262,28.2979,Q,Q
2023-03-15 13:57:59:468,0,-8.80472,-11.1077,26.94,Q,Q
2023-03-15 13:57:59:478,0,-8.82975,-11.0827,25.7067,Q,Q
2023-03-15 13:57:59:489,0,-8.85179,-11.0466,24.6032,Q,Q
2023-03-15 13:57:59:499,0,-8.87285,-10.9954,23.6111,Q,Q
2023-03-15 13:57:59:509,0,-8.8967,-10.9213,22.7124,Q,Q
2023-03-15 13:57:59:519,0,-8.92507,-10.8143,21.8892,Q,Q
2023-03-15 13:57:59:528,0,-8.95069,-10.6677,21.1197,Q,Q
2023-03-15 13:57:59:538,0,-8.96584,-10.4858,20.3982,Q,Q
2023-03-15 13:57:59:549,0,-8.97125,-10.2812,19.7331,Q,Q
2023-03-15 13:57:59:558,0,-8.96669,-10.0677,19.1365,Q,Q
2023-03-15 13:57:59:568,0,-8.95788,-9.85537,18.6105,Q,Q
2023-03-15 13:57:59:579,0,-8.94686,-9.65443,18.1513,Q,Q
2023-03-15 13:57:59:589,0,-8.93656,-9.4589,17.7518,Q,Q
2023-03-15 13:57:59:599,0,-8.9256,-9.26214,17.3998,Q,Q
2023-03-15 13:57:59:608,0,-8.91715,-9.05687,17.0775,Q,Q
2023-03-15 13:57:59:619,0,-8.90368,-8.8436,16.7702,Q,Q
2023-03-15 13:57:59:629,0,-8.88446,-8.62416,16.4822,Q,Q
2023-03-15 13:57:59:638,0,-8.86284,-8.39961,16.2116,Q,Q
2023-03-15 13:57:59:649,0,-8.83223,-8.18258,15.9565,Q,Q
2023-03-15 13:57:59:658,0,-8.79569,-7.98276,15.7222,Q,Q
2023-03-15 13:57:59:668,0,-8.75242,-7.80932,15.506,Q,Q
2023-03-15 13:57:59:678,0,-8.7172,-7.67139,15.2976,Q,Q
2023-03-15 13:57:59:688,0,-8.70272,-7.54056,15.1089,Q,Q
2023-03-15 13:57:59:699,0,-8.69072,-7.41549,14.9371,Q,Q
2023-03-15 13:57:59:709,0,-8.68133,-7.29552,14.7724,Q,Q
2023-03-15 13:57:59:719,0,-8.66974,-7.19403,14.6123,Q,Q
2023-03-15 13:57:59:729,0,-8.65881,-7.09882,14.4649,Q,Q
2023-03-15 13:57:59:739,0,-8.65958,-7.00942,14.3297,Q,Q
2023-03-15 13:57:59:749,0,-8.66956,-6.91827,14.2011,Q,Q
2023-03-15 13:57:59:758,0,-8.67421,-6.81823,14.0768,Q,Q
2023-03-15 13:57:59:768,0,-8.6745,-6.72077,13.9617,Q,Q
2023-03-15 13:57:59:779,0,-8.66277,-6.6261,13.8677,Q,Q
2023-03-15 13:57:59:788,0,-8.62921,-6.53955,13.8138,Q,Q
2023-03-15 13:57:59:798,0,-8.57542,-6.45457,13.8044,Q,Q
2023-03-15 13:57:59:808,0,-8.49853,-6.35734,13.826,Q,Q
2023-03-15 13:57:59:819,0,-8.40004,-6.22989,13.8572,Q,Q
2023-03-15 13:57:59:829,0,-8.28912,-6.04269,13.8758,Q,Q
2023-03-15 13:57:59:838,0,-8.17139,-5.79105,13.8637,Q,Q
2023-03-15 13:57:59:848,0,-8.04548,-5.49036,13.8216,Q,Q
2023-03-15 13:57:59:858,0,-7.91266,-5.17809,13.7719,Q,Q
2023-03-15 13:57:59:868,0,-7.77289,-4.8774,13.7339,Q,Q
2023-03-15 13:57:59:878,0,-7.62198,-4.61606,13.7008,Q,Q
2023-03-15 13:57:59:888,0,-7.46064,-4.38587,13.6623,Q,Q
2023-03-15 13:57:59:898,0,-7.29267,-4.17633,13.6076,Q,Q
2023-03-15 13:57:59:908,0,-7.11626,-3.98229,13.5332,Q,Q
2023-03-15 13:57:59:918,0,-6.93271,-3.80028,13.4409,Q,Q
2023-03-15 13:57:59:928,0,-6.74556,-3.62881,13.3359,Q,Q
2023-03-15 13:57:59:938,0,-6.54515,-3.47636,13.222,Q,Q
2023-03-15 13:57:59:948,0,-6.32774,-3.33927,13.1045,Q,Q
2023-03-15 13:57:59:958,0,-6.10092,-3.2147,12.9881,Q,Q
2023-03-15 13:57:59:968,0,-5.86835,-3.10696,12.8803,Q,Q
2023-03-15 13:57:59:978,0,-5.65447,-3.02331,12.7749,Q,Q
2023-03-15 13:57:59:988,0,-5.46927,-2.95129,12.6713,Q,Q
2023-03-15 13:57:59:998,0,-5.2971,-2.88024,12.555,Q,Q
2023-03-15 13:58:00:8,0,-5.12531,-2.80369,12.4207,Q,Q
2023-03-15 13:58:00:18,0,-4.93826,-2.72061,12.2805,Q,Q
2023-03-15 13:58:00:28,0,-4.74612,-2.63789,12.1451,Q,Q
2023-03-15 13:58:00:38,0,-4.55331,-2.55524,12.0142,Q,Q
2023-03-15 13:58:00:48,0,-4.37624,-2.48093,11.8859,Q,Q
2023-03-15 13:58:00:59,0,-4.21137,-2.41663,11.7577,Q,Q
2023-03-15 13:58:00:68,0,-4.06789,-2.35941,11.6278,Q,Q
2023-03-15 13:58:00:78,0,-3.9493,-2.3001,11.4798,Q,Q
2023-03-15 13:58:00:88,0,-3.83736,-2.22111,11.3086,Q,Q
2023-03-15 13:58:00:99,0,-3.73183,-2.12447,11.1189,Q,Q
2023-03-15 13:58:00:109,0,-3.62836,-2.02099,10.9247,Q,Q
2023-03-15 13:58:00:118,0,-3.53826,-1.92287,10.7425,Q,Q
2023-03-15 13:58:00:128,0,-3.47058,-1.83233,10.5788,Q,Q
2023-03-15 13:58:00:139,0,-3.43133,-1.7529,10.4357,Q,Q
2023-03-15 13:58:00:148,0,-3.41777,-1.67948,10.3037,Q,Q
2023-03-15 13:58:00:158,0,-3.43814,-1.6077,10.174,Q,Q
2023-03-15 13:58:00:169,0,-3.48762,-1.54126,10.0561,Q,Q
2023-03-15 13:58:00:179,0,-3.56318,-1.47038,9.9384,Q,Q
2023-03-15 13:58:00:189,0,-3.65398,-1.38982,9.81753,Q,Q
2023-03-15 13:58:00:199,0,-3.76289,-1.29163,9.68947,Q,Q
2023-03-15 13:58:00:209,0,-3.90355,-1.16926,9.55816,Q,Q
2023-03-15 13:58:00:218,0,-4.07353,-1.02715,9.42267,Q,Q
2023-03-15 13:58:00:229,0,-4.27337,-0.869256,9.27876,Q,Q
2023-03-15 13:58:00:239,0,-4.49327,-0.70166,9.1197,Q,Q
2023-03-15 13:58:00:249,0,-4.71665,-0.52555,8.9438,Q,Q
2023-03-15 13:58:00:258,0,-4.91666,-0.346839,8.7568,Q,Q
2023-03-15 13:58:00:269,0,-5.07117,-0.180565,8.56277,Q,Q
2023-03-15 13:58:00:278,0,-5.16726,-0.0480242,8.37522,Q,Q
2023-03-15 13:58:00:289,0,-5.20497,0.0562798,8.20974,Q,Q
2023-03-15 13:58:00:298,0,-5.18849,0.127536,8.06701,Q,Q
2023-03-15 13:58:00:308,0,-5.14041,0.169851,7.94886,Q,Q
2023-03-15 13:58:00:318,0,-5.08436,0.170394,7.86433,Q,Q
2023-03-15 13:58:00:328,0,-5.03483,0.130489,7.81137,Q,Q
2023-03-15 13:58:00:338,0,-5.00207,0.0546131,7.78861,Q,Q
2023-03-15 13:58:00:348,0,-4.97812,-0.0502352,7.78788,Q,Q
2023-03-15 13:58:00:358,0,-4.95848,-0.182214,7.79852,Q,Q
2023-03-15 13:58:00:368,0,-4.93811,-0.33344,7.82322,Q,Q
2023-03-15 13:58:00:378,0,-4.90801,-0.500324,7.85585,Q,Q
2023-03-15 13:58:00:388,0,-4.86617,-0.676627,7.90124,Q,Q
2023-03-15 13:58:00:398,0,-4.81627,-0.861797,7.95438,Q,Q
2023-03-15 13:58:00:408,0,-4.75432,-1.06307,8.00957,Q,Q
2023-03-15 13:58:00:418,0,-4.67433,-1.27532,8.06726,Q,Q
2023-03-15 13:58:00:428,0,-4.56983,-1.49904,8.13277,Q,Q
2023-03-15 13:58:00:438,0,-4.44387,-1.726,8.20328,Q,Q
2023-03-15 13:58:00:448,0,-4.29425,-1.95032,8.27432,Q,Q
2023-03-15 13:58:00:459,0,-4.11972,-2.1677,8.33886,Q,Q
2023-03-15 13:58:00:468,0,-3.942,-2.38495,8.40345,Q,Q
2023-03-15 13:58:00:479,0,-3.76685,-2.5982,8.47184,Q,Q
2023-03-15 13:58:00:489,0,-3.59837,-2.81559,8.53832,Q,Q
2023-03-15 13:58:00:499,0,-3.44085,-3.03198,8.60464,Q,Q
2023-03-15 13:58:00:508,0,-3.28905,-3.24682,8.66064,Q,Q
2023-03-15 13:58:00:519,0,-3.13374,-3.45868,8.69646,Q,Q
2023-03-15 13:58:00:528,0,-2.97145,-3.66776,8.7164,Q,Q
2023-03-15 13:58:00:538,0,-2.7995,-3.87354,8.72165,Q,Q
2023-03-15 13:58:00:549,0,-2.62218,-4.08529,8.71528,Q,Q
2023-03-15 13:58:00:559,0,-2.43551,-4.30779,8.70021,Q,Q
2023-03-15 13:58:00:569,0,-2.24199,-4.53869,8.67035,Q,Q
2023-03-15 13:58:00:579,0,-2.04709,-4.76418,8.62943,Q,Q
2023-03-15 13:58:00:589,0,-1.86123,-4.9907,8.57233,Q,Q
2023-03-15 13:58:00:599,0,-1.69336,-5.21249,8.49894,Q,Q
2023-03-15 13:58:00:609,0,-1.55064,-5.4351,8.41306,Q,Q
2023-03-15 13:58:00:618,0,-1.43968,-5.65901,8.31395,Q,Q
2023-03-15 13:58:00:628,0,-1.35471,-5.88548,8.20574,Q,Q
2023-03-15 13:58:00:638,0,-1.29531,-6.12842,8.08236,Q,Q
2023-03-15 13:58:00:648,0,-1.24203,-6.37487,7.95126,Q,Q
2023-03-15 13:58:00:658,0,-1.18084,-6.6426,7.80743,Q,Q
2023-03-15 13:58:00:668,0,-1.09701,-6.88261,7.66494,Q,Q
2023-03-15 13:58:00:678,0,-0.986261,-7.12396,7.51248,Q,Q
2023-03-15 13:58:00:689,0,-0.865241,-7.3734,7.37584,Q,Q
2023-03-15 13:58:00:699,0,-0.755537,-7.61384,7.25036,Q,Q
2023-03-15 13:58:00:708,0,-0.645988,-7.84838,7.12539,Q,Q
2023-03-15 13:58:00:718,0,-0.544075,-8.07369,7.01275,Q,Q
2023-03-15 13:58:00:729,0,-0.445619,-8.2927,6.9147,Q,Q
2023-03-15 13:58:00:738,0,-0.351791,-8.5022,6.83344,Q,Q
2023-03-15 13:58:00:748,0,-0.263798,-8.69553,6.7573,Q,Q
2023-03-15 13:58:00:758,0,-0.179227,-8.87299,6.69,Q,Q
2023-03-15 13:58:00:768,0,-0.0921018,-9.0346,6.6274,Q,Q
2023-03-15 13:58:00:778,0,-0.00824413,-9.18347,6.57778,Q,Q
2023-03-15 13:58:00:788,0,0.0780265,-9.32982,6.5373,Q,Q
2023-03-15 13:58:00:798,0,0.164528,-9.47553,6.51348,Q,Q
2023-03-15 13:58:00:808,0,0.24102,-9.61955,6.50087,Q,Q
2023-03-15 13:58:00:818,0,0.313915,-9.76189,6.49911,Q,Q
2023-03-15 13:58:00:828,0,0.376351,-9.89799,6.51141,Q,Q
2023-03-15 13:58:00:838,0,0.43648,-10.0295,6.52939,Q,Q
2023-03-15 13:58:00:848,0,0.487288,-10.1499,6.55091,Q,Q
2023-03-15 13:58:00:858,0,0.538144,-10.2597,6.58255,Q,Q
2023-03-15 13:58:00:868,0,0.584738,-10.3638,6.61693,Q,Q
2023-03-15 13:58:00:878,0,0.637557,-10.458,6.65914,Q,Q
2023-03-15 13:58:00:888,0,0.699388,-10.5415,6.70136,Q,Q
2023-03-15 13:58:00:898,0,0.761396,-10.6155,6.75172,Q,Q
2023-03-15 13:58:00:908,0,0.815208,-10.6858,6.80623,Q,Q
2023-03-15 13:58:00:918,0,0.855662,-10.7559,6.86785,Q,Q
2023-03-15 13:58:00:928,0,0.882456,-10.8248,6.93232,Q,Q
2023-03-15 13:58:00:938,0,0.898247,-10.892,7.00022,Q,Q
2023-03-15 13:58:00:948,0,0.914624,-10.9614,7.06819,Q,Q
2023-03-15 13:58:00:958,0,0.939372,-11.0209,7.13746,Q,Q
2023-03-15 13:58:00:968,0,0.972449,-11.0763,7.19924,Q,Q
2023-03-15 13:58:00:979,0,1.00481,-11.1191,7.25559,Q,Q
2023-03-15 13:58:00:988,0,1.03845,-11.1564,7.3156,Q,Q
2023-03-15 13:58:00:998,0,1.07319,-11.1861,7.37144,Q,Q
2023-03-15 13:58:01:8,0,1.10639,-11.2101,7.42653,Q,Q
2023-03-15 13:58:01:19,0,1.14153,-11.2296,7.47971,Q,Q
2023-03-15 13:58:01:28,0,1.17741,-11.2458,7.53345,Q,Q
2023-03-15 13:58:01:38,0,1.21756,-11.2601,7.58874,Q,Q
2023-03-15 13:58:01:48,0,1.25922,-11.2736,7.64972,Q,Q
2023-03-15 13:58:01:59,0,1.30524,-11.291,7.7165,Q,Q
2023-03-15 13:58:01:68,0,1.35529,-11.3121,7.79651,Q,Q
2023-03-15 13:58:01:78,0,1.39944,-11.3298,7.88302,Q,Q
2023-03-15 13:58:01:88,0,1.42938,-11.3513,7.97319,Q,Q
2023-03-15 13:58:01:98,0,1.43062,-11.3646,8.07078,Q,Q
2023-03-15 13:58:01:108,0,1.41087,-11.3645,8.16659,Q,Q
2023-03-15 13:58:01:118,0,1.37642,-11.3513,8.25648,Q,Q
2023-03-15 13:58:01:128,0,1.32328,-11.3273,8.33995,Q,Q
2023-03-15 13:58:01:139,0,1.26027,-11.2983,8.4165,Q,Q
2023-03-15 13:58:01:148,0,1.1865,-11.2559,8.48236,Q,Q
2023-03-15 13:58:01:159,0,1.11832,-11.1977,8.54159,Q,Q
2023-03-15 13:58:01:168,0,1.05773,-11.1309,8.59342,Q,Q
2023-03-15 13:58:01:179,0,0.996881,-11.0599,8.64043,Q,Q
2023-03-15 13:58:01:188,0,0.935533,-10.9825,8.67911,Q,Q
2023-03-15 13:58:01:199,0,0.873812,-10.8898,8.70668,Q,Q
2023-03-15 13:58:01:208,0,0.810578,-10.7932,8.72138,Q,Q
2023-03-15 13:58:01:218,0,0.744889,-10.6899,8.72053,Q,Q
2023-03-15 13:58:01:228,0,0.67035,-10.5777,8.71042,Q,Q
2023-03-15 13:58:01:238,0,0.585918,-10.4595,8.6837,Q,Q
2023-03-15 13:58:01:248,0,0.491983,-10.3275,8.64082,Q,Q
2023-03-15 13:58:01:259,0,0.387394,-10.1911,8.58171,Q,Q
2023-03-15 13:58:01:268,0,0.274376,-10.0488,8.51127,Q,Q
2023-03-15 13:58:01:279,0,0.159203,-9.90735,8.42475,Q,Q
2023-03-15 13:58:01:289,0,0.0411691,-9.76744,8.32381,Q,Q
2023-03-15 13:58:01:299,0,-0.0691383,-9.62911,8.20256,Q,Q
2023-03-15 13:58:01:308,0,-0.161767,-9.50034,8.07046,Q,Q
2023-03-15 13:58:01:319,0,-0.235383,-9.38063,7.92727,Q,Q
2023-03-15 13:58:01:329,0,-0.277936,-9.2714,7.77495,Q,Q
2023-03-15 13:58:01:338,0,-0.289926,-9.17,7.61893,Q,Q
2023-03-15 13:58:01:348,0,-0.271981,-9.07612,7.45753,Q,Q
2023-03-15 13:58:01:358,0,-0.230077,-8.9942,7.29183,Q,Q
2023-03-15 13:58:01:368,0,-0.168859,-8.92141,7.12529,Q,Q
2023-03-15 13:58:01:378,0,-0.0925262,-8.85364,6.96501,Q,Q
2023-03-15 13:58:01:388,0,0.00163832,-8.79328,6.80297,Q,Q
2023-03-15 13:58:01:398,0,0.111259,-8.7325,6.64015,Q,Q
2023-03-15 13:58:01:408,0,0.224233,-8.67595,6.4872,Q,Q
2023-03-15 13:58:01:418,0,0.330944,-8.62635,6.34282,Q,Q
2023-03-15 13:58:01:428,0,0.429305,-8.58467,6.21217,Q,Q
2023-03-15 13:58:01:438,0,0.511976,-8.54994,6.09654,Q,Q
2023-03-15 13:58:01:448,0,0.580013,-8.52722,5.99423,Q,Q
2023-03-15 13:58:01:458,0,0.638513,-8.51925,5.90579,Q,Q
2023-03-15 13:58:01:468,0,0.684018,-8.52113,5.83546,Q,Q
2023-03-15 13:58:01:478,0,0.725364,-8.53203,5.76906,Q,Q
2023-03-15 13:58:01:488,0,0.765309,-8.54424,5.70734,Q,Q
2023-03-15 13:58:01:499,0,0.807299,-8.55384,5.64814,Q,Q
2023-03-15 13:58:01:508,0,0.852764,-8.5633,5.58877,Q,Q
2023-03-15 13:58:01:519,0,0.892545,-8.56989,5.53178,Q,Q
2023-03-15 13:58:01:529,0,0.926082,-8.57679,5.47364,Q,Q
2023-03-15 13:58:01:539,0,0.9551,-8.58593,5.40942,Q,Q
2023-03-15 13:58:01:549,0,0.990608,-8.59613,5.3406,Q,Q
2023-03-15 13:58:01:558,0,1.02417,-8.60572,5.26701,Q,Q
2023-03-15 13:58:01:568,0,1.05709,-8.61357,5.18561,Q,Q
2023-03-15 13:58:01:579,0,1.08211,-8.62044,5.10872,Q,Q
2023-03-15 13:58:01:588,0,1.10658,-8.62663,5.03019,Q,Q
2023-03-15 13:58:01:598,0,1.12691,-8.63707,4.94899,Q,Q
2023-03-15 13:58:01:608,0,1.14282,-8.64383,4.85923,Q,Q
2023-03-15 13:58:01:618,0,1.15497,-8.64248,4.76827,Q,Q
2023-03-15 13:58:01:628,0,1.16456,-8.6417,4.67671,Q,Q
2023-03-15 13:58:01:638,0,1.17711,-8.63541,4.58444,Q,Q
2023-03-15 13:58:01:648,0,1.19322,-8.64188,4.48566,Q,Q
2023-03-15 13:58:01:659,0,1.22186,-8.67435,4.38021,Q,Q
2023-03-15 13:58:01:668,0,1.28861,-8.74232,4.24901,Q,Q
2023-03-15 13:58:01:679,0,1.4219,-8.83897,4.08831,Q,Q
2023-03-15 13:58:01:688,0,1.61774,-8.95456,3.908,Q,Q
2023-03-15 13:58:01:699,0,1.84263,-9.06672,3.71489,Q,Q
2023-03-15 13:58:01:708,0,2.06307,-9.16925,3.52351,Q,Q
2023-03-15 13:58:01:719,0,2.24508,-9.26151,3.3378,Q,Q
2023-03-15 13:58:01:728,0,2.3801,-9.34976,3.16154,Q,Q
2023-03-15 13:58:01:738,0,2.46413,-9.42644,3.00097,Q,Q
2023-03-15 13:58:01:748,0,2.51516,-9.49564,2.85957,Q,Q
2023-03-15 13:58:01:759,0,2.55183,-9.55304,2.73668,Q,Q
2023-03-15 13:58:01:769,0,2.57718,-9.60525,2.62931,Q,Q
2023-03-15 13:58:01:779,0,2.60699,-9.64926,2.54112,Q,Q
2023-03-15 13:58:01:789,0,2.64578,-9.69476,2.4631,Q,Q
2023-03-15 13:58:01:799,0,2.68616,-9.73396,2.40223,Q,Q
2023-03-15 13:58:01:809,0,2.74276,-9.76046,2.34841,Q,Q
2023-03-15 13:58:01:818,0,2.81687,-9.7713,2.30022,Q,Q
2023-03-15 13:58:01:828,0,2.90524,-9.77065,2.25781,Q,Q
2023-03-15 13:58:01:839,0,2.98857,-9.75735,2.23228,Q,Q
2023-03-15 13:58:01:848,0,3.06026,-9.73701,2.22284,Q,Q
2023-03-15 13:58:01:858,0,3.10737,-9.71972,2.23503,Q,Q
2023-03-15 13:58:01:868,0,3.1257,-9.71113,2.26846,Q,Q
2023-03-15 13:58:01:878,0,3.11735,-9.7113,2.31606,Q,Q
2023-03-15 13:58:01:888,0,3.0861,-9.71913,2.37477,Q,Q
2023-03-15 13:58:01:899,0,3.04368,-9.73531,2.43985,Q,Q
2023-03-15 13:58:01:908,0,2.99839,-9.75446,2.50459,Q,Q
2023-03-15 13:58:01:918,0,2.95603,-9.77361,2.57602,Q,Q
2023-03-15 13:58:01:928,0,2.9224,-9.78962,2.64279,Q,Q
2023-03-15 13:58:01:938,0,2.90131,-9.80274,2.69887,Q,Q
2023-03-15 13:58:01:948,0,2.89343,-9.8046,2.74589,Q,Q
2023-03-15 13:58:01:959,0,2.90096,-9.79622,2.78473,Q,Q
2023-03-15 13:58:01:968,0,2.91751,-9.77832,2.81214,Q,Q
2023-03-15 13:58:01:978,0,2.93957,-9.74684,2.82821,Q,Q
2023-03-15 13:58:01:988,0,2.96854,-9.69896,2.82956,Q,Q
2023-03-15 13:58:01:998,0,2.99514,-9.64038,2.81984,Q,Q
2023-03-15 13:58:02:8,0,3.01857,-9.57746,2.80205,Q,Q
2023-03-15 13:58:02:19,0,3.0341,-9.50852,2.7791,Q,Q
2023-03-15 13:58:02:29,0,3.04459,-9.44124,2.7455,Q,Q
2023-03-15 13:58:02:39,0,3.05105,-9.3718,2.7122,Q,Q
2023-03-15 13:58:02:49,0,3.04471,-9.30733,2.67487,Q,Q
2023-03-15 13:58:02:58,0,3.03679,-9.25095,2.63771,Q,Q
2023-03-15 13:58:02:68,0,3.02346,-9.20702,2.60294,Q,Q
2023-03-15 13:58:02:79,0,3.01273,-9.1816,2.57023,Q,Q
2023-03-15 13:58:02:88,0,3.00607,-9.16978,2.5357,Q,Q
2023-03-15 13:58:02:99,0,3.00804,-9.16968,2.50653,Q,Q
2023-03-15 13:58:02:109,0,3.02321,-9.18075,2.47869,Q,Q
2023-03-15 13:58:02:119,0,3.05647,-9.19766,2.44776,Q,Q
2023-03-15 13:58:02:129,0,3.1123,-9.22291,2.42206,Q,Q
2023-03-15 13:58:02:138,0,3.18438,-9.2507,2.39992,Q,Q
2023-03-15 13:58:02:149,0,3.26655,-9.28536,2.38125,Q,Q
2023-03-15 13:58:02:159,0,3.35774,-9.32587,2.3691,Q,Q
2023-03-15 13:58:02:169,0,3.45138,-9.36645,2.3626,Q,Q
2023-03-15 13:58:02:179,0,3.54024,-9.40781,2.36316,Q,Q
2023-03-15 13:58:02:188,0,3.62032,-9.44806,2.36917,Q,Q
2023-03-15 13:58:02:198,0,3.69019,-9.48393,2.37896,Q,Q
2023-03-15 13:58:02:208,0,3.75154,-9.51151,2.3966,Q,Q
2023-03-15 13:58:02:218,0,3.80104,-9.53026,2.41755,Q,Q
2023-03-15 13:58:02:228,0,3.84477,-9.54792,2.4425,Q,Q
2023-03-15 13:58:02:239,0,3.87837,-9.56129,2.47533,Q,Q
2023-03-15 13:58:02:248,0,3.89966,-9.5738,2.51229,Q,Q
2023-03-15 13:58:02:259,0,3.9109,-9.57448,2.55109,Q,Q
2023-03-15 13:58:02:268,0,3.90839,-9.56607,2.59271,Q,Q
2023-03-15 13:58:02:279,0,3.88051,-9.55676,2.6356,Q,Q
2023-03-15 13:58:02:288,0,3.81932,-9.54342,2.68334,Q,Q
2023-03-15 13:58:02:298,0,3.72344,-9.52774,2.72929,Q,Q
2023-03-15 13:58:02:308,0,3.60316,-9.50618,2.76064,Q,Q
2023-03-15 13:58:02:318,0,3.46418,-9.48435,2.78586,Q,Q
2023-03-15 13:58:02:328,0,3.30999,-9.46784,2.80022,Q,Q
2023-03-15 13:58:02:338,0,3.14897,-9.45052,2.80386,Q,Q
2023-03-15 13:58:02:348,0,2.9874,-9.43819,2.791,Q,Q
2023-03-15 13:58:02:358,0,2.82832,-9.43129,2.75721,Q,Q
2023-03-15 13:58:02:368,0,2.67789,-9.42225,2.70731,Q,Q
2023-03-15 13:58:02:378,0,2.53903,-9.42038,2.63855,Q,Q
2023-03-15 13:58:02:388,0,2.41434,-9.42076,2.55034,Q,Q
2023-03-15 13:58:02:398,0,2.29799,-9.42499,2.44762,Q,Q
2023-03-15 13:58:02:408,0,2.18823,-9.42902,2.33406,Q,Q
2023-03-15 13:58:02:418,0,2.09092,-9.44052,2.21343,Q,Q
2023-03-15 13:58:02:428,0,1.99904,-9.45521,2.08815,Q,Q
2023-03-15 13:58:02:438,0,1.91536,-9.47371,1.95231,Q,Q
2023-03-15 13:58:02:448,0,1.8407,-9.49582,1.81384,Q,Q
2023-03-15 13:58:02:459,0,1.77699,-9.52397,1.67354,Q,Q
2023-03-15 13:58:02:469,0,1.72447,-9.5577,1.52953,Q,Q
2023-03-15 13:58:02:479,0,1.69494,-9.59639,1.38642,Q,Q
2023-03-15 13:58:02:489,0,1.68164,-9.63595,1.24538,Q,Q
2023-03-15 13:58:02:499,0,1.67731,-9.6699,1.10553,Q,Q
2023-03-15 13:58:02:508,0,1.68431,-9.69793,0.970439,Q,Q
2023-03-15 13:58:02:519,0,1.69419,-9.71992,0.837088,Q,Q
2023-03-15 13:58:02:529,0,1.70657,-9.743,0.703589,Q,Q
2023-03-15 13:58:02:539,0,1.71947,-9.76137,0.57495,Q,Q
2023-03-15 13:58:02:549,0,1.73042,-9.77338,0.44982,Q,Q
2023-03-15 13:58:02:558,0,1.74243,-9.78935,0.325402,Q,Q
2023-03-15 13:58:02:568,0,1.75454,-9.79595,0.207761,Q,Q
2023-03-15 13:58:02:579,0,1.76789,-9.80069,0.0843256,Q,Q
2023-03-15 13:58:02:589,0,1.78971,-9.80401,-0.0407026,Q,Q
2023-03-15 13:58:02:599,0,1.81411,-9.80252,-0.16528,Q,Q
2023-03-15 13:58:02:609,0,1.84398,-9.78952,-0.293202,Q,Q
2023-03-15 13:58:02:618,0,1.87502,-9.77127,-0.415232,Q,Q
2023-03-15 13:58:02:628,0,1.90521,-9.74713,-0.539074,Q,Q
2023-03-15 13:58:02:638,0,1.93571,-9.71848,-0.656152,Q,Q
2023-03-15 13:58:02:648,0,1.96309,-9.68698,-0.764812,Q,Q
2023-03-15 13:58:02:658,0,1.983,-9.65288,-0.862408,Q,Q
2023-03-15 13:58:02:668,0,1.99095,-9.61658,-0.955672,Q,Q
2023-03-15 13:58:02:679,0,1.97557,-9.58017,-1.03467,Q,Q
2023-03-15 13:58:02:688,0,1.95001,-9.53844,-1.10368,Q,Q
2023-03-15 13:58:02:698,0,1.91654,-9.49132,-1.16822,Q,Q
2023-03-15 13:58:02:709,0,1.88305,-9.44039,-1.22245,Q,Q
2023-03-15 13:58:02:719,0,1.84545,-9.38237,-1.25844,Q,Q
2023-03-15 13:58:02:729,0,1.79711,-9.31607,-1.28139,Q,Q
2023-03-15 13:58:02:739,0,1.73989,-9.24447,-1.29006,Q,Q
2023-03-15 13:58:02:749,0,1.66425,-9.16799,-1.27805,Q,Q
2023-03-15 13:58:02:759,0,1.5734,-9.0903,-1.25438,Q,Q
2023-03-15 13:58:02:768,0,1.46871,-9.00606,-1.21976,Q,Q
2023-03-15 13:58:02:778,0,1.34224,-8.92199,-1.17266,Q,Q
2023-03-15 13:58:02:788,0,1.20827,-8.84201,-1.1187,Q,Q
2023-03-15 13:58:02:799,0,1.06707,-8.75845,-1.054,Q,Q
2023-03-15 13:58:02:808,0,0.922608,-8.67571,-0.987555,Q,Q
2023-03-15 13:58:02:819,0,0.777482,-8.59456,-0.92122,Q,Q
2023-03-15 13:58:02:829,0,0.631477,-8.51636,-0.852819,Q,Q
2023-03-15 13:58:02:838,0,0.48822,-8.44778,-0.779054,Q,Q
2023-03-15 13:58:02:849,0,0.33995,-8.37987,-0.70422,Q,Q
2023-03-15 13:58:02:858,0,0.185919,-8.32543,-0.633353,Q,Q
2023-03-15 13:58:02:869,0,0.0275538,-8.27199,-0.564468,Q,Q
2023-03-15 13:58:02:879,0,-0.13235,-8.21786,-0.501956,Q,Q
2023-03-15 13:58:02:888,0,-0.299795,-8.17238,-0.438045,Q,Q
2023-03-15 13:58:02:898,0,-0.48115,-8.13968,-0.377468,Q,Q
2023-03-15 13:58:02:908,0,-0.673457,-8.10533,-0.325624,Q,Q
2023-03-15 13:58:02:918,0,-0.86007,-8.06792,-0.285017,Q,Q
2023-03-15 13:58:02:928,0,-1.04033,-8.02906,-0.250326,Q,Q
2023-03-15 13:58:02:938,0,-1.21756,-7.99487,-0.214774,Q,Q
2023-03-15 13:58:02:949,0,-1.39227,-7.96782,-0.183796,Q,Q
2023-03-15 13:58:02:959,0,-1.56575,-7.93961,-0.157202,Q,Q
2023-03-15 13:58:02:969,0,-1.73405,-7.9156,-0.138734,Q,Q
2023-03-15 13:58:02:979,0,-1.90993,-7.89605,-0.125526,Q,Q
2023-03-15 13:58:02:989,0,-2.09085,-7.87513,-0.116974,Q,Q
2023-03-15 13:58:02:999,0,-2.27586,-7.85803,-0.113505,Q,Q
2023-03-15 13:58:03:9,0,-2.45003,-7.84478,-0.123642,Q,Q
2023-03-15 13:58:03:19,0,-2.60821,-7.83372,-0.144302,Q,Q
2023-03-15 13:58:03:29,0,-2.74468,-7.83359,-0.175122,Q,Q
2023-03-15 13:58:03:39,0,-2.85895,-7.83568,-0.218557,Q,Q
2023-03-15 13:58:03:49,0,-2.95234,-7.84394,-0.266839,Q,Q
2023-03-15 13:58:03:59,0,-3.03192,-7.8548,-0.316619,Q,Q
2023-03-15 13:58:03:69,0,-3.10435,-7.87274,-0.370106,Q,Q
2023-03-15 13:58:03:79,0,-3.16233,-7.89945,-0.420836,Q,Q
2023-03-15 13:58:03:89,0,-3.20769,-7.92665,-0.470037,Q,Q
2023-03-15 13:58:03:99,0,-3.23724,-7.95324,-0.517142,Q,Q
2023-03-15 13:58:03:109,0,-3.2508,-7.98052,-0.556858,Q,Q
2023-03-15 13:58:03:119,0,-3.25068,-8.00011,-0.587596,Q,Q
2023-03-15 13:58:03:129,0,-3.23953,-8.01224,-0.612179,Q,Q
2023-03-15 13:58:03:138,0,-3.22214,-8.0215,-0.62843,Q,Q
2023-03-15 13:58:03:149,0,-3.20344,-8.03014,-0.63085,Q,Q
2023-03-15 13:58:03:159,0,-3.19317,-8.03643,-0.618655,Q,Q
2023-03-15 13:58:03:169,0,-3.18334,-8.03809,-0.591944,Q,Q
2023-03-15 13:58:03:179,0,-3.16845,-8.03771,-0.559379,Q,Q
2023-03-15 13:58:03:188,0,-3.15029,-8.03069,-0.522643,Q,Q
2023-03-15 13:58:03:199,0,-3.13136,-8.01234,-0.486422,Q,Q
2023-03-15 13:58:03:209,0,-3.10181,-7.99024,-0.451366,Q,Q
2023-03-15 13:58:03:218,0,-3.0689,-7.96035,-0.416651,Q,Q
2023-03-15 13:58:03:229,0,-3.03406,-7.92874,-0.383662,Q,Q
2023-03-15 13:58:03:238,0,-2.99663,-7.90595,-0.353029,Q,Q
2023-03-15 13:58:03:248,0,-2.95262,-7.88834,-0.321947,Q,Q
2023-03-15 13:58:03:259,0,-2.90475,-7.87993,-0.289,Q,Q
2023-03-15 13:58:03:268,0,-2.84381,-7.88147,-0.255886,Q,Q
2023-03-15 13:58:03:279,0,-2.77961,-7.89369,-0.225072,Q,Q
2023-03-15 13:58:03:288,0,-2.71268,-7.91136,-0.187102,Q,Q
2023-03-15 13:58:03:299,0,-2.65153,-7.93421,-0.150038,Q,Q
2023-03-15 13:58:03:308,0,-2.59936,-7.96435,-0.111796,Q,Q
2023-03-15 13:58:03:318,0,-2.55358,-7.99384,-0.0760575,Q,Q
2023-03-15 13:58:03:328,0,-2.51731,-8.02797,-0.0461732,Q,Q
2023-03-15 13:58:03:338,0,-2.49146,-8.06185,-0.0201532,Q,Q
2023-03-15 13:58:03:348,0,-2.46699,-8.10212,0.0014486,Q,Q
2023-03-15 13:58:03:359,0,-2.44435,-8.15769,0.0218363,Q,Q
2023-03-15 13:58:03:368,0,-2.42796,-8.2121,0.0408979,Q,Q
2023-03-15 13:58:03:379,0,-2.4016,-8.26614,0.0593877,Q,Q
2023-03-15 13:58:03:388,0,-2.35882,-8.3214,0.07627,Q,Q
2023-03-15 13:58:03:398,0,-2.31049,-8.38982,0.101976,Q,Q
2023-03-15 13:58:03:408,0,-2.25489,-8.4585,0.130651,Q,Q
2023-03-15 13:58:03:418,0,-2.17841,-8.52995,0.160317,Q,Q
2023-03-15 13:58:03:428,0,-2.09412,-8.60584,0.195733,Q,Q
2023-03-15 13:58:03:438,0,-2.00268,-8.68826,0.231124,Q,Q
2023-03-15 13:58:03:448,0,-1.91637,-8.7737,0.274949,Q,Q
2023-03-15 13:58:03:458,0,-1.82859,-8.85793,0.321042,Q,Q
2023-03-15 13:58:03:468,0,-1.75076,-8.93701,0.368153,Q,Q
2023-03-15 13:58:03:478,0,-1.67507,-9.01229,0.411311,Q,Q
2023-03-15 13:58:03:488,0,-1.6109,-9.08159,0.455375,Q,Q
2023-03-15 13:58:03:499,0,-1.553,-9.13602,0.49101,Q,Q
2023-03-15 13:58:03:509,0,-1.50378,-9.18459,0.520598,Q,Q
2023-03-15 13:58:03:519,0,-1.46085,-9.22398,0.536571,Q,Q
2023-03-15 13:58:03:529,0,-1.4156,-9.25056,0.542713,Q,Q
2023-03-15 13:58:03:539,0,-1.36185,-9.26668,0.536252,Q,Q
2023-03-15 13:58:03:549,0,-1.29637,-9.28019,0.521595,Q,Q
2023-03-15 13:58:03:559,0,-1.21408,-9.29372,0.497338,Q,Q
2023-03-15 13:58:03:569,0,-1.11501,-9.30101,0.463811,Q,Q
2023-03-15 13:58:03:579,0,-0.998043,-9.31024,0.42791,Q,Q
2023-03-15 13:58:03:589,0,-0.870148,-9.32771,0.385471,Q,Q
2023-03-15 13:58:03:599,0,-0.735283,-9.34578,0.344947,Q,Q
2023-03-15 13:58:03:609,0,-0.601179,-9.36982,0.301286,Q,Q
2023-03-15 13:58:03:619,0,-0.46957,-9.40183,0.255534,Q,Q
2023-03-15 13:58:03:629,0,-0.342621,-9.43638,0.207544,Q,Q
2023-03-15 13:58:03:638,0,-0.22402,-9.47154,0.154892,Q,Q
2023-03-15 13:58:03:648,0,-0.110094,-9.50337,0.0983985,Q,Q
2023-03-15 13:58:03:659,0,-0.0063537,-9.52791,0.0407848,Q,Q
2023-03-15 13:58:03:669,0,0.0885185,-9.54685,-0.016106,Q,Q
2023-03-15 13:58:03:678,0,0.178674,-9.56302,-0.0750435,Q,Q
2023-03-15 13:58:03:688,0,0.268279,-9.57519,-0.1352,Q,Q
2023-03-15 13:58:03:698,0,0.360752,-9.58352,-0.19436,Q,Q
2023-03-15 13:58:03:709,0,0.458135,-9.59947,-0.251436,Q,Q
2023-03-15 13:58:03:719,0,0.561956,-9.62188,-0.305954,Q,Q
2023-03-15 13:58:03:728,0,0.673781,-9.64535,-0.352514,Q,Q
2023-03-15 13:58:03:738,0,0.796646,-9.67343,-0.399451,Q,Q
2023-03-15 13:58:03:749,0,0.9278,-9.70632,-0.440984,Q,Q
2023-03-15 13:58:03:758,0,1.06304,-9.74441,-0.474442,Q,Q
2023-03-15 13:58:03:769,0,1.20788,-9.77996,-0.506119,Q,Q
2023-03-15 13:58:03:779,0,1.36192,-9.81597,-0.537452,Q,Q
2023-03-15 13:58:03:789,0,1.52217,-9.84944,-0.556787,Q,Q
2023-03-15 13:58:03:799,0,1.68373,-9.88515,-0.566607,Q,Q
2023-03-15 13:58:03:809,0,1.83453,-9.912,-0.569748,Q,Q
2023-03-15 13:58:03:819,0,1.97975,-9.93664,-0.567328,Q,Q
2023-03-15 13:58:03:829,0,2.10622,-9.95457,-0.557592,Q,Q
2023-03-15 13:58:03:839,0,2.21163,-9.97094,-0.542124,Q,Q
2023-03-15 13:58:03:849,0,2.29572,-9.99067,-0.514785,Q,Q
2023-03-15 13:58:03:859,0,2.35685,-10.0021,-0.482011,Q,Q
2023-03-15 13:58:03:869,0,2.3993,-10.0067,-0.444213,Q,Q
2023-03-15 13:58:03:878,0,2.4262,-10.0055,-0.402691,Q,Q
2023-03-15 13:58:03:888,0,2.43435,-10.0009,-0.357483,Q,Q
2023-03-15 13:58:03:898,0,2.42765,-9.99077,-0.305727,Q,Q
2023-03-15 13:58:03:908,0,2.40279,-9.97058,-0.249612,Q,Q
2023-03-15 13:58:03:918,0,2.36407,-9.93919,-0.190326,Q,Q
2023-03-15 13:58:03:928,0,2.30963,-9.90017,-0.135588,Q,Q
2023-03-15 13:58:03:938,0,2.23823,-9.86296,-0.0817512,Q,Q
2023-03-15 13:58:03:948,0,2.14598,-9.82252,-0.0273758,Q,Q
2023-03-15 13:58:03:958,0,2.03855,-9.77537,0.0197633,Q,Q
2023-03-15 13:58:03:968,0,1.93232,-9.7274,0.0595285,Q,Q
2023-03-15 13:58:03:979,0,1.82606,-9.67271,0.0910338,Q,Q
2023-03-15 13:58:03:989,0,1.72279,-9.61239,0.113085,Q,Q
2023-03-15 13:58:03:998,0,1.61784,-9.55017,0.130582,Q,Q
2023-03-15 13:58:04:9,0,1.50894,-9.49103,0.139947,Q,Q
2023-03-15 13:58:04:18,0,1.39736,-9.42959,0.145428,Q,Q
2023-03-15 13:58:04:29,0,1.28288,-9.36874,0.143872,Q,Q
2023-03-15 13:58:04:38,0,1.1689,-9.31516,0.13337,Q,Q
2023-03-15 13:58:04:49,0,1.05473,-9.26628,0.12014,Q,Q
2023-03-15 13:58:04:58,0,0.944019,-9.21457,0.101628,Q,Q
2023-03-15 13:58:04:69,0,0.84537,-9.1648,0.0753235,Q,Q
2023-03-15 13:58:04:78,0,0.757711,-9.11761,0.0402937,Q,Q
2023-03-15 13:58:04:88,0,0.686712,-9.07143,0.00523906,Q,Q
2023-03-15 13:58:04:98,0,0.631727,-9.03124,-0.0376901,Q,Q
2023-03-15 13:58:04:109,0,0.589585,-8.99064,-0.0835511,Q,Q
2023-03-15 13:58:04:119,0,0.561125,-8.95293,-0.130847,Q,Q
2023-03-15 13:58:04:129,0,0.547933,-8.91704,-0.177488,Q,Q
2023-03-15 13:58:04:139,0,0.545641,-8.89076,-0.222769,Q,Q
2023-03-15 13:58:04:148,0,0.547287,-8.86602,-0.259545,Q,Q
2023-03-15 13:58:04:158,0,0.551825,-8.84442,-0.288759,Q,Q
2023-03-15 13:58:04:168,0,0.559135,-8.82346,-0.310628,Q,Q
2023-03-15 13:58:04:178,0,0.564228,-8.80442,-0.32658,Q,Q
2023-03-15 13:58:04:188,0,0.560027,-8.79162,-0.33011,Q,Q
2023-03-15 13:58:04:198,0,0.544844,-8.78071,-0.322283,Q,Q
2023-03-15 13:58:04:209,0,0.525082,-8.76821,-0.309553,Q,Q
2023-03-15 13:58:04:219,0,0.499208,-8.75304,-0.295314,Q,Q
2023-03-15 13:58:04:229,0,0.47182,-8.73234,-0.281629,Q,Q
2023-03-15 13:58:04:239,0,0.443683,-8.70746,-0.26157,Q,Q
2023-03-15 13:58:04:248,0,0.416207,-8.67948,-0.243815,Q,Q
2023-03-15 13:58:04:258,0,0.386807,-8.65475,-0.219543,Q,Q
2023-03-15 13:58:04:268,0,0.359238,-8.63141,-0.195148,Q,Q
2023-03-15 13:58:04:278,0,0.343561,-8.61273,-0.170383,Q,Q
2023-03-15 13:58:04:288,0,0.334513,-8.58988,-0.148168,Q,Q
2023-03-15 13:58:04:298,0,0.332167,-8.5735,-0.128903,Q,Q
2023-03-15 13:58:04:308,0,0.336336,-8.56891,-0.109967,Q,Q
2023-03-15 13:58:04:319,0,0.34367,-8.56902,-0.0894144,Q,Q
2023-03-15 13:58:04:328,0,0.35303,-8.57132,-0.0695468,Q,Q
2023-03-15 13:58:04:339,0,0.356515,-8.57096,-0.0537739,Q,Q
2023-03-15 13:58:04:348,0,0.358552,-8.56293,-0.0472019,Q,Q
2023-03-15 13:58:04:359,0,0.355562,-8.55235,-0.0440817,Q,Q
2023-03-15 13:58:04:368,0,0.347685,-8.53887,-0.0476942,Q,Q
2023-03-15 13:58:04:378,0,0.333741,-8.51922,-0.0536562,Q,Q
2023-03-15 13:58:04:388,0,0.318458,-8.5003,-0.0635712,Q,Q
2023-03-15 13:58:04:398,0,0.299646,-8.47953,-0.083694,Q,Q
2023-03-15 13:58:04:408,0,0.283038,-8.46028,-0.101566,Q,Q
2023-03-15 13:58:04:418,0,0.265226,-8.44084,-0.126774,Q,Q
2023-03-15 13:58:04:428,0,0.249143,-8.41467,-0.15674,Q,Q
2023-03-15 13:58:04:438,0,0.233788,-8.3875,-0.188683,Q,Q
2023-03-15 13:58:04:448,0,0.219561,-8.36299,-0.225614,Q,Q
2023-03-15 13:58:04:458,0,0.204263,-8.33955,-0.264074,Q,Q
2023-03-15 13:58:04:468,0,0.189046,-8.31963,-0.302082,Q,Q
2023-03-15 13:58:04:478,0,0.178713,-8.30088,-0.341843,Q,Q
2023-03-15 13:58:04:488,0,0.176519,-8.27944,-0.38059,Q,Q
2023-03-15 13:58:04:499,0,0.179641,-8.26262,-0.420331,Q,Q
2023-03-15 13:58:04:508,0,0.186662,-8.24907,-0.46007,Q,Q
2023-03-15 13:58:04:518,0,0.195895,-8.23456,-0.496174,Q,Q
2023-03-15 13:58:04:528,0,0.201812,-8.21947,-0.530667,Q,Q
2023-03-15 13:58:04:538,0,0.209502,-8.20525,-0.565192,Q,Q
2023-03-15 13:58:04:548,0,0.207597,-8.19431,-0.593348,Q,Q
2023-03-15 13:58:04:558,0,0.198225,-8.1902,-0.613592,Q,Q
2023-03-15 13:58:04:568,0,0.178963,-8.19718,-0.629793,Q,Q
2023-03-15 13:58:04:578,0,0.156068,-8.20822,-0.641909,Q,Q
2023-03-15 13:58:04:588,0,0.123281,-8.21637,-0.65235,Q,Q
2023-03-15 13:58:04:599,0,0.0954366,-8.22357,-0.661828,Q,Q
2023-03-15 13:58:04:609,0,0.0716012,-8.22794,-0.669655,Q,Q
2023-03-15 13:58:04:619,0,0.04818,-8.23475,-0.68106,Q,Q
2023-03-15 13:58:04:629,0,0.0202327,-8.24158,-0.690042,Q,Q
2023-03-15 13:58:04:639,0,-0.00538453,-8.24621,-0.703677,Q,Q
2023-03-15 13:58:04:648,0,-0.0299875,-8.24911,-0.718454,Q,Q
2023-03-15 13:58:04:658,0,-0.0542102,-8.24829,-0.735624,Q,Q
2023-03-15 13:58:04:669,0,-0.0744574,-8.25153,-0.75859,Q,Q
2023-03-15 13:58:04:678,0,-0.0918566,-8.24959,-0.789678,Q,Q
2023-03-15 13:58:04:689,0,-0.104784,-8.24447,-0.827228,Q,Q
2023-03-15 13:58:04:698,0,-0.111325,-8.23557,-0.873783,Q,Q
2023-03-15 13:58:04:708,0,-0.118519,-8.22445,-0.921333,Q,Q
2023-03-15 13:58:04:718,0,-0.126617,-8.21103,-0.979221,Q,Q
2023-03-15 13:58:04:729,0,-0.137306,-8.19399,-1.04414,Q,Q
2023-03-15 13:58:04:739,0,-0.149912,-8.17504,-1.11363,Q,Q
2023-03-15 13:58:04:749,0,-0.16453,-8.15543,-1.18674,Q,Q
2023-03-15 13:58:04:759,0,-0.182582,-8.1347,-1.26544,Q,Q
2023-03-15 13:58:04:768,0,-0.201295,-8.11009,-1.34495,Q,Q
2023-03-15 13:58:04:779,0,-0.221139,-8.08401,-1.42525,Q,Q
2023-03-15 13:58:04:789,0,-0.241517,-8.05489,-1.50731,Q,Q
2023-03-15 13:58:04:799,0,-0.257293,-8.01932,-1.59075,Q,Q
2023-03-15 13:58:04:809,0,-0.267802,-7.98618,-1.67877,Q,Q
2023-03-15 13:58:04:819,0,-0.277799,-7.95615,-1.76149,Q,Q
2023-03-15 13:58:04:829,0,-0.284445,-7.92763,-1.84437,Q,Q
2023-03-15 13:58:04:839,0,-0.287184,-7.90045,-1.92884,Q,Q
2023-03-15 13:58:04:849,0,-0.282272,-7.87765,-2.01225,Q,Q
2023-03-15 13:58:04:859,0,-0.273121,-7.85973,-2.09133,Q,Q
2023-03-15 13:58:04:868,0,-0.259227,-7.84648,-2.16272,Q,Q
2023-03-15 13:58:04:878,0,-0.237824,-7.83736,-2.22766,Q,Q
2023-03-15 13:58:04:889,0,-0.216525,-7.83119,-2.28626,Q,Q
2023-03-15 13:58:04:899,0,-0.197673,-7.82683,-2.3413,Q,Q
2023-03-15 13:58:04:908,0,-0.185763,-7.82386,-2.38405,Q,Q
2023-03-15 13:58:04:918,0,-0.179393,-7.8226,-2.42077,Q,Q
2023-03-15 13:58:04:928,0,-0.176357,-7.82343,-2.44475,Q,Q
2023-03-15 13:58:04:938,0,-0.179016,-7.82287,-2.46444,Q,Q
2023-03-15 13:58:04:948,0,-0.181954,-7.82013,-2.4758,Q,Q
2023-03-15 13:58:04:958,0,-0.189014,-7.82104,-2.4815,Q,Q
2023-03-15 13:58:04:968,0,-0.195638,-7.8258,-2.48017,Q,Q
2023-03-15 13:58:04:978,0,-0.203595,-7.83569,-2.46949,Q,Q
2023-03-15 13:58:04:988,0,-0.215128,-7.84511,-2.45149,Q,Q
2023-03-15 13:58:04:998,0,-0.223505,-7.85469,-2.42546,Q,Q
2023-03-15 13:58:05:8,0,-0.226208,-7.85404,-2.3952,Q,Q
2023-03-15 13:58:05:18,0,-0.226425,-7.85241,-2.36487,Q,Q
2023-03-15 13:58:05:28,0,-0.221637,-7.85306,-2.32736,Q,Q
2023-03-15 13:58:05:39,0,-0.210934,-7.86184,-2.28841,Q,Q
2023-03-15 13:58:05:49,0,-0.194711,-7.87197,-2.24448,Q,Q
2023-03-15 13:58:05:59,0,-0.175999,-7.88044,-2.19824,Q,Q
2023-03-15 13:58:05:69,0,-0.157256,-7.88328,-2.15513,Q,Q
2023-03-15 13:58:05:78,0,-0.147709,-7.88078,-2.10993,Q,Q
2023-03-15 13:58:05:89,0,-0.135066,-7.86722,-2.06956,Q,Q
2023-03-15 13:58:05:99,0,-0.12166,-7.85255,-2.03399,Q,Q
2023-03-15 13:58:05:109,0,-0.10735,-7.83447,-1.9965,Q,Q
2023-03-15 13:58:05:119,0,-0.0977358,-7.81428,-1.95737,Q,Q
2023-03-15 13:58:05:129,0,-0.0860571,-7.79562,-1.91916,Q,Q
2023-03-15 13:58:05:139,0,-0.0700141,-7.78105,-1.87845,Q,Q
2023-03-15 13:58:05:149,0,-0.0480674,-7.7592,-1.84679,Q,Q
2023-03-15 13:58:05:158,0,-0.0274626,-7.74244,-1.8163,Q,Q
2023-03-15 13:58:05:169,0,-0.000249242,-7.72201,-1.78578,Q,Q
2023-03-15 13:58:05:179,0,0.0289112,-7.70093,-1.76162,Q,Q
2023-03-15 13:58:05:188,0,0.0651868,-7.68671,-1.74283,Q,Q
2023-03-15 13:58:05:198,0,0.103924,-7.67199,-1.72628,Q,Q
2023-03-15 13:58:05:208,0,0.146286,-7.6645,-1.71517,Q,Q
2023-03-15 13:58:05:218,0,0.192365,-7.66212,-1.7069,Q,Q
2023-03-15 13:58:05:228,0,0.23593,-7.66264,-1.70386,Q,Q
2023-03-15 13:58:05:238,0,0.27748,-7.66697,-1.70067,Q,Q
2023-03-15 13:58:05:248,0,0.309775,-7.67884,-1.6993,Q,Q
2023-03-15 13:58:05:258,0,0.332948,-7.68963,-1.70254,Q,Q
2023-03-15 13:58:05:269,0,0.353422,-7.69589,-1.70766,Q,Q
2023-03-15 13:58:05:279,0,0.365991,-7.70687,-1.71528,Q,Q
2023-03-15 13:58:05:289,0,0.375177,-7.7212,-1.7203,Q,Q
2023-03-15 13:58:05:299,0,0.377929,-7.73738,-1.72404,Q,Q
2023-03-15 13:58:05:309,0,0.380452,-7.7588,-1.72593,Q,Q
2023-03-15 13:58:05:319,0,0.382856,-7.78342,-1.72841,Q,Q
2023-03-15 13:58:05:329,0,0.383177,-7.81234,-1.73135,Q,Q
2023-03-15 13:58:05:339,0,0.381865,-7.83164,-1.73075,Q,Q
2023-03-15 13:58:05:349,0,0.38991,-7.84573,-1.73072,Q,Q
2023-03-15 13:58:05:358,0,0.404117,-7.86037,-1.72991,Q,Q
2023-03-15 13:58:05:368,0,0.417735,-7.87338,-1.72465,Q,Q
2023-03-15 13:58:05:379,0,0.431327,-7.88556,-1.7192,Q,Q
2023-03-15 13:58:05:389,0,0.449311,-7.89581,-1.71182,Q,Q
2023-03-15 13:58:05:399,0,0.469021,-7.90536,-1.71069,Q,Q
2023-03-15 13:58:05:408,0,0.493576,-7.91349,-1.70835,Q,Q
2023-03-15 13:58:05:418,0,0.520041,-7.91931,-1.70988,Q,Q
2023-03-15 13:58:05:428,0,0.547239,-7.91612,-1.71802,Q,Q
2023-03-15 13:58:05:439,0,0.575295,-7.90989,-1.72548,Q,Q
2023-03-15 13:58:05:448,0,0.596074,-7.90377,-1.73452,Q,Q
2023-03-15 13:58:05:458,0,0.612269,-7.89906,-1.74623,Q,Q
2023-03-15 13:58:05:468,0,0.625046,-7.89073,-1.75909,Q,Q
2023-03-15 13:58:05:478,0,0.635455,-7.8822,-1.77568,Q,Q
2023-03-15 13:58:05:488,0,0.642086,-7.87312,-1.79388,Q,Q
2023-03-15 13:58:05:499,0,0.655478,-7.86044,-1.81866,Q,Q
2023-03-15 13:58:05:509,0,0.674063,-7.85127,-1.84362,Q,Q
2023-03-15 13:58:05:519,0,0.697123,-7.8352,-1.87618,Q,Q
2023-03-15 13:58:05:529,0,0.727056,-7.81911,-1.90495,Q,Q
2023-03-15 13:58:05:539,0,0.759354,-7.80953,-1.93934,Q,Q
2023-03-15 13:58:05:549,0,0.795524,-7.80549,-1.97471,Q,Q
2023-03-15 13:58:05:558,0,0.826951,-7.80128,-2.00869,Q,Q
2023-03-15 13:58:05:569,0,0.859685,-7.79929,-2.03911,Q,Q
2023-03-15 13:58:05:579,0,0.890052,-7.79905,-2.06519,Q,Q
2023-03-15 13:58:05:588,0,0.919276,-7.80213,-2.08894,Q,Q
2023-03-15 13:58:05:599,0,0.944624,-7.80859,-2.10779,Q,Q
2023-03-15 13:58:05:609,0,0.965747,-7.80977,-2.12136,Q,Q
2023-03-15 13:58:05:619,0,0.981761,-7.81518,-2.12776,Q,Q
2023-03-15 13:58:05:628,0,0.993167,-7.82498,-2.12355,Q,Q
2023-03-15 13:58:05:639,0,1.00003,-7.82885,-2.11799,Q,Q
2023-03-15 13:58:05:649,0,1.00149,-7.83072,-2.10395,Q,Q
2023-03-15 13:58:05:658,0,0.993953,-7.8346,-2.08445,Q,Q
2023-03-15 13:58:05:669,0,0.983055,-7.84055,-2.06046,Q,Q
2023-03-15 13:58:05:679,0,0.968148,-7.85053,-2.03557,Q,Q
2023-03-15 13:58:05:689,0,0.956607,-7.85521,-2.0086,Q,Q
2023-03-15 13:58:05:699,0,0.954963,-7.85722,-1.98501,Q,Q
2023-03-15 13:58:05:709,0,0.957864,-7.85825,-1.96496,Q,Q
2023-03-15 13:58:05:719,0,0.963345,-7.85867,-1.94615,Q,Q
2023-03-15 13:58:05:729,0,0.970187,-7.86122,-1.93238,Q,Q
2023-03-15 13:58:05:739,0,0.978329,-7.86191,-1.92394,Q,Q
2023-03-15 13:58:05:749,0,0.992722,-7.86236,-1.92135,Q,Q
2023-03-15 13:58:05:759,0,1.01215,-7.86065,-1.92306,Q,Q
2023-03-15 13:58:05:768,0,1.03652,-7.86531,-1.9318,Q,Q
2023-03-15 13:58:05:778,0,1.06397,-7.86822,-1.93762,Q,Q
2023-03-15 13:58:05:788,0,1.08652,-7.86942,-1.9482,Q,Q
2023-03-15 13:58:05:798,0,1.09988,-7.86863,-1.96178,Q,Q
2023-03-15 13:58:05:809,0,1.10687,-7.86544,-1.97491,Q,Q
2023-03-15 13:58:05:819,0,1.10991,-7.85676,-1.99201,Q,Q
2023-03-15 13:58:05:829,0,1.10758,-7.84395,-2.00553,Q,Q
2023-03-15 13:58:05:838,0,1.10214,-7.82619,-2.0207,Q,Q
2023-03-15 13:58:05:849,0,1.09406,-7.80729,-2.03848,Q,Q
2023-03-15 13:58:05:859,0,1.09085,-7.78992,-2.05787,Q,Q
2023-03-15 13:58:05:869,0,1.09009,-7.7669,-2.07927,Q,Q
2023-03-15 13:58:05:878,0,1.09796,-7.74909,-2.10475,Q,Q
2023-03-15 13:58:05:888,0,1.10625,-7.73089,-2.1331,Q,Q
2023-03-15 13:58:05:898,0,1.12084,-7.71834,-2.1622,Q,Q
2023-03-15 13:58:05:908,0,1.12749,-7.70903,-2.18962,Q,Q
2023-03-15 13:58:05:918,0,1.1357,-7.69835,-2.21956,Q,Q
2023-03-15 13:58:05:929,0,1.14113,-7.69121,-2.25116,Q,Q
2023-03-15 13:58:05:939,0,1.14034,-7.68562,-2.27587,Q,Q
2023-03-15 13:58:05:949,0,1.13946,-7.68117,-2.29441,Q,Q
2023-03-15 13:58:05:958,0,1.13134,-7.6821,-2.30694,Q,Q
2023-03-15 13:58:05:969,0,1.12083,-7.6953,-2.31405,Q,Q
2023-03-15 13:58:05:978,0,1.10511,-7.70542,-2.31519,Q,Q
2023-03-15 13:58:05:988,0,1.09317,-7.71575,-2.31428,Q,Q
2023-03-15 13:58:05:998,0,1.08789,-7.73336,-2.30613,Q,Q
2023-03-15 13:58:06:8,0,1.08579,-7.75123,-2.28769,Q,Q
2023-03-15 13:58:06:18,0,1.08447,-7.76938,-2.26203,Q,Q
2023-03-15 13:58:06:28,0,1.08769,-7.79082,-2.23194,Q,Q
2023-03-15 13:58:06:38,0,1.09009,-7.80688,-2.20245,Q,Q
2023-03-15 13:58:06:48,0,1.09549,-7.82521,-2.17088,Q,Q
2023-03-15 13:58:06:59,0,1.10388,-7.83848,-2.14419,Q,Q
2023-03-15 13:58:06:68,0,1.1161,-7.84759,-2.12521,Q,Q
2023-03-15 13:58:06:79,0,1.12929,-7.85435,-2.11227,Q,Q
2023-03-15 13:58:06:89,0,1.14177,-7.86334,-2.1021,Q,Q
2023-03-15 13:58:06:99,0,1.15738,-7.86475,-2.09904,Q,Q
2023-03-15 13:58:06:108,0,1.17487,-7.85658,-2.10291,Q,Q
2023-03-15 13:58:06:119,0,1.19784,-7.84374,-2.11903,Q,Q
2023-03-15 13:58:06:129,0,1.21953,-7.82971,-2.13604,Q,Q
2023-03-15 13:58:06:138,0,1.23017,-7.81776,-2.15642,Q,Q
2023-03-15 13:58:06:148,0,1.23185,-7.80566,-2.17718,Q,Q
2023-03-15 13:58:06:158,0,1.23434,-7.79203,-2.20145,Q,Q
2023-03-15 13:58:06:168,0,1.22752,-7.77602,-2.22748,Q,Q
2023-03-15 13:58:06:179,0,1.21832,-7.75996,-2.24767,Q,Q
2023-03-15 13:58:06:188,0,1.20412,-7.73846,-2.26953,Q,Q
2023-03-15 13:58:06:198,0,1.18674,-7.72223,-2.2902,Q,Q
2023-03-15 13:58:06:208,0,1.16886,-7.70703,-2.30394,Q,Q
2023-03-15 13:58:06:219,0,1.15247,-7.69571,-2.31778,Q,Q
2023-03-15 13:58:06:228,0,1.13307,-7.68888,-2.3292,Q,Q
2023-03-15 13:58:06:238,0,1.11511,-7.6824,-2.33787,Q,Q
2023-03-15 13:58:06:248,0,1.09746,-7.68113,-2.34406,Q,Q
2023-03-15 13:58:06:258,0,1.08403,-7.67987,-2.35005,Q,Q
2023-03-15 13:58:06:268,0,1.07381,-7.68197,-2.35315,Q,Q
2023-03-15 13:58:06:279,0,1.06752,-7.68458,-2.3558,Q,Q
2023-03-15 13:58:06:289,0,1.06888,-7.69365,-2.3523,Q,Q
2023-03-15 13:58:06:299,0,1.07086,-7.70411,-2.35397,Q,Q
2023-03-15 13:58:06:308,0,1.07024,-7.71755,-2.34947,Q,Q
2023-03-15 13:58:06:319,0,1.07643,-7.72854,-2.34348,Q,Q
2023-03-15 13:58:06:329,0,1.08806,-7.7433,-2.33501,Q,Q
2023-03-15 13:58:06:339,0,1.10152,-7.76213,-2.32659,Q,Q
2023-03-15 13:58:06:348,0,1.1088,-7.77664,-2.31802,Q,Q
2023-03-15 13:58:06:358,0,1.11414,-7.79005,-2.30461,Q,Q
2023-03-15 13:58:06:368,0,1.11728,-7.80022,-2.29037,Q,Q
2023-03-15 13:58:06:379,0,1.11549,-7.80815,-2.2777,Q,Q
2023-03-15 13:58:06:388,0,1.11718,-7.81125,-2.26064,Q,Q
2023-03-15 13:58:06:398,0,1.11705,-7.81223,-2.24873,Q,Q
2023-03-15 13:58:06:408,0,1.11081,-7.80325,-2.23661,Q,Q
2023-03-15 13:58:06:418,0,1.10587,-7.79397,-2.22784,Q,Q
2023-03-15 13:58:06:428,0,1.10497,-7.7799,-2.22698,Q,Q
2023-03-15 13:58:06:438,0,1.10299,-7.76491,-2.22856,Q,Q
2023-03-15 13:58:06:448,0,1.09696,-7.74285,-2.24153,Q,Q
2023-03-15 13:58:06:458,0,1.09406,-7.72497,-2.2586,Q,Q
2023-03-15 13:58:06:468,0,1.09186,-7.70631,-2.27904,Q,Q
2023-03-15 13:58:06:478,0,1.08902,-7.68952,-2.30559,Q,Q
