Timestamp_cmd,imu_cmd,roll_delta,pitch_delta,yaw_delta,voice_type,voice_length
2023-03-15 15:42:06:256,0,-4.48133,-1.17692,-35.3784,Q,Q
2023-03-15 15:42:06:263,0,-4.492,-1.17765,-35.3885,Q,Q
2023-03-15 15:42:06:273,0,-4.50386,-1.17359,-35.4008,Q,Q
2023-03-15 15:42:06:283,0,-4.51385,-1.16807,-35.4163,Q,Q
2023-03-15 15:42:06:293,0,-4.52134,-1.1603,-35.434,Q,Q
2023-03-15 15:42:06:303,0,-4.52493,-1.15531,-35.4555,Q,Q
2023-03-15 15:42:06:313,0,-4.53124,-1.15217,-35.4781,Q,Q
2023-03-15 15:42:06:323,0,-4.53499,-1.15061,-35.4963,Q,Q
2023-03-15 15:42:06:333,0,-4.53934,-1.14595,-35.5197,Q,Q
2023-03-15 15:42:06:343,0,-4.5476,-1.13814,-35.5423,Q,Q
2023-03-15 15:42:06:353,0,-4.55299,-1.13205,-35.5704,Q,Q
2023-03-15 15:42:06:363,0,-4.55937,-1.12814,-35.5935,Q,Q
2023-03-15 15:42:06:374,0,-4.56213,-1.12832,-35.6166,Q,Q
2023-03-15 15:42:06:383,0,-4.56327,-1.12863,-35.6331,Q,Q
2023-03-15 15:42:06:394,0,-4.564,-1.13676,-35.6482,Q,Q
2023-03-15 15:42:06:404,0,-4.5625,-1.13968,-35.6615,Q,Q
2023-03-15 15:42:06:414,0,-4.56017,-1.14128,-35.6737,Q,Q
2023-03-15 15:42:06:424,0,-4.55476,-1.13833,-35.6828,Q,Q
2023-03-15 15:42:06:433,0,-4.55257,-1.13622,-35.6913,Q,Q
2023-03-15 15:42:06:444,0,-4.55291,-1.13446,-35.6958,Q,Q
2023-03-15 15:42:06:454,0,-4.55017,-1.13652,-35.701,Q,Q
2023-03-15 15:42:06:464,0,-4.54503,-1.1392,-35.7056,Q,Q
2023-03-15 15:42:06:474,0,-4.53872,-1.13984,-35.714,Q,Q
2023-03-15 15:42:06:484,0,-4.52974,-1.13902,-35.7284,Q,Q
2023-03-15 15:42:06:494,0,-4.52179,-1.13707,-35.7451,Q,Q
2023-03-15 15:42:06:504,0,-4.51405,-1.1373,-35.7647,Q,Q
2023-03-15 15:42:06:514,0,-4.51279,-1.1353,-35.7885,Q,Q
2023-03-15 15:42:06:524,0,-4.5138,-1.13051,-35.8172,Q,Q
2023-03-15 15:42:06:533,0,-4.51441,-1.12502,-35.8435,Q,Q
2023-03-15 15:42:06:544,0,-4.50791,-1.12113,-35.8699,Q,Q
2023-03-15 15:42:06:554,0,-4.50051,-1.11511,-35.8996,Q,Q
2023-03-15 15:42:06:564,0,-4.49208,-1.1107,-35.9309,Q,Q
2023-03-15 15:42:06:574,0,-4.48258,-1.10908,-35.9672,Q,Q
2023-03-15 15:42:06:584,0,-4.47103,-1.10734,-36.0082,Q,Q
2023-03-15 15:42:06:594,0,-4.45957,-1.10644,-36.0455,Q,Q
2023-03-15 15:42:06:604,0,-4.44595,-1.10214,-36.082,Q,Q
2023-03-15 15:42:06:614,0,-4.43683,-1.09986,-36.1221,Q,Q
2023-03-15 15:42:06:624,0,-4.42457,-1.0976,-36.1613,Q,Q
2023-03-15 15:42:06:633,0,-4.41715,-1.09727,-36.1962,Q,Q
2023-03-15 15:42:06:643,0,-4.41001,-1.09687,-36.2328,Q,Q
2023-03-15 15:42:06:653,0,-4.40189,-1.09787,-36.2657,Q,Q
2023-03-15 15:42:06:663,0,-4.39402,-1.0978,-36.2937,Q,Q
2023-03-15 15:42:06:674,0,-4.38879,-1.09672,-36.3218,Q,Q
2023-03-15 15:42:06:683,0,-4.38214,-1.0855,-36.3411,Q,Q
2023-03-15 15:42:06:693,0,-4.36941,-1.07343,-36.3596,Q,Q
2023-03-15 15:42:06:703,0,-4.36304,-1.06476,-36.3732,Q,Q
2023-03-15 15:42:06:714,0,-4.359,-1.05518,-36.3819,Q,Q
2023-03-15 15:42:06:723,0,-4.35786,-1.05059,-36.3889,Q,Q
2023-03-15 15:42:06:733,0,-4.35563,-1.04652,-36.3902,Q,Q
2023-03-15 15:42:06:743,0,-4.35608,-1.04043,-36.3957,Q,Q
2023-03-15 15:42:06:753,0,-4.35858,-1.03065,-36.3964,Q,Q
2023-03-15 15:42:06:763,0,-4.36289,-1.02113,-36.3937,Q,Q
2023-03-15 15:42:06:773,0,-4.36776,-1.01517,-36.3936,Q,Q
2023-03-15 15:42:06:783,0,-4.37382,-1.01428,-36.3901,Q,Q
2023-03-15 15:42:06:793,0,-4.38322,-1.01435,-36.3919,Q,Q
2023-03-15 15:42:06:803,0,-4.38789,-1.01628,-36.3929,Q,Q
2023-03-15 15:42:06:813,0,-4.38732,-1.0195,-36.3946,Q,Q
2023-03-15 15:42:06:823,0,-4.38987,-1.02279,-36.3935,Q,Q
2023-03-15 15:42:06:833,0,-4.39503,-1.02424,-36.3916,Q,Q
2023-03-15 15:42:06:843,0,-4.39519,-1.02342,-36.3854,Q,Q
2023-03-15 15:42:06:853,0,-4.38962,-1.02288,-36.3843,Q,Q
2023-03-15 15:42:06:863,0,-4.38389,-1.02486,-36.3815,Q,Q
2023-03-15 15:42:06:873,0,-4.37644,-1.02376,-36.3781,Q,Q
2023-03-15 15:42:06:883,0,-4.36965,-1.02422,-36.3736,Q,Q
2023-03-15 15:42:06:893,0,-4.36493,-1.02493,-36.3722,Q,Q
2023-03-15 15:42:06:903,0,-4.35727,-1.02897,-36.3779,Q,Q
2023-03-15 15:42:06:913,0,-4.35062,-1.0329,-36.3827,Q,Q
2023-03-15 15:42:06:923,0,-4.34776,-1.03406,-36.3917,Q,Q
2023-03-15 15:42:06:933,0,-4.34224,-1.03647,-36.4044,Q,Q
2023-03-15 15:42:06:943,0,-4.33704,-1.03959,-36.4193,Q,Q
2023-03-15 15:42:06:953,0,-4.33001,-1.04334,-36.4339,Q,Q
2023-03-15 15:42:06:963,0,-4.32116,-1.04496,-36.4455,Q,Q
2023-03-15 15:42:06:973,0,-4.31504,-1.04529,-36.4619,Q,Q
2023-03-15 15:42:06:983,0,-4.30897,-1.04262,-36.4766,Q,Q
2023-03-15 15:42:06:993,0,-4.3076,-1.03687,-36.489,Q,Q
2023-03-15 15:42:07:3,0,-4.3092,-1.02912,-36.498,Q,Q
2023-03-15 15:42:07:13,0,-4.3124,-1.01979,-36.5071,Q,Q
2023-03-15 15:42:07:23,0,-4.31854,-1.01339,-36.518,Q,Q
2023-03-15 15:42:07:33,0,-4.32635,-1.00627,-36.5304,Q,Q
2023-03-15 15:42:07:43,0,-4.33383,-0.999875,-36.5469,Q,Q
2023-03-15 15:42:07:53,0,-4.3423,-0.991946,-36.5599,Q,Q
2023-03-15 15:42:07:63,0,-4.35168,-0.989628,-36.575,Q,Q
2023-03-15 15:42:07:73,0,-4.36006,-0.984772,-36.591,Q,Q
2023-03-15 15:42:07:83,0,-4.36613,-0.980101,-36.6089,Q,Q
2023-03-15 15:42:07:93,0,-4.37452,-0.975826,-36.6267,Q,Q
2023-03-15 15:42:07:103,0,-4.3779,-0.97422,-36.645,Q,Q
2023-03-15 15:42:07:113,0,-4.38272,-0.971077,-36.6671,Q,Q
2023-03-15 15:42:07:123,0,-4.38771,-0.967583,-36.6828,Q,Q
2023-03-15 15:42:07:133,0,-4.39154,-0.960773,-36.6955,Q,Q
2023-03-15 15:42:07:143,0,-4.39628,-0.958102,-36.7041,Q,Q
2023-03-15 15:42:07:153,0,-4.40172,-0.955741,-36.7141,Q,Q
2023-03-15 15:42:07:163,0,-4.40424,-0.956476,-36.7236,Q,Q
2023-03-15 15:42:07:173,0,-4.40505,-0.954483,-36.7294,Q,Q
2023-03-15 15:42:07:183,0,-4.39991,-0.951001,-36.7366,Q,Q
2023-03-15 15:42:07:193,0,-4.40206,-0.949937,-36.7413,Q,Q
2023-03-15 15:42:07:203,0,-4.39928,-0.951347,-36.7436,Q,Q
2023-03-15 15:42:07:213,0,-4.40034,-0.95246,-36.7439,Q,Q
2023-03-15 15:42:07:223,0,-4.40378,-0.958125,-36.742,Q,Q
2023-03-15 15:42:07:233,0,-4.40467,-0.961835,-36.7446,Q,Q
2023-03-15 15:42:07:243,0,-4.4133,-0.95739,-36.7466,Q,Q
2023-03-15 15:42:07:253,0,-4.42902,-0.95467,-36.7537,Q,Q
2023-03-15 15:42:07:263,0,-4.44147,-0.953619,-36.7593,Q,Q
2023-03-15 15:42:07:273,0,-4.44971,-0.952255,-36.7657,Q,Q
2023-03-15 15:42:07:283,0,-4.45117,-0.958646,-36.7721,Q,Q
2023-03-15 15:42:07:293,0,-4.44612,-0.968029,-36.7767,Q,Q
2023-03-15 15:42:07:303,0,-4.4382,-0.977229,-36.7812,Q,Q
2023-03-15 15:42:07:313,0,-4.4268,-0.986216,-36.7879,Q,Q
2023-03-15 15:42:07:323,0,-4.42064,-0.992093,-36.7948,Q,Q
2023-03-15 15:42:07:333,0,-4.41526,-0.998211,-36.7987,Q,Q
2023-03-15 15:42:07:343,0,-4.4157,-1.00135,-36.7957,Q,Q
2023-03-15 15:42:07:353,0,-4.42141,-1.00111,-36.7869,Q,Q
2023-03-15 15:42:07:363,0,-4.42649,-0.999494,-36.7781,Q,Q
2023-03-15 15:42:07:373,0,-4.42892,-0.994324,-36.7625,Q,Q
2023-03-15 15:42:07:383,0,-4.43276,-0.986562,-36.7509,Q,Q
2023-03-15 15:42:07:393,0,-4.43465,-0.97547,-36.7344,Q,Q
2023-03-15 15:42:07:403,0,-4.44077,-0.959063,-36.7085,Q,Q
2023-03-15 15:42:07:413,0,-4.44939,-0.936348,-36.6751,Q,Q
2023-03-15 15:42:07:423,0,-4.46591,-0.912859,-36.64,Q,Q
2023-03-15 15:42:07:433,0,-4.48365,-0.890348,-36.6042,Q,Q
2023-03-15 15:42:07:443,0,-4.4984,-0.870148,-36.5666,Q,Q
2023-03-15 15:42:07:453,0,-4.51384,-0.85046,-36.5354,Q,Q
2023-03-15 15:42:07:463,0,-4.52562,-0.832094,-36.5086,Q,Q
2023-03-15 15:42:07:473,0,-4.53628,-0.817824,-36.4903,Q,Q
2023-03-15 15:42:07:483,0,-4.54211,-0.80131,-36.479,Q,Q
2023-03-15 15:42:07:493,0,-4.54935,-0.785489,-36.4692,Q,Q
2023-03-15 15:42:07:503,0,-4.56226,-0.766036,-36.4608,Q,Q
2023-03-15 15:42:07:513,0,-4.57864,-0.751046,-36.4546,Q,Q
2023-03-15 15:42:07:523,0,-4.59216,-0.736958,-36.4536,Q,Q
2023-03-15 15:42:07:533,0,-4.60384,-0.730503,-36.4538,Q,Q
2023-03-15 15:42:07:543,0,-4.61091,-0.729055,-36.4585,Q,Q
2023-03-15 15:42:07:553,0,-4.61512,-0.732085,-36.4683,Q,Q
2023-03-15 15:42:07:563,0,-4.61865,-0.732455,-36.4786,Q,Q
2023-03-15 15:42:07:573,0,-4.61528,-0.734165,-36.4946,Q,Q
2023-03-15 15:42:07:583,0,-4.61097,-0.736142,-36.5136,Q,Q
2023-03-15 15:42:07:593,0,-4.60837,-0.737099,-36.5349,Q,Q
2023-03-15 15:42:07:603,0,-4.61137,-0.736693,-36.5643,Q,Q
2023-03-15 15:42:07:613,0,-4.6096,-0.732654,-36.5923,Q,Q
2023-03-15 15:42:07:623,0,-4.60548,-0.72858,-36.623,Q,Q
2023-03-15 15:42:07:633,0,-4.60511,-0.726538,-36.6556,Q,Q
2023-03-15 15:42:07:643,0,-4.60347,-0.721723,-36.6866,Q,Q
2023-03-15 15:42:07:653,0,-4.60976,-0.720804,-36.7162,Q,Q
2023-03-15 15:42:07:663,0,-4.61727,-0.724607,-36.7466,Q,Q
2023-03-15 15:42:07:673,0,-4.62271,-0.728051,-36.7764,Q,Q
2023-03-15 15:42:07:683,0,-4.62932,-0.729831,-36.8037,Q,Q
2023-03-15 15:42:07:693,0,-4.6349,-0.732931,-36.8289,Q,Q
2023-03-15 15:42:07:703,0,-4.64088,-0.738748,-36.8507,Q,Q
2023-03-15 15:42:07:713,0,-4.64607,-0.743628,-36.8705,Q,Q
2023-03-15 15:42:07:723,0,-4.65355,-0.74629,-36.8907,Q,Q
2023-03-15 15:42:07:733,0,-4.65794,-0.749649,-36.9096,Q,Q
2023-03-15 15:42:07:743,0,-4.66195,-0.751087,-36.9285,Q,Q
2023-03-15 15:42:07:753,0,-4.66769,-0.753275,-36.9458,Q,Q
2023-03-15 15:42:07:763,0,-4.67321,-0.757121,-36.9643,Q,Q
2023-03-15 15:42:07:773,0,-4.68075,-0.755163,-36.9847,Q,Q
2023-03-15 15:42:07:783,0,-4.68781,-0.753016,-37.0018,Q,Q
2023-03-15 15:42:07:793,0,-4.69838,-0.746506,-37.024,Q,Q
2023-03-15 15:42:07:803,0,-4.70701,-0.737563,-37.0389,Q,Q
2023-03-15 15:42:07:813,0,-4.70893,-0.729028,-37.0576,Q,Q
2023-03-15 15:42:07:823,0,-4.70997,-0.71721,-37.0691,Q,Q
2023-03-15 15:42:07:833,0,-4.7125,-0.708275,-37.079,Q,Q
2023-03-15 15:42:07:843,0,-4.71242,-0.699673,-37.094,Q,Q
2023-03-15 15:42:07:853,0,-4.70992,-0.692915,-37.1097,Q,Q
2023-03-15 15:42:07:863,0,-4.70884,-0.684726,-37.1227,Q,Q
2023-03-15 15:42:07:874,0,-4.70991,-0.67488,-37.1333,Q,Q
2023-03-15 15:42:07:883,0,-4.71819,-0.669339,-37.1406,Q,Q
2023-03-15 15:42:07:893,0,-4.72294,-0.663992,-37.1464,Q,Q
2023-03-15 15:42:07:903,0,-4.72654,-0.655642,-37.1524,Q,Q
2023-03-15 15:42:07:913,0,-4.73121,-0.650927,-37.1569,Q,Q
2023-03-15 15:42:07:924,0,-4.73132,-0.64472,-37.1655,Q,Q
2023-03-15 15:42:07:933,0,-4.72726,-0.641986,-37.1697,Q,Q
2023-03-15 15:42:07:943,0,-4.7184,-0.636774,-37.1729,Q,Q
2023-03-15 15:42:07:953,0,-4.70918,-0.634685,-37.1745,Q,Q
2023-03-15 15:42:07:963,0,-4.70114,-0.636272,-37.1755,Q,Q
2023-03-15 15:42:07:973,0,-4.69225,-0.639302,-37.1796,Q,Q
2023-03-15 15:42:07:983,0,-4.68592,-0.648015,-37.1878,Q,Q
2023-03-15 15:42:07:994,0,-4.68136,-0.651601,-37.1947,Q,Q
2023-03-15 15:42:08:4,0,-4.68239,-0.654828,-37.2021,Q,Q
2023-03-15 15:42:08:14,0,-4.68603,-0.664942,-37.2126,Q,Q
2023-03-15 15:42:08:24,0,-4.68675,-0.674612,-37.2274,Q,Q
2023-03-15 15:42:08:34,0,-4.68505,-0.682867,-37.2426,Q,Q
2023-03-15 15:42:08:43,0,-4.68872,-0.684457,-37.2594,Q,Q
2023-03-15 15:42:08:54,0,-4.68976,-0.684846,-37.2734,Q,Q
2023-03-15 15:42:08:63,0,-4.69192,-0.680869,-37.2874,Q,Q
2023-03-15 15:42:08:73,0,-4.69332,-0.673203,-37.3009,Q,Q
2023-03-15 15:42:08:83,0,-4.69458,-0.667034,-37.3162,Q,Q
2023-03-15 15:42:08:93,0,-4.69298,-0.658855,-37.3284,Q,Q
2023-03-15 15:42:08:103,0,-4.69309,-0.652916,-37.34,Q,Q
2023-03-15 15:42:08:114,0,-4.69676,-0.642429,-37.3505,Q,Q
2023-03-15 15:42:08:123,0,-4.70021,-0.633577,-37.3646,Q,Q
2023-03-15 15:42:08:134,0,-4.69837,-0.630673,-37.3767,Q,Q
2023-03-15 15:42:08:143,0,-4.69375,-0.632303,-37.3902,Q,Q
2023-03-15 15:42:08:154,0,-4.68904,-0.635183,-37.4011,Q,Q
2023-03-15 15:42:08:163,0,-4.68421,-0.63906,-37.4119,Q,Q
2023-03-15 15:42:08:174,0,-4.67901,-0.645995,-37.4242,Q,Q
2023-03-15 15:42:08:183,0,-4.67383,-0.649154,-37.4303,Q,Q
2023-03-15 15:42:08:193,0,-4.67618,-0.649976,-37.44,Q,Q
2023-03-15 15:42:08:203,0,-4.67757,-0.646335,-37.4499,Q,Q
2023-03-15 15:42:08:213,0,-4.68115,-0.639493,-37.4577,Q,Q
2023-03-15 15:42:08:223,0,-4.68922,-0.63313,-37.46,Q,Q
2023-03-15 15:42:08:233,0,-4.69651,-0.627969,-37.4608,Q,Q
2023-03-15 15:42:08:243,0,-4.7024,-0.619886,-37.4633,Q,Q
2023-03-15 15:42:08:253,0,-4.71077,-0.61861,-37.4694,Q,Q
2023-03-15 15:42:08:263,0,-4.72173,-0.607027,-37.4781,Q,Q
2023-03-15 15:42:08:273,0,-4.73531,-0.602786,-37.4871,Q,Q
2023-03-15 15:42:08:283,0,-4.75312,-0.601436,-37.4985,Q,Q
2023-03-15 15:42:08:293,0,-4.7716,-0.59793,-37.5118,Q,Q
2023-03-15 15:42:08:303,0,-4.79516,-0.597769,-37.5256,Q,Q
2023-03-15 15:42:08:313,0,-4.81687,-0.596502,-37.5389,Q,Q
2023-03-15 15:42:08:323,0,-4.84291,-0.589923,-37.5566,Q,Q
2023-03-15 15:42:08:333,0,-4.87083,-0.580864,-37.5814,Q,Q
2023-03-15 15:42:08:343,0,-4.90495,-0.56525,-37.6073,Q,Q
2023-03-15 15:42:08:353,0,-4.93943,-0.548722,-37.6345,Q,Q
2023-03-15 15:42:08:363,0,-4.97435,-0.529768,-37.6632,Q,Q
2023-03-15 15:42:08:373,0,-5.00869,-0.512379,-37.6921,Q,Q
2023-03-15 15:42:08:383,0,-5.03877,-0.498245,-37.7217,Q,Q
2023-03-15 15:42:08:394,0,-5.07004,-0.484639,-37.7505,Q,Q
2023-03-15 15:42:08:403,0,-5.09501,-0.470425,-37.7793,Q,Q
2023-03-15 15:42:08:413,0,-5.11116,-0.458964,-37.8038,Q,Q
2023-03-15 15:42:08:423,0,-5.12562,-0.451406,-37.8283,Q,Q
2023-03-15 15:42:08:433,0,-5.14279,-0.448167,-37.85,Q,Q
2023-03-15 15:42:08:443,0,-5.1582,-0.439514,-37.8704,Q,Q
2023-03-15 15:42:08:454,0,-5.16907,-0.430898,-37.8903,Q,Q
2023-03-15 15:42:08:463,0,-5.1789,-0.422946,-37.9081,Q,Q
2023-03-15 15:42:08:473,0,-5.1836,-0.408923,-37.9234,Q,Q
2023-03-15 15:42:08:483,0,-5.18315,-0.389833,-37.9381,Q,Q
2023-03-15 15:42:08:493,0,-5.17929,-0.379903,-37.9491,Q,Q
2023-03-15 15:42:08:503,0,-5.17516,-0.366402,-37.956,Q,Q
2023-03-15 15:42:08:514,0,-5.16922,-0.358471,-37.9599,Q,Q
2023-03-15 15:42:08:523,0,-5.16178,-0.350842,-37.9637,Q,Q
2023-03-15 15:42:08:533,0,-5.15575,-0.344427,-37.9701,Q,Q
2023-03-15 15:42:08:543,0,-5.1538,-0.33872,-37.9766,Q,Q
2023-03-15 15:42:08:554,0,-5.15838,-0.33297,-37.9822,Q,Q
2023-03-15 15:42:08:563,0,-5.16237,-0.329066,-37.9891,Q,Q
2023-03-15 15:42:08:573,0,-5.16085,-0.331213,-37.9954,Q,Q
2023-03-15 15:42:08:583,0,-5.1575,-0.331448,-38.0005,Q,Q
2023-03-15 15:42:08:593,0,-5.14685,-0.331031,-38.0066,Q,Q
2023-03-15 15:42:08:603,0,-5.13417,-0.331371,-38.0063,Q,Q
2023-03-15 15:42:08:613,0,-5.11705,-0.332351,-37.9989,Q,Q
2023-03-15 15:42:08:623,0,-5.10047,-0.33002,-37.9905,Q,Q
2023-03-15 15:42:08:633,0,-5.0865,-0.331555,-37.9821,Q,Q
2023-03-15 15:42:08:643,0,-5.07261,-0.332813,-37.9716,Q,Q
2023-03-15 15:42:08:653,0,-5.0597,-0.330309,-37.9641,Q,Q
2023-03-15 15:42:08:663,0,-5.04855,-0.329546,-37.9584,Q,Q
2023-03-15 15:42:08:673,0,-5.03399,-0.328328,-37.9526,Q,Q
2023-03-15 15:42:08:683,0,-5.02303,-0.327321,-37.9484,Q,Q
2023-03-15 15:42:08:693,0,-5.013,-0.327402,-37.9443,Q,Q
2023-03-15 15:42:08:703,0,-5.00378,-0.327651,-37.9442,Q,Q
2023-03-15 15:42:08:713,0,-4.99573,-0.330207,-37.9467,Q,Q
2023-03-15 15:42:08:723,0,-4.99198,-0.330643,-37.9501,Q,Q
2023-03-15 15:42:08:733,0,-4.98989,-0.332113,-37.9527,Q,Q
2023-03-15 15:42:08:743,0,-4.98956,-0.335615,-37.9556,Q,Q
2023-03-15 15:42:08:753,0,-4.98984,-0.335766,-37.96,Q,Q
2023-03-15 15:42:08:763,0,-4.99231,-0.337913,-37.9627,Q,Q
2023-03-15 15:42:08:773,0,-4.99196,-0.339626,-37.9637,Q,Q
2023-03-15 15:42:08:783,0,-4.99389,-0.337849,-37.9612,Q,Q
2023-03-15 15:42:08:793,0,-4.99339,-0.333367,-37.9575,Q,Q
2023-03-15 15:42:08:803,0,-4.98904,-0.327741,-37.9499,Q,Q
2023-03-15 15:42:08:813,0,-4.98947,-0.322757,-37.9471,Q,Q
2023-03-15 15:42:08:823,0,-4.98859,-0.31733,-37.9433,Q,Q
2023-03-15 15:42:08:833,0,-4.99428,-0.314366,-37.9398,Q,Q
2023-03-15 15:42:08:843,0,-5.00028,-0.313586,-37.9444,Q,Q
2023-03-15 15:42:08:853,0,-5.00417,-0.307815,-37.9493,Q,Q
2023-03-15 15:42:08:863,0,-5.00973,-0.305172,-37.9585,Q,Q
2023-03-15 15:42:08:873,0,-5.01582,-0.303324,-37.9728,Q,Q
2023-03-15 15:42:08:883,0,-5.02488,-0.304016,-37.9916,Q,Q
2023-03-15 15:42:08:893,0,-5.03296,-0.298952,-38.0112,Q,Q
2023-03-15 15:42:08:903,0,-5.03942,-0.298028,-38.0374,Q,Q
2023-03-15 15:42:08:914,0,-5.04744,-0.292595,-38.0644,Q,Q
2023-03-15 15:42:08:923,0,-5.05421,-0.285909,-38.0912,Q,Q
2023-03-15 15:42:08:934,0,-5.05879,-0.278901,-38.1248,Q,Q
2023-03-15 15:42:08:943,0,-5.06349,-0.271972,-38.1568,Q,Q
2023-03-15 15:42:08:954,0,-5.06526,-0.267493,-38.1869,Q,Q
2023-03-15 15:42:08:963,0,-5.06526,-0.262268,-38.216,Q,Q
2023-03-15 15:42:08:973,0,-5.07045,-0.260622,-38.2413,Q,Q
2023-03-15 15:42:08:983,0,-5.06973,-0.258295,-38.2658,Q,Q
2023-03-15 15:42:08:993,0,-5.07028,-0.25265,-38.2893,Q,Q
2023-03-15 15:42:09:3,0,-5.07517,-0.251067,-38.3087,Q,Q
2023-03-15 15:42:09:13,0,-5.07995,-0.249276,-38.3264,Q,Q
2023-03-15 15:42:09:23,0,-5.08295,-0.247336,-38.3421,Q,Q
2023-03-15 15:42:09:33,0,-5.08261,-0.2447,-38.3561,Q,Q
2023-03-15 15:42:09:43,0,-5.08611,-0.241273,-38.3701,Q,Q
2023-03-15 15:42:09:54,0,-5.08759,-0.235379,-38.3881,Q,Q
2023-03-15 15:42:09:63,0,-5.09346,-0.229261,-38.4012,Q,Q
2023-03-15 15:42:09:74,0,-5.09857,-0.225189,-38.4173,Q,Q
2023-03-15 15:42:09:83,0,-5.10818,-0.223045,-38.4314,Q,Q
2023-03-15 15:42:09:93,0,-5.11541,-0.219749,-38.4463,Q,Q
2023-03-15 15:42:09:103,0,-5.12436,-0.215832,-38.4583,Q,Q
2023-03-15 15:42:09:114,0,-5.13002,-0.214105,-38.474,Q,Q
2023-03-15 15:42:09:123,0,-5.13571,-0.210845,-38.4895,Q,Q
2023-03-15 15:42:09:134,0,-5.13694,-0.213041,-38.5033,Q,Q
2023-03-15 15:42:09:143,0,-5.13708,-0.215266,-38.5147,Q,Q
2023-03-15 15:42:09:154,0,-5.13352,-0.216206,-38.5255,Q,Q
2023-03-15 15:42:09:163,0,-5.13284,-0.215753,-38.5381,Q,Q
2023-03-15 15:42:09:174,0,-5.12705,-0.216441,-38.5546,Q,Q
2023-03-15 15:42:09:183,0,-5.11977,-0.215392,-38.5696,Q,Q
2023-03-15 15:42:09:193,0,-5.11384,-0.212808,-38.5864,Q,Q
2023-03-15 15:42:09:203,0,-5.10638,-0.218077,-38.6058,Q,Q
2023-03-15 15:42:09:214,0,-5.09326,-0.220013,-38.6249,Q,Q
2023-03-15 15:42:09:223,0,-5.08193,-0.220898,-38.6405,Q,Q
2023-03-15 15:42:09:233,0,-5.07234,-0.221228,-38.6571,Q,Q
2023-03-15 15:42:09:243,0,-5.06804,-0.219774,-38.671,Q,Q
2023-03-15 15:42:09:253,0,-5.0661,-0.214506,-38.6861,Q,Q
2023-03-15 15:42:09:263,0,-5.0648,-0.209406,-38.7012,Q,Q
2023-03-15 15:42:09:273,0,-5.06641,-0.203879,-38.7133,Q,Q
2023-03-15 15:42:09:283,0,-5.06406,-0.19399,-38.7264,Q,Q
2023-03-15 15:42:09:293,0,-5.05588,-0.175801,-38.7394,Q,Q
2023-03-15 15:42:09:303,0,-5.04832,-0.161525,-38.7524,Q,Q
2023-03-15 15:42:09:313,0,-5.04045,-0.151649,-38.7659,Q,Q
2023-03-15 15:42:09:323,0,-5.03677,-0.147128,-38.7751,Q,Q
2023-03-15 15:42:09:333,0,-5.0337,-0.147296,-38.7861,Q,Q
2023-03-15 15:42:09:343,0,-5.03742,-0.142573,-38.7934,Q,Q
2023-03-15 15:42:09:353,0,-5.04496,-0.140276,-38.7988,Q,Q
2023-03-15 15:42:09:363,0,-5.04993,-0.140851,-38.8099,Q,Q
2023-03-15 15:42:09:373,0,-5.05717,-0.143051,-38.8209,Q,Q
2023-03-15 15:42:09:383,0,-5.06274,-0.148703,-38.8322,Q,Q
2023-03-15 15:42:09:393,0,-5.07104,-0.155978,-38.844,Q,Q
2023-03-15 15:42:09:403,0,-5.07228,-0.15987,-38.8594,Q,Q
2023-03-15 15:42:09:413,0,-5.07476,-0.16255,-38.8736,Q,Q
2023-03-15 15:42:09:423,0,-5.07486,-0.169186,-38.8894,Q,Q
2023-03-15 15:42:09:433,0,-5.07482,-0.173955,-38.8988,Q,Q
2023-03-15 15:42:09:443,0,-5.07533,-0.175523,-38.905,Q,Q
2023-03-15 15:42:09:453,0,-5.07678,-0.17879,-38.9115,Q,Q
2023-03-15 15:42:09:463,0,-5.07823,-0.179621,-38.9191,Q,Q
2023-03-15 15:42:09:473,0,-5.07591,-0.180822,-38.9236,Q,Q
2023-03-15 15:42:09:483,0,-5.08009,-0.17806,-38.93,Q,Q
2023-03-15 15:42:09:493,0,-5.08258,-0.178319,-38.936,Q,Q
2023-03-15 15:42:09:503,0,-5.08257,-0.176526,-38.9359,Q,Q
2023-03-15 15:42:09:513,0,-5.07732,-0.172592,-38.9198,Q,Q
2023-03-15 15:42:09:523,0,-5.06346,-0.16253,-38.8812,Q,Q
2023-03-15 15:42:09:533,0,-5.04513,-0.156069,-38.8138,Q,Q
2023-03-15 15:42:09:543,0,-5.02644,-0.146105,-38.7306,Q,Q
2023-03-15 15:42:09:553,0,-5.01374,-0.12631,-38.6445,Q,Q
2023-03-15 15:42:09:563,0,-5.01152,-0.0993003,-38.5483,Q,Q
2023-03-15 15:42:09:573,0,-5.00819,-0.0647638,-38.4469,Q,Q
2023-03-15 15:42:09:583,0,-5.01489,-0.0340911,-38.3544,Q,Q
2023-03-15 15:42:09:593,0,-5.02567,-0.00855695,-38.2748,Q,Q
2023-03-15 15:42:09:603,0,-5.03486,0.00591024,-38.2045,Q,Q
2023-03-15 15:42:09:613,0,-5.04625,0.00849186,-38.1484,Q,Q
2023-03-15 15:42:09:623,0,-5.05671,0.00227692,-38.1075,Q,Q
2023-03-15 15:42:09:633,0,-5.0641,-0.0155979,-38.0829,Q,Q
2023-03-15 15:42:09:643,0,-5.06441,-0.0366311,-38.0776,Q,Q
2023-03-15 15:42:09:653,0,-5.05904,-0.063743,-38.0872,Q,Q
2023-03-15 15:42:09:663,0,-5.04817,-0.0913141,-38.103,Q,Q
2023-03-15 15:42:09:673,0,-5.0347,-0.11672,-38.1303,Q,Q
2023-03-15 15:42:09:683,0,-5.01945,-0.136562,-38.1596,Q,Q
2023-03-15 15:42:09:693,0,-5.00478,-0.14813,-38.1903,Q,Q
2023-03-15 15:42:09:703,0,-4.99266,-0.157854,-38.2186,Q,Q
2023-03-15 15:42:09:713,0,-4.9766,-0.17053,-38.2443,Q,Q
2023-03-15 15:42:09:723,0,-4.95843,-0.183329,-38.2662,Q,Q
2023-03-15 15:42:09:733,0,-4.94204,-0.193767,-38.2819,Q,Q
2023-03-15 15:42:09:743,0,-4.9236,-0.203018,-38.2937,Q,Q
2023-03-15 15:42:09:753,0,-4.90893,-0.207511,-38.306,Q,Q
2023-03-15 15:42:09:763,0,-4.89875,-0.207919,-38.3132,Q,Q
2023-03-15 15:42:09:773,0,-4.89037,-0.205539,-38.3178,Q,Q
2023-03-15 15:42:09:783,0,-4.88482,-0.19844,-38.324,Q,Q
2023-03-15 15:42:09:793,0,-4.88324,-0.192206,-38.3282,Q,Q
2023-03-15 15:42:09:803,0,-4.88588,-0.189593,-38.3337,Q,Q
2023-03-15 15:42:09:813,0,-4.89406,-0.18559,-38.3441,Q,Q
2023-03-15 15:42:09:823,0,-4.90122,-0.183888,-38.3576,Q,Q
2023-03-15 15:42:09:833,0,-4.9076,-0.182514,-38.377,Q,Q
2023-03-15 15:42:09:843,0,-4.91466,-0.186704,-38.3972,Q,Q
2023-03-15 15:42:09:853,0,-4.92531,-0.183975,-38.4207,Q,Q
2023-03-15 15:42:09:863,0,-4.94024,-0.186905,-38.442,Q,Q
2023-03-15 15:42:09:873,0,-4.95593,-0.187778,-38.4643,Q,Q
2023-03-15 15:42:09:883,0,-4.97374,-0.186081,-38.4911,Q,Q
2023-03-15 15:42:09:893,0,-4.99159,-0.184445,-38.517,Q,Q
2023-03-15 15:42:09:903,0,-5.00919,-0.179119,-38.5422,Q,Q
2023-03-15 15:42:09:913,0,-5.02546,-0.175072,-38.5668,Q,Q
2023-03-15 15:42:09:923,0,-5.03515,-0.167737,-38.5889,Q,Q
2023-03-15 15:42:09:933,0,-5.03991,-0.1596,-38.611,Q,Q
2023-03-15 15:42:09:943,0,-5.04321,-0.157669,-38.6307,Q,Q
2023-03-15 15:42:09:953,0,-5.04712,-0.152915,-38.6485,Q,Q
2023-03-15 15:42:09:963,0,-5.04896,-0.141861,-38.6665,Q,Q
2023-03-15 15:42:09:973,0,-5.05187,-0.132204,-38.6824,Q,Q
2023-03-15 15:42:09:983,0,-5.05367,-0.127061,-38.6953,Q,Q
2023-03-15 15:42:09:993,0,-5.05737,-0.12398,-38.7072,Q,Q
2023-03-15 15:42:10:3,0,-5.06112,-0.122565,-38.718,Q,Q
2023-03-15 15:42:10:13,0,-5.06453,-0.119322,-38.7309,Q,Q
2023-03-15 15:42:10:23,0,-5.07031,-0.11558,-38.7423,Q,Q
2023-03-15 15:42:10:33,0,-5.06918,-0.114492,-38.7512,Q,Q
2023-03-15 15:42:10:43,0,-5.06977,-0.111314,-38.7566,Q,Q
2023-03-15 15:42:10:53,0,-5.06764,-0.107961,-38.7654,Q,Q
2023-03-15 15:42:10:63,0,-5.06417,-0.108075,-38.77,Q,Q
2023-03-15 15:42:10:73,0,-5.06391,-0.10522,-38.7718,Q,Q
2023-03-15 15:42:10:83,0,-5.06851,-0.107476,-38.7761,Q,Q
2023-03-15 15:42:10:93,0,-5.06506,-0.10346,-38.7799,Q,Q
2023-03-15 15:42:10:103,0,-5.06489,-0.10282,-38.7795,Q,Q
2023-03-15 15:42:10:113,0,-5.07128,-0.103796,-38.7793,Q,Q
2023-03-15 15:42:10:123,0,-5.07712,-0.107053,-38.7788,Q,Q
2023-03-15 15:42:10:133,0,-5.08668,-0.110303,-38.7756,Q,Q
2023-03-15 15:42:10:143,0,-5.09369,-0.11457,-38.7726,Q,Q
2023-03-15 15:42:10:153,0,-5.1051,-0.121562,-38.7661,Q,Q
2023-03-15 15:42:10:163,0,-5.10526,-0.125224,-38.7548,Q,Q
2023-03-15 15:42:10:173,0,-5.10802,-0.131126,-38.744,Q,Q
2023-03-15 15:42:10:183,0,-5.1074,-0.131901,-38.7288,Q,Q
2023-03-15 15:42:10:193,0,-5.10593,-0.130929,-38.7137,Q,Q
2023-03-15 15:42:10:203,0,-5.09746,-0.134304,-38.6946,Q,Q
2023-03-15 15:42:10:213,0,-5.09282,-0.132379,-38.6727,Q,Q
2023-03-15 15:42:10:223,0,-5.09301,-0.129452,-38.6521,Q,Q
2023-03-15 15:42:10:233,0,-5.09173,-0.12612,-38.6326,Q,Q
2023-03-15 15:42:10:243,0,-5.09416,-0.126322,-38.6208,Q,Q
2023-03-15 15:42:10:253,0,-5.09942,-0.126203,-38.6108,Q,Q
2023-03-15 15:42:10:263,0,-5.10591,-0.128801,-38.6075,Q,Q
2023-03-15 15:42:10:273,0,-5.10915,-0.130526,-38.6076,Q,Q
2023-03-15 15:42:10:283,0,-5.11684,-0.132305,-38.6124,Q,Q
2023-03-15 15:42:10:293,0,-5.12024,-0.136111,-38.6185,Q,Q
2023-03-15 15:42:10:303,0,-5.12634,-0.137415,-38.6287,Q,Q
2023-03-15 15:42:10:313,0,-5.13209,-0.137092,-38.6379,Q,Q
2023-03-15 15:42:10:323,0,-5.13642,-0.134231,-38.6474,Q,Q
2023-03-15 15:42:10:333,0,-5.14087,-0.134315,-38.657,Q,Q
2023-03-15 15:42:10:343,0,-5.14142,-0.128307,-38.6658,Q,Q
2023-03-15 15:42:10:353,0,-5.14402,-0.123392,-38.6689,Q,Q
2023-03-15 15:42:10:363,0,-5.14378,-0.121479,-38.6733,Q,Q
2023-03-15 15:42:10:373,0,-5.13949,-0.118968,-38.677,Q,Q
2023-03-15 15:42:10:383,0,-5.13795,-0.119461,-38.6795,Q,Q
2023-03-15 15:42:10:393,0,-5.13387,-0.118558,-38.681,Q,Q
2023-03-15 15:42:10:403,0,-5.13168,-0.115296,-38.6812,Q,Q
2023-03-15 15:42:10:413,0,-5.12857,-0.110095,-38.6861,Q,Q
2023-03-15 15:42:10:423,0,-5.12423,-0.105758,-38.6883,Q,Q
2023-03-15 15:42:10:433,0,-5.12683,-0.101731,-38.6923,Q,Q
2023-03-15 15:42:10:443,0,-5.12614,-0.0959831,-38.6936,Q,Q
2023-03-15 15:42:10:453,0,-5.11876,-0.0900878,-38.6933,Q,Q
2023-03-15 15:42:10:463,0,-5.11303,-0.0884845,-38.6978,Q,Q
2023-03-15 15:42:10:473,0,-5.10547,-0.081676,-38.7054,Q,Q
2023-03-15 15:42:10:483,0,-5.0953,-0.0734146,-38.7141,Q,Q
2023-03-15 15:42:10:493,0,-5.08838,-0.0632931,-38.7213,Q,Q
2023-03-15 15:42:10:503,0,-5.08121,-0.0530059,-38.7265,Q,Q
2023-03-15 15:42:10:513,0,-5.07692,-0.0458623,-38.7295,Q,Q
2023-03-15 15:42:10:523,0,-5.07551,-0.0429346,-38.7314,Q,Q
2023-03-15 15:42:10:533,0,-5.07397,-0.0450777,-38.7313,Q,Q
2023-03-15 15:42:10:543,0,-5.07313,-0.0454357,-38.7304,Q,Q
2023-03-15 15:42:10:554,0,-5.07075,-0.045457,-38.7313,Q,Q
2023-03-15 15:42:10:563,0,-5.06949,-0.0434311,-38.733,Q,Q
2023-03-15 15:42:10:574,0,-5.06618,-0.0400024,-38.7303,Q,Q
2023-03-15 15:42:10:583,0,-5.05936,-0.0326202,-38.7241,Q,Q
2023-03-15 15:42:10:593,0,-5.05399,-0.0277381,-38.7178,Q,Q
2023-03-15 15:42:10:603,0,-5.04942,-0.0238349,-38.708,Q,Q
2023-03-15 15:42:10:613,0,-5.04869,-0.0200964,-38.7014,Q,Q
2023-03-15 15:42:10:623,0,-5.05045,-0.0165945,-38.6948,Q,Q
2023-03-15 15:42:10:633,0,-5.0521,-0.0157928,-38.6878,Q,Q
2023-03-15 15:42:10:643,0,-5.05661,-0.0115429,-38.6835,Q,Q
2023-03-15 15:42:10:654,0,-5.0624,-0.016082,-38.6783,Q,Q
2023-03-15 15:42:10:663,0,-5.06831,-0.0216195,-38.6786,Q,Q
2023-03-15 15:42:10:673,0,-5.07186,-0.0289406,-38.677,Q,Q
2023-03-15 15:42:10:683,0,-5.07409,-0.0381444,-38.6758,Q,Q
2023-03-15 15:42:10:693,0,-5.07724,-0.0466988,-38.6753,Q,Q
2023-03-15 15:42:10:703,0,-5.07828,-0.0513296,-38.6781,Q,Q
2023-03-15 15:42:10:713,0,-5.08002,-0.0570642,-38.6787,Q,Q
2023-03-15 15:42:10:723,0,-5.07906,-0.062393,-38.6762,Q,Q
2023-03-15 15:42:10:733,0,-5.07364,-0.0672002,-38.6755,Q,Q
2023-03-15 15:42:10:743,0,-5.06573,-0.0716577,-38.6766,Q,Q
2023-03-15 15:42:10:753,0,-5.05768,-0.0714492,-38.6775,Q,Q
2023-03-15 15:42:10:763,0,-5.05106,-0.0704422,-38.6752,Q,Q
2023-03-15 15:42:10:773,0,-5.04354,-0.0693546,-38.6735,Q,Q
2023-03-15 15:42:10:783,0,-5.03838,-0.0733531,-38.6717,Q,Q
2023-03-15 15:42:10:793,0,-5.03053,-0.0750221,-38.6702,Q,Q
2023-03-15 15:42:10:803,0,-5.02696,-0.0742898,-38.6699,Q,Q
2023-03-15 15:42:10:813,0,-5.02464,-0.0722347,-38.6747,Q,Q
2023-03-15 15:42:10:823,0,-5.02091,-0.0625583,-38.6752,Q,Q
2023-03-15 15:42:10:833,0,-5.01748,-0.051574,-38.6793,Q,Q
2023-03-15 15:42:10:843,0,-5.01373,-0.0400335,-38.6805,Q,Q
2023-03-15 15:42:10:853,0,-5.01124,-0.0295197,-38.6764,Q,Q
2023-03-15 15:42:10:863,0,-5.00867,-0.0142902,-38.6714,Q,Q
2023-03-15 15:42:10:873,0,-5.00864,-0.00303464,-38.6706,Q,Q
2023-03-15 15:42:10:883,0,-5.00687,0.0112847,-38.664,Q,Q
2023-03-15 15:42:10:893,0,-5.00726,0.0206633,-38.6567,Q,Q
2023-03-15 15:42:10:903,0,-5.00947,0.0297349,-38.6482,Q,Q
2023-03-15 15:42:10:913,0,-5.01362,0.0370215,-38.6431,Q,Q
2023-03-15 15:42:10:923,0,-5.021,0.0441482,-38.632,Q,Q
2023-03-15 15:42:10:933,0,-5.02832,0.0475111,-38.6226,Q,Q
2023-03-15 15:42:10:943,0,-5.03552,0.0494754,-38.6123,Q,Q
2023-03-15 15:42:10:953,0,-5.04415,0.054946,-38.6033,Q,Q
2023-03-15 15:42:10:963,0,-5.0464,0.0574644,-38.5916,Q,Q
2023-03-15 15:42:10:973,0,-5.04714,0.0579882,-38.5776,Q,Q
2023-03-15 15:42:10:983,0,-5.04578,0.0608285,-38.5632,Q,Q
2023-03-15 15:42:10:993,0,-5.04076,0.0618101,-38.5472,Q,Q
2023-03-15 15:42:11:3,0,-5.03247,0.0617514,-38.5278,Q,Q
2023-03-15 15:42:11:14,0,-5.02103,0.055952,-38.508,Q,Q
2023-03-15 15:42:11:24,0,-5.00938,0.0581701,-38.4909,Q,Q
2023-03-15 15:42:11:34,0,-5.00034,0.0572528,-38.4738,Q,Q
2023-03-15 15:42:11:43,0,-4.99109,0.0534336,-38.4583,Q,Q
2023-03-15 15:42:11:53,0,-4.98167,0.0495219,-38.4468,Q,Q
2023-03-15 15:42:11:63,0,-4.97113,0.0436292,-38.434,Q,Q
2023-03-15 15:42:11:73,0,-4.95907,0.0389818,-38.4232,Q,Q
2023-03-15 15:42:11:83,0,-4.94467,0.033999,-38.4158,Q,Q
2023-03-15 15:42:11:93,0,-4.92662,0.0293558,-38.4115,Q,Q
2023-03-15 15:42:11:103,0,-4.91039,0.025192,-38.4051,Q,Q
2023-03-15 15:42:11:113,0,-4.89531,0.0241179,-38.4044,Q,Q
2023-03-15 15:42:11:123,0,-4.88041,0.0205789,-38.4056,Q,Q
2023-03-15 15:42:11:133,0,-4.87106,0.0152682,-38.401,Q,Q
2023-03-15 15:42:11:143,0,-4.86476,0.0134266,-38.3974,Q,Q
2023-03-15 15:42:11:154,0,-4.86555,0.00740528,-38.3933,Q,Q
2023-03-15 15:42:11:163,0,-4.87402,0.00376845,-38.3883,Q,Q
2023-03-15 15:42:11:173,0,-4.88371,-0.000983436,-38.3877,Q,Q
2023-03-15 15:42:11:183,0,-4.88867,-0.00732217,-38.388,Q,Q
2023-03-15 15:42:11:193,0,-4.89284,-0.0115281,-38.3882,Q,Q
2023-03-15 15:42:11:203,0,-4.89197,-0.018385,-38.3906,Q,Q
2023-03-15 15:42:11:213,0,-4.88697,-0.0265574,-38.3914,Q,Q
2023-03-15 15:42:11:223,0,-4.88631,-0.0384042,-38.393,Q,Q
2023-03-15 15:42:11:233,0,-4.88775,-0.0491924,-38.3962,Q,Q
2023-03-15 15:42:11:243,0,-4.89361,-0.0608027,-38.3949,Q,Q
2023-03-15 15:42:11:253,0,-4.89944,-0.0754643,-38.3971,Q,Q
2023-03-15 15:42:11:263,0,-4.91041,-0.0878783,-38.3956,Q,Q
2023-03-15 15:42:11:274,0,-4.91793,-0.101445,-38.3991,Q,Q
2023-03-15 15:42:11:283,0,-4.92165,-0.113183,-38.4011,Q,Q
2023-03-15 15:42:11:294,0,-4.91949,-0.123863,-38.405,Q,Q
2023-03-15 15:42:11:303,0,-4.91352,-0.129506,-38.4107,Q,Q
2023-03-15 15:42:11:314,0,-4.90618,-0.128602,-38.419,Q,Q
2023-03-15 15:42:11:323,0,-4.89466,-0.121957,-38.4264,Q,Q
2023-03-15 15:42:11:334,0,-4.88449,-0.116896,-38.4317,Q,Q
2023-03-15 15:42:11:343,0,-4.87882,-0.117305,-38.4402,Q,Q
2023-03-15 15:42:11:354,0,-4.8741,-0.123106,-38.4476,Q,Q
2023-03-15 15:42:11:363,0,-4.8767,-0.13087,-38.455,Q,Q
2023-03-15 15:42:11:374,0,-4.88005,-0.13466,-38.4617,Q,Q
2023-03-15 15:42:11:383,0,-4.88982,-0.139587,-38.4721,Q,Q
2023-03-15 15:42:11:393,0,-4.90093,-0.143053,-38.4851,Q,Q
2023-03-15 15:42:11:403,0,-4.90458,-0.144723,-38.4954,Q,Q
2023-03-15 15:42:11:413,0,-4.91134,-0.146123,-38.505,Q,Q
2023-03-15 15:42:11:423,0,-4.91246,-0.149044,-38.5077,Q,Q
2023-03-15 15:42:11:433,0,-4.90979,-0.154732,-38.5122,Q,Q
2023-03-15 15:42:11:443,0,-4.91058,-0.162079,-38.5136,Q,Q
2023-03-15 15:42:11:454,0,-4.91491,-0.167759,-38.5161,Q,Q
2023-03-15 15:42:11:463,0,-4.92036,-0.167458,-38.5175,Q,Q
2023-03-15 15:42:11:474,0,-4.92703,-0.167534,-38.5152,Q,Q
2023-03-15 15:42:11:483,0,-4.93667,-0.170261,-38.5129,Q,Q
2023-03-15 15:42:11:493,0,-4.94761,-0.176398,-38.5115,Q,Q
2023-03-15 15:42:11:503,0,-4.95441,-0.186173,-38.5068,Q,Q
2023-03-15 15:42:11:514,0,-4.9559,-0.197415,-38.5037,Q,Q
2023-03-15 15:42:11:524,0,-4.95603,-0.207769,-38.5023,Q,Q
2023-03-15 15:42:11:533,0,-4.9556,-0.218201,-38.5014,Q,Q
2023-03-15 15:42:11:543,0,-4.95232,-0.223848,-38.503,Q,Q
2023-03-15 15:42:11:553,0,-4.9546,-0.232536,-38.503,Q,Q
2023-03-15 15:42:11:563,0,-4.95881,-0.240627,-38.5048,Q,Q
2023-03-15 15:42:11:574,0,-4.96425,-0.245246,-38.5071,Q,Q
2023-03-15 15:42:11:583,0,-4.97224,-0.248993,-38.5078,Q,Q
2023-03-15 15:42:11:593,0,-4.97682,-0.249198,-38.5164,Q,Q
2023-03-15 15:42:11:603,0,-4.97819,-0.24753,-38.5227,Q,Q
2023-03-15 15:42:11:613,0,-4.9737,-0.246652,-38.529,Q,Q
2023-03-15 15:42:11:623,0,-4.97081,-0.242033,-38.5361,Q,Q
2023-03-15 15:42:11:633,0,-4.96419,-0.238658,-38.5445,Q,Q
2023-03-15 15:42:11:643,0,-4.96176,-0.23183,-38.5539,Q,Q
2023-03-15 15:42:11:653,0,-4.95818,-0.224989,-38.5647,Q,Q
2023-03-15 15:42:11:663,0,-4.95596,-0.215181,-38.5755,Q,Q
2023-03-15 15:42:11:673,0,-4.95382,-0.208123,-38.5891,Q,Q
2023-03-15 15:42:11:683,0,-4.95189,-0.198081,-38.5985,Q,Q
2023-03-15 15:42:11:693,0,-4.95544,-0.187356,-38.6076,Q,Q
2023-03-15 15:42:11:703,0,-4.95696,-0.176759,-38.6199,Q,Q
2023-03-15 15:42:11:713,0,-4.96239,-0.166426,-38.6328,Q,Q
2023-03-15 15:42:11:723,0,-4.96516,-0.157163,-38.6445,Q,Q
2023-03-15 15:42:11:734,0,-4.96521,-0.146991,-38.6552,Q,Q
2023-03-15 15:42:11:743,0,-4.96771,-0.139,-38.6694,Q,Q
2023-03-15 15:42:11:753,0,-4.9669,-0.129992,-38.685,Q,Q
2023-03-15 15:42:11:763,0,-4.96391,-0.121567,-38.6976,Q,Q
2023-03-15 15:42:11:774,0,-4.96319,-0.11162,-38.7071,Q,Q
2023-03-15 15:42:11:783,0,-4.95885,-0.105046,-38.7159,Q,Q
2023-03-15 15:42:11:794,0,-4.95785,-0.101951,-38.7224,Q,Q
2023-03-15 15:42:11:803,0,-4.95452,-0.10065,-38.7246,Q,Q
2023-03-15 15:42:11:813,0,-4.95063,-0.099218,-38.7254,Q,Q
2023-03-15 15:42:11:823,0,-4.94549,-0.0926453,-38.7254,Q,Q
2023-03-15 15:42:11:834,0,-4.93988,-0.0896424,-38.7223,Q,Q
2023-03-15 15:42:11:843,0,-4.93509,-0.0853812,-38.7184,Q,Q
2023-03-15 15:42:11:853,0,-4.92823,-0.083121,-38.7112,Q,Q
2023-03-15 15:42:11:863,0,-4.9227,-0.0786209,-38.7076,Q,Q
2023-03-15 15:42:11:874,0,-4.91466,-0.0763399,-38.7022,Q,Q
2023-03-15 15:42:11:883,0,-4.90725,-0.072255,-38.697,Q,Q
2023-03-15 15:42:11:893,0,-4.89994,-0.0687133,-38.693,Q,Q
2023-03-15 15:42:11:903,0,-4.89252,-0.0631406,-38.6892,Q,Q
2023-03-15 15:42:11:913,0,-4.88994,-0.06215,-38.6871,Q,Q
2023-03-15 15:42:11:923,0,-4.88614,-0.0561844,-38.6914,Q,Q
2023-03-15 15:42:11:934,0,-4.88156,-0.0516634,-38.6948,Q,Q
2023-03-15 15:42:11:943,0,-4.88318,-0.0495614,-38.6951,Q,Q
2023-03-15 15:42:11:953,0,-4.88745,-0.0485728,-38.6976,Q,Q
2023-03-15 15:42:11:963,0,-4.89044,-0.0504332,-38.702,Q,Q
2023-03-15 15:42:11:974,0,-4.89556,-0.0503927,-38.7065,Q,Q
2023-03-15 15:42:11:983,0,-4.89937,-0.0511658,-38.7099,Q,Q
2023-03-15 15:42:11:993,0,-4.90038,-0.053828,-38.7113,Q,Q
2023-03-15 15:42:12:3,0,-4.90072,-0.0546878,-38.7126,Q,Q
2023-03-15 15:42:12:14,0,-4.89953,-0.0549554,-38.7093,Q,Q
2023-03-15 15:42:12:23,0,-4.89577,-0.0517224,-38.7045,Q,Q
2023-03-15 15:42:12:34,0,-4.89397,-0.0464395,-38.7001,Q,Q
2023-03-15 15:42:12:43,0,-4.89083,-0.0471928,-38.6949,Q,Q
2023-03-15 15:42:12:53,0,-4.88896,-0.0432777,-38.6892,Q,Q
2023-03-15 15:42:12:64,0,-4.88503,-0.0387161,-38.6858,Q,Q
2023-03-15 15:42:12:73,0,-4.88353,-0.0339665,-38.6835,Q,Q
2023-03-15 15:42:12:83,0,-4.88595,-0.0316126,-38.6808,Q,Q
2023-03-15 15:42:12:93,0,-4.88697,-0.0269831,-38.6763,Q,Q
2023-03-15 15:42:12:103,0,-4.88801,-0.0243005,-38.6756,Q,Q
2023-03-15 15:42:12:114,0,-4.88819,-0.0211199,-38.6743,Q,Q
2023-03-15 15:42:12:123,0,-4.88697,-0.0207573,-38.6737,Q,Q
2023-03-15 15:42:12:134,0,-4.88372,-0.0190891,-38.6746,Q,Q
2023-03-15 15:42:12:143,0,-4.87971,-0.0184719,-38.674,Q,Q
2023-03-15 15:42:12:153,0,-4.87487,-0.0139218,-38.6765,Q,Q
2023-03-15 15:42:12:163,0,-4.86494,-0.0145349,-38.6821,Q,Q
2023-03-15 15:42:12:174,0,-4.85249,-0.0114889,-38.6874,Q,Q
2023-03-15 15:42:12:183,0,-4.84385,-0.00597239,-38.6963,Q,Q
2023-03-15 15:42:12:193,0,-4.83273,-0.00122912,-38.7052,Q,Q
2023-03-15 15:42:12:203,0,-4.82241,0.00189708,-38.7149,Q,Q
2023-03-15 15:42:12:214,0,-4.81215,0.00312825,-38.7278,Q,Q
2023-03-15 15:42:12:224,0,-4.79998,0.00104522,-38.7417,Q,Q
2023-03-15 15:42:12:234,0,-4.78878,-0.00544645,-38.7576,Q,Q
2023-03-15 15:42:12:243,0,-4.78417,-0.0108578,-38.7766,Q,Q
2023-03-15 15:42:12:253,0,-4.78052,-0.0155919,-38.7951,Q,Q
2023-03-15 15:42:12:263,0,-4.77908,-0.0217535,-38.8091,Q,Q
2023-03-15 15:42:12:274,0,-4.77937,-0.0272676,-38.8195,Q,Q
2023-03-15 15:42:12:283,0,-4.78543,-0.0294768,-38.8302,Q,Q
2023-03-15 15:42:12:293,0,-4.79628,-0.0334764,-38.8394,Q,Q
2023-03-15 15:42:12:303,0,-4.81393,-0.0362038,-38.8447,Q,Q
2023-03-15 15:42:12:314,0,-4.83404,-0.0360154,-38.8515,Q,Q
2023-03-15 15:42:12:323,0,-4.8553,-0.03354,-38.8537,Q,Q
2023-03-15 15:42:12:334,0,-4.87958,-0.0294504,-38.8587,Q,Q
2023-03-15 15:42:12:343,0,-4.90757,-0.022751,-38.8629,Q,Q
2023-03-15 15:42:12:353,0,-4.93923,-0.0160559,-38.8652,Q,Q
2023-03-15 15:42:12:364,0,-4.96939,-0.00575648,-38.8716,Q,Q
2023-03-15 15:42:12:374,0,-5.00274,0.0041519,-38.8784,Q,Q
2023-03-15 15:42:12:383,0,-5.03403,0.0124367,-38.8846,Q,Q
2023-03-15 15:42:12:394,0,-5.05799,0.0139549,-38.8955,Q,Q
2023-03-15 15:42:12:403,0,-5.08308,0.0103584,-38.9035,Q,Q
2023-03-15 15:42:12:414,0,-5.10673,0.00479265,-38.9126,Q,Q
2023-03-15 15:42:12:423,0,-5.12413,0.000723691,-38.9221,Q,Q
2023-03-15 15:42:12:434,0,-5.14392,-0.00712069,-38.9328,Q,Q
2023-03-15 15:42:12:444,0,-5.16226,-0.00980778,-38.9434,Q,Q
2023-03-15 15:42:12:454,0,-5.18145,-0.0162152,-38.954,Q,Q
2023-03-15 15:42:12:463,0,-5.19532,-0.0225597,-38.9605,Q,Q
2023-03-15 15:42:12:473,0,-5.20814,-0.0296728,-38.9675,Q,Q
2023-03-15 15:42:12:483,0,-5.22347,-0.040034,-38.9709,Q,Q
2023-03-15 15:42:12:494,0,-5.23189,-0.0450719,-38.9795,Q,Q
2023-03-15 15:42:12:503,0,-5.23939,-0.0511824,-38.9868,Q,Q
2023-03-15 15:42:12:514,0,-5.2463,-0.0559063,-38.9968,Q,Q
2023-03-15 15:42:12:523,0,-5.2529,-0.055432,-39.0064,Q,Q
2023-03-15 15:42:12:533,0,-5.25941,-0.0591811,-39.0168,Q,Q
2023-03-15 15:42:12:543,0,-5.26292,-0.0629002,-39.0226,Q,Q
2023-03-15 15:42:12:553,0,-5.26986,-0.0677046,-39.0289,Q,Q
2023-03-15 15:42:12:563,0,-5.28119,-0.0715744,-39.0312,Q,Q
2023-03-15 15:42:12:573,0,-5.29451,-0.0759164,-39.0325,Q,Q
2023-03-15 15:42:12:583,0,-5.30901,-0.0797534,-39.0368,Q,Q
2023-03-15 15:42:12:593,0,-5.32341,-0.0820861,-39.0358,Q,Q
2023-03-15 15:42:12:603,0,-5.33552,-0.0864303,-39.038,Q,Q
2023-03-15 15:42:12:614,0,-5.34319,-0.0850832,-39.0439,Q,Q
2023-03-15 15:42:12:623,0,-5.3505,-0.0842757,-39.0449,Q,Q
2023-03-15 15:42:12:634,0,-5.34929,-0.0839388,-39.0451,Q,Q
2023-03-15 15:42:12:643,0,-5.35053,-0.082307,-39.0425,Q,Q
2023-03-15 15:42:12:653,0,-5.34897,-0.0757967,-39.0421,Q,Q
2023-03-15 15:42:12:663,0,-5.34683,-0.0711137,-39.0432,Q,Q
2023-03-15 15:42:12:673,0,-5.34752,-0.0670059,-39.0393,Q,Q
2023-03-15 15:42:12:683,0,-5.34828,-0.060426,-39.037,Q,Q
2023-03-15 15:42:12:694,0,-5.35219,-0.0582159,-39.0304,Q,Q
2023-03-15 15:42:12:703,0,-5.35676,-0.050618,-39.0245,Q,Q
2023-03-15 15:42:12:714,0,-5.36134,-0.0474556,-39.022,Q,Q
2023-03-15 15:42:12:723,0,-5.35838,-0.0441827,-39.0202,Q,Q
2023-03-15 15:42:12:734,0,-5.35632,-0.0384767,-39.0136,Q,Q
2023-03-15 15:42:12:743,0,-5.35522,-0.0348437,-39.0107,Q,Q
2023-03-15 15:42:12:753,0,-5.35108,-0.0300419,-39.0059,Q,Q
2023-03-15 15:42:12:764,0,-5.34922,-0.0228374,-39.0017,Q,Q
2023-03-15 15:42:12:774,0,-5.34983,-0.0177212,-39.0,Q,Q
2023-03-15 15:42:12:783,0,-5.35601,-0.00976716,-39.0018,Q,Q
2023-03-15 15:42:12:793,0,-5.35921,-0.00442784,-39.0007,Q,Q
2023-03-15 15:42:12:804,0,-5.36611,0.00382336,-39.0055,Q,Q
2023-03-15 15:42:12:814,0,-5.3733,0.0123255,-39.01,Q,Q
2023-03-15 15:42:12:823,0,-5.37874,0.019808,-39.0092,Q,Q
2023-03-15 15:42:12:834,0,-5.37832,0.0246819,-39.0096,Q,Q
2023-03-15 15:42:12:843,0,-5.37834,0.0283424,-39.0105,Q,Q
2023-03-15 15:42:12:854,0,-5.37584,0.0275952,-39.008,Q,Q
2023-03-15 15:42:12:863,0,-5.37346,0.0280755,-39.0076,Q,Q
2023-03-15 15:42:12:874,0,-5.36862,0.0275048,-39.0102,Q,Q
2023-03-15 15:42:12:883,0,-5.3695,0.0241823,-39.0151,Q,Q
2023-03-15 15:42:12:893,0,-5.37257,0.0225683,-39.0162,Q,Q
2023-03-15 15:42:12:903,0,-5.37543,0.0221824,-39.0199,Q,Q
2023-03-15 15:42:12:914,0,-5.37928,0.0223973,-39.0243,Q,Q
2023-03-15 15:42:12:923,0,-5.38088,0.0227689,-39.0289,Q,Q
2023-03-15 15:42:12:933,0,-5.38159,0.02414,-39.0344,Q,Q
2023-03-15 15:42:12:943,0,-5.38489,0.0246159,-39.0379,Q,Q
2023-03-15 15:42:12:953,0,-5.38301,0.0235689,-39.0424,Q,Q
2023-03-15 15:42:12:963,0,-5.38274,0.0238713,-39.0486,Q,Q
2023-03-15 15:42:12:973,0,-5.38318,0.0203029,-39.0521,Q,Q
2023-03-15 15:42:12:983,0,-5.38418,0.0166461,-39.0584,Q,Q
2023-03-15 15:42:12:994,0,-5.38422,0.00909774,-39.0652,Q,Q
2023-03-15 15:42:13:3,0,-5.38327,0.00665375,-39.0708,Q,Q
2023-03-15 15:42:13:13,0,-5.38045,0.0060285,-39.0762,Q,Q
2023-03-15 15:42:13:23,0,-5.37869,0.005646,-39.08,Q,Q
2023-03-15 15:42:13:34,0,-5.37829,0.0146803,-39.0906,Q,Q
2023-03-15 15:42:13:43,0,-5.37729,0.0223857,-39.098,Q,Q
2023-03-15 15:42:13:54,0,-5.37728,0.0239068,-39.1028,Q,Q
2023-03-15 15:42:13:63,0,-5.3753,0.0215729,-39.1043,Q,Q
2023-03-15 15:42:13:73,0,-5.37338,0.0193045,-39.1102,Q,Q
2023-03-15 15:42:13:83,0,-5.37228,0.016453,-39.1184,Q,Q
2023-03-15 15:42:13:93,0,-5.37319,0.0127969,-39.1203,Q,Q
2023-03-15 15:42:13:103,0,-5.37584,0.0155651,-39.1221,Q,Q
2023-03-15 15:42:13:113,0,-5.37922,0.0168077,-39.1203,Q,Q
2023-03-15 15:42:13:123,0,-5.38717,0.017966,-39.1184,Q,Q
2023-03-15 15:42:13:134,0,-5.39651,0.0203643,-39.1104,Q,Q
2023-03-15 15:42:13:143,0,-5.40285,0.0200787,-39.1027,Q,Q
2023-03-15 15:42:13:154,0,-5.41434,0.0235265,-39.0916,Q,Q
2023-03-15 15:42:13:163,0,-5.42605,0.0305719,-39.0876,Q,Q
2023-03-15 15:42:13:173,0,-5.43553,0.0336416,-39.0814,Q,Q
2023-03-15 15:42:13:183,0,-5.44809,0.0372421,-39.0792,Q,Q
2023-03-15 15:42:13:194,0,-5.46057,0.0475245,-39.0814,Q,Q
2023-03-15 15:42:13:203,0,-5.4758,0.054832,-39.0852,Q,Q
2023-03-15 15:42:13:213,0,-5.49105,0.0616628,-39.0928,Q,Q
2023-03-15 15:42:13:223,0,-5.50771,0.0676231,-39.1012,Q,Q
2023-03-15 15:42:13:234,0,-5.52293,0.070158,-39.1126,Q,Q
2023-03-15 15:42:13:243,0,-5.53613,0.0710021,-39.1239,Q,Q
2023-03-15 15:42:13:254,0,-5.55064,0.0700754,-39.1347,Q,Q
2023-03-15 15:42:13:263,0,-5.56036,0.0733127,-39.1469,Q,Q
2023-03-15 15:42:13:273,0,-5.56921,0.0816359,-39.1561,Q,Q
2023-03-15 15:42:13:283,0,-5.57704,0.085463,-39.1636,Q,Q
2023-03-15 15:42:13:293,0,-5.58006,0.0936266,-39.171,Q,Q
2023-03-15 15:42:13:303,0,-5.58158,0.105104,-39.1702,Q,Q
2023-03-15 15:42:13:313,0,-5.58411,0.114233,-39.1692,Q,Q
2023-03-15 15:42:13:323,0,-5.58579,0.122791,-39.1686,Q,Q
2023-03-15 15:42:13:334,0,-5.58082,0.128286,-39.1673,Q,Q
2023-03-15 15:42:13:343,0,-5.57862,0.131238,-39.1685,Q,Q
2023-03-15 15:42:13:354,0,-5.57999,0.133605,-39.1695,Q,Q
2023-03-15 15:42:13:363,0,-5.5818,0.139108,-39.1737,Q,Q
2023-03-15 15:42:13:373,0,-5.58129,0.140382,-39.1807,Q,Q
2023-03-15 15:42:13:383,0,-5.58323,0.146063,-39.1938,Q,Q
2023-03-15 15:42:13:394,0,-5.58964,0.148572,-39.2077,Q,Q
2023-03-15 15:42:13:404,0,-5.5975,0.151698,-39.2217,Q,Q
2023-03-15 15:42:13:414,0,-5.60271,0.15303,-39.2369,Q,Q
2023-03-15 15:42:13:423,0,-5.61336,0.153535,-39.2559,Q,Q
2023-03-15 15:42:13:434,0,-5.62094,0.154585,-39.2726,Q,Q
2023-03-15 15:42:13:443,0,-5.62706,0.157268,-39.2888,Q,Q
2023-03-15 15:42:13:454,0,-5.63148,0.159657,-39.3006,Q,Q
2023-03-15 15:42:13:463,0,-5.6393,0.158761,-39.3125,Q,Q
2023-03-15 15:42:13:474,0,-5.64665,0.161983,-39.3236,Q,Q
2023-03-15 15:42:13:483,0,-5.65611,0.162755,-39.3345,Q,Q
2023-03-15 15:42:13:493,0,-5.66089,0.164773,-39.3418,Q,Q
2023-03-15 15:42:13:504,0,-5.66648,0.164549,-39.3517,Q,Q
2023-03-15 15:42:13:514,0,-5.67304,0.16541,-39.353,Q,Q
2023-03-15 15:42:13:523,0,-5.68465,0.164331,-39.3561,Q,Q
2023-03-15 15:42:13:534,0,-5.69537,0.165521,-39.3624,Q,Q
2023-03-15 15:42:13:543,0,-5.71436,0.166413,-39.3682,Q,Q
2023-03-15 15:42:13:553,0,-5.73542,0.167137,-39.374,Q,Q
2023-03-15 15:42:13:563,0,-5.7465,0.165986,-39.3847,Q,Q
2023-03-15 15:42:13:574,0,-5.75208,0.167004,-39.3949,Q,Q
2023-03-15 15:42:13:583,0,-5.7454,0.168503,-39.4073,Q,Q
2023-03-15 15:42:13:594,0,-5.73789,0.165933,-39.4191,Q,Q
2023-03-15 15:42:13:603,0,-5.72518,0.161326,-39.4283,Q,Q
2023-03-15 15:42:13:614,0,-5.7165,0.157455,-39.4357,Q,Q
2023-03-15 15:42:13:624,0,-5.71037,0.153767,-39.4428,Q,Q
2023-03-15 15:42:13:634,0,-5.70986,0.152965,-39.4515,Q,Q
2023-03-15 15:42:13:643,0,-5.70881,0.152456,-39.4576,Q,Q
2023-03-15 15:42:13:653,0,-5.7054,0.156097,-39.4667,Q,Q
2023-03-15 15:42:13:663,0,-5.70266,0.153624,-39.477,Q,Q
2023-03-15 15:42:13:674,0,-5.69384,0.147672,-39.4965,Q,Q
2023-03-15 15:42:13:683,0,-5.68054,0.143291,-39.5141,Q,Q
2023-03-15 15:42:13:694,0,-5.66982,0.134118,-39.5324,Q,Q
2023-03-15 15:42:13:703,0,-5.65692,0.128409,-39.551,Q,Q
2023-03-15 15:42:13:714,0,-5.64845,0.11671,-39.5703,Q,Q
2023-03-15 15:42:13:723,0,-5.64965,0.105482,-39.5874,Q,Q
2023-03-15 15:42:13:734,0,-5.65632,0.0967803,-39.6048,Q,Q
2023-03-15 15:42:13:743,0,-5.66637,0.0876598,-39.6237,Q,Q
2023-03-15 15:42:13:753,0,-5.67726,0.0811995,-39.6407,Q,Q
2023-03-15 15:42:13:763,0,-5.6888,0.076751,-39.6555,Q,Q
2023-03-15 15:42:13:774,0,-5.69556,0.0732019,-39.6707,Q,Q
2023-03-15 15:42:13:783,0,-5.70024,0.0703782,-39.6867,Q,Q
2023-03-15 15:42:13:793,0,-5.70185,0.064968,-39.7004,Q,Q
2023-03-15 15:42:13:803,0,-5.6969,0.0598891,-39.7128,Q,Q
2023-03-15 15:42:13:814,0,-5.6926,0.0645055,-39.7173,Q,Q
2023-03-15 15:42:13:823,0,-5.69667,0.0674349,-39.7191,Q,Q
2023-03-15 15:42:13:833,0,-5.70533,0.0761325,-39.723,Q,Q
2023-03-15 15:42:13:843,0,-5.71207,0.0828268,-39.7264,Q,Q
2023-03-15 15:42:13:853,0,-5.71,0.0859777,-39.7278,Q,Q
2023-03-15 15:42:13:863,0,-5.70163,0.0911761,-39.73,Q,Q
2023-03-15 15:42:13:873,0,-5.68408,0.0958631,-39.7247,Q,Q
2023-03-15 15:42:13:883,0,-5.66577,0.101136,-39.7091,Q,Q
2023-03-15 15:42:13:894,0,-5.64596,0.11077,-39.686,Q,Q
2023-03-15 15:42:13:903,0,-5.63377,0.116871,-39.6595,Q,Q
2023-03-15 15:42:13:914,0,-5.61648,0.12437,-39.6323,Q,Q
2023-03-15 15:42:13:923,0,-5.59757,0.132531,-39.6007,Q,Q
2023-03-15 15:42:13:934,0,-5.58101,0.138145,-39.5732,Q,Q
2023-03-15 15:42:13:943,0,-5.56869,0.145803,-39.5431,Q,Q
2023-03-15 15:42:13:953,0,-5.56375,0.148065,-39.5132,Q,Q
2023-03-15 15:42:13:963,0,-5.56268,0.153873,-39.4904,Q,Q
2023-03-15 15:42:13:973,0,-5.56287,0.154003,-39.4731,Q,Q
2023-03-15 15:42:13:983,0,-5.56224,0.154276,-39.457,Q,Q
2023-03-15 15:42:13:993,0,-5.55918,0.149032,-39.4469,Q,Q
2023-03-15 15:42:14:3,0,-5.55694,0.140998,-39.4397,Q,Q
2023-03-15 15:42:14:14,0,-5.56123,0.133157,-39.4428,Q,Q
2023-03-15 15:42:14:23,0,-5.55884,0.122543,-39.444,Q,Q
2023-03-15 15:42:14:34,0,-5.55904,0.110002,-39.4437,Q,Q
2023-03-15 15:42:14:43,0,-5.56014,0.0996424,-39.4456,Q,Q
2023-03-15 15:42:14:54,0,-5.56523,0.0860171,-39.4457,Q,Q
2023-03-15 15:42:14:64,0,-5.5658,0.0734786,-39.4486,Q,Q
2023-03-15 15:42:14:74,0,-5.56431,0.0595211,-39.4486,Q,Q
2023-03-15 15:42:14:83,0,-5.56704,0.0514308,-39.455,Q,Q
2023-03-15 15:42:14:93,0,-5.56934,0.0482384,-39.4636,Q,Q
2023-03-15 15:42:14:103,0,-5.57026,0.0538951,-39.4731,Q,Q
2023-03-15 15:42:14:114,0,-5.56894,0.0575034,-39.4793,Q,Q
2023-03-15 15:42:14:123,0,-5.56453,0.0581945,-39.4854,Q,Q
2023-03-15 15:42:14:134,0,-5.56393,0.0564651,-39.4911,Q,Q
2023-03-15 15:42:14:143,0,-5.56287,0.0514307,-39.5037,Q,Q
2023-03-15 15:42:14:153,0,-5.56034,0.0448101,-39.5189,Q,Q
2023-03-15 15:42:14:163,0,-5.55973,0.0398296,-39.5369,Q,Q
2023-03-15 15:42:14:174,0,-5.55402,0.0375364,-39.5622,Q,Q
2023-03-15 15:42:14:183,0,-5.54719,0.0386354,-39.5867,Q,Q
2023-03-15 15:42:14:193,0,-5.53825,0.0338746,-39.6108,Q,Q
2023-03-15 15:42:14:203,0,-5.52298,0.0303616,-39.6358,Q,Q
2023-03-15 15:42:14:214,0,-5.5043,0.0308534,-39.6613,Q,Q
2023-03-15 15:42:14:224,0,-5.48552,0.0354856,-39.6802,Q,Q
2023-03-15 15:42:14:234,0,-5.46543,0.0404446,-39.6982,Q,Q
2023-03-15 15:42:14:243,0,-5.44973,0.0397894,-39.7164,Q,Q
2023-03-15 15:42:14:253,0,-5.43776,0.037887,-39.7288,Q,Q
2023-03-15 15:42:14:263,0,-5.4199,0.0391735,-39.7466,Q,Q
2023-03-15 15:42:14:274,0,-5.40174,0.0352125,-39.763,Q,Q
2023-03-15 15:42:14:284,0,-5.37644,0.0278792,-39.7704,Q,Q
2023-03-15 15:42:14:293,0,-5.34158,0.0190863,-39.7812,Q,Q
2023-03-15 15:42:14:303,0,-5.30259,0.00653224,-39.7927,Q,Q
2023-03-15 15:42:14:314,0,-5.26372,-0.00242465,-39.8049,Q,Q
2023-03-15 15:42:14:323,0,-5.22582,-0.0192338,-39.8167,Q,Q
2023-03-15 15:42:14:334,0,-5.18774,-0.0414065,-39.8297,Q,Q
2023-03-15 15:42:14:344,0,-5.15407,-0.05777,-39.8396,Q,Q
2023-03-15 15:42:14:353,0,-5.1184,-0.0726284,-39.8483,Q,Q
2023-03-15 15:42:14:363,0,-5.08114,-0.0872445,-39.8556,Q,Q
2023-03-15 15:42:14:374,0,-5.04662,-0.0980884,-39.8553,Q,Q
2023-03-15 15:42:14:383,0,-5.01332,-0.104428,-39.85,Q,Q
2023-03-15 15:42:14:393,0,-4.97751,-0.100426,-39.8436,Q,Q
2023-03-15 15:42:14:403,0,-4.93366,-0.0963365,-39.8343,Q,Q
2023-03-15 15:42:14:414,0,-4.89565,-0.0934487,-39.8196,Q,Q
2023-03-15 15:42:14:423,0,-4.8637,-0.0895875,-39.8091,Q,Q
2023-03-15 15:42:14:434,0,-4.84013,-0.0868478,-39.7933,Q,Q
2023-03-15 15:42:14:443,0,-4.81481,-0.0850578,-39.7833,Q,Q
2023-03-15 15:42:14:453,0,-4.79183,-0.0848685,-39.7746,Q,Q
2023-03-15 15:42:14:463,0,-4.77088,-0.0864494,-39.7627,Q,Q
2023-03-15 15:42:14:473,0,-4.764,-0.0899584,-39.7564,Q,Q
2023-03-15 15:42:14:483,0,-4.76356,-0.0926396,-39.7489,Q,Q
2023-03-15 15:42:14:493,0,-4.77635,-0.0952932,-39.7492,Q,Q
2023-03-15 15:42:14:503,0,-4.79612,-0.102758,-39.7574,Q,Q
2023-03-15 15:42:14:513,0,-4.81718,-0.102539,-39.7614,Q,Q
2023-03-15 15:42:14:523,0,-4.83631,-0.103196,-39.7668,Q,Q
2023-03-15 15:42:14:533,0,-4.85352,-0.0999756,-39.7744,Q,Q
2023-03-15 15:42:14:543,0,-4.86999,-0.101137,-39.7819,Q,Q
2023-03-15 15:42:14:553,0,-4.88612,-0.101698,-39.79,Q,Q
2023-03-15 15:42:14:563,0,-4.90155,-0.101609,-39.7932,Q,Q
2023-03-15 15:42:14:573,0,-4.9164,-0.0977416,-39.7972,Q,Q
2023-03-15 15:42:14:583,0,-4.93138,-0.0945284,-39.801,Q,Q
2023-03-15 15:42:14:593,0,-4.94257,-0.0975014,-39.8083,Q,Q
2023-03-15 15:42:14:603,0,-4.95193,-0.101766,-39.811,Q,Q
2023-03-15 15:42:14:613,0,-4.95881,-0.108326,-39.8158,Q,Q
2023-03-15 15:42:14:623,0,-4.96342,-0.115199,-39.8193,Q,Q
2023-03-15 15:42:14:633,0,-4.96714,-0.124893,-39.8266,Q,Q
2023-03-15 15:42:14:643,0,-4.96798,-0.129183,-39.8324,Q,Q
2023-03-15 15:42:14:653,0,-4.97023,-0.132278,-39.8375,Q,Q
2023-03-15 15:42:14:663,0,-4.97336,-0.132305,-39.8408,Q,Q
2023-03-15 15:42:14:673,0,-4.97791,-0.133356,-39.8452,Q,Q
2023-03-15 15:42:14:683,0,-4.98267,-0.131984,-39.8478,Q,Q
2023-03-15 15:42:14:693,0,-4.98842,-0.133015,-39.852,Q,Q
2023-03-15 15:42:14:703,0,-4.99256,-0.129473,-39.8576,Q,Q
2023-03-15 15:42:14:713,0,-4.99358,-0.126467,-39.8643,Q,Q
2023-03-15 15:42:14:723,0,-5.00049,-0.12401,-39.872,Q,Q
2023-03-15 15:42:14:734,0,-5.00895,-0.124862,-39.8798,Q,Q
2023-03-15 15:42:14:743,0,-5.02138,-0.126624,-39.889,Q,Q
2023-03-15 15:42:14:753,0,-5.03436,-0.129042,-39.8987,Q,Q
2023-03-15 15:42:14:763,0,-5.04158,-0.13481,-39.9129,Q,Q
2023-03-15 15:42:14:774,0,-5.04834,-0.134443,-39.9268,Q,Q
2023-03-15 15:42:14:783,0,-5.06058,-0.136097,-39.9374,Q,Q
2023-03-15 15:42:14:794,0,-5.06926,-0.139304,-39.9467,Q,Q
2023-03-15 15:42:14:803,0,-5.06864,-0.143697,-39.9565,Q,Q
2023-03-15 15:42:14:814,0,-5.06761,-0.150296,-39.965,Q,Q
2023-03-15 15:42:14:823,0,-5.06583,-0.153461,-39.9705,Q,Q
2023-03-15 15:42:14:833,0,-5.06465,-0.15617,-39.9737,Q,Q
2023-03-15 15:42:14:843,0,-5.06362,-0.158892,-39.9764,Q,Q
2023-03-15 15:42:14:853,0,-5.05623,-0.161915,-39.9815,Q,Q
2023-03-15 15:42:14:863,0,-5.04819,-0.165885,-39.981,Q,Q
2023-03-15 15:42:14:874,0,-5.04122,-0.171097,-39.9781,Q,Q
2023-03-15 15:42:14:883,0,-5.04019,-0.176419,-39.9746,Q,Q
2023-03-15 15:42:14:894,0,-5.03676,-0.180138,-39.9706,Q,Q
2023-03-15 15:42:14:903,0,-5.03107,-0.183485,-39.9689,Q,Q
2023-03-15 15:42:14:914,0,-5.02198,-0.183744,-39.9685,Q,Q
2023-03-15 15:42:14:923,0,-5.01124,-0.182012,-39.9676,Q,Q
2023-03-15 15:42:14:933,0,-4.99854,-0.180035,-39.9691,Q,Q
2023-03-15 15:42:14:943,0,-4.98982,-0.177897,-39.9741,Q,Q
2023-03-15 15:42:14:953,0,-4.9848,-0.18152,-39.9819,Q,Q
2023-03-15 15:42:14:963,0,-4.97638,-0.190666,-39.9912,Q,Q
2023-03-15 15:42:14:973,0,-4.97267,-0.197139,-39.9979,Q,Q
2023-03-15 15:42:14:983,0,-4.97186,-0.200835,-40.0059,Q,Q
2023-03-15 15:42:14:993,0,-4.96979,-0.207397,-40.0136,Q,Q
2023-03-15 15:42:15:3,0,-4.97043,-0.210752,-40.0151,Q,Q
2023-03-15 15:42:15:13,0,-4.97648,-0.21813,-40.0118,Q,Q
2023-03-15 15:42:15:23,0,-4.98109,-0.223701,-40.0025,Q,Q
2023-03-15 15:42:15:33,0,-4.98035,-0.224289,-39.9926,Q,Q
2023-03-15 15:42:15:43,0,-4.98278,-0.223427,-39.984,Q,Q
2023-03-15 15:42:15:53,0,-4.98286,-0.22688,-39.9711,Q,Q
2023-03-15 15:42:15:63,0,-4.97987,-0.227785,-39.9592,Q,Q
2023-03-15 15:42:15:73,0,-4.97585,-0.225869,-39.95,Q,Q
2023-03-15 15:42:15:83,0,-4.97111,-0.227638,-39.9395,Q,Q
2023-03-15 15:42:15:94,0,-4.96812,-0.229236,-39.9334,Q,Q
2023-03-15 15:42:15:103,0,-4.9676,-0.231628,-39.9294,Q,Q
2023-03-15 15:42:15:113,0,-4.9693,-0.232881,-39.9279,Q,Q
2023-03-15 15:42:15:123,0,-4.97106,-0.235306,-39.928,Q,Q
2023-03-15 15:42:15:133,0,-4.97217,-0.239852,-39.9276,Q,Q
2023-03-15 15:42:15:143,0,-4.9697,-0.243673,-39.928,Q,Q
2023-03-15 15:42:15:153,0,-4.96933,-0.25058,-39.9279,Q,Q
2023-03-15 15:42:15:163,0,-4.96874,-0.252866,-39.9289,Q,Q
2023-03-15 15:42:15:173,0,-4.96657,-0.255633,-39.925,Q,Q
2023-03-15 15:42:15:183,0,-4.9587,-0.255582,-39.9187,Q,Q
2023-03-15 15:42:15:194,0,-4.95149,-0.257285,-39.9124,Q,Q
2023-03-15 15:42:15:203,0,-4.94392,-0.258223,-39.9089,Q,Q
2023-03-15 15:42:15:214,0,-4.93668,-0.258344,-39.9051,Q,Q
2023-03-15 15:42:15:223,0,-4.93646,-0.257156,-39.9026,Q,Q
2023-03-15 15:42:15:233,0,-4.94198,-0.256277,-39.9026,Q,Q
2023-03-15 15:42:15:243,0,-4.94256,-0.255375,-39.9075,Q,Q
2023-03-15 15:42:15:253,0,-4.94465,-0.25157,-39.9139,Q,Q
2023-03-15 15:42:15:263,0,-4.94546,-0.25837,-39.9206,Q,Q
2023-03-15 15:42:15:273,0,-4.94457,-0.268663,-39.9247,Q,Q
2023-03-15 15:42:15:283,0,-4.93668,-0.280627,-39.9302,Q,Q
2023-03-15 15:42:15:293,0,-4.92837,-0.287663,-39.9385,Q,Q
2023-03-15 15:42:15:303,0,-4.91852,-0.298875,-39.9433,Q,Q
2023-03-15 15:42:15:313,0,-4.91142,-0.307421,-39.9463,Q,Q
2023-03-15 15:42:15:323,0,-4.90771,-0.311599,-39.9509,Q,Q
2023-03-15 15:42:15:334,0,-4.90467,-0.313761,-39.9496,Q,Q
2023-03-15 15:42:15:343,0,-4.89887,-0.314639,-39.9449,Q,Q
2023-03-15 15:42:15:353,0,-4.89555,-0.311916,-39.9376,Q,Q
2023-03-15 15:42:15:363,0,-4.89351,-0.306028,-39.9279,Q,Q
2023-03-15 15:42:15:373,0,-4.89237,-0.299421,-39.9233,Q,Q
2023-03-15 15:42:15:383,0,-4.89338,-0.291767,-39.9232,Q,Q
2023-03-15 15:42:15:393,0,-4.89944,-0.277865,-39.9264,Q,Q
2023-03-15 15:42:15:403,0,-4.90557,-0.263971,-39.9302,Q,Q
2023-03-15 15:42:15:413,0,-4.91435,-0.254403,-39.9426,Q,Q
2023-03-15 15:42:15:423,0,-4.92194,-0.245518,-39.958,Q,Q
2023-03-15 15:42:15:433,0,-4.93294,-0.237463,-39.975,Q,Q
2023-03-15 15:42:15:443,0,-4.94202,-0.228679,-39.9933,Q,Q
2023-03-15 15:42:15:453,0,-4.95151,-0.221192,-40.0126,Q,Q
2023-03-15 15:42:15:463,0,-4.96002,-0.213029,-40.0311,Q,Q
2023-03-15 15:42:15:473,0,-4.9653,-0.201992,-40.0492,Q,Q
2023-03-15 15:42:15:483,0,-4.97241,-0.18944,-40.0694,Q,Q
2023-03-15 15:42:15:493,0,-4.97904,-0.175386,-40.09,Q,Q
2023-03-15 15:42:15:503,0,-4.9892,-0.158493,-40.105,Q,Q
2023-03-15 15:42:15:513,0,-4.99383,-0.143884,-40.1153,Q,Q
2023-03-15 15:42:15:523,0,-4.99585,-0.130098,-40.1243,Q,Q
2023-03-15 15:42:15:533,0,-4.99716,-0.117026,-40.1259,Q,Q
2023-03-15 15:42:15:543,0,-5.00559,-0.105246,-40.1292,Q,Q
2023-03-15 15:42:15:553,0,-5.00898,-0.097404,-40.1347,Q,Q
2023-03-15 15:42:15:563,0,-5.01105,-0.0855923,-40.1366,Q,Q
2023-03-15 15:42:15:573,0,-5.01577,-0.0762712,-40.1356,Q,Q
2023-03-15 15:42:15:583,0,-5.02138,-0.065667,-40.1366,Q,Q
2023-03-15 15:42:15:593,0,-5.02569,-0.0555899,-40.1333,Q,Q
2023-03-15 15:42:15:603,0,-5.02615,-0.047271,-40.131,Q,Q
2023-03-15 15:42:15:613,0,-5.02728,-0.0400481,-40.1284,Q,Q
2023-03-15 15:42:15:623,0,-5.03004,-0.038941,-40.1262,Q,Q
2023-03-15 15:42:15:633,0,-5.03363,-0.0350583,-40.1235,Q,Q
2023-03-15 15:42:15:643,0,-5.03993,-0.0326345,-40.1218,Q,Q
2023-03-15 15:42:15:653,0,-5.04638,-0.0325765,-40.1169,Q,Q
2023-03-15 15:42:15:663,0,-5.05195,-0.0336209,-40.1175,Q,Q
2023-03-15 15:42:15:673,0,-5.05549,-0.0408052,-40.1141,Q,Q
2023-03-15 15:42:15:683,0,-5.05966,-0.0450285,-40.1123,Q,Q
2023-03-15 15:42:15:693,0,-5.06191,-0.0446322,-40.1076,Q,Q
2023-03-15 15:42:15:703,0,-5.06557,-0.0456698,-40.1047,Q,Q
2023-03-15 15:42:15:713,0,-5.06886,-0.0498578,-40.0984,Q,Q
2023-03-15 15:42:15:723,0,-5.07251,-0.0505792,-40.0903,Q,Q
2023-03-15 15:42:15:733,0,-5.07736,-0.0526356,-40.0803,Q,Q
2023-03-15 15:42:15:743,0,-5.08398,-0.0541995,-40.0735,Q,Q
2023-03-15 15:42:15:753,0,-5.09125,-0.054436,-40.0659,Q,Q
2023-03-15 15:42:15:763,0,-5.09179,-0.0581918,-40.0623,Q,Q
2023-03-15 15:42:15:773,0,-5.09462,-0.0597303,-40.0582,Q,Q
2023-03-15 15:42:15:783,0,-5.09298,-0.064492,-40.0555,Q,Q
2023-03-15 15:42:15:793,0,-5.09205,-0.0674426,-40.0564,Q,Q
2023-03-15 15:42:15:803,0,-5.09014,-0.0711611,-40.0588,Q,Q
2023-03-15 15:42:15:813,0,-5.09002,-0.0728266,-40.0578,Q,Q
2023-03-15 15:42:15:823,0,-5.09015,-0.0750332,-40.0566,Q,Q
2023-03-15 15:42:15:833,0,-5.09043,-0.0740877,-40.054,Q,Q
2023-03-15 15:42:15:843,0,-5.09106,-0.0731391,-40.0513,Q,Q
2023-03-15 15:42:15:853,0,-5.09372,-0.0669631,-40.0523,Q,Q
2023-03-15 15:42:15:863,0,-5.09868,-0.0601396,-40.0511,Q,Q
2023-03-15 15:42:15:873,0,-5.10711,-0.0541051,-40.047,Q,Q
2023-03-15 15:42:15:883,0,-5.11138,-0.0506799,-40.045,Q,Q
2023-03-15 15:42:15:893,0,-5.11685,-0.0450939,-40.0471,Q,Q
2023-03-15 15:42:15:903,0,-5.11731,-0.0354823,-40.0476,Q,Q
2023-03-15 15:42:15:913,0,-5.1152,-0.0278372,-40.0529,Q,Q
2023-03-15 15:42:15:923,0,-5.11063,-0.0194543,-40.0602,Q,Q
2023-03-15 15:42:15:934,0,-5.10971,-0.0115925,-40.0655,Q,Q
2023-03-15 15:42:15:943,0,-5.10883,-0.00859308,-40.0682,Q,Q
2023-03-15 15:42:15:954,0,-5.10812,-0.00890103,-40.0703,Q,Q
2023-03-15 15:42:15:963,0,-5.10535,-0.0127692,-40.0745,Q,Q
2023-03-15 15:42:15:973,0,-5.10894,-0.0132111,-40.0766,Q,Q
2023-03-15 15:42:15:983,0,-5.11377,-0.0159902,-40.0766,Q,Q
2023-03-15 15:42:15:993,0,-5.1222,-0.0160347,-40.0802,Q,Q
2023-03-15 15:42:16:3,0,-5.12984,-0.0124966,-40.0806,Q,Q
2023-03-15 15:42:16:13,0,-5.1409,-0.00819652,-40.0764,Q,Q
2023-03-15 15:42:16:23,0,-5.15017,-0.00288488,-40.068,Q,Q
2023-03-15 15:42:16:34,0,-5.15744,0.00180115,-40.0615,Q,Q
2023-03-15 15:42:16:43,0,-5.16537,0.00863824,-40.0573,Q,Q
2023-03-15 15:42:16:54,0,-5.17653,0.0159303,-40.057,Q,Q
2023-03-15 15:42:16:63,0,-5.18416,0.0217882,-40.0554,Q,Q
2023-03-15 15:42:16:73,0,-5.19859,0.0297527,-40.0563,Q,Q
2023-03-15 15:42:16:83,0,-5.2119,0.0341606,-40.0588,Q,Q
2023-03-15 15:42:16:93,0,-5.22447,0.0367072,-40.0629,Q,Q
2023-03-15 15:42:16:103,0,-5.23972,0.0328171,-40.0717,Q,Q
2023-03-15 15:42:16:113,0,-5.25703,0.0295246,-40.0796,Q,Q
2023-03-15 15:42:16:123,0,-5.2698,0.0269206,-40.089,Q,Q
2023-03-15 15:42:16:134,0,-5.28003,0.0262696,-40.0988,Q,Q
2023-03-15 15:42:16:143,0,-5.28644,0.0250626,-40.1027,Q,Q
2023-03-15 15:42:16:153,0,-5.29301,0.0270229,-40.1044,Q,Q
2023-03-15 15:42:16:163,0,-5.29923,0.0264123,-40.1041,Q,Q
2023-03-15 15:42:16:173,0,-5.30162,0.0295956,-40.103,Q,Q
2023-03-15 15:42:16:183,0,-5.29764,0.0329418,-40.1004,Q,Q
2023-03-15 15:42:16:193,0,-5.28725,0.0326803,-40.0923,Q,Q
2023-03-15 15:42:16:203,0,-5.27499,0.0295126,-40.084,Q,Q
2023-03-15 15:42:16:213,0,-5.26464,0.0275036,-40.0745,Q,Q
2023-03-15 15:42:16:223,0,-5.25742,0.0258268,-40.0668,Q,Q
2023-03-15 15:42:16:234,0,-5.2503,0.0269931,-40.0606,Q,Q
2023-03-15 15:42:16:243,0,-5.24906,0.0238079,-40.0557,Q,Q
2023-03-15 15:42:16:254,0,-5.24121,0.0210603,-40.051,Q,Q
2023-03-15 15:42:16:263,0,-5.23123,0.0219002,-40.0461,Q,Q
2023-03-15 15:42:16:274,0,-5.22,0.0150396,-40.0379,Q,Q
2023-03-15 15:42:16:283,0,-5.20635,0.00829571,-40.0366,Q,Q
2023-03-15 15:42:16:294,0,-5.19273,0.00163424,-40.0317,Q,Q
2023-03-15 15:42:16:303,0,-5.17768,-0.00557807,-40.0284,Q,Q
2023-03-15 15:42:16:313,0,-5.16692,-0.0113244,-40.024,Q,Q
2023-03-15 15:42:16:323,0,-5.15938,-0.0194495,-40.0163,Q,Q
2023-03-15 15:42:16:334,0,-5.15655,-0.0267582,-40.0045,Q,Q
2023-03-15 15:42:16:343,0,-5.15824,-0.0339999,-39.9905,Q,Q
2023-03-15 15:42:16:353,0,-5.16399,-0.0381537,-39.9783,Q,Q
2023-03-15 15:42:16:363,0,-5.16809,-0.0427069,-39.9629,Q,Q
2023-03-15 15:42:16:373,0,-5.17405,-0.0498627,-39.9488,Q,Q
2023-03-15 15:42:16:383,0,-5.17988,-0.0543254,-39.9324,Q,Q
2023-03-15 15:42:16:394,0,-5.18561,-0.058533,-39.9179,Q,Q
2023-03-15 15:42:16:403,0,-5.18587,-0.0628165,-39.9024,Q,Q
2023-03-15 15:42:16:413,0,-5.19393,-0.0645793,-39.8866,Q,Q
2023-03-15 15:42:16:423,0,-5.19917,-0.064205,-39.8765,Q,Q
2023-03-15 15:42:16:433,0,-5.20729,-0.062352,-39.8652,Q,Q
2023-03-15 15:42:16:443,0,-5.21636,-0.0652668,-39.8591,Q,Q
2023-03-15 15:42:16:454,0,-5.22682,-0.0690284,-39.8523,Q,Q
