Timestamp_cmd,imu_cmd,roll_delta,pitch_delta,yaw_delta
2023-03-11 22:39:17:882,0,4.46484,-1.2741,-36.429
2023-03-11 22:39:17:891,0,4.46892,-1.30238,-36.3986
2023-03-11 22:39:17:901,0,4.48487,-1.31261,-36.3739
2023-03-11 22:39:17:911,0,4.5091,-1.31036,-36.363
2023-03-11 22:39:17:921,0,4.54078,-1.29211,-36.3595
2023-03-11 22:39:17:931,0,4.57433,-1.26027,-36.3619
2023-03-11 22:39:17:941,0,4.60463,-1.22534,-36.3565
2023-03-11 22:39:17:951,0,4.62168,-1.19068,-36.3513
2023-03-11 22:39:17:961,0,4.61979,-1.15947,-36.3489
2023-03-11 22:39:17:971,0,4.60078,-1.13109,-36.3448
2023-03-11 22:39:17:981,0,4.57135,-1.10389,-36.3431
2023-03-11 22:39:17:991,0,4.53795,-1.07402,-36.3504
2023-03-11 22:39:18:1,0,4.50013,-1.03997,-36.3592
2023-03-11 22:39:18:11,0,4.46663,-1.00137,-36.3721
2023-03-11 22:39:18:21,0,4.43218,-0.965155,-36.3868
2023-03-11 22:39:18:31,0,4.40258,-0.931084,-36.3987
2023-03-11 22:39:18:41,0,4.38736,-0.895911,-36.4216
2023-03-11 22:39:18:51,0,4.37295,-0.857563,-36.4513
2023-03-11 22:39:18:61,0,4.35513,-0.819115,-36.479
2023-03-11 22:39:18:71,0,4.33568,-0.78302,-36.5067
2023-03-11 22:39:18:81,0,4.31129,-0.757566,-36.533
2023-03-11 22:39:18:91,0,4.28585,-0.734574,-36.5524
2023-03-11 22:39:18:101,0,4.26416,-0.70752,-36.5758
2023-03-11 22:39:18:111,0,4.23707,-0.668575,-36.6038
2023-03-11 22:39:18:121,0,4.20865,-0.624536,-36.6301
2023-03-11 22:39:18:131,0,4.1717,-0.585737,-36.6355
2023-03-11 22:39:18:141,0,4.12653,-0.558544,-36.6201
2023-03-11 22:39:18:151,0,4.08621,-0.544334,-36.592
2023-03-11 22:39:18:161,0,4.04543,-0.53738,-36.5584
2023-03-11 22:39:18:171,0,4.01286,-0.527271,-36.5255
2023-03-11 22:39:18:181,0,3.98641,-0.520675,-36.4906
2023-03-11 22:39:18:191,0,3.96566,-0.517952,-36.4444
2023-03-11 22:39:18:201,0,3.94755,-0.519972,-36.3934
2023-03-11 22:39:18:211,0,3.93055,-0.528313,-36.34
2023-03-11 22:39:18:221,0,3.91892,-0.544295,-36.2884
2023-03-11 22:39:18:231,0,3.91851,-0.568183,-36.2397
2023-03-11 22:39:18:241,0,3.92373,-0.595882,-36.1947
2023-03-11 22:39:18:251,0,3.9391,-0.626224,-36.1559
2023-03-11 22:39:18:260,0,3.95871,-0.652418,-36.1181
2023-03-11 22:39:18:270,0,3.97871,-0.680141,-36.0888
2023-03-11 22:39:18:280,0,3.9959,-0.698931,-36.0696
2023-03-11 22:39:18:290,0,4.01238,-0.703387,-36.0592
2023-03-11 22:39:18:301,0,4.02933,-0.705906,-36.0578
2023-03-11 22:39:18:310,0,4.04317,-0.700381,-36.0661
2023-03-11 22:39:18:320,0,4.05522,-0.692601,-36.0795
2023-03-11 22:39:18:331,0,4.05835,-0.681601,-36.099
2023-03-11 22:39:18:341,0,4.05663,-0.669746,-36.1133
2023-03-11 22:39:18:351,0,4.05765,-0.664023,-36.127
2023-03-11 22:39:18:361,0,4.05642,-0.664037,-36.1418
2023-03-11 22:39:18:371,0,4.05661,-0.667066,-36.1579
2023-03-11 22:39:18:381,0,4.05846,-0.668778,-36.1769
2023-03-11 22:39:18:391,0,4.06486,-0.668452,-36.1964
2023-03-11 22:39:18:401,0,4.07021,-0.668799,-36.2046
2023-03-11 22:39:18:411,0,4.07775,-0.671684,-36.2048
2023-03-11 22:39:18:421,0,4.08449,-0.677479,-36.1978
2023-03-11 22:39:18:431,0,4.08804,-0.683248,-36.1878
2023-03-11 22:39:18:441,0,4.09245,-0.692306,-36.1751
2023-03-11 22:39:18:451,0,4.0971,-0.705889,-36.1591
2023-03-11 22:39:18:461,0,4.09943,-0.722624,-36.1401
2023-03-11 22:39:18:471,0,4.10443,-0.738475,-36.125
2023-03-11 22:39:18:481,0,4.11015,-0.753558,-36.109
2023-03-11 22:39:18:491,0,4.12104,-0.76787,-36.099
2023-03-11 22:39:18:501,0,4.13035,-0.782365,-36.0885
2023-03-11 22:39:18:511,0,4.13799,-0.792563,-36.0836
2023-03-11 22:39:18:521,0,4.14623,-0.803971,-36.0805
2023-03-11 22:39:18:531,0,4.15139,-0.815606,-36.0762
2023-03-11 22:39:18:541,0,4.15468,-0.823977,-36.0702
2023-03-11 22:39:18:551,0,4.1615,-0.829651,-36.0648
2023-03-11 22:39:18:561,0,4.17351,-0.832837,-36.0608
2023-03-11 22:39:18:571,0,4.19464,-0.827908,-36.0597
2023-03-11 22:39:18:581,0,4.22001,-0.820611,-36.0599
2023-03-11 22:39:18:591,0,4.24778,-0.815331,-36.062
2023-03-11 22:39:18:601,0,4.27511,-0.810146,-36.0627
2023-03-11 22:39:18:611,0,4.30259,-0.804094,-36.0632
2023-03-11 22:39:18:621,0,4.33092,-0.801139,-36.0655
2023-03-11 22:39:18:631,0,4.35737,-0.794255,-36.0742
2023-03-11 22:39:18:641,0,4.38353,-0.78839,-36.0878
2023-03-11 22:39:18:651,0,4.40423,-0.778377,-36.1056
2023-03-11 22:39:18:661,0,4.4263,-0.77168,-36.1227
2023-03-11 22:39:18:671,0,4.44701,-0.766248,-36.138
2023-03-11 22:39:18:681,0,4.47022,-0.760497,-36.153
2023-03-11 22:39:18:691,0,4.49265,-0.759364,-36.1649
2023-03-11 22:39:18:701,0,4.5117,-0.755558,-36.1778
2023-03-11 22:39:18:711,0,4.53398,-0.749531,-36.1942
2023-03-11 22:39:18:721,0,4.55757,-0.742472,-36.2081
2023-03-11 22:39:18:731,0,4.58167,-0.733326,-36.2197
2023-03-11 22:39:18:741,0,4.61044,-0.717479,-36.2285
2023-03-11 22:39:18:751,0,4.64628,-0.70422,-36.2364
2023-03-11 22:39:18:761,0,4.67968,-0.693969,-36.2408
2023-03-11 22:39:18:771,0,4.70877,-0.686777,-36.2383
2023-03-11 22:39:18:781,0,4.73654,-0.677106,-36.2415
2023-03-11 22:39:18:791,0,4.76155,-0.668231,-36.2431
2023-03-11 22:39:18:801,0,4.7872,-0.663125,-36.2394
2023-03-11 22:39:18:811,0,4.80828,-0.660448,-36.2417
2023-03-11 22:39:18:821,0,4.82942,-0.650644,-36.2473
2023-03-11 22:39:18:831,0,4.84452,-0.637881,-36.2529
2023-03-11 22:39:18:841,0,4.85574,-0.621545,-36.258
2023-03-11 22:39:18:851,0,4.86292,-0.609335,-36.2622
2023-03-11 22:39:18:861,0,4.86554,-0.598607,-36.2636
2023-03-11 22:39:18:871,0,4.86633,-0.590631,-36.2641
2023-03-11 22:39:18:881,0,4.86559,-0.588355,-36.2483
2023-03-11 22:39:18:891,0,4.86657,-0.592286,-36.2301
2023-03-11 22:39:18:901,0,4.8625,-0.600526,-36.2145
2023-03-11 22:39:18:911,0,4.85957,-0.617924,-36.1971
2023-03-11 22:39:18:921,0,4.85677,-0.632298,-36.1827
2023-03-11 22:39:18:931,0,4.85593,-0.64586,-36.1701
2023-03-11 22:39:18:941,0,4.85693,-0.65616,-36.1618
2023-03-11 22:39:18:951,0,4.86362,-0.664699,-36.1571
2023-03-11 22:39:18:961,0,4.86936,-0.673898,-36.1533
2023-03-11 22:39:18:971,0,4.87241,-0.680767,-36.1476
2023-03-11 22:39:18:981,0,4.88109,-0.685096,-36.1498
2023-03-11 22:39:18:991,0,4.89335,-0.687707,-36.1532
2023-03-11 22:39:19:1,0,4.90373,-0.685422,-36.1617
2023-03-11 22:39:19:11,0,4.91403,-0.685745,-36.1684
2023-03-11 22:39:19:21,0,4.9253,-0.691331,-36.1736
2023-03-11 22:39:19:31,0,4.93556,-0.703305,-36.1807
2023-03-11 22:39:19:41,0,4.94962,-0.716679,-36.1884
2023-03-11 22:39:19:51,0,4.96522,-0.724657,-36.1947
2023-03-11 22:39:19:61,0,4.97869,-0.739479,-36.199
2023-03-11 22:39:19:71,0,4.99583,-0.758407,-36.1966
2023-03-11 22:39:19:81,0,5.00665,-0.780302,-36.189
2023-03-11 22:39:19:90,0,5.01938,-0.808534,-36.1762
2023-03-11 22:39:19:101,0,5.03229,-0.836284,-36.162
2023-03-11 22:39:19:111,0,5.0461,-0.867403,-36.1417
2023-03-11 22:39:19:120,0,5.06454,-0.899596,-36.1219
2023-03-11 22:39:19:131,0,5.08526,-0.929979,-36.1001
2023-03-11 22:39:19:141,0,5.11145,-0.959987,-36.0785
2023-03-11 22:39:19:150,0,5.1386,-0.985114,-36.0548
2023-03-11 22:39:19:161,0,5.16518,-1.00576,-36.0352
2023-03-11 22:39:19:170,0,5.19544,-1.02332,-36.017
2023-03-11 22:39:19:181,0,5.2222,-1.03671,-35.9987
2023-03-11 22:39:19:191,0,5.24457,-1.04934,-35.9812
2023-03-11 22:39:19:201,0,5.2567,-1.05946,-35.9679
2023-03-11 22:39:19:211,0,5.26617,-1.06514,-35.9553
2023-03-11 22:39:19:221,0,5.27514,-1.06417,-35.9417
2023-03-11 22:39:19:231,0,5.27979,-1.05854,-35.9318
2023-03-11 22:39:19:241,0,5.28101,-1.05061,-35.9216
2023-03-11 22:39:19:251,0,5.2831,-1.03868,-35.9125
2023-03-11 22:39:19:261,0,5.28746,-1.02816,-35.8963
2023-03-11 22:39:19:271,0,5.29029,-1.01917,-35.8762
2023-03-11 22:39:19:281,0,5.29337,-1.00792,-35.8517
2023-03-11 22:39:19:291,0,5.29844,-1.00137,-35.8195
2023-03-11 22:39:19:301,0,5.30057,-0.997499,-35.7805
2023-03-11 22:39:19:311,0,5.29694,-0.993148,-35.7356
2023-03-11 22:39:19:321,0,5.28538,-0.991137,-35.6869
2023-03-11 22:39:19:331,0,5.27484,-0.98754,-35.627
2023-03-11 22:39:19:341,0,5.25691,-0.981128,-35.5569
2023-03-11 22:39:19:351,0,5.24007,-0.977144,-35.4831
2023-03-11 22:39:19:361,0,5.22723,-0.973918,-35.3955
2023-03-11 22:39:19:371,0,5.21567,-0.969597,-35.3081
2023-03-11 22:39:19:381,0,5.20355,-0.965321,-35.2173
2023-03-11 22:39:19:391,0,5.19245,-0.958047,-35.1262
2023-03-11 22:39:19:400,0,5.18136,-0.951378,-35.0354
2023-03-11 22:39:19:410,0,5.17053,-0.946455,-34.9466
2023-03-11 22:39:19:421,0,5.15156,-0.947695,-34.8602
2023-03-11 22:39:19:430,0,5.13165,-0.950368,-34.7776
2023-03-11 22:39:19:441,0,5.10931,-0.957746,-34.697
2023-03-11 22:39:19:450,0,5.0881,-0.972112,-34.6191
2023-03-11 22:39:19:461,0,5.07052,-0.988318,-34.5488
2023-03-11 22:39:19:471,0,5.05067,-1.00875,-34.484
2023-03-11 22:39:19:481,0,5.03149,-1.02363,-34.4243
2023-03-11 22:39:19:491,0,5.01282,-1.03714,-34.3698
2023-03-11 22:39:19:501,0,4.99242,-1.0553,-34.3223
2023-03-11 22:39:19:511,0,4.96879,-1.06955,-34.2805
2023-03-11 22:39:19:521,0,4.94751,-1.08304,-34.2458
2023-03-11 22:39:19:531,0,4.92364,-1.09662,-34.2159
2023-03-11 22:39:19:541,0,4.89898,-1.10731,-34.1952
2023-03-11 22:39:19:551,0,4.87861,-1.12025,-34.1803
2023-03-11 22:39:19:561,0,4.8576,-1.13637,-34.1715
2023-03-11 22:39:19:571,0,4.83438,-1.14947,-34.1681
2023-03-11 22:39:19:581,0,4.81528,-1.16329,-34.1663
2023-03-11 22:39:19:591,0,4.79322,-1.17874,-34.1654
2023-03-11 22:39:19:601,0,4.76834,-1.19486,-34.1686
2023-03-11 22:39:19:611,0,4.74527,-1.211,-34.1772
2023-03-11 22:39:19:621,0,4.7207,-1.22901,-34.1865
2023-03-11 22:39:19:631,0,4.70208,-1.24716,-34.1946
2023-03-11 22:39:19:641,0,4.68206,-1.25903,-34.2106
2023-03-11 22:39:19:651,0,4.66111,-1.26533,-34.2339
2023-03-11 22:39:19:661,0,4.64507,-1.26992,-34.2589
2023-03-11 22:39:19:671,0,4.63208,-1.27349,-34.2843
2023-03-11 22:39:19:681,0,4.62724,-1.2769,-34.3088
2023-03-11 22:39:19:691,0,4.62326,-1.28036,-34.3381
2023-03-11 22:39:19:701,0,4.62669,-1.28071,-34.3699
2023-03-11 22:39:19:711,0,4.6317,-1.28194,-34.3998
2023-03-11 22:39:19:721,0,4.63738,-1.28324,-34.4234
2023-03-11 22:39:19:731,0,4.64452,-1.28484,-34.4503
2023-03-11 22:39:19:741,0,4.64784,-1.28709,-34.4827
2023-03-11 22:39:19:751,0,4.65643,-1.28949,-34.5172
2023-03-11 22:39:19:761,0,4.66593,-1.28493,-34.5538
2023-03-11 22:39:19:771,0,4.67638,-1.27606,-34.596
2023-03-11 22:39:19:781,0,4.69178,-1.26629,-34.6363
2023-03-11 22:39:19:791,0,4.70611,-1.25211,-34.6754
2023-03-11 22:39:19:801,0,4.72197,-1.23653,-34.7087
2023-03-11 22:39:19:811,0,4.7299,-1.22639,-34.7386
2023-03-11 22:39:19:821,0,4.73599,-1.21687,-34.7631
2023-03-11 22:39:19:831,0,4.73376,-1.2084,-34.7831
2023-03-11 22:39:19:841,0,4.72623,-1.19875,-34.7989
2023-03-11 22:39:19:851,0,4.71537,-1.19136,-34.8115
2023-03-11 22:39:19:861,0,4.70572,-1.18405,-34.8187
2023-03-11 22:39:19:871,0,4.69937,-1.1679,-34.826
2023-03-11 22:39:19:881,0,4.69003,-1.14982,-34.8247
2023-03-11 22:39:19:891,0,4.68175,-1.13198,-34.822
2023-03-11 22:39:19:901,0,4.67175,-1.11485,-34.8173
2023-03-11 22:39:19:911,0,4.66965,-1.09344,-34.8179
2023-03-11 22:39:19:921,0,4.66936,-1.06733,-34.8277
2023-03-11 22:39:19:931,0,4.67351,-1.03667,-34.8389
2023-03-11 22:39:19:941,0,4.67461,-1.00989,-34.853
2023-03-11 22:39:19:951,0,4.67735,-0.986263,-34.8624
2023-03-11 22:39:19:961,0,4.67887,-0.969564,-34.8712
2023-03-11 22:39:19:971,0,4.67609,-0.965662,-34.8775
2023-03-11 22:39:19:981,0,4.6671,-0.967541,-34.8739
2023-03-11 22:39:19:991,0,4.65211,-0.985645,-34.8588
2023-03-11 22:39:20:1,0,4.63664,-1.01619,-34.8373
2023-03-11 22:39:20:11,0,4.62464,-1.05004,-34.8171
2023-03-11 22:39:20:21,0,4.62011,-1.0877,-34.8033
2023-03-11 22:39:20:31,0,4.61861,-1.12242,-34.7962
2023-03-11 22:39:20:41,0,4.6177,-1.15792,-34.8117
2023-03-11 22:39:20:51,0,4.61952,-1.19946,-34.8459
2023-03-11 22:39:20:61,0,4.6203,-1.25621,-34.8833
2023-03-11 22:39:20:71,0,4.62006,-1.32042,-34.9163
2023-03-11 22:39:20:81,0,4.61047,-1.38294,-34.9776
2023-03-11 22:39:20:91,0,4.60434,-1.44583,-35.0377
2023-03-11 22:39:20:101,0,4.60028,-1.51693,-35.0847
2023-03-11 22:39:20:111,0,4.59555,-1.58634,-35.13
2023-03-11 22:39:20:121,0,4.59356,-1.65224,-35.1767
2023-03-11 22:39:20:131,0,4.58881,-1.70215,-35.231
2023-03-11 22:39:20:141,0,4.57965,-1.73282,-35.2867
2023-03-11 22:39:20:151,0,4.56976,-1.75582,-35.3393
2023-03-11 22:39:20:161,0,4.55345,-1.77251,-35.3867
2023-03-11 22:39:20:171,0,4.53472,-1.7877,-35.4422
2023-03-11 22:39:20:181,0,4.52171,-1.80009,-35.4998
2023-03-11 22:39:20:191,0,4.50821,-1.8116,-35.5555
2023-03-11 22:39:20:201,0,4.50096,-1.82808,-35.6132
2023-03-11 22:39:20:211,0,4.49798,-1.84583,-35.6767
2023-03-11 22:39:20:221,0,4.49709,-1.86861,-35.7419
2023-03-11 22:39:20:231,0,4.50029,-1.89926,-35.8025
2023-03-11 22:39:20:241,0,4.51047,-1.93432,-35.8627
2023-03-11 22:39:20:251,0,4.5214,-1.97137,-35.9238
2023-03-11 22:39:20:261,0,4.53111,-2.01452,-35.9858
2023-03-11 22:39:20:271,0,4.54143,-2.05837,-36.0448
2023-03-11 22:39:20:281,0,4.55302,-2.09906,-36.1077
2023-03-11 22:39:20:291,0,4.57159,-2.13411,-36.1735
2023-03-11 22:39:20:301,0,4.59319,-2.16434,-36.2428
2023-03-11 22:39:20:311,0,4.61572,-2.1823,-36.3117
2023-03-11 22:39:20:321,0,4.63768,-2.20369,-36.378
2023-03-11 22:39:20:331,0,4.65356,-2.22882,-36.4401
2023-03-11 22:39:20:341,0,4.66459,-2.25435,-36.5006
2023-03-11 22:39:20:351,0,4.66426,-2.28366,-36.5548
2023-03-11 22:39:20:361,0,4.65761,-2.31048,-36.6065
2023-03-11 22:39:20:371,0,4.64927,-2.34131,-36.6522
2023-03-11 22:39:20:381,0,4.64054,-2.37201,-36.6941
2023-03-11 22:39:20:391,0,4.63797,-2.39748,-36.7349
2023-03-11 22:39:20:401,0,4.64549,-2.41336,-36.7798
2023-03-11 22:39:20:411,0,4.65532,-2.42013,-36.8215
2023-03-11 22:39:20:421,0,4.66851,-2.42549,-36.8603
2023-03-11 22:39:20:431,0,4.67794,-2.42588,-36.8916
2023-03-11 22:39:20:441,0,4.68484,-2.42153,-36.9168
2023-03-11 22:39:20:451,0,4.69103,-2.42334,-36.934
2023-03-11 22:39:20:461,0,4.69726,-2.42178,-36.9464
2023-03-11 22:39:20:471,0,4.70492,-2.41602,-36.959
2023-03-11 22:39:20:481,0,4.71647,-2.4024,-36.968
2023-03-11 22:39:20:491,0,4.71977,-2.37825,-36.9781
2023-03-11 22:39:20:501,0,4.72446,-2.34846,-36.992
2023-03-11 22:39:20:511,0,4.72916,-2.31486,-37.0062
2023-03-11 22:39:20:521,0,4.7337,-2.27604,-37.0218
2023-03-11 22:39:20:531,0,4.7374,-2.23209,-37.0371
2023-03-11 22:39:20:541,0,4.74273,-2.18114,-37.0617
2023-03-11 22:39:20:551,0,4.75002,-2.13254,-37.0871
2023-03-11 22:39:20:561,0,4.76415,-2.08712,-37.1116
2023-03-11 22:39:20:571,0,4.77928,-2.04652,-37.1285
2023-03-11 22:39:20:581,0,4.79939,-2.01849,-37.1472
2023-03-11 22:39:20:591,0,4.82732,-1.99695,-37.1605
2023-03-11 22:39:20:601,0,4.85823,-1.98365,-37.1785
2023-03-11 22:39:20:611,0,4.89458,-1.97667,-37.1945
2023-03-11 22:39:20:621,0,4.92944,-1.9763,-37.2086
2023-03-11 22:39:20:631,0,4.96873,-1.9838,-37.2284
2023-03-11 22:39:20:641,0,5.01221,-1.99071,-37.2427
2023-03-11 22:39:20:651,0,5.06238,-2.00005,-37.2597
2023-03-11 22:39:20:661,0,5.11777,-2.00563,-37.2845
2023-03-11 22:39:20:671,0,5.17288,-2.00595,-37.3148
2023-03-11 22:39:20:681,0,5.23854,-2.00001,-37.3453
2023-03-11 22:39:20:691,0,5.30035,-1.98824,-37.379
2023-03-11 22:39:20:701,0,5.36051,-1.98319,-37.401
2023-03-11 22:39:20:711,0,5.41057,-1.97953,-37.4234
2023-03-11 22:39:20:721,0,5.45268,-1.97651,-37.4519
2023-03-11 22:39:20:731,0,5.48915,-1.96841,-37.4871
2023-03-11 22:39:20:741,0,5.52193,-1.95897,-37.5234
2023-03-11 22:39:20:751,0,5.54915,-1.94869,-37.5619
2023-03-11 22:39:20:761,0,5.57696,-1.94133,-37.6064
2023-03-11 22:39:20:771,0,5.60861,-1.94079,-37.6449
2023-03-11 22:39:20:781,0,5.64415,-1.95201,-37.6757
2023-03-11 22:39:20:791,0,5.67393,-1.96956,-37.7074
2023-03-11 22:39:20:801,0,5.68842,-1.98645,-37.7423
2023-03-11 22:39:20:811,0,5.70017,-2.00461,-37.7738
2023-03-11 22:39:20:821,0,5.70219,-2.02405,-37.8016
2023-03-11 22:39:20:831,0,5.69821,-2.04498,-37.8272
2023-03-11 22:39:20:841,0,5.69048,-2.06581,-37.8517
2023-03-11 22:39:20:851,0,5.68728,-2.0836,-37.877
2023-03-11 22:39:20:861,0,5.68182,-2.10072,-37.9027
2023-03-11 22:39:20:871,0,5.67879,-2.11314,-37.9239
2023-03-11 22:39:20:881,0,5.67691,-2.13034,-37.9515
2023-03-11 22:39:20:891,0,5.68501,-2.14526,-37.983
2023-03-11 22:39:20:901,0,5.69759,-2.1593,-38.0179
2023-03-11 22:39:20:911,0,5.71216,-2.17645,-38.0525
2023-03-11 22:39:20:921,0,5.71978,-2.19411,-38.0885
2023-03-11 22:39:20:931,0,5.72468,-2.20605,-38.1329
2023-03-11 22:39:20:941,0,5.72637,-2.21341,-38.1855
2023-03-11 22:39:20:951,0,5.72887,-2.21718,-38.2397
2023-03-11 22:39:20:961,0,5.73438,-2.21656,-38.2955
2023-03-11 22:39:20:971,0,5.73555,-2.21472,-38.3529
2023-03-11 22:39:20:981,0,5.74013,-2.21494,-38.4223
2023-03-11 22:39:20:991,0,5.74496,-2.20908,-38.4983
2023-03-11 22:39:21:1,0,5.7493,-2.20193,-38.5787
2023-03-11 22:39:21:11,0,5.75738,-2.19889,-38.6613
2023-03-11 22:39:21:21,0,5.7659,-2.20776,-38.7469
2023-03-11 22:39:21:31,0,5.76792,-2.22144,-38.8315
2023-03-11 22:39:21:41,0,5.76847,-2.24285,-38.9239
2023-03-11 22:39:21:51,0,5.76596,-2.26351,-39.0265
2023-03-11 22:39:21:61,0,5.76216,-2.28644,-39.1266
2023-03-11 22:39:21:71,0,5.76134,-2.31575,-39.2324
2023-03-11 22:39:21:81,0,5.7591,-2.34331,-39.3395
2023-03-11 22:39:21:91,0,5.75398,-2.37732,-39.4503
2023-03-11 22:39:21:101,0,5.75709,-2.4089,-39.5687
2023-03-11 22:39:21:111,0,5.76685,-2.43524,-39.6854
2023-03-11 22:39:21:121,0,5.78178,-2.45559,-39.8105
2023-03-11 22:39:21:131,0,5.80517,-2.46819,-39.9406
2023-03-11 22:39:21:141,0,5.82914,-2.4775,-40.0743
2023-03-11 22:39:21:151,0,5.85959,-2.48334,-40.2104
2023-03-11 22:39:21:161,0,5.88791,-2.48547,-40.3456
2023-03-11 22:39:21:171,0,5.91401,-2.48255,-40.4795
2023-03-11 22:39:21:181,0,5.9404,-2.4756,-40.6173
2023-03-11 22:39:21:191,0,5.965,-2.46619,-40.7535
2023-03-11 22:39:21:201,0,5.98865,-2.45076,-40.8944
2023-03-11 22:39:21:211,0,6.01268,-2.42964,-41.038
2023-03-11 22:39:21:221,0,6.03722,-2.40726,-41.1797
2023-03-11 22:39:21:231,0,6.06215,-2.38053,-41.3185
2023-03-11 22:39:21:241,0,6.08985,-2.35013,-41.4544
2023-03-11 22:39:21:251,0,6.11311,-2.32174,-41.5882
2023-03-11 22:39:21:261,0,6.13889,-2.29324,-41.7182
2023-03-11 22:39:21:271,0,6.15869,-2.26759,-41.8384
2023-03-11 22:39:21:281,0,6.1707,-2.24113,-41.9547
2023-03-11 22:39:21:291,0,6.18122,-2.21542,-42.0706
2023-03-11 22:39:21:301,0,6.19231,-2.19102,-42.1742
2023-03-11 22:39:21:311,0,6.20471,-2.17215,-42.2769
2023-03-11 22:39:21:321,0,6.2184,-2.15786,-42.3742
2023-03-11 22:39:21:331,0,6.23506,-2.14782,-42.4676
2023-03-11 22:39:21:341,0,6.25682,-2.14075,-42.5586
2023-03-11 22:39:21:351,0,6.28253,-2.13058,-42.643
2023-03-11 22:39:21:361,0,6.31269,-2.1249,-42.7212
2023-03-11 22:39:21:371,0,6.34181,-2.12255,-42.7924
2023-03-11 22:39:21:381,0,6.37226,-2.11741,-42.8546
2023-03-11 22:39:21:391,0,6.40593,-2.10949,-42.9084
2023-03-11 22:39:21:401,0,6.43965,-2.10904,-42.9525
2023-03-11 22:39:21:411,0,6.47296,-2.11268,-42.9893
2023-03-11 22:39:21:421,0,6.50795,-2.12045,-43.0195
2023-03-11 22:39:21:431,0,6.54318,-2.13542,-43.0425
2023-03-11 22:39:21:441,0,6.57623,-2.16168,-43.0552
2023-03-11 22:39:21:451,0,6.60498,-2.18941,-43.0637
2023-03-11 22:39:21:461,0,6.62398,-2.21831,-43.0703
2023-03-11 22:39:21:471,0,6.62696,-2.23667,-43.0836
2023-03-11 22:39:21:481,0,6.62261,-2.24596,-43.1067
2023-03-11 22:39:21:491,0,6.60902,-2.24993,-43.1235
2023-03-11 22:39:21:501,0,6.58777,-2.25131,-43.1298
2023-03-11 22:39:21:511,0,6.56149,-2.25962,-43.1413
2023-03-11 22:39:21:521,0,6.53726,-2.26861,-43.1507
2023-03-11 22:39:21:531,0,6.51419,-2.2791,-43.156
2023-03-11 22:39:21:541,0,6.49015,-2.28336,-43.1623
2023-03-11 22:39:21:551,0,6.45906,-2.28519,-43.1674
2023-03-11 22:39:21:561,0,6.42195,-2.28927,-43.1637
2023-03-11 22:39:21:571,0,6.37394,-2.2975,-43.1592
2023-03-11 22:39:21:581,0,6.31863,-2.30873,-43.1466
2023-03-11 22:39:21:591,0,6.24412,-2.33255,-43.1243
2023-03-11 22:39:21:601,0,6.14682,-2.35811,-43.1078
2023-03-11 22:39:21:611,0,6.04115,-2.38662,-43.0881
2023-03-11 22:39:21:621,0,5.94864,-2.41288,-43.0726
2023-03-11 22:39:21:631,0,5.89027,-2.43878,-43.058
2023-03-11 22:39:21:641,0,5.8838,-2.45233,-43.051
2023-03-11 22:39:21:651,0,5.91614,-2.4588,-43.0355
2023-03-11 22:39:21:661,0,5.94592,-2.47303,-43.0077
2023-03-11 22:39:21:671,0,5.9662,-2.49349,-42.9779
2023-03-11 22:39:21:681,0,5.98173,-2.52261,-42.9505
2023-03-11 22:39:21:691,0,5.98871,-2.55118,-42.9295
2023-03-11 22:39:21:701,0,5.98958,-2.57432,-42.9262
2023-03-11 22:39:21:711,0,5.98639,-2.59255,-42.9335
2023-03-11 22:39:21:721,0,5.98376,-2.60436,-42.9471
2023-03-11 22:39:21:731,0,5.98256,-2.61207,-42.9663
2023-03-11 22:39:21:741,0,5.98728,-2.62029,-42.9935
2023-03-11 22:39:21:751,0,6.00275,-2.62408,-43.0317
2023-03-11 22:39:21:761,0,6.02993,-2.61957,-43.0879
2023-03-11 22:39:21:771,0,6.06412,-2.59956,-43.1557
2023-03-11 22:39:21:781,0,6.09661,-2.58058,-43.2169
2023-03-11 22:39:21:791,0,6.12,-2.56558,-43.2729
2023-03-11 22:39:21:801,0,6.1273,-2.55848,-43.3194
2023-03-11 22:39:21:811,0,6.11633,-2.55439,-43.3678
2023-03-11 22:39:21:821,0,6.09535,-2.55053,-43.4132
2023-03-11 22:39:21:831,0,6.07701,-2.54715,-43.4532
2023-03-11 22:39:21:841,0,6.06193,-2.53743,-43.4987
2023-03-11 22:39:21:851,0,6.05157,-2.52094,-43.5485
2023-03-11 22:39:21:861,0,6.041,-2.50612,-43.5836
2023-03-11 22:39:21:871,0,6.02853,-2.49651,-43.6
2023-03-11 22:39:21:881,0,6.00992,-2.48987,-43.6076
2023-03-11 22:39:21:891,0,5.98155,-2.48211,-43.6111
2023-03-11 22:39:21:901,0,5.94942,-2.47399,-43.6048
2023-03-11 22:39:21:911,0,5.91187,-2.46959,-43.5848
2023-03-11 22:39:21:921,0,5.86425,-2.45776,-43.5638
2023-03-11 22:39:21:931,0,5.82393,-2.44147,-43.5435
2023-03-11 22:39:21:941,0,5.78332,-2.4234,-43.514
2023-03-11 22:39:21:951,0,5.74131,-2.41284,-43.4628
2023-03-11 22:39:21:961,0,5.69367,-2.4117,-43.3992
2023-03-11 22:39:21:971,0,5.63993,-2.42097,-43.3311
2023-03-11 22:39:21:981,0,5.58403,-2.42589,-43.2671
2023-03-11 22:39:21:991,0,5.53577,-2.43278,-43.2064
2023-03-11 22:39:22:1,0,5.48872,-2.44095,-43.1476
2023-03-11 22:39:22:11,0,5.44994,-2.44146,-43.0962
2023-03-11 22:39:22:21,0,5.42164,-2.43654,-43.0587
2023-03-11 22:39:22:31,0,5.39955,-2.42289,-43.0328
2023-03-11 22:39:22:41,0,5.3872,-2.41612,-43.0194
2023-03-11 22:39:22:51,0,5.39309,-2.40968,-43.0041
2023-03-11 22:39:22:61,0,5.40745,-2.40678,-43.001
2023-03-11 22:39:22:71,0,5.42886,-2.39876,-43.0163
2023-03-11 22:39:22:81,0,5.45599,-2.38696,-43.0498
2023-03-11 22:39:22:91,0,5.48446,-2.37972,-43.0934
2023-03-11 22:39:22:101,0,5.51087,-2.37726,-43.1385
2023-03-11 22:39:22:111,0,5.53457,-2.37779,-43.1958
2023-03-11 22:39:22:121,0,5.5594,-2.38747,-43.2537
2023-03-11 22:39:22:131,0,5.58652,-2.40026,-43.3116
2023-03-11 22:39:22:141,0,5.61107,-2.42067,-43.3646
2023-03-11 22:39:22:151,0,5.63467,-2.44682,-43.4083
2023-03-11 22:39:22:161,0,5.65489,-2.4773,-43.449
2023-03-11 22:39:22:171,0,5.67193,-2.51007,-43.4861
2023-03-11 22:39:22:181,0,5.68916,-2.53903,-43.5133
2023-03-11 22:39:22:191,0,5.70707,-2.56475,-43.5299
2023-03-11 22:39:22:201,0,5.72707,-2.58462,-43.537
2023-03-11 22:39:22:211,0,5.74779,-2.60167,-43.5337
2023-03-11 22:39:22:221,0,5.77094,-2.61416,-43.5242
2023-03-11 22:39:22:231,0,5.79429,-2.62592,-43.5044
2023-03-11 22:39:22:241,0,5.81552,-2.63653,-43.4774
2023-03-11 22:39:22:251,0,5.83222,-2.65209,-43.4466
2023-03-11 22:39:22:261,0,5.83757,-2.6685,-43.4132
2023-03-11 22:39:22:271,0,5.8327,-2.68181,-43.3745
2023-03-11 22:39:22:281,0,5.81975,-2.69506,-43.3386
2023-03-11 22:39:22:291,0,5.79939,-2.70937,-43.2969
2023-03-11 22:39:22:301,0,5.77334,-2.71889,-43.2564
2023-03-11 22:39:22:311,0,5.74738,-2.72523,-43.2183
2023-03-11 22:39:22:321,0,5.72826,-2.72746,-43.1894
2023-03-11 22:39:22:331,0,5.72209,-2.7278,-43.168
2023-03-11 22:39:22:341,0,5.71291,-2.72544,-43.1494
2023-03-11 22:39:22:351,0,5.70942,-2.72777,-43.1301
2023-03-11 22:39:22:361,0,5.70818,-2.73717,-43.1088
2023-03-11 22:39:22:371,0,5.70906,-2.7474,-43.095
2023-03-11 22:39:22:381,0,5.71492,-2.76123,-43.0888
2023-03-11 22:39:22:391,0,5.72365,-2.77398,-43.0873
2023-03-11 22:39:22:401,0,5.73314,-2.78084,-43.0923
2023-03-11 22:39:22:411,0,5.74592,-2.78753,-43.1023
2023-03-11 22:39:22:421,0,5.76732,-2.79225,-43.1177
2023-03-11 22:39:22:431,0,5.78951,-2.79198,-43.1407
2023-03-11 22:39:22:441,0,5.81508,-2.78648,-43.1643
2023-03-11 22:39:22:451,0,5.8401,-2.77731,-43.1905
2023-03-11 22:39:22:461,0,5.8569,-2.76348,-43.2165
2023-03-11 22:39:22:471,0,5.8637,-2.74836,-43.2351
2023-03-11 22:39:22:481,0,5.86227,-2.73423,-43.2434
2023-03-11 22:39:22:491,0,5.84814,-2.7205,-43.2499
2023-03-11 22:39:22:501,0,5.82131,-2.70568,-43.2543
2023-03-11 22:39:22:511,0,5.78663,-2.69466,-43.2585
2023-03-11 22:39:22:521,0,5.74764,-2.69114,-43.2627
2023-03-11 22:39:22:531,0,5.71301,-2.69568,-43.2786
2023-03-11 22:39:22:541,0,5.68988,-2.70398,-43.3241
2023-03-11 22:39:22:551,0,5.67018,-2.70852,-43.4053
2023-03-11 22:39:22:561,0,5.66101,-2.71144,-43.5103
2023-03-11 22:39:22:571,0,5.66821,-2.71034,-43.6492
2023-03-11 22:39:22:581,0,5.68822,-2.70561,-43.8113
2023-03-11 22:39:22:591,0,5.71518,-2.7004,-43.9917
2023-03-11 22:39:22:601,0,5.7435,-2.6946,-44.1761
2023-03-11 22:39:22:611,0,5.77116,-2.69648,-44.3613
2023-03-11 22:39:22:621,0,5.79781,-2.71136,-44.5386
2023-03-11 22:39:22:631,0,5.81858,-2.73637,-44.7055
2023-03-11 22:39:22:641,0,5.83501,-2.77405,-44.8619
2023-03-11 22:39:22:651,0,5.85358,-2.81845,-45.0041
2023-03-11 22:39:22:661,0,5.87211,-2.85483,-45.1385
2023-03-11 22:39:22:671,0,5.89083,-2.88351,-45.2682
2023-03-11 22:39:22:681,0,5.91004,-2.89535,-45.3876
2023-03-11 22:39:22:691,0,5.93258,-2.88972,-45.4886
2023-03-11 22:39:22:701,0,5.94918,-2.87356,-45.5703
2023-03-11 22:39:22:711,0,5.95967,-2.84342,-45.6338
2023-03-11 22:39:22:721,0,5.96799,-2.80255,-45.6763
2023-03-11 22:39:22:731,0,5.96896,-2.75469,-45.6959
2023-03-11 22:39:22:741,0,5.96966,-2.69769,-45.7052
2023-03-11 22:39:22:751,0,5.97407,-2.63888,-45.7115
2023-03-11 22:39:22:761,0,5.9808,-2.57262,-45.7107
2023-03-11 22:39:22:771,0,5.99114,-2.50765,-45.7042
2023-03-11 22:39:22:781,0,6.00693,-2.43957,-45.6993
2023-03-11 22:39:22:791,0,6.02528,-2.37463,-45.692
2023-03-11 22:39:22:801,0,6.03979,-2.31583,-45.6841
2023-03-11 22:39:22:811,0,6.05126,-2.26591,-45.6779
2023-03-11 22:39:22:821,0,6.05927,-2.22485,-45.6717
2023-03-11 22:39:22:831,0,6.06651,-2.20044,-45.6687
2023-03-11 22:39:22:841,0,6.07466,-2.19453,-45.6558
2023-03-11 22:39:22:851,0,6.0888,-2.2061,-45.6364
2023-03-11 22:39:22:861,0,6.09503,-2.22979,-45.6182
2023-03-11 22:39:22:871,0,6.10337,-2.26304,-45.5994
2023-03-11 22:39:22:881,0,6.10796,-2.30229,-45.5772
2023-03-11 22:39:22:891,0,6.10751,-2.34523,-45.5491
2023-03-11 22:39:22:901,0,6.09927,-2.39167,-45.5142
2023-03-11 22:39:22:911,0,6.0941,-2.44286,-45.4682
2023-03-11 22:39:22:921,0,6.09453,-2.49575,-45.4153
2023-03-11 22:39:22:931,0,6.10869,-2.54422,-45.3625
2023-03-11 22:39:22:941,0,6.12292,-2.58661,-45.2984
2023-03-11 22:39:22:951,0,6.12955,-2.62052,-45.2278
2023-03-11 22:39:22:961,0,6.13218,-2.64745,-45.1552
2023-03-11 22:39:22:971,0,6.13529,-2.67118,-45.0795
2023-03-11 22:39:22:981,0,6.13905,-2.6878,-45.0072
2023-03-11 22:39:22:991,0,6.13972,-2.69861,-44.9362
2023-03-11 22:39:23:1,0,6.14393,-2.7073,-44.8626
2023-03-11 22:39:23:11,0,6.1487,-2.71393,-44.7866
2023-03-11 22:39:23:21,0,6.15214,-2.71615,-44.7185
2023-03-11 22:39:23:31,0,6.1565,-2.71142,-44.6578
2023-03-11 22:39:23:41,0,6.16195,-2.70148,-44.6105
2023-03-11 22:39:23:51,0,6.16702,-2.68881,-44.5673
2023-03-11 22:39:23:61,0,6.17694,-2.67357,-44.5292
2023-03-11 22:39:23:71,0,6.19354,-2.65596,-44.503
2023-03-11 22:39:23:81,0,6.20982,-2.63343,-44.4877
2023-03-11 22:39:23:91,0,6.23571,-2.60898,-44.4836
2023-03-11 22:39:23:101,0,6.27054,-2.5758,-44.4849
2023-03-11 22:39:23:111,0,6.30882,-2.53934,-44.4956
2023-03-11 22:39:23:121,0,6.34968,-2.49815,-44.5203
2023-03-11 22:39:23:131,0,6.39112,-2.44779,-44.5541
2023-03-11 22:39:23:141,0,6.43246,-2.39196,-44.5954
2023-03-11 22:39:23:151,0,6.46449,-2.33283,-44.6416
2023-03-11 22:39:23:161,0,6.48353,-2.2761,-44.6917
2023-03-11 22:39:23:171,0,6.49121,-2.22527,-44.7441
2023-03-11 22:39:23:181,0,6.49137,-2.18167,-44.8009
2023-03-11 22:39:23:191,0,6.49619,-2.14749,-44.8703
2023-03-11 22:39:23:201,0,6.52028,-2.11156,-44.9476
2023-03-11 22:39:23:211,0,6.55575,-2.06928,-45.0155
2023-03-11 22:39:23:221,0,6.59088,-2.03028,-45.0832
2023-03-11 22:39:23:230,0,6.62421,-1.99115,-45.1455
2023-03-11 22:39:23:241,0,6.65964,-1.96026,-45.2025
2023-03-11 22:39:23:251,0,6.69445,-1.93715,-45.2491
2023-03-11 22:39:23:261,0,6.72613,-1.9168,-45.2818
2023-03-11 22:39:23:271,0,6.75467,-1.9007,-45.3123
2023-03-11 22:39:23:281,0,6.78071,-1.89491,-45.3303
2023-03-11 22:39:23:291,0,6.80531,-1.89622,-45.3415
2023-03-11 22:39:23:301,0,6.83067,-1.89681,-45.3545
2023-03-11 22:39:23:311,0,6.85102,-1.90317,-45.3566
2023-03-11 22:39:23:321,0,6.86716,-1.92067,-45.3552
2023-03-11 22:39:23:331,0,6.87966,-1.9463,-45.3461
2023-03-11 22:39:23:341,0,6.88244,-1.9825,-45.3368
2023-03-11 22:39:23:351,0,6.88073,-2.0206,-45.3291
2023-03-11 22:39:23:361,0,6.87692,-2.06,-45.321
2023-03-11 22:39:23:371,0,6.87213,-2.10683,-45.3106
2023-03-11 22:39:23:381,0,6.86395,-2.16023,-45.2895
2023-03-11 22:39:23:391,0,6.85128,-2.21996,-45.2605
2023-03-11 22:39:23:401,0,6.83078,-2.28044,-45.224
2023-03-11 22:39:23:411,0,6.80403,-2.34105,-45.1792
2023-03-11 22:39:23:421,0,6.77302,-2.40033,-45.1283
2023-03-11 22:39:23:431,0,6.74421,-2.45994,-45.0727
2023-03-11 22:39:23:441,0,6.70883,-2.51848,-45.0163
2023-03-11 22:39:23:451,0,6.67533,-2.57446,-44.9554
2023-03-11 22:39:23:461,0,6.64695,-2.62691,-44.8947
2023-03-11 22:39:23:471,0,6.61858,-2.67708,-44.8392
2023-03-11 22:39:23:481,0,6.59379,-2.72058,-44.7883
2023-03-11 22:39:23:491,0,6.57447,-2.75731,-44.7442
2023-03-11 22:39:23:501,0,6.56008,-2.78878,-44.7029
2023-03-11 22:39:23:511,0,6.54727,-2.81637,-44.6696
2023-03-11 22:39:23:521,0,6.54542,-2.84022,-44.6448
2023-03-11 22:39:23:531,0,6.546,-2.86542,-44.6301
2023-03-11 22:39:23:541,0,6.54107,-2.88909,-44.617
2023-03-11 22:39:23:551,0,6.53653,-2.91088,-44.6114
2023-03-11 22:39:23:561,0,6.52787,-2.93111,-44.6101
2023-03-11 22:39:23:571,0,6.52149,-2.95419,-44.6044
2023-03-11 22:39:23:581,0,6.51414,-2.98129,-44.5959
2023-03-11 22:39:23:591,0,6.50372,-3.0113,-44.5915
2023-03-11 22:39:23:601,0,6.48811,-3.03696,-44.5929
2023-03-11 22:39:23:611,0,6.47129,-3.06144,-44.6005
2023-03-11 22:39:23:621,0,6.44834,-3.08954,-44.6129
2023-03-11 22:39:23:631,0,6.42427,-3.11937,-44.6321
2023-03-11 22:39:23:641,0,6.39329,-3.15315,-44.6551
2023-03-11 22:39:23:651,0,6.35649,-3.194,-44.6817
2023-03-11 22:39:23:661,0,6.31183,-3.23426,-44.7029
2023-03-11 22:39:23:671,0,6.26769,-3.27744,-44.7186
2023-03-11 22:39:23:681,0,6.21643,-3.31755,-44.7276
2023-03-11 22:39:23:691,0,6.16589,-3.35127,-44.7297
2023-03-11 22:39:23:701,0,6.11741,-3.3817,-44.7172
2023-03-11 22:39:23:711,0,6.06951,-3.40957,-44.694
2023-03-11 22:39:23:721,0,6.02448,-3.436,-44.6646
2023-03-11 22:39:23:731,0,5.98737,-3.45975,-44.6278
2023-03-11 22:39:23:741,0,5.95594,-3.4842,-44.5842
2023-03-11 22:39:23:751,0,5.93409,-3.51157,-44.5372
2023-03-11 22:39:23:761,0,5.91665,-3.53424,-44.4872
2023-03-11 22:39:23:771,0,5.90705,-3.55029,-44.4426
2023-03-11 22:39:23:781,0,5.91039,-3.56587,-44.4046
2023-03-11 22:39:23:791,0,5.91852,-3.57742,-44.3749
2023-03-11 22:39:23:801,0,5.93329,-3.59078,-44.3519
2023-03-11 22:39:23:811,0,5.95307,-3.60572,-44.3354
2023-03-11 22:39:23:821,0,5.97726,-3.61682,-44.3329
2023-03-11 22:39:23:831,0,6.0022,-3.62984,-44.337
2023-03-11 22:39:23:841,0,6.02442,-3.64015,-44.3516
2023-03-11 22:39:23:851,0,6.0469,-3.64692,-44.3783
2023-03-11 22:39:23:861,0,6.0666,-3.65119,-44.4026
2023-03-11 22:39:23:871,0,6.08506,-3.65277,-44.4335
2023-03-11 22:39:23:881,0,6.10046,-3.65569,-44.4592
2023-03-11 22:39:23:891,0,6.12126,-3.6674,-44.4771
2023-03-11 22:39:23:901,0,6.14828,-3.68373,-44.49
2023-03-11 22:39:23:911,0,6.17201,-3.69542,-44.4921
2023-03-11 22:39:23:921,0,6.20119,-3.71254,-44.4971
2023-03-11 22:39:23:931,0,6.23062,-3.72396,-44.4997
2023-03-11 22:39:23:941,0,6.2524,-3.72935,-44.504
2023-03-11 22:39:23:951,0,6.26789,-3.72904,-44.5123
2023-03-11 22:39:23:961,0,6.27813,-3.72048,-44.5213
2023-03-11 22:39:23:971,0,6.28963,-3.7094,-44.5281
2023-03-11 22:39:23:981,0,6.29431,-3.70209,-44.5298
2023-03-11 22:39:23:991,0,6.30424,-3.69508,-44.5275
2023-03-11 22:39:24:1,0,6.31517,-3.6903,-44.5292
2023-03-11 22:39:24:11,0,6.32556,-3.68103,-44.5387
2023-03-11 22:39:24:21,0,6.33947,-3.67193,-44.5507
2023-03-11 22:39:24:31,0,6.35434,-3.66464,-44.5614
2023-03-11 22:39:24:41,0,6.36917,-3.65692,-44.5754
2023-03-11 22:39:24:51,0,6.38313,-3.65132,-44.5961
2023-03-11 22:39:24:61,0,6.39591,-3.64606,-44.6222
2023-03-11 22:39:24:71,0,6.40458,-3.64009,-44.6528
2023-03-11 22:39:24:81,0,6.41158,-3.63878,-44.6922
2023-03-11 22:39:24:91,0,6.41007,-3.63814,-44.7363
2023-03-11 22:39:24:101,0,6.39982,-3.63728,-44.7843
2023-03-11 22:39:24:111,0,6.38977,-3.63417,-44.8405
2023-03-11 22:39:24:121,0,6.37654,-3.6331,-44.8943
2023-03-11 22:39:24:131,0,6.36532,-3.63746,-44.9448
2023-03-11 22:39:24:141,0,6.35213,-3.64603,-44.9907
2023-03-11 22:39:24:151,0,6.33754,-3.65468,-45.0344
2023-03-11 22:39:24:161,0,6.32165,-3.66357,-45.0736
2023-03-11 22:39:24:171,0,6.30577,-3.67434,-45.1121
2023-03-11 22:39:24:181,0,6.29166,-3.68561,-45.1417
2023-03-11 22:39:24:191,0,6.27851,-3.70198,-45.1681
2023-03-11 22:39:24:201,0,6.26751,-3.72305,-45.1947
2023-03-11 22:39:24:211,0,6.25922,-3.75078,-45.2267
2023-03-11 22:39:24:221,0,6.25496,-3.77903,-45.2605
2023-03-11 22:39:24:231,0,6.25657,-3.79684,-45.299
2023-03-11 22:39:24:241,0,6.26034,-3.80987,-45.3354
2023-03-11 22:39:24:251,0,6.27124,-3.83169,-45.3601
2023-03-11 22:39:24:261,0,6.2904,-3.84987,-45.3811
2023-03-11 22:39:24:271,0,6.31109,-3.87245,-45.3903
2023-03-11 22:39:24:281,0,6.33628,-3.89418,-45.3888
2023-03-11 22:39:24:291,0,6.36509,-3.92114,-45.3757
2023-03-11 22:39:24:301,0,6.39275,-3.95144,-45.3564
2023-03-11 22:39:24:311,0,6.41216,-3.9776,-45.3291
2023-03-11 22:39:24:321,0,6.42624,-4.0035,-45.299
2023-03-11 22:39:24:331,0,6.43369,-4.02772,-45.2647
2023-03-11 22:39:24:341,0,6.44117,-4.04891,-45.2313
2023-03-11 22:39:24:351,0,6.44405,-4.0632,-45.1952
2023-03-11 22:39:24:361,0,6.44742,-4.07934,-45.1587
2023-03-11 22:39:24:371,0,6.44802,-4.09471,-45.13
2023-03-11 22:39:24:381,0,6.44835,-4.10557,-45.1006
2023-03-11 22:39:24:391,0,6.44872,-4.11292,-45.0768
2023-03-11 22:39:24:401,0,6.44799,-4.122,-45.0586
2023-03-11 22:39:24:411,0,6.44233,-4.12888,-45.04
2023-03-11 22:39:24:421,0,6.43247,-4.13271,-45.0257
2023-03-11 22:39:24:431,0,6.41536,-4.14003,-45.018
2023-03-11 22:39:24:441,0,6.39571,-4.14868,-45.0105
2023-03-11 22:39:24:451,0,6.37086,-4.15374,-45.0132
2023-03-11 22:39:24:461,0,6.34751,-4.16105,-45.0234
2023-03-11 22:39:24:471,0,6.32576,-4.16771,-45.0393
2023-03-11 22:39:24:481,0,6.30746,-4.17263,-45.0651
2023-03-11 22:39:24:491,0,6.2943,-4.17373,-45.0969
2023-03-11 22:39:24:501,0,6.28339,-4.17472,-45.1337
2023-03-11 22:39:24:511,0,6.28474,-4.17071,-45.1694
2023-03-11 22:39:24:521,0,6.29349,-4.16928,-45.2056
2023-03-11 22:39:24:531,0,6.30751,-4.16593,-45.2429
2023-03-11 22:39:24:541,0,6.32664,-4.16017,-45.2836
2023-03-11 22:39:24:551,0,6.34867,-4.15279,-45.326
2023-03-11 22:39:24:561,0,6.36954,-4.14704,-45.3716
2023-03-11 22:39:24:571,0,6.38826,-4.13514,-45.4135
2023-03-11 22:39:24:581,0,6.40776,-4.13178,-45.4554
2023-03-11 22:39:24:591,0,6.426,-4.12715,-45.4888
2023-03-11 22:39:24:601,0,6.44706,-4.12574,-45.5185
2023-03-11 22:39:24:611,0,6.4732,-4.12273,-45.5447
2023-03-11 22:39:24:621,0,6.50193,-4.11422,-45.5692
2023-03-11 22:39:24:631,0,6.53017,-4.10302,-45.5836
2023-03-11 22:39:24:641,0,6.55945,-4.09119,-45.5948
2023-03-11 22:39:24:651,0,6.5882,-4.0815,-45.6032
2023-03-11 22:39:24:661,0,6.614,-4.07096,-45.6119
2023-03-11 22:39:24:671,0,6.63954,-4.06088,-45.6251
2023-03-11 22:39:24:681,0,6.6629,-4.04916,-45.6404
2023-03-11 22:39:24:691,0,6.68017,-4.03835,-45.6605
2023-03-11 22:39:24:701,0,6.70409,-4.02375,-45.6833
2023-03-11 22:39:24:711,0,6.72383,-4.01454,-45.7036
2023-03-11 22:39:24:721,0,6.74717,-4.00507,-45.7198
2023-03-11 22:39:24:731,0,6.76949,-3.99252,-45.7356
2023-03-11 22:39:24:741,0,6.79472,-3.97574,-45.7419
2023-03-11 22:39:24:751,0,6.82019,-3.9552,-45.7448
2023-03-11 22:39:24:761,0,6.84615,-3.93894,-45.742
2023-03-11 22:39:24:771,0,6.86797,-3.91785,-45.7321
2023-03-11 22:39:24:781,0,6.89375,-3.89699,-45.7201
2023-03-11 22:39:24:791,0,6.91949,-3.88095,-45.7065
2023-03-11 22:39:24:801,0,6.94174,-3.85871,-45.6941
2023-03-11 22:39:24:811,0,6.96033,-3.83559,-45.6876
2023-03-11 22:39:24:821,0,6.97681,-3.81215,-45.6853
2023-03-11 22:39:24:831,0,6.99105,-3.79182,-45.6819
2023-03-11 22:39:24:841,0,7.00474,-3.76753,-45.6813
2023-03-11 22:39:24:851,0,7.01584,-3.7444,-45.682
2023-03-11 22:39:24:861,0,7.02578,-3.72216,-45.684
2023-03-11 22:39:24:871,0,7.03491,-3.699,-45.6883
2023-03-11 22:39:24:881,0,7.03685,-3.68059,-45.6985
2023-03-11 22:39:24:891,0,7.0323,-3.66027,-45.7022
2023-03-11 22:39:24:901,0,7.03138,-3.64329,-45.7119
2023-03-11 22:39:24:911,0,7.02739,-3.63098,-45.7164
2023-03-11 22:39:24:921,0,7.02568,-3.62028,-45.7243
2023-03-11 22:39:24:931,0,7.01815,-3.61341,-45.7306
2023-03-11 22:39:24:941,0,7.0126,-3.59927,-45.7402
2023-03-11 22:39:24:951,0,7.00543,-3.58278,-45.7503
2023-03-11 22:39:24:961,0,6.9993,-3.5715,-45.7591
2023-03-11 22:39:24:971,0,6.99878,-3.56253,-45.7687
2023-03-11 22:39:24:981,0,6.99646,-3.55301,-45.7852
2023-03-11 22:39:24:991,0,6.99981,-3.54201,-45.81
2023-03-11 22:39:25:1,0,7.00552,-3.5355,-45.8387
2023-03-11 22:39:25:11,0,7.01159,-3.53317,-45.8694
2023-03-11 22:39:25:21,0,7.01538,-3.53285,-45.9052
2023-03-11 22:39:25:31,0,7.01366,-3.53386,-45.944
2023-03-11 22:39:25:41,0,7.00685,-3.53613,-45.9818
2023-03-11 22:39:25:51,0,6.99903,-3.5383,-46.0196
2023-03-11 22:39:25:61,0,6.99496,-3.54375,-46.0595
2023-03-11 22:39:25:71,0,6.99377,-3.54784,-46.0996
2023-03-11 22:39:25:81,0,6.99131,-3.54164,-46.1478
2023-03-11 22:39:25:91,0,6.9845,-3.52834,-46.2044
2023-03-11 22:39:25:101,0,6.97796,-3.51231,-46.2618
2023-03-11 22:39:25:111,0,6.97457,-3.49485,-46.3202
2023-03-11 22:39:25:121,0,6.96598,-3.4841,-46.3775
2023-03-11 22:39:25:131,0,6.95319,-3.47005,-46.4406
2023-03-11 22:39:25:141,0,6.94076,-3.45389,-46.5066
2023-03-11 22:39:25:151,0,6.93143,-3.44597,-46.5684
2023-03-11 22:39:25:161,0,6.92258,-3.44372,-46.6319
2023-03-11 22:39:25:171,0,6.91695,-3.4389,-46.6923
2023-03-11 22:39:25:181,0,6.90657,-3.43658,-46.7535
2023-03-11 22:39:25:191,0,6.89602,-3.43466,-46.8129
2023-03-11 22:39:25:201,0,6.87592,-3.43075,-46.8682
2023-03-11 22:39:25:211,0,6.85607,-3.42821,-46.9205
2023-03-11 22:39:25:221,0,6.83606,-3.42838,-46.9686
2023-03-11 22:39:25:231,0,6.822,-3.4391,-47.0158
2023-03-11 22:39:25:241,0,6.80813,-3.45283,-47.059
2023-03-11 22:39:25:251,0,6.80452,-3.46278,-47.1012
2023-03-11 22:39:25:261,0,6.80139,-3.47848,-47.1339
2023-03-11 22:39:25:271,0,6.80951,-3.49666,-47.154
2023-03-11 22:39:25:281,0,6.81984,-3.52159,-47.1719
2023-03-11 22:39:25:291,0,6.83561,-3.54863,-47.1844
2023-03-11 22:39:25:301,0,6.85247,-3.58139,-47.1847
2023-03-11 22:39:25:311,0,6.86935,-3.61136,-47.1787
2023-03-11 22:39:25:321,0,6.8876,-3.63389,-47.1677
2023-03-11 22:39:25:331,0,6.90988,-3.65136,-47.1494
2023-03-11 22:39:25:341,0,6.92719,-3.66899,-47.122
2023-03-11 22:39:25:351,0,6.95157,-3.68865,-47.0929
2023-03-11 22:39:25:361,0,6.97725,-3.70928,-47.0613
2023-03-11 22:39:25:371,0,7.00425,-3.73,-47.0239
2023-03-11 22:39:25:381,0,7.03385,-3.7463,-46.9832
2023-03-11 22:39:25:391,0,7.05719,-3.76794,-46.9426
2023-03-11 22:39:25:401,0,7.07827,-3.79158,-46.9067
2023-03-11 22:39:25:411,0,7.09691,-3.81474,-46.8833
2023-03-11 22:39:25:421,0,7.11372,-3.83946,-46.8647
2023-03-11 22:39:25:431,0,7.12616,-3.86299,-46.8543
2023-03-11 22:39:25:441,0,7.13922,-3.8877,-46.8484
2023-03-11 22:39:25:451,0,7.15522,-3.91488,-46.8451
2023-03-11 22:39:25:461,0,7.1702,-3.94389,-46.8418
2023-03-11 22:39:25:471,0,7.18499,-3.98036,-46.8335
2023-03-11 22:39:25:481,0,7.20272,-4.01493,-46.8302
2023-03-11 22:39:25:491,0,7.2151,-4.04111,-46.8337
2023-03-11 22:39:25:501,0,7.21801,-4.04755,-46.8527
2023-03-11 22:39:25:511,0,7.20884,-4.04096,-46.8855
2023-03-11 22:39:25:521,0,7.19067,-4.02321,-46.9291
2023-03-11 22:39:25:531,0,7.16417,-4.00261,-46.9772
2023-03-11 22:39:25:541,0,7.14,-3.98192,-47.0305
2023-03-11 22:39:25:551,0,7.11958,-3.96289,-47.0848
2023-03-11 22:39:25:561,0,7.10073,-3.94267,-47.1397
2023-03-11 22:39:25:571,0,7.08863,-3.92203,-47.1912
2023-03-11 22:39:25:581,0,7.07889,-3.90471,-47.2382
2023-03-11 22:39:25:591,0,7.07723,-3.8889,-47.2775
2023-03-11 22:39:25:601,0,7.0817,-3.87548,-47.3109
2023-03-11 22:39:25:611,0,7.09017,-3.86228,-47.3355
2023-03-11 22:39:25:621,0,7.09574,-3.84581,-47.3524
2023-03-11 22:39:25:631,0,7.10472,-3.83105,-47.3564
2023-03-11 22:39:25:641,0,7.11291,-3.81157,-47.3512
2023-03-11 22:39:25:651,0,7.11753,-3.79402,-47.337
2023-03-11 22:39:25:661,0,7.12125,-3.77662,-47.3173
2023-03-11 22:39:25:671,0,7.12508,-3.7572,-47.2942
2023-03-11 22:39:25:681,0,7.12781,-3.73802,-47.2671
2023-03-11 22:39:25:691,0,7.12944,-3.71568,-47.2418
2023-03-11 22:39:25:701,0,7.13218,-3.69452,-47.2143
2023-03-11 22:39:25:711,0,7.1347,-3.6782,-47.1829
2023-03-11 22:39:25:721,0,7.1331,-3.66803,-47.1507
2023-03-11 22:39:25:731,0,7.12943,-3.65808,-47.1306
2023-03-11 22:39:25:741,0,7.11785,-3.64528,-47.1113
2023-03-11 22:39:25:751,0,7.10709,-3.63186,-47.0956
2023-03-11 22:39:25:761,0,7.08987,-3.61711,-47.0818
2023-03-11 22:39:25:771,0,7.07027,-3.60411,-47.0707
2023-03-11 22:39:25:781,0,7.04789,-3.58918,-47.0645
2023-03-11 22:39:25:791,0,7.02667,-3.57114,-47.0582
2023-03-11 22:39:25:801,0,7.00961,-3.55411,-47.0514
2023-03-11 22:39:25:811,0,6.9943,-3.53833,-47.0426
2023-03-11 22:39:25:821,0,6.97936,-3.52175,-47.0352
2023-03-11 22:39:25:831,0,6.96854,-3.50651,-47.0268
2023-03-11 22:39:25:841,0,6.9573,-3.49106,-47.0164
2023-03-11 22:39:25:851,0,6.94288,-3.47893,-47.004
2023-03-11 22:39:25:861,0,6.92792,-3.47183,-46.9879
2023-03-11 22:39:25:871,0,6.90708,-3.46295,-46.9726
2023-03-11 22:39:25:881,0,6.88758,-3.4535,-46.9563
2023-03-11 22:39:25:891,0,6.86997,-3.44737,-46.9399
2023-03-11 22:39:25:901,0,6.84799,-3.44655,-46.9208
2023-03-11 22:39:25:911,0,6.82712,-3.43763,-46.9043
2023-03-11 22:39:25:921,0,6.81244,-3.42797,-46.8894
2023-03-11 22:39:25:931,0,6.80163,-3.42381,-46.869
2023-03-11 22:39:25:941,0,6.79498,-3.41877,-46.848
2023-03-11 22:39:25:951,0,6.79135,-3.42049,-46.8265
2023-03-11 22:39:25:961,0,6.78986,-3.42053,-46.8053
2023-03-11 22:39:25:971,0,6.79259,-3.41963,-46.7861
2023-03-11 22:39:25:981,0,6.79365,-3.41958,-46.7683
2023-03-11 22:39:25:991,0,6.79513,-3.41678,-46.7504
2023-03-11 22:39:26:1,0,6.79534,-3.41585,-46.7346
2023-03-11 22:39:26:11,0,6.793,-3.4126,-46.7211
2023-03-11 22:39:26:21,0,6.79115,-3.41543,-46.7094
2023-03-11 22:39:26:31,0,6.79051,-3.41773,-46.6973
2023-03-11 22:39:26:41,0,6.79424,-3.41582,-46.6889
2023-03-11 22:39:26:51,0,6.789,-3.41453,-46.6826
2023-03-11 22:39:26:61,0,6.78926,-3.41757,-46.6795
2023-03-11 22:39:26:71,0,6.79052,-3.42296,-46.6804
2023-03-11 22:39:26:81,0,6.78943,-3.42629,-46.6839
2023-03-11 22:39:26:91,0,6.79162,-3.42652,-46.6877
2023-03-11 22:39:26:101,0,6.78899,-3.42961,-46.6888
2023-03-11 22:39:26:111,0,6.7886,-3.4345,-46.6907
2023-03-11 22:39:26:121,0,6.78828,-3.4445,-46.6922
2023-03-11 22:39:26:131,0,6.78547,-3.4534,-46.6946
2023-03-11 22:39:26:141,0,6.77994,-3.45662,-46.6969
2023-03-11 22:39:26:151,0,6.77652,-3.46063,-46.6961
2023-03-11 22:39:26:161,0,6.77198,-3.46387,-46.695
2023-03-11 22:39:26:171,0,6.76149,-3.46517,-46.6927
2023-03-11 22:39:26:181,0,6.75174,-3.46647,-46.6957
2023-03-11 22:39:26:191,0,6.74195,-3.46739,-46.6974
2023-03-11 22:39:26:201,0,6.73547,-3.46983,-46.6985
2023-03-11 22:39:26:211,0,6.72759,-3.47156,-46.7004
2023-03-11 22:39:26:221,0,6.71337,-3.47321,-46.7013
2023-03-11 22:39:26:231,0,6.70285,-3.4738,-46.7043
2023-03-11 22:39:26:241,0,6.69033,-3.47804,-46.7045
2023-03-11 22:39:26:251,0,6.67965,-3.48282,-46.7033
2023-03-11 22:39:26:261,0,6.6643,-3.48622,-46.7042
2023-03-11 22:39:26:271,0,6.64591,-3.48955,-46.7034
2023-03-11 22:39:26:281,0,6.63126,-3.48942,-46.7044
2023-03-11 22:39:26:291,0,6.61972,-3.48802,-46.7055
2023-03-11 22:39:26:301,0,6.60989,-3.48404,-46.7046
2023-03-11 22:39:26:311,0,6.60559,-3.48339,-46.7097
2023-03-11 22:39:26:321,0,6.60252,-3.4773,-46.7163
2023-03-11 22:39:26:331,0,6.60138,-3.47332,-46.7212
2023-03-11 22:39:26:341,0,6.59667,-3.47018,-46.7241
2023-03-11 22:39:26:351,0,6.59227,-3.46608,-46.7324
2023-03-11 22:39:26:361,0,6.59215,-3.46283,-46.7461
2023-03-11 22:39:26:371,0,6.58973,-3.45824,-46.7625
2023-03-11 22:39:26:381,0,6.58351,-3.45113,-46.7835
2023-03-11 22:39:26:391,0,6.57917,-3.4497,-46.8013
2023-03-11 22:39:26:401,0,6.57093,-3.44891,-46.8138
2023-03-11 22:39:26:411,0,6.56486,-3.45119,-46.8255
2023-03-11 22:39:26:421,0,6.55253,-3.45632,-46.8417
2023-03-11 22:39:26:431,0,6.53325,-3.45705,-46.8581
2023-03-11 22:39:26:441,0,6.51928,-3.45302,-46.8796
2023-03-11 22:39:26:451,0,6.50111,-3.44747,-46.9003
2023-03-11 22:39:26:461,0,6.48195,-3.43399,-46.9151
2023-03-11 22:39:26:471,0,6.46108,-3.42222,-46.9286
2023-03-11 22:39:26:481,0,6.44028,-3.40761,-46.9491
2023-03-11 22:39:26:491,0,6.41923,-3.39115,-46.9707
2023-03-11 22:39:26:501,0,6.40342,-3.37618,-46.9944
2023-03-11 22:39:26:511,0,6.38991,-3.3607,-47.019
2023-03-11 22:39:26:521,0,6.37833,-3.3468,-47.0487
2023-03-11 22:39:26:531,0,6.36672,-3.33197,-47.0768
2023-03-11 22:39:26:541,0,6.35719,-3.31468,-47.1092
2023-03-11 22:39:26:551,0,6.35093,-3.29913,-47.1389
2023-03-11 22:39:26:561,0,6.34065,-3.28411,-47.1694
2023-03-11 22:39:26:571,0,6.32942,-3.27133,-47.1982
2023-03-11 22:39:26:581,0,6.32334,-3.25847,-47.2246
2023-03-11 22:39:26:591,0,6.32052,-3.24417,-47.2463
2023-03-11 22:39:26:601,0,6.31734,-3.22998,-47.2654
2023-03-11 22:39:26:611,0,6.31841,-3.21486,-47.2896
2023-03-11 22:39:26:621,0,6.32054,-3.19535,-47.3075
2023-03-11 22:39:26:631,0,6.32806,-3.18288,-47.3213
2023-03-11 22:39:26:641,0,6.33493,-3.17217,-47.3351
2023-03-11 22:39:26:651,0,6.34332,-3.16102,-47.3469
2023-03-11 22:39:26:661,0,6.35077,-3.14645,-47.3643
2023-03-11 22:39:26:671,0,6.36286,-3.13057,-47.3809
2023-03-11 22:39:26:681,0,6.37216,-3.11602,-47.3951
2023-03-11 22:39:26:691,0,6.381,-3.09998,-47.412
2023-03-11 22:39:26:701,0,6.38647,-3.08039,-47.4267
2023-03-11 22:39:26:711,0,6.39302,-3.06197,-47.4433
2023-03-11 22:39:26:721,0,6.39956,-3.04647,-47.4658
2023-03-11 22:39:26:731,0,6.40499,-3.03144,-47.4851
2023-03-11 22:39:26:741,0,6.40889,-3.01817,-47.5038
2023-03-11 22:39:26:751,0,6.40851,-3.00379,-47.5249
2023-03-11 22:39:26:761,0,6.40512,-2.98985,-47.5535
2023-03-11 22:39:26:771,0,6.40353,-2.97509,-47.5806
2023-03-11 22:39:26:781,0,6.39926,-2.96512,-47.6062
2023-03-11 22:39:26:791,0,6.39625,-2.9545,-47.6347
2023-03-11 22:39:26:801,0,6.39186,-2.95006,-47.6626
2023-03-11 22:39:26:811,0,6.38483,-2.93925,-47.6923
2023-03-11 22:39:26:821,0,6.37846,-2.92974,-47.7223
2023-03-11 22:39:26:831,0,6.37145,-2.9225,-47.7559
2023-03-11 22:39:26:841,0,6.36599,-2.91068,-47.7878
2023-03-11 22:39:26:851,0,6.36399,-2.89991,-47.8199
2023-03-11 22:39:26:861,0,6.35723,-2.88736,-47.8491
2023-03-11 22:39:26:871,0,6.35064,-2.87789,-47.8757
2023-03-11 22:39:26:881,0,6.33901,-2.86345,-47.9008
2023-03-11 22:39:26:891,0,6.32445,-2.85353,-47.9279
2023-03-11 22:39:26:901,0,6.30918,-2.8356,-47.954
2023-03-11 22:39:26:911,0,6.29058,-2.81729,-47.9831
2023-03-11 22:39:26:921,0,6.27225,-2.80294,-48.0119
2023-03-11 22:39:26:931,0,6.25358,-2.79174,-48.0425
2023-03-11 22:39:26:941,0,6.23336,-2.77886,-48.0778
2023-03-11 22:39:26:951,0,6.21522,-2.76698,-48.1095
2023-03-11 22:39:26:961,0,6.19602,-2.75524,-48.142
2023-03-11 22:39:26:971,0,6.17854,-2.74697,-48.1762
2023-03-11 22:39:26:981,0,6.16344,-2.74418,-48.2066
2023-03-11 22:39:26:991,0,6.15289,-2.73688,-48.2354
2023-03-11 22:39:27:1,0,6.13439,-2.73095,-48.267
2023-03-11 22:39:27:11,0,6.12019,-2.7207,-48.297
2023-03-11 22:39:27:21,0,6.10072,-2.71345,-48.3241
2023-03-11 22:39:27:31,0,6.08716,-2.70666,-48.3475
2023-03-11 22:39:27:41,0,6.07403,-2.6963,-48.3707
2023-03-11 22:39:27:51,0,6.06407,-2.68664,-48.3948
2023-03-11 22:39:27:61,0,6.05172,-2.67804,-48.4135
2023-03-11 22:39:27:71,0,6.03644,-2.67053,-48.4312
2023-03-11 22:39:27:81,0,6.01776,-2.66253,-48.4473
2023-03-11 22:39:27:91,0,6.00234,-2.65666,-48.4595
2023-03-11 22:39:27:101,0,5.98789,-2.65871,-48.4637
2023-03-11 22:39:27:111,0,5.97655,-2.6673,-48.4674
2023-03-11 22:39:27:121,0,5.96493,-2.68035,-48.4701
2023-03-11 22:39:27:131,0,5.95147,-2.69351,-48.4716
2023-03-11 22:39:27:141,0,5.93294,-2.69797,-48.4733
2023-03-11 22:39:27:151,0,5.91668,-2.70366,-48.4733
2023-03-11 22:39:27:161,0,5.89741,-2.70574,-48.4762
2023-03-11 22:39:27:171,0,5.8764,-2.70421,-48.4734
2023-03-11 22:39:27:181,0,5.85675,-2.70493,-48.4715
2023-03-11 22:39:27:191,0,5.83715,-2.70453,-48.4724
2023-03-11 22:39:27:201,0,5.81928,-2.70265,-48.4787
2023-03-11 22:39:27:211,0,5.80226,-2.70473,-48.4862
2023-03-11 22:39:27:221,0,5.78532,-2.70569,-48.4908
2023-03-11 22:39:27:231,0,5.77067,-2.7075,-48.5
2023-03-11 22:39:27:241,0,5.7532,-2.71295,-48.5095
2023-03-11 22:39:27:251,0,5.73011,-2.71478,-48.521
2023-03-11 22:39:27:261,0,5.7096,-2.71652,-48.5342
2023-03-11 22:39:27:271,0,5.69095,-2.71995,-48.5489
2023-03-11 22:39:27:281,0,5.67603,-2.72451,-48.5603
2023-03-11 22:39:27:291,0,5.65998,-2.72575,-48.573
2023-03-11 22:39:27:301,0,5.64473,-2.7248,-48.5854
2023-03-11 22:39:27:311,0,5.63579,-2.72246,-48.5989
2023-03-11 22:39:27:321,0,5.62696,-2.72093,-48.6144
2023-03-11 22:39:27:331,0,5.6284,-2.7223,-48.6221
2023-03-11 22:39:27:341,0,5.62592,-2.72266,-48.6289
2023-03-11 22:39:27:351,0,5.62518,-2.72671,-48.636
2023-03-11 22:39:27:361,0,5.62721,-2.72888,-48.641
2023-03-11 22:39:27:371,0,5.63201,-2.72673,-48.6494
2023-03-11 22:39:27:381,0,5.63328,-2.72494,-48.6576
2023-03-11 22:39:27:391,0,5.63096,-2.72055,-48.6611
2023-03-11 22:39:27:401,0,5.63231,-2.716,-48.6696
2023-03-11 22:39:27:411,0,5.63183,-2.71288,-48.6789
2023-03-11 22:39:27:421,0,5.62985,-2.7062,-48.6897
2023-03-11 22:39:27:431,0,5.62628,-2.70527,-48.6992
2023-03-11 22:39:27:441,0,5.62363,-2.70763,-48.7102
2023-03-11 22:39:27:451,0,5.62054,-2.70634,-48.7207
2023-03-11 22:39:27:461,0,5.61451,-2.70592,-48.7335
2023-03-11 22:39:27:471,0,5.6102,-2.70721,-48.7466
2023-03-11 22:39:27:481,0,5.60226,-2.71118,-48.756
2023-03-11 22:39:27:491,0,5.59483,-2.71308,-48.7689
2023-03-11 22:39:27:501,0,5.58682,-2.71573,-48.7787
2023-03-11 22:39:27:511,0,5.57844,-2.71687,-48.7883
2023-03-11 22:39:27:521,0,5.57183,-2.71755,-48.794
2023-03-11 22:39:27:531,0,5.56175,-2.71725,-48.7983
2023-03-11 22:39:27:541,0,5.5534,-2.71561,-48.8032
2023-03-11 22:39:27:551,0,5.54266,-2.7116,-48.807
2023-03-11 22:39:27:561,0,5.53491,-2.70798,-48.8138
2023-03-11 22:39:27:571,0,5.52594,-2.70336,-48.8175
2023-03-11 22:39:27:581,0,5.51878,-2.69978,-48.8178
2023-03-11 22:39:27:591,0,5.51346,-2.69534,-48.8218
2023-03-11 22:39:27:601,0,5.50481,-2.69296,-48.8255
2023-03-11 22:39:27:611,0,5.50283,-2.68866,-48.8311
2023-03-11 22:39:27:621,0,5.50146,-2.68335,-48.8382
2023-03-11 22:39:27:631,0,5.50148,-2.67781,-48.8492
2023-03-11 22:39:27:641,0,5.50364,-2.67252,-48.8584
2023-03-11 22:39:27:651,0,5.50414,-2.66729,-48.8678
2023-03-11 22:39:27:661,0,5.50802,-2.66935,-48.8781
2023-03-11 22:39:27:671,0,5.51071,-2.6638,-48.8848
2023-03-11 22:39:27:681,0,5.50883,-2.66026,-48.8929
2023-03-11 22:39:27:691,0,5.50667,-2.65868,-48.8988
2023-03-11 22:39:27:701,0,5.50368,-2.65711,-48.9063
2023-03-11 22:39:27:711,0,5.49743,-2.65817,-48.9156
2023-03-11 22:39:27:721,0,5.49218,-2.65658,-48.9165
2023-03-11 22:39:27:731,0,5.48365,-2.65913,-48.9141
2023-03-11 22:39:27:741,0,5.47494,-2.66213,-48.9118
2023-03-11 22:39:27:751,0,5.46351,-2.66495,-48.9084
2023-03-11 22:39:27:761,0,5.45284,-2.67225,-48.9001
2023-03-11 22:39:27:771,0,5.43944,-2.6833,-48.8925
2023-03-11 22:39:27:781,0,5.41891,-2.6968,-48.8838
2023-03-11 22:39:27:791,0,5.3983,-2.71302,-48.877
2023-03-11 22:39:27:801,0,5.37776,-2.73427,-48.8618
2023-03-11 22:39:27:811,0,5.35911,-2.76044,-48.8425
2023-03-11 22:39:27:821,0,5.33684,-2.78931,-48.8261
2023-03-11 22:39:27:831,0,5.31639,-2.81998,-48.8101
2023-03-11 22:39:27:841,0,5.29182,-2.84948,-48.798
2023-03-11 22:39:27:851,0,5.26479,-2.87354,-48.789
2023-03-11 22:39:27:861,0,5.241,-2.90162,-48.7816
2023-03-11 22:39:27:871,0,5.22199,-2.91949,-48.7719
2023-03-11 22:39:27:881,0,5.20295,-2.93659,-48.76
2023-03-11 22:39:27:891,0,5.19304,-2.94923,-48.7563
2023-03-11 22:39:27:901,0,5.18663,-2.95748,-48.7529
2023-03-11 22:39:27:911,0,5.18407,-2.9663,-48.7537
2023-03-11 22:39:27:921,0,5.18184,-2.97615,-48.7575
2023-03-11 22:39:27:931,0,5.18062,-2.98457,-48.7643
2023-03-11 22:39:27:941,0,5.1816,-2.99429,-48.7666
2023-03-11 22:39:27:951,0,5.18181,-3.00278,-48.7716
2023-03-11 22:39:27:961,0,5.17981,-3.01041,-48.778
2023-03-11 22:39:27:971,0,5.1761,-3.01639,-48.7824
2023-03-11 22:39:27:981,0,5.17222,-3.02415,-48.7866
2023-03-11 22:39:27:991,0,5.16705,-3.03152,-48.794
2023-03-11 22:39:28:1,0,5.16388,-3.0358,-48.8065
2023-03-11 22:39:28:11,0,5.1591,-3.03494,-48.8201
2023-03-11 22:39:28:21,0,5.15777,-3.0395,-48.8316
2023-03-11 22:39:28:31,0,5.15747,-3.04321,-48.8423
2023-03-11 22:39:28:41,0,5.15929,-3.04882,-48.8528
2023-03-11 22:39:28:51,0,5.16158,-3.0547,-48.8644
2023-03-11 22:39:28:61,0,5.16602,-3.05574,-48.8745
2023-03-11 22:39:28:71,0,5.1653,-3.05553,-48.8856
2023-03-11 22:39:28:81,0,5.16976,-3.05373,-48.8907
2023-03-11 22:39:28:91,0,5.16989,-3.05186,-48.8981
2023-03-11 22:39:28:101,0,5.17266,-3.05047,-48.9017
2023-03-11 22:39:28:111,0,5.17142,-3.04951,-48.9046
2023-03-11 22:39:28:121,0,5.17626,-3.05081,-48.906
2023-03-11 22:39:28:131,0,5.17771,-3.05396,-48.9096
2023-03-11 22:39:28:141,0,5.18137,-3.06169,-48.9133
2023-03-11 22:39:28:151,0,5.18474,-3.07242,-48.9125
2023-03-11 22:39:28:161,0,5.18912,-3.07918,-48.9112
2023-03-11 22:39:28:171,0,5.19245,-3.09164,-48.9082
2023-03-11 22:39:28:181,0,5.19454,-3.10523,-48.9034
2023-03-11 22:39:28:191,0,5.19986,-3.11748,-48.8971
2023-03-11 22:39:28:201,0,5.20839,-3.12913,-48.894
2023-03-11 22:39:28:211,0,5.21296,-3.13887,-48.8907
2023-03-11 22:39:28:221,0,5.21704,-3.14792,-48.8835
2023-03-11 22:39:28:231,0,5.21805,-3.15769,-48.8806
2023-03-11 22:39:28:241,0,5.2183,-3.16499,-48.8758
2023-03-11 22:39:28:251,0,5.22178,-3.17118,-48.8743
2023-03-11 22:39:28:261,0,5.21871,-3.17332,-48.8733
2023-03-11 22:39:28:271,0,5.21857,-3.17521,-48.8733
2023-03-11 22:39:28:281,0,5.21584,-3.17614,-48.875
2023-03-11 22:39:28:291,0,5.21417,-3.17645,-48.8785
2023-03-11 22:39:28:301,0,5.21512,-3.17323,-48.8928
2023-03-11 22:39:28:311,0,5.21622,-3.16806,-48.9056
2023-03-11 22:39:28:321,0,5.21673,-3.16607,-48.9217
2023-03-11 22:39:28:331,0,5.21835,-3.16274,-48.9394
2023-03-11 22:39:28:341,0,5.2168,-3.16028,-48.9545
2023-03-11 22:39:28:351,0,5.21727,-3.15952,-48.9673
2023-03-11 22:39:28:361,0,5.2202,-3.15952,-48.9779
2023-03-11 22:39:28:371,0,5.21955,-3.15332,-48.9872
2023-03-11 22:39:28:381,0,5.22267,-3.15026,-48.9921
2023-03-11 22:39:28:391,0,5.22483,-3.14664,-48.9958
2023-03-11 22:39:28:401,0,5.22825,-3.14883,-48.9946
2023-03-11 22:39:28:411,0,5.22854,-3.14581,-48.9971
2023-03-11 22:39:28:421,0,5.2341,-3.1415,-48.9941
2023-03-11 22:39:28:431,0,5.23925,-3.1436,-48.991
2023-03-11 22:39:28:441,0,5.2467,-3.14258,-48.9862
2023-03-11 22:39:28:451,0,5.25533,-3.14362,-48.9826
2023-03-11 22:39:28:461,0,5.26228,-3.14488,-48.9794
2023-03-11 22:39:28:471,0,5.26996,-3.14576,-48.9817
2023-03-11 22:39:28:481,0,5.27615,-3.15004,-48.9834
2023-03-11 22:39:28:491,0,5.28353,-3.15592,-48.9836
2023-03-11 22:39:28:501,0,5.29154,-3.16489,-48.9788
2023-03-11 22:39:28:511,0,5.29219,-3.17991,-48.9731
2023-03-11 22:39:28:521,0,5.29018,-3.19375,-48.9708
2023-03-11 22:39:28:531,0,5.28527,-3.20082,-48.9738
2023-03-11 22:39:28:541,0,5.27318,-3.20678,-48.9781
2023-03-11 22:39:28:551,0,5.26546,-3.2103,-48.9803
2023-03-11 22:39:28:561,0,5.25439,-3.20638,-48.9865
2023-03-11 22:39:28:571,0,5.24416,-3.20291,-48.9939
2023-03-11 22:39:28:581,0,5.23501,-3.19817,-49.0013
2023-03-11 22:39:28:591,0,5.22913,-3.19286,-49.0115
2023-03-11 22:39:28:601,0,5.22983,-3.18957,-49.0219
2023-03-11 22:39:28:611,0,5.23076,-3.18496,-49.0347
2023-03-11 22:39:28:621,0,5.22867,-3.17973,-49.0451
2023-03-11 22:39:28:631,0,5.22783,-3.17652,-49.0539
2023-03-11 22:39:28:641,0,5.22103,-3.1731,-49.0625
2023-03-11 22:39:28:651,0,5.21877,-3.17156,-49.0729
2023-03-11 22:39:28:661,0,5.21577,-3.16594,-49.0786
2023-03-11 22:39:28:671,0,5.2126,-3.16146,-49.0826
2023-03-11 22:39:28:681,0,5.20809,-3.15664,-49.0849
2023-03-11 22:39:28:691,0,5.20888,-3.152,-49.0868
2023-03-11 22:39:28:701,0,5.20852,-3.13829,-49.0935
2023-03-11 22:39:28:711,0,5.21415,-3.12693,-49.1023
2023-03-11 22:39:28:721,0,5.22462,-3.12089,-49.1079
2023-03-11 22:39:28:731,0,5.23961,-3.11839,-49.1099
2023-03-11 22:39:28:741,0,5.25063,-3.11074,-49.1116
2023-03-11 22:39:28:751,0,5.26991,-3.10721,-49.1171
2023-03-11 22:39:28:761,0,5.28283,-3.10051,-49.1232
2023-03-11 22:39:28:771,0,5.29896,-3.09092,-49.1316
2023-03-11 22:39:28:781,0,5.31213,-3.08292,-49.1401
2023-03-11 22:39:28:791,0,5.32037,-3.07601,-49.1476
2023-03-11 22:39:28:801,0,5.32518,-3.06959,-49.1516
2023-03-11 22:39:28:811,0,5.33143,-3.06069,-49.1566
2023-03-11 22:39:28:821,0,5.34002,-3.05298,-49.1603
2023-03-11 22:39:28:831,0,5.34561,-3.04645,-49.166
2023-03-11 22:39:28:841,0,5.35213,-3.04086,-49.1735
2023-03-11 22:39:28:851,0,5.35858,-3.03662,-49.1817
2023-03-11 22:39:28:861,0,5.36292,-3.0299,-49.1922
2023-03-11 22:39:28:871,0,5.36791,-3.02775,-49.2015
2023-03-11 22:39:28:881,0,5.36861,-3.02906,-49.2114
2023-03-11 22:39:28:891,0,5.37091,-3.02906,-49.2221
2023-03-11 22:39:28:901,0,5.37668,-3.02695,-49.2343
2023-03-11 22:39:28:911,0,5.38287,-3.02226,-49.2415
2023-03-11 22:39:28:921,0,5.38288,-3.01845,-49.2483
2023-03-11 22:39:28:931,0,5.38203,-3.01604,-49.2558
2023-03-11 22:39:28:941,0,5.38547,-3.00972,-49.2624
2023-03-11 22:39:28:951,0,5.38829,-3.00195,-49.2678
2023-03-11 22:39:28:961,0,5.3913,-2.99036,-49.2791
2023-03-11 22:39:28:971,0,5.39387,-2.98009,-49.2873
2023-03-11 22:39:28:981,0,5.39539,-2.96572,-49.3001
2023-03-11 22:39:28:991,0,5.39581,-2.95247,-49.3136
2023-03-11 22:39:29:1,0,5.39478,-2.94149,-49.3264
2023-03-11 22:39:29:11,0,5.39152,-2.93146,-49.339
2023-03-11 22:39:29:21,0,5.38623,-2.92072,-49.3549
2023-03-11 22:39:29:31,0,5.38046,-2.91198,-49.3724
2023-03-11 22:39:29:41,0,5.37274,-2.90196,-49.3867
2023-03-11 22:39:29:51,0,5.36293,-2.89431,-49.4003
2023-03-11 22:39:29:61,0,5.34676,-2.88805,-49.4152
2023-03-11 22:39:29:71,0,5.33008,-2.88117,-49.432
2023-03-11 22:39:29:81,0,5.31198,-2.86928,-49.4488
2023-03-11 22:39:29:91,0,5.29812,-2.8598,-49.4599
2023-03-11 22:39:29:101,0,5.28158,-2.84919,-49.4729
2023-03-11 22:39:29:111,0,5.26831,-2.83793,-49.4795
2023-03-11 22:39:29:121,0,5.25722,-2.82905,-49.4814
2023-03-11 22:39:29:131,0,5.24386,-2.82209,-49.4786
2023-03-11 22:39:29:141,0,5.23461,-2.81194,-49.4717
2023-03-11 22:39:29:151,0,5.22256,-2.80693,-49.4652
2023-03-11 22:39:29:161,0,5.21051,-2.80067,-49.4581
2023-03-11 22:39:29:171,0,5.19719,-2.79861,-49.4489
2023-03-11 22:39:29:181,0,5.18432,-2.79631,-49.4406
2023-03-11 22:39:29:191,0,5.17333,-2.79916,-49.4277
2023-03-11 22:39:29:201,0,5.16413,-2.81201,-49.4184
2023-03-11 22:39:29:211,0,5.156,-2.82722,-49.4065
2023-03-11 22:39:29:221,0,5.14631,-2.83531,-49.4014
2023-03-11 22:39:29:231,0,5.13725,-2.84193,-49.402
2023-03-11 22:39:29:241,0,5.12378,-2.84446,-49.4022
