Timestamp_cmd,imu_cmd,roll_delta,pitch_delta,yaw_delta,voice_type,voice_length
2023-03-14 16:19:15:460,0,-6.35291,-5.16313,69.75,Q,Q
2023-03-14 16:19:15:468,0,-6.35791,-5.14821,69.7658,Q,Q
2023-03-14 16:19:15:478,0,-6.36133,-5.13312,69.783,Q,Q
2023-03-14 16:19:15:488,0,-6.36479,-5.11985,69.8025,Q,Q
2023-03-14 16:19:15:498,0,-6.36398,-5.10877,69.825,Q,Q
2023-03-14 16:19:15:508,0,-6.35736,-5.09979,69.8456,Q,Q
2023-03-14 16:19:15:518,0,-6.3493,-5.09207,69.8652,Q,Q
2023-03-14 16:19:15:528,0,-6.34042,-5.08402,69.8798,Q,Q
2023-03-14 16:19:15:538,0,-6.32735,-5.07988,69.8899,Q,Q
2023-03-14 16:19:15:548,0,-6.31357,-5.07651,69.8915,Q,Q
2023-03-14 16:19:15:558,0,-6.3037,-5.07223,69.8875,Q,Q
2023-03-14 16:19:15:568,0,-6.28824,-5.07126,69.8767,Q,Q
2023-03-14 16:19:15:578,0,-6.27709,-5.07123,69.8632,Q,Q
2023-03-14 16:19:15:588,0,-6.26483,-5.07865,69.8445,Q,Q
2023-03-14 16:19:15:598,0,-6.25952,-5.08625,69.8259,Q,Q
2023-03-14 16:19:15:608,0,-6.25282,-5.09537,69.8077,Q,Q
2023-03-14 16:19:15:618,0,-6.24806,-5.10624,69.7923,Q,Q
2023-03-14 16:19:15:628,0,-6.24415,-5.11798,69.7773,Q,Q
2023-03-14 16:19:15:638,0,-6.24536,-5.12648,69.7651,Q,Q
2023-03-14 16:19:15:648,0,-6.24881,-5.12851,69.7574,Q,Q
2023-03-14 16:19:15:658,0,-6.25608,-5.13075,69.755,Q,Q
2023-03-14 16:19:15:668,0,-6.26445,-5.13477,69.7528,Q,Q
2023-03-14 16:19:15:678,0,-6.27186,-5.14075,69.7531,Q,Q
2023-03-14 16:19:15:688,0,-6.28047,-5.14622,69.7612,Q,Q
2023-03-14 16:19:15:698,0,-6.28953,-5.14813,69.7671,Q,Q
2023-03-14 16:19:15:708,0,-6.2937,-5.15626,69.7762,Q,Q
2023-03-14 16:19:15:718,0,-6.29967,-5.16135,69.7836,Q,Q
2023-03-14 16:19:15:728,0,-6.30689,-5.1653,69.7872,Q,Q
2023-03-14 16:19:15:738,0,-6.31523,-5.16917,69.7911,Q,Q
2023-03-14 16:19:15:748,0,-6.32068,-5.17117,69.7929,Q,Q
2023-03-14 16:19:15:758,0,-6.32991,-5.17358,69.7895,Q,Q
2023-03-14 16:19:15:768,0,-6.34072,-5.17581,69.7873,Q,Q
2023-03-14 16:19:15:778,0,-6.34811,-5.177,69.7847,Q,Q
2023-03-14 16:19:15:788,0,-6.34721,-5.17791,69.7856,Q,Q
2023-03-14 16:19:15:798,0,-6.34391,-5.18146,69.7816,Q,Q
2023-03-14 16:19:15:808,0,-6.33812,-5.18585,69.7826,Q,Q
2023-03-14 16:19:15:818,0,-6.33709,-5.19018,69.7881,Q,Q
2023-03-14 16:19:15:828,0,-6.33835,-5.19279,69.7948,Q,Q
2023-03-14 16:19:15:838,0,-6.33738,-5.19125,69.8004,Q,Q
2023-03-14 16:19:15:848,0,-6.33773,-5.19207,69.8073,Q,Q
2023-03-14 16:19:15:858,0,-6.33902,-5.19075,69.8123,Q,Q
2023-03-14 16:19:15:868,0,-6.34083,-5.18877,69.8185,Q,Q
2023-03-14 16:19:15:878,0,-6.34279,-5.18475,69.8225,Q,Q
2023-03-14 16:19:15:888,0,-6.3385,-5.18172,69.8231,Q,Q
2023-03-14 16:19:15:898,0,-6.33069,-5.17076,69.82,Q,Q
2023-03-14 16:19:15:908,0,-6.32323,-5.16109,69.814,Q,Q
2023-03-14 16:19:15:918,0,-6.31708,-5.14825,69.8055,Q,Q
2023-03-14 16:19:15:928,0,-6.31082,-5.13712,69.7945,Q,Q
2023-03-14 16:19:15:938,0,-6.30665,-5.124,69.7788,Q,Q
2023-03-14 16:19:15:948,0,-6.30458,-5.10898,69.7622,Q,Q
2023-03-14 16:19:15:958,0,-6.29991,-5.09625,69.7425,Q,Q
2023-03-14 16:19:15:968,0,-6.29439,-5.08414,69.722,Q,Q
2023-03-14 16:19:15:978,0,-6.29181,-5.07288,69.6988,Q,Q
2023-03-14 16:19:15:988,0,-6.28887,-5.06204,69.6753,Q,Q
2023-03-14 16:19:15:998,0,-6.2864,-5.05206,69.6558,Q,Q
2023-03-14 16:19:16:8,0,-6.28156,-5.0432,69.6332,Q,Q
2023-03-14 16:19:16:18,0,-6.27847,-5.03259,69.6143,Q,Q
2023-03-14 16:19:16:28,0,-6.27241,-5.02046,69.5934,Q,Q
2023-03-14 16:19:16:38,0,-6.26172,-5.0126,69.5746,Q,Q
2023-03-14 16:19:16:48,0,-6.24617,-5.00943,69.5582,Q,Q
2023-03-14 16:19:16:58,0,-6.22974,-5.00643,69.5391,Q,Q
2023-03-14 16:19:16:68,0,-6.21074,-5.00498,69.5287,Q,Q
2023-03-14 16:19:16:78,0,-6.19851,-5.00202,69.521,Q,Q
2023-03-14 16:19:16:88,0,-6.18875,-5.00447,69.5152,Q,Q
2023-03-14 16:19:16:98,0,-6.17902,-5.00488,69.511,Q,Q
2023-03-14 16:19:16:108,0,-6.1684,-5.00675,69.5136,Q,Q
2023-03-14 16:19:16:118,0,-6.15759,-5.01071,69.5194,Q,Q
2023-03-14 16:19:16:128,0,-6.14542,-5.01396,69.5287,Q,Q
2023-03-14 16:19:16:138,0,-6.13376,-5.02197,69.5396,Q,Q
2023-03-14 16:19:16:148,0,-6.1201,-5.02992,69.5514,Q,Q
2023-03-14 16:19:16:158,0,-6.10691,-5.03794,69.564,Q,Q
2023-03-14 16:19:16:168,0,-6.09536,-5.04504,69.5719,Q,Q
2023-03-14 16:19:16:178,0,-6.08942,-5.05164,69.5806,Q,Q
2023-03-14 16:19:16:188,0,-6.08468,-5.06173,69.5888,Q,Q
2023-03-14 16:19:16:198,0,-6.08201,-5.07259,69.5955,Q,Q
2023-03-14 16:19:16:208,0,-6.08277,-5.08273,69.6011,Q,Q
2023-03-14 16:19:16:218,0,-6.07874,-5.09155,69.6021,Q,Q
2023-03-14 16:19:16:228,0,-6.07918,-5.10508,69.6057,Q,Q
2023-03-14 16:19:16:238,0,-6.08012,-5.11396,69.6089,Q,Q
2023-03-14 16:19:16:248,0,-6.08228,-5.12555,69.6147,Q,Q
2023-03-14 16:19:16:258,0,-6.08863,-5.13497,69.6168,Q,Q
2023-03-14 16:19:16:268,0,-6.09338,-5.14212,69.6217,Q,Q
2023-03-14 16:19:16:278,0,-6.10126,-5.1455,69.6253,Q,Q
2023-03-14 16:19:16:288,0,-6.10987,-5.14656,69.6247,Q,Q
2023-03-14 16:19:16:298,0,-6.12223,-5.14666,69.6207,Q,Q
2023-03-14 16:19:16:308,0,-6.13452,-5.14904,69.6182,Q,Q
2023-03-14 16:19:16:318,0,-6.14319,-5.15116,69.6138,Q,Q
2023-03-14 16:19:16:328,0,-6.15287,-5.15273,69.6097,Q,Q
2023-03-14 16:19:16:338,0,-6.16339,-5.15323,69.604,Q,Q
2023-03-14 16:19:16:348,0,-6.17341,-5.15034,69.6019,Q,Q
2023-03-14 16:19:16:358,0,-6.1802,-5.1509,69.5964,Q,Q
2023-03-14 16:19:16:368,0,-6.18728,-5.14861,69.5917,Q,Q
2023-03-14 16:19:16:378,0,-6.18938,-5.1448,69.5865,Q,Q
2023-03-14 16:19:16:388,0,-6.18907,-5.13542,69.5828,Q,Q
2023-03-14 16:19:16:398,0,-6.18096,-5.12365,69.5881,Q,Q
2023-03-14 16:19:16:408,0,-6.17064,-5.11546,69.6009,Q,Q
2023-03-14 16:19:16:418,0,-6.16307,-5.10844,69.6184,Q,Q
2023-03-14 16:19:16:428,0,-6.15927,-5.10339,69.6389,Q,Q
2023-03-14 16:19:16:438,0,-6.16062,-5.10381,69.6591,Q,Q
2023-03-14 16:19:16:448,0,-6.16377,-5.10855,69.679,Q,Q
2023-03-14 16:19:16:458,0,-6.16767,-5.11607,69.6945,Q,Q
2023-03-14 16:19:16:468,0,-6.1721,-5.12598,69.7025,Q,Q
2023-03-14 16:19:16:478,0,-6.17067,-5.13288,69.7069,Q,Q
2023-03-14 16:19:16:488,0,-6.16936,-5.14381,69.7062,Q,Q
2023-03-14 16:19:16:498,0,-6.16285,-5.15628,69.7031,Q,Q
2023-03-14 16:19:16:508,0,-6.15854,-5.16229,69.6964,Q,Q
2023-03-14 16:19:16:518,0,-6.15478,-5.16886,69.6879,Q,Q
2023-03-14 16:19:16:528,0,-6.15509,-5.17233,69.6797,Q,Q
2023-03-14 16:19:16:538,0,-6.15424,-5.17569,69.6741,Q,Q
2023-03-14 16:19:16:548,0,-6.15336,-5.17694,69.6672,Q,Q
2023-03-14 16:19:16:558,0,-6.15286,-5.17725,69.6607,Q,Q
2023-03-14 16:19:16:568,0,-6.15325,-5.17394,69.6562,Q,Q
2023-03-14 16:19:16:578,0,-6.15363,-5.17445,69.6536,Q,Q
2023-03-14 16:19:16:588,0,-6.15213,-5.17052,69.6497,Q,Q
2023-03-14 16:19:16:598,0,-6.157,-5.16443,69.6448,Q,Q
2023-03-14 16:19:16:608,0,-6.16166,-5.15848,69.6418,Q,Q
2023-03-14 16:19:16:618,0,-6.16897,-5.14889,69.6362,Q,Q
2023-03-14 16:19:16:628,0,-6.17209,-5.13939,69.632,Q,Q
2023-03-14 16:19:16:638,0,-6.17242,-5.13967,69.624,Q,Q
2023-03-14 16:19:16:648,0,-6.17334,-5.13936,69.6166,Q,Q
2023-03-14 16:19:16:658,0,-6.17573,-5.13733,69.6135,Q,Q
2023-03-14 16:19:16:668,0,-6.18219,-5.13821,69.6096,Q,Q
2023-03-14 16:19:16:678,0,-6.19092,-5.13963,69.6122,Q,Q
2023-03-14 16:19:16:688,0,-6.20036,-5.14018,69.6086,Q,Q
2023-03-14 16:19:16:698,0,-6.21485,-5.13652,69.6113,Q,Q
2023-03-14 16:19:16:708,0,-6.2276,-5.13461,69.6145,Q,Q
2023-03-14 16:19:16:718,0,-6.23942,-5.13428,69.6198,Q,Q
2023-03-14 16:19:16:728,0,-6.25093,-5.13391,69.6208,Q,Q
2023-03-14 16:19:16:738,0,-6.26244,-5.13014,69.6223,Q,Q
2023-03-14 16:19:16:748,0,-6.27034,-5.12537,69.6194,Q,Q
2023-03-14 16:19:16:758,0,-6.28086,-5.1168,69.6175,Q,Q
2023-03-14 16:19:16:768,0,-6.29516,-5.11062,69.6139,Q,Q
2023-03-14 16:19:16:778,0,-6.31089,-5.1004,69.609,Q,Q
2023-03-14 16:19:16:788,0,-6.32308,-5.08969,69.6002,Q,Q
2023-03-14 16:19:16:798,0,-6.33324,-5.08132,69.5897,Q,Q
2023-03-14 16:19:16:808,0,-6.34126,-5.07057,69.5776,Q,Q
2023-03-14 16:19:16:818,0,-6.3474,-5.05893,69.5648,Q,Q
2023-03-14 16:19:16:828,0,-6.35437,-5.05197,69.5453,Q,Q
2023-03-14 16:19:16:838,0,-6.36283,-5.0437,69.5282,Q,Q
2023-03-14 16:19:16:848,0,-6.37471,-5.04189,69.519,Q,Q
2023-03-14 16:19:16:858,0,-6.38228,-5.03785,69.51,Q,Q
2023-03-14 16:19:16:868,0,-6.38977,-5.02838,69.5078,Q,Q
2023-03-14 16:19:16:878,0,-6.40021,-5.01864,69.5062,Q,Q
2023-03-14 16:19:16:888,0,-6.40445,-5.01126,69.5024,Q,Q
2023-03-14 16:19:16:898,0,-6.40202,-5.0061,69.5008,Q,Q
2023-03-14 16:19:16:908,0,-6.40245,-5.00286,69.4984,Q,Q
2023-03-14 16:19:16:918,0,-6.40306,-4.99716,69.5001,Q,Q
2023-03-14 16:19:16:928,0,-6.40287,-4.99179,69.4999,Q,Q
2023-03-14 16:19:16:938,0,-6.4012,-4.98864,69.4999,Q,Q
2023-03-14 16:19:16:948,0,-6.39864,-4.98415,69.5016,Q,Q
2023-03-14 16:19:16:958,0,-6.39478,-4.97465,69.5033,Q,Q
2023-03-14 16:19:16:968,0,-6.39001,-4.97004,69.5025,Q,Q
2023-03-14 16:19:16:978,0,-6.38192,-4.96554,69.5003,Q,Q
2023-03-14 16:19:16:988,0,-6.36925,-4.96269,69.5011,Q,Q
2023-03-14 16:19:16:998,0,-6.3536,-4.96239,69.5005,Q,Q
2023-03-14 16:19:17:8,0,-6.34537,-4.96454,69.5049,Q,Q
2023-03-14 16:19:17:18,0,-6.3386,-4.96843,69.5078,Q,Q
2023-03-14 16:19:17:28,0,-6.33227,-4.97254,69.5113,Q,Q
2023-03-14 16:19:17:38,0,-6.32888,-4.97875,69.5139,Q,Q
2023-03-14 16:19:17:48,0,-6.32009,-4.985,69.5143,Q,Q
2023-03-14 16:19:17:58,0,-6.30505,-4.98744,69.5107,Q,Q
2023-03-14 16:19:17:68,0,-6.28648,-4.99066,69.5084,Q,Q
2023-03-14 16:19:17:78,0,-6.26818,-4.99516,69.5064,Q,Q
2023-03-14 16:19:17:88,0,-6.2523,-5.00175,69.5024,Q,Q
2023-03-14 16:19:17:98,0,-6.24192,-5.01062,69.4934,Q,Q
2023-03-14 16:19:17:108,0,-6.23255,-5.01443,69.4824,Q,Q
2023-03-14 16:19:17:118,0,-6.22299,-5.01367,69.4675,Q,Q
2023-03-14 16:19:17:128,0,-6.21171,-5.00528,69.4453,Q,Q
2023-03-14 16:19:17:138,0,-6.19858,-4.9898,69.4189,Q,Q
2023-03-14 16:19:17:148,0,-6.18616,-4.96885,69.388,Q,Q
2023-03-14 16:19:17:158,0,-6.17224,-4.94507,69.3564,Q,Q
2023-03-14 16:19:17:168,0,-6.15348,-4.92426,69.3192,Q,Q
2023-03-14 16:19:17:178,0,-6.12382,-4.89983,69.2772,Q,Q
2023-03-14 16:19:17:188,0,-6.08199,-4.87794,69.2307,Q,Q
2023-03-14 16:19:17:198,0,-6.03449,-4.85507,69.1834,Q,Q
2023-03-14 16:19:17:208,0,-5.98566,-4.83396,69.1336,Q,Q
2023-03-14 16:19:17:218,0,-5.9376,-4.81079,69.0836,Q,Q
2023-03-14 16:19:17:228,0,-5.8884,-4.7896,69.0349,Q,Q
2023-03-14 16:19:17:238,0,-5.83769,-4.77264,68.9849,Q,Q
2023-03-14 16:19:17:248,0,-5.78355,-4.75682,68.9331,Q,Q
2023-03-14 16:19:17:258,0,-5.73571,-4.73816,68.8785,Q,Q
2023-03-14 16:19:17:268,0,-5.68572,-4.7187,68.8242,Q,Q
2023-03-14 16:19:17:278,0,-5.64157,-4.69866,68.7712,Q,Q
2023-03-14 16:19:17:288,0,-5.59662,-4.67884,68.7175,Q,Q
2023-03-14 16:19:17:298,0,-5.55706,-4.6597,68.6659,Q,Q
2023-03-14 16:19:17:308,0,-5.52813,-4.64122,68.6178,Q,Q
2023-03-14 16:19:17:318,0,-5.50134,-4.62702,68.5772,Q,Q
2023-03-14 16:19:17:328,0,-5.47972,-4.61511,68.5434,Q,Q
2023-03-14 16:19:17:338,0,-5.46451,-4.60749,68.5156,Q,Q
2023-03-14 16:19:17:348,0,-5.45286,-4.60669,68.4953,Q,Q
2023-03-14 16:19:17:358,0,-5.44514,-4.6062,68.4842,Q,Q
2023-03-14 16:19:17:368,0,-5.44316,-4.60985,68.4789,Q,Q
2023-03-14 16:19:17:378,0,-5.44971,-4.6155,68.4768,Q,Q
2023-03-14 16:19:17:388,0,-5.46032,-4.62533,68.4855,Q,Q
2023-03-14 16:19:17:398,0,-5.4762,-4.63317,68.4981,Q,Q
2023-03-14 16:19:17:408,0,-5.49501,-4.65014,68.514,Q,Q
2023-03-14 16:19:17:418,0,-5.51616,-4.67359,68.5306,Q,Q
2023-03-14 16:19:17:428,0,-5.53417,-4.699,68.5545,Q,Q
2023-03-14 16:19:17:438,0,-5.55483,-4.72305,68.5779,Q,Q
2023-03-14 16:19:17:448,0,-5.57915,-4.74875,68.6006,Q,Q
2023-03-14 16:19:17:458,0,-5.60239,-4.77771,68.6255,Q,Q
2023-03-14 16:19:17:468,0,-5.62796,-4.80578,68.652,Q,Q
2023-03-14 16:19:17:478,0,-5.65463,-4.8347,68.6749,Q,Q
2023-03-14 16:19:17:488,0,-5.6856,-4.86463,68.698,Q,Q
2023-03-14 16:19:17:498,0,-5.71011,-4.89189,68.7185,Q,Q
2023-03-14 16:19:17:508,0,-5.73271,-4.92435,68.7397,Q,Q
2023-03-14 16:19:17:518,0,-5.75457,-4.9533,68.7619,Q,Q
2023-03-14 16:19:17:528,0,-5.77559,-4.98039,68.7804,Q,Q
2023-03-14 16:19:17:538,0,-5.80043,-5.00744,68.8005,Q,Q
2023-03-14 16:19:17:548,0,-5.82111,-5.03164,68.8187,Q,Q
2023-03-14 16:19:17:558,0,-5.83485,-5.05251,68.8363,Q,Q
2023-03-14 16:19:17:568,0,-5.84501,-5.07064,68.859,Q,Q
2023-03-14 16:19:17:578,0,-5.85607,-5.08659,68.8815,Q,Q
2023-03-14 16:19:17:588,0,-5.86669,-5.09931,68.9061,Q,Q
2023-03-14 16:19:17:598,0,-5.87262,-5.11323,68.9261,Q,Q
2023-03-14 16:19:17:608,0,-5.88295,-5.12397,68.9462,Q,Q
2023-03-14 16:19:17:618,0,-5.8904,-5.13213,68.9674,Q,Q
2023-03-14 16:19:17:628,0,-5.89793,-5.1364,68.9828,Q,Q
2023-03-14 16:19:17:638,0,-5.90436,-5.1432,68.9934,Q,Q
2023-03-14 16:19:17:648,0,-5.90989,-5.147,69.0026,Q,Q
2023-03-14 16:19:17:658,0,-5.91621,-5.1463,69.0068,Q,Q
2023-03-14 16:19:17:668,0,-5.92152,-5.14471,69.0128,Q,Q
2023-03-14 16:19:17:678,0,-5.93106,-5.14217,69.0137,Q,Q
2023-03-14 16:19:17:688,0,-5.94405,-5.13869,69.0122,Q,Q
2023-03-14 16:19:17:698,0,-5.95633,-5.13212,69.0125,Q,Q
2023-03-14 16:19:17:708,0,-5.96418,-5.12474,69.0142,Q,Q
2023-03-14 16:19:17:718,0,-5.97168,-5.12309,69.0189,Q,Q
2023-03-14 16:19:17:728,0,-5.9769,-5.11895,69.0245,Q,Q
2023-03-14 16:19:17:738,0,-5.97784,-5.10986,69.0286,Q,Q
2023-03-14 16:19:17:748,0,-5.977,-5.09534,69.0342,Q,Q
2023-03-14 16:19:17:758,0,-5.97606,-5.08048,69.0384,Q,Q
2023-03-14 16:19:17:768,0,-5.9753,-5.06396,69.0421,Q,Q
2023-03-14 16:19:17:778,0,-5.97992,-5.04992,69.0475,Q,Q
2023-03-14 16:19:17:788,0,-5.98965,-5.03784,69.0539,Q,Q
2023-03-14 16:19:17:798,0,-6.0076,-5.02653,69.0634,Q,Q
2023-03-14 16:19:17:808,0,-6.02996,-5.01199,69.0687,Q,Q
2023-03-14 16:19:17:819,0,-6.05406,-4.99398,69.0698,Q,Q
2023-03-14 16:19:17:828,0,-6.07214,-4.97282,69.0644,Q,Q
2023-03-14 16:19:17:838,0,-6.08457,-4.95413,69.0605,Q,Q
2023-03-14 16:19:17:848,0,-6.08606,-4.9385,69.0575,Q,Q
2023-03-14 16:19:17:858,0,-6.08469,-4.9266,69.0482,Q,Q
2023-03-14 16:19:17:868,0,-6.07989,-4.91285,69.0336,Q,Q
2023-03-14 16:19:17:878,0,-6.07149,-4.89968,69.0246,Q,Q
2023-03-14 16:19:17:888,0,-6.06034,-4.89462,69.0145,Q,Q
2023-03-14 16:19:17:898,0,-6.04087,-4.89386,69.0056,Q,Q
2023-03-14 16:19:17:908,0,-6.0239,-4.89615,69.0003,Q,Q
2023-03-14 16:19:17:918,0,-5.99912,-4.90121,68.9968,Q,Q
2023-03-14 16:19:17:928,0,-5.96574,-4.90892,68.9986,Q,Q
2023-03-14 16:19:17:938,0,-5.92966,-4.92333,69.0076,Q,Q
2023-03-14 16:19:17:948,0,-5.89824,-4.94502,69.0143,Q,Q
2023-03-14 16:19:17:958,0,-5.87009,-4.96807,69.0285,Q,Q
2023-03-14 16:19:17:968,0,-5.8449,-4.99399,69.046,Q,Q
2023-03-14 16:19:17:978,0,-5.8259,-5.02081,69.0676,Q,Q
2023-03-14 16:19:17:988,0,-5.80857,-5.04675,69.0935,Q,Q
2023-03-14 16:19:17:998,0,-5.79535,-5.0741,69.1252,Q,Q
2023-03-14 16:19:18:8,0,-5.7817,-5.10363,69.1549,Q,Q
2023-03-14 16:19:18:18,0,-5.76554,-5.13019,69.1871,Q,Q
2023-03-14 16:19:18:28,0,-5.74637,-5.15333,69.2167,Q,Q
2023-03-14 16:19:18:38,0,-5.72813,-5.1749,69.2462,Q,Q
2023-03-14 16:19:18:48,0,-5.71029,-5.19642,69.2722,Q,Q
2023-03-14 16:19:18:58,0,-5.69577,-5.21736,69.2974,Q,Q
2023-03-14 16:19:18:68,0,-5.67587,-5.23863,69.3176,Q,Q
2023-03-14 16:19:18:78,0,-5.66158,-5.2597,69.3344,Q,Q
2023-03-14 16:19:18:88,0,-5.64791,-5.27763,69.3472,Q,Q
2023-03-14 16:19:18:98,0,-5.63862,-5.29495,69.3537,Q,Q
2023-03-14 16:19:18:108,0,-5.63459,-5.3107,69.356,Q,Q
2023-03-14 16:19:18:118,0,-5.6332,-5.32225,69.3504,Q,Q
2023-03-14 16:19:18:128,0,-5.63687,-5.33273,69.3416,Q,Q
2023-03-14 16:19:18:138,0,-5.64258,-5.34202,69.33,Q,Q
2023-03-14 16:19:18:148,0,-5.64843,-5.35219,69.3222,Q,Q
2023-03-14 16:19:18:158,0,-5.65234,-5.36177,69.3152,Q,Q
2023-03-14 16:19:18:168,0,-5.65681,-5.36913,69.3099,Q,Q
2023-03-14 16:19:18:178,0,-5.6637,-5.37571,69.3109,Q,Q
2023-03-14 16:19:18:188,0,-5.67012,-5.38073,69.318,Q,Q
2023-03-14 16:19:18:198,0,-5.67902,-5.38525,69.3289,Q,Q
2023-03-14 16:19:18:208,0,-5.69047,-5.38571,69.3423,Q,Q
2023-03-14 16:19:18:218,0,-5.69974,-5.39074,69.3558,Q,Q
2023-03-14 16:19:18:228,0,-5.7114,-5.39149,69.3709,Q,Q
2023-03-14 16:19:18:238,0,-5.71732,-5.39411,69.3876,Q,Q
2023-03-14 16:19:18:248,0,-5.72276,-5.39393,69.4034,Q,Q
2023-03-14 16:19:18:258,0,-5.72821,-5.39525,69.4178,Q,Q
2023-03-14 16:19:18:268,0,-5.72434,-5.39704,69.4291,Q,Q
2023-03-14 16:19:18:278,0,-5.71965,-5.39028,69.4376,Q,Q
2023-03-14 16:19:18:288,0,-5.71291,-5.38265,69.4446,Q,Q
2023-03-14 16:19:18:298,0,-5.70783,-5.37107,69.4488,Q,Q
2023-03-14 16:19:18:308,0,-5.70122,-5.3606,69.4503,Q,Q
2023-03-14 16:19:18:318,0,-5.69235,-5.34831,69.4438,Q,Q
2023-03-14 16:19:18:328,0,-5.68577,-5.33907,69.4403,Q,Q
2023-03-14 16:19:18:338,0,-5.67931,-5.32882,69.4351,Q,Q
2023-03-14 16:19:18:348,0,-5.67371,-5.31993,69.4282,Q,Q
2023-03-14 16:19:18:358,0,-5.66475,-5.31239,69.4244,Q,Q
2023-03-14 16:19:18:368,0,-5.66178,-5.30256,69.4176,Q,Q
2023-03-14 16:19:18:378,0,-5.6596,-5.29399,69.4067,Q,Q
2023-03-14 16:19:18:388,0,-5.65333,-5.28394,69.397,Q,Q
2023-03-14 16:19:18:398,0,-5.64759,-5.2747,69.3881,Q,Q
2023-03-14 16:19:18:408,0,-5.64387,-5.26381,69.3822,Q,Q
2023-03-14 16:19:18:418,0,-5.64081,-5.25638,69.3778,Q,Q
2023-03-14 16:19:18:428,0,-5.63632,-5.24561,69.3743,Q,Q
2023-03-14 16:19:18:438,0,-5.63441,-5.2338,69.3708,Q,Q
2023-03-14 16:19:18:448,0,-5.63754,-5.21922,69.3687,Q,Q
2023-03-14 16:19:18:458,0,-5.64355,-5.20531,69.3647,Q,Q
2023-03-14 16:19:18:468,0,-5.65206,-5.19207,69.3626,Q,Q
2023-03-14 16:19:18:478,0,-5.65887,-5.17717,69.3612,Q,Q
2023-03-14 16:19:18:488,0,-5.66637,-5.16413,69.3558,Q,Q
2023-03-14 16:19:18:498,0,-5.6719,-5.15168,69.3535,Q,Q
2023-03-14 16:19:18:508,0,-5.67995,-5.14099,69.353,Q,Q
2023-03-14 16:19:18:518,0,-5.68706,-5.136,69.3507,Q,Q
2023-03-14 16:19:18:528,0,-5.68887,-5.12992,69.3509,Q,Q
2023-03-14 16:19:18:538,0,-5.69518,-5.12544,69.3486,Q,Q
2023-03-14 16:19:18:548,0,-5.70534,-5.11754,69.3466,Q,Q
2023-03-14 16:19:18:558,0,-5.70998,-5.1105,69.3456,Q,Q
2023-03-14 16:19:18:568,0,-5.71252,-5.09979,69.3428,Q,Q
2023-03-14 16:19:18:578,0,-5.71555,-5.08705,69.3409,Q,Q
2023-03-14 16:19:18:588,0,-5.717,-5.08027,69.3378,Q,Q
2023-03-14 16:19:18:598,0,-5.72117,-5.07762,69.335,Q,Q
2023-03-14 16:19:18:608,0,-5.72262,-5.06985,69.3295,Q,Q
2023-03-14 16:19:18:618,0,-5.72594,-5.06254,69.3274,Q,Q
2023-03-14 16:19:18:628,0,-5.72639,-5.05253,69.3217,Q,Q
2023-03-14 16:19:18:638,0,-5.73093,-5.04292,69.3166,Q,Q
2023-03-14 16:19:18:648,0,-5.73656,-5.03047,69.3111,Q,Q
2023-03-14 16:19:18:658,0,-5.74138,-5.01892,69.3077,Q,Q
2023-03-14 16:19:18:668,0,-5.7446,-5.00813,69.3022,Q,Q
2023-03-14 16:19:18:678,0,-5.74112,-4.99642,69.2941,Q,Q
2023-03-14 16:19:18:688,0,-5.73863,-4.98626,69.2873,Q,Q
2023-03-14 16:19:18:698,0,-5.73362,-4.97558,69.2744,Q,Q
2023-03-14 16:19:18:708,0,-5.72203,-4.96417,69.2638,Q,Q
2023-03-14 16:19:18:718,0,-5.71184,-4.95416,69.2508,Q,Q
2023-03-14 16:19:18:728,0,-5.70466,-4.94345,69.2395,Q,Q
2023-03-14 16:19:18:738,0,-5.69783,-4.93293,69.2277,Q,Q
2023-03-14 16:19:18:748,0,-5.69237,-4.92245,69.2158,Q,Q
2023-03-14 16:19:18:758,0,-5.68424,-4.90916,69.2072,Q,Q
2023-03-14 16:19:18:768,0,-5.68063,-4.89633,69.2005,Q,Q
2023-03-14 16:19:18:778,0,-5.67813,-4.8849,69.194,Q,Q
2023-03-14 16:19:18:788,0,-5.68072,-4.87305,69.1915,Q,Q
2023-03-14 16:19:18:798,0,-5.68559,-4.86249,69.1895,Q,Q
2023-03-14 16:19:18:808,0,-5.68735,-4.85126,69.1866,Q,Q
2023-03-14 16:19:18:818,0,-5.69128,-4.8415,69.1828,Q,Q
2023-03-14 16:19:18:828,0,-5.69603,-4.83109,69.174,Q,Q
2023-03-14 16:19:18:838,0,-5.70453,-4.82119,69.1624,Q,Q
2023-03-14 16:19:18:848,0,-5.70851,-4.81148,69.1503,Q,Q
2023-03-14 16:19:18:858,0,-5.71081,-4.80181,69.134,Q,Q
2023-03-14 16:19:18:868,0,-5.71504,-4.79577,69.1185,Q,Q
2023-03-14 16:19:18:878,0,-5.72267,-4.78999,69.0986,Q,Q
2023-03-14 16:19:18:888,0,-5.7299,-4.78374,69.0803,Q,Q
2023-03-14 16:19:18:898,0,-5.73675,-4.77983,69.065,Q,Q
2023-03-14 16:19:18:908,0,-5.74561,-4.77123,69.0522,Q,Q
2023-03-14 16:19:18:918,0,-5.75258,-4.7659,69.0423,Q,Q
2023-03-14 16:19:18:928,0,-5.75572,-4.7607,69.0353,Q,Q
2023-03-14 16:19:18:938,0,-5.75741,-4.75714,69.0286,Q,Q
2023-03-14 16:19:18:954,0,-5.75936,-4.7519,69.0244,Q,Q
2023-03-14 16:19:18:958,0,-5.76549,-4.74694,69.0209,Q,Q
2023-03-14 16:19:18:968,0,-5.77178,-4.73898,69.0205,Q,Q
2023-03-14 16:19:18:978,0,-5.78421,-4.73171,69.0223,Q,Q
2023-03-14 16:19:18:988,0,-5.79843,-4.73006,69.0265,Q,Q
2023-03-14 16:19:18:998,0,-5.80863,-4.72285,69.0319,Q,Q
2023-03-14 16:19:19:8,0,-5.8227,-4.71818,69.0326,Q,Q
2023-03-14 16:19:19:18,0,-5.83632,-4.71482,69.0345,Q,Q
2023-03-14 16:19:19:28,0,-5.85061,-4.7105,69.0338,Q,Q
2023-03-14 16:19:19:38,0,-5.86064,-4.70643,69.0333,Q,Q
2023-03-14 16:19:19:48,0,-5.8738,-4.70433,69.0327,Q,Q
2023-03-14 16:19:19:58,0,-5.88893,-4.70205,69.0318,Q,Q
2023-03-14 16:19:19:68,0,-5.90138,-4.69842,69.026,Q,Q
2023-03-14 16:19:19:78,0,-5.91133,-4.69104,69.0178,Q,Q
2023-03-14 16:19:19:88,0,-5.92448,-4.67934,69.0086,Q,Q
2023-03-14 16:19:19:98,0,-5.93674,-4.66981,68.9989,Q,Q
2023-03-14 16:19:19:108,0,-5.94994,-4.65841,68.9901,Q,Q
2023-03-14 16:19:19:118,0,-5.95818,-4.64818,68.979,Q,Q
2023-03-14 16:19:19:128,0,-5.9652,-4.64131,68.9652,Q,Q
2023-03-14 16:19:19:138,0,-5.97489,-4.63599,68.9601,Q,Q
2023-03-14 16:19:19:148,0,-5.98489,-4.63254,68.9543,Q,Q
2023-03-14 16:19:19:158,0,-6.0002,-4.62753,68.9541,Q,Q
2023-03-14 16:19:19:168,0,-6.01444,-4.62071,68.953,Q,Q
2023-03-14 16:19:19:178,0,-6.0313,-4.61748,68.9528,Q,Q
2023-03-14 16:19:19:188,0,-6.0495,-4.61103,68.9565,Q,Q
2023-03-14 16:19:19:198,0,-6.06154,-4.60387,68.9596,Q,Q
2023-03-14 16:19:19:208,0,-6.07523,-4.60126,68.9608,Q,Q
2023-03-14 16:19:19:218,0,-6.08525,-4.59712,68.9639,Q,Q
2023-03-14 16:19:19:228,0,-6.09556,-4.59369,68.9606,Q,Q
2023-03-14 16:19:19:238,0,-6.10276,-4.58731,68.9588,Q,Q
2023-03-14 16:19:19:248,0,-6.11372,-4.58014,68.9539,Q,Q
2023-03-14 16:19:19:258,0,-6.12298,-4.57293,68.943,Q,Q
2023-03-14 16:19:19:268,0,-6.1309,-4.56565,68.9322,Q,Q
2023-03-14 16:19:19:278,0,-6.1417,-4.55741,68.9221,Q,Q
2023-03-14 16:19:19:288,0,-6.15243,-4.5487,68.9131,Q,Q
2023-03-14 16:19:19:298,0,-6.16614,-4.53978,68.9023,Q,Q
2023-03-14 16:19:19:308,0,-6.17843,-4.53113,68.8937,Q,Q
2023-03-14 16:19:19:318,0,-6.19041,-4.51993,68.8847,Q,Q
2023-03-14 16:19:19:328,0,-6.19766,-4.50973,68.877,Q,Q
2023-03-14 16:19:19:338,0,-6.20806,-4.50062,68.8696,Q,Q
2023-03-14 16:19:19:348,0,-6.21713,-4.4892,68.8632,Q,Q
2023-03-14 16:19:19:358,0,-6.22501,-4.47722,68.8584,Q,Q
2023-03-14 16:19:19:368,0,-6.22759,-4.46318,68.8505,Q,Q
2023-03-14 16:19:19:378,0,-6.22251,-4.4497,68.8433,Q,Q
2023-03-14 16:19:19:388,0,-6.21619,-4.44178,68.8359,Q,Q
2023-03-14 16:19:19:398,0,-6.21114,-4.43342,68.8334,Q,Q
2023-03-14 16:19:19:408,0,-6.20494,-4.42995,68.8283,Q,Q
2023-03-14 16:19:19:418,0,-6.20276,-4.4268,68.8256,Q,Q
2023-03-14 16:19:19:428,0,-6.20223,-4.41903,68.8238,Q,Q
2023-03-14 16:19:19:438,0,-6.19969,-4.41389,68.8206,Q,Q
2023-03-14 16:19:19:448,0,-6.20021,-4.40789,68.8189,Q,Q
2023-03-14 16:19:19:458,0,-6.19994,-4.4055,68.8172,Q,Q
2023-03-14 16:19:19:468,0,-6.20074,-4.40171,68.8206,Q,Q
2023-03-14 16:19:19:478,0,-6.20025,-4.40185,68.8214,Q,Q
2023-03-14 16:19:19:488,0,-6.20126,-4.40312,68.8231,Q,Q
2023-03-14 16:19:19:498,0,-6.20328,-4.40858,68.8259,Q,Q
2023-03-14 16:19:19:508,0,-6.20506,-4.41282,68.8289,Q,Q
2023-03-14 16:19:19:518,0,-6.20421,-4.4154,68.8305,Q,Q
2023-03-14 16:19:19:528,0,-6.20795,-4.42122,68.832,Q,Q
2023-03-14 16:19:19:538,0,-6.20864,-4.42668,68.8386,Q,Q
2023-03-14 16:19:19:548,0,-6.20835,-4.43069,68.8377,Q,Q
2023-03-14 16:19:19:558,0,-6.21419,-4.43797,68.8428,Q,Q
2023-03-14 16:19:19:568,0,-6.22145,-4.44019,68.8482,Q,Q
2023-03-14 16:19:19:578,0,-6.2329,-4.44164,68.8581,Q,Q
2023-03-14 16:19:19:588,0,-6.2474,-4.44589,68.8655,Q,Q
2023-03-14 16:19:19:598,0,-6.26254,-4.44946,68.8693,Q,Q
2023-03-14 16:19:19:608,0,-6.27634,-4.45458,68.8761,Q,Q
2023-03-14 16:19:19:618,0,-6.28581,-4.45673,68.8789,Q,Q
2023-03-14 16:19:19:628,0,-6.29374,-4.45761,68.8837,Q,Q
2023-03-14 16:19:19:638,0,-6.30268,-4.45522,68.8854,Q,Q
2023-03-14 16:19:19:648,0,-6.31317,-4.45588,68.8849,Q,Q
2023-03-14 16:19:19:658,0,-6.32016,-4.45089,68.8797,Q,Q
2023-03-14 16:19:19:668,0,-6.32909,-4.44725,68.8737,Q,Q
2023-03-14 16:19:19:678,0,-6.33938,-4.44269,68.8668,Q,Q
2023-03-14 16:19:19:688,0,-6.35084,-4.43605,68.86,Q,Q
2023-03-14 16:19:19:698,0,-6.36417,-4.42817,68.8475,Q,Q
2023-03-14 16:19:19:708,0,-6.3781,-4.42159,68.8418,Q,Q
2023-03-14 16:19:19:718,0,-6.38896,-4.40934,68.8362,Q,Q
2023-03-14 16:19:19:728,0,-6.4006,-4.39771,68.8314,Q,Q
2023-03-14 16:19:19:738,0,-6.40998,-4.38991,68.8261,Q,Q
2023-03-14 16:19:19:748,0,-6.41801,-4.38102,68.8209,Q,Q
2023-03-14 16:19:19:758,0,-6.42698,-4.37139,68.8185,Q,Q
2023-03-14 16:19:19:768,0,-6.43468,-4.36547,68.8157,Q,Q
2023-03-14 16:19:19:778,0,-6.44017,-4.36245,68.8142,Q,Q
2023-03-14 16:19:19:788,0,-6.44857,-4.35675,68.8101,Q,Q
2023-03-14 16:19:19:798,0,-6.45469,-4.34932,68.8077,Q,Q
2023-03-14 16:19:19:808,0,-6.45718,-4.34546,68.8055,Q,Q
2023-03-14 16:19:19:818,0,-6.45757,-4.34181,68.8024,Q,Q
2023-03-14 16:19:19:828,0,-6.45448,-4.3378,68.8012,Q,Q
2023-03-14 16:19:19:838,0,-6.45544,-4.33611,68.8049,Q,Q
2023-03-14 16:19:19:848,0,-6.45537,-4.33235,68.8122,Q,Q
2023-03-14 16:19:19:858,0,-6.45189,-4.32845,68.818,Q,Q
2023-03-14 16:19:19:868,0,-6.44986,-4.3244,68.8241,Q,Q
2023-03-14 16:19:19:878,0,-6.44762,-4.32154,68.8329,Q,Q
2023-03-14 16:19:19:888,0,-6.44371,-4.31951,68.8378,Q,Q
2023-03-14 16:19:19:898,0,-6.44207,-4.31569,68.8426,Q,Q
2023-03-14 16:19:19:908,0,-6.43792,-4.30954,68.8457,Q,Q
2023-03-14 16:19:19:918,0,-6.43431,-4.30284,68.8483,Q,Q
2023-03-14 16:19:19:928,0,-6.42728,-4.30175,68.8478,Q,Q
2023-03-14 16:19:19:938,0,-6.42307,-4.29887,68.8492,Q,Q
2023-03-14 16:19:19:948,0,-6.42206,-4.29882,68.8512,Q,Q
2023-03-14 16:19:19:958,0,-6.42189,-4.30458,68.8511,Q,Q
2023-03-14 16:19:19:968,0,-6.42565,-4.31104,68.8524,Q,Q
2023-03-14 16:19:19:978,0,-6.43155,-4.31866,68.8548,Q,Q
2023-03-14 16:19:19:988,0,-6.43767,-4.3263,68.8602,Q,Q
2023-03-14 16:19:19:998,0,-6.44467,-4.33352,68.87,Q,Q
2023-03-14 16:19:20:8,0,-6.45183,-4.33895,68.8765,Q,Q
2023-03-14 16:19:20:18,0,-6.45911,-4.34397,68.8899,Q,Q
2023-03-14 16:19:20:28,0,-6.4683,-4.3488,68.9028,Q,Q
2023-03-14 16:19:20:38,0,-6.47592,-4.35072,68.9118,Q,Q
2023-03-14 16:19:20:48,0,-6.48333,-4.35339,68.9193,Q,Q
2023-03-14 16:19:20:58,0,-6.48907,-4.35411,68.9238,Q,Q
2023-03-14 16:19:20:68,0,-6.49706,-4.35784,68.9307,Q,Q
2023-03-14 16:19:20:78,0,-6.50775,-4.36277,68.9365,Q,Q
2023-03-14 16:19:20:88,0,-6.52243,-4.36731,68.9421,Q,Q
2023-03-14 16:19:20:98,0,-6.52992,-4.36931,68.9465,Q,Q
2023-03-14 16:19:20:108,0,-6.53683,-4.37301,68.9505,Q,Q
2023-03-14 16:19:20:118,0,-6.54362,-4.37175,68.9502,Q,Q
2023-03-14 16:19:20:128,0,-6.54826,-4.37289,68.9495,Q,Q
2023-03-14 16:19:20:138,0,-6.5557,-4.37343,68.949,Q,Q
2023-03-14 16:19:20:148,0,-6.55776,-4.37591,68.9519,Q,Q
2023-03-14 16:19:20:158,0,-6.55844,-4.38036,68.9543,Q,Q
2023-03-14 16:19:20:168,0,-6.5546,-4.37867,68.9545,Q,Q
2023-03-14 16:19:20:178,0,-6.54954,-4.38064,68.9553,Q,Q
2023-03-14 16:19:20:188,0,-6.54185,-4.3846,68.9562,Q,Q
2023-03-14 16:19:20:198,0,-6.53519,-4.39232,68.9562,Q,Q
2023-03-14 16:19:20:208,0,-6.53264,-4.40049,68.9591,Q,Q
2023-03-14 16:19:20:218,0,-6.53116,-4.40985,68.9579,Q,Q
2023-03-14 16:19:20:228,0,-6.53279,-4.41803,68.9607,Q,Q
2023-03-14 16:19:20:238,0,-6.5318,-4.42728,68.9651,Q,Q
2023-03-14 16:19:20:248,0,-6.52828,-4.43414,68.9678,Q,Q
2023-03-14 16:19:20:258,0,-6.5263,-4.43892,68.9707,Q,Q
2023-03-14 16:19:20:268,0,-6.52118,-4.44722,68.977,Q,Q
2023-03-14 16:19:20:278,0,-6.51587,-4.45943,68.9841,Q,Q
2023-03-14 16:19:20:288,0,-6.50833,-4.47012,68.9903,Q,Q
2023-03-14 16:19:20:298,0,-6.50242,-4.48616,68.9998,Q,Q
2023-03-14 16:19:20:308,0,-6.49865,-4.49976,69.0099,Q,Q
2023-03-14 16:19:20:318,0,-6.49437,-4.51348,69.0206,Q,Q
2023-03-14 16:19:20:328,0,-6.49365,-4.52763,69.0294,Q,Q
2023-03-14 16:19:20:338,0,-6.49152,-4.54071,69.0407,Q,Q
2023-03-14 16:19:20:348,0,-6.48808,-4.55453,69.0498,Q,Q
2023-03-14 16:19:20:358,0,-6.48712,-4.56878,69.0573,Q,Q
2023-03-14 16:19:20:368,0,-6.49203,-4.58492,69.0683,Q,Q
2023-03-14 16:19:20:378,0,-6.49984,-4.59709,69.0741,Q,Q
2023-03-14 16:19:20:388,0,-6.51121,-4.60944,69.0778,Q,Q
2023-03-14 16:19:20:398,0,-6.52345,-4.6194,69.0843,Q,Q
2023-03-14 16:19:20:408,0,-6.53556,-4.63186,69.0903,Q,Q
2023-03-14 16:19:20:418,0,-6.54798,-4.63789,69.0973,Q,Q
2023-03-14 16:19:20:428,0,-6.55843,-4.64545,69.1048,Q,Q
2023-03-14 16:19:20:438,0,-6.5645,-4.64926,69.1117,Q,Q
2023-03-14 16:19:20:448,0,-6.57338,-4.6517,69.1203,Q,Q
2023-03-14 16:19:20:458,0,-6.58343,-4.65315,69.1263,Q,Q
2023-03-14 16:19:20:468,0,-6.58965,-4.65221,69.1275,Q,Q
2023-03-14 16:19:20:478,0,-6.5944,-4.65047,69.1303,Q,Q
2023-03-14 16:19:20:488,0,-6.59462,-4.64958,69.1266,Q,Q
2023-03-14 16:19:20:498,0,-6.59381,-4.65138,69.1203,Q,Q
2023-03-14 16:19:20:508,0,-6.59511,-4.65185,69.1098,Q,Q
2023-03-14 16:19:20:518,0,-6.5958,-4.65314,69.1009,Q,Q
2023-03-14 16:19:20:528,0,-6.59422,-4.65169,69.0898,Q,Q
2023-03-14 16:19:20:538,0,-6.5967,-4.6533,69.0855,Q,Q
2023-03-14 16:19:20:548,0,-6.59776,-4.65321,69.0794,Q,Q
2023-03-14 16:19:20:558,0,-6.60027,-4.65427,69.076,Q,Q
2023-03-14 16:19:20:568,0,-6.60105,-4.65753,69.0741,Q,Q
2023-03-14 16:19:20:578,0,-6.60182,-4.65885,69.0751,Q,Q
2023-03-14 16:19:20:588,0,-6.6042,-4.66414,69.0746,Q,Q
2023-03-14 16:19:20:598,0,-6.60633,-4.66747,69.0782,Q,Q
2023-03-14 16:19:20:608,0,-6.61267,-4.67263,69.0814,Q,Q
2023-03-14 16:19:20:618,0,-6.61649,-4.67462,69.0892,Q,Q
2023-03-14 16:19:20:628,0,-6.62008,-4.6732,69.0946,Q,Q
2023-03-14 16:19:20:638,0,-6.62218,-4.67415,69.0998,Q,Q
2023-03-14 16:19:20:648,0,-6.62001,-4.67305,69.1026,Q,Q
2023-03-14 16:19:20:658,0,-6.61611,-4.67435,69.101,Q,Q
2023-03-14 16:19:20:668,0,-6.61416,-4.67207,69.1017,Q,Q
2023-03-14 16:19:20:678,0,-6.61417,-4.6713,69.0999,Q,Q
2023-03-14 16:19:20:688,0,-6.61231,-4.66648,69.0937,Q,Q
2023-03-14 16:19:20:698,0,-6.6116,-4.66284,69.0836,Q,Q
2023-03-14 16:19:20:708,0,-6.61362,-4.65987,69.0735,Q,Q
2023-03-14 16:19:20:718,0,-6.61771,-4.65303,69.0667,Q,Q
2023-03-14 16:19:20:728,0,-6.62107,-4.65074,69.0568,Q,Q
2023-03-14 16:19:20:738,0,-6.6202,-4.64602,69.0473,Q,Q
2023-03-14 16:19:20:748,0,-6.62246,-4.64408,69.0453,Q,Q
2023-03-14 16:19:20:758,0,-6.63043,-4.6389,69.0409,Q,Q
2023-03-14 16:19:20:768,0,-6.63748,-4.6355,69.0409,Q,Q
2023-03-14 16:19:20:778,0,-6.64996,-4.63183,69.0415,Q,Q
2023-03-14 16:19:20:788,0,-6.66181,-4.62834,69.0443,Q,Q
2023-03-14 16:19:20:798,0,-6.67313,-4.6231,69.048,Q,Q
2023-03-14 16:19:20:808,0,-6.68581,-4.61811,69.0503,Q,Q
2023-03-14 16:19:20:818,0,-6.69613,-4.61538,69.0571,Q,Q
2023-03-14 16:19:20:828,0,-6.7005,-4.61101,69.0613,Q,Q
2023-03-14 16:19:20:838,0,-6.70659,-4.60458,69.0637,Q,Q
2023-03-14 16:19:20:848,0,-6.71174,-4.599,69.0648,Q,Q
2023-03-14 16:19:20:858,0,-6.72018,-4.59422,69.0644,Q,Q
2023-03-14 16:19:20:868,0,-6.73194,-4.58744,69.0645,Q,Q
2023-03-14 16:19:20:878,0,-6.73564,-4.58225,69.0617,Q,Q
2023-03-14 16:19:20:888,0,-6.74601,-4.57241,69.0598,Q,Q
2023-03-14 16:19:20:898,0,-6.75143,-4.56429,69.0548,Q,Q
2023-03-14 16:19:20:908,0,-6.75475,-4.55455,69.0535,Q,Q
2023-03-14 16:19:20:918,0,-6.76389,-4.54647,69.0488,Q,Q
2023-03-14 16:19:20:928,0,-6.77067,-4.54125,69.0435,Q,Q
2023-03-14 16:19:20:938,0,-6.77307,-4.53181,69.0361,Q,Q
2023-03-14 16:19:20:948,0,-6.77209,-4.52614,69.0315,Q,Q
2023-03-14 16:19:20:958,0,-6.7719,-4.51238,69.0222,Q,Q
2023-03-14 16:19:20:968,0,-6.77004,-4.49843,69.01,Q,Q
2023-03-14 16:19:20:978,0,-6.75964,-4.4819,69.0008,Q,Q
2023-03-14 16:19:20:988,0,-6.74938,-4.47212,68.9888,Q,Q
2023-03-14 16:19:20:998,0,-6.74389,-4.46311,68.9808,Q,Q
2023-03-14 16:19:21:8,0,-6.73923,-4.45522,68.9762,Q,Q
2023-03-14 16:19:21:18,0,-6.73587,-4.44706,68.9719,Q,Q
2023-03-14 16:19:21:28,0,-6.73114,-4.4418,68.9674,Q,Q
2023-03-14 16:19:21:38,0,-6.7293,-4.43581,68.9664,Q,Q
2023-03-14 16:19:21:48,0,-6.73026,-4.42972,68.965,Q,Q
2023-03-14 16:19:21:58,0,-6.73169,-4.42312,68.9664,Q,Q
2023-03-14 16:19:21:68,0,-6.73155,-4.42089,68.9663,Q,Q
2023-03-14 16:19:21:78,0,-6.72849,-4.41791,68.967,Q,Q
2023-03-14 16:19:21:88,0,-6.7275,-4.41579,68.9698,Q,Q
2023-03-14 16:19:21:98,0,-6.72805,-4.41709,68.9688,Q,Q
2023-03-14 16:19:21:108,0,-6.72505,-4.41836,68.9671,Q,Q
2023-03-14 16:19:21:118,0,-6.72179,-4.41803,68.965,Q,Q
2023-03-14 16:19:21:128,0,-6.72144,-4.41774,68.9603,Q,Q
2023-03-14 16:19:21:138,0,-6.72079,-4.41715,68.9553,Q,Q
2023-03-14 16:19:21:148,0,-6.71702,-4.41594,68.9546,Q,Q
2023-03-14 16:19:21:158,0,-6.71694,-4.41439,68.9506,Q,Q
2023-03-14 16:19:21:168,0,-6.71763,-4.41366,68.9505,Q,Q
2023-03-14 16:19:21:178,0,-6.72155,-4.41527,68.9473,Q,Q
2023-03-14 16:19:21:188,0,-6.7271,-4.41379,68.9462,Q,Q
2023-03-14 16:19:21:198,0,-6.7313,-4.41219,68.9476,Q,Q
2023-03-14 16:19:21:208,0,-6.73909,-4.41257,68.9478,Q,Q
2023-03-14 16:19:21:218,0,-6.74861,-4.41034,68.9496,Q,Q
2023-03-14 16:19:21:228,0,-6.75114,-4.4056,68.9494,Q,Q
2023-03-14 16:19:21:238,0,-6.75227,-4.40485,68.9472,Q,Q
2023-03-14 16:19:21:248,0,-6.75939,-4.40812,68.9468,Q,Q
2023-03-14 16:19:21:258,0,-6.76402,-4.40919,68.9456,Q,Q
2023-03-14 16:19:21:268,0,-6.76783,-4.40545,68.9387,Q,Q
2023-03-14 16:19:21:278,0,-6.76735,-4.40148,68.9334,Q,Q
2023-03-14 16:19:21:288,0,-6.76467,-4.39728,68.9254,Q,Q
2023-03-14 16:19:21:298,0,-6.76342,-4.39328,68.9168,Q,Q
2023-03-14 16:19:21:308,0,-6.7624,-4.38698,68.9058,Q,Q
2023-03-14 16:19:21:318,0,-6.76354,-4.38373,68.8962,Q,Q
2023-03-14 16:19:21:328,0,-6.76334,-4.38194,68.882,Q,Q
2023-03-14 16:19:21:338,0,-6.76395,-4.37787,68.8742,Q,Q
2023-03-14 16:19:21:348,0,-6.76343,-4.37627,68.8632,Q,Q
2023-03-14 16:19:21:358,0,-6.76621,-4.37484,68.852,Q,Q
2023-03-14 16:19:21:368,0,-6.76232,-4.37113,68.8412,Q,Q
2023-03-14 16:19:21:378,0,-6.76226,-4.36608,68.8325,Q,Q
2023-03-14 16:19:21:388,0,-6.76217,-4.36357,68.8291,Q,Q
2023-03-14 16:19:21:398,0,-6.75828,-4.35924,68.8261,Q,Q
2023-03-14 16:19:21:408,0,-6.7598,-4.35617,68.822,Q,Q
2023-03-14 16:19:21:418,0,-6.7586,-4.35203,68.816,Q,Q
2023-03-14 16:19:21:428,0,-6.76103,-4.35462,68.8134,Q,Q
2023-03-14 16:19:21:438,0,-6.76629,-4.3544,68.8107,Q,Q
2023-03-14 16:19:21:448,0,-6.76799,-4.35759,68.8095,Q,Q
2023-03-14 16:19:21:458,0,-6.76781,-4.35634,68.8063,Q,Q
2023-03-14 16:19:21:468,0,-6.76891,-4.35626,68.8032,Q,Q
2023-03-14 16:19:21:478,0,-6.76882,-4.35462,68.7973,Q,Q
2023-03-14 16:19:21:488,0,-6.7675,-4.3551,68.7896,Q,Q
2023-03-14 16:19:21:498,0,-6.7707,-4.35195,68.7799,Q,Q
2023-03-14 16:19:21:508,0,-6.77784,-4.35082,68.7655,Q,Q
2023-03-14 16:19:21:518,0,-6.7903,-4.34953,68.7499,Q,Q
2023-03-14 16:19:21:528,0,-6.79931,-4.35072,68.7328,Q,Q
2023-03-14 16:19:21:538,0,-6.80211,-4.35422,68.7173,Q,Q
2023-03-14 16:19:21:548,0,-6.80958,-4.35914,68.7008,Q,Q
2023-03-14 16:19:21:558,0,-6.81063,-4.36435,68.6874,Q,Q
2023-03-14 16:19:21:568,0,-6.81293,-4.36901,68.6819,Q,Q
2023-03-14 16:19:21:578,0,-6.82021,-4.37499,68.6804,Q,Q
2023-03-14 16:19:21:588,0,-6.82688,-4.37917,68.6827,Q,Q
2023-03-14 16:19:21:598,0,-6.83587,-4.3789,68.6878,Q,Q
2023-03-14 16:19:21:608,0,-6.84097,-4.38202,68.6946,Q,Q
2023-03-14 16:19:21:618,0,-6.84632,-4.38311,68.702,Q,Q
2023-03-14 16:19:21:628,0,-6.84917,-4.38451,68.7072,Q,Q
2023-03-14 16:19:21:638,0,-6.85122,-4.38572,68.7141,Q,Q
2023-03-14 16:19:21:648,0,-6.85535,-4.38486,68.7148,Q,Q
2023-03-14 16:19:21:658,0,-6.85821,-4.38781,68.7135,Q,Q
2023-03-14 16:19:21:668,0,-6.85677,-4.38908,68.7111,Q,Q
2023-03-14 16:19:21:678,0,-6.85281,-4.38959,68.7017,Q,Q
2023-03-14 16:19:21:688,0,-6.85189,-4.38555,68.6952,Q,Q
2023-03-14 16:19:21:698,0,-6.85027,-4.38105,68.6829,Q,Q
2023-03-14 16:19:21:708,0,-6.84962,-4.37426,68.6683,Q,Q
2023-03-14 16:19:21:718,0,-6.8496,-4.36731,68.6554,Q,Q
2023-03-14 16:19:21:728,0,-6.84859,-4.36188,68.6431,Q,Q
2023-03-14 16:19:21:738,0,-6.84607,-4.3576,68.6301,Q,Q
2023-03-14 16:19:21:748,0,-6.84161,-4.35592,68.6169,Q,Q
2023-03-14 16:19:21:758,0,-6.84016,-4.35409,68.6047,Q,Q
2023-03-14 16:19:21:768,0,-6.83881,-4.34583,68.5927,Q,Q
2023-03-14 16:19:21:778,0,-6.83598,-4.33487,68.5785,Q,Q
2023-03-14 16:19:21:788,0,-6.82922,-4.32517,68.5654,Q,Q
2023-03-14 16:19:21:798,0,-6.82235,-4.32103,68.5519,Q,Q
2023-03-14 16:19:21:808,0,-6.81189,-4.31951,68.5414,Q,Q
2023-03-14 16:19:21:818,0,-6.81009,-4.31976,68.5343,Q,Q
2023-03-14 16:19:21:828,0,-6.80359,-4.32108,68.5296,Q,Q
2023-03-14 16:19:21:838,0,-6.80185,-4.32298,68.523,Q,Q
2023-03-14 16:19:21:848,0,-6.80103,-4.32144,68.5183,Q,Q
2023-03-14 16:19:21:858,0,-6.79832,-4.32118,68.5166,Q,Q
2023-03-14 16:19:21:868,0,-6.79859,-4.31934,68.5177,Q,Q
2023-03-14 16:19:21:878,0,-6.79685,-4.32289,68.5205,Q,Q
2023-03-14 16:19:21:888,0,-6.79843,-4.32382,68.5255,Q,Q
2023-03-14 16:19:21:898,0,-6.7989,-4.32779,68.53,Q,Q
2023-03-14 16:19:21:908,0,-6.79926,-4.33272,68.5328,Q,Q
2023-03-14 16:19:21:918,0,-6.7992,-4.3403,68.5341,Q,Q
2023-03-14 16:19:21:928,0,-6.79728,-4.34596,68.5347,Q,Q
2023-03-14 16:19:21:938,0,-6.79956,-4.356,68.5314,Q,Q
2023-03-14 16:19:21:948,0,-6.79973,-4.3654,68.5277,Q,Q
2023-03-14 16:19:21:958,0,-6.80148,-4.37654,68.5268,Q,Q
2023-03-14 16:19:21:968,0,-6.80575,-4.38461,68.5271,Q,Q
2023-03-14 16:19:21:978,0,-6.8123,-4.39528,68.5273,Q,Q
2023-03-14 16:19:21:988,0,-6.82086,-4.40418,68.533,Q,Q
2023-03-14 16:19:21:998,0,-6.83606,-4.4154,68.5389,Q,Q
2023-03-14 16:19:22:8,0,-6.84989,-4.4284,68.5476,Q,Q
2023-03-14 16:19:22:18,0,-6.86373,-4.43836,68.5572,Q,Q
2023-03-14 16:19:22:28,0,-6.87528,-4.44518,68.5688,Q,Q
2023-03-14 16:19:22:38,0,-6.88469,-4.45341,68.5753,Q,Q
2023-03-14 16:19:22:48,0,-6.88875,-4.46009,68.5846,Q,Q
2023-03-14 16:19:22:58,0,-6.89213,-4.46682,68.5882,Q,Q
2023-03-14 16:19:22:68,0,-6.90354,-4.47295,68.5921,Q,Q
2023-03-14 16:19:22:78,0,-6.90945,-4.47571,68.5898,Q,Q
2023-03-14 16:19:22:88,0,-6.91195,-4.47734,68.5902,Q,Q
2023-03-14 16:19:22:98,0,-6.91584,-4.4763,68.5861,Q,Q
2023-03-14 16:19:22:108,0,-6.91901,-4.48042,68.5797,Q,Q
2023-03-14 16:19:22:118,0,-6.92078,-4.48186,68.5738,Q,Q
2023-03-14 16:19:22:128,0,-6.92195,-4.47989,68.5723,Q,Q
2023-03-14 16:19:22:138,0,-6.92696,-4.47825,68.5647,Q,Q
2023-03-14 16:19:22:148,0,-6.93473,-4.47346,68.5594,Q,Q
2023-03-14 16:19:22:158,0,-6.93966,-4.47059,68.5516,Q,Q
2023-03-14 16:19:22:168,0,-6.94386,-4.46637,68.5482,Q,Q
2023-03-14 16:19:22:178,0,-6.94921,-4.46509,68.5461,Q,Q
2023-03-14 16:19:22:188,0,-6.95599,-4.46367,68.5398,Q,Q
2023-03-14 16:19:22:198,0,-6.96557,-4.46348,68.5338,Q,Q
2023-03-14 16:19:22:208,0,-6.97886,-4.46275,68.5329,Q,Q
2023-03-14 16:19:22:218,0,-6.98407,-4.45922,68.531,Q,Q
2023-03-14 16:19:22:228,0,-6.99006,-4.45906,68.5292,Q,Q
2023-03-14 16:19:22:238,0,-6.99721,-4.45423,68.5314,Q,Q
2023-03-14 16:19:22:248,0,-7.00265,-4.44921,68.5337,Q,Q
2023-03-14 16:19:22:258,0,-7.00689,-4.44556,68.5373,Q,Q
2023-03-14 16:19:22:268,0,-7.0131,-4.44358,68.5441,Q,Q
2023-03-14 16:19:22:278,0,-7.01382,-4.44285,68.5535,Q,Q
2023-03-14 16:19:22:288,0,-7.01809,-4.44026,68.5627,Q,Q
2023-03-14 16:19:22:298,0,-7.02076,-4.43949,68.5724,Q,Q
2023-03-14 16:19:22:308,0,-7.02524,-4.43922,68.5799,Q,Q
2023-03-14 16:19:22:318,0,-7.02712,-4.43996,68.5852,Q,Q
2023-03-14 16:19:22:328,0,-7.02715,-4.43809,68.5901,Q,Q
2023-03-14 16:19:22:338,0,-7.02843,-4.43497,68.5934,Q,Q
2023-03-14 16:19:22:348,0,-7.03147,-4.4331,68.5969,Q,Q
2023-03-14 16:19:22:358,0,-7.04107,-4.43082,68.6017,Q,Q
2023-03-14 16:19:22:368,0,-7.04637,-4.43361,68.6082,Q,Q
2023-03-14 16:19:22:378,0,-7.05059,-4.43697,68.6121,Q,Q
2023-03-14 16:19:22:388,0,-7.05975,-4.44072,68.6179,Q,Q
2023-03-14 16:19:22:398,0,-7.06883,-4.44108,68.6261,Q,Q
2023-03-14 16:19:22:408,0,-7.07979,-4.44315,68.6367,Q,Q
2023-03-14 16:19:22:418,0,-7.09533,-4.4461,68.6477,Q,Q
2023-03-14 16:19:22:428,0,-7.10384,-4.44548,68.6577,Q,Q
2023-03-14 16:19:22:438,0,-7.11108,-4.44607,68.6679,Q,Q
2023-03-14 16:19:22:448,0,-7.11751,-4.44408,68.6784,Q,Q
2023-03-14 16:19:22:458,0,-7.12622,-4.44449,68.6905,Q,Q
2023-03-14 16:19:22:468,0,-7.13266,-4.43693,68.6965,Q,Q
2023-03-14 16:19:22:478,0,-7.13898,-4.43238,68.7025,Q,Q
2023-03-14 16:19:22:488,0,-7.14319,-4.42677,68.7078,Q,Q
2023-03-14 16:19:22:498,0,-7.14881,-4.41982,68.7031,Q,Q
2023-03-14 16:19:22:508,0,-7.15376,-4.41252,68.6978,Q,Q
2023-03-14 16:19:22:518,0,-7.16084,-4.40392,68.6901,Q,Q
2023-03-14 16:19:22:528,0,-7.17117,-4.39703,68.6787,Q,Q
2023-03-14 16:19:22:538,0,-7.18314,-4.38662,68.6625,Q,Q
2023-03-14 16:19:22:548,0,-7.19497,-4.37634,68.6479,Q,Q
2023-03-14 16:19:22:558,0,-7.20546,-4.36914,68.6373,Q,Q
2023-03-14 16:19:22:568,0,-7.2158,-4.36108,68.6246,Q,Q
2023-03-14 16:19:22:578,0,-7.22782,-4.35557,68.6136,Q,Q
2023-03-14 16:19:22:588,0,-7.23219,-4.34809,68.6066,Q,Q
2023-03-14 16:19:22:598,0,-7.2345,-4.33739,68.5982,Q,Q
2023-03-14 16:19:22:608,0,-7.2329,-4.32827,68.5909,Q,Q
2023-03-14 16:19:22:618,0,-7.22806,-4.31643,68.5827,Q,Q
2023-03-14 16:19:22:628,0,-7.22263,-4.30789,68.5746,Q,Q
2023-03-14 16:19:22:638,0,-7.21662,-4.3018,68.5706,Q,Q
2023-03-14 16:19:22:648,0,-7.20952,-4.30408,68.5687,Q,Q
2023-03-14 16:19:22:658,0,-7.20421,-4.30468,68.5663,Q,Q
2023-03-14 16:19:22:668,0,-7.19855,-4.30643,68.5623,Q,Q
2023-03-14 16:19:22:678,0,-7.19358,-4.31056,68.5612,Q,Q
2023-03-14 16:19:22:688,0,-7.18826,-4.31152,68.5614,Q,Q
2023-03-14 16:19:22:698,0,-7.1839,-4.31771,68.5619,Q,Q
2023-03-14 16:19:22:708,0,-7.18078,-4.32642,68.5649,Q,Q
2023-03-14 16:19:22:718,0,-7.17725,-4.33561,68.572,Q,Q
2023-03-14 16:19:22:728,0,-7.17445,-4.34666,68.5783,Q,Q
2023-03-14 16:19:22:738,0,-7.17087,-4.3601,68.5824,Q,Q
2023-03-14 16:19:22:748,0,-7.16627,-4.3736,68.5898,Q,Q
2023-03-14 16:19:22:758,0,-7.16367,-4.38331,68.5988,Q,Q
2023-03-14 16:19:22:768,0,-7.16287,-4.39644,68.6085,Q,Q
2023-03-14 16:19:22:778,0,-7.16397,-4.40792,68.62,Q,Q
2023-03-14 16:19:22:788,0,-7.16746,-4.4172,68.6265,Q,Q
2023-03-14 16:19:22:798,0,-7.16943,-4.42835,68.6336,Q,Q
2023-03-14 16:19:22:808,0,-7.17288,-4.43867,68.6405,Q,Q
2023-03-14 16:19:22:818,0,-7.17899,-4.44663,68.647,Q,Q
2023-03-14 16:19:22:828,0,-7.18685,-4.45359,68.6539,Q,Q
2023-03-14 16:19:22:838,0,-7.1986,-4.45906,68.6587,Q,Q
2023-03-14 16:19:22:848,0,-7.2114,-4.46643,68.6651,Q,Q
2023-03-14 16:19:22:858,0,-7.22375,-4.47212,68.6702,Q,Q
2023-03-14 16:19:22:868,0,-7.2341,-4.47938,68.6732,Q,Q
2023-03-14 16:19:22:878,0,-7.23988,-4.4815,68.6746,Q,Q
2023-03-14 16:19:22:888,0,-7.24303,-4.47965,68.6759,Q,Q
2023-03-14 16:19:22:898,0,-7.24564,-4.47666,68.6722,Q,Q
2023-03-14 16:19:22:908,0,-7.247,-4.47525,68.6685,Q,Q
2023-03-14 16:19:22:918,0,-7.24517,-4.47175,68.6615,Q,Q
2023-03-14 16:19:22:928,0,-7.24574,-4.47018,68.6568,Q,Q
2023-03-14 16:19:22:938,0,-7.24839,-4.46449,68.65,Q,Q
2023-03-14 16:19:22:948,0,-7.24658,-4.4581,68.6427,Q,Q
2023-03-14 16:19:22:958,0,-7.25041,-4.45015,68.6346,Q,Q
2023-03-14 16:19:22:968,0,-7.25191,-4.44269,68.6284,Q,Q
2023-03-14 16:19:22:978,0,-7.25336,-4.43729,68.6243,Q,Q
2023-03-14 16:19:22:988,0,-7.25189,-4.43302,68.6187,Q,Q
2023-03-14 16:19:22:998,0,-7.24961,-4.42655,68.6125,Q,Q
2023-03-14 16:19:23:8,0,-7.24671,-4.42261,68.6055,Q,Q
2023-03-14 16:19:23:18,0,-7.24241,-4.41795,68.6021,Q,Q
2023-03-14 16:19:23:28,0,-7.23964,-4.41579,68.5987,Q,Q
2023-03-14 16:19:23:38,0,-7.23572,-4.41755,68.5976,Q,Q
2023-03-14 16:19:23:48,0,-7.23513,-4.41952,68.5969,Q,Q
2023-03-14 16:19:23:58,0,-7.23464,-4.41757,68.5958,Q,Q
2023-03-14 16:19:23:68,0,-7.2356,-4.41739,68.5992,Q,Q
2023-03-14 16:19:23:78,0,-7.23651,-4.4185,68.6039,Q,Q
2023-03-14 16:19:23:88,0,-7.23892,-4.4192,68.6056,Q,Q
2023-03-14 16:19:23:98,0,-7.24244,-4.4208,68.6063,Q,Q
2023-03-14 16:19:23:108,0,-7.24445,-4.42164,68.609,Q,Q
2023-03-14 16:19:23:118,0,-7.24778,-4.42049,68.6134,Q,Q
2023-03-14 16:19:23:128,0,-7.25158,-4.41942,68.6162,Q,Q
2023-03-14 16:19:23:138,0,-7.2555,-4.417,68.6192,Q,Q
2023-03-14 16:19:23:148,0,-7.25692,-4.41826,68.6178,Q,Q
2023-03-14 16:19:23:158,0,-7.25984,-4.41719,68.6158,Q,Q
2023-03-14 16:19:23:168,0,-7.26543,-4.41371,68.6147,Q,Q
2023-03-14 16:19:23:178,0,-7.27011,-4.41216,68.6131,Q,Q
2023-03-14 16:19:23:188,0,-7.27227,-4.40792,68.6122,Q,Q
2023-03-14 16:19:23:198,0,-7.27026,-4.40295,68.6101,Q,Q
2023-03-14 16:19:23:208,0,-7.27345,-4.40323,68.6109,Q,Q
2023-03-14 16:19:23:218,0,-7.27555,-4.40237,68.6082,Q,Q
2023-03-14 16:19:23:228,0,-7.28002,-4.40315,68.6096,Q,Q
2023-03-14 16:19:23:238,0,-7.28704,-4.40259,68.6099,Q,Q
2023-03-14 16:19:23:248,0,-7.2927,-4.40149,68.6099,Q,Q
2023-03-14 16:19:23:258,0,-7.29868,-4.40277,68.613,Q,Q
2023-03-14 16:19:23:268,0,-7.3049,-4.40195,68.6146,Q,Q
2023-03-14 16:19:23:278,0,-7.3108,-4.40323,68.6173,Q,Q
2023-03-14 16:19:23:288,0,-7.31647,-4.4025,68.6152,Q,Q
2023-03-14 16:19:23:298,0,-7.3198,-4.39762,68.6169,Q,Q
2023-03-14 16:19:23:308,0,-7.32517,-4.39601,68.6133,Q,Q
2023-03-14 16:19:23:318,0,-7.33165,-4.39419,68.6084,Q,Q
2023-03-14 16:19:23:328,0,-7.33681,-4.38643,68.6054,Q,Q
2023-03-14 16:19:23:338,0,-7.3445,-4.38121,68.6021,Q,Q
2023-03-14 16:19:23:348,0,-7.35304,-4.37915,68.5961,Q,Q
2023-03-14 16:19:23:358,0,-7.36284,-4.37765,68.5911,Q,Q
2023-03-14 16:19:23:368,0,-7.37284,-4.37427,68.5871,Q,Q
2023-03-14 16:19:23:378,0,-7.38339,-4.37337,68.5813,Q,Q
2023-03-14 16:19:23:388,0,-7.39116,-4.36903,68.5748,Q,Q
2023-03-14 16:19:23:398,0,-7.39364,-4.36539,68.5711,Q,Q
2023-03-14 16:19:23:408,0,-7.39496,-4.3608,68.5681,Q,Q
2023-03-14 16:19:23:418,0,-7.39804,-4.3549,68.5671,Q,Q
2023-03-14 16:19:23:428,0,-7.39619,-4.34636,68.5588,Q,Q
2023-03-14 16:19:23:438,0,-7.39322,-4.33629,68.5508,Q,Q
2023-03-14 16:19:23:448,0,-7.38722,-4.33079,68.5431,Q,Q
2023-03-14 16:19:23:458,0,-7.38376,-4.32746,68.5354,Q,Q
2023-03-14 16:19:23:468,0,-7.38564,-4.32565,68.5278,Q,Q
2023-03-14 16:19:23:478,0,-7.38403,-4.32439,68.5262,Q,Q
2023-03-14 16:19:23:488,0,-7.38667,-4.32309,68.5241,Q,Q
2023-03-14 16:19:23:498,0,-7.38808,-4.32387,68.5265,Q,Q
2023-03-14 16:19:23:508,0,-7.38859,-4.32559,68.527,Q,Q
2023-03-14 16:19:23:518,0,-7.38735,-4.32483,68.5272,Q,Q
2023-03-14 16:19:23:528,0,-7.38491,-4.3251,68.5298,Q,Q
2023-03-14 16:19:23:538,0,-7.3806,-4.32519,68.5301,Q,Q
2023-03-14 16:19:23:548,0,-7.37486,-4.32575,68.5299,Q,Q
2023-03-14 16:19:23:558,0,-7.36965,-4.32459,68.5291,Q,Q
2023-03-14 16:19:23:568,0,-7.36418,-4.32538,68.5298,Q,Q
2023-03-14 16:19:23:578,0,-7.36134,-4.32743,68.5308,Q,Q
2023-03-14 16:19:23:588,0,-7.35798,-4.32936,68.5312,Q,Q
2023-03-14 16:19:23:598,0,-7.35773,-4.33339,68.5324,Q,Q
2023-03-14 16:19:23:608,0,-7.35731,-4.33723,68.534,Q,Q
2023-03-14 16:19:23:618,0,-7.35315,-4.34512,68.5384,Q,Q
2023-03-14 16:19:23:628,0,-7.3536,-4.35151,68.5416,Q,Q
2023-03-14 16:19:23:638,0,-7.35298,-4.36227,68.5457,Q,Q
2023-03-14 16:19:23:648,0,-7.35179,-4.36453,68.5471,Q,Q
2023-03-14 16:19:23:658,0,-7.35111,-4.37027,68.5526,Q,Q
2023-03-14 16:19:23:668,0,-7.35138,-4.37775,68.5575,Q,Q
2023-03-14 16:19:23:678,0,-7.35532,-4.3814,68.5652,Q,Q
2023-03-14 16:19:23:688,0,-7.36154,-4.38418,68.5689,Q,Q
2023-03-14 16:19:23:698,0,-7.36604,-4.38809,68.5724,Q,Q
2023-03-14 16:19:23:708,0,-7.36649,-4.38736,68.5747,Q,Q
2023-03-14 16:19:23:718,0,-7.36601,-4.38586,68.5775,Q,Q
2023-03-14 16:19:23:728,0,-7.36401,-4.38229,68.5765,Q,Q
2023-03-14 16:19:23:738,0,-7.36393,-4.37833,68.5711,Q,Q
2023-03-14 16:19:23:748,0,-7.3639,-4.37558,68.5662,Q,Q
2023-03-14 16:19:23:758,0,-7.3607,-4.37183,68.5579,Q,Q
2023-03-14 16:19:23:768,0,-7.35862,-4.36609,68.547,Q,Q
2023-03-14 16:19:23:778,0,-7.35865,-4.3613,68.5356,Q,Q
2023-03-14 16:19:23:788,0,-7.36147,-4.35677,68.5266,Q,Q
2023-03-14 16:19:23:798,0,-7.36279,-4.35384,68.5157,Q,Q
2023-03-14 16:19:23:808,0,-7.36736,-4.35006,68.5069,Q,Q
2023-03-14 16:19:23:818,0,-7.37348,-4.34263,68.4998,Q,Q
2023-03-14 16:19:23:828,0,-7.37907,-4.33344,68.4972,Q,Q
2023-03-14 16:19:23:838,0,-7.38247,-4.32868,68.4932,Q,Q
2023-03-14 16:19:23:848,0,-7.38431,-4.32433,68.4959,Q,Q
2023-03-14 16:19:23:858,0,-7.38811,-4.31824,68.4976,Q,Q
2023-03-14 16:19:23:868,0,-7.39095,-4.31576,68.5022,Q,Q
2023-03-14 16:19:23:878,0,-7.3944,-4.31549,68.5071,Q,Q
2023-03-14 16:19:23:888,0,-7.39572,-4.31386,68.5073,Q,Q
2023-03-14 16:19:23:898,0,-7.40066,-4.32059,68.5082,Q,Q
2023-03-14 16:19:23:908,0,-7.40229,-4.31987,68.5099,Q,Q
2023-03-14 16:19:23:918,0,-7.40627,-4.31821,68.5069,Q,Q
2023-03-14 16:19:23:928,0,-7.40994,-4.31268,68.508,Q,Q
2023-03-14 16:19:23:938,0,-7.41281,-4.31053,68.5052,Q,Q
2023-03-14 16:19:23:948,0,-7.41664,-4.31162,68.4997,Q,Q
2023-03-14 16:19:23:958,0,-7.42555,-4.30913,68.4949,Q,Q
2023-03-14 16:19:23:968,0,-7.43105,-4.30544,68.494,Q,Q
2023-03-14 16:19:23:978,0,-7.43396,-4.30587,68.4889,Q,Q
2023-03-14 16:19:23:988,0,-7.43657,-4.30461,68.4875,Q,Q
2023-03-14 16:19:23:998,0,-7.43956,-4.30624,68.4837,Q,Q
2023-03-14 16:19:24:8,0,-7.44408,-4.30983,68.4811,Q,Q
2023-03-14 16:19:24:18,0,-7.44973,-4.31409,68.4824,Q,Q
2023-03-14 16:19:24:28,0,-7.4568,-4.31745,68.4847,Q,Q
2023-03-14 16:19:24:38,0,-7.46671,-4.32044,68.4877,Q,Q
2023-03-14 16:19:24:48,0,-7.47446,-4.32104,68.4888,Q,Q
2023-03-14 16:19:24:58,0,-7.48936,-4.32354,68.4913,Q,Q
2023-03-14 16:19:24:68,0,-7.49858,-4.32744,68.4963,Q,Q
2023-03-14 16:19:24:78,0,-7.50875,-4.33389,68.5003,Q,Q
2023-03-14 16:19:24:88,0,-7.51669,-4.33389,68.5054,Q,Q
2023-03-14 16:19:24:98,0,-7.52327,-4.33488,68.5065,Q,Q
2023-03-14 16:19:24:108,0,-7.52898,-4.33056,68.508,Q,Q
2023-03-14 16:19:24:118,0,-7.53501,-4.32572,68.5086,Q,Q
2023-03-14 16:19:24:128,0,-7.54451,-4.31907,68.5086,Q,Q
2023-03-14 16:19:24:138,0,-7.54742,-4.31514,68.5004,Q,Q
2023-03-14 16:19:24:148,0,-7.54857,-4.30728,68.4899,Q,Q
2023-03-14 16:19:24:158,0,-7.55292,-4.30314,68.48,Q,Q
2023-03-14 16:19:24:168,0,-7.56148,-4.29425,68.4711,Q,Q
2023-03-14 16:19:24:178,0,-7.56717,-4.28758,68.4605,Q,Q
2023-03-14 16:19:24:188,0,-7.57067,-4.28105,68.4507,Q,Q
2023-03-14 16:19:24:198,0,-7.57187,-4.27317,68.4428,Q,Q
2023-03-14 16:19:24:208,0,-7.5702,-4.26632,68.4361,Q,Q
2023-03-14 16:19:24:218,0,-7.56987,-4.25869,68.4269,Q,Q
2023-03-14 16:19:24:228,0,-7.56593,-4.24633,68.4182,Q,Q
2023-03-14 16:19:24:238,0,-7.56013,-4.23716,68.4129,Q,Q
2023-03-14 16:19:24:248,0,-7.55189,-4.23271,68.4052,Q,Q
2023-03-14 16:19:24:258,0,-7.54045,-4.22951,68.3993,Q,Q
2023-03-14 16:19:24:268,0,-7.52775,-4.229,68.3987,Q,Q
2023-03-14 16:19:24:278,0,-7.52012,-4.22976,68.4003,Q,Q
2023-03-14 16:19:24:288,0,-7.51389,-4.23383,68.4019,Q,Q
2023-03-14 16:19:24:298,0,-7.50754,-4.2355,68.4037,Q,Q
2023-03-14 16:19:24:308,0,-7.50342,-4.23381,68.405,Q,Q
2023-03-14 16:19:24:318,0,-7.49814,-4.23403,68.4085,Q,Q
2023-03-14 16:19:24:328,0,-7.4977,-4.23482,68.4138,Q,Q
2023-03-14 16:19:24:338,0,-7.49557,-4.23917,68.4183,Q,Q
2023-03-14 16:19:24:348,0,-7.49218,-4.24269,68.4295,Q,Q
2023-03-14 16:19:24:358,0,-7.48905,-4.24819,68.4353,Q,Q
2023-03-14 16:19:24:368,0,-7.48259,-4.25241,68.4418,Q,Q
2023-03-14 16:19:24:378,0,-7.47587,-4.25865,68.4447,Q,Q
2023-03-14 16:19:24:388,0,-7.4687,-4.26594,68.4489,Q,Q
2023-03-14 16:19:24:398,0,-7.4642,-4.27087,68.4539,Q,Q
2023-03-14 16:19:24:408,0,-7.46164,-4.27306,68.4566,Q,Q
2023-03-14 16:19:24:418,0,-7.46175,-4.28032,68.4605,Q,Q
2023-03-14 16:19:24:428,0,-7.46273,-4.28536,68.466,Q,Q
2023-03-14 16:19:24:438,0,-7.46614,-4.28872,68.4741,Q,Q
2023-03-14 16:19:24:448,0,-7.46904,-4.29213,68.4821,Q,Q
2023-03-14 16:19:24:458,0,-7.47353,-4.29624,68.4894,Q,Q
2023-03-14 16:19:24:468,0,-7.48421,-4.29786,68.4962,Q,Q
2023-03-14 16:19:24:478,0,-7.49125,-4.2985,68.4978,Q,Q
2023-03-14 16:19:24:488,0,-7.49688,-4.30091,68.4993,Q,Q
2023-03-14 16:19:24:498,0,-7.50106,-4.302,68.5042,Q,Q
2023-03-14 16:19:24:508,0,-7.50485,-4.29968,68.5066,Q,Q
2023-03-14 16:19:24:518,0,-7.50769,-4.29689,68.506,Q,Q
2023-03-14 16:19:24:528,0,-7.50948,-4.29515,68.5036,Q,Q
2023-03-14 16:19:24:538,0,-7.51288,-4.29031,68.4985,Q,Q
2023-03-14 16:19:24:548,0,-7.51174,-4.28395,68.4914,Q,Q
2023-03-14 16:19:24:558,0,-7.51539,-4.27467,68.4855,Q,Q
2023-03-14 16:19:24:568,0,-7.51746,-4.26576,68.4806,Q,Q
2023-03-14 16:19:24:578,0,-7.5237,-4.26148,68.4752,Q,Q
2023-03-14 16:19:24:588,0,-7.52957,-4.25368,68.4741,Q,Q
2023-03-14 16:19:24:598,0,-7.53762,-4.24865,68.4684,Q,Q
2023-03-14 16:19:24:608,0,-7.54366,-4.24327,68.4638,Q,Q
2023-03-14 16:19:24:618,0,-7.54898,-4.23919,68.4589,Q,Q
2023-03-14 16:19:24:628,0,-7.55598,-4.23501,68.4553,Q,Q
2023-03-14 16:19:24:638,0,-7.56346,-4.23159,68.4529,Q,Q
2023-03-14 16:19:24:648,0,-7.57098,-4.22884,68.4497,Q,Q
2023-03-14 16:19:24:658,0,-7.57794,-4.22662,68.4509,Q,Q
2023-03-14 16:19:24:668,0,-7.58777,-4.22664,68.4526,Q,Q
2023-03-14 16:19:24:678,0,-7.59637,-4.22686,68.4533,Q,Q
2023-03-14 16:19:24:688,0,-7.60561,-4.229,68.4591,Q,Q
2023-03-14 16:19:24:698,0,-7.6116,-4.22788,68.4656,Q,Q
2023-03-14 16:19:24:708,0,-7.61974,-4.22671,68.4717,Q,Q
2023-03-14 16:19:24:718,0,-7.6308,-4.22299,68.4775,Q,Q
2023-03-14 16:19:24:728,0,-7.63925,-4.2225,68.485,Q,Q
2023-03-14 16:19:24:738,0,-7.65089,-4.21984,68.4905,Q,Q
2023-03-14 16:19:24:748,0,-7.6578,-4.21605,68.4949,Q,Q
2023-03-14 16:19:24:758,0,-7.66379,-4.21292,68.497,Q,Q
2023-03-14 16:19:24:768,0,-7.66759,-4.2119,68.4958,Q,Q
2023-03-14 16:19:24:778,0,-7.67499,-4.20688,68.4928,Q,Q
2023-03-14 16:19:24:788,0,-7.68404,-4.2027,68.4903,Q,Q
2023-03-14 16:19:24:798,0,-7.69027,-4.20107,68.4855,Q,Q
2023-03-14 16:19:24:808,0,-7.69179,-4.20483,68.4794,Q,Q
2023-03-14 16:19:24:818,0,-7.69369,-4.20782,68.4771,Q,Q
2023-03-14 16:19:24:828,0,-7.69624,-4.21542,68.4764,Q,Q
2023-03-14 16:19:24:838,0,-7.70251,-4.22353,68.4797,Q,Q
2023-03-14 16:19:24:848,0,-7.71036,-4.23061,68.4844,Q,Q
2023-03-14 16:19:24:858,0,-7.71668,-4.23729,68.4869,Q,Q
2023-03-14 16:19:24:868,0,-7.72663,-4.2409,68.4925,Q,Q
2023-03-14 16:19:24:878,0,-7.73733,-4.24344,68.5042,Q,Q
2023-03-14 16:19:24:888,0,-7.74377,-4.24748,68.5127,Q,Q
2023-03-14 16:19:24:898,0,-7.7446,-4.25028,68.5244,Q,Q
2023-03-14 16:19:24:908,0,-7.74701,-4.25234,68.5323,Q,Q
2023-03-14 16:19:24:918,0,-7.74663,-4.25353,68.5373,Q,Q
2023-03-14 16:19:24:928,0,-7.74688,-4.25132,68.5409,Q,Q
2023-03-14 16:19:24:938,0,-7.74861,-4.24867,68.5432,Q,Q
2023-03-14 16:19:24:948,0,-7.75115,-4.2441,68.5424,Q,Q
2023-03-14 16:19:24:958,0,-7.75738,-4.24026,68.5398,Q,Q
2023-03-14 16:19:24:968,0,-7.75952,-4.23036,68.5372,Q,Q
2023-03-14 16:19:24:978,0,-7.76277,-4.2253,68.5346,Q,Q
2023-03-14 16:19:24:988,0,-7.76497,-4.2195,68.5285,Q,Q
2023-03-14 16:19:24:998,0,-7.76669,-4.21384,68.5233,Q,Q
2023-03-14 16:19:25:8,0,-7.76983,-4.20935,68.5181,Q,Q
2023-03-14 16:19:25:18,0,-7.7722,-4.20702,68.5142,Q,Q
2023-03-14 16:19:25:28,0,-7.77591,-4.20289,68.5114,Q,Q
2023-03-14 16:19:25:38,0,-7.7765,-4.19479,68.506,Q,Q
2023-03-14 16:19:25:48,0,-7.77311,-4.18779,68.5008,Q,Q
2023-03-14 16:19:25:58,0,-7.76623,-4.17911,68.4931,Q,Q
2023-03-14 16:19:25:68,0,-7.75509,-4.17515,68.4865,Q,Q
2023-03-14 16:19:25:78,0,-7.74496,-4.17788,68.4877,Q,Q
2023-03-14 16:19:25:88,0,-7.73452,-4.17912,68.4896,Q,Q
2023-03-14 16:19:25:98,0,-7.72713,-4.17719,68.4911,Q,Q
2023-03-14 16:19:25:108,0,-7.72294,-4.17749,68.4935,Q,Q
2023-03-14 16:19:25:118,0,-7.71933,-4.17954,68.4929,Q,Q
2023-03-14 16:19:25:128,0,-7.71718,-4.17632,68.4993,Q,Q
2023-03-14 16:19:25:138,0,-7.71303,-4.17805,68.5061,Q,Q
2023-03-14 16:19:25:148,0,-7.71277,-4.18156,68.513,Q,Q
2023-03-14 16:19:25:158,0,-7.71321,-4.18541,68.5211,Q,Q
2023-03-14 16:19:25:168,0,-7.71161,-4.18881,68.529,Q,Q
2023-03-14 16:19:25:178,0,-7.714,-4.19228,68.5366,Q,Q
2023-03-14 16:19:25:188,0,-7.71405,-4.19651,68.5445,Q,Q
2023-03-14 16:19:25:198,0,-7.71893,-4.20609,68.5519,Q,Q
2023-03-14 16:19:25:208,0,-7.71886,-4.21421,68.5556,Q,Q
2023-03-14 16:19:25:218,0,-7.72405,-4.22503,68.5616,Q,Q
2023-03-14 16:19:25:228,0,-7.7276,-4.23337,68.567,Q,Q
2023-03-14 16:19:25:238,0,-7.73392,-4.24067,68.5694,Q,Q
2023-03-14 16:19:25:248,0,-7.74371,-4.25001,68.5769,Q,Q
2023-03-14 16:19:25:258,0,-7.74979,-4.25846,68.5857,Q,Q
2023-03-14 16:19:25:268,0,-7.75976,-4.26849,68.5956,Q,Q
2023-03-14 16:19:25:278,0,-7.76993,-4.27527,68.607,Q,Q
2023-03-14 16:19:25:288,0,-7.7777,-4.28501,68.6171,Q,Q
2023-03-14 16:19:25:298,0,-7.78623,-4.29193,68.6251,Q,Q
2023-03-14 16:19:25:308,0,-7.79735,-4.29531,68.6351,Q,Q
2023-03-14 16:19:25:318,0,-7.80414,-4.29817,68.6441,Q,Q
2023-03-14 16:19:25:328,0,-7.81164,-4.29965,68.6488,Q,Q
2023-03-14 16:19:25:338,0,-7.81428,-4.29773,68.652,Q,Q
2023-03-14 16:19:25:348,0,-7.81667,-4.29652,68.6501,Q,Q
2023-03-14 16:19:25:358,0,-7.81773,-4.29294,68.6471,Q,Q
2023-03-14 16:19:25:368,0,-7.8165,-4.2909,68.6445,Q,Q
2023-03-14 16:19:25:378,0,-7.81721,-4.29295,68.6374,Q,Q
2023-03-14 16:19:25:388,0,-7.81437,-4.29288,68.6324,Q,Q
2023-03-14 16:19:25:398,0,-7.81354,-4.28947,68.6234,Q,Q
2023-03-14 16:19:25:408,0,-7.81606,-4.28786,68.6183,Q,Q
2023-03-14 16:19:25:418,0,-7.81855,-4.28751,68.6132,Q,Q
2023-03-14 16:19:25:428,0,-7.81964,-4.28591,68.6095,Q,Q
2023-03-14 16:19:25:438,0,-7.81981,-4.28441,68.6069,Q,Q
2023-03-14 16:19:25:448,0,-7.82174,-4.28867,68.603,Q,Q
2023-03-14 16:19:25:458,0,-7.82608,-4.29118,68.5995,Q,Q
2023-03-14 16:19:25:468,0,-7.82741,-4.29618,68.5979,Q,Q
2023-03-14 16:19:25:478,0,-7.83129,-4.30196,68.6001,Q,Q
2023-03-14 16:19:25:488,0,-7.83539,-4.30699,68.6047,Q,Q
2023-03-14 16:19:25:498,0,-7.83868,-4.31358,68.6084,Q,Q
2023-03-14 16:19:25:508,0,-7.83743,-4.32007,68.6166,Q,Q
2023-03-14 16:19:25:518,0,-7.83823,-4.32547,68.6241,Q,Q
2023-03-14 16:19:25:528,0,-7.8386,-4.3326,68.6305,Q,Q
2023-03-14 16:19:25:538,0,-7.83939,-4.33946,68.6359,Q,Q
2023-03-14 16:19:25:548,0,-7.84199,-4.3463,68.642,Q,Q
2023-03-14 16:19:25:558,0,-7.84364,-4.3516,68.6499,Q,Q
2023-03-14 16:19:25:568,0,-7.84679,-4.35705,68.6525,Q,Q
2023-03-14 16:19:25:578,0,-7.85339,-4.35814,68.6551,Q,Q
2023-03-14 16:19:25:588,0,-7.86086,-4.35868,68.6589,Q,Q
2023-03-14 16:19:25:598,0,-7.86613,-4.35616,68.6572,Q,Q
2023-03-14 16:19:25:608,0,-7.86937,-4.35649,68.6566,Q,Q
2023-03-14 16:19:25:618,0,-7.86806,-4.35998,68.6579,Q,Q
2023-03-14 16:19:25:628,0,-7.86766,-4.36715,68.6555,Q,Q
2023-03-14 16:19:25:638,0,-7.86838,-4.37356,68.6566,Q,Q
2023-03-14 16:19:25:648,0,-7.86715,-4.37897,68.6575,Q,Q
2023-03-14 16:19:25:658,0,-7.86407,-4.38338,68.6548,Q,Q
2023-03-14 16:19:25:668,0,-7.8634,-4.38863,68.6529,Q,Q
2023-03-14 16:19:25:678,0,-7.86563,-4.38953,68.6461,Q,Q
2023-03-14 16:19:25:688,0,-7.87027,-4.39079,68.6432,Q,Q
2023-03-14 16:19:25:698,0,-7.87505,-4.38923,68.6409,Q,Q
2023-03-14 16:19:25:708,0,-7.87239,-4.38836,68.6397,Q,Q
2023-03-14 16:19:25:718,0,-7.87248,-4.38467,68.6355,Q,Q
2023-03-14 16:19:25:728,0,-7.87447,-4.38443,68.6356,Q,Q
2023-03-14 16:19:25:738,0,-7.87668,-4.38252,68.6329,Q,Q
2023-03-14 16:19:25:748,0,-7.87913,-4.37713,68.6319,Q,Q
2023-03-14 16:19:25:758,0,-7.88451,-4.37225,68.6304,Q,Q
2023-03-14 16:19:25:768,0,-7.8904,-4.36681,68.6268,Q,Q
2023-03-14 16:19:25:778,0,-7.89716,-4.36051,68.6238,Q,Q
2023-03-14 16:19:25:788,0,-7.90112,-4.35466,68.6185,Q,Q
2023-03-14 16:19:25:798,0,-7.90576,-4.35209,68.6121,Q,Q
2023-03-14 16:19:25:808,0,-7.90919,-4.34614,68.6077,Q,Q
2023-03-14 16:19:25:818,0,-7.91066,-4.34549,68.6039,Q,Q
2023-03-14 16:19:25:828,0,-7.90913,-4.34285,68.5994,Q,Q
2023-03-14 16:19:25:838,0,-7.90455,-4.33951,68.5929,Q,Q
2023-03-14 16:19:25:848,0,-7.89592,-4.33306,68.5875,Q,Q
2023-03-14 16:19:25:858,0,-7.88822,-4.32449,68.5799,Q,Q
