Timestamp_cmd,imu_cmd,roll_delta,pitch_delta,yaw_delta,voice_type,voice_length
2023-03-15 12:51:24:52,0,3.18804,-4.44849,-28.8207,Q,Q
2023-03-15 12:51:24:54,0,3.17695,-4.44179,-28.8085,Q,Q
2023-03-15 12:51:24:64,0,3.15524,-4.43688,-28.7964,Q,Q
2023-03-15 12:51:24:74,0,3.14931,-4.43249,-28.784,Q,Q
2023-03-15 12:51:24:84,0,3.1529,-4.42573,-28.766,Q,Q
2023-03-15 12:51:24:94,0,3.15558,-4.41943,-28.7376,Q,Q
2023-03-15 12:51:24:104,0,3.15796,-4.41135,-28.7106,Q,Q
2023-03-15 12:51:24:114,0,3.16234,-4.40767,-28.6829,Q,Q
2023-03-15 12:51:24:124,0,3.17256,-4.40431,-28.6599,Q,Q
2023-03-15 12:51:24:134,0,3.19201,-4.40155,-28.6299,Q,Q
2023-03-15 12:51:24:144,0,3.2253,-4.39318,-28.6006,Q,Q
2023-03-15 12:51:24:154,0,3.26545,-4.38926,-28.5643,Q,Q
2023-03-15 12:51:24:164,0,3.31696,-4.39218,-28.529,Q,Q
2023-03-15 12:51:24:174,0,3.37911,-4.40699,-28.4882,Q,Q
2023-03-15 12:51:24:184,0,3.44789,-4.41972,-28.4434,Q,Q
2023-03-15 12:51:24:194,0,3.51389,-4.43679,-28.3947,Q,Q
2023-03-15 12:51:24:204,0,3.57033,-4.44772,-28.3463,Q,Q
2023-03-15 12:51:24:214,0,3.61315,-4.46196,-28.2965,Q,Q
2023-03-15 12:51:24:224,0,3.64945,-4.47947,-28.2469,Q,Q
2023-03-15 12:51:24:234,0,3.68247,-4.49381,-28.2012,Q,Q
2023-03-15 12:51:24:244,0,3.70966,-4.50927,-28.1524,Q,Q
2023-03-15 12:51:24:254,0,3.73631,-4.52395,-28.1113,Q,Q
2023-03-15 12:51:24:264,0,3.75999,-4.53849,-28.0729,Q,Q
2023-03-15 12:51:24:274,0,3.78264,-4.55508,-28.04,Q,Q
2023-03-15 12:51:24:284,0,3.80187,-4.56481,-28.012,Q,Q
2023-03-15 12:51:24:294,0,3.81818,-4.5754,-27.9866,Q,Q
2023-03-15 12:51:24:304,0,3.83567,-4.58186,-27.9644,Q,Q
2023-03-15 12:51:24:313,0,3.84275,-4.5874,-27.9458,Q,Q
2023-03-15 12:51:24:323,0,3.84241,-4.59563,-27.9299,Q,Q
2023-03-15 12:51:24:334,0,3.83344,-4.60756,-27.919,Q,Q
2023-03-15 12:51:24:343,0,3.81981,-4.61545,-27.9131,Q,Q
2023-03-15 12:51:24:353,0,3.8023,-4.61802,-27.9119,Q,Q
2023-03-15 12:51:24:364,0,3.77773,-4.6201,-27.9142,Q,Q
2023-03-15 12:51:24:374,0,3.75051,-4.62151,-27.9199,Q,Q
2023-03-15 12:51:24:384,0,3.72559,-4.62058,-27.9269,Q,Q
2023-03-15 12:51:24:394,0,3.704,-4.62318,-27.9351,Q,Q
2023-03-15 12:51:24:404,0,3.68479,-4.62748,-27.9468,Q,Q
2023-03-15 12:51:24:414,0,3.66388,-4.62728,-27.9585,Q,Q
2023-03-15 12:51:24:424,0,3.64482,-4.63315,-27.9716,Q,Q
2023-03-15 12:51:24:434,0,3.62878,-4.6384,-27.9839,Q,Q
2023-03-15 12:51:24:444,0,3.61303,-4.6428,-27.9952,Q,Q
2023-03-15 12:51:24:454,0,3.59527,-4.64246,-28.009,Q,Q
2023-03-15 12:51:24:464,0,3.57674,-4.64506,-28.0262,Q,Q
2023-03-15 12:51:24:474,0,3.56144,-4.64163,-28.0418,Q,Q
2023-03-15 12:51:24:484,0,3.53977,-4.63381,-28.0538,Q,Q
2023-03-15 12:51:24:494,0,3.51951,-4.62837,-28.0664,Q,Q
2023-03-15 12:51:24:503,0,3.5003,-4.62095,-28.0823,Q,Q
2023-03-15 12:51:24:513,0,3.47805,-4.61248,-28.0973,Q,Q
2023-03-15 12:51:24:523,0,3.46247,-4.60764,-28.1141,Q,Q
2023-03-15 12:51:24:533,0,3.4473,-4.5959,-28.1273,Q,Q
2023-03-15 12:51:24:543,0,3.43947,-4.58742,-28.1382,Q,Q
2023-03-15 12:51:24:553,0,3.43451,-4.58093,-28.1504,Q,Q
2023-03-15 12:51:24:563,0,3.42816,-4.57115,-28.1623,Q,Q
2023-03-15 12:51:24:573,0,3.42441,-4.55786,-28.1748,Q,Q
2023-03-15 12:51:24:583,0,3.42025,-4.54678,-28.1877,Q,Q
2023-03-15 12:51:24:593,0,3.41345,-4.53199,-28.2021,Q,Q
2023-03-15 12:51:24:603,0,3.39825,-4.52059,-28.2158,Q,Q
2023-03-15 12:51:24:613,0,3.38459,-4.51091,-28.226,Q,Q
2023-03-15 12:51:24:623,0,3.37299,-4.50709,-28.2375,Q,Q
2023-03-15 12:51:24:633,0,3.36683,-4.50311,-28.2521,Q,Q
2023-03-15 12:51:24:643,0,3.37411,-4.5003,-28.2733,Q,Q
2023-03-15 12:51:24:653,0,3.38048,-4.49477,-28.2982,Q,Q
2023-03-15 12:51:24:663,0,3.38652,-4.48584,-28.3221,Q,Q
2023-03-15 12:51:24:673,0,3.39257,-4.47322,-28.3499,Q,Q
2023-03-15 12:51:24:683,0,3.39412,-4.45912,-28.3797,Q,Q
2023-03-15 12:51:24:693,0,3.39026,-4.44347,-28.4096,Q,Q
2023-03-15 12:51:24:703,0,3.38552,-4.42889,-28.4393,Q,Q
2023-03-15 12:51:24:714,0,3.37476,-4.41403,-28.4697,Q,Q
2023-03-15 12:51:24:723,0,3.3614,-4.40062,-28.4982,Q,Q
2023-03-15 12:51:24:733,0,3.3427,-4.38415,-28.5332,Q,Q
2023-03-15 12:51:24:743,0,3.32321,-4.3631,-28.5721,Q,Q
2023-03-15 12:51:24:753,0,3.29588,-4.3379,-28.6109,Q,Q
2023-03-15 12:51:24:763,0,3.26966,-4.31518,-28.6481,Q,Q
2023-03-15 12:51:24:773,0,3.24038,-4.29566,-28.6826,Q,Q
2023-03-15 12:51:24:783,0,3.21683,-4.28151,-28.7142,Q,Q
2023-03-15 12:51:24:793,0,3.18764,-4.26795,-28.7458,Q,Q
2023-03-15 12:51:24:803,0,3.16536,-4.25493,-28.7775,Q,Q
2023-03-15 12:51:24:813,0,3.14026,-4.24442,-28.8066,Q,Q
2023-03-15 12:51:24:823,0,3.11349,-4.23339,-28.8341,Q,Q
2023-03-15 12:51:24:833,0,3.09068,-4.22322,-28.8581,Q,Q
2023-03-15 12:51:24:843,0,3.06725,-4.21169,-28.8756,Q,Q
2023-03-15 12:51:24:853,0,3.04271,-4.20279,-28.8896,Q,Q
2023-03-15 12:51:24:863,0,3.02156,-4.19335,-28.9051,Q,Q
2023-03-15 12:51:24:874,0,3.0003,-4.18504,-28.9208,Q,Q
2023-03-15 12:51:24:884,0,2.98185,-4.17485,-28.9438,Q,Q
2023-03-15 12:51:24:894,0,2.95847,-4.16335,-28.9711,Q,Q
2023-03-15 12:51:24:904,0,2.94681,-4.15274,-29.0008,Q,Q
2023-03-15 12:51:24:914,0,2.94238,-4.13931,-29.0263,Q,Q
2023-03-15 12:51:24:924,0,2.94093,-4.12885,-29.0517,Q,Q
2023-03-15 12:51:24:934,0,2.9407,-4.1203,-29.074,Q,Q
2023-03-15 12:51:24:944,0,2.94682,-4.11404,-29.0966,Q,Q
2023-03-15 12:51:24:954,0,2.95235,-4.10672,-29.1188,Q,Q
2023-03-15 12:51:24:964,0,2.95945,-4.09894,-29.1405,Q,Q
2023-03-15 12:51:24:974,0,2.96849,-4.09404,-29.1589,Q,Q
2023-03-15 12:51:24:984,0,2.97959,-4.08814,-29.1812,Q,Q
2023-03-15 12:51:24:994,0,2.99326,-4.0805,-29.2003,Q,Q
2023-03-15 12:51:25:4,0,3.00309,-4.07094,-29.2222,Q,Q
2023-03-15 12:51:25:14,0,3.01711,-4.05754,-29.2417,Q,Q
2023-03-15 12:51:25:24,0,3.0288,-4.05049,-29.2559,Q,Q
2023-03-15 12:51:25:34,0,3.03996,-4.04443,-29.2658,Q,Q
2023-03-15 12:51:25:44,0,3.05131,-4.03581,-29.2736,Q,Q
2023-03-15 12:51:25:54,0,3.0587,-4.02936,-29.2769,Q,Q
2023-03-15 12:51:25:64,0,3.0655,-4.02294,-29.2808,Q,Q
2023-03-15 12:51:25:74,0,3.06117,-4.01338,-29.279,Q,Q
2023-03-15 12:51:25:84,0,3.05481,-4.00351,-29.28,Q,Q
2023-03-15 12:51:25:94,0,3.04299,-3.99457,-29.2767,Q,Q
2023-03-15 12:51:25:104,0,3.03724,-3.98799,-29.2707,Q,Q
2023-03-15 12:51:25:114,0,3.03538,-3.97737,-29.2633,Q,Q
2023-03-15 12:51:25:124,0,3.03477,-3.97403,-29.2596,Q,Q
2023-03-15 12:51:25:134,0,3.03258,-3.97166,-29.2546,Q,Q
2023-03-15 12:51:25:144,0,3.03471,-3.97146,-29.2462,Q,Q
2023-03-15 12:51:25:153,0,3.03506,-3.96743,-29.2456,Q,Q
2023-03-15 12:51:25:164,0,3.0358,-3.96505,-29.2442,Q,Q
2023-03-15 12:51:25:173,0,3.03811,-3.96213,-29.2471,Q,Q
2023-03-15 12:51:25:184,0,3.03793,-3.96344,-29.2515,Q,Q
2023-03-15 12:51:25:193,0,3.03571,-3.96315,-29.255,Q,Q
2023-03-15 12:51:25:204,0,3.0339,-3.96392,-29.2582,Q,Q
2023-03-15 12:51:25:213,0,3.03326,-3.96694,-29.2665,Q,Q
2023-03-15 12:51:25:224,0,3.0357,-3.96828,-29.2729,Q,Q
2023-03-15 12:51:25:234,0,3.0404,-3.96654,-29.2729,Q,Q
2023-03-15 12:51:25:244,0,3.04319,-3.96875,-29.2759,Q,Q
2023-03-15 12:51:25:254,0,3.04004,-3.97074,-29.2758,Q,Q
2023-03-15 12:51:25:264,0,3.03527,-3.96747,-29.2738,Q,Q
2023-03-15 12:51:25:274,0,3.02785,-3.96396,-29.2711,Q,Q
2023-03-15 12:51:25:284,0,3.02081,-3.9567,-29.2716,Q,Q
2023-03-15 12:51:25:294,0,3.00821,-3.94915,-29.2668,Q,Q
2023-03-15 12:51:25:304,0,2.99105,-3.93969,-29.2641,Q,Q
2023-03-15 12:51:25:314,0,2.97956,-3.93069,-29.2608,Q,Q
2023-03-15 12:51:25:324,0,2.96772,-3.92443,-29.2615,Q,Q
2023-03-15 12:51:25:334,0,2.95584,-3.91884,-29.2634,Q,Q
2023-03-15 12:51:25:344,0,2.9478,-3.91203,-29.2663,Q,Q
2023-03-15 12:51:25:354,0,2.9386,-3.90188,-29.2675,Q,Q
2023-03-15 12:51:25:364,0,2.92935,-3.89749,-29.2689,Q,Q
2023-03-15 12:51:25:374,0,2.91939,-3.89077,-29.2728,Q,Q
2023-03-15 12:51:25:384,0,2.90992,-3.88724,-29.2774,Q,Q
2023-03-15 12:51:25:394,0,2.90619,-3.88636,-29.2791,Q,Q
2023-03-15 12:51:25:404,0,2.90272,-3.88913,-29.2797,Q,Q
2023-03-15 12:51:25:414,0,2.89981,-3.88849,-29.2738,Q,Q
2023-03-15 12:51:25:424,0,2.89439,-3.88496,-29.2721,Q,Q
2023-03-15 12:51:25:434,0,2.89198,-3.88223,-29.2683,Q,Q
2023-03-15 12:51:25:444,0,2.88839,-3.88296,-29.266,Q,Q
2023-03-15 12:51:25:454,0,2.88232,-3.88488,-29.2609,Q,Q
2023-03-15 12:51:25:464,0,2.8743,-3.89147,-29.2574,Q,Q
2023-03-15 12:51:25:474,0,2.87304,-3.89592,-29.2518,Q,Q
2023-03-15 12:51:25:484,0,2.87666,-3.89958,-29.2503,Q,Q
2023-03-15 12:51:25:494,0,2.87674,-3.90164,-29.2423,Q,Q
2023-03-15 12:51:25:504,0,2.87911,-3.90692,-29.2319,Q,Q
2023-03-15 12:51:25:514,0,2.88338,-3.91314,-29.2199,Q,Q
2023-03-15 12:51:25:524,0,2.88992,-3.92012,-29.2095,Q,Q
2023-03-15 12:51:25:534,0,2.89944,-3.92435,-29.2,Q,Q
2023-03-15 12:51:25:544,0,2.90441,-3.9301,-29.1877,Q,Q
2023-03-15 12:51:25:554,0,2.90929,-3.93943,-29.1802,Q,Q
2023-03-15 12:51:25:564,0,2.92115,-3.94914,-29.175,Q,Q
2023-03-15 12:51:25:574,0,2.93554,-3.95665,-29.1709,Q,Q
2023-03-15 12:51:25:584,0,2.95301,-3.9627,-29.16,Q,Q
2023-03-15 12:51:25:594,0,2.9712,-3.96497,-29.1468,Q,Q
2023-03-15 12:51:25:604,0,2.98198,-3.96317,-29.1302,Q,Q
2023-03-15 12:51:25:614,0,2.98457,-3.96259,-29.1173,Q,Q
2023-03-15 12:51:25:624,0,2.99363,-3.96526,-29.1034,Q,Q
2023-03-15 12:51:25:634,0,3.0018,-3.96928,-29.088,Q,Q
2023-03-15 12:51:25:644,0,3.0144,-3.9827,-29.0725,Q,Q
2023-03-15 12:51:25:654,0,3.02438,-3.99232,-29.0571,Q,Q
2023-03-15 12:51:25:664,0,3.03358,-4.00349,-29.0401,Q,Q
2023-03-15 12:51:25:674,0,3.03828,-4.01704,-29.0266,Q,Q
2023-03-15 12:51:25:684,0,3.03633,-4.02796,-29.0115,Q,Q
2023-03-15 12:51:25:694,0,3.03192,-4.03548,-29.0001,Q,Q
2023-03-15 12:51:25:704,0,3.02556,-4.04403,-28.9891,Q,Q
2023-03-15 12:51:25:714,0,3.01979,-4.05217,-28.9804,Q,Q
2023-03-15 12:51:25:724,0,3.0121,-4.06013,-28.9707,Q,Q
2023-03-15 12:51:25:734,0,3.0038,-4.06216,-28.9598,Q,Q
2023-03-15 12:51:25:744,0,2.99822,-4.06459,-28.953,Q,Q
2023-03-15 12:51:25:754,0,2.99519,-4.06949,-28.9466,Q,Q
2023-03-15 12:51:25:764,0,2.99644,-4.07002,-28.9489,Q,Q
2023-03-15 12:51:25:774,0,2.99724,-4.06377,-28.95,Q,Q
2023-03-15 12:51:25:784,0,2.9983,-4.06035,-28.951,Q,Q
2023-03-15 12:51:25:794,0,3.00073,-4.05736,-28.9513,Q,Q
2023-03-15 12:51:25:803,0,3.007,-4.05648,-28.957,Q,Q
2023-03-15 12:51:25:814,0,3.01424,-4.05899,-28.9651,Q,Q
2023-03-15 12:51:25:824,0,3.02397,-4.0594,-28.9726,Q,Q
2023-03-15 12:51:25:834,0,3.03105,-4.05556,-28.9805,Q,Q
2023-03-15 12:51:25:844,0,3.03397,-4.05377,-28.9909,Q,Q
2023-03-15 12:51:25:854,0,3.0321,-4.05035,-28.9975,Q,Q
2023-03-15 12:51:25:864,0,3.02785,-4.04966,-29.0054,Q,Q
2023-03-15 12:51:25:874,0,3.01852,-4.04535,-29.0138,Q,Q
2023-03-15 12:51:25:884,0,3.00716,-4.04182,-29.0231,Q,Q
2023-03-15 12:51:25:894,0,2.99878,-4.03945,-29.0287,Q,Q
2023-03-15 12:51:25:904,0,2.9933,-4.03773,-29.0301,Q,Q
2023-03-15 12:51:25:914,0,2.98628,-4.04181,-29.0313,Q,Q
2023-03-15 12:51:25:923,0,2.97408,-4.0433,-29.0342,Q,Q
2023-03-15 12:51:25:933,0,2.96642,-4.04338,-29.0365,Q,Q
2023-03-15 12:51:25:943,0,2.95409,-4.04052,-29.0387,Q,Q
2023-03-15 12:51:25:953,0,2.94333,-4.0396,-29.0448,Q,Q
2023-03-15 12:51:25:963,0,2.93396,-4.03472,-29.0531,Q,Q
2023-03-15 12:51:25:973,0,2.92876,-4.02688,-29.0609,Q,Q
2023-03-15 12:51:25:983,0,2.92331,-4.01857,-29.0685,Q,Q
2023-03-15 12:51:25:993,0,2.91514,-4.01328,-29.0797,Q,Q
2023-03-15 12:51:26:3,0,2.90354,-4.01016,-29.0888,Q,Q
2023-03-15 12:51:26:13,0,2.89121,-4.00807,-29.1007,Q,Q
2023-03-15 12:51:26:23,0,2.88202,-4.00485,-29.1151,Q,Q
2023-03-15 12:51:26:34,0,2.87471,-4.00479,-29.1302,Q,Q
2023-03-15 12:51:26:44,0,2.86581,-4.00606,-29.1478,Q,Q
2023-03-15 12:51:26:54,0,2.86445,-4.00698,-29.1633,Q,Q
2023-03-15 12:51:26:64,0,2.86272,-4.00631,-29.1742,Q,Q
2023-03-15 12:51:26:73,0,2.85978,-4.00537,-29.1789,Q,Q
2023-03-15 12:51:26:84,0,2.85978,-4.00822,-29.1758,Q,Q
2023-03-15 12:51:26:93,0,2.85122,-4.00601,-29.1711,Q,Q
2023-03-15 12:51:26:103,0,2.83983,-4.00614,-29.1639,Q,Q
2023-03-15 12:51:26:113,0,2.82342,-4.01007,-29.1535,Q,Q
2023-03-15 12:51:26:123,0,2.80058,-4.01254,-29.1367,Q,Q
2023-03-15 12:51:26:133,0,2.77844,-4.01584,-29.126,Q,Q
2023-03-15 12:51:26:143,0,2.7628,-4.01629,-29.1139,Q,Q
2023-03-15 12:51:26:153,0,2.75665,-4.01395,-29.1025,Q,Q
2023-03-15 12:51:26:163,0,2.75477,-4.00991,-29.0884,Q,Q
2023-03-15 12:51:26:173,0,2.75466,-4.0092,-29.0758,Q,Q
2023-03-15 12:51:26:183,0,2.7561,-4.00612,-29.0613,Q,Q
2023-03-15 12:51:26:194,0,2.7566,-4.0061,-29.0531,Q,Q
2023-03-15 12:51:26:204,0,2.7581,-4.00717,-29.0467,Q,Q
2023-03-15 12:51:26:214,0,2.75484,-4.00766,-29.0441,Q,Q
2023-03-15 12:51:26:223,0,2.74657,-4.01007,-29.0394,Q,Q
2023-03-15 12:51:26:234,0,2.7323,-4.01696,-29.0409,Q,Q
2023-03-15 12:51:26:244,0,2.71385,-4.02443,-29.044,Q,Q
2023-03-15 12:51:26:254,0,2.69512,-4.0304,-29.0514,Q,Q
2023-03-15 12:51:26:264,0,2.68435,-4.03708,-29.0551,Q,Q
2023-03-15 12:51:26:274,0,2.67832,-4.04363,-29.0598,Q,Q
2023-03-15 12:51:26:284,0,2.67026,-4.04649,-29.064,Q,Q
2023-03-15 12:51:26:294,0,2.66683,-4.04905,-29.0673,Q,Q
2023-03-15 12:51:26:304,0,2.66659,-4.05277,-29.0676,Q,Q
2023-03-15 12:51:26:314,0,2.66441,-4.05667,-29.0661,Q,Q
2023-03-15 12:51:26:324,0,2.66006,-4.05907,-29.0638,Q,Q
2023-03-15 12:51:26:334,0,2.65164,-4.06557,-29.0613,Q,Q
2023-03-15 12:51:26:344,0,2.63565,-4.06844,-29.0521,Q,Q
2023-03-15 12:51:26:354,0,2.6199,-4.06912,-29.0457,Q,Q
2023-03-15 12:51:26:364,0,2.6012,-4.07396,-29.0402,Q,Q
2023-03-15 12:51:26:374,0,2.5874,-4.07676,-29.0373,Q,Q
2023-03-15 12:51:26:384,0,2.57722,-4.08054,-29.0361,Q,Q
2023-03-15 12:51:26:394,0,2.57176,-4.08598,-29.036,Q,Q
2023-03-15 12:51:26:404,0,2.57293,-4.08989,-29.034,Q,Q
2023-03-15 12:51:26:414,0,2.57343,-4.09299,-29.0319,Q,Q
2023-03-15 12:51:26:424,0,2.57746,-4.0992,-29.0327,Q,Q
2023-03-15 12:51:26:434,0,2.57768,-4.10016,-29.0315,Q,Q
2023-03-15 12:51:26:444,0,2.57358,-4.10017,-29.03,Q,Q
2023-03-15 12:51:26:454,0,2.56381,-4.10563,-29.0268,Q,Q
2023-03-15 12:51:26:464,0,2.55307,-4.10928,-29.0238,Q,Q
2023-03-15 12:51:26:474,0,2.5402,-4.11253,-29.02,Q,Q
2023-03-15 12:51:26:484,0,2.52456,-4.11453,-29.0135,Q,Q
2023-03-15 12:51:26:494,0,2.51513,-4.1178,-29.0096,Q,Q
2023-03-15 12:51:26:504,0,2.50604,-4.12238,-29.0096,Q,Q
2023-03-15 12:51:26:514,0,2.49791,-4.1234,-29.0096,Q,Q
2023-03-15 12:51:26:524,0,2.49411,-4.12622,-29.0107,Q,Q
2023-03-15 12:51:26:534,0,2.48989,-4.12486,-29.0107,Q,Q
2023-03-15 12:51:26:544,0,2.48472,-4.12862,-29.0073,Q,Q
2023-03-15 12:51:26:553,0,2.48764,-4.13619,-29.0059,Q,Q
2023-03-15 12:51:26:564,0,2.49159,-4.14672,-28.9988,Q,Q
2023-03-15 12:51:26:574,0,2.49823,-4.16001,-28.9951,Q,Q
2023-03-15 12:51:26:584,0,2.50127,-4.17322,-28.9863,Q,Q
2023-03-15 12:51:26:594,0,2.5069,-4.18474,-28.9837,Q,Q
2023-03-15 12:51:26:604,0,2.50626,-4.19859,-28.979,Q,Q
2023-03-15 12:51:26:614,0,2.50035,-4.20633,-28.971,Q,Q
2023-03-15 12:51:26:624,0,2.49661,-4.21679,-28.9649,Q,Q
2023-03-15 12:51:26:634,0,2.49406,-4.22478,-28.955,Q,Q
2023-03-15 12:51:26:644,0,2.48924,-4.23398,-28.9453,Q,Q
2023-03-15 12:51:26:654,0,2.48481,-4.24357,-28.9356,Q,Q
2023-03-15 12:51:26:664,0,2.47792,-4.25171,-28.9294,Q,Q
2023-03-15 12:51:26:674,0,2.47369,-4.25577,-28.9226,Q,Q
2023-03-15 12:51:26:684,0,2.46637,-4.26004,-28.9184,Q,Q
2023-03-15 12:51:26:694,0,2.45533,-4.2643,-28.9157,Q,Q
2023-03-15 12:51:26:704,0,2.44173,-4.27053,-28.9167,Q,Q
2023-03-15 12:51:26:714,0,2.4278,-4.27629,-28.9205,Q,Q
2023-03-15 12:51:26:724,0,2.40934,-4.28538,-28.9263,Q,Q
2023-03-15 12:51:26:734,0,2.39766,-4.29316,-28.9362,Q,Q
2023-03-15 12:51:26:744,0,2.38958,-4.29835,-28.9431,Q,Q
2023-03-15 12:51:26:754,0,2.38317,-4.30196,-28.9464,Q,Q
2023-03-15 12:51:26:764,0,2.376,-4.30275,-28.9512,Q,Q
2023-03-15 12:51:26:774,0,2.37054,-4.29887,-28.9541,Q,Q
2023-03-15 12:51:26:784,0,2.36869,-4.29227,-28.9522,Q,Q
2023-03-15 12:51:26:794,0,2.37793,-4.27807,-28.9476,Q,Q
2023-03-15 12:51:26:804,0,2.39632,-4.26008,-28.933,Q,Q
2023-03-15 12:51:26:814,0,2.42519,-4.24247,-28.9085,Q,Q
2023-03-15 12:51:26:824,0,2.45726,-4.22618,-28.8737,Q,Q
2023-03-15 12:51:26:834,0,2.50114,-4.21002,-28.827,Q,Q
2023-03-15 12:51:26:844,0,2.54329,-4.1914,-28.7744,Q,Q
2023-03-15 12:51:26:854,0,2.57668,-4.17018,-28.7218,Q,Q
2023-03-15 12:51:26:864,0,2.60096,-4.14551,-28.6662,Q,Q
2023-03-15 12:51:26:874,0,2.61099,-4.11472,-28.6101,Q,Q
2023-03-15 12:51:26:884,0,2.61417,-4.07695,-28.5563,Q,Q
2023-03-15 12:51:26:894,0,2.62073,-4.03896,-28.5015,Q,Q
2023-03-15 12:51:26:904,0,2.63543,-4.00168,-28.4484,Q,Q
2023-03-15 12:51:26:914,0,2.66687,-3.96592,-28.3941,Q,Q
2023-03-15 12:51:26:924,0,2.72226,-3.93005,-28.3395,Q,Q
2023-03-15 12:51:26:934,0,2.79068,-3.89034,-28.2878,Q,Q
2023-03-15 12:51:26:944,0,2.85109,-3.84146,-28.2394,Q,Q
2023-03-15 12:51:26:954,0,2.89794,-3.78466,-28.1982,Q,Q
2023-03-15 12:51:26:964,0,2.92633,-3.72383,-28.1722,Q,Q
2023-03-15 12:51:26:974,0,2.94149,-3.66274,-28.1577,Q,Q
2023-03-15 12:51:26:983,0,2.94876,-3.60286,-28.1515,Q,Q
2023-03-15 12:51:26:993,0,2.95456,-3.55669,-28.1566,Q,Q
2023-03-15 12:51:27:4,0,2.96316,-3.53244,-28.1705,Q,Q
2023-03-15 12:51:27:14,0,2.97561,-3.51951,-28.195,Q,Q
2023-03-15 12:51:27:24,0,2.98399,-3.52004,-28.2325,Q,Q
2023-03-15 12:51:27:34,0,2.98275,-3.52612,-28.2828,Q,Q
2023-03-15 12:51:27:44,0,2.95911,-3.54406,-28.3367,Q,Q
2023-03-15 12:51:27:54,0,2.91234,-3.5701,-28.4041,Q,Q
2023-03-15 12:51:27:64,0,2.84486,-3.60466,-28.4802,Q,Q
2023-03-15 12:51:27:74,0,2.77142,-3.64235,-28.5587,Q,Q
2023-03-15 12:51:27:84,0,2.7049,-3.68544,-28.6391,Q,Q
2023-03-15 12:51:27:94,0,2.65333,-3.73242,-28.7193,Q,Q
2023-03-15 12:51:27:104,0,2.62485,-3.77649,-28.7957,Q,Q
2023-03-15 12:51:27:114,0,2.61813,-3.81112,-28.8616,Q,Q
2023-03-15 12:51:27:124,0,2.62911,-3.84333,-28.9165,Q,Q
2023-03-15 12:51:27:134,0,2.6536,-3.87042,-28.9615,Q,Q
2023-03-15 12:51:27:144,0,2.68313,-3.89755,-28.9943,Q,Q
2023-03-15 12:51:27:154,0,2.71167,-3.92297,-29.021,Q,Q
2023-03-15 12:51:27:164,0,2.72387,-3.94559,-29.045,Q,Q
2023-03-15 12:51:27:174,0,2.73547,-3.95932,-29.0643,Q,Q
2023-03-15 12:51:27:184,0,2.74865,-3.97179,-29.0814,Q,Q
2023-03-15 12:51:27:194,0,2.76854,-3.98342,-29.0979,Q,Q
2023-03-15 12:51:27:204,0,2.79826,-3.98789,-29.1118,Q,Q
2023-03-15 12:51:27:214,0,2.83011,-3.98864,-29.1255,Q,Q
2023-03-15 12:51:27:224,0,2.8541,-3.97812,-29.1466,Q,Q
2023-03-15 12:51:27:234,0,2.85894,-3.9586,-29.1703,Q,Q
2023-03-15 12:51:27:244,0,2.83941,-3.92446,-29.2025,Q,Q
2023-03-15 12:51:27:254,0,2.79596,-3.87842,-29.2457,Q,Q
2023-03-15 12:51:27:264,0,2.73612,-3.8216,-29.3064,Q,Q
2023-03-15 12:51:27:274,0,2.67018,-3.75127,-29.3738,Q,Q
2023-03-15 12:51:27:284,0,2.6097,-3.67967,-29.4459,Q,Q
2023-03-15 12:51:27:294,0,2.56582,-3.60198,-29.5226,Q,Q
2023-03-15 12:51:27:304,0,2.54445,-3.52523,-29.6036,Q,Q
2023-03-15 12:51:27:314,0,2.54342,-3.45739,-29.6827,Q,Q
2023-03-15 12:51:27:324,0,2.55373,-3.39771,-29.7586,Q,Q
2023-03-15 12:51:27:334,0,2.56694,-3.34906,-29.8296,Q,Q
2023-03-15 12:51:27:343,0,2.58271,-3.30821,-29.8977,Q,Q
2023-03-15 12:51:27:354,0,2.60322,-3.2764,-29.9654,Q,Q
2023-03-15 12:51:27:364,0,2.62772,-3.25665,-30.0307,Q,Q
2023-03-15 12:51:27:374,0,2.66181,-3.24437,-30.0899,Q,Q
2023-03-15 12:51:27:384,0,2.7018,-3.24322,-30.1456,Q,Q
2023-03-15 12:51:27:394,0,2.7439,-3.25004,-30.1913,Q,Q
2023-03-15 12:51:27:404,0,2.79252,-3.26295,-30.2319,Q,Q
2023-03-15 12:51:27:414,0,2.85112,-3.2822,-30.2665,Q,Q
2023-03-15 12:51:27:424,0,2.91413,-3.30768,-30.286,Q,Q
2023-03-15 12:51:27:434,0,2.97883,-3.33587,-30.2961,Q,Q
2023-03-15 12:51:27:444,0,3.03441,-3.36291,-30.2979,Q,Q
2023-03-15 12:51:27:454,0,3.08067,-3.38888,-30.29,Q,Q
2023-03-15 12:51:27:464,0,3.11815,-3.41422,-30.2659,Q,Q
2023-03-15 12:51:27:474,0,3.15219,-3.44681,-30.228,Q,Q
2023-03-15 12:51:27:484,0,3.19524,-3.48894,-30.1758,Q,Q
2023-03-15 12:51:27:494,0,3.24673,-3.53401,-30.1182,Q,Q
2023-03-15 12:51:27:504,0,3.29623,-3.5872,-30.0572,Q,Q
2023-03-15 12:51:27:514,0,3.3375,-3.64732,-29.9922,Q,Q
2023-03-15 12:51:27:524,0,3.36084,-3.71176,-29.9303,Q,Q
2023-03-15 12:51:27:534,0,3.35687,-3.76394,-29.8704,Q,Q
2023-03-15 12:51:27:544,0,3.3269,-3.81297,-29.8208,Q,Q
2023-03-15 12:51:27:554,0,3.27991,-3.84674,-29.7813,Q,Q
2023-03-15 12:51:27:563,0,3.22439,-3.86809,-29.7509,Q,Q
2023-03-15 12:51:27:573,0,3.1736,-3.88204,-29.7315,Q,Q
2023-03-15 12:51:27:584,0,3.12922,-3.89316,-29.7223,Q,Q
2023-03-15 12:51:27:594,0,3.08706,-3.89846,-29.7214,Q,Q
2023-03-15 12:51:27:604,0,3.05236,-3.90273,-29.7299,Q,Q
2023-03-15 12:51:27:614,0,3.01559,-3.90987,-29.7449,Q,Q
2023-03-15 12:51:27:624,0,2.97588,-3.91798,-29.7648,Q,Q
2023-03-15 12:51:27:634,0,2.9397,-3.92609,-29.7946,Q,Q
2023-03-15 12:51:27:644,0,2.90075,-3.92882,-29.8297,Q,Q
2023-03-15 12:51:27:654,0,2.85934,-3.92309,-29.867,Q,Q
2023-03-15 12:51:27:664,0,2.81522,-3.91095,-29.9068,Q,Q
2023-03-15 12:51:27:674,0,2.77206,-3.89879,-29.9446,Q,Q
2023-03-15 12:51:27:684,0,2.73074,-3.89,-29.9779,Q,Q
2023-03-15 12:51:27:694,0,2.69289,-3.88232,-30.0117,Q,Q
2023-03-15 12:51:27:704,0,2.65617,-3.87167,-30.0431,Q,Q
2023-03-15 12:51:27:714,0,2.62188,-3.86003,-30.0685,Q,Q
2023-03-15 12:51:27:724,0,2.58753,-3.84916,-30.0918,Q,Q
2023-03-15 12:51:27:734,0,2.55327,-3.84196,-30.111,Q,Q
2023-03-15 12:51:27:744,0,2.51579,-3.8366,-30.1275,Q,Q
2023-03-15 12:51:27:754,0,2.4813,-3.83324,-30.1454,Q,Q
2023-03-15 12:51:27:764,0,2.44696,-3.82185,-30.1611,Q,Q
2023-03-15 12:51:27:774,0,2.41209,-3.81275,-30.1785,Q,Q
2023-03-15 12:51:27:784,0,2.3852,-3.79813,-30.1973,Q,Q
2023-03-15 12:51:27:794,0,2.36961,-3.78438,-30.2142,Q,Q
2023-03-15 12:51:27:804,0,2.37421,-3.76826,-30.2281,Q,Q
2023-03-15 12:51:27:814,0,2.38792,-3.74907,-30.2397,Q,Q
2023-03-15 12:51:27:824,0,2.40473,-3.73163,-30.2428,Q,Q
2023-03-15 12:51:27:834,0,2.4199,-3.71061,-30.2391,Q,Q
2023-03-15 12:51:27:844,0,2.42591,-3.68492,-30.2379,Q,Q
2023-03-15 12:51:27:854,0,2.41893,-3.66235,-30.2296,Q,Q
2023-03-15 12:51:27:864,0,2.40152,-3.64454,-30.2217,Q,Q
2023-03-15 12:51:27:874,0,2.38273,-3.62812,-30.2112,Q,Q
2023-03-15 12:51:27:884,0,2.35957,-3.61274,-30.1946,Q,Q
2023-03-15 12:51:27:894,0,2.33919,-3.59573,-30.1757,Q,Q
2023-03-15 12:51:27:904,0,2.31178,-3.58096,-30.1511,Q,Q
2023-03-15 12:51:27:914,0,2.28207,-3.56619,-30.1263,Q,Q
2023-03-15 12:51:27:924,0,2.25479,-3.55581,-30.0998,Q,Q
2023-03-15 12:51:27:934,0,2.22964,-3.5442,-30.0689,Q,Q
2023-03-15 12:51:27:944,0,2.20496,-3.54054,-30.0293,Q,Q
2023-03-15 12:51:27:954,0,2.17657,-3.5369,-29.991,Q,Q
2023-03-15 12:51:27:964,0,2.14687,-3.53315,-29.9492,Q,Q
2023-03-15 12:51:27:974,0,2.11554,-3.53239,-29.905,Q,Q
2023-03-15 12:51:27:984,0,2.07997,-3.52634,-29.862,Q,Q
2023-03-15 12:51:27:994,0,2.03855,-3.52049,-29.8259,Q,Q
2023-03-15 12:51:28:3,0,1.9977,-3.5095,-29.7896,Q,Q
2023-03-15 12:51:28:13,0,1.96202,-3.49351,-29.7571,Q,Q
2023-03-15 12:51:28:24,0,1.93125,-3.47777,-29.7322,Q,Q
2023-03-15 12:51:28:34,0,1.91766,-3.46531,-29.7061,Q,Q
2023-03-15 12:51:28:44,0,1.90885,-3.4534,-29.6844,Q,Q
2023-03-15 12:51:28:53,0,1.9008,-3.4363,-29.6629,Q,Q
2023-03-15 12:51:28:64,0,1.89558,-3.41959,-29.641,Q,Q
2023-03-15 12:51:28:74,0,1.8912,-3.40822,-29.6221,Q,Q
2023-03-15 12:51:28:84,0,1.88524,-3.3978,-29.6044,Q,Q
2023-03-15 12:51:28:94,0,1.87432,-3.38971,-29.5937,Q,Q
2023-03-15 12:51:28:104,0,1.86207,-3.38537,-29.5851,Q,Q
2023-03-15 12:51:28:114,0,1.85365,-3.38158,-29.5797,Q,Q
2023-03-15 12:51:28:124,0,1.84192,-3.38165,-29.5809,Q,Q
2023-03-15 12:51:28:134,0,1.83082,-3.38246,-29.5863,Q,Q
2023-03-15 12:51:28:144,0,1.81994,-3.38583,-29.5978,Q,Q
2023-03-15 12:51:28:154,0,1.80833,-3.38584,-29.611,Q,Q
2023-03-15 12:51:28:164,0,1.7971,-3.38776,-29.6249,Q,Q
2023-03-15 12:51:28:173,0,1.78908,-3.38835,-29.6379,Q,Q
2023-03-15 12:51:28:184,0,1.78446,-3.38625,-29.6515,Q,Q
2023-03-15 12:51:28:194,0,1.777,-3.37928,-29.6587,Q,Q
2023-03-15 12:51:28:204,0,1.77769,-3.36668,-29.6628,Q,Q
2023-03-15 12:51:28:214,0,1.77829,-3.35625,-29.6634,Q,Q
2023-03-15 12:51:28:224,0,1.78508,-3.34762,-29.6554,Q,Q
2023-03-15 12:51:28:234,0,1.79322,-3.3435,-29.6436,Q,Q
2023-03-15 12:51:28:244,0,1.80155,-3.34036,-29.6325,Q,Q
2023-03-15 12:51:28:254,0,1.81123,-3.3402,-29.6216,Q,Q
2023-03-15 12:51:28:264,0,1.82113,-3.33885,-29.609,Q,Q
2023-03-15 12:51:28:274,0,1.83258,-3.33906,-29.599,Q,Q
2023-03-15 12:51:28:284,0,1.83937,-3.34093,-29.5985,Q,Q
2023-03-15 12:51:28:294,0,1.83676,-3.34014,-29.6035,Q,Q
2023-03-15 12:51:28:304,0,1.83061,-3.33383,-29.6095,Q,Q
2023-03-15 12:51:28:314,0,1.81822,-3.32946,-29.6194,Q,Q
2023-03-15 12:51:28:324,0,1.80474,-3.32904,-29.6282,Q,Q
2023-03-15 12:51:28:334,0,1.78942,-3.32794,-29.6388,Q,Q
2023-03-15 12:51:28:344,0,1.78161,-3.33717,-29.6517,Q,Q
2023-03-15 12:51:28:354,0,1.77842,-3.34043,-29.6596,Q,Q
2023-03-15 12:51:28:364,0,1.77439,-3.34037,-29.6649,Q,Q
2023-03-15 12:51:28:374,0,1.77326,-3.33854,-29.6726,Q,Q
2023-03-15 12:51:28:384,0,1.7683,-3.33561,-29.6747,Q,Q
2023-03-15 12:51:28:394,0,1.76377,-3.32365,-29.6733,Q,Q
2023-03-15 12:51:28:404,0,1.76046,-3.31073,-29.6694,Q,Q
2023-03-15 12:51:28:414,0,1.75218,-3.2968,-29.6645,Q,Q
2023-03-15 12:51:28:424,0,1.7467,-3.28588,-29.6639,Q,Q
2023-03-15 12:51:28:434,0,1.74224,-3.27166,-29.6647,Q,Q
2023-03-15 12:51:28:444,0,1.74833,-3.25902,-29.6673,Q,Q
2023-03-15 12:51:28:454,0,1.75197,-3.24045,-29.6695,Q,Q
2023-03-15 12:51:28:464,0,1.75174,-3.21702,-29.6718,Q,Q
2023-03-15 12:51:28:474,0,1.75072,-3.20243,-29.6712,Q,Q
2023-03-15 12:51:28:484,0,1.74911,-3.19007,-29.6727,Q,Q
2023-03-15 12:51:28:494,0,1.74089,-3.17761,-29.677,Q,Q
2023-03-15 12:51:28:504,0,1.73305,-3.16611,-29.6824,Q,Q
2023-03-15 12:51:28:514,0,1.72274,-3.15373,-29.6923,Q,Q
2023-03-15 12:51:28:524,0,1.71147,-3.14182,-29.7045,Q,Q
2023-03-15 12:51:28:534,0,1.70115,-3.13023,-29.7183,Q,Q
2023-03-15 12:51:28:544,0,1.68995,-3.11939,-29.7315,Q,Q
2023-03-15 12:51:28:553,0,1.68115,-3.10541,-29.7434,Q,Q
2023-03-15 12:51:28:563,0,1.67515,-3.09076,-29.7544,Q,Q
2023-03-15 12:51:28:574,0,1.67206,-3.07684,-29.7646,Q,Q
2023-03-15 12:51:28:584,0,1.67375,-3.06211,-29.7721,Q,Q
2023-03-15 12:51:28:594,0,1.67644,-3.05016,-29.7771,Q,Q
2023-03-15 12:51:28:604,0,1.67707,-3.04245,-29.7772,Q,Q
2023-03-15 12:51:28:614,0,1.67675,-3.04019,-29.7724,Q,Q
2023-03-15 12:51:28:624,0,1.67235,-3.03841,-29.7697,Q,Q
2023-03-15 12:51:28:634,0,1.6714,-3.03702,-29.7682,Q,Q
2023-03-15 12:51:28:644,0,1.66994,-3.0352,-29.7627,Q,Q
2023-03-15 12:51:28:654,0,1.66681,-3.03239,-29.7562,Q,Q
2023-03-15 12:51:28:664,0,1.66094,-3.02487,-29.7475,Q,Q
2023-03-15 12:51:28:674,0,1.65285,-3.01755,-29.7384,Q,Q
2023-03-15 12:51:28:684,0,1.64168,-3.01206,-29.7272,Q,Q
2023-03-15 12:51:28:694,0,1.63154,-3.01191,-29.7192,Q,Q
2023-03-15 12:51:28:704,0,1.61758,-3.00929,-29.7134,Q,Q
2023-03-15 12:51:28:714,0,1.60534,-3.00854,-29.7082,Q,Q
2023-03-15 12:51:28:724,0,1.58651,-3.0089,-29.7079,Q,Q
2023-03-15 12:51:28:734,0,1.57623,-3.01564,-29.7088,Q,Q
2023-03-15 12:51:28:744,0,1.57101,-3.02068,-29.7123,Q,Q
2023-03-15 12:51:28:754,0,1.56891,-3.02083,-29.7141,Q,Q
2023-03-15 12:51:28:764,0,1.57087,-3.0217,-29.7151,Q,Q
2023-03-15 12:51:28:774,0,1.57465,-3.01895,-29.7155,Q,Q
2023-03-15 12:51:28:784,0,1.57984,-3.01803,-29.7136,Q,Q
2023-03-15 12:51:28:794,0,1.58886,-3.01827,-29.7079,Q,Q
2023-03-15 12:51:28:804,0,1.59898,-3.02333,-29.6966,Q,Q
2023-03-15 12:51:28:814,0,1.607,-3.02078,-29.6779,Q,Q
2023-03-15 12:51:28:824,0,1.60916,-3.02046,-29.6621,Q,Q
2023-03-15 12:51:28:834,0,1.60063,-3.02119,-29.6477,Q,Q
2023-03-15 12:51:28:844,0,1.59169,-3.01922,-29.6313,Q,Q
2023-03-15 12:51:28:854,0,1.56952,-3.01946,-29.6185,Q,Q
2023-03-15 12:51:28:864,0,1.54936,-3.0153,-29.6062,Q,Q
2023-03-15 12:51:28:874,0,1.52851,-3.01548,-29.5927,Q,Q
2023-03-15 12:51:28:884,0,1.51216,-3.01071,-29.5849,Q,Q
2023-03-15 12:51:28:894,0,1.49718,-3.0093,-29.5793,Q,Q
2023-03-15 12:51:28:904,0,1.485,-3.0065,-29.5722,Q,Q
2023-03-15 12:51:28:914,0,1.46843,-3.00251,-29.5685,Q,Q
2023-03-15 12:51:28:924,0,1.45694,-2.99935,-29.5691,Q,Q
2023-03-15 12:51:28:934,0,1.44184,-2.9993,-29.5683,Q,Q
2023-03-15 12:51:28:944,0,1.4299,-2.99988,-29.5692,Q,Q
2023-03-15 12:51:28:954,0,1.41786,-2.9979,-29.5695,Q,Q
2023-03-15 12:51:28:964,0,1.4096,-2.99808,-29.5648,Q,Q
2023-03-15 12:51:28:974,0,1.40237,-2.99666,-29.5636,Q,Q
2023-03-15 12:51:28:984,0,1.39936,-2.99247,-29.5624,Q,Q
2023-03-15 12:51:28:994,0,1.39812,-2.98914,-29.5612,Q,Q
2023-03-15 12:51:29:4,0,1.39101,-2.98984,-29.5555,Q,Q
2023-03-15 12:51:29:14,0,1.38428,-2.9914,-29.5502,Q,Q
2023-03-15 12:51:29:24,0,1.37488,-2.99135,-29.5438,Q,Q
2023-03-15 12:51:29:34,0,1.36026,-2.99302,-29.5371,Q,Q
2023-03-15 12:51:29:44,0,1.34277,-2.99885,-29.5284,Q,Q
2023-03-15 12:51:29:54,0,1.32398,-3.00392,-29.5181,Q,Q
2023-03-15 12:51:29:64,0,1.3082,-3.01146,-29.5076,Q,Q
2023-03-15 12:51:29:74,0,1.29121,-3.01959,-29.4972,Q,Q
2023-03-15 12:51:29:84,0,1.26958,-3.02506,-29.4845,Q,Q
2023-03-15 12:51:29:94,0,1.24465,-3.03496,-29.4747,Q,Q
2023-03-15 12:51:29:104,0,1.2178,-3.04381,-29.4624,Q,Q
2023-03-15 12:51:29:114,0,1.1881,-3.05352,-29.4499,Q,Q
2023-03-15 12:51:29:124,0,1.15846,-3.05592,-29.4422,Q,Q
2023-03-15 12:51:29:134,0,1.13513,-3.06509,-29.4324,Q,Q
2023-03-15 12:51:29:144,0,1.12276,-3.07314,-29.4243,Q,Q
2023-03-15 12:51:29:154,0,1.10723,-3.08177,-29.4138,Q,Q
2023-03-15 12:51:29:164,0,1.08678,-3.09072,-29.4046,Q,Q
2023-03-15 12:51:29:174,0,1.07026,-3.09759,-29.4,Q,Q
2023-03-15 12:51:29:184,0,1.05653,-3.10636,-29.3991,Q,Q
2023-03-15 12:51:29:194,0,1.04152,-3.11651,-29.4014,Q,Q
2023-03-15 12:51:29:204,0,1.02965,-3.1283,-29.4007,Q,Q
2023-03-15 12:51:29:214,0,1.01852,-3.14757,-29.3962,Q,Q
2023-03-15 12:51:29:224,0,1.01417,-3.16967,-29.3972,Q,Q
2023-03-15 12:51:29:234,0,1.00943,-3.19206,-29.3956,Q,Q
2023-03-15 12:51:29:244,0,1.00318,-3.21265,-29.3994,Q,Q
2023-03-15 12:51:29:254,0,0.997111,-3.23027,-29.4026,Q,Q
2023-03-15 12:51:29:264,0,0.985276,-3.24937,-29.399,Q,Q
2023-03-15 12:51:29:274,0,0.971516,-3.26375,-29.3927,Q,Q
2023-03-15 12:51:29:284,0,0.957195,-3.28116,-29.3824,Q,Q
2023-03-15 12:51:29:294,0,0.944612,-3.29907,-29.3662,Q,Q
2023-03-15 12:51:29:304,0,0.929153,-3.31727,-29.3506,Q,Q
2023-03-15 12:51:29:314,0,0.912569,-3.33682,-29.3382,Q,Q
2023-03-15 12:51:29:324,0,0.893216,-3.35534,-29.3267,Q,Q
2023-03-15 12:51:29:334,0,0.866754,-3.37193,-29.3147,Q,Q
2023-03-15 12:51:29:344,0,0.837119,-3.38791,-29.3086,Q,Q
2023-03-15 12:51:29:354,0,0.807899,-3.40845,-29.3035,Q,Q
2023-03-15 12:51:29:364,0,0.778127,-3.43358,-29.3037,Q,Q
2023-03-15 12:51:29:374,0,0.748564,-3.4549,-29.3139,Q,Q
2023-03-15 12:51:29:384,0,0.723192,-3.47662,-29.3329,Q,Q
2023-03-15 12:51:29:394,0,0.700396,-3.49484,-29.3583,Q,Q
2023-03-15 12:51:29:404,0,0.680067,-3.50949,-29.3885,Q,Q
2023-03-15 12:51:29:414,0,0.663449,-3.51998,-29.4215,Q,Q
2023-03-15 12:51:29:424,0,0.644622,-3.53417,-29.4541,Q,Q
2023-03-15 12:51:29:434,0,0.627107,-3.54982,-29.4845,Q,Q
2023-03-15 12:51:29:444,0,0.612348,-3.56079,-29.5201,Q,Q
2023-03-15 12:51:29:454,0,0.595488,-3.56628,-29.5532,Q,Q
2023-03-15 12:51:29:464,0,0.574133,-3.56685,-29.5855,Q,Q
2023-03-15 12:51:29:474,0,0.552642,-3.56817,-29.6124,Q,Q
2023-03-15 12:51:29:484,0,0.53108,-3.57194,-29.6363,Q,Q
2023-03-15 12:51:29:494,0,0.514214,-3.57601,-29.6563,Q,Q
2023-03-15 12:51:29:504,0,0.494837,-3.57966,-29.6741,Q,Q
2023-03-15 12:51:29:514,0,0.470653,-3.57359,-29.69,Q,Q
2023-03-15 12:51:29:524,0,0.446637,-3.56745,-29.7042,Q,Q
2023-03-15 12:51:29:534,0,0.42117,-3.5604,-29.7193,Q,Q
2023-03-15 12:51:29:544,0,0.393523,-3.54794,-29.7318,Q,Q
2023-03-15 12:51:29:553,0,0.367694,-3.5429,-29.7444,Q,Q
2023-03-15 12:51:29:563,0,0.342418,-3.53742,-29.7584,Q,Q
2023-03-15 12:51:29:574,0,0.3212,-3.5365,-29.7708,Q,Q
2023-03-15 12:51:29:584,0,0.301843,-3.54045,-29.7865,Q,Q
2023-03-15 12:51:29:594,0,0.28623,-3.54374,-29.7998,Q,Q
2023-03-15 12:51:29:604,0,0.272872,-3.5519,-29.8159,Q,Q
2023-03-15 12:51:29:614,0,0.26149,-3.5607,-29.8358,Q,Q
2023-03-15 12:51:29:624,0,0.251134,-3.56596,-29.8561,Q,Q
2023-03-15 12:51:29:634,0,0.239247,-3.5675,-29.8786,Q,Q
2023-03-15 12:51:29:644,0,0.234121,-3.57067,-29.9006,Q,Q
2023-03-15 12:51:29:654,0,0.230805,-3.57403,-29.9176,Q,Q
2023-03-15 12:51:29:664,0,0.231793,-3.5746,-29.9341,Q,Q
2023-03-15 12:51:29:674,0,0.232311,-3.58042,-29.9474,Q,Q
2023-03-15 12:51:29:684,0,0.229902,-3.58575,-29.9622,Q,Q
2023-03-15 12:51:29:693,0,0.226891,-3.59114,-29.9706,Q,Q
2023-03-15 12:51:29:704,0,0.224186,-3.59422,-29.982,Q,Q
2023-03-15 12:51:29:714,0,0.2224,-3.59422,-29.9901,Q,Q
2023-03-15 12:51:29:724,0,0.220047,-3.59092,-29.9947,Q,Q
2023-03-15 12:51:29:734,0,0.216895,-3.58566,-29.9958,Q,Q
2023-03-15 12:51:29:744,0,0.212838,-3.57686,-29.9992,Q,Q
2023-03-15 12:51:29:754,0,0.208327,-3.57294,-30.008,Q,Q
2023-03-15 12:51:29:764,0,0.203366,-3.56774,-30.0146,Q,Q
2023-03-15 12:51:29:774,0,0.199638,-3.56532,-30.0199,Q,Q
2023-03-15 12:51:29:784,0,0.196761,-3.56459,-30.0249,Q,Q
2023-03-15 12:51:29:794,0,0.198075,-3.56746,-30.0342,Q,Q
2023-03-15 12:51:29:804,0,0.195658,-3.56704,-30.0486,Q,Q
2023-03-15 12:51:29:814,0,0.198011,-3.56709,-30.0604,Q,Q
2023-03-15 12:51:29:824,0,0.193342,-3.56769,-30.0714,Q,Q
2023-03-15 12:51:29:834,0,0.17883,-3.5697,-30.0857,Q,Q
2023-03-15 12:51:29:844,0,0.161705,-3.57388,-30.0971,Q,Q
2023-03-15 12:51:29:854,0,0.139735,-3.58451,-30.1094,Q,Q
2023-03-15 12:51:29:864,0,0.116281,-3.60049,-30.1255,Q,Q
2023-03-15 12:51:29:874,0,0.0917335,-3.61978,-30.1442,Q,Q
2023-03-15 12:51:29:884,0,0.0723325,-3.63825,-30.1662,Q,Q
2023-03-15 12:51:29:894,0,0.0576757,-3.65924,-30.1884,Q,Q
2023-03-15 12:51:29:904,0,0.0463943,-3.67789,-30.2061,Q,Q
2023-03-15 12:51:29:914,0,0.0385999,-3.69542,-30.2254,Q,Q
2023-03-15 12:51:29:924,0,0.0324464,-3.7146,-30.2468,Q,Q
2023-03-15 12:51:29:934,0,0.0195649,-3.73243,-30.2606,Q,Q
2023-03-15 12:51:29:944,0,0.00964899,-3.75316,-30.279,Q,Q
2023-03-15 12:51:29:954,0,0.00105843,-3.76813,-30.2937,Q,Q
2023-03-15 12:51:29:964,0,-0.00650533,-3.78043,-30.3062,Q,Q
2023-03-15 12:51:29:974,0,-0.0143727,-3.79356,-30.3184,Q,Q
2023-03-15 12:51:29:984,0,-0.0206429,-3.80405,-30.3285,Q,Q
2023-03-15 12:51:29:994,0,-0.0263794,-3.81291,-30.3365,Q,Q
2023-03-15 12:51:30:4,0,-0.0228767,-3.81607,-30.344,Q,Q
2023-03-15 12:51:30:14,0,-0.0115535,-3.81959,-30.3496,Q,Q
2023-03-15 12:51:30:24,0,-0.00188034,-3.82336,-30.3552,Q,Q
2023-03-15 12:51:30:34,0,0.0110639,-3.82545,-30.3603,Q,Q
2023-03-15 12:51:30:44,0,0.0197421,-3.82609,-30.3598,Q,Q
2023-03-15 12:51:30:53,0,0.0263989,-3.82218,-30.3625,Q,Q
2023-03-15 12:51:30:64,0,0.0292304,-3.80987,-30.3611,Q,Q
2023-03-15 12:51:30:74,0,0.0304075,-3.7976,-30.358,Q,Q
2023-03-15 12:51:30:84,0,0.0323934,-3.78564,-30.3567,Q,Q
2023-03-15 12:51:30:94,0,0.0312568,-3.77852,-30.355,Q,Q
2023-03-15 12:51:30:104,0,0.0260079,-3.77551,-30.3498,Q,Q
2023-03-15 12:51:30:114,0,0.0221381,-3.78116,-30.3469,Q,Q
2023-03-15 12:51:30:124,0,0.0188985,-3.77865,-30.349,Q,Q
2023-03-15 12:51:30:134,0,0.0203103,-3.77324,-30.3536,Q,Q
2023-03-15 12:51:30:144,0,0.019207,-3.76866,-30.3545,Q,Q
2023-03-15 12:51:30:154,0,0.0164064,-3.76209,-30.3557,Q,Q
2023-03-15 12:51:30:164,0,0.0128279,-3.7566,-30.357,Q,Q
2023-03-15 12:51:30:174,0,0.0123865,-3.74826,-30.359,Q,Q
2023-03-15 12:51:30:184,0,0.0108433,-3.73345,-30.3628,Q,Q
2023-03-15 12:51:30:193,0,0.0103175,-3.72052,-30.3671,Q,Q
2023-03-15 12:51:30:203,0,0.00847922,-3.70735,-30.3728,Q,Q
2023-03-15 12:51:30:214,0,0.00469831,-3.69747,-30.3782,Q,Q
2023-03-15 12:51:30:224,0,-0.00273166,-3.68683,-30.3861,Q,Q
2023-03-15 12:51:30:234,0,-0.00850109,-3.6794,-30.3938,Q,Q
2023-03-15 12:51:30:244,0,-0.0131186,-3.67308,-30.4114,Q,Q
2023-03-15 12:51:30:254,0,-0.0138938,-3.66775,-30.4261,Q,Q
2023-03-15 12:51:30:264,0,-0.010599,-3.65958,-30.4432,Q,Q
2023-03-15 12:51:30:274,0,-0.00534369,-3.64865,-30.4596,Q,Q
2023-03-15 12:51:30:284,0,0.00385413,-3.63787,-30.4752,Q,Q
2023-03-15 12:51:30:294,0,0.0118103,-3.62543,-30.4868,Q,Q
2023-03-15 12:51:30:304,0,0.0193739,-3.61283,-30.5019,Q,Q
2023-03-15 12:51:30:314,0,0.0227161,-3.59898,-30.514,Q,Q
2023-03-15 12:51:30:324,0,0.0234404,-3.58617,-30.5226,Q,Q
2023-03-15 12:51:30:334,0,0.0240338,-3.56918,-30.5336,Q,Q
2023-03-15 12:51:30:344,0,0.0270759,-3.55,-30.5408,Q,Q
2023-03-15 12:51:30:354,0,0.0324142,-3.5364,-30.5441,Q,Q
2023-03-15 12:51:30:364,0,0.0410116,-3.52073,-30.5417,Q,Q
2023-03-15 12:51:30:374,0,0.0477105,-3.50791,-30.5391,Q,Q
2023-03-15 12:51:30:384,0,0.0497659,-3.4982,-30.5349,Q,Q
2023-03-15 12:51:30:394,0,0.0470797,-3.4898,-30.5344,Q,Q
2023-03-15 12:51:30:404,0,0.0404738,-3.48047,-30.5329,Q,Q
2023-03-15 12:51:30:413,0,0.0271675,-3.47145,-30.5324,Q,Q
2023-03-15 12:51:30:423,0,0.0162438,-3.46404,-30.5337,Q,Q
2023-03-15 12:51:30:433,0,0.00280649,-3.46067,-30.5367,Q,Q
2023-03-15 12:51:30:444,0,-0.0118838,-3.45575,-30.5375,Q,Q
2023-03-15 12:51:30:454,0,-0.02332,-3.4473,-30.5433,Q,Q
2023-03-15 12:51:30:464,0,-0.0382661,-3.43921,-30.5476,Q,Q
2023-03-15 12:51:30:474,0,-0.0474426,-3.43252,-30.5532,Q,Q
2023-03-15 12:51:30:484,0,-0.0546186,-3.42603,-30.5548,Q,Q
2023-03-15 12:51:30:494,0,-0.0572167,-3.41933,-30.5548,Q,Q
2023-03-15 12:51:30:504,0,-0.0637089,-3.41488,-30.5571,Q,Q
2023-03-15 12:51:30:514,0,-0.0692641,-3.41145,-30.5568,Q,Q
2023-03-15 12:51:30:524,0,-0.0692471,-3.41006,-30.5532,Q,Q
2023-03-15 12:51:30:534,0,-0.0626222,-3.40986,-30.5501,Q,Q
2023-03-15 12:51:30:544,0,-0.0564678,-3.41251,-30.547,Q,Q
2023-03-15 12:51:30:553,0,-0.0517562,-3.41716,-30.5448,Q,Q
2023-03-15 12:51:30:563,0,-0.042372,-3.42385,-30.5412,Q,Q
2023-03-15 12:51:30:573,0,-0.0324295,-3.43487,-30.5379,Q,Q
2023-03-15 12:51:30:584,0,-0.0239925,-3.44503,-30.5341,Q,Q
2023-03-15 12:51:30:594,0,-0.00974527,-3.45036,-30.5347,Q,Q
2023-03-15 12:51:30:604,0,0.00881314,-3.45435,-30.5377,Q,Q
2023-03-15 12:51:30:614,0,0.0289162,-3.46317,-30.5404,Q,Q
2023-03-15 12:51:30:624,0,0.0496419,-3.46902,-30.5477,Q,Q
2023-03-15 12:51:30:634,0,0.0697395,-3.47677,-30.5518,Q,Q
2023-03-15 12:51:30:644,0,0.0895406,-3.47819,-30.5576,Q,Q
2023-03-15 12:51:30:654,0,0.10625,-3.48179,-30.5634,Q,Q
2023-03-15 12:51:30:664,0,0.117056,-3.47923,-30.5724,Q,Q
2023-03-15 12:51:30:674,0,0.128146,-3.47266,-30.5841,Q,Q
2023-03-15 12:51:30:684,0,0.133178,-3.46817,-30.5991,Q,Q
2023-03-15 12:51:30:694,0,0.139542,-3.46417,-30.6126,Q,Q
2023-03-15 12:51:30:704,0,0.150088,-3.45872,-30.629,Q,Q
2023-03-15 12:51:30:714,0,0.162055,-3.44929,-30.6421,Q,Q
2023-03-15 12:51:30:724,0,0.176283,-3.44214,-30.6538,Q,Q
2023-03-15 12:51:30:734,0,0.185749,-3.43461,-30.6687,Q,Q
2023-03-15 12:51:30:744,0,0.190778,-3.42934,-30.6833,Q,Q
2023-03-15 12:51:30:754,0,0.194,-3.42556,-30.6937,Q,Q
2023-03-15 12:51:30:764,0,0.195565,-3.42209,-30.701,Q,Q
2023-03-15 12:51:30:774,0,0.191349,-3.41958,-30.7127,Q,Q
2023-03-15 12:51:30:784,0,0.18401,-3.41676,-30.7212,Q,Q
2023-03-15 12:51:30:794,0,0.180717,-3.41817,-30.7357,Q,Q
2023-03-15 12:51:30:804,0,0.184537,-3.41995,-30.7476,Q,Q
2023-03-15 12:51:30:814,0,0.191101,-3.41852,-30.7598,Q,Q
2023-03-15 12:51:30:824,0,0.198778,-3.4209,-30.7712,Q,Q
2023-03-15 12:51:30:834,0,0.208922,-3.41551,-30.7792,Q,Q
2023-03-15 12:51:30:844,0,0.214502,-3.4154,-30.7853,Q,Q
2023-03-15 12:51:30:854,0,0.214619,-3.42271,-30.7904,Q,Q
2023-03-15 12:51:30:864,0,0.210071,-3.42445,-30.798,Q,Q
2023-03-15 12:51:30:874,0,0.20409,-3.4239,-30.8071,Q,Q
2023-03-15 12:51:30:884,0,0.195063,-3.41766,-30.8123,Q,Q
2023-03-15 12:51:30:894,0,0.186441,-3.41145,-30.8139,Q,Q
2023-03-15 12:51:30:904,0,0.185689,-3.4032,-30.8083,Q,Q
2023-03-15 12:51:30:914,0,0.19119,-3.3975,-30.8022,Q,Q
2023-03-15 12:51:30:923,0,0.194008,-3.38967,-30.7962,Q,Q
2023-03-15 12:51:30:933,0,0.199278,-3.38538,-30.801,Q,Q
2023-03-15 12:51:30:943,0,0.202304,-3.37415,-30.8042,Q,Q
2023-03-15 12:51:30:954,0,0.20337,-3.36689,-30.8071,Q,Q
2023-03-15 12:51:30:964,0,0.204851,-3.36807,-30.8065,Q,Q
2023-03-15 12:51:30:974,0,0.208039,-3.37017,-30.8057,Q,Q
2023-03-15 12:51:30:984,0,0.213429,-3.38059,-30.8024,Q,Q
2023-03-15 12:51:30:994,0,0.223788,-3.38935,-30.7976,Q,Q
2023-03-15 12:51:31:4,0,0.232262,-3.39603,-30.7961,Q,Q
2023-03-15 12:51:31:14,0,0.246646,-3.40535,-30.7928,Q,Q
2023-03-15 12:51:31:24,0,0.258133,-3.41061,-30.7832,Q,Q
2023-03-15 12:51:31:34,0,0.264909,-3.4089,-30.7713,Q,Q
2023-03-15 12:51:31:43,0,0.265751,-3.40557,-30.7533,Q,Q
2023-03-15 12:51:31:53,0,0.249267,-3.40382,-30.7364,Q,Q
2023-03-15 12:51:31:64,0,0.22111,-3.40305,-30.7199,Q,Q
2023-03-15 12:51:31:74,0,0.183865,-3.4081,-30.7072,Q,Q
2023-03-15 12:51:31:84,0,0.14316,-3.41635,-30.7044,Q,Q
2023-03-15 12:51:31:94,0,0.113511,-3.41985,-30.7013,Q,Q
2023-03-15 12:51:31:104,0,0.090368,-3.42184,-30.7071,Q,Q
2023-03-15 12:51:31:114,0,0.0772926,-3.42843,-30.7201,Q,Q
2023-03-15 12:51:31:124,0,0.0657253,-3.43341,-30.733,Q,Q
2023-03-15 12:51:31:134,0,0.0559765,-3.43846,-30.7456,Q,Q
2023-03-15 12:51:31:144,0,0.0432437,-3.43891,-30.7587,Q,Q
2023-03-15 12:51:31:154,0,0.022977,-3.44056,-30.7764,Q,Q
2023-03-15 12:51:31:164,0,-0.0032934,-3.44237,-30.7933,Q,Q
2023-03-15 12:51:31:174,0,-0.0254723,-3.44124,-30.814,Q,Q
2023-03-15 12:51:31:184,0,-0.0373429,-3.44206,-30.8352,Q,Q
2023-03-15 12:51:31:194,0,-0.0397289,-3.44258,-30.8602,Q,Q
2023-03-15 12:51:31:204,0,-0.0388988,-3.43701,-30.8783,Q,Q
2023-03-15 12:51:31:214,0,-0.0429281,-3.43336,-30.8975,Q,Q
2023-03-15 12:51:31:224,0,-0.0546964,-3.42446,-30.9196,Q,Q
2023-03-15 12:51:31:234,0,-0.0699766,-3.41272,-30.9385,Q,Q
2023-03-15 12:51:31:244,0,-0.0911959,-3.403,-30.9552,Q,Q
2023-03-15 12:51:31:254,0,-0.122152,-3.40148,-30.9714,Q,Q
2023-03-15 12:51:31:264,0,-0.160878,-3.40474,-30.9872,Q,Q
2023-03-15 12:51:31:274,0,-0.201556,-3.40459,-31.0088,Q,Q
2023-03-15 12:51:31:284,0,-0.236473,-3.40463,-31.0312,Q,Q
2023-03-15 12:51:31:294,0,-0.262541,-3.39902,-31.0582,Q,Q
2023-03-15 12:51:31:304,0,-0.298722,-3.39116,-31.075,Q,Q
2023-03-15 12:51:31:314,0,-0.358863,-3.37248,-31.0861,Q,Q
2023-03-15 12:51:31:324,0,-0.437777,-3.35843,-31.0979,Q,Q
2023-03-15 12:51:31:334,0,-0.52905,-3.35007,-31.1238,Q,Q
2023-03-15 12:51:31:344,0,-0.601125,-3.35166,-31.1636,Q,Q
2023-03-15 12:51:31:354,0,-0.636214,-3.35501,-31.2138,Q,Q
2023-03-15 12:51:31:364,0,-0.632386,-3.36123,-31.2707,Q,Q
2023-03-15 12:51:31:374,0,-0.614799,-3.36712,-31.3261,Q,Q
2023-03-15 12:51:31:384,0,-0.610068,-3.37411,-31.3746,Q,Q
2023-03-15 12:51:31:394,0,-0.613727,-3.39143,-31.4206,Q,Q
2023-03-15 12:51:31:404,0,-0.626165,-3.40968,-31.4653,Q,Q
2023-03-15 12:51:31:414,0,-0.645632,-3.42572,-31.5108,Q,Q
2023-03-15 12:51:31:424,0,-0.66623,-3.44138,-31.5549,Q,Q
2023-03-15 12:51:31:434,0,-0.683591,-3.45845,-31.6002,Q,Q
2023-03-15 12:51:31:444,0,-0.689881,-3.47194,-31.6464,Q,Q
2023-03-15 12:51:31:454,0,-0.684875,-3.48112,-31.6861,Q,Q
2023-03-15 12:51:31:464,0,-0.664356,-3.48431,-31.7149,Q,Q
2023-03-15 12:51:31:474,0,-0.640243,-3.48626,-31.7332,Q,Q
2023-03-15 12:51:31:484,0,-0.623856,-3.47976,-31.7472,Q,Q
2023-03-15 12:51:31:494,0,-0.615706,-3.47245,-31.7525,Q,Q
2023-03-15 12:51:31:504,0,-0.601758,-3.46244,-31.7549,Q,Q
2023-03-15 12:51:31:514,0,-0.588852,-3.45467,-31.7479,Q,Q
2023-03-15 12:51:31:524,0,-0.581268,-3.44461,-31.7423,Q,Q
2023-03-15 12:51:31:534,0,-0.567922,-3.43896,-31.7408,Q,Q
2023-03-15 12:51:31:544,0,-0.542726,-3.43171,-31.7474,Q,Q
2023-03-15 12:51:31:553,0,-0.498029,-3.4235,-31.7572,Q,Q
2023-03-15 12:51:31:563,0,-0.442058,-3.4059,-31.7671,Q,Q
2023-03-15 12:51:31:573,0,-0.384822,-3.38491,-31.7785,Q,Q
2023-03-15 12:51:31:583,0,-0.337446,-3.35906,-31.7876,Q,Q
2023-03-15 12:51:31:594,0,-0.298609,-3.33644,-31.7929,Q,Q
2023-03-15 12:51:31:604,0,-0.267767,-3.32068,-31.7995,Q,Q
2023-03-15 12:51:31:613,0,-0.235855,-3.31242,-31.8107,Q,Q
2023-03-15 12:51:31:624,0,-0.196298,-3.30393,-31.8285,Q,Q
2023-03-15 12:51:31:634,0,-0.147174,-3.29563,-31.8448,Q,Q
2023-03-15 12:51:31:644,0,-0.0855046,-3.28657,-31.8633,Q,Q
2023-03-15 12:51:31:654,0,-0.0136947,-3.27851,-31.8736,Q,Q
2023-03-15 12:51:31:664,0,0.0600322,-3.26644,-31.8734,Q,Q
2023-03-15 12:51:31:674,0,0.128084,-3.25894,-31.8689,Q,Q
2023-03-15 12:51:31:684,0,0.191086,-3.24902,-31.8527,Q,Q
2023-03-15 12:51:31:694,0,0.249259,-3.2415,-31.8311,Q,Q
2023-03-15 12:51:31:704,0,0.300958,-3.23319,-31.8025,Q,Q
2023-03-15 12:51:31:714,0,0.345228,-3.2207,-31.763,Q,Q
2023-03-15 12:51:31:724,0,0.380886,-3.21008,-31.7213,Q,Q
2023-03-15 12:51:31:734,0,0.407807,-3.19932,-31.6757,Q,Q
2023-03-15 12:51:31:743,0,0.429026,-3.18914,-31.6321,Q,Q
2023-03-15 12:51:31:754,0,0.443227,-3.18405,-31.5843,Q,Q
2023-03-15 12:51:31:764,0,0.45034,-3.17653,-31.5398,Q,Q
2023-03-15 12:51:31:774,0,0.450809,-3.17412,-31.5004,Q,Q
2023-03-15 12:51:31:783,0,0.442158,-3.17065,-31.4665,Q,Q
2023-03-15 12:51:31:794,0,0.430909,-3.17097,-31.4323,Q,Q
2023-03-15 12:51:31:804,0,0.416532,-3.17738,-31.4028,Q,Q
2023-03-15 12:51:31:814,0,0.398466,-3.18562,-31.3775,Q,Q
2023-03-15 12:51:31:824,0,0.378092,-3.19597,-31.359,Q,Q
2023-03-15 12:51:31:834,0,0.354959,-3.20564,-31.3474,Q,Q
2023-03-15 12:51:31:844,0,0.324066,-3.21438,-31.3342,Q,Q
2023-03-15 12:51:31:854,0,0.292525,-3.22258,-31.3302,Q,Q
2023-03-15 12:51:31:864,0,0.262099,-3.22706,-31.3271,Q,Q
2023-03-15 12:51:31:874,0,0.227064,-3.2299,-31.329,Q,Q
2023-03-15 12:51:31:884,0,0.194664,-3.23407,-31.3273,Q,Q
2023-03-15 12:51:31:894,0,0.169253,-3.23478,-31.3265,Q,Q
2023-03-15 12:51:31:904,0,0.14827,-3.23329,-31.3274,Q,Q
2023-03-15 12:51:31:914,0,0.129641,-3.2362,-31.3278,Q,Q
2023-03-15 12:51:31:923,0,0.110801,-3.24157,-31.3254,Q,Q
2023-03-15 12:51:31:933,0,0.100967,-3.24509,-31.3239,Q,Q
2023-03-15 12:51:31:943,0,0.0930318,-3.24689,-31.3186,Q,Q
2023-03-15 12:51:31:953,0,0.0825908,-3.2449,-31.3106,Q,Q
2023-03-15 12:51:31:963,0,0.0784586,-3.24532,-31.2974,Q,Q
2023-03-15 12:51:31:973,0,0.071429,-3.24607,-31.2831,Q,Q
2023-03-15 12:51:31:983,0,0.0630831,-3.25001,-31.263,Q,Q
2023-03-15 12:51:31:993,0,0.0518707,-3.2571,-31.2416,Q,Q
2023-03-15 12:51:32:4,0,0.0424996,-3.2651,-31.2168,Q,Q
2023-03-15 12:51:32:14,0,0.0361122,-3.27619,-31.1956,Q,Q
2023-03-15 12:51:32:24,0,0.0369173,-3.28845,-31.1687,Q,Q
2023-03-15 12:51:32:34,0,0.0399882,-3.2959,-31.1424,Q,Q
2023-03-15 12:51:32:44,0,0.041455,-3.30446,-31.1142,Q,Q
2023-03-15 12:51:32:53,0,0.0487762,-3.31723,-31.0814,Q,Q
2023-03-15 12:51:32:64,0,0.0570515,-3.33231,-31.044,Q,Q
2023-03-15 12:51:32:74,0,0.064091,-3.35054,-31.0094,Q,Q
2023-03-15 12:51:32:83,0,0.0681427,-3.36732,-30.9731,Q,Q
2023-03-15 12:51:32:94,0,0.0734443,-3.38311,-30.938,Q,Q
2023-03-15 12:51:32:104,0,0.07153,-3.39768,-30.9008,Q,Q
2023-03-15 12:51:32:114,0,0.0705455,-3.41331,-30.8613,Q,Q
2023-03-15 12:51:32:124,0,0.0743928,-3.42526,-30.8205,Q,Q
2023-03-15 12:51:32:134,0,0.0699151,-3.4384,-30.778,Q,Q
2023-03-15 12:51:32:144,0,0.0605819,-3.45493,-30.7326,Q,Q
2023-03-15 12:51:32:153,0,0.0479366,-3.46742,-30.6898,Q,Q
2023-03-15 12:51:32:164,0,0.0292396,-3.48974,-30.6428,Q,Q
2023-03-15 12:51:32:174,0,0.00456196,-3.51489,-30.5936,Q,Q
2023-03-15 12:51:32:184,0,-0.02375,-3.54131,-30.5445,Q,Q
2023-03-15 12:51:32:194,0,-0.0530631,-3.5678,-30.4926,Q,Q
2023-03-15 12:51:32:204,0,-0.0854251,-3.59452,-30.4406,Q,Q
2023-03-15 12:51:32:214,0,-0.118158,-3.62293,-30.387,Q,Q
2023-03-15 12:51:32:224,0,-0.154324,-3.65047,-30.3305,Q,Q
2023-03-15 12:51:32:234,0,-0.185858,-3.67835,-30.2777,Q,Q
2023-03-15 12:51:32:244,0,-0.214996,-3.70431,-30.2233,Q,Q
2023-03-15 12:51:32:254,0,-0.24284,-3.73356,-30.1723,Q,Q
2023-03-15 12:51:32:264,0,-0.269999,-3.75987,-30.1242,Q,Q
2023-03-15 12:51:32:274,0,-0.29811,-3.78334,-30.0747,Q,Q
2023-03-15 12:51:32:284,0,-0.326862,-3.80659,-30.0294,Q,Q
2023-03-15 12:51:32:294,0,-0.3533,-3.82907,-29.9876,Q,Q
2023-03-15 12:51:32:304,0,-0.37944,-3.84763,-29.9548,Q,Q
2023-03-15 12:51:32:314,0,-0.408073,-3.85697,-29.9301,Q,Q
2023-03-15 12:51:32:324,0,-0.43007,-3.86467,-29.9125,Q,Q
2023-03-15 12:51:32:334,0,-0.447966,-3.87344,-29.8993,Q,Q
2023-03-15 12:51:32:343,0,-0.459896,-3.8795,-29.8943,Q,Q
2023-03-15 12:51:32:353,0,-0.462834,-3.88514,-29.8985,Q,Q
2023-03-15 12:51:32:363,0,-0.459712,-3.88381,-29.9123,Q,Q
2023-03-15 12:51:32:373,0,-0.450495,-3.88052,-29.9272,Q,Q
2023-03-15 12:51:32:384,0,-0.430115,-3.8793,-29.9482,Q,Q
2023-03-15 12:51:32:393,0,-0.406664,-3.8745,-29.9701,Q,Q
2023-03-15 12:51:32:403,0,-0.37704,-3.86553,-30.0002,Q,Q
2023-03-15 12:51:32:414,0,-0.339997,-3.84993,-30.0322,Q,Q
2023-03-15 12:51:32:424,0,-0.301873,-3.83465,-30.0677,Q,Q
2023-03-15 12:51:32:434,0,-0.25696,-3.81758,-30.104,Q,Q
2023-03-15 12:51:32:444,0,-0.214752,-3.79568,-30.1363,Q,Q
2023-03-15 12:51:32:453,0,-0.16332,-3.77159,-30.1746,Q,Q
2023-03-15 12:51:32:463,0,-0.110754,-3.7448,-30.2123,Q,Q
2023-03-15 12:51:32:474,0,-0.058478,-3.71089,-30.2498,Q,Q
2023-03-15 12:51:32:484,0,-0.0150213,-3.67276,-30.2844,Q,Q
2023-03-15 12:51:32:494,0,0.0207005,-3.63919,-30.3198,Q,Q
2023-03-15 12:51:32:504,0,0.0541042,-3.60886,-30.3567,Q,Q
2023-03-15 12:51:32:514,0,0.0857143,-3.58613,-30.3938,Q,Q
2023-03-15 12:51:32:524,0,0.113705,-3.56246,-30.4273,Q,Q
2023-03-15 12:51:32:534,0,0.13577,-3.54439,-30.4626,Q,Q
2023-03-15 12:51:32:544,0,0.159943,-3.52735,-30.4976,Q,Q
2023-03-15 12:51:32:553,0,0.174903,-3.51546,-30.5258,Q,Q
2023-03-15 12:51:32:564,0,0.181568,-3.50257,-30.5599,Q,Q
2023-03-15 12:51:32:574,0,0.181149,-3.49158,-30.586,Q,Q
2023-03-15 12:51:32:583,0,0.175388,-3.48234,-30.6105,Q,Q
2023-03-15 12:51:32:594,0,0.16956,-3.4748,-30.633,Q,Q
2023-03-15 12:51:32:604,0,0.159883,-3.46526,-30.6497,Q,Q
2023-03-15 12:51:32:614,0,0.148277,-3.46165,-30.6656,Q,Q
2023-03-15 12:51:32:624,0,0.129977,-3.45698,-30.6722,Q,Q
2023-03-15 12:51:32:634,0,0.113341,-3.44948,-30.6788,Q,Q
2023-03-15 12:51:32:644,0,0.0952499,-3.44634,-30.6772,Q,Q
2023-03-15 12:51:32:654,0,0.0727492,-3.44538,-30.6736,Q,Q
2023-03-15 12:51:32:664,0,0.046954,-3.44464,-30.6688,Q,Q
2023-03-15 12:51:32:674,0,0.0196538,-3.44768,-30.6639,Q,Q
2023-03-15 12:51:32:684,0,-0.00162944,-3.44941,-30.6576,Q,Q
2023-03-15 12:51:32:694,0,-0.0214958,-3.45058,-30.651,Q,Q
2023-03-15 12:51:32:704,0,-0.0389823,-3.45497,-30.6404,Q,Q
2023-03-15 12:51:32:714,0,-0.0558504,-3.46035,-30.6297,Q,Q
2023-03-15 12:51:32:724,0,-0.0707813,-3.46797,-30.6172,Q,Q
2023-03-15 12:51:32:734,0,-0.0816066,-3.47416,-30.6095,Q,Q
2023-03-15 12:51:32:744,0,-0.091466,-3.479,-30.5984,Q,Q
2023-03-15 12:51:32:754,0,-0.111248,-3.47925,-30.5873,Q,Q
2023-03-15 12:51:32:764,0,-0.130518,-3.48116,-30.5766,Q,Q
2023-03-15 12:51:32:774,0,-0.14585,-3.48306,-30.5641,Q,Q
2023-03-15 12:51:32:784,0,-0.153521,-3.48555,-30.5516,Q,Q
2023-03-15 12:51:32:794,0,-0.163644,-3.48609,-30.5396,Q,Q
2023-03-15 12:51:32:804,0,-0.178695,-3.48245,-30.5317,Q,Q
2023-03-15 12:51:32:814,0,-0.195191,-3.47696,-30.5202,Q,Q
2023-03-15 12:51:32:824,0,-0.212885,-3.46757,-30.5083,Q,Q
2023-03-15 12:51:32:834,0,-0.22752,-3.45686,-30.4976,Q,Q
2023-03-15 12:51:32:844,0,-0.247149,-3.44661,-30.4907,Q,Q
2023-03-15 12:51:32:854,0,-0.261099,-3.43735,-30.4831,Q,Q
2023-03-15 12:51:32:864,0,-0.27514,-3.4268,-30.4776,Q,Q
2023-03-15 12:51:32:874,0,-0.285023,-3.41536,-30.4745,Q,Q
2023-03-15 12:51:32:884,0,-0.288734,-3.40661,-30.4764,Q,Q
2023-03-15 12:51:32:894,0,-0.290411,-3.4006,-30.4766,Q,Q
2023-03-15 12:51:32:904,0,-0.291954,-3.39064,-30.4853,Q,Q
2023-03-15 12:51:32:914,0,-0.292678,-3.38475,-30.4933,Q,Q
2023-03-15 12:51:32:924,0,-0.297074,-3.37977,-30.5004,Q,Q
2023-03-15 12:51:32:934,0,-0.301452,-3.37267,-30.5089,Q,Q
2023-03-15 12:51:32:943,0,-0.302895,-3.36004,-30.5201,Q,Q
2023-03-15 12:51:32:954,0,-0.308884,-3.35243,-30.5288,Q,Q
2023-03-15 12:51:32:963,0,-0.314268,-3.3474,-30.5322,Q,Q
2023-03-15 12:51:32:973,0,-0.32042,-3.34021,-30.5307,Q,Q
2023-03-15 12:51:32:983,0,-0.322125,-3.34075,-30.5308,Q,Q
2023-03-15 12:51:32:993,0,-0.326556,-3.33857,-30.5262,Q,Q
2023-03-15 12:51:33:4,0,-0.3343,-3.33292,-30.5217,Q,Q
2023-03-15 12:51:33:14,0,-0.344512,-3.32677,-30.5214,Q,Q
2023-03-15 12:51:33:24,0,-0.349262,-3.3246,-30.5242,Q,Q
2023-03-15 12:51:33:34,0,-0.350467,-3.32121,-30.5283,Q,Q
2023-03-15 12:51:33:43,0,-0.351417,-3.3163,-30.5387,Q,Q
2023-03-15 12:51:33:53,0,-0.352992,-3.31291,-30.5481,Q,Q
2023-03-15 12:51:33:64,0,-0.353879,-3.31205,-30.5592,Q,Q
2023-03-15 12:51:33:73,0,-0.349186,-3.30948,-30.5699,Q,Q
2023-03-15 12:51:33:83,0,-0.346983,-3.3066,-30.5845,Q,Q
2023-03-15 12:51:33:94,0,-0.343168,-3.30518,-30.5967,Q,Q
2023-03-15 12:51:33:104,0,-0.342342,-3.30249,-30.6113,Q,Q
2023-03-15 12:51:33:114,0,-0.340004,-3.30243,-30.6218,Q,Q
2023-03-15 12:51:33:124,0,-0.333877,-3.30529,-30.6346,Q,Q
2023-03-15 12:51:33:134,0,-0.323928,-3.30666,-30.6426,Q,Q
2023-03-15 12:51:33:144,0,-0.313177,-3.30706,-30.6472,Q,Q
2023-03-15 12:51:33:154,0,-0.298986,-3.30665,-30.6554,Q,Q
2023-03-15 12:51:33:164,0,-0.282938,-3.31039,-30.6643,Q,Q
2023-03-15 12:51:33:174,0,-0.271179,-3.31368,-30.6758,Q,Q
2023-03-15 12:51:33:184,0,-0.267329,-3.31139,-30.6864,Q,Q
2023-03-15 12:51:33:194,0,-0.265861,-3.30654,-30.7026,Q,Q
2023-03-15 12:51:33:204,0,-0.262129,-3.3009,-30.7165,Q,Q
2023-03-15 12:51:33:214,0,-0.25986,-3.30063,-30.7322,Q,Q
2023-03-15 12:51:33:224,0,-0.260915,-3.30487,-30.7452,Q,Q
2023-03-15 12:51:33:234,0,-0.256691,-3.3102,-30.756,Q,Q
2023-03-15 12:51:33:244,0,-0.254969,-3.31649,-30.7649,Q,Q
2023-03-15 12:51:33:254,0,-0.2491,-3.32159,-30.7718,Q,Q
2023-03-15 12:51:33:264,0,-0.246997,-3.32635,-30.7822,Q,Q
2023-03-15 12:51:33:274,0,-0.245534,-3.32786,-30.792,Q,Q
2023-03-15 12:51:33:284,0,-0.249398,-3.33078,-30.8014,Q,Q
2023-03-15 12:51:33:294,0,-0.25107,-3.33103,-30.8077,Q,Q
2023-03-15 12:51:33:304,0,-0.254651,-3.33324,-30.8113,Q,Q
2023-03-15 12:51:33:314,0,-0.266514,-3.33343,-30.8182,Q,Q
2023-03-15 12:51:33:324,0,-0.281411,-3.33639,-30.8251,Q,Q
2023-03-15 12:51:33:334,0,-0.291829,-3.3374,-30.8311,Q,Q
2023-03-15 12:51:33:344,0,-0.299921,-3.33969,-30.8428,Q,Q
2023-03-15 12:51:33:354,0,-0.311945,-3.3382,-30.853,Q,Q
2023-03-15 12:51:33:364,0,-0.323688,-3.3405,-30.8608,Q,Q
2023-03-15 12:51:33:374,0,-0.336855,-3.34191,-30.8713,Q,Q
2023-03-15 12:51:33:384,0,-0.34915,-3.34362,-30.8848,Q,Q
2023-03-15 12:51:33:394,0,-0.356934,-3.34663,-30.8995,Q,Q
2023-03-15 12:51:33:404,0,-0.364258,-3.34981,-30.9157,Q,Q
2023-03-15 12:51:33:414,0,-0.367362,-3.35,-30.931,Q,Q
2023-03-15 12:51:33:424,0,-0.367062,-3.35715,-30.9458,Q,Q
2023-03-15 12:51:33:434,0,-0.364387,-3.36903,-30.9586,Q,Q
2023-03-15 12:51:33:444,0,-0.363188,-3.38212,-30.9673,Q,Q
2023-03-15 12:51:33:454,0,-0.36015,-3.39482,-30.98,Q,Q
2023-03-15 12:51:33:464,0,-0.355246,-3.40628,-30.9891,Q,Q
2023-03-15 12:51:33:474,0,-0.351591,-3.41379,-31.0003,Q,Q
2023-03-15 12:51:33:484,0,-0.343161,-3.42087,-31.0087,Q,Q
2023-03-15 12:51:33:493,0,-0.33982,-3.43121,-31.0127,Q,Q
2023-03-15 12:51:33:503,0,-0.335634,-3.44397,-31.016,Q,Q
2023-03-15 12:51:33:513,0,-0.33627,-3.45455,-31.0161,Q,Q
2023-03-15 12:51:33:524,0,-0.337607,-3.46465,-31.0182,Q,Q
2023-03-15 12:51:33:534,0,-0.338606,-3.47131,-31.0204,Q,Q
2023-03-15 12:51:33:543,0,-0.340461,-3.47761,-31.026,Q,Q
2023-03-15 12:51:33:553,0,-0.342913,-3.48248,-31.0321,Q,Q
2023-03-15 12:51:33:563,0,-0.345839,-3.49053,-31.0336,Q,Q
2023-03-15 12:51:33:573,0,-0.349701,-3.49529,-31.0418,Q,Q
2023-03-15 12:51:33:583,0,-0.354585,-3.5035,-31.0456,Q,Q
2023-03-15 12:51:33:594,0,-0.356944,-3.51425,-31.0534,Q,Q
2023-03-15 12:51:33:604,0,-0.361667,-3.52733,-31.0629,Q,Q
2023-03-15 12:51:33:614,0,-0.366339,-3.541,-31.0728,Q,Q
2023-03-15 12:51:33:624,0,-0.368798,-3.55691,-31.0834,Q,Q
2023-03-15 12:51:33:634,0,-0.372109,-3.57288,-31.0973,Q,Q
2023-03-15 12:51:33:644,0,-0.375407,-3.59033,-31.1159,Q,Q
2023-03-15 12:51:33:654,0,-0.374668,-3.60551,-31.14,Q,Q
2023-03-15 12:51:33:664,0,-0.368666,-3.62516,-31.1678,Q,Q
2023-03-15 12:51:33:673,0,-0.366415,-3.64226,-31.1947,Q,Q
2023-03-15 12:51:33:684,0,-0.363674,-3.6601,-31.2165,Q,Q
2023-03-15 12:51:33:694,0,-0.364416,-3.6788,-31.2387,Q,Q
2023-03-15 12:51:33:703,0,-0.361512,-3.69335,-31.2601,Q,Q
2023-03-15 12:51:33:714,0,-0.359034,-3.70044,-31.2732,Q,Q
2023-03-15 12:51:33:724,0,-0.353596,-3.70845,-31.2824,Q,Q
2023-03-15 12:51:33:734,0,-0.348442,-3.71936,-31.2863,Q,Q
2023-03-15 12:51:33:743,0,-0.344122,-3.72352,-31.2864,Q,Q
2023-03-15 12:51:33:753,0,-0.339135,-3.72669,-31.2801,Q,Q
2023-03-15 12:51:33:764,0,-0.332096,-3.72832,-31.275,Q,Q
2023-03-15 12:51:33:774,0,-0.328904,-3.72442,-31.268,Q,Q
2023-03-15 12:51:33:784,0,-0.324341,-3.72021,-31.2597,Q,Q
2023-03-15 12:51:33:794,0,-0.326814,-3.7145,-31.2476,Q,Q
2023-03-15 12:51:33:804,0,-0.334257,-3.70942,-31.2353,Q,Q
2023-03-15 12:51:33:814,0,-0.341335,-3.70369,-31.2242,Q,Q
2023-03-15 12:51:33:824,0,-0.353718,-3.70363,-31.217,Q,Q
2023-03-15 12:51:33:834,0,-0.368017,-3.70105,-31.2118,Q,Q
2023-03-15 12:51:33:844,0,-0.378463,-3.69951,-31.2079,Q,Q
2023-03-15 12:51:33:854,0,-0.390059,-3.69841,-31.2041,Q,Q
2023-03-15 12:51:33:864,0,-0.397931,-3.70022,-31.2033,Q,Q
2023-03-15 12:51:33:874,0,-0.410496,-3.70394,-31.2028,Q,Q
2023-03-15 12:51:33:884,0,-0.423448,-3.70756,-31.2061,Q,Q
2023-03-15 12:51:33:893,0,-0.433394,-3.7141,-31.2058,Q,Q
2023-03-15 12:51:33:904,0,-0.441669,-3.71992,-31.2017,Q,Q
2023-03-15 12:51:33:914,0,-0.450738,-3.71979,-31.1977,Q,Q
2023-03-15 12:51:33:924,0,-0.455294,-3.71889,-31.1939,Q,Q
2023-03-15 12:51:33:934,0,-0.459353,-3.71527,-31.1896,Q,Q
2023-03-15 12:51:33:944,0,-0.455009,-3.7133,-31.1838,Q,Q
2023-03-15 12:51:33:954,0,-0.453353,-3.71317,-31.1747,Q,Q
2023-03-15 12:51:33:964,0,-0.449885,-3.71685,-31.1672,Q,Q
2023-03-15 12:51:33:974,0,-0.44806,-3.71223,-31.1646,Q,Q
2023-03-15 12:51:33:984,0,-0.446376,-3.70782,-31.1569,Q,Q
2023-03-15 12:51:33:993,0,-0.441763,-3.70528,-31.1511,Q,Q
2023-03-15 12:51:34:3,0,-0.437288,-3.70575,-31.1429,Q,Q
2023-03-15 12:51:34:13,0,-0.426899,-3.70739,-31.1391,Q,Q
2023-03-15 12:51:34:24,0,-0.415835,-3.71637,-31.1328,Q,Q
2023-03-15 12:51:34:34,0,-0.402204,-3.7271,-31.1297,Q,Q
2023-03-15 12:51:34:43,0,-0.390822,-3.73644,-31.1261,Q,Q
2023-03-15 12:51:34:53,0,-0.385894,-3.74312,-31.1208,Q,Q
2023-03-15 12:51:34:63,0,-0.383957,-3.74906,-31.116,Q,Q
2023-03-15 12:51:34:73,0,-0.385639,-3.75464,-31.1122,Q,Q
2023-03-15 12:51:34:83,0,-0.386924,-3.75869,-31.1051,Q,Q
2023-03-15 12:51:34:94,0,-0.384446,-3.76121,-31.1,Q,Q
2023-03-15 12:51:34:104,0,-0.378636,-3.76252,-31.0908,Q,Q
2023-03-15 12:51:34:114,0,-0.377978,-3.7663,-31.0827,Q,Q
2023-03-15 12:51:34:123,0,-0.374121,-3.76397,-31.079,Q,Q
2023-03-15 12:51:34:134,0,-0.371554,-3.75916,-31.0769,Q,Q
2023-03-15 12:51:34:143,0,-0.369637,-3.75477,-31.0702,Q,Q
2023-03-15 12:51:34:153,0,-0.36957,-3.75185,-31.0681,Q,Q
2023-03-15 12:51:34:163,0,-0.367402,-3.74987,-31.0696,Q,Q
2023-03-15 12:51:34:173,0,-0.361913,-3.75117,-31.0686,Q,Q
2023-03-15 12:51:34:184,0,-0.349768,-3.75133,-31.073,Q,Q
2023-03-15 12:51:34:194,0,-0.340926,-3.75101,-31.0738,Q,Q
2023-03-15 12:51:34:204,0,-0.330741,-3.75206,-31.0786,Q,Q
2023-03-15 12:51:34:214,0,-0.316934,-3.75481,-31.0796,Q,Q
2023-03-15 12:51:34:224,0,-0.312004,-3.75987,-31.084,Q,Q
2023-03-15 12:51:34:233,0,-0.306736,-3.76522,-31.085,Q,Q
2023-03-15 12:51:34:244,0,-0.30023,-3.76834,-31.0871,Q,Q
2023-03-15 12:51:34:253,0,-0.294669,-3.76687,-31.0955,Q,Q
2023-03-15 12:51:34:263,0,-0.291805,-3.76511,-31.0997,Q,Q
2023-03-15 12:51:34:273,0,-0.288482,-3.77237,-31.0998,Q,Q
2023-03-15 12:51:34:283,0,-0.28829,-3.77578,-31.0957,Q,Q
2023-03-15 12:51:34:293,0,-0.286285,-3.77968,-31.0916,Q,Q
2023-03-15 12:51:34:303,0,-0.284987,-3.78293,-31.0917,Q,Q
2023-03-15 12:51:34:313,0,-0.290009,-3.78465,-31.0894,Q,Q
2023-03-15 12:51:34:323,0,-0.295243,-3.78183,-31.0897,Q,Q
2023-03-15 12:51:34:333,0,-0.300212,-3.77772,-31.093,Q,Q
2023-03-15 12:51:34:344,0,-0.299449,-3.77369,-31.0938,Q,Q
2023-03-15 12:51:34:353,0,-0.300488,-3.77381,-31.0895,Q,Q
2023-03-15 12:51:34:364,0,-0.302553,-3.76798,-31.088,Q,Q
2023-03-15 12:51:34:374,0,-0.306682,-3.76861,-31.0882,Q,Q
2023-03-15 12:51:34:384,0,-0.309399,-3.76792,-31.0876,Q,Q
2023-03-15 12:51:34:394,0,-0.312751,-3.76645,-31.088,Q,Q
2023-03-15 12:51:34:404,0,-0.315148,-3.76515,-31.088,Q,Q
2023-03-15 12:51:34:413,0,-0.317443,-3.76716,-31.0844,Q,Q
2023-03-15 12:51:34:423,0,-0.322726,-3.76938,-31.0806,Q,Q
2023-03-15 12:51:34:434,0,-0.325548,-3.77069,-31.0781,Q,Q
2023-03-15 12:51:34:444,0,-0.326466,-3.77232,-31.0786,Q,Q
2023-03-15 12:51:34:454,0,-0.328999,-3.77732,-31.0746,Q,Q
2023-03-15 12:51:34:463,0,-0.330132,-3.77988,-31.0642,Q,Q
