Timestamp_cmd,imu_cmd,roll_delta,pitch_delta,yaw_delta
2023-03-11 22:44:54:934,0,-0.83201,-0.946078,-39.6103
2023-03-11 22:44:54:942,0,-0.840081,-0.966905,-39.5911
2023-03-11 22:44:54:952,0,-0.849093,-0.98347,-39.572
2023-03-11 22:44:54:962,0,-0.853705,-0.997382,-39.554
2023-03-11 22:44:54:973,0,-0.860856,-1.01059,-39.5365
2023-03-11 22:44:54:983,0,-0.868018,-1.02935,-39.5149
2023-03-11 22:44:54:993,0,-0.875818,-1.0462,-39.4956
2023-03-11 22:44:55:3,0,-0.880094,-1.06815,-39.4779
2023-03-11 22:44:55:13,0,-0.88257,-1.08929,-39.462
2023-03-11 22:44:55:22,0,-0.881437,-1.10816,-39.4494
2023-03-11 22:44:55:32,0,-0.876473,-1.12085,-39.4423
2023-03-11 22:44:55:43,0,-0.86976,-1.13625,-39.4306
2023-03-11 22:44:55:53,0,-0.859742,-1.14984,-39.4246
2023-03-11 22:44:55:62,0,-0.848405,-1.16134,-39.4184
2023-03-11 22:44:55:72,0,-0.830908,-1.17705,-39.4133
2023-03-11 22:44:55:83,0,-0.816045,-1.19418,-39.4097
2023-03-11 22:44:55:93,0,-0.804032,-1.21349,-39.4048
2023-03-11 22:44:55:102,0,-0.7929,-1.23693,-39.3938
2023-03-11 22:44:55:113,0,-0.785414,-1.25477,-39.3827
2023-03-11 22:44:55:123,0,-0.77618,-1.27235,-39.3745
2023-03-11 22:44:55:133,0,-0.764089,-1.28903,-39.3664
2023-03-11 22:44:55:143,0,-0.748106,-1.30389,-39.3625
2023-03-11 22:44:55:153,0,-0.733901,-1.31408,-39.3639
2023-03-11 22:44:55:163,0,-0.713722,-1.32547,-39.3631
2023-03-11 22:44:55:173,0,-0.692207,-1.34167,-39.3675
2023-03-11 22:44:55:183,0,-0.671142,-1.35602,-39.3757
2023-03-11 22:44:55:193,0,-0.654473,-1.37646,-39.3857
2023-03-11 22:44:55:203,0,-0.645073,-1.3997,-39.3962
2023-03-11 22:44:55:213,0,-0.64103,-1.42112,-39.4093
2023-03-11 22:44:55:223,0,-0.640044,-1.43964,-39.4258
2023-03-11 22:44:55:233,0,-0.641257,-1.44961,-39.4436
2023-03-11 22:44:55:243,0,-0.636936,-1.44995,-39.4667
2023-03-11 22:44:55:253,0,-0.621824,-1.44452,-39.4944
2023-03-11 22:44:55:263,0,-0.595774,-1.43766,-39.5278
2023-03-11 22:44:55:273,0,-0.559307,-1.42846,-39.5588
2023-03-11 22:44:55:282,0,-0.520478,-1.42077,-39.588
2023-03-11 22:44:55:292,0,-0.486447,-1.41589,-39.6206
2023-03-11 22:44:55:302,0,-0.455504,-1.41103,-39.6511
2023-03-11 22:44:55:312,0,-0.430518,-1.40878,-39.6725
2023-03-11 22:44:55:322,0,-0.405971,-1.41306,-39.6834
2023-03-11 22:44:55:332,0,-0.388435,-1.42277,-39.6857
2023-03-11 22:44:55:342,0,-0.368269,-1.42267,-39.6837
2023-03-11 22:44:55:352,0,-0.345682,-1.41362,-39.675
2023-03-11 22:44:55:362,0,-0.32204,-1.39869,-39.659
2023-03-11 22:44:55:372,0,-0.297272,-1.38221,-39.636
2023-03-11 22:44:55:383,0,-0.278446,-1.3595,-39.6027
2023-03-11 22:44:55:393,0,-0.27109,-1.33682,-39.5623
2023-03-11 22:44:55:403,0,-0.271256,-1.31713,-39.5256
2023-03-11 22:44:55:412,0,-0.269226,-1.29979,-39.4915
2023-03-11 22:44:55:423,0,-0.269962,-1.27964,-39.4654
2023-03-11 22:44:55:433,0,-0.265902,-1.25424,-39.4384
2023-03-11 22:44:55:443,0,-0.268641,-1.23379,-39.4072
2023-03-11 22:44:55:453,0,-0.284164,-1.22103,-39.3773
2023-03-11 22:44:55:463,0,-0.306037,-1.21081,-39.3445
2023-03-11 22:44:55:473,0,-0.330554,-1.20335,-39.3124
2023-03-11 22:44:55:483,0,-0.358736,-1.20176,-39.2792
2023-03-11 22:44:55:493,0,-0.387583,-1.20471,-39.2376
2023-03-11 22:44:55:503,0,-0.419438,-1.20834,-39.1965
2023-03-11 22:44:55:512,0,-0.453566,-1.20704,-39.155
2023-03-11 22:44:55:523,0,-0.490459,-1.20484,-39.1109
2023-03-11 22:44:55:533,0,-0.529333,-1.20186,-39.065
2023-03-11 22:44:55:543,0,-0.565221,-1.19545,-39.0154
2023-03-11 22:44:55:553,0,-0.60774,-1.19324,-38.9658
2023-03-11 22:44:55:563,0,-0.648407,-1.18857,-38.9175
2023-03-11 22:44:55:573,0,-0.680693,-1.18724,-38.8797
2023-03-11 22:44:55:583,0,-0.701457,-1.18273,-38.8532
2023-03-11 22:44:55:593,0,-0.711583,-1.17904,-38.8394
2023-03-11 22:44:55:603,0,-0.71678,-1.17028,-38.8387
2023-03-11 22:44:55:613,0,-0.715486,-1.15902,-38.85
2023-03-11 22:44:55:623,0,-0.713957,-1.14318,-38.8754
2023-03-11 22:44:55:633,0,-0.707364,-1.1299,-38.9134
2023-03-11 22:44:55:643,0,-0.702523,-1.11922,-38.9639
2023-03-11 22:44:55:652,0,-0.68916,-1.10448,-39.0253
2023-03-11 22:44:55:663,0,-0.667055,-1.09103,-39.0956
2023-03-11 22:44:55:673,0,-0.643077,-1.07622,-39.1704
2023-03-11 22:44:55:682,0,-0.617702,-1.05411,-39.2481
2023-03-11 22:44:55:692,0,-0.588343,-1.03211,-39.324
2023-03-11 22:44:55:703,0,-0.562781,-1.01281,-39.3927
2023-03-11 22:44:55:712,0,-0.534897,-0.994076,-39.45
2023-03-11 22:44:55:722,0,-0.505465,-0.978023,-39.4988
2023-03-11 22:44:55:732,0,-0.482577,-0.961399,-39.5334
2023-03-11 22:44:55:742,0,-0.457979,-0.940396,-39.559
2023-03-11 22:44:55:752,0,-0.439114,-0.9202,-39.5679
2023-03-11 22:44:55:762,0,-0.428292,-0.900597,-39.5649
2023-03-11 22:44:55:772,0,-0.424161,-0.88161,-39.5503
2023-03-11 22:44:55:782,0,-0.421811,-0.865031,-39.5321
2023-03-11 22:44:55:792,0,-0.421739,-0.854426,-39.5102
2023-03-11 22:44:55:802,0,-0.422865,-0.849034,-39.4878
2023-03-11 22:44:55:812,0,-0.423178,-0.847159,-39.4627
2023-03-11 22:44:55:822,0,-0.424473,-0.846247,-39.4412
2023-03-11 22:44:55:832,0,-0.425195,-0.848566,-39.4276
2023-03-11 22:44:55:842,0,-0.427577,-0.849279,-39.4115
2023-03-11 22:44:55:852,0,-0.431638,-0.852572,-39.4004
2023-03-11 22:44:55:862,0,-0.437296,-0.85763,-39.3884
2023-03-11 22:44:55:872,0,-0.445906,-0.860163,-39.3755
2023-03-11 22:44:55:882,0,-0.458861,-0.86212,-39.3616
2023-03-11 22:44:55:893,0,-0.47043,-0.864252,-39.3443
2023-03-11 22:44:55:902,0,-0.483279,-0.867889,-39.3258
2023-03-11 22:44:55:913,0,-0.493077,-0.865725,-39.3038
2023-03-11 22:44:55:922,0,-0.497943,-0.861334,-39.2827
2023-03-11 22:44:55:932,0,-0.497111,-0.85056,-39.2547
2023-03-11 22:44:55:942,0,-0.494065,-0.835366,-39.2257
2023-03-11 22:44:55:953,0,-0.490625,-0.81985,-39.1943
2023-03-11 22:44:55:962,0,-0.487169,-0.800474,-39.1603
2023-03-11 22:44:55:972,0,-0.486034,-0.780989,-39.127
2023-03-11 22:44:55:982,0,-0.484408,-0.761279,-39.0925
2023-03-11 22:44:55:992,0,-0.484668,-0.741175,-39.0624
2023-03-11 22:44:56:2,0,-0.48266,-0.719858,-39.0391
2023-03-11 22:44:56:12,0,-0.482215,-0.69664,-39.0192
2023-03-11 22:44:56:23,0,-0.479725,-0.675211,-39.0006
2023-03-11 22:44:56:32,0,-0.480291,-0.653651,-38.9842
2023-03-11 22:44:56:43,0,-0.479454,-0.631338,-38.9693
2023-03-11 22:44:56:53,0,-0.475827,-0.611959,-38.9607
2023-03-11 22:44:56:62,0,-0.471625,-0.593879,-38.9514
2023-03-11 22:44:56:72,0,-0.468429,-0.576888,-38.941
2023-03-11 22:44:56:82,0,-0.463686,-0.560987,-38.9286
2023-03-11 22:44:56:92,0,-0.458077,-0.545242,-38.9118
2023-03-11 22:44:56:102,0,-0.45686,-0.533232,-38.8863
2023-03-11 22:44:56:112,0,-0.460816,-0.524515,-38.8597
2023-03-11 22:44:56:122,0,-0.469683,-0.517161,-38.8285
2023-03-11 22:44:56:132,0,-0.484439,-0.508604,-38.7988
2023-03-11 22:44:56:143,0,-0.496516,-0.500826,-38.7729
2023-03-11 22:44:56:152,0,-0.510555,-0.494125,-38.7506
2023-03-11 22:44:56:163,0,-0.524896,-0.492794,-38.7313
2023-03-11 22:44:56:172,0,-0.537861,-0.493208,-38.7109
2023-03-11 22:44:56:183,0,-0.555858,-0.494643,-38.6899
2023-03-11 22:44:56:193,0,-0.576384,-0.503529,-38.6654
2023-03-11 22:44:56:203,0,-0.595886,-0.519828,-38.641
2023-03-11 22:44:56:213,0,-0.61774,-0.545214,-38.6171
2023-03-11 22:44:56:223,0,-0.644044,-0.575442,-38.5912
2023-03-11 22:44:56:233,0,-0.665508,-0.609885,-38.5666
2023-03-11 22:44:56:243,0,-0.679211,-0.647629,-38.5485
2023-03-11 22:44:56:253,0,-0.690479,-0.680602,-38.5346
2023-03-11 22:44:56:262,0,-0.693388,-0.702561,-38.5302
2023-03-11 22:44:56:272,0,-0.681204,-0.716396,-38.5281
2023-03-11 22:44:56:282,0,-0.66623,-0.727628,-38.5277
2023-03-11 22:44:56:292,0,-0.652855,-0.733492,-38.5314
2023-03-11 22:44:56:303,0,-0.647701,-0.7326,-38.5334
2023-03-11 22:44:56:312,0,-0.643686,-0.728377,-38.5371
2023-03-11 22:44:56:322,0,-0.649132,-0.72148,-38.5349
2023-03-11 22:44:56:332,0,-0.66307,-0.713514,-38.5301
2023-03-11 22:44:56:342,0,-0.679574,-0.703335,-38.5182
2023-03-11 22:44:56:352,0,-0.703861,-0.698853,-38.5031
2023-03-11 22:44:56:362,0,-0.73524,-0.697811,-38.4764
2023-03-11 22:44:56:372,0,-0.774807,-0.703341,-38.4469
2023-03-11 22:44:56:382,0,-0.818104,-0.712268,-38.4164
2023-03-11 22:44:56:392,0,-0.854494,-0.71438,-38.3818
2023-03-11 22:44:56:402,0,-0.887063,-0.718965,-38.3451
2023-03-11 22:44:56:412,0,-0.910131,-0.725576,-38.3041
2023-03-11 22:44:56:422,0,-0.929062,-0.729653,-38.262
2023-03-11 22:44:56:432,0,-0.948256,-0.731528,-38.2226
2023-03-11 22:44:56:442,0,-0.960606,-0.722534,-38.1787
2023-03-11 22:44:56:452,0,-0.969636,-0.713771,-38.1233
2023-03-11 22:44:56:462,0,-0.96988,-0.706743,-38.0665
2023-03-11 22:44:56:472,0,-0.96576,-0.693765,-38.0135
2023-03-11 22:44:56:482,0,-0.958276,-0.681772,-37.9595
2023-03-11 22:44:56:492,0,-0.959514,-0.667443,-37.9066
2023-03-11 22:44:56:502,0,-0.963473,-0.647989,-37.8553
2023-03-11 22:44:56:512,0,-0.967479,-0.626493,-37.8077
2023-03-11 22:44:56:522,0,-0.973436,-0.605508,-37.7684
2023-03-11 22:44:56:532,0,-0.979526,-0.57927,-37.7296
2023-03-11 22:44:56:542,0,-0.983015,-0.548775,-37.6954
2023-03-11 22:44:56:552,0,-0.978247,-0.516019,-37.6647
2023-03-11 22:44:56:562,0,-0.972308,-0.482489,-37.635
2023-03-11 22:44:56:572,0,-0.96638,-0.450133,-37.6031
2023-03-11 22:44:56:582,0,-0.962854,-0.420457,-37.5678
2023-03-11 22:44:56:592,0,-0.960539,-0.390401,-37.5284
2023-03-11 22:44:56:602,0,-0.968221,-0.362519,-37.4817
2023-03-11 22:44:56:612,0,-0.980592,-0.339217,-37.4286
2023-03-11 22:44:56:622,0,-1.00114,-0.317852,-37.3716
2023-03-11 22:44:56:632,0,-1.03276,-0.294873,-37.3083
2023-03-11 22:44:56:642,0,-1.06957,-0.27466,-37.2434
2023-03-11 22:44:56:652,0,-1.10327,-0.25812,-37.1765
2023-03-11 22:44:56:662,0,-1.13206,-0.240968,-37.1077
2023-03-11 22:44:56:672,0,-1.1487,-0.226219,-37.0372
2023-03-11 22:44:56:682,0,-1.15821,-0.214254,-36.9646
2023-03-11 22:44:56:692,0,-1.16738,-0.202897,-36.8905
2023-03-11 22:44:56:702,0,-1.18085,-0.194477,-36.8164
2023-03-11 22:44:56:712,0,-1.20151,-0.19204,-36.748
2023-03-11 22:44:56:722,0,-1.2246,-0.193708,-36.6828
2023-03-11 22:44:56:732,0,-1.25168,-0.195745,-36.6206
2023-03-11 22:44:56:742,0,-1.275,-0.201322,-36.5678
2023-03-11 22:44:56:752,0,-1.29751,-0.210628,-36.5205
2023-03-11 22:44:56:762,0,-1.31438,-0.218475,-36.4819
2023-03-11 22:44:56:772,0,-1.32562,-0.223666,-36.4552
2023-03-11 22:44:56:782,0,-1.3367,-0.232521,-36.4344
2023-03-11 22:44:56:792,0,-1.34889,-0.238527,-36.4168
2023-03-11 22:44:56:803,0,-1.36273,-0.248256,-36.4073
2023-03-11 22:44:56:813,0,-1.37925,-0.259159,-36.3994
2023-03-11 22:44:56:823,0,-1.40053,-0.270424,-36.3954
2023-03-11 22:44:56:833,0,-1.42034,-0.283861,-36.3937
2023-03-11 22:44:56:843,0,-1.4397,-0.294932,-36.3942
2023-03-11 22:44:56:853,0,-1.4556,-0.305957,-36.3961
2023-03-11 22:44:56:863,0,-1.4713,-0.31572,-36.4008
2023-03-11 22:44:56:873,0,-1.48543,-0.321481,-36.4014
2023-03-11 22:44:56:882,0,-1.50356,-0.327704,-36.4021
2023-03-11 22:44:56:893,0,-1.5255,-0.336939,-36.4025
2023-03-11 22:44:56:903,0,-1.5465,-0.347425,-36.4042
2023-03-11 22:44:56:913,0,-1.56403,-0.351702,-36.4046
2023-03-11 22:44:56:923,0,-1.58339,-0.357779,-36.4103
2023-03-11 22:44:56:933,0,-1.60037,-0.360852,-36.4163
2023-03-11 22:44:56:943,0,-1.61795,-0.36349,-36.4196
2023-03-11 22:44:56:953,0,-1.63339,-0.371885,-36.4221
2023-03-11 22:44:56:963,0,-1.64814,-0.381128,-36.4183
2023-03-11 22:44:56:973,0,-1.67227,-0.389909,-36.4146
2023-03-11 22:44:56:983,0,-1.69739,-0.398066,-36.4107
2023-03-11 22:44:56:993,0,-1.72327,-0.404407,-36.4072
2023-03-11 22:44:57:3,0,-1.74769,-0.404562,-36.4059
2023-03-11 22:44:57:13,0,-1.76457,-0.396132,-36.412
2023-03-11 22:44:57:23,0,-1.7693,-0.380408,-36.4278
2023-03-11 22:44:57:33,0,-1.76704,-0.353779,-36.4442
2023-03-11 22:44:57:43,0,-1.75639,-0.327638,-36.4559
2023-03-11 22:44:57:53,0,-1.74401,-0.301885,-36.4588
2023-03-11 22:44:57:63,0,-1.74037,-0.281643,-36.4527
2023-03-11 22:44:57:72,0,-1.74873,-0.265623,-36.4364
2023-03-11 22:44:57:82,0,-1.77429,-0.259448,-36.4045
2023-03-11 22:44:57:92,0,-1.80913,-0.263903,-36.3648
2023-03-11 22:44:57:102,0,-1.84931,-0.271523,-36.3166
2023-03-11 22:44:57:112,0,-1.88317,-0.283537,-36.2729
2023-03-11 22:44:57:122,0,-1.89643,-0.289894,-36.2421
2023-03-11 22:44:57:132,0,-1.88877,-0.294451,-36.2327
2023-03-11 22:44:57:142,0,-1.8559,-0.287744,-36.2355
2023-03-11 22:44:57:152,0,-1.81169,-0.27178,-36.2469
2023-03-11 22:44:57:162,0,-1.75841,-0.250416,-36.2632
2023-03-11 22:44:57:172,0,-1.71704,-0.231224,-36.2738
2023-03-11 22:44:57:183,0,-1.69242,-0.22087,-36.2804
2023-03-11 22:44:57:193,0,-1.68633,-0.206827,-36.2874
2023-03-11 22:44:57:203,0,-1.68366,-0.197509,-36.3046
2023-03-11 22:44:57:213,0,-1.67981,-0.174417,-36.328
2023-03-11 22:44:57:223,0,-1.6703,-0.144773,-36.3511
2023-03-11 22:44:57:233,0,-1.65668,-0.113357,-36.3736
2023-03-11 22:44:57:243,0,-1.64345,-0.0819599,-36.3871
2023-03-11 22:44:57:253,0,-1.63457,-0.057733,-36.3926
2023-03-11 22:44:57:263,0,-1.63329,-0.0457309,-36.3897
2023-03-11 22:44:57:273,0,-1.64064,-0.0423783,-36.3791
2023-03-11 22:44:57:283,0,-1.64666,-0.0516615,-36.3587
2023-03-11 22:44:57:293,0,-1.65842,-0.0725384,-36.333
2023-03-11 22:44:57:303,0,-1.66953,-0.106476,-36.3017
2023-03-11 22:44:57:313,0,-1.67558,-0.146903,-36.264
2023-03-11 22:44:57:323,0,-1.67684,-0.195918,-36.226
2023-03-11 22:44:57:333,0,-1.66709,-0.239672,-36.1931
2023-03-11 22:44:57:343,0,-1.64476,-0.279933,-36.1631
2023-03-11 22:44:57:353,0,-1.60797,-0.310263,-36.1437
2023-03-11 22:44:57:363,0,-1.5642,-0.338435,-36.1289
2023-03-11 22:44:57:373,0,-1.51598,-0.360003,-36.1143
2023-03-11 22:44:57:382,0,-1.47375,-0.382221,-36.1011
2023-03-11 22:44:57:392,0,-1.45183,-0.402897,-36.0886
2023-03-11 22:44:57:402,0,-1.44281,-0.421635,-36.0873
2023-03-11 22:44:57:413,0,-1.43421,-0.43033,-36.0949
2023-03-11 22:44:57:422,0,-1.42381,-0.425918,-36.1146
2023-03-11 22:44:57:433,0,-1.40574,-0.402045,-36.1519
2023-03-11 22:44:57:443,0,-1.38496,-0.372418,-36.1934
2023-03-11 22:44:57:453,0,-1.36695,-0.342146,-36.2374
2023-03-11 22:44:57:463,0,-1.3568,-0.322936,-36.2782
2023-03-11 22:44:57:473,0,-1.35858,-0.317363,-36.3165
2023-03-11 22:44:57:483,0,-1.37809,-0.313203,-36.3596
2023-03-11 22:44:57:493,0,-1.41175,-0.306157,-36.4089
2023-03-11 22:44:57:503,0,-1.45317,-0.301685,-36.4613
2023-03-11 22:44:57:513,0,-1.50204,-0.296087,-36.5074
2023-03-11 22:44:57:523,0,-1.55924,-0.286309,-36.559
2023-03-11 22:44:57:533,0,-1.60544,-0.273346,-36.6195
2023-03-11 22:44:57:542,0,-1.63343,-0.24989,-36.6858
2023-03-11 22:44:57:553,0,-1.63705,-0.220251,-36.7554
2023-03-11 22:44:57:563,0,-1.62223,-0.191822,-36.8277
2023-03-11 22:44:57:573,0,-1.60598,-0.16508,-36.8939
2023-03-11 22:44:57:583,0,-1.60223,-0.149359,-36.9562
2023-03-11 22:44:57:593,0,-1.61975,-0.139541,-37.0188
2023-03-11 22:44:57:603,0,-1.64421,-0.137755,-37.0864
2023-03-11 22:44:57:613,0,-1.67167,-0.148455,-37.1551
2023-03-11 22:44:57:623,0,-1.69023,-0.162856,-37.2355
2023-03-11 22:44:57:633,0,-1.69443,-0.178866,-37.3143
2023-03-11 22:44:57:643,0,-1.69485,-0.20061,-37.3924
2023-03-11 22:44:57:653,0,-1.69412,-0.225569,-37.4728
2023-03-11 22:44:57:662,0,-1.69357,-0.256954,-37.5525
2023-03-11 22:44:57:673,0,-1.69301,-0.294219,-37.6244
2023-03-11 22:44:57:683,0,-1.70483,-0.344234,-37.6857
2023-03-11 22:44:57:692,0,-1.73456,-0.405359,-37.7424
2023-03-11 22:44:57:703,0,-1.78355,-0.480176,-37.7957
2023-03-11 22:44:57:713,0,-1.83946,-0.556515,-37.8447
2023-03-11 22:44:57:723,0,-1.90415,-0.629572,-37.8898
2023-03-11 22:44:57:733,0,-1.96788,-0.690465,-37.9399
2023-03-11 22:44:57:743,0,-2.02749,-0.743519,-37.9901
2023-03-11 22:44:57:753,0,-2.07875,-0.783564,-38.0395
2023-03-11 22:44:57:763,0,-2.11909,-0.817496,-38.09
2023-03-11 22:44:57:773,0,-2.1429,-0.847184,-38.1428
2023-03-11 22:44:57:783,0,-2.14605,-0.863997,-38.201
2023-03-11 22:44:57:793,0,-2.14007,-0.869745,-38.2573
2023-03-11 22:44:57:803,0,-2.13185,-0.867538,-38.3156
2023-03-11 22:44:57:813,0,-2.12587,-0.850781,-38.374
2023-03-11 22:44:57:823,0,-2.12892,-0.818993,-38.4327
2023-03-11 22:44:57:833,0,-2.1387,-0.778474,-38.5006
2023-03-11 22:44:57:843,0,-2.14563,-0.726462,-38.5753
2023-03-11 22:44:57:853,0,-2.15231,-0.671594,-38.6605
2023-03-11 22:44:57:863,0,-2.15268,-0.608821,-38.7549
2023-03-11 22:44:57:873,0,-2.14972,-0.552312,-38.8543
2023-03-11 22:44:57:883,0,-2.14999,-0.496207,-38.9622
2023-03-11 22:44:57:893,0,-2.15361,-0.448756,-39.0714
2023-03-11 22:44:57:903,0,-2.16267,-0.407829,-39.178
2023-03-11 22:44:57:912,0,-2.17411,-0.370141,-39.2814
2023-03-11 22:44:57:923,0,-2.18896,-0.344808,-39.3779
2023-03-11 22:44:57:933,0,-2.20484,-0.328875,-39.4707
2023-03-11 22:44:57:943,0,-2.22244,-0.324262,-39.5565
2023-03-11 22:44:57:953,0,-2.24424,-0.320699,-39.6408
2023-03-11 22:44:57:963,0,-2.26336,-0.326864,-39.7107
2023-03-11 22:44:57:972,0,-2.28187,-0.342803,-39.7678
2023-03-11 22:44:57:983,0,-2.29983,-0.3753,-39.7983
2023-03-11 22:44:57:993,0,-2.3212,-0.426968,-39.8122
2023-03-11 22:44:58:2,0,-2.34108,-0.488006,-39.8188
2023-03-11 22:44:58:12,0,-2.35523,-0.550276,-39.818
2023-03-11 22:44:58:23,0,-2.35773,-0.60716,-39.8155
2023-03-11 22:44:58:33,0,-2.35825,-0.65181,-39.8031
2023-03-11 22:44:58:43,0,-2.34951,-0.693725,-39.7821
2023-03-11 22:44:58:53,0,-2.32996,-0.733809,-39.7536
2023-03-11 22:44:58:63,0,-2.30794,-0.774711,-39.7141
2023-03-11 22:44:58:73,0,-2.28859,-0.817164,-39.6677
2023-03-11 22:44:58:83,0,-2.27586,-0.852222,-39.6199
2023-03-11 22:44:58:93,0,-2.26741,-0.879699,-39.5731
2023-03-11 22:44:58:103,0,-2.26053,-0.906047,-39.5373
2023-03-11 22:44:58:113,0,-2.25424,-0.916272,-39.5106
2023-03-11 22:44:58:123,0,-2.24457,-0.920471,-39.4901
2023-03-11 22:44:58:133,0,-2.23366,-0.912251,-39.4693
2023-03-11 22:44:58:143,0,-2.22431,-0.901213,-39.4543
2023-03-11 22:44:58:153,0,-2.22371,-0.884585,-39.4374
2023-03-11 22:44:58:163,0,-2.22965,-0.88377,-39.4253
2023-03-11 22:44:58:173,0,-2.25073,-0.886347,-39.405
2023-03-11 22:44:58:183,0,-2.28424,-0.892634,-39.3879
2023-03-11 22:44:58:193,0,-2.32151,-0.892513,-39.3776
2023-03-11 22:44:58:202,0,-2.36081,-0.884787,-39.3765
2023-03-11 22:44:58:213,0,-2.40207,-0.874451,-39.3809
2023-03-11 22:44:58:223,0,-2.44888,-0.86798,-39.3825
2023-03-11 22:44:58:233,0,-2.49692,-0.861223,-39.383
2023-03-11 22:44:58:243,0,-2.53455,-0.853218,-39.3809
2023-03-11 22:44:58:253,0,-2.56222,-0.853762,-39.3693
2023-03-11 22:44:58:263,0,-2.57836,-0.852578,-39.35
2023-03-11 22:44:58:273,0,-2.5867,-0.849086,-39.3391
2023-03-11 22:44:58:282,0,-2.58977,-0.85081,-39.3284
2023-03-11 22:44:58:293,0,-2.60375,-0.857833,-39.3257
2023-03-11 22:44:58:303,0,-2.62103,-0.869626,-39.3284
2023-03-11 22:44:58:312,0,-2.63254,-0.872422,-39.3457
2023-03-11 22:44:58:322,0,-2.61602,-0.874395,-39.3789
2023-03-11 22:44:58:332,0,-2.58036,-0.871156,-39.4089
2023-03-11 22:44:58:342,0,-2.53707,-0.879099,-39.432
2023-03-11 22:44:58:352,0,-2.49717,-0.90392,-39.4557
2023-03-11 22:44:58:363,0,-2.47023,-0.921576,-39.4691
2023-03-11 22:44:58:372,0,-2.44291,-0.918177,-39.4813
2023-03-11 22:44:58:382,0,-2.41285,-0.907488,-39.4981
2023-03-11 22:44:58:392,0,-2.38,-0.886299,-39.508
2023-03-11 22:44:58:403,0,-2.34766,-0.870869,-39.5052
2023-03-11 22:44:58:413,0,-2.3206,-0.866559,-39.498
2023-03-11 22:44:58:422,0,-2.29581,-0.877378,-39.4879
2023-03-11 22:44:58:433,0,-2.27218,-0.897296,-39.4804
2023-03-11 22:44:58:443,0,-2.24161,-0.920022,-39.4791
2023-03-11 22:44:58:452,0,-2.21034,-0.941413,-39.4856
2023-03-11 22:44:58:462,0,-2.18359,-0.966538,-39.4998
2023-03-11 22:44:58:473,0,-2.16266,-0.987491,-39.5215
2023-03-11 22:44:58:483,0,-2.14989,-1.0018,-39.5503
2023-03-11 22:44:58:493,0,-2.13302,-1.00378,-39.5847
2023-03-11 22:44:58:503,0,-2.10939,-0.993049,-39.6213
2023-03-11 22:44:58:513,0,-2.08331,-0.973505,-39.6556
2023-03-11 22:44:58:523,0,-2.05517,-0.939001,-39.685
2023-03-11 22:44:58:533,0,-2.03092,-0.899908,-39.7085
2023-03-11 22:44:58:543,0,-2.00291,-0.861014,-39.7246
2023-03-11 22:44:58:553,0,-1.9731,-0.827777,-39.7308
2023-03-11 22:44:58:563,0,-1.93909,-0.788733,-39.736
2023-03-11 22:44:58:573,0,-1.906,-0.748523,-39.7475
2023-03-11 22:44:58:583,0,-1.86976,-0.69824,-39.7664
2023-03-11 22:44:58:593,0,-1.839,-0.649072,-39.7856
2023-03-11 22:44:58:603,0,-1.81083,-0.591924,-39.8089
2023-03-11 22:44:58:613,0,-1.78978,-0.537727,-39.8392
2023-03-11 22:44:58:623,0,-1.77375,-0.483409,-39.8739
2023-03-11 22:44:58:633,0,-1.76352,-0.430893,-39.9057
2023-03-11 22:44:58:643,0,-1.76205,-0.393072,-39.9311
2023-03-11 22:44:58:653,0,-1.76204,-0.370459,-39.9542
2023-03-11 22:44:58:663,0,-1.75974,-0.358608,-39.9774
2023-03-11 22:44:58:673,0,-1.75972,-0.353719,-39.9963
2023-03-11 22:44:58:683,0,-1.76291,-0.354513,-40.0184
2023-03-11 22:44:58:693,0,-1.76664,-0.358542,-40.0357
2023-03-11 22:44:58:703,0,-1.76917,-0.353863,-40.0535
2023-03-11 22:44:58:713,0,-1.77017,-0.353689,-40.0746
2023-03-11 22:44:58:723,0,-1.76729,-0.358165,-40.0876
2023-03-11 22:44:58:733,0,-1.76311,-0.369218,-40.0947
2023-03-11 22:44:58:743,0,-1.76146,-0.382915,-40.1039
2023-03-11 22:44:58:753,0,-1.76126,-0.394374,-40.1128
2023-03-11 22:44:58:763,0,-1.75985,-0.405446,-40.1243
2023-03-11 22:44:58:773,0,-1.7585,-0.416772,-40.1349
2023-03-11 22:44:58:783,0,-1.75889,-0.429032,-40.1409
2023-03-11 22:44:58:793,0,-1.7585,-0.43976,-40.1403
2023-03-11 22:44:58:803,0,-1.75486,-0.453812,-40.1402
2023-03-11 22:44:58:813,0,-1.74921,-0.467245,-40.14
2023-03-11 22:44:58:823,0,-1.73918,-0.477491,-40.1397
2023-03-11 22:44:58:832,0,-1.72675,-0.48558,-40.1386
2023-03-11 22:44:58:843,0,-1.71588,-0.491168,-40.1374
2023-03-11 22:44:58:853,0,-1.71293,-0.497892,-40.1328
2023-03-11 22:44:58:863,0,-1.72116,-0.505724,-40.1311
2023-03-11 22:44:58:873,0,-1.74013,-0.504994,-40.1284
2023-03-11 22:44:58:882,0,-1.76838,-0.503555,-40.1304
2023-03-11 22:44:58:892,0,-1.80238,-0.494719,-40.1377
2023-03-11 22:44:58:903,0,-1.84238,-0.483692,-40.1433
2023-03-11 22:44:58:913,0,-1.88211,-0.463742,-40.1454
2023-03-11 22:44:58:923,0,-1.92062,-0.446688,-40.1496
2023-03-11 22:44:58:933,0,-1.96112,-0.425858,-40.1502
2023-03-11 22:44:58:942,0,-2.00576,-0.398497,-40.141
2023-03-11 22:44:58:953,0,-2.04946,-0.374652,-40.1227
2023-03-11 22:44:58:962,0,-2.09675,-0.353469,-40.0937
2023-03-11 22:44:58:973,0,-2.1491,-0.329186,-40.059
2023-03-11 22:44:58:983,0,-2.19882,-0.305148,-40.0218
2023-03-11 22:44:58:993,0,-2.24227,-0.265645,-39.9784
2023-03-11 22:44:59:3,0,-2.28415,-0.245875,-39.9381
2023-03-11 22:44:59:13,0,-2.33121,-0.22602,-39.895
2023-03-11 22:44:59:23,0,-2.38512,-0.208865,-39.8615
2023-03-11 22:44:59:33,0,-2.42534,-0.182965,-39.8374
2023-03-11 22:44:59:43,0,-2.45058,-0.16204,-39.8308
2023-03-11 22:44:59:53,0,-2.46236,-0.139563,-39.8257
2023-03-11 22:44:59:63,0,-2.46381,-0.111236,-39.8216
2023-03-11 22:44:59:73,0,-2.45339,-0.0877332,-39.8135
2023-03-11 22:44:59:83,0,-2.44042,-0.0696549,-39.7971
2023-03-11 22:44:59:93,0,-2.43137,-0.0531508,-39.7773
2023-03-11 22:44:59:103,0,-2.43119,-0.0365327,-39.7534
2023-03-11 22:44:59:113,0,-2.44919,-0.0176483,-39.7311
2023-03-11 22:44:59:123,0,-2.47991,0.00327267,-39.7132
2023-03-11 22:44:59:133,0,-2.51399,0.0253319,-39.6966
2023-03-11 22:44:59:143,0,-2.54926,0.0411653,-39.6874
2023-03-11 22:44:59:153,0,-2.57969,0.0526001,-39.6866
2023-03-11 22:44:59:163,0,-2.59834,0.0695948,-39.6904
2023-03-11 22:44:59:173,0,-2.59848,0.0836097,-39.6986
2023-03-11 22:44:59:183,0,-2.58714,0.095128,-39.7158
2023-03-11 22:44:59:193,0,-2.56573,0.10354,-39.7378
2023-03-11 22:44:59:203,0,-2.53159,0.10998,-39.7575
2023-03-11 22:44:59:213,0,-2.49601,0.103178,-39.7742
2023-03-11 22:44:59:223,0,-2.46334,0.100092,-39.7957
2023-03-11 22:44:59:233,0,-2.43337,0.0899848,-39.8174
2023-03-11 22:44:59:243,0,-2.41212,0.0853439,-39.8348
2023-03-11 22:44:59:253,0,-2.39078,0.0802745,-39.8517
2023-03-11 22:44:59:263,0,-2.38048,0.077783,-39.8649
2023-03-11 22:44:59:273,0,-2.37542,0.0692317,-39.8765
2023-03-11 22:44:59:283,0,-2.37695,0.0558865,-39.878
2023-03-11 22:44:59:293,0,-2.38008,0.0418444,-39.8688
2023-03-11 22:44:59:303,0,-2.38357,0.0259087,-39.853
2023-03-11 22:44:59:313,0,-2.38528,0.00669788,-39.8233
2023-03-11 22:44:59:323,0,-2.38389,-0.0140047,-39.7869
2023-03-11 22:44:59:333,0,-2.37279,-0.0371535,-39.7421
2023-03-11 22:44:59:343,0,-2.36168,-0.0696321,-39.6882
2023-03-11 22:44:59:353,0,-2.34636,-0.101095,-39.6301
2023-03-11 22:44:59:363,0,-2.33432,-0.140025,-39.5721
2023-03-11 22:44:59:373,0,-2.31793,-0.176071,-39.5248
2023-03-11 22:44:59:383,0,-2.30441,-0.212841,-39.4806
2023-03-11 22:44:59:393,0,-2.29489,-0.249636,-39.4424
2023-03-11 22:44:59:403,0,-2.29049,-0.2895,-39.4104
2023-03-11 22:44:59:413,0,-2.29016,-0.327276,-39.3867
2023-03-11 22:44:59:423,0,-2.29928,-0.369274,-39.3702
2023-03-11 22:44:59:433,0,-2.304,-0.40639,-39.3604
2023-03-11 22:44:59:443,0,-2.31231,-0.440292,-39.3569
2023-03-11 22:44:59:453,0,-2.32003,-0.474391,-39.3603
2023-03-11 22:44:59:463,0,-2.33206,-0.508366,-39.3654
2023-03-11 22:44:59:473,0,-2.34009,-0.539341,-39.374
2023-03-11 22:44:59:482,0,-2.34462,-0.571584,-39.3824
2023-03-11 22:44:59:493,0,-2.34508,-0.596472,-39.395
2023-03-11 22:44:59:503,0,-2.34608,-0.621994,-39.4059
2023-03-11 22:44:59:513,0,-2.33911,-0.642498,-39.4154
2023-03-11 22:44:59:523,0,-2.33402,-0.665852,-39.4218
2023-03-11 22:44:59:533,0,-2.32773,-0.688869,-39.4264
2023-03-11 22:44:59:543,0,-2.3209,-0.714488,-39.4277
2023-03-11 22:44:59:553,0,-2.30984,-0.735696,-39.4287
2023-03-11 22:44:59:563,0,-2.30098,-0.75345,-39.4278
2023-03-11 22:44:59:573,0,-2.28705,-0.773789,-39.4247
2023-03-11 22:44:59:583,0,-2.27217,-0.79905,-39.4207
2023-03-11 22:44:59:593,0,-2.25438,-0.824186,-39.418
2023-03-11 22:44:59:603,0,-2.23866,-0.850099,-39.417
2023-03-11 22:44:59:613,0,-2.22764,-0.87702,-39.4139
2023-03-11 22:44:59:623,0,-2.22047,-0.906976,-39.4158
2023-03-11 22:44:59:633,0,-2.21184,-0.935982,-39.4165
2023-03-11 22:44:59:643,0,-2.20639,-0.962852,-39.413
2023-03-11 22:44:59:653,0,-2.20096,-0.988044,-39.4085
2023-03-11 22:44:59:663,0,-2.198,-1.01019,-39.4028
2023-03-11 22:44:59:673,0,-2.19264,-1.03201,-39.3976
2023-03-11 22:44:59:683,0,-2.188,-1.04664,-39.3912
2023-03-11 22:44:59:693,0,-2.18523,-1.05813,-39.3807
2023-03-11 22:44:59:703,0,-2.17677,-1.06845,-39.364
2023-03-11 22:44:59:713,0,-2.17018,-1.07436,-39.3475
2023-03-11 22:44:59:723,0,-2.16519,-1.08066,-39.3275
2023-03-11 22:44:59:733,0,-2.15715,-1.0858,-39.3129
2023-03-11 22:44:59:743,0,-2.14771,-1.08942,-39.2999
2023-03-11 22:44:59:753,0,-2.1388,-1.08985,-39.2931
2023-03-11 22:44:59:763,0,-2.12942,-1.09006,-39.2886
2023-03-11 22:44:59:773,0,-2.12404,-1.08564,-39.2826
2023-03-11 22:44:59:783,0,-2.11954,-1.08279,-39.2835
2023-03-11 22:44:59:793,0,-2.11713,-1.07721,-39.2879
2023-03-11 22:44:59:803,0,-2.11464,-1.07133,-39.3019
2023-03-11 22:44:59:813,0,-2.10606,-1.07032,-39.3136
2023-03-11 22:44:59:823,0,-2.09674,-1.07368,-39.3238
2023-03-11 22:44:59:833,0,-2.0892,-1.07443,-39.3379
2023-03-11 22:44:59:843,0,-2.08118,-1.08018,-39.3493
2023-03-11 22:44:59:853,0,-2.07547,-1.08507,-39.3637
2023-03-11 22:44:59:863,0,-2.07374,-1.08175,-39.3704
2023-03-11 22:44:59:873,0,-2.07493,-1.07931,-39.3735
2023-03-11 22:44:59:883,0,-2.07376,-1.07817,-39.3747
2023-03-11 22:44:59:893,0,-2.07569,-1.07448,-39.3744
2023-03-11 22:44:59:903,0,-2.07822,-1.07566,-39.3688
2023-03-11 22:44:59:913,0,-2.08077,-1.07195,-39.3616
2023-03-11 22:44:59:923,0,-2.08088,-1.06905,-39.3537
2023-03-11 22:44:59:933,0,-2.0821,-1.06165,-39.3458
2023-03-11 22:44:59:943,0,-2.0842,-1.05984,-39.336
2023-03-11 22:44:59:953,0,-2.0922,-1.05791,-39.3228
2023-03-11 22:44:59:963,0,-2.10438,-1.05601,-39.3171
2023-03-11 22:44:59:972,0,-2.11544,-1.05603,-39.3044
2023-03-11 22:44:59:983,0,-2.12618,-1.05427,-39.2951
2023-03-11 22:44:59:993,0,-2.14174,-1.05304,-39.2833
2023-03-11 22:45:00:3,0,-2.16029,-1.04783,-39.2719
2023-03-11 22:45:00:13,0,-2.1815,-1.04641,-39.2592
2023-03-11 22:45:00:23,0,-2.20208,-1.0407,-39.2477
2023-03-11 22:45:00:33,0,-2.21991,-1.03561,-39.2422
2023-03-11 22:45:00:43,0,-2.23202,-1.0313,-39.2334
2023-03-11 22:45:00:53,0,-2.24088,-1.02897,-39.224
2023-03-11 22:45:00:63,0,-2.24851,-1.0282,-39.2147
2023-03-11 22:45:00:73,0,-2.25495,-1.02596,-39.2081
2023-03-11 22:45:00:83,0,-2.2609,-1.02534,-39.2069
2023-03-11 22:45:00:93,0,-2.26899,-1.02339,-39.206
2023-03-11 22:45:00:103,0,-2.27708,-1.02351,-39.2109
2023-03-11 22:45:00:113,0,-2.28733,-1.02476,-39.2214
2023-03-11 22:45:00:123,0,-2.29387,-1.02598,-39.2327
2023-03-11 22:45:00:133,0,-2.30224,-1.02581,-39.2466
2023-03-11 22:45:00:143,0,-2.31065,-1.0278,-39.2686
2023-03-11 22:45:00:153,0,-2.31656,-1.02517,-39.2931
2023-03-11 22:45:00:163,0,-2.31852,-1.02296,-39.3125
2023-03-11 22:45:00:173,0,-2.32494,-1.02248,-39.3328
2023-03-11 22:45:00:183,0,-2.3393,-1.02011,-39.3515
2023-03-11 22:45:00:193,0,-2.35749,-1.01757,-39.3696
2023-03-11 22:45:00:203,0,-2.37589,-1.01712,-39.3824
2023-03-11 22:45:00:213,0,-2.39959,-1.01371,-39.3962
2023-03-11 22:45:00:223,0,-2.42136,-1.01278,-39.405
2023-03-11 22:45:00:233,0,-2.44511,-1.00812,-39.4107
2023-03-11 22:45:00:243,0,-2.46595,-1.00849,-39.413
2023-03-11 22:45:00:253,0,-2.48901,-1.00755,-39.4162
2023-03-11 22:45:00:263,0,-2.50789,-1.00723,-39.4236
2023-03-11 22:45:00:273,0,-2.5244,-1.00744,-39.4321
2023-03-11 22:45:00:283,0,-2.54291,-1.00715,-39.443
2023-03-11 22:45:00:293,0,-2.56174,-1.00813,-39.4579
2023-03-11 22:45:00:303,0,-2.58234,-1.00602,-39.4773
2023-03-11 22:45:00:313,0,-2.59554,-1.00532,-39.4992
2023-03-11 22:45:00:323,0,-2.61196,-1.00248,-39.5279
2023-03-11 22:45:00:333,0,-2.6222,-0.99575,-39.5607
2023-03-11 22:45:00:343,0,-2.62958,-0.993472,-39.5992
2023-03-11 22:45:00:353,0,-2.63448,-0.991501,-39.6358
2023-03-11 22:45:00:363,0,-2.64064,-0.988684,-39.6755
2023-03-11 22:45:00:373,0,-2.64709,-0.990295,-39.7145
2023-03-11 22:45:00:383,0,-2.65125,-0.987477,-39.7491
2023-03-11 22:45:00:393,0,-2.65901,-0.989242,-39.7819
2023-03-11 22:45:00:403,0,-2.66149,-0.995189,-39.813
2023-03-11 22:45:00:413,0,-2.66567,-1.00138,-39.8398
2023-03-11 22:45:00:423,0,-2.66721,-1.00433,-39.8601
2023-03-11 22:45:00:433,0,-2.66186,-1.00745,-39.8824
2023-03-11 22:45:00:443,0,-2.65764,-1.01049,-39.9002
2023-03-11 22:45:00:453,0,-2.6528,-1.01342,-39.9152
2023-03-11 22:45:00:463,0,-2.64203,-1.01559,-39.9244
2023-03-11 22:45:00:473,0,-2.63123,-1.02002,-39.9312
2023-03-11 22:45:00:483,0,-2.62614,-1.0282,-39.9312
2023-03-11 22:45:00:492,0,-2.62035,-1.03179,-39.9319
2023-03-11 22:45:00:503,0,-2.62489,-1.03476,-39.9345
2023-03-11 22:45:00:513,0,-2.6281,-1.04086,-39.9362
2023-03-11 22:45:00:523,0,-2.63275,-1.04926,-39.937
2023-03-11 22:45:00:533,0,-2.63781,-1.05749,-39.9362
2023-03-11 22:45:00:543,0,-2.64553,-1.07054,-39.9319
2023-03-11 22:45:00:553,0,-2.66654,-1.08199,-39.9254
2023-03-11 22:45:00:563,0,-2.69645,-1.09295,-39.9204
2023-03-11 22:45:00:573,0,-2.72987,-1.10486,-39.9155
2023-03-11 22:45:00:583,0,-2.76221,-1.11708,-39.9095
2023-03-11 22:45:00:593,0,-2.79024,-1.12183,-39.9048
2023-03-11 22:45:00:602,0,-2.81681,-1.1268,-39.9032
2023-03-11 22:45:00:612,0,-2.84182,-1.13168,-39.903
2023-03-11 22:45:00:623,0,-2.86158,-1.1329,-39.909
2023-03-11 22:45:00:633,0,-2.87842,-1.13325,-39.9132
2023-03-11 22:45:00:643,0,-2.89413,-1.13168,-39.92
2023-03-11 22:45:00:653,0,-2.91025,-1.12892,-39.9274
2023-03-11 22:45:00:663,0,-2.92474,-1.12621,-39.9356
2023-03-11 22:45:00:673,0,-2.93445,-1.12527,-39.9474
2023-03-11 22:45:00:683,0,-2.94559,-1.12248,-39.9614
2023-03-11 22:45:00:693,0,-2.95994,-1.11913,-39.9764
2023-03-11 22:45:00:703,0,-2.97244,-1.11519,-39.9917
2023-03-11 22:45:00:713,0,-2.9855,-1.11397,-40.0028
2023-03-11 22:45:00:723,0,-2.99521,-1.10795,-40.0163
2023-03-11 22:45:00:733,0,-3.00657,-1.09689,-40.0329
2023-03-11 22:45:00:743,0,-3.00977,-1.08259,-40.0502
2023-03-11 22:45:00:753,0,-3.01038,-1.07062,-40.0629
2023-03-11 22:45:00:763,0,-3.00861,-1.05992,-40.0727
2023-03-11 22:45:00:773,0,-3.00689,-1.05107,-40.0826
2023-03-11 22:45:00:783,0,-3.01006,-1.04485,-40.0933
2023-03-11 22:45:00:793,0,-3.01246,-1.04051,-40.1064
2023-03-11 22:45:00:803,0,-3.01856,-1.03193,-40.1193
2023-03-11 22:45:00:813,0,-3.01965,-1.02285,-40.1347
2023-03-11 22:45:00:823,0,-3.02916,-1.01477,-40.1466
2023-03-11 22:45:00:833,0,-3.03766,-1.00493,-40.1584
2023-03-11 22:45:00:843,0,-3.04226,-0.996482,-40.1684
2023-03-11 22:45:00:853,0,-3.05239,-0.992158,-40.1792
2023-03-11 22:45:00:863,0,-3.05962,-0.98886,-40.1872
2023-03-11 22:45:00:873,0,-3.0691,-0.984711,-40.1943
2023-03-11 22:45:00:883,0,-3.08045,-0.983269,-40.2
2023-03-11 22:45:00:893,0,-3.09227,-0.984521,-40.2013
2023-03-11 22:45:00:903,0,-3.1051,-0.985369,-40.2056
2023-03-11 22:45:00:913,0,-3.1206,-0.986193,-40.208
2023-03-11 22:45:00:923,0,-3.13727,-0.991258,-40.207
2023-03-11 22:45:00:933,0,-3.15877,-0.996988,-40.2048
2023-03-11 22:45:00:943,0,-3.17786,-1.00033,-40.2026
2023-03-11 22:45:00:953,0,-3.19735,-1.00471,-40.2048
2023-03-11 22:45:00:963,0,-3.21147,-1.00731,-40.2034
2023-03-11 22:45:00:973,0,-3.22612,-1.0116,-40.2038
2023-03-11 22:45:00:983,0,-3.24174,-1.01444,-40.2019
2023-03-11 22:45:00:993,0,-3.25665,-1.01906,-40.2019
2023-03-11 22:45:01:3,0,-3.26981,-1.02347,-40.2047
2023-03-11 22:45:01:13,0,-3.27906,-1.02456,-40.2069
2023-03-11 22:45:01:23,0,-3.28308,-1.02356,-40.2139
2023-03-11 22:45:01:33,0,-3.28896,-1.02469,-40.2193
2023-03-11 22:45:01:43,0,-3.29123,-1.02812,-40.2237
2023-03-11 22:45:01:53,0,-3.29219,-1.03436,-40.2306
2023-03-11 22:45:01:63,0,-3.29122,-1.03755,-40.239
2023-03-11 22:45:01:73,0,-3.2864,-1.03967,-40.2483
2023-03-11 22:45:01:82,0,-3.28538,-1.0439,-40.2561
2023-03-11 22:45:01:92,0,-3.28519,-1.04533,-40.2628
2023-03-11 22:45:01:103,0,-3.28304,-1.04523,-40.2717
2023-03-11 22:45:01:113,0,-3.28042,-1.0454,-40.2772
2023-03-11 22:45:01:123,0,-3.27874,-1.04575,-40.2867
2023-03-11 22:45:01:133,0,-3.27737,-1.04828,-40.2927
2023-03-11 22:45:01:143,0,-3.27415,-1.04747,-40.2969
2023-03-11 22:45:01:153,0,-3.26596,-1.04638,-40.3017
2023-03-11 22:45:01:163,0,-3.25838,-1.04232,-40.3076
2023-03-11 22:45:01:173,0,-3.25123,-1.04403,-40.3113
2023-03-11 22:45:01:183,0,-3.24039,-1.04675,-40.316
2023-03-11 22:45:01:193,0,-3.23075,-1.04547,-40.3251
2023-03-11 22:45:01:203,0,-3.21879,-1.04391,-40.3322
2023-03-11 22:45:01:213,0,-3.2087,-1.04472,-40.3412
2023-03-11 22:45:01:223,0,-3.20076,-1.04516,-40.3516
2023-03-11 22:45:01:233,0,-3.1934,-1.04916,-40.354
2023-03-11 22:45:01:243,0,-3.18336,-1.05933,-40.352
2023-03-11 22:45:01:253,0,-3.18717,-1.06768,-40.3507
2023-03-11 22:45:01:263,0,-3.19479,-1.07759,-40.3505
2023-03-11 22:45:01:273,0,-3.20053,-1.07936,-40.3517
2023-03-11 22:45:01:283,0,-3.2098,-1.08225,-40.3518
2023-03-11 22:45:01:293,0,-3.22219,-1.08425,-40.3514
2023-03-11 22:45:01:303,0,-3.23218,-1.08366,-40.3523
2023-03-11 22:45:01:313,0,-3.24306,-1.084,-40.3504
2023-03-11 22:45:01:323,0,-3.25278,-1.08354,-40.3481
2023-03-11 22:45:01:333,0,-3.26347,-1.08133,-40.3447
2023-03-11 22:45:01:343,0,-3.26778,-1.08051,-40.3406
2023-03-11 22:45:01:353,0,-3.27171,-1.07434,-40.3358
2023-03-11 22:45:01:363,0,-3.27887,-1.06727,-40.3235
2023-03-11 22:45:01:373,0,-3.28823,-1.05884,-40.3104
2023-03-11 22:45:01:383,0,-3.29939,-1.05028,-40.2965
2023-03-11 22:45:01:393,0,-3.31301,-1.03789,-40.2836
2023-03-11 22:45:01:403,0,-3.32383,-1.02493,-40.2707
2023-03-11 22:45:01:413,0,-3.33727,-1.01605,-40.2635
2023-03-11 22:45:01:423,0,-3.34916,-1.01145,-40.2599
2023-03-11 22:45:01:433,0,-3.35795,-1.0078,-40.2646
2023-03-11 22:45:01:443,0,-3.36406,-0.999236,-40.2759
2023-03-11 22:45:01:453,0,-3.36587,-0.993512,-40.2895
2023-03-11 22:45:01:463,0,-3.36737,-0.990239,-40.3008
2023-03-11 22:45:01:473,0,-3.36535,-0.993815,-40.3167
2023-03-11 22:45:01:483,0,-3.36593,-0.997516,-40.3357
2023-03-11 22:45:01:493,0,-3.36776,-0.998027,-40.3504
2023-03-11 22:45:01:503,0,-3.36859,-1.00152,-40.3693
2023-03-11 22:45:01:513,0,-3.37438,-1.00326,-40.3808
2023-03-11 22:45:01:522,0,-3.38361,-1.00448,-40.3922
2023-03-11 22:45:01:532,0,-3.39141,-1.00448,-40.3997
2023-03-11 22:45:01:542,0,-3.39612,-1.00467,-40.4048
2023-03-11 22:45:01:553,0,-3.40288,-1.0031,-40.4079
2023-03-11 22:45:01:563,0,-3.40915,-1.0018,-40.4134
2023-03-11 22:45:01:573,0,-3.41767,-0.999025,-40.4181
2023-03-11 22:45:01:583,0,-3.42483,-0.995738,-40.4179
2023-03-11 22:45:01:593,0,-3.43048,-0.995865,-40.4224
2023-03-11 22:45:01:603,0,-3.43446,-0.998815,-40.4243
2023-03-11 22:45:01:613,0,-3.43539,-1.0024,-40.4273
2023-03-11 22:45:01:623,0,-3.4389,-1.0104,-40.4304
2023-03-11 22:45:01:633,0,-3.44356,-1.01537,-40.4358
2023-03-11 22:45:01:643,0,-3.44846,-1.02377,-40.4391
2023-03-11 22:45:01:653,0,-3.45129,-1.03133,-40.4444
2023-03-11 22:45:01:663,0,-3.45261,-1.03893,-40.4465
2023-03-11 22:45:01:673,0,-3.45456,-1.04684,-40.4517
2023-03-11 22:45:01:682,0,-3.45277,-1.05482,-40.4538
2023-03-11 22:45:01:693,0,-3.45491,-1.06384,-40.4546
2023-03-11 22:45:01:703,0,-3.45292,-1.06972,-40.456
2023-03-11 22:45:01:713,0,-3.45181,-1.07585,-40.4565
2023-03-11 22:45:01:723,0,-3.44668,-1.08066,-40.457
2023-03-11 22:45:01:733,0,-3.4393,-1.08616,-40.4529
2023-03-11 22:45:01:743,0,-3.43416,-1.09192,-40.4537
2023-03-11 22:45:01:753,0,-3.43009,-1.09757,-40.4554
2023-03-11 22:45:01:763,0,-3.42048,-1.09975,-40.4589
2023-03-11 22:45:01:773,0,-3.41139,-1.10741,-40.4611
2023-03-11 22:45:01:783,0,-3.40797,-1.11386,-40.4599
2023-03-11 22:45:01:793,0,-3.40299,-1.11943,-40.4633
2023-03-11 22:45:01:803,0,-3.3962,-1.12512,-40.4614
2023-03-11 22:45:01:813,0,-3.39345,-1.12694,-40.4652
2023-03-11 22:45:01:823,0,-3.38706,-1.12955,-40.4644
2023-03-11 22:45:01:833,0,-3.38376,-1.13051,-40.4649
2023-03-11 22:45:01:843,0,-3.38207,-1.13459,-40.4644
2023-03-11 22:45:01:853,0,-3.38697,-1.13656,-40.4627
2023-03-11 22:45:01:863,0,-3.39179,-1.13613,-40.461
2023-03-11 22:45:01:873,0,-3.39839,-1.14,-40.4585
2023-03-11 22:45:01:883,0,-3.40229,-1.13827,-40.4573
2023-03-11 22:45:01:893,0,-3.4053,-1.14028,-40.4573
2023-03-11 22:45:01:903,0,-3.40855,-1.13905,-40.4611
2023-03-11 22:45:01:913,0,-3.41923,-1.13756,-40.4645
2023-03-11 22:45:01:923,0,-3.43041,-1.13662,-40.4699
2023-03-11 22:45:01:933,0,-3.43538,-1.13989,-40.4776
2023-03-11 22:45:01:943,0,-3.44646,-1.139,-40.4879
2023-03-11 22:45:01:953,0,-3.45769,-1.14101,-40.4962
2023-03-11 22:45:01:963,0,-3.46558,-1.14655,-40.4999
2023-03-11 22:45:01:973,0,-3.47494,-1.16013,-40.5004
2023-03-11 22:45:01:983,0,-3.48685,-1.17137,-40.4995
2023-03-11 22:45:01:993,0,-3.50347,-1.1845,-40.4976
2023-03-11 22:45:02:3,0,-3.52199,-1.19669,-40.4948
2023-03-11 22:45:02:13,0,-3.5433,-1.203,-40.489
2023-03-11 22:45:02:23,0,-3.56423,-1.20352,-40.4849
2023-03-11 22:45:02:32,0,-3.58825,-1.20279,-40.484
2023-03-11 22:45:02:42,0,-3.6092,-1.19829,-40.4808
2023-03-11 22:45:02:52,0,-3.62686,-1.19496,-40.4797
2023-03-11 22:45:02:62,0,-3.64398,-1.19391,-40.4846
2023-03-11 22:45:02:72,0,-3.66111,-1.19265,-40.4902
2023-03-11 22:45:02:83,0,-3.68022,-1.18659,-40.5058
2023-03-11 22:45:02:93,0,-3.7008,-1.1802,-40.5215
2023-03-11 22:45:02:103,0,-3.72422,-1.17548,-40.5391
2023-03-11 22:45:02:113,0,-3.74588,-1.17336,-40.5612
2023-03-11 22:45:02:123,0,-3.76682,-1.17148,-40.5843
2023-03-11 22:45:02:133,0,-3.78297,-1.16629,-40.6073
2023-03-11 22:45:02:143,0,-3.80199,-1.16753,-40.6249
2023-03-11 22:45:02:153,0,-3.82045,-1.16622,-40.6383
2023-03-11 22:45:02:163,0,-3.83842,-1.16492,-40.6534
2023-03-11 22:45:02:173,0,-3.85587,-1.15923,-40.6683
2023-03-11 22:45:02:183,0,-3.86862,-1.1549,-40.6797
2023-03-11 22:45:02:193,0,-3.88487,-1.15682,-40.6873
2023-03-11 22:45:02:203,0,-3.89847,-1.16068,-40.6959
2023-03-11 22:45:02:213,0,-3.91397,-1.16773,-40.7051
2023-03-11 22:45:02:223,0,-3.92639,-1.17404,-40.7144
2023-03-11 22:45:02:233,0,-3.93429,-1.177,-40.7237
2023-03-11 22:45:02:243,0,-3.93721,-1.17933,-40.732
2023-03-11 22:45:02:253,0,-3.94133,-1.17867,-40.7393
2023-03-11 22:45:02:263,0,-3.94441,-1.18264,-40.7467
2023-03-11 22:45:02:273,0,-3.95127,-1.18485,-40.752
2023-03-11 22:45:02:283,0,-3.95933,-1.18872,-40.7601
2023-03-11 22:45:02:293,0,-3.97014,-1.19292,-40.7642
2023-03-11 22:45:02:303,0,-3.98475,-1.19634,-40.7683
2023-03-11 22:45:02:313,0,-3.99683,-1.19999,-40.7751
2023-03-11 22:45:02:323,0,-4.00917,-1.21002,-40.7835
2023-03-11 22:45:02:333,0,-4.02659,-1.22199,-40.7922
2023-03-11 22:45:02:343,0,-4.04085,-1.23153,-40.8006
2023-03-11 22:45:02:352,0,-4.05186,-1.24341,-40.8134
2023-03-11 22:45:02:363,0,-4.05919,-1.25137,-40.8246
2023-03-11 22:45:02:373,0,-4.06665,-1.26054,-40.8335
2023-03-11 22:45:02:383,0,-4.07514,-1.26918,-40.8395
2023-03-11 22:45:02:393,0,-4.08567,-1.27866,-40.849
2023-03-11 22:45:02:403,0,-4.09563,-1.28878,-40.8602
2023-03-11 22:45:02:413,0,-4.10639,-1.30232,-40.8803
2023-03-11 22:45:02:423,0,-4.1231,-1.31782,-40.9006
2023-03-11 22:45:02:433,0,-4.14053,-1.33007,-40.9268
2023-03-11 22:45:02:443,0,-4.15883,-1.33718,-40.9535
2023-03-11 22:45:02:453,0,-4.17076,-1.3489,-40.983
2023-03-11 22:45:02:463,0,-4.18186,-1.35888,-41.0178
2023-03-11 22:45:02:473,0,-4.19262,-1.36658,-41.0516
2023-03-11 22:45:02:483,0,-4.20209,-1.37736,-41.0807
2023-03-11 22:45:02:493,0,-4.21076,-1.38487,-41.1116
2023-03-11 22:45:02:503,0,-4.21748,-1.39425,-41.1451
2023-03-11 22:45:02:513,0,-4.22454,-1.40018,-41.1783
2023-03-11 22:45:02:523,0,-4.22796,-1.40708,-41.2092
2023-03-11 22:45:02:533,0,-4.2322,-1.4148,-41.2432
2023-03-11 22:45:02:542,0,-4.24252,-1.42142,-41.2755
2023-03-11 22:45:02:552,0,-4.24523,-1.42841,-41.3051
2023-03-11 22:45:02:562,0,-4.25024,-1.43728,-41.3322
2023-03-11 22:45:02:573,0,-4.25546,-1.44637,-41.3629
2023-03-11 22:45:02:583,0,-4.26035,-1.45347,-41.393
2023-03-11 22:45:02:593,0,-4.2641,-1.46013,-41.4178
2023-03-11 22:45:02:603,0,-4.27129,-1.46473,-41.4441
2023-03-11 22:45:02:613,0,-4.27657,-1.4711,-41.4769
2023-03-11 22:45:02:623,0,-4.28007,-1.46785,-41.5046
2023-03-11 22:45:02:633,0,-4.28238,-1.46686,-41.5295
2023-03-11 22:45:02:643,0,-4.28664,-1.46539,-41.5511
2023-03-11 22:45:02:653,0,-4.28668,-1.46259,-41.5743
2023-03-11 22:45:02:663,0,-4.28732,-1.46169,-41.595
2023-03-11 22:45:02:673,0,-4.28711,-1.46192,-41.6106
2023-03-11 22:45:02:683,0,-4.28811,-1.45902,-41.6266
2023-03-11 22:45:02:693,0,-4.28905,-1.45706,-41.6393
2023-03-11 22:45:02:703,0,-4.28868,-1.45495,-41.6509
2023-03-11 22:45:02:713,0,-4.28755,-1.45465,-41.6543
2023-03-11 22:45:02:723,0,-4.286,-1.45571,-41.6503
2023-03-11 22:45:02:733,0,-4.28799,-1.45939,-41.6436
2023-03-11 22:45:02:743,0,-4.28721,-1.46351,-41.6305
2023-03-11 22:45:02:753,0,-4.2901,-1.46069,-41.6152
2023-03-11 22:45:02:763,0,-4.29434,-1.46021,-41.5986
2023-03-11 22:45:02:773,0,-4.30449,-1.45888,-41.5823
2023-03-11 22:45:02:783,0,-4.3119,-1.45498,-41.5708
2023-03-11 22:45:02:793,0,-4.32064,-1.45251,-41.5608
2023-03-11 22:45:02:803,0,-4.32363,-1.44846,-41.5587
2023-03-11 22:45:02:813,0,-4.32748,-1.44694,-41.5623
2023-03-11 22:45:02:823,0,-4.33029,-1.45023,-41.5715
2023-03-11 22:45:02:833,0,-4.33022,-1.45318,-41.5873
2023-03-11 22:45:02:843,0,-4.32597,-1.45855,-41.6033
2023-03-11 22:45:02:853,0,-4.32319,-1.46793,-41.6233
2023-03-11 22:45:02:863,0,-4.32447,-1.47755,-41.6424
2023-03-11 22:45:02:873,0,-4.32473,-1.48723,-41.6643
2023-03-11 22:45:02:883,0,-4.32341,-1.49133,-41.6837
2023-03-11 22:45:02:893,0,-4.32019,-1.49574,-41.7005
2023-03-11 22:45:02:903,0,-4.30361,-1.49784,-41.7152
2023-03-11 22:45:02:913,0,-4.28806,-1.49816,-41.7303
2023-03-11 22:45:02:923,0,-4.2697,-1.504,-41.7437
2023-03-11 22:45:02:933,0,-4.2451,-1.51331,-41.7544
2023-03-11 22:45:02:943,0,-4.2163,-1.52267,-41.7639
2023-03-11 22:45:02:953,0,-4.18335,-1.53454,-41.7716
2023-03-11 22:45:02:963,0,-4.14637,-1.54318,-41.7817
2023-03-11 22:45:02:973,0,-4.10921,-1.55345,-41.7893
2023-03-11 22:45:02:983,0,-4.07241,-1.55931,-41.7939
2023-03-11 22:45:02:993,0,-4.03969,-1.56634,-41.8003
2023-03-11 22:45:03:3,0,-4.01412,-1.57803,-41.8048
2023-03-11 22:45:03:13,0,-3.99597,-1.59397,-41.8087
2023-03-11 22:45:03:23,0,-3.97569,-1.60667,-41.8155
2023-03-11 22:45:03:33,0,-3.95079,-1.62259,-41.8226
2023-03-11 22:45:03:43,0,-3.9214,-1.64074,-41.8323
2023-03-11 22:45:03:53,0,-3.88457,-1.66501,-41.8413
2023-03-11 22:45:03:63,0,-3.8403,-1.69106,-41.858
2023-03-11 22:45:03:73,0,-3.79387,-1.7156,-41.8709
2023-03-11 22:45:03:83,0,-3.74612,-1.73623,-41.8829
2023-03-11 22:45:03:93,0,-3.69586,-1.75623,-41.8904
2023-03-11 22:45:03:103,0,-3.64958,-1.78246,-41.8959
2023-03-11 22:45:03:113,0,-3.60468,-1.80582,-41.9023
2023-03-11 22:45:03:123,0,-3.56493,-1.82953,-41.905
2023-03-11 22:45:03:133,0,-3.52953,-1.85256,-41.9086
2023-03-11 22:45:03:143,0,-3.49003,-1.8757,-41.9119
2023-03-11 22:45:03:153,0,-3.4516,-1.89351,-41.9168
2023-03-11 22:45:03:163,0,-3.41298,-1.90797,-41.9193
2023-03-11 22:45:03:173,0,-3.36728,-1.92062,-41.9244
2023-03-11 22:45:03:183,0,-3.31818,-1.93266,-41.926
2023-03-11 22:45:03:193,0,-3.26599,-1.94477,-41.9259
2023-03-11 22:45:03:203,0,-3.21778,-1.95307,-41.931
2023-03-11 22:45:03:213,0,-3.17595,-1.96261,-41.9413
2023-03-11 22:45:03:223,0,-3.13719,-1.9683,-41.9472
2023-03-11 22:45:03:233,0,-3.10488,-1.97382,-41.9593
2023-03-11 22:45:03:243,0,-3.08073,-1.97504,-41.9716
2023-03-11 22:45:03:253,0,-3.06173,-1.97523,-41.9829
2023-03-11 22:45:03:263,0,-3.0503,-1.97412,-41.9926
2023-03-11 22:45:03:273,0,-3.03577,-1.97554,-41.9999
2023-03-11 22:45:03:283,0,-3.02254,-1.97742,-42.0091
2023-03-11 22:45:03:293,0,-3.00938,-1.97645,-42.0159
2023-03-11 22:45:03:303,0,-2.99942,-1.97764,-42.0227
2023-03-11 22:45:03:313,0,-2.99722,-1.98197,-42.0244
2023-03-11 22:45:03:323,0,-3.00077,-1.98751,-42.0234
2023-03-11 22:45:03:333,0,-3.00857,-1.9926,-42.0244
2023-03-11 22:45:03:343,0,-3.01818,-1.99818,-42.0212
2023-03-11 22:45:03:353,0,-3.02589,-2.00277,-42.014
2023-03-11 22:45:03:363,0,-3.03698,-2.00515,-42.0073
2023-03-11 22:45:03:373,0,-3.0417,-2.01183,-42.0007
2023-03-11 22:45:03:382,0,-3.0434,-2.01402,-41.9935
2023-03-11 22:45:03:393,0,-3.04468,-2.01573,-41.9805
2023-03-11 22:45:03:403,0,-3.04311,-2.01681,-41.9725
2023-03-11 22:45:03:413,0,-3.04087,-2.01954,-41.9666
2023-03-11 22:45:03:423,0,-3.03837,-2.01995,-41.9606
2023-03-11 22:45:03:433,0,-3.03552,-2.0206,-41.958
2023-03-11 22:45:03:443,0,-3.03651,-2.01936,-41.953
2023-03-11 22:45:03:453,0,-3.04133,-2.02209,-41.9509
2023-03-11 22:45:03:463,0,-3.04131,-2.02504,-41.9466
2023-03-11 22:45:03:473,0,-3.04162,-2.02616,-41.9429
2023-03-11 22:45:03:483,0,-3.04018,-2.02662,-41.9442
2023-03-11 22:45:03:493,0,-3.03389,-2.0291,-41.9432
2023-03-11 22:45:03:503,0,-3.02956,-2.03573,-41.9408
2023-03-11 22:45:03:513,0,-3.02659,-2.04584,-41.9342
2023-03-11 22:45:03:523,0,-3.02501,-2.0541,-41.9256
2023-03-11 22:45:03:533,0,-3.03159,-2.05937,-41.9214
2023-03-11 22:45:03:543,0,-3.04505,-2.06189,-41.9188
2023-03-11 22:45:03:553,0,-3.06028,-2.06133,-41.9146
2023-03-11 22:45:03:563,0,-3.07446,-2.06161,-41.9114
2023-03-11 22:45:03:573,0,-3.08938,-2.06105,-41.9097
2023-03-11 22:45:03:583,0,-3.10273,-2.05999,-41.9088
2023-03-11 22:45:03:592,0,-3.1132,-2.05558,-41.9113
2023-03-11 22:45:03:603,0,-3.1215,-2.04801,-41.9165
2023-03-11 22:45:03:613,0,-3.12878,-2.04115,-41.9171
2023-03-11 22:45:03:623,0,-3.14031,-2.03576,-41.9186
2023-03-11 22:45:03:633,0,-3.15176,-2.03081,-41.9239
2023-03-11 22:45:03:643,0,-3.16099,-2.02539,-41.925
2023-03-11 22:45:03:653,0,-3.1708,-2.01706,-41.9296
2023-03-11 22:45:03:663,0,-3.17947,-2.01206,-41.9319
2023-03-11 22:45:03:673,0,-3.19173,-2.00307,-41.9331
2023-03-11 22:45:03:682,0,-3.20335,-1.99591,-41.9343
2023-03-11 22:45:03:693,0,-3.2077,-1.98902,-41.934
2023-03-11 22:45:03:703,0,-3.2135,-1.98526,-41.9387
2023-03-11 22:45:03:713,0,-3.21096,-1.97844,-41.942
2023-03-11 22:45:03:723,0,-3.20834,-1.9709,-41.9478
2023-03-11 22:45:03:733,0,-3.20203,-1.96481,-41.9522
2023-03-11 22:45:03:743,0,-3.19549,-1.96548,-41.9533
2023-03-11 22:45:03:753,0,-3.18279,-1.96094,-41.9566
2023-03-11 22:45:03:763,0,-3.16705,-1.95756,-41.959
2023-03-11 22:45:03:773,0,-3.15397,-1.95756,-41.962
2023-03-11 22:45:03:783,0,-3.14329,-1.9555,-41.965
2023-03-11 22:45:03:793,0,-3.13848,-1.95021,-41.963
2023-03-11 22:45:03:803,0,-3.13623,-1.94512,-41.9664
2023-03-11 22:45:03:813,0,-3.13286,-1.9402,-41.9696
2023-03-11 22:45:03:823,0,-3.12927,-1.93219,-41.9738
2023-03-11 22:45:03:833,0,-3.12285,-1.92802,-41.9755
2023-03-11 22:45:03:843,0,-3.11656,-1.92424,-41.9768
2023-03-11 22:45:03:853,0,-3.10922,-1.92292,-41.9793
2023-03-11 22:45:03:863,0,-3.10188,-1.92044,-41.9853
2023-03-11 22:45:03:873,0,-3.09496,-1.91328,-41.9867
2023-03-11 22:45:03:883,0,-3.0867,-1.91168,-41.9904
2023-03-11 22:45:03:893,0,-3.07886,-1.91129,-41.9951
2023-03-11 22:45:03:903,0,-3.07097,-1.91059,-41.9983
2023-03-11 22:45:03:913,0,-3.06906,-1.91,-41.9997
2023-03-11 22:45:03:923,0,-3.0705,-1.90986,-42.0012
2023-03-11 22:45:03:933,0,-3.06562,-1.90732,-42.0014
2023-03-11 22:45:03:943,0,-3.06506,-1.90507,-42.0003
2023-03-11 22:45:03:953,0,-3.06218,-1.9023,-42.0011
2023-03-11 22:45:03:963,0,-3.06357,-1.897,-41.9969
2023-03-11 22:45:03:973,0,-3.06246,-1.89075,-41.9946
2023-03-11 22:45:03:983,0,-3.0628,-1.88275,-41.994
2023-03-11 22:45:03:993,0,-3.05883,-1.87695,-41.9977
2023-03-11 22:45:04:3,0,-3.05473,-1.86587,-42.0014
2023-03-11 22:45:04:13,0,-3.04842,-1.8558,-42.0099
2023-03-11 22:45:04:23,0,-3.04632,-1.8488,-42.0157
2023-03-11 22:45:04:33,0,-3.04628,-1.84155,-42.0227
2023-03-11 22:45:04:43,0,-3.04624,-1.83807,-42.0273
2023-03-11 22:45:04:53,0,-3.04033,-1.83351,-42.0353
2023-03-11 22:45:04:63,0,-3.03806,-1.82636,-42.043
2023-03-11 22:45:04:73,0,-3.03311,-1.82005,-42.0531
2023-03-11 22:45:04:83,0,-3.02912,-1.81379,-42.0573
2023-03-11 22:45:04:93,0,-3.02464,-1.8098,-42.0583
2023-03-11 22:45:04:103,0,-3.02155,-1.80558,-42.0565
2023-03-11 22:45:04:113,0,-3.02197,-1.80059,-42.0583
2023-03-11 22:45:04:123,0,-3.02463,-1.79425,-42.0498
2023-03-11 22:45:04:133,0,-3.02718,-1.79004,-42.0427
2023-03-11 22:45:04:143,0,-3.0278,-1.78507,-42.0411
2023-03-11 22:45:04:153,0,-3.02652,-1.7798,-42.0347
2023-03-11 22:45:04:163,0,-3.02239,-1.7719,-42.0326
2023-03-11 22:45:04:173,0,-3.01671,-1.76675,-42.0275
2023-03-11 22:45:04:183,0,-3.01036,-1.76198,-42.0253
2023-03-11 22:45:04:193,0,-3.00472,-1.76048,-42.0241
2023-03-11 22:45:04:203,0,-3.00478,-1.7585,-42.0276
2023-03-11 22:45:04:213,0,-3.00991,-1.75683,-42.0349
2023-03-11 22:45:04:223,0,-3.01387,-1.75483,-42.0395
2023-03-11 22:45:04:233,0,-3.0162,-1.75692,-42.045
2023-03-11 22:45:04:243,0,-3.01742,-1.76076,-42.0491
2023-03-11 22:45:04:253,0,-3.02017,-1.76693,-42.0504
2023-03-11 22:45:04:263,0,-3.02306,-1.77767,-42.0505
2023-03-11 22:45:04:273,0,-3.03176,-1.78815,-42.0514
2023-03-11 22:45:04:283,0,-3.0435,-1.79756,-42.0501
2023-03-11 22:45:04:293,0,-3.04867,-1.8052,-42.0492
2023-03-11 22:45:04:303,0,-3.05637,-1.80729,-42.0504
2023-03-11 22:45:04:313,0,-3.06353,-1.80079,-42.0483
2023-03-11 22:45:04:323,0,-3.07514,-1.79844,-42.0453
2023-03-11 22:45:04:333,0,-3.0891,-1.79035,-42.0461
2023-03-11 22:45:04:343,0,-3.10178,-1.7825,-42.0432
2023-03-11 22:45:04:353,0,-3.1078,-1.77522,-42.043
2023-03-11 22:45:04:363,0,-3.11285,-1.76988,-42.0481
2023-03-11 22:45:04:373,0,-3.11621,-1.75977,-42.0504
2023-03-11 22:45:04:383,0,-3.12046,-1.75279,-42.0558
2023-03-11 22:45:04:393,0,-3.12513,-1.74671,-42.061
2023-03-11 22:45:04:403,0,-3.13291,-1.74155,-42.0684
2023-03-11 22:45:04:413,0,-3.14026,-1.73674,-42.0784
2023-03-11 22:45:04:423,0,-3.14485,-1.73368,-42.084
2023-03-11 22:45:04:433,0,-3.15149,-1.73633,-42.0886
2023-03-11 22:45:04:443,0,-3.1545,-1.73817,-42.0951
2023-03-11 22:45:04:453,0,-3.15639,-1.73664,-42.1031
2023-03-11 22:45:04:463,0,-3.1565,-1.72879,-42.1102
2023-03-11 22:45:04:473,0,-3.15323,-1.72426,-42.1157
2023-03-11 22:45:04:483,0,-3.15262,-1.72506,-42.1123
2023-03-11 22:45:04:493,0,-3.14475,-1.72906,-42.11
2023-03-11 22:45:04:503,0,-3.13266,-1.73091,-42.1075
2023-03-11 22:45:04:513,0,-3.11828,-1.73112,-42.103
2023-03-11 22:45:04:523,0,-3.10357,-1.73241,-42.0969
2023-03-11 22:45:04:533,0,-3.0894,-1.73305,-42.0926
2023-03-11 22:45:04:543,0,-3.08016,-1.732,-42.0865
2023-03-11 22:45:04:553,0,-3.07297,-1.73207,-42.0799
2023-03-11 22:45:04:563,0,-3.06528,-1.73291,-42.0747
2023-03-11 22:45:04:573,0,-3.06117,-1.73516,-42.0732
2023-03-11 22:45:04:583,0,-3.0551,-1.73563,-42.0728
2023-03-11 22:45:04:593,0,-3.05045,-1.73776,-42.0747
2023-03-11 22:45:04:603,0,-3.04417,-1.73926,-42.0792
2023-03-11 22:45:04:612,0,-3.03436,-1.74396,-42.0846
2023-03-11 22:45:04:622,0,-3.02315,-1.74741,-42.0894
2023-03-11 22:45:04:632,0,-3.0114,-1.74854,-42.0925
2023-03-11 22:45:04:643,0,-3.00186,-1.75422,-42.0934
2023-03-11 22:45:04:653,0,-2.99264,-1.761,-42.0917
2023-03-11 22:45:04:663,0,-2.98916,-1.76576,-42.0885
2023-03-11 22:45:04:673,0,-2.98807,-1.76903,-42.0842
2023-03-11 22:45:04:683,0,-2.98549,-1.76907,-42.0786
2023-03-11 22:45:04:693,0,-2.98697,-1.76981,-42.0743
2023-03-11 22:45:04:703,0,-2.9909,-1.77129,-42.0724
2023-03-11 22:45:04:713,0,-2.99308,-1.76598,-42.0701
2023-03-11 22:45:04:723,0,-2.99075,-1.76535,-42.069
2023-03-11 22:45:04:733,0,-2.98687,-1.76033,-42.0722
2023-03-11 22:45:04:743,0,-2.9803,-1.75542,-42.0802
2023-03-11 22:45:04:753,0,-2.97265,-1.74914,-42.0841
2023-03-11 22:45:04:763,0,-2.96738,-1.74289,-42.0925
2023-03-11 22:45:04:773,0,-2.95698,-1.73705,-42.0991
2023-03-11 22:45:04:783,0,-2.95269,-1.7318,-42.1051
2023-03-11 22:45:04:793,0,-2.94833,-1.72955,-42.1154
2023-03-11 22:45:04:803,0,-2.94683,-1.72468,-42.1213
2023-03-11 22:45:04:813,0,-2.94083,-1.72318,-42.1289
2023-03-11 22:45:04:823,0,-2.93679,-1.72232,-42.131
2023-03-11 22:45:04:833,0,-2.93496,-1.72145,-42.1318
2023-03-11 22:45:04:843,0,-2.93091,-1.71921,-42.135
2023-03-11 22:45:04:853,0,-2.92595,-1.71735,-42.1386
2023-03-11 22:45:04:863,0,-2.91934,-1.71522,-42.1363
2023-03-11 22:45:04:873,0,-2.91644,-1.71546,-42.1343
2023-03-11 22:45:04:883,0,-2.91466,-1.71537,-42.132
2023-03-11 22:45:04:893,0,-2.91591,-1.71721,-42.1298
2023-03-11 22:45:04:903,0,-2.9116,-1.71783,-42.1275
2023-03-11 22:45:04:913,0,-2.90801,-1.71586,-42.1251
2023-03-11 22:45:04:923,0,-2.90627,-1.71583,-42.1247
2023-03-11 22:45:04:933,0,-2.90284,-1.71612,-42.1247
2023-03-11 22:45:04:943,0,-2.9022,-1.71695,-42.1238
2023-03-11 22:45:04:953,0,-2.90123,-1.71693,-42.1272
2023-03-11 22:45:04:963,0,-2.90268,-1.71675,-42.1305
2023-03-11 22:45:04:972,0,-2.9011,-1.71392,-42.1345
2023-03-11 22:45:04:982,0,-2.89806,-1.71335,-42.1354
2023-03-11 22:45:04:993,0,-2.89527,-1.71796,-42.1366
2023-03-11 22:45:05:3,0,-2.88956,-1.73014,-42.1317
2023-03-11 22:45:05:13,0,-2.89457,-1.74255,-42.1259
2023-03-11 22:45:05:23,0,-2.89992,-1.74933,-42.1197
2023-03-11 22:45:05:33,0,-2.91095,-1.75337,-42.1128
2023-03-11 22:45:05:43,0,-2.92113,-1.75314,-42.1108
2023-03-11 22:45:05:53,0,-2.93366,-1.7522,-42.1024
2023-03-11 22:45:05:63,0,-2.94627,-1.75099,-42.0939
2023-03-11 22:45:05:73,0,-2.95933,-1.74736,-42.0901
2023-03-11 22:45:05:83,0,-2.96586,-1.74065,-42.0921
2023-03-11 22:45:05:93,0,-2.97129,-1.73696,-42.095
2023-03-11 22:45:05:103,0,-2.9751,-1.73217,-42.1043
2023-03-11 22:45:05:113,0,-2.97389,-1.72626,-42.1152
2023-03-11 22:45:05:123,0,-2.98044,-1.71824,-42.1296
2023-03-11 22:45:05:133,0,-2.98284,-1.71249,-42.147
2023-03-11 22:45:05:143,0,-2.9855,-1.70654,-42.1589
2023-03-11 22:45:05:153,0,-2.9917,-1.69902,-42.1714
2023-03-11 22:45:05:163,0,-2.99257,-1.69135,-42.1803
2023-03-11 22:45:05:173,0,-2.99714,-1.6866,-42.1846
2023-03-11 22:45:05:183,0,-2.99964,-1.68418,-42.1839
2023-03-11 22:45:05:193,0,-3.00389,-1.68185,-42.1856
2023-03-11 22:45:05:203,0,-3.00594,-1.67688,-42.1836
2023-03-11 22:45:05:213,0,-3.00761,-1.66962,-42.1808
2023-03-11 22:45:05:223,0,-3.00631,-1.66278,-42.1741
2023-03-11 22:45:05:233,0,-3.00219,-1.66559,-42.1628
2023-03-11 22:45:05:243,0,-2.99086,-1.66836,-42.1518
2023-03-11 22:45:05:253,0,-2.98401,-1.67271,-42.1416
2023-03-11 22:45:05:263,0,-2.97321,-1.67493,-42.1333
2023-03-11 22:45:05:273,0,-2.96471,-1.67764,-42.1253
2023-03-11 22:45:05:283,0,-2.95877,-1.67612,-42.1202
2023-03-11 22:45:05:293,0,-2.95804,-1.67664,-42.1113
2023-03-11 22:45:05:303,0,-2.95849,-1.67085,-42.1046
2023-03-11 22:45:05:313,0,-2.95868,-1.67339,-42.0981
2023-03-11 22:45:05:323,0,-2.95905,-1.67611,-42.0943
2023-03-11 22:45:05:333,0,-2.96345,-1.6799,-42.0941
2023-03-11 22:45:05:343,0,-2.96375,-1.68477,-42.0935
2023-03-11 22:45:05:353,0,-2.96527,-1.68806,-42.0973
2023-03-11 22:45:05:363,0,-2.96456,-1.69167,-42.0988
2023-03-11 22:45:05:372,0,-2.96762,-1.69519,-42.1021
2023-03-11 22:45:05:382,0,-2.9685,-1.69613,-42.1032
2023-03-11 22:45:05:392,0,-2.97174,-1.70233,-42.1016
2023-03-11 22:45:05:402,0,-2.97513,-1.70575,-42.1024
2023-03-11 22:45:05:413,0,-2.98114,-1.70984,-42.1001
2023-03-11 22:45:05:422,0,-2.98897,-1.71317,-42.0961
2023-03-11 22:45:05:433,0,-2.99406,-1.71375,-42.0889
2023-03-11 22:45:05:443,0,-3.00007,-1.71395,-42.083
2023-03-11 22:45:05:453,0,-3.00441,-1.71358,-42.0811
2023-03-11 22:45:05:463,0,-3.01148,-1.70887,-42.0827
2023-03-11 22:45:05:473,0,-3.01513,-1.70371,-42.0825
2023-03-11 22:45:05:483,0,-3.02017,-1.70043,-42.0856
2023-03-11 22:45:05:493,0,-3.02228,-1.69491,-42.092
2023-03-11 22:45:05:503,0,-3.02298,-1.69242,-42.1022
2023-03-11 22:45:05:513,0,-3.0251,-1.69055,-42.1118
2023-03-11 22:45:05:523,0,-3.02554,-1.69155,-42.1215
2023-03-11 22:45:05:533,0,-3.02393,-1.68814,-42.1268
2023-03-11 22:45:05:543,0,-3.02062,-1.68613,-42.1349
2023-03-11 22:45:05:553,0,-3.01927,-1.68588,-42.142
2023-03-11 22:45:05:563,0,-3.01811,-1.68565,-42.1463
2023-03-11 22:45:05:573,0,-3.01851,-1.68301,-42.1466
2023-03-11 22:45:05:583,0,-3.02196,-1.68036,-42.144
2023-03-11 22:45:05:593,0,-3.02706,-1.67966,-42.1427
2023-03-11 22:45:05:603,0,-3.0304,-1.67851,-42.1433
2023-03-11 22:45:05:612,0,-3.0333,-1.67713,-42.14
2023-03-11 22:45:05:623,0,-3.03706,-1.67482,-42.14
2023-03-11 22:45:05:633,0,-3.04171,-1.67146,-42.1412
2023-03-11 22:45:05:642,0,-3.04093,-1.6661,-42.1443
2023-03-11 22:45:05:653,0,-3.0378,-1.66331,-42.1444
2023-03-11 22:45:05:663,0,-3.03836,-1.65843,-42.145
2023-03-11 22:45:05:673,0,-3.03471,-1.66093,-42.1489
2023-03-11 22:45:05:683,0,-3.0332,-1.66024,-42.1524
2023-03-11 22:45:05:693,0,-3.03201,-1.65765,-42.1554
2023-03-11 22:45:05:703,0,-3.0345,-1.65696,-42.1591
2023-03-11 22:45:05:713,0,-3.04274,-1.65812,-42.1661
2023-03-11 22:45:05:723,0,-3.05277,-1.65929,-42.1722
2023-03-11 22:45:05:733,0,-3.05846,-1.65847,-42.1782
2023-03-11 22:45:05:743,0,-3.06065,-1.66086,-42.1808
2023-03-11 22:45:05:753,0,-3.06486,-1.66832,-42.1795
2023-03-11 22:45:05:763,0,-3.0712,-1.67362,-42.1699
2023-03-11 22:45:05:773,0,-3.07531,-1.67912,-42.1639
2023-03-11 22:45:05:783,0,-3.07984,-1.68521,-42.1578
2023-03-11 22:45:05:793,0,-3.08519,-1.68673,-42.1481
2023-03-11 22:45:05:803,0,-3.09542,-1.68159,-42.1414
2023-03-11 22:45:05:813,0,-3.1054,-1.67502,-42.132
2023-03-11 22:45:05:823,0,-3.11739,-1.67275,-42.1283
2023-03-11 22:45:05:833,0,-3.12381,-1.67091,-42.1272
2023-03-11 22:45:05:843,0,-3.12656,-1.66831,-42.1307
2023-03-11 22:45:05:853,0,-3.12768,-1.66151,-42.1368
2023-03-11 22:45:05:863,0,-3.13072,-1.65223,-42.147
2023-03-11 22:45:05:873,0,-3.13264,-1.64561,-42.1576
2023-03-11 22:45:05:883,0,-3.1368,-1.63849,-42.1736
2023-03-11 22:45:05:893,0,-3.13862,-1.63168,-42.1922
2023-03-11 22:45:05:903,0,-3.13907,-1.62902,-42.2125
2023-03-11 22:45:05:913,0,-3.13896,-1.62294,-42.2304
2023-03-11 22:45:05:923,0,-3.14235,-1.61642,-42.2431
2023-03-11 22:45:05:933,0,-3.14054,-1.61105,-42.2549
2023-03-11 22:45:05:943,0,-3.14022,-1.60585,-42.2616
2023-03-11 22:45:05:953,0,-3.14235,-1.59654,-42.2661
2023-03-11 22:45:05:963,0,-3.13943,-1.5872,-42.2718
2023-03-11 22:45:05:973,0,-3.13434,-1.57943,-42.2727
2023-03-11 22:45:05:983,0,-3.1275,-1.57432,-42.2726
2023-03-11 22:45:05:993,0,-3.11909,-1.56976,-42.2701
2023-03-11 22:45:06:3,0,-3.10888,-1.57072,-42.2709
