Timestamp_cmd,imu_cmd,roll_delta,pitch_delta,yaw_delta,voice_type,voice_length
2023-03-15 21:40:13:545,0,-3.27383,-3.62025,-21.9066,Q,Q
2023-03-15 21:40:13:553,0,-3.26587,-3.62664,-21.9043,Q,Q
2023-03-15 21:40:13:563,0,-3.25716,-3.63166,-21.8985,Q,Q
2023-03-15 21:40:13:573,0,-3.24786,-3.63398,-21.892,Q,Q
2023-03-15 21:40:13:583,0,-3.24386,-3.63688,-21.8862,Q,Q
2023-03-15 21:40:13:594,0,-3.24076,-3.64026,-21.8762,Q,Q
2023-03-15 21:40:13:604,0,-3.23827,-3.64586,-21.8698,Q,Q
2023-03-15 21:40:13:614,0,-3.23998,-3.65213,-21.863,Q,Q
2023-03-15 21:40:13:623,0,-3.24286,-3.65348,-21.8562,Q,Q
2023-03-15 21:40:13:634,0,-3.24646,-3.65686,-21.8467,Q,Q
2023-03-15 21:40:13:643,0,-3.24805,-3.65921,-21.8399,Q,Q
2023-03-15 21:40:13:653,0,-3.24932,-3.66274,-21.8354,Q,Q
2023-03-15 21:40:13:663,0,-3.25043,-3.66165,-21.833,Q,Q
2023-03-15 21:40:13:674,0,-3.24789,-3.66862,-21.8368,Q,Q
2023-03-15 21:40:13:683,0,-3.24362,-3.67593,-21.8372,Q,Q
2023-03-15 21:40:13:694,0,-3.24154,-3.68039,-21.8409,Q,Q
2023-03-15 21:40:13:704,0,-3.2404,-3.68533,-21.8407,Q,Q
2023-03-15 21:40:13:714,0,-3.23997,-3.68817,-21.8438,Q,Q
2023-03-15 21:40:13:724,0,-3.23928,-3.68887,-21.8448,Q,Q
2023-03-15 21:40:13:733,0,-3.23598,-3.69186,-21.8477,Q,Q
2023-03-15 21:40:13:743,0,-3.2338,-3.69086,-21.8486,Q,Q
2023-03-15 21:40:13:753,0,-3.2317,-3.69214,-21.8495,Q,Q
2023-03-15 21:40:13:763,0,-3.23117,-3.68824,-21.8465,Q,Q
2023-03-15 21:40:13:774,0,-3.23291,-3.6856,-21.8448,Q,Q
2023-03-15 21:40:13:783,0,-3.23201,-3.68589,-21.8404,Q,Q
2023-03-15 21:40:13:794,0,-3.23298,-3.6823,-21.8339,Q,Q
2023-03-15 21:40:13:803,0,-3.23467,-3.68021,-21.8254,Q,Q
2023-03-15 21:40:13:814,0,-3.2353,-3.67239,-21.8182,Q,Q
2023-03-15 21:40:13:824,0,-3.23932,-3.66179,-21.8148,Q,Q
2023-03-15 21:40:13:834,0,-3.24083,-3.65088,-21.8109,Q,Q
2023-03-15 21:40:13:844,0,-3.23844,-3.64153,-21.8088,Q,Q
2023-03-15 21:40:13:854,0,-3.23487,-3.63885,-21.812,Q,Q
2023-03-15 21:40:13:864,0,-3.23062,-3.64313,-21.8122,Q,Q
2023-03-15 21:40:13:874,0,-3.22957,-3.65104,-21.8171,Q,Q
2023-03-15 21:40:13:884,0,-3.23212,-3.65663,-21.8199,Q,Q
2023-03-15 21:40:13:894,0,-3.23999,-3.66108,-21.8273,Q,Q
2023-03-15 21:40:13:903,0,-3.24879,-3.66336,-21.8285,Q,Q
2023-03-15 21:40:13:913,0,-3.26149,-3.66398,-21.829,Q,Q
2023-03-15 21:40:13:923,0,-3.28064,-3.66481,-21.824,Q,Q
2023-03-15 21:40:13:933,0,-3.29694,-3.66691,-21.819,Q,Q
2023-03-15 21:40:13:943,0,-3.31288,-3.66815,-21.8115,Q,Q
2023-03-15 21:40:13:954,0,-3.33172,-3.67249,-21.8047,Q,Q
2023-03-15 21:40:13:963,0,-3.35068,-3.67744,-21.7982,Q,Q
2023-03-15 21:40:13:973,0,-3.36411,-3.67695,-21.7906,Q,Q
2023-03-15 21:40:13:983,0,-3.37419,-3.6783,-21.785,Q,Q
2023-03-15 21:40:13:993,0,-3.37955,-3.68114,-21.784,Q,Q
2023-03-15 21:40:14:3,0,-3.38325,-3.68207,-21.7838,Q,Q
2023-03-15 21:40:14:13,0,-3.38325,-3.68314,-21.7873,Q,Q
2023-03-15 21:40:14:23,0,-3.37798,-3.68789,-21.7927,Q,Q
2023-03-15 21:40:14:33,0,-3.37267,-3.69029,-21.7967,Q,Q
2023-03-15 21:40:14:43,0,-3.36978,-3.6938,-21.804,Q,Q
2023-03-15 21:40:14:53,0,-3.36813,-3.69602,-21.8168,Q,Q
2023-03-15 21:40:14:63,0,-3.36654,-3.69709,-21.8271,Q,Q
2023-03-15 21:40:14:73,0,-3.36715,-3.69379,-21.8371,Q,Q
2023-03-15 21:40:14:83,0,-3.36228,-3.69323,-21.846,Q,Q
2023-03-15 21:40:14:93,0,-3.35934,-3.69351,-21.8495,Q,Q
2023-03-15 21:40:14:103,0,-3.3582,-3.6893,-21.8505,Q,Q
2023-03-15 21:40:14:113,0,-3.35338,-3.68613,-21.8489,Q,Q
2023-03-15 21:40:14:123,0,-3.34533,-3.6858,-21.8455,Q,Q
2023-03-15 21:40:14:133,0,-3.33927,-3.68119,-21.8424,Q,Q
2023-03-15 21:40:14:143,0,-3.33579,-3.68077,-21.8389,Q,Q
2023-03-15 21:40:14:153,0,-3.33042,-3.67885,-21.8342,Q,Q
2023-03-15 21:40:14:163,0,-3.32609,-3.67381,-21.8291,Q,Q
2023-03-15 21:40:14:173,0,-3.31779,-3.66952,-21.8247,Q,Q
2023-03-15 21:40:14:183,0,-3.30969,-3.66082,-21.8223,Q,Q
2023-03-15 21:40:14:193,0,-3.30263,-3.65599,-21.823,Q,Q
2023-03-15 21:40:14:203,0,-3.29462,-3.65058,-21.8221,Q,Q
2023-03-15 21:40:14:213,0,-3.28167,-3.6488,-21.821,Q,Q
2023-03-15 21:40:14:224,0,-3.27068,-3.64355,-21.8237,Q,Q
2023-03-15 21:40:14:233,0,-3.25737,-3.64324,-21.8276,Q,Q
2023-03-15 21:40:14:243,0,-3.24554,-3.64097,-21.8327,Q,Q
2023-03-15 21:40:14:253,0,-3.23441,-3.63944,-21.836,Q,Q
2023-03-15 21:40:14:263,0,-3.22824,-3.64198,-21.8361,Q,Q
2023-03-15 21:40:14:274,0,-3.22057,-3.64515,-21.8366,Q,Q
2023-03-15 21:40:14:283,0,-3.2122,-3.64472,-21.8352,Q,Q
2023-03-15 21:40:14:293,0,-3.21113,-3.65207,-21.8298,Q,Q
2023-03-15 21:40:14:303,0,-3.20971,-3.65718,-21.828,Q,Q
2023-03-15 21:40:14:313,0,-3.21246,-3.66327,-21.8221,Q,Q
2023-03-15 21:40:14:323,0,-3.21453,-3.66708,-21.8124,Q,Q
2023-03-15 21:40:14:334,0,-3.21218,-3.66848,-21.8016,Q,Q
2023-03-15 21:40:14:343,0,-3.21502,-3.67267,-21.7897,Q,Q
2023-03-15 21:40:14:353,0,-3.22051,-3.67652,-21.7788,Q,Q
2023-03-15 21:40:14:363,0,-3.22395,-3.68223,-21.7702,Q,Q
2023-03-15 21:40:14:373,0,-3.23298,-3.69046,-21.7637,Q,Q
2023-03-15 21:40:14:383,0,-3.23679,-3.69585,-21.7605,Q,Q
2023-03-15 21:40:14:394,0,-3.24153,-3.70115,-21.7577,Q,Q
2023-03-15 21:40:14:404,0,-3.24353,-3.71184,-21.7607,Q,Q
2023-03-15 21:40:14:413,0,-3.24424,-3.71968,-21.7633,Q,Q
2023-03-15 21:40:14:424,0,-3.24553,-3.7269,-21.7696,Q,Q
2023-03-15 21:40:14:433,0,-3.2463,-3.73306,-21.7734,Q,Q
2023-03-15 21:40:14:443,0,-3.24681,-3.73797,-21.7772,Q,Q
2023-03-15 21:40:14:454,0,-3.24582,-3.74302,-21.7831,Q,Q
2023-03-15 21:40:14:464,0,-3.24737,-3.74468,-21.7875,Q,Q
2023-03-15 21:40:14:473,0,-3.24568,-3.7443,-21.7899,Q,Q
2023-03-15 21:40:14:483,0,-3.24468,-3.74789,-21.7892,Q,Q
2023-03-15 21:40:14:493,0,-3.24588,-3.74693,-21.7879,Q,Q
2023-03-15 21:40:14:503,0,-3.24562,-3.74688,-21.7841,Q,Q
2023-03-15 21:40:14:513,0,-3.24362,-3.74773,-21.7803,Q,Q
2023-03-15 21:40:14:523,0,-3.24388,-3.7446,-21.7761,Q,Q
2023-03-15 21:40:14:533,0,-3.24557,-3.74301,-21.7738,Q,Q
2023-03-15 21:40:14:543,0,-3.24651,-3.73374,-21.7716,Q,Q
2023-03-15 21:40:14:553,0,-3.24957,-3.72898,-21.7674,Q,Q
2023-03-15 21:40:14:563,0,-3.24748,-3.72147,-21.7645,Q,Q
2023-03-15 21:40:14:573,0,-3.2455,-3.71939,-21.76,Q,Q
2023-03-15 21:40:14:583,0,-3.24278,-3.71647,-21.7581,Q,Q
2023-03-15 21:40:14:593,0,-3.2453,-3.72455,-21.7529,Q,Q
2023-03-15 21:40:14:603,0,-3.24763,-3.72575,-21.754,Q,Q
2023-03-15 21:40:14:613,0,-3.25732,-3.72666,-21.7573,Q,Q
2023-03-15 21:40:14:623,0,-3.2699,-3.72605,-21.7586,Q,Q
2023-03-15 21:40:14:633,0,-3.28838,-3.72593,-21.7601,Q,Q
2023-03-15 21:40:14:643,0,-3.30773,-3.72533,-21.7579,Q,Q
2023-03-15 21:40:14:653,0,-3.32385,-3.72727,-21.7545,Q,Q
2023-03-15 21:40:14:663,0,-3.34117,-3.73156,-21.7467,Q,Q
2023-03-15 21:40:14:673,0,-3.35783,-3.73914,-21.7424,Q,Q
2023-03-15 21:40:14:683,0,-3.37128,-3.74645,-21.7404,Q,Q
2023-03-15 21:40:14:693,0,-3.38274,-3.75152,-21.7396,Q,Q
2023-03-15 21:40:14:703,0,-3.3875,-3.75758,-21.7383,Q,Q
2023-03-15 21:40:14:713,0,-3.3923,-3.76232,-21.7339,Q,Q
2023-03-15 21:40:14:723,0,-3.39713,-3.76697,-21.7336,Q,Q
2023-03-15 21:40:14:733,0,-3.39621,-3.77458,-21.7321,Q,Q
2023-03-15 21:40:14:743,0,-3.39316,-3.78341,-21.7287,Q,Q
2023-03-15 21:40:14:753,0,-3.39178,-3.79265,-21.7269,Q,Q
2023-03-15 21:40:14:763,0,-3.38963,-3.79988,-21.7283,Q,Q
2023-03-15 21:40:14:773,0,-3.38824,-3.80213,-21.7282,Q,Q
2023-03-15 21:40:14:783,0,-3.3875,-3.80575,-21.7258,Q,Q
2023-03-15 21:40:14:793,0,-3.38535,-3.80817,-21.7212,Q,Q
2023-03-15 21:40:14:803,0,-3.38671,-3.81287,-21.7159,Q,Q
2023-03-15 21:40:14:813,0,-3.3865,-3.81705,-21.7115,Q,Q
2023-03-15 21:40:14:823,0,-3.38591,-3.82431,-21.7086,Q,Q
2023-03-15 21:40:14:833,0,-3.38328,-3.82855,-21.7038,Q,Q
2023-03-15 21:40:14:843,0,-3.38385,-3.83426,-21.6978,Q,Q
2023-03-15 21:40:14:853,0,-3.383,-3.8344,-21.6973,Q,Q
2023-03-15 21:40:14:863,0,-3.38237,-3.83199,-21.6962,Q,Q
2023-03-15 21:40:14:873,0,-3.37496,-3.83247,-21.6986,Q,Q
2023-03-15 21:40:14:883,0,-3.36413,-3.83086,-21.7038,Q,Q
2023-03-15 21:40:14:893,0,-3.35163,-3.82757,-21.7116,Q,Q
2023-03-15 21:40:14:903,0,-3.33253,-3.83035,-21.7205,Q,Q
2023-03-15 21:40:14:913,0,-3.31515,-3.83017,-21.7342,Q,Q
2023-03-15 21:40:14:923,0,-3.29904,-3.82913,-21.7424,Q,Q
2023-03-15 21:40:14:933,0,-3.28097,-3.83002,-21.7524,Q,Q
2023-03-15 21:40:14:943,0,-3.26279,-3.83382,-21.7642,Q,Q
2023-03-15 21:40:14:953,0,-3.24418,-3.83371,-21.7737,Q,Q
2023-03-15 21:40:14:963,0,-3.22917,-3.83068,-21.7824,Q,Q
2023-03-15 21:40:14:973,0,-3.2128,-3.83009,-21.7849,Q,Q
2023-03-15 21:40:14:983,0,-3.19985,-3.82647,-21.7848,Q,Q
2023-03-15 21:40:14:993,0,-3.18736,-3.82873,-21.7844,Q,Q
2023-03-15 21:40:15:3,0,-3.17796,-3.82745,-21.78,Q,Q
2023-03-15 21:40:15:13,0,-3.17305,-3.82831,-21.7728,Q,Q
2023-03-15 21:40:15:23,0,-3.17083,-3.8269,-21.7647,Q,Q
2023-03-15 21:40:15:34,0,-3.17136,-3.82793,-21.7541,Q,Q
2023-03-15 21:40:15:43,0,-3.17369,-3.82973,-21.74,Q,Q
2023-03-15 21:40:15:54,0,-3.17831,-3.83012,-21.7264,Q,Q
2023-03-15 21:40:15:63,0,-3.18672,-3.83274,-21.7123,Q,Q
2023-03-15 21:40:15:74,0,-3.19616,-3.83622,-21.7024,Q,Q
2023-03-15 21:40:15:83,0,-3.20366,-3.8395,-21.6927,Q,Q
2023-03-15 21:40:15:94,0,-3.21204,-3.8425,-21.682,Q,Q
2023-03-15 21:40:15:103,0,-3.2209,-3.84681,-21.6743,Q,Q
2023-03-15 21:40:15:113,0,-3.2283,-3.85334,-21.6666,Q,Q
2023-03-15 21:40:15:123,0,-3.23534,-3.857,-21.6629,Q,Q
2023-03-15 21:40:15:133,0,-3.23974,-3.85837,-21.6614,Q,Q
2023-03-15 21:40:15:143,0,-3.24546,-3.86049,-21.6589,Q,Q
2023-03-15 21:40:15:153,0,-3.24759,-3.86292,-21.6543,Q,Q
2023-03-15 21:40:15:163,0,-3.2497,-3.86169,-21.6506,Q,Q
2023-03-15 21:40:15:173,0,-3.25032,-3.85988,-21.648,Q,Q
2023-03-15 21:40:15:183,0,-3.25468,-3.86393,-21.641,Q,Q
2023-03-15 21:40:15:193,0,-3.25764,-3.86399,-21.6348,Q,Q
2023-03-15 21:40:15:203,0,-3.25937,-3.86504,-21.6292,Q,Q
2023-03-15 21:40:15:213,0,-3.26288,-3.86369,-21.6252,Q,Q
2023-03-15 21:40:15:223,0,-3.26752,-3.85918,-21.6168,Q,Q
2023-03-15 21:40:15:234,0,-3.27616,-3.85388,-21.6079,Q,Q
2023-03-15 21:40:15:243,0,-3.27867,-3.84862,-21.5961,Q,Q
2023-03-15 21:40:15:253,0,-3.28051,-3.83941,-21.5895,Q,Q
2023-03-15 21:40:15:263,0,-3.28338,-3.83739,-21.583,Q,Q
2023-03-15 21:40:15:273,0,-3.28307,-3.83938,-21.5732,Q,Q
2023-03-15 21:40:15:283,0,-3.28556,-3.84312,-21.5659,Q,Q
2023-03-15 21:40:15:293,0,-3.2921,-3.842,-21.5613,Q,Q
2023-03-15 21:40:15:303,0,-3.3048,-3.84512,-21.5602,Q,Q
2023-03-15 21:40:15:313,0,-3.3195,-3.84183,-21.5597,Q,Q
2023-03-15 21:40:15:323,0,-3.33694,-3.83697,-21.5615,Q,Q
2023-03-15 21:40:15:334,0,-3.35743,-3.83202,-21.5578,Q,Q
2023-03-15 21:40:15:343,0,-3.38139,-3.82964,-21.5555,Q,Q
2023-03-15 21:40:15:354,0,-3.40539,-3.83276,-21.5548,Q,Q
2023-03-15 21:40:15:363,0,-3.42865,-3.83591,-21.5544,Q,Q
2023-03-15 21:40:15:374,0,-3.45185,-3.83504,-21.5553,Q,Q
2023-03-15 21:40:15:384,0,-3.46907,-3.82989,-21.5594,Q,Q
2023-03-15 21:40:15:394,0,-3.48088,-3.82695,-21.5616,Q,Q
2023-03-15 21:40:15:403,0,-3.48835,-3.82178,-21.5626,Q,Q
2023-03-15 21:40:15:413,0,-3.49573,-3.81691,-21.5681,Q,Q
2023-03-15 21:40:15:423,0,-3.49764,-3.81165,-21.5757,Q,Q
2023-03-15 21:40:15:433,0,-3.49651,-3.80973,-21.5886,Q,Q
2023-03-15 21:40:15:443,0,-3.4966,-3.80975,-21.5991,Q,Q
2023-03-15 21:40:15:454,0,-3.49724,-3.8058,-21.6101,Q,Q
2023-03-15 21:40:15:463,0,-3.49771,-3.79832,-21.617,Q,Q
2023-03-15 21:40:15:474,0,-3.49953,-3.79203,-21.6243,Q,Q
2023-03-15 21:40:15:483,0,-3.49908,-3.78291,-21.6306,Q,Q
2023-03-15 21:40:15:494,0,-3.50007,-3.77557,-21.6305,Q,Q
2023-03-15 21:40:15:504,0,-3.50238,-3.77394,-21.6324,Q,Q
2023-03-15 21:40:15:514,0,-3.5045,-3.77288,-21.6289,Q,Q
2023-03-15 21:40:15:523,0,-3.50594,-3.77558,-21.6264,Q,Q
2023-03-15 21:40:15:534,0,-3.50703,-3.77448,-21.6214,Q,Q
2023-03-15 21:40:15:544,0,-3.50834,-3.77182,-21.6167,Q,Q
2023-03-15 21:40:15:553,0,-3.50709,-3.76947,-21.6158,Q,Q
2023-03-15 21:40:15:563,0,-3.50848,-3.76573,-21.6119,Q,Q
2023-03-15 21:40:15:574,0,-3.50849,-3.76582,-21.6048,Q,Q
2023-03-15 21:40:15:583,0,-3.50472,-3.76328,-21.6,Q,Q
2023-03-15 21:40:15:593,0,-3.50371,-3.76177,-21.5936,Q,Q
2023-03-15 21:40:15:603,0,-3.50212,-3.76308,-21.5878,Q,Q
2023-03-15 21:40:15:614,0,-3.49461,-3.76116,-21.5874,Q,Q
2023-03-15 21:40:15:623,0,-3.48578,-3.75913,-21.5871,Q,Q
2023-03-15 21:40:15:633,0,-3.47475,-3.76193,-21.5855,Q,Q
2023-03-15 21:40:15:643,0,-3.46102,-3.76307,-21.5854,Q,Q
2023-03-15 21:40:15:653,0,-3.44929,-3.76697,-21.5843,Q,Q
2023-03-15 21:40:15:663,0,-3.43921,-3.76856,-21.5846,Q,Q
2023-03-15 21:40:15:673,0,-3.42889,-3.77113,-21.5833,Q,Q
2023-03-15 21:40:15:683,0,-3.42303,-3.77573,-21.5836,Q,Q
2023-03-15 21:40:15:693,0,-3.41755,-3.77956,-21.5825,Q,Q
2023-03-15 21:40:15:703,0,-3.4132,-3.78002,-21.5792,Q,Q
2023-03-15 21:40:15:713,0,-3.41139,-3.78265,-21.5718,Q,Q
2023-03-15 21:40:15:723,0,-3.40774,-3.78568,-21.5641,Q,Q
2023-03-15 21:40:15:733,0,-3.41189,-3.7844,-21.5553,Q,Q
2023-03-15 21:40:15:743,0,-3.41559,-3.78484,-21.5459,Q,Q
2023-03-15 21:40:15:753,0,-3.41956,-3.78563,-21.5404,Q,Q
2023-03-15 21:40:15:763,0,-3.42687,-3.78748,-21.5354,Q,Q
2023-03-15 21:40:15:774,0,-3.43273,-3.78744,-21.5314,Q,Q
2023-03-15 21:40:15:783,0,-3.43787,-3.78667,-21.5294,Q,Q
2023-03-15 21:40:15:794,0,-3.44224,-3.78588,-21.5326,Q,Q
2023-03-15 21:40:15:803,0,-3.4475,-3.78636,-21.539,Q,Q
2023-03-15 21:40:15:813,0,-3.45187,-3.78697,-21.5427,Q,Q
2023-03-15 21:40:15:823,0,-3.45132,-3.78863,-21.5485,Q,Q
2023-03-15 21:40:15:834,0,-3.45067,-3.78911,-21.5597,Q,Q
2023-03-15 21:40:15:844,0,-3.45084,-3.79159,-21.566,Q,Q
2023-03-15 21:40:15:854,0,-3.44943,-3.79026,-21.5715,Q,Q
2023-03-15 21:40:15:863,0,-3.44939,-3.79095,-21.5776,Q,Q
2023-03-15 21:40:15:874,0,-3.44515,-3.79072,-21.5849,Q,Q
2023-03-15 21:40:15:884,0,-3.44296,-3.78911,-21.5879,Q,Q
2023-03-15 21:40:15:894,0,-3.44139,-3.78438,-21.5896,Q,Q
2023-03-15 21:40:15:904,0,-3.43993,-3.78217,-21.5888,Q,Q
2023-03-15 21:40:15:914,0,-3.44107,-3.78111,-21.5819,Q,Q
2023-03-15 21:40:15:923,0,-3.43933,-3.78058,-21.572,Q,Q
2023-03-15 21:40:15:934,0,-3.43751,-3.77777,-21.5678,Q,Q
2023-03-15 21:40:15:943,0,-3.43897,-3.77182,-21.5612,Q,Q
2023-03-15 21:40:15:954,0,-3.44101,-3.7653,-21.5517,Q,Q
2023-03-15 21:40:15:963,0,-3.44346,-3.75619,-21.5474,Q,Q
2023-03-15 21:40:15:974,0,-3.44321,-3.75127,-21.5431,Q,Q
2023-03-15 21:40:15:983,0,-3.43605,-3.74607,-21.5403,Q,Q
2023-03-15 21:40:15:993,0,-3.43303,-3.75069,-21.5356,Q,Q
2023-03-15 21:40:16:3,0,-3.42539,-3.75996,-21.5365,Q,Q
2023-03-15 21:40:16:14,0,-3.42031,-3.76487,-21.5366,Q,Q
2023-03-15 21:40:16:24,0,-3.41876,-3.7689,-21.5391,Q,Q
2023-03-15 21:40:16:33,0,-3.42281,-3.77184,-21.5401,Q,Q
2023-03-15 21:40:16:43,0,-3.43137,-3.77719,-21.5363,Q,Q
2023-03-15 21:40:16:54,0,-3.44449,-3.78048,-21.5355,Q,Q
2023-03-15 21:40:16:64,0,-3.45936,-3.78212,-21.5331,Q,Q
2023-03-15 21:40:16:73,0,-3.47219,-3.78588,-21.5269,Q,Q
2023-03-15 21:40:16:83,0,-3.48964,-3.78784,-21.5236,Q,Q
2023-03-15 21:40:16:94,0,-3.50324,-3.78952,-21.522,Q,Q
2023-03-15 21:40:16:103,0,-3.51492,-3.78907,-21.5211,Q,Q
2023-03-15 21:40:16:114,0,-3.52266,-3.78504,-21.5185,Q,Q
2023-03-15 21:40:16:124,0,-3.52477,-3.78249,-21.5219,Q,Q
2023-03-15 21:40:16:134,0,-3.52189,-3.77844,-21.5299,Q,Q
2023-03-15 21:40:16:143,0,-3.51956,-3.77584,-21.5398,Q,Q
2023-03-15 21:40:16:154,0,-3.51292,-3.77288,-21.5504,Q,Q
2023-03-15 21:40:16:164,0,-3.50816,-3.76714,-21.5663,Q,Q
2023-03-15 21:40:16:173,0,-3.50182,-3.76579,-21.5768,Q,Q
2023-03-15 21:40:16:183,0,-3.49859,-3.76474,-21.5885,Q,Q
2023-03-15 21:40:16:193,0,-3.49296,-3.7673,-21.6033,Q,Q
2023-03-15 21:40:16:203,0,-3.49146,-3.76283,-21.6138,Q,Q
2023-03-15 21:40:16:213,0,-3.48925,-3.75681,-21.6248,Q,Q
2023-03-15 21:40:16:223,0,-3.48505,-3.75256,-21.6322,Q,Q
2023-03-15 21:40:16:234,0,-3.48027,-3.74841,-21.6345,Q,Q
2023-03-15 21:40:16:243,0,-3.47262,-3.74592,-21.6353,Q,Q
2023-03-15 21:40:16:253,0,-3.46426,-3.74372,-21.6309,Q,Q
2023-03-15 21:40:16:263,0,-3.45454,-3.73966,-21.6254,Q,Q
2023-03-15 21:40:16:273,0,-3.44824,-3.73601,-21.618,Q,Q
2023-03-15 21:40:16:284,0,-3.44105,-3.7297,-21.6133,Q,Q
2023-03-15 21:40:16:294,0,-3.43138,-3.72154,-21.6079,Q,Q
2023-03-15 21:40:16:303,0,-3.42247,-3.71476,-21.6041,Q,Q
2023-03-15 21:40:16:313,0,-3.41308,-3.7102,-21.6007,Q,Q
2023-03-15 21:40:16:323,0,-3.40774,-3.70835,-21.5996,Q,Q
2023-03-15 21:40:16:333,0,-3.39252,-3.70608,-21.6023,Q,Q
2023-03-15 21:40:16:343,0,-3.382,-3.70199,-21.601,Q,Q
2023-03-15 21:40:16:354,0,-3.37057,-3.70032,-21.6006,Q,Q
2023-03-15 21:40:16:363,0,-3.35512,-3.69549,-21.604,Q,Q
2023-03-15 21:40:16:374,0,-3.33896,-3.69308,-21.611,Q,Q
2023-03-15 21:40:16:383,0,-3.31271,-3.68915,-21.6168,Q,Q
2023-03-15 21:40:16:393,0,-3.29385,-3.68427,-21.6174,Q,Q
2023-03-15 21:40:16:403,0,-3.2767,-3.68212,-21.6174,Q,Q
2023-03-15 21:40:16:414,0,-3.26365,-3.68274,-21.6181,Q,Q
2023-03-15 21:40:16:423,0,-3.25371,-3.68504,-21.6158,Q,Q
2023-03-15 21:40:16:434,0,-3.24643,-3.68578,-21.6162,Q,Q
2023-03-15 21:40:16:443,0,-3.23883,-3.68458,-21.6146,Q,Q
2023-03-15 21:40:16:453,0,-3.23028,-3.68317,-21.6109,Q,Q
2023-03-15 21:40:16:463,0,-3.22388,-3.68652,-21.6047,Q,Q
2023-03-15 21:40:16:474,0,-3.20984,-3.69138,-21.6065,Q,Q
2023-03-15 21:40:16:483,0,-3.18701,-3.6947,-21.5978,Q,Q
2023-03-15 21:40:16:493,0,-3.17531,-3.69782,-21.5881,Q,Q
2023-03-15 21:40:16:503,0,-3.17089,-3.7012,-21.585,Q,Q
2023-03-15 21:40:16:514,0,-3.15581,-3.70755,-21.5933,Q,Q
2023-03-15 21:40:16:523,0,-3.14129,-3.70438,-21.5917,Q,Q
2023-03-15 21:40:16:533,0,-3.13923,-3.70643,-21.5858,Q,Q
2023-03-15 21:40:16:543,0,-3.1432,-3.70498,-21.585,Q,Q
2023-03-15 21:40:16:553,0,-3.13792,-3.70228,-21.5825,Q,Q
2023-03-15 21:40:16:563,0,-3.13451,-3.70471,-21.5769,Q,Q
2023-03-15 21:40:16:573,0,-3.13663,-3.70976,-21.5733,Q,Q
2023-03-15 21:40:16:583,0,-3.13761,-3.71319,-21.5716,Q,Q
2023-03-15 21:40:16:593,0,-3.13663,-3.71204,-21.5676,Q,Q
2023-03-15 21:40:16:603,0,-3.14299,-3.71329,-21.5638,Q,Q
2023-03-15 21:40:16:614,0,-3.15137,-3.71484,-21.561,Q,Q
2023-03-15 21:40:16:623,0,-3.15976,-3.71723,-21.5576,Q,Q
2023-03-15 21:40:16:634,0,-3.16951,-3.71853,-21.551,Q,Q
2023-03-15 21:40:16:643,0,-3.17847,-3.71675,-21.5435,Q,Q
2023-03-15 21:40:16:653,0,-3.18432,-3.71552,-21.5399,Q,Q
2023-03-15 21:40:16:663,0,-3.18715,-3.71334,-21.536,Q,Q
2023-03-15 21:40:16:674,0,-3.19156,-3.71135,-21.5374,Q,Q
2023-03-15 21:40:16:683,0,-3.19664,-3.70623,-21.5375,Q,Q
2023-03-15 21:40:16:693,0,-3.20134,-3.70198,-21.5351,Q,Q
2023-03-15 21:40:16:703,0,-3.20772,-3.69669,-21.5345,Q,Q
2023-03-15 21:40:16:714,0,-3.21579,-3.69227,-21.5381,Q,Q
2023-03-15 21:40:16:723,0,-3.22089,-3.68983,-21.543,Q,Q
2023-03-15 21:40:16:734,0,-3.22119,-3.69249,-21.5483,Q,Q
2023-03-15 21:40:16:743,0,-3.22327,-3.69775,-21.5529,Q,Q
2023-03-15 21:40:16:753,0,-3.23082,-3.69929,-21.5584,Q,Q
2023-03-15 21:40:16:763,0,-3.23463,-3.69973,-21.5634,Q,Q
2023-03-15 21:40:16:773,0,-3.24169,-3.70132,-21.5694,Q,Q
2023-03-15 21:40:16:783,0,-3.25644,-3.69898,-21.5691,Q,Q
2023-03-15 21:40:16:794,0,-3.2781,-3.70147,-21.5682,Q,Q
2023-03-15 21:40:16:803,0,-3.30179,-3.70074,-21.5656,Q,Q
2023-03-15 21:40:16:813,0,-3.33051,-3.70356,-21.5613,Q,Q
2023-03-15 21:40:16:823,0,-3.36264,-3.70393,-21.5567,Q,Q
2023-03-15 21:40:16:833,0,-3.39008,-3.70392,-21.5525,Q,Q
2023-03-15 21:40:16:843,0,-3.42044,-3.70677,-21.5466,Q,Q
2023-03-15 21:40:16:853,0,-3.44513,-3.70905,-21.5441,Q,Q
2023-03-15 21:40:16:863,0,-3.4631,-3.71099,-21.5414,Q,Q
2023-03-15 21:40:16:874,0,-3.48213,-3.71603,-21.541,Q,Q
2023-03-15 21:40:16:883,0,-3.49494,-3.72252,-21.5443,Q,Q
2023-03-15 21:40:16:894,0,-3.50714,-3.72254,-21.5469,Q,Q
2023-03-15 21:40:16:903,0,-3.51667,-3.72286,-21.555,Q,Q
2023-03-15 21:40:16:913,0,-3.52718,-3.72515,-21.5557,Q,Q
2023-03-15 21:40:16:923,0,-3.53886,-3.72501,-21.5556,Q,Q
2023-03-15 21:40:16:934,0,-3.54935,-3.72738,-21.5587,Q,Q
2023-03-15 21:40:16:943,0,-3.56127,-3.7258,-21.5606,Q,Q
2023-03-15 21:40:16:954,0,-3.57571,-3.72393,-21.5549,Q,Q
2023-03-15 21:40:16:963,0,-3.59158,-3.72551,-21.5524,Q,Q
2023-03-15 21:40:16:973,0,-3.60482,-3.72564,-21.5479,Q,Q
2023-03-15 21:40:16:983,0,-3.61774,-3.72825,-21.541,Q,Q
2023-03-15 21:40:16:994,0,-3.62366,-3.73652,-21.5363,Q,Q
2023-03-15 21:40:17:3,0,-3.63129,-3.74221,-21.5335,Q,Q
2023-03-15 21:40:17:14,0,-3.6408,-3.74913,-21.5274,Q,Q
2023-03-15 21:40:17:23,0,-3.65069,-3.74973,-21.5223,Q,Q
2023-03-15 21:40:17:34,0,-3.65699,-3.74909,-21.5175,Q,Q
2023-03-15 21:40:17:44,0,-3.6626,-3.74849,-21.5115,Q,Q
2023-03-15 21:40:17:54,0,-3.66496,-3.74947,-21.5072,Q,Q
2023-03-15 21:40:17:64,0,-3.66067,-3.75322,-21.5022,Q,Q
2023-03-15 21:40:17:74,0,-3.65763,-3.75283,-21.501,Q,Q
2023-03-15 21:40:17:83,0,-3.65414,-3.75765,-21.4979,Q,Q
2023-03-15 21:40:17:94,0,-3.6479,-3.76297,-21.4945,Q,Q
2023-03-15 21:40:17:103,0,-3.6391,-3.77212,-21.4936,Q,Q
2023-03-15 21:40:17:114,0,-3.62684,-3.78034,-21.4921,Q,Q
2023-03-15 21:40:17:124,0,-3.61391,-3.78674,-21.4915,Q,Q
2023-03-15 21:40:17:134,0,-3.6022,-3.79499,-21.4894,Q,Q
2023-03-15 21:40:17:144,0,-3.58852,-3.79804,-21.4888,Q,Q
2023-03-15 21:40:17:153,0,-3.5802,-3.80354,-21.4858,Q,Q
2023-03-15 21:40:17:163,0,-3.57336,-3.80978,-21.4755,Q,Q
2023-03-15 21:40:17:174,0,-3.56943,-3.81564,-21.4689,Q,Q
2023-03-15 21:40:17:183,0,-3.56833,-3.81772,-21.461,Q,Q
2023-03-15 21:40:17:194,0,-3.56591,-3.82256,-21.4546,Q,Q
2023-03-15 21:40:17:203,0,-3.56633,-3.82571,-21.447,Q,Q
2023-03-15 21:40:17:213,0,-3.56946,-3.827,-21.4383,Q,Q
2023-03-15 21:40:17:223,0,-3.57386,-3.83152,-21.431,Q,Q
2023-03-15 21:40:17:234,0,-3.57741,-3.83164,-21.4266,Q,Q
2023-03-15 21:40:17:243,0,-3.58473,-3.82877,-21.4263,Q,Q
2023-03-15 21:40:17:254,0,-3.5902,-3.8279,-21.4265,Q,Q
2023-03-15 21:40:17:263,0,-3.59702,-3.82165,-21.4296,Q,Q
2023-03-15 21:40:17:274,0,-3.60086,-3.82054,-21.4337,Q,Q
2023-03-15 21:40:17:284,0,-3.60693,-3.82072,-21.4372,Q,Q
2023-03-15 21:40:17:294,0,-3.60944,-3.81651,-21.4469,Q,Q
2023-03-15 21:40:17:304,0,-3.61239,-3.81395,-21.454,Q,Q
2023-03-15 21:40:17:314,0,-3.61425,-3.81269,-21.4651,Q,Q
2023-03-15 21:40:17:323,0,-3.61243,-3.81038,-21.474,Q,Q
2023-03-15 21:40:17:334,0,-3.61002,-3.80438,-21.4831,Q,Q
2023-03-15 21:40:17:343,0,-3.61108,-3.80613,-21.4884,Q,Q
2023-03-15 21:40:17:354,0,-3.6134,-3.80694,-21.4913,Q,Q
2023-03-15 21:40:17:363,0,-3.61606,-3.80636,-21.4979,Q,Q
2023-03-15 21:40:17:373,0,-3.61729,-3.808,-21.4956,Q,Q
2023-03-15 21:40:17:383,0,-3.61255,-3.8058,-21.4963,Q,Q
2023-03-15 21:40:17:394,0,-3.6067,-3.80204,-21.4907,Q,Q
2023-03-15 21:40:17:403,0,-3.59666,-3.79778,-21.4861,Q,Q
2023-03-15 21:40:17:413,0,-3.58891,-3.79274,-21.4824,Q,Q
2023-03-15 21:40:17:423,0,-3.58018,-3.7885,-21.4782,Q,Q
2023-03-15 21:40:17:433,0,-3.56951,-3.78558,-21.4743,Q,Q
2023-03-15 21:40:17:443,0,-3.56006,-3.78003,-21.4702,Q,Q
2023-03-15 21:40:17:454,0,-3.55092,-3.77276,-21.4678,Q,Q
2023-03-15 21:40:17:463,0,-3.54195,-3.76597,-21.4668,Q,Q
2023-03-15 21:40:17:474,0,-3.52894,-3.75839,-21.4693,Q,Q
2023-03-15 21:40:17:483,0,-3.51329,-3.75323,-21.4719,Q,Q
2023-03-15 21:40:17:494,0,-3.49774,-3.75223,-21.4737,Q,Q
2023-03-15 21:40:17:503,0,-3.48477,-3.75581,-21.478,Q,Q
2023-03-15 21:40:17:514,0,-3.47627,-3.75963,-21.4823,Q,Q
2023-03-15 21:40:17:524,0,-3.47052,-3.75724,-21.4891,Q,Q
2023-03-15 21:40:17:534,0,-3.47257,-3.75785,-21.4954,Q,Q
2023-03-15 21:40:17:544,0,-3.47628,-3.75674,-21.4986,Q,Q
2023-03-15 21:40:17:553,0,-3.48383,-3.75154,-21.5017,Q,Q
2023-03-15 21:40:17:563,0,-3.4921,-3.75089,-21.5044,Q,Q
2023-03-15 21:40:17:574,0,-3.50157,-3.74733,-21.5041,Q,Q
2023-03-15 21:40:17:584,0,-3.50703,-3.74604,-21.5062,Q,Q
2023-03-15 21:40:17:594,0,-3.51227,-3.74586,-21.5061,Q,Q
2023-03-15 21:40:17:603,0,-3.52215,-3.74301,-21.5079,Q,Q
2023-03-15 21:40:17:614,0,-3.53465,-3.73927,-21.5083,Q,Q
2023-03-15 21:40:17:624,0,-3.54686,-3.73833,-21.5144,Q,Q
2023-03-15 21:40:17:634,0,-3.5547,-3.73588,-21.5206,Q,Q
2023-03-15 21:40:17:643,0,-3.56315,-3.73191,-21.5299,Q,Q
2023-03-15 21:40:17:653,0,-3.57339,-3.72768,-21.5407,Q,Q
2023-03-15 21:40:17:663,0,-3.58127,-3.72313,-21.5545,Q,Q
2023-03-15 21:40:17:673,0,-3.58525,-3.72001,-21.5672,Q,Q
2023-03-15 21:40:17:683,0,-3.59053,-3.71942,-21.5784,Q,Q
2023-03-15 21:40:17:693,0,-3.59808,-3.71945,-21.5901,Q,Q
2023-03-15 21:40:17:703,0,-3.60528,-3.71391,-21.6021,Q,Q
2023-03-15 21:40:17:714,0,-3.60898,-3.70907,-21.6133,Q,Q
2023-03-15 21:40:17:723,0,-3.6162,-3.70503,-21.6194,Q,Q
2023-03-15 21:40:17:734,0,-3.62328,-3.70042,-21.622,Q,Q
2023-03-15 21:40:17:743,0,-3.62999,-3.69839,-21.6226,Q,Q
2023-03-15 21:40:17:754,0,-3.64,-3.69849,-21.6141,Q,Q
2023-03-15 21:40:17:764,0,-3.6477,-3.69522,-21.6047,Q,Q
2023-03-15 21:40:17:774,0,-3.65449,-3.69078,-21.5923,Q,Q
2023-03-15 21:40:17:784,0,-3.65565,-3.68889,-21.581,Q,Q
2023-03-15 21:40:17:794,0,-3.65747,-3.68636,-21.5688,Q,Q
2023-03-15 21:40:17:803,0,-3.66163,-3.68625,-21.5581,Q,Q
2023-03-15 21:40:17:814,0,-3.6655,-3.687,-21.5455,Q,Q
2023-03-15 21:40:17:823,0,-3.67044,-3.68672,-21.5314,Q,Q
2023-03-15 21:40:17:834,0,-3.67611,-3.68803,-21.5213,Q,Q
2023-03-15 21:40:17:843,0,-3.6759,-3.68806,-21.5145,Q,Q
2023-03-15 21:40:17:853,0,-3.67276,-3.68779,-21.512,Q,Q
2023-03-15 21:40:17:863,0,-3.666,-3.69335,-21.5118,Q,Q
2023-03-15 21:40:17:873,0,-3.65162,-3.7009,-21.5141,Q,Q
2023-03-15 21:40:17:883,0,-3.63658,-3.70897,-21.5191,Q,Q
2023-03-15 21:40:17:894,0,-3.62184,-3.71745,-21.523,Q,Q
2023-03-15 21:40:17:903,0,-3.61424,-3.72732,-21.5268,Q,Q
2023-03-15 21:40:17:913,0,-3.6054,-3.73329,-21.5291,Q,Q
2023-03-15 21:40:17:923,0,-3.60354,-3.74017,-21.5288,Q,Q
2023-03-15 21:40:17:934,0,-3.60123,-3.74665,-21.5294,Q,Q
2023-03-15 21:40:17:944,0,-3.60681,-3.7497,-21.5294,Q,Q
2023-03-15 21:40:17:954,0,-3.61346,-3.75484,-21.5291,Q,Q
2023-03-15 21:40:17:963,0,-3.61883,-3.76278,-21.5264,Q,Q
2023-03-15 21:40:17:974,0,-3.61904,-3.76423,-21.5248,Q,Q
2023-03-15 21:40:17:983,0,-3.61667,-3.76677,-21.5229,Q,Q
2023-03-15 21:40:17:994,0,-3.61424,-3.76519,-21.5189,Q,Q
2023-03-15 21:40:18:4,0,-3.61712,-3.76647,-21.5183,Q,Q
2023-03-15 21:40:18:14,0,-3.62429,-3.76622,-21.5202,Q,Q
2023-03-15 21:40:18:24,0,-3.63197,-3.76848,-21.5204,Q,Q
2023-03-15 21:40:18:34,0,-3.64132,-3.77052,-21.5257,Q,Q
2023-03-15 21:40:18:44,0,-3.64834,-3.77301,-21.5315,Q,Q
2023-03-15 21:40:18:53,0,-3.66025,-3.77725,-21.5353,Q,Q
2023-03-15 21:40:18:63,0,-3.66544,-3.78547,-21.54,Q,Q
2023-03-15 21:40:18:74,0,-3.66953,-3.79169,-21.5457,Q,Q
2023-03-15 21:40:18:84,0,-3.67171,-3.80059,-21.5481,Q,Q
2023-03-15 21:40:18:93,0,-3.68015,-3.8068,-21.5441,Q,Q
2023-03-15 21:40:18:103,0,-3.68955,-3.81161,-21.5457,Q,Q
2023-03-15 21:40:18:114,0,-3.7036,-3.81459,-21.5432,Q,Q
2023-03-15 21:40:18:123,0,-3.72567,-3.81754,-21.5366,Q,Q
2023-03-15 21:40:18:134,0,-3.74767,-3.81731,-21.5318,Q,Q
2023-03-15 21:40:18:143,0,-3.76751,-3.81883,-21.5264,Q,Q
2023-03-15 21:40:18:153,0,-3.77792,-3.8193,-21.5214,Q,Q
2023-03-15 21:40:18:163,0,-3.78848,-3.82123,-21.5147,Q,Q
2023-03-15 21:40:18:174,0,-3.79515,-3.8212,-21.5112,Q,Q
2023-03-15 21:40:18:184,0,-3.80716,-3.81693,-21.5056,Q,Q
2023-03-15 21:40:18:193,0,-3.81772,-3.81368,-21.503,Q,Q
2023-03-15 21:40:18:203,0,-3.82723,-3.8062,-21.5051,Q,Q
2023-03-15 21:40:18:214,0,-3.83285,-3.80126,-21.5064,Q,Q
2023-03-15 21:40:18:224,0,-3.8315,-3.7993,-21.5081,Q,Q
2023-03-15 21:40:18:234,0,-3.82915,-3.80265,-21.5115,Q,Q
2023-03-15 21:40:18:243,0,-3.82106,-3.81152,-21.5182,Q,Q
2023-03-15 21:40:18:254,0,-3.81225,-3.81943,-21.5272,Q,Q
2023-03-15 21:40:18:263,0,-3.79897,-3.82752,-21.5383,Q,Q
2023-03-15 21:40:18:274,0,-3.78592,-3.82914,-21.5481,Q,Q
2023-03-15 21:40:18:283,0,-3.7767,-3.8345,-21.5596,Q,Q
2023-03-15 21:40:18:293,0,-3.76747,-3.8373,-21.5721,Q,Q
2023-03-15 21:40:18:303,0,-3.75792,-3.84293,-21.5801,Q,Q
2023-03-15 21:40:18:314,0,-3.74789,-3.84569,-21.5872,Q,Q
2023-03-15 21:40:18:324,0,-3.73861,-3.84992,-21.596,Q,Q
2023-03-15 21:40:18:334,0,-3.72665,-3.84886,-21.6072,Q,Q
2023-03-15 21:40:18:344,0,-3.71868,-3.84601,-21.61,Q,Q
2023-03-15 21:40:18:354,0,-3.70871,-3.84179,-21.616,Q,Q
2023-03-15 21:40:18:363,0,-3.70104,-3.83808,-21.6208,Q,Q
2023-03-15 21:40:18:373,0,-3.69249,-3.82851,-21.6276,Q,Q
2023-03-15 21:40:18:383,0,-3.67956,-3.82291,-21.6307,Q,Q
2023-03-15 21:40:18:394,0,-3.67019,-3.81519,-21.6355,Q,Q
2023-03-15 21:40:18:404,0,-3.6594,-3.81315,-21.6381,Q,Q
2023-03-15 21:40:18:414,0,-3.65157,-3.80982,-21.6408,Q,Q
2023-03-15 21:40:18:424,0,-3.64551,-3.80755,-21.6443,Q,Q
2023-03-15 21:40:18:434,0,-3.64075,-3.80105,-21.6487,Q,Q
2023-03-15 21:40:18:443,0,-3.63254,-3.79369,-21.6524,Q,Q
2023-03-15 21:40:18:454,0,-3.62458,-3.7837,-21.6529,Q,Q
2023-03-15 21:40:18:464,0,-3.6174,-3.77749,-21.6538,Q,Q
2023-03-15 21:40:18:473,0,-3.60935,-3.77103,-21.6514,Q,Q
2023-03-15 21:40:18:483,0,-3.60075,-3.77012,-21.6523,Q,Q
2023-03-15 21:40:18:494,0,-3.59188,-3.76892,-21.6532,Q,Q
2023-03-15 21:40:18:503,0,-3.58399,-3.76858,-21.6504,Q,Q
2023-03-15 21:40:18:514,0,-3.57739,-3.76418,-21.6466,Q,Q
2023-03-15 21:40:18:523,0,-3.56675,-3.75853,-21.6433,Q,Q
2023-03-15 21:40:18:534,0,-3.56064,-3.75313,-21.6399,Q,Q
2023-03-15 21:40:18:543,0,-3.55865,-3.75187,-21.6412,Q,Q
2023-03-15 21:40:18:554,0,-3.55573,-3.75017,-21.642,Q,Q
2023-03-15 21:40:18:563,0,-3.54964,-3.74977,-21.6401,Q,Q
2023-03-15 21:40:18:574,0,-3.54181,-3.74407,-21.6396,Q,Q
2023-03-15 21:40:18:583,0,-3.53317,-3.74634,-21.6411,Q,Q
2023-03-15 21:40:18:594,0,-3.52349,-3.74705,-21.6424,Q,Q
2023-03-15 21:40:18:603,0,-3.50858,-3.74836,-21.6442,Q,Q
2023-03-15 21:40:18:614,0,-3.49414,-3.75168,-21.6432,Q,Q
2023-03-15 21:40:18:624,0,-3.47912,-3.75878,-21.6466,Q,Q
2023-03-15 21:40:18:634,0,-3.46097,-3.76597,-21.6472,Q,Q
2023-03-15 21:40:18:644,0,-3.44401,-3.76915,-21.6454,Q,Q
2023-03-15 21:40:18:653,0,-3.42831,-3.7721,-21.6442,Q,Q
2023-03-15 21:40:18:663,0,-3.41379,-3.77931,-21.6432,Q,Q
2023-03-15 21:40:18:673,0,-3.40184,-3.78493,-21.6424,Q,Q
2023-03-15 21:40:18:683,0,-3.39215,-3.78968,-21.6385,Q,Q
2023-03-15 21:40:18:693,0,-3.38328,-3.79789,-21.6356,Q,Q
2023-03-15 21:40:18:703,0,-3.37204,-3.80292,-21.6315,Q,Q
2023-03-15 21:40:18:714,0,-3.36216,-3.80664,-21.6244,Q,Q
2023-03-15 21:40:18:723,0,-3.35646,-3.81011,-21.6186,Q,Q
2023-03-15 21:40:18:734,0,-3.35037,-3.81108,-21.6127,Q,Q
2023-03-15 21:40:18:743,0,-3.34427,-3.81149,-21.603,Q,Q
2023-03-15 21:40:18:754,0,-3.33629,-3.81184,-21.6007,Q,Q
2023-03-15 21:40:18:763,0,-3.3327,-3.81523,-21.5948,Q,Q
2023-03-15 21:40:18:774,0,-3.3297,-3.81705,-21.5952,Q,Q
2023-03-15 21:40:18:783,0,-3.32826,-3.81609,-21.5962,Q,Q
2023-03-15 21:40:18:794,0,-3.32868,-3.81601,-21.598,Q,Q
2023-03-15 21:40:18:803,0,-3.32929,-3.81268,-21.5989,Q,Q
2023-03-15 21:40:18:814,0,-3.32713,-3.8136,-21.5965,Q,Q
2023-03-15 21:40:18:823,0,-3.32417,-3.81168,-21.6009,Q,Q
2023-03-15 21:40:18:834,0,-3.32076,-3.81163,-21.6018,Q,Q
2023-03-15 21:40:18:843,0,-3.31551,-3.80797,-21.6021,Q,Q
2023-03-15 21:40:18:854,0,-3.3115,-3.80149,-21.6029,Q,Q
2023-03-15 21:40:18:863,0,-3.30711,-3.79351,-21.6039,Q,Q
2023-03-15 21:40:18:874,0,-3.30215,-3.7901,-21.6057,Q,Q
2023-03-15 21:40:18:883,0,-3.29232,-3.78928,-21.6071,Q,Q
2023-03-15 21:40:18:893,0,-3.286,-3.7945,-21.6108,Q,Q
2023-03-15 21:40:18:903,0,-3.2841,-3.79968,-21.6142,Q,Q
2023-03-15 21:40:18:913,0,-3.28282,-3.80259,-21.6145,Q,Q
2023-03-15 21:40:18:923,0,-3.28605,-3.80392,-21.6181,Q,Q
2023-03-15 21:40:18:934,0,-3.29374,-3.80549,-21.621,Q,Q
2023-03-15 21:40:18:944,0,-3.30807,-3.80587,-21.622,Q,Q
2023-03-15 21:40:18:954,0,-3.32218,-3.80724,-21.6198,Q,Q
2023-03-15 21:40:18:964,0,-3.34586,-3.80989,-21.6202,Q,Q
2023-03-15 21:40:18:974,0,-3.36899,-3.81109,-21.6204,Q,Q
2023-03-15 21:40:18:983,0,-3.39011,-3.81359,-21.6168,Q,Q
2023-03-15 21:40:18:994,0,-3.41222,-3.81416,-21.6157,Q,Q
2023-03-15 21:40:19:4,0,-3.42699,-3.81095,-21.6179,Q,Q
2023-03-15 21:40:19:14,0,-3.44155,-3.80996,-21.6213,Q,Q
2023-03-15 21:40:19:23,0,-3.44852,-3.80316,-21.6224,Q,Q
2023-03-15 21:40:19:33,0,-3.45745,-3.80071,-21.6294,Q,Q
2023-03-15 21:40:19:43,0,-3.46149,-3.7981,-21.6405,Q,Q
2023-03-15 21:40:19:54,0,-3.46052,-3.79495,-21.6483,Q,Q
2023-03-15 21:40:19:63,0,-3.46238,-3.79109,-21.658,Q,Q
2023-03-15 21:40:19:74,0,-3.46428,-3.79301,-21.6679,Q,Q
2023-03-15 21:40:19:83,0,-3.4701,-3.7907,-21.6777,Q,Q
2023-03-15 21:40:19:94,0,-3.4777,-3.78685,-21.685,Q,Q
2023-03-15 21:40:19:104,0,-3.48171,-3.78145,-21.6942,Q,Q
2023-03-15 21:40:19:114,0,-3.48511,-3.77686,-21.6991,Q,Q
2023-03-15 21:40:19:123,0,-3.48471,-3.77639,-21.6983,Q,Q
2023-03-15 21:40:19:134,0,-3.48298,-3.77703,-21.6914,Q,Q
2023-03-15 21:40:19:143,0,-3.47724,-3.77673,-21.6857,Q,Q
2023-03-15 21:40:19:154,0,-3.47247,-3.77385,-21.6793,Q,Q
2023-03-15 21:40:19:163,0,-3.46749,-3.77364,-21.6755,Q,Q
2023-03-15 21:40:19:173,0,-3.46457,-3.76987,-21.6716,Q,Q
2023-03-15 21:40:19:183,0,-3.46268,-3.76369,-21.6681,Q,Q
2023-03-15 21:40:19:194,0,-3.45918,-3.76018,-21.6664,Q,Q
2023-03-15 21:40:19:203,0,-3.45384,-3.75225,-21.6634,Q,Q
2023-03-15 21:40:19:214,0,-3.44613,-3.74985,-21.6635,Q,Q
2023-03-15 21:40:19:223,0,-3.43843,-3.74932,-21.6638,Q,Q
2023-03-15 21:40:19:233,0,-3.42974,-3.74599,-21.6648,Q,Q
2023-03-15 21:40:19:243,0,-3.41875,-3.74468,-21.6657,Q,Q
2023-03-15 21:40:19:253,0,-3.40464,-3.74485,-21.6689,Q,Q
2023-03-15 21:40:19:264,0,-3.39206,-3.7434,-21.6734,Q,Q
2023-03-15 21:40:19:274,0,-3.38291,-3.74308,-21.6796,Q,Q
2023-03-15 21:40:19:284,0,-3.37404,-3.74292,-21.6828,Q,Q
2023-03-15 21:40:19:294,0,-3.36897,-3.74378,-21.6877,Q,Q
2023-03-15 21:40:19:303,0,-3.36386,-3.74552,-21.6891,Q,Q
2023-03-15 21:40:19:314,0,-3.36427,-3.74352,-21.6894,Q,Q
2023-03-15 21:40:19:324,0,-3.36412,-3.74466,-21.6895,Q,Q
2023-03-15 21:40:19:334,0,-3.36858,-3.74579,-21.6878,Q,Q
2023-03-15 21:40:19:343,0,-3.37068,-3.74263,-21.6873,Q,Q
2023-03-15 21:40:19:354,0,-3.37645,-3.74616,-21.6837,Q,Q
2023-03-15 21:40:19:363,0,-3.38169,-3.74732,-21.6819,Q,Q
2023-03-15 21:40:19:374,0,-3.38662,-3.74734,-21.6794,Q,Q
2023-03-15 21:40:19:384,0,-3.39348,-3.74633,-21.6739,Q,Q
2023-03-15 21:40:19:393,0,-3.40226,-3.74604,-21.6674,Q,Q
2023-03-15 21:40:19:403,0,-3.4073,-3.74711,-21.6669,Q,Q
2023-03-15 21:40:19:414,0,-3.41705,-3.74636,-21.6693,Q,Q
2023-03-15 21:40:19:424,0,-3.42458,-3.74683,-21.6708,Q,Q
2023-03-15 21:40:19:433,0,-3.42924,-3.74784,-21.6753,Q,Q
2023-03-15 21:40:19:444,0,-3.43143,-3.74313,-21.6782,Q,Q
2023-03-15 21:40:19:454,0,-3.4333,-3.73925,-21.6874,Q,Q
2023-03-15 21:40:19:464,0,-3.43014,-3.73915,-21.6949,Q,Q
2023-03-15 21:40:19:474,0,-3.42535,-3.73744,-21.7032,Q,Q
2023-03-15 21:40:19:484,0,-3.42285,-3.73756,-21.7088,Q,Q
2023-03-15 21:40:19:494,0,-3.42034,-3.73493,-21.7133,Q,Q
2023-03-15 21:40:19:503,0,-3.41691,-3.73031,-21.72,Q,Q
2023-03-15 21:40:19:514,0,-3.41744,-3.72172,-21.7197,Q,Q
2023-03-15 21:40:19:524,0,-3.41091,-3.71471,-21.7221,Q,Q
2023-03-15 21:40:19:534,0,-3.40223,-3.70791,-21.7203,Q,Q
2023-03-15 21:40:19:544,0,-3.3966,-3.7093,-21.7213,Q,Q
2023-03-15 21:40:19:554,0,-3.38936,-3.71231,-21.7164,Q,Q
2023-03-15 21:40:19:563,0,-3.38702,-3.71601,-21.7096,Q,Q
2023-03-15 21:40:19:574,0,-3.38511,-3.72163,-21.7043,Q,Q
2023-03-15 21:40:19:583,0,-3.38571,-3.72371,-21.6991,Q,Q
2023-03-15 21:40:19:593,0,-3.3876,-3.7275,-21.693,Q,Q
2023-03-15 21:40:19:603,0,-3.39627,-3.73038,-21.6839,Q,Q
2023-03-15 21:40:19:614,0,-3.40826,-3.73186,-21.6753,Q,Q
2023-03-15 21:40:19:623,0,-3.42124,-3.73513,-21.6668,Q,Q
2023-03-15 21:40:19:634,0,-3.4327,-3.73887,-21.6615,Q,Q
2023-03-15 21:40:19:644,0,-3.44823,-3.74641,-21.6541,Q,Q
2023-03-15 21:40:19:654,0,-3.465,-3.74647,-21.6455,Q,Q
2023-03-15 21:40:19:663,0,-3.47698,-3.74585,-21.6427,Q,Q
2023-03-15 21:40:19:673,0,-3.48653,-3.74229,-21.6449,Q,Q
2023-03-15 21:40:19:683,0,-3.49341,-3.74183,-21.65,Q,Q
2023-03-15 21:40:19:693,0,-3.49754,-3.74107,-21.6581,Q,Q
2023-03-15 21:40:19:703,0,-3.49734,-3.7393,-21.6702,Q,Q
2023-03-15 21:40:19:714,0,-3.4998,-3.73875,-21.6812,Q,Q
2023-03-15 21:40:19:723,0,-3.49759,-3.73775,-21.6877,Q,Q
2023-03-15 21:40:19:734,0,-3.50276,-3.7432,-21.6955,Q,Q
2023-03-15 21:40:19:743,0,-3.50933,-3.74393,-21.7013,Q,Q
2023-03-15 21:40:19:754,0,-3.51317,-3.73805,-21.7079,Q,Q
2023-03-15 21:40:19:763,0,-3.51532,-3.73661,-21.7104,Q,Q
2023-03-15 21:40:19:774,0,-3.51558,-3.73779,-21.7098,Q,Q
2023-03-15 21:40:19:783,0,-3.52051,-3.73953,-21.7071,Q,Q
2023-03-15 21:40:19:793,0,-3.52332,-3.74701,-21.7037,Q,Q
2023-03-15 21:40:19:803,0,-3.52838,-3.75427,-21.6965,Q,Q
2023-03-15 21:40:19:814,0,-3.53243,-3.76176,-21.693,Q,Q
2023-03-15 21:40:19:823,0,-3.53844,-3.76807,-21.6885,Q,Q
2023-03-15 21:40:19:834,0,-3.54856,-3.77241,-21.6816,Q,Q
2023-03-15 21:40:19:843,0,-3.55394,-3.77743,-21.6776,Q,Q
2023-03-15 21:40:19:853,0,-3.55634,-3.7828,-21.6758,Q,Q
2023-03-15 21:40:19:863,0,-3.56032,-3.78703,-21.6742,Q,Q
2023-03-15 21:40:19:874,0,-3.56187,-3.79227,-21.672,Q,Q
2023-03-15 21:40:19:883,0,-3.55962,-3.79507,-21.6712,Q,Q
2023-03-15 21:40:19:894,0,-3.55895,-3.80099,-21.6705,Q,Q
2023-03-15 21:40:19:903,0,-3.55461,-3.80415,-21.6707,Q,Q
2023-03-15 21:40:19:913,0,-3.54989,-3.81085,-21.6725,Q,Q
2023-03-15 21:40:19:923,0,-3.54239,-3.81799,-21.6707,Q,Q
2023-03-15 21:40:19:933,0,-3.5351,-3.82016,-21.667,Q,Q
2023-03-15 21:40:19:943,0,-3.5254,-3.82297,-21.6639,Q,Q
2023-03-15 21:40:19:954,0,-3.51399,-3.8268,-21.658,Q,Q
2023-03-15 21:40:19:963,0,-3.51155,-3.83197,-21.6479,Q,Q
2023-03-15 21:40:19:974,0,-3.51154,-3.83401,-21.639,Q,Q
2023-03-15 21:40:19:984,0,-3.51173,-3.83558,-21.6241,Q,Q
2023-03-15 21:40:19:994,0,-3.5102,-3.83726,-21.616,Q,Q
2023-03-15 21:40:20:3,0,-3.51591,-3.84117,-21.6054,Q,Q
2023-03-15 21:40:20:14,0,-3.52138,-3.84341,-21.5945,Q,Q
2023-03-15 21:40:20:23,0,-3.52854,-3.84735,-21.5853,Q,Q
2023-03-15 21:40:20:34,0,-3.5361,-3.85042,-21.5795,Q,Q
2023-03-15 21:40:20:43,0,-3.54829,-3.8548,-21.5722,Q,Q
2023-03-15 21:40:20:54,0,-3.56064,-3.86095,-21.5697,Q,Q
2023-03-15 21:40:20:64,0,-3.57008,-3.86423,-21.5694,Q,Q
2023-03-15 21:40:20:73,0,-3.5793,-3.86837,-21.5678,Q,Q
2023-03-15 21:40:20:83,0,-3.59002,-3.87138,-21.5698,Q,Q
2023-03-15 21:40:20:94,0,-3.59537,-3.87479,-21.5732,Q,Q
2023-03-15 21:40:20:103,0,-3.60606,-3.87936,-21.5754,Q,Q
2023-03-15 21:40:20:113,0,-3.61142,-3.88474,-21.5795,Q,Q
2023-03-15 21:40:20:123,0,-3.61939,-3.88823,-21.5801,Q,Q
2023-03-15 21:40:20:134,0,-3.62306,-3.896,-21.5819,Q,Q
2023-03-15 21:40:20:143,0,-3.6252,-3.89824,-21.5843,Q,Q
2023-03-15 21:40:20:154,0,-3.63254,-3.90023,-21.5796,Q,Q
2023-03-15 21:40:20:163,0,-3.63571,-3.90258,-21.5753,Q,Q
2023-03-15 21:40:20:174,0,-3.6382,-3.8994,-21.5704,Q,Q
2023-03-15 21:40:20:184,0,-3.64039,-3.90062,-21.5685,Q,Q
2023-03-15 21:40:20:193,0,-3.64358,-3.90107,-21.5643,Q,Q
2023-03-15 21:40:20:203,0,-3.64955,-3.8977,-21.5585,Q,Q
2023-03-15 21:40:20:214,0,-3.65997,-3.89506,-21.5569,Q,Q
2023-03-15 21:40:20:224,0,-3.66704,-3.88915,-21.5566,Q,Q
2023-03-15 21:40:20:233,0,-3.67054,-3.87648,-21.5616,Q,Q
2023-03-15 21:40:20:243,0,-3.66769,-3.86883,-21.5692,Q,Q
2023-03-15 21:40:20:254,0,-3.66257,-3.86457,-21.5737,Q,Q
2023-03-15 21:40:20:264,0,-3.65931,-3.86043,-21.5823,Q,Q
2023-03-15 21:40:20:274,0,-3.66188,-3.85819,-21.5954,Q,Q
2023-03-15 21:40:20:283,0,-3.66426,-3.85197,-21.6095,Q,Q
2023-03-15 21:40:20:293,0,-3.6736,-3.84184,-21.6241,Q,Q
2023-03-15 21:40:20:303,0,-3.69248,-3.83289,-21.6398,Q,Q
2023-03-15 21:40:20:314,0,-3.7126,-3.82355,-21.6581,Q,Q
2023-03-15 21:40:20:323,0,-3.73165,-3.8164,-21.672,Q,Q
2023-03-15 21:40:20:334,0,-3.7511,-3.80608,-21.6825,Q,Q
2023-03-15 21:40:20:344,0,-3.76959,-3.79767,-21.6902,Q,Q
2023-03-15 21:40:20:353,0,-3.78341,-3.79012,-21.6947,Q,Q
2023-03-15 21:40:20:363,0,-3.79283,-3.78165,-21.7027,Q,Q
2023-03-15 21:40:20:374,0,-3.80203,-3.77772,-21.7076,Q,Q
2023-03-15 21:40:20:384,0,-3.81296,-3.77316,-21.7105,Q,Q
2023-03-15 21:40:20:394,0,-3.81872,-3.76582,-21.7141,Q,Q
2023-03-15 21:40:20:404,0,-3.8224,-3.75431,-21.7164,Q,Q
2023-03-15 21:40:20:413,0,-3.82849,-3.75157,-21.7172,Q,Q
2023-03-15 21:40:20:423,0,-3.83005,-3.74907,-21.7157,Q,Q
2023-03-15 21:40:20:433,0,-3.83228,-3.74969,-21.7156,Q,Q
2023-03-15 21:40:20:443,0,-3.83979,-3.75226,-21.7129,Q,Q
2023-03-15 21:40:20:453,0,-3.84781,-3.75272,-21.708,Q,Q
2023-03-15 21:40:20:463,0,-3.84985,-3.75232,-21.7049,Q,Q
2023-03-15 21:40:20:473,0,-3.85252,-3.75399,-21.6986,Q,Q
2023-03-15 21:40:20:483,0,-3.85528,-3.75765,-21.6913,Q,Q
2023-03-15 21:40:20:494,0,-3.86195,-3.76387,-21.6879,Q,Q
2023-03-15 21:40:20:503,0,-3.8695,-3.77282,-21.683,Q,Q
2023-03-15 21:40:20:514,0,-3.87822,-3.779,-21.6776,Q,Q
2023-03-15 21:40:20:523,0,-3.88399,-3.78735,-21.6691,Q,Q
2023-03-15 21:40:20:533,0,-3.88944,-3.78935,-21.6656,Q,Q
2023-03-15 21:40:20:544,0,-3.89218,-3.7925,-21.6601,Q,Q
2023-03-15 21:40:20:554,0,-3.88637,-3.7951,-21.655,Q,Q
2023-03-15 21:40:20:564,0,-3.88481,-3.80104,-21.6534,Q,Q
2023-03-15 21:40:20:574,0,-3.87977,-3.80958,-21.651,Q,Q
2023-03-15 21:40:20:584,0,-3.86585,-3.81686,-21.649,Q,Q
2023-03-15 21:40:20:594,0,-3.85348,-3.82236,-21.6472,Q,Q
2023-03-15 21:40:20:603,0,-3.8421,-3.83149,-21.6466,Q,Q
2023-03-15 21:40:20:613,0,-3.82969,-3.84319,-21.6494,Q,Q
2023-03-15 21:40:20:623,0,-3.81973,-3.85111,-21.6486,Q,Q
2023-03-15 21:40:20:633,0,-3.80782,-3.85647,-21.6477,Q,Q
2023-03-15 21:40:20:643,0,-3.79728,-3.86323,-21.6432,Q,Q
2023-03-15 21:40:20:654,0,-3.78784,-3.86922,-21.6444,Q,Q
2023-03-15 21:40:20:664,0,-3.77554,-3.87861,-21.6409,Q,Q
2023-03-15 21:40:20:674,0,-3.76157,-3.88363,-21.6339,Q,Q
2023-03-15 21:40:20:683,0,-3.74851,-3.88825,-21.6233,Q,Q
2023-03-15 21:40:20:694,0,-3.74204,-3.8932,-21.6138,Q,Q
2023-03-15 21:40:20:703,0,-3.73484,-3.89823,-21.6027,Q,Q
2023-03-15 21:40:20:713,0,-3.73484,-3.90149,-21.5917,Q,Q
2023-03-15 21:40:20:723,0,-3.73976,-3.90107,-21.5811,Q,Q
2023-03-15 21:40:20:733,0,-3.74558,-3.90218,-21.5714,Q,Q
2023-03-15 21:40:20:743,0,-3.74786,-3.90268,-21.5647,Q,Q
2023-03-15 21:40:20:754,0,-3.7496,-3.90444,-21.5609,Q,Q
2023-03-15 21:40:20:763,0,-3.75099,-3.90758,-21.5569,Q,Q
2023-03-15 21:40:20:774,0,-3.75065,-3.9107,-21.5527,Q,Q
2023-03-15 21:40:20:783,0,-3.7498,-3.90942,-21.5558,Q,Q
2023-03-15 21:40:20:794,0,-3.7463,-3.90749,-21.5612,Q,Q
2023-03-15 21:40:20:804,0,-3.7417,-3.90964,-21.5668,Q,Q
2023-03-15 21:40:20:814,0,-3.7417,-3.91141,-21.5715,Q,Q
2023-03-15 21:40:20:824,0,-3.73899,-3.91269,-21.5726,Q,Q
2023-03-15 21:40:20:833,0,-3.73684,-3.91153,-21.5762,Q,Q
2023-03-15 21:40:20:843,0,-3.73411,-3.91355,-21.5814,Q,Q
2023-03-15 21:40:20:853,0,-3.73031,-3.91529,-21.5838,Q,Q
2023-03-15 21:40:20:863,0,-3.72699,-3.91966,-21.585,Q,Q
2023-03-15 21:40:20:874,0,-3.72221,-3.922,-21.5804,Q,Q
2023-03-15 21:40:20:883,0,-3.71186,-3.92612,-21.5779,Q,Q
2023-03-15 21:40:20:894,0,-3.70483,-3.92914,-21.5747,Q,Q
2023-03-15 21:40:20:903,0,-3.69865,-3.92741,-21.5714,Q,Q
2023-03-15 21:40:20:913,0,-3.68962,-3.92554,-21.5661,Q,Q
2023-03-15 21:40:20:923,0,-3.67838,-3.92509,-21.5702,Q,Q
2023-03-15 21:40:20:933,0,-3.66689,-3.92962,-21.5713,Q,Q
2023-03-15 21:40:20:943,0,-3.6613,-3.93871,-21.5672,Q,Q
2023-03-15 21:40:20:953,0,-3.65978,-3.94623,-21.5665,Q,Q
2023-03-15 21:40:20:963,0,-3.6593,-3.9543,-21.5672,Q,Q
2023-03-15 21:40:20:973,0,-3.65795,-3.95985,-21.5674,Q,Q
2023-03-15 21:40:20:983,0,-3.66455,-3.96475,-21.5675,Q,Q
2023-03-15 21:40:20:994,0,-3.67323,-3.96651,-21.57,Q,Q
2023-03-15 21:40:21:3,0,-3.68501,-3.96687,-21.573,Q,Q
2023-03-15 21:40:21:14,0,-3.69719,-3.96736,-21.5744,Q,Q
2023-03-15 21:40:21:23,0,-3.70633,-3.96586,-21.5763,Q,Q
2023-03-15 21:40:21:34,0,-3.71564,-3.96264,-21.5768,Q,Q
2023-03-15 21:40:21:43,0,-3.72153,-3.95658,-21.5807,Q,Q
2023-03-15 21:40:21:54,0,-3.72674,-3.95088,-21.5826,Q,Q
2023-03-15 21:40:21:63,0,-3.72978,-3.94618,-21.5882,Q,Q
2023-03-15 21:40:21:74,0,-3.72918,-3.94048,-21.5955,Q,Q
2023-03-15 21:40:21:83,0,-3.72429,-3.93652,-21.6029,Q,Q
2023-03-15 21:40:21:93,0,-3.71972,-3.93466,-21.6079,Q,Q
2023-03-15 21:40:21:103,0,-3.7173,-3.93193,-21.6129,Q,Q
2023-03-15 21:40:21:114,0,-3.71295,-3.9349,-21.6133,Q,Q
2023-03-15 21:40:21:124,0,-3.70919,-3.9368,-21.6131,Q,Q
2023-03-15 21:40:21:134,0,-3.70816,-3.9351,-21.6132,Q,Q
2023-03-15 21:40:21:143,0,-3.70956,-3.93131,-21.611,Q,Q
2023-03-15 21:40:21:154,0,-3.71229,-3.93021,-21.6059,Q,Q
2023-03-15 21:40:21:163,0,-3.70967,-3.93049,-21.5988,Q,Q
2023-03-15 21:40:21:174,0,-3.71385,-3.92909,-21.5947,Q,Q
2023-03-15 21:40:21:184,0,-3.71299,-3.93198,-21.5889,Q,Q
2023-03-15 21:40:21:194,0,-3.71531,-3.9314,-21.5808,Q,Q
2023-03-15 21:40:21:203,0,-3.71798,-3.93325,-21.5723,Q,Q
2023-03-15 21:40:21:213,0,-3.71998,-3.93453,-21.5657,Q,Q
2023-03-15 21:40:21:223,0,-3.72312,-3.93534,-21.5604,Q,Q
2023-03-15 21:40:21:234,0,-3.72247,-3.93721,-21.5542,Q,Q
2023-03-15 21:40:21:243,0,-3.71886,-3.93849,-21.5519,Q,Q
2023-03-15 21:40:21:254,0,-3.71162,-3.93751,-21.552,Q,Q
2023-03-15 21:40:21:263,0,-3.70514,-3.93976,-21.5504,Q,Q
2023-03-15 21:40:21:274,0,-3.69199,-3.94127,-21.5516,Q,Q
2023-03-15 21:40:21:283,0,-3.67726,-3.94635,-21.5571,Q,Q
2023-03-15 21:40:21:293,0,-3.66515,-3.94999,-21.5616,Q,Q
2023-03-15 21:40:21:303,0,-3.65159,-3.95067,-21.5659,Q,Q
2023-03-15 21:40:21:313,0,-3.63861,-3.95225,-21.5698,Q,Q
2023-03-15 21:40:21:323,0,-3.62555,-3.95221,-21.5695,Q,Q
2023-03-15 21:40:21:334,0,-3.61374,-3.95421,-21.5715,Q,Q
2023-03-15 21:40:21:343,0,-3.60456,-3.95488,-21.5696,Q,Q
2023-03-15 21:40:21:353,0,-3.59579,-3.9556,-21.5659,Q,Q
2023-03-15 21:40:21:364,0,-3.59357,-3.95513,-21.5598,Q,Q
2023-03-15 21:40:21:374,0,-3.595,-3.96029,-21.5549,Q,Q
2023-03-15 21:40:21:383,0,-3.5959,-3.96502,-21.5501,Q,Q
2023-03-15 21:40:21:394,0,-3.59682,-3.9662,-21.5454,Q,Q
2023-03-15 21:40:21:403,0,-3.60037,-3.96833,-21.5371,Q,Q
2023-03-15 21:40:21:414,0,-3.6075,-3.96841,-21.5324,Q,Q
2023-03-15 21:40:21:423,0,-3.61555,-3.96696,-21.5289,Q,Q
2023-03-15 21:40:21:434,0,-3.62302,-3.96566,-21.5271,Q,Q
2023-03-15 21:40:21:443,0,-3.62813,-3.96194,-21.5274,Q,Q
2023-03-15 21:40:21:453,0,-3.6343,-3.95855,-21.5285,Q,Q
2023-03-15 21:40:21:463,0,-3.63923,-3.95636,-21.53,Q,Q
2023-03-15 21:40:21:474,0,-3.64781,-3.95425,-21.5316,Q,Q
2023-03-15 21:40:21:483,0,-3.65469,-3.95371,-21.5304,Q,Q
2023-03-15 21:40:21:493,0,-3.65863,-3.95019,-21.534,Q,Q
2023-03-15 21:40:21:503,0,-3.66232,-3.94972,-21.5377,Q,Q
2023-03-15 21:40:21:513,0,-3.66713,-3.95435,-21.5422,Q,Q
2023-03-15 21:40:21:523,0,-3.67522,-3.95869,-21.5432,Q,Q
2023-03-15 21:40:21:533,0,-3.68395,-3.96119,-21.5461,Q,Q
2023-03-15 21:40:21:543,0,-3.68885,-3.96488,-21.5433,Q,Q
2023-03-15 21:40:21:554,0,-3.69626,-3.96837,-21.5362,Q,Q
2023-03-15 21:40:21:563,0,-3.7028,-3.97714,-21.5305,Q,Q
2023-03-15 21:40:21:574,0,-3.7111,-3.98373,-21.5224,Q,Q
2023-03-15 21:40:21:583,0,-3.71225,-3.98707,-21.514,Q,Q
2023-03-15 21:40:21:594,0,-3.71187,-3.99082,-21.5001,Q,Q
2023-03-15 21:40:21:603,0,-3.71169,-3.99456,-21.4937,Q,Q
2023-03-15 21:40:21:614,0,-3.71111,-3.9984,-21.4843,Q,Q
2023-03-15 21:40:21:623,0,-3.70975,-3.99909,-21.4763,Q,Q
2023-03-15 21:40:21:634,0,-3.70708,-3.99834,-21.47,Q,Q
2023-03-15 21:40:21:643,0,-3.70706,-3.99538,-21.4687,Q,Q
2023-03-15 21:40:21:654,0,-3.70104,-3.99285,-21.4703,Q,Q
2023-03-15 21:40:21:663,0,-3.69015,-3.99139,-21.4735,Q,Q
2023-03-15 21:40:21:673,0,-3.68364,-3.9953,-21.4769,Q,Q
2023-03-15 21:40:21:684,0,-3.67846,-4.00538,-21.4812,Q,Q
2023-03-15 21:40:21:694,0,-3.67552,-4.01044,-21.489,Q,Q
2023-03-15 21:40:21:704,0,-3.67282,-4.01533,-21.4978,Q,Q
2023-03-15 21:40:21:714,0,-3.67722,-4.01721,-21.5044,Q,Q
2023-03-15 21:40:21:723,0,-3.68698,-4.01878,-21.504,Q,Q
2023-03-15 21:40:21:734,0,-3.70041,-4.02011,-21.5069,Q,Q
2023-03-15 21:40:21:743,0,-3.72141,-4.02576,-21.5055,Q,Q
2023-03-15 21:40:21:754,0,-3.74629,-4.02994,-21.5024,Q,Q
2023-03-15 21:40:21:763,0,-3.77505,-4.03418,-21.499,Q,Q
2023-03-15 21:40:21:773,0,-3.79556,-4.03287,-21.4983,Q,Q
2023-03-15 21:40:21:783,0,-3.81635,-4.03172,-21.4977,Q,Q
2023-03-15 21:40:21:794,0,-3.83614,-4.0288,-21.4969,Q,Q
2023-03-15 21:40:21:803,0,-3.84837,-4.02776,-21.4969,Q,Q
2023-03-15 21:40:21:814,0,-3.85414,-4.02222,-21.5032,Q,Q
2023-03-15 21:40:21:823,0,-3.8575,-4.01708,-21.5084,Q,Q
2023-03-15 21:40:21:834,0,-3.86024,-4.01582,-21.5161,Q,Q
2023-03-15 21:40:21:844,0,-3.86297,-4.01023,-21.5225,Q,Q
2023-03-15 21:40:21:854,0,-3.86366,-4.00962,-21.5315,Q,Q
2023-03-15 21:40:21:864,0,-3.86482,-4.00419,-21.5363,Q,Q
2023-03-15 21:40:21:874,0,-3.86606,-3.99708,-21.5388,Q,Q
2023-03-15 21:40:21:883,0,-3.8781,-3.99385,-21.5442,Q,Q
2023-03-15 21:40:21:894,0,-3.88304,-3.98898,-21.5481,Q,Q
2023-03-15 21:40:21:903,0,-3.88603,-3.98202,-21.5511,Q,Q
2023-03-15 21:40:21:914,0,-3.89193,-3.98073,-21.5523,Q,Q
2023-03-15 21:40:21:923,0,-3.90004,-3.98218,-21.5525,Q,Q
2023-03-15 21:40:21:934,0,-3.90198,-3.9841,-21.5493,Q,Q
2023-03-15 21:40:21:943,0,-3.90561,-3.98895,-21.5456,Q,Q
2023-03-15 21:40:21:953,0,-3.90811,-3.99493,-21.5444,Q,Q
2023-03-15 21:40:21:963,0,-3.90963,-4.00143,-21.541,Q,Q
2023-03-15 21:40:21:973,0,-3.90883,-4.00185,-21.542,Q,Q
2023-03-15 21:40:21:983,0,-3.90714,-4.0038,-21.5409,Q,Q
2023-03-15 21:40:21:993,0,-3.89847,-4.00574,-21.5397,Q,Q
2023-03-15 21:40:22:3,0,-3.88906,-4.00894,-21.5431,Q,Q
2023-03-15 21:40:22:14,0,-3.87778,-4.01616,-21.5436,Q,Q
2023-03-15 21:40:22:23,0,-3.86546,-4.01753,-21.5429,Q,Q
2023-03-15 21:40:22:34,0,-3.85037,-4.02079,-21.5435,Q,Q
2023-03-15 21:40:22:44,0,-3.83188,-4.02668,-21.5399,Q,Q
2023-03-15 21:40:22:54,0,-3.81099,-4.02976,-21.5371,Q,Q
2023-03-15 21:40:22:64,0,-3.79155,-4.03482,-21.5346,Q,Q
2023-03-15 21:40:22:74,0,-3.76935,-4.03864,-21.5328,Q,Q
2023-03-15 21:40:22:83,0,-3.75097,-4.04301,-21.5277,Q,Q
2023-03-15 21:40:22:94,0,-3.73618,-4.04942,-21.5232,Q,Q
2023-03-15 21:40:22:104,0,-3.72541,-4.0542,-21.5162,Q,Q
2023-03-15 21:40:22:114,0,-3.71424,-4.05757,-21.5068,Q,Q
2023-03-15 21:40:22:123,0,-3.70702,-4.06105,-21.4975,Q,Q
2023-03-15 21:40:22:134,0,-3.70268,-4.06524,-21.4854,Q,Q
2023-03-15 21:40:22:143,0,-3.70029,-4.06721,-21.4778,Q,Q
2023-03-15 21:40:22:154,0,-3.69886,-4.06875,-21.4699,Q,Q
2023-03-15 21:40:22:164,0,-3.69846,-4.06968,-21.4586,Q,Q
2023-03-15 21:40:22:173,0,-3.69589,-4.06715,-21.4516,Q,Q
2023-03-15 21:40:22:183,0,-3.69639,-4.06698,-21.4473,Q,Q
2023-03-15 21:40:22:194,0,-3.69777,-4.06948,-21.4473,Q,Q
2023-03-15 21:40:22:204,0,-3.70132,-4.06805,-21.4498,Q,Q
2023-03-15 21:40:22:213,0,-3.70473,-4.06998,-21.4587,Q,Q
2023-03-15 21:40:22:223,0,-3.70528,-4.0711,-21.4655,Q,Q
2023-03-15 21:40:22:233,0,-3.70829,-4.0736,-21.4746,Q,Q
2023-03-15 21:40:22:243,0,-3.71188,-4.07579,-21.4861,Q,Q
2023-03-15 21:40:22:254,0,-3.71033,-4.07631,-21.4998,Q,Q
2023-03-15 21:40:22:263,0,-3.71078,-4.07357,-21.5129,Q,Q
2023-03-15 21:40:22:273,0,-3.7121,-4.07391,-21.5261,Q,Q
2023-03-15 21:40:22:283,0,-3.71071,-4.07267,-21.5352,Q,Q
2023-03-15 21:40:22:294,0,-3.70665,-4.07292,-21.545,Q,Q
2023-03-15 21:40:22:303,0,-3.70552,-4.07098,-21.5493,Q,Q
2023-03-15 21:40:22:313,0,-3.70432,-4.07238,-21.5511,Q,Q
2023-03-15 21:40:22:323,0,-3.70269,-4.06968,-21.5531,Q,Q
2023-03-15 21:40:22:333,0,-3.70394,-4.06191,-21.5537,Q,Q
2023-03-15 21:40:22:343,0,-3.7035,-4.05967,-21.5546,Q,Q
2023-03-15 21:40:22:353,0,-3.70297,-4.0576,-21.5489,Q,Q
2023-03-15 21:40:22:363,0,-3.70058,-4.05499,-21.5435,Q,Q
2023-03-15 21:40:22:374,0,-3.69996,-4.05126,-21.5433,Q,Q
2023-03-15 21:40:22:384,0,-3.69942,-4.04467,-21.5394,Q,Q
2023-03-15 21:40:22:394,0,-3.69086,-4.03674,-21.5373,Q,Q
2023-03-15 21:40:22:403,0,-3.68369,-4.03208,-21.5388,Q,Q
2023-03-15 21:40:22:414,0,-3.67395,-4.03117,-21.5358,Q,Q
2023-03-15 21:40:22:424,0,-3.66806,-4.03504,-21.5306,Q,Q
2023-03-15 21:40:22:433,0,-3.66613,-4.04341,-21.5291,Q,Q
2023-03-15 21:40:22:443,0,-3.66664,-4.04987,-21.5256,Q,Q
2023-03-15 21:40:22:454,0,-3.67169,-4.05526,-21.5209,Q,Q
2023-03-15 21:40:22:463,0,-3.68121,-4.05845,-21.515,Q,Q
2023-03-15 21:40:22:473,0,-3.69342,-4.06043,-21.5073,Q,Q
2023-03-15 21:40:22:483,0,-3.71183,-4.06378,-21.4983,Q,Q
2023-03-15 21:40:22:494,0,-3.73101,-4.06725,-21.4881,Q,Q
2023-03-15 21:40:22:503,0,-3.74969,-4.07426,-21.4828,Q,Q
2023-03-15 21:40:22:514,0,-3.77234,-4.08422,-21.4766,Q,Q
2023-03-15 21:40:22:523,0,-3.79618,-4.09121,-21.4746,Q,Q
2023-03-15 21:40:22:534,0,-3.81994,-4.09525,-21.478,Q,Q
2023-03-15 21:40:22:543,0,-3.8376,-4.10118,-21.4882,Q,Q
2023-03-15 21:40:22:554,0,-3.84941,-4.10318,-21.4997,Q,Q
2023-03-15 21:40:22:563,0,-3.86348,-4.10783,-21.5128,Q,Q
2023-03-15 21:40:22:574,0,-3.87197,-4.1088,-21.5308,Q,Q
2023-03-15 21:40:22:583,0,-3.87652,-4.10909,-21.5453,Q,Q
2023-03-15 21:40:22:594,0,-3.87692,-4.1104,-21.5638,Q,Q
2023-03-15 21:40:22:603,0,-3.86914,-4.11272,-21.5802,Q,Q
2023-03-15 21:40:22:614,0,-3.86436,-4.11247,-21.5947,Q,Q
2023-03-15 21:40:22:623,0,-3.8601,-4.11303,-21.6071,Q,Q
2023-03-15 21:40:22:634,0,-3.85764,-4.10879,-21.6175,Q,Q
2023-03-15 21:40:22:643,0,-3.8514,-4.10632,-21.6265,Q,Q
2023-03-15 21:40:22:653,0,-3.84741,-4.10467,-21.637,Q,Q
2023-03-15 21:40:22:663,0,-3.84384,-4.10661,-21.6477,Q,Q
2023-03-15 21:40:22:674,0,-3.83531,-4.11029,-21.6606,Q,Q
2023-03-15 21:40:22:683,0,-3.82595,-4.10788,-21.6768,Q,Q
2023-03-15 21:40:22:694,0,-3.81438,-4.10553,-21.6931,Q,Q
2023-03-15 21:40:22:703,0,-3.80163,-4.10662,-21.7114,Q,Q
2023-03-15 21:40:22:714,0,-3.7911,-4.10319,-21.7317,Q,Q
2023-03-15 21:40:22:723,0,-3.77731,-4.09904,-21.7544,Q,Q
2023-03-15 21:40:22:733,0,-3.76042,-4.08894,-21.7773,Q,Q
2023-03-15 21:40:22:743,0,-3.7453,-4.07388,-21.7975,Q,Q
2023-03-15 21:40:22:754,0,-3.73071,-4.05701,-21.8118,Q,Q
2023-03-15 21:40:22:763,0,-3.72044,-4.04002,-21.8234,Q,Q
2023-03-15 21:40:22:774,0,-3.71034,-4.02372,-21.8345,Q,Q
2023-03-15 21:40:22:783,0,-3.69699,-4.00848,-21.8398,Q,Q
2023-03-15 21:40:22:793,0,-3.68603,-3.9975,-21.8457,Q,Q
2023-03-15 21:40:22:803,0,-3.67721,-3.98388,-21.8483,Q,Q
2023-03-15 21:40:22:814,0,-3.66738,-3.97059,-21.8456,Q,Q
2023-03-15 21:40:22:823,0,-3.65706,-3.96087,-21.8419,Q,Q
2023-03-15 21:40:22:834,0,-3.64704,-3.95432,-21.8355,Q,Q
2023-03-15 21:40:22:843,0,-3.63465,-3.95149,-21.8297,Q,Q
2023-03-15 21:40:22:854,0,-3.62762,-3.94829,-21.8212,Q,Q
2023-03-15 21:40:22:863,0,-3.62169,-3.94991,-21.8117,Q,Q
2023-03-15 21:40:22:874,0,-3.61437,-3.95565,-21.8001,Q,Q
2023-03-15 21:40:22:883,0,-3.60909,-3.96314,-21.7844,Q,Q
2023-03-15 21:40:22:894,0,-3.60789,-3.96887,-21.7698,Q,Q
2023-03-15 21:40:22:903,0,-3.60797,-3.97583,-21.7581,Q,Q
2023-03-15 21:40:22:913,0,-3.61272,-3.98239,-21.7463,Q,Q
2023-03-15 21:40:22:923,0,-3.61195,-3.99353,-21.7341,Q,Q
2023-03-15 21:40:22:934,0,-3.61814,-4.0001,-21.7218,Q,Q
2023-03-15 21:40:22:943,0,-3.62615,-4.00714,-21.713,Q,Q
2023-03-15 21:40:22:954,0,-3.63526,-4.01133,-21.7035,Q,Q
2023-03-15 21:40:22:964,0,-3.6428,-4.01374,-21.6992,Q,Q
2023-03-15 21:40:22:973,0,-3.6513,-4.01874,-21.696,Q,Q
2023-03-15 21:40:22:984,0,-3.6634,-4.02445,-21.6948,Q,Q
2023-03-15 21:40:22:994,0,-3.67491,-4.03166,-21.6928,Q,Q
2023-03-15 21:40:23:4,0,-3.68974,-4.03729,-21.6943,Q,Q
2023-03-15 21:40:23:14,0,-3.70397,-4.044,-21.6948,Q,Q
2023-03-15 21:40:23:23,0,-3.71847,-4.04681,-21.698,Q,Q
2023-03-15 21:40:23:34,0,-3.7312,-4.04962,-21.699,Q,Q
2023-03-15 21:40:23:44,0,-3.74533,-4.05342,-21.7037,Q,Q
2023-03-15 21:40:23:53,0,-3.75834,-4.05527,-21.7054,Q,Q
2023-03-15 21:40:23:63,0,-3.76449,-4.05925,-21.7049,Q,Q
2023-03-15 21:40:23:74,0,-3.7702,-4.06272,-21.7039,Q,Q
2023-03-15 21:40:23:83,0,-3.77146,-4.06424,-21.7026,Q,Q
2023-03-15 21:40:23:94,0,-3.7697,-4.06835,-21.7003,Q,Q
2023-03-15 21:40:23:103,0,-3.76302,-4.07198,-21.6938,Q,Q
2023-03-15 21:40:23:114,0,-3.75614,-4.07533,-21.6862,Q,Q
2023-03-15 21:40:23:124,0,-3.74665,-4.0742,-21.6797,Q,Q
2023-03-15 21:40:23:134,0,-3.73705,-4.07509,-21.6724,Q,Q
2023-03-15 21:40:23:144,0,-3.72529,-4.0757,-21.6659,Q,Q
2023-03-15 21:40:23:154,0,-3.71158,-4.07818,-21.6582,Q,Q
2023-03-15 21:40:23:164,0,-3.70065,-4.07702,-21.6541,Q,Q
2023-03-15 21:40:23:174,0,-3.68937,-4.07464,-21.6483,Q,Q
2023-03-15 21:40:23:183,0,-3.68075,-4.07556,-21.646,Q,Q
2023-03-15 21:40:23:194,0,-3.67139,-4.07211,-21.6474,Q,Q
2023-03-15 21:40:23:203,0,-3.65453,-4.06994,-21.6496,Q,Q
2023-03-15 21:40:23:214,0,-3.64382,-4.07183,-21.6502,Q,Q
2023-03-15 21:40:23:224,0,-3.63371,-4.07956,-21.6479,Q,Q
2023-03-15 21:40:23:233,0,-3.6277,-4.08748,-21.6469,Q,Q
2023-03-15 21:40:23:243,0,-3.6254,-4.09482,-21.6445,Q,Q
2023-03-15 21:40:23:253,0,-3.63173,-4.10084,-21.6394,Q,Q
2023-03-15 21:40:23:263,0,-3.64174,-4.10415,-21.6359,Q,Q
2023-03-15 21:40:23:273,0,-3.65823,-4.10684,-21.631,Q,Q
2023-03-15 21:40:23:283,0,-3.67787,-4.11245,-21.6277,Q,Q
2023-03-15 21:40:23:294,0,-3.70353,-4.11326,-21.6271,Q,Q
2023-03-15 21:40:23:303,0,-3.7298,-4.1151,-21.625,Q,Q
2023-03-15 21:40:23:314,0,-3.75502,-4.12249,-21.6207,Q,Q
2023-03-15 21:40:23:323,0,-3.77952,-4.12725,-21.6212,Q,Q
2023-03-15 21:40:23:334,0,-3.80063,-4.13022,-21.623,Q,Q
2023-03-15 21:40:23:343,0,-3.81257,-4.13177,-21.6276,Q,Q
2023-03-15 21:40:23:354,0,-3.81977,-4.1351,-21.632,Q,Q
2023-03-15 21:40:23:364,0,-3.82343,-4.13846,-21.6361,Q,Q
2023-03-15 21:40:23:374,0,-3.82464,-4.14266,-21.6434,Q,Q
2023-03-15 21:40:23:383,0,-3.82248,-4.1448,-21.6477,Q,Q
2023-03-15 21:40:23:394,0,-3.81999,-4.15238,-21.653,Q,Q
2023-03-15 21:40:23:403,0,-3.81663,-4.15624,-21.6564,Q,Q
2023-03-15 21:40:23:414,0,-3.81587,-4.1623,-21.6566,Q,Q
2023-03-15 21:40:23:423,0,-3.81729,-4.16489,-21.6608,Q,Q
2023-03-15 21:40:23:434,0,-3.82067,-4.16682,-21.6608,Q,Q
2023-03-15 21:40:23:444,0,-3.82183,-4.16364,-21.6589,Q,Q
2023-03-15 21:40:23:454,0,-3.82096,-4.16509,-21.6527,Q,Q
2023-03-15 21:40:23:463,0,-3.81517,-4.1712,-21.6504,Q,Q
2023-03-15 21:40:23:473,0,-3.8128,-4.17084,-21.6469,Q,Q
2023-03-15 21:40:23:483,0,-3.80634,-4.17408,-21.6426,Q,Q
2023-03-15 21:40:23:493,0,-3.80107,-4.17792,-21.6405,Q,Q
2023-03-15 21:40:23:503,0,-3.79692,-4.17996,-21.6391,Q,Q
2023-03-15 21:40:23:514,0,-3.78959,-4.1808,-21.6399,Q,Q
2023-03-15 21:40:23:523,0,-3.78355,-4.18025,-21.6336,Q,Q
2023-03-15 21:40:23:534,0,-3.77582,-4.17993,-21.6295,Q,Q
2023-03-15 21:40:23:543,0,-3.76156,-4.17956,-21.6284,Q,Q
2023-03-15 21:40:23:553,0,-3.74411,-4.18266,-21.629,Q,Q
2023-03-15 21:40:23:563,0,-3.7251,-4.18598,-21.6267,Q,Q
2023-03-15 21:40:23:573,0,-3.70156,-4.19108,-21.6205,Q,Q
2023-03-15 21:40:23:583,0,-3.67846,-4.19611,-21.6155,Q,Q
2023-03-15 21:40:23:593,0,-3.65584,-4.20589,-21.6111,Q,Q
2023-03-15 21:40:23:603,0,-3.63079,-4.21578,-21.6036,Q,Q
2023-03-15 21:40:23:613,0,-3.60933,-4.23,-21.5973,Q,Q
2023-03-15 21:40:23:623,0,-3.58981,-4.239,-21.588,Q,Q
2023-03-15 21:40:23:633,0,-3.57335,-4.25026,-21.5773,Q,Q
2023-03-15 21:40:23:643,0,-3.55293,-4.26132,-21.5671,Q,Q
2023-03-15 21:40:23:654,0,-3.54186,-4.27051,-21.5552,Q,Q
2023-03-15 21:40:23:663,0,-3.53388,-4.28047,-21.5375,Q,Q
2023-03-15 21:40:23:673,0,-3.52708,-4.28931,-21.5256,Q,Q
2023-03-15 21:40:23:684,0,-3.52374,-4.30326,-21.5121,Q,Q
2023-03-15 21:40:23:694,0,-3.5211,-4.31218,-21.4998,Q,Q
2023-03-15 21:40:23:703,0,-3.52096,-4.31981,-21.4857,Q,Q
2023-03-15 21:40:23:714,0,-3.51857,-4.32488,-21.4741,Q,Q
2023-03-15 21:40:23:723,0,-3.51717,-4.33225,-21.464,Q,Q
2023-03-15 21:40:23:734,0,-3.51736,-4.33366,-21.4585,Q,Q
2023-03-15 21:40:23:743,0,-3.515,-4.33807,-21.4564,Q,Q
2023-03-15 21:40:23:754,0,-3.51609,-4.34351,-21.4574,Q,Q
2023-03-15 21:40:23:764,0,-3.51498,-4.34488,-21.4595,Q,Q
2023-03-15 21:40:23:774,0,-3.51379,-4.34449,-21.468,Q,Q
2023-03-15 21:40:23:783,0,-3.51234,-4.34453,-21.473,Q,Q
2023-03-15 21:40:23:794,0,-3.50644,-4.34532,-21.4774,Q,Q
2023-03-15 21:40:23:803,0,-3.50363,-4.34054,-21.4819,Q,Q
2023-03-15 21:40:23:814,0,-3.50029,-4.33732,-21.4881,Q,Q
2023-03-15 21:40:23:823,0,-3.49901,-4.33697,-21.4902,Q,Q
2023-03-15 21:40:23:833,0,-3.50194,-4.33475,-21.4944,Q,Q
2023-03-15 21:40:23:843,0,-3.50186,-4.33197,-21.4968,Q,Q
2023-03-15 21:40:23:854,0,-3.50248,-4.33082,-21.5008,Q,Q
2023-03-15 21:40:23:863,0,-3.50509,-4.32838,-21.5007,Q,Q
2023-03-15 21:40:23:874,0,-3.51355,-4.32488,-21.4998,Q,Q
2023-03-15 21:40:23:883,0,-3.51967,-4.32008,-21.4984,Q,Q
2023-03-15 21:40:23:894,0,-3.52622,-4.31136,-21.4963,Q,Q
2023-03-15 21:40:23:903,0,-3.52677,-4.3094,-21.4944,Q,Q
2023-03-15 21:40:23:913,0,-3.52654,-4.30691,-21.496,Q,Q
2023-03-15 21:40:23:923,0,-3.52658,-4.30264,-21.4948,Q,Q
2023-03-15 21:40:23:934,0,-3.52725,-4.29606,-21.4932,Q,Q
2023-03-15 21:40:23:943,0,-3.52451,-4.28901,-21.4941,Q,Q
