Timestamp_cmd,imu_cmd,roll_delta,pitch_delta,yaw_delta,voice_type,voice_length
2023-03-15 21:14:00:403,0,-54.7914,1.92925,148.193,Q,Q
2023-03-15 21:14:00:411,0,-54.7911,1.92816,148.194,Q,Q
2023-03-15 21:14:00:422,0,-54.7843,1.92689,148.193,Q,Q
2023-03-15 21:14:00:432,0,-54.7833,1.92901,148.192,Q,Q
2023-03-15 21:14:00:442,0,-54.7815,1.929,148.195,Q,Q
2023-03-15 21:14:00:452,0,-54.7796,1.92969,148.195,Q,Q
2023-03-15 21:14:00:462,0,-54.7788,1.93092,148.195,Q,Q
2023-03-15 21:14:00:472,0,-54.7752,1.93219,148.197,Q,Q
2023-03-15 21:14:00:482,0,-54.7741,1.92859,148.195,Q,Q
2023-03-15 21:14:00:492,0,-54.7747,1.9274,148.193,Q,Q
2023-03-15 21:14:00:502,0,-54.7766,1.92817,148.195,Q,Q
2023-03-15 21:14:00:512,0,-54.7748,1.92752,148.197,Q,Q
2023-03-15 21:14:00:522,0,-54.7774,1.92691,148.197,Q,Q
2023-03-15 21:14:00:532,0,-54.7782,1.92916,148.198,Q,Q
2023-03-15 21:14:00:542,0,-54.7803,1.92991,148.197,Q,Q
2023-03-15 21:14:00:552,0,-54.778,1.92967,148.197,Q,Q
2023-03-15 21:14:00:562,0,-54.7779,1.93067,148.2,Q,Q
2023-03-15 21:14:00:572,0,-54.78,1.93042,148.201,Q,Q
2023-03-15 21:14:00:582,0,-54.7791,1.92933,148.202,Q,Q
2023-03-15 21:14:00:592,0,-54.7773,1.92596,148.202,Q,Q
2023-03-15 21:14:00:602,0,-54.7764,1.92851,148.203,Q,Q
2023-03-15 21:14:00:612,0,-54.7766,1.92796,148.206,Q,Q
2023-03-15 21:14:00:622,0,-54.7778,1.92768,148.207,Q,Q
2023-03-15 21:14:00:632,0,-54.7783,1.92535,148.207,Q,Q
2023-03-15 21:14:00:642,0,-54.7785,1.92531,148.207,Q,Q
2023-03-15 21:14:00:652,0,-54.778,1.92483,148.207,Q,Q
2023-03-15 21:14:00:662,0,-54.7781,1.92215,148.207,Q,Q
2023-03-15 21:14:00:672,0,-54.7774,1.91933,148.204,Q,Q
2023-03-15 21:14:00:682,0,-54.7767,1.91804,148.203,Q,Q
2023-03-15 21:14:00:692,0,-54.7778,1.91554,148.201,Q,Q
2023-03-15 21:14:00:702,0,-54.776,1.91534,148.202,Q,Q
2023-03-15 21:14:00:712,0,-54.7765,1.91684,148.205,Q,Q
2023-03-15 21:14:00:722,0,-54.7768,1.91875,148.203,Q,Q
2023-03-15 21:14:00:732,0,-54.7772,1.91784,148.205,Q,Q
2023-03-15 21:14:00:742,0,-54.7784,1.91578,148.205,Q,Q
2023-03-15 21:14:00:752,0,-54.7781,1.91542,148.203,Q,Q
2023-03-15 21:14:00:762,0,-54.7772,1.91522,148.203,Q,Q
2023-03-15 21:14:00:772,0,-54.7802,1.91582,148.204,Q,Q
2023-03-15 21:14:00:782,0,-54.7798,1.91338,148.203,Q,Q
2023-03-15 21:14:00:792,0,-54.7792,1.91387,148.202,Q,Q
2023-03-15 21:14:00:802,0,-54.7783,1.91499,148.201,Q,Q
2023-03-15 21:14:00:812,0,-54.7775,1.91424,148.199,Q,Q
2023-03-15 21:14:00:822,0,-54.775,1.91446,148.199,Q,Q
2023-03-15 21:14:00:832,0,-54.7751,1.91376,148.2,Q,Q
2023-03-15 21:14:00:842,0,-54.7748,1.9128,148.2,Q,Q
2023-03-15 21:14:00:852,0,-54.7761,1.91478,148.201,Q,Q
2023-03-15 21:14:00:862,0,-54.7757,1.91764,148.2,Q,Q
2023-03-15 21:14:00:872,0,-54.7778,1.91745,148.2,Q,Q
2023-03-15 21:14:00:881,0,-54.7794,1.91714,148.2,Q,Q
2023-03-15 21:14:00:892,0,-54.7791,1.9162,148.198,Q,Q
2023-03-15 21:14:00:902,0,-54.78,1.91612,148.197,Q,Q
2023-03-15 21:14:00:912,0,-54.7794,1.91719,148.196,Q,Q
2023-03-15 21:14:00:922,0,-54.7796,1.91865,148.196,Q,Q
2023-03-15 21:14:00:932,0,-54.7826,1.91978,148.195,Q,Q
2023-03-15 21:14:00:942,0,-54.7839,1.9182,148.197,Q,Q
2023-03-15 21:14:00:952,0,-54.7843,1.91866,148.2,Q,Q
2023-03-15 21:14:00:962,0,-54.7862,1.91657,148.2,Q,Q
2023-03-15 21:14:00:972,0,-54.788,1.91686,148.201,Q,Q
2023-03-15 21:14:00:982,0,-54.7879,1.91725,148.202,Q,Q
2023-03-15 21:14:00:992,0,-54.7851,1.91497,148.203,Q,Q
2023-03-15 21:14:01:2,0,-54.787,1.9139,148.2,Q,Q
2023-03-15 21:14:01:12,0,-54.7864,1.91561,148.199,Q,Q
2023-03-15 21:14:01:22,0,-54.7848,1.91504,148.198,Q,Q
2023-03-15 21:14:01:32,0,-54.7871,1.91388,148.201,Q,Q
2023-03-15 21:14:01:42,0,-54.7867,1.91397,148.2,Q,Q
2023-03-15 21:14:01:52,0,-54.7853,1.91496,148.201,Q,Q
2023-03-15 21:14:01:62,0,-54.7879,1.91699,148.202,Q,Q
2023-03-15 21:14:01:72,0,-54.791,1.9207,148.197,Q,Q
2023-03-15 21:14:01:82,0,-54.7886,1.92045,148.193,Q,Q
2023-03-15 21:14:01:92,0,-54.7869,1.92024,148.189,Q,Q
2023-03-15 21:14:01:102,0,-54.789,1.91851,148.189,Q,Q
2023-03-15 21:14:01:112,0,-54.7896,1.91972,148.187,Q,Q
2023-03-15 21:14:01:122,0,-54.7927,1.91959,148.185,Q,Q
2023-03-15 21:14:01:132,0,-54.7931,1.91933,148.187,Q,Q
2023-03-15 21:14:01:142,0,-54.7924,1.91783,148.19,Q,Q
2023-03-15 21:14:01:152,0,-54.7917,1.9172,148.191,Q,Q
2023-03-15 21:14:01:162,0,-54.7911,1.91565,148.191,Q,Q
2023-03-15 21:14:01:172,0,-54.7895,1.91536,148.19,Q,Q
2023-03-15 21:14:01:182,0,-54.7863,1.9146,148.191,Q,Q
2023-03-15 21:14:01:192,0,-54.7841,1.9152,148.191,Q,Q
2023-03-15 21:14:01:202,0,-54.7825,1.91945,148.192,Q,Q
2023-03-15 21:14:01:212,0,-54.782,1.9196,148.191,Q,Q
2023-03-15 21:14:01:222,0,-54.7829,1.91989,148.19,Q,Q
2023-03-15 21:14:01:232,0,-54.7828,1.91821,148.189,Q,Q
2023-03-15 21:14:01:242,0,-54.7826,1.92008,148.186,Q,Q
2023-03-15 21:14:01:252,0,-54.7829,1.91991,148.186,Q,Q
2023-03-15 21:14:01:262,0,-54.7823,1.9199,148.186,Q,Q
2023-03-15 21:14:01:272,0,-54.7817,1.92409,148.185,Q,Q
2023-03-15 21:14:01:282,0,-54.7831,1.92509,148.185,Q,Q
2023-03-15 21:14:01:292,0,-54.7861,1.92636,148.185,Q,Q
2023-03-15 21:14:01:302,0,-54.7871,1.92613,148.186,Q,Q
2023-03-15 21:14:01:312,0,-54.787,1.92607,148.187,Q,Q
2023-03-15 21:14:01:322,0,-54.787,1.92584,148.188,Q,Q
2023-03-15 21:14:01:332,0,-54.7858,1.92285,148.188,Q,Q
2023-03-15 21:14:01:342,0,-54.7838,1.92156,148.187,Q,Q
2023-03-15 21:14:01:352,0,-54.7836,1.9218,148.186,Q,Q
2023-03-15 21:14:01:362,0,-54.7846,1.91978,148.187,Q,Q
2023-03-15 21:14:01:372,0,-54.7848,1.91945,148.186,Q,Q
2023-03-15 21:14:01:382,0,-54.7849,1.91743,148.187,Q,Q
2023-03-15 21:14:01:392,0,-54.7859,1.91699,148.191,Q,Q
2023-03-15 21:14:01:402,0,-54.7873,1.91779,148.194,Q,Q
2023-03-15 21:14:01:412,0,-54.7886,1.9186,148.196,Q,Q
2023-03-15 21:14:01:422,0,-54.7895,1.91876,148.197,Q,Q
2023-03-15 21:14:01:432,0,-54.7896,1.9199,148.197,Q,Q
2023-03-15 21:14:01:442,0,-54.7883,1.92179,148.198,Q,Q
2023-03-15 21:14:01:452,0,-54.7888,1.92283,148.195,Q,Q
2023-03-15 21:14:01:462,0,-54.7888,1.92054,148.192,Q,Q
2023-03-15 21:14:01:472,0,-54.786,1.92126,148.191,Q,Q
2023-03-15 21:14:01:482,0,-54.7866,1.92478,148.192,Q,Q
2023-03-15 21:14:01:492,0,-54.7857,1.92322,148.19,Q,Q
2023-03-15 21:14:01:502,0,-54.787,1.92433,148.191,Q,Q
2023-03-15 21:14:01:512,0,-54.7871,1.9215,148.19,Q,Q
2023-03-15 21:14:01:522,0,-54.7909,1.92033,148.188,Q,Q
2023-03-15 21:14:01:532,0,-54.7904,1.92031,148.187,Q,Q
2023-03-15 21:14:01:542,0,-54.7888,1.92192,148.187,Q,Q
2023-03-15 21:14:01:552,0,-54.7904,1.92195,148.188,Q,Q
2023-03-15 21:14:01:562,0,-54.7888,1.91878,148.189,Q,Q
2023-03-15 21:14:01:572,0,-54.7887,1.91809,148.186,Q,Q
2023-03-15 21:14:01:582,0,-54.7878,1.9187,148.184,Q,Q
2023-03-15 21:14:01:592,0,-54.7836,1.91758,148.184,Q,Q
2023-03-15 21:14:01:602,0,-54.7831,1.91551,148.184,Q,Q
2023-03-15 21:14:01:612,0,-54.7814,1.91503,148.184,Q,Q
2023-03-15 21:14:01:622,0,-54.781,1.91581,148.183,Q,Q
2023-03-15 21:14:01:632,0,-54.7832,1.91717,148.181,Q,Q
2023-03-15 21:14:01:642,0,-54.7857,1.91661,148.182,Q,Q
2023-03-15 21:14:01:652,0,-54.7861,1.91385,148.182,Q,Q
2023-03-15 21:14:01:662,0,-54.7866,1.91254,148.183,Q,Q
2023-03-15 21:14:01:672,0,-54.7884,1.91246,148.18,Q,Q
2023-03-15 21:14:01:683,0,-54.7867,1.91181,148.178,Q,Q
2023-03-15 21:14:01:692,0,-54.7882,1.91297,148.179,Q,Q
2023-03-15 21:14:01:702,0,-54.7875,1.91464,148.178,Q,Q
2023-03-15 21:14:01:712,0,-54.7892,1.91428,148.176,Q,Q
2023-03-15 21:14:01:722,0,-54.7896,1.91309,148.176,Q,Q
2023-03-15 21:14:01:732,0,-54.7921,1.91372,148.178,Q,Q
2023-03-15 21:14:01:742,0,-54.7907,1.91549,148.179,Q,Q
2023-03-15 21:14:01:752,0,-54.789,1.91664,148.179,Q,Q
2023-03-15 21:14:01:762,0,-54.7897,1.91717,148.177,Q,Q
2023-03-15 21:14:01:772,0,-54.7886,1.9179,148.176,Q,Q
2023-03-15 21:14:01:782,0,-54.7875,1.91808,148.175,Q,Q
2023-03-15 21:14:01:792,0,-54.7911,1.9183,148.176,Q,Q
2023-03-15 21:14:01:802,0,-54.7887,1.91981,148.177,Q,Q
2023-03-15 21:14:01:812,0,-54.7875,1.92043,148.179,Q,Q
2023-03-15 21:14:01:822,0,-54.7868,1.91876,148.177,Q,Q
2023-03-15 21:14:01:832,0,-54.7862,1.91841,148.178,Q,Q
2023-03-15 21:14:01:842,0,-54.7849,1.91739,148.175,Q,Q
2023-03-15 21:14:01:852,0,-54.7833,1.91685,148.173,Q,Q
2023-03-15 21:14:01:862,0,-54.7812,1.91773,148.174,Q,Q
2023-03-15 21:14:01:872,0,-54.7813,1.91834,148.174,Q,Q
2023-03-15 21:14:01:882,0,-54.7793,1.91788,148.179,Q,Q
2023-03-15 21:14:01:892,0,-54.7783,1.91951,148.181,Q,Q
2023-03-15 21:14:01:902,0,-54.777,1.92064,148.181,Q,Q
2023-03-15 21:14:01:912,0,-54.7778,1.9203,148.181,Q,Q
2023-03-15 21:14:01:922,0,-54.7785,1.9207,148.18,Q,Q
2023-03-15 21:14:01:932,0,-54.78,1.92517,148.183,Q,Q
2023-03-15 21:14:01:942,0,-54.7808,1.92581,148.184,Q,Q
2023-03-15 21:14:01:952,0,-54.7792,1.92369,148.184,Q,Q
2023-03-15 21:14:01:963,0,-54.7794,1.9266,148.182,Q,Q
2023-03-15 21:14:01:972,0,-54.7791,1.92526,148.183,Q,Q
2023-03-15 21:14:01:983,0,-54.7822,1.92545,148.186,Q,Q
2023-03-15 21:14:01:992,0,-54.7833,1.92465,148.187,Q,Q
2023-03-15 21:14:02:2,0,-54.7792,1.92421,148.188,Q,Q
2023-03-15 21:14:02:12,0,-54.7782,1.9258,148.186,Q,Q
2023-03-15 21:14:02:22,0,-54.7801,1.92525,148.185,Q,Q
2023-03-15 21:14:02:32,0,-54.7805,1.92306,148.185,Q,Q
2023-03-15 21:14:02:42,0,-54.7783,1.92458,148.184,Q,Q
2023-03-15 21:14:02:52,0,-54.7786,1.9275,148.186,Q,Q
2023-03-15 21:14:02:62,0,-54.7775,1.92827,148.186,Q,Q
2023-03-15 21:14:02:72,0,-54.7813,1.93006,148.187,Q,Q
2023-03-15 21:14:02:83,0,-54.7812,1.93118,148.19,Q,Q
2023-03-15 21:14:02:93,0,-54.7798,1.92927,148.193,Q,Q
2023-03-15 21:14:02:102,0,-54.7804,1.92976,148.192,Q,Q
2023-03-15 21:14:02:113,0,-54.7826,1.92929,148.192,Q,Q
2023-03-15 21:14:02:123,0,-54.7786,1.92898,148.19,Q,Q
2023-03-15 21:14:02:133,0,-54.7759,1.92855,148.19,Q,Q
2023-03-15 21:14:02:143,0,-54.7764,1.92854,148.188,Q,Q
2023-03-15 21:14:02:152,0,-54.7785,1.92676,148.186,Q,Q
2023-03-15 21:14:02:163,0,-54.7789,1.92516,148.184,Q,Q
2023-03-15 21:14:02:173,0,-54.7774,1.924,148.182,Q,Q
2023-03-15 21:14:02:183,0,-54.78,1.92091,148.182,Q,Q
2023-03-15 21:14:02:192,0,-54.7781,1.91787,148.185,Q,Q
2023-03-15 21:14:02:202,0,-54.7816,1.91924,148.186,Q,Q
2023-03-15 21:14:02:212,0,-54.7816,1.91951,148.186,Q,Q
2023-03-15 21:14:02:223,0,-54.7796,1.92083,148.185,Q,Q
2023-03-15 21:14:02:232,0,-54.7778,1.92148,148.184,Q,Q
2023-03-15 21:14:02:243,0,-54.7739,1.92257,148.181,Q,Q
2023-03-15 21:14:02:252,0,-54.7735,1.92458,148.181,Q,Q
2023-03-15 21:14:02:263,0,-54.7705,1.92494,148.186,Q,Q
2023-03-15 21:14:02:272,0,-54.774,1.92686,148.186,Q,Q
2023-03-15 21:14:02:283,0,-54.7747,1.92632,148.187,Q,Q
2023-03-15 21:14:02:292,0,-54.7723,1.92628,148.185,Q,Q
2023-03-15 21:14:02:302,0,-54.7742,1.92667,148.183,Q,Q
2023-03-15 21:14:02:312,0,-54.7737,1.92677,148.182,Q,Q
2023-03-15 21:14:02:322,0,-54.7729,1.92777,148.181,Q,Q
2023-03-15 21:14:02:332,0,-54.7723,1.92736,148.178,Q,Q
2023-03-15 21:14:02:342,0,-54.7728,1.92586,148.177,Q,Q
2023-03-15 21:14:02:352,0,-54.7713,1.92635,148.177,Q,Q
2023-03-15 21:14:02:362,0,-54.7708,1.92907,148.176,Q,Q
2023-03-15 21:14:02:372,0,-54.7693,1.92771,148.18,Q,Q
2023-03-15 21:14:02:383,0,-54.7712,1.92873,148.182,Q,Q
2023-03-15 21:14:02:392,0,-54.7723,1.92997,148.183,Q,Q
2023-03-15 21:14:02:403,0,-54.7722,1.93158,148.18,Q,Q
2023-03-15 21:14:02:412,0,-54.7729,1.93359,148.181,Q,Q
2023-03-15 21:14:02:422,0,-54.7743,1.93219,148.183,Q,Q
2023-03-15 21:14:02:433,0,-54.7707,1.92868,148.184,Q,Q
2023-03-15 21:14:02:443,0,-54.7727,1.92863,148.185,Q,Q
2023-03-15 21:14:02:453,0,-54.7753,1.93122,148.187,Q,Q
2023-03-15 21:14:02:463,0,-54.7762,1.93136,148.186,Q,Q
2023-03-15 21:14:02:473,0,-54.7742,1.93203,148.185,Q,Q
2023-03-15 21:14:02:483,0,-54.7765,1.92992,148.184,Q,Q
2023-03-15 21:14:02:492,0,-54.7765,1.93249,148.183,Q,Q
2023-03-15 21:14:02:502,0,-54.7777,1.93139,148.181,Q,Q
2023-03-15 21:14:02:513,0,-54.7809,1.93671,148.182,Q,Q
2023-03-15 21:14:02:522,0,-54.783,1.93853,148.184,Q,Q
2023-03-15 21:14:02:532,0,-54.7812,1.93736,148.186,Q,Q
2023-03-15 21:14:02:543,0,-54.7834,1.93714,148.184,Q,Q
2023-03-15 21:14:02:553,0,-54.7825,1.9369,148.184,Q,Q
2023-03-15 21:14:02:563,0,-54.7843,1.93718,148.182,Q,Q
2023-03-15 21:14:02:573,0,-54.7848,1.9349,148.188,Q,Q
2023-03-15 21:14:02:583,0,-54.7861,1.93673,148.188,Q,Q
2023-03-15 21:14:02:593,0,-54.7858,1.93856,148.188,Q,Q
2023-03-15 21:14:02:603,0,-54.7867,1.94037,148.189,Q,Q
2023-03-15 21:14:02:612,0,-54.7831,1.94237,148.186,Q,Q
2023-03-15 21:14:02:622,0,-54.7821,1.93984,148.186,Q,Q
2023-03-15 21:14:02:632,0,-54.7828,1.93675,148.187,Q,Q
2023-03-15 21:14:02:642,0,-54.7807,1.93732,148.189,Q,Q
2023-03-15 21:14:02:652,0,-54.782,1.93697,148.19,Q,Q
2023-03-15 21:14:02:662,0,-54.7835,1.93549,148.188,Q,Q
2023-03-15 21:14:02:672,0,-54.7849,1.93555,148.187,Q,Q
2023-03-15 21:14:02:683,0,-54.7838,1.93486,148.187,Q,Q
2023-03-15 21:14:02:692,0,-54.7823,1.93829,148.188,Q,Q
2023-03-15 21:14:02:703,0,-54.7843,1.93755,148.187,Q,Q
2023-03-15 21:14:02:712,0,-54.7852,1.94016,148.188,Q,Q
2023-03-15 21:14:02:723,0,-54.7863,1.94034,148.192,Q,Q
2023-03-15 21:14:02:733,0,-54.787,1.94047,148.192,Q,Q
2023-03-15 21:14:02:743,0,-54.7882,1.9404,148.19,Q,Q
2023-03-15 21:14:02:753,0,-54.7904,1.9413,148.19,Q,Q
2023-03-15 21:14:02:763,0,-54.7905,1.93822,148.192,Q,Q
2023-03-15 21:14:02:773,0,-54.7885,1.93621,148.19,Q,Q
2023-03-15 21:14:02:783,0,-54.7867,1.93769,148.19,Q,Q
2023-03-15 21:14:02:793,0,-54.7856,1.93918,148.19,Q,Q
2023-03-15 21:14:02:803,0,-54.785,1.94061,148.189,Q,Q
2023-03-15 21:14:02:812,0,-54.7837,1.94256,148.187,Q,Q
2023-03-15 21:14:02:823,0,-54.7748,1.94581,148.185,Q,Q
2023-03-15 21:14:02:833,0,-54.7803,1.94479,148.186,Q,Q
2023-03-15 21:14:02:843,0,-54.7831,1.94759,148.188,Q,Q
2023-03-15 21:14:02:853,0,-54.7742,1.95236,148.188,Q,Q
2023-03-15 21:14:02:863,0,-54.777,1.95078,148.186,Q,Q
2023-03-15 21:14:02:873,0,-54.7746,1.95189,148.184,Q,Q
2023-03-15 21:14:02:883,0,-54.771,1.95509,148.18,Q,Q
2023-03-15 21:14:02:893,0,-54.7789,1.95276,148.182,Q,Q
2023-03-15 21:14:02:902,0,-54.7617,1.96303,148.182,Q,Q
2023-03-15 21:14:02:913,0,-54.7553,1.96569,148.181,Q,Q
2023-03-15 21:14:02:922,0,-54.7597,1.96313,148.178,Q,Q
2023-03-15 21:14:02:932,0,-54.7491,1.96704,148.18,Q,Q
2023-03-15 21:14:02:943,0,-54.7505,1.96431,148.181,Q,Q
2023-03-15 21:14:02:953,0,-54.7429,1.96729,148.179,Q,Q
2023-03-15 21:14:02:963,0,-54.7332,1.96883,148.178,Q,Q
2023-03-15 21:14:02:972,0,-54.7438,1.96744,148.177,Q,Q
2023-03-15 21:14:02:983,0,-54.7502,1.9654,148.174,Q,Q
2023-03-15 21:14:02:993,0,-54.7566,1.96093,148.173,Q,Q
2023-03-15 21:14:03:3,0,-54.762,1.95944,148.174,Q,Q
2023-03-15 21:14:03:13,0,-54.7697,1.95693,148.176,Q,Q
2023-03-15 21:14:03:23,0,-54.7793,1.95223,148.175,Q,Q
2023-03-15 21:14:03:33,0,-54.7825,1.94934,148.176,Q,Q
2023-03-15 21:14:03:43,0,-54.7864,1.9479,148.177,Q,Q
2023-03-15 21:14:03:53,0,-54.7835,1.94694,148.174,Q,Q
2023-03-15 21:14:03:63,0,-54.7825,1.944,148.172,Q,Q
2023-03-15 21:14:03:73,0,-54.7951,1.93649,148.173,Q,Q
2023-03-15 21:14:03:83,0,-54.7854,1.93978,148.171,Q,Q
2023-03-15 21:14:03:93,0,-54.7921,1.93969,148.172,Q,Q
2023-03-15 21:14:03:103,0,-54.7956,1.93667,148.174,Q,Q
2023-03-15 21:14:03:113,0,-54.7893,1.93932,148.173,Q,Q
2023-03-15 21:14:03:123,0,-54.7944,1.93798,148.172,Q,Q
2023-03-15 21:14:03:133,0,-54.7955,1.94043,148.173,Q,Q
2023-03-15 21:14:03:143,0,-54.795,1.93937,148.17,Q,Q
2023-03-15 21:14:03:153,0,-54.8002,1.93818,148.171,Q,Q
2023-03-15 21:14:03:163,0,-54.7956,1.93947,148.171,Q,Q
2023-03-15 21:14:03:173,0,-54.7982,1.93919,148.169,Q,Q
2023-03-15 21:14:03:183,0,-54.8007,1.93578,148.166,Q,Q
2023-03-15 21:14:03:193,0,-54.8024,1.93245,148.165,Q,Q
2023-03-15 21:14:03:203,0,-54.798,1.93559,148.165,Q,Q
2023-03-15 21:14:03:213,0,-54.7999,1.93668,148.164,Q,Q
2023-03-15 21:14:03:223,0,-54.8037,1.93402,148.16,Q,Q
2023-03-15 21:14:03:233,0,-54.8044,1.93501,148.158,Q,Q
2023-03-15 21:14:03:243,0,-54.8051,1.93147,148.156,Q,Q
2023-03-15 21:14:03:253,0,-54.8079,1.9285,148.155,Q,Q
2023-03-15 21:14:03:263,0,-54.8096,1.92713,148.156,Q,Q
2023-03-15 21:14:03:273,0,-54.8093,1.92773,148.156,Q,Q
2023-03-15 21:14:03:283,0,-54.806,1.92959,148.16,Q,Q
2023-03-15 21:14:03:293,0,-54.8096,1.92673,148.16,Q,Q
2023-03-15 21:14:03:303,0,-54.8142,1.92644,148.159,Q,Q
2023-03-15 21:14:03:313,0,-54.8124,1.92798,148.16,Q,Q
2023-03-15 21:14:03:323,0,-54.8131,1.92606,148.16,Q,Q
2023-03-15 21:14:03:333,0,-54.8133,1.92265,148.157,Q,Q
2023-03-15 21:14:03:343,0,-54.8132,1.92355,148.16,Q,Q
2023-03-15 21:14:03:353,0,-54.8098,1.92306,148.161,Q,Q
2023-03-15 21:14:03:363,0,-54.8116,1.91964,148.159,Q,Q
2023-03-15 21:14:03:373,0,-54.8097,1.92191,148.16,Q,Q
2023-03-15 21:14:03:383,0,-54.8126,1.92163,148.16,Q,Q
2023-03-15 21:14:03:393,0,-54.8127,1.9223,148.163,Q,Q
2023-03-15 21:14:03:403,0,-54.8145,1.92047,148.163,Q,Q
2023-03-15 21:14:03:413,0,-54.8172,1.9199,148.162,Q,Q
2023-03-15 21:14:03:423,0,-54.816,1.91989,148.164,Q,Q
2023-03-15 21:14:03:433,0,-54.8146,1.9185,148.165,Q,Q
2023-03-15 21:14:03:443,0,-54.8141,1.91907,148.165,Q,Q
2023-03-15 21:14:03:452,0,-54.816,1.9197,148.166,Q,Q
2023-03-15 21:14:03:463,0,-54.8187,1.92235,148.161,Q,Q
2023-03-15 21:14:03:473,0,-54.8178,1.92312,148.158,Q,Q
2023-03-15 21:14:03:483,0,-54.8187,1.91989,148.158,Q,Q
2023-03-15 21:14:03:493,0,-54.8181,1.921,148.16,Q,Q
2023-03-15 21:14:03:502,0,-54.8198,1.92079,148.158,Q,Q
2023-03-15 21:14:03:513,0,-54.8201,1.92191,148.157,Q,Q
2023-03-15 21:14:03:523,0,-54.8222,1.92174,148.154,Q,Q
2023-03-15 21:14:03:533,0,-54.8209,1.92102,148.152,Q,Q
2023-03-15 21:14:03:543,0,-54.8299,1.918,148.152,Q,Q
2023-03-15 21:14:03:553,0,-54.8299,1.91948,148.15,Q,Q
2023-03-15 21:14:03:563,0,-54.8316,1.9155,148.15,Q,Q
2023-03-15 21:14:03:573,0,-54.832,1.91084,148.15,Q,Q
2023-03-15 21:14:03:583,0,-54.8414,1.90993,148.149,Q,Q
2023-03-15 21:14:03:593,0,-54.8268,1.91372,148.151,Q,Q
2023-03-15 21:14:03:603,0,-54.8499,1.90773,148.15,Q,Q
2023-03-15 21:14:03:613,0,-54.8278,1.91885,148.154,Q,Q
2023-03-15 21:14:03:623,0,-54.839,1.91563,148.156,Q,Q
2023-03-15 21:14:03:633,0,-54.8331,1.91988,148.159,Q,Q
2023-03-15 21:14:03:643,0,-54.8283,1.92314,148.161,Q,Q
2023-03-15 21:14:03:653,0,-54.8328,1.91991,148.161,Q,Q
2023-03-15 21:14:03:663,0,-54.8285,1.92351,148.162,Q,Q
2023-03-15 21:14:03:673,0,-54.8316,1.92267,148.163,Q,Q
2023-03-15 21:14:03:683,0,-54.8308,1.92317,148.163,Q,Q
2023-03-15 21:14:03:693,0,-54.8299,1.92195,148.163,Q,Q
2023-03-15 21:14:03:703,0,-54.8328,1.92273,148.164,Q,Q
2023-03-15 21:14:03:713,0,-54.8309,1.92387,148.164,Q,Q
2023-03-15 21:14:03:723,0,-54.824,1.92367,148.166,Q,Q
2023-03-15 21:14:03:733,0,-54.8321,1.91955,148.167,Q,Q
2023-03-15 21:14:03:743,0,-54.8212,1.9229,148.168,Q,Q
2023-03-15 21:14:03:753,0,-54.8275,1.91984,148.17,Q,Q
2023-03-15 21:14:03:763,0,-54.8176,1.92266,148.172,Q,Q
2023-03-15 21:14:03:773,0,-54.8163,1.9228,148.174,Q,Q
2023-03-15 21:14:03:783,0,-54.8169,1.91998,148.173,Q,Q
2023-03-15 21:14:03:793,0,-54.8129,1.91889,148.171,Q,Q
2023-03-15 21:14:03:803,0,-54.8168,1.9157,148.17,Q,Q
2023-03-15 21:14:03:813,0,-54.8212,1.91442,148.167,Q,Q
2023-03-15 21:14:03:823,0,-54.8198,1.91625,148.168,Q,Q
2023-03-15 21:14:03:833,0,-54.8227,1.9176,148.168,Q,Q
2023-03-15 21:14:03:843,0,-54.8192,1.91884,148.167,Q,Q
2023-03-15 21:14:03:853,0,-54.8219,1.92178,148.166,Q,Q
2023-03-15 21:14:03:863,0,-54.8208,1.92149,148.165,Q,Q
2023-03-15 21:14:03:873,0,-54.8199,1.92072,148.164,Q,Q
2023-03-15 21:14:03:883,0,-54.8165,1.91786,148.164,Q,Q
2023-03-15 21:14:03:893,0,-54.8171,1.91707,148.167,Q,Q
2023-03-15 21:14:03:903,0,-54.8158,1.91538,148.166,Q,Q
2023-03-15 21:14:03:913,0,-54.8161,1.91292,148.166,Q,Q
2023-03-15 21:14:03:923,0,-54.8137,1.91371,148.167,Q,Q
2023-03-15 21:14:03:933,0,-54.8126,1.91401,148.162,Q,Q
2023-03-15 21:14:03:943,0,-54.8118,1.91676,148.165,Q,Q
2023-03-15 21:14:03:953,0,-54.8106,1.91735,148.166,Q,Q
2023-03-15 21:14:03:963,0,-54.8108,1.91812,148.166,Q,Q
2023-03-15 21:14:03:973,0,-54.8138,1.92025,148.164,Q,Q
2023-03-15 21:14:03:983,0,-54.8133,1.91799,148.164,Q,Q
2023-03-15 21:14:03:993,0,-54.8121,1.92046,148.162,Q,Q
2023-03-15 21:14:04:3,0,-54.8131,1.91752,148.158,Q,Q
2023-03-15 21:14:04:13,0,-54.8094,1.91672,148.156,Q,Q
2023-03-15 21:14:04:23,0,-54.811,1.9173,148.154,Q,Q
2023-03-15 21:14:04:33,0,-54.8121,1.91675,148.151,Q,Q
2023-03-15 21:14:04:43,0,-54.8125,1.91843,148.151,Q,Q
2023-03-15 21:14:04:53,0,-54.8074,1.91942,148.151,Q,Q
2023-03-15 21:14:04:63,0,-54.8075,1.91956,148.152,Q,Q
2023-03-15 21:14:04:73,0,-54.8061,1.92043,148.154,Q,Q
2023-03-15 21:14:04:83,0,-54.8083,1.91738,148.154,Q,Q
2023-03-15 21:14:04:93,0,-54.8074,1.91748,148.153,Q,Q
2023-03-15 21:14:04:103,0,-54.8063,1.9167,148.15,Q,Q
2023-03-15 21:14:04:113,0,-54.8052,1.9177,148.15,Q,Q
2023-03-15 21:14:04:123,0,-54.803,1.91739,148.148,Q,Q
2023-03-15 21:14:04:133,0,-54.8003,1.91841,148.145,Q,Q
2023-03-15 21:14:04:143,0,-54.8,1.91621,148.145,Q,Q
2023-03-15 21:14:04:153,0,-54.7993,1.91176,148.141,Q,Q
2023-03-15 21:14:04:163,0,-54.8013,1.9118,148.143,Q,Q
2023-03-15 21:14:04:173,0,-54.796,1.91252,148.142,Q,Q
2023-03-15 21:14:04:183,0,-54.7947,1.9143,148.143,Q,Q
2023-03-15 21:14:04:193,0,-54.7974,1.91328,148.144,Q,Q
2023-03-15 21:14:04:203,0,-54.7962,1.91348,148.143,Q,Q
2023-03-15 21:14:04:213,0,-54.797,1.9133,148.141,Q,Q
2023-03-15 21:14:04:223,0,-54.7979,1.91443,148.141,Q,Q
2023-03-15 21:14:04:233,0,-54.7978,1.91071,148.142,Q,Q
2023-03-15 21:14:04:243,0,-54.7974,1.91025,148.142,Q,Q
2023-03-15 21:14:04:253,0,-54.7972,1.90713,148.141,Q,Q
2023-03-15 21:14:04:263,0,-54.7956,1.90711,148.141,Q,Q
2023-03-15 21:14:04:273,0,-54.7957,1.90511,148.141,Q,Q
2023-03-15 21:14:04:283,0,-54.7985,1.9053,148.142,Q,Q
2023-03-15 21:14:04:293,0,-54.8019,1.908,148.143,Q,Q
2023-03-15 21:14:04:303,0,-54.8047,1.90735,148.144,Q,Q
2023-03-15 21:14:04:313,0,-54.8038,1.90436,148.146,Q,Q
2023-03-15 21:14:04:323,0,-54.8018,1.90158,148.145,Q,Q
2023-03-15 21:14:04:333,0,-54.8022,1.90156,148.144,Q,Q
2023-03-15 21:14:04:343,0,-54.8015,1.90113,148.142,Q,Q
2023-03-15 21:14:04:353,0,-54.8009,1.89874,148.142,Q,Q
2023-03-15 21:14:04:363,0,-54.8045,1.89914,148.142,Q,Q
2023-03-15 21:14:04:373,0,-54.8059,1.8994,148.143,Q,Q
2023-03-15 21:14:04:383,0,-54.8064,1.89806,148.143,Q,Q
2023-03-15 21:14:04:393,0,-54.8065,1.90018,148.143,Q,Q
2023-03-15 21:14:04:403,0,-54.8041,1.89792,148.143,Q,Q
2023-03-15 21:14:04:413,0,-54.8027,1.89619,148.145,Q,Q
2023-03-15 21:14:04:423,0,-54.8031,1.89609,148.146,Q,Q
2023-03-15 21:14:04:433,0,-54.8014,1.89652,148.146,Q,Q
2023-03-15 21:14:04:443,0,-54.8014,1.89423,148.147,Q,Q
2023-03-15 21:14:04:453,0,-54.7999,1.89206,148.151,Q,Q
2023-03-15 21:14:04:463,0,-54.8004,1.89343,148.151,Q,Q
2023-03-15 21:14:04:473,0,-54.8008,1.89221,148.154,Q,Q
2023-03-15 21:14:04:483,0,-54.8022,1.89126,148.153,Q,Q
2023-03-15 21:14:04:493,0,-54.8044,1.88948,148.157,Q,Q
2023-03-15 21:14:04:503,0,-54.8064,1.89091,148.159,Q,Q
2023-03-15 21:14:04:513,0,-54.8056,1.89095,148.161,Q,Q
2023-03-15 21:14:04:523,0,-54.8055,1.88969,148.16,Q,Q
2023-03-15 21:14:04:533,0,-54.8051,1.89201,148.159,Q,Q
2023-03-15 21:14:04:543,0,-54.8083,1.89144,148.159,Q,Q
2023-03-15 21:14:04:553,0,-54.8095,1.88985,148.158,Q,Q
2023-03-15 21:14:04:563,0,-54.8076,1.89157,148.157,Q,Q
2023-03-15 21:14:04:573,0,-54.8064,1.89312,148.159,Q,Q
2023-03-15 21:14:04:583,0,-54.8059,1.89389,148.162,Q,Q
2023-03-15 21:14:04:593,0,-54.8081,1.89544,148.163,Q,Q
2023-03-15 21:14:04:603,0,-54.8067,1.89622,148.162,Q,Q
2023-03-15 21:14:04:613,0,-54.8097,1.89856,148.162,Q,Q
2023-03-15 21:14:04:623,0,-54.8107,1.90275,148.164,Q,Q
2023-03-15 21:14:04:633,0,-54.8092,1.90274,148.164,Q,Q
2023-03-15 21:14:04:643,0,-54.8083,1.90494,148.165,Q,Q
2023-03-15 21:14:04:653,0,-54.8072,1.90427,148.167,Q,Q
2023-03-15 21:14:04:663,0,-54.8076,1.90313,148.168,Q,Q
2023-03-15 21:14:04:673,0,-54.8049,1.90335,148.167,Q,Q
2023-03-15 21:14:04:683,0,-54.8052,1.90446,148.17,Q,Q
2023-03-15 21:14:04:693,0,-54.8047,1.90209,148.17,Q,Q
2023-03-15 21:14:04:703,0,-54.8045,1.90123,148.17,Q,Q
2023-03-15 21:14:04:713,0,-54.8054,1.89917,148.172,Q,Q
2023-03-15 21:14:04:723,0,-54.801,1.89852,148.17,Q,Q
2023-03-15 21:14:04:733,0,-54.7997,1.89918,148.168,Q,Q
2023-03-15 21:14:04:743,0,-54.7981,1.89607,148.169,Q,Q
2023-03-15 21:14:04:753,0,-54.7973,1.89647,148.167,Q,Q
2023-03-15 21:14:04:763,0,-54.795,1.89777,148.171,Q,Q
2023-03-15 21:14:04:773,0,-54.7968,1.89842,148.171,Q,Q
2023-03-15 21:14:04:783,0,-54.7964,1.89668,148.17,Q,Q
2023-03-15 21:14:04:793,0,-54.7959,1.89532,148.171,Q,Q
2023-03-15 21:14:04:803,0,-54.7964,1.89572,148.171,Q,Q
2023-03-15 21:14:04:813,0,-54.7969,1.89547,148.172,Q,Q
2023-03-15 21:14:04:823,0,-54.7961,1.89281,148.171,Q,Q
2023-03-15 21:14:04:833,0,-54.793,1.89695,148.167,Q,Q
2023-03-15 21:14:04:843,0,-54.7921,1.90058,148.166,Q,Q
2023-03-15 21:14:04:853,0,-54.7927,1.90261,148.164,Q,Q
2023-03-15 21:14:04:863,0,-54.7907,1.90237,148.163,Q,Q
2023-03-15 21:14:04:873,0,-54.7891,1.89847,148.165,Q,Q
2023-03-15 21:14:04:883,0,-54.7853,1.89739,148.166,Q,Q
2023-03-15 21:14:04:893,0,-54.7853,1.8995,148.168,Q,Q
2023-03-15 21:14:04:903,0,-54.7853,1.8996,148.169,Q,Q
2023-03-15 21:14:04:913,0,-54.785,1.90073,148.166,Q,Q
2023-03-15 21:14:04:923,0,-54.7881,1.90145,148.166,Q,Q
2023-03-15 21:14:04:933,0,-54.7924,1.89832,148.166,Q,Q
2023-03-15 21:14:04:943,0,-54.7903,1.89888,148.166,Q,Q
2023-03-15 21:14:04:953,0,-54.7903,1.89791,148.165,Q,Q
2023-03-15 21:14:04:963,0,-54.7915,1.89614,148.164,Q,Q
2023-03-15 21:14:04:973,0,-54.7899,1.89595,148.165,Q,Q
2023-03-15 21:14:04:983,0,-54.7895,1.89595,148.167,Q,Q
2023-03-15 21:14:04:993,0,-54.7918,1.89573,148.167,Q,Q
2023-03-15 21:14:05:3,0,-54.7925,1.89518,148.169,Q,Q
2023-03-15 21:14:05:13,0,-54.7896,1.89383,148.171,Q,Q
2023-03-15 21:14:05:23,0,-54.7873,1.89698,148.171,Q,Q
2023-03-15 21:14:05:33,0,-54.7881,1.89458,148.172,Q,Q
2023-03-15 21:14:05:43,0,-54.7885,1.89421,148.169,Q,Q
2023-03-15 21:14:05:53,0,-54.7874,1.896,148.169,Q,Q
2023-03-15 21:14:05:63,0,-54.7869,1.89692,148.17,Q,Q
2023-03-15 21:14:05:73,0,-54.787,1.89653,148.171,Q,Q
2023-03-15 21:14:05:83,0,-54.7909,1.89739,148.172,Q,Q
2023-03-15 21:14:05:93,0,-54.794,1.89895,148.169,Q,Q
2023-03-15 21:14:05:103,0,-54.7915,1.90132,148.168,Q,Q
2023-03-15 21:14:05:113,0,-54.7909,1.90473,148.167,Q,Q
2023-03-15 21:14:05:123,0,-54.7862,1.90488,148.165,Q,Q
2023-03-15 21:14:05:133,0,-54.7873,1.90627,148.167,Q,Q
2023-03-15 21:14:05:143,0,-54.7859,1.90704,148.167,Q,Q
2023-03-15 21:14:05:153,0,-54.7871,1.90672,148.163,Q,Q
2023-03-15 21:14:05:163,0,-54.7858,1.90704,148.164,Q,Q
2023-03-15 21:14:05:173,0,-54.7878,1.90529,148.167,Q,Q
2023-03-15 21:14:05:183,0,-54.7877,1.90531,148.166,Q,Q
2023-03-15 21:14:05:193,0,-54.7849,1.90599,148.161,Q,Q
2023-03-15 21:14:05:203,0,-54.7873,1.9053,148.16,Q,Q
2023-03-15 21:14:05:213,0,-54.7871,1.90588,148.158,Q,Q
2023-03-15 21:14:05:223,0,-54.7876,1.90688,148.158,Q,Q
2023-03-15 21:14:05:233,0,-54.7874,1.90727,148.158,Q,Q
2023-03-15 21:14:05:243,0,-54.7877,1.90987,148.16,Q,Q
2023-03-15 21:14:05:253,0,-54.7884,1.91104,148.16,Q,Q
2023-03-15 21:14:05:263,0,-54.7897,1.90875,148.161,Q,Q
2023-03-15 21:14:05:273,0,-54.7881,1.90803,148.158,Q,Q
2023-03-15 21:14:05:283,0,-54.7857,1.90826,148.158,Q,Q
2023-03-15 21:14:05:293,0,-54.785,1.91053,148.162,Q,Q
2023-03-15 21:14:05:303,0,-54.78,1.90729,148.162,Q,Q
2023-03-15 21:14:05:313,0,-54.7776,1.90952,148.164,Q,Q
2023-03-15 21:14:05:323,0,-54.7753,1.91116,148.164,Q,Q
2023-03-15 21:14:05:333,0,-54.773,1.91208,148.162,Q,Q
2023-03-15 21:14:05:343,0,-54.7703,1.91191,148.163,Q,Q
2023-03-15 21:14:05:353,0,-54.7689,1.91177,148.165,Q,Q
2023-03-15 21:14:05:363,0,-54.7709,1.9118,148.164,Q,Q
2023-03-15 21:14:05:373,0,-54.7705,1.91078,148.165,Q,Q
2023-03-15 21:14:05:383,0,-54.7724,1.90989,148.164,Q,Q
2023-03-15 21:14:05:393,0,-54.7712,1.91243,148.166,Q,Q
2023-03-15 21:14:05:403,0,-54.7693,1.91301,148.168,Q,Q
2023-03-15 21:14:05:413,0,-54.768,1.91308,148.162,Q,Q
2023-03-15 21:14:05:423,0,-54.7711,1.91303,148.161,Q,Q
2023-03-15 21:14:05:433,0,-54.769,1.9144,148.163,Q,Q
2023-03-15 21:14:05:443,0,-54.7688,1.91166,148.163,Q,Q
2023-03-15 21:14:05:453,0,-54.7703,1.91083,148.166,Q,Q
2023-03-15 21:14:05:463,0,-54.7707,1.91109,148.166,Q,Q
2023-03-15 21:14:05:473,0,-54.7698,1.91079,148.163,Q,Q
2023-03-15 21:14:05:483,0,-54.7724,1.91301,148.165,Q,Q
2023-03-15 21:14:05:493,0,-54.7713,1.91535,148.167,Q,Q
2023-03-15 21:14:05:503,0,-54.7703,1.9148,148.166,Q,Q
2023-03-15 21:14:05:513,0,-54.7702,1.91528,148.166,Q,Q
2023-03-15 21:14:05:523,0,-54.7696,1.91454,148.166,Q,Q
2023-03-15 21:14:05:533,0,-54.773,1.91001,148.166,Q,Q
2023-03-15 21:14:05:543,0,-54.7733,1.91216,148.166,Q,Q
2023-03-15 21:14:05:553,0,-54.7755,1.91242,148.168,Q,Q
2023-03-15 21:14:05:563,0,-54.7773,1.91258,148.165,Q,Q
2023-03-15 21:14:05:573,0,-54.7785,1.91249,148.162,Q,Q
2023-03-15 21:14:05:583,0,-54.779,1.91372,148.161,Q,Q
2023-03-15 21:14:05:593,0,-54.7829,1.91481,148.16,Q,Q
2023-03-15 21:14:05:603,0,-54.7868,1.91545,148.158,Q,Q
2023-03-15 21:14:05:613,0,-54.785,1.91901,148.159,Q,Q
2023-03-15 21:14:05:623,0,-54.7824,1.91545,148.158,Q,Q
2023-03-15 21:14:05:633,0,-54.7824,1.9161,148.157,Q,Q
2023-03-15 21:14:05:643,0,-54.7859,1.91525,148.156,Q,Q
2023-03-15 21:14:05:653,0,-54.7847,1.91513,148.156,Q,Q
2023-03-15 21:14:05:663,0,-54.7853,1.91373,148.159,Q,Q
2023-03-15 21:14:05:674,0,-54.7837,1.91469,148.159,Q,Q
2023-03-15 21:14:05:683,0,-54.7835,1.91257,148.158,Q,Q
2023-03-15 21:14:05:693,0,-54.7821,1.91326,148.157,Q,Q
2023-03-15 21:14:05:703,0,-54.7815,1.91372,148.156,Q,Q
2023-03-15 21:14:05:714,0,-54.7802,1.91215,148.156,Q,Q
2023-03-15 21:14:05:723,0,-54.7806,1.90988,148.154,Q,Q
2023-03-15 21:14:05:733,0,-54.7782,1.90735,148.152,Q,Q
2023-03-15 21:14:05:743,0,-54.7752,1.90548,148.151,Q,Q
2023-03-15 21:14:05:753,0,-54.7765,1.90488,148.152,Q,Q
2023-03-15 21:14:05:763,0,-54.776,1.90401,148.15,Q,Q
2023-03-15 21:14:05:774,0,-54.7751,1.9042,148.149,Q,Q
2023-03-15 21:14:05:783,0,-54.777,1.90421,148.153,Q,Q
2023-03-15 21:14:05:794,0,-54.7765,1.90336,148.153,Q,Q
2023-03-15 21:14:05:803,0,-54.7737,1.906,148.15,Q,Q
2023-03-15 21:14:05:814,0,-54.7747,1.90414,148.15,Q,Q
2023-03-15 21:14:05:823,0,-54.7758,1.90354,148.147,Q,Q
2023-03-15 21:14:05:834,0,-54.7779,1.90512,148.148,Q,Q
2023-03-15 21:14:05:843,0,-54.7786,1.90333,148.146,Q,Q
2023-03-15 21:14:05:853,0,-54.7779,1.90043,148.143,Q,Q
2023-03-15 21:14:05:863,0,-54.7787,1.89862,148.145,Q,Q
2023-03-15 21:14:05:874,0,-54.7821,1.89697,148.143,Q,Q
2023-03-15 21:14:05:883,0,-54.7802,1.89951,148.143,Q,Q
2023-03-15 21:14:05:893,0,-54.7785,1.89968,148.143,Q,Q
2023-03-15 21:14:05:904,0,-54.7773,1.89766,148.139,Q,Q
2023-03-15 21:14:05:913,0,-54.7777,1.89726,148.138,Q,Q
2023-03-15 21:14:05:923,0,-54.7801,1.89769,148.139,Q,Q
2023-03-15 21:14:05:934,0,-54.7807,1.89856,148.142,Q,Q
2023-03-15 21:14:05:943,0,-54.781,1.89944,148.141,Q,Q
2023-03-15 21:14:05:953,0,-54.7816,1.90151,148.14,Q,Q
2023-03-15 21:14:05:963,0,-54.7769,1.90004,148.138,Q,Q
2023-03-15 21:14:05:973,0,-54.7761,1.89794,148.14,Q,Q
2023-03-15 21:14:05:983,0,-54.7726,1.89698,148.139,Q,Q
2023-03-15 21:14:05:994,0,-54.7735,1.89641,148.141,Q,Q
2023-03-15 21:14:06:3,0,-54.7737,1.8958,148.141,Q,Q
2023-03-15 21:14:06:13,0,-54.7699,1.89713,148.145,Q,Q
2023-03-15 21:14:06:23,0,-54.7674,1.89998,148.148,Q,Q
2023-03-15 21:14:06:33,0,-54.7649,1.89918,148.145,Q,Q
2023-03-15 21:14:06:43,0,-54.7677,1.90177,148.144,Q,Q
2023-03-15 21:14:06:53,0,-54.7677,1.90455,148.143,Q,Q
2023-03-15 21:14:06:63,0,-54.7657,1.90533,148.143,Q,Q
2023-03-15 21:14:06:73,0,-54.7677,1.90413,148.14,Q,Q
2023-03-15 21:14:06:83,0,-54.7678,1.90637,148.139,Q,Q
2023-03-15 21:14:06:94,0,-54.7681,1.90674,148.138,Q,Q
2023-03-15 21:14:06:103,0,-54.7678,1.90517,148.135,Q,Q
2023-03-15 21:14:06:114,0,-54.7668,1.90653,148.135,Q,Q
2023-03-15 21:14:06:123,0,-54.7653,1.90951,148.133,Q,Q
2023-03-15 21:14:06:134,0,-54.7629,1.90905,148.132,Q,Q
2023-03-15 21:14:06:143,0,-54.7637,1.90752,148.134,Q,Q
2023-03-15 21:14:06:154,0,-54.7642,1.90931,148.138,Q,Q
2023-03-15 21:14:06:163,0,-54.7651,1.91058,148.14,Q,Q
2023-03-15 21:14:06:173,0,-54.7628,1.91301,148.138,Q,Q
2023-03-15 21:14:06:184,0,-54.7615,1.91421,148.139,Q,Q
2023-03-15 21:14:06:194,0,-54.76,1.91395,148.137,Q,Q
2023-03-15 21:14:06:204,0,-54.7607,1.91441,148.135,Q,Q
2023-03-15 21:14:06:213,0,-54.7588,1.91317,148.139,Q,Q
2023-03-15 21:14:06:223,0,-54.7585,1.912,148.138,Q,Q
2023-03-15 21:14:06:234,0,-54.7601,1.91539,148.139,Q,Q
2023-03-15 21:14:06:244,0,-54.759,1.91613,148.14,Q,Q
2023-03-15 21:14:06:254,0,-54.7595,1.9166,148.137,Q,Q
2023-03-15 21:14:06:263,0,-54.7582,1.91361,148.136,Q,Q
2023-03-15 21:14:06:273,0,-54.7555,1.91372,148.135,Q,Q
2023-03-15 21:14:06:283,0,-54.7556,1.91509,148.133,Q,Q
2023-03-15 21:14:06:294,0,-54.7554,1.91409,148.137,Q,Q
2023-03-15 21:14:06:304,0,-54.7551,1.91139,148.138,Q,Q
2023-03-15 21:14:06:313,0,-54.7563,1.91088,148.139,Q,Q
2023-03-15 21:14:06:324,0,-54.7539,1.91263,148.138,Q,Q
2023-03-15 21:14:06:334,0,-54.7535,1.9135,148.139,Q,Q
2023-03-15 21:14:06:344,0,-54.7543,1.91522,148.139,Q,Q
2023-03-15 21:14:06:354,0,-54.7598,1.91365,148.138,Q,Q
2023-03-15 21:14:06:364,0,-54.7616,1.91426,148.139,Q,Q
2023-03-15 21:14:06:373,0,-54.7619,1.91317,148.14,Q,Q
2023-03-15 21:14:06:384,0,-54.7611,1.91218,148.138,Q,Q
2023-03-15 21:14:06:394,0,-54.7613,1.91045,148.139,Q,Q
2023-03-15 21:14:06:404,0,-54.7635,1.91112,148.138,Q,Q
2023-03-15 21:14:06:414,0,-54.7638,1.91088,148.14,Q,Q
2023-03-15 21:14:06:423,0,-54.7646,1.90946,148.139,Q,Q
2023-03-15 21:14:06:434,0,-54.7653,1.91146,148.137,Q,Q
2023-03-15 21:14:06:443,0,-54.7659,1.91201,148.136,Q,Q
2023-03-15 21:14:06:454,0,-54.7672,1.91347,148.135,Q,Q
2023-03-15 21:14:06:464,0,-54.7682,1.91544,148.131,Q,Q
2023-03-15 21:14:06:474,0,-54.7681,1.91841,148.13,Q,Q
2023-03-15 21:14:06:483,0,-54.7706,1.91767,148.131,Q,Q
2023-03-15 21:14:06:494,0,-54.771,1.91477,148.128,Q,Q
2023-03-15 21:14:06:504,0,-54.7666,1.91167,148.128,Q,Q
2023-03-15 21:14:06:513,0,-54.7655,1.916,148.126,Q,Q
2023-03-15 21:14:06:523,0,-54.7653,1.91423,148.128,Q,Q
2023-03-15 21:14:06:534,0,-54.7669,1.91359,148.131,Q,Q
2023-03-15 21:14:06:544,0,-54.7671,1.91314,148.132,Q,Q
2023-03-15 21:14:06:554,0,-54.765,1.91545,148.131,Q,Q
2023-03-15 21:14:06:563,0,-54.7655,1.91348,148.134,Q,Q
2023-03-15 21:14:06:574,0,-54.7642,1.91233,148.132,Q,Q
2023-03-15 21:14:06:584,0,-54.7637,1.91192,148.134,Q,Q
2023-03-15 21:14:06:594,0,-54.7637,1.91193,148.136,Q,Q
2023-03-15 21:14:06:604,0,-54.7633,1.91411,148.135,Q,Q
2023-03-15 21:14:06:614,0,-54.7619,1.91526,148.137,Q,Q
2023-03-15 21:14:06:624,0,-54.7614,1.91698,148.139,Q,Q
2023-03-15 21:14:06:634,0,-54.7614,1.91614,148.139,Q,Q
2023-03-15 21:14:06:644,0,-54.76,1.91731,148.138,Q,Q
2023-03-15 21:14:06:654,0,-54.7602,1.92077,148.136,Q,Q
2023-03-15 21:14:06:663,0,-54.7607,1.92192,148.137,Q,Q
2023-03-15 21:14:06:674,0,-54.7584,1.9222,148.139,Q,Q
2023-03-15 21:14:06:684,0,-54.7595,1.92493,148.14,Q,Q
2023-03-15 21:14:06:694,0,-54.7562,1.92396,148.144,Q,Q
2023-03-15 21:14:06:704,0,-54.7556,1.92417,148.145,Q,Q
2023-03-15 21:14:06:714,0,-54.7563,1.92419,148.146,Q,Q
2023-03-15 21:14:06:724,0,-54.755,1.92322,148.15,Q,Q
2023-03-15 21:14:06:734,0,-54.7564,1.92346,148.147,Q,Q
2023-03-15 21:14:06:744,0,-54.7567,1.92291,148.146,Q,Q
2023-03-15 21:14:06:754,0,-54.7551,1.92341,148.143,Q,Q
2023-03-15 21:14:06:764,0,-54.7555,1.92527,148.143,Q,Q
2023-03-15 21:14:06:774,0,-54.7569,1.9265,148.143,Q,Q
2023-03-15 21:14:06:784,0,-54.7598,1.92855,148.144,Q,Q
2023-03-15 21:14:06:794,0,-54.7614,1.9242,148.142,Q,Q
2023-03-15 21:14:06:804,0,-54.7581,1.9244,148.143,Q,Q
2023-03-15 21:14:06:814,0,-54.7559,1.92494,148.142,Q,Q
2023-03-15 21:14:06:824,0,-54.7563,1.92349,148.144,Q,Q
2023-03-15 21:14:06:834,0,-54.755,1.92331,148.142,Q,Q
2023-03-15 21:14:06:844,0,-54.757,1.92229,148.141,Q,Q
2023-03-15 21:14:06:854,0,-54.759,1.92397,148.139,Q,Q
2023-03-15 21:14:06:864,0,-54.7571,1.92483,148.137,Q,Q
2023-03-15 21:14:06:874,0,-54.7561,1.92592,148.14,Q,Q
2023-03-15 21:14:06:884,0,-54.7595,1.92319,148.14,Q,Q
2023-03-15 21:14:06:894,0,-54.7612,1.92311,148.138,Q,Q
2023-03-15 21:14:06:904,0,-54.7609,1.92119,148.142,Q,Q
2023-03-15 21:14:06:914,0,-54.7678,1.92198,148.145,Q,Q
2023-03-15 21:14:06:924,0,-54.7692,1.92028,148.143,Q,Q
2023-03-15 21:14:06:934,0,-54.7666,1.92048,148.144,Q,Q
2023-03-15 21:14:06:944,0,-54.7658,1.91709,148.14,Q,Q
2023-03-15 21:14:06:954,0,-54.7693,1.91915,148.144,Q,Q
2023-03-15 21:14:06:964,0,-54.7709,1.92079,148.143,Q,Q
2023-03-15 21:14:06:974,0,-54.772,1.91856,148.14,Q,Q
2023-03-15 21:14:06:984,0,-54.7713,1.91689,148.14,Q,Q
2023-03-15 21:14:06:994,0,-54.7726,1.91499,148.139,Q,Q
2023-03-15 21:14:07:4,0,-54.7738,1.91625,148.142,Q,Q
2023-03-15 21:14:07:14,0,-54.7743,1.91694,148.142,Q,Q
2023-03-15 21:14:07:23,0,-54.7771,1.91518,148.14,Q,Q
2023-03-15 21:14:07:34,0,-54.7784,1.9161,148.141,Q,Q
2023-03-15 21:14:07:44,0,-54.7758,1.91711,148.142,Q,Q
2023-03-15 21:14:07:54,0,-54.7728,1.91645,148.143,Q,Q
2023-03-15 21:14:07:64,0,-54.7707,1.91341,148.141,Q,Q
2023-03-15 21:14:07:74,0,-54.7682,1.91136,148.139,Q,Q
2023-03-15 21:14:07:84,0,-54.7673,1.91493,148.136,Q,Q
2023-03-15 21:14:07:94,0,-54.7657,1.91607,148.139,Q,Q
2023-03-15 21:14:07:104,0,-54.7659,1.91708,148.138,Q,Q
2023-03-15 21:14:07:114,0,-54.7674,1.91893,148.139,Q,Q
2023-03-15 21:14:07:124,0,-54.7688,1.91638,148.137,Q,Q
2023-03-15 21:14:07:134,0,-54.7672,1.91931,148.135,Q,Q
2023-03-15 21:14:07:144,0,-54.7684,1.9188,148.132,Q,Q
2023-03-15 21:14:07:154,0,-54.7664,1.92251,148.133,Q,Q
2023-03-15 21:14:07:163,0,-54.7664,1.92232,148.133,Q,Q
2023-03-15 21:14:07:174,0,-54.7673,1.92415,148.135,Q,Q
2023-03-15 21:14:07:184,0,-54.7709,1.92832,148.134,Q,Q
2023-03-15 21:14:07:194,0,-54.7685,1.92909,148.134,Q,Q
2023-03-15 21:14:07:204,0,-54.7671,1.9303,148.133,Q,Q
2023-03-15 21:14:07:214,0,-54.7641,1.93224,148.131,Q,Q
2023-03-15 21:14:07:224,0,-54.7661,1.9321,148.132,Q,Q
2023-03-15 21:14:07:234,0,-54.7672,1.93152,148.131,Q,Q
2023-03-15 21:14:07:244,0,-54.7679,1.93306,148.135,Q,Q
2023-03-15 21:14:07:254,0,-54.77,1.93268,148.135,Q,Q
2023-03-15 21:14:07:264,0,-54.7693,1.93067,148.135,Q,Q
2023-03-15 21:14:07:274,0,-54.7709,1.93282,148.129,Q,Q
2023-03-15 21:14:07:284,0,-54.7711,1.93349,148.126,Q,Q
2023-03-15 21:14:07:294,0,-54.7716,1.93474,148.126,Q,Q
2023-03-15 21:14:07:304,0,-54.7698,1.93436,148.124,Q,Q
2023-03-15 21:14:07:314,0,-54.7685,1.93292,148.125,Q,Q
2023-03-15 21:14:07:324,0,-54.7655,1.93143,148.122,Q,Q
2023-03-15 21:14:07:334,0,-54.7648,1.93273,148.12,Q,Q
2023-03-15 21:14:07:344,0,-54.765,1.9342,148.119,Q,Q
2023-03-15 21:14:07:354,0,-54.762,1.93557,148.12,Q,Q
2023-03-15 21:14:07:364,0,-54.759,1.93488,148.12,Q,Q
2023-03-15 21:14:07:374,0,-54.7596,1.93513,148.125,Q,Q
2023-03-15 21:14:07:384,0,-54.7595,1.93595,148.122,Q,Q
2023-03-15 21:14:07:394,0,-54.7596,1.93694,148.12,Q,Q
2023-03-15 21:14:07:404,0,-54.7608,1.93817,148.12,Q,Q
2023-03-15 21:14:07:414,0,-54.7619,1.94088,148.119,Q,Q
2023-03-15 21:14:07:424,0,-54.7616,1.94014,148.121,Q,Q
2023-03-15 21:14:07:434,0,-54.7593,1.94334,148.123,Q,Q
2023-03-15 21:14:07:444,0,-54.7581,1.94133,148.122,Q,Q
2023-03-15 21:14:07:454,0,-54.7604,1.94207,148.123,Q,Q
2023-03-15 21:14:07:464,0,-54.7637,1.93977,148.12,Q,Q
2023-03-15 21:14:07:474,0,-54.7641,1.94028,148.119,Q,Q
2023-03-15 21:14:07:484,0,-54.7664,1.94044,148.122,Q,Q
2023-03-15 21:14:07:494,0,-54.7682,1.93723,148.125,Q,Q
2023-03-15 21:14:07:503,0,-54.7686,1.93638,148.126,Q,Q
2023-03-15 21:14:07:514,0,-54.7672,1.93516,148.125,Q,Q
2023-03-15 21:14:07:524,0,-54.766,1.94151,148.124,Q,Q
2023-03-15 21:14:07:534,0,-54.7693,1.93985,148.124,Q,Q
2023-03-15 21:14:07:544,0,-54.7737,1.93863,148.127,Q,Q
2023-03-15 21:14:07:554,0,-54.7735,1.93744,148.128,Q,Q
2023-03-15 21:14:07:564,0,-54.7714,1.93694,148.127,Q,Q
2023-03-15 21:14:07:574,0,-54.7691,1.93718,148.127,Q,Q
2023-03-15 21:14:07:584,0,-54.7721,1.93522,148.127,Q,Q
2023-03-15 21:14:07:594,0,-54.77,1.93368,148.123,Q,Q
2023-03-15 21:14:07:604,0,-54.7708,1.93661,148.125,Q,Q
2023-03-15 21:14:07:614,0,-54.7682,1.93386,148.123,Q,Q
2023-03-15 21:14:07:624,0,-54.7693,1.93568,148.123,Q,Q
2023-03-15 21:14:07:634,0,-54.7689,1.93827,148.122,Q,Q
2023-03-15 21:14:07:644,0,-54.7693,1.93948,148.121,Q,Q
2023-03-15 21:14:07:654,0,-54.7688,1.94155,148.124,Q,Q
2023-03-15 21:14:07:664,0,-54.7701,1.9399,148.127,Q,Q
2023-03-15 21:14:07:674,0,-54.7676,1.93964,148.127,Q,Q
2023-03-15 21:14:07:684,0,-54.7691,1.94225,148.13,Q,Q
2023-03-15 21:14:07:694,0,-54.7685,1.9404,148.132,Q,Q
2023-03-15 21:14:07:704,0,-54.7725,1.94034,148.132,Q,Q
2023-03-15 21:14:07:714,0,-54.7713,1.93841,148.131,Q,Q
2023-03-15 21:14:07:724,0,-54.7719,1.936,148.129,Q,Q
2023-03-15 21:14:07:734,0,-54.7686,1.93715,148.13,Q,Q
2023-03-15 21:14:07:744,0,-54.7694,1.94038,148.131,Q,Q
2023-03-15 21:14:07:754,0,-54.7699,1.93993,148.133,Q,Q
2023-03-15 21:14:07:764,0,-54.7691,1.93782,148.134,Q,Q
2023-03-15 21:14:07:774,0,-54.7712,1.9379,148.136,Q,Q
2023-03-15 21:14:07:784,0,-54.7706,1.94059,148.134,Q,Q
2023-03-15 21:14:07:794,0,-54.7711,1.93854,148.131,Q,Q
2023-03-15 21:14:07:804,0,-54.7721,1.93721,148.133,Q,Q
2023-03-15 21:14:07:814,0,-54.77,1.93603,148.13,Q,Q
2023-03-15 21:14:07:824,0,-54.7702,1.93592,148.129,Q,Q
2023-03-15 21:14:07:834,0,-54.7715,1.93585,148.126,Q,Q
2023-03-15 21:14:07:844,0,-54.7742,1.9336,148.128,Q,Q
2023-03-15 21:14:07:854,0,-54.7744,1.93215,148.13,Q,Q
2023-03-15 21:14:07:864,0,-54.7769,1.93485,148.129,Q,Q
2023-03-15 21:14:07:874,0,-54.7766,1.9344,148.129,Q,Q
2023-03-15 21:14:07:884,0,-54.7741,1.93446,148.129,Q,Q
2023-03-15 21:14:07:894,0,-54.7759,1.93501,148.132,Q,Q
2023-03-15 21:14:07:904,0,-54.7781,1.93423,148.132,Q,Q
2023-03-15 21:14:07:914,0,-54.7783,1.93155,148.132,Q,Q
2023-03-15 21:14:07:924,0,-54.7828,1.93103,148.133,Q,Q
2023-03-15 21:14:07:934,0,-54.7861,1.92894,148.132,Q,Q
2023-03-15 21:14:07:944,0,-54.7866,1.92958,148.129,Q,Q
2023-03-15 21:14:07:954,0,-54.7899,1.92964,148.129,Q,Q
2023-03-15 21:14:07:964,0,-54.788,1.93048,148.127,Q,Q
2023-03-15 21:14:07:974,0,-54.7904,1.93172,148.127,Q,Q
2023-03-15 21:14:07:984,0,-54.7888,1.92916,148.127,Q,Q
2023-03-15 21:14:07:994,0,-54.7892,1.92996,148.13,Q,Q
2023-03-15 21:14:08:4,0,-54.7912,1.92731,148.13,Q,Q
2023-03-15 21:14:08:14,0,-54.7934,1.92547,148.126,Q,Q
2023-03-15 21:14:08:24,0,-54.7921,1.9241,148.129,Q,Q
2023-03-15 21:14:08:34,0,-54.7918,1.92637,148.127,Q,Q
2023-03-15 21:14:08:44,0,-54.7914,1.92629,148.128,Q,Q
2023-03-15 21:14:08:54,0,-54.7895,1.92802,148.126,Q,Q
2023-03-15 21:14:08:64,0,-54.79,1.92887,148.131,Q,Q
2023-03-15 21:14:08:74,0,-54.7941,1.92903,148.129,Q,Q
2023-03-15 21:14:08:84,0,-54.7926,1.93057,148.129,Q,Q
2023-03-15 21:14:08:94,0,-54.7931,1.9333,148.128,Q,Q
2023-03-15 21:14:08:104,0,-54.7938,1.93342,148.128,Q,Q
2023-03-15 21:14:08:114,0,-54.7923,1.93292,148.128,Q,Q
2023-03-15 21:14:08:124,0,-54.7897,1.93447,148.131,Q,Q
2023-03-15 21:14:08:134,0,-54.7893,1.93501,148.134,Q,Q
2023-03-15 21:14:08:144,0,-54.7869,1.93373,148.133,Q,Q
2023-03-15 21:14:08:154,0,-54.7843,1.9319,148.133,Q,Q
2023-03-15 21:14:08:164,0,-54.7835,1.9332,148.132,Q,Q
2023-03-15 21:14:08:174,0,-54.7833,1.93244,148.132,Q,Q
2023-03-15 21:14:08:184,0,-54.7847,1.93226,148.134,Q,Q
2023-03-15 21:14:08:194,0,-54.7852,1.93305,148.134,Q,Q
2023-03-15 21:14:08:204,0,-54.7859,1.93323,148.132,Q,Q
2023-03-15 21:14:08:214,0,-54.7848,1.93429,148.128,Q,Q
2023-03-15 21:14:08:224,0,-54.7827,1.93326,148.13,Q,Q
2023-03-15 21:14:08:234,0,-54.7814,1.9324,148.13,Q,Q
2023-03-15 21:14:08:244,0,-54.7781,1.93308,148.129,Q,Q
2023-03-15 21:14:08:254,0,-54.7765,1.93768,148.129,Q,Q
2023-03-15 21:14:08:264,0,-54.777,1.93775,148.126,Q,Q
2023-03-15 21:14:08:274,0,-54.7775,1.93628,148.128,Q,Q
2023-03-15 21:14:08:284,0,-54.7763,1.93493,148.129,Q,Q
2023-03-15 21:14:08:294,0,-54.7753,1.93673,148.128,Q,Q
2023-03-15 21:14:08:304,0,-54.7785,1.9358,148.129,Q,Q
2023-03-15 21:14:08:314,0,-54.7759,1.936,148.129,Q,Q
2023-03-15 21:14:08:324,0,-54.7765,1.93438,148.13,Q,Q
2023-03-15 21:14:08:334,0,-54.7759,1.93131,148.131,Q,Q
2023-03-15 21:14:08:344,0,-54.7755,1.93112,148.132,Q,Q
2023-03-15 21:14:08:354,0,-54.777,1.9298,148.134,Q,Q
2023-03-15 21:14:08:364,0,-54.7754,1.9294,148.135,Q,Q
2023-03-15 21:14:08:374,0,-54.7741,1.9311,148.134,Q,Q
2023-03-15 21:14:08:384,0,-54.7737,1.93129,148.135,Q,Q
2023-03-15 21:14:08:394,0,-54.7726,1.92983,148.133,Q,Q
2023-03-15 21:14:08:404,0,-54.7744,1.93051,148.136,Q,Q
2023-03-15 21:14:08:414,0,-54.7761,1.93473,148.134,Q,Q
2023-03-15 21:14:08:424,0,-54.7755,1.93328,148.132,Q,Q
2023-03-15 21:14:08:434,0,-54.7755,1.93329,148.132,Q,Q
2023-03-15 21:14:08:444,0,-54.7729,1.93346,148.132,Q,Q
2023-03-15 21:14:08:454,0,-54.7751,1.93525,148.131,Q,Q
2023-03-15 21:14:08:464,0,-54.7756,1.93514,148.13,Q,Q
2023-03-15 21:14:08:474,0,-54.7752,1.93556,148.129,Q,Q
2023-03-15 21:14:08:484,0,-54.7731,1.93786,148.128,Q,Q
2023-03-15 21:14:08:494,0,-54.7724,1.94372,148.125,Q,Q
2023-03-15 21:14:08:504,0,-54.7712,1.94276,148.127,Q,Q
2023-03-15 21:14:08:514,0,-54.7741,1.94621,148.129,Q,Q
2023-03-15 21:14:08:524,0,-54.7714,1.94798,148.132,Q,Q
2023-03-15 21:14:08:534,0,-54.7702,1.94426,148.133,Q,Q
2023-03-15 21:14:08:544,0,-54.7661,1.94059,148.135,Q,Q
2023-03-15 21:14:08:554,0,-54.7633,1.94215,148.134,Q,Q
2023-03-15 21:14:08:564,0,-54.7633,1.93939,148.135,Q,Q
2023-03-15 21:14:08:574,0,-54.7662,1.94016,148.136,Q,Q
2023-03-15 21:14:08:584,0,-54.7684,1.93909,148.137,Q,Q
2023-03-15 21:14:08:594,0,-54.7657,1.93861,148.137,Q,Q
2023-03-15 21:14:08:604,0,-54.7648,1.94173,148.137,Q,Q
2023-03-15 21:14:08:614,0,-54.7648,1.94289,148.136,Q,Q
2023-03-15 21:14:08:624,0,-54.764,1.94013,148.137,Q,Q
2023-03-15 21:14:08:634,0,-54.7641,1.94248,148.134,Q,Q
2023-03-15 21:14:08:644,0,-54.7628,1.94473,148.133,Q,Q
2023-03-15 21:14:08:654,0,-54.7624,1.94306,148.134,Q,Q
2023-03-15 21:14:08:664,0,-54.7611,1.94147,148.134,Q,Q
2023-03-15 21:14:08:674,0,-54.7597,1.94098,148.133,Q,Q
2023-03-15 21:14:08:684,0,-54.7567,1.94106,148.132,Q,Q
2023-03-15 21:14:08:694,0,-54.7544,1.93929,148.133,Q,Q
2023-03-15 21:14:08:704,0,-54.7558,1.94084,148.133,Q,Q
2023-03-15 21:14:08:714,0,-54.7566,1.94041,148.134,Q,Q
2023-03-15 21:14:08:724,0,-54.7585,1.93953,148.132,Q,Q
2023-03-15 21:14:08:734,0,-54.758,1.93934,148.133,Q,Q
2023-03-15 21:14:08:744,0,-54.7573,1.93938,148.133,Q,Q
2023-03-15 21:14:08:754,0,-54.7577,1.93731,148.135,Q,Q
2023-03-15 21:14:08:764,0,-54.7558,1.94017,148.136,Q,Q
2023-03-15 21:14:08:774,0,-54.752,1.93964,148.137,Q,Q
2023-03-15 21:14:08:784,0,-54.7516,1.93846,148.137,Q,Q
2023-03-15 21:14:08:794,0,-54.7499,1.93528,148.137,Q,Q
2023-03-15 21:14:08:804,0,-54.7494,1.93756,148.135,Q,Q
2023-03-15 21:14:08:814,0,-54.7497,1.93798,148.135,Q,Q
2023-03-15 21:14:08:824,0,-54.7509,1.93596,148.137,Q,Q
2023-03-15 21:14:08:834,0,-54.7518,1.93591,148.138,Q,Q
2023-03-15 21:14:08:844,0,-54.7519,1.93453,148.139,Q,Q
2023-03-15 21:14:08:854,0,-54.7548,1.93312,148.14,Q,Q
2023-03-15 21:14:08:864,0,-54.7533,1.93626,148.14,Q,Q
2023-03-15 21:14:08:874,0,-54.7536,1.93731,148.137,Q,Q
2023-03-15 21:14:08:884,0,-54.7534,1.93722,148.134,Q,Q
2023-03-15 21:14:08:894,0,-54.7511,1.93742,148.137,Q,Q
2023-03-15 21:14:08:904,0,-54.7511,1.938,148.137,Q,Q
2023-03-15 21:14:08:914,0,-54.7524,1.94023,148.136,Q,Q
2023-03-15 21:14:08:924,0,-54.752,1.9375,148.132,Q,Q
2023-03-15 21:14:08:934,0,-54.7539,1.93592,148.133,Q,Q
2023-03-15 21:14:08:944,0,-54.7535,1.93623,148.134,Q,Q
2023-03-15 21:14:08:954,0,-54.7544,1.93448,148.135,Q,Q
2023-03-15 21:14:08:964,0,-54.756,1.93302,148.137,Q,Q
2023-03-15 21:14:08:974,0,-54.7581,1.93261,148.14,Q,Q
2023-03-15 21:14:08:984,0,-54.761,1.932,148.14,Q,Q
2023-03-15 21:14:08:994,0,-54.7606,1.93121,148.143,Q,Q
2023-03-15 21:14:09:4,0,-54.7599,1.92936,148.144,Q,Q
2023-03-15 21:14:09:14,0,-54.7598,1.9296,148.144,Q,Q
2023-03-15 21:14:09:24,0,-54.7593,1.93161,148.142,Q,Q
2023-03-15 21:14:09:34,0,-54.7608,1.92766,148.138,Q,Q
2023-03-15 21:14:09:44,0,-54.7632,1.92681,148.133,Q,Q
2023-03-15 21:14:09:54,0,-54.7646,1.92736,148.135,Q,Q
2023-03-15 21:14:09:64,0,-54.762,1.92734,148.137,Q,Q
2023-03-15 21:14:09:74,0,-54.7609,1.92525,148.137,Q,Q
2023-03-15 21:14:09:84,0,-54.7621,1.92364,148.137,Q,Q
2023-03-15 21:14:09:94,0,-54.7601,1.92494,148.139,Q,Q
2023-03-15 21:14:09:104,0,-54.7573,1.92666,148.139,Q,Q
2023-03-15 21:14:09:114,0,-54.7574,1.92962,148.138,Q,Q
2023-03-15 21:14:09:124,0,-54.758,1.92979,148.138,Q,Q
2023-03-15 21:14:09:134,0,-54.7577,1.92988,148.135,Q,Q
2023-03-15 21:14:09:144,0,-54.7574,1.93038,148.133,Q,Q
2023-03-15 21:14:09:154,0,-54.7564,1.92935,148.131,Q,Q
2023-03-15 21:14:09:164,0,-54.7574,1.92888,148.13,Q,Q
2023-03-15 21:14:09:174,0,-54.7572,1.92739,148.132,Q,Q
2023-03-15 21:14:09:184,0,-54.7555,1.92955,148.129,Q,Q
2023-03-15 21:14:09:194,0,-54.7555,1.92717,148.129,Q,Q
2023-03-15 21:14:09:204,0,-54.7564,1.92798,148.129,Q,Q
2023-03-15 21:14:09:214,0,-54.7587,1.92805,148.129,Q,Q
2023-03-15 21:14:09:224,0,-54.7549,1.92787,148.127,Q,Q
2023-03-15 21:14:09:234,0,-54.7551,1.92932,148.128,Q,Q
2023-03-15 21:14:09:244,0,-54.7566,1.93098,148.128,Q,Q
2023-03-15 21:14:09:254,0,-54.7561,1.93167,148.129,Q,Q
2023-03-15 21:14:09:264,0,-54.755,1.93086,148.127,Q,Q
2023-03-15 21:14:09:274,0,-54.7558,1.93164,148.127,Q,Q
2023-03-15 21:14:09:284,0,-54.7541,1.93267,148.125,Q,Q
2023-03-15 21:14:09:294,0,-54.7536,1.93421,148.127,Q,Q
2023-03-15 21:14:09:304,0,-54.7565,1.93476,148.128,Q,Q
2023-03-15 21:14:09:314,0,-54.7553,1.93719,148.126,Q,Q
2023-03-15 21:14:09:324,0,-54.7546,1.93579,148.126,Q,Q
2023-03-15 21:14:09:334,0,-54.7534,1.93807,148.124,Q,Q
2023-03-15 21:14:09:344,0,-54.7507,1.93389,148.127,Q,Q
2023-03-15 21:14:09:354,0,-54.7496,1.93384,148.126,Q,Q
2023-03-15 21:14:09:364,0,-54.7503,1.93314,148.125,Q,Q
2023-03-15 21:14:09:374,0,-54.7469,1.93453,148.124,Q,Q
2023-03-15 21:14:09:384,0,-54.7471,1.93204,148.125,Q,Q
2023-03-15 21:14:09:394,0,-54.7468,1.93362,148.125,Q,Q
2023-03-15 21:14:09:404,0,-54.7469,1.9293,148.122,Q,Q
2023-03-15 21:14:09:414,0,-54.7507,1.93236,148.121,Q,Q
2023-03-15 21:14:09:424,0,-54.7495,1.93457,148.123,Q,Q
2023-03-15 21:14:09:434,0,-54.7491,1.93311,148.124,Q,Q
2023-03-15 21:14:09:444,0,-54.7465,1.93319,148.127,Q,Q
2023-03-15 21:14:09:454,0,-54.7472,1.93552,148.127,Q,Q
2023-03-15 21:14:09:464,0,-54.7453,1.93675,148.124,Q,Q
2023-03-15 21:14:09:474,0,-54.7459,1.93645,148.123,Q,Q
2023-03-15 21:14:09:484,0,-54.7453,1.93306,148.127,Q,Q
2023-03-15 21:14:09:495,0,-54.7463,1.93418,148.125,Q,Q
2023-03-15 21:14:09:504,0,-54.7465,1.93358,148.123,Q,Q
2023-03-15 21:14:09:514,0,-54.7473,1.93588,148.121,Q,Q
2023-03-15 21:14:09:524,0,-54.7511,1.93752,148.122,Q,Q
2023-03-15 21:14:09:534,0,-54.7508,1.93488,148.123,Q,Q
2023-03-15 21:14:09:544,0,-54.7491,1.93304,148.126,Q,Q
2023-03-15 21:14:09:554,0,-54.7473,1.93382,148.126,Q,Q
2023-03-15 21:14:09:564,0,-54.7497,1.93337,148.125,Q,Q
2023-03-15 21:14:09:574,0,-54.748,1.9312,148.129,Q,Q
2023-03-15 21:14:09:584,0,-54.7471,1.93009,148.129,Q,Q
2023-03-15 21:14:09:594,0,-54.7473,1.92802,148.128,Q,Q
2023-03-15 21:14:09:604,0,-54.7475,1.92954,148.128,Q,Q
2023-03-15 21:14:09:614,0,-54.7511,1.92809,148.129,Q,Q
2023-03-15 21:14:09:624,0,-54.7531,1.92964,148.128,Q,Q
2023-03-15 21:14:09:635,0,-54.7529,1.92769,148.13,Q,Q
2023-03-15 21:14:09:644,0,-54.7486,1.92785,148.133,Q,Q
2023-03-15 21:14:09:655,0,-54.7493,1.92712,148.129,Q,Q
2023-03-15 21:14:09:664,0,-54.746,1.92794,148.127,Q,Q
2023-03-15 21:14:09:675,0,-54.7437,1.92744,148.13,Q,Q
2023-03-15 21:14:09:684,0,-54.744,1.93032,148.129,Q,Q
2023-03-15 21:14:09:695,0,-54.7429,1.93135,148.13,Q,Q
2023-03-15 21:14:09:705,0,-54.7378,1.92839,148.131,Q,Q
2023-03-15 21:14:09:715,0,-54.7369,1.92611,148.13,Q,Q
2023-03-15 21:14:09:724,0,-54.7394,1.92669,148.13,Q,Q
2023-03-15 21:14:09:735,0,-54.7385,1.92812,148.131,Q,Q
2023-03-15 21:14:09:745,0,-54.7389,1.92624,148.131,Q,Q
2023-03-15 21:14:09:755,0,-54.7367,1.92592,148.129,Q,Q
2023-03-15 21:14:09:765,0,-54.736,1.92553,148.131,Q,Q
2023-03-15 21:14:09:774,0,-54.7348,1.92057,148.128,Q,Q
2023-03-15 21:14:09:785,0,-54.736,1.92056,148.125,Q,Q
2023-03-15 21:14:09:795,0,-54.7365,1.92208,148.123,Q,Q
2023-03-15 21:14:09:805,0,-54.7362,1.92625,148.122,Q,Q
2023-03-15 21:14:09:815,0,-54.7379,1.92379,148.123,Q,Q
2023-03-15 21:14:09:825,0,-54.7375,1.92628,148.13,Q,Q
2023-03-15 21:14:09:835,0,-54.7376,1.92723,148.129,Q,Q
2023-03-15 21:14:09:845,0,-54.737,1.92939,148.13,Q,Q
2023-03-15 21:14:09:855,0,-54.7366,1.93197,148.126,Q,Q
2023-03-15 21:14:09:865,0,-54.7375,1.93281,148.125,Q,Q
2023-03-15 21:14:09:875,0,-54.7362,1.93247,148.124,Q,Q
2023-03-15 21:14:09:885,0,-54.7377,1.93421,148.124,Q,Q
2023-03-15 21:14:09:894,0,-54.7381,1.93332,148.123,Q,Q
2023-03-15 21:14:09:905,0,-54.7365,1.92989,148.124,Q,Q
2023-03-15 21:14:09:915,0,-54.7352,1.92911,148.124,Q,Q
2023-03-15 21:14:09:925,0,-54.7331,1.93162,148.121,Q,Q
2023-03-15 21:14:09:935,0,-54.7357,1.92742,148.122,Q,Q
2023-03-15 21:14:09:944,0,-54.7363,1.92483,148.124,Q,Q
2023-03-15 21:14:09:955,0,-54.7356,1.92655,148.125,Q,Q
2023-03-15 21:14:09:965,0,-54.7357,1.92614,148.125,Q,Q
2023-03-15 21:14:09:975,0,-54.7336,1.92546,148.128,Q,Q
2023-03-15 21:14:09:985,0,-54.7325,1.92704,148.128,Q,Q
2023-03-15 21:14:09:995,0,-54.7317,1.92868,148.129,Q,Q
2023-03-15 21:14:10:5,0,-54.7322,1.92785,148.13,Q,Q
2023-03-15 21:14:10:15,0,-54.7302,1.92971,148.13,Q,Q
2023-03-15 21:14:10:25,0,-54.7327,1.92999,148.131,Q,Q
2023-03-15 21:14:10:34,0,-54.7335,1.93084,148.133,Q,Q
2023-03-15 21:14:10:45,0,-54.7372,1.93157,148.133,Q,Q
2023-03-15 21:14:10:54,0,-54.7364,1.93275,148.133,Q,Q
2023-03-15 21:14:10:65,0,-54.7366,1.93253,148.132,Q,Q
2023-03-15 21:14:10:75,0,-54.7379,1.93208,148.13,Q,Q
2023-03-15 21:14:10:84,0,-54.7406,1.93548,148.133,Q,Q
2023-03-15 21:14:10:94,0,-54.7422,1.93677,148.128,Q,Q
2023-03-15 21:14:10:104,0,-54.7426,1.93637,148.129,Q,Q
2023-03-15 21:14:10:114,0,-54.7428,1.93713,148.131,Q,Q
2023-03-15 21:14:10:124,0,-54.7422,1.93941,148.13,Q,Q
2023-03-15 21:14:10:135,0,-54.7418,1.94017,148.134,Q,Q
2023-03-15 21:14:10:144,0,-54.7387,1.94118,148.133,Q,Q
2023-03-15 21:14:10:154,0,-54.7379,1.94108,148.132,Q,Q
2023-03-15 21:14:10:165,0,-54.7425,1.94103,148.132,Q,Q
2023-03-15 21:14:10:175,0,-54.7431,1.94334,148.133,Q,Q
2023-03-15 21:14:10:185,0,-54.74,1.94523,148.135,Q,Q
2023-03-15 21:14:10:195,0,-54.7374,1.94384,148.134,Q,Q
2023-03-15 21:14:10:205,0,-54.7383,1.94639,148.134,Q,Q
2023-03-15 21:14:10:215,0,-54.7422,1.94792,148.137,Q,Q
2023-03-15 21:14:10:224,0,-54.7406,1.94911,148.136,Q,Q
2023-03-15 21:14:10:234,0,-54.7395,1.94816,148.134,Q,Q
2023-03-15 21:14:10:245,0,-54.7426,1.94918,148.135,Q,Q
2023-03-15 21:14:10:254,0,-54.7419,1.95082,148.138,Q,Q
2023-03-15 21:14:10:264,0,-54.7414,1.9483,148.141,Q,Q
2023-03-15 21:14:10:275,0,-54.7408,1.95105,148.14,Q,Q
2023-03-15 21:14:10:285,0,-54.7417,1.95155,148.141,Q,Q
2023-03-15 21:14:10:294,0,-54.741,1.95194,148.143,Q,Q
2023-03-15 21:14:10:305,0,-54.7409,1.95172,148.145,Q,Q
2023-03-15 21:14:10:315,0,-54.741,1.95589,148.143,Q,Q
2023-03-15 21:14:10:325,0,-54.7438,1.95563,148.142,Q,Q
2023-03-15 21:14:10:335,0,-54.7431,1.95231,148.143,Q,Q
2023-03-15 21:14:10:344,0,-54.7394,1.95266,148.144,Q,Q
2023-03-15 21:14:10:355,0,-54.7393,1.95298,148.143,Q,Q
2023-03-15 21:14:10:365,0,-54.7376,1.95217,148.142,Q,Q
2023-03-15 21:14:10:374,0,-54.7385,1.95345,148.14,Q,Q
2023-03-15 21:14:10:384,0,-54.7417,1.95458,148.143,Q,Q
2023-03-15 21:14:10:395,0,-54.7431,1.95381,148.144,Q,Q
2023-03-15 21:14:10:405,0,-54.7458,1.95423,148.144,Q,Q
2023-03-15 21:14:10:415,0,-54.7469,1.95407,148.144,Q,Q
2023-03-15 21:14:10:425,0,-54.7473,1.95233,148.145,Q,Q
2023-03-15 21:14:10:435,0,-54.75,1.95253,148.147,Q,Q
2023-03-15 21:14:10:445,0,-54.7518,1.94917,148.146,Q,Q
2023-03-15 21:14:10:455,0,-54.7503,1.94635,148.147,Q,Q
2023-03-15 21:14:10:465,0,-54.748,1.94712,148.147,Q,Q
2023-03-15 21:14:10:475,0,-54.7455,1.94738,148.148,Q,Q
2023-03-15 21:14:10:485,0,-54.7458,1.94579,148.148,Q,Q
2023-03-15 21:14:10:495,0,-54.7456,1.94335,148.151,Q,Q
2023-03-15 21:14:10:505,0,-54.745,1.94325,148.149,Q,Q
2023-03-15 21:14:10:515,0,-54.7464,1.94648,148.15,Q,Q
2023-03-15 21:14:10:525,0,-54.7473,1.94458,148.151,Q,Q
2023-03-15 21:14:10:535,0,-54.7458,1.93915,148.149,Q,Q
2023-03-15 21:14:10:544,0,-54.7469,1.93871,148.151,Q,Q
2023-03-15 21:14:10:554,0,-54.7483,1.93833,148.149,Q,Q
2023-03-15 21:14:10:564,0,-54.7479,1.93838,148.149,Q,Q
2023-03-15 21:14:10:575,0,-54.7477,1.93777,148.149,Q,Q
2023-03-15 21:14:10:585,0,-54.7485,1.93664,148.149,Q,Q
2023-03-15 21:14:10:594,0,-54.7513,1.93831,148.148,Q,Q
2023-03-15 21:14:10:604,0,-54.7542,1.93682,148.147,Q,Q
2023-03-15 21:14:10:614,0,-54.7556,1.93598,148.147,Q,Q
2023-03-15 21:14:10:625,0,-54.7561,1.93742,148.146,Q,Q
2023-03-15 21:14:10:635,0,-54.7548,1.93785,148.148,Q,Q
2023-03-15 21:14:10:645,0,-54.7561,1.93609,148.15,Q,Q
2023-03-15 21:14:10:655,0,-54.7543,1.93431,148.148,Q,Q
2023-03-15 21:14:10:665,0,-54.7543,1.93739,148.148,Q,Q
2023-03-15 21:14:10:675,0,-54.7527,1.93615,148.149,Q,Q
2023-03-15 21:14:10:685,0,-54.7491,1.93969,148.149,Q,Q
2023-03-15 21:14:10:695,0,-54.7478,1.94007,148.15,Q,Q
2023-03-15 21:14:10:705,0,-54.7489,1.94141,148.15,Q,Q
2023-03-15 21:14:10:715,0,-54.7502,1.94227,148.151,Q,Q
2023-03-15 21:14:10:725,0,-54.7538,1.94115,148.149,Q,Q
2023-03-15 21:14:10:735,0,-54.7512,1.93872,148.15,Q,Q
2023-03-15 21:14:10:745,0,-54.7519,1.93669,148.15,Q,Q
2023-03-15 21:14:10:755,0,-54.7536,1.94152,148.151,Q,Q
2023-03-15 21:14:10:765,0,-54.7528,1.9418,148.152,Q,Q
2023-03-15 21:14:10:775,0,-54.7526,1.94313,148.151,Q,Q
2023-03-15 21:14:10:784,0,-54.751,1.94438,148.15,Q,Q
2023-03-15 21:14:10:795,0,-54.7483,1.94307,148.15,Q,Q
2023-03-15 21:14:10:805,0,-54.7446,1.94112,148.148,Q,Q
2023-03-15 21:14:10:815,0,-54.74,1.93947,148.147,Q,Q
2023-03-15 21:14:10:825,0,-54.7415,1.94024,148.146,Q,Q
2023-03-15 21:14:10:835,0,-54.7444,1.94035,148.147,Q,Q
2023-03-15 21:14:10:845,0,-54.746,1.93833,148.149,Q,Q
2023-03-15 21:14:10:855,0,-54.7448,1.93741,148.151,Q,Q
2023-03-15 21:14:10:865,0,-54.7476,1.93521,148.154,Q,Q
2023-03-15 21:14:10:875,0,-54.7503,1.93385,148.153,Q,Q
2023-03-15 21:14:10:885,0,-54.751,1.93369,148.153,Q,Q
2023-03-15 21:14:10:895,0,-54.7503,1.9355,148.15,Q,Q
2023-03-15 21:14:10:905,0,-54.7515,1.93559,148.15,Q,Q
2023-03-15 21:14:10:915,0,-54.7509,1.93567,148.151,Q,Q
2023-03-15 21:14:10:925,0,-54.7513,1.93476,148.15,Q,Q
2023-03-15 21:14:10:935,0,-54.7499,1.9382,148.154,Q,Q
2023-03-15 21:14:10:945,0,-54.7508,1.94012,148.156,Q,Q
2023-03-15 21:14:10:955,0,-54.749,1.93797,148.161,Q,Q
2023-03-15 21:14:10:965,0,-54.7471,1.93681,148.162,Q,Q
2023-03-15 21:14:10:975,0,-54.747,1.93312,148.166,Q,Q
2023-03-15 21:14:10:985,0,-54.7473,1.93527,148.164,Q,Q
2023-03-15 21:14:10:995,0,-54.7452,1.93596,148.167,Q,Q
2023-03-15 21:14:11:5,0,-54.7448,1.93436,148.163,Q,Q
2023-03-15 21:14:11:15,0,-54.7443,1.93748,148.163,Q,Q
2023-03-15 21:14:11:25,0,-54.7448,1.93899,148.164,Q,Q
2023-03-15 21:14:11:35,0,-54.7435,1.94034,148.164,Q,Q
2023-03-15 21:14:11:45,0,-54.7433,1.94161,148.163,Q,Q
2023-03-15 21:14:11:55,0,-54.7421,1.93882,148.162,Q,Q
2023-03-15 21:14:11:65,0,-54.742,1.9386,148.161,Q,Q
2023-03-15 21:14:11:75,0,-54.7449,1.93625,148.159,Q,Q
2023-03-15 21:14:11:85,0,-54.7402,1.93534,148.162,Q,Q
2023-03-15 21:14:11:95,0,-54.7408,1.93402,148.163,Q,Q
2023-03-15 21:14:11:105,0,-54.7424,1.9311,148.162,Q,Q
2023-03-15 21:14:11:115,0,-54.7422,1.92997,148.163,Q,Q
2023-03-15 21:14:11:125,0,-54.7441,1.9295,148.162,Q,Q
2023-03-15 21:14:11:135,0,-54.7468,1.92907,148.161,Q,Q
2023-03-15 21:14:11:145,0,-54.7476,1.92755,148.161,Q,Q
2023-03-15 21:14:11:155,0,-54.7451,1.92864,148.158,Q,Q
2023-03-15 21:14:11:165,0,-54.7451,1.92874,148.156,Q,Q
2023-03-15 21:14:11:175,0,-54.7429,1.92959,148.154,Q,Q
