Timestamp_cmd,imu_cmd,roll_delta,pitch_delta,yaw_delta,voice_type,voice_length
2023-03-15 20:37:51:860,0,-58.6816,0.299773,147.586,Q,Q
2023-03-15 20:37:51:869,0,-58.6803,0.301768,147.587,Q,Q
2023-03-15 20:37:51:879,0,-58.6831,0.300933,147.586,Q,Q
2023-03-15 20:37:51:889,0,-58.6807,0.301742,147.582,Q,Q
2023-03-15 20:37:51:899,0,-58.6812,0.299867,147.582,Q,Q
2023-03-15 20:37:51:909,0,-58.6792,0.303256,147.583,Q,Q
2023-03-15 20:37:51:919,0,-58.6792,0.303908,147.586,Q,Q
2023-03-15 20:37:51:929,0,-58.678,0.304392,147.587,Q,Q
2023-03-15 20:37:51:939,0,-58.6798,0.304418,147.588,Q,Q
2023-03-15 20:37:51:949,0,-58.6799,0.304112,147.588,Q,Q
2023-03-15 20:37:51:959,0,-58.6802,0.305686,147.591,Q,Q
2023-03-15 20:37:51:969,0,-58.6795,0.306367,147.592,Q,Q
2023-03-15 20:37:51:979,0,-58.6788,0.303588,147.592,Q,Q
2023-03-15 20:37:51:989,0,-58.6772,0.302211,147.59,Q,Q
2023-03-15 20:37:51:999,0,-58.6773,0.301597,147.592,Q,Q
2023-03-15 20:37:52:10,0,-58.6791,0.301085,147.59,Q,Q
2023-03-15 20:37:52:19,0,-58.6774,0.299777,147.591,Q,Q
2023-03-15 20:37:52:29,0,-58.6761,0.298517,147.593,Q,Q
2023-03-15 20:37:52:40,0,-58.6766,0.296984,147.592,Q,Q
2023-03-15 20:37:52:50,0,-58.677,0.297051,147.589,Q,Q
2023-03-15 20:37:52:60,0,-58.6757,0.295687,147.593,Q,Q
2023-03-15 20:37:52:70,0,-58.6818,0.296197,147.594,Q,Q
2023-03-15 20:37:52:80,0,-58.6836,0.298076,147.592,Q,Q
2023-03-15 20:37:52:90,0,-58.6832,0.30028,147.592,Q,Q
2023-03-15 20:37:52:100,0,-58.6847,0.302065,147.591,Q,Q
2023-03-15 20:37:52:110,0,-58.6837,0.300688,147.592,Q,Q
2023-03-15 20:37:52:120,0,-58.6828,0.299676,147.593,Q,Q
2023-03-15 20:37:52:130,0,-58.6824,0.298784,147.594,Q,Q
2023-03-15 20:37:52:140,0,-58.6873,0.296309,147.594,Q,Q
2023-03-15 20:37:52:150,0,-58.688,0.298008,147.594,Q,Q
2023-03-15 20:37:52:160,0,-58.69,0.298584,147.592,Q,Q
2023-03-15 20:37:52:170,0,-58.6896,0.299356,147.593,Q,Q
2023-03-15 20:37:52:180,0,-58.6873,0.295768,147.593,Q,Q
2023-03-15 20:37:52:190,0,-58.6858,0.29663,147.593,Q,Q
2023-03-15 20:37:52:200,0,-58.686,0.297427,147.596,Q,Q
2023-03-15 20:37:52:210,0,-58.6865,0.296834,147.598,Q,Q
2023-03-15 20:37:52:220,0,-58.687,0.297172,147.597,Q,Q
2023-03-15 20:37:52:230,0,-58.6872,0.296343,147.596,Q,Q
2023-03-15 20:37:52:240,0,-58.6878,0.296743,147.596,Q,Q
2023-03-15 20:37:52:250,0,-58.6884,0.296345,147.597,Q,Q
2023-03-15 20:37:52:260,0,-58.6849,0.295547,147.6,Q,Q
2023-03-15 20:37:52:270,0,-58.685,0.295137,147.602,Q,Q
2023-03-15 20:37:52:280,0,-58.687,0.294765,147.604,Q,Q
2023-03-15 20:37:52:290,0,-58.6891,0.298113,147.605,Q,Q
2023-03-15 20:37:52:300,0,-58.6874,0.295927,147.604,Q,Q
2023-03-15 20:37:52:310,0,-58.6851,0.295746,147.602,Q,Q
2023-03-15 20:37:52:320,0,-58.683,0.295996,147.6,Q,Q
2023-03-15 20:37:52:330,0,-58.682,0.295276,147.604,Q,Q
2023-03-15 20:37:52:340,0,-58.6828,0.295163,147.602,Q,Q
2023-03-15 20:37:52:350,0,-58.6827,0.294807,147.601,Q,Q
2023-03-15 20:37:52:360,0,-58.6855,0.297653,147.602,Q,Q
2023-03-15 20:37:52:370,0,-58.6863,0.295,147.604,Q,Q
2023-03-15 20:37:52:380,0,-58.6827,0.295274,147.603,Q,Q
2023-03-15 20:37:52:390,0,-58.6803,0.295264,147.604,Q,Q
2023-03-15 20:37:52:400,0,-58.6819,0.294229,147.603,Q,Q
2023-03-15 20:37:52:410,0,-58.6804,0.295203,147.603,Q,Q
2023-03-15 20:37:52:420,0,-58.6787,0.294276,147.602,Q,Q
2023-03-15 20:37:52:430,0,-58.6785,0.297071,147.603,Q,Q
2023-03-15 20:37:52:440,0,-58.6778,0.299147,147.6,Q,Q
2023-03-15 20:37:52:450,0,-58.6754,0.297285,147.597,Q,Q
2023-03-15 20:37:52:460,0,-58.6753,0.296847,147.602,Q,Q
2023-03-15 20:37:52:470,0,-58.6728,0.298313,147.603,Q,Q
2023-03-15 20:37:52:480,0,-58.6708,0.295516,147.601,Q,Q
2023-03-15 20:37:52:490,0,-58.6708,0.298159,147.601,Q,Q
2023-03-15 20:37:52:500,0,-58.6713,0.297423,147.599,Q,Q
2023-03-15 20:37:52:510,0,-58.6704,0.296238,147.602,Q,Q
2023-03-15 20:37:52:520,0,-58.6693,0.296924,147.602,Q,Q
2023-03-15 20:37:52:530,0,-58.6672,0.298797,147.604,Q,Q
2023-03-15 20:37:52:540,0,-58.6655,0.299018,147.603,Q,Q
2023-03-15 20:37:52:550,0,-58.6621,0.297391,147.605,Q,Q
2023-03-15 20:37:52:561,0,-58.6618,0.298817,147.605,Q,Q
2023-03-15 20:37:52:570,0,-58.6608,0.299571,147.606,Q,Q
2023-03-15 20:37:52:580,0,-58.6605,0.300081,147.607,Q,Q
2023-03-15 20:37:52:590,0,-58.6623,0.300359,147.61,Q,Q
2023-03-15 20:37:52:601,0,-58.6621,0.295991,147.61,Q,Q
2023-03-15 20:37:52:610,0,-58.6607,0.297926,147.616,Q,Q
2023-03-15 20:37:52:620,0,-58.6604,0.299108,147.619,Q,Q
2023-03-15 20:37:52:630,0,-58.6583,0.297918,147.622,Q,Q
2023-03-15 20:37:52:640,0,-58.6564,0.295974,147.626,Q,Q
2023-03-15 20:37:52:650,0,-58.6561,0.296347,147.626,Q,Q
2023-03-15 20:37:52:660,0,-58.6556,0.296604,147.627,Q,Q
2023-03-15 20:37:52:670,0,-58.6555,0.297423,147.627,Q,Q
2023-03-15 20:37:52:680,0,-58.6567,0.29661,147.627,Q,Q
2023-03-15 20:37:52:691,0,-58.6555,0.296808,147.629,Q,Q
2023-03-15 20:37:52:701,0,-58.6551,0.293466,147.626,Q,Q
2023-03-15 20:37:52:711,0,-58.6565,0.295216,147.626,Q,Q
2023-03-15 20:37:52:721,0,-58.6572,0.293874,147.628,Q,Q
2023-03-15 20:37:52:731,0,-58.657,0.294854,147.629,Q,Q
2023-03-15 20:37:52:741,0,-58.6582,0.295047,147.628,Q,Q
2023-03-15 20:37:52:751,0,-58.6564,0.296912,147.631,Q,Q
2023-03-15 20:37:52:761,0,-58.6581,0.298841,147.634,Q,Q
2023-03-15 20:37:52:771,0,-58.6595,0.298349,147.636,Q,Q
2023-03-15 20:37:52:781,0,-58.6588,0.300188,147.637,Q,Q
2023-03-15 20:37:52:791,0,-58.6585,0.300329,147.635,Q,Q
2023-03-15 20:37:52:801,0,-58.66,0.298521,147.636,Q,Q
2023-03-15 20:37:52:811,0,-58.6582,0.296239,147.635,Q,Q
2023-03-15 20:37:52:821,0,-58.657,0.294608,147.637,Q,Q
2023-03-15 20:37:52:831,0,-58.6602,0.294523,147.635,Q,Q
2023-03-15 20:37:52:841,0,-58.6595,0.291934,147.638,Q,Q
2023-03-15 20:37:52:851,0,-58.6586,0.289961,147.638,Q,Q
2023-03-15 20:37:52:861,0,-58.6615,0.289722,147.636,Q,Q
2023-03-15 20:37:52:871,0,-58.6617,0.290199,147.636,Q,Q
2023-03-15 20:37:52:880,0,-58.6628,0.28924,147.638,Q,Q
2023-03-15 20:37:52:890,0,-58.6656,0.288763,147.638,Q,Q
2023-03-15 20:37:52:901,0,-58.6674,0.290776,147.64,Q,Q
2023-03-15 20:37:52:911,0,-58.666,0.289481,147.638,Q,Q
2023-03-15 20:37:52:921,0,-58.6667,0.292722,147.639,Q,Q
2023-03-15 20:37:52:931,0,-58.6672,0.290678,147.639,Q,Q
2023-03-15 20:37:52:941,0,-58.6664,0.29211,147.637,Q,Q
2023-03-15 20:37:52:951,0,-58.6665,0.290772,147.638,Q,Q
2023-03-15 20:37:52:961,0,-58.669,0.291569,147.64,Q,Q
2023-03-15 20:37:52:971,0,-58.6692,0.292082,147.642,Q,Q
2023-03-15 20:37:52:981,0,-58.6702,0.29277,147.64,Q,Q
2023-03-15 20:37:52:991,0,-58.6701,0.292943,147.641,Q,Q
2023-03-15 20:37:53:1,0,-58.6675,0.291792,147.641,Q,Q
2023-03-15 20:37:53:11,0,-58.6669,0.294945,147.64,Q,Q
2023-03-15 20:37:53:21,0,-58.6663,0.294406,147.642,Q,Q
2023-03-15 20:37:53:31,0,-58.6684,0.292508,147.641,Q,Q
2023-03-15 20:37:53:41,0,-58.667,0.29133,147.639,Q,Q
2023-03-15 20:37:53:51,0,-58.6666,0.289554,147.637,Q,Q
2023-03-15 20:37:53:61,0,-58.6663,0.287719,147.637,Q,Q
2023-03-15 20:37:53:71,0,-58.6697,0.288327,147.641,Q,Q
2023-03-15 20:37:53:81,0,-58.671,0.290047,147.64,Q,Q
2023-03-15 20:37:53:91,0,-58.6727,0.287682,147.641,Q,Q
2023-03-15 20:37:53:101,0,-58.6768,0.288396,147.643,Q,Q
2023-03-15 20:37:53:111,0,-58.6743,0.285086,147.644,Q,Q
2023-03-15 20:37:53:121,0,-58.672,0.28304,147.646,Q,Q
2023-03-15 20:37:53:131,0,-58.6731,0.283264,147.646,Q,Q
2023-03-15 20:37:53:141,0,-58.6735,0.282353,147.649,Q,Q
2023-03-15 20:37:53:151,0,-58.6727,0.280773,147.652,Q,Q
2023-03-15 20:37:53:161,0,-58.6733,0.279933,147.653,Q,Q
2023-03-15 20:37:53:171,0,-58.6737,0.279571,147.654,Q,Q
2023-03-15 20:37:53:181,0,-58.6726,0.279203,147.654,Q,Q
2023-03-15 20:37:53:191,0,-58.6729,0.280316,147.652,Q,Q
2023-03-15 20:37:53:201,0,-58.6723,0.279621,147.653,Q,Q
2023-03-15 20:37:53:211,0,-58.6706,0.280179,147.655,Q,Q
2023-03-15 20:37:53:221,0,-58.6709,0.278456,147.655,Q,Q
2023-03-15 20:37:53:231,0,-58.6685,0.278559,147.654,Q,Q
2023-03-15 20:37:53:241,0,-58.6686,0.276213,147.654,Q,Q
2023-03-15 20:37:53:251,0,-58.6657,0.275702,147.654,Q,Q
2023-03-15 20:37:53:261,0,-58.664,0.275959,147.652,Q,Q
2023-03-15 20:37:53:271,0,-58.6658,0.274091,147.651,Q,Q
2023-03-15 20:37:53:281,0,-58.667,0.275033,147.654,Q,Q
2023-03-15 20:37:53:292,0,-58.6649,0.274163,147.654,Q,Q
2023-03-15 20:37:53:301,0,-58.6632,0.2728,147.652,Q,Q
2023-03-15 20:37:53:312,0,-58.6617,0.277081,147.653,Q,Q
2023-03-15 20:37:53:322,0,-58.6632,0.280218,147.65,Q,Q
2023-03-15 20:37:53:332,0,-58.6629,0.277234,147.649,Q,Q
2023-03-15 20:37:53:342,0,-58.6661,0.280009,147.651,Q,Q
2023-03-15 20:37:53:352,0,-58.6664,0.281732,147.648,Q,Q
2023-03-15 20:37:53:362,0,-58.6645,0.283919,147.645,Q,Q
2023-03-15 20:37:53:372,0,-58.661,0.284918,147.646,Q,Q
2023-03-15 20:37:53:382,0,-58.6624,0.286928,147.648,Q,Q
2023-03-15 20:37:53:391,0,-58.6622,0.287255,147.646,Q,Q
2023-03-15 20:37:53:401,0,-58.6665,0.286823,147.648,Q,Q
2023-03-15 20:37:53:411,0,-58.6665,0.287005,147.65,Q,Q
2023-03-15 20:37:53:422,0,-58.6662,0.286419,147.651,Q,Q
2023-03-15 20:37:53:432,0,-58.6662,0.28571,147.649,Q,Q
2023-03-15 20:37:53:442,0,-58.6676,0.286912,147.648,Q,Q
2023-03-15 20:37:53:452,0,-58.6684,0.286424,147.649,Q,Q
2023-03-15 20:37:53:462,0,-58.667,0.28994,147.649,Q,Q
2023-03-15 20:37:53:472,0,-58.6677,0.291611,147.65,Q,Q
2023-03-15 20:37:53:482,0,-58.6686,0.293872,147.65,Q,Q
2023-03-15 20:37:53:492,0,-58.6662,0.295626,147.649,Q,Q
2023-03-15 20:37:53:502,0,-58.665,0.295363,147.651,Q,Q
2023-03-15 20:37:53:512,0,-58.6668,0.29445,147.653,Q,Q
2023-03-15 20:37:53:522,0,-58.6661,0.294494,147.653,Q,Q
2023-03-15 20:37:53:532,0,-58.665,0.294389,147.654,Q,Q
2023-03-15 20:37:53:542,0,-58.6655,0.295673,147.65,Q,Q
2023-03-15 20:37:53:552,0,-58.6677,0.294691,147.65,Q,Q
2023-03-15 20:37:53:562,0,-58.6664,0.294536,147.651,Q,Q
2023-03-15 20:37:53:572,0,-58.6666,0.296978,147.649,Q,Q
2023-03-15 20:37:53:582,0,-58.6647,0.296736,147.648,Q,Q
2023-03-15 20:37:53:592,0,-58.6679,0.298179,147.65,Q,Q
2023-03-15 20:37:53:602,0,-58.6694,0.301471,147.649,Q,Q
2023-03-15 20:37:53:612,0,-58.6673,0.301557,147.648,Q,Q
2023-03-15 20:37:53:622,0,-58.6711,0.301176,147.648,Q,Q
2023-03-15 20:37:53:632,0,-58.6701,0.303516,147.648,Q,Q
2023-03-15 20:37:53:642,0,-58.6691,0.304166,147.652,Q,Q
2023-03-15 20:37:53:652,0,-58.6693,0.303005,147.653,Q,Q
2023-03-15 20:37:53:662,0,-58.6734,0.302722,147.652,Q,Q
2023-03-15 20:37:53:672,0,-58.6733,0.303008,147.651,Q,Q
2023-03-15 20:37:53:682,0,-58.6722,0.302292,147.648,Q,Q
2023-03-15 20:37:53:692,0,-58.6736,0.303574,147.648,Q,Q
2023-03-15 20:37:53:702,0,-58.6735,0.304159,147.652,Q,Q
2023-03-15 20:37:53:712,0,-58.6721,0.304855,147.654,Q,Q
2023-03-15 20:37:53:723,0,-58.6711,0.303881,147.654,Q,Q
2023-03-15 20:37:53:732,0,-58.67,0.304788,147.654,Q,Q
2023-03-15 20:37:53:743,0,-58.6682,0.303174,147.655,Q,Q
2023-03-15 20:37:53:753,0,-58.666,0.302082,147.656,Q,Q
2023-03-15 20:37:53:763,0,-58.6648,0.300253,147.658,Q,Q
2023-03-15 20:37:53:772,0,-58.6647,0.297841,147.661,Q,Q
2023-03-15 20:37:53:783,0,-58.6672,0.29457,147.662,Q,Q
2023-03-15 20:37:53:792,0,-58.6665,0.294209,147.661,Q,Q
2023-03-15 20:37:53:803,0,-58.6677,0.296692,147.66,Q,Q
2023-03-15 20:37:53:813,0,-58.6714,0.297539,147.661,Q,Q
2023-03-15 20:37:53:823,0,-58.6715,0.295055,147.659,Q,Q
2023-03-15 20:37:53:833,0,-58.6716,0.296364,147.659,Q,Q
2023-03-15 20:37:53:843,0,-58.6723,0.299419,147.659,Q,Q
2023-03-15 20:37:53:853,0,-58.673,0.301261,147.662,Q,Q
2023-03-15 20:37:53:863,0,-58.6731,0.302823,147.662,Q,Q
2023-03-15 20:37:53:873,0,-58.6728,0.299889,147.662,Q,Q
2023-03-15 20:37:53:883,0,-58.6725,0.297672,147.662,Q,Q
2023-03-15 20:37:53:893,0,-58.6747,0.296051,147.663,Q,Q
2023-03-15 20:37:53:903,0,-58.6781,0.294835,147.664,Q,Q
2023-03-15 20:37:53:913,0,-58.6796,0.291731,147.663,Q,Q
2023-03-15 20:37:53:923,0,-58.6771,0.290641,147.663,Q,Q
2023-03-15 20:37:53:933,0,-58.6742,0.291858,147.663,Q,Q
2023-03-15 20:37:53:943,0,-58.6743,0.293556,147.662,Q,Q
2023-03-15 20:37:53:953,0,-58.6732,0.29339,147.662,Q,Q
2023-03-15 20:37:53:963,0,-58.674,0.294533,147.664,Q,Q
2023-03-15 20:37:53:973,0,-58.6723,0.295267,147.664,Q,Q
2023-03-15 20:37:53:983,0,-58.6723,0.293635,147.663,Q,Q
2023-03-15 20:37:53:993,0,-58.6735,0.293616,147.665,Q,Q
2023-03-15 20:37:54:3,0,-58.675,0.294631,147.665,Q,Q
2023-03-15 20:37:54:13,0,-58.6756,0.29195,147.667,Q,Q
2023-03-15 20:37:54:23,0,-58.6744,0.289115,147.667,Q,Q
2023-03-15 20:37:54:33,0,-58.6732,0.288081,147.665,Q,Q
2023-03-15 20:37:54:43,0,-58.6718,0.286391,147.668,Q,Q
2023-03-15 20:37:54:53,0,-58.6688,0.285865,147.671,Q,Q
2023-03-15 20:37:54:63,0,-58.6679,0.285015,147.672,Q,Q
2023-03-15 20:37:54:73,0,-58.6642,0.284056,147.674,Q,Q
2023-03-15 20:37:54:83,0,-58.6656,0.284316,147.674,Q,Q
2023-03-15 20:37:54:93,0,-58.6656,0.285754,147.675,Q,Q
2023-03-15 20:37:54:103,0,-58.6702,0.285035,147.675,Q,Q
2023-03-15 20:37:54:113,0,-58.673,0.287289,147.674,Q,Q
2023-03-15 20:37:54:123,0,-58.6718,0.28778,147.674,Q,Q
2023-03-15 20:37:54:133,0,-58.6701,0.286811,147.669,Q,Q
2023-03-15 20:37:54:143,0,-58.6705,0.287406,147.666,Q,Q
2023-03-15 20:37:54:153,0,-58.6705,0.287958,147.666,Q,Q
2023-03-15 20:37:54:163,0,-58.6721,0.287692,147.665,Q,Q
2023-03-15 20:37:54:173,0,-58.674,0.288594,147.664,Q,Q
2023-03-15 20:37:54:183,0,-58.6757,0.287178,147.666,Q,Q
2023-03-15 20:37:54:193,0,-58.6756,0.287698,147.665,Q,Q
2023-03-15 20:37:54:203,0,-58.6797,0.286098,147.668,Q,Q
2023-03-15 20:37:54:213,0,-58.6781,0.285153,147.671,Q,Q
2023-03-15 20:37:54:223,0,-58.68,0.282771,147.672,Q,Q
2023-03-15 20:37:54:233,0,-58.6785,0.283227,147.672,Q,Q
2023-03-15 20:37:54:243,0,-58.6768,0.285353,147.672,Q,Q
2023-03-15 20:37:54:253,0,-58.6792,0.285323,147.673,Q,Q
2023-03-15 20:37:54:263,0,-58.6851,0.282408,147.673,Q,Q
2023-03-15 20:37:54:273,0,-58.6884,0.278938,147.673,Q,Q
2023-03-15 20:37:54:283,0,-58.6732,0.288866,147.671,Q,Q
2023-03-15 20:37:54:293,0,-58.6635,0.292026,147.672,Q,Q
2023-03-15 20:37:54:303,0,-58.6679,0.289237,147.674,Q,Q
2023-03-15 20:37:54:313,0,-58.6673,0.286271,147.673,Q,Q
2023-03-15 20:37:54:323,0,-58.6714,0.284563,147.671,Q,Q
2023-03-15 20:37:54:333,0,-58.6671,0.28357,147.674,Q,Q
2023-03-15 20:37:54:343,0,-58.6641,0.283829,147.673,Q,Q
2023-03-15 20:37:54:353,0,-58.6614,0.281805,147.674,Q,Q
2023-03-15 20:37:54:363,0,-58.6621,0.282882,147.673,Q,Q
2023-03-15 20:37:54:373,0,-58.6609,0.28229,147.677,Q,Q
2023-03-15 20:37:54:383,0,-58.6625,0.280186,147.677,Q,Q
2023-03-15 20:37:54:393,0,-58.6628,0.281162,147.676,Q,Q
2023-03-15 20:37:54:403,0,-58.6614,0.284807,147.677,Q,Q
2023-03-15 20:37:54:413,0,-58.6602,0.284885,147.677,Q,Q
2023-03-15 20:37:54:423,0,-58.6631,0.2865,147.676,Q,Q
2023-03-15 20:37:54:433,0,-58.6653,0.286904,147.676,Q,Q
2023-03-15 20:37:54:443,0,-58.6644,0.286654,147.678,Q,Q
2023-03-15 20:37:54:453,0,-58.6655,0.283992,147.678,Q,Q
2023-03-15 20:37:54:463,0,-58.666,0.28448,147.677,Q,Q
2023-03-15 20:37:54:474,0,-58.6649,0.285452,147.677,Q,Q
2023-03-15 20:37:54:483,0,-58.6628,0.285683,147.678,Q,Q
2023-03-15 20:37:54:494,0,-58.6649,0.28528,147.676,Q,Q
2023-03-15 20:37:54:504,0,-58.6678,0.280425,147.676,Q,Q
2023-03-15 20:37:54:514,0,-58.6697,0.279058,147.673,Q,Q
2023-03-15 20:37:54:524,0,-58.6706,0.281625,147.676,Q,Q
2023-03-15 20:37:54:533,0,-58.6706,0.283184,147.676,Q,Q
2023-03-15 20:37:54:544,0,-58.6669,0.285268,147.677,Q,Q
2023-03-15 20:37:54:554,0,-58.6638,0.283364,147.678,Q,Q
2023-03-15 20:37:54:563,0,-58.6651,0.283399,147.677,Q,Q
2023-03-15 20:37:54:574,0,-58.67,0.278805,147.677,Q,Q
2023-03-15 20:37:54:584,0,-58.6713,0.27613,147.677,Q,Q
2023-03-15 20:37:54:594,0,-58.6746,0.274369,147.678,Q,Q
2023-03-15 20:37:54:604,0,-58.6726,0.277811,147.676,Q,Q
2023-03-15 20:37:54:614,0,-58.6675,0.281764,147.678,Q,Q
2023-03-15 20:37:54:624,0,-58.6644,0.280944,147.68,Q,Q
2023-03-15 20:37:54:634,0,-58.6657,0.279618,147.679,Q,Q
2023-03-15 20:37:54:643,0,-58.6723,0.27615,147.681,Q,Q
2023-03-15 20:37:54:654,0,-58.6764,0.273325,147.68,Q,Q
2023-03-15 20:37:54:664,0,-58.6708,0.277505,147.677,Q,Q
2023-03-15 20:37:54:674,0,-58.6691,0.276848,147.678,Q,Q
2023-03-15 20:37:54:684,0,-58.6639,0.278978,147.678,Q,Q
2023-03-15 20:37:54:694,0,-58.6654,0.279119,147.679,Q,Q
2023-03-15 20:37:54:704,0,-58.6667,0.278654,147.679,Q,Q
2023-03-15 20:37:54:714,0,-58.6667,0.281588,147.678,Q,Q
2023-03-15 20:37:54:724,0,-58.669,0.281261,147.68,Q,Q
2023-03-15 20:37:54:734,0,-58.6654,0.282659,147.683,Q,Q
2023-03-15 20:37:54:744,0,-58.664,0.283253,147.682,Q,Q
2023-03-15 20:37:54:754,0,-58.6634,0.282045,147.683,Q,Q
2023-03-15 20:37:54:764,0,-58.6609,0.283681,147.684,Q,Q
2023-03-15 20:37:54:774,0,-58.661,0.283266,147.684,Q,Q
2023-03-15 20:37:54:784,0,-58.6576,0.282316,147.685,Q,Q
2023-03-15 20:37:54:794,0,-58.6573,0.283777,147.687,Q,Q
2023-03-15 20:37:54:804,0,-58.6579,0.286827,147.688,Q,Q
2023-03-15 20:37:54:814,0,-58.6602,0.286565,147.686,Q,Q
2023-03-15 20:37:54:824,0,-58.6585,0.287069,147.685,Q,Q
2023-03-15 20:37:54:834,0,-58.6561,0.287318,147.684,Q,Q
2023-03-15 20:37:54:844,0,-58.6557,0.287931,147.684,Q,Q
2023-03-15 20:37:54:854,0,-58.6542,0.288597,147.687,Q,Q
2023-03-15 20:37:54:864,0,-58.6518,0.289599,147.689,Q,Q
2023-03-15 20:37:54:874,0,-58.6534,0.290049,147.688,Q,Q
2023-03-15 20:37:54:884,0,-58.6557,0.289456,147.688,Q,Q
2023-03-15 20:37:54:894,0,-58.6551,0.290097,147.688,Q,Q
2023-03-15 20:37:54:904,0,-58.6551,0.291028,147.688,Q,Q
2023-03-15 20:37:54:914,0,-58.6559,0.293527,147.688,Q,Q
2023-03-15 20:37:54:924,0,-58.6599,0.293587,147.686,Q,Q
2023-03-15 20:37:54:934,0,-58.6584,0.292377,147.684,Q,Q
2023-03-15 20:37:54:944,0,-58.6586,0.291475,147.685,Q,Q
2023-03-15 20:37:54:954,0,-58.6596,0.290429,147.687,Q,Q
2023-03-15 20:37:54:964,0,-58.6581,0.287377,147.69,Q,Q
2023-03-15 20:37:54:974,0,-58.657,0.287732,147.69,Q,Q
2023-03-15 20:37:54:984,0,-58.6562,0.285739,147.689,Q,Q
2023-03-15 20:37:54:994,0,-58.6563,0.287603,147.689,Q,Q
2023-03-15 20:37:55:4,0,-58.6571,0.287985,147.692,Q,Q
2023-03-15 20:37:55:14,0,-58.66,0.288691,147.69,Q,Q
2023-03-15 20:37:55:24,0,-58.6591,0.289496,147.691,Q,Q
2023-03-15 20:37:55:34,0,-58.6571,0.288406,147.69,Q,Q
2023-03-15 20:37:55:44,0,-58.6536,0.289092,147.688,Q,Q
2023-03-15 20:37:55:54,0,-58.6546,0.291035,147.687,Q,Q
2023-03-15 20:37:55:65,0,-58.6511,0.292963,147.689,Q,Q
2023-03-15 20:37:55:74,0,-58.6511,0.295122,147.687,Q,Q
2023-03-15 20:37:55:85,0,-58.6519,0.291732,147.686,Q,Q
2023-03-15 20:37:55:94,0,-58.6508,0.290165,147.684,Q,Q
2023-03-15 20:37:55:105,0,-58.6484,0.292676,147.684,Q,Q
2023-03-15 20:37:55:115,0,-58.6469,0.293665,147.684,Q,Q
2023-03-15 20:37:55:125,0,-58.6456,0.293521,147.686,Q,Q
2023-03-15 20:37:55:135,0,-58.6448,0.291557,147.689,Q,Q
2023-03-15 20:37:55:145,0,-58.6472,0.288939,147.691,Q,Q
2023-03-15 20:37:55:155,0,-58.645,0.292011,147.691,Q,Q
2023-03-15 20:37:55:164,0,-58.6427,0.297236,147.689,Q,Q
2023-03-15 20:37:55:175,0,-58.636,0.300733,147.69,Q,Q
2023-03-15 20:37:55:185,0,-58.6308,0.303871,147.691,Q,Q
2023-03-15 20:37:55:195,0,-58.6263,0.301696,147.69,Q,Q
2023-03-15 20:37:55:205,0,-58.6261,0.304572,147.691,Q,Q
2023-03-15 20:37:55:215,0,-58.6302,0.300694,147.691,Q,Q
2023-03-15 20:37:55:225,0,-58.6329,0.301457,147.692,Q,Q
2023-03-15 20:37:55:235,0,-58.6319,0.296251,147.696,Q,Q
2023-03-15 20:37:55:245,0,-58.6307,0.297628,147.696,Q,Q
2023-03-15 20:37:55:255,0,-58.6384,0.291233,147.696,Q,Q
2023-03-15 20:37:55:265,0,-58.633,0.297735,147.696,Q,Q
2023-03-15 20:37:55:275,0,-58.587,0.320591,147.696,Q,Q
2023-03-15 20:37:55:285,0,-58.5628,0.334179,147.696,Q,Q
2023-03-15 20:37:55:295,0,-58.5402,0.344819,147.697,Q,Q
2023-03-15 20:37:55:305,0,-58.5169,0.35759,147.697,Q,Q
2023-03-15 20:37:55:315,0,-58.4932,0.366017,147.698,Q,Q
2023-03-15 20:37:55:325,0,-58.4739,0.378218,147.697,Q,Q
2023-03-15 20:37:55:335,0,-58.4474,0.391217,147.698,Q,Q
2023-03-15 20:37:55:345,0,-58.4261,0.40399,147.698,Q,Q
2023-03-15 20:37:55:355,0,-58.4087,0.410371,147.7,Q,Q
2023-03-15 20:37:55:365,0,-58.3881,0.416535,147.703,Q,Q
2023-03-15 20:37:55:375,0,-58.4029,0.407201,147.705,Q,Q
2023-03-15 20:37:55:385,0,-58.4286,0.394474,147.705,Q,Q
2023-03-15 20:37:55:395,0,-58.4688,0.376119,147.704,Q,Q
2023-03-15 20:37:55:405,0,-58.52,0.349381,147.707,Q,Q
2023-03-15 20:37:55:415,0,-58.54,0.339794,147.707,Q,Q
2023-03-15 20:37:55:425,0,-58.5331,0.342801,147.707,Q,Q
2023-03-15 20:37:55:435,0,-58.5274,0.345996,147.709,Q,Q
2023-03-15 20:37:55:445,0,-58.512,0.352245,147.71,Q,Q
2023-03-15 20:37:55:455,0,-58.5065,0.354792,147.712,Q,Q
2023-03-15 20:37:55:465,0,-58.5151,0.351249,147.713,Q,Q
2023-03-15 20:37:55:475,0,-58.5206,0.348197,147.711,Q,Q
2023-03-15 20:37:55:485,0,-58.5303,0.344666,147.711,Q,Q
2023-03-15 20:37:55:495,0,-58.5278,0.346646,147.707,Q,Q
2023-03-15 20:37:55:505,0,-58.5254,0.347543,147.705,Q,Q
2023-03-15 20:37:55:515,0,-58.521,0.345837,147.707,Q,Q
2023-03-15 20:37:55:525,0,-58.5252,0.344364,147.706,Q,Q
2023-03-15 20:37:55:535,0,-58.5272,0.345591,147.706,Q,Q
2023-03-15 20:37:55:545,0,-58.5254,0.347537,147.704,Q,Q
2023-03-15 20:37:55:555,0,-58.5247,0.347517,147.705,Q,Q
2023-03-15 20:37:55:565,0,-58.5229,0.34656,147.703,Q,Q
2023-03-15 20:37:55:575,0,-58.5224,0.348272,147.703,Q,Q
2023-03-15 20:37:55:585,0,-58.5195,0.349045,147.706,Q,Q
2023-03-15 20:37:55:595,0,-58.519,0.348664,147.705,Q,Q
2023-03-15 20:37:55:605,0,-58.523,0.35041,147.706,Q,Q
2023-03-15 20:37:55:615,0,-58.5237,0.352839,147.706,Q,Q
2023-03-15 20:37:55:626,0,-58.5218,0.353213,147.706,Q,Q
2023-03-15 20:37:55:635,0,-58.522,0.352984,147.705,Q,Q
2023-03-15 20:37:55:645,0,-58.524,0.350834,147.705,Q,Q
2023-03-15 20:37:55:655,0,-58.5244,0.347634,147.706,Q,Q
2023-03-15 20:37:55:665,0,-58.526,0.342676,147.708,Q,Q
2023-03-15 20:37:55:675,0,-58.5284,0.342705,147.707,Q,Q
2023-03-15 20:37:55:685,0,-58.5281,0.344409,147.706,Q,Q
2023-03-15 20:37:55:695,0,-58.53,0.345755,147.705,Q,Q
2023-03-15 20:37:55:705,0,-58.5298,0.347229,147.705,Q,Q
2023-03-15 20:37:55:715,0,-58.5296,0.346468,147.707,Q,Q
2023-03-15 20:37:55:726,0,-58.5296,0.345551,147.705,Q,Q
2023-03-15 20:37:55:735,0,-58.5269,0.345196,147.705,Q,Q
2023-03-15 20:37:55:746,0,-58.5223,0.346204,147.704,Q,Q
2023-03-15 20:37:55:756,0,-58.5205,0.346897,147.703,Q,Q
2023-03-15 20:37:55:765,0,-58.5213,0.343959,147.705,Q,Q
2023-03-15 20:37:55:776,0,-58.5202,0.346125,147.706,Q,Q
2023-03-15 20:37:55:786,0,-58.5191,0.345253,147.703,Q,Q
2023-03-15 20:37:55:795,0,-58.5211,0.344343,147.704,Q,Q
2023-03-15 20:37:55:806,0,-58.5189,0.346628,147.703,Q,Q
2023-03-15 20:37:55:816,0,-58.517,0.349315,147.702,Q,Q
2023-03-15 20:37:55:826,0,-58.5161,0.34901,147.699,Q,Q
2023-03-15 20:37:55:836,0,-58.5178,0.34948,147.7,Q,Q
2023-03-15 20:37:55:846,0,-58.5177,0.350524,147.702,Q,Q
2023-03-15 20:37:55:856,0,-58.5185,0.349569,147.701,Q,Q
2023-03-15 20:37:55:866,0,-58.5177,0.350064,147.704,Q,Q
2023-03-15 20:37:55:876,0,-58.5186,0.350003,147.704,Q,Q
2023-03-15 20:37:55:886,0,-58.5188,0.349551,147.705,Q,Q
2023-03-15 20:37:55:896,0,-58.5168,0.347976,147.706,Q,Q
2023-03-15 20:37:55:906,0,-58.5147,0.347636,147.708,Q,Q
2023-03-15 20:37:55:916,0,-58.5145,0.344664,147.708,Q,Q
2023-03-15 20:37:55:926,0,-58.5132,0.346136,147.709,Q,Q
2023-03-15 20:37:55:936,0,-58.5138,0.343819,147.71,Q,Q
2023-03-15 20:37:55:946,0,-58.5131,0.341604,147.713,Q,Q
2023-03-15 20:37:55:956,0,-58.5151,0.339211,147.712,Q,Q
2023-03-15 20:37:55:966,0,-58.5191,0.339053,147.712,Q,Q
2023-03-15 20:37:55:976,0,-58.5195,0.337277,147.712,Q,Q
2023-03-15 20:37:55:986,0,-58.5211,0.335399,147.714,Q,Q
2023-03-15 20:37:55:996,0,-58.5222,0.335975,147.711,Q,Q
2023-03-15 20:37:56:6,0,-58.5262,0.335214,147.712,Q,Q
2023-03-15 20:37:56:16,0,-58.5274,0.336809,147.712,Q,Q
2023-03-15 20:37:56:26,0,-58.5268,0.337236,147.715,Q,Q
2023-03-15 20:37:56:36,0,-58.5323,0.337069,147.714,Q,Q
2023-03-15 20:37:56:46,0,-58.5335,0.336673,147.716,Q,Q
2023-03-15 20:37:56:56,0,-58.5335,0.338456,147.714,Q,Q
2023-03-15 20:37:56:66,0,-58.5332,0.338501,147.718,Q,Q
2023-03-15 20:37:56:76,0,-58.5328,0.340605,147.72,Q,Q
2023-03-15 20:37:56:86,0,-58.5303,0.338637,147.72,Q,Q
2023-03-15 20:37:56:96,0,-58.5279,0.337361,147.721,Q,Q
2023-03-15 20:37:56:106,0,-58.5263,0.336083,147.723,Q,Q
2023-03-15 20:37:56:116,0,-58.5276,0.337768,147.724,Q,Q
2023-03-15 20:37:56:126,0,-58.5284,0.335493,147.723,Q,Q
2023-03-15 20:37:56:136,0,-58.5246,0.333367,147.726,Q,Q
2023-03-15 20:37:56:146,0,-58.5242,0.333749,147.728,Q,Q
2023-03-15 20:37:56:156,0,-58.523,0.336794,147.726,Q,Q
2023-03-15 20:37:56:166,0,-58.525,0.338951,147.726,Q,Q
2023-03-15 20:37:56:176,0,-58.5254,0.337445,147.728,Q,Q
2023-03-15 20:37:56:186,0,-58.5241,0.33898,147.727,Q,Q
2023-03-15 20:37:56:196,0,-58.5239,0.338948,147.724,Q,Q
2023-03-15 20:37:56:206,0,-58.5258,0.334989,147.725,Q,Q
2023-03-15 20:37:56:216,0,-58.5295,0.335931,147.724,Q,Q
2023-03-15 20:37:56:226,0,-58.5287,0.335663,147.726,Q,Q
2023-03-15 20:37:56:236,0,-58.5278,0.336092,147.727,Q,Q
2023-03-15 20:37:56:246,0,-58.5278,0.334958,147.727,Q,Q
2023-03-15 20:37:56:256,0,-58.5257,0.33738,147.725,Q,Q
2023-03-15 20:37:56:266,0,-58.5271,0.340684,147.724,Q,Q
2023-03-15 20:37:56:276,0,-58.528,0.337442,147.725,Q,Q
2023-03-15 20:37:56:286,0,-58.5269,0.339285,147.722,Q,Q
2023-03-15 20:37:56:296,0,-58.526,0.339579,147.723,Q,Q
2023-03-15 20:37:56:306,0,-58.5238,0.337326,147.723,Q,Q
2023-03-15 20:37:56:316,0,-58.5241,0.33868,147.724,Q,Q
2023-03-15 20:37:56:326,0,-58.5254,0.339194,147.727,Q,Q
2023-03-15 20:37:56:336,0,-58.5263,0.337565,147.725,Q,Q
2023-03-15 20:37:56:346,0,-58.5274,0.337876,147.724,Q,Q
2023-03-15 20:37:56:356,0,-58.5267,0.339396,147.724,Q,Q
2023-03-15 20:37:56:366,0,-58.5238,0.338965,147.724,Q,Q
2023-03-15 20:37:56:376,0,-58.522,0.339934,147.725,Q,Q
2023-03-15 20:37:56:387,0,-58.5235,0.338185,147.725,Q,Q
2023-03-15 20:37:56:397,0,-58.525,0.339774,147.728,Q,Q
2023-03-15 20:37:56:407,0,-58.5222,0.339845,147.729,Q,Q
2023-03-15 20:37:56:416,0,-58.5205,0.339932,147.733,Q,Q
2023-03-15 20:37:56:427,0,-58.5219,0.341591,147.732,Q,Q
2023-03-15 20:37:56:437,0,-58.5207,0.340537,147.732,Q,Q
2023-03-15 20:37:56:447,0,-58.5188,0.341459,147.733,Q,Q
2023-03-15 20:37:56:457,0,-58.5176,0.344217,147.732,Q,Q
2023-03-15 20:37:56:467,0,-58.519,0.348371,147.73,Q,Q
2023-03-15 20:37:56:476,0,-58.5228,0.349198,147.732,Q,Q
2023-03-15 20:37:56:486,0,-58.5244,0.348483,147.733,Q,Q
2023-03-15 20:37:56:496,0,-58.5265,0.347363,147.731,Q,Q
2023-03-15 20:37:56:507,0,-58.5291,0.348914,147.732,Q,Q
2023-03-15 20:37:56:516,0,-58.5259,0.348392,147.73,Q,Q
2023-03-15 20:37:56:527,0,-58.5267,0.34994,147.73,Q,Q
2023-03-15 20:37:56:537,0,-58.5277,0.349126,147.73,Q,Q
2023-03-15 20:37:56:547,0,-58.5275,0.34892,147.728,Q,Q
2023-03-15 20:37:56:557,0,-58.5286,0.347854,147.728,Q,Q
2023-03-15 20:37:56:567,0,-58.5275,0.345041,147.73,Q,Q
2023-03-15 20:37:56:577,0,-58.5273,0.345211,147.729,Q,Q
2023-03-15 20:37:56:587,0,-58.5284,0.342903,147.73,Q,Q
2023-03-15 20:37:56:597,0,-58.5277,0.34188,147.727,Q,Q
2023-03-15 20:37:56:607,0,-58.5268,0.338246,147.73,Q,Q
2023-03-15 20:37:56:617,0,-58.5237,0.339967,147.731,Q,Q
2023-03-15 20:37:56:627,0,-58.519,0.339632,147.732,Q,Q
2023-03-15 20:37:56:637,0,-58.5205,0.339311,147.731,Q,Q
2023-03-15 20:37:56:647,0,-58.5228,0.341097,147.73,Q,Q
2023-03-15 20:37:56:657,0,-58.5243,0.34076,147.724,Q,Q
2023-03-15 20:37:56:667,0,-58.5224,0.339876,147.727,Q,Q
2023-03-15 20:37:56:677,0,-58.521,0.337046,147.728,Q,Q
2023-03-15 20:37:56:687,0,-58.5222,0.336686,147.728,Q,Q
2023-03-15 20:37:56:697,0,-58.5226,0.333103,147.729,Q,Q
2023-03-15 20:37:56:707,0,-58.5239,0.333183,147.73,Q,Q
2023-03-15 20:37:56:717,0,-58.5239,0.331752,147.731,Q,Q
2023-03-15 20:37:56:727,0,-58.5228,0.330624,147.73,Q,Q
2023-03-15 20:37:56:737,0,-58.5218,0.327874,147.728,Q,Q
2023-03-15 20:37:56:747,0,-58.5228,0.326207,147.726,Q,Q
2023-03-15 20:37:56:757,0,-58.5239,0.325859,147.726,Q,Q
2023-03-15 20:37:56:767,0,-58.5258,0.325211,147.725,Q,Q
2023-03-15 20:37:56:777,0,-58.5251,0.321251,147.723,Q,Q
2023-03-15 20:37:56:787,0,-58.5253,0.323336,147.724,Q,Q
2023-03-15 20:37:56:797,0,-58.5246,0.320145,147.724,Q,Q
2023-03-15 20:37:56:807,0,-58.5248,0.319889,147.725,Q,Q
2023-03-15 20:37:56:817,0,-58.5241,0.319395,147.723,Q,Q
2023-03-15 20:37:56:827,0,-58.5247,0.323036,147.722,Q,Q
2023-03-15 20:37:56:837,0,-58.5246,0.321365,147.726,Q,Q
2023-03-15 20:37:56:847,0,-58.5255,0.320875,147.727,Q,Q
2023-03-15 20:37:56:857,0,-58.526,0.321459,147.728,Q,Q
2023-03-15 20:37:56:867,0,-58.5264,0.326554,147.731,Q,Q
2023-03-15 20:37:56:877,0,-58.5278,0.325749,147.733,Q,Q
2023-03-15 20:37:56:887,0,-58.5279,0.325942,147.734,Q,Q
2023-03-15 20:37:56:897,0,-58.526,0.323914,147.732,Q,Q
2023-03-15 20:37:56:907,0,-58.5271,0.32431,147.731,Q,Q
2023-03-15 20:37:56:917,0,-58.5281,0.322154,147.733,Q,Q
2023-03-15 20:37:56:927,0,-58.5305,0.321686,147.728,Q,Q
2023-03-15 20:37:56:937,0,-58.5297,0.324317,147.727,Q,Q
2023-03-15 20:37:56:947,0,-58.5314,0.32519,147.728,Q,Q
2023-03-15 20:37:56:957,0,-58.5303,0.325471,147.724,Q,Q
2023-03-15 20:37:56:967,0,-58.5318,0.326563,147.725,Q,Q
2023-03-15 20:37:56:977,0,-58.5312,0.326148,147.727,Q,Q
2023-03-15 20:37:56:987,0,-58.5301,0.324686,147.727,Q,Q
2023-03-15 20:37:56:997,0,-58.5307,0.324154,147.727,Q,Q
2023-03-15 20:37:57:7,0,-58.5322,0.323535,147.727,Q,Q
2023-03-15 20:37:57:17,0,-58.5318,0.32201,147.728,Q,Q
2023-03-15 20:37:57:27,0,-58.5329,0.321969,147.728,Q,Q
2023-03-15 20:37:57:37,0,-58.531,0.322336,147.727,Q,Q
2023-03-15 20:37:57:47,0,-58.5308,0.324589,147.725,Q,Q
2023-03-15 20:37:57:57,0,-58.5302,0.32456,147.724,Q,Q
2023-03-15 20:37:57:67,0,-58.5309,0.324569,147.725,Q,Q
2023-03-15 20:37:57:77,0,-58.5328,0.324041,147.723,Q,Q
2023-03-15 20:37:57:87,0,-58.5339,0.321859,147.722,Q,Q
2023-03-15 20:37:57:97,0,-58.5332,0.320594,147.721,Q,Q
2023-03-15 20:37:57:107,0,-58.5326,0.317916,147.722,Q,Q
2023-03-15 20:37:57:117,0,-58.5316,0.320977,147.719,Q,Q
2023-03-15 20:37:57:127,0,-58.5318,0.323557,147.718,Q,Q
2023-03-15 20:37:57:137,0,-58.5309,0.322829,147.72,Q,Q
2023-03-15 20:37:57:147,0,-58.5274,0.322869,147.721,Q,Q
2023-03-15 20:37:57:157,0,-58.5269,0.322911,147.722,Q,Q
2023-03-15 20:37:57:167,0,-58.5303,0.322848,147.721,Q,Q
2023-03-15 20:37:57:177,0,-58.5289,0.324739,147.716,Q,Q
2023-03-15 20:37:57:187,0,-58.5306,0.323407,147.715,Q,Q
2023-03-15 20:37:57:198,0,-58.5327,0.325581,147.716,Q,Q
2023-03-15 20:37:57:207,0,-58.5346,0.32485,147.716,Q,Q
2023-03-15 20:37:57:218,0,-58.5357,0.324684,147.714,Q,Q
2023-03-15 20:37:57:228,0,-58.5353,0.324444,147.716,Q,Q
2023-03-15 20:37:57:238,0,-58.5328,0.323915,147.715,Q,Q
2023-03-15 20:37:57:248,0,-58.533,0.323865,147.712,Q,Q
2023-03-15 20:37:57:258,0,-58.5352,0.32613,147.716,Q,Q
2023-03-15 20:37:57:267,0,-58.5337,0.327081,147.716,Q,Q
2023-03-15 20:37:57:278,0,-58.5356,0.326901,147.717,Q,Q
2023-03-15 20:37:57:288,0,-58.5367,0.326057,147.719,Q,Q
2023-03-15 20:37:57:298,0,-58.5367,0.324972,147.718,Q,Q
2023-03-15 20:37:57:308,0,-58.5367,0.322208,147.72,Q,Q
2023-03-15 20:37:57:318,0,-58.5336,0.32202,147.72,Q,Q
2023-03-15 20:37:57:327,0,-58.5346,0.321336,147.72,Q,Q
2023-03-15 20:37:57:337,0,-58.5327,0.321237,147.718,Q,Q
2023-03-15 20:37:57:347,0,-58.5332,0.322267,147.72,Q,Q
2023-03-15 20:37:57:357,0,-58.5334,0.323313,147.72,Q,Q
2023-03-15 20:37:57:368,0,-58.5315,0.321219,147.72,Q,Q
2023-03-15 20:37:57:378,0,-58.5342,0.322272,147.721,Q,Q
2023-03-15 20:37:57:388,0,-58.5328,0.323851,147.718,Q,Q
2023-03-15 20:37:57:398,0,-58.5305,0.321202,147.719,Q,Q
2023-03-15 20:37:57:408,0,-58.5308,0.319518,147.72,Q,Q
2023-03-15 20:37:57:418,0,-58.5319,0.322116,147.719,Q,Q
2023-03-15 20:37:57:428,0,-58.5354,0.321462,147.721,Q,Q
2023-03-15 20:37:57:438,0,-58.5362,0.321184,147.723,Q,Q
2023-03-15 20:37:57:448,0,-58.5379,0.31917,147.724,Q,Q
2023-03-15 20:37:57:458,0,-58.537,0.320893,147.723,Q,Q
2023-03-15 20:37:57:468,0,-58.5354,0.320804,147.721,Q,Q
2023-03-15 20:37:57:478,0,-58.5353,0.318738,147.724,Q,Q
2023-03-15 20:37:57:488,0,-58.532,0.319049,147.725,Q,Q
2023-03-15 20:37:57:497,0,-58.5304,0.320995,147.73,Q,Q
2023-03-15 20:37:57:508,0,-58.531,0.323606,147.732,Q,Q
2023-03-15 20:37:57:517,0,-58.5347,0.327139,147.731,Q,Q
2023-03-15 20:37:57:528,0,-58.5317,0.329305,147.733,Q,Q
2023-03-15 20:37:57:538,0,-58.5325,0.330337,147.732,Q,Q
2023-03-15 20:37:57:548,0,-58.5357,0.331241,147.734,Q,Q
2023-03-15 20:37:57:558,0,-58.5374,0.331217,147.733,Q,Q
2023-03-15 20:37:57:568,0,-58.5361,0.333733,147.733,Q,Q
2023-03-15 20:37:57:578,0,-58.538,0.332985,147.732,Q,Q
2023-03-15 20:37:57:588,0,-58.539,0.330316,147.733,Q,Q
2023-03-15 20:37:57:598,0,-58.5407,0.331636,147.732,Q,Q
2023-03-15 20:37:57:608,0,-58.5411,0.333323,147.732,Q,Q
2023-03-15 20:37:57:618,0,-58.5429,0.333465,147.731,Q,Q
2023-03-15 20:37:57:628,0,-58.5428,0.330116,147.731,Q,Q
2023-03-15 20:37:57:638,0,-58.5442,0.331255,147.729,Q,Q
2023-03-15 20:37:57:648,0,-58.5448,0.331527,147.727,Q,Q
2023-03-15 20:37:57:658,0,-58.546,0.330676,147.726,Q,Q
2023-03-15 20:37:57:668,0,-58.5466,0.32883,147.724,Q,Q
2023-03-15 20:37:57:678,0,-58.5449,0.329123,147.725,Q,Q
2023-03-15 20:37:57:688,0,-58.5432,0.327545,147.725,Q,Q
2023-03-15 20:37:57:698,0,-58.5449,0.328131,147.723,Q,Q
2023-03-15 20:37:57:708,0,-58.5466,0.326852,147.723,Q,Q
2023-03-15 20:37:57:718,0,-58.5439,0.32204,147.724,Q,Q
2023-03-15 20:37:57:728,0,-58.5436,0.321333,147.725,Q,Q
2023-03-15 20:37:57:738,0,-58.5447,0.322254,147.727,Q,Q
2023-03-15 20:37:57:748,0,-58.5409,0.321431,147.727,Q,Q
2023-03-15 20:37:57:758,0,-58.5409,0.320905,147.726,Q,Q
2023-03-15 20:37:57:768,0,-58.5397,0.322276,147.725,Q,Q
2023-03-15 20:37:57:778,0,-58.5422,0.321249,147.724,Q,Q
2023-03-15 20:37:57:788,0,-58.5431,0.319392,147.726,Q,Q
2023-03-15 20:37:57:798,0,-58.5459,0.318802,147.726,Q,Q
2023-03-15 20:37:57:808,0,-58.5467,0.319673,147.727,Q,Q
2023-03-15 20:37:57:818,0,-58.5483,0.317769,147.728,Q,Q
2023-03-15 20:37:57:828,0,-58.5459,0.315062,147.727,Q,Q
2023-03-15 20:37:57:838,0,-58.5453,0.315427,147.728,Q,Q
2023-03-15 20:37:57:848,0,-58.5462,0.313135,147.728,Q,Q
2023-03-15 20:37:57:858,0,-58.5463,0.31301,147.729,Q,Q
2023-03-15 20:37:57:868,0,-58.5448,0.316948,147.733,Q,Q
2023-03-15 20:37:57:878,0,-58.5457,0.31985,147.731,Q,Q
2023-03-15 20:37:57:888,0,-58.5439,0.319055,147.731,Q,Q
2023-03-15 20:37:57:898,0,-58.5422,0.317284,147.729,Q,Q
2023-03-15 20:37:57:908,0,-58.5412,0.314525,147.728,Q,Q
2023-03-15 20:37:57:919,0,-58.5442,0.3148,147.727,Q,Q
2023-03-15 20:37:57:928,0,-58.5405,0.315015,147.729,Q,Q
2023-03-15 20:37:57:939,0,-58.5426,0.316546,147.729,Q,Q
2023-03-15 20:37:57:948,0,-58.5439,0.315043,147.731,Q,Q
2023-03-15 20:37:57:958,0,-58.5426,0.315406,147.732,Q,Q
2023-03-15 20:37:57:968,0,-58.5424,0.315564,147.731,Q,Q
2023-03-15 20:37:57:978,0,-58.5448,0.316912,147.731,Q,Q
2023-03-15 20:37:57:988,0,-58.5434,0.317964,147.729,Q,Q
2023-03-15 20:37:57:998,0,-58.5421,0.318023,147.73,Q,Q
2023-03-15 20:37:58:8,0,-58.5393,0.317695,147.729,Q,Q
2023-03-15 20:37:58:19,0,-58.5433,0.316083,147.732,Q,Q
2023-03-15 20:37:58:28,0,-58.5447,0.316661,147.732,Q,Q
2023-03-15 20:37:58:39,0,-58.5443,0.317394,147.731,Q,Q
2023-03-15 20:37:58:49,0,-58.5466,0.316621,147.732,Q,Q
2023-03-15 20:37:58:59,0,-58.5473,0.316475,147.731,Q,Q
2023-03-15 20:37:58:69,0,-58.5473,0.315752,147.729,Q,Q
2023-03-15 20:37:58:79,0,-58.5475,0.314175,147.729,Q,Q
2023-03-15 20:37:58:89,0,-58.5484,0.314081,147.726,Q,Q
2023-03-15 20:37:58:99,0,-58.5486,0.313566,147.725,Q,Q
2023-03-15 20:37:58:109,0,-58.5506,0.312182,147.722,Q,Q
2023-03-15 20:37:58:119,0,-58.5503,0.310442,147.724,Q,Q
2023-03-15 20:37:58:129,0,-58.5492,0.308778,147.721,Q,Q
2023-03-15 20:37:58:139,0,-58.5501,0.307366,147.721,Q,Q
2023-03-15 20:37:58:149,0,-58.5526,0.309513,147.72,Q,Q
2023-03-15 20:37:58:159,0,-58.5523,0.311141,147.721,Q,Q
2023-03-15 20:37:58:169,0,-58.5514,0.308937,147.719,Q,Q
2023-03-15 20:37:58:179,0,-58.5507,0.308388,147.716,Q,Q
2023-03-15 20:37:58:189,0,-58.5518,0.308245,147.713,Q,Q
2023-03-15 20:37:58:199,0,-58.5494,0.30739,147.715,Q,Q
2023-03-15 20:37:58:209,0,-58.5476,0.3096,147.718,Q,Q
2023-03-15 20:37:58:219,0,-58.5444,0.312411,147.717,Q,Q
2023-03-15 20:37:58:229,0,-58.5435,0.31101,147.717,Q,Q
2023-03-15 20:37:58:239,0,-58.5433,0.309843,147.717,Q,Q
2023-03-15 20:37:58:249,0,-58.5424,0.309542,147.717,Q,Q
2023-03-15 20:37:58:259,0,-58.5415,0.310422,147.718,Q,Q
2023-03-15 20:37:58:269,0,-58.5394,0.308246,147.719,Q,Q
2023-03-15 20:37:58:279,0,-58.5403,0.308243,147.722,Q,Q
2023-03-15 20:37:58:289,0,-58.5408,0.30964,147.723,Q,Q
2023-03-15 20:37:58:299,0,-58.5419,0.30873,147.725,Q,Q
2023-03-15 20:37:58:309,0,-58.542,0.309113,147.726,Q,Q
2023-03-15 20:37:58:319,0,-58.5436,0.308028,147.726,Q,Q
2023-03-15 20:37:58:329,0,-58.5417,0.308379,147.726,Q,Q
2023-03-15 20:37:58:339,0,-58.5418,0.309993,147.726,Q,Q
2023-03-15 20:37:58:349,0,-58.5389,0.310335,147.724,Q,Q
2023-03-15 20:37:58:359,0,-58.5414,0.311526,147.727,Q,Q
2023-03-15 20:37:58:369,0,-58.5396,0.311218,147.725,Q,Q
2023-03-15 20:37:58:379,0,-58.5392,0.310978,147.728,Q,Q
2023-03-15 20:37:58:389,0,-58.5409,0.309263,147.729,Q,Q
2023-03-15 20:37:58:399,0,-58.5446,0.309474,147.732,Q,Q
2023-03-15 20:37:58:409,0,-58.5428,0.308794,147.729,Q,Q
2023-03-15 20:37:58:419,0,-58.5416,0.308407,147.728,Q,Q
2023-03-15 20:37:58:429,0,-58.5431,0.30956,147.729,Q,Q
2023-03-15 20:37:58:439,0,-58.5429,0.312482,147.728,Q,Q
2023-03-15 20:37:58:449,0,-58.5455,0.310853,147.728,Q,Q
2023-03-15 20:37:58:459,0,-58.5436,0.311077,147.729,Q,Q
2023-03-15 20:37:58:469,0,-58.5441,0.309711,147.731,Q,Q
2023-03-15 20:37:58:479,0,-58.5429,0.311044,147.733,Q,Q
2023-03-15 20:37:58:489,0,-58.5427,0.308551,147.733,Q,Q
2023-03-15 20:37:58:499,0,-58.5419,0.309553,147.73,Q,Q
2023-03-15 20:37:58:509,0,-58.5427,0.311688,147.732,Q,Q
2023-03-15 20:37:58:519,0,-58.5393,0.311272,147.732,Q,Q
2023-03-15 20:37:58:529,0,-58.5383,0.311347,147.731,Q,Q
2023-03-15 20:37:58:539,0,-58.5393,0.310061,147.729,Q,Q
2023-03-15 20:37:58:549,0,-58.5372,0.311354,147.728,Q,Q
2023-03-15 20:37:58:559,0,-58.5394,0.310656,147.727,Q,Q
2023-03-15 20:37:58:569,0,-58.5397,0.310974,147.725,Q,Q
2023-03-15 20:37:58:579,0,-58.5407,0.312079,147.722,Q,Q
2023-03-15 20:37:58:589,0,-58.5408,0.314134,147.723,Q,Q
2023-03-15 20:37:58:599,0,-58.5411,0.311929,147.723,Q,Q
2023-03-15 20:37:58:609,0,-58.539,0.312283,147.722,Q,Q
2023-03-15 20:37:58:619,0,-58.5378,0.311968,147.722,Q,Q
2023-03-15 20:37:58:629,0,-58.5383,0.312135,147.722,Q,Q
2023-03-15 20:37:58:639,0,-58.5371,0.314863,147.721,Q,Q
2023-03-15 20:37:58:649,0,-58.5372,0.317908,147.722,Q,Q
2023-03-15 20:37:58:659,0,-58.5374,0.318773,147.721,Q,Q
2023-03-15 20:37:58:669,0,-58.5369,0.317648,147.719,Q,Q
2023-03-15 20:37:58:679,0,-58.5369,0.318209,147.72,Q,Q
2023-03-15 20:37:58:689,0,-58.5378,0.320764,147.723,Q,Q
2023-03-15 20:37:58:699,0,-58.5368,0.321676,147.724,Q,Q
2023-03-15 20:37:58:709,0,-58.5354,0.320771,147.724,Q,Q
2023-03-15 20:37:58:719,0,-58.5351,0.322081,147.721,Q,Q
2023-03-15 20:37:58:729,0,-58.5331,0.321162,147.719,Q,Q
2023-03-15 20:37:58:739,0,-58.5344,0.320432,147.719,Q,Q
2023-03-15 20:37:58:749,0,-58.5347,0.323402,147.718,Q,Q
2023-03-15 20:37:58:759,0,-58.5323,0.326215,147.722,Q,Q
2023-03-15 20:37:58:769,0,-58.5302,0.325071,147.722,Q,Q
2023-03-15 20:37:58:779,0,-58.5291,0.324064,147.724,Q,Q
2023-03-15 20:37:58:789,0,-58.5297,0.323444,147.722,Q,Q
2023-03-15 20:37:58:799,0,-58.5314,0.323228,147.723,Q,Q
2023-03-15 20:37:58:809,0,-58.5316,0.32341,147.723,Q,Q
2023-03-15 20:37:58:819,0,-58.532,0.323721,147.719,Q,Q
2023-03-15 20:37:58:829,0,-58.5351,0.321613,147.72,Q,Q
2023-03-15 20:37:58:839,0,-58.5357,0.32066,147.721,Q,Q
2023-03-15 20:37:58:850,0,-58.5371,0.319376,147.72,Q,Q
2023-03-15 20:37:58:859,0,-58.5366,0.32065,147.718,Q,Q
2023-03-15 20:37:58:870,0,-58.5373,0.322866,147.719,Q,Q
2023-03-15 20:37:58:879,0,-58.5335,0.321083,147.718,Q,Q
2023-03-15 20:37:58:890,0,-58.5352,0.321214,147.718,Q,Q
2023-03-15 20:37:58:900,0,-58.5355,0.323177,147.721,Q,Q
2023-03-15 20:37:58:910,0,-58.5365,0.322585,147.718,Q,Q
2023-03-15 20:37:58:919,0,-58.5393,0.32188,147.72,Q,Q
2023-03-15 20:37:58:930,0,-58.5394,0.322951,147.719,Q,Q
2023-03-15 20:37:58:940,0,-58.5385,0.323082,147.719,Q,Q
2023-03-15 20:37:58:950,0,-58.5399,0.322509,147.718,Q,Q
2023-03-15 20:37:58:960,0,-58.5387,0.322636,147.718,Q,Q
2023-03-15 20:37:58:970,0,-58.5385,0.321976,147.721,Q,Q
2023-03-15 20:37:58:980,0,-58.5405,0.316951,147.721,Q,Q
2023-03-15 20:37:58:990,0,-58.5408,0.316349,147.723,Q,Q
2023-03-15 20:37:59:0,0,-58.5406,0.316409,147.722,Q,Q
2023-03-15 20:37:59:10,0,-58.5425,0.316592,147.724,Q,Q
2023-03-15 20:37:59:20,0,-58.5435,0.317307,147.726,Q,Q
2023-03-15 20:37:59:29,0,-58.5423,0.319188,147.727,Q,Q
2023-03-15 20:37:59:40,0,-58.5432,0.319986,147.73,Q,Q
2023-03-15 20:37:59:50,0,-58.5435,0.320416,147.73,Q,Q
2023-03-15 20:37:59:60,0,-58.5434,0.319523,147.727,Q,Q
2023-03-15 20:37:59:70,0,-58.5403,0.319087,147.727,Q,Q
2023-03-15 20:37:59:80,0,-58.5388,0.320039,147.726,Q,Q
2023-03-15 20:37:59:90,0,-58.5381,0.319971,147.727,Q,Q
2023-03-15 20:37:59:100,0,-58.5389,0.318675,147.728,Q,Q
2023-03-15 20:37:59:110,0,-58.5393,0.319054,147.727,Q,Q
2023-03-15 20:37:59:120,0,-58.5382,0.318712,147.728,Q,Q
2023-03-15 20:37:59:130,0,-58.5376,0.317091,147.729,Q,Q
2023-03-15 20:37:59:140,0,-58.5406,0.319089,147.729,Q,Q
2023-03-15 20:37:59:150,0,-58.5406,0.316866,147.73,Q,Q
2023-03-15 20:37:59:160,0,-58.5431,0.314513,147.728,Q,Q
2023-03-15 20:37:59:170,0,-58.5435,0.314486,147.726,Q,Q
2023-03-15 20:37:59:180,0,-58.5425,0.315428,147.726,Q,Q
2023-03-15 20:37:59:190,0,-58.5426,0.314363,147.726,Q,Q
2023-03-15 20:37:59:200,0,-58.5401,0.312615,147.725,Q,Q
2023-03-15 20:37:59:210,0,-58.5386,0.312313,147.724,Q,Q
2023-03-15 20:37:59:220,0,-58.5384,0.311227,147.723,Q,Q
2023-03-15 20:37:59:230,0,-58.5374,0.309042,147.723,Q,Q
2023-03-15 20:37:59:240,0,-58.5375,0.310921,147.722,Q,Q
2023-03-15 20:37:59:250,0,-58.5376,0.310244,147.722,Q,Q
2023-03-15 20:37:59:260,0,-58.536,0.310372,147.721,Q,Q
2023-03-15 20:37:59:270,0,-58.5371,0.310379,147.719,Q,Q
2023-03-15 20:37:59:280,0,-58.5394,0.308537,147.723,Q,Q
2023-03-15 20:37:59:290,0,-58.5395,0.309477,147.722,Q,Q
2023-03-15 20:37:59:300,0,-58.5403,0.307829,147.722,Q,Q
2023-03-15 20:37:59:310,0,-58.5405,0.306162,147.723,Q,Q
2023-03-15 20:37:59:320,0,-58.5401,0.304827,147.726,Q,Q
2023-03-15 20:37:59:330,0,-58.54,0.306542,147.724,Q,Q
2023-03-15 20:37:59:340,0,-58.538,0.305481,147.724,Q,Q
2023-03-15 20:37:59:350,0,-58.5385,0.304772,147.726,Q,Q
2023-03-15 20:37:59:360,0,-58.542,0.302837,147.727,Q,Q
2023-03-15 20:37:59:370,0,-58.5443,0.30241,147.724,Q,Q
2023-03-15 20:37:59:380,0,-58.5449,0.299749,147.724,Q,Q
2023-03-15 20:37:59:390,0,-58.5407,0.299477,147.727,Q,Q
2023-03-15 20:37:59:400,0,-58.5394,0.299926,147.727,Q,Q
2023-03-15 20:37:59:410,0,-58.5385,0.301869,147.729,Q,Q
2023-03-15 20:37:59:420,0,-58.5405,0.301339,147.728,Q,Q
2023-03-15 20:37:59:430,0,-58.5432,0.300714,147.729,Q,Q
2023-03-15 20:37:59:440,0,-58.5403,0.299939,147.733,Q,Q
2023-03-15 20:37:59:450,0,-58.54,0.299178,147.732,Q,Q
2023-03-15 20:37:59:460,0,-58.5403,0.296505,147.73,Q,Q
2023-03-15 20:37:59:470,0,-58.5396,0.298035,147.733,Q,Q
2023-03-15 20:37:59:480,0,-58.5369,0.297001,147.732,Q,Q
2023-03-15 20:37:59:490,0,-58.5353,0.295905,147.728,Q,Q
2023-03-15 20:37:59:500,0,-58.5355,0.297426,147.726,Q,Q
2023-03-15 20:37:59:510,0,-58.5363,0.30041,147.725,Q,Q
2023-03-15 20:37:59:520,0,-58.5375,0.301152,147.728,Q,Q
2023-03-15 20:37:59:530,0,-58.5364,0.30256,147.728,Q,Q
2023-03-15 20:37:59:540,0,-58.5353,0.302355,147.729,Q,Q
2023-03-15 20:37:59:550,0,-58.5372,0.301538,147.725,Q,Q
2023-03-15 20:37:59:560,0,-58.5361,0.29954,147.724,Q,Q
2023-03-15 20:37:59:570,0,-58.5366,0.299554,147.722,Q,Q
2023-03-15 20:37:59:580,0,-58.537,0.300243,147.722,Q,Q
2023-03-15 20:37:59:590,0,-58.5356,0.302185,147.722,Q,Q
2023-03-15 20:37:59:600,0,-58.5371,0.304285,147.721,Q,Q
2023-03-15 20:37:59:610,0,-58.5359,0.302946,147.72,Q,Q
2023-03-15 20:37:59:621,0,-58.5354,0.302862,147.719,Q,Q
2023-03-15 20:37:59:631,0,-58.5353,0.303583,147.721,Q,Q
2023-03-15 20:37:59:640,0,-58.5376,0.306455,147.724,Q,Q
2023-03-15 20:37:59:651,0,-58.5377,0.309764,147.726,Q,Q
2023-03-15 20:37:59:661,0,-58.538,0.309474,147.724,Q,Q
2023-03-15 20:37:59:671,0,-58.5348,0.308891,147.725,Q,Q
2023-03-15 20:37:59:680,0,-58.5349,0.311506,147.726,Q,Q
2023-03-15 20:37:59:690,0,-58.5334,0.308823,147.727,Q,Q
2023-03-15 20:37:59:701,0,-58.535,0.308738,147.725,Q,Q
2023-03-15 20:37:59:711,0,-58.5341,0.314428,147.726,Q,Q
2023-03-15 20:37:59:720,0,-58.5353,0.31362,147.727,Q,Q
2023-03-15 20:37:59:731,0,-58.535,0.315067,147.728,Q,Q
2023-03-15 20:37:59:741,0,-58.5355,0.314575,147.727,Q,Q
2023-03-15 20:37:59:751,0,-58.5326,0.312669,147.73,Q,Q
2023-03-15 20:37:59:761,0,-58.537,0.311761,147.732,Q,Q
2023-03-15 20:37:59:771,0,-58.5377,0.311061,147.732,Q,Q
2023-03-15 20:37:59:781,0,-58.5379,0.312765,147.732,Q,Q
2023-03-15 20:37:59:791,0,-58.5385,0.31588,147.731,Q,Q
2023-03-15 20:37:59:801,0,-58.5415,0.317148,147.728,Q,Q
2023-03-15 20:37:59:811,0,-58.539,0.318372,147.729,Q,Q
2023-03-15 20:37:59:821,0,-58.539,0.320932,147.727,Q,Q
2023-03-15 20:37:59:831,0,-58.5394,0.321848,147.729,Q,Q
2023-03-15 20:37:59:841,0,-58.5407,0.320652,147.727,Q,Q
2023-03-15 20:37:59:851,0,-58.5431,0.321503,147.728,Q,Q
2023-03-15 20:37:59:861,0,-58.5437,0.319745,147.727,Q,Q
2023-03-15 20:37:59:871,0,-58.5413,0.317454,147.729,Q,Q
2023-03-15 20:37:59:881,0,-58.5392,0.318763,147.73,Q,Q
2023-03-15 20:37:59:891,0,-58.5398,0.316006,147.732,Q,Q
2023-03-15 20:37:59:901,0,-58.539,0.315027,147.733,Q,Q
2023-03-15 20:37:59:911,0,-58.5367,0.312802,147.737,Q,Q
2023-03-15 20:37:59:921,0,-58.5372,0.311726,147.737,Q,Q
2023-03-15 20:37:59:931,0,-58.5373,0.311109,147.737,Q,Q
2023-03-15 20:37:59:941,0,-58.5385,0.309952,147.738,Q,Q
2023-03-15 20:37:59:951,0,-58.5392,0.309625,147.739,Q,Q
2023-03-15 20:37:59:961,0,-58.5374,0.306908,147.74,Q,Q
2023-03-15 20:37:59:971,0,-58.5357,0.308785,147.74,Q,Q
2023-03-15 20:37:59:981,0,-58.5368,0.308323,147.74,Q,Q
2023-03-15 20:37:59:991,0,-58.5366,0.307352,147.739,Q,Q
2023-03-15 20:38:00:1,0,-58.5385,0.306768,147.741,Q,Q
2023-03-15 20:38:00:11,0,-58.5391,0.307972,147.738,Q,Q
2023-03-15 20:38:00:21,0,-58.5374,0.307854,147.742,Q,Q
2023-03-15 20:38:00:31,0,-58.5362,0.308928,147.744,Q,Q
2023-03-15 20:38:00:41,0,-58.5349,0.30927,147.741,Q,Q
2023-03-15 20:38:00:51,0,-58.5344,0.307823,147.742,Q,Q
2023-03-15 20:38:00:61,0,-58.5358,0.306053,147.745,Q,Q
2023-03-15 20:38:00:71,0,-58.5335,0.30725,147.748,Q,Q
2023-03-15 20:38:00:81,0,-58.5354,0.306296,147.749,Q,Q
2023-03-15 20:38:00:91,0,-58.535,0.306344,147.752,Q,Q
2023-03-15 20:38:00:101,0,-58.5349,0.305787,147.752,Q,Q
2023-03-15 20:38:00:111,0,-58.5342,0.303022,147.753,Q,Q
2023-03-15 20:38:00:121,0,-58.5332,0.303037,147.755,Q,Q
2023-03-15 20:38:00:131,0,-58.5349,0.304505,147.751,Q,Q
2023-03-15 20:38:00:141,0,-58.5349,0.307243,147.752,Q,Q
2023-03-15 20:38:00:151,0,-58.5364,0.309751,147.749,Q,Q
2023-03-15 20:38:00:161,0,-58.5388,0.310668,147.749,Q,Q
2023-03-15 20:38:00:171,0,-58.5388,0.31319,147.747,Q,Q
2023-03-15 20:38:00:181,0,-58.537,0.31461,147.745,Q,Q
2023-03-15 20:38:00:191,0,-58.5368,0.315407,147.743,Q,Q
2023-03-15 20:38:00:201,0,-58.5362,0.314149,147.746,Q,Q
2023-03-15 20:38:00:211,0,-58.5355,0.312708,147.747,Q,Q
2023-03-15 20:38:00:221,0,-58.5374,0.31368,147.748,Q,Q
2023-03-15 20:38:00:231,0,-58.5368,0.313138,147.748,Q,Q
2023-03-15 20:38:00:241,0,-58.5368,0.313919,147.748,Q,Q
2023-03-15 20:38:00:251,0,-58.5387,0.31441,147.749,Q,Q
2023-03-15 20:38:00:261,0,-58.5391,0.311022,147.748,Q,Q
2023-03-15 20:38:00:271,0,-58.5367,0.312442,147.747,Q,Q
2023-03-15 20:38:00:281,0,-58.5357,0.311795,147.747,Q,Q
2023-03-15 20:38:00:291,0,-58.5358,0.313858,147.749,Q,Q
2023-03-15 20:38:00:301,0,-58.5365,0.31346,147.75,Q,Q
2023-03-15 20:38:00:311,0,-58.5336,0.312228,147.75,Q,Q
2023-03-15 20:38:00:321,0,-58.5334,0.313068,147.75,Q,Q
2023-03-15 20:38:00:331,0,-58.5321,0.313288,147.754,Q,Q
2023-03-15 20:38:00:341,0,-58.5326,0.312957,147.754,Q,Q
2023-03-15 20:38:00:351,0,-58.5318,0.311893,147.754,Q,Q
2023-03-15 20:38:00:361,0,-58.5318,0.314116,147.755,Q,Q
2023-03-15 20:38:00:371,0,-58.5317,0.311665,147.755,Q,Q
2023-03-15 20:38:00:381,0,-58.5338,0.312635,147.757,Q,Q
2023-03-15 20:38:00:391,0,-58.5347,0.313784,147.758,Q,Q
2023-03-15 20:38:00:401,0,-58.5334,0.315059,147.757,Q,Q
2023-03-15 20:38:00:411,0,-58.533,0.314431,147.757,Q,Q
2023-03-15 20:38:00:421,0,-58.5328,0.315123,147.757,Q,Q
2023-03-15 20:38:00:431,0,-58.532,0.31403,147.759,Q,Q
2023-03-15 20:38:00:441,0,-58.5327,0.317058,147.758,Q,Q
2023-03-15 20:38:00:451,0,-58.533,0.317382,147.759,Q,Q
2023-03-15 20:38:00:461,0,-58.536,0.315579,147.758,Q,Q
2023-03-15 20:38:00:471,0,-58.5347,0.315213,147.759,Q,Q
2023-03-15 20:38:00:481,0,-58.5364,0.314306,147.76,Q,Q
2023-03-15 20:38:00:491,0,-58.5369,0.314253,147.761,Q,Q
2023-03-15 20:38:00:502,0,-58.5389,0.314481,147.758,Q,Q
2023-03-15 20:38:00:511,0,-58.5366,0.31057,147.758,Q,Q
2023-03-15 20:38:00:521,0,-58.5371,0.309164,147.756,Q,Q
2023-03-15 20:38:00:531,0,-58.536,0.305895,147.755,Q,Q
2023-03-15 20:38:00:542,0,-58.536,0.304784,147.756,Q,Q
2023-03-15 20:38:00:551,0,-58.5377,0.30519,147.758,Q,Q
2023-03-15 20:38:00:561,0,-58.5388,0.305933,147.76,Q,Q
2023-03-15 20:38:00:571,0,-58.5392,0.306001,147.759,Q,Q
2023-03-15 20:38:00:581,0,-58.5427,0.30695,147.757,Q,Q
2023-03-15 20:38:00:592,0,-58.5439,0.309683,147.753,Q,Q
2023-03-15 20:38:00:602,0,-58.5477,0.306947,147.752,Q,Q
2023-03-15 20:38:00:612,0,-58.5456,0.308114,147.755,Q,Q
2023-03-15 20:38:00:622,0,-58.5444,0.307495,147.753,Q,Q
2023-03-15 20:38:00:632,0,-58.5415,0.30749,147.756,Q,Q
2023-03-15 20:38:00:642,0,-58.5437,0.307466,147.756,Q,Q
2023-03-15 20:38:00:652,0,-58.5434,0.306867,147.757,Q,Q
2023-03-15 20:38:00:661,0,-58.5451,0.30619,147.756,Q,Q
2023-03-15 20:38:00:672,0,-58.5472,0.303663,147.754,Q,Q
2023-03-15 20:38:00:682,0,-58.5459,0.301743,147.755,Q,Q
2023-03-15 20:38:00:692,0,-58.5455,0.304168,147.755,Q,Q
2023-03-15 20:38:00:702,0,-58.5478,0.305405,147.752,Q,Q
2023-03-15 20:38:00:712,0,-58.5484,0.304314,147.75,Q,Q
2023-03-15 20:38:00:722,0,-58.5466,0.306105,147.746,Q,Q
2023-03-15 20:38:00:732,0,-58.5447,0.305345,147.741,Q,Q
2023-03-15 20:38:00:742,0,-58.5454,0.305392,147.744,Q,Q
2023-03-15 20:38:00:752,0,-58.5435,0.305552,147.744,Q,Q
2023-03-15 20:38:00:762,0,-58.5434,0.304746,147.746,Q,Q
2023-03-15 20:38:00:772,0,-58.5449,0.308013,147.744,Q,Q
2023-03-15 20:38:00:782,0,-58.5437,0.305663,147.744,Q,Q
2023-03-15 20:38:00:792,0,-58.5471,0.301778,147.746,Q,Q
2023-03-15 20:38:00:802,0,-58.5471,0.305237,147.744,Q,Q
2023-03-15 20:38:00:812,0,-58.5457,0.306545,147.744,Q,Q
2023-03-15 20:38:00:822,0,-58.5441,0.30625,147.743,Q,Q
2023-03-15 20:38:00:832,0,-58.546,0.307473,147.742,Q,Q
2023-03-15 20:38:00:842,0,-58.5461,0.309431,147.744,Q,Q
2023-03-15 20:38:00:852,0,-58.5476,0.311285,147.746,Q,Q
2023-03-15 20:38:00:862,0,-58.548,0.315466,147.746,Q,Q
2023-03-15 20:38:00:872,0,-58.5485,0.3144,147.748,Q,Q
2023-03-15 20:38:00:882,0,-58.5473,0.31371,147.751,Q,Q
2023-03-15 20:38:00:892,0,-58.5447,0.315383,147.752,Q,Q
2023-03-15 20:38:00:902,0,-58.5446,0.315277,147.756,Q,Q
2023-03-15 20:38:00:912,0,-58.5431,0.316139,147.754,Q,Q
2023-03-15 20:38:00:922,0,-58.543,0.316336,147.75,Q,Q
2023-03-15 20:38:00:932,0,-58.5427,0.317922,147.751,Q,Q
2023-03-15 20:38:00:942,0,-58.5438,0.318154,147.747,Q,Q
2023-03-15 20:38:00:952,0,-58.5435,0.320237,147.744,Q,Q
2023-03-15 20:38:00:962,0,-58.5445,0.320559,147.741,Q,Q
2023-03-15 20:38:00:972,0,-58.5425,0.322564,147.743,Q,Q
2023-03-15 20:38:00:982,0,-58.5414,0.321086,147.745,Q,Q
2023-03-15 20:38:00:992,0,-58.541,0.322115,147.745,Q,Q
2023-03-15 20:38:01:2,0,-58.5397,0.320931,147.744,Q,Q
2023-03-15 20:38:01:12,0,-58.5386,0.322369,147.744,Q,Q
2023-03-15 20:38:01:22,0,-58.5368,0.323752,147.746,Q,Q
2023-03-15 20:38:01:32,0,-58.5362,0.323426,147.746,Q,Q
2023-03-15 20:38:01:42,0,-58.5353,0.325736,147.747,Q,Q
2023-03-15 20:38:01:52,0,-58.5357,0.324997,147.749,Q,Q
2023-03-15 20:38:01:62,0,-58.5355,0.326712,147.749,Q,Q
2023-03-15 20:38:01:72,0,-58.5369,0.324131,147.749,Q,Q
2023-03-15 20:38:01:82,0,-58.5367,0.322403,147.751,Q,Q
2023-03-15 20:38:01:92,0,-58.5392,0.319375,147.751,Q,Q
2023-03-15 20:38:01:102,0,-58.5334,0.318073,147.753,Q,Q
2023-03-15 20:38:01:112,0,-58.533,0.319435,147.754,Q,Q
2023-03-15 20:38:01:122,0,-58.5333,0.321096,147.75,Q,Q
2023-03-15 20:38:01:132,0,-58.5326,0.322536,147.752,Q,Q
2023-03-15 20:38:01:142,0,-58.533,0.323141,147.752,Q,Q
2023-03-15 20:38:01:152,0,-58.5332,0.323007,147.752,Q,Q
2023-03-15 20:38:01:162,0,-58.5312,0.32363,147.753,Q,Q
2023-03-15 20:38:01:172,0,-58.5303,0.323184,147.755,Q,Q
2023-03-15 20:38:01:182,0,-58.53,0.322572,147.752,Q,Q
2023-03-15 20:38:01:192,0,-58.529,0.320851,147.753,Q,Q
2023-03-15 20:38:01:202,0,-58.5282,0.316613,147.754,Q,Q
2023-03-15 20:38:01:212,0,-58.5279,0.314762,147.752,Q,Q
2023-03-15 20:38:01:222,0,-58.5274,0.312667,147.752,Q,Q
2023-03-15 20:38:01:232,0,-58.5271,0.310403,147.753,Q,Q
2023-03-15 20:38:01:242,0,-58.5245,0.310989,147.754,Q,Q
2023-03-15 20:38:01:252,0,-58.526,0.311555,147.755,Q,Q
2023-03-15 20:38:01:262,0,-58.5244,0.31179,147.757,Q,Q
2023-03-15 20:38:01:272,0,-58.5218,0.312005,147.755,Q,Q
2023-03-15 20:38:01:282,0,-58.5193,0.312148,147.756,Q,Q
2023-03-15 20:38:01:292,0,-58.5188,0.306898,147.755,Q,Q
2023-03-15 20:38:01:303,0,-58.5179,0.306579,147.755,Q,Q
2023-03-15 20:38:01:312,0,-58.5194,0.307499,147.755,Q,Q
2023-03-15 20:38:01:322,0,-58.5195,0.306476,147.754,Q,Q
2023-03-15 20:38:01:333,0,-58.5212,0.30737,147.752,Q,Q
2023-03-15 20:38:01:343,0,-58.5232,0.307907,147.751,Q,Q
2023-03-15 20:38:01:352,0,-58.5224,0.307046,147.749,Q,Q
2023-03-15 20:38:01:363,0,-58.5202,0.308488,147.748,Q,Q
2023-03-15 20:38:01:373,0,-58.5206,0.309192,147.749,Q,Q
2023-03-15 20:38:01:383,0,-58.5191,0.309815,147.746,Q,Q
2023-03-15 20:38:01:392,0,-58.5202,0.308359,147.748,Q,Q
2023-03-15 20:38:01:403,0,-58.5194,0.3071,147.747,Q,Q
2023-03-15 20:38:01:413,0,-58.52,0.306008,147.746,Q,Q
2023-03-15 20:38:01:423,0,-58.5203,0.309772,147.747,Q,Q
2023-03-15 20:38:01:433,0,-58.5228,0.309871,147.748,Q,Q
2023-03-15 20:38:01:443,0,-58.5248,0.310802,147.746,Q,Q
2023-03-15 20:38:01:453,0,-58.5249,0.310174,147.746,Q,Q
2023-03-15 20:38:01:463,0,-58.5237,0.310453,147.746,Q,Q
2023-03-15 20:38:01:473,0,-58.5234,0.312539,147.746,Q,Q
2023-03-15 20:38:01:483,0,-58.5218,0.313619,147.749,Q,Q
2023-03-15 20:38:01:493,0,-58.5208,0.315236,147.747,Q,Q
2023-03-15 20:38:01:503,0,-58.5208,0.313695,147.745,Q,Q
2023-03-15 20:38:01:513,0,-58.5202,0.315933,147.743,Q,Q
2023-03-15 20:38:01:523,0,-58.521,0.313853,147.746,Q,Q
2023-03-15 20:38:01:533,0,-58.5222,0.311688,147.744,Q,Q
2023-03-15 20:38:01:543,0,-58.5205,0.310561,147.747,Q,Q
2023-03-15 20:38:01:553,0,-58.5191,0.309153,147.748,Q,Q
2023-03-15 20:38:01:563,0,-58.5215,0.309112,147.748,Q,Q
2023-03-15 20:38:01:572,0,-58.5223,0.30821,147.746,Q,Q
2023-03-15 20:38:01:582,0,-58.5188,0.308454,147.747,Q,Q
2023-03-15 20:38:01:592,0,-58.5204,0.306844,147.748,Q,Q
2023-03-15 20:38:01:603,0,-58.522,0.307799,147.746,Q,Q
2023-03-15 20:38:01:613,0,-58.5217,0.306097,147.747,Q,Q
2023-03-15 20:38:01:623,0,-58.5203,0.305285,147.744,Q,Q
2023-03-15 20:38:01:633,0,-58.521,0.303591,147.748,Q,Q
2023-03-15 20:38:01:643,0,-58.5195,0.304835,147.751,Q,Q
2023-03-15 20:38:01:653,0,-58.5195,0.306101,147.75,Q,Q
2023-03-15 20:38:01:663,0,-58.5217,0.305475,147.75,Q,Q
2023-03-15 20:38:01:673,0,-58.5231,0.305139,147.753,Q,Q
2023-03-15 20:38:01:683,0,-58.5197,0.301791,147.754,Q,Q
2023-03-15 20:38:01:693,0,-58.5195,0.301459,147.757,Q,Q
2023-03-15 20:38:01:703,0,-58.5191,0.303206,147.756,Q,Q
2023-03-15 20:38:01:713,0,-58.5204,0.301633,147.756,Q,Q
2023-03-15 20:38:01:723,0,-58.5209,0.304434,147.753,Q,Q
2023-03-15 20:38:01:733,0,-58.5228,0.305265,147.754,Q,Q
2023-03-15 20:38:01:743,0,-58.5247,0.30675,147.756,Q,Q
2023-03-15 20:38:01:753,0,-58.5232,0.302226,147.756,Q,Q
2023-03-15 20:38:01:763,0,-58.5242,0.302422,147.754,Q,Q
2023-03-15 20:38:01:773,0,-58.5233,0.299596,147.754,Q,Q
2023-03-15 20:38:01:783,0,-58.5259,0.299267,147.754,Q,Q
2023-03-15 20:38:01:793,0,-58.5273,0.299947,147.754,Q,Q
2023-03-15 20:38:01:803,0,-58.5278,0.300291,147.755,Q,Q
2023-03-15 20:38:01:813,0,-58.5263,0.298418,147.756,Q,Q
2023-03-15 20:38:01:823,0,-58.5274,0.29799,147.756,Q,Q
2023-03-15 20:38:01:833,0,-58.5272,0.299394,147.759,Q,Q
2023-03-15 20:38:01:843,0,-58.5278,0.300199,147.76,Q,Q
2023-03-15 20:38:01:853,0,-58.5281,0.300015,147.76,Q,Q
2023-03-15 20:38:01:863,0,-58.5285,0.304408,147.759,Q,Q
2023-03-15 20:38:01:873,0,-58.5279,0.302628,147.761,Q,Q
2023-03-15 20:38:01:883,0,-58.5256,0.30302,147.762,Q,Q
2023-03-15 20:38:01:893,0,-58.5247,0.303055,147.762,Q,Q
2023-03-15 20:38:01:903,0,-58.5242,0.303794,147.762,Q,Q
2023-03-15 20:38:01:913,0,-58.5259,0.303763,147.762,Q,Q
2023-03-15 20:38:01:923,0,-58.5263,0.303033,147.763,Q,Q
2023-03-15 20:38:01:933,0,-58.5266,0.30295,147.765,Q,Q
2023-03-15 20:38:01:943,0,-58.5293,0.304636,147.768,Q,Q
2023-03-15 20:38:01:953,0,-58.5292,0.304004,147.766,Q,Q
2023-03-15 20:38:01:963,0,-58.5292,0.304253,147.769,Q,Q
2023-03-15 20:38:01:973,0,-58.5295,0.305582,147.767,Q,Q
2023-03-15 20:38:01:983,0,-58.5286,0.306261,147.766,Q,Q
2023-03-15 20:38:01:993,0,-58.5283,0.306415,147.767,Q,Q
2023-03-15 20:38:02:3,0,-58.5306,0.306703,147.765,Q,Q
2023-03-15 20:38:02:13,0,-58.5286,0.308058,147.764,Q,Q
2023-03-15 20:38:02:23,0,-58.5286,0.308751,147.766,Q,Q
2023-03-15 20:38:02:33,0,-58.5286,0.310549,147.766,Q,Q
2023-03-15 20:38:02:43,0,-58.5255,0.311146,147.763,Q,Q
2023-03-15 20:38:02:53,0,-58.5261,0.314279,147.763,Q,Q
2023-03-15 20:38:02:63,0,-58.5234,0.316506,147.762,Q,Q
2023-03-15 20:38:02:73,0,-58.5225,0.312532,147.76,Q,Q
2023-03-15 20:38:02:83,0,-58.5227,0.311288,147.763,Q,Q
2023-03-15 20:38:02:93,0,-58.5219,0.312141,147.763,Q,Q
2023-03-15 20:38:02:103,0,-58.5241,0.312447,147.764,Q,Q
2023-03-15 20:38:02:113,0,-58.526,0.311896,147.766,Q,Q
2023-03-15 20:38:02:123,0,-58.5275,0.312758,147.765,Q,Q
2023-03-15 20:38:02:133,0,-58.527,0.31269,147.761,Q,Q
2023-03-15 20:38:02:143,0,-58.5266,0.314445,147.759,Q,Q
2023-03-15 20:38:02:153,0,-58.5296,0.314269,147.76,Q,Q
2023-03-15 20:38:02:163,0,-58.5297,0.31414,147.76,Q,Q
2023-03-15 20:38:02:173,0,-58.5318,0.313844,147.76,Q,Q
2023-03-15 20:38:02:183,0,-58.532,0.314143,147.757,Q,Q
2023-03-15 20:38:02:193,0,-58.5315,0.314114,147.763,Q,Q
2023-03-15 20:38:02:203,0,-58.5317,0.314408,147.764,Q,Q
2023-03-15 20:38:02:213,0,-58.5291,0.314518,147.765,Q,Q
2023-03-15 20:38:02:223,0,-58.5283,0.313813,147.764,Q,Q
2023-03-15 20:38:02:234,0,-58.5303,0.313721,147.765,Q,Q
2023-03-15 20:38:02:243,0,-58.532,0.308628,147.766,Q,Q
2023-03-15 20:38:02:253,0,-58.5327,0.308158,147.765,Q,Q
2023-03-15 20:38:02:263,0,-58.531,0.30847,147.764,Q,Q
2023-03-15 20:38:02:274,0,-58.5294,0.30725,147.764,Q,Q
2023-03-15 20:38:02:283,0,-58.5283,0.308369,147.764,Q,Q
2023-03-15 20:38:02:293,0,-58.5304,0.308851,147.764,Q,Q
2023-03-15 20:38:02:303,0,-58.5337,0.311278,147.762,Q,Q
2023-03-15 20:38:02:313,0,-58.5346,0.31164,147.762,Q,Q
2023-03-15 20:38:02:323,0,-58.533,0.309477,147.764,Q,Q
2023-03-15 20:38:02:334,0,-58.5325,0.30988,147.763,Q,Q
2023-03-15 20:38:02:343,0,-58.5327,0.310841,147.763,Q,Q
2023-03-15 20:38:02:354,0,-58.5322,0.310996,147.762,Q,Q
2023-03-15 20:38:02:363,0,-58.531,0.309571,147.76,Q,Q
2023-03-15 20:38:02:374,0,-58.5303,0.308431,147.757,Q,Q
2023-03-15 20:38:02:383,0,-58.5319,0.305517,147.753,Q,Q
2023-03-15 20:38:02:393,0,-58.5331,0.304546,147.752,Q,Q
2023-03-15 20:38:02:404,0,-58.5321,0.305874,147.754,Q,Q
2023-03-15 20:38:02:414,0,-58.534,0.30388,147.756,Q,Q
2023-03-15 20:38:02:423,0,-58.5321,0.306352,147.754,Q,Q
2023-03-15 20:38:02:434,0,-58.5351,0.301089,147.752,Q,Q
2023-03-15 20:38:02:443,0,-58.5352,0.301416,147.751,Q,Q
2023-03-15 20:38:02:454,0,-58.5341,0.302632,147.749,Q,Q
