Timestamp_cmd,imu_cmd,roll_delta,pitch_delta,yaw_delta,voice_type,voice_length
2023-03-14 22:22:47:192,0,-18.2793,-4.60466,43.6719,Q,Q
2023-03-14 22:22:47:200,0,-18.2923,-4.58496,43.8263,Q,Q
2023-03-14 22:22:47:210,0,-18.3117,-4.56987,43.9842,Q,Q
2023-03-14 22:22:47:220,0,-18.335,-4.56337,44.1391,Q,Q
2023-03-14 22:22:47:231,0,-18.3572,-4.56717,44.2889,Q,Q
2023-03-14 22:22:47:240,0,-18.3718,-4.58157,44.435,Q,Q
2023-03-14 22:22:47:251,0,-18.3768,-4.60829,44.5728,Q,Q
2023-03-14 22:22:47:261,0,-18.3786,-4.65066,44.7002,Q,Q
2023-03-14 22:22:47:271,0,-18.3722,-4.70082,44.8145,Q,Q
2023-03-14 22:22:47:281,0,-18.3499,-4.74833,44.9075,Q,Q
2023-03-14 22:22:47:291,0,-18.3091,-4.79363,44.9747,Q,Q
2023-03-14 22:22:47:301,0,-18.2549,-4.82643,45.0151,Q,Q
2023-03-14 22:22:47:311,0,-18.1927,-4.8471,45.0351,Q,Q
2023-03-14 22:22:47:321,0,-18.1281,-4.85947,45.0382,Q,Q
2023-03-14 22:22:47:331,0,-18.0671,-4.86601,45.0263,Q,Q
2023-03-14 22:22:47:341,0,-18.0126,-4.8596,44.9994,Q,Q
2023-03-14 22:22:47:351,0,-17.975,-4.84631,44.956,Q,Q
2023-03-14 22:22:47:361,0,-17.9442,-4.82116,44.8999,Q,Q
2023-03-14 22:22:47:371,0,-17.9242,-4.79072,44.8323,Q,Q
2023-03-14 22:22:47:381,0,-17.9209,-4.75622,44.7645,Q,Q
2023-03-14 22:22:47:391,0,-17.9317,-4.71103,44.6921,Q,Q
2023-03-14 22:22:47:401,0,-17.9598,-4.66556,44.6225,Q,Q
2023-03-14 22:22:47:411,0,-18.0056,-4.621,44.5572,Q,Q
2023-03-14 22:22:47:421,0,-18.068,-4.58817,44.5009,Q,Q
2023-03-14 22:22:47:431,0,-18.1492,-4.57039,44.4561,Q,Q
2023-03-14 22:22:47:441,0,-18.244,-4.56672,44.4301,Q,Q
2023-03-14 22:22:47:451,0,-18.3527,-4.56862,44.4219,Q,Q
2023-03-14 22:22:47:461,0,-18.4644,-4.57728,44.4143,Q,Q
2023-03-14 22:22:47:471,0,-18.576,-4.58777,44.4084,Q,Q
2023-03-14 22:22:47:481,0,-18.6849,-4.61021,44.412,Q,Q
2023-03-14 22:22:47:491,0,-18.7896,-4.63639,44.4155,Q,Q
2023-03-14 22:22:47:501,0,-18.882,-4.6658,44.4175,Q,Q
2023-03-14 22:22:47:511,0,-18.9529,-4.69663,44.4211,Q,Q
2023-03-14 22:22:47:521,0,-19.0121,-4.73665,44.4273,Q,Q
2023-03-14 22:22:47:531,0,-19.0525,-4.78128,44.4401,Q,Q
2023-03-14 22:22:47:541,0,-19.078,-4.83807,44.4576,Q,Q
2023-03-14 22:22:47:551,0,-19.0936,-4.89954,44.4704,Q,Q
2023-03-14 22:22:47:561,0,-19.0965,-4.95388,44.4729,Q,Q
2023-03-14 22:22:47:571,0,-19.0859,-4.99775,44.4586,Q,Q
2023-03-14 22:22:47:581,0,-19.0591,-5.02739,44.4289,Q,Q
2023-03-14 22:22:47:590,0,-19.0254,-5.04931,44.3927,Q,Q
2023-03-14 22:22:47:600,0,-18.9805,-5.06717,44.3503,Q,Q
2023-03-14 22:22:47:611,0,-18.934,-5.07325,44.3097,Q,Q
2023-03-14 22:22:47:621,0,-18.8844,-5.07751,44.2612,Q,Q
2023-03-14 22:22:47:631,0,-18.8381,-5.07716,44.2099,Q,Q
2023-03-14 22:22:47:641,0,-18.7912,-5.06113,44.1594,Q,Q
2023-03-14 22:22:47:651,0,-18.7508,-5.03972,44.1113,Q,Q
2023-03-14 22:22:47:661,0,-18.7126,-5.01427,44.0659,Q,Q
2023-03-14 22:22:47:671,0,-18.6729,-4.98816,44.0228,Q,Q
2023-03-14 22:22:47:681,0,-18.6302,-4.95903,43.9801,Q,Q
2023-03-14 22:22:47:691,0,-18.5928,-4.93066,43.9432,Q,Q
2023-03-14 22:22:47:700,0,-18.562,-4.90756,43.9124,Q,Q
2023-03-14 22:22:47:711,0,-18.5384,-4.88743,43.889,Q,Q
2023-03-14 22:22:47:721,0,-18.5193,-4.87081,43.875,Q,Q
2023-03-14 22:22:47:731,0,-18.5026,-4.85674,43.8702,Q,Q
2023-03-14 22:22:47:741,0,-18.4865,-4.84135,43.8711,Q,Q
2023-03-14 22:22:47:751,0,-18.4793,-4.82659,43.8829,Q,Q
2023-03-14 22:22:47:761,0,-18.4764,-4.81481,43.8988,Q,Q
2023-03-14 22:22:47:770,0,-18.4708,-4.8038,43.9183,Q,Q
2023-03-14 22:22:47:781,0,-18.465,-4.79833,43.9454,Q,Q
2023-03-14 22:22:47:790,0,-18.4553,-4.8015,43.9816,Q,Q
2023-03-14 22:22:47:801,0,-18.4513,-4.80442,44.0266,Q,Q
2023-03-14 22:22:47:811,0,-18.4428,-4.81774,44.0742,Q,Q
2023-03-14 22:22:47:821,0,-18.4298,-4.83182,44.1282,Q,Q
2023-03-14 22:22:47:831,0,-18.4102,-4.84538,44.1886,Q,Q
2023-03-14 22:22:47:841,0,-18.3851,-4.86401,44.255,Q,Q
2023-03-14 22:22:47:851,0,-18.3564,-4.88306,44.3217,Q,Q
2023-03-14 22:22:47:860,0,-18.3242,-4.90127,44.3875,Q,Q
2023-03-14 22:22:47:871,0,-18.2872,-4.92314,44.4553,Q,Q
2023-03-14 22:22:47:880,0,-18.2478,-4.94477,44.5241,Q,Q
2023-03-14 22:22:47:891,0,-18.2032,-4.96795,44.5921,Q,Q
2023-03-14 22:22:47:900,0,-18.1586,-4.98785,44.6675,Q,Q
2023-03-14 22:22:47:911,0,-18.1179,-5.0074,44.7481,Q,Q
2023-03-14 22:22:47:921,0,-18.0798,-5.02456,44.8345,Q,Q
2023-03-14 22:22:47:931,0,-18.0415,-5.04266,44.9192,Q,Q
2023-03-14 22:22:47:941,0,-17.9985,-5.05419,45.0087,Q,Q
2023-03-14 22:22:47:951,0,-17.953,-5.06411,45.0993,Q,Q
2023-03-14 22:22:47:961,0,-17.9061,-5.07158,45.1934,Q,Q
2023-03-14 22:22:47:971,0,-17.8619,-5.08377,45.2893,Q,Q
2023-03-14 22:22:47:981,0,-17.819,-5.09413,45.3881,Q,Q
2023-03-14 22:22:47:990,0,-17.7811,-5.10847,45.4854,Q,Q
2023-03-14 22:22:48:1,0,-17.7491,-5.12207,45.5754,Q,Q
2023-03-14 22:22:48:10,0,-17.7224,-5.13845,45.657,Q,Q
2023-03-14 22:22:48:21,0,-17.7009,-5.15633,45.7308,Q,Q
2023-03-14 22:22:48:31,0,-17.6823,-5.18133,45.7989,Q,Q
2023-03-14 22:22:48:40,0,-17.6638,-5.20941,45.8613,Q,Q
2023-03-14 22:22:48:50,0,-17.6432,-5.24094,45.9207,Q,Q
2023-03-14 22:22:48:60,0,-17.622,-5.26953,45.9795,Q,Q
2023-03-14 22:22:48:70,0,-17.5936,-5.29795,46.0338,Q,Q
2023-03-14 22:22:48:80,0,-17.5655,-5.32492,46.0847,Q,Q
2023-03-14 22:22:48:90,0,-17.539,-5.35141,46.1319,Q,Q
2023-03-14 22:22:48:100,0,-17.5168,-5.38131,46.1795,Q,Q
2023-03-14 22:22:48:110,0,-17.4978,-5.40817,46.2262,Q,Q
2023-03-14 22:22:48:120,0,-17.4742,-5.44176,46.2774,Q,Q
2023-03-14 22:22:48:130,0,-17.4466,-5.46994,46.3309,Q,Q
2023-03-14 22:22:48:141,0,-17.4149,-5.49968,46.3844,Q,Q
2023-03-14 22:22:48:150,0,-17.3833,-5.5258,46.4335,Q,Q
2023-03-14 22:22:48:160,0,-17.3541,-5.55324,46.4856,Q,Q
2023-03-14 22:22:48:170,0,-17.3218,-5.57979,46.5342,Q,Q
2023-03-14 22:22:48:180,0,-17.2955,-5.61117,46.5868,Q,Q
2023-03-14 22:22:48:190,0,-17.2775,-5.64539,46.6384,Q,Q
2023-03-14 22:22:48:200,0,-17.2638,-5.68736,46.6926,Q,Q
2023-03-14 22:22:48:211,0,-17.2463,-5.72732,46.7402,Q,Q
2023-03-14 22:22:48:220,0,-17.2305,-5.76601,46.7857,Q,Q
2023-03-14 22:22:48:231,0,-17.2149,-5.80709,46.8281,Q,Q
2023-03-14 22:22:48:240,0,-17.1988,-5.84658,46.8683,Q,Q
2023-03-14 22:22:48:251,0,-17.1943,-5.88748,46.9059,Q,Q
2023-03-14 22:22:48:261,0,-17.1837,-5.92864,46.9377,Q,Q
2023-03-14 22:22:48:271,0,-17.1752,-5.97053,46.9671,Q,Q
2023-03-14 22:22:48:281,0,-17.1685,-6.01231,46.9968,Q,Q
2023-03-14 22:22:48:291,0,-17.1608,-6.05491,47.0316,Q,Q
2023-03-14 22:22:48:300,0,-17.1552,-6.09854,47.0724,Q,Q
2023-03-14 22:22:48:311,0,-17.1474,-6.13525,47.108,Q,Q
2023-03-14 22:22:48:321,0,-17.1403,-6.16962,47.1419,Q,Q
2023-03-14 22:22:48:331,0,-17.1283,-6.20242,47.1731,Q,Q
2023-03-14 22:22:48:341,0,-17.1233,-6.2392,47.2016,Q,Q
2023-03-14 22:22:48:351,0,-17.1223,-6.2772,47.2317,Q,Q
2023-03-14 22:22:48:361,0,-17.1214,-6.31685,47.2559,Q,Q
2023-03-14 22:22:48:371,0,-17.1214,-6.35304,47.2821,Q,Q
2023-03-14 22:22:48:381,0,-17.1148,-6.38599,47.3043,Q,Q
2023-03-14 22:22:48:391,0,-17.1002,-6.41901,47.3254,Q,Q
2023-03-14 22:22:48:401,0,-17.0763,-6.45133,47.3512,Q,Q
2023-03-14 22:22:48:411,0,-17.0453,-6.47805,47.3692,Q,Q
2023-03-14 22:22:48:420,0,-17.0081,-6.49688,47.3786,Q,Q
2023-03-14 22:22:48:431,0,-16.9697,-6.51144,47.3878,Q,Q
2023-03-14 22:22:48:440,0,-16.9372,-6.52239,47.3973,Q,Q
2023-03-14 22:22:48:451,0,-16.9102,-6.52921,47.4007,Q,Q
2023-03-14 22:22:48:460,0,-16.8955,-6.53191,47.3965,Q,Q
2023-03-14 22:22:48:471,0,-16.8861,-6.52974,47.3881,Q,Q
2023-03-14 22:22:48:481,0,-16.8932,-6.53142,47.3845,Q,Q
2023-03-14 22:22:48:491,0,-16.9024,-6.52477,47.3826,Q,Q
2023-03-14 22:22:48:501,0,-16.9209,-6.52136,47.3803,Q,Q
2023-03-14 22:22:48:511,0,-16.9378,-6.52238,47.3843,Q,Q
2023-03-14 22:22:48:521,0,-16.9593,-6.52576,47.3927,Q,Q
2023-03-14 22:22:48:531,0,-16.9865,-6.53247,47.4014,Q,Q
2023-03-14 22:22:48:540,0,-17.0078,-6.53838,47.4058,Q,Q
2023-03-14 22:22:48:550,0,-17.0289,-6.54855,47.4092,Q,Q
2023-03-14 22:22:48:560,0,-17.0473,-6.56527,47.4048,Q,Q
2023-03-14 22:22:48:570,0,-17.0599,-6.58403,47.4001,Q,Q
2023-03-14 22:22:48:580,0,-17.0646,-6.60511,47.3966,Q,Q
2023-03-14 22:22:48:590,0,-17.0617,-6.63304,47.3849,Q,Q
2023-03-14 22:22:48:600,0,-17.0532,-6.65994,47.3756,Q,Q
2023-03-14 22:22:48:610,0,-17.0384,-6.68263,47.3618,Q,Q
2023-03-14 22:22:48:620,0,-17.0172,-6.70573,47.3463,Q,Q
2023-03-14 22:22:48:630,0,-16.9997,-6.73177,47.3241,Q,Q
2023-03-14 22:22:48:640,0,-16.9795,-6.75346,47.2942,Q,Q
2023-03-14 22:22:48:650,0,-16.952,-6.77818,47.2597,Q,Q
2023-03-14 22:22:48:660,0,-16.9195,-6.80079,47.2211,Q,Q
2023-03-14 22:22:48:670,0,-16.8845,-6.81693,47.1783,Q,Q
2023-03-14 22:22:48:680,0,-16.8487,-6.82468,47.132,Q,Q
2023-03-14 22:22:48:690,0,-16.8167,-6.82812,47.0775,Q,Q
2023-03-14 22:22:48:700,0,-16.7889,-6.82704,47.016,Q,Q
2023-03-14 22:22:48:710,0,-16.7639,-6.82524,46.9515,Q,Q
2023-03-14 22:22:48:720,0,-16.7478,-6.81873,46.8849,Q,Q
2023-03-14 22:22:48:730,0,-16.7362,-6.81258,46.8161,Q,Q
2023-03-14 22:22:48:740,0,-16.7348,-6.79871,46.7327,Q,Q
2023-03-14 22:22:48:750,0,-16.7392,-6.77839,46.6315,Q,Q
2023-03-14 22:22:48:761,0,-16.7441,-6.75565,46.5192,Q,Q
2023-03-14 22:22:48:771,0,-16.7479,-6.73596,46.4062,Q,Q
2023-03-14 22:22:48:781,0,-16.76,-6.72649,46.2984,Q,Q
2023-03-14 22:22:48:791,0,-16.7687,-6.72026,46.1911,Q,Q
2023-03-14 22:22:48:800,0,-16.7779,-6.71595,46.0844,Q,Q
2023-03-14 22:22:48:810,0,-16.7921,-6.71709,45.978,Q,Q
2023-03-14 22:22:48:820,0,-16.8106,-6.72626,45.8654,Q,Q
2023-03-14 22:22:48:830,0,-16.8316,-6.74326,45.7497,Q,Q
2023-03-14 22:22:48:840,0,-16.8578,-6.76295,45.6209,Q,Q
2023-03-14 22:22:48:850,0,-16.8892,-6.78681,45.4679,Q,Q
2023-03-14 22:22:48:860,0,-16.9219,-6.81744,45.2963,Q,Q
2023-03-14 22:22:48:870,0,-16.9589,-6.84548,45.1005,Q,Q
2023-03-14 22:22:48:880,0,-16.9903,-6.88108,44.8995,Q,Q
2023-03-14 22:22:48:890,0,-17.0112,-6.92707,44.701,Q,Q
2023-03-14 22:22:48:900,0,-17.0284,-6.97569,44.5122,Q,Q
2023-03-14 22:22:48:910,0,-17.0509,-7.02974,44.3322,Q,Q
2023-03-14 22:22:48:921,0,-17.0749,-7.08025,44.1465,Q,Q
2023-03-14 22:22:48:931,0,-17.1015,-7.12678,43.9592,Q,Q
2023-03-14 22:22:48:941,0,-17.1291,-7.16614,43.7648,Q,Q
2023-03-14 22:22:48:951,0,-17.1528,-7.19735,43.5667,Q,Q
2023-03-14 22:22:48:961,0,-17.1653,-7.22399,43.3662,Q,Q
2023-03-14 22:22:48:971,0,-17.1688,-7.24696,43.1731,Q,Q
2023-03-14 22:22:48:981,0,-17.1685,-7.26939,42.9908,Q,Q
2023-03-14 22:22:48:991,0,-17.1613,-7.29046,42.8193,Q,Q
2023-03-14 22:22:49:1,0,-17.1575,-7.31298,42.6546,Q,Q
2023-03-14 22:22:49:11,0,-17.1576,-7.33137,42.4893,Q,Q
2023-03-14 22:22:49:21,0,-17.165,-7.34538,42.3246,Q,Q
2023-03-14 22:22:49:31,0,-17.1754,-7.35803,42.1603,Q,Q
2023-03-14 22:22:49:41,0,-17.1897,-7.36759,41.9936,Q,Q
2023-03-14 22:22:49:51,0,-17.2012,-7.37434,41.8208,Q,Q
2023-03-14 22:22:49:61,0,-17.2134,-7.37772,41.6529,Q,Q
2023-03-14 22:22:49:71,0,-17.2302,-7.38549,41.4882,Q,Q
2023-03-14 22:22:49:81,0,-17.2525,-7.40257,41.3354,Q,Q
2023-03-14 22:22:49:91,0,-17.2855,-7.43095,41.1885,Q,Q
2023-03-14 22:22:49:101,0,-17.3264,-7.46474,41.0494,Q,Q
2023-03-14 22:22:49:111,0,-17.368,-7.50012,40.9068,Q,Q
2023-03-14 22:22:49:121,0,-17.4072,-7.53746,40.7611,Q,Q
2023-03-14 22:22:49:131,0,-17.4384,-7.57264,40.6176,Q,Q
2023-03-14 22:22:49:141,0,-17.4601,-7.60634,40.4799,Q,Q
2023-03-14 22:22:49:151,0,-17.4767,-7.64441,40.3527,Q,Q
2023-03-14 22:22:49:161,0,-17.4957,-7.68629,40.2408,Q,Q
2023-03-14 22:22:49:171,0,-17.5184,-7.73037,40.1355,Q,Q
2023-03-14 22:22:49:181,0,-17.538,-7.76925,40.0298,Q,Q
2023-03-14 22:22:49:191,0,-17.5577,-7.81107,39.925,Q,Q
2023-03-14 22:22:49:201,0,-17.5747,-7.84777,39.8158,Q,Q
2023-03-14 22:22:49:211,0,-17.5789,-7.88436,39.7011,Q,Q
2023-03-14 22:22:49:221,0,-17.5829,-7.9241,39.5925,Q,Q
2023-03-14 22:22:49:230,0,-17.5838,-7.96405,39.4906,Q,Q
2023-03-14 22:22:49:240,0,-17.5818,-8.00584,39.39,Q,Q
2023-03-14 22:22:49:251,0,-17.5795,-8.0452,39.2949,Q,Q
2023-03-14 22:22:49:260,0,-17.5725,-8.08392,39.2106,Q,Q
2023-03-14 22:22:49:271,0,-17.5713,-8.12196,39.1305,Q,Q
2023-03-14 22:22:49:281,0,-17.5696,-8.15921,39.0577,Q,Q
2023-03-14 22:22:49:291,0,-17.5649,-8.19494,38.9875,Q,Q
2023-03-14 22:22:49:300,0,-17.5579,-8.23274,38.9248,Q,Q
2023-03-14 22:22:49:311,0,-17.5464,-8.26845,38.8634,Q,Q
2023-03-14 22:22:49:321,0,-17.5298,-8.30289,38.8052,Q,Q
2023-03-14 22:22:49:331,0,-17.504,-8.3402,38.7586,Q,Q
2023-03-14 22:22:49:341,0,-17.4757,-8.37773,38.7213,Q,Q
2023-03-14 22:22:49:351,0,-17.4424,-8.40827,38.6907,Q,Q
2023-03-14 22:22:49:361,0,-17.4074,-8.42982,38.6586,Q,Q
2023-03-14 22:22:49:371,0,-17.3726,-8.44422,38.629,Q,Q
2023-03-14 22:22:49:381,0,-17.3428,-8.463,38.6079,Q,Q
2023-03-14 22:22:49:391,0,-17.3185,-8.48898,38.5966,Q,Q
2023-03-14 22:22:49:401,0,-17.3038,-8.51893,38.5893,Q,Q
2023-03-14 22:22:49:411,0,-17.2865,-8.54734,38.5768,Q,Q
2023-03-14 22:22:49:421,0,-17.2742,-8.57484,38.5586,Q,Q
2023-03-14 22:22:49:431,0,-17.2606,-8.60529,38.5296,Q,Q
2023-03-14 22:22:49:441,0,-17.2512,-8.63535,38.4857,Q,Q
2023-03-14 22:22:49:451,0,-17.2475,-8.66203,38.4328,Q,Q
2023-03-14 22:22:49:461,0,-17.2454,-8.68497,38.3631,Q,Q
2023-03-14 22:22:49:471,0,-17.2434,-8.71185,38.2775,Q,Q
2023-03-14 22:22:49:481,0,-17.2378,-8.74087,38.1874,Q,Q
2023-03-14 22:22:49:491,0,-17.2345,-8.77547,38.0888,Q,Q
2023-03-14 22:22:49:501,0,-17.2336,-8.80772,37.9839,Q,Q
2023-03-14 22:22:49:511,0,-17.2363,-8.83206,37.8597,Q,Q
2023-03-14 22:22:49:521,0,-17.2367,-8.8425,37.7141,Q,Q
2023-03-14 22:22:49:531,0,-17.2381,-8.84076,37.55,Q,Q
2023-03-14 22:22:49:541,0,-17.2377,-8.83761,37.3736,Q,Q
2023-03-14 22:22:49:551,0,-17.2461,-8.83446,37.1827,Q,Q
2023-03-14 22:22:49:561,0,-17.2576,-8.83091,36.9741,Q,Q
2023-03-14 22:22:49:571,0,-17.2688,-8.82075,36.7439,Q,Q
2023-03-14 22:22:49:581,0,-17.2809,-8.80781,36.4932,Q,Q
2023-03-14 22:22:49:591,0,-17.2942,-8.80076,36.2239,Q,Q
2023-03-14 22:22:49:601,0,-17.3079,-8.7948,35.949,Q,Q
2023-03-14 22:22:49:611,0,-17.3283,-8.7856,35.6687,Q,Q
2023-03-14 22:22:49:621,0,-17.3426,-8.77716,35.3803,Q,Q
2023-03-14 22:22:49:631,0,-17.3556,-8.76609,35.0954,Q,Q
2023-03-14 22:22:49:641,0,-17.3659,-8.75863,34.8114,Q,Q
2023-03-14 22:22:49:651,0,-17.3702,-8.74463,34.5358,Q,Q
2023-03-14 22:22:49:661,0,-17.3682,-8.73212,34.271,Q,Q
2023-03-14 22:22:49:671,0,-17.3646,-8.7089,34.0069,Q,Q
2023-03-14 22:22:49:681,0,-17.3519,-8.67045,33.7394,Q,Q
2023-03-14 22:22:49:691,0,-17.3323,-8.62113,33.4757,Q,Q
2023-03-14 22:22:49:701,0,-17.2916,-8.57195,33.2232,Q,Q
2023-03-14 22:22:49:711,0,-17.2427,-8.51857,32.9849,Q,Q
2023-03-14 22:22:49:721,0,-17.1886,-8.46135,32.7585,Q,Q
2023-03-14 22:22:49:731,0,-17.1266,-8.39893,32.5499,Q,Q
2023-03-14 22:22:49:741,0,-17.0623,-8.34027,32.3547,Q,Q
2023-03-14 22:22:49:751,0,-16.9918,-8.27846,32.1717,Q,Q
2023-03-14 22:22:49:761,0,-16.9199,-8.21534,32.0036,Q,Q
2023-03-14 22:22:49:771,0,-16.8508,-8.14997,31.8441,Q,Q
2023-03-14 22:22:49:781,0,-16.7846,-8.07684,31.6915,Q,Q
2023-03-14 22:22:49:791,0,-16.7162,-7.99813,31.5342,Q,Q
2023-03-14 22:22:49:801,0,-16.6394,-7.91607,31.3747,Q,Q
2023-03-14 22:22:49:811,0,-16.555,-7.83214,31.2141,Q,Q
2023-03-14 22:22:49:821,0,-16.4672,-7.74989,31.0608,Q,Q
2023-03-14 22:22:49:831,0,-16.3728,-7.66726,30.9201,Q,Q
2023-03-14 22:22:49:841,0,-16.2794,-7.59487,30.7891,Q,Q
2023-03-14 22:22:49:851,0,-16.1868,-7.52515,30.6678,Q,Q
2023-03-14 22:22:49:861,0,-16.0962,-7.45825,30.5522,Q,Q
2023-03-14 22:22:49:871,0,-16.0052,-7.39141,30.4365,Q,Q
2023-03-14 22:22:49:881,0,-15.9146,-7.31644,30.3277,Q,Q
2023-03-14 22:22:49:891,0,-15.8245,-7.24299,30.2272,Q,Q
2023-03-14 22:22:49:901,0,-15.7595,-7.07459,30.2796,Q,Q
2023-03-14 22:22:49:911,0,-15.7954,-7.03883,30.6705,Q,Q
2023-03-14 22:22:49:921,0,-15.8079,-7.28403,30.946,Q,Q
2023-03-14 22:22:49:931,0,-15.8041,-7.53498,31.1405,Q,Q
2023-03-14 22:22:49:941,0,-15.8086,-7.56733,31.2106,Q,Q
2023-03-14 22:22:49:951,0,-15.7886,-7.49934,31.1999,Q,Q
2023-03-14 22:22:49:961,0,-15.7617,-7.39867,31.1699,Q,Q
2023-03-14 22:22:49:971,0,-15.7242,-7.29923,31.1507,Q,Q
2023-03-14 22:22:49:981,0,-15.6824,-7.22788,31.1514,Q,Q
2023-03-14 22:22:49:991,0,-15.6266,-7.18335,31.156,Q,Q
2023-03-14 22:22:50:1,0,-15.5857,-7.1458,31.1457,Q,Q
2023-03-14 22:22:50:11,0,-15.545,-7.12648,31.1215,Q,Q
2023-03-14 22:22:50:21,0,-15.5114,-7.13084,31.1095,Q,Q
2023-03-14 22:22:50:31,0,-15.4872,-7.15458,31.1156,Q,Q
2023-03-14 22:22:50:41,0,-15.4793,-7.18987,31.1432,Q,Q
2023-03-14 22:22:50:51,0,-15.4713,-7.22906,31.1743,Q,Q
2023-03-14 22:22:50:61,0,-15.4594,-7.24442,31.2067,Q,Q
2023-03-14 22:22:50:71,0,-15.445,-7.23606,31.2342,Q,Q
2023-03-14 22:22:50:81,0,-15.4422,-7.20021,31.2985,Q,Q
2023-03-14 22:22:50:91,0,-15.4416,-7.17709,31.386,Q,Q
2023-03-14 22:22:50:101,0,-15.4461,-7.17109,31.4577,Q,Q
2023-03-14 22:22:50:111,0,-15.4511,-7.13432,31.5122,Q,Q
2023-03-14 22:22:50:121,0,-15.4527,-7.08659,31.5748,Q,Q
2023-03-14 22:22:50:131,0,-15.4413,-7.02228,31.6421,Q,Q
2023-03-14 22:22:50:140,0,-15.4297,-6.95356,31.726,Q,Q
2023-03-14 22:22:50:151,0,-15.4331,-6.89121,31.8343,Q,Q
2023-03-14 22:22:50:161,0,-15.4473,-6.83969,31.9566,Q,Q
2023-03-14 22:22:50:171,0,-15.4705,-6.79977,32.0965,Q,Q
2023-03-14 22:22:50:181,0,-15.4908,-6.77241,32.2505,Q,Q
2023-03-14 22:22:50:191,0,-15.5167,-6.73735,32.3977,Q,Q
2023-03-14 22:22:50:201,0,-15.5445,-6.69721,32.5369,Q,Q
2023-03-14 22:22:50:211,0,-15.5667,-6.64873,32.6563,Q,Q
2023-03-14 22:22:50:220,0,-15.5869,-6.59267,32.7704,Q,Q
2023-03-14 22:22:50:231,0,-15.6151,-6.53433,32.8834,Q,Q
2023-03-14 22:22:50:241,0,-15.66,-6.47675,32.9886,Q,Q
2023-03-14 22:22:50:251,0,-15.7159,-6.41921,33.085,Q,Q
2023-03-14 22:22:50:261,0,-15.7815,-6.36643,33.1716,Q,Q
2023-03-14 22:22:50:271,0,-15.8674,-6.32291,33.2644,Q,Q
2023-03-14 22:22:50:281,0,-15.9683,-6.28971,33.3616,Q,Q
2023-03-14 22:22:50:291,0,-16.0979,-6.26058,33.4581,Q,Q
2023-03-14 22:22:50:301,0,-16.2537,-6.24297,33.5535,Q,Q
2023-03-14 22:22:50:311,0,-16.4168,-6.23475,33.645,Q,Q
2023-03-14 22:22:50:321,0,-16.5621,-6.22501,33.726,Q,Q
2023-03-14 22:22:50:331,0,-16.6885,-6.21184,33.7804,Q,Q
2023-03-14 22:22:50:341,0,-16.8039,-6.1809,33.8125,Q,Q
2023-03-14 22:22:50:351,0,-16.9217,-6.14289,33.8539,Q,Q
2023-03-14 22:22:50:361,0,-17.056,-6.1221,33.9092,Q,Q
2023-03-14 22:22:50:371,0,-17.2191,-6.11189,33.9636,Q,Q
2023-03-14 22:22:50:381,0,-17.4238,-6.10433,34.045,Q,Q
2023-03-14 22:22:50:391,0,-17.6381,-6.12263,34.144,Q,Q
2023-03-14 22:22:50:401,0,-17.837,-6.16047,34.2422,Q,Q
2023-03-14 22:22:50:411,0,-17.9918,-6.19313,34.3245,Q,Q
2023-03-14 22:22:50:421,0,-18.1018,-6.20774,34.3866,Q,Q
2023-03-14 22:22:50:431,0,-18.1933,-6.20662,34.4436,Q,Q
2023-03-14 22:22:50:441,0,-18.3102,-6.33533,34.4779,Q,Q
2023-03-14 22:22:50:451,0,-18.5548,-6.59613,34.5194,Q,Q
2023-03-14 22:22:50:461,0,-18.8189,-6.51161,34.5871,Q,Q
2023-03-14 22:22:50:470,0,-18.9978,-6.47631,34.653,Q,Q
2023-03-14 22:22:50:481,0,-19.1168,-6.44911,34.6814,Q,Q
2023-03-14 22:22:50:491,0,-19.2507,-6.50691,34.6673,Q,Q
2023-03-14 22:22:50:501,0,-19.4766,-6.63187,34.635,Q,Q
2023-03-14 22:22:50:511,0,-19.7801,-6.68838,34.5765,Q,Q
2023-03-14 22:22:50:521,0,-20.0064,-6.66299,34.5056,Q,Q
2023-03-14 22:22:50:531,0,-20.0889,-6.52552,34.4592,Q,Q
2023-03-14 22:22:50:541,0,-20.1484,-6.55875,34.3748,Q,Q
2023-03-14 22:22:50:551,0,-20.2449,-6.63114,34.2726,Q,Q
2023-03-14 22:22:50:561,0,-20.2503,-6.6079,34.2391,Q,Q
2023-03-14 22:22:50:571,0,-20.0718,-6.57285,34.2949,Q,Q
2023-03-14 22:22:50:581,0,-19.8459,-6.50104,34.3385,Q,Q
2023-03-14 22:22:50:591,0,-19.66,-6.39103,34.321,Q,Q
2023-03-14 22:22:50:601,0,-19.5687,-6.27128,34.2623,Q,Q
2023-03-14 22:22:50:611,0,-19.5176,-6.13481,34.1688,Q,Q
2023-03-14 22:22:50:621,0,-19.4854,-6.00175,34.0349,Q,Q
2023-03-14 22:22:50:631,0,-19.444,-5.88408,33.8539,Q,Q
2023-03-14 22:22:50:641,0,-19.3746,-5.76894,33.6383,Q,Q
2023-03-14 22:22:50:651,0,-19.3022,-5.64767,33.4262,Q,Q
2023-03-14 22:22:50:661,0,-19.238,-5.49601,33.2405,Q,Q
2023-03-14 22:22:50:671,0,-19.181,-5.32332,33.1072,Q,Q
2023-03-14 22:22:50:681,0,-19.1086,-5.06422,32.9929,Q,Q
2023-03-14 22:22:50:691,0,-19.0394,-4.82638,32.9439,Q,Q
2023-03-14 22:22:50:701,0,-18.9603,-4.66961,32.9297,Q,Q
2023-03-14 22:22:50:711,0,-18.875,-4.57723,32.9276,Q,Q
2023-03-14 22:22:50:721,0,-18.7663,-4.50072,32.9177,Q,Q
2023-03-14 22:22:50:731,0,-18.6124,-4.42744,32.8923,Q,Q
2023-03-14 22:22:50:741,0,-18.4213,-4.38134,32.8399,Q,Q
2023-03-14 22:22:50:751,0,-18.23,-4.44277,32.7825,Q,Q
2023-03-14 22:22:50:761,0,-18.0568,-4.56469,32.7363,Q,Q
2023-03-14 22:22:50:771,0,-17.9668,-4.67066,32.7414,Q,Q
2023-03-14 22:22:50:781,0,-17.9839,-4.75974,32.7518,Q,Q
2023-03-14 22:22:50:791,0,-18.0745,-4.77474,32.7405,Q,Q
2023-03-14 22:22:50:801,0,-18.1973,-4.7041,32.6984,Q,Q
2023-03-14 22:22:50:811,0,-18.3074,-4.53518,32.6218,Q,Q
2023-03-14 22:22:50:821,0,-18.3813,-4.27631,32.4942,Q,Q
2023-03-14 22:22:50:831,0,-18.4252,-4.0824,32.3354,Q,Q
2023-03-14 22:22:50:841,0,-18.4789,-3.95366,32.1747,Q,Q
2023-03-14 22:22:50:851,0,-18.5577,-3.73477,32.0429,Q,Q
2023-03-14 22:22:50:861,0,-18.6355,-3.48607,31.9049,Q,Q
2023-03-14 22:22:50:871,0,-18.696,-3.25377,31.7867,Q,Q
2023-03-14 22:22:50:881,0,-18.7608,-3.04885,31.6672,Q,Q
2023-03-14 22:22:50:891,0,-18.8543,-3.00392,31.5845,Q,Q
2023-03-14 22:22:50:901,0,-18.984,-3.00424,31.5516,Q,Q
2023-03-14 22:22:50:911,0,-19.1422,-3.05903,31.5541,Q,Q
2023-03-14 22:22:50:921,0,-19.2911,-3.17337,31.5733,Q,Q
2023-03-14 22:22:50:931,0,-19.4187,-3.288,31.5911,Q,Q
2023-03-14 22:22:50:941,0,-19.5331,-3.38191,31.6111,Q,Q
2023-03-14 22:22:50:951,0,-19.623,-3.46289,31.6225,Q,Q
2023-03-14 22:22:50:961,0,-19.7055,-3.5256,31.6118,Q,Q
2023-03-14 22:22:50:971,0,-19.7879,-3.56095,31.5871,Q,Q
2023-03-14 22:22:50:981,0,-19.8786,-3.57791,31.5509,Q,Q
2023-03-14 22:22:50:991,0,-19.987,-3.57724,31.505,Q,Q
2023-03-14 22:22:51:0,0,-20.1172,-3.55396,31.461,Q,Q
2023-03-14 22:22:51:11,0,-20.2863,-3.51728,31.4195,Q,Q
2023-03-14 22:22:51:21,0,-20.4895,-3.47013,31.3854,Q,Q
2023-03-14 22:22:51:31,0,-20.7068,-3.42602,31.3503,Q,Q
2023-03-14 22:22:51:41,0,-20.9198,-3.39842,31.3,Q,Q
2023-03-14 22:22:51:51,0,-21.0928,-3.39432,31.223,Q,Q
2023-03-14 22:22:51:61,0,-21.2472,-3.38306,31.116,Q,Q
2023-03-14 22:22:51:71,0,-21.3962,-3.36355,30.989,Q,Q
2023-03-14 22:22:51:81,0,-21.5484,-3.35504,30.861,Q,Q
2023-03-14 22:22:51:91,0,-21.701,-3.3407,30.7343,Q,Q
2023-03-14 22:22:51:101,0,-21.8581,-3.32372,30.62,Q,Q
2023-03-14 22:22:51:111,0,-22.0134,-3.29209,30.5189,Q,Q
2023-03-14 22:22:51:121,0,-22.1601,-3.24777,30.4358,Q,Q
2023-03-14 22:22:51:131,0,-22.2931,-3.20667,30.3665,Q,Q
2023-03-14 22:22:51:141,0,-22.393,-3.1186,30.3147,Q,Q
2023-03-14 22:22:51:151,0,-22.4464,-3.00898,30.2808,Q,Q
2023-03-14 22:22:51:161,0,-22.4589,-2.90594,30.2505,Q,Q
2023-03-14 22:22:51:171,0,-22.4368,-2.78645,30.232,Q,Q
2023-03-14 22:22:51:181,0,-22.39,-2.66455,30.2177,Q,Q
2023-03-14 22:22:51:191,0,-22.3168,-2.5602,30.2158,Q,Q
2023-03-14 22:22:51:201,0,-22.2217,-2.45424,30.2239,Q,Q
2023-03-14 22:22:51:211,0,-22.1163,-2.35016,30.2333,Q,Q
2023-03-14 22:22:51:221,0,-22.0039,-2.25219,30.2318,Q,Q
2023-03-14 22:22:51:231,0,-21.8898,-2.16656,30.2293,Q,Q
2023-03-14 22:22:51:241,0,-21.768,-2.09687,30.216,Q,Q
2023-03-14 22:22:51:251,0,-21.6571,-2.04141,30.1953,Q,Q
2023-03-14 22:22:51:261,0,-21.563,-1.991,30.1756,Q,Q
2023-03-14 22:22:51:271,0,-21.4819,-1.94622,30.1675,Q,Q
2023-03-14 22:22:51:281,0,-21.4218,-1.92513,30.1594,Q,Q
2023-03-14 22:22:51:291,0,-21.3748,-1.91554,30.1533,Q,Q
2023-03-14 22:22:51:301,0,-21.3373,-1.89294,30.1321,Q,Q
2023-03-14 22:22:51:311,0,-21.2994,-1.88721,30.0944,Q,Q
2023-03-14 22:22:51:321,0,-21.2662,-1.88428,30.0428,Q,Q
2023-03-14 22:22:51:331,0,-21.247,-1.87289,29.9889,Q,Q
2023-03-14 22:22:51:341,0,-21.2402,-1.86552,29.9304,Q,Q
2023-03-14 22:22:51:351,0,-21.2371,-1.86136,29.8544,Q,Q
2023-03-14 22:22:51:361,0,-21.24,-1.85205,29.7734,Q,Q
2023-03-14 22:22:51:371,0,-21.2482,-1.83986,29.6913,Q,Q
2023-03-14 22:22:51:381,0,-21.262,-1.82762,29.6208,Q,Q
2023-03-14 22:22:51:391,0,-21.2759,-1.82893,29.5578,Q,Q
2023-03-14 22:22:51:401,0,-21.2926,-1.8435,29.5135,Q,Q
2023-03-14 22:22:51:411,0,-21.3028,-1.84794,29.4668,Q,Q
2023-03-14 22:22:51:421,0,-21.307,-1.84578,29.4198,Q,Q
2023-03-14 22:22:51:431,0,-21.3039,-1.84531,29.3772,Q,Q
2023-03-14 22:22:51:441,0,-21.2906,-1.85268,29.336,Q,Q
2023-03-14 22:22:51:451,0,-21.2794,-1.87644,29.2961,Q,Q
2023-03-14 22:22:51:461,0,-21.257,-1.9174,29.2588,Q,Q
2023-03-14 22:22:51:471,0,-21.2234,-1.96319,29.2107,Q,Q
2023-03-14 22:22:51:481,0,-21.1917,-2.01262,29.1547,Q,Q
2023-03-14 22:22:51:491,0,-21.1604,-2.06867,29.0889,Q,Q
2023-03-14 22:22:51:501,0,-21.1307,-2.13094,29.0153,Q,Q
2023-03-14 22:22:51:511,0,-21.0936,-2.18903,28.9342,Q,Q
2023-03-14 22:22:51:521,0,-21.0486,-2.24077,28.8481,Q,Q
2023-03-14 22:22:51:531,0,-20.9873,-2.28819,28.7575,Q,Q
2023-03-14 22:22:51:541,0,-20.9095,-2.32679,28.6603,Q,Q
2023-03-14 22:22:51:551,0,-20.8225,-2.35691,28.5643,Q,Q
2023-03-14 22:22:51:561,0,-20.7359,-2.37958,28.4748,Q,Q
2023-03-14 22:22:51:571,0,-20.651,-2.40651,28.391,Q,Q
2023-03-14 22:22:51:581,0,-20.5638,-2.43851,28.3125,Q,Q
2023-03-14 22:22:51:591,0,-20.4871,-2.46266,28.2453,Q,Q
2023-03-14 22:22:51:601,0,-20.42,-2.47852,28.1814,Q,Q
2023-03-14 22:22:51:611,0,-20.3498,-2.48412,28.1236,Q,Q
2023-03-14 22:22:51:621,0,-20.2683,-2.49049,28.0605,Q,Q
2023-03-14 22:22:51:631,0,-20.1746,-2.49824,27.9937,Q,Q
2023-03-14 22:22:51:641,0,-20.0723,-2.50355,27.9229,Q,Q
2023-03-14 22:22:51:651,0,-19.9649,-2.51546,27.8518,Q,Q
2023-03-14 22:22:51:661,0,-19.8546,-2.53717,27.7821,Q,Q
2023-03-14 22:22:51:671,0,-19.7427,-2.56057,27.7134,Q,Q
2023-03-14 22:22:51:681,0,-19.6354,-2.58849,27.6513,Q,Q
2023-03-14 22:22:51:691,0,-19.5205,-2.6268,27.5889,Q,Q
2023-03-14 22:22:51:701,0,-19.4031,-2.66216,27.5217,Q,Q
2023-03-14 22:22:51:711,0,-19.2844,-2.68549,27.452,Q,Q
2023-03-14 22:22:51:721,0,-19.1624,-2.70044,27.3828,Q,Q
2023-03-14 22:22:51:731,0,-19.0444,-2.71068,27.3148,Q,Q
2023-03-14 22:22:51:741,0,-18.9297,-2.72629,27.2588,Q,Q
2023-03-14 22:22:51:751,0,-18.8231,-2.74523,27.2102,Q,Q
2023-03-14 22:22:51:761,0,-18.7239,-2.76922,27.1728,Q,Q
2023-03-14 22:22:51:771,0,-18.6324,-2.78992,27.1351,Q,Q
2023-03-14 22:22:51:781,0,-18.5531,-2.81783,27.0967,Q,Q
2023-03-14 22:22:51:791,0,-18.4725,-2.84248,27.0576,Q,Q
2023-03-14 22:22:51:801,0,-18.3973,-2.86705,27.0183,Q,Q
2023-03-14 22:22:51:811,0,-18.3532,-2.87715,26.9869,Q,Q
2023-03-14 22:22:51:821,0,-18.3342,-2.87983,26.9645,Q,Q
2023-03-14 22:22:51:831,0,-18.3151,-2.91003,26.9295,Q,Q
2023-03-14 22:22:51:841,0,-18.3102,-2.94809,26.8945,Q,Q
2023-03-14 22:22:51:851,0,-18.3091,-2.99076,26.8513,Q,Q
2023-03-14 22:22:51:861,0,-18.3058,-3.03847,26.7947,Q,Q
2023-03-14 22:22:51:871,0,-18.3026,-3.0869,26.7291,Q,Q
2023-03-14 22:22:51:881,0,-18.2957,-3.1307,26.6601,Q,Q
2023-03-14 22:22:51:891,0,-18.2877,-3.1657,26.5936,Q,Q
2023-03-14 22:22:51:901,0,-18.2758,-3.19047,26.5326,Q,Q
2023-03-14 22:22:51:911,0,-18.2605,-3.21929,26.476,Q,Q
2023-03-14 22:22:51:921,0,-18.2529,-3.27382,26.422,Q,Q
2023-03-14 22:22:51:931,0,-18.2475,-3.34874,26.3756,Q,Q
2023-03-14 22:22:51:941,0,-18.256,-3.42746,26.3323,Q,Q
2023-03-14 22:22:51:951,0,-18.2737,-3.49562,26.3001,Q,Q
2023-03-14 22:22:51:961,0,-18.2965,-3.56486,26.2753,Q,Q
2023-03-14 22:22:51:971,0,-18.3163,-3.63084,26.2517,Q,Q
2023-03-14 22:22:51:981,0,-18.3249,-3.69335,26.214,Q,Q
2023-03-14 22:22:51:991,0,-18.3303,-3.74591,26.1766,Q,Q
2023-03-14 22:22:52:1,0,-18.3384,-3.79162,26.1444,Q,Q
2023-03-14 22:22:52:11,0,-18.3512,-3.84571,26.1135,Q,Q
2023-03-14 22:22:52:21,0,-18.3686,-3.90819,26.0827,Q,Q
2023-03-14 22:22:52:31,0,-18.3876,-3.98518,26.0534,Q,Q
2023-03-14 22:22:52:41,0,-18.407,-4.07164,26.0254,Q,Q
2023-03-14 22:22:52:51,0,-18.4289,-4.16764,25.9957,Q,Q
2023-03-14 22:22:52:61,0,-18.4314,-4.26429,25.9682,Q,Q
2023-03-14 22:22:52:71,0,-18.3924,-4.35651,25.965,Q,Q
2023-03-14 22:22:52:81,0,-18.3486,-4.43482,25.9528,Q,Q
2023-03-14 22:22:52:91,0,-18.2856,-4.49136,25.9119,Q,Q
2023-03-14 22:22:52:101,0,-18.2082,-4.52226,25.8582,Q,Q
2023-03-14 22:22:52:111,0,-18.1303,-4.54151,25.8192,Q,Q
2023-03-14 22:22:52:121,0,-18.0551,-4.55553,25.7957,Q,Q
2023-03-14 22:22:52:131,0,-17.9836,-4.57982,25.7792,Q,Q
2023-03-14 22:22:52:141,0,-17.9131,-4.60159,25.7634,Q,Q
2023-03-14 22:22:52:151,0,-17.8423,-4.61342,25.753,Q,Q
2023-03-14 22:22:52:161,0,-17.7733,-4.62044,25.7462,Q,Q
2023-03-14 22:22:52:171,0,-17.7119,-4.63061,25.7419,Q,Q
2023-03-14 22:22:52:181,0,-17.6589,-4.63676,25.7376,Q,Q
2023-03-14 22:22:52:191,0,-17.6085,-4.64221,25.7341,Q,Q
2023-03-14 22:22:52:201,0,-17.5615,-4.64498,25.7168,Q,Q
2023-03-14 22:22:52:211,0,-17.5146,-4.65015,25.6945,Q,Q
2023-03-14 22:22:52:221,0,-17.465,-4.65359,25.6655,Q,Q
2023-03-14 22:22:52:231,0,-17.4201,-4.65646,25.63,Q,Q
2023-03-14 22:22:52:241,0,-17.3774,-4.65687,25.5951,Q,Q
2023-03-14 22:22:52:251,0,-17.3344,-4.65657,25.5559,Q,Q
2023-03-14 22:22:52:261,0,-17.2854,-4.65653,25.5112,Q,Q
2023-03-14 22:22:52:271,0,-17.2376,-4.65643,25.4619,Q,Q
2023-03-14 22:22:52:281,0,-17.1888,-4.65659,25.4103,Q,Q
2023-03-14 22:22:52:291,0,-17.137,-4.65669,25.3552,Q,Q
2023-03-14 22:22:52:301,0,-17.0861,-4.65476,25.2976,Q,Q
2023-03-14 22:22:52:311,0,-17.0379,-4.65547,25.2331,Q,Q
2023-03-14 22:22:52:321,0,-16.9868,-4.66045,25.1661,Q,Q
2023-03-14 22:22:52:331,0,-16.9388,-4.67017,25.0977,Q,Q
2023-03-14 22:22:52:341,0,-16.8993,-4.67876,25.0208,Q,Q
2023-03-14 22:22:52:351,0,-16.8646,-4.67922,24.9353,Q,Q
2023-03-14 22:22:52:361,0,-16.8315,-4.68244,24.8442,Q,Q
2023-03-14 22:22:52:371,0,-16.7919,-4.69496,24.7565,Q,Q
2023-03-14 22:22:52:381,0,-16.7503,-4.72214,24.6739,Q,Q
2023-03-14 22:22:52:391,0,-16.7021,-4.76335,24.5997,Q,Q
2023-03-14 22:22:52:401,0,-16.6535,-4.80528,24.5258,Q,Q
2023-03-14 22:22:52:411,0,-16.6071,-4.84253,24.4511,Q,Q
2023-03-14 22:22:52:421,0,-16.5637,-4.86621,24.3765,Q,Q
2023-03-14 22:22:52:431,0,-16.5249,-4.88446,24.3018,Q,Q
2023-03-14 22:22:52:441,0,-16.5026,-4.89214,24.2255,Q,Q
2023-03-14 22:22:52:451,0,-16.4988,-4.88638,24.1405,Q,Q
2023-03-14 22:22:52:461,0,-16.5123,-4.87501,24.0431,Q,Q
2023-03-14 22:22:52:471,0,-16.5179,-4.86352,23.937,Q,Q
2023-03-14 22:22:52:481,0,-16.5071,-4.86457,23.832,Q,Q
2023-03-14 22:22:52:491,0,-16.4775,-4.88102,23.7271,Q,Q
2023-03-14 22:22:52:501,0,-16.4291,-4.90917,23.6308,Q,Q
2023-03-14 22:22:52:511,0,-16.372,-4.93798,23.5432,Q,Q
2023-03-14 22:22:52:521,0,-16.3128,-4.96479,23.4606,Q,Q
2023-03-14 22:22:52:531,0,-16.2643,-4.98412,23.3836,Q,Q
2023-03-14 22:22:52:541,0,-16.2356,-4.99759,23.3114,Q,Q
2023-03-14 22:22:52:551,0,-16.2313,-5.00744,23.2495,Q,Q
2023-03-14 22:22:52:561,0,-16.2361,-5.01799,23.1919,Q,Q
2023-03-14 22:22:52:571,0,-16.2326,-5.03137,23.1436,Q,Q
2023-03-14 22:22:52:581,0,-16.2088,-5.05012,23.1097,Q,Q
2023-03-14 22:22:52:590,0,-16.1708,-5.06618,23.0907,Q,Q
2023-03-14 22:22:52:601,0,-16.1352,-5.07858,23.0809,Q,Q
2023-03-14 22:22:52:611,0,-16.1054,-5.084,23.0819,Q,Q
2023-03-14 22:22:52:621,0,-16.0862,-5.08286,23.0864,Q,Q
2023-03-14 22:22:52:631,0,-16.0742,-5.06929,23.0929,Q,Q
2023-03-14 22:22:52:641,0,-16.0661,-5.04577,23.0994,Q,Q
2023-03-14 22:22:52:651,0,-16.0587,-5.01247,23.1055,Q,Q
2023-03-14 22:22:52:661,0,-16.046,-4.97642,23.1129,Q,Q
2023-03-14 22:22:52:671,0,-16.0211,-4.93997,23.1256,Q,Q
2023-03-14 22:22:52:681,0,-15.9871,-4.91069,23.1408,Q,Q
2023-03-14 22:22:52:691,0,-15.9491,-4.89418,23.1611,Q,Q
2023-03-14 22:22:52:701,0,-15.9174,-4.88824,23.1846,Q,Q
2023-03-14 22:22:52:711,0,-15.8879,-4.88998,23.2059,Q,Q
2023-03-14 22:22:52:721,0,-15.867,-4.89113,23.2124,Q,Q
2023-03-14 22:22:52:731,0,-15.8486,-4.88763,23.2039,Q,Q
2023-03-14 22:22:52:741,0,-15.8378,-4.884,23.1804,Q,Q
2023-03-14 22:22:52:751,0,-15.8299,-4.87962,23.147,Q,Q
2023-03-14 22:22:52:761,0,-15.8173,-4.8771,23.1046,Q,Q
2023-03-14 22:22:52:771,0,-15.7972,-4.88367,23.0593,Q,Q
2023-03-14 22:22:52:781,0,-15.7765,-4.89663,23.0219,Q,Q
2023-03-14 22:22:52:791,0,-15.7518,-4.91758,22.9836,Q,Q
2023-03-14 22:22:52:801,0,-15.7298,-4.94294,22.9458,Q,Q
2023-03-14 22:22:52:811,0,-15.7092,-4.96364,22.9106,Q,Q
2023-03-14 22:22:52:821,0,-15.6902,-4.98178,22.8709,Q,Q
2023-03-14 22:22:52:831,0,-15.669,-4.99428,22.8282,Q,Q
2023-03-14 22:22:52:841,0,-15.6456,-5.00472,22.7894,Q,Q
2023-03-14 22:22:52:851,0,-15.6173,-5.01511,22.753,Q,Q
2023-03-14 22:22:52:861,0,-15.5855,-5.02516,22.7203,Q,Q
2023-03-14 22:22:52:871,0,-15.553,-5.03154,22.6936,Q,Q
2023-03-14 22:22:52:881,0,-15.5226,-5.04454,22.6691,Q,Q
2023-03-14 22:22:52:891,0,-15.4964,-5.06392,22.6481,Q,Q
2023-03-14 22:22:52:901,0,-15.4755,-5.08477,22.6275,Q,Q
2023-03-14 22:22:52:911,0,-15.4511,-5.09988,22.6082,Q,Q
2023-03-14 22:22:52:921,0,-15.4147,-5.11126,22.5869,Q,Q
2023-03-14 22:22:52:931,0,-15.3669,-5.13071,22.5596,Q,Q
2023-03-14 22:22:52:941,0,-15.3259,-5.15174,22.5316,Q,Q
2023-03-14 22:22:52:951,0,-15.2875,-5.17198,22.5081,Q,Q
2023-03-14 22:22:52:961,0,-15.2572,-5.19302,22.485,Q,Q
2023-03-14 22:22:52:971,0,-15.2333,-5.21915,22.4633,Q,Q
2023-03-14 22:22:52:981,0,-15.2239,-5.24732,22.4401,Q,Q
2023-03-14 22:22:52:991,0,-15.2222,-5.27814,22.4212,Q,Q
2023-03-14 22:22:53:1,0,-15.2223,-5.31325,22.401,Q,Q
2023-03-14 22:22:53:11,0,-15.2244,-5.34893,22.3796,Q,Q
2023-03-14 22:22:53:21,0,-15.2226,-5.38283,22.3586,Q,Q
2023-03-14 22:22:53:31,0,-15.2199,-5.41346,22.3355,Q,Q
2023-03-14 22:22:53:41,0,-15.2121,-5.448,22.3142,Q,Q
2023-03-14 22:22:53:51,0,-15.203,-5.48235,22.2886,Q,Q
2023-03-14 22:22:53:61,0,-15.1964,-5.5191,22.2742,Q,Q
2023-03-14 22:22:53:71,0,-15.1962,-5.55603,22.2599,Q,Q
2023-03-14 22:22:53:81,0,-15.2037,-5.59776,22.2495,Q,Q
2023-03-14 22:22:53:91,0,-15.2091,-5.64446,22.2361,Q,Q
2023-03-14 22:22:53:101,0,-15.2145,-5.68366,22.2199,Q,Q
2023-03-14 22:22:53:111,0,-15.2146,-5.72708,22.1919,Q,Q
2023-03-14 22:22:53:121,0,-15.206,-5.77075,22.1546,Q,Q
2023-03-14 22:22:53:131,0,-15.1937,-5.81555,22.1114,Q,Q
2023-03-14 22:22:53:141,0,-15.1686,-5.85673,22.0642,Q,Q
2023-03-14 22:22:53:151,0,-15.1408,-5.89244,22.0078,Q,Q
2023-03-14 22:22:53:161,0,-15.1065,-5.93022,21.9468,Q,Q
2023-03-14 22:22:53:171,0,-15.0792,-5.9647,21.888,Q,Q
2023-03-14 22:22:53:181,0,-15.0585,-5.99514,21.8233,Q,Q
2023-03-14 22:22:53:191,0,-15.0462,-6.01763,21.7511,Q,Q
2023-03-14 22:22:53:201,0,-15.0399,-6.03908,21.6761,Q,Q
2023-03-14 22:22:53:211,0,-15.0286,-6.05037,21.5897,Q,Q
2023-03-14 22:22:53:221,0,-15.0129,-6.06282,21.5011,Q,Q
2023-03-14 22:22:53:231,0,-14.9938,-6.07424,21.4139,Q,Q
2023-03-14 22:22:53:241,0,-14.9728,-6.08677,21.3226,Q,Q
2023-03-14 22:22:53:251,0,-14.9532,-6.09292,21.2336,Q,Q
2023-03-14 22:22:53:261,0,-14.9361,-6.09656,21.1441,Q,Q
2023-03-14 22:22:53:271,0,-14.926,-6.09818,21.0508,Q,Q
2023-03-14 22:22:53:281,0,-14.9212,-6.09829,20.9568,Q,Q
2023-03-14 22:22:53:291,0,-14.9155,-6.09897,20.864,Q,Q
2023-03-14 22:22:53:301,0,-14.9083,-6.0992,20.7655,Q,Q
2023-03-14 22:22:53:311,0,-14.9037,-6.10333,20.676,Q,Q
2023-03-14 22:22:53:321,0,-14.9028,-6.11232,20.5913,Q,Q
2023-03-14 22:22:53:331,0,-14.8954,-6.12739,20.5112,Q,Q
2023-03-14 22:22:53:341,0,-14.8829,-6.1453,20.4382,Q,Q
2023-03-14 22:22:53:351,0,-14.8565,-6.16414,20.3734,Q,Q
2023-03-14 22:22:53:361,0,-14.8219,-6.18608,20.3207,Q,Q
2023-03-14 22:22:53:371,0,-14.7872,-6.20755,20.2777,Q,Q
2023-03-14 22:22:53:381,0,-14.7515,-6.22933,20.2446,Q,Q
2023-03-14 22:22:53:391,0,-14.7159,-6.24763,20.2195,Q,Q
2023-03-14 22:22:53:401,0,-14.6764,-6.26896,20.1985,Q,Q
2023-03-14 22:22:53:411,0,-14.6406,-6.29078,20.1832,Q,Q
2023-03-14 22:22:53:421,0,-14.6056,-6.3067,20.1725,Q,Q
2023-03-14 22:22:53:431,0,-14.5811,-6.31576,20.1633,Q,Q
2023-03-14 22:22:53:440,0,-14.559,-6.32232,20.1503,Q,Q
2023-03-14 22:22:53:450,0,-14.5401,-6.32415,20.1368,Q,Q
2023-03-14 22:22:53:460,0,-14.5256,-6.32468,20.1202,Q,Q
2023-03-14 22:22:53:471,0,-14.517,-6.32222,20.1011,Q,Q
2023-03-14 22:22:53:481,0,-14.5109,-6.32076,20.0783,Q,Q
2023-03-14 22:22:53:491,0,-14.5034,-6.3207,20.0495,Q,Q
2023-03-14 22:22:53:501,0,-14.4978,-6.31949,20.0143,Q,Q
2023-03-14 22:22:53:511,0,-14.4931,-6.32504,19.9708,Q,Q
2023-03-14 22:22:53:521,0,-14.4885,-6.33699,19.9296,Q,Q
2023-03-14 22:22:53:531,0,-14.4847,-6.35184,19.8936,Q,Q
2023-03-14 22:22:53:541,0,-14.4735,-6.36933,19.8609,Q,Q
2023-03-14 22:22:53:551,0,-14.4627,-6.38455,19.8351,Q,Q
2023-03-14 22:22:53:561,0,-14.4504,-6.39386,19.8186,Q,Q
2023-03-14 22:22:53:571,0,-14.4398,-6.40384,19.8057,Q,Q
2023-03-14 22:22:53:581,0,-14.4249,-6.40649,19.7974,Q,Q
2023-03-14 22:22:53:591,0,-14.4052,-6.40591,19.7893,Q,Q
2023-03-14 22:22:53:601,0,-14.3761,-6.40532,19.7864,Q,Q
2023-03-14 22:22:53:611,0,-14.3413,-6.40638,19.7841,Q,Q
2023-03-14 22:22:53:621,0,-14.3062,-6.40895,19.7874,Q,Q
2023-03-14 22:22:53:631,0,-14.2737,-6.4092,19.7912,Q,Q
2023-03-14 22:22:53:641,0,-14.25,-6.41023,19.7973,Q,Q
2023-03-14 22:22:53:651,0,-14.2294,-6.41126,19.8012,Q,Q
2023-03-14 22:22:53:661,0,-14.2153,-6.41,19.8083,Q,Q
2023-03-14 22:22:53:671,0,-14.2078,-6.41241,19.8176,Q,Q
2023-03-14 22:22:53:681,0,-14.2008,-6.41473,19.8277,Q,Q
2023-03-14 22:22:53:691,0,-14.1899,-6.41676,19.84,Q,Q
2023-03-14 22:22:53:701,0,-14.1737,-6.42078,19.8521,Q,Q
2023-03-14 22:22:53:711,0,-14.1548,-6.4239,19.8671,Q,Q
2023-03-14 22:22:53:721,0,-14.1405,-6.42797,19.8823,Q,Q
2023-03-14 22:22:53:731,0,-14.1367,-6.42832,19.9025,Q,Q
2023-03-14 22:22:53:740,0,-14.1335,-6.43005,19.9223,Q,Q
2023-03-14 22:22:53:751,0,-14.1299,-6.43481,19.9417,Q,Q
2023-03-14 22:22:53:760,0,-14.1266,-6.44091,19.9546,Q,Q
2023-03-14 22:22:53:771,0,-14.1208,-6.44767,19.9623,Q,Q
2023-03-14 22:22:53:781,0,-14.1109,-6.45545,19.9637,Q,Q
2023-03-14 22:22:53:791,0,-14.1015,-6.45977,19.9624,Q,Q
2023-03-14 22:22:53:801,0,-14.0896,-6.46133,19.9559,Q,Q
2023-03-14 22:22:53:811,0,-14.0793,-6.46011,19.9511,Q,Q
2023-03-14 22:22:53:821,0,-14.0745,-6.46181,19.9427,Q,Q
2023-03-14 22:22:53:831,0,-14.0719,-6.46486,19.937,Q,Q
2023-03-14 22:22:53:841,0,-14.0697,-6.46397,19.9232,Q,Q
2023-03-14 22:22:53:851,0,-14.0677,-6.46012,19.9046,Q,Q
2023-03-14 22:22:53:861,0,-14.0584,-6.45759,19.8874,Q,Q
2023-03-14 22:22:53:871,0,-14.0473,-6.45397,19.87,Q,Q
2023-03-14 22:22:53:881,0,-14.0355,-6.45093,19.8497,Q,Q
2023-03-14 22:22:53:891,0,-14.0223,-6.4469,19.8281,Q,Q
2023-03-14 22:22:53:901,0,-14.0099,-6.44329,19.8071,Q,Q
2023-03-14 22:22:53:911,0,-13.997,-6.4442,19.7815,Q,Q
2023-03-14 22:22:53:921,0,-13.9852,-6.44499,19.7545,Q,Q
2023-03-14 22:22:53:931,0,-13.9673,-6.44141,19.727,Q,Q
2023-03-14 22:22:53:941,0,-13.9478,-6.43718,19.696,Q,Q
2023-03-14 22:22:53:951,0,-13.9283,-6.43136,19.6665,Q,Q
2023-03-14 22:22:53:961,0,-13.9082,-6.4284,19.6381,Q,Q
2023-03-14 22:22:53:971,0,-13.8858,-6.42638,19.6072,Q,Q
2023-03-14 22:22:53:981,0,-13.8644,-6.42139,19.5751,Q,Q
2023-03-14 22:22:53:991,0,-13.845,-6.41934,19.5432,Q,Q
2023-03-14 22:22:54:1,0,-13.8241,-6.41962,19.5105,Q,Q
2023-03-14 22:22:54:11,0,-13.8002,-6.42017,19.479,Q,Q
2023-03-14 22:22:54:21,0,-13.7766,-6.41821,19.4466,Q,Q
2023-03-14 22:22:54:31,0,-13.7498,-6.42189,19.4203,Q,Q
2023-03-14 22:22:54:41,0,-13.7237,-6.42238,19.3865,Q,Q
2023-03-14 22:22:54:51,0,-13.7005,-6.42483,19.3581,Q,Q
2023-03-14 22:22:54:61,0,-13.6842,-6.42737,19.3251,Q,Q
2023-03-14 22:22:54:71,0,-13.6693,-6.42909,19.2939,Q,Q
2023-03-14 22:22:54:81,0,-13.6535,-6.43736,19.2578,Q,Q
2023-03-14 22:22:54:91,0,-13.6352,-6.44952,19.2252,Q,Q
2023-03-14 22:22:54:101,0,-13.6146,-6.46209,19.1922,Q,Q
2023-03-14 22:22:54:111,0,-13.5945,-6.48063,19.1595,Q,Q
2023-03-14 22:22:54:121,0,-13.5692,-6.50768,19.1321,Q,Q
2023-03-14 22:22:54:131,0,-13.5339,-6.5368,19.1003,Q,Q
2023-03-14 22:22:54:141,0,-13.4975,-6.55968,19.074,Q,Q
2023-03-14 22:22:54:151,0,-13.4695,-6.57976,19.042,Q,Q
2023-03-14 22:22:54:161,0,-13.4443,-6.59426,19.0071,Q,Q
2023-03-14 22:22:54:171,0,-13.4259,-6.60873,18.9708,Q,Q
2023-03-14 22:22:54:181,0,-13.4064,-6.6248,18.9329,Q,Q
2023-03-14 22:22:54:191,0,-13.3906,-6.64136,18.8965,Q,Q
2023-03-14 22:22:54:201,0,-13.3802,-6.65409,18.8594,Q,Q
2023-03-14 22:22:54:211,0,-13.3748,-6.66974,18.8243,Q,Q
2023-03-14 22:22:54:221,0,-13.3716,-6.68378,18.7897,Q,Q
2023-03-14 22:22:54:231,0,-13.3666,-6.69582,18.747,Q,Q
2023-03-14 22:22:54:241,0,-13.3588,-6.70405,18.7032,Q,Q
2023-03-14 22:22:54:251,0,-13.3502,-6.70671,18.6539,Q,Q
2023-03-14 22:22:54:261,0,-13.3489,-6.71138,18.6066,Q,Q
2023-03-14 22:22:54:271,0,-13.3522,-6.72099,18.559,Q,Q
2023-03-14 22:22:54:281,0,-13.3525,-6.73115,18.5088,Q,Q
2023-03-14 22:22:54:291,0,-13.3535,-6.74591,18.4626,Q,Q
2023-03-14 22:22:54:301,0,-13.3565,-6.75842,18.4177,Q,Q
2023-03-14 22:22:54:311,0,-13.3596,-6.76673,18.372,Q,Q
2023-03-14 22:22:54:321,0,-13.3613,-6.77187,18.322,Q,Q
2023-03-14 22:22:54:331,0,-13.3551,-6.77973,18.2728,Q,Q
2023-03-14 22:22:54:341,0,-13.3409,-6.78549,18.2288,Q,Q
2023-03-14 22:22:54:351,0,-13.3309,-6.79432,18.1896,Q,Q
2023-03-14 22:22:54:361,0,-13.3177,-6.806,18.1546,Q,Q
2023-03-14 22:22:54:371,0,-13.3028,-6.81686,18.1187,Q,Q
2023-03-14 22:22:54:381,0,-13.2849,-6.82641,18.081,Q,Q
2023-03-14 22:22:54:391,0,-13.2655,-6.83058,18.0457,Q,Q
2023-03-14 22:22:54:401,0,-13.2477,-6.83264,18.012,Q,Q
2023-03-14 22:22:54:411,0,-13.2303,-6.8353,17.981,Q,Q
2023-03-14 22:22:54:421,0,-13.2143,-6.83653,17.9492,Q,Q
2023-03-14 22:22:54:431,0,-13.208,-6.83906,17.9234,Q,Q
2023-03-14 22:22:54:441,0,-13.2084,-6.84035,17.895,Q,Q
2023-03-14 22:22:54:451,0,-13.211,-6.84162,17.8711,Q,Q
2023-03-14 22:22:54:461,0,-13.2105,-6.842,17.8491,Q,Q
2023-03-14 22:22:54:471,0,-13.2051,-6.84297,17.8236,Q,Q
2023-03-14 22:22:54:481,0,-13.1991,-6.84326,17.8067,Q,Q
2023-03-14 22:22:54:491,0,-13.1933,-6.84306,17.7934,Q,Q
2023-03-14 22:22:54:501,0,-13.1925,-6.84231,17.7835,Q,Q
2023-03-14 22:22:54:511,0,-13.195,-6.83802,17.7768,Q,Q
2023-03-14 22:22:54:521,0,-13.2029,-6.83362,17.7738,Q,Q
2023-03-14 22:22:54:531,0,-13.2143,-6.83207,17.7746,Q,Q
2023-03-14 22:22:54:541,0,-13.2233,-6.83251,17.779,Q,Q
2023-03-14 22:22:54:551,0,-13.2329,-6.8321,17.7848,Q,Q
2023-03-14 22:22:54:561,0,-13.2446,-6.83164,17.7928,Q,Q
2023-03-14 22:22:54:571,0,-13.2553,-6.82579,17.8013,Q,Q
2023-03-14 22:22:54:581,0,-13.2659,-6.82064,17.8116,Q,Q
2023-03-14 22:22:54:591,0,-13.277,-6.81763,17.8218,Q,Q
2023-03-14 22:22:54:602,0,-13.2885,-6.81768,17.8299,Q,Q
2023-03-14 22:22:54:611,0,-13.297,-6.81565,17.8375,Q,Q
2023-03-14 22:22:54:621,0,-13.3057,-6.81472,17.8455,Q,Q
2023-03-14 22:22:54:631,0,-13.3106,-6.81475,17.8521,Q,Q
2023-03-14 22:22:54:641,0,-13.3176,-6.82041,17.8575,Q,Q
2023-03-14 22:22:54:651,0,-13.3202,-6.82611,17.8629,Q,Q
2023-03-14 22:22:54:661,0,-13.3234,-6.83417,17.865,Q,Q
2023-03-14 22:22:54:671,0,-13.3269,-6.84334,17.8671,Q,Q
2023-03-14 22:22:54:681,0,-13.3298,-6.85545,17.8696,Q,Q
2023-03-14 22:22:54:691,0,-13.3315,-6.86474,17.8731,Q,Q
2023-03-14 22:22:54:701,0,-13.3281,-6.87387,17.8709,Q,Q
2023-03-14 22:22:54:711,0,-13.3249,-6.8821,17.8756,Q,Q
2023-03-14 22:22:54:721,0,-13.3228,-6.88368,17.8797,Q,Q
2023-03-14 22:22:54:731,0,-13.3211,-6.88573,17.8814,Q,Q
2023-03-14 22:22:54:741,0,-13.3207,-6.8842,17.885,Q,Q
2023-03-14 22:22:54:751,0,-13.3212,-6.88583,17.8872,Q,Q
2023-03-14 22:22:54:761,0,-13.3225,-6.88151,17.8883,Q,Q
2023-03-14 22:22:54:771,0,-13.3226,-6.88023,17.8919,Q,Q
2023-03-14 22:22:54:781,0,-13.3237,-6.87995,17.8942,Q,Q
2023-03-14 22:22:54:791,0,-13.3249,-6.88156,17.8985,Q,Q
2023-03-14 22:22:54:801,0,-13.3288,-6.88292,17.9002,Q,Q
2023-03-14 22:22:54:811,0,-13.3284,-6.88328,17.9011,Q,Q
2023-03-14 22:22:54:821,0,-13.3272,-6.88779,17.9072,Q,Q
2023-03-14 22:22:54:830,0,-13.3276,-6.8972,17.9153,Q,Q
2023-03-14 22:22:54:841,0,-13.3287,-6.90775,17.9272,Q,Q
2023-03-14 22:22:54:851,0,-13.3393,-6.92279,17.9371,Q,Q
2023-03-14 22:22:54:861,0,-13.3489,-6.93118,17.9507,Q,Q
2023-03-14 22:22:54:871,0,-13.3587,-6.93921,17.9678,Q,Q
2023-03-14 22:22:54:881,0,-13.3664,-6.9459,17.9889,Q,Q
2023-03-14 22:22:54:891,0,-13.3699,-6.95227,18.012,Q,Q
2023-03-14 22:22:54:901,0,-13.368,-6.95461,18.0371,Q,Q
2023-03-14 22:22:54:911,0,-13.3675,-6.95995,18.0652,Q,Q
2023-03-14 22:22:54:921,0,-13.3692,-6.9658,18.0942,Q,Q
2023-03-14 22:22:54:931,0,-13.3727,-6.97137,18.1225,Q,Q
2023-03-14 22:22:54:941,0,-13.3769,-6.97402,18.1469,Q,Q
2023-03-14 22:22:54:951,0,-13.3826,-6.97956,18.1725,Q,Q
2023-03-14 22:22:54:961,0,-13.3897,-6.9885,18.1983,Q,Q
2023-03-14 22:22:54:971,0,-13.3986,-6.99242,18.22,Q,Q
2023-03-14 22:22:54:981,0,-13.4025,-6.99683,18.2406,Q,Q
2023-03-14 22:22:54:991,0,-13.4091,-7.00337,18.2608,Q,Q
2023-03-14 22:22:55:1,0,-13.4104,-7.00541,18.2802,Q,Q
2023-03-14 22:22:55:11,0,-13.4129,-7.01317,18.2972,Q,Q
2023-03-14 22:22:55:21,0,-13.4169,-7.01858,18.3147,Q,Q
2023-03-14 22:22:55:31,0,-13.4223,-7.02091,18.327,Q,Q
2023-03-14 22:22:55:41,0,-13.4255,-7.02259,18.3371,Q,Q
2023-03-14 22:22:55:51,0,-13.4252,-7.02404,18.3486,Q,Q
2023-03-14 22:22:55:61,0,-13.4231,-7.02557,18.3585,Q,Q
2023-03-14 22:22:55:71,0,-13.4232,-7.02924,18.3755,Q,Q
2023-03-14 22:22:55:81,0,-13.4228,-7.03341,18.3928,Q,Q
2023-03-14 22:22:55:91,0,-13.4224,-7.03757,18.4099,Q,Q
2023-03-14 22:22:55:101,0,-13.4261,-7.03872,18.4286,Q,Q
2023-03-14 22:22:55:111,0,-13.4286,-7.03755,18.4465,Q,Q
2023-03-14 22:22:55:121,0,-13.4286,-7.03217,18.4679,Q,Q
2023-03-14 22:22:55:131,0,-13.4277,-7.02668,18.4891,Q,Q
2023-03-14 22:22:55:141,0,-13.4256,-7.0176,18.511,Q,Q
2023-03-14 22:22:55:151,0,-13.4217,-7.01369,18.5343,Q,Q
2023-03-14 22:22:55:161,0,-13.4201,-7.00849,18.556,Q,Q
2023-03-14 22:22:55:171,0,-13.4213,-7.00397,18.5771,Q,Q
2023-03-14 22:22:55:181,0,-13.424,-7.00258,18.6002,Q,Q
2023-03-14 22:22:55:191,0,-13.4227,-7.00358,18.6217,Q,Q
2023-03-14 22:22:55:201,0,-13.4258,-7.00918,18.6382,Q,Q
2023-03-14 22:22:55:211,0,-13.4322,-7.01514,18.6544,Q,Q
2023-03-14 22:22:55:221,0,-13.4318,-7.02458,18.6655,Q,Q
2023-03-14 22:22:55:231,0,-13.432,-7.03608,18.6731,Q,Q
2023-03-14 22:22:55:241,0,-13.435,-7.04796,18.6779,Q,Q
2023-03-14 22:22:55:251,0,-13.4373,-7.06095,18.6793,Q,Q
2023-03-14 22:22:55:261,0,-13.4431,-7.07127,18.6824,Q,Q
2023-03-14 22:22:55:271,0,-13.4462,-7.08342,18.6849,Q,Q
2023-03-14 22:22:55:281,0,-13.4512,-7.0979,18.6856,Q,Q
2023-03-14 22:22:55:291,0,-13.4597,-7.10906,18.6893,Q,Q
2023-03-14 22:22:55:301,0,-13.4655,-7.11614,18.693,Q,Q
2023-03-14 22:22:55:311,0,-13.4662,-7.12098,18.7018,Q,Q
2023-03-14 22:22:55:321,0,-13.4671,-7.12389,18.7129,Q,Q
2023-03-14 22:22:55:331,0,-13.4671,-7.12212,18.7279,Q,Q
2023-03-14 22:22:55:341,0,-13.4694,-7.11747,18.7427,Q,Q
2023-03-14 22:22:55:351,0,-13.471,-7.11363,18.76,Q,Q
2023-03-14 22:22:55:361,0,-13.4691,-7.10944,18.7794,Q,Q
2023-03-14 22:22:55:371,0,-13.4713,-7.10892,18.7983,Q,Q
2023-03-14 22:22:55:381,0,-13.4738,-7.10652,18.813,Q,Q
2023-03-14 22:22:55:391,0,-13.4807,-7.10896,18.8281,Q,Q
2023-03-14 22:22:55:401,0,-13.4867,-7.11252,18.8398,Q,Q
2023-03-14 22:22:55:411,0,-13.4938,-7.11421,18.8489,Q,Q
2023-03-14 22:22:55:421,0,-13.5001,-7.11792,18.8594,Q,Q
2023-03-14 22:22:55:431,0,-13.5083,-7.12862,18.8686,Q,Q
2023-03-14 22:22:55:441,0,-13.5092,-7.13469,18.8741,Q,Q
2023-03-14 22:22:55:451,0,-13.5062,-7.14081,18.8803,Q,Q
2023-03-14 22:22:55:461,0,-13.5003,-7.14721,18.8863,Q,Q
2023-03-14 22:22:55:471,0,-13.485,-7.14997,18.8885,Q,Q
2023-03-14 22:22:55:481,0,-13.4718,-7.15455,18.8934,Q,Q
2023-03-14 22:22:55:491,0,-13.458,-7.15523,18.8998,Q,Q
2023-03-14 22:22:55:501,0,-13.4453,-7.15398,18.9056,Q,Q
2023-03-14 22:22:55:511,0,-13.4365,-7.15509,18.9095,Q,Q
2023-03-14 22:22:55:521,0,-13.4279,-7.15344,18.9192,Q,Q
2023-03-14 22:22:55:531,0,-13.4189,-7.15704,18.9281,Q,Q
2023-03-14 22:22:55:541,0,-13.4124,-7.16255,18.9439,Q,Q
2023-03-14 22:22:55:551,0,-13.4105,-7.16709,18.9649,Q,Q
2023-03-14 22:22:55:561,0,-13.419,-7.17595,18.9903,Q,Q
2023-03-14 22:22:55:571,0,-13.4291,-7.18384,19.0146,Q,Q
2023-03-14 22:22:55:581,0,-13.4391,-7.18945,19.043,Q,Q
2023-03-14 22:22:55:591,0,-13.4463,-7.18882,19.0672,Q,Q
2023-03-14 22:22:55:601,0,-13.448,-7.19076,19.0907,Q,Q
2023-03-14 22:22:55:611,0,-13.4487,-7.1861,19.1133,Q,Q
2023-03-14 22:22:55:621,0,-13.4529,-7.18646,19.1357,Q,Q
2023-03-14 22:22:55:631,0,-13.4568,-7.1842,19.1547,Q,Q
2023-03-14 22:22:55:641,0,-13.4658,-7.18329,19.1701,Q,Q
2023-03-14 22:22:55:651,0,-13.4755,-7.18257,19.1796,Q,Q
2023-03-14 22:22:55:661,0,-13.4842,-7.18323,19.193,Q,Q
2023-03-14 22:22:55:671,0,-13.4923,-7.18166,19.2037,Q,Q
2023-03-14 22:22:55:681,0,-13.4973,-7.18176,19.2163,Q,Q
2023-03-14 22:22:55:691,0,-13.5091,-7.17926,19.2257,Q,Q
2023-03-14 22:22:55:701,0,-13.5211,-7.17757,19.2315,Q,Q
2023-03-14 22:22:55:711,0,-13.5308,-7.17332,19.2367,Q,Q
2023-03-14 22:22:55:721,0,-13.5412,-7.17245,19.2446,Q,Q
2023-03-14 22:22:55:731,0,-13.5542,-7.17531,19.2558,Q,Q
2023-03-14 22:22:55:741,0,-13.5661,-7.17532,19.2634,Q,Q
2023-03-14 22:22:55:751,0,-13.5806,-7.17323,19.2644,Q,Q
2023-03-14 22:22:55:761,0,-13.5909,-7.166,19.2649,Q,Q
2023-03-14 22:22:55:771,0,-13.5968,-7.16418,19.2701,Q,Q
2023-03-14 22:22:55:781,0,-13.6016,-7.16391,19.2747,Q,Q
2023-03-14 22:22:55:790,0,-13.6106,-7.17023,19.2837,Q,Q
2023-03-14 22:22:55:800,0,-13.6149,-7.17473,19.2926,Q,Q
2023-03-14 22:22:55:811,0,-13.6203,-7.17801,19.3029,Q,Q
2023-03-14 22:22:55:821,0,-13.6269,-7.18009,19.3094,Q,Q
2023-03-14 22:22:55:831,0,-13.6343,-7.18252,19.3173,Q,Q
2023-03-14 22:22:55:841,0,-13.6397,-7.18575,19.3222,Q,Q
2023-03-14 22:22:55:851,0,-13.6451,-7.1849,19.3316,Q,Q
2023-03-14 22:22:55:861,0,-13.6472,-7.1872,19.3426,Q,Q
2023-03-14 22:22:55:871,0,-13.6542,-7.18944,19.3565,Q,Q
2023-03-14 22:22:55:881,0,-13.6582,-7.19334,19.3727,Q,Q
2023-03-14 22:22:55:891,0,-13.6664,-7.19448,19.3903,Q,Q
2023-03-14 22:22:55:901,0,-13.671,-7.20166,19.4052,Q,Q
2023-03-14 22:22:55:911,0,-13.6798,-7.2096,19.4191,Q,Q
2023-03-14 22:22:55:921,0,-13.6863,-7.2176,19.4348,Q,Q
2023-03-14 22:22:55:931,0,-13.6888,-7.2271,19.4478,Q,Q
2023-03-14 22:22:55:941,0,-13.6899,-7.23422,19.4618,Q,Q
2023-03-14 22:22:55:951,0,-13.6938,-7.23914,19.477,Q,Q
2023-03-14 22:22:55:961,0,-13.6995,-7.24728,19.491,Q,Q
2023-03-14 22:22:55:971,0,-13.7037,-7.25941,19.5101,Q,Q
2023-03-14 22:22:55:981,0,-13.7114,-7.2714,19.5246,Q,Q
2023-03-14 22:22:55:991,0,-13.7206,-7.28083,19.5437,Q,Q
2023-03-14 22:22:56:1,0,-13.7303,-7.28901,19.561,Q,Q
2023-03-14 22:22:56:11,0,-13.7393,-7.29459,19.5763,Q,Q
2023-03-14 22:22:56:21,0,-13.743,-7.30281,19.5922,Q,Q
2023-03-14 22:22:56:31,0,-13.7493,-7.30693,19.6097,Q,Q
2023-03-14 22:22:56:41,0,-13.7516,-7.31464,19.6249,Q,Q
2023-03-14 22:22:56:51,0,-13.7599,-7.32215,19.6398,Q,Q
2023-03-14 22:22:56:61,0,-13.7676,-7.33067,19.6503,Q,Q
2023-03-14 22:22:56:71,0,-13.7681,-7.34105,19.6608,Q,Q
2023-03-14 22:22:56:81,0,-13.762,-7.35262,19.6637,Q,Q
2023-03-14 22:22:56:91,0,-13.7551,-7.36693,19.6659,Q,Q
2023-03-14 22:22:56:101,0,-13.7461,-7.37701,19.6688,Q,Q
2023-03-14 22:22:56:111,0,-13.7431,-7.38968,19.6696,Q,Q
2023-03-14 22:22:56:120,0,-13.7416,-7.40751,19.6747,Q,Q
2023-03-14 22:22:56:131,0,-13.7358,-7.42231,19.6793,Q,Q
2023-03-14 22:22:56:141,0,-13.7258,-7.43953,19.6856,Q,Q
2023-03-14 22:22:56:151,0,-13.7105,-7.45061,19.694,Q,Q
2023-03-14 22:22:56:161,0,-13.6934,-7.46397,19.7011,Q,Q
2023-03-14 22:22:56:171,0,-13.6805,-7.47845,19.711,Q,Q
2023-03-14 22:22:56:181,0,-13.664,-7.48828,19.7236,Q,Q
2023-03-14 22:22:56:191,0,-13.6475,-7.49152,19.7347,Q,Q
2023-03-14 22:22:56:201,0,-13.633,-7.49899,19.7518,Q,Q
2023-03-14 22:22:56:211,0,-13.622,-7.50365,19.7667,Q,Q
2023-03-14 22:22:56:221,0,-13.6139,-7.50343,19.7831,Q,Q
2023-03-14 22:22:56:231,0,-13.6072,-7.50522,19.7947,Q,Q
2023-03-14 22:22:56:241,0,-13.5961,-7.51148,19.8111,Q,Q
2023-03-14 22:22:56:251,0,-13.5863,-7.51806,19.8363,Q,Q
2023-03-14 22:22:56:261,0,-13.5802,-7.52773,19.8633,Q,Q
2023-03-14 22:22:56:271,0,-13.5752,-7.53686,19.8905,Q,Q
2023-03-14 22:22:56:281,0,-13.5751,-7.54896,19.9183,Q,Q
2023-03-14 22:22:56:291,0,-13.577,-7.55732,19.9475,Q,Q
2023-03-14 22:22:56:301,0,-13.5764,-7.5667,19.9761,Q,Q
2023-03-14 22:22:56:311,0,-13.5778,-7.57649,20.0004,Q,Q
2023-03-14 22:22:56:321,0,-13.5817,-7.58597,20.0295,Q,Q
2023-03-14 22:22:56:331,0,-13.584,-7.59662,20.0553,Q,Q
2023-03-14 22:22:56:341,0,-13.5855,-7.60426,20.0839,Q,Q
2023-03-14 22:22:56:351,0,-13.5874,-7.61241,20.1104,Q,Q
2023-03-14 22:22:56:361,0,-13.5903,-7.62207,20.1339,Q,Q
2023-03-14 22:22:56:371,0,-13.5949,-7.62898,20.1561,Q,Q
2023-03-14 22:22:56:381,0,-13.6042,-7.63788,20.1806,Q,Q
2023-03-14 22:22:56:391,0,-13.6165,-7.64631,20.2043,Q,Q
2023-03-14 22:22:56:401,0,-13.6258,-7.65345,20.2269,Q,Q
2023-03-14 22:22:56:411,0,-13.6345,-7.65615,20.2452,Q,Q
2023-03-14 22:22:56:421,0,-13.6379,-7.65942,20.2695,Q,Q
2023-03-14 22:22:56:431,0,-13.6424,-7.66341,20.2956,Q,Q
2023-03-14 22:22:56:441,0,-13.6481,-7.67056,20.3206,Q,Q
2023-03-14 22:22:56:451,0,-13.653,-7.67482,20.3406,Q,Q
2023-03-14 22:22:56:461,0,-13.6608,-7.67385,20.3551,Q,Q
2023-03-14 22:22:56:471,0,-13.6617,-7.67248,20.3707,Q,Q
2023-03-14 22:22:56:481,0,-13.6604,-7.6731,20.3857,Q,Q
2023-03-14 22:22:56:491,0,-13.6617,-7.67656,20.4031,Q,Q
2023-03-14 22:22:56:501,0,-13.6642,-7.68387,20.4195,Q,Q
2023-03-14 22:22:56:511,0,-13.6695,-7.69002,20.4396,Q,Q
2023-03-14 22:22:56:521,0,-13.6743,-7.69523,20.4579,Q,Q
2023-03-14 22:22:56:531,0,-13.6778,-7.69753,20.4789,Q,Q
2023-03-14 22:22:56:541,0,-13.6781,-7.69425,20.5105,Q,Q
2023-03-14 22:22:56:551,0,-13.6788,-7.69104,20.5462,Q,Q
2023-03-14 22:22:56:561,0,-13.6791,-7.68632,20.5933,Q,Q
2023-03-14 22:22:56:571,0,-13.6825,-7.67596,20.6521,Q,Q
2023-03-14 22:22:56:581,0,-13.688,-7.66492,20.7191,Q,Q
2023-03-14 22:22:56:591,0,-13.6988,-7.65311,20.7966,Q,Q
2023-03-14 22:22:56:601,0,-13.7086,-7.64559,20.8864,Q,Q
2023-03-14 22:22:56:611,0,-13.7202,-7.63698,20.9859,Q,Q
2023-03-14 22:22:56:621,0,-13.7297,-7.62848,21.0871,Q,Q
2023-03-14 22:22:56:631,0,-13.7354,-7.62446,21.1927,Q,Q
2023-03-14 22:22:56:641,0,-13.7303,-7.62484,21.3041,Q,Q
2023-03-14 22:22:56:651,0,-13.7179,-7.62976,21.415,Q,Q
2023-03-14 22:22:56:661,0,-13.7095,-7.63884,21.5317,Q,Q
2023-03-14 22:22:56:671,0,-13.7081,-7.64598,21.6498,Q,Q
2023-03-14 22:22:56:681,0,-13.713,-7.65894,21.7688,Q,Q
2023-03-14 22:22:56:691,0,-13.722,-7.67985,21.8907,Q,Q
2023-03-14 22:22:56:701,0,-13.7288,-7.70521,22.0161,Q,Q
2023-03-14 22:22:56:711,0,-13.7389,-7.72825,22.1399,Q,Q
2023-03-14 22:22:56:721,0,-13.7423,-7.75105,22.268,Q,Q
2023-03-14 22:22:56:731,0,-13.7453,-7.77225,22.3996,Q,Q
2023-03-14 22:22:56:741,0,-13.7477,-7.78402,22.5349,Q,Q
2023-03-14 22:22:56:751,0,-13.7496,-7.7891,22.6703,Q,Q
2023-03-14 22:22:56:761,0,-13.7554,-7.78978,22.8056,Q,Q
2023-03-14 22:22:56:771,0,-13.7605,-7.78766,22.9348,Q,Q
2023-03-14 22:22:56:781,0,-13.7689,-7.78521,23.0643,Q,Q
2023-03-14 22:22:56:791,0,-13.778,-7.78807,23.1887,Q,Q
2023-03-14 22:22:56:801,0,-13.7915,-7.78583,23.3073,Q,Q
2023-03-14 22:22:56:811,0,-13.8061,-7.78345,23.4169,Q,Q
2023-03-14 22:22:56:820,0,-13.8231,-7.78405,23.5181,Q,Q
2023-03-14 22:22:56:831,0,-13.8363,-7.78211,23.6118,Q,Q
2023-03-14 22:22:56:841,0,-13.853,-7.78246,23.6926,Q,Q
2023-03-14 22:22:56:851,0,-13.8727,-7.78591,23.7644,Q,Q
2023-03-14 22:22:56:861,0,-13.8927,-7.79282,23.8232,Q,Q
2023-03-14 22:22:56:871,0,-13.9191,-7.79848,23.8667,Q,Q
2023-03-14 22:22:56:881,0,-13.94,-7.80747,23.8989,Q,Q
2023-03-14 22:22:56:891,0,-13.9584,-7.81697,23.9222,Q,Q
2023-03-14 22:22:56:901,0,-13.9762,-7.82569,23.9324,Q,Q
2023-03-14 22:22:56:911,0,-13.9971,-7.83884,23.9386,Q,Q
2023-03-14 22:22:56:921,0,-14.0166,-7.84936,23.9377,Q,Q
2023-03-14 22:22:56:931,0,-14.0394,-7.85534,23.9303,Q,Q
2023-03-14 22:22:56:941,0,-14.0567,-7.8627,23.9193,Q,Q
2023-03-14 22:22:56:951,0,-14.0719,-7.87477,23.9076,Q,Q
2023-03-14 22:22:56:961,0,-14.0863,-7.88536,23.8993,Q,Q
2023-03-14 22:22:56:971,0,-14.1077,-7.89909,23.8928,Q,Q
2023-03-14 22:22:56:981,0,-14.126,-7.90918,23.885,Q,Q
2023-03-14 22:22:56:991,0,-14.1458,-7.91988,23.8807,Q,Q
2023-03-14 22:22:57:1,0,-14.1651,-7.92852,23.8765,Q,Q
2023-03-14 22:22:57:11,0,-14.1829,-7.93117,23.8773,Q,Q
2023-03-14 22:22:57:21,0,-14.1943,-7.93875,23.8785,Q,Q
2023-03-14 22:22:57:31,0,-14.2044,-7.94223,23.8825,Q,Q
2023-03-14 22:22:57:41,0,-14.2127,-7.94573,23.8902,Q,Q
2023-03-14 22:22:57:51,0,-14.2161,-7.95147,23.8976,Q,Q
2023-03-14 22:22:57:61,0,-14.2157,-7.95535,23.904,Q,Q
2023-03-14 22:22:57:71,0,-14.2101,-7.96026,23.9151,Q,Q
2023-03-14 22:22:57:81,0,-14.2068,-7.96129,23.9322,Q,Q
2023-03-14 22:22:57:91,0,-14.2077,-7.96376,23.947,Q,Q
2023-03-14 22:22:57:101,0,-14.2073,-7.96478,23.9656,Q,Q
2023-03-14 22:22:57:111,0,-14.2093,-7.96645,23.9884,Q,Q
2023-03-14 22:22:57:121,0,-14.2158,-7.96361,24.0089,Q,Q
2023-03-14 22:22:57:131,0,-14.2201,-7.9627,24.0305,Q,Q
2023-03-14 22:22:57:141,0,-14.2268,-7.96576,24.0547,Q,Q
2023-03-14 22:22:57:151,0,-14.2393,-7.96832,24.0812,Q,Q
2023-03-14 22:22:57:161,0,-14.2503,-7.96506,24.1064,Q,Q
2023-03-14 22:22:57:171,0,-14.2608,-7.95719,24.1288,Q,Q
2023-03-14 22:22:57:181,0,-14.267,-7.95373,24.1525,Q,Q
2023-03-14 22:22:57:191,0,-14.2725,-7.95454,24.1831,Q,Q
2023-03-14 22:22:57:201,0,-14.2793,-7.95391,24.2154,Q,Q
2023-03-14 22:22:57:211,0,-14.2885,-7.95675,24.2542,Q,Q
2023-03-14 22:22:57:221,0,-14.2993,-7.9539,24.2919,Q,Q
2023-03-14 22:22:57:231,0,-14.3039,-7.94785,24.3307,Q,Q
2023-03-14 22:22:57:241,0,-14.3051,-7.93921,24.3682,Q,Q
2023-03-14 22:22:57:251,0,-14.3036,-7.92825,24.4039,Q,Q
2023-03-14 22:22:57:261,0,-14.3049,-7.91939,24.4426,Q,Q
2023-03-14 22:22:57:271,0,-14.3099,-7.91083,24.4877,Q,Q
2023-03-14 22:22:57:281,0,-14.316,-7.90218,24.5304,Q,Q
2023-03-14 22:22:57:291,0,-14.3212,-7.89345,24.5688,Q,Q
2023-03-14 22:22:57:301,0,-14.3227,-7.8813,24.6024,Q,Q
2023-03-14 22:22:57:311,0,-14.3198,-7.87621,24.6315,Q,Q
2023-03-14 22:22:57:320,0,-14.3165,-7.87555,24.6619,Q,Q
2023-03-14 22:22:57:331,0,-14.3116,-7.8721,24.6882,Q,Q
2023-03-14 22:22:57:341,0,-14.3051,-7.87435,24.7146,Q,Q
2023-03-14 22:22:57:351,0,-14.299,-7.87255,24.7387,Q,Q
2023-03-14 22:22:57:361,0,-14.2973,-7.87135,24.7621,Q,Q
2023-03-14 22:22:57:371,0,-14.2994,-7.87273,24.7859,Q,Q
2023-03-14 22:22:57:381,0,-14.2983,-7.87767,24.8076,Q,Q
2023-03-14 22:22:57:391,0,-14.2987,-7.88312,24.8245,Q,Q
2023-03-14 22:22:57:401,0,-14.2955,-7.88687,24.844,Q,Q
2023-03-14 22:22:57:411,0,-14.291,-7.89047,24.8626,Q,Q
2023-03-14 22:22:57:421,0,-14.2908,-7.89658,24.881,Q,Q
2023-03-14 22:22:57:431,0,-14.2907,-7.89779,24.899,Q,Q
2023-03-14 22:22:57:441,0,-14.2886,-7.89785,24.9173,Q,Q
2023-03-14 22:22:57:451,0,-14.2857,-7.90104,24.9311,Q,Q
2023-03-14 22:22:57:461,0,-14.2847,-7.90356,24.9499,Q,Q
2023-03-14 22:22:57:471,0,-14.285,-7.89845,24.9636,Q,Q
2023-03-14 22:22:57:481,0,-14.2862,-7.90231,24.9769,Q,Q
2023-03-14 22:22:57:491,0,-14.289,-7.90186,24.9937,Q,Q
2023-03-14 22:22:57:501,0,-14.2865,-7.90173,25.0083,Q,Q
2023-03-14 22:22:57:511,0,-14.288,-7.90235,25.026,Q,Q
2023-03-14 22:22:57:521,0,-14.2904,-7.90407,25.0437,Q,Q
2023-03-14 22:22:57:531,0,-14.2974,-7.90101,25.0642,Q,Q
2023-03-14 22:22:57:541,0,-14.3011,-7.89571,25.0829,Q,Q
2023-03-14 22:22:57:551,0,-14.3013,-7.89021,25.1013,Q,Q
2023-03-14 22:22:57:561,0,-14.3066,-7.88759,25.1216,Q,Q
2023-03-14 22:22:57:571,0,-14.3101,-7.88381,25.1447,Q,Q
2023-03-14 22:22:57:581,0,-14.3095,-7.87964,25.169,Q,Q
2023-03-14 22:22:57:591,0,-14.309,-7.8787,25.1923,Q,Q
2023-03-14 22:22:57:601,0,-14.3148,-7.87443,25.2179,Q,Q
2023-03-14 22:22:57:611,0,-14.3187,-7.86949,25.2409,Q,Q
2023-03-14 22:22:57:621,0,-14.3233,-7.86621,25.2644,Q,Q
2023-03-14 22:22:57:631,0,-14.3265,-7.86195,25.2867,Q,Q
2023-03-14 22:22:57:641,0,-14.3283,-7.86361,25.3075,Q,Q
2023-03-14 22:22:57:651,0,-14.334,-7.86285,25.3262,Q,Q
2023-03-14 22:22:57:661,0,-14.3378,-7.86491,25.3451,Q,Q
2023-03-14 22:22:57:671,0,-14.3411,-7.86713,25.3626,Q,Q
2023-03-14 22:22:57:681,0,-14.3438,-7.87974,25.3814,Q,Q
2023-03-14 22:22:57:691,0,-14.3498,-7.88826,25.3996,Q,Q
2023-03-14 22:22:57:701,0,-14.3564,-7.89908,25.417,Q,Q
2023-03-14 22:22:57:711,0,-14.3686,-7.91179,25.4313,Q,Q
2023-03-14 22:22:57:721,0,-14.3783,-7.9184,25.4431,Q,Q
2023-03-14 22:22:57:731,0,-14.3846,-7.92595,25.4532,Q,Q
2023-03-14 22:22:57:741,0,-14.3914,-7.93186,25.4649,Q,Q
2023-03-14 22:22:57:751,0,-14.3959,-7.93965,25.4761,Q,Q
2023-03-14 22:22:57:761,0,-14.3935,-7.95087,25.4843,Q,Q
