Timestamp_cmd,imu_cmd,roll_delta,pitch_delta,yaw_delta,voice_type,voice_length
2023-03-15 22:02:30:393,0,-3.20831,-4.86121,-20.1613,Q,Q
2023-03-15 22:02:30:402,0,-3.2001,-4.86216,-20.1433,Q,Q
2023-03-15 22:02:30:412,0,-3.19751,-4.86383,-20.1257,Q,Q
2023-03-15 22:02:30:422,0,-3.19008,-4.8624,-20.1107,Q,Q
2023-03-15 22:02:30:432,0,-3.18746,-4.8608,-20.0954,Q,Q
2023-03-15 22:02:30:442,0,-3.18651,-4.86446,-20.0802,Q,Q
2023-03-15 22:02:30:452,0,-3.18437,-4.87456,-20.0637,Q,Q
2023-03-15 22:02:30:462,0,-3.18571,-4.89124,-20.0493,Q,Q
2023-03-15 22:02:30:472,0,-3.18996,-4.90774,-20.0367,Q,Q
2023-03-15 22:02:30:482,0,-3.19591,-4.92647,-20.0303,Q,Q
2023-03-15 22:02:30:492,0,-3.20682,-4.94145,-20.0234,Q,Q
2023-03-15 22:02:30:502,0,-3.21561,-4.95109,-20.0203,Q,Q
2023-03-15 22:02:30:512,0,-3.22945,-4.95903,-20.0189,Q,Q
2023-03-15 22:02:30:522,0,-3.24299,-4.96778,-20.0145,Q,Q
2023-03-15 22:02:30:532,0,-3.25847,-4.97057,-20.014,Q,Q
2023-03-15 22:02:30:542,0,-3.27153,-4.97325,-20.0167,Q,Q
2023-03-15 22:02:30:552,0,-3.28308,-4.97452,-20.0213,Q,Q
2023-03-15 22:02:30:562,0,-3.29222,-4.97134,-20.0301,Q,Q
2023-03-15 22:02:30:572,0,-3.29801,-4.96404,-20.0425,Q,Q
2023-03-15 22:02:30:582,0,-3.30389,-4.9595,-20.0546,Q,Q
2023-03-15 22:02:30:592,0,-3.30719,-4.95129,-20.0662,Q,Q
2023-03-15 22:02:30:602,0,-3.31174,-4.94349,-20.0843,Q,Q
2023-03-15 22:02:30:612,0,-3.30765,-4.9333,-20.1045,Q,Q
2023-03-15 22:02:30:622,0,-3.30816,-4.93008,-20.1222,Q,Q
2023-03-15 22:02:30:632,0,-3.30926,-4.92676,-20.143,Q,Q
2023-03-15 22:02:30:642,0,-3.30976,-4.91942,-20.1636,Q,Q
2023-03-15 22:02:30:652,0,-3.30671,-4.91207,-20.1792,Q,Q
2023-03-15 22:02:30:662,0,-3.30373,-4.90604,-20.1949,Q,Q
2023-03-15 22:02:30:672,0,-3.29446,-4.90335,-20.2063,Q,Q
2023-03-15 22:02:30:682,0,-3.28274,-4.90069,-20.2144,Q,Q
2023-03-15 22:02:30:692,0,-3.27072,-4.89948,-20.2193,Q,Q
2023-03-15 22:02:30:702,0,-3.25395,-4.90269,-20.2226,Q,Q
2023-03-15 22:02:30:712,0,-3.23751,-4.90003,-20.2212,Q,Q
2023-03-15 22:02:30:722,0,-3.21949,-4.89644,-20.2231,Q,Q
2023-03-15 22:02:30:732,0,-3.19923,-4.89613,-20.2178,Q,Q
2023-03-15 22:02:30:742,0,-3.18121,-4.89563,-20.2097,Q,Q
2023-03-15 22:02:30:752,0,-3.15736,-4.89624,-20.2037,Q,Q
2023-03-15 22:02:30:762,0,-3.13872,-4.89603,-20.1957,Q,Q
2023-03-15 22:02:30:772,0,-3.11479,-4.89803,-20.1862,Q,Q
2023-03-15 22:02:30:782,0,-3.09789,-4.89966,-20.178,Q,Q
2023-03-15 22:02:30:792,0,-3.07965,-4.90298,-20.1694,Q,Q
2023-03-15 22:02:30:802,0,-3.06701,-4.90699,-20.1643,Q,Q
2023-03-15 22:02:30:812,0,-3.05657,-4.90944,-20.1603,Q,Q
2023-03-15 22:02:30:822,0,-3.04327,-4.90899,-20.1546,Q,Q
2023-03-15 22:02:30:832,0,-3.03592,-4.91313,-20.1524,Q,Q
2023-03-15 22:02:30:842,0,-3.02785,-4.9159,-20.1494,Q,Q
2023-03-15 22:02:30:852,0,-3.02412,-4.91954,-20.1453,Q,Q
2023-03-15 22:02:30:862,0,-3.01816,-4.92509,-20.1398,Q,Q
2023-03-15 22:02:30:872,0,-3.01308,-4.92969,-20.1338,Q,Q
2023-03-15 22:02:30:882,0,-3.00871,-4.93305,-20.1309,Q,Q
2023-03-15 22:02:30:892,0,-3.00268,-4.93528,-20.1287,Q,Q
2023-03-15 22:02:30:902,0,-2.99683,-4.93458,-20.1217,Q,Q
2023-03-15 22:02:30:912,0,-2.99239,-4.93664,-20.1155,Q,Q
2023-03-15 22:02:30:922,0,-2.98973,-4.93758,-20.1122,Q,Q
2023-03-15 22:02:30:932,0,-2.99041,-4.93812,-20.1083,Q,Q
2023-03-15 22:02:30:942,0,-2.98815,-4.93843,-20.1102,Q,Q
2023-03-15 22:02:30:952,0,-2.98674,-4.94028,-20.1094,Q,Q
2023-03-15 22:02:30:962,0,-2.98637,-4.93928,-20.1081,Q,Q
2023-03-15 22:02:30:972,0,-2.98267,-4.93862,-20.1102,Q,Q
2023-03-15 22:02:30:982,0,-2.98152,-4.93709,-20.1122,Q,Q
2023-03-15 22:02:30:992,0,-2.98307,-4.94026,-20.1191,Q,Q
2023-03-15 22:02:31:2,0,-2.98127,-4.94251,-20.1277,Q,Q
2023-03-15 22:02:31:12,0,-2.98085,-4.94338,-20.134,Q,Q
2023-03-15 22:02:31:22,0,-2.97874,-4.93899,-20.1418,Q,Q
2023-03-15 22:02:31:32,0,-2.97913,-4.93231,-20.1495,Q,Q
2023-03-15 22:02:31:42,0,-2.97644,-4.92275,-20.157,Q,Q
2023-03-15 22:02:31:52,0,-2.9704,-4.91768,-20.1658,Q,Q
2023-03-15 22:02:31:62,0,-2.96677,-4.91537,-20.1746,Q,Q
2023-03-15 22:02:31:72,0,-2.9659,-4.9177,-20.1813,Q,Q
2023-03-15 22:02:31:82,0,-2.96448,-4.92827,-20.1905,Q,Q
2023-03-15 22:02:31:92,0,-2.96253,-4.93871,-20.1985,Q,Q
2023-03-15 22:02:31:102,0,-2.96961,-4.94229,-20.2098,Q,Q
2023-03-15 22:02:31:112,0,-2.97564,-4.94451,-20.2155,Q,Q
2023-03-15 22:02:31:122,0,-2.98541,-4.9434,-20.2177,Q,Q
2023-03-15 22:02:31:132,0,-2.99738,-4.94025,-20.2235,Q,Q
2023-03-15 22:02:31:142,0,-3.01289,-4.94061,-20.2265,Q,Q
2023-03-15 22:02:31:152,0,-3.03052,-4.93839,-20.2284,Q,Q
2023-03-15 22:02:31:162,0,-3.04893,-4.93256,-20.2282,Q,Q
2023-03-15 22:02:31:172,0,-3.06453,-4.92388,-20.2299,Q,Q
2023-03-15 22:02:31:182,0,-3.07766,-4.91702,-20.2353,Q,Q
2023-03-15 22:02:31:192,0,-3.09114,-4.90771,-20.2387,Q,Q
2023-03-15 22:02:31:202,0,-3.09793,-4.89848,-20.2455,Q,Q
2023-03-15 22:02:31:212,0,-3.10595,-4.88474,-20.254,Q,Q
2023-03-15 22:02:31:222,0,-3.11261,-4.87849,-20.2679,Q,Q
2023-03-15 22:02:31:232,0,-3.11866,-4.87081,-20.2841,Q,Q
2023-03-15 22:02:31:242,0,-3.12372,-4.86782,-20.3005,Q,Q
2023-03-15 22:02:31:252,0,-3.12723,-4.86231,-20.3142,Q,Q
2023-03-15 22:02:31:262,0,-3.1305,-4.85835,-20.3362,Q,Q
2023-03-15 22:02:31:272,0,-3.12959,-4.85155,-20.3539,Q,Q
2023-03-15 22:02:31:282,0,-3.13354,-4.8446,-20.369,Q,Q
2023-03-15 22:02:31:292,0,-3.13165,-4.84188,-20.381,Q,Q
2023-03-15 22:02:31:302,0,-3.12696,-4.84434,-20.391,Q,Q
2023-03-15 22:02:31:312,0,-3.12747,-4.84607,-20.3968,Q,Q
2023-03-15 22:02:31:322,0,-3.12761,-4.8439,-20.3993,Q,Q
2023-03-15 22:02:31:332,0,-3.13141,-4.83838,-20.3995,Q,Q
2023-03-15 22:02:31:342,0,-3.13574,-4.83427,-20.398,Q,Q
2023-03-15 22:02:31:352,0,-3.13776,-4.83063,-20.3882,Q,Q
2023-03-15 22:02:31:362,0,-3.1404,-4.83268,-20.3812,Q,Q
2023-03-15 22:02:31:372,0,-3.14062,-4.8293,-20.375,Q,Q
2023-03-15 22:02:31:382,0,-3.1395,-4.82507,-20.3698,Q,Q
2023-03-15 22:02:31:392,0,-3.13487,-4.82536,-20.3647,Q,Q
2023-03-15 22:02:31:402,0,-3.13318,-4.82501,-20.361,Q,Q
2023-03-15 22:02:31:412,0,-3.12832,-4.8228,-20.354,Q,Q
2023-03-15 22:02:31:422,0,-3.12507,-4.82623,-20.354,Q,Q
2023-03-15 22:02:31:432,0,-3.12074,-4.82933,-20.3554,Q,Q
2023-03-15 22:02:31:442,0,-3.11297,-4.83525,-20.3581,Q,Q
2023-03-15 22:02:31:452,0,-3.10135,-4.84366,-20.3619,Q,Q
2023-03-15 22:02:31:462,0,-3.09196,-4.84944,-20.3614,Q,Q
2023-03-15 22:02:31:472,0,-3.0787,-4.85614,-20.3632,Q,Q
2023-03-15 22:02:31:482,0,-3.06637,-4.86491,-20.3634,Q,Q
2023-03-15 22:02:31:492,0,-3.05619,-4.87119,-20.3592,Q,Q
2023-03-15 22:02:31:502,0,-3.04448,-4.87737,-20.3533,Q,Q
2023-03-15 22:02:31:512,0,-3.03436,-4.88409,-20.3436,Q,Q
2023-03-15 22:02:31:522,0,-3.02197,-4.89026,-20.3335,Q,Q
2023-03-15 22:02:31:532,0,-3.01403,-4.89685,-20.3197,Q,Q
2023-03-15 22:02:31:542,0,-3.00826,-4.90038,-20.3015,Q,Q
2023-03-15 22:02:31:552,0,-3.00182,-4.90668,-20.2812,Q,Q
2023-03-15 22:02:31:562,0,-2.99784,-4.91134,-20.2575,Q,Q
2023-03-15 22:02:31:572,0,-2.99053,-4.91572,-20.2323,Q,Q
2023-03-15 22:02:31:582,0,-2.98108,-4.92378,-20.2104,Q,Q
2023-03-15 22:02:31:592,0,-2.96536,-4.93265,-20.1817,Q,Q
2023-03-15 22:02:31:602,0,-2.95153,-4.94538,-20.1525,Q,Q
2023-03-15 22:02:31:612,0,-2.93926,-4.95415,-20.1229,Q,Q
2023-03-15 22:02:31:622,0,-2.92899,-4.96197,-20.0992,Q,Q
2023-03-15 22:02:31:632,0,-2.92162,-4.96694,-20.0786,Q,Q
2023-03-15 22:02:31:642,0,-2.91365,-4.97464,-20.061,Q,Q
2023-03-15 22:02:31:652,0,-2.90672,-4.98518,-20.0437,Q,Q
2023-03-15 22:02:31:662,0,-2.90188,-4.99972,-20.028,Q,Q
2023-03-15 22:02:31:672,0,-2.90358,-5.01815,-20.0158,Q,Q
2023-03-15 22:02:31:682,0,-2.90111,-5.04031,-20.0072,Q,Q
2023-03-15 22:02:31:692,0,-2.90309,-5.05913,-20.0016,Q,Q
2023-03-15 22:02:31:702,0,-2.90598,-5.07548,-19.9979,Q,Q
2023-03-15 22:02:31:712,0,-2.91344,-5.08665,-20.0,Q,Q
2023-03-15 22:02:31:722,0,-2.9203,-5.09293,-20.0003,Q,Q
2023-03-15 22:02:31:732,0,-2.93068,-5.1001,-20.0021,Q,Q
2023-03-15 22:02:31:742,0,-2.94177,-5.10887,-20.0055,Q,Q
2023-03-15 22:02:31:752,0,-2.95112,-5.11103,-20.0069,Q,Q
2023-03-15 22:02:31:762,0,-2.95514,-5.11328,-20.0095,Q,Q
2023-03-15 22:02:31:772,0,-2.96251,-5.11216,-20.0162,Q,Q
2023-03-15 22:02:31:782,0,-2.96319,-5.10915,-20.027,Q,Q
2023-03-15 22:02:31:792,0,-2.96087,-5.10675,-20.0391,Q,Q
2023-03-15 22:02:31:802,0,-2.95884,-5.10747,-20.0542,Q,Q
2023-03-15 22:02:31:812,0,-2.95549,-5.10717,-20.0724,Q,Q
2023-03-15 22:02:31:822,0,-2.95242,-5.10666,-20.09,Q,Q
2023-03-15 22:02:31:832,0,-2.94852,-5.10592,-20.1103,Q,Q
2023-03-15 22:02:31:842,0,-2.94277,-5.10433,-20.1302,Q,Q
2023-03-15 22:02:31:852,0,-2.94035,-5.09935,-20.1541,Q,Q
2023-03-15 22:02:31:862,0,-2.93588,-5.09832,-20.178,Q,Q
2023-03-15 22:02:31:872,0,-2.9289,-5.0946,-20.1978,Q,Q
2023-03-15 22:02:31:882,0,-2.92071,-5.0966,-20.2183,Q,Q
2023-03-15 22:02:31:892,0,-2.91599,-5.09431,-20.2359,Q,Q
2023-03-15 22:02:31:902,0,-2.90623,-5.09454,-20.2496,Q,Q
2023-03-15 22:02:31:912,0,-2.89917,-5.09518,-20.2585,Q,Q
2023-03-15 22:02:31:922,0,-2.89372,-5.09027,-20.2663,Q,Q
2023-03-15 22:02:31:932,0,-2.88925,-5.08336,-20.2702,Q,Q
2023-03-15 22:02:31:942,0,-2.88881,-5.07613,-20.2714,Q,Q
2023-03-15 22:02:31:952,0,-2.88874,-5.06546,-20.2723,Q,Q
2023-03-15 22:02:31:962,0,-2.8895,-5.05525,-20.2694,Q,Q
2023-03-15 22:02:31:972,0,-2.89048,-5.045,-20.2691,Q,Q
2023-03-15 22:02:31:982,0,-2.89567,-5.03542,-20.2734,Q,Q
2023-03-15 22:02:31:992,0,-2.89859,-5.02791,-20.2785,Q,Q
2023-03-15 22:02:32:2,0,-2.89969,-5.01523,-20.2884,Q,Q
2023-03-15 22:02:32:12,0,-2.89896,-5.00343,-20.2996,Q,Q
2023-03-15 22:02:32:22,0,-2.89958,-4.99549,-20.3156,Q,Q
2023-03-15 22:02:32:32,0,-2.89319,-4.98713,-20.3338,Q,Q
2023-03-15 22:02:32:42,0,-2.8863,-4.98002,-20.3469,Q,Q
2023-03-15 22:02:32:52,0,-2.8755,-4.97257,-20.3578,Q,Q
2023-03-15 22:02:32:62,0,-2.86431,-4.96216,-20.3692,Q,Q
2023-03-15 22:02:32:72,0,-2.85181,-4.95586,-20.378,Q,Q
2023-03-15 22:02:32:82,0,-2.84307,-4.94856,-20.3827,Q,Q
2023-03-15 22:02:32:92,0,-2.83492,-4.94002,-20.385,Q,Q
2023-03-15 22:02:32:102,0,-2.82344,-4.93375,-20.3866,Q,Q
2023-03-15 22:02:32:112,0,-2.81799,-4.92976,-20.3854,Q,Q
2023-03-15 22:02:32:122,0,-2.80871,-4.92154,-20.3864,Q,Q
2023-03-15 22:02:32:132,0,-2.80566,-4.91694,-20.3806,Q,Q
2023-03-15 22:02:32:142,0,-2.8032,-4.90995,-20.374,Q,Q
2023-03-15 22:02:32:152,0,-2.8007,-4.90313,-20.367,Q,Q
2023-03-15 22:02:32:162,0,-2.7991,-4.89752,-20.3621,Q,Q
2023-03-15 22:02:32:172,0,-2.79832,-4.8937,-20.3566,Q,Q
2023-03-15 22:02:32:182,0,-2.80075,-4.88784,-20.3588,Q,Q
2023-03-15 22:02:32:192,0,-2.79934,-4.88545,-20.3621,Q,Q
2023-03-15 22:02:32:202,0,-2.79636,-4.87905,-20.3668,Q,Q
2023-03-15 22:02:32:212,0,-2.78877,-4.87033,-20.375,Q,Q
2023-03-15 22:02:32:222,0,-2.78378,-4.86557,-20.382,Q,Q
2023-03-15 22:02:32:232,0,-2.77707,-4.85576,-20.3909,Q,Q
2023-03-15 22:02:32:242,0,-2.77084,-4.84543,-20.4004,Q,Q
2023-03-15 22:02:32:252,0,-2.76666,-4.82838,-20.4149,Q,Q
2023-03-15 22:02:32:262,0,-2.76071,-4.80985,-20.4252,Q,Q
2023-03-15 22:02:32:272,0,-2.76032,-4.79158,-20.4387,Q,Q
2023-03-15 22:02:32:282,0,-2.7607,-4.78317,-20.4527,Q,Q
2023-03-15 22:02:32:292,0,-2.76536,-4.77977,-20.4635,Q,Q
2023-03-15 22:02:32:302,0,-2.76958,-4.77647,-20.4738,Q,Q
2023-03-15 22:02:32:312,0,-2.77377,-4.77493,-20.485,Q,Q
2023-03-15 22:02:32:322,0,-2.77355,-4.77001,-20.4947,Q,Q
2023-03-15 22:02:32:332,0,-2.78199,-4.76559,-20.5054,Q,Q
2023-03-15 22:02:32:342,0,-2.79333,-4.76169,-20.5122,Q,Q
2023-03-15 22:02:32:352,0,-2.8075,-4.75585,-20.5152,Q,Q
2023-03-15 22:02:32:362,0,-2.82157,-4.75302,-20.5149,Q,Q
2023-03-15 22:02:32:372,0,-2.83606,-4.74516,-20.5134,Q,Q
2023-03-15 22:02:32:382,0,-2.85151,-4.74017,-20.5163,Q,Q
2023-03-15 22:02:32:392,0,-2.86231,-4.73669,-20.5171,Q,Q
2023-03-15 22:02:32:402,0,-2.87259,-4.73414,-20.517,Q,Q
2023-03-15 22:02:32:412,0,-2.87849,-4.72846,-20.516,Q,Q
2023-03-15 22:02:32:422,0,-2.8765,-4.72363,-20.5118,Q,Q
2023-03-15 22:02:32:432,0,-2.87388,-4.72108,-20.5141,Q,Q
2023-03-15 22:02:32:442,0,-2.86839,-4.71614,-20.5147,Q,Q
2023-03-15 22:02:32:452,0,-2.85809,-4.70942,-20.517,Q,Q
2023-03-15 22:02:32:462,0,-2.84928,-4.69772,-20.5257,Q,Q
2023-03-15 22:02:32:472,0,-2.83772,-4.69109,-20.5313,Q,Q
2023-03-15 22:02:32:482,0,-2.82464,-4.6835,-20.5384,Q,Q
2023-03-15 22:02:32:492,0,-2.81147,-4.67563,-20.5459,Q,Q
2023-03-15 22:02:32:502,0,-2.79758,-4.67141,-20.5505,Q,Q
2023-03-15 22:02:32:512,0,-2.78312,-4.66706,-20.5559,Q,Q
2023-03-15 22:02:32:522,0,-2.76684,-4.66241,-20.5625,Q,Q
2023-03-15 22:02:32:532,0,-2.75405,-4.65712,-20.5641,Q,Q
2023-03-15 22:02:32:542,0,-2.74783,-4.65101,-20.5674,Q,Q
2023-03-15 22:02:32:552,0,-2.74354,-4.64245,-20.5677,Q,Q
2023-03-15 22:02:32:562,0,-2.7428,-4.63402,-20.569,Q,Q
2023-03-15 22:02:32:572,0,-2.74596,-4.62267,-20.5689,Q,Q
2023-03-15 22:02:32:582,0,-2.75381,-4.61738,-20.5662,Q,Q
2023-03-15 22:02:32:592,0,-2.76151,-4.60959,-20.5599,Q,Q
2023-03-15 22:02:32:602,0,-2.7716,-4.60565,-20.5589,Q,Q
2023-03-15 22:02:32:612,0,-2.78256,-4.5995,-20.5572,Q,Q
2023-03-15 22:02:32:622,0,-2.78703,-4.59663,-20.5573,Q,Q
2023-03-15 22:02:32:632,0,-2.7906,-4.59537,-20.5579,Q,Q
2023-03-15 22:02:32:642,0,-2.79376,-4.59111,-20.5602,Q,Q
2023-03-15 22:02:32:652,0,-2.79631,-4.58658,-20.5625,Q,Q
2023-03-15 22:02:32:662,0,-2.80043,-4.58589,-20.5652,Q,Q
2023-03-15 22:02:32:672,0,-2.79875,-4.58785,-20.5682,Q,Q
2023-03-15 22:02:32:682,0,-2.80085,-4.58845,-20.5692,Q,Q
2023-03-15 22:02:32:692,0,-2.80063,-4.58963,-20.5666,Q,Q
2023-03-15 22:02:32:702,0,-2.79954,-4.58685,-20.5637,Q,Q
2023-03-15 22:02:32:712,0,-2.79475,-4.59052,-20.5587,Q,Q
2023-03-15 22:02:32:722,0,-2.7916,-4.59266,-20.5512,Q,Q
2023-03-15 22:02:32:732,0,-2.78963,-4.5924,-20.542,Q,Q
2023-03-15 22:02:32:742,0,-2.78906,-4.59305,-20.534,Q,Q
2023-03-15 22:02:32:752,0,-2.79035,-4.59505,-20.5262,Q,Q
2023-03-15 22:02:32:763,0,-2.79104,-4.59904,-20.5217,Q,Q
2023-03-15 22:02:32:772,0,-2.78932,-4.60204,-20.5132,Q,Q
2023-03-15 22:02:32:782,0,-2.78837,-4.60347,-20.5081,Q,Q
2023-03-15 22:02:32:792,0,-2.78685,-4.60542,-20.5042,Q,Q
2023-03-15 22:02:32:802,0,-2.7856,-4.61105,-20.4985,Q,Q
2023-03-15 22:02:32:812,0,-2.7791,-4.61553,-20.4921,Q,Q
2023-03-15 22:02:32:822,0,-2.77519,-4.6176,-20.4881,Q,Q
2023-03-15 22:02:32:832,0,-2.76859,-4.62082,-20.4828,Q,Q
2023-03-15 22:02:32:842,0,-2.76183,-4.62363,-20.4853,Q,Q
2023-03-15 22:02:32:852,0,-2.7573,-4.6286,-20.4799,Q,Q
2023-03-15 22:02:32:862,0,-2.75489,-4.63073,-20.4753,Q,Q
2023-03-15 22:02:32:872,0,-2.74926,-4.62977,-20.4704,Q,Q
2023-03-15 22:02:32:882,0,-2.74555,-4.62755,-20.4687,Q,Q
2023-03-15 22:02:32:892,0,-2.73682,-4.62055,-20.4697,Q,Q
2023-03-15 22:02:32:902,0,-2.72896,-4.61765,-20.4659,Q,Q
2023-03-15 22:02:32:912,0,-2.72028,-4.61941,-20.4636,Q,Q
2023-03-15 22:02:32:922,0,-2.71478,-4.62328,-20.4587,Q,Q
2023-03-15 22:02:32:932,0,-2.708,-4.62491,-20.4564,Q,Q
2023-03-15 22:02:32:942,0,-2.70506,-4.62573,-20.4569,Q,Q
2023-03-15 22:02:32:952,0,-2.70765,-4.62385,-20.4542,Q,Q
2023-03-15 22:02:32:962,0,-2.71739,-4.61345,-20.4542,Q,Q
2023-03-15 22:02:32:972,0,-2.72931,-4.60436,-20.4537,Q,Q
2023-03-15 22:02:32:982,0,-2.74779,-4.5979,-20.4579,Q,Q
2023-03-15 22:02:32:992,0,-2.76555,-4.58824,-20.4626,Q,Q
2023-03-15 22:02:33:2,0,-2.7822,-4.57922,-20.4694,Q,Q
2023-03-15 22:02:33:12,0,-2.79435,-4.57141,-20.4774,Q,Q
2023-03-15 22:02:33:22,0,-2.79827,-4.56014,-20.4857,Q,Q
2023-03-15 22:02:33:32,0,-2.79483,-4.54668,-20.4939,Q,Q
2023-03-15 22:02:33:42,0,-2.78028,-4.53323,-20.5021,Q,Q
2023-03-15 22:02:33:52,0,-2.76046,-4.52287,-20.5107,Q,Q
2023-03-15 22:02:33:62,0,-2.73112,-4.51388,-20.5176,Q,Q
2023-03-15 22:02:33:72,0,-2.70085,-4.50615,-20.5173,Q,Q
2023-03-15 22:02:33:82,0,-2.66345,-4.50226,-20.5156,Q,Q
2023-03-15 22:02:33:92,0,-2.62431,-4.49642,-20.5097,Q,Q
2023-03-15 22:02:33:102,0,-2.58516,-4.49394,-20.4978,Q,Q
2023-03-15 22:02:33:112,0,-2.54334,-4.49318,-20.485,Q,Q
2023-03-15 22:02:33:122,0,-2.50409,-4.4934,-20.4697,Q,Q
2023-03-15 22:02:33:132,0,-2.46728,-4.49534,-20.4513,Q,Q
2023-03-15 22:02:33:142,0,-2.43327,-4.49777,-20.4292,Q,Q
2023-03-15 22:02:33:152,0,-2.40561,-4.50404,-20.404,Q,Q
2023-03-15 22:02:33:162,0,-2.38125,-4.50975,-20.3736,Q,Q
2023-03-15 22:02:33:172,0,-2.35961,-4.51935,-20.3457,Q,Q
2023-03-15 22:02:33:182,0,-2.34298,-4.52584,-20.318,Q,Q
2023-03-15 22:02:33:192,0,-2.32835,-4.53264,-20.2924,Q,Q
2023-03-15 22:02:33:202,0,-2.31501,-4.53837,-20.2627,Q,Q
2023-03-15 22:02:33:212,0,-2.29865,-4.54181,-20.237,Q,Q
2023-03-15 22:02:33:222,0,-2.28512,-4.54865,-20.2101,Q,Q
2023-03-15 22:02:33:232,0,-2.27039,-4.55236,-20.19,Q,Q
2023-03-15 22:02:33:242,0,-2.25594,-4.55705,-20.1721,Q,Q
2023-03-15 22:02:33:252,0,-2.24321,-4.56228,-20.1591,Q,Q
2023-03-15 22:02:33:262,0,-2.23431,-4.56874,-20.1507,Q,Q
2023-03-15 22:02:33:272,0,-2.22799,-4.57497,-20.1472,Q,Q
2023-03-15 22:02:33:282,0,-2.22592,-4.57703,-20.1462,Q,Q
2023-03-15 22:02:33:292,0,-2.22031,-4.58555,-20.146,Q,Q
2023-03-15 22:02:33:302,0,-2.21507,-4.59384,-20.1497,Q,Q
2023-03-15 22:02:33:312,0,-2.21101,-4.59778,-20.1543,Q,Q
2023-03-15 22:02:33:322,0,-2.20273,-4.60588,-20.158,Q,Q
2023-03-15 22:02:33:332,0,-2.19683,-4.60818,-20.1607,Q,Q
2023-03-15 22:02:33:342,0,-2.18793,-4.61371,-20.1609,Q,Q
2023-03-15 22:02:33:352,0,-2.18363,-4.61912,-20.1574,Q,Q
2023-03-15 22:02:33:362,0,-2.17734,-4.62292,-20.1553,Q,Q
2023-03-15 22:02:33:372,0,-2.17904,-4.62832,-20.1492,Q,Q
2023-03-15 22:02:33:382,0,-2.1832,-4.63091,-20.1427,Q,Q
2023-03-15 22:02:33:392,0,-2.18612,-4.63457,-20.1365,Q,Q
2023-03-15 22:02:33:402,0,-2.18744,-4.63871,-20.1319,Q,Q
2023-03-15 22:02:33:412,0,-2.19055,-4.64148,-20.1272,Q,Q
2023-03-15 22:02:33:422,0,-2.19063,-4.64771,-20.1247,Q,Q
2023-03-15 22:02:33:432,0,-2.18474,-4.65093,-20.1228,Q,Q
2023-03-15 22:02:33:442,0,-2.17182,-4.65502,-20.1266,Q,Q
2023-03-15 22:02:33:452,0,-2.15534,-4.66041,-20.1308,Q,Q
2023-03-15 22:02:33:462,0,-2.14245,-4.67065,-20.1371,Q,Q
2023-03-15 22:02:33:472,0,-2.13683,-4.67982,-20.1476,Q,Q
2023-03-15 22:02:33:482,0,-2.13489,-4.68808,-20.1633,Q,Q
2023-03-15 22:02:33:492,0,-2.13571,-4.69167,-20.1844,Q,Q
2023-03-15 22:02:33:502,0,-2.13265,-4.69863,-20.2094,Q,Q
2023-03-15 22:02:33:512,0,-2.12904,-4.70775,-20.234,Q,Q
2023-03-15 22:02:33:522,0,-2.13051,-4.72013,-20.2568,Q,Q
2023-03-15 22:02:33:532,0,-2.13247,-4.73857,-20.2775,Q,Q
2023-03-15 22:02:33:542,0,-2.13869,-4.758,-20.2952,Q,Q
2023-03-15 22:02:33:552,0,-2.14806,-4.77316,-20.3127,Q,Q
2023-03-15 22:02:33:562,0,-2.1618,-4.78854,-20.3278,Q,Q
2023-03-15 22:02:33:572,0,-2.17816,-4.79744,-20.338,Q,Q
2023-03-15 22:02:33:582,0,-2.19491,-4.8083,-20.344,Q,Q
2023-03-15 22:02:33:592,0,-2.21529,-4.81581,-20.3454,Q,Q
2023-03-15 22:02:33:602,0,-2.23914,-4.82595,-20.3403,Q,Q
2023-03-15 22:02:33:612,0,-2.2585,-4.83397,-20.3331,Q,Q
2023-03-15 22:02:33:622,0,-2.28003,-4.84024,-20.3233,Q,Q
2023-03-15 22:02:33:632,0,-2.30096,-4.84016,-20.3168,Q,Q
2023-03-15 22:02:33:643,0,-2.3183,-4.84045,-20.3082,Q,Q
2023-03-15 22:02:33:652,0,-2.33039,-4.84029,-20.2995,Q,Q
2023-03-15 22:02:33:663,0,-2.33946,-4.8382,-20.2947,Q,Q
2023-03-15 22:02:33:672,0,-2.35032,-4.83581,-20.2869,Q,Q
2023-03-15 22:02:33:682,0,-2.3611,-4.83812,-20.2786,Q,Q
2023-03-15 22:02:33:692,0,-2.37331,-4.84037,-20.273,Q,Q
2023-03-15 22:02:33:702,0,-2.38748,-4.83981,-20.2723,Q,Q
2023-03-15 22:02:33:712,0,-2.39879,-4.84013,-20.2731,Q,Q
2023-03-15 22:02:33:722,0,-2.40897,-4.83826,-20.2764,Q,Q
2023-03-15 22:02:33:732,0,-2.41897,-4.83686,-20.2779,Q,Q
2023-03-15 22:02:33:743,0,-2.43146,-4.83929,-20.281,Q,Q
2023-03-15 22:02:33:752,0,-2.44292,-4.83806,-20.2839,Q,Q
2023-03-15 22:02:33:762,0,-2.45204,-4.83738,-20.281,Q,Q
2023-03-15 22:02:33:773,0,-2.46184,-4.837,-20.2799,Q,Q
2023-03-15 22:02:33:783,0,-2.47318,-4.8339,-20.2811,Q,Q
2023-03-15 22:02:33:792,0,-2.48296,-4.82858,-20.2789,Q,Q
2023-03-15 22:02:33:802,0,-2.4977,-4.82483,-20.2745,Q,Q
2023-03-15 22:02:33:812,0,-2.51389,-4.81787,-20.2696,Q,Q
2023-03-15 22:02:33:822,0,-2.53074,-4.81582,-20.2655,Q,Q
2023-03-15 22:02:33:832,0,-2.54814,-4.81443,-20.263,Q,Q
2023-03-15 22:02:33:843,0,-2.56439,-4.81548,-20.2568,Q,Q
2023-03-15 22:02:33:852,0,-2.57846,-4.81572,-20.2556,Q,Q
2023-03-15 22:02:33:863,0,-2.59238,-4.81651,-20.2522,Q,Q
2023-03-15 22:02:33:872,0,-2.60455,-4.81609,-20.2462,Q,Q
2023-03-15 22:02:33:882,0,-2.61648,-4.81709,-20.2463,Q,Q
2023-03-15 22:02:33:892,0,-2.6317,-4.81612,-20.2467,Q,Q
2023-03-15 22:02:33:902,0,-2.64366,-4.81692,-20.2446,Q,Q
2023-03-15 22:02:33:912,0,-2.65486,-4.81804,-20.2437,Q,Q
2023-03-15 22:02:33:922,0,-2.66634,-4.82128,-20.24,Q,Q
2023-03-15 22:02:33:932,0,-2.67587,-4.82194,-20.2391,Q,Q
2023-03-15 22:02:33:942,0,-2.68733,-4.82309,-20.2372,Q,Q
2023-03-15 22:02:33:952,0,-2.69767,-4.82551,-20.2344,Q,Q
2023-03-15 22:02:33:962,0,-2.70506,-4.82373,-20.2291,Q,Q
2023-03-15 22:02:33:972,0,-2.70889,-4.82681,-20.2248,Q,Q
2023-03-15 22:02:33:982,0,-2.71575,-4.83008,-20.2225,Q,Q
2023-03-15 22:02:33:992,0,-2.72416,-4.82988,-20.2171,Q,Q
2023-03-15 22:02:34:2,0,-2.73033,-4.82967,-20.2159,Q,Q
2023-03-15 22:02:34:12,0,-2.73684,-4.8308,-20.2148,Q,Q
2023-03-15 22:02:34:22,0,-2.74464,-4.83145,-20.2165,Q,Q
2023-03-15 22:02:34:32,0,-2.75108,-4.82931,-20.2204,Q,Q
2023-03-15 22:02:34:42,0,-2.76007,-4.82967,-20.2208,Q,Q
2023-03-15 22:02:34:52,0,-2.77124,-4.8321,-20.2258,Q,Q
2023-03-15 22:02:34:62,0,-2.77499,-4.83296,-20.2285,Q,Q
2023-03-15 22:02:34:72,0,-2.77951,-4.8388,-20.2314,Q,Q
2023-03-15 22:02:34:82,0,-2.78562,-4.84074,-20.2332,Q,Q
2023-03-15 22:02:34:92,0,-2.7902,-4.84246,-20.2377,Q,Q
2023-03-15 22:02:34:102,0,-2.79294,-4.84633,-20.2407,Q,Q
2023-03-15 22:02:34:112,0,-2.79511,-4.84611,-20.2397,Q,Q
2023-03-15 22:02:34:123,0,-2.79721,-4.84449,-20.238,Q,Q
2023-03-15 22:02:34:132,0,-2.80032,-4.84277,-20.2409,Q,Q
2023-03-15 22:02:34:143,0,-2.80123,-4.83842,-20.242,Q,Q
2023-03-15 22:02:34:152,0,-2.80296,-4.83482,-20.2388,Q,Q
2023-03-15 22:02:34:163,0,-2.80077,-4.83496,-20.2337,Q,Q
2023-03-15 22:02:34:172,0,-2.80072,-4.84368,-20.2301,Q,Q
2023-03-15 22:02:34:183,0,-2.80228,-4.85686,-20.2294,Q,Q
2023-03-15 22:02:34:192,0,-2.80696,-4.87197,-20.2266,Q,Q
2023-03-15 22:02:34:203,0,-2.81579,-4.88455,-20.2231,Q,Q
2023-03-15 22:02:34:212,0,-2.82702,-4.89326,-20.2225,Q,Q
2023-03-15 22:02:34:223,0,-2.83959,-4.90237,-20.218,Q,Q
2023-03-15 22:02:34:232,0,-2.8619,-4.91236,-20.2129,Q,Q
2023-03-15 22:02:34:243,0,-2.88275,-4.92072,-20.207,Q,Q
2023-03-15 22:02:34:252,0,-2.9066,-4.93307,-20.2024,Q,Q
2023-03-15 22:02:34:262,0,-2.92649,-4.93895,-20.1978,Q,Q
2023-03-15 22:02:34:272,0,-2.94665,-4.9474,-20.1913,Q,Q
2023-03-15 22:02:34:282,0,-2.96286,-4.9513,-20.1845,Q,Q
2023-03-15 22:02:34:292,0,-2.97577,-4.95751,-20.1887,Q,Q
2023-03-15 22:02:34:303,0,-2.9854,-4.95851,-20.1896,Q,Q
2023-03-15 22:02:34:312,0,-2.98957,-4.96456,-20.1962,Q,Q
2023-03-15 22:02:34:323,0,-2.99359,-4.96494,-20.2037,Q,Q
2023-03-15 22:02:34:332,0,-2.99394,-4.96698,-20.2083,Q,Q
2023-03-15 22:02:34:342,0,-2.99452,-4.97027,-20.2135,Q,Q
2023-03-15 22:02:34:352,0,-2.98985,-4.97297,-20.2186,Q,Q
2023-03-15 22:02:34:362,0,-2.98679,-4.97343,-20.2238,Q,Q
2023-03-15 22:02:34:372,0,-2.98225,-4.97314,-20.2281,Q,Q
2023-03-15 22:02:34:383,0,-2.97644,-4.97834,-20.2349,Q,Q
2023-03-15 22:02:34:392,0,-2.97001,-4.9788,-20.2404,Q,Q
2023-03-15 22:02:34:403,0,-2.96552,-4.98214,-20.2418,Q,Q
2023-03-15 22:02:34:413,0,-2.9582,-4.98603,-20.2438,Q,Q
2023-03-15 22:02:34:423,0,-2.95248,-4.98766,-20.2414,Q,Q
2023-03-15 22:02:34:432,0,-2.94714,-4.99038,-20.2376,Q,Q
2023-03-15 22:02:34:443,0,-2.9376,-4.99314,-20.2328,Q,Q
2023-03-15 22:02:34:453,0,-2.93806,-4.99359,-20.2246,Q,Q
2023-03-15 22:02:34:463,0,-2.93527,-4.99564,-20.2186,Q,Q
2023-03-15 22:02:34:472,0,-2.93643,-4.99724,-20.2139,Q,Q
2023-03-15 22:02:34:483,0,-2.93616,-4.99847,-20.21,Q,Q
2023-03-15 22:02:34:493,0,-2.93316,-4.99784,-20.2074,Q,Q
2023-03-15 22:02:34:503,0,-2.93056,-4.99506,-20.2052,Q,Q
2023-03-15 22:02:34:512,0,-2.92787,-4.99113,-20.2043,Q,Q
2023-03-15 22:02:34:522,0,-2.9198,-4.98983,-20.2069,Q,Q
2023-03-15 22:02:34:532,0,-2.91365,-4.99324,-20.2099,Q,Q
2023-03-15 22:02:34:543,0,-2.90466,-4.99629,-20.2122,Q,Q
2023-03-15 22:02:34:552,0,-2.8973,-4.99723,-20.2152,Q,Q
2023-03-15 22:02:34:562,0,-2.88544,-4.99846,-20.2193,Q,Q
2023-03-15 22:02:34:572,0,-2.87175,-4.99922,-20.219,Q,Q
2023-03-15 22:02:34:583,0,-2.86016,-4.99644,-20.2183,Q,Q
2023-03-15 22:02:34:592,0,-2.84556,-4.99344,-20.2129,Q,Q
2023-03-15 22:02:34:602,0,-2.83385,-4.99079,-20.2022,Q,Q
2023-03-15 22:02:34:612,0,-2.82295,-4.98528,-20.1907,Q,Q
2023-03-15 22:02:34:623,0,-2.80851,-4.98588,-20.1803,Q,Q
2023-03-15 22:02:34:632,0,-2.79945,-4.98508,-20.1652,Q,Q
2023-03-15 22:02:34:643,0,-2.79145,-4.98535,-20.1546,Q,Q
2023-03-15 22:02:34:653,0,-2.78412,-4.98929,-20.1458,Q,Q
2023-03-15 22:02:34:663,0,-2.77674,-4.98885,-20.1363,Q,Q
2023-03-15 22:02:34:673,0,-2.77335,-4.98731,-20.1291,Q,Q
2023-03-15 22:02:34:683,0,-2.77234,-4.98979,-20.1202,Q,Q
2023-03-15 22:02:34:693,0,-2.77229,-4.9932,-20.1146,Q,Q
2023-03-15 22:02:34:703,0,-2.77361,-4.99403,-20.1115,Q,Q
2023-03-15 22:02:34:712,0,-2.77439,-4.98937,-20.1101,Q,Q
2023-03-15 22:02:34:722,0,-2.77454,-4.98389,-20.1082,Q,Q
2023-03-15 22:02:34:733,0,-2.77703,-4.98206,-20.1084,Q,Q
2023-03-15 22:02:34:743,0,-2.77976,-4.98124,-20.1058,Q,Q
2023-03-15 22:02:34:753,0,-2.77659,-4.97906,-20.1005,Q,Q
2023-03-15 22:02:34:763,0,-2.77557,-4.97313,-20.0993,Q,Q
2023-03-15 22:02:34:773,0,-2.77495,-4.96348,-20.1015,Q,Q
2023-03-15 22:02:34:783,0,-2.7786,-4.94954,-20.1025,Q,Q
2023-03-15 22:02:34:793,0,-2.78045,-4.93954,-20.1058,Q,Q
2023-03-15 22:02:34:803,0,-2.78013,-4.93426,-20.1055,Q,Q
2023-03-15 22:02:34:813,0,-2.78321,-4.93578,-20.1053,Q,Q
2023-03-15 22:02:34:822,0,-2.78942,-4.93851,-20.108,Q,Q
2023-03-15 22:02:34:833,0,-2.79633,-4.94303,-20.1083,Q,Q
2023-03-15 22:02:34:843,0,-2.80512,-4.94534,-20.1099,Q,Q
2023-03-15 22:02:34:852,0,-2.81967,-4.94557,-20.1119,Q,Q
2023-03-15 22:02:34:863,0,-2.84096,-4.945,-20.1086,Q,Q
2023-03-15 22:02:34:872,0,-2.86565,-4.939,-20.1049,Q,Q
2023-03-15 22:02:34:882,0,-2.89263,-4.93703,-20.1039,Q,Q
2023-03-15 22:02:34:892,0,-2.92357,-4.93509,-20.0993,Q,Q
2023-03-15 22:02:34:902,0,-2.95581,-4.93212,-20.0982,Q,Q
2023-03-15 22:02:34:912,0,-2.98297,-4.92784,-20.0956,Q,Q
2023-03-15 22:02:34:923,0,-3.00923,-4.92558,-20.0978,Q,Q
2023-03-15 22:02:34:932,0,-3.03193,-4.91943,-20.1038,Q,Q
2023-03-15 22:02:34:942,0,-3.05086,-4.91668,-20.1114,Q,Q
2023-03-15 22:02:34:953,0,-3.06488,-4.91412,-20.1266,Q,Q
2023-03-15 22:02:34:963,0,-3.0762,-4.90813,-20.1449,Q,Q
2023-03-15 22:02:34:972,0,-3.08363,-4.90884,-20.1685,Q,Q
2023-03-15 22:02:34:982,0,-3.08836,-4.90477,-20.1907,Q,Q
2023-03-15 22:02:34:992,0,-3.09164,-4.90871,-20.2144,Q,Q
2023-03-15 22:02:35:3,0,-3.08983,-4.90415,-20.2417,Q,Q
2023-03-15 22:02:35:12,0,-3.0871,-4.90155,-20.263,Q,Q
2023-03-15 22:02:35:22,0,-3.08139,-4.90258,-20.2825,Q,Q
2023-03-15 22:02:35:33,0,-3.07487,-4.9068,-20.296,Q,Q
2023-03-15 22:02:35:43,0,-3.06959,-4.91589,-20.3035,Q,Q
2023-03-15 22:02:35:53,0,-3.06536,-4.92314,-20.3115,Q,Q
2023-03-15 22:02:35:62,0,-3.0618,-4.9275,-20.3147,Q,Q
2023-03-15 22:02:35:72,0,-3.05992,-4.93345,-20.3137,Q,Q
2023-03-15 22:02:35:83,0,-3.05763,-4.93724,-20.3053,Q,Q
2023-03-15 22:02:35:93,0,-3.05868,-4.94138,-20.2938,Q,Q
2023-03-15 22:02:35:103,0,-3.06178,-4.94501,-20.2803,Q,Q
2023-03-15 22:02:35:112,0,-3.06458,-4.94953,-20.2679,Q,Q
2023-03-15 22:02:35:123,0,-3.06808,-4.95139,-20.2535,Q,Q
2023-03-15 22:02:35:132,0,-3.07221,-4.9538,-20.2448,Q,Q
2023-03-15 22:02:35:142,0,-3.0732,-4.95751,-20.2366,Q,Q
2023-03-15 22:02:35:152,0,-3.07163,-4.95872,-20.2304,Q,Q
2023-03-15 22:02:35:163,0,-3.06888,-4.96086,-20.2269,Q,Q
2023-03-15 22:02:35:173,0,-3.06685,-4.96198,-20.223,Q,Q
2023-03-15 22:02:35:182,0,-3.06092,-4.96431,-20.2262,Q,Q
2023-03-15 22:02:35:192,0,-3.05457,-4.96289,-20.2296,Q,Q
2023-03-15 22:02:35:203,0,-3.0464,-4.95955,-20.2339,Q,Q
2023-03-15 22:02:35:213,0,-3.03774,-4.95579,-20.2358,Q,Q
2023-03-15 22:02:35:223,0,-3.03079,-4.95301,-20.2368,Q,Q
2023-03-15 22:02:35:233,0,-3.02206,-4.94798,-20.2317,Q,Q
2023-03-15 22:02:35:243,0,-3.01453,-4.94038,-20.225,Q,Q
2023-03-15 22:02:35:253,0,-3.0131,-4.9303,-20.2172,Q,Q
2023-03-15 22:02:35:263,0,-3.01496,-4.91908,-20.2053,Q,Q
2023-03-15 22:02:35:272,0,-3.01947,-4.90855,-20.1939,Q,Q
2023-03-15 22:02:35:283,0,-3.02809,-4.89721,-20.1772,Q,Q
2023-03-15 22:02:35:293,0,-3.03798,-4.88657,-20.1616,Q,Q
2023-03-15 22:02:35:303,0,-3.04718,-4.87518,-20.1483,Q,Q
2023-03-15 22:02:35:313,0,-3.05765,-4.86182,-20.1375,Q,Q
2023-03-15 22:02:35:323,0,-3.06903,-4.84964,-20.1264,Q,Q
2023-03-15 22:02:35:333,0,-3.07911,-4.83582,-20.1176,Q,Q
2023-03-15 22:02:35:343,0,-3.08534,-4.82782,-20.1131,Q,Q
2023-03-15 22:02:35:352,0,-3.09289,-4.81843,-20.1089,Q,Q
2023-03-15 22:02:35:363,0,-3.0991,-4.80569,-20.1067,Q,Q
2023-03-15 22:02:35:372,0,-3.10431,-4.79453,-20.1083,Q,Q
2023-03-15 22:02:35:382,0,-3.10794,-4.78625,-20.1083,Q,Q
2023-03-15 22:02:35:393,0,-3.10728,-4.7749,-20.1105,Q,Q
2023-03-15 22:02:35:403,0,-3.10468,-4.76093,-20.108,Q,Q
2023-03-15 22:02:35:413,0,-3.09594,-4.74829,-20.1052,Q,Q
2023-03-15 22:02:35:423,0,-3.08753,-4.73639,-20.1024,Q,Q
2023-03-15 22:02:35:433,0,-3.07836,-4.72178,-20.0991,Q,Q
2023-03-15 22:02:35:443,0,-3.07423,-4.70941,-20.0904,Q,Q
2023-03-15 22:02:35:453,0,-3.06977,-4.6958,-20.0861,Q,Q
2023-03-15 22:02:35:463,0,-3.06184,-4.68348,-20.0832,Q,Q
2023-03-15 22:02:35:473,0,-3.05695,-4.67221,-20.0762,Q,Q
2023-03-15 22:02:35:483,0,-3.05556,-4.66964,-20.0732,Q,Q
2023-03-15 22:02:35:493,0,-3.05734,-4.67402,-20.0746,Q,Q
2023-03-15 22:02:35:503,0,-3.0633,-4.67942,-20.0736,Q,Q
2023-03-15 22:02:35:513,0,-3.07269,-4.68209,-20.0758,Q,Q
2023-03-15 22:02:35:523,0,-3.08633,-4.68539,-20.0773,Q,Q
2023-03-15 22:02:35:532,0,-3.10023,-4.69205,-20.0783,Q,Q
2023-03-15 22:02:35:542,0,-3.11607,-4.6984,-20.0785,Q,Q
2023-03-15 22:02:35:552,0,-3.13201,-4.70766,-20.08,Q,Q
2023-03-15 22:02:35:562,0,-3.14105,-4.71761,-20.0835,Q,Q
2023-03-15 22:02:35:572,0,-3.14908,-4.7231,-20.0873,Q,Q
2023-03-15 22:02:35:582,0,-3.15406,-4.73156,-20.0966,Q,Q
2023-03-15 22:02:35:592,0,-3.15457,-4.73418,-20.1061,Q,Q
2023-03-15 22:02:35:602,0,-3.14814,-4.73669,-20.1189,Q,Q
2023-03-15 22:02:35:612,0,-3.1393,-4.73798,-20.135,Q,Q
2023-03-15 22:02:35:622,0,-3.12553,-4.73902,-20.1546,Q,Q
2023-03-15 22:02:35:632,0,-3.1081,-4.74045,-20.1749,Q,Q
2023-03-15 22:02:35:643,0,-3.08812,-4.7441,-20.1933,Q,Q
2023-03-15 22:02:35:652,0,-3.06708,-4.74162,-20.2128,Q,Q
2023-03-15 22:02:35:662,0,-3.04314,-4.73931,-20.2332,Q,Q
2023-03-15 22:02:35:672,0,-3.01484,-4.73441,-20.2495,Q,Q
2023-03-15 22:02:35:683,0,-2.98495,-4.72522,-20.2591,Q,Q
2023-03-15 22:02:35:693,0,-2.95327,-4.71379,-20.2651,Q,Q
2023-03-15 22:02:35:703,0,-2.92476,-4.70196,-20.2678,Q,Q
2023-03-15 22:02:35:713,0,-2.89448,-4.69226,-20.2677,Q,Q
2023-03-15 22:02:35:723,0,-2.87034,-4.6772,-20.2601,Q,Q
2023-03-15 22:02:35:733,0,-2.84226,-4.65799,-20.2513,Q,Q
2023-03-15 22:02:35:743,0,-2.81745,-4.63878,-20.243,Q,Q
2023-03-15 22:02:35:753,0,-2.79445,-4.61718,-20.2345,Q,Q
2023-03-15 22:02:35:763,0,-2.77354,-4.59431,-20.2254,Q,Q
2023-03-15 22:02:35:773,0,-2.75179,-4.57739,-20.2161,Q,Q
2023-03-15 22:02:35:783,0,-2.73488,-4.55724,-20.2158,Q,Q
2023-03-15 22:02:35:793,0,-2.72113,-4.53994,-20.2101,Q,Q
2023-03-15 22:02:35:803,0,-2.70862,-4.52411,-20.2079,Q,Q
2023-03-15 22:02:35:813,0,-2.69628,-4.50612,-20.2072,Q,Q
2023-03-15 22:02:35:823,0,-2.68528,-4.49309,-20.213,Q,Q
2023-03-15 22:02:35:833,0,-2.6711,-4.47906,-20.2205,Q,Q
2023-03-15 22:02:35:843,0,-2.65523,-4.46034,-20.2317,Q,Q
2023-03-15 22:02:35:853,0,-2.63953,-4.44145,-20.2468,Q,Q
2023-03-15 22:02:35:863,0,-2.62356,-4.42348,-20.2649,Q,Q
2023-03-15 22:02:35:873,0,-2.6062,-4.39885,-20.2876,Q,Q
2023-03-15 22:02:35:883,0,-2.58345,-4.37214,-20.3135,Q,Q
2023-03-15 22:02:35:893,0,-2.56307,-4.34748,-20.3386,Q,Q
2023-03-15 22:02:35:903,0,-2.5439,-4.31761,-20.3681,Q,Q
2023-03-15 22:02:35:913,0,-2.52439,-4.28398,-20.3913,Q,Q
2023-03-15 22:02:35:923,0,-2.50624,-4.2509,-20.4108,Q,Q
2023-03-15 22:02:35:933,0,-2.4926,-4.21839,-20.4239,Q,Q
2023-03-15 22:02:35:943,0,-2.48452,-4.18745,-20.4318,Q,Q
2023-03-15 22:02:35:953,0,-2.48022,-4.15829,-20.4369,Q,Q
2023-03-15 22:02:35:963,0,-2.47914,-4.12905,-20.4356,Q,Q
2023-03-15 22:02:35:973,0,-2.47605,-4.10302,-20.4265,Q,Q
2023-03-15 22:02:35:983,0,-2.47425,-4.0824,-20.4198,Q,Q
2023-03-15 22:02:35:993,0,-2.47535,-4.06374,-20.4084,Q,Q
2023-03-15 22:02:36:3,0,-2.47582,-4.04935,-20.3945,Q,Q
2023-03-15 22:02:36:13,0,-2.47754,-4.03677,-20.3802,Q,Q
2023-03-15 22:02:36:23,0,-2.48156,-4.03105,-20.3672,Q,Q
2023-03-15 22:02:36:33,0,-2.48572,-4.02513,-20.3539,Q,Q
2023-03-15 22:02:36:42,0,-2.49237,-4.02592,-20.344,Q,Q
2023-03-15 22:02:36:52,0,-2.49801,-4.02817,-20.3339,Q,Q
2023-03-15 22:02:36:63,0,-2.50955,-4.03384,-20.3272,Q,Q
2023-03-15 22:02:36:73,0,-2.52508,-4.03656,-20.3229,Q,Q
2023-03-15 22:02:36:83,0,-2.5409,-4.03806,-20.3162,Q,Q
2023-03-15 22:02:36:93,0,-2.55155,-4.03787,-20.3136,Q,Q
2023-03-15 22:02:36:103,0,-2.56508,-4.04149,-20.31,Q,Q
2023-03-15 22:02:36:113,0,-2.57695,-4.04933,-20.2984,Q,Q
2023-03-15 22:02:36:123,0,-2.59451,-4.05711,-20.2823,Q,Q
2023-03-15 22:02:36:133,0,-2.61496,-4.07045,-20.2652,Q,Q
2023-03-15 22:02:36:143,0,-2.63881,-4.0843,-20.2455,Q,Q
2023-03-15 22:02:36:153,0,-2.6696,-4.09532,-20.2279,Q,Q
2023-03-15 22:02:36:163,0,-2.70384,-4.10312,-20.2101,Q,Q
2023-03-15 22:02:36:173,0,-2.73971,-4.11091,-20.1969,Q,Q
2023-03-15 22:02:36:183,0,-2.78317,-4.11713,-20.1814,Q,Q
2023-03-15 22:02:36:193,0,-2.82784,-4.1288,-20.168,Q,Q
2023-03-15 22:02:36:203,0,-2.87426,-4.14131,-20.1575,Q,Q
2023-03-15 22:02:36:213,0,-2.91729,-4.15595,-20.1523,Q,Q
2023-03-15 22:02:36:223,0,-2.96275,-4.17078,-20.1516,Q,Q
2023-03-15 22:02:36:233,0,-3.00854,-4.18555,-20.1544,Q,Q
2023-03-15 22:02:36:243,0,-3.05104,-4.19752,-20.1565,Q,Q
2023-03-15 22:02:36:253,0,-3.09204,-4.20447,-20.1596,Q,Q
2023-03-15 22:02:36:263,0,-3.12632,-4.2134,-20.1675,Q,Q
2023-03-15 22:02:36:272,0,-3.15845,-4.22366,-20.1773,Q,Q
2023-03-15 22:02:36:283,0,-3.18785,-4.23269,-20.1872,Q,Q
2023-03-15 22:02:36:293,0,-3.21513,-4.24478,-20.1979,Q,Q
2023-03-15 22:02:36:303,0,-3.23709,-4.24932,-20.2048,Q,Q
2023-03-15 22:02:36:313,0,-3.25981,-4.25431,-20.2121,Q,Q
2023-03-15 22:02:36:323,0,-3.27734,-4.2557,-20.2188,Q,Q
2023-03-15 22:02:36:333,0,-3.28862,-4.26056,-20.222,Q,Q
2023-03-15 22:02:36:343,0,-3.30008,-4.26737,-20.2279,Q,Q
2023-03-15 22:02:36:353,0,-3.30946,-4.27571,-20.2346,Q,Q
2023-03-15 22:02:36:363,0,-3.31212,-4.28607,-20.2403,Q,Q
2023-03-15 22:02:36:373,0,-3.31515,-4.2972,-20.2464,Q,Q
2023-03-15 22:02:36:383,0,-3.31572,-4.30745,-20.2504,Q,Q
2023-03-15 22:02:36:392,0,-3.3118,-4.31692,-20.2555,Q,Q
2023-03-15 22:02:36:403,0,-3.30584,-4.32616,-20.2609,Q,Q
2023-03-15 22:02:36:413,0,-3.2984,-4.33542,-20.264,Q,Q
2023-03-15 22:02:36:423,0,-3.29115,-4.34559,-20.267,Q,Q
2023-03-15 22:02:36:433,0,-3.27741,-4.35641,-20.2658,Q,Q
2023-03-15 22:02:36:443,0,-3.26612,-4.36949,-20.2657,Q,Q
2023-03-15 22:02:36:453,0,-3.25199,-4.38172,-20.2634,Q,Q
2023-03-15 22:02:36:463,0,-3.23775,-4.39295,-20.2621,Q,Q
2023-03-15 22:02:36:473,0,-3.22248,-4.40336,-20.2579,Q,Q
2023-03-15 22:02:36:483,0,-3.20469,-4.41207,-20.2558,Q,Q
2023-03-15 22:02:36:493,0,-3.18637,-4.41673,-20.254,Q,Q
2023-03-15 22:02:36:503,0,-3.16843,-4.42606,-20.2499,Q,Q
2023-03-15 22:02:36:513,0,-3.15133,-4.43307,-20.2439,Q,Q
2023-03-15 22:02:36:523,0,-3.13643,-4.44165,-20.2359,Q,Q
2023-03-15 22:02:36:533,0,-3.11878,-4.44766,-20.2328,Q,Q
2023-03-15 22:02:36:543,0,-3.1023,-4.45278,-20.2238,Q,Q
2023-03-15 22:02:36:553,0,-3.0904,-4.45702,-20.2192,Q,Q
2023-03-15 22:02:36:563,0,-3.07923,-4.45667,-20.215,Q,Q
2023-03-15 22:02:36:573,0,-3.06847,-4.45883,-20.2077,Q,Q
2023-03-15 22:02:36:583,0,-3.06302,-4.45423,-20.2034,Q,Q
2023-03-15 22:02:36:593,0,-3.05335,-4.44809,-20.1992,Q,Q
2023-03-15 22:02:36:603,0,-3.04882,-4.43981,-20.1956,Q,Q
2023-03-15 22:02:36:612,0,-3.04465,-4.43461,-20.1978,Q,Q
2023-03-15 22:02:36:622,0,-3.04339,-4.42806,-20.2024,Q,Q
2023-03-15 22:02:36:633,0,-3.04057,-4.42053,-20.2104,Q,Q
2023-03-15 22:02:36:643,0,-3.03595,-4.41235,-20.2189,Q,Q
2023-03-15 22:02:36:653,0,-3.03257,-4.40628,-20.2287,Q,Q
2023-03-15 22:02:36:663,0,-3.02897,-4.39962,-20.2425,Q,Q
2023-03-15 22:02:36:673,0,-3.02683,-4.39388,-20.2552,Q,Q
2023-03-15 22:02:36:683,0,-3.02328,-4.38557,-20.2653,Q,Q
2023-03-15 22:02:36:693,0,-3.02125,-4.37973,-20.2751,Q,Q
2023-03-15 22:02:36:703,0,-3.0133,-4.37434,-20.2827,Q,Q
2023-03-15 22:02:36:713,0,-3.00211,-4.36886,-20.2861,Q,Q
2023-03-15 22:02:36:723,0,-2.994,-4.365,-20.2902,Q,Q
2023-03-15 22:02:36:733,0,-2.9848,-4.35849,-20.2887,Q,Q
2023-03-15 22:02:36:743,0,-2.97822,-4.35349,-20.2856,Q,Q
2023-03-15 22:02:36:753,0,-2.97015,-4.34528,-20.2821,Q,Q
2023-03-15 22:02:36:763,0,-2.95576,-4.34038,-20.2804,Q,Q
2023-03-15 22:02:36:773,0,-2.94702,-4.33542,-20.2767,Q,Q
2023-03-15 22:02:36:783,0,-2.93708,-4.33849,-20.2704,Q,Q
2023-03-15 22:02:36:793,0,-2.93023,-4.34886,-20.2673,Q,Q
2023-03-15 22:02:36:803,0,-2.92419,-4.36275,-20.2611,Q,Q
2023-03-15 22:02:36:813,0,-2.92135,-4.37905,-20.2576,Q,Q
2023-03-15 22:02:36:823,0,-2.91948,-4.38896,-20.2548,Q,Q
2023-03-15 22:02:36:833,0,-2.92095,-4.39909,-20.2521,Q,Q
2023-03-15 22:02:36:843,0,-2.92625,-4.40749,-20.2485,Q,Q
2023-03-15 22:02:36:853,0,-2.93556,-4.41103,-20.242,Q,Q
2023-03-15 22:02:36:863,0,-2.94706,-4.41294,-20.2355,Q,Q
2023-03-15 22:02:36:873,0,-2.95514,-4.417,-20.2293,Q,Q
2023-03-15 22:02:36:883,0,-2.96773,-4.41729,-20.2268,Q,Q
2023-03-15 22:02:36:893,0,-2.9746,-4.41532,-20.2251,Q,Q
2023-03-15 22:02:36:903,0,-2.97893,-4.40969,-20.2268,Q,Q
2023-03-15 22:02:36:912,0,-2.97855,-4.4011,-20.2282,Q,Q
2023-03-15 22:02:36:923,0,-2.97776,-4.39167,-20.2329,Q,Q
2023-03-15 22:02:36:933,0,-2.97229,-4.38742,-20.2415,Q,Q
2023-03-15 22:02:36:943,0,-2.96877,-4.3799,-20.2542,Q,Q
2023-03-15 22:02:36:953,0,-2.96002,-4.37326,-20.2683,Q,Q
2023-03-15 22:02:36:963,0,-2.95384,-4.37195,-20.2845,Q,Q
2023-03-15 22:02:36:973,0,-2.94868,-4.36612,-20.2955,Q,Q
2023-03-15 22:02:36:983,0,-2.94555,-4.36157,-20.3085,Q,Q
2023-03-15 22:02:36:993,0,-2.94592,-4.35282,-20.324,Q,Q
2023-03-15 22:02:37:3,0,-2.94294,-4.34368,-20.3376,Q,Q
2023-03-15 22:02:37:13,0,-2.93915,-4.33677,-20.3448,Q,Q
2023-03-15 22:02:37:23,0,-2.93582,-4.33014,-20.3506,Q,Q
2023-03-15 22:02:37:32,0,-2.92796,-4.32366,-20.3501,Q,Q
2023-03-15 22:02:37:43,0,-2.92608,-4.31863,-20.3478,Q,Q
2023-03-15 22:02:37:52,0,-2.92639,-4.31634,-20.3422,Q,Q
2023-03-15 22:02:37:63,0,-2.92895,-4.30747,-20.3338,Q,Q
2023-03-15 22:02:37:73,0,-2.93434,-4.29977,-20.327,Q,Q
2023-03-15 22:02:37:83,0,-2.93765,-4.29455,-20.3201,Q,Q
2023-03-15 22:02:37:93,0,-2.94213,-4.29002,-20.3065,Q,Q
2023-03-15 22:02:37:103,0,-2.94696,-4.28602,-20.2975,Q,Q
2023-03-15 22:02:37:113,0,-2.94867,-4.28061,-20.2878,Q,Q
2023-03-15 22:02:37:123,0,-2.94974,-4.27728,-20.2796,Q,Q
2023-03-15 22:02:37:133,0,-2.95029,-4.27551,-20.2758,Q,Q
2023-03-15 22:02:37:143,0,-2.94651,-4.27549,-20.2759,Q,Q
2023-03-15 22:02:37:153,0,-2.94242,-4.27578,-20.2783,Q,Q
2023-03-15 22:02:37:163,0,-2.94233,-4.27609,-20.28,Q,Q
2023-03-15 22:02:37:173,0,-2.93748,-4.27678,-20.2826,Q,Q
2023-03-15 22:02:37:183,0,-2.93436,-4.27694,-20.2877,Q,Q
2023-03-15 22:02:37:193,0,-2.93096,-4.27683,-20.293,Q,Q
2023-03-15 22:02:37:203,0,-2.92743,-4.27579,-20.2937,Q,Q
2023-03-15 22:02:37:213,0,-2.92314,-4.27744,-20.294,Q,Q
2023-03-15 22:02:37:223,0,-2.9238,-4.28187,-20.2901,Q,Q
2023-03-15 22:02:37:233,0,-2.92522,-4.28665,-20.2871,Q,Q
2023-03-15 22:02:37:243,0,-2.92532,-4.29233,-20.2808,Q,Q
2023-03-15 22:02:37:253,0,-2.9291,-4.29564,-20.2724,Q,Q
2023-03-15 22:02:37:263,0,-2.93048,-4.29656,-20.2655,Q,Q
2023-03-15 22:02:37:273,0,-2.93288,-4.29753,-20.2624,Q,Q
2023-03-15 22:02:37:283,0,-2.93597,-4.30327,-20.258,Q,Q
2023-03-15 22:02:37:293,0,-2.93878,-4.30869,-20.2519,Q,Q
2023-03-15 22:02:37:303,0,-2.94435,-4.31347,-20.2495,Q,Q
2023-03-15 22:02:37:313,0,-2.94825,-4.32355,-20.2478,Q,Q
2023-03-15 22:02:37:323,0,-2.95746,-4.33348,-20.2444,Q,Q
2023-03-15 22:02:37:333,0,-2.96631,-4.34404,-20.2449,Q,Q
2023-03-15 22:02:37:343,0,-2.97498,-4.34672,-20.2467,Q,Q
2023-03-15 22:02:37:353,0,-2.98346,-4.35312,-20.2494,Q,Q
2023-03-15 22:02:37:363,0,-2.99313,-4.35958,-20.2552,Q,Q
2023-03-15 22:02:37:373,0,-2.99977,-4.36255,-20.2629,Q,Q
2023-03-15 22:02:37:383,0,-3.00786,-4.36695,-20.265,Q,Q
2023-03-15 22:02:37:393,0,-3.01255,-4.3678,-20.2709,Q,Q
2023-03-15 22:02:37:403,0,-3.01794,-4.36584,-20.2755,Q,Q
2023-03-15 22:02:37:413,0,-3.02075,-4.36314,-20.2771,Q,Q
2023-03-15 22:02:37:423,0,-3.02443,-4.35873,-20.2861,Q,Q
2023-03-15 22:02:37:433,0,-3.02479,-4.35366,-20.2926,Q,Q
2023-03-15 22:02:37:443,0,-3.02519,-4.35216,-20.2955,Q,Q
2023-03-15 22:02:37:453,0,-3.03096,-4.35545,-20.2952,Q,Q
2023-03-15 22:02:37:463,0,-3.035,-4.35848,-20.3001,Q,Q
2023-03-15 22:02:37:473,0,-3.0437,-4.35912,-20.3013,Q,Q
2023-03-15 22:02:37:483,0,-3.05554,-4.35613,-20.3017,Q,Q
2023-03-15 22:02:37:493,0,-3.07321,-4.35098,-20.3026,Q,Q
2023-03-15 22:02:37:503,0,-3.09449,-4.34713,-20.3059,Q,Q
2023-03-15 22:02:37:513,0,-3.12519,-4.34146,-20.3088,Q,Q
2023-03-15 22:02:37:523,0,-3.15671,-4.33918,-20.3082,Q,Q
2023-03-15 22:02:37:533,0,-3.18699,-4.33103,-20.314,Q,Q
2023-03-15 22:02:37:543,0,-3.21811,-4.3228,-20.3218,Q,Q
2023-03-15 22:02:37:553,0,-3.24656,-4.31456,-20.3295,Q,Q
2023-03-15 22:02:37:563,0,-3.27344,-4.30366,-20.3394,Q,Q
2023-03-15 22:02:37:573,0,-3.29519,-4.29242,-20.3549,Q,Q
2023-03-15 22:02:37:583,0,-3.31167,-4.2789,-20.3727,Q,Q
2023-03-15 22:02:37:593,0,-3.3233,-4.26795,-20.387,Q,Q
2023-03-15 22:02:37:603,0,-3.33892,-4.2571,-20.4024,Q,Q
2023-03-15 22:02:37:613,0,-3.3536,-4.24864,-20.4178,Q,Q
2023-03-15 22:02:37:623,0,-3.36646,-4.23907,-20.4369,Q,Q
2023-03-15 22:02:37:633,0,-3.38282,-4.23184,-20.451,Q,Q
2023-03-15 22:02:37:643,0,-3.39665,-4.22188,-20.4651,Q,Q
2023-03-15 22:02:37:653,0,-3.40364,-4.21316,-20.4785,Q,Q
2023-03-15 22:02:37:663,0,-3.41049,-4.20224,-20.4874,Q,Q
2023-03-15 22:02:37:673,0,-3.41532,-4.1974,-20.4974,Q,Q
2023-03-15 22:02:37:683,0,-3.42059,-4.19165,-20.5037,Q,Q
2023-03-15 22:02:37:693,0,-3.42579,-4.19171,-20.5074,Q,Q
2023-03-15 22:02:37:703,0,-3.42543,-4.18716,-20.5071,Q,Q
2023-03-15 22:02:37:713,0,-3.42419,-4.18349,-20.5067,Q,Q
2023-03-15 22:02:37:723,0,-3.42404,-4.18235,-20.5073,Q,Q
2023-03-15 22:02:37:733,0,-3.42372,-4.18022,-20.5008,Q,Q
2023-03-15 22:02:37:743,0,-3.42139,-4.18291,-20.4926,Q,Q
2023-03-15 22:02:37:753,0,-3.41695,-4.18582,-20.4864,Q,Q
2023-03-15 22:02:37:763,0,-3.41173,-4.1865,-20.4824,Q,Q
2023-03-15 22:02:37:773,0,-3.40357,-4.18948,-20.4772,Q,Q
2023-03-15 22:02:37:783,0,-3.39428,-4.19323,-20.4718,Q,Q
2023-03-15 22:02:37:793,0,-3.38362,-4.2002,-20.4664,Q,Q
2023-03-15 22:02:37:803,0,-3.36796,-4.20662,-20.4632,Q,Q
2023-03-15 22:02:37:813,0,-3.35367,-4.21235,-20.458,Q,Q
2023-03-15 22:02:37:823,0,-3.33274,-4.21923,-20.458,Q,Q
2023-03-15 22:02:37:833,0,-3.31324,-4.22498,-20.453,Q,Q
2023-03-15 22:02:37:843,0,-3.29409,-4.23208,-20.4472,Q,Q
2023-03-15 22:02:37:853,0,-3.27555,-4.23648,-20.4432,Q,Q
2023-03-15 22:02:37:863,0,-3.2559,-4.24361,-20.4356,Q,Q
2023-03-15 22:02:37:873,0,-3.2402,-4.25121,-20.4244,Q,Q
2023-03-15 22:02:37:883,0,-3.22523,-4.26096,-20.4132,Q,Q
2023-03-15 22:02:37:893,0,-3.21161,-4.26565,-20.4013,Q,Q
2023-03-15 22:02:37:903,0,-3.20179,-4.27295,-20.39,Q,Q
2023-03-15 22:02:37:913,0,-3.19359,-4.28116,-20.376,Q,Q
2023-03-15 22:02:37:923,0,-3.18851,-4.28214,-20.3618,Q,Q
2023-03-15 22:02:37:933,0,-3.18695,-4.28254,-20.3526,Q,Q
2023-03-15 22:02:37:943,0,-3.18823,-4.28605,-20.3447,Q,Q
2023-03-15 22:02:37:953,0,-3.19034,-4.28718,-20.339,Q,Q
2023-03-15 22:02:37:963,0,-3.19074,-4.29401,-20.3378,Q,Q
2023-03-15 22:02:37:973,0,-3.19779,-4.29542,-20.3376,Q,Q
2023-03-15 22:02:37:983,0,-3.20573,-4.29914,-20.3411,Q,Q
2023-03-15 22:02:37:992,0,-3.21297,-4.2971,-20.3454,Q,Q
2023-03-15 22:02:38:2,0,-3.21984,-4.29836,-20.3539,Q,Q
2023-03-15 22:02:38:12,0,-3.22604,-4.29681,-20.3618,Q,Q
2023-03-15 22:02:38:23,0,-3.23251,-4.29443,-20.3712,Q,Q
2023-03-15 22:02:38:32,0,-3.23311,-4.29258,-20.3767,Q,Q
2023-03-15 22:02:38:42,0,-3.23535,-4.28895,-20.3824,Q,Q
2023-03-15 22:02:38:53,0,-3.23551,-4.28648,-20.391,Q,Q
2023-03-15 22:02:38:62,0,-3.23671,-4.28571,-20.3981,Q,Q
2023-03-15 22:02:38:73,0,-3.23859,-4.28183,-20.4032,Q,Q
2023-03-15 22:02:38:83,0,-3.24035,-4.27549,-20.4081,Q,Q
2023-03-15 22:02:38:93,0,-3.23399,-4.26614,-20.4151,Q,Q
2023-03-15 22:02:38:103,0,-3.23159,-4.25625,-20.4201,Q,Q
2023-03-15 22:02:38:113,0,-3.22206,-4.25444,-20.428,Q,Q
2023-03-15 22:02:38:123,0,-3.21585,-4.25756,-20.4345,Q,Q
2023-03-15 22:02:38:133,0,-3.2111,-4.26318,-20.4404,Q,Q
2023-03-15 22:02:38:143,0,-3.20516,-4.26662,-20.4452,Q,Q
2023-03-15 22:02:38:153,0,-3.20208,-4.26962,-20.4521,Q,Q
2023-03-15 22:02:38:163,0,-3.20221,-4.27245,-20.4578,Q,Q
2023-03-15 22:02:38:173,0,-3.20767,-4.27423,-20.461,Q,Q
2023-03-15 22:02:38:183,0,-3.21609,-4.27718,-20.4632,Q,Q
2023-03-15 22:02:38:193,0,-3.22802,-4.28162,-20.4628,Q,Q
2023-03-15 22:02:38:203,0,-3.23755,-4.28379,-20.4624,Q,Q
2023-03-15 22:02:38:213,0,-3.24569,-4.2839,-20.4599,Q,Q
2023-03-15 22:02:38:223,0,-3.24886,-4.28291,-20.4606,Q,Q
2023-03-15 22:02:38:233,0,-3.25672,-4.27996,-20.4619,Q,Q
2023-03-15 22:02:38:243,0,-3.25858,-4.28009,-20.4582,Q,Q
2023-03-15 22:02:38:253,0,-3.25594,-4.27659,-20.4602,Q,Q
2023-03-15 22:02:38:263,0,-3.24817,-4.27773,-20.4607,Q,Q
2023-03-15 22:02:38:273,0,-3.23931,-4.27975,-20.4645,Q,Q
2023-03-15 22:02:38:283,0,-3.23017,-4.28286,-20.4671,Q,Q
2023-03-15 22:02:38:293,0,-3.22029,-4.2856,-20.469,Q,Q
2023-03-15 22:02:38:302,0,-3.21704,-4.2906,-20.4717,Q,Q
2023-03-15 22:02:38:312,0,-3.2125,-4.29445,-20.4783,Q,Q
2023-03-15 22:02:38:322,0,-3.20848,-4.29699,-20.4797,Q,Q
2023-03-15 22:02:38:333,0,-3.20706,-4.29876,-20.4835,Q,Q
2023-03-15 22:02:38:343,0,-3.20358,-4.30344,-20.4874,Q,Q
2023-03-15 22:02:38:353,0,-3.20218,-4.3099,-20.4845,Q,Q
2023-03-15 22:02:38:363,0,-3.2026,-4.31768,-20.4797,Q,Q
2023-03-15 22:02:38:373,0,-3.20244,-4.32756,-20.4704,Q,Q
2023-03-15 22:02:38:383,0,-3.20784,-4.3354,-20.4605,Q,Q
2023-03-15 22:02:38:393,0,-3.21352,-4.33913,-20.448,Q,Q
2023-03-15 22:02:38:403,0,-3.22444,-4.34229,-20.4336,Q,Q
2023-03-15 22:02:38:413,0,-3.23406,-4.34858,-20.4195,Q,Q
2023-03-15 22:02:38:423,0,-3.24633,-4.35142,-20.4026,Q,Q
2023-03-15 22:02:38:433,0,-3.25625,-4.35632,-20.3897,Q,Q
2023-03-15 22:02:38:443,0,-3.26782,-4.36069,-20.3745,Q,Q
2023-03-15 22:02:38:453,0,-3.27705,-4.36663,-20.3613,Q,Q
2023-03-15 22:02:38:463,0,-3.27907,-4.37205,-20.3555,Q,Q
2023-03-15 22:02:38:473,0,-3.2792,-4.37644,-20.3487,Q,Q
2023-03-15 22:02:38:483,0,-3.27838,-4.38125,-20.349,Q,Q
2023-03-15 22:02:38:493,0,-3.27563,-4.38572,-20.3457,Q,Q
2023-03-15 22:02:38:503,0,-3.27138,-4.39056,-20.3474,Q,Q
2023-03-15 22:02:38:513,0,-3.26302,-4.39641,-20.3484,Q,Q
2023-03-15 22:02:38:523,0,-3.257,-4.3999,-20.3479,Q,Q
2023-03-15 22:02:38:533,0,-3.25196,-4.40352,-20.3481,Q,Q
2023-03-15 22:02:38:543,0,-3.24493,-4.40901,-20.3475,Q,Q
2023-03-15 22:02:38:553,0,-3.23602,-4.41067,-20.3453,Q,Q
2023-03-15 22:02:38:563,0,-3.22734,-4.41182,-20.3393,Q,Q
2023-03-15 22:02:38:573,0,-3.21968,-4.41256,-20.3331,Q,Q
2023-03-15 22:02:38:583,0,-3.21586,-4.41238,-20.3263,Q,Q
2023-03-15 22:02:38:593,0,-3.21304,-4.41398,-20.318,Q,Q
2023-03-15 22:02:38:603,0,-3.21865,-4.41798,-20.3126,Q,Q
2023-03-15 22:02:38:613,0,-3.22075,-4.42002,-20.3062,Q,Q
2023-03-15 22:02:38:623,0,-3.2257,-4.4174,-20.3006,Q,Q
2023-03-15 22:02:38:633,0,-3.22823,-4.4145,-20.2976,Q,Q
2023-03-15 22:02:38:643,0,-3.22989,-4.41431,-20.2985,Q,Q
2023-03-15 22:02:38:653,0,-3.23207,-4.41563,-20.3008,Q,Q
2023-03-15 22:02:38:663,0,-3.23173,-4.41632,-20.307,Q,Q
2023-03-15 22:02:38:673,0,-3.23238,-4.4127,-20.3144,Q,Q
2023-03-15 22:02:38:683,0,-3.23252,-4.41712,-20.324,Q,Q
2023-03-15 22:02:38:693,0,-3.23094,-4.41774,-20.3336,Q,Q
2023-03-15 22:02:38:703,0,-3.22982,-4.41868,-20.3447,Q,Q
2023-03-15 22:02:38:713,0,-3.22888,-4.42219,-20.3513,Q,Q
2023-03-15 22:02:38:723,0,-3.22636,-4.42433,-20.3568,Q,Q
2023-03-15 22:02:38:733,0,-3.22494,-4.4283,-20.3628,Q,Q
2023-03-15 22:02:38:743,0,-3.22477,-4.43129,-20.3619,Q,Q
2023-03-15 22:02:38:753,0,-3.22188,-4.43442,-20.358,Q,Q
2023-03-15 22:02:38:763,0,-3.22269,-4.43609,-20.3502,Q,Q
2023-03-15 22:02:38:773,0,-3.22073,-4.43101,-20.3407,Q,Q
2023-03-15 22:02:38:783,0,-3.21968,-4.43292,-20.3318,Q,Q
2023-03-15 22:02:38:793,0,-3.21847,-4.43199,-20.3247,Q,Q
2023-03-15 22:02:38:803,0,-3.219,-4.43269,-20.3186,Q,Q
2023-03-15 22:02:38:813,0,-3.21871,-4.4363,-20.3117,Q,Q
2023-03-15 22:02:38:823,0,-3.22237,-4.44368,-20.3028,Q,Q
2023-03-15 22:02:38:833,0,-3.22902,-4.45752,-20.2939,Q,Q
2023-03-15 22:02:38:843,0,-3.23514,-4.47355,-20.2869,Q,Q
2023-03-15 22:02:38:853,0,-3.24534,-4.48762,-20.2838,Q,Q
2023-03-15 22:02:38:863,0,-3.26162,-4.49905,-20.277,Q,Q
2023-03-15 22:02:38:873,0,-3.28045,-4.50788,-20.2693,Q,Q
2023-03-15 22:02:38:883,0,-3.30103,-4.51481,-20.2601,Q,Q
2023-03-15 22:02:38:893,0,-3.32439,-4.51976,-20.2503,Q,Q
2023-03-15 22:02:38:902,0,-3.34889,-4.52551,-20.2397,Q,Q
2023-03-15 22:02:38:912,0,-3.3734,-4.52848,-20.2317,Q,Q
2023-03-15 22:02:38:922,0,-3.39326,-4.52902,-20.2239,Q,Q
2023-03-15 22:02:38:933,0,-3.40842,-4.53021,-20.2205,Q,Q
2023-03-15 22:02:38:943,0,-3.42487,-4.52509,-20.2171,Q,Q
2023-03-15 22:02:38:953,0,-3.4388,-4.52428,-20.2193,Q,Q
2023-03-15 22:02:38:963,0,-3.44788,-4.52022,-20.2296,Q,Q
2023-03-15 22:02:38:973,0,-3.45387,-4.51289,-20.2416,Q,Q
2023-03-15 22:02:38:983,0,-3.45618,-4.51072,-20.2582,Q,Q
2023-03-15 22:02:38:993,0,-3.45818,-4.50434,-20.2748,Q,Q
2023-03-15 22:02:39:3,0,-3.45528,-4.50378,-20.2958,Q,Q
2023-03-15 22:02:39:13,0,-3.45606,-4.49881,-20.3165,Q,Q
2023-03-15 22:02:39:23,0,-3.45164,-4.49303,-20.3402,Q,Q
2023-03-15 22:02:39:33,0,-3.44639,-4.48816,-20.36,Q,Q
2023-03-15 22:02:39:43,0,-3.44276,-4.48424,-20.3777,Q,Q
2023-03-15 22:02:39:53,0,-3.43694,-4.48016,-20.3911,Q,Q
2023-03-15 22:02:39:63,0,-3.42698,-4.47777,-20.399,Q,Q
2023-03-15 22:02:39:73,0,-3.41594,-4.47301,-20.4084,Q,Q
2023-03-15 22:02:39:83,0,-3.40694,-4.47241,-20.4095,Q,Q
2023-03-15 22:02:39:93,0,-3.39874,-4.46933,-20.4128,Q,Q
2023-03-15 22:02:39:103,0,-3.39196,-4.46577,-20.4111,Q,Q
2023-03-15 22:02:39:113,0,-3.38496,-4.4612,-20.4115,Q,Q
2023-03-15 22:02:39:123,0,-3.37602,-4.45942,-20.4103,Q,Q
2023-03-15 22:02:39:133,0,-3.37256,-4.45191,-20.4071,Q,Q
2023-03-15 22:02:39:143,0,-3.36754,-4.44981,-20.4053,Q,Q
2023-03-15 22:02:39:153,0,-3.35635,-4.44915,-20.4008,Q,Q
2023-03-15 22:02:39:163,0,-3.34785,-4.44174,-20.4,Q,Q
2023-03-15 22:02:39:173,0,-3.33824,-4.43994,-20.3999,Q,Q
2023-03-15 22:02:39:183,0,-3.32492,-4.44038,-20.4028,Q,Q
2023-03-15 22:02:39:193,0,-3.30805,-4.44141,-20.4062,Q,Q
2023-03-15 22:02:39:203,0,-3.29047,-4.44327,-20.4075,Q,Q
2023-03-15 22:02:39:213,0,-3.26956,-4.44602,-20.4072,Q,Q
2023-03-15 22:02:39:223,0,-3.2517,-4.44976,-20.4082,Q,Q
2023-03-15 22:02:39:233,0,-3.23195,-4.45196,-20.4085,Q,Q
2023-03-15 22:02:39:243,0,-3.21302,-4.45411,-20.4081,Q,Q
2023-03-15 22:02:39:253,0,-3.19746,-4.45576,-20.401,Q,Q
2023-03-15 22:02:39:263,0,-3.18286,-4.45875,-20.3923,Q,Q
2023-03-15 22:02:39:273,0,-3.16823,-4.46092,-20.3809,Q,Q
2023-03-15 22:02:39:283,0,-3.15591,-4.46558,-20.373,Q,Q
2023-03-15 22:02:39:293,0,-3.14428,-4.46944,-20.3622,Q,Q
2023-03-15 22:02:39:303,0,-3.13618,-4.47248,-20.3514,Q,Q
2023-03-15 22:02:39:313,0,-3.12884,-4.47086,-20.339,Q,Q
2023-03-15 22:02:39:323,0,-3.12348,-4.47212,-20.3287,Q,Q
2023-03-15 22:02:39:333,0,-3.11863,-4.4753,-20.3194,Q,Q
2023-03-15 22:02:39:343,0,-3.1156,-4.47843,-20.3097,Q,Q
2023-03-15 22:02:39:353,0,-3.11224,-4.48235,-20.3096,Q,Q
2023-03-15 22:02:39:363,0,-3.108,-4.48192,-20.3094,Q,Q
2023-03-15 22:02:39:373,0,-3.10099,-4.48203,-20.3129,Q,Q
2023-03-15 22:02:39:383,0,-3.08891,-4.48619,-20.3152,Q,Q
2023-03-15 22:02:39:393,0,-3.07757,-4.48748,-20.3165,Q,Q
2023-03-15 22:02:39:403,0,-3.06604,-4.48894,-20.3199,Q,Q
2023-03-15 22:02:39:413,0,-3.05462,-4.49208,-20.3239,Q,Q
2023-03-15 22:02:39:423,0,-3.04143,-4.49158,-20.325,Q,Q
2023-03-15 22:02:39:433,0,-3.03309,-4.49619,-20.3241,Q,Q
2023-03-15 22:02:39:443,0,-3.02678,-4.49933,-20.3232,Q,Q
2023-03-15 22:02:39:453,0,-3.02389,-4.49908,-20.3236,Q,Q
2023-03-15 22:02:39:463,0,-3.01916,-4.49681,-20.3227,Q,Q
2023-03-15 22:02:39:473,0,-3.01026,-4.49318,-20.3166,Q,Q
2023-03-15 22:02:39:483,0,-3.00505,-4.48742,-20.3117,Q,Q
2023-03-15 22:02:39:493,0,-2.99903,-4.48211,-20.3094,Q,Q
2023-03-15 22:02:39:503,0,-2.99346,-4.47503,-20.3072,Q,Q
2023-03-15 22:02:39:513,0,-2.98579,-4.46871,-20.3052,Q,Q
2023-03-15 22:02:39:523,0,-2.98589,-4.46077,-20.3047,Q,Q
2023-03-15 22:02:39:533,0,-2.98552,-4.45403,-20.3041,Q,Q
2023-03-15 22:02:39:543,0,-2.98102,-4.44861,-20.3076,Q,Q
2023-03-15 22:02:39:553,0,-2.98379,-4.44911,-20.3123,Q,Q
2023-03-15 22:02:39:563,0,-2.9856,-4.45317,-20.3205,Q,Q
2023-03-15 22:02:39:573,0,-2.98807,-4.45658,-20.3249,Q,Q
2023-03-15 22:02:39:583,0,-2.99545,-4.46369,-20.3291,Q,Q
2023-03-15 22:02:39:593,0,-3.01011,-4.46527,-20.3331,Q,Q
2023-03-15 22:02:39:603,0,-3.02615,-4.46457,-20.3348,Q,Q
2023-03-15 22:02:39:613,0,-3.04776,-4.46177,-20.334,Q,Q
2023-03-15 22:02:39:623,0,-3.06617,-4.46022,-20.3293,Q,Q
2023-03-15 22:02:39:633,0,-3.08433,-4.45696,-20.3219,Q,Q
2023-03-15 22:02:39:643,0,-3.10384,-4.4542,-20.3138,Q,Q
2023-03-15 22:02:39:653,0,-3.12006,-4.45108,-20.3035,Q,Q
2023-03-15 22:02:39:663,0,-3.13325,-4.44438,-20.2954,Q,Q
2023-03-15 22:02:39:673,0,-3.13998,-4.44054,-20.2905,Q,Q
2023-03-15 22:02:39:683,0,-3.14703,-4.43587,-20.2914,Q,Q
2023-03-15 22:02:39:693,0,-3.15082,-4.42899,-20.2933,Q,Q
2023-03-15 22:02:39:703,0,-3.15589,-4.42261,-20.3011,Q,Q
2023-03-15 22:02:39:713,0,-3.16036,-4.41834,-20.3057,Q,Q
2023-03-15 22:02:39:723,0,-3.16422,-4.41894,-20.3133,Q,Q
2023-03-15 22:02:39:733,0,-3.16664,-4.41939,-20.3221,Q,Q
2023-03-15 22:02:39:743,0,-3.16933,-4.42022,-20.3339,Q,Q
2023-03-15 22:02:39:753,0,-3.17134,-4.41933,-20.3418,Q,Q
2023-03-15 22:02:39:763,0,-3.17019,-4.41587,-20.3479,Q,Q
2023-03-15 22:02:39:773,0,-3.16746,-4.41165,-20.3522,Q,Q
2023-03-15 22:02:39:783,0,-3.16398,-4.41529,-20.3498,Q,Q
2023-03-15 22:02:39:793,0,-3.16038,-4.42281,-20.3404,Q,Q
2023-03-15 22:02:39:803,0,-3.15472,-4.43396,-20.3267,Q,Q
2023-03-15 22:02:39:813,0,-3.15471,-4.44456,-20.3097,Q,Q
2023-03-15 22:02:39:823,0,-3.15613,-4.45791,-20.283,Q,Q
2023-03-15 22:02:39:833,0,-3.16259,-4.47123,-20.2556,Q,Q
2023-03-15 22:02:39:843,0,-3.17195,-4.48511,-20.2245,Q,Q
2023-03-15 22:02:39:853,0,-3.18551,-4.50106,-20.1919,Q,Q
2023-03-15 22:02:39:863,0,-3.19498,-4.51364,-20.1627,Q,Q
2023-03-15 22:02:39:873,0,-3.20632,-4.52876,-20.1344,Q,Q
2023-03-15 22:02:39:883,0,-3.21463,-4.54369,-20.112,Q,Q
2023-03-15 22:02:39:893,0,-3.2202,-4.55933,-20.0919,Q,Q
2023-03-15 22:02:39:903,0,-3.2219,-4.57553,-20.081,Q,Q
2023-03-15 22:02:39:913,0,-3.2249,-4.59314,-20.0739,Q,Q
2023-03-15 22:02:39:923,0,-3.2218,-4.61157,-20.0744,Q,Q
2023-03-15 22:02:39:933,0,-3.21731,-4.62209,-20.0822,Q,Q
2023-03-15 22:02:39:943,0,-3.21312,-4.63158,-20.0945,Q,Q
2023-03-15 22:02:39:953,0,-3.20407,-4.64149,-20.1118,Q,Q
2023-03-15 22:02:39:963,0,-3.19327,-4.65025,-20.1272,Q,Q
2023-03-15 22:02:39:973,0,-3.18032,-4.65936,-20.1448,Q,Q
2023-03-15 22:02:39:983,0,-3.16738,-4.6673,-20.1613,Q,Q
2023-03-15 22:02:39:993,0,-3.15379,-4.66968,-20.1738,Q,Q
2023-03-15 22:02:40:3,0,-3.14481,-4.67291,-20.1798,Q,Q
2023-03-15 22:02:40:13,0,-3.13905,-4.66746,-20.1853,Q,Q
2023-03-15 22:02:40:23,0,-3.13822,-4.66226,-20.1853,Q,Q
2023-03-15 22:02:40:33,0,-3.14519,-4.65169,-20.1885,Q,Q
2023-03-15 22:02:40:43,0,-3.15459,-4.63994,-20.1879,Q,Q
2023-03-15 22:02:40:53,0,-3.17164,-4.62506,-20.1908,Q,Q
2023-03-15 22:02:40:63,0,-3.1934,-4.61551,-20.1957,Q,Q
2023-03-15 22:02:40:73,0,-3.21871,-4.60572,-20.2071,Q,Q
2023-03-15 22:02:40:83,0,-3.24111,-4.59919,-20.2167,Q,Q
2023-03-15 22:02:40:93,0,-3.25721,-4.59234,-20.2326,Q,Q
2023-03-15 22:02:40:103,0,-3.27116,-4.58091,-20.2516,Q,Q
2023-03-15 22:02:40:113,0,-3.28172,-4.5718,-20.2667,Q,Q
2023-03-15 22:02:40:123,0,-3.28956,-4.56394,-20.2844,Q,Q
2023-03-15 22:02:40:133,0,-3.2942,-4.5564,-20.3056,Q,Q
2023-03-15 22:02:40:143,0,-3.29678,-4.55239,-20.3249,Q,Q
2023-03-15 22:02:40:153,0,-3.30032,-4.54386,-20.3431,Q,Q
2023-03-15 22:02:40:163,0,-3.30054,-4.54105,-20.3601,Q,Q
2023-03-15 22:02:40:173,0,-3.29884,-4.53623,-20.3727,Q,Q
2023-03-15 22:02:40:183,0,-3.29781,-4.53433,-20.3832,Q,Q
2023-03-15 22:02:40:193,0,-3.29332,-4.53083,-20.3868,Q,Q
2023-03-15 22:02:40:203,0,-3.28494,-4.52655,-20.3882,Q,Q
2023-03-15 22:02:40:213,0,-3.27536,-4.52496,-20.382,Q,Q
2023-03-15 22:02:40:223,0,-3.26007,-4.52221,-20.3716,Q,Q
2023-03-15 22:02:40:233,0,-3.24801,-4.5172,-20.3561,Q,Q
2023-03-15 22:02:40:243,0,-3.23631,-4.5157,-20.3383,Q,Q
2023-03-15 22:02:40:253,0,-3.22349,-4.51346,-20.3243,Q,Q
2023-03-15 22:02:40:263,0,-3.21185,-4.514,-20.3081,Q,Q
2023-03-15 22:02:40:273,0,-3.20211,-4.51299,-20.2946,Q,Q
2023-03-15 22:02:40:283,0,-3.18709,-4.51222,-20.2867,Q,Q
2023-03-15 22:02:40:293,0,-3.16917,-4.50985,-20.2799,Q,Q
2023-03-15 22:02:40:303,0,-3.14671,-4.50843,-20.2773,Q,Q
2023-03-15 22:02:40:313,0,-3.11854,-4.50908,-20.2769,Q,Q
2023-03-15 22:02:40:323,0,-3.08917,-4.51107,-20.279,Q,Q
2023-03-15 22:02:40:333,0,-3.06132,-4.51828,-20.2845,Q,Q
2023-03-15 22:02:40:343,0,-3.03652,-4.52395,-20.2892,Q,Q
2023-03-15 22:02:40:353,0,-3.01406,-4.52961,-20.2983,Q,Q
2023-03-15 22:02:40:363,0,-3.00074,-4.52989,-20.305,Q,Q
2023-03-15 22:02:40:373,0,-2.99416,-4.53332,-20.3125,Q,Q
2023-03-15 22:02:40:383,0,-2.98419,-4.53302,-20.3148,Q,Q
2023-03-15 22:02:40:393,0,-2.97761,-4.53544,-20.3192,Q,Q
2023-03-15 22:02:40:403,0,-2.96813,-4.53275,-20.3188,Q,Q
2023-03-15 22:02:40:413,0,-2.96323,-4.53494,-20.3174,Q,Q
2023-03-15 22:02:40:423,0,-2.95813,-4.53477,-20.3166,Q,Q
2023-03-15 22:02:40:433,0,-2.95229,-4.53429,-20.3099,Q,Q
2023-03-15 22:02:40:443,0,-2.9454,-4.53391,-20.3059,Q,Q
2023-03-15 22:02:40:453,0,-2.93852,-4.53489,-20.3004,Q,Q
2023-03-15 22:02:40:463,0,-2.93263,-4.53193,-20.2998,Q,Q
2023-03-15 22:02:40:473,0,-2.92607,-4.52995,-20.296,Q,Q
2023-03-15 22:02:40:483,0,-2.9203,-4.5281,-20.2935,Q,Q
2023-03-15 22:02:40:493,0,-2.91739,-4.52866,-20.2873,Q,Q
2023-03-15 22:02:40:503,0,-2.91462,-4.52828,-20.2815,Q,Q
2023-03-15 22:02:40:513,0,-2.90917,-4.52694,-20.2774,Q,Q
2023-03-15 22:02:40:523,0,-2.90808,-4.52202,-20.2744,Q,Q
2023-03-15 22:02:40:533,0,-2.90902,-4.52153,-20.2689,Q,Q
2023-03-15 22:02:40:543,0,-2.9139,-4.52103,-20.2631,Q,Q
2023-03-15 22:02:40:553,0,-2.91828,-4.52413,-20.2585,Q,Q
2023-03-15 22:02:40:563,0,-2.92538,-4.52574,-20.2558,Q,Q
2023-03-15 22:02:40:573,0,-2.93497,-4.52581,-20.2517,Q,Q
2023-03-15 22:02:40:583,0,-2.94226,-4.52833,-20.2451,Q,Q
2023-03-15 22:02:40:593,0,-2.94719,-4.52462,-20.2413,Q,Q
2023-03-15 22:02:40:603,0,-2.95455,-4.51773,-20.2389,Q,Q
2023-03-15 22:02:40:613,0,-2.96069,-4.51209,-20.2361,Q,Q
2023-03-15 22:02:40:623,0,-2.9651,-4.50484,-20.2304,Q,Q
2023-03-15 22:02:40:633,0,-2.96483,-4.49455,-20.2242,Q,Q
2023-03-15 22:02:40:643,0,-2.95904,-4.48613,-20.221,Q,Q
2023-03-15 22:02:40:653,0,-2.95154,-4.4798,-20.2177,Q,Q
2023-03-15 22:02:40:663,0,-2.94266,-4.47398,-20.2181,Q,Q
2023-03-15 22:02:40:673,0,-2.93428,-4.46631,-20.2193,Q,Q
2023-03-15 22:02:40:683,0,-2.91706,-4.46119,-20.2207,Q,Q
2023-03-15 22:02:40:693,0,-2.90031,-4.45651,-20.2249,Q,Q
2023-03-15 22:02:40:703,0,-2.87845,-4.45438,-20.2293,Q,Q
2023-03-15 22:02:40:713,0,-2.85806,-4.45511,-20.2332,Q,Q
2023-03-15 22:02:40:723,0,-2.8398,-4.45781,-20.2324,Q,Q
2023-03-15 22:02:40:733,0,-2.81467,-4.45846,-20.2294,Q,Q
2023-03-15 22:02:40:743,0,-2.79075,-4.46285,-20.2243,Q,Q
2023-03-15 22:02:40:753,0,-2.77299,-4.46632,-20.2163,Q,Q
2023-03-15 22:02:40:763,0,-2.76014,-4.46987,-20.2063,Q,Q
2023-03-15 22:02:40:773,0,-2.75184,-4.47591,-20.1957,Q,Q
2023-03-15 22:02:40:783,0,-2.74095,-4.48034,-20.183,Q,Q
