Timestamp_cmd,imu_cmd,roll_delta,pitch_delta,yaw_delta
2023-03-11 20:03:32:806,0,-10.4736,-5.03112,91.9806
2023-03-11 20:03:32:813,0,-10.4856,-5.02907,91.9814
2023-03-11 20:03:32:823,0,-10.502,-5.02857,91.9857
2023-03-11 20:03:32:833,0,-10.5221,-5.02517,91.9925
2023-03-11 20:03:32:844,0,-10.5459,-5.02192,91.9994
2023-03-11 20:03:32:853,0,-10.5616,-5.02158,92.0085
2023-03-11 20:03:32:863,0,-10.5717,-5.02211,92.0161
2023-03-11 20:03:32:873,0,-10.5669,-5.03374,92.0177
2023-03-11 20:03:32:883,0,-10.5473,-5.05439,92.013
2023-03-11 20:03:32:893,0,-10.5126,-5.07751,91.9976
2023-03-11 20:03:32:903,0,-10.4651,-5.0935,91.9663
2023-03-11 20:03:32:913,0,-10.4075,-5.10433,91.9188
2023-03-11 20:03:32:923,0,-10.3572,-5.10652,91.8632
2023-03-11 20:03:32:934,0,-10.3144,-5.09787,91.8003
2023-03-11 20:03:32:943,0,-10.2915,-5.07521,91.7364
2023-03-11 20:03:32:954,0,-10.289,-5.04818,91.6765
2023-03-11 20:03:32:963,0,-10.3011,-5.01582,91.6222
2023-03-11 20:03:32:973,0,-10.3236,-4.97873,91.5678
2023-03-11 20:03:32:983,0,-10.3566,-4.93439,91.5132
2023-03-11 20:03:32:994,0,-10.3962,-4.88679,91.4661
2023-03-11 20:03:33:4,0,-10.4409,-4.84469,91.4188
2023-03-11 20:03:33:14,0,-10.4876,-4.79965,91.3823
2023-03-11 20:03:33:24,0,-10.5478,-4.75727,91.3585
2023-03-11 20:03:33:34,0,-10.6193,-4.72419,91.3439
2023-03-11 20:03:33:44,0,-10.6983,-4.69166,91.3393
2023-03-11 20:03:33:54,0,-10.7828,-4.66383,91.3423
2023-03-11 20:03:33:64,0,-10.8663,-4.6404,91.3535
2023-03-11 20:03:33:74,0,-10.944,-4.62598,91.3709
2023-03-11 20:03:33:83,0,-11.0125,-4.61645,91.3923
2023-03-11 20:03:33:93,0,-11.0671,-4.61247,91.4139
2023-03-11 20:03:33:103,0,-11.1055,-4.61393,91.4339
2023-03-11 20:03:33:113,0,-11.1327,-4.62402,91.4511
2023-03-11 20:03:33:123,0,-11.1527,-4.64127,91.4598
2023-03-11 20:03:33:134,0,-11.1666,-4.65565,91.4624
2023-03-11 20:03:33:143,0,-11.1713,-4.67318,91.4612
2023-03-11 20:03:33:153,0,-11.1687,-4.69009,91.4531
2023-03-11 20:03:33:163,0,-11.1583,-4.70428,91.4391
2023-03-11 20:03:33:173,0,-11.1383,-4.72291,91.4259
2023-03-11 20:03:33:183,0,-11.1154,-4.73765,91.4142
2023-03-11 20:03:33:193,0,-11.0891,-4.75598,91.4009
2023-03-11 20:03:33:203,0,-11.0598,-4.77241,91.3931
2023-03-11 20:03:33:213,0,-11.03,-4.78876,91.3852
2023-03-11 20:03:33:223,0,-10.9914,-4.80496,91.3802
2023-03-11 20:03:33:233,0,-10.9523,-4.82299,91.3764
2023-03-11 20:03:33:243,0,-10.9127,-4.83632,91.3701
2023-03-11 20:03:33:253,0,-10.8759,-4.85576,91.3672
2023-03-11 20:03:33:263,0,-10.8406,-4.87654,91.3681
2023-03-11 20:03:33:273,0,-10.8109,-4.89631,91.3693
2023-03-11 20:03:33:283,0,-10.7862,-4.91499,91.371
2023-03-11 20:03:33:293,0,-10.7659,-4.9386,91.3738
2023-03-11 20:03:33:303,0,-10.7517,-4.95781,91.378
2023-03-11 20:03:33:313,0,-10.7428,-4.97348,91.3846
2023-03-11 20:03:33:323,0,-10.7371,-4.98815,91.391
2023-03-11 20:03:33:333,0,-10.7313,-5.00062,91.3975
2023-03-11 20:03:33:343,0,-10.728,-5.008,91.4037
2023-03-11 20:03:33:353,0,-10.7241,-5.01548,91.4104
2023-03-11 20:03:33:363,0,-10.721,-5.01782,91.415
2023-03-11 20:03:33:373,0,-10.7199,-5.01464,91.4198
2023-03-11 20:03:33:383,0,-10.7186,-5.00611,91.4301
2023-03-11 20:03:33:393,0,-10.7175,-4.99982,91.4372
2023-03-11 20:03:33:403,0,-10.7175,-4.98809,91.4427
2023-03-11 20:03:33:414,0,-10.7147,-4.98361,91.4475
2023-03-11 20:03:33:423,0,-10.7113,-4.98848,91.4546
2023-03-11 20:03:33:433,0,-10.7041,-4.99154,91.4667
2023-03-11 20:03:33:443,0,-10.6934,-4.99636,91.4753
2023-03-11 20:03:33:453,0,-10.6848,-4.99805,91.4866
2023-03-11 20:03:33:463,0,-10.6794,-4.9928,91.4998
2023-03-11 20:03:33:473,0,-10.6779,-4.98769,91.5109
2023-03-11 20:03:33:483,0,-10.6769,-4.97924,91.5245
2023-03-11 20:03:33:493,0,-10.6693,-4.97128,91.5402
2023-03-11 20:03:33:503,0,-10.6578,-4.95815,91.5527
2023-03-11 20:03:33:513,0,-10.6463,-4.94736,91.5605
2023-03-11 20:03:33:523,0,-10.632,-4.93576,91.5652
2023-03-11 20:03:33:534,0,-10.6191,-4.92182,91.568
2023-03-11 20:03:33:543,0,-10.6084,-4.91123,91.5707
2023-03-11 20:03:33:553,0,-10.6009,-4.89855,91.5735
2023-03-11 20:03:33:563,0,-10.5958,-4.88713,91.5743
2023-03-11 20:03:33:573,0,-10.5901,-4.87449,91.5758
2023-03-11 20:03:33:584,0,-10.587,-4.86033,91.5796
2023-03-11 20:03:33:593,0,-10.5858,-4.84706,91.5827
2023-03-11 20:03:33:604,0,-10.5848,-4.83309,91.5844
2023-03-11 20:03:33:613,0,-10.5835,-4.81598,91.5881
2023-03-11 20:03:33:623,0,-10.5809,-4.79662,91.593
2023-03-11 20:03:33:633,0,-10.5775,-4.78159,91.5943
2023-03-11 20:03:33:643,0,-10.5724,-4.76746,91.5972
2023-03-11 20:03:33:653,0,-10.5665,-4.75381,91.6029
2023-03-11 20:03:33:664,0,-10.5602,-4.73977,91.6087
2023-03-11 20:03:33:673,0,-10.5563,-4.72232,91.6089
2023-03-11 20:03:33:684,0,-10.5527,-4.7009,91.6102
2023-03-11 20:03:33:694,0,-10.5539,-4.67949,91.6078
2023-03-11 20:03:33:703,0,-10.5569,-4.66042,91.6102
2023-03-11 20:03:33:713,0,-10.5675,-4.64199,91.623
2023-03-11 20:03:33:723,0,-10.5785,-4.62709,91.6324
2023-03-11 20:03:33:734,0,-10.5888,-4.62631,91.6468
2023-03-11 20:03:33:743,0,-10.6006,-4.62915,91.6622
2023-03-11 20:03:33:754,0,-10.6077,-4.64111,91.6783
2023-03-11 20:03:33:763,0,-10.6108,-4.65685,91.6884
2023-03-11 20:03:33:773,0,-10.6092,-4.67834,91.6964
2023-03-11 20:03:33:783,0,-10.6012,-4.69669,91.6966
2023-03-11 20:03:33:793,0,-10.5915,-4.71559,91.6959
2023-03-11 20:03:33:803,0,-10.5802,-4.73608,91.689
2023-03-11 20:03:33:813,0,-10.5636,-4.7528,91.6773
2023-03-11 20:03:33:823,0,-10.5532,-4.76623,91.6651
2023-03-11 20:03:33:833,0,-10.5509,-4.77329,91.655
2023-03-11 20:03:33:843,0,-10.555,-4.77911,91.6465
2023-03-11 20:03:33:853,0,-10.562,-4.77865,91.641
2023-03-11 20:03:33:863,0,-10.5746,-4.77267,91.6415
2023-03-11 20:03:33:873,0,-10.5844,-4.76171,91.6486
2023-03-11 20:03:33:883,0,-10.5866,-4.75253,91.6602
2023-03-11 20:03:33:893,0,-10.5805,-4.7384,91.6742
2023-03-11 20:03:33:903,0,-10.5623,-4.72475,91.6907
2023-03-11 20:03:33:913,0,-10.5446,-4.71482,91.7198
2023-03-11 20:03:33:923,0,-10.5248,-4.70875,91.7541
2023-03-11 20:03:33:933,0,-10.508,-4.70517,91.794
2023-03-11 20:03:33:943,0,-10.4971,-4.70361,91.8374
2023-03-11 20:03:33:953,0,-10.4911,-4.70584,91.8833
2023-03-11 20:03:33:963,0,-10.4845,-4.71085,91.9356
2023-03-11 20:03:33:973,0,-10.4755,-4.7265,91.9872
2023-03-11 20:03:33:983,0,-10.4633,-4.74068,92.0342
2023-03-11 20:03:33:993,0,-10.4478,-4.75525,92.0814
2023-03-11 20:03:34:3,0,-10.4331,-4.77293,92.1241
2023-03-11 20:03:34:13,0,-10.4157,-4.79332,92.1607
2023-03-11 20:03:34:23,0,-10.4026,-4.8108,92.1942
2023-03-11 20:03:34:33,0,-10.3851,-4.82769,92.2193
2023-03-11 20:03:34:43,0,-10.3719,-4.84101,92.2341
2023-03-11 20:03:34:53,0,-10.361,-4.84947,92.2425
2023-03-11 20:03:34:63,0,-10.3512,-4.86036,92.2429
2023-03-11 20:03:34:73,0,-10.3394,-4.87723,92.2393
2023-03-11 20:03:34:83,0,-10.3216,-4.89243,92.2366
2023-03-11 20:03:34:93,0,-10.2983,-4.91189,92.2319
2023-03-11 20:03:34:103,0,-10.276,-4.92635,92.225
2023-03-11 20:03:34:113,0,-10.2546,-4.93323,92.2155
2023-03-11 20:03:34:123,0,-10.2357,-4.93692,92.2026
2023-03-11 20:03:34:133,0,-10.2248,-4.93838,92.198
2023-03-11 20:03:34:143,0,-10.2248,-4.93464,92.1963
2023-03-11 20:03:34:153,0,-10.2289,-4.92891,92.1957
2023-03-11 20:03:34:163,0,-10.2326,-4.91891,92.1979
2023-03-11 20:03:34:173,0,-10.2386,-4.90683,92.1934
2023-03-11 20:03:34:183,0,-10.2461,-4.89003,92.1836
2023-03-11 20:03:34:193,0,-10.2542,-4.87657,92.1725
2023-03-11 20:03:34:203,0,-10.2671,-4.86628,92.1612
2023-03-11 20:03:34:213,0,-10.28,-4.86147,92.1421
2023-03-11 20:03:34:223,0,-10.2902,-4.86099,92.1198
2023-03-11 20:03:34:233,0,-10.3033,-4.86584,92.0943
2023-03-11 20:03:34:243,0,-10.3128,-4.86637,92.0647
2023-03-11 20:03:34:253,0,-10.3229,-4.8702,92.0321
2023-03-11 20:03:34:263,0,-10.3302,-4.87636,91.9989
2023-03-11 20:03:34:273,0,-10.3387,-4.88199,91.9692
2023-03-11 20:03:34:283,0,-10.3437,-4.87918,91.937
2023-03-11 20:03:34:293,0,-10.3431,-4.88338,91.9063
2023-03-11 20:03:34:303,0,-10.3388,-4.88744,91.874
2023-03-11 20:03:34:313,0,-10.334,-4.89157,91.8455
2023-03-11 20:03:34:323,0,-10.3218,-4.89586,91.816
2023-03-11 20:03:34:334,0,-10.3067,-4.89557,91.7856
2023-03-11 20:03:34:343,0,-10.287,-4.89081,91.7563
2023-03-11 20:03:34:354,0,-10.2618,-4.88404,91.7238
2023-03-11 20:03:34:363,0,-10.2387,-4.87611,91.6896
2023-03-11 20:03:34:373,0,-10.2166,-4.86462,91.6538
2023-03-11 20:03:34:383,0,-10.1924,-4.85055,91.6161
2023-03-11 20:03:34:393,0,-10.1735,-4.82946,91.5807
2023-03-11 20:03:34:403,0,-10.1562,-4.80115,91.5458
2023-03-11 20:03:34:413,0,-10.1515,-4.77195,91.5149
2023-03-11 20:03:34:423,0,-10.1537,-4.73713,91.494
2023-03-11 20:03:34:433,0,-10.1675,-4.70657,91.4785
2023-03-11 20:03:34:443,0,-10.1882,-4.68216,91.4735
2023-03-11 20:03:34:453,0,-10.2109,-4.66054,91.4824
2023-03-11 20:03:34:463,0,-10.2413,-4.65317,91.5034
2023-03-11 20:03:34:473,0,-10.2693,-4.65459,91.5332
2023-03-11 20:03:34:483,0,-10.2924,-4.65939,91.5669
2023-03-11 20:03:34:493,0,-10.3114,-4.67322,91.6
2023-03-11 20:03:34:503,0,-10.3259,-4.68651,91.6331
2023-03-11 20:03:34:513,0,-10.3317,-4.70191,91.6604
2023-03-11 20:03:34:523,0,-10.3302,-4.71648,91.6819
2023-03-11 20:03:34:534,0,-10.3258,-4.72952,91.7003
2023-03-11 20:03:34:544,0,-10.3245,-4.73888,91.7153
2023-03-11 20:03:34:554,0,-10.3289,-4.74913,91.7262
2023-03-11 20:03:34:563,0,-10.3367,-4.75212,91.7332
2023-03-11 20:03:34:574,0,-10.3453,-4.75776,91.7381
2023-03-11 20:03:34:583,0,-10.3528,-4.75878,91.7416
2023-03-11 20:03:34:593,0,-10.3569,-4.75943,91.7425
2023-03-11 20:03:34:603,0,-10.3612,-4.75337,91.7416
2023-03-11 20:03:34:613,0,-10.3655,-4.74574,91.7393
2023-03-11 20:03:34:623,0,-10.3682,-4.73688,91.7367
2023-03-11 20:03:34:634,0,-10.3725,-4.72755,91.736
2023-03-11 20:03:34:643,0,-10.371,-4.71957,91.7326
2023-03-11 20:03:34:654,0,-10.3669,-4.71122,91.7265
2023-03-11 20:03:34:663,0,-10.3638,-4.70302,91.7202
2023-03-11 20:03:34:674,0,-10.3631,-4.69566,91.7151
2023-03-11 20:03:34:684,0,-10.3614,-4.68734,91.7128
2023-03-11 20:03:34:694,0,-10.3678,-4.67891,91.7023
2023-03-11 20:03:34:704,0,-10.3789,-4.67066,91.6899
2023-03-11 20:03:34:714,0,-10.389,-4.6693,91.6812
2023-03-11 20:03:34:724,0,-10.402,-4.67706,91.6769
2023-03-11 20:03:34:734,0,-10.415,-4.68733,91.6761
2023-03-11 20:03:34:743,0,-10.4293,-4.69775,91.6784
2023-03-11 20:03:34:754,0,-10.4474,-4.70513,91.6843
2023-03-11 20:03:34:764,0,-10.4608,-4.7078,91.6915
2023-03-11 20:03:34:774,0,-10.4794,-4.70338,91.7007
2023-03-11 20:03:34:784,0,-10.4957,-4.69997,91.7088
2023-03-11 20:03:34:794,0,-10.5113,-4.69696,91.7188
2023-03-11 20:03:34:803,0,-10.5237,-4.69098,91.7284
2023-03-11 20:03:34:813,0,-10.5317,-4.68689,91.7324
2023-03-11 20:03:34:823,0,-10.5363,-4.68513,91.7342
2023-03-11 20:03:34:833,0,-10.5407,-4.67566,91.7319
2023-03-11 20:03:34:843,0,-10.5413,-4.66912,91.7266
2023-03-11 20:03:34:853,0,-10.5481,-4.6661,91.7211
2023-03-11 20:03:34:863,0,-10.5554,-4.66671,91.7125
2023-03-11 20:03:34:874,0,-10.5618,-4.66632,91.7025
2023-03-11 20:03:34:884,0,-10.5706,-4.66497,91.6939
2023-03-11 20:03:34:893,0,-10.58,-4.66553,91.6894
2023-03-11 20:03:34:904,0,-10.5865,-4.66445,91.6885
2023-03-11 20:03:34:914,0,-10.5948,-4.66456,91.6896
2023-03-11 20:03:34:924,0,-10.6039,-4.65776,91.6962
2023-03-11 20:03:34:933,0,-10.6064,-4.6483,91.702
2023-03-11 20:03:34:943,0,-10.6061,-4.64005,91.7096
2023-03-11 20:03:34:954,0,-10.6072,-4.63358,91.7188
2023-03-11 20:03:34:964,0,-10.6064,-4.62995,91.7241
2023-03-11 20:03:34:973,0,-10.6055,-4.62488,91.7303
2023-03-11 20:03:34:984,0,-10.6029,-4.61684,91.7322
2023-03-11 20:03:34:993,0,-10.6051,-4.60576,91.7314
2023-03-11 20:03:35:3,0,-10.6049,-4.59221,91.7301
2023-03-11 20:03:35:14,0,-10.6052,-4.57918,91.7213
2023-03-11 20:03:35:24,0,-10.6008,-4.56513,91.7113
2023-03-11 20:03:35:34,0,-10.5945,-4.54779,91.6936
2023-03-11 20:03:35:43,0,-10.5941,-4.53203,91.6774
2023-03-11 20:03:35:54,0,-10.591,-4.51406,91.6567
2023-03-11 20:03:35:63,0,-10.594,-4.49794,91.6368
2023-03-11 20:03:35:74,0,-10.6003,-4.48325,91.6147
2023-03-11 20:03:35:83,0,-10.6095,-4.46643,91.5896
2023-03-11 20:03:35:94,0,-10.6164,-4.45039,91.5663
2023-03-11 20:03:35:104,0,-10.6198,-4.43424,91.5441
2023-03-11 20:03:35:114,0,-10.6195,-4.42057,91.5222
2023-03-11 20:03:35:124,0,-10.6215,-4.4066,91.4951
2023-03-11 20:03:35:134,0,-10.6242,-4.39316,91.4699
2023-03-11 20:03:35:144,0,-10.6268,-4.37504,91.4443
2023-03-11 20:03:35:154,0,-10.6291,-4.36078,91.4215
2023-03-11 20:03:35:164,0,-10.6361,-4.34371,91.3999
2023-03-11 20:03:35:174,0,-10.6492,-4.32302,91.3824
2023-03-11 20:03:35:184,0,-10.66,-4.30407,91.3652
2023-03-11 20:03:35:194,0,-10.6701,-4.28448,91.3535
2023-03-11 20:03:35:203,0,-10.6799,-4.26871,91.3424
2023-03-11 20:03:35:214,0,-10.6835,-4.25237,91.3321
2023-03-11 20:03:35:224,0,-10.6845,-4.23798,91.3232
2023-03-11 20:03:35:234,0,-10.6829,-4.22853,91.3118
2023-03-11 20:03:35:243,0,-10.6848,-4.22072,91.304
2023-03-11 20:03:35:254,0,-10.6874,-4.21057,91.2984
2023-03-11 20:03:35:264,0,-10.6927,-4.20177,91.2924
2023-03-11 20:03:35:274,0,-10.698,-4.19615,91.2878
2023-03-11 20:03:35:284,0,-10.7066,-4.18789,91.2826
2023-03-11 20:03:35:294,0,-10.7108,-4.1773,91.2707
2023-03-11 20:03:35:304,0,-10.7119,-4.1692,91.2631
2023-03-11 20:03:35:314,0,-10.7089,-4.16112,91.2552
2023-03-11 20:03:35:323,0,-10.7092,-4.15113,91.2474
2023-03-11 20:03:35:334,0,-10.7092,-4.13594,91.2372
2023-03-11 20:03:35:344,0,-10.71,-4.12045,91.2261
2023-03-11 20:03:35:354,0,-10.7065,-4.10785,91.2158
2023-03-11 20:03:35:364,0,-10.6979,-4.09961,91.2054
2023-03-11 20:03:35:374,0,-10.691,-4.10455,91.1983
2023-03-11 20:03:35:383,0,-10.6828,-4.10701,91.1922
2023-03-11 20:03:35:393,0,-10.6801,-4.10964,91.188
2023-03-11 20:03:35:404,0,-10.6802,-4.10669,91.1818
2023-03-11 20:03:35:414,0,-10.6806,-4.10357,91.1806
2023-03-11 20:03:35:424,0,-10.6853,-4.09314,91.1806
2023-03-11 20:03:35:434,0,-10.6933,-4.08446,91.1836
2023-03-11 20:03:35:443,0,-10.6975,-4.0754,91.1858
2023-03-11 20:03:35:454,0,-10.703,-4.0649,91.1927
2023-03-11 20:03:35:464,0,-10.7108,-4.05374,91.1992
2023-03-11 20:03:35:474,0,-10.7185,-4.0439,91.2051
2023-03-11 20:03:35:483,0,-10.7273,-4.03166,91.212
2023-03-11 20:03:35:493,0,-10.7348,-4.02249,91.2185
2023-03-11 20:03:35:504,0,-10.744,-4.01532,91.2221
2023-03-11 20:03:35:514,0,-10.7571,-4.00884,91.2293
2023-03-11 20:03:35:524,0,-10.7719,-4.00246,91.2328
2023-03-11 20:03:35:534,0,-10.7852,-3.99672,91.2318
2023-03-11 20:03:35:544,0,-10.7969,-3.98969,91.2328
2023-03-11 20:03:35:554,0,-10.8067,-3.98523,91.2316
2023-03-11 20:03:35:564,0,-10.8165,-3.9771,91.2357
2023-03-11 20:03:35:574,0,-10.8248,-3.96743,91.2372
2023-03-11 20:03:35:583,0,-10.8339,-3.95999,91.2373
2023-03-11 20:03:35:593,0,-10.8448,-3.95811,91.2379
2023-03-11 20:03:35:604,0,-10.8507,-3.95169,91.2449
2023-03-11 20:03:35:614,0,-10.8535,-3.94811,91.2516
2023-03-11 20:03:35:624,0,-10.853,-3.9451,91.2575
2023-03-11 20:03:35:634,0,-10.8488,-3.94096,91.2639
2023-03-11 20:03:35:643,0,-10.8444,-3.9347,91.2701
2023-03-11 20:03:35:653,0,-10.8389,-3.92993,91.2782
2023-03-11 20:03:35:664,0,-10.8358,-3.92411,91.2855
2023-03-11 20:03:35:674,0,-10.8339,-3.92675,91.2924
2023-03-11 20:03:35:683,0,-10.836,-3.92452,91.2991
2023-03-11 20:03:35:694,0,-10.841,-3.92396,91.3055
2023-03-11 20:03:35:703,0,-10.8472,-3.92379,91.3105
2023-03-11 20:03:35:714,0,-10.8509,-3.92225,91.3146
2023-03-11 20:03:35:724,0,-10.8526,-3.92471,91.3206
2023-03-11 20:03:35:734,0,-10.8539,-3.92896,91.3196
2023-03-11 20:03:35:744,0,-10.8573,-3.93161,91.3219
2023-03-11 20:03:35:754,0,-10.8592,-3.93954,91.3237
2023-03-11 20:03:35:764,0,-10.8636,-3.94393,91.3235
2023-03-11 20:03:35:774,0,-10.8648,-3.95,91.3279
2023-03-11 20:03:35:784,0,-10.8667,-3.95546,91.3321
2023-03-11 20:03:35:794,0,-10.8684,-3.96344,91.3394
2023-03-11 20:03:35:803,0,-10.8712,-3.96896,91.3408
2023-03-11 20:03:35:813,0,-10.8718,-3.97186,91.3466
2023-03-11 20:03:35:824,0,-10.8685,-3.97555,91.3551
2023-03-11 20:03:35:834,0,-10.8679,-3.97784,91.3607
2023-03-11 20:03:35:844,0,-10.8695,-3.98205,91.3634
2023-03-11 20:03:35:854,0,-10.8684,-3.98988,91.3701
2023-03-11 20:03:35:864,0,-10.8664,-3.99373,91.3728
2023-03-11 20:03:35:873,0,-10.86,-4.00088,91.3784
2023-03-11 20:03:35:883,0,-10.8546,-4.00536,91.383
2023-03-11 20:03:35:893,0,-10.8531,-4.01197,91.3893
2023-03-11 20:03:35:903,0,-10.8524,-4.0182,91.3984
2023-03-11 20:03:35:913,0,-10.8556,-4.02261,91.4115
2023-03-11 20:03:35:923,0,-10.8624,-4.02745,91.4199
2023-03-11 20:03:35:933,0,-10.8709,-4.03191,91.4306
2023-03-11 20:03:35:943,0,-10.8806,-4.03745,91.4389
2023-03-11 20:03:35:954,0,-10.8859,-4.0416,91.4473
2023-03-11 20:03:35:964,0,-10.8828,-4.04463,91.4563
2023-03-11 20:03:35:974,0,-10.8831,-4.049,91.4665
2023-03-11 20:03:35:983,0,-10.8851,-4.05168,91.4686
2023-03-11 20:03:35:994,0,-10.8904,-4.05424,91.4719
2023-03-11 20:03:36:3,0,-10.8967,-4.06176,91.4721
2023-03-11 20:03:36:13,0,-10.8997,-4.07231,91.4719
2023-03-11 20:03:36:23,0,-10.9017,-4.09353,91.4728
2023-03-11 20:03:36:34,0,-10.9016,-4.11023,91.4763
2023-03-11 20:03:36:43,0,-10.9023,-4.13069,91.4859
2023-03-11 20:03:36:54,0,-10.9036,-4.14744,91.4911
2023-03-11 20:03:36:64,0,-10.9054,-4.15654,91.5023
2023-03-11 20:03:36:74,0,-10.9142,-4.15754,91.512
2023-03-11 20:03:36:83,0,-10.9275,-4.15916,91.5259
2023-03-11 20:03:36:94,0,-10.9398,-4.15431,91.542
2023-03-11 20:03:36:104,0,-10.9504,-4.15234,91.5531
2023-03-11 20:03:36:114,0,-10.9545,-4.14919,91.5631
2023-03-11 20:03:36:123,0,-10.9591,-4.15088,91.5692
2023-03-11 20:03:36:134,0,-10.9645,-4.1512,91.5759
2023-03-11 20:03:36:144,0,-10.9714,-4.14889,91.5755
2023-03-11 20:03:36:154,0,-10.979,-4.14583,91.5723
2023-03-11 20:03:36:163,0,-10.9945,-4.13988,91.567
2023-03-11 20:03:36:174,0,-11.0111,-4.1378,91.5588
2023-03-11 20:03:36:183,0,-11.0262,-4.13692,91.5504
2023-03-11 20:03:36:194,0,-11.0455,-4.14096,91.5418
2023-03-11 20:03:36:204,0,-11.0593,-4.14367,91.5346
2023-03-11 20:03:36:214,0,-11.0712,-4.14022,91.5291
2023-03-11 20:03:36:224,0,-11.0802,-4.13708,91.5218
2023-03-11 20:03:36:234,0,-11.0845,-4.13331,91.5107
2023-03-11 20:03:36:243,0,-11.0809,-4.13434,91.5005
2023-03-11 20:03:36:254,0,-11.0704,-4.1326,91.4835
2023-03-11 20:03:36:264,0,-11.0605,-4.13702,91.4631
2023-03-11 20:03:36:274,0,-11.052,-4.13935,91.4382
2023-03-11 20:03:36:283,0,-11.041,-4.13853,91.4089
2023-03-11 20:03:36:294,0,-11.0304,-4.13562,91.3799
2023-03-11 20:03:36:303,0,-11.0229,-4.13399,91.346
2023-03-11 20:03:36:314,0,-11.0172,-4.13067,91.3129
2023-03-11 20:03:36:324,0,-11.0123,-4.12108,91.2794
2023-03-11 20:03:36:334,0,-11.0082,-4.11148,91.2528
2023-03-11 20:03:36:344,0,-11.0076,-4.10494,91.2271
2023-03-11 20:03:36:354,0,-11.0062,-4.09713,91.2082
2023-03-11 20:03:36:364,0,-11.0053,-4.0889,91.1954
2023-03-11 20:03:36:374,0,-11.005,-4.07939,91.1842
2023-03-11 20:03:36:383,0,-11.0077,-4.07245,91.179
2023-03-11 20:03:36:394,0,-11.0099,-4.07048,91.178
2023-03-11 20:03:36:403,0,-11.0172,-4.0665,91.1796
2023-03-11 20:03:36:414,0,-11.0232,-4.06455,91.1844
2023-03-11 20:03:36:424,0,-11.0367,-4.0641,91.1917
2023-03-11 20:03:36:434,0,-11.0487,-4.06387,91.202
2023-03-11 20:03:36:444,0,-11.054,-4.06439,91.216
2023-03-11 20:03:36:453,0,-11.0619,-4.06913,91.2316
2023-03-11 20:03:36:463,0,-11.0644,-4.07218,91.2502
2023-03-11 20:03:36:474,0,-11.0668,-4.06941,91.2653
2023-03-11 20:03:36:484,0,-11.0672,-4.06838,91.2783
2023-03-11 20:03:36:493,0,-11.0647,-4.06539,91.2895
2023-03-11 20:03:36:504,0,-11.0633,-4.06415,91.3007
2023-03-11 20:03:36:513,0,-11.057,-4.0581,91.3111
2023-03-11 20:03:36:523,0,-11.052,-4.05503,91.3147
2023-03-11 20:03:36:534,0,-11.0473,-4.05394,91.31
2023-03-11 20:03:36:543,0,-11.0417,-4.05573,91.298
2023-03-11 20:03:36:553,0,-11.0389,-4.06221,91.2816
2023-03-11 20:03:36:563,0,-11.039,-4.06734,91.259
2023-03-11 20:03:36:574,0,-11.0455,-4.07606,91.2307
2023-03-11 20:03:36:584,0,-11.0485,-4.08637,91.1973
2023-03-11 20:03:36:593,0,-11.0546,-4.09485,91.1542
2023-03-11 20:03:36:604,0,-11.0601,-4.10258,91.1051
2023-03-11 20:03:36:614,0,-11.061,-4.10175,91.0524
2023-03-11 20:03:36:624,0,-11.059,-4.09949,90.9991
2023-03-11 20:03:36:634,0,-11.0476,-4.09437,90.9448
2023-03-11 20:03:36:644,0,-11.0343,-4.09181,90.8937
2023-03-11 20:03:36:654,0,-11.0198,-4.08313,90.8458
2023-03-11 20:03:36:664,0,-11.0084,-4.07816,90.7956
2023-03-11 20:03:36:674,0,-10.9931,-4.07563,90.7433
2023-03-11 20:03:36:684,0,-10.9867,-4.08054,90.6957
2023-03-11 20:03:36:694,0,-10.9879,-4.08763,90.6511
2023-03-11 20:03:36:704,0,-10.9965,-4.09888,90.608
2023-03-11 20:03:36:714,0,-11.0051,-4.11151,90.5656
2023-03-11 20:03:36:723,0,-11.0159,-4.11683,90.5268
2023-03-11 20:03:36:733,0,-11.0231,-4.11887,90.4923
2023-03-11 20:03:36:743,0,-11.0283,-4.12588,90.4655
2023-03-11 20:03:36:754,0,-11.0297,-4.13072,90.4438
2023-03-11 20:03:36:763,0,-11.0283,-4.12655,90.4252
2023-03-11 20:03:36:774,0,-11.0263,-4.12242,90.417
2023-03-11 20:03:36:783,0,-11.0228,-4.11284,90.4136
2023-03-11 20:03:36:794,0,-11.0234,-4.09952,90.4168
2023-03-11 20:03:36:804,0,-11.0234,-4.08998,90.4235
2023-03-11 20:03:36:813,0,-11.02,-4.08636,90.4361
2023-03-11 20:03:36:824,0,-11.0152,-4.0871,90.4524
2023-03-11 20:03:36:834,0,-11.0062,-4.08473,90.4714
2023-03-11 20:03:36:844,0,-10.9944,-4.08305,90.4862
2023-03-11 20:03:36:853,0,-10.9776,-4.07383,90.5012
2023-03-11 20:03:36:864,0,-10.9631,-4.06726,90.5112
2023-03-11 20:03:36:874,0,-10.9499,-4.05716,90.5126
2023-03-11 20:03:36:884,0,-10.9489,-4.03721,90.512
2023-03-11 20:03:36:894,0,-10.9413,-4.01033,90.4986
2023-03-11 20:03:36:903,0,-10.9277,-3.98722,90.4742
2023-03-11 20:03:36:914,0,-10.9165,-3.96332,90.4425
2023-03-11 20:03:36:924,0,-10.9066,-3.93772,90.4029
2023-03-11 20:03:36:934,0,-10.8981,-3.91772,90.351
2023-03-11 20:03:36:944,0,-10.8951,-3.91026,90.2877
2023-03-11 20:03:36:954,0,-10.9002,-3.90082,90.2151
2023-03-11 20:03:36:964,0,-10.9107,-3.87961,90.1342
2023-03-11 20:03:36:974,0,-10.9152,-3.85729,90.0412
2023-03-11 20:03:36:984,0,-10.9165,-3.84195,89.9378
2023-03-11 20:03:36:994,0,-10.9304,-3.82882,89.8358
2023-03-11 20:03:37:3,0,-10.9565,-3.81644,89.7318
2023-03-11 20:03:37:14,0,-10.9806,-3.80969,89.6282
2023-03-11 20:03:37:23,0,-11.0053,-3.80702,89.5225
2023-03-11 20:03:37:33,0,-11.033,-3.80687,89.415
2023-03-11 20:03:37:43,0,-11.0556,-3.80673,89.3054
2023-03-11 20:03:37:54,0,-11.0776,-3.80883,89.1986
2023-03-11 20:03:37:63,0,-11.1088,-3.80977,89.0905
2023-03-11 20:03:37:73,0,-11.1403,-3.8145,88.9803
2023-03-11 20:03:37:83,0,-11.1728,-3.82582,88.8671
2023-03-11 20:03:37:94,0,-11.1958,-3.83953,88.7531
2023-03-11 20:03:37:104,0,-11.2225,-3.85424,88.6388
2023-03-11 20:03:37:113,0,-11.2482,-3.8751,88.5248
2023-03-11 20:03:37:124,0,-11.272,-3.8918,88.4084
2023-03-11 20:03:37:134,0,-11.2969,-3.90645,88.2888
2023-03-11 20:03:37:143,0,-11.318,-3.92001,88.1734
2023-03-11 20:03:37:154,0,-11.339,-3.93663,88.0702
2023-03-11 20:03:37:164,0,-11.352,-3.95752,87.9699
2023-03-11 20:03:37:174,0,-11.3567,-3.98249,87.8792
2023-03-11 20:03:37:183,0,-11.3596,-4.00541,87.7948
2023-03-11 20:03:37:194,0,-11.3699,-4.02867,87.7162
2023-03-11 20:03:37:204,0,-11.3828,-4.05006,87.64
2023-03-11 20:03:37:214,0,-11.3976,-4.06972,87.5729
2023-03-11 20:03:37:224,0,-11.4086,-4.09296,87.5146
2023-03-11 20:03:37:234,0,-11.4138,-4.11196,87.4566
2023-03-11 20:03:37:244,0,-11.413,-4.13655,87.4097
2023-03-11 20:03:37:254,0,-11.4068,-4.16407,87.3742
2023-03-11 20:03:37:264,0,-11.4041,-4.19082,87.3437
2023-03-11 20:03:37:274,0,-11.3968,-4.21748,87.3204
2023-03-11 20:03:37:284,0,-11.3793,-4.24201,87.3035
2023-03-11 20:03:37:294,0,-11.3574,-4.26085,87.2838
2023-03-11 20:03:37:304,0,-11.329,-4.27766,87.2661
2023-03-11 20:03:37:314,0,-11.3027,-4.29094,87.2442
2023-03-11 20:03:37:324,0,-11.2787,-4.30692,87.2226
2023-03-11 20:03:37:334,0,-11.2456,-4.32944,87.204
2023-03-11 20:03:37:344,0,-11.1938,-4.35786,87.1894
2023-03-11 20:03:37:354,0,-11.1301,-4.39125,87.1832
2023-03-11 20:03:37:364,0,-11.0713,-4.42938,87.1803
2023-03-11 20:03:37:373,0,-11.0302,-4.47016,87.1813
2023-03-11 20:03:37:383,0,-11.0107,-4.50796,87.1839
2023-03-11 20:03:37:394,0,-11.0163,-4.53778,87.1847
2023-03-11 20:03:37:403,0,-11.048,-4.56335,87.1928
2023-03-11 20:03:37:414,0,-11.0962,-4.59284,87.2061
2023-03-11 20:03:37:423,0,-11.1505,-4.62232,87.2192
2023-03-11 20:03:37:434,0,-11.201,-4.65291,87.2351
2023-03-11 20:03:37:444,0,-11.2491,-4.68416,87.2577
2023-03-11 20:03:37:453,0,-11.3047,-4.71851,87.284
2023-03-11 20:03:37:464,0,-11.3757,-4.75496,87.314
2023-03-11 20:03:37:474,0,-11.4657,-4.78876,87.3469
2023-03-11 20:03:37:484,0,-11.5693,-4.8221,87.3842
2023-03-11 20:03:37:493,0,-11.677,-4.84802,87.4299
2023-03-11 20:03:37:504,0,-11.7899,-4.86959,87.4775
2023-03-11 20:03:37:514,0,-11.8948,-4.88267,87.5251
2023-03-11 20:03:37:523,0,-11.9802,-4.89278,87.5726
2023-03-11 20:03:37:534,0,-12.0498,-4.89535,87.6207
2023-03-11 20:03:37:543,0,-12.1042,-4.89068,87.6712
2023-03-11 20:03:37:553,0,-12.1518,-4.883,87.7252
2023-03-11 20:03:37:563,0,-12.1778,-4.87521,87.7742
2023-03-11 20:03:37:573,0,-12.1883,-4.85847,87.8241
2023-03-11 20:03:37:583,0,-12.1927,-4.84179,87.8771
2023-03-11 20:03:37:593,0,-12.1945,-4.82491,87.9323
2023-03-11 20:03:37:603,0,-12.1963,-4.80552,87.9853
2023-03-11 20:03:37:613,0,-12.1936,-4.77518,88.0337
2023-03-11 20:03:37:623,0,-12.1936,-4.73962,88.082
2023-03-11 20:03:37:633,0,-12.1926,-4.70152,88.1251
2023-03-11 20:03:37:644,0,-12.185,-4.66138,88.1686
2023-03-11 20:03:37:654,0,-12.1746,-4.61909,88.2101
2023-03-11 20:03:37:663,0,-12.1569,-4.57757,88.2441
2023-03-11 20:03:37:674,0,-12.1343,-4.53972,88.2773
2023-03-11 20:03:37:683,0,-12.1098,-4.50933,88.3102
2023-03-11 20:03:37:694,0,-12.0854,-4.48649,88.3436
2023-03-11 20:03:37:703,0,-12.0612,-4.47291,88.3793
2023-03-11 20:03:37:714,0,-12.0397,-4.46571,88.4166
2023-03-11 20:03:37:723,0,-12.0194,-4.45909,88.453
2023-03-11 20:03:37:733,0,-12.0,-4.45605,88.4879
2023-03-11 20:03:37:743,0,-11.9861,-4.45462,88.5165
2023-03-11 20:03:37:754,0,-11.9742,-4.45655,88.5451
2023-03-11 20:03:37:764,0,-11.9614,-4.46649,88.5741
2023-03-11 20:03:37:774,0,-11.9458,-4.48528,88.6106
2023-03-11 20:03:37:783,0,-11.9288,-4.51028,88.6484
2023-03-11 20:03:37:794,0,-11.9163,-4.54465,88.6914
2023-03-11 20:03:37:804,0,-11.9081,-4.57781,88.7363
2023-03-11 20:03:37:813,0,-11.9048,-4.61284,88.7783
2023-03-11 20:03:37:823,0,-11.9034,-4.65079,88.8249
2023-03-11 20:03:37:834,0,-11.9043,-4.68684,88.8735
2023-03-11 20:03:37:844,0,-11.9118,-4.7201,88.9171
2023-03-11 20:03:37:854,0,-11.9188,-4.75211,88.9625
2023-03-11 20:03:37:863,0,-11.926,-4.77959,89.0018
2023-03-11 20:03:37:874,0,-11.9348,-4.80094,89.0378
2023-03-11 20:03:37:883,0,-11.9352,-4.82078,89.0702
2023-03-11 20:03:37:893,0,-11.9287,-4.84014,89.0999
2023-03-11 20:03:37:903,0,-11.9201,-4.86102,89.132
2023-03-11 20:03:37:913,0,-11.9024,-4.89087,89.1695
2023-03-11 20:03:37:924,0,-11.883,-4.92575,89.21
2023-03-11 20:03:37:933,0,-11.8646,-4.96357,89.2552
2023-03-11 20:03:37:943,0,-11.8575,-4.99279,89.2979
2023-03-11 20:03:37:953,0,-11.8511,-5.0203,89.3393
2023-03-11 20:03:37:963,0,-11.846,-5.04241,89.3767
2023-03-11 20:03:37:974,0,-11.8392,-5.06432,89.4196
2023-03-11 20:03:37:983,0,-11.8283,-5.0904,89.4634
2023-03-11 20:03:37:993,0,-11.8174,-5.11965,89.5059
2023-03-11 20:03:38:3,0,-11.8078,-5.14574,89.5472
2023-03-11 20:03:38:14,0,-11.7981,-5.17003,89.5897
2023-03-11 20:03:38:23,0,-11.7934,-5.1949,89.6321
2023-03-11 20:03:38:33,0,-11.7908,-5.22437,89.674
2023-03-11 20:03:38:43,0,-11.7948,-5.25516,89.7194
2023-03-11 20:03:38:53,0,-11.7963,-5.2861,89.763
2023-03-11 20:03:38:63,0,-11.8015,-5.31394,89.812
2023-03-11 20:03:38:73,0,-11.8009,-5.34291,89.866
2023-03-11 20:03:38:83,0,-11.799,-5.37085,89.9207
2023-03-11 20:03:38:93,0,-11.7986,-5.39273,89.9805
2023-03-11 20:03:38:103,0,-11.8009,-5.41408,90.0389
2023-03-11 20:03:38:113,0,-11.8055,-5.43178,90.0989
2023-03-11 20:03:38:124,0,-11.8095,-5.44958,90.1566
2023-03-11 20:03:38:134,0,-11.8134,-5.45761,90.21
2023-03-11 20:03:38:143,0,-11.8228,-5.46833,90.2602
2023-03-11 20:03:38:153,0,-11.8386,-5.47981,90.3085
2023-03-11 20:03:38:164,0,-11.8615,-5.49296,90.352
2023-03-11 20:03:38:174,0,-11.8893,-5.50307,90.3921
2023-03-11 20:03:38:183,0,-11.9183,-5.50848,90.4301
2023-03-11 20:03:38:194,0,-11.9505,-5.5126,90.4565
2023-03-11 20:03:38:203,0,-11.9837,-5.51538,90.4791
2023-03-11 20:03:38:214,0,-12.0132,-5.51664,90.4949
2023-03-11 20:03:38:223,0,-12.0418,-5.51819,90.507
2023-03-11 20:03:38:233,0,-12.0693,-5.51558,90.5189
2023-03-11 20:03:38:243,0,-12.0905,-5.51012,90.5266
2023-03-11 20:03:38:253,0,-12.1009,-5.50148,90.5262
2023-03-11 20:03:38:263,0,-12.1087,-5.49262,90.5204
2023-03-11 20:03:38:273,0,-12.1162,-5.48284,90.5094
2023-03-11 20:03:38:283,0,-12.1221,-5.47281,90.4979
2023-03-11 20:03:38:293,0,-12.1229,-5.46831,90.4765
2023-03-11 20:03:38:303,0,-12.1216,-5.46209,90.4461
2023-03-11 20:03:38:313,0,-12.1158,-5.46032,90.4022
2023-03-11 20:03:38:323,0,-12.1052,-5.45616,90.3354
2023-03-11 20:03:38:333,0,-12.0956,-5.45339,90.2339
2023-03-11 20:03:38:343,0,-12.0865,-5.44642,90.0923
2023-03-11 20:03:38:353,0,-12.0774,-5.44289,89.9142
2023-03-11 20:03:38:363,0,-12.0676,-5.45366,89.7139
2023-03-11 20:03:38:374,0,-12.0616,-5.48272,89.4949
2023-03-11 20:03:38:383,0,-12.0607,-5.51775,89.2608
2023-03-11 20:03:38:394,0,-12.0615,-5.55643,89.0213
2023-03-11 20:03:38:403,0,-12.0666,-5.60091,88.7792
2023-03-11 20:03:38:414,0,-12.0792,-5.65241,88.5408
2023-03-11 20:03:38:423,0,-12.0932,-5.70542,88.3047
2023-03-11 20:03:38:434,0,-12.099,-5.75814,88.0674
2023-03-11 20:03:38:444,0,-12.104,-5.81024,87.838
2023-03-11 20:03:38:454,0,-12.1065,-5.86354,87.6248
2023-03-11 20:03:38:463,0,-12.1157,-5.91363,87.4237
2023-03-11 20:03:38:474,0,-12.1243,-5.96789,87.2422
2023-03-11 20:03:38:484,0,-12.1339,-6.01459,87.0778
2023-03-11 20:03:38:494,0,-12.1446,-6.05154,86.9278
2023-03-11 20:03:38:503,0,-12.1648,-6.0759,86.798
2023-03-11 20:03:38:513,0,-12.1917,-6.09302,86.6846
2023-03-11 20:03:38:523,0,-12.2276,-6.1004,86.5845
2023-03-11 20:03:38:534,0,-12.2721,-6.09577,86.5009
2023-03-11 20:03:38:543,0,-12.3185,-6.0798,86.4256
2023-03-11 20:03:38:554,0,-12.3586,-6.05147,86.3608
2023-03-11 20:03:38:563,0,-12.3958,-6.01811,86.3006
2023-03-11 20:03:38:573,0,-12.4268,-5.98321,86.2526
2023-03-11 20:03:38:584,0,-12.4519,-5.95047,86.2119
2023-03-11 20:03:38:593,0,-12.4778,-5.91644,86.1818
2023-03-11 20:03:38:604,0,-12.5017,-5.88705,86.164
2023-03-11 20:03:38:614,0,-12.5237,-5.86047,86.1547
2023-03-11 20:03:38:623,0,-12.5403,-5.84054,86.1588
2023-03-11 20:03:38:634,0,-12.5532,-5.82159,86.172
2023-03-11 20:03:38:644,0,-12.5572,-5.81448,86.1913
2023-03-11 20:03:38:654,0,-12.5659,-5.8074,86.218
2023-03-11 20:03:38:664,0,-12.5692,-5.8034,86.2502
2023-03-11 20:03:38:673,0,-12.5763,-5.80235,86.2848
2023-03-11 20:03:38:683,0,-12.5783,-5.80565,86.3217
2023-03-11 20:03:38:694,0,-12.5754,-5.82097,86.3616
2023-03-11 20:03:38:704,0,-12.5755,-5.83627,86.4006
2023-03-11 20:03:38:714,0,-12.5771,-5.85816,86.4393
2023-03-11 20:03:38:723,0,-12.586,-5.88208,86.4743
2023-03-11 20:03:38:733,0,-12.5943,-5.90702,86.5076
2023-03-11 20:03:38:744,0,-12.5999,-5.932,86.5332
2023-03-11 20:03:38:754,0,-12.6038,-5.95873,86.5555
2023-03-11 20:03:38:763,0,-12.6068,-5.98089,86.578
2023-03-11 20:03:38:774,0,-12.6131,-6.0035,86.6043
2023-03-11 20:03:38:784,0,-12.6207,-6.02764,86.6363
2023-03-11 20:03:38:794,0,-12.629,-6.051,86.6733
2023-03-11 20:03:38:804,0,-12.6392,-6.07009,86.7139
2023-03-11 20:03:38:814,0,-12.6478,-6.08704,86.7556
2023-03-11 20:03:38:823,0,-12.6571,-6.09807,86.7971
2023-03-11 20:03:38:834,0,-12.6672,-6.11026,86.8366
2023-03-11 20:03:38:843,0,-12.6787,-6.11832,86.8721
2023-03-11 20:03:38:854,0,-12.6923,-6.12486,86.9009
2023-03-11 20:03:38:864,0,-12.7066,-6.13491,86.927
2023-03-11 20:03:38:874,0,-12.7175,-6.14648,86.9549
2023-03-11 20:03:38:884,0,-12.731,-6.15881,86.9784
2023-03-11 20:03:38:894,0,-12.7509,-6.17323,87.003
2023-03-11 20:03:38:904,0,-12.7766,-6.18728,87.0243
2023-03-11 20:03:38:914,0,-12.8116,-6.20266,87.0455
2023-03-11 20:03:38:924,0,-12.854,-6.21217,87.0689
2023-03-11 20:03:38:934,0,-12.8965,-6.22229,87.0924
2023-03-11 20:03:38:944,0,-12.9395,-6.22354,87.1124
2023-03-11 20:03:38:954,0,-12.9813,-6.22281,87.1345
2023-03-11 20:03:38:964,0,-13.0187,-6.21656,87.1617
2023-03-11 20:03:38:974,0,-13.0475,-6.21176,87.1874
2023-03-11 20:03:38:984,0,-13.0692,-6.20837,87.2155
2023-03-11 20:03:38:994,0,-13.0901,-6.19966,87.2448
2023-03-11 20:03:39:4,0,-13.1148,-6.19005,87.275
2023-03-11 20:03:39:14,0,-13.1335,-6.18222,87.3063
2023-03-11 20:03:39:24,0,-13.1536,-6.17284,87.3365
2023-03-11 20:03:39:34,0,-13.1738,-6.16356,87.3681
2023-03-11 20:03:39:44,0,-13.1931,-6.14947,87.3985
2023-03-11 20:03:39:54,0,-13.2118,-6.13622,87.4282
2023-03-11 20:03:39:64,0,-13.232,-6.12133,87.4549
2023-03-11 20:03:39:74,0,-13.2456,-6.10397,87.4813
2023-03-11 20:03:39:83,0,-13.2569,-6.08902,87.501
2023-03-11 20:03:39:94,0,-13.2646,-6.07663,87.5209
2023-03-11 20:03:39:104,0,-13.2693,-6.06657,87.5385
2023-03-11 20:03:39:114,0,-13.2649,-6.05981,87.5556
2023-03-11 20:03:39:123,0,-13.2606,-6.06381,87.5681
2023-03-11 20:03:39:133,0,-13.2549,-6.07024,87.5875
2023-03-11 20:03:39:143,0,-13.2485,-6.08375,87.6038
2023-03-11 20:03:39:154,0,-13.2416,-6.09435,87.6173
2023-03-11 20:03:39:163,0,-13.2309,-6.10459,87.6313
2023-03-11 20:03:39:174,0,-13.2186,-6.11166,87.6407
2023-03-11 20:03:39:184,0,-13.2129,-6.12504,87.6543
2023-03-11 20:03:39:194,0,-13.2069,-6.13597,87.6638
2023-03-11 20:03:39:204,0,-13.2016,-6.14458,87.6744
2023-03-11 20:03:39:214,0,-13.194,-6.14904,87.6841
2023-03-11 20:03:39:224,0,-13.1897,-6.15282,87.6954
2023-03-11 20:03:39:234,0,-13.1772,-6.15414,87.705
2023-03-11 20:03:39:244,0,-13.1679,-6.15358,87.7146
2023-03-11 20:03:39:254,0,-13.1632,-6.15109,87.7238
2023-03-11 20:03:39:263,0,-13.1603,-6.14898,87.7346
2023-03-11 20:03:39:274,0,-13.1564,-6.1415,87.7434
2023-03-11 20:03:39:283,0,-13.1573,-6.13032,87.7522
2023-03-11 20:03:39:294,0,-13.1548,-6.11782,87.7612
2023-03-11 20:03:39:304,0,-13.1591,-6.10421,87.7719
2023-03-11 20:03:39:314,0,-13.1682,-6.08577,87.7789
2023-03-11 20:03:39:323,0,-13.1754,-6.06866,87.7838
2023-03-11 20:03:39:333,0,-13.1777,-6.04566,87.7884
2023-03-11 20:03:39:343,0,-13.1785,-6.02539,87.7972
2023-03-11 20:03:39:354,0,-13.1754,-6.00868,87.804
2023-03-11 20:03:39:363,0,-13.169,-5.99214,87.8132
2023-03-11 20:03:39:373,0,-13.1561,-5.97811,87.8254
2023-03-11 20:03:39:383,0,-13.1438,-5.9705,87.8425
2023-03-11 20:03:39:393,0,-13.1273,-5.97009,87.8696
2023-03-11 20:03:39:404,0,-13.1142,-5.97491,87.9051
2023-03-11 20:03:39:414,0,-13.1122,-5.9795,87.9505
2023-03-11 20:03:39:423,0,-13.1233,-5.97859,88.0042
2023-03-11 20:03:39:433,0,-13.1476,-5.97385,88.0566
2023-03-11 20:03:39:443,0,-13.1862,-5.96844,88.1136
2023-03-11 20:03:39:454,0,-13.2355,-5.95696,88.1751
2023-03-11 20:03:39:464,0,-13.2862,-5.94332,88.2336
2023-03-11 20:03:39:474,0,-13.346,-5.927,88.297
2023-03-11 20:03:39:483,0,-13.4059,-5.91775,88.36
2023-03-11 20:03:39:493,0,-13.4722,-5.91071,88.4245
2023-03-11 20:03:39:504,0,-13.5445,-5.9064,88.4963
2023-03-11 20:03:39:514,0,-13.6319,-5.90583,88.5734
2023-03-11 20:03:39:523,0,-13.7372,-5.9037,88.6549
2023-03-11 20:03:39:534,0,-13.8582,-5.90121,88.7426
2023-03-11 20:03:39:544,0,-13.9868,-5.89601,88.8318
2023-03-11 20:03:39:554,0,-14.1192,-5.89245,88.9343
2023-03-11 20:03:39:564,0,-14.2435,-5.88697,89.04
2023-03-11 20:03:39:574,0,-14.3522,-5.87292,89.1515
2023-03-11 20:03:39:584,0,-14.4533,-5.86118,89.2701
2023-03-11 20:03:39:593,0,-14.5527,-5.84849,89.3967
2023-03-11 20:03:39:603,0,-14.6535,-5.83573,89.5237
2023-03-11 20:03:39:613,0,-14.755,-5.82337,89.6534
2023-03-11 20:03:39:623,0,-14.847,-5.81477,89.7835
2023-03-11 20:03:39:634,0,-14.9267,-5.80097,89.9068
2023-03-11 20:03:39:643,0,-14.985,-5.77748,90.0243
2023-03-11 20:03:39:654,0,-15.0327,-5.7483,90.1335
2023-03-11 20:03:39:663,0,-15.0785,-5.72094,90.2307
2023-03-11 20:03:39:674,0,-15.1323,-5.69027,90.3223
2023-03-11 20:03:39:684,0,-15.1983,-5.6689,90.4079
2023-03-11 20:03:39:694,0,-15.2626,-5.66177,90.4939
2023-03-11 20:03:39:704,0,-15.3144,-5.6651,90.5812
2023-03-11 20:03:39:714,0,-15.3578,-5.67678,90.668
2023-03-11 20:03:39:724,0,-15.3838,-5.69126,90.7542
2023-03-11 20:03:39:734,0,-15.3983,-5.70152,90.8367
2023-03-11 20:03:39:744,0,-15.409,-5.71774,90.9238
2023-03-11 20:03:39:754,0,-15.4278,-5.73269,91.0118
2023-03-11 20:03:39:764,0,-15.4594,-5.74916,91.1027
2023-03-11 20:03:39:774,0,-15.5036,-5.76328,91.1972
2023-03-11 20:03:39:784,0,-15.5542,-5.78213,91.297
2023-03-11 20:03:39:794,0,-15.6002,-5.80727,91.3972
2023-03-11 20:03:39:804,0,-15.64,-5.82603,91.4997
2023-03-11 20:03:39:814,0,-15.6713,-5.83781,91.5994
2023-03-11 20:03:39:824,0,-15.6979,-5.84153,91.6943
2023-03-11 20:03:39:834,0,-15.7173,-5.83713,91.7726
2023-03-11 20:03:39:844,0,-15.7382,-5.82651,91.8411
2023-03-11 20:03:39:853,0,-15.7644,-5.81244,91.9028
2023-03-11 20:03:39:863,0,-15.8032,-5.79767,91.9537
2023-03-11 20:03:39:874,0,-15.8517,-5.7864,91.9967
2023-03-11 20:03:39:883,0,-15.9128,-5.77485,92.0333
2023-03-11 20:03:39:894,0,-15.9753,-5.77231,92.0637
2023-03-11 20:03:39:904,0,-16.0298,-5.76432,92.0818
2023-03-11 20:03:39:914,0,-16.0767,-5.75492,92.0887
2023-03-11 20:03:39:924,0,-16.1109,-5.74205,92.0807
2023-03-11 20:03:39:934,0,-16.1348,-5.72658,92.0621
2023-03-11 20:03:39:943,0,-16.1541,-5.70964,92.0329
2023-03-11 20:03:39:954,0,-16.1639,-5.69573,91.9869
2023-03-11 20:03:39:964,0,-16.1638,-5.67647,91.9232
2023-03-11 20:03:39:974,0,-16.1532,-5.65255,91.8448
2023-03-11 20:03:39:984,0,-16.13,-5.62208,91.7526
2023-03-11 20:03:39:994,0,-16.0999,-5.59264,91.6499
2023-03-11 20:03:40:4,0,-16.066,-5.56137,91.5441
2023-03-11 20:03:40:14,0,-16.0362,-5.53344,91.4399
2023-03-11 20:03:40:24,0,-16.0155,-5.50409,91.3437
2023-03-11 20:03:40:34,0,-16.0023,-5.47346,91.2585
2023-03-11 20:03:40:44,0,-15.997,-5.44581,91.1812
2023-03-11 20:03:40:54,0,-15.9969,-5.40911,91.1176
2023-03-11 20:03:40:64,0,-15.9927,-5.37583,91.0646
2023-03-11 20:03:40:74,0,-15.9857,-5.34307,91.0191
2023-03-11 20:03:40:84,0,-15.9746,-5.31658,90.9823
2023-03-11 20:03:40:94,0,-15.9537,-5.29653,90.95
2023-03-11 20:03:40:104,0,-15.9231,-5.27652,90.9147
2023-03-11 20:03:40:114,0,-15.8853,-5.25763,90.882
2023-03-11 20:03:40:123,0,-15.8357,-5.24873,90.8426
2023-03-11 20:03:40:133,0,-15.7795,-5.24519,90.8032
2023-03-11 20:03:40:144,0,-15.7146,-5.24693,90.7616
2023-03-11 20:03:40:154,0,-15.6458,-5.25443,90.7159
2023-03-11 20:03:40:164,0,-15.5667,-5.26385,90.673
2023-03-11 20:03:40:174,0,-15.4761,-5.27033,90.6253
2023-03-11 20:03:40:183,0,-15.3731,-5.27693,90.5766
2023-03-11 20:03:40:194,0,-15.2608,-5.27404,90.5296
2023-03-11 20:03:40:204,0,-15.1506,-5.26988,90.4876
2023-03-11 20:03:40:214,0,-15.0437,-5.26008,90.4452
2023-03-11 20:03:40:224,0,-14.9432,-5.24977,90.4047
2023-03-11 20:03:40:234,0,-14.8434,-5.23945,90.3651
2023-03-11 20:03:40:244,0,-14.7468,-5.23892,90.3332
2023-03-11 20:03:40:254,0,-14.6503,-5.24654,90.3103
2023-03-11 20:03:40:263,0,-14.5574,-5.25848,90.2933
2023-03-11 20:03:40:274,0,-14.4724,-5.27254,90.2837
2023-03-11 20:03:40:284,0,-14.3911,-5.28899,90.2812
2023-03-11 20:03:40:294,0,-14.3178,-5.306,90.2851
2023-03-11 20:03:40:304,0,-14.2553,-5.31982,90.2923
2023-03-11 20:03:40:314,0,-14.1979,-5.3342,90.3045
2023-03-11 20:03:40:324,0,-14.1432,-5.34539,90.3211
2023-03-11 20:03:40:334,0,-14.0929,-5.35523,90.3378
2023-03-11 20:03:40:344,0,-14.0485,-5.36472,90.3572
2023-03-11 20:03:40:354,0,-14.0117,-5.3722,90.3797
2023-03-11 20:03:40:363,0,-13.9796,-5.38488,90.4038
2023-03-11 20:03:40:374,0,-13.9574,-5.39924,90.4312
2023-03-11 20:03:40:384,0,-13.9376,-5.41506,90.4587
2023-03-11 20:03:40:394,0,-13.9235,-5.43065,90.4836
2023-03-11 20:03:40:404,0,-13.9114,-5.44241,90.508
2023-03-11 20:03:40:414,0,-13.9011,-5.45683,90.5311
2023-03-11 20:03:40:424,0,-13.8894,-5.46928,90.5506
2023-03-11 20:03:40:434,0,-13.8791,-5.47942,90.566
2023-03-11 20:03:40:444,0,-13.8691,-5.48733,90.5741
2023-03-11 20:03:40:453,0,-13.8606,-5.49535,90.5813
2023-03-11 20:03:40:464,0,-13.8524,-5.50016,90.5788
2023-03-11 20:03:40:474,0,-13.8437,-5.50331,90.5756
2023-03-11 20:03:40:484,0,-13.8358,-5.50832,90.5738
2023-03-11 20:03:40:494,0,-13.8274,-5.51299,90.5672
2023-03-11 20:03:40:504,0,-13.818,-5.51902,90.5587
2023-03-11 20:03:40:514,0,-13.8078,-5.52954,90.5485
2023-03-11 20:03:40:524,0,-13.7995,-5.53627,90.5373
2023-03-11 20:03:40:534,0,-13.7861,-5.54247,90.5295
2023-03-11 20:03:40:544,0,-13.7724,-5.55018,90.5199
2023-03-11 20:03:40:554,0,-13.7586,-5.56044,90.5122
2023-03-11 20:03:40:564,0,-13.7478,-5.56915,90.5056
2023-03-11 20:03:40:574,0,-13.7387,-5.57972,90.5006
2023-03-11 20:03:40:584,0,-13.7277,-5.58946,90.4963
2023-03-11 20:03:40:593,0,-13.7161,-5.59955,90.4977
2023-03-11 20:03:40:604,0,-13.7031,-5.6171,90.4981
2023-03-11 20:03:40:614,0,-13.6936,-5.63189,90.5028
2023-03-11 20:03:40:624,0,-13.6783,-5.64509,90.5078
2023-03-11 20:03:40:633,0,-13.6617,-5.6569,90.515
2023-03-11 20:03:40:644,0,-13.643,-5.67326,90.5243
2023-03-11 20:03:40:654,0,-13.6242,-5.69065,90.538
2023-03-11 20:03:40:664,0,-13.6096,-5.70857,90.5598
2023-03-11 20:03:40:674,0,-13.5976,-5.73066,90.574
2023-03-11 20:03:40:684,0,-13.5904,-5.753,90.5909
2023-03-11 20:03:40:694,0,-13.5828,-5.77394,90.6107
2023-03-11 20:03:40:704,0,-13.5751,-5.79551,90.6328
2023-03-11 20:03:40:714,0,-13.5621,-5.80728,90.6533
2023-03-11 20:03:40:724,0,-13.5488,-5.81668,90.6727
2023-03-11 20:03:40:734,0,-13.5306,-5.82306,90.6883
2023-03-11 20:03:40:744,0,-13.5158,-5.82796,90.7068
2023-03-11 20:03:40:754,0,-13.4995,-5.83142,90.7255
2023-03-11 20:03:40:763,0,-13.4872,-5.83708,90.7415
2023-03-11 20:03:40:774,0,-13.4728,-5.83791,90.7587
2023-03-11 20:03:40:783,0,-13.4601,-5.8439,90.7745
2023-03-11 20:03:40:794,0,-13.4538,-5.84591,90.7874
2023-03-11 20:03:40:803,0,-13.4433,-5.84394,90.7947
2023-03-11 20:03:40:814,0,-13.4303,-5.84528,90.798
2023-03-11 20:03:40:824,0,-13.4153,-5.84621,90.7981
2023-03-11 20:03:40:834,0,-13.3927,-5.8459,90.797
2023-03-11 20:03:40:843,0,-13.3656,-5.849,90.7951
2023-03-11 20:03:40:854,0,-13.3394,-5.84716,90.795
2023-03-11 20:03:40:863,0,-13.3215,-5.84733,90.7971
2023-03-11 20:03:40:873,0,-13.3019,-5.84973,90.7994
2023-03-11 20:03:40:884,0,-13.272,-5.8526,90.8065
2023-03-11 20:03:40:894,0,-13.2415,-5.85779,90.8146
2023-03-11 20:03:40:904,0,-13.2072,-5.85888,90.8205
2023-03-11 20:03:40:914,0,-13.1674,-5.8584,90.8239
2023-03-11 20:03:40:923,0,-13.1306,-5.86156,90.8322
2023-03-11 20:03:40:934,0,-13.0889,-5.8636,90.8397
2023-03-11 20:03:40:944,0,-13.0513,-5.86463,90.8438
2023-03-11 20:03:40:954,0,-13.0183,-5.86553,90.8495
2023-03-11 20:03:40:964,0,-12.9962,-5.86862,90.8501
2023-03-11 20:03:40:974,0,-12.9742,-5.86951,90.8487
2023-03-11 20:03:40:984,0,-12.9529,-5.87441,90.8477
2023-03-11 20:03:40:994,0,-12.9254,-5.88029,90.8457
2023-03-11 20:03:41:4,0,-12.8936,-5.88856,90.8485
2023-03-11 20:03:41:14,0,-12.8648,-5.89822,90.853
2023-03-11 20:03:41:24,0,-12.8372,-5.90705,90.8571
2023-03-11 20:03:41:34,0,-12.8133,-5.91282,90.8665
2023-03-11 20:03:41:44,0,-12.7956,-5.91577,90.879
2023-03-11 20:03:41:54,0,-12.7749,-5.92005,90.8877
2023-03-11 20:03:41:64,0,-12.7579,-5.92074,90.8981
2023-03-11 20:03:41:74,0,-12.7335,-5.9187,90.9123
2023-03-11 20:03:41:84,0,-12.7092,-5.91797,90.921
2023-03-11 20:03:41:94,0,-12.6802,-5.90793,90.9276
2023-03-11 20:03:41:104,0,-12.6524,-5.89122,90.928
2023-03-11 20:03:41:114,0,-12.63,-5.87675,90.9263
2023-03-11 20:03:41:124,0,-12.6143,-5.86255,90.9238
2023-03-11 20:03:41:134,0,-12.6041,-5.84427,90.9186
2023-03-11 20:03:41:144,0,-12.5993,-5.82647,90.9157
2023-03-11 20:03:41:153,0,-12.5975,-5.8127,90.9122
2023-03-11 20:03:41:164,0,-12.5967,-5.79922,90.9066
2023-03-11 20:03:41:174,0,-12.6016,-5.78749,90.9025
2023-03-11 20:03:41:184,0,-12.6075,-5.7795,90.9001
2023-03-11 20:03:41:194,0,-12.614,-5.77743,90.8978
2023-03-11 20:03:41:204,0,-12.6224,-5.77761,90.8934
2023-03-11 20:03:41:213,0,-12.6338,-5.77872,90.8882
2023-03-11 20:03:41:223,0,-12.6433,-5.78266,90.88
2023-03-11 20:03:41:234,0,-12.6527,-5.78814,90.8684
2023-03-11 20:03:41:244,0,-12.6595,-5.79723,90.854
2023-03-11 20:03:41:254,0,-12.6668,-5.81302,90.8422
2023-03-11 20:03:41:263,0,-12.6747,-5.8276,90.8327
2023-03-11 20:03:41:274,0,-12.6814,-5.84096,90.8231
2023-03-11 20:03:41:283,0,-12.6882,-5.8494,90.8084
2023-03-11 20:03:41:294,0,-12.6964,-5.85292,90.7961
2023-03-11 20:03:41:304,0,-12.7083,-5.85793,90.778
2023-03-11 20:03:41:314,0,-12.7172,-5.86387,90.76
2023-03-11 20:03:41:324,0,-12.7204,-5.87187,90.7425
2023-03-11 20:03:41:334,0,-12.7113,-5.88582,90.7291
2023-03-11 20:03:41:344,0,-12.6971,-5.90527,90.7257
2023-03-11 20:03:41:354,0,-12.6772,-5.92291,90.7298
2023-03-11 20:03:41:363,0,-12.6579,-5.94462,90.741
2023-03-11 20:03:41:374,0,-12.6419,-5.96195,90.7581
2023-03-11 20:03:41:384,0,-12.6337,-5.97109,90.7773
2023-03-11 20:03:41:394,0,-12.6273,-5.97612,90.7951
2023-03-11 20:03:41:404,0,-12.6251,-5.9758,90.8129
2023-03-11 20:03:41:414,0,-12.6229,-5.96951,90.8211
2023-03-11 20:03:41:424,0,-12.6229,-5.95546,90.8257
2023-03-11 20:03:41:434,0,-12.6262,-5.93225,90.8193
2023-03-11 20:03:41:444,0,-12.6346,-5.90678,90.8066
2023-03-11 20:03:41:453,0,-12.6388,-5.87407,90.7834
2023-03-11 20:03:41:464,0,-12.6449,-5.8439,90.7547
2023-03-11 20:03:41:474,0,-12.6531,-5.81325,90.723
2023-03-11 20:03:41:484,0,-12.6547,-5.7825,90.6922
2023-03-11 20:03:41:494,0,-12.6577,-5.75003,90.661
2023-03-11 20:03:41:504,0,-12.6574,-5.72455,90.6343
2023-03-11 20:03:41:514,0,-12.6562,-5.69762,90.6037
2023-03-11 20:03:41:524,0,-12.6554,-5.67579,90.5784
2023-03-11 20:03:41:533,0,-12.6517,-5.65594,90.551
2023-03-11 20:03:41:543,0,-12.647,-5.63888,90.5249
2023-03-11 20:03:41:553,0,-12.6429,-5.62536,90.5031
2023-03-11 20:03:41:563,0,-12.6311,-5.61469,90.485
2023-03-11 20:03:41:573,0,-12.6241,-5.60719,90.4729
2023-03-11 20:03:41:583,0,-12.6212,-5.60424,90.4708
2023-03-11 20:03:41:593,0,-12.6209,-5.60587,90.4748
2023-03-11 20:03:41:604,0,-12.6246,-5.61181,90.4809
2023-03-11 20:03:41:613,0,-12.6315,-5.61583,90.4916
2023-03-11 20:03:41:623,0,-12.6396,-5.62544,90.5078
2023-03-11 20:03:41:633,0,-12.6446,-5.63458,90.5264
2023-03-11 20:03:41:643,0,-12.6507,-5.64368,90.5478
2023-03-11 20:03:41:654,0,-12.6592,-5.65698,90.5714
2023-03-11 20:03:41:663,0,-12.6645,-5.67268,90.5982
2023-03-11 20:03:41:673,0,-12.6641,-5.6833,90.6233
2023-03-11 20:03:41:683,0,-12.6557,-5.69448,90.6481
2023-03-11 20:03:41:693,0,-12.636,-5.70499,90.676
2023-03-11 20:03:41:703,0,-12.6154,-5.71023,90.7061
2023-03-11 20:03:41:714,0,-12.5926,-5.71316,90.7367
2023-03-11 20:03:41:723,0,-12.5688,-5.71219,90.7636
2023-03-11 20:03:41:734,0,-12.5428,-5.70822,90.7914
2023-03-11 20:03:41:744,0,-12.5091,-5.71288,90.8171
2023-03-11 20:03:41:754,0,-12.4671,-5.72339,90.8446
2023-03-11 20:03:41:764,0,-12.4258,-5.73898,90.8771
2023-03-11 20:03:41:774,0,-12.3921,-5.75518,90.9088
2023-03-11 20:03:41:784,0,-12.3648,-5.77437,90.9449
2023-03-11 20:03:41:794,0,-12.3452,-5.79249,90.9831
2023-03-11 20:03:41:804,0,-12.3295,-5.8064,91.0199
2023-03-11 20:03:41:814,0,-12.3167,-5.81662,91.0553
2023-03-11 20:03:41:824,0,-12.3079,-5.82684,91.0899
2023-03-11 20:03:41:834,0,-12.3062,-5.83815,91.1292
2023-03-11 20:03:41:844,0,-12.3106,-5.84493,91.1684
2023-03-11 20:03:41:854,0,-12.3077,-5.84962,91.2081
2023-03-11 20:03:41:864,0,-12.3028,-5.84913,91.2436
2023-03-11 20:03:41:873,0,-12.2955,-5.84474,91.2736
2023-03-11 20:03:41:884,0,-12.292,-5.83642,91.3024
2023-03-11 20:03:41:894,0,-12.2872,-5.83056,91.3296
2023-03-11 20:03:41:903,0,-12.2811,-5.82196,91.3521
2023-03-11 20:03:41:914,0,-12.277,-5.81352,91.3681
2023-03-11 20:03:41:924,0,-12.2805,-5.80779,91.3775
2023-03-11 20:03:41:934,0,-12.2916,-5.80293,91.3862
2023-03-11 20:03:41:944,0,-12.3026,-5.79831,91.3877
2023-03-11 20:03:41:954,0,-12.3132,-5.79368,91.3914
2023-03-11 20:03:41:964,0,-12.3241,-5.7806,91.3871
2023-03-11 20:03:41:974,0,-12.3353,-5.76589,91.3792
2023-03-11 20:03:41:984,0,-12.3412,-5.75312,91.3679
2023-03-11 20:03:41:994,0,-12.34,-5.73721,91.3584
2023-03-11 20:03:42:4,0,-12.3366,-5.72643,91.3511
2023-03-11 20:03:42:14,0,-12.3282,-5.71517,91.3415
2023-03-11 20:03:42:24,0,-12.3166,-5.70426,91.3334
2023-03-11 20:03:42:34,0,-12.303,-5.69426,91.3222
2023-03-11 20:03:42:43,0,-12.2926,-5.68181,91.3102
2023-03-11 20:03:42:53,0,-12.2854,-5.6701,91.2922
2023-03-11 20:03:42:63,0,-12.2817,-5.66226,91.2692
2023-03-11 20:03:42:74,0,-12.2771,-5.66139,91.2427
2023-03-11 20:03:42:84,0,-12.265,-5.66541,91.209
2023-03-11 20:03:42:94,0,-12.2509,-5.67531,91.1737
2023-03-11 20:03:42:104,0,-12.2369,-5.68979,91.138
2023-03-11 20:03:42:114,0,-12.2157,-5.71411,91.1063
2023-03-11 20:03:42:124,0,-12.191,-5.73685,91.075
2023-03-11 20:03:42:134,0,-12.1542,-5.76149,91.0493
2023-03-11 20:03:42:144,0,-12.115,-5.79077,91.0348
2023-03-11 20:03:42:154,0,-12.0738,-5.82531,91.0326
2023-03-11 20:03:42:164,0,-12.0315,-5.86724,91.0399
2023-03-11 20:03:42:174,0,-11.9924,-5.91113,91.056
2023-03-11 20:03:42:183,0,-11.9566,-5.95584,91.0866
2023-03-11 20:03:42:194,0,-11.9238,-6.00179,91.1213
2023-03-11 20:03:42:203,0,-11.8911,-6.04364,91.1644
2023-03-11 20:03:42:213,0,-11.8527,-6.08525,91.2088
2023-03-11 20:03:42:223,0,-11.8169,-6.12956,91.2508
2023-03-11 20:03:42:234,0,-11.7863,-6.16962,91.2911
2023-03-11 20:03:42:244,0,-11.7629,-6.20819,91.3276
2023-03-11 20:03:42:254,0,-11.7377,-6.24342,91.3595
2023-03-11 20:03:42:263,0,-11.7137,-6.27333,91.382
2023-03-11 20:03:42:274,0,-11.6882,-6.29839,91.403
2023-03-11 20:03:42:284,0,-11.6634,-6.32182,91.4176
2023-03-11 20:03:42:294,0,-11.6392,-6.33746,91.4334
2023-03-11 20:03:42:303,0,-11.6148,-6.35321,91.4449
2023-03-11 20:03:42:313,0,-11.5844,-6.36275,91.4551
2023-03-11 20:03:42:324,0,-11.5556,-6.37371,91.466
2023-03-11 20:03:42:334,0,-11.5267,-6.38344,91.4791
2023-03-11 20:03:42:344,0,-11.5016,-6.38775,91.4877
2023-03-11 20:03:42:353,0,-11.482,-6.39528,91.4984
2023-03-11 20:03:42:363,0,-11.4652,-6.39599,91.5099
2023-03-11 20:03:42:374,0,-11.4472,-6.40073,91.5243
2023-03-11 20:03:42:384,0,-11.426,-6.40174,91.5398
2023-03-11 20:03:42:394,0,-11.4033,-6.40051,91.5543
2023-03-11 20:03:42:404,0,-11.3801,-6.40315,91.5685
2023-03-11 20:03:42:413,0,-11.3562,-6.4007,91.5861
2023-03-11 20:03:42:424,0,-11.3311,-6.39403,91.5987
2023-03-11 20:03:42:434,0,-11.3081,-6.39027,91.6102
2023-03-11 20:03:42:444,0,-11.2838,-6.38563,91.621
2023-03-11 20:03:42:454,0,-11.2621,-6.38112,91.6349
2023-03-11 20:03:42:464,0,-11.2402,-6.3734,91.6484
2023-03-11 20:03:42:474,0,-11.2233,-6.36084,91.6574
2023-03-11 20:03:42:484,0,-11.2036,-6.35119,91.6647
2023-03-11 20:03:42:494,0,-11.1802,-6.34697,91.6747
2023-03-11 20:03:42:504,0,-11.1553,-6.3473,91.6812
2023-03-11 20:03:42:514,0,-11.1346,-6.34925,91.6978
2023-03-11 20:03:42:524,0,-11.1238,-6.35335,91.7128
2023-03-11 20:03:42:534,0,-11.1166,-6.35253,91.7281
2023-03-11 20:03:42:544,0,-11.1099,-6.35163,91.7418
2023-03-11 20:03:42:554,0,-11.1059,-6.34837,91.7538
2023-03-11 20:03:42:564,0,-11.1028,-6.34686,91.7699
2023-03-11 20:03:42:574,0,-11.0984,-6.33963,91.7839
2023-03-11 20:03:42:584,0,-11.0932,-6.33649,91.7992
2023-03-11 20:03:42:594,0,-11.0819,-6.32976,91.8181
2023-03-11 20:03:42:604,0,-11.0728,-6.31824,91.8321
2023-03-11 20:03:42:614,0,-11.0625,-6.30974,91.8461
2023-03-11 20:03:42:624,0,-11.0542,-6.30107,91.8579
2023-03-11 20:03:42:634,0,-11.0477,-6.28663,91.8702
2023-03-11 20:03:42:644,0,-11.0449,-6.26824,91.8825
2023-03-11 20:03:42:654,0,-11.0437,-6.25158,91.8893
2023-03-11 20:03:42:664,0,-11.0434,-6.23287,91.8964
2023-03-11 20:03:42:674,0,-11.0467,-6.21551,91.9021
2023-03-11 20:03:42:684,0,-11.0561,-6.2015,91.9048
2023-03-11 20:03:42:693,0,-11.061,-6.19,91.9052
2023-03-11 20:03:42:703,0,-11.0704,-6.17398,91.9063
2023-03-11 20:03:42:713,0,-11.0778,-6.1596,91.9044
2023-03-11 20:03:42:723,0,-11.079,-6.14369,91.9008
2023-03-11 20:03:42:734,0,-11.0776,-6.12729,91.8953
2023-03-11 20:03:42:743,0,-11.0715,-6.11649,91.8866
2023-03-11 20:03:42:754,0,-11.0639,-6.1057,91.8775
2023-03-11 20:03:42:763,0,-11.0527,-6.09369,91.8686
2023-03-11 20:03:42:774,0,-11.04,-6.08395,91.8575
2023-03-11 20:03:42:783,0,-11.0324,-6.0763,91.8501
2023-03-11 20:03:42:794,0,-11.0314,-6.06972,91.8438
2023-03-11 20:03:42:804,0,-11.0308,-6.06419,91.8377
2023-03-11 20:03:42:814,0,-11.0291,-6.06087,91.838
2023-03-11 20:03:42:824,0,-11.0179,-6.06088,91.8475
2023-03-11 20:03:42:834,0,-11.0076,-6.06044,91.8565
2023-03-11 20:03:42:843,0,-10.9924,-6.06129,91.8671
2023-03-11 20:03:42:854,0,-10.978,-6.06287,91.8794
2023-03-11 20:03:42:864,0,-10.9596,-6.05989,91.8897
2023-03-11 20:03:42:874,0,-10.9417,-6.05916,91.8972
2023-03-11 20:03:42:884,0,-10.9189,-6.05804,91.9057
2023-03-11 20:03:42:894,0,-10.8952,-6.05728,91.9088
2023-03-11 20:03:42:904,0,-10.8705,-6.04957,91.909
2023-03-11 20:03:42:914,0,-10.8514,-6.04694,91.9052
2023-03-11 20:03:42:924,0,-10.8314,-6.03986,91.8958
2023-03-11 20:03:42:934,0,-10.8125,-6.03223,91.8836
2023-03-11 20:03:42:944,0,-10.7983,-6.02234,91.8708
2023-03-11 20:03:42:954,0,-10.7918,-6.01336,91.8582
2023-03-11 20:03:42:964,0,-10.7857,-6.00387,91.8469
2023-03-11 20:03:42:973,0,-10.7761,-5.99168,91.8348
2023-03-11 20:03:42:984,0,-10.7615,-5.97943,91.8229
2023-03-11 20:03:42:994,0,-10.7461,-5.96374,91.8132
2023-03-11 20:03:43:3,0,-10.7337,-5.94436,91.8017
2023-03-11 20:03:43:14,0,-10.7254,-5.92754,91.7937
2023-03-11 20:03:43:24,0,-10.7274,-5.90851,91.7847
2023-03-11 20:03:43:34,0,-10.7342,-5.88918,91.7736
2023-03-11 20:03:43:44,0,-10.7415,-5.86478,91.7652
2023-03-11 20:03:43:53,0,-10.7458,-5.83676,91.7551
2023-03-11 20:03:43:63,0,-10.7524,-5.80958,91.7409
2023-03-11 20:03:43:74,0,-10.7591,-5.78486,91.7243
2023-03-11 20:03:43:84,0,-10.7659,-5.76013,91.7003
2023-03-11 20:03:43:94,0,-10.7702,-5.74117,91.6799
2023-03-11 20:03:43:104,0,-10.7737,-5.72276,91.6592
2023-03-11 20:03:43:114,0,-10.783,-5.70924,91.6432
2023-03-11 20:03:43:124,0,-10.795,-5.70351,91.6287
2023-03-11 20:03:43:134,0,-10.8094,-5.69663,91.6205
2023-03-11 20:03:43:144,0,-10.822,-5.69431,91.6139
2023-03-11 20:03:43:154,0,-10.8329,-5.68729,91.6104
2023-03-11 20:03:43:164,0,-10.8406,-5.68296,91.6085
2023-03-11 20:03:43:173,0,-10.8428,-5.67711,91.6016
2023-03-11 20:03:43:183,0,-10.8447,-5.6655,91.5932
2023-03-11 20:03:43:193,0,-10.8501,-5.64941,91.5851
2023-03-11 20:03:43:203,0,-10.8578,-5.63471,91.5735
2023-03-11 20:03:43:213,0,-10.8687,-5.6266,91.5557
2023-03-11 20:03:43:223,0,-10.8743,-5.61874,91.5329
2023-03-11 20:03:43:234,0,-10.8786,-5.61984,91.5127
2023-03-11 20:03:43:244,0,-10.8865,-5.6266,91.4971
2023-03-11 20:03:43:254,0,-10.8923,-5.63365,91.4794
2023-03-11 20:03:43:264,0,-10.8992,-5.63408,91.4626
2023-03-11 20:03:43:274,0,-10.9056,-5.62689,91.4451
2023-03-11 20:03:43:283,0,-10.9109,-5.61597,91.4311
2023-03-11 20:03:43:294,0,-10.9145,-5.6006,91.4195
2023-03-11 20:03:43:303,0,-10.9187,-5.58249,91.4074
2023-03-11 20:03:43:314,0,-10.9216,-5.56412,91.3945
2023-03-11 20:03:43:324,0,-10.9196,-5.54212,91.3809
2023-03-11 20:03:43:334,0,-10.9189,-5.51859,91.3667
2023-03-11 20:03:43:343,0,-10.9187,-5.49523,91.3515
2023-03-11 20:03:43:354,0,-10.9201,-5.47228,91.3355
2023-03-11 20:03:43:364,0,-10.9228,-5.45112,91.3187
2023-03-11 20:03:43:374,0,-10.9271,-5.42728,91.3041
2023-03-11 20:03:43:384,0,-10.9311,-5.40815,91.2907
2023-03-11 20:03:43:394,0,-10.9379,-5.39026,91.2717
2023-03-11 20:03:43:403,0,-10.952,-5.37812,91.26
2023-03-11 20:03:43:414,0,-10.9661,-5.36983,91.2539
2023-03-11 20:03:43:424,0,-10.9804,-5.3605,91.2498
2023-03-11 20:03:43:434,0,-10.9957,-5.35812,91.2521
2023-03-11 20:03:43:443,0,-11.014,-5.35357,91.2569
2023-03-11 20:03:43:453,0,-11.0292,-5.35336,91.263
2023-03-11 20:03:43:463,0,-11.0431,-5.35483,91.2757
2023-03-11 20:03:43:473,0,-11.0552,-5.35767,91.2954
2023-03-11 20:03:43:484,0,-11.0743,-5.36378,91.3128
2023-03-11 20:03:43:494,0,-11.0908,-5.36434,91.3338
2023-03-11 20:03:43:504,0,-11.1049,-5.3645,91.3463
2023-03-11 20:03:43:514,0,-11.1183,-5.36134,91.3522
2023-03-11 20:03:43:524,0,-11.1306,-5.35516,91.3508
2023-03-11 20:03:43:533,0,-11.1413,-5.34988,91.3483
2023-03-11 20:03:43:543,0,-11.1455,-5.34275,91.3339
2023-03-11 20:03:43:553,0,-11.145,-5.33652,91.3137
2023-03-11 20:03:43:563,0,-11.1461,-5.33097,91.2888
2023-03-11 20:03:43:574,0,-11.1435,-5.32515,91.2596
2023-03-11 20:03:43:583,0,-11.144,-5.32238,91.229
2023-03-11 20:03:43:594,0,-11.1457,-5.32311,91.2015
2023-03-11 20:03:43:604,0,-11.1471,-5.32688,91.1824
2023-03-11 20:03:43:614,0,-11.1517,-5.33326,91.1707
2023-03-11 20:03:43:624,0,-11.1561,-5.3388,91.1686
2023-03-11 20:03:43:634,0,-11.1565,-5.34787,91.1744
2023-03-11 20:03:43:644,0,-11.1556,-5.35938,91.192
2023-03-11 20:03:43:654,0,-11.1549,-5.36952,91.2196
2023-03-11 20:03:43:663,0,-11.1505,-5.3781,91.252
2023-03-11 20:03:43:673,0,-11.153,-5.38791,91.2891
2023-03-11 20:03:43:684,0,-11.1631,-5.39557,91.3282
2023-03-11 20:03:43:694,0,-11.1713,-5.40391,91.3708
2023-03-11 20:03:43:704,0,-11.1842,-5.40994,91.4117
2023-03-11 20:03:43:714,0,-11.1902,-5.41687,91.4492
2023-03-11 20:03:43:723,0,-11.1933,-5.42225,91.4856
2023-03-11 20:03:43:733,0,-11.1945,-5.42319,91.5152
2023-03-11 20:03:43:743,0,-11.1967,-5.42202,91.5383
2023-03-11 20:03:43:754,0,-11.197,-5.41818,91.5612
2023-03-11 20:03:43:764,0,-11.1986,-5.41708,91.5816
2023-03-11 20:03:43:773,0,-11.1937,-5.41649,91.5954
2023-03-11 20:03:43:784,0,-11.1891,-5.41707,91.6071
2023-03-11 20:03:43:794,0,-11.1807,-5.41619,91.622
2023-03-11 20:03:43:804,0,-11.1754,-5.41435,91.6413
2023-03-11 20:03:43:813,0,-11.1748,-5.40999,91.6618
2023-03-11 20:03:43:824,0,-11.1713,-5.40316,91.6856
2023-03-11 20:03:43:833,0,-11.1704,-5.39575,91.7095
2023-03-11 20:03:43:844,0,-11.1694,-5.38671,91.7334
2023-03-11 20:03:43:854,0,-11.1653,-5.37668,91.7586
2023-03-11 20:03:43:864,0,-11.1545,-5.36817,91.7777
2023-03-11 20:03:43:874,0,-11.1375,-5.35703,91.7963
2023-03-11 20:03:43:883,0,-11.1175,-5.34341,91.8095
2023-03-11 20:03:43:894,0,-11.0955,-5.33299,91.8185
2023-03-11 20:03:43:904,0,-11.0709,-5.32187,91.8212
2023-03-11 20:03:43:914,0,-11.0499,-5.30863,91.8117
2023-03-11 20:03:43:924,0,-11.0259,-5.29645,91.7969
2023-03-11 20:03:43:934,0,-10.9993,-5.2868,91.7764
2023-03-11 20:03:43:944,0,-10.9682,-5.28647,91.7511
2023-03-11 20:03:43:954,0,-10.9413,-5.29361,91.7253
2023-03-11 20:03:43:964,0,-10.9221,-5.29902,91.702
2023-03-11 20:03:43:974,0,-10.9101,-5.30756,91.6741
2023-03-11 20:03:43:983,0,-10.9028,-5.31262,91.6479
2023-03-11 20:03:43:994,0,-10.898,-5.31518,91.6266
2023-03-11 20:03:44:4,0,-10.8964,-5.31598,91.6117
2023-03-11 20:03:44:14,0,-10.8978,-5.31675,91.5956
2023-03-11 20:03:44:24,0,-10.8954,-5.31785,91.5858
2023-03-11 20:03:44:34,0,-10.8943,-5.31709,91.579
2023-03-11 20:03:44:44,0,-10.8924,-5.31398,91.575
2023-03-11 20:03:44:54,0,-10.8934,-5.30778,91.5743
2023-03-11 20:03:44:64,0,-10.8943,-5.30219,91.5738
2023-03-11 20:03:44:74,0,-10.8978,-5.29507,91.5765
2023-03-11 20:03:44:84,0,-10.9033,-5.28653,91.5766
2023-03-11 20:03:44:94,0,-10.9072,-5.27994,91.5743
2023-03-11 20:03:44:103,0,-10.9162,-5.26926,91.5704
2023-03-11 20:03:44:114,0,-10.9259,-5.25598,91.5653
2023-03-11 20:03:44:124,0,-10.9359,-5.2424,91.5592
2023-03-11 20:03:44:133,0,-10.9489,-5.22683,91.5522
2023-03-11 20:03:44:143,0,-10.9655,-5.21582,91.541
2023-03-11 20:03:44:154,0,-10.9797,-5.20088,91.5261
2023-03-11 20:03:44:163,0,-10.9887,-5.18851,91.5118
2023-03-11 20:03:44:174,0,-10.9946,-5.18187,91.4974
2023-03-11 20:03:44:183,0,-10.9943,-5.17602,91.4838
2023-03-11 20:03:44:194,0,-10.9894,-5.16913,91.4691
