Timestamp_cmd,imu_cmd,roll_delta,pitch_delta,yaw_delta,voice_type,voice_length
2023-03-15 13:20:44:456,0,-2.99802,-4.44579,-59.127,Q,Q
2023-03-15 13:20:44:464,0,-3.01115,-4.45272,-59.1082,Q,Q
2023-03-15 13:20:44:474,0,-3.02505,-4.46537,-59.094,Q,Q
2023-03-15 13:20:44:484,0,-3.04442,-4.48139,-59.0803,Q,Q
2023-03-15 13:20:44:494,0,-3.06144,-4.49028,-59.0744,Q,Q
2023-03-15 13:20:44:504,0,-3.07721,-4.50008,-59.074,Q,Q
2023-03-15 13:20:44:515,0,-3.09526,-4.51017,-59.0678,Q,Q
2023-03-15 13:20:44:524,0,-3.11435,-4.52532,-59.0594,Q,Q
2023-03-15 13:20:44:534,0,-3.13728,-4.54441,-59.0522,Q,Q
2023-03-15 13:20:44:544,0,-3.15641,-4.56115,-59.0454,Q,Q
2023-03-15 13:20:44:554,0,-3.17746,-4.573,-59.0309,Q,Q
2023-03-15 13:20:44:564,0,-3.19938,-4.58651,-59.0134,Q,Q
2023-03-15 13:20:44:574,0,-3.21876,-4.59011,-58.9933,Q,Q
2023-03-15 13:20:44:584,0,-3.23026,-4.59459,-58.9688,Q,Q
2023-03-15 13:20:44:595,0,-3.24668,-4.60139,-58.9388,Q,Q
2023-03-15 13:20:44:604,0,-3.25958,-4.61957,-58.9067,Q,Q
2023-03-15 13:20:44:615,0,-3.27646,-4.62954,-58.8661,Q,Q
2023-03-15 13:20:44:624,0,-3.29353,-4.63823,-58.8253,Q,Q
2023-03-15 13:20:44:635,0,-3.30802,-4.64085,-58.7791,Q,Q
2023-03-15 13:20:44:644,0,-3.32075,-4.64414,-58.7307,Q,Q
2023-03-15 13:20:44:655,0,-3.32986,-4.64837,-58.6875,Q,Q
2023-03-15 13:20:44:665,0,-3.33985,-4.65659,-58.6516,Q,Q
2023-03-15 13:20:44:675,0,-3.35198,-4.66721,-58.6205,Q,Q
2023-03-15 13:20:44:685,0,-3.3644,-4.68002,-58.5964,Q,Q
2023-03-15 13:20:44:694,0,-3.37024,-4.69409,-58.582,Q,Q
2023-03-15 13:20:44:704,0,-3.37191,-4.70725,-58.5803,Q,Q
2023-03-15 13:20:44:715,0,-3.36684,-4.7215,-58.5913,Q,Q
2023-03-15 13:20:44:724,0,-3.36382,-4.74052,-58.6107,Q,Q
2023-03-15 13:20:44:734,0,-3.36035,-4.75946,-58.6424,Q,Q
2023-03-15 13:20:44:744,0,-3.35618,-4.77942,-58.6801,Q,Q
2023-03-15 13:20:44:754,0,-3.35146,-4.79545,-58.7304,Q,Q
2023-03-15 13:20:44:764,0,-3.3432,-4.81098,-58.7858,Q,Q
2023-03-15 13:20:44:774,0,-3.33737,-4.82391,-58.8492,Q,Q
2023-03-15 13:20:44:784,0,-3.33312,-4.83731,-58.9155,Q,Q
2023-03-15 13:20:44:795,0,-3.32815,-4.85061,-58.986,Q,Q
2023-03-15 13:20:44:805,0,-3.32585,-4.86651,-59.0625,Q,Q
2023-03-15 13:20:44:815,0,-3.31858,-4.88262,-59.1445,Q,Q
2023-03-15 13:20:44:825,0,-3.31437,-4.90138,-59.2268,Q,Q
2023-03-15 13:20:44:835,0,-3.30911,-4.92143,-59.3118,Q,Q
2023-03-15 13:20:44:844,0,-3.30354,-4.94008,-59.3974,Q,Q
2023-03-15 13:20:44:855,0,-3.30171,-4.95366,-59.483,Q,Q
2023-03-15 13:20:44:865,0,-3.30199,-4.96407,-59.5687,Q,Q
2023-03-15 13:20:44:875,0,-3.30068,-4.97629,-59.6513,Q,Q
2023-03-15 13:20:44:885,0,-3.29663,-4.98706,-59.732,Q,Q
2023-03-15 13:20:44:895,0,-3.29855,-4.99963,-59.8102,Q,Q
2023-03-15 13:20:44:905,0,-3.30264,-5.01133,-59.887,Q,Q
2023-03-15 13:20:44:915,0,-3.30689,-5.02003,-59.96,Q,Q
2023-03-15 13:20:44:925,0,-3.30911,-5.01908,-60.0331,Q,Q
2023-03-15 13:20:44:934,0,-3.31211,-5.01915,-60.1023,Q,Q
2023-03-15 13:20:44:945,0,-3.31483,-5.02087,-60.1642,Q,Q
2023-03-15 13:20:44:954,0,-3.31368,-5.02308,-60.2196,Q,Q
2023-03-15 13:20:44:964,0,-3.31604,-5.02561,-60.2712,Q,Q
2023-03-15 13:20:44:975,0,-3.3138,-5.02917,-60.3163,Q,Q
2023-03-15 13:20:44:985,0,-3.31409,-5.02607,-60.3562,Q,Q
2023-03-15 13:20:44:995,0,-3.31679,-5.02572,-60.3916,Q,Q
2023-03-15 13:20:45:5,0,-3.3228,-5.02256,-60.4162,Q,Q
2023-03-15 13:20:45:14,0,-3.33164,-5.01764,-60.4372,Q,Q
2023-03-15 13:20:45:24,0,-3.34316,-5.01404,-60.4508,Q,Q
2023-03-15 13:20:45:34,0,-3.35248,-5.01043,-60.4604,Q,Q
2023-03-15 13:20:45:44,0,-3.36122,-5.00742,-60.4677,Q,Q
2023-03-15 13:20:45:54,0,-3.37488,-5.00488,-60.4706,Q,Q
2023-03-15 13:20:45:64,0,-3.3893,-4.99565,-60.4722,Q,Q
2023-03-15 13:20:45:74,0,-3.40388,-4.98572,-60.4679,Q,Q
2023-03-15 13:20:45:84,0,-3.42111,-4.97417,-60.4643,Q,Q
2023-03-15 13:20:45:94,0,-3.44215,-4.96267,-60.4628,Q,Q
2023-03-15 13:20:45:104,0,-3.45899,-4.95196,-60.458,Q,Q
2023-03-15 13:20:45:114,0,-3.47361,-4.93805,-60.4576,Q,Q
2023-03-15 13:20:45:124,0,-3.48323,-4.928,-60.4541,Q,Q
2023-03-15 13:20:45:134,0,-3.49079,-4.91805,-60.4531,Q,Q
2023-03-15 13:20:45:144,0,-3.49866,-4.90783,-60.4501,Q,Q
2023-03-15 13:20:45:154,0,-3.50561,-4.89807,-60.4431,Q,Q
2023-03-15 13:20:45:164,0,-3.51188,-4.89188,-60.4324,Q,Q
2023-03-15 13:20:45:174,0,-3.51476,-4.88396,-60.422,Q,Q
2023-03-15 13:20:45:184,0,-3.5162,-4.87368,-60.4109,Q,Q
2023-03-15 13:20:45:194,0,-3.50909,-4.86158,-60.3945,Q,Q
2023-03-15 13:20:45:204,0,-3.506,-4.84504,-60.3761,Q,Q
2023-03-15 13:20:45:214,0,-3.49488,-4.82902,-60.3561,Q,Q
2023-03-15 13:20:45:224,0,-3.4813,-4.81424,-60.3238,Q,Q
2023-03-15 13:20:45:234,0,-3.46765,-4.79712,-60.2852,Q,Q
2023-03-15 13:20:45:244,0,-3.45407,-4.78175,-60.2426,Q,Q
2023-03-15 13:20:45:254,0,-3.44058,-4.76371,-60.1952,Q,Q
2023-03-15 13:20:45:264,0,-3.43057,-4.74596,-60.1395,Q,Q
2023-03-15 13:20:45:274,0,-3.41851,-4.72549,-60.0849,Q,Q
2023-03-15 13:20:45:284,0,-3.41122,-4.70429,-60.024,Q,Q
2023-03-15 13:20:45:294,0,-3.40506,-4.68481,-59.9617,Q,Q
2023-03-15 13:20:45:304,0,-3.40305,-4.66551,-59.8967,Q,Q
2023-03-15 13:20:45:315,0,-3.3984,-4.64526,-59.8319,Q,Q
2023-03-15 13:20:45:325,0,-3.38943,-4.62877,-59.7644,Q,Q
2023-03-15 13:20:45:335,0,-3.38104,-4.61449,-59.6959,Q,Q
2023-03-15 13:20:45:344,0,-3.36768,-4.60595,-59.6203,Q,Q
2023-03-15 13:20:45:355,0,-3.35313,-4.60246,-59.5413,Q,Q
2023-03-15 13:20:45:365,0,-3.33406,-4.59843,-59.4479,Q,Q
2023-03-15 13:20:45:375,0,-3.30831,-4.59071,-59.3339,Q,Q
2023-03-15 13:20:45:385,0,-3.28003,-4.59104,-59.1928,Q,Q
2023-03-15 13:20:45:395,0,-3.2458,-4.59635,-59.02,Q,Q
2023-03-15 13:20:45:404,0,-3.20572,-4.60936,-58.8092,Q,Q
2023-03-15 13:20:45:415,0,-3.16206,-4.6231,-58.5686,Q,Q
2023-03-15 13:20:45:425,0,-3.11845,-4.6357,-58.2957,Q,Q
2023-03-15 13:20:45:435,0,-3.07476,-4.64031,-57.9876,Q,Q
2023-03-15 13:20:45:445,0,-3.0289,-4.64676,-57.6337,Q,Q
2023-03-15 13:20:45:455,0,-2.98591,-4.65072,-57.231,Q,Q
2023-03-15 13:20:45:465,0,-2.94129,-4.65127,-56.7851,Q,Q
2023-03-15 13:20:45:475,0,-2.89334,-4.64783,-56.2863,Q,Q
2023-03-15 13:20:45:485,0,-2.8463,-4.64241,-55.7407,Q,Q
2023-03-15 13:20:45:495,0,-2.80431,-4.65045,-55.1532,Q,Q
2023-03-15 13:20:45:505,0,-2.77436,-4.66042,-54.5325,Q,Q
2023-03-15 13:20:45:514,0,-2.74283,-4.64913,-53.8868,Q,Q
2023-03-15 13:20:45:524,0,-2.70898,-4.62692,-53.2158,Q,Q
2023-03-15 13:20:45:534,0,-2.6704,-4.6006,-52.5219,Q,Q
2023-03-15 13:20:45:544,0,-2.63395,-4.57399,-51.8075,Q,Q
2023-03-15 13:20:45:555,0,-2.59897,-4.55492,-51.077,Q,Q
2023-03-15 13:20:45:565,0,-2.57167,-4.54221,-50.3336,Q,Q
2023-03-15 13:20:45:575,0,-2.54802,-4.53544,-49.5877,Q,Q
2023-03-15 13:20:45:585,0,-2.52158,-4.53387,-48.8448,Q,Q
2023-03-15 13:20:45:594,0,-2.48839,-4.53324,-48.1114,Q,Q
2023-03-15 13:20:45:605,0,-2.4503,-4.53758,-47.3893,Q,Q
2023-03-15 13:20:45:615,0,-2.41209,-4.54549,-46.6915,Q,Q
2023-03-15 13:20:45:624,0,-2.37411,-4.55482,-46.0177,Q,Q
2023-03-15 13:20:45:634,0,-2.33716,-4.57075,-45.3715,Q,Q
2023-03-15 13:20:45:644,0,-2.30137,-4.58841,-44.7631,Q,Q
2023-03-15 13:20:45:654,0,-2.26179,-4.60905,-44.1946,Q,Q
2023-03-15 13:20:45:664,0,-2.22533,-4.62857,-43.6668,Q,Q
2023-03-15 13:20:45:674,0,-2.1882,-4.65429,-43.1797,Q,Q
2023-03-15 13:20:45:684,0,-2.15533,-4.69207,-42.728,Q,Q
2023-03-15 13:20:45:694,0,-2.12109,-4.73333,-42.3129,Q,Q
2023-03-15 13:20:45:704,0,-2.08711,-4.78163,-41.9343,Q,Q
2023-03-15 13:20:45:714,0,-2.05777,-4.83115,-41.5904,Q,Q
2023-03-15 13:20:45:724,0,-2.02372,-4.88552,-41.2776,Q,Q
2023-03-15 13:20:45:735,0,-1.98996,-4.94302,-40.9967,Q,Q
2023-03-15 13:20:45:744,0,-1.95781,-5.00085,-40.747,Q,Q
2023-03-15 13:20:45:754,0,-1.92364,-5.06002,-40.5222,Q,Q
2023-03-15 13:20:45:764,0,-1.89068,-5.11765,-40.3241,Q,Q
2023-03-15 13:20:45:774,0,-1.86031,-5.17542,-40.1465,Q,Q
2023-03-15 13:20:45:784,0,-1.82851,-5.22534,-39.995,Q,Q
2023-03-15 13:20:45:794,0,-1.79902,-5.27572,-39.8611,Q,Q
2023-03-15 13:20:45:804,0,-1.76794,-5.32211,-39.7448,Q,Q
2023-03-15 13:20:45:814,0,-1.73446,-5.36821,-39.6351,Q,Q
2023-03-15 13:20:45:824,0,-1.69734,-5.41831,-39.5347,Q,Q
2023-03-15 13:20:45:834,0,-1.66258,-5.47218,-39.44,Q,Q
2023-03-15 13:20:45:844,0,-1.62738,-5.51952,-39.3555,Q,Q
2023-03-15 13:20:45:854,0,-1.59577,-5.57048,-39.2756,Q,Q
2023-03-15 13:20:45:864,0,-1.56738,-5.61085,-39.2075,Q,Q
2023-03-15 13:20:45:874,0,-1.54613,-5.64841,-39.1405,Q,Q
2023-03-15 13:20:45:885,0,-1.52854,-5.679,-39.0817,Q,Q
2023-03-15 13:20:45:894,0,-1.51344,-5.70644,-39.0284,Q,Q
2023-03-15 13:20:45:904,0,-1.49824,-5.72668,-38.9765,Q,Q
2023-03-15 13:20:45:914,0,-1.49027,-5.74669,-38.925,Q,Q
2023-03-15 13:20:45:924,0,-1.48443,-5.761,-38.878,Q,Q
2023-03-15 13:20:45:934,0,-1.48134,-5.77296,-38.831,Q,Q
2023-03-15 13:20:45:944,0,-1.47568,-5.78205,-38.7875,Q,Q
2023-03-15 13:20:45:954,0,-1.46944,-5.79068,-38.7423,Q,Q
2023-03-15 13:20:45:964,0,-1.46319,-5.79139,-38.6945,Q,Q
2023-03-15 13:20:45:974,0,-1.45932,-5.79172,-38.644,Q,Q
2023-03-15 13:20:45:984,0,-1.45162,-5.79384,-38.5887,Q,Q
2023-03-15 13:20:45:994,0,-1.44212,-5.79469,-38.5328,Q,Q
2023-03-15 13:20:46:4,0,-1.43656,-5.79154,-38.4721,Q,Q
2023-03-15 13:20:46:14,0,-1.43124,-5.78965,-38.4065,Q,Q
2023-03-15 13:20:46:24,0,-1.4284,-5.79171,-38.3348,Q,Q
2023-03-15 13:20:46:34,0,-1.43173,-5.7897,-38.2608,Q,Q
2023-03-15 13:20:46:44,0,-1.43431,-5.787,-38.1875,Q,Q
2023-03-15 13:20:46:54,0,-1.44226,-5.78136,-38.1133,Q,Q
2023-03-15 13:20:46:64,0,-1.44602,-5.777,-38.0356,Q,Q
2023-03-15 13:20:46:74,0,-1.44475,-5.77383,-37.9512,Q,Q
2023-03-15 13:20:46:84,0,-1.44595,-5.77042,-37.8649,Q,Q
2023-03-15 13:20:46:94,0,-1.44705,-5.77319,-37.77,Q,Q
2023-03-15 13:20:46:104,0,-1.44496,-5.77476,-37.6756,Q,Q
2023-03-15 13:20:46:114,0,-1.44194,-5.77769,-37.5804,Q,Q
2023-03-15 13:20:46:124,0,-1.44304,-5.77933,-37.4854,Q,Q
2023-03-15 13:20:46:134,0,-1.44528,-5.77873,-37.3901,Q,Q
2023-03-15 13:20:46:144,0,-1.44753,-5.7754,-37.2946,Q,Q
2023-03-15 13:20:46:154,0,-1.45276,-5.7717,-37.2012,Q,Q
2023-03-15 13:20:46:164,0,-1.46635,-5.7751,-37.1066,Q,Q
2023-03-15 13:20:46:174,0,-1.48054,-5.77678,-37.0158,Q,Q
2023-03-15 13:20:46:184,0,-1.49543,-5.77629,-36.9272,Q,Q
2023-03-15 13:20:46:194,0,-1.50914,-5.77731,-36.8412,Q,Q
2023-03-15 13:20:46:204,0,-1.52121,-5.7797,-36.757,Q,Q
2023-03-15 13:20:46:214,0,-1.52745,-5.78347,-36.6755,Q,Q
2023-03-15 13:20:46:224,0,-1.53252,-5.78649,-36.5941,Q,Q
2023-03-15 13:20:46:234,0,-1.53547,-5.78883,-36.5201,Q,Q
2023-03-15 13:20:46:244,0,-1.54072,-5.79316,-36.4492,Q,Q
2023-03-15 13:20:46:254,0,-1.54612,-5.80013,-36.3798,Q,Q
2023-03-15 13:20:46:264,0,-1.55274,-5.80913,-36.3148,Q,Q
2023-03-15 13:20:46:274,0,-1.56164,-5.81715,-36.255,Q,Q
2023-03-15 13:20:46:284,0,-1.57003,-5.82692,-36.1971,Q,Q
2023-03-15 13:20:46:294,0,-1.58295,-5.83756,-36.1411,Q,Q
2023-03-15 13:20:46:304,0,-1.59181,-5.84489,-36.0856,Q,Q
2023-03-15 13:20:46:314,0,-1.59959,-5.85381,-36.0318,Q,Q
2023-03-15 13:20:46:324,0,-1.60699,-5.86303,-35.9807,Q,Q
2023-03-15 13:20:46:334,0,-1.61157,-5.86607,-35.9288,Q,Q
2023-03-15 13:20:46:344,0,-1.6167,-5.86845,-35.8801,Q,Q
2023-03-15 13:20:46:354,0,-1.62376,-5.87105,-35.8308,Q,Q
2023-03-15 13:20:46:364,0,-1.6313,-5.86979,-35.7796,Q,Q
2023-03-15 13:20:46:375,0,-1.6423,-5.86829,-35.7308,Q,Q
2023-03-15 13:20:46:384,0,-1.65491,-5.86706,-35.685,Q,Q
2023-03-15 13:20:46:394,0,-1.66519,-5.86597,-35.6403,Q,Q
2023-03-15 13:20:46:404,0,-1.67666,-5.86479,-35.5963,Q,Q
2023-03-15 13:20:46:414,0,-1.69253,-5.86189,-35.5526,Q,Q
2023-03-15 13:20:46:424,0,-1.71043,-5.85887,-35.5079,Q,Q
2023-03-15 13:20:46:434,0,-1.72596,-5.85364,-35.4634,Q,Q
2023-03-15 13:20:46:444,0,-1.73676,-5.85157,-35.4176,Q,Q
2023-03-15 13:20:46:454,0,-1.74522,-5.84607,-35.376,Q,Q
2023-03-15 13:20:46:464,0,-1.75402,-5.83934,-35.3356,Q,Q
2023-03-15 13:20:46:474,0,-1.7598,-5.83128,-35.2925,Q,Q
2023-03-15 13:20:46:484,0,-1.76541,-5.81998,-35.2507,Q,Q
2023-03-15 13:20:46:494,0,-1.77204,-5.811,-35.2075,Q,Q
2023-03-15 13:20:46:504,0,-1.7823,-5.80032,-35.1662,Q,Q
2023-03-15 13:20:46:514,0,-1.79203,-5.79062,-35.1222,Q,Q
2023-03-15 13:20:46:524,0,-1.80307,-5.78737,-35.0779,Q,Q
2023-03-15 13:20:46:534,0,-1.8116,-5.78449,-35.033,Q,Q
2023-03-15 13:20:46:544,0,-1.81811,-5.77655,-34.9879,Q,Q
2023-03-15 13:20:46:554,0,-1.82377,-5.77634,-34.9434,Q,Q
2023-03-15 13:20:46:564,0,-1.83301,-5.77123,-34.8959,Q,Q
2023-03-15 13:20:46:574,0,-1.8433,-5.76527,-34.8527,Q,Q
2023-03-15 13:20:46:584,0,-1.84984,-5.75981,-34.8055,Q,Q
2023-03-15 13:20:46:594,0,-1.86076,-5.75146,-34.7615,Q,Q
2023-03-15 13:20:46:604,0,-1.87025,-5.75033,-34.7165,Q,Q
2023-03-15 13:20:46:614,0,-1.87994,-5.74881,-34.6716,Q,Q
2023-03-15 13:20:46:624,0,-1.88676,-5.74386,-34.6282,Q,Q
2023-03-15 13:20:46:634,0,-1.89446,-5.73802,-34.5875,Q,Q
2023-03-15 13:20:46:644,0,-1.89839,-5.72938,-34.5488,Q,Q
2023-03-15 13:20:46:654,0,-1.90226,-5.71868,-34.5123,Q,Q
2023-03-15 13:20:46:664,0,-1.90135,-5.71401,-34.4749,Q,Q
2023-03-15 13:20:46:674,0,-1.89788,-5.71308,-34.4393,Q,Q
2023-03-15 13:20:46:684,0,-1.89738,-5.71624,-34.4009,Q,Q
2023-03-15 13:20:46:694,0,-1.90004,-5.72089,-34.3649,Q,Q
2023-03-15 13:20:46:704,0,-1.90084,-5.72719,-34.3294,Q,Q
2023-03-15 13:20:46:714,0,-1.90523,-5.7337,-34.2949,Q,Q
2023-03-15 13:20:46:724,0,-1.909,-5.73439,-34.2635,Q,Q
2023-03-15 13:20:46:735,0,-1.91559,-5.73568,-34.2306,Q,Q
2023-03-15 13:20:46:744,0,-1.92499,-5.73356,-34.1963,Q,Q
2023-03-15 13:20:46:754,0,-1.93015,-5.7359,-34.1582,Q,Q
2023-03-15 13:20:46:764,0,-1.93666,-5.73504,-34.1246,Q,Q
2023-03-15 13:20:46:774,0,-1.94153,-5.73315,-34.0897,Q,Q
2023-03-15 13:20:46:785,0,-1.94874,-5.72955,-34.0544,Q,Q
2023-03-15 13:20:46:794,0,-1.95504,-5.72528,-34.0163,Q,Q
2023-03-15 13:20:46:804,0,-1.96452,-5.7206,-33.9764,Q,Q
2023-03-15 13:20:46:814,0,-1.97137,-5.71239,-33.9422,Q,Q
2023-03-15 13:20:46:824,0,-1.9784,-5.70776,-33.9063,Q,Q
2023-03-15 13:20:46:834,0,-1.98393,-5.70152,-33.8697,Q,Q
2023-03-15 13:20:46:844,0,-1.99118,-5.69748,-33.8373,Q,Q
2023-03-15 13:20:46:854,0,-1.99417,-5.69233,-33.8031,Q,Q
2023-03-15 13:20:46:864,0,-1.99716,-5.68391,-33.7705,Q,Q
2023-03-15 13:20:46:874,0,-2.00431,-5.68136,-33.7418,Q,Q
2023-03-15 13:20:46:884,0,-2.00706,-5.67937,-33.7141,Q,Q
2023-03-15 13:20:46:894,0,-2.01301,-5.67839,-33.6887,Q,Q
2023-03-15 13:20:46:904,0,-2.02245,-5.67372,-33.6636,Q,Q
2023-03-15 13:20:46:914,0,-2.0296,-5.66664,-33.6396,Q,Q
2023-03-15 13:20:46:927,0,-2.03249,-5.66066,-33.6157,Q,Q
2023-03-15 13:20:46:934,0,-2.0327,-5.64991,-33.589,Q,Q
2023-03-15 13:20:46:944,0,-2.0334,-5.64359,-33.5597,Q,Q
2023-03-15 13:20:46:955,0,-2.03613,-5.63655,-33.531,Q,Q
2023-03-15 13:20:46:964,0,-2.041,-5.63233,-33.502,Q,Q
2023-03-15 13:20:46:974,0,-2.04458,-5.62914,-33.4736,Q,Q
2023-03-15 13:20:46:984,0,-2.0534,-5.62575,-33.4429,Q,Q
2023-03-15 13:20:46:994,0,-2.05916,-5.62164,-33.4137,Q,Q
2023-03-15 13:20:47:4,0,-2.06541,-5.61507,-33.3797,Q,Q
2023-03-15 13:20:47:14,0,-2.06964,-5.60964,-33.3434,Q,Q
2023-03-15 13:20:47:24,0,-2.07466,-5.60424,-33.3089,Q,Q
2023-03-15 13:20:47:34,0,-2.08025,-5.59834,-33.2734,Q,Q
2023-03-15 13:20:47:44,0,-2.0851,-5.59362,-33.2397,Q,Q
2023-03-15 13:20:47:54,0,-2.08521,-5.58995,-33.2034,Q,Q
2023-03-15 13:20:47:64,0,-2.09065,-5.58778,-33.168,Q,Q
2023-03-15 13:20:47:74,0,-2.09192,-5.58633,-33.1364,Q,Q
2023-03-15 13:20:47:84,0,-2.09552,-5.5873,-33.1036,Q,Q
2023-03-15 13:20:47:94,0,-2.09462,-5.58994,-33.0723,Q,Q
2023-03-15 13:20:47:104,0,-2.09205,-5.58781,-33.0415,Q,Q
2023-03-15 13:20:47:114,0,-2.09071,-5.58769,-33.0096,Q,Q
2023-03-15 13:20:47:124,0,-2.08982,-5.58948,-32.9763,Q,Q
2023-03-15 13:20:47:134,0,-2.08765,-5.59404,-32.9402,Q,Q
2023-03-15 13:20:47:144,0,-2.08686,-5.59663,-32.9027,Q,Q
2023-03-15 13:20:47:154,0,-2.0889,-5.60328,-32.8643,Q,Q
2023-03-15 13:20:47:164,0,-2.09069,-5.61125,-32.824,Q,Q
2023-03-15 13:20:47:175,0,-2.09394,-5.61251,-32.7849,Q,Q
2023-03-15 13:20:47:184,0,-2.09553,-5.61385,-32.7464,Q,Q
2023-03-15 13:20:47:194,0,-2.10036,-5.61656,-32.7051,Q,Q
2023-03-15 13:20:47:204,0,-2.10725,-5.61375,-32.6628,Q,Q
2023-03-15 13:20:47:214,0,-2.11585,-5.61621,-32.6186,Q,Q
2023-03-15 13:20:47:224,0,-2.12353,-5.618,-32.5745,Q,Q
2023-03-15 13:20:47:234,0,-2.13642,-5.6225,-32.5278,Q,Q
2023-03-15 13:20:47:244,0,-2.14972,-5.62694,-32.4797,Q,Q
2023-03-15 13:20:47:254,0,-2.16092,-5.62901,-32.4348,Q,Q
2023-03-15 13:20:47:265,0,-2.17437,-5.63106,-32.3902,Q,Q
2023-03-15 13:20:47:275,0,-2.18841,-5.63542,-32.3451,Q,Q
2023-03-15 13:20:47:285,0,-2.2014,-5.63791,-32.2998,Q,Q
2023-03-15 13:20:47:295,0,-2.21903,-5.64717,-32.2546,Q,Q
2023-03-15 13:20:47:305,0,-2.23498,-5.65289,-32.2122,Q,Q
2023-03-15 13:20:47:315,0,-2.25136,-5.65975,-32.1695,Q,Q
2023-03-15 13:20:47:324,0,-2.26768,-5.66203,-32.1289,Q,Q
2023-03-15 13:20:47:335,0,-2.27929,-5.6661,-32.0899,Q,Q
2023-03-15 13:20:47:345,0,-2.29373,-5.67027,-32.0513,Q,Q
2023-03-15 13:20:47:355,0,-2.30845,-5.67716,-32.0139,Q,Q
2023-03-15 13:20:47:365,0,-2.31796,-5.68544,-31.9755,Q,Q
2023-03-15 13:20:47:375,0,-2.32734,-5.69248,-31.9396,Q,Q
2023-03-15 13:20:47:385,0,-2.333,-5.69715,-31.9029,Q,Q
2023-03-15 13:20:47:395,0,-2.33849,-5.70017,-31.8684,Q,Q
2023-03-15 13:20:47:405,0,-2.33998,-5.7049,-31.8323,Q,Q
2023-03-15 13:20:47:415,0,-2.34229,-5.70671,-31.7984,Q,Q
2023-03-15 13:20:47:425,0,-2.34527,-5.71059,-31.7636,Q,Q
2023-03-15 13:20:47:435,0,-2.34541,-5.71256,-31.7269,Q,Q
2023-03-15 13:20:47:445,0,-2.35053,-5.71386,-31.6895,Q,Q
2023-03-15 13:20:47:455,0,-2.35528,-5.71535,-31.6543,Q,Q
2023-03-15 13:20:47:465,0,-2.36018,-5.71712,-31.6146,Q,Q
2023-03-15 13:20:47:475,0,-2.36402,-5.71757,-31.5794,Q,Q
2023-03-15 13:20:47:485,0,-2.37104,-5.72325,-31.5414,Q,Q
2023-03-15 13:20:47:495,0,-2.37918,-5.72683,-31.5023,Q,Q
2023-03-15 13:20:47:505,0,-2.38321,-5.72712,-31.4623,Q,Q
2023-03-15 13:20:47:515,0,-2.39052,-5.72466,-31.4233,Q,Q
2023-03-15 13:20:47:525,0,-2.39593,-5.72429,-31.3863,Q,Q
2023-03-15 13:20:47:535,0,-2.40213,-5.72475,-31.3509,Q,Q
2023-03-15 13:20:47:545,0,-2.40575,-5.72843,-31.3157,Q,Q
2023-03-15 13:20:47:555,0,-2.40998,-5.72667,-31.2752,Q,Q
2023-03-15 13:20:47:565,0,-2.4136,-5.73051,-31.2397,Q,Q
2023-03-15 13:20:47:575,0,-2.41379,-5.73638,-31.203,Q,Q
2023-03-15 13:20:47:585,0,-2.41383,-5.75005,-31.1663,Q,Q
2023-03-15 13:20:47:595,0,-2.41459,-5.7633,-31.129,Q,Q
2023-03-15 13:20:47:605,0,-2.41773,-5.77896,-31.0948,Q,Q
2023-03-15 13:20:47:615,0,-2.42515,-5.78924,-31.0606,Q,Q
2023-03-15 13:20:47:625,0,-2.4289,-5.79816,-31.024,Q,Q
2023-03-15 13:20:47:635,0,-2.43243,-5.80599,-30.9881,Q,Q
2023-03-15 13:20:47:645,0,-2.43315,-5.81425,-30.9448,Q,Q
2023-03-15 13:20:47:655,0,-2.43271,-5.82027,-30.9038,Q,Q
2023-03-15 13:20:47:665,0,-2.43473,-5.82632,-30.8594,Q,Q
2023-03-15 13:20:47:675,0,-2.43735,-5.82444,-30.8167,Q,Q
2023-03-15 13:20:47:685,0,-2.43729,-5.81794,-30.7766,Q,Q
2023-03-15 13:20:47:695,0,-2.43869,-5.81608,-30.734,Q,Q
2023-03-15 13:20:47:705,0,-2.44005,-5.81476,-30.6923,Q,Q
2023-03-15 13:20:47:715,0,-2.4409,-5.81604,-30.6531,Q,Q
2023-03-15 13:20:47:725,0,-2.44114,-5.81298,-30.6183,Q,Q
2023-03-15 13:20:47:735,0,-2.4401,-5.81502,-30.5834,Q,Q
2023-03-15 13:20:47:745,0,-2.43876,-5.81171,-30.5483,Q,Q
2023-03-15 13:20:47:755,0,-2.43755,-5.8099,-30.5171,Q,Q
2023-03-15 13:20:47:765,0,-2.43064,-5.80912,-30.4872,Q,Q
2023-03-15 13:20:47:775,0,-2.43002,-5.80775,-30.4574,Q,Q
2023-03-15 13:20:47:785,0,-2.42707,-5.80345,-30.4293,Q,Q
2023-03-15 13:20:47:795,0,-2.4239,-5.79993,-30.4063,Q,Q
2023-03-15 13:20:47:805,0,-2.41958,-5.79302,-30.384,Q,Q
2023-03-15 13:20:47:815,0,-2.41691,-5.78355,-30.3614,Q,Q
2023-03-15 13:20:47:825,0,-2.41052,-5.77849,-30.3389,Q,Q
2023-03-15 13:20:47:834,0,-2.40887,-5.77478,-30.3123,Q,Q
2023-03-15 13:20:47:844,0,-2.40598,-5.77369,-30.2855,Q,Q
2023-03-15 13:20:47:855,0,-2.40661,-5.77184,-30.2548,Q,Q
2023-03-15 13:20:47:865,0,-2.40824,-5.76947,-30.2233,Q,Q
2023-03-15 13:20:47:875,0,-2.41246,-5.76455,-30.1938,Q,Q
2023-03-15 13:20:47:885,0,-2.41376,-5.75769,-30.1659,Q,Q
2023-03-15 13:20:47:895,0,-2.41913,-5.74546,-30.1345,Q,Q
2023-03-15 13:20:47:905,0,-2.42134,-5.73176,-30.102,Q,Q
2023-03-15 13:20:47:915,0,-2.42661,-5.722,-30.0684,Q,Q
2023-03-15 13:20:47:924,0,-2.43301,-5.70524,-30.0363,Q,Q
2023-03-15 13:20:47:934,0,-2.43953,-5.69155,-30.0067,Q,Q
2023-03-15 13:20:47:944,0,-2.44815,-5.68546,-29.9714,Q,Q
2023-03-15 13:20:47:954,0,-2.45479,-5.67931,-29.9308,Q,Q
2023-03-15 13:20:47:964,0,-2.45825,-5.67339,-29.8966,Q,Q
2023-03-15 13:20:47:974,0,-2.46262,-5.67109,-29.8536,Q,Q
2023-03-15 13:20:47:985,0,-2.46595,-5.66663,-29.8111,Q,Q
2023-03-15 13:20:47:995,0,-2.46759,-5.66402,-29.7701,Q,Q
2023-03-15 13:20:48:4,0,-2.47312,-5.66182,-29.7298,Q,Q
2023-03-15 13:20:48:15,0,-2.47803,-5.65943,-29.691,Q,Q
2023-03-15 13:20:48:25,0,-2.48347,-5.65743,-29.6472,Q,Q
2023-03-15 13:20:48:35,0,-2.48947,-5.65888,-29.6034,Q,Q
2023-03-15 13:20:48:45,0,-2.49935,-5.65768,-29.5565,Q,Q
2023-03-15 13:20:48:55,0,-2.50827,-5.65517,-29.5078,Q,Q
2023-03-15 13:20:48:65,0,-2.52408,-5.65816,-29.4589,Q,Q
2023-03-15 13:20:48:75,0,-2.5474,-5.66117,-29.4067,Q,Q
2023-03-15 13:20:48:85,0,-2.56973,-5.6626,-29.3494,Q,Q
2023-03-15 13:20:48:95,0,-2.59751,-5.66449,-29.2912,Q,Q
2023-03-15 13:20:48:104,0,-2.62655,-5.66511,-29.2335,Q,Q
2023-03-15 13:20:48:115,0,-2.6569,-5.66689,-29.1725,Q,Q
2023-03-15 13:20:48:125,0,-2.6891,-5.66792,-29.115,Q,Q
2023-03-15 13:20:48:135,0,-2.72109,-5.66915,-29.0552,Q,Q
2023-03-15 13:20:48:145,0,-2.74875,-5.6685,-28.9942,Q,Q
2023-03-15 13:20:48:155,0,-2.77315,-5.67064,-28.9378,Q,Q
2023-03-15 13:20:48:165,0,-2.79534,-5.66748,-28.8836,Q,Q
2023-03-15 13:20:48:175,0,-2.81334,-5.66371,-28.8309,Q,Q
2023-03-15 13:20:48:185,0,-2.83093,-5.6603,-28.7835,Q,Q
2023-03-15 13:20:48:195,0,-2.85024,-5.65689,-28.7346,Q,Q
2023-03-15 13:20:48:205,0,-2.86685,-5.65491,-28.6894,Q,Q
2023-03-15 13:20:48:215,0,-2.88097,-5.65616,-28.649,Q,Q
2023-03-15 13:20:48:225,0,-2.88877,-5.65429,-28.6143,Q,Q
2023-03-15 13:20:48:235,0,-2.89559,-5.65066,-28.5809,Q,Q
2023-03-15 13:20:48:245,0,-2.90569,-5.64515,-28.5493,Q,Q
2023-03-15 13:20:48:255,0,-2.91017,-5.64178,-28.5223,Q,Q
2023-03-15 13:20:48:265,0,-2.91537,-5.6403,-28.4968,Q,Q
2023-03-15 13:20:48:275,0,-2.92065,-5.63845,-28.474,Q,Q
2023-03-15 13:20:48:285,0,-2.92183,-5.63587,-28.4553,Q,Q
2023-03-15 13:20:48:295,0,-2.92251,-5.6304,-28.4346,Q,Q
2023-03-15 13:20:48:305,0,-2.92042,-5.62488,-28.4195,Q,Q
2023-03-15 13:20:48:315,0,-2.92081,-5.61889,-28.4019,Q,Q
2023-03-15 13:20:48:325,0,-2.92176,-5.61634,-28.3878,Q,Q
2023-03-15 13:20:48:335,0,-2.92049,-5.61328,-28.3695,Q,Q
2023-03-15 13:20:48:345,0,-2.92401,-5.60502,-28.3497,Q,Q
2023-03-15 13:20:48:354,0,-2.92712,-5.59652,-28.328,Q,Q
2023-03-15 13:20:48:364,0,-2.93214,-5.59112,-28.3083,Q,Q
2023-03-15 13:20:48:375,0,-2.93627,-5.58344,-28.2883,Q,Q
2023-03-15 13:20:48:385,0,-2.93854,-5.57822,-28.2643,Q,Q
2023-03-15 13:20:48:395,0,-2.93965,-5.57136,-28.2382,Q,Q
2023-03-15 13:20:48:405,0,-2.94593,-5.56447,-28.2115,Q,Q
2023-03-15 13:20:48:415,0,-2.94704,-5.5585,-28.1839,Q,Q
2023-03-15 13:20:48:425,0,-2.94935,-5.54959,-28.1579,Q,Q
2023-03-15 13:20:48:435,0,-2.95154,-5.54279,-28.1334,Q,Q
2023-03-15 13:20:48:445,0,-2.95612,-5.53194,-28.1101,Q,Q
2023-03-15 13:20:48:455,0,-2.95906,-5.52113,-28.0864,Q,Q
2023-03-15 13:20:48:465,0,-2.9628,-5.51403,-28.0612,Q,Q
2023-03-15 13:20:48:475,0,-2.96119,-5.51233,-28.0326,Q,Q
2023-03-15 13:20:48:485,0,-2.96701,-5.51797,-28.0005,Q,Q
2023-03-15 13:20:48:495,0,-2.96928,-5.52543,-27.9702,Q,Q
2023-03-15 13:20:48:505,0,-2.97432,-5.53085,-27.9436,Q,Q
2023-03-15 13:20:48:515,0,-2.97991,-5.53621,-27.9181,Q,Q
2023-03-15 13:20:48:525,0,-2.98872,-5.54202,-27.8989,Q,Q
2023-03-15 13:20:48:535,0,-3.00131,-5.54588,-27.8741,Q,Q
2023-03-15 13:20:48:545,0,-3.01201,-5.54863,-27.8476,Q,Q
2023-03-15 13:20:48:555,0,-3.02471,-5.55305,-27.8223,Q,Q
2023-03-15 13:20:48:565,0,-3.03969,-5.56192,-27.7939,Q,Q
2023-03-15 13:20:48:575,0,-3.05918,-5.57003,-27.7631,Q,Q
2023-03-15 13:20:48:585,0,-3.07401,-5.57097,-27.7344,Q,Q
2023-03-15 13:20:48:595,0,-3.08742,-5.57001,-27.7052,Q,Q
2023-03-15 13:20:48:605,0,-3.10427,-5.56689,-27.6751,Q,Q
2023-03-15 13:20:48:615,0,-3.12027,-5.56423,-27.6426,Q,Q
2023-03-15 13:20:48:625,0,-3.13748,-5.56456,-27.6097,Q,Q
2023-03-15 13:20:48:635,0,-3.14587,-5.56586,-27.5791,Q,Q
2023-03-15 13:20:48:645,0,-3.15497,-5.56602,-27.5547,Q,Q
2023-03-15 13:20:48:655,0,-3.15877,-5.56343,-27.5295,Q,Q
2023-03-15 13:20:48:665,0,-3.15841,-5.56421,-27.5024,Q,Q
2023-03-15 13:20:48:675,0,-3.15776,-5.56585,-27.4794,Q,Q
2023-03-15 13:20:48:685,0,-3.15685,-5.57082,-27.4592,Q,Q
2023-03-15 13:20:48:695,0,-3.15631,-5.57343,-27.4402,Q,Q
2023-03-15 13:20:48:705,0,-3.15541,-5.57821,-27.4236,Q,Q
2023-03-15 13:20:48:715,0,-3.15168,-5.57733,-27.4119,Q,Q
2023-03-15 13:20:48:725,0,-3.14551,-5.57516,-27.3968,Q,Q
2023-03-15 13:20:48:735,0,-3.1382,-5.57187,-27.3873,Q,Q
2023-03-15 13:20:48:745,0,-3.13245,-5.57065,-27.3696,Q,Q
2023-03-15 13:20:48:755,0,-3.12843,-5.5718,-27.3502,Q,Q
2023-03-15 13:20:48:765,0,-3.12372,-5.56926,-27.3278,Q,Q
2023-03-15 13:20:48:775,0,-3.11404,-5.5748,-27.3049,Q,Q
2023-03-15 13:20:48:785,0,-3.1033,-5.57982,-27.2801,Q,Q
2023-03-15 13:20:48:795,0,-3.09673,-5.58181,-27.254,Q,Q
2023-03-15 13:20:48:805,0,-3.08969,-5.58199,-27.2282,Q,Q
2023-03-15 13:20:48:815,0,-3.08027,-5.58111,-27.202,Q,Q
2023-03-15 13:20:48:825,0,-3.07181,-5.57705,-27.1765,Q,Q
2023-03-15 13:20:48:835,0,-3.06772,-5.57338,-27.152,Q,Q
2023-03-15 13:20:48:845,0,-3.06768,-5.57283,-27.1272,Q,Q
2023-03-15 13:20:48:855,0,-3.06214,-5.57244,-27.1041,Q,Q
2023-03-15 13:20:48:865,0,-3.05671,-5.57014,-27.084,Q,Q
2023-03-15 13:20:48:875,0,-3.05387,-5.5688,-27.0609,Q,Q
2023-03-15 13:20:48:885,0,-3.04921,-5.57003,-27.0395,Q,Q
2023-03-15 13:20:48:895,0,-3.04454,-5.57378,-27.0207,Q,Q
2023-03-15 13:20:48:905,0,-3.0382,-5.57775,-27.0036,Q,Q
2023-03-15 13:20:48:915,0,-3.03316,-5.57658,-26.984,Q,Q
2023-03-15 13:20:48:925,0,-3.02593,-5.58036,-26.9629,Q,Q
2023-03-15 13:20:48:935,0,-3.02437,-5.58557,-26.939,Q,Q
2023-03-15 13:20:48:945,0,-3.02191,-5.59114,-26.9123,Q,Q
2023-03-15 13:20:48:955,0,-3.02022,-5.59566,-26.8875,Q,Q
2023-03-15 13:20:48:964,0,-3.02239,-5.59805,-26.8646,Q,Q
2023-03-15 13:20:48:974,0,-3.02667,-5.60147,-26.8397,Q,Q
2023-03-15 13:20:48:984,0,-3.02971,-5.60111,-26.8152,Q,Q
2023-03-15 13:20:48:994,0,-3.03177,-5.60062,-26.7885,Q,Q
2023-03-15 13:20:49:5,0,-3.03421,-5.60268,-26.7655,Q,Q
2023-03-15 13:20:49:15,0,-3.03288,-5.60248,-26.7414,Q,Q
2023-03-15 13:20:49:25,0,-3.03214,-5.60248,-26.7186,Q,Q
2023-03-15 13:20:49:35,0,-3.03334,-5.60641,-26.6986,Q,Q
2023-03-15 13:20:49:45,0,-3.03978,-5.60836,-26.6748,Q,Q
2023-03-15 13:20:49:55,0,-3.04774,-5.61298,-26.653,Q,Q
2023-03-15 13:20:49:65,0,-3.06168,-5.61215,-26.6266,Q,Q
2023-03-15 13:20:49:75,0,-3.07399,-5.6152,-26.6044,Q,Q
2023-03-15 13:20:49:85,0,-3.08734,-5.61497,-26.5821,Q,Q
2023-03-15 13:20:49:95,0,-3.10071,-5.6161,-26.5601,Q,Q
2023-03-15 13:20:49:105,0,-3.11394,-5.61568,-26.5397,Q,Q
2023-03-15 13:20:49:115,0,-3.12924,-5.61515,-26.5184,Q,Q
2023-03-15 13:20:49:125,0,-3.14403,-5.61794,-26.4948,Q,Q
2023-03-15 13:20:49:135,0,-3.16023,-5.61882,-26.4746,Q,Q
2023-03-15 13:20:49:145,0,-3.17459,-5.61905,-26.4538,Q,Q
2023-03-15 13:20:49:155,0,-3.19032,-5.62268,-26.4325,Q,Q
2023-03-15 13:20:49:165,0,-3.20182,-5.62274,-26.4138,Q,Q
2023-03-15 13:20:49:175,0,-3.21055,-5.62717,-26.3917,Q,Q
2023-03-15 13:20:49:185,0,-3.21644,-5.63248,-26.3707,Q,Q
2023-03-15 13:20:49:195,0,-3.22535,-5.6345,-26.3516,Q,Q
2023-03-15 13:20:49:205,0,-3.23172,-5.63801,-26.3303,Q,Q
2023-03-15 13:20:49:215,0,-3.23637,-5.64286,-26.3083,Q,Q
2023-03-15 13:20:49:225,0,-3.24295,-5.64623,-26.2914,Q,Q
2023-03-15 13:20:49:235,0,-3.24822,-5.65191,-26.2718,Q,Q
2023-03-15 13:20:49:245,0,-3.25651,-5.66134,-26.2544,Q,Q
2023-03-15 13:20:49:255,0,-3.26615,-5.66958,-26.2354,Q,Q
2023-03-15 13:20:49:265,0,-3.27252,-5.67389,-26.2135,Q,Q
2023-03-15 13:20:49:275,0,-3.27411,-5.67785,-26.1929,Q,Q
2023-03-15 13:20:49:285,0,-3.28177,-5.68091,-26.1742,Q,Q
2023-03-15 13:20:49:295,0,-3.28586,-5.68187,-26.1561,Q,Q
2023-03-15 13:20:49:304,0,-3.28904,-5.6828,-26.135,Q,Q
2023-03-15 13:20:49:315,0,-3.2912,-5.68437,-26.1142,Q,Q
2023-03-15 13:20:49:325,0,-3.29508,-5.68308,-26.0912,Q,Q
2023-03-15 13:20:49:335,0,-3.29826,-5.6834,-26.0691,Q,Q
2023-03-15 13:20:49:344,0,-3.29758,-5.67994,-26.0509,Q,Q
2023-03-15 13:20:49:355,0,-3.3016,-5.67617,-26.0328,Q,Q
2023-03-15 13:20:49:364,0,-3.30428,-5.67424,-26.0164,Q,Q
2023-03-15 13:20:49:375,0,-3.30533,-5.66745,-26.0031,Q,Q
2023-03-15 13:20:49:384,0,-3.30555,-5.66828,-25.9889,Q,Q
2023-03-15 13:20:49:395,0,-3.30387,-5.67678,-25.9706,Q,Q
2023-03-15 13:20:49:405,0,-3.30362,-5.68261,-25.953,Q,Q
2023-03-15 13:20:49:415,0,-3.30389,-5.69093,-25.9379,Q,Q
2023-03-15 13:20:49:425,0,-3.30921,-5.69894,-25.9229,Q,Q
2023-03-15 13:20:49:435,0,-3.31335,-5.70756,-25.9093,Q,Q
2023-03-15 13:20:49:445,0,-3.32,-5.7145,-25.8945,Q,Q
2023-03-15 13:20:49:455,0,-3.32195,-5.71634,-25.8792,Q,Q
2023-03-15 13:20:49:465,0,-3.32611,-5.71881,-25.863,Q,Q
2023-03-15 13:20:49:475,0,-3.33461,-5.72788,-25.8426,Q,Q
2023-03-15 13:20:49:485,0,-3.34607,-5.73648,-25.8215,Q,Q
2023-03-15 13:20:49:495,0,-3.36048,-5.7404,-25.8019,Q,Q
2023-03-15 13:20:49:505,0,-3.36998,-5.74518,-25.7826,Q,Q
2023-03-15 13:20:49:515,0,-3.38179,-5.74641,-25.7655,Q,Q
2023-03-15 13:20:49:525,0,-3.395,-5.74365,-25.7442,Q,Q
2023-03-15 13:20:49:535,0,-3.41084,-5.74308,-25.725,Q,Q
2023-03-15 13:20:49:545,0,-3.42156,-5.74479,-25.7062,Q,Q
2023-03-15 13:20:49:555,0,-3.43353,-5.7445,-25.6907,Q,Q
2023-03-15 13:20:49:565,0,-3.44283,-5.74358,-25.6802,Q,Q
2023-03-15 13:20:49:575,0,-3.44954,-5.74342,-25.6689,Q,Q
2023-03-15 13:20:49:585,0,-3.45355,-5.74141,-25.6598,Q,Q
2023-03-15 13:20:49:595,0,-3.45743,-5.73958,-25.6516,Q,Q
2023-03-15 13:20:49:605,0,-3.45818,-5.73914,-25.6414,Q,Q
2023-03-15 13:20:49:615,0,-3.46577,-5.7393,-25.6315,Q,Q
2023-03-15 13:20:49:625,0,-3.47065,-5.74002,-25.6231,Q,Q
2023-03-15 13:20:49:635,0,-3.46991,-5.73882,-25.6132,Q,Q
2023-03-15 13:20:49:645,0,-3.47233,-5.73756,-25.601,Q,Q
2023-03-15 13:20:49:655,0,-3.47559,-5.73632,-25.5886,Q,Q
2023-03-15 13:20:49:665,0,-3.47294,-5.73695,-25.5755,Q,Q
2023-03-15 13:20:49:675,0,-3.47478,-5.73791,-25.5653,Q,Q
2023-03-15 13:20:49:685,0,-3.47762,-5.74092,-25.5549,Q,Q
2023-03-15 13:20:49:695,0,-3.47848,-5.74173,-25.5448,Q,Q
2023-03-15 13:20:49:705,0,-3.48205,-5.74387,-25.5318,Q,Q
2023-03-15 13:20:49:715,0,-3.48595,-5.74044,-25.5207,Q,Q
2023-03-15 13:20:49:725,0,-3.49141,-5.73717,-25.5123,Q,Q
2023-03-15 13:20:49:735,0,-3.49361,-5.73306,-25.5053,Q,Q
2023-03-15 13:20:49:745,0,-3.49549,-5.72545,-25.4967,Q,Q
2023-03-15 13:20:49:755,0,-3.49485,-5.72153,-25.4866,Q,Q
2023-03-15 13:20:49:765,0,-3.49502,-5.7166,-25.4788,Q,Q
2023-03-15 13:20:49:775,0,-3.49283,-5.71058,-25.4737,Q,Q
2023-03-15 13:20:49:785,0,-3.49013,-5.70702,-25.4662,Q,Q
2023-03-15 13:20:49:795,0,-3.48748,-5.70479,-25.4598,Q,Q
2023-03-15 13:20:49:805,0,-3.48396,-5.69914,-25.4582,Q,Q
2023-03-15 13:20:49:815,0,-3.48091,-5.69666,-25.4569,Q,Q
2023-03-15 13:20:49:825,0,-3.47667,-5.69552,-25.454,Q,Q
2023-03-15 13:20:49:835,0,-3.47166,-5.69237,-25.4516,Q,Q
2023-03-15 13:20:49:845,0,-3.46735,-5.69018,-25.4462,Q,Q
2023-03-15 13:20:49:855,0,-3.46296,-5.68837,-25.4399,Q,Q
2023-03-15 13:20:49:865,0,-3.46028,-5.68702,-25.4323,Q,Q
2023-03-15 13:20:49:875,0,-3.45967,-5.683,-25.4249,Q,Q
2023-03-15 13:20:49:885,0,-3.45997,-5.67974,-25.4143,Q,Q
2023-03-15 13:20:49:895,0,-3.46264,-5.67688,-25.4052,Q,Q
2023-03-15 13:20:49:905,0,-3.46646,-5.66967,-25.3953,Q,Q
2023-03-15 13:20:49:915,0,-3.47026,-5.66515,-25.3833,Q,Q
2023-03-15 13:20:49:925,0,-3.4723,-5.65678,-25.3756,Q,Q
2023-03-15 13:20:49:935,0,-3.47853,-5.652,-25.3669,Q,Q
2023-03-15 13:20:49:945,0,-3.48553,-5.64504,-25.3598,Q,Q
2023-03-15 13:20:49:955,0,-3.49173,-5.63752,-25.3528,Q,Q
2023-03-15 13:20:49:965,0,-3.49843,-5.63243,-25.349,Q,Q
2023-03-15 13:20:49:975,0,-3.50727,-5.6272,-25.3421,Q,Q
2023-03-15 13:20:49:985,0,-3.5176,-5.62282,-25.3452,Q,Q
2023-03-15 13:20:49:995,0,-3.52753,-5.61609,-25.3488,Q,Q
2023-03-15 13:20:50:5,0,-3.53525,-5.61468,-25.3503,Q,Q
2023-03-15 13:20:50:15,0,-3.54294,-5.60888,-25.3531,Q,Q
2023-03-15 13:20:50:25,0,-3.55163,-5.60422,-25.3574,Q,Q
2023-03-15 13:20:50:35,0,-3.55837,-5.6013,-25.3573,Q,Q
2023-03-15 13:20:50:45,0,-3.56386,-5.59365,-25.3583,Q,Q
2023-03-15 13:20:50:55,0,-3.56639,-5.58692,-25.357,Q,Q
2023-03-15 13:20:50:65,0,-3.57108,-5.58418,-25.3564,Q,Q
2023-03-15 13:20:50:75,0,-3.57357,-5.57647,-25.3523,Q,Q
2023-03-15 13:20:50:85,0,-3.57571,-5.57108,-25.345,Q,Q
2023-03-15 13:20:50:95,0,-3.57889,-5.56858,-25.3409,Q,Q
2023-03-15 13:20:50:105,0,-3.57923,-5.56746,-25.3374,Q,Q
2023-03-15 13:20:50:115,0,-3.57784,-5.56521,-25.3336,Q,Q
2023-03-15 13:20:50:125,0,-3.5788,-5.5608,-25.3294,Q,Q
2023-03-15 13:20:50:135,0,-3.57513,-5.56024,-25.3249,Q,Q
2023-03-15 13:20:50:145,0,-3.57398,-5.55635,-25.3148,Q,Q
2023-03-15 13:20:50:155,0,-3.57047,-5.553,-25.3079,Q,Q
2023-03-15 13:20:50:165,0,-3.56649,-5.55398,-25.3018,Q,Q
2023-03-15 13:20:50:175,0,-3.56762,-5.55218,-25.2924,Q,Q
2023-03-15 13:20:50:185,0,-3.5639,-5.55026,-25.2814,Q,Q
2023-03-15 13:20:50:195,0,-3.56737,-5.54957,-25.2734,Q,Q
2023-03-15 13:20:50:205,0,-3.56729,-5.54762,-25.2634,Q,Q
2023-03-15 13:20:50:215,0,-3.56639,-5.54741,-25.256,Q,Q
2023-03-15 13:20:50:225,0,-3.55991,-5.54143,-25.2476,Q,Q
2023-03-15 13:20:50:235,0,-3.5582,-5.53429,-25.2386,Q,Q
2023-03-15 13:20:50:245,0,-3.55699,-5.53113,-25.232,Q,Q
2023-03-15 13:20:50:255,0,-3.55634,-5.52566,-25.2259,Q,Q
2023-03-15 13:20:50:265,0,-3.55461,-5.52044,-25.2186,Q,Q
2023-03-15 13:20:50:275,0,-3.55442,-5.51072,-25.2137,Q,Q
2023-03-15 13:20:50:285,0,-3.55308,-5.50293,-25.2121,Q,Q
2023-03-15 13:20:50:295,0,-3.55059,-5.49703,-25.2111,Q,Q
2023-03-15 13:20:50:305,0,-3.55389,-5.49004,-25.21,Q,Q
2023-03-15 13:20:50:315,0,-3.5543,-5.49373,-25.2046,Q,Q
2023-03-15 13:20:50:325,0,-3.55345,-5.50198,-25.2013,Q,Q
2023-03-15 13:20:50:335,0,-3.55424,-5.50787,-25.1948,Q,Q
2023-03-15 13:20:50:345,0,-3.55113,-5.51201,-25.1948,Q,Q
2023-03-15 13:20:50:355,0,-3.55112,-5.51622,-25.1936,Q,Q
2023-03-15 13:20:50:365,0,-3.55379,-5.51693,-25.193,Q,Q
2023-03-15 13:20:50:375,0,-3.5598,-5.51725,-25.1898,Q,Q
2023-03-15 13:20:50:385,0,-3.56195,-5.51639,-25.1877,Q,Q
2023-03-15 13:20:50:395,0,-3.56568,-5.51708,-25.1797,Q,Q
2023-03-15 13:20:50:405,0,-3.57188,-5.52272,-25.1695,Q,Q
2023-03-15 13:20:50:415,0,-3.57688,-5.52307,-25.1602,Q,Q
2023-03-15 13:20:50:425,0,-3.58044,-5.5208,-25.1522,Q,Q
2023-03-15 13:20:50:435,0,-3.58673,-5.51396,-25.1447,Q,Q
2023-03-15 13:20:50:445,0,-3.59183,-5.51178,-25.1369,Q,Q
2023-03-15 13:20:50:455,0,-3.59463,-5.51334,-25.1311,Q,Q
2023-03-15 13:20:50:465,0,-3.595,-5.51439,-25.1206,Q,Q
2023-03-15 13:20:50:475,0,-3.59673,-5.51675,-25.1133,Q,Q
2023-03-15 13:20:50:485,0,-3.59676,-5.51497,-25.1038,Q,Q
2023-03-15 13:20:50:495,0,-3.59364,-5.51561,-25.0954,Q,Q
2023-03-15 13:20:50:505,0,-3.59108,-5.51392,-25.0887,Q,Q
2023-03-15 13:20:50:515,0,-3.5823,-5.51655,-25.0806,Q,Q
2023-03-15 13:20:50:525,0,-3.57185,-5.51718,-25.0715,Q,Q
2023-03-15 13:20:50:535,0,-3.56628,-5.51947,-25.0644,Q,Q
2023-03-15 13:20:50:545,0,-3.55958,-5.51648,-25.0556,Q,Q
2023-03-15 13:20:50:555,0,-3.55368,-5.51299,-25.0466,Q,Q
2023-03-15 13:20:50:565,0,-3.54827,-5.51022,-25.039,Q,Q
2023-03-15 13:20:50:575,0,-3.54097,-5.50826,-25.0292,Q,Q
2023-03-15 13:20:50:585,0,-3.5338,-5.51095,-25.0179,Q,Q
2023-03-15 13:20:50:595,0,-3.52461,-5.51022,-25.0041,Q,Q
2023-03-15 13:20:50:605,0,-3.5149,-5.51141,-24.9909,Q,Q
2023-03-15 13:20:50:615,0,-3.51057,-5.51323,-24.9754,Q,Q
2023-03-15 13:20:50:625,0,-3.50548,-5.51349,-24.9611,Q,Q
2023-03-15 13:20:50:635,0,-3.50165,-5.51003,-24.947,Q,Q
2023-03-15 13:20:50:645,0,-3.49796,-5.5043,-24.9353,Q,Q
2023-03-15 13:20:50:655,0,-3.49318,-5.49588,-24.9243,Q,Q
2023-03-15 13:20:50:665,0,-3.48525,-5.49039,-24.9113,Q,Q
2023-03-15 13:20:50:675,0,-3.47889,-5.48109,-24.905,Q,Q
2023-03-15 13:20:50:685,0,-3.47363,-5.47479,-24.8966,Q,Q
2023-03-15 13:20:50:695,0,-3.46558,-5.47101,-24.8893,Q,Q
2023-03-15 13:20:50:705,0,-3.45536,-5.46504,-24.8817,Q,Q
2023-03-15 13:20:50:715,0,-3.44502,-5.46055,-24.8742,Q,Q
2023-03-15 13:20:50:725,0,-3.43439,-5.45981,-24.8681,Q,Q
2023-03-15 13:20:50:735,0,-3.4239,-5.46087,-24.8617,Q,Q
2023-03-15 13:20:50:745,0,-3.41679,-5.46104,-24.8541,Q,Q
2023-03-15 13:20:50:755,0,-3.40878,-5.46736,-24.8459,Q,Q
2023-03-15 13:20:50:765,0,-3.40026,-5.47545,-24.8389,Q,Q
2023-03-15 13:20:50:775,0,-3.39148,-5.48086,-24.8277,Q,Q
2023-03-15 13:20:50:785,0,-3.38474,-5.48243,-24.8136,Q,Q
2023-03-15 13:20:50:795,0,-3.37725,-5.48067,-24.7987,Q,Q
2023-03-15 13:20:50:805,0,-3.37089,-5.48074,-24.7796,Q,Q
2023-03-15 13:20:50:815,0,-3.36539,-5.47728,-24.7631,Q,Q
2023-03-15 13:20:50:825,0,-3.35823,-5.47089,-24.7478,Q,Q
2023-03-15 13:20:50:835,0,-3.3535,-5.46544,-24.7326,Q,Q
2023-03-15 13:20:50:845,0,-3.35229,-5.4624,-24.7175,Q,Q
2023-03-15 13:20:50:855,0,-3.34984,-5.45875,-24.7048,Q,Q
2023-03-15 13:20:50:865,0,-3.34542,-5.45788,-24.6932,Q,Q
2023-03-15 13:20:50:875,0,-3.34351,-5.45886,-24.6855,Q,Q
2023-03-15 13:20:50:885,0,-3.3418,-5.46057,-24.6817,Q,Q
2023-03-15 13:20:50:895,0,-3.34337,-5.46184,-24.68,Q,Q
2023-03-15 13:20:50:905,0,-3.347,-5.46126,-24.678,Q,Q
2023-03-15 13:20:50:915,0,-3.35012,-5.46021,-24.6771,Q,Q
2023-03-15 13:20:50:924,0,-3.35237,-5.45794,-24.681,Q,Q
2023-03-15 13:20:50:935,0,-3.35348,-5.45708,-24.6824,Q,Q
2023-03-15 13:20:50:945,0,-3.35298,-5.45725,-24.6822,Q,Q
2023-03-15 13:20:50:955,0,-3.35122,-5.4562,-24.6837,Q,Q
2023-03-15 13:20:50:965,0,-3.34498,-5.45506,-24.6859,Q,Q
2023-03-15 13:20:50:975,0,-3.33941,-5.45291,-24.6838,Q,Q
2023-03-15 13:20:50:985,0,-3.33394,-5.446,-24.6892,Q,Q
2023-03-15 13:20:50:995,0,-3.32422,-5.4417,-24.6925,Q,Q
2023-03-15 13:20:51:5,0,-3.31233,-5.44021,-24.6914,Q,Q
2023-03-15 13:20:51:15,0,-3.30129,-5.44303,-24.6978,Q,Q
2023-03-15 13:20:51:25,0,-3.29157,-5.44731,-24.7037,Q,Q
2023-03-15 13:20:51:35,0,-3.28011,-5.45159,-24.716,Q,Q
2023-03-15 13:20:51:45,0,-3.26924,-5.45783,-24.7271,Q,Q
2023-03-15 13:20:51:55,0,-3.25482,-5.46441,-24.7459,Q,Q
2023-03-15 13:20:51:65,0,-3.24008,-5.46854,-24.7669,Q,Q
2023-03-15 13:20:51:75,0,-3.22322,-5.47411,-24.7915,Q,Q
2023-03-15 13:20:51:85,0,-3.20348,-5.48027,-24.8217,Q,Q
2023-03-15 13:20:51:95,0,-3.18639,-5.49184,-24.8591,Q,Q
2023-03-15 13:20:51:105,0,-3.17043,-5.5005,-24.9006,Q,Q
2023-03-15 13:20:51:115,0,-3.15329,-5.50775,-24.9363,Q,Q
2023-03-15 13:20:51:125,0,-3.13432,-5.51482,-24.9778,Q,Q
2023-03-15 13:20:51:135,0,-3.11723,-5.52345,-25.0191,Q,Q
2023-03-15 13:20:51:145,0,-3.09662,-5.52584,-25.0583,Q,Q
2023-03-15 13:20:51:155,0,-3.07892,-5.52644,-25.0946,Q,Q
2023-03-15 13:20:51:165,0,-3.0595,-5.52798,-25.1321,Q,Q
2023-03-15 13:20:51:175,0,-3.03957,-5.53021,-25.1679,Q,Q
2023-03-15 13:20:51:185,0,-3.01898,-5.52991,-25.1999,Q,Q
2023-03-15 13:20:51:195,0,-3.00239,-5.5246,-25.2331,Q,Q
2023-03-15 13:20:51:205,0,-2.98021,-5.5204,-25.2651,Q,Q
2023-03-15 13:20:51:215,0,-2.95765,-5.51356,-25.2932,Q,Q
2023-03-15 13:20:51:225,0,-2.93923,-5.50734,-25.3174,Q,Q
2023-03-15 13:20:51:235,0,-2.92359,-5.50544,-25.3381,Q,Q
2023-03-15 13:20:51:245,0,-2.90913,-5.50761,-25.3587,Q,Q
2023-03-15 13:20:51:255,0,-2.89627,-5.51231,-25.3793,Q,Q
2023-03-15 13:20:51:265,0,-2.88505,-5.51659,-25.3984,Q,Q
2023-03-15 13:20:51:275,0,-2.87523,-5.51764,-25.4212,Q,Q
2023-03-15 13:20:51:285,0,-2.86558,-5.51879,-25.4472,Q,Q
2023-03-15 13:20:51:295,0,-2.85677,-5.51953,-25.4767,Q,Q
2023-03-15 13:20:51:305,0,-2.85034,-5.52341,-25.5102,Q,Q
2023-03-15 13:20:51:315,0,-2.83404,-5.5254,-25.5496,Q,Q
2023-03-15 13:20:51:325,0,-2.81938,-5.52612,-25.5902,Q,Q
2023-03-15 13:20:51:335,0,-2.80309,-5.52245,-25.6314,Q,Q
2023-03-15 13:20:51:345,0,-2.79246,-5.5164,-25.6762,Q,Q
2023-03-15 13:20:51:355,0,-2.78472,-5.50799,-25.7221,Q,Q
2023-03-15 13:20:51:365,0,-2.77453,-5.49736,-25.7713,Q,Q
2023-03-15 13:20:51:375,0,-2.77011,-5.48411,-25.8214,Q,Q
2023-03-15 13:20:51:385,0,-2.76549,-5.47252,-25.8712,Q,Q
2023-03-15 13:20:51:395,0,-2.76386,-5.45741,-25.92,Q,Q
2023-03-15 13:20:51:404,0,-2.76251,-5.4361,-25.9678,Q,Q
2023-03-15 13:20:51:414,0,-2.75977,-5.41852,-26.0171,Q,Q
2023-03-15 13:20:51:424,0,-2.7568,-5.39499,-26.063,Q,Q
2023-03-15 13:20:51:434,0,-2.75394,-5.37155,-26.1076,Q,Q
2023-03-15 13:20:51:444,0,-2.75123,-5.35016,-26.1452,Q,Q
2023-03-15 13:20:51:454,0,-2.74836,-5.32728,-26.1849,Q,Q
2023-03-15 13:20:51:464,0,-2.74564,-5.31134,-26.2209,Q,Q
2023-03-15 13:20:51:474,0,-2.74251,-5.29021,-26.2543,Q,Q
2023-03-15 13:20:51:484,0,-2.73547,-5.26689,-26.2852,Q,Q
2023-03-15 13:20:51:494,0,-2.72929,-5.24416,-26.3121,Q,Q
2023-03-15 13:20:51:505,0,-2.72669,-5.22357,-26.333,Q,Q
2023-03-15 13:20:51:515,0,-2.71494,-5.20513,-26.3528,Q,Q
2023-03-15 13:20:51:525,0,-2.7096,-5.18717,-26.3685,Q,Q
2023-03-15 13:20:51:535,0,-2.69829,-5.17168,-26.3833,Q,Q
2023-03-15 13:20:51:545,0,-2.68637,-5.15619,-26.3927,Q,Q
2023-03-15 13:20:51:555,0,-2.67726,-5.14063,-26.3988,Q,Q
2023-03-15 13:20:51:565,0,-2.66329,-5.1218,-26.4066,Q,Q
2023-03-15 13:20:51:575,0,-2.64789,-5.10309,-26.4097,Q,Q
2023-03-15 13:20:51:585,0,-2.63466,-5.0859,-26.4087,Q,Q
2023-03-15 13:20:51:595,0,-2.62341,-5.07182,-26.4076,Q,Q
2023-03-15 13:20:51:605,0,-2.61152,-5.06002,-26.4031,Q,Q
2023-03-15 13:20:51:615,0,-2.59967,-5.05135,-26.3978,Q,Q
2023-03-15 13:20:51:625,0,-2.58773,-5.04368,-26.3938,Q,Q
2023-03-15 13:20:51:635,0,-2.58098,-5.0354,-26.3886,Q,Q
2023-03-15 13:20:51:645,0,-2.56877,-5.02847,-26.383,Q,Q
2023-03-15 13:20:51:655,0,-2.56279,-5.02304,-26.377,Q,Q
2023-03-15 13:20:51:665,0,-2.55632,-5.0209,-26.3694,Q,Q
2023-03-15 13:20:51:675,0,-2.54963,-5.02019,-26.3629,Q,Q
2023-03-15 13:20:51:685,0,-2.54256,-5.02504,-26.3545,Q,Q
2023-03-15 13:20:51:695,0,-2.5377,-5.02968,-26.345,Q,Q
2023-03-15 13:20:51:705,0,-2.53476,-5.03664,-26.3343,Q,Q
2023-03-15 13:20:51:715,0,-2.53749,-5.04091,-26.3235,Q,Q
2023-03-15 13:20:51:725,0,-2.53525,-5.04819,-26.3054,Q,Q
2023-03-15 13:20:51:735,0,-2.53519,-5.05327,-26.2887,Q,Q
2023-03-15 13:20:51:745,0,-2.53502,-5.05897,-26.2709,Q,Q
2023-03-15 13:20:51:755,0,-2.53622,-5.06044,-26.2525,Q,Q
2023-03-15 13:20:51:765,0,-2.53809,-5.0613,-26.2332,Q,Q
2023-03-15 13:20:51:775,0,-2.54246,-5.06236,-26.2167,Q,Q
2023-03-15 13:20:51:785,0,-2.54245,-5.06475,-26.199,Q,Q
2023-03-15 13:20:51:795,0,-2.54669,-5.06867,-26.1836,Q,Q
2023-03-15 13:20:51:805,0,-2.54649,-5.07013,-26.1675,Q,Q
2023-03-15 13:20:51:815,0,-2.55041,-5.07417,-26.1532,Q,Q
2023-03-15 13:20:51:825,0,-2.54994,-5.07953,-26.1447,Q,Q
2023-03-15 13:20:51:835,0,-2.55152,-5.08356,-26.1351,Q,Q
2023-03-15 13:20:51:845,0,-2.5562,-5.08357,-26.1287,Q,Q
2023-03-15 13:20:51:855,0,-2.56033,-5.08462,-26.1235,Q,Q
2023-03-15 13:20:51:865,0,-2.56988,-5.09065,-26.1197,Q,Q
2023-03-15 13:20:51:875,0,-2.57487,-5.09604,-26.1181,Q,Q
2023-03-15 13:20:51:885,0,-2.57782,-5.09966,-26.1137,Q,Q
2023-03-15 13:20:51:895,0,-2.58161,-5.10067,-26.1137,Q,Q
2023-03-15 13:20:51:905,0,-2.58444,-5.10504,-26.1149,Q,Q
2023-03-15 13:20:51:915,0,-2.58641,-5.10615,-26.1075,Q,Q
2023-03-15 13:20:51:925,0,-2.58958,-5.10385,-26.1052,Q,Q
2023-03-15 13:20:51:935,0,-2.58985,-5.10403,-26.1034,Q,Q
2023-03-15 13:20:51:945,0,-2.58851,-5.10375,-26.0992,Q,Q
2023-03-15 13:20:51:955,0,-2.591,-5.10452,-26.0928,Q,Q
2023-03-15 13:20:51:965,0,-2.58946,-5.10356,-26.0881,Q,Q
2023-03-15 13:20:51:975,0,-2.59299,-5.10154,-26.0801,Q,Q
2023-03-15 13:20:51:985,0,-2.59347,-5.10167,-26.0724,Q,Q
2023-03-15 13:20:51:995,0,-2.59147,-5.10278,-26.066,Q,Q
2023-03-15 13:20:52:5,0,-2.58828,-5.10462,-26.0595,Q,Q
2023-03-15 13:20:52:15,0,-2.58462,-5.10488,-26.0519,Q,Q
2023-03-15 13:20:52:25,0,-2.5786,-5.10622,-26.0441,Q,Q
2023-03-15 13:20:52:35,0,-2.57429,-5.10504,-26.0358,Q,Q
2023-03-15 13:20:52:45,0,-2.56868,-5.09796,-26.0298,Q,Q
2023-03-15 13:20:52:55,0,-2.56264,-5.0941,-26.0224,Q,Q
2023-03-15 13:20:52:65,0,-2.55848,-5.09054,-26.0132,Q,Q
2023-03-15 13:20:52:75,0,-2.5527,-5.08474,-26.0055,Q,Q
2023-03-15 13:20:52:85,0,-2.55217,-5.07856,-26.0013,Q,Q
2023-03-15 13:20:52:95,0,-2.55016,-5.07245,-25.9986,Q,Q
2023-03-15 13:20:52:105,0,-2.54931,-5.06913,-25.9963,Q,Q
2023-03-15 13:20:52:115,0,-2.5499,-5.07045,-25.989,Q,Q
2023-03-15 13:20:52:125,0,-2.54962,-5.07133,-25.9824,Q,Q
2023-03-15 13:20:52:135,0,-2.54933,-5.07653,-25.9759,Q,Q
2023-03-15 13:20:52:145,0,-2.54936,-5.08295,-25.9659,Q,Q
2023-03-15 13:20:52:155,0,-2.55066,-5.08851,-25.9539,Q,Q
2023-03-15 13:20:52:165,0,-2.54976,-5.09347,-25.9431,Q,Q
2023-03-15 13:20:52:175,0,-2.54834,-5.09634,-25.9307,Q,Q
2023-03-15 13:20:52:185,0,-2.54949,-5.10004,-25.9192,Q,Q
2023-03-15 13:20:52:195,0,-2.55181,-5.0996,-25.9046,Q,Q
2023-03-15 13:20:52:205,0,-2.55716,-5.09834,-25.8873,Q,Q
2023-03-15 13:20:52:215,0,-2.56708,-5.09401,-25.8725,Q,Q
2023-03-15 13:20:52:225,0,-2.57888,-5.08921,-25.8586,Q,Q
2023-03-15 13:20:52:235,0,-2.59139,-5.08861,-25.8475,Q,Q
2023-03-15 13:20:52:245,0,-2.6032,-5.08745,-25.838,Q,Q
2023-03-15 13:20:52:255,0,-2.61475,-5.08393,-25.8259,Q,Q
2023-03-15 13:20:52:265,0,-2.6251,-5.08255,-25.8195,Q,Q
2023-03-15 13:20:52:275,0,-2.63539,-5.07769,-25.8144,Q,Q
2023-03-15 13:20:52:285,0,-2.64209,-5.07188,-25.8109,Q,Q
2023-03-15 13:20:52:295,0,-2.64694,-5.07182,-25.8105,Q,Q
2023-03-15 13:20:52:305,0,-2.64909,-5.0694,-25.8093,Q,Q
2023-03-15 13:20:52:315,0,-2.65289,-5.06949,-25.8087,Q,Q
2023-03-15 13:20:52:325,0,-2.65482,-5.06652,-25.8108,Q,Q
2023-03-15 13:20:52:335,0,-2.65804,-5.06607,-25.8171,Q,Q
2023-03-15 13:20:52:345,0,-2.66036,-5.06518,-25.8205,Q,Q
2023-03-15 13:20:52:355,0,-2.66799,-5.0617,-25.8246,Q,Q
2023-03-15 13:20:52:365,0,-2.67476,-5.05775,-25.833,Q,Q
2023-03-15 13:20:52:375,0,-2.67893,-5.05442,-25.8412,Q,Q
2023-03-15 13:20:52:385,0,-2.68284,-5.05082,-25.8483,Q,Q
2023-03-15 13:20:52:395,0,-2.68824,-5.04664,-25.8543,Q,Q
2023-03-15 13:20:52:405,0,-2.68742,-5.04343,-25.8587,Q,Q
2023-03-15 13:20:52:415,0,-2.68945,-5.04455,-25.8634,Q,Q
2023-03-15 13:20:52:425,0,-2.68757,-5.04522,-25.8714,Q,Q
2023-03-15 13:20:52:435,0,-2.68638,-5.04289,-25.8729,Q,Q
2023-03-15 13:20:52:445,0,-2.68435,-5.03395,-25.8741,Q,Q
2023-03-15 13:20:52:454,0,-2.68087,-5.02623,-25.8748,Q,Q
2023-03-15 13:20:52:465,0,-2.67902,-5.01708,-25.8734,Q,Q
2023-03-15 13:20:52:475,0,-2.67614,-5.00715,-25.874,Q,Q
2023-03-15 13:20:52:485,0,-2.67633,-5.00081,-25.8754,Q,Q
2023-03-15 13:20:52:495,0,-2.67716,-4.99462,-25.875,Q,Q
2023-03-15 13:20:52:505,0,-2.67742,-4.99257,-25.8737,Q,Q
2023-03-15 13:20:52:515,0,-2.67506,-4.98907,-25.8736,Q,Q
2023-03-15 13:20:52:525,0,-2.67392,-4.98618,-25.8733,Q,Q
2023-03-15 13:20:52:535,0,-2.66675,-4.98657,-25.8755,Q,Q
2023-03-15 13:20:52:545,0,-2.66424,-4.98478,-25.8736,Q,Q
2023-03-15 13:20:52:555,0,-2.65712,-4.98938,-25.8754,Q,Q
2023-03-15 13:20:52:565,0,-2.64879,-4.99255,-25.8743,Q,Q
2023-03-15 13:20:52:575,0,-2.64419,-4.9948,-25.8734,Q,Q
2023-03-15 13:20:52:585,0,-2.64098,-4.99663,-25.865,Q,Q
2023-03-15 13:20:52:595,0,-2.64155,-4.99941,-25.8579,Q,Q
2023-03-15 13:20:52:605,0,-2.64349,-5.00085,-25.8471,Q,Q
2023-03-15 13:20:52:615,0,-2.64809,-5.00219,-25.8346,Q,Q
2023-03-15 13:20:52:625,0,-2.65618,-5.00516,-25.8231,Q,Q
2023-03-15 13:20:52:635,0,-2.6645,-5.00117,-25.8102,Q,Q
2023-03-15 13:20:52:645,0,-2.6719,-4.99968,-25.7978,Q,Q
2023-03-15 13:20:52:655,0,-2.67707,-4.99456,-25.7884,Q,Q
2023-03-15 13:20:52:665,0,-2.68022,-4.99105,-25.7787,Q,Q
2023-03-15 13:20:52:675,0,-2.68264,-4.98659,-25.7712,Q,Q
2023-03-15 13:20:52:685,0,-2.682,-4.98721,-25.7663,Q,Q
2023-03-15 13:20:52:695,0,-2.68533,-4.9898,-25.7605,Q,Q
2023-03-15 13:20:52:705,0,-2.68649,-4.99261,-25.7601,Q,Q
2023-03-15 13:20:52:715,0,-2.68918,-4.99567,-25.7587,Q,Q
2023-03-15 13:20:52:725,0,-2.68952,-4.99868,-25.7556,Q,Q
2023-03-15 13:20:52:735,0,-2.68657,-5.00055,-25.7524,Q,Q
2023-03-15 13:20:52:745,0,-2.68437,-5.00061,-25.755,Q,Q
2023-03-15 13:20:52:755,0,-2.68813,-5.0032,-25.7559,Q,Q
2023-03-15 13:20:52:765,0,-2.68645,-5.00436,-25.7589,Q,Q
2023-03-15 13:20:52:775,0,-2.68638,-5.00848,-25.7608,Q,Q
2023-03-15 13:20:52:785,0,-2.68352,-5.00849,-25.7612,Q,Q
2023-03-15 13:20:52:795,0,-2.68275,-5.00734,-25.7622,Q,Q
2023-03-15 13:20:52:805,0,-2.68364,-5.00781,-25.7609,Q,Q
2023-03-15 13:20:52:815,0,-2.68123,-5.00778,-25.758,Q,Q
2023-03-15 13:20:52:825,0,-2.67784,-5.00786,-25.7537,Q,Q
2023-03-15 13:20:52:835,0,-2.67348,-5.00992,-25.7463,Q,Q
2023-03-15 13:20:52:845,0,-2.673,-5.00865,-25.7421,Q,Q
2023-03-15 13:20:52:855,0,-2.67256,-5.00904,-25.739,Q,Q
2023-03-15 13:20:52:865,0,-2.67216,-5.01149,-25.7366,Q,Q
2023-03-15 13:20:52:875,0,-2.67416,-5.01504,-25.7316,Q,Q
2023-03-15 13:20:52:885,0,-2.67673,-5.01681,-25.7278,Q,Q
2023-03-15 13:20:52:895,0,-2.67582,-5.02115,-25.7253,Q,Q
2023-03-15 13:20:52:904,0,-2.67436,-5.02237,-25.721,Q,Q
2023-03-15 13:20:52:915,0,-2.67325,-5.02507,-25.717,Q,Q
2023-03-15 13:20:52:924,0,-2.67276,-5.02684,-25.7136,Q,Q
2023-03-15 13:20:52:934,0,-2.66967,-5.02304,-25.7113,Q,Q
2023-03-15 13:20:52:945,0,-2.66772,-5.0213,-25.7079,Q,Q
2023-03-15 13:20:52:955,0,-2.66255,-5.02209,-25.7041,Q,Q
2023-03-15 13:20:52:965,0,-2.65978,-5.02119,-25.7018,Q,Q
2023-03-15 13:20:52:975,0,-2.65527,-5.02231,-25.7027,Q,Q
2023-03-15 13:20:52:985,0,-2.65439,-5.01712,-25.7045,Q,Q
2023-03-15 13:20:52:995,0,-2.65555,-5.01304,-25.7043,Q,Q
2023-03-15 13:20:53:5,0,-2.65748,-5.01433,-25.7044,Q,Q
2023-03-15 13:20:53:15,0,-2.65405,-5.02109,-25.6995,Q,Q
2023-03-15 13:20:53:25,0,-2.65177,-5.03183,-25.6934,Q,Q
2023-03-15 13:20:53:35,0,-2.65239,-5.04617,-25.6888,Q,Q
2023-03-15 13:20:53:45,0,-2.64871,-5.05792,-25.6818,Q,Q
2023-03-15 13:20:53:55,0,-2.64619,-5.06441,-25.6786,Q,Q
2023-03-15 13:20:53:65,0,-2.64911,-5.0667,-25.6737,Q,Q
2023-03-15 13:20:53:75,0,-2.65378,-5.0675,-25.6674,Q,Q
2023-03-15 13:20:53:85,0,-2.6601,-5.06997,-25.6608,Q,Q
2023-03-15 13:20:53:95,0,-2.66582,-5.0649,-25.651,Q,Q
2023-03-15 13:20:53:105,0,-2.6743,-5.06341,-25.6407,Q,Q
2023-03-15 13:20:53:115,0,-2.68724,-5.0603,-25.6343,Q,Q
2023-03-15 13:20:53:125,0,-2.69779,-5.05553,-25.631,Q,Q
2023-03-15 13:20:53:135,0,-2.70595,-5.05191,-25.6294,Q,Q
2023-03-15 13:20:53:145,0,-2.71473,-5.04471,-25.6329,Q,Q
2023-03-15 13:20:53:155,0,-2.7205,-5.03895,-25.6355,Q,Q
2023-03-15 13:20:53:165,0,-2.72756,-5.03617,-25.6427,Q,Q
2023-03-15 13:20:53:175,0,-2.73392,-5.03665,-25.6499,Q,Q
2023-03-15 13:20:53:185,0,-2.73949,-5.03364,-25.6594,Q,Q
2023-03-15 13:20:53:195,0,-2.73975,-5.03165,-25.6714,Q,Q
2023-03-15 13:20:53:205,0,-2.74439,-5.02657,-25.6835,Q,Q
2023-03-15 13:20:53:215,0,-2.7492,-5.02344,-25.6981,Q,Q
2023-03-15 13:20:53:225,0,-2.75001,-5.01906,-25.716,Q,Q
2023-03-15 13:20:53:235,0,-2.75548,-5.01102,-25.7293,Q,Q
2023-03-15 13:20:53:245,0,-2.7597,-5.00042,-25.746,Q,Q
2023-03-15 13:20:53:255,0,-2.76161,-4.98509,-25.76,Q,Q
2023-03-15 13:20:53:265,0,-2.76637,-4.96781,-25.7736,Q,Q
2023-03-15 13:20:53:275,0,-2.76897,-4.95058,-25.7811,Q,Q
2023-03-15 13:20:53:285,0,-2.76839,-4.93733,-25.7851,Q,Q
2023-03-15 13:20:53:295,0,-2.76819,-4.93228,-25.7885,Q,Q
2023-03-15 13:20:53:305,0,-2.76877,-4.9286,-25.7917,Q,Q
2023-03-15 13:20:53:315,0,-2.76785,-4.92387,-25.789,Q,Q
2023-03-15 13:20:53:325,0,-2.76855,-4.92102,-25.786,Q,Q
2023-03-15 13:20:53:335,0,-2.77065,-4.91743,-25.7824,Q,Q
2023-03-15 13:20:53:345,0,-2.77219,-4.91201,-25.7787,Q,Q
2023-03-15 13:20:53:355,0,-2.77296,-4.90587,-25.7742,Q,Q
2023-03-15 13:20:53:365,0,-2.7725,-4.89492,-25.7696,Q,Q
2023-03-15 13:20:53:375,0,-2.77528,-4.88584,-25.7628,Q,Q
2023-03-15 13:20:53:385,0,-2.77576,-4.87814,-25.7578,Q,Q
2023-03-15 13:20:53:395,0,-2.77796,-4.87242,-25.7498,Q,Q
2023-03-15 13:20:53:405,0,-2.77607,-4.86854,-25.7451,Q,Q
2023-03-15 13:20:53:415,0,-2.77452,-4.86372,-25.7424,Q,Q
2023-03-15 13:20:53:425,0,-2.77067,-4.86373,-25.7422,Q,Q
2023-03-15 13:20:53:435,0,-2.76514,-4.86422,-25.7405,Q,Q
2023-03-15 13:20:53:445,0,-2.75888,-4.86647,-25.738,Q,Q
2023-03-15 13:20:53:455,0,-2.75382,-4.87134,-25.7321,Q,Q
2023-03-15 13:20:53:465,0,-2.7505,-4.87339,-25.7223,Q,Q
2023-03-15 13:20:53:475,0,-2.75062,-4.88122,-25.717,Q,Q
2023-03-15 13:20:53:485,0,-2.75199,-4.88648,-25.71,Q,Q
2023-03-15 13:20:53:495,0,-2.75432,-4.89535,-25.6983,Q,Q
2023-03-15 13:20:53:505,0,-2.75969,-4.90237,-25.6899,Q,Q
2023-03-15 13:20:53:515,0,-2.76491,-4.90467,-25.6836,Q,Q
2023-03-15 13:20:53:525,0,-2.77048,-4.90674,-25.6793,Q,Q
2023-03-15 13:20:53:535,0,-2.77671,-4.906,-25.6739,Q,Q
2023-03-15 13:20:53:545,0,-2.78024,-4.90478,-25.6667,Q,Q
2023-03-15 13:20:53:555,0,-2.78895,-4.9029,-25.6641,Q,Q
2023-03-15 13:20:53:565,0,-2.79359,-4.89967,-25.6594,Q,Q
2023-03-15 13:20:53:575,0,-2.79914,-4.90126,-25.6554,Q,Q
2023-03-15 13:20:53:585,0,-2.80316,-4.90332,-25.6534,Q,Q
2023-03-15 13:20:53:595,0,-2.80732,-4.9004,-25.6536,Q,Q
2023-03-15 13:20:53:605,0,-2.81254,-4.89932,-25.6539,Q,Q
2023-03-15 13:20:53:615,0,-2.81726,-4.89988,-25.6602,Q,Q
2023-03-15 13:20:53:625,0,-2.82092,-4.89954,-25.6645,Q,Q
2023-03-15 13:20:53:635,0,-2.82921,-4.89765,-25.6726,Q,Q
2023-03-15 13:20:53:645,0,-2.83438,-4.89664,-25.6806,Q,Q
2023-03-15 13:20:53:655,0,-2.83877,-4.89523,-25.686,Q,Q
2023-03-15 13:20:53:665,0,-2.84197,-4.89079,-25.6958,Q,Q
2023-03-15 13:20:53:675,0,-2.84257,-4.88358,-25.7023,Q,Q
2023-03-15 13:20:53:685,0,-2.84219,-4.87938,-25.7095,Q,Q
2023-03-15 13:20:53:695,0,-2.84395,-4.87496,-25.7137,Q,Q
2023-03-15 13:20:53:705,0,-2.84568,-4.87183,-25.7163,Q,Q
2023-03-15 13:20:53:715,0,-2.84694,-4.86612,-25.7223,Q,Q
2023-03-15 13:20:53:725,0,-2.84517,-4.85799,-25.7241,Q,Q
2023-03-15 13:20:53:735,0,-2.84741,-4.84968,-25.7293,Q,Q
2023-03-15 13:20:53:745,0,-2.85102,-4.84381,-25.7289,Q,Q
2023-03-15 13:20:53:755,0,-2.85378,-4.84148,-25.7277,Q,Q
2023-03-15 13:20:53:765,0,-2.85509,-4.84162,-25.7312,Q,Q
2023-03-15 13:20:53:775,0,-2.85473,-4.8336,-25.7317,Q,Q
2023-03-15 13:20:53:785,0,-2.85481,-4.82383,-25.7312,Q,Q
2023-03-15 13:20:53:795,0,-2.86505,-4.81713,-25.7278,Q,Q
2023-03-15 13:20:53:805,0,-2.87921,-4.81104,-25.722,Q,Q
2023-03-15 13:20:53:815,0,-2.89017,-4.80951,-25.7121,Q,Q
2023-03-15 13:20:53:825,0,-2.89796,-4.80776,-25.703,Q,Q
2023-03-15 13:20:53:835,0,-2.90349,-4.80274,-25.6993,Q,Q
2023-03-15 13:20:53:845,0,-2.90995,-4.7971,-25.6962,Q,Q
2023-03-15 13:20:53:855,0,-2.91713,-4.79012,-25.695,Q,Q
2023-03-15 13:20:53:865,0,-2.9275,-4.78421,-25.6962,Q,Q
2023-03-15 13:20:53:875,0,-2.93515,-4.77874,-25.7002,Q,Q
2023-03-15 13:20:53:885,0,-2.94308,-4.77499,-25.7023,Q,Q
2023-03-15 13:20:53:895,0,-2.9483,-4.77638,-25.7028,Q,Q
2023-03-15 13:20:53:905,0,-2.95371,-4.784,-25.7029,Q,Q
2023-03-15 13:20:53:915,0,-2.96078,-4.79233,-25.7019,Q,Q
2023-03-15 13:20:53:925,0,-2.96673,-4.80494,-25.7023,Q,Q
2023-03-15 13:20:53:935,0,-2.97202,-4.81474,-25.7051,Q,Q
2023-03-15 13:20:53:945,0,-2.9797,-4.82198,-25.7039,Q,Q
2023-03-15 13:20:53:955,0,-2.98397,-4.82857,-25.7027,Q,Q
2023-03-15 13:20:53:965,0,-2.98697,-4.83779,-25.7006,Q,Q
2023-03-15 13:20:53:975,0,-2.98847,-4.84451,-25.6966,Q,Q
2023-03-15 13:20:53:985,0,-2.98899,-4.85077,-25.6869,Q,Q
2023-03-15 13:20:53:995,0,-2.99164,-4.85357,-25.6777,Q,Q
2023-03-15 13:20:54:5,0,-2.99234,-4.85508,-25.6663,Q,Q
2023-03-15 13:20:54:15,0,-2.99479,-4.85677,-25.6558,Q,Q
2023-03-15 13:20:54:25,0,-2.99506,-4.86086,-25.6512,Q,Q
2023-03-15 13:20:54:35,0,-2.99385,-4.86482,-25.6459,Q,Q
2023-03-15 13:20:54:45,0,-2.99081,-4.87012,-25.6405,Q,Q
2023-03-15 13:20:54:55,0,-2.98812,-4.8708,-25.6364,Q,Q
2023-03-15 13:20:54:65,0,-2.98498,-4.8716,-25.6363,Q,Q
2023-03-15 13:20:54:75,0,-2.98167,-4.87057,-25.6342,Q,Q
2023-03-15 13:20:54:85,0,-2.98249,-4.87218,-25.6293,Q,Q
2023-03-15 13:20:54:95,0,-2.98806,-4.87561,-25.6235,Q,Q
2023-03-15 13:20:54:105,0,-2.99055,-4.8825,-25.6195,Q,Q
2023-03-15 13:20:54:115,0,-2.99281,-4.88859,-25.6161,Q,Q
2023-03-15 13:20:54:125,0,-2.99695,-4.89439,-25.6141,Q,Q
2023-03-15 13:20:54:135,0,-2.99617,-4.89578,-25.6122,Q,Q
2023-03-15 13:20:54:145,0,-2.99862,-4.89688,-25.6092,Q,Q
2023-03-15 13:20:54:155,0,-3.00008,-4.89985,-25.6074,Q,Q
2023-03-15 13:20:54:165,0,-3.00221,-4.90268,-25.6081,Q,Q
2023-03-15 13:20:54:175,0,-3.0035,-4.90693,-25.6109,Q,Q
2023-03-15 13:20:54:185,0,-3.0091,-4.91249,-25.6104,Q,Q
2023-03-15 13:20:54:195,0,-3.01163,-4.9186,-25.6151,Q,Q
2023-03-15 13:20:54:205,0,-3.01468,-4.91964,-25.6193,Q,Q
2023-03-15 13:20:54:215,0,-3.0155,-4.9153,-25.6201,Q,Q
2023-03-15 13:20:54:225,0,-3.01061,-4.91714,-25.6225,Q,Q
2023-03-15 13:20:54:235,0,-3.00239,-4.91362,-25.6246,Q,Q
2023-03-15 13:20:54:245,0,-2.99454,-4.91265,-25.6277,Q,Q
2023-03-15 13:20:54:255,0,-2.98335,-4.91186,-25.6268,Q,Q
2023-03-15 13:20:54:265,0,-2.97334,-4.90729,-25.6251,Q,Q
2023-03-15 13:20:54:275,0,-2.96159,-4.90653,-25.6243,Q,Q
2023-03-15 13:20:54:285,0,-2.94625,-4.90675,-25.6254,Q,Q
2023-03-15 13:20:54:295,0,-2.93098,-4.90647,-25.6235,Q,Q
2023-03-15 13:20:54:305,0,-2.91515,-4.90742,-25.6224,Q,Q
2023-03-15 13:20:54:315,0,-2.89581,-4.90526,-25.6168,Q,Q
2023-03-15 13:20:54:325,0,-2.8759,-4.90638,-25.6099,Q,Q
2023-03-15 13:20:54:335,0,-2.85685,-4.90793,-25.6042,Q,Q
2023-03-15 13:20:54:345,0,-2.84122,-4.91026,-25.5926,Q,Q
2023-03-15 13:20:54:355,0,-2.82962,-4.91553,-25.5805,Q,Q
2023-03-15 13:20:54:365,0,-2.81909,-4.92353,-25.5654,Q,Q
2023-03-15 13:20:54:375,0,-2.81558,-4.92942,-25.5544,Q,Q
2023-03-15 13:20:54:385,0,-2.81478,-4.9351,-25.545,Q,Q
2023-03-15 13:20:54:395,0,-2.80942,-4.94219,-25.5359,Q,Q
2023-03-15 13:20:54:405,0,-2.80781,-4.94855,-25.5267,Q,Q
2023-03-15 13:20:54:415,0,-2.80326,-4.95084,-25.5215,Q,Q
2023-03-15 13:20:54:425,0,-2.7996,-4.95169,-25.5171,Q,Q
2023-03-15 13:20:54:435,0,-2.79795,-4.95395,-25.5137,Q,Q
2023-03-15 13:20:54:445,0,-2.7968,-4.95409,-25.5122,Q,Q
2023-03-15 13:20:54:455,0,-2.79698,-4.94793,-25.5105,Q,Q
2023-03-15 13:20:54:465,0,-2.79641,-4.94374,-25.5114,Q,Q
2023-03-15 13:20:54:475,0,-2.79593,-4.94064,-25.5131,Q,Q
2023-03-15 13:20:54:485,0,-2.79491,-4.93899,-25.5138,Q,Q
2023-03-15 13:20:54:495,0,-2.79823,-4.93757,-25.5119,Q,Q
2023-03-15 13:20:54:505,0,-2.80354,-4.93417,-25.5109,Q,Q
2023-03-15 13:20:54:515,0,-2.80859,-4.93138,-25.5109,Q,Q
2023-03-15 13:20:54:525,0,-2.8155,-4.93138,-25.5137,Q,Q
2023-03-15 13:20:54:535,0,-2.82217,-4.93183,-25.5175,Q,Q
2023-03-15 13:20:54:545,0,-2.82903,-4.9328,-25.5212,Q,Q
2023-03-15 13:20:54:555,0,-2.83562,-4.93441,-25.5298,Q,Q
2023-03-15 13:20:54:565,0,-2.84209,-4.93482,-25.5349,Q,Q
2023-03-15 13:20:54:575,0,-2.84757,-4.93431,-25.5411,Q,Q
2023-03-15 13:20:54:585,0,-2.85794,-4.92996,-25.5459,Q,Q
2023-03-15 13:20:54:595,0,-2.86629,-4.92948,-25.5505,Q,Q
2023-03-15 13:20:54:605,0,-2.87037,-4.92958,-25.5486,Q,Q
2023-03-15 13:20:54:615,0,-2.87576,-4.9261,-25.5426,Q,Q
2023-03-15 13:20:54:625,0,-2.88002,-4.92066,-25.5375,Q,Q
2023-03-15 13:20:54:635,0,-2.88589,-4.91187,-25.5282,Q,Q
2023-03-15 13:20:54:645,0,-2.89641,-4.90786,-25.5154,Q,Q
2023-03-15 13:20:54:655,0,-2.90287,-4.90779,-25.5085,Q,Q
2023-03-15 13:20:54:665,0,-2.90883,-4.90399,-25.5033,Q,Q
2023-03-15 13:20:54:675,0,-2.91897,-4.90393,-25.5007,Q,Q
2023-03-15 13:20:54:685,0,-2.93902,-4.90674,-25.5017,Q,Q
2023-03-15 13:20:54:695,0,-2.92188,-4.91509,-25.5153,Q,Q
2023-03-15 13:20:54:705,0,-2.88701,-4.92723,-25.538,Q,Q
2023-03-15 13:20:54:715,0,-2.85392,-4.93065,-25.5654,Q,Q
2023-03-15 13:20:54:725,0,-2.84843,-4.91769,-25.5857,Q,Q
2023-03-15 13:20:54:735,0,-2.86485,-4.90102,-25.6014,Q,Q
2023-03-15 13:20:54:745,0,-2.87901,-4.89248,-25.6096,Q,Q
2023-03-15 13:20:54:755,0,-2.87889,-4.89221,-25.6187,Q,Q
2023-03-15 13:20:54:765,0,-2.87723,-4.89185,-25.6208,Q,Q
2023-03-15 13:20:54:775,0,-2.87399,-4.89298,-25.6208,Q,Q
2023-03-15 13:20:54:785,0,-2.87575,-4.89767,-25.6197,Q,Q
2023-03-15 13:20:54:795,0,-2.87334,-4.89928,-25.6193,Q,Q
2023-03-15 13:20:54:805,0,-2.87439,-4.90064,-25.6205,Q,Q
2023-03-15 13:20:54:815,0,-2.87505,-4.90218,-25.615,Q,Q
2023-03-15 13:20:54:825,0,-2.87837,-4.90161,-25.6087,Q,Q
2023-03-15 13:20:54:835,0,-2.88366,-4.9032,-25.604,Q,Q
2023-03-15 13:20:54:845,0,-2.89066,-4.9045,-25.6034,Q,Q
