Timestamp_cmd,imu_cmd,roll_delta,pitch_delta,yaw_delta
2023-03-11 22:13:05:261,0,6.01789,-2.49944,-54.254
2023-03-11 22:13:05:272,0,6.00724,-2.51137,-54.2453
2023-03-11 22:13:05:282,0,5.99144,-2.52412,-54.2348
2023-03-11 22:13:05:291,0,5.97262,-2.53145,-54.2246
2023-03-11 22:13:05:302,0,5.95418,-2.54406,-54.2162
2023-03-11 22:13:05:312,0,5.93306,-2.55356,-54.2079
2023-03-11 22:13:05:322,0,5.91306,-2.56709,-54.2039
2023-03-11 22:13:05:332,0,5.8834,-2.58493,-54.197
2023-03-11 22:13:05:342,0,5.84664,-2.60348,-54.1894
2023-03-11 22:13:05:352,0,5.81069,-2.62841,-54.1776
2023-03-11 22:13:05:362,0,5.77333,-2.65186,-54.1625
2023-03-11 22:13:05:372,0,5.74017,-2.67366,-54.153
2023-03-11 22:13:05:382,0,5.71852,-2.6922,-54.1462
2023-03-11 22:13:05:392,0,5.7117,-2.70361,-54.1482
2023-03-11 22:13:05:402,0,5.71961,-2.70202,-54.1571
2023-03-11 22:13:05:412,0,5.74324,-2.68988,-54.1774
2023-03-11 22:13:05:422,0,5.78081,-2.67149,-54.2025
2023-03-11 22:13:05:432,0,5.82392,-2.64778,-54.2388
2023-03-11 22:13:05:442,0,5.87361,-2.62511,-54.274
2023-03-11 22:13:05:452,0,5.92695,-2.60826,-54.2935
2023-03-11 22:13:05:462,0,5.98117,-2.60514,-54.309
2023-03-11 22:13:05:472,0,6.02569,-2.59602,-54.3207
2023-03-11 22:13:05:482,0,6.06535,-2.57791,-54.3357
2023-03-11 22:13:05:492,0,6.0989,-2.55441,-54.3483
2023-03-11 22:13:05:502,0,6.12386,-2.52473,-54.3534
2023-03-11 22:13:05:512,0,6.14839,-2.49547,-54.3462
2023-03-11 22:13:05:522,0,6.16855,-2.47557,-54.3284
2023-03-11 22:13:05:532,0,6.18736,-2.46729,-54.3114
2023-03-11 22:13:05:542,0,6.20335,-2.46865,-54.2908
2023-03-11 22:13:05:552,0,6.21439,-2.48283,-54.2604
2023-03-11 22:13:05:562,0,6.2207,-2.50816,-54.2352
2023-03-11 22:13:05:572,0,6.2244,-2.54239,-54.2072
2023-03-11 22:13:05:582,0,6.22289,-2.57807,-54.1812
2023-03-11 22:13:05:592,0,6.21169,-2.61921,-54.146
2023-03-11 22:13:05:601,0,6.20079,-2.66448,-54.1071
2023-03-11 22:13:05:611,0,6.1871,-2.71583,-54.0676
2023-03-11 22:13:05:621,0,6.1808,-2.76531,-54.0317
2023-03-11 22:13:05:631,0,6.17759,-2.81496,-53.9911
2023-03-11 22:13:05:641,0,6.17336,-2.86375,-53.9502
2023-03-11 22:13:05:651,0,6.17431,-2.90529,-53.9076
2023-03-11 22:13:05:661,0,6.17242,-2.94398,-53.8719
2023-03-11 22:13:05:671,0,6.16265,-2.97907,-53.833
2023-03-11 22:13:05:682,0,6.14757,-3.00984,-53.7925
2023-03-11 22:13:05:692,0,6.13084,-3.03869,-53.7559
2023-03-11 22:13:05:702,0,6.10919,-3.06879,-53.7264
2023-03-11 22:13:05:712,0,6.08179,-3.08677,-53.7017
2023-03-11 22:13:05:722,0,6.05295,-3.09786,-53.6884
2023-03-11 22:13:05:732,0,6.02529,-3.10443,-53.6753
2023-03-11 22:13:05:742,0,6.00171,-3.1072,-53.6678
2023-03-11 22:13:05:752,0,5.97638,-3.11184,-53.6651
2023-03-11 22:13:05:762,0,5.94991,-3.11637,-53.6593
2023-03-11 22:13:05:772,0,5.92289,-3.1171,-53.6571
2023-03-11 22:13:05:782,0,5.89635,-3.12057,-53.652
2023-03-11 22:13:05:792,0,5.87923,-3.12233,-53.6499
2023-03-11 22:13:05:802,0,5.86679,-3.12335,-53.6501
2023-03-11 22:13:05:812,0,5.86056,-3.11649,-53.6514
2023-03-11 22:13:05:822,0,5.85683,-3.10743,-53.6479
2023-03-11 22:13:05:832,0,5.85771,-3.09001,-53.6416
2023-03-11 22:13:05:842,0,5.85678,-3.07352,-53.6297
2023-03-11 22:13:05:852,0,5.8567,-3.0623,-53.6105
2023-03-11 22:13:05:862,0,5.85521,-3.04892,-53.585
2023-03-11 22:13:05:872,0,5.85645,-3.04025,-53.5593
2023-03-11 22:13:05:882,0,5.85768,-3.02984,-53.535
2023-03-11 22:13:05:892,0,5.86368,-3.01247,-53.5154
2023-03-11 22:13:05:902,0,5.87187,-2.99446,-53.4976
2023-03-11 22:13:05:912,0,5.87696,-2.97783,-53.4827
2023-03-11 22:13:05:922,0,5.87795,-2.96478,-53.464
2023-03-11 22:13:05:932,0,5.8815,-2.95622,-53.4465
2023-03-11 22:13:05:942,0,5.87826,-2.94973,-53.4258
2023-03-11 22:13:05:952,0,5.87246,-2.94119,-53.4005
2023-03-11 22:13:05:962,0,5.86403,-2.93561,-53.3788
2023-03-11 22:13:05:972,0,5.85722,-2.93207,-53.359
2023-03-11 22:13:05:982,0,5.85033,-2.933,-53.3315
2023-03-11 22:13:05:992,0,5.84428,-2.93426,-53.3048
2023-03-11 22:13:06:2,0,5.84038,-2.9413,-53.2761
2023-03-11 22:13:06:12,0,5.83315,-2.94959,-53.2536
2023-03-11 22:13:06:22,0,5.8223,-2.95805,-53.2292
2023-03-11 22:13:06:32,0,5.80553,-2.9683,-53.2036
2023-03-11 22:13:06:42,0,5.78759,-2.98289,-53.183
2023-03-11 22:13:06:52,0,5.7724,-2.9981,-53.1627
2023-03-11 22:13:06:62,0,5.75889,-3.01249,-53.1521
2023-03-11 22:13:06:72,0,5.75092,-3.02555,-53.1441
2023-03-11 22:13:06:82,0,5.74622,-3.03462,-53.1426
2023-03-11 22:13:06:92,0,5.74591,-3.04516,-53.1437
2023-03-11 22:13:06:102,0,5.74829,-3.05678,-53.1432
2023-03-11 22:13:06:112,0,5.7471,-3.07079,-53.1471
2023-03-11 22:13:06:122,0,5.74509,-3.08799,-53.1544
2023-03-11 22:13:06:132,0,5.74384,-3.10101,-53.1633
2023-03-11 22:13:06:142,0,5.74036,-3.11131,-53.1781
2023-03-11 22:13:06:152,0,5.74402,-3.115,-53.1948
2023-03-11 22:13:06:162,0,5.74598,-3.11436,-53.2107
2023-03-11 22:13:06:172,0,5.7488,-3.11275,-53.2261
2023-03-11 22:13:06:182,0,5.74789,-3.11554,-53.2399
2023-03-11 22:13:06:192,0,5.75224,-3.11817,-53.2533
2023-03-11 22:13:06:202,0,5.7546,-3.12461,-53.26
2023-03-11 22:13:06:212,0,5.76217,-3.13124,-53.2576
2023-03-11 22:13:06:222,0,5.7653,-3.1432,-53.2511
2023-03-11 22:13:06:232,0,5.77041,-3.15615,-53.2417
2023-03-11 22:13:06:242,0,5.77542,-3.17014,-53.2276
2023-03-11 22:13:06:252,0,5.7795,-3.18135,-53.2104
2023-03-11 22:13:06:262,0,5.77941,-3.19397,-53.1899
2023-03-11 22:13:06:272,0,5.78014,-3.20252,-53.1733
2023-03-11 22:13:06:282,0,5.77939,-3.21186,-53.1545
2023-03-11 22:13:06:292,0,5.78376,-3.22308,-53.1449
2023-03-11 22:13:06:302,0,5.79235,-3.23571,-53.1423
2023-03-11 22:13:06:312,0,5.80009,-3.24591,-53.1428
2023-03-11 22:13:06:322,0,5.81242,-3.25332,-53.147
2023-03-11 22:13:06:332,0,5.82593,-3.26208,-53.1565
2023-03-11 22:13:06:342,0,5.83533,-3.27327,-53.1649
2023-03-11 22:13:06:351,0,5.83975,-3.28111,-53.178
2023-03-11 22:13:06:362,0,5.83416,-3.28621,-53.1981
2023-03-11 22:13:06:372,0,5.8253,-3.2869,-53.2176
2023-03-11 22:13:06:381,0,5.81418,-3.28584,-53.2407
2023-03-11 22:13:06:392,0,5.80214,-3.27675,-53.2643
2023-03-11 22:13:06:401,0,5.78504,-3.26266,-53.2974
2023-03-11 22:13:06:411,0,5.76701,-3.24191,-53.3306
2023-03-11 22:13:06:421,0,5.75394,-3.22049,-53.3615
2023-03-11 22:13:06:431,0,5.74051,-3.21024,-53.3862
2023-03-11 22:13:06:442,0,5.72618,-3.20021,-53.4135
2023-03-11 22:13:06:451,0,5.71368,-3.1892,-53.4413
2023-03-11 22:13:06:462,0,5.69989,-3.17587,-53.4697
2023-03-11 22:13:06:472,0,5.69269,-3.16414,-53.4932
2023-03-11 22:13:06:482,0,5.68896,-3.15208,-53.5158
2023-03-11 22:13:06:492,0,5.69177,-3.14221,-53.5354
2023-03-11 22:13:06:502,0,5.69676,-3.13253,-53.5598
2023-03-11 22:13:06:512,0,5.70833,-3.12239,-53.5935
2023-03-11 22:13:06:522,0,5.72579,-3.11595,-53.6295
2023-03-11 22:13:06:532,0,5.73978,-3.10869,-53.6746
2023-03-11 22:13:06:542,0,5.75343,-3.09893,-53.7356
2023-03-11 22:13:06:552,0,5.75723,-3.08451,-53.7947
2023-03-11 22:13:06:562,0,5.75205,-3.07598,-53.8494
2023-03-11 22:13:06:572,0,5.73738,-3.07173,-53.8879
2023-03-11 22:13:06:582,0,5.71908,-3.07465,-53.9219
2023-03-11 22:13:06:592,0,5.69937,-3.08189,-53.9431
2023-03-11 22:13:06:602,0,5.6825,-3.10326,-53.9571
2023-03-11 22:13:06:611,0,5.671,-3.13519,-53.9742
2023-03-11 22:13:06:621,0,5.66812,-3.1668,-53.995
2023-03-11 22:13:06:631,0,5.66809,-3.19919,-54.0251
2023-03-11 22:13:06:641,0,5.66994,-3.22962,-54.0556
2023-03-11 22:13:06:651,0,5.66971,-3.24724,-54.084
2023-03-11 22:13:06:661,0,5.6647,-3.25844,-54.1035
2023-03-11 22:13:06:672,0,5.65915,-3.26907,-54.1062
2023-03-11 22:13:06:682,0,5.64887,-3.26519,-54.1002
2023-03-11 22:13:06:691,0,5.63303,-3.25612,-54.0838
2023-03-11 22:13:06:701,0,5.61901,-3.23971,-54.0591
2023-03-11 22:13:06:711,0,5.60623,-3.22392,-54.0305
2023-03-11 22:13:06:721,0,5.60145,-3.2116,-53.995
2023-03-11 22:13:06:731,0,5.60219,-3.20394,-53.9667
2023-03-11 22:13:06:741,0,5.6042,-3.19314,-53.9416
2023-03-11 22:13:06:751,0,5.61218,-3.18486,-53.922
2023-03-11 22:13:06:762,0,5.61416,-3.17559,-53.9076
2023-03-11 22:13:06:771,0,5.61313,-3.1652,-53.8973
2023-03-11 22:13:06:781,0,5.60919,-3.15716,-53.8864
2023-03-11 22:13:06:792,0,5.59519,-3.15242,-53.8805
2023-03-11 22:13:06:801,0,5.58066,-3.14747,-53.8753
2023-03-11 22:13:06:811,0,5.56815,-3.15001,-53.8693
2023-03-11 22:13:06:821,0,5.56165,-3.15616,-53.8622
2023-03-11 22:13:06:832,0,5.55953,-3.1675,-53.8577
2023-03-11 22:13:06:841,0,5.57049,-3.18099,-53.856
2023-03-11 22:13:06:851,0,5.58374,-3.19508,-53.8551
2023-03-11 22:13:06:861,0,5.59355,-3.20875,-53.8545
2023-03-11 22:13:06:871,0,5.59994,-3.21696,-53.8621
2023-03-11 22:13:06:882,0,5.60646,-3.2177,-53.8718
2023-03-11 22:13:06:891,0,5.6144,-3.21996,-53.8825
2023-03-11 22:13:06:901,0,5.61772,-3.22381,-53.8944
2023-03-11 22:13:06:911,0,5.61731,-3.23353,-53.9133
2023-03-11 22:13:06:921,0,5.61924,-3.24878,-53.9304
2023-03-11 22:13:06:931,0,5.61822,-3.26605,-53.952
2023-03-11 22:13:06:941,0,5.61752,-3.27938,-53.9725
2023-03-11 22:13:06:951,0,5.61171,-3.28799,-53.9923
2023-03-11 22:13:06:961,0,5.60369,-3.29569,-54.0041
2023-03-11 22:13:06:972,0,5.59287,-3.30755,-54.0067
2023-03-11 22:13:06:982,0,5.58106,-3.31814,-54.0017
2023-03-11 22:13:06:991,0,5.57079,-3.33655,-53.9926
2023-03-11 22:13:07:1,0,5.56155,-3.3583,-53.9769
2023-03-11 22:13:07:11,0,5.55024,-3.38393,-53.9655
2023-03-11 22:13:07:21,0,5.53865,-3.41406,-53.9547
2023-03-11 22:13:07:32,0,5.52711,-3.44124,-53.9519
2023-03-11 22:13:07:42,0,5.51817,-3.46215,-53.9584
2023-03-11 22:13:07:52,0,5.50925,-3.47796,-53.9734
2023-03-11 22:13:07:62,0,5.50409,-3.4949,-53.993
2023-03-11 22:13:07:72,0,5.50054,-3.51215,-54.0144
2023-03-11 22:13:07:82,0,5.49469,-3.52455,-54.0398
2023-03-11 22:13:07:92,0,5.48735,-3.53659,-54.0713
2023-03-11 22:13:07:102,0,5.4802,-3.53892,-54.1033
2023-03-11 22:13:07:112,0,5.47005,-3.53716,-54.1295
2023-03-11 22:13:07:122,0,5.46481,-3.53383,-54.1528
2023-03-11 22:13:07:132,0,5.46074,-3.52145,-54.1766
2023-03-11 22:13:07:142,0,5.45775,-3.50097,-54.2038
2023-03-11 22:13:07:152,0,5.45774,-3.47489,-54.231
2023-03-11 22:13:07:162,0,5.45915,-3.44386,-54.2559
2023-03-11 22:13:07:172,0,5.45399,-3.40849,-54.2865
2023-03-11 22:13:07:182,0,5.44421,-3.37026,-54.313
2023-03-11 22:13:07:192,0,5.42918,-3.34051,-54.3359
2023-03-11 22:13:07:202,0,5.41395,-3.31047,-54.3612
2023-03-11 22:13:07:212,0,5.39432,-3.27891,-54.3825
2023-03-11 22:13:07:222,0,5.37239,-3.24866,-54.4045
2023-03-11 22:13:07:232,0,5.35661,-3.21728,-54.4263
2023-03-11 22:13:07:242,0,5.34339,-3.18843,-54.4524
2023-03-11 22:13:07:252,0,5.3309,-3.14925,-54.4781
2023-03-11 22:13:07:262,0,5.32188,-3.10914,-54.5045
2023-03-11 22:13:07:272,0,5.31554,-3.06808,-54.5333
2023-03-11 22:13:07:282,0,5.30749,-3.02489,-54.5599
2023-03-11 22:13:07:292,0,5.29677,-2.98366,-54.5873
2023-03-11 22:13:07:302,0,5.28227,-2.94588,-54.6105
2023-03-11 22:13:07:312,0,5.2653,-2.91139,-54.6312
2023-03-11 22:13:07:322,0,5.24272,-2.87901,-54.6514
2023-03-11 22:13:07:332,0,5.22177,-2.84982,-54.6768
2023-03-11 22:13:07:342,0,5.19872,-2.82195,-54.7009
2023-03-11 22:13:07:352,0,5.18107,-2.80042,-54.7242
2023-03-11 22:13:07:362,0,5.16801,-2.7845,-54.7426
2023-03-11 22:13:07:372,0,5.15563,-2.7744,-54.7652
2023-03-11 22:13:07:382,0,5.14735,-2.76519,-54.7909
2023-03-11 22:13:07:392,0,5.14375,-2.75095,-54.8183
2023-03-11 22:13:07:402,0,5.13886,-2.733,-54.8451
2023-03-11 22:13:07:412,0,5.13066,-2.71144,-54.8735
2023-03-11 22:13:07:422,0,5.12099,-2.68469,-54.8942
2023-03-11 22:13:07:432,0,5.10551,-2.6623,-54.9044
2023-03-11 22:13:07:442,0,5.09633,-2.64818,-54.901
2023-03-11 22:13:07:452,0,5.09146,-2.63706,-54.8948
2023-03-11 22:13:07:462,0,5.09085,-2.62891,-54.8876
2023-03-11 22:13:07:472,0,5.099,-2.62916,-54.8832
2023-03-11 22:13:07:482,0,5.10703,-2.62495,-54.8819
2023-03-11 22:13:07:492,0,5.11819,-2.61274,-54.8886
2023-03-11 22:13:07:502,0,5.12276,-2.59835,-54.8976
2023-03-11 22:13:07:512,0,5.12203,-2.57704,-54.9051
2023-03-11 22:13:07:522,0,5.10711,-2.56126,-54.9054
2023-03-11 22:13:07:532,0,5.08725,-2.55397,-54.8975
2023-03-11 22:13:07:542,0,5.07054,-2.55783,-54.8909
2023-03-11 22:13:07:552,0,5.05783,-2.57004,-54.8842
2023-03-11 22:13:07:562,0,5.06515,-2.58633,-54.894
2023-03-11 22:13:07:572,0,5.09202,-2.60437,-54.9151
2023-03-11 22:13:07:582,0,5.12753,-2.61922,-54.9505
2023-03-11 22:13:07:592,0,5.16745,-2.62594,-55.0027
2023-03-11 22:13:07:602,0,5.20205,-2.63025,-55.0618
2023-03-11 22:13:07:612,0,5.21777,-2.63348,-55.1182
2023-03-11 22:13:07:622,0,5.21405,-2.6385,-55.1672
2023-03-11 22:13:07:632,0,5.19817,-2.65583,-55.2048
2023-03-11 22:13:07:642,0,5.17837,-2.68316,-55.2284
2023-03-11 22:13:07:652,0,5.16585,-2.72531,-55.2447
2023-03-11 22:13:07:662,0,5.16194,-2.77108,-55.2639
2023-03-11 22:13:07:672,0,5.17135,-2.81789,-55.2825
2023-03-11 22:13:07:682,0,5.17935,-2.85507,-55.2953
2023-03-11 22:13:07:692,0,5.18356,-2.88105,-55.3028
2023-03-11 22:13:07:702,0,5.17353,-2.90416,-55.3
2023-03-11 22:13:07:712,0,5.1395,-2.93639,-55.2639
2023-03-11 22:13:07:722,0,5.08676,-2.98548,-55.1949
2023-03-11 22:13:07:732,0,5.01575,-3.04462,-55.109
2023-03-11 22:13:07:742,0,4.9396,-3.09723,-55.0275
2023-03-11 22:13:07:752,0,4.87144,-3.14331,-54.9402
2023-03-11 22:13:07:762,0,4.8185,-3.187,-54.8403
2023-03-11 22:13:07:772,0,4.7775,-3.2206,-54.7399
2023-03-11 22:13:07:782,0,4.74936,-3.24329,-54.6549
2023-03-11 22:13:07:792,0,4.72902,-3.24572,-54.5856
2023-03-11 22:13:07:802,0,4.71615,-3.22268,-54.532
2023-03-11 22:13:07:812,0,4.70753,-3.18316,-54.4924
2023-03-11 22:13:07:822,0,4.69912,-3.12874,-54.4626
2023-03-11 22:13:07:832,0,4.69233,-3.06873,-54.4457
2023-03-11 22:13:07:842,0,4.69674,-3.00884,-54.4409
2023-03-11 22:13:07:852,0,4.71075,-2.95379,-54.4482
2023-03-11 22:13:07:862,0,4.74276,-2.90735,-54.4698
2023-03-11 22:13:07:872,0,4.79461,-2.86922,-54.5202
2023-03-11 22:13:07:882,0,4.85566,-2.82152,-54.6074
2023-03-11 22:13:07:892,0,4.91431,-2.76267,-54.7273
2023-03-11 22:13:07:902,0,4.96142,-2.69879,-54.8639
2023-03-11 22:13:07:912,0,4.981,-2.63997,-54.9925
2023-03-11 22:13:07:922,0,4.96698,-2.6029,-55.0969
2023-03-11 22:13:07:932,0,4.93364,-2.58742,-55.1922
2023-03-11 22:13:07:942,0,4.8864,-2.58522,-55.2931
2023-03-11 22:13:07:952,0,4.83632,-2.57958,-55.4045
2023-03-11 22:13:07:962,0,4.79596,-2.57085,-55.5049
2023-03-11 22:13:07:972,0,4.77239,-2.54685,-55.5968
2023-03-11 22:13:07:982,0,4.76441,-2.50896,-55.6765
2023-03-11 22:13:07:992,0,4.77047,-2.46205,-55.7431
2023-03-11 22:13:08:2,0,4.78162,-2.40454,-55.7988
2023-03-11 22:13:08:12,0,4.78751,-2.33448,-55.8465
2023-03-11 22:13:08:22,0,4.78273,-2.26634,-55.8615
2023-03-11 22:13:08:32,0,4.76949,-2.20782,-55.858
2023-03-11 22:13:08:42,0,4.74875,-2.15563,-55.8493
2023-03-11 22:13:08:52,0,4.72612,-2.10119,-55.8341
2023-03-11 22:13:08:62,0,4.70073,-2.04761,-55.8202
2023-03-11 22:13:08:72,0,4.67378,-1.99998,-55.7995
2023-03-11 22:13:08:82,0,4.63829,-1.96975,-55.7764
2023-03-11 22:13:08:92,0,4.59656,-1.94934,-55.7585
2023-03-11 22:13:08:102,0,4.55098,-1.94022,-55.7408
2023-03-11 22:13:08:112,0,4.50277,-1.94269,-55.7213
2023-03-11 22:13:08:122,0,4.45934,-1.95515,-55.7055
2023-03-11 22:13:08:132,0,4.42218,-1.97807,-55.6951
2023-03-11 22:13:08:142,0,4.38578,-2.00837,-55.6917
2023-03-11 22:13:08:152,0,4.35134,-2.04431,-55.6882
2023-03-11 22:13:08:162,0,4.31405,-2.09225,-55.6793
2023-03-11 22:13:08:172,0,4.27947,-2.14604,-55.6698
2023-03-11 22:13:08:182,0,4.25245,-2.20831,-55.6595
2023-03-11 22:13:08:192,0,4.23037,-2.27319,-55.6489
2023-03-11 22:13:08:202,0,4.21954,-2.33723,-55.641
2023-03-11 22:13:08:212,0,4.21119,-2.39594,-55.6339
2023-03-11 22:13:08:222,0,4.20583,-2.45767,-55.6206
2023-03-11 22:13:08:232,0,4.19899,-2.52125,-55.5972
2023-03-11 22:13:08:242,0,4.1968,-2.58892,-55.5689
2023-03-11 22:13:08:252,0,4.20013,-2.66158,-55.5332
2023-03-11 22:13:08:262,0,4.20713,-2.73461,-55.4897
2023-03-11 22:13:08:272,0,4.21236,-2.81514,-55.434
2023-03-11 22:13:08:282,0,4.21182,-2.90085,-55.3722
2023-03-11 22:13:08:292,0,4.20243,-2.9861,-55.3115
2023-03-11 22:13:08:302,0,4.18237,-3.05776,-55.2459
2023-03-11 22:13:08:312,0,4.15737,-3.12604,-55.1779
2023-03-11 22:13:08:322,0,4.13147,-3.18967,-55.1044
2023-03-11 22:13:08:332,0,4.10212,-3.24575,-55.0267
2023-03-11 22:13:08:342,0,4.07568,-3.29513,-54.95
2023-03-11 22:13:08:352,0,4.05542,-3.34304,-54.8679
2023-03-11 22:13:08:362,0,4.046,-3.38228,-54.7823
2023-03-11 22:13:08:372,0,4.04823,-3.41695,-54.6984
2023-03-11 22:13:08:382,0,4.0564,-3.45154,-54.6162
2023-03-11 22:13:08:392,0,4.07279,-3.48361,-54.5371
2023-03-11 22:13:08:402,0,4.09346,-3.51429,-54.461
2023-03-11 22:13:08:412,0,4.11511,-3.53934,-54.3922
2023-03-11 22:13:08:422,0,4.14155,-3.56375,-54.3289
2023-03-11 22:13:08:432,0,4.16442,-3.58369,-54.2747
2023-03-11 22:13:08:442,0,4.18718,-3.59957,-54.2189
2023-03-11 22:13:08:452,0,4.20532,-3.6191,-54.1675
2023-03-11 22:13:08:462,0,4.2199,-3.62433,-54.1323
2023-03-11 22:13:08:472,0,4.22973,-3.62004,-54.1084
2023-03-11 22:13:08:482,0,4.23556,-3.61209,-54.0877
2023-03-11 22:13:08:492,0,4.23719,-3.60066,-54.0641
2023-03-11 22:13:08:502,0,4.23376,-3.57906,-54.051
2023-03-11 22:13:08:512,0,4.22843,-3.55559,-54.0316
2023-03-11 22:13:08:522,0,4.22235,-3.5251,-54.0182
2023-03-11 22:13:08:532,0,4.21895,-3.4958,-53.9962
2023-03-11 22:13:08:542,0,4.21599,-3.46886,-53.9648
2023-03-11 22:13:08:552,0,4.22262,-3.44387,-53.9239
2023-03-11 22:13:08:562,0,4.23568,-3.42224,-53.8694
2023-03-11 22:13:08:572,0,4.25475,-3.40089,-53.8079
2023-03-11 22:13:08:582,0,4.27723,-3.38492,-53.7398
2023-03-11 22:13:08:592,0,4.29746,-3.37009,-53.6646
2023-03-11 22:13:08:602,0,4.31473,-3.34817,-53.5863
2023-03-11 22:13:08:612,0,4.33335,-3.31897,-53.5091
2023-03-11 22:13:08:622,0,4.34998,-3.2825,-53.4321
2023-03-11 22:13:08:632,0,4.36327,-3.24116,-53.3534
2023-03-11 22:13:08:642,0,4.37769,-3.20088,-53.2726
2023-03-11 22:13:08:652,0,4.38525,-3.16221,-53.1919
2023-03-11 22:13:08:662,0,4.39341,-3.1216,-53.1157
2023-03-11 22:13:08:672,0,4.40796,-3.07504,-53.0491
2023-03-11 22:13:08:682,0,4.41762,-3.02836,-52.9942
2023-03-11 22:13:08:692,0,4.4236,-2.9758,-52.9569
2023-03-11 22:13:08:702,0,4.42365,-2.91835,-52.9402
2023-03-11 22:13:08:712,0,4.41813,-2.85638,-52.9422
2023-03-11 22:13:08:722,0,4.40005,-2.79077,-52.9593
2023-03-11 22:13:08:732,0,4.37341,-2.73143,-52.989
2023-03-11 22:13:08:742,0,4.34918,-2.68617,-53.0217
2023-03-11 22:13:08:752,0,4.33142,-2.6583,-53.0596
2023-03-11 22:13:08:762,0,4.32448,-2.64973,-53.0935
2023-03-11 22:13:08:772,0,4.32662,-2.65655,-53.1121
2023-03-11 22:13:08:782,0,4.33736,-2.67683,-53.123
2023-03-11 22:13:08:792,0,4.35915,-2.70869,-53.1174
2023-03-11 22:13:08:802,0,4.38173,-2.75033,-53.0972
2023-03-11 22:13:08:812,0,4.40442,-2.79214,-53.0718
2023-03-11 22:13:08:822,0,4.42757,-2.83158,-53.0384
2023-03-11 22:13:08:832,0,4.44038,-2.87066,-53.0013
2023-03-11 22:13:08:842,0,4.4502,-2.89923,-52.9648
2023-03-11 22:13:08:852,0,4.45165,-2.92113,-52.9364
2023-03-11 22:13:08:862,0,4.4452,-2.93693,-52.9075
2023-03-11 22:13:08:872,0,4.43448,-2.94322,-52.8908
2023-03-11 22:13:08:882,0,4.41495,-2.94397,-52.8813
2023-03-11 22:13:08:892,0,4.39347,-2.93621,-52.8751
2023-03-11 22:13:08:902,0,4.36867,-2.92776,-52.8796
2023-03-11 22:13:08:912,0,4.34171,-2.91506,-52.8883
2023-03-11 22:13:08:922,0,4.31298,-2.89221,-52.9092
2023-03-11 22:13:08:932,0,4.29018,-2.86475,-52.9277
2023-03-11 22:13:08:942,0,4.27093,-2.83985,-52.9423
2023-03-11 22:13:08:952,0,4.2512,-2.81675,-52.9574
2023-03-11 22:13:08:962,0,4.22911,-2.79732,-52.9644
2023-03-11 22:13:08:971,0,4.20858,-2.7776,-52.9747
2023-03-11 22:13:08:982,0,4.18711,-2.75075,-52.9902
2023-03-11 22:13:08:992,0,4.16483,-2.72407,-53.0028
2023-03-11 22:13:09:2,0,4.14643,-2.69311,-53.0157
2023-03-11 22:13:09:12,0,4.13059,-2.66118,-53.0199
2023-03-11 22:13:09:22,0,4.11735,-2.62447,-53.0147
2023-03-11 22:13:09:32,0,4.11008,-2.58317,-53.009
2023-03-11 22:13:09:42,0,4.11414,-2.53396,-53.0016
2023-03-11 22:13:09:52,0,4.12774,-2.4871,-52.9845
2023-03-11 22:13:09:62,0,4.14791,-2.4512,-52.9537
2023-03-11 22:13:09:72,0,4.17293,-2.43593,-52.9106
2023-03-11 22:13:09:82,0,4.20686,-2.4369,-52.8609
2023-03-11 22:13:09:92,0,4.23952,-2.45627,-52.8059
2023-03-11 22:13:09:102,0,4.2686,-2.48951,-52.7437
2023-03-11 22:13:09:112,0,4.29645,-2.53607,-52.6779
2023-03-11 22:13:09:122,0,4.31547,-2.59306,-52.6148
2023-03-11 22:13:09:132,0,4.31356,-2.65322,-52.5556
2023-03-11 22:13:09:142,0,4.30257,-2.71154,-52.5054
2023-03-11 22:13:09:152,0,4.27381,-2.77488,-52.4584
2023-03-11 22:13:09:162,0,4.23346,-2.83963,-52.4128
2023-03-11 22:13:09:172,0,4.18998,-2.90788,-52.3718
2023-03-11 22:13:09:182,0,4.14087,-2.97419,-52.335
2023-03-11 22:13:09:192,0,4.0858,-3.03025,-52.3027
2023-03-11 22:13:09:202,0,4.02265,-3.07008,-52.2678
2023-03-11 22:13:09:212,0,3.94755,-3.08988,-52.2387
2023-03-11 22:13:09:222,0,3.86419,-3.0856,-52.2221
2023-03-11 22:13:09:232,0,3.78152,-3.06461,-52.215
2023-03-11 22:13:09:242,0,3.70733,-3.02988,-52.2017
2023-03-11 22:13:09:252,0,3.65292,-3.00045,-52.1839
2023-03-11 22:13:09:262,0,3.61817,-2.97903,-52.1732
2023-03-11 22:13:09:272,0,3.59953,-2.96106,-52.1757
2023-03-11 22:13:09:282,0,3.58733,-2.94205,-52.1895
2023-03-11 22:13:09:292,0,3.58129,-2.92073,-52.2197
2023-03-11 22:13:09:302,0,3.57931,-2.89251,-52.2663
2023-03-11 22:13:09:312,0,3.58192,-2.86582,-52.328
2023-03-11 22:13:09:322,0,3.59039,-2.8385,-52.398
2023-03-11 22:13:09:332,0,3.60497,-2.81721,-52.4721
2023-03-11 22:13:09:342,0,3.62313,-2.80833,-52.538
2023-03-11 22:13:09:352,0,3.64302,-2.8093,-52.5897
2023-03-11 22:13:09:362,0,3.65668,-2.82181,-52.6205
2023-03-11 22:13:09:372,0,3.66193,-2.84142,-52.6334
2023-03-11 22:13:09:382,0,3.65683,-2.85376,-52.6357
2023-03-11 22:13:09:392,0,3.64821,-2.8612,-52.6262
2023-03-11 22:13:09:402,0,3.63686,-2.86448,-52.5964
2023-03-11 22:13:09:412,0,3.62279,-2.86394,-52.5517
2023-03-11 22:13:09:422,0,3.60834,-2.85836,-52.4948
2023-03-11 22:13:09:432,0,3.60153,-2.85529,-52.4258
2023-03-11 22:13:09:442,0,3.59712,-2.85573,-52.342
2023-03-11 22:13:09:452,0,3.59065,-2.86881,-52.2472
2023-03-11 22:13:09:462,0,3.5863,-2.89009,-52.16
2023-03-11 22:13:09:472,0,3.58128,-2.91332,-52.0799
2023-03-11 22:13:09:482,0,3.57866,-2.93387,-52.0091
2023-03-11 22:13:09:492,0,3.57822,-2.94556,-51.9542
2023-03-11 22:13:09:502,0,3.58716,-2.94082,-51.9147
2023-03-11 22:13:09:512,0,3.59703,-2.92664,-51.8826
2023-03-11 22:13:09:522,0,3.62025,-2.90809,-51.857
2023-03-11 22:13:09:532,0,3.6497,-2.88443,-51.8346
2023-03-11 22:13:09:542,0,3.68551,-2.86684,-51.8155
2023-03-11 22:13:09:552,0,3.71929,-2.85704,-51.7982
2023-03-11 22:13:09:562,0,3.74666,-2.85578,-51.7845
2023-03-11 22:13:09:572,0,3.75864,-2.8562,-51.7739
2023-03-11 22:13:09:582,0,3.76092,-2.85209,-51.7692
2023-03-11 22:13:09:592,0,3.75308,-2.84275,-51.7606
2023-03-11 22:13:09:602,0,3.74882,-2.83367,-51.7478
2023-03-11 22:13:09:612,0,3.74443,-2.83393,-51.7095
2023-03-11 22:13:09:622,0,3.7324,-2.85011,-51.6379
2023-03-11 22:13:09:632,0,3.70787,-2.87635,-51.5476
2023-03-11 22:13:09:642,0,3.67864,-2.89707,-51.4571
2023-03-11 22:13:09:652,0,3.6447,-2.90707,-51.3744
2023-03-11 22:13:09:662,0,3.6143,-2.90079,-51.3018
2023-03-11 22:13:09:672,0,3.59714,-2.87721,-51.2457
2023-03-11 22:13:09:681,0,3.59347,-2.83957,-51.1968
2023-03-11 22:13:09:692,0,3.60885,-2.80236,-51.1483
2023-03-11 22:13:09:702,0,3.64019,-2.76622,-51.0995
2023-03-11 22:13:09:712,0,3.68108,-2.73261,-51.0679
2023-03-11 22:13:09:722,0,3.72236,-2.69467,-51.0438
2023-03-11 22:13:09:732,0,3.76386,-2.65621,-51.0245
2023-03-11 22:13:09:742,0,3.79446,-2.61376,-51.0158
2023-03-11 22:13:09:752,0,3.81639,-2.57314,-51.0133
2023-03-11 22:13:09:762,0,3.82645,-2.53935,-51.011
2023-03-11 22:13:09:772,0,3.83392,-2.51659,-51.0107
2023-03-11 22:13:09:782,0,3.8389,-2.50444,-51.0096
2023-03-11 22:13:09:792,0,3.84355,-2.49992,-51.0083
2023-03-11 22:13:09:802,0,3.84658,-2.50774,-51.0134
2023-03-11 22:13:09:812,0,3.85664,-2.52255,-51.0239
2023-03-11 22:13:09:822,0,3.86555,-2.53627,-51.0315
2023-03-11 22:13:09:832,0,3.88109,-2.55923,-51.0348
2023-03-11 22:13:09:842,0,3.89943,-2.59115,-51.0326
2023-03-11 22:13:09:852,0,3.91237,-2.62518,-51.0251
2023-03-11 22:13:09:862,0,3.91727,-2.65983,-51.009
2023-03-11 22:13:09:872,0,3.91872,-2.70086,-50.985
2023-03-11 22:13:09:882,0,3.91963,-2.7495,-50.9449
2023-03-11 22:13:09:892,0,3.91815,-2.80196,-50.8976
2023-03-11 22:13:09:902,0,3.91726,-2.86305,-50.8387
2023-03-11 22:13:09:912,0,3.91721,-2.93013,-50.7719
2023-03-11 22:13:09:922,0,3.9193,-2.99632,-50.7027
2023-03-11 22:13:09:932,0,3.92973,-3.05718,-50.6376
2023-03-11 22:13:09:942,0,3.95083,-3.11428,-50.5851
2023-03-11 22:13:09:952,0,3.99462,-3.16062,-50.5588
2023-03-11 22:13:09:962,0,4.05773,-3.19352,-50.5463
2023-03-11 22:13:09:972,0,4.14812,-3.21984,-50.5477
2023-03-11 22:13:09:982,0,4.25216,-3.23071,-50.5599
2023-03-11 22:13:09:992,0,4.36045,-3.22505,-50.5687
2023-03-11 22:13:10:2,0,4.46494,-3.21153,-50.5715
2023-03-11 22:13:10:12,0,4.55525,-3.20042,-50.5671
2023-03-11 22:13:10:22,0,4.62658,-3.19755,-50.5545
2023-03-11 22:13:10:32,0,4.6787,-3.20896,-50.5481
2023-03-11 22:13:10:42,0,4.71886,-3.22037,-50.5531
2023-03-11 22:13:10:52,0,4.7472,-3.23196,-50.575
2023-03-11 22:13:10:62,0,4.77685,-3.23338,-50.6232
2023-03-11 22:13:10:72,0,4.80278,-3.22559,-50.692
2023-03-11 22:13:10:82,0,4.82407,-3.21298,-50.7592
2023-03-11 22:13:10:92,0,4.8476,-3.20451,-50.8118
2023-03-11 22:13:10:102,0,4.87351,-3.21172,-50.8445
2023-03-11 22:13:10:112,0,4.89671,-3.23086,-50.8611
2023-03-11 22:13:10:122,0,4.91172,-3.25662,-50.867
2023-03-11 22:13:10:132,0,4.91868,-3.28307,-50.8715
2023-03-11 22:13:10:142,0,4.92465,-3.29756,-50.8885
2023-03-11 22:13:10:152,0,4.93042,-3.29576,-50.9038
2023-03-11 22:13:10:162,0,4.93871,-3.2918,-50.9061
2023-03-11 22:13:10:172,0,4.94919,-3.29203,-50.9055
2023-03-11 22:13:10:182,0,4.95575,-3.28936,-50.9032
2023-03-11 22:13:10:192,0,4.95665,-3.29146,-50.8983
2023-03-11 22:13:10:202,0,4.96062,-3.29561,-50.899
2023-03-11 22:13:10:212,0,4.97177,-3.30315,-50.9023
2023-03-11 22:13:10:222,0,4.99583,-3.31514,-50.9121
2023-03-11 22:13:10:232,0,5.03031,-3.3272,-50.9267
2023-03-11 22:13:10:242,0,5.06216,-3.33649,-50.9308
2023-03-11 22:13:10:252,0,5.07362,-3.35332,-50.9104
2023-03-11 22:13:10:262,0,5.06719,-3.38008,-50.8697
2023-03-11 22:13:10:272,0,5.0471,-3.40532,-50.8302
2023-03-11 22:13:10:282,0,5.03344,-3.42162,-50.7881
2023-03-11 22:13:10:292,0,5.01669,-3.43373,-50.7288
2023-03-11 22:13:10:302,0,4.99498,-3.4505,-50.6504
2023-03-11 22:13:10:312,0,4.97639,-3.47803,-50.5646
2023-03-11 22:13:10:321,0,4.95099,-3.51472,-50.4773
2023-03-11 22:13:10:331,0,4.92242,-3.55426,-50.3922
2023-03-11 22:13:10:342,0,4.89025,-3.59586,-50.3099
2023-03-11 22:13:10:351,0,4.86136,-3.63514,-50.2379
2023-03-11 22:13:10:361,0,4.83924,-3.67537,-50.176
2023-03-11 22:13:10:372,0,4.82523,-3.7106,-50.1205
2023-03-11 22:13:10:382,0,4.82508,-3.73608,-50.0811
2023-03-11 22:13:10:392,0,4.84106,-3.74358,-50.0652
2023-03-11 22:13:10:402,0,4.86888,-3.72994,-50.063
2023-03-11 22:13:10:412,0,4.90033,-3.70002,-50.0665
2023-03-11 22:13:10:422,0,4.9285,-3.66741,-50.0613
2023-03-11 22:13:10:432,0,4.94659,-3.64322,-50.043
2023-03-11 22:13:10:442,0,4.96279,-3.62733,-50.0134
2023-03-11 22:13:10:452,0,4.97135,-3.62271,-49.983
2023-03-11 22:13:10:462,0,4.97249,-3.62612,-49.9605
2023-03-11 22:13:10:472,0,4.96652,-3.63749,-49.9423
2023-03-11 22:13:10:482,0,4.95866,-3.65152,-49.9334
2023-03-11 22:13:10:492,0,4.95216,-3.67005,-49.9336
2023-03-11 22:13:10:502,0,4.95487,-3.69019,-49.9459
2023-03-11 22:13:10:512,0,4.96777,-3.69676,-49.9899
2023-03-11 22:13:10:522,0,4.99401,-3.68754,-50.0624
2023-03-11 22:13:10:532,0,5.0303,-3.66593,-50.1455
2023-03-11 22:13:10:542,0,5.07164,-3.64372,-50.2271
2023-03-11 22:13:10:552,0,5.10219,-3.62963,-50.3131
2023-03-11 22:13:10:562,0,5.12696,-3.61319,-50.3975
2023-03-11 22:13:10:572,0,5.14184,-3.59705,-50.4806
2023-03-11 22:13:10:582,0,5.15937,-3.57858,-50.565
2023-03-11 22:13:10:592,0,5.17966,-3.55417,-50.6549
2023-03-11 22:13:10:602,0,5.20901,-3.51683,-50.7508
2023-03-11 22:13:10:612,0,5.25309,-3.47267,-50.8467
2023-03-11 22:13:10:622,0,5.30337,-3.42976,-50.9376
2023-03-11 22:13:10:632,0,5.35929,-3.39174,-51.0221
2023-03-11 22:13:10:642,0,5.41164,-3.36194,-51.1039
2023-03-11 22:13:10:652,0,5.45309,-3.33475,-51.1748
2023-03-11 22:13:10:662,0,5.48031,-3.31403,-51.2348
2023-03-11 22:13:10:672,0,5.49469,-3.30449,-51.2841
2023-03-11 22:13:10:682,0,5.49381,-3.29466,-51.3267
2023-03-11 22:13:10:692,0,5.47948,-3.28298,-51.3626
2023-03-11 22:13:10:702,0,5.46075,-3.26774,-51.3905
2023-03-11 22:13:10:712,0,5.44169,-3.25318,-51.4121
2023-03-11 22:13:10:722,0,5.4354,-3.2409,-51.4331
2023-03-11 22:13:10:732,0,5.43884,-3.23258,-51.4553
2023-03-11 22:13:10:742,0,5.45749,-3.22439,-51.4721
2023-03-11 22:13:10:752,0,5.47962,-3.21602,-51.4835
2023-03-11 22:13:10:762,0,5.49257,-3.20901,-51.4813
2023-03-11 22:13:10:772,0,5.4929,-3.20999,-51.4711
2023-03-11 22:13:10:782,0,5.48041,-3.21206,-51.4613
2023-03-11 22:13:10:792,0,5.46217,-3.21462,-51.4506
2023-03-11 22:13:10:802,0,5.4446,-3.20929,-51.4389
2023-03-11 22:13:10:812,0,5.43425,-3.19941,-51.4345
2023-03-11 22:13:10:822,0,5.43479,-3.17977,-51.4464
2023-03-11 22:13:10:832,0,5.44373,-3.15031,-51.4696
2023-03-11 22:13:10:842,0,5.45618,-3.11341,-51.4972
2023-03-11 22:13:10:852,0,5.46832,-3.07843,-51.5275
2023-03-11 22:13:10:862,0,5.47478,-3.05136,-51.5512
2023-03-11 22:13:10:872,0,5.4772,-3.03378,-51.5688
2023-03-11 22:13:10:882,0,5.47397,-3.02744,-51.584
2023-03-11 22:13:10:892,0,5.47201,-3.02982,-51.5892
2023-03-11 22:13:10:902,0,5.47179,-3.04045,-51.5893
2023-03-11 22:13:10:912,0,5.47347,-3.05035,-51.5905
2023-03-11 22:13:10:922,0,5.48235,-3.0559,-51.5987
2023-03-11 22:13:10:932,0,5.48815,-3.05649,-51.5993
2023-03-11 22:13:10:942,0,5.4968,-3.04597,-51.6036
2023-03-11 22:13:10:952,0,5.50704,-3.02627,-51.6098
2023-03-11 22:13:10:962,0,5.5193,-3.0009,-51.6135
2023-03-11 22:13:10:972,0,5.53239,-2.97016,-51.6162
2023-03-11 22:13:10:982,0,5.54005,-2.93782,-51.6159
2023-03-11 22:13:10:992,0,5.54713,-2.89892,-51.6162
2023-03-11 22:13:11:2,0,5.55525,-2.858,-51.6159
2023-03-11 22:13:11:12,0,5.56309,-2.82025,-51.6118
2023-03-11 22:13:11:22,0,5.5741,-2.78567,-51.6124
2023-03-11 22:13:11:31,0,5.58514,-2.7574,-51.6086
2023-03-11 22:13:11:42,0,5.59513,-2.73981,-51.5947
2023-03-11 22:13:11:51,0,5.60595,-2.73419,-51.5762
2023-03-11 22:13:11:62,0,5.61946,-2.74356,-51.5576
2023-03-11 22:13:11:72,0,5.62747,-2.75505,-51.5431
2023-03-11 22:13:11:82,0,5.63585,-2.76765,-51.5387
2023-03-11 22:13:11:92,0,5.64354,-2.7819,-51.5316
2023-03-11 22:13:11:102,0,5.64479,-2.80023,-51.5267
2023-03-11 22:13:11:112,0,5.65218,-2.8191,-51.5268
2023-03-11 22:13:11:122,0,5.66395,-2.84141,-51.5302
2023-03-11 22:13:11:132,0,5.67729,-2.85978,-51.5337
2023-03-11 22:13:11:142,0,5.68907,-2.8817,-51.5407
2023-03-11 22:13:11:152,0,5.71168,-2.90721,-51.5458
2023-03-11 22:13:11:162,0,5.73251,-2.93942,-51.5529
2023-03-11 22:13:11:172,0,5.75756,-2.97229,-51.558
2023-03-11 22:13:11:182,0,5.78043,-3.01005,-51.5702
2023-03-11 22:13:11:192,0,5.79973,-3.04451,-51.5851
2023-03-11 22:13:11:202,0,5.82275,-3.07997,-51.6031
2023-03-11 22:13:11:212,0,5.84854,-3.11142,-51.6245
2023-03-11 22:13:11:222,0,5.87172,-3.13908,-51.6461
2023-03-11 22:13:11:232,0,5.90021,-3.16277,-51.6765
2023-03-11 22:13:11:242,0,5.92861,-3.17842,-51.7127
2023-03-11 22:13:11:252,0,5.96043,-3.18725,-51.7501
2023-03-11 22:13:11:262,0,5.99496,-3.20381,-51.7828
2023-03-11 22:13:11:272,0,6.03085,-3.22596,-51.813
2023-03-11 22:13:11:282,0,6.06922,-3.25072,-51.8487
2023-03-11 22:13:11:292,0,6.1064,-3.26971,-51.8879
2023-03-11 22:13:11:302,0,6.14108,-3.28444,-51.9314
2023-03-11 22:13:11:311,0,6.17585,-3.30126,-51.9794
2023-03-11 22:13:11:321,0,6.20575,-3.3128,-52.0223
2023-03-11 22:13:11:331,0,6.23585,-3.31993,-52.0725
2023-03-11 22:13:11:341,0,6.26841,-3.32246,-52.1236
2023-03-11 22:13:11:351,0,6.29915,-3.32086,-52.182
2023-03-11 22:13:11:361,0,6.32907,-3.31551,-52.2332
2023-03-11 22:13:11:371,0,6.36419,-3.31319,-52.2848
2023-03-11 22:13:11:381,0,6.39725,-3.31364,-52.3337
2023-03-11 22:13:11:391,0,6.43097,-3.31578,-52.3839
2023-03-11 22:13:11:401,0,6.45619,-3.31607,-52.4283
2023-03-11 22:13:11:411,0,6.47916,-3.32346,-52.4699
2023-03-11 22:13:11:421,0,6.49995,-3.33445,-52.506
2023-03-11 22:13:11:432,0,6.51997,-3.34223,-52.5441
2023-03-11 22:13:11:442,0,6.53966,-3.35291,-52.5751
2023-03-11 22:13:11:451,0,6.55985,-3.35844,-52.6013
2023-03-11 22:13:11:462,0,6.57815,-3.36148,-52.6275
2023-03-11 22:13:11:471,0,6.59276,-3.36222,-52.6463
2023-03-11 22:13:11:482,0,6.60668,-3.36142,-52.659
2023-03-11 22:13:11:492,0,6.62078,-3.35942,-52.6705
2023-03-11 22:13:11:502,0,6.63005,-3.35276,-52.675
2023-03-11 22:13:11:512,0,6.63855,-3.3428,-52.6757
2023-03-11 22:13:11:522,0,6.64362,-3.33416,-52.6778
2023-03-11 22:13:11:532,0,6.64671,-3.32526,-52.6813
2023-03-11 22:13:11:542,0,6.65158,-3.31875,-52.6825
2023-03-11 22:13:11:552,0,6.65415,-3.30958,-52.6873
2023-03-11 22:13:11:562,0,6.6562,-3.3067,-52.6929
2023-03-11 22:13:11:572,0,6.65639,-3.30598,-52.6992
2023-03-11 22:13:11:582,0,6.65629,-3.30894,-52.7065
2023-03-11 22:13:11:592,0,6.65366,-3.31002,-52.7113
2023-03-11 22:13:11:602,0,6.65178,-3.31273,-52.723
2023-03-11 22:13:11:612,0,6.64973,-3.31169,-52.7328
2023-03-11 22:13:11:622,0,6.64686,-3.31288,-52.7417
2023-03-11 22:13:11:632,0,6.65164,-3.31364,-52.7526
2023-03-11 22:13:11:642,0,6.65745,-3.31147,-52.7608
2023-03-11 22:13:11:652,0,6.67065,-3.30621,-52.7692
2023-03-11 22:13:11:662,0,6.68406,-3.29635,-52.7787
2023-03-11 22:13:11:672,0,6.69805,-3.28604,-52.7906
2023-03-11 22:13:11:682,0,6.70951,-3.27486,-52.8043
2023-03-11 22:13:11:692,0,6.71677,-3.26522,-52.8113
2023-03-11 22:13:11:702,0,6.72366,-3.25707,-52.8162
2023-03-11 22:13:11:712,0,6.73066,-3.2508,-52.8246
2023-03-11 22:13:11:722,0,6.7345,-3.24285,-52.8341
2023-03-11 22:13:11:732,0,6.7454,-3.23134,-52.844
2023-03-11 22:13:11:742,0,6.76233,-3.22584,-52.8451
2023-03-11 22:13:11:752,0,6.78449,-3.2258,-52.8417
2023-03-11 22:13:11:762,0,6.80526,-3.22489,-52.8405
2023-03-11 22:13:11:772,0,6.81784,-3.22516,-52.8385
2023-03-11 22:13:11:782,0,6.83003,-3.21972,-52.84
2023-03-11 22:13:11:792,0,6.8409,-3.21435,-52.8414
2023-03-11 22:13:11:802,0,6.84759,-3.21213,-52.8436
2023-03-11 22:13:11:812,0,6.85588,-3.20901,-52.848
2023-03-11 22:13:11:822,0,6.86636,-3.20701,-52.8507
2023-03-11 22:13:11:832,0,6.87581,-3.20007,-52.8535
2023-03-11 22:13:11:842,0,6.89163,-3.19192,-52.8575
2023-03-11 22:13:11:852,0,6.91501,-3.1858,-52.863
2023-03-11 22:13:11:862,0,6.93613,-3.17767,-52.8706
2023-03-11 22:13:11:872,0,6.95852,-3.17174,-52.8769
2023-03-11 22:13:11:882,0,6.97825,-3.16514,-52.8859
2023-03-11 22:13:11:892,0,6.99646,-3.16096,-52.8912
2023-03-11 22:13:11:902,0,7.01631,-3.15591,-52.905
2023-03-11 22:13:11:912,0,7.03805,-3.15389,-52.9234
2023-03-11 22:13:11:922,0,7.06473,-3.15667,-52.9348
2023-03-11 22:13:11:932,0,7.09437,-3.16469,-52.9435
2023-03-11 22:13:11:942,0,7.12007,-3.17295,-52.9586
2023-03-11 22:13:11:952,0,7.14684,-3.1788,-52.9737
2023-03-11 22:13:11:962,0,7.17,-3.17762,-52.9933
2023-03-11 22:13:11:972,0,7.19624,-3.18084,-53.0031
2023-03-11 22:13:11:982,0,7.22711,-3.19164,-53.0103
2023-03-11 22:13:11:992,0,7.25862,-3.20911,-53.0137
2023-03-11 22:13:12:2,0,7.29289,-3.22391,-53.0236
2023-03-11 22:13:12:12,0,7.33069,-3.23489,-53.0383
2023-03-11 22:13:12:22,0,7.37345,-3.23955,-53.054
2023-03-11 22:13:12:32,0,7.42084,-3.23843,-53.0653
2023-03-11 22:13:12:42,0,7.46834,-3.23341,-53.0825
2023-03-11 22:13:12:52,0,7.51408,-3.22844,-53.0967
2023-03-11 22:13:12:62,0,7.55339,-3.22229,-53.1067
2023-03-11 22:13:12:72,0,7.59608,-3.22129,-53.1165
2023-03-11 22:13:12:82,0,7.63754,-3.22059,-53.1293
2023-03-11 22:13:12:92,0,7.67482,-3.21823,-53.1462
2023-03-11 22:13:12:102,0,7.71429,-3.21775,-53.1612
2023-03-11 22:13:12:112,0,7.74886,-3.21627,-53.1782
2023-03-11 22:13:12:122,0,7.78639,-3.21374,-53.1946
2023-03-11 22:13:12:132,0,7.81736,-3.2114,-53.2077
2023-03-11 22:13:12:142,0,7.84348,-3.2116,-53.221
2023-03-11 22:13:12:152,0,7.86457,-3.21263,-53.2302
2023-03-11 22:13:12:162,0,7.88003,-3.21662,-53.2386
2023-03-11 22:13:12:172,0,7.89081,-3.21847,-53.2439
2023-03-11 22:13:12:182,0,7.89573,-3.21988,-53.2468
2023-03-11 22:13:12:192,0,7.89517,-3.22297,-53.2539
2023-03-11 22:13:12:202,0,7.89145,-3.22346,-53.2569
2023-03-11 22:13:12:212,0,7.89027,-3.2216,-53.2573
2023-03-11 22:13:12:222,0,7.89244,-3.21699,-53.2557
2023-03-11 22:13:12:232,0,7.8942,-3.21354,-53.2506
2023-03-11 22:13:12:242,0,7.89625,-3.20979,-53.2452
2023-03-11 22:13:12:252,0,7.89896,-3.21051,-53.2387
2023-03-11 22:13:12:262,0,7.90052,-3.21054,-53.2359
2023-03-11 22:13:12:272,0,7.89977,-3.20714,-53.2322
2023-03-11 22:13:12:282,0,7.89682,-3.20691,-53.229
2023-03-11 22:13:12:292,0,7.89613,-3.20617,-53.2299
2023-03-11 22:13:12:302,0,7.89242,-3.20553,-53.2301
2023-03-11 22:13:12:312,0,7.89253,-3.20562,-53.2313
2023-03-11 22:13:12:322,0,7.89538,-3.203,-53.2316
2023-03-11 22:13:12:332,0,7.90238,-3.2033,-53.2297
2023-03-11 22:13:12:342,0,7.90465,-3.19973,-53.2294
2023-03-11 22:13:12:352,0,7.9076,-3.19378,-53.2306
2023-03-11 22:13:12:362,0,7.9113,-3.18562,-53.2364
2023-03-11 22:13:12:372,0,7.91903,-3.17851,-53.2464
2023-03-11 22:13:12:382,0,7.93009,-3.16886,-53.2575
2023-03-11 22:13:12:392,0,7.94293,-3.15542,-53.2688
2023-03-11 22:13:12:402,0,7.9584,-3.14176,-53.2777
2023-03-11 22:13:12:412,0,7.9677,-3.12906,-53.2934
2023-03-11 22:13:12:422,0,7.97399,-3.11516,-53.3094
2023-03-11 22:13:12:432,0,7.9863,-3.10019,-53.3273
2023-03-11 22:13:12:442,0,7.99955,-3.08756,-53.3396
2023-03-11 22:13:12:452,0,8.00802,-3.08152,-53.3439
2023-03-11 22:13:12:462,0,8.02146,-3.07954,-53.3497
2023-03-11 22:13:12:472,0,8.02909,-3.08022,-53.3535
2023-03-11 22:13:12:482,0,8.03021,-3.07637,-53.3584
2023-03-11 22:13:12:492,0,8.02731,-3.07438,-53.3602
2023-03-11 22:13:12:502,0,8.0188,-3.07707,-53.3645
2023-03-11 22:13:12:512,0,8.01114,-3.07483,-53.3682
2023-03-11 22:13:12:522,0,8.00541,-3.07068,-53.3662
2023-03-11 22:13:12:532,0,8.00239,-3.06593,-53.3663
2023-03-11 22:13:12:542,0,7.99989,-3.06048,-53.3698
2023-03-11 22:13:12:552,0,7.99819,-3.05406,-53.3776
2023-03-11 22:13:12:562,0,7.99678,-3.04754,-53.3873
2023-03-11 22:13:12:572,0,7.99657,-3.03484,-53.4009
2023-03-11 22:13:12:581,0,7.99636,-3.02275,-53.4201
2023-03-11 22:13:12:591,0,8.00215,-3.00696,-53.4474
2023-03-11 22:13:12:602,0,8.00627,-2.98919,-53.4799
2023-03-11 22:13:12:612,0,8.00727,-2.96307,-53.5147
2023-03-11 22:13:12:622,0,8.01052,-2.94004,-53.5483
2023-03-11 22:13:12:632,0,8.01234,-2.92177,-53.583
2023-03-11 22:13:12:642,0,8.01066,-2.89892,-53.6187
2023-03-11 22:13:12:652,0,8.00682,-2.87649,-53.6528
2023-03-11 22:13:12:662,0,8.00327,-2.84866,-53.6919
2023-03-11 22:13:12:672,0,8.00514,-2.82264,-53.7221
2023-03-11 22:13:12:682,0,8.00771,-2.80132,-53.7539
2023-03-11 22:13:12:692,0,8.01125,-2.78396,-53.7813
2023-03-11 22:13:12:702,0,8.01646,-2.76389,-53.8099
2023-03-11 22:13:12:712,0,8.02059,-2.74168,-53.834
2023-03-11 22:13:12:722,0,8.0236,-2.72117,-53.859
2023-03-11 22:13:12:732,0,8.02139,-2.70453,-53.8785
2023-03-11 22:13:12:742,0,8.02455,-2.68919,-53.9006
2023-03-11 22:13:12:752,0,8.02555,-2.67887,-53.9181
2023-03-11 22:13:12:762,0,8.03051,-2.6712,-53.9332
2023-03-11 22:13:12:772,0,8.03602,-2.66391,-53.9489
2023-03-11 22:13:12:782,0,8.04057,-2.65808,-53.9588
2023-03-11 22:13:12:792,0,8.04816,-2.65155,-53.9659
2023-03-11 22:13:12:802,0,8.05466,-2.64979,-53.973
2023-03-11 22:13:12:812,0,8.06347,-2.65353,-53.978
2023-03-11 22:13:12:822,0,8.06902,-2.65336,-53.9823
2023-03-11 22:13:12:832,0,8.07237,-2.65305,-53.9801
2023-03-11 22:13:12:842,0,8.07658,-2.65925,-53.9721
2023-03-11 22:13:12:852,0,8.07978,-2.66342,-53.9653
2023-03-11 22:13:12:862,0,8.08247,-2.67037,-53.9544
2023-03-11 22:13:12:872,0,8.08627,-2.67663,-53.9463
2023-03-11 22:13:12:882,0,8.09188,-2.68484,-53.938
2023-03-11 22:13:12:892,0,8.09189,-2.69219,-53.9257
2023-03-11 22:13:12:902,0,8.09147,-2.70021,-53.9099
2023-03-11 22:13:12:912,0,8.09048,-2.70921,-53.9001
2023-03-11 22:13:12:922,0,8.08762,-2.71503,-53.8897
2023-03-11 22:13:12:932,0,8.08452,-2.72218,-53.8833
2023-03-11 22:13:12:942,0,8.07723,-2.73133,-53.8779
2023-03-11 22:13:12:952,0,8.06904,-2.73939,-53.8703
2023-03-11 22:13:12:962,0,8.05886,-2.74392,-53.8636
2023-03-11 22:13:12:972,0,8.048,-2.75393,-53.856
2023-03-11 22:13:12:982,0,8.0403,-2.76224,-53.847
2023-03-11 22:13:12:992,0,8.03183,-2.77158,-53.8368
2023-03-11 22:13:13:2,0,8.02343,-2.78264,-53.8274
2023-03-11 22:13:13:12,0,8.01294,-2.79242,-53.8115
2023-03-11 22:13:13:22,0,8.00463,-2.80094,-53.7989
2023-03-11 22:13:13:32,0,8.0005,-2.80971,-53.7845
2023-03-11 22:13:13:42,0,7.993,-2.82081,-53.7664
2023-03-11 22:13:13:52,0,7.9897,-2.83168,-53.7507
2023-03-11 22:13:13:62,0,7.98793,-2.83804,-53.7373
2023-03-11 22:13:13:72,0,7.98723,-2.84206,-53.7266
2023-03-11 22:13:13:82,0,7.98378,-2.84405,-53.7209
2023-03-11 22:13:13:92,0,7.98416,-2.84438,-53.7133
2023-03-11 22:13:13:102,0,7.98382,-2.84846,-53.7043
2023-03-11 22:13:13:112,0,7.98183,-2.85588,-53.6946
2023-03-11 22:13:13:122,0,7.97659,-2.85948,-53.6848
2023-03-11 22:13:13:132,0,7.97116,-2.86655,-53.6782
2023-03-11 22:13:13:142,0,7.96485,-2.8723,-53.6725
2023-03-11 22:13:13:152,0,7.95824,-2.87974,-53.6646
2023-03-11 22:13:13:162,0,7.94983,-2.89526,-53.6482
2023-03-11 22:13:13:172,0,7.94038,-2.9161,-53.6309
2023-03-11 22:13:13:182,0,7.92183,-2.94331,-53.6102
2023-03-11 22:13:13:192,0,7.90101,-2.9722,-53.5897
2023-03-11 22:13:13:202,0,7.87778,-2.99539,-53.5738
2023-03-11 22:13:13:212,0,7.85514,-3.01344,-53.5569
2023-03-11 22:13:13:222,0,7.83287,-3.02575,-53.5422
2023-03-11 22:13:13:232,0,7.81396,-3.03535,-53.5305
2023-03-11 22:13:13:242,0,7.79043,-3.04177,-53.5167
2023-03-11 22:13:13:252,0,7.76745,-3.04846,-53.5032
2023-03-11 22:13:13:262,0,7.74071,-3.05883,-53.4915
2023-03-11 22:13:13:272,0,7.71732,-3.07009,-53.4847
2023-03-11 22:13:13:282,0,7.69158,-3.07689,-53.4824
2023-03-11 22:13:13:292,0,7.6653,-3.08687,-53.4813
2023-03-11 22:13:13:302,0,7.64176,-3.09865,-53.4822
2023-03-11 22:13:13:312,0,7.62006,-3.10593,-53.4882
2023-03-11 22:13:13:322,0,7.59455,-3.10791,-53.4944
2023-03-11 22:13:13:332,0,7.56991,-3.11421,-53.5022
2023-03-11 22:13:13:342,0,7.54869,-3.12107,-53.5085
2023-03-11 22:13:13:352,0,7.52444,-3.12638,-53.5149
2023-03-11 22:13:13:362,0,7.50337,-3.12846,-53.5197
2023-03-11 22:13:13:372,0,7.48735,-3.12751,-53.5325
2023-03-11 22:13:13:382,0,7.47134,-3.12675,-53.5498
2023-03-11 22:13:13:392,0,7.46112,-3.12549,-53.5598
2023-03-11 22:13:13:402,0,7.45323,-3.12391,-53.5701
2023-03-11 22:13:13:412,0,7.44856,-3.12516,-53.5872
2023-03-11 22:13:13:421,0,7.44789,-3.12297,-53.6051
2023-03-11 22:13:13:431,0,7.44675,-3.11675,-53.6269
2023-03-11 22:13:13:442,0,7.44857,-3.10842,-53.6484
2023-03-11 22:13:13:452,0,7.44608,-3.09569,-53.668
2023-03-11 22:13:13:462,0,7.44382,-3.08584,-53.6846
2023-03-11 22:13:13:472,0,7.44252,-3.07635,-53.6954
2023-03-11 22:13:13:482,0,7.44205,-3.06823,-53.7057
2023-03-11 22:13:13:492,0,7.44167,-3.06463,-53.7114
2023-03-11 22:13:13:502,0,7.44137,-3.05948,-53.7192
2023-03-11 22:13:13:512,0,7.44102,-3.05295,-53.7252
2023-03-11 22:13:13:522,0,7.43894,-3.03989,-53.7286
2023-03-11 22:13:13:532,0,7.43218,-3.02533,-53.7301
2023-03-11 22:13:13:542,0,7.42682,-3.01419,-53.7264
2023-03-11 22:13:13:552,0,7.42288,-3.00677,-53.7231
2023-03-11 22:13:13:562,0,7.41308,-3.00683,-53.7144
2023-03-11 22:13:13:572,0,7.40492,-3.0079,-53.7019
2023-03-11 22:13:13:582,0,7.39926,-3.01077,-53.6936
2023-03-11 22:13:13:592,0,7.39023,-3.01711,-53.6877
2023-03-11 22:13:13:601,0,7.37713,-3.02008,-53.6835
2023-03-11 22:13:13:611,0,7.36436,-3.02911,-53.6795
2023-03-11 22:13:13:622,0,7.34572,-3.03434,-53.6807
2023-03-11 22:13:13:632,0,7.33132,-3.03968,-53.6812
2023-03-11 22:13:13:642,0,7.31499,-3.04238,-53.6858
2023-03-11 22:13:13:652,0,7.30161,-3.04422,-53.6916
2023-03-11 22:13:13:662,0,7.29145,-3.04828,-53.7002
2023-03-11 22:13:13:672,0,7.27432,-3.04942,-53.7089
2023-03-11 22:13:13:682,0,7.25878,-3.05332,-53.7194
2023-03-11 22:13:13:692,0,7.23878,-3.05895,-53.7322
2023-03-11 22:13:13:702,0,7.22017,-3.06512,-53.7459
2023-03-11 22:13:13:712,0,7.20785,-3.06839,-53.7597
2023-03-11 22:13:13:722,0,7.20113,-3.07338,-53.7707
2023-03-11 22:13:13:732,0,7.19571,-3.07542,-53.776
2023-03-11 22:13:13:742,0,7.18962,-3.07991,-53.7839
2023-03-11 22:13:13:752,0,7.18725,-3.08402,-53.7884
2023-03-11 22:13:13:762,0,7.18311,-3.08323,-53.7915
2023-03-11 22:13:13:772,0,7.17761,-3.07949,-53.7922
2023-03-11 22:13:13:782,0,7.17004,-3.07423,-53.7894
2023-03-11 22:13:13:792,0,7.1618,-3.07159,-53.7845
2023-03-11 22:13:13:802,0,7.15051,-3.0678,-53.7859
2023-03-11 22:13:13:812,0,7.14304,-3.0619,-53.7885
2023-03-11 22:13:13:822,0,7.13759,-3.05508,-53.7911
2023-03-11 22:13:13:832,0,7.13579,-3.05369,-53.798
2023-03-11 22:13:13:842,0,7.13674,-3.04634,-53.8032
2023-03-11 22:13:13:852,0,7.13947,-3.04192,-53.8092
2023-03-11 22:13:13:862,0,7.13856,-3.03661,-53.8175
2023-03-11 22:13:13:872,0,7.13807,-3.02637,-53.8272
2023-03-11 22:13:13:882,0,7.14013,-3.01858,-53.8363
2023-03-11 22:13:13:892,0,7.14242,-3.01806,-53.8381
2023-03-11 22:13:13:902,0,7.14318,-3.02019,-53.8294
2023-03-11 22:13:13:912,0,7.14483,-3.03055,-53.8179
2023-03-11 22:13:13:922,0,7.14528,-3.03979,-53.8118
2023-03-11 22:13:13:932,0,7.14102,-3.05187,-53.8018
2023-03-11 22:13:13:942,0,7.13917,-3.05768,-53.7949
2023-03-11 22:13:13:952,0,7.13974,-3.06086,-53.7876
2023-03-11 22:13:13:962,0,7.14208,-3.06349,-53.7789
2023-03-11 22:13:13:972,0,7.14773,-3.06349,-53.7714
2023-03-11 22:13:13:982,0,7.15362,-3.06509,-53.7633
2023-03-11 22:13:13:992,0,7.16439,-3.06451,-53.7579
2023-03-11 22:13:14:2,0,7.17587,-3.06496,-53.7578
2023-03-11 22:13:14:12,0,7.18467,-3.06683,-53.7576
2023-03-11 22:13:14:22,0,7.19592,-3.06528,-53.7611
2023-03-11 22:13:14:32,0,7.20646,-3.06575,-53.7674
2023-03-11 22:13:14:42,0,7.2174,-3.0634,-53.7768
2023-03-11 22:13:14:52,0,7.2294,-3.06149,-53.7867
2023-03-11 22:13:14:62,0,7.24242,-3.05819,-53.7959
2023-03-11 22:13:14:72,0,7.25274,-3.05536,-53.7968
2023-03-11 22:13:14:82,0,7.26279,-3.05612,-53.7984
2023-03-11 22:13:14:92,0,7.27425,-3.05088,-53.7987
2023-03-11 22:13:14:102,0,7.27859,-3.04189,-53.8006
2023-03-11 22:13:14:111,0,7.28233,-3.03096,-53.7993
2023-03-11 22:13:14:122,0,7.28999,-3.02855,-53.7899
2023-03-11 22:13:14:132,0,7.2956,-3.02739,-53.776
2023-03-11 22:13:14:142,0,7.30715,-3.02893,-53.7643
2023-03-11 22:13:14:152,0,7.31643,-3.0296,-53.754
2023-03-11 22:13:14:162,0,7.32763,-3.02703,-53.7451
2023-03-11 22:13:14:172,0,7.3307,-3.02078,-53.7372
2023-03-11 22:13:14:182,0,7.33582,-3.01307,-53.7309
2023-03-11 22:13:14:192,0,7.34165,-3.00586,-53.726
2023-03-11 22:13:14:202,0,7.34966,-3.00431,-53.7215
2023-03-11 22:13:14:212,0,7.36188,-3.00379,-53.7204
2023-03-11 22:13:14:222,0,7.37717,-3.00577,-53.7193
2023-03-11 22:13:14:232,0,7.39142,-3.00928,-53.7207
2023-03-11 22:13:14:242,0,7.40966,-3.01654,-53.7262
2023-03-11 22:13:14:252,0,7.42048,-3.02275,-53.7291
2023-03-11 22:13:14:262,0,7.42734,-3.02917,-53.7345
2023-03-11 22:13:14:272,0,7.43009,-3.03437,-53.7395
2023-03-11 22:13:14:282,0,7.43,-3.04042,-53.7418
2023-03-11 22:13:14:292,0,7.4272,-3.05126,-53.7384
2023-03-11 22:13:14:302,0,7.42573,-3.059,-53.7371
2023-03-11 22:13:14:312,0,7.42461,-3.06662,-53.7371
2023-03-11 22:13:14:322,0,7.4259,-3.07189,-53.7366
2023-03-11 22:13:14:332,0,7.43092,-3.07261,-53.7372
2023-03-11 22:13:14:342,0,7.42872,-3.07344,-53.7343
2023-03-11 22:13:14:352,0,7.42336,-3.0783,-53.7367
2023-03-11 22:13:14:362,0,7.40936,-3.07809,-53.7468
2023-03-11 22:13:14:382,0,7.40153,-3.07558,-53.7528
2023-03-11 22:13:14:392,0,7.39657,-3.06973,-53.7557
2023-03-11 22:13:14:402,0,7.3977,-3.06917,-53.7641
2023-03-11 22:13:14:412,0,7.39806,-3.06383,-53.7711
2023-03-11 22:13:14:422,0,7.39706,-3.05579,-53.7757
2023-03-11 22:13:14:432,0,7.39644,-3.04699,-53.7802
2023-03-11 22:13:14:442,0,7.39328,-3.04186,-53.7861
2023-03-11 22:13:14:452,0,7.38777,-3.03649,-53.7933
2023-03-11 22:13:14:462,0,7.38394,-3.02671,-53.799
2023-03-11 22:13:14:472,0,7.38013,-3.02222,-53.806
2023-03-11 22:13:14:482,0,7.37886,-3.02149,-53.8117
2023-03-11 22:13:14:492,0,7.37966,-3.01516,-53.8172
2023-03-11 22:13:14:502,0,7.38132,-3.00636,-53.8221
2023-03-11 22:13:14:512,0,7.38282,-3.00074,-53.8288
2023-03-11 22:13:14:522,0,7.38418,-2.99288,-53.8374
2023-03-11 22:13:14:532,0,7.38704,-2.98559,-53.8468
2023-03-11 22:13:14:542,0,7.39058,-2.97439,-53.857
2023-03-11 22:13:14:552,0,7.38991,-2.96654,-53.8632
2023-03-11 22:13:14:562,0,7.38944,-2.95787,-53.8713
2023-03-11 22:13:14:572,0,7.38691,-2.95131,-53.8799
2023-03-11 22:13:14:582,0,7.38887,-2.94269,-53.8906
2023-03-11 22:13:14:592,0,7.39767,-2.93535,-53.8969
2023-03-11 22:13:14:602,0,7.40056,-2.93546,-53.8953
2023-03-11 22:13:14:612,0,7.4094,-2.94341,-53.8894
2023-03-11 22:13:14:622,0,7.41704,-2.95179,-53.8835
2023-03-11 22:13:14:632,0,7.42076,-2.95891,-53.8821
2023-03-11 22:13:14:642,0,7.41704,-2.96036,-53.88
2023-03-11 22:13:14:652,0,7.41886,-2.96034,-53.8768
2023-03-11 22:13:14:662,0,7.41757,-2.9664,-53.8767
2023-03-11 22:13:14:672,0,7.41564,-2.96783,-53.8749
2023-03-11 22:13:14:682,0,7.41733,-2.96758,-53.876
2023-03-11 22:13:14:692,0,7.42352,-2.96813,-53.8789
2023-03-11 22:13:14:702,0,7.43009,-2.96719,-53.8811
2023-03-11 22:13:14:712,0,7.43983,-2.96077,-53.8829
2023-03-11 22:13:14:722,0,7.44887,-2.9572,-53.889
2023-03-11 22:13:14:732,0,7.45784,-2.95053,-53.8925
2023-03-11 22:13:14:742,0,7.46539,-2.94295,-53.8997
2023-03-11 22:13:14:752,0,7.47012,-2.93356,-53.9045
2023-03-11 22:13:14:762,0,7.47243,-2.9247,-53.9083
2023-03-11 22:13:14:772,0,7.46992,-2.91442,-53.9091
2023-03-11 22:13:14:782,0,7.46321,-2.90558,-53.9088
2023-03-11 22:13:14:792,0,7.45622,-2.90151,-53.9119
2023-03-11 22:13:14:802,0,7.44878,-2.8921,-53.9234
2023-03-11 22:13:14:812,0,7.44774,-2.87897,-53.9369
2023-03-11 22:13:14:822,0,7.44835,-2.86618,-53.9489
2023-03-11 22:13:14:832,0,7.44975,-2.8604,-53.955
2023-03-11 22:13:14:842,0,7.45446,-2.85651,-53.9656
2023-03-11 22:13:14:852,0,7.45367,-2.85194,-53.9747
2023-03-11 22:13:14:862,0,7.45398,-2.84983,-53.9811
2023-03-11 22:13:14:872,0,7.45682,-2.84527,-53.9897
2023-03-11 22:13:14:882,0,7.45433,-2.84119,-53.9949
2023-03-11 22:13:14:892,0,7.45662,-2.83725,-53.9964
2023-03-11 22:13:14:902,0,7.45932,-2.83526,-53.9927
2023-03-11 22:13:14:912,0,7.46555,-2.83313,-53.9937
2023-03-11 22:13:14:922,0,7.47235,-2.82891,-53.9898
2023-03-11 22:13:14:932,0,7.47888,-2.82616,-53.9865
2023-03-11 22:13:14:942,0,7.48366,-2.8234,-53.9804
2023-03-11 22:13:14:952,0,7.48558,-2.82327,-53.9761
2023-03-11 22:13:14:962,0,7.48579,-2.82215,-53.9753
2023-03-11 22:13:14:972,0,7.48716,-2.82266,-53.9725
2023-03-11 22:13:14:982,0,7.48572,-2.82762,-53.9722
2023-03-11 22:13:14:992,0,7.48297,-2.83395,-53.9727
2023-03-11 22:13:15:2,0,7.48042,-2.84252,-53.9678
2023-03-11 22:13:15:12,0,7.48253,-2.84945,-53.9664
2023-03-11 22:13:15:22,0,7.47748,-2.85945,-53.9639
2023-03-11 22:13:15:32,0,7.47137,-2.87082,-53.963
2023-03-11 22:13:15:42,0,7.46758,-2.87911,-53.9628
2023-03-11 22:13:15:52,0,7.45956,-2.8849,-53.9621
2023-03-11 22:13:15:62,0,7.45154,-2.8894,-53.9595
2023-03-11 22:13:15:72,0,7.44587,-2.89164,-53.9549
2023-03-11 22:13:15:82,0,7.44116,-2.89262,-53.9539
2023-03-11 22:13:15:92,0,7.43718,-2.89314,-53.9545
2023-03-11 22:13:15:102,0,7.42965,-2.89706,-53.9577
2023-03-11 22:13:15:112,0,7.42556,-2.89541,-53.9559
2023-03-11 22:13:15:122,0,7.41767,-2.90212,-53.9566
2023-03-11 22:13:15:132,0,7.41418,-2.90401,-53.9571
2023-03-11 22:13:15:142,0,7.41266,-2.90472,-53.9573
2023-03-11 22:13:15:152,0,7.40971,-2.90524,-53.9608
2023-03-11 22:13:15:162,0,7.41313,-2.90501,-53.963
2023-03-11 22:13:15:172,0,7.41336,-2.90669,-53.9625
2023-03-11 22:13:15:182,0,7.41265,-2.90498,-53.9606
2023-03-11 22:13:15:192,0,7.41345,-2.90612,-53.9613
2023-03-11 22:13:15:202,0,7.41176,-2.90376,-53.9631
2023-03-11 22:13:15:212,0,7.40879,-2.89848,-53.9664
2023-03-11 22:13:15:222,0,7.40906,-2.8937,-53.9706
2023-03-11 22:13:15:232,0,7.41154,-2.88854,-53.9797
2023-03-11 22:13:15:242,0,7.4135,-2.88303,-53.992
2023-03-11 22:13:15:252,0,7.41707,-2.87501,-54.004
2023-03-11 22:13:15:262,0,7.42059,-2.87159,-54.0093
2023-03-11 22:13:15:272,0,7.42064,-2.86793,-54.0178
2023-03-11 22:13:15:282,0,7.4219,-2.86068,-54.0311
2023-03-11 22:13:15:292,0,7.41998,-2.85611,-54.0471
2023-03-11 22:13:15:302,0,7.41805,-2.852,-54.0561
2023-03-11 22:13:15:312,0,7.41873,-2.85209,-54.0577
2023-03-11 22:13:15:322,0,7.4163,-2.86064,-54.0505
2023-03-11 22:13:15:332,0,7.41266,-2.86798,-54.0465
2023-03-11 22:13:15:342,0,7.40893,-2.87674,-54.0458
2023-03-11 22:13:15:352,0,7.40203,-2.88181,-54.043
2023-03-11 22:13:15:362,0,7.39592,-2.88231,-54.0424
2023-03-11 22:13:15:372,0,7.39291,-2.88271,-54.0356
2023-03-11 22:13:15:382,0,7.39045,-2.8745,-54.0252
2023-03-11 22:13:15:392,0,7.39042,-2.86975,-54.0135
2023-03-11 22:13:15:402,0,7.39031,-2.86289,-54.0012
2023-03-11 22:13:15:412,0,7.38763,-2.85517,-53.9934
2023-03-11 22:13:15:422,0,7.38602,-2.85081,-53.987
2023-03-11 22:13:15:432,0,7.38032,-2.84523,-53.984
2023-03-11 22:13:15:442,0,7.37361,-2.83964,-53.9847
2023-03-11 22:13:15:452,0,7.36613,-2.83611,-53.9905
2023-03-11 22:13:15:462,0,7.35479,-2.82888,-53.9974
2023-03-11 22:13:15:472,0,7.33811,-2.82407,-54.0075
2023-03-11 22:13:15:482,0,7.3188,-2.82192,-54.0147
2023-03-11 22:13:15:492,0,7.30012,-2.82069,-54.0247
2023-03-11 22:13:15:502,0,7.28394,-2.818,-54.0367
2023-03-11 22:13:15:512,0,7.26892,-2.80979,-54.0537
2023-03-11 22:13:15:522,0,7.25479,-2.8001,-54.0651
2023-03-11 22:13:15:532,0,7.24685,-2.79062,-54.0749
2023-03-11 22:13:15:542,0,7.2403,-2.78999,-54.0756
2023-03-11 22:13:15:552,0,7.23719,-2.78778,-54.0743
2023-03-11 22:13:15:562,0,7.23102,-2.78552,-54.0759
2023-03-11 22:13:15:572,0,7.22549,-2.78062,-54.0747
2023-03-11 22:13:15:582,0,7.22076,-2.77343,-54.0738
2023-03-11 22:13:15:592,0,7.21963,-2.77219,-54.0663
2023-03-11 22:13:15:601,0,7.21788,-2.77025,-54.0593
2023-03-11 22:13:15:611,0,7.21734,-2.76727,-54.0544
2023-03-11 22:13:15:621,0,7.2202,-2.76432,-54.0509
2023-03-11 22:13:15:631,0,7.22541,-2.7695,-54.0513
2023-03-11 22:13:15:641,0,7.23303,-2.77171,-54.0567
2023-03-11 22:13:15:651,0,7.24201,-2.77145,-54.0599
2023-03-11 22:13:15:661,0,7.24804,-2.77773,-54.0669
2023-03-11 22:13:15:671,0,7.25513,-2.78473,-54.0729
2023-03-11 22:13:15:681,0,7.26465,-2.79094,-54.0761
2023-03-11 22:13:15:691,0,7.27754,-2.79568,-54.0791
2023-03-11 22:13:15:701,0,7.28879,-2.80161,-54.0854
2023-03-11 22:13:15:711,0,7.29798,-2.8067,-54.0842
2023-03-11 22:13:15:721,0,7.30368,-2.80833,-54.0769
2023-03-11 22:13:15:731,0,7.30949,-2.81521,-54.0713
2023-03-11 22:13:15:741,0,7.30849,-2.81915,-54.0674
2023-03-11 22:13:15:751,0,7.30934,-2.81716,-54.0622
2023-03-11 22:13:15:761,0,7.31076,-2.81565,-54.0578
2023-03-11 22:13:15:771,0,7.31475,-2.8144,-54.0563
2023-03-11 22:13:15:781,0,7.31427,-2.81244,-54.0589
2023-03-11 22:13:15:791,0,7.31308,-2.81261,-54.0581
2023-03-11 22:13:15:801,0,7.30729,-2.81017,-54.0574
2023-03-11 22:13:15:811,0,7.30344,-2.80521,-54.0572
2023-03-11 22:13:15:821,0,7.29847,-2.80746,-54.0557
2023-03-11 22:13:15:831,0,7.29413,-2.80916,-54.0545
2023-03-11 22:13:15:841,0,7.29462,-2.80831,-54.055
2023-03-11 22:13:15:851,0,7.29632,-2.80761,-54.0523
2023-03-11 22:13:15:861,0,7.29705,-2.80272,-54.0508
2023-03-11 22:13:15:871,0,7.30196,-2.80083,-54.0471
2023-03-11 22:13:15:881,0,7.30663,-2.79721,-54.0426
2023-03-11 22:13:15:891,0,7.31148,-2.79752,-54.0322
2023-03-11 22:13:15:902,0,7.31592,-2.79688,-54.0197
2023-03-11 22:13:15:911,0,7.32093,-2.79961,-54.0063
2023-03-11 22:13:15:922,0,7.3246,-2.79674,-53.9948
2023-03-11 22:13:15:931,0,7.32885,-2.79366,-53.9828
2023-03-11 22:13:15:942,0,7.33355,-2.78731,-53.9719
2023-03-11 22:13:15:952,0,7.33875,-2.77952,-53.9657
2023-03-11 22:13:15:962,0,7.34269,-2.77832,-53.9617
2023-03-11 22:13:15:972,0,7.35004,-2.77504,-53.958
2023-03-11 22:13:15:982,0,7.35481,-2.77513,-53.9507
2023-03-11 22:13:15:992,0,7.35352,-2.77648,-53.9536
2023-03-11 22:13:16:2,0,7.35442,-2.77513,-53.9556
2023-03-11 22:13:16:12,0,7.35618,-2.77571,-53.9501
2023-03-11 22:13:16:22,0,7.35781,-2.78112,-53.9385
2023-03-11 22:13:16:32,0,7.35756,-2.79334,-53.9213
2023-03-11 22:13:16:42,0,7.35234,-2.80841,-53.903
2023-03-11 22:13:16:52,0,7.34512,-2.82029,-53.8881
2023-03-11 22:13:16:61,0,7.33258,-2.82783,-53.8661
2023-03-11 22:13:16:72,0,7.32349,-2.82996,-53.8496
2023-03-11 22:13:16:82,0,7.31333,-2.83232,-53.8289
2023-03-11 22:13:16:92,0,7.30837,-2.83317,-53.8084
2023-03-11 22:13:16:102,0,7.30535,-2.83159,-53.791
2023-03-11 22:13:16:112,0,7.30447,-2.83108,-53.7766
2023-03-11 22:13:16:122,0,7.30391,-2.83307,-53.7633
2023-03-11 22:13:16:132,0,7.30738,-2.83573,-53.7551
2023-03-11 22:13:16:142,0,7.31104,-2.84088,-53.7461
2023-03-11 22:13:16:152,0,7.31807,-2.84454,-53.7415
2023-03-11 22:13:16:162,0,7.32765,-2.8475,-53.7358
2023-03-11 22:13:16:172,0,7.32879,-2.85013,-53.7314
2023-03-11 22:13:16:182,0,7.33405,-2.85177,-53.7244
2023-03-11 22:13:16:192,0,7.33235,-2.85921,-53.7167
2023-03-11 22:13:16:202,0,7.32892,-2.86711,-53.707
2023-03-11 22:13:16:212,0,7.32637,-2.87182,-53.6999
2023-03-11 22:13:16:222,0,7.32438,-2.87457,-53.6955
2023-03-11 22:13:16:232,0,7.32324,-2.87896,-53.6908
2023-03-11 22:13:16:242,0,7.32542,-2.88483,-53.6847
2023-03-11 22:13:16:252,0,7.32817,-2.89338,-53.6754
2023-03-11 22:13:16:262,0,7.33453,-2.90018,-53.6731
2023-03-11 22:13:16:272,0,7.34575,-2.90863,-53.6682
2023-03-11 22:13:16:282,0,7.34906,-2.91422,-53.669
2023-03-11 22:13:16:292,0,7.3552,-2.9162,-53.6641
2023-03-11 22:13:16:302,0,7.36296,-2.91635,-53.663
2023-03-11 22:13:16:312,0,7.37198,-2.91904,-53.6594
2023-03-11 22:13:16:322,0,7.38109,-2.92095,-53.654
2023-03-11 22:13:16:332,0,7.38721,-2.91966,-53.6479
2023-03-11 22:13:16:342,0,7.39775,-2.92183,-53.641
2023-03-11 22:13:16:352,0,7.4081,-2.92026,-53.6343
2023-03-11 22:13:16:362,0,7.41912,-2.91869,-53.6235
2023-03-11 22:13:16:372,0,7.42936,-2.91849,-53.614
2023-03-11 22:13:16:382,0,7.4364,-2.91921,-53.6076
2023-03-11 22:13:16:392,0,7.44367,-2.91836,-53.6055
2023-03-11 22:13:16:402,0,7.45168,-2.92149,-53.5988
2023-03-11 22:13:16:412,0,7.46091,-2.9266,-53.589
2023-03-11 22:13:16:422,0,7.46489,-2.93087,-53.5758
2023-03-11 22:13:16:432,0,7.46916,-2.93716,-53.5651
2023-03-11 22:13:16:442,0,7.47077,-2.94314,-53.554
2023-03-11 22:13:16:452,0,7.47392,-2.95165,-53.5421
2023-03-11 22:13:16:462,0,7.47769,-2.95892,-53.5294
2023-03-11 22:13:16:472,0,7.48234,-2.96326,-53.5203
2023-03-11 22:13:16:482,0,7.48556,-2.96648,-53.5103
2023-03-11 22:13:16:492,0,7.487,-2.9692,-53.5047
2023-03-11 22:13:16:502,0,7.48869,-2.96779,-53.5028
2023-03-11 22:13:16:512,0,7.4879,-2.96247,-53.5007
2023-03-11 22:13:16:522,0,7.48917,-2.95834,-53.5012
2023-03-11 22:13:16:532,0,7.48833,-2.95642,-53.5046
2023-03-11 22:13:16:542,0,7.48718,-2.95218,-53.5091
2023-03-11 22:13:16:552,0,7.48627,-2.95068,-53.5124
2023-03-11 22:13:16:562,0,7.48799,-2.94667,-53.5147
2023-03-11 22:13:16:572,0,7.49006,-2.94215,-53.5135
2023-03-11 22:13:16:582,0,7.48923,-2.93711,-53.5155
2023-03-11 22:13:16:592,0,7.49006,-2.93348,-53.5161
2023-03-11 22:13:16:602,0,7.49022,-2.93048,-53.515
2023-03-11 22:13:16:612,0,7.48813,-2.9255,-53.513
2023-03-11 22:13:16:622,0,7.4839,-2.9167,-53.5139
2023-03-11 22:13:16:632,0,7.47933,-2.91133,-53.5162
2023-03-11 22:13:16:642,0,7.47656,-2.90275,-53.5202
2023-03-11 22:13:16:652,0,7.469,-2.89602,-53.5229
