Timestamp_cmd,imu_cmd,roll_delta,pitch_delta,yaw_delta,voice_type,voice_length
2023-03-15 10:58:47:876,0,0.482049,-4.26587,-22.9701,Q,Q
2023-03-15 10:58:47:886,0,0.476255,-4.27443,-22.9466,Q,Q
2023-03-15 10:58:47:896,0,0.467532,-4.276,-22.9245,Q,Q
2023-03-15 10:58:47:906,0,0.458499,-4.27292,-22.9047,Q,Q
2023-03-15 10:58:47:917,0,0.455483,-4.27127,-22.8853,Q,Q
2023-03-15 10:58:47:927,0,0.448074,-4.2696,-22.8649,Q,Q
2023-03-15 10:58:47:936,0,0.439557,-4.26929,-22.8467,Q,Q
2023-03-15 10:58:47:946,0,0.431379,-4.27328,-22.8327,Q,Q
2023-03-15 10:58:47:956,0,0.425392,-4.27808,-22.821,Q,Q
2023-03-15 10:58:47:966,0,0.420204,-4.28235,-22.8118,Q,Q
2023-03-15 10:58:47:976,0,0.419565,-4.28586,-22.806,Q,Q
2023-03-15 10:58:47:986,0,0.415193,-4.28927,-22.7998,Q,Q
2023-03-15 10:58:47:996,0,0.415386,-4.29508,-22.793,Q,Q
2023-03-15 10:58:48:6,0,0.422303,-4.30276,-22.7883,Q,Q
2023-03-15 10:58:48:16,0,0.433175,-4.30753,-22.7835,Q,Q
2023-03-15 10:58:48:26,0,0.4428,-4.31364,-22.7796,Q,Q
2023-03-15 10:58:48:36,0,0.451323,-4.31907,-22.7787,Q,Q
2023-03-15 10:58:48:46,0,0.463423,-4.31808,-22.7753,Q,Q
2023-03-15 10:58:48:56,0,0.474815,-4.32415,-22.7749,Q,Q
2023-03-15 10:58:48:66,0,0.483479,-4.32564,-22.7777,Q,Q
2023-03-15 10:58:48:76,0,0.493685,-4.33209,-22.7754,Q,Q
2023-03-15 10:58:48:86,0,0.50524,-4.34084,-22.7742,Q,Q
2023-03-15 10:58:48:96,0,0.515709,-4.3497,-22.7704,Q,Q
2023-03-15 10:58:48:106,0,0.522555,-4.35966,-22.7707,Q,Q
2023-03-15 10:58:48:116,0,0.528275,-4.36783,-22.7721,Q,Q
2023-03-15 10:58:48:126,0,0.530435,-4.37512,-22.7748,Q,Q
2023-03-15 10:58:48:136,0,0.533786,-4.3817,-22.7792,Q,Q
2023-03-15 10:58:48:146,0,0.541556,-4.38844,-22.7803,Q,Q
2023-03-15 10:58:48:156,0,0.548684,-4.39654,-22.7808,Q,Q
2023-03-15 10:58:48:166,0,0.553341,-4.39806,-22.7791,Q,Q
2023-03-15 10:58:48:176,0,0.561315,-4.40066,-22.7773,Q,Q
2023-03-15 10:58:48:186,0,0.566516,-4.40462,-22.7761,Q,Q
2023-03-15 10:58:48:196,0,0.573233,-4.40355,-22.7726,Q,Q
2023-03-15 10:58:48:206,0,0.579475,-4.40419,-22.7699,Q,Q
2023-03-15 10:58:48:216,0,0.577934,-4.40441,-22.7643,Q,Q
2023-03-15 10:58:48:226,0,0.578105,-4.40531,-22.7555,Q,Q
2023-03-15 10:58:48:236,0,0.579217,-4.40886,-22.746,Q,Q
2023-03-15 10:58:48:246,0,0.58297,-4.41765,-22.7335,Q,Q
2023-03-15 10:58:48:256,0,0.585312,-4.4273,-22.7205,Q,Q
2023-03-15 10:58:48:266,0,0.587394,-4.43878,-22.7112,Q,Q
2023-03-15 10:58:48:276,0,0.588203,-4.44984,-22.6989,Q,Q
2023-03-15 10:58:48:286,0,0.588788,-4.45879,-22.6892,Q,Q
2023-03-15 10:58:48:296,0,0.583948,-4.46545,-22.6788,Q,Q
2023-03-15 10:58:48:306,0,0.579774,-4.47646,-22.666,Q,Q
2023-03-15 10:58:48:316,0,0.578718,-4.48156,-22.6516,Q,Q
2023-03-15 10:58:48:326,0,0.573467,-4.49003,-22.6396,Q,Q
2023-03-15 10:58:48:336,0,0.56524,-4.49924,-22.6283,Q,Q
2023-03-15 10:58:48:346,0,0.557269,-4.50792,-22.6231,Q,Q
2023-03-15 10:58:48:356,0,0.550145,-4.51099,-22.6157,Q,Q
2023-03-15 10:58:48:366,0,0.541366,-4.51535,-22.6108,Q,Q
2023-03-15 10:58:48:376,0,0.536184,-4.52078,-22.6053,Q,Q
2023-03-15 10:58:48:386,0,0.530775,-4.52373,-22.597,Q,Q
2023-03-15 10:58:48:396,0,0.530523,-4.52503,-22.5907,Q,Q
2023-03-15 10:58:48:406,0,0.536173,-4.52656,-22.5811,Q,Q
2023-03-15 10:58:48:416,0,0.544995,-4.5311,-22.5706,Q,Q
2023-03-15 10:58:48:426,0,0.551579,-4.53449,-22.5649,Q,Q
2023-03-15 10:58:48:436,0,0.559627,-4.53945,-22.5577,Q,Q
2023-03-15 10:58:48:446,0,0.562285,-4.54498,-22.5474,Q,Q
2023-03-15 10:58:48:456,0,0.562507,-4.54734,-22.539,Q,Q
2023-03-15 10:58:48:466,0,0.562248,-4.55043,-22.5311,Q,Q
2023-03-15 10:58:48:476,0,0.555668,-4.55403,-22.5216,Q,Q
2023-03-15 10:58:48:486,0,0.552044,-4.55655,-22.512,Q,Q
2023-03-15 10:58:48:496,0,0.550555,-4.5623,-22.5026,Q,Q
2023-03-15 10:58:48:506,0,0.54739,-4.57424,-22.4946,Q,Q
2023-03-15 10:58:48:516,0,0.545407,-4.58723,-22.4857,Q,Q
2023-03-15 10:58:48:526,0,0.5403,-4.58634,-22.4765,Q,Q
2023-03-15 10:58:48:536,0,0.544738,-4.58807,-22.4696,Q,Q
2023-03-15 10:58:48:546,0,0.545948,-4.59052,-22.4617,Q,Q
2023-03-15 10:58:48:556,0,0.544207,-4.59042,-22.4528,Q,Q
2023-03-15 10:58:48:566,0,0.539939,-4.5905,-22.4463,Q,Q
2023-03-15 10:58:48:576,0,0.533405,-4.59113,-22.442,Q,Q
2023-03-15 10:58:48:586,0,0.524224,-4.59346,-22.4358,Q,Q
2023-03-15 10:58:48:596,0,0.516362,-4.59592,-22.4341,Q,Q
2023-03-15 10:58:48:606,0,0.508181,-4.59987,-22.4376,Q,Q
2023-03-15 10:58:48:616,0,0.499931,-4.60198,-22.4403,Q,Q
2023-03-15 10:58:48:626,0,0.493944,-4.60625,-22.4471,Q,Q
2023-03-15 10:58:48:636,0,0.492993,-4.60925,-22.4491,Q,Q
2023-03-15 10:58:48:646,0,0.493478,-4.61594,-22.4519,Q,Q
2023-03-15 10:58:48:656,0,0.490945,-4.63166,-22.4508,Q,Q
2023-03-15 10:58:48:666,0,0.479467,-4.64201,-22.4523,Q,Q
2023-03-15 10:58:48:676,0,0.473463,-4.64051,-22.4541,Q,Q
2023-03-15 10:58:48:686,0,0.468098,-4.63685,-22.4596,Q,Q
2023-03-15 10:58:48:696,0,0.457785,-4.62755,-22.4643,Q,Q
2023-03-15 10:58:48:706,0,0.446391,-4.61405,-22.4652,Q,Q
2023-03-15 10:58:48:716,0,0.429779,-4.60662,-22.4643,Q,Q
2023-03-15 10:58:48:726,0,0.417917,-4.6018,-22.4578,Q,Q
2023-03-15 10:58:48:736,0,0.40974,-4.60211,-22.446,Q,Q
2023-03-15 10:58:48:745,0,0.405699,-4.60671,-22.4322,Q,Q
2023-03-15 10:58:48:756,0,0.401693,-4.61156,-22.4203,Q,Q
2023-03-15 10:58:48:765,0,0.396769,-4.61715,-22.4078,Q,Q
2023-03-15 10:58:48:776,0,0.392574,-4.61974,-22.3974,Q,Q
2023-03-15 10:58:48:786,0,0.387864,-4.62163,-22.3876,Q,Q
2023-03-15 10:58:48:796,0,0.382574,-4.63048,-22.3744,Q,Q
2023-03-15 10:58:48:806,0,0.37917,-4.63726,-22.359,Q,Q
2023-03-15 10:58:48:815,0,0.368908,-4.64945,-22.3437,Q,Q
2023-03-15 10:58:48:825,0,0.356467,-4.65866,-22.3321,Q,Q
2023-03-15 10:58:48:836,0,0.341489,-4.65899,-22.3231,Q,Q
2023-03-15 10:58:48:845,0,0.331417,-4.65532,-22.3125,Q,Q
2023-03-15 10:58:48:856,0,0.325984,-4.65429,-22.3031,Q,Q
2023-03-15 10:58:48:866,0,0.316436,-4.65641,-22.2977,Q,Q
2023-03-15 10:58:48:876,0,0.30443,-4.65892,-22.2974,Q,Q
2023-03-15 10:58:48:886,0,0.29417,-4.65993,-22.2976,Q,Q
2023-03-15 10:58:48:896,0,0.284171,-4.67103,-22.2989,Q,Q
2023-03-15 10:58:48:906,0,0.273355,-4.6873,-22.3005,Q,Q
2023-03-15 10:58:48:916,0,0.257052,-4.69884,-22.303,Q,Q
2023-03-15 10:58:48:926,0,0.242645,-4.70381,-22.3048,Q,Q
2023-03-15 10:58:48:936,0,0.234234,-4.7011,-22.3044,Q,Q
2023-03-15 10:58:48:946,0,0.226266,-4.70015,-22.3042,Q,Q
2023-03-15 10:58:48:956,0,0.218028,-4.70231,-22.3033,Q,Q
2023-03-15 10:58:48:966,0,0.206088,-4.69878,-22.3016,Q,Q
2023-03-15 10:58:48:976,0,0.197461,-4.6948,-22.2986,Q,Q
2023-03-15 10:58:48:986,0,0.186348,-4.69203,-22.2943,Q,Q
2023-03-15 10:58:48:996,0,0.178117,-4.69313,-22.2873,Q,Q
2023-03-15 10:58:49:6,0,0.173248,-4.69292,-22.2799,Q,Q
2023-03-15 10:58:49:16,0,0.163935,-4.69355,-22.2745,Q,Q
2023-03-15 10:58:49:26,0,0.151522,-4.69287,-22.2724,Q,Q
2023-03-15 10:58:49:36,0,0.144603,-4.68842,-22.2747,Q,Q
2023-03-15 10:58:49:46,0,0.134574,-4.68425,-22.2773,Q,Q
2023-03-15 10:58:49:56,0,0.126652,-4.67918,-22.2796,Q,Q
2023-03-15 10:58:49:66,0,0.119791,-4.6746,-22.2806,Q,Q
2023-03-15 10:58:49:76,0,0.115065,-4.67374,-22.2843,Q,Q
2023-03-15 10:58:49:86,0,0.109228,-4.67382,-22.2865,Q,Q
2023-03-15 10:58:49:96,0,0.102642,-4.67587,-22.2912,Q,Q
2023-03-15 10:58:49:106,0,0.0982748,-4.6764,-22.2937,Q,Q
2023-03-15 10:58:49:116,0,0.0956167,-4.67646,-22.2916,Q,Q
2023-03-15 10:58:49:125,0,0.0935989,-4.67851,-22.2934,Q,Q
2023-03-15 10:58:49:135,0,0.090919,-4.68104,-22.2895,Q,Q
2023-03-15 10:58:49:146,0,0.0859601,-4.683,-22.289,Q,Q
2023-03-15 10:58:49:155,0,0.0865007,-4.68088,-22.2886,Q,Q
2023-03-15 10:58:49:166,0,0.0845077,-4.68147,-22.2862,Q,Q
2023-03-15 10:58:49:176,0,0.0874364,-4.67901,-22.2767,Q,Q
2023-03-15 10:58:49:186,0,0.089378,-4.67983,-22.2691,Q,Q
2023-03-15 10:58:49:196,0,0.0912699,-4.68038,-22.2621,Q,Q
2023-03-15 10:58:49:206,0,0.0906217,-4.68049,-22.2536,Q,Q
2023-03-15 10:58:49:216,0,0.0921847,-4.67954,-22.2491,Q,Q
2023-03-15 10:58:49:226,0,0.0924466,-4.679,-22.2453,Q,Q
2023-03-15 10:58:49:236,0,0.0964249,-4.67635,-22.24,Q,Q
2023-03-15 10:58:49:246,0,0.0998265,-4.67809,-22.2323,Q,Q
2023-03-15 10:58:49:256,0,0.0999116,-4.67939,-22.2234,Q,Q
2023-03-15 10:58:49:266,0,0.0975327,-4.67877,-22.2224,Q,Q
2023-03-15 10:58:49:276,0,0.0964639,-4.67892,-22.2213,Q,Q
2023-03-15 10:58:49:286,0,0.0932432,-4.67782,-22.2223,Q,Q
2023-03-15 10:58:49:296,0,0.0875989,-4.67748,-22.2228,Q,Q
2023-03-15 10:58:49:306,0,0.0827188,-4.6767,-22.2241,Q,Q
2023-03-15 10:58:49:316,0,0.0749563,-4.67617,-22.2256,Q,Q
2023-03-15 10:58:49:326,0,0.0735531,-4.67816,-22.225,Q,Q
2023-03-15 10:58:49:336,0,0.0669601,-4.67556,-22.2243,Q,Q
2023-03-15 10:58:49:346,0,0.0609225,-4.67625,-22.2227,Q,Q
2023-03-15 10:58:49:356,0,0.0540616,-4.67343,-22.2227,Q,Q
2023-03-15 10:58:49:365,0,0.0489035,-4.67002,-22.2196,Q,Q
2023-03-15 10:58:49:376,0,0.0473486,-4.66803,-22.2144,Q,Q
2023-03-15 10:58:49:385,0,0.0515803,-4.66084,-22.2073,Q,Q
2023-03-15 10:58:49:395,0,0.0594354,-4.65552,-22.1945,Q,Q
2023-03-15 10:58:49:406,0,0.0688808,-4.64969,-22.1801,Q,Q
2023-03-15 10:58:49:415,0,0.0780088,-4.64496,-22.1628,Q,Q
2023-03-15 10:58:49:426,0,0.0855718,-4.63912,-22.1471,Q,Q
2023-03-15 10:58:49:436,0,0.0926723,-4.63123,-22.131,Q,Q
2023-03-15 10:58:49:446,0,0.09871,-4.62974,-22.1157,Q,Q
2023-03-15 10:58:49:456,0,0.105923,-4.62351,-22.0978,Q,Q
2023-03-15 10:58:49:466,0,0.112283,-4.62024,-22.0833,Q,Q
2023-03-15 10:58:49:476,0,0.120991,-4.6141,-22.0689,Q,Q
2023-03-15 10:58:49:486,0,0.129681,-4.60683,-22.0546,Q,Q
2023-03-15 10:58:49:496,0,0.142697,-4.59952,-22.0356,Q,Q
2023-03-15 10:58:49:505,0,0.158674,-4.59598,-22.016,Q,Q
2023-03-15 10:58:49:516,0,0.172895,-4.59376,-21.9961,Q,Q
2023-03-15 10:58:49:526,0,0.185054,-4.60017,-21.976,Q,Q
2023-03-15 10:58:49:536,0,0.196753,-4.60161,-21.9578,Q,Q
2023-03-15 10:58:49:546,0,0.20805,-4.60484,-21.9406,Q,Q
2023-03-15 10:58:49:555,0,0.219813,-4.61107,-21.9255,Q,Q
2023-03-15 10:58:49:565,0,0.235897,-4.62173,-21.9117,Q,Q
2023-03-15 10:58:49:576,0,0.254167,-4.63621,-21.898,Q,Q
2023-03-15 10:58:49:585,0,0.272929,-4.65562,-21.8841,Q,Q
2023-03-15 10:58:49:596,0,0.28679,-4.67778,-21.8781,Q,Q
2023-03-15 10:58:49:606,0,0.291534,-4.69139,-21.8762,Q,Q
2023-03-15 10:58:49:616,0,0.285188,-4.7049,-21.8752,Q,Q
2023-03-15 10:58:49:626,0,0.273829,-4.7083,-21.8807,Q,Q
2023-03-15 10:58:49:636,0,0.258311,-4.71284,-21.8879,Q,Q
2023-03-15 10:58:49:646,0,0.241385,-4.71737,-21.8956,Q,Q
2023-03-15 10:58:49:656,0,0.224761,-4.72233,-21.9001,Q,Q
2023-03-15 10:58:49:666,0,0.215587,-4.73009,-21.9049,Q,Q
2023-03-15 10:58:49:676,0,0.206555,-4.73717,-21.9092,Q,Q
2023-03-15 10:58:49:686,0,0.206325,-4.75328,-21.912,Q,Q
2023-03-15 10:58:49:696,0,0.205384,-4.76539,-21.9091,Q,Q
2023-03-15 10:58:49:705,0,0.206645,-4.77369,-21.9058,Q,Q
2023-03-15 10:58:49:716,0,0.20721,-4.78567,-21.899,Q,Q
2023-03-15 10:58:49:726,0,0.20117,-4.79248,-21.8975,Q,Q
2023-03-15 10:58:49:736,0,0.189798,-4.79664,-21.8985,Q,Q
2023-03-15 10:58:49:746,0,0.173837,-4.80211,-21.9033,Q,Q
2023-03-15 10:58:49:756,0,0.14461,-4.81802,-21.914,Q,Q
2023-03-15 10:58:49:765,0,0.111333,-4.81853,-21.9265,Q,Q
2023-03-15 10:58:49:776,0,0.0808577,-4.80686,-21.9437,Q,Q
2023-03-15 10:58:49:786,0,0.0642715,-4.78496,-21.9596,Q,Q
2023-03-15 10:58:49:796,0,0.056869,-4.76543,-21.9695,Q,Q
2023-03-15 10:58:49:806,0,0.0565435,-4.75089,-21.9764,Q,Q
2023-03-15 10:58:49:816,0,0.0515929,-4.73665,-21.9794,Q,Q
2023-03-15 10:58:49:825,0,0.0499755,-4.72719,-21.9821,Q,Q
2023-03-15 10:58:49:836,0,0.0464278,-4.72055,-21.9831,Q,Q
2023-03-15 10:58:49:846,0,0.0401288,-4.7153,-21.981,Q,Q
2023-03-15 10:58:49:856,0,0.0335642,-4.71075,-21.9771,Q,Q
2023-03-15 10:58:49:866,0,0.0245967,-4.70372,-21.9693,Q,Q
2023-03-15 10:58:49:875,0,0.0158121,-4.70198,-21.9624,Q,Q
2023-03-15 10:58:49:885,0,0.00788344,-4.69691,-21.9534,Q,Q
2023-03-15 10:58:49:896,0,-0.00331241,-4.68776,-21.9502,Q,Q
2023-03-15 10:58:49:905,0,-0.0188549,-4.68146,-21.9434,Q,Q
2023-03-15 10:58:49:916,0,-0.0311687,-4.67848,-21.9369,Q,Q
2023-03-15 10:58:49:925,0,-0.042508,-4.67726,-21.9305,Q,Q
2023-03-15 10:58:49:936,0,-0.0473461,-4.67114,-21.9241,Q,Q
2023-03-15 10:58:49:946,0,-0.0544447,-4.6675,-21.9131,Q,Q
2023-03-15 10:58:49:956,0,-0.0575054,-4.6586,-21.9057,Q,Q
2023-03-15 10:58:49:966,0,-0.0673215,-4.65289,-21.8949,Q,Q
2023-03-15 10:58:49:975,0,-0.0787136,-4.64284,-21.8869,Q,Q
2023-03-15 10:58:49:985,0,-0.0975365,-4.63267,-21.8756,Q,Q
2023-03-15 10:58:49:996,0,-0.114344,-4.62214,-21.8658,Q,Q
2023-03-15 10:58:50:5,0,-0.137781,-4.61523,-21.8609,Q,Q
2023-03-15 10:58:50:15,0,-0.163713,-4.61066,-21.8589,Q,Q
2023-03-15 10:58:50:25,0,-0.184866,-4.60125,-21.8575,Q,Q
2023-03-15 10:58:50:36,0,-0.195543,-4.59538,-21.8611,Q,Q
2023-03-15 10:58:50:45,0,-0.199989,-4.59493,-21.8668,Q,Q
2023-03-15 10:58:50:55,0,-0.197892,-4.59362,-21.8689,Q,Q
2023-03-15 10:58:50:65,0,-0.185899,-4.59214,-21.8665,Q,Q
2023-03-15 10:58:50:75,0,-0.170533,-4.59304,-21.8645,Q,Q
2023-03-15 10:58:50:85,0,-0.158243,-4.59306,-21.8607,Q,Q
2023-03-15 10:58:50:95,0,-0.148387,-4.59177,-21.8595,Q,Q
2023-03-15 10:58:50:105,0,-0.149394,-4.58529,-21.8569,Q,Q
2023-03-15 10:58:50:115,0,-0.155217,-4.58081,-21.8503,Q,Q
2023-03-15 10:58:50:125,0,-0.165003,-4.58016,-21.847,Q,Q
2023-03-15 10:58:50:135,0,-0.174132,-4.5804,-21.8391,Q,Q
2023-03-15 10:58:50:145,0,-0.185222,-4.57695,-21.834,Q,Q
2023-03-15 10:58:50:155,0,-0.193981,-4.57755,-21.8308,Q,Q
2023-03-15 10:58:50:165,0,-0.202301,-4.57674,-21.8232,Q,Q
2023-03-15 10:58:50:175,0,-0.209382,-4.57568,-21.8178,Q,Q
2023-03-15 10:58:50:185,0,-0.219112,-4.57489,-21.8154,Q,Q
2023-03-15 10:58:50:195,0,-0.231438,-4.56989,-21.816,Q,Q
2023-03-15 10:58:50:205,0,-0.239696,-4.56354,-21.8212,Q,Q
2023-03-15 10:58:50:215,0,-0.25164,-4.55935,-21.8235,Q,Q
2023-03-15 10:58:50:225,0,-0.264793,-4.56962,-21.8269,Q,Q
2023-03-15 10:58:50:235,0,-0.286891,-4.573,-21.8319,Q,Q
2023-03-15 10:58:50:245,0,-0.310674,-4.57206,-21.8347,Q,Q
2023-03-15 10:58:50:255,0,-0.332752,-4.57193,-21.8381,Q,Q
2023-03-15 10:58:50:265,0,-0.353613,-4.5714,-21.8404,Q,Q
2023-03-15 10:58:50:275,0,-0.375054,-4.5696,-21.8433,Q,Q
2023-03-15 10:58:50:285,0,-0.395638,-4.56773,-21.8445,Q,Q
2023-03-15 10:58:50:295,0,-0.415113,-4.5699,-21.8438,Q,Q
2023-03-15 10:58:50:305,0,-0.434806,-4.57105,-21.8414,Q,Q
2023-03-15 10:58:50:315,0,-0.451189,-4.58324,-21.8361,Q,Q
2023-03-15 10:58:50:325,0,-0.471048,-4.5975,-21.8338,Q,Q
2023-03-15 10:58:50:335,0,-0.494442,-4.60815,-21.8326,Q,Q
2023-03-15 10:58:50:345,0,-0.518895,-4.61388,-21.8311,Q,Q
2023-03-15 10:58:50:355,0,-0.537825,-4.61173,-21.8288,Q,Q
2023-03-15 10:58:50:365,0,-0.553441,-4.60509,-21.8224,Q,Q
2023-03-15 10:58:50:375,0,-0.568281,-4.60162,-21.8218,Q,Q
2023-03-15 10:58:50:385,0,-0.582021,-4.60072,-21.8175,Q,Q
2023-03-15 10:58:50:395,0,-0.590921,-4.59992,-21.8154,Q,Q
2023-03-15 10:58:50:405,0,-0.6022,-4.59855,-21.8123,Q,Q
2023-03-15 10:58:50:415,0,-0.609701,-4.60059,-21.808,Q,Q
2023-03-15 10:58:50:425,0,-0.612074,-4.60413,-21.8055,Q,Q
2023-03-15 10:58:50:435,0,-0.611029,-4.60619,-21.8046,Q,Q
2023-03-15 10:58:50:445,0,-0.607655,-4.61079,-21.7986,Q,Q
2023-03-15 10:58:50:455,0,-0.60584,-4.61824,-21.7945,Q,Q
2023-03-15 10:58:50:465,0,-0.605662,-4.6213,-21.7913,Q,Q
2023-03-15 10:58:50:475,0,-0.603706,-4.61987,-21.7868,Q,Q
2023-03-15 10:58:50:485,0,-0.601344,-4.62393,-21.783,Q,Q
2023-03-15 10:58:50:495,0,-0.599026,-4.62498,-21.7788,Q,Q
2023-03-15 10:58:50:505,0,-0.602492,-4.61917,-21.7757,Q,Q
2023-03-15 10:58:50:515,0,-0.606477,-4.61355,-21.7748,Q,Q
2023-03-15 10:58:50:525,0,-0.612444,-4.60641,-21.7738,Q,Q
2023-03-15 10:58:50:535,0,-0.617049,-4.59665,-21.7754,Q,Q
2023-03-15 10:58:50:545,0,-0.618027,-4.59241,-21.7782,Q,Q
2023-03-15 10:58:50:555,0,-0.615273,-4.59029,-21.7752,Q,Q
2023-03-15 10:58:50:565,0,-0.612374,-4.59772,-21.7728,Q,Q
2023-03-15 10:58:50:575,0,-0.605923,-4.60883,-21.7658,Q,Q
2023-03-15 10:58:50:585,0,-0.601574,-4.61952,-21.7631,Q,Q
2023-03-15 10:58:50:595,0,-0.598873,-4.63043,-21.7637,Q,Q
2023-03-15 10:58:50:605,0,-0.595552,-4.63676,-21.7614,Q,Q
2023-03-15 10:58:50:615,0,-0.591407,-4.63777,-21.7615,Q,Q
2023-03-15 10:58:50:625,0,-0.586333,-4.64179,-21.7595,Q,Q
2023-03-15 10:58:50:635,0,-0.584411,-4.6419,-21.7528,Q,Q
2023-03-15 10:58:50:645,0,-0.581321,-4.63958,-21.7487,Q,Q
2023-03-15 10:58:50:655,0,-0.582118,-4.63638,-21.7454,Q,Q
2023-03-15 10:58:50:665,0,-0.581575,-4.63441,-21.7444,Q,Q
2023-03-15 10:58:50:675,0,-0.585181,-4.63335,-21.7459,Q,Q
2023-03-15 10:58:50:685,0,-0.588077,-4.63376,-21.7497,Q,Q
2023-03-15 10:58:50:695,0,-0.589123,-4.63651,-21.7502,Q,Q
2023-03-15 10:58:50:705,0,-0.593582,-4.64015,-21.7577,Q,Q
2023-03-15 10:58:50:715,0,-0.595795,-4.64306,-21.7651,Q,Q
2023-03-15 10:58:50:725,0,-0.596628,-4.64732,-21.7743,Q,Q
2023-03-15 10:58:50:735,0,-0.597536,-4.65548,-21.7855,Q,Q
2023-03-15 10:58:50:745,0,-0.592701,-4.65835,-21.7917,Q,Q
2023-03-15 10:58:50:755,0,-0.586809,-4.66078,-21.7968,Q,Q
2023-03-15 10:58:50:765,0,-0.581339,-4.66585,-21.8012,Q,Q
2023-03-15 10:58:50:775,0,-0.578478,-4.66758,-21.8031,Q,Q
2023-03-15 10:58:50:785,0,-0.576135,-4.66824,-21.8063,Q,Q
2023-03-15 10:58:50:795,0,-0.57327,-4.66451,-21.8084,Q,Q
2023-03-15 10:58:50:805,0,-0.573865,-4.66307,-21.8124,Q,Q
2023-03-15 10:58:50:815,0,-0.572017,-4.6611,-21.8138,Q,Q
2023-03-15 10:58:50:825,0,-0.569734,-4.66513,-21.8097,Q,Q
2023-03-15 10:58:50:835,0,-0.566516,-4.66639,-21.8036,Q,Q
2023-03-15 10:58:50:845,0,-0.560583,-4.67131,-21.8014,Q,Q
2023-03-15 10:58:50:855,0,-0.552921,-4.67655,-21.7977,Q,Q
2023-03-15 10:58:50:865,0,-0.546917,-4.67905,-21.7938,Q,Q
2023-03-15 10:58:50:875,0,-0.541733,-4.67944,-21.7883,Q,Q
2023-03-15 10:58:50:885,0,-0.539408,-4.67943,-21.7853,Q,Q
2023-03-15 10:58:50:895,0,-0.539369,-4.67818,-21.7817,Q,Q
2023-03-15 10:58:50:905,0,-0.540136,-4.67717,-21.7758,Q,Q
2023-03-15 10:58:50:915,0,-0.540448,-4.67533,-21.7725,Q,Q
2023-03-15 10:58:50:925,0,-0.539472,-4.67764,-21.7662,Q,Q
2023-03-15 10:58:50:935,0,-0.535406,-4.68044,-21.7596,Q,Q
2023-03-15 10:58:50:945,0,-0.534139,-4.683,-21.7562,Q,Q
2023-03-15 10:58:50:955,0,-0.531949,-4.68061,-21.7534,Q,Q
2023-03-15 10:58:50:965,0,-0.532268,-4.68383,-21.751,Q,Q
2023-03-15 10:58:50:975,0,-0.535092,-4.68387,-21.7494,Q,Q
2023-03-15 10:58:50:985,0,-0.540968,-4.68747,-21.7485,Q,Q
2023-03-15 10:58:50:995,0,-0.546547,-4.69171,-21.7452,Q,Q
2023-03-15 10:58:51:5,0,-0.551565,-4.69618,-21.7383,Q,Q
2023-03-15 10:58:51:15,0,-0.553884,-4.70296,-21.7324,Q,Q
2023-03-15 10:58:51:25,0,-0.555865,-4.7085,-21.728,Q,Q
2023-03-15 10:58:51:35,0,-0.556067,-4.71705,-21.7217,Q,Q
2023-03-15 10:58:51:45,0,-0.553668,-4.71845,-21.7123,Q,Q
2023-03-15 10:58:51:55,0,-0.556273,-4.72128,-21.7013,Q,Q
2023-03-15 10:58:51:65,0,-0.557864,-4.72018,-21.6905,Q,Q
2023-03-15 10:58:51:75,0,-0.562288,-4.71953,-21.6794,Q,Q
2023-03-15 10:58:51:85,0,-0.565434,-4.72377,-21.67,Q,Q
2023-03-15 10:58:51:95,0,-0.568587,-4.72557,-21.6657,Q,Q
2023-03-15 10:58:51:105,0,-0.573912,-4.72436,-21.6591,Q,Q
2023-03-15 10:58:51:115,0,-0.581378,-4.7214,-21.6545,Q,Q
2023-03-15 10:58:51:125,0,-0.593464,-4.71888,-21.6499,Q,Q
2023-03-15 10:58:51:135,0,-0.607458,-4.71738,-21.6489,Q,Q
2023-03-15 10:58:51:145,0,-0.620074,-4.72155,-21.6462,Q,Q
2023-03-15 10:58:51:155,0,-0.638701,-4.73104,-21.6426,Q,Q
2023-03-15 10:58:51:165,0,-0.657308,-4.72961,-21.6392,Q,Q
2023-03-15 10:58:51:175,0,-0.676498,-4.72082,-21.6363,Q,Q
2023-03-15 10:58:51:185,0,-0.695489,-4.71559,-21.6281,Q,Q
2023-03-15 10:58:51:195,0,-0.719662,-4.71042,-21.6191,Q,Q
2023-03-15 10:58:51:205,0,-0.749501,-4.70428,-21.6095,Q,Q
2023-03-15 10:58:51:215,0,-0.782719,-4.69759,-21.5945,Q,Q
2023-03-15 10:58:51:225,0,-0.811273,-4.69258,-21.5775,Q,Q
2023-03-15 10:58:51:235,0,-0.842607,-4.69723,-21.5594,Q,Q
2023-03-15 10:58:51:245,0,-0.878106,-4.71327,-21.5467,Q,Q
2023-03-15 10:58:51:255,0,-0.919886,-4.72096,-21.5351,Q,Q
2023-03-15 10:58:51:265,0,-0.951418,-4.72248,-21.5201,Q,Q
2023-03-15 10:58:51:275,0,-0.977841,-4.71379,-21.503,Q,Q
2023-03-15 10:58:51:285,0,-0.997018,-4.70357,-21.4852,Q,Q
2023-03-15 10:58:51:295,0,-1.01844,-4.6964,-21.4657,Q,Q
2023-03-15 10:58:51:305,0,-1.04058,-4.69194,-21.4482,Q,Q
2023-03-15 10:58:51:315,0,-1.06547,-4.68759,-21.4345,Q,Q
2023-03-15 10:58:51:325,0,-1.0812,-4.68659,-21.422,Q,Q
2023-03-15 10:58:51:335,0,-1.09614,-4.68669,-21.4141,Q,Q
2023-03-15 10:58:51:345,0,-1.10858,-4.68618,-21.4088,Q,Q
2023-03-15 10:58:51:355,0,-1.11841,-4.68694,-21.4064,Q,Q
2023-03-15 10:58:51:365,0,-1.12593,-4.68283,-21.404,Q,Q
2023-03-15 10:58:51:375,0,-1.12935,-4.68434,-21.4028,Q,Q
2023-03-15 10:58:51:385,0,-1.13525,-4.69339,-21.4051,Q,Q
2023-03-15 10:58:51:395,0,-1.14469,-4.70361,-21.4031,Q,Q
2023-03-15 10:58:51:405,0,-1.15224,-4.70483,-21.4066,Q,Q
2023-03-15 10:58:51:415,0,-1.15665,-4.69536,-21.4101,Q,Q
2023-03-15 10:58:51:425,0,-1.15577,-4.68807,-21.4111,Q,Q
2023-03-15 10:58:51:435,0,-1.1593,-4.67928,-21.4131,Q,Q
2023-03-15 10:58:51:445,0,-1.15937,-4.6685,-21.416,Q,Q
2023-03-15 10:58:51:455,0,-1.16079,-4.65847,-21.4164,Q,Q
2023-03-15 10:58:51:465,0,-1.15715,-4.65338,-21.4135,Q,Q
2023-03-15 10:58:51:475,0,-1.15056,-4.65226,-21.4067,Q,Q
2023-03-15 10:58:51:485,0,-1.13956,-4.65576,-21.3969,Q,Q
2023-03-15 10:58:51:495,0,-1.12982,-4.656,-21.3884,Q,Q
2023-03-15 10:58:51:504,0,-1.11541,-4.66015,-21.3793,Q,Q
2023-03-15 10:58:51:514,0,-1.10547,-4.65878,-21.3695,Q,Q
2023-03-15 10:58:51:524,0,-1.09122,-4.65736,-21.3635,Q,Q
2023-03-15 10:58:51:535,0,-1.07748,-4.65719,-21.3543,Q,Q
2023-03-15 10:58:51:545,0,-1.06686,-4.653,-21.3424,Q,Q
2023-03-15 10:58:51:555,0,-1.05429,-4.64898,-21.3325,Q,Q
2023-03-15 10:58:51:565,0,-1.04026,-4.64249,-21.323,Q,Q
2023-03-15 10:58:51:575,0,-1.03095,-4.64069,-21.3106,Q,Q
2023-03-15 10:58:51:585,0,-1.02033,-4.63481,-21.3032,Q,Q
2023-03-15 10:58:51:594,0,-1.01251,-4.62575,-21.295,Q,Q
2023-03-15 10:58:51:604,0,-1.00552,-4.61472,-21.29,Q,Q
2023-03-15 10:58:51:614,0,-0.997105,-4.6097,-21.279,Q,Q
2023-03-15 10:58:51:624,0,-0.985031,-4.60445,-21.2653,Q,Q
2023-03-15 10:58:51:634,0,-0.970503,-4.60483,-21.2484,Q,Q
2023-03-15 10:58:51:645,0,-0.955745,-4.60826,-21.2316,Q,Q
2023-03-15 10:58:51:655,0,-0.935356,-4.61165,-21.2104,Q,Q
2023-03-15 10:58:51:664,0,-0.912711,-4.6188,-21.1832,Q,Q
2023-03-15 10:58:51:675,0,-0.891169,-4.62236,-21.1546,Q,Q
2023-03-15 10:58:51:685,0,-0.867427,-4.62781,-21.1313,Q,Q
2023-03-15 10:58:51:695,0,-0.845517,-4.62821,-21.1055,Q,Q
2023-03-15 10:58:51:705,0,-0.822809,-4.6326,-21.0771,Q,Q
2023-03-15 10:58:51:715,0,-0.798175,-4.63069,-21.0476,Q,Q
2023-03-15 10:58:51:725,0,-0.769001,-4.63391,-21.0191,Q,Q
2023-03-15 10:58:51:735,0,-0.742566,-4.63973,-20.9898,Q,Q
2023-03-15 10:58:51:745,0,-0.715141,-4.65007,-20.9611,Q,Q
2023-03-15 10:58:51:755,0,-0.68563,-4.66063,-20.9284,Q,Q
2023-03-15 10:58:51:765,0,-0.657569,-4.67354,-20.8965,Q,Q
2023-03-15 10:58:51:775,0,-0.634892,-4.67842,-20.8658,Q,Q
2023-03-15 10:58:51:785,0,-0.6101,-4.67834,-20.8396,Q,Q
2023-03-15 10:58:51:795,0,-0.587317,-4.6848,-20.812,Q,Q
2023-03-15 10:58:51:804,0,-0.564465,-4.69236,-20.7891,Q,Q
2023-03-15 10:58:51:815,0,-0.543508,-4.69857,-20.7681,Q,Q
2023-03-15 10:58:51:825,0,-0.523964,-4.70611,-20.7503,Q,Q
2023-03-15 10:58:51:835,0,-0.505514,-4.71273,-20.7327,Q,Q
2023-03-15 10:58:51:845,0,-0.489212,-4.71502,-20.7195,Q,Q
2023-03-15 10:58:51:855,0,-0.468348,-4.71625,-20.7025,Q,Q
2023-03-15 10:58:51:864,0,-0.446568,-4.7219,-20.6885,Q,Q
2023-03-15 10:58:51:874,0,-0.428353,-4.72836,-20.6784,Q,Q
2023-03-15 10:58:51:884,0,-0.411664,-4.73202,-20.6649,Q,Q
2023-03-15 10:58:51:894,0,-0.392447,-4.73765,-20.6546,Q,Q
2023-03-15 10:58:51:904,0,-0.373496,-4.74408,-20.6387,Q,Q
2023-03-15 10:58:51:914,0,-0.351004,-4.74664,-20.6219,Q,Q
2023-03-15 10:58:51:924,0,-0.326949,-4.75532,-20.6014,Q,Q
2023-03-15 10:58:51:934,0,-0.304321,-4.76328,-20.581,Q,Q
2023-03-15 10:58:51:944,0,-0.285042,-4.76741,-20.5603,Q,Q
2023-03-15 10:58:51:954,0,-0.263544,-4.77702,-20.5383,Q,Q
2023-03-15 10:58:51:964,0,-0.239478,-4.78648,-20.515,Q,Q
2023-03-15 10:58:51:974,0,-0.224338,-4.79371,-20.4966,Q,Q
2023-03-15 10:58:51:984,0,-0.20669,-4.7992,-20.4748,Q,Q
2023-03-15 10:58:51:994,0,-0.189506,-4.80627,-20.4561,Q,Q
2023-03-15 10:58:52:4,0,-0.170843,-4.81285,-20.4375,Q,Q
2023-03-15 10:58:52:14,0,-0.156974,-4.81708,-20.4199,Q,Q
2023-03-15 10:58:52:24,0,-0.140799,-4.81573,-20.4063,Q,Q
2023-03-15 10:58:52:34,0,-0.125202,-4.81656,-20.3929,Q,Q
2023-03-15 10:58:52:44,0,-0.113789,-4.81752,-20.3797,Q,Q
2023-03-15 10:58:52:54,0,-0.102752,-4.82013,-20.3641,Q,Q
2023-03-15 10:58:52:64,0,-0.0911803,-4.82709,-20.3519,Q,Q
2023-03-15 10:58:52:74,0,-0.0804773,-4.83256,-20.3409,Q,Q
2023-03-15 10:58:52:84,0,-0.0693054,-4.83854,-20.3273,Q,Q
2023-03-15 10:58:52:94,0,-0.0576871,-4.84237,-20.3177,Q,Q
2023-03-15 10:58:52:104,0,-0.0440998,-4.84743,-20.3085,Q,Q
2023-03-15 10:58:52:114,0,-0.0293413,-4.84634,-20.2992,Q,Q
2023-03-15 10:58:52:124,0,-0.0162934,-4.84008,-20.2915,Q,Q
2023-03-15 10:58:52:134,0,-0.00409724,-4.83725,-20.285,Q,Q
2023-03-15 10:58:52:144,0,0.00542245,-4.83608,-20.2764,Q,Q
2023-03-15 10:58:52:154,0,0.015347,-4.83936,-20.2693,Q,Q
2023-03-15 10:58:52:164,0,0.0211248,-4.84254,-20.2609,Q,Q
2023-03-15 10:58:52:174,0,0.0254344,-4.8445,-20.2549,Q,Q
2023-03-15 10:58:52:184,0,0.0309291,-4.84556,-20.2496,Q,Q
2023-03-15 10:58:52:194,0,0.0382181,-4.85051,-20.2417,Q,Q
2023-03-15 10:58:52:204,0,0.044685,-4.853,-20.235,Q,Q
2023-03-15 10:58:52:214,0,0.0493246,-4.85443,-20.2283,Q,Q
2023-03-15 10:58:52:224,0,0.0556163,-4.85979,-20.2256,Q,Q
2023-03-15 10:58:52:234,0,0.0585666,-4.86208,-20.2229,Q,Q
2023-03-15 10:58:52:244,0,0.0622339,-4.85945,-20.2228,Q,Q
2023-03-15 10:58:52:254,0,0.0630938,-4.85974,-20.2234,Q,Q
2023-03-15 10:58:52:264,0,0.0622051,-4.86037,-20.2215,Q,Q
2023-03-15 10:58:52:274,0,0.0594121,-4.86008,-20.2218,Q,Q
2023-03-15 10:58:52:284,0,0.0581815,-4.85848,-20.2266,Q,Q
2023-03-15 10:58:52:294,0,0.053968,-4.85824,-20.2273,Q,Q
2023-03-15 10:58:52:304,0,0.0507193,-4.86161,-20.2271,Q,Q
2023-03-15 10:58:52:314,0,0.0473856,-4.86094,-20.2257,Q,Q
2023-03-15 10:58:52:324,0,0.0414783,-4.85669,-20.2273,Q,Q
2023-03-15 10:58:52:334,0,0.0347258,-4.84948,-20.2299,Q,Q
2023-03-15 10:58:52:344,0,0.0293938,-4.8399,-20.2349,Q,Q
2023-03-15 10:58:52:354,0,0.0246727,-4.83113,-20.2464,Q,Q
2023-03-15 10:58:52:364,0,0.0219769,-4.82312,-20.2534,Q,Q
2023-03-15 10:58:52:374,0,0.019701,-4.82216,-20.2531,Q,Q
2023-03-15 10:58:52:384,0,0.0172229,-4.82418,-20.2518,Q,Q
2023-03-15 10:58:52:394,0,0.01314,-4.82821,-20.2522,Q,Q
2023-03-15 10:58:52:404,0,0.00675627,-4.83027,-20.2509,Q,Q
2023-03-15 10:58:52:414,0,-0.00271706,-4.83206,-20.2533,Q,Q
2023-03-15 10:58:52:424,0,-0.0111009,-4.82654,-20.2556,Q,Q
2023-03-15 10:58:52:434,0,-0.0219339,-4.82208,-20.2608,Q,Q
2023-03-15 10:58:52:444,0,-0.0327655,-4.8197,-20.265,Q,Q
2023-03-15 10:58:52:454,0,-0.0401699,-4.81071,-20.2672,Q,Q
2023-03-15 10:58:52:464,0,-0.0472084,-4.80556,-20.2672,Q,Q
2023-03-15 10:58:52:474,0,-0.0544,-4.79836,-20.2718,Q,Q
2023-03-15 10:58:52:484,0,-0.0706824,-4.78504,-20.2786,Q,Q
2023-03-15 10:58:52:494,0,-0.0807604,-4.77585,-20.2867,Q,Q
2023-03-15 10:58:52:504,0,-0.0890137,-4.76455,-20.2943,Q,Q
2023-03-15 10:58:52:514,0,-0.0953193,-4.75385,-20.3029,Q,Q
2023-03-15 10:58:52:524,0,-0.100367,-4.74699,-20.3128,Q,Q
2023-03-15 10:58:52:534,0,-0.101878,-4.74148,-20.3228,Q,Q
2023-03-15 10:58:52:544,0,-0.099693,-4.73868,-20.3329,Q,Q
2023-03-15 10:58:52:554,0,-0.0992542,-4.73308,-20.3445,Q,Q
2023-03-15 10:58:52:564,0,-0.09896,-4.72736,-20.3602,Q,Q
2023-03-15 10:58:52:574,0,-0.0957183,-4.72343,-20.3699,Q,Q
2023-03-15 10:58:52:584,0,-0.0946183,-4.72102,-20.3768,Q,Q
2023-03-15 10:58:52:594,0,-0.0918475,-4.71424,-20.3835,Q,Q
2023-03-15 10:58:52:604,0,-0.0912942,-4.7076,-20.3917,Q,Q
2023-03-15 10:58:52:614,0,-0.0854995,-4.68793,-20.3957,Q,Q
2023-03-15 10:58:52:624,0,-0.0760446,-4.67432,-20.397,Q,Q
2023-03-15 10:58:52:634,0,-0.0641446,-4.66981,-20.3958,Q,Q
2023-03-15 10:58:52:644,0,-0.0566564,-4.66999,-20.388,Q,Q
2023-03-15 10:58:52:654,0,-0.0514106,-4.66668,-20.3856,Q,Q
2023-03-15 10:58:52:664,0,-0.0449153,-4.66069,-20.3807,Q,Q
2023-03-15 10:58:52:674,0,-0.037957,-4.65569,-20.3774,Q,Q
2023-03-15 10:58:52:684,0,-0.037951,-4.64733,-20.3696,Q,Q
2023-03-15 10:58:52:694,0,-0.0372809,-4.64313,-20.3666,Q,Q
2023-03-15 10:58:52:704,0,-0.0351236,-4.63991,-20.3609,Q,Q
2023-03-15 10:58:52:714,0,-0.0336567,-4.63551,-20.3532,Q,Q
2023-03-15 10:58:52:724,0,-0.0283742,-4.63142,-20.3471,Q,Q
2023-03-15 10:58:52:734,0,-0.0295779,-4.63136,-20.3405,Q,Q
2023-03-15 10:58:52:744,0,-0.0297304,-4.62685,-20.3376,Q,Q
2023-03-15 10:58:52:754,0,-0.0308409,-4.62935,-20.3299,Q,Q
2023-03-15 10:58:52:764,0,-0.033661,-4.63301,-20.3222,Q,Q
2023-03-15 10:58:52:774,0,-0.0341189,-4.6338,-20.3143,Q,Q
2023-03-15 10:58:52:784,0,-0.0352019,-4.63708,-20.3053,Q,Q
2023-03-15 10:58:52:794,0,-0.0347205,-4.6425,-20.2959,Q,Q
2023-03-15 10:58:52:804,0,-0.0392168,-4.64568,-20.2815,Q,Q
2023-03-15 10:58:52:814,0,-0.0432852,-4.65333,-20.2684,Q,Q
2023-03-15 10:58:52:824,0,-0.047869,-4.65527,-20.2517,Q,Q
2023-03-15 10:58:52:834,0,-0.0532801,-4.6605,-20.2352,Q,Q
2023-03-15 10:58:52:844,0,-0.0590489,-4.66312,-20.2192,Q,Q
2023-03-15 10:58:52:854,0,-0.0622098,-4.66401,-20.2006,Q,Q
2023-03-15 10:58:52:864,0,-0.063446,-4.66816,-20.1822,Q,Q
2023-03-15 10:58:52:874,0,-0.0651732,-4.67535,-20.1697,Q,Q
2023-03-15 10:58:52:884,0,-0.062531,-4.67946,-20.1586,Q,Q
2023-03-15 10:58:52:894,0,-0.061023,-4.68091,-20.151,Q,Q
2023-03-15 10:58:52:904,0,-0.060651,-4.68478,-20.1455,Q,Q
2023-03-15 10:58:52:914,0,-0.0583285,-4.68712,-20.1415,Q,Q
2023-03-15 10:58:52:924,0,-0.0588548,-4.68941,-20.141,Q,Q
2023-03-15 10:58:52:934,0,-0.0617854,-4.69563,-20.1404,Q,Q
2023-03-15 10:58:52:944,0,-0.0634498,-4.69461,-20.1439,Q,Q
2023-03-15 10:58:52:954,0,-0.0644284,-4.69762,-20.1478,Q,Q
2023-03-15 10:58:52:964,0,-0.0629886,-4.69372,-20.1526,Q,Q
2023-03-15 10:58:52:974,0,-0.0588427,-4.69631,-20.1582,Q,Q
2023-03-15 10:58:52:984,0,-0.0538551,-4.6982,-20.1618,Q,Q
2023-03-15 10:58:52:994,0,-0.0506377,-4.69937,-20.1672,Q,Q
2023-03-15 10:58:53:4,0,-0.0472233,-4.6988,-20.171,Q,Q
2023-03-15 10:58:53:14,0,-0.041339,-4.69899,-20.1711,Q,Q
2023-03-15 10:58:53:24,0,-0.0360486,-4.69946,-20.1713,Q,Q
2023-03-15 10:58:53:34,0,-0.0362617,-4.69803,-20.1667,Q,Q
2023-03-15 10:58:53:44,0,-0.0350298,-4.69841,-20.1601,Q,Q
2023-03-15 10:58:53:54,0,-0.0329472,-4.6976,-20.1529,Q,Q
2023-03-15 10:58:53:64,0,-0.0334484,-4.69932,-20.1471,Q,Q
2023-03-15 10:58:53:74,0,-0.0307349,-4.69869,-20.1413,Q,Q
2023-03-15 10:58:53:84,0,-0.0286007,-4.70073,-20.1362,Q,Q
2023-03-15 10:58:53:94,0,-0.0251072,-4.70216,-20.1299,Q,Q
2023-03-15 10:58:53:104,0,-0.02011,-4.70371,-20.1235,Q,Q
2023-03-15 10:58:53:114,0,-0.0209091,-4.70421,-20.1191,Q,Q
2023-03-15 10:58:53:124,0,-0.0198786,-4.7058,-20.1127,Q,Q
2023-03-15 10:58:53:134,0,-0.018359,-4.71023,-20.1084,Q,Q
2023-03-15 10:58:53:144,0,-0.0180619,-4.71639,-20.1064,Q,Q
2023-03-15 10:58:53:154,0,-0.0178025,-4.71978,-20.101,Q,Q
2023-03-15 10:58:53:163,0,-0.0192501,-4.72436,-20.0974,Q,Q
2023-03-15 10:58:53:174,0,-0.0177645,-4.7248,-20.0917,Q,Q
2023-03-15 10:58:53:184,0,-0.0198688,-4.72639,-20.0902,Q,Q
2023-03-15 10:58:53:194,0,-0.021626,-4.72081,-20.0836,Q,Q
2023-03-15 10:58:53:204,0,-0.0236699,-4.71413,-20.079,Q,Q
2023-03-15 10:58:53:214,0,-0.0262658,-4.70994,-20.076,Q,Q
2023-03-15 10:58:53:224,0,-0.0254099,-4.70395,-20.0694,Q,Q
2023-03-15 10:58:53:234,0,-0.0231654,-4.70769,-20.0542,Q,Q
2023-03-15 10:58:53:244,0,-0.0228496,-4.71791,-20.0409,Q,Q
2023-03-15 10:58:53:254,0,-0.0209511,-4.72755,-20.0269,Q,Q
2023-03-15 10:58:53:264,0,-0.0221436,-4.73922,-20.0155,Q,Q
2023-03-15 10:58:53:274,0,-0.0241029,-4.74529,-20.0052,Q,Q
2023-03-15 10:58:53:284,0,-0.0285661,-4.75083,-19.9924,Q,Q
2023-03-15 10:58:53:294,0,-0.029392,-4.75383,-19.983,Q,Q
2023-03-15 10:58:53:304,0,-0.0328053,-4.75391,-19.9727,Q,Q
2023-03-15 10:58:53:313,0,-0.0360451,-4.75451,-19.9585,Q,Q
2023-03-15 10:58:53:324,0,-0.0402803,-4.75788,-19.9444,Q,Q
2023-03-15 10:58:53:334,0,-0.0430085,-4.76077,-19.9369,Q,Q
2023-03-15 10:58:53:344,0,-0.0474072,-4.76033,-19.9268,Q,Q
2023-03-15 10:58:53:354,0,-0.0543985,-4.75725,-19.9211,Q,Q
2023-03-15 10:58:53:364,0,-0.0596091,-4.75785,-19.9168,Q,Q
2023-03-15 10:58:53:374,0,-0.066353,-4.75819,-19.9148,Q,Q
2023-03-15 10:58:53:384,0,-0.0711109,-4.76514,-19.9156,Q,Q
2023-03-15 10:58:53:394,0,-0.0719802,-4.7698,-19.9204,Q,Q
2023-03-15 10:58:53:404,0,-0.0692162,-4.77716,-19.9265,Q,Q
2023-03-15 10:58:53:414,0,-0.0662951,-4.78319,-19.9362,Q,Q
2023-03-15 10:58:53:424,0,-0.066929,-4.79275,-19.9471,Q,Q
2023-03-15 10:58:53:434,0,-0.0657069,-4.80218,-19.9586,Q,Q
2023-03-15 10:58:53:444,0,-0.0682076,-4.80906,-19.9662,Q,Q
2023-03-15 10:58:53:454,0,-0.0708951,-4.81461,-19.9757,Q,Q
2023-03-15 10:58:53:464,0,-0.0699253,-4.82202,-19.987,Q,Q
2023-03-15 10:58:53:474,0,-0.0691572,-4.82365,-19.9972,Q,Q
2023-03-15 10:58:53:484,0,-0.0696091,-4.82858,-20.0078,Q,Q
2023-03-15 10:58:53:494,0,-0.0689572,-4.83018,-20.0196,Q,Q
2023-03-15 10:58:53:504,0,-0.0712088,-4.83579,-20.0277,Q,Q
2023-03-15 10:58:53:514,0,-0.0713754,-4.83901,-20.0369,Q,Q
2023-03-15 10:58:53:524,0,-0.0736745,-4.83839,-20.0435,Q,Q
2023-03-15 10:58:53:533,0,-0.0758607,-4.84077,-20.0514,Q,Q
2023-03-15 10:58:53:544,0,-0.0802679,-4.84319,-20.0609,Q,Q
2023-03-15 10:58:53:553,0,-0.0866818,-4.84323,-20.0674,Q,Q
2023-03-15 10:58:53:564,0,-0.0949131,-4.83724,-20.0751,Q,Q
2023-03-15 10:58:53:574,0,-0.0997331,-4.83301,-20.0839,Q,Q
2023-03-15 10:58:53:584,0,-0.106408,-4.82904,-20.0925,Q,Q
2023-03-15 10:58:53:593,0,-0.111555,-4.82334,-20.1023,Q,Q
2023-03-15 10:58:53:604,0,-0.115963,-4.81723,-20.1142,Q,Q
2023-03-15 10:58:53:614,0,-0.124448,-4.81438,-20.1221,Q,Q
2023-03-15 10:58:53:624,0,-0.129294,-4.81153,-20.1321,Q,Q
2023-03-15 10:58:53:634,0,-0.135744,-4.81032,-20.1427,Q,Q
2023-03-15 10:58:53:644,0,-0.141341,-4.80985,-20.1543,Q,Q
2023-03-15 10:58:53:654,0,-0.149614,-4.81153,-20.1659,Q,Q
2023-03-15 10:58:53:663,0,-0.15834,-4.81187,-20.1762,Q,Q
2023-03-15 10:58:53:673,0,-0.167627,-4.81418,-20.1847,Q,Q
2023-03-15 10:58:53:683,0,-0.17426,-4.81367,-20.1927,Q,Q
2023-03-15 10:58:53:693,0,-0.181649,-4.81459,-20.1958,Q,Q
2023-03-15 10:58:53:704,0,-0.189678,-4.81226,-20.1987,Q,Q
2023-03-15 10:58:53:713,0,-0.198494,-4.81102,-20.2,Q,Q
2023-03-15 10:58:53:723,0,-0.209967,-4.81368,-20.2007,Q,Q
2023-03-15 10:58:53:734,0,-0.216757,-4.81434,-20.1979,Q,Q
2023-03-15 10:58:53:743,0,-0.22423,-4.81086,-20.1949,Q,Q
2023-03-15 10:58:53:753,0,-0.227642,-4.80913,-20.1912,Q,Q
2023-03-15 10:58:53:763,0,-0.232398,-4.80936,-20.1843,Q,Q
2023-03-15 10:58:53:773,0,-0.235452,-4.80602,-20.1771,Q,Q
2023-03-15 10:58:53:783,0,-0.24197,-4.80771,-20.1746,Q,Q
2023-03-15 10:58:53:793,0,-0.249487,-4.80742,-20.1719,Q,Q
2023-03-15 10:58:53:803,0,-0.256306,-4.80755,-20.1706,Q,Q
2023-03-15 10:58:53:813,0,-0.263758,-4.80679,-20.172,Q,Q
2023-03-15 10:58:53:823,0,-0.274922,-4.80695,-20.1739,Q,Q
2023-03-15 10:58:53:834,0,-0.286274,-4.81339,-20.1747,Q,Q
2023-03-15 10:58:53:844,0,-0.296823,-4.81563,-20.1817,Q,Q
2023-03-15 10:58:53:853,0,-0.304123,-4.81242,-20.1883,Q,Q
2023-03-15 10:58:53:863,0,-0.309242,-4.81179,-20.1929,Q,Q
2023-03-15 10:58:53:873,0,-0.310554,-4.81322,-20.1976,Q,Q
2023-03-15 10:58:53:883,0,-0.315522,-4.81179,-20.2006,Q,Q
2023-03-15 10:58:53:893,0,-0.325151,-4.8091,-20.2042,Q,Q
2023-03-15 10:58:53:903,0,-0.331712,-4.80963,-20.2047,Q,Q
2023-03-15 10:58:53:913,0,-0.337699,-4.80683,-20.2039,Q,Q
2023-03-15 10:58:53:923,0,-0.34267,-4.80611,-20.2038,Q,Q
2023-03-15 10:58:53:933,0,-0.343466,-4.8042,-20.1997,Q,Q
2023-03-15 10:58:53:943,0,-0.349714,-4.80021,-20.196,Q,Q
2023-03-15 10:58:53:953,0,-0.357003,-4.79643,-20.1913,Q,Q
2023-03-15 10:58:53:963,0,-0.36465,-4.79635,-20.1884,Q,Q
2023-03-15 10:58:53:973,0,-0.371599,-4.80243,-20.1834,Q,Q
2023-03-15 10:58:53:983,0,-0.385638,-4.80876,-20.1791,Q,Q
2023-03-15 10:58:53:993,0,-0.394107,-4.80487,-20.1772,Q,Q
2023-03-15 10:58:54:3,0,-0.402652,-4.80186,-20.1778,Q,Q
2023-03-15 10:58:54:13,0,-0.411072,-4.79879,-20.1737,Q,Q
2023-03-15 10:58:54:23,0,-0.42238,-4.79934,-20.1721,Q,Q
2023-03-15 10:58:54:33,0,-0.433404,-4.79997,-20.1749,Q,Q
2023-03-15 10:58:54:43,0,-0.445078,-4.79417,-20.1732,Q,Q
2023-03-15 10:58:54:53,0,-0.454491,-4.78831,-20.1707,Q,Q
2023-03-15 10:58:54:63,0,-0.465277,-4.78472,-20.1698,Q,Q
2023-03-15 10:58:54:73,0,-0.476354,-4.78861,-20.1657,Q,Q
2023-03-15 10:58:54:83,0,-0.489478,-4.80022,-20.163,Q,Q
2023-03-15 10:58:54:93,0,-0.508291,-4.79247,-20.1601,Q,Q
2023-03-15 10:58:54:103,0,-0.52077,-4.77894,-20.1619,Q,Q
2023-03-15 10:58:54:113,0,-0.534165,-4.77132,-20.1623,Q,Q
2023-03-15 10:58:54:123,0,-0.548448,-4.76143,-20.1644,Q,Q
2023-03-15 10:58:54:133,0,-0.564415,-4.75156,-20.1654,Q,Q
2023-03-15 10:58:54:143,0,-0.579988,-4.74794,-20.1662,Q,Q
2023-03-15 10:58:54:153,0,-0.589452,-4.75398,-20.1617,Q,Q
2023-03-15 10:58:54:163,0,-0.598926,-4.76039,-20.1542,Q,Q
2023-03-15 10:58:54:173,0,-0.610327,-4.77145,-20.1491,Q,Q
2023-03-15 10:58:54:183,0,-0.619648,-4.78677,-20.1466,Q,Q
2023-03-15 10:58:54:193,0,-0.635584,-4.79276,-20.1459,Q,Q
2023-03-15 10:58:54:203,0,-0.64973,-4.79704,-20.1436,Q,Q
2023-03-15 10:58:54:213,0,-0.660671,-4.79144,-20.1396,Q,Q
2023-03-15 10:58:54:223,0,-0.667916,-4.78384,-20.1336,Q,Q
2023-03-15 10:58:54:233,0,-0.676585,-4.77471,-20.1255,Q,Q
2023-03-15 10:58:54:243,0,-0.685027,-4.76325,-20.121,Q,Q
2023-03-15 10:58:54:253,0,-0.696773,-4.75042,-20.1171,Q,Q
2023-03-15 10:58:54:263,0,-0.710886,-4.74411,-20.1201,Q,Q
2023-03-15 10:58:54:273,0,-0.726521,-4.73814,-20.1279,Q,Q
2023-03-15 10:58:54:283,0,-0.74017,-4.73128,-20.1378,Q,Q
2023-03-15 10:58:54:293,0,-0.754996,-4.72522,-20.1473,Q,Q
2023-03-15 10:58:54:303,0,-0.765213,-4.71936,-20.1628,Q,Q
2023-03-15 10:58:54:313,0,-0.774427,-4.71553,-20.1782,Q,Q
2023-03-15 10:58:54:323,0,-0.782537,-4.71407,-20.1919,Q,Q
2023-03-15 10:58:54:333,0,-0.789313,-4.71615,-20.2086,Q,Q
2023-03-15 10:58:54:343,0,-0.798639,-4.7182,-20.2242,Q,Q
2023-03-15 10:58:54:353,0,-0.80229,-4.71929,-20.2371,Q,Q
2023-03-15 10:58:54:363,0,-0.806835,-4.719,-20.2529,Q,Q
2023-03-15 10:58:54:373,0,-0.812903,-4.71524,-20.2662,Q,Q
2023-03-15 10:58:54:383,0,-0.81406,-4.70592,-20.2744,Q,Q
2023-03-15 10:58:54:393,0,-0.81327,-4.70054,-20.284,Q,Q
2023-03-15 10:58:54:403,0,-0.813113,-4.69417,-20.294,Q,Q
2023-03-15 10:58:54:413,0,-0.806712,-4.69406,-20.3008,Q,Q
2023-03-15 10:58:54:423,0,-0.803255,-4.69497,-20.3036,Q,Q
2023-03-15 10:58:54:433,0,-0.801157,-4.69358,-20.3063,Q,Q
2023-03-15 10:58:54:443,0,-0.797792,-4.69509,-20.3101,Q,Q
2023-03-15 10:58:54:453,0,-0.791075,-4.69393,-20.3164,Q,Q
2023-03-15 10:58:54:463,0,-0.784577,-4.69019,-20.3247,Q,Q
2023-03-15 10:58:54:473,0,-0.774771,-4.68943,-20.3306,Q,Q
2023-03-15 10:58:54:483,0,-0.765189,-4.69071,-20.3378,Q,Q
2023-03-15 10:58:54:493,0,-0.753491,-4.69115,-20.3488,Q,Q
2023-03-15 10:58:54:503,0,-0.741049,-4.68982,-20.3548,Q,Q
2023-03-15 10:58:54:513,0,-0.724204,-4.6945,-20.3612,Q,Q
2023-03-15 10:58:54:523,0,-0.707387,-4.69797,-20.3656,Q,Q
2023-03-15 10:58:54:533,0,-0.694202,-4.70174,-20.3674,Q,Q
2023-03-15 10:58:54:543,0,-0.677444,-4.70797,-20.3667,Q,Q
2023-03-15 10:58:54:553,0,-0.659573,-4.7154,-20.3636,Q,Q
2023-03-15 10:58:54:563,0,-0.637385,-4.72421,-20.3636,Q,Q
2023-03-15 10:58:54:573,0,-0.615988,-4.7339,-20.3618,Q,Q
2023-03-15 10:58:54:583,0,-0.596492,-4.74352,-20.3561,Q,Q
2023-03-15 10:58:54:593,0,-0.57312,-4.75513,-20.3513,Q,Q
2023-03-15 10:58:54:603,0,-0.544609,-4.76647,-20.3474,Q,Q
2023-03-15 10:58:54:613,0,-0.513262,-4.78494,-20.3434,Q,Q
2023-03-15 10:58:54:623,0,-0.466079,-4.80703,-20.3431,Q,Q
2023-03-15 10:58:54:633,0,-0.400338,-4.82683,-20.3452,Q,Q
2023-03-15 10:58:54:643,0,-0.318749,-4.8464,-20.3452,Q,Q
2023-03-15 10:58:54:653,0,-0.224058,-4.8665,-20.3466,Q,Q
2023-03-15 10:58:54:663,0,-0.11403,-4.88623,-20.3475,Q,Q
2023-03-15 10:58:54:673,0,-0.00140031,-4.89545,-20.3511,Q,Q
2023-03-15 10:58:54:683,0,0.116075,-4.90177,-20.3562,Q,Q
2023-03-15 10:58:54:693,0,0.251376,-4.91676,-20.3634,Q,Q
2023-03-15 10:58:54:703,0,0.400995,-4.93854,-20.371,Q,Q
2023-03-15 10:58:54:713,0,0.55502,-4.96236,-20.3828,Q,Q
2023-03-15 10:58:54:723,0,0.709629,-4.98796,-20.3993,Q,Q
2023-03-15 10:58:54:733,0,0.863054,-5.01445,-20.4179,Q,Q
2023-03-15 10:58:54:743,0,1.01161,-5.04174,-20.4406,Q,Q
2023-03-15 10:58:54:753,0,1.15465,-5.07469,-20.4664,Q,Q
2023-03-15 10:58:54:763,0,1.2897,-5.10371,-20.4983,Q,Q
2023-03-15 10:58:54:773,0,1.42111,-5.13317,-20.5381,Q,Q
2023-03-15 10:58:54:783,0,1.56552,-5.1652,-20.5856,Q,Q
2023-03-15 10:58:54:793,0,1.73433,-5.19895,-20.6298,Q,Q
2023-03-15 10:58:54:803,0,1.92551,-5.23135,-20.662,Q,Q
2023-03-15 10:58:54:813,0,2.12138,-5.25693,-20.6889,Q,Q
2023-03-15 10:58:54:823,0,2.3056,-5.27562,-20.7116,Q,Q
2023-03-15 10:58:54:833,0,2.48532,-5.28766,-20.7291,Q,Q
2023-03-15 10:58:54:843,0,2.65579,-5.28871,-20.7373,Q,Q
2023-03-15 10:58:54:853,0,2.80989,-5.2859,-20.7362,Q,Q
2023-03-15 10:58:54:863,0,2.9508,-5.27994,-20.731,Q,Q
2023-03-15 10:58:54:873,0,3.08191,-5.27196,-20.7227,Q,Q
2023-03-15 10:58:54:883,0,3.20111,-5.26245,-20.7021,Q,Q
2023-03-15 10:58:54:893,0,3.30132,-5.25102,-20.6739,Q,Q
2023-03-15 10:58:54:903,0,3.39206,-5.23754,-20.6441,Q,Q
2023-03-15 10:58:54:913,0,3.45954,-5.22196,-20.6109,Q,Q
2023-03-15 10:58:54:923,0,3.51757,-5.21159,-20.5738,Q,Q
2023-03-15 10:58:54:933,0,3.56006,-5.20092,-20.5419,Q,Q
2023-03-15 10:58:54:943,0,3.58979,-5.18883,-20.5084,Q,Q
2023-03-15 10:58:54:953,0,3.60957,-5.18087,-20.4796,Q,Q
2023-03-15 10:58:54:963,0,3.61648,-5.1739,-20.4502,Q,Q
2023-03-15 10:58:54:973,0,3.61565,-5.16833,-20.4279,Q,Q
2023-03-15 10:58:54:983,0,3.60744,-5.16166,-20.4131,Q,Q
2023-03-15 10:58:54:993,0,3.59458,-5.15555,-20.3996,Q,Q
2023-03-15 10:58:55:3,0,3.58332,-5.15,-20.3953,Q,Q
2023-03-15 10:58:55:13,0,3.57905,-5.14558,-20.3998,Q,Q
2023-03-15 10:58:55:23,0,3.58032,-5.14378,-20.4085,Q,Q
2023-03-15 10:58:55:33,0,3.58593,-5.14404,-20.421,Q,Q
2023-03-15 10:58:55:43,0,3.59143,-5.14317,-20.4339,Q,Q
2023-03-15 10:58:55:53,0,3.59405,-5.15037,-20.4471,Q,Q
2023-03-15 10:58:55:63,0,3.59547,-5.15576,-20.4617,Q,Q
2023-03-15 10:58:55:73,0,3.59687,-5.16097,-20.476,Q,Q
2023-03-15 10:58:55:83,0,3.61017,-5.16963,-20.4888,Q,Q
2023-03-15 10:58:55:93,0,3.62328,-5.17507,-20.5046,Q,Q
2023-03-15 10:58:55:103,0,3.63418,-5.1768,-20.516,Q,Q
2023-03-15 10:58:55:113,0,3.63645,-5.17604,-20.5286,Q,Q
2023-03-15 10:58:55:123,0,3.63942,-5.17225,-20.5392,Q,Q
2023-03-15 10:58:55:133,0,3.63923,-5.16857,-20.5439,Q,Q
2023-03-15 10:58:55:143,0,3.6402,-5.16637,-20.5499,Q,Q
2023-03-15 10:58:55:153,0,3.64319,-5.15198,-20.5546,Q,Q
2023-03-15 10:58:55:163,0,3.65035,-5.13303,-20.5579,Q,Q
2023-03-15 10:58:55:173,0,3.65693,-5.12472,-20.5615,Q,Q
2023-03-15 10:58:55:183,0,3.66243,-5.12342,-20.564,Q,Q
2023-03-15 10:58:55:193,0,3.66851,-5.13016,-20.5657,Q,Q
2023-03-15 10:58:55:203,0,3.6757,-5.13376,-20.5715,Q,Q
2023-03-15 10:58:55:212,0,3.69237,-5.13713,-20.5747,Q,Q
2023-03-15 10:58:55:222,0,3.70647,-5.14148,-20.5781,Q,Q
2023-03-15 10:58:55:233,0,3.71547,-5.1463,-20.5869,Q,Q
2023-03-15 10:58:55:243,0,3.72937,-5.14714,-20.593,Q,Q
2023-03-15 10:58:55:253,0,3.74337,-5.14567,-20.5974,Q,Q
2023-03-15 10:58:55:263,0,3.7581,-5.13357,-20.5978,Q,Q
2023-03-15 10:58:55:273,0,3.77684,-5.11927,-20.5998,Q,Q
2023-03-15 10:58:55:283,0,3.79516,-5.10986,-20.6035,Q,Q
2023-03-15 10:58:55:293,0,3.81746,-5.10795,-20.606,Q,Q
2023-03-15 10:58:55:303,0,3.83842,-5.10972,-20.6071,Q,Q
2023-03-15 10:58:55:313,0,3.86034,-5.11155,-20.6054,Q,Q
2023-03-15 10:58:55:323,0,3.88141,-5.11414,-20.6014,Q,Q
2023-03-15 10:58:55:333,0,3.90008,-5.10416,-20.5947,Q,Q
2023-03-15 10:58:55:343,0,3.92122,-5.09962,-20.5912,Q,Q
2023-03-15 10:58:55:353,0,3.94088,-5.09546,-20.5802,Q,Q
2023-03-15 10:58:55:363,0,3.95418,-5.0946,-20.5715,Q,Q
2023-03-15 10:58:55:373,0,3.9581,-5.09057,-20.5641,Q,Q
2023-03-15 10:58:55:383,0,3.96336,-5.08862,-20.5597,Q,Q
2023-03-15 10:58:55:392,0,3.97412,-5.0863,-20.5509,Q,Q
2023-03-15 10:58:55:403,0,3.98049,-5.0875,-20.5369,Q,Q
2023-03-15 10:58:55:413,0,3.98395,-5.08784,-20.5258,Q,Q
2023-03-15 10:58:55:423,0,3.98143,-5.08723,-20.5177,Q,Q
2023-03-15 10:58:55:433,0,3.97833,-5.09051,-20.5074,Q,Q
2023-03-15 10:58:55:443,0,3.97766,-5.09945,-20.4942,Q,Q
2023-03-15 10:58:55:453,0,3.97895,-5.10928,-20.4827,Q,Q
2023-03-15 10:58:55:463,0,3.97472,-5.11349,-20.4695,Q,Q
2023-03-15 10:58:55:473,0,3.9677,-5.11968,-20.4563,Q,Q
2023-03-15 10:58:55:483,0,3.9579,-5.1227,-20.4393,Q,Q
2023-03-15 10:58:55:493,0,3.94867,-5.12749,-20.4208,Q,Q
2023-03-15 10:58:55:503,0,3.93522,-5.12783,-20.4046,Q,Q
2023-03-15 10:58:55:513,0,3.92038,-5.12859,-20.3828,Q,Q
2023-03-15 10:58:55:523,0,3.90553,-5.13032,-20.3637,Q,Q
2023-03-15 10:58:55:533,0,3.89742,-5.12951,-20.346,Q,Q
2023-03-15 10:58:55:543,0,3.89016,-5.13277,-20.3253,Q,Q
2023-03-15 10:58:55:553,0,3.87843,-5.13454,-20.307,Q,Q
2023-03-15 10:58:55:563,0,3.87083,-5.13935,-20.2948,Q,Q
2023-03-15 10:58:55:573,0,3.86155,-5.1387,-20.2812,Q,Q
2023-03-15 10:58:55:583,0,3.84959,-5.13648,-20.2682,Q,Q
2023-03-15 10:58:55:592,0,3.83358,-5.13522,-20.2538,Q,Q
2023-03-15 10:58:55:602,0,3.81734,-5.13033,-20.2403,Q,Q
2023-03-15 10:58:55:612,0,3.80312,-5.12628,-20.2319,Q,Q
2023-03-15 10:58:55:623,0,3.78685,-5.12236,-20.2211,Q,Q
2023-03-15 10:58:55:632,0,3.76839,-5.12037,-20.2111,Q,Q
2023-03-15 10:58:55:643,0,3.7481,-5.11337,-20.2028,Q,Q
2023-03-15 10:58:55:652,0,3.73185,-5.11388,-20.1929,Q,Q
2023-03-15 10:58:55:662,0,3.71236,-5.11219,-20.181,Q,Q
2023-03-15 10:58:55:673,0,3.69693,-5.11147,-20.1671,Q,Q
2023-03-15 10:58:55:682,0,3.68493,-5.10812,-20.149,Q,Q
2023-03-15 10:58:55:692,0,3.6709,-5.10308,-20.1302,Q,Q
2023-03-15 10:58:55:703,0,3.65312,-5.10238,-20.1031,Q,Q
2023-03-15 10:58:55:712,0,3.63017,-5.10763,-20.0776,Q,Q
2023-03-15 10:58:55:723,0,3.60577,-5.11346,-20.0492,Q,Q
2023-03-15 10:58:55:732,0,3.57491,-5.10779,-20.0246,Q,Q
2023-03-15 10:58:55:743,0,3.54545,-5.09802,-19.9976,Q,Q
2023-03-15 10:58:55:752,0,3.51412,-5.08834,-19.9672,Q,Q
2023-03-15 10:58:55:762,0,3.48445,-5.07902,-19.9383,Q,Q
2023-03-15 10:58:55:773,0,3.45339,-5.06987,-19.9102,Q,Q
2023-03-15 10:58:55:783,0,3.42183,-5.06149,-19.8855,Q,Q
2023-03-15 10:58:55:793,0,3.38556,-5.05576,-19.8577,Q,Q
2023-03-15 10:58:55:802,0,3.34417,-5.05518,-19.8281,Q,Q
2023-03-15 10:58:55:813,0,3.30248,-5.05406,-19.8033,Q,Q
2023-03-15 10:58:55:823,0,3.26316,-5.04735,-19.7809,Q,Q
2023-03-15 10:58:55:833,0,3.22645,-5.03829,-19.765,Q,Q
2023-03-15 10:58:55:843,0,3.19088,-5.02099,-19.7456,Q,Q
2023-03-15 10:58:55:853,0,3.16114,-5.00646,-19.7253,Q,Q
2023-03-15 10:58:55:862,0,3.13808,-4.99657,-19.7062,Q,Q
2023-03-15 10:58:55:872,0,3.1176,-4.98636,-19.6861,Q,Q
2023-03-15 10:58:55:883,0,3.0964,-4.97484,-19.668,Q,Q
2023-03-15 10:58:55:893,0,3.07778,-4.96154,-19.6526,Q,Q
2023-03-15 10:58:55:903,0,3.05774,-4.94488,-19.6348,Q,Q
2023-03-15 10:58:55:912,0,3.04313,-4.92831,-19.6183,Q,Q
2023-03-15 10:58:55:922,0,3.03477,-4.91896,-19.595,Q,Q
2023-03-15 10:58:55:932,0,3.02971,-4.91445,-19.5698,Q,Q
2023-03-15 10:58:55:943,0,3.02276,-4.91563,-19.5468,Q,Q
2023-03-15 10:58:55:952,0,3.01727,-4.92084,-19.5305,Q,Q
2023-03-15 10:58:55:963,0,3.01346,-4.92763,-19.5208,Q,Q
2023-03-15 10:58:55:972,0,3.00876,-4.92397,-19.5156,Q,Q
2023-03-15 10:58:55:983,0,3.00907,-4.92268,-19.5126,Q,Q
2023-03-15 10:58:55:992,0,3.01134,-4.92326,-19.5138,Q,Q
2023-03-15 10:58:56:2,0,3.00925,-4.92228,-19.5161,Q,Q
2023-03-15 10:58:56:12,0,3.00074,-4.91893,-19.5216,Q,Q
2023-03-15 10:58:56:22,0,2.99253,-4.91467,-19.533,Q,Q
2023-03-15 10:58:56:32,0,2.98375,-4.90692,-19.5475,Q,Q
2023-03-15 10:58:56:42,0,2.97538,-4.89754,-19.5664,Q,Q
2023-03-15 10:58:56:52,0,2.96378,-4.8879,-19.5845,Q,Q
2023-03-15 10:58:56:63,0,2.9493,-4.88162,-19.6039,Q,Q
2023-03-15 10:58:56:72,0,2.92353,-4.8806,-19.6246,Q,Q
2023-03-15 10:58:56:82,0,2.87451,-4.87725,-19.652,Q,Q
2023-03-15 10:58:56:92,0,2.8067,-4.86557,-19.6828,Q,Q
2023-03-15 10:58:56:102,0,2.72744,-4.8484,-19.7205,Q,Q
2023-03-15 10:58:56:112,0,2.64295,-4.82413,-19.759,Q,Q
2023-03-15 10:58:56:122,0,2.5647,-4.80462,-19.7987,Q,Q
2023-03-15 10:58:56:132,0,2.49159,-4.78538,-19.838,Q,Q
2023-03-15 10:58:56:142,0,2.41875,-4.76407,-19.874,Q,Q
2023-03-15 10:58:56:152,0,2.35373,-4.73948,-19.9079,Q,Q
2023-03-15 10:58:56:162,0,2.289,-4.70987,-19.9466,Q,Q
2023-03-15 10:58:56:172,0,2.21668,-4.6758,-19.9805,Q,Q
2023-03-15 10:58:56:182,0,2.14177,-4.64337,-20.0184,Q,Q
2023-03-15 10:58:56:192,0,2.06373,-4.61884,-20.0569,Q,Q
2023-03-15 10:58:56:202,0,1.98376,-4.59573,-20.0953,Q,Q
2023-03-15 10:58:56:212,0,1.90348,-4.5704,-20.1372,Q,Q
2023-03-15 10:58:56:222,0,1.8208,-4.53861,-20.1823,Q,Q
2023-03-15 10:58:56:232,0,1.73815,-4.50606,-20.2259,Q,Q
2023-03-15 10:58:56:242,0,1.65285,-4.46782,-20.2723,Q,Q
2023-03-15 10:58:56:252,0,1.57027,-4.42858,-20.3124,Q,Q
2023-03-15 10:58:56:262,0,1.49139,-4.39303,-20.3475,Q,Q
2023-03-15 10:58:56:272,0,1.4108,-4.3571,-20.3772,Q,Q
2023-03-15 10:58:56:282,0,1.33404,-4.32199,-20.4073,Q,Q
2023-03-15 10:58:56:292,0,1.26251,-4.28939,-20.4326,Q,Q
2023-03-15 10:58:56:302,0,1.20297,-4.25355,-20.454,Q,Q
2023-03-15 10:58:56:312,0,1.15298,-4.2151,-20.4677,Q,Q
2023-03-15 10:58:56:322,0,1.10956,-4.17121,-20.472,Q,Q
2023-03-15 10:58:56:332,0,1.06657,-4.13362,-20.4685,Q,Q
2023-03-15 10:58:56:342,0,1.02576,-4.09899,-20.4623,Q,Q
2023-03-15 10:58:56:352,0,0.991192,-4.06504,-20.4574,Q,Q
2023-03-15 10:58:56:362,0,0.967428,-4.03691,-20.4503,Q,Q
2023-03-15 10:58:56:372,0,0.949221,-4.01074,-20.4415,Q,Q
2023-03-15 10:58:56:382,0,0.929748,-3.98422,-20.4379,Q,Q
2023-03-15 10:58:56:392,0,0.90566,-3.94864,-20.436,Q,Q
2023-03-15 10:58:56:402,0,0.886493,-3.92013,-20.4424,Q,Q
2023-03-15 10:58:56:412,0,0.866903,-3.88721,-20.4558,Q,Q
2023-03-15 10:58:56:422,0,0.84973,-3.85697,-20.4711,Q,Q
2023-03-15 10:58:56:432,0,0.834213,-3.82998,-20.4947,Q,Q
2023-03-15 10:58:56:442,0,0.821685,-3.80005,-20.524,Q,Q
2023-03-15 10:58:56:452,0,0.818335,-3.77425,-20.5595,Q,Q
2023-03-15 10:58:56:462,0,0.829896,-3.75827,-20.5946,Q,Q
2023-03-15 10:58:56:472,0,0.854055,-3.74608,-20.628,Q,Q
2023-03-15 10:58:56:482,0,0.88461,-3.73803,-20.6616,Q,Q
2023-03-15 10:58:56:492,0,0.911261,-3.71992,-20.6926,Q,Q
2023-03-15 10:58:56:502,0,0.928945,-3.69404,-20.728,Q,Q
2023-03-15 10:58:56:512,0,0.941521,-3.67384,-20.7636,Q,Q
2023-03-15 10:58:56:522,0,0.954689,-3.65118,-20.7944,Q,Q
2023-03-15 10:58:56:532,0,0.975689,-3.62519,-20.8255,Q,Q
2023-03-15 10:58:56:542,0,1.00245,-3.5955,-20.8553,Q,Q
2023-03-15 10:58:56:552,0,1.03654,-3.56724,-20.8793,Q,Q
2023-03-15 10:58:56:562,0,1.07617,-3.5446,-20.9006,Q,Q
2023-03-15 10:58:56:572,0,1.11764,-3.52149,-20.921,Q,Q
2023-03-15 10:58:56:582,0,1.1578,-3.49951,-20.9388,Q,Q
2023-03-15 10:58:56:592,0,1.18608,-3.47632,-20.9552,Q,Q
2023-03-15 10:58:56:602,0,1.20987,-3.45271,-20.9748,Q,Q
2023-03-15 10:58:56:612,0,1.2385,-3.42422,-21.0009,Q,Q
2023-03-15 10:58:56:622,0,1.27543,-3.39755,-21.0298,Q,Q
2023-03-15 10:58:56:632,0,1.3211,-3.37162,-21.0606,Q,Q
2023-03-15 10:58:56:642,0,1.37586,-3.34069,-21.0921,Q,Q
2023-03-15 10:58:56:652,0,1.44456,-3.31098,-21.1222,Q,Q
2023-03-15 10:58:56:662,0,1.5205,-3.28099,-21.1506,Q,Q
2023-03-15 10:58:56:672,0,1.61284,-3.25176,-21.1727,Q,Q
2023-03-15 10:58:56:682,0,1.71618,-3.21487,-21.1847,Q,Q
2023-03-15 10:58:56:692,0,1.81752,-3.17882,-21.1835,Q,Q
2023-03-15 10:58:56:702,0,1.91427,-3.14304,-21.1775,Q,Q
2023-03-15 10:58:56:712,0,2.00465,-3.11098,-21.1663,Q,Q
2023-03-15 10:58:56:722,0,2.0922,-3.08624,-21.1455,Q,Q
2023-03-15 10:58:56:732,0,2.17166,-3.06521,-21.1126,Q,Q
2023-03-15 10:58:56:742,0,2.23064,-3.04347,-21.0736,Q,Q
2023-03-15 10:58:56:752,0,2.27539,-3.03247,-21.0399,Q,Q
2023-03-15 10:58:56:762,0,2.30234,-3.02764,-21.0079,Q,Q
2023-03-15 10:58:56:772,0,2.32494,-3.02582,-20.9808,Q,Q
2023-03-15 10:58:56:782,0,2.35291,-3.01692,-20.9547,Q,Q
2023-03-15 10:58:56:792,0,2.37483,-3.00136,-20.9274,Q,Q
2023-03-15 10:58:56:802,0,2.39574,-2.97591,-20.8977,Q,Q
2023-03-15 10:58:56:812,0,2.40539,-2.94896,-20.8694,Q,Q
2023-03-15 10:58:56:822,0,2.40743,-2.93162,-20.8404,Q,Q
2023-03-15 10:58:56:832,0,2.40227,-2.91037,-20.8117,Q,Q
2023-03-15 10:58:56:842,0,2.40112,-2.89059,-20.7815,Q,Q
2023-03-15 10:58:56:852,0,2.40628,-2.86838,-20.7471,Q,Q
2023-03-15 10:58:56:862,0,2.40938,-2.84692,-20.7042,Q,Q
2023-03-15 10:58:56:872,0,2.40762,-2.82122,-20.6605,Q,Q
2023-03-15 10:58:56:882,0,2.39672,-2.79919,-20.6141,Q,Q
2023-03-15 10:58:56:892,0,2.38042,-2.78086,-20.5757,Q,Q
2023-03-15 10:58:56:902,0,2.3638,-2.76089,-20.5404,Q,Q
2023-03-15 10:58:56:912,0,2.34991,-2.74515,-20.5103,Q,Q
2023-03-15 10:58:56:922,0,2.33097,-2.7266,-20.4882,Q,Q
2023-03-15 10:58:56:932,0,2.31007,-2.70479,-20.477,Q,Q
2023-03-15 10:58:56:942,0,2.29117,-2.68544,-20.4751,Q,Q
2023-03-15 10:58:56:952,0,2.27235,-2.67077,-20.4815,Q,Q
2023-03-15 10:58:56:962,0,2.2609,-2.65643,-20.4948,Q,Q
2023-03-15 10:58:56:972,0,2.24991,-2.64301,-20.5129,Q,Q
2023-03-15 10:58:56:982,0,2.23323,-2.63206,-20.5332,Q,Q
2023-03-15 10:58:56:992,0,2.21712,-2.62285,-20.555,Q,Q
2023-03-15 10:58:57:2,0,2.19816,-2.61887,-20.5799,Q,Q
2023-03-15 10:58:57:12,0,2.17985,-2.61057,-20.6041,Q,Q
2023-03-15 10:58:57:22,0,2.16258,-2.60289,-20.6297,Q,Q
2023-03-15 10:58:57:32,0,2.15216,-2.59411,-20.6536,Q,Q
2023-03-15 10:58:57:42,0,2.14128,-2.5814,-20.6756,Q,Q
2023-03-15 10:58:57:52,0,2.13097,-2.57074,-20.696,Q,Q
2023-03-15 10:58:57:62,0,2.12194,-2.55939,-20.7108,Q,Q
2023-03-15 10:58:57:72,0,2.11298,-2.54491,-20.7197,Q,Q
2023-03-15 10:58:57:82,0,2.10794,-2.53075,-20.7275,Q,Q
2023-03-15 10:58:57:92,0,2.10043,-2.51758,-20.7306,Q,Q
2023-03-15 10:58:57:102,0,2.09471,-2.50172,-20.7279,Q,Q
2023-03-15 10:58:57:112,0,2.07961,-2.48278,-20.7236,Q,Q
2023-03-15 10:58:57:122,0,2.05515,-2.45934,-20.7196,Q,Q
2023-03-15 10:58:57:132,0,2.0303,-2.43725,-20.7135,Q,Q
2023-03-15 10:58:57:142,0,2.00582,-2.41929,-20.7087,Q,Q
2023-03-15 10:58:57:152,0,1.9828,-2.39615,-20.7024,Q,Q
2023-03-15 10:58:57:162,0,1.95909,-2.37356,-20.6904,Q,Q
2023-03-15 10:58:57:172,0,1.93613,-2.35303,-20.6804,Q,Q
2023-03-15 10:58:57:182,0,1.9108,-2.33162,-20.6707,Q,Q
2023-03-15 10:58:57:192,0,1.89065,-2.31626,-20.6581,Q,Q
2023-03-15 10:58:57:202,0,1.86772,-2.29955,-20.6504,Q,Q
2023-03-15 10:58:57:212,0,1.84238,-2.27872,-20.6516,Q,Q
2023-03-15 10:58:57:222,0,1.81172,-2.25434,-20.6484,Q,Q
2023-03-15 10:58:57:232,0,1.79015,-2.22668,-20.6425,Q,Q
2023-03-15 10:58:57:242,0,1.77362,-2.20391,-20.6366,Q,Q
2023-03-15 10:58:57:252,0,1.76003,-2.17952,-20.6329,Q,Q
2023-03-15 10:58:57:261,0,1.74591,-2.15323,-20.6325,Q,Q
2023-03-15 10:58:57:272,0,1.7335,-2.12629,-20.629,Q,Q
2023-03-15 10:58:57:282,0,1.72783,-2.10065,-20.624,Q,Q
2023-03-15 10:58:57:292,0,1.7268,-2.07347,-20.618,Q,Q
2023-03-15 10:58:57:302,0,1.7287,-2.05321,-20.6123,Q,Q
2023-03-15 10:58:57:312,0,1.73052,-2.03386,-20.6084,Q,Q
2023-03-15 10:58:57:322,0,1.73062,-2.00443,-20.6106,Q,Q
2023-03-15 10:58:57:332,0,1.73554,-1.971,-20.611,Q,Q
2023-03-15 10:58:57:341,0,1.74874,-1.94471,-20.6115,Q,Q
2023-03-15 10:58:57:352,0,1.76452,-1.93028,-20.6099,Q,Q
2023-03-15 10:58:57:362,0,1.77838,-1.92377,-20.6064,Q,Q
2023-03-15 10:58:57:372,0,1.79296,-1.91841,-20.606,Q,Q
2023-03-15 10:58:57:382,0,1.80222,-1.91765,-20.6058,Q,Q
2023-03-15 10:58:57:392,0,1.81419,-1.91771,-20.6034,Q,Q
2023-03-15 10:58:57:402,0,1.82074,-1.92075,-20.6001,Q,Q
2023-03-15 10:58:57:412,0,1.829,-1.93037,-20.5995,Q,Q
2023-03-15 10:58:57:422,0,1.82902,-1.94259,-20.5955,Q,Q
2023-03-15 10:58:57:432,0,1.82951,-1.95454,-20.597,Q,Q
2023-03-15 10:58:57:441,0,1.83437,-1.9701,-20.5951,Q,Q
2023-03-15 10:58:57:452,0,1.84126,-1.98996,-20.586,Q,Q
2023-03-15 10:58:57:462,0,1.84356,-2.00827,-20.5754,Q,Q
2023-03-15 10:58:57:472,0,1.84025,-2.02493,-20.5576,Q,Q
2023-03-15 10:58:57:482,0,1.82882,-2.0404,-20.5406,Q,Q
2023-03-15 10:58:57:492,0,1.81539,-2.05784,-20.5253,Q,Q
2023-03-15 10:58:57:502,0,1.79748,-2.06979,-20.5055,Q,Q
2023-03-15 10:58:57:512,0,1.77966,-2.07778,-20.4891,Q,Q
2023-03-15 10:58:57:521,0,1.76193,-2.08263,-20.4698,Q,Q
2023-03-15 10:58:57:531,0,1.74905,-2.08622,-20.4515,Q,Q
2023-03-15 10:58:57:542,0,1.73545,-2.0887,-20.4333,Q,Q
2023-03-15 10:58:57:552,0,1.72365,-2.08933,-20.4162,Q,Q
2023-03-15 10:58:57:562,0,1.71272,-2.09141,-20.4031,Q,Q
2023-03-15 10:58:57:572,0,1.70743,-2.09458,-20.3929,Q,Q
2023-03-15 10:58:57:582,0,1.70455,-2.09857,-20.3816,Q,Q
2023-03-15 10:58:57:592,0,1.70321,-2.10634,-20.3713,Q,Q
2023-03-15 10:58:57:602,0,1.70173,-2.10968,-20.3625,Q,Q
2023-03-15 10:58:57:612,0,1.69552,-2.1119,-20.3539,Q,Q
2023-03-15 10:58:57:621,0,1.68769,-2.11623,-20.3487,Q,Q
2023-03-15 10:58:57:632,0,1.67484,-2.12526,-20.3419,Q,Q
2023-03-15 10:58:57:642,0,1.65762,-2.13078,-20.3377,Q,Q
2023-03-15 10:58:57:652,0,1.63876,-2.13474,-20.3408,Q,Q
2023-03-15 10:58:57:662,0,1.61959,-2.13057,-20.3446,Q,Q
2023-03-15 10:58:57:672,0,1.60476,-2.12571,-20.3521,Q,Q
2023-03-15 10:58:57:682,0,1.58961,-2.12511,-20.3583,Q,Q
2023-03-15 10:58:57:692,0,1.58154,-2.12258,-20.3641,Q,Q
2023-03-15 10:58:57:702,0,1.57932,-2.12259,-20.3679,Q,Q
2023-03-15 10:58:57:712,0,1.57562,-2.12448,-20.3743,Q,Q
2023-03-15 10:58:57:722,0,1.56893,-2.12189,-20.3765,Q,Q
2023-03-15 10:58:57:731,0,1.56123,-2.11471,-20.3796,Q,Q
2023-03-15 10:58:57:742,0,1.55299,-2.11097,-20.3876,Q,Q
2023-03-15 10:58:57:752,0,1.54448,-2.1064,-20.3957,Q,Q
2023-03-15 10:58:57:762,0,1.53325,-2.107,-20.4041,Q,Q
2023-03-15 10:58:57:771,0,1.52299,-2.10423,-20.4146,Q,Q
2023-03-15 10:58:57:781,0,1.51676,-2.10104,-20.4282,Q,Q
2023-03-15 10:58:57:791,0,1.51284,-2.0998,-20.4452,Q,Q
2023-03-15 10:58:57:801,0,1.50931,-2.09416,-20.4559,Q,Q
2023-03-15 10:58:57:812,0,1.5041,-2.09037,-20.4714,Q,Q
2023-03-15 10:58:57:821,0,1.49896,-2.09446,-20.4861,Q,Q
2023-03-15 10:58:57:831,0,1.49057,-2.10644,-20.5012,Q,Q
2023-03-15 10:58:57:841,0,1.48065,-2.11495,-20.5114,Q,Q
2023-03-15 10:58:57:851,0,1.47301,-2.12497,-20.5244,Q,Q
2023-03-15 10:58:57:861,0,1.46452,-2.13443,-20.5348,Q,Q
2023-03-15 10:58:57:872,0,1.45201,-2.14725,-20.5472,Q,Q
2023-03-15 10:58:57:881,0,1.44192,-2.16062,-20.5623,Q,Q
2023-03-15 10:58:57:891,0,1.43446,-2.17138,-20.5734,Q,Q
2023-03-15 10:58:57:902,0,1.43625,-2.18045,-20.5803,Q,Q
2023-03-15 10:58:57:912,0,1.44533,-2.19088,-20.5859,Q,Q
2023-03-15 10:58:57:921,0,1.45841,-2.20617,-20.5873,Q,Q
2023-03-15 10:58:57:932,0,1.46815,-2.21899,-20.5869,Q,Q
2023-03-15 10:58:57:941,0,1.47605,-2.23306,-20.5806,Q,Q
2023-03-15 10:58:57:951,0,1.48296,-2.24237,-20.5747,Q,Q
2023-03-15 10:58:57:961,0,1.48602,-2.25382,-20.5673,Q,Q
2023-03-15 10:58:57:971,0,1.48008,-2.26414,-20.5584,Q,Q
2023-03-15 10:58:57:981,0,1.46653,-2.26551,-20.553,Q,Q
2023-03-15 10:58:57:991,0,1.45369,-2.26566,-20.5533,Q,Q
2023-03-15 10:58:58:1,0,1.4398,-2.26716,-20.5534,Q,Q
2023-03-15 10:58:58:11,0,1.4245,-2.2709,-20.5568,Q,Q
2023-03-15 10:58:58:21,0,1.40236,-2.2888,-20.5667,Q,Q
2023-03-15 10:58:58:32,0,1.37518,-2.30401,-20.5841,Q,Q
2023-03-15 10:58:58:41,0,1.34764,-2.31349,-20.6076,Q,Q
2023-03-15 10:58:58:52,0,1.3254,-2.31521,-20.6382,Q,Q
2023-03-15 10:58:58:62,0,1.30497,-2.30728,-20.6696,Q,Q
2023-03-15 10:58:58:71,0,1.28373,-2.29836,-20.7041,Q,Q
2023-03-15 10:58:58:81,0,1.2542,-2.28676,-20.7426,Q,Q
2023-03-15 10:58:58:91,0,1.21944,-2.27884,-20.7769,Q,Q
2023-03-15 10:58:58:101,0,1.1828,-2.27822,-20.8119,Q,Q
2023-03-15 10:58:58:111,0,1.14184,-2.2958,-20.8486,Q,Q
2023-03-15 10:58:58:121,0,1.09556,-2.3177,-20.8812,Q,Q
2023-03-15 10:58:58:131,0,1.05199,-2.33228,-20.9173,Q,Q
2023-03-15 10:58:58:141,0,1.01232,-2.34034,-20.9566,Q,Q
2023-03-15 10:58:58:151,0,0.973814,-2.34225,-20.9961,Q,Q
2023-03-15 10:58:58:161,0,0.932831,-2.33183,-21.0355,Q,Q
2023-03-15 10:58:58:171,0,0.894776,-2.32577,-21.0743,Q,Q
2023-03-15 10:58:58:181,0,0.855667,-2.32333,-21.1124,Q,Q
2023-03-15 10:58:58:191,0,0.811563,-2.32429,-21.1467,Q,Q
2023-03-15 10:58:58:201,0,0.768242,-2.32613,-21.1876,Q,Q
2023-03-15 10:58:58:211,0,0.726677,-2.32996,-21.2327,Q,Q
