Timestamp_cmd,imu_cmd,roll_delta,pitch_delta,yaw_delta,voice_type,voice_length
2023-03-14 20:10:25:160,0,-25.8241,-4.32795,65.3521,Q,Q
2023-03-14 20:10:25:169,0,-25.8161,-4.32376,65.3559,Q,Q
2023-03-14 20:10:25:179,0,-25.8102,-4.31831,65.3593,Q,Q
2023-03-14 20:10:25:189,0,-25.8083,-4.31326,65.3597,Q,Q
2023-03-14 20:10:25:199,0,-25.8061,-4.31197,65.3586,Q,Q
2023-03-14 20:10:25:209,0,-25.7996,-4.31239,65.3552,Q,Q
2023-03-14 20:10:25:219,0,-25.7962,-4.31203,65.3518,Q,Q
2023-03-14 20:10:25:229,0,-25.7917,-4.31063,65.3499,Q,Q
2023-03-14 20:10:25:239,0,-25.7882,-4.31084,65.3464,Q,Q
2023-03-14 20:10:25:249,0,-25.7836,-4.31049,65.3422,Q,Q
2023-03-14 20:10:25:259,0,-25.7822,-4.30732,65.3414,Q,Q
2023-03-14 20:10:25:269,0,-25.7813,-4.30697,65.3428,Q,Q
2023-03-14 20:10:25:279,0,-25.7811,-4.30321,65.3435,Q,Q
2023-03-14 20:10:25:289,0,-25.7778,-4.29632,65.3448,Q,Q
2023-03-14 20:10:25:299,0,-25.7768,-4.2849,65.3394,Q,Q
2023-03-14 20:10:25:309,0,-25.7705,-4.27168,65.3339,Q,Q
2023-03-14 20:10:25:319,0,-25.7621,-4.26276,65.3203,Q,Q
2023-03-14 20:10:25:329,0,-25.7574,-4.25512,65.3098,Q,Q
2023-03-14 20:10:25:339,0,-25.7535,-4.25295,65.2993,Q,Q
2023-03-14 20:10:25:349,0,-25.7445,-4.24845,65.2906,Q,Q
2023-03-14 20:10:25:359,0,-25.7392,-4.24666,65.2805,Q,Q
2023-03-14 20:10:25:369,0,-25.7365,-4.24331,65.2741,Q,Q
2023-03-14 20:10:25:379,0,-25.7354,-4.23627,65.2604,Q,Q
2023-03-14 20:10:25:389,0,-25.7333,-4.22679,65.2471,Q,Q
2023-03-14 20:10:25:399,0,-25.7275,-4.21794,65.2331,Q,Q
2023-03-14 20:10:25:409,0,-25.7195,-4.2044,65.2206,Q,Q
2023-03-14 20:10:25:419,0,-25.7117,-4.18983,65.2091,Q,Q
2023-03-14 20:10:25:429,0,-25.7047,-4.17732,65.1991,Q,Q
2023-03-14 20:10:25:439,0,-25.6954,-4.17097,65.193,Q,Q
2023-03-14 20:10:25:449,0,-25.6928,-4.1636,65.1848,Q,Q
2023-03-14 20:10:25:459,0,-25.688,-4.16128,65.1788,Q,Q
2023-03-14 20:10:25:469,0,-25.6808,-4.15786,65.174,Q,Q
2023-03-14 20:10:25:479,0,-25.674,-4.15473,65.1682,Q,Q
2023-03-14 20:10:25:489,0,-25.672,-4.15369,65.1622,Q,Q
2023-03-14 20:10:25:499,0,-25.6726,-4.15352,65.1587,Q,Q
2023-03-14 20:10:25:509,0,-25.6666,-4.15325,65.1567,Q,Q
2023-03-14 20:10:25:519,0,-25.6695,-4.15248,65.1587,Q,Q
2023-03-14 20:10:25:529,0,-25.6692,-4.15176,65.1544,Q,Q
2023-03-14 20:10:25:539,0,-25.6702,-4.15107,65.1568,Q,Q
2023-03-14 20:10:25:549,0,-25.6712,-4.14963,65.1592,Q,Q
2023-03-14 20:10:25:559,0,-25.6766,-4.14684,65.1585,Q,Q
2023-03-14 20:10:25:569,0,-25.6829,-4.14595,65.1606,Q,Q
2023-03-14 20:10:25:579,0,-25.6851,-4.14391,65.1589,Q,Q
2023-03-14 20:10:25:589,0,-25.6878,-4.14057,65.1557,Q,Q
2023-03-14 20:10:25:599,0,-25.6914,-4.1401,65.1484,Q,Q
2023-03-14 20:10:25:608,0,-25.6995,-4.13813,65.1395,Q,Q
2023-03-14 20:10:25:618,0,-25.7026,-4.13444,65.129,Q,Q
2023-03-14 20:10:25:628,0,-25.7101,-4.13367,65.121,Q,Q
2023-03-14 20:10:25:638,0,-25.7168,-4.133,65.1152,Q,Q
2023-03-14 20:10:25:648,0,-25.7228,-4.1314,65.1082,Q,Q
2023-03-14 20:10:25:658,0,-25.7343,-4.13079,65.1033,Q,Q
2023-03-14 20:10:25:668,0,-25.7408,-4.12943,65.0974,Q,Q
2023-03-14 20:10:25:678,0,-25.7474,-4.12403,65.0944,Q,Q
2023-03-14 20:10:25:689,0,-25.7556,-4.11895,65.092,Q,Q
2023-03-14 20:10:25:698,0,-25.7639,-4.11667,65.0913,Q,Q
2023-03-14 20:10:25:709,0,-25.7713,-4.10842,65.0941,Q,Q
2023-03-14 20:10:25:718,0,-25.7754,-4.09878,65.0952,Q,Q
2023-03-14 20:10:25:728,0,-25.7853,-4.0909,65.0985,Q,Q
2023-03-14 20:10:25:738,0,-25.7932,-4.08046,65.1015,Q,Q
2023-03-14 20:10:25:748,0,-25.8019,-4.06709,65.1063,Q,Q
2023-03-14 20:10:25:759,0,-25.8132,-4.05702,65.1084,Q,Q
2023-03-14 20:10:25:768,0,-25.8231,-4.04165,65.1155,Q,Q
2023-03-14 20:10:25:778,0,-25.8335,-4.02695,65.1256,Q,Q
2023-03-14 20:10:25:789,0,-25.8433,-4.01182,65.133,Q,Q
2023-03-14 20:10:25:798,0,-25.8508,-3.99981,65.1415,Q,Q
2023-03-14 20:10:25:809,0,-25.8533,-3.98882,65.1519,Q,Q
2023-03-14 20:10:25:819,0,-25.8572,-3.97943,65.1609,Q,Q
2023-03-14 20:10:25:829,0,-25.8625,-3.97157,65.173,Q,Q
2023-03-14 20:10:25:839,0,-25.8711,-3.95792,65.1788,Q,Q
2023-03-14 20:10:25:849,0,-25.878,-3.9437,65.1912,Q,Q
2023-03-14 20:10:25:859,0,-25.8899,-3.92863,65.2055,Q,Q
2023-03-14 20:10:25:868,0,-25.9006,-3.9095,65.2219,Q,Q
2023-03-14 20:10:25:878,0,-25.9109,-3.88848,65.2374,Q,Q
2023-03-14 20:10:25:889,0,-25.917,-3.86723,65.2475,Q,Q
2023-03-14 20:10:25:898,0,-25.9162,-3.84501,65.2491,Q,Q
2023-03-14 20:10:25:909,0,-25.908,-3.82339,65.2335,Q,Q
2023-03-14 20:10:25:918,0,-25.8994,-3.80616,65.202,Q,Q
2023-03-14 20:10:25:928,0,-25.8857,-3.79605,65.1564,Q,Q
2023-03-14 20:10:25:939,0,-25.8791,-3.79614,65.1079,Q,Q
2023-03-14 20:10:25:949,0,-25.8882,-3.79999,65.0613,Q,Q
2023-03-14 20:10:25:959,0,-25.9156,-3.80638,65.0194,Q,Q
2023-03-14 20:10:25:969,0,-25.9626,-3.80417,64.986,Q,Q
2023-03-14 20:10:25:979,0,-26.0221,-3.79718,64.9696,Q,Q
2023-03-14 20:10:25:989,0,-26.0937,-3.78518,64.9722,Q,Q
2023-03-14 20:10:25:999,0,-26.1714,-3.76754,64.9871,Q,Q
2023-03-14 20:10:26:9,0,-26.248,-3.73731,65.0193,Q,Q
2023-03-14 20:10:26:19,0,-26.324,-3.69407,65.061,Q,Q
2023-03-14 20:10:26:29,0,-26.3989,-3.64299,65.1081,Q,Q
2023-03-14 20:10:26:39,0,-26.4702,-3.59211,65.1665,Q,Q
2023-03-14 20:10:26:49,0,-26.5464,-3.54685,65.2398,Q,Q
2023-03-14 20:10:26:59,0,-26.6315,-3.50891,65.3182,Q,Q
2023-03-14 20:10:26:69,0,-26.7207,-3.47968,65.4064,Q,Q
2023-03-14 20:10:26:79,0,-26.8169,-3.4602,65.5005,Q,Q
2023-03-14 20:10:26:89,0,-26.9231,-3.44828,65.6002,Q,Q
2023-03-14 20:10:26:99,0,-27.0429,-3.43701,65.7017,Q,Q
2023-03-14 20:10:26:109,0,-27.1776,-3.43331,65.8026,Q,Q
2023-03-14 20:10:26:119,0,-27.3316,-3.42943,65.9089,Q,Q
2023-03-14 20:10:26:129,0,-27.504,-3.42189,66.0163,Q,Q
2023-03-14 20:10:26:139,0,-27.6997,-3.41027,66.1259,Q,Q
2023-03-14 20:10:26:149,0,-27.9248,-3.38931,66.2399,Q,Q
2023-03-14 20:10:26:159,0,-28.1807,-3.35666,66.3541,Q,Q
2023-03-14 20:10:26:169,0,-28.4667,-3.31132,66.4657,Q,Q
2023-03-14 20:10:26:179,0,-28.7775,-3.25098,66.5753,Q,Q
2023-03-14 20:10:26:189,0,-29.112,-3.17693,66.6817,Q,Q
2023-03-14 20:10:26:199,0,-29.4688,-3.08735,66.7849,Q,Q
2023-03-14 20:10:26:209,0,-29.8467,-2.98763,66.8888,Q,Q
2023-03-14 20:10:26:219,0,-30.2449,-2.8806,66.9909,Q,Q
2023-03-14 20:10:26:229,0,-30.6537,-2.77758,67.0893,Q,Q
2023-03-14 20:10:26:239,0,-31.0519,-2.68009,67.1825,Q,Q
2023-03-14 20:10:26:249,0,-31.4112,-2.58448,67.2771,Q,Q
2023-03-14 20:10:26:259,0,-31.7377,-2.48309,67.3653,Q,Q
2023-03-14 20:10:26:269,0,-32.0359,-2.38315,67.4484,Q,Q
2023-03-14 20:10:26:279,0,-32.3125,-2.27636,67.5265,Q,Q
2023-03-14 20:10:26:289,0,-32.5806,-2.17191,67.6019,Q,Q
2023-03-14 20:10:26:299,0,-32.8399,-2.06522,67.6625,Q,Q
2023-03-14 20:10:26:309,0,-33.0902,-1.96451,67.7157,Q,Q
2023-03-14 20:10:26:319,0,-33.32,-1.86684,67.7609,Q,Q
2023-03-14 20:10:26:329,0,-33.5295,-1.77676,67.7986,Q,Q
2023-03-14 20:10:26:339,0,-33.7076,-1.68549,67.829,Q,Q
2023-03-14 20:10:26:349,0,-33.8662,-1.59133,67.8493,Q,Q
2023-03-14 20:10:26:359,0,-34.005,-1.49953,67.8604,Q,Q
2023-03-14 20:10:26:369,0,-34.1321,-1.40766,67.8566,Q,Q
2023-03-14 20:10:26:379,0,-34.2552,-1.3229,67.844,Q,Q
2023-03-14 20:10:26:389,0,-34.3709,-1.24398,67.8185,Q,Q
2023-03-14 20:10:26:399,0,-34.483,-1.17211,67.7787,Q,Q
2023-03-14 20:10:26:409,0,-34.5876,-1.10713,67.7374,Q,Q
2023-03-14 20:10:26:419,0,-34.6826,-1.04987,67.6894,Q,Q
2023-03-14 20:10:26:429,0,-34.7655,-1.00236,67.6359,Q,Q
2023-03-14 20:10:26:439,0,-34.8391,-0.957626,67.5779,Q,Q
2023-03-14 20:10:26:449,0,-34.8999,-0.921752,67.5196,Q,Q
2023-03-14 20:10:26:459,0,-34.9482,-0.89748,67.4595,Q,Q
2023-03-14 20:10:26:469,0,-34.9862,-0.877895,67.3995,Q,Q
2023-03-14 20:10:26:479,0,-35.0122,-0.864974,67.3404,Q,Q
2023-03-14 20:10:26:489,0,-35.0325,-0.85714,67.2778,Q,Q
2023-03-14 20:10:26:499,0,-35.0444,-0.853611,67.2193,Q,Q
2023-03-14 20:10:26:509,0,-35.0463,-0.855221,67.1604,Q,Q
2023-03-14 20:10:26:519,0,-35.0388,-0.858918,67.1015,Q,Q
2023-03-14 20:10:26:529,0,-35.0205,-0.85963,67.0411,Q,Q
2023-03-14 20:10:26:539,0,-34.9974,-0.860721,66.9764,Q,Q
2023-03-14 20:10:26:549,0,-34.9739,-0.860385,66.9106,Q,Q
2023-03-14 20:10:26:559,0,-34.952,-0.862665,66.8455,Q,Q
2023-03-14 20:10:26:569,0,-34.9357,-0.868031,66.7846,Q,Q
2023-03-14 20:10:26:579,0,-34.916,-0.873995,66.7198,Q,Q
2023-03-14 20:10:26:589,0,-34.8893,-0.883233,66.653,Q,Q
2023-03-14 20:10:26:599,0,-34.8596,-0.889579,66.593,Q,Q
2023-03-14 20:10:26:609,0,-34.8264,-0.897446,66.5247,Q,Q
2023-03-14 20:10:26:619,0,-34.7937,-0.906806,66.4564,Q,Q
2023-03-14 20:10:26:629,0,-34.7579,-0.920909,66.3871,Q,Q
2023-03-14 20:10:26:639,0,-34.7227,-0.939896,66.3217,Q,Q
2023-03-14 20:10:26:649,0,-34.6876,-0.961733,66.2543,Q,Q
2023-03-14 20:10:26:659,0,-34.653,-0.993141,66.1914,Q,Q
2023-03-14 20:10:26:669,0,-34.6131,-1.02632,66.1298,Q,Q
2023-03-14 20:10:26:679,0,-34.5657,-1.06182,66.0672,Q,Q
2023-03-14 20:10:26:689,0,-34.5108,-1.09768,66.0099,Q,Q
2023-03-14 20:10:26:699,0,-34.4471,-1.13877,65.9518,Q,Q
2023-03-14 20:10:26:709,0,-34.3678,-1.18274,65.8936,Q,Q
2023-03-14 20:10:26:719,0,-34.2825,-1.22613,65.8304,Q,Q
2023-03-14 20:10:26:729,0,-34.1857,-1.26902,65.7685,Q,Q
2023-03-14 20:10:26:739,0,-34.0784,-1.30881,65.7081,Q,Q
2023-03-14 20:10:26:749,0,-33.9657,-1.35723,65.6478,Q,Q
2023-03-14 20:10:26:759,0,-33.8431,-1.41047,65.5896,Q,Q
2023-03-14 20:10:26:769,0,-33.7184,-1.46255,65.5288,Q,Q
2023-03-14 20:10:26:779,0,-33.5837,-1.51696,65.4707,Q,Q
2023-03-14 20:10:26:789,0,-33.4517,-1.56909,65.4164,Q,Q
2023-03-14 20:10:26:799,0,-33.3283,-1.61933,65.3594,Q,Q
2023-03-14 20:10:26:809,0,-33.2124,-1.66699,65.3065,Q,Q
2023-03-14 20:10:26:819,0,-33.098,-1.71542,65.2563,Q,Q
2023-03-14 20:10:26:829,0,-32.987,-1.7603,65.2046,Q,Q
2023-03-14 20:10:26:839,0,-32.8773,-1.80256,65.1567,Q,Q
2023-03-14 20:10:26:849,0,-32.7672,-1.83631,65.1141,Q,Q
2023-03-14 20:10:26:859,0,-32.6612,-1.86426,65.0737,Q,Q
2023-03-14 20:10:26:869,0,-32.5573,-1.88794,65.036,Q,Q
2023-03-14 20:10:26:879,0,-32.4622,-1.91018,65.0014,Q,Q
2023-03-14 20:10:26:889,0,-32.3658,-1.93445,64.9693,Q,Q
2023-03-14 20:10:26:899,0,-32.2684,-1.95403,64.9392,Q,Q
2023-03-14 20:10:26:909,0,-32.1698,-1.96383,64.909,Q,Q
2023-03-14 20:10:26:919,0,-32.0807,-1.9735,64.878,Q,Q
2023-03-14 20:10:26:929,0,-31.9932,-1.98253,64.841,Q,Q
2023-03-14 20:10:26:939,0,-31.9063,-1.99041,64.8038,Q,Q
2023-03-14 20:10:26:949,0,-31.8204,-2.00685,64.7695,Q,Q
2023-03-14 20:10:26:959,0,-31.7411,-2.02662,64.7401,Q,Q
2023-03-14 20:10:26:969,0,-31.6702,-2.04918,64.7123,Q,Q
2023-03-14 20:10:26:979,0,-31.6053,-2.07907,64.6957,Q,Q
2023-03-14 20:10:26:989,0,-31.5488,-2.11581,64.6839,Q,Q
2023-03-14 20:10:26:999,0,-31.4945,-2.14996,64.6762,Q,Q
2023-03-14 20:10:27:9,0,-31.4397,-2.18076,64.673,Q,Q
2023-03-14 20:10:27:19,0,-31.3839,-2.21376,64.6754,Q,Q
2023-03-14 20:10:27:29,0,-31.3307,-2.23804,64.6795,Q,Q
2023-03-14 20:10:27:39,0,-31.2702,-2.25875,64.6852,Q,Q
2023-03-14 20:10:27:49,0,-31.2096,-2.27272,64.6905,Q,Q
2023-03-14 20:10:27:59,0,-31.1454,-2.28645,64.6978,Q,Q
2023-03-14 20:10:27:69,0,-31.0808,-2.29855,64.7047,Q,Q
2023-03-14 20:10:27:79,0,-31.0176,-2.31162,64.7144,Q,Q
2023-03-14 20:10:27:89,0,-30.9565,-2.32448,64.7227,Q,Q
2023-03-14 20:10:27:99,0,-30.8967,-2.33598,64.7328,Q,Q
2023-03-14 20:10:27:109,0,-30.8436,-2.35061,64.7463,Q,Q
2023-03-14 20:10:27:119,0,-30.7915,-2.35948,64.7597,Q,Q
2023-03-14 20:10:27:129,0,-30.7387,-2.36837,64.7789,Q,Q
2023-03-14 20:10:27:139,0,-30.6906,-2.38234,64.798,Q,Q
2023-03-14 20:10:27:149,0,-30.6391,-2.39446,64.8154,Q,Q
2023-03-14 20:10:27:159,0,-30.584,-2.40576,64.8347,Q,Q
2023-03-14 20:10:27:169,0,-30.5349,-2.42015,64.8536,Q,Q
2023-03-14 20:10:27:179,0,-30.4894,-2.4295,64.8748,Q,Q
2023-03-14 20:10:27:189,0,-30.4388,-2.44164,64.8938,Q,Q
2023-03-14 20:10:27:199,0,-30.3871,-2.45121,64.9126,Q,Q
2023-03-14 20:10:27:209,0,-30.3325,-2.46648,64.9274,Q,Q
2023-03-14 20:10:27:219,0,-30.2731,-2.48301,64.9472,Q,Q
2023-03-14 20:10:27:229,0,-30.2112,-2.50272,64.9645,Q,Q
2023-03-14 20:10:27:239,0,-30.151,-2.52442,64.983,Q,Q
2023-03-14 20:10:27:249,0,-30.0957,-2.54862,65.0044,Q,Q
2023-03-14 20:10:27:258,0,-30.0453,-2.57234,65.024,Q,Q
2023-03-14 20:10:27:268,0,-29.9958,-2.59431,65.041,Q,Q
2023-03-14 20:10:27:279,0,-29.9506,-2.6091,65.0589,Q,Q
2023-03-14 20:10:27:289,0,-29.9031,-2.63074,65.0754,Q,Q
2023-03-14 20:10:27:299,0,-29.8494,-2.64808,65.0977,Q,Q
2023-03-14 20:10:27:309,0,-29.788,-2.66024,65.1191,Q,Q
2023-03-14 20:10:27:319,0,-29.7174,-2.66609,65.1397,Q,Q
2023-03-14 20:10:27:329,0,-29.6429,-2.66717,65.1604,Q,Q
2023-03-14 20:10:27:339,0,-29.5633,-2.66337,65.1836,Q,Q
2023-03-14 20:10:27:349,0,-29.4798,-2.66087,65.2007,Q,Q
2023-03-14 20:10:27:359,0,-29.3995,-2.65794,65.2235,Q,Q
2023-03-14 20:10:27:369,0,-29.3214,-2.66132,65.2524,Q,Q
2023-03-14 20:10:27:379,0,-29.2464,-2.66608,65.2798,Q,Q
2023-03-14 20:10:27:389,0,-29.1693,-2.67266,65.3078,Q,Q
2023-03-14 20:10:27:399,0,-29.0975,-2.68515,65.3354,Q,Q
2023-03-14 20:10:27:409,0,-29.0258,-2.69768,65.3656,Q,Q
2023-03-14 20:10:27:419,0,-28.9555,-2.71496,65.3929,Q,Q
2023-03-14 20:10:27:429,0,-28.8925,-2.7359,65.42,Q,Q
2023-03-14 20:10:27:439,0,-28.8347,-2.75433,65.448,Q,Q
2023-03-14 20:10:27:449,0,-28.7842,-2.77198,65.4752,Q,Q
2023-03-14 20:10:27:459,0,-28.7376,-2.78422,65.5031,Q,Q
2023-03-14 20:10:27:469,0,-28.6916,-2.79312,65.5264,Q,Q
2023-03-14 20:10:27:479,0,-28.6485,-2.80202,65.5452,Q,Q
2023-03-14 20:10:27:489,0,-28.6018,-2.80887,65.5618,Q,Q
2023-03-14 20:10:27:499,0,-28.5545,-2.8157,65.577,Q,Q
2023-03-14 20:10:27:509,0,-28.5132,-2.81914,65.5846,Q,Q
2023-03-14 20:10:27:519,0,-28.4678,-2.82692,65.5877,Q,Q
2023-03-14 20:10:27:529,0,-28.4277,-2.83655,65.5902,Q,Q
2023-03-14 20:10:27:539,0,-28.3923,-2.8483,65.5923,Q,Q
2023-03-14 20:10:27:549,0,-28.3652,-2.85971,65.5919,Q,Q
2023-03-14 20:10:27:559,0,-28.3373,-2.87411,65.5904,Q,Q
2023-03-14 20:10:27:569,0,-28.3129,-2.88599,65.5867,Q,Q
2023-03-14 20:10:27:579,0,-28.2927,-2.90172,65.5785,Q,Q
2023-03-14 20:10:27:589,0,-28.2775,-2.91395,65.5744,Q,Q
2023-03-14 20:10:27:599,0,-28.2617,-2.92229,65.5678,Q,Q
2023-03-14 20:10:27:609,0,-28.245,-2.92737,65.5579,Q,Q
2023-03-14 20:10:27:619,0,-28.2266,-2.93111,65.5488,Q,Q
2023-03-14 20:10:27:629,0,-28.2135,-2.93751,65.5375,Q,Q
2023-03-14 20:10:27:638,0,-28.2007,-2.943,65.5289,Q,Q
2023-03-14 20:10:27:649,0,-28.1912,-2.94764,65.5172,Q,Q
2023-03-14 20:10:27:659,0,-28.1874,-2.95645,65.51,Q,Q
2023-03-14 20:10:27:669,0,-28.182,-2.96226,65.5015,Q,Q
2023-03-14 20:10:27:679,0,-28.1735,-2.96864,65.4933,Q,Q
2023-03-14 20:10:27:689,0,-28.1698,-2.97753,65.4864,Q,Q
2023-03-14 20:10:27:699,0,-28.1671,-2.9862,65.4804,Q,Q
2023-03-14 20:10:27:709,0,-28.1618,-2.998,65.4777,Q,Q
2023-03-14 20:10:27:719,0,-28.1563,-3.01156,65.4725,Q,Q
2023-03-14 20:10:27:729,0,-28.1498,-3.02644,65.4714,Q,Q
2023-03-14 20:10:27:739,0,-28.1477,-3.04204,65.4724,Q,Q
2023-03-14 20:10:27:749,0,-28.1433,-3.06315,65.4742,Q,Q
2023-03-14 20:10:27:759,0,-28.137,-3.08005,65.4758,Q,Q
2023-03-14 20:10:27:769,0,-28.1345,-3.09877,65.4807,Q,Q
2023-03-14 20:10:27:779,0,-28.1309,-3.11451,65.4836,Q,Q
2023-03-14 20:10:27:789,0,-28.1289,-3.12812,65.4829,Q,Q
2023-03-14 20:10:27:799,0,-28.1281,-3.14489,65.4829,Q,Q
2023-03-14 20:10:27:809,0,-28.123,-3.16173,65.4781,Q,Q
2023-03-14 20:10:27:819,0,-28.1199,-3.17648,65.4762,Q,Q
2023-03-14 20:10:27:829,0,-28.1115,-3.18995,65.4666,Q,Q
2023-03-14 20:10:27:839,0,-28.1031,-3.20191,65.4549,Q,Q
2023-03-14 20:10:27:849,0,-28.0984,-3.21441,65.4415,Q,Q
2023-03-14 20:10:27:859,0,-28.0917,-3.22346,65.4257,Q,Q
2023-03-14 20:10:27:869,0,-28.0853,-3.23473,65.411,Q,Q
2023-03-14 20:10:27:879,0,-28.0838,-3.24617,65.3944,Q,Q
2023-03-14 20:10:27:889,0,-28.082,-3.26172,65.3728,Q,Q
2023-03-14 20:10:27:899,0,-28.079,-3.27397,65.3492,Q,Q
2023-03-14 20:10:27:909,0,-28.0704,-3.28266,65.3267,Q,Q
2023-03-14 20:10:27:919,0,-28.0625,-3.29861,65.3066,Q,Q
2023-03-14 20:10:27:929,0,-28.0557,-3.31673,65.2825,Q,Q
2023-03-14 20:10:27:939,0,-28.0547,-3.33455,65.2593,Q,Q
2023-03-14 20:10:27:949,0,-28.0547,-3.35222,65.2372,Q,Q
2023-03-14 20:10:27:959,0,-28.0512,-3.37224,65.2135,Q,Q
2023-03-14 20:10:27:969,0,-28.0476,-3.38786,65.192,Q,Q
2023-03-14 20:10:27:979,0,-28.0399,-3.40158,65.1725,Q,Q
2023-03-14 20:10:27:989,0,-28.0292,-3.4156,65.1564,Q,Q
2023-03-14 20:10:27:999,0,-28.0134,-3.43183,65.1409,Q,Q
2023-03-14 20:10:28:9,0,-27.9954,-3.4416,65.1273,Q,Q
2023-03-14 20:10:28:19,0,-27.9783,-3.4479,65.1176,Q,Q
2023-03-14 20:10:28:29,0,-27.9639,-3.45317,65.1103,Q,Q
2023-03-14 20:10:28:39,0,-27.9443,-3.45595,65.1058,Q,Q
2023-03-14 20:10:28:49,0,-27.926,-3.44326,65.1045,Q,Q
2023-03-14 20:10:28:59,0,-27.8983,-3.43487,65.1031,Q,Q
2023-03-14 20:10:28:69,0,-27.8749,-3.43519,65.107,Q,Q
2023-03-14 20:10:28:79,0,-27.8578,-3.4342,65.1127,Q,Q
2023-03-14 20:10:28:89,0,-27.8394,-3.43771,65.1173,Q,Q
2023-03-14 20:10:28:99,0,-27.82,-3.43699,65.1195,Q,Q
2023-03-14 20:10:28:109,0,-27.8015,-3.43852,65.1236,Q,Q
2023-03-14 20:10:28:119,0,-27.7829,-3.43738,65.1241,Q,Q
2023-03-14 20:10:28:129,0,-27.7715,-3.44134,65.1222,Q,Q
2023-03-14 20:10:28:139,0,-27.7618,-3.4446,65.1209,Q,Q
2023-03-14 20:10:28:149,0,-27.7534,-3.44738,65.1171,Q,Q
2023-03-14 20:10:28:159,0,-27.7447,-3.45054,65.1128,Q,Q
2023-03-14 20:10:28:169,0,-27.7367,-3.44882,65.102,Q,Q
2023-03-14 20:10:28:179,0,-27.7296,-3.44908,65.0899,Q,Q
2023-03-14 20:10:28:189,0,-27.7186,-3.4522,65.0794,Q,Q
2023-03-14 20:10:28:199,0,-27.7061,-3.4533,65.0738,Q,Q
2023-03-14 20:10:28:209,0,-27.6938,-3.45805,65.0739,Q,Q
2023-03-14 20:10:28:219,0,-27.6782,-3.46346,65.0707,Q,Q
2023-03-14 20:10:28:229,0,-27.6692,-3.47124,65.0693,Q,Q
2023-03-14 20:10:28:239,0,-27.6632,-3.47414,65.071,Q,Q
2023-03-14 20:10:28:249,0,-27.655,-3.47643,65.0721,Q,Q
2023-03-14 20:10:28:259,0,-27.6464,-3.47228,65.0724,Q,Q
2023-03-14 20:10:28:269,0,-27.6409,-3.47091,65.0724,Q,Q
2023-03-14 20:10:28:279,0,-27.6361,-3.46812,65.0728,Q,Q
2023-03-14 20:10:28:288,0,-27.6314,-3.47084,65.0758,Q,Q
2023-03-14 20:10:28:299,0,-27.6266,-3.47523,65.0775,Q,Q
2023-03-14 20:10:28:309,0,-27.62,-3.48067,65.0782,Q,Q
2023-03-14 20:10:28:319,0,-27.6137,-3.48553,65.0792,Q,Q
2023-03-14 20:10:28:329,0,-27.6053,-3.48919,65.0787,Q,Q
2023-03-14 20:10:28:339,0,-27.5974,-3.49517,65.078,Q,Q
2023-03-14 20:10:28:349,0,-27.5934,-3.50697,65.0762,Q,Q
2023-03-14 20:10:28:359,0,-27.593,-3.51293,65.0777,Q,Q
2023-03-14 20:10:28:369,0,-27.5932,-3.52325,65.0759,Q,Q
2023-03-14 20:10:28:379,0,-27.5928,-3.53072,65.0791,Q,Q
2023-03-14 20:10:28:389,0,-27.5968,-3.54002,65.0847,Q,Q
2023-03-14 20:10:28:399,0,-27.6018,-3.54961,65.0911,Q,Q
2023-03-14 20:10:28:409,0,-27.6035,-3.5536,65.0966,Q,Q
2023-03-14 20:10:28:419,0,-27.6082,-3.55786,65.1036,Q,Q
2023-03-14 20:10:28:428,0,-27.6103,-3.56251,65.1099,Q,Q
2023-03-14 20:10:28:438,0,-27.6112,-3.56359,65.117,Q,Q
2023-03-14 20:10:28:449,0,-27.6108,-3.5684,65.1281,Q,Q
2023-03-14 20:10:28:459,0,-27.6081,-3.56934,65.1335,Q,Q
2023-03-14 20:10:28:469,0,-27.6055,-3.57461,65.1372,Q,Q
2023-03-14 20:10:28:479,0,-27.6064,-3.57908,65.1407,Q,Q
2023-03-14 20:10:28:489,0,-27.6043,-3.58261,65.1416,Q,Q
2023-03-14 20:10:28:499,0,-27.6059,-3.58375,65.1412,Q,Q
2023-03-14 20:10:28:509,0,-27.6089,-3.58763,65.137,Q,Q
2023-03-14 20:10:28:519,0,-27.6093,-3.58947,65.1336,Q,Q
2023-03-14 20:10:28:529,0,-27.6063,-3.59547,65.1319,Q,Q
2023-03-14 20:10:28:539,0,-27.6072,-3.60052,65.1296,Q,Q
2023-03-14 20:10:28:549,0,-27.6045,-3.60051,65.1267,Q,Q
2023-03-14 20:10:28:559,0,-27.5992,-3.60011,65.1257,Q,Q
2023-03-14 20:10:28:569,0,-27.597,-3.6015,65.1279,Q,Q
2023-03-14 20:10:28:579,0,-27.5935,-3.59824,65.1272,Q,Q
2023-03-14 20:10:28:589,0,-27.5907,-3.59912,65.1299,Q,Q
2023-03-14 20:10:28:599,0,-27.5879,-3.59636,65.1315,Q,Q
2023-03-14 20:10:28:609,0,-27.5844,-3.59259,65.1337,Q,Q
2023-03-14 20:10:28:619,0,-27.5809,-3.592,65.137,Q,Q
2023-03-14 20:10:28:629,0,-27.5816,-3.59064,65.1431,Q,Q
2023-03-14 20:10:28:639,0,-27.5804,-3.58939,65.1495,Q,Q
2023-03-14 20:10:28:649,0,-27.573,-3.58869,65.1531,Q,Q
2023-03-14 20:10:28:659,0,-27.5689,-3.59302,65.1591,Q,Q
2023-03-14 20:10:28:669,0,-27.5674,-3.59785,65.168,Q,Q
2023-03-14 20:10:28:679,0,-27.564,-3.60561,65.1755,Q,Q
2023-03-14 20:10:28:689,0,-27.5622,-3.60774,65.1866,Q,Q
2023-03-14 20:10:28:699,0,-27.5554,-3.61173,65.1929,Q,Q
2023-03-14 20:10:28:709,0,-27.5511,-3.61,65.2015,Q,Q
2023-03-14 20:10:28:719,0,-27.5436,-3.60624,65.2107,Q,Q
2023-03-14 20:10:28:729,0,-27.5382,-3.6059,65.214,Q,Q
2023-03-14 20:10:28:739,0,-27.5283,-3.59723,65.2148,Q,Q
2023-03-14 20:10:28:749,0,-27.5148,-3.58816,65.2167,Q,Q
2023-03-14 20:10:28:759,0,-27.5049,-3.58564,65.2162,Q,Q
2023-03-14 20:10:28:769,0,-27.4946,-3.58538,65.2146,Q,Q
2023-03-14 20:10:28:779,0,-27.4866,-3.58574,65.2114,Q,Q
2023-03-14 20:10:28:789,0,-27.4807,-3.58345,65.212,Q,Q
2023-03-14 20:10:28:799,0,-27.4701,-3.58019,65.212,Q,Q
2023-03-14 20:10:28:809,0,-27.4643,-3.58026,65.2091,Q,Q
2023-03-14 20:10:28:819,0,-27.4596,-3.58193,65.2092,Q,Q
2023-03-14 20:10:28:829,0,-27.4596,-3.58695,65.2147,Q,Q
2023-03-14 20:10:28:839,0,-27.4631,-3.59207,65.2218,Q,Q
2023-03-14 20:10:28:849,0,-27.4663,-3.59698,65.2255,Q,Q
2023-03-14 20:10:28:859,0,-27.4676,-3.60012,65.2301,Q,Q
2023-03-14 20:10:28:869,0,-27.4703,-3.59874,65.2334,Q,Q
2023-03-14 20:10:28:879,0,-27.4671,-3.59774,65.2368,Q,Q
2023-03-14 20:10:28:889,0,-27.4658,-3.59662,65.2385,Q,Q
2023-03-14 20:10:28:899,0,-27.463,-3.59834,65.2418,Q,Q
2023-03-14 20:10:28:909,0,-27.4581,-3.6014,65.2426,Q,Q
2023-03-14 20:10:28:919,0,-27.4586,-3.60522,65.2448,Q,Q
2023-03-14 20:10:28:929,0,-27.4626,-3.60597,65.2436,Q,Q
2023-03-14 20:10:28:939,0,-27.4689,-3.60453,65.2405,Q,Q
2023-03-14 20:10:28:949,0,-27.4738,-3.60016,65.2381,Q,Q
2023-03-14 20:10:28:959,0,-27.4797,-3.59524,65.2341,Q,Q
2023-03-14 20:10:28:969,0,-27.4861,-3.59202,65.2277,Q,Q
2023-03-14 20:10:28:979,0,-27.4917,-3.58924,65.2227,Q,Q
2023-03-14 20:10:28:989,0,-27.4959,-3.58322,65.2177,Q,Q
2023-03-14 20:10:28:999,0,-27.5002,-3.58153,65.2138,Q,Q
2023-03-14 20:10:29:9,0,-27.5106,-3.5787,65.2104,Q,Q
2023-03-14 20:10:29:19,0,-27.524,-3.57397,65.2047,Q,Q
2023-03-14 20:10:29:29,0,-27.5323,-3.57072,65.2003,Q,Q
2023-03-14 20:10:29:39,0,-27.5455,-3.57172,65.1961,Q,Q
2023-03-14 20:10:29:49,0,-27.5585,-3.56831,65.1906,Q,Q
2023-03-14 20:10:29:59,0,-27.5679,-3.56545,65.1848,Q,Q
2023-03-14 20:10:29:69,0,-27.5791,-3.55657,65.1789,Q,Q
2023-03-14 20:10:29:79,0,-27.5863,-3.55043,65.1711,Q,Q
2023-03-14 20:10:29:89,0,-27.5867,-3.54821,65.1643,Q,Q
2023-03-14 20:10:29:99,0,-27.5899,-3.54641,65.1637,Q,Q
2023-03-14 20:10:29:109,0,-27.5942,-3.54876,65.1654,Q,Q
2023-03-14 20:10:29:119,0,-27.6002,-3.55598,65.1699,Q,Q
2023-03-14 20:10:29:129,0,-27.6027,-3.56354,65.1732,Q,Q
2023-03-14 20:10:29:139,0,-27.6071,-3.57074,65.1779,Q,Q
2023-03-14 20:10:29:149,0,-27.615,-3.57864,65.1857,Q,Q
2023-03-14 20:10:29:159,0,-27.6173,-3.58907,65.1885,Q,Q
2023-03-14 20:10:29:169,0,-27.622,-3.59472,65.1907,Q,Q
2023-03-14 20:10:29:179,0,-27.6227,-3.60102,65.1932,Q,Q
2023-03-14 20:10:29:189,0,-27.6227,-3.60772,65.197,Q,Q
2023-03-14 20:10:29:199,0,-27.6202,-3.61547,65.2026,Q,Q
2023-03-14 20:10:29:209,0,-27.6215,-3.62645,65.2041,Q,Q
2023-03-14 20:10:29:219,0,-27.6263,-3.64294,65.2068,Q,Q
2023-03-14 20:10:29:229,0,-27.6319,-3.65436,65.2072,Q,Q
2023-03-14 20:10:29:239,0,-27.6329,-3.6648,65.2074,Q,Q
2023-03-14 20:10:29:249,0,-27.6337,-3.67474,65.2078,Q,Q
2023-03-14 20:10:29:259,0,-27.6379,-3.68527,65.2097,Q,Q
2023-03-14 20:10:29:269,0,-27.6403,-3.69887,65.2088,Q,Q
2023-03-14 20:10:29:279,0,-27.6415,-3.70936,65.2116,Q,Q
2023-03-14 20:10:29:289,0,-27.6413,-3.71847,65.2179,Q,Q
2023-03-14 20:10:29:299,0,-27.6455,-3.7286,65.2255,Q,Q
2023-03-14 20:10:29:309,0,-27.648,-3.7343,65.232,Q,Q
2023-03-14 20:10:29:319,0,-27.6502,-3.73908,65.2391,Q,Q
2023-03-14 20:10:29:329,0,-27.6517,-3.74323,65.2452,Q,Q
2023-03-14 20:10:29:339,0,-27.653,-3.74405,65.2508,Q,Q
2023-03-14 20:10:29:349,0,-27.653,-3.74267,65.2545,Q,Q
2023-03-14 20:10:29:359,0,-27.6514,-3.74173,65.2594,Q,Q
2023-03-14 20:10:29:369,0,-27.6509,-3.74123,65.2605,Q,Q
2023-03-14 20:10:29:379,0,-27.6496,-3.74118,65.2632,Q,Q
2023-03-14 20:10:29:389,0,-27.6455,-3.73847,65.2621,Q,Q
2023-03-14 20:10:29:399,0,-27.6414,-3.7403,65.2635,Q,Q
2023-03-14 20:10:29:409,0,-27.6343,-3.7396,65.2651,Q,Q
2023-03-14 20:10:29:419,0,-27.6288,-3.73903,65.2659,Q,Q
2023-03-14 20:10:29:429,0,-27.6221,-3.74155,65.2662,Q,Q
2023-03-14 20:10:29:439,0,-27.6196,-3.74148,65.2631,Q,Q
2023-03-14 20:10:29:449,0,-27.6157,-3.74403,65.2614,Q,Q
2023-03-14 20:10:29:459,0,-27.6135,-3.74325,65.2577,Q,Q
2023-03-14 20:10:29:469,0,-27.6117,-3.74532,65.2533,Q,Q
2023-03-14 20:10:29:479,0,-27.6094,-3.7456,65.2481,Q,Q
2023-03-14 20:10:29:489,0,-27.6066,-3.74345,65.2423,Q,Q
2023-03-14 20:10:29:499,0,-27.6033,-3.73936,65.2406,Q,Q
2023-03-14 20:10:29:509,0,-27.6033,-3.7401,65.2397,Q,Q
2023-03-14 20:10:29:519,0,-27.6013,-3.74328,65.2317,Q,Q
2023-03-14 20:10:29:529,0,-27.6018,-3.74386,65.2291,Q,Q
2023-03-14 20:10:29:539,0,-27.6048,-3.74371,65.2276,Q,Q
2023-03-14 20:10:29:549,0,-27.6061,-3.74204,65.2287,Q,Q
2023-03-14 20:10:29:559,0,-27.61,-3.74337,65.2289,Q,Q
2023-03-14 20:10:29:569,0,-27.6131,-3.7432,65.2305,Q,Q
2023-03-14 20:10:29:579,0,-27.617,-3.74119,65.234,Q,Q
2023-03-14 20:10:29:589,0,-27.6234,-3.74014,65.2413,Q,Q
2023-03-14 20:10:29:599,0,-27.6267,-3.73537,65.255,Q,Q
2023-03-14 20:10:29:609,0,-27.6281,-3.73423,65.265,Q,Q
2023-03-14 20:10:29:619,0,-27.6326,-3.73861,65.2739,Q,Q
2023-03-14 20:10:29:629,0,-27.6316,-3.74114,65.279,Q,Q
2023-03-14 20:10:29:639,0,-27.6347,-3.74162,65.282,Q,Q
2023-03-14 20:10:29:649,0,-27.6372,-3.7416,65.2856,Q,Q
2023-03-14 20:10:29:659,0,-27.6392,-3.73817,65.2854,Q,Q
2023-03-14 20:10:29:669,0,-27.6394,-3.74101,65.2839,Q,Q
2023-03-14 20:10:29:679,0,-27.6408,-3.73911,65.2795,Q,Q
2023-03-14 20:10:29:689,0,-27.6414,-3.73337,65.273,Q,Q
2023-03-14 20:10:29:699,0,-27.6414,-3.73474,65.2707,Q,Q
2023-03-14 20:10:29:709,0,-27.6434,-3.73869,65.272,Q,Q
2023-03-14 20:10:29:719,0,-27.6523,-3.74775,65.2771,Q,Q
2023-03-14 20:10:29:729,0,-27.6588,-3.75325,65.2895,Q,Q
2023-03-14 20:10:29:739,0,-27.6656,-3.75697,65.2988,Q,Q
2023-03-14 20:10:29:749,0,-27.6704,-3.75933,65.3135,Q,Q
2023-03-14 20:10:29:759,0,-27.6733,-3.75931,65.3233,Q,Q
2023-03-14 20:10:29:769,0,-27.6751,-3.76273,65.3317,Q,Q
2023-03-14 20:10:29:779,0,-27.6747,-3.76931,65.3396,Q,Q
2023-03-14 20:10:29:789,0,-27.6652,-3.78136,65.3407,Q,Q
2023-03-14 20:10:29:799,0,-27.6468,-3.7909,65.3403,Q,Q
2023-03-14 20:10:29:809,0,-27.6321,-3.79767,65.3349,Q,Q
2023-03-14 20:10:29:819,0,-27.6244,-3.81129,65.3239,Q,Q
2023-03-14 20:10:29:829,0,-27.6213,-3.82973,65.3106,Q,Q
2023-03-14 20:10:29:839,0,-27.6129,-3.84907,65.2905,Q,Q
2023-03-14 20:10:29:849,0,-27.603,-3.86433,65.267,Q,Q
2023-03-14 20:10:29:859,0,-27.5939,-3.877,65.2463,Q,Q
2023-03-14 20:10:29:869,0,-27.5845,-3.89224,65.2195,Q,Q
2023-03-14 20:10:29:879,0,-27.5774,-3.90797,65.1939,Q,Q
2023-03-14 20:10:29:889,0,-27.5716,-3.9249,65.17,Q,Q
2023-03-14 20:10:29:899,0,-27.5642,-3.93941,65.1483,Q,Q
2023-03-14 20:10:29:909,0,-27.561,-3.95189,65.1255,Q,Q
2023-03-14 20:10:29:919,0,-27.5593,-3.96413,65.104,Q,Q
2023-03-14 20:10:29:929,0,-27.5585,-3.97403,65.0852,Q,Q
2023-03-14 20:10:29:939,0,-27.5554,-3.98283,65.0718,Q,Q
2023-03-14 20:10:29:949,0,-27.5551,-3.98875,65.0592,Q,Q
2023-03-14 20:10:29:959,0,-27.5535,-3.99016,65.0498,Q,Q
2023-03-14 20:10:29:969,0,-27.55,-3.99032,65.0412,Q,Q
2023-03-14 20:10:29:979,0,-27.5458,-3.99187,65.0339,Q,Q
2023-03-14 20:10:29:989,0,-27.5408,-3.99674,65.0301,Q,Q
2023-03-14 20:10:29:999,0,-27.535,-3.99936,65.0265,Q,Q
2023-03-14 20:10:30:9,0,-27.535,-4.00209,65.0335,Q,Q
2023-03-14 20:10:30:19,0,-27.5301,-4.00922,65.0385,Q,Q
2023-03-14 20:10:30:29,0,-27.5251,-4.01655,65.0426,Q,Q
2023-03-14 20:10:30:39,0,-27.5195,-4.02539,65.0423,Q,Q
2023-03-14 20:10:30:49,0,-27.5112,-4.03877,65.0453,Q,Q
2023-03-14 20:10:30:59,0,-27.5009,-4.04501,65.0421,Q,Q
2023-03-14 20:10:30:69,0,-27.4901,-4.05218,65.0343,Q,Q
2023-03-14 20:10:30:79,0,-27.4788,-4.07022,65.0279,Q,Q
2023-03-14 20:10:30:89,0,-27.4743,-4.08724,65.0136,Q,Q
2023-03-14 20:10:30:99,0,-27.4698,-4.10088,64.9986,Q,Q
2023-03-14 20:10:30:109,0,-27.4608,-4.11937,64.9788,Q,Q
2023-03-14 20:10:30:119,0,-27.4538,-4.14053,64.9643,Q,Q
2023-03-14 20:10:30:129,0,-27.4457,-4.1591,64.9501,Q,Q
2023-03-14 20:10:30:139,0,-27.4369,-4.17948,64.9359,Q,Q
2023-03-14 20:10:30:149,0,-27.43,-4.20269,64.9229,Q,Q
2023-03-14 20:10:30:159,0,-27.4269,-4.22515,64.9113,Q,Q
2023-03-14 20:10:30:169,0,-27.4215,-4.24254,64.9054,Q,Q
2023-03-14 20:10:30:179,0,-27.4158,-4.26045,64.9016,Q,Q
2023-03-14 20:10:30:189,0,-27.4142,-4.27481,64.9012,Q,Q
2023-03-14 20:10:30:199,0,-27.4102,-4.29088,64.9006,Q,Q
2023-03-14 20:10:30:209,0,-27.4097,-4.30197,64.8995,Q,Q
2023-03-14 20:10:30:219,0,-27.4106,-4.31193,64.9009,Q,Q
2023-03-14 20:10:30:229,0,-27.4128,-4.32182,64.9036,Q,Q
2023-03-14 20:10:30:239,0,-27.4116,-4.33029,64.9079,Q,Q
2023-03-14 20:10:30:249,0,-27.4133,-4.33809,64.9185,Q,Q
2023-03-14 20:10:30:259,0,-27.4122,-4.34872,64.9302,Q,Q
2023-03-14 20:10:30:269,0,-27.4148,-4.3547,64.9399,Q,Q
2023-03-14 20:10:30:279,0,-27.4121,-4.3585,64.9522,Q,Q
2023-03-14 20:10:30:289,0,-27.4079,-4.36247,64.9611,Q,Q
2023-03-14 20:10:30:299,0,-27.4045,-4.37059,64.9725,Q,Q
2023-03-14 20:10:30:309,0,-27.3999,-4.37814,64.981,Q,Q
2023-03-14 20:10:30:319,0,-27.3927,-4.38572,64.9842,Q,Q
2023-03-14 20:10:30:329,0,-27.3867,-4.39468,64.9887,Q,Q
2023-03-14 20:10:30:339,0,-27.3785,-4.40111,64.9908,Q,Q
2023-03-14 20:10:30:349,0,-27.3702,-4.40646,64.988,Q,Q
2023-03-14 20:10:30:359,0,-27.3628,-4.41373,64.9858,Q,Q
2023-03-14 20:10:30:369,0,-27.3521,-4.42205,64.9798,Q,Q
2023-03-14 20:10:30:379,0,-27.3485,-4.43097,64.9754,Q,Q
2023-03-14 20:10:30:389,0,-27.3409,-4.43716,64.9721,Q,Q
2023-03-14 20:10:30:399,0,-27.3333,-4.44647,64.969,Q,Q
2023-03-14 20:10:30:409,0,-27.3278,-4.45289,64.9651,Q,Q
2023-03-14 20:10:30:419,0,-27.3184,-4.46131,64.964,Q,Q
2023-03-14 20:10:30:429,0,-27.3121,-4.4688,64.9633,Q,Q
2023-03-14 20:10:30:439,0,-27.3061,-4.48032,64.965,Q,Q
2023-03-14 20:10:30:449,0,-27.3013,-4.49001,64.9703,Q,Q
2023-03-14 20:10:30:459,0,-27.3003,-4.49996,64.9752,Q,Q
2023-03-14 20:10:30:469,0,-27.2956,-4.50829,64.9828,Q,Q
2023-03-14 20:10:30:479,0,-27.2903,-4.51908,64.9876,Q,Q
2023-03-14 20:10:30:489,0,-27.2886,-4.52757,64.9922,Q,Q
2023-03-14 20:10:30:499,0,-27.282,-4.53241,64.9986,Q,Q
2023-03-14 20:10:30:509,0,-27.2754,-4.53519,64.9999,Q,Q
2023-03-14 20:10:30:519,0,-27.2676,-4.539,65.0025,Q,Q
2023-03-14 20:10:30:529,0,-27.2605,-4.54117,65.0012,Q,Q
2023-03-14 20:10:30:539,0,-27.2549,-4.5421,65.0023,Q,Q
2023-03-14 20:10:30:549,0,-27.2481,-4.54858,65.002,Q,Q
2023-03-14 20:10:30:559,0,-27.2461,-4.55249,64.9996,Q,Q
2023-03-14 20:10:30:569,0,-27.245,-4.55703,64.9975,Q,Q
2023-03-14 20:10:30:579,0,-27.243,-4.55882,64.9949,Q,Q
2023-03-14 20:10:30:589,0,-27.2385,-4.55904,64.987,Q,Q
2023-03-14 20:10:30:599,0,-27.2327,-4.56618,64.9827,Q,Q
2023-03-14 20:10:30:609,0,-27.2302,-4.57172,64.9814,Q,Q
2023-03-14 20:10:30:619,0,-27.2277,-4.57948,64.9792,Q,Q
2023-03-14 20:10:30:629,0,-27.2324,-4.58649,64.9811,Q,Q
2023-03-14 20:10:30:639,0,-27.2346,-4.58999,64.9842,Q,Q
2023-03-14 20:10:30:649,0,-27.2399,-4.59439,64.99,Q,Q
2023-03-14 20:10:30:659,0,-27.2409,-4.59978,64.9918,Q,Q
2023-03-14 20:10:30:669,0,-27.2363,-4.59978,64.9935,Q,Q
2023-03-14 20:10:30:679,0,-27.2258,-4.60437,64.9966,Q,Q
2023-03-14 20:10:30:689,0,-27.2174,-4.60882,64.9971,Q,Q
2023-03-14 20:10:30:699,0,-27.2045,-4.61131,64.9943,Q,Q
2023-03-14 20:10:30:709,0,-27.1958,-4.61545,64.9971,Q,Q
2023-03-14 20:10:30:719,0,-27.1867,-4.61758,64.9933,Q,Q
2023-03-14 20:10:30:729,0,-27.176,-4.61537,64.9881,Q,Q
2023-03-14 20:10:30:739,0,-27.1654,-4.61583,64.978,Q,Q
2023-03-14 20:10:30:749,0,-27.1507,-4.60931,64.9671,Q,Q
2023-03-14 20:10:30:759,0,-27.1416,-4.6105,64.9578,Q,Q
2023-03-14 20:10:30:769,0,-27.1295,-4.60131,64.948,Q,Q
2023-03-14 20:10:30:779,0,-27.1125,-4.58951,64.9438,Q,Q
2023-03-14 20:10:30:789,0,-27.0974,-4.58708,64.9383,Q,Q
2023-03-14 20:10:30:799,0,-27.0856,-4.58788,64.9356,Q,Q
2023-03-14 20:10:30:809,0,-27.077,-4.588,64.9318,Q,Q
2023-03-14 20:10:30:819,0,-27.0712,-4.58617,64.9287,Q,Q
2023-03-14 20:10:30:829,0,-27.0589,-4.58345,64.924,Q,Q
2023-03-14 20:10:30:839,0,-27.0436,-4.58109,64.9185,Q,Q
2023-03-14 20:10:30:849,0,-27.029,-4.58105,64.9096,Q,Q
2023-03-14 20:10:30:859,0,-27.0114,-4.58178,64.8983,Q,Q
2023-03-14 20:10:30:869,0,-26.9936,-4.58777,64.8891,Q,Q
2023-03-14 20:10:30:879,0,-26.9702,-4.59449,64.8772,Q,Q
2023-03-14 20:10:30:889,0,-26.9487,-4.60097,64.8735,Q,Q
2023-03-14 20:10:30:899,0,-26.9259,-4.60628,64.866,Q,Q
2023-03-14 20:10:30:909,0,-26.9033,-4.61067,64.8576,Q,Q
2023-03-14 20:10:30:919,0,-26.8838,-4.61711,64.8442,Q,Q
2023-03-14 20:10:30:929,0,-26.8612,-4.62162,64.8207,Q,Q
2023-03-14 20:10:30:939,0,-26.8368,-4.62543,64.7976,Q,Q
2023-03-14 20:10:30:949,0,-26.8144,-4.62812,64.7738,Q,Q
2023-03-14 20:10:30:959,0,-26.7932,-4.63223,64.7473,Q,Q
2023-03-14 20:10:30:969,0,-26.7744,-4.63389,64.7168,Q,Q
2023-03-14 20:10:30:979,0,-26.7581,-4.6401,64.6842,Q,Q
2023-03-14 20:10:30:989,0,-26.7399,-4.64266,64.6507,Q,Q
2023-03-14 20:10:30:999,0,-26.7253,-4.64772,64.6176,Q,Q
2023-03-14 20:10:31:9,0,-26.7099,-4.65696,64.5911,Q,Q
2023-03-14 20:10:31:19,0,-26.6989,-4.66606,64.568,Q,Q
2023-03-14 20:10:31:29,0,-26.6879,-4.67348,64.5458,Q,Q
2023-03-14 20:10:31:39,0,-26.6795,-4.68096,64.5295,Q,Q
2023-03-14 20:10:31:49,0,-26.6715,-4.68669,64.5177,Q,Q
2023-03-14 20:10:31:59,0,-26.6612,-4.68928,64.5138,Q,Q
2023-03-14 20:10:31:69,0,-26.6504,-4.69234,64.5121,Q,Q
2023-03-14 20:10:31:79,0,-26.6406,-4.69582,64.5175,Q,Q
2023-03-14 20:10:31:89,0,-26.6284,-4.70058,64.5312,Q,Q
2023-03-14 20:10:31:99,0,-26.617,-4.71173,64.5494,Q,Q
2023-03-14 20:10:31:109,0,-26.61,-4.72296,64.5672,Q,Q
2023-03-14 20:10:31:119,0,-26.6023,-4.73351,64.5845,Q,Q
2023-03-14 20:10:31:129,0,-26.5944,-4.74136,64.6004,Q,Q
2023-03-14 20:10:31:139,0,-26.5901,-4.75064,64.6168,Q,Q
2023-03-14 20:10:31:149,0,-26.5869,-4.76249,64.6327,Q,Q
2023-03-14 20:10:31:159,0,-26.5848,-4.77319,64.6485,Q,Q
2023-03-14 20:10:31:169,0,-26.5835,-4.78617,64.6623,Q,Q
2023-03-14 20:10:31:179,0,-26.5832,-4.79574,64.6741,Q,Q
2023-03-14 20:10:31:189,0,-26.5805,-4.80435,64.6857,Q,Q
2023-03-14 20:10:31:199,0,-26.5752,-4.80995,64.6984,Q,Q
2023-03-14 20:10:31:209,0,-26.5689,-4.81314,64.718,Q,Q
2023-03-14 20:10:31:219,0,-26.5663,-4.82023,64.7359,Q,Q
2023-03-14 20:10:31:229,0,-26.5642,-4.82937,64.7611,Q,Q
2023-03-14 20:10:31:239,0,-26.5594,-4.83496,64.7864,Q,Q
2023-03-14 20:10:31:249,0,-26.5472,-4.83945,64.8119,Q,Q
2023-03-14 20:10:31:259,0,-26.5288,-4.83596,64.8306,Q,Q
2023-03-14 20:10:31:269,0,-26.5035,-4.83278,64.8386,Q,Q
2023-03-14 20:10:31:279,0,-26.4747,-4.82327,64.8335,Q,Q
2023-03-14 20:10:31:289,0,-26.443,-4.81886,64.8169,Q,Q
2023-03-14 20:10:31:299,0,-26.4093,-4.81812,64.7878,Q,Q
2023-03-14 20:10:31:309,0,-26.3759,-4.82482,64.7478,Q,Q
2023-03-14 20:10:31:319,0,-26.346,-4.83524,64.697,Q,Q
2023-03-14 20:10:31:329,0,-26.3243,-4.84982,64.6314,Q,Q
2023-03-14 20:10:31:339,0,-26.3047,-4.87028,64.5479,Q,Q
2023-03-14 20:10:31:349,0,-26.2884,-4.89296,64.4603,Q,Q
2023-03-14 20:10:31:359,0,-26.2809,-4.92007,64.3725,Q,Q
2023-03-14 20:10:31:369,0,-26.2759,-4.95449,64.2874,Q,Q
2023-03-14 20:10:31:379,0,-26.2748,-4.98317,64.2132,Q,Q
2023-03-14 20:10:31:389,0,-26.2755,-5.01687,64.1494,Q,Q
2023-03-14 20:10:31:399,0,-26.2871,-5.05645,64.0993,Q,Q
2023-03-14 20:10:31:409,0,-26.3102,-5.10158,64.0709,Q,Q
2023-03-14 20:10:31:419,0,-26.3418,-5.14924,64.06,Q,Q
2023-03-14 20:10:31:429,0,-26.3768,-5.19835,64.0676,Q,Q
2023-03-14 20:10:31:439,0,-26.4094,-5.25105,64.0915,Q,Q
2023-03-14 20:10:31:449,0,-26.4341,-5.29754,64.1319,Q,Q
2023-03-14 20:10:31:459,0,-26.4477,-5.3313,64.1854,Q,Q
2023-03-14 20:10:31:469,0,-26.448,-5.34676,64.25,Q,Q
2023-03-14 20:10:31:479,0,-26.438,-5.34171,64.3156,Q,Q
2023-03-14 20:10:31:489,0,-26.421,-5.31662,64.3883,Q,Q
2023-03-14 20:10:31:499,0,-26.3983,-5.26911,64.4655,Q,Q
2023-03-14 20:10:31:509,0,-26.3721,-5.20406,64.5412,Q,Q
2023-03-14 20:10:31:519,0,-26.3326,-5.13214,64.6181,Q,Q
2023-03-14 20:10:31:529,0,-26.2701,-5.05508,64.6973,Q,Q
2023-03-14 20:10:31:539,0,-26.183,-4.9779,64.769,Q,Q
2023-03-14 20:10:31:549,0,-26.0785,-4.90498,64.8342,Q,Q
2023-03-14 20:10:31:559,0,-25.9618,-4.85092,64.889,Q,Q
2023-03-14 20:10:31:569,0,-25.8436,-4.81726,64.9333,Q,Q
2023-03-14 20:10:31:579,0,-25.7424,-4.80808,64.9694,Q,Q
2023-03-14 20:10:31:589,0,-25.6603,-4.82475,64.9957,Q,Q
2023-03-14 20:10:31:599,0,-25.6014,-4.86737,65.011,Q,Q
2023-03-14 20:10:31:609,0,-25.5691,-4.93037,65.018,Q,Q
2023-03-14 20:10:31:619,0,-25.5527,-5.00138,65.0093,Q,Q
2023-03-14 20:10:31:629,0,-25.5482,-5.0819,64.9758,Q,Q
2023-03-14 20:10:31:639,0,-25.5531,-5.16607,64.9234,Q,Q
2023-03-14 20:10:31:649,0,-25.562,-5.26094,64.8591,Q,Q
2023-03-14 20:10:31:659,0,-25.5735,-5.3458,64.7881,Q,Q
2023-03-14 20:10:31:669,0,-25.5865,-5.43813,64.7178,Q,Q
2023-03-14 20:10:31:679,0,-25.6049,-5.53705,64.6581,Q,Q
2023-03-14 20:10:31:689,0,-25.6334,-5.63301,64.606,Q,Q
2023-03-14 20:10:31:699,0,-25.6745,-5.72489,64.5598,Q,Q
2023-03-14 20:10:31:709,0,-25.7223,-5.81016,64.5263,Q,Q
2023-03-14 20:10:31:719,0,-25.769,-5.89378,64.4953,Q,Q
2023-03-14 20:10:31:729,0,-25.7952,-5.96159,64.4661,Q,Q
2023-03-14 20:10:31:739,0,-25.8033,-6.01873,64.4404,Q,Q
2023-03-14 20:10:31:749,0,-25.8038,-6.06391,64.4219,Q,Q
2023-03-14 20:10:31:759,0,-25.801,-6.10159,64.4164,Q,Q
2023-03-14 20:10:31:769,0,-25.7828,-6.1369,64.427,Q,Q
2023-03-14 20:10:31:779,0,-25.7645,-6.16908,64.4507,Q,Q
2023-03-14 20:10:31:789,0,-25.7398,-6.1946,64.4903,Q,Q
2023-03-14 20:10:31:799,0,-25.7155,-6.2206,64.5417,Q,Q
2023-03-14 20:10:31:809,0,-25.694,-6.24727,64.6061,Q,Q
2023-03-14 20:10:31:819,0,-25.6766,-6.28305,64.6766,Q,Q
2023-03-14 20:10:31:829,0,-25.68,-6.35257,64.7452,Q,Q
2023-03-14 20:10:31:839,0,-25.6955,-6.40507,64.8167,Q,Q
2023-03-14 20:10:31:849,0,-25.713,-6.46222,64.8847,Q,Q
2023-03-14 20:10:31:859,0,-25.743,-6.54287,64.9417,Q,Q
2023-03-14 20:10:31:869,0,-25.791,-6.62617,64.9921,Q,Q
2023-03-14 20:10:31:879,0,-25.844,-6.71156,65.031,Q,Q
2023-03-14 20:10:31:889,0,-25.8952,-6.79484,65.0595,Q,Q
2023-03-14 20:10:31:899,0,-25.9375,-6.86945,65.076,Q,Q
2023-03-14 20:10:31:909,0,-25.9751,-6.94589,65.0905,Q,Q
2023-03-14 20:10:31:919,0,-26.0166,-7.02247,65.1051,Q,Q
2023-03-14 20:10:31:929,0,-26.0627,-7.09745,65.1249,Q,Q
2023-03-14 20:10:31:939,0,-26.1098,-7.17184,65.1514,Q,Q
2023-03-14 20:10:31:949,0,-26.1522,-7.23426,65.1782,Q,Q
2023-03-14 20:10:31:959,0,-26.1937,-7.28901,65.213,Q,Q
2023-03-14 20:10:31:969,0,-26.2321,-7.33831,65.2546,Q,Q
2023-03-14 20:10:31:979,0,-26.2676,-7.37473,65.2941,Q,Q
2023-03-14 20:10:31:989,0,-26.3028,-7.40345,65.3335,Q,Q
2023-03-14 20:10:31:999,0,-26.3416,-7.42665,65.3716,Q,Q
2023-03-14 20:10:32:9,0,-26.3803,-7.44099,65.4068,Q,Q
2023-03-14 20:10:32:19,0,-26.4227,-7.44999,65.4358,Q,Q
2023-03-14 20:10:32:29,0,-26.4657,-7.45407,65.4559,Q,Q
2023-03-14 20:10:32:39,0,-26.5074,-7.45096,65.4677,Q,Q
2023-03-14 20:10:32:49,0,-26.5403,-7.43961,65.4705,Q,Q
2023-03-14 20:10:32:59,0,-26.5638,-7.42307,65.4619,Q,Q
2023-03-14 20:10:32:69,0,-26.5806,-7.40593,65.4501,Q,Q
2023-03-14 20:10:32:79,0,-26.5917,-7.38666,65.4391,Q,Q
2023-03-14 20:10:32:89,0,-26.5969,-7.37314,65.4288,Q,Q
2023-03-14 20:10:32:99,0,-26.5953,-7.35702,65.4172,Q,Q
2023-03-14 20:10:32:109,0,-26.5856,-7.34422,65.4053,Q,Q
2023-03-14 20:10:32:119,0,-26.5685,-7.33446,65.3927,Q,Q
2023-03-14 20:10:32:129,0,-26.5485,-7.32834,65.3782,Q,Q
2023-03-14 20:10:32:139,0,-26.5232,-7.32384,65.3719,Q,Q
2023-03-14 20:10:32:149,0,-26.4984,-7.30968,65.3676,Q,Q
2023-03-14 20:10:32:159,0,-26.4751,-7.29585,65.3682,Q,Q
2023-03-14 20:10:32:169,0,-26.456,-7.28776,65.3681,Q,Q
2023-03-14 20:10:32:179,0,-26.4387,-7.29107,65.3764,Q,Q
2023-03-14 20:10:32:189,0,-26.428,-7.29559,65.3796,Q,Q
2023-03-14 20:10:32:199,0,-26.4215,-7.29831,65.3798,Q,Q
2023-03-14 20:10:32:209,0,-26.4172,-7.30168,65.3731,Q,Q
2023-03-14 20:10:32:219,0,-26.4165,-7.29871,65.3629,Q,Q
2023-03-14 20:10:32:229,0,-26.4156,-7.29847,65.3467,Q,Q
2023-03-14 20:10:32:239,0,-26.413,-7.28858,65.3199,Q,Q
2023-03-14 20:10:32:249,0,-26.4095,-7.2605,65.2856,Q,Q
2023-03-14 20:10:32:259,0,-26.4006,-7.2325,65.2435,Q,Q
2023-03-14 20:10:32:269,0,-26.3923,-7.20262,65.1973,Q,Q
2023-03-14 20:10:32:279,0,-26.3891,-7.18262,65.152,Q,Q
2023-03-14 20:10:32:289,0,-26.386,-7.16977,65.103,Q,Q
2023-03-14 20:10:32:299,0,-26.3866,-7.15014,65.059,Q,Q
2023-03-14 20:10:32:309,0,-26.3785,-7.1176,65.0194,Q,Q
2023-03-14 20:10:32:319,0,-26.3629,-7.07121,64.9824,Q,Q
2023-03-14 20:10:32:329,0,-26.3394,-7.01805,64.9502,Q,Q
2023-03-14 20:10:32:339,0,-26.3139,-6.96646,64.9247,Q,Q
2023-03-14 20:10:32:349,0,-26.2876,-6.925,64.9121,Q,Q
2023-03-14 20:10:32:359,0,-26.2693,-6.89591,64.9106,Q,Q
2023-03-14 20:10:32:369,0,-26.2597,-6.88326,64.9246,Q,Q
2023-03-14 20:10:32:379,0,-26.2639,-6.88232,64.9469,Q,Q
2023-03-14 20:10:32:389,0,-26.279,-6.88967,64.9747,Q,Q
2023-03-14 20:10:32:399,0,-26.3012,-6.89713,64.9952,Q,Q
2023-03-14 20:10:32:409,0,-26.3193,-6.89907,65.0069,Q,Q
2023-03-14 20:10:32:419,0,-26.329,-6.8924,65.0064,Q,Q
2023-03-14 20:10:32:429,0,-26.3273,-6.87227,64.9947,Q,Q
2023-03-14 20:10:32:439,0,-26.3111,-6.84418,64.9654,Q,Q
2023-03-14 20:10:32:449,0,-26.2824,-6.81351,64.9307,Q,Q
2023-03-14 20:10:32:459,0,-26.2524,-6.7838,64.8908,Q,Q
2023-03-14 20:10:32:469,0,-26.2259,-6.76495,64.854,Q,Q
2023-03-14 20:10:32:479,0,-26.2057,-6.75041,64.8289,Q,Q
2023-03-14 20:10:32:489,0,-26.1958,-6.7388,64.8078,Q,Q
2023-03-14 20:10:32:499,0,-26.1852,-6.71887,64.7925,Q,Q
2023-03-14 20:10:32:509,0,-26.1659,-6.69314,64.7779,Q,Q
2023-03-14 20:10:32:519,0,-26.1318,-6.65969,64.761,Q,Q
2023-03-14 20:10:32:529,0,-26.0843,-6.6258,64.7405,Q,Q
2023-03-14 20:10:32:539,0,-26.0243,-6.59869,64.721,Q,Q
2023-03-14 20:10:32:549,0,-25.9527,-6.57336,64.7011,Q,Q
2023-03-14 20:10:32:559,0,-25.8725,-6.54941,64.6846,Q,Q
2023-03-14 20:10:32:569,0,-25.7942,-6.53302,64.6802,Q,Q
2023-03-14 20:10:32:579,0,-25.7293,-6.52811,64.683,Q,Q
2023-03-14 20:10:32:589,0,-25.6818,-6.52655,64.6998,Q,Q
2023-03-14 20:10:32:599,0,-25.6437,-6.51783,64.7252,Q,Q
2023-03-14 20:10:32:609,0,-25.6152,-6.49666,64.7559,Q,Q
2023-03-14 20:10:32:619,0,-25.5974,-6.4713,64.7787,Q,Q
2023-03-14 20:10:32:629,0,-25.5875,-6.44176,64.794,Q,Q
2023-03-14 20:10:32:639,0,-25.5841,-6.42537,64.805,Q,Q
2023-03-14 20:10:32:649,0,-25.5963,-6.43015,64.8221,Q,Q
2023-03-14 20:10:32:659,0,-25.6243,-6.4502,64.8462,Q,Q
2023-03-14 20:10:32:669,0,-25.66,-6.48689,64.8912,Q,Q
2023-03-14 20:10:32:679,0,-25.7059,-6.53263,64.9525,Q,Q
2023-03-14 20:10:32:689,0,-25.7572,-6.57225,65.0216,Q,Q
2023-03-14 20:10:32:699,0,-25.808,-6.59989,65.0798,Q,Q
2023-03-14 20:10:32:709,0,-25.8487,-6.61642,65.1313,Q,Q
2023-03-14 20:10:32:719,0,-25.8714,-6.62837,65.172,Q,Q
2023-03-14 20:10:32:729,0,-25.8921,-6.64883,65.212,Q,Q
2023-03-14 20:10:32:739,0,-25.9085,-6.66494,65.2441,Q,Q
2023-03-14 20:10:32:749,0,-25.9265,-6.69751,65.2741,Q,Q
2023-03-14 20:10:32:759,0,-25.9711,-6.75945,65.3013,Q,Q
2023-03-14 20:10:32:769,0,-26.0286,-6.8176,65.3367,Q,Q
2023-03-14 20:10:32:779,0,-26.086,-6.87277,65.3691,Q,Q
2023-03-14 20:10:32:789,0,-26.1389,-6.93223,65.3943,Q,Q
2023-03-14 20:10:32:799,0,-26.1812,-6.97315,65.4097,Q,Q
2023-03-14 20:10:32:809,0,-26.2157,-7.00107,65.4053,Q,Q
2023-03-14 20:10:32:819,0,-26.2343,-7.01617,65.3871,Q,Q
2023-03-14 20:10:32:829,0,-26.2303,-7.02056,65.3564,Q,Q
2023-03-14 20:10:32:839,0,-26.2163,-7.02221,65.3215,Q,Q
2023-03-14 20:10:32:849,0,-26.2045,-7.02568,65.2947,Q,Q
2023-03-14 20:10:32:859,0,-26.2078,-7.04451,65.2792,Q,Q
2023-03-14 20:10:32:869,0,-26.2254,-7.07855,65.285,Q,Q
2023-03-14 20:10:32:879,0,-26.2537,-7.12315,65.3194,Q,Q
2023-03-14 20:10:32:889,0,-26.299,-7.17704,65.3901,Q,Q
2023-03-14 20:10:32:899,0,-26.3616,-7.23682,65.5007,Q,Q
2023-03-14 20:10:32:909,0,-26.4382,-7.29506,65.6442,Q,Q
2023-03-14 20:10:32:919,0,-26.5329,-7.34519,65.8164,Q,Q
2023-03-14 20:10:32:929,0,-26.6311,-7.37735,65.9978,Q,Q
2023-03-14 20:10:32:939,0,-26.7279,-7.38569,66.1808,Q,Q
2023-03-14 20:10:32:949,0,-26.8078,-7.37261,66.355,Q,Q
2023-03-14 20:10:32:959,0,-26.8615,-7.34214,66.5129,Q,Q
2023-03-14 20:10:32:969,0,-26.8874,-7.30755,66.6618,Q,Q
2023-03-14 20:10:32:979,0,-26.8952,-7.27172,66.7951,Q,Q
2023-03-14 20:10:32:989,0,-26.8843,-7.23967,66.9188,Q,Q
2023-03-14 20:10:32:999,0,-26.8658,-7.22134,67.0357,Q,Q
2023-03-14 20:10:33:9,0,-26.8466,-7.21747,67.1479,Q,Q
2023-03-14 20:10:33:19,0,-26.8354,-7.21434,67.2541,Q,Q
2023-03-14 20:10:33:29,0,-26.828,-7.21743,67.3572,Q,Q
2023-03-14 20:10:33:39,0,-26.8393,-7.23215,67.4615,Q,Q
2023-03-14 20:10:33:49,0,-26.869,-7.25348,67.5604,Q,Q
2023-03-14 20:10:33:59,0,-26.9145,-7.2702,67.6499,Q,Q
2023-03-14 20:10:33:69,0,-26.9751,-7.27556,67.7195,Q,Q
2023-03-14 20:10:33:79,0,-27.052,-7.27057,67.7694,Q,Q
2023-03-14 20:10:33:89,0,-27.137,-7.2491,67.8,Q,Q
2023-03-14 20:10:33:99,0,-27.232,-7.22109,67.8089,Q,Q
2023-03-14 20:10:33:109,0,-27.3305,-7.19485,67.7996,Q,Q
2023-03-14 20:10:33:119,0,-27.4281,-7.17275,67.7757,Q,Q
2023-03-14 20:10:33:129,0,-27.5135,-7.15804,67.7411,Q,Q
2023-03-14 20:10:33:139,0,-27.5878,-7.15004,67.7017,Q,Q
2023-03-14 20:10:33:149,0,-27.6426,-7.15156,67.66,Q,Q
2023-03-14 20:10:33:159,0,-27.6884,-7.15299,67.6154,Q,Q
2023-03-14 20:10:33:169,0,-27.7181,-7.15577,67.5749,Q,Q
2023-03-14 20:10:33:179,0,-27.7341,-7.15316,67.5469,Q,Q
2023-03-14 20:10:33:189,0,-27.7424,-7.14047,67.5266,Q,Q
2023-03-14 20:10:33:199,0,-27.7478,-7.11232,67.5231,Q,Q
2023-03-14 20:10:33:209,0,-27.7524,-7.06992,67.5387,Q,Q
2023-03-14 20:10:33:219,0,-27.7523,-7.01492,67.5735,Q,Q
2023-03-14 20:10:33:229,0,-27.7519,-6.94675,67.6236,Q,Q
2023-03-14 20:10:33:239,0,-27.7533,-6.86407,67.6867,Q,Q
2023-03-14 20:10:33:249,0,-27.7594,-6.77337,67.7628,Q,Q
2023-03-14 20:10:33:259,0,-27.7716,-6.68678,67.8415,Q,Q
2023-03-14 20:10:33:269,0,-27.7852,-6.59418,67.9224,Q,Q
2023-03-14 20:10:33:279,0,-27.7974,-6.49681,67.9979,Q,Q
2023-03-14 20:10:33:289,0,-27.8161,-6.39785,68.0668,Q,Q
2023-03-14 20:10:33:299,0,-27.8386,-6.30269,68.1328,Q,Q
2023-03-14 20:10:33:309,0,-27.8583,-6.21503,68.1969,Q,Q
2023-03-14 20:10:33:319,0,-27.8804,-6.13633,68.2519,Q,Q
2023-03-14 20:10:33:329,0,-27.8994,-6.07147,68.3037,Q,Q
2023-03-14 20:10:33:339,0,-27.9203,-6.01547,68.3488,Q,Q
2023-03-14 20:10:33:349,0,-27.9304,-5.96236,68.3887,Q,Q
2023-03-14 20:10:33:359,0,-27.9346,-5.91449,68.4197,Q,Q
2023-03-14 20:10:33:369,0,-27.9328,-5.8665,68.4418,Q,Q
2023-03-14 20:10:33:379,0,-27.9275,-5.81893,68.4532,Q,Q
2023-03-14 20:10:33:389,0,-27.9167,-5.77466,68.4509,Q,Q
2023-03-14 20:10:33:399,0,-27.9017,-5.73516,68.4452,Q,Q
2023-03-14 20:10:33:409,0,-27.8845,-5.70726,68.4354,Q,Q
2023-03-14 20:10:33:419,0,-27.8679,-5.68869,68.4156,Q,Q
2023-03-14 20:10:33:429,0,-27.852,-5.67835,68.3925,Q,Q
2023-03-14 20:10:33:439,0,-27.837,-5.66719,68.3683,Q,Q
2023-03-14 20:10:33:449,0,-27.8246,-5.66103,68.3423,Q,Q
2023-03-14 20:10:33:459,0,-27.8177,-5.65716,68.3165,Q,Q
2023-03-14 20:10:33:469,0,-27.8118,-5.65483,68.2868,Q,Q
2023-03-14 20:10:33:479,0,-27.8073,-5.64944,68.2618,Q,Q
2023-03-14 20:10:33:489,0,-27.7996,-5.64475,68.2346,Q,Q
2023-03-14 20:10:33:499,0,-27.7905,-5.64455,68.2073,Q,Q
2023-03-14 20:10:33:509,0,-27.7803,-5.64612,68.1834,Q,Q
2023-03-14 20:10:33:519,0,-27.7668,-5.65867,68.1684,Q,Q
2023-03-14 20:10:33:529,0,-27.7515,-5.67222,68.1548,Q,Q
2023-03-14 20:10:33:539,0,-27.73,-5.68888,68.1424,Q,Q
2023-03-14 20:10:33:549,0,-27.7039,-5.70616,68.1297,Q,Q
2023-03-14 20:10:33:559,0,-27.679,-5.72623,68.1159,Q,Q
2023-03-14 20:10:33:569,0,-27.656,-5.74835,68.1057,Q,Q
2023-03-14 20:10:33:579,0,-27.6318,-5.77232,68.0932,Q,Q
2023-03-14 20:10:33:589,0,-27.6072,-5.79544,68.0836,Q,Q
2023-03-14 20:10:33:599,0,-27.5808,-5.81806,68.0739,Q,Q
2023-03-14 20:10:33:609,0,-27.5579,-5.83688,68.0615,Q,Q
2023-03-14 20:10:33:619,0,-27.5426,-5.86028,68.0541,Q,Q
2023-03-14 20:10:33:629,0,-27.5279,-5.87991,68.0479,Q,Q
2023-03-14 20:10:33:639,0,-27.519,-5.89913,68.0436,Q,Q
2023-03-14 20:10:33:649,0,-27.5118,-5.91137,68.0422,Q,Q
2023-03-14 20:10:33:659,0,-27.5071,-5.9228,68.0408,Q,Q
2023-03-14 20:10:33:669,0,-27.5049,-5.92973,68.0433,Q,Q
2023-03-14 20:10:33:679,0,-27.5049,-5.93265,68.0476,Q,Q
2023-03-14 20:10:33:689,0,-27.5078,-5.93235,68.0479,Q,Q
2023-03-14 20:10:33:699,0,-27.5127,-5.9292,68.0474,Q,Q
2023-03-14 20:10:33:709,0,-27.5098,-5.92521,68.0448,Q,Q
2023-03-14 20:10:33:719,0,-27.5025,-5.9169,68.0405,Q,Q
2023-03-14 20:10:33:729,0,-27.4938,-5.91336,68.0405,Q,Q
2023-03-14 20:10:33:739,0,-27.4844,-5.9074,68.0398,Q,Q
2023-03-14 20:10:33:749,0,-27.4724,-5.9021,68.0392,Q,Q
2023-03-14 20:10:33:759,0,-27.457,-5.89509,68.0414,Q,Q
2023-03-14 20:10:33:769,0,-27.4488,-5.8849,68.0449,Q,Q
2023-03-14 20:10:33:779,0,-27.4386,-5.87589,68.0488,Q,Q
2023-03-14 20:10:33:789,0,-27.4222,-5.86773,68.0456,Q,Q
2023-03-14 20:10:33:799,0,-27.4039,-5.86091,68.0422,Q,Q
2023-03-14 20:10:33:809,0,-27.3839,-5.85214,68.0354,Q,Q
2023-03-14 20:10:33:819,0,-27.3624,-5.84956,68.0258,Q,Q
2023-03-14 20:10:33:829,0,-27.3372,-5.85092,68.0163,Q,Q
2023-03-14 20:10:33:839,0,-27.314,-5.85284,68.0068,Q,Q
2023-03-14 20:10:33:849,0,-27.2903,-5.86036,67.9949,Q,Q
2023-03-14 20:10:33:859,0,-27.2718,-5.86478,67.98,Q,Q
2023-03-14 20:10:33:869,0,-27.2546,-5.87298,67.9625,Q,Q
2023-03-14 20:10:33:879,0,-27.2425,-5.88391,67.9449,Q,Q
2023-03-14 20:10:33:889,0,-27.2301,-5.8977,67.9316,Q,Q
2023-03-14 20:10:33:899,0,-27.2168,-5.90962,67.9182,Q,Q
2023-03-14 20:10:33:909,0,-27.206,-5.92354,67.908,Q,Q
2023-03-14 20:10:33:919,0,-27.1995,-5.93344,67.8995,Q,Q
2023-03-14 20:10:33:929,0,-27.1916,-5.94668,67.8976,Q,Q
2023-03-14 20:10:33:938,0,-27.1818,-5.95931,67.8997,Q,Q
2023-03-14 20:10:33:949,0,-27.1756,-5.97515,67.9055,Q,Q
2023-03-14 20:10:33:959,0,-27.1775,-5.98668,67.9149,Q,Q
2023-03-14 20:10:33:969,0,-27.1855,-6.00214,67.9296,Q,Q
2023-03-14 20:10:33:979,0,-27.1931,-6.01495,67.9484,Q,Q
2023-03-14 20:10:33:989,0,-27.2024,-6.02089,67.9679,Q,Q
2023-03-14 20:10:33:999,0,-27.2121,-6.03048,67.9886,Q,Q
2023-03-14 20:10:34:9,0,-27.2208,-6.03928,68.0104,Q,Q
2023-03-14 20:10:34:19,0,-27.225,-6.04385,68.0295,Q,Q
2023-03-14 20:10:34:29,0,-27.2248,-6.04773,68.0462,Q,Q
2023-03-14 20:10:34:39,0,-27.223,-6.0564,68.0652,Q,Q
2023-03-14 20:10:34:49,0,-27.2221,-6.06265,68.0791,Q,Q
2023-03-14 20:10:34:59,0,-27.2151,-6.06984,68.0847,Q,Q
2023-03-14 20:10:34:69,0,-27.214,-6.07368,68.0946,Q,Q
2023-03-14 20:10:34:79,0,-27.2084,-6.08151,68.0966,Q,Q
2023-03-14 20:10:34:89,0,-27.2066,-6.08368,68.0955,Q,Q
2023-03-14 20:10:34:99,0,-27.2004,-6.0855,68.0889,Q,Q
2023-03-14 20:10:34:109,0,-27.1969,-6.08507,68.0834,Q,Q
2023-03-14 20:10:34:119,0,-27.1975,-6.08612,68.074,Q,Q
2023-03-14 20:10:34:129,0,-27.1935,-6.08691,68.0699,Q,Q
2023-03-14 20:10:34:139,0,-27.1935,-6.08526,68.0605,Q,Q
2023-03-14 20:10:34:149,0,-27.1952,-6.08466,68.0517,Q,Q
2023-03-14 20:10:34:159,0,-27.1987,-6.08004,68.0451,Q,Q
2023-03-14 20:10:34:169,0,-27.2005,-6.07587,68.0358,Q,Q
2023-03-14 20:10:34:179,0,-27.2002,-6.06802,68.0247,Q,Q
2023-03-14 20:10:34:189,0,-27.2035,-6.05229,68.012,Q,Q
2023-03-14 20:10:34:199,0,-27.1996,-6.03358,67.9938,Q,Q
2023-03-14 20:10:34:209,0,-27.1944,-6.01847,67.9735,Q,Q
2023-03-14 20:10:34:219,0,-27.1848,-6.00502,67.9492,Q,Q
2023-03-14 20:10:34:229,0,-27.1758,-5.9941,67.9277,Q,Q
2023-03-14 20:10:34:239,0,-27.1642,-5.98391,67.9065,Q,Q
2023-03-14 20:10:34:249,0,-27.1515,-5.97206,67.8816,Q,Q
2023-03-14 20:10:34:259,0,-27.1406,-5.96163,67.8569,Q,Q
2023-03-14 20:10:34:269,0,-27.1292,-5.9477,67.8339,Q,Q
2023-03-14 20:10:34:279,0,-27.1213,-5.9338,67.8107,Q,Q
2023-03-14 20:10:34:289,0,-27.1074,-5.91934,67.7853,Q,Q
2023-03-14 20:10:34:299,0,-27.0945,-5.90223,67.7627,Q,Q
2023-03-14 20:10:34:309,0,-27.0806,-5.88748,67.7391,Q,Q
2023-03-14 20:10:34:319,0,-27.0701,-5.87354,67.7188,Q,Q
2023-03-14 20:10:34:329,0,-27.0596,-5.86361,67.6996,Q,Q
2023-03-14 20:10:34:339,0,-27.0494,-5.8522,67.6822,Q,Q
2023-03-14 20:10:34:349,0,-27.034,-5.84147,67.6677,Q,Q
2023-03-14 20:10:34:359,0,-27.0207,-5.83134,67.6514,Q,Q
2023-03-14 20:10:34:369,0,-27.0049,-5.82554,67.6398,Q,Q
2023-03-14 20:10:34:379,0,-26.9945,-5.82152,67.6299,Q,Q
2023-03-14 20:10:34:389,0,-26.9816,-5.81436,67.6197,Q,Q
2023-03-14 20:10:34:399,0,-26.9662,-5.80961,67.6142,Q,Q
2023-03-14 20:10:34:409,0,-26.9508,-5.80761,67.6114,Q,Q
2023-03-14 20:10:34:419,0,-26.9337,-5.80612,67.608,Q,Q
2023-03-14 20:10:34:429,0,-26.9163,-5.80656,67.6073,Q,Q
2023-03-14 20:10:34:439,0,-26.9031,-5.80629,67.6071,Q,Q
2023-03-14 20:10:34:449,0,-26.89,-5.80625,67.6088,Q,Q
2023-03-14 20:10:34:459,0,-26.8793,-5.80365,67.6144,Q,Q
2023-03-14 20:10:34:469,0,-26.8683,-5.8046,67.6225,Q,Q
2023-03-14 20:10:34:479,0,-26.8605,-5.80309,67.6307,Q,Q
2023-03-14 20:10:34:489,0,-26.8522,-5.80307,67.6338,Q,Q
2023-03-14 20:10:34:499,0,-26.8443,-5.80324,67.6385,Q,Q
2023-03-14 20:10:34:509,0,-26.8372,-5.80572,67.6443,Q,Q
2023-03-14 20:10:34:519,0,-26.8332,-5.81088,67.6526,Q,Q
2023-03-14 20:10:34:529,0,-26.8293,-5.81339,67.6583,Q,Q
2023-03-14 20:10:34:539,0,-26.8263,-5.81802,67.6643,Q,Q
2023-03-14 20:10:34:549,0,-26.8228,-5.82351,67.6703,Q,Q
2023-03-14 20:10:34:559,0,-26.826,-5.83,67.6764,Q,Q
2023-03-14 20:10:34:569,0,-26.8284,-5.8349,67.6819,Q,Q
2023-03-14 20:10:34:579,0,-26.8317,-5.83931,67.6884,Q,Q
2023-03-14 20:10:34:589,0,-26.8338,-5.84183,67.6968,Q,Q
2023-03-14 20:10:34:599,0,-26.8356,-5.84586,67.6999,Q,Q
2023-03-14 20:10:34:609,0,-26.8403,-5.85005,67.7076,Q,Q
2023-03-14 20:10:34:619,0,-26.8458,-5.85177,67.7164,Q,Q
2023-03-14 20:10:34:629,0,-26.8459,-5.85416,67.7236,Q,Q
2023-03-14 20:10:34:639,0,-26.8479,-5.85234,67.7314,Q,Q
2023-03-14 20:10:34:649,0,-26.8468,-5.84715,67.7389,Q,Q
2023-03-14 20:10:34:659,0,-26.8461,-5.84176,67.7454,Q,Q
2023-03-14 20:10:34:669,0,-26.8443,-5.83532,67.7485,Q,Q
2023-03-14 20:10:34:679,0,-26.8385,-5.82934,67.7543,Q,Q
2023-03-14 20:10:34:689,0,-26.8273,-5.82128,67.7548,Q,Q
2023-03-14 20:10:34:699,0,-26.8154,-5.81176,67.755,Q,Q
2023-03-14 20:10:34:709,0,-26.802,-5.8044,67.753,Q,Q
2023-03-14 20:10:34:719,0,-26.7895,-5.80284,67.7509,Q,Q
2023-03-14 20:10:34:729,0,-26.7764,-5.79869,67.7495,Q,Q
2023-03-14 20:10:34:739,0,-26.7651,-5.79412,67.7489,Q,Q
2023-03-14 20:10:34:749,0,-26.749,-5.78848,67.7445,Q,Q
2023-03-14 20:10:34:759,0,-26.7296,-5.78344,67.7411,Q,Q
2023-03-14 20:10:34:769,0,-26.7107,-5.78202,67.7354,Q,Q
2023-03-14 20:10:34:779,0,-26.6961,-5.78244,67.7381,Q,Q
2023-03-14 20:10:34:789,0,-26.6862,-5.78455,67.7395,Q,Q
2023-03-14 20:10:34:799,0,-26.6788,-5.78661,67.7477,Q,Q
2023-03-14 20:10:34:809,0,-26.6761,-5.78687,67.7545,Q,Q
2023-03-14 20:10:34:819,0,-26.675,-5.78632,67.7624,Q,Q
2023-03-14 20:10:34:829,0,-26.6718,-5.78668,67.7723,Q,Q
2023-03-14 20:10:34:839,0,-26.6677,-5.78767,67.7825,Q,Q
2023-03-14 20:10:34:849,0,-26.6647,-5.78727,67.7958,Q,Q
2023-03-14 20:10:34:859,0,-26.66,-5.78917,67.8052,Q,Q
2023-03-14 20:10:34:869,0,-26.6546,-5.78802,67.8138,Q,Q
2023-03-14 20:10:34:879,0,-26.6459,-5.78633,67.8221,Q,Q
2023-03-14 20:10:34:889,0,-26.638,-5.78734,67.8273,Q,Q
2023-03-14 20:10:34:899,0,-26.628,-5.78306,67.8331,Q,Q
2023-03-14 20:10:34:909,0,-26.6208,-5.77877,67.8366,Q,Q
2023-03-14 20:10:34:919,0,-26.6167,-5.77568,67.8408,Q,Q
2023-03-14 20:10:34:929,0,-26.6145,-5.7733,67.8426,Q,Q
2023-03-14 20:10:34:939,0,-26.6141,-5.7664,67.8428,Q,Q
2023-03-14 20:10:34:949,0,-26.6155,-5.76108,67.8431,Q,Q
2023-03-14 20:10:34:959,0,-26.6168,-5.75517,67.8423,Q,Q
2023-03-14 20:10:34:969,0,-26.6182,-5.7482,67.8398,Q,Q
2023-03-14 20:10:34:979,0,-26.62,-5.74034,67.8374,Q,Q
2023-03-14 20:10:34:989,0,-26.6215,-5.73497,67.8338,Q,Q
2023-03-14 20:10:34:999,0,-26.6236,-5.73112,67.8273,Q,Q
2023-03-14 20:10:35:9,0,-26.6243,-5.72438,67.8209,Q,Q
2023-03-14 20:10:35:19,0,-26.6236,-5.71194,67.8094,Q,Q
2023-03-14 20:10:35:29,0,-26.6179,-5.70517,67.7936,Q,Q
2023-03-14 20:10:35:39,0,-26.61,-5.69224,67.7743,Q,Q
2023-03-14 20:10:35:49,0,-26.5991,-5.68977,67.7578,Q,Q
2023-03-14 20:10:35:59,0,-26.5883,-5.68543,67.7416,Q,Q
2023-03-14 20:10:35:69,0,-26.5823,-5.68134,67.7263,Q,Q
2023-03-14 20:10:35:79,0,-26.5717,-5.67619,67.7059,Q,Q
2023-03-14 20:10:35:89,0,-26.5624,-5.67285,67.6831,Q,Q
2023-03-14 20:10:35:99,0,-26.5555,-5.6661,67.6642,Q,Q
2023-03-14 20:10:35:109,0,-26.5469,-5.66057,67.642,Q,Q
2023-03-14 20:10:35:119,0,-26.5375,-5.65137,67.621,Q,Q
2023-03-14 20:10:35:129,0,-26.5277,-5.64498,67.6019,Q,Q
2023-03-14 20:10:35:139,0,-26.5117,-5.63436,67.5803,Q,Q
2023-03-14 20:10:35:149,0,-26.4947,-5.62619,67.5605,Q,Q
2023-03-14 20:10:35:159,0,-26.4804,-5.61899,67.5412,Q,Q
2023-03-14 20:10:35:169,0,-26.4674,-5.61467,67.5191,Q,Q
2023-03-14 20:10:35:179,0,-26.4565,-5.61102,67.4966,Q,Q
2023-03-14 20:10:35:189,0,-26.4434,-5.60381,67.471,Q,Q
2023-03-14 20:10:35:199,0,-26.4329,-5.59633,67.4468,Q,Q
2023-03-14 20:10:35:209,0,-26.4242,-5.59222,67.4238,Q,Q
2023-03-14 20:10:35:219,0,-26.4128,-5.59057,67.4021,Q,Q
2023-03-14 20:10:35:229,0,-26.4068,-5.59058,67.3845,Q,Q
2023-03-14 20:10:35:239,0,-26.3974,-5.58824,67.37,Q,Q
2023-03-14 20:10:35:249,0,-26.391,-5.586,67.3606,Q,Q
2023-03-14 20:10:35:259,0,-26.3852,-5.58616,67.3496,Q,Q
2023-03-14 20:10:35:269,0,-26.3845,-5.58139,67.3396,Q,Q
2023-03-14 20:10:35:279,0,-26.3837,-5.57635,67.3344,Q,Q
2023-03-14 20:10:35:289,0,-26.3804,-5.57493,67.3281,Q,Q
2023-03-14 20:10:35:299,0,-26.3782,-5.57295,67.3229,Q,Q
2023-03-14 20:10:35:309,0,-26.3777,-5.57333,67.3183,Q,Q
2023-03-14 20:10:35:319,0,-26.3797,-5.57181,67.3182,Q,Q
2023-03-14 20:10:35:329,0,-26.3837,-5.57037,67.3178,Q,Q
2023-03-14 20:10:35:339,0,-26.3857,-5.56853,67.3141,Q,Q
2023-03-14 20:10:35:349,0,-26.3854,-5.56701,67.3123,Q,Q
2023-03-14 20:10:35:359,0,-26.3844,-5.56311,67.3091,Q,Q
2023-03-14 20:10:35:369,0,-26.3825,-5.56482,67.3048,Q,Q
2023-03-14 20:10:35:379,0,-26.3811,-5.56596,67.2985,Q,Q
2023-03-14 20:10:35:389,0,-26.3772,-5.57073,67.2931,Q,Q
2023-03-14 20:10:35:399,0,-26.3717,-5.57429,67.291,Q,Q
2023-03-14 20:10:35:409,0,-26.3697,-5.57869,67.2863,Q,Q
2023-03-14 20:10:35:419,0,-26.3666,-5.58299,67.2847,Q,Q
2023-03-14 20:10:35:429,0,-26.3638,-5.5888,67.2797,Q,Q
2023-03-14 20:10:35:439,0,-26.3626,-5.5931,67.2783,Q,Q
2023-03-14 20:10:35:449,0,-26.3612,-5.59901,67.2778,Q,Q
2023-03-14 20:10:35:459,0,-26.3582,-5.60348,67.2772,Q,Q
2023-03-14 20:10:35:469,0,-26.3595,-5.60821,67.2781,Q,Q
2023-03-14 20:10:35:479,0,-26.3592,-5.61501,67.28,Q,Q
2023-03-14 20:10:35:489,0,-26.3581,-5.61949,67.2829,Q,Q
2023-03-14 20:10:35:499,0,-26.3587,-5.62695,67.2859,Q,Q
2023-03-14 20:10:35:509,0,-26.3602,-5.62936,67.2891,Q,Q
2023-03-14 20:10:35:519,0,-26.3592,-5.6307,67.2903,Q,Q
2023-03-14 20:10:35:529,0,-26.3613,-5.63078,67.2905,Q,Q
2023-03-14 20:10:35:539,0,-26.3592,-5.63348,67.2921,Q,Q
2023-03-14 20:10:35:549,0,-26.3562,-5.63356,67.2895,Q,Q
2023-03-14 20:10:35:559,0,-26.3507,-5.63287,67.2879,Q,Q
2023-03-14 20:10:35:569,0,-26.347,-5.63117,67.2843,Q,Q
2023-03-14 20:10:35:579,0,-26.3409,-5.63169,67.2814,Q,Q
2023-03-14 20:10:35:589,0,-26.3375,-5.63269,67.2745,Q,Q
2023-03-14 20:10:35:599,0,-26.3356,-5.63196,67.268,Q,Q
2023-03-14 20:10:35:609,0,-26.3364,-5.62889,67.2604,Q,Q
2023-03-14 20:10:35:619,0,-26.3361,-5.63076,67.2536,Q,Q
2023-03-14 20:10:35:629,0,-26.3384,-5.63177,67.2424,Q,Q
2023-03-14 20:10:35:639,0,-26.3415,-5.63505,67.2371,Q,Q
2023-03-14 20:10:35:649,0,-26.3486,-5.64015,67.2365,Q,Q
2023-03-14 20:10:35:659,0,-26.3534,-5.64725,67.239,Q,Q
2023-03-14 20:10:35:669,0,-26.3618,-5.6549,67.2421,Q,Q
2023-03-14 20:10:35:679,0,-26.371,-5.66174,67.247,Q,Q
2023-03-14 20:10:35:689,0,-26.3825,-5.67113,67.2532,Q,Q
2023-03-14 20:10:35:699,0,-26.3908,-5.676,67.2595,Q,Q
2023-03-14 20:10:35:709,0,-26.3972,-5.68527,67.2647,Q,Q
2023-03-14 20:10:35:719,0,-26.4027,-5.68793,67.2702,Q,Q
2023-03-14 20:10:35:729,0,-26.4032,-5.69221,67.2744,Q,Q
2023-03-14 20:10:35:739,0,-26.4033,-5.69442,67.2757,Q,Q
