Timestamp_cmd,imu_cmd,roll_delta,pitch_delta,yaw_delta,voice_type,voice_length
2023-03-15 15:28:03:148,0,-7.59516,-1.37654,-12.8164,Q,Q
2023-03-15 15:28:03:150,0,-7.60058,-1.36809,-12.8244,Q,Q
2023-03-15 15:28:03:160,0,-7.60694,-1.35566,-12.8329,Q,Q
2023-03-15 15:28:03:171,0,-7.60691,-1.34222,-12.8405,Q,Q
2023-03-15 15:28:03:181,0,-7.60882,-1.33321,-12.8522,Q,Q
2023-03-15 15:28:03:191,0,-7.61261,-1.32398,-12.8659,Q,Q
2023-03-15 15:28:03:201,0,-7.62008,-1.31485,-12.8785,Q,Q
2023-03-15 15:28:03:211,0,-7.6277,-1.30411,-12.8907,Q,Q
2023-03-15 15:28:03:221,0,-7.63724,-1.29645,-12.9036,Q,Q
2023-03-15 15:28:03:231,0,-7.64684,-1.28921,-12.9173,Q,Q
2023-03-15 15:28:03:241,0,-7.65264,-1.27969,-12.9345,Q,Q
2023-03-15 15:28:03:251,0,-7.65817,-1.26887,-12.9509,Q,Q
2023-03-15 15:28:03:261,0,-7.66313,-1.25933,-12.9629,Q,Q
2023-03-15 15:28:03:271,0,-7.66344,-1.25379,-12.9742,Q,Q
2023-03-15 15:28:03:281,0,-7.66485,-1.24793,-12.9816,Q,Q
2023-03-15 15:28:03:291,0,-7.66156,-1.24727,-12.9853,Q,Q
2023-03-15 15:28:03:301,0,-7.65895,-1.24422,-12.9894,Q,Q
2023-03-15 15:28:03:311,0,-7.65172,-1.23762,-12.9949,Q,Q
2023-03-15 15:28:03:321,0,-7.6513,-1.23387,-13.0004,Q,Q
2023-03-15 15:28:03:331,0,-7.65043,-1.22753,-13.0047,Q,Q
2023-03-15 15:28:03:341,0,-7.64937,-1.22066,-13.0104,Q,Q
2023-03-15 15:28:03:351,0,-7.65109,-1.21517,-13.0154,Q,Q
2023-03-15 15:28:03:361,0,-7.65405,-1.21222,-13.0201,Q,Q
2023-03-15 15:28:03:371,0,-7.65568,-1.21099,-13.0283,Q,Q
2023-03-15 15:28:03:381,0,-7.65525,-1.2085,-13.0356,Q,Q
2023-03-15 15:28:03:391,0,-7.65362,-1.20299,-13.046,Q,Q
2023-03-15 15:28:03:401,0,-7.65266,-1.19877,-13.0606,Q,Q
2023-03-15 15:28:03:411,0,-7.64903,-1.19274,-13.0707,Q,Q
2023-03-15 15:28:03:421,0,-7.64667,-1.19063,-13.08,Q,Q
2023-03-15 15:28:03:431,0,-7.64534,-1.19007,-13.0901,Q,Q
2023-03-15 15:28:03:441,0,-7.64259,-1.18824,-13.1007,Q,Q
2023-03-15 15:28:03:451,0,-7.63879,-1.18322,-13.1111,Q,Q
2023-03-15 15:28:03:461,0,-7.63699,-1.17851,-13.1239,Q,Q
2023-03-15 15:28:03:471,0,-7.63876,-1.18062,-13.1339,Q,Q
2023-03-15 15:28:03:481,0,-7.64568,-1.17825,-13.1467,Q,Q
2023-03-15 15:28:03:491,0,-7.64482,-1.17993,-13.1556,Q,Q
2023-03-15 15:28:03:501,0,-7.64488,-1.1807,-13.1654,Q,Q
2023-03-15 15:28:03:510,0,-7.64038,-1.18153,-13.1715,Q,Q
2023-03-15 15:28:03:521,0,-7.63524,-1.18536,-13.181,Q,Q
2023-03-15 15:28:03:531,0,-7.62902,-1.18768,-13.1869,Q,Q
2023-03-15 15:28:03:540,0,-7.6256,-1.18728,-13.1923,Q,Q
2023-03-15 15:28:03:551,0,-7.61796,-1.18974,-13.1969,Q,Q
2023-03-15 15:28:03:560,0,-7.61187,-1.19379,-13.1998,Q,Q
2023-03-15 15:28:03:570,0,-7.60747,-1.20345,-13.2041,Q,Q
2023-03-15 15:28:03:581,0,-7.60277,-1.21458,-13.2132,Q,Q
2023-03-15 15:28:03:591,0,-7.60288,-1.22692,-13.2204,Q,Q
2023-03-15 15:28:03:601,0,-7.60482,-1.23608,-13.2275,Q,Q
2023-03-15 15:28:03:611,0,-7.60594,-1.24436,-13.2377,Q,Q
2023-03-15 15:28:03:621,0,-7.61091,-1.2512,-13.2434,Q,Q
2023-03-15 15:28:03:631,0,-7.61525,-1.25316,-13.2511,Q,Q
2023-03-15 15:28:03:641,0,-7.61775,-1.25292,-13.2589,Q,Q
2023-03-15 15:28:03:650,0,-7.61978,-1.25363,-13.2617,Q,Q
2023-03-15 15:28:03:661,0,-7.61797,-1.24812,-13.2655,Q,Q
2023-03-15 15:28:03:671,0,-7.61827,-1.24462,-13.2723,Q,Q
2023-03-15 15:28:03:681,0,-7.61768,-1.23979,-13.2795,Q,Q
2023-03-15 15:28:03:691,0,-7.61719,-1.2344,-13.2847,Q,Q
2023-03-15 15:28:03:701,0,-7.61823,-1.22869,-13.2912,Q,Q
2023-03-15 15:28:03:711,0,-7.61502,-1.22081,-13.2969,Q,Q
2023-03-15 15:28:03:720,0,-7.61004,-1.21464,-13.3035,Q,Q
2023-03-15 15:28:03:731,0,-7.60128,-1.21431,-13.3036,Q,Q
2023-03-15 15:28:03:741,0,-7.59473,-1.22018,-13.3035,Q,Q
2023-03-15 15:28:03:751,0,-7.59242,-1.22748,-13.2989,Q,Q
2023-03-15 15:28:03:761,0,-7.59361,-1.23307,-13.2971,Q,Q
2023-03-15 15:28:03:771,0,-7.60002,-1.23916,-13.2946,Q,Q
2023-03-15 15:28:03:781,0,-7.60641,-1.24076,-13.2974,Q,Q
2023-03-15 15:28:03:791,0,-7.61656,-1.23821,-13.2968,Q,Q
2023-03-15 15:28:03:800,0,-7.62647,-1.23825,-13.2941,Q,Q
2023-03-15 15:28:03:810,0,-7.63419,-1.23305,-13.2936,Q,Q
2023-03-15 15:28:03:821,0,-7.64027,-1.23203,-13.2903,Q,Q
2023-03-15 15:28:03:831,0,-7.6478,-1.23061,-13.2897,Q,Q
2023-03-15 15:28:03:841,0,-7.65616,-1.2306,-13.2894,Q,Q
2023-03-15 15:28:03:850,0,-7.66737,-1.23048,-13.2923,Q,Q
2023-03-15 15:28:03:861,0,-7.67856,-1.23069,-13.2976,Q,Q
2023-03-15 15:28:03:871,0,-7.68426,-1.2264,-13.306,Q,Q
2023-03-15 15:28:03:881,0,-7.69168,-1.2248,-13.318,Q,Q
2023-03-15 15:28:03:891,0,-7.69506,-1.22011,-13.3299,Q,Q
2023-03-15 15:28:03:901,0,-7.69619,-1.22042,-13.3402,Q,Q
2023-03-15 15:28:03:911,0,-7.69665,-1.22122,-13.3484,Q,Q
2023-03-15 15:28:03:921,0,-7.70082,-1.21879,-13.3571,Q,Q
2023-03-15 15:28:03:931,0,-7.70771,-1.21773,-13.3628,Q,Q
2023-03-15 15:28:03:941,0,-7.71291,-1.21649,-13.372,Q,Q
2023-03-15 15:28:03:951,0,-7.71844,-1.21877,-13.3798,Q,Q
2023-03-15 15:28:03:961,0,-7.72068,-1.21742,-13.3934,Q,Q
2023-03-15 15:28:03:971,0,-7.72178,-1.21476,-13.4074,Q,Q
2023-03-15 15:28:03:981,0,-7.72378,-1.21129,-13.4136,Q,Q
2023-03-15 15:28:03:991,0,-7.72412,-1.21094,-13.4223,Q,Q
2023-03-15 15:28:04:1,0,-7.7278,-1.21519,-13.4305,Q,Q
2023-03-15 15:28:04:11,0,-7.73371,-1.2177,-13.4365,Q,Q
2023-03-15 15:28:04:21,0,-7.73632,-1.2203,-13.4495,Q,Q
2023-03-15 15:28:04:31,0,-7.73482,-1.22231,-13.4588,Q,Q
2023-03-15 15:28:04:41,0,-7.73795,-1.22222,-13.47,Q,Q
2023-03-15 15:28:04:51,0,-7.73772,-1.21993,-13.4797,Q,Q
2023-03-15 15:28:04:60,0,-7.73902,-1.21839,-13.4902,Q,Q
2023-03-15 15:28:04:70,0,-7.73838,-1.21183,-13.4992,Q,Q
2023-03-15 15:28:04:81,0,-7.73913,-1.20985,-13.506,Q,Q
2023-03-15 15:28:04:91,0,-7.74378,-1.20832,-13.5194,Q,Q
2023-03-15 15:28:04:101,0,-7.7429,-1.20721,-13.5262,Q,Q
2023-03-15 15:28:04:111,0,-7.74113,-1.20661,-13.5334,Q,Q
2023-03-15 15:28:04:121,0,-7.73821,-1.20531,-13.5447,Q,Q
2023-03-15 15:28:04:131,0,-7.73611,-1.20159,-13.5546,Q,Q
2023-03-15 15:28:04:141,0,-7.73359,-1.19983,-13.5608,Q,Q
2023-03-15 15:28:04:151,0,-7.73155,-1.20004,-13.5652,Q,Q
2023-03-15 15:28:04:161,0,-7.72905,-1.20229,-13.5677,Q,Q
2023-03-15 15:28:04:171,0,-7.72802,-1.19937,-13.569,Q,Q
2023-03-15 15:28:04:181,0,-7.72437,-1.20177,-13.571,Q,Q
2023-03-15 15:28:04:191,0,-7.72381,-1.20065,-13.5729,Q,Q
2023-03-15 15:28:04:201,0,-7.72151,-1.19726,-13.5724,Q,Q
2023-03-15 15:28:04:211,0,-7.72563,-1.1932,-13.5685,Q,Q
2023-03-15 15:28:04:220,0,-7.72523,-1.18916,-13.5665,Q,Q
2023-03-15 15:28:04:230,0,-7.72782,-1.18608,-13.5653,Q,Q
2023-03-15 15:28:04:240,0,-7.73332,-1.18035,-13.5654,Q,Q
2023-03-15 15:28:04:250,0,-7.73723,-1.17681,-13.5655,Q,Q
2023-03-15 15:28:04:260,0,-7.73955,-1.16946,-13.5693,Q,Q
2023-03-15 15:28:04:270,0,-7.74413,-1.16445,-13.5737,Q,Q
2023-03-15 15:28:04:280,0,-7.74356,-1.15808,-13.5777,Q,Q
2023-03-15 15:28:04:290,0,-7.74439,-1.1503,-13.5839,Q,Q
2023-03-15 15:28:04:300,0,-7.74687,-1.14187,-13.5928,Q,Q
2023-03-15 15:28:04:310,0,-7.74559,-1.1313,-13.5982,Q,Q
2023-03-15 15:28:04:320,0,-7.74817,-1.12626,-13.6012,Q,Q
2023-03-15 15:28:04:330,0,-7.74991,-1.12025,-13.6055,Q,Q
2023-03-15 15:28:04:340,0,-7.75368,-1.11485,-13.6074,Q,Q
2023-03-15 15:28:04:350,0,-7.75473,-1.11025,-13.6101,Q,Q
2023-03-15 15:28:04:360,0,-7.75488,-1.1071,-13.6116,Q,Q
2023-03-15 15:28:04:370,0,-7.75235,-1.10184,-13.6101,Q,Q
2023-03-15 15:28:04:380,0,-7.7537,-1.09772,-13.6069,Q,Q
2023-03-15 15:28:04:390,0,-7.75176,-1.09215,-13.6034,Q,Q
2023-03-15 15:28:04:400,0,-7.75372,-1.0878,-13.5992,Q,Q
2023-03-15 15:28:04:410,0,-7.75655,-1.08322,-13.5935,Q,Q
2023-03-15 15:28:04:420,0,-7.75692,-1.08163,-13.5855,Q,Q
2023-03-15 15:28:04:430,0,-7.75528,-1.07656,-13.5746,Q,Q
2023-03-15 15:28:04:440,0,-7.7569,-1.07119,-13.562,Q,Q
2023-03-15 15:28:04:450,0,-7.75413,-1.06868,-13.549,Q,Q
2023-03-15 15:28:04:460,0,-7.75248,-1.06131,-13.5334,Q,Q
2023-03-15 15:28:04:470,0,-7.74342,-1.05078,-13.5175,Q,Q
2023-03-15 15:28:04:480,0,-7.73201,-1.03537,-13.5011,Q,Q
2023-03-15 15:28:04:491,0,-7.72498,-1.0214,-13.4863,Q,Q
2023-03-15 15:28:04:501,0,-7.72071,-1.0138,-13.463,Q,Q
2023-03-15 15:28:04:511,0,-7.71437,-1.01331,-13.4364,Q,Q
2023-03-15 15:28:04:521,0,-7.70518,-1.01677,-13.4051,Q,Q
2023-03-15 15:28:04:530,0,-7.70012,-1.02753,-13.37,Q,Q
2023-03-15 15:28:04:540,0,-7.69505,-1.03964,-13.3357,Q,Q
2023-03-15 15:28:04:551,0,-7.69511,-1.04986,-13.3055,Q,Q
2023-03-15 15:28:04:561,0,-7.69835,-1.05505,-13.2803,Q,Q
2023-03-15 15:28:04:571,0,-7.70114,-1.06289,-13.255,Q,Q
2023-03-15 15:28:04:581,0,-7.70291,-1.0689,-13.2307,Q,Q
2023-03-15 15:28:04:591,0,-7.70443,-1.07391,-13.2055,Q,Q
2023-03-15 15:28:04:601,0,-7.70314,-1.08185,-13.1804,Q,Q
2023-03-15 15:28:04:610,0,-7.70547,-1.09001,-13.1591,Q,Q
2023-03-15 15:28:04:620,0,-7.70435,-1.10175,-13.1417,Q,Q
2023-03-15 15:28:04:631,0,-7.70319,-1.11517,-13.1251,Q,Q
2023-03-15 15:28:04:641,0,-7.69708,-1.12886,-13.1139,Q,Q
2023-03-15 15:28:04:651,0,-7.69005,-1.14157,-13.1114,Q,Q
2023-03-15 15:28:04:661,0,-7.68878,-1.15556,-13.115,Q,Q
2023-03-15 15:28:04:671,0,-7.68787,-1.16842,-13.1196,Q,Q
2023-03-15 15:28:04:681,0,-7.68593,-1.17921,-13.1304,Q,Q
2023-03-15 15:28:04:691,0,-7.67956,-1.18793,-13.1459,Q,Q
2023-03-15 15:28:04:701,0,-7.67822,-1.1936,-13.1624,Q,Q
2023-03-15 15:28:04:711,0,-7.67817,-1.20107,-13.1741,Q,Q
2023-03-15 15:28:04:721,0,-7.6699,-1.20292,-13.1826,Q,Q
2023-03-15 15:28:04:731,0,-7.65876,-1.20655,-13.1938,Q,Q
2023-03-15 15:28:04:741,0,-7.64568,-1.21008,-13.2025,Q,Q
2023-03-15 15:28:04:751,0,-7.62875,-1.20761,-13.2122,Q,Q
2023-03-15 15:28:04:761,0,-7.61316,-1.20496,-13.2107,Q,Q
2023-03-15 15:28:04:771,0,-7.60166,-1.20874,-13.2128,Q,Q
2023-03-15 15:28:04:781,0,-7.59157,-1.21487,-13.2076,Q,Q
2023-03-15 15:28:04:791,0,-7.58122,-1.22141,-13.2008,Q,Q
2023-03-15 15:28:04:801,0,-7.56981,-1.2313,-13.195,Q,Q
2023-03-15 15:28:04:811,0,-7.56247,-1.23811,-13.1892,Q,Q
2023-03-15 15:28:04:821,0,-7.55438,-1.24195,-13.1881,Q,Q
2023-03-15 15:28:04:831,0,-7.5452,-1.2431,-13.1913,Q,Q
2023-03-15 15:28:04:841,0,-7.5386,-1.23719,-13.1973,Q,Q
2023-03-15 15:28:04:851,0,-7.5321,-1.22812,-13.2015,Q,Q
2023-03-15 15:28:04:861,0,-7.53293,-1.22188,-13.2128,Q,Q
2023-03-15 15:28:04:871,0,-7.53129,-1.21966,-13.2264,Q,Q
2023-03-15 15:28:04:881,0,-7.52865,-1.21568,-13.2441,Q,Q
2023-03-15 15:28:04:891,0,-7.52999,-1.2158,-13.2613,Q,Q
2023-03-15 15:28:04:901,0,-7.53544,-1.21984,-13.281,Q,Q
2023-03-15 15:28:04:911,0,-7.54324,-1.22151,-13.3024,Q,Q
2023-03-15 15:28:04:921,0,-7.54897,-1.22575,-13.3248,Q,Q
2023-03-15 15:28:04:931,0,-7.55233,-1.22438,-13.3455,Q,Q
2023-03-15 15:28:04:941,0,-7.55516,-1.22411,-13.3625,Q,Q
2023-03-15 15:28:04:951,0,-7.5592,-1.22257,-13.3794,Q,Q
2023-03-15 15:28:04:961,0,-7.56258,-1.22159,-13.3913,Q,Q
2023-03-15 15:28:04:971,0,-7.56011,-1.22011,-13.3937,Q,Q
2023-03-15 15:28:04:981,0,-7.55721,-1.21648,-13.394,Q,Q
2023-03-15 15:28:04:991,0,-7.55438,-1.21149,-13.3927,Q,Q
2023-03-15 15:28:05:1,0,-7.54832,-1.2072,-13.3826,Q,Q
2023-03-15 15:28:05:11,0,-7.54667,-1.20303,-13.371,Q,Q
2023-03-15 15:28:05:21,0,-7.55018,-1.19608,-13.3528,Q,Q
2023-03-15 15:28:05:31,0,-7.55526,-1.18909,-13.3309,Q,Q
2023-03-15 15:28:05:41,0,-7.56704,-1.18756,-13.3114,Q,Q
2023-03-15 15:28:05:51,0,-7.57758,-1.18119,-13.2921,Q,Q
2023-03-15 15:28:05:61,0,-7.59289,-1.17664,-13.2771,Q,Q
2023-03-15 15:28:05:71,0,-7.59837,-1.17117,-13.2632,Q,Q
2023-03-15 15:28:05:81,0,-7.6023,-1.16428,-13.2533,Q,Q
2023-03-15 15:28:05:91,0,-7.60203,-1.15888,-13.2478,Q,Q
2023-03-15 15:28:05:101,0,-7.59926,-1.15681,-13.2412,Q,Q
2023-03-15 15:28:05:111,0,-7.59228,-1.15539,-13.2319,Q,Q
2023-03-15 15:28:05:121,0,-7.58975,-1.15721,-13.2213,Q,Q
2023-03-15 15:28:05:131,0,-7.58772,-1.16402,-13.2153,Q,Q
2023-03-15 15:28:05:141,0,-7.58253,-1.17401,-13.2101,Q,Q
2023-03-15 15:28:05:151,0,-7.5802,-1.18271,-13.2039,Q,Q
2023-03-15 15:28:05:161,0,-7.57725,-1.19258,-13.1983,Q,Q
2023-03-15 15:28:05:171,0,-7.57425,-1.20218,-13.1983,Q,Q
2023-03-15 15:28:05:181,0,-7.56393,-1.21626,-13.1954,Q,Q
2023-03-15 15:28:05:191,0,-7.55448,-1.22651,-13.1939,Q,Q
2023-03-15 15:28:05:201,0,-7.54583,-1.23263,-13.1925,Q,Q
2023-03-15 15:28:05:211,0,-7.53716,-1.23829,-13.1889,Q,Q
2023-03-15 15:28:05:221,0,-7.53519,-1.24215,-13.1871,Q,Q
2023-03-15 15:28:05:231,0,-7.5316,-1.24407,-13.1821,Q,Q
2023-03-15 15:28:05:241,0,-7.5368,-1.24784,-13.1802,Q,Q
2023-03-15 15:28:05:251,0,-7.53824,-1.24531,-13.1795,Q,Q
2023-03-15 15:28:05:261,0,-7.54136,-1.24743,-13.1771,Q,Q
2023-03-15 15:28:05:271,0,-7.5429,-1.24852,-13.1745,Q,Q
2023-03-15 15:28:05:281,0,-7.54669,-1.25074,-13.1743,Q,Q
2023-03-15 15:28:05:291,0,-7.54961,-1.2494,-13.1763,Q,Q
2023-03-15 15:28:05:301,0,-7.55282,-1.24177,-13.181,Q,Q
2023-03-15 15:28:05:311,0,-7.55552,-1.2349,-13.1884,Q,Q
2023-03-15 15:28:05:321,0,-7.55863,-1.22752,-13.1954,Q,Q
2023-03-15 15:28:05:331,0,-7.5595,-1.22263,-13.2017,Q,Q
2023-03-15 15:28:05:341,0,-7.56536,-1.22318,-13.2053,Q,Q
2023-03-15 15:28:05:351,0,-7.57164,-1.2266,-13.2077,Q,Q
2023-03-15 15:28:05:361,0,-7.58049,-1.2354,-13.2073,Q,Q
2023-03-15 15:28:05:371,0,-7.59259,-1.24102,-13.2065,Q,Q
2023-03-15 15:28:05:380,0,-7.60633,-1.24804,-13.2046,Q,Q
2023-03-15 15:28:05:390,0,-7.62067,-1.25331,-13.2045,Q,Q
2023-03-15 15:28:05:401,0,-7.63355,-1.25716,-13.2067,Q,Q
2023-03-15 15:28:05:411,0,-7.64253,-1.25807,-13.2088,Q,Q
2023-03-15 15:28:05:421,0,-7.65107,-1.26059,-13.2095,Q,Q
2023-03-15 15:28:05:431,0,-7.65965,-1.26355,-13.2093,Q,Q
2023-03-15 15:28:05:441,0,-7.66832,-1.26689,-13.2094,Q,Q
2023-03-15 15:28:05:451,0,-7.67337,-1.2685,-13.2099,Q,Q
2023-03-15 15:28:05:461,0,-7.68302,-1.26992,-13.2121,Q,Q
2023-03-15 15:28:05:471,0,-7.68965,-1.27534,-13.2174,Q,Q
2023-03-15 15:28:05:481,0,-7.69834,-1.2772,-13.2271,Q,Q
2023-03-15 15:28:05:491,0,-7.70218,-1.27808,-13.2419,Q,Q
2023-03-15 15:28:05:501,0,-7.70137,-1.27765,-13.2509,Q,Q
2023-03-15 15:28:05:511,0,-7.69921,-1.27841,-13.2661,Q,Q
2023-03-15 15:28:05:521,0,-7.69335,-1.28314,-13.2771,Q,Q
2023-03-15 15:28:05:531,0,-7.68549,-1.29201,-13.2923,Q,Q
2023-03-15 15:28:05:541,0,-7.67873,-1.29925,-13.3026,Q,Q
2023-03-15 15:28:05:551,0,-7.67495,-1.30901,-13.3151,Q,Q
2023-03-15 15:28:05:561,0,-7.67243,-1.31473,-13.3289,Q,Q
2023-03-15 15:28:05:571,0,-7.66629,-1.31969,-13.3477,Q,Q
2023-03-15 15:28:05:581,0,-7.65854,-1.32113,-13.3691,Q,Q
2023-03-15 15:28:05:591,0,-7.65376,-1.32354,-13.388,Q,Q
2023-03-15 15:28:05:601,0,-7.6511,-1.32901,-13.4061,Q,Q
2023-03-15 15:28:05:611,0,-7.65284,-1.33267,-13.4167,Q,Q
2023-03-15 15:28:05:621,0,-7.65177,-1.33595,-13.4318,Q,Q
2023-03-15 15:28:05:631,0,-7.64818,-1.33577,-13.4473,Q,Q
2023-03-15 15:28:05:641,0,-7.6393,-1.33371,-13.4607,Q,Q
2023-03-15 15:28:05:651,0,-7.63211,-1.33055,-13.472,Q,Q
2023-03-15 15:28:05:661,0,-7.62179,-1.32913,-13.4803,Q,Q
2023-03-15 15:28:05:671,0,-7.61686,-1.32947,-13.4905,Q,Q
2023-03-15 15:28:05:680,0,-7.60864,-1.33342,-13.5013,Q,Q
2023-03-15 15:28:05:690,0,-7.60742,-1.3397,-13.5135,Q,Q
2023-03-15 15:28:05:700,0,-7.60454,-1.35217,-13.5239,Q,Q
2023-03-15 15:28:05:710,0,-7.60433,-1.36059,-13.5394,Q,Q
2023-03-15 15:28:05:720,0,-7.60298,-1.37396,-13.5573,Q,Q
2023-03-15 15:28:05:730,0,-7.60525,-1.38522,-13.5795,Q,Q
2023-03-15 15:28:05:741,0,-7.60658,-1.39847,-13.6061,Q,Q
2023-03-15 15:28:05:751,0,-7.60399,-1.41588,-13.6404,Q,Q
2023-03-15 15:28:05:761,0,-7.60393,-1.4302,-13.6886,Q,Q
2023-03-15 15:28:05:771,0,-7.60123,-1.44321,-13.741,Q,Q
2023-03-15 15:28:05:780,0,-7.60165,-1.46497,-13.801,Q,Q
2023-03-15 15:28:05:790,0,-7.60895,-1.49782,-13.8718,Q,Q
2023-03-15 15:28:05:801,0,-7.61653,-1.53047,-13.9562,Q,Q
2023-03-15 15:28:05:811,0,-7.61912,-1.5619,-14.0509,Q,Q
2023-03-15 15:28:05:821,0,-7.6222,-1.59491,-14.1595,Q,Q
2023-03-15 15:28:05:831,0,-7.62692,-1.62954,-14.2838,Q,Q
2023-03-15 15:28:05:841,0,-7.63202,-1.66252,-14.4243,Q,Q
2023-03-15 15:28:05:851,0,-7.63124,-1.69709,-14.5843,Q,Q
2023-03-15 15:28:05:861,0,-7.63124,-1.72678,-14.7594,Q,Q
2023-03-15 15:28:05:871,0,-7.63268,-1.75868,-14.9499,Q,Q
2023-03-15 15:28:05:881,0,-7.63021,-1.78897,-15.1574,Q,Q
2023-03-15 15:28:05:891,0,-7.62933,-1.82416,-15.3796,Q,Q
2023-03-15 15:28:05:901,0,-7.62949,-1.86087,-15.6202,Q,Q
2023-03-15 15:28:05:911,0,-7.6269,-1.89943,-15.8824,Q,Q
2023-03-15 15:28:05:921,0,-7.62431,-1.93921,-16.1684,Q,Q
2023-03-15 15:28:05:931,0,-7.61673,-1.97925,-16.4781,Q,Q
2023-03-15 15:28:05:941,0,-7.6067,-2.0181,-16.8099,Q,Q
2023-03-15 15:28:05:951,0,-7.59153,-2.05229,-17.1536,Q,Q
2023-03-15 15:28:05:961,0,-7.56644,-2.08357,-17.5116,Q,Q
2023-03-15 15:28:05:971,0,-7.52832,-2.11147,-17.8733,Q,Q
2023-03-15 15:28:05:981,0,-7.47781,-2.12922,-18.2384,Q,Q
2023-03-15 15:28:05:991,0,-7.42441,-2.14174,-18.6017,Q,Q
2023-03-15 15:28:06:1,0,-7.36784,-2.15014,-18.9571,Q,Q
2023-03-15 15:28:06:11,0,-7.31124,-2.15071,-19.3004,Q,Q
2023-03-15 15:28:06:21,0,-7.25829,-2.14768,-19.6336,Q,Q
2023-03-15 15:28:06:31,0,-7.2067,-2.14332,-19.9494,Q,Q
2023-03-15 15:28:06:41,0,-7.15283,-2.13621,-20.2531,Q,Q
2023-03-15 15:28:06:51,0,-7.09834,-2.12334,-20.543,Q,Q
2023-03-15 15:28:06:61,0,-7.04806,-2.10257,-20.8203,Q,Q
2023-03-15 15:28:06:71,0,-6.99755,-2.07165,-21.0913,Q,Q
2023-03-15 15:28:06:81,0,-6.95016,-2.03388,-21.3487,Q,Q
2023-03-15 15:28:06:90,0,-6.89313,-1.99264,-21.5981,Q,Q
2023-03-15 15:28:06:101,0,-6.83689,-1.94321,-21.8329,Q,Q
2023-03-15 15:28:06:111,0,-6.781,-1.8887,-22.0546,Q,Q
2023-03-15 15:28:06:121,0,-6.7269,-1.82684,-22.2696,Q,Q
2023-03-15 15:28:06:131,0,-6.67583,-1.76462,-22.473,Q,Q
2023-03-15 15:28:06:141,0,-6.62937,-1.69791,-22.6684,Q,Q
2023-03-15 15:28:06:151,0,-6.58458,-1.62742,-22.8539,Q,Q
2023-03-15 15:28:06:161,0,-6.53822,-1.55393,-23.0303,Q,Q
2023-03-15 15:28:06:171,0,-6.49127,-1.48233,-23.1933,Q,Q
2023-03-15 15:28:06:181,0,-6.44287,-1.40927,-23.3478,Q,Q
2023-03-15 15:28:06:191,0,-6.39337,-1.33649,-23.492,Q,Q
2023-03-15 15:28:06:201,0,-6.33927,-1.26104,-23.6312,Q,Q
2023-03-15 15:28:06:211,0,-6.28246,-1.18172,-23.7613,Q,Q
2023-03-15 15:28:06:221,0,-6.22749,-1.10316,-23.8869,Q,Q
2023-03-15 15:28:06:231,0,-6.1695,-1.02448,-24.0059,Q,Q
2023-03-15 15:28:06:241,0,-6.11563,-0.943694,-24.1223,Q,Q
2023-03-15 15:28:06:251,0,-6.06469,-0.870672,-24.2376,Q,Q
2023-03-15 15:28:06:261,0,-6.02239,-0.799513,-24.3528,Q,Q
2023-03-15 15:28:06:271,0,-5.98995,-0.741688,-24.4707,Q,Q
2023-03-15 15:28:06:281,0,-5.96042,-0.699909,-24.5945,Q,Q
2023-03-15 15:28:06:291,0,-5.94327,-0.673664,-24.7224,Q,Q
2023-03-15 15:28:06:301,0,-5.93192,-0.667838,-24.8591,Q,Q
2023-03-15 15:28:06:310,0,-5.93241,-0.683125,-24.9983,Q,Q
2023-03-15 15:28:06:321,0,-5.94881,-0.720917,-25.1441,Q,Q
2023-03-15 15:28:06:331,0,-5.97183,-0.765697,-25.3013,Q,Q
2023-03-15 15:28:06:341,0,-5.99386,-0.810295,-25.4719,Q,Q
2023-03-15 15:28:06:351,0,-6.00891,-0.841731,-25.648,Q,Q
2023-03-15 15:28:06:361,0,-6.0128,-0.867071,-25.8254,Q,Q
2023-03-15 15:28:06:371,0,-6.00868,-0.885974,-26.0008,Q,Q
2023-03-15 15:28:06:381,0,-6.00392,-0.899995,-26.175,Q,Q
2023-03-15 15:28:06:391,0,-5.99985,-0.903886,-26.3409,Q,Q
2023-03-15 15:28:06:401,0,-6.007,-0.906486,-26.5072,Q,Q
2023-03-15 15:28:06:411,0,-6.02617,-0.903342,-26.6745,Q,Q
2023-03-15 15:28:06:421,0,-6.05712,-0.89494,-26.8445,Q,Q
2023-03-15 15:28:06:431,0,-6.09481,-0.880055,-27.0257,Q,Q
2023-03-15 15:28:06:441,0,-6.12441,-0.852043,-27.213,Q,Q
2023-03-15 15:28:06:451,0,-6.15368,-0.815362,-27.4001,Q,Q
2023-03-15 15:28:06:461,0,-6.17454,-0.77458,-27.5936,Q,Q
2023-03-15 15:28:06:471,0,-6.18884,-0.733503,-27.7873,Q,Q
2023-03-15 15:28:06:481,0,-6.20482,-0.695124,-27.9751,Q,Q
2023-03-15 15:28:06:491,0,-6.22699,-0.670462,-28.1537,Q,Q
2023-03-15 15:28:06:501,0,-6.25306,-0.656835,-28.3252,Q,Q
2023-03-15 15:28:06:511,0,-6.27903,-0.660233,-28.4875,Q,Q
2023-03-15 15:28:06:521,0,-6.31023,-0.67167,-28.6343,Q,Q
2023-03-15 15:28:06:531,0,-6.3391,-0.690846,-28.7745,Q,Q
2023-03-15 15:28:06:541,0,-6.35551,-0.713874,-28.8974,Q,Q
2023-03-15 15:28:06:551,0,-6.36277,-0.737404,-29.01,Q,Q
2023-03-15 15:28:06:561,0,-6.35279,-0.750169,-29.1075,Q,Q
2023-03-15 15:28:06:571,0,-6.33195,-0.750514,-29.1901,Q,Q
2023-03-15 15:28:06:581,0,-6.30056,-0.742552,-29.2579,Q,Q
2023-03-15 15:28:06:591,0,-6.2602,-0.725938,-29.3127,Q,Q
2023-03-15 15:28:06:601,0,-6.20987,-0.697053,-29.3561,Q,Q
2023-03-15 15:28:06:611,0,-6.1587,-0.662028,-29.3892,Q,Q
2023-03-15 15:28:06:621,0,-6.10439,-0.620393,-29.4144,Q,Q
2023-03-15 15:28:06:631,0,-6.05371,-0.572764,-29.4361,Q,Q
2023-03-15 15:28:06:641,0,-6.01658,-0.521934,-29.4535,Q,Q
2023-03-15 15:28:06:651,0,-5.98694,-0.469092,-29.4699,Q,Q
2023-03-15 15:28:06:661,0,-5.96745,-0.411551,-29.4926,Q,Q
2023-03-15 15:28:06:671,0,-5.94637,-0.351369,-29.52,Q,Q
2023-03-15 15:28:06:681,0,-5.91778,-0.290531,-29.5475,Q,Q
2023-03-15 15:28:06:691,0,-5.88665,-0.226677,-29.5794,Q,Q
2023-03-15 15:28:06:701,0,-5.85755,-0.172354,-29.6073,Q,Q
2023-03-15 15:28:06:710,0,-5.83733,-0.122493,-29.6366,Q,Q
2023-03-15 15:28:06:721,0,-5.81481,-0.0784392,-29.6654,Q,Q
2023-03-15 15:28:06:731,0,-5.80166,-0.0475566,-29.696,Q,Q
2023-03-15 15:28:06:741,0,-5.79737,-0.0225596,-29.7266,Q,Q
2023-03-15 15:28:06:751,0,-5.80174,-0.00592637,-29.7524,Q,Q
2023-03-15 15:28:06:761,0,-5.81914,0.00399733,-29.779,Q,Q
2023-03-15 15:28:06:771,0,-5.84571,0.00636654,-29.8017,Q,Q
2023-03-15 15:28:06:781,0,-5.88377,0.00640429,-29.8256,Q,Q
2023-03-15 15:28:06:791,0,-5.92791,0.0128399,-29.8477,Q,Q
2023-03-15 15:28:06:801,0,-5.977,0.0322531,-29.862,Q,Q
2023-03-15 15:28:06:811,0,-6.033,0.0465793,-29.8672,Q,Q
2023-03-15 15:28:06:821,0,-6.09399,0.0505942,-29.8665,Q,Q
2023-03-15 15:28:06:831,0,-6.15656,0.047697,-29.866,Q,Q
2023-03-15 15:28:06:841,0,-6.20824,0.0431976,-29.8602,Q,Q
2023-03-15 15:28:06:851,0,-6.25436,0.0413481,-29.8497,Q,Q
2023-03-15 15:28:06:861,0,-6.31111,0.0357319,-29.838,Q,Q
2023-03-15 15:28:06:871,0,-6.37815,0.0267725,-29.823,Q,Q
2023-03-15 15:28:06:881,0,-6.45762,0.0141316,-29.8013,Q,Q
2023-03-15 15:28:06:891,0,-6.54492,0.00205132,-29.7709,Q,Q
2023-03-15 15:28:06:901,0,-6.63655,-0.00838977,-29.7308,Q,Q
2023-03-15 15:28:06:911,0,-6.72097,-0.0185174,-29.6814,Q,Q
2023-03-15 15:28:06:921,0,-6.79551,-0.0259571,-29.6252,Q,Q
2023-03-15 15:28:06:931,0,-6.86529,-0.0309097,-29.5614,Q,Q
2023-03-15 15:28:06:941,0,-6.92385,-0.0306704,-29.4973,Q,Q
2023-03-15 15:28:06:951,0,-6.97582,-0.0196314,-29.427,Q,Q
2023-03-15 15:28:06:961,0,-7.02289,-0.00386001,-29.3458,Q,Q
2023-03-15 15:28:06:971,0,-7.07503,0.0114015,-29.2578,Q,Q
2023-03-15 15:28:06:981,0,-7.1349,0.0246955,-29.1673,Q,Q
2023-03-15 15:28:06:991,0,-7.19148,0.0374538,-29.0767,Q,Q
2023-03-15 15:28:07:1,0,-7.25166,0.0472934,-28.9806,Q,Q
2023-03-15 15:28:07:11,0,-7.30347,0.0542311,-28.8885,Q,Q
2023-03-15 15:28:07:21,0,-7.33437,0.0659097,-28.8053,Q,Q
2023-03-15 15:28:07:31,0,-7.35173,0.0844519,-28.7245,Q,Q
2023-03-15 15:28:07:41,0,-7.35825,0.100301,-28.6468,Q,Q
2023-03-15 15:28:07:51,0,-7.35867,0.109084,-28.5736,Q,Q
2023-03-15 15:28:07:61,0,-7.35302,0.125604,-28.5049,Q,Q
2023-03-15 15:28:07:71,0,-7.34231,0.137222,-28.437,Q,Q
2023-03-15 15:28:07:81,0,-7.33818,0.146752,-28.3748,Q,Q
2023-03-15 15:28:07:91,0,-7.34646,0.151504,-28.3119,Q,Q
2023-03-15 15:28:07:101,0,-7.36491,0.146587,-28.2486,Q,Q
2023-03-15 15:28:07:111,0,-7.39398,0.125919,-28.1848,Q,Q
2023-03-15 15:28:07:120,0,-7.42232,0.102605,-28.1186,Q,Q
2023-03-15 15:28:07:131,0,-7.44775,0.0762393,-28.0495,Q,Q
2023-03-15 15:28:07:141,0,-7.4672,0.0480629,-27.9749,Q,Q
2023-03-15 15:28:07:151,0,-7.47336,0.0173096,-27.8915,Q,Q
2023-03-15 15:28:07:161,0,-7.48386,-0.0189644,-27.8072,Q,Q
2023-03-15 15:28:07:171,0,-7.4845,-0.0571372,-27.7165,Q,Q
2023-03-15 15:28:07:181,0,-7.47873,-0.0909599,-27.6274,Q,Q
2023-03-15 15:28:07:191,0,-7.47575,-0.114339,-27.5417,Q,Q
2023-03-15 15:28:07:201,0,-7.47784,-0.129477,-27.4597,Q,Q
2023-03-15 15:28:07:211,0,-7.50003,-0.136544,-27.3861,Q,Q
2023-03-15 15:28:07:221,0,-7.55052,-0.144479,-27.3213,Q,Q
2023-03-15 15:28:07:231,0,-7.62492,-0.152779,-27.2721,Q,Q
2023-03-15 15:28:07:241,0,-7.7068,-0.164158,-27.2438,Q,Q
2023-03-15 15:28:07:251,0,-7.78632,-0.173602,-27.2332,Q,Q
2023-03-15 15:28:07:261,0,-7.8557,-0.1901,-27.2411,Q,Q
2023-03-15 15:28:07:271,0,-7.90506,-0.210021,-27.2668,Q,Q
2023-03-15 15:28:07:281,0,-7.92489,-0.228753,-27.3073,Q,Q
2023-03-15 15:28:07:291,0,-7.92325,-0.248182,-27.3672,Q,Q
2023-03-15 15:28:07:301,0,-7.90109,-0.265506,-27.4366,Q,Q
2023-03-15 15:28:07:311,0,-7.86392,-0.284214,-27.5166,Q,Q
2023-03-15 15:28:07:321,0,-7.82228,-0.300201,-27.6004,Q,Q
2023-03-15 15:28:07:331,0,-7.78741,-0.313801,-27.6898,Q,Q
2023-03-15 15:28:07:341,0,-7.75685,-0.324598,-27.7819,Q,Q
2023-03-15 15:28:07:351,0,-7.72866,-0.33012,-27.8716,Q,Q
2023-03-15 15:28:07:361,0,-7.70397,-0.335792,-27.9627,Q,Q
2023-03-15 15:28:07:371,0,-7.67903,-0.340722,-28.0484,Q,Q
2023-03-15 15:28:07:381,0,-7.65827,-0.34516,-28.1311,Q,Q
2023-03-15 15:28:07:391,0,-7.62988,-0.354494,-28.2108,Q,Q
2023-03-15 15:28:07:401,0,-7.59773,-0.360975,-28.2793,Q,Q
2023-03-15 15:28:07:411,0,-7.56348,-0.371298,-28.3392,Q,Q
2023-03-15 15:28:07:421,0,-7.52664,-0.389981,-28.3917,Q,Q
2023-03-15 15:28:07:431,0,-7.49369,-0.405537,-28.4329,Q,Q
2023-03-15 15:28:07:441,0,-7.46391,-0.424686,-28.4668,Q,Q
2023-03-15 15:28:07:451,0,-7.4384,-0.441589,-28.496,Q,Q
2023-03-15 15:28:07:461,0,-7.41326,-0.463709,-28.5227,Q,Q
2023-03-15 15:28:07:471,0,-7.3874,-0.487999,-28.547,Q,Q
2023-03-15 15:28:07:481,0,-7.36371,-0.511311,-28.5659,Q,Q
2023-03-15 15:28:07:491,0,-7.33987,-0.534686,-28.5842,Q,Q
2023-03-15 15:28:07:501,0,-7.31811,-0.562129,-28.5978,Q,Q
2023-03-15 15:28:07:511,0,-7.30232,-0.595007,-28.607,Q,Q
2023-03-15 15:28:07:521,0,-7.28726,-0.630561,-28.6154,Q,Q
2023-03-15 15:28:07:531,0,-7.27847,-0.666443,-28.6226,Q,Q
2023-03-15 15:28:07:541,0,-7.26655,-0.705873,-28.6283,Q,Q
2023-03-15 15:28:07:551,0,-7.25387,-0.741083,-28.6325,Q,Q
2023-03-15 15:28:07:561,0,-7.23864,-0.769757,-28.636,Q,Q
2023-03-15 15:28:07:571,0,-7.21999,-0.794253,-28.6416,Q,Q
2023-03-15 15:28:07:581,0,-7.20253,-0.821273,-28.6469,Q,Q
2023-03-15 15:28:07:591,0,-7.1959,-0.843237,-28.6599,Q,Q
2023-03-15 15:28:07:601,0,-7.18634,-0.861468,-28.6729,Q,Q
2023-03-15 15:28:07:611,0,-7.17785,-0.876119,-28.6894,Q,Q
2023-03-15 15:28:07:621,0,-7.17113,-0.890305,-28.7118,Q,Q
2023-03-15 15:28:07:631,0,-7.16581,-0.900714,-28.7409,Q,Q
2023-03-15 15:28:07:641,0,-7.15861,-0.906951,-28.772,Q,Q
2023-03-15 15:28:07:651,0,-7.14883,-0.91082,-28.8022,Q,Q
2023-03-15 15:28:07:661,0,-7.13858,-0.914935,-28.8333,Q,Q
2023-03-15 15:28:07:671,0,-7.12863,-0.91563,-28.8629,Q,Q
2023-03-15 15:28:07:681,0,-7.12322,-0.91065,-28.8961,Q,Q
2023-03-15 15:28:07:691,0,-7.11703,-0.90259,-28.929,Q,Q
2023-03-15 15:28:07:701,0,-7.10918,-0.892946,-28.9616,Q,Q
2023-03-15 15:28:07:710,0,-7.10031,-0.883039,-28.9935,Q,Q
2023-03-15 15:28:07:720,0,-7.09397,-0.873019,-29.0261,Q,Q
2023-03-15 15:28:07:730,0,-7.09213,-0.860896,-29.0598,Q,Q
2023-03-15 15:28:07:741,0,-7.08753,-0.84421,-29.0935,Q,Q
2023-03-15 15:28:07:750,0,-7.08222,-0.826879,-29.1267,Q,Q
2023-03-15 15:28:07:760,0,-7.07826,-0.810269,-29.1615,Q,Q
2023-03-15 15:28:07:771,0,-7.07618,-0.796762,-29.2011,Q,Q
2023-03-15 15:28:07:781,0,-7.06969,-0.786641,-29.2387,Q,Q
2023-03-15 15:28:07:791,0,-7.0689,-0.780342,-29.2754,Q,Q
2023-03-15 15:28:07:801,0,-7.07474,-0.772156,-29.314,Q,Q
2023-03-15 15:28:07:811,0,-7.08227,-0.762796,-29.3533,Q,Q
2023-03-15 15:28:07:821,0,-7.0914,-0.7529,-29.3968,Q,Q
2023-03-15 15:28:07:831,0,-7.1022,-0.745209,-29.4447,Q,Q
2023-03-15 15:28:07:841,0,-7.10911,-0.735646,-29.4926,Q,Q
2023-03-15 15:28:07:851,0,-7.11051,-0.729114,-29.5425,Q,Q
2023-03-15 15:28:07:861,0,-7.11021,-0.731197,-29.5928,Q,Q
2023-03-15 15:28:07:871,0,-7.10389,-0.736454,-29.6347,Q,Q
2023-03-15 15:28:07:881,0,-7.09663,-0.745726,-29.6797,Q,Q
2023-03-15 15:28:07:891,0,-7.08968,-0.751915,-29.7211,Q,Q
2023-03-15 15:28:07:901,0,-7.08239,-0.75843,-29.7594,Q,Q
2023-03-15 15:28:07:911,0,-7.07557,-0.763808,-29.7976,Q,Q
2023-03-15 15:28:07:921,0,-7.0733,-0.76725,-29.8354,Q,Q
2023-03-15 15:28:07:931,0,-7.07226,-0.771253,-29.8657,Q,Q
2023-03-15 15:28:07:941,0,-7.06808,-0.773603,-29.8889,Q,Q
2023-03-15 15:28:07:950,0,-7.06525,-0.777619,-29.9093,Q,Q
2023-03-15 15:28:07:961,0,-7.06506,-0.78325,-29.9286,Q,Q
2023-03-15 15:28:07:971,0,-7.06169,-0.793184,-29.9384,Q,Q
2023-03-15 15:28:07:981,0,-7.05826,-0.799895,-29.9429,Q,Q
2023-03-15 15:28:07:991,0,-7.05395,-0.805581,-29.9505,Q,Q
2023-03-15 15:28:08:1,0,-7.0491,-0.807585,-29.9554,Q,Q
2023-03-15 15:28:08:11,0,-7.04395,-0.810493,-29.9605,Q,Q
2023-03-15 15:28:08:21,0,-7.04319,-0.817423,-29.9652,Q,Q
2023-03-15 15:28:08:31,0,-7.04596,-0.821373,-29.9683,Q,Q
2023-03-15 15:28:08:41,0,-7.05055,-0.823275,-29.972,Q,Q
2023-03-15 15:28:08:51,0,-7.05529,-0.825483,-29.9777,Q,Q
2023-03-15 15:28:08:61,0,-7.06227,-0.829636,-29.9803,Q,Q
2023-03-15 15:28:08:71,0,-7.06661,-0.837275,-29.9819,Q,Q
2023-03-15 15:28:08:81,0,-7.0667,-0.844715,-29.984,Q,Q
2023-03-15 15:28:08:91,0,-7.06706,-0.850558,-29.989,Q,Q
2023-03-15 15:28:08:101,0,-7.06257,-0.853556,-29.9972,Q,Q
2023-03-15 15:28:08:111,0,-7.05974,-0.85165,-30.0071,Q,Q
2023-03-15 15:28:08:121,0,-7.0558,-0.850666,-30.0165,Q,Q
2023-03-15 15:28:08:131,0,-7.05418,-0.852597,-30.0255,Q,Q
2023-03-15 15:28:08:141,0,-7.05361,-0.853968,-30.0361,Q,Q
2023-03-15 15:28:08:151,0,-7.05191,-0.851742,-30.0463,Q,Q
2023-03-15 15:28:08:161,0,-7.05161,-0.849507,-30.0574,Q,Q
2023-03-15 15:28:08:171,0,-7.05409,-0.844597,-30.0769,Q,Q
2023-03-15 15:28:08:181,0,-7.0547,-0.834099,-30.0943,Q,Q
2023-03-15 15:28:08:191,0,-7.05685,-0.820891,-30.117,Q,Q
2023-03-15 15:28:08:201,0,-7.0605,-0.804876,-30.1413,Q,Q
2023-03-15 15:28:08:211,0,-7.06127,-0.790739,-30.1674,Q,Q
2023-03-15 15:28:08:221,0,-7.06393,-0.774704,-30.1961,Q,Q
2023-03-15 15:28:08:231,0,-7.06149,-0.758724,-30.2238,Q,Q
2023-03-15 15:28:08:241,0,-7.06275,-0.743005,-30.2544,Q,Q
2023-03-15 15:28:08:251,0,-7.06901,-0.728334,-30.2905,Q,Q
2023-03-15 15:28:08:261,0,-7.07229,-0.716004,-30.328,Q,Q
2023-03-15 15:28:08:271,0,-7.07758,-0.705229,-30.3658,Q,Q
2023-03-15 15:28:08:281,0,-7.08235,-0.69445,-30.407,Q,Q
2023-03-15 15:28:08:291,0,-7.09314,-0.686261,-30.4503,Q,Q
2023-03-15 15:28:08:301,0,-7.10175,-0.678276,-30.495,Q,Q
2023-03-15 15:28:08:311,0,-7.11276,-0.674077,-30.5387,Q,Q
2023-03-15 15:28:08:321,0,-7.1243,-0.667073,-30.5799,Q,Q
2023-03-15 15:28:08:331,0,-7.13702,-0.66125,-30.6253,Q,Q
2023-03-15 15:28:08:341,0,-7.14813,-0.655585,-30.6673,Q,Q
2023-03-15 15:28:08:351,0,-7.15184,-0.651873,-30.7054,Q,Q
2023-03-15 15:28:08:361,0,-7.15115,-0.651695,-30.7477,Q,Q
2023-03-15 15:28:08:371,0,-7.1471,-0.647639,-30.7828,Q,Q
2023-03-15 15:28:08:381,0,-7.14097,-0.64547,-30.816,Q,Q
2023-03-15 15:28:08:391,0,-7.13642,-0.641916,-30.8477,Q,Q
2023-03-15 15:28:08:401,0,-7.13514,-0.63598,-30.8808,Q,Q
2023-03-15 15:28:08:411,0,-7.13452,-0.625832,-30.9116,Q,Q
2023-03-15 15:28:08:421,0,-7.1413,-0.616791,-30.9408,Q,Q
2023-03-15 15:28:08:431,0,-7.15145,-0.607727,-30.9722,Q,Q
2023-03-15 15:28:08:441,0,-7.16749,-0.600615,-31.0012,Q,Q
2023-03-15 15:28:08:451,0,-7.1811,-0.587971,-31.0358,Q,Q
2023-03-15 15:28:08:461,0,-7.19552,-0.577194,-31.0675,Q,Q
2023-03-15 15:28:08:470,0,-7.21012,-0.567382,-31.0989,Q,Q
2023-03-15 15:28:08:481,0,-7.22344,-0.555142,-31.1297,Q,Q
2023-03-15 15:28:08:491,0,-7.23719,-0.543807,-31.1595,Q,Q
2023-03-15 15:28:08:501,0,-7.25177,-0.532912,-31.1878,Q,Q
2023-03-15 15:28:08:511,0,-7.26933,-0.525713,-31.2152,Q,Q
2023-03-15 15:28:08:521,0,-7.28939,-0.517567,-31.2388,Q,Q
2023-03-15 15:28:08:531,0,-7.31168,-0.510537,-31.2593,Q,Q
2023-03-15 15:28:08:541,0,-7.33489,-0.499708,-31.2795,Q,Q
2023-03-15 15:28:08:551,0,-7.35796,-0.486928,-31.2956,Q,Q
2023-03-15 15:28:08:561,0,-7.38333,-0.478273,-31.3113,Q,Q
2023-03-15 15:28:08:571,0,-7.40672,-0.473494,-31.325,Q,Q
2023-03-15 15:28:08:581,0,-7.42216,-0.4643,-31.3333,Q,Q
2023-03-15 15:28:08:591,0,-7.43512,-0.455549,-31.3393,Q,Q
2023-03-15 15:28:08:601,0,-7.4486,-0.444405,-31.3448,Q,Q
2023-03-15 15:28:08:611,0,-7.4576,-0.429849,-31.3459,Q,Q
2023-03-15 15:28:08:621,0,-7.46799,-0.416099,-31.3509,Q,Q
2023-03-15 15:28:08:631,0,-7.47658,-0.402291,-31.3542,Q,Q
2023-03-15 15:28:08:641,0,-7.48149,-0.394276,-31.3552,Q,Q
2023-03-15 15:28:08:651,0,-7.48917,-0.389756,-31.3524,Q,Q
2023-03-15 15:28:08:661,0,-7.48934,-0.38585,-31.3479,Q,Q
2023-03-15 15:28:08:671,0,-7.4919,-0.38345,-31.3427,Q,Q
2023-03-15 15:28:08:681,0,-7.49293,-0.385773,-31.3382,Q,Q
2023-03-15 15:28:08:691,0,-7.49421,-0.389052,-31.3375,Q,Q
2023-03-15 15:28:08:701,0,-7.49433,-0.390798,-31.3364,Q,Q
2023-03-15 15:28:08:711,0,-7.49202,-0.393832,-31.3354,Q,Q
2023-03-15 15:28:08:721,0,-7.48918,-0.394303,-31.3345,Q,Q
2023-03-15 15:28:08:731,0,-7.48965,-0.398723,-31.337,Q,Q
2023-03-15 15:28:08:741,0,-7.49491,-0.400583,-31.339,Q,Q
2023-03-15 15:28:08:751,0,-7.50074,-0.401468,-31.3453,Q,Q
2023-03-15 15:28:08:761,0,-7.51133,-0.403316,-31.3518,Q,Q
2023-03-15 15:28:08:771,0,-7.52236,-0.401563,-31.3643,Q,Q
2023-03-15 15:28:08:781,0,-7.53278,-0.395818,-31.3734,Q,Q
2023-03-15 15:28:08:791,0,-7.5452,-0.391077,-31.3842,Q,Q
2023-03-15 15:28:08:801,0,-7.55823,-0.38727,-31.3989,Q,Q
2023-03-15 15:28:08:811,0,-7.56891,-0.381956,-31.4145,Q,Q
2023-03-15 15:28:08:821,0,-7.57537,-0.378227,-31.4326,Q,Q
2023-03-15 15:28:08:831,0,-7.58021,-0.372733,-31.4546,Q,Q
2023-03-15 15:28:08:841,0,-7.5838,-0.367967,-31.4754,Q,Q
2023-03-15 15:28:08:851,0,-7.58835,-0.365045,-31.4965,Q,Q
2023-03-15 15:28:08:861,0,-7.59345,-0.363639,-31.5157,Q,Q
2023-03-15 15:28:08:871,0,-7.60355,-0.365635,-31.5346,Q,Q
2023-03-15 15:28:08:881,0,-7.6154,-0.366215,-31.5516,Q,Q
2023-03-15 15:28:08:891,0,-7.62397,-0.365896,-31.5706,Q,Q
2023-03-15 15:28:08:901,0,-7.63213,-0.364531,-31.5916,Q,Q
2023-03-15 15:28:08:911,0,-7.63799,-0.363833,-31.6006,Q,Q
2023-03-15 15:28:08:921,0,-7.64482,-0.365126,-31.607,Q,Q
2023-03-15 15:28:08:931,0,-7.65066,-0.37148,-31.6149,Q,Q
2023-03-15 15:28:08:941,0,-7.65725,-0.377243,-31.6178,Q,Q
2023-03-15 15:28:08:951,0,-7.6635,-0.380868,-31.6184,Q,Q
2023-03-15 15:28:08:961,0,-7.6716,-0.384897,-31.6232,Q,Q
2023-03-15 15:28:08:970,0,-7.67466,-0.382782,-31.6268,Q,Q
2023-03-15 15:28:08:981,0,-7.67632,-0.383929,-31.6289,Q,Q
2023-03-15 15:28:08:990,0,-7.67774,-0.385364,-31.6278,Q,Q
2023-03-15 15:28:09:1,0,-7.68274,-0.389348,-31.6244,Q,Q
2023-03-15 15:28:09:11,0,-7.68474,-0.393567,-31.6172,Q,Q
2023-03-15 15:28:09:21,0,-7.69006,-0.399554,-31.613,Q,Q
2023-03-15 15:28:09:31,0,-7.69326,-0.402478,-31.609,Q,Q
2023-03-15 15:28:09:41,0,-7.70244,-0.408643,-31.6031,Q,Q
2023-03-15 15:28:09:51,0,-7.71594,-0.410597,-31.5979,Q,Q
2023-03-15 15:28:09:61,0,-7.72949,-0.416848,-31.5902,Q,Q
2023-03-15 15:28:09:71,0,-7.74367,-0.421949,-31.5817,Q,Q
2023-03-15 15:28:09:81,0,-7.75487,-0.427243,-31.5747,Q,Q
2023-03-15 15:28:09:91,0,-7.76952,-0.428987,-31.5616,Q,Q
2023-03-15 15:28:09:101,0,-7.78207,-0.432282,-31.5544,Q,Q
2023-03-15 15:28:09:111,0,-7.79189,-0.434049,-31.5465,Q,Q
2023-03-15 15:28:09:121,0,-7.80519,-0.438349,-31.5326,Q,Q
2023-03-15 15:28:09:131,0,-7.81532,-0.443263,-31.5225,Q,Q
2023-03-15 15:28:09:141,0,-7.82482,-0.444654,-31.5123,Q,Q
2023-03-15 15:28:09:151,0,-7.83669,-0.451309,-31.5004,Q,Q
2023-03-15 15:28:09:161,0,-7.84683,-0.454463,-31.4894,Q,Q
2023-03-15 15:28:09:171,0,-7.85708,-0.457397,-31.4776,Q,Q
2023-03-15 15:28:09:181,0,-7.86644,-0.459831,-31.4676,Q,Q
2023-03-15 15:28:09:191,0,-7.87532,-0.462034,-31.4614,Q,Q
2023-03-15 15:28:09:201,0,-7.88602,-0.462071,-31.4522,Q,Q
2023-03-15 15:28:09:211,0,-7.89113,-0.467976,-31.4447,Q,Q
2023-03-15 15:28:09:221,0,-7.89536,-0.476531,-31.4393,Q,Q
2023-03-15 15:28:09:231,0,-7.89704,-0.486114,-31.4322,Q,Q
2023-03-15 15:28:09:241,0,-7.90147,-0.498442,-31.4236,Q,Q
2023-03-15 15:28:09:251,0,-7.9052,-0.509478,-31.4198,Q,Q
2023-03-15 15:28:09:261,0,-7.91473,-0.520556,-31.417,Q,Q
2023-03-15 15:28:09:271,0,-7.92686,-0.528053,-31.4133,Q,Q
2023-03-15 15:28:09:281,0,-7.93636,-0.535798,-31.4087,Q,Q
2023-03-15 15:28:09:291,0,-7.94279,-0.541468,-31.4067,Q,Q
2023-03-15 15:28:09:301,0,-7.95036,-0.549898,-31.401,Q,Q
2023-03-15 15:28:09:311,0,-7.95878,-0.561355,-31.3922,Q,Q
2023-03-15 15:28:09:321,0,-7.97265,-0.571239,-31.3859,Q,Q
2023-03-15 15:28:09:331,0,-7.99112,-0.581757,-31.3813,Q,Q
2023-03-15 15:28:09:341,0,-8.00823,-0.594303,-31.3743,Q,Q
2023-03-15 15:28:09:351,0,-8.02569,-0.606328,-31.367,Q,Q
2023-03-15 15:28:09:361,0,-8.041,-0.615836,-31.362,Q,Q
2023-03-15 15:28:09:371,0,-8.05168,-0.627981,-31.3554,Q,Q
2023-03-15 15:28:09:381,0,-8.06011,-0.635361,-31.3469,Q,Q
2023-03-15 15:28:09:391,0,-8.06859,-0.641721,-31.3377,Q,Q
2023-03-15 15:28:09:401,0,-8.072,-0.65156,-31.3271,Q,Q
2023-03-15 15:28:09:411,0,-8.0729,-0.659806,-31.3164,Q,Q
2023-03-15 15:28:09:421,0,-8.07235,-0.665926,-31.3032,Q,Q
2023-03-15 15:28:09:431,0,-8.07074,-0.672326,-31.2957,Q,Q
2023-03-15 15:28:09:441,0,-8.07116,-0.676017,-31.2855,Q,Q
2023-03-15 15:28:09:451,0,-8.06642,-0.681414,-31.2767,Q,Q
2023-03-15 15:28:09:461,0,-8.06258,-0.68612,-31.2693,Q,Q
2023-03-15 15:28:09:471,0,-8.05523,-0.697964,-31.2603,Q,Q
2023-03-15 15:28:09:481,0,-8.04554,-0.713705,-31.2491,Q,Q
2023-03-15 15:28:09:490,0,-8.03374,-0.728878,-31.2401,Q,Q
2023-03-15 15:28:09:501,0,-8.02708,-0.748976,-31.2329,Q,Q
2023-03-15 15:28:09:511,0,-8.03007,-0.765523,-31.225,Q,Q
2023-03-15 15:28:09:521,0,-8.03587,-0.782123,-31.221,Q,Q
2023-03-15 15:28:09:531,0,-8.04398,-0.795273,-31.2169,Q,Q
2023-03-15 15:28:09:541,0,-8.05496,-0.804031,-31.2128,Q,Q
2023-03-15 15:28:09:551,0,-8.0691,-0.81623,-31.2114,Q,Q
2023-03-15 15:28:09:561,0,-8.0831,-0.829017,-31.2085,Q,Q
2023-03-15 15:28:09:571,0,-8.09711,-0.840889,-31.2056,Q,Q
2023-03-15 15:28:09:581,0,-8.11417,-0.849093,-31.203,Q,Q
2023-03-15 15:28:09:591,0,-8.13147,-0.856034,-31.2077,Q,Q
2023-03-15 15:28:09:601,0,-8.14712,-0.861716,-31.2134,Q,Q
2023-03-15 15:28:09:611,0,-8.16023,-0.869339,-31.2183,Q,Q
2023-03-15 15:28:09:621,0,-8.17093,-0.873542,-31.2226,Q,Q
2023-03-15 15:28:09:631,0,-8.18166,-0.876118,-31.2309,Q,Q
2023-03-15 15:28:09:641,0,-8.19213,-0.874258,-31.2397,Q,Q
2023-03-15 15:28:09:651,0,-8.20154,-0.870909,-31.2552,Q,Q
2023-03-15 15:28:09:661,0,-8.21153,-0.86593,-31.271,Q,Q
2023-03-15 15:28:09:671,0,-8.22212,-0.862338,-31.2872,Q,Q
2023-03-15 15:28:09:681,0,-8.22891,-0.86054,-31.3041,Q,Q
2023-03-15 15:28:09:691,0,-8.23888,-0.858724,-31.3247,Q,Q
2023-03-15 15:28:09:701,0,-8.25038,-0.8507,-31.3441,Q,Q
2023-03-15 15:28:09:711,0,-8.25607,-0.844889,-31.3652,Q,Q
2023-03-15 15:28:09:721,0,-8.25868,-0.838099,-31.3849,Q,Q
2023-03-15 15:28:09:731,0,-8.26171,-0.835061,-31.4042,Q,Q
2023-03-15 15:28:09:741,0,-8.2654,-0.833659,-31.4184,Q,Q
2023-03-15 15:28:09:751,0,-8.26715,-0.833098,-31.4308,Q,Q
2023-03-15 15:28:09:761,0,-8.27012,-0.831661,-31.4466,Q,Q
2023-03-15 15:28:09:771,0,-8.27553,-0.830324,-31.4602,Q,Q
2023-03-15 15:28:09:781,0,-8.27988,-0.828661,-31.4779,Q,Q
2023-03-15 15:28:09:791,0,-8.28441,-0.821653,-31.4913,Q,Q
2023-03-15 15:28:09:801,0,-8.2836,-0.813781,-31.5062,Q,Q
2023-03-15 15:28:09:811,0,-8.28257,-0.808384,-31.5221,Q,Q
2023-03-15 15:28:09:821,0,-8.2817,-0.799906,-31.5324,Q,Q
2023-03-15 15:28:09:831,0,-8.28179,-0.794369,-31.5466,Q,Q
2023-03-15 15:28:09:841,0,-8.28112,-0.791529,-31.5588,Q,Q
2023-03-15 15:28:09:851,0,-8.28223,-0.787727,-31.5712,Q,Q
2023-03-15 15:28:09:861,0,-8.28257,-0.78706,-31.5808,Q,Q
2023-03-15 15:28:09:871,0,-8.2861,-0.786086,-31.5874,Q,Q
2023-03-15 15:28:09:881,0,-8.29421,-0.784201,-31.5941,Q,Q
2023-03-15 15:28:09:891,0,-8.3011,-0.784332,-31.6027,Q,Q
2023-03-15 15:28:09:901,0,-8.30739,-0.783665,-31.6062,Q,Q
2023-03-15 15:28:09:911,0,-8.31402,-0.785836,-31.6107,Q,Q
2023-03-15 15:28:09:921,0,-8.31435,-0.789318,-31.6127,Q,Q
2023-03-15 15:28:09:931,0,-8.31548,-0.794194,-31.6128,Q,Q
2023-03-15 15:28:09:941,0,-8.31257,-0.801024,-31.6114,Q,Q
2023-03-15 15:28:09:951,0,-8.31054,-0.804605,-31.6128,Q,Q
2023-03-15 15:28:09:961,0,-8.30755,-0.803223,-31.6121,Q,Q
2023-03-15 15:28:09:971,0,-8.30249,-0.796205,-31.6127,Q,Q
2023-03-15 15:28:09:981,0,-8.29562,-0.793653,-31.6076,Q,Q
2023-03-15 15:28:09:991,0,-8.28794,-0.790168,-31.6058,Q,Q
2023-03-15 15:28:10:1,0,-8.28313,-0.785771,-31.6063,Q,Q
2023-03-15 15:28:10:11,0,-8.27674,-0.78238,-31.6023,Q,Q
2023-03-15 15:28:10:21,0,-8.27236,-0.777417,-31.6011,Q,Q
2023-03-15 15:28:10:31,0,-8.27152,-0.772072,-31.6011,Q,Q
2023-03-15 15:28:10:41,0,-8.26946,-0.765459,-31.601,Q,Q
2023-03-15 15:28:10:51,0,-8.26226,-0.762289,-31.6053,Q,Q
2023-03-15 15:28:10:61,0,-8.25802,-0.757013,-31.6089,Q,Q
2023-03-15 15:28:10:71,0,-8.25414,-0.747947,-31.6159,Q,Q
2023-03-15 15:28:10:81,0,-8.25209,-0.739537,-31.6211,Q,Q
2023-03-15 15:28:10:91,0,-8.25043,-0.732844,-31.6283,Q,Q
2023-03-15 15:28:10:101,0,-8.25004,-0.727395,-31.6366,Q,Q
2023-03-15 15:28:10:111,0,-8.24943,-0.716815,-31.6458,Q,Q
2023-03-15 15:28:10:121,0,-8.2503,-0.707287,-31.6559,Q,Q
2023-03-15 15:28:10:131,0,-8.25442,-0.700126,-31.662,Q,Q
2023-03-15 15:28:10:141,0,-8.2602,-0.693422,-31.6677,Q,Q
2023-03-15 15:28:10:151,0,-8.26721,-0.685815,-31.6723,Q,Q
2023-03-15 15:28:10:161,0,-8.27306,-0.675562,-31.6775,Q,Q
2023-03-15 15:28:10:171,0,-8.28618,-0.670505,-31.6888,Q,Q
2023-03-15 15:28:10:181,0,-8.29342,-0.665425,-31.6956,Q,Q
2023-03-15 15:28:10:191,0,-8.30258,-0.662807,-31.7017,Q,Q
2023-03-15 15:28:10:201,0,-8.30939,-0.660689,-31.7089,Q,Q
2023-03-15 15:28:10:211,0,-8.31619,-0.661572,-31.7166,Q,Q
2023-03-15 15:28:10:221,0,-8.32362,-0.659878,-31.7217,Q,Q
2023-03-15 15:28:10:231,0,-8.32742,-0.659992,-31.7268,Q,Q
2023-03-15 15:28:10:241,0,-8.33437,-0.656744,-31.7325,Q,Q
2023-03-15 15:28:10:251,0,-8.33619,-0.660616,-31.7346,Q,Q
2023-03-15 15:28:10:261,0,-8.33727,-0.658276,-31.739,Q,Q
2023-03-15 15:28:10:271,0,-8.34347,-0.65379,-31.7467,Q,Q
2023-03-15 15:28:10:281,0,-8.35512,-0.648814,-31.755,Q,Q
2023-03-15 15:28:10:291,0,-8.36604,-0.644009,-31.7633,Q,Q
2023-03-15 15:28:10:301,0,-8.37551,-0.631503,-31.7691,Q,Q
2023-03-15 15:28:10:311,0,-8.37834,-0.62377,-31.7782,Q,Q
2023-03-15 15:28:10:321,0,-8.37861,-0.62137,-31.7865,Q,Q
2023-03-15 15:28:10:331,0,-8.38002,-0.624071,-31.7935,Q,Q
2023-03-15 15:28:10:341,0,-8.37727,-0.625726,-31.8008,Q,Q
2023-03-15 15:28:10:351,0,-8.37833,-0.630874,-31.8126,Q,Q
2023-03-15 15:28:10:361,0,-8.38709,-0.634321,-31.8264,Q,Q
2023-03-15 15:28:10:371,0,-8.39314,-0.63017,-31.8413,Q,Q
2023-03-15 15:28:10:381,0,-8.39779,-0.628895,-31.858,Q,Q
2023-03-15 15:28:10:391,0,-8.40472,-0.622097,-31.8721,Q,Q
2023-03-15 15:28:10:401,0,-8.41196,-0.616937,-31.8849,Q,Q
2023-03-15 15:28:10:411,0,-8.41657,-0.612669,-31.9008,Q,Q
2023-03-15 15:28:10:421,0,-8.42319,-0.607923,-31.9152,Q,Q
2023-03-15 15:28:10:431,0,-8.42942,-0.598485,-31.9286,Q,Q
2023-03-15 15:28:10:441,0,-8.43447,-0.593301,-31.9445,Q,Q
2023-03-15 15:28:10:451,0,-8.43566,-0.582678,-31.9609,Q,Q
2023-03-15 15:28:10:461,0,-8.43426,-0.57473,-31.979,Q,Q
2023-03-15 15:28:10:471,0,-8.43793,-0.568733,-31.9956,Q,Q
2023-03-15 15:28:10:481,0,-8.43934,-0.564301,-32.0114,Q,Q
2023-03-15 15:28:10:491,0,-8.44042,-0.563432,-32.0313,Q,Q
2023-03-15 15:28:10:501,0,-8.44644,-0.56549,-32.0475,Q,Q
2023-03-15 15:28:10:510,0,-8.45005,-0.568993,-32.0674,Q,Q
2023-03-15 15:28:10:521,0,-8.45351,-0.568303,-32.0847,Q,Q
2023-03-15 15:28:10:531,0,-8.45331,-0.566524,-32.0967,Q,Q
2023-03-15 15:28:10:541,0,-8.45221,-0.570961,-32.1108,Q,Q
2023-03-15 15:28:10:551,0,-8.45521,-0.571082,-32.126,Q,Q
2023-03-15 15:28:10:561,0,-8.45509,-0.566319,-32.1423,Q,Q
2023-03-15 15:28:10:571,0,-8.45062,-0.562082,-32.1518,Q,Q
2023-03-15 15:28:10:581,0,-8.44626,-0.559901,-32.1592,Q,Q
2023-03-15 15:28:10:591,0,-8.44232,-0.558883,-32.1698,Q,Q
2023-03-15 15:28:10:601,0,-8.43419,-0.558468,-32.1765,Q,Q
2023-03-15 15:28:10:611,0,-8.43078,-0.558782,-32.1838,Q,Q
2023-03-15 15:28:10:621,0,-8.42898,-0.5608,-32.1885,Q,Q
2023-03-15 15:28:10:631,0,-8.42686,-0.562739,-32.1958,Q,Q
2023-03-15 15:28:10:641,0,-8.42581,-0.560329,-32.2038,Q,Q
2023-03-15 15:28:10:651,0,-8.42406,-0.554476,-32.211,Q,Q
2023-03-15 15:28:10:661,0,-8.42766,-0.548812,-32.2182,Q,Q
2023-03-15 15:28:10:671,0,-8.4316,-0.546346,-32.2282,Q,Q
2023-03-15 15:28:10:681,0,-8.43464,-0.541941,-32.2345,Q,Q
2023-03-15 15:28:10:691,0,-8.44201,-0.53911,-32.2385,Q,Q
2023-03-15 15:28:10:701,0,-8.45033,-0.538252,-32.2419,Q,Q
2023-03-15 15:28:10:710,0,-8.45871,-0.536444,-32.2473,Q,Q
2023-03-15 15:28:10:721,0,-8.46491,-0.532224,-32.2521,Q,Q
2023-03-15 15:28:10:731,0,-8.47185,-0.531311,-32.2546,Q,Q
2023-03-15 15:28:10:741,0,-8.47559,-0.529386,-32.2629,Q,Q
2023-03-15 15:28:10:751,0,-8.47816,-0.52805,-32.2648,Q,Q
2023-03-15 15:28:10:761,0,-8.47862,-0.528035,-32.2675,Q,Q
2023-03-15 15:28:10:771,0,-8.47743,-0.531525,-32.2666,Q,Q
2023-03-15 15:28:10:781,0,-8.47662,-0.529658,-32.2652,Q,Q
2023-03-15 15:28:10:791,0,-8.47583,-0.530989,-32.2626,Q,Q
2023-03-15 15:28:10:801,0,-8.47131,-0.529487,-32.2628,Q,Q
2023-03-15 15:28:10:811,0,-8.46452,-0.526374,-32.2593,Q,Q
2023-03-15 15:28:10:821,0,-8.45737,-0.520192,-32.2578,Q,Q
2023-03-15 15:28:10:831,0,-8.45157,-0.512486,-32.2549,Q,Q
2023-03-15 15:28:10:841,0,-8.4449,-0.504302,-32.2531,Q,Q
2023-03-15 15:28:10:851,0,-8.43652,-0.49652,-32.2524,Q,Q
2023-03-15 15:28:10:861,0,-8.42458,-0.483365,-32.2496,Q,Q
2023-03-15 15:28:10:871,0,-8.41906,-0.470687,-32.2494,Q,Q
2023-03-15 15:28:10:881,0,-8.41081,-0.461763,-32.2514,Q,Q
2023-03-15 15:28:10:891,0,-8.40875,-0.45436,-32.2559,Q,Q
2023-03-15 15:28:10:901,0,-8.40556,-0.446008,-32.2591,Q,Q
2023-03-15 15:28:10:911,0,-8.40269,-0.441622,-32.2651,Q,Q
2023-03-15 15:28:10:921,0,-8.39968,-0.436083,-32.2757,Q,Q
2023-03-15 15:28:10:931,0,-8.39442,-0.428954,-32.2844,Q,Q
2023-03-15 15:28:10:941,0,-8.39003,-0.426049,-32.2951,Q,Q
2023-03-15 15:28:10:951,0,-8.39091,-0.422382,-32.3039,Q,Q
2023-03-15 15:28:10:961,0,-8.38727,-0.418517,-32.3146,Q,Q
2023-03-15 15:28:10:971,0,-8.38505,-0.416654,-32.3241,Q,Q
2023-03-15 15:28:10:981,0,-8.3841,-0.413576,-32.3311,Q,Q
2023-03-15 15:28:10:991,0,-8.3831,-0.412728,-32.3411,Q,Q
2023-03-15 15:28:11:1,0,-8.38151,-0.411928,-32.3505,Q,Q
2023-03-15 15:28:11:11,0,-8.37906,-0.407361,-32.36,Q,Q
2023-03-15 15:28:11:21,0,-8.37444,-0.401843,-32.3716,Q,Q
2023-03-15 15:28:11:30,0,-8.36917,-0.400571,-32.3778,Q,Q
2023-03-15 15:28:11:41,0,-8.3653,-0.398308,-32.3889,Q,Q
2023-03-15 15:28:11:51,0,-8.36202,-0.396732,-32.3986,Q,Q
2023-03-15 15:28:11:61,0,-8.35883,-0.396065,-32.4081,Q,Q
2023-03-15 15:28:11:71,0,-8.3561,-0.397921,-32.4191,Q,Q
2023-03-15 15:28:11:81,0,-8.3527,-0.398091,-32.4314,Q,Q
2023-03-15 15:28:11:91,0,-8.34954,-0.400251,-32.4427,Q,Q
2023-03-15 15:28:11:101,0,-8.34692,-0.401799,-32.4557,Q,Q
2023-03-15 15:28:11:111,0,-8.34168,-0.39938,-32.4718,Q,Q
2023-03-15 15:28:11:121,0,-8.33607,-0.401392,-32.4801,Q,Q
2023-03-15 15:28:11:131,0,-8.32698,-0.401907,-32.4895,Q,Q
2023-03-15 15:28:11:141,0,-8.31708,-0.401163,-32.4998,Q,Q
2023-03-15 15:28:11:151,0,-8.31057,-0.401469,-32.5112,Q,Q
2023-03-15 15:28:11:161,0,-8.30417,-0.395036,-32.522,Q,Q
2023-03-15 15:28:11:171,0,-8.29833,-0.388906,-32.5325,Q,Q
2023-03-15 15:28:11:181,0,-8.29067,-0.38655,-32.5421,Q,Q
2023-03-15 15:28:11:191,0,-8.28189,-0.381827,-32.5537,Q,Q
2023-03-15 15:28:11:201,0,-8.27112,-0.384912,-32.5629,Q,Q
2023-03-15 15:28:11:211,0,-8.26039,-0.392927,-32.5675,Q,Q
2023-03-15 15:28:11:221,0,-8.24877,-0.404474,-32.5729,Q,Q
2023-03-15 15:28:11:231,0,-8.24295,-0.414129,-32.58,Q,Q
2023-03-15 15:28:11:241,0,-8.23662,-0.420082,-32.5885,Q,Q
2023-03-15 15:28:11:251,0,-8.23663,-0.423028,-32.596,Q,Q
2023-03-15 15:28:11:261,0,-8.23399,-0.426341,-32.6006,Q,Q
2023-03-15 15:28:11:271,0,-8.22873,-0.4264,-32.5993,Q,Q
2023-03-15 15:28:11:281,0,-8.22865,-0.427241,-32.5982,Q,Q
2023-03-15 15:28:11:291,0,-8.22812,-0.428001,-32.5935,Q,Q
2023-03-15 15:28:11:301,0,-8.22805,-0.432075,-32.5952,Q,Q
2023-03-15 15:28:11:311,0,-8.22684,-0.431523,-32.5921,Q,Q
2023-03-15 15:28:11:321,0,-8.2273,-0.425862,-32.5953,Q,Q
2023-03-15 15:28:11:331,0,-8.22793,-0.424556,-32.5973,Q,Q
2023-03-15 15:28:11:341,0,-8.23024,-0.422761,-32.5992,Q,Q
2023-03-15 15:28:11:351,0,-8.22808,-0.418001,-32.6035,Q,Q
2023-03-15 15:28:11:361,0,-8.23078,-0.417076,-32.6088,Q,Q
2023-03-15 15:28:11:371,0,-8.23134,-0.41556,-32.6216,Q,Q
2023-03-15 15:28:11:381,0,-8.23213,-0.412637,-32.6353,Q,Q
2023-03-15 15:28:11:391,0,-8.23639,-0.412566,-32.6512,Q,Q
2023-03-15 15:28:11:401,0,-8.23922,-0.413406,-32.666,Q,Q
2023-03-15 15:28:11:411,0,-8.2433,-0.416113,-32.6758,Q,Q
2023-03-15 15:28:11:421,0,-8.24528,-0.41726,-32.6865,Q,Q
2023-03-15 15:28:11:431,0,-8.24697,-0.421134,-32.6933,Q,Q
2023-03-15 15:28:11:441,0,-8.24485,-0.423495,-32.701,Q,Q
2023-03-15 15:28:11:451,0,-8.23886,-0.421644,-32.7055,Q,Q
2023-03-15 15:28:11:461,0,-8.23655,-0.423029,-32.7106,Q,Q
2023-03-15 15:28:11:471,0,-8.22921,-0.426419,-32.7112,Q,Q
2023-03-15 15:28:11:481,0,-8.22442,-0.429008,-32.7138,Q,Q
2023-03-15 15:28:11:491,0,-8.22237,-0.429956,-32.7209,Q,Q
2023-03-15 15:28:11:501,0,-8.22094,-0.428572,-32.7292,Q,Q
2023-03-15 15:28:11:511,0,-8.21941,-0.425979,-32.7364,Q,Q
2023-03-15 15:28:11:521,0,-8.2138,-0.424173,-32.745,Q,Q
2023-03-15 15:28:11:530,0,-8.21174,-0.424473,-32.7538,Q,Q
2023-03-15 15:28:11:541,0,-8.2066,-0.424886,-32.7657,Q,Q
2023-03-15 15:28:11:551,0,-8.20292,-0.424809,-32.7756,Q,Q
2023-03-15 15:28:11:561,0,-8.20045,-0.428037,-32.7853,Q,Q
2023-03-15 15:28:11:571,0,-8.19874,-0.432814,-32.7932,Q,Q
2023-03-15 15:28:11:581,0,-8.20024,-0.437768,-32.8029,Q,Q
2023-03-15 15:28:11:591,0,-8.20498,-0.44284,-32.8115,Q,Q
2023-03-15 15:28:11:601,0,-8.20787,-0.44492,-32.8205,Q,Q
2023-03-15 15:28:11:611,0,-8.21495,-0.444278,-32.8289,Q,Q
2023-03-15 15:28:11:621,0,-8.22064,-0.44419,-32.8327,Q,Q
2023-03-15 15:28:11:631,0,-8.22671,-0.447546,-32.8346,Q,Q
2023-03-15 15:28:11:641,0,-8.23441,-0.449701,-32.8362,Q,Q
2023-03-15 15:28:11:651,0,-8.24131,-0.454214,-32.8341,Q,Q
2023-03-15 15:28:11:661,0,-8.24417,-0.459277,-32.832,Q,Q
2023-03-15 15:28:11:671,0,-8.24146,-0.463221,-32.8271,Q,Q
2023-03-15 15:28:11:681,0,-8.24027,-0.465567,-32.8262,Q,Q
2023-03-15 15:28:11:691,0,-8.2399,-0.467276,-32.8206,Q,Q
2023-03-15 15:28:11:701,0,-8.24086,-0.471655,-32.817,Q,Q
2023-03-15 15:28:11:711,0,-8.2401,-0.475165,-32.814,Q,Q
2023-03-15 15:28:11:721,0,-8.2395,-0.478611,-32.8092,Q,Q
2023-03-15 15:28:11:731,0,-8.23746,-0.485515,-32.8082,Q,Q
2023-03-15 15:28:11:741,0,-8.23564,-0.493389,-32.8049,Q,Q
2023-03-15 15:28:11:751,0,-8.23286,-0.50089,-32.8035,Q,Q
2023-03-15 15:28:11:761,0,-8.2313,-0.508489,-32.8022,Q,Q
2023-03-15 15:28:11:771,0,-8.22855,-0.51555,-32.8035,Q,Q
2023-03-15 15:28:11:781,0,-8.22623,-0.517856,-32.8011,Q,Q
2023-03-15 15:28:11:791,0,-8.22198,-0.522439,-32.7996,Q,Q
2023-03-15 15:28:11:801,0,-8.22157,-0.527352,-32.7998,Q,Q
2023-03-15 15:28:11:811,0,-8.22525,-0.535626,-32.8027,Q,Q
2023-03-15 15:28:11:821,0,-8.22969,-0.540022,-32.8029,Q,Q
2023-03-15 15:28:11:831,0,-8.22991,-0.543269,-32.8034,Q,Q
2023-03-15 15:28:11:841,0,-8.23217,-0.544422,-32.8038,Q,Q
2023-03-15 15:28:11:851,0,-8.2366,-0.543309,-32.8068,Q,Q
2023-03-15 15:28:11:861,0,-8.23824,-0.545733,-32.8113,Q,Q
2023-03-15 15:28:11:871,0,-8.24182,-0.546948,-32.8177,Q,Q
2023-03-15 15:28:11:881,0,-8.24641,-0.544814,-32.8249,Q,Q
2023-03-15 15:28:11:891,0,-8.25223,-0.545871,-32.8307,Q,Q
2023-03-15 15:28:11:901,0,-8.25633,-0.548922,-32.835,Q,Q
2023-03-15 15:28:11:911,0,-8.25815,-0.552329,-32.8384,Q,Q
2023-03-15 15:28:11:921,0,-8.26029,-0.554636,-32.8455,Q,Q
2023-03-15 15:28:11:931,0,-8.2613,-0.557571,-32.851,Q,Q
2023-03-15 15:28:11:941,0,-8.25672,-0.562025,-32.8523,Q,Q
2023-03-15 15:28:11:951,0,-8.2573,-0.567231,-32.8554,Q,Q
2023-03-15 15:28:11:961,0,-8.25724,-0.567787,-32.8601,Q,Q
2023-03-15 15:28:11:971,0,-8.25738,-0.567598,-32.866,Q,Q
2023-03-15 15:28:11:981,0,-8.25481,-0.566891,-32.8723,Q,Q
2023-03-15 15:28:11:991,0,-8.25234,-0.564747,-32.8779,Q,Q
2023-03-15 15:28:12:1,0,-8.25321,-0.562934,-32.8802,Q,Q
2023-03-15 15:28:12:11,0,-8.2523,-0.562396,-32.8842,Q,Q
2023-03-15 15:28:12:21,0,-8.25508,-0.561435,-32.8897,Q,Q
2023-03-15 15:28:12:31,0,-8.26013,-0.560497,-32.8934,Q,Q
2023-03-15 15:28:12:41,0,-8.26626,-0.561592,-32.9031,Q,Q
2023-03-15 15:28:12:51,0,-8.26972,-0.55664,-32.9073,Q,Q
2023-03-15 15:28:12:61,0,-8.27187,-0.555083,-32.9132,Q,Q
2023-03-15 15:28:12:71,0,-8.27209,-0.559104,-32.9157,Q,Q
2023-03-15 15:28:12:81,0,-8.27419,-0.568322,-32.9136,Q,Q
2023-03-15 15:28:12:91,0,-8.2786,-0.578699,-32.9119,Q,Q
2023-03-15 15:28:12:101,0,-8.29108,-0.593695,-32.9096,Q,Q
2023-03-15 15:28:12:111,0,-8.30788,-0.602024,-32.9137,Q,Q
2023-03-15 15:28:12:121,0,-8.3191,-0.604182,-32.9183,Q,Q
2023-03-15 15:28:12:131,0,-8.32411,-0.601524,-32.9235,Q,Q
2023-03-15 15:28:12:141,0,-8.33066,-0.602373,-32.9244,Q,Q
2023-03-15 15:28:12:151,0,-8.3362,-0.606904,-32.9273,Q,Q
2023-03-15 15:28:12:161,0,-8.33632,-0.605981,-32.9316,Q,Q
2023-03-15 15:28:12:171,0,-8.33133,-0.603824,-32.9411,Q,Q
2023-03-15 15:28:12:181,0,-8.3289,-0.59895,-32.9535,Q,Q
2023-03-15 15:28:12:191,0,-8.3286,-0.591421,-32.9649,Q,Q
2023-03-15 15:28:12:201,0,-8.33477,-0.583739,-32.9806,Q,Q
2023-03-15 15:28:12:211,0,-8.33853,-0.575007,-32.9985,Q,Q
2023-03-15 15:28:12:221,0,-8.34212,-0.567083,-33.0177,Q,Q
2023-03-15 15:28:12:231,0,-8.3467,-0.561956,-33.0355,Q,Q
2023-03-15 15:28:12:241,0,-8.34891,-0.552347,-33.0528,Q,Q
2023-03-15 15:28:12:251,0,-8.34772,-0.542136,-33.0718,Q,Q
2023-03-15 15:28:12:261,0,-8.34487,-0.529636,-33.0878,Q,Q
2023-03-15 15:28:12:271,0,-8.34551,-0.515271,-33.0998,Q,Q
2023-03-15 15:28:12:281,0,-8.34655,-0.502212,-33.111,Q,Q
2023-03-15 15:28:12:291,0,-8.34541,-0.49182,-33.1207,Q,Q
2023-03-15 15:28:12:300,0,-8.34645,-0.482272,-33.1305,Q,Q
2023-03-15 15:28:12:311,0,-8.34584,-0.474547,-33.1357,Q,Q
2023-03-15 15:28:12:321,0,-8.34756,-0.467442,-33.1382,Q,Q
2023-03-15 15:28:12:331,0,-8.34562,-0.459936,-33.1411,Q,Q
2023-03-15 15:28:12:341,0,-8.3418,-0.456946,-33.1448,Q,Q
2023-03-15 15:28:12:351,0,-8.34061,-0.452916,-33.1513,Q,Q
2023-03-15 15:28:12:361,0,-8.34476,-0.447529,-33.1598,Q,Q
2023-03-15 15:28:12:371,0,-8.34156,-0.441327,-33.1648,Q,Q
2023-03-15 15:28:12:381,0,-8.34237,-0.433254,-33.1727,Q,Q
2023-03-15 15:28:12:391,0,-8.33687,-0.424916,-33.1786,Q,Q
2023-03-15 15:28:12:401,0,-8.33339,-0.414213,-33.1848,Q,Q
2023-03-15 15:28:12:411,0,-8.33062,-0.409318,-33.1874,Q,Q
2023-03-15 15:28:12:421,0,-8.32868,-0.404757,-33.1908,Q,Q
2023-03-15 15:28:12:431,0,-8.3321,-0.398147,-33.1941,Q,Q
2023-03-15 15:28:12:441,0,-8.33917,-0.392026,-33.1985,Q,Q
2023-03-15 15:28:12:451,0,-8.34533,-0.39091,-33.2014,Q,Q
2023-03-15 15:28:12:461,0,-8.35374,-0.387632,-33.2008,Q,Q
2023-03-15 15:28:12:471,0,-8.35955,-0.382164,-33.2022,Q,Q
2023-03-15 15:28:12:481,0,-8.36819,-0.37669,-33.2016,Q,Q
2023-03-15 15:28:12:491,0,-8.38105,-0.377373,-33.1997,Q,Q
2023-03-15 15:28:12:501,0,-8.39281,-0.37614,-33.1929,Q,Q
2023-03-15 15:28:12:511,0,-8.41092,-0.374561,-33.1853,Q,Q
2023-03-15 15:28:12:521,0,-8.43072,-0.374732,-33.1751,Q,Q
2023-03-15 15:28:12:531,0,-8.4524,-0.374668,-33.1657,Q,Q
2023-03-15 15:28:12:541,0,-8.46874,-0.375276,-33.1579,Q,Q
2023-03-15 15:28:12:550,0,-8.48647,-0.375559,-33.1508,Q,Q
2023-03-15 15:28:12:561,0,-8.50078,-0.376158,-33.1431,Q,Q
2023-03-15 15:28:12:570,0,-8.50844,-0.371158,-33.1341,Q,Q
2023-03-15 15:28:12:581,0,-8.5119,-0.367692,-33.127,Q,Q
2023-03-15 15:28:12:591,0,-8.51546,-0.365829,-33.1243,Q,Q
2023-03-15 15:28:12:601,0,-8.51944,-0.360128,-33.1222,Q,Q
2023-03-15 15:28:12:611,0,-8.52009,-0.360721,-33.1191,Q,Q
2023-03-15 15:28:12:621,0,-8.52172,-0.35868,-33.123,Q,Q
2023-03-15 15:28:12:631,0,-8.52235,-0.354875,-33.1268,Q,Q
2023-03-15 15:28:12:641,0,-8.52407,-0.352008,-33.1319,Q,Q
2023-03-15 15:28:12:651,0,-8.52248,-0.350421,-33.1408,Q,Q
2023-03-15 15:28:12:661,0,-8.52423,-0.346577,-33.1521,Q,Q
2023-03-15 15:28:12:671,0,-8.52632,-0.346005,-33.1663,Q,Q
2023-03-15 15:28:12:681,0,-8.53302,-0.346107,-33.1815,Q,Q
2023-03-15 15:28:12:691,0,-8.53789,-0.349248,-33.2003,Q,Q
2023-03-15 15:28:12:701,0,-8.54376,-0.348046,-33.2206,Q,Q
2023-03-15 15:28:12:711,0,-8.54918,-0.346635,-33.2396,Q,Q
2023-03-15 15:28:12:721,0,-8.55618,-0.349307,-33.2621,Q,Q
2023-03-15 15:28:12:731,0,-8.55955,-0.350496,-33.2859,Q,Q
2023-03-15 15:28:12:741,0,-8.56752,-0.351792,-33.3118,Q,Q
2023-03-15 15:28:12:751,0,-8.5701,-0.348737,-33.3384,Q,Q
2023-03-15 15:28:12:761,0,-8.56914,-0.348667,-33.3635,Q,Q
2023-03-15 15:28:12:771,0,-8.5683,-0.345754,-33.3858,Q,Q
2023-03-15 15:28:12:781,0,-8.56877,-0.34263,-33.4104,Q,Q
2023-03-15 15:28:12:791,0,-8.56975,-0.338986,-33.4339,Q,Q
2023-03-15 15:28:12:801,0,-8.566,-0.33509,-33.4582,Q,Q
2023-03-15 15:28:12:811,0,-8.56303,-0.32986,-33.4774,Q,Q
2023-03-15 15:28:12:821,0,-8.55925,-0.323481,-33.4965,Q,Q
2023-03-15 15:28:12:831,0,-8.55592,-0.3185,-33.512,Q,Q
2023-03-15 15:28:12:841,0,-8.5528,-0.309874,-33.5247,Q,Q
2023-03-15 15:28:12:851,0,-8.55184,-0.303629,-33.5392,Q,Q
2023-03-15 15:28:12:861,0,-8.54966,-0.297633,-33.5562,Q,Q
2023-03-15 15:28:12:871,0,-8.54406,-0.286294,-33.5696,Q,Q
2023-03-15 15:28:12:881,0,-8.54045,-0.276066,-33.5814,Q,Q
2023-03-15 15:28:12:891,0,-8.53733,-0.265365,-33.5951,Q,Q
2023-03-15 15:28:12:901,0,-8.53297,-0.254677,-33.6091,Q,Q
2023-03-15 15:28:12:911,0,-8.52856,-0.245756,-33.6192,Q,Q
2023-03-15 15:28:12:921,0,-8.52335,-0.241566,-33.629,Q,Q
2023-03-15 15:28:12:931,0,-8.52205,-0.244862,-33.6409,Q,Q
2023-03-15 15:28:12:941,0,-8.52101,-0.2488,-33.656,Q,Q
2023-03-15 15:28:12:951,0,-8.52353,-0.251104,-33.6755,Q,Q
2023-03-15 15:28:12:961,0,-8.52725,-0.25173,-33.6942,Q,Q
2023-03-15 15:28:12:971,0,-8.53138,-0.254743,-33.7145,Q,Q
2023-03-15 15:28:12:981,0,-8.53475,-0.255358,-33.7308,Q,Q
2023-03-15 15:28:12:991,0,-8.53777,-0.259145,-33.7405,Q,Q
2023-03-15 15:28:13:1,0,-8.54071,-0.258976,-33.7557,Q,Q
2023-03-15 15:28:13:11,0,-8.54476,-0.259974,-33.7723,Q,Q
2023-03-15 15:28:13:21,0,-8.54763,-0.262904,-33.789,Q,Q
2023-03-15 15:28:13:31,0,-8.55134,-0.266826,-33.8094,Q,Q
2023-03-15 15:28:13:41,0,-8.5528,-0.272346,-33.8342,Q,Q
2023-03-15 15:28:13:51,0,-8.55221,-0.277691,-33.8602,Q,Q
2023-03-15 15:28:13:60,0,-8.55389,-0.281703,-33.8872,Q,Q
2023-03-15 15:28:13:71,0,-8.55111,-0.285469,-33.9125,Q,Q
2023-03-15 15:28:13:81,0,-8.5527,-0.29201,-33.9359,Q,Q
2023-03-15 15:28:13:91,0,-8.55458,-0.294232,-33.9625,Q,Q
2023-03-15 15:28:13:101,0,-8.55428,-0.295141,-33.988,Q,Q
2023-03-15 15:28:13:111,0,-8.55158,-0.300862,-34.0176,Q,Q
2023-03-15 15:28:13:121,0,-8.54952,-0.304861,-34.0418,Q,Q
2023-03-15 15:28:13:131,0,-8.55074,-0.307477,-34.0672,Q,Q
2023-03-15 15:28:13:141,0,-8.5507,-0.310257,-34.0966,Q,Q
2023-03-15 15:28:13:151,0,-8.54914,-0.311508,-34.1235,Q,Q
2023-03-15 15:28:13:161,0,-8.54999,-0.310072,-34.15,Q,Q
2023-03-15 15:28:13:171,0,-8.54752,-0.310553,-34.1722,Q,Q
2023-03-15 15:28:13:181,0,-8.54157,-0.311059,-34.1939,Q,Q
2023-03-15 15:28:13:191,0,-8.53789,-0.308709,-34.2116,Q,Q
2023-03-15 15:28:13:201,0,-8.53341,-0.308135,-34.23,Q,Q
2023-03-15 15:28:13:211,0,-8.53036,-0.312211,-34.2475,Q,Q
2023-03-15 15:28:13:221,0,-8.52178,-0.308223,-34.2642,Q,Q
2023-03-15 15:28:13:231,0,-8.51203,-0.301567,-34.2792,Q,Q
2023-03-15 15:28:13:241,0,-8.50249,-0.292598,-34.2929,Q,Q
2023-03-15 15:28:13:251,0,-8.49433,-0.284836,-34.3001,Q,Q
2023-03-15 15:28:13:261,0,-8.49041,-0.277899,-34.3109,Q,Q
2023-03-15 15:28:13:271,0,-8.48693,-0.271668,-34.32,Q,Q
2023-03-15 15:28:13:281,0,-8.48325,-0.266027,-34.3296,Q,Q
2023-03-15 15:28:13:291,0,-8.48113,-0.264611,-34.3402,Q,Q
2023-03-15 15:28:13:301,0,-8.47968,-0.259629,-34.349,Q,Q
2023-03-15 15:28:13:311,0,-8.47806,-0.25902,-34.3586,Q,Q
2023-03-15 15:28:13:321,0,-8.47503,-0.257946,-34.3655,Q,Q
2023-03-15 15:28:13:331,0,-8.47114,-0.263797,-34.372,Q,Q
2023-03-15 15:28:13:341,0,-8.46777,-0.267023,-34.3773,Q,Q
2023-03-15 15:28:13:351,0,-8.4637,-0.272338,-34.3859,Q,Q
2023-03-15 15:28:13:361,0,-8.46187,-0.278282,-34.3926,Q,Q
2023-03-15 15:28:13:371,0,-8.46058,-0.282124,-34.397,Q,Q
2023-03-15 15:28:13:381,0,-8.45753,-0.288028,-34.4003,Q,Q
2023-03-15 15:28:13:391,0,-8.45159,-0.292024,-34.3992,Q,Q
2023-03-15 15:28:13:401,0,-8.4506,-0.292557,-34.3963,Q,Q
2023-03-15 15:28:13:411,0,-8.44683,-0.291737,-34.3967,Q,Q
