Timestamp_cmd,imu_cmd,roll_delta,pitch_delta,yaw_delta,voice_type,voice_length
2023-03-15 15:46:55:395,0,-6.54279,-6.91549,-26.7571,Q,Q
2023-03-15 15:46:55:402,0,-6.53674,-6.87385,-26.7923,Q,Q
2023-03-15 15:46:55:412,0,-6.53059,-6.82843,-26.8263,Q,Q
2023-03-15 15:46:55:422,0,-6.52536,-6.78321,-26.8639,Q,Q
2023-03-15 15:46:55:432,0,-6.52124,-6.74129,-26.9035,Q,Q
2023-03-15 15:46:55:442,0,-6.51638,-6.69468,-26.9408,Q,Q
2023-03-15 15:46:55:452,0,-6.51334,-6.65243,-26.9827,Q,Q
2023-03-15 15:46:55:462,0,-6.50876,-6.60851,-27.0239,Q,Q
2023-03-15 15:46:55:472,0,-6.50621,-6.56886,-27.0698,Q,Q
2023-03-15 15:46:55:482,0,-6.50369,-6.53131,-27.1158,Q,Q
2023-03-15 15:46:55:492,0,-6.49773,-6.48677,-27.1635,Q,Q
2023-03-15 15:46:55:502,0,-6.48993,-6.44714,-27.21,Q,Q
2023-03-15 15:46:55:512,0,-6.48337,-6.40728,-27.254,Q,Q
2023-03-15 15:46:55:522,0,-6.47282,-6.36729,-27.2974,Q,Q
2023-03-15 15:46:55:532,0,-6.4638,-6.32726,-27.3412,Q,Q
2023-03-15 15:46:55:542,0,-6.44977,-6.28963,-27.3854,Q,Q
2023-03-15 15:46:55:552,0,-6.43071,-6.25258,-27.4277,Q,Q
2023-03-15 15:46:55:562,0,-6.40942,-6.21906,-27.4693,Q,Q
2023-03-15 15:46:55:572,0,-6.38962,-6.18361,-27.5021,Q,Q
2023-03-15 15:46:55:582,0,-6.37023,-6.14837,-27.5306,Q,Q
2023-03-15 15:46:55:592,0,-6.35398,-6.11914,-27.5576,Q,Q
2023-03-15 15:46:55:602,0,-6.34316,-6.09864,-27.5821,Q,Q
2023-03-15 15:46:55:612,0,-6.32949,-6.08144,-27.6029,Q,Q
2023-03-15 15:46:55:622,0,-6.31308,-6.06927,-27.6192,Q,Q
2023-03-15 15:46:55:632,0,-6.29901,-6.06388,-27.6335,Q,Q
2023-03-15 15:46:55:642,0,-6.28342,-6.06551,-27.6409,Q,Q
2023-03-15 15:46:55:652,0,-6.27041,-6.07079,-27.6458,Q,Q
2023-03-15 15:46:55:662,0,-6.26224,-6.07449,-27.6513,Q,Q
2023-03-15 15:46:55:672,0,-6.25741,-6.08164,-27.6534,Q,Q
2023-03-15 15:46:55:682,0,-6.2588,-6.08302,-27.6534,Q,Q
2023-03-15 15:46:55:692,0,-6.2604,-6.08805,-27.6499,Q,Q
2023-03-15 15:46:55:702,0,-6.2696,-6.09646,-27.649,Q,Q
2023-03-15 15:46:55:712,0,-6.28091,-6.0971,-27.6456,Q,Q
2023-03-15 15:46:55:722,0,-6.29829,-6.09941,-27.6492,Q,Q
2023-03-15 15:46:55:732,0,-6.31102,-6.09023,-27.6504,Q,Q
2023-03-15 15:46:55:742,0,-6.32176,-6.07986,-27.6496,Q,Q
2023-03-15 15:46:55:752,0,-6.33579,-6.07067,-27.6489,Q,Q
2023-03-15 15:46:55:762,0,-6.35174,-6.06029,-27.6498,Q,Q
2023-03-15 15:46:55:772,0,-6.35799,-6.05,-27.6535,Q,Q
2023-03-15 15:46:55:782,0,-6.36847,-6.04114,-27.6539,Q,Q
2023-03-15 15:46:55:792,0,-6.37772,-6.03294,-27.6582,Q,Q
2023-03-15 15:46:55:802,0,-6.37569,-6.01836,-27.6655,Q,Q
2023-03-15 15:46:55:812,0,-6.37331,-6.00696,-27.6721,Q,Q
2023-03-15 15:46:55:822,0,-6.37039,-5.99308,-27.6803,Q,Q
2023-03-15 15:46:55:832,0,-6.36965,-5.97704,-27.6895,Q,Q
2023-03-15 15:46:55:842,0,-6.36751,-5.96226,-27.7018,Q,Q
2023-03-15 15:46:55:852,0,-6.36926,-5.94684,-27.7137,Q,Q
2023-03-15 15:46:55:862,0,-6.36133,-5.93561,-27.7277,Q,Q
2023-03-15 15:46:55:872,0,-6.35613,-5.92788,-27.7483,Q,Q
2023-03-15 15:46:55:882,0,-6.34777,-5.91874,-27.7697,Q,Q
2023-03-15 15:46:55:892,0,-6.34127,-5.91108,-27.7869,Q,Q
2023-03-15 15:46:55:902,0,-6.34061,-5.90749,-27.8053,Q,Q
2023-03-15 15:46:55:912,0,-6.34255,-5.90917,-27.8267,Q,Q
2023-03-15 15:46:55:922,0,-6.34009,-5.9109,-27.8459,Q,Q
2023-03-15 15:46:55:932,0,-6.34099,-5.90827,-27.8628,Q,Q
2023-03-15 15:46:55:942,0,-6.34638,-5.90778,-27.8806,Q,Q
2023-03-15 15:46:55:952,0,-6.34774,-5.906,-27.8979,Q,Q
2023-03-15 15:46:55:962,0,-6.35691,-5.90781,-27.9133,Q,Q
2023-03-15 15:46:55:972,0,-6.36263,-5.91009,-27.9324,Q,Q
2023-03-15 15:46:55:982,0,-6.3725,-5.91013,-27.9488,Q,Q
2023-03-15 15:46:55:992,0,-6.37892,-5.90996,-27.9638,Q,Q
2023-03-15 15:46:56:2,0,-6.38989,-5.91261,-27.971,Q,Q
2023-03-15 15:46:56:12,0,-6.40272,-5.9176,-27.9832,Q,Q
2023-03-15 15:46:56:22,0,-6.41433,-5.92173,-27.9907,Q,Q
2023-03-15 15:46:56:32,0,-6.42835,-5.92718,-27.9969,Q,Q
2023-03-15 15:46:56:42,0,-6.44502,-5.93631,-28.0034,Q,Q
2023-03-15 15:46:56:52,0,-6.46289,-5.94473,-28.0097,Q,Q
2023-03-15 15:46:56:62,0,-6.47998,-5.95204,-28.0164,Q,Q
2023-03-15 15:46:56:72,0,-6.4948,-5.9561,-28.0187,Q,Q
2023-03-15 15:46:56:82,0,-6.51091,-5.96111,-28.0228,Q,Q
2023-03-15 15:46:56:92,0,-6.5154,-5.96678,-28.0243,Q,Q
2023-03-15 15:46:56:102,0,-6.51842,-5.97078,-28.0204,Q,Q
2023-03-15 15:46:56:112,0,-6.51634,-5.97122,-28.0225,Q,Q
2023-03-15 15:46:56:122,0,-6.51492,-5.9687,-28.0211,Q,Q
2023-03-15 15:46:56:132,0,-6.51149,-5.96805,-28.0237,Q,Q
2023-03-15 15:46:56:142,0,-6.51208,-5.96758,-28.0308,Q,Q
2023-03-15 15:46:56:152,0,-6.514,-5.96719,-28.0361,Q,Q
2023-03-15 15:46:56:162,0,-6.51162,-5.96768,-28.044,Q,Q
2023-03-15 15:46:56:172,0,-6.50994,-5.96828,-28.0571,Q,Q
2023-03-15 15:46:56:182,0,-6.50614,-5.96835,-28.0741,Q,Q
2023-03-15 15:46:56:192,0,-6.49941,-5.96921,-28.0913,Q,Q
2023-03-15 15:46:56:202,0,-6.49351,-5.96508,-28.1136,Q,Q
2023-03-15 15:46:56:212,0,-6.48607,-5.96064,-28.134,Q,Q
2023-03-15 15:46:56:222,0,-6.48261,-5.95437,-28.1551,Q,Q
2023-03-15 15:46:56:232,0,-6.47704,-5.94677,-28.1734,Q,Q
2023-03-15 15:46:56:242,0,-6.47476,-5.93861,-28.1952,Q,Q
2023-03-15 15:46:56:252,0,-6.4667,-5.92515,-28.2148,Q,Q
2023-03-15 15:46:56:262,0,-6.46561,-5.91032,-28.2357,Q,Q
2023-03-15 15:46:56:272,0,-6.46552,-5.89141,-28.2544,Q,Q
2023-03-15 15:46:56:282,0,-6.46357,-5.8712,-28.2789,Q,Q
2023-03-15 15:46:56:292,0,-6.46382,-5.84937,-28.2999,Q,Q
2023-03-15 15:46:56:302,0,-6.46941,-5.82722,-28.3154,Q,Q
2023-03-15 15:46:56:312,0,-6.47135,-5.80715,-28.3357,Q,Q
2023-03-15 15:46:56:322,0,-6.4698,-5.7886,-28.3554,Q,Q
2023-03-15 15:46:56:332,0,-6.46804,-5.7739,-28.373,Q,Q
2023-03-15 15:46:56:342,0,-6.4604,-5.76362,-28.3932,Q,Q
2023-03-15 15:46:56:352,0,-6.45365,-5.75529,-28.4124,Q,Q
2023-03-15 15:46:56:362,0,-6.43878,-5.74839,-28.4276,Q,Q
2023-03-15 15:46:56:372,0,-6.42352,-5.74757,-28.4407,Q,Q
2023-03-15 15:46:56:382,0,-6.40314,-5.75177,-28.449,Q,Q
2023-03-15 15:46:56:392,0,-6.38212,-5.75945,-28.4623,Q,Q
2023-03-15 15:46:56:402,0,-6.36335,-5.76526,-28.4762,Q,Q
2023-03-15 15:46:56:412,0,-6.34677,-5.76917,-28.4902,Q,Q
2023-03-15 15:46:56:422,0,-6.336,-5.76715,-28.4992,Q,Q
2023-03-15 15:46:56:432,0,-6.32856,-5.76433,-28.5071,Q,Q
2023-03-15 15:46:56:442,0,-6.31908,-5.75623,-28.5128,Q,Q
2023-03-15 15:46:56:452,0,-6.30903,-5.75059,-28.5132,Q,Q
2023-03-15 15:46:56:462,0,-6.30346,-5.74188,-28.5153,Q,Q
2023-03-15 15:46:56:472,0,-6.2962,-5.73429,-28.5207,Q,Q
2023-03-15 15:46:56:482,0,-6.28949,-5.72615,-28.5254,Q,Q
2023-03-15 15:46:56:492,0,-6.28947,-5.71373,-28.5331,Q,Q
2023-03-15 15:46:56:502,0,-6.28421,-5.69742,-28.539,Q,Q
2023-03-15 15:46:56:512,0,-6.2835,-5.68267,-28.5467,Q,Q
2023-03-15 15:46:56:522,0,-6.28362,-5.67274,-28.5519,Q,Q
2023-03-15 15:46:56:532,0,-6.27886,-5.6585,-28.5557,Q,Q
2023-03-15 15:46:56:542,0,-6.2735,-5.64314,-28.563,Q,Q
2023-03-15 15:46:56:552,0,-6.26985,-5.63333,-28.5662,Q,Q
2023-03-15 15:46:56:562,0,-6.2701,-5.62737,-28.5728,Q,Q
2023-03-15 15:46:56:572,0,-6.27158,-5.61961,-28.5839,Q,Q
2023-03-15 15:46:56:582,0,-6.27003,-5.613,-28.597,Q,Q
2023-03-15 15:46:56:592,0,-6.26473,-5.6092,-28.6074,Q,Q
2023-03-15 15:46:56:602,0,-6.25724,-5.61054,-28.6146,Q,Q
2023-03-15 15:46:56:612,0,-6.24725,-5.61514,-28.62,Q,Q
2023-03-15 15:46:56:622,0,-6.23652,-5.61643,-28.6263,Q,Q
2023-03-15 15:46:56:632,0,-6.22136,-5.61892,-28.6279,Q,Q
2023-03-15 15:46:56:642,0,-6.20905,-5.61815,-28.6303,Q,Q
2023-03-15 15:46:56:652,0,-6.19446,-5.61752,-28.6333,Q,Q
2023-03-15 15:46:56:662,0,-6.18611,-5.62111,-28.6335,Q,Q
2023-03-15 15:46:56:672,0,-6.18073,-5.62428,-28.6337,Q,Q
2023-03-15 15:46:56:682,0,-6.17474,-5.62885,-28.6337,Q,Q
2023-03-15 15:46:56:692,0,-6.17234,-5.63474,-28.6339,Q,Q
2023-03-15 15:46:56:702,0,-6.17755,-5.643,-28.6319,Q,Q
2023-03-15 15:46:56:712,0,-6.18354,-5.65448,-28.6283,Q,Q
2023-03-15 15:46:56:722,0,-6.19192,-5.6627,-28.6272,Q,Q
2023-03-15 15:46:56:732,0,-6.19856,-5.66893,-28.6248,Q,Q
2023-03-15 15:46:56:742,0,-6.2114,-5.67614,-28.6239,Q,Q
2023-03-15 15:46:56:752,0,-6.22218,-5.68695,-28.6199,Q,Q
2023-03-15 15:46:56:762,0,-6.23883,-5.6955,-28.6197,Q,Q
2023-03-15 15:46:56:772,0,-6.26385,-5.70667,-28.6157,Q,Q
2023-03-15 15:46:56:782,0,-6.28918,-5.71778,-28.6125,Q,Q
2023-03-15 15:46:56:792,0,-6.31965,-5.72722,-28.6112,Q,Q
2023-03-15 15:46:56:802,0,-6.35103,-5.73504,-28.608,Q,Q
2023-03-15 15:46:56:812,0,-6.3834,-5.74273,-28.6026,Q,Q
2023-03-15 15:46:56:822,0,-6.41538,-5.75293,-28.5993,Q,Q
2023-03-15 15:46:56:832,0,-6.44515,-5.76507,-28.596,Q,Q
2023-03-15 15:46:56:842,0,-6.47425,-5.77601,-28.5944,Q,Q
2023-03-15 15:46:56:852,0,-6.5004,-5.78589,-28.599,Q,Q
2023-03-15 15:46:56:862,0,-6.52087,-5.78732,-28.6025,Q,Q
2023-03-15 15:46:56:872,0,-6.54172,-5.78915,-28.6067,Q,Q
2023-03-15 15:46:56:882,0,-6.55901,-5.79178,-28.6118,Q,Q
2023-03-15 15:46:56:892,0,-6.57204,-5.79202,-28.619,Q,Q
2023-03-15 15:46:56:902,0,-6.5877,-5.79404,-28.627,Q,Q
2023-03-15 15:46:56:912,0,-6.60096,-5.79678,-28.6378,Q,Q
2023-03-15 15:46:56:922,0,-6.60946,-5.79471,-28.6493,Q,Q
2023-03-15 15:46:56:932,0,-6.61884,-5.79088,-28.6624,Q,Q
2023-03-15 15:46:56:942,0,-6.6289,-5.78225,-28.6753,Q,Q
2023-03-15 15:46:56:952,0,-6.63298,-5.77779,-28.6877,Q,Q
2023-03-15 15:46:56:962,0,-6.63258,-5.77775,-28.7003,Q,Q
2023-03-15 15:46:56:972,0,-6.63258,-5.77163,-28.7138,Q,Q
2023-03-15 15:46:56:982,0,-6.6313,-5.76536,-28.725,Q,Q
2023-03-15 15:46:56:992,0,-6.6295,-5.75935,-28.7396,Q,Q
2023-03-15 15:46:57:2,0,-6.62804,-5.75028,-28.7493,Q,Q
2023-03-15 15:46:57:12,0,-6.62398,-5.74096,-28.7607,Q,Q
2023-03-15 15:46:57:22,0,-6.61936,-5.73508,-28.7753,Q,Q
2023-03-15 15:46:57:32,0,-6.60623,-5.73349,-28.7892,Q,Q
2023-03-15 15:46:57:42,0,-6.5906,-5.73129,-28.8034,Q,Q
2023-03-15 15:46:57:52,0,-6.57531,-5.73064,-28.8147,Q,Q
2023-03-15 15:46:57:62,0,-6.56107,-5.73205,-28.8274,Q,Q
2023-03-15 15:46:57:72,0,-6.54175,-5.73875,-28.8373,Q,Q
2023-03-15 15:46:57:82,0,-6.52088,-5.74384,-28.8514,Q,Q
2023-03-15 15:46:57:92,0,-6.49789,-5.75164,-28.8625,Q,Q
2023-03-15 15:46:57:102,0,-6.47788,-5.75899,-28.8688,Q,Q
2023-03-15 15:46:57:112,0,-6.46082,-5.76826,-28.8698,Q,Q
2023-03-15 15:46:57:122,0,-6.44566,-5.7814,-28.8673,Q,Q
2023-03-15 15:46:57:132,0,-6.43379,-5.79171,-28.8599,Q,Q
2023-03-15 15:46:57:142,0,-6.42799,-5.79881,-28.8565,Q,Q
2023-03-15 15:46:57:152,0,-6.427,-5.80411,-28.8498,Q,Q
2023-03-15 15:46:57:162,0,-6.43092,-5.80525,-28.8439,Q,Q
2023-03-15 15:46:57:172,0,-6.43908,-5.8021,-28.836,Q,Q
2023-03-15 15:46:57:182,0,-6.44736,-5.80011,-28.8316,Q,Q
2023-03-15 15:46:57:192,0,-6.46047,-5.79598,-28.8287,Q,Q
2023-03-15 15:46:57:202,0,-6.47773,-5.79182,-28.8298,Q,Q
2023-03-15 15:46:57:212,0,-6.49739,-5.78456,-28.8413,Q,Q
2023-03-15 15:46:57:222,0,-6.51839,-5.7748,-28.8532,Q,Q
2023-03-15 15:46:57:232,0,-6.5353,-5.7664,-28.8669,Q,Q
2023-03-15 15:46:57:242,0,-6.55293,-5.76123,-28.8838,Q,Q
2023-03-15 15:46:57:252,0,-6.5665,-5.75686,-28.9028,Q,Q
2023-03-15 15:46:57:262,0,-6.58002,-5.75234,-28.9245,Q,Q
2023-03-15 15:46:57:272,0,-6.58934,-5.74873,-28.9465,Q,Q
2023-03-15 15:46:57:282,0,-6.59993,-5.74657,-28.9661,Q,Q
2023-03-15 15:46:57:292,0,-6.61143,-5.74501,-28.9831,Q,Q
2023-03-15 15:46:57:302,0,-6.62341,-5.73934,-28.9968,Q,Q
2023-03-15 15:46:57:312,0,-6.63784,-5.73634,-29.008,Q,Q
2023-03-15 15:46:57:322,0,-6.64947,-5.73624,-29.0158,Q,Q
2023-03-15 15:46:57:332,0,-6.65693,-5.73694,-29.0213,Q,Q
2023-03-15 15:46:57:342,0,-6.65808,-5.74143,-29.0239,Q,Q
2023-03-15 15:46:57:352,0,-6.65261,-5.74907,-29.0222,Q,Q
2023-03-15 15:46:57:362,0,-6.64647,-5.75893,-29.0199,Q,Q
2023-03-15 15:46:57:372,0,-6.63814,-5.76763,-29.0137,Q,Q
2023-03-15 15:46:57:382,0,-6.62585,-5.77508,-29.0089,Q,Q
2023-03-15 15:46:57:392,0,-6.61161,-5.78221,-29.0051,Q,Q
2023-03-15 15:46:57:402,0,-6.60021,-5.79345,-28.9986,Q,Q
2023-03-15 15:46:57:412,0,-6.58899,-5.80356,-28.9927,Q,Q
2023-03-15 15:46:57:422,0,-6.58137,-5.81226,-28.9876,Q,Q
2023-03-15 15:46:57:432,0,-6.5762,-5.82202,-28.9859,Q,Q
2023-03-15 15:46:57:442,0,-6.56687,-5.82913,-28.986,Q,Q
2023-03-15 15:46:57:452,0,-6.56931,-5.84405,-28.9826,Q,Q
2023-03-15 15:46:57:462,0,-6.57987,-5.86717,-28.9773,Q,Q
2023-03-15 15:46:57:472,0,-6.59893,-5.87917,-28.9748,Q,Q
2023-03-15 15:46:57:482,0,-6.60728,-5.89642,-28.9746,Q,Q
2023-03-15 15:46:57:492,0,-6.61191,-5.91092,-28.9769,Q,Q
2023-03-15 15:46:57:502,0,-6.61239,-5.92774,-28.9743,Q,Q
2023-03-15 15:46:57:512,0,-6.61918,-5.94404,-28.9729,Q,Q
2023-03-15 15:46:57:522,0,-6.62858,-5.96283,-28.9732,Q,Q
2023-03-15 15:46:57:532,0,-6.641,-5.98341,-28.9735,Q,Q
2023-03-15 15:46:57:542,0,-6.65237,-6.00364,-28.9716,Q,Q
2023-03-15 15:46:57:552,0,-6.66139,-6.01743,-28.9725,Q,Q
2023-03-15 15:46:57:562,0,-6.66656,-6.03124,-28.969,Q,Q
2023-03-15 15:46:57:572,0,-6.674,-6.04238,-28.9637,Q,Q
2023-03-15 15:46:57:582,0,-6.6839,-6.04463,-28.9595,Q,Q
2023-03-15 15:46:57:592,0,-6.6905,-6.04455,-28.9543,Q,Q
2023-03-15 15:46:57:602,0,-6.69551,-6.04344,-28.9469,Q,Q
2023-03-15 15:46:57:612,0,-6.69333,-6.03273,-28.9422,Q,Q
2023-03-15 15:46:57:622,0,-6.6919,-6.02304,-28.9376,Q,Q
2023-03-15 15:46:57:632,0,-6.69179,-6.0129,-28.9373,Q,Q
2023-03-15 15:46:57:642,0,-6.68894,-6.00156,-28.9372,Q,Q
2023-03-15 15:46:57:652,0,-6.67868,-5.98844,-28.9426,Q,Q
2023-03-15 15:46:57:662,0,-6.677,-5.97457,-28.9503,Q,Q
2023-03-15 15:46:57:672,0,-6.67994,-5.95958,-28.9627,Q,Q
2023-03-15 15:46:57:682,0,-6.68332,-5.94665,-28.9811,Q,Q
2023-03-15 15:46:57:692,0,-6.68951,-5.93033,-29.0011,Q,Q
2023-03-15 15:46:57:702,0,-6.69674,-5.91455,-29.0192,Q,Q
2023-03-15 15:46:57:712,0,-6.70521,-5.89839,-29.0377,Q,Q
2023-03-15 15:46:57:722,0,-6.71369,-5.8869,-29.0548,Q,Q
2023-03-15 15:46:57:732,0,-6.72448,-5.87301,-29.0718,Q,Q
2023-03-15 15:46:57:742,0,-6.73523,-5.85536,-29.0887,Q,Q
2023-03-15 15:46:57:752,0,-6.74913,-5.83847,-29.104,Q,Q
2023-03-15 15:46:57:762,0,-6.76358,-5.82315,-29.1084,Q,Q
2023-03-15 15:46:57:772,0,-6.78088,-5.80811,-29.1147,Q,Q
2023-03-15 15:46:57:782,0,-6.80186,-5.79698,-29.1182,Q,Q
2023-03-15 15:46:57:792,0,-6.81954,-5.78879,-29.1189,Q,Q
2023-03-15 15:46:57:802,0,-6.83959,-5.78287,-29.118,Q,Q
2023-03-15 15:46:57:812,0,-6.85463,-5.77815,-29.1164,Q,Q
2023-03-15 15:46:57:822,0,-6.87517,-5.77615,-29.1085,Q,Q
2023-03-15 15:46:57:832,0,-6.90876,-5.78822,-29.0929,Q,Q
2023-03-15 15:46:57:842,0,-6.95217,-5.79689,-29.0803,Q,Q
2023-03-15 15:46:57:852,0,-6.99461,-5.80299,-29.0701,Q,Q
2023-03-15 15:46:57:862,0,-7.02973,-5.80906,-29.0579,Q,Q
2023-03-15 15:46:57:872,0,-7.06498,-5.81397,-29.045,Q,Q
2023-03-15 15:46:57:882,0,-7.10471,-5.81236,-29.0307,Q,Q
2023-03-15 15:46:57:892,0,-7.14034,-5.80979,-29.0204,Q,Q
2023-03-15 15:46:57:902,0,-7.17479,-5.80905,-29.0117,Q,Q
2023-03-15 15:46:57:912,0,-7.206,-5.80374,-29.0077,Q,Q
2023-03-15 15:46:57:922,0,-7.22982,-5.79971,-29.011,Q,Q
2023-03-15 15:46:57:932,0,-7.2442,-5.79467,-29.0147,Q,Q
2023-03-15 15:46:57:942,0,-7.25097,-5.78809,-29.0205,Q,Q
2023-03-15 15:46:57:952,0,-7.24733,-5.77463,-29.0322,Q,Q
2023-03-15 15:46:57:962,0,-7.24165,-5.76321,-29.0441,Q,Q
2023-03-15 15:46:57:972,0,-7.23193,-5.75194,-29.0556,Q,Q
2023-03-15 15:46:57:982,0,-7.22248,-5.74134,-29.0651,Q,Q
2023-03-15 15:46:57:992,0,-7.21344,-5.73243,-29.0782,Q,Q
2023-03-15 15:46:58:2,0,-7.20673,-5.72087,-29.0911,Q,Q
2023-03-15 15:46:58:12,0,-7.20905,-5.70301,-29.1081,Q,Q
2023-03-15 15:46:58:22,0,-7.21652,-5.69988,-29.1248,Q,Q
2023-03-15 15:46:58:32,0,-7.24229,-5.69937,-29.1373,Q,Q
2023-03-15 15:46:58:42,0,-7.27224,-5.69459,-29.1519,Q,Q
2023-03-15 15:46:58:52,0,-7.29279,-5.69461,-29.1719,Q,Q
2023-03-15 15:46:58:62,0,-7.31137,-5.69791,-29.1801,Q,Q
2023-03-15 15:46:58:72,0,-7.32687,-5.70022,-29.1846,Q,Q
2023-03-15 15:46:58:82,0,-7.34428,-5.70429,-29.188,Q,Q
2023-03-15 15:46:58:92,0,-7.35501,-5.71507,-29.1871,Q,Q
2023-03-15 15:46:58:102,0,-7.35754,-5.72949,-29.1789,Q,Q
2023-03-15 15:46:58:112,0,-7.35754,-5.7422,-29.1682,Q,Q
2023-03-15 15:46:58:122,0,-7.347,-5.75376,-29.1588,Q,Q
2023-03-15 15:46:58:132,0,-7.33039,-5.76755,-29.1403,Q,Q
2023-03-15 15:46:58:142,0,-7.30851,-5.77804,-29.1246,Q,Q
2023-03-15 15:46:58:152,0,-7.28656,-5.78987,-29.1086,Q,Q
2023-03-15 15:46:58:162,0,-7.26506,-5.80033,-29.0915,Q,Q
2023-03-15 15:46:58:172,0,-7.24502,-5.81441,-29.0797,Q,Q
2023-03-15 15:46:58:182,0,-7.22595,-5.82885,-29.0712,Q,Q
2023-03-15 15:46:58:192,0,-7.20786,-5.84126,-29.0682,Q,Q
2023-03-15 15:46:58:202,0,-7.18863,-5.85259,-29.0726,Q,Q
2023-03-15 15:46:58:212,0,-7.17507,-5.86377,-29.0759,Q,Q
2023-03-15 15:46:58:222,0,-7.16312,-5.87063,-29.0826,Q,Q
2023-03-15 15:46:58:232,0,-7.15556,-5.87927,-29.0889,Q,Q
2023-03-15 15:46:58:242,0,-7.15148,-5.884,-29.0961,Q,Q
2023-03-15 15:46:58:252,0,-7.15063,-5.89117,-29.1062,Q,Q
2023-03-15 15:46:58:262,0,-7.14813,-5.89371,-29.1128,Q,Q
2023-03-15 15:46:58:272,0,-7.14707,-5.89626,-29.1164,Q,Q
2023-03-15 15:46:58:282,0,-7.14708,-5.90086,-29.1167,Q,Q
2023-03-15 15:46:58:292,0,-7.15273,-5.90259,-29.1167,Q,Q
2023-03-15 15:46:58:302,0,-7.15909,-5.90184,-29.1132,Q,Q
2023-03-15 15:46:58:312,0,-7.16727,-5.90042,-29.1056,Q,Q
2023-03-15 15:46:58:322,0,-7.17905,-5.89987,-29.0967,Q,Q
2023-03-15 15:46:58:332,0,-7.1921,-5.90204,-29.0868,Q,Q
2023-03-15 15:46:58:342,0,-7.21277,-5.90893,-29.0748,Q,Q
2023-03-15 15:46:58:352,0,-7.23957,-5.91632,-29.064,Q,Q
2023-03-15 15:46:58:362,0,-7.26453,-5.92083,-29.054,Q,Q
2023-03-15 15:46:58:372,0,-7.28912,-5.92615,-29.0466,Q,Q
2023-03-15 15:46:58:382,0,-7.31353,-5.93239,-29.0373,Q,Q
2023-03-15 15:46:58:392,0,-7.34072,-5.94182,-29.0311,Q,Q
2023-03-15 15:46:58:402,0,-7.36577,-5.95539,-29.0275,Q,Q
2023-03-15 15:46:58:412,0,-7.39306,-5.96515,-29.0217,Q,Q
2023-03-15 15:46:58:422,0,-7.41847,-5.97651,-29.0174,Q,Q
2023-03-15 15:46:58:432,0,-7.43689,-5.98666,-29.0136,Q,Q
2023-03-15 15:46:58:442,0,-7.45075,-5.99623,-29.0088,Q,Q
2023-03-15 15:46:58:452,0,-7.46189,-6.00557,-29.0019,Q,Q
2023-03-15 15:46:58:462,0,-7.47679,-6.01674,-28.9982,Q,Q
2023-03-15 15:46:58:472,0,-7.48715,-6.02395,-28.994,Q,Q
2023-03-15 15:46:58:482,0,-7.49389,-6.03382,-28.9862,Q,Q
2023-03-15 15:46:58:492,0,-7.50048,-6.04355,-28.9796,Q,Q
2023-03-15 15:46:58:502,0,-7.51052,-6.05822,-28.9718,Q,Q
2023-03-15 15:46:58:512,0,-7.52583,-6.07513,-28.964,Q,Q
2023-03-15 15:46:58:522,0,-7.53492,-6.09576,-28.9585,Q,Q
2023-03-15 15:46:58:532,0,-7.53971,-6.11881,-28.9515,Q,Q
2023-03-15 15:46:58:542,0,-7.54802,-6.14156,-28.9433,Q,Q
2023-03-15 15:46:58:552,0,-7.55866,-6.16747,-28.9401,Q,Q
2023-03-15 15:46:58:562,0,-7.57182,-6.18882,-28.9366,Q,Q
2023-03-15 15:46:58:572,0,-7.58961,-6.21022,-28.9291,Q,Q
2023-03-15 15:46:58:582,0,-7.61397,-6.23253,-28.9216,Q,Q
2023-03-15 15:46:58:592,0,-7.64083,-6.24914,-28.914,Q,Q
2023-03-15 15:46:58:602,0,-7.66789,-6.26178,-28.9109,Q,Q
2023-03-15 15:46:58:612,0,-7.69581,-6.27379,-28.9085,Q,Q
2023-03-15 15:46:58:622,0,-7.72299,-6.28349,-28.9003,Q,Q
2023-03-15 15:46:58:632,0,-7.75237,-6.29339,-28.8973,Q,Q
2023-03-15 15:46:58:642,0,-7.77617,-6.29673,-28.8961,Q,Q
2023-03-15 15:46:58:652,0,-7.79478,-6.29638,-28.8933,Q,Q
2023-03-15 15:46:58:662,0,-7.80993,-6.295,-28.8925,Q,Q
2023-03-15 15:46:58:672,0,-7.81739,-6.2896,-28.8931,Q,Q
2023-03-15 15:46:58:682,0,-7.82379,-6.28397,-28.8975,Q,Q
2023-03-15 15:46:58:692,0,-7.83539,-6.28073,-28.9012,Q,Q
2023-03-15 15:46:58:702,0,-7.84838,-6.27627,-28.905,Q,Q
2023-03-15 15:46:58:712,0,-7.86247,-6.27067,-28.9098,Q,Q
2023-03-15 15:46:58:722,0,-7.87559,-6.26626,-28.9184,Q,Q
2023-03-15 15:46:58:732,0,-7.88251,-6.25987,-28.9335,Q,Q
2023-03-15 15:46:58:742,0,-7.88889,-6.2501,-28.9459,Q,Q
2023-03-15 15:46:58:752,0,-7.8937,-6.24004,-28.9598,Q,Q
2023-03-15 15:46:58:762,0,-7.89386,-6.23505,-28.9737,Q,Q
2023-03-15 15:46:58:772,0,-7.89034,-6.23402,-28.9845,Q,Q
2023-03-15 15:46:58:782,0,-7.88701,-6.2356,-29.0005,Q,Q
2023-03-15 15:46:58:792,0,-7.87629,-6.23926,-29.0156,Q,Q
2023-03-15 15:46:58:802,0,-7.86683,-6.24202,-29.0263,Q,Q
2023-03-15 15:46:58:812,0,-7.86012,-6.24566,-29.0346,Q,Q
2023-03-15 15:46:58:822,0,-7.8549,-6.24881,-29.0411,Q,Q
2023-03-15 15:46:58:832,0,-7.85045,-6.256,-29.043,Q,Q
2023-03-15 15:46:58:842,0,-7.84098,-6.26325,-29.0394,Q,Q
2023-03-15 15:46:58:852,0,-7.83248,-6.2725,-29.034,Q,Q
2023-03-15 15:46:58:862,0,-7.82283,-6.28446,-29.0238,Q,Q
2023-03-15 15:46:58:872,0,-7.80933,-6.29463,-29.012,Q,Q
2023-03-15 15:46:58:882,0,-7.80043,-6.30858,-28.9985,Q,Q
2023-03-15 15:46:58:892,0,-7.78891,-6.31551,-28.9817,Q,Q
2023-03-15 15:46:58:902,0,-7.78204,-6.3277,-28.9676,Q,Q
2023-03-15 15:46:58:912,0,-7.77906,-6.33713,-28.9457,Q,Q
2023-03-15 15:46:58:922,0,-7.77152,-6.34815,-28.9287,Q,Q
2023-03-15 15:46:58:932,0,-7.7693,-6.36013,-28.9138,Q,Q
2023-03-15 15:46:58:942,0,-7.77053,-6.36417,-28.8986,Q,Q
2023-03-15 15:46:58:952,0,-7.77409,-6.36777,-28.8835,Q,Q
2023-03-15 15:46:58:962,0,-7.7816,-6.37038,-28.8728,Q,Q
2023-03-15 15:46:58:972,0,-7.79238,-6.37135,-28.8611,Q,Q
2023-03-15 15:46:58:982,0,-7.80212,-6.37301,-28.854,Q,Q
2023-03-15 15:46:58:992,0,-7.81382,-6.37258,-28.8444,Q,Q
2023-03-15 15:46:59:2,0,-7.823,-6.36728,-28.838,Q,Q
2023-03-15 15:46:59:12,0,-7.82866,-6.36187,-28.8375,Q,Q
2023-03-15 15:46:59:22,0,-7.8374,-6.35218,-28.8392,Q,Q
2023-03-15 15:46:59:32,0,-7.843,-6.33848,-28.8452,Q,Q
2023-03-15 15:46:59:42,0,-7.84891,-6.32618,-28.8496,Q,Q
2023-03-15 15:46:59:52,0,-7.84911,-6.3096,-28.8573,Q,Q
2023-03-15 15:46:59:62,0,-7.84741,-6.29698,-28.8688,Q,Q
2023-03-15 15:46:59:72,0,-7.84495,-6.278,-28.8812,Q,Q
2023-03-15 15:46:59:82,0,-7.84005,-6.25859,-28.8976,Q,Q
2023-03-15 15:46:59:92,0,-7.83588,-6.23394,-28.9153,Q,Q
2023-03-15 15:46:59:102,0,-7.82887,-6.20555,-28.9342,Q,Q
2023-03-15 15:46:59:112,0,-7.81544,-6.17162,-28.9516,Q,Q
2023-03-15 15:46:59:122,0,-7.8025,-6.13693,-28.9726,Q,Q
2023-03-15 15:46:59:132,0,-7.78777,-6.10604,-28.9914,Q,Q
2023-03-15 15:46:59:142,0,-7.77583,-6.07879,-29.0071,Q,Q
2023-03-15 15:46:59:152,0,-7.76484,-6.04869,-29.0244,Q,Q
2023-03-15 15:46:59:162,0,-7.74647,-6.02304,-29.0438,Q,Q
2023-03-15 15:46:59:172,0,-7.72867,-5.99655,-29.0589,Q,Q
2023-03-15 15:46:59:182,0,-7.71103,-5.97229,-29.0714,Q,Q
2023-03-15 15:46:59:192,0,-7.69532,-5.95165,-29.0791,Q,Q
2023-03-15 15:46:59:202,0,-7.69017,-5.93736,-29.0816,Q,Q
2023-03-15 15:46:59:212,0,-7.68444,-5.9274,-29.0898,Q,Q
2023-03-15 15:46:59:222,0,-7.67909,-5.91942,-29.0951,Q,Q
2023-03-15 15:46:59:232,0,-7.6721,-5.92082,-29.1018,Q,Q
2023-03-15 15:46:59:242,0,-7.66031,-5.92232,-29.1051,Q,Q
2023-03-15 15:46:59:252,0,-7.64328,-5.9254,-29.1102,Q,Q
2023-03-15 15:46:59:262,0,-7.62511,-5.93405,-29.1172,Q,Q
2023-03-15 15:46:59:272,0,-7.60876,-5.93741,-29.1203,Q,Q
2023-03-15 15:46:59:282,0,-7.59479,-5.94866,-29.1215,Q,Q
2023-03-15 15:46:59:292,0,-7.58569,-5.9585,-29.1219,Q,Q
2023-03-15 15:46:59:302,0,-7.57359,-5.96999,-29.12,Q,Q
2023-03-15 15:46:59:312,0,-7.56201,-5.97943,-29.1153,Q,Q
2023-03-15 15:46:59:322,0,-7.55055,-5.99404,-29.1108,Q,Q
2023-03-15 15:46:59:332,0,-7.53936,-6.00647,-29.1055,Q,Q
2023-03-15 15:46:59:342,0,-7.52539,-6.0191,-29.0986,Q,Q
2023-03-15 15:46:59:352,0,-7.50729,-6.03303,-29.0893,Q,Q
2023-03-15 15:46:59:362,0,-7.48872,-6.04644,-29.0839,Q,Q
2023-03-15 15:46:59:372,0,-7.47653,-6.05489,-29.0754,Q,Q
2023-03-15 15:46:59:382,0,-7.47078,-6.06372,-29.0695,Q,Q
2023-03-15 15:46:59:392,0,-7.46846,-6.07054,-29.0642,Q,Q
2023-03-15 15:46:59:402,0,-7.47741,-6.07735,-29.0554,Q,Q
2023-03-15 15:46:59:412,0,-7.48957,-6.08359,-29.0521,Q,Q
2023-03-15 15:46:59:422,0,-7.50754,-6.0893,-29.0501,Q,Q
2023-03-15 15:46:59:432,0,-7.52733,-6.09063,-29.0446,Q,Q
2023-03-15 15:46:59:442,0,-7.5468,-6.08886,-29.0447,Q,Q
2023-03-15 15:46:59:452,0,-7.56497,-6.08056,-29.0485,Q,Q
2023-03-15 15:46:59:462,0,-7.57859,-6.07235,-29.0568,Q,Q
2023-03-15 15:46:59:472,0,-7.58479,-6.06967,-29.0609,Q,Q
2023-03-15 15:46:59:482,0,-7.5847,-6.06542,-29.0655,Q,Q
2023-03-15 15:46:59:492,0,-7.58302,-6.0601,-29.0754,Q,Q
2023-03-15 15:46:59:502,0,-7.58017,-6.05365,-29.0866,Q,Q
2023-03-15 15:46:59:512,0,-7.57106,-6.04282,-29.0957,Q,Q
2023-03-15 15:46:59:522,0,-7.56174,-6.03393,-29.1053,Q,Q
2023-03-15 15:46:59:532,0,-7.55329,-6.02678,-29.1149,Q,Q
2023-03-15 15:46:59:542,0,-7.54925,-6.0192,-29.123,Q,Q
2023-03-15 15:46:59:552,0,-7.54489,-6.01214,-29.1293,Q,Q
2023-03-15 15:46:59:562,0,-7.547,-6.00467,-29.1336,Q,Q
2023-03-15 15:46:59:572,0,-7.55184,-5.99982,-29.1341,Q,Q
2023-03-15 15:46:59:582,0,-7.56248,-5.99761,-29.1368,Q,Q
2023-03-15 15:46:59:592,0,-7.57449,-5.99765,-29.1317,Q,Q
2023-03-15 15:46:59:602,0,-7.5864,-6.00125,-29.1243,Q,Q
2023-03-15 15:46:59:612,0,-7.60565,-6.00642,-29.1158,Q,Q
2023-03-15 15:46:59:622,0,-7.62197,-6.01762,-29.108,Q,Q
2023-03-15 15:46:59:632,0,-7.64279,-6.02718,-29.096,Q,Q
2023-03-15 15:46:59:642,0,-7.66421,-6.03542,-29.0834,Q,Q
2023-03-15 15:46:59:652,0,-7.6814,-6.04645,-29.0745,Q,Q
2023-03-15 15:46:59:662,0,-7.7007,-6.05721,-29.0649,Q,Q
2023-03-15 15:46:59:672,0,-7.71945,-6.06723,-29.0491,Q,Q
2023-03-15 15:46:59:682,0,-7.74131,-6.0769,-29.0357,Q,Q
2023-03-15 15:46:59:692,0,-7.76381,-6.08749,-29.0265,Q,Q
2023-03-15 15:46:59:702,0,-7.77852,-6.09483,-29.0195,Q,Q
2023-03-15 15:46:59:712,0,-7.79715,-6.10501,-29.0135,Q,Q
2023-03-15 15:46:59:722,0,-7.8162,-6.10817,-29.0095,Q,Q
2023-03-15 15:46:59:732,0,-7.83686,-6.11421,-29.0049,Q,Q
2023-03-15 15:46:59:742,0,-7.84933,-6.11947,-29.005,Q,Q
2023-03-15 15:46:59:752,0,-7.86063,-6.12284,-29.0063,Q,Q
2023-03-15 15:46:59:762,0,-7.86925,-6.12425,-29.0104,Q,Q
2023-03-15 15:46:59:772,0,-7.87127,-6.12327,-29.019,Q,Q
2023-03-15 15:46:59:782,0,-7.87094,-6.11897,-29.0269,Q,Q
2023-03-15 15:46:59:792,0,-7.86733,-6.10922,-29.0375,Q,Q
2023-03-15 15:46:59:802,0,-7.86157,-6.10073,-29.0478,Q,Q
2023-03-15 15:46:59:812,0,-7.85091,-6.09819,-29.0548,Q,Q
2023-03-15 15:46:59:822,0,-7.83974,-6.0924,-29.0619,Q,Q
2023-03-15 15:46:59:832,0,-7.82507,-6.08599,-29.0688,Q,Q
2023-03-15 15:46:59:842,0,-7.8132,-6.08364,-29.0723,Q,Q
2023-03-15 15:46:59:852,0,-7.80585,-6.07689,-29.0723,Q,Q
2023-03-15 15:46:59:862,0,-7.79597,-6.07347,-29.0743,Q,Q
2023-03-15 15:46:59:872,0,-7.78832,-6.07267,-29.0752,Q,Q
2023-03-15 15:46:59:882,0,-7.78474,-6.07931,-29.0704,Q,Q
2023-03-15 15:46:59:892,0,-7.78706,-6.08868,-29.0682,Q,Q
2023-03-15 15:46:59:902,0,-7.7902,-6.09368,-29.0678,Q,Q
2023-03-15 15:46:59:912,0,-7.78597,-6.09539,-29.0749,Q,Q
2023-03-15 15:46:59:922,0,-7.78015,-6.10199,-29.0777,Q,Q
2023-03-15 15:46:59:932,0,-7.77385,-6.1124,-29.0792,Q,Q
2023-03-15 15:46:59:942,0,-7.76284,-6.12298,-29.0819,Q,Q
2023-03-15 15:46:59:952,0,-7.74484,-6.13909,-29.0788,Q,Q
2023-03-15 15:46:59:962,0,-7.72743,-6.15788,-29.0688,Q,Q
2023-03-15 15:46:59:972,0,-7.71208,-6.18674,-29.0549,Q,Q
2023-03-15 15:46:59:982,0,-7.69797,-6.21203,-29.0407,Q,Q
2023-03-15 15:46:59:992,0,-7.68495,-6.23446,-29.0229,Q,Q
2023-03-15 15:47:00:2,0,-7.67225,-6.2551,-29.0039,Q,Q
2023-03-15 15:47:00:12,0,-7.66464,-6.27104,-28.9815,Q,Q
2023-03-15 15:47:00:22,0,-7.65741,-6.28248,-28.9593,Q,Q
2023-03-15 15:47:00:32,0,-7.65376,-6.29257,-28.9387,Q,Q
2023-03-15 15:47:00:42,0,-7.64917,-6.30031,-28.9215,Q,Q
2023-03-15 15:47:00:52,0,-7.64593,-6.30862,-28.9093,Q,Q
2023-03-15 15:47:00:62,0,-7.64453,-6.30523,-28.9013,Q,Q
2023-03-15 15:47:00:72,0,-7.64181,-6.30764,-28.898,Q,Q
2023-03-15 15:47:00:82,0,-7.64125,-6.30527,-28.8985,Q,Q
2023-03-15 15:47:00:92,0,-7.64191,-6.30246,-28.904,Q,Q
2023-03-15 15:47:00:102,0,-7.64344,-6.29967,-28.9142,Q,Q
2023-03-15 15:47:00:112,0,-7.64592,-6.29877,-28.9281,Q,Q
2023-03-15 15:47:00:122,0,-7.64927,-6.29355,-28.9445,Q,Q
2023-03-15 15:47:00:132,0,-7.65015,-6.28969,-28.9572,Q,Q
2023-03-15 15:47:00:142,0,-7.6544,-6.28433,-28.9725,Q,Q
2023-03-15 15:47:00:152,0,-7.65724,-6.28066,-28.982,Q,Q
2023-03-15 15:47:00:162,0,-7.66076,-6.27498,-28.9911,Q,Q
2023-03-15 15:47:00:172,0,-7.65976,-6.26936,-29.0015,Q,Q
2023-03-15 15:47:00:182,0,-7.65731,-6.2638,-29.0076,Q,Q
2023-03-15 15:47:00:192,0,-7.64576,-6.26275,-29.0088,Q,Q
2023-03-15 15:47:00:202,0,-7.63336,-6.26453,-29.0077,Q,Q
2023-03-15 15:47:00:212,0,-7.61822,-6.2674,-29.0043,Q,Q
2023-03-15 15:47:00:222,0,-7.60088,-6.26956,-28.999,Q,Q
2023-03-15 15:47:00:232,0,-7.58599,-6.27385,-28.9933,Q,Q
2023-03-15 15:47:00:242,0,-7.5706,-6.27791,-28.9855,Q,Q
2023-03-15 15:47:00:252,0,-7.55379,-6.28486,-28.9763,Q,Q
2023-03-15 15:47:00:262,0,-7.54387,-6.28713,-28.9668,Q,Q
2023-03-15 15:47:00:272,0,-7.53316,-6.2912,-28.9623,Q,Q
2023-03-15 15:47:00:282,0,-7.52154,-6.29963,-28.9539,Q,Q
2023-03-15 15:47:00:292,0,-7.51161,-6.31014,-28.9472,Q,Q
2023-03-15 15:47:00:302,0,-7.50366,-6.32049,-28.9392,Q,Q
2023-03-15 15:47:00:312,0,-7.4985,-6.33031,-28.9311,Q,Q
2023-03-15 15:47:00:322,0,-7.49568,-6.33888,-28.9237,Q,Q
2023-03-15 15:47:00:332,0,-7.49285,-6.34757,-28.9142,Q,Q
2023-03-15 15:47:00:342,0,-7.4876,-6.35665,-28.9087,Q,Q
2023-03-15 15:47:00:352,0,-7.48616,-6.36173,-28.9026,Q,Q
2023-03-15 15:47:00:362,0,-7.48833,-6.36655,-28.8963,Q,Q
2023-03-15 15:47:00:372,0,-7.49211,-6.37281,-28.8862,Q,Q
2023-03-15 15:47:00:382,0,-7.49553,-6.38062,-28.8798,Q,Q
2023-03-15 15:47:00:392,0,-7.50091,-6.38781,-28.872,Q,Q
2023-03-15 15:47:00:402,0,-7.50833,-6.3962,-28.8629,Q,Q
2023-03-15 15:47:00:412,0,-7.51397,-6.40005,-28.8553,Q,Q
2023-03-15 15:47:00:422,0,-7.52265,-6.40398,-28.8473,Q,Q
2023-03-15 15:47:00:432,0,-7.53275,-6.40893,-28.8446,Q,Q
2023-03-15 15:47:00:442,0,-7.5392,-6.4125,-28.8407,Q,Q
2023-03-15 15:47:00:452,0,-7.54389,-6.4147,-28.8406,Q,Q
2023-03-15 15:47:00:462,0,-7.5477,-6.41494,-28.8391,Q,Q
2023-03-15 15:47:00:472,0,-7.55091,-6.41301,-28.8401,Q,Q
2023-03-15 15:47:00:482,0,-7.55156,-6.41471,-28.8372,Q,Q
2023-03-15 15:47:00:492,0,-7.55043,-6.41399,-28.8376,Q,Q
2023-03-15 15:47:00:502,0,-7.54616,-6.41135,-28.8373,Q,Q
2023-03-15 15:47:00:512,0,-7.53836,-6.40933,-28.8388,Q,Q
2023-03-15 15:47:00:522,0,-7.53201,-6.40515,-28.838,Q,Q
2023-03-15 15:47:00:532,0,-7.52569,-6.40053,-28.8329,Q,Q
2023-03-15 15:47:00:542,0,-7.52043,-6.39896,-28.8269,Q,Q
2023-03-15 15:47:00:552,0,-7.512,-6.39549,-28.8238,Q,Q
2023-03-15 15:47:00:562,0,-7.51011,-6.39025,-28.8191,Q,Q
2023-03-15 15:47:00:572,0,-7.50753,-6.38732,-28.8106,Q,Q
2023-03-15 15:47:00:582,0,-7.50491,-6.38337,-28.8049,Q,Q
2023-03-15 15:47:00:592,0,-7.50259,-6.37882,-28.7957,Q,Q
2023-03-15 15:47:00:602,0,-7.50114,-6.37353,-28.7891,Q,Q
2023-03-15 15:47:00:612,0,-7.5014,-6.37366,-28.785,Q,Q
2023-03-15 15:47:00:622,0,-7.50249,-6.37517,-28.7816,Q,Q
2023-03-15 15:47:00:632,0,-7.50346,-6.37479,-28.7773,Q,Q
2023-03-15 15:47:00:642,0,-7.50344,-6.3776,-28.7719,Q,Q
2023-03-15 15:47:00:652,0,-7.50778,-6.3793,-28.7658,Q,Q
2023-03-15 15:47:00:662,0,-7.51126,-6.38368,-28.7596,Q,Q
2023-03-15 15:47:00:672,0,-7.51227,-6.39061,-28.7507,Q,Q
2023-03-15 15:47:00:682,0,-7.5147,-6.40085,-28.7457,Q,Q
2023-03-15 15:47:00:692,0,-7.50886,-6.41054,-28.7399,Q,Q
2023-03-15 15:47:00:702,0,-7.50507,-6.43133,-28.7289,Q,Q
2023-03-15 15:47:00:712,0,-7.50427,-6.45306,-28.7183,Q,Q
2023-03-15 15:47:00:722,0,-7.51146,-6.47197,-28.7037,Q,Q
2023-03-15 15:47:00:732,0,-7.51731,-6.48926,-28.6906,Q,Q
2023-03-15 15:47:00:742,0,-7.52357,-6.50641,-28.6772,Q,Q
2023-03-15 15:47:00:752,0,-7.52679,-6.5219,-28.6636,Q,Q
2023-03-15 15:47:00:762,0,-7.52771,-6.53275,-28.6504,Q,Q
2023-03-15 15:47:00:772,0,-7.52452,-6.54121,-28.6409,Q,Q
2023-03-15 15:47:00:782,0,-7.52005,-6.55088,-28.6354,Q,Q
2023-03-15 15:47:00:792,0,-7.50891,-6.56152,-28.6357,Q,Q
2023-03-15 15:47:00:802,0,-7.49762,-6.56566,-28.6335,Q,Q
2023-03-15 15:47:00:812,0,-7.48321,-6.57262,-28.6334,Q,Q
2023-03-15 15:47:00:822,0,-7.46741,-6.57933,-28.6379,Q,Q
2023-03-15 15:47:00:832,0,-7.45501,-6.58684,-28.645,Q,Q
2023-03-15 15:47:00:842,0,-7.44123,-6.5935,-28.6531,Q,Q
2023-03-15 15:47:00:852,0,-7.42955,-6.59947,-28.662,Q,Q
2023-03-15 15:47:00:862,0,-7.41793,-6.60499,-28.67,Q,Q
2023-03-15 15:47:00:872,0,-7.4094,-6.61156,-28.6731,Q,Q
2023-03-15 15:47:00:882,0,-7.40442,-6.61521,-28.671,Q,Q
2023-03-15 15:47:00:892,0,-7.39955,-6.61777,-28.6675,Q,Q
2023-03-15 15:47:00:902,0,-7.39708,-6.62229,-28.6628,Q,Q
2023-03-15 15:47:00:912,0,-7.39077,-6.62377,-28.6567,Q,Q
2023-03-15 15:47:00:922,0,-7.38152,-6.62547,-28.6463,Q,Q
2023-03-15 15:47:00:932,0,-7.36903,-6.63289,-28.6342,Q,Q
2023-03-15 15:47:00:942,0,-7.35614,-6.64192,-28.624,Q,Q
2023-03-15 15:47:00:952,0,-7.34273,-6.64886,-28.6098,Q,Q
2023-03-15 15:47:00:962,0,-7.32936,-6.66046,-28.6017,Q,Q
2023-03-15 15:47:00:972,0,-7.31673,-6.67024,-28.5902,Q,Q
2023-03-15 15:47:00:982,0,-7.30437,-6.68036,-28.582,Q,Q
2023-03-15 15:47:00:992,0,-7.29457,-6.6895,-28.5698,Q,Q
2023-03-15 15:47:01:2,0,-7.28932,-6.69584,-28.5608,Q,Q
2023-03-15 15:47:01:12,0,-7.28346,-6.70325,-28.5544,Q,Q
2023-03-15 15:47:01:22,0,-7.27967,-6.71498,-28.547,Q,Q
2023-03-15 15:47:01:32,0,-7.27807,-6.72378,-28.5405,Q,Q
2023-03-15 15:47:01:42,0,-7.27586,-6.73366,-28.5378,Q,Q
2023-03-15 15:47:01:52,0,-7.27168,-6.74146,-28.5341,Q,Q
2023-03-15 15:47:01:62,0,-7.26733,-6.74991,-28.5318,Q,Q
2023-03-15 15:47:01:72,0,-7.26273,-6.75755,-28.5283,Q,Q
2023-03-15 15:47:01:82,0,-7.26011,-6.76295,-28.5308,Q,Q
2023-03-15 15:47:01:92,0,-7.25836,-6.76509,-28.5289,Q,Q
2023-03-15 15:47:01:102,0,-7.25823,-6.76881,-28.5261,Q,Q
2023-03-15 15:47:01:112,0,-7.25901,-6.77216,-28.5218,Q,Q
2023-03-15 15:47:01:122,0,-7.259,-6.77324,-28.515,Q,Q
2023-03-15 15:47:01:132,0,-7.26019,-6.77395,-28.512,Q,Q
2023-03-15 15:47:01:142,0,-7.26385,-6.77194,-28.5075,Q,Q
2023-03-15 15:47:01:152,0,-7.26856,-6.77071,-28.5034,Q,Q
2023-03-15 15:47:01:162,0,-7.27257,-6.76675,-28.5018,Q,Q
2023-03-15 15:47:01:172,0,-7.28044,-6.75979,-28.5031,Q,Q
2023-03-15 15:47:01:182,0,-7.28546,-6.75564,-28.503,Q,Q
2023-03-15 15:47:01:192,0,-7.29287,-6.74747,-28.5061,Q,Q
2023-03-15 15:47:01:202,0,-7.30017,-6.7396,-28.5129,Q,Q
2023-03-15 15:47:01:212,0,-7.30314,-6.73294,-28.5205,Q,Q
2023-03-15 15:47:01:222,0,-7.30823,-6.72705,-28.5349,Q,Q
2023-03-15 15:47:01:232,0,-7.31387,-6.71955,-28.5503,Q,Q
2023-03-15 15:47:01:242,0,-7.32399,-6.71161,-28.5655,Q,Q
2023-03-15 15:47:01:252,0,-7.3279,-6.706,-28.5821,Q,Q
2023-03-15 15:47:01:262,0,-7.33085,-6.69844,-28.5974,Q,Q
2023-03-15 15:47:01:272,0,-7.33538,-6.69123,-28.6122,Q,Q
2023-03-15 15:47:01:282,0,-7.33806,-6.68543,-28.6248,Q,Q
2023-03-15 15:47:01:292,0,-7.34355,-6.67708,-28.6404,Q,Q
2023-03-15 15:47:01:302,0,-7.34803,-6.66827,-28.6559,Q,Q
2023-03-15 15:47:01:312,0,-7.3515,-6.65718,-28.6646,Q,Q
2023-03-15 15:47:01:322,0,-7.35325,-6.64901,-28.6716,Q,Q
2023-03-15 15:47:01:332,0,-7.35053,-6.64116,-28.68,Q,Q
2023-03-15 15:47:01:342,0,-7.34562,-6.63325,-28.6827,Q,Q
2023-03-15 15:47:01:352,0,-7.34085,-6.62597,-28.686,Q,Q
2023-03-15 15:47:01:362,0,-7.33702,-6.61603,-28.6876,Q,Q
2023-03-15 15:47:01:372,0,-7.33373,-6.60701,-28.6887,Q,Q
2023-03-15 15:47:01:382,0,-7.32433,-6.59784,-28.692,Q,Q
2023-03-15 15:47:01:392,0,-7.31859,-6.5931,-28.6923,Q,Q
2023-03-15 15:47:01:402,0,-7.31313,-6.59421,-28.6918,Q,Q
2023-03-15 15:47:01:412,0,-7.30663,-6.59445,-28.6936,Q,Q
2023-03-15 15:47:01:422,0,-7.30172,-6.59822,-28.6913,Q,Q
2023-03-15 15:47:01:432,0,-7.29385,-6.60066,-28.6897,Q,Q
2023-03-15 15:47:01:442,0,-7.2888,-6.60707,-28.6829,Q,Q
2023-03-15 15:47:01:452,0,-7.28802,-6.61864,-28.675,Q,Q
2023-03-15 15:47:01:462,0,-7.29304,-6.62472,-28.6674,Q,Q
2023-03-15 15:47:01:472,0,-7.30465,-6.63044,-28.6612,Q,Q
2023-03-15 15:47:01:482,0,-7.31972,-6.63644,-28.6572,Q,Q
2023-03-15 15:47:01:492,0,-7.335,-6.63307,-28.6503,Q,Q
2023-03-15 15:47:01:502,0,-7.34731,-6.63417,-28.6442,Q,Q
2023-03-15 15:47:01:512,0,-7.35681,-6.63493,-28.6437,Q,Q
2023-03-15 15:47:01:522,0,-7.36225,-6.63369,-28.6426,Q,Q
2023-03-15 15:47:01:532,0,-7.3647,-6.63363,-28.64,Q,Q
2023-03-15 15:47:01:542,0,-7.36453,-6.63163,-28.64,Q,Q
2023-03-15 15:47:01:552,0,-7.35914,-6.62744,-28.6458,Q,Q
2023-03-15 15:47:01:562,0,-7.35162,-6.61888,-28.6531,Q,Q
2023-03-15 15:47:01:572,0,-7.34111,-6.61225,-28.6607,Q,Q
2023-03-15 15:47:01:582,0,-7.33113,-6.60706,-28.6722,Q,Q
2023-03-15 15:47:01:592,0,-7.32715,-6.60166,-28.686,Q,Q
2023-03-15 15:47:01:602,0,-7.32092,-6.59403,-28.7028,Q,Q
2023-03-15 15:47:01:612,0,-7.31313,-6.58867,-28.7141,Q,Q
2023-03-15 15:47:01:622,0,-7.30571,-6.58257,-28.7247,Q,Q
2023-03-15 15:47:01:632,0,-7.29824,-6.57607,-28.7335,Q,Q
2023-03-15 15:47:01:642,0,-7.2908,-6.57054,-28.7422,Q,Q
2023-03-15 15:47:01:652,0,-7.28361,-6.56013,-28.7483,Q,Q
2023-03-15 15:47:01:662,0,-7.27314,-6.55391,-28.7557,Q,Q
2023-03-15 15:47:01:672,0,-7.25604,-6.55114,-28.7561,Q,Q
2023-03-15 15:47:01:682,0,-7.24045,-6.5468,-28.7513,Q,Q
2023-03-15 15:47:01:692,0,-7.22629,-6.54888,-28.75,Q,Q
2023-03-15 15:47:01:702,0,-7.20723,-6.54823,-28.7474,Q,Q
2023-03-15 15:47:01:712,0,-7.19105,-6.54836,-28.7387,Q,Q
2023-03-15 15:47:01:722,0,-7.18158,-6.54735,-28.7292,Q,Q
2023-03-15 15:47:01:732,0,-7.17305,-6.5503,-28.7145,Q,Q
2023-03-15 15:47:01:742,0,-7.17047,-6.55194,-28.7015,Q,Q
2023-03-15 15:47:01:752,0,-7.16594,-6.55274,-28.6906,Q,Q
2023-03-15 15:47:01:762,0,-7.16569,-6.54985,-28.6823,Q,Q
2023-03-15 15:47:01:772,0,-7.16464,-6.55154,-28.6708,Q,Q
2023-03-15 15:47:01:782,0,-7.16981,-6.55277,-28.6653,Q,Q
2023-03-15 15:47:01:792,0,-7.17309,-6.553,-28.6619,Q,Q
2023-03-15 15:47:01:802,0,-7.17696,-6.55259,-28.6591,Q,Q
2023-03-15 15:47:01:812,0,-7.1835,-6.55125,-28.6579,Q,Q
2023-03-15 15:47:01:822,0,-7.18706,-6.54978,-28.6628,Q,Q
2023-03-15 15:47:01:832,0,-7.19461,-6.5515,-28.6632,Q,Q
2023-03-15 15:47:01:842,0,-7.20005,-6.5488,-28.6702,Q,Q
2023-03-15 15:47:01:852,0,-7.20579,-6.54509,-28.6735,Q,Q
2023-03-15 15:47:01:862,0,-7.21298,-6.54113,-28.6731,Q,Q
2023-03-15 15:47:01:872,0,-7.21963,-6.53936,-28.6758,Q,Q
2023-03-15 15:47:01:882,0,-7.22453,-6.5351,-28.6803,Q,Q
2023-03-15 15:47:01:892,0,-7.23324,-6.52842,-28.6857,Q,Q
2023-03-15 15:47:01:902,0,-7.24237,-6.5217,-28.6873,Q,Q
2023-03-15 15:47:01:912,0,-7.25324,-6.51482,-28.6863,Q,Q
2023-03-15 15:47:01:922,0,-7.26315,-6.50464,-28.689,Q,Q
2023-03-15 15:47:01:932,0,-7.26935,-6.49356,-28.6887,Q,Q
2023-03-15 15:47:01:942,0,-7.27825,-6.4812,-28.6872,Q,Q
2023-03-15 15:47:01:952,0,-7.28562,-6.4705,-28.6889,Q,Q
2023-03-15 15:47:01:962,0,-7.29007,-6.45808,-28.6906,Q,Q
2023-03-15 15:47:01:972,0,-7.29697,-6.4481,-28.6909,Q,Q
2023-03-15 15:47:01:982,0,-7.30148,-6.43906,-28.6917,Q,Q
2023-03-15 15:47:01:992,0,-7.30635,-6.43199,-28.6915,Q,Q
2023-03-15 15:47:02:2,0,-7.31339,-6.42512,-28.6943,Q,Q
2023-03-15 15:47:02:12,0,-7.31899,-6.41969,-28.6972,Q,Q
2023-03-15 15:47:02:22,0,-7.32342,-6.41579,-28.7005,Q,Q
2023-03-15 15:47:02:32,0,-7.33051,-6.41025,-28.7006,Q,Q
2023-03-15 15:47:02:42,0,-7.3382,-6.40268,-28.7058,Q,Q
2023-03-15 15:47:02:52,0,-7.34896,-6.40111,-28.7091,Q,Q
2023-03-15 15:47:02:62,0,-7.35951,-6.39886,-28.7105,Q,Q
2023-03-15 15:47:02:72,0,-7.36954,-6.39502,-28.7124,Q,Q
2023-03-15 15:47:02:82,0,-7.37761,-6.3898,-28.7099,Q,Q
2023-03-15 15:47:02:92,0,-7.3872,-6.3871,-28.7122,Q,Q
2023-03-15 15:47:02:102,0,-7.39423,-6.38566,-28.7113,Q,Q
2023-03-15 15:47:02:112,0,-7.4045,-6.38296,-28.7131,Q,Q
2023-03-15 15:47:02:122,0,-7.41026,-6.3778,-28.714,Q,Q
2023-03-15 15:47:02:132,0,-7.41971,-6.37061,-28.714,Q,Q
2023-03-15 15:47:02:142,0,-7.42736,-6.36744,-28.7129,Q,Q
2023-03-15 15:47:02:152,0,-7.43208,-6.36405,-28.7134,Q,Q
2023-03-15 15:47:02:162,0,-7.43679,-6.36616,-28.7187,Q,Q
2023-03-15 15:47:02:172,0,-7.43586,-6.37284,-28.7168,Q,Q
2023-03-15 15:47:02:182,0,-7.43658,-6.37951,-28.7134,Q,Q
2023-03-15 15:47:02:192,0,-7.43753,-6.39357,-28.7072,Q,Q
2023-03-15 15:47:02:202,0,-7.44361,-6.41041,-28.6993,Q,Q
2023-03-15 15:47:02:212,0,-7.44873,-6.42523,-28.6922,Q,Q
2023-03-15 15:47:02:222,0,-7.46199,-6.43456,-28.6844,Q,Q
2023-03-15 15:47:02:232,0,-7.47433,-6.43998,-28.6744,Q,Q
2023-03-15 15:47:02:242,0,-7.48712,-6.44218,-28.6671,Q,Q
2023-03-15 15:47:02:252,0,-7.50501,-6.4411,-28.6564,Q,Q
2023-03-15 15:47:02:262,0,-7.52352,-6.4415,-28.6483,Q,Q
2023-03-15 15:47:02:272,0,-7.53815,-6.43948,-28.6403,Q,Q
2023-03-15 15:47:02:282,0,-7.55055,-6.43503,-28.6336,Q,Q
2023-03-15 15:47:02:292,0,-7.56161,-6.42802,-28.633,Q,Q
2023-03-15 15:47:02:302,0,-7.56865,-6.42159,-28.6351,Q,Q
2023-03-15 15:47:02:312,0,-7.57245,-6.41897,-28.6413,Q,Q
2023-03-15 15:47:02:322,0,-7.57446,-6.41197,-28.6511,Q,Q
2023-03-15 15:47:02:332,0,-7.58116,-6.40365,-28.6631,Q,Q
2023-03-15 15:47:02:342,0,-7.58888,-6.39518,-28.6799,Q,Q
2023-03-15 15:47:02:352,0,-7.59975,-6.38877,-28.6969,Q,Q
2023-03-15 15:47:02:362,0,-7.60403,-6.38569,-28.7127,Q,Q
2023-03-15 15:47:02:372,0,-7.61466,-6.37997,-28.7252,Q,Q
2023-03-15 15:47:02:382,0,-7.61874,-6.37719,-28.7369,Q,Q
2023-03-15 15:47:02:392,0,-7.62305,-6.36823,-28.7439,Q,Q
2023-03-15 15:47:02:402,0,-7.62134,-6.36391,-28.7496,Q,Q
2023-03-15 15:47:02:412,0,-7.61656,-6.35901,-28.7489,Q,Q
2023-03-15 15:47:02:422,0,-7.60926,-6.35816,-28.7487,Q,Q
2023-03-15 15:47:02:432,0,-7.59934,-6.35909,-28.7451,Q,Q
2023-03-15 15:47:02:442,0,-7.59088,-6.35985,-28.7387,Q,Q
2023-03-15 15:47:02:452,0,-7.58197,-6.36127,-28.7349,Q,Q
2023-03-15 15:47:02:462,0,-7.56419,-6.35876,-28.7325,Q,Q
2023-03-15 15:47:02:472,0,-7.55065,-6.36117,-28.7298,Q,Q
2023-03-15 15:47:02:482,0,-7.54154,-6.36018,-28.7194,Q,Q
2023-03-15 15:47:02:492,0,-7.53549,-6.3599,-28.7121,Q,Q
2023-03-15 15:47:02:502,0,-7.52978,-6.36014,-28.7051,Q,Q
2023-03-15 15:47:02:512,0,-7.5245,-6.36441,-28.7003,Q,Q
2023-03-15 15:47:02:522,0,-7.52229,-6.36725,-28.697,Q,Q
2023-03-15 15:47:02:532,0,-7.52044,-6.36904,-28.6967,Q,Q
2023-03-15 15:47:02:542,0,-7.51956,-6.37182,-28.6952,Q,Q
2023-03-15 15:47:02:552,0,-7.52046,-6.37862,-28.6955,Q,Q
2023-03-15 15:47:02:562,0,-7.52037,-6.3821,-28.6983,Q,Q
2023-03-15 15:47:02:572,0,-7.52366,-6.38351,-28.7005,Q,Q
2023-03-15 15:47:02:582,0,-7.52246,-6.38882,-28.7001,Q,Q
2023-03-15 15:47:02:592,0,-7.52128,-6.39181,-28.6981,Q,Q
2023-03-15 15:47:02:602,0,-7.52219,-6.39482,-28.7011,Q,Q
2023-03-15 15:47:02:612,0,-7.52364,-6.40099,-28.7004,Q,Q
2023-03-15 15:47:02:622,0,-7.52757,-6.40006,-28.7007,Q,Q
2023-03-15 15:47:02:632,0,-7.53226,-6.39966,-28.7022,Q,Q
2023-03-15 15:47:02:642,0,-7.53999,-6.39664,-28.7022,Q,Q
2023-03-15 15:47:02:652,0,-7.54869,-6.39255,-28.7003,Q,Q
2023-03-15 15:47:02:662,0,-7.55741,-6.39021,-28.7024,Q,Q
2023-03-15 15:47:02:672,0,-7.56064,-6.38383,-28.7042,Q,Q
2023-03-15 15:47:02:682,0,-7.565,-6.37873,-28.7088,Q,Q
2023-03-15 15:47:02:692,0,-7.56644,-6.37248,-28.7145,Q,Q
2023-03-15 15:47:02:702,0,-7.56542,-6.36462,-28.719,Q,Q
2023-03-15 15:47:02:712,0,-7.56394,-6.35727,-28.728,Q,Q
2023-03-15 15:47:02:722,0,-7.56708,-6.34918,-28.7344,Q,Q
2023-03-15 15:47:02:732,0,-7.56852,-6.34343,-28.741,Q,Q
2023-03-15 15:47:02:742,0,-7.56825,-6.33551,-28.7476,Q,Q
2023-03-15 15:47:02:752,0,-7.56963,-6.32594,-28.7506,Q,Q
2023-03-15 15:47:02:762,0,-7.57806,-6.31904,-28.7525,Q,Q
2023-03-15 15:47:02:772,0,-7.58362,-6.30929,-28.7582,Q,Q
2023-03-15 15:47:02:782,0,-7.58545,-6.30215,-28.7611,Q,Q
2023-03-15 15:47:02:792,0,-7.58632,-6.29672,-28.7612,Q,Q
2023-03-15 15:47:02:802,0,-7.5847,-6.29146,-28.76,Q,Q
2023-03-15 15:47:02:812,0,-7.58591,-6.28346,-28.7561,Q,Q
2023-03-15 15:47:02:822,0,-7.58569,-6.27821,-28.7467,Q,Q
2023-03-15 15:47:02:832,0,-7.57984,-6.27644,-28.7428,Q,Q
2023-03-15 15:47:02:842,0,-7.57325,-6.27644,-28.7381,Q,Q
2023-03-15 15:47:02:852,0,-7.56146,-6.27213,-28.737,Q,Q
2023-03-15 15:47:02:862,0,-7.54937,-6.27155,-28.7349,Q,Q
2023-03-15 15:47:02:872,0,-7.5386,-6.26919,-28.7319,Q,Q
2023-03-15 15:47:02:882,0,-7.52639,-6.27055,-28.73,Q,Q
2023-03-15 15:47:02:892,0,-7.5169,-6.27141,-28.7284,Q,Q
2023-03-15 15:47:02:902,0,-7.50598,-6.27498,-28.7279,Q,Q
2023-03-15 15:47:02:912,0,-7.49732,-6.27709,-28.7249,Q,Q
2023-03-15 15:47:02:922,0,-7.48584,-6.28489,-28.719,Q,Q
2023-03-15 15:47:02:932,0,-7.47388,-6.30037,-28.7065,Q,Q
2023-03-15 15:47:02:942,0,-7.46398,-6.31455,-28.6915,Q,Q
2023-03-15 15:47:02:952,0,-7.45232,-6.32972,-28.6764,Q,Q
2023-03-15 15:47:02:962,0,-7.4469,-6.33966,-28.6615,Q,Q
2023-03-15 15:47:02:972,0,-7.44946,-6.34546,-28.6429,Q,Q
2023-03-15 15:47:02:982,0,-7.45442,-6.34658,-28.6253,Q,Q
2023-03-15 15:47:02:992,0,-7.46225,-6.346,-28.6069,Q,Q
2023-03-15 15:47:03:2,0,-7.47276,-6.34337,-28.5914,Q,Q
2023-03-15 15:47:03:12,0,-7.48028,-6.34105,-28.5823,Q,Q
2023-03-15 15:47:03:22,0,-7.48868,-6.33826,-28.5783,Q,Q
2023-03-15 15:47:03:32,0,-7.49012,-6.3312,-28.5773,Q,Q
2023-03-15 15:47:03:42,0,-7.48859,-6.32238,-28.58,Q,Q
2023-03-15 15:47:03:52,0,-7.48736,-6.31432,-28.5838,Q,Q
2023-03-15 15:47:03:62,0,-7.48433,-6.30913,-28.5876,Q,Q
2023-03-15 15:47:03:72,0,-7.48572,-6.30569,-28.5939,Q,Q
2023-03-15 15:47:03:82,0,-7.48955,-6.30275,-28.6029,Q,Q
2023-03-15 15:47:03:92,0,-7.49209,-6.30037,-28.6138,Q,Q
2023-03-15 15:47:03:102,0,-7.49729,-6.29689,-28.6216,Q,Q
2023-03-15 15:47:03:112,0,-7.49923,-6.29754,-28.6271,Q,Q
2023-03-15 15:47:03:122,0,-7.50299,-6.29286,-28.6353,Q,Q
2023-03-15 15:47:03:132,0,-7.50681,-6.28764,-28.6417,Q,Q
2023-03-15 15:47:03:142,0,-7.50844,-6.28397,-28.642,Q,Q
2023-03-15 15:47:03:152,0,-7.50749,-6.28356,-28.6463,Q,Q
2023-03-15 15:47:03:162,0,-7.5024,-6.28672,-28.642,Q,Q
2023-03-15 15:47:03:172,0,-7.49843,-6.2909,-28.6336,Q,Q
2023-03-15 15:47:03:182,0,-7.49604,-6.29256,-28.6238,Q,Q
2023-03-15 15:47:03:192,0,-7.49487,-6.29659,-28.611,Q,Q
2023-03-15 15:47:03:202,0,-7.49404,-6.29825,-28.5998,Q,Q
2023-03-15 15:47:03:212,0,-7.48916,-6.30178,-28.5874,Q,Q
2023-03-15 15:47:03:222,0,-7.48786,-6.30887,-28.5777,Q,Q
2023-03-15 15:47:03:232,0,-7.49238,-6.31296,-28.5635,Q,Q
2023-03-15 15:47:03:242,0,-7.49731,-6.31932,-28.5526,Q,Q
2023-03-15 15:47:03:252,0,-7.50664,-6.32848,-28.5463,Q,Q
2023-03-15 15:47:03:262,0,-7.51646,-6.3372,-28.5395,Q,Q
2023-03-15 15:47:03:272,0,-7.52499,-6.34945,-28.5383,Q,Q
2023-03-15 15:47:03:282,0,-7.53225,-6.35985,-28.539,Q,Q
2023-03-15 15:47:03:292,0,-7.53968,-6.37074,-28.5414,Q,Q
2023-03-15 15:47:03:302,0,-7.5463,-6.38035,-28.5458,Q,Q
2023-03-15 15:47:03:312,0,-7.555,-6.39328,-28.5461,Q,Q
2023-03-15 15:47:03:322,0,-7.56036,-6.40755,-28.5448,Q,Q
2023-03-15 15:47:03:332,0,-7.56312,-6.41832,-28.5452,Q,Q
2023-03-15 15:47:03:342,0,-7.56289,-6.4305,-28.5479,Q,Q
2023-03-15 15:47:03:352,0,-7.56269,-6.44028,-28.5467,Q,Q
2023-03-15 15:47:03:362,0,-7.56213,-6.44823,-28.5471,Q,Q
2023-03-15 15:47:03:372,0,-7.55899,-6.45593,-28.5438,Q,Q
2023-03-15 15:47:03:382,0,-7.55775,-6.46028,-28.5457,Q,Q
2023-03-15 15:47:03:392,0,-7.55142,-6.46512,-28.5484,Q,Q
2023-03-15 15:47:03:402,0,-7.54718,-6.46797,-28.5461,Q,Q
2023-03-15 15:47:03:412,0,-7.53587,-6.4683,-28.5465,Q,Q
2023-03-15 15:47:03:422,0,-7.52195,-6.4699,-28.5456,Q,Q
2023-03-15 15:47:03:432,0,-7.50686,-6.46953,-28.5486,Q,Q
2023-03-15 15:47:03:442,0,-7.49211,-6.47078,-28.556,Q,Q
2023-03-15 15:47:03:452,0,-7.4753,-6.46748,-28.5602,Q,Q
2023-03-15 15:47:03:462,0,-7.45406,-6.46553,-28.5675,Q,Q
2023-03-15 15:47:03:472,0,-7.43203,-6.46309,-28.5742,Q,Q
2023-03-15 15:47:03:482,0,-7.40575,-6.46174,-28.5836,Q,Q
2023-03-15 15:47:03:492,0,-7.3841,-6.46534,-28.5916,Q,Q
2023-03-15 15:47:03:502,0,-7.37074,-6.46519,-28.5987,Q,Q
2023-03-15 15:47:03:512,0,-7.3619,-6.46432,-28.6038,Q,Q
2023-03-15 15:47:03:522,0,-7.35331,-6.46698,-28.6058,Q,Q
2023-03-15 15:47:03:532,0,-7.34502,-6.46773,-28.6083,Q,Q
2023-03-15 15:47:03:542,0,-7.33656,-6.47149,-28.607,Q,Q
2023-03-15 15:47:03:552,0,-7.33205,-6.47195,-28.6031,Q,Q
2023-03-15 15:47:03:562,0,-7.3252,-6.4731,-28.5967,Q,Q
2023-03-15 15:47:03:572,0,-7.31723,-6.47575,-28.5916,Q,Q
2023-03-15 15:47:03:582,0,-7.30895,-6.47886,-28.5831,Q,Q
2023-03-15 15:47:03:592,0,-7.3045,-6.48215,-28.5761,Q,Q
2023-03-15 15:47:03:602,0,-7.29925,-6.4873,-28.5739,Q,Q
2023-03-15 15:47:03:612,0,-7.29501,-6.49239,-28.5655,Q,Q
2023-03-15 15:47:03:622,0,-7.29005,-6.50207,-28.5571,Q,Q
2023-03-15 15:47:03:632,0,-7.28677,-6.51094,-28.5505,Q,Q
2023-03-15 15:47:03:642,0,-7.2864,-6.5192,-28.5405,Q,Q
2023-03-15 15:47:03:652,0,-7.28156,-6.52925,-28.53,Q,Q
2023-03-15 15:47:03:662,0,-7.27533,-6.54172,-28.5202,Q,Q
2023-03-15 15:47:03:672,0,-7.27134,-6.55547,-28.51,Q,Q
2023-03-15 15:47:03:682,0,-7.268,-6.57128,-28.4952,Q,Q
2023-03-15 15:47:03:692,0,-7.26776,-6.58788,-28.4849,Q,Q
2023-03-15 15:47:03:702,0,-7.27248,-6.59671,-28.4781,Q,Q
2023-03-15 15:47:03:712,0,-7.28034,-6.60502,-28.4707,Q,Q
2023-03-15 15:47:03:722,0,-7.29073,-6.60539,-28.4634,Q,Q
2023-03-15 15:47:03:732,0,-7.30129,-6.60916,-28.459,Q,Q
2023-03-15 15:47:03:742,0,-7.31363,-6.6108,-28.4566,Q,Q
2023-03-15 15:47:03:752,0,-7.32548,-6.60634,-28.4555,Q,Q
2023-03-15 15:47:03:762,0,-7.33531,-6.60063,-28.4596,Q,Q
2023-03-15 15:47:03:772,0,-7.34289,-6.59502,-28.4653,Q,Q
2023-03-15 15:47:03:782,0,-7.34093,-6.58762,-28.4758,Q,Q
2023-03-15 15:47:03:792,0,-7.34416,-6.57953,-28.4865,Q,Q
2023-03-15 15:47:03:802,0,-7.34169,-6.569,-28.4996,Q,Q
2023-03-15 15:47:03:812,0,-7.34429,-6.56005,-28.5113,Q,Q
2023-03-15 15:47:03:822,0,-7.34758,-6.54853,-28.5246,Q,Q
2023-03-15 15:47:03:832,0,-7.34908,-6.54288,-28.5357,Q,Q
2023-03-15 15:47:03:842,0,-7.35446,-6.53573,-28.5456,Q,Q
2023-03-15 15:47:03:852,0,-7.36096,-6.52924,-28.5517,Q,Q
2023-03-15 15:47:03:862,0,-7.36692,-6.52128,-28.557,Q,Q
2023-03-15 15:47:03:872,0,-7.36991,-6.51347,-28.5635,Q,Q
2023-03-15 15:47:03:882,0,-7.37093,-6.50827,-28.565,Q,Q
2023-03-15 15:47:03:892,0,-7.36475,-6.50694,-28.5654,Q,Q
2023-03-15 15:47:03:902,0,-7.35549,-6.50856,-28.5605,Q,Q
2023-03-15 15:47:03:912,0,-7.34427,-6.5113,-28.5576,Q,Q
2023-03-15 15:47:03:922,0,-7.33985,-6.51245,-28.552,Q,Q
2023-03-15 15:47:03:932,0,-7.33041,-6.51025,-28.5447,Q,Q
2023-03-15 15:47:03:942,0,-7.31804,-6.51294,-28.5433,Q,Q
2023-03-15 15:47:03:952,0,-7.30211,-6.51629,-28.5405,Q,Q
2023-03-15 15:47:03:962,0,-7.28644,-6.51805,-28.535,Q,Q
2023-03-15 15:47:03:972,0,-7.27568,-6.51966,-28.5305,Q,Q
2023-03-15 15:47:03:982,0,-7.26361,-6.52061,-28.5296,Q,Q
2023-03-15 15:47:03:992,0,-7.25351,-6.52334,-28.5293,Q,Q
2023-03-15 15:47:04:2,0,-7.24227,-6.52453,-28.5304,Q,Q
2023-03-15 15:47:04:12,0,-7.23647,-6.52647,-28.53,Q,Q
2023-03-15 15:47:04:22,0,-7.23106,-6.52869,-28.529,Q,Q
2023-03-15 15:47:04:32,0,-7.22443,-6.52962,-28.5279,Q,Q
2023-03-15 15:47:04:42,0,-7.21684,-6.53237,-28.5279,Q,Q
2023-03-15 15:47:04:52,0,-7.21449,-6.53786,-28.5294,Q,Q
2023-03-15 15:47:04:62,0,-7.20946,-6.53797,-28.5318,Q,Q
2023-03-15 15:47:04:72,0,-7.20664,-6.5422,-28.5314,Q,Q
2023-03-15 15:47:04:82,0,-7.20461,-6.5447,-28.5259,Q,Q
2023-03-15 15:47:04:92,0,-7.20253,-6.54281,-28.5253,Q,Q
2023-03-15 15:47:04:102,0,-7.20111,-6.54338,-28.5195,Q,Q
2023-03-15 15:47:04:112,0,-7.19965,-6.54056,-28.5138,Q,Q
2023-03-15 15:47:04:122,0,-7.19955,-6.54052,-28.5085,Q,Q
2023-03-15 15:47:04:132,0,-7.2004,-6.53646,-28.5024,Q,Q
2023-03-15 15:47:04:142,0,-7.20319,-6.53327,-28.4968,Q,Q
2023-03-15 15:47:04:152,0,-7.20626,-6.53036,-28.4956,Q,Q
2023-03-15 15:47:04:162,0,-7.20817,-6.52824,-28.4933,Q,Q
2023-03-15 15:47:04:172,0,-7.20505,-6.52506,-28.4927,Q,Q
2023-03-15 15:47:04:182,0,-7.20175,-6.52081,-28.4916,Q,Q
2023-03-15 15:47:04:192,0,-7.20068,-6.51587,-28.4918,Q,Q
2023-03-15 15:47:04:202,0,-7.19886,-6.51078,-28.4911,Q,Q
2023-03-15 15:47:04:212,0,-7.19943,-6.5088,-28.4928,Q,Q
2023-03-15 15:47:04:222,0,-7.19629,-6.50392,-28.4928,Q,Q
2023-03-15 15:47:04:232,0,-7.19446,-6.49969,-28.4905,Q,Q
2023-03-15 15:47:04:242,0,-7.19554,-6.49554,-28.4911,Q,Q
2023-03-15 15:47:04:252,0,-7.19651,-6.49075,-28.4908,Q,Q
2023-03-15 15:47:04:262,0,-7.19745,-6.48532,-28.4888,Q,Q
2023-03-15 15:47:04:272,0,-7.19468,-6.47985,-28.4878,Q,Q
2023-03-15 15:47:04:282,0,-7.19021,-6.47613,-28.4864,Q,Q
2023-03-15 15:47:04:292,0,-7.18736,-6.47474,-28.4871,Q,Q
2023-03-15 15:47:04:302,0,-7.18683,-6.47644,-28.4891,Q,Q
2023-03-15 15:47:04:312,0,-7.18781,-6.47528,-28.4928,Q,Q
2023-03-15 15:47:04:322,0,-7.18654,-6.4771,-28.4948,Q,Q
2023-03-15 15:47:04:332,0,-7.19128,-6.47745,-28.4911,Q,Q
2023-03-15 15:47:04:342,0,-7.19527,-6.48057,-28.488,Q,Q
2023-03-15 15:47:04:352,0,-7.19985,-6.48341,-28.4832,Q,Q
2023-03-15 15:47:04:362,0,-7.20539,-6.49108,-28.4787,Q,Q
2023-03-15 15:47:04:372,0,-7.20987,-6.50059,-28.4716,Q,Q
2023-03-15 15:47:04:382,0,-7.21455,-6.5126,-28.4668,Q,Q
2023-03-15 15:47:04:392,0,-7.21484,-6.52904,-28.4611,Q,Q
2023-03-15 15:47:04:402,0,-7.21919,-6.54301,-28.4501,Q,Q
2023-03-15 15:47:04:412,0,-7.22374,-6.55673,-28.4418,Q,Q
2023-03-15 15:47:04:422,0,-7.23113,-6.56833,-28.4326,Q,Q
2023-03-15 15:47:04:432,0,-7.24044,-6.57745,-28.4233,Q,Q
2023-03-15 15:47:04:442,0,-7.25292,-6.58304,-28.4153,Q,Q
2023-03-15 15:47:04:452,0,-7.26371,-6.58665,-28.4096,Q,Q
2023-03-15 15:47:04:462,0,-7.27044,-6.58884,-28.4079,Q,Q
2023-03-15 15:47:04:472,0,-7.27512,-6.59027,-28.409,Q,Q
2023-03-15 15:47:04:482,0,-7.2754,-6.59035,-28.4125,Q,Q
2023-03-15 15:47:04:492,0,-7.27613,-6.5913,-28.4164,Q,Q
2023-03-15 15:47:04:502,0,-7.27433,-6.58947,-28.4196,Q,Q
2023-03-15 15:47:04:512,0,-7.27091,-6.58735,-28.4274,Q,Q
2023-03-15 15:47:04:522,0,-7.26798,-6.58382,-28.4361,Q,Q
2023-03-15 15:47:04:532,0,-7.2717,-6.5807,-28.4448,Q,Q
2023-03-15 15:47:04:542,0,-7.27447,-6.57811,-28.4499,Q,Q
2023-03-15 15:47:04:552,0,-7.27712,-6.57095,-28.4543,Q,Q
2023-03-15 15:47:04:562,0,-7.2803,-6.56424,-28.4596,Q,Q
2023-03-15 15:47:04:572,0,-7.283,-6.55591,-28.4653,Q,Q
2023-03-15 15:47:04:582,0,-7.28999,-6.5454,-28.4696,Q,Q
2023-03-15 15:47:04:592,0,-7.28891,-6.53566,-28.4714,Q,Q
2023-03-15 15:47:04:602,0,-7.28639,-6.53453,-28.4722,Q,Q
2023-03-15 15:47:04:612,0,-7.27712,-6.53702,-28.4692,Q,Q
2023-03-15 15:47:04:622,0,-7.2677,-6.53923,-28.4674,Q,Q
2023-03-15 15:47:04:632,0,-7.25901,-6.54009,-28.4663,Q,Q
2023-03-15 15:47:04:642,0,-7.24483,-6.53701,-28.4639,Q,Q
2023-03-15 15:47:04:652,0,-7.23355,-6.5373,-28.4637,Q,Q
2023-03-15 15:47:04:662,0,-7.22229,-6.53874,-28.4617,Q,Q
2023-03-15 15:47:04:672,0,-7.21036,-6.5389,-28.4615,Q,Q
2023-03-15 15:47:04:682,0,-7.20238,-6.53948,-28.4594,Q,Q
2023-03-15 15:47:04:692,0,-7.1918,-6.54352,-28.4561,Q,Q
2023-03-15 15:47:04:702,0,-7.18613,-6.54863,-28.4512,Q,Q
2023-03-15 15:47:04:712,0,-7.17975,-6.55475,-28.4518,Q,Q
2023-03-15 15:47:04:722,0,-7.17427,-6.55975,-28.4488,Q,Q
2023-03-15 15:47:04:732,0,-7.16559,-6.56739,-28.4482,Q,Q
2023-03-15 15:47:04:742,0,-7.15777,-6.57223,-28.4458,Q,Q
2023-03-15 15:47:04:752,0,-7.15836,-6.57907,-28.4391,Q,Q
2023-03-15 15:47:04:762,0,-7.1568,-6.58449,-28.4292,Q,Q
2023-03-15 15:47:04:772,0,-7.16015,-6.5872,-28.4212,Q,Q
2023-03-15 15:47:04:782,0,-7.1655,-6.5916,-28.4131,Q,Q
2023-03-15 15:47:04:792,0,-7.17067,-6.59623,-28.4007,Q,Q
2023-03-15 15:47:04:802,0,-7.17744,-6.60341,-28.3915,Q,Q
2023-03-15 15:47:04:812,0,-7.18047,-6.61141,-28.3793,Q,Q
2023-03-15 15:47:04:822,0,-7.1838,-6.61733,-28.3668,Q,Q
2023-03-15 15:47:04:832,0,-7.18686,-6.62132,-28.3578,Q,Q
2023-03-15 15:47:04:842,0,-7.19383,-6.62472,-28.3451,Q,Q
2023-03-15 15:47:04:852,0,-7.1968,-6.62577,-28.3358,Q,Q
2023-03-15 15:47:04:862,0,-7.19725,-6.62797,-28.3278,Q,Q
2023-03-15 15:47:04:872,0,-7.19904,-6.62689,-28.3217,Q,Q
2023-03-15 15:47:04:882,0,-7.19892,-6.62242,-28.3197,Q,Q
2023-03-15 15:47:04:892,0,-7.19731,-6.61883,-28.3176,Q,Q
2023-03-15 15:47:04:902,0,-7.19584,-6.61536,-28.3195,Q,Q
2023-03-15 15:47:04:912,0,-7.19419,-6.6106,-28.3199,Q,Q
2023-03-15 15:47:04:922,0,-7.19058,-6.6087,-28.3176,Q,Q
2023-03-15 15:47:04:932,0,-7.18742,-6.60767,-28.3231,Q,Q
2023-03-15 15:47:04:942,0,-7.18711,-6.60655,-28.3239,Q,Q
2023-03-15 15:47:04:952,0,-7.181,-6.60337,-28.3276,Q,Q
2023-03-15 15:47:04:962,0,-7.17502,-6.60245,-28.3248,Q,Q
2023-03-15 15:47:04:972,0,-7.17156,-6.5979,-28.3218,Q,Q
2023-03-15 15:47:04:982,0,-7.16525,-6.59793,-28.32,Q,Q
2023-03-15 15:47:04:992,0,-7.16028,-6.60048,-28.3125,Q,Q
2023-03-15 15:47:05:2,0,-7.1546,-6.60584,-28.3052,Q,Q
2023-03-15 15:47:05:12,0,-7.14783,-6.60743,-28.2964,Q,Q
2023-03-15 15:47:05:22,0,-7.14528,-6.61173,-28.2876,Q,Q
2023-03-15 15:47:05:32,0,-7.14171,-6.613,-28.2813,Q,Q
2023-03-15 15:47:05:42,0,-7.14218,-6.61359,-28.2704,Q,Q
2023-03-15 15:47:05:52,0,-7.14424,-6.61736,-28.2589,Q,Q
2023-03-15 15:47:05:62,0,-7.14711,-6.62324,-28.248,Q,Q
2023-03-15 15:47:05:72,0,-7.15163,-6.63221,-28.2379,Q,Q
2023-03-15 15:47:05:82,0,-7.15451,-6.63894,-28.2233,Q,Q
2023-03-15 15:47:05:92,0,-7.15563,-6.64724,-28.211,Q,Q
2023-03-15 15:47:05:102,0,-7.15907,-6.65865,-28.2,Q,Q
2023-03-15 15:47:05:112,0,-7.17463,-6.67023,-28.1884,Q,Q
2023-03-15 15:47:05:122,0,-7.18721,-6.68134,-28.1759,Q,Q
2023-03-15 15:47:05:132,0,-7.20211,-6.69011,-28.1659,Q,Q
2023-03-15 15:47:05:142,0,-7.21436,-6.69723,-28.159,Q,Q
2023-03-15 15:47:05:152,0,-7.22742,-6.703,-28.1527,Q,Q
2023-03-15 15:47:05:162,0,-7.2426,-6.70611,-28.1486,Q,Q
2023-03-15 15:47:05:172,0,-7.25768,-6.70509,-28.1501,Q,Q
2023-03-15 15:47:05:182,0,-7.2668,-6.70086,-28.1465,Q,Q
2023-03-15 15:47:05:192,0,-7.27354,-6.69823,-28.1475,Q,Q
2023-03-15 15:47:05:202,0,-7.28357,-6.6907,-28.1483,Q,Q
2023-03-15 15:47:05:212,0,-7.28361,-6.68224,-28.1525,Q,Q
2023-03-15 15:47:05:222,0,-7.28196,-6.67263,-28.158,Q,Q
2023-03-15 15:47:05:232,0,-7.2811,-6.66601,-28.1639,Q,Q
2023-03-15 15:47:05:242,0,-7.28366,-6.65597,-28.1716,Q,Q
2023-03-15 15:47:05:252,0,-7.28821,-6.6464,-28.1738,Q,Q
2023-03-15 15:47:05:262,0,-7.29201,-6.63867,-28.1775,Q,Q
2023-03-15 15:47:05:272,0,-7.29903,-6.63107,-28.1826,Q,Q
2023-03-15 15:47:05:282,0,-7.30218,-6.61918,-28.1878,Q,Q
2023-03-15 15:47:05:292,0,-7.30598,-6.60603,-28.1865,Q,Q
2023-03-15 15:47:05:302,0,-7.30423,-6.59761,-28.189,Q,Q
2023-03-15 15:47:05:312,0,-7.29838,-6.59259,-28.1873,Q,Q
2023-03-15 15:47:05:322,0,-7.29264,-6.59239,-28.1841,Q,Q
2023-03-15 15:47:05:332,0,-7.28645,-6.5908,-28.181,Q,Q
2023-03-15 15:47:05:342,0,-7.27492,-6.58975,-28.1805,Q,Q
2023-03-15 15:47:05:352,0,-7.26517,-6.58853,-28.1785,Q,Q
2023-03-15 15:47:05:362,0,-7.26059,-6.5874,-28.1756,Q,Q
2023-03-15 15:47:05:372,0,-7.25394,-6.58962,-28.1667,Q,Q
2023-03-15 15:47:05:382,0,-7.24492,-6.59125,-28.1603,Q,Q
2023-03-15 15:47:05:392,0,-7.24032,-6.59425,-28.1571,Q,Q
2023-03-15 15:47:05:402,0,-7.24163,-6.59374,-28.1509,Q,Q
2023-03-15 15:47:05:412,0,-7.23885,-6.59513,-28.1462,Q,Q
2023-03-15 15:47:05:422,0,-7.23582,-6.59304,-28.1435,Q,Q
2023-03-15 15:47:05:432,0,-7.23607,-6.59154,-28.1407,Q,Q
2023-03-15 15:47:05:442,0,-7.23576,-6.59069,-28.1402,Q,Q
2023-03-15 15:47:05:452,0,-7.23283,-6.58848,-28.1411,Q,Q
2023-03-15 15:47:05:462,0,-7.23109,-6.59056,-28.1436,Q,Q
2023-03-15 15:47:05:472,0,-7.2328,-6.59236,-28.1431,Q,Q
2023-03-15 15:47:05:482,0,-7.23692,-6.59246,-28.1423,Q,Q
2023-03-15 15:47:05:492,0,-7.24102,-6.59137,-28.1442,Q,Q
2023-03-15 15:47:05:502,0,-7.24385,-6.58916,-28.1458,Q,Q
2023-03-15 15:47:05:512,0,-7.24403,-6.58484,-28.1477,Q,Q
2023-03-15 15:47:05:522,0,-7.24529,-6.58321,-28.1509,Q,Q
2023-03-15 15:47:05:532,0,-7.2479,-6.58082,-28.1517,Q,Q
2023-03-15 15:47:05:542,0,-7.24764,-6.57722,-28.1477,Q,Q
2023-03-15 15:47:05:552,0,-7.24837,-6.57357,-28.1486,Q,Q
2023-03-15 15:47:05:562,0,-7.24386,-6.5647,-28.1495,Q,Q
2023-03-15 15:47:05:572,0,-7.24066,-6.55829,-28.1482,Q,Q
2023-03-15 15:47:05:582,0,-7.2403,-6.55062,-28.1502,Q,Q
2023-03-15 15:47:05:592,0,-7.23902,-6.54211,-28.1486,Q,Q
2023-03-15 15:47:05:602,0,-7.23851,-6.5337,-28.1488,Q,Q
2023-03-15 15:47:05:612,0,-7.23529,-6.52499,-28.151,Q,Q
2023-03-15 15:47:05:622,0,-7.2347,-6.51977,-28.1503,Q,Q
2023-03-15 15:47:05:632,0,-7.23714,-6.51285,-28.1556,Q,Q
2023-03-15 15:47:05:642,0,-7.23825,-6.5049,-28.1555,Q,Q
2023-03-15 15:47:05:652,0,-7.23856,-6.49562,-28.156,Q,Q
2023-03-15 15:47:05:662,0,-7.24165,-6.48724,-28.157,Q,Q
2023-03-15 15:47:05:672,0,-7.24394,-6.48017,-28.1557,Q,Q
2023-03-15 15:47:05:682,0,-7.24569,-6.47279,-28.1561,Q,Q
2023-03-15 15:47:05:692,0,-7.2459,-6.46934,-28.1565,Q,Q
2023-03-15 15:47:05:702,0,-7.24749,-6.46656,-28.1513,Q,Q
2023-03-15 15:47:05:712,0,-7.24692,-6.4614,-28.1477,Q,Q
2023-03-15 15:47:05:722,0,-7.24695,-6.45272,-28.1454,Q,Q
2023-03-15 15:47:05:732,0,-7.24489,-6.45155,-28.1445,Q,Q
2023-03-15 15:47:05:742,0,-7.24299,-6.45391,-28.1408,Q,Q
2023-03-15 15:47:05:752,0,-7.24445,-6.45209,-28.1368,Q,Q
2023-03-15 15:47:05:762,0,-7.24261,-6.45561,-28.1365,Q,Q
2023-03-15 15:47:05:772,0,-7.24209,-6.45693,-28.132,Q,Q
2023-03-15 15:47:05:782,0,-7.23782,-6.46159,-28.1294,Q,Q
2023-03-15 15:47:05:792,0,-7.23229,-6.47205,-28.1249,Q,Q
