Timestamp_cmd,imu_cmd,roll_delta,pitch_delta,yaw_delta
2023-03-10 23:49:29:273,0,0.620674,-7.67502,88.4279
2023-03-10 23:49:29:280,0,0.615781,-7.67373,88.3589
2023-03-10 23:49:29:290,0,0.612039,-7.6729,88.2899
2023-03-10 23:49:29:300,0,0.614667,-7.67266,88.2245
2023-03-10 23:49:29:310,0,0.61992,-7.67678,88.1654
2023-03-10 23:49:29:320,0,0.630863,-7.6855,88.1112
2023-03-10 23:49:29:331,0,0.641801,-7.6907,88.0702
2023-03-10 23:49:29:340,0,0.654811,-7.69835,88.0357
2023-03-10 23:49:29:350,0,0.666879,-7.69953,88.0098
2023-03-10 23:49:29:360,0,0.67801,-7.70143,87.9957
2023-03-10 23:49:29:370,0,0.694978,-7.7022,87.9921
2023-03-10 23:49:29:380,0,0.712229,-7.69951,87.9941
2023-03-10 23:49:29:391,0,0.732452,-7.69729,88.0039
2023-03-10 23:49:29:400,0,0.749121,-7.69915,88.0266
2023-03-10 23:49:29:410,0,0.763327,-7.69903,88.0565
2023-03-10 23:49:29:420,0,0.77603,-7.70444,88.09
2023-03-10 23:49:29:430,0,0.782545,-7.70867,88.1316
2023-03-10 23:49:29:440,0,0.787956,-7.7124,88.1702
2023-03-10 23:49:29:450,0,0.792373,-7.71371,88.2121
2023-03-10 23:49:29:460,0,0.797791,-7.71586,88.2475
2023-03-10 23:49:29:470,0,0.803335,-7.71395,88.2838
2023-03-10 23:49:29:480,0,0.807753,-7.71093,88.3167
2023-03-10 23:49:29:490,0,0.810942,-7.71205,88.3462
2023-03-10 23:49:29:500,0,0.809142,-7.71055,88.3759
2023-03-10 23:49:29:510,0,0.810409,-7.7133,88.3986
2023-03-10 23:49:29:520,0,0.816148,-7.71189,88.4162
2023-03-10 23:49:29:530,0,0.819897,-7.71369,88.433
2023-03-10 23:49:29:540,0,0.822348,-7.71352,88.4453
2023-03-10 23:49:29:550,0,0.817979,-7.71367,88.4595
2023-03-10 23:49:29:560,0,0.81187,-7.71482,88.4712
2023-03-10 23:49:29:570,0,0.804178,-7.7164,88.4857
2023-03-10 23:49:29:580,0,0.793324,-7.71844,88.4999
2023-03-10 23:49:29:590,0,0.784779,-7.71215,88.5119
2023-03-10 23:49:29:600,0,0.773512,-7.70905,88.5273
2023-03-10 23:49:29:610,0,0.755777,-7.70602,88.5471
2023-03-10 23:49:29:620,0,0.742058,-7.70929,88.5688
2023-03-10 23:49:29:630,0,0.733786,-7.70983,88.5868
2023-03-10 23:49:29:640,0,0.7255,-7.71219,88.6112
2023-03-10 23:49:29:650,0,0.718875,-7.7198,88.6327
2023-03-10 23:49:29:660,0,0.716896,-7.72607,88.657
2023-03-10 23:49:29:670,0,0.714244,-7.73554,88.6843
2023-03-10 23:49:29:680,0,0.713074,-7.74098,88.713
2023-03-10 23:49:29:690,0,0.711232,-7.7461,88.7356
2023-03-10 23:49:29:700,0,0.712485,-7.75111,88.7573
2023-03-10 23:49:29:710,0,0.714185,-7.7553,88.7702
2023-03-10 23:49:29:720,0,0.719798,-7.75767,88.7808
2023-03-10 23:49:29:730,0,0.71962,-7.76088,88.7872
2023-03-10 23:49:29:740,0,0.723342,-7.76144,88.7895
2023-03-10 23:49:29:750,0,0.733378,-7.76439,88.7926
2023-03-10 23:49:29:760,0,0.743371,-7.76859,88.7956
2023-03-10 23:49:29:770,0,0.753537,-7.77013,88.7978
2023-03-10 23:49:29:780,0,0.765456,-7.7667,88.801
2023-03-10 23:49:29:791,0,0.778709,-7.76481,88.799
2023-03-10 23:49:29:800,0,0.790127,-7.76016,88.8019
2023-03-10 23:49:29:810,0,0.796599,-7.76238,88.8084
2023-03-10 23:49:29:820,0,0.802811,-7.76674,88.8213
2023-03-10 23:49:29:830,0,0.804447,-7.77203,88.8408
2023-03-10 23:49:29:840,0,0.805839,-7.77766,88.8648
2023-03-10 23:49:29:850,0,0.8087,-7.78191,88.8857
2023-03-10 23:49:29:860,0,0.816198,-7.78513,88.9157
2023-03-10 23:49:29:870,0,0.822875,-7.78596,88.9397
2023-03-10 23:49:29:880,0,0.83342,-7.7852,88.9688
2023-03-10 23:49:29:890,0,0.842999,-7.78934,88.9966
2023-03-10 23:49:29:900,0,0.849908,-7.79833,89.0261
2023-03-10 23:49:29:910,0,0.855893,-7.80649,89.0508
2023-03-10 23:49:29:920,0,0.862184,-7.81406,89.0733
2023-03-10 23:49:29:930,0,0.867405,-7.82333,89.0901
2023-03-10 23:49:29:940,0,0.874862,-7.83169,89.1077
2023-03-10 23:49:29:950,0,0.879162,-7.84058,89.1223
2023-03-10 23:49:29:960,0,0.880073,-7.84707,89.1398
2023-03-10 23:49:29:970,0,0.87423,-7.8504,89.1535
2023-03-10 23:49:29:980,0,0.865591,-7.85717,89.1703
2023-03-10 23:49:29:990,0,0.856624,-7.85797,89.1882
2023-03-10 23:49:30:0,0,0.848165,-7.85433,89.2066
2023-03-10 23:49:30:10,0,0.840131,-7.85155,89.2323
2023-03-10 23:49:30:20,0,0.832325,-7.84944,89.2659
2023-03-10 23:49:30:30,0,0.823245,-7.84549,89.3011
2023-03-10 23:49:30:40,0,0.821714,-7.83688,89.3383
2023-03-10 23:49:30:50,0,0.815069,-7.824,89.3764
2023-03-10 23:49:30:60,0,0.805932,-7.81098,89.4125
2023-03-10 23:49:30:70,0,0.797021,-7.80194,89.4491
2023-03-10 23:49:30:80,0,0.784852,-7.79426,89.4831
2023-03-10 23:49:30:90,0,0.774663,-7.78755,89.5179
2023-03-10 23:49:30:100,0,0.760934,-7.7897,89.5507
2023-03-10 23:49:30:110,0,0.747073,-7.79605,89.5861
2023-03-10 23:49:30:120,0,0.732346,-7.80824,89.6208
2023-03-10 23:49:30:130,0,0.714462,-7.82739,89.6601
2023-03-10 23:49:30:140,0,0.688394,-7.84744,89.7007
2023-03-10 23:49:30:150,0,0.661262,-7.86463,89.7352
2023-03-10 23:49:30:160,0,0.647976,-7.88366,89.7653
2023-03-10 23:49:30:170,0,0.653195,-7.91313,89.794
2023-03-10 23:49:30:180,0,0.673562,-7.94559,89.8211
2023-03-10 23:49:30:190,0,0.708172,-7.97221,89.8427
2023-03-10 23:49:30:200,0,0.749164,-7.99604,89.8582
2023-03-10 23:49:30:210,0,0.793247,-8.01169,89.8704
2023-03-10 23:49:30:220,0,0.832798,-8.02197,89.8701
2023-03-10 23:49:30:230,0,0.858042,-8.02339,89.8584
2023-03-10 23:49:30:240,0,0.874533,-8.01698,89.8401
2023-03-10 23:49:30:250,0,0.889987,-8.01081,89.8158
2023-03-10 23:49:30:260,0,0.903488,-8.00248,89.7885
2023-03-10 23:49:30:270,0,0.92462,-7.99853,89.7591
2023-03-10 23:49:30:280,0,0.946043,-7.99703,89.7341
2023-03-10 23:49:30:290,0,0.97441,-7.99733,89.7119
2023-03-10 23:49:30:300,0,1.00669,-7.99175,89.6848
2023-03-10 23:49:30:310,0,1.04108,-7.9817,89.6566
2023-03-10 23:49:30:320,0,1.06624,-7.96251,89.6338
2023-03-10 23:49:30:330,0,1.08824,-7.94934,89.6174
2023-03-10 23:49:30:340,0,1.10421,-7.9413,89.6102
2023-03-10 23:49:30:350,0,1.11654,-7.93349,89.6151
2023-03-10 23:49:30:360,0,1.12157,-7.92831,89.6276
2023-03-10 23:49:30:370,0,1.12184,-7.91944,89.6493
2023-03-10 23:49:30:380,0,1.11,-7.90495,89.6807
2023-03-10 23:49:30:390,0,1.09077,-7.89102,89.7198
2023-03-10 23:49:30:400,0,1.06996,-7.87653,89.7724
2023-03-10 23:49:30:410,0,1.05159,-7.86402,89.8369
2023-03-10 23:49:30:420,0,1.03593,-7.85924,89.9182
2023-03-10 23:49:30:430,0,1.01624,-7.85414,90.0068
2023-03-10 23:49:30:440,0,0.997488,-7.84944,90.1042
2023-03-10 23:49:30:450,0,0.980137,-7.84727,90.1955
2023-03-10 23:49:30:460,0,0.952818,-7.8433,90.2885
2023-03-10 23:49:30:470,0,0.91149,-7.83593,90.3869
2023-03-10 23:49:30:480,0,0.851327,-7.83007,90.4874
2023-03-10 23:49:30:490,0,0.772346,-7.82928,90.5957
2023-03-10 23:49:30:500,0,0.68571,-7.82284,90.7071
2023-03-10 23:49:30:510,0,0.594274,-7.81347,90.8154
2023-03-10 23:49:30:520,0,0.497326,-7.80304,90.9241
2023-03-10 23:49:30:530,0,0.38767,-7.79102,91.0324
2023-03-10 23:49:30:540,0,0.263693,-7.78463,91.144
2023-03-10 23:49:30:550,0,0.128409,-7.77619,91.2535
2023-03-10 23:49:30:560,0,-0.0189851,-7.76381,91.3536
2023-03-10 23:49:30:570,0,-0.168399,-7.75412,91.4487
2023-03-10 23:49:30:580,0,-0.313179,-7.75053,91.5293
2023-03-10 23:49:30:590,0,-0.450256,-7.74943,91.6142
2023-03-10 23:49:30:600,0,-0.581664,-7.75297,91.6929
2023-03-10 23:49:30:610,0,-0.707691,-7.75775,91.7702
2023-03-10 23:49:30:620,0,-0.828593,-7.76418,91.8484
2023-03-10 23:49:30:630,0,-0.94247,-7.7678,91.9212
2023-03-10 23:49:30:640,0,-1.03782,-7.77213,91.9899
2023-03-10 23:49:30:650,0,-1.11375,-7.76983,92.0563
2023-03-10 23:49:30:660,0,-1.17646,-7.76388,92.1217
2023-03-10 23:49:30:670,0,-1.2409,-7.76059,92.1881
2023-03-10 23:49:30:680,0,-1.31312,-7.7545,92.2529
2023-03-10 23:49:30:690,0,-1.38675,-7.74535,92.3162
2023-03-10 23:49:30:700,0,-1.46357,-7.73755,92.3738
2023-03-10 23:49:30:710,0,-1.54092,-7.72831,92.4215
2023-03-10 23:49:30:720,0,-1.60633,-7.71808,92.4591
2023-03-10 23:49:30:730,0,-1.66093,-7.7083,92.4805
2023-03-10 23:49:30:740,0,-1.70279,-7.70341,92.4902
2023-03-10 23:49:30:750,0,-1.73063,-7.69836,92.4888
2023-03-10 23:49:30:760,0,-1.75169,-7.6948,92.4797
2023-03-10 23:49:30:770,0,-1.76461,-7.70091,92.4586
2023-03-10 23:49:30:780,0,-1.77588,-7.70475,92.4279
2023-03-10 23:49:30:790,0,-1.77471,-7.71087,92.3857
2023-03-10 23:49:30:800,0,-1.76449,-7.71123,92.3374
2023-03-10 23:49:30:810,0,-1.74625,-7.71724,92.2853
2023-03-10 23:49:30:820,0,-1.71995,-7.72378,92.2311
2023-03-10 23:49:30:830,0,-1.68962,-7.73314,92.1805
2023-03-10 23:49:30:840,0,-1.65938,-7.74072,92.1342
2023-03-10 23:49:30:850,0,-1.62613,-7.74711,92.0871
2023-03-10 23:49:30:860,0,-1.58788,-7.75065,92.0396
2023-03-10 23:49:30:870,0,-1.5495,-7.74969,91.9971
2023-03-10 23:49:30:880,0,-1.5133,-7.74258,91.9556
2023-03-10 23:49:30:890,0,-1.48114,-7.7379,91.9163
2023-03-10 23:49:30:900,0,-1.45075,-7.73111,91.8757
2023-03-10 23:49:30:910,0,-1.41848,-7.72434,91.8375
2023-03-10 23:49:30:920,0,-1.38456,-7.71457,91.7958
2023-03-10 23:49:30:930,0,-1.34796,-7.70909,91.751
2023-03-10 23:49:30:940,0,-1.31157,-7.70311,91.7068
2023-03-10 23:49:30:950,0,-1.27528,-7.69635,91.6603
2023-03-10 23:49:30:960,0,-1.23775,-7.69536,91.6123
2023-03-10 23:49:30:970,0,-1.20117,-7.69352,91.5643
2023-03-10 23:49:30:980,0,-1.16393,-7.69156,91.5161
2023-03-10 23:49:30:990,0,-1.13001,-7.68194,91.4636
2023-03-10 23:49:31:0,0,-1.09984,-7.67703,91.4079
2023-03-10 23:49:31:10,0,-1.06645,-7.67108,91.3546
2023-03-10 23:49:31:20,0,-1.03172,-7.67291,91.3031
2023-03-10 23:49:31:30,0,-0.998093,-7.67918,91.2561
2023-03-10 23:49:31:40,0,-0.960271,-7.68632,91.2082
2023-03-10 23:49:31:50,0,-0.91985,-7.69326,91.16
2023-03-10 23:49:31:60,0,-0.881128,-7.70341,91.1182
2023-03-10 23:49:31:70,0,-0.840838,-7.71845,91.0798
2023-03-10 23:49:31:80,0,-0.803098,-7.73066,91.0436
2023-03-10 23:49:31:90,0,-0.764163,-7.74235,91.0096
2023-03-10 23:49:31:100,0,-0.727654,-7.75314,90.982
2023-03-10 23:49:31:110,0,-0.694129,-7.7597,90.9617
2023-03-10 23:49:31:120,0,-0.661104,-7.76891,90.9451
2023-03-10 23:49:31:130,0,-0.631242,-7.77646,90.9333
2023-03-10 23:49:31:140,0,-0.601526,-7.78035,90.927
2023-03-10 23:49:31:150,0,-0.574492,-7.78132,90.9227
2023-03-10 23:49:31:160,0,-0.549964,-7.77857,90.9249
2023-03-10 23:49:31:170,0,-0.529601,-7.77824,90.9299
2023-03-10 23:49:31:180,0,-0.512562,-7.77692,90.9372
2023-03-10 23:49:31:190,0,-0.507018,-7.78173,90.952
2023-03-10 23:49:31:200,0,-0.513709,-7.78631,90.9709
2023-03-10 23:49:31:210,0,-0.524884,-7.79306,90.9915
2023-03-10 23:49:31:220,0,-0.537186,-7.80577,91.0134
2023-03-10 23:49:31:230,0,-0.556708,-7.81844,91.0373
2023-03-10 23:49:31:240,0,-0.576374,-7.83181,91.0604
2023-03-10 23:49:31:250,0,-0.592254,-7.84537,91.0778
2023-03-10 23:49:31:260,0,-0.605955,-7.85417,91.0921
2023-03-10 23:49:31:270,0,-0.6153,-7.86052,91.1004
2023-03-10 23:49:31:280,0,-0.622837,-7.86478,91.1021
2023-03-10 23:49:31:290,0,-0.625425,-7.87052,91.0961
2023-03-10 23:49:31:300,0,-0.627279,-7.86976,91.0893
2023-03-10 23:49:31:310,0,-0.620287,-7.86721,91.074
2023-03-10 23:49:31:320,0,-0.611956,-7.86462,91.0586
2023-03-10 23:49:31:330,0,-0.595752,-7.85764,91.035
2023-03-10 23:49:31:340,0,-0.577602,-7.84626,91.0136
2023-03-10 23:49:31:350,0,-0.555083,-7.83151,90.9907
2023-03-10 23:49:31:360,0,-0.532135,-7.81035,90.968
2023-03-10 23:49:31:370,0,-0.510836,-7.7906,90.9424
2023-03-10 23:49:31:380,0,-0.488915,-7.77335,90.9179
2023-03-10 23:49:31:390,0,-0.469687,-7.75577,90.8959
2023-03-10 23:49:31:400,0,-0.45413,-7.73743,90.8764
2023-03-10 23:49:31:410,0,-0.435408,-7.7202,90.8582
2023-03-10 23:49:31:420,0,-0.41716,-7.713,90.8428
2023-03-10 23:49:31:430,0,-0.39835,-7.70692,90.8289
2023-03-10 23:49:31:440,0,-0.379575,-7.70461,90.8228
2023-03-10 23:49:31:450,0,-0.364272,-7.70749,90.8177
2023-03-10 23:49:31:460,0,-0.348393,-7.70997,90.8145
2023-03-10 23:49:31:470,0,-0.329645,-7.71141,90.8119
2023-03-10 23:49:31:480,0,-0.310552,-7.71401,90.8141
2023-03-10 23:49:31:490,0,-0.293795,-7.71933,90.8187
2023-03-10 23:49:31:500,0,-0.276586,-7.7241,90.8237
2023-03-10 23:49:31:510,0,-0.259137,-7.72958,90.8333
2023-03-10 23:49:31:520,0,-0.248692,-7.73666,90.8434
2023-03-10 23:49:31:530,0,-0.235837,-7.74493,90.8564
2023-03-10 23:49:31:540,0,-0.226414,-7.75363,90.8698
2023-03-10 23:49:31:550,0,-0.213229,-7.76438,90.8783
2023-03-10 23:49:31:560,0,-0.201993,-7.77275,90.8897
2023-03-10 23:49:31:570,0,-0.18791,-7.78445,90.9016
2023-03-10 23:49:31:580,0,-0.17295,-7.79258,90.9114
2023-03-10 23:49:31:590,0,-0.153528,-7.79977,90.9142
2023-03-10 23:49:31:600,0,-0.134289,-7.80682,90.916
2023-03-10 23:49:31:610,0,-0.111954,-7.81866,90.9149
2023-03-10 23:49:31:620,0,-0.0934126,-7.83507,90.9146
2023-03-10 23:49:31:630,0,-0.0773854,-7.85273,90.9158
2023-03-10 23:49:31:640,0,-0.0687511,-7.87221,90.9189
2023-03-10 23:49:31:650,0,-0.0627296,-7.89117,90.9196
2023-03-10 23:49:31:660,0,-0.0597588,-7.90772,90.9275
2023-03-10 23:49:31:670,0,-0.0564215,-7.92571,90.9382
2023-03-10 23:49:31:680,0,-0.0480217,-7.9411,90.9518
2023-03-10 23:49:31:690,0,-0.0352459,-7.95505,90.9685
2023-03-10 23:49:31:700,0,-0.0237388,-7.97114,90.9882
2023-03-10 23:49:31:710,0,-0.00864057,-7.98596,91.0079
2023-03-10 23:49:31:720,0,0.00584208,-7.99978,91.0273
2023-03-10 23:49:31:730,0,0.0177314,-8.01352,91.0471
2023-03-10 23:49:31:740,0,0.0288863,-8.02659,91.0646
2023-03-10 23:49:31:750,0,0.0381733,-8.0361,91.0771
2023-03-10 23:49:31:760,0,0.0423441,-8.04418,91.09
2023-03-10 23:49:31:770,0,0.0459358,-8.05725,91.1024
2023-03-10 23:49:31:780,0,0.047532,-8.06699,91.1111
2023-03-10 23:49:31:790,0,0.0465636,-8.07753,91.1177
2023-03-10 23:49:31:800,0,0.050983,-8.08005,91.1204
2023-03-10 23:49:31:810,0,0.0522026,-8.08357,91.1177
2023-03-10 23:49:31:820,0,0.053293,-8.08301,91.1128
2023-03-10 23:49:31:830,0,0.0581456,-8.08113,91.1074
2023-03-10 23:49:31:840,0,0.0664544,-8.07646,91.0968
2023-03-10 23:49:31:850,0,0.0740321,-8.06679,91.0798
2023-03-10 23:49:31:860,0,0.0807534,-8.05235,91.0572
2023-03-10 23:49:31:870,0,0.0916055,-8.03945,91.0371
2023-03-10 23:49:31:880,0,0.101968,-8.03545,91.0204
2023-03-10 23:49:31:890,0,0.112762,-8.03666,91.007
2023-03-10 23:49:31:900,0,0.125162,-8.03782,90.997
2023-03-10 23:49:31:910,0,0.13536,-8.03906,90.9914
2023-03-10 23:49:31:920,0,0.144854,-8.04263,90.9869
2023-03-10 23:49:31:930,0,0.156097,-8.04604,90.9883
2023-03-10 23:49:31:940,0,0.169546,-8.0462,90.9882
2023-03-10 23:49:31:950,0,0.183059,-8.04936,90.9884
2023-03-10 23:49:31:960,0,0.19817,-8.05107,90.9885
2023-03-10 23:49:31:970,0,0.20914,-8.05218,90.9924
2023-03-10 23:49:31:980,0,0.222375,-8.0516,90.9947
2023-03-10 23:49:31:990,0,0.240489,-8.05358,90.9959
2023-03-10 23:49:32:0,0,0.25725,-8.05971,90.9952
2023-03-10 23:49:32:10,0,0.275292,-8.06404,90.9978
2023-03-10 23:49:32:20,0,0.28899,-8.06613,90.998
2023-03-10 23:49:32:30,0,0.305921,-8.07213,90.9969
2023-03-10 23:49:32:40,0,0.318392,-8.07897,90.9994
2023-03-10 23:49:32:50,0,0.327266,-8.08809,91.0038
2023-03-10 23:49:32:60,0,0.335147,-8.09304,91.009
2023-03-10 23:49:32:70,0,0.340381,-8.09697,91.0133
2023-03-10 23:49:32:81,0,0.34077,-8.09942,91.0154
2023-03-10 23:49:32:90,0,0.34423,-8.10234,91.0202
2023-03-10 23:49:32:100,0,0.344543,-8.1038,91.0201
2023-03-10 23:49:32:110,0,0.33987,-8.10376,91.0236
2023-03-10 23:49:32:120,0,0.341195,-8.1058,91.0263
2023-03-10 23:49:32:130,0,0.338122,-8.10502,91.0269
2023-03-10 23:49:32:140,0,0.338949,-8.10561,91.0287
2023-03-10 23:49:32:150,0,0.340986,-8.10112,91.0301
2023-03-10 23:49:32:160,0,0.344094,-8.09806,91.0364
2023-03-10 23:49:32:170,0,0.341624,-8.10001,91.0405
2023-03-10 23:49:32:180,0,0.342028,-8.09695,91.0464
2023-03-10 23:49:32:190,0,0.339852,-8.09192,91.0483
2023-03-10 23:49:32:200,0,0.34227,-8.08769,91.0515
2023-03-10 23:49:32:210,0,0.339127,-8.08641,91.0513
2023-03-10 23:49:32:220,0,0.339057,-8.08844,91.0515
2023-03-10 23:49:32:230,0,0.337731,-8.0874,91.0529
2023-03-10 23:49:32:240,0,0.338008,-8.09003,91.0555
2023-03-10 23:49:32:250,0,0.337488,-8.08913,91.0542
2023-03-10 23:49:32:260,0,0.337588,-8.08947,91.0515
2023-03-10 23:49:32:270,0,0.339577,-8.08737,91.0494
2023-03-10 23:49:32:280,0,0.340549,-8.08425,91.0441
2023-03-10 23:49:32:290,0,0.343369,-8.08304,91.0419
2023-03-10 23:49:32:300,0,0.348199,-8.0856,91.0414
2023-03-10 23:49:32:310,0,0.354846,-8.08663,91.0429
2023-03-10 23:49:32:320,0,0.363232,-8.08993,91.0488
2023-03-10 23:49:32:330,0,0.371349,-8.09728,91.051
2023-03-10 23:49:32:340,0,0.378692,-8.10339,91.0582
2023-03-10 23:49:32:350,0,0.38164,-8.10982,91.0661
2023-03-10 23:49:32:360,0,0.38804,-8.11714,91.0755
2023-03-10 23:49:32:370,0,0.395966,-8.12482,91.0842
2023-03-10 23:49:32:380,0,0.405234,-8.13294,91.0946
2023-03-10 23:49:32:390,0,0.415527,-8.14147,91.1053
2023-03-10 23:49:32:400,0,0.42229,-8.14935,91.1119
2023-03-10 23:49:32:410,0,0.427848,-8.15891,91.1167
2023-03-10 23:49:32:420,0,0.434216,-8.16567,91.1191
2023-03-10 23:49:32:430,0,0.441362,-8.17322,91.1249
2023-03-10 23:49:32:440,0,0.443006,-8.18325,91.1329
2023-03-10 23:49:32:450,0,0.439789,-8.1881,91.1381
2023-03-10 23:49:32:460,0,0.434741,-8.19457,91.1423
2023-03-10 23:49:32:470,0,0.428241,-8.20015,91.1476
2023-03-10 23:49:32:480,0,0.422458,-8.20608,91.1553
2023-03-10 23:49:32:490,0,0.421784,-8.21636,91.1629
2023-03-10 23:49:32:500,0,0.417468,-8.22936,91.1709
2023-03-10 23:49:32:510,0,0.414901,-8.23777,91.1819
2023-03-10 23:49:32:520,0,0.410073,-8.23943,91.1916
2023-03-10 23:49:32:530,0,0.404436,-8.24161,91.2004
2023-03-10 23:49:32:540,0,0.40165,-8.24486,91.2075
2023-03-10 23:49:32:550,0,0.398608,-8.24953,91.2147
2023-03-10 23:49:32:560,0,0.392028,-8.25149,91.224
2023-03-10 23:49:32:570,0,0.382241,-8.25345,91.2347
2023-03-10 23:49:32:580,0,0.372426,-8.25403,91.2443
2023-03-10 23:49:32:590,0,0.364098,-8.25045,91.2519
2023-03-10 23:49:32:600,0,0.357029,-8.25058,91.259
2023-03-10 23:49:32:610,0,0.35519,-8.2469,91.2648
2023-03-10 23:49:32:620,0,0.352091,-8.24329,91.2692
2023-03-10 23:49:32:630,0,0.343146,-8.24243,91.2711
2023-03-10 23:49:32:640,0,0.336639,-8.24208,91.2702
2023-03-10 23:49:32:650,0,0.326131,-8.24172,91.2745
2023-03-10 23:49:32:660,0,0.314963,-8.24098,91.2737
2023-03-10 23:49:32:670,0,0.299399,-8.24348,91.2737
2023-03-10 23:49:32:680,0,0.286556,-8.24825,91.2757
2023-03-10 23:49:32:690,0,0.270806,-8.25213,91.2782
2023-03-10 23:49:32:700,0,0.257355,-8.25343,91.282
2023-03-10 23:49:32:710,0,0.237866,-8.25477,91.2894
2023-03-10 23:49:32:720,0,0.215555,-8.25646,91.2965
2023-03-10 23:49:32:730,0,0.194551,-8.25158,91.303
2023-03-10 23:49:32:740,0,0.165455,-8.24984,91.3132
2023-03-10 23:49:32:751,0,0.131188,-8.25397,91.3283
2023-03-10 23:49:32:760,0,0.0897419,-8.26024,91.3472
2023-03-10 23:49:32:770,0,0.0347331,-8.26442,91.3687
2023-03-10 23:49:32:780,0,-0.0289962,-8.26878,91.3927
2023-03-10 23:49:32:790,0,-0.109282,-8.27573,91.4212
2023-03-10 23:49:32:800,0,-0.205941,-8.27639,91.4552
2023-03-10 23:49:32:810,0,-0.312588,-8.27718,91.49
2023-03-10 23:49:32:820,0,-0.436271,-8.28223,91.5286
2023-03-10 23:49:32:830,0,-0.566579,-8.28616,91.5713
2023-03-10 23:49:32:840,0,-0.692883,-8.28661,91.6129
2023-03-10 23:49:32:850,0,-0.814703,-8.27927,91.6552
2023-03-10 23:49:32:860,0,-0.94179,-8.26527,91.6922
2023-03-10 23:49:32:870,0,-1.07437,-8.25444,91.7349
2023-03-10 23:49:32:880,0,-1.20543,-8.24571,91.7773
2023-03-10 23:49:32:890,0,-1.32257,-8.24135,91.8142
2023-03-10 23:49:32:900,0,-1.42972,-8.23965,91.8513
2023-03-10 23:49:32:910,0,-1.52339,-8.23627,91.885
2023-03-10 23:49:32:920,0,-1.60789,-8.23734,91.9176
2023-03-10 23:49:32:930,0,-1.68733,-8.23407,91.946
2023-03-10 23:49:32:940,0,-1.75933,-8.22811,91.9676
2023-03-10 23:49:32:950,0,-1.82417,-8.22487,91.988
2023-03-10 23:49:32:960,0,-1.88098,-8.22211,92.0033
2023-03-10 23:49:32:970,0,-1.93416,-8.22145,92.0191
2023-03-10 23:49:32:980,0,-1.98748,-8.22295,92.0322
2023-03-10 23:49:32:990,0,-2.0323,-8.22382,92.0388
2023-03-10 23:49:33:0,0,-2.06514,-8.22196,92.0434
2023-03-10 23:49:33:10,0,-2.08565,-8.22093,92.0489
2023-03-10 23:49:33:20,0,-2.09927,-8.22132,92.048
2023-03-10 23:49:33:30,0,-2.10658,-8.21565,92.0461
2023-03-10 23:49:33:40,0,-2.11228,-8.20979,92.0415
2023-03-10 23:49:33:50,0,-2.1219,-8.20921,92.04
2023-03-10 23:49:33:60,0,-2.13072,-8.2118,92.0402
2023-03-10 23:49:33:70,0,-2.1362,-8.21488,92.0425
2023-03-10 23:49:33:80,0,-2.13582,-8.21742,92.0412
2023-03-10 23:49:33:90,0,-2.13867,-8.21851,92.0414
2023-03-10 23:49:33:100,0,-2.1395,-8.22021,92.0395
2023-03-10 23:49:33:110,0,-2.13878,-8.22241,92.0348
2023-03-10 23:49:33:120,0,-2.13549,-8.22078,92.0282
2023-03-10 23:49:33:130,0,-2.12435,-8.22216,92.0213
2023-03-10 23:49:33:140,0,-2.11048,-8.22543,92.0134
2023-03-10 23:49:33:150,0,-2.09344,-8.22507,92.0049
2023-03-10 23:49:33:160,0,-2.07701,-8.22506,91.9978
2023-03-10 23:49:33:170,0,-2.06006,-8.22495,91.9961
2023-03-10 23:49:33:180,0,-2.04256,-8.22395,91.9919
2023-03-10 23:49:33:190,0,-2.01938,-8.22158,91.989
2023-03-10 23:49:33:200,0,-1.99267,-8.22314,91.9847
2023-03-10 23:49:33:210,0,-1.95971,-8.22717,91.9799
2023-03-10 23:49:33:220,0,-1.92432,-8.23078,91.9742
2023-03-10 23:49:33:230,0,-1.88773,-8.2339,91.971
2023-03-10 23:49:33:240,0,-1.84869,-8.23456,91.9622
2023-03-10 23:49:33:250,0,-1.80973,-8.23405,91.9555
2023-03-10 23:49:33:260,0,-1.77066,-8.23469,91.9474
2023-03-10 23:49:33:270,0,-1.73002,-8.23466,91.9399
2023-03-10 23:49:33:280,0,-1.68742,-8.23402,91.9338
2023-03-10 23:49:33:290,0,-1.64168,-8.23668,91.9266
2023-03-10 23:49:33:300,0,-1.59135,-8.2378,91.9173
2023-03-10 23:49:33:310,0,-1.53935,-8.23803,91.909
2023-03-10 23:49:33:320,0,-1.48259,-8.238,91.8976
2023-03-10 23:49:33:330,0,-1.43167,-8.24196,91.8871
2023-03-10 23:49:33:340,0,-1.38257,-8.24407,91.8756
2023-03-10 23:49:33:350,0,-1.33884,-8.2466,91.8665
2023-03-10 23:49:33:360,0,-1.29896,-8.24996,91.8627
2023-03-10 23:49:33:370,0,-1.26611,-8.25451,91.851
2023-03-10 23:49:33:380,0,-1.23617,-8.2544,91.8404
2023-03-10 23:49:33:390,0,-1.20318,-8.25559,91.8318
2023-03-10 23:49:33:400,0,-1.17737,-8.25597,91.8262
2023-03-10 23:49:33:410,0,-1.15407,-8.26126,91.8201
2023-03-10 23:49:33:420,0,-1.13287,-8.26894,91.8212
2023-03-10 23:49:33:430,0,-1.11451,-8.27435,91.8225
2023-03-10 23:49:33:441,0,-1.09794,-8.27569,91.8229
2023-03-10 23:49:33:451,0,-1.07918,-8.27571,91.8216
2023-03-10 23:49:33:461,0,-1.06075,-8.27354,91.8221
2023-03-10 23:49:33:471,0,-1.04449,-8.2763,91.8248
2023-03-10 23:49:33:480,0,-1.02575,-8.27884,91.829
2023-03-10 23:49:33:490,0,-1.00686,-8.28224,91.8381
2023-03-10 23:49:33:500,0,-0.983641,-8.28401,91.8466
2023-03-10 23:49:33:510,0,-0.963242,-8.28335,91.8488
2023-03-10 23:49:33:520,0,-0.94561,-8.28203,91.8541
2023-03-10 23:49:33:530,0,-0.929118,-8.28312,91.8595
2023-03-10 23:49:33:540,0,-0.913825,-8.28146,91.865
2023-03-10 23:49:33:550,0,-0.895719,-8.27795,91.8692
2023-03-10 23:49:33:560,0,-0.874617,-8.27292,91.8745
2023-03-10 23:49:33:570,0,-0.850161,-8.26907,91.8802
2023-03-10 23:49:33:580,0,-0.824942,-8.26539,91.8833
2023-03-10 23:49:33:590,0,-0.802778,-8.26052,91.8858
2023-03-10 23:49:33:600,0,-0.783235,-8.25327,91.8896
2023-03-10 23:49:33:611,0,-0.759345,-8.24762,91.8921
2023-03-10 23:49:33:620,0,-0.737859,-8.23995,91.8945
2023-03-10 23:49:33:631,0,-0.717754,-8.2339,91.8962
2023-03-10 23:49:33:640,0,-0.700783,-8.22476,91.8911
2023-03-10 23:49:33:651,0,-0.681759,-8.21185,91.8837
2023-03-10 23:49:33:661,0,-0.664611,-8.2034,91.8774
2023-03-10 23:49:33:671,0,-0.64829,-8.2013,91.8714
2023-03-10 23:49:33:680,0,-0.636298,-8.20356,91.8686
2023-03-10 23:49:33:690,0,-0.629079,-8.20513,91.8695
2023-03-10 23:49:33:701,0,-0.619122,-8.20462,91.8661
2023-03-10 23:49:33:711,0,-0.61305,-8.20578,91.8645
2023-03-10 23:49:33:721,0,-0.607988,-8.20815,91.8682
2023-03-10 23:49:33:731,0,-0.605869,-8.21054,91.873
2023-03-10 23:49:33:741,0,-0.601772,-8.21138,91.8801
2023-03-10 23:49:33:750,0,-0.597772,-8.21652,91.8892
2023-03-10 23:49:33:760,0,-0.591556,-8.22207,91.9002
2023-03-10 23:49:33:770,0,-0.585839,-8.2269,91.9119
2023-03-10 23:49:33:780,0,-0.581121,-8.22737,91.9254
2023-03-10 23:49:33:790,0,-0.573367,-8.23726,91.9372
2023-03-10 23:49:33:800,0,-0.563963,-8.24619,91.9518
2023-03-10 23:49:33:810,0,-0.554254,-8.25095,91.9618
2023-03-10 23:49:33:820,0,-0.542435,-8.25284,91.97
2023-03-10 23:49:33:831,0,-0.532968,-8.25909,91.9809
2023-03-10 23:49:33:840,0,-0.524,-8.26352,91.9891
2023-03-10 23:49:33:850,0,-0.519744,-8.26661,91.9977
2023-03-10 23:49:33:860,0,-0.512925,-8.27171,92.0072
2023-03-10 23:49:33:870,0,-0.508705,-8.27658,92.013
2023-03-10 23:49:33:880,0,-0.505234,-8.27656,92.019
2023-03-10 23:49:33:890,0,-0.493845,-8.27514,92.0246
2023-03-10 23:49:33:900,0,-0.475771,-8.27329,92.0307
2023-03-10 23:49:33:911,0,-0.45428,-8.27356,92.0406
2023-03-10 23:49:33:920,0,-0.433983,-8.27815,92.0557
2023-03-10 23:49:33:931,0,-0.422949,-8.27617,92.0744
2023-03-10 23:49:33:940,0,-0.421036,-8.26829,92.0913
2023-03-10 23:49:33:951,0,-0.429902,-8.25221,92.1046
2023-03-10 23:49:33:960,0,-0.437092,-8.23006,92.1185
2023-03-10 23:49:33:971,0,-0.436416,-8.20663,92.1354
2023-03-10 23:49:33:981,0,-0.421826,-8.17603,92.1497
2023-03-10 23:49:33:991,0,-0.394703,-8.1397,92.1719
2023-03-10 23:49:34:1,0,-0.354488,-8.10415,92.1945
2023-03-10 23:49:34:11,0,-0.298374,-8.06572,92.2255
2023-03-10 23:49:34:20,0,-0.244825,-8.03192,92.2637
2023-03-10 23:49:34:31,0,-0.191237,-8.00491,92.3127
2023-03-10 23:49:34:41,0,-0.140196,-7.98144,92.3649
2023-03-10 23:49:34:51,0,-0.0844631,-7.95534,92.4153
2023-03-10 23:49:34:61,0,-0.0260209,-7.93107,92.4678
2023-03-10 23:49:34:71,0,0.0386589,-7.89712,92.52
2023-03-10 23:49:34:81,0,0.103309,-7.86354,92.5671
2023-03-10 23:49:34:90,0,0.173203,-7.82569,92.6102
2023-03-10 23:49:34:100,0,0.238552,-7.79033,92.6509
2023-03-10 23:49:34:111,0,0.303046,-7.76287,92.6884
2023-03-10 23:49:34:121,0,0.354981,-7.74225,92.7227
2023-03-10 23:49:34:131,0,0.398982,-7.73184,92.7567
2023-03-10 23:49:34:140,0,0.429217,-7.72771,92.7906
2023-03-10 23:49:34:150,0,0.456979,-7.72744,92.8161
2023-03-10 23:49:34:161,0,0.478846,-7.72871,92.8365
2023-03-10 23:49:34:171,0,0.498685,-7.73055,92.85
2023-03-10 23:49:34:181,0,0.526592,-7.73725,92.8601
2023-03-10 23:49:34:191,0,0.557152,-7.74247,92.8699
2023-03-10 23:49:34:201,0,0.596552,-7.74117,92.8744
2023-03-10 23:49:34:210,0,0.645116,-7.73367,92.8757
2023-03-10 23:49:34:220,0,0.69699,-7.72683,92.8797
2023-03-10 23:49:34:230,0,0.750776,-7.7261,92.8842
2023-03-10 23:49:34:240,0,0.807797,-7.73197,92.8864
2023-03-10 23:49:34:250,0,0.859177,-7.74451,92.8869
2023-03-10 23:49:34:260,0,0.905489,-7.76492,92.8794
2023-03-10 23:49:34:270,0,0.947537,-7.78813,92.8657
2023-03-10 23:49:34:280,0,0.980654,-7.81108,92.8434
2023-03-10 23:49:34:290,0,1.01096,-7.83588,92.8185
2023-03-10 23:49:34:300,0,1.03359,-7.86535,92.7906
2023-03-10 23:49:34:310,0,1.05021,-7.88611,92.7649
2023-03-10 23:49:34:320,0,1.0597,-7.90724,92.7347
2023-03-10 23:49:34:330,0,1.06654,-7.923,92.7058
2023-03-10 23:49:34:340,0,1.06545,-7.93731,92.6772
2023-03-10 23:49:34:350,0,1.06442,-7.94979,92.6549
2023-03-10 23:49:34:360,0,1.0657,-7.95058,92.6372
2023-03-10 23:49:34:371,0,1.06461,-7.95211,92.6247
2023-03-10 23:49:34:380,0,1.06733,-7.94662,92.6152
2023-03-10 23:49:34:390,0,1.07326,-7.93398,92.6079
2023-03-10 23:49:34:400,0,1.0886,-7.92641,92.6055
2023-03-10 23:49:34:410,0,1.10399,-7.91533,92.6097
2023-03-10 23:49:34:420,0,1.11755,-7.90859,92.626
2023-03-10 23:49:34:430,0,1.13293,-7.90014,92.6495
2023-03-10 23:49:34:440,0,1.15218,-7.88871,92.6792
2023-03-10 23:49:34:450,0,1.16941,-7.87555,92.7148
2023-03-10 23:49:34:460,0,1.17583,-7.85976,92.751
2023-03-10 23:49:34:470,0,1.17674,-7.85232,92.787
2023-03-10 23:49:34:480,0,1.17748,-7.84529,92.8214
2023-03-10 23:49:34:490,0,1.18267,-7.84467,92.8507
2023-03-10 23:49:34:500,0,1.19267,-7.84998,92.8786
2023-03-10 23:49:34:510,0,1.21554,-7.86137,92.9026
2023-03-10 23:49:34:520,0,1.24492,-7.88012,92.9236
2023-03-10 23:49:34:531,0,1.2845,-7.90086,92.9475
2023-03-10 23:49:34:540,0,1.33304,-7.92309,92.969
2023-03-10 23:49:34:551,0,1.37848,-7.94425,92.9959
2023-03-10 23:49:34:561,0,1.41824,-7.96737,93.0224
2023-03-10 23:49:34:570,0,1.44857,-7.98161,93.0473
2023-03-10 23:49:34:580,0,1.47126,-7.99006,93.0648
2023-03-10 23:49:34:590,0,1.49182,-7.99556,93.0805
2023-03-10 23:49:34:600,0,1.51288,-8.00384,93.1003
2023-03-10 23:49:34:610,0,1.54079,-8.00684,93.1175
2023-03-10 23:49:34:620,0,1.5656,-8.00403,93.1285
2023-03-10 23:49:34:630,0,1.59253,-7.99071,93.1371
2023-03-10 23:49:34:640,0,1.61384,-7.9733,93.1434
2023-03-10 23:49:34:651,0,1.62158,-7.95514,93.1411
2023-03-10 23:49:34:661,0,1.61763,-7.93804,93.1223
2023-03-10 23:49:34:671,0,1.59473,-7.92732,93.0944
2023-03-10 23:49:34:681,0,1.56025,-7.93111,93.0597
2023-03-10 23:49:34:690,0,1.51418,-7.94718,93.0202
2023-03-10 23:49:34:700,0,1.47133,-7.95748,92.9652
2023-03-10 23:49:34:710,0,1.43357,-7.96373,92.9054
2023-03-10 23:49:34:721,0,1.41386,-7.96837,92.8446
2023-03-10 23:49:34:731,0,1.40028,-7.9825,92.7864
2023-03-10 23:49:34:741,0,1.38673,-8.00561,92.7236
2023-03-10 23:49:34:751,0,1.36754,-8.0351,92.6551
2023-03-10 23:49:34:761,0,1.3457,-8.06953,92.5876
2023-03-10 23:49:34:771,0,1.32571,-8.12015,92.5278
2023-03-10 23:49:34:781,0,1.31434,-8.17558,92.4718
2023-03-10 23:49:34:791,0,1.30759,-8.23327,92.416
2023-03-10 23:49:34:800,0,1.30226,-8.29272,92.3649
2023-03-10 23:49:34:810,0,1.2898,-8.35485,92.3145
2023-03-10 23:49:34:820,0,1.27924,-8.41115,92.2604
2023-03-10 23:49:34:830,0,1.26088,-8.46545,92.2126
2023-03-10 23:49:34:840,0,1.24682,-8.52838,92.1702
2023-03-10 23:49:34:850,0,1.23964,-8.59471,92.1313
2023-03-10 23:49:34:860,0,1.24433,-8.66774,92.1083
2023-03-10 23:49:34:870,0,1.25646,-8.7455,92.0933
2023-03-10 23:49:34:880,0,1.26931,-8.82961,92.0934
2023-03-10 23:49:34:890,0,1.27581,-8.90355,92.0972
2023-03-10 23:49:34:900,0,1.28036,-8.96828,92.1011
2023-03-10 23:49:34:910,0,1.27726,-9.02219,92.1125
2023-03-10 23:49:34:920,0,1.27825,-9.07048,92.1276
2023-03-10 23:49:34:931,0,1.28174,-9.11527,92.1478
2023-03-10 23:49:34:941,0,1.2921,-9.16693,92.1792
2023-03-10 23:49:34:951,0,1.30895,-9.22244,92.2243
2023-03-10 23:49:34:961,0,1.32882,-9.27816,92.2777
2023-03-10 23:49:34:970,0,1.34564,-9.32937,92.3305
2023-03-10 23:49:34:980,0,1.35762,-9.3774,92.3766
2023-03-10 23:49:34:990,0,1.362,-9.41933,92.4181
2023-03-10 23:49:35:0,0,1.36709,-9.45495,92.4412
2023-03-10 23:49:35:11,0,1.37728,-9.48137,92.4517
2023-03-10 23:49:35:20,0,1.39208,-9.50121,92.4475
2023-03-10 23:49:35:30,0,1.4155,-9.52335,92.4303
2023-03-10 23:49:35:41,0,1.44263,-9.53531,92.4026
2023-03-10 23:49:35:51,0,1.47338,-9.55034,92.3717
2023-03-10 23:49:35:61,0,1.50771,-9.56559,92.3364
2023-03-10 23:49:35:71,0,1.54033,-9.57875,92.2921
2023-03-10 23:49:35:81,0,1.57304,-9.59042,92.2482
2023-03-10 23:49:35:91,0,1.60545,-9.60169,92.1998
2023-03-10 23:49:35:101,0,1.64122,-9.60453,92.1413
2023-03-10 23:49:35:110,0,1.67673,-9.60554,92.0789
2023-03-10 23:49:35:121,0,1.71816,-9.60173,92.0128
2023-03-10 23:49:35:131,0,1.7638,-9.60028,91.9438
2023-03-10 23:49:35:141,0,1.81048,-9.59586,91.8749
2023-03-10 23:49:35:150,0,1.85196,-9.59209,91.8073
2023-03-10 23:49:35:161,0,1.89004,-9.58564,91.7436
2023-03-10 23:49:35:171,0,1.92095,-9.58262,91.6876
2023-03-10 23:49:35:181,0,1.95336,-9.57641,91.6322
2023-03-10 23:49:35:191,0,1.98417,-9.56487,91.5807
2023-03-10 23:49:35:201,0,2.01565,-9.54751,91.5312
2023-03-10 23:49:35:210,0,2.04186,-9.52863,91.4898
2023-03-10 23:49:35:220,0,2.07052,-9.50939,91.4532
2023-03-10 23:49:35:230,0,2.09996,-9.4921,91.4173
2023-03-10 23:49:35:241,0,2.12946,-9.47975,91.3871
2023-03-10 23:49:35:251,0,2.16268,-9.4728,91.3625
2023-03-10 23:49:35:261,0,2.19469,-9.47445,91.3408
2023-03-10 23:49:35:271,0,2.21457,-9.48387,91.3263
2023-03-10 23:49:35:281,0,2.22424,-9.49453,91.3141
2023-03-10 23:49:35:290,0,2.22563,-9.50464,91.3031
2023-03-10 23:49:35:301,0,2.22118,-9.51052,91.2883
2023-03-10 23:49:35:310,0,2.20791,-9.51595,91.2725
2023-03-10 23:49:35:320,0,2.19199,-9.5144,91.2572
2023-03-10 23:49:35:330,0,2.18431,-9.5104,91.2365
2023-03-10 23:49:35:340,0,2.17462,-9.50321,91.2182
2023-03-10 23:49:35:350,0,2.16442,-9.49172,91.2012
2023-03-10 23:49:35:360,0,2.15329,-9.4833,91.1876
2023-03-10 23:49:35:370,0,2.13946,-9.47221,91.1758
2023-03-10 23:49:35:380,0,2.12415,-9.4564,91.1697
2023-03-10 23:49:35:390,0,2.11388,-9.4402,91.1685
2023-03-10 23:49:35:400,0,2.10291,-9.4226,91.1723
2023-03-10 23:49:35:410,0,2.0863,-9.40297,91.183
2023-03-10 23:49:35:420,0,2.06735,-9.38132,91.1869
2023-03-10 23:49:35:430,0,2.04903,-9.35296,91.1909
2023-03-10 23:49:35:440,0,2.03077,-9.32648,91.1886
2023-03-10 23:49:35:451,0,2.01008,-9.29572,91.1793
2023-03-10 23:49:35:461,0,1.99651,-9.26893,91.1593
2023-03-10 23:49:35:470,0,1.99109,-9.24334,91.1411
2023-03-10 23:49:35:480,0,1.98677,-9.22142,91.1268
2023-03-10 23:49:35:490,0,1.98003,-9.20809,91.1135
2023-03-10 23:49:35:500,0,1.97839,-9.19704,91.1067
2023-03-10 23:49:35:511,0,1.97659,-9.19434,91.1049
2023-03-10 23:49:35:521,0,1.97173,-9.19682,91.1084
2023-03-10 23:49:35:531,0,1.96131,-9.20505,91.1155
2023-03-10 23:49:35:541,0,1.94265,-9.21772,91.1256
2023-03-10 23:49:35:551,0,1.91954,-9.23741,91.1285
2023-03-10 23:49:35:560,0,1.88277,-9.2637,91.1274
2023-03-10 23:49:35:571,0,1.83296,-9.29125,91.1228
2023-03-10 23:49:35:581,0,1.77483,-9.31862,91.1051
2023-03-10 23:49:35:591,0,1.71069,-9.34762,91.0808
2023-03-10 23:49:35:601,0,1.64225,-9.3777,91.0444
2023-03-10 23:49:35:610,0,1.57172,-9.41142,90.9975
2023-03-10 23:49:35:620,0,1.49947,-9.44268,90.9463
2023-03-10 23:49:35:631,0,1.42303,-9.47775,90.8826
2023-03-10 23:49:35:641,0,1.34548,-9.51288,90.8163
2023-03-10 23:49:35:650,0,1.27192,-9.5399,90.746
2023-03-10 23:49:35:661,0,1.20163,-9.5626,90.6745
2023-03-10 23:49:35:671,0,1.14135,-9.57887,90.6037
2023-03-10 23:49:35:681,0,1.0939,-9.59561,90.5335
2023-03-10 23:49:35:691,0,1.05501,-9.60982,90.4688
2023-03-10 23:49:35:701,0,1.03238,-9.62336,90.4088
2023-03-10 23:49:35:711,0,1.01846,-9.63505,90.3553
2023-03-10 23:49:35:720,0,1.01245,-9.64644,90.3059
2023-03-10 23:49:35:730,0,1.01247,-9.65612,90.2678
2023-03-10 23:49:35:740,0,1.01514,-9.66246,90.2362
2023-03-10 23:49:35:751,0,1.02057,-9.66489,90.2092
2023-03-10 23:49:35:760,0,1.02548,-9.6657,90.1881
2023-03-10 23:49:35:771,0,1.03183,-9.67083,90.1694
2023-03-10 23:49:35:781,0,1.0424,-9.68105,90.1385
2023-03-10 23:49:35:791,0,1.05989,-9.69201,90.0808
2023-03-10 23:49:35:801,0,1.08405,-9.70727,89.9912
2023-03-10 23:49:35:811,0,1.11784,-9.72939,89.8684
2023-03-10 23:49:35:820,0,1.14961,-9.75841,89.7117
2023-03-10 23:49:35:830,0,1.18022,-9.79604,89.5334
2023-03-10 23:49:35:840,0,1.20641,-9.83339,89.334
2023-03-10 23:49:35:850,0,1.23112,-9.86257,89.121
2023-03-10 23:49:35:860,0,1.2648,-9.89329,88.8987
2023-03-10 23:49:35:871,0,1.30364,-9.9243,88.6777
2023-03-10 23:49:35:881,0,1.34497,-9.95179,88.4653
2023-03-10 23:49:35:890,0,1.3871,-9.97112,88.2619
2023-03-10 23:49:35:900,0,1.42643,-9.99185,88.069
2023-03-10 23:49:35:911,0,1.46339,-10.0036,87.8921
2023-03-10 23:49:35:920,0,1.49135,-10.0082,87.7278
2023-03-10 23:49:35:930,0,1.51586,-10.0084,87.5744
2023-03-10 23:49:35:940,0,1.538,-9.99682,87.4252
2023-03-10 23:49:35:950,0,1.55295,-9.97863,87.2898
2023-03-10 23:49:35:960,0,1.5663,-9.9475,87.1629
2023-03-10 23:49:35:970,0,1.58288,-9.90866,87.0518
2023-03-10 23:49:35:980,0,1.60188,-9.85858,86.951
2023-03-10 23:49:35:990,0,1.62331,-9.79912,86.8594
2023-03-10 23:49:36:0,0,1.64932,-9.73702,86.7798
2023-03-10 23:49:36:10,0,1.67756,-9.66992,86.7071
2023-03-10 23:49:36:20,0,1.7062,-9.59994,86.6427
2023-03-10 23:49:36:30,0,1.73532,-9.53508,86.587
2023-03-10 23:49:36:40,0,1.76512,-9.47058,86.5381
2023-03-10 23:49:36:50,0,1.79112,-9.40857,86.4938
2023-03-10 23:49:36:60,0,1.81587,-9.34523,86.4548
2023-03-10 23:49:36:70,0,1.83439,-9.28417,86.4198
2023-03-10 23:49:36:80,0,1.85037,-9.22675,86.3898
2023-03-10 23:49:36:90,0,1.86622,-9.17457,86.3703
2023-03-10 23:49:36:101,0,1.87675,-9.12773,86.3587
2023-03-10 23:49:36:110,0,1.88791,-9.08424,86.3643
2023-03-10 23:49:36:120,0,1.89224,-9.05047,86.3809
2023-03-10 23:49:36:131,0,1.89239,-9.01869,86.4101
2023-03-10 23:49:36:141,0,1.88719,-8.98803,86.4489
2023-03-10 23:49:36:150,0,1.87937,-8.9601,86.4954
2023-03-10 23:49:36:160,0,1.86894,-8.92951,86.5495
2023-03-10 23:49:36:170,0,1.85244,-8.90924,86.6074
2023-03-10 23:49:36:180,0,1.82933,-8.88864,86.6717
2023-03-10 23:49:36:190,0,1.80132,-8.86573,86.734
2023-03-10 23:49:36:200,0,1.76669,-8.84332,86.7978
2023-03-10 23:49:36:210,0,1.72994,-8.82128,86.8597
2023-03-10 23:49:36:220,0,1.69153,-8.79812,86.9158
2023-03-10 23:49:36:230,0,1.64786,-8.77389,86.9714
2023-03-10 23:49:36:240,0,1.60696,-8.7488,87.0266
2023-03-10 23:49:36:250,0,1.55894,-8.72388,87.0792
2023-03-10 23:49:36:260,0,1.51289,-8.6945,87.1222
2023-03-10 23:49:36:270,0,1.46198,-8.65874,87.1449
2023-03-10 23:49:36:280,0,1.41374,-8.6183,87.1587
2023-03-10 23:49:36:290,0,1.36845,-8.58162,87.166
2023-03-10 23:49:36:301,0,1.32795,-8.55674,87.1684
2023-03-10 23:49:36:310,0,1.29747,-8.53917,87.1669
2023-03-10 23:49:36:321,0,1.27668,-8.52862,87.1616
2023-03-10 23:49:36:331,0,1.26108,-8.52541,87.1506
2023-03-10 23:49:36:340,0,1.24802,-8.52689,87.1419
2023-03-10 23:49:36:350,0,1.2309,-8.53118,87.1398
2023-03-10 23:49:36:360,0,1.21541,-8.53708,87.1366
2023-03-10 23:49:36:370,0,1.20108,-8.54775,87.1369
2023-03-10 23:49:36:380,0,1.19014,-8.55746,87.1457
2023-03-10 23:49:36:390,0,1.18277,-8.56891,87.1597
2023-03-10 23:49:36:400,0,1.17985,-8.57257,87.185
2023-03-10 23:49:36:411,0,1.18266,-8.57583,87.2211
2023-03-10 23:49:36:421,0,1.18215,-8.57674,87.2652
2023-03-10 23:49:36:430,0,1.18333,-8.57712,87.3192
2023-03-10 23:49:36:440,0,1.18733,-8.57795,87.3819
2023-03-10 23:49:36:451,0,1.18737,-8.57751,87.4506
2023-03-10 23:49:36:460,0,1.19105,-8.5783,87.5263
2023-03-10 23:49:36:471,0,1.19231,-8.58523,87.6078
2023-03-10 23:49:36:480,0,1.19007,-8.58822,87.6901
2023-03-10 23:49:36:490,0,1.18428,-8.59135,87.7704
2023-03-10 23:49:36:500,0,1.18094,-8.59656,87.8505
2023-03-10 23:49:36:510,0,1.16794,-8.6096,87.9304
2023-03-10 23:49:36:521,0,1.14928,-8.61594,88.0099
2023-03-10 23:49:36:531,0,1.13177,-8.61715,88.0833
2023-03-10 23:49:36:540,0,1.11832,-8.60578,88.1459
2023-03-10 23:49:36:550,0,1.11017,-8.59025,88.2019
2023-03-10 23:49:36:560,0,1.11318,-8.57331,88.2541
2023-03-10 23:49:36:571,0,1.12749,-8.55737,88.2975
2023-03-10 23:49:36:581,0,1.1465,-8.54563,88.3394
2023-03-10 23:49:36:591,0,1.1652,-8.54091,88.3772
2023-03-10 23:49:36:601,0,1.18931,-8.54701,88.413
2023-03-10 23:49:36:610,0,1.21552,-8.56806,88.4488
2023-03-10 23:49:36:620,0,1.23705,-8.59312,88.4824
2023-03-10 23:49:36:630,0,1.25753,-8.62549,88.5056
2023-03-10 23:49:36:641,0,1.27827,-8.66871,88.5295
2023-03-10 23:49:36:651,0,1.30166,-8.71538,88.5515
2023-03-10 23:49:36:660,0,1.32884,-8.7668,88.5706
2023-03-10 23:49:36:670,0,1.35636,-8.82055,88.5805
2023-03-10 23:49:36:681,0,1.3771,-8.87922,88.5914
2023-03-10 23:49:36:691,0,1.39187,-8.93949,88.5948
2023-03-10 23:49:36:701,0,1.40438,-8.99483,88.602
2023-03-10 23:49:36:711,0,1.41882,-9.04553,88.6054
2023-03-10 23:49:36:721,0,1.43835,-9.09672,88.6091
2023-03-10 23:49:36:730,0,1.45823,-9.14124,88.6099
2023-03-10 23:49:36:740,0,1.48211,-9.18591,88.6084
2023-03-10 23:49:36:751,0,1.51491,-9.22764,88.6001
2023-03-10 23:49:36:760,0,1.55042,-9.26759,88.597
2023-03-10 23:49:36:771,0,1.58726,-9.3007,88.5941
2023-03-10 23:49:36:780,0,1.61558,-9.32889,88.5945
2023-03-10 23:49:36:790,0,1.63631,-9.34679,88.6016
2023-03-10 23:49:36:801,0,1.64909,-9.35919,88.6112
2023-03-10 23:49:36:810,0,1.65485,-9.36507,88.6219
2023-03-10 23:49:36:821,0,1.65702,-9.36654,88.634
2023-03-10 23:49:36:831,0,1.65665,-9.35381,88.644
2023-03-10 23:49:36:841,0,1.65336,-9.33146,88.6483
2023-03-10 23:49:36:851,0,1.65228,-9.298,88.6451
2023-03-10 23:49:36:860,0,1.65262,-9.26841,88.6349
2023-03-10 23:49:36:870,0,1.65388,-9.24304,88.6183
2023-03-10 23:49:36:880,0,1.65107,-9.22585,88.6008
2023-03-10 23:49:36:890,0,1.64753,-9.20738,88.5785
2023-03-10 23:49:36:900,0,1.64417,-9.19103,88.5537
2023-03-10 23:49:36:911,0,1.64653,-9.1735,88.5272
2023-03-10 23:49:36:921,0,1.65923,-9.14738,88.4986
2023-03-10 23:49:36:931,0,1.6843,-9.12163,88.4702
2023-03-10 23:49:36:941,0,1.72079,-9.09405,88.4484
2023-03-10 23:49:36:950,0,1.76321,-9.06833,88.4353
2023-03-10 23:49:36:961,0,1.8075,-9.04688,88.4301
2023-03-10 23:49:36:970,0,1.84695,-9.02887,88.4341
2023-03-10 23:49:36:981,0,1.87915,-9.0192,88.4431
2023-03-10 23:49:36:990,0,1.90508,-9.01746,88.4549
2023-03-10 23:49:37:1,0,1.92135,-9.01809,88.4636
2023-03-10 23:49:37:10,0,1.93694,-9.02267,88.4692
2023-03-10 23:49:37:20,0,1.94396,-9.03049,88.4722
2023-03-10 23:49:37:31,0,1.94399,-9.04313,88.4726
2023-03-10 23:49:37:41,0,1.94402,-9.05945,88.4716
2023-03-10 23:49:37:50,0,1.94287,-9.07546,88.4657
2023-03-10 23:49:37:61,0,1.9374,-9.0923,88.4572
2023-03-10 23:49:37:71,0,1.93222,-9.10876,88.4485
2023-03-10 23:49:37:81,0,1.93362,-9.12654,88.4454
2023-03-10 23:49:37:91,0,1.93324,-9.14459,88.4414
2023-03-10 23:49:37:100,0,1.93244,-9.15766,88.4395
2023-03-10 23:49:37:111,0,1.92924,-9.17016,88.4361
2023-03-10 23:49:37:121,0,1.92393,-9.17775,88.4298
2023-03-10 23:49:37:131,0,1.91985,-9.19059,88.4271
2023-03-10 23:49:37:141,0,1.9109,-9.20069,88.4255
2023-03-10 23:49:37:151,0,1.89947,-9.21291,88.4269
2023-03-10 23:49:37:161,0,1.8922,-9.2242,88.4308
2023-03-10 23:49:37:171,0,1.89012,-9.2332,88.4402
2023-03-10 23:49:37:181,0,1.88889,-9.23954,88.4558
2023-03-10 23:49:37:190,0,1.89222,-9.25038,88.4807
2023-03-10 23:49:37:201,0,1.89733,-9.26337,88.5135
2023-03-10 23:49:37:210,0,1.89372,-9.28281,88.55
2023-03-10 23:49:37:221,0,1.88602,-9.30143,88.5942
2023-03-10 23:49:37:231,0,1.87123,-9.32175,88.6422
2023-03-10 23:49:37:241,0,1.85235,-9.33778,88.6898
2023-03-10 23:49:37:251,0,1.82997,-9.35288,88.7378
2023-03-10 23:49:37:261,0,1.81203,-9.36378,88.7818
2023-03-10 23:49:37:271,0,1.79769,-9.37438,88.8258
2023-03-10 23:49:37:281,0,1.78381,-9.38329,88.8683
2023-03-10 23:49:37:291,0,1.77112,-9.39477,88.9085
2023-03-10 23:49:37:301,0,1.76279,-9.40446,88.945
2023-03-10 23:49:37:310,0,1.75205,-9.41709,88.9799
2023-03-10 23:49:37:321,0,1.74382,-9.42235,89.0148
2023-03-10 23:49:37:331,0,1.73671,-9.42731,89.0462
2023-03-10 23:49:37:341,0,1.73686,-9.43156,89.0731
2023-03-10 23:49:37:351,0,1.73657,-9.43476,89.0966
2023-03-10 23:49:37:361,0,1.73864,-9.43443,89.1167
2023-03-10 23:49:37:370,0,1.74024,-9.42735,89.1344
2023-03-10 23:49:37:380,0,1.7392,-9.4238,89.1467
2023-03-10 23:49:37:391,0,1.73695,-9.42125,89.159
2023-03-10 23:49:37:400,0,1.73135,-9.42302,89.1702
2023-03-10 23:49:37:410,0,1.72826,-9.42111,89.1778
2023-03-10 23:49:37:420,0,1.72044,-9.42319,89.1853
2023-03-10 23:49:37:430,0,1.70955,-9.42481,89.1938
2023-03-10 23:49:37:440,0,1.69233,-9.42307,89.201
2023-03-10 23:49:37:450,0,1.67603,-9.41912,89.2054
2023-03-10 23:49:37:460,0,1.66347,-9.41002,89.1996
2023-03-10 23:49:37:470,0,1.65322,-9.40007,89.192
2023-03-10 23:49:37:480,0,1.64449,-9.39125,89.187
2023-03-10 23:49:37:490,0,1.63884,-9.3834,89.18
2023-03-10 23:49:37:500,0,1.62998,-9.37557,89.1674
2023-03-10 23:49:37:510,0,1.61802,-9.36201,89.1544
2023-03-10 23:49:37:521,0,1.60317,-9.3526,89.1406
2023-03-10 23:49:37:531,0,1.58869,-9.33928,89.1241
2023-03-10 23:49:37:541,0,1.57625,-9.32775,89.1069
2023-03-10 23:49:37:551,0,1.56287,-9.32036,89.0949
2023-03-10 23:49:37:561,0,1.55989,-9.31226,89.0797
2023-03-10 23:49:37:571,0,1.56211,-9.30162,89.0651
2023-03-10 23:49:37:581,0,1.56593,-9.29134,89.053
2023-03-10 23:49:37:591,0,1.57179,-9.27834,89.041
2023-03-10 23:49:37:601,0,1.58015,-9.2689,89.0285
2023-03-10 23:49:37:610,0,1.59191,-9.25767,89.0202
2023-03-10 23:49:37:621,0,1.60142,-9.24756,89.0131
2023-03-10 23:49:37:631,0,1.60618,-9.24199,89.0091
2023-03-10 23:49:37:641,0,1.61024,-9.24019,89.0067
2023-03-10 23:49:37:650,0,1.61345,-9.23951,89.0085
2023-03-10 23:49:37:660,0,1.61263,-9.24031,89.0105
2023-03-10 23:49:37:670,0,1.61241,-9.24028,89.0135
2023-03-10 23:49:37:680,0,1.6105,-9.23645,89.0189
2023-03-10 23:49:37:690,0,1.61013,-9.23361,89.0216
2023-03-10 23:49:37:700,0,1.60428,-9.23289,89.0287
2023-03-10 23:49:37:710,0,1.59908,-9.22865,89.0319
2023-03-10 23:49:37:720,0,1.59438,-9.22763,89.0377
2023-03-10 23:49:37:730,0,1.59217,-9.22515,89.0416
2023-03-10 23:49:37:740,0,1.58382,-9.22529,89.0443
2023-03-10 23:49:37:750,0,1.57752,-9.22382,89.0439
2023-03-10 23:49:37:760,0,1.57253,-9.22189,89.0434
2023-03-10 23:49:37:770,0,1.57068,-9.22006,89.0408
2023-03-10 23:49:37:780,0,1.56854,-9.2172,89.0369
2023-03-10 23:49:37:790,0,1.56809,-9.22172,89.0389
2023-03-10 23:49:37:800,0,1.57038,-9.22488,89.0422
2023-03-10 23:49:37:810,0,1.57376,-9.22468,89.0458
2023-03-10 23:49:37:820,0,1.57536,-9.2256,89.0555
2023-03-10 23:49:37:830,0,1.57973,-9.22861,89.0652
2023-03-10 23:49:37:840,0,1.59016,-9.22839,89.0711
2023-03-10 23:49:37:850,0,1.60665,-9.22607,89.0753
2023-03-10 23:49:37:860,0,1.62277,-9.2203,89.0805
2023-03-10 23:49:37:870,0,1.63627,-9.21312,89.0828
2023-03-10 23:49:37:880,0,1.64628,-9.20742,89.0838
2023-03-10 23:49:37:890,0,1.65655,-9.20489,89.0866
2023-03-10 23:49:37:900,0,1.665,-9.20432,89.0886
2023-03-10 23:49:37:910,0,1.6702,-9.20787,89.0923
2023-03-10 23:49:37:920,0,1.67366,-9.21029,89.1018
2023-03-10 23:49:37:930,0,1.68141,-9.21197,89.1062
2023-03-10 23:49:37:940,0,1.68964,-9.21684,89.1117
2023-03-10 23:49:37:950,0,1.69716,-9.21738,89.1142
2023-03-10 23:49:37:960,0,1.70557,-9.21874,89.121
2023-03-10 23:49:37:970,0,1.71406,-9.21835,89.1223
2023-03-10 23:49:37:980,0,1.71916,-9.22027,89.1247
2023-03-10 23:49:37:990,0,1.72237,-9.22464,89.1322
2023-03-10 23:49:38:0,0,1.72184,-9.22501,89.1375
2023-03-10 23:49:38:10,0,1.72355,-9.22724,89.1425
2023-03-10 23:49:38:20,0,1.72646,-9.22814,89.147
2023-03-10 23:49:38:30,0,1.73091,-9.22857,89.1501
2023-03-10 23:49:38:40,0,1.73595,-9.22875,89.1535
2023-03-10 23:49:38:50,0,1.74204,-9.2302,89.1596
2023-03-10 23:49:38:60,0,1.7479,-9.23219,89.1682
2023-03-10 23:49:38:70,0,1.75154,-9.23949,89.1795
2023-03-10 23:49:38:80,0,1.75529,-9.24681,89.1903
2023-03-10 23:49:38:90,0,1.75918,-9.25437,89.2009
2023-03-10 23:49:38:100,0,1.76008,-9.26054,89.2129
2023-03-10 23:49:38:110,0,1.76671,-9.26712,89.222
2023-03-10 23:49:38:120,0,1.77024,-9.27141,89.2289
2023-03-10 23:49:38:130,0,1.77228,-9.27518,89.2366
2023-03-10 23:49:38:140,0,1.77901,-9.28052,89.2433
2023-03-10 23:49:38:150,0,1.78343,-9.28727,89.2489
2023-03-10 23:49:38:160,0,1.79119,-9.29144,89.2524
2023-03-10 23:49:38:170,0,1.79426,-9.29363,89.2563
2023-03-10 23:49:38:180,0,1.79737,-9.29562,89.2603
2023-03-10 23:49:38:190,0,1.79478,-9.29761,89.2637
2023-03-10 23:49:38:200,0,1.78993,-9.29781,89.2688
2023-03-10 23:49:38:210,0,1.78724,-9.29876,89.2727
2023-03-10 23:49:38:220,0,1.78034,-9.30137,89.2791
2023-03-10 23:49:38:230,0,1.77135,-9.30135,89.2901
2023-03-10 23:49:38:240,0,1.76681,-9.30327,89.2997
2023-03-10 23:49:38:250,0,1.76221,-9.30439,89.3074
2023-03-10 23:49:38:260,0,1.75846,-9.30508,89.3131
2023-03-10 23:49:38:270,0,1.75618,-9.30761,89.3208
2023-03-10 23:49:38:280,0,1.74893,-9.31006,89.3298
2023-03-10 23:49:38:290,0,1.748,-9.3113,89.3351
2023-03-10 23:49:38:300,0,1.75081,-9.30843,89.3404
2023-03-10 23:49:38:310,0,1.75877,-9.30379,89.3436
2023-03-10 23:49:38:320,0,1.76711,-9.30343,89.3478
2023-03-10 23:49:38:330,0,1.77457,-9.30654,89.3558
2023-03-10 23:49:38:340,0,1.77897,-9.31171,89.3666
2023-03-10 23:49:38:350,0,1.7811,-9.31958,89.3798
2023-03-10 23:49:38:360,0,1.7795,-9.32659,89.3934
2023-03-10 23:49:38:370,0,1.77402,-9.33396,89.4106
2023-03-10 23:49:38:380,0,1.76927,-9.34009,89.428
2023-03-10 23:49:38:390,0,1.76302,-9.34459,89.4489
2023-03-10 23:49:38:400,0,1.76147,-9.3496,89.4727
2023-03-10 23:49:38:410,0,1.7628,-9.35308,89.4951
2023-03-10 23:49:38:420,0,1.7668,-9.35503,89.5148
2023-03-10 23:49:38:430,0,1.77106,-9.35676,89.5332
2023-03-10 23:49:38:440,0,1.77379,-9.35866,89.5573
2023-03-10 23:49:38:450,0,1.77999,-9.35984,89.5803
2023-03-10 23:49:38:460,0,1.78575,-9.36149,89.6078
2023-03-10 23:49:38:470,0,1.79029,-9.36121,89.6333
2023-03-10 23:49:38:480,0,1.791,-9.36283,89.6626
2023-03-10 23:49:38:490,0,1.79055,-9.36459,89.6933
2023-03-10 23:49:38:500,0,1.7968,-9.36666,89.7206
2023-03-10 23:49:38:511,0,1.79731,-9.36928,89.7549
2023-03-10 23:49:38:520,0,1.79831,-9.37976,89.788
2023-03-10 23:49:38:530,0,1.79876,-9.38979,89.8197
2023-03-10 23:49:38:540,0,1.80297,-9.39636,89.8522
2023-03-10 23:49:38:550,0,1.80866,-9.40303,89.8869
2023-03-10 23:49:38:560,0,1.81114,-9.41232,89.9234
2023-03-10 23:49:38:570,0,1.81681,-9.41675,89.962
2023-03-10 23:49:38:580,0,1.82092,-9.42031,90.0014
2023-03-10 23:49:38:590,0,1.82808,-9.42362,90.0395
2023-03-10 23:49:38:600,0,1.83176,-9.4256,90.0793
2023-03-10 23:49:38:610,0,1.83552,-9.42644,90.1203
2023-03-10 23:49:38:620,0,1.83785,-9.43222,90.1638
2023-03-10 23:49:38:631,0,1.84379,-9.44099,90.2069
2023-03-10 23:49:38:640,0,1.84899,-9.44675,90.255
2023-03-10 23:49:38:650,0,1.85241,-9.45181,90.3015
2023-03-10 23:49:38:660,0,1.85682,-9.44918,90.3471
2023-03-10 23:49:38:670,0,1.8616,-9.441,90.3909
2023-03-10 23:49:38:680,0,1.86574,-9.43442,90.4339
2023-03-10 23:49:38:690,0,1.87042,-9.42969,90.4762
2023-03-10 23:49:38:700,0,1.87816,-9.43426,90.5206
2023-03-10 23:49:38:710,0,1.88101,-9.44188,90.5647
2023-03-10 23:49:38:720,0,1.88056,-9.44652,90.6039
2023-03-10 23:49:38:730,0,1.88413,-9.45344,90.6438
2023-03-10 23:49:38:740,0,1.89127,-9.46248,90.6793
2023-03-10 23:49:38:750,0,1.89779,-9.47078,90.7145
2023-03-10 23:49:38:760,0,1.90096,-9.4766,90.7452
2023-03-10 23:49:38:770,0,1.90255,-9.48163,90.7737
2023-03-10 23:49:38:780,0,1.90707,-9.48711,90.7975
2023-03-10 23:49:38:790,0,1.91416,-9.49602,90.8233
2023-03-10 23:49:38:800,0,1.91993,-9.50381,90.8492
2023-03-10 23:49:38:810,0,1.92384,-9.5116,90.8751
2023-03-10 23:49:38:820,0,1.92745,-9.51724,90.8928
2023-03-10 23:49:38:830,0,1.92941,-9.5194,90.911
2023-03-10 23:49:38:840,0,1.93262,-9.52191,90.9256
2023-03-10 23:49:38:850,0,1.93673,-9.52696,90.9386
2023-03-10 23:49:38:860,0,1.93912,-9.53253,90.9563
2023-03-10 23:49:38:870,0,1.94279,-9.53894,90.9749
2023-03-10 23:49:38:880,0,1.94676,-9.54327,90.9954
2023-03-10 23:49:38:890,0,1.94687,-9.54348,91.0165
2023-03-10 23:49:38:900,0,1.94783,-9.54266,91.0369
2023-03-10 23:49:38:910,0,1.95086,-9.54151,91.0566
2023-03-10 23:49:38:920,0,1.9512,-9.54294,91.0781
2023-03-10 23:49:38:930,0,1.9513,-9.55064,91.1038
2023-03-10 23:49:38:940,0,1.94858,-9.56238,91.1313
2023-03-10 23:49:38:950,0,1.94532,-9.57757,91.1574
2023-03-10 23:49:38:960,0,1.9412,-9.5908,91.1828
2023-03-10 23:49:38:970,0,1.93328,-9.60544,91.2081
2023-03-10 23:49:38:980,0,1.92863,-9.61655,91.2333
2023-03-10 23:49:38:990,0,1.92892,-9.62467,91.2604
2023-03-10 23:49:39:0,0,1.93526,-9.63504,91.2829
2023-03-10 23:49:39:10,0,1.94337,-9.64284,91.3091
2023-03-10 23:49:39:20,0,1.95512,-9.64558,91.3331
2023-03-10 23:49:39:30,0,1.96867,-9.64415,91.3593
2023-03-10 23:49:39:40,0,1.97951,-9.64511,91.3881
2023-03-10 23:49:39:50,0,1.99141,-9.64226,91.4163
2023-03-10 23:49:39:60,0,2.00305,-9.64333,91.4442
2023-03-10 23:49:39:70,0,2.01945,-9.64512,91.4762
2023-03-10 23:49:39:80,0,2.03511,-9.64552,91.5024
2023-03-10 23:49:39:91,0,2.05327,-9.6422,91.5312
2023-03-10 23:49:39:101,0,2.07673,-9.63604,91.5598
2023-03-10 23:49:39:110,0,2.10089,-9.63256,91.5869
2023-03-10 23:49:39:120,0,2.12463,-9.62614,91.6136
2023-03-10 23:49:39:130,0,2.14804,-9.62132,91.6384
2023-03-10 23:49:39:140,0,2.17222,-9.6145,91.6671
2023-03-10 23:49:39:150,0,2.19471,-9.60528,91.6924
2023-03-10 23:49:39:160,0,2.21699,-9.59826,91.7157
2023-03-10 23:49:39:170,0,2.23888,-9.59194,91.736
2023-03-10 23:49:39:180,0,2.26219,-9.59238,91.7598
2023-03-10 23:49:39:190,0,2.2819,-9.59067,91.7833
2023-03-10 23:49:39:200,0,2.30127,-9.59383,91.8047
2023-03-10 23:49:39:210,0,2.31974,-9.5969,91.8279
2023-03-10 23:49:39:220,0,2.33277,-9.60065,91.851
2023-03-10 23:49:39:230,0,2.33692,-9.60326,91.8725
2023-03-10 23:49:39:240,0,2.34412,-9.6102,91.8932
2023-03-10 23:49:39:250,0,2.34135,-9.61788,91.9121
2023-03-10 23:49:39:260,0,2.34029,-9.6254,91.9345
2023-03-10 23:49:39:270,0,2.3368,-9.63419,91.9542
2023-03-10 23:49:39:280,0,2.33634,-9.64059,91.9735
2023-03-10 23:49:39:290,0,2.33888,-9.64709,91.9923
2023-03-10 23:49:39:300,0,2.33774,-9.65506,92.0093
2023-03-10 23:49:39:310,0,2.34045,-9.66239,92.0227
2023-03-10 23:49:39:320,0,2.343,-9.66935,92.0355
2023-03-10 23:49:39:330,0,2.34284,-9.67886,92.0479
2023-03-10 23:49:39:340,0,2.34147,-9.68665,92.057
2023-03-10 23:49:39:350,0,2.342,-9.69598,92.0632
2023-03-10 23:49:39:360,0,2.34177,-9.70623,92.0687
2023-03-10 23:49:39:370,0,2.33823,-9.71664,92.0757
2023-03-10 23:49:39:380,0,2.33584,-9.72957,92.0845
2023-03-10 23:49:39:390,0,2.3297,-9.74238,92.0894
2023-03-10 23:49:39:400,0,2.32551,-9.75045,92.0964
2023-03-10 23:49:39:410,0,2.31624,-9.75857,92.1066
2023-03-10 23:49:39:420,0,2.30665,-9.76678,92.1192
2023-03-10 23:49:39:430,0,2.30326,-9.77134,92.1299
2023-03-10 23:49:39:440,0,2.29383,-9.77656,92.1415
2023-03-10 23:49:39:450,0,2.2838,-9.78531,92.1466
2023-03-10 23:49:39:460,0,2.27005,-9.79547,92.1516
2023-03-10 23:49:39:470,0,2.25449,-9.80174,92.1545
2023-03-10 23:49:39:480,0,2.23927,-9.806,92.1556
2023-03-10 23:49:39:490,0,2.22169,-9.8155,92.1569
2023-03-10 23:49:39:500,0,2.20347,-9.82334,92.1536
2023-03-10 23:49:39:510,0,2.18197,-9.83232,92.1522
2023-03-10 23:49:39:520,0,2.163,-9.84261,92.1529
2023-03-10 23:49:39:530,0,2.14684,-9.84886,92.1554
2023-03-10 23:49:39:540,0,2.13498,-9.855,92.1572
2023-03-10 23:49:39:550,0,2.11888,-9.86098,92.1605
2023-03-10 23:49:39:560,0,2.10488,-9.86486,92.1665
2023-03-10 23:49:39:570,0,2.0939,-9.86956,92.169
2023-03-10 23:49:39:580,0,2.08511,-9.87636,92.1719
2023-03-10 23:49:39:590,0,2.07506,-9.87949,92.1728
2023-03-10 23:49:39:600,0,2.06884,-9.88706,92.1725
2023-03-10 23:49:39:610,0,2.06396,-9.89311,92.1755
2023-03-10 23:49:39:620,0,2.06407,-9.89739,92.1764
2023-03-10 23:49:39:630,0,2.06778,-9.90155,92.1774
2023-03-10 23:49:39:640,0,2.07133,-9.90447,92.1809
2023-03-10 23:49:39:650,0,2.07521,-9.90949,92.1855
2023-03-10 23:49:39:660,0,2.07618,-9.91178,92.1923
2023-03-10 23:49:39:670,0,2.07202,-9.91248,92.1971
2023-03-10 23:49:39:680,0,2.06925,-9.91392,92.2004
2023-03-10 23:49:39:690,0,2.06779,-9.91625,92.2022
2023-03-10 23:49:39:700,0,2.06732,-9.92286,92.2022
2023-03-10 23:49:39:710,0,2.06903,-9.9259,92.1969
2023-03-10 23:49:39:720,0,2.07417,-9.93031,92.1938
2023-03-10 23:49:39:730,0,2.08364,-9.93466,92.1894
2023-03-10 23:49:39:740,0,2.09334,-9.93815,92.1802
2023-03-10 23:49:39:750,0,2.10918,-9.94031,92.1696
2023-03-10 23:49:39:760,0,2.12499,-9.94481,92.1611
2023-03-10 23:49:39:770,0,2.13707,-9.94838,92.1474
2023-03-10 23:49:39:780,0,2.15185,-9.95042,92.1314
2023-03-10 23:49:39:791,0,2.1652,-9.95072,92.1138
2023-03-10 23:49:39:800,0,2.18071,-9.94796,92.0967
2023-03-10 23:49:39:811,0,2.19623,-9.9534,92.0842
2023-03-10 23:49:39:820,0,2.21065,-9.95738,92.0744
2023-03-10 23:49:39:830,0,2.2245,-9.96155,92.0632
2023-03-10 23:49:39:840,0,2.2342,-9.96653,92.0567
2023-03-10 23:49:39:850,0,2.2434,-9.96855,92.0532
2023-03-10 23:49:39:860,0,2.2503,-9.96926,92.0452
2023-03-10 23:49:39:870,0,2.262,-9.97351,92.0451
2023-03-10 23:49:39:880,0,2.27381,-9.97478,92.0438
2023-03-10 23:49:39:890,0,2.28665,-9.97778,92.0432
2023-03-10 23:49:39:900,0,2.30324,-9.9798,92.0481
2023-03-10 23:49:39:910,0,2.31773,-9.98114,92.0495
2023-03-10 23:49:39:920,0,2.32935,-9.98104,92.0455
2023-03-10 23:49:39:930,0,2.34126,-9.98044,92.033
2023-03-10 23:49:39:940,0,2.34778,-9.97724,92.018
2023-03-10 23:49:39:950,0,2.35094,-9.97501,91.9919
2023-03-10 23:49:39:960,0,2.34741,-9.97276,91.9559
2023-03-10 23:49:39:970,0,2.34232,-9.97122,91.9072
2023-03-10 23:49:39:981,0,2.33962,-9.97302,91.8531
2023-03-10 23:49:39:990,0,2.34177,-9.97833,91.7914
2023-03-10 23:49:40:0,0,2.34699,-9.98062,91.722
2023-03-10 23:49:40:10,0,2.35161,-9.98659,91.6539
2023-03-10 23:49:40:20,0,2.3526,-10.0,91.5779
2023-03-10 23:49:40:30,0,2.35118,-10.014,91.5048
2023-03-10 23:49:40:40,0,2.35059,-10.0244,91.4268
2023-03-10 23:49:40:50,0,2.34964,-10.0252,91.3479
2023-03-10 23:49:40:60,0,2.34644,-10.0266,91.2648
2023-03-10 23:49:40:70,0,2.34207,-10.0265,91.1827
2023-03-10 23:49:40:80,0,2.3353,-10.0285,91.1062
2023-03-10 23:49:40:90,0,2.33119,-10.0312,91.0331
2023-03-10 23:49:40:100,0,2.32307,-10.035,90.9699
2023-03-10 23:49:40:110,0,2.31863,-10.0419,90.9121
2023-03-10 23:49:40:120,0,2.31336,-10.0448,90.8638
2023-03-10 23:49:40:130,0,2.30878,-10.0471,90.8238
2023-03-10 23:49:40:140,0,2.30613,-10.0472,90.7933
2023-03-10 23:49:40:150,0,2.3052,-10.046,90.769
2023-03-10 23:49:40:160,0,2.30859,-10.0405,90.7519
2023-03-10 23:49:40:170,0,2.31297,-10.036,90.7416
2023-03-10 23:49:40:180,0,2.31886,-10.0287,90.7379
2023-03-10 23:49:40:190,0,2.32595,-10.0256,90.7375
2023-03-10 23:49:40:200,0,2.32962,-10.0211,90.7403
2023-03-10 23:49:40:210,0,2.33711,-10.0197,90.7492
2023-03-10 23:49:40:220,0,2.34741,-10.0163,90.7592
2023-03-10 23:49:40:230,0,2.35576,-10.0144,90.7725
2023-03-10 23:49:40:240,0,2.35915,-10.0175,90.7881
2023-03-10 23:49:40:250,0,2.36681,-10.0246,90.8053
2023-03-10 23:49:40:260,0,2.36822,-10.0315,90.8173
2023-03-10 23:49:40:271,0,2.37503,-10.0372,90.8285
2023-03-10 23:49:40:280,0,2.38018,-10.0422,90.8425
2023-03-10 23:49:40:290,0,2.38484,-10.0446,90.8495
2023-03-10 23:49:40:300,0,2.39706,-10.0463,90.8557
2023-03-10 23:49:40:310,0,2.40695,-10.0525,90.8647
2023-03-10 23:49:40:320,0,2.41745,-10.0561,90.8782
2023-03-10 23:49:40:330,0,2.43356,-10.0626,90.901
2023-03-10 23:49:40:340,0,2.45005,-10.0669,90.9279
2023-03-10 23:49:40:350,0,2.46638,-10.0716,90.9624
2023-03-10 23:49:40:360,0,2.48268,-10.0774,91.0008
2023-03-10 23:49:40:370,0,2.49874,-10.0827,91.0473
2023-03-10 23:49:40:380,0,2.5106,-10.089,91.0959
2023-03-10 23:49:40:390,0,2.52027,-10.0949,91.1493
2023-03-10 23:49:40:400,0,2.53214,-10.1028,91.2088
2023-03-10 23:49:40:410,0,2.54522,-10.108,91.2705
2023-03-10 23:49:40:420,0,2.56089,-10.1127,91.3332
2023-03-10 23:49:40:430,0,2.5751,-10.1133,91.3922
2023-03-10 23:49:40:440,0,2.5893,-10.1179,91.4496
2023-03-10 23:49:40:450,0,2.59889,-10.1231,91.4995
2023-03-10 23:49:40:460,0,2.60631,-10.1337,91.5478
2023-03-10 23:49:40:470,0,2.61703,-10.1474,91.5926
2023-03-10 23:49:40:480,0,2.61831,-10.1588,91.6316
2023-03-10 23:49:40:490,0,2.62212,-10.1715,91.6659
2023-03-10 23:49:40:500,0,2.62388,-10.1892,91.6954
2023-03-10 23:49:40:510,0,2.62152,-10.2011,91.7165
2023-03-10 23:49:40:520,0,2.6245,-10.2143,91.7327
2023-03-10 23:49:40:530,0,2.62955,-10.2245,91.7461
2023-03-10 23:49:40:540,0,2.6348,-10.2379,91.7576
2023-03-10 23:49:40:550,0,2.63663,-10.2517,91.7654
2023-03-10 23:49:40:560,0,2.64186,-10.2665,91.7755
2023-03-10 23:49:40:571,0,2.64169,-10.283,91.792
2023-03-10 23:49:40:580,0,2.64226,-10.2977,91.8116
2023-03-10 23:49:40:591,0,2.64658,-10.3108,91.8316
2023-03-10 23:49:40:600,0,2.64123,-10.3232,91.8545
2023-03-10 23:49:40:610,0,2.64149,-10.3335,91.8765
2023-03-10 23:49:40:620,0,2.64434,-10.3412,91.902
2023-03-10 23:49:40:630,0,2.64425,-10.3517,91.9293
2023-03-10 23:49:40:640,0,2.65175,-10.3615,91.9601
2023-03-10 23:49:40:650,0,2.65393,-10.3701,91.9921
2023-03-10 23:49:40:660,0,2.65653,-10.3799,92.0286
2023-03-10 23:49:40:670,0,2.66223,-10.3864,92.0597
2023-03-10 23:49:40:680,0,2.66745,-10.392,92.0955
2023-03-10 23:49:40:690,0,2.67033,-10.397,92.1314
2023-03-10 23:49:40:700,0,2.67494,-10.3964,92.1697
2023-03-10 23:49:40:710,0,2.68185,-10.4021,92.212
2023-03-10 23:49:40:720,0,2.68866,-10.4014,92.2531
2023-03-10 23:49:40:730,0,2.69619,-10.4021,92.2937
2023-03-10 23:49:40:740,0,2.70304,-10.4025,92.3297
2023-03-10 23:49:40:750,0,2.71226,-10.4059,92.363
