Timestamp_cmd,imu_cmd,roll_delta,pitch_delta,yaw_delta,voice_type,voice_length
2023-03-14 22:08:46:855,0,-7.05901,-4.01298,14.1147,Q,Q
2023-03-14 22:08:46:864,0,-7.05277,-4.01404,14.1033,Q,Q
2023-03-14 22:08:46:874,0,-7.04702,-4.01046,14.0894,Q,Q
2023-03-14 22:08:46:884,0,-7.03991,-4.00849,14.0767,Q,Q
2023-03-14 22:08:46:894,0,-7.034,-4.00115,14.0642,Q,Q
2023-03-14 22:08:46:904,0,-7.03018,-3.99343,14.0559,Q,Q
2023-03-14 22:08:46:914,0,-7.02722,-3.9866,14.0452,Q,Q
2023-03-14 22:08:46:924,0,-7.02403,-3.98574,14.0365,Q,Q
2023-03-14 22:08:46:934,0,-7.02447,-3.98221,14.0353,Q,Q
2023-03-14 22:08:46:944,0,-7.02671,-3.98055,14.0349,Q,Q
2023-03-14 22:08:46:954,0,-7.03217,-3.9786,14.0342,Q,Q
2023-03-14 22:08:46:964,0,-7.03806,-3.9757,14.033,Q,Q
2023-03-14 22:08:46:974,0,-7.048,-3.97204,14.0301,Q,Q
2023-03-14 22:08:46:984,0,-7.0566,-3.96905,14.0289,Q,Q
2023-03-14 22:08:46:994,0,-7.06244,-3.96466,14.0278,Q,Q
2023-03-14 22:08:47:4,0,-7.06346,-3.95668,14.0247,Q,Q
2023-03-14 22:08:47:14,0,-7.06039,-3.95231,14.0203,Q,Q
2023-03-14 22:08:47:24,0,-7.05354,-3.94357,14.0131,Q,Q
2023-03-14 22:08:47:34,0,-7.04811,-3.93563,14.0039,Q,Q
2023-03-14 22:08:47:44,0,-7.04332,-3.92168,14.0012,Q,Q
2023-03-14 22:08:47:54,0,-7.04062,-3.90908,13.9983,Q,Q
2023-03-14 22:08:47:64,0,-7.0394,-3.89523,14.0012,Q,Q
2023-03-14 22:08:47:74,0,-7.03889,-3.88556,14.0103,Q,Q
2023-03-14 22:08:47:84,0,-7.03851,-3.87636,14.0214,Q,Q
2023-03-14 22:08:47:94,0,-7.04304,-3.87011,14.0368,Q,Q
2023-03-14 22:08:47:104,0,-7.05133,-3.85969,14.0527,Q,Q
2023-03-14 22:08:47:114,0,-7.06317,-3.85375,14.0762,Q,Q
2023-03-14 22:08:47:124,0,-7.07286,-3.84524,14.0953,Q,Q
2023-03-14 22:08:47:134,0,-7.08583,-3.84429,14.1158,Q,Q
2023-03-14 22:08:47:144,0,-7.10159,-3.84934,14.1391,Q,Q
2023-03-14 22:08:47:154,0,-7.11667,-3.86038,14.1611,Q,Q
2023-03-14 22:08:47:164,0,-7.13326,-3.87589,14.1768,Q,Q
2023-03-14 22:08:47:174,0,-7.14967,-3.89146,14.1878,Q,Q
2023-03-14 22:08:47:184,0,-7.16409,-3.90803,14.194,Q,Q
2023-03-14 22:08:47:194,0,-7.17836,-3.92672,14.1961,Q,Q
2023-03-14 22:08:47:204,0,-7.18735,-3.94274,14.1943,Q,Q
2023-03-14 22:08:47:214,0,-7.19354,-3.96186,14.1912,Q,Q
2023-03-14 22:08:47:224,0,-7.19905,-3.9812,14.1868,Q,Q
2023-03-14 22:08:47:234,0,-7.20023,-4.00211,14.1791,Q,Q
2023-03-14 22:08:47:244,0,-7.19508,-4.02193,14.1714,Q,Q
2023-03-14 22:08:47:254,0,-7.18852,-4.0414,14.1665,Q,Q
2023-03-14 22:08:47:264,0,-7.18157,-4.06016,14.1616,Q,Q
2023-03-14 22:08:47:274,0,-7.17238,-4.07655,14.1575,Q,Q
2023-03-14 22:08:47:284,0,-7.1639,-4.09078,14.156,Q,Q
2023-03-14 22:08:47:294,0,-7.15809,-4.10262,14.1563,Q,Q
2023-03-14 22:08:47:304,0,-7.15313,-4.11482,14.1562,Q,Q
2023-03-14 22:08:47:314,0,-7.1431,-4.12563,14.1591,Q,Q
2023-03-14 22:08:47:324,0,-7.14007,-4.13466,14.1652,Q,Q
2023-03-14 22:08:47:334,0,-7.13549,-4.14183,14.1714,Q,Q
2023-03-14 22:08:47:344,0,-7.13096,-4.14757,14.1759,Q,Q
2023-03-14 22:08:47:354,0,-7.12445,-4.15724,14.1845,Q,Q
2023-03-14 22:08:47:364,0,-7.11487,-4.16663,14.1929,Q,Q
2023-03-14 22:08:47:374,0,-7.11047,-4.17179,14.1971,Q,Q
2023-03-14 22:08:47:384,0,-7.09779,-4.17652,14.1939,Q,Q
2023-03-14 22:08:47:394,0,-7.08695,-4.18027,14.1903,Q,Q
2023-03-14 22:08:47:404,0,-7.07337,-4.18213,14.1839,Q,Q
2023-03-14 22:08:47:414,0,-7.06458,-4.18686,14.1823,Q,Q
2023-03-14 22:08:47:424,0,-7.06294,-4.19806,14.1834,Q,Q
2023-03-14 22:08:47:434,0,-7.06613,-4.2095,14.1818,Q,Q
2023-03-14 22:08:47:444,0,-7.07361,-4.21498,14.1804,Q,Q
2023-03-14 22:08:47:454,0,-7.08314,-4.21454,14.1868,Q,Q
2023-03-14 22:08:47:464,0,-7.0955,-4.2158,14.1913,Q,Q
2023-03-14 22:08:47:474,0,-7.10873,-4.2128,14.1984,Q,Q
2023-03-14 22:08:47:484,0,-7.1211,-4.20693,14.2067,Q,Q
2023-03-14 22:08:47:494,0,-7.13335,-4.20447,14.2116,Q,Q
2023-03-14 22:08:47:504,0,-7.14148,-4.20723,14.2157,Q,Q
2023-03-14 22:08:47:514,0,-7.14251,-4.20893,14.2152,Q,Q
2023-03-14 22:08:47:524,0,-7.14467,-4.21408,14.2112,Q,Q
2023-03-14 22:08:47:534,0,-7.14436,-4.21681,14.2088,Q,Q
2023-03-14 22:08:47:544,0,-7.14153,-4.21532,14.2028,Q,Q
2023-03-14 22:08:47:554,0,-7.1402,-4.21645,14.2018,Q,Q
2023-03-14 22:08:47:564,0,-7.13832,-4.2161,14.2011,Q,Q
2023-03-14 22:08:47:574,0,-7.141,-4.21916,14.2097,Q,Q
2023-03-14 22:08:47:584,0,-7.14235,-4.22361,14.2223,Q,Q
2023-03-14 22:08:47:594,0,-7.14954,-4.22687,14.2369,Q,Q
2023-03-14 22:08:47:604,0,-7.15279,-4.2301,14.252,Q,Q
2023-03-14 22:08:47:614,0,-7.15774,-4.23135,14.2682,Q,Q
2023-03-14 22:08:47:624,0,-7.16079,-4.22776,14.2808,Q,Q
2023-03-14 22:08:47:634,0,-7.16328,-4.2238,14.2924,Q,Q
2023-03-14 22:08:47:644,0,-7.16401,-4.21983,14.3012,Q,Q
2023-03-14 22:08:47:654,0,-7.16594,-4.21097,14.3083,Q,Q
2023-03-14 22:08:47:664,0,-7.16683,-4.20384,14.3137,Q,Q
2023-03-14 22:08:47:674,0,-7.17234,-4.19906,14.3207,Q,Q
2023-03-14 22:08:47:684,0,-7.17844,-4.19624,14.3331,Q,Q
2023-03-14 22:08:47:694,0,-7.18742,-4.19161,14.344,Q,Q
2023-03-14 22:08:47:704,0,-7.19303,-4.18921,14.3522,Q,Q
2023-03-14 22:08:47:714,0,-7.20059,-4.1889,14.3606,Q,Q
2023-03-14 22:08:47:724,0,-7.20886,-4.18147,14.3674,Q,Q
2023-03-14 22:08:47:734,0,-7.21921,-4.1785,14.3739,Q,Q
2023-03-14 22:08:47:744,0,-7.23182,-4.17311,14.378,Q,Q
2023-03-14 22:08:47:754,0,-7.24114,-4.16908,14.3819,Q,Q
2023-03-14 22:08:47:764,0,-7.25243,-4.16381,14.3887,Q,Q
2023-03-14 22:08:47:774,0,-7.25783,-4.16123,14.3949,Q,Q
2023-03-14 22:08:47:784,0,-7.26439,-4.15985,14.3958,Q,Q
2023-03-14 22:08:47:794,0,-7.26455,-4.15622,14.3919,Q,Q
2023-03-14 22:08:47:804,0,-7.26698,-4.15487,14.3899,Q,Q
2023-03-14 22:08:47:814,0,-7.26924,-4.15034,14.3832,Q,Q
2023-03-14 22:08:47:824,0,-7.27188,-4.14496,14.379,Q,Q
2023-03-14 22:08:47:834,0,-7.2746,-4.14066,14.3737,Q,Q
2023-03-14 22:08:47:844,0,-7.279,-4.13837,14.3708,Q,Q
2023-03-14 22:08:47:854,0,-7.28104,-4.1368,14.372,Q,Q
2023-03-14 22:08:47:864,0,-7.28851,-4.13581,14.3707,Q,Q
2023-03-14 22:08:47:874,0,-7.29402,-4.12872,14.37,Q,Q
2023-03-14 22:08:47:884,0,-7.29846,-4.12318,14.368,Q,Q
2023-03-14 22:08:47:894,0,-7.29738,-4.11507,14.3666,Q,Q
2023-03-14 22:08:47:904,0,-7.29392,-4.10989,14.3721,Q,Q
2023-03-14 22:08:47:914,0,-7.30214,-4.11104,14.3812,Q,Q
2023-03-14 22:08:47:924,0,-7.31289,-4.11043,14.3935,Q,Q
2023-03-14 22:08:47:934,0,-7.32944,-4.11035,14.4057,Q,Q
2023-03-14 22:08:47:944,0,-7.34619,-4.11043,14.4201,Q,Q
2023-03-14 22:08:47:954,0,-7.36655,-4.11927,14.4356,Q,Q
2023-03-14 22:08:47:964,0,-7.38277,-4.12618,14.452,Q,Q
2023-03-14 22:08:47:974,0,-7.40368,-4.13628,14.4616,Q,Q
2023-03-14 22:08:47:984,0,-7.41981,-4.14439,14.4721,Q,Q
2023-03-14 22:08:47:994,0,-7.43472,-4.15536,14.4825,Q,Q
2023-03-14 22:08:48:4,0,-7.44502,-4.16355,14.486,Q,Q
2023-03-14 22:08:48:14,0,-7.45226,-4.17028,14.4853,Q,Q
2023-03-14 22:08:48:24,0,-7.45588,-4.177,14.4835,Q,Q
2023-03-14 22:08:48:34,0,-7.46225,-4.18242,14.4801,Q,Q
2023-03-14 22:08:48:44,0,-7.4665,-4.19417,14.4739,Q,Q
2023-03-14 22:08:48:54,0,-7.46711,-4.20287,14.4695,Q,Q
2023-03-14 22:08:48:64,0,-7.47234,-4.20908,14.4627,Q,Q
2023-03-14 22:08:48:74,0,-7.48036,-4.21296,14.4552,Q,Q
2023-03-14 22:08:48:84,0,-7.48631,-4.2109,14.4471,Q,Q
2023-03-14 22:08:48:94,0,-7.48915,-4.20586,14.4369,Q,Q
2023-03-14 22:08:48:104,0,-7.49383,-4.20085,14.4289,Q,Q
2023-03-14 22:08:48:114,0,-7.49858,-4.19547,14.4188,Q,Q
2023-03-14 22:08:48:124,0,-7.50779,-4.1877,14.4113,Q,Q
2023-03-14 22:08:48:134,0,-7.51861,-4.18081,14.4045,Q,Q
2023-03-14 22:08:48:144,0,-7.53704,-4.16998,14.4018,Q,Q
2023-03-14 22:08:48:154,0,-7.55542,-4.16053,14.3995,Q,Q
2023-03-14 22:08:48:163,0,-7.57543,-4.15285,14.3943,Q,Q
2023-03-14 22:08:48:174,0,-7.59001,-4.14977,14.388,Q,Q
2023-03-14 22:08:48:184,0,-7.60057,-4.14204,14.3837,Q,Q
2023-03-14 22:08:48:194,0,-7.60596,-4.13797,14.3784,Q,Q
2023-03-14 22:08:48:204,0,-7.61193,-4.13522,14.3732,Q,Q
2023-03-14 22:08:48:214,0,-7.62145,-4.13169,14.3731,Q,Q
2023-03-14 22:08:48:224,0,-7.62759,-4.13138,14.3757,Q,Q
2023-03-14 22:08:48:234,0,-7.63879,-4.13027,14.3799,Q,Q
2023-03-14 22:08:48:244,0,-7.64318,-4.13183,14.3779,Q,Q
2023-03-14 22:08:48:254,0,-7.65308,-4.13517,14.3824,Q,Q
2023-03-14 22:08:48:264,0,-7.66443,-4.13626,14.3853,Q,Q
2023-03-14 22:08:48:274,0,-7.67124,-4.1388,14.3875,Q,Q
2023-03-14 22:08:48:284,0,-7.67965,-4.13819,14.3877,Q,Q
2023-03-14 22:08:48:294,0,-7.68599,-4.13807,14.3873,Q,Q
2023-03-14 22:08:48:304,0,-7.69076,-4.13441,14.3892,Q,Q
2023-03-14 22:08:48:314,0,-7.69108,-4.13104,14.3911,Q,Q
2023-03-14 22:08:48:324,0,-7.6888,-4.13124,14.393,Q,Q
2023-03-14 22:08:48:334,0,-7.68101,-4.126,14.3949,Q,Q
2023-03-14 22:08:48:344,0,-7.67236,-4.12154,14.3977,Q,Q
2023-03-14 22:08:48:354,0,-7.65515,-4.11886,14.3976,Q,Q
2023-03-14 22:08:48:364,0,-7.64489,-4.11845,14.398,Q,Q
2023-03-14 22:08:48:374,0,-7.6342,-4.11989,14.3992,Q,Q
2023-03-14 22:08:48:384,0,-7.63048,-4.12525,14.4015,Q,Q
2023-03-14 22:08:48:394,0,-7.62527,-4.12651,14.4044,Q,Q
2023-03-14 22:08:48:404,0,-7.62025,-4.13129,14.4041,Q,Q
2023-03-14 22:08:48:414,0,-7.61835,-4.1341,14.4073,Q,Q
2023-03-14 22:08:48:424,0,-7.61584,-4.14016,14.412,Q,Q
2023-03-14 22:08:48:434,0,-7.61145,-4.14231,14.4146,Q,Q
2023-03-14 22:08:48:444,0,-7.60534,-4.14254,14.4157,Q,Q
2023-03-14 22:08:48:454,0,-7.59336,-4.13658,14.4121,Q,Q
2023-03-14 22:08:48:464,0,-7.57642,-4.13248,14.4106,Q,Q
2023-03-14 22:08:48:474,0,-7.56159,-4.12912,14.4071,Q,Q
2023-03-14 22:08:48:484,0,-7.55296,-4.12926,14.402,Q,Q
2023-03-14 22:08:48:494,0,-7.54589,-4.13716,14.3964,Q,Q
2023-03-14 22:08:48:504,0,-7.54084,-4.14598,14.3871,Q,Q
2023-03-14 22:08:48:514,0,-7.53618,-4.15941,14.3746,Q,Q
2023-03-14 22:08:48:524,0,-7.53572,-4.17156,14.3541,Q,Q
2023-03-14 22:08:48:534,0,-7.5347,-4.18293,14.3326,Q,Q
2023-03-14 22:08:48:543,0,-7.53987,-4.19731,14.3087,Q,Q
2023-03-14 22:08:48:554,0,-7.54664,-4.21048,14.29,Q,Q
2023-03-14 22:08:48:564,0,-7.55524,-4.2286,14.2748,Q,Q
2023-03-14 22:08:48:574,0,-7.56806,-4.24366,14.2619,Q,Q
2023-03-14 22:08:48:584,0,-7.57969,-4.26013,14.2551,Q,Q
2023-03-14 22:08:48:594,0,-7.58893,-4.27112,14.2493,Q,Q
2023-03-14 22:08:48:604,0,-7.59451,-4.28224,14.2437,Q,Q
2023-03-14 22:08:48:614,0,-7.59678,-4.28822,14.2383,Q,Q
2023-03-14 22:08:48:624,0,-7.5974,-4.28904,14.2313,Q,Q
2023-03-14 22:08:48:634,0,-7.59713,-4.28426,14.2233,Q,Q
2023-03-14 22:08:48:644,0,-7.59857,-4.27915,14.2196,Q,Q
2023-03-14 22:08:48:654,0,-7.59697,-4.27323,14.214,Q,Q
2023-03-14 22:08:48:664,0,-7.59757,-4.26724,14.2105,Q,Q
2023-03-14 22:08:48:674,0,-7.60092,-4.26439,14.2082,Q,Q
2023-03-14 22:08:48:684,0,-7.60986,-4.26089,14.202,Q,Q
2023-03-14 22:08:48:694,0,-7.6242,-4.25256,14.1993,Q,Q
2023-03-14 22:08:48:704,0,-7.63937,-4.24227,14.1945,Q,Q
2023-03-14 22:08:48:714,0,-7.65693,-4.2355,14.1892,Q,Q
2023-03-14 22:08:48:724,0,-7.67963,-4.22722,14.1831,Q,Q
2023-03-14 22:08:48:734,0,-7.70328,-4.22222,14.1733,Q,Q
2023-03-14 22:08:48:744,0,-7.72535,-4.22004,14.1676,Q,Q
2023-03-14 22:08:48:754,0,-7.75045,-4.22227,14.1615,Q,Q
2023-03-14 22:08:48:764,0,-7.77225,-4.22095,14.1547,Q,Q
2023-03-14 22:08:48:774,0,-7.7982,-4.22483,14.1443,Q,Q
2023-03-14 22:08:48:784,0,-7.81623,-4.2281,14.1325,Q,Q
2023-03-14 22:08:48:794,0,-7.83083,-4.23298,14.1236,Q,Q
2023-03-14 22:08:48:804,0,-7.84125,-4.23932,14.1109,Q,Q
2023-03-14 22:08:48:814,0,-7.84514,-4.24573,14.0985,Q,Q
2023-03-14 22:08:48:824,0,-7.84635,-4.25153,14.0811,Q,Q
2023-03-14 22:08:48:834,0,-7.84718,-4.25728,14.0681,Q,Q
2023-03-14 22:08:48:844,0,-7.84925,-4.26189,14.0568,Q,Q
2023-03-14 22:08:48:854,0,-7.84887,-4.2681,14.0432,Q,Q
2023-03-14 22:08:48:864,0,-7.84733,-4.27173,14.0337,Q,Q
2023-03-14 22:08:48:874,0,-7.84733,-4.27208,14.0242,Q,Q
2023-03-14 22:08:48:884,0,-7.84808,-4.27001,14.0141,Q,Q
2023-03-14 22:08:48:894,0,-7.85068,-4.26792,14.0032,Q,Q
2023-03-14 22:08:48:904,0,-7.85088,-4.26214,13.9964,Q,Q
2023-03-14 22:08:48:914,0,-7.8519,-4.25642,13.9925,Q,Q
2023-03-14 22:08:48:924,0,-7.85483,-4.25063,13.9859,Q,Q
2023-03-14 22:08:48:934,0,-7.8566,-4.24486,13.9827,Q,Q
2023-03-14 22:08:48:944,0,-7.86149,-4.2386,13.984,Q,Q
2023-03-14 22:08:48:954,0,-7.86438,-4.22943,13.987,Q,Q
2023-03-14 22:08:48:964,0,-7.8691,-4.22214,13.9906,Q,Q
2023-03-14 22:08:48:974,0,-7.87754,-4.21511,13.9965,Q,Q
2023-03-14 22:08:48:984,0,-7.88027,-4.20999,13.9979,Q,Q
2023-03-14 22:08:48:994,0,-7.88418,-4.20463,13.9985,Q,Q
2023-03-14 22:08:49:4,0,-7.88936,-4.19872,13.999,Q,Q
2023-03-14 22:08:49:14,0,-7.89302,-4.18871,13.9945,Q,Q
2023-03-14 22:08:49:24,0,-7.90093,-4.17718,13.9926,Q,Q
2023-03-14 22:08:49:34,0,-7.9086,-4.16444,13.9954,Q,Q
2023-03-14 22:08:49:44,0,-7.91534,-4.14874,14.0004,Q,Q
2023-03-14 22:08:49:54,0,-7.92447,-4.13821,14.0083,Q,Q
2023-03-14 22:08:49:64,0,-7.9324,-4.12803,14.0094,Q,Q
2023-03-14 22:08:49:74,0,-7.93433,-4.11686,14.0103,Q,Q
2023-03-14 22:08:49:84,0,-7.93315,-4.10403,14.0028,Q,Q
2023-03-14 22:08:49:94,0,-7.92713,-4.08747,13.9909,Q,Q
2023-03-14 22:08:49:104,0,-7.91758,-4.06537,13.9731,Q,Q
2023-03-14 22:08:49:114,0,-7.90839,-4.04574,13.9525,Q,Q
2023-03-14 22:08:49:124,0,-7.90588,-4.03058,13.9352,Q,Q
2023-03-14 22:08:49:134,0,-7.8977,-4.01793,13.9208,Q,Q
2023-03-14 22:08:49:144,0,-7.89598,-4.00712,13.906,Q,Q
2023-03-14 22:08:49:154,0,-7.8913,-3.99865,13.8919,Q,Q
2023-03-14 22:08:49:164,0,-7.89461,-3.98783,13.8807,Q,Q
2023-03-14 22:08:49:174,0,-7.89622,-3.97844,13.8762,Q,Q
2023-03-14 22:08:49:184,0,-7.90213,-3.9686,13.8719,Q,Q
2023-03-14 22:08:49:194,0,-7.90681,-3.95998,13.8668,Q,Q
2023-03-14 22:08:49:204,0,-7.91758,-3.95432,13.862,Q,Q
2023-03-14 22:08:49:214,0,-7.9269,-3.94719,13.855,Q,Q
2023-03-14 22:08:49:224,0,-7.93182,-3.94159,13.8461,Q,Q
2023-03-14 22:08:49:234,0,-7.93661,-3.9378,13.8357,Q,Q
2023-03-14 22:08:49:244,0,-7.94105,-3.93921,13.8207,Q,Q
2023-03-14 22:08:49:254,0,-7.94624,-3.94064,13.8033,Q,Q
2023-03-14 22:08:49:264,0,-7.94959,-3.94539,13.7873,Q,Q
2023-03-14 22:08:49:274,0,-7.95286,-3.94905,13.7661,Q,Q
2023-03-14 22:08:49:284,0,-7.95496,-3.95674,13.744,Q,Q
2023-03-14 22:08:49:294,0,-7.95475,-3.9681,13.7234,Q,Q
2023-03-14 22:08:49:304,0,-7.9534,-3.98059,13.7008,Q,Q
2023-03-14 22:08:49:314,0,-7.95095,-3.99571,13.6793,Q,Q
2023-03-14 22:08:49:324,0,-7.9485,-4.0014,13.6529,Q,Q
2023-03-14 22:08:49:334,0,-7.93752,-4.00056,13.63,Q,Q
2023-03-14 22:08:49:344,0,-7.92264,-3.99954,13.6068,Q,Q
2023-03-14 22:08:49:354,0,-7.90505,-3.99233,13.5841,Q,Q
2023-03-14 22:08:49:364,0,-7.89078,-3.98781,13.5676,Q,Q
2023-03-14 22:08:49:374,0,-7.86946,-3.97869,13.553,Q,Q
2023-03-14 22:08:49:384,0,-7.84888,-3.97093,13.5399,Q,Q
2023-03-14 22:08:49:394,0,-7.82927,-3.96039,13.5334,Q,Q
2023-03-14 22:08:49:404,0,-7.8045,-3.95219,13.5308,Q,Q
2023-03-14 22:08:49:414,0,-7.782,-3.94324,13.5357,Q,Q
2023-03-14 22:08:49:424,0,-7.75904,-3.93726,13.5438,Q,Q
2023-03-14 22:08:49:434,0,-7.72586,-3.9295,13.5532,Q,Q
2023-03-14 22:08:49:444,0,-7.69088,-3.91745,13.5615,Q,Q
2023-03-14 22:08:49:454,0,-7.65559,-3.90152,13.5736,Q,Q
2023-03-14 22:08:49:464,0,-7.61945,-3.88481,13.5893,Q,Q
2023-03-14 22:08:49:474,0,-7.59314,-3.87214,13.6013,Q,Q
2023-03-14 22:08:49:484,0,-7.57666,-3.86437,13.615,Q,Q
2023-03-14 22:08:49:494,0,-7.56666,-3.86384,13.6294,Q,Q
2023-03-14 22:08:49:504,0,-7.56392,-3.86652,13.6413,Q,Q
2023-03-14 22:08:49:514,0,-7.56032,-3.87126,13.6494,Q,Q
2023-03-14 22:08:49:524,0,-7.5608,-3.87508,13.6596,Q,Q
2023-03-14 22:08:49:534,0,-7.56503,-3.88036,13.6738,Q,Q
2023-03-14 22:08:49:544,0,-7.56972,-3.89014,13.6853,Q,Q
2023-03-14 22:08:49:554,0,-7.57854,-3.90068,13.6989,Q,Q
2023-03-14 22:08:49:564,0,-7.58447,-3.9163,13.7096,Q,Q
2023-03-14 22:08:49:574,0,-7.59042,-3.92999,13.7186,Q,Q
2023-03-14 22:08:49:584,0,-7.59724,-3.94562,13.7246,Q,Q
2023-03-14 22:08:49:594,0,-7.60287,-3.96472,13.7294,Q,Q
2023-03-14 22:08:49:604,0,-7.61099,-3.9864,13.7369,Q,Q
2023-03-14 22:08:49:614,0,-7.6247,-4.01402,13.7482,Q,Q
2023-03-14 22:08:49:624,0,-7.63729,-4.04054,13.7592,Q,Q
2023-03-14 22:08:49:634,0,-7.65087,-4.06628,13.7648,Q,Q
2023-03-14 22:08:49:644,0,-7.66079,-4.09186,13.7744,Q,Q
2023-03-14 22:08:49:654,0,-7.67126,-4.11475,13.7864,Q,Q
2023-03-14 22:08:49:664,0,-7.68121,-4.13529,13.8027,Q,Q
2023-03-14 22:08:49:674,0,-7.68862,-4.15823,13.8212,Q,Q
2023-03-14 22:08:49:684,0,-7.69195,-4.17784,13.843,Q,Q
2023-03-14 22:08:49:694,0,-7.69543,-4.19888,13.8699,Q,Q
2023-03-14 22:08:49:704,0,-7.69404,-4.21934,13.8959,Q,Q
2023-03-14 22:08:49:714,0,-7.69936,-4.23705,13.9261,Q,Q
2023-03-14 22:08:49:724,0,-7.70105,-4.25308,13.9535,Q,Q
2023-03-14 22:08:49:734,0,-7.70424,-4.26552,13.9767,Q,Q
2023-03-14 22:08:49:744,0,-7.69991,-4.27125,13.9978,Q,Q
2023-03-14 22:08:49:754,0,-7.69795,-4.27329,14.0223,Q,Q
2023-03-14 22:08:49:764,0,-7.70244,-4.27339,14.0526,Q,Q
2023-03-14 22:08:49:774,0,-7.71582,-4.27572,14.0905,Q,Q
2023-03-14 22:08:49:784,0,-7.73587,-4.27716,14.1291,Q,Q
2023-03-14 22:08:49:794,0,-7.76189,-4.28005,14.1659,Q,Q
2023-03-14 22:08:49:804,0,-7.7902,-4.28259,14.202,Q,Q
2023-03-14 22:08:49:814,0,-7.81999,-4.28683,14.2356,Q,Q
2023-03-14 22:08:49:824,0,-7.84709,-4.29194,14.2679,Q,Q
2023-03-14 22:08:49:834,0,-7.86932,-4.29735,14.2903,Q,Q
2023-03-14 22:08:49:844,0,-7.88553,-4.29917,14.3104,Q,Q
2023-03-14 22:08:49:854,0,-7.89963,-4.30357,14.3242,Q,Q
2023-03-14 22:08:49:864,0,-7.91912,-4.3038,14.3315,Q,Q
2023-03-14 22:08:49:874,0,-7.92946,-4.30555,14.3337,Q,Q
2023-03-14 22:08:49:884,0,-7.94201,-4.30803,14.3338,Q,Q
2023-03-14 22:08:49:894,0,-7.95127,-4.30475,14.3315,Q,Q
2023-03-14 22:08:49:904,0,-7.96439,-4.29882,14.3264,Q,Q
2023-03-14 22:08:49:914,0,-7.9708,-4.28834,14.3209,Q,Q
2023-03-14 22:08:49:924,0,-7.98044,-4.27707,14.3151,Q,Q
2023-03-14 22:08:49:934,0,-7.99523,-4.26202,14.3115,Q,Q
2023-03-14 22:08:49:944,0,-8.01388,-4.24746,14.3143,Q,Q
2023-03-14 22:08:49:954,0,-8.03891,-4.22614,14.3237,Q,Q
2023-03-14 22:08:49:964,0,-8.06196,-4.20474,14.3299,Q,Q
2023-03-14 22:08:49:974,0,-8.09113,-4.18452,14.3361,Q,Q
2023-03-14 22:08:49:984,0,-8.12051,-4.16409,14.3438,Q,Q
2023-03-14 22:08:49:994,0,-8.1504,-4.14577,14.3512,Q,Q
2023-03-14 22:08:50:4,0,-8.17908,-4.12707,14.3577,Q,Q
2023-03-14 22:08:50:14,0,-8.20614,-4.10823,14.3649,Q,Q
2023-03-14 22:08:50:24,0,-8.23301,-4.08945,14.3701,Q,Q
2023-03-14 22:08:50:34,0,-8.25986,-4.07469,14.38,Q,Q
2023-03-14 22:08:50:44,0,-8.28709,-4.06114,14.3892,Q,Q
2023-03-14 22:08:50:54,0,-8.32205,-4.05087,14.3971,Q,Q
2023-03-14 22:08:50:64,0,-8.36101,-4.04273,14.4091,Q,Q
2023-03-14 22:08:50:74,0,-8.40518,-4.0396,14.4173,Q,Q
2023-03-14 22:08:50:84,0,-8.45419,-4.03866,14.4221,Q,Q
2023-03-14 22:08:50:94,0,-8.50237,-4.04053,14.4216,Q,Q
2023-03-14 22:08:50:104,0,-8.54758,-4.04171,14.4164,Q,Q
2023-03-14 22:08:50:114,0,-8.58962,-4.03627,14.403,Q,Q
2023-03-14 22:08:50:124,0,-8.62652,-4.03323,14.3866,Q,Q
2023-03-14 22:08:50:134,0,-8.65716,-4.029,14.3715,Q,Q
2023-03-14 22:08:50:144,0,-8.68658,-4.03557,14.3547,Q,Q
2023-03-14 22:08:50:154,0,-8.71896,-4.04787,14.3421,Q,Q
2023-03-14 22:08:50:164,0,-8.74655,-4.06199,14.3347,Q,Q
2023-03-14 22:08:50:174,0,-8.76712,-4.08026,14.3259,Q,Q
2023-03-14 22:08:50:184,0,-8.78043,-4.09926,14.3126,Q,Q
2023-03-14 22:08:50:194,0,-8.78558,-4.11934,14.3023,Q,Q
2023-03-14 22:08:50:204,0,-8.78585,-4.14127,14.2957,Q,Q
2023-03-14 22:08:50:214,0,-8.78098,-4.1617,14.2862,Q,Q
2023-03-14 22:08:50:224,0,-8.77422,-4.18075,14.275,Q,Q
2023-03-14 22:08:50:234,0,-8.76408,-4.19418,14.2609,Q,Q
2023-03-14 22:08:50:244,0,-8.75013,-4.20318,14.2445,Q,Q
2023-03-14 22:08:50:254,0,-8.73641,-4.20626,14.2303,Q,Q
2023-03-14 22:08:50:264,0,-8.72266,-4.20882,14.2219,Q,Q
2023-03-14 22:08:50:274,0,-8.70848,-4.21192,14.2136,Q,Q
2023-03-14 22:08:50:284,0,-8.69961,-4.21851,14.2082,Q,Q
2023-03-14 22:08:50:294,0,-8.6914,-4.22585,14.2072,Q,Q
2023-03-14 22:08:50:304,0,-8.68518,-4.23438,14.2056,Q,Q
2023-03-14 22:08:50:314,0,-8.67929,-4.24241,14.2021,Q,Q
2023-03-14 22:08:50:324,0,-8.66981,-4.2496,14.1982,Q,Q
2023-03-14 22:08:50:334,0,-8.66655,-4.25518,14.1963,Q,Q
2023-03-14 22:08:50:344,0,-8.66245,-4.26131,14.1958,Q,Q
2023-03-14 22:08:50:354,0,-8.6604,-4.26458,14.1921,Q,Q
2023-03-14 22:08:50:364,0,-8.66577,-4.26312,14.1936,Q,Q
2023-03-14 22:08:50:374,0,-8.66894,-4.26304,14.191,Q,Q
2023-03-14 22:08:50:384,0,-8.67687,-4.25876,14.1863,Q,Q
2023-03-14 22:08:50:394,0,-8.68351,-4.25834,14.1869,Q,Q
2023-03-14 22:08:50:404,0,-8.69306,-4.25067,14.1838,Q,Q
2023-03-14 22:08:50:414,0,-8.70386,-4.24174,14.1828,Q,Q
2023-03-14 22:08:50:424,0,-8.70993,-4.2301,14.1812,Q,Q
2023-03-14 22:08:50:434,0,-8.71482,-4.21314,14.1746,Q,Q
2023-03-14 22:08:50:444,0,-8.71784,-4.19614,14.169,Q,Q
2023-03-14 22:08:50:454,0,-8.71825,-4.18295,14.1599,Q,Q
2023-03-14 22:08:50:464,0,-8.71779,-4.16708,14.1471,Q,Q
2023-03-14 22:08:50:474,0,-8.71521,-4.14859,14.1337,Q,Q
2023-03-14 22:08:50:484,0,-8.71983,-4.13156,14.1185,Q,Q
2023-03-14 22:08:50:494,0,-8.72234,-4.11213,14.1019,Q,Q
2023-03-14 22:08:50:504,0,-8.72419,-4.09248,14.0893,Q,Q
2023-03-14 22:08:50:514,0,-8.72679,-4.07404,14.079,Q,Q
2023-03-14 22:08:50:524,0,-8.7402,-4.05573,14.0702,Q,Q
2023-03-14 22:08:50:534,0,-8.75236,-4.04013,14.0625,Q,Q
2023-03-14 22:08:50:544,0,-8.76913,-4.02755,14.0593,Q,Q
2023-03-14 22:08:50:554,0,-8.78892,-4.0175,14.0571,Q,Q
2023-03-14 22:08:50:564,0,-8.80714,-4.00523,14.0548,Q,Q
2023-03-14 22:08:50:574,0,-8.82815,-3.99224,14.052,Q,Q
2023-03-14 22:08:50:584,0,-8.85204,-3.98291,14.0516,Q,Q
2023-03-14 22:08:50:594,0,-8.87303,-3.96885,14.0517,Q,Q
2023-03-14 22:08:50:604,0,-8.88886,-3.95825,14.0573,Q,Q
2023-03-14 22:08:50:614,0,-8.90439,-3.94462,14.0641,Q,Q
2023-03-14 22:08:50:624,0,-8.91979,-3.93673,14.0762,Q,Q
2023-03-14 22:08:50:634,0,-8.9341,-3.93452,14.0911,Q,Q
2023-03-14 22:08:50:644,0,-8.94576,-3.93445,14.1122,Q,Q
2023-03-14 22:08:50:654,0,-8.9562,-3.93492,14.1313,Q,Q
2023-03-14 22:08:50:664,0,-8.95627,-3.93706,14.1496,Q,Q
2023-03-14 22:08:50:674,0,-8.95581,-3.94378,14.1723,Q,Q
2023-03-14 22:08:50:684,0,-8.95388,-3.95123,14.1933,Q,Q
2023-03-14 22:08:50:694,0,-8.95498,-3.9608,14.2187,Q,Q
2023-03-14 22:08:50:704,0,-8.95577,-3.97337,14.2419,Q,Q
2023-03-14 22:08:50:714,0,-8.9571,-3.98711,14.2619,Q,Q
2023-03-14 22:08:50:724,0,-8.95766,-4.00156,14.2799,Q,Q
2023-03-14 22:08:50:734,0,-8.95358,-4.01397,14.297,Q,Q
2023-03-14 22:08:50:744,0,-8.94437,-4.02678,14.3084,Q,Q
2023-03-14 22:08:50:754,0,-8.93305,-4.03676,14.3152,Q,Q
2023-03-14 22:08:50:764,0,-8.9197,-4.05198,14.3191,Q,Q
2023-03-14 22:08:50:774,0,-8.90308,-4.07008,14.319,Q,Q
2023-03-14 22:08:50:784,0,-8.8876,-4.08529,14.3159,Q,Q
2023-03-14 22:08:50:794,0,-8.87257,-4.09826,14.3107,Q,Q
2023-03-14 22:08:50:804,0,-8.85674,-4.10759,14.2998,Q,Q
2023-03-14 22:08:50:814,0,-8.84203,-4.11293,14.284,Q,Q
2023-03-14 22:08:50:824,0,-8.83316,-4.1181,14.2678,Q,Q
2023-03-14 22:08:50:834,0,-8.82781,-4.12134,14.2494,Q,Q
2023-03-14 22:08:50:844,0,-8.82869,-4.12444,14.234,Q,Q
2023-03-14 22:08:50:854,0,-8.82719,-4.12733,14.2228,Q,Q
2023-03-14 22:08:50:864,0,-8.82633,-4.1277,14.2176,Q,Q
2023-03-14 22:08:50:874,0,-8.82932,-4.12727,14.2154,Q,Q
2023-03-14 22:08:50:884,0,-8.83569,-4.13112,14.2231,Q,Q
2023-03-14 22:08:50:894,0,-8.84123,-4.13915,14.2304,Q,Q
2023-03-14 22:08:50:904,0,-8.84824,-4.15018,14.246,Q,Q
2023-03-14 22:08:50:914,0,-8.85351,-4.15915,14.2585,Q,Q
2023-03-14 22:08:50:924,0,-8.85965,-4.16984,14.2669,Q,Q
2023-03-14 22:08:50:934,0,-8.86326,-4.17668,14.266,Q,Q
2023-03-14 22:08:50:944,0,-8.86378,-4.18382,14.2662,Q,Q
2023-03-14 22:08:50:954,0,-8.86661,-4.18689,14.2657,Q,Q
2023-03-14 22:08:50:964,0,-8.87156,-4.19079,14.2642,Q,Q
2023-03-14 22:08:50:974,0,-8.88361,-4.18844,14.2681,Q,Q
2023-03-14 22:08:50:984,0,-8.89628,-4.188,14.2729,Q,Q
2023-03-14 22:08:50:994,0,-8.90982,-4.18656,14.2816,Q,Q
2023-03-14 22:08:51:4,0,-8.92072,-4.18319,14.2977,Q,Q
2023-03-14 22:08:51:14,0,-8.93457,-4.18437,14.3162,Q,Q
2023-03-14 22:08:51:24,0,-8.94478,-4.1893,14.3345,Q,Q
2023-03-14 22:08:51:34,0,-8.95451,-4.19191,14.3522,Q,Q
2023-03-14 22:08:51:44,0,-8.95979,-4.1977,14.3704,Q,Q
2023-03-14 22:08:51:54,0,-8.96344,-4.20292,14.3835,Q,Q
2023-03-14 22:08:51:64,0,-8.96475,-4.21215,14.3936,Q,Q
2023-03-14 22:08:51:74,0,-8.96424,-4.22183,14.3948,Q,Q
2023-03-14 22:08:51:84,0,-8.9552,-4.22781,14.3906,Q,Q
2023-03-14 22:08:51:94,0,-8.95016,-4.24227,14.389,Q,Q
2023-03-14 22:08:51:104,0,-8.94624,-4.26179,14.384,Q,Q
2023-03-14 22:08:51:114,0,-8.94581,-4.28146,14.3781,Q,Q
2023-03-14 22:08:51:124,0,-8.94339,-4.303,14.3679,Q,Q
2023-03-14 22:08:51:134,0,-8.9397,-4.32241,14.3541,Q,Q
2023-03-14 22:08:51:144,0,-8.93324,-4.33973,14.3414,Q,Q
2023-03-14 22:08:51:154,0,-8.92646,-4.34859,14.3275,Q,Q
2023-03-14 22:08:51:164,0,-8.91703,-4.35182,14.3145,Q,Q
2023-03-14 22:08:51:174,0,-8.9009,-4.3556,14.2985,Q,Q
2023-03-14 22:08:51:184,0,-8.89032,-4.35701,14.2861,Q,Q
2023-03-14 22:08:51:194,0,-8.88123,-4.36667,14.2728,Q,Q
2023-03-14 22:08:51:204,0,-8.87476,-4.37864,14.2624,Q,Q
2023-03-14 22:08:51:214,0,-8.86349,-4.39101,14.2504,Q,Q
2023-03-14 22:08:51:224,0,-8.85703,-4.40084,14.237,Q,Q
2023-03-14 22:08:51:234,0,-8.85162,-4.4104,14.2288,Q,Q
2023-03-14 22:08:51:244,0,-8.84488,-4.41712,14.2206,Q,Q
2023-03-14 22:08:51:254,0,-8.84151,-4.42405,14.2111,Q,Q
2023-03-14 22:08:51:264,0,-8.83929,-4.43279,14.207,Q,Q
2023-03-14 22:08:51:274,0,-8.8519,-4.43801,14.2055,Q,Q
2023-03-14 22:08:51:284,0,-8.86658,-4.44177,14.2084,Q,Q
2023-03-14 22:08:51:294,0,-8.88382,-4.44415,14.2177,Q,Q
2023-03-14 22:08:51:304,0,-8.90332,-4.44191,14.2258,Q,Q
2023-03-14 22:08:51:314,0,-8.92077,-4.44233,14.2319,Q,Q
2023-03-14 22:08:51:324,0,-8.94154,-4.43762,14.2415,Q,Q
2023-03-14 22:08:51:334,0,-8.96321,-4.4326,14.2499,Q,Q
2023-03-14 22:08:51:344,0,-8.98544,-4.42441,14.2574,Q,Q
2023-03-14 22:08:51:354,0,-9.00791,-4.41212,14.2654,Q,Q
2023-03-14 22:08:51:364,0,-9.02976,-4.40128,14.2689,Q,Q
2023-03-14 22:08:51:374,0,-9.04853,-4.38976,14.2709,Q,Q
2023-03-14 22:08:51:384,0,-9.06682,-4.37605,14.2742,Q,Q
2023-03-14 22:08:51:394,0,-9.07848,-4.36436,14.2777,Q,Q
2023-03-14 22:08:51:404,0,-9.09309,-4.35048,14.2802,Q,Q
2023-03-14 22:08:51:414,0,-9.10512,-4.3317,14.2861,Q,Q
2023-03-14 22:08:51:424,0,-9.11596,-4.31843,14.2951,Q,Q
2023-03-14 22:08:51:434,0,-9.12848,-4.30713,14.3043,Q,Q
2023-03-14 22:08:51:444,0,-9.14555,-4.29874,14.316,Q,Q
2023-03-14 22:08:51:454,0,-9.15918,-4.29812,14.3326,Q,Q
2023-03-14 22:08:51:464,0,-9.17023,-4.29771,14.35,Q,Q
2023-03-14 22:08:51:474,0,-9.17785,-4.30024,14.3649,Q,Q
2023-03-14 22:08:51:484,0,-9.18279,-4.30847,14.3804,Q,Q
2023-03-14 22:08:51:494,0,-9.18744,-4.31673,14.3889,Q,Q
2023-03-14 22:08:51:504,0,-9.18308,-4.32199,14.3878,Q,Q
2023-03-14 22:08:51:514,0,-9.17754,-4.33028,14.383,Q,Q
2023-03-14 22:08:51:524,0,-9.17113,-4.33962,14.3733,Q,Q
2023-03-14 22:08:51:534,0,-9.16283,-4.34793,14.3588,Q,Q
2023-03-14 22:08:51:544,0,-9.15539,-4.36573,14.3418,Q,Q
2023-03-14 22:08:51:554,0,-9.1497,-4.37815,14.3255,Q,Q
2023-03-14 22:08:51:564,0,-9.13368,-4.38735,14.3134,Q,Q
2023-03-14 22:08:51:574,0,-9.11451,-4.40674,14.2988,Q,Q
2023-03-14 22:08:51:584,0,-9.10052,-4.42154,14.2829,Q,Q
2023-03-14 22:08:51:594,0,-9.08112,-4.4246,14.2704,Q,Q
2023-03-14 22:08:51:604,0,-9.0599,-4.42762,14.257,Q,Q
2023-03-14 22:08:51:614,0,-9.0403,-4.42354,14.2442,Q,Q
2023-03-14 22:08:51:624,0,-9.01942,-4.42161,14.2347,Q,Q
2023-03-14 22:08:51:634,0,-9.00645,-4.41844,14.2235,Q,Q
2023-03-14 22:08:51:644,0,-8.99461,-4.41517,14.2162,Q,Q
2023-03-14 22:08:51:654,0,-8.98469,-4.40871,14.2091,Q,Q
2023-03-14 22:08:51:664,0,-8.9725,-4.41052,14.2049,Q,Q
2023-03-14 22:08:51:674,0,-8.96271,-4.40744,14.2027,Q,Q
2023-03-14 22:08:51:684,0,-8.95537,-4.40692,14.2023,Q,Q
2023-03-14 22:08:51:694,0,-8.95227,-4.40443,14.1995,Q,Q
2023-03-14 22:08:51:704,0,-8.95047,-4.40746,14.1965,Q,Q
2023-03-14 22:08:51:714,0,-8.95364,-4.41025,14.1929,Q,Q
2023-03-14 22:08:51:724,0,-8.96137,-4.41053,14.1861,Q,Q
2023-03-14 22:08:51:734,0,-8.9709,-4.41064,14.1798,Q,Q
2023-03-14 22:08:51:744,0,-8.98281,-4.41125,14.1718,Q,Q
2023-03-14 22:08:51:754,0,-8.99155,-4.41191,14.1645,Q,Q
2023-03-14 22:08:51:764,0,-9.00313,-4.41262,14.163,Q,Q
2023-03-14 22:08:51:774,0,-9.01478,-4.41491,14.1598,Q,Q
2023-03-14 22:08:51:784,0,-9.02926,-4.41601,14.1565,Q,Q
2023-03-14 22:08:51:794,0,-9.03901,-4.41135,14.1476,Q,Q
2023-03-14 22:08:51:804,0,-9.04018,-4.40786,14.1371,Q,Q
2023-03-14 22:08:51:814,0,-9.03788,-4.40748,14.127,Q,Q
2023-03-14 22:08:51:824,0,-9.03136,-4.40462,14.116,Q,Q
2023-03-14 22:08:51:834,0,-9.02257,-4.40522,14.1099,Q,Q
2023-03-14 22:08:51:844,0,-9.00989,-4.40654,14.1035,Q,Q
2023-03-14 22:08:51:854,0,-9.00063,-4.40473,14.0978,Q,Q
2023-03-14 22:08:51:864,0,-8.98896,-4.40237,14.0894,Q,Q
2023-03-14 22:08:51:874,0,-8.97428,-4.39894,14.0823,Q,Q
2023-03-14 22:08:51:884,0,-8.96039,-4.39348,14.0784,Q,Q
2023-03-14 22:08:51:894,0,-8.9503,-4.38693,14.0722,Q,Q
2023-03-14 22:08:51:904,0,-8.9404,-4.38,14.068,Q,Q
2023-03-14 22:08:51:914,0,-8.93125,-4.37289,14.0697,Q,Q
2023-03-14 22:08:51:924,0,-8.92347,-4.36689,14.0705,Q,Q
2023-03-14 22:08:51:934,0,-8.9165,-4.35808,14.0757,Q,Q
2023-03-14 22:08:51:944,0,-8.91051,-4.35161,14.0762,Q,Q
2023-03-14 22:08:51:954,0,-8.89944,-4.34728,14.0754,Q,Q
2023-03-14 22:08:51:964,0,-8.89051,-4.34472,14.0744,Q,Q
2023-03-14 22:08:51:974,0,-8.88024,-4.34159,14.0749,Q,Q
2023-03-14 22:08:51:984,0,-8.87152,-4.33286,14.0719,Q,Q
2023-03-14 22:08:51:994,0,-8.859,-4.3233,14.0727,Q,Q
2023-03-14 22:08:52:4,0,-8.85034,-4.31718,14.0751,Q,Q
2023-03-14 22:08:52:14,0,-8.84364,-4.31486,14.0861,Q,Q
2023-03-14 22:08:52:24,0,-8.84288,-4.31826,14.1046,Q,Q
2023-03-14 22:08:52:34,0,-8.84283,-4.32443,14.1255,Q,Q
2023-03-14 22:08:52:44,0,-8.84918,-4.33003,14.1426,Q,Q
2023-03-14 22:08:52:54,0,-8.85439,-4.3332,14.1598,Q,Q
2023-03-14 22:08:52:64,0,-8.86003,-4.33374,14.1763,Q,Q
2023-03-14 22:08:52:74,0,-8.85785,-4.32871,14.1896,Q,Q
2023-03-14 22:08:52:84,0,-8.8525,-4.32324,14.2049,Q,Q
2023-03-14 22:08:52:94,0,-8.84219,-4.31833,14.2163,Q,Q
2023-03-14 22:08:52:104,0,-8.83108,-4.30923,14.226,Q,Q
2023-03-14 22:08:52:114,0,-8.81968,-4.30829,14.2323,Q,Q
2023-03-14 22:08:52:124,0,-8.80835,-4.30999,14.2334,Q,Q
2023-03-14 22:08:52:134,0,-8.79273,-4.31882,14.231,Q,Q
2023-03-14 22:08:52:144,0,-8.77901,-4.33159,14.2213,Q,Q
2023-03-14 22:08:52:154,0,-8.76303,-4.34616,14.21,Q,Q
2023-03-14 22:08:52:164,0,-8.74389,-4.35851,14.1937,Q,Q
2023-03-14 22:08:52:174,0,-8.72448,-4.37078,14.1789,Q,Q
2023-03-14 22:08:52:184,0,-8.70757,-4.38092,14.1624,Q,Q
2023-03-14 22:08:52:194,0,-8.69235,-4.3891,14.1456,Q,Q
2023-03-14 22:08:52:204,0,-8.67839,-4.3952,14.1272,Q,Q
2023-03-14 22:08:52:214,0,-8.66577,-4.39725,14.1116,Q,Q
2023-03-14 22:08:52:224,0,-8.65796,-4.39717,14.0959,Q,Q
2023-03-14 22:08:52:234,0,-8.65551,-4.39344,14.0798,Q,Q
2023-03-14 22:08:52:244,0,-8.65691,-4.39197,14.0659,Q,Q
2023-03-14 22:08:52:254,0,-8.66087,-4.38566,14.0499,Q,Q
2023-03-14 22:08:52:264,0,-8.67052,-4.3771,14.0345,Q,Q
2023-03-14 22:08:52:274,0,-8.68089,-4.36982,14.0177,Q,Q
2023-03-14 22:08:52:284,0,-8.69471,-4.35686,14.0005,Q,Q
2023-03-14 22:08:52:294,0,-8.71111,-4.34287,13.9817,Q,Q
2023-03-14 22:08:52:304,0,-8.72655,-4.32248,13.9658,Q,Q
2023-03-14 22:08:52:314,0,-8.74021,-4.30139,13.9431,Q,Q
2023-03-14 22:08:52:324,0,-8.75161,-4.27815,13.9176,Q,Q
2023-03-14 22:08:52:334,0,-8.7624,-4.2572,13.8901,Q,Q
2023-03-14 22:08:52:344,0,-8.77322,-4.23569,13.8672,Q,Q
2023-03-14 22:08:52:354,0,-8.7773,-4.2147,13.8509,Q,Q
2023-03-14 22:08:52:364,0,-8.78408,-4.19571,13.8366,Q,Q
2023-03-14 22:08:52:374,0,-8.79844,-4.17225,13.8256,Q,Q
2023-03-14 22:08:52:384,0,-8.81355,-4.15122,13.8138,Q,Q
2023-03-14 22:08:52:394,0,-8.82419,-4.12225,13.7963,Q,Q
2023-03-14 22:08:52:404,0,-8.82933,-4.09659,13.7801,Q,Q
2023-03-14 22:08:52:414,0,-8.83154,-4.08103,13.7675,Q,Q
2023-03-14 22:08:52:424,0,-8.82715,-4.07293,13.7505,Q,Q
2023-03-14 22:08:52:434,0,-8.81725,-4.06688,13.7394,Q,Q
2023-03-14 22:08:52:444,0,-8.80561,-4.05999,13.7242,Q,Q
2023-03-14 22:08:52:454,0,-8.79406,-4.0523,13.7031,Q,Q
2023-03-14 22:08:52:464,0,-8.77609,-4.04938,13.686,Q,Q
2023-03-14 22:08:52:474,0,-8.75697,-4.05124,13.672,Q,Q
2023-03-14 22:08:52:484,0,-8.74153,-4.04788,13.6676,Q,Q
2023-03-14 22:08:52:494,0,-8.7231,-4.04877,13.6574,Q,Q
2023-03-14 22:08:52:504,0,-8.67355,-4.08115,13.6691,Q,Q
2023-03-14 22:08:52:514,0,-8.63753,-4.09749,13.6864,Q,Q
2023-03-14 22:08:52:524,0,-8.61531,-4.09648,13.6918,Q,Q
2023-03-14 22:08:52:534,0,-8.60193,-4.08623,13.6945,Q,Q
2023-03-14 22:08:52:544,0,-8.59327,-4.07336,13.702,Q,Q
2023-03-14 22:08:52:554,0,-8.58691,-4.0638,13.7085,Q,Q
2023-03-14 22:08:52:564,0,-8.58588,-4.05267,13.711,Q,Q
2023-03-14 22:08:52:574,0,-8.59326,-4.04035,13.7116,Q,Q
2023-03-14 22:08:52:584,0,-8.59774,-4.03341,13.7103,Q,Q
2023-03-14 22:08:52:594,0,-8.60979,-4.02583,13.7042,Q,Q
2023-03-14 22:08:52:604,0,-8.62504,-4.02147,13.703,Q,Q
2023-03-14 22:08:52:614,0,-8.63716,-4.02819,13.7018,Q,Q
2023-03-14 22:08:52:624,0,-8.6439,-4.0397,13.7069,Q,Q
2023-03-14 22:08:52:634,0,-8.65015,-4.05606,13.7171,Q,Q
2023-03-14 22:08:52:644,0,-8.65062,-4.0794,13.7361,Q,Q
2023-03-14 22:08:52:654,0,-8.65042,-4.10865,13.7608,Q,Q
2023-03-14 22:08:52:664,0,-8.65017,-4.14108,13.7921,Q,Q
2023-03-14 22:08:52:674,0,-8.64932,-4.17049,13.8253,Q,Q
2023-03-14 22:08:52:684,0,-8.65006,-4.19936,13.8571,Q,Q
2023-03-14 22:08:52:694,0,-8.65101,-4.22098,13.8915,Q,Q
2023-03-14 22:08:52:704,0,-8.64731,-4.24185,13.9281,Q,Q
2023-03-14 22:08:52:714,0,-8.64384,-4.26874,13.962,Q,Q
2023-03-14 22:08:52:724,0,-8.64178,-4.29555,13.9984,Q,Q
2023-03-14 22:08:52:734,0,-8.6424,-4.31717,14.03,Q,Q
2023-03-14 22:08:52:744,0,-8.64258,-4.3329,14.0614,Q,Q
2023-03-14 22:08:52:754,0,-8.64825,-4.33894,14.0854,Q,Q
2023-03-14 22:08:52:764,0,-8.6593,-4.34385,14.1031,Q,Q
2023-03-14 22:08:52:774,0,-8.67535,-4.34119,14.1143,Q,Q
2023-03-14 22:08:52:784,0,-8.69426,-4.33914,14.117,Q,Q
2023-03-14 22:08:52:794,0,-8.71618,-4.3367,14.1096,Q,Q
2023-03-14 22:08:52:804,0,-8.73528,-4.33031,14.0938,Q,Q
2023-03-14 22:08:52:814,0,-8.75247,-4.3271,14.07,Q,Q
2023-03-14 22:08:52:824,0,-8.76776,-4.32381,14.038,Q,Q
2023-03-14 22:08:52:834,0,-8.78673,-4.32301,14.0037,Q,Q
2023-03-14 22:08:52:844,0,-8.80576,-4.3247,13.9673,Q,Q
2023-03-14 22:08:52:854,0,-8.82603,-4.32616,13.9284,Q,Q
2023-03-14 22:08:52:864,0,-8.8527,-4.33003,13.89,Q,Q
2023-03-14 22:08:52:874,0,-8.88271,-4.33746,13.8547,Q,Q
2023-03-14 22:08:52:884,0,-8.9104,-4.34847,13.8225,Q,Q
2023-03-14 22:08:52:894,0,-8.9323,-4.36461,13.7939,Q,Q
2023-03-14 22:08:52:904,0,-8.95647,-4.38298,13.7653,Q,Q
2023-03-14 22:08:52:914,0,-8.97158,-4.40551,13.7379,Q,Q
2023-03-14 22:08:52:924,0,-8.9753,-4.4242,13.7057,Q,Q
2023-03-14 22:08:52:934,0,-8.97304,-4.44655,13.6784,Q,Q
2023-03-14 22:08:52:944,0,-8.96775,-4.46631,13.6506,Q,Q
2023-03-14 22:08:52:954,0,-8.96834,-4.48973,13.633,Q,Q
2023-03-14 22:08:52:964,0,-8.96935,-4.51297,13.6256,Q,Q
2023-03-14 22:08:52:974,0,-8.97065,-4.54237,13.6308,Q,Q
2023-03-14 22:08:52:984,0,-8.97108,-4.57327,13.6416,Q,Q
2023-03-14 22:08:52:994,0,-8.97178,-4.60418,13.6521,Q,Q
2023-03-14 22:08:53:4,0,-8.97226,-4.63298,13.6668,Q,Q
2023-03-14 22:08:53:14,0,-8.9706,-4.66023,13.6838,Q,Q
2023-03-14 22:08:53:24,0,-8.96743,-4.68503,13.7004,Q,Q
2023-03-14 22:08:53:34,0,-8.9585,-4.72217,13.7145,Q,Q
2023-03-14 22:08:53:44,0,-8.9472,-4.75964,13.726,Q,Q
2023-03-14 22:08:53:54,0,-8.93283,-4.79558,13.7268,Q,Q
2023-03-14 22:08:53:64,0,-8.91451,-4.82344,13.716,Q,Q
2023-03-14 22:08:53:74,0,-8.89327,-4.84104,13.6949,Q,Q
2023-03-14 22:08:53:84,0,-8.86921,-4.84918,13.6642,Q,Q
2023-03-14 22:08:53:94,0,-8.84637,-4.85256,13.6329,Q,Q
2023-03-14 22:08:53:104,0,-8.82243,-4.8595,13.6044,Q,Q
2023-03-14 22:08:53:114,0,-8.79485,-4.86925,13.5847,Q,Q
2023-03-14 22:08:53:124,0,-8.76349,-4.88535,13.5751,Q,Q
2023-03-14 22:08:53:134,0,-8.72729,-4.90559,13.5754,Q,Q
2023-03-14 22:08:53:144,0,-8.69754,-4.92376,13.5866,Q,Q
2023-03-14 22:08:53:154,0,-8.67652,-4.93807,13.6059,Q,Q
2023-03-14 22:08:53:164,0,-8.66154,-4.95007,13.6262,Q,Q
2023-03-14 22:08:53:174,0,-8.65648,-4.9625,13.6477,Q,Q
2023-03-14 22:08:53:184,0,-8.65692,-4.97595,13.664,Q,Q
2023-03-14 22:08:53:194,0,-8.66265,-4.98444,13.674,Q,Q
2023-03-14 22:08:53:204,0,-8.67029,-4.99423,13.6694,Q,Q
2023-03-14 22:08:53:214,0,-8.67143,-5.00133,13.6553,Q,Q
2023-03-14 22:08:53:224,0,-8.66812,-5.00605,13.6328,Q,Q
2023-03-14 22:08:53:234,0,-8.66974,-5.01493,13.6154,Q,Q
2023-03-14 22:08:53:244,0,-8.67915,-5.02264,13.5953,Q,Q
2023-03-14 22:08:53:254,0,-8.68743,-5.02387,13.5792,Q,Q
2023-03-14 22:08:53:264,0,-8.69053,-5.01751,13.567,Q,Q
2023-03-14 22:08:53:274,0,-8.68563,-5.00041,13.5585,Q,Q
2023-03-14 22:08:53:284,0,-8.67837,-4.98013,13.5555,Q,Q
2023-03-14 22:08:53:294,0,-8.67069,-4.95746,13.5602,Q,Q
2023-03-14 22:08:53:304,0,-8.66138,-4.93746,13.5731,Q,Q
2023-03-14 22:08:53:314,0,-8.65542,-4.91894,13.5913,Q,Q
2023-03-14 22:08:53:324,0,-8.65335,-4.91146,13.615,Q,Q
2023-03-14 22:08:53:334,0,-8.65973,-4.91153,13.6394,Q,Q
2023-03-14 22:08:53:344,0,-8.66936,-4.9129,13.6596,Q,Q
2023-03-14 22:08:53:354,0,-8.68289,-4.91995,13.6777,Q,Q
2023-03-14 22:08:53:364,0,-8.70244,-4.93533,13.6925,Q,Q
2023-03-14 22:08:53:374,0,-8.73342,-4.95683,13.7069,Q,Q
2023-03-14 22:08:53:384,0,-8.77059,-4.98422,13.7178,Q,Q
2023-03-14 22:08:53:394,0,-8.82019,-5.01686,13.7234,Q,Q
2023-03-14 22:08:53:404,0,-8.86848,-5.05192,13.72,Q,Q
2023-03-14 22:08:53:414,0,-8.91911,-5.0794,13.7072,Q,Q
2023-03-14 22:08:53:424,0,-8.97366,-5.10085,13.6855,Q,Q
2023-03-14 22:08:53:434,0,-9.03589,-5.10905,13.6577,Q,Q
2023-03-14 22:08:53:444,0,-9.1038,-5.11099,13.628,Q,Q
2023-03-14 22:08:53:454,0,-9.17728,-5.10108,13.5952,Q,Q
2023-03-14 22:08:53:464,0,-9.24925,-5.08537,13.5622,Q,Q
2023-03-14 22:08:53:474,0,-9.31159,-5.06777,13.5297,Q,Q
2023-03-14 22:08:53:484,0,-9.36407,-5.05594,13.4982,Q,Q
2023-03-14 22:08:53:494,0,-9.39943,-5.04613,13.4724,Q,Q
2023-03-14 22:08:53:504,0,-9.42295,-5.04259,13.4478,Q,Q
2023-03-14 22:08:53:514,0,-9.43228,-5.04298,13.4198,Q,Q
2023-03-14 22:08:53:524,0,-9.4374,-5.0406,13.3862,Q,Q
2023-03-14 22:08:53:534,0,-9.43521,-5.04471,13.342,Q,Q
2023-03-14 22:08:53:544,0,-9.42128,-5.0511,13.2906,Q,Q
2023-03-14 22:08:53:554,0,-9.40774,-5.06435,13.2347,Q,Q
2023-03-14 22:08:53:564,0,-9.39286,-5.07515,13.1743,Q,Q
2023-03-14 22:08:53:574,0,-9.36954,-5.08033,13.1137,Q,Q
2023-03-14 22:08:53:584,0,-9.34444,-5.08453,13.0573,Q,Q
2023-03-14 22:08:53:594,0,-9.31885,-5.0879,13.0093,Q,Q
2023-03-14 22:08:53:604,0,-9.29722,-5.0884,12.9821,Q,Q
2023-03-14 22:08:53:614,0,-9.27246,-5.09488,12.9629,Q,Q
2023-03-14 22:08:53:624,0,-9.24505,-5.10174,12.9515,Q,Q
2023-03-14 22:08:53:634,0,-9.21134,-5.11165,12.951,Q,Q
2023-03-14 22:08:53:644,0,-9.16896,-5.1222,12.9494,Q,Q
2023-03-14 22:08:53:654,0,-9.12757,-5.14057,12.9589,Q,Q
2023-03-14 22:08:53:664,0,-9.0862,-5.1708,12.9845,Q,Q
2023-03-14 22:08:53:674,0,-9.06683,-5.21281,13.0213,Q,Q
2023-03-14 22:08:53:684,0,-9.06615,-5.25802,13.0623,Q,Q
2023-03-14 22:08:53:694,0,-9.0723,-5.2946,13.1028,Q,Q
2023-03-14 22:08:53:704,0,-9.07734,-5.31996,13.1423,Q,Q
2023-03-14 22:08:53:714,0,-9.06625,-5.33057,13.1773,Q,Q
2023-03-14 22:08:53:724,0,-9.04104,-5.33065,13.2098,Q,Q
2023-03-14 22:08:53:734,0,-9.0105,-5.323,13.2482,Q,Q
2023-03-14 22:08:53:744,0,-8.98648,-5.31755,13.288,Q,Q
2023-03-14 22:08:53:754,0,-8.96614,-5.31023,13.33,Q,Q
2023-03-14 22:08:53:764,0,-8.95432,-5.30818,13.3698,Q,Q
2023-03-14 22:08:53:774,0,-8.94785,-5.30355,13.4045,Q,Q
2023-03-14 22:08:53:784,0,-8.93605,-5.30435,13.4319,Q,Q
2023-03-14 22:08:53:794,0,-8.92238,-5.30576,13.4461,Q,Q
2023-03-14 22:08:53:804,0,-8.90953,-5.31361,13.456,Q,Q
2023-03-14 22:08:53:814,0,-8.8928,-5.32719,13.4597,Q,Q
2023-03-14 22:08:53:824,0,-8.87966,-5.34248,13.4598,Q,Q
2023-03-14 22:08:53:834,0,-8.86265,-5.35471,13.4563,Q,Q
2023-03-14 22:08:53:844,0,-8.84961,-5.36386,13.4528,Q,Q
2023-03-14 22:08:53:854,0,-8.84015,-5.3708,13.4559,Q,Q
2023-03-14 22:08:53:864,0,-8.82839,-5.37872,13.4727,Q,Q
2023-03-14 22:08:53:874,0,-8.8128,-5.38922,13.5017,Q,Q
2023-03-14 22:08:53:884,0,-8.78672,-5.40183,13.5387,Q,Q
2023-03-14 22:08:53:894,0,-8.74725,-5.4114,13.5797,Q,Q
2023-03-14 22:08:53:904,0,-8.68606,-5.41556,13.6207,Q,Q
2023-03-14 22:08:53:914,0,-8.60751,-5.41444,13.6587,Q,Q
2023-03-14 22:08:53:924,0,-8.52372,-5.41477,13.6907,Q,Q
2023-03-14 22:08:53:934,0,-8.44592,-5.4148,13.7137,Q,Q
2023-03-14 22:08:53:944,0,-8.37802,-5.41168,13.7219,Q,Q
2023-03-14 22:08:53:954,0,-8.32853,-5.41069,13.7154,Q,Q
2023-03-14 22:08:53:964,0,-8.29587,-5.40566,13.694,Q,Q
2023-03-14 22:08:53:974,0,-8.27843,-5.39764,13.6529,Q,Q
2023-03-14 22:08:53:984,0,-8.26907,-5.38494,13.5939,Q,Q
2023-03-14 22:08:53:994,0,-8.26077,-5.37022,13.518,Q,Q
2023-03-14 22:08:54:4,0,-8.24883,-5.3421,13.4228,Q,Q
2023-03-14 22:08:54:14,0,-8.22866,-5.31013,13.3155,Q,Q
2023-03-14 22:08:54:24,0,-8.20746,-5.27175,13.2069,Q,Q
2023-03-14 22:08:54:34,0,-8.19004,-5.23775,13.1016,Q,Q
2023-03-14 22:08:54:44,0,-8.17535,-5.21557,13.0108,Q,Q
2023-03-14 22:08:54:54,0,-8.16208,-5.20656,12.9293,Q,Q
2023-03-14 22:08:54:64,0,-8.14878,-5.21004,12.86,Q,Q
2023-03-14 22:08:54:74,0,-8.13424,-5.21831,12.8015,Q,Q
2023-03-14 22:08:54:84,0,-8.11578,-5.22594,12.7492,Q,Q
2023-03-14 22:08:54:94,0,-8.09501,-5.23151,12.7088,Q,Q
2023-03-14 22:08:54:104,0,-8.08114,-5.23286,12.6741,Q,Q
2023-03-14 22:08:54:114,0,-8.06778,-5.22357,12.6419,Q,Q
2023-03-14 22:08:54:124,0,-8.05875,-5.21187,12.6099,Q,Q
2023-03-14 22:08:54:134,0,-8.06309,-5.19901,12.5772,Q,Q
2023-03-14 22:08:54:144,0,-8.06827,-5.18156,12.5433,Q,Q
2023-03-14 22:08:54:154,0,-8.07041,-5.16525,12.5141,Q,Q
2023-03-14 22:08:54:164,0,-8.07091,-5.15642,12.4867,Q,Q
2023-03-14 22:08:54:174,0,-8.06854,-5.15157,12.4619,Q,Q
2023-03-14 22:08:54:184,0,-8.05854,-5.14656,12.4446,Q,Q
2023-03-14 22:08:54:194,0,-8.05573,-5.14551,12.4315,Q,Q
2023-03-14 22:08:54:204,0,-8.05675,-5.14744,12.4255,Q,Q
2023-03-14 22:08:54:214,0,-8.06326,-5.15102,12.4196,Q,Q
2023-03-14 22:08:54:224,0,-8.07525,-5.15834,12.4073,Q,Q
2023-03-14 22:08:54:234,0,-8.08499,-5.16807,12.3988,Q,Q
2023-03-14 22:08:54:244,0,-8.09329,-5.18278,12.3898,Q,Q
2023-03-14 22:08:54:254,0,-8.10417,-5.20078,12.3822,Q,Q
2023-03-14 22:08:54:264,0,-8.1165,-5.21887,12.3745,Q,Q
2023-03-14 22:08:54:274,0,-8.12757,-5.23682,12.3687,Q,Q
2023-03-14 22:08:54:284,0,-8.13648,-5.25402,12.3654,Q,Q
2023-03-14 22:08:54:294,0,-8.14831,-5.26876,12.3673,Q,Q
2023-03-14 22:08:54:304,0,-8.16089,-5.28643,12.3694,Q,Q
2023-03-14 22:08:54:314,0,-8.17771,-5.30354,12.3752,Q,Q
2023-03-14 22:08:54:324,0,-8.19595,-5.31967,12.376,Q,Q
2023-03-14 22:08:54:334,0,-8.2049,-5.33636,12.3773,Q,Q
2023-03-14 22:08:54:344,0,-8.20478,-5.3534,12.373,Q,Q
2023-03-14 22:08:54:354,0,-8.20191,-5.36995,12.3649,Q,Q
2023-03-14 22:08:54:364,0,-8.19488,-5.38171,12.3518,Q,Q
2023-03-14 22:08:54:374,0,-8.1901,-5.39043,12.332,Q,Q
2023-03-14 22:08:54:384,0,-8.19124,-5.38928,12.3167,Q,Q
2023-03-14 22:08:54:394,0,-8.19093,-5.37727,12.2992,Q,Q
2023-03-14 22:08:54:404,0,-8.18995,-5.35314,12.2785,Q,Q
2023-03-14 22:08:54:414,0,-8.19017,-5.32694,12.2565,Q,Q
2023-03-14 22:08:54:424,0,-8.18447,-5.30406,12.2398,Q,Q
2023-03-14 22:08:54:434,0,-8.18069,-5.28869,12.2238,Q,Q
2023-03-14 22:08:54:444,0,-8.18003,-5.27934,12.2123,Q,Q
2023-03-14 22:08:54:454,0,-8.18456,-5.26868,12.2025,Q,Q
2023-03-14 22:08:54:464,0,-8.19542,-5.27056,12.198,Q,Q
2023-03-14 22:08:54:474,0,-8.20533,-5.27764,12.2029,Q,Q
2023-03-14 22:08:54:484,0,-8.21425,-5.28576,12.219,Q,Q
2023-03-14 22:08:54:494,0,-8.2193,-5.30382,12.2445,Q,Q
2023-03-14 22:08:54:504,0,-8.21903,-5.32697,12.2751,Q,Q
2023-03-14 22:08:54:514,0,-8.22052,-5.35154,12.3104,Q,Q
2023-03-14 22:08:54:524,0,-8.22358,-5.37492,12.3421,Q,Q
2023-03-14 22:08:54:534,0,-8.23755,-5.39859,12.3711,Q,Q
2023-03-14 22:08:54:544,0,-8.2584,-5.42409,12.3938,Q,Q
2023-03-14 22:08:54:554,0,-8.28536,-5.45811,12.4184,Q,Q
2023-03-14 22:08:54:563,0,-8.31446,-5.49827,12.443,Q,Q
2023-03-14 22:08:54:574,0,-8.34042,-5.53838,12.4679,Q,Q
2023-03-14 22:08:54:583,0,-8.36146,-5.57628,12.4919,Q,Q
2023-03-14 22:08:54:594,0,-8.37571,-5.6073,12.5167,Q,Q
2023-03-14 22:08:54:604,0,-8.38743,-5.63751,12.5398,Q,Q
2023-03-14 22:08:54:614,0,-8.39777,-5.66046,12.5655,Q,Q
2023-03-14 22:08:54:624,0,-8.40862,-5.68254,12.5864,Q,Q
2023-03-14 22:08:54:634,0,-8.42248,-5.70427,12.6019,Q,Q
2023-03-14 22:08:54:644,0,-8.43532,-5.72236,12.611,Q,Q
2023-03-14 22:08:54:654,0,-8.44568,-5.74156,12.6159,Q,Q
2023-03-14 22:08:54:664,0,-8.44936,-5.76506,12.6217,Q,Q
2023-03-14 22:08:54:674,0,-8.44497,-5.79238,12.6265,Q,Q
2023-03-14 22:08:54:684,0,-8.43805,-5.81886,12.6308,Q,Q
2023-03-14 22:08:54:694,0,-8.43064,-5.84331,12.635,Q,Q
2023-03-14 22:08:54:704,0,-8.42884,-5.86745,12.6404,Q,Q
2023-03-14 22:08:54:714,0,-8.42839,-5.88929,12.6492,Q,Q
2023-03-14 22:08:54:724,0,-8.43127,-5.90687,12.6547,Q,Q
2023-03-14 22:08:54:734,0,-8.43174,-5.91617,12.6534,Q,Q
2023-03-14 22:08:54:744,0,-8.43517,-5.91582,12.6427,Q,Q
2023-03-14 22:08:54:754,0,-8.43783,-5.90663,12.6314,Q,Q
2023-03-14 22:08:54:764,0,-8.43827,-5.89531,12.6066,Q,Q
2023-03-14 22:08:54:774,0,-8.43161,-5.87337,12.5799,Q,Q
2023-03-14 22:08:54:784,0,-8.4246,-5.83947,12.5416,Q,Q
2023-03-14 22:08:54:794,0,-8.41753,-5.79785,12.4952,Q,Q
2023-03-14 22:08:54:804,0,-8.40883,-5.75347,12.4453,Q,Q
2023-03-14 22:08:54:814,0,-8.40923,-5.70064,12.3939,Q,Q
2023-03-14 22:08:54:824,0,-8.41099,-5.64602,12.3426,Q,Q
2023-03-14 22:08:54:834,0,-8.42475,-5.58779,12.2901,Q,Q
2023-03-14 22:08:54:844,0,-8.4411,-5.53212,12.2255,Q,Q
2023-03-14 22:08:54:854,0,-8.45803,-5.47589,12.1518,Q,Q
2023-03-14 22:08:54:864,0,-8.47071,-5.42326,12.066,Q,Q
2023-03-14 22:08:54:874,0,-8.48881,-5.37857,11.9789,Q,Q
2023-03-14 22:08:54:884,0,-8.50415,-5.34284,11.8807,Q,Q
2023-03-14 22:08:54:894,0,-8.52451,-5.31389,11.7853,Q,Q
2023-03-14 22:08:54:904,0,-8.54961,-5.28714,11.6905,Q,Q
2023-03-14 22:08:54:914,0,-8.5765,-5.26151,11.5957,Q,Q
2023-03-14 22:08:54:924,0,-8.60852,-5.22964,11.5052,Q,Q
2023-03-14 22:08:54:934,0,-8.64394,-5.20458,11.4235,Q,Q
2023-03-14 22:08:54:944,0,-8.68064,-5.18048,11.3474,Q,Q
2023-03-14 22:08:54:954,0,-8.72355,-5.16551,11.2732,Q,Q
2023-03-14 22:08:54:964,0,-8.75983,-5.15193,11.2154,Q,Q
2023-03-14 22:08:54:974,0,-8.79563,-5.14229,11.1656,Q,Q
2023-03-14 22:08:54:984,0,-8.82378,-5.13607,11.123,Q,Q
2023-03-14 22:08:54:994,0,-8.84787,-5.12534,11.0882,Q,Q
2023-03-14 22:08:55:4,0,-8.86533,-5.1127,11.0626,Q,Q
2023-03-14 22:08:55:14,0,-8.87913,-5.09407,11.0419,Q,Q
2023-03-14 22:08:55:24,0,-8.89192,-5.07418,11.0276,Q,Q
2023-03-14 22:08:55:34,0,-8.90346,-5.04725,11.0187,Q,Q
2023-03-14 22:08:55:44,0,-8.91389,-5.01938,11.0192,Q,Q
2023-03-14 22:08:55:54,0,-8.92291,-4.99017,11.0269,Q,Q
2023-03-14 22:08:55:64,0,-8.92937,-4.95029,11.0413,Q,Q
2023-03-14 22:08:55:74,0,-8.93194,-4.91418,11.0596,Q,Q
2023-03-14 22:08:55:84,0,-8.93573,-4.8788,11.0821,Q,Q
2023-03-14 22:08:55:94,0,-8.94214,-4.84505,11.1088,Q,Q
2023-03-14 22:08:55:104,0,-8.94802,-4.81649,11.136,Q,Q
2023-03-14 22:08:55:114,0,-8.96425,-4.78697,11.1644,Q,Q
2023-03-14 22:08:55:124,0,-8.98423,-4.76402,11.1919,Q,Q
2023-03-14 22:08:55:134,0,-9.01163,-4.75144,11.2243,Q,Q
2023-03-14 22:08:55:144,0,-9.05012,-4.74498,11.2577,Q,Q
2023-03-14 22:08:55:154,0,-9.09345,-4.75141,11.2919,Q,Q
2023-03-14 22:08:55:164,0,-9.13675,-4.77132,11.3241,Q,Q
2023-03-14 22:08:55:174,0,-9.18098,-4.79882,11.3514,Q,Q
2023-03-14 22:08:55:184,0,-9.21617,-4.82403,11.3736,Q,Q
2023-03-14 22:08:55:194,0,-9.24491,-4.84625,11.3826,Q,Q
2023-03-14 22:08:55:204,0,-9.26891,-4.86333,11.383,Q,Q
2023-03-14 22:08:55:214,0,-9.28571,-4.87426,11.3724,Q,Q
2023-03-14 22:08:55:224,0,-9.30439,-4.88154,11.3484,Q,Q
2023-03-14 22:08:55:234,0,-9.3187,-4.87832,11.3106,Q,Q
2023-03-14 22:08:55:244,0,-9.337,-4.87157,11.2585,Q,Q
2023-03-14 22:08:55:254,0,-9.35571,-4.85617,11.1972,Q,Q
2023-03-14 22:08:55:264,0,-9.37392,-4.83651,11.124,Q,Q
2023-03-14 22:08:55:274,0,-9.392,-4.81459,11.0507,Q,Q
2023-03-14 22:08:55:284,0,-9.41618,-4.79105,10.9813,Q,Q
2023-03-14 22:08:55:294,0,-9.43757,-4.77114,10.9209,Q,Q
2023-03-14 22:08:55:304,0,-9.45752,-4.76414,10.8675,Q,Q
2023-03-14 22:08:55:314,0,-9.48436,-4.76923,10.8171,Q,Q
2023-03-14 22:08:55:324,0,-9.51909,-4.77986,10.77,Q,Q
2023-03-14 22:08:55:334,0,-9.55605,-4.78407,10.7346,Q,Q
2023-03-14 22:08:55:344,0,-9.5867,-4.78711,10.7045,Q,Q
2023-03-14 22:08:55:354,0,-9.61204,-4.78778,10.6717,Q,Q
2023-03-14 22:08:55:364,0,-9.63764,-4.78371,10.6449,Q,Q
2023-03-14 22:08:55:374,0,-9.66222,-4.77314,10.622,Q,Q
2023-03-14 22:08:55:384,0,-9.67973,-4.75589,10.5992,Q,Q
2023-03-14 22:08:55:394,0,-9.69386,-4.73566,10.5777,Q,Q
2023-03-14 22:08:55:404,0,-9.70716,-4.71111,10.5589,Q,Q
2023-03-14 22:08:55:414,0,-9.72325,-4.68324,10.5366,Q,Q
2023-03-14 22:08:55:424,0,-9.74104,-4.65026,10.5135,Q,Q
2023-03-14 22:08:55:434,0,-9.76055,-4.61617,10.4904,Q,Q
2023-03-14 22:08:55:444,0,-9.77069,-4.57071,10.4624,Q,Q
2023-03-14 22:08:55:454,0,-9.77544,-4.52942,10.4319,Q,Q
2023-03-14 22:08:55:464,0,-9.77768,-4.48789,10.4016,Q,Q
2023-03-14 22:08:55:474,0,-9.77768,-4.44856,10.372,Q,Q
2023-03-14 22:08:55:484,0,-9.77017,-4.41689,10.342,Q,Q
2023-03-14 22:08:55:494,0,-9.75706,-4.38953,10.3137,Q,Q
2023-03-14 22:08:55:504,0,-9.74122,-4.36749,10.2889,Q,Q
2023-03-14 22:08:55:514,0,-9.72414,-4.35046,10.2695,Q,Q
2023-03-14 22:08:55:524,0,-9.70352,-4.33414,10.2488,Q,Q
2023-03-14 22:08:55:534,0,-9.68182,-4.31978,10.2292,Q,Q
2023-03-14 22:08:55:544,0,-9.65417,-4.31557,10.212,Q,Q
2023-03-14 22:08:55:554,0,-9.62971,-4.31835,10.1974,Q,Q
2023-03-14 22:08:55:564,0,-9.60265,-4.32927,10.1879,Q,Q
2023-03-14 22:08:55:574,0,-9.58101,-4.35048,10.1839,Q,Q
2023-03-14 22:08:55:584,0,-9.55573,-4.37729,10.1833,Q,Q
2023-03-14 22:08:55:594,0,-9.53669,-4.40578,10.1847,Q,Q
2023-03-14 22:08:55:604,0,-9.52057,-4.44283,10.1937,Q,Q
2023-03-14 22:08:55:614,0,-9.49561,-4.48042,10.2059,Q,Q
2023-03-14 22:08:55:624,0,-9.47024,-4.51632,10.2252,Q,Q
2023-03-14 22:08:55:634,0,-9.44883,-4.55439,10.2483,Q,Q
2023-03-14 22:08:55:644,0,-9.42491,-4.59556,10.2716,Q,Q
2023-03-14 22:08:55:654,0,-9.40313,-4.63959,10.3019,Q,Q
2023-03-14 22:08:55:664,0,-9.38674,-4.68236,10.3312,Q,Q
2023-03-14 22:08:55:674,0,-9.37071,-4.72602,10.3624,Q,Q
2023-03-14 22:08:55:684,0,-9.3526,-4.76866,10.395,Q,Q
2023-03-14 22:08:55:694,0,-9.33568,-4.81088,10.4255,Q,Q
2023-03-14 22:08:55:704,0,-9.32533,-4.85244,10.4576,Q,Q
2023-03-14 22:08:55:714,0,-9.31555,-4.89167,10.4868,Q,Q
2023-03-14 22:08:55:724,0,-9.31029,-4.93027,10.5174,Q,Q
2023-03-14 22:08:55:734,0,-9.30563,-4.96932,10.5455,Q,Q
2023-03-14 22:08:55:744,0,-9.30515,-5.00219,10.571,Q,Q
2023-03-14 22:08:55:754,0,-9.30711,-5.03507,10.5961,Q,Q
2023-03-14 22:08:55:764,0,-9.31192,-5.06944,10.6159,Q,Q
2023-03-14 22:08:55:774,0,-9.31025,-5.09597,10.6289,Q,Q
2023-03-14 22:08:55:784,0,-9.31428,-5.12213,10.6363,Q,Q
2023-03-14 22:08:55:794,0,-9.31784,-5.14156,10.6418,Q,Q
2023-03-14 22:08:55:804,0,-9.32194,-5.15793,10.6415,Q,Q
2023-03-14 22:08:55:814,0,-9.32229,-5.16893,10.6353,Q,Q
2023-03-14 22:08:55:824,0,-9.32415,-5.18051,10.6243,Q,Q
2023-03-14 22:08:55:834,0,-9.32486,-5.18509,10.606,Q,Q
2023-03-14 22:08:55:844,0,-9.32145,-5.18351,10.585,Q,Q
2023-03-14 22:08:55:854,0,-9.31744,-5.17965,10.5597,Q,Q
2023-03-14 22:08:55:864,0,-9.31849,-5.17152,10.5303,Q,Q
2023-03-14 22:08:55:874,0,-9.31668,-5.1579,10.5005,Q,Q
2023-03-14 22:08:55:884,0,-9.31596,-5.14364,10.47,Q,Q
2023-03-14 22:08:55:894,0,-9.32086,-5.128,10.4337,Q,Q
2023-03-14 22:08:55:904,0,-9.32671,-5.11164,10.4013,Q,Q
2023-03-14 22:08:55:914,0,-9.32835,-5.0983,10.3677,Q,Q
2023-03-14 22:08:55:924,0,-9.33033,-5.08832,10.3362,Q,Q
2023-03-14 22:08:55:934,0,-9.33016,-5.07543,10.3031,Q,Q
2023-03-14 22:08:55:944,0,-9.33012,-5.0658,10.2714,Q,Q
2023-03-14 22:08:55:954,0,-9.32787,-5.06086,10.2469,Q,Q
2023-03-14 22:08:55:964,0,-9.3193,-5.04732,10.2256,Q,Q
2023-03-14 22:08:55:974,0,-9.30937,-5.03164,10.2039,Q,Q
2023-03-14 22:08:55:984,0,-9.29771,-5.02206,10.1877,Q,Q
2023-03-14 22:08:55:994,0,-9.28742,-5.01312,10.1733,Q,Q
2023-03-14 22:08:56:4,0,-9.27595,-5.00588,10.1585,Q,Q
2023-03-14 22:08:56:14,0,-9.26242,-5.00091,10.15,Q,Q
2023-03-14 22:08:56:24,0,-9.251,-4.99804,10.1425,Q,Q
2023-03-14 22:08:56:34,0,-9.23642,-5.00018,10.1363,Q,Q
2023-03-14 22:08:56:44,0,-9.22529,-5.00487,10.1305,Q,Q
2023-03-14 22:08:56:54,0,-9.21448,-5.01541,10.1307,Q,Q
2023-03-14 22:08:56:64,0,-9.19957,-5.0252,10.1272,Q,Q
2023-03-14 22:08:56:74,0,-9.18272,-5.03513,10.1236,Q,Q
2023-03-14 22:08:56:84,0,-9.16686,-5.04616,10.1203,Q,Q
2023-03-14 22:08:56:94,0,-9.15217,-5.05824,10.1138,Q,Q
2023-03-14 22:08:56:104,0,-9.13565,-5.07431,10.1031,Q,Q
2023-03-14 22:08:56:114,0,-9.12145,-5.08743,10.094,Q,Q
2023-03-14 22:08:56:124,0,-9.11078,-5.09762,10.0823,Q,Q
2023-03-14 22:08:56:134,0,-9.09701,-5.11226,10.0755,Q,Q
2023-03-14 22:08:56:144,0,-9.08428,-5.13024,10.0725,Q,Q
2023-03-14 22:08:56:154,0,-9.07561,-5.14964,10.0709,Q,Q
2023-03-14 22:08:56:164,0,-9.07045,-5.1678,10.0758,Q,Q
2023-03-14 22:08:56:174,0,-9.0645,-5.18627,10.0771,Q,Q
2023-03-14 22:08:56:184,0,-9.06128,-5.19973,10.0805,Q,Q
2023-03-14 22:08:56:194,0,-9.05867,-5.20872,10.0866,Q,Q
2023-03-14 22:08:56:204,0,-9.0528,-5.21867,10.0931,Q,Q
2023-03-14 22:08:56:214,0,-9.05021,-5.2307,10.0971,Q,Q
2023-03-14 22:08:56:224,0,-9.04634,-5.24232,10.1019,Q,Q
2023-03-14 22:08:56:234,0,-9.03732,-5.25268,10.1054,Q,Q
2023-03-14 22:08:56:244,0,-9.03453,-5.25683,10.1067,Q,Q
2023-03-14 22:08:56:254,0,-9.03205,-5.2639,10.1033,Q,Q
2023-03-14 22:08:56:264,0,-9.03424,-5.27064,10.0981,Q,Q
2023-03-14 22:08:56:274,0,-9.03701,-5.27657,10.0906,Q,Q
2023-03-14 22:08:56:284,0,-9.03549,-5.27859,10.0819,Q,Q
2023-03-14 22:08:56:294,0,-9.03726,-5.28013,10.0699,Q,Q
2023-03-14 22:08:56:304,0,-9.03342,-5.27845,10.0553,Q,Q
2023-03-14 22:08:56:314,0,-9.01653,-5.27417,10.0386,Q,Q
2023-03-14 22:08:56:324,0,-8.99181,-5.27045,10.0178,Q,Q
2023-03-14 22:08:56:334,0,-8.96486,-5.2656,9.99752,Q,Q
2023-03-14 22:08:56:344,0,-8.94115,-5.26326,9.97564,Q,Q
2023-03-14 22:08:56:354,0,-8.91677,-5.26703,9.95303,Q,Q
2023-03-14 22:08:56:364,0,-8.8921,-5.27272,9.93112,Q,Q
2023-03-14 22:08:56:374,0,-8.86316,-5.27449,9.90636,Q,Q
2023-03-14 22:08:56:384,0,-8.83811,-5.27355,9.88112,Q,Q
2023-03-14 22:08:56:394,0,-8.80885,-5.27114,9.85402,Q,Q
2023-03-14 22:08:56:404,0,-8.77816,-5.26657,9.82752,Q,Q
2023-03-14 22:08:56:414,0,-8.74775,-5.26684,9.80564,Q,Q
2023-03-14 22:08:56:424,0,-8.72248,-5.26305,9.78291,Q,Q
2023-03-14 22:08:56:434,0,-8.69949,-5.2619,9.76362,Q,Q
2023-03-14 22:08:56:444,0,-8.67842,-5.26108,9.74317,Q,Q
2023-03-14 22:08:56:454,0,-8.65812,-5.25824,9.72806,Q,Q
2023-03-14 22:08:56:464,0,-8.64152,-5.25376,9.71189,Q,Q
2023-03-14 22:08:56:474,0,-8.62169,-5.24886,9.69841,Q,Q
2023-03-14 22:08:56:484,0,-8.60226,-5.24563,9.68576,Q,Q
2023-03-14 22:08:56:494,0,-8.58133,-5.24784,9.67756,Q,Q
2023-03-14 22:08:56:504,0,-8.56121,-5.25144,9.67131,Q,Q
2023-03-14 22:08:56:514,0,-8.53431,-5.25639,9.66988,Q,Q
2023-03-14 22:08:56:524,0,-8.5111,-5.26726,9.66996,Q,Q
2023-03-14 22:08:56:534,0,-8.49574,-5.27933,9.67349,Q,Q
2023-03-14 22:08:56:544,0,-8.48612,-5.29219,9.67964,Q,Q
2023-03-14 22:08:56:554,0,-8.48494,-5.30582,9.6915,Q,Q
2023-03-14 22:08:56:564,0,-8.49267,-5.31887,9.70165,Q,Q
2023-03-14 22:08:56:574,0,-8.50543,-5.32977,9.71336,Q,Q
2023-03-14 22:08:56:584,0,-8.52252,-5.34099,9.72535,Q,Q
2023-03-14 22:08:56:594,0,-8.54056,-5.35219,9.73358,Q,Q
2023-03-14 22:08:56:604,0,-8.55703,-5.36513,9.74222,Q,Q
2023-03-14 22:08:56:614,0,-8.57444,-5.36802,9.75096,Q,Q
2023-03-14 22:08:56:624,0,-8.58882,-5.36998,9.75849,Q,Q
2023-03-14 22:08:56:634,0,-8.5987,-5.37016,9.76546,Q,Q
2023-03-14 22:08:56:644,0,-8.60888,-5.37116,9.7727,Q,Q
2023-03-14 22:08:56:654,0,-8.61787,-5.37632,9.77612,Q,Q
2023-03-14 22:08:56:664,0,-8.62304,-5.37933,9.77724,Q,Q
2023-03-14 22:08:56:674,0,-8.62971,-5.38237,9.7782,Q,Q
2023-03-14 22:08:56:684,0,-8.6344,-5.38665,9.77761,Q,Q
2023-03-14 22:08:56:694,0,-8.63154,-5.38803,9.76982,Q,Q
2023-03-14 22:08:56:704,0,-8.62507,-5.38807,9.76386,Q,Q
2023-03-14 22:08:56:714,0,-8.61665,-5.38169,9.75252,Q,Q
2023-03-14 22:08:56:724,0,-8.60709,-5.37318,9.74114,Q,Q
2023-03-14 22:08:56:734,0,-8.59588,-5.36841,9.7298,Q,Q
2023-03-14 22:08:56:744,0,-8.58177,-5.36007,9.71573,Q,Q
2023-03-14 22:08:56:754,0,-8.56408,-5.35056,9.70039,Q,Q
2023-03-14 22:08:56:764,0,-8.54265,-5.33455,9.68493,Q,Q
2023-03-14 22:08:56:774,0,-8.52055,-5.32543,9.67427,Q,Q
2023-03-14 22:08:56:784,0,-8.50347,-5.31554,9.66133,Q,Q
2023-03-14 22:08:56:794,0,-8.48551,-5.30573,9.65343,Q,Q
2023-03-14 22:08:56:804,0,-8.46807,-5.2998,9.64261,Q,Q
2023-03-14 22:08:56:814,0,-8.45466,-5.29458,9.63173,Q,Q
2023-03-14 22:08:56:824,0,-8.44059,-5.29099,9.61378,Q,Q
2023-03-14 22:08:56:834,0,-8.43438,-5.28825,9.59399,Q,Q
2023-03-14 22:08:56:844,0,-8.42663,-5.28349,9.57797,Q,Q
2023-03-14 22:08:56:854,0,-8.42161,-5.27784,9.55911,Q,Q
2023-03-14 22:08:56:864,0,-8.42197,-5.27434,9.5439,Q,Q
2023-03-14 22:08:56:874,0,-8.42346,-5.26971,9.52808,Q,Q
2023-03-14 22:08:56:884,0,-8.42606,-5.26561,9.5136,Q,Q
2023-03-14 22:08:56:894,0,-8.42385,-5.26279,9.50082,Q,Q
2023-03-14 22:08:56:904,0,-8.41357,-5.2614,9.48651,Q,Q
2023-03-14 22:08:56:914,0,-8.39175,-5.26117,9.46719,Q,Q
2023-03-14 22:08:56:924,0,-8.37551,-5.25864,9.4487,Q,Q
2023-03-14 22:08:56:934,0,-8.36993,-5.26148,9.42986,Q,Q
2023-03-14 22:08:56:944,0,-8.37,-5.26764,9.40756,Q,Q
2023-03-14 22:08:56:954,0,-8.38014,-5.27054,9.39012,Q,Q
2023-03-14 22:08:56:964,0,-8.3911,-5.27782,9.36902,Q,Q
2023-03-14 22:08:56:974,0,-8.3992,-5.28211,9.34064,Q,Q
2023-03-14 22:08:56:984,0,-8.40305,-5.28495,9.31116,Q,Q
2023-03-14 22:08:56:994,0,-8.40051,-5.28537,9.28434,Q,Q
2023-03-14 22:08:57:4,0,-8.38609,-5.28958,9.25859,Q,Q
2023-03-14 22:08:57:14,0,-8.36824,-5.30185,9.22934,Q,Q
2023-03-14 22:08:57:24,0,-8.35205,-5.31007,9.20706,Q,Q
2023-03-14 22:08:57:34,0,-8.33563,-5.31025,9.18889,Q,Q
2023-03-14 22:08:57:44,0,-8.32033,-5.30667,9.16619,Q,Q
2023-03-14 22:08:57:54,0,-8.31545,-5.30306,9.15194,Q,Q
2023-03-14 22:08:57:64,0,-8.31942,-5.2945,9.1377,Q,Q
2023-03-14 22:08:57:74,0,-8.33008,-5.28816,9.12232,Q,Q
2023-03-14 22:08:57:84,0,-8.33159,-5.27794,9.1035,Q,Q
2023-03-14 22:08:57:94,0,-8.32988,-5.27032,9.08004,Q,Q
2023-03-14 22:08:57:104,0,-8.33452,-5.26497,9.05939,Q,Q
2023-03-14 22:08:57:114,0,-8.35026,-5.25143,9.041,Q,Q
2023-03-14 22:08:57:124,0,-8.36803,-5.22789,9.02237,Q,Q
2023-03-14 22:08:57:134,0,-8.38053,-5.19812,9.00729,Q,Q
2023-03-14 22:08:57:144,0,-8.39168,-5.17025,8.99261,Q,Q
2023-03-14 22:08:57:154,0,-8.41424,-5.14754,8.98137,Q,Q
2023-03-14 22:08:57:164,0,-8.44883,-5.12967,8.98029,Q,Q
2023-03-14 22:08:57:174,0,-8.49476,-5.12602,8.97131,Q,Q
2023-03-14 22:08:57:184,0,-8.49771,-5.13028,8.94652,Q,Q
2023-03-14 22:08:57:194,0,-8.47572,-5.12355,8.92507,Q,Q
2023-03-14 22:08:57:204,0,-8.45836,-5.11452,8.91559,Q,Q
2023-03-14 22:08:57:214,0,-8.45309,-5.11035,8.91167,Q,Q
2023-03-14 22:08:57:224,0,-8.45264,-5.11367,8.90906,Q,Q
2023-03-14 22:08:57:234,0,-8.45862,-5.10846,8.90525,Q,Q
2023-03-14 22:08:57:244,0,-8.47847,-5.09881,8.89967,Q,Q
2023-03-14 22:08:57:254,0,-8.49693,-5.09079,8.88444,Q,Q
2023-03-14 22:08:57:264,0,-8.50966,-5.08607,8.87353,Q,Q
2023-03-14 22:08:57:274,0,-8.51523,-5.08529,8.86746,Q,Q
2023-03-14 22:08:57:284,0,-8.5319,-5.08448,8.86324,Q,Q
2023-03-14 22:08:57:294,0,-8.56746,-5.08589,8.87251,Q,Q
2023-03-14 22:08:57:304,0,-8.61151,-5.08823,8.88351,Q,Q
2023-03-14 22:08:57:314,0,-8.64988,-5.09927,8.89493,Q,Q
2023-03-14 22:08:57:324,0,-8.66745,-5.10538,8.90529,Q,Q
2023-03-14 22:08:57:334,0,-8.66401,-5.1028,8.91622,Q,Q
2023-03-14 22:08:57:344,0,-8.64011,-5.098,8.93018,Q,Q
2023-03-14 22:08:57:354,0,-8.61552,-5.09307,8.9474,Q,Q
2023-03-14 22:08:57:364,0,-8.60452,-5.09191,8.97644,Q,Q
2023-03-14 22:08:57:374,0,-8.60073,-5.0952,9.00545,Q,Q
2023-03-14 22:08:57:384,0,-8.6018,-5.10419,9.03282,Q,Q
2023-03-14 22:08:57:394,0,-8.59458,-5.1122,9.05835,Q,Q
2023-03-14 22:08:57:404,0,-8.58796,-5.12654,9.08411,Q,Q
2023-03-14 22:08:57:414,0,-8.56878,-5.14415,9.10117,Q,Q
2023-03-14 22:08:57:424,0,-8.54436,-5.161,9.11756,Q,Q
2023-03-14 22:08:57:434,0,-8.51741,-5.17312,9.13443,Q,Q
