Timestamp_cmd,imu_cmd,roll_delta,pitch_delta,yaw_delta,voice_type,voice_length
2023-03-15 16:08:34:886,0,-7.47087,-2.53618,-26.5651,Q,Q
2023-03-15 16:08:34:894,0,-7.48466,-2.54182,-26.5564,Q,Q
2023-03-15 16:08:34:904,0,-7.49617,-2.54643,-26.5495,Q,Q
2023-03-15 16:08:34:915,0,-7.50843,-2.55455,-26.5447,Q,Q
2023-03-15 16:08:34:925,0,-7.51174,-2.56284,-26.5428,Q,Q
2023-03-15 16:08:34:935,0,-7.52007,-2.57242,-26.5453,Q,Q
2023-03-15 16:08:34:945,0,-7.53234,-2.57655,-26.5527,Q,Q
2023-03-15 16:08:34:955,0,-7.5471,-2.5836,-26.5638,Q,Q
2023-03-15 16:08:34:965,0,-7.55625,-2.58933,-26.5779,Q,Q
2023-03-15 16:08:34:975,0,-7.56058,-2.59526,-26.5907,Q,Q
2023-03-15 16:08:34:985,0,-7.56341,-2.60102,-26.6025,Q,Q
2023-03-15 16:08:34:995,0,-7.57526,-2.60477,-26.6131,Q,Q
2023-03-15 16:08:35:5,0,-7.58534,-2.60421,-26.6227,Q,Q
2023-03-15 16:08:35:15,0,-7.6013,-2.59986,-26.6345,Q,Q
2023-03-15 16:08:35:25,0,-7.61575,-2.59668,-26.6425,Q,Q
2023-03-15 16:08:35:35,0,-7.62731,-2.59548,-26.6588,Q,Q
2023-03-15 16:08:35:45,0,-7.6376,-2.59395,-26.6748,Q,Q
2023-03-15 16:08:35:55,0,-7.65024,-2.58375,-26.6818,Q,Q
2023-03-15 16:08:35:65,0,-7.67064,-2.57291,-26.6825,Q,Q
2023-03-15 16:08:35:75,0,-7.69289,-2.57662,-26.679,Q,Q
2023-03-15 16:08:35:85,0,-7.71669,-2.59188,-26.6674,Q,Q
2023-03-15 16:08:35:95,0,-7.7411,-2.59719,-26.6525,Q,Q
2023-03-15 16:08:35:105,0,-7.75882,-2.59588,-26.641,Q,Q
2023-03-15 16:08:35:115,0,-7.7448,-2.59578,-26.6385,Q,Q
2023-03-15 16:08:35:125,0,-7.70088,-2.59895,-26.6367,Q,Q
2023-03-15 16:08:35:135,0,-7.65299,-2.60514,-26.6323,Q,Q
2023-03-15 16:08:35:145,0,-7.6099,-2.61051,-26.6243,Q,Q
2023-03-15 16:08:35:155,0,-7.5926,-2.61265,-26.6237,Q,Q
2023-03-15 16:08:35:165,0,-7.58568,-2.61751,-26.6302,Q,Q
2023-03-15 16:08:35:175,0,-7.57839,-2.623,-26.6449,Q,Q
2023-03-15 16:08:35:185,0,-7.57139,-2.6284,-26.6567,Q,Q
2023-03-15 16:08:35:195,0,-7.56977,-2.632,-26.6726,Q,Q
2023-03-15 16:08:35:205,0,-7.57162,-2.6392,-26.6887,Q,Q
2023-03-15 16:08:35:215,0,-7.56231,-2.64678,-26.7045,Q,Q
2023-03-15 16:08:35:225,0,-7.53974,-2.65469,-26.7151,Q,Q
2023-03-15 16:08:35:235,0,-7.50782,-2.6593,-26.7218,Q,Q
2023-03-15 16:08:35:245,0,-7.47609,-2.66158,-26.7234,Q,Q
2023-03-15 16:08:35:255,0,-7.45939,-2.66151,-26.7152,Q,Q
2023-03-15 16:08:35:265,0,-7.45515,-2.66558,-26.7039,Q,Q
2023-03-15 16:08:35:275,0,-7.45187,-2.6616,-26.6943,Q,Q
2023-03-15 16:08:35:285,0,-7.44976,-2.66483,-26.685,Q,Q
2023-03-15 16:08:35:295,0,-7.44387,-2.6708,-26.6818,Q,Q
2023-03-15 16:08:35:305,0,-7.43884,-2.67959,-26.6769,Q,Q
2023-03-15 16:08:35:315,0,-7.44082,-2.69021,-26.677,Q,Q
2023-03-15 16:08:35:325,0,-7.43684,-2.70214,-26.6751,Q,Q
2023-03-15 16:08:35:335,0,-7.43119,-2.7166,-26.6754,Q,Q
2023-03-15 16:08:35:345,0,-7.42273,-2.73199,-26.6769,Q,Q
2023-03-15 16:08:35:355,0,-7.41633,-2.75174,-26.6756,Q,Q
2023-03-15 16:08:35:365,0,-7.41706,-2.77315,-26.6733,Q,Q
2023-03-15 16:08:35:375,0,-7.41626,-2.7865,-26.6723,Q,Q
2023-03-15 16:08:35:385,0,-7.42267,-2.7956,-26.6703,Q,Q
2023-03-15 16:08:35:395,0,-7.43079,-2.79992,-26.6738,Q,Q
2023-03-15 16:08:35:405,0,-7.42387,-2.80267,-26.683,Q,Q
2023-03-15 16:08:35:415,0,-7.39815,-2.80839,-26.6879,Q,Q
2023-03-15 16:08:35:425,0,-7.36808,-2.81589,-26.6924,Q,Q
2023-03-15 16:08:35:435,0,-7.3462,-2.82341,-26.6978,Q,Q
2023-03-15 16:08:35:445,0,-7.32627,-2.82963,-26.7018,Q,Q
2023-03-15 16:08:35:455,0,-7.30991,-2.83367,-26.7053,Q,Q
2023-03-15 16:08:35:465,0,-7.29293,-2.83975,-26.711,Q,Q
2023-03-15 16:08:35:475,0,-7.27702,-2.8421,-26.7158,Q,Q
2023-03-15 16:08:35:485,0,-7.2626,-2.84584,-26.719,Q,Q
2023-03-15 16:08:35:495,0,-7.24545,-2.84227,-26.7216,Q,Q
2023-03-15 16:08:35:505,0,-7.22437,-2.84331,-26.7207,Q,Q
2023-03-15 16:08:35:515,0,-7.2094,-2.84289,-26.7267,Q,Q
2023-03-15 16:08:35:525,0,-7.19576,-2.84368,-26.7243,Q,Q
2023-03-15 16:08:35:535,0,-7.17985,-2.84655,-26.7253,Q,Q
2023-03-15 16:08:35:545,0,-7.16345,-2.84648,-26.7271,Q,Q
2023-03-15 16:08:35:555,0,-7.14859,-2.84559,-26.7243,Q,Q
2023-03-15 16:08:35:565,0,-7.13739,-2.84247,-26.7206,Q,Q
2023-03-15 16:08:35:575,0,-7.1294,-2.84174,-26.7188,Q,Q
2023-03-15 16:08:35:585,0,-7.12218,-2.83907,-26.7153,Q,Q
2023-03-15 16:08:35:595,0,-7.11134,-2.83762,-26.7131,Q,Q
2023-03-15 16:08:35:605,0,-7.10392,-2.83423,-26.7096,Q,Q
2023-03-15 16:08:35:615,0,-7.10411,-2.83198,-26.7076,Q,Q
2023-03-15 16:08:35:625,0,-7.11131,-2.83286,-26.7027,Q,Q
2023-03-15 16:08:35:635,0,-7.11385,-2.83346,-26.7009,Q,Q
2023-03-15 16:08:35:645,0,-7.12211,-2.82973,-26.6998,Q,Q
2023-03-15 16:08:35:655,0,-7.13105,-2.82793,-26.7013,Q,Q
2023-03-15 16:08:35:665,0,-7.13563,-2.82489,-26.702,Q,Q
2023-03-15 16:08:35:675,0,-7.13577,-2.82446,-26.7056,Q,Q
2023-03-15 16:08:35:685,0,-7.13539,-2.82309,-26.7098,Q,Q
2023-03-15 16:08:35:695,0,-7.13733,-2.82479,-26.7097,Q,Q
2023-03-15 16:08:35:705,0,-7.14324,-2.82461,-26.7115,Q,Q
2023-03-15 16:08:35:715,0,-7.14487,-2.81839,-26.7131,Q,Q
2023-03-15 16:08:35:725,0,-7.14995,-2.81561,-26.7127,Q,Q
2023-03-15 16:08:35:735,0,-7.15932,-2.80937,-26.71,Q,Q
2023-03-15 16:08:35:745,0,-7.17057,-2.80505,-26.7089,Q,Q
2023-03-15 16:08:35:754,0,-7.18486,-2.80153,-26.7022,Q,Q
2023-03-15 16:08:35:765,0,-7.19442,-2.80235,-26.6973,Q,Q
2023-03-15 16:08:35:775,0,-7.20709,-2.80344,-26.6896,Q,Q
2023-03-15 16:08:35:785,0,-7.2222,-2.80298,-26.6856,Q,Q
2023-03-15 16:08:35:794,0,-7.23373,-2.80038,-26.6823,Q,Q
2023-03-15 16:08:35:804,0,-7.24311,-2.80179,-26.6854,Q,Q
2023-03-15 16:08:35:814,0,-7.25425,-2.80432,-26.6852,Q,Q
2023-03-15 16:08:35:825,0,-7.26288,-2.80328,-26.6839,Q,Q
2023-03-15 16:08:35:835,0,-7.27163,-2.80671,-26.6859,Q,Q
2023-03-15 16:08:35:845,0,-7.28179,-2.8057,-26.686,Q,Q
2023-03-15 16:08:35:855,0,-7.2959,-2.80457,-26.6839,Q,Q
2023-03-15 16:08:35:864,0,-7.30396,-2.8042,-26.6837,Q,Q
2023-03-15 16:08:35:875,0,-7.31102,-2.80134,-26.6812,Q,Q
2023-03-15 16:08:35:884,0,-7.31735,-2.7947,-26.6759,Q,Q
2023-03-15 16:08:35:895,0,-7.32892,-2.78891,-26.6704,Q,Q
2023-03-15 16:08:35:905,0,-7.33973,-2.78451,-26.666,Q,Q
2023-03-15 16:08:35:915,0,-7.34839,-2.77742,-26.6639,Q,Q
2023-03-15 16:08:35:925,0,-7.35344,-2.77098,-26.6639,Q,Q
2023-03-15 16:08:35:935,0,-7.35762,-2.76445,-26.6706,Q,Q
2023-03-15 16:08:35:945,0,-7.36138,-2.75606,-26.6761,Q,Q
2023-03-15 16:08:35:955,0,-7.36171,-2.74578,-26.6848,Q,Q
2023-03-15 16:08:35:965,0,-7.35979,-2.73952,-26.696,Q,Q
2023-03-15 16:08:35:975,0,-7.3537,-2.73562,-26.7032,Q,Q
2023-03-15 16:08:35:985,0,-7.34818,-2.73244,-26.7088,Q,Q
2023-03-15 16:08:35:995,0,-7.35474,-2.72624,-26.7066,Q,Q
2023-03-15 16:08:36:5,0,-7.36387,-2.71663,-26.7084,Q,Q
2023-03-15 16:08:36:15,0,-7.37477,-2.7055,-26.7042,Q,Q
2023-03-15 16:08:36:25,0,-7.38503,-2.69374,-26.7042,Q,Q
2023-03-15 16:08:36:34,0,-7.40081,-2.67804,-26.7046,Q,Q
2023-03-15 16:08:36:45,0,-7.4148,-2.66036,-26.7096,Q,Q
2023-03-15 16:08:36:55,0,-7.42842,-2.64213,-26.7137,Q,Q
2023-03-15 16:08:36:65,0,-7.43093,-2.62679,-26.7211,Q,Q
2023-03-15 16:08:36:75,0,-7.42752,-2.61349,-26.731,Q,Q
2023-03-15 16:08:36:85,0,-7.42382,-2.60251,-26.7406,Q,Q
2023-03-15 16:08:36:95,0,-7.41285,-2.59354,-26.7582,Q,Q
2023-03-15 16:08:36:105,0,-7.40595,-2.58494,-26.7796,Q,Q
2023-03-15 16:08:36:115,0,-7.39478,-2.57162,-26.8027,Q,Q
2023-03-15 16:08:36:125,0,-7.38811,-2.56081,-26.8346,Q,Q
2023-03-15 16:08:36:135,0,-7.3889,-2.5445,-26.8701,Q,Q
2023-03-15 16:08:36:145,0,-7.39496,-2.52986,-26.9045,Q,Q
2023-03-15 16:08:36:155,0,-7.41343,-2.51547,-26.9307,Q,Q
2023-03-15 16:08:36:165,0,-7.4476,-2.52347,-26.944,Q,Q
2023-03-15 16:08:36:174,0,-7.50872,-2.54335,-26.9351,Q,Q
2023-03-15 16:08:36:185,0,-7.58168,-2.5666,-26.9203,Q,Q
2023-03-15 16:08:36:195,0,-7.64997,-2.59035,-26.9021,Q,Q
2023-03-15 16:08:36:205,0,-7.71702,-2.61456,-26.8783,Q,Q
2023-03-15 16:08:36:215,0,-7.77049,-2.63626,-26.8524,Q,Q
2023-03-15 16:08:36:225,0,-7.79902,-2.65427,-26.8327,Q,Q
2023-03-15 16:08:36:235,0,-7.80708,-2.67018,-26.8112,Q,Q
2023-03-15 16:08:36:245,0,-7.79443,-2.67999,-26.7887,Q,Q
2023-03-15 16:08:36:255,0,-7.7688,-2.69855,-26.7675,Q,Q
2023-03-15 16:08:36:265,0,-7.74567,-2.7171,-26.7422,Q,Q
2023-03-15 16:08:36:275,0,-7.7461,-2.73632,-26.7175,Q,Q
2023-03-15 16:08:36:285,0,-7.76902,-2.75735,-26.6867,Q,Q
2023-03-15 16:08:36:294,0,-7.81128,-2.78536,-26.6483,Q,Q
2023-03-15 16:08:36:305,0,-7.85477,-2.82053,-26.5985,Q,Q
2023-03-15 16:08:36:315,0,-7.90171,-2.87389,-26.5394,Q,Q
2023-03-15 16:08:36:325,0,-7.94715,-2.91878,-26.4631,Q,Q
2023-03-15 16:08:36:335,0,-7.97945,-2.9468,-26.3894,Q,Q
2023-03-15 16:08:36:345,0,-7.9934,-2.95884,-26.3037,Q,Q
2023-03-15 16:08:36:355,0,-7.99599,-2.95686,-26.2096,Q,Q
2023-03-15 16:08:36:365,0,-8.0,-2.94807,-26.1069,Q,Q
2023-03-15 16:08:36:375,0,-8.01816,-2.92221,-26.0069,Q,Q
2023-03-15 16:08:36:385,0,-8.04852,-2.88521,-25.9087,Q,Q
2023-03-15 16:08:36:395,0,-8.08738,-2.84097,-25.8126,Q,Q
2023-03-15 16:08:36:405,0,-8.1299,-2.80124,-25.7153,Q,Q
2023-03-15 16:08:36:415,0,-8.17804,-2.7619,-25.6211,Q,Q
2023-03-15 16:08:36:425,0,-8.22831,-2.72625,-25.5366,Q,Q
2023-03-15 16:08:36:435,0,-8.27551,-2.69829,-25.4648,Q,Q
2023-03-15 16:08:36:445,0,-8.31852,-2.68127,-25.4122,Q,Q
2023-03-15 16:08:36:455,0,-8.35289,-2.66263,-25.377,Q,Q
2023-03-15 16:08:36:465,0,-8.36214,-2.64326,-25.375,Q,Q
2023-03-15 16:08:36:475,0,-8.35256,-2.63085,-25.3893,Q,Q
2023-03-15 16:08:36:485,0,-8.3333,-2.62661,-25.4173,Q,Q
2023-03-15 16:08:36:495,0,-8.30544,-2.62677,-25.4618,Q,Q
2023-03-15 16:08:36:505,0,-8.2714,-2.63923,-25.5178,Q,Q
2023-03-15 16:08:36:515,0,-8.24083,-2.67094,-25.5725,Q,Q
2023-03-15 16:08:36:525,0,-8.22635,-2.70755,-25.624,Q,Q
2023-03-15 16:08:36:535,0,-8.22848,-2.74757,-25.6788,Q,Q
2023-03-15 16:08:36:545,0,-8.23578,-2.78917,-25.7308,Q,Q
2023-03-15 16:08:36:555,0,-8.24351,-2.83374,-25.7837,Q,Q
2023-03-15 16:08:36:565,0,-8.25366,-2.88725,-25.8248,Q,Q
2023-03-15 16:08:36:575,0,-8.27058,-2.94302,-25.8604,Q,Q
2023-03-15 16:08:36:584,0,-8.29062,-2.99056,-25.8968,Q,Q
2023-03-15 16:08:36:595,0,-8.30046,-3.02829,-25.9343,Q,Q
2023-03-15 16:08:36:605,0,-8.30349,-3.05176,-25.966,Q,Q
2023-03-15 16:08:36:615,0,-8.30493,-3.06838,-25.9889,Q,Q
2023-03-15 16:08:36:625,0,-8.31654,-3.0783,-26.0061,Q,Q
2023-03-15 16:08:36:635,0,-8.33964,-3.08694,-26.0172,Q,Q
2023-03-15 16:08:36:645,0,-8.36804,-3.09907,-26.023,Q,Q
2023-03-15 16:08:36:655,0,-8.39929,-3.11244,-26.0256,Q,Q
2023-03-15 16:08:36:665,0,-8.42451,-3.10768,-26.0291,Q,Q
2023-03-15 16:08:36:675,0,-8.43446,-3.09536,-26.0438,Q,Q
2023-03-15 16:08:36:685,0,-8.4365,-3.07896,-26.0645,Q,Q
2023-03-15 16:08:36:695,0,-8.44118,-3.05778,-26.0869,Q,Q
2023-03-15 16:08:36:705,0,-8.45112,-3.03028,-26.1134,Q,Q
2023-03-15 16:08:36:715,0,-8.45723,-2.99527,-26.1492,Q,Q
2023-03-15 16:08:36:725,0,-8.46597,-2.96181,-26.1941,Q,Q
2023-03-15 16:08:36:735,0,-8.46933,-2.92341,-26.2488,Q,Q
2023-03-15 16:08:36:745,0,-8.47117,-2.8776,-26.3151,Q,Q
2023-03-15 16:08:36:755,0,-8.45805,-2.82736,-26.3915,Q,Q
2023-03-15 16:08:36:765,0,-8.44112,-2.78361,-26.4631,Q,Q
2023-03-15 16:08:36:775,0,-8.42896,-2.73745,-26.534,Q,Q
2023-03-15 16:08:36:785,0,-8.42602,-2.69761,-26.6029,Q,Q
2023-03-15 16:08:36:795,0,-8.42954,-2.66083,-26.6784,Q,Q
2023-03-15 16:08:36:805,0,-8.42794,-2.62256,-26.7521,Q,Q
2023-03-15 16:08:36:815,0,-8.42434,-2.58886,-26.8226,Q,Q
2023-03-15 16:08:36:825,0,-8.42858,-2.55853,-26.8857,Q,Q
2023-03-15 16:08:36:835,0,-8.43599,-2.53486,-26.9408,Q,Q
2023-03-15 16:08:36:845,0,-8.44569,-2.51879,-26.9886,Q,Q
2023-03-15 16:08:36:855,0,-8.45854,-2.50775,-27.0339,Q,Q
2023-03-15 16:08:36:865,0,-8.47093,-2.49499,-27.0716,Q,Q
2023-03-15 16:08:36:875,0,-8.49364,-2.49052,-27.1022,Q,Q
2023-03-15 16:08:36:885,0,-8.53457,-2.49799,-27.1225,Q,Q
2023-03-15 16:08:36:895,0,-8.59322,-2.50099,-27.1363,Q,Q
2023-03-15 16:08:36:905,0,-8.65004,-2.51807,-27.1481,Q,Q
2023-03-15 16:08:36:915,0,-8.70092,-2.54674,-27.1506,Q,Q
2023-03-15 16:08:36:925,0,-8.74285,-2.58568,-27.1414,Q,Q
2023-03-15 16:08:36:935,0,-8.78069,-2.63287,-27.1243,Q,Q
2023-03-15 16:08:36:944,0,-8.81954,-2.68453,-27.1104,Q,Q
2023-03-15 16:08:36:955,0,-8.86332,-2.73498,-27.094,Q,Q
2023-03-15 16:08:36:965,0,-8.90725,-2.78157,-27.0756,Q,Q
2023-03-15 16:08:36:975,0,-8.95301,-2.81861,-27.0572,Q,Q
2023-03-15 16:08:36:984,0,-9.00236,-2.8465,-27.0415,Q,Q
2023-03-15 16:08:36:994,0,-9.04709,-2.86858,-27.0304,Q,Q
2023-03-15 16:08:37:4,0,-9.09044,-2.87931,-27.0249,Q,Q
2023-03-15 16:08:37:14,0,-9.13133,-2.87801,-27.0232,Q,Q
2023-03-15 16:08:37:24,0,-9.1775,-2.86836,-27.0165,Q,Q
2023-03-15 16:08:37:34,0,-9.2272,-2.85538,-27.0058,Q,Q
2023-03-15 16:08:37:44,0,-9.27848,-2.83623,-26.9929,Q,Q
2023-03-15 16:08:37:54,0,-9.32646,-2.81241,-26.9758,Q,Q
2023-03-15 16:08:37:64,0,-9.37074,-2.78946,-26.9568,Q,Q
2023-03-15 16:08:37:74,0,-9.40771,-2.76564,-26.9364,Q,Q
2023-03-15 16:08:37:85,0,-9.43195,-2.74373,-26.9252,Q,Q
2023-03-15 16:08:37:94,0,-9.44653,-2.72364,-26.9215,Q,Q
2023-03-15 16:08:37:104,0,-9.45099,-2.70889,-26.9223,Q,Q
2023-03-15 16:08:37:114,0,-9.44575,-2.69175,-26.9351,Q,Q
2023-03-15 16:08:37:124,0,-9.43047,-2.67411,-26.9571,Q,Q
2023-03-15 16:08:37:134,0,-9.40887,-2.65866,-26.989,Q,Q
2023-03-15 16:08:37:144,0,-9.38297,-2.64511,-27.0214,Q,Q
2023-03-15 16:08:37:154,0,-9.36503,-2.63152,-27.0564,Q,Q
2023-03-15 16:08:37:165,0,-9.34879,-2.62128,-27.0933,Q,Q
2023-03-15 16:08:37:174,0,-9.33999,-2.61463,-27.1348,Q,Q
2023-03-15 16:08:37:184,0,-9.34087,-2.60585,-27.1751,Q,Q
2023-03-15 16:08:37:194,0,-9.34854,-2.5943,-27.2082,Q,Q
2023-03-15 16:08:37:204,0,-9.35958,-2.58279,-27.2472,Q,Q
2023-03-15 16:08:37:214,0,-9.37813,-2.57472,-27.2827,Q,Q
2023-03-15 16:08:37:224,0,-9.40514,-2.57474,-27.3108,Q,Q
2023-03-15 16:08:37:234,0,-9.44288,-2.57992,-27.3351,Q,Q
2023-03-15 16:08:37:244,0,-9.47766,-2.5859,-27.3553,Q,Q
2023-03-15 16:08:37:254,0,-9.51255,-2.5908,-27.3715,Q,Q
2023-03-15 16:08:37:265,0,-9.5441,-2.59961,-27.3779,Q,Q
2023-03-15 16:08:37:274,0,-9.58372,-2.60587,-27.3736,Q,Q
2023-03-15 16:08:37:285,0,-9.62665,-2.61658,-27.3637,Q,Q
2023-03-15 16:08:37:294,0,-9.67312,-2.63447,-27.3459,Q,Q
2023-03-15 16:08:37:304,0,-9.72034,-2.65609,-27.3217,Q,Q
2023-03-15 16:08:37:315,0,-9.76751,-2.68266,-27.2959,Q,Q
2023-03-15 16:08:37:325,0,-9.81269,-2.71581,-27.2664,Q,Q
2023-03-15 16:08:37:334,0,-9.85588,-2.75038,-27.2357,Q,Q
2023-03-15 16:08:37:345,0,-9.89908,-2.79087,-27.2015,Q,Q
2023-03-15 16:08:37:355,0,-9.93456,-2.83415,-27.1675,Q,Q
2023-03-15 16:08:37:365,0,-9.96773,-2.87638,-27.136,Q,Q
2023-03-15 16:08:37:374,0,-10.003,-2.91578,-27.1113,Q,Q
2023-03-15 16:08:37:385,0,-10.0381,-2.95652,-27.0898,Q,Q
2023-03-15 16:08:37:394,0,-10.07,-2.99581,-27.0787,Q,Q
2023-03-15 16:08:37:405,0,-10.0964,-3.03664,-27.0675,Q,Q
2023-03-15 16:08:37:415,0,-10.1221,-3.07418,-27.0624,Q,Q
2023-03-15 16:08:37:425,0,-10.1444,-3.11187,-27.0593,Q,Q
2023-03-15 16:08:37:435,0,-10.1613,-3.14317,-27.0524,Q,Q
2023-03-15 16:08:37:445,0,-10.1743,-3.16921,-27.0491,Q,Q
2023-03-15 16:08:37:455,0,-10.188,-3.19239,-27.0457,Q,Q
2023-03-15 16:08:37:465,0,-10.1977,-3.21208,-27.0428,Q,Q
2023-03-15 16:08:37:475,0,-10.2119,-3.22958,-27.0416,Q,Q
2023-03-15 16:08:37:485,0,-10.225,-3.24717,-27.0421,Q,Q
2023-03-15 16:08:37:495,0,-10.2298,-3.25886,-27.0513,Q,Q
2023-03-15 16:08:37:505,0,-10.2258,-3.26901,-27.0666,Q,Q
2023-03-15 16:08:37:515,0,-10.2187,-3.2739,-27.0885,Q,Q
2023-03-15 16:08:37:525,0,-10.2082,-3.2779,-27.113,Q,Q
2023-03-15 16:08:37:535,0,-10.1998,-3.28081,-27.1346,Q,Q
2023-03-15 16:08:37:545,0,-10.195,-3.28197,-27.1584,Q,Q
2023-03-15 16:08:37:555,0,-10.1941,-3.2813,-27.1795,Q,Q
2023-03-15 16:08:37:565,0,-10.1984,-3.28288,-27.1986,Q,Q
2023-03-15 16:08:37:575,0,-10.202,-3.28375,-27.2241,Q,Q
2023-03-15 16:08:37:585,0,-10.2007,-3.28468,-27.2528,Q,Q
2023-03-15 16:08:37:595,0,-10.198,-3.28877,-27.2906,Q,Q
2023-03-15 16:08:37:605,0,-10.1848,-3.2879,-27.3351,Q,Q
2023-03-15 16:08:37:615,0,-10.1658,-3.28447,-27.3882,Q,Q
2023-03-15 16:08:37:625,0,-10.1408,-3.27741,-27.4422,Q,Q
2023-03-15 16:08:37:635,0,-10.1211,-3.27368,-27.4896,Q,Q
2023-03-15 16:08:37:645,0,-10.1048,-3.266,-27.5401,Q,Q
2023-03-15 16:08:37:655,0,-10.0919,-3.25727,-27.5786,Q,Q
2023-03-15 16:08:37:665,0,-10.0828,-3.24388,-27.6072,Q,Q
2023-03-15 16:08:37:675,0,-10.077,-3.23238,-27.6295,Q,Q
2023-03-15 16:08:37:685,0,-10.0751,-3.22204,-27.6414,Q,Q
2023-03-15 16:08:37:695,0,-10.0723,-3.20641,-27.6431,Q,Q
2023-03-15 16:08:37:705,0,-10.0761,-3.19429,-27.6368,Q,Q
2023-03-15 16:08:37:715,0,-10.0778,-3.18449,-27.6241,Q,Q
2023-03-15 16:08:37:725,0,-10.0742,-3.17596,-27.6042,Q,Q
2023-03-15 16:08:37:735,0,-10.0763,-3.17198,-27.5824,Q,Q
2023-03-15 16:08:37:745,0,-10.0806,-3.16876,-27.5591,Q,Q
2023-03-15 16:08:37:755,0,-10.0813,-3.17107,-27.537,Q,Q
2023-03-15 16:08:37:765,0,-10.0803,-3.17425,-27.5133,Q,Q
2023-03-15 16:08:37:775,0,-10.0757,-3.17822,-27.489,Q,Q
2023-03-15 16:08:37:785,0,-10.0754,-3.18548,-27.4648,Q,Q
2023-03-15 16:08:37:794,0,-10.0721,-3.19512,-27.4392,Q,Q
2023-03-15 16:08:37:804,0,-10.0725,-3.20785,-27.4139,Q,Q
2023-03-15 16:08:37:815,0,-10.0669,-3.21728,-27.3896,Q,Q
2023-03-15 16:08:37:825,0,-10.0619,-3.23084,-27.3681,Q,Q
2023-03-15 16:08:37:835,0,-10.0569,-3.24066,-27.3519,Q,Q
2023-03-15 16:08:37:845,0,-10.0572,-3.2503,-27.3341,Q,Q
2023-03-15 16:08:37:855,0,-10.0547,-3.26312,-27.3257,Q,Q
2023-03-15 16:08:37:865,0,-10.0561,-3.2744,-27.3205,Q,Q
2023-03-15 16:08:37:875,0,-10.056,-3.28791,-27.3194,Q,Q
2023-03-15 16:08:37:885,0,-10.0516,-3.30464,-27.3195,Q,Q
2023-03-15 16:08:37:895,0,-10.0455,-3.31731,-27.3224,Q,Q
2023-03-15 16:08:37:905,0,-10.0355,-3.32659,-27.332,Q,Q
2023-03-15 16:08:37:915,0,-10.0144,-3.32569,-27.3462,Q,Q
2023-03-15 16:08:37:925,0,-9.98235,-3.32793,-27.3607,Q,Q
2023-03-15 16:08:37:935,0,-9.94945,-3.33874,-27.3742,Q,Q
2023-03-15 16:08:37:945,0,-9.91986,-3.3529,-27.3903,Q,Q
2023-03-15 16:08:37:955,0,-9.88967,-3.36778,-27.4107,Q,Q
2023-03-15 16:08:37:965,0,-9.86006,-3.38267,-27.4244,Q,Q
2023-03-15 16:08:37:975,0,-9.82903,-3.39638,-27.4373,Q,Q
2023-03-15 16:08:37:985,0,-9.8033,-3.41294,-27.4481,Q,Q
2023-03-15 16:08:37:995,0,-9.78072,-3.42728,-27.4572,Q,Q
2023-03-15 16:08:38:5,0,-9.7616,-3.43784,-27.4568,Q,Q
2023-03-15 16:08:38:15,0,-9.74817,-3.45217,-27.4559,Q,Q
2023-03-15 16:08:38:25,0,-9.73759,-3.4687,-27.4519,Q,Q
2023-03-15 16:08:38:35,0,-9.72219,-3.48688,-27.4458,Q,Q
2023-03-15 16:08:38:45,0,-9.70357,-3.50716,-27.4395,Q,Q
2023-03-15 16:08:38:55,0,-9.68349,-3.52928,-27.4308,Q,Q
2023-03-15 16:08:38:65,0,-9.66221,-3.55045,-27.42,Q,Q
2023-03-15 16:08:38:75,0,-9.6448,-3.57392,-27.4074,Q,Q
2023-03-15 16:08:38:85,0,-9.62902,-3.59845,-27.3948,Q,Q
2023-03-15 16:08:38:95,0,-9.6098,-3.61833,-27.3778,Q,Q
2023-03-15 16:08:38:105,0,-9.59608,-3.64097,-27.3611,Q,Q
2023-03-15 16:08:38:115,0,-9.57775,-3.66326,-27.3473,Q,Q
2023-03-15 16:08:38:125,0,-9.5615,-3.68675,-27.3323,Q,Q
2023-03-15 16:08:38:135,0,-9.54297,-3.71046,-27.3177,Q,Q
2023-03-15 16:08:38:145,0,-9.52627,-3.72942,-27.3092,Q,Q
2023-03-15 16:08:38:155,0,-9.50919,-3.74572,-27.306,Q,Q
2023-03-15 16:08:38:165,0,-9.49171,-3.76159,-27.3051,Q,Q
2023-03-15 16:08:38:175,0,-9.46822,-3.77815,-27.306,Q,Q
2023-03-15 16:08:38:185,0,-9.44579,-3.79246,-27.3074,Q,Q
2023-03-15 16:08:38:195,0,-9.42649,-3.80271,-27.312,Q,Q
2023-03-15 16:08:38:205,0,-9.40575,-3.80921,-27.3217,Q,Q
2023-03-15 16:08:38:215,0,-9.38275,-3.8121,-27.3299,Q,Q
2023-03-15 16:08:38:225,0,-9.36659,-3.81984,-27.3323,Q,Q
2023-03-15 16:08:38:235,0,-9.36268,-3.82383,-27.3399,Q,Q
2023-03-15 16:08:38:245,0,-9.35806,-3.82557,-27.352,Q,Q
2023-03-15 16:08:38:255,0,-9.35065,-3.82817,-27.3643,Q,Q
2023-03-15 16:08:38:265,0,-9.33956,-3.83238,-27.377,Q,Q
2023-03-15 16:08:38:275,0,-9.32612,-3.8306,-27.3924,Q,Q
2023-03-15 16:08:38:285,0,-9.31517,-3.83076,-27.4064,Q,Q
2023-03-15 16:08:38:295,0,-9.30203,-3.82836,-27.4277,Q,Q
2023-03-15 16:08:38:305,0,-9.28772,-3.82907,-27.4508,Q,Q
2023-03-15 16:08:38:315,0,-9.27632,-3.83057,-27.4697,Q,Q
2023-03-15 16:08:38:325,0,-9.25946,-3.83106,-27.4879,Q,Q
2023-03-15 16:08:38:335,0,-9.24143,-3.83376,-27.5068,Q,Q
2023-03-15 16:08:38:345,0,-9.22713,-3.83481,-27.5185,Q,Q
2023-03-15 16:08:38:355,0,-9.20808,-3.82712,-27.5278,Q,Q
2023-03-15 16:08:38:365,0,-9.19752,-3.81891,-27.5323,Q,Q
2023-03-15 16:08:38:375,0,-9.19308,-3.80559,-27.5365,Q,Q
2023-03-15 16:08:38:385,0,-9.1885,-3.79293,-27.5395,Q,Q
2023-03-15 16:08:38:395,0,-9.17916,-3.77672,-27.5505,Q,Q
2023-03-15 16:08:38:405,0,-9.15978,-3.76197,-27.5649,Q,Q
2023-03-15 16:08:38:415,0,-9.13507,-3.74879,-27.5837,Q,Q
2023-03-15 16:08:38:425,0,-9.11977,-3.73536,-27.6095,Q,Q
2023-03-15 16:08:38:435,0,-9.11747,-3.72057,-27.6353,Q,Q
2023-03-15 16:08:38:445,0,-9.11633,-3.7111,-27.6587,Q,Q
2023-03-15 16:08:38:455,0,-9.099,-3.70693,-27.6824,Q,Q
2023-03-15 16:08:38:465,0,-9.07234,-3.6978,-27.7074,Q,Q
2023-03-15 16:08:38:475,0,-9.03712,-3.68698,-27.7267,Q,Q
2023-03-15 16:08:38:485,0,-8.99984,-3.67509,-27.7415,Q,Q
2023-03-15 16:08:38:495,0,-8.95934,-3.67086,-27.7563,Q,Q
2023-03-15 16:08:38:505,0,-8.92221,-3.66088,-27.7665,Q,Q
2023-03-15 16:08:38:515,0,-8.8929,-3.65138,-27.774,Q,Q
2023-03-15 16:08:38:525,0,-8.88628,-3.64526,-27.7778,Q,Q
2023-03-15 16:08:38:535,0,-8.89945,-3.64214,-27.7829,Q,Q
2023-03-15 16:08:38:545,0,-8.93498,-3.64393,-27.7879,Q,Q
2023-03-15 16:08:38:555,0,-8.96005,-3.64283,-27.7998,Q,Q
2023-03-15 16:08:38:565,0,-8.96209,-3.64267,-27.8158,Q,Q
2023-03-15 16:08:38:575,0,-8.94746,-3.64188,-27.8294,Q,Q
2023-03-15 16:08:38:585,0,-8.93698,-3.63686,-27.8307,Q,Q
2023-03-15 16:08:38:595,0,-8.94259,-3.63451,-27.8276,Q,Q
2023-03-15 16:08:38:605,0,-8.95793,-3.62765,-27.828,Q,Q
2023-03-15 16:08:38:615,0,-8.97548,-3.62425,-27.8221,Q,Q
2023-03-15 16:08:38:625,0,-8.99129,-3.61448,-27.8097,Q,Q
2023-03-15 16:08:38:635,0,-9.00672,-3.60738,-27.8002,Q,Q
2023-03-15 16:08:38:645,0,-9.02251,-3.60094,-27.788,Q,Q
2023-03-15 16:08:38:655,0,-9.03859,-3.59596,-27.7742,Q,Q
2023-03-15 16:08:38:665,0,-9.05473,-3.59449,-27.7623,Q,Q
2023-03-15 16:08:38:675,0,-9.06596,-3.59176,-27.754,Q,Q
2023-03-15 16:08:38:685,0,-9.07522,-3.58793,-27.7449,Q,Q
2023-03-15 16:08:38:695,0,-9.07739,-3.59306,-27.7416,Q,Q
2023-03-15 16:08:38:705,0,-9.07609,-3.58988,-27.743,Q,Q
2023-03-15 16:08:38:715,0,-9.07486,-3.5851,-27.7464,Q,Q
2023-03-15 16:08:38:725,0,-9.07815,-3.58194,-27.7505,Q,Q
2023-03-15 16:08:38:735,0,-9.07994,-3.58281,-27.7585,Q,Q
2023-03-15 16:08:38:745,0,-9.07983,-3.58229,-27.7679,Q,Q
2023-03-15 16:08:38:755,0,-9.07648,-3.58525,-27.7771,Q,Q
2023-03-15 16:08:38:765,0,-9.07449,-3.58567,-27.7852,Q,Q
2023-03-15 16:08:38:775,0,-9.07066,-3.58371,-27.7936,Q,Q
2023-03-15 16:08:38:785,0,-9.06231,-3.58199,-27.7987,Q,Q
2023-03-15 16:08:38:795,0,-9.05601,-3.5836,-27.8072,Q,Q
2023-03-15 16:08:38:805,0,-9.0559,-3.58197,-27.8117,Q,Q
2023-03-15 16:08:38:814,0,-9.05988,-3.58071,-27.8144,Q,Q
2023-03-15 16:08:38:825,0,-9.06292,-3.57823,-27.8159,Q,Q
2023-03-15 16:08:38:835,0,-9.06298,-3.57935,-27.8151,Q,Q
2023-03-15 16:08:38:845,0,-9.06502,-3.58229,-27.8153,Q,Q
2023-03-15 16:08:38:855,0,-9.06589,-3.58941,-27.8133,Q,Q
2023-03-15 16:08:38:865,0,-9.0666,-3.59675,-27.818,Q,Q
2023-03-15 16:08:38:875,0,-9.06153,-3.60407,-27.8221,Q,Q
2023-03-15 16:08:38:885,0,-9.06404,-3.6076,-27.8236,Q,Q
2023-03-15 16:08:38:895,0,-9.06732,-3.61517,-27.8255,Q,Q
2023-03-15 16:08:38:905,0,-9.07023,-3.62232,-27.8284,Q,Q
2023-03-15 16:08:38:915,0,-9.07228,-3.63019,-27.8311,Q,Q
2023-03-15 16:08:38:925,0,-9.07496,-3.638,-27.8343,Q,Q
2023-03-15 16:08:38:935,0,-9.0813,-3.64943,-27.8321,Q,Q
2023-03-15 16:08:38:945,0,-9.09661,-3.66587,-27.825,Q,Q
2023-03-15 16:08:38:955,0,-9.11776,-3.67714,-27.8193,Q,Q
2023-03-15 16:08:38:965,0,-9.12929,-3.68323,-27.822,Q,Q
2023-03-15 16:08:38:975,0,-9.13778,-3.6902,-27.8228,Q,Q
2023-03-15 16:08:38:985,0,-9.1484,-3.69509,-27.8203,Q,Q
2023-03-15 16:08:38:995,0,-9.15532,-3.69967,-27.8236,Q,Q
2023-03-15 16:08:39:5,0,-9.16924,-3.70422,-27.8241,Q,Q
2023-03-15 16:08:39:15,0,-9.18115,-3.7088,-27.8255,Q,Q
2023-03-15 16:08:39:25,0,-9.19653,-3.71632,-27.8261,Q,Q
2023-03-15 16:08:39:35,0,-9.21336,-3.72321,-27.8322,Q,Q
2023-03-15 16:08:39:45,0,-9.22965,-3.72559,-27.8409,Q,Q
2023-03-15 16:08:39:55,0,-9.24062,-3.72728,-27.85,Q,Q
2023-03-15 16:08:39:65,0,-9.25503,-3.72553,-27.8615,Q,Q
2023-03-15 16:08:39:75,0,-9.27229,-3.72925,-27.871,Q,Q
2023-03-15 16:08:39:85,0,-9.29503,-3.72779,-27.8813,Q,Q
2023-03-15 16:08:39:95,0,-9.31788,-3.7305,-27.8939,Q,Q
2023-03-15 16:08:39:105,0,-9.33441,-3.72723,-27.9076,Q,Q
2023-03-15 16:08:39:115,0,-9.35713,-3.72553,-27.9197,Q,Q
2023-03-15 16:08:39:125,0,-9.38057,-3.72763,-27.9302,Q,Q
2023-03-15 16:08:39:135,0,-9.40422,-3.725,-27.9433,Q,Q
2023-03-15 16:08:39:145,0,-9.42557,-3.71861,-27.95,Q,Q
2023-03-15 16:08:39:155,0,-9.44631,-3.71103,-27.957,Q,Q
2023-03-15 16:08:39:165,0,-9.46458,-3.70289,-27.9624,Q,Q
2023-03-15 16:08:39:175,0,-9.48254,-3.69374,-27.9665,Q,Q
2023-03-15 16:08:39:185,0,-9.50067,-3.68282,-27.9739,Q,Q
2023-03-15 16:08:39:195,0,-9.51805,-3.67414,-27.9803,Q,Q
2023-03-15 16:08:39:205,0,-9.53065,-3.66665,-27.9863,Q,Q
2023-03-15 16:08:39:215,0,-9.5463,-3.65871,-27.9984,Q,Q
2023-03-15 16:08:39:225,0,-9.56421,-3.64845,-28.0114,Q,Q
2023-03-15 16:08:39:235,0,-9.57613,-3.6381,-28.0246,Q,Q
2023-03-15 16:08:39:245,0,-9.58816,-3.62983,-28.0374,Q,Q
2023-03-15 16:08:39:255,0,-9.59859,-3.62216,-28.0479,Q,Q
2023-03-15 16:08:39:265,0,-9.61372,-3.6114,-28.0601,Q,Q
2023-03-15 16:08:39:275,0,-9.62775,-3.60017,-28.0689,Q,Q
2023-03-15 16:08:39:285,0,-9.64272,-3.58728,-28.0791,Q,Q
2023-03-15 16:08:39:295,0,-9.65424,-3.57919,-28.087,Q,Q
2023-03-15 16:08:39:305,0,-9.6704,-3.57654,-28.0905,Q,Q
2023-03-15 16:08:39:314,0,-9.68988,-3.5767,-28.0922,Q,Q
2023-03-15 16:08:39:325,0,-9.70776,-3.57308,-28.0958,Q,Q
2023-03-15 16:08:39:335,0,-9.72375,-3.56713,-28.0967,Q,Q
2023-03-15 16:08:39:345,0,-9.74594,-3.56245,-28.0982,Q,Q
2023-03-15 16:08:39:355,0,-9.76993,-3.55519,-28.0978,Q,Q
2023-03-15 16:08:39:365,0,-9.7996,-3.55061,-28.0951,Q,Q
2023-03-15 16:08:39:375,0,-9.82304,-3.54615,-28.0927,Q,Q
2023-03-15 16:08:39:385,0,-9.84511,-3.54343,-28.092,Q,Q
2023-03-15 16:08:39:395,0,-9.86772,-3.54889,-28.0943,Q,Q
2023-03-15 16:08:39:405,0,-9.88596,-3.55206,-28.0989,Q,Q
2023-03-15 16:08:39:415,0,-9.89825,-3.55316,-28.1041,Q,Q
2023-03-15 16:08:39:425,0,-9.90955,-3.54673,-28.1109,Q,Q
2023-03-15 16:08:39:435,0,-9.92393,-3.54201,-28.1199,Q,Q
2023-03-15 16:08:39:445,0,-9.93379,-3.53724,-28.1283,Q,Q
2023-03-15 16:08:39:455,0,-9.93824,-3.53207,-28.1388,Q,Q
2023-03-15 16:08:39:465,0,-9.94363,-3.52788,-28.1478,Q,Q
2023-03-15 16:08:39:475,0,-9.95043,-3.52356,-28.1586,Q,Q
2023-03-15 16:08:39:485,0,-9.96329,-3.52245,-28.1662,Q,Q
2023-03-15 16:08:39:495,0,-9.97627,-3.52427,-28.1749,Q,Q
2023-03-15 16:08:39:505,0,-9.98902,-3.52422,-28.1795,Q,Q
2023-03-15 16:08:39:515,0,-9.99541,-3.51837,-28.1885,Q,Q
2023-03-15 16:08:39:525,0,-9.99808,-3.5116,-28.1956,Q,Q
2023-03-15 16:08:39:535,0,-9.9985,-3.50648,-28.2043,Q,Q
2023-03-15 16:08:39:545,0,-9.99829,-3.50073,-28.2114,Q,Q
2023-03-15 16:08:39:555,0,-9.99241,-3.49963,-28.2157,Q,Q
2023-03-15 16:08:39:565,0,-9.98558,-3.5022,-28.219,Q,Q
2023-03-15 16:08:39:575,0,-9.97532,-3.50073,-28.2232,Q,Q
2023-03-15 16:08:39:585,0,-9.96602,-3.50295,-28.2259,Q,Q
2023-03-15 16:08:39:595,0,-9.95388,-3.50518,-28.2298,Q,Q
2023-03-15 16:08:39:605,0,-9.94417,-3.50871,-28.2269,Q,Q
2023-03-15 16:08:39:615,0,-9.9393,-3.5087,-28.2226,Q,Q
2023-03-15 16:08:39:625,0,-9.93791,-3.51174,-28.22,Q,Q
2023-03-15 16:08:39:635,0,-9.93254,-3.51686,-28.2154,Q,Q
2023-03-15 16:08:39:645,0,-9.92803,-3.51968,-28.2062,Q,Q
2023-03-15 16:08:39:655,0,-9.92343,-3.52672,-28.1962,Q,Q
2023-03-15 16:08:39:665,0,-9.92257,-3.53273,-28.187,Q,Q
2023-03-15 16:08:39:675,0,-9.9216,-3.54293,-28.1777,Q,Q
2023-03-15 16:08:39:685,0,-9.91815,-3.55179,-28.1683,Q,Q
2023-03-15 16:08:39:695,0,-9.91055,-3.56585,-28.1606,Q,Q
2023-03-15 16:08:39:705,0,-9.90949,-3.57979,-28.1484,Q,Q
2023-03-15 16:08:39:715,0,-9.90985,-3.59473,-28.1415,Q,Q
2023-03-15 16:08:39:725,0,-9.90562,-3.60695,-28.1365,Q,Q
2023-03-15 16:08:39:735,0,-9.9003,-3.62077,-28.1328,Q,Q
2023-03-15 16:08:39:745,0,-9.8972,-3.63762,-28.1251,Q,Q
2023-03-15 16:08:39:755,0,-9.89781,-3.65274,-28.1168,Q,Q
2023-03-15 16:08:39:765,0,-9.89969,-3.67403,-28.1096,Q,Q
2023-03-15 16:08:39:775,0,-9.90428,-3.69089,-28.1051,Q,Q
2023-03-15 16:08:39:785,0,-9.90415,-3.70072,-28.1016,Q,Q
2023-03-15 16:08:39:795,0,-9.90344,-3.71592,-28.1008,Q,Q
2023-03-15 16:08:39:805,0,-9.90119,-3.72655,-28.0987,Q,Q
2023-03-15 16:08:39:815,0,-9.89724,-3.73442,-28.0967,Q,Q
2023-03-15 16:08:39:825,0,-9.89342,-3.74375,-28.0948,Q,Q
2023-03-15 16:08:39:834,0,-9.88947,-3.7531,-28.0986,Q,Q
2023-03-15 16:08:39:845,0,-9.88663,-3.75786,-28.1032,Q,Q
2023-03-15 16:08:39:855,0,-9.87897,-3.76298,-28.1078,Q,Q
2023-03-15 16:08:39:865,0,-9.87037,-3.7672,-28.1086,Q,Q
2023-03-15 16:08:39:875,0,-9.86681,-3.76904,-28.1138,Q,Q
2023-03-15 16:08:39:885,0,-9.86411,-3.77064,-28.1204,Q,Q
2023-03-15 16:08:39:895,0,-9.85961,-3.77511,-28.1235,Q,Q
2023-03-15 16:08:39:905,0,-9.85433,-3.77893,-28.1281,Q,Q
2023-03-15 16:08:39:915,0,-9.8541,-3.78689,-28.1292,Q,Q
2023-03-15 16:08:39:925,0,-9.8562,-3.7952,-28.1273,Q,Q
2023-03-15 16:08:39:935,0,-9.85671,-3.80234,-28.129,Q,Q
2023-03-15 16:08:39:945,0,-9.85309,-3.80881,-28.1262,Q,Q
2023-03-15 16:08:39:955,0,-9.84799,-3.81795,-28.1239,Q,Q
2023-03-15 16:08:39:965,0,-9.84281,-3.82152,-28.1191,Q,Q
2023-03-15 16:08:39:975,0,-9.84025,-3.83157,-28.1132,Q,Q
2023-03-15 16:08:39:985,0,-9.83429,-3.8387,-28.1108,Q,Q
2023-03-15 16:08:39:995,0,-9.82911,-3.84583,-28.1077,Q,Q
2023-03-15 16:08:40:5,0,-9.82438,-3.85165,-28.109,Q,Q
2023-03-15 16:08:40:15,0,-9.81984,-3.8594,-28.108,Q,Q
2023-03-15 16:08:40:25,0,-9.81712,-3.86578,-28.1105,Q,Q
2023-03-15 16:08:40:35,0,-9.81554,-3.87348,-28.1146,Q,Q
2023-03-15 16:08:40:45,0,-9.81277,-3.87637,-28.1218,Q,Q
2023-03-15 16:08:40:55,0,-9.80875,-3.87648,-28.1284,Q,Q
2023-03-15 16:08:40:65,0,-9.8088,-3.88139,-28.1302,Q,Q
2023-03-15 16:08:40:75,0,-9.80791,-3.88848,-28.1354,Q,Q
2023-03-15 16:08:40:85,0,-9.80991,-3.89169,-28.1391,Q,Q
2023-03-15 16:08:40:95,0,-9.81077,-3.89299,-28.1437,Q,Q
2023-03-15 16:08:40:105,0,-9.81048,-3.89756,-28.152,Q,Q
2023-03-15 16:08:40:115,0,-9.81445,-3.90074,-28.1584,Q,Q
2023-03-15 16:08:40:125,0,-9.82534,-3.90403,-28.1615,Q,Q
2023-03-15 16:08:40:135,0,-9.83786,-3.91076,-28.1702,Q,Q
2023-03-15 16:08:40:145,0,-9.84328,-3.91423,-28.181,Q,Q
2023-03-15 16:08:40:155,0,-9.85122,-3.91,-28.192,Q,Q
2023-03-15 16:08:40:165,0,-9.86292,-3.90462,-28.2034,Q,Q
2023-03-15 16:08:40:175,0,-9.88134,-3.89597,-28.2181,Q,Q
2023-03-15 16:08:40:185,0,-9.89738,-3.88983,-28.232,Q,Q
2023-03-15 16:08:40:195,0,-9.91285,-3.87934,-28.2421,Q,Q
2023-03-15 16:08:40:205,0,-9.92121,-3.87381,-28.2602,Q,Q
2023-03-15 16:08:40:215,0,-9.91743,-3.86756,-28.2835,Q,Q
2023-03-15 16:08:40:225,0,-9.91119,-3.86276,-28.3011,Q,Q
2023-03-15 16:08:40:235,0,-9.90502,-3.85653,-28.3197,Q,Q
2023-03-15 16:08:40:245,0,-9.91314,-3.85165,-28.3373,Q,Q
2023-03-15 16:08:40:255,0,-9.92746,-3.84253,-28.3546,Q,Q
2023-03-15 16:08:40:265,0,-9.93756,-3.83545,-28.37,Q,Q
2023-03-15 16:08:40:275,0,-9.94193,-3.832,-28.3834,Q,Q
2023-03-15 16:08:40:285,0,-9.94703,-3.83212,-28.3916,Q,Q
2023-03-15 16:08:40:295,0,-9.94936,-3.82636,-28.401,Q,Q
2023-03-15 16:08:40:305,0,-9.94962,-3.81834,-28.4108,Q,Q
2023-03-15 16:08:40:315,0,-9.95056,-3.80994,-28.4153,Q,Q
2023-03-15 16:08:40:325,0,-9.94714,-3.80428,-28.4258,Q,Q
2023-03-15 16:08:40:335,0,-9.94313,-3.79448,-28.433,Q,Q
2023-03-15 16:08:40:345,0,-9.93962,-3.7899,-28.4389,Q,Q
2023-03-15 16:08:40:355,0,-9.93012,-3.79154,-28.4436,Q,Q
2023-03-15 16:08:40:365,0,-9.91007,-3.79303,-28.4467,Q,Q
2023-03-15 16:08:40:375,0,-9.88909,-3.7966,-28.4538,Q,Q
2023-03-15 16:08:40:385,0,-9.87365,-3.8042,-28.4606,Q,Q
2023-03-15 16:08:40:395,0,-9.85621,-3.80679,-28.4667,Q,Q
2023-03-15 16:08:40:405,0,-9.83976,-3.80924,-28.472,Q,Q
2023-03-15 16:08:40:415,0,-9.82155,-3.80728,-28.4775,Q,Q
2023-03-15 16:08:40:425,0,-9.80395,-3.80791,-28.4828,Q,Q
2023-03-15 16:08:40:435,0,-9.78968,-3.81343,-28.4839,Q,Q
2023-03-15 16:08:40:445,0,-9.77926,-3.82081,-28.487,Q,Q
2023-03-15 16:08:40:455,0,-9.76657,-3.82959,-28.4929,Q,Q
2023-03-15 16:08:40:465,0,-9.75732,-3.83521,-28.4976,Q,Q
2023-03-15 16:08:40:475,0,-9.75022,-3.84321,-28.4981,Q,Q
2023-03-15 16:08:40:485,0,-9.74105,-3.85242,-28.4987,Q,Q
2023-03-15 16:08:40:495,0,-9.73152,-3.85984,-28.5018,Q,Q
2023-03-15 16:08:40:505,0,-9.71906,-3.8672,-28.5018,Q,Q
2023-03-15 16:08:40:515,0,-9.70547,-3.87144,-28.5064,Q,Q
2023-03-15 16:08:40:525,0,-9.69035,-3.87767,-28.5078,Q,Q
2023-03-15 16:08:40:535,0,-9.67797,-3.88503,-28.5123,Q,Q
2023-03-15 16:08:40:544,0,-9.67189,-3.89616,-28.5181,Q,Q
2023-03-15 16:08:40:554,0,-9.66486,-3.90013,-28.5211,Q,Q
2023-03-15 16:08:40:564,0,-9.65541,-3.90602,-28.5284,Q,Q
2023-03-15 16:08:40:574,0,-9.64822,-3.9117,-28.5351,Q,Q
2023-03-15 16:08:40:585,0,-9.6453,-3.91821,-28.5395,Q,Q
2023-03-15 16:08:40:595,0,-9.64294,-3.92142,-28.5462,Q,Q
2023-03-15 16:08:40:605,0,-9.63779,-3.92474,-28.5529,Q,Q
2023-03-15 16:08:40:615,0,-9.63132,-3.92629,-28.5601,Q,Q
2023-03-15 16:08:40:625,0,-9.62401,-3.92707,-28.5663,Q,Q
2023-03-15 16:08:40:635,0,-9.6201,-3.92458,-28.5676,Q,Q
2023-03-15 16:08:40:645,0,-9.61665,-3.92946,-28.5709,Q,Q
2023-03-15 16:08:40:655,0,-9.61294,-3.93222,-28.5709,Q,Q
2023-03-15 16:08:40:665,0,-9.60848,-3.93271,-28.5733,Q,Q
2023-03-15 16:08:40:675,0,-9.60204,-3.93499,-28.5766,Q,Q
2023-03-15 16:08:40:685,0,-9.59943,-3.93738,-28.5781,Q,Q
2023-03-15 16:08:40:695,0,-9.59947,-3.943,-28.5777,Q,Q
2023-03-15 16:08:40:705,0,-9.59187,-3.94845,-28.5809,Q,Q
2023-03-15 16:08:40:715,0,-9.58165,-3.94945,-28.5838,Q,Q
2023-03-15 16:08:40:725,0,-9.57177,-3.95051,-28.5842,Q,Q
2023-03-15 16:08:40:735,0,-9.55905,-3.94911,-28.5862,Q,Q
2023-03-15 16:08:40:745,0,-9.54724,-3.95392,-28.5898,Q,Q
2023-03-15 16:08:40:755,0,-9.53995,-3.95758,-28.593,Q,Q
2023-03-15 16:08:40:765,0,-9.53481,-3.96079,-28.5962,Q,Q
2023-03-15 16:08:40:775,0,-9.53201,-3.95966,-28.5948,Q,Q
2023-03-15 16:08:40:785,0,-9.53126,-3.95989,-28.6008,Q,Q
2023-03-15 16:08:40:795,0,-9.5259,-3.95707,-28.6073,Q,Q
2023-03-15 16:08:40:805,0,-9.51937,-3.95406,-28.6139,Q,Q
2023-03-15 16:08:40:815,0,-9.5138,-3.94717,-28.6216,Q,Q
2023-03-15 16:08:40:825,0,-9.50594,-3.93821,-28.6324,Q,Q
2023-03-15 16:08:40:835,0,-9.49728,-3.92979,-28.6471,Q,Q
2023-03-15 16:08:40:845,0,-9.48622,-3.92443,-28.6606,Q,Q
2023-03-15 16:08:40:855,0,-9.48065,-3.91878,-28.6697,Q,Q
2023-03-15 16:08:40:865,0,-9.47519,-3.91196,-28.6799,Q,Q
2023-03-15 16:08:40:875,0,-9.47295,-3.90997,-28.689,Q,Q
2023-03-15 16:08:40:885,0,-9.47094,-3.90523,-28.6982,Q,Q
2023-03-15 16:08:40:895,0,-9.47089,-3.90004,-28.7032,Q,Q
2023-03-15 16:08:40:905,0,-9.4696,-3.89785,-28.7057,Q,Q
2023-03-15 16:08:40:915,0,-9.46935,-3.90135,-28.7078,Q,Q
2023-03-15 16:08:40:925,0,-9.47004,-3.90474,-28.7078,Q,Q
2023-03-15 16:08:40:935,0,-9.47283,-3.90814,-28.7069,Q,Q
2023-03-15 16:08:40:945,0,-9.48305,-3.90686,-28.7049,Q,Q
2023-03-15 16:08:40:955,0,-9.49793,-3.90521,-28.6988,Q,Q
2023-03-15 16:08:40:965,0,-9.51009,-3.90536,-28.6964,Q,Q
2023-03-15 16:08:40:975,0,-9.51762,-3.90654,-28.6922,Q,Q
2023-03-15 16:08:40:985,0,-9.52455,-3.90489,-28.693,Q,Q
2023-03-15 16:08:40:995,0,-9.5327,-3.90463,-28.6959,Q,Q
2023-03-15 16:08:41:5,0,-9.53755,-3.90251,-28.7004,Q,Q
2023-03-15 16:08:41:15,0,-9.5416,-3.90087,-28.7081,Q,Q
2023-03-15 16:08:41:25,0,-9.5388,-3.89993,-28.7214,Q,Q
2023-03-15 16:08:41:35,0,-9.53714,-3.89443,-28.735,Q,Q
2023-03-15 16:08:41:45,0,-9.53567,-3.89049,-28.7504,Q,Q
2023-03-15 16:08:41:55,0,-9.53312,-3.88771,-28.7633,Q,Q
2023-03-15 16:08:41:65,0,-9.53093,-3.88211,-28.776,Q,Q
2023-03-15 16:08:41:75,0,-9.53177,-3.87767,-28.7883,Q,Q
2023-03-15 16:08:41:85,0,-9.534,-3.87358,-28.799,Q,Q
2023-03-15 16:08:41:95,0,-9.5386,-3.86653,-28.806,Q,Q
2023-03-15 16:08:41:105,0,-9.54156,-3.86343,-28.8137,Q,Q
2023-03-15 16:08:41:115,0,-9.53904,-3.85856,-28.8202,Q,Q
2023-03-15 16:08:41:125,0,-9.53715,-3.85238,-28.8272,Q,Q
2023-03-15 16:08:41:135,0,-9.53279,-3.84518,-28.835,Q,Q
2023-03-15 16:08:41:145,0,-9.52794,-3.83566,-28.843,Q,Q
2023-03-15 16:08:41:155,0,-9.5221,-3.83565,-28.8489,Q,Q
2023-03-15 16:08:41:165,0,-9.50895,-3.83085,-28.8575,Q,Q
2023-03-15 16:08:41:175,0,-9.49237,-3.82228,-28.8615,Q,Q
2023-03-15 16:08:41:185,0,-9.47462,-3.8199,-28.8688,Q,Q
2023-03-15 16:08:41:195,0,-9.46175,-3.81889,-28.8725,Q,Q
2023-03-15 16:08:41:205,0,-9.45601,-3.82069,-28.8742,Q,Q
2023-03-15 16:08:41:215,0,-9.44963,-3.82134,-28.8728,Q,Q
2023-03-15 16:08:41:225,0,-9.44584,-3.82156,-28.8729,Q,Q
2023-03-15 16:08:41:235,0,-9.44566,-3.82342,-28.8712,Q,Q
2023-03-15 16:08:41:245,0,-9.44274,-3.8257,-28.8664,Q,Q
2023-03-15 16:08:41:255,0,-9.43907,-3.83154,-28.8617,Q,Q
2023-03-15 16:08:41:265,0,-9.43613,-3.83476,-28.8546,Q,Q
2023-03-15 16:08:41:275,0,-9.43601,-3.84043,-28.8495,Q,Q
2023-03-15 16:08:41:285,0,-9.43145,-3.84871,-28.8455,Q,Q
2023-03-15 16:08:41:295,0,-9.42712,-3.85775,-28.8381,Q,Q
2023-03-15 16:08:41:305,0,-9.42328,-3.86327,-28.8336,Q,Q
2023-03-15 16:08:41:315,0,-9.42216,-3.87347,-28.8321,Q,Q
2023-03-15 16:08:41:325,0,-9.42271,-3.87823,-28.8279,Q,Q
2023-03-15 16:08:41:335,0,-9.41776,-3.88462,-28.8259,Q,Q
2023-03-15 16:08:41:345,0,-9.41156,-3.88729,-28.8225,Q,Q
2023-03-15 16:08:41:355,0,-9.40962,-3.88808,-28.8218,Q,Q
2023-03-15 16:08:41:365,0,-9.41324,-3.89048,-28.8228,Q,Q
2023-03-15 16:08:41:375,0,-9.41473,-3.89167,-28.8234,Q,Q
2023-03-15 16:08:41:385,0,-9.41858,-3.89324,-28.8269,Q,Q
2023-03-15 16:08:41:395,0,-9.4197,-3.89243,-28.8346,Q,Q
2023-03-15 16:08:41:405,0,-9.41771,-3.89359,-28.8379,Q,Q
2023-03-15 16:08:41:415,0,-9.41458,-3.89015,-28.8424,Q,Q
2023-03-15 16:08:41:425,0,-9.40145,-3.88522,-28.8543,Q,Q
2023-03-15 16:08:41:435,0,-9.3804,-3.88104,-28.8678,Q,Q
2023-03-15 16:08:41:445,0,-9.36404,-3.87586,-28.8749,Q,Q
2023-03-15 16:08:41:455,0,-9.35315,-3.8702,-28.8814,Q,Q
2023-03-15 16:08:41:465,0,-9.3419,-3.85993,-28.8903,Q,Q
2023-03-15 16:08:41:475,0,-9.32356,-3.85491,-28.8995,Q,Q
2023-03-15 16:08:41:485,0,-9.30548,-3.84855,-28.904,Q,Q
2023-03-15 16:08:41:495,0,-9.29291,-3.84866,-28.9065,Q,Q
2023-03-15 16:08:41:505,0,-9.28142,-3.8449,-28.9101,Q,Q
2023-03-15 16:08:41:515,0,-9.26608,-3.84133,-28.9126,Q,Q
2023-03-15 16:08:41:525,0,-9.24907,-3.84234,-28.9121,Q,Q
2023-03-15 16:08:41:535,0,-9.23735,-3.84336,-28.9111,Q,Q
2023-03-15 16:08:41:545,0,-9.2262,-3.83863,-28.9075,Q,Q
2023-03-15 16:08:41:555,0,-9.21201,-3.83737,-28.9021,Q,Q
2023-03-15 16:08:41:565,0,-9.20522,-3.84098,-28.8928,Q,Q
2023-03-15 16:08:41:575,0,-9.20294,-3.84334,-28.8774,Q,Q
2023-03-15 16:08:41:585,0,-9.20501,-3.8403,-28.8639,Q,Q
2023-03-15 16:08:41:595,0,-9.20818,-3.84131,-28.8463,Q,Q
2023-03-15 16:08:41:605,0,-9.20979,-3.84525,-28.8286,Q,Q
2023-03-15 16:08:41:615,0,-9.21038,-3.84663,-28.8133,Q,Q
2023-03-15 16:08:41:625,0,-9.21235,-3.85185,-28.8045,Q,Q
2023-03-15 16:08:41:635,0,-9.21087,-3.85711,-28.7947,Q,Q
2023-03-15 16:08:41:645,0,-9.20641,-3.86433,-28.7915,Q,Q
2023-03-15 16:08:41:655,0,-9.18929,-3.87557,-28.7922,Q,Q
2023-03-15 16:08:41:665,0,-9.17586,-3.88478,-28.7962,Q,Q
2023-03-15 16:08:41:675,0,-9.15906,-3.89555,-28.8014,Q,Q
2023-03-15 16:08:41:685,0,-9.14694,-3.90372,-28.8095,Q,Q
2023-03-15 16:08:41:695,0,-9.13627,-3.91421,-28.8136,Q,Q
2023-03-15 16:08:41:705,0,-9.12603,-3.92128,-28.8162,Q,Q
2023-03-15 16:08:41:715,0,-9.11902,-3.93193,-28.8158,Q,Q
2023-03-15 16:08:41:725,0,-9.11154,-3.94494,-28.8129,Q,Q
2023-03-15 16:08:41:735,0,-9.10175,-3.95762,-28.8068,Q,Q
2023-03-15 16:08:41:745,0,-9.09294,-3.97607,-28.8017,Q,Q
2023-03-15 16:08:41:755,0,-9.08723,-3.99167,-28.7936,Q,Q
2023-03-15 16:08:41:765,0,-9.08022,-4.0066,-28.789,Q,Q
2023-03-15 16:08:41:775,0,-9.07149,-4.01871,-28.7848,Q,Q
2023-03-15 16:08:41:785,0,-9.06232,-4.02738,-28.7782,Q,Q
2023-03-15 16:08:41:795,0,-9.05368,-4.04191,-28.7729,Q,Q
2023-03-15 16:08:41:805,0,-9.04941,-4.05233,-28.7669,Q,Q
2023-03-15 16:08:41:815,0,-9.04353,-4.05734,-28.7576,Q,Q
2023-03-15 16:08:41:825,0,-9.03978,-4.05816,-28.7503,Q,Q
2023-03-15 16:08:41:835,0,-9.04051,-4.05606,-28.7386,Q,Q
2023-03-15 16:08:41:845,0,-9.04566,-4.05471,-28.7264,Q,Q
2023-03-15 16:08:41:855,0,-9.05624,-4.0495,-28.7175,Q,Q
2023-03-15 16:08:41:865,0,-9.06547,-4.05684,-28.7043,Q,Q
2023-03-15 16:08:41:874,0,-9.09052,-4.06595,-28.6936,Q,Q
2023-03-15 16:08:41:885,0,-9.11696,-4.06632,-28.6856,Q,Q
2023-03-15 16:08:41:895,0,-9.12817,-4.06837,-28.6883,Q,Q
2023-03-15 16:08:41:905,0,-9.1367,-4.07711,-28.6891,Q,Q
2023-03-15 16:08:41:915,0,-9.14585,-4.08302,-28.6884,Q,Q
2023-03-15 16:08:41:925,0,-9.15605,-4.08881,-28.6903,Q,Q
2023-03-15 16:08:41:935,0,-9.17071,-4.09747,-28.6948,Q,Q
2023-03-15 16:08:41:945,0,-9.176,-4.10536,-28.7049,Q,Q
2023-03-15 16:08:41:955,0,-9.17786,-4.11063,-28.7192,Q,Q
2023-03-15 16:08:41:965,0,-9.17731,-4.1181,-28.7383,Q,Q
2023-03-15 16:08:41:975,0,-9.17318,-4.12528,-28.758,Q,Q
2023-03-15 16:08:41:985,0,-9.16187,-4.13495,-28.7875,Q,Q
2023-03-15 16:08:41:995,0,-9.14621,-4.14135,-28.8224,Q,Q
2023-03-15 16:08:42:5,0,-9.1316,-4.15043,-28.8583,Q,Q
2023-03-15 16:08:42:15,0,-9.11732,-4.15807,-28.8966,Q,Q
2023-03-15 16:08:42:25,0,-9.10204,-4.16533,-28.931,Q,Q
2023-03-15 16:08:42:35,0,-9.091,-4.1684,-28.9637,Q,Q
2023-03-15 16:08:42:45,0,-9.08227,-4.16979,-28.9914,Q,Q
2023-03-15 16:08:42:55,0,-9.07959,-4.16634,-29.0165,Q,Q
2023-03-15 16:08:42:65,0,-9.07661,-4.1581,-29.0356,Q,Q
2023-03-15 16:08:42:75,0,-9.07438,-4.14463,-29.0525,Q,Q
2023-03-15 16:08:42:85,0,-9.06854,-4.12821,-29.067,Q,Q
2023-03-15 16:08:42:95,0,-9.05955,-4.11406,-29.0796,Q,Q
2023-03-15 16:08:42:105,0,-9.05049,-4.09459,-29.0926,Q,Q
2023-03-15 16:08:42:115,0,-9.04128,-4.07274,-29.1077,Q,Q
2023-03-15 16:08:42:125,0,-9.03565,-4.05283,-29.1242,Q,Q
2023-03-15 16:08:42:135,0,-9.03368,-4.03404,-29.1443,Q,Q
2023-03-15 16:08:42:145,0,-9.02784,-4.0169,-29.1652,Q,Q
2023-03-15 16:08:42:155,0,-9.02483,-4.00556,-29.1866,Q,Q
2023-03-15 16:08:42:165,0,-9.02443,-3.99536,-29.2093,Q,Q
2023-03-15 16:08:42:175,0,-9.02758,-3.98056,-29.233,Q,Q
2023-03-15 16:08:42:185,0,-9.03279,-3.97062,-29.2496,Q,Q
2023-03-15 16:08:42:195,0,-9.04449,-3.96375,-29.2636,Q,Q
2023-03-15 16:08:42:205,0,-9.05046,-3.95652,-29.2785,Q,Q
2023-03-15 16:08:42:215,0,-9.05331,-3.94995,-29.2932,Q,Q
2023-03-15 16:08:42:225,0,-9.05272,-3.94428,-29.3097,Q,Q
2023-03-15 16:08:42:235,0,-9.05258,-3.93665,-29.3317,Q,Q
2023-03-15 16:08:42:245,0,-9.06732,-3.92557,-29.3535,Q,Q
2023-03-15 16:08:42:255,0,-9.09187,-3.90978,-29.3806,Q,Q
2023-03-15 16:08:42:265,0,-9.12635,-3.88978,-29.4135,Q,Q
2023-03-15 16:08:42:275,0,-9.17409,-3.86152,-29.4422,Q,Q
2023-03-15 16:08:42:285,0,-9.24473,-3.82875,-29.4599,Q,Q
2023-03-15 16:08:42:295,0,-9.32141,-3.80217,-29.4761,Q,Q
2023-03-15 16:08:42:305,0,-9.39768,-3.79001,-29.487,Q,Q
2023-03-15 16:08:42:315,0,-9.51008,-3.77424,-29.4902,Q,Q
2023-03-15 16:08:42:325,0,-9.62596,-3.75638,-29.4951,Q,Q
2023-03-15 16:08:42:335,0,-9.72038,-3.73813,-29.4998,Q,Q
2023-03-15 16:08:42:345,0,-9.78128,-3.72717,-29.4993,Q,Q
2023-03-15 16:08:42:355,0,-9.81362,-3.71618,-29.4981,Q,Q
2023-03-15 16:08:42:365,0,-9.83917,-3.71886,-29.4951,Q,Q
2023-03-15 16:08:42:375,0,-9.86968,-3.73234,-29.4923,Q,Q
2023-03-15 16:08:42:384,0,-9.89669,-3.75459,-29.4986,Q,Q
2023-03-15 16:08:42:394,0,-9.90341,-3.77131,-29.5104,Q,Q
2023-03-15 16:08:42:405,0,-9.88474,-3.7926,-29.5195,Q,Q
2023-03-15 16:08:42:415,0,-9.85351,-3.81976,-29.5316,Q,Q
2023-03-15 16:08:42:425,0,-9.81033,-3.83612,-29.5426,Q,Q
2023-03-15 16:08:42:435,0,-9.76518,-3.83677,-29.5496,Q,Q
2023-03-15 16:08:42:445,0,-9.73316,-3.84333,-29.5501,Q,Q
2023-03-15 16:08:42:455,0,-9.72129,-3.85814,-29.5452,Q,Q
2023-03-15 16:08:42:465,0,-9.71914,-3.87056,-29.545,Q,Q
2023-03-15 16:08:42:475,0,-9.71848,-3.88229,-29.5522,Q,Q
2023-03-15 16:08:42:485,0,-9.70943,-3.89497,-29.5683,Q,Q
2023-03-15 16:08:42:495,0,-9.69713,-3.90433,-29.5892,Q,Q
2023-03-15 16:08:42:505,0,-9.68543,-3.9098,-29.6169,Q,Q
2023-03-15 16:08:42:515,0,-9.65935,-3.91561,-29.6508,Q,Q
2023-03-15 16:08:42:525,0,-9.61993,-3.92106,-29.6809,Q,Q
2023-03-15 16:08:42:535,0,-9.57478,-3.92718,-29.7189,Q,Q
2023-03-15 16:08:42:545,0,-9.53202,-3.92342,-29.7624,Q,Q
2023-03-15 16:08:42:555,0,-9.49488,-3.9188,-29.815,Q,Q
2023-03-15 16:08:42:565,0,-9.47389,-3.91015,-29.8632,Q,Q
2023-03-15 16:08:42:575,0,-9.47464,-3.90051,-29.9085,Q,Q
2023-03-15 16:08:42:585,0,-9.50283,-3.88841,-29.9418,Q,Q
2023-03-15 16:08:42:595,0,-9.55935,-3.8756,-29.9682,Q,Q
2023-03-15 16:08:42:605,0,-9.63441,-3.86835,-29.9866,Q,Q
2023-03-15 16:08:42:615,0,-9.74384,-3.86381,-29.9977,Q,Q
2023-03-15 16:08:42:625,0,-9.85062,-3.85431,-30.0118,Q,Q
2023-03-15 16:08:42:635,0,-9.92501,-3.84425,-30.0397,Q,Q
2023-03-15 16:08:42:645,0,-9.96228,-3.83389,-30.0769,Q,Q
2023-03-15 16:08:42:655,0,-9.98522,-3.81793,-30.1126,Q,Q
2023-03-15 16:08:42:665,0,-10.0131,-3.80977,-30.142,Q,Q
2023-03-15 16:08:42:675,0,-10.0462,-3.807,-30.1786,Q,Q
2023-03-15 16:08:42:685,0,-10.0627,-3.80574,-30.2204,Q,Q
2023-03-15 16:08:42:695,0,-10.0612,-3.8065,-30.2654,Q,Q
2023-03-15 16:08:42:705,0,-10.0519,-3.80877,-30.3098,Q,Q
2023-03-15 16:08:42:715,0,-10.0495,-3.81225,-30.3471,Q,Q
2023-03-15 16:08:42:725,0,-10.0532,-3.79707,-30.3861,Q,Q
2023-03-15 16:08:42:735,0,-10.0477,-3.77712,-30.429,Q,Q
2023-03-15 16:08:42:745,0,-10.0403,-3.75456,-30.4717,Q,Q
2023-03-15 16:08:42:755,0,-10.0364,-3.72499,-30.5116,Q,Q
2023-03-15 16:08:42:765,0,-10.0383,-3.6869,-30.5566,Q,Q
2023-03-15 16:08:42:775,0,-10.0414,-3.64978,-30.5934,Q,Q
2023-03-15 16:08:42:785,0,-10.0509,-3.61195,-30.619,Q,Q
2023-03-15 16:08:42:795,0,-10.0683,-3.579,-30.6366,Q,Q
2023-03-15 16:08:42:805,0,-10.0952,-3.54949,-30.6436,Q,Q
2023-03-15 16:08:42:815,0,-10.1323,-3.51345,-30.6418,Q,Q
2023-03-15 16:08:42:825,0,-10.1703,-3.47866,-30.6341,Q,Q
2023-03-15 16:08:42:835,0,-10.2119,-3.44856,-30.6212,Q,Q
2023-03-15 16:08:42:845,0,-10.2545,-3.424,-30.6127,Q,Q
2023-03-15 16:08:42:855,0,-10.3077,-3.41691,-30.6079,Q,Q
2023-03-15 16:08:42:865,0,-10.3562,-3.39801,-30.6177,Q,Q
2023-03-15 16:08:42:875,0,-10.3822,-3.37049,-30.6459,Q,Q
2023-03-15 16:08:42:885,0,-10.385,-3.33797,-30.6919,Q,Q
2023-03-15 16:08:42:895,0,-10.3864,-3.30286,-30.7486,Q,Q
2023-03-15 16:08:42:905,0,-10.3919,-3.26818,-30.8143,Q,Q
2023-03-15 16:08:42:915,0,-10.4027,-3.23611,-30.8904,Q,Q
2023-03-15 16:08:42:925,0,-10.4168,-3.20826,-30.9708,Q,Q
2023-03-15 16:08:42:935,0,-10.4321,-3.18823,-31.0574,Q,Q
2023-03-15 16:08:42:945,0,-10.4492,-3.17602,-31.1468,Q,Q
2023-03-15 16:08:42:955,0,-10.4627,-3.1759,-31.2309,Q,Q
2023-03-15 16:08:42:965,0,-10.484,-3.17847,-31.3097,Q,Q
2023-03-15 16:08:42:975,0,-10.5003,-3.18051,-31.3854,Q,Q
2023-03-15 16:08:42:985,0,-10.5018,-3.18394,-31.4486,Q,Q
2023-03-15 16:08:42:995,0,-10.4975,-3.19679,-31.4989,Q,Q
2023-03-15 16:08:43:5,0,-10.4948,-3.20516,-31.5286,Q,Q
2023-03-15 16:08:43:15,0,-10.4946,-3.21644,-31.5455,Q,Q
2023-03-15 16:08:43:25,0,-10.4885,-3.23064,-31.5447,Q,Q
2023-03-15 16:08:43:35,0,-10.4795,-3.24761,-31.5307,Q,Q
2023-03-15 16:08:43:45,0,-10.4685,-3.26483,-31.5076,Q,Q
2023-03-15 16:08:43:55,0,-10.4528,-3.28042,-31.4767,Q,Q
2023-03-15 16:08:43:65,0,-10.436,-3.28328,-31.4459,Q,Q
2023-03-15 16:08:43:75,0,-10.4134,-3.26725,-31.4176,Q,Q
2023-03-15 16:08:43:85,0,-10.3874,-3.2496,-31.3926,Q,Q
2023-03-15 16:08:43:95,0,-10.3683,-3.22552,-31.3688,Q,Q
2023-03-15 16:08:43:105,0,-10.3546,-3.20164,-31.3488,Q,Q
2023-03-15 16:08:43:115,0,-10.3429,-3.17372,-31.3345,Q,Q
2023-03-15 16:08:43:125,0,-10.3342,-3.14374,-31.324,Q,Q
2023-03-15 16:08:43:135,0,-10.3268,-3.11282,-31.3174,Q,Q
2023-03-15 16:08:43:145,0,-10.3218,-3.07692,-31.3177,Q,Q
2023-03-15 16:08:43:155,0,-10.3189,-3.03754,-31.3256,Q,Q
2023-03-15 16:08:43:165,0,-10.3249,-2.99475,-31.3333,Q,Q
2023-03-15 16:08:43:175,0,-10.3355,-2.94751,-31.3449,Q,Q
2023-03-15 16:08:43:185,0,-10.3521,-2.89649,-31.3537,Q,Q
2023-03-15 16:08:43:195,0,-10.3702,-2.85173,-31.3622,Q,Q
2023-03-15 16:08:43:205,0,-10.393,-2.80642,-31.3738,Q,Q
2023-03-15 16:08:43:215,0,-10.4159,-2.76484,-31.3828,Q,Q
2023-03-15 16:08:43:225,0,-10.4396,-2.72721,-31.3894,Q,Q
2023-03-15 16:08:43:235,0,-10.4624,-2.69739,-31.3952,Q,Q
2023-03-15 16:08:43:245,0,-10.4852,-2.68005,-31.4044,Q,Q
2023-03-15 16:08:43:255,0,-10.499,-2.6717,-31.4102,Q,Q
2023-03-15 16:08:43:265,0,-10.4994,-2.67047,-31.421,Q,Q
2023-03-15 16:08:43:275,0,-10.4902,-2.68001,-31.4332,Q,Q
2023-03-15 16:08:43:285,0,-10.478,-2.69053,-31.448,Q,Q
2023-03-15 16:08:43:295,0,-10.4635,-2.69417,-31.4648,Q,Q
2023-03-15 16:08:43:305,0,-10.4391,-2.69937,-31.4804,Q,Q
2023-03-15 16:08:43:315,0,-10.4172,-2.70477,-31.4932,Q,Q
2023-03-15 16:08:43:325,0,-10.4006,-2.71144,-31.5033,Q,Q
2023-03-15 16:08:43:335,0,-10.3902,-2.71389,-31.5112,Q,Q
2023-03-15 16:08:43:345,0,-10.3779,-2.71668,-31.5096,Q,Q
2023-03-15 16:08:43:355,0,-10.3699,-2.72018,-31.4997,Q,Q
2023-03-15 16:08:43:365,0,-10.3702,-2.72351,-31.4841,Q,Q
2023-03-15 16:08:43:375,0,-10.3748,-2.71957,-31.4634,Q,Q
2023-03-15 16:08:43:385,0,-10.3837,-2.7134,-31.4415,Q,Q
2023-03-15 16:08:43:395,0,-10.4029,-2.70085,-31.4125,Q,Q
2023-03-15 16:08:43:405,0,-10.4262,-2.68784,-31.3805,Q,Q
2023-03-15 16:08:43:415,0,-10.4461,-2.67236,-31.3497,Q,Q
2023-03-15 16:08:43:425,0,-10.4658,-2.66345,-31.3215,Q,Q
2023-03-15 16:08:43:435,0,-10.4817,-2.66094,-31.2952,Q,Q
2023-03-15 16:08:43:445,0,-10.4984,-2.66345,-31.2741,Q,Q
2023-03-15 16:08:43:455,0,-10.5172,-2.66655,-31.255,Q,Q
2023-03-15 16:08:43:465,0,-10.5346,-2.67731,-31.2393,Q,Q
2023-03-15 16:08:43:475,0,-10.5468,-2.68638,-31.2331,Q,Q
2023-03-15 16:08:43:485,0,-10.5544,-2.69702,-31.2292,Q,Q
2023-03-15 16:08:43:495,0,-10.5576,-2.70883,-31.2294,Q,Q
2023-03-15 16:08:43:505,0,-10.5578,-2.72127,-31.2278,Q,Q
2023-03-15 16:08:43:515,0,-10.5593,-2.73599,-31.2239,Q,Q
2023-03-15 16:08:43:525,0,-10.5571,-2.74566,-31.2251,Q,Q
2023-03-15 16:08:43:535,0,-10.5611,-2.75892,-31.2252,Q,Q
2023-03-15 16:08:43:545,0,-10.5624,-2.76889,-31.2245,Q,Q
2023-03-15 16:08:43:555,0,-10.5598,-2.77985,-31.2239,Q,Q
2023-03-15 16:08:43:565,0,-10.5546,-2.78755,-31.2286,Q,Q
2023-03-15 16:08:43:575,0,-10.5469,-2.79478,-31.2305,Q,Q
2023-03-15 16:08:43:585,0,-10.5353,-2.80222,-31.2298,Q,Q
2023-03-15 16:08:43:595,0,-10.5204,-2.81013,-31.2313,Q,Q
2023-03-15 16:08:43:605,0,-10.5035,-2.81265,-31.2339,Q,Q
2023-03-15 16:08:43:615,0,-10.4883,-2.81712,-31.2327,Q,Q
2023-03-15 16:08:43:625,0,-10.4732,-2.82374,-31.2342,Q,Q
2023-03-15 16:08:43:635,0,-10.4581,-2.82857,-31.2414,Q,Q
2023-03-15 16:08:43:645,0,-10.4472,-2.83856,-31.2447,Q,Q
2023-03-15 16:08:43:655,0,-10.4375,-2.85029,-31.2523,Q,Q
2023-03-15 16:08:43:665,0,-10.4247,-2.86714,-31.2613,Q,Q
2023-03-15 16:08:43:675,0,-10.4077,-2.88722,-31.2733,Q,Q
2023-03-15 16:08:43:685,0,-10.3882,-2.90971,-31.2878,Q,Q
2023-03-15 16:08:43:694,0,-10.3636,-2.93672,-31.3071,Q,Q
2023-03-15 16:08:43:704,0,-10.3379,-2.96195,-31.3296,Q,Q
2023-03-15 16:08:43:715,0,-10.3153,-2.9835,-31.3472,Q,Q
2023-03-15 16:08:43:725,0,-10.2916,-3.00314,-31.3623,Q,Q
2023-03-15 16:08:43:735,0,-10.2729,-3.01525,-31.3719,Q,Q
2023-03-15 16:08:43:745,0,-10.2591,-3.02492,-31.3781,Q,Q
2023-03-15 16:08:43:755,0,-10.248,-3.0302,-31.3796,Q,Q
2023-03-15 16:08:43:765,0,-10.2384,-3.03508,-31.3812,Q,Q
2023-03-15 16:08:43:775,0,-10.2291,-3.03842,-31.3778,Q,Q
2023-03-15 16:08:43:785,0,-10.2211,-3.04068,-31.3708,Q,Q
2023-03-15 16:08:43:795,0,-10.214,-3.04087,-31.3621,Q,Q
2023-03-15 16:08:43:805,0,-10.2078,-3.04063,-31.3577,Q,Q
2023-03-15 16:08:43:815,0,-10.2042,-3.04,-31.3541,Q,Q
2023-03-15 16:08:43:825,0,-10.1982,-3.04125,-31.3523,Q,Q
2023-03-15 16:08:43:835,0,-10.1886,-3.04014,-31.3498,Q,Q
2023-03-15 16:08:43:845,0,-10.1825,-3.0392,-31.3489,Q,Q
2023-03-15 16:08:43:855,0,-10.1756,-3.03775,-31.3494,Q,Q
2023-03-15 16:08:43:865,0,-10.165,-3.03612,-31.3515,Q,Q
2023-03-15 16:08:43:875,0,-10.1544,-3.03806,-31.3519,Q,Q
2023-03-15 16:08:43:885,0,-10.1442,-3.03876,-31.3515,Q,Q
2023-03-15 16:08:43:895,0,-10.135,-3.03937,-31.3502,Q,Q
2023-03-15 16:08:43:905,0,-10.127,-3.04101,-31.3523,Q,Q
2023-03-15 16:08:43:915,0,-10.1185,-3.04581,-31.356,Q,Q
2023-03-15 16:08:43:925,0,-10.1062,-3.05063,-31.3538,Q,Q
2023-03-15 16:08:43:934,0,-10.0924,-3.05404,-31.3513,Q,Q
2023-03-15 16:08:43:945,0,-10.0786,-3.05802,-31.3455,Q,Q
2023-03-15 16:08:43:955,0,-10.0646,-3.05705,-31.3445,Q,Q
2023-03-15 16:08:43:965,0,-10.0464,-3.0558,-31.3433,Q,Q
2023-03-15 16:08:43:975,0,-10.0291,-3.05468,-31.3452,Q,Q
2023-03-15 16:08:43:985,0,-10.0188,-3.05482,-31.3425,Q,Q
2023-03-15 16:08:43:995,0,-10.0105,-3.05933,-31.3394,Q,Q
2023-03-15 16:08:44:5,0,-10.0077,-3.06527,-31.3384,Q,Q
2023-03-15 16:08:44:15,0,-10.0067,-3.06476,-31.3376,Q,Q
2023-03-15 16:08:44:25,0,-10.0038,-3.06169,-31.3348,Q,Q
2023-03-15 16:08:44:35,0,-10.0019,-3.06076,-31.3321,Q,Q
2023-03-15 16:08:44:45,0,-9.99884,-3.0556,-31.3256,Q,Q
2023-03-15 16:08:44:55,0,-9.99341,-3.0514,-31.3193,Q,Q
2023-03-15 16:08:44:65,0,-9.99168,-3.05173,-31.3141,Q,Q
2023-03-15 16:08:44:75,0,-9.99272,-3.05301,-31.3086,Q,Q
2023-03-15 16:08:44:85,0,-9.99664,-3.04973,-31.3048,Q,Q
2023-03-15 16:08:44:95,0,-9.99825,-3.05138,-31.3013,Q,Q
2023-03-15 16:08:44:105,0,-9.99753,-3.05309,-31.3016,Q,Q
2023-03-15 16:08:44:115,0,-10.0007,-3.05322,-31.302,Q,Q
2023-03-15 16:08:44:125,0,-10.0082,-3.05198,-31.2985,Q,Q
2023-03-15 16:08:44:135,0,-10.0111,-3.05087,-31.2975,Q,Q
2023-03-15 16:08:44:145,0,-10.0131,-3.04787,-31.2963,Q,Q
2023-03-15 16:08:44:155,0,-10.0132,-3.04668,-31.2963,Q,Q
2023-03-15 16:08:44:165,0,-10.0166,-3.05021,-31.2969,Q,Q
2023-03-15 16:08:44:175,0,-10.0193,-3.0553,-31.2962,Q,Q
2023-03-15 16:08:44:185,0,-10.0227,-3.05954,-31.2948,Q,Q
2023-03-15 16:08:44:195,0,-10.0337,-3.06111,-31.2967,Q,Q
2023-03-15 16:08:44:205,0,-10.0428,-3.06094,-31.3016,Q,Q
2023-03-15 16:08:44:215,0,-10.0511,-3.05893,-31.3096,Q,Q
2023-03-15 16:08:44:225,0,-10.0535,-3.05967,-31.3186,Q,Q
2023-03-15 16:08:44:235,0,-10.0553,-3.06107,-31.3242,Q,Q
2023-03-15 16:08:44:245,0,-10.0543,-3.06095,-31.3313,Q,Q
2023-03-15 16:08:44:255,0,-10.0534,-3.06182,-31.3375,Q,Q
2023-03-15 16:08:44:265,0,-10.0486,-3.06121,-31.3485,Q,Q
2023-03-15 16:08:44:275,0,-10.039,-3.05863,-31.3538,Q,Q
2023-03-15 16:08:44:285,0,-10.0331,-3.0562,-31.3607,Q,Q
2023-03-15 16:08:44:295,0,-10.0326,-3.05099,-31.3648,Q,Q
2023-03-15 16:08:44:305,0,-10.0327,-3.04923,-31.3699,Q,Q
2023-03-15 16:08:44:315,0,-10.0285,-3.04565,-31.3721,Q,Q
2023-03-15 16:08:44:325,0,-10.0281,-3.04287,-31.3759,Q,Q
2023-03-15 16:08:44:335,0,-10.0297,-3.04018,-31.3774,Q,Q
2023-03-15 16:08:44:345,0,-10.0297,-3.03651,-31.3771,Q,Q
2023-03-15 16:08:44:355,0,-10.0315,-3.03573,-31.3785,Q,Q
2023-03-15 16:08:44:365,0,-10.0303,-3.03175,-31.3767,Q,Q
2023-03-15 16:08:44:375,0,-10.0273,-3.02771,-31.378,Q,Q
2023-03-15 16:08:44:385,0,-10.0204,-3.02609,-31.3794,Q,Q
2023-03-15 16:08:44:395,0,-10.0143,-3.02418,-31.3808,Q,Q
2023-03-15 16:08:44:405,0,-9.99987,-3.02802,-31.3825,Q,Q
2023-03-15 16:08:44:415,0,-9.98978,-3.03141,-31.3823,Q,Q
2023-03-15 16:08:44:425,0,-9.97729,-3.02947,-31.3844,Q,Q
2023-03-15 16:08:44:435,0,-9.96181,-3.02279,-31.3888,Q,Q
2023-03-15 16:08:44:445,0,-9.94771,-3.01598,-31.393,Q,Q
2023-03-15 16:08:44:455,0,-9.93547,-3.01544,-31.3937,Q,Q
2023-03-15 16:08:44:465,0,-9.93197,-3.01332,-31.3898,Q,Q
2023-03-15 16:08:44:475,0,-9.92394,-3.01397,-31.3874,Q,Q
2023-03-15 16:08:44:485,0,-9.91354,-3.01186,-31.3822,Q,Q
2023-03-15 16:08:44:495,0,-9.90922,-3.00737,-31.3765,Q,Q
2023-03-15 16:08:44:505,0,-9.90545,-3.00584,-31.3768,Q,Q
2023-03-15 16:08:44:515,0,-9.90281,-3.00846,-31.3791,Q,Q
2023-03-15 16:08:44:525,0,-9.89483,-3.00912,-31.375,Q,Q
2023-03-15 16:08:44:535,0,-9.8876,-3.00883,-31.3727,Q,Q
2023-03-15 16:08:44:545,0,-9.88266,-3.00509,-31.3723,Q,Q
2023-03-15 16:08:44:555,0,-9.87783,-3.00555,-31.3729,Q,Q
2023-03-15 16:08:44:565,0,-9.8752,-3.00934,-31.3698,Q,Q
2023-03-15 16:08:44:575,0,-9.8683,-3.01186,-31.3658,Q,Q
2023-03-15 16:08:44:585,0,-9.86646,-3.01297,-31.3626,Q,Q
2023-03-15 16:08:44:595,0,-9.86171,-3.00816,-31.3594,Q,Q
2023-03-15 16:08:44:605,0,-9.85926,-3.00618,-31.3562,Q,Q
2023-03-15 16:08:44:615,0,-9.85595,-3.00496,-31.3538,Q,Q
2023-03-15 16:08:44:625,0,-9.8565,-3.00297,-31.3524,Q,Q
2023-03-15 16:08:44:635,0,-9.85573,-2.9977,-31.3536,Q,Q
2023-03-15 16:08:44:645,0,-9.85307,-2.99332,-31.3546,Q,Q
2023-03-15 16:08:44:655,0,-9.84892,-2.98783,-31.3565,Q,Q
2023-03-15 16:08:44:665,0,-9.83908,-2.98009,-31.3578,Q,Q
2023-03-15 16:08:44:675,0,-9.83209,-2.97329,-31.3644,Q,Q
2023-03-15 16:08:44:685,0,-9.82612,-2.96651,-31.3697,Q,Q
2023-03-15 16:08:44:695,0,-9.81945,-2.9607,-31.3749,Q,Q
2023-03-15 16:08:44:705,0,-9.81249,-2.95534,-31.3803,Q,Q
2023-03-15 16:08:44:715,0,-9.80561,-2.95008,-31.3865,Q,Q
2023-03-15 16:08:44:725,0,-9.79921,-2.94185,-31.3889,Q,Q
2023-03-15 16:08:44:734,0,-9.79027,-2.93741,-31.3925,Q,Q
2023-03-15 16:08:44:745,0,-9.78012,-2.93595,-31.3958,Q,Q
2023-03-15 16:08:44:755,0,-9.77439,-2.9325,-31.3997,Q,Q
2023-03-15 16:08:44:765,0,-9.76801,-2.928,-31.4019,Q,Q
2023-03-15 16:08:44:775,0,-9.76432,-2.92734,-31.4011,Q,Q
2023-03-15 16:08:44:785,0,-9.76087,-2.9231,-31.4033,Q,Q
2023-03-15 16:08:44:795,0,-9.75951,-2.92499,-31.4005,Q,Q
2023-03-15 16:08:44:805,0,-9.75802,-2.92292,-31.4001,Q,Q
2023-03-15 16:08:44:815,0,-9.75371,-2.92056,-31.397,Q,Q
2023-03-15 16:08:44:825,0,-9.74815,-2.91945,-31.3971,Q,Q
2023-03-15 16:08:44:835,0,-9.74244,-2.91932,-31.4009,Q,Q
2023-03-15 16:08:44:845,0,-9.73392,-2.91994,-31.4031,Q,Q
2023-03-15 16:08:44:855,0,-9.72871,-2.91854,-31.4041,Q,Q
2023-03-15 16:08:44:865,0,-9.72741,-2.91824,-31.4063,Q,Q
2023-03-15 16:08:44:875,0,-9.7219,-2.92332,-31.4048,Q,Q
2023-03-15 16:08:44:885,0,-9.71821,-2.92813,-31.4023,Q,Q
2023-03-15 16:08:44:895,0,-9.71376,-2.93058,-31.4019,Q,Q
2023-03-15 16:08:44:905,0,-9.70961,-2.9311,-31.3968,Q,Q
2023-03-15 16:08:44:915,0,-9.70834,-2.93511,-31.3876,Q,Q
2023-03-15 16:08:44:925,0,-9.7041,-2.94265,-31.3821,Q,Q
2023-03-15 16:08:44:935,0,-9.70066,-2.95522,-31.3719,Q,Q
2023-03-15 16:08:44:945,0,-9.697,-2.96625,-31.3563,Q,Q
2023-03-15 16:08:44:955,0,-9.69436,-2.97418,-31.3398,Q,Q
2023-03-15 16:08:44:965,0,-9.69877,-2.98255,-31.3217,Q,Q
2023-03-15 16:08:44:975,0,-9.70769,-2.98861,-31.3042,Q,Q
2023-03-15 16:08:44:985,0,-9.71455,-2.99666,-31.2881,Q,Q
2023-03-15 16:08:44:995,0,-9.72539,-3.00354,-31.2705,Q,Q
2023-03-15 16:08:45:5,0,-9.73423,-3.00905,-31.2527,Q,Q
2023-03-15 16:08:45:15,0,-9.73834,-3.01378,-31.2399,Q,Q
2023-03-15 16:08:45:25,0,-9.74243,-3.02017,-31.2285,Q,Q
2023-03-15 16:08:45:35,0,-9.74358,-3.02595,-31.2171,Q,Q
2023-03-15 16:08:45:45,0,-9.74492,-3.02688,-31.2138,Q,Q
2023-03-15 16:08:45:55,0,-9.74623,-3.0289,-31.2119,Q,Q
2023-03-15 16:08:45:65,0,-9.75119,-3.02956,-31.2105,Q,Q
2023-03-15 16:08:45:75,0,-9.75543,-3.02873,-31.2111,Q,Q
2023-03-15 16:08:45:85,0,-9.76153,-3.03146,-31.2166,Q,Q
2023-03-15 16:08:45:95,0,-9.76911,-3.03441,-31.2239,Q,Q
2023-03-15 16:08:45:105,0,-9.77701,-3.0387,-31.232,Q,Q
2023-03-15 16:08:45:115,0,-9.78432,-3.04094,-31.2422,Q,Q
2023-03-15 16:08:45:125,0,-9.79315,-3.04232,-31.2494,Q,Q
2023-03-15 16:08:45:135,0,-9.80019,-3.04389,-31.2573,Q,Q
2023-03-15 16:08:45:145,0,-9.80282,-3.0408,-31.2718,Q,Q
2023-03-15 16:08:45:155,0,-9.80389,-3.03607,-31.2857,Q,Q
2023-03-15 16:08:45:165,0,-9.80046,-3.03308,-31.2979,Q,Q
2023-03-15 16:08:45:175,0,-9.79241,-3.03322,-31.307,Q,Q
2023-03-15 16:08:45:185,0,-9.78276,-3.03387,-31.3134,Q,Q
2023-03-15 16:08:45:195,0,-9.77755,-3.03687,-31.3187,Q,Q
2023-03-15 16:08:45:205,0,-9.76825,-3.039,-31.3275,Q,Q
2023-03-15 16:08:45:215,0,-9.76329,-3.03856,-31.3321,Q,Q
2023-03-15 16:08:45:225,0,-9.75822,-3.03819,-31.3384,Q,Q
2023-03-15 16:08:45:235,0,-9.75828,-3.03559,-31.3386,Q,Q
2023-03-15 16:08:45:245,0,-9.75423,-3.03561,-31.3373,Q,Q
2023-03-15 16:08:45:255,0,-9.75169,-3.03774,-31.3319,Q,Q
2023-03-15 16:08:45:265,0,-9.74869,-3.03731,-31.3258,Q,Q
2023-03-15 16:08:45:275,0,-9.74654,-3.03635,-31.3171,Q,Q
