Timestamp_cmd,imu_cmd,roll_delta,pitch_delta,yaw_delta,voice_type,voice_length
2023-03-14 16:27:35:110,0,-19.1434,-5.70531,71.0054,Q,Q
2023-03-14 16:27:35:117,0,-19.1595,-5.68784,70.9288,Q,Q
2023-03-14 16:27:35:128,0,-19.1685,-5.66899,70.8537,Q,Q
2023-03-14 16:27:35:138,0,-19.1747,-5.64813,70.7805,Q,Q
2023-03-14 16:27:35:148,0,-19.1738,-5.62628,70.7092,Q,Q
2023-03-14 16:27:35:158,0,-19.1682,-5.60529,70.6403,Q,Q
2023-03-14 16:27:35:168,0,-19.1391,-5.58657,70.5681,Q,Q
2023-03-14 16:27:35:178,0,-19.0923,-5.56394,70.4923,Q,Q
2023-03-14 16:27:35:188,0,-19.0216,-5.5381,70.4168,Q,Q
2023-03-14 16:27:35:198,0,-18.9452,-5.51796,70.3397,Q,Q
2023-03-14 16:27:35:208,0,-18.8726,-5.49573,70.2555,Q,Q
2023-03-14 16:27:35:218,0,-18.8135,-5.47518,70.1681,Q,Q
2023-03-14 16:27:35:228,0,-18.7669,-5.45826,70.0757,Q,Q
2023-03-14 16:27:35:238,0,-18.7254,-5.44555,69.9751,Q,Q
2023-03-14 16:27:35:248,0,-18.6874,-5.444,69.8693,Q,Q
2023-03-14 16:27:35:258,0,-18.6424,-5.44091,69.7604,Q,Q
2023-03-14 16:27:35:268,0,-18.5996,-5.43812,69.6479,Q,Q
2023-03-14 16:27:35:278,0,-18.558,-5.43503,69.5247,Q,Q
2023-03-14 16:27:35:288,0,-18.521,-5.43037,69.3902,Q,Q
2023-03-14 16:27:35:298,0,-18.485,-5.42963,69.239,Q,Q
2023-03-14 16:27:35:308,0,-18.4466,-5.4331,69.0649,Q,Q
2023-03-14 16:27:35:318,0,-18.4144,-5.43802,68.8775,Q,Q
2023-03-14 16:27:35:328,0,-18.3913,-5.4391,68.6815,Q,Q
2023-03-14 16:27:35:338,0,-18.3714,-5.44643,68.4703,Q,Q
2023-03-14 16:27:35:348,0,-18.3543,-5.45484,68.2476,Q,Q
2023-03-14 16:27:35:358,0,-18.3394,-5.46287,68.0168,Q,Q
2023-03-14 16:27:35:368,0,-18.3238,-5.47092,67.7786,Q,Q
2023-03-14 16:27:35:378,0,-18.3104,-5.47746,67.5407,Q,Q
2023-03-14 16:27:35:388,0,-18.2999,-5.48138,67.3026,Q,Q
2023-03-14 16:27:35:398,0,-18.2962,-5.48452,67.0691,Q,Q
2023-03-14 16:27:35:408,0,-18.3067,-5.4855,66.8427,Q,Q
2023-03-14 16:27:35:418,0,-18.322,-5.48729,66.6283,Q,Q
2023-03-14 16:27:35:428,0,-18.3401,-5.49159,66.4255,Q,Q
2023-03-14 16:27:35:438,0,-18.3553,-5.49814,66.24,Q,Q
2023-03-14 16:27:35:448,0,-18.3648,-5.50744,66.0686,Q,Q
2023-03-14 16:27:35:458,0,-18.3767,-5.51541,65.9152,Q,Q
2023-03-14 16:27:35:468,0,-18.388,-5.52131,65.7757,Q,Q
2023-03-14 16:27:35:478,0,-18.3868,-5.52636,65.6514,Q,Q
2023-03-14 16:27:35:488,0,-18.3585,-5.52685,65.5385,Q,Q
2023-03-14 16:27:35:498,0,-18.3231,-5.51772,65.4369,Q,Q
2023-03-14 16:27:35:508,0,-18.288,-5.49605,65.3509,Q,Q
2023-03-14 16:27:35:518,0,-18.2662,-5.47959,65.2795,Q,Q
2023-03-14 16:27:35:528,0,-18.2454,-5.47017,65.2239,Q,Q
2023-03-14 16:27:35:538,0,-18.2193,-5.45934,65.181,Q,Q
2023-03-14 16:27:35:548,0,-18.1867,-5.45057,65.1508,Q,Q
2023-03-14 16:27:35:558,0,-18.1498,-5.44238,65.1395,Q,Q
2023-03-14 16:27:35:568,0,-18.1176,-5.43044,65.14,Q,Q
2023-03-14 16:27:35:578,0,-18.0902,-5.41682,65.156,Q,Q
2023-03-14 16:27:35:588,0,-18.0691,-5.40859,65.1752,Q,Q
2023-03-14 16:27:35:598,0,-18.0462,-5.3979,65.2006,Q,Q
2023-03-14 16:27:35:608,0,-18.022,-5.38928,65.2264,Q,Q
2023-03-14 16:27:35:618,0,-17.9901,-5.38198,65.2512,Q,Q
2023-03-14 16:27:35:627,0,-17.9544,-5.3792,65.2733,Q,Q
2023-03-14 16:27:35:637,0,-17.9169,-5.37363,65.2966,Q,Q
2023-03-14 16:27:35:647,0,-17.8719,-5.37315,65.322,Q,Q
2023-03-14 16:27:35:657,0,-17.8301,-5.37575,65.346,Q,Q
2023-03-14 16:27:35:667,0,-17.7931,-5.38323,65.3672,Q,Q
2023-03-14 16:27:35:677,0,-17.7544,-5.39634,65.3885,Q,Q
2023-03-14 16:27:35:687,0,-17.7202,-5.41259,65.4052,Q,Q
2023-03-14 16:27:35:697,0,-17.6836,-5.43656,65.4229,Q,Q
2023-03-14 16:27:35:707,0,-17.646,-5.46611,65.4315,Q,Q
2023-03-14 16:27:35:717,0,-17.6082,-5.49744,65.4357,Q,Q
2023-03-14 16:27:35:727,0,-17.5717,-5.52624,65.4378,Q,Q
2023-03-14 16:27:35:737,0,-17.5333,-5.54612,65.433,Q,Q
2023-03-14 16:27:35:747,0,-17.4982,-5.5705,65.4267,Q,Q
2023-03-14 16:27:35:757,0,-17.4597,-5.5912,65.4162,Q,Q
2023-03-14 16:27:35:767,0,-17.425,-5.61218,65.4147,Q,Q
2023-03-14 16:27:35:777,0,-17.3926,-5.63862,65.4137,Q,Q
2023-03-14 16:27:35:788,0,-17.3647,-5.66678,65.4159,Q,Q
2023-03-14 16:27:35:797,0,-17.3344,-5.69553,65.4218,Q,Q
2023-03-14 16:27:35:808,0,-17.3143,-5.72376,65.4311,Q,Q
2023-03-14 16:27:35:818,0,-17.2951,-5.75045,65.4422,Q,Q
2023-03-14 16:27:35:828,0,-17.2826,-5.77019,65.4567,Q,Q
2023-03-14 16:27:35:838,0,-17.2677,-5.78546,65.4732,Q,Q
2023-03-14 16:27:35:848,0,-17.2538,-5.80193,65.4951,Q,Q
2023-03-14 16:27:35:858,0,-17.2475,-5.82248,65.5187,Q,Q
2023-03-14 16:27:35:867,0,-17.2508,-5.85417,65.5462,Q,Q
2023-03-14 16:27:35:878,0,-17.2612,-5.89157,65.575,Q,Q
2023-03-14 16:27:35:887,0,-17.2705,-5.93123,65.6007,Q,Q
2023-03-14 16:27:35:898,0,-17.2867,-5.97076,65.6232,Q,Q
2023-03-14 16:27:35:907,0,-17.3029,-6.00728,65.6376,Q,Q
2023-03-14 16:27:35:917,0,-17.3248,-6.03944,65.6418,Q,Q
2023-03-14 16:27:35:928,0,-17.3435,-6.0671,65.6408,Q,Q
2023-03-14 16:27:35:938,0,-17.358,-6.09539,65.6351,Q,Q
2023-03-14 16:27:35:948,0,-17.3628,-6.12544,65.6258,Q,Q
2023-03-14 16:27:35:957,0,-17.3663,-6.15679,65.6169,Q,Q
2023-03-14 16:27:35:967,0,-17.3679,-6.1858,65.6057,Q,Q
2023-03-14 16:27:35:978,0,-17.3686,-6.21734,65.6007,Q,Q
2023-03-14 16:27:35:988,0,-17.365,-6.2479,65.6025,Q,Q
2023-03-14 16:27:35:998,0,-17.3613,-6.27724,65.6073,Q,Q
2023-03-14 16:27:36:8,0,-17.355,-6.30231,65.616,Q,Q
2023-03-14 16:27:36:18,0,-17.3554,-6.32374,65.6348,Q,Q
2023-03-14 16:27:36:27,0,-17.359,-6.33924,65.6597,Q,Q
2023-03-14 16:27:36:37,0,-17.361,-6.34791,65.6805,Q,Q
2023-03-14 16:27:36:48,0,-17.356,-6.34953,65.7006,Q,Q
2023-03-14 16:27:36:57,0,-17.3525,-6.34392,65.7229,Q,Q
2023-03-14 16:27:36:67,0,-17.35,-6.33136,65.7448,Q,Q
2023-03-14 16:27:36:77,0,-17.3446,-6.31826,65.7635,Q,Q
2023-03-14 16:27:36:87,0,-17.3402,-6.30014,65.7771,Q,Q
2023-03-14 16:27:36:97,0,-17.337,-6.28168,65.7912,Q,Q
2023-03-14 16:27:36:107,0,-17.3306,-6.26036,65.7979,Q,Q
2023-03-14 16:27:36:117,0,-17.324,-6.24164,65.805,Q,Q
2023-03-14 16:27:36:127,0,-17.3115,-6.22497,65.8052,Q,Q
2023-03-14 16:27:36:137,0,-17.2939,-6.21413,65.8045,Q,Q
2023-03-14 16:27:36:147,0,-17.2735,-6.20629,65.8072,Q,Q
2023-03-14 16:27:36:157,0,-17.2562,-6.1972,65.808,Q,Q
2023-03-14 16:27:36:167,0,-17.2503,-6.18715,65.8071,Q,Q
2023-03-14 16:27:36:177,0,-17.2547,-6.16771,65.8062,Q,Q
2023-03-14 16:27:36:187,0,-17.2673,-6.14861,65.7986,Q,Q
2023-03-14 16:27:36:197,0,-17.2788,-6.12443,65.7885,Q,Q
2023-03-14 16:27:36:207,0,-17.2833,-6.09406,65.7647,Q,Q
2023-03-14 16:27:36:217,0,-17.2828,-6.06299,65.7392,Q,Q
2023-03-14 16:27:36:227,0,-17.2773,-6.03789,65.7098,Q,Q
2023-03-14 16:27:36:237,0,-17.2634,-6.01361,65.6821,Q,Q
2023-03-14 16:27:36:247,0,-17.2528,-5.98731,65.6464,Q,Q
2023-03-14 16:27:36:257,0,-17.2428,-5.95896,65.6137,Q,Q
2023-03-14 16:27:36:267,0,-17.2308,-5.93259,65.5747,Q,Q
2023-03-14 16:27:36:277,0,-17.2292,-5.90426,65.5328,Q,Q
2023-03-14 16:27:36:287,0,-17.2343,-5.87983,65.4879,Q,Q
2023-03-14 16:27:36:297,0,-17.2397,-5.85871,65.4462,Q,Q
2023-03-14 16:27:36:307,0,-17.2352,-5.84609,65.4107,Q,Q
2023-03-14 16:27:36:317,0,-17.227,-5.84547,65.3839,Q,Q
2023-03-14 16:27:36:327,0,-17.2198,-5.84785,65.3647,Q,Q
2023-03-14 16:27:36:337,0,-17.2226,-5.85744,65.3474,Q,Q
2023-03-14 16:27:36:347,0,-17.2393,-5.8703,65.339,Q,Q
2023-03-14 16:27:36:357,0,-17.2712,-5.88397,65.3362,Q,Q
2023-03-14 16:27:36:367,0,-17.3214,-5.89306,65.3359,Q,Q
2023-03-14 16:27:36:377,0,-17.3863,-5.89599,65.3364,Q,Q
2023-03-14 16:27:36:387,0,-17.4585,-5.90204,65.3398,Q,Q
2023-03-14 16:27:36:397,0,-17.5281,-5.90446,65.3428,Q,Q
2023-03-14 16:27:36:407,0,-17.596,-5.90293,65.3457,Q,Q
2023-03-14 16:27:36:417,0,-17.6609,-5.89695,65.3469,Q,Q
2023-03-14 16:27:36:427,0,-17.72,-5.88381,65.3503,Q,Q
2023-03-14 16:27:36:437,0,-17.7771,-5.86396,65.3553,Q,Q
2023-03-14 16:27:36:447,0,-17.8265,-5.83916,65.3586,Q,Q
2023-03-14 16:27:36:457,0,-17.8764,-5.80318,65.3626,Q,Q
2023-03-14 16:27:36:467,0,-17.9132,-5.77374,65.3652,Q,Q
2023-03-14 16:27:36:477,0,-17.9416,-5.74356,65.3652,Q,Q
2023-03-14 16:27:36:487,0,-17.964,-5.71551,65.3608,Q,Q
2023-03-14 16:27:36:497,0,-17.979,-5.68545,65.3534,Q,Q
2023-03-14 16:27:36:507,0,-17.992,-5.65097,65.3451,Q,Q
2023-03-14 16:27:36:517,0,-18.0023,-5.61613,65.338,Q,Q
2023-03-14 16:27:36:527,0,-18.0047,-5.58208,65.3294,Q,Q
2023-03-14 16:27:36:537,0,-18.0024,-5.54821,65.3293,Q,Q
2023-03-14 16:27:36:547,0,-17.9979,-5.51523,65.3328,Q,Q
2023-03-14 16:27:36:557,0,-17.9828,-5.48668,65.3414,Q,Q
2023-03-14 16:27:36:567,0,-17.9585,-5.46018,65.3537,Q,Q
2023-03-14 16:27:36:577,0,-17.9276,-5.43413,65.3675,Q,Q
2023-03-14 16:27:36:587,0,-17.8948,-5.40716,65.3917,Q,Q
2023-03-14 16:27:36:597,0,-17.8568,-5.3809,65.4129,Q,Q
2023-03-14 16:27:36:608,0,-17.8054,-5.34623,65.4326,Q,Q
2023-03-14 16:27:36:618,0,-17.7559,-5.31202,65.4527,Q,Q
2023-03-14 16:27:36:628,0,-17.7139,-5.27238,65.4725,Q,Q
2023-03-14 16:27:36:638,0,-17.6817,-5.24108,65.4977,Q,Q
2023-03-14 16:27:36:648,0,-17.6408,-5.21559,65.5191,Q,Q
2023-03-14 16:27:36:658,0,-17.5962,-5.19633,65.5465,Q,Q
2023-03-14 16:27:36:668,0,-17.5393,-5.17638,65.5715,Q,Q
2023-03-14 16:27:36:678,0,-17.4759,-5.15835,65.5962,Q,Q
2023-03-14 16:27:36:688,0,-17.3996,-5.13996,65.6197,Q,Q
2023-03-14 16:27:36:698,0,-17.3126,-5.12693,65.6455,Q,Q
2023-03-14 16:27:36:708,0,-17.2104,-5.11341,65.6726,Q,Q
2023-03-14 16:27:36:718,0,-17.107,-5.10119,65.706,Q,Q
2023-03-14 16:27:36:728,0,-17.0031,-5.09832,65.7385,Q,Q
2023-03-14 16:27:36:738,0,-16.9033,-5.09835,65.7744,Q,Q
2023-03-14 16:27:36:748,0,-16.7891,-5.10466,65.807,Q,Q
2023-03-14 16:27:36:758,0,-16.6465,-5.11877,65.8445,Q,Q
2023-03-14 16:27:36:768,0,-16.4616,-5.14063,65.8775,Q,Q
2023-03-14 16:27:36:778,0,-16.2505,-5.16197,65.9128,Q,Q
2023-03-14 16:27:36:788,0,-16.0093,-5.17321,65.9451,Q,Q
2023-03-14 16:27:36:798,0,-15.7506,-5.18439,65.98,Q,Q
2023-03-14 16:27:36:808,0,-15.4791,-5.19661,66.0112,Q,Q
2023-03-14 16:27:36:818,0,-15.2016,-5.21423,66.039,Q,Q
2023-03-14 16:27:36:828,0,-14.9294,-5.22527,66.0694,Q,Q
2023-03-14 16:27:36:838,0,-14.6798,-5.23168,66.1002,Q,Q
2023-03-14 16:27:36:848,0,-14.4789,-5.23801,66.1283,Q,Q
2023-03-14 16:27:36:858,0,-14.3062,-5.25515,66.1561,Q,Q
2023-03-14 16:27:36:868,0,-14.1537,-5.28566,66.1817,Q,Q
2023-03-14 16:27:36:878,0,-14.0054,-5.32318,66.2076,Q,Q
2023-03-14 16:27:36:888,0,-13.8755,-5.35401,66.2358,Q,Q
2023-03-14 16:27:36:898,0,-13.755,-5.37986,66.2645,Q,Q
2023-03-14 16:27:36:908,0,-13.6201,-5.39932,66.2871,Q,Q
2023-03-14 16:27:36:918,0,-13.4668,-5.41179,66.3132,Q,Q
2023-03-14 16:27:36:928,0,-13.3095,-5.41285,66.3441,Q,Q
2023-03-14 16:27:36:938,0,-13.1925,-5.40014,66.3884,Q,Q
2023-03-14 16:27:36:948,0,-13.1207,-5.37465,66.4362,Q,Q
2023-03-14 16:27:36:958,0,-13.0963,-5.34307,66.4874,Q,Q
2023-03-14 16:27:36:968,0,-13.0989,-5.30787,66.5402,Q,Q
2023-03-14 16:27:36:978,0,-13.1052,-5.26961,66.5885,Q,Q
2023-03-14 16:27:36:988,0,-13.0926,-5.22951,66.6373,Q,Q
2023-03-14 16:27:36:998,0,-13.0686,-5.19318,66.6898,Q,Q
2023-03-14 16:27:37:8,0,-13.0489,-5.16033,66.7423,Q,Q
2023-03-14 16:27:37:18,0,-13.0419,-5.12849,66.7944,Q,Q
2023-03-14 16:27:37:28,0,-13.0342,-5.09689,66.8483,Q,Q
2023-03-14 16:27:37:38,0,-13.0244,-5.06193,66.8973,Q,Q
2023-03-14 16:27:37:48,0,-13.0152,-5.02079,66.9365,Q,Q
2023-03-14 16:27:37:58,0,-13.0133,-4.96836,66.9737,Q,Q
2023-03-14 16:27:37:68,0,-13.0159,-4.91734,67.0072,Q,Q
2023-03-14 16:27:37:78,0,-13.0192,-4.86825,67.0352,Q,Q
2023-03-14 16:27:37:88,0,-13.0147,-4.82205,67.0608,Q,Q
2023-03-14 16:27:37:98,0,-12.984,-4.78601,67.0837,Q,Q
2023-03-14 16:27:37:108,0,-12.9271,-4.7578,67.1096,Q,Q
2023-03-14 16:27:37:118,0,-12.8464,-4.73068,67.129,Q,Q
2023-03-14 16:27:37:128,0,-12.7625,-4.70886,67.154,Q,Q
2023-03-14 16:27:37:138,0,-12.6828,-4.68632,67.1808,Q,Q
2023-03-14 16:27:37:148,0,-12.625,-4.65592,67.2118,Q,Q
2023-03-14 16:27:37:158,0,-12.5894,-4.62802,67.2464,Q,Q
2023-03-14 16:27:37:168,0,-12.5654,-4.60136,67.2755,Q,Q
2023-03-14 16:27:37:178,0,-12.5516,-4.57585,67.2981,Q,Q
2023-03-14 16:27:37:188,0,-12.5351,-4.54963,67.313,Q,Q
2023-03-14 16:27:37:198,0,-12.5148,-4.52399,67.3241,Q,Q
2023-03-14 16:27:37:208,0,-12.4981,-4.49929,67.3269,Q,Q
2023-03-14 16:27:37:218,0,-12.4832,-4.48566,67.3299,Q,Q
2023-03-14 16:27:37:228,0,-12.4771,-4.47333,67.3254,Q,Q
2023-03-14 16:27:37:237,0,-12.4756,-4.46515,67.3193,Q,Q
2023-03-14 16:27:37:248,0,-12.4871,-4.456,67.3095,Q,Q
2023-03-14 16:27:37:258,0,-12.5109,-4.44282,67.2926,Q,Q
2023-03-14 16:27:37:268,0,-12.5479,-4.42688,67.2709,Q,Q
2023-03-14 16:27:37:278,0,-12.598,-4.40522,67.2455,Q,Q
2023-03-14 16:27:37:288,0,-12.649,-4.38613,67.2181,Q,Q
2023-03-14 16:27:37:298,0,-12.6945,-4.37179,67.193,Q,Q
2023-03-14 16:27:37:308,0,-12.7331,-4.36327,67.1755,Q,Q
2023-03-14 16:27:37:317,0,-12.776,-4.36068,67.1582,Q,Q
2023-03-14 16:27:37:328,0,-12.8271,-4.36381,67.1458,Q,Q
2023-03-14 16:27:37:338,0,-12.8831,-4.3724,67.1428,Q,Q
2023-03-14 16:27:37:348,0,-12.9479,-4.38301,67.1461,Q,Q
2023-03-14 16:27:37:358,0,-13.017,-4.39843,67.1575,Q,Q
2023-03-14 16:27:37:368,0,-13.0913,-4.416,67.1743,Q,Q
2023-03-14 16:27:37:378,0,-13.1659,-4.44063,67.1991,Q,Q
2023-03-14 16:27:37:388,0,-13.2307,-4.47156,67.2358,Q,Q
2023-03-14 16:27:37:398,0,-13.2805,-4.50545,67.283,Q,Q
2023-03-14 16:27:37:408,0,-13.3144,-4.54479,67.3369,Q,Q
2023-03-14 16:27:37:418,0,-13.3461,-4.57979,67.3936,Q,Q
2023-03-14 16:27:37:428,0,-13.3848,-4.60869,67.4569,Q,Q
2023-03-14 16:27:37:438,0,-13.4254,-4.62825,67.5196,Q,Q
2023-03-14 16:27:37:448,0,-13.4699,-4.63949,67.5773,Q,Q
2023-03-14 16:27:37:458,0,-13.5209,-4.64245,67.6261,Q,Q
2023-03-14 16:27:37:468,0,-13.5761,-4.63992,67.6663,Q,Q
2023-03-14 16:27:37:478,0,-13.64,-4.62858,67.6946,Q,Q
2023-03-14 16:27:37:488,0,-13.7037,-4.61915,67.7079,Q,Q
2023-03-14 16:27:37:498,0,-13.7627,-4.61309,67.7045,Q,Q
2023-03-14 16:27:37:508,0,-13.8204,-4.6117,67.6945,Q,Q
2023-03-14 16:27:37:518,0,-13.8765,-4.61158,67.6746,Q,Q
2023-03-14 16:27:37:528,0,-13.9299,-4.61294,67.6496,Q,Q
2023-03-14 16:27:37:538,0,-13.9808,-4.61503,67.6207,Q,Q
2023-03-14 16:27:37:548,0,-14.0299,-4.6132,67.5893,Q,Q
2023-03-14 16:27:37:558,0,-14.0798,-4.60808,67.5578,Q,Q
2023-03-14 16:27:37:568,0,-14.1307,-4.60258,67.5272,Q,Q
2023-03-14 16:27:37:578,0,-14.1841,-4.59812,67.5058,Q,Q
2023-03-14 16:27:37:588,0,-14.235,-4.60039,67.4904,Q,Q
2023-03-14 16:27:37:598,0,-14.2826,-4.60391,67.4818,Q,Q
2023-03-14 16:27:37:608,0,-14.33,-4.61129,67.4797,Q,Q
2023-03-14 16:27:37:618,0,-14.3748,-4.61616,67.4822,Q,Q
2023-03-14 16:27:37:628,0,-14.4181,-4.62189,67.4886,Q,Q
2023-03-14 16:27:37:638,0,-14.4576,-4.62492,67.4993,Q,Q
2023-03-14 16:27:37:648,0,-14.4929,-4.62687,67.5092,Q,Q
2023-03-14 16:27:37:658,0,-14.5219,-4.63007,67.5186,Q,Q
2023-03-14 16:27:37:668,0,-14.5451,-4.63247,67.526,Q,Q
2023-03-14 16:27:37:678,0,-14.5664,-4.63963,67.5335,Q,Q
2023-03-14 16:27:37:688,0,-14.5822,-4.64377,67.5374,Q,Q
2023-03-14 16:27:37:698,0,-14.5924,-4.64884,67.5434,Q,Q
2023-03-14 16:27:37:708,0,-14.5972,-4.6586,67.5459,Q,Q
2023-03-14 16:27:37:718,0,-14.5957,-4.67375,67.5439,Q,Q
2023-03-14 16:27:37:728,0,-14.585,-4.69292,67.5393,Q,Q
2023-03-14 16:27:37:738,0,-14.5772,-4.71275,67.5362,Q,Q
2023-03-14 16:27:37:748,0,-14.5761,-4.73423,67.5373,Q,Q
2023-03-14 16:27:37:758,0,-14.5801,-4.75426,67.5352,Q,Q
2023-03-14 16:27:37:768,0,-14.5848,-4.77193,67.5305,Q,Q
2023-03-14 16:27:37:778,0,-14.5954,-4.78797,67.5264,Q,Q
2023-03-14 16:27:37:788,0,-14.6161,-4.8029,67.5219,Q,Q
2023-03-14 16:27:37:798,0,-14.6429,-4.818,67.5154,Q,Q
2023-03-14 16:27:37:808,0,-14.666,-4.83392,67.509,Q,Q
2023-03-14 16:27:37:818,0,-14.6853,-4.84977,67.4953,Q,Q
2023-03-14 16:27:37:828,0,-14.7054,-4.86526,67.4794,Q,Q
2023-03-14 16:27:37:838,0,-14.7229,-4.88352,67.4557,Q,Q
2023-03-14 16:27:37:848,0,-14.7383,-4.89602,67.4327,Q,Q
2023-03-14 16:27:37:858,0,-14.7563,-4.91309,67.4062,Q,Q
2023-03-14 16:27:37:868,0,-14.7755,-4.93151,67.3771,Q,Q
2023-03-14 16:27:37:878,0,-14.7937,-4.95077,67.3483,Q,Q
2023-03-14 16:27:37:888,0,-14.8135,-4.96727,67.3171,Q,Q
2023-03-14 16:27:37:898,0,-14.8287,-4.99016,67.2844,Q,Q
2023-03-14 16:27:37:908,0,-14.8422,-5.01627,67.2547,Q,Q
2023-03-14 16:27:37:918,0,-14.8514,-5.04202,67.2213,Q,Q
2023-03-14 16:27:37:928,0,-14.8619,-5.06911,67.1885,Q,Q
2023-03-14 16:27:37:938,0,-14.87,-5.09595,67.1531,Q,Q
2023-03-14 16:27:37:948,0,-14.876,-5.12745,67.1168,Q,Q
2023-03-14 16:27:37:958,0,-14.8818,-5.15684,67.0809,Q,Q
2023-03-14 16:27:37:968,0,-14.8863,-5.18805,67.0434,Q,Q
2023-03-14 16:27:37:978,0,-14.8844,-5.21751,67.0053,Q,Q
2023-03-14 16:27:37:988,0,-14.8879,-5.24846,66.968,Q,Q
2023-03-14 16:27:37:998,0,-14.8935,-5.27703,66.9318,Q,Q
2023-03-14 16:27:38:8,0,-14.891,-5.30586,66.8973,Q,Q
2023-03-14 16:27:38:18,0,-14.8874,-5.32777,66.8625,Q,Q
2023-03-14 16:27:38:28,0,-14.8808,-5.34845,66.8257,Q,Q
2023-03-14 16:27:38:38,0,-14.8718,-5.36088,66.7881,Q,Q
2023-03-14 16:27:38:48,0,-14.8653,-5.37111,66.7536,Q,Q
2023-03-14 16:27:38:58,0,-14.863,-5.37763,66.7218,Q,Q
2023-03-14 16:27:38:68,0,-14.8602,-5.38614,66.694,Q,Q
2023-03-14 16:27:38:78,0,-14.8598,-5.3939,66.664,Q,Q
2023-03-14 16:27:38:88,0,-14.8562,-5.40103,66.6347,Q,Q
2023-03-14 16:27:38:98,0,-14.8485,-5.41106,66.6093,Q,Q
2023-03-14 16:27:38:108,0,-14.8398,-5.42092,66.581,Q,Q
2023-03-14 16:27:38:118,0,-14.8326,-5.42997,66.5559,Q,Q
2023-03-14 16:27:38:128,0,-14.8248,-5.43768,66.5284,Q,Q
2023-03-14 16:27:38:138,0,-14.8186,-5.44734,66.5054,Q,Q
2023-03-14 16:27:38:148,0,-14.8104,-5.45876,66.4795,Q,Q
2023-03-14 16:27:38:158,0,-14.7993,-5.47509,66.4572,Q,Q
2023-03-14 16:27:38:168,0,-14.7967,-5.49181,66.4349,Q,Q
2023-03-14 16:27:38:178,0,-14.7925,-5.50489,66.4176,Q,Q
2023-03-14 16:27:38:188,0,-14.7943,-5.52001,66.4055,Q,Q
2023-03-14 16:27:38:198,0,-14.7951,-5.53369,66.3918,Q,Q
2023-03-14 16:27:38:208,0,-14.8015,-5.54825,66.3803,Q,Q
2023-03-14 16:27:38:218,0,-14.812,-5.5588,66.3699,Q,Q
2023-03-14 16:27:38:228,0,-14.8175,-5.56598,66.3582,Q,Q
2023-03-14 16:27:38:238,0,-14.8215,-5.57178,66.3522,Q,Q
2023-03-14 16:27:38:248,0,-14.8244,-5.57738,66.3488,Q,Q
2023-03-14 16:27:38:258,0,-14.826,-5.58349,66.3452,Q,Q
2023-03-14 16:27:38:268,0,-14.8293,-5.59065,66.343,Q,Q
2023-03-14 16:27:38:278,0,-14.837,-5.59832,66.3436,Q,Q
2023-03-14 16:27:38:288,0,-14.8434,-5.60382,66.3459,Q,Q
2023-03-14 16:27:38:298,0,-14.854,-5.61179,66.3505,Q,Q
2023-03-14 16:27:38:308,0,-14.8629,-5.62193,66.353,Q,Q
2023-03-14 16:27:38:318,0,-14.8745,-5.62829,66.3579,Q,Q
2023-03-14 16:27:38:328,0,-14.8854,-5.63393,66.3694,Q,Q
2023-03-14 16:27:38:338,0,-14.8944,-5.64137,66.3769,Q,Q
2023-03-14 16:27:38:348,0,-14.9017,-5.64659,66.3876,Q,Q
2023-03-14 16:27:38:358,0,-14.9103,-5.64988,66.3993,Q,Q
2023-03-14 16:27:38:368,0,-14.9213,-5.65122,66.4095,Q,Q
2023-03-14 16:27:38:378,0,-14.9274,-5.65207,66.4163,Q,Q
2023-03-14 16:27:38:388,0,-14.9363,-5.6547,66.4277,Q,Q
2023-03-14 16:27:38:398,0,-14.9426,-5.65436,66.436,Q,Q
2023-03-14 16:27:38:408,0,-14.9429,-5.65875,66.4441,Q,Q
2023-03-14 16:27:38:418,0,-14.9507,-5.6623,66.4562,Q,Q
2023-03-14 16:27:38:428,0,-14.9576,-5.67063,66.4712,Q,Q
2023-03-14 16:27:38:438,0,-14.9611,-5.67299,66.4869,Q,Q
2023-03-14 16:27:38:448,0,-14.9599,-5.67419,66.5044,Q,Q
2023-03-14 16:27:38:458,0,-14.9584,-5.67204,66.5201,Q,Q
2023-03-14 16:27:38:468,0,-14.9574,-5.67106,66.533,Q,Q
2023-03-14 16:27:38:478,0,-14.9631,-5.67096,66.5524,Q,Q
2023-03-14 16:27:38:488,0,-14.9635,-5.66928,66.572,Q,Q
2023-03-14 16:27:38:498,0,-14.9652,-5.66878,66.5916,Q,Q
2023-03-14 16:27:38:508,0,-14.9702,-5.66642,66.6154,Q,Q
2023-03-14 16:27:38:518,0,-14.9718,-5.66471,66.6359,Q,Q
2023-03-14 16:27:38:528,0,-14.9748,-5.65971,66.6575,Q,Q
2023-03-14 16:27:38:538,0,-14.9774,-5.65503,66.6707,Q,Q
2023-03-14 16:27:38:548,0,-14.9827,-5.65282,66.6877,Q,Q
2023-03-14 16:27:38:558,0,-14.9892,-5.64883,66.7008,Q,Q
2023-03-14 16:27:38:568,0,-14.9954,-5.65,66.7137,Q,Q
2023-03-14 16:27:38:578,0,-15.0018,-5.65471,66.7242,Q,Q
2023-03-14 16:27:38:588,0,-15.0063,-5.6655,66.7432,Q,Q
2023-03-14 16:27:38:598,0,-15.0139,-5.67988,66.7609,Q,Q
2023-03-14 16:27:38:608,0,-15.0222,-5.70022,66.7834,Q,Q
2023-03-14 16:27:38:618,0,-15.0357,-5.71963,66.8026,Q,Q
2023-03-14 16:27:38:628,0,-15.0494,-5.73464,66.8211,Q,Q
2023-03-14 16:27:38:638,0,-15.0677,-5.74766,66.8436,Q,Q
2023-03-14 16:27:38:648,0,-15.0883,-5.76209,66.8637,Q,Q
2023-03-14 16:27:38:658,0,-15.1123,-5.77537,66.8815,Q,Q
2023-03-14 16:27:38:668,0,-15.1335,-5.78611,66.902,Q,Q
2023-03-14 16:27:38:678,0,-15.153,-5.79422,66.915,Q,Q
2023-03-14 16:27:38:688,0,-15.171,-5.80209,66.927,Q,Q
2023-03-14 16:27:38:698,0,-15.1874,-5.81103,66.9388,Q,Q
2023-03-14 16:27:38:708,0,-15.2022,-5.81395,66.9464,Q,Q
2023-03-14 16:27:38:718,0,-15.216,-5.81261,66.9506,Q,Q
2023-03-14 16:27:38:728,0,-15.2319,-5.81139,66.9508,Q,Q
2023-03-14 16:27:38:738,0,-15.2451,-5.80679,66.9507,Q,Q
2023-03-14 16:27:38:748,0,-15.2616,-5.8049,66.947,Q,Q
2023-03-14 16:27:38:758,0,-15.2791,-5.79804,66.9402,Q,Q
2023-03-14 16:27:38:768,0,-15.2986,-5.79319,66.9331,Q,Q
2023-03-14 16:27:38:778,0,-15.3189,-5.79053,66.9262,Q,Q
2023-03-14 16:27:38:788,0,-15.3324,-5.78664,66.9185,Q,Q
2023-03-14 16:27:38:798,0,-15.3446,-5.78034,66.9067,Q,Q
2023-03-14 16:27:38:808,0,-15.3499,-5.76986,66.8935,Q,Q
2023-03-14 16:27:38:818,0,-15.3529,-5.75826,66.8775,Q,Q
2023-03-14 16:27:38:828,0,-15.3558,-5.75038,66.8615,Q,Q
2023-03-14 16:27:38:838,0,-15.3541,-5.74427,66.8471,Q,Q
2023-03-14 16:27:38:848,0,-15.3538,-5.74063,66.8324,Q,Q
2023-03-14 16:27:38:858,0,-15.3528,-5.73828,66.8188,Q,Q
2023-03-14 16:27:38:868,0,-15.3564,-5.73655,66.8081,Q,Q
2023-03-14 16:27:38:878,0,-15.3572,-5.73468,66.798,Q,Q
2023-03-14 16:27:38:888,0,-15.3557,-5.73642,66.786,Q,Q
2023-03-14 16:27:38:898,0,-15.3514,-5.73527,66.7737,Q,Q
2023-03-14 16:27:38:908,0,-15.3456,-5.73445,66.7641,Q,Q
2023-03-14 16:27:38:918,0,-15.3433,-5.73637,66.7556,Q,Q
2023-03-14 16:27:38:928,0,-15.3376,-5.73596,66.7472,Q,Q
2023-03-14 16:27:38:938,0,-15.332,-5.7381,66.7415,Q,Q
2023-03-14 16:27:38:948,0,-15.3234,-5.74172,66.7367,Q,Q
2023-03-14 16:27:38:958,0,-15.3166,-5.74627,66.7362,Q,Q
2023-03-14 16:27:38:968,0,-15.3065,-5.74918,66.734,Q,Q
2023-03-14 16:27:38:978,0,-15.2918,-5.75328,66.7344,Q,Q
2023-03-14 16:27:38:988,0,-15.2796,-5.75783,66.7361,Q,Q
2023-03-14 16:27:38:998,0,-15.2681,-5.76682,66.7393,Q,Q
2023-03-14 16:27:39:8,0,-15.255,-5.77506,66.7378,Q,Q
2023-03-14 16:27:39:18,0,-15.2417,-5.78352,66.7379,Q,Q
2023-03-14 16:27:39:28,0,-15.2281,-5.79488,66.7347,Q,Q
2023-03-14 16:27:39:38,0,-15.2119,-5.80854,66.7238,Q,Q
2023-03-14 16:27:39:48,0,-15.2007,-5.82204,66.7106,Q,Q
2023-03-14 16:27:39:58,0,-15.1896,-5.82972,66.6949,Q,Q
2023-03-14 16:27:39:68,0,-15.1784,-5.83552,66.6742,Q,Q
2023-03-14 16:27:39:78,0,-15.1645,-5.84362,66.6564,Q,Q
2023-03-14 16:27:39:88,0,-15.1466,-5.85105,66.6379,Q,Q
2023-03-14 16:27:39:98,0,-15.1272,-5.85791,66.6221,Q,Q
2023-03-14 16:27:39:108,0,-15.1107,-5.86242,66.6084,Q,Q
2023-03-14 16:27:39:118,0,-15.0941,-5.86399,66.5962,Q,Q
2023-03-14 16:27:39:128,0,-15.0798,-5.86462,66.5868,Q,Q
2023-03-14 16:27:39:138,0,-15.0665,-5.86912,66.5827,Q,Q
2023-03-14 16:27:39:148,0,-15.0593,-5.87387,66.5808,Q,Q
2023-03-14 16:27:39:158,0,-15.0518,-5.87685,66.5827,Q,Q
2023-03-14 16:27:39:168,0,-15.0465,-5.8772,66.5834,Q,Q
2023-03-14 16:27:39:178,0,-15.0474,-5.87996,66.5839,Q,Q
2023-03-14 16:27:39:188,0,-15.043,-5.88374,66.587,Q,Q
2023-03-14 16:27:39:198,0,-15.0394,-5.88898,66.5906,Q,Q
2023-03-14 16:27:39:208,0,-15.0362,-5.88865,66.5914,Q,Q
2023-03-14 16:27:39:218,0,-15.0316,-5.88677,66.5962,Q,Q
2023-03-14 16:27:39:228,0,-15.0288,-5.88426,66.597,Q,Q
2023-03-14 16:27:39:238,0,-15.0262,-5.88277,66.5993,Q,Q
2023-03-14 16:27:39:248,0,-15.0183,-5.88198,66.6011,Q,Q
2023-03-14 16:27:39:258,0,-15.0103,-5.8841,66.5978,Q,Q
2023-03-14 16:27:39:268,0,-15.0026,-5.88628,66.5965,Q,Q
2023-03-14 16:27:39:278,0,-14.9958,-5.88959,66.5969,Q,Q
2023-03-14 16:27:39:288,0,-14.9908,-5.89825,66.5942,Q,Q
2023-03-14 16:27:39:298,0,-14.9844,-5.90812,66.5938,Q,Q
2023-03-14 16:27:39:308,0,-14.9705,-5.91754,66.5881,Q,Q
2023-03-14 16:27:39:318,0,-14.9566,-5.93099,66.5798,Q,Q
2023-03-14 16:27:39:328,0,-14.9387,-5.94565,66.5602,Q,Q
2023-03-14 16:27:39:338,0,-14.9246,-5.9564,66.5365,Q,Q
2023-03-14 16:27:39:348,0,-14.9118,-5.9696,66.5113,Q,Q
2023-03-14 16:27:39:358,0,-14.8945,-5.98087,66.4847,Q,Q
2023-03-14 16:27:39:367,0,-14.8763,-5.99188,66.4519,Q,Q
2023-03-14 16:27:39:377,0,-14.8581,-5.99762,66.4234,Q,Q
2023-03-14 16:27:39:388,0,-14.8425,-5.99978,66.394,Q,Q
2023-03-14 16:27:39:398,0,-14.8322,-5.99662,66.3665,Q,Q
2023-03-14 16:27:39:408,0,-14.819,-5.99417,66.3417,Q,Q
2023-03-14 16:27:39:418,0,-14.806,-5.9955,66.3177,Q,Q
2023-03-14 16:27:39:428,0,-14.8002,-5.99802,66.3012,Q,Q
2023-03-14 16:27:39:438,0,-14.7953,-5.99925,66.2897,Q,Q
2023-03-14 16:27:39:448,0,-14.7933,-6.00095,66.2901,Q,Q
2023-03-14 16:27:39:458,0,-14.7951,-5.99937,66.2951,Q,Q
2023-03-14 16:27:39:468,0,-14.798,-6.00037,66.3083,Q,Q
2023-03-14 16:27:39:478,0,-14.8071,-5.99825,66.3242,Q,Q
2023-03-14 16:27:39:488,0,-14.817,-5.99551,66.3439,Q,Q
2023-03-14 16:27:39:498,0,-14.8223,-5.9912,66.3642,Q,Q
2023-03-14 16:27:39:508,0,-14.8293,-5.98989,66.3854,Q,Q
2023-03-14 16:27:39:518,0,-14.8443,-5.98855,66.413,Q,Q
2023-03-14 16:27:39:528,0,-14.8616,-5.98714,66.4364,Q,Q
2023-03-14 16:27:39:538,0,-14.8799,-5.982,66.4548,Q,Q
2023-03-14 16:27:39:548,0,-14.8978,-5.979,66.4714,Q,Q
2023-03-14 16:27:39:558,0,-14.9203,-5.97342,66.4841,Q,Q
2023-03-14 16:27:39:568,0,-14.938,-5.97002,66.4975,Q,Q
2023-03-14 16:27:39:578,0,-14.9579,-5.96777,66.5066,Q,Q
2023-03-14 16:27:39:588,0,-14.9796,-5.96452,66.5102,Q,Q
2023-03-14 16:27:39:598,0,-15.0011,-5.96027,66.5169,Q,Q
2023-03-14 16:27:39:608,0,-15.0246,-5.95504,66.5209,Q,Q
2023-03-14 16:27:39:618,0,-15.0463,-5.95166,66.5248,Q,Q
2023-03-14 16:27:39:628,0,-15.0675,-5.94423,66.5259,Q,Q
2023-03-14 16:27:39:638,0,-15.0889,-5.9382,66.5265,Q,Q
2023-03-14 16:27:39:648,0,-15.1077,-5.93086,66.5249,Q,Q
2023-03-14 16:27:39:658,0,-15.1215,-5.92207,66.5262,Q,Q
2023-03-14 16:27:39:668,0,-15.1297,-5.91797,66.5273,Q,Q
2023-03-14 16:27:39:678,0,-15.1358,-5.9139,66.5295,Q,Q
2023-03-14 16:27:39:688,0,-15.1407,-5.91079,66.5298,Q,Q
2023-03-14 16:27:39:698,0,-15.1437,-5.90882,66.5343,Q,Q
2023-03-14 16:27:39:708,0,-15.1375,-5.90588,66.5374,Q,Q
2023-03-14 16:27:39:718,0,-15.1365,-5.9019,66.5435,Q,Q
2023-03-14 16:27:39:728,0,-15.135,-5.90019,66.5478,Q,Q
2023-03-14 16:27:39:738,0,-15.1334,-5.89497,66.5552,Q,Q
2023-03-14 16:27:39:748,0,-15.1289,-5.89085,66.564,Q,Q
2023-03-14 16:27:39:758,0,-15.1187,-5.88656,66.5701,Q,Q
2023-03-14 16:27:39:768,0,-15.1084,-5.88352,66.58,Q,Q
2023-03-14 16:27:39:778,0,-15.1036,-5.87895,66.5878,Q,Q
2023-03-14 16:27:39:788,0,-15.0928,-5.87673,66.5967,Q,Q
2023-03-14 16:27:39:798,0,-15.0789,-5.87593,66.6059,Q,Q
2023-03-14 16:27:39:808,0,-15.0639,-5.87697,66.6135,Q,Q
2023-03-14 16:27:39:818,0,-15.0523,-5.87939,66.6214,Q,Q
2023-03-14 16:27:39:828,0,-15.0402,-5.87975,66.6317,Q,Q
2023-03-14 16:27:39:838,0,-15.0245,-5.87969,66.6455,Q,Q
2023-03-14 16:27:39:848,0,-15.0168,-5.87932,66.6587,Q,Q
2023-03-14 16:27:39:858,0,-15.0074,-5.88188,66.6724,Q,Q
2023-03-14 16:27:39:868,0,-14.9988,-5.883,66.6896,Q,Q
2023-03-14 16:27:39:878,0,-14.9938,-5.8859,66.7027,Q,Q
2023-03-14 16:27:39:888,0,-14.9882,-5.88751,66.7188,Q,Q
2023-03-14 16:27:39:898,0,-14.99,-5.88569,66.7357,Q,Q
2023-03-14 16:27:39:908,0,-14.9925,-5.88975,66.7545,Q,Q
2023-03-14 16:27:39:918,0,-14.9921,-5.88931,66.7749,Q,Q
2023-03-14 16:27:39:928,0,-14.993,-5.89056,66.7921,Q,Q
2023-03-14 16:27:39:938,0,-14.9928,-5.89066,66.8074,Q,Q
2023-03-14 16:27:39:948,0,-14.9882,-5.89337,66.8218,Q,Q
2023-03-14 16:27:39:958,0,-14.9871,-5.88926,66.8326,Q,Q
2023-03-14 16:27:39:968,0,-14.98,-5.88896,66.8398,Q,Q
2023-03-14 16:27:39:978,0,-14.9759,-5.88441,66.8436,Q,Q
2023-03-14 16:27:39:988,0,-14.9743,-5.88113,66.8445,Q,Q
2023-03-14 16:27:39:998,0,-14.9772,-5.88185,66.8463,Q,Q
2023-03-14 16:27:40:8,0,-14.9821,-5.88377,66.8481,Q,Q
2023-03-14 16:27:40:18,0,-14.9849,-5.88114,66.8491,Q,Q
2023-03-14 16:27:40:28,0,-14.982,-5.88277,66.8469,Q,Q
2023-03-14 16:27:40:38,0,-14.9838,-5.8807,66.8461,Q,Q
2023-03-14 16:27:40:48,0,-14.9817,-5.87929,66.8459,Q,Q
2023-03-14 16:27:40:58,0,-14.9752,-5.87498,66.8475,Q,Q
2023-03-14 16:27:40:68,0,-14.9705,-5.87265,66.8507,Q,Q
2023-03-14 16:27:40:78,0,-14.9645,-5.87155,66.8574,Q,Q
2023-03-14 16:27:40:88,0,-14.9558,-5.8657,66.8675,Q,Q
2023-03-14 16:27:40:98,0,-14.9385,-5.86203,66.879,Q,Q
2023-03-14 16:27:40:108,0,-14.931,-5.85576,66.8906,Q,Q
2023-03-14 16:27:40:118,0,-14.9378,-5.84681,66.9093,Q,Q
2023-03-14 16:27:40:128,0,-14.9558,-5.82954,66.9273,Q,Q
2023-03-14 16:27:40:138,0,-14.9732,-5.80458,66.9512,Q,Q
2023-03-14 16:27:40:148,0,-14.9797,-5.78971,66.9822,Q,Q
2023-03-14 16:27:40:158,0,-14.9803,-5.77495,67.0163,Q,Q
2023-03-14 16:27:40:168,0,-14.984,-5.76645,67.0551,Q,Q
2023-03-14 16:27:40:178,0,-14.9966,-5.75576,67.0972,Q,Q
2023-03-14 16:27:40:188,0,-15.0172,-5.75052,67.1406,Q,Q
2023-03-14 16:27:40:198,0,-15.0276,-5.74569,67.1732,Q,Q
2023-03-14 16:27:40:208,0,-15.0313,-5.74054,67.1996,Q,Q
2023-03-14 16:27:40:218,0,-15.0307,-5.73677,67.2194,Q,Q
2023-03-14 16:27:40:228,0,-15.0324,-5.7445,67.2343,Q,Q
2023-03-14 16:27:40:238,0,-15.0412,-5.75642,67.2501,Q,Q
2023-03-14 16:27:40:248,0,-15.0516,-5.76931,67.2591,Q,Q
2023-03-14 16:27:40:258,0,-15.0678,-5.78548,67.2641,Q,Q
2023-03-14 16:27:40:268,0,-15.0853,-5.80055,67.2646,Q,Q
2023-03-14 16:27:40:278,0,-15.099,-5.81701,67.2619,Q,Q
2023-03-14 16:27:40:288,0,-15.1146,-5.82668,67.2611,Q,Q
2023-03-14 16:27:40:298,0,-15.125,-5.83475,67.2584,Q,Q
2023-03-14 16:27:40:308,0,-15.1337,-5.84166,67.258,Q,Q
2023-03-14 16:27:40:318,0,-15.1393,-5.84919,67.258,Q,Q
2023-03-14 16:27:40:328,0,-15.1402,-5.85304,67.2586,Q,Q
2023-03-14 16:27:40:338,0,-15.1387,-5.85132,67.258,Q,Q
2023-03-14 16:27:40:348,0,-15.1382,-5.85034,67.256,Q,Q
2023-03-14 16:27:40:358,0,-15.1438,-5.84491,67.2551,Q,Q
2023-03-14 16:27:40:368,0,-15.1516,-5.84205,67.2544,Q,Q
2023-03-14 16:27:40:378,0,-15.1617,-5.837,67.25,Q,Q
2023-03-14 16:27:40:388,0,-15.1717,-5.83395,67.2456,Q,Q
2023-03-14 16:27:40:398,0,-15.1827,-5.8292,67.2398,Q,Q
2023-03-14 16:27:40:408,0,-15.1967,-5.82642,67.2335,Q,Q
2023-03-14 16:27:40:418,0,-15.2128,-5.82863,67.2309,Q,Q
2023-03-14 16:27:40:427,0,-15.224,-5.83169,67.2261,Q,Q
2023-03-14 16:27:40:437,0,-15.228,-5.82954,67.2214,Q,Q
2023-03-14 16:27:40:448,0,-15.2297,-5.82859,67.2192,Q,Q
2023-03-14 16:27:40:458,0,-15.2302,-5.82384,67.2133,Q,Q
2023-03-14 16:27:40:468,0,-15.2299,-5.82359,67.2065,Q,Q
2023-03-14 16:27:40:478,0,-15.2263,-5.82748,67.1991,Q,Q
2023-03-14 16:27:40:488,0,-15.2227,-5.83314,67.1959,Q,Q
2023-03-14 16:27:40:498,0,-15.2157,-5.84132,67.1925,Q,Q
2023-03-14 16:27:40:508,0,-15.2126,-5.84617,67.1854,Q,Q
2023-03-14 16:27:40:518,0,-15.2125,-5.84756,67.1818,Q,Q
2023-03-14 16:27:40:528,0,-15.2135,-5.85027,67.1784,Q,Q
2023-03-14 16:27:40:538,0,-15.2179,-5.85017,67.174,Q,Q
2023-03-14 16:27:40:548,0,-15.2197,-5.85282,67.1695,Q,Q
2023-03-14 16:27:40:558,0,-15.2243,-5.84946,67.1668,Q,Q
2023-03-14 16:27:40:568,0,-15.2234,-5.84773,67.1668,Q,Q
2023-03-14 16:27:40:578,0,-15.2174,-5.84511,67.1613,Q,Q
2023-03-14 16:27:40:588,0,-15.2128,-5.84175,67.1558,Q,Q
2023-03-14 16:27:40:598,0,-15.203,-5.84148,67.1497,Q,Q
2023-03-14 16:27:40:608,0,-15.1947,-5.84163,67.1461,Q,Q
2023-03-14 16:27:40:618,0,-15.1834,-5.84279,67.1414,Q,Q
2023-03-14 16:27:40:628,0,-15.1741,-5.84394,67.1363,Q,Q
2023-03-14 16:27:40:638,0,-15.1705,-5.85086,67.1323,Q,Q
2023-03-14 16:27:40:648,0,-15.1666,-5.85416,67.129,Q,Q
2023-03-14 16:27:40:658,0,-15.1667,-5.85803,67.1251,Q,Q
2023-03-14 16:27:40:668,0,-15.1681,-5.86246,67.124,Q,Q
2023-03-14 16:27:40:678,0,-15.1768,-5.86738,67.1234,Q,Q
2023-03-14 16:27:40:688,0,-15.1824,-5.87111,67.1218,Q,Q
2023-03-14 16:27:40:698,0,-15.1868,-5.87371,67.1248,Q,Q
2023-03-14 16:27:40:708,0,-15.1897,-5.87567,67.129,Q,Q
2023-03-14 16:27:40:718,0,-15.1948,-5.87625,67.1359,Q,Q
2023-03-14 16:27:40:728,0,-15.1967,-5.87325,67.1379,Q,Q
2023-03-14 16:27:40:738,0,-15.1983,-5.87111,67.1427,Q,Q
2023-03-14 16:27:40:748,0,-15.2008,-5.86475,67.1456,Q,Q
2023-03-14 16:27:40:758,0,-15.1984,-5.85626,67.141,Q,Q
2023-03-14 16:27:40:768,0,-15.1978,-5.85038,67.1369,Q,Q
2023-03-14 16:27:40:778,0,-15.2047,-5.8437,67.1322,Q,Q
2023-03-14 16:27:40:788,0,-15.2103,-5.83866,67.1241,Q,Q
2023-03-14 16:27:40:798,0,-15.2128,-5.83519,67.1151,Q,Q
2023-03-14 16:27:40:808,0,-15.2149,-5.83161,67.1034,Q,Q
2023-03-14 16:27:40:818,0,-15.2173,-5.82211,67.0942,Q,Q
2023-03-14 16:27:40:828,0,-15.2205,-5.81605,67.0797,Q,Q
2023-03-14 16:27:40:838,0,-15.2207,-5.80953,67.0687,Q,Q
2023-03-14 16:27:40:848,0,-15.2222,-5.8026,67.0607,Q,Q
2023-03-14 16:27:40:858,0,-15.2228,-5.79476,67.0523,Q,Q
2023-03-14 16:27:40:868,0,-15.2237,-5.78977,67.0466,Q,Q
2023-03-14 16:27:40:878,0,-15.2254,-5.78654,67.0465,Q,Q
2023-03-14 16:27:40:888,0,-15.2237,-5.78655,67.0455,Q,Q
2023-03-14 16:27:40:897,0,-15.2199,-5.7856,67.0443,Q,Q
2023-03-14 16:27:40:908,0,-15.2251,-5.78864,67.0444,Q,Q
2023-03-14 16:27:40:918,0,-15.2322,-5.7942,67.0502,Q,Q
2023-03-14 16:27:40:928,0,-15.2354,-5.7988,67.053,Q,Q
2023-03-14 16:27:40:938,0,-15.2404,-5.8018,67.0619,Q,Q
2023-03-14 16:27:40:948,0,-15.2453,-5.80778,67.0687,Q,Q
2023-03-14 16:27:40:958,0,-15.2489,-5.81335,67.0757,Q,Q
2023-03-14 16:27:40:968,0,-15.2568,-5.8227,67.0815,Q,Q
2023-03-14 16:27:40:978,0,-15.2625,-5.82865,67.0871,Q,Q
2023-03-14 16:27:40:988,0,-15.2726,-5.83716,67.0967,Q,Q
2023-03-14 16:27:40:998,0,-15.289,-5.84274,67.1051,Q,Q
2023-03-14 16:27:41:8,0,-15.3015,-5.84936,67.1069,Q,Q
2023-03-14 16:27:41:18,0,-15.3124,-5.85954,67.1105,Q,Q
2023-03-14 16:27:41:28,0,-15.3209,-5.87321,67.1116,Q,Q
2023-03-14 16:27:41:38,0,-15.3243,-5.88725,67.1164,Q,Q
2023-03-14 16:27:41:48,0,-15.3303,-5.90182,67.12,Q,Q
2023-03-14 16:27:41:58,0,-15.342,-5.91609,67.1254,Q,Q
2023-03-14 16:27:41:68,0,-15.3563,-5.92983,67.1364,Q,Q
2023-03-14 16:27:41:78,0,-15.3742,-5.93987,67.1476,Q,Q
2023-03-14 16:27:41:88,0,-15.3889,-5.94662,67.1609,Q,Q
2023-03-14 16:27:41:98,0,-15.4015,-5.9494,67.1764,Q,Q
2023-03-14 16:27:41:108,0,-15.4059,-5.94828,67.1928,Q,Q
2023-03-14 16:27:41:118,0,-15.411,-5.9487,67.2064,Q,Q
2023-03-14 16:27:41:128,0,-15.4196,-5.94815,67.217,Q,Q
2023-03-14 16:27:41:138,0,-15.4293,-5.93738,67.2221,Q,Q
2023-03-14 16:27:41:148,0,-15.4401,-5.93125,67.2253,Q,Q
2023-03-14 16:27:41:158,0,-15.4533,-5.92828,67.2266,Q,Q
2023-03-14 16:27:41:168,0,-15.4659,-5.92285,67.2197,Q,Q
2023-03-14 16:27:41:178,0,-15.4767,-5.91975,67.2108,Q,Q
2023-03-14 16:27:41:188,0,-15.4922,-5.91824,67.1982,Q,Q
2023-03-14 16:27:41:198,0,-15.5104,-5.91292,67.1865,Q,Q
2023-03-14 16:27:41:208,0,-15.5329,-5.9123,67.1713,Q,Q
2023-03-14 16:27:41:218,0,-15.5481,-5.91354,67.1564,Q,Q
2023-03-14 16:27:41:228,0,-15.5636,-5.91063,67.1452,Q,Q
2023-03-14 16:27:41:238,0,-15.5741,-5.90825,67.1316,Q,Q
2023-03-14 16:27:41:248,0,-15.5817,-5.90058,67.1189,Q,Q
2023-03-14 16:27:41:258,0,-15.5884,-5.89204,67.107,Q,Q
2023-03-14 16:27:41:268,0,-15.5906,-5.88562,67.099,Q,Q
2023-03-14 16:27:41:278,0,-15.5911,-5.88398,67.0907,Q,Q
2023-03-14 16:27:41:288,0,-15.5912,-5.88001,67.0833,Q,Q
2023-03-14 16:27:41:298,0,-15.5908,-5.87956,67.0814,Q,Q
2023-03-14 16:27:41:308,0,-15.5915,-5.87726,67.0785,Q,Q
2023-03-14 16:27:41:318,0,-15.5918,-5.87272,67.0782,Q,Q
2023-03-14 16:27:41:328,0,-15.5888,-5.86576,67.0773,Q,Q
2023-03-14 16:27:41:338,0,-15.5843,-5.85705,67.0784,Q,Q
2023-03-14 16:27:41:348,0,-15.5818,-5.84848,67.082,Q,Q
2023-03-14 16:27:41:358,0,-15.579,-5.83777,67.0904,Q,Q
2023-03-14 16:27:41:368,0,-15.5741,-5.82955,67.0911,Q,Q
2023-03-14 16:27:41:378,0,-15.5708,-5.82006,67.0913,Q,Q
2023-03-14 16:27:41:388,0,-15.5668,-5.81271,67.0916,Q,Q
2023-03-14 16:27:41:398,0,-15.5583,-5.80649,67.0895,Q,Q
2023-03-14 16:27:41:408,0,-15.5502,-5.80034,67.0884,Q,Q
2023-03-14 16:27:41:418,0,-15.5402,-5.7986,67.0876,Q,Q
2023-03-14 16:27:41:428,0,-15.5305,-5.79727,67.0811,Q,Q
2023-03-14 16:27:41:438,0,-15.5227,-5.79946,67.0775,Q,Q
2023-03-14 16:27:41:448,0,-15.5152,-5.80276,67.0738,Q,Q
2023-03-14 16:27:41:458,0,-15.5099,-5.80622,67.0739,Q,Q
2023-03-14 16:27:41:468,0,-15.5082,-5.80586,67.076,Q,Q
2023-03-14 16:27:41:478,0,-15.5121,-5.80773,67.0786,Q,Q
2023-03-14 16:27:41:488,0,-15.515,-5.8072,67.0808,Q,Q
2023-03-14 16:27:41:498,0,-15.5207,-5.80419,67.0843,Q,Q
2023-03-14 16:27:41:508,0,-15.5267,-5.8011,67.09,Q,Q
2023-03-14 16:27:41:518,0,-15.5269,-5.79943,67.0966,Q,Q
2023-03-14 16:27:41:528,0,-15.5323,-5.79869,67.1025,Q,Q
2023-03-14 16:27:41:538,0,-15.5337,-5.79498,67.1119,Q,Q
2023-03-14 16:27:41:548,0,-15.5409,-5.79044,67.1194,Q,Q
2023-03-14 16:27:41:558,0,-15.5468,-5.78186,67.1244,Q,Q
2023-03-14 16:27:41:568,0,-15.5521,-5.77716,67.1306,Q,Q
2023-03-14 16:27:41:578,0,-15.5588,-5.77142,67.1312,Q,Q
2023-03-14 16:27:41:588,0,-15.57,-5.76917,67.13,Q,Q
2023-03-14 16:27:41:598,0,-15.5758,-5.76467,67.1279,Q,QQ
2023-03-14 16:27:41:607,0,-15.5816,-5.76097,67.1252,Q,QQ
2023-03-14 16:27:41:617,0,-15.5839,-5.7591,67.1209,Q,QQ
2023-03-14 16:27:41:628,0,-15.5865,-5.75705,67.1177,Q,QQ
2023-03-14 16:27:41:638,0,-15.5863,-5.75727,67.1178,Q,Q
2023-03-14 16:27:41:648,0,-15.5881,-5.7594,67.1208,Q,Q
2023-03-14 16:27:41:658,0,-15.5878,-5.76022,67.1222,Q,Q
2023-03-14 16:27:41:668,0,-15.5928,-5.76446,67.1306,Q,Q
2023-03-14 16:27:41:677,0,-15.5968,-5.76607,67.1434,Q,Q
2023-03-14 16:27:41:688,0,-15.598,-5.77129,67.1614,Q,Q
2023-03-14 16:27:41:698,0,-15.5976,-5.77354,67.185,Q,Q
2023-03-14 16:27:41:708,0,-15.5984,-5.77739,67.2075,Q,Q
2023-03-14 16:27:41:718,0,-15.5985,-5.77927,67.2292,Q,Q
2023-03-14 16:27:41:728,0,-15.5972,-5.78345,67.2503,Q,Q
2023-03-14 16:27:41:738,0,-15.596,-5.78515,67.2697,Q,Q
2023-03-14 16:27:41:748,0,-15.5914,-5.78592,67.2895,Q,Q
2023-03-14 16:27:41:758,0,-15.596,-5.78748,67.3087,Q,Q
2023-03-14 16:27:41:768,0,-15.6086,-5.78767,67.3224,Q,Q
2023-03-14 16:27:41:778,0,-15.6249,-5.79003,67.3367,Q,Q
2023-03-14 16:27:41:788,0,-15.6318,-5.79175,67.3437,Q,Q
2023-03-14 16:27:41:798,0,-15.6276,-5.79527,67.3503,Q,Q
2023-03-14 16:27:41:808,0,-15.629,-5.79987,67.3529,Q,Q
2023-03-14 16:27:41:818,0,-15.6366,-5.80452,67.3628,Q,Q
2023-03-14 16:27:41:828,0,-15.6444,-5.81595,67.3726,Q,Q
2023-03-14 16:27:41:838,0,-15.6475,-5.82476,67.3846,Q,Q
2023-03-14 16:27:41:848,0,-15.6504,-5.83699,67.3999,Q,Q
2023-03-14 16:27:41:858,0,-15.6597,-5.84641,67.4156,Q,Q
2023-03-14 16:27:41:868,0,-15.6721,-5.85378,67.4334,Q,Q
2023-03-14 16:27:41:878,0,-15.685,-5.86212,67.4535,Q,Q
2023-03-14 16:27:41:888,0,-15.6954,-5.87261,67.4731,Q,Q
2023-03-14 16:27:41:898,0,-15.7068,-5.87685,67.4934,Q,Q
2023-03-14 16:27:41:908,0,-15.7142,-5.882,67.5137,Q,Q
2023-03-14 16:27:41:918,0,-15.7229,-5.88381,67.5302,Q,Q
2023-03-14 16:27:41:928,0,-15.7261,-5.88506,67.5426,Q,Q
2023-03-14 16:27:41:938,0,-15.7312,-5.88635,67.5498,Q,Q
2023-03-14 16:27:41:948,0,-15.7326,-5.88412,67.5538,Q,Q
2023-03-14 16:27:41:958,0,-15.7374,-5.88352,67.5568,Q,Q
2023-03-14 16:27:41:968,0,-15.7448,-5.88288,67.553,Q,Q
2023-03-14 16:27:41:978,0,-15.7537,-5.88152,67.5488,Q,Q
2023-03-14 16:27:41:988,0,-15.7673,-5.87683,67.5412,Q,Q
2023-03-14 16:27:41:998,0,-15.7823,-5.87435,67.5298,Q,Q
2023-03-14 16:27:42:8,0,-15.7915,-5.874,67.5241,Q,Q
2023-03-14 16:27:42:18,0,-15.8025,-5.87184,67.517,Q,Q
2023-03-14 16:27:42:28,0,-15.8056,-5.86419,67.5092,Q,Q
2023-03-14 16:27:42:38,0,-15.8006,-5.85061,67.4976,Q,Q
2023-03-14 16:27:42:48,0,-15.7951,-5.83953,67.4864,Q,Q
2023-03-14 16:27:42:58,0,-15.7841,-5.8332,67.4739,Q,Q
2023-03-14 16:27:42:68,0,-15.7688,-5.82831,67.4644,Q,Q
2023-03-14 16:27:42:78,0,-15.7562,-5.82497,67.4558,Q,Q
2023-03-14 16:27:42:88,0,-15.7456,-5.82189,67.4461,Q,Q
2023-03-14 16:27:42:98,0,-15.735,-5.81496,67.4346,Q,Q
2023-03-14 16:27:42:108,0,-15.7275,-5.81075,67.4231,Q,Q
2023-03-14 16:27:42:118,0,-15.7219,-5.80111,67.4154,Q,Q
2023-03-14 16:27:42:128,0,-15.713,-5.79308,67.4093,Q,Q
2023-03-14 16:27:42:138,0,-15.7056,-5.78316,67.4029,Q,Q
2023-03-14 16:27:42:148,0,-15.7002,-5.7768,67.3963,Q,Q
2023-03-14 16:27:42:158,0,-15.6953,-5.77271,67.3941,Q,Q
2023-03-14 16:27:42:168,0,-15.6863,-5.76642,67.3918,Q,Q
2023-03-14 16:27:42:178,0,-15.6747,-5.76537,67.3896,Q,Q
2023-03-14 16:27:42:188,0,-15.6647,-5.76861,67.3879,Q,Q
2023-03-14 16:27:42:198,0,-15.6584,-5.76702,67.3871,Q,Q
2023-03-14 16:27:42:208,0,-15.6464,-5.76397,67.3875,Q,Q
2023-03-14 16:27:42:218,0,-15.6375,-5.76713,67.3859,Q,Q
2023-03-14 16:27:42:228,0,-15.6323,-5.77057,67.384,Q,Q
2023-03-14 16:27:42:238,0,-15.6271,-5.77589,67.3854,Q,Q
2023-03-14 16:27:42:248,0,-15.6239,-5.78262,67.3853,Q,Q
2023-03-14 16:27:42:258,0,-15.6225,-5.78516,67.3855,Q,Q
2023-03-14 16:27:42:268,0,-15.6198,-5.78588,67.3868,Q,Q
2023-03-14 16:27:42:278,0,-15.6233,-5.78731,67.3916,Q,Q
2023-03-14 16:27:42:288,0,-15.6271,-5.79016,67.3937,Q,Q
2023-03-14 16:27:42:298,0,-15.6318,-5.79145,67.3969,Q,Q
2023-03-14 16:27:42:308,0,-15.6343,-5.78978,67.3995,Q,Q
2023-03-14 16:27:42:318,0,-15.6356,-5.78815,67.4013,Q,Q
2023-03-14 16:27:42:328,0,-15.6345,-5.78846,67.403,Q,Q
2023-03-14 16:27:42:338,0,-15.6339,-5.78615,67.399,Q,Q
2023-03-14 16:27:42:348,0,-15.6348,-5.7835,67.3945,Q,Q
2023-03-14 16:27:42:358,0,-15.6372,-5.78311,67.3888,Q,Q
2023-03-14 16:27:42:368,0,-15.6428,-5.78393,67.3777,Q,Q
2023-03-14 16:27:42:378,0,-15.6459,-5.78247,67.3674,Q,Q
2023-03-14 16:27:42:388,0,-15.6456,-5.77928,67.3554,Q,Q
2023-03-14 16:27:42:398,0,-15.6492,-5.77831,67.3452,Q,Q
2023-03-14 16:27:42:408,0,-15.6528,-5.77798,67.3322,Q,Q
2023-03-14 16:27:42:418,0,-15.6567,-5.77835,67.3195,Q,Q
2023-03-14 16:27:42:428,0,-15.6616,-5.77652,67.3049,Q,Q
2023-03-14 16:27:42:438,0,-15.6667,-5.77189,67.2929,Q,Q
2023-03-14 16:27:42:448,0,-15.6695,-5.76965,67.2806,Q,Q
2023-03-14 16:27:42:458,0,-15.6717,-5.76796,67.2705,Q,Q
2023-03-14 16:27:42:468,0,-15.6724,-5.77084,67.2617,Q,Q
2023-03-14 16:27:42:478,0,-15.6708,-5.77181,67.2534,Q,Q
2023-03-14 16:27:42:488,0,-15.6705,-5.77477,67.2478,Q,Q
2023-03-14 16:27:42:498,0,-15.6739,-5.77495,67.2427,Q,Q
2023-03-14 16:27:42:508,0,-15.6748,-5.777,67.2378,Q,Q
2023-03-14 16:27:42:518,0,-15.6785,-5.78103,67.2308,Q,Q
2023-03-14 16:27:42:528,0,-15.6834,-5.7838,67.2299,Q,Q
2023-03-14 16:27:42:538,0,-15.6922,-5.78834,67.2242,Q,Q
2023-03-14 16:27:42:548,0,-15.7002,-5.79175,67.2203,Q,Q
2023-03-14 16:27:42:558,0,-15.6995,-5.7929,67.2112,Q,Q
2023-03-14 16:27:42:568,0,-15.7006,-5.79498,67.2026,Q,Q
2023-03-14 16:27:42:578,0,-15.7106,-5.79618,67.1953,Q,Q
2023-03-14 16:27:42:588,0,-15.7141,-5.79671,67.1825,Q,Q
2023-03-14 16:27:42:598,0,-15.7144,-5.80106,67.1664,Q,Q
2023-03-14 16:27:42:608,0,-15.7072,-5.80702,67.1552,Q,Q
2023-03-14 16:27:42:618,0,-15.7054,-5.81363,67.1425,Q,Q
2023-03-14 16:27:42:628,0,-15.7045,-5.82097,67.1318,Q,Q
2023-03-14 16:27:42:638,0,-15.7061,-5.82907,67.1264,Q,Q
2023-03-14 16:27:42:648,0,-15.7033,-5.8382,67.12,Q,Q
2023-03-14 16:27:42:658,0,-15.7004,-5.84612,67.1121,Q,Q
2023-03-14 16:27:42:668,0,-15.6954,-5.85259,67.1037,Q,Q
2023-03-14 16:27:42:678,0,-15.6948,-5.85548,67.0962,Q,Q
2023-03-14 16:27:42:688,0,-15.692,-5.8637,67.0892,Q,Q
2023-03-14 16:27:42:698,0,-15.6885,-5.86657,67.0827,Q,Q
2023-03-14 16:27:42:708,0,-15.6835,-5.86965,67.075,Q,Q
2023-03-14 16:27:42:718,0,-15.6848,-5.87352,67.0658,Q,Q
2023-03-14 16:27:42:728,0,-15.6895,-5.87761,67.0583,Q,Q
2023-03-14 16:27:42:738,0,-15.6945,-5.88191,67.0529,Q,Q
2023-03-14 16:27:42:748,0,-15.7006,-5.88781,67.0462,Q,Q
2023-03-14 16:27:42:758,0,-15.71,-5.88919,67.0355,Q,Q
2023-03-14 16:27:42:768,0,-15.7221,-5.88917,67.0282,Q,Q
2023-03-14 16:27:42:778,0,-15.7297,-5.885,67.0164,Q,Q
2023-03-14 16:27:42:788,0,-15.7347,-5.88188,67.0058,Q,Q
2023-03-14 16:27:42:798,0,-15.7389,-5.87837,66.9931,Q,Q
2023-03-14 16:27:42:808,0,-15.7474,-5.87648,66.9817,Q,Q
2023-03-14 16:27:42:818,0,-15.7547,-5.87195,66.9702,Q,Q
2023-03-14 16:27:42:828,0,-15.757,-5.87089,66.9592,Q,Q
2023-03-14 16:27:42:838,0,-15.752,-5.87414,66.9487,Q,Q
2023-03-14 16:27:42:848,0,-15.7429,-5.88001,66.9447,Q,Q
2023-03-14 16:27:42:858,0,-15.7342,-5.88557,66.9455,Q,Q
2023-03-14 16:27:42:868,0,-15.7257,-5.89235,66.9475,Q,Q
2023-03-14 16:27:42:878,0,-15.7177,-5.90108,66.9487,Q,Q
2023-03-14 16:27:42:888,0,-15.7133,-5.90262,66.945,Q,Q
2023-03-14 16:27:42:898,0,-15.7125,-5.90585,66.9512,Q,Q
2023-03-14 16:27:42:908,0,-15.7093,-5.90664,66.955,Q,Q
2023-03-14 16:27:42:918,0,-15.708,-5.90685,66.9614,Q,Q
2023-03-14 16:27:42:928,0,-15.7028,-5.90693,66.9664,Q,Q
2023-03-14 16:27:42:938,0,-15.6973,-5.90766,66.9714,Q,Q
2023-03-14 16:27:42:948,0,-15.6966,-5.91037,66.9749,Q,Q
2023-03-14 16:27:42:958,0,-15.6956,-5.90844,66.9747,Q,Q
2023-03-14 16:27:42:968,0,-15.6919,-5.91144,66.977,Q,Q
2023-03-14 16:27:42:978,0,-15.6879,-5.91582,66.9757,Q,Q
2023-03-14 16:27:42:988,0,-15.6794,-5.91478,66.9697,Q,Q
2023-03-14 16:27:42:998,0,-15.671,-5.91494,66.9651,Q,Q
2023-03-14 16:27:43:8,0,-15.6647,-5.91473,66.9571,Q,Q
2023-03-14 16:27:43:18,0,-15.6572,-5.91656,66.9504,Q,Q
2023-03-14 16:27:43:28,0,-15.6506,-5.91936,66.9422,Q,Q
2023-03-14 16:27:43:38,0,-15.6454,-5.91777,66.9359,Q,Q
2023-03-14 16:27:43:48,0,-15.6436,-5.91745,66.9303,Q,Q
2023-03-14 16:27:43:58,0,-15.6401,-5.91539,66.9254,Q,Q
2023-03-14 16:27:43:68,0,-15.6365,-5.91602,66.924,Q,Q
2023-03-14 16:27:43:78,0,-15.6361,-5.9154,66.9225,Q,Q
2023-03-14 16:27:43:88,0,-15.6348,-5.91302,66.9201,Q,Q
2023-03-14 16:27:43:98,0,-15.6336,-5.91031,66.9207,Q,Q
2023-03-14 16:27:43:108,0,-15.63,-5.90761,66.9194,Q,Q
2023-03-14 16:27:43:118,0,-15.6236,-5.90064,66.9165,Q,Q
2023-03-14 16:27:43:128,0,-15.6157,-5.89228,66.9128,Q,Q
2023-03-14 16:27:43:138,0,-15.6081,-5.88525,66.9104,Q,Q
2023-03-14 16:27:43:148,0,-15.6015,-5.88097,66.9075,Q,Q
2023-03-14 16:27:43:158,0,-15.5967,-5.87911,66.9047,Q,Q
2023-03-14 16:27:43:168,0,-15.5943,-5.87488,66.9019,Q,Q
2023-03-14 16:27:43:178,0,-15.5974,-5.87335,66.8993,Q,Q
2023-03-14 16:27:43:188,0,-15.5977,-5.87193,66.8933,Q,Q
2023-03-14 16:27:43:198,0,-15.6018,-5.86963,66.8887,Q,Q
2023-03-14 16:27:43:208,0,-15.6029,-5.86585,66.8848,Q,Q
2023-03-14 16:27:43:218,0,-15.5977,-5.86593,66.8788,Q,Q
2023-03-14 16:27:43:228,0,-15.5967,-5.86645,66.8744,Q,Q
2023-03-14 16:27:43:238,0,-15.5938,-5.8648,66.8727,Q,Q
2023-03-14 16:27:43:248,0,-15.5905,-5.8642,66.8702,Q,Q
2023-03-14 16:27:43:258,0,-15.5892,-5.86421,66.8681,Q,Q
2023-03-14 16:27:43:268,0,-15.5869,-5.86218,66.8686,Q,Q
2023-03-14 16:27:43:278,0,-15.5867,-5.86252,66.8709,Q,Q
2023-03-14 16:27:43:288,0,-15.5826,-5.86364,66.8752,Q,Q
2023-03-14 16:27:43:298,0,-15.5801,-5.86368,66.8777,Q,Q
2023-03-14 16:27:43:308,0,-15.58,-5.86388,66.879,Q,Q
2023-03-14 16:27:43:318,0,-15.5793,-5.86208,66.8828,Q,Q
2023-03-14 16:27:43:328,0,-15.5836,-5.86357,66.8833,Q,Q
2023-03-14 16:27:43:338,0,-15.584,-5.8648,66.8845,Q,Q
2023-03-14 16:27:43:348,0,-15.5875,-5.86172,66.8863,Q,Q
2023-03-14 16:27:43:358,0,-15.5864,-5.86132,66.8829,Q,Q
2023-03-14 16:27:43:368,0,-15.5858,-5.85897,66.88,Q,Q
2023-03-14 16:27:43:378,0,-15.5868,-5.8571,66.8748,Q,Q
2023-03-14 16:27:43:388,0,-15.5815,-5.85953,66.8696,Q,Q
2023-03-14 16:27:43:398,0,-15.5704,-5.86291,66.8638,Q,Q
2023-03-14 16:27:43:408,0,-15.5605,-5.87027,66.8611,Q,Q
2023-03-14 16:27:43:418,0,-15.5518,-5.87572,66.8646,Q,Q
2023-03-14 16:27:43:428,0,-15.5449,-5.87748,66.8688,Q,Q
2023-03-14 16:27:43:438,0,-15.54,-5.88049,66.8717,Q,Q
2023-03-14 16:27:43:448,0,-15.5374,-5.88442,66.8787,Q,Q
2023-03-14 16:27:43:458,0,-15.5407,-5.88635,66.8837,Q,Q
2023-03-14 16:27:43:468,0,-15.5397,-5.8882,66.8975,Q,Q
2023-03-14 16:27:43:478,0,-15.5394,-5.8905,66.9063,Q,Q
2023-03-14 16:27:43:488,0,-15.5354,-5.89148,66.9166,Q,Q
2023-03-14 16:27:43:498,0,-15.5329,-5.89304,66.9259,Q,Q
2023-03-14 16:27:43:508,0,-15.5315,-5.89506,66.9315,Q,Q
2023-03-14 16:27:43:518,0,-15.5312,-5.89333,66.9353,Q,Q
2023-03-14 16:27:43:528,0,-15.5275,-5.89254,66.9314,Q,Q
2023-03-14 16:27:43:538,0,-15.5257,-5.8903,66.9294,Q,Q
2023-03-14 16:27:43:548,0,-15.5238,-5.89056,66.9248,Q,Q
2023-03-14 16:27:43:558,0,-15.5215,-5.8887,66.9199,Q,Q
2023-03-14 16:27:43:568,0,-15.5231,-5.88681,66.9091,Q,Q
2023-03-14 16:27:43:578,0,-15.5229,-5.88995,66.9011,Q,Q
2023-03-14 16:27:43:588,0,-15.5228,-5.89054,66.8914,Q,Q
2023-03-14 16:27:43:598,0,-15.522,-5.88923,66.8836,Q,Q
2023-03-14 16:27:43:608,0,-15.5149,-5.88638,66.8792,Q,Q
2023-03-14 16:27:43:618,0,-15.5026,-5.88086,66.8692,Q,Q
2023-03-14 16:27:43:628,0,-15.491,-5.87613,66.861,Q,Q
2023-03-14 16:27:43:638,0,-15.4756,-5.87555,66.8544,Q,Q
2023-03-14 16:27:43:648,0,-15.4583,-5.87465,66.8545,Q,Q
2023-03-14 16:27:43:658,0,-15.4436,-5.87349,66.8518,Q,Q
2023-03-14 16:27:43:668,0,-15.4276,-5.87256,66.8522,Q,Q
2023-03-14 16:27:43:678,0,-15.4142,-5.8706,66.8479,Q,Q
2023-03-14 16:27:43:688,0,-15.4034,-5.86521,66.8437,Q,Q
2023-03-14 16:27:43:698,0,-15.3955,-5.86139,66.8419,Q,Q
2023-03-14 16:27:43:708,0,-15.3894,-5.85915,66.8421,Q,Q
2023-03-14 16:27:43:718,0,-15.3819,-5.86039,66.8421,Q,Q
2023-03-14 16:27:43:728,0,-15.366,-5.86332,66.8373,Q,Q
2023-03-14 16:27:43:738,0,-15.3513,-5.86445,66.8328,Q,Q
2023-03-14 16:27:43:748,0,-15.3348,-5.86559,66.8287,Q,Q
2023-03-14 16:27:43:758,0,-15.3232,-5.87158,66.8258,Q,Q
2023-03-14 16:27:43:768,0,-15.3149,-5.87562,66.8248,Q,Q
2023-03-14 16:27:43:778,0,-15.3064,-5.88153,66.8251,Q,Q
2023-03-14 16:27:43:788,0,-15.2947,-5.8856,66.8257,Q,Q
2023-03-14 16:27:43:798,0,-15.2831,-5.88898,66.8266,Q,Q
2023-03-14 16:27:43:808,0,-15.273,-5.89362,66.8274,Q,Q
2023-03-14 16:27:43:818,0,-15.2714,-5.90048,66.8307,Q,Q
2023-03-14 16:27:43:828,0,-15.2723,-5.90368,66.8345,Q,Q
2023-03-14 16:27:43:838,0,-15.2791,-5.90683,66.8392,Q,Q
2023-03-14 16:27:43:848,0,-15.2883,-5.90853,66.8475,Q,Q
2023-03-14 16:27:43:858,0,-15.296,-5.91228,66.853,Q,Q
2023-03-14 16:27:43:868,0,-15.3015,-5.91194,66.8559,Q,Q
2023-03-14 16:27:43:878,0,-15.306,-5.91335,66.8624,Q,Q
2023-03-14 16:27:43:888,0,-15.3121,-5.90841,66.8666,Q,Q
2023-03-14 16:27:43:898,0,-15.3156,-5.90699,66.8713,Q,Q
2023-03-14 16:27:43:908,0,-15.3167,-5.9039,66.8711,Q,Q
2023-03-14 16:27:43:918,0,-15.3221,-5.90317,66.8692,Q,Q
2023-03-14 16:27:43:928,0,-15.3215,-5.90368,66.8648,Q,Q
2023-03-14 16:27:43:938,0,-15.3186,-5.90197,66.8626,Q,Q
2023-03-14 16:27:43:948,0,-15.3174,-5.90026,66.8544,Q,Q
2023-03-14 16:27:43:958,0,-15.3195,-5.8983,66.8435,Q,Q
2023-03-14 16:27:43:968,0,-15.3229,-5.89271,66.8351,Q,Q
2023-03-14 16:27:43:978,0,-15.326,-5.88775,66.8263,Q,Q
2023-03-14 16:27:43:988,0,-15.3325,-5.88446,66.8199,Q,Q
2023-03-14 16:27:43:998,0,-15.3379,-5.88057,66.8144,Q,Q
2023-03-14 16:27:44:8,0,-15.3417,-5.87801,66.8091,Q,Q
2023-03-14 16:27:44:18,0,-15.3407,-5.87553,66.8055,Q,Q
2023-03-14 16:27:44:28,0,-15.3363,-5.87389,66.8005,Q,Q
2023-03-14 16:27:44:38,0,-15.3311,-5.87355,66.796,Q,Q
2023-03-14 16:27:44:48,0,-15.3255,-5.86945,66.792,Q,Q
2023-03-14 16:27:44:58,0,-15.3235,-5.87028,66.7901,Q,Q
2023-03-14 16:27:44:68,0,-15.3183,-5.87175,66.7877,Q,Q
2023-03-14 16:27:44:78,0,-15.3132,-5.87194,66.7845,Q,Q
2023-03-14 16:27:44:88,0,-15.3119,-5.87221,66.7819,Q,Q
2023-03-14 16:27:44:98,0,-15.3139,-5.8696,66.7802,Q,Q
2023-03-14 16:27:44:108,0,-15.3098,-5.86802,66.7815,Q,Q
2023-03-14 16:27:44:118,0,-15.3048,-5.86607,66.7828,Q,Q
2023-03-14 16:27:44:128,0,-15.2992,-5.86636,66.7817,Q,Q
2023-03-14 16:27:44:138,0,-15.3015,-5.86461,66.7834,Q,Q
2023-03-14 16:27:44:148,0,-15.3074,-5.85961,66.7868,Q,Q
2023-03-14 16:27:44:158,0,-15.3264,-5.85652,66.7874,Q,Q
2023-03-14 16:27:44:168,0,-15.3433,-5.85451,66.7918,Q,Q
2023-03-14 16:27:44:178,0,-15.3506,-5.85511,66.7965,Q,Q
2023-03-14 16:27:44:188,0,-15.3621,-5.84673,66.7975,Q,Q
2023-03-14 16:27:44:198,0,-15.373,-5.84247,66.7984,Q,Q
2023-03-14 16:27:44:208,0,-15.3725,-5.84405,66.8015,Q,Q
2023-03-14 16:27:44:218,0,-15.3562,-5.85134,66.8021,Q,Q
2023-03-14 16:27:44:228,0,-15.3372,-5.86269,66.8066,Q,Q
2023-03-14 16:27:44:238,0,-15.3264,-5.87167,66.8164,Q,Q
2023-03-14 16:27:44:248,0,-15.3347,-5.87456,66.8282,Q,Q
2023-03-14 16:27:44:258,0,-15.3622,-5.8719,66.8447,Q,Q
2023-03-14 16:27:44:268,0,-15.3987,-5.86741,66.8578,Q,Q
2023-03-14 16:27:44:278,0,-15.4301,-5.86792,66.8721,Q,Q
2023-03-14 16:27:44:288,0,-15.4538,-5.87187,66.8857,Q,Q
2023-03-14 16:27:44:298,0,-15.4669,-5.87959,66.8924,Q,Q
2023-03-14 16:27:44:308,0,-15.4918,-5.89067,66.8976,Q,Q
2023-03-14 16:27:44:318,0,-15.5245,-5.89371,66.897,Q,Q
2023-03-14 16:27:44:328,0,-15.5359,-5.89787,66.8844,Q,Q
2023-03-14 16:27:44:338,0,-15.503,-5.90324,66.8632,Q,Q
2023-03-14 16:27:44:348,0,-15.4442,-5.90426,66.8374,Q,Q
2023-03-14 16:27:44:358,0,-15.384,-5.90221,66.8089,Q,Q
2023-03-14 16:27:44:368,0,-15.3422,-5.892,66.7851,Q,Q
2023-03-14 16:27:44:378,0,-15.3237,-5.88292,66.7712,Q,Q
2023-03-14 16:27:44:388,0,-15.3277,-5.8757,66.7627,Q,Q
2023-03-14 16:27:44:398,0,-15.3373,-5.87291,66.7516,Q,Q
2023-03-14 16:27:44:408,0,-15.3424,-5.86727,66.743,Q,Q
2023-03-14 16:27:44:418,0,-15.3396,-5.8641,66.7406,Q,Q
2023-03-14 16:27:44:428,0,-15.3319,-5.85663,66.7392,Q,Q
2023-03-14 16:27:44:438,0,-15.3223,-5.85203,66.7389,Q,Q
2023-03-14 16:27:44:448,0,-15.3202,-5.84911,66.7379,Q,Q
2023-03-14 16:27:44:458,0,-15.3182,-5.84419,66.7361,Q,Q
2023-03-14 16:27:44:468,0,-15.3089,-5.84213,66.7326,Q,Q
2023-03-14 16:27:44:478,0,-15.299,-5.84353,66.7329,Q,Q
2023-03-14 16:27:44:488,0,-15.2849,-5.84532,66.7323,Q,Q
2023-03-14 16:27:44:498,0,-15.2708,-5.84159,66.7337,Q,Q
2023-03-14 16:27:44:508,0,-15.2601,-5.84095,66.735,Q,Q
2023-03-14 16:27:44:518,0,-15.256,-5.83974,66.7329,Q,Q
2023-03-14 16:27:44:528,0,-15.2583,-5.84115,66.7313,Q,Q
2023-03-14 16:27:44:538,0,-15.2592,-5.84307,66.7309,Q,Q
2023-03-14 16:27:44:548,0,-15.2574,-5.84621,66.7308,Q,Q
2023-03-14 16:27:44:558,0,-15.2562,-5.85148,66.733,Q,Q
2023-03-14 16:27:44:568,0,-15.2559,-5.85945,66.7367,Q,Q
2023-03-14 16:27:44:578,0,-15.2604,-5.86291,66.7389,Q,Q
2023-03-14 16:27:44:588,0,-15.262,-5.86624,66.7414,Q,Q
2023-03-14 16:27:44:598,0,-15.2612,-5.86371,66.745,Q,Q
2023-03-14 16:27:44:608,0,-15.2629,-5.85675,66.7545,Q,Q
2023-03-14 16:27:44:618,0,-15.2832,-5.8524,66.7705,Q,Q
2023-03-14 16:27:44:628,0,-15.3046,-5.85361,66.7816,Q,Q
2023-03-14 16:27:44:638,0,-15.3222,-5.86316,66.7878,Q,Q
2023-03-14 16:27:44:648,0,-15.3298,-5.87031,66.786,Q,Q
2023-03-14 16:27:44:658,0,-15.3354,-5.87379,66.7809,Q,Q
2023-03-14 16:27:44:668,0,-15.3426,-5.87763,66.7741,Q,Q
2023-03-14 16:27:44:678,0,-15.3485,-5.87614,66.7655,Q,Q
2023-03-14 16:27:44:688,0,-15.3455,-5.87651,66.7553,Q,Q
2023-03-14 16:27:44:698,0,-15.3379,-5.87603,66.7437,Q,Q
2023-03-14 16:27:44:708,0,-15.3198,-5.8764,66.7341,Q,Q
2023-03-14 16:27:44:718,0,-15.2925,-5.87372,66.7257,Q,Q
2023-03-14 16:27:44:728,0,-15.2603,-5.86648,66.7198,Q,Q
2023-03-14 16:27:44:738,0,-15.2335,-5.85598,66.7129,Q,Q
2023-03-14 16:27:44:748,0,-15.2221,-5.84399,66.7107,Q,Q
2023-03-14 16:27:44:758,0,-15.2195,-5.82658,66.709,Q,Q
2023-03-14 16:27:44:768,0,-15.2169,-5.81066,66.7059,Q,Q
2023-03-14 16:27:44:778,0,-15.2129,-5.8001,66.7045,Q,Q
2023-03-14 16:27:44:788,0,-15.2113,-5.79025,66.7025,Q,Q
2023-03-14 16:27:44:798,0,-15.2125,-5.77542,66.6991,Q,Q
2023-03-14 16:27:44:808,0,-15.2158,-5.7642,66.695,Q,Q
2023-03-14 16:27:44:818,0,-15.2221,-5.75632,66.6959,Q,Q
2023-03-14 16:27:44:828,0,-15.2244,-5.75001,66.6931,Q,Q
2023-03-14 16:27:44:838,0,-15.2282,-5.74643,66.6883,Q,Q
2023-03-14 16:27:44:848,0,-15.2312,-5.73877,66.6848,Q,Q
2023-03-14 16:27:44:858,0,-15.2368,-5.73449,66.6872,Q,Q
2023-03-14 16:27:44:868,0,-15.2407,-5.7331,66.6843,Q,Q
2023-03-14 16:27:44:878,0,-15.2425,-5.73772,66.6845,Q,Q
2023-03-14 16:27:44:888,0,-15.2386,-5.73972,66.6835,Q,Q
2023-03-14 16:27:44:898,0,-15.238,-5.74327,66.6863,Q,Q
2023-03-14 16:27:44:908,0,-15.2397,-5.74777,66.6841,Q,Q
2023-03-14 16:27:44:918,0,-15.2414,-5.75166,66.6842,Q,Q
2023-03-14 16:27:44:928,0,-15.2457,-5.75652,66.6849,Q,Q
2023-03-14 16:27:44:938,0,-15.2563,-5.76024,66.6869,Q,Q
2023-03-14 16:27:44:948,0,-15.2644,-5.75972,66.6891,Q,Q
2023-03-14 16:27:44:958,0,-15.2663,-5.7635,66.691,Q,Q
2023-03-14 16:27:44:968,0,-15.267,-5.76441,66.6934,Q,Q
2023-03-14 16:27:44:978,0,-15.2692,-5.76124,66.6992,Q,Q
2023-03-14 16:27:44:988,0,-15.2713,-5.75451,66.7033,Q,Q
2023-03-14 16:27:44:998,0,-15.2689,-5.75019,66.7089,Q,Q
2023-03-14 16:27:45:8,0,-15.2626,-5.74263,66.7131,Q,Q
2023-03-14 16:27:45:18,0,-15.2574,-5.73548,66.7148,Q,Q
2023-03-14 16:27:45:28,0,-15.2509,-5.73271,66.7164,Q,Q
2023-03-14 16:27:45:38,0,-15.2454,-5.72998,66.717,Q,Q
2023-03-14 16:27:45:48,0,-15.2411,-5.72611,66.7168,Q,Q
2023-03-14 16:27:45:58,0,-15.2374,-5.72428,66.716,Q,Q
2023-03-14 16:27:45:68,0,-15.2335,-5.723,66.7097,Q,Q
2023-03-14 16:27:45:78,0,-15.2279,-5.72711,66.7081,Q,Q
2023-03-14 16:27:45:88,0,-15.2263,-5.73634,66.7067,Q,Q
2023-03-14 16:27:45:98,0,-15.2253,-5.74637,66.7079,Q,Q
2023-03-14 16:27:45:108,0,-15.2231,-5.75867,66.7149,Q,Q
2023-03-14 16:27:45:118,0,-15.2225,-5.77034,66.7235,Q,Q
2023-03-14 16:27:45:128,0,-15.2224,-5.78101,66.7318,Q,Q
2023-03-14 16:27:45:138,0,-15.2265,-5.78649,66.7423,Q,Q
2023-03-14 16:27:45:148,0,-15.2345,-5.79415,66.7539,Q,Q
2023-03-14 16:27:45:158,0,-15.2391,-5.79788,66.765,Q,Q
2023-03-14 16:27:45:168,0,-15.2455,-5.80054,66.7799,Q,Q
2023-03-14 16:27:45:178,0,-15.2516,-5.80256,66.7944,Q,Q
2023-03-14 16:27:45:188,0,-15.2574,-5.80343,66.8064,Q,Q
2023-03-14 16:27:45:198,0,-15.2639,-5.80386,66.8179,Q,Q
2023-03-14 16:27:45:208,0,-15.2711,-5.80553,66.822,Q,Q
2023-03-14 16:27:45:218,0,-15.279,-5.80482,66.826,Q,Q
2023-03-14 16:27:45:228,0,-15.2856,-5.80475,66.8289,Q,Q
2023-03-14 16:27:45:238,0,-15.2925,-5.8041,66.83,Q,Q
2023-03-14 16:27:45:248,0,-15.2996,-5.80133,66.8273,Q,Q
2023-03-14 16:27:45:258,0,-15.3047,-5.79947,66.8235,Q,Q
2023-03-14 16:27:45:268,0,-15.3036,-5.79901,66.8202,Q,Q
2023-03-14 16:27:45:278,0,-15.3011,-5.80056,66.8193,Q,Q
2023-03-14 16:27:45:288,0,-15.3012,-5.79982,66.8169,Q,Q
2023-03-14 16:27:45:298,0,-15.299,-5.79571,66.812,Q,Q
2023-03-14 16:27:45:308,0,-15.2943,-5.79462,66.8042,Q,Q
2023-03-14 16:27:45:318,0,-15.2885,-5.79389,66.7965,Q,Q
2023-03-14 16:27:45:328,0,-15.2796,-5.79418,66.7917,Q,Q
2023-03-14 16:27:45:338,0,-15.2708,-5.79593,66.7896,Q,Q
2023-03-14 16:27:45:348,0,-15.2608,-5.79591,66.7847,Q,Q
2023-03-14 16:27:45:358,0,-15.2531,-5.79759,66.7817,Q,Q
2023-03-14 16:27:45:368,0,-15.2507,-5.79796,66.7828,Q,Q
2023-03-14 16:27:45:378,0,-15.2454,-5.79767,66.7808,Q,Q
2023-03-14 16:27:45:388,0,-15.2414,-5.79463,66.7836,Q,Q
2023-03-14 16:27:45:398,0,-15.237,-5.79459,66.7865,Q,Q
2023-03-14 16:27:45:408,0,-15.2319,-5.79222,66.791,Q,Q
2023-03-14 16:27:45:418,0,-15.2304,-5.78845,66.7916,Q,Q
2023-03-14 16:27:45:428,0,-15.2263,-5.78942,66.7945,Q,Q
2023-03-14 16:27:45:438,0,-15.2218,-5.78915,66.7949,Q,Q
2023-03-14 16:27:45:448,0,-15.215,-5.78848,66.7969,Q,Q
2023-03-14 16:27:45:458,0,-15.2065,-5.78778,66.7941,Q,Q
2023-03-14 16:27:45:468,0,-15.2018,-5.78987,66.7936,Q,Q
2023-03-14 16:27:45:478,0,-15.2,-5.78911,66.7928,Q,Q
2023-03-14 16:27:45:488,0,-15.1967,-5.79503,66.7965,Q,Q
2023-03-14 16:27:45:498,0,-15.1953,-5.80194,66.7993,Q,Q
2023-03-14 16:27:45:508,0,-15.1928,-5.80936,66.8048,Q,Q
2023-03-14 16:27:45:518,0,-15.19,-5.81671,66.8143,Q,Q
2023-03-14 16:27:45:528,0,-15.1889,-5.82275,66.8262,Q,Q
2023-03-14 16:27:45:538,0,-15.1878,-5.8318,66.8403,Q,Q
2023-03-14 16:27:45:548,0,-15.1908,-5.84058,66.8592,Q,Q
2023-03-14 16:27:45:558,0,-15.1897,-5.84545,66.8771,Q,Q
2023-03-14 16:27:45:568,0,-15.1937,-5.85176,66.896,Q,Q
2023-03-14 16:27:45:578,0,-15.1917,-5.85609,66.9133,Q,Q
2023-03-14 16:27:45:588,0,-15.1898,-5.85847,66.9303,Q,Q
2023-03-14 16:27:45:598,0,-15.1911,-5.86059,66.9441,Q,Q
2023-03-14 16:27:45:608,0,-15.191,-5.86276,66.9564,Q,Q
2023-03-14 16:27:45:618,0,-15.1909,-5.86531,66.9653,Q,Q
2023-03-14 16:27:45:628,0,-15.189,-5.86006,66.9708,Q,Q
2023-03-14 16:27:45:638,0,-15.192,-5.86024,66.9784,Q,Q
2023-03-14 16:27:45:648,0,-15.1954,-5.8578,66.9847,Q,Q
2023-03-14 16:27:45:658,0,-15.2006,-5.857,66.9878,Q,Q
2023-03-14 16:27:45:668,0,-15.205,-5.85411,66.9891,Q,Q
2023-03-14 16:27:45:678,0,-15.2115,-5.85123,66.9908,Q,Q
2023-03-14 16:27:45:688,0,-15.2219,-5.84915,66.9974,Q,Q
