Timestamp_cmd,imu_cmd,roll_delta,pitch_delta,yaw_delta,voice_type,voice_length
2023-03-15 13:16:39:332,0,-8.8699,-10.9655,-26.5012,Q,Q
2023-03-15 13:16:39:340,0,-8.84668,-10.9594,-26.4906,Q,Q
2023-03-15 13:16:39:350,0,-8.82283,-10.9539,-26.4825,Q,Q
2023-03-15 13:16:39:361,0,-8.79891,-10.9455,-26.4779,Q,Q
2023-03-15 13:16:39:371,0,-8.7723,-10.9383,-26.4739,Q,Q
2023-03-15 13:16:39:381,0,-8.7405,-10.9354,-26.4703,Q,Q
2023-03-15 13:16:39:391,0,-8.70775,-10.9298,-26.4673,Q,Q
2023-03-15 13:16:39:401,0,-8.67498,-10.925,-26.4649,Q,Q
2023-03-15 13:16:39:410,0,-8.6441,-10.9164,-26.4561,Q,Q
2023-03-15 13:16:39:421,0,-8.61352,-10.9132,-26.4476,Q,Q
2023-03-15 13:16:39:431,0,-8.58411,-10.9062,-26.4396,Q,Q
2023-03-15 13:16:39:441,0,-8.55126,-10.9002,-26.4303,Q,Q
2023-03-15 13:16:39:451,0,-8.51858,-10.894,-26.4196,Q,Q
2023-03-15 13:16:39:461,0,-8.48851,-10.8818,-26.4095,Q,Q
2023-03-15 13:16:39:471,0,-8.45887,-10.871,-26.3973,Q,Q
2023-03-15 13:16:39:481,0,-8.43422,-10.853,-26.3846,Q,Q
2023-03-15 13:16:39:491,0,-8.41402,-10.838,-26.3744,Q,Q
2023-03-15 13:16:39:501,0,-8.39517,-10.8186,-26.363,Q,Q
2023-03-15 13:16:39:511,0,-8.38224,-10.8027,-26.3515,Q,Q
2023-03-15 13:16:39:521,0,-8.36962,-10.7879,-26.3433,Q,Q
2023-03-15 13:16:39:531,0,-8.35635,-10.7716,-26.3384,Q,Q
2023-03-15 13:16:39:541,0,-8.34365,-10.7625,-26.3359,Q,Q
2023-03-15 13:16:39:551,0,-8.33097,-10.7533,-26.3346,Q,Q
2023-03-15 13:16:39:561,0,-8.31294,-10.7386,-26.3341,Q,Q
2023-03-15 13:16:39:571,0,-8.29175,-10.7233,-26.3337,Q,Q
2023-03-15 13:16:39:580,0,-8.26304,-10.7065,-26.3359,Q,Q
2023-03-15 13:16:39:591,0,-8.23574,-10.6917,-26.3342,Q,Q
2023-03-15 13:16:39:601,0,-8.20665,-10.6787,-26.3311,Q,Q
2023-03-15 13:16:39:611,0,-8.17368,-10.6646,-26.33,Q,Q
2023-03-15 13:16:39:621,0,-8.14333,-10.6503,-26.3285,Q,Q
2023-03-15 13:16:39:631,0,-8.11909,-10.6384,-26.3221,Q,Q
2023-03-15 13:16:39:641,0,-8.09714,-10.6342,-26.3152,Q,Q
2023-03-15 13:16:39:651,0,-8.07787,-10.6281,-26.3002,Q,Q
2023-03-15 13:16:39:661,0,-8.06236,-10.6224,-26.2858,Q,Q
2023-03-15 13:16:39:671,0,-8.04853,-10.6181,-26.2738,Q,Q
2023-03-15 13:16:39:680,0,-8.04062,-10.6162,-26.2587,Q,Q
2023-03-15 13:16:39:691,0,-8.03278,-10.6151,-26.2442,Q,Q
2023-03-15 13:16:39:701,0,-8.02301,-10.6159,-26.2275,Q,Q
2023-03-15 13:16:39:711,0,-8.0129,-10.6187,-26.2114,Q,Q
2023-03-15 13:16:39:721,0,-8.00384,-10.6205,-26.1925,Q,Q
2023-03-15 13:16:39:731,0,-7.99999,-10.6187,-26.1726,Q,Q
2023-03-15 13:16:39:741,0,-7.9875,-10.6188,-26.1538,Q,Q
2023-03-15 13:16:39:751,0,-7.98325,-10.6161,-26.135,Q,Q
2023-03-15 13:16:39:761,0,-7.98095,-10.6228,-26.1192,Q,Q
2023-03-15 13:16:39:771,0,-7.98449,-10.6273,-26.1,Q,Q
2023-03-15 13:16:39:781,0,-7.98826,-10.6344,-26.0792,Q,Q
2023-03-15 13:16:39:791,0,-7.99609,-10.6397,-26.0618,Q,Q
2023-03-15 13:16:39:801,0,-8.00406,-10.6481,-26.0451,Q,Q
2023-03-15 13:16:39:811,0,-8.01123,-10.661,-26.0263,Q,Q
2023-03-15 13:16:39:821,0,-8.02055,-10.6707,-26.0087,Q,Q
2023-03-15 13:16:39:831,0,-8.0284,-10.6803,-25.99,Q,Q
2023-03-15 13:16:39:841,0,-8.03746,-10.6861,-25.9699,Q,Q
2023-03-15 13:16:39:851,0,-8.04215,-10.6966,-25.9503,Q,Q
2023-03-15 13:16:39:861,0,-8.04558,-10.7105,-25.9292,Q,Q
2023-03-15 13:16:39:871,0,-8.04467,-10.7209,-25.9082,Q,Q
2023-03-15 13:16:39:881,0,-8.04464,-10.7313,-25.8841,Q,Q
2023-03-15 13:16:39:891,0,-8.04321,-10.7369,-25.8627,Q,Q
2023-03-15 13:16:39:901,0,-8.04052,-10.7387,-25.8436,Q,Q
2023-03-15 13:16:39:911,0,-8.03618,-10.7392,-25.8274,Q,Q
2023-03-15 13:16:39:921,0,-8.02871,-10.7393,-25.808,Q,Q
2023-03-15 13:16:39:930,0,-8.02017,-10.7441,-25.7896,Q,Q
2023-03-15 13:16:39:941,0,-8.0113,-10.7444,-25.7708,Q,Q
2023-03-15 13:16:39:950,0,-8.00593,-10.7429,-25.7492,Q,Q
2023-03-15 13:16:39:960,0,-8.00778,-10.7388,-25.7284,Q,Q
2023-03-15 13:16:39:970,0,-8.00982,-10.732,-25.71,Q,Q
2023-03-15 13:16:39:980,0,-8.01982,-10.7218,-25.6963,Q,Q
2023-03-15 13:16:39:990,0,-8.03543,-10.7067,-25.6816,Q,Q
2023-03-15 13:16:40:0,0,-8.05083,-10.6908,-25.6707,Q,Q
2023-03-15 13:16:40:10,0,-8.06722,-10.6745,-25.6633,Q,Q
2023-03-15 13:16:40:20,0,-8.0864,-10.6606,-25.6589,Q,Q
2023-03-15 13:16:40:30,0,-8.10359,-10.643,-25.6592,Q,Q
2023-03-15 13:16:40:41,0,-8.11716,-10.6233,-25.6634,Q,Q
2023-03-15 13:16:40:51,0,-8.13174,-10.6017,-25.6706,Q,Q
2023-03-15 13:16:40:61,0,-8.14538,-10.5825,-25.6812,Q,Q
2023-03-15 13:16:40:70,0,-8.15612,-10.567,-25.6954,Q,Q
2023-03-15 13:16:40:80,0,-8.16438,-10.5462,-25.7088,Q,Q
2023-03-15 13:16:40:91,0,-8.17013,-10.5215,-25.7267,Q,Q
2023-03-15 13:16:40:101,0,-8.16906,-10.5004,-25.7477,Q,Q
2023-03-15 13:16:40:111,0,-8.17024,-10.482,-25.7674,Q,Q
2023-03-15 13:16:40:120,0,-8.17497,-10.4651,-25.7826,Q,Q
2023-03-15 13:16:40:131,0,-8.17892,-10.4521,-25.8021,Q,Q
2023-03-15 13:16:40:141,0,-8.18244,-10.4398,-25.8243,Q,Q
2023-03-15 13:16:40:151,0,-8.18203,-10.4296,-25.847,Q,Q
2023-03-15 13:16:40:161,0,-8.18373,-10.422,-25.8672,Q,Q
2023-03-15 13:16:40:171,0,-8.17885,-10.4103,-25.8912,Q,Q
2023-03-15 13:16:40:180,0,-8.16669,-10.3925,-25.912,Q,Q
2023-03-15 13:16:40:191,0,-8.15138,-10.3812,-25.9318,Q,Q
2023-03-15 13:16:40:201,0,-8.13031,-10.3748,-25.9477,Q,Q
2023-03-15 13:16:40:211,0,-8.10383,-10.3684,-25.9619,Q,Q
2023-03-15 13:16:40:221,0,-8.0775,-10.3615,-25.973,Q,Q
2023-03-15 13:16:40:231,0,-8.04846,-10.3548,-25.9815,Q,Q
2023-03-15 13:16:40:241,0,-8.01642,-10.3481,-25.9863,Q,Q
2023-03-15 13:16:40:251,0,-7.97857,-10.3368,-25.9905,Q,Q
2023-03-15 13:16:40:261,0,-7.94032,-10.324,-25.9965,Q,Q
2023-03-15 13:16:40:271,0,-7.89803,-10.3152,-25.9954,Q,Q
2023-03-15 13:16:40:281,0,-7.85454,-10.304,-25.9953,Q,Q
2023-03-15 13:16:40:291,0,-7.81199,-10.2897,-25.9974,Q,Q
2023-03-15 13:16:40:301,0,-7.76867,-10.2836,-25.9969,Q,Q
2023-03-15 13:16:40:311,0,-7.72102,-10.2759,-25.9968,Q,Q
2023-03-15 13:16:40:321,0,-7.67183,-10.2684,-25.9984,Q,Q
2023-03-15 13:16:40:331,0,-7.62125,-10.2628,-26.0035,Q,Q
2023-03-15 13:16:40:341,0,-7.57036,-10.2624,-26.0093,Q,Q
2023-03-15 13:16:40:351,0,-7.52097,-10.261,-26.0138,Q,Q
2023-03-15 13:16:40:361,0,-7.4701,-10.2596,-26.0193,Q,Q
2023-03-15 13:16:40:371,0,-7.42429,-10.2597,-26.0262,Q,Q
2023-03-15 13:16:40:380,0,-7.37444,-10.2603,-26.0312,Q,Q
2023-03-15 13:16:40:391,0,-7.31817,-10.2592,-26.037,Q,Q
2023-03-15 13:16:40:401,0,-7.26762,-10.2616,-26.0421,Q,Q
2023-03-15 13:16:40:411,0,-7.21512,-10.2607,-26.0491,Q,Q
2023-03-15 13:16:40:421,0,-7.15921,-10.2601,-26.0546,Q,Q
2023-03-15 13:16:40:431,0,-7.10077,-10.2606,-26.0615,Q,Q
2023-03-15 13:16:40:441,0,-7.04264,-10.2569,-26.0698,Q,Q
2023-03-15 13:16:40:451,0,-6.97612,-10.2528,-26.0797,Q,Q
2023-03-15 13:16:40:461,0,-6.90638,-10.2466,-26.0883,Q,Q
2023-03-15 13:16:40:471,0,-6.83042,-10.2401,-26.0998,Q,Q
2023-03-15 13:16:40:481,0,-6.74598,-10.2349,-26.1118,Q,Q
2023-03-15 13:16:40:491,0,-6.65713,-10.2266,-26.1276,Q,Q
2023-03-15 13:16:40:501,0,-6.56595,-10.2158,-26.1418,Q,Q
2023-03-15 13:16:40:511,0,-6.46946,-10.2036,-26.1598,Q,Q
2023-03-15 13:16:40:521,0,-6.36848,-10.1929,-26.1812,Q,Q
2023-03-15 13:16:40:531,0,-6.26886,-10.1865,-26.1992,Q,Q
2023-03-15 13:16:40:541,0,-6.169,-10.1801,-26.2221,Q,Q
2023-03-15 13:16:40:551,0,-6.06804,-10.1758,-26.2432,Q,Q
2023-03-15 13:16:40:561,0,-5.96506,-10.1709,-26.2636,Q,Q
2023-03-15 13:16:40:571,0,-5.86148,-10.167,-26.2819,Q,Q
2023-03-15 13:16:40:581,0,-5.76113,-10.1657,-26.2996,Q,Q
2023-03-15 13:16:40:591,0,-5.66176,-10.1608,-26.315,Q,Q
2023-03-15 13:16:40:601,0,-5.56443,-10.1605,-26.333,Q,Q
2023-03-15 13:16:40:611,0,-5.46665,-10.1624,-26.351,Q,Q
2023-03-15 13:16:40:621,0,-5.3766,-10.1691,-26.3709,Q,Q
2023-03-15 13:16:40:631,0,-5.28877,-10.1744,-26.3869,Q,Q
2023-03-15 13:16:40:641,0,-5.20605,-10.1727,-26.4032,Q,Q
2023-03-15 13:16:40:651,0,-5.12515,-10.1717,-26.4194,Q,Q
2023-03-15 13:16:40:661,0,-5.04564,-10.1694,-26.4368,Q,Q
2023-03-15 13:16:40:671,0,-4.96884,-10.1654,-26.4539,Q,Q
2023-03-15 13:16:40:681,0,-4.89379,-10.16,-26.4693,Q,Q
2023-03-15 13:16:40:691,0,-4.81799,-10.1563,-26.4866,Q,Q
2023-03-15 13:16:40:701,0,-4.74455,-10.1505,-26.5,Q,Q
2023-03-15 13:16:40:711,0,-4.67665,-10.1401,-26.5141,Q,Q
2023-03-15 13:16:40:721,0,-4.61202,-10.1309,-26.5226,Q,Q
2023-03-15 13:16:40:731,0,-4.54971,-10.1225,-26.5324,Q,Q
2023-03-15 13:16:40:741,0,-4.49495,-10.1164,-26.5367,Q,Q
2023-03-15 13:16:40:750,0,-4.44297,-10.1079,-26.5459,Q,Q
2023-03-15 13:16:40:761,0,-4.38887,-10.1014,-26.5555,Q,Q
2023-03-15 13:16:40:770,0,-4.33788,-10.0916,-26.5659,Q,Q
2023-03-15 13:16:40:781,0,-4.29029,-10.0789,-26.5764,Q,Q
2023-03-15 13:16:40:791,0,-4.24081,-10.0676,-26.5881,Q,Q
2023-03-15 13:16:40:801,0,-4.18796,-10.0508,-26.5978,Q,Q
2023-03-15 13:16:40:811,0,-4.13288,-10.0385,-26.6059,Q,Q
2023-03-15 13:16:40:821,0,-4.07719,-10.0237,-26.6188,Q,Q
2023-03-15 13:16:40:831,0,-4.01475,-10.011,-26.6301,Q,Q
2023-03-15 13:16:40:841,0,-3.9436,-9.99799,-26.6397,Q,Q
2023-03-15 13:16:40:851,0,-3.8657,-9.98424,-26.6472,Q,Q
2023-03-15 13:16:40:861,0,-3.77849,-9.97165,-26.6551,Q,Q
2023-03-15 13:16:40:871,0,-3.68486,-9.95782,-26.6618,Q,Q
2023-03-15 13:16:40:881,0,-3.58513,-9.94744,-26.664,Q,Q
2023-03-15 13:16:40:891,0,-3.47774,-9.93753,-26.6688,Q,Q
2023-03-15 13:16:40:901,0,-3.3636,-9.92496,-26.6728,Q,Q
2023-03-15 13:16:40:911,0,-3.24396,-9.91271,-26.677,Q,Q
2023-03-15 13:16:40:920,0,-3.12088,-9.89466,-26.6775,Q,Q
2023-03-15 13:16:40:931,0,-2.9941,-9.875,-26.6785,Q,Q
2023-03-15 13:16:40:941,0,-2.85949,-9.852,-26.6753,Q,Q
2023-03-15 13:16:40:950,0,-2.72076,-9.82498,-26.6702,Q,Q
2023-03-15 13:16:40:960,0,-2.57409,-9.79528,-26.6689,Q,Q
2023-03-15 13:16:40:971,0,-2.41232,-9.76408,-26.6668,Q,Q
2023-03-15 13:16:40:981,0,-2.24495,-9.73279,-26.6626,Q,Q
2023-03-15 13:16:40:991,0,-2.07109,-9.69777,-26.6604,Q,Q
2023-03-15 13:16:41:1,0,-1.88772,-9.66162,-26.6573,Q,Q
2023-03-15 13:16:41:11,0,-1.69641,-9.62116,-26.6548,Q,Q
2023-03-15 13:16:41:21,0,-1.50244,-9.58347,-26.6542,Q,Q
2023-03-15 13:16:41:31,0,-1.30623,-9.54069,-26.6515,Q,Q
2023-03-15 13:16:41:41,0,-1.10179,-9.49637,-26.6501,Q,Q
2023-03-15 13:16:41:51,0,-0.89424,-9.4561,-26.6522,Q,Q
2023-03-15 13:16:41:61,0,-0.68581,-9.41891,-26.6539,Q,Q
2023-03-15 13:16:41:71,0,-0.477491,-9.38164,-26.6552,Q,Q
2023-03-15 13:16:41:81,0,-0.263404,-9.34638,-26.6583,Q,Q
2023-03-15 13:16:41:90,0,-0.0517517,-9.31201,-26.665,Q,Q
2023-03-15 13:16:41:101,0,0.160421,-9.28639,-26.6697,Q,Q
2023-03-15 13:16:41:111,0,0.37509,-9.268,-26.6725,Q,Q
2023-03-15 13:16:41:121,0,0.589172,-9.25807,-26.6756,Q,Q
2023-03-15 13:16:41:131,0,0.809899,-9.24966,-26.6803,Q,Q
2023-03-15 13:16:41:141,0,1.03011,-9.24693,-26.6819,Q,Q
2023-03-15 13:16:41:151,0,1.25381,-9.24949,-26.6795,Q,Q
2023-03-15 13:16:41:161,0,1.47817,-9.25231,-26.6742,Q,Q
2023-03-15 13:16:41:171,0,1.70481,-9.25471,-26.6688,Q,Q
2023-03-15 13:16:41:181,0,1.92795,-9.26059,-26.6663,Q,Q
2023-03-15 13:16:41:191,0,2.15069,-9.2578,-26.6616,Q,Q
2023-03-15 13:16:41:201,0,2.37397,-9.2544,-26.6545,Q,Q
2023-03-15 13:16:41:211,0,2.60573,-9.24809,-26.6447,Q,Q
2023-03-15 13:16:41:221,0,2.83904,-9.23818,-26.6333,Q,Q
2023-03-15 13:16:41:231,0,3.07167,-9.23107,-26.6187,Q,Q
2023-03-15 13:16:41:240,0,3.3026,-9.21889,-26.6049,Q,Q
2023-03-15 13:16:41:251,0,3.53994,-9.2066,-26.5917,Q,Q
2023-03-15 13:16:41:261,0,3.77932,-9.19006,-26.5755,Q,Q
2023-03-15 13:16:41:271,0,4.02224,-9.17312,-26.5646,Q,Q
2023-03-15 13:16:41:281,0,4.272,-9.15566,-26.5505,Q,Q
2023-03-15 13:16:41:291,0,4.52622,-9.13732,-26.5365,Q,Q
2023-03-15 13:16:41:301,0,4.78361,-9.12123,-26.5198,Q,Q
2023-03-15 13:16:41:311,0,5.04551,-9.10094,-26.5061,Q,Q
2023-03-15 13:16:41:321,0,5.3087,-9.08196,-26.4922,Q,Q
2023-03-15 13:16:41:331,0,5.576,-9.06194,-26.4782,Q,Q
2023-03-15 13:16:41:341,0,5.84182,-9.03851,-26.4628,Q,Q
2023-03-15 13:16:41:351,0,6.10462,-9.01656,-26.4499,Q,Q
2023-03-15 13:16:41:361,0,6.36098,-8.9933,-26.4408,Q,Q
2023-03-15 13:16:41:371,0,6.61149,-8.97696,-26.4309,Q,Q
2023-03-15 13:16:41:381,0,6.85293,-8.95878,-26.423,Q,Q
2023-03-15 13:16:41:391,0,7.08542,-8.93832,-26.4199,Q,Q
2023-03-15 13:16:41:401,0,7.31434,-8.91788,-26.4165,Q,Q
2023-03-15 13:16:41:411,0,7.54044,-8.89882,-26.4165,Q,Q
2023-03-15 13:16:41:421,0,7.7615,-8.87849,-26.4178,Q,Q
2023-03-15 13:16:41:431,0,7.97603,-8.86242,-26.4209,Q,Q
2023-03-15 13:16:41:441,0,8.1851,-8.84417,-26.4252,Q,Q
2023-03-15 13:16:41:451,0,8.38641,-8.82964,-26.427,Q,Q
2023-03-15 13:16:41:461,0,8.5794,-8.81624,-26.4318,Q,Q
2023-03-15 13:16:41:471,0,8.76966,-8.80598,-26.4359,Q,Q
2023-03-15 13:16:41:481,0,8.95872,-8.79868,-26.4428,Q,Q
2023-03-15 13:16:41:491,0,9.14564,-8.79116,-26.4464,Q,Q
2023-03-15 13:16:41:501,0,9.33528,-8.78415,-26.4556,Q,Q
2023-03-15 13:16:41:511,0,9.52829,-8.7791,-26.4596,Q,Q
2023-03-15 13:16:41:521,0,9.72142,-8.77302,-26.4653,Q,Q
2023-03-15 13:16:41:531,0,9.91908,-8.76574,-26.4687,Q,Q
2023-03-15 13:16:41:541,0,10.1155,-8.75913,-26.4693,Q,Q
2023-03-15 13:16:41:551,0,10.3149,-8.75003,-26.4673,Q,Q
2023-03-15 13:16:41:561,0,10.5136,-8.73729,-26.4624,Q,Q
2023-03-15 13:16:41:570,0,10.7069,-8.72864,-26.4527,Q,Q
2023-03-15 13:16:41:581,0,10.8914,-8.71916,-26.4366,Q,Q
2023-03-15 13:16:41:591,0,11.0646,-8.71074,-26.4125,Q,Q
2023-03-15 13:16:41:601,0,11.2259,-8.70774,-26.3891,Q,Q
2023-03-15 13:16:41:611,0,11.3771,-8.70556,-26.3637,Q,Q
2023-03-15 13:16:41:621,0,11.5112,-8.70205,-26.3345,Q,Q
2023-03-15 13:16:41:631,0,11.6356,-8.69729,-26.3101,Q,Q
2023-03-15 13:16:41:641,0,11.7538,-8.69378,-26.2845,Q,Q
2023-03-15 13:16:41:651,0,11.863,-8.68575,-26.2626,Q,Q
2023-03-15 13:16:41:661,0,11.9669,-8.67595,-26.243,Q,Q
2023-03-15 13:16:41:671,0,12.0701,-8.66591,-26.2195,Q,Q
2023-03-15 13:16:41:681,0,12.1728,-8.65087,-26.1949,Q,Q
2023-03-15 13:16:41:691,0,12.2808,-8.63898,-26.1747,Q,Q
2023-03-15 13:16:41:701,0,12.383,-8.63423,-26.1504,Q,Q
2023-03-15 13:16:41:711,0,12.4854,-8.62067,-26.129,Q,Q
2023-03-15 13:16:41:721,0,12.5974,-8.61216,-26.1063,Q,Q
2023-03-15 13:16:41:731,0,12.7111,-8.60461,-26.0826,Q,Q
2023-03-15 13:16:41:741,0,12.8268,-8.58544,-26.0569,Q,Q
2023-03-15 13:16:41:751,0,12.946,-8.56644,-26.0352,Q,Q
2023-03-15 13:16:41:761,0,13.0683,-8.54222,-26.011,Q,Q
2023-03-15 13:16:41:771,0,13.1909,-8.53513,-25.9945,Q,Q
2023-03-15 13:16:41:781,0,13.3147,-8.52507,-25.9721,Q,Q
2023-03-15 13:16:41:791,0,13.4532,-8.50371,-25.9568,Q,Q
2023-03-15 13:16:41:801,0,13.6144,-8.48758,-25.9484,Q,Q
2023-03-15 13:16:41:811,0,13.7804,-8.46736,-25.9278,Q,Q
2023-03-15 13:16:41:821,0,13.9537,-8.44741,-25.8998,Q,Q
2023-03-15 13:16:41:831,0,14.1344,-8.4265,-25.8872,Q,Q
2023-03-15 13:16:41:841,0,14.3226,-8.41261,-25.8868,Q,Q
2023-03-15 13:16:41:851,0,14.514,-8.39524,-25.8827,Q,Q
2023-03-15 13:16:41:861,0,14.7058,-8.36946,-25.8777,Q,Q
2023-03-15 13:16:41:871,0,14.899,-8.3379,-25.8766,Q,Q
2023-03-15 13:16:41:881,0,15.0883,-8.3023,-25.8798,Q,Q
2023-03-15 13:16:41:891,0,15.2748,-8.26247,-25.8785,Q,Q
2023-03-15 13:16:41:901,0,15.451,-8.21737,-25.8757,Q,Q
2023-03-15 13:16:41:911,0,15.6224,-8.17496,-25.8779,Q,Q
2023-03-15 13:16:41:921,0,15.7918,-8.12701,-25.88,Q,Q
2023-03-15 13:16:41:931,0,15.9581,-8.06986,-25.8826,Q,Q
2023-03-15 13:16:41:941,0,16.1219,-8.01089,-25.8808,Q,Q
2023-03-15 13:16:41:951,0,16.2791,-7.95473,-25.8755,Q,Q
2023-03-15 13:16:41:961,0,16.4247,-7.89534,-25.8664,Q,Q
2023-03-15 13:16:41:971,0,16.5621,-7.8409,-25.8558,Q,Q
2023-03-15 13:16:41:981,0,16.6944,-7.78364,-25.8473,Q,Q
2023-03-15 13:16:41:991,0,16.8215,-7.73142,-25.8403,Q,Q
2023-03-15 13:16:42:1,0,16.9422,-7.68669,-25.8314,Q,Q
2023-03-15 13:16:42:11,0,17.0519,-7.64376,-25.8219,Q,Q
2023-03-15 13:16:42:21,0,17.1551,-7.60374,-25.8144,Q,Q
2023-03-15 13:16:42:31,0,17.254,-7.56357,-25.8084,Q,Q
2023-03-15 13:16:42:41,0,17.3495,-7.52702,-25.8054,Q,Q
2023-03-15 13:16:42:51,0,17.4464,-7.49333,-25.8025,Q,Q
2023-03-15 13:16:42:61,0,17.5456,-7.45995,-25.8051,Q,Q
2023-03-15 13:16:42:71,0,17.6462,-7.42945,-25.8134,Q,Q
2023-03-15 13:16:42:81,0,17.7476,-7.40071,-25.8288,Q,Q
2023-03-15 13:16:42:91,0,17.8526,-7.36785,-25.852,Q,Q
2023-03-15 13:16:42:101,0,17.9575,-7.33737,-25.8889,Q,Q
2023-03-15 13:16:42:111,0,18.062,-7.3021,-25.9389,Q,Q
2023-03-15 13:16:42:121,0,18.1723,-7.26284,-26.0099,Q,Q
2023-03-15 13:16:42:131,0,18.2794,-7.21777,-26.0984,Q,Q
2023-03-15 13:16:42:141,0,18.3835,-7.16745,-26.2053,Q,Q
2023-03-15 13:16:42:151,0,18.4841,-7.11606,-26.3298,Q,Q
2023-03-15 13:16:42:161,0,18.5818,-7.06225,-26.4719,Q,Q
2023-03-15 13:16:42:171,0,18.6833,-7.00467,-26.6322,Q,Q
2023-03-15 13:16:42:180,0,18.7922,-6.94587,-26.7994,Q,Q
2023-03-15 13:16:42:190,0,18.9109,-6.88329,-26.973,Q,Q
2023-03-15 13:16:42:200,0,19.0373,-6.81594,-27.1497,Q,Q
2023-03-15 13:16:42:210,0,19.1706,-6.73385,-27.3283,Q,Q
2023-03-15 13:16:42:220,0,19.31,-6.64022,-27.5021,Q,Q
2023-03-15 13:16:42:230,0,19.4577,-6.53729,-27.6685,Q,Q
2023-03-15 13:16:42:240,0,19.615,-6.43541,-27.8237,Q,Q
2023-03-15 13:16:42:250,0,19.7723,-6.33229,-27.9648,Q,Q
2023-03-15 13:16:42:260,0,19.9287,-6.23473,-28.0896,Q,Q
2023-03-15 13:16:42:271,0,20.079,-6.14002,-28.1988,Q,Q
2023-03-15 13:16:42:280,0,20.2262,-6.04985,-28.2949,Q,Q
2023-03-15 13:16:42:290,0,20.3654,-5.95908,-28.3805,Q,Q
2023-03-15 13:16:42:300,0,20.4974,-5.87191,-28.4563,Q,Q
2023-03-15 13:16:42:311,0,20.6147,-5.78627,-28.5232,Q,Q
2023-03-15 13:16:42:320,0,20.7115,-5.69973,-28.579,Q,Q
2023-03-15 13:16:42:330,0,20.7839,-5.61645,-28.6346,Q,Q
2023-03-15 13:16:42:340,0,20.8373,-5.53418,-28.6879,Q,Q
2023-03-15 13:16:42:350,0,20.8606,-5.45158,-28.7446,Q,Q
2023-03-15 13:16:42:360,0,20.8616,-5.3685,-28.8058,Q,Q
2023-03-15 13:16:42:370,0,20.8593,-5.279,-28.873,Q,Q
2023-03-15 13:16:42:380,0,20.8527,-5.18848,-28.9387,Q,Q
2023-03-15 13:16:42:390,0,20.8495,-5.09595,-28.9989,Q,Q
2023-03-15 13:16:42:400,0,20.853,-5.01039,-29.0515,Q,Q
2023-03-15 13:16:42:410,0,20.8559,-4.92617,-29.0947,Q,Q
2023-03-15 13:16:42:420,0,20.8619,-4.84769,-29.1346,Q,Q
2023-03-15 13:16:42:431,0,20.865,-4.77561,-29.1701,Q,Q
2023-03-15 13:16:42:441,0,20.8624,-4.70608,-29.1938,Q,Q
2023-03-15 13:16:42:450,0,20.861,-4.63598,-29.2199,Q,Q
2023-03-15 13:16:42:461,0,20.8549,-4.57317,-29.2358,Q,Q
2023-03-15 13:16:42:471,0,20.8446,-4.50964,-29.2448,Q,Q
2023-03-15 13:16:42:481,0,20.8302,-4.44851,-29.2494,Q,Q
2023-03-15 13:16:42:491,0,20.8099,-4.3902,-29.2452,Q,Q
2023-03-15 13:16:42:501,0,20.782,-4.33663,-29.2344,Q,Q
2023-03-15 13:16:42:511,0,20.7527,-4.28644,-29.2129,Q,Q
2023-03-15 13:16:42:521,0,20.7164,-4.23996,-29.178,Q,Q
2023-03-15 13:16:42:531,0,20.6732,-4.19262,-29.1379,Q,Q
2023-03-15 13:16:42:541,0,20.6162,-4.15163,-29.0859,Q,Q
2023-03-15 13:16:42:551,0,20.555,-4.12673,-29.0324,Q,Q
2023-03-15 13:16:42:561,0,20.4782,-4.11843,-28.9728,Q,Q
2023-03-15 13:16:42:571,0,20.3834,-4.1212,-28.9031,Q,Q
2023-03-15 13:16:42:581,0,20.2791,-4.12678,-28.8236,Q,Q
2023-03-15 13:16:42:591,0,20.1725,-4.14362,-28.7389,Q,Q
2023-03-15 13:16:42:601,0,20.0601,-4.16962,-28.6443,Q,Q
2023-03-15 13:16:42:611,0,19.9412,-4.20005,-28.5397,Q,Q
2023-03-15 13:16:42:621,0,19.8132,-4.23778,-28.4322,Q,Q
2023-03-15 13:16:42:631,0,19.6763,-4.28645,-28.3234,Q,Q
2023-03-15 13:16:42:641,0,19.5343,-4.33743,-28.2157,Q,Q
2023-03-15 13:16:42:651,0,19.3955,-4.39755,-28.1138,Q,Q
2023-03-15 13:16:42:661,0,19.2578,-4.45866,-28.0196,Q,Q
2023-03-15 13:16:42:671,0,19.1141,-4.52328,-27.9278,Q,Q
2023-03-15 13:16:42:681,0,18.9708,-4.58916,-27.8457,Q,Q
2023-03-15 13:16:42:691,0,18.8274,-4.6477,-27.7743,Q,Q
2023-03-15 13:16:42:701,0,18.6809,-4.70762,-27.7167,Q,Q
2023-03-15 13:16:42:711,0,18.5297,-4.7739,-27.6644,Q,Q
2023-03-15 13:16:42:721,0,18.3806,-4.84342,-27.6247,Q,Q
2023-03-15 13:16:42:731,0,18.2333,-4.91265,-27.5918,Q,Q
2023-03-15 13:16:42:741,0,18.0823,-4.98081,-27.5679,Q,Q
2023-03-15 13:16:42:751,0,17.9255,-5.0491,-27.5463,Q,Q
2023-03-15 13:16:42:761,0,17.7669,-5.11791,-27.5283,Q,Q
2023-03-15 13:16:42:771,0,17.6092,-5.19091,-27.5129,Q,Q
2023-03-15 13:16:42:781,0,17.4517,-5.26097,-27.4986,Q,Q
2023-03-15 13:16:42:791,0,17.2944,-5.32863,-27.4834,Q,Q
2023-03-15 13:16:42:801,0,17.1366,-5.38901,-27.4639,Q,Q
2023-03-15 13:16:42:811,0,16.9747,-5.4463,-27.4438,Q,Q
2023-03-15 13:16:42:821,0,16.8046,-5.50091,-27.4183,Q,Q
2023-03-15 13:16:42:831,0,16.628,-5.55124,-27.3896,Q,Q
2023-03-15 13:16:42:841,0,16.4427,-5.59418,-27.3566,Q,Q
2023-03-15 13:16:42:851,0,16.2513,-5.63293,-27.3139,Q,Q
2023-03-15 13:16:42:861,0,16.0518,-5.667,-27.2649,Q,Q
2023-03-15 13:16:42:871,0,15.847,-5.70316,-27.2121,Q,Q
2023-03-15 13:16:42:881,0,15.6361,-5.73919,-27.1522,Q,Q
2023-03-15 13:16:42:891,0,15.4192,-5.77285,-27.0919,Q,Q
2023-03-15 13:16:42:901,0,15.1966,-5.8115,-27.0197,Q,Q
2023-03-15 13:16:42:911,0,14.9735,-5.85431,-26.9443,Q,Q
2023-03-15 13:16:42:921,0,14.7506,-5.89857,-26.8678,Q,Q
2023-03-15 13:16:42:931,0,14.5207,-5.94441,-26.7854,Q,Q
2023-03-15 13:16:42:941,0,14.2864,-5.99178,-26.7042,Q,Q
2023-03-15 13:16:42:951,0,14.0455,-6.03655,-26.6145,Q,Q
2023-03-15 13:16:42:961,0,13.7945,-6.08343,-26.525,Q,Q
2023-03-15 13:16:42:971,0,13.5255,-6.1291,-26.4351,Q,Q
2023-03-15 13:16:42:981,0,13.2464,-6.17447,-26.3459,Q,Q
2023-03-15 13:16:42:991,0,12.9592,-6.21863,-26.2575,Q,Q
2023-03-15 13:16:43:1,0,12.6606,-6.25896,-26.1686,Q,Q
2023-03-15 13:16:43:11,0,12.3391,-6.29992,-26.0801,Q,Q
2023-03-15 13:16:43:21,0,12.0008,-6.34353,-25.9973,Q,Q
2023-03-15 13:16:43:31,0,11.647,-6.38542,-25.9176,Q,Q
2023-03-15 13:16:43:41,0,11.2811,-6.43075,-25.8437,Q,Q
2023-03-15 13:16:43:51,0,10.897,-6.48009,-25.7764,Q,Q
2023-03-15 13:16:43:61,0,10.5047,-6.52891,-25.7112,Q,Q
2023-03-15 13:16:43:71,0,10.0978,-6.58695,-25.6581,Q,Q
2023-03-15 13:16:43:81,0,9.67467,-6.6488,-25.6194,Q,Q
2023-03-15 13:16:43:91,0,9.24177,-6.71107,-25.5913,Q,Q
2023-03-15 13:16:43:101,0,8.79056,-6.77588,-25.5754,Q,Q
2023-03-15 13:16:43:111,0,8.32703,-6.84357,-25.5787,Q,Q
2023-03-15 13:16:43:121,0,7.84642,-6.91349,-25.5971,Q,Q
2023-03-15 13:16:43:131,0,7.35552,-6.98521,-25.6369,Q,Q
2023-03-15 13:16:43:141,0,6.8507,-7.05673,-25.6953,Q,Q
2023-03-15 13:16:43:151,0,6.33967,-7.12384,-25.7742,Q,Q
2023-03-15 13:16:43:161,0,5.81645,-7.19759,-25.8738,Q,Q
2023-03-15 13:16:43:171,0,5.28294,-7.27783,-25.9972,Q,Q
2023-03-15 13:16:43:181,0,4.73755,-7.36753,-26.1458,Q,Q
2023-03-15 13:16:43:191,0,4.17926,-7.47388,-26.3164,Q,Q
2023-03-15 13:16:43:201,0,3.60973,-7.59554,-26.5087,Q,Q
2023-03-15 13:16:43:211,0,3.02999,-7.72846,-26.7318,Q,Q
2023-03-15 13:16:43:221,0,2.44629,-7.87193,-26.9843,Q,Q
2023-03-15 13:16:43:231,0,1.86618,-8.02,-27.2677,Q,Q
2023-03-15 13:16:43:241,0,1.29071,-8.16239,-27.5814,Q,Q
2023-03-15 13:16:43:251,0,0.731746,-8.29233,-27.9233,Q,Q
2023-03-15 13:16:43:261,0,0.196691,-8.41156,-28.2887,Q,Q
2023-03-15 13:16:43:271,0,-0.30408,-8.51718,-28.6698,Q,Q
2023-03-15 13:16:43:281,0,-0.770624,-8.61756,-29.0635,Q,Q
2023-03-15 13:16:43:291,0,-1.20368,-8.71333,-29.4654,Q,Q
2023-03-15 13:16:43:301,0,-1.59938,-8.8026,-29.8733,Q,Q
2023-03-15 13:16:43:311,0,-1.95602,-8.88494,-30.283,Q,Q
2023-03-15 13:16:43:321,0,-2.27865,-8.95599,-30.6909,Q,Q
2023-03-15 13:16:43:331,0,-2.56564,-9.01995,-31.0911,Q,Q
2023-03-15 13:16:43:341,0,-2.82536,-9.07613,-31.4811,Q,Q
2023-03-15 13:16:43:351,0,-3.06403,-9.12675,-31.8554,Q,Q
2023-03-15 13:16:43:361,0,-3.29219,-9.16879,-32.2151,Q,Q
2023-03-15 13:16:43:371,0,-3.50873,-9.20375,-32.558,Q,Q
2023-03-15 13:16:43:381,0,-3.71946,-9.22901,-32.8831,Q,Q
2023-03-15 13:16:43:391,0,-3.92847,-9.24972,-33.1907,Q,Q
2023-03-15 13:16:43:401,0,-4.13802,-9.27505,-33.472,Q,Q
2023-03-15 13:16:43:411,0,-4.36191,-9.297,-33.7286,Q,Q
2023-03-15 13:16:43:421,0,-4.59442,-9.31813,-33.9593,Q,Q
2023-03-15 13:16:43:431,0,-4.83548,-9.35037,-34.1632,Q,Q
2023-03-15 13:16:43:441,0,-5.08893,-9.38281,-34.3357,Q,Q
2023-03-15 13:16:43:451,0,-5.34944,-9.41756,-34.4861,Q,Q
2023-03-15 13:16:43:461,0,-5.6156,-9.45047,-34.6182,Q,Q
2023-03-15 13:16:43:471,0,-5.89047,-9.49219,-34.7251,Q,Q
2023-03-15 13:16:43:481,0,-6.17495,-9.54268,-34.8124,Q,Q
2023-03-15 13:16:43:491,0,-6.46757,-9.5886,-34.8813,Q,Q
2023-03-15 13:16:43:501,0,-6.76634,-9.63187,-34.9366,Q,Q
2023-03-15 13:16:43:511,0,-7.07281,-9.6778,-34.9793,Q,Q
2023-03-15 13:16:43:521,0,-7.38214,-9.72373,-35.0129,Q,Q
2023-03-15 13:16:43:531,0,-7.69715,-9.76943,-35.042,Q,Q
2023-03-15 13:16:43:541,0,-8.01284,-9.81296,-35.0655,Q,Q
2023-03-15 13:16:43:551,0,-8.33267,-9.84187,-35.0832,Q,Q
2023-03-15 13:16:43:561,0,-8.65398,-9.87407,-35.0989,Q,Q
2023-03-15 13:16:43:571,0,-8.97471,-9.89584,-35.1088,Q,Q
2023-03-15 13:16:43:581,0,-9.29454,-9.92157,-35.116,Q,Q
2023-03-15 13:16:43:591,0,-9.61909,-9.94987,-35.1173,Q,Q
2023-03-15 13:16:43:601,0,-9.93468,-9.98326,-35.1261,Q,Q
2023-03-15 13:16:43:611,0,-10.243,-10.0148,-35.1411,Q,Q
2023-03-15 13:16:43:621,0,-10.5494,-10.0446,-35.1592,Q,Q
2023-03-15 13:16:43:631,0,-10.8543,-10.0737,-35.1854,Q,Q
2023-03-15 13:16:43:641,0,-11.1573,-10.0969,-35.216,Q,Q
2023-03-15 13:16:43:651,0,-11.4537,-10.1155,-35.2495,Q,Q
2023-03-15 13:16:43:661,0,-11.7477,-10.1399,-35.2861,Q,Q
2023-03-15 13:16:43:671,0,-12.0326,-10.1483,-35.3213,Q,Q
2023-03-15 13:16:43:681,0,-12.2958,-10.1429,-35.3613,Q,Q
2023-03-15 13:16:43:691,0,-12.5467,-10.154,-35.399,Q,Q
2023-03-15 13:16:43:701,0,-12.7916,-10.133,-35.4377,Q,Q
2023-03-15 13:16:43:711,0,-13.0102,-10.1144,-35.4838,Q,Q
2023-03-15 13:16:43:721,0,-13.2198,-10.0962,-35.5258,Q,Q
2023-03-15 13:16:43:731,0,-13.422,-10.0736,-35.5636,Q,Q
2023-03-15 13:16:43:741,0,-13.6114,-10.0486,-35.605,Q,Q
2023-03-15 13:16:43:751,0,-13.7816,-10.0165,-35.6434,Q,Q
2023-03-15 13:16:43:761,0,-13.9367,-9.99223,-35.6719,Q,Q
2023-03-15 13:16:43:771,0,-14.0856,-9.9706,-35.6855,Q,Q
2023-03-15 13:16:43:781,0,-14.2243,-9.95033,-35.6975,Q,Q
2023-03-15 13:16:43:791,0,-14.3513,-9.92992,-35.7109,Q,Q
2023-03-15 13:16:43:801,0,-14.4684,-9.90874,-35.7214,Q,Q
2023-03-15 13:16:43:811,0,-14.5883,-9.89021,-35.7358,Q,Q
2023-03-15 13:16:43:821,0,-14.7068,-9.87041,-35.7528,Q,Q
2023-03-15 13:16:43:831,0,-14.8203,-9.86033,-35.7724,Q,Q
2023-03-15 13:16:43:841,0,-14.9266,-9.84973,-35.7916,Q,Q
2023-03-15 13:16:43:851,0,-15.0244,-9.84237,-35.8085,Q,Q
2023-03-15 13:16:43:861,0,-15.1117,-9.83546,-35.8253,Q,Q
2023-03-15 13:16:43:871,0,-15.1899,-9.83112,-35.8385,Q,Q
2023-03-15 13:16:43:881,0,-15.2609,-9.82498,-35.8505,Q,Q
2023-03-15 13:16:43:891,0,-15.3236,-9.81782,-35.8635,Q,Q
2023-03-15 13:16:43:901,0,-15.384,-9.81284,-35.8705,Q,Q
2023-03-15 13:16:43:911,0,-15.4434,-9.80702,-35.8722,Q,Q
2023-03-15 13:16:43:921,0,-15.5051,-9.79961,-35.8767,Q,Q
2023-03-15 13:16:43:931,0,-15.5685,-9.7896,-35.8823,Q,Q
2023-03-15 13:16:43:941,0,-15.6347,-9.77464,-35.883,Q,Q
2023-03-15 13:16:43:951,0,-15.7111,-9.75574,-35.8763,Q,Q
2023-03-15 13:16:43:961,0,-15.7976,-9.73617,-35.8651,Q,Q
2023-03-15 13:16:43:971,0,-15.8946,-9.70786,-35.8499,Q,Q
2023-03-15 13:16:43:981,0,-16.0035,-9.66898,-35.8298,Q,Q
2023-03-15 13:16:43:991,0,-16.1221,-9.61541,-35.8021,Q,Q
2023-03-15 13:16:44:1,0,-16.2509,-9.55336,-35.7586,Q,Q
2023-03-15 13:16:44:11,0,-16.392,-9.47506,-35.7063,Q,Q
2023-03-15 13:16:44:21,0,-16.545,-9.38467,-35.6419,Q,Q
2023-03-15 13:16:44:31,0,-16.7131,-9.28563,-35.5637,Q,Q
2023-03-15 13:16:44:41,0,-16.8928,-9.18927,-35.4707,Q,Q
2023-03-15 13:16:44:51,0,-17.0825,-9.08392,-35.3699,Q,Q
2023-03-15 13:16:44:61,0,-17.2764,-8.98372,-35.2739,Q,Q
2023-03-15 13:16:44:71,0,-17.4804,-8.88998,-35.1829,Q,Q
2023-03-15 13:16:44:81,0,-17.6867,-8.79603,-35.0975,Q,Q
2023-03-15 13:16:44:91,0,-17.8894,-8.71241,-35.0123,Q,Q
2023-03-15 13:16:44:101,0,-18.0861,-8.63746,-34.934,Q,Q
2023-03-15 13:16:44:111,0,-18.2763,-8.57053,-34.8592,Q,Q
2023-03-15 13:16:44:121,0,-18.4612,-8.50773,-34.7902,Q,Q
2023-03-15 13:16:44:131,0,-18.6415,-8.4535,-34.7257,Q,Q
2023-03-15 13:16:44:141,0,-18.8127,-8.39965,-34.6638,Q,Q
2023-03-15 13:16:44:151,0,-18.9738,-8.34261,-34.6019,Q,Q
2023-03-15 13:16:44:161,0,-19.133,-8.28148,-34.5442,Q,Q
2023-03-15 13:16:44:171,0,-19.2853,-8.21522,-34.4932,Q,Q
2023-03-15 13:16:44:181,0,-19.4205,-8.14379,-34.4519,Q,Q
2023-03-15 13:16:44:191,0,-19.5439,-8.06708,-34.4189,Q,Q
2023-03-15 13:16:44:201,0,-19.6597,-7.98626,-34.3883,Q,Q
2023-03-15 13:16:44:211,0,-19.7667,-7.90435,-34.3628,Q,Q
2023-03-15 13:16:44:221,0,-19.8704,-7.81992,-34.3366,Q,Q
2023-03-15 13:16:44:231,0,-19.9685,-7.73407,-34.3165,Q,Q
2023-03-15 13:16:44:241,0,-20.062,-7.64626,-34.2973,Q,Q
2023-03-15 13:16:44:251,0,-20.1525,-7.55762,-34.2691,Q,Q
2023-03-15 13:16:44:261,0,-20.2417,-7.4668,-34.2359,Q,Q
2023-03-15 13:16:44:271,0,-20.3278,-7.38223,-34.2059,Q,Q
2023-03-15 13:16:44:281,0,-20.4119,-7.30374,-34.1805,Q,Q
2023-03-15 13:16:44:291,0,-20.4888,-7.22851,-34.1584,Q,Q
2023-03-15 13:16:44:301,0,-20.5586,-7.16762,-34.1449,Q,Q
2023-03-15 13:16:44:311,0,-20.6221,-7.12373,-34.1287,Q,Q
2023-03-15 13:16:44:321,0,-20.6845,-7.0891,-34.115,Q,Q
2023-03-15 13:16:44:331,0,-20.7515,-7.06033,-34.1006,Q,Q
2023-03-15 13:16:44:341,0,-20.8217,-7.04481,-34.0893,Q,Q
2023-03-15 13:16:44:351,0,-20.896,-7.03257,-34.0798,Q,Q
2023-03-15 13:16:44:361,0,-20.9745,-7.0198,-34.0712,Q,Q
2023-03-15 13:16:44:371,0,-21.0666,-7.00439,-34.0627,Q,Q
2023-03-15 13:16:44:381,0,-21.163,-6.98644,-34.051,Q,Q
2023-03-15 13:16:44:391,0,-21.2654,-6.97108,-34.0436,Q,Q
2023-03-15 13:16:44:401,0,-21.3691,-6.95618,-34.0365,Q,Q
2023-03-15 13:16:44:411,0,-21.474,-6.93846,-34.0276,Q,Q
2023-03-15 13:16:44:421,0,-21.5759,-6.91809,-34.0223,Q,Q
2023-03-15 13:16:44:431,0,-21.673,-6.88972,-34.0231,Q,Q
2023-03-15 13:16:44:441,0,-21.7659,-6.84737,-34.0305,Q,Q
2023-03-15 13:16:44:451,0,-21.8523,-6.80495,-34.0353,Q,Q
2023-03-15 13:16:44:461,0,-21.9312,-6.76098,-34.0315,Q,Q
2023-03-15 13:16:44:471,0,-22.0059,-6.71563,-34.0281,Q,Q
2023-03-15 13:16:44:481,0,-22.073,-6.66785,-34.0223,Q,Q
2023-03-15 13:16:44:491,0,-22.1402,-6.61654,-34.016,Q,Q
2023-03-15 13:16:44:501,0,-22.2032,-6.56436,-34.0105,Q,Q
2023-03-15 13:16:44:511,0,-22.2633,-6.51099,-34.0009,Q,Q
2023-03-15 13:16:44:521,0,-22.3207,-6.45476,-33.9901,Q,Q
2023-03-15 13:16:44:531,0,-22.3773,-6.3991,-33.9742,Q,Q
2023-03-15 13:16:44:541,0,-22.4259,-6.34113,-33.9567,Q,Q
2023-03-15 13:16:44:551,0,-22.4681,-6.29297,-33.9317,Q,Q
2023-03-15 13:16:44:561,0,-22.5113,-6.24912,-33.9043,Q,Q
2023-03-15 13:16:44:571,0,-22.5534,-6.20385,-33.8793,Q,Q
2023-03-15 13:16:44:581,0,-22.5909,-6.16493,-33.855,Q,Q
2023-03-15 13:16:44:591,0,-22.6228,-6.13125,-33.8298,Q,Q
2023-03-15 13:16:44:601,0,-22.6519,-6.10355,-33.8048,Q,Q
2023-03-15 13:16:44:611,0,-22.6804,-6.07754,-33.7851,Q,Q
2023-03-15 13:16:44:621,0,-22.7023,-6.05822,-33.7662,Q,Q
2023-03-15 13:16:44:631,0,-22.724,-6.04695,-33.7551,Q,Q
2023-03-15 13:16:44:641,0,-22.7424,-6.04114,-33.7441,Q,Q
2023-03-15 13:16:44:651,0,-22.7611,-6.04243,-33.7353,Q,Q
2023-03-15 13:16:44:661,0,-22.7828,-6.046,-33.7288,Q,Q
2023-03-15 13:16:44:671,0,-22.803,-6.05465,-33.7268,Q,Q
2023-03-15 13:16:44:681,0,-22.8188,-6.0633,-33.7257,Q,Q
2023-03-15 13:16:44:691,0,-22.8312,-6.07304,-33.7323,Q,Q
2023-03-15 13:16:44:701,0,-22.8394,-6.08147,-33.7414,Q,Q
2023-03-15 13:16:44:711,0,-22.8441,-6.09423,-33.7519,Q,Q
2023-03-15 13:16:44:721,0,-22.8482,-6.11032,-33.7653,Q,Q
2023-03-15 13:16:44:731,0,-22.8503,-6.12421,-33.782,Q,Q
2023-03-15 13:16:44:741,0,-22.8517,-6.1369,-33.7968,Q,Q
2023-03-15 13:16:44:751,0,-22.8507,-6.1524,-33.8125,Q,Q
2023-03-15 13:16:44:761,0,-22.8527,-6.16439,-33.8285,Q,Q
2023-03-15 13:16:44:771,0,-22.8506,-6.17172,-33.8442,Q,Q
2023-03-15 13:16:44:781,0,-22.851,-6.17583,-33.8591,Q,Q
2023-03-15 13:16:44:791,0,-22.8504,-6.18023,-33.8763,Q,Q
2023-03-15 13:16:44:801,0,-22.8548,-6.1867,-33.8919,Q,Q
2023-03-15 13:16:44:811,0,-22.8628,-6.19668,-33.9074,Q,Q
2023-03-15 13:16:44:821,0,-22.8758,-6.20524,-33.9224,Q,Q
2023-03-15 13:16:44:831,0,-22.8949,-6.21677,-33.9377,Q,Q
2023-03-15 13:16:44:841,0,-22.924,-6.22163,-33.9536,Q,Q
2023-03-15 13:16:44:851,0,-22.9531,-6.22981,-33.9723,Q,Q
2023-03-15 13:16:44:861,0,-22.9846,-6.23306,-33.9939,Q,Q
2023-03-15 13:16:44:871,0,-23.017,-6.23902,-34.0178,Q,Q
2023-03-15 13:16:44:881,0,-23.0498,-6.24383,-34.0405,Q,Q
2023-03-15 13:16:44:891,0,-23.0841,-6.24992,-34.0654,Q,Q
2023-03-15 13:16:44:901,0,-23.1147,-6.26012,-34.0936,Q,Q
2023-03-15 13:16:44:911,0,-23.1459,-6.26546,-34.124,Q,Q
2023-03-15 13:16:44:921,0,-23.1758,-6.2727,-34.1586,Q,Q
2023-03-15 13:16:44:931,0,-23.201,-6.27947,-34.1962,Q,Q
2023-03-15 13:16:44:941,0,-23.2228,-6.29376,-34.2368,Q,Q
2023-03-15 13:16:44:951,0,-23.2421,-6.30547,-34.2838,Q,Q
2023-03-15 13:16:44:961,0,-23.2569,-6.31929,-34.3326,Q,Q
2023-03-15 13:16:44:971,0,-23.2677,-6.33082,-34.3857,Q,Q
2023-03-15 13:16:44:981,0,-23.2715,-6.33923,-34.4427,Q,Q
2023-03-15 13:16:44:991,0,-23.2676,-6.35174,-34.5045,Q,Q
2023-03-15 13:16:45:1,0,-23.2582,-6.36689,-34.5664,Q,Q
2023-03-15 13:16:45:11,0,-23.2475,-6.38812,-34.6309,Q,Q
2023-03-15 13:16:45:21,0,-23.2316,-6.41298,-34.6962,Q,Q
2023-03-15 13:16:45:31,0,-23.2183,-6.44067,-34.7611,Q,Q
2023-03-15 13:16:45:41,0,-23.2046,-6.47199,-34.8322,Q,Q
2023-03-15 13:16:45:51,0,-23.1913,-6.50535,-34.9034,Q,Q
2023-03-15 13:16:45:61,0,-23.1796,-6.54016,-34.9794,Q,Q
2023-03-15 13:16:45:71,0,-23.1696,-6.57245,-35.0623,Q,Q
2023-03-15 13:16:45:81,0,-23.1614,-6.60742,-35.1503,Q,Q
2023-03-15 13:16:45:91,0,-23.1532,-6.64014,-35.2476,Q,Q
2023-03-15 13:16:45:101,0,-23.1434,-6.67815,-35.3452,Q,Q
2023-03-15 13:16:45:111,0,-23.1373,-6.71342,-35.4511,Q,Q
2023-03-15 13:16:45:121,0,-23.1313,-6.75023,-35.5577,Q,Q
2023-03-15 13:16:45:131,0,-23.1225,-6.78497,-35.6628,Q,Q
2023-03-15 13:16:45:141,0,-23.1135,-6.82147,-35.7639,Q,Q
2023-03-15 13:16:45:151,0,-23.1035,-6.85794,-35.8657,Q,Q
2023-03-15 13:16:45:161,0,-23.0956,-6.89035,-35.9697,Q,Q
2023-03-15 13:16:45:171,0,-23.0959,-6.91265,-36.076,Q,Q
2023-03-15 13:16:45:181,0,-23.1026,-6.92993,-36.1854,Q,Q
2023-03-15 13:16:45:191,0,-23.1144,-6.93756,-36.2984,Q,Q
2023-03-15 13:16:45:201,0,-23.1262,-6.93417,-36.4109,Q,Q
2023-03-15 13:16:45:211,0,-23.1441,-6.92079,-36.5188,Q,Q
2023-03-15 13:16:45:221,0,-23.1637,-6.9003,-36.6211,Q,Q
2023-03-15 13:16:45:231,0,-23.1832,-6.86564,-36.7228,Q,Q
2023-03-15 13:16:45:241,0,-23.1997,-6.81544,-36.8238,Q,Q
2023-03-15 13:16:45:251,0,-23.2154,-6.76244,-36.9206,Q,Q
2023-03-15 13:16:45:261,0,-23.2317,-6.71127,-37.0045,Q,Q
2023-03-15 13:16:45:271,0,-23.2473,-6.66255,-37.0792,Q,Q
2023-03-15 13:16:45:281,0,-23.2553,-6.61673,-37.1501,Q,Q
2023-03-15 13:16:45:291,0,-23.2661,-6.57343,-37.2223,Q,Q
2023-03-15 13:16:45:301,0,-23.2732,-6.51992,-37.3024,Q,Q
2023-03-15 13:16:45:311,0,-23.2828,-6.45756,-37.3886,Q,Q
2023-03-15 13:16:45:321,0,-23.293,-6.40097,-37.48,Q,Q
2023-03-15 13:16:45:331,0,-23.3117,-6.34956,-37.567,Q,Q
2023-03-15 13:16:45:341,0,-23.3387,-6.31313,-37.6531,Q,Q
2023-03-15 13:16:45:351,0,-23.3735,-6.28489,-37.745,Q,Q
2023-03-15 13:16:45:361,0,-23.4077,-6.25819,-37.8529,Q,Q
2023-03-15 13:16:45:371,0,-23.4466,-6.23362,-37.9886,Q,Q
2023-03-15 13:16:45:381,0,-23.4738,-6.21735,-38.1694,Q,Q
2023-03-15 13:16:45:391,0,-23.4886,-6.21544,-38.4099,Q,Q
2023-03-15 13:16:45:401,0,-23.4845,-6.20855,-38.7117,Q,Q
2023-03-15 13:16:45:411,0,-23.4609,-6.21311,-39.0675,Q,Q
2023-03-15 13:16:45:421,0,-23.4283,-6.22387,-39.4547,Q,Q
2023-03-15 13:16:45:431,0,-23.3943,-6.24753,-39.8708,Q,Q
2023-03-15 13:16:45:441,0,-23.3601,-6.28506,-40.3042,Q,Q
2023-03-15 13:16:45:451,0,-23.328,-6.33225,-40.7546,Q,Q
2023-03-15 13:16:45:461,0,-23.2915,-6.38189,-41.2105,Q,Q
2023-03-15 13:16:45:471,0,-23.2546,-6.42562,-41.6629,Q,Q
2023-03-15 13:16:45:481,0,-23.2169,-6.46284,-42.1042,Q,Q
2023-03-15 13:16:45:491,0,-23.1838,-6.49048,-42.5212,Q,Q
2023-03-15 13:16:45:501,0,-23.1611,-6.50323,-42.9054,Q,Q
2023-03-15 13:16:45:511,0,-23.1566,-6.50815,-43.2502,Q,Q
2023-03-15 13:16:45:521,0,-23.1678,-6.50035,-43.5547,Q,Q
2023-03-15 13:16:45:531,0,-23.2001,-6.47804,-43.8135,Q,Q
2023-03-15 13:16:45:541,0,-23.2539,-6.44716,-44.0247,Q,Q
2023-03-15 13:16:45:551,0,-23.3248,-6.4019,-44.187,Q,Q
2023-03-15 13:16:45:561,0,-23.4059,-6.3451,-44.3044,Q,Q
2023-03-15 13:16:45:571,0,-23.4848,-6.281,-44.3773,Q,Q
2023-03-15 13:16:45:581,0,-23.547,-6.21159,-44.4151,Q,Q
2023-03-15 13:16:45:591,0,-23.5825,-6.13449,-44.426,Q,Q
2023-03-15 13:16:45:601,0,-23.5886,-6.05256,-44.4118,Q,Q
2023-03-15 13:16:45:611,0,-23.5594,-5.96135,-44.3735,Q,Q
2023-03-15 13:16:45:621,0,-23.4999,-5.87263,-44.3102,Q,Q
2023-03-15 13:16:45:631,0,-23.4113,-5.7919,-44.2216,Q,Q
2023-03-15 13:16:45:641,0,-23.2969,-5.72568,-44.111,Q,Q
2023-03-15 13:16:45:651,0,-23.1529,-5.6722,-43.9819,Q,Q
2023-03-15 13:16:45:661,0,-22.9741,-5.6316,-43.8451,Q,Q
2023-03-15 13:16:45:671,0,-22.7592,-5.609,-43.7093,Q,Q
2023-03-15 13:16:45:681,0,-22.5136,-5.58563,-43.5734,Q,Q
2023-03-15 13:16:45:691,0,-22.2426,-5.57606,-43.4426,Q,Q
2023-03-15 13:16:45:701,0,-21.956,-5.56532,-43.3138,Q,Q
2023-03-15 13:16:45:711,0,-21.654,-5.56171,-43.1921,Q,Q
2023-03-15 13:16:45:721,0,-21.3504,-5.56545,-43.0804,Q,Q
2023-03-15 13:16:45:731,0,-21.0516,-5.56538,-42.9818,Q,Q
2023-03-15 13:16:45:741,0,-20.7499,-5.55834,-42.898,Q,Q
2023-03-15 13:16:45:751,0,-20.4486,-5.54944,-42.8297,Q,Q
2023-03-15 13:16:45:761,0,-20.1423,-5.52175,-42.7806,Q,Q
2023-03-15 13:16:45:771,0,-19.8293,-5.47213,-42.7477,Q,Q
2023-03-15 13:16:45:781,0,-19.5256,-5.40598,-42.7244,Q,Q
2023-03-15 13:16:45:791,0,-19.2483,-5.33071,-42.6983,Q,Q
2023-03-15 13:16:45:801,0,-19.0098,-5.26146,-42.6664,Q,Q
2023-03-15 13:16:45:811,0,-18.8084,-5.19774,-42.6263,Q,Q
2023-03-15 13:16:45:821,0,-18.6335,-5.13825,-42.5837,Q,Q
2023-03-15 13:16:45:831,0,-18.4618,-5.08692,-42.5352,Q,Q
2023-03-15 13:16:45:841,0,-18.2865,-5.05084,-42.4869,Q,Q
2023-03-15 13:16:45:851,0,-18.1014,-5.01535,-42.4369,Q,Q
2023-03-15 13:16:45:861,0,-17.9102,-4.9881,-42.389,Q,Q
2023-03-15 13:16:45:871,0,-17.7221,-4.97414,-42.3482,Q,Q
2023-03-15 13:16:45:881,0,-17.5268,-4.94206,-42.3047,Q,Q
2023-03-15 13:16:45:891,0,-17.3286,-4.92134,-42.2609,Q,Q
2023-03-15 13:16:45:901,0,-17.1359,-4.90543,-42.2163,Q,Q
2023-03-15 13:16:45:911,0,-16.9548,-4.89327,-42.1678,Q,Q
2023-03-15 13:16:45:921,0,-16.7733,-4.88314,-42.1196,Q,Q
2023-03-15 13:16:45:931,0,-16.5951,-4.8723,-42.0752,Q,Q
2023-03-15 13:16:45:941,0,-16.4087,-4.86453,-42.0291,Q,Q
2023-03-15 13:16:45:951,0,-16.2145,-4.86309,-41.9798,Q,Q
2023-03-15 13:16:45:961,0,-16.0179,-4.87306,-41.9289,Q,Q
2023-03-15 13:16:45:971,0,-15.8061,-4.87214,-41.8751,Q,Q
2023-03-15 13:16:45:981,0,-15.5741,-4.86946,-41.8185,Q,Q
2023-03-15 13:16:45:991,0,-15.3281,-4.88006,-41.7575,Q,Q
2023-03-15 13:16:46:1,0,-15.0814,-4.88903,-41.6936,Q,Q
2023-03-15 13:16:46:11,0,-14.8326,-4.90794,-41.6353,Q,Q
2023-03-15 13:16:46:21,0,-14.5808,-4.93323,-41.5719,Q,Q
2023-03-15 13:16:46:31,0,-14.3239,-4.95455,-41.5093,Q,Q
2023-03-15 13:16:46:41,0,-14.0555,-4.98641,-41.4481,Q,Q
2023-03-15 13:16:46:51,0,-13.7796,-5.02054,-41.3832,Q,Q
2023-03-15 13:16:46:61,0,-13.4865,-5.0545,-41.3264,Q,Q
2023-03-15 13:16:46:71,0,-13.1801,-5.08724,-41.2766,Q,Q
2023-03-15 13:16:46:81,0,-12.8617,-5.11623,-41.2254,Q,Q
2023-03-15 13:16:46:91,0,-12.5259,-5.13937,-41.1856,Q,Q
2023-03-15 13:16:46:101,0,-12.1904,-5.1662,-41.1457,Q,Q
2023-03-15 13:16:46:111,0,-11.8634,-5.18849,-41.1099,Q,Q
2023-03-15 13:16:46:121,0,-11.5396,-5.21827,-41.0753,Q,Q
2023-03-15 13:16:46:131,0,-11.2243,-5.28419,-41.0476,Q,Q
2023-03-15 13:16:46:141,0,-10.9022,-5.31468,-41.0258,Q,Q
2023-03-15 13:16:46:151,0,-10.558,-5.3225,-41.0033,Q,Q
2023-03-15 13:16:46:161,0,-10.2046,-5.31475,-40.9842,Q,Q
2023-03-15 13:16:46:171,0,-9.84625,-5.31852,-40.9595,Q,Q
2023-03-15 13:16:46:181,0,-9.5048,-5.33584,-40.9235,Q,Q
2023-03-15 13:16:46:191,0,-9.18553,-5.35876,-40.8762,Q,Q
2023-03-15 13:16:46:201,0,-8.89817,-5.40794,-40.8251,Q,Q
2023-03-15 13:16:46:211,0,-8.64133,-5.47706,-40.7667,Q,Q
2023-03-15 13:16:46:221,0,-8.40381,-5.55145,-40.6967,Q,Q
2023-03-15 13:16:46:231,0,-8.16907,-5.6384,-40.6192,Q,Q
2023-03-15 13:16:46:241,0,-7.92936,-5.74534,-40.5318,Q,Q
2023-03-15 13:16:46:251,0,-7.68544,-5.85163,-40.4277,Q,Q
2023-03-15 13:16:46:261,0,-7.44241,-5.95413,-40.3138,Q,Q
2023-03-15 13:16:46:271,0,-7.19499,-6.05182,-40.187,Q,Q
2023-03-15 13:16:46:281,0,-6.94105,-6.16462,-40.0399,Q,Q
2023-03-15 13:16:46:291,0,-6.68987,-6.29902,-39.878,Q,Q
2023-03-15 13:16:46:301,0,-6.44905,-6.45313,-39.7011,Q,Q
2023-03-15 13:16:46:311,0,-6.22622,-6.61121,-39.5193,Q,Q
2023-03-15 13:16:46:321,0,-6.01499,-6.7442,-39.3374,Q,Q
2023-03-15 13:16:46:331,0,-5.8056,-6.86452,-39.1637,Q,Q
2023-03-15 13:16:46:341,0,-5.60409,-6.97134,-38.9964,Q,Q
2023-03-15 13:16:46:351,0,-5.4142,-7.06946,-38.8327,Q,Q
2023-03-15 13:16:46:361,0,-5.22918,-7.1579,-38.6709,Q,Q
2023-03-15 13:16:46:371,0,-5.03879,-7.23169,-38.5164,Q,Q
2023-03-15 13:16:46:381,0,-4.82477,-7.2882,-38.3724,Q,Q
2023-03-15 13:16:46:391,0,-4.59027,-7.32907,-38.2311,Q,Q
2023-03-15 13:16:46:401,0,-4.34428,-7.35953,-38.0923,Q,Q
2023-03-15 13:16:46:411,0,-4.09382,-7.38355,-37.9578,Q,Q
2023-03-15 13:16:46:421,0,-3.8431,-7.39848,-37.8273,Q,Q
2023-03-15 13:16:46:431,0,-3.59836,-7.40735,-37.6999,Q,Q
2023-03-15 13:16:46:441,0,-3.36104,-7.40891,-37.5775,Q,Q
2023-03-15 13:16:46:452,0,-3.12337,-7.41004,-37.4632,Q,Q
2023-03-15 13:16:46:461,0,-2.88105,-7.41384,-37.3503,Q,Q
2023-03-15 13:16:46:471,0,-2.61982,-7.4193,-37.2418,Q,Q
2023-03-15 13:16:46:481,0,-2.33468,-7.42744,-37.1392,Q,Q
2023-03-15 13:16:46:491,0,-2.03331,-7.44323,-37.0383,Q,Q
2023-03-15 13:16:46:501,0,-1.7189,-7.46046,-36.9416,Q,Q
2023-03-15 13:16:46:511,0,-1.40593,-7.47979,-36.8461,Q,Q
2023-03-15 13:16:46:521,0,-1.10749,-7.49919,-36.7609,Q,Q
2023-03-15 13:16:46:531,0,-0.833919,-7.509,-36.6904,Q,Q
2023-03-15 13:16:46:541,0,-0.581245,-7.51336,-36.6336,Q,Q
2023-03-15 13:16:46:551,0,-0.341472,-7.5048,-36.5995,Q,Q
2023-03-15 13:16:46:561,0,-0.105468,-7.47976,-36.5842,Q,Q
2023-03-15 13:16:46:572,0,0.132436,-7.4435,-36.5839,Q,Q
2023-03-15 13:16:46:581,0,0.371167,-7.38352,-36.5966,Q,Q
2023-03-15 13:16:46:591,0,0.624729,-7.29489,-36.6237,Q,Q
2023-03-15 13:16:46:601,0,0.87997,-7.18954,-36.6585,Q,Q
2023-03-15 13:16:46:611,0,1.13007,-7.07316,-36.6941,Q,Q
2023-03-15 13:16:46:621,0,1.36809,-6.95364,-36.7281,Q,Q
2023-03-15 13:16:46:631,0,1.59294,-6.8387,-36.7546,Q,Q
2023-03-15 13:16:46:641,0,1.80962,-6.72395,-36.7784,Q,Q
2023-03-15 13:16:46:651,0,2.02169,-6.61669,-36.796,Q,Q
2023-03-15 13:16:46:661,0,2.23272,-6.51724,-36.809,Q,Q
2023-03-15 13:16:46:671,0,2.44573,-6.4236,-36.8136,Q,Q
2023-03-15 13:16:46:681,0,2.66622,-6.33668,-36.8152,Q,Q
2023-03-15 13:16:46:691,0,2.88982,-6.24931,-36.8128,Q,Q
2023-03-15 13:16:46:701,0,3.1251,-6.1621,-36.8077,Q,Q
2023-03-15 13:16:46:711,0,3.37189,-6.0696,-36.8051,Q,Q
2023-03-15 13:16:46:721,0,3.62212,-5.97731,-36.794,Q,Q
2023-03-15 13:16:46:731,0,3.87626,-5.87841,-36.7806,Q,Q
2023-03-15 13:16:46:741,0,4.11595,-5.77725,-36.7636,Q,Q
2023-03-15 13:16:46:751,0,4.3448,-5.66473,-36.7451,Q,Q
2023-03-15 13:16:46:761,0,4.55996,-5.53683,-36.7217,Q,Q
2023-03-15 13:16:46:771,0,4.76369,-5.41035,-36.6977,Q,Q
2023-03-15 13:16:46:781,0,4.94641,-5.28196,-36.6735,Q,Q
2023-03-15 13:16:46:791,0,5.10989,-5.15037,-36.6434,Q,Q
2023-03-15 13:16:46:801,0,5.26485,-5.01298,-36.6126,Q,Q
2023-03-15 13:16:46:811,0,5.42431,-4.872,-36.5834,Q,Q
2023-03-15 13:16:46:821,0,5.59381,-4.72132,-36.5525,Q,Q
2023-03-15 13:16:46:831,0,5.77163,-4.56429,-36.5129,Q,Q
2023-03-15 13:16:46:841,0,5.95539,-4.40713,-36.468,Q,Q
2023-03-15 13:16:46:851,0,6.13576,-4.24822,-36.4203,Q,Q
2023-03-15 13:16:46:861,0,6.31167,-4.07734,-36.3685,Q,Q
2023-03-15 13:16:46:871,0,6.48285,-3.90326,-36.3135,Q,Q
2023-03-15 13:16:46:881,0,6.64763,-3.71865,-36.2499,Q,Q
2023-03-15 13:16:46:892,0,6.81115,-3.52788,-36.1753,Q,Q
2023-03-15 13:16:46:901,0,6.96773,-3.34584,-36.1032,Q,Q
2023-03-15 13:16:46:911,0,7.11792,-3.17633,-36.0265,Q,Q
2023-03-15 13:16:46:921,0,7.25627,-3.01273,-35.9446,Q,Q
2023-03-15 13:16:46:931,0,7.39315,-2.84883,-35.8655,Q,Q
2023-03-15 13:16:46:941,0,7.52391,-2.68693,-35.7822,Q,Q
2023-03-15 13:16:46:951,0,7.64436,-2.53813,-35.6904,Q,Q
2023-03-15 13:16:46:961,0,7.75115,-2.40951,-35.5941,Q,Q
2023-03-15 13:16:46:971,0,7.84048,-2.29873,-35.4957,Q,Q
2023-03-15 13:16:46:981,0,7.90813,-2.19899,-35.4017,Q,Q
2023-03-15 13:16:46:991,0,7.9598,-2.10552,-35.3174,Q,Q
2023-03-15 13:16:47:1,0,7.98659,-2.01883,-35.2372,Q,Q
2023-03-15 13:16:47:11,0,7.99987,-1.94231,-35.1624,Q,Q
2023-03-15 13:16:47:21,0,7.99285,-1.86624,-35.0933,Q,Q
2023-03-15 13:16:47:31,0,7.97089,-1.79242,-35.0307,Q,Q
2023-03-15 13:16:47:41,0,7.9362,-1.71809,-34.9731,Q,Q
2023-03-15 13:16:47:51,0,7.89115,-1.6416,-34.9182,Q,Q
2023-03-15 13:16:47:61,0,7.83246,-1.56059,-34.8615,Q,Q
2023-03-15 13:16:47:71,0,7.76515,-1.48611,-34.8024,Q,Q
2023-03-15 13:16:47:81,0,7.70108,-1.43184,-34.7397,Q,Q
2023-03-15 13:16:47:91,0,7.63503,-1.3938,-34.669,Q,Q
2023-03-15 13:16:47:101,0,7.57334,-1.36713,-34.5965,Q,Q
2023-03-15 13:16:47:111,0,7.50913,-1.35574,-34.5172,Q,Q
2023-03-15 13:16:47:121,0,7.43954,-1.36535,-34.4422,Q,Q
2023-03-15 13:16:47:131,0,7.35673,-1.38925,-34.3659,Q,Q
2023-03-15 13:16:47:141,0,7.26106,-1.41921,-34.2942,Q,Q
2023-03-15 13:16:47:151,0,7.16441,-1.44588,-34.2314,Q,Q
2023-03-15 13:16:47:161,0,7.07394,-1.47068,-34.1803,Q,Q
2023-03-15 13:16:47:171,0,6.98825,-1.51053,-34.1416,Q,Q
2023-03-15 13:16:47:181,0,6.90424,-1.55762,-34.1095,Q,Q
2023-03-15 13:16:47:191,0,6.81694,-1.6075,-34.0859,Q,Q
2023-03-15 13:16:47:201,0,6.73415,-1.64723,-34.0791,Q,Q
2023-03-15 13:16:47:211,0,6.66082,-1.67113,-34.0912,Q,Q
2023-03-15 13:16:47:221,0,6.59655,-1.67708,-34.1157,Q,Q
2023-03-15 13:16:47:231,0,6.52636,-1.66494,-34.1506,Q,Q
2023-03-15 13:16:47:241,0,6.44764,-1.64012,-34.1926,Q,Q
2023-03-15 13:16:47:251,0,6.35968,-1.61019,-34.2373,Q,Q
2023-03-15 13:16:47:261,0,6.26959,-1.5783,-34.2822,Q,Q
2023-03-15 13:16:47:272,0,6.17343,-1.54565,-34.3312,Q,Q
2023-03-15 13:16:47:281,0,6.07045,-1.51859,-34.3805,Q,Q
2023-03-15 13:16:47:292,0,5.96012,-1.4979,-34.4322,Q,Q
2023-03-15 13:16:47:301,0,5.84481,-1.48189,-34.4797,Q,Q
2023-03-15 13:16:47:311,0,5.72447,-1.47807,-34.5258,Q,Q
2023-03-15 13:16:47:321,0,5.59705,-1.48637,-34.5718,Q,Q
2023-03-15 13:16:47:331,0,5.46519,-1.48624,-34.6171,Q,Q
2023-03-15 13:16:47:341,0,5.33219,-1.48098,-34.6622,Q,Q
2023-03-15 13:16:47:351,0,5.19339,-1.47124,-34.7032,Q,Q
2023-03-15 13:16:47:361,0,5.04691,-1.46324,-34.7321,Q,Q
2023-03-15 13:16:47:371,0,4.8964,-1.46642,-34.7548,Q,Q
2023-03-15 13:16:47:381,0,4.7385,-1.49134,-34.762,Q,Q
2023-03-15 13:16:47:391,0,4.56611,-1.53435,-34.7464,Q,Q
2023-03-15 13:16:47:401,0,4.38007,-1.59991,-34.7216,Q,Q
2023-03-15 13:16:47:411,0,4.18542,-1.67897,-34.6886,Q,Q
2023-03-15 13:16:47:421,0,3.98134,-1.76327,-34.6559,Q,Q
2023-03-15 13:16:47:431,0,3.75915,-1.85517,-34.627,Q,Q
2023-03-15 13:16:47:441,0,3.51804,-1.95493,-34.6076,Q,Q
2023-03-15 13:16:47:451,0,3.25544,-2.06081,-34.5906,Q,Q
2023-03-15 13:16:47:461,0,2.97474,-2.16221,-34.5847,Q,Q
2023-03-15 13:16:47:471,0,2.69722,-2.25505,-34.5899,Q,Q
2023-03-15 13:16:47:481,0,2.43999,-2.33814,-34.5999,Q,Q
2023-03-15 13:16:47:491,0,2.21363,-2.41874,-34.6163,Q,Q
2023-03-15 13:16:47:502,0,2.0127,-2.49418,-34.6295,Q,Q
2023-03-15 13:16:47:512,0,1.8306,-2.56476,-34.6388,Q,Q
2023-03-15 13:16:47:521,0,1.66885,-2.62646,-34.6449,Q,Q
2023-03-15 13:16:47:532,0,1.52625,-2.68047,-34.6391,Q,Q
2023-03-15 13:16:47:541,0,1.39354,-2.72816,-34.6311,Q,Q
2023-03-15 13:16:47:551,0,1.27427,-2.76571,-34.6143,Q,Q
2023-03-15 13:16:47:561,0,1.16643,-2.79831,-34.5894,Q,Q
2023-03-15 13:16:47:572,0,1.07079,-2.8259,-34.5584,Q,Q
2023-03-15 13:16:47:581,0,0.989001,-2.85141,-34.5235,Q,Q
2023-03-15 13:16:47:592,0,0.921138,-2.86933,-34.4896,Q,Q
2023-03-15 13:16:47:602,0,0.870064,-2.88213,-34.4547,Q,Q
2023-03-15 13:16:47:612,0,0.829142,-2.88925,-34.4186,Q,Q
2023-03-15 13:16:47:622,0,0.803345,-2.88921,-34.3743,Q,Q
2023-03-15 13:16:47:631,0,0.792997,-2.88718,-34.3357,Q,Q
2023-03-15 13:16:47:642,0,0.784676,-2.89226,-34.2972,Q,Q
2023-03-15 13:16:47:651,0,0.783541,-2.89501,-34.2627,Q,Q
2023-03-15 13:16:47:662,0,0.782606,-2.89464,-34.2324,Q,Q
2023-03-15 13:16:47:672,0,0.780171,-2.89834,-34.208,Q,Q
2023-03-15 13:16:47:681,0,0.780621,-2.89683,-34.1948,Q,Q
2023-03-15 13:16:47:692,0,0.783772,-2.89655,-34.1854,Q,Q
2023-03-15 13:16:47:702,0,0.793151,-2.90337,-34.1784,Q,Q
2023-03-15 13:16:47:712,0,0.815109,-2.91502,-34.169,Q,Q
2023-03-15 13:16:47:721,0,0.839211,-2.9341,-34.1659,Q,Q
2023-03-15 13:16:47:731,0,0.864693,-2.96324,-34.1567,Q,Q
2023-03-15 13:16:47:742,0,0.88754,-2.9996,-34.1457,Q,Q
2023-03-15 13:16:47:752,0,0.909258,-3.04268,-34.1349,Q,Q
2023-03-15 13:16:47:762,0,0.929314,-3.0801,-34.1212,Q,Q
2023-03-15 13:16:47:772,0,0.949003,-3.11853,-34.1071,Q,Q
2023-03-15 13:16:47:781,0,0.971364,-3.15494,-34.0901,Q,Q
2023-03-15 13:16:47:791,0,0.994307,-3.19364,-34.0746,Q,Q
2023-03-15 13:16:47:801,0,1.01611,-3.22529,-34.0583,Q,Q
2023-03-15 13:16:47:811,0,1.0389,-3.24874,-34.0436,Q,Q
2023-03-15 13:16:47:821,0,1.0574,-3.27566,-34.0275,Q,Q
2023-03-15 13:16:47:832,0,1.07501,-3.30009,-34.0108,Q,Q
2023-03-15 13:16:47:841,0,1.08487,-3.32711,-33.9936,Q,Q
2023-03-15 13:16:47:852,0,1.08766,-3.35356,-33.9691,Q,Q
2023-03-15 13:16:47:861,0,1.08518,-3.38459,-33.9385,Q,Q
2023-03-15 13:16:47:872,0,1.08219,-3.42264,-33.9042,Q,Q
2023-03-15 13:16:47:881,0,1.08008,-3.47006,-33.8573,Q,Q
2023-03-15 13:16:47:891,0,1.08573,-3.53583,-33.8019,Q,Q
2023-03-15 13:16:47:901,0,1.1001,-3.61624,-33.7351,Q,Q
2023-03-15 13:16:47:911,0,1.12425,-3.69842,-33.6638,Q,Q
2023-03-15 13:16:47:921,0,1.14623,-3.77585,-33.5928,Q,Q
2023-03-15 13:16:47:932,0,1.16514,-3.84481,-33.5212,Q,Q
2023-03-15 13:16:47:942,0,1.17904,-3.90193,-33.4475,Q,Q
2023-03-15 13:16:47:952,0,1.19064,-3.95488,-33.3708,Q,Q
2023-03-15 13:16:47:962,0,1.20255,-4.00236,-33.2859,Q,Q
2023-03-15 13:16:47:971,0,1.2168,-4.04944,-33.1942,Q,Q
2023-03-15 13:16:47:981,0,1.22567,-4.09906,-33.0955,Q,Q
2023-03-15 13:16:47:991,0,1.23087,-4.14065,-33.0004,Q,Q
2023-03-15 13:16:48:1,0,1.23099,-4.18869,-32.9026,Q,Q
2023-03-15 13:16:48:12,0,1.22772,-4.23371,-32.8033,Q,Q
2023-03-15 13:16:48:21,0,1.22251,-4.27891,-32.7075,Q,Q
2023-03-15 13:16:48:31,0,1.21893,-4.31697,-32.6202,Q,Q
2023-03-15 13:16:48:41,0,1.21768,-4.35332,-32.5352,Q,Q
2023-03-15 13:16:48:52,0,1.21369,-4.38643,-32.4561,Q,Q
2023-03-15 13:16:48:62,0,1.20891,-4.41213,-32.3875,Q,Q
2023-03-15 13:16:48:72,0,1.20366,-4.43641,-32.3265,Q,Q
2023-03-15 13:16:48:81,0,1.19192,-4.45669,-32.2728,Q,Q
2023-03-15 13:16:48:92,0,1.17527,-4.47057,-32.228,Q,Q
2023-03-15 13:16:48:102,0,1.15535,-4.48414,-32.1866,Q,Q
2023-03-15 13:16:48:112,0,1.13569,-4.49618,-32.1478,Q,Q
2023-03-15 13:16:48:121,0,1.1138,-4.51189,-32.1124,Q,Q
2023-03-15 13:16:48:131,0,1.08933,-4.53604,-32.0829,Q,Q
2023-03-15 13:16:48:141,0,1.06532,-4.55465,-32.0579,Q,Q
2023-03-15 13:16:48:151,0,1.04324,-4.5694,-32.0465,Q,Q
2023-03-15 13:16:48:161,0,1.02566,-4.58184,-32.0506,Q,Q
2023-03-15 13:16:48:172,0,1.00613,-4.59736,-32.06,Q,Q
2023-03-15 13:16:48:181,0,0.97534,-4.60669,-32.0729,Q,Q
2023-03-15 13:16:48:191,0,0.92846,-4.61282,-32.0926,Q,Q
2023-03-15 13:16:48:201,0,0.874346,-4.61437,-32.117,Q,Q
2023-03-15 13:16:48:211,0,0.822077,-4.61124,-32.1498,Q,Q
2023-03-15 13:16:48:221,0,0.771358,-4.61065,-32.1807,Q,Q
2023-03-15 13:16:48:231,0,0.732446,-4.61152,-32.211,Q,Q
2023-03-15 13:16:48:242,0,0.705079,-4.6172,-32.2395,Q,Q
2023-03-15 13:16:48:251,0,0.693097,-4.61701,-32.2694,Q,Q
2023-03-15 13:16:48:262,0,0.698564,-4.61258,-32.3018,Q,Q
2023-03-15 13:16:48:272,0,0.711944,-4.60024,-32.3328,Q,Q
2023-03-15 13:16:48:282,0,0.737098,-4.57597,-32.3595,Q,Q
2023-03-15 13:16:48:291,0,0.772762,-4.54742,-32.3877,Q,Q
2023-03-15 13:16:48:301,0,0.817172,-4.51397,-32.4164,Q,Q
2023-03-15 13:16:48:312,0,0.866421,-4.46652,-32.4462,Q,Q
2023-03-15 13:16:48:321,0,0.921814,-4.41107,-32.4739,Q,Q
2023-03-15 13:16:48:331,0,0.981586,-4.35368,-32.4994,Q,Q
2023-03-15 13:16:48:341,0,1.04877,-4.30122,-32.5231,Q,Q
2023-03-15 13:16:48:351,0,1.12368,-4.24389,-32.5525,Q,Q
2023-03-15 13:16:48:361,0,1.2093,-4.17925,-32.5824,Q,Q
2023-03-15 13:16:48:371,0,1.30524,-4.1144,-32.6124,Q,Q
2023-03-15 13:16:48:381,0,1.41202,-4.06124,-32.6469,Q,Q
2023-03-15 13:16:48:391,0,1.51866,-4.00754,-32.6881,Q,Q
2023-03-15 13:16:48:401,0,1.61913,-3.94917,-32.7326,Q,Q
2023-03-15 13:16:48:411,0,1.72006,-3.8949,-32.7823,Q,Q
2023-03-15 13:16:48:421,0,1.81337,-3.84123,-32.8317,Q,Q
2023-03-15 13:16:48:431,0,1.90435,-3.78331,-32.8799,Q,Q
2023-03-15 13:16:48:441,0,1.99363,-3.72247,-32.9301,Q,Q
2023-03-15 13:16:48:451,0,2.07684,-3.65949,-32.9757,Q,Q
2023-03-15 13:16:48:462,0,2.15263,-3.59798,-33.0175,Q,Q
2023-03-15 13:16:48:471,0,2.22335,-3.53986,-33.0589,Q,Q
2023-03-15 13:16:48:481,0,2.29583,-3.47757,-33.1041,Q,Q
2023-03-15 13:16:48:491,0,2.38565,-3.4119,-33.1465,Q,Q
2023-03-15 13:16:48:501,0,2.48973,-3.34306,-33.1914,Q,Q
2023-03-15 13:16:48:512,0,2.59858,-3.27019,-33.2364,Q,Q
2023-03-15 13:16:48:522,0,2.70839,-3.19367,-33.2824,Q,Q
2023-03-15 13:16:48:531,0,2.80991,-3.11603,-33.3255,Q,Q
2023-03-15 13:16:48:541,0,2.90265,-3.03707,-33.3638,Q,Q
2023-03-15 13:16:48:551,0,2.98724,-2.96191,-33.3984,Q,Q
2023-03-15 13:16:48:562,0,3.06924,-2.88799,-33.4319,Q,Q
2023-03-15 13:16:48:572,0,3.15375,-2.81037,-33.4605,Q,Q
2023-03-15 13:16:48:582,0,3.24028,-2.73259,-33.4828,Q,Q
2023-03-15 13:16:48:591,0,3.33109,-2.65019,-33.4975,Q,Q
2023-03-15 13:16:48:602,0,3.42833,-2.56931,-33.5063,Q,Q
2023-03-15 13:16:48:611,0,3.5313,-2.49031,-33.5103,Q,Q
2023-03-15 13:16:48:622,0,3.6365,-2.41315,-33.5035,Q,Q
2023-03-15 13:16:48:632,0,3.74466,-2.33532,-33.4945,Q,Q
2023-03-15 13:16:48:642,0,3.85423,-2.25703,-33.4726,Q,Q
2023-03-15 13:16:48:652,0,3.9542,-2.1817,-33.4373,Q,Q
2023-03-15 13:16:48:662,0,4.04001,-2.11565,-33.3884,Q,Q
2023-03-15 13:16:48:672,0,4.10767,-2.05742,-33.3361,Q,Q
2023-03-15 13:16:48:682,0,4.15913,-1.99908,-33.2804,Q,Q
2023-03-15 13:16:48:692,0,4.20411,-1.94607,-33.2206,Q,Q
2023-03-15 13:16:48:702,0,4.24252,-1.89634,-33.1506,Q,Q
2023-03-15 13:16:48:712,0,4.26937,-1.85371,-33.0765,Q,Q
2023-03-15 13:16:48:722,0,4.28144,-1.81706,-32.9961,Q,Q
2023-03-15 13:16:48:732,0,4.27023,-1.78739,-32.9118,Q,Q
2023-03-15 13:16:48:741,0,4.24991,-1.76446,-32.8309,Q,Q
2023-03-15 13:16:48:751,0,4.21804,-1.74569,-32.749,Q,Q
2023-03-15 13:16:48:762,0,4.18054,-1.73759,-32.6722,Q,Q
2023-03-15 13:16:48:771,0,4.13621,-1.73377,-32.602,Q,Q
2023-03-15 13:16:48:782,0,4.09056,-1.73825,-32.5426,Q,Q
2023-03-15 13:16:48:792,0,4.04481,-1.74662,-32.4914,Q,Q
2023-03-15 13:16:48:801,0,4.00105,-1.75284,-32.4486,Q,Q
2023-03-15 13:16:48:812,0,3.96677,-1.76284,-32.4137,Q,Q
2023-03-15 13:16:48:822,0,3.93675,-1.77381,-32.3746,Q,Q
2023-03-15 13:16:48:832,0,3.91789,-1.78816,-32.3442,Q,Q
2023-03-15 13:16:48:841,0,3.90516,-1.79766,-32.3107,Q,Q
2023-03-15 13:16:48:852,0,3.90016,-1.80719,-32.2769,Q,Q
2023-03-15 13:16:48:861,0,3.89118,-1.81518,-32.2391,Q,Q
2023-03-15 13:16:48:872,0,3.87727,-1.82611,-32.1991,Q,Q
2023-03-15 13:16:48:882,0,3.86316,-1.83141,-32.1575,Q,Q
2023-03-15 13:16:48:892,0,3.84893,-1.8463,-32.1099,Q,Q
2023-03-15 13:16:48:902,0,3.83205,-1.86502,-32.0516,Q,Q
2023-03-15 13:16:48:912,0,3.81428,-1.8861,-31.9931,Q,Q
2023-03-15 13:16:48:922,0,3.79915,-1.91251,-31.9337,Q,Q
2023-03-15 13:16:48:931,0,3.78631,-1.94112,-31.8773,Q,Q
2023-03-15 13:16:48:942,0,3.78137,-1.96667,-31.8195,Q,Q
2023-03-15 13:16:48:952,0,3.77173,-1.99107,-31.7617,Q,Q
2023-03-15 13:16:48:962,0,3.7544,-2.01373,-31.7014,Q,Q
2023-03-15 13:16:48:972,0,3.73217,-2.03324,-31.6439,Q,Q
2023-03-15 13:16:48:981,0,3.70223,-2.05214,-31.5902,Q,Q
2023-03-15 13:16:48:991,0,3.66314,-2.07006,-31.5348,Q,Q
2023-03-15 13:16:49:1,0,3.61146,-2.09334,-31.4795,Q,Q
2023-03-15 13:16:49:11,0,3.56328,-2.12153,-31.427,Q,Q
2023-03-15 13:16:49:22,0,3.51966,-2.1495,-31.3746,Q,Q
2023-03-15 13:16:49:31,0,3.48862,-2.17971,-31.3333,Q,Q
2023-03-15 13:16:49:42,0,3.46438,-2.2121,-31.2934,Q,Q
2023-03-15 13:16:49:52,0,3.44498,-2.24508,-31.2579,Q,Q
2023-03-15 13:16:49:62,0,3.43757,-2.2799,-31.2312,Q,Q
2023-03-15 13:16:49:72,0,3.43966,-2.30869,-31.2139,Q,Q
2023-03-15 13:16:49:82,0,3.44612,-2.33689,-31.1993,Q,Q
2023-03-15 13:16:49:92,0,3.44724,-2.36213,-31.1956,Q,Q
2023-03-15 13:16:49:102,0,3.44794,-2.3971,-31.1946,Q,Q
2023-03-15 13:16:49:112,0,3.44561,-2.43377,-31.1971,Q,Q
2023-03-15 13:16:49:122,0,3.43684,-2.47366,-31.201,Q,Q
2023-03-15 13:16:49:132,0,3.42402,-2.51419,-31.2057,Q,Q
2023-03-15 13:16:49:142,0,3.41348,-2.5561,-31.2095,Q,Q
2023-03-15 13:16:49:152,0,3.39939,-2.60055,-31.2165,Q,Q
2023-03-15 13:16:49:162,0,3.38756,-2.63983,-31.2274,Q,Q
2023-03-15 13:16:49:172,0,3.38113,-2.67641,-31.2356,Q,Q
2023-03-15 13:16:49:182,0,3.37823,-2.71083,-31.245,Q,Q
2023-03-15 13:16:49:192,0,3.37633,-2.73928,-31.2524,Q,Q
2023-03-15 13:16:49:202,0,3.36924,-2.76638,-31.2607,Q,Q
2023-03-15 13:16:49:212,0,3.35314,-2.79758,-31.261,Q,Q
2023-03-15 13:16:49:222,0,3.33218,-2.82283,-31.2584,Q,Q
2023-03-15 13:16:49:232,0,3.30865,-2.83953,-31.2511,Q,Q
2023-03-15 13:16:49:242,0,3.28635,-2.85382,-31.2409,Q,Q
2023-03-15 13:16:49:252,0,3.25799,-2.87404,-31.2215,Q,Q
2023-03-15 13:16:49:262,0,3.22681,-2.89481,-31.1961,Q,Q
2023-03-15 13:16:49:272,0,3.19894,-2.91097,-31.1656,Q,Q
2023-03-15 13:16:49:281,0,3.17448,-2.92534,-31.13,Q,Q
2023-03-15 13:16:49:291,0,3.15884,-2.93746,-31.0864,Q,Q
2023-03-15 13:16:49:302,0,3.1431,-2.95458,-31.0331,Q,Q
2023-03-15 13:16:49:312,0,3.12865,-2.96849,-30.974,Q,Q
2023-03-15 13:16:49:322,0,3.11993,-2.98286,-30.9113,Q,Q
2023-03-15 13:16:49:332,0,3.10996,-2.99365,-30.8377,Q,Q
2023-03-15 13:16:49:341,0,3.09647,-3.00553,-30.7631,Q,Q
2023-03-15 13:16:49:351,0,3.07671,-3.02153,-30.6877,Q,Q
2023-03-15 13:16:49:361,0,3.06148,-3.03388,-30.6137,Q,Q
2023-03-15 13:16:49:371,0,3.05111,-3.03771,-30.5391,Q,Q
2023-03-15 13:16:49:381,0,3.04258,-3.03862,-30.4654,Q,Q
2023-03-15 13:16:49:391,0,3.03368,-3.03472,-30.3904,Q,Q
2023-03-15 13:16:49:401,0,3.02992,-3.0246,-30.3209,Q,Q
2023-03-15 13:16:49:411,0,3.0258,-3.01072,-30.255,Q,Q
2023-03-15 13:16:49:421,0,3.02926,-2.99044,-30.1985,Q,Q
2023-03-15 13:16:49:432,0,3.04844,-2.97532,-30.1533,Q,Q
2023-03-15 13:16:49:441,0,3.08397,-2.97241,-30.12,Q,Q
2023-03-15 13:16:49:452,0,3.14288,-2.97392,-30.0996,Q,Q
2023-03-15 13:16:49:462,0,3.22132,-2.96942,-30.0907,Q,Q
2023-03-15 13:16:49:472,0,3.30613,-2.9642,-30.0865,Q,Q
2023-03-15 13:16:49:482,0,3.39,-2.95481,-30.0833,Q,Q
2023-03-15 13:16:49:492,0,3.46706,-2.93814,-30.0784,Q,Q
2023-03-15 13:16:49:502,0,3.53026,-2.91662,-30.0685,Q,Q
2023-03-15 13:16:49:512,0,3.57985,-2.89695,-30.0487,Q,Q
2023-03-15 13:16:49:522,0,3.60907,-2.8843,-30.0207,Q,Q
2023-03-15 13:16:49:532,0,3.62621,-2.86926,-29.9834,Q,Q
2023-03-15 13:16:49:542,0,3.6399,-2.84804,-29.9415,Q,Q
2023-03-15 13:16:49:552,0,3.65179,-2.83235,-29.8962,Q,Q
2023-03-15 13:16:49:562,0,3.65937,-2.82091,-29.8481,Q,Q
2023-03-15 13:16:49:572,0,3.65744,-2.80324,-29.7995,Q,Q
2023-03-15 13:16:49:582,0,3.65097,-2.78362,-29.753,Q,Q
2023-03-15 13:16:49:592,0,3.64361,-2.76726,-29.7131,Q,Q
2023-03-15 13:16:49:602,0,3.63061,-2.75276,-29.6757,Q,Q
2023-03-15 13:16:49:611,0,3.61429,-2.74023,-29.6447,Q,Q
2023-03-15 13:16:49:622,0,3.59563,-2.71761,-29.6194,Q,Q
2023-03-15 13:16:49:632,0,3.57248,-2.69836,-29.5976,Q,Q
2023-03-15 13:16:49:642,0,3.54772,-2.68298,-29.5806,Q,Q
2023-03-15 13:16:49:652,0,3.51456,-2.6662,-29.5648,Q,Q
2023-03-15 13:16:49:662,0,3.47749,-2.654,-29.5549,Q,Q
2023-03-15 13:16:49:672,0,3.43697,-2.64454,-29.5526,Q,Q
2023-03-15 13:16:49:682,0,3.39801,-2.63706,-29.5501,Q,Q
2023-03-15 13:16:49:692,0,3.35813,-2.6323,-29.5454,Q,Q
2023-03-15 13:16:49:702,0,3.32684,-2.62192,-29.5383,Q,Q
2023-03-15 13:16:49:712,0,3.30802,-2.60427,-29.5365,Q,Q
2023-03-15 13:16:49:722,0,3.29878,-2.59849,-29.5261,Q,Q
2023-03-15 13:16:49:732,0,3.28304,-2.60277,-29.5128,Q,Q
2023-03-15 13:16:49:742,0,3.26088,-2.61672,-29.503,Q,Q
2023-03-15 13:16:49:752,0,3.24153,-2.6305,-29.4949,Q,Q
2023-03-15 13:16:49:762,0,3.22511,-2.64001,-29.4824,Q,Q
2023-03-15 13:16:49:772,0,3.20659,-2.65092,-29.4705,Q,Q
2023-03-15 13:16:49:782,0,3.18797,-2.65862,-29.4594,Q,Q
2023-03-15 13:16:49:792,0,3.16441,-2.66431,-29.4521,Q,Q
2023-03-15 13:16:49:802,0,3.13853,-2.67327,-29.4461,Q,Q
2023-03-15 13:16:49:812,0,3.11235,-2.68475,-29.4365,Q,Q
