Timestamp_cmd,imu_cmd,roll_delta,pitch_delta,yaw_delta,voice_type,voice_length
2023-03-14 22:43:07:465,0,-1.5531,-5.38153,-0.59198,Q,Q
2023-03-14 22:43:07:473,0,-1.54216,-5.40493,-0.585626,Q,Q
2023-03-14 22:43:07:483,0,-1.53251,-5.42338,-0.57613,Q,Q
2023-03-14 22:43:07:493,0,-1.52365,-5.44183,-0.564197,Q,Q
2023-03-14 22:43:07:503,0,-1.51247,-5.45988,-0.555101,Q,Q
2023-03-14 22:43:07:513,0,-1.50741,-5.4742,-0.54268,Q,Q
2023-03-14 22:43:07:523,0,-1.50085,-5.48554,-0.528401,Q,Q
2023-03-14 22:43:07:533,0,-1.49202,-5.49865,-0.515312,Q,Q
2023-03-14 22:43:07:543,0,-1.48866,-5.5095,-0.505175,Q,Q
2023-03-14 22:43:07:553,0,-1.48594,-5.51745,-0.498143,Q,Q
2023-03-14 22:43:07:563,0,-1.48642,-5.52295,-0.49035,Q,Q
2023-03-14 22:43:07:573,0,-1.48729,-5.52372,-0.480909,Q,Q
2023-03-14 22:43:07:583,0,-1.48688,-5.52385,-0.47452,Q,Q
2023-03-14 22:43:07:593,0,-1.48599,-5.52744,-0.470906,Q,Q
2023-03-14 22:43:07:603,0,-1.48492,-5.53094,-0.468783,Q,Q
2023-03-14 22:43:07:613,0,-1.48321,-5.53436,-0.463875,Q,Q
2023-03-14 22:43:07:623,0,-1.48171,-5.53741,-0.458248,Q,Q
2023-03-14 22:43:07:633,0,-1.48016,-5.54612,-0.453267,Q,Q
2023-03-14 22:43:07:643,0,-1.4826,-5.54774,-0.449433,Q,Q
2023-03-14 22:43:07:653,0,-1.48121,-5.55234,-0.446601,Q,Q
2023-03-14 22:43:07:663,0,-1.48315,-5.55737,-0.441631,Q,Q
2023-03-14 22:43:07:673,0,-1.48355,-5.56248,-0.44025,Q,Q
2023-03-14 22:43:07:684,0,-1.48816,-5.56676,-0.439084,Q,Q
2023-03-14 22:43:07:693,0,-1.48622,-5.57229,-0.440934,Q,Q
2023-03-14 22:43:07:703,0,-1.48264,-5.58037,-0.447855,Q,Q
2023-03-14 22:43:07:713,0,-1.47727,-5.58723,-0.451087,Q,Q
2023-03-14 22:43:07:723,0,-1.47212,-5.59115,-0.455121,Q,Q
2023-03-14 22:43:07:733,0,-1.46872,-5.59393,-0.459394,Q,Q
2023-03-14 22:43:07:744,0,-1.46988,-5.59852,-0.464793,Q,Q
2023-03-14 22:43:07:753,0,-1.46798,-5.60255,-0.467823,Q,Q
2023-03-14 22:43:07:763,0,-1.47167,-5.60566,-0.474781,Q,Q
2023-03-14 22:43:07:773,0,-1.47104,-5.60944,-0.480581,Q,Q
2023-03-14 22:43:07:784,0,-1.46899,-5.61467,-0.486915,Q,Q
2023-03-14 22:43:07:793,0,-1.46169,-5.6197,-0.487804,Q,Q
2023-03-14 22:43:07:803,0,-1.45807,-5.62381,-0.489762,Q,Q
2023-03-14 22:43:07:813,0,-1.44836,-5.63055,-0.491355,Q,Q
2023-03-14 22:43:07:823,0,-1.43479,-5.63537,-0.490786,Q,Q
2023-03-14 22:43:07:833,0,-1.42332,-5.64446,-0.48766,Q,Q
2023-03-14 22:43:07:843,0,-1.41483,-5.65051,-0.486716,Q,Q
2023-03-14 22:43:07:853,0,-1.40883,-5.65584,-0.487615,Q,Q
2023-03-14 22:43:07:863,0,-1.40411,-5.65993,-0.484268,Q,Q
2023-03-14 22:43:07:873,0,-1.40287,-5.66143,-0.483928,Q,Q
2023-03-14 22:43:07:883,0,-1.39961,-5.66104,-0.484013,Q,Q
2023-03-14 22:43:07:893,0,-1.39903,-5.65764,-0.483087,Q,Q
2023-03-14 22:43:07:903,0,-1.39763,-5.65484,-0.48175,Q,Q
2023-03-14 22:43:07:913,0,-1.39521,-5.65476,-0.476652,Q,Q
2023-03-14 22:43:07:923,0,-1.39318,-5.65613,-0.467042,Q,Q
2023-03-14 22:43:07:933,0,-1.39417,-5.66225,-0.455698,Q,Q
2023-03-14 22:43:07:943,0,-1.39634,-5.6664,-0.447342,Q,Q
2023-03-14 22:43:07:953,0,-1.40055,-5.66938,-0.442374,Q,Q
2023-03-14 22:43:07:963,0,-1.40687,-5.67351,-0.440723,Q,Q
2023-03-14 22:43:07:973,0,-1.40755,-5.67367,-0.439583,Q,Q
2023-03-14 22:43:07:983,0,-1.40848,-5.67327,-0.437457,Q,Q
2023-03-14 22:43:07:993,0,-1.41038,-5.67122,-0.436575,Q,Q
2023-03-14 22:43:08:3,0,-1.41259,-5.66775,-0.438717,Q,Q
2023-03-14 22:43:08:13,0,-1.41234,-5.66509,-0.44266,Q,Q
2023-03-14 22:43:08:23,0,-1.41453,-5.66198,-0.449969,Q,Q
2023-03-14 22:43:08:33,0,-1.41485,-5.65229,-0.453972,Q,Q
2023-03-14 22:43:08:43,0,-1.42128,-5.64797,-0.457228,Q,Q
2023-03-14 22:43:08:53,0,-1.42738,-5.6454,-0.459926,Q,Q
2023-03-14 22:43:08:63,0,-1.44049,-5.63603,-0.461937,Q,Q
2023-03-14 22:43:08:73,0,-1.45153,-5.63045,-0.467427,Q,Q
2023-03-14 22:43:08:83,0,-1.46157,-5.62645,-0.471623,Q,Q
2023-03-14 22:43:08:93,0,-1.47568,-5.61938,-0.478694,Q,Q
2023-03-14 22:43:08:103,0,-1.48623,-5.61533,-0.484118,Q,Q
2023-03-14 22:43:08:113,0,-1.49615,-5.60841,-0.494091,Q,Q
2023-03-14 22:43:08:123,0,-1.50202,-5.60199,-0.50636,Q,Q
2023-03-14 22:43:08:133,0,-1.50683,-5.59711,-0.516953,Q,Q
2023-03-14 22:43:08:143,0,-1.51142,-5.59299,-0.531283,Q,Q
2023-03-14 22:43:08:153,0,-1.51678,-5.58605,-0.550717,Q,Q
2023-03-14 22:43:08:163,0,-1.51902,-5.57837,-0.570727,Q,Q
2023-03-14 22:43:08:173,0,-1.52021,-5.57264,-0.583517,Q,Q
2023-03-14 22:43:08:183,0,-1.51135,-5.56524,-0.596299,Q,Q
2023-03-14 22:43:08:193,0,-1.50935,-5.56307,-0.605502,Q,Q
2023-03-14 22:43:08:203,0,-1.50726,-5.56033,-0.611335,Q,Q
2023-03-14 22:43:08:213,0,-1.50578,-5.5603,-0.615785,Q,Q
2023-03-14 22:43:08:223,0,-1.50514,-5.5592,-0.617065,Q,Q
2023-03-14 22:43:08:233,0,-1.50468,-5.55621,-0.616323,Q,Q
2023-03-14 22:43:08:243,0,-1.50701,-5.55633,-0.613827,Q,Q
2023-03-14 22:43:08:253,0,-1.51004,-5.55614,-0.612586,Q,Q
2023-03-14 22:43:08:263,0,-1.51429,-5.55403,-0.610808,Q,Q
2023-03-14 22:43:08:273,0,-1.51673,-5.55519,-0.611335,Q,Q
2023-03-14 22:43:08:283,0,-1.51571,-5.55916,-0.611191,Q,Q
2023-03-14 22:43:08:293,0,-1.50895,-5.56254,-0.612102,Q,Q
2023-03-14 22:43:08:303,0,-1.50191,-5.56325,-0.615368,Q,Q
2023-03-14 22:43:08:313,0,-1.49178,-5.56788,-0.623483,Q,Q
2023-03-14 22:43:08:323,0,-1.47605,-5.5726,-0.627649,Q,Q
2023-03-14 22:43:08:333,0,-1.46347,-5.57718,-0.629035,Q,Q
2023-03-14 22:43:08:343,0,-1.4529,-5.58269,-0.6289,Q,Q
2023-03-14 22:43:08:353,0,-1.44171,-5.58726,-0.633411,Q,Q
2023-03-14 22:43:08:363,0,-1.43281,-5.59193,-0.630029,Q,Q
2023-03-14 22:43:08:373,0,-1.42715,-5.59543,-0.623945,Q,Q
2023-03-14 22:43:08:383,0,-1.42159,-5.60089,-0.617643,Q,Q
2023-03-14 22:43:08:393,0,-1.42256,-5.60706,-0.609043,Q,Q
2023-03-14 22:43:08:403,0,-1.42589,-5.60972,-0.598158,Q,Q
2023-03-14 22:43:08:413,0,-1.42599,-5.60978,-0.587273,Q,Q
2023-03-14 22:43:08:423,0,-1.42481,-5.60837,-0.582764,Q,Q
2023-03-14 22:43:08:433,0,-1.42613,-5.60135,-0.578845,Q,Q
2023-03-14 22:43:08:443,0,-1.42979,-5.59934,-0.57395,Q,Q
2023-03-14 22:43:08:453,0,-1.43082,-5.59847,-0.576155,Q,Q
2023-03-14 22:43:08:463,0,-1.43323,-5.59597,-0.579733,Q,Q
2023-03-14 22:43:08:473,0,-1.43804,-5.59259,-0.583849,Q,Q
2023-03-14 22:43:08:483,0,-1.44402,-5.59106,-0.588872,Q,Q
2023-03-14 22:43:08:493,0,-1.44868,-5.5917,-0.598595,Q,Q
2023-03-14 22:43:08:503,0,-1.44983,-5.58731,-0.609731,Q,Q
2023-03-14 22:43:08:513,0,-1.454,-5.58208,-0.617265,Q,Q
2023-03-14 22:43:08:523,0,-1.46073,-5.5776,-0.625961,Q,Q
2023-03-14 22:43:08:533,0,-1.47134,-5.57378,-0.63472,Q,Q
2023-03-14 22:43:08:543,0,-1.47745,-5.5698,-0.643459,Q,Q
2023-03-14 22:43:08:553,0,-1.48164,-5.56755,-0.65293,Q,Q
2023-03-14 22:43:08:563,0,-1.482,-5.56354,-0.658158,Q,Q
2023-03-14 22:43:08:573,0,-1.48046,-5.55602,-0.661928,Q,Q
2023-03-14 22:43:08:583,0,-1.47898,-5.55054,-0.665982,Q,Q
2023-03-14 22:43:08:593,0,-1.48331,-5.54653,-0.670821,Q,Q
2023-03-14 22:43:08:603,0,-1.48298,-5.54164,-0.67411,Q,Q
2023-03-14 22:43:08:613,0,-1.48469,-5.53931,-0.671679,Q,Q
2023-03-14 22:43:08:623,0,-1.4843,-5.54427,-0.66823,Q,Q
2023-03-14 22:43:08:633,0,-1.48416,-5.54848,-0.667739,Q,Q
2023-03-14 22:43:08:643,0,-1.48669,-5.54794,-0.665481,Q,Q
2023-03-14 22:43:08:653,0,-1.48261,-5.55053,-0.662201,Q,Q
2023-03-14 22:43:08:663,0,-1.48153,-5.55269,-0.659198,Q,Q
2023-03-14 22:43:08:673,0,-1.48105,-5.55589,-0.651163,Q,Q
2023-03-14 22:43:08:683,0,-1.48034,-5.55419,-0.644093,Q,Q
2023-03-14 22:43:08:693,0,-1.47838,-5.559,-0.63759,Q,Q
2023-03-14 22:43:08:703,0,-1.47869,-5.56254,-0.633536,Q,Q
2023-03-14 22:43:08:713,0,-1.47653,-5.56403,-0.629773,Q,Q
2023-03-14 22:43:08:723,0,-1.47378,-5.56465,-0.626439,Q,Q
2023-03-14 22:43:08:733,0,-1.4733,-5.56432,-0.621182,Q,Q
2023-03-14 22:43:08:743,0,-1.47143,-5.56826,-0.615222,Q,Q
2023-03-14 22:43:08:753,0,-1.4672,-5.57197,-0.607726,Q,Q
2023-03-14 22:43:08:764,0,-1.46432,-5.57135,-0.601114,Q,Q
2023-03-14 22:43:08:773,0,-1.46511,-5.56997,-0.59366,Q,Q
2023-03-14 22:43:08:783,0,-1.4682,-5.57019,-0.58639,Q,Q
2023-03-14 22:43:08:793,0,-1.46727,-5.5711,-0.57687,Q,Q
2023-03-14 22:43:08:804,0,-1.46606,-5.57659,-0.563035,Q,Q
2023-03-14 22:43:08:813,0,-1.46996,-5.58285,-0.544817,Q,Q
2023-03-14 22:43:08:823,0,-1.47363,-5.5913,-0.525699,Q,Q
2023-03-14 22:43:08:833,0,-1.47639,-5.59997,-0.509257,Q,Q
2023-03-14 22:43:08:843,0,-1.47746,-5.60389,-0.495092,Q,Q
2023-03-14 22:43:08:853,0,-1.48044,-5.61096,-0.479756,Q,Q
2023-03-14 22:43:08:863,0,-1.48187,-5.61939,-0.465852,Q,Q
2023-03-14 22:43:08:873,0,-1.48298,-5.62523,-0.453023,Q,Q
2023-03-14 22:43:08:883,0,-1.48286,-5.6313,-0.445977,Q,Q
2023-03-14 22:43:08:893,0,-1.48609,-5.63487,-0.439081,Q,Q
2023-03-14 22:43:08:903,0,-1.48867,-5.63916,-0.433989,Q,Q
2023-03-14 22:43:08:913,0,-1.48947,-5.64483,-0.431125,Q,Q
2023-03-14 22:43:08:923,0,-1.49308,-5.64831,-0.42569,Q,Q
2023-03-14 22:43:08:933,0,-1.49696,-5.65458,-0.41974,Q,Q
2023-03-14 22:43:08:943,0,-1.50496,-5.65828,-0.414704,Q,Q
2023-03-14 22:43:08:953,0,-1.51744,-5.66206,-0.406137,Q,Q
2023-03-14 22:43:08:963,0,-1.52836,-5.66259,-0.400901,Q,Q
2023-03-14 22:43:08:973,0,-1.53787,-5.65963,-0.397619,Q,Q
2023-03-14 22:43:08:983,0,-1.54884,-5.65807,-0.396339,Q,Q
2023-03-14 22:43:08:993,0,-1.55934,-5.65499,-0.396515,Q,Q
2023-03-14 22:43:09:3,0,-1.57258,-5.65568,-0.399158,Q,Q
2023-03-14 22:43:09:13,0,-1.5818,-5.65117,-0.403057,Q,Q
2023-03-14 22:43:09:23,0,-1.5871,-5.65129,-0.410337,Q,Q
2023-03-14 22:43:09:33,0,-1.59641,-5.65113,-0.41957,Q,Q
2023-03-14 22:43:09:43,0,-1.602,-5.64435,-0.428729,Q,Q
2023-03-14 22:43:09:53,0,-1.60445,-5.63431,-0.440562,Q,Q
2023-03-14 22:43:09:63,0,-1.60672,-5.62754,-0.449254,Q,Q
2023-03-14 22:43:09:73,0,-1.60897,-5.62954,-0.451002,Q,Q
2023-03-14 22:43:09:83,0,-1.61375,-5.62913,-0.454836,Q,Q
2023-03-14 22:43:09:93,0,-1.62292,-5.62529,-0.457857,Q,Q
2023-03-14 22:43:09:103,0,-1.62863,-5.6203,-0.45865,Q,Q
2023-03-14 22:43:09:113,0,-1.63394,-5.61452,-0.46043,Q,Q
2023-03-14 22:43:09:123,0,-1.63847,-5.60635,-0.458566,Q,Q
2023-03-14 22:43:09:133,0,-1.64381,-5.60313,-0.456985,Q,Q
2023-03-14 22:43:09:143,0,-1.64562,-5.59803,-0.455237,Q,Q
2023-03-14 22:43:09:153,0,-1.65178,-5.59416,-0.457881,Q,Q
2023-03-14 22:43:09:163,0,-1.65448,-5.59041,-0.463245,Q,Q
2023-03-14 22:43:09:173,0,-1.65668,-5.59173,-0.467971,Q,Q
2023-03-14 22:43:09:183,0,-1.65738,-5.59598,-0.474676,Q,Q
2023-03-14 22:43:09:193,0,-1.65525,-5.59534,-0.477494,Q,Q
2023-03-14 22:43:09:203,0,-1.64875,-5.59882,-0.480575,Q,Q
2023-03-14 22:43:09:213,0,-1.64401,-5.60003,-0.481021,Q,Q
2023-03-14 22:43:09:223,0,-1.63567,-5.60141,-0.479871,Q,Q
2023-03-14 22:43:09:233,0,-1.63149,-5.60483,-0.480088,Q,Q
2023-03-14 22:43:09:243,0,-1.62709,-5.60908,-0.478539,Q,Q
2023-03-14 22:43:09:253,0,-1.62769,-5.61061,-0.473318,Q,Q
2023-03-14 22:43:09:263,0,-1.63207,-5.61179,-0.468101,Q,Q
2023-03-14 22:43:09:273,0,-1.63753,-5.61037,-0.463866,Q,Q
2023-03-14 22:43:09:283,0,-1.64596,-5.61059,-0.457178,Q,Q
2023-03-14 22:43:09:293,0,-1.65327,-5.61108,-0.456447,Q,Q
2023-03-14 22:43:09:303,0,-1.66036,-5.60864,-0.458366,Q,Q
2023-03-14 22:43:09:313,0,-1.66662,-5.60679,-0.458388,Q,Q
2023-03-14 22:43:09:323,0,-1.6731,-5.60259,-0.462156,Q,Q
2023-03-14 22:43:09:333,0,-1.67943,-5.59765,-0.466854,Q,Q
2023-03-14 22:43:09:343,0,-1.68427,-5.594,-0.470561,Q,Q
2023-03-14 22:43:09:353,0,-1.68902,-5.59273,-0.478029,Q,Q
2023-03-14 22:43:09:363,0,-1.6922,-5.59027,-0.486262,Q,Q
2023-03-14 22:43:09:373,0,-1.69761,-5.58639,-0.493081,Q,Q
2023-03-14 22:43:09:383,0,-1.70255,-5.57976,-0.499258,Q,Q
2023-03-14 22:43:09:393,0,-1.7077,-5.57835,-0.512273,Q,Q
2023-03-14 22:43:09:403,0,-1.71317,-5.57336,-0.520745,Q,Q
2023-03-14 22:43:09:413,0,-1.71627,-5.56978,-0.527171,Q,Q
2023-03-14 22:43:09:423,0,-1.72009,-5.56463,-0.535654,Q,Q
2023-03-14 22:43:09:433,0,-1.72391,-5.56162,-0.542551,Q,Q
2023-03-14 22:43:09:443,0,-1.72753,-5.55601,-0.548149,Q,Q
2023-03-14 22:43:09:453,0,-1.73723,-5.55297,-0.552374,Q,Q
2023-03-14 22:43:09:463,0,-1.74594,-5.54998,-0.555228,Q,Q
2023-03-14 22:43:09:473,0,-1.75481,-5.54956,-0.559273,Q,Q
2023-03-14 22:43:09:483,0,-1.76404,-5.54632,-0.565958,Q,Q
2023-03-14 22:43:09:493,0,-1.76859,-5.54226,-0.56998,Q,Q
2023-03-14 22:43:09:503,0,-1.77014,-5.53982,-0.575565,Q,Q
2023-03-14 22:43:09:513,0,-1.7751,-5.53757,-0.579842,Q,Q
2023-03-14 22:43:09:523,0,-1.78196,-5.53582,-0.582158,Q,Q
2023-03-14 22:43:09:533,0,-1.78951,-5.53528,-0.587249,Q,Q
2023-03-14 22:43:09:543,0,-1.7932,-5.53795,-0.593688,Q,Q
2023-03-14 22:43:09:553,0,-1.79973,-5.54092,-0.597314,Q,Q
2023-03-14 22:43:09:563,0,-1.80468,-5.54153,-0.601948,Q,Q
2023-03-14 22:43:09:573,0,-1.81423,-5.54283,-0.602741,Q,Q
2023-03-14 22:43:09:583,0,-1.82021,-5.54271,-0.607113,Q,Q
2023-03-14 22:43:09:593,0,-1.82253,-5.54646,-0.612751,Q,Q
2023-03-14 22:43:09:603,0,-1.82514,-5.54758,-0.61706,Q,Q
2023-03-14 22:43:09:613,0,-1.82894,-5.55089,-0.622007,Q,Q
2023-03-14 22:43:09:623,0,-1.83208,-5.55292,-0.626943,Q,Q
2023-03-14 22:43:09:633,0,-1.83537,-5.55361,-0.634816,Q,Q
2023-03-14 22:43:09:643,0,-1.83847,-5.55064,-0.639171,Q,Q
2023-03-14 22:43:09:653,0,-1.84395,-5.54934,-0.645154,Q,Q
2023-03-14 22:43:09:663,0,-1.85068,-5.54831,-0.652134,Q,Q
2023-03-14 22:43:09:673,0,-1.85369,-5.5473,-0.65607,Q,Q
2023-03-14 22:43:09:683,0,-1.85788,-5.54612,-0.659601,Q,Q
2023-03-14 22:43:09:693,0,-1.86136,-5.54295,-0.668286,Q,Q
2023-03-14 22:43:09:703,0,-1.86475,-5.53844,-0.673901,Q,Q
2023-03-14 22:43:09:713,0,-1.86698,-5.53272,-0.681816,Q,Q
2023-03-14 22:43:09:723,0,-1.86895,-5.53089,-0.690796,Q,Q
2023-03-14 22:43:09:733,0,-1.86794,-5.53646,-0.692359,Q,Q
2023-03-14 22:43:09:743,0,-1.87395,-5.54236,-0.688291,Q,Q
2023-03-14 22:43:09:753,0,-1.88073,-5.54527,-0.68523,Q,Q
2023-03-14 22:43:09:763,0,-1.89098,-5.54518,-0.682333,Q,Q
2023-03-14 22:43:09:773,0,-1.90414,-5.54449,-0.683211,Q,Q
2023-03-14 22:43:09:783,0,-1.91421,-5.54178,-0.685279,Q,Q
2023-03-14 22:43:09:793,0,-1.92721,-5.53665,-0.688778,Q,Q
2023-03-14 22:43:09:804,0,-1.93969,-5.53298,-0.69524,Q,Q
2023-03-14 22:43:09:813,0,-1.94971,-5.52451,-0.700044,Q,Q
2023-03-14 22:43:09:824,0,-1.95778,-5.51829,-0.705451,Q,Q
2023-03-14 22:43:09:833,0,-1.96328,-5.51396,-0.712049,Q,Q
2023-03-14 22:43:09:843,0,-1.96546,-5.50367,-0.717407,Q,Q
2023-03-14 22:43:09:853,0,-1.96896,-5.49762,-0.720662,Q,Q
2023-03-14 22:43:09:863,0,-1.97545,-5.49672,-0.721634,Q,Q
2023-03-14 22:43:09:873,0,-1.9812,-5.49501,-0.723634,Q,Q
2023-03-14 22:43:09:883,0,-1.98954,-5.49138,-0.726688,Q,Q
2023-03-14 22:43:09:893,0,-1.99075,-5.48652,-0.732197,Q,Q
2023-03-14 22:43:09:903,0,-1.99362,-5.48148,-0.736581,Q,Q
2023-03-14 22:43:09:913,0,-1.99239,-5.47971,-0.745573,Q,Q
2023-03-14 22:43:09:923,0,-1.99351,-5.47953,-0.75166,Q,Q
2023-03-14 22:43:09:933,0,-1.99148,-5.47842,-0.763358,Q,Q
2023-03-14 22:43:09:943,0,-1.99085,-5.47849,-0.775778,Q,Q
2023-03-14 22:43:09:953,0,-1.993,-5.48244,-0.786907,Q,Q
2023-03-14 22:43:09:963,0,-1.99657,-5.48279,-0.80393,Q,Q
2023-03-14 22:43:09:973,0,-1.99709,-5.48231,-0.820675,Q,Q
2023-03-14 22:43:09:983,0,-1.99428,-5.47973,-0.837182,Q,Q
2023-03-14 22:43:09:993,0,-1.98716,-5.48206,-0.854683,Q,Q
2023-03-14 22:43:10:3,0,-1.97341,-5.4836,-0.864913,Q,Q
2023-03-14 22:43:10:13,0,-1.96261,-5.49161,-0.871399,Q,Q
2023-03-14 22:43:10:23,0,-1.95373,-5.49903,-0.874849,Q,Q
2023-03-14 22:43:10:33,0,-1.9483,-5.5027,-0.877013,Q,Q
2023-03-14 22:43:10:43,0,-1.9399,-5.50342,-0.880374,Q,Q
2023-03-14 22:43:10:53,0,-1.9327,-5.50594,-0.881254,Q,Q
2023-03-14 22:43:10:63,0,-1.93164,-5.50933,-0.880065,Q,Q
2023-03-14 22:43:10:73,0,-1.9281,-5.51178,-0.878361,Q,Q
2023-03-14 22:43:10:83,0,-1.92272,-5.51027,-0.878564,Q,Q
2023-03-14 22:43:10:93,0,-1.91554,-5.51342,-0.881732,Q,Q
2023-03-14 22:43:10:103,0,-1.90841,-5.5172,-0.885824,Q,Q
2023-03-14 22:43:10:113,0,-1.9042,-5.51832,-0.891144,Q,Q
2023-03-14 22:43:10:123,0,-1.89644,-5.52332,-0.897495,Q,Q
2023-03-14 22:43:10:133,0,-1.88737,-5.52816,-0.905217,Q,Q
2023-03-14 22:43:10:143,0,-1.87872,-5.53623,-0.914074,Q,Q
2023-03-14 22:43:10:153,0,-1.8679,-5.5434,-0.920536,Q,Q
2023-03-14 22:43:10:163,0,-1.85851,-5.55014,-0.923294,Q,Q
2023-03-14 22:43:10:173,0,-1.85126,-5.55553,-0.921184,Q,Q
2023-03-14 22:43:10:183,0,-1.8469,-5.55957,-0.920487,Q,Q
2023-03-14 22:43:10:193,0,-1.84517,-5.56261,-0.916476,Q,Q
2023-03-14 22:43:10:203,0,-1.83824,-5.56734,-0.914639,Q,Q
2023-03-14 22:43:10:213,0,-1.83953,-5.57501,-0.909343,Q,Q
2023-03-14 22:43:10:223,0,-1.84404,-5.57644,-0.905979,Q,Q
2023-03-14 22:43:10:233,0,-1.8481,-5.57958,-0.900636,Q,Q
2023-03-14 22:43:10:243,0,-1.84988,-5.57415,-0.901737,Q,Q
2023-03-14 22:43:10:253,0,-1.84801,-5.57196,-0.905205,Q,Q
2023-03-14 22:43:10:263,0,-1.84439,-5.57298,-0.907603,Q,Q
2023-03-14 22:43:10:273,0,-1.83979,-5.57536,-0.907537,Q,Q
2023-03-14 22:43:10:283,0,-1.83523,-5.57949,-0.908771,Q,Q
2023-03-14 22:43:10:293,0,-1.83028,-5.57946,-0.906226,Q,Q
2023-03-14 22:43:10:303,0,-1.82783,-5.58331,-0.905586,Q,Q
2023-03-14 22:43:10:313,0,-1.8281,-5.5817,-0.906896,Q,Q
2023-03-14 22:43:10:323,0,-1.82791,-5.58035,-0.905505,Q,Q
2023-03-14 22:43:10:333,0,-1.82827,-5.58,-0.902385,Q,Q
2023-03-14 22:43:10:343,0,-1.82909,-5.57708,-0.894635,Q,Q
2023-03-14 22:43:10:353,0,-1.83101,-5.57754,-0.886396,Q,Q
2023-03-14 22:43:10:363,0,-1.83049,-5.57996,-0.878037,Q,Q
2023-03-14 22:43:10:373,0,-1.83315,-5.57862,-0.87086,Q,Q
2023-03-14 22:43:10:383,0,-1.83196,-5.58092,-0.861781,Q,Q
2023-03-14 22:43:10:393,0,-1.83037,-5.58468,-0.850531,Q,Q
2023-03-14 22:43:10:403,0,-1.83251,-5.58861,-0.843353,Q,Q
2023-03-14 22:43:10:413,0,-1.83317,-5.59274,-0.83753,Q,Q
2023-03-14 22:43:10:423,0,-1.83983,-5.59615,-0.829314,Q,Q
2023-03-14 22:43:10:433,0,-1.84386,-5.59959,-0.82316,Q,Q
2023-03-14 22:43:10:443,0,-1.84777,-5.59803,-0.817896,Q,Q
2023-03-14 22:43:10:453,0,-1.85065,-5.59943,-0.810955,Q,Q
2023-03-14 22:43:10:463,0,-1.84994,-5.60225,-0.807871,Q,Q
2023-03-14 22:43:10:473,0,-1.85138,-5.60419,-0.806802,Q,Q
2023-03-14 22:43:10:483,0,-1.85035,-5.60751,-0.808021,Q,Q
2023-03-14 22:43:10:493,0,-1.8527,-5.61107,-0.809765,Q,Q
2023-03-14 22:43:10:503,0,-1.85108,-5.61267,-0.812163,Q,Q
2023-03-14 22:43:10:513,0,-1.8534,-5.61479,-0.817097,Q,Q
2023-03-14 22:43:10:523,0,-1.85644,-5.61641,-0.819829,Q,Q
2023-03-14 22:43:10:533,0,-1.85723,-5.62022,-0.823092,Q,Q
2023-03-14 22:43:10:543,0,-1.85821,-5.6221,-0.829442,Q,Q
2023-03-14 22:43:10:553,0,-1.86111,-5.62754,-0.828195,Q,Q
2023-03-14 22:43:10:563,0,-1.86144,-5.63089,-0.826827,Q,Q
2023-03-14 22:43:10:573,0,-1.86452,-5.63233,-0.821798,Q,Q
2023-03-14 22:43:10:583,0,-1.86732,-5.63373,-0.82203,Q,Q
2023-03-14 22:43:10:593,0,-1.86835,-5.63311,-0.818471,Q,Q
2023-03-14 22:43:10:603,0,-1.87146,-5.63559,-0.821567,Q,Q
2023-03-14 22:43:10:613,0,-1.87031,-5.63878,-0.824666,Q,Q
2023-03-14 22:43:10:624,0,-1.86805,-5.64303,-0.825755,Q,Q
2023-03-14 22:43:10:633,0,-1.86719,-5.6492,-0.830311,Q,Q
2023-03-14 22:43:10:643,0,-1.86112,-5.65121,-0.838812,Q,Q
2023-03-14 22:43:10:653,0,-1.85643,-5.65385,-0.849804,Q,Q
2023-03-14 22:43:10:663,0,-1.8477,-5.65824,-0.862415,Q,Q
2023-03-14 22:43:10:673,0,-1.83874,-5.65988,-0.878587,Q,Q
2023-03-14 22:43:10:683,0,-1.82708,-5.65969,-0.886562,Q,Q
2023-03-14 22:43:10:693,0,-1.81806,-5.66828,-0.891842,Q,Q
2023-03-14 22:43:10:703,0,-1.81288,-5.67457,-0.89389,Q,Q
2023-03-14 22:43:10:713,0,-1.81148,-5.67322,-0.899516,Q,Q
2023-03-14 22:43:10:723,0,-1.81483,-5.6722,-0.903187,Q,Q
2023-03-14 22:43:10:733,0,-1.81419,-5.66874,-0.901429,Q,Q
2023-03-14 22:43:10:743,0,-1.81545,-5.6618,-0.900862,Q,Q
2023-03-14 22:43:10:753,0,-1.8139,-5.6554,-0.900006,Q,Q
2023-03-14 22:43:10:764,0,-1.80933,-5.64937,-0.898387,Q,Q
2023-03-14 22:43:10:773,0,-1.80644,-5.64457,-0.894979,Q,Q
2023-03-14 22:43:10:783,0,-1.80371,-5.63799,-0.894443,Q,Q
2023-03-14 22:43:10:793,0,-1.80467,-5.62948,-0.893646,Q,Q
2023-03-14 22:43:10:803,0,-1.80697,-5.61949,-0.898584,Q,Q
2023-03-14 22:43:10:813,0,-1.81488,-5.61295,-0.900243,Q,Q
2023-03-14 22:43:10:823,0,-1.82341,-5.6094,-0.903669,Q,Q
2023-03-14 22:43:10:833,0,-1.83196,-5.59916,-0.905891,Q,Q
2023-03-14 22:43:10:843,0,-1.84395,-5.59452,-0.908902,Q,Q
2023-03-14 22:43:10:853,0,-1.85825,-5.58773,-0.911151,Q,Q
2023-03-14 22:43:10:863,0,-1.87247,-5.58155,-0.916104,Q,Q
2023-03-14 22:43:10:873,0,-1.88535,-5.57458,-0.926924,Q,Q
2023-03-14 22:43:10:883,0,-1.8956,-5.56882,-0.936308,Q,Q
2023-03-14 22:43:10:893,0,-1.90132,-5.56464,-0.940472,Q,Q
2023-03-14 22:43:10:903,0,-1.90424,-5.56303,-0.949112,Q,Q
2023-03-14 22:43:10:913,0,-1.90447,-5.56129,-0.958275,Q,Q
2023-03-14 22:43:10:923,0,-1.90703,-5.55819,-0.965758,Q,Q
2023-03-14 22:43:10:933,0,-1.90635,-5.55152,-0.97969,Q,Q
2023-03-14 22:43:10:943,0,-1.89987,-5.54645,-0.994403,Q,Q
2023-03-14 22:43:10:953,0,-1.89505,-5.54791,-1.00097,Q,Q
2023-03-14 22:43:10:963,0,-1.89398,-5.54656,-1.0059,Q,Q
2023-03-14 22:43:10:973,0,-1.89378,-5.5451,-1.00985,Q,Q
2023-03-14 22:43:10:983,0,-1.89867,-5.54692,-1.01148,Q,Q
2023-03-14 22:43:10:993,0,-1.9028,-5.54707,-1.01105,Q,Q
2023-03-14 22:43:11:3,0,-1.91175,-5.54327,-1.01191,Q,Q
2023-03-14 22:43:11:13,0,-1.92358,-5.53741,-1.00944,Q,Q
2023-03-14 22:43:11:23,0,-1.94085,-5.52816,-1.00187,Q,Q
2023-03-14 22:43:11:33,0,-1.96272,-5.51208,-0.995883,Q,Q
2023-03-14 22:43:11:43,0,-1.99151,-5.49665,-0.987916,Q,Q
2023-03-14 22:43:11:53,0,-2.03027,-5.48138,-0.981762,Q,Q
2023-03-14 22:43:11:63,0,-2.08159,-5.45762,-0.972637,Q,Q
2023-03-14 22:43:11:73,0,-2.14913,-5.42067,-0.958775,Q,Q
2023-03-14 22:43:11:83,0,-2.23838,-5.36952,-0.936512,Q,Q
2023-03-14 22:43:11:93,0,-2.35012,-5.31276,-0.908915,Q,Q
2023-03-14 22:43:11:103,0,-2.48784,-5.25452,-0.868002,Q,Q
2023-03-14 22:43:11:113,0,-2.65778,-5.2011,-0.813741,Q,Q
2023-03-14 22:43:11:124,0,-2.86806,-5.17367,-0.752403,Q,Q
2023-03-14 22:43:11:133,0,-3.08235,-5.16375,-0.695543,Q,Q
2023-03-14 22:43:11:144,0,-3.28257,-5.16341,-0.646441,Q,Q
2023-03-14 22:43:11:153,0,-3.45693,-5.16686,-0.605688,Q,Q
2023-03-14 22:43:11:164,0,-3.61,-5.16947,-0.564427,Q,Q
2023-03-14 22:43:11:173,0,-3.74999,-5.17251,-0.520597,Q,Q
2023-03-14 22:43:11:183,0,-3.89246,-5.17623,-0.477966,Q,Q
2023-03-14 22:43:11:193,0,-4.03925,-5.17664,-0.439989,Q,Q
2023-03-14 22:43:11:203,0,-4.17228,-5.17927,-0.411322,Q,Q
2023-03-14 22:43:11:213,0,-4.28582,-5.18207,-0.392425,Q,Q
2023-03-14 22:43:11:224,0,-4.37405,-5.17986,-0.382281,Q,Q
2023-03-14 22:43:11:233,0,-4.43857,-5.17576,-0.383382,Q,Q
2023-03-14 22:43:11:243,0,-4.48791,-5.16939,-0.3914,Q,Q
2023-03-14 22:43:11:253,0,-4.52839,-5.16706,-0.405112,Q,Q
2023-03-14 22:43:11:263,0,-4.56649,-5.16071,-0.425417,Q,Q
2023-03-14 22:43:11:273,0,-4.59512,-5.1552,-0.449651,Q,Q
2023-03-14 22:43:11:283,0,-4.61937,-5.14553,-0.474405,Q,Q
2023-03-14 22:43:11:293,0,-4.63506,-5.13692,-0.503078,Q,Q
2023-03-14 22:43:11:303,0,-4.63972,-5.12928,-0.534564,Q,Q
2023-03-14 22:43:11:313,0,-4.63706,-5.1161,-0.567039,Q,Q
2023-03-14 22:43:11:323,0,-4.62729,-5.09981,-0.597219,Q,Q
2023-03-14 22:43:11:333,0,-4.6063,-5.08339,-0.621548,Q,Q
2023-03-14 22:43:11:343,0,-4.57717,-5.06779,-0.645774,Q,Q
2023-03-14 22:43:11:353,0,-4.54718,-5.04973,-0.664917,Q,Q
2023-03-14 22:43:11:363,0,-4.51955,-5.03391,-0.683929,Q,Q
2023-03-14 22:43:11:373,0,-4.49381,-5.01502,-0.69846,Q,Q
2023-03-14 22:43:11:383,0,-4.4727,-5.0029,-0.709551,Q,Q
2023-03-14 22:43:11:393,0,-4.45335,-4.99321,-0.717467,Q,Q
2023-03-14 22:43:11:403,0,-4.43818,-4.98924,-0.727658,Q,Q
2023-03-14 22:43:11:413,0,-4.42271,-4.98222,-0.740001,Q,Q
2023-03-14 22:43:11:423,0,-4.40336,-4.98023,-0.748351,Q,Q
2023-03-14 22:43:11:433,0,-4.38359,-4.97673,-0.757683,Q,Q
2023-03-14 22:43:11:444,0,-4.36532,-4.97278,-0.765665,Q,Q
2023-03-14 22:43:11:453,0,-4.34989,-4.96741,-0.770993,Q,Q
2023-03-14 22:43:11:463,0,-4.33612,-4.96212,-0.774089,Q,Q
2023-03-14 22:43:11:473,0,-4.32842,-4.96189,-0.77499,Q,Q
2023-03-14 22:43:11:483,0,-4.32394,-4.95994,-0.782,Q,Q
2023-03-14 22:43:11:493,0,-4.31665,-4.95818,-0.786503,Q,Q
2023-03-14 22:43:11:503,0,-4.31152,-4.95786,-0.793944,Q,Q
2023-03-14 22:43:11:513,0,-4.30748,-4.95519,-0.807034,Q,Q
2023-03-14 22:43:11:523,0,-4.3096,-4.95303,-0.8198,Q,Q
2023-03-14 22:43:11:533,0,-4.30528,-4.94885,-0.832379,Q,Q
2023-03-14 22:43:11:543,0,-4.29805,-4.94063,-0.848823,Q,Q
2023-03-14 22:43:11:553,0,-4.28137,-4.93573,-0.865357,Q,Q
2023-03-14 22:43:11:563,0,-4.26317,-4.92911,-0.885278,Q,Q
2023-03-14 22:43:11:573,0,-4.2407,-4.92066,-0.902782,Q,Q
2023-03-14 22:43:11:583,0,-4.21817,-4.91162,-0.919179,Q,Q
2023-03-14 22:43:11:593,0,-4.19713,-4.90386,-0.928997,Q,Q
2023-03-14 22:43:11:603,0,-4.17777,-4.90217,-0.943614,Q,Q
2023-03-14 22:43:11:613,0,-4.15831,-4.8983,-0.959456,Q,Q
2023-03-14 22:43:11:623,0,-4.13385,-4.89273,-0.977783,Q,Q
2023-03-14 22:43:11:633,0,-4.09706,-4.89055,-0.993301,Q,Q
2023-03-14 22:43:11:643,0,-4.04825,-4.8918,-1.00908,Q,Q
2023-03-14 22:43:11:653,0,-4.00135,-4.90077,-1.02094,Q,Q
2023-03-14 22:43:11:663,0,-3.95855,-4.91147,-1.03165,Q,Q
2023-03-14 22:43:11:673,0,-3.92278,-4.92692,-1.04188,Q,Q
2023-03-14 22:43:11:683,0,-3.88801,-4.94646,-1.053,Q,Q
2023-03-14 22:43:11:693,0,-3.84722,-4.96106,-1.06492,Q,Q
2023-03-14 22:43:11:703,0,-3.79473,-4.97003,-1.08466,Q,Q
2023-03-14 22:43:11:713,0,-3.73453,-4.97623,-1.10447,Q,Q
2023-03-14 22:43:11:723,0,-3.66979,-4.9838,-1.12678,Q,Q
2023-03-14 22:43:11:733,0,-3.60569,-4.99386,-1.14836,Q,Q
2023-03-14 22:43:11:743,0,-3.54888,-5.00333,-1.17151,Q,Q
2023-03-14 22:43:11:753,0,-3.49387,-5.01272,-1.19394,Q,Q
2023-03-14 22:43:11:763,0,-3.44514,-5.01977,-1.21524,Q,Q
2023-03-14 22:43:11:773,0,-3.40184,-5.02489,-1.23123,Q,Q
2023-03-14 22:43:11:783,0,-3.36417,-5.03179,-1.24834,Q,Q
2023-03-14 22:43:11:793,0,-3.33673,-5.03782,-1.26382,Q,Q
2023-03-14 22:43:11:803,0,-3.31103,-5.04521,-1.28036,Q,Q
2023-03-14 22:43:11:813,0,-3.29039,-5.04923,-1.295,Q,Q
2023-03-14 22:43:11:823,0,-3.2656,-5.05273,-1.3059,Q,Q
2023-03-14 22:43:11:833,0,-3.24909,-5.05255,-1.31166,Q,Q
2023-03-14 22:43:11:843,0,-3.23811,-5.05805,-1.31115,Q,Q
2023-03-14 22:43:11:853,0,-3.23271,-5.06416,-1.3056,Q,Q
2023-03-14 22:43:11:863,0,-3.22937,-5.06896,-1.30115,Q,Q
2023-03-14 22:43:11:873,0,-3.22872,-5.07459,-1.2998,Q,Q
2023-03-14 22:43:11:883,0,-3.22748,-5.07799,-1.30383,Q,Q
2023-03-14 22:43:11:893,0,-3.22847,-5.07915,-1.30922,Q,Q
2023-03-14 22:43:11:903,0,-3.23204,-5.07787,-1.31681,Q,Q
2023-03-14 22:43:11:913,0,-3.23144,-5.07889,-1.32635,Q,Q
2023-03-14 22:43:11:923,0,-3.23036,-5.08268,-1.33224,Q,Q
2023-03-14 22:43:11:933,0,-3.22852,-5.08945,-1.33696,Q,Q
2023-03-14 22:43:11:943,0,-3.22922,-5.09318,-1.34234,Q,Q
2023-03-14 22:43:11:953,0,-3.23019,-5.0942,-1.34469,Q,Q
2023-03-14 22:43:11:963,0,-3.22948,-5.09212,-1.34696,Q,Q
2023-03-14 22:43:11:973,0,-3.22851,-5.08873,-1.34838,Q,Q
2023-03-14 22:43:11:983,0,-3.22534,-5.08241,-1.34956,Q,Q
2023-03-14 22:43:11:993,0,-3.22449,-5.07779,-1.34949,Q,Q
2023-03-14 22:43:12:3,0,-3.22111,-5.07335,-1.35292,Q,Q
2023-03-14 22:43:12:13,0,-3.21574,-5.0724,-1.35294,Q,Q
2023-03-14 22:43:12:23,0,-3.20315,-5.07285,-1.3555,Q,Q
2023-03-14 22:43:12:33,0,-3.18684,-5.0742,-1.36141,Q,Q
2023-03-14 22:43:12:43,0,-3.16679,-5.07991,-1.368,Q,Q
2023-03-14 22:43:12:53,0,-3.14672,-5.08835,-1.37201,Q,Q
2023-03-14 22:43:12:63,0,-3.12653,-5.09527,-1.37543,Q,Q
2023-03-14 22:43:12:73,0,-3.10654,-5.11066,-1.37639,Q,Q
2023-03-14 22:43:12:83,0,-3.09061,-5.13002,-1.36981,Q,Q
2023-03-14 22:43:12:93,0,-3.07653,-5.1488,-1.36397,Q,Q
2023-03-14 22:43:12:103,0,-3.06723,-5.16906,-1.35632,Q,Q
2023-03-14 22:43:12:113,0,-3.06049,-5.18559,-1.34301,Q,Q
2023-03-14 22:43:12:123,0,-3.05186,-5.21165,-1.32546,Q,Q
2023-03-14 22:43:12:133,0,-3.05579,-5.25743,-1.3111,Q,Q
2023-03-14 22:43:12:143,0,-3.07645,-5.30177,-1.28959,Q,Q
2023-03-14 22:43:12:153,0,-3.10423,-5.33193,-1.27287,Q,Q
2023-03-14 22:43:12:163,0,-3.1228,-5.34853,-1.26029,Q,Q
2023-03-14 22:43:12:173,0,-3.12717,-5.34803,-1.25909,Q,Q
2023-03-14 22:43:12:183,0,-3.12043,-5.33837,-1.25927,Q,Q
2023-03-14 22:43:12:193,0,-3.11422,-5.32838,-1.25964,Q,Q
2023-03-14 22:43:12:203,0,-3.10924,-5.32299,-1.25816,Q,Q
2023-03-14 22:43:12:213,0,-3.10912,-5.32069,-1.26001,Q,Q
2023-03-14 22:43:12:223,0,-3.10895,-5.31676,-1.263,Q,Q
2023-03-14 22:43:12:233,0,-3.10775,-5.31206,-1.27002,Q,Q
2023-03-14 22:43:12:243,0,-3.10934,-5.31192,-1.27985,Q,Q
2023-03-14 22:43:12:253,0,-3.12169,-5.31114,-1.28163,Q,Q
2023-03-14 22:43:12:263,0,-3.14284,-5.31229,-1.28631,Q,Q
2023-03-14 22:43:12:273,0,-3.16414,-5.31905,-1.2903,Q,Q
2023-03-14 22:43:12:283,0,-3.18964,-5.33006,-1.29494,Q,Q
2023-03-14 22:43:12:293,0,-3.21479,-5.35482,-1.29549,Q,Q
2023-03-14 22:43:12:303,0,-3.24509,-5.38396,-1.29844,Q,Q
2023-03-14 22:43:12:313,0,-3.27893,-5.42323,-1.30184,Q,Q
2023-03-14 22:43:12:323,0,-3.31382,-5.4567,-1.3042,Q,Q
2023-03-14 22:43:12:333,0,-3.32753,-5.43137,-1.30474,Q,Q
2023-03-14 22:43:12:343,0,-3.3113,-5.41165,-1.31927,Q,Q
2023-03-14 22:43:12:353,0,-3.29596,-5.41144,-1.31775,Q,Q
2023-03-14 22:43:12:363,0,-3.30438,-5.41936,-1.29562,Q,Q
2023-03-14 22:43:12:373,0,-3.31529,-5.42478,-1.28021,Q,Q
2023-03-14 22:43:12:383,0,-3.32078,-5.42449,-1.28068,Q,Q
2023-03-14 22:43:12:393,0,-3.30706,-5.41565,-1.28738,Q,Q
2023-03-14 22:43:12:403,0,-3.28258,-5.40943,-1.29611,Q,Q
2023-03-14 22:43:12:413,0,-3.26322,-5.40231,-1.30203,Q,Q
2023-03-14 22:43:12:423,0,-3.24847,-5.39414,-1.31395,Q,Q
2023-03-14 22:43:12:433,0,-3.23736,-5.38387,-1.32136,Q,Q
2023-03-14 22:43:12:444,0,-3.22557,-5.37185,-1.33181,Q,Q
2023-03-14 22:43:12:453,0,-3.20248,-5.35305,-1.34351,Q,Q
2023-03-14 22:43:12:463,0,-3.17504,-5.33046,-1.35581,Q,Q
2023-03-14 22:43:12:473,0,-3.14004,-5.30096,-1.36806,Q,Q
2023-03-14 22:43:12:483,0,-3.09983,-5.26854,-1.37685,Q,Q
2023-03-14 22:43:12:493,0,-3.06453,-5.26127,-1.38604,Q,Q
2023-03-14 22:43:12:504,0,-3.04102,-5.27044,-1.38702,Q,Q
2023-03-14 22:43:12:513,0,-3.02687,-5.2774,-1.38648,Q,Q
2023-03-14 22:43:12:524,0,-3.00493,-5.2749,-1.39031,Q,Q
2023-03-14 22:43:12:533,0,-2.97343,-5.26167,-1.39433,Q,Q
2023-03-14 22:43:12:543,0,-2.93098,-5.24041,-1.39478,Q,Q
2023-03-14 22:43:12:553,0,-2.8848,-5.21113,-1.39324,Q,Q
2023-03-14 22:43:12:563,0,-2.83977,-5.18493,-1.38997,Q,Q
2023-03-14 22:43:12:573,0,-2.80689,-5.16927,-1.38575,Q,Q
2023-03-14 22:43:12:583,0,-2.78044,-5.15824,-1.3781,Q,Q
2023-03-14 22:43:12:593,0,-2.76396,-5.14923,-1.37533,Q,Q
2023-03-14 22:43:12:604,0,-2.74515,-5.1356,-1.37862,Q,Q
2023-03-14 22:43:12:613,0,-2.72883,-5.11896,-1.389,Q,Q
2023-03-14 22:43:12:624,0,-2.7212,-5.09503,-1.40207,Q,Q
2023-03-14 22:43:12:633,0,-2.71382,-5.06853,-1.41559,Q,Q
2023-03-14 22:43:12:643,0,-2.707,-5.04632,-1.43428,Q,Q
2023-03-14 22:43:12:654,0,-2.7065,-5.03287,-1.44916,Q,Q
2023-03-14 22:43:12:663,0,-2.71006,-5.0215,-1.46115,Q,Q
2023-03-14 22:43:12:673,0,-2.71489,-5.014,-1.4722,Q,Q
2023-03-14 22:43:12:684,0,-2.72345,-5.00366,-1.48079,Q,Q
2023-03-14 22:43:12:693,0,-2.73119,-4.9934,-1.49321,Q,Q
2023-03-14 22:43:12:703,0,-2.73374,-4.97959,-1.50127,Q,Q
2023-03-14 22:43:12:713,0,-2.73351,-4.96734,-1.50704,Q,Q
2023-03-14 22:43:12:723,0,-2.73229,-4.95987,-1.51465,Q,Q
2023-03-14 22:43:12:733,0,-2.72923,-4.95722,-1.52067,Q,Q
2023-03-14 22:43:12:744,0,-2.72776,-4.95756,-1.52433,Q,Q
2023-03-14 22:43:12:753,0,-2.72637,-4.95927,-1.5255,Q,Q
2023-03-14 22:43:12:763,0,-2.72774,-4.96276,-1.52572,Q,Q
2023-03-14 22:43:12:773,0,-2.72737,-4.96662,-1.52674,Q,Q
2023-03-14 22:43:12:784,0,-2.7272,-4.97512,-1.52412,Q,Q
2023-03-14 22:43:12:793,0,-2.72578,-4.98388,-1.52007,Q,Q
2023-03-14 22:43:12:804,0,-2.72928,-4.99529,-1.51432,Q,Q
2023-03-14 22:43:12:813,0,-2.72964,-5.00676,-1.50982,Q,Q
2023-03-14 22:43:12:824,0,-2.73113,-5.02135,-1.50548,Q,Q
2023-03-14 22:43:12:833,0,-2.73178,-5.03389,-1.5017,Q,Q
2023-03-14 22:43:12:843,0,-2.73146,-5.04788,-1.49611,Q,Q
2023-03-14 22:43:12:853,0,-2.73121,-5.0639,-1.484,Q,Q
2023-03-14 22:43:12:863,0,-2.73454,-5.0769,-1.47098,Q,Q
2023-03-14 22:43:12:873,0,-2.73226,-5.09217,-1.45977,Q,Q
2023-03-14 22:43:12:883,0,-2.73089,-5.10467,-1.44454,Q,Q
2023-03-14 22:43:12:893,0,-2.7309,-5.11917,-1.43499,Q,Q
2023-03-14 22:43:12:904,0,-2.72625,-5.1315,-1.42084,Q,Q
2023-03-14 22:43:12:913,0,-2.72398,-5.15023,-1.40869,Q,Q
2023-03-14 22:43:12:924,0,-2.72189,-5.17041,-1.39691,Q,Q
2023-03-14 22:43:12:933,0,-2.7182,-5.19581,-1.3843,Q,Q
2023-03-14 22:43:12:944,0,-2.716,-5.21442,-1.3761,Q,Q
2023-03-14 22:43:12:953,0,-2.71737,-5.22698,-1.36487,Q,Q
2023-03-14 22:43:12:963,0,-2.71977,-5.23666,-1.35679,Q,Q
2023-03-14 22:43:12:973,0,-2.72316,-5.23952,-1.34782,Q,Q
2023-03-14 22:43:12:984,0,-2.73018,-5.24076,-1.33848,Q,Q
2023-03-14 22:43:12:993,0,-2.73284,-5.24295,-1.32638,Q,Q
2023-03-14 22:43:13:3,0,-2.73374,-5.23571,-1.31722,Q,Q
2023-03-14 22:43:13:13,0,-2.72982,-5.2262,-1.31191,Q,Q
2023-03-14 22:43:13:24,0,-2.71718,-5.21352,-1.30639,Q,Q
2023-03-14 22:43:13:33,0,-2.69648,-5.19605,-1.30707,Q,Q
2023-03-14 22:43:13:44,0,-2.67143,-5.17778,-1.31299,Q,Q
2023-03-14 22:43:13:53,0,-2.63975,-5.16006,-1.32518,Q,Q
2023-03-14 22:43:13:64,0,-2.60697,-5.14514,-1.34037,Q,Q
2023-03-14 22:43:13:73,0,-2.57306,-5.13174,-1.35602,Q,Q
2023-03-14 22:43:13:83,0,-2.5404,-5.12487,-1.37452,Q,Q
2023-03-14 22:43:13:93,0,-2.50932,-5.12773,-1.39123,Q,Q
2023-03-14 22:43:13:104,0,-2.4755,-5.13236,-1.40918,Q,Q
2023-03-14 22:43:13:113,0,-2.43835,-5.14053,-1.42764,Q,Q
2023-03-14 22:43:13:123,0,-2.39929,-5.14735,-1.44637,Q,Q
2023-03-14 22:43:13:133,0,-2.35919,-5.15772,-1.46199,Q,Q
2023-03-14 22:43:13:143,0,-2.31981,-5.1673,-1.47315,Q,Q
2023-03-14 22:43:13:154,0,-2.28437,-5.17847,-1.47861,Q,Q
2023-03-14 22:43:13:164,0,-2.25375,-5.1896,-1.47636,Q,Q
2023-03-14 22:43:13:174,0,-2.23191,-5.19896,-1.46013,Q,Q
2023-03-14 22:43:13:183,0,-2.21698,-5.20054,-1.42869,Q,Q
2023-03-14 22:43:13:193,0,-2.21171,-5.21657,-1.3836,Q,Q
2023-03-14 22:43:13:204,0,-2.22243,-5.23976,-1.31754,Q,Q
2023-03-14 22:43:13:213,0,-2.24619,-5.26603,-1.23919,Q,Q
2023-03-14 22:43:13:224,0,-2.27194,-5.28886,-1.15318,Q,Q
2023-03-14 22:43:13:233,0,-2.2986,-5.30602,-1.06755,Q,Q
2023-03-14 22:43:13:243,0,-2.31205,-5.31156,-0.98442,Q,Q
2023-03-14 22:43:13:253,0,-2.31323,-5.31061,-0.908511,Q,Q
2023-03-14 22:43:13:264,0,-2.30908,-5.30032,-0.841471,Q,Q
2023-03-14 22:43:13:273,0,-2.29736,-5.28253,-0.791317,Q,Q
2023-03-14 22:43:13:283,0,-2.27371,-5.25767,-0.754764,Q,Q
2023-03-14 22:43:13:293,0,-2.24786,-5.22784,-0.731293,Q,Q
2023-03-14 22:43:13:304,0,-2.21625,-5.19303,-0.723317,Q,Q
2023-03-14 22:43:13:313,0,-2.18598,-5.15738,-0.725457,Q,Q
2023-03-14 22:43:13:324,0,-2.15665,-5.12375,-0.742586,Q,Q
2023-03-14 22:43:13:333,0,-2.13443,-5.09233,-0.777493,Q,Q
2023-03-14 22:43:13:344,0,-2.11628,-5.06307,-0.821998,Q,Q
2023-03-14 22:43:13:353,0,-2.1032,-5.04036,-0.872152,Q,Q
2023-03-14 22:43:13:363,0,-2.09189,-5.02147,-0.926958,Q,Q
2023-03-14 22:43:13:374,0,-2.08185,-5.00245,-0.983952,Q,Q
2023-03-14 22:43:13:383,0,-2.07221,-4.98753,-1.03855,Q,Q
2023-03-14 22:43:13:394,0,-2.06319,-4.97443,-1.08487,Q,Q
2023-03-14 22:43:13:403,0,-2.052,-4.96518,-1.12806,Q,Q
2023-03-14 22:43:13:413,0,-2.0421,-4.95934,-1.15615,Q,Q
2023-03-14 22:43:13:423,0,-2.03831,-4.952,-1.17311,Q,Q
2023-03-14 22:43:13:433,0,-2.04337,-4.94206,-1.1771,Q,Q
2023-03-14 22:43:13:444,0,-2.05437,-4.93445,-1.17358,Q,Q
2023-03-14 22:43:13:453,0,-2.06725,-4.92653,-1.1664,Q,Q
2023-03-14 22:43:13:463,0,-2.07935,-4.92067,-1.15368,Q,Q
2023-03-14 22:43:13:473,0,-2.09557,-4.90868,-1.14062,Q,Q
2023-03-14 22:43:13:483,0,-2.11398,-4.89379,-1.12809,Q,Q
2023-03-14 22:43:13:493,0,-2.12859,-4.87333,-1.11779,Q,Q
2023-03-14 22:43:13:504,0,-2.14331,-4.85528,-1.11177,Q,Q
2023-03-14 22:43:13:513,0,-2.15632,-4.83636,-1.11025,Q,Q
2023-03-14 22:43:13:523,0,-2.16862,-4.81514,-1.11106,Q,Q
2023-03-14 22:43:13:533,0,-2.17923,-4.79478,-1.12034,Q,Q
2023-03-14 22:43:13:543,0,-2.18379,-4.77226,-1.13825,Q,Q
2023-03-14 22:43:13:553,0,-2.18915,-4.74787,-1.15774,Q,Q
2023-03-14 22:43:13:564,0,-2.19152,-4.72021,-1.18558,Q,Q
2023-03-14 22:43:13:573,0,-2.19576,-4.69351,-1.21691,Q,Q
2023-03-14 22:43:13:583,0,-2.19908,-4.67552,-1.24354,Q,Q
2023-03-14 22:43:13:593,0,-2.20176,-4.65925,-1.26414,Q,Q
2023-03-14 22:43:13:603,0,-2.20054,-4.64468,-1.28135,Q,Q
2023-03-14 22:43:13:613,0,-2.1995,-4.63204,-1.29712,Q,Q
2023-03-14 22:43:13:623,0,-2.19993,-4.61634,-1.30982,Q,Q
2023-03-14 22:43:13:633,0,-2.19739,-4.60245,-1.32523,Q,Q
2023-03-14 22:43:13:644,0,-2.19699,-4.58923,-1.33372,Q,Q
2023-03-14 22:43:13:654,0,-2.19501,-4.58255,-1.33792,Q,Q
2023-03-14 22:43:13:664,0,-2.18955,-4.57595,-1.34132,Q,Q
2023-03-14 22:43:13:674,0,-2.18345,-4.57125,-1.33747,Q,Q
2023-03-14 22:43:13:684,0,-2.18249,-4.57152,-1.33158,Q,Q
2023-03-14 22:43:13:694,0,-2.18135,-4.57499,-1.32077,Q,Q
2023-03-14 22:43:13:704,0,-2.18857,-4.58014,-1.30833,Q,Q
2023-03-14 22:43:13:713,0,-2.20277,-4.59194,-1.29131,Q,Q
2023-03-14 22:43:13:723,0,-2.22355,-4.6139,-1.27119,Q,Q
2023-03-14 22:43:13:733,0,-2.24803,-4.64144,-1.24977,Q,Q
2023-03-14 22:43:13:744,0,-2.27254,-4.67069,-1.22824,Q,Q
2023-03-14 22:43:13:754,0,-2.29785,-4.69982,-1.20699,Q,Q
2023-03-14 22:43:13:764,0,-2.31172,-4.72298,-1.19006,Q,Q
2023-03-14 22:43:13:773,0,-2.32442,-4.74342,-1.17325,Q,Q
2023-03-14 22:43:13:784,0,-2.33312,-4.76017,-1.15433,Q,Q
2023-03-14 22:43:13:794,0,-2.34485,-4.77605,-1.13454,Q,Q
2023-03-14 22:43:13:804,0,-2.36077,-4.79117,-1.11753,Q,Q
2023-03-14 22:43:13:813,0,-2.37025,-4.80746,-1.10108,Q,Q
2023-03-14 22:43:13:823,0,-2.38059,-4.81867,-1.08523,Q,Q
2023-03-14 22:43:13:833,0,-2.38621,-4.82914,-1.07347,Q,Q
2023-03-14 22:43:13:844,0,-2.39283,-4.8289,-1.06288,Q,Q
2023-03-14 22:43:13:853,0,-2.39429,-4.83153,-1.06228,Q,Q
2023-03-14 22:43:13:864,0,-2.39192,-4.82785,-1.05973,Q,Q
2023-03-14 22:43:13:873,0,-2.38218,-4.82952,-1.05771,Q,Q
2023-03-14 22:43:13:883,0,-2.37574,-4.83127,-1.0581,Q,Q
2023-03-14 22:43:13:893,0,-2.36964,-4.82897,-1.0649,Q,Q
2023-03-14 22:43:13:904,0,-2.36521,-4.82286,-1.07002,Q,Q
2023-03-14 22:43:13:914,0,-2.36167,-4.81362,-1.07432,Q,Q
2023-03-14 22:43:13:924,0,-2.35615,-4.80162,-1.08242,Q,Q
2023-03-14 22:43:13:933,0,-2.34764,-4.78905,-1.09339,Q,Q
2023-03-14 22:43:13:943,0,-2.33658,-4.77766,-1.10529,Q,Q
2023-03-14 22:43:13:953,0,-2.32191,-4.76014,-1.12198,Q,Q
2023-03-14 22:43:13:964,0,-2.30027,-4.74562,-1.13764,Q,Q
2023-03-14 22:43:13:974,0,-2.27766,-4.73085,-1.1537,Q,Q
2023-03-14 22:43:13:984,0,-2.25354,-4.71372,-1.17168,Q,Q
2023-03-14 22:43:13:994,0,-2.22574,-4.69971,-1.19197,Q,Q
2023-03-14 22:43:14:4,0,-2.19782,-4.6888,-1.20918,Q,Q
2023-03-14 22:43:14:14,0,-2.17506,-4.6816,-1.22501,Q,Q
2023-03-14 22:43:14:24,0,-2.15413,-4.67448,-1.24089,Q,Q
2023-03-14 22:43:14:33,0,-2.13466,-4.66365,-1.25746,Q,Q
2023-03-14 22:43:14:43,0,-2.11844,-4.65751,-1.27031,Q,Q
2023-03-14 22:43:14:53,0,-2.10787,-4.65169,-1.27961,Q,Q
2023-03-14 22:43:14:63,0,-2.09695,-4.64674,-1.28663,Q,Q
2023-03-14 22:43:14:73,0,-2.08798,-4.64344,-1.28841,Q,Q
2023-03-14 22:43:14:83,0,-2.08474,-4.64054,-1.28867,Q,Q
2023-03-14 22:43:14:93,0,-2.08243,-4.6336,-1.29031,Q,Q
2023-03-14 22:43:14:103,0,-2.08002,-4.62937,-1.28673,Q,Q
2023-03-14 22:43:14:113,0,-2.08123,-4.62402,-1.28443,Q,Q
2023-03-14 22:43:14:123,0,-2.08174,-4.62233,-1.28356,Q,Q
2023-03-14 22:43:14:133,0,-2.08171,-4.62143,-1.28706,Q,Q
2023-03-14 22:43:14:143,0,-2.08091,-4.61976,-1.28817,Q,Q
2023-03-14 22:43:14:153,0,-2.08115,-4.62025,-1.28678,Q,Q
2023-03-14 22:43:14:163,0,-2.07841,-4.61938,-1.28682,Q,Q
2023-03-14 22:43:14:173,0,-2.07278,-4.61563,-1.29319,Q,Q
2023-03-14 22:43:14:183,0,-2.07024,-4.61214,-1.29893,Q,Q
2023-03-14 22:43:14:193,0,-2.06416,-4.61082,-1.30578,Q,Q
2023-03-14 22:43:14:204,0,-2.06244,-4.60938,-1.30857,Q,Q
2023-03-14 22:43:14:214,0,-2.05638,-4.60857,-1.31141,Q,Q
2023-03-14 22:43:14:224,0,-2.0533,-4.60837,-1.31331,Q,Q
2023-03-14 22:43:14:233,0,-2.05217,-4.60806,-1.31449,Q,Q
2023-03-14 22:43:14:243,0,-2.04751,-4.60692,-1.31614,Q,Q
2023-03-14 22:43:14:253,0,-2.04384,-4.59889,-1.31815,Q,Q
2023-03-14 22:43:14:264,0,-2.0402,-4.59764,-1.32024,Q,Q
2023-03-14 22:43:14:273,0,-2.03112,-4.595,-1.32401,Q,Q
2023-03-14 22:43:14:284,0,-2.02005,-4.59394,-1.32695,Q,Q
2023-03-14 22:43:14:294,0,-2.0161,-4.59115,-1.33207,Q,Q
2023-03-14 22:43:14:303,0,-2.01353,-4.58583,-1.33535,Q,Q
2023-03-14 22:43:14:313,0,-2.01064,-4.58475,-1.33987,Q,Q
2023-03-14 22:43:14:323,0,-2.00863,-4.57897,-1.34476,Q,Q
2023-03-14 22:43:14:333,0,-2.01014,-4.57687,-1.35021,Q,Q
2023-03-14 22:43:14:344,0,-2.00991,-4.57347,-1.35462,Q,Q
2023-03-14 22:43:14:354,0,-2.00844,-4.57275,-1.35712,Q,Q
2023-03-14 22:43:14:364,0,-2.00696,-4.56747,-1.36184,Q,Q
2023-03-14 22:43:14:373,0,-2.00292,-4.55813,-1.3727,Q,Q
2023-03-14 22:43:14:384,0,-1.99862,-4.548,-1.38143,Q,Q
2023-03-14 22:43:14:393,0,-1.9969,-4.53669,-1.38606,Q,Q
2023-03-14 22:43:14:404,0,-1.99326,-4.52721,-1.39161,Q,Q
2023-03-14 22:43:14:413,0,-1.98787,-4.51998,-1.3953,Q,Q
2023-03-14 22:43:14:423,0,-1.98332,-4.51383,-1.40242,Q,Q
2023-03-14 22:43:14:433,0,-1.97829,-4.50287,-1.41301,Q,Q
2023-03-14 22:43:14:444,0,-1.97029,-4.49299,-1.41918,Q,Q
2023-03-14 22:43:14:453,0,-1.96212,-4.48497,-1.4262,Q,Q
2023-03-14 22:43:14:463,0,-1.95043,-4.47951,-1.43117,Q,Q
2023-03-14 22:43:14:473,0,-1.94331,-4.48007,-1.43008,Q,Q
2023-03-14 22:43:14:484,0,-1.93937,-4.48526,-1.42914,Q,Q
2023-03-14 22:43:14:494,0,-1.93667,-4.48828,-1.4242,Q,Q
2023-03-14 22:43:14:503,0,-1.93588,-4.48902,-1.41656,Q,Q
2023-03-14 22:43:14:514,0,-1.93498,-4.48844,-1.41,Q,Q
2023-03-14 22:43:14:524,0,-1.93195,-4.48671,-1.40334,Q,Q
2023-03-14 22:43:14:533,0,-1.93378,-4.48587,-1.39556,Q,Q
2023-03-14 22:43:14:544,0,-1.92776,-4.48782,-1.38787,Q,Q
2023-03-14 22:43:14:554,0,-1.92053,-4.49166,-1.37869,Q,Q
2023-03-14 22:43:14:563,0,-1.91663,-4.48895,-1.36806,Q,Q
2023-03-14 22:43:14:573,0,-1.91192,-4.48887,-1.36507,Q,Q
2023-03-14 22:43:14:583,0,-1.90375,-4.48711,-1.35947,Q,Q
2023-03-14 22:43:14:593,0,-1.90288,-4.48866,-1.35343,Q,Q
2023-03-14 22:43:14:604,0,-1.90354,-4.48977,-1.34818,Q,Q
2023-03-14 22:43:14:613,0,-1.90553,-4.49289,-1.34425,Q,Q
2023-03-14 22:43:14:623,0,-1.90919,-4.49336,-1.34138,Q,Q
2023-03-14 22:43:14:633,0,-1.91284,-4.49666,-1.33877,Q,Q
2023-03-14 22:43:14:643,0,-1.91774,-4.49934,-1.33226,Q,Q
2023-03-14 22:43:14:653,0,-1.92329,-4.50314,-1.32319,Q,Q
2023-03-14 22:43:14:663,0,-1.92518,-4.50847,-1.31319,Q,Q
2023-03-14 22:43:14:673,0,-1.92796,-4.51058,-1.30148,Q,Q
2023-03-14 22:43:14:683,0,-1.93251,-4.51561,-1.28656,Q,Q
2023-03-14 22:43:14:693,0,-1.93446,-4.51985,-1.27074,Q,Q
2023-03-14 22:43:14:703,0,-1.9335,-4.52549,-1.25452,Q,Q
2023-03-14 22:43:14:713,0,-1.93291,-4.53199,-1.24067,Q,Q
2023-03-14 22:43:14:723,0,-1.92711,-4.53701,-1.22499,Q,Q
2023-03-14 22:43:14:733,0,-1.91558,-4.5487,-1.20405,Q,Q
2023-03-14 22:43:14:743,0,-1.90216,-4.56722,-1.18285,Q,Q
2023-03-14 22:43:14:753,0,-1.88753,-4.5875,-1.1636,Q,Q
2023-03-14 22:43:14:763,0,-1.87405,-4.60901,-1.14568,Q,Q
2023-03-14 22:43:14:773,0,-1.86268,-4.62604,-1.12839,Q,Q
2023-03-14 22:43:14:783,0,-1.84732,-4.64526,-1.11017,Q,Q
2023-03-14 22:43:14:793,0,-1.8369,-4.66223,-1.09609,Q,Q
2023-03-14 22:43:14:803,0,-1.8205,-4.67872,-1.08402,Q,Q
2023-03-14 22:43:14:813,0,-1.80691,-4.69261,-1.07761,Q,Q
2023-03-14 22:43:14:823,0,-1.79118,-4.70952,-1.06894,Q,Q
2023-03-14 22:43:14:833,0,-1.77138,-4.72719,-1.06299,Q,Q
2023-03-14 22:43:14:844,0,-1.74869,-4.74417,-1.06087,Q,Q
2023-03-14 22:43:14:854,0,-1.72579,-4.76245,-1.06024,Q,Q
2023-03-14 22:43:14:863,0,-1.70186,-4.77871,-1.05851,Q,Q
2023-03-14 22:43:14:874,0,-1.67477,-4.79423,-1.0602,Q,Q
2023-03-14 22:43:14:884,0,-1.6511,-4.812,-1.06588,Q,Q
2023-03-14 22:43:14:893,0,-1.62804,-4.82606,-1.06804,Q,Q
2023-03-14 22:43:14:904,0,-1.60195,-4.83928,-1.06686,Q,Q
2023-03-14 22:43:14:913,0,-1.57743,-4.85062,-1.07033,Q,Q
2023-03-14 22:43:14:924,0,-1.55934,-4.86279,-1.0785,Q,Q
2023-03-14 22:43:14:933,0,-1.54536,-4.88053,-1.08737,Q,Q
2023-03-14 22:43:14:943,0,-1.53807,-4.89339,-1.0936,Q,Q
2023-03-14 22:43:14:953,0,-1.53311,-4.906,-1.1019,Q,Q
2023-03-14 22:43:14:963,0,-1.52435,-4.91197,-1.11057,Q,Q
2023-03-14 22:43:14:973,0,-1.51594,-4.9161,-1.11948,Q,Q
2023-03-14 22:43:14:984,0,-1.50404,-4.91488,-1.13019,Q,Q
2023-03-14 22:43:14:993,0,-1.4975,-4.9138,-1.13557,Q,Q
2023-03-14 22:43:15:4,0,-1.49096,-4.90983,-1.14147,Q,Q
2023-03-14 22:43:15:14,0,-1.48077,-4.90676,-1.14792,Q,Q
2023-03-14 22:43:15:24,0,-1.47428,-4.89995,-1.15655,Q,Q
2023-03-14 22:43:15:34,0,-1.46187,-4.8937,-1.1646,Q,Q
2023-03-14 22:43:15:44,0,-1.44949,-4.88424,-1.16973,Q,Q
2023-03-14 22:43:15:53,0,-1.44155,-4.87369,-1.17815,Q,Q
2023-03-14 22:43:15:63,0,-1.43224,-4.86328,-1.18652,Q,Q
2023-03-14 22:43:15:73,0,-1.4238,-4.85519,-1.1947,Q,Q
2023-03-14 22:43:15:84,0,-1.41337,-4.84902,-1.20456,Q,Q
2023-03-14 22:43:15:93,0,-1.40396,-4.83982,-1.21722,Q,Q
2023-03-14 22:43:15:103,0,-1.3923,-4.83153,-1.22919,Q,Q
2023-03-14 22:43:15:113,0,-1.38015,-4.82286,-1.24189,Q,Q
2023-03-14 22:43:15:123,0,-1.37244,-4.81046,-1.25651,Q,Q
2023-03-14 22:43:15:133,0,-1.3639,-4.80024,-1.26734,Q,Q
2023-03-14 22:43:15:143,0,-1.36096,-4.79186,-1.27676,Q,Q
2023-03-14 22:43:15:154,0,-1.35553,-4.78464,-1.28728,Q,Q
2023-03-14 22:43:15:164,0,-1.34782,-4.77942,-1.29676,Q,Q
2023-03-14 22:43:15:173,0,-1.34617,-4.77486,-1.30405,Q,Q
2023-03-14 22:43:15:184,0,-1.34278,-4.77395,-1.31064,Q,Q
2023-03-14 22:43:15:194,0,-1.34515,-4.76883,-1.31198,Q,Q
2023-03-14 22:43:15:204,0,-1.34452,-4.76777,-1.31583,Q,Q
2023-03-14 22:43:15:213,0,-1.34143,-4.76192,-1.31806,Q,Q
2023-03-14 22:43:15:223,0,-1.34305,-4.76033,-1.31805,Q,Q
2023-03-14 22:43:15:233,0,-1.34652,-4.75974,-1.31524,Q,Q
2023-03-14 22:43:15:244,0,-1.34405,-4.75368,-1.31805,Q,Q
2023-03-14 22:43:15:254,0,-1.33968,-4.74645,-1.31532,Q,Q
2023-03-14 22:43:15:263,0,-1.33594,-4.74228,-1.31348,Q,Q
2023-03-14 22:43:15:274,0,-1.33179,-4.73732,-1.31071,Q,Q
2023-03-14 22:43:15:283,0,-1.3276,-4.7353,-1.30866,Q,Q
2023-03-14 22:43:15:293,0,-1.32856,-4.7376,-1.30641,Q,Q
2023-03-14 22:43:15:303,0,-1.32623,-4.73814,-1.30208,Q,Q
2023-03-14 22:43:15:314,0,-1.32514,-4.73989,-1.30272,Q,Q
2023-03-14 22:43:15:324,0,-1.32036,-4.7388,-1.307,Q,Q
2023-03-14 22:43:15:334,0,-1.31415,-4.7408,-1.31156,Q,Q
2023-03-14 22:43:15:343,0,-1.30397,-4.74565,-1.31317,Q,Q
2023-03-14 22:43:15:354,0,-1.29831,-4.75168,-1.30939,Q,Q
2023-03-14 22:43:15:363,0,-1.29866,-4.76156,-1.30637,Q,Q
2023-03-14 22:43:15:373,0,-1.30169,-4.77067,-1.30511,Q,Q
2023-03-14 22:43:15:383,0,-1.3061,-4.78024,-1.30022,Q,Q
2023-03-14 22:43:15:394,0,-1.30611,-4.78316,-1.29668,Q,Q
2023-03-14 22:43:15:404,0,-1.30849,-4.78786,-1.29088,Q,Q
2023-03-14 22:43:15:413,0,-1.30578,-4.78972,-1.28561,Q,Q
2023-03-14 22:43:15:423,0,-1.29879,-4.79181,-1.2803,Q,Q
2023-03-14 22:43:15:433,0,-1.28926,-4.793,-1.27566,Q,Q
2023-03-14 22:43:15:443,0,-1.28062,-4.7895,-1.26972,Q,Q
2023-03-14 22:43:15:453,0,-1.26977,-4.78533,-1.26432,Q,Q
2023-03-14 22:43:15:463,0,-1.26743,-4.78768,-1.25803,Q,Q
2023-03-14 22:43:15:473,0,-1.26913,-4.78881,-1.25212,Q,Q
2023-03-14 22:43:15:483,0,-1.27188,-4.78808,-1.24909,Q,Q
2023-03-14 22:43:15:493,0,-1.27909,-4.78414,-1.25222,Q,Q
2023-03-14 22:43:15:504,0,-1.28819,-4.77838,-1.25701,Q,Q
2023-03-14 22:43:15:513,0,-1.29762,-4.7688,-1.26286,Q,Q
2023-03-14 22:43:15:523,0,-1.30562,-4.76066,-1.26999,Q,Q
2023-03-14 22:43:15:533,0,-1.31301,-4.75326,-1.27955,Q,Q
2023-03-14 22:43:15:543,0,-1.31728,-4.74633,-1.28573,Q,Q
2023-03-14 22:43:15:553,0,-1.32068,-4.73949,-1.29293,Q,Q
2023-03-14 22:43:15:563,0,-1.32038,-4.73491,-1.29622,Q,Q
2023-03-14 22:43:15:573,0,-1.31594,-4.72821,-1.30276,Q,Q
2023-03-14 22:43:15:583,0,-1.30914,-4.71276,-1.31175,Q,Q
2023-03-14 22:43:15:593,0,-1.30062,-4.69827,-1.3208,Q,Q
2023-03-14 22:43:15:603,0,-1.2856,-4.69357,-1.32558,Q,Q
2023-03-14 22:43:15:613,0,-1.27372,-4.69358,-1.32322,Q,Q
2023-03-14 22:43:15:623,0,-1.26776,-4.69454,-1.31732,Q,Q
2023-03-14 22:43:15:633,0,-1.26426,-4.69975,-1.31499,Q,Q
2023-03-14 22:43:15:643,0,-1.26434,-4.70412,-1.31243,Q,Q
2023-03-14 22:43:15:653,0,-1.2632,-4.70584,-1.31192,Q,Q
2023-03-14 22:43:15:663,0,-1.26112,-4.70998,-1.31103,Q,Q
2023-03-14 22:43:15:673,0,-1.25347,-4.70805,-1.31036,Q,Q
2023-03-14 22:43:15:683,0,-1.24937,-4.70867,-1.30828,Q,Q
2023-03-14 22:43:15:693,0,-1.2453,-4.71187,-1.3091,Q,Q
2023-03-14 22:43:15:703,0,-1.24185,-4.71195,-1.30826,Q,Q
2023-03-14 22:43:15:713,0,-1.23967,-4.71384,-1.30868,Q,Q
2023-03-14 22:43:15:724,0,-1.23827,-4.71921,-1.30804,Q,Q
2023-03-14 22:43:15:733,0,-1.23498,-4.72913,-1.30501,Q,Q
2023-03-14 22:43:15:743,0,-1.2297,-4.74282,-1.30479,Q,Q
2023-03-14 22:43:15:753,0,-1.22461,-4.7532,-1.30301,Q,Q
2023-03-14 22:43:15:764,0,-1.21974,-4.76484,-1.29827,Q,Q
2023-03-14 22:43:15:773,0,-1.21468,-4.77432,-1.29104,Q,Q
2023-03-14 22:43:15:783,0,-1.20702,-4.78348,-1.27644,Q,Q
2023-03-14 22:43:15:793,0,-1.2013,-4.79181,-1.2645,Q,Q
2023-03-14 22:43:15:803,0,-1.1982,-4.80003,-1.24741,Q,Q
2023-03-14 22:43:15:813,0,-1.20011,-4.80971,-1.23103,Q,Q
2023-03-14 22:43:15:823,0,-1.20101,-4.81432,-1.21523,Q,Q
2023-03-14 22:43:15:833,0,-1.20221,-4.82091,-1.2002,Q,Q
2023-03-14 22:43:15:843,0,-1.20064,-4.82815,-1.18137,Q,Q
2023-03-14 22:43:15:853,0,-1.19901,-4.83326,-1.1682,Q,Q
2023-03-14 22:43:15:863,0,-1.19971,-4.83882,-1.15732,Q,Q
2023-03-14 22:43:15:873,0,-1.19547,-4.84234,-1.14775,Q,Q
2023-03-14 22:43:15:883,0,-1.18558,-4.8484,-1.14354,Q,Q
2023-03-14 22:43:15:893,0,-1.17777,-4.85262,-1.14086,Q,Q
2023-03-14 22:43:15:903,0,-1.16926,-4.85248,-1.13812,Q,Q
2023-03-14 22:43:15:913,0,-1.1559,-4.85323,-1.13904,Q,Q
2023-03-14 22:43:15:923,0,-1.14155,-4.84775,-1.14199,Q,Q
2023-03-14 22:43:15:933,0,-1.13084,-4.84383,-1.14142,Q,Q
2023-03-14 22:43:15:943,0,-1.12487,-4.84441,-1.13977,Q,Q
2023-03-14 22:43:15:953,0,-1.12561,-4.85007,-1.13903,Q,Q
2023-03-14 22:43:15:963,0,-1.12326,-4.85055,-1.13719,Q,Q
2023-03-14 22:43:15:973,0,-1.12245,-4.84845,-1.13751,Q,Q
2023-03-14 22:43:15:983,0,-1.11662,-4.84539,-1.13775,Q,Q
2023-03-14 22:43:15:993,0,-1.10929,-4.83822,-1.13956,Q,Q
2023-03-14 22:43:16:3,0,-1.0981,-4.83319,-1.14032,Q,Q
2023-03-14 22:43:16:13,0,-1.09055,-4.83103,-1.13639,Q,Q
2023-03-14 22:43:16:23,0,-1.08304,-4.83066,-1.13136,Q,Q
2023-03-14 22:43:16:33,0,-1.07927,-4.82772,-1.12856,Q,Q
2023-03-14 22:43:16:43,0,-1.077,-4.82823,-1.11847,Q,Q
2023-03-14 22:43:16:53,0,-1.07549,-4.83374,-1.11417,Q,Q
2023-03-14 22:43:16:63,0,-1.07628,-4.83869,-1.1103,Q,Q
2023-03-14 22:43:16:73,0,-1.07328,-4.84327,-1.1042,Q,Q
2023-03-14 22:43:16:83,0,-1.07014,-4.84708,-1.09805,Q,Q
2023-03-14 22:43:16:93,0,-1.06545,-4.84455,-1.09285,Q,Q
2023-03-14 22:43:16:103,0,-1.05661,-4.84461,-1.08809,Q,Q
2023-03-14 22:43:16:113,0,-1.05207,-4.84008,-1.08172,Q,Q
2023-03-14 22:43:16:123,0,-1.04907,-4.84122,-1.07799,Q,Q
2023-03-14 22:43:16:133,0,-1.04619,-4.83721,-1.074,Q,Q
2023-03-14 22:43:16:143,0,-1.04438,-4.83764,-1.06944,Q,Q
2023-03-14 22:43:16:153,0,-1.04374,-4.8361,-1.06441,Q,Q
2023-03-14 22:43:16:163,0,-1.04984,-4.83304,-1.06532,Q,Q
2023-03-14 22:43:16:173,0,-1.04968,-4.82754,-1.06529,Q,Q
2023-03-14 22:43:16:183,0,-1.04274,-4.82703,-1.06548,Q,Q
2023-03-14 22:43:16:193,0,-1.04036,-4.82698,-1.0586,Q,Q
2023-03-14 22:43:16:203,0,-1.04191,-4.82766,-1.04967,Q,Q
2023-03-14 22:43:16:213,0,-1.04316,-4.82571,-1.0452,Q,Q
2023-03-14 22:43:16:224,0,-1.05083,-4.82015,-1.0434,Q,Q
2023-03-14 22:43:16:233,0,-1.05776,-4.81325,-1.0398,Q,Q
2023-03-14 22:43:16:243,0,-1.06674,-4.80403,-1.03796,Q,Q
2023-03-14 22:43:16:253,0,-1.07143,-4.79537,-1.03968,Q,Q
2023-03-14 22:43:16:264,0,-1.07929,-4.78391,-1.03938,Q,Q
2023-03-14 22:43:16:273,0,-1.08327,-4.77494,-1.04064,Q,Q
2023-03-14 22:43:16:283,0,-1.08854,-4.76689,-1.04133,Q,Q
2023-03-14 22:43:16:293,0,-1.09566,-4.76198,-1.04391,Q,Q
2023-03-14 22:43:16:303,0,-1.10502,-4.75373,-1.04681,Q,Q
2023-03-14 22:43:16:313,0,-1.11457,-4.74506,-1.04741,Q,Q
2023-03-14 22:43:16:323,0,-1.12651,-4.73944,-1.04963,Q,Q
2023-03-14 22:43:16:333,0,-1.13924,-4.73409,-1.05136,Q,Q
2023-03-14 22:43:16:343,0,-1.1555,-4.72819,-1.05452,Q,Q
2023-03-14 22:43:16:353,0,-1.16762,-4.72142,-1.0567,Q,Q
2023-03-14 22:43:16:363,0,-1.1794,-4.71596,-1.05954,Q,Q
2023-03-14 22:43:16:373,0,-1.18974,-4.71385,-1.05994,Q,Q
2023-03-14 22:43:16:383,0,-1.20269,-4.70618,-1.06054,Q,Q
2023-03-14 22:43:16:393,0,-1.21372,-4.69785,-1.06209,Q,Q
2023-03-14 22:43:16:403,0,-1.22355,-4.69224,-1.06839,Q,Q
2023-03-14 22:43:16:413,0,-1.23146,-4.68777,-1.07229,Q,Q
2023-03-14 22:43:16:423,0,-1.23477,-4.67981,-1.07938,Q,Q
2023-03-14 22:43:16:433,0,-1.23763,-4.66605,-1.09026,Q,Q
2023-03-14 22:43:16:443,0,-1.23687,-4.65645,-1.10419,Q,Q
2023-03-14 22:43:16:453,0,-1.23227,-4.64411,-1.11282,Q,Q
2023-03-14 22:43:16:463,0,-1.22815,-4.63701,-1.11973,Q,Q
2023-03-14 22:43:16:474,0,-1.22691,-4.63281,-1.1255,Q,Q
2023-03-14 22:43:16:483,0,-1.2226,-4.62827,-1.13384,Q,Q
2023-03-14 22:43:16:493,0,-1.21868,-4.61938,-1.14043,Q,Q
2023-03-14 22:43:16:504,0,-1.21079,-4.60818,-1.14801,Q,Q
2023-03-14 22:43:16:514,0,-1.20513,-4.59594,-1.15403,Q,Q
2023-03-14 22:43:16:524,0,-1.1981,-4.58431,-1.16214,Q,Q
2023-03-14 22:43:16:534,0,-1.18834,-4.57356,-1.16934,Q,Q
2023-03-14 22:43:16:544,0,-1.1787,-4.56579,-1.17536,Q,Q
2023-03-14 22:43:16:554,0,-1.16532,-4.56282,-1.18232,Q,Q
2023-03-14 22:43:16:563,0,-1.15727,-4.55916,-1.18743,Q,Q
2023-03-14 22:43:16:573,0,-1.1442,-4.55873,-1.19338,Q,Q
2023-03-14 22:43:16:583,0,-1.13236,-4.5587,-1.19862,Q,Q
2023-03-14 22:43:16:593,0,-1.12186,-4.55892,-1.19958,Q,Q
2023-03-14 22:43:16:604,0,-1.10987,-4.56227,-1.20182,Q,Q
2023-03-14 22:43:16:613,0,-1.09436,-4.56298,-1.20111,Q,Q
2023-03-14 22:43:16:623,0,-1.07541,-4.56367,-1.19789,Q,Q
2023-03-14 22:43:16:633,0,-1.05988,-4.56832,-1.18792,Q,Q
2023-03-14 22:43:16:643,0,-1.04653,-4.57328,-1.17463,Q,Q
2023-03-14 22:43:16:653,0,-1.03899,-4.57893,-1.1603,Q,Q
2023-03-14 22:43:16:663,0,-1.03235,-4.58753,-1.14427,Q,Q
2023-03-14 22:43:16:673,0,-1.02517,-4.59387,-1.12328,Q,Q
2023-03-14 22:43:16:683,0,-1.01533,-4.60016,-1.11007,Q,Q
2023-03-14 22:43:16:693,0,-1.005,-4.60197,-1.09599,Q,Q
2023-03-14 22:43:16:703,0,-0.992777,-4.60048,-1.08368,Q,Q
2023-03-14 22:43:16:713,0,-0.98115,-4.60246,-1.07424,Q,Q
2023-03-14 22:43:16:723,0,-0.971067,-4.60163,-1.06812,Q,Q
2023-03-14 22:43:16:733,0,-0.953907,-4.6034,-1.06262,Q,Q
2023-03-14 22:43:16:743,0,-0.938296,-4.60002,-1.06242,Q,Q
2023-03-14 22:43:16:754,0,-0.924224,-4.59657,-1.06368,Q,Q
2023-03-14 22:43:16:763,0,-0.913273,-4.59812,-1.06567,Q,Q
2023-03-14 22:43:16:774,0,-0.907315,-4.60048,-1.07284,Q,Q
2023-03-14 22:43:16:784,0,-0.901039,-4.60183,-1.07884,Q,Q
2023-03-14 22:43:16:793,0,-0.900759,-4.6046,-1.08754,Q,Q
2023-03-14 22:43:16:804,0,-0.903443,-4.60658,-1.09862,Q,Q
2023-03-14 22:43:16:813,0,-0.905308,-4.60621,-1.11301,Q,Q
2023-03-14 22:43:16:824,0,-0.907111,-4.60723,-1.12238,Q,Q
2023-03-14 22:43:16:833,0,-0.906098,-4.60566,-1.12691,Q,Q
2023-03-14 22:43:16:844,0,-0.90644,-4.60441,-1.12868,Q,Q
2023-03-14 22:43:16:854,0,-0.910303,-4.60266,-1.12449,Q,Q
2023-03-14 22:43:16:864,0,-0.915346,-4.60355,-1.12547,Q,Q
2023-03-14 22:43:16:874,0,-0.922198,-4.60769,-1.12705,Q,Q
2023-03-14 22:43:16:883,0,-0.924135,-4.60981,-1.13348,Q,Q
2023-03-14 22:43:16:893,0,-0.922739,-4.60967,-1.13871,Q,Q
2023-03-14 22:43:16:903,0,-0.924078,-4.60914,-1.14377,Q,Q
2023-03-14 22:43:16:913,0,-0.926501,-4.60936,-1.14399,Q,Q
2023-03-14 22:43:16:923,0,-0.923305,-4.61061,-1.15164,Q,Q
2023-03-14 22:43:16:933,0,-0.918593,-4.60607,-1.15874,Q,Q
2023-03-14 22:43:16:943,0,-0.912721,-4.60197,-1.164,Q,Q
2023-03-14 22:43:16:953,0,-0.906007,-4.59721,-1.17091,Q,Q
2023-03-14 22:43:16:963,0,-0.898196,-4.59457,-1.17716,Q,Q
2023-03-14 22:43:16:973,0,-0.890063,-4.58621,-1.18433,Q,Q
2023-03-14 22:43:16:984,0,-0.881609,-4.58214,-1.18723,Q,Q
2023-03-14 22:43:16:993,0,-0.874382,-4.57807,-1.19331,Q,Q
2023-03-14 22:43:17:4,0,-0.862678,-4.56874,-1.20019,Q,Q
2023-03-14 22:43:17:13,0,-0.853564,-4.56313,-1.20556,Q,Q
2023-03-14 22:43:17:23,0,-0.848892,-4.55876,-1.21253,Q,Q
2023-03-14 22:43:17:33,0,-0.84595,-4.55766,-1.21721,Q,Q
2023-03-14 22:43:17:44,0,-0.843843,-4.56243,-1.21801,Q,Q
2023-03-14 22:43:17:53,0,-0.840051,-4.56818,-1.21411,Q,Q
2023-03-14 22:43:17:63,0,-0.839497,-4.57526,-1.20556,Q,Q
2023-03-14 22:43:17:73,0,-0.838328,-4.58729,-1.20105,Q,Q
2023-03-14 22:43:17:83,0,-0.839513,-4.59362,-1.19319,Q,Q
2023-03-14 22:43:17:93,0,-0.838225,-4.60238,-1.18397,Q,Q
2023-03-14 22:43:17:104,0,-0.839672,-4.60944,-1.16959,Q,Q
2023-03-14 22:43:17:114,0,-0.835698,-4.61683,-1.1525,Q,Q
2023-03-14 22:43:17:124,0,-0.835983,-4.62317,-1.13538,Q,Q
2023-03-14 22:43:17:133,0,-0.836439,-4.63335,-1.11985,Q,Q
2023-03-14 22:43:17:143,0,-0.835163,-4.64109,-1.10419,Q,Q
2023-03-14 22:43:17:153,0,-0.832776,-4.65098,-1.08812,Q,Q
2023-03-14 22:43:17:164,0,-0.836077,-4.65863,-1.07592,Q,Q
2023-03-14 22:43:17:173,0,-0.83991,-4.66664,-1.0612,Q,Q
2023-03-14 22:43:17:184,0,-0.835617,-4.6769,-1.05087,Q,Q
2023-03-14 22:43:17:194,0,-0.834793,-4.68723,-1.03971,Q,Q
2023-03-14 22:43:17:203,0,-0.839847,-4.69985,-1.03054,Q,Q
2023-03-14 22:43:17:213,0,-0.842345,-4.70307,-1.02351,Q,Q
2023-03-14 22:43:17:224,0,-0.837513,-4.70566,-1.02324,Q,Q
2023-03-14 22:43:17:234,0,-0.834631,-4.71408,-1.01769,Q,Q
2023-03-14 22:43:17:244,0,-0.832769,-4.71526,-1.01308,Q,Q
2023-03-14 22:43:17:254,0,-0.829964,-4.72065,-1.00859,Q,Q
2023-03-14 22:43:17:264,0,-0.826179,-4.72776,-1.00664,Q,Q
2023-03-14 22:43:17:274,0,-0.825284,-4.73375,-1.00828,Q,Q
2023-03-14 22:43:17:283,0,-0.818044,-4.74093,-1.00982,Q,Q
2023-03-14 22:43:17:293,0,-0.81534,-4.74361,-1.01397,Q,Q
2023-03-14 22:43:17:304,0,-0.813304,-4.74382,-1.01922,Q,Q
2023-03-14 22:43:17:313,0,-0.805672,-4.75082,-1.02137,Q,Q
2023-03-14 22:43:17:324,0,-0.79612,-4.76088,-1.01533,Q,Q
2023-03-14 22:43:17:333,0,-0.790692,-4.77218,-1.0131,Q,Q
2023-03-14 22:43:17:344,0,-0.782956,-4.78327,-1.0067,Q,Q
2023-03-14 22:43:17:353,0,-0.775713,-4.78887,-1.0006,Q,Q
2023-03-14 22:43:17:364,0,-0.766505,-4.79182,-0.991595,Q,Q
2023-03-14 22:43:17:373,0,-0.757131,-4.79495,-0.98241,Q,Q
2023-03-14 22:43:17:383,0,-0.748959,-4.79893,-0.968705,Q,Q
2023-03-14 22:43:17:393,0,-0.746731,-4.80481,-0.954773,Q,Q
2023-03-14 22:43:17:403,0,-0.745623,-4.80987,-0.945353,Q,Q
2023-03-14 22:43:17:414,0,-0.744613,-4.81669,-0.940103,Q,Q
2023-03-14 22:43:17:423,0,-0.740601,-4.82181,-0.937935,Q,Q
2023-03-14 22:43:17:433,0,-0.734206,-4.83024,-0.935718,Q,Q
2023-03-14 22:43:17:443,0,-0.722662,-4.84205,-0.938034,Q,Q
2023-03-14 22:43:17:453,0,-0.709606,-4.85268,-0.944988,Q,Q
2023-03-14 22:43:17:464,0,-0.692992,-4.86071,-0.951478,Q,Q
2023-03-14 22:43:17:474,0,-0.673048,-4.8681,-0.95729,Q,Q
2023-03-14 22:43:17:483,0,-0.651681,-4.87585,-0.958523,Q,Q
2023-03-14 22:43:17:494,0,-0.633017,-4.87818,-0.95423,Q,Q
2023-03-14 22:43:17:503,0,-0.617246,-4.88058,-0.944903,Q,Q
2023-03-14 22:43:17:513,0,-0.602128,-4.88724,-0.936082,Q,Q
2023-03-14 22:43:17:524,0,-0.592626,-4.8917,-0.921733,Q,Q
2023-03-14 22:43:17:534,0,-0.578119,-4.89813,-0.908979,Q,Q
2023-03-14 22:43:17:544,0,-0.565998,-4.90351,-0.897004,Q,Q
2023-03-14 22:43:17:554,0,-0.551716,-4.90623,-0.884099,Q,Q
2023-03-14 22:43:17:564,0,-0.531553,-4.90686,-0.873496,Q,Q
2023-03-14 22:43:17:574,0,-0.508218,-4.90788,-0.858656,Q,Q
2023-03-14 22:43:17:583,0,-0.481426,-4.91202,-0.850849,Q,Q
2023-03-14 22:43:17:593,0,-0.455279,-4.91182,-0.845358,Q,Q
2023-03-14 22:43:17:603,0,-0.429377,-4.91019,-0.839591,Q,Q
2023-03-14 22:43:17:613,0,-0.40062,-4.91096,-0.834407,Q,Q
2023-03-14 22:43:17:624,0,-0.377597,-4.91476,-0.826045,Q,Q
2023-03-14 22:43:17:634,0,-0.352713,-4.91803,-0.826453,Q,Q
2023-03-14 22:43:17:644,0,-0.328957,-4.92224,-0.829093,Q,Q
2023-03-14 22:43:17:653,0,-0.306695,-4.91679,-0.829788,Q,Q
2023-03-14 22:43:17:663,0,-0.28165,-4.91011,-0.82773,Q,Q
2023-03-14 22:43:17:673,0,-0.252887,-4.90561,-0.822746,Q,Q
2023-03-14 22:43:17:683,0,-0.222674,-4.90221,-0.815869,Q,Q
2023-03-14 22:43:17:693,0,-0.196238,-4.89759,-0.812644,Q,Q
2023-03-14 22:43:17:703,0,-0.169846,-4.89159,-0.809418,Q,Q
2023-03-14 22:43:17:714,0,-0.145399,-4.88383,-0.8043,Q,Q
2023-03-14 22:43:17:723,0,-0.117004,-4.87769,-0.797801,Q,Q
2023-03-14 22:43:17:733,0,-0.0863067,-4.87302,-0.791668,Q,Q
2023-03-14 22:43:17:744,0,-0.0592175,-4.86663,-0.784765,Q,Q
2023-03-14 22:43:17:753,0,-0.0309944,-4.85888,-0.77678,Q,Q
