Timestamp_cmd,imu_cmd,roll_delta,pitch_delta,yaw_delta,voice_type,voice_length
2023-03-15 11:00:23:503,0,8.50736,-5.04513,-27.6484,Q,Q
2023-03-15 11:00:23:511,0,8.3952,-4.9983,-27.682,Q,Q
2023-03-15 11:00:23:521,0,8.27664,-4.95694,-27.7077,Q,Q
2023-03-15 11:00:23:531,0,8.15161,-4.9185,-27.7255,Q,Q
2023-03-15 11:00:23:541,0,8.01693,-4.89591,-27.7336,Q,Q
2023-03-15 11:00:23:551,0,7.8709,-4.88608,-27.7318,Q,Q
2023-03-15 11:00:23:561,0,7.71438,-4.88564,-27.7202,Q,Q
2023-03-15 11:00:23:571,0,7.54575,-4.88061,-27.6984,Q,Q
2023-03-15 11:00:23:581,0,7.375,-4.87196,-27.6627,Q,Q
2023-03-15 11:00:23:591,0,7.19356,-4.87122,-27.6142,Q,Q
2023-03-15 11:00:23:601,0,7.00856,-4.87958,-27.5533,Q,Q
2023-03-15 11:00:23:611,0,6.81216,-4.89234,-27.4812,Q,Q
2023-03-15 11:00:23:621,0,6.61161,-4.9093,-27.4003,Q,Q
2023-03-15 11:00:23:631,0,6.42304,-4.92729,-27.3138,Q,Q
2023-03-15 11:00:23:641,0,6.2528,-4.94149,-27.2214,Q,Q
2023-03-15 11:00:23:651,0,6.0998,-4.95692,-27.1201,Q,Q
2023-03-15 11:00:23:661,0,5.97285,-4.97277,-27.0188,Q,Q
2023-03-15 11:00:23:671,0,5.86975,-4.98445,-26.9135,Q,Q
2023-03-15 11:00:23:681,0,5.79314,-4.99487,-26.8076,Q,Q
2023-03-15 11:00:23:691,0,5.73551,-5.00478,-26.7021,Q,Q
2023-03-15 11:00:23:701,0,5.69586,-5.01331,-26.5951,Q,Q
2023-03-15 11:00:23:711,0,5.66972,-5.02166,-26.4913,Q,Q
2023-03-15 11:00:23:721,0,5.64829,-5.03153,-26.3942,Q,Q
2023-03-15 11:00:23:731,0,5.62447,-5.04228,-26.3019,Q,Q
2023-03-15 11:00:23:741,0,5.60636,-5.05552,-26.2155,Q,Q
2023-03-15 11:00:23:751,0,5.59064,-5.06689,-26.136,Q,Q
2023-03-15 11:00:23:761,0,5.57688,-5.08186,-26.0592,Q,Q
2023-03-15 11:00:23:771,0,5.56474,-5.10485,-25.9819,Q,Q
2023-03-15 11:00:23:781,0,5.55632,-5.13529,-25.9145,Q,Q
2023-03-15 11:00:23:791,0,5.55163,-5.16592,-25.8526,Q,Q
2023-03-15 11:00:23:801,0,5.55285,-5.20182,-25.7909,Q,Q
2023-03-15 11:00:23:811,0,5.5553,-5.23104,-25.7381,Q,Q
2023-03-15 11:00:23:821,0,5.56271,-5.25045,-25.692,Q,Q
2023-03-15 11:00:23:831,0,5.57609,-5.25937,-25.6461,Q,Q
2023-03-15 11:00:23:841,0,5.59191,-5.27364,-25.5983,Q,Q
2023-03-15 11:00:23:851,0,5.60901,-5.28513,-25.5589,Q,Q
2023-03-15 11:00:23:861,0,5.61903,-5.29285,-25.5263,Q,Q
2023-03-15 11:00:23:871,0,5.63096,-5.29755,-25.4975,Q,Q
2023-03-15 11:00:23:881,0,5.63685,-5.2959,-25.4725,Q,Q
2023-03-15 11:00:23:891,0,5.64195,-5.29153,-25.457,Q,Q
2023-03-15 11:00:23:901,0,5.64764,-5.28357,-25.445,Q,Q
2023-03-15 11:00:23:911,0,5.6528,-5.2751,-25.4393,Q,Q
2023-03-15 11:00:23:921,0,5.65851,-5.26559,-25.4377,Q,Q
2023-03-15 11:00:23:931,0,5.66305,-5.25841,-25.4381,Q,Q
2023-03-15 11:00:23:941,0,5.66756,-5.24917,-25.4434,Q,Q
2023-03-15 11:00:23:951,0,5.67355,-5.24386,-25.4521,Q,Q
2023-03-15 11:00:23:961,0,5.68126,-5.23511,-25.4616,Q,Q
2023-03-15 11:00:23:971,0,5.69149,-5.2261,-25.4723,Q,Q
2023-03-15 11:00:23:981,0,5.70395,-5.21127,-25.4804,Q,Q
2023-03-15 11:00:23:991,0,5.72019,-5.19903,-25.4875,Q,Q
2023-03-15 11:00:24:1,0,5.741,-5.18891,-25.4931,Q,Q
2023-03-15 11:00:24:11,0,5.76411,-5.17794,-25.4967,Q,Q
2023-03-15 11:00:24:21,0,5.78703,-5.17065,-25.4944,Q,Q
2023-03-15 11:00:24:30,0,5.80981,-5.16355,-25.4834,Q,Q
2023-03-15 11:00:24:41,0,5.83669,-5.1605,-25.4699,Q,Q
2023-03-15 11:00:24:51,0,5.85832,-5.15318,-25.4502,Q,Q
2023-03-15 11:00:24:60,0,5.88069,-5.14347,-25.4267,Q,Q
2023-03-15 11:00:24:71,0,5.90208,-5.13429,-25.4002,Q,Q
2023-03-15 11:00:24:80,0,5.92738,-5.12622,-25.3698,Q,Q
2023-03-15 11:00:24:90,0,5.95087,-5.11689,-25.3317,Q,Q
2023-03-15 11:00:24:100,0,5.97181,-5.10524,-25.2879,Q,Q
2023-03-15 11:00:24:110,0,5.99268,-5.09624,-25.2349,Q,Q
2023-03-15 11:00:24:120,0,6.01109,-5.09404,-25.1781,Q,Q
2023-03-15 11:00:24:130,0,6.02548,-5.09084,-25.117,Q,Q
2023-03-15 11:00:24:140,0,6.03771,-5.08818,-25.0527,Q,Q
2023-03-15 11:00:24:150,0,6.04562,-5.08543,-24.9843,Q,Q
2023-03-15 11:00:24:160,0,6.05285,-5.08409,-24.9124,Q,Q
2023-03-15 11:00:24:170,0,6.06197,-5.0807,-24.8406,Q,Q
2023-03-15 11:00:24:180,0,6.07258,-5.08276,-24.7648,Q,Q
2023-03-15 11:00:24:190,0,6.08161,-5.0859,-24.6854,Q,Q
2023-03-15 11:00:24:200,0,6.08789,-5.08982,-24.604,Q,Q
2023-03-15 11:00:24:210,0,6.09593,-5.09777,-24.5221,Q,Q
2023-03-15 11:00:24:220,0,6.10254,-5.10975,-24.4409,Q,Q
2023-03-15 11:00:24:230,0,6.11504,-5.12247,-24.3594,Q,Q
2023-03-15 11:00:24:240,0,6.12283,-5.13473,-24.2769,Q,Q
2023-03-15 11:00:24:250,0,6.12616,-5.14705,-24.1967,Q,Q
2023-03-15 11:00:24:260,0,6.1271,-5.16165,-24.1214,Q,Q
2023-03-15 11:00:24:270,0,6.13007,-5.17282,-24.0444,Q,Q
2023-03-15 11:00:24:280,0,6.13653,-5.18215,-23.9747,Q,Q
2023-03-15 11:00:24:290,0,6.14653,-5.19451,-23.9074,Q,Q
2023-03-15 11:00:24:300,0,6.1546,-5.20544,-23.8445,Q,Q
2023-03-15 11:00:24:310,0,6.16846,-5.22012,-23.7778,Q,Q
2023-03-15 11:00:24:320,0,6.18133,-5.22933,-23.72,Q,Q
2023-03-15 11:00:24:330,0,6.19881,-5.24089,-23.6629,Q,Q
2023-03-15 11:00:24:340,0,6.21161,-5.25064,-23.6051,Q,Q
2023-03-15 11:00:24:350,0,6.22347,-5.26159,-23.5518,Q,Q
2023-03-15 11:00:24:360,0,6.22988,-5.27277,-23.5,Q,Q
2023-03-15 11:00:24:370,0,6.23369,-5.28295,-23.4458,Q,Q
2023-03-15 11:00:24:380,0,6.2383,-5.29033,-23.3941,Q,Q
2023-03-15 11:00:24:390,0,6.23181,-5.29803,-23.3465,Q,Q
2023-03-15 11:00:24:400,0,6.22616,-5.30384,-23.2976,Q,Q
2023-03-15 11:00:24:411,0,6.21841,-5.31196,-23.2525,Q,Q
2023-03-15 11:00:24:420,0,6.21274,-5.32319,-23.2102,Q,Q
2023-03-15 11:00:24:430,0,6.20551,-5.33079,-23.1704,Q,Q
2023-03-15 11:00:24:440,0,6.19126,-5.34326,-23.1306,Q,Q
2023-03-15 11:00:24:450,0,6.18255,-5.35647,-23.093,Q,Q
2023-03-15 11:00:24:460,0,6.1687,-5.36639,-23.0608,Q,Q
2023-03-15 11:00:24:470,0,6.15295,-5.37971,-23.0264,Q,Q
2023-03-15 11:00:24:480,0,6.14118,-5.39012,-22.9953,Q,Q
2023-03-15 11:00:24:491,0,6.12812,-5.3957,-22.9684,Q,Q
2023-03-15 11:00:24:501,0,6.11363,-5.40666,-22.9415,Q,Q
2023-03-15 11:00:24:511,0,6.09906,-5.41406,-22.9114,Q,Q
2023-03-15 11:00:24:521,0,6.08695,-5.42273,-22.8866,Q,Q
2023-03-15 11:00:24:531,0,6.07678,-5.43056,-22.862,Q,Q
2023-03-15 11:00:24:541,0,6.06428,-5.43918,-22.8375,Q,Q
2023-03-15 11:00:24:551,0,6.05566,-5.44441,-22.8113,Q,Q
2023-03-15 11:00:24:561,0,6.04508,-5.45101,-22.7856,Q,Q
2023-03-15 11:00:24:571,0,6.03891,-5.45661,-22.7575,Q,Q
2023-03-15 11:00:24:581,0,6.03553,-5.46228,-22.7255,Q,Q
2023-03-15 11:00:24:591,0,6.0313,-5.46983,-22.6992,Q,Q
2023-03-15 11:00:24:600,0,6.02314,-5.48002,-22.6696,Q,Q
2023-03-15 11:00:24:610,0,6.01951,-5.49417,-22.6374,Q,Q
2023-03-15 11:00:24:620,0,6.01376,-5.50631,-22.607,Q,Q
2023-03-15 11:00:24:630,0,6.00912,-5.5154,-22.5749,Q,Q
2023-03-15 11:00:24:640,0,6.00183,-5.51502,-22.5414,Q,Q
2023-03-15 11:00:24:650,0,5.99177,-5.51164,-22.5115,Q,Q
2023-03-15 11:00:24:660,0,5.98342,-5.50146,-22.4854,Q,Q
2023-03-15 11:00:24:670,0,5.9739,-5.48952,-22.4584,Q,Q
2023-03-15 11:00:24:680,0,5.96439,-5.48998,-22.4269,Q,Q
2023-03-15 11:00:24:690,0,5.95492,-5.49473,-22.3968,Q,Q
2023-03-15 11:00:24:700,0,5.95076,-5.50177,-22.3613,Q,Q
2023-03-15 11:00:24:710,0,5.95308,-5.51295,-22.3286,Q,Q
2023-03-15 11:00:24:721,0,5.96008,-5.52101,-22.2947,Q,Q
2023-03-15 11:00:24:731,0,5.9598,-5.52888,-22.263,Q,Q
2023-03-15 11:00:24:741,0,5.96016,-5.53174,-22.2387,Q,Q
2023-03-15 11:00:24:750,0,5.95297,-5.53408,-22.2112,Q,Q
2023-03-15 11:00:24:761,0,5.95155,-5.53093,-22.1808,Q,Q
2023-03-15 11:00:24:771,0,5.94458,-5.5352,-22.147,Q,Q
2023-03-15 11:00:24:781,0,5.93662,-5.54127,-22.1105,Q,Q
2023-03-15 11:00:24:791,0,5.92551,-5.54328,-22.0765,Q,Q
2023-03-15 11:00:24:801,0,5.9174,-5.54486,-22.0465,Q,Q
2023-03-15 11:00:24:811,0,5.90884,-5.54393,-22.0154,Q,Q
2023-03-15 11:00:24:821,0,5.89956,-5.54335,-21.9854,Q,Q
2023-03-15 11:00:24:830,0,5.88635,-5.54139,-21.955,Q,Q
2023-03-15 11:00:24:840,0,5.8724,-5.54124,-21.9246,Q,Q
2023-03-15 11:00:24:850,0,5.86111,-5.54457,-21.8984,Q,Q
2023-03-15 11:00:24:860,0,5.85314,-5.54717,-21.8761,Q,Q
2023-03-15 11:00:24:870,0,5.8442,-5.54684,-21.8593,Q,Q
2023-03-15 11:00:24:880,0,5.83756,-5.54975,-21.8432,Q,Q
2023-03-15 11:00:24:890,0,5.83134,-5.55437,-21.8263,Q,Q
2023-03-15 11:00:24:900,0,5.82533,-5.55577,-21.8054,Q,Q
2023-03-15 11:00:24:910,0,5.82285,-5.55892,-21.7882,Q,Q
2023-03-15 11:00:24:920,0,5.81721,-5.55923,-21.7737,Q,Q
2023-03-15 11:00:24:930,0,5.81513,-5.56182,-21.7608,Q,Q
2023-03-15 11:00:24:940,0,5.81528,-5.56592,-21.7457,Q,Q
2023-03-15 11:00:24:950,0,5.81933,-5.56843,-21.7304,Q,Q
2023-03-15 11:00:24:961,0,5.82758,-5.57195,-21.7125,Q,Q
2023-03-15 11:00:24:971,0,5.83723,-5.57745,-21.6899,Q,Q
2023-03-15 11:00:24:981,0,5.8481,-5.58348,-21.6688,Q,Q
2023-03-15 11:00:24:991,0,5.85978,-5.58934,-21.6496,Q,Q
2023-03-15 11:00:25:1,0,5.86632,-5.59028,-21.6286,Q,Q
2023-03-15 11:00:25:11,0,5.87016,-5.58618,-21.608,Q,Q
2023-03-15 11:00:25:20,0,5.8732,-5.58294,-21.583,Q,Q
2023-03-15 11:00:25:31,0,5.87293,-5.57763,-21.5592,Q,Q
2023-03-15 11:00:25:41,0,5.87046,-5.57661,-21.5336,Q,Q
2023-03-15 11:00:25:51,0,5.8689,-5.57359,-21.5036,Q,Q
2023-03-15 11:00:25:61,0,5.86688,-5.57089,-21.4797,Q,Q
2023-03-15 11:00:25:71,0,5.86352,-5.57067,-21.4543,Q,Q
2023-03-15 11:00:25:81,0,5.86181,-5.56966,-21.427,Q,Q
2023-03-15 11:00:25:91,0,5.86629,-5.57313,-21.401,Q,Q
2023-03-15 11:00:25:101,0,5.87033,-5.57678,-21.3706,Q,Q
2023-03-15 11:00:25:110,0,5.87442,-5.58193,-21.3384,Q,Q
2023-03-15 11:00:25:121,0,5.87897,-5.59266,-21.3068,Q,Q
2023-03-15 11:00:25:131,0,5.88078,-5.59876,-21.2742,Q,Q
2023-03-15 11:00:25:140,0,5.88219,-5.60696,-21.2411,Q,Q
2023-03-15 11:00:25:151,0,5.88358,-5.61351,-21.2074,Q,Q
2023-03-15 11:00:25:161,0,5.88206,-5.61973,-21.1737,Q,Q
2023-03-15 11:00:25:171,0,5.87914,-5.62614,-21.1389,Q,Q
2023-03-15 11:00:25:181,0,5.8797,-5.63173,-21.1066,Q,Q
2023-03-15 11:00:25:191,0,5.88336,-5.63473,-21.0711,Q,Q
2023-03-15 11:00:25:201,0,5.88699,-5.63428,-21.0383,Q,Q
2023-03-15 11:00:25:211,0,5.88676,-5.63779,-21.0089,Q,Q
2023-03-15 11:00:25:221,0,5.88795,-5.63849,-20.9798,Q,Q
2023-03-15 11:00:25:231,0,5.88735,-5.63731,-20.9532,Q,Q
2023-03-15 11:00:25:241,0,5.88478,-5.63728,-20.9271,Q,Q
2023-03-15 11:00:25:251,0,5.88007,-5.63565,-20.9021,Q,Q
2023-03-15 11:00:25:261,0,5.87659,-5.63709,-20.8746,Q,Q
2023-03-15 11:00:25:270,0,5.87262,-5.63456,-20.8502,Q,Q
2023-03-15 11:00:25:280,0,5.86667,-5.63551,-20.8272,Q,Q
2023-03-15 11:00:25:291,0,5.86226,-5.63478,-20.804,Q,Q
2023-03-15 11:00:25:300,0,5.85523,-5.63617,-20.7818,Q,Q
2023-03-15 11:00:25:310,0,5.84729,-5.63354,-20.7629,Q,Q
2023-03-15 11:00:25:320,0,5.837,-5.63023,-20.7439,Q,Q
2023-03-15 11:00:25:330,0,5.82415,-5.62654,-20.7247,Q,Q
2023-03-15 11:00:25:340,0,5.81228,-5.62949,-20.7076,Q,Q
2023-03-15 11:00:25:350,0,5.80173,-5.63433,-20.6874,Q,Q
2023-03-15 11:00:25:360,0,5.78491,-5.62784,-20.6701,Q,Q
2023-03-15 11:00:25:370,0,5.77292,-5.62445,-20.6526,Q,Q
2023-03-15 11:00:25:380,0,5.76552,-5.62216,-20.6302,Q,Q
2023-03-15 11:00:25:391,0,5.7576,-5.62235,-20.6042,Q,Q
2023-03-15 11:00:25:401,0,5.74787,-5.62406,-20.5825,Q,Q
2023-03-15 11:00:25:411,0,5.74034,-5.62263,-20.5599,Q,Q
2023-03-15 11:00:25:421,0,5.73336,-5.62227,-20.5367,Q,Q
2023-03-15 11:00:25:431,0,5.73168,-5.62023,-20.5147,Q,Q
2023-03-15 11:00:25:440,0,5.73025,-5.62242,-20.4947,Q,Q
2023-03-15 11:00:25:451,0,5.72941,-5.62172,-20.4736,Q,Q
2023-03-15 11:00:25:460,0,5.73,-5.6225,-20.4507,Q,Q
2023-03-15 11:00:25:471,0,5.73429,-5.6238,-20.4258,Q,Q
2023-03-15 11:00:25:480,0,5.73602,-5.62462,-20.4024,Q,Q
2023-03-15 11:00:25:490,0,5.74058,-5.62716,-20.3786,Q,Q
2023-03-15 11:00:25:500,0,5.74784,-5.63317,-20.3562,Q,Q
2023-03-15 11:00:25:511,0,5.75688,-5.63628,-20.3327,Q,Q
2023-03-15 11:00:25:521,0,5.76063,-5.64505,-20.3085,Q,Q
2023-03-15 11:00:25:531,0,5.76292,-5.65025,-20.2846,Q,Q
2023-03-15 11:00:25:541,0,5.76895,-5.65552,-20.2589,Q,Q
2023-03-15 11:00:25:551,0,5.77293,-5.65828,-20.2324,Q,Q
2023-03-15 11:00:25:560,0,5.78267,-5.66503,-20.2051,Q,Q
2023-03-15 11:00:25:571,0,5.79009,-5.6663,-20.1809,Q,Q
2023-03-15 11:00:25:581,0,5.79792,-5.66177,-20.1561,Q,Q
2023-03-15 11:00:25:591,0,5.80085,-5.65612,-20.1338,Q,Q
2023-03-15 11:00:25:600,0,5.8039,-5.64574,-20.1104,Q,Q
2023-03-15 11:00:25:610,0,5.80806,-5.64438,-20.0826,Q,Q
2023-03-15 11:00:25:621,0,5.81628,-5.6499,-20.0591,Q,Q
2023-03-15 11:00:25:630,0,5.82468,-5.65924,-20.0279,Q,Q
2023-03-15 11:00:25:641,0,5.82823,-5.67238,-19.9956,Q,Q
2023-03-15 11:00:25:651,0,5.83495,-5.68391,-19.9668,Q,Q
2023-03-15 11:00:25:661,0,5.84295,-5.69144,-19.9436,Q,Q
2023-03-15 11:00:25:671,0,5.8491,-5.69485,-19.927,Q,Q
2023-03-15 11:00:25:681,0,5.85252,-5.69635,-19.9071,Q,Q
2023-03-15 11:00:25:691,0,5.85309,-5.69618,-19.8815,Q,Q
2023-03-15 11:00:25:701,0,5.85373,-5.69482,-19.8562,Q,Q
2023-03-15 11:00:25:710,0,5.85621,-5.69297,-19.8286,Q,Q
2023-03-15 11:00:25:720,0,5.85746,-5.69194,-19.8048,Q,Q
2023-03-15 11:00:25:730,0,5.85575,-5.68856,-19.7829,Q,Q
2023-03-15 11:00:25:740,0,5.85017,-5.68401,-19.76,Q,Q
2023-03-15 11:00:25:751,0,5.84396,-5.68175,-19.7424,Q,Q
2023-03-15 11:00:25:760,0,5.83425,-5.67705,-19.7208,Q,Q
2023-03-15 11:00:25:771,0,5.82072,-5.67528,-19.7031,Q,Q
2023-03-15 11:00:25:780,0,5.8088,-5.67537,-19.6874,Q,Q
2023-03-15 11:00:25:790,0,5.80127,-5.67716,-19.6721,Q,Q
2023-03-15 11:00:25:800,0,5.79543,-5.67916,-19.663,Q,Q
2023-03-15 11:00:25:810,0,5.79413,-5.68309,-19.6517,Q,Q
2023-03-15 11:00:25:820,0,5.79402,-5.68892,-19.6393,Q,Q
2023-03-15 11:00:25:830,0,5.79233,-5.69598,-19.6256,Q,Q
2023-03-15 11:00:25:840,0,5.7932,-5.70194,-19.6087,Q,Q
2023-03-15 11:00:25:850,0,5.78802,-5.70404,-19.5937,Q,Q
2023-03-15 11:00:25:860,0,5.78573,-5.70514,-19.5781,Q,Q
2023-03-15 11:00:25:871,0,5.78466,-5.7059,-19.5587,Q,Q
2023-03-15 11:00:25:880,0,5.78144,-5.70846,-19.5393,Q,Q
2023-03-15 11:00:25:890,0,5.77718,-5.7119,-19.514,Q,Q
2023-03-15 11:00:25:900,0,5.77839,-5.71126,-19.4901,Q,Q
2023-03-15 11:00:25:910,0,5.77352,-5.71213,-19.4689,Q,Q
2023-03-15 11:00:25:920,0,5.77202,-5.71323,-19.4424,Q,Q
2023-03-15 11:00:25:930,0,5.77275,-5.71106,-19.4186,Q,Q
2023-03-15 11:00:25:940,0,5.77131,-5.70713,-19.3928,Q,Q
2023-03-15 11:00:25:950,0,5.76966,-5.70098,-19.365,Q,Q
2023-03-15 11:00:25:960,0,5.76676,-5.69322,-19.3384,Q,Q
2023-03-15 11:00:25:970,0,5.75835,-5.69554,-19.3165,Q,Q
2023-03-15 11:00:25:980,0,5.74734,-5.70065,-19.2933,Q,Q
2023-03-15 11:00:25:990,0,5.73262,-5.69414,-19.2692,Q,Q
2023-03-15 11:00:26:0,0,5.72113,-5.69176,-19.2487,Q,Q
2023-03-15 11:00:26:10,0,5.71494,-5.69353,-19.2294,Q,Q
2023-03-15 11:00:26:20,0,5.70561,-5.69318,-19.2108,Q,Q
2023-03-15 11:00:26:30,0,5.68972,-5.69418,-19.1944,Q,Q
2023-03-15 11:00:26:40,0,5.67947,-5.69937,-19.1762,Q,Q
2023-03-15 11:00:26:50,0,5.66999,-5.71859,-19.159,Q,Q
2023-03-15 11:00:26:61,0,5.6573,-5.73583,-19.1388,Q,Q
2023-03-15 11:00:26:70,0,5.64164,-5.74356,-19.1186,Q,Q
2023-03-15 11:00:26:80,0,5.63472,-5.74633,-19.0985,Q,Q
2023-03-15 11:00:26:90,0,5.63152,-5.74695,-19.0761,Q,Q
2023-03-15 11:00:26:100,0,5.62414,-5.74803,-19.0534,Q,Q
2023-03-15 11:00:26:111,0,5.61322,-5.74797,-19.033,Q,Q
2023-03-15 11:00:26:120,0,5.599,-5.74292,-19.0126,Q,Q
2023-03-15 11:00:26:131,0,5.58749,-5.73903,-18.9959,Q,Q
2023-03-15 11:00:26:140,0,5.58058,-5.73562,-18.979,Q,Q
2023-03-15 11:00:26:151,0,5.57352,-5.73298,-18.9633,Q,Q
2023-03-15 11:00:26:160,0,5.56708,-5.73012,-18.9504,Q,Q
2023-03-15 11:00:26:170,0,5.56179,-5.72837,-18.9361,Q,Q
2023-03-15 11:00:26:180,0,5.56216,-5.72901,-18.9229,Q,Q
2023-03-15 11:00:26:190,0,5.56084,-5.73102,-18.911,Q,Q
2023-03-15 11:00:26:200,0,5.55813,-5.72923,-18.9026,Q,Q
2023-03-15 11:00:26:210,0,5.55604,-5.73227,-18.8916,Q,Q
2023-03-15 11:00:26:220,0,5.54953,-5.73461,-18.8759,Q,Q
2023-03-15 11:00:26:230,0,5.54244,-5.73055,-18.8657,Q,Q
2023-03-15 11:00:26:240,0,5.53799,-5.72883,-18.856,Q,Q
2023-03-15 11:00:26:250,0,5.53054,-5.72589,-18.8411,Q,Q
2023-03-15 11:00:26:260,0,5.52149,-5.72276,-18.8287,Q,Q
2023-03-15 11:00:26:270,0,5.51352,-5.72327,-18.8185,Q,Q
2023-03-15 11:00:26:280,0,5.50558,-5.7239,-18.8069,Q,Q
2023-03-15 11:00:26:291,0,5.49982,-5.72266,-18.792,Q,Q
2023-03-15 11:00:26:300,0,5.49738,-5.72219,-18.7853,Q,Q
2023-03-15 11:00:26:310,0,5.49242,-5.71996,-18.7713,Q,Q
2023-03-15 11:00:26:320,0,5.48768,-5.71778,-18.756,Q,Q
2023-03-15 11:00:26:330,0,5.48337,-5.71807,-18.7375,Q,Q
2023-03-15 11:00:26:340,0,5.47901,-5.71801,-18.7205,Q,Q
2023-03-15 11:00:26:350,0,5.47541,-5.71834,-18.701,Q,Q
2023-03-15 11:00:26:360,0,5.47286,-5.71774,-18.6853,Q,Q
2023-03-15 11:00:26:370,0,5.47192,-5.72182,-18.6658,Q,Q
2023-03-15 11:00:26:380,0,5.46946,-5.72254,-18.6425,Q,Q
2023-03-15 11:00:26:390,0,5.46327,-5.72269,-18.6225,Q,Q
2023-03-15 11:00:26:400,0,5.45738,-5.72191,-18.6022,Q,Q
2023-03-15 11:00:26:410,0,5.451,-5.72229,-18.582,Q,Q
2023-03-15 11:00:26:420,0,5.44316,-5.71919,-18.5592,Q,Q
2023-03-15 11:00:26:430,0,5.43815,-5.72285,-18.5363,Q,Q
2023-03-15 11:00:26:440,0,5.42338,-5.73334,-18.5139,Q,Q
2023-03-15 11:00:26:450,0,5.40956,-5.7352,-18.4929,Q,Q
2023-03-15 11:00:26:460,0,5.39849,-5.73228,-18.4728,Q,Q
2023-03-15 11:00:26:470,0,5.39238,-5.72841,-18.4498,Q,Q
2023-03-15 11:00:26:480,0,5.38717,-5.7267,-18.4283,Q,Q
2023-03-15 11:00:26:490,0,5.37868,-5.73036,-18.4076,Q,Q
2023-03-15 11:00:26:500,0,5.3701,-5.72963,-18.3868,Q,Q
2023-03-15 11:00:26:510,0,5.35701,-5.7263,-18.3706,Q,Q
2023-03-15 11:00:26:520,0,5.34111,-5.72354,-18.3527,Q,Q
2023-03-15 11:00:26:530,0,5.32051,-5.71656,-18.3372,Q,Q
2023-03-15 11:00:26:540,0,5.30405,-5.71154,-18.322,Q,Q
2023-03-15 11:00:26:550,0,5.29107,-5.71531,-18.3066,Q,Q
2023-03-15 11:00:26:560,0,5.27654,-5.72316,-18.2854,Q,Q
2023-03-15 11:00:26:570,0,5.26818,-5.73242,-18.2657,Q,Q
2023-03-15 11:00:26:580,0,5.26205,-5.73982,-18.2484,Q,Q
2023-03-15 11:00:26:590,0,5.25313,-5.74525,-18.2262,Q,Q
2023-03-15 11:00:26:600,0,5.24347,-5.75066,-18.2075,Q,Q
2023-03-15 11:00:26:610,0,5.23073,-5.75302,-18.1908,Q,Q
2023-03-15 11:00:26:620,0,5.21619,-5.7502,-18.1757,Q,Q
2023-03-15 11:00:26:630,0,5.20133,-5.75015,-18.1571,Q,Q
2023-03-15 11:00:26:640,0,5.18689,-5.75435,-18.1373,Q,Q
2023-03-15 11:00:26:650,0,5.16679,-5.76641,-18.1162,Q,Q
2023-03-15 11:00:26:660,0,5.14546,-5.7768,-18.0955,Q,Q
2023-03-15 11:00:26:670,0,5.12182,-5.78082,-18.0755,Q,Q
2023-03-15 11:00:26:680,0,5.10198,-5.77765,-18.0546,Q,Q
2023-03-15 11:00:26:690,0,5.08374,-5.77921,-18.0341,Q,Q
2023-03-15 11:00:26:700,0,5.06338,-5.78092,-18.0126,Q,Q
2023-03-15 11:00:26:710,0,5.04365,-5.78235,-17.9923,Q,Q
2023-03-15 11:00:26:720,0,5.01932,-5.78558,-17.9746,Q,Q
2023-03-15 11:00:26:730,0,4.99681,-5.78621,-17.9539,Q,Q
2023-03-15 11:00:26:740,0,4.97329,-5.78847,-17.9353,Q,Q
2023-03-15 11:00:26:750,0,4.95191,-5.79011,-17.9186,Q,Q
2023-03-15 11:00:26:760,0,4.93268,-5.7879,-17.9,Q,Q
2023-03-15 11:00:26:770,0,4.9137,-5.78678,-17.8796,Q,Q
2023-03-15 11:00:26:780,0,4.8968,-5.78375,-17.8602,Q,Q
2023-03-15 11:00:26:790,0,4.87844,-5.77954,-17.846,Q,Q
2023-03-15 11:00:26:800,0,4.86396,-5.78289,-17.8293,Q,Q
2023-03-15 11:00:26:810,0,4.84593,-5.78598,-17.8176,Q,Q
2023-03-15 11:00:26:820,0,4.82738,-5.78507,-17.8034,Q,Q
2023-03-15 11:00:26:830,0,4.815,-5.77731,-17.7875,Q,Q
2023-03-15 11:00:26:840,0,4.8038,-5.77623,-17.7691,Q,Q
2023-03-15 11:00:26:850,0,4.79149,-5.77622,-17.7503,Q,Q
2023-03-15 11:00:26:860,0,4.77658,-5.76947,-17.7353,Q,Q
2023-03-15 11:00:26:870,0,4.76009,-5.76565,-17.7202,Q,Q
2023-03-15 11:00:26:880,0,4.74308,-5.76433,-17.707,Q,Q
2023-03-15 11:00:26:890,0,4.72549,-5.7687,-17.6959,Q,Q
2023-03-15 11:00:26:900,0,4.70451,-5.77024,-17.6841,Q,Q
2023-03-15 11:00:26:910,0,4.69201,-5.7698,-17.6732,Q,Q
2023-03-15 11:00:26:920,0,4.68125,-5.76588,-17.6634,Q,Q
2023-03-15 11:00:26:930,0,4.67335,-5.76712,-17.6506,Q,Q
2023-03-15 11:00:26:940,0,4.66572,-5.77,-17.64,Q,Q
2023-03-15 11:00:26:950,0,4.65867,-5.77158,-17.626,Q,Q
2023-03-15 11:00:26:960,0,4.65419,-5.77323,-17.6127,Q,Q
2023-03-15 11:00:26:970,0,4.64377,-5.77206,-17.5935,Q,Q
2023-03-15 11:00:26:980,0,4.63252,-5.77615,-17.5778,Q,Q
2023-03-15 11:00:26:990,0,4.62221,-5.77527,-17.5625,Q,Q
2023-03-15 11:00:27:0,0,4.61049,-5.7783,-17.544,Q,Q
2023-03-15 11:00:27:10,0,4.59802,-5.77918,-17.5273,Q,Q
2023-03-15 11:00:27:20,0,4.58712,-5.77735,-17.5088,Q,Q
2023-03-15 11:00:27:30,0,4.58134,-5.77928,-17.4928,Q,Q
2023-03-15 11:00:27:40,0,4.57494,-5.77933,-17.4758,Q,Q
2023-03-15 11:00:27:50,0,4.57189,-5.77542,-17.4618,Q,Q
2023-03-15 11:00:27:60,0,4.57038,-5.77341,-17.4473,Q,Q
2023-03-15 11:00:27:70,0,4.56785,-5.77274,-17.4323,Q,Q
2023-03-15 11:00:27:80,0,4.55968,-5.77553,-17.4217,Q,Q
2023-03-15 11:00:27:90,0,4.54755,-5.77628,-17.4118,Q,Q
2023-03-15 11:00:27:100,0,4.53247,-5.77369,-17.4044,Q,Q
2023-03-15 11:00:27:110,0,4.51996,-5.76319,-17.3952,Q,Q
2023-03-15 11:00:27:120,0,4.50692,-5.75539,-17.3866,Q,Q
2023-03-15 11:00:27:130,0,4.4916,-5.74918,-17.3815,Q,Q
2023-03-15 11:00:27:140,0,4.47528,-5.74145,-17.3755,Q,Q
2023-03-15 11:00:27:150,0,4.45961,-5.73865,-17.3746,Q,Q
2023-03-15 11:00:27:160,0,4.44644,-5.73615,-17.3721,Q,Q
2023-03-15 11:00:27:170,0,4.43589,-5.73201,-17.3681,Q,Q
2023-03-15 11:00:27:180,0,4.42894,-5.73186,-17.3603,Q,Q
2023-03-15 11:00:27:190,0,4.41793,-5.73725,-17.3559,Q,Q
2023-03-15 11:00:27:200,0,4.39976,-5.73698,-17.348,Q,Q
2023-03-15 11:00:27:210,0,4.38322,-5.73249,-17.3437,Q,Q
2023-03-15 11:00:27:220,0,4.37213,-5.72628,-17.3378,Q,Q
2023-03-15 11:00:27:230,0,4.35555,-5.72508,-17.3259,Q,Q
2023-03-15 11:00:27:240,0,4.3395,-5.71558,-17.3165,Q,Q
2023-03-15 11:00:27:250,0,4.3225,-5.70808,-17.3042,Q,Q
2023-03-15 11:00:27:260,0,4.30686,-5.70267,-17.2959,Q,Q
2023-03-15 11:00:27:270,0,4.29373,-5.6944,-17.2855,Q,Q
2023-03-15 11:00:27:280,0,4.28329,-5.6895,-17.2755,Q,Q
2023-03-15 11:00:27:290,0,4.27578,-5.68568,-17.2641,Q,Q
2023-03-15 11:00:27:300,0,4.26906,-5.68184,-17.2483,Q,Q
2023-03-15 11:00:27:310,0,4.2643,-5.68073,-17.2378,Q,Q
2023-03-15 11:00:27:320,0,4.25854,-5.67656,-17.2288,Q,Q
2023-03-15 11:00:27:330,0,4.25509,-5.67727,-17.2171,Q,Q
2023-03-15 11:00:27:340,0,4.24967,-5.67984,-17.2055,Q,Q
2023-03-15 11:00:27:350,0,4.24931,-5.67897,-17.1959,Q,Q
2023-03-15 11:00:27:360,0,4.25037,-5.67854,-17.1846,Q,Q
2023-03-15 11:00:27:370,0,4.2495,-5.67579,-17.1768,Q,Q
2023-03-15 11:00:27:380,0,4.24877,-5.67528,-17.1654,Q,Q
2023-03-15 11:00:27:390,0,4.24845,-5.6728,-17.153,Q,Q
2023-03-15 11:00:27:400,0,4.24738,-5.67338,-17.1414,Q,Q
2023-03-15 11:00:27:410,0,4.24869,-5.67417,-17.1265,Q,Q
2023-03-15 11:00:27:420,0,4.24764,-5.67493,-17.1147,Q,Q
2023-03-15 11:00:27:430,0,4.24833,-5.67758,-17.0997,Q,Q
2023-03-15 11:00:27:440,0,4.24742,-5.67473,-17.0891,Q,Q
2023-03-15 11:00:27:450,0,4.24124,-5.67088,-17.0827,Q,Q
2023-03-15 11:00:27:460,0,4.23315,-5.66328,-17.0747,Q,Q
2023-03-15 11:00:27:470,0,4.2272,-5.66047,-17.0664,Q,Q
2023-03-15 11:00:27:480,0,4.22556,-5.66281,-17.055,Q,Q
2023-03-15 11:00:27:490,0,4.226,-5.66391,-17.0417,Q,Q
2023-03-15 11:00:27:500,0,4.22711,-5.6754,-17.0282,Q,Q
2023-03-15 11:00:27:510,0,4.22635,-5.68853,-17.0153,Q,Q
2023-03-15 11:00:27:520,0,4.23074,-5.69665,-17.0042,Q,Q
2023-03-15 11:00:27:530,0,4.22926,-5.70181,-16.9973,Q,Q
2023-03-15 11:00:27:540,0,4.22743,-5.70771,-16.9908,Q,Q
2023-03-15 11:00:27:550,0,4.22306,-5.71464,-16.9827,Q,Q
2023-03-15 11:00:27:560,0,4.2154,-5.71024,-16.9731,Q,Q
2023-03-15 11:00:27:570,0,4.20939,-5.70514,-16.962,Q,Q
2023-03-15 11:00:27:580,0,4.20589,-5.70113,-16.9515,Q,Q
2023-03-15 11:00:27:590,0,4.1978,-5.69424,-16.9397,Q,Q
2023-03-15 11:00:27:600,0,4.19341,-5.68709,-16.9283,Q,Q
2023-03-15 11:00:27:610,0,4.18411,-5.68333,-16.9154,Q,Q
2023-03-15 11:00:27:620,0,4.18181,-5.68076,-16.9023,Q,Q
2023-03-15 11:00:27:630,0,4.17344,-5.68922,-16.8908,Q,Q
2023-03-15 11:00:27:640,0,4.16155,-5.69648,-16.8821,Q,Q
2023-03-15 11:00:27:650,0,4.15229,-5.6932,-16.8752,Q,Q
2023-03-15 11:00:27:660,0,4.14421,-5.68987,-16.8671,Q,Q
2023-03-15 11:00:27:670,0,4.14074,-5.69034,-16.8603,Q,Q
2023-03-15 11:00:27:680,0,4.13397,-5.69448,-16.8554,Q,Q
2023-03-15 11:00:27:690,0,4.12674,-5.69643,-16.8479,Q,Q
2023-03-15 11:00:27:700,0,4.11909,-5.69566,-16.8443,Q,Q
2023-03-15 11:00:27:710,0,4.11236,-5.69583,-16.8407,Q,Q
2023-03-15 11:00:27:720,0,4.10705,-5.68959,-16.8374,Q,Q
2023-03-15 11:00:27:730,0,4.10095,-5.68591,-16.8325,Q,Q
2023-03-15 11:00:27:740,0,4.09909,-5.68837,-16.8206,Q,Q
2023-03-15 11:00:27:750,0,4.09586,-5.69042,-16.8073,Q,Q
2023-03-15 11:00:27:760,0,4.09126,-5.69232,-16.7925,Q,Q
2023-03-15 11:00:27:770,0,4.08923,-5.69611,-16.7792,Q,Q
2023-03-15 11:00:27:780,0,4.08695,-5.69807,-16.7665,Q,Q
2023-03-15 11:00:27:790,0,4.0882,-5.69509,-16.7554,Q,Q
2023-03-15 11:00:27:800,0,4.08347,-5.6932,-16.7404,Q,Q
2023-03-15 11:00:27:810,0,4.08272,-5.6867,-16.7268,Q,Q
2023-03-15 11:00:27:820,0,4.08181,-5.6851,-16.7123,Q,Q
2023-03-15 11:00:27:830,0,4.07908,-5.68504,-16.6999,Q,Q
2023-03-15 11:00:27:840,0,4.07309,-5.67941,-16.69,Q,Q
2023-03-15 11:00:27:850,0,4.06946,-5.6761,-16.6776,Q,Q
2023-03-15 11:00:27:860,0,4.06703,-5.67465,-16.6695,Q,Q
2023-03-15 11:00:27:870,0,4.06595,-5.67664,-16.6569,Q,Q
2023-03-15 11:00:27:880,0,4.06236,-5.67458,-16.6487,Q,Q
2023-03-15 11:00:27:890,0,4.06266,-5.67339,-16.6397,Q,Q
2023-03-15 11:00:27:900,0,4.0595,-5.67472,-16.6286,Q,Q
2023-03-15 11:00:27:910,0,4.05671,-5.67882,-16.6153,Q,Q
2023-03-15 11:00:27:920,0,4.05184,-5.68116,-16.6062,Q,Q
2023-03-15 11:00:27:930,0,4.0463,-5.68398,-16.5894,Q,Q
2023-03-15 11:00:27:940,0,4.03992,-5.68779,-16.5753,Q,Q
2023-03-15 11:00:27:950,0,4.03301,-5.69062,-16.5594,Q,Q
2023-03-15 11:00:27:960,0,4.03025,-5.68877,-16.5445,Q,Q
2023-03-15 11:00:27:970,0,4.0252,-5.68574,-16.5323,Q,Q
2023-03-15 11:00:27:980,0,4.02096,-5.685,-16.5179,Q,Q
2023-03-15 11:00:27:990,0,4.01997,-5.68106,-16.5066,Q,Q
2023-03-15 11:00:28:0,0,4.01882,-5.67866,-16.4992,Q,Q
2023-03-15 11:00:28:10,0,4.01794,-5.67549,-16.491,Q,Q
2023-03-15 11:00:28:20,0,4.01328,-5.66983,-16.4897,Q,Q
2023-03-15 11:00:28:30,0,4.00377,-5.66192,-16.49,Q,Q
2023-03-15 11:00:28:40,0,3.99582,-5.65771,-16.4907,Q,Q
2023-03-15 11:00:28:50,0,3.98906,-5.65501,-16.4932,Q,Q
2023-03-15 11:00:28:60,0,3.98333,-5.65177,-16.4975,Q,Q
2023-03-15 11:00:28:70,0,3.97724,-5.6513,-16.5037,Q,Q
2023-03-15 11:00:28:80,0,3.96874,-5.64931,-16.511,Q,Q
2023-03-15 11:00:28:90,0,3.96267,-5.64438,-16.5195,Q,Q
2023-03-15 11:00:28:100,0,3.95835,-5.64063,-16.5237,Q,Q
2023-03-15 11:00:28:110,0,3.95188,-5.63851,-16.5281,Q,Q
2023-03-15 11:00:28:120,0,3.94347,-5.63179,-16.5331,Q,Q
2023-03-15 11:00:28:130,0,3.93471,-5.62841,-16.5369,Q,Q
2023-03-15 11:00:28:140,0,3.92654,-5.62878,-16.5346,Q,Q
2023-03-15 11:00:28:150,0,3.92166,-5.63054,-16.5338,Q,Q
2023-03-15 11:00:28:160,0,3.9138,-5.63013,-16.5288,Q,Q
2023-03-15 11:00:28:170,0,3.90664,-5.64398,-16.5227,Q,Q
2023-03-15 11:00:28:180,0,3.90089,-5.65146,-16.5142,Q,Q
2023-03-15 11:00:28:190,0,3.89226,-5.65455,-16.5043,Q,Q
2023-03-15 11:00:28:200,0,3.89238,-5.65481,-16.4925,Q,Q
2023-03-15 11:00:28:210,0,3.89374,-5.65262,-16.48,Q,Q
2023-03-15 11:00:28:220,0,3.89692,-5.65795,-16.465,Q,Q
2023-03-15 11:00:28:230,0,3.90004,-5.66377,-16.45,Q,Q
2023-03-15 11:00:28:240,0,3.90217,-5.66558,-16.4379,Q,Q
2023-03-15 11:00:28:250,0,3.90238,-5.67193,-16.421,Q,Q
2023-03-15 11:00:28:260,0,3.90783,-5.67739,-16.4095,Q,Q
2023-03-15 11:00:28:270,0,3.90744,-5.68059,-16.399,Q,Q
2023-03-15 11:00:28:280,0,3.90964,-5.68665,-16.3912,Q,Q
2023-03-15 11:00:28:290,0,3.91599,-5.69016,-16.3831,Q,Q
2023-03-15 11:00:28:300,0,3.92535,-5.69114,-16.3769,Q,Q
2023-03-15 11:00:28:310,0,3.93841,-5.69418,-16.3699,Q,Q
2023-03-15 11:00:28:320,0,3.94215,-5.69897,-16.3619,Q,Q
2023-03-15 11:00:28:330,0,3.95301,-5.70446,-16.3494,Q,Q
2023-03-15 11:00:28:340,0,3.9594,-5.70254,-16.3344,Q,Q
2023-03-15 11:00:28:350,0,3.96638,-5.70087,-16.3249,Q,Q
2023-03-15 11:00:28:360,0,3.96651,-5.69387,-16.3148,Q,Q
2023-03-15 11:00:28:370,0,3.96382,-5.68578,-16.3082,Q,Q
2023-03-15 11:00:28:380,0,3.96076,-5.6804,-16.3018,Q,Q
2023-03-15 11:00:28:390,0,3.9586,-5.67661,-16.2937,Q,Q
2023-03-15 11:00:28:400,0,3.95801,-5.68316,-16.2835,Q,Q
2023-03-15 11:00:28:410,0,3.9585,-5.69168,-16.2713,Q,Q
2023-03-15 11:00:28:420,0,3.96005,-5.70329,-16.26,Q,Q
2023-03-15 11:00:28:430,0,3.95652,-5.71533,-16.2509,Q,Q
2023-03-15 11:00:28:440,0,3.9516,-5.72207,-16.2452,Q,Q
2023-03-15 11:00:28:450,0,3.94423,-5.72318,-16.2428,Q,Q
2023-03-15 11:00:28:460,0,3.93637,-5.71884,-16.2409,Q,Q
2023-03-15 11:00:28:470,0,3.92858,-5.71339,-16.2386,Q,Q
2023-03-15 11:00:28:480,0,3.92008,-5.70638,-16.2316,Q,Q
2023-03-15 11:00:28:490,0,3.91059,-5.69914,-16.226,Q,Q
2023-03-15 11:00:28:500,0,3.90295,-5.69399,-16.2217,Q,Q
2023-03-15 11:00:28:510,0,3.89498,-5.68701,-16.2181,Q,Q
2023-03-15 11:00:28:520,0,3.88979,-5.68197,-16.2142,Q,Q
2023-03-15 11:00:28:530,0,3.88374,-5.67494,-16.2117,Q,Q
2023-03-15 11:00:28:540,0,3.88192,-5.67364,-16.2097,Q,Q
2023-03-15 11:00:28:550,0,3.88063,-5.66991,-16.2083,Q,Q
2023-03-15 11:00:28:560,0,3.87932,-5.66864,-16.2104,Q,Q
2023-03-15 11:00:28:570,0,3.87699,-5.6688,-16.2124,Q,Q
2023-03-15 11:00:28:580,0,3.87453,-5.66943,-16.2159,Q,Q
2023-03-15 11:00:28:590,0,3.8738,-5.67018,-16.2188,Q,Q
2023-03-15 11:00:28:600,0,3.87141,-5.66863,-16.2194,Q,Q
2023-03-15 11:00:28:610,0,3.86555,-5.6711,-16.213,Q,Q
2023-03-15 11:00:28:620,0,3.86255,-5.67244,-16.2118,Q,Q
2023-03-15 11:00:28:630,0,3.86342,-5.67252,-16.2087,Q,Q
2023-03-15 11:00:28:640,0,3.86214,-5.67119,-16.1993,Q,Q
2023-03-15 11:00:28:650,0,3.8598,-5.67062,-16.1904,Q,Q
2023-03-15 11:00:28:660,0,3.85832,-5.6704,-16.1779,Q,Q
2023-03-15 11:00:28:670,0,3.85618,-5.67141,-16.1626,Q,Q
2023-03-15 11:00:28:680,0,3.85249,-5.6712,-16.1427,Q,Q
2023-03-15 11:00:28:690,0,3.85108,-5.67315,-16.1266,Q,Q
2023-03-15 11:00:28:700,0,3.85057,-5.67345,-16.116,Q,Q
2023-03-15 11:00:28:710,0,3.84915,-5.67103,-16.1035,Q,Q
2023-03-15 11:00:28:720,0,3.85003,-5.66911,-16.0897,Q,Q
2023-03-15 11:00:28:730,0,3.85122,-5.66571,-16.0769,Q,Q
2023-03-15 11:00:28:740,0,3.85251,-5.66642,-16.0664,Q,Q
2023-03-15 11:00:28:750,0,3.85817,-5.66911,-16.0561,Q,Q
2023-03-15 11:00:28:760,0,3.86198,-5.67006,-16.0486,Q,Q
2023-03-15 11:00:28:770,0,3.8649,-5.67518,-16.0372,Q,Q
2023-03-15 11:00:28:780,0,3.86873,-5.67877,-16.0319,Q,Q
2023-03-15 11:00:28:790,0,3.86691,-5.68353,-16.026,Q,Q
2023-03-15 11:00:28:800,0,3.86849,-5.68762,-16.0183,Q,Q
2023-03-15 11:00:28:810,0,3.8668,-5.69257,-16.0132,Q,Q
2023-03-15 11:00:28:820,0,3.86924,-5.69705,-16.0052,Q,Q
2023-03-15 11:00:28:830,0,3.86996,-5.70294,-15.996,Q,Q
2023-03-15 11:00:28:840,0,3.86584,-5.70954,-15.9846,Q,Q
2023-03-15 11:00:28:850,0,3.8661,-5.71563,-15.9737,Q,Q
2023-03-15 11:00:28:860,0,3.86689,-5.72713,-15.9632,Q,Q
2023-03-15 11:00:28:870,0,3.86446,-5.73752,-15.9504,Q,Q
2023-03-15 11:00:28:880,0,3.86184,-5.74452,-15.9359,Q,Q
2023-03-15 11:00:28:890,0,3.86182,-5.74954,-15.9246,Q,Q
2023-03-15 11:00:28:900,0,3.85754,-5.74969,-15.9123,Q,Q
2023-03-15 11:00:28:910,0,3.85456,-5.74777,-15.8996,Q,Q
2023-03-15 11:00:28:920,0,3.85311,-5.74692,-15.8883,Q,Q
2023-03-15 11:00:28:930,0,3.84754,-5.74706,-15.8789,Q,Q
2023-03-15 11:00:28:940,0,3.84343,-5.74636,-15.8722,Q,Q
2023-03-15 11:00:28:950,0,3.83966,-5.7465,-15.8686,Q,Q
2023-03-15 11:00:28:960,0,3.83319,-5.74812,-15.8643,Q,Q
2023-03-15 11:00:28:970,0,3.82878,-5.74836,-15.8643,Q,Q
2023-03-15 11:00:28:980,0,3.82055,-5.74555,-15.8614,Q,Q
2023-03-15 11:00:28:990,0,3.81387,-5.74581,-15.8652,Q,Q
2023-03-15 11:00:29:0,0,3.80293,-5.75376,-15.867,Q,Q
2023-03-15 11:00:29:10,0,3.78546,-5.76064,-15.8631,Q,Q
2023-03-15 11:00:29:20,0,3.77069,-5.76202,-15.8655,Q,Q
2023-03-15 11:00:29:30,0,3.75954,-5.75843,-15.8622,Q,Q
2023-03-15 11:00:29:40,0,3.75413,-5.75844,-15.8587,Q,Q
2023-03-15 11:00:29:50,0,3.74729,-5.75766,-15.8528,Q,Q
2023-03-15 11:00:29:60,0,3.74323,-5.75527,-15.8438,Q,Q
2023-03-15 11:00:29:70,0,3.73689,-5.75497,-15.8331,Q,Q
2023-03-15 11:00:29:80,0,3.73107,-5.75571,-15.8192,Q,Q
2023-03-15 11:00:29:90,0,3.72546,-5.75736,-15.8085,Q,Q
2023-03-15 11:00:29:100,0,3.71743,-5.75402,-15.7967,Q,Q
2023-03-15 11:00:29:110,0,3.71129,-5.75162,-15.7822,Q,Q
2023-03-15 11:00:29:120,0,3.70449,-5.74912,-15.768,Q,Q
2023-03-15 11:00:29:130,0,3.6972,-5.74583,-15.7568,Q,Q
2023-03-15 11:00:29:140,0,3.68938,-5.74413,-15.7486,Q,Q
2023-03-15 11:00:29:150,0,3.68215,-5.73796,-15.7356,Q,Q
2023-03-15 11:00:29:160,0,3.67516,-5.74087,-15.7261,Q,Q
2023-03-15 11:00:29:170,0,3.66518,-5.74851,-15.7203,Q,Q
2023-03-15 11:00:29:180,0,3.65435,-5.75007,-15.7109,Q,Q
2023-03-15 11:00:29:190,0,3.64729,-5.74992,-15.7089,Q,Q
2023-03-15 11:00:29:200,0,3.6445,-5.74861,-15.7045,Q,Q
2023-03-15 11:00:29:210,0,3.64366,-5.7479,-15.7015,Q,Q
2023-03-15 11:00:29:220,0,3.64004,-5.74651,-15.6966,Q,Q
2023-03-15 11:00:29:230,0,3.63804,-5.74671,-15.6915,Q,Q
2023-03-15 11:00:29:240,0,3.63884,-5.74921,-15.6836,Q,Q
2023-03-15 11:00:29:250,0,3.64072,-5.75029,-15.6782,Q,Q
2023-03-15 11:00:29:260,0,3.64343,-5.74735,-15.6746,Q,Q
2023-03-15 11:00:29:270,0,3.64217,-5.73923,-15.6698,Q,Q
2023-03-15 11:00:29:280,0,3.63809,-5.73146,-15.6627,Q,Q
2023-03-15 11:00:29:290,0,3.63518,-5.72212,-15.6578,Q,Q
2023-03-15 11:00:29:300,0,3.63368,-5.71509,-15.65,Q,Q
2023-03-15 11:00:29:310,0,3.63371,-5.71721,-15.6381,Q,Q
2023-03-15 11:00:29:320,0,3.63688,-5.72171,-15.6255,Q,Q
2023-03-15 11:00:29:330,0,3.63891,-5.73309,-15.6071,Q,Q
2023-03-15 11:00:29:340,0,3.6374,-5.74337,-15.5894,Q,Q
2023-03-15 11:00:29:350,0,3.63582,-5.75278,-15.5779,Q,Q
2023-03-15 11:00:29:360,0,3.63431,-5.75853,-15.5662,Q,Q
2023-03-15 11:00:29:370,0,3.63096,-5.7585,-15.5543,Q,Q
2023-03-15 11:00:29:380,0,3.62793,-5.75965,-15.539,Q,Q
2023-03-15 11:00:29:390,0,3.62308,-5.77262,-15.5259,Q,Q
2023-03-15 11:00:29:400,0,3.61312,-5.78292,-15.5101,Q,Q
2023-03-15 11:00:29:410,0,3.59787,-5.78922,-15.491,Q,Q
2023-03-15 11:00:29:420,0,3.59021,-5.78822,-15.4733,Q,Q
2023-03-15 11:00:29:430,0,3.58533,-5.78632,-15.4547,Q,Q
2023-03-15 11:00:29:440,0,3.57468,-5.79023,-15.4319,Q,Q
2023-03-15 11:00:29:450,0,3.56401,-5.79068,-15.4112,Q,Q
2023-03-15 11:00:29:460,0,3.55107,-5.79132,-15.398,Q,Q
2023-03-15 11:00:29:470,0,3.53706,-5.79855,-15.3853,Q,Q
2023-03-15 11:00:29:480,0,3.52323,-5.81324,-15.3749,Q,Q
2023-03-15 11:00:29:490,0,3.50857,-5.82381,-15.3632,Q,Q
2023-03-15 11:00:29:500,0,3.49646,-5.82626,-15.354,Q,Q
2023-03-15 11:00:29:510,0,3.48959,-5.82266,-15.3419,Q,Q
2023-03-15 11:00:29:520,0,3.48495,-5.82742,-15.3319,Q,Q
2023-03-15 11:00:29:530,0,3.47548,-5.8321,-15.3206,Q,Q
2023-03-15 11:00:29:540,0,3.46907,-5.83316,-15.3105,Q,Q
2023-03-15 11:00:29:550,0,3.46121,-5.8294,-15.302,Q,Q
2023-03-15 11:00:29:560,0,3.45535,-5.82575,-15.2946,Q,Q
2023-03-15 11:00:29:570,0,3.44707,-5.83146,-15.2857,Q,Q
2023-03-15 11:00:29:580,0,3.43347,-5.83235,-15.2747,Q,Q
2023-03-15 11:00:29:590,0,3.42094,-5.83091,-15.264,Q,Q
2023-03-15 11:00:29:600,0,3.41124,-5.82701,-15.2556,Q,Q
2023-03-15 11:00:29:610,0,3.39924,-5.82077,-15.2536,Q,Q
2023-03-15 11:00:29:620,0,3.38571,-5.81709,-15.2494,Q,Q
2023-03-15 11:00:29:630,0,3.37054,-5.81659,-15.2498,Q,Q
2023-03-15 11:00:29:640,0,3.35675,-5.8079,-15.2464,Q,Q
2023-03-15 11:00:29:650,0,3.34924,-5.79394,-15.2477,Q,Q
2023-03-15 11:00:29:660,0,3.34681,-5.78123,-15.2468,Q,Q
2023-03-15 11:00:29:670,0,3.3431,-5.77855,-15.2459,Q,Q
2023-03-15 11:00:29:680,0,3.3389,-5.77379,-15.2456,Q,Q
2023-03-15 11:00:29:690,0,3.33373,-5.77051,-15.2458,Q,Q
2023-03-15 11:00:29:700,0,3.33184,-5.76991,-15.2429,Q,Q
2023-03-15 11:00:29:710,0,3.33362,-5.77409,-15.2408,Q,Q
2023-03-15 11:00:29:720,0,3.33301,-5.77953,-15.2399,Q,Q
2023-03-15 11:00:29:730,0,3.33777,-5.78424,-15.2379,Q,Q
2023-03-15 11:00:29:740,0,3.34463,-5.78897,-15.2305,Q,Q
2023-03-15 11:00:29:750,0,3.34887,-5.7929,-15.2207,Q,Q
2023-03-15 11:00:29:760,0,3.35724,-5.80129,-15.2148,Q,Q
2023-03-15 11:00:29:770,0,3.35944,-5.80518,-15.2017,Q,Q
2023-03-15 11:00:29:780,0,3.36326,-5.81143,-15.1893,Q,Q
2023-03-15 11:00:29:790,0,3.36739,-5.81544,-15.1768,Q,Q
2023-03-15 11:00:29:800,0,3.36964,-5.81837,-15.162,Q,Q
2023-03-15 11:00:29:810,0,3.3705,-5.82007,-15.1458,Q,Q
2023-03-15 11:00:29:820,0,3.37068,-5.82141,-15.1316,Q,Q
2023-03-15 11:00:29:830,0,3.36857,-5.82477,-15.117,Q,Q
2023-03-15 11:00:29:840,0,3.36565,-5.8271,-15.1056,Q,Q
2023-03-15 11:00:29:850,0,3.36471,-5.82851,-15.0945,Q,Q
2023-03-15 11:00:29:860,0,3.36299,-5.83534,-15.0816,Q,Q
2023-03-15 11:00:29:870,0,3.36277,-5.84326,-15.0708,Q,Q
2023-03-15 11:00:29:880,0,3.35761,-5.85172,-15.0624,Q,Q
2023-03-15 11:00:29:890,0,3.34928,-5.85377,-15.0576,Q,Q
2023-03-15 11:00:29:899,0,3.3459,-5.85563,-15.055,Q,Q
2023-03-15 11:00:29:910,0,3.34436,-5.85839,-15.0547,Q,Q
2023-03-15 11:00:29:920,0,3.34186,-5.86377,-15.053,Q,Q
2023-03-15 11:00:29:930,0,3.34424,-5.86696,-15.0531,Q,Q
2023-03-15 11:00:29:940,0,3.34528,-5.86997,-15.0513,Q,Q
2023-03-15 11:00:29:950,0,3.34736,-5.87357,-15.0539,Q,Q
2023-03-15 11:00:29:960,0,3.35425,-5.87433,-15.05,Q,Q
2023-03-15 11:00:29:970,0,3.35718,-5.87977,-15.0475,Q,Q
2023-03-15 11:00:29:980,0,3.35944,-5.88644,-15.0461,Q,Q
2023-03-15 11:00:29:990,0,3.36444,-5.88716,-15.0409,Q,Q
2023-03-15 11:00:30:0,0,3.37533,-5.88845,-15.0355,Q,Q
2023-03-15 11:00:30:10,0,3.38804,-5.89016,-15.0334,Q,Q
2023-03-15 11:00:30:20,0,3.4052,-5.89542,-15.0292,Q,Q
2023-03-15 11:00:30:30,0,3.41835,-5.89749,-15.0243,Q,Q
2023-03-15 11:00:30:40,0,3.43467,-5.89586,-15.0196,Q,Q
2023-03-15 11:00:30:50,0,3.44868,-5.90111,-15.0146,Q,Q
2023-03-15 11:00:30:60,0,3.45961,-5.90117,-15.0108,Q,Q
2023-03-15 11:00:30:70,0,3.46737,-5.90379,-15.0056,Q,Q
2023-03-15 11:00:30:80,0,3.47562,-5.90748,-15.0031,Q,Q
2023-03-15 11:00:30:90,0,3.48775,-5.90972,-15.0011,Q,Q
2023-03-15 11:00:30:100,0,3.4955,-5.91535,-14.9995,Q,Q
2023-03-15 11:00:30:110,0,3.50443,-5.91898,-14.996,Q,Q
2023-03-15 11:00:30:120,0,3.51108,-5.91776,-14.995,Q,Q
2023-03-15 11:00:30:130,0,3.51822,-5.92007,-14.9902,Q,Q
2023-03-15 11:00:30:140,0,3.53097,-5.91941,-14.9859,Q,Q
2023-03-15 11:00:30:150,0,3.53827,-5.91882,-14.9786,Q,Q
2023-03-15 11:00:30:160,0,3.54184,-5.91582,-14.9785,Q,Q
2023-03-15 11:00:30:170,0,3.53893,-5.90764,-14.9795,Q,Q
2023-03-15 11:00:30:180,0,3.53612,-5.89654,-14.9844,Q,Q
2023-03-15 11:00:30:190,0,3.5326,-5.89314,-14.9866,Q,Q
2023-03-15 11:00:30:200,0,3.52996,-5.897,-14.9874,Q,Q
2023-03-15 11:00:30:210,0,3.53517,-5.90092,-14.9876,Q,Q
2023-03-15 11:00:30:220,0,3.53775,-5.91049,-14.9825,Q,Q
2023-03-15 11:00:30:230,0,3.54292,-5.92399,-14.9815,Q,Q
2023-03-15 11:00:30:240,0,3.54696,-5.92806,-14.9815,Q,Q
2023-03-15 11:00:30:250,0,3.54908,-5.93408,-14.9847,Q,Q
2023-03-15 11:00:30:260,0,3.54939,-5.93579,-14.9853,Q,Q
2023-03-15 11:00:30:270,0,3.55129,-5.93349,-14.9811,Q,Q
2023-03-15 11:00:30:280,0,3.54989,-5.93323,-14.9748,Q,Q
2023-03-15 11:00:30:290,0,3.54561,-5.93014,-14.9655,Q,Q
2023-03-15 11:00:30:300,0,3.54166,-5.9281,-14.9588,Q,Q
2023-03-15 11:00:30:310,0,3.53949,-5.92703,-14.9486,Q,Q
2023-03-15 11:00:30:320,0,3.53264,-5.92143,-14.9407,Q,Q
2023-03-15 11:00:30:330,0,3.52868,-5.91763,-14.9337,Q,Q
2023-03-15 11:00:30:340,0,3.52663,-5.91667,-14.9269,Q,Q
2023-03-15 11:00:30:350,0,3.52815,-5.91783,-14.9231,Q,Q
2023-03-15 11:00:30:360,0,3.53236,-5.91842,-14.9189,Q,Q
2023-03-15 11:00:30:370,0,3.5352,-5.92146,-14.9188,Q,Q
2023-03-15 11:00:30:380,0,3.53803,-5.92715,-14.92,Q,Q
2023-03-15 11:00:30:390,0,3.54304,-5.93021,-14.9191,Q,Q
2023-03-15 11:00:30:400,0,3.54649,-5.93406,-14.9149,Q,Q
2023-03-15 11:00:30:410,0,3.54739,-5.93845,-14.911,Q,Q
2023-03-15 11:00:30:420,0,3.54548,-5.94106,-14.9008,Q,Q
2023-03-15 11:00:30:430,0,3.54332,-5.93966,-14.8883,Q,Q
2023-03-15 11:00:30:440,0,3.5445,-5.93739,-14.8725,Q,Q
2023-03-15 11:00:30:450,0,3.5442,-5.93229,-14.8522,Q,Q
2023-03-15 11:00:30:460,0,3.54451,-5.93048,-14.8287,Q,Q
2023-03-15 11:00:30:470,0,3.54475,-5.93269,-14.8061,Q,Q
2023-03-15 11:00:30:480,0,3.54606,-5.93528,-14.78,Q,Q
2023-03-15 11:00:30:490,0,3.54482,-5.94107,-14.7534,Q,Q
2023-03-15 11:00:30:500,0,3.54299,-5.94733,-14.7326,Q,Q
2023-03-15 11:00:30:510,0,3.54291,-5.95326,-14.7107,Q,Q
2023-03-15 11:00:30:520,0,3.54628,-5.95454,-14.691,Q,Q
2023-03-15 11:00:30:530,0,3.54365,-5.95402,-14.6732,Q,Q
2023-03-15 11:00:30:540,0,3.54242,-5.95694,-14.6536,Q,Q
2023-03-15 11:00:30:550,0,3.54549,-5.96202,-14.6382,Q,Q
2023-03-15 11:00:30:560,0,3.54943,-5.97014,-14.6241,Q,Q
2023-03-15 11:00:30:570,0,3.55325,-5.9764,-14.6102,Q,Q
2023-03-15 11:00:30:580,0,3.55718,-5.98406,-14.5957,Q,Q
2023-03-15 11:00:30:590,0,3.5625,-5.99434,-14.5823,Q,Q
2023-03-15 11:00:30:600,0,3.56642,-6.00162,-14.5681,Q,Q
2023-03-15 11:00:30:610,0,3.57197,-6.00872,-14.5534,Q,Q
2023-03-15 11:00:30:620,0,3.57519,-6.01743,-14.5378,Q,Q
2023-03-15 11:00:30:630,0,3.57857,-6.02945,-14.5232,Q,Q
2023-03-15 11:00:30:640,0,3.58258,-6.04094,-14.5082,Q,Q
2023-03-15 11:00:30:650,0,3.59002,-6.05022,-14.4916,Q,Q
2023-03-15 11:00:30:660,0,3.59993,-6.05998,-14.4711,Q,Q
2023-03-15 11:00:30:670,0,3.60511,-6.07325,-14.4557,Q,Q
2023-03-15 11:00:30:680,0,3.61234,-6.08023,-14.4405,Q,Q
2023-03-15 11:00:30:690,0,3.61676,-6.09102,-14.4239,Q,Q
2023-03-15 11:00:30:700,0,3.62128,-6.10143,-14.4088,Q,Q
2023-03-15 11:00:30:710,0,3.62444,-6.10781,-14.3933,Q,Q
2023-03-15 11:00:30:720,0,3.62731,-6.11322,-14.3828,Q,Q
2023-03-15 11:00:30:730,0,3.62781,-6.11569,-14.3721,Q,Q
2023-03-15 11:00:30:740,0,3.6254,-6.11664,-14.3631,Q,Q
2023-03-15 11:00:30:750,0,3.62311,-6.11706,-14.3543,Q,Q
2023-03-15 11:00:30:760,0,3.62259,-6.11652,-14.3466,Q,Q
2023-03-15 11:00:30:770,0,3.61439,-6.11431,-14.3386,Q,Q
2023-03-15 11:00:30:780,0,3.60891,-6.11604,-14.3355,Q,Q
2023-03-15 11:00:30:790,0,3.60303,-6.1173,-14.3318,Q,Q
2023-03-15 11:00:30:800,0,3.5938,-6.11704,-14.3278,Q,Q
2023-03-15 11:00:30:810,0,3.58066,-6.11483,-14.3244,Q,Q
2023-03-15 11:00:30:820,0,3.56622,-6.11415,-14.3193,Q,Q
2023-03-15 11:00:30:830,0,3.55418,-6.11413,-14.3161,Q,Q
2023-03-15 11:00:30:840,0,3.54186,-6.11817,-14.3152,Q,Q
2023-03-15 11:00:30:850,0,3.52084,-6.12416,-14.3159,Q,Q
2023-03-15 11:00:30:860,0,3.50064,-6.11824,-14.3132,Q,Q
2023-03-15 11:00:30:870,0,3.48864,-6.11335,-14.3127,Q,Q
2023-03-15 11:00:30:880,0,3.47773,-6.1112,-14.3052,Q,Q
2023-03-15 11:00:30:890,0,3.46473,-6.10919,-14.2991,Q,Q
2023-03-15 11:00:30:900,0,3.45079,-6.10722,-14.29,Q,Q
2023-03-15 11:00:30:910,0,3.44195,-6.10463,-14.2809,Q,Q
2023-03-15 11:00:30:920,0,3.4348,-6.10512,-14.2714,Q,Q
2023-03-15 11:00:30:929,0,3.4278,-6.10318,-14.2623,Q,Q
2023-03-15 11:00:30:940,0,3.4223,-6.10207,-14.2512,Q,Q
2023-03-15 11:00:30:950,0,3.41798,-6.10202,-14.2431,Q,Q
2023-03-15 11:00:30:960,0,3.41074,-6.10725,-14.2337,Q,Q
2023-03-15 11:00:30:970,0,3.39993,-6.11332,-14.2261,Q,Q
2023-03-15 11:00:30:980,0,3.39186,-6.11843,-14.2172,Q,Q
2023-03-15 11:00:30:990,0,3.38577,-6.1269,-14.2075,Q,Q
2023-03-15 11:00:31:0,0,3.37719,-6.1292,-14.2011,Q,Q
2023-03-15 11:00:31:10,0,3.37393,-6.12861,-14.1901,Q,Q
2023-03-15 11:00:31:20,0,3.37189,-6.13013,-14.1832,Q,Q
2023-03-15 11:00:31:30,0,3.36962,-6.13659,-14.1728,Q,Q
2023-03-15 11:00:31:40,0,3.36654,-6.14058,-14.1607,Q,Q
2023-03-15 11:00:31:50,0,3.36363,-6.15045,-14.1475,Q,Q
2023-03-15 11:00:31:60,0,3.35984,-6.16154,-14.1383,Q,Q
2023-03-15 11:00:31:70,0,3.3536,-6.16366,-14.1325,Q,Q
2023-03-15 11:00:31:80,0,3.34562,-6.16358,-14.1256,Q,Q
2023-03-15 11:00:31:90,0,3.34073,-6.15771,-14.1222,Q,Q
2023-03-15 11:00:31:100,0,3.33458,-6.15375,-14.1155,Q,Q
2023-03-15 11:00:31:110,0,3.33249,-6.1603,-14.1086,Q,Q
2023-03-15 11:00:31:120,0,3.33064,-6.17225,-14.1002,Q,Q
2023-03-15 11:00:31:130,0,3.32831,-6.18784,-14.0886,Q,Q
2023-03-15 11:00:31:140,0,3.32948,-6.20608,-14.0809,Q,Q
2023-03-15 11:00:31:150,0,3.3246,-6.22075,-14.0736,Q,Q
2023-03-15 11:00:31:160,0,3.31716,-6.22615,-14.0676,Q,Q
2023-03-15 11:00:31:170,0,3.30987,-6.22631,-14.0615,Q,Q
2023-03-15 11:00:31:180,0,3.30603,-6.22622,-14.0553,Q,Q
2023-03-15 11:00:31:190,0,3.29975,-6.22455,-14.0466,Q,Q
2023-03-15 11:00:31:200,0,3.2951,-6.22295,-14.0346,Q,Q
2023-03-15 11:00:31:209,0,3.28637,-6.23235,-14.0261,Q,Q
2023-03-15 11:00:31:219,0,3.27241,-6.24161,-14.0159,Q,Q
2023-03-15 11:00:31:230,0,3.26006,-6.24379,-14.0083,Q,Q
2023-03-15 11:00:31:240,0,3.24738,-6.23995,-14.003,Q,Q
2023-03-15 11:00:31:250,0,3.24228,-6.23383,-13.9973,Q,Q
2023-03-15 11:00:31:260,0,3.23688,-6.23268,-13.9891,Q,Q
2023-03-15 11:00:31:270,0,3.23009,-6.23036,-13.9849,Q,Q
2023-03-15 11:00:31:280,0,3.22246,-6.23088,-13.9824,Q,Q
2023-03-15 11:00:31:290,0,3.21474,-6.23104,-13.9789,Q,Q
2023-03-15 11:00:31:300,0,3.21138,-6.23076,-13.9747,Q,Q
2023-03-15 11:00:31:310,0,3.20544,-6.22975,-13.9688,Q,Q
2023-03-15 11:00:31:320,0,3.20295,-6.23202,-13.9625,Q,Q
2023-03-15 11:00:31:330,0,3.19764,-6.23599,-13.956,Q,Q
2023-03-15 11:00:31:340,0,3.1952,-6.23277,-13.9499,Q,Q
2023-03-15 11:00:31:350,0,3.19507,-6.22725,-13.9425,Q,Q
2023-03-15 11:00:31:360,0,3.19806,-6.2273,-13.934,Q,Q
2023-03-15 11:00:31:370,0,3.19958,-6.22671,-13.9246,Q,Q
2023-03-15 11:00:31:380,0,3.20182,-6.22985,-13.9163,Q,Q
2023-03-15 11:00:31:390,0,3.20263,-6.22948,-13.905,Q,Q
2023-03-15 11:00:31:400,0,3.20207,-6.23228,-13.8918,Q,Q
2023-03-15 11:00:31:410,0,3.20555,-6.23423,-13.8827,Q,Q
2023-03-15 11:00:31:420,0,3.20552,-6.2345,-13.871,Q,Q
2023-03-15 11:00:31:430,0,3.20745,-6.22899,-13.8612,Q,Q
2023-03-15 11:00:31:440,0,3.20867,-6.22409,-13.8559,Q,Q
2023-03-15 11:00:31:449,0,3.21192,-6.22545,-13.8465,Q,Q
2023-03-15 11:00:31:459,0,3.21396,-6.22173,-13.8412,Q,Q
2023-03-15 11:00:31:470,0,3.21919,-6.22123,-13.8329,Q,Q
2023-03-15 11:00:31:480,0,3.222,-6.22695,-13.8295,Q,Q
2023-03-15 11:00:31:490,0,3.22732,-6.23061,-13.8273,Q,Q
2023-03-15 11:00:31:500,0,3.22926,-6.23454,-13.8225,Q,Q
2023-03-15 11:00:31:510,0,3.23138,-6.24046,-13.8186,Q,Q
2023-03-15 11:00:31:520,0,3.23322,-6.24742,-13.8134,Q,Q
2023-03-15 11:00:31:530,0,3.23531,-6.25242,-13.8068,Q,Q
2023-03-15 11:00:31:540,0,3.23621,-6.26215,-13.8006,Q,Q
2023-03-15 11:00:31:550,0,3.2355,-6.26903,-13.7947,Q,Q
2023-03-15 11:00:31:560,0,3.23416,-6.27577,-13.7877,Q,Q
2023-03-15 11:00:31:570,0,3.23456,-6.2803,-13.7779,Q,Q
2023-03-15 11:00:31:580,0,3.23733,-6.28606,-13.7722,Q,Q
2023-03-15 11:00:31:590,0,3.24091,-6.29058,-13.7638,Q,Q
2023-03-15 11:00:31:600,0,3.24442,-6.28831,-13.7538,Q,Q
2023-03-15 11:00:31:610,0,3.24772,-6.29015,-13.7426,Q,Q
2023-03-15 11:00:31:620,0,3.25291,-6.29053,-13.7346,Q,Q
2023-03-15 11:00:31:630,0,3.25561,-6.29258,-13.7287,Q,Q
2023-03-15 11:00:31:640,0,3.25658,-6.28831,-13.7283,Q,Q
2023-03-15 11:00:31:650,0,3.25543,-6.28732,-13.7289,Q,Q
2023-03-15 11:00:31:660,0,3.25532,-6.28449,-13.7353,Q,Q
2023-03-15 11:00:31:670,0,3.25301,-6.28393,-13.738,Q,Q
2023-03-15 11:00:31:680,0,3.25032,-6.28225,-13.7462,Q,Q
2023-03-15 11:00:31:690,0,3.24488,-6.28015,-13.7537,Q,Q
2023-03-15 11:00:31:699,0,3.24222,-6.2765,-13.7622,Q,Q
2023-03-15 11:00:31:710,0,3.23932,-6.27252,-13.7716,Q,Q
2023-03-15 11:00:31:720,0,3.23632,-6.26907,-13.7777,Q,Q
2023-03-15 11:00:31:730,0,3.23514,-6.26787,-13.7852,Q,Q
2023-03-15 11:00:31:740,0,3.23413,-6.26739,-13.7912,Q,Q
2023-03-15 11:00:31:750,0,3.23349,-6.26135,-13.7914,Q,Q
2023-03-15 11:00:31:760,0,3.23394,-6.26011,-13.7912,Q,Q
2023-03-15 11:00:31:770,0,3.23788,-6.2593,-13.7864,Q,Q
2023-03-15 11:00:31:780,0,3.2426,-6.25861,-13.7822,Q,Q
2023-03-15 11:00:31:790,0,3.24873,-6.25864,-13.7781,Q,Q
2023-03-15 11:00:31:800,0,3.25099,-6.25829,-13.7753,Q,Q
2023-03-15 11:00:31:810,0,3.25747,-6.25644,-13.7686,Q,Q
2023-03-15 11:00:31:820,0,3.26439,-6.25511,-13.7598,Q,Q
2023-03-15 11:00:31:829,0,3.26836,-6.25399,-13.7511,Q,Q
2023-03-15 11:00:31:840,0,3.27221,-6.25781,-13.7435,Q,Q
2023-03-15 11:00:31:850,0,3.28084,-6.26107,-13.7353,Q,Q
2023-03-15 11:00:31:860,0,3.28712,-6.26408,-13.7291,Q,Q
2023-03-15 11:00:31:870,0,3.29506,-6.26943,-13.7211,Q,Q
2023-03-15 11:00:31:880,0,3.30092,-6.27271,-13.7152,Q,Q
2023-03-15 11:00:31:890,0,3.30923,-6.27348,-13.7096,Q,Q
2023-03-15 11:00:31:900,0,3.31495,-6.27849,-13.7046,Q,Q
2023-03-15 11:00:31:909,0,3.32086,-6.28079,-13.7054,Q,Q
2023-03-15 11:00:31:920,0,3.32543,-6.28285,-13.6998,Q,Q
2023-03-15 11:00:31:930,0,3.32864,-6.28363,-13.6962,Q,Q
2023-03-15 11:00:31:940,0,3.3305,-6.28277,-13.6913,Q,Q
2023-03-15 11:00:31:950,0,3.33405,-6.28055,-13.6909,Q,Q
2023-03-15 11:00:31:959,0,3.33692,-6.28013,-13.691,Q,Q
2023-03-15 11:00:31:970,0,3.33601,-6.28016,-13.6858,Q,Q
2023-03-15 11:00:31:980,0,3.33996,-6.28138,-13.679,Q,Q
2023-03-15 11:00:31:990,0,3.34207,-6.27958,-13.6779,Q,Q
2023-03-15 11:00:32:0,0,3.34273,-6.27261,-13.6753,Q,Q
2023-03-15 11:00:32:10,0,3.33892,-6.26403,-13.6793,Q,Q
2023-03-15 11:00:32:20,0,3.33673,-6.25574,-13.6808,Q,Q
2023-03-15 11:00:32:30,0,3.33849,-6.25015,-13.6844,Q,Q
2023-03-15 11:00:32:40,0,3.3413,-6.25754,-13.6829,Q,Q
2023-03-15 11:00:32:49,0,3.34234,-6.27017,-13.681,Q,Q
2023-03-15 11:00:32:59,0,3.34235,-6.28146,-13.6766,Q,Q
2023-03-15 11:00:32:70,0,3.34211,-6.29401,-13.6767,Q,Q
2023-03-15 11:00:32:80,0,3.33942,-6.29874,-13.6803,Q,Q
2023-03-15 11:00:32:90,0,3.3349,-6.29886,-13.6877,Q,Q
2023-03-15 11:00:32:100,0,3.33045,-6.29725,-13.6925,Q,Q
2023-03-15 11:00:32:110,0,3.32007,-6.29234,-13.7,Q,Q
2023-03-15 11:00:32:120,0,3.30972,-6.28648,-13.7044,Q,Q
2023-03-15 11:00:32:130,0,3.29851,-6.28117,-13.7119,Q,Q
2023-03-15 11:00:32:140,0,3.28833,-6.27756,-13.7238,Q,Q
2023-03-15 11:00:32:150,0,3.2829,-6.26861,-13.7344,Q,Q
2023-03-15 11:00:32:160,0,3.27736,-6.26324,-13.7444,Q,Q
2023-03-15 11:00:32:170,0,3.27219,-6.26096,-13.7536,Q,Q
2023-03-15 11:00:32:180,0,3.26878,-6.25491,-13.7617,Q,Q
2023-03-15 11:00:32:190,0,3.26521,-6.25297,-13.7714,Q,Q
2023-03-15 11:00:32:200,0,3.26603,-6.2484,-13.7817,Q,Q
2023-03-15 11:00:32:210,0,3.26907,-6.24674,-13.7915,Q,Q
2023-03-15 11:00:32:220,0,3.27376,-6.24647,-13.8027,Q,Q
2023-03-15 11:00:32:230,0,3.27844,-6.24551,-13.8112,Q,Q
2023-03-15 11:00:32:240,0,3.2806,-6.24353,-13.8201,Q,Q
2023-03-15 11:00:32:250,0,3.28453,-6.24011,-13.8252,Q,Q
2023-03-15 11:00:32:260,0,3.28933,-6.23602,-13.831,Q,Q
2023-03-15 11:00:32:270,0,3.2927,-6.23458,-13.8344,Q,Q
2023-03-15 11:00:32:280,0,3.29743,-6.22892,-13.8344,Q,Q
2023-03-15 11:00:32:289,0,3.29942,-6.22676,-13.8366,Q,Q
2023-03-15 11:00:32:300,0,3.2999,-6.22294,-13.8364,Q,Q
2023-03-15 11:00:32:310,0,3.30205,-6.22418,-13.831,Q,Q
2023-03-15 11:00:32:320,0,3.30238,-6.22665,-13.8268,Q,Q
2023-03-15 11:00:32:329,0,3.30259,-6.23024,-13.8225,Q,Q
2023-03-15 11:00:32:340,0,3.29958,-6.22867,-13.8221,Q,Q
2023-03-15 11:00:32:350,0,3.29606,-6.2253,-13.8193,Q,Q
2023-03-15 11:00:32:360,0,3.29334,-6.21898,-13.8177,Q,Q
2023-03-15 11:00:32:370,0,3.28917,-6.21284,-13.815,Q,Q
2023-03-15 11:00:32:380,0,3.2831,-6.21195,-13.8132,Q,Q
2023-03-15 11:00:32:389,0,3.27769,-6.21192,-13.81,Q,Q
2023-03-15 11:00:32:400,0,3.27171,-6.20779,-13.8072,Q,Q
2023-03-15 11:00:32:410,0,3.26882,-6.20762,-13.8051,Q,Q
2023-03-15 11:00:32:420,0,3.26977,-6.20919,-13.8032,Q,Q
2023-03-15 11:00:32:430,0,3.27157,-6.21393,-13.7999,Q,Q
2023-03-15 11:00:32:440,0,3.27237,-6.21579,-13.796,Q,Q
2023-03-15 11:00:32:450,0,3.27468,-6.22002,-13.7905,Q,Q
2023-03-15 11:00:32:460,0,3.27437,-6.22712,-13.7863,Q,Q
2023-03-15 11:00:32:469,0,3.27206,-6.23331,-13.7763,Q,Q
2023-03-15 11:00:32:480,0,3.26784,-6.23721,-13.7644,Q,Q
2023-03-15 11:00:32:490,0,3.26854,-6.24402,-13.7555,Q,Q
2023-03-15 11:00:32:500,0,3.26795,-6.25191,-13.7441,Q,Q
2023-03-15 11:00:32:509,0,3.26666,-6.25795,-13.7313,Q,Q
2023-03-15 11:00:32:520,0,3.26606,-6.26217,-13.7186,Q,Q
2023-03-15 11:00:32:530,0,3.267,-6.26203,-13.7078,Q,Q
2023-03-15 11:00:32:539,0,3.26944,-6.2589,-13.6997,Q,Q
2023-03-15 11:00:32:550,0,3.26951,-6.2552,-13.6877,Q,Q
2023-03-15 11:00:32:560,0,3.26985,-6.25064,-13.6778,Q,Q
2023-03-15 11:00:32:570,0,3.26669,-6.24942,-13.672,Q,Q
2023-03-15 11:00:32:580,0,3.2642,-6.24549,-13.6673,Q,Q
2023-03-15 11:00:32:590,0,3.26116,-6.24353,-13.6669,Q,Q
2023-03-15 11:00:32:600,0,3.25761,-6.24148,-13.6669,Q,Q
2023-03-15 11:00:32:610,0,3.25701,-6.23774,-13.6721,Q,Q
2023-03-15 11:00:32:620,0,3.25353,-6.23799,-13.6755,Q,Q
2023-03-15 11:00:32:630,0,3.25058,-6.23785,-13.6849,Q,Q
2023-03-15 11:00:32:640,0,3.24563,-6.23638,-13.6914,Q,Q
2023-03-15 11:00:32:649,0,3.24019,-6.23821,-13.6973,Q,Q
2023-03-15 11:00:32:659,0,3.23303,-6.24,-13.7014,Q,Q
2023-03-15 11:00:32:669,0,3.22486,-6.24091,-13.7062,Q,Q
2023-03-15 11:00:32:680,0,3.21904,-6.24004,-13.7133,Q,Q
2023-03-15 11:00:32:690,0,3.20985,-6.23641,-13.7138,Q,Q
2023-03-15 11:00:32:700,0,3.20186,-6.23294,-13.7129,Q,Q
2023-03-15 11:00:32:710,0,3.19779,-6.22839,-13.7115,Q,Q
2023-03-15 11:00:32:719,0,3.19307,-6.22652,-13.709,Q,Q
2023-03-15 11:00:32:730,0,3.18782,-6.22654,-13.7036,Q,Q
2023-03-15 11:00:32:740,0,3.18419,-6.22288,-13.6985,Q,Q
2023-03-15 11:00:32:749,0,3.18064,-6.22108,-13.6952,Q,Q
2023-03-15 11:00:32:759,0,3.18224,-6.2216,-13.6893,Q,Q
2023-03-15 11:00:32:769,0,3.18302,-6.22123,-13.6826,Q,Q
2023-03-15 11:00:32:779,0,3.18233,-6.22406,-13.6781,Q,Q
2023-03-15 11:00:32:789,0,3.18459,-6.22823,-13.6749,Q,Q
2023-03-15 11:00:32:800,0,3.18499,-6.23079,-13.6723,Q,Q
2023-03-15 11:00:32:809,0,3.18139,-6.23542,-13.6689,Q,Q
2023-03-15 11:00:32:820,0,3.17883,-6.24142,-13.6645,Q,Q
2023-03-15 11:00:32:829,0,3.17545,-6.25086,-13.6574,Q,Q
2023-03-15 11:00:32:840,0,3.16819,-6.26514,-13.6513,Q,Q
2023-03-15 11:00:32:850,0,3.16166,-6.26689,-13.6409,Q,Q
2023-03-15 11:00:32:859,0,3.15903,-6.26617,-13.6327,Q,Q
2023-03-15 11:00:32:869,0,3.15976,-6.26358,-13.6195,Q,Q
2023-03-15 11:00:32:879,0,3.15875,-6.26853,-13.6065,Q,Q
2023-03-15 11:00:32:890,0,3.16199,-6.2728,-13.5951,Q,Q
2023-03-15 11:00:32:900,0,3.16767,-6.27528,-13.5845,Q,Q
2023-03-15 11:00:32:909,0,3.17069,-6.27613,-13.5737,Q,Q
2023-03-15 11:00:32:919,0,3.16661,-6.27163,-13.5696,Q,Q
2023-03-15 11:00:32:929,0,3.16098,-6.27088,-13.5628,Q,Q
2023-03-15 11:00:32:940,0,3.15611,-6.26288,-13.5589,Q,Q
2023-03-15 11:00:32:949,0,3.15141,-6.2591,-13.5613,Q,Q
2023-03-15 11:00:32:960,0,3.15218,-6.26447,-13.5575,Q,Q
2023-03-15 11:00:32:969,0,3.15537,-6.27255,-13.5578,Q,Q
2023-03-15 11:00:32:979,0,3.15652,-6.28456,-13.5571,Q,Q
2023-03-15 11:00:32:989,0,3.16058,-6.2961,-13.5628,Q,Q
2023-03-15 11:00:32:999,0,3.16059,-6.29792,-13.5733,Q,Q
2023-03-15 11:00:33:9,0,3.15953,-6.29981,-13.5845,Q,Q
2023-03-15 11:00:33:20,0,3.15684,-6.29466,-13.5919,Q,Q
2023-03-15 11:00:33:29,0,3.15239,-6.28855,-13.5975,Q,Q
2023-03-15 11:00:33:40,0,3.14668,-6.27971,-13.5982,Q,Q
2023-03-15 11:00:33:49,0,3.14055,-6.2707,-13.5999,Q,Q
2023-03-15 11:00:33:60,0,3.1344,-6.26124,-13.6005,Q,Q
2023-03-15 11:00:33:69,0,3.12801,-6.25573,-13.599,Q,Q
2023-03-15 11:00:33:80,0,3.12091,-6.25074,-13.6027,Q,Q
2023-03-15 11:00:33:89,0,3.11648,-6.24465,-13.6094,Q,Q
2023-03-15 11:00:33:100,0,3.11438,-6.24069,-13.6175,Q,Q
2023-03-15 11:00:33:109,0,3.11352,-6.24153,-13.6217,Q,Q
2023-03-15 11:00:33:120,0,3.1115,-6.2409,-13.6293,Q,Q
2023-03-15 11:00:33:130,0,3.10982,-6.2435,-13.6374,Q,Q
2023-03-15 11:00:33:140,0,3.11433,-6.24324,-13.6501,Q,Q
2023-03-15 11:00:33:149,0,3.11425,-6.24361,-13.6582,Q,Q
2023-03-15 11:00:33:160,0,3.11396,-6.24521,-13.6686,Q,Q
2023-03-15 11:00:33:170,0,3.11383,-6.24898,-13.6772,Q,Q
2023-03-15 11:00:33:180,0,3.11455,-6.25116,-13.686,Q,Q
2023-03-15 11:00:33:190,0,3.11796,-6.25052,-13.6964,Q,Q
2023-03-15 11:00:33:200,0,3.12259,-6.25145,-13.6998,Q,Q
2023-03-15 11:00:33:209,0,3.12592,-6.25432,-13.7015,Q,Q
2023-03-15 11:00:33:219,0,3.13219,-6.25813,-13.7005,Q,Q
2023-03-15 11:00:33:229,0,3.13622,-6.25984,-13.695,Q,Q
2023-03-15 11:00:33:240,0,3.13739,-6.26815,-13.6853,Q,Q
2023-03-15 11:00:33:250,0,3.14242,-6.27527,-13.6805,Q,Q
2023-03-15 11:00:33:260,0,3.14836,-6.28046,-13.6751,Q,Q
2023-03-15 11:00:33:269,0,3.15346,-6.28264,-13.6677,Q,Q
2023-03-15 11:00:33:279,0,3.15817,-6.28065,-13.663,Q,Q
2023-03-15 11:00:33:290,0,3.15943,-6.28003,-13.6532,Q,Q
2023-03-15 11:00:33:300,0,3.16677,-6.2805,-13.6458,Q,Q
2023-03-15 11:00:33:310,0,3.17202,-6.2828,-13.6393,Q,Q
2023-03-15 11:00:33:320,0,3.17706,-6.28379,-13.6357,Q,Q
2023-03-15 11:00:33:330,0,3.18148,-6.28686,-13.6336,Q,Q
2023-03-15 11:00:33:339,0,3.18743,-6.29232,-13.6339,Q,Q
2023-03-15 11:00:33:349,0,3.19273,-6.29594,-13.6289,Q,Q
2023-03-15 11:00:33:359,0,3.20095,-6.30198,-13.6285,Q,Q
2023-03-15 11:00:33:369,0,3.20857,-6.30737,-13.6288,Q,Q
2023-03-15 11:00:33:380,0,3.21712,-6.31414,-13.6284,Q,Q
2023-03-15 11:00:33:389,0,3.22368,-6.31929,-13.6261,Q,Q
2023-03-15 11:00:33:400,0,3.22495,-6.32152,-13.6193,Q,Q
2023-03-15 11:00:33:409,0,3.22646,-6.32527,-13.6134,Q,Q
2023-03-15 11:00:33:419,0,3.22946,-6.32923,-13.605,Q,Q
2023-03-15 11:00:33:429,0,3.22923,-6.33352,-13.5986,Q,Q
2023-03-15 11:00:33:439,0,3.23347,-6.33563,-13.5911,Q,Q
2023-03-15 11:00:33:449,0,3.23881,-6.335,-13.5827,Q,Q
2023-03-15 11:00:33:459,0,3.23791,-6.33199,-13.5776,Q,Q
2023-03-15 11:00:33:469,0,3.24058,-6.33103,-13.5741,Q,Q
2023-03-15 11:00:33:479,0,3.23995,-6.33157,-13.5747,Q,Q
2023-03-15 11:00:33:489,0,3.23879,-6.32583,-13.5746,Q,Q
2023-03-15 11:00:33:499,0,3.23932,-6.32194,-13.5741,Q,Q
2023-03-15 11:00:33:509,0,3.23738,-6.31836,-13.5786,Q,Q
2023-03-15 11:00:33:519,0,3.23335,-6.31654,-13.5819,Q,Q
2023-03-15 11:00:33:529,0,3.22741,-6.32002,-13.5891,Q,Q
2023-03-15 11:00:33:539,0,3.22672,-6.31833,-13.5975,Q,Q
2023-03-15 11:00:33:549,0,3.22383,-6.31759,-13.6061,Q,Q
2023-03-15 11:00:33:559,0,3.22024,-6.3151,-13.6167,Q,Q
2023-03-15 11:00:33:569,0,3.21503,-6.31208,-13.6251,Q,Q
2023-03-15 11:00:33:579,0,3.21192,-6.30583,-13.6334,Q,Q
2023-03-15 11:00:33:589,0,3.20382,-6.30489,-13.6381,Q,Q
2023-03-15 11:00:33:599,0,3.19864,-6.30376,-13.6424,Q,Q
2023-03-15 11:00:33:609,0,3.19337,-6.29989,-13.6414,Q,Q
2023-03-15 11:00:33:619,0,3.19189,-6.29833,-13.6399,Q,Q
2023-03-15 11:00:33:629,0,3.18726,-6.29628,-13.6388,Q,Q
2023-03-15 11:00:33:639,0,3.18438,-6.29224,-13.6336,Q,Q
2023-03-15 11:00:33:650,0,3.17982,-6.29026,-13.6277,Q,Q
2023-03-15 11:00:33:660,0,3.17769,-6.28991,-13.6226,Q,Q
2023-03-15 11:00:33:670,0,3.17678,-6.28963,-13.6153,Q,Q
2023-03-15 11:00:33:679,0,3.17556,-6.29432,-13.611,Q,Q
2023-03-15 11:00:33:689,0,3.1727,-6.29614,-13.6053,Q,Q
2023-03-15 11:00:33:700,0,3.17285,-6.29649,-13.6028,Q,Q
2023-03-15 11:00:33:709,0,3.1705,-6.29832,-13.6027,Q,Q
2023-03-15 11:00:33:720,0,3.16803,-6.30103,-13.5997,Q,Q
2023-03-15 11:00:33:729,0,3.1654,-6.30492,-13.5971,Q,Q
2023-03-15 11:00:33:740,0,3.16663,-6.30565,-13.6028,Q,Q
2023-03-15 11:00:33:749,0,3.16299,-6.30801,-13.6014,Q,Q
2023-03-15 11:00:33:759,0,3.16317,-6.30829,-13.6019,Q,Q
2023-03-15 11:00:33:769,0,3.16727,-6.31028,-13.604,Q,Q
2023-03-15 11:00:33:779,0,3.16706,-6.31262,-13.604,Q,Q
2023-03-15 11:00:33:789,0,3.16811,-6.3135,-13.6002,Q,Q
2023-03-15 11:00:33:800,0,3.1701,-6.31972,-13.5967,Q,Q
2023-03-15 11:00:33:809,0,3.1733,-6.32656,-13.5909,Q,Q
2023-03-15 11:00:33:819,0,3.17739,-6.32168,-13.5825,Q,Q
2023-03-15 11:00:33:829,0,3.17836,-6.32061,-13.5785,Q,Q
2023-03-15 11:00:33:839,0,3.17845,-6.3192,-13.5809,Q,Q
2023-03-15 11:00:33:849,0,3.17404,-6.31254,-13.5829,Q,Q
2023-03-15 11:00:33:859,0,3.16875,-6.30837,-13.5851,Q,Q
2023-03-15 11:00:33:869,0,3.16623,-6.30868,-13.5816,Q,Q
2023-03-15 11:00:33:879,0,3.1659,-6.31889,-13.5788,Q,Q
2023-03-15 11:00:33:889,0,3.16831,-6.33315,-13.5727,Q,Q
2023-03-15 11:00:33:899,0,3.16832,-6.34672,-13.5673,Q,Q
2023-03-15 11:00:33:909,0,3.16373,-6.35536,-13.5657,Q,Q
2023-03-15 11:00:33:920,0,3.16035,-6.36181,-13.5686,Q,Q
2023-03-15 11:00:33:929,0,3.15979,-6.36068,-13.5694,Q,Q
2023-03-15 11:00:33:940,0,3.15629,-6.35923,-13.5731,Q,Q
2023-03-15 11:00:33:949,0,3.15229,-6.35383,-13.5664,Q,Q
2023-03-15 11:00:33:959,0,3.14888,-6.34991,-13.5636,Q,Q
2023-03-15 11:00:33:969,0,3.14498,-6.34614,-13.5617,Q,Q
2023-03-15 11:00:33:979,0,3.14452,-6.34111,-13.5633,Q,Q
2023-03-15 11:00:33:989,0,3.14158,-6.33786,-13.569,Q,Q
2023-03-15 11:00:33:999,0,3.13782,-6.33578,-13.5713,Q,Q
2023-03-15 11:00:34:9,0,3.13591,-6.33358,-13.5769,Q,Q
2023-03-15 11:00:34:19,0,3.13548,-6.33282,-13.582,Q,Q
2023-03-15 11:00:34:29,0,3.13712,-6.33556,-13.5898,Q,Q
2023-03-15 11:00:34:39,0,3.14041,-6.34135,-13.5985,Q,Q
2023-03-15 11:00:34:49,0,3.14431,-6.34591,-13.6089,Q,Q
2023-03-15 11:00:34:59,0,3.14877,-6.35398,-13.6214,Q,Q
2023-03-15 11:00:34:69,0,3.15634,-6.3633,-13.6271,Q,Q
2023-03-15 11:00:34:79,0,3.16083,-6.36902,-13.6337,Q,Q
