Timestamp_cmd,imu_cmd,roll_delta,pitch_delta,yaw_delta
2023-03-10 23:48:06:386,0,1.69192,-8.86899,90.6902
2023-03-10 23:48:06:394,0,1.67463,-8.87486,90.6931
2023-03-10 23:48:06:404,0,1.65683,-8.88534,90.7044
2023-03-10 23:48:06:414,0,1.64105,-8.89042,90.7244
2023-03-10 23:48:06:424,0,1.63527,-8.89309,90.7438
2023-03-10 23:48:06:434,0,1.63305,-8.89373,90.7694
2023-03-10 23:48:06:444,0,1.63163,-8.89312,90.7962
2023-03-10 23:48:06:454,0,1.63542,-8.89188,90.8244
2023-03-10 23:48:06:464,0,1.64137,-8.89072,90.8508
2023-03-10 23:48:06:474,0,1.6441,-8.89431,90.8794
2023-03-10 23:48:06:484,0,1.6474,-8.89755,90.9072
2023-03-10 23:48:06:494,0,1.64904,-8.90594,90.9336
2023-03-10 23:48:06:504,0,1.65161,-8.91333,90.9599
2023-03-10 23:48:06:514,0,1.65419,-8.92384,90.9816
2023-03-10 23:48:06:524,0,1.65781,-8.93465,91.0023
2023-03-10 23:48:06:534,0,1.66548,-8.93982,91.021
2023-03-10 23:48:06:544,0,1.67631,-8.94494,91.0347
2023-03-10 23:48:06:554,0,1.68294,-8.9495,91.0524
2023-03-10 23:48:06:564,0,1.69147,-8.95279,91.0663
2023-03-10 23:48:06:574,0,1.69869,-8.95655,91.0783
2023-03-10 23:48:06:584,0,1.70279,-8.96026,91.0919
2023-03-10 23:48:06:594,0,1.70482,-8.96285,91.1006
2023-03-10 23:48:06:604,0,1.70393,-8.96546,91.1048
2023-03-10 23:48:06:614,0,1.69919,-8.96509,91.1077
2023-03-10 23:48:06:624,0,1.69025,-8.96401,91.1074
2023-03-10 23:48:06:634,0,1.68301,-8.96125,91.108
2023-03-10 23:48:06:644,0,1.66926,-8.96129,91.1067
2023-03-10 23:48:06:654,0,1.65789,-8.96418,91.1077
2023-03-10 23:48:06:664,0,1.64223,-8.96796,91.1099
2023-03-10 23:48:06:674,0,1.62325,-8.97036,91.1186
2023-03-10 23:48:06:684,0,1.60631,-8.9722,91.1279
2023-03-10 23:48:06:694,0,1.58903,-8.97265,91.1382
2023-03-10 23:48:06:704,0,1.57416,-8.9724,91.1515
2023-03-10 23:48:06:714,0,1.55918,-8.97836,91.1677
2023-03-10 23:48:06:724,0,1.54297,-8.98667,91.1817
2023-03-10 23:48:06:734,0,1.5297,-8.99208,91.1972
2023-03-10 23:48:06:744,0,1.51613,-8.9977,91.2058
2023-03-10 23:48:06:754,0,1.50562,-9.00554,91.216
2023-03-10 23:48:06:764,0,1.49626,-9.0115,91.2235
2023-03-10 23:48:06:774,0,1.48092,-9.0179,91.231
2023-03-10 23:48:06:784,0,1.46836,-9.02284,91.2397
2023-03-10 23:48:06:794,0,1.45459,-9.02919,91.2523
2023-03-10 23:48:06:804,0,1.44165,-9.03461,91.2667
2023-03-10 23:48:06:814,0,1.42278,-9.03671,91.283
2023-03-10 23:48:06:824,0,1.40908,-9.03745,91.2945
2023-03-10 23:48:06:834,0,1.40087,-9.03296,91.3076
2023-03-10 23:48:06:844,0,1.39787,-9.0298,91.3139
2023-03-10 23:48:06:854,0,1.39412,-9.02383,91.3189
2023-03-10 23:48:06:864,0,1.38134,-9.02261,91.3212
2023-03-10 23:48:06:874,0,1.36617,-9.01886,91.3184
2023-03-10 23:48:06:884,0,1.34351,-9.01564,91.3134
2023-03-10 23:48:06:894,0,1.32188,-9.0104,91.3013
2023-03-10 23:48:06:904,0,1.3042,-8.99908,91.2841
2023-03-10 23:48:06:914,0,1.28722,-8.9829,91.2619
2023-03-10 23:48:06:924,0,1.27108,-8.96604,91.2347
2023-03-10 23:48:06:934,0,1.2571,-8.94685,91.2013
2023-03-10 23:48:06:944,0,1.24503,-8.92673,91.1628
2023-03-10 23:48:06:954,0,1.23109,-8.9057,91.1184
2023-03-10 23:48:06:964,0,1.21117,-8.88526,91.0744
2023-03-10 23:48:06:974,0,1.18663,-8.85965,91.0263
2023-03-10 23:48:06:984,0,1.15421,-8.83119,90.983
2023-03-10 23:48:06:994,0,1.11539,-8.80012,90.9436
2023-03-10 23:48:07:4,0,1.06893,-8.77813,90.9114
2023-03-10 23:48:07:14,0,1.01198,-8.75469,90.8851
2023-03-10 23:48:07:24,0,0.9419,-8.73727,90.8679
2023-03-10 23:48:07:34,0,0.86315,-8.72146,90.859
2023-03-10 23:48:07:44,0,0.777327,-8.70186,90.8586
2023-03-10 23:48:07:54,0,0.683991,-8.67952,90.86
2023-03-10 23:48:07:64,0,0.575504,-8.65703,90.8614
2023-03-10 23:48:07:74,0,0.454569,-8.63395,90.8703
2023-03-10 23:48:07:84,0,0.318405,-8.61509,90.8909
2023-03-10 23:48:07:94,0,0.167873,-8.60441,90.9222
2023-03-10 23:48:07:104,0,0.00532906,-8.59813,90.9601
2023-03-10 23:48:07:114,0,-0.169256,-8.58722,91.0024
2023-03-10 23:48:07:124,0,-0.341643,-8.5803,91.0398
2023-03-10 23:48:07:134,0,-0.511787,-8.56816,91.0785
2023-03-10 23:48:07:144,0,-0.66155,-8.55594,91.1151
2023-03-10 23:48:07:154,0,-0.794612,-8.54071,91.1455
2023-03-10 23:48:07:164,0,-0.911051,-8.52291,91.1746
2023-03-10 23:48:07:174,0,-1.01223,-8.50979,91.2
2023-03-10 23:48:07:184,0,-1.09529,-8.49635,91.2229
2023-03-10 23:48:07:194,0,-1.16806,-8.48177,91.245
2023-03-10 23:48:07:204,0,-1.23872,-8.47249,91.2667
2023-03-10 23:48:07:214,0,-1.3102,-8.4664,91.287
2023-03-10 23:48:07:224,0,-1.38312,-8.46267,91.3098
2023-03-10 23:48:07:234,0,-1.45842,-8.46293,91.3349
2023-03-10 23:48:07:244,0,-1.53346,-8.4663,91.3617
2023-03-10 23:48:07:254,0,-1.60879,-8.46822,91.3891
2023-03-10 23:48:07:264,0,-1.68421,-8.47275,91.4163
2023-03-10 23:48:07:274,0,-1.75392,-8.47966,91.4433
2023-03-10 23:48:07:284,0,-1.81566,-8.49364,91.4668
2023-03-10 23:48:07:294,0,-1.87221,-8.50581,91.4922
2023-03-10 23:48:07:304,0,-1.91303,-8.51647,91.5117
2023-03-10 23:48:07:314,0,-1.94267,-8.52681,91.5241
2023-03-10 23:48:07:324,0,-1.96446,-8.53258,91.5303
2023-03-10 23:48:07:334,0,-1.98454,-8.53548,91.5335
2023-03-10 23:48:07:344,0,-2.00043,-8.54086,91.5376
2023-03-10 23:48:07:354,0,-2.02647,-8.55068,91.5469
2023-03-10 23:48:07:364,0,-2.04575,-8.56201,91.5643
2023-03-10 23:48:07:374,0,-2.05815,-8.56855,91.5783
2023-03-10 23:48:07:384,0,-2.06482,-8.56879,91.5927
2023-03-10 23:48:07:394,0,-2.06469,-8.56093,91.6034
2023-03-10 23:48:07:404,0,-2.05841,-8.54652,91.6106
2023-03-10 23:48:07:414,0,-2.04336,-8.52817,91.6079
2023-03-10 23:48:07:424,0,-2.02208,-8.51239,91.602
2023-03-10 23:48:07:434,0,-2.00202,-8.4915,91.5978
2023-03-10 23:48:07:444,0,-1.97292,-8.47246,91.5967
2023-03-10 23:48:07:454,0,-1.94474,-8.45369,91.6018
2023-03-10 23:48:07:464,0,-1.9172,-8.43691,91.6134
2023-03-10 23:48:07:474,0,-1.88278,-8.42132,91.63
2023-03-10 23:48:07:484,0,-1.84838,-8.4042,91.6508
2023-03-10 23:48:07:494,0,-1.81464,-8.38376,91.6735
2023-03-10 23:48:07:504,0,-1.77703,-8.35951,91.691
2023-03-10 23:48:07:514,0,-1.74084,-8.33108,91.7053
2023-03-10 23:48:07:524,0,-1.70464,-8.30692,91.7144
2023-03-10 23:48:07:534,0,-1.67913,-8.28319,91.72
2023-03-10 23:48:07:544,0,-1.65978,-8.26454,91.7278
2023-03-10 23:48:07:554,0,-1.65064,-8.25013,91.7332
2023-03-10 23:48:07:564,0,-1.64184,-8.23622,91.7336
2023-03-10 23:48:07:574,0,-1.63423,-8.22588,91.7286
2023-03-10 23:48:07:584,0,-1.6353,-8.21572,91.7201
2023-03-10 23:48:07:594,0,-1.64343,-8.20203,91.7089
2023-03-10 23:48:07:604,0,-1.65721,-8.1933,91.6944
2023-03-10 23:48:07:614,0,-1.67395,-8.18441,91.6776
2023-03-10 23:48:07:624,0,-1.69188,-8.17531,91.6666
2023-03-10 23:48:07:634,0,-1.71427,-8.16716,91.6562
2023-03-10 23:48:07:644,0,-1.74085,-8.15763,91.6438
2023-03-10 23:48:07:654,0,-1.76748,-8.14503,91.6322
2023-03-10 23:48:07:664,0,-1.79881,-8.13229,91.6225
2023-03-10 23:48:07:674,0,-1.83306,-8.1153,91.6173
2023-03-10 23:48:07:684,0,-1.87747,-8.10206,91.6107
2023-03-10 23:48:07:694,0,-1.93061,-8.09057,91.612
2023-03-10 23:48:07:704,0,-1.99666,-8.0833,91.6136
2023-03-10 23:48:07:714,0,-2.07154,-8.08438,91.6246
2023-03-10 23:48:07:724,0,-2.14135,-8.0889,91.6418
2023-03-10 23:48:07:734,0,-2.21108,-8.1025,91.6661
2023-03-10 23:48:07:744,0,-2.27244,-8.12393,91.6936
2023-03-10 23:48:07:754,0,-2.32546,-8.14589,91.7277
2023-03-10 23:48:07:764,0,-2.36957,-8.16845,91.7613
2023-03-10 23:48:07:774,0,-2.41173,-8.18723,91.801
2023-03-10 23:48:07:784,0,-2.45444,-8.20932,91.8479
2023-03-10 23:48:07:794,0,-2.49607,-8.2317,91.9028
2023-03-10 23:48:07:804,0,-2.54428,-8.2568,91.9636
2023-03-10 23:48:07:814,0,-2.59975,-8.27916,92.0329
2023-03-10 23:48:07:824,0,-2.66227,-8.29273,92.1073
2023-03-10 23:48:07:834,0,-2.73526,-8.29561,92.1871
2023-03-10 23:48:07:844,0,-2.8234,-8.28815,92.2809
2023-03-10 23:48:07:854,0,-2.93186,-8.28013,92.3805
2023-03-10 23:48:07:864,0,-3.05944,-8.26327,92.4886
2023-03-10 23:48:07:874,0,-3.21394,-8.24831,92.6076
2023-03-10 23:48:07:884,0,-3.38333,-8.23717,92.7346
2023-03-10 23:48:07:894,0,-3.53547,-8.22537,92.8609
2023-03-10 23:48:07:904,0,-3.65509,-8.20697,92.9829
2023-03-10 23:48:07:914,0,-3.73765,-8.18131,93.101
2023-03-10 23:48:07:924,0,-3.80785,-8.15102,93.2095
2023-03-10 23:48:07:934,0,-3.87551,-8.11367,93.3086
2023-03-10 23:48:07:944,0,-3.95868,-8.06625,93.3888
2023-03-10 23:48:07:954,0,-4.05706,-8.01166,93.4515
2023-03-10 23:48:07:964,0,-4.16451,-7.96042,93.4991
2023-03-10 23:48:07:974,0,-4.26457,-7.91576,93.5338
2023-03-10 23:48:07:984,0,-4.35375,-7.88947,93.5547
2023-03-10 23:48:07:994,0,-4.42333,-7.88389,93.5675
2023-03-10 23:48:08:4,0,-4.47716,-7.8987,93.5738
2023-03-10 23:48:08:14,0,-4.52852,-7.92666,93.5748
2023-03-10 23:48:08:24,0,-4.57752,-7.94972,93.5581
2023-03-10 23:48:08:34,0,-4.61443,-7.97134,93.5333
2023-03-10 23:48:08:44,0,-4.64104,-7.9791,93.495
2023-03-10 23:48:08:54,0,-4.65178,-7.97848,93.4493
2023-03-10 23:48:08:64,0,-4.65351,-7.97119,93.4044
2023-03-10 23:48:08:74,0,-4.65745,-7.95689,93.367
2023-03-10 23:48:08:84,0,-4.66344,-7.94241,93.3382
2023-03-10 23:48:08:94,0,-4.67653,-7.9301,93.3224
2023-03-10 23:48:08:104,0,-4.6903,-7.91694,93.32
2023-03-10 23:48:08:114,0,-4.69732,-7.89959,93.3259
2023-03-10 23:48:08:124,0,-4.70346,-7.87653,93.337
2023-03-10 23:48:08:134,0,-4.70669,-7.85266,93.3532
2023-03-10 23:48:08:144,0,-4.70583,-7.82634,93.3698
2023-03-10 23:48:08:154,0,-4.70992,-7.79549,93.3868
2023-03-10 23:48:08:164,0,-4.71712,-7.76243,93.3994
2023-03-10 23:48:08:174,0,-4.7304,-7.7233,93.4071
2023-03-10 23:48:08:184,0,-4.74752,-7.68197,93.4093
2023-03-10 23:48:08:194,0,-4.76735,-7.64721,93.4113
2023-03-10 23:48:08:204,0,-4.78134,-7.62173,93.4138
2023-03-10 23:48:08:214,0,-4.78753,-7.60123,93.4122
2023-03-10 23:48:08:224,0,-4.78597,-7.58487,93.4105
2023-03-10 23:48:08:234,0,-4.78451,-7.57369,93.4058
2023-03-10 23:48:08:244,0,-4.77417,-7.57177,93.401
2023-03-10 23:48:08:254,0,-4.76169,-7.56977,93.3981
2023-03-10 23:48:08:264,0,-4.74985,-7.56666,93.392
2023-03-10 23:48:08:274,0,-4.73587,-7.56123,93.381
2023-03-10 23:48:08:284,0,-4.71392,-7.55617,93.3707
2023-03-10 23:48:08:294,0,-4.68932,-7.55761,93.3645
2023-03-10 23:48:08:304,0,-4.65864,-7.5604,93.3609
2023-03-10 23:48:08:314,0,-4.61839,-7.56722,93.3604
2023-03-10 23:48:08:324,0,-4.56849,-7.57344,93.3613
2023-03-10 23:48:08:334,0,-4.51535,-7.58148,93.3641
2023-03-10 23:48:08:344,0,-4.45436,-7.58662,93.3664
2023-03-10 23:48:08:354,0,-4.38947,-7.59012,93.3678
2023-03-10 23:48:08:364,0,-4.31801,-7.58878,93.3688
2023-03-10 23:48:08:374,0,-4.24188,-7.58702,93.367
2023-03-10 23:48:08:384,0,-4.15731,-7.58274,93.3655
2023-03-10 23:48:08:394,0,-4.07129,-7.58016,93.3614
2023-03-10 23:48:08:404,0,-3.98688,-7.57204,93.3486
2023-03-10 23:48:08:414,0,-3.90628,-7.56165,93.328
2023-03-10 23:48:08:424,0,-3.83493,-7.54824,93.302
2023-03-10 23:48:08:434,0,-3.77216,-7.54113,93.2779
2023-03-10 23:48:08:444,0,-3.72331,-7.5328,93.2495
2023-03-10 23:48:08:454,0,-3.68727,-7.52342,93.2201
2023-03-10 23:48:08:464,0,-3.66497,-7.51257,93.1887
2023-03-10 23:48:08:474,0,-3.65265,-7.49819,93.1559
2023-03-10 23:48:08:484,0,-3.65145,-7.48669,93.1271
2023-03-10 23:48:08:494,0,-3.65544,-7.4766,93.0938
2023-03-10 23:48:08:504,0,-3.66134,-7.47187,93.0676
2023-03-10 23:48:08:514,0,-3.66867,-7.46861,93.0404
2023-03-10 23:48:08:524,0,-3.67141,-7.47056,93.0119
2023-03-10 23:48:08:534,0,-3.66588,-7.47266,92.9813
2023-03-10 23:48:08:544,0,-3.6544,-7.47636,92.9536
2023-03-10 23:48:08:554,0,-3.64088,-7.48119,92.927
2023-03-10 23:48:08:564,0,-3.62653,-7.49093,92.899
2023-03-10 23:48:08:574,0,-3.6064,-7.50657,92.8744
2023-03-10 23:48:08:584,0,-3.5846,-7.52833,92.8516
2023-03-10 23:48:08:594,0,-3.55901,-7.55125,92.831
2023-03-10 23:48:08:604,0,-3.52865,-7.57,92.805
2023-03-10 23:48:08:614,0,-3.48965,-7.58833,92.7786
2023-03-10 23:48:08:624,0,-3.44475,-7.60414,92.7533
2023-03-10 23:48:08:634,0,-3.39933,-7.61886,92.7278
2023-03-10 23:48:08:644,0,-3.35029,-7.63105,92.7028
2023-03-10 23:48:08:654,0,-3.29642,-7.64123,92.6744
2023-03-10 23:48:08:664,0,-3.24185,-7.64951,92.6475
2023-03-10 23:48:08:674,0,-3.19467,-7.65581,92.6218
2023-03-10 23:48:08:684,0,-3.14575,-7.66111,92.5989
2023-03-10 23:48:08:694,0,-3.10052,-7.67079,92.5825
2023-03-10 23:48:08:704,0,-3.05586,-7.67899,92.5725
2023-03-10 23:48:08:714,0,-3.01262,-7.6893,92.5654
2023-03-10 23:48:08:724,0,-2.97104,-7.69422,92.5588
2023-03-10 23:48:08:734,0,-2.93444,-7.70109,92.5543
2023-03-10 23:48:08:744,0,-2.90297,-7.70652,92.5479
2023-03-10 23:48:08:754,0,-2.87948,-7.70811,92.5439
2023-03-10 23:48:08:764,0,-2.86268,-7.71108,92.538
2023-03-10 23:48:08:774,0,-2.8466,-7.71886,92.5273
2023-03-10 23:48:08:784,0,-2.83224,-7.72578,92.5184
2023-03-10 23:48:08:794,0,-2.81943,-7.73417,92.5072
2023-03-10 23:48:08:804,0,-2.80945,-7.74534,92.4975
2023-03-10 23:48:08:814,0,-2.80113,-7.75728,92.4851
2023-03-10 23:48:08:824,0,-2.789,-7.77068,92.4715
2023-03-10 23:48:08:834,0,-2.77715,-7.78245,92.4616
2023-03-10 23:48:08:844,0,-2.76673,-7.79478,92.4525
2023-03-10 23:48:08:854,0,-2.75796,-7.80525,92.4436
2023-03-10 23:48:08:864,0,-2.74594,-7.81813,92.4361
2023-03-10 23:48:08:874,0,-2.73578,-7.83102,92.4306
2023-03-10 23:48:08:884,0,-2.72344,-7.83928,92.4205
2023-03-10 23:48:08:894,0,-2.70713,-7.85023,92.4109
2023-03-10 23:48:08:904,0,-2.69117,-7.8627,92.4008
2023-03-10 23:48:08:914,0,-2.6754,-7.87815,92.3913
2023-03-10 23:48:08:924,0,-2.6543,-7.89293,92.3802
2023-03-10 23:48:08:934,0,-2.62938,-7.90792,92.368
2023-03-10 23:48:08:944,0,-2.61052,-7.92256,92.357
2023-03-10 23:48:08:954,0,-2.59404,-7.94175,92.3462
2023-03-10 23:48:08:964,0,-2.58085,-7.96151,92.3429
2023-03-10 23:48:08:974,0,-2.56795,-7.97966,92.337
2023-03-10 23:48:08:984,0,-2.55547,-7.99869,92.3347
2023-03-10 23:48:08:994,0,-2.53234,-8.01741,92.3303
2023-03-10 23:48:09:4,0,-2.4973,-8.03444,92.324
2023-03-10 23:48:09:14,0,-2.45578,-8.0484,92.319
2023-03-10 23:48:09:24,0,-2.41424,-8.06234,92.3135
2023-03-10 23:48:09:34,0,-2.37421,-8.07817,92.308
2023-03-10 23:48:09:44,0,-2.3419,-8.09187,92.3015
2023-03-10 23:48:09:54,0,-2.31604,-8.10318,92.3005
2023-03-10 23:48:09:64,0,-2.29902,-8.11695,92.2947
2023-03-10 23:48:09:74,0,-2.28362,-8.12824,92.2918
2023-03-10 23:48:09:84,0,-2.27064,-8.1358,92.2918
2023-03-10 23:48:09:94,0,-2.26128,-8.13961,92.29
2023-03-10 23:48:09:104,0,-2.25541,-8.14293,92.2907
2023-03-10 23:48:09:114,0,-2.24778,-8.14923,92.2931
2023-03-10 23:48:09:124,0,-2.24038,-8.15863,92.294
2023-03-10 23:48:09:134,0,-2.22678,-8.16213,92.2919
2023-03-10 23:48:09:144,0,-2.21212,-8.1704,92.2873
2023-03-10 23:48:09:154,0,-2.19627,-8.17389,92.2807
2023-03-10 23:48:09:164,0,-2.1824,-8.17882,92.2748
2023-03-10 23:48:09:174,0,-2.17461,-8.18207,92.2664
2023-03-10 23:48:09:184,0,-2.17034,-8.18279,92.2575
2023-03-10 23:48:09:194,0,-2.17414,-8.18619,92.2534
2023-03-10 23:48:09:204,0,-2.18227,-8.19221,92.2503
2023-03-10 23:48:09:214,0,-2.18988,-8.19509,92.2505
2023-03-10 23:48:09:224,0,-2.19996,-8.20165,92.2547
2023-03-10 23:48:09:234,0,-2.2111,-8.20385,92.2588
2023-03-10 23:48:09:244,0,-2.21629,-8.20637,92.2599
2023-03-10 23:48:09:254,0,-2.22304,-8.20538,92.2639
2023-03-10 23:48:09:264,0,-2.22786,-8.20308,92.2644
2023-03-10 23:48:09:274,0,-2.23296,-8.20376,92.2646
2023-03-10 23:48:09:284,0,-2.23358,-8.20483,92.2608
2023-03-10 23:48:09:294,0,-2.23721,-8.20425,92.2588
2023-03-10 23:48:09:304,0,-2.23701,-8.20677,92.2534
2023-03-10 23:48:09:314,0,-2.23706,-8.21023,92.2481
2023-03-10 23:48:09:324,0,-2.23365,-8.21677,92.2409
2023-03-10 23:48:09:334,0,-2.22587,-8.22399,92.2291
2023-03-10 23:48:09:344,0,-2.21457,-8.2269,92.2133
2023-03-10 23:48:09:354,0,-2.20746,-8.22961,92.1979
2023-03-10 23:48:09:364,0,-2.20352,-8.23435,92.18
2023-03-10 23:48:09:374,0,-2.19932,-8.23825,92.1597
2023-03-10 23:48:09:384,0,-2.19001,-8.2356,92.144
2023-03-10 23:48:09:394,0,-2.18644,-8.23147,92.1322
2023-03-10 23:48:09:404,0,-2.18656,-8.2261,92.1259
2023-03-10 23:48:09:414,0,-2.18669,-8.21809,92.1201
2023-03-10 23:48:09:424,0,-2.18002,-8.21008,92.117
2023-03-10 23:48:09:434,0,-2.17409,-8.20437,92.1191
2023-03-10 23:48:09:444,0,-2.16717,-8.20071,92.1208
2023-03-10 23:48:09:454,0,-2.15994,-8.20069,92.1212
2023-03-10 23:48:09:464,0,-2.15023,-8.2061,92.1195
2023-03-10 23:48:09:474,0,-2.13344,-8.21309,92.1166
2023-03-10 23:48:09:484,0,-2.11577,-8.22007,92.1088
2023-03-10 23:48:09:494,0,-2.10097,-8.22504,92.0955
2023-03-10 23:48:09:504,0,-2.08806,-8.23113,92.0812
2023-03-10 23:48:09:514,0,-2.07343,-8.23689,92.065
2023-03-10 23:48:09:524,0,-2.06295,-8.23795,92.0503
2023-03-10 23:48:09:534,0,-2.0546,-8.24154,92.0404
2023-03-10 23:48:09:544,0,-2.04603,-8.24475,92.0299
2023-03-10 23:48:09:554,0,-2.03096,-8.25001,92.0177
2023-03-10 23:48:09:564,0,-2.0124,-8.26157,92.0074
2023-03-10 23:48:09:574,0,-1.98769,-8.27329,92.002
2023-03-10 23:48:09:584,0,-1.96103,-8.28687,91.9961
2023-03-10 23:48:09:594,0,-1.93459,-8.30535,91.9859
2023-03-10 23:48:09:604,0,-1.91216,-8.31961,91.9742
2023-03-10 23:48:09:614,0,-1.89396,-8.33288,91.9651
2023-03-10 23:48:09:624,0,-1.87248,-8.3448,91.9548
2023-03-10 23:48:09:634,0,-1.84253,-8.36031,91.94
2023-03-10 23:48:09:644,0,-1.79924,-8.37459,91.9269
2023-03-10 23:48:09:654,0,-1.74466,-8.39179,91.9151
2023-03-10 23:48:09:664,0,-1.68824,-8.40682,91.902
2023-03-10 23:48:09:674,0,-1.63425,-8.42435,91.8884
2023-03-10 23:48:09:684,0,-1.58986,-8.44268,91.8746
2023-03-10 23:48:09:694,0,-1.55483,-8.46298,91.8571
2023-03-10 23:48:09:704,0,-1.52528,-8.48071,91.8418
2023-03-10 23:48:09:714,0,-1.50519,-8.50139,91.8307
2023-03-10 23:48:09:724,0,-1.48952,-8.52134,91.8167
2023-03-10 23:48:09:734,0,-1.47288,-8.53773,91.8066
2023-03-10 23:48:09:744,0,-1.4526,-8.55418,91.7936
2023-03-10 23:48:09:754,0,-1.43471,-8.56743,91.7874
2023-03-10 23:48:09:764,0,-1.41365,-8.58144,91.7764
2023-03-10 23:48:09:774,0,-1.39718,-8.59327,91.7689
2023-03-10 23:48:09:784,0,-1.37898,-8.60256,91.7651
2023-03-10 23:48:09:794,0,-1.36325,-8.61442,91.7597
2023-03-10 23:48:09:804,0,-1.35412,-8.62452,91.7546
2023-03-10 23:48:09:814,0,-1.34915,-8.63907,91.7513
2023-03-10 23:48:09:824,0,-1.34782,-8.64832,91.7484
2023-03-10 23:48:09:834,0,-1.34739,-8.65217,91.7403
2023-03-10 23:48:09:844,0,-1.34873,-8.65904,91.7367
2023-03-10 23:48:09:854,0,-1.35492,-8.66605,91.7335
2023-03-10 23:48:09:864,0,-1.36119,-8.67318,91.7271
2023-03-10 23:48:09:874,0,-1.3711,-8.67614,91.7233
2023-03-10 23:48:09:884,0,-1.37562,-8.6754,91.7166
2023-03-10 23:48:09:894,0,-1.37986,-8.6812,91.7103
2023-03-10 23:48:09:904,0,-1.37976,-8.68202,91.704
2023-03-10 23:48:09:914,0,-1.38077,-8.67703,91.6964
2023-03-10 23:48:09:924,0,-1.38118,-8.67024,91.6857
2023-03-10 23:48:09:934,0,-1.37995,-8.66492,91.6718
2023-03-10 23:48:09:944,0,-1.37852,-8.65843,91.657
2023-03-10 23:48:09:954,0,-1.38069,-8.65556,91.6427
2023-03-10 23:48:09:964,0,-1.3849,-8.65707,91.6301
2023-03-10 23:48:09:974,0,-1.38873,-8.66052,91.6246
2023-03-10 23:48:09:984,0,-1.39266,-8.66404,91.6144
2023-03-10 23:48:09:994,0,-1.3978,-8.6652,91.6051
2023-03-10 23:48:10:4,0,-1.4047,-8.6712,91.597
2023-03-10 23:48:10:14,0,-1.40577,-8.67506,91.5904
2023-03-10 23:48:10:24,0,-1.40555,-8.67897,91.584
2023-03-10 23:48:10:34,0,-1.40406,-8.68214,91.5764
2023-03-10 23:48:10:44,0,-1.40201,-8.6861,91.5676
2023-03-10 23:48:10:54,0,-1.3978,-8.68643,91.5574
2023-03-10 23:48:10:64,0,-1.39408,-8.68651,91.5493
2023-03-10 23:48:10:74,0,-1.38424,-8.68719,91.5396
2023-03-10 23:48:10:84,0,-1.37365,-8.68931,91.5281
2023-03-10 23:48:10:94,0,-1.35665,-8.69349,91.5148
2023-03-10 23:48:10:104,0,-1.33239,-8.70084,91.5009
2023-03-10 23:48:10:114,0,-1.29378,-8.71329,91.4837
2023-03-10 23:48:10:124,0,-1.23985,-8.72708,91.4674
2023-03-10 23:48:10:134,0,-1.17685,-8.74508,91.4444
2023-03-10 23:48:10:144,0,-1.1127,-8.7613,91.4219
2023-03-10 23:48:10:154,0,-1.04941,-8.78082,91.4013
2023-03-10 23:48:10:164,0,-0.991818,-8.79987,91.3754
2023-03-10 23:48:10:174,0,-0.938339,-8.8184,91.3511
2023-03-10 23:48:10:184,0,-0.887877,-8.83415,91.3287
2023-03-10 23:48:10:194,0,-0.838896,-8.85387,91.3062
2023-03-10 23:48:10:204,0,-0.792756,-8.87528,91.2916
2023-03-10 23:48:10:214,0,-0.749369,-8.89935,91.284
2023-03-10 23:48:10:224,0,-0.713179,-8.91715,91.2736
2023-03-10 23:48:10:234,0,-0.674465,-8.93494,91.2649
2023-03-10 23:48:10:244,0,-0.638369,-8.95485,91.2576
2023-03-10 23:48:10:254,0,-0.598463,-8.96612,91.2496
2023-03-10 23:48:10:264,0,-0.560342,-8.979,91.2408
2023-03-10 23:48:10:274,0,-0.529463,-8.98839,91.2316
2023-03-10 23:48:10:284,0,-0.499808,-8.996,91.218
2023-03-10 23:48:10:294,0,-0.473956,-9.00321,91.2048
2023-03-10 23:48:10:304,0,-0.452964,-9.01029,91.1883
2023-03-10 23:48:10:314,0,-0.438417,-9.01892,91.1778
2023-03-10 23:48:10:324,0,-0.426288,-9.02605,91.1663
2023-03-10 23:48:10:334,0,-0.412807,-9.0361,91.1611
2023-03-10 23:48:10:344,0,-0.402831,-9.04406,91.1578
2023-03-10 23:48:10:354,0,-0.395414,-9.05802,91.1576
2023-03-10 23:48:10:364,0,-0.392451,-9.06994,91.158
2023-03-10 23:48:10:374,0,-0.388199,-9.07665,91.1589
2023-03-10 23:48:10:384,0,-0.38412,-9.07786,91.1616
2023-03-10 23:48:10:394,0,-0.378021,-9.07945,91.1572
2023-03-10 23:48:10:404,0,-0.367413,-9.07803,91.1499
2023-03-10 23:48:10:414,0,-0.351602,-9.07308,91.1402
2023-03-10 23:48:10:424,0,-0.333698,-9.07001,91.1241
2023-03-10 23:48:10:434,0,-0.31533,-9.05907,91.1086
2023-03-10 23:48:10:444,0,-0.300775,-9.05161,91.0868
2023-03-10 23:48:10:454,0,-0.290311,-9.04383,91.0649
2023-03-10 23:48:10:464,0,-0.28603,-9.03679,91.0467
2023-03-10 23:48:10:474,0,-0.278959,-9.03098,91.0242
2023-03-10 23:48:10:484,0,-0.269146,-9.02704,90.9972
2023-03-10 23:48:10:494,0,-0.250528,-9.02074,90.9706
2023-03-10 23:48:10:504,0,-0.235498,-9.01247,90.9433
2023-03-10 23:48:10:514,0,-0.22008,-9.00335,90.9157
2023-03-10 23:48:10:524,0,-0.202839,-8.99237,90.8849
2023-03-10 23:48:10:534,0,-0.185729,-8.97815,90.8564
2023-03-10 23:48:10:544,0,-0.174324,-8.96592,90.8299
2023-03-10 23:48:10:554,0,-0.165736,-8.95514,90.8058
2023-03-10 23:48:10:564,0,-0.152931,-8.9515,90.7827
2023-03-10 23:48:10:574,0,-0.123825,-8.9504,90.7606
2023-03-10 23:48:10:584,0,-0.0770335,-8.94592,90.7317
2023-03-10 23:48:10:594,0,-0.0193339,-8.94445,90.7069
2023-03-10 23:48:10:604,0,0.0463683,-8.94555,90.685
2023-03-10 23:48:10:614,0,0.106294,-8.94498,90.6592
2023-03-10 23:48:10:624,0,0.158788,-8.94634,90.6343
2023-03-10 23:48:10:634,0,0.196979,-8.95248,90.6123
2023-03-10 23:48:10:644,0,0.228384,-8.96009,90.5939
2023-03-10 23:48:10:654,0,0.258818,-8.97202,90.5825
2023-03-10 23:48:10:664,0,0.287183,-8.98321,90.5725
2023-03-10 23:48:10:674,0,0.310189,-8.99747,90.5633
2023-03-10 23:48:10:684,0,0.332966,-9.0057,90.5624
2023-03-10 23:48:10:694,0,0.354068,-9.01528,90.5671
2023-03-10 23:48:10:704,0,0.379673,-9.02134,90.5662
2023-03-10 23:48:10:714,0,0.40372,-9.02539,90.5683
2023-03-10 23:48:10:724,0,0.427517,-9.02698,90.5731
2023-03-10 23:48:10:734,0,0.450199,-9.02912,90.5762
2023-03-10 23:48:10:744,0,0.465706,-9.03146,90.5837
2023-03-10 23:48:10:754,0,0.486337,-9.03906,90.5935
2023-03-10 23:48:10:764,0,0.507098,-9.04209,90.6014
2023-03-10 23:48:10:774,0,0.519251,-9.04796,90.6111
2023-03-10 23:48:10:784,0,0.533574,-9.05169,90.6188
2023-03-10 23:48:10:794,0,0.550296,-9.05739,90.6266
2023-03-10 23:48:10:804,0,0.568727,-9.05987,90.6345
2023-03-10 23:48:10:814,0,0.583559,-9.06057,90.6383
2023-03-10 23:48:10:824,0,0.596232,-9.06232,90.6402
2023-03-10 23:48:10:834,0,0.605853,-9.06596,90.6412
2023-03-10 23:48:10:844,0,0.619266,-9.0636,90.6409
2023-03-10 23:48:10:854,0,0.640404,-9.05873,90.6392
2023-03-10 23:48:10:864,0,0.662333,-9.05624,90.6322
2023-03-10 23:48:10:874,0,0.689075,-9.05184,90.6228
2023-03-10 23:48:10:884,0,0.716166,-9.05208,90.6111
2023-03-10 23:48:10:894,0,0.744698,-9.05082,90.5981
2023-03-10 23:48:10:904,0,0.775884,-9.04817,90.5872
2023-03-10 23:48:10:914,0,0.803624,-9.04671,90.5741
2023-03-10 23:48:10:924,0,0.828596,-9.04574,90.5658
2023-03-10 23:48:10:934,0,0.853819,-9.042,90.5572
2023-03-10 23:48:10:944,0,0.877293,-9.03764,90.5505
2023-03-10 23:48:10:954,0,0.897056,-9.03015,90.5431
2023-03-10 23:48:10:964,0,0.918939,-9.02694,90.5378
2023-03-10 23:48:10:974,0,0.934931,-9.02613,90.5353
2023-03-10 23:48:10:984,0,0.947951,-9.02636,90.5324
2023-03-10 23:48:10:994,0,0.96045,-9.02387,90.5313
2023-03-10 23:48:11:4,0,0.970946,-9.02375,90.5243
2023-03-10 23:48:11:14,0,0.978163,-9.02009,90.5196
2023-03-10 23:48:11:24,0,0.987458,-9.01658,90.5132
2023-03-10 23:48:11:34,0,0.998231,-9.01326,90.503
2023-03-10 23:48:11:44,0,1.00976,-9.0108,90.4951
2023-03-10 23:48:11:54,0,1.02069,-9.00495,90.4875
2023-03-10 23:48:11:64,0,1.02971,-9.0026,90.4799
2023-03-10 23:48:11:74,0,1.03756,-9.00428,90.4771
2023-03-10 23:48:11:84,0,1.04515,-9.00405,90.4761
2023-03-10 23:48:11:94,0,1.05081,-9.00879,90.4792
2023-03-10 23:48:11:104,0,1.05465,-9.0092,90.4778
2023-03-10 23:48:11:114,0,1.06051,-9.01339,90.4822
2023-03-10 23:48:11:124,0,1.06489,-9.01526,90.4876
2023-03-10 23:48:11:134,0,1.07008,-9.01618,90.4943
2023-03-10 23:48:11:144,0,1.06991,-9.02086,90.5015
2023-03-10 23:48:11:154,0,1.07133,-9.02709,90.507
2023-03-10 23:48:11:164,0,1.07237,-9.02887,90.5114
2023-03-10 23:48:11:174,0,1.07944,-9.03274,90.5153
2023-03-10 23:48:11:184,0,1.08565,-9.03395,90.5176
2023-03-10 23:48:11:194,0,1.096,-9.03947,90.5188
2023-03-10 23:48:11:204,0,1.10789,-9.04579,90.5184
2023-03-10 23:48:11:214,0,1.12129,-9.04962,90.5179
2023-03-10 23:48:11:224,0,1.13124,-9.04923,90.5127
2023-03-10 23:48:11:234,0,1.14145,-9.04567,90.5088
2023-03-10 23:48:11:244,0,1.15278,-9.04874,90.5072
2023-03-10 23:48:11:254,0,1.16163,-9.04974,90.5033
2023-03-10 23:48:11:264,0,1.16906,-9.04896,90.4982
2023-03-10 23:48:11:274,0,1.17528,-9.05001,90.4896
2023-03-10 23:48:11:284,0,1.18674,-9.05235,90.481
2023-03-10 23:48:11:294,0,1.19782,-9.05791,90.4758
2023-03-10 23:48:11:304,0,1.2006,-9.06699,90.4729
2023-03-10 23:48:11:314,0,1.20309,-9.07674,90.4688
2023-03-10 23:48:11:324,0,1.20397,-9.08522,90.4661
2023-03-10 23:48:11:334,0,1.20382,-9.09082,90.4666
2023-03-10 23:48:11:344,0,1.19956,-9.09754,90.4689
2023-03-10 23:48:11:354,0,1.19364,-9.10353,90.469
2023-03-10 23:48:11:364,0,1.18501,-9.11128,90.4674
2023-03-10 23:48:11:374,0,1.17974,-9.11565,90.4646
2023-03-10 23:48:11:384,0,1.17599,-9.12171,90.4627
2023-03-10 23:48:11:394,0,1.16977,-9.12551,90.4603
2023-03-10 23:48:11:404,0,1.16392,-9.1304,90.4604
2023-03-10 23:48:11:414,0,1.15924,-9.13185,90.459
2023-03-10 23:48:11:424,0,1.15528,-9.13482,90.4532
2023-03-10 23:48:11:434,0,1.14958,-9.13875,90.4517
2023-03-10 23:48:11:444,0,1.14317,-9.13904,90.4484
2023-03-10 23:48:11:454,0,1.13507,-9.13925,90.445
2023-03-10 23:48:11:464,0,1.12638,-9.13689,90.4407
2023-03-10 23:48:11:474,0,1.11637,-9.13611,90.4398
2023-03-10 23:48:11:484,0,1.11063,-9.13308,90.4334
2023-03-10 23:48:11:494,0,1.1058,-9.12799,90.4267
2023-03-10 23:48:11:504,0,1.09798,-9.12097,90.4182
2023-03-10 23:48:11:514,0,1.09276,-9.11372,90.4092
2023-03-10 23:48:11:524,0,1.08559,-9.10679,90.3976
2023-03-10 23:48:11:534,0,1.08315,-9.09597,90.3795
2023-03-10 23:48:11:544,0,1.08765,-9.08723,90.36
2023-03-10 23:48:11:554,0,1.09111,-9.08403,90.3392
2023-03-10 23:48:11:564,0,1.09785,-9.07895,90.3267
2023-03-10 23:48:11:574,0,1.10541,-9.08188,90.3178
2023-03-10 23:48:11:584,0,1.11162,-9.08485,90.3073
2023-03-10 23:48:11:594,0,1.11376,-9.08604,90.2994
2023-03-10 23:48:11:604,0,1.11277,-9.08559,90.2904
2023-03-10 23:48:11:614,0,1.11122,-9.08602,90.2863
2023-03-10 23:48:11:624,0,1.11197,-9.08272,90.2854
2023-03-10 23:48:11:634,0,1.11314,-9.08179,90.2829
2023-03-10 23:48:11:644,0,1.11805,-9.07955,90.2849
2023-03-10 23:48:11:654,0,1.12265,-9.07942,90.2832
2023-03-10 23:48:11:664,0,1.13072,-9.0799,90.2787
2023-03-10 23:48:11:674,0,1.13623,-9.08394,90.2783
2023-03-10 23:48:11:684,0,1.14322,-9.08466,90.2708
2023-03-10 23:48:11:694,0,1.14614,-9.08474,90.2638
2023-03-10 23:48:11:704,0,1.14664,-9.09132,90.2579
2023-03-10 23:48:11:714,0,1.14876,-9.0921,90.2451
2023-03-10 23:48:11:724,0,1.14488,-9.09464,90.2325
2023-03-10 23:48:11:734,0,1.13474,-9.10116,90.2197
2023-03-10 23:48:11:744,0,1.12318,-9.10854,90.2084
2023-03-10 23:48:11:754,0,1.11179,-9.11784,90.1976
2023-03-10 23:48:11:764,0,1.10159,-9.12728,90.1865
2023-03-10 23:48:11:774,0,1.09431,-9.13592,90.1738
2023-03-10 23:48:11:784,0,1.08486,-9.13949,90.1641
2023-03-10 23:48:11:794,0,1.08112,-9.13875,90.1546
2023-03-10 23:48:11:804,0,1.07553,-9.1413,90.1469
2023-03-10 23:48:11:814,0,1.07067,-9.13984,90.1394
2023-03-10 23:48:11:824,0,1.06946,-9.13843,90.1317
2023-03-10 23:48:11:834,0,1.06697,-9.13893,90.1242
2023-03-10 23:48:11:844,0,1.06463,-9.13585,90.117
2023-03-10 23:48:11:854,0,1.0686,-9.13176,90.1095
2023-03-10 23:48:11:864,0,1.0726,-9.12658,90.1002
2023-03-10 23:48:11:874,0,1.07551,-9.12149,90.0938
2023-03-10 23:48:11:884,0,1.0754,-9.12165,90.0912
2023-03-10 23:48:11:894,0,1.07332,-9.12102,90.09
2023-03-10 23:48:11:904,0,1.07246,-9.11427,90.0923
2023-03-10 23:48:11:914,0,1.07484,-9.10825,90.0922
2023-03-10 23:48:11:924,0,1.07426,-9.10571,90.0955
2023-03-10 23:48:11:934,0,1.07245,-9.09913,90.0989
2023-03-10 23:48:11:944,0,1.07359,-9.09142,90.1005
2023-03-10 23:48:11:954,0,1.0773,-9.08143,90.103
2023-03-10 23:48:11:964,0,1.08595,-9.0772,90.1037
2023-03-10 23:48:11:974,0,1.09239,-9.07807,90.1122
2023-03-10 23:48:11:984,0,1.10024,-9.07638,90.124
2023-03-10 23:48:11:994,0,1.10622,-9.07767,90.1337
2023-03-10 23:48:12:4,0,1.11497,-9.07856,90.1443
2023-03-10 23:48:12:14,0,1.12173,-9.07331,90.1499
2023-03-10 23:48:12:24,0,1.12859,-9.07329,90.1577
2023-03-10 23:48:12:34,0,1.13717,-9.07526,90.1656
2023-03-10 23:48:12:44,0,1.14314,-9.07578,90.1729
2023-03-10 23:48:12:54,0,1.15067,-9.07834,90.1803
2023-03-10 23:48:12:64,0,1.1616,-9.07654,90.1871
2023-03-10 23:48:12:74,0,1.17262,-9.07463,90.1972
2023-03-10 23:48:12:84,0,1.182,-9.07627,90.2059
2023-03-10 23:48:12:94,0,1.19395,-9.07965,90.2144
2023-03-10 23:48:12:104,0,1.21343,-9.08529,90.2187
2023-03-10 23:48:12:114,0,1.22686,-9.09018,90.2225
2023-03-10 23:48:12:124,0,1.2418,-9.096,90.2269
2023-03-10 23:48:12:134,0,1.24745,-9.10274,90.2347
2023-03-10 23:48:12:144,0,1.25654,-9.10941,90.2441
2023-03-10 23:48:12:154,0,1.26173,-9.11452,90.2508
2023-03-10 23:48:12:164,0,1.26977,-9.12109,90.2643
2023-03-10 23:48:12:174,0,1.28011,-9.12398,90.2746
2023-03-10 23:48:12:184,0,1.29168,-9.12544,90.2855
2023-03-10 23:48:12:194,0,1.30305,-9.1274,90.2953
2023-03-10 23:48:12:204,0,1.30915,-9.12873,90.3086
2023-03-10 23:48:12:214,0,1.32095,-9.13372,90.3182
2023-03-10 23:48:12:224,0,1.32858,-9.13902,90.3257
2023-03-10 23:48:12:234,0,1.33905,-9.14148,90.3327
2023-03-10 23:48:12:244,0,1.34332,-9.14536,90.3366
2023-03-10 23:48:12:254,0,1.3441,-9.14426,90.3435
2023-03-10 23:48:12:264,0,1.34002,-9.14594,90.3481
2023-03-10 23:48:12:274,0,1.33875,-9.14373,90.3494
2023-03-10 23:48:12:284,0,1.34171,-9.14281,90.3505
2023-03-10 23:48:12:294,0,1.3479,-9.14761,90.3551
2023-03-10 23:48:12:304,0,1.35159,-9.15622,90.3626
2023-03-10 23:48:12:314,0,1.35339,-9.15971,90.3694
2023-03-10 23:48:12:324,0,1.35361,-9.16053,90.3767
2023-03-10 23:48:12:334,0,1.35521,-9.16482,90.3836
2023-03-10 23:48:12:344,0,1.35485,-9.16525,90.3907
2023-03-10 23:48:12:354,0,1.35736,-9.16083,90.3951
2023-03-10 23:48:12:364,0,1.36759,-9.15388,90.3998
2023-03-10 23:48:12:374,0,1.38194,-9.15032,90.4062
2023-03-10 23:48:12:384,0,1.39689,-9.14608,90.416
2023-03-10 23:48:12:394,0,1.41417,-9.13786,90.4267
2023-03-10 23:48:12:404,0,1.42734,-9.12927,90.4422
2023-03-10 23:48:12:414,0,1.43525,-9.12012,90.4612
2023-03-10 23:48:12:425,0,1.4426,-9.11312,90.4804
2023-03-10 23:48:12:434,0,1.44195,-9.10101,90.5045
2023-03-10 23:48:12:444,0,1.44252,-9.08754,90.5357
2023-03-10 23:48:12:454,0,1.44165,-9.06913,90.5671
2023-03-10 23:48:12:464,0,1.44128,-9.04991,90.602
2023-03-10 23:48:12:474,0,1.44032,-9.03064,90.6344
2023-03-10 23:48:12:484,0,1.43583,-9.01299,90.6627
2023-03-10 23:48:12:494,0,1.43258,-8.9943,90.6898
2023-03-10 23:48:12:504,0,1.42057,-8.97928,90.716
2023-03-10 23:48:12:514,0,1.41533,-8.96756,90.7401
2023-03-10 23:48:12:524,0,1.41301,-8.95567,90.7541
2023-03-10 23:48:12:534,0,1.41218,-8.94476,90.7612
2023-03-10 23:48:12:544,0,1.41295,-8.93602,90.7576
2023-03-10 23:48:12:554,0,1.42037,-8.93058,90.7512
2023-03-10 23:48:12:564,0,1.43051,-8.93154,90.7397
2023-03-10 23:48:12:574,0,1.43807,-8.93858,90.724
2023-03-10 23:48:12:584,0,1.43779,-8.94498,90.7067
2023-03-10 23:48:12:594,0,1.44026,-8.95191,90.6866
2023-03-10 23:48:12:604,0,1.44062,-8.95904,90.6651
2023-03-10 23:48:12:614,0,1.44117,-8.96058,90.6452
2023-03-10 23:48:12:624,0,1.44351,-8.96337,90.6298
2023-03-10 23:48:12:634,0,1.44646,-8.96984,90.6174
2023-03-10 23:48:12:644,0,1.44998,-8.97855,90.6082
2023-03-10 23:48:12:654,0,1.44868,-8.98703,90.6061
2023-03-10 23:48:12:664,0,1.44575,-8.99298,90.6084
2023-03-10 23:48:12:674,0,1.44162,-9.00076,90.6176
2023-03-10 23:48:12:684,0,1.43758,-9.00758,90.6288
2023-03-10 23:48:12:694,0,1.43611,-9.01227,90.6467
2023-03-10 23:48:12:704,0,1.4343,-9.02033,90.6665
2023-03-10 23:48:12:714,0,1.43344,-9.02451,90.6837
2023-03-10 23:48:12:724,0,1.43384,-9.02995,90.703
2023-03-10 23:48:12:734,0,1.43181,-9.03765,90.722
2023-03-10 23:48:12:744,0,1.42761,-9.04525,90.7355
2023-03-10 23:48:12:754,0,1.42653,-9.05311,90.7488
2023-03-10 23:48:12:764,0,1.42176,-9.06381,90.7602
2023-03-10 23:48:12:774,0,1.41753,-9.07069,90.7708
2023-03-10 23:48:12:784,0,1.41152,-9.07467,90.7804
2023-03-10 23:48:12:794,0,1.40591,-9.0789,90.7857
2023-03-10 23:48:12:804,0,1.40095,-9.084,90.7902
2023-03-10 23:48:12:814,0,1.39788,-9.08299,90.7899
2023-03-10 23:48:12:824,0,1.39518,-9.08545,90.7919
2023-03-10 23:48:12:834,0,1.39142,-9.08578,90.789
2023-03-10 23:48:12:844,0,1.39251,-9.0851,90.7867
2023-03-10 23:48:12:854,0,1.392,-9.08408,90.7808
2023-03-10 23:48:12:864,0,1.39499,-9.08392,90.7734
2023-03-10 23:48:12:874,0,1.39422,-9.08442,90.7708
2023-03-10 23:48:12:884,0,1.39213,-9.08749,90.7733
2023-03-10 23:48:12:894,0,1.39055,-9.09232,90.7782
2023-03-10 23:48:12:904,0,1.3908,-9.09665,90.783
2023-03-10 23:48:12:914,0,1.39375,-9.09782,90.7898
2023-03-10 23:48:12:924,0,1.39436,-9.10219,90.7963
2023-03-10 23:48:12:934,0,1.396,-9.10813,90.8072
2023-03-10 23:48:12:944,0,1.39416,-9.11692,90.8181
2023-03-10 23:48:12:954,0,1.39643,-9.12272,90.8281
2023-03-10 23:48:12:964,0,1.39557,-9.12499,90.8412
2023-03-10 23:48:12:974,0,1.39506,-9.1335,90.8492
2023-03-10 23:48:12:984,0,1.39069,-9.13485,90.8637
2023-03-10 23:48:12:994,0,1.38647,-9.13924,90.8763
2023-03-10 23:48:13:4,0,1.38381,-9.14694,90.8873
2023-03-10 23:48:13:14,0,1.37863,-9.15376,90.8978
2023-03-10 23:48:13:24,0,1.3767,-9.16195,90.9066
2023-03-10 23:48:13:34,0,1.37069,-9.16759,90.9169
2023-03-10 23:48:13:44,0,1.36538,-9.1734,90.9256
2023-03-10 23:48:13:54,0,1.35932,-9.17945,90.9384
2023-03-10 23:48:13:64,0,1.35412,-9.18314,90.9462
2023-03-10 23:48:13:74,0,1.34921,-9.1875,90.9528
2023-03-10 23:48:13:84,0,1.34388,-9.19276,90.9611
2023-03-10 23:48:13:94,0,1.33531,-9.19749,90.972
2023-03-10 23:48:13:104,0,1.32574,-9.20108,90.9802
2023-03-10 23:48:13:114,0,1.31936,-9.20364,90.9885
2023-03-10 23:48:13:124,0,1.3161,-9.20607,90.9965
2023-03-10 23:48:13:134,0,1.31271,-9.20653,91.004
2023-03-10 23:48:13:144,0,1.31009,-9.2057,91.0135
2023-03-10 23:48:13:154,0,1.31111,-9.20244,91.019
2023-03-10 23:48:13:164,0,1.31298,-9.20266,91.0255
2023-03-10 23:48:13:174,0,1.31922,-9.2006,91.0273
2023-03-10 23:48:13:184,0,1.32865,-9.19894,91.0256
2023-03-10 23:48:13:194,0,1.33474,-9.19331,91.0218
2023-03-10 23:48:13:204,0,1.33971,-9.18697,91.0126
2023-03-10 23:48:13:214,0,1.34275,-9.18271,91.0054
2023-03-10 23:48:13:224,0,1.34475,-9.18041,90.9989
2023-03-10 23:48:13:234,0,1.34444,-9.17665,90.9902
2023-03-10 23:48:13:244,0,1.34736,-9.17,90.9807
2023-03-10 23:48:13:254,0,1.34615,-9.16495,90.974
2023-03-10 23:48:13:264,0,1.35133,-9.16442,90.9699
2023-03-10 23:48:13:274,0,1.35516,-9.17022,90.9728
2023-03-10 23:48:13:284,0,1.35691,-9.17155,90.9765
2023-03-10 23:48:13:294,0,1.3572,-9.1739,90.9825
2023-03-10 23:48:13:304,0,1.35893,-9.17488,90.9868
2023-03-10 23:48:13:314,0,1.35488,-9.17486,90.993
2023-03-10 23:48:13:324,0,1.35579,-9.17521,90.9989
2023-03-10 23:48:13:334,0,1.35279,-9.17662,91.0049
2023-03-10 23:48:13:344,0,1.35447,-9.18114,91.0108
2023-03-10 23:48:13:354,0,1.35684,-9.18497,91.0124
2023-03-10 23:48:13:364,0,1.36108,-9.19066,91.0149
2023-03-10 23:48:13:374,0,1.36996,-9.1934,91.0144
2023-03-10 23:48:13:384,0,1.37471,-9.19804,91.0152
2023-03-10 23:48:13:394,0,1.37287,-9.19783,91.0168
2023-03-10 23:48:13:404,0,1.36981,-9.19449,91.0237
2023-03-10 23:48:13:414,0,1.36873,-9.19572,91.0282
2023-03-10 23:48:13:424,0,1.36546,-9.19409,91.0335
2023-03-10 23:48:13:434,0,1.3668,-9.18915,91.0386
2023-03-10 23:48:13:444,0,1.3676,-9.18516,91.0475
2023-03-10 23:48:13:454,0,1.36827,-9.18151,91.0563
2023-03-10 23:48:13:464,0,1.37378,-9.18004,91.066
2023-03-10 23:48:13:474,0,1.37778,-9.17443,91.0719
2023-03-10 23:48:13:484,0,1.38624,-9.17043,91.0773
2023-03-10 23:48:13:494,0,1.39688,-9.16439,91.0793
2023-03-10 23:48:13:504,0,1.40918,-9.15347,91.0802
2023-03-10 23:48:13:514,0,1.42968,-9.14494,91.0737
2023-03-10 23:48:13:524,0,1.45297,-9.1363,91.0661
2023-03-10 23:48:13:534,0,1.47328,-9.13476,91.0634
2023-03-10 23:48:13:544,0,1.49305,-9.13891,91.0632
2023-03-10 23:48:13:554,0,1.51145,-9.14448,91.0683
2023-03-10 23:48:13:564,0,1.52765,-9.14759,91.077
2023-03-10 23:48:13:574,0,1.54167,-9.15246,91.0879
2023-03-10 23:48:13:584,0,1.55478,-9.15645,91.0938
2023-03-10 23:48:13:594,0,1.57084,-9.16118,91.1056
2023-03-10 23:48:13:604,0,1.58766,-9.16966,91.1177
2023-03-10 23:48:13:614,0,1.60372,-9.17547,91.1336
2023-03-10 23:48:13:624,0,1.62014,-9.17989,91.1473
2023-03-10 23:48:13:634,0,1.63581,-9.18414,91.1587
2023-03-10 23:48:13:644,0,1.65299,-9.19182,91.1685
2023-03-10 23:48:13:655,0,1.66626,-9.1991,91.1774
2023-03-10 23:48:13:664,0,1.67709,-9.20872,91.1898
2023-03-10 23:48:13:674,0,1.68286,-9.22011,91.2068
2023-03-10 23:48:13:684,0,1.68587,-9.23446,91.2245
2023-03-10 23:48:13:694,0,1.69301,-9.25097,91.2442
2023-03-10 23:48:13:704,0,1.69718,-9.26523,91.2619
2023-03-10 23:48:13:715,0,1.70142,-9.27805,91.2785
2023-03-10 23:48:13:724,0,1.7027,-9.29108,91.2948
2023-03-10 23:48:13:734,0,1.70314,-9.29978,91.3135
2023-03-10 23:48:13:744,0,1.70574,-9.30744,91.3293
2023-03-10 23:48:13:754,0,1.70275,-9.31212,91.3464
2023-03-10 23:48:13:764,0,1.70511,-9.31762,91.3594
2023-03-10 23:48:13:775,0,1.71144,-9.32298,91.3715
2023-03-10 23:48:13:784,0,1.71485,-9.32626,91.3788
2023-03-10 23:48:13:794,0,1.71601,-9.32509,91.3859
2023-03-10 23:48:13:804,0,1.72242,-9.32479,91.3924
2023-03-10 23:48:13:814,0,1.73065,-9.31816,91.3927
2023-03-10 23:48:13:824,0,1.74202,-9.3142,91.3927
2023-03-10 23:48:13:834,0,1.74547,-9.30913,91.3929
2023-03-10 23:48:13:844,0,1.75057,-9.30629,91.393
2023-03-10 23:48:13:854,0,1.75355,-9.30337,91.3904
2023-03-10 23:48:13:864,0,1.75613,-9.29746,91.3852
2023-03-10 23:48:13:874,0,1.75619,-9.29432,91.3807
2023-03-10 23:48:13:884,0,1.75704,-9.29219,91.3731
2023-03-10 23:48:13:894,0,1.76204,-9.28768,91.368
2023-03-10 23:48:13:904,0,1.76515,-9.28308,91.3605
2023-03-10 23:48:13:914,0,1.77228,-9.27713,91.3496
2023-03-10 23:48:13:924,0,1.78229,-9.27364,91.3424
2023-03-10 23:48:13:934,0,1.78759,-9.27043,91.3358
2023-03-10 23:48:13:944,0,1.79276,-9.26889,91.3273
2023-03-10 23:48:13:954,0,1.79265,-9.26434,91.3225
2023-03-10 23:48:13:964,0,1.79034,-9.2629,91.3139
2023-03-10 23:48:13:974,0,1.79107,-9.25883,91.3057
2023-03-10 23:48:13:984,0,1.78681,-9.25572,91.3013
2023-03-10 23:48:13:994,0,1.78317,-9.24768,91.2965
2023-03-10 23:48:14:4,0,1.78296,-9.24594,91.2938
2023-03-10 23:48:14:14,0,1.78189,-9.24448,91.2886
2023-03-10 23:48:14:24,0,1.78227,-9.24045,91.2876
2023-03-10 23:48:14:34,0,1.78122,-9.23757,91.2844
2023-03-10 23:48:14:44,0,1.77683,-9.23781,91.285
2023-03-10 23:48:14:54,0,1.77652,-9.23574,91.2881
2023-03-10 23:48:14:64,0,1.77249,-9.23642,91.2925
2023-03-10 23:48:14:74,0,1.77052,-9.23477,91.2966
2023-03-10 23:48:14:84,0,1.76847,-9.23231,91.2979
2023-03-10 23:48:14:94,0,1.77382,-9.23232,91.3026
2023-03-10 23:48:14:104,0,1.77777,-9.23259,91.3054
2023-03-10 23:48:14:114,0,1.77983,-9.23818,91.309
2023-03-10 23:48:14:124,0,1.78881,-9.23979,91.3112
2023-03-10 23:48:14:134,0,1.79851,-9.2402,91.3148
2023-03-10 23:48:14:144,0,1.80946,-9.2409,91.3122
2023-03-10 23:48:14:154,0,1.821,-9.24016,91.312
2023-03-10 23:48:14:164,0,1.83593,-9.24346,91.3153
2023-03-10 23:48:14:174,0,1.84521,-9.24721,91.3172
2023-03-10 23:48:14:184,0,1.85279,-9.25123,91.325
2023-03-10 23:48:14:194,0,1.86056,-9.25274,91.3279
2023-03-10 23:48:14:204,0,1.87102,-9.2551,91.332
2023-03-10 23:48:14:214,0,1.88411,-9.25388,91.3332
2023-03-10 23:48:14:224,0,1.90016,-9.26197,91.3339
2023-03-10 23:48:14:234,0,1.9157,-9.26559,91.3386
2023-03-10 23:48:14:244,0,1.93371,-9.27453,91.341
2023-03-10 23:48:14:254,0,1.95055,-9.28118,91.3454
2023-03-10 23:48:14:264,0,1.96794,-9.28869,91.3539
2023-03-10 23:48:14:274,0,1.97834,-9.28904,91.3598
2023-03-10 23:48:14:284,0,1.98964,-9.28594,91.3652
2023-03-10 23:48:14:294,0,1.99882,-9.28197,91.3704
2023-03-10 23:48:14:304,0,2.00871,-9.27508,91.376
2023-03-10 23:48:14:314,0,2.02297,-9.27266,91.382
2023-03-10 23:48:14:324,0,2.03534,-9.27158,91.388
2023-03-10 23:48:14:334,0,2.04718,-9.27113,91.3937
2023-03-10 23:48:14:344,0,2.05843,-9.27367,91.4016
2023-03-10 23:48:14:354,0,2.06905,-9.27845,91.4049
2023-03-10 23:48:14:364,0,2.08025,-9.28161,91.4114
2023-03-10 23:48:14:374,0,2.08909,-9.28272,91.4173
2023-03-10 23:48:14:384,0,2.10147,-9.27958,91.4256
2023-03-10 23:48:14:394,0,2.11355,-9.27442,91.4306
2023-03-10 23:48:14:404,0,2.13065,-9.26583,91.4368
2023-03-10 23:48:14:414,0,2.15127,-9.25367,91.4445
2023-03-10 23:48:14:424,0,2.1718,-9.24506,91.4576
2023-03-10 23:48:14:434,0,2.1868,-9.23896,91.4707
2023-03-10 23:48:14:444,0,2.20202,-9.23569,91.4862
2023-03-10 23:48:14:454,0,2.21386,-9.23216,91.5018
2023-03-10 23:48:14:464,0,2.22251,-9.23163,91.523
2023-03-10 23:48:14:474,0,2.23526,-9.2351,91.5415
2023-03-10 23:48:14:484,0,2.24706,-9.23832,91.5644
2023-03-10 23:48:14:494,0,2.26303,-9.23538,91.5888
2023-03-10 23:48:14:504,0,2.27911,-9.23053,91.6114
2023-03-10 23:48:14:514,0,2.29078,-9.21844,91.635
2023-03-10 23:48:14:524,0,2.29548,-9.20014,91.6505
2023-03-10 23:48:14:534,0,2.29638,-9.1813,91.6625
2023-03-10 23:48:14:544,0,2.29705,-9.16123,91.6735
2023-03-10 23:48:14:554,0,2.30043,-9.14372,91.6821
2023-03-10 23:48:14:564,0,2.30646,-9.12823,91.6903
2023-03-10 23:48:14:574,0,2.31034,-9.1175,91.6992
2023-03-10 23:48:14:584,0,2.31106,-9.10964,91.7041
2023-03-10 23:48:14:594,0,2.31251,-9.10371,91.7136
2023-03-10 23:48:14:604,0,2.30803,-9.09778,91.7164
2023-03-10 23:48:14:614,0,2.30012,-9.09014,91.7216
2023-03-10 23:48:14:624,0,2.28677,-9.08348,91.7268
2023-03-10 23:48:14:634,0,2.27636,-9.07581,91.7327
2023-03-10 23:48:14:644,0,2.26414,-9.06901,91.7347
2023-03-10 23:48:14:654,0,2.25533,-9.05919,91.737
2023-03-10 23:48:14:664,0,2.24776,-9.05053,91.7308
2023-03-10 23:48:14:674,0,2.23952,-9.04462,91.7172
2023-03-10 23:48:14:684,0,2.23531,-9.04128,91.6948
2023-03-10 23:48:14:694,0,2.24441,-9.04161,91.6604
2023-03-10 23:48:14:704,0,2.25507,-9.0531,91.6196
2023-03-10 23:48:14:714,0,2.27397,-9.07327,91.5714
2023-03-10 23:48:14:724,0,2.29436,-9.10034,91.5187
2023-03-10 23:48:14:734,0,2.31134,-9.13358,91.46
2023-03-10 23:48:14:744,0,2.3336,-9.16931,91.396
2023-03-10 23:48:14:754,0,2.35202,-9.20369,91.3285
2023-03-10 23:48:14:764,0,2.36556,-9.23228,91.2625
2023-03-10 23:48:14:774,0,2.37408,-9.26698,91.2006
2023-03-10 23:48:14:784,0,2.38003,-9.29695,91.1433
2023-03-10 23:48:14:794,0,2.38715,-9.3263,91.0918
2023-03-10 23:48:14:804,0,2.39238,-9.3535,91.0501
2023-03-10 23:48:14:814,0,2.40125,-9.3828,91.0202
2023-03-10 23:48:14:824,0,2.40984,-9.41002,90.9995
2023-03-10 23:48:14:834,0,2.41975,-9.43307,90.9836
2023-03-10 23:48:14:844,0,2.42559,-9.45465,90.9737
2023-03-10 23:48:14:854,0,2.42788,-9.47227,90.9676
2023-03-10 23:48:14:864,0,2.42963,-9.48228,90.9655
2023-03-10 23:48:14:874,0,2.42847,-9.49206,90.9634
2023-03-10 23:48:14:884,0,2.42793,-9.50027,90.9607
2023-03-10 23:48:14:894,0,2.43467,-9.50211,90.9606
2023-03-10 23:48:14:904,0,2.44621,-9.50104,90.961
2023-03-10 23:48:14:914,0,2.46131,-9.49714,90.9652
2023-03-10 23:48:14:924,0,2.48565,-9.48844,90.9762
2023-03-10 23:48:14:934,0,2.50722,-9.47497,90.988
2023-03-10 23:48:14:944,0,2.52977,-9.45649,91.0024
2023-03-10 23:48:14:954,0,2.55451,-9.43425,91.0175
2023-03-10 23:48:14:964,0,2.57738,-9.4164,91.0414
2023-03-10 23:48:14:974,0,2.60216,-9.39536,91.0649
2023-03-10 23:48:14:984,0,2.63039,-9.37611,91.0926
2023-03-10 23:48:14:994,0,2.65944,-9.35597,91.1252
2023-03-10 23:48:15:4,0,2.68731,-9.34038,91.1572
2023-03-10 23:48:15:14,0,2.7157,-9.32223,91.1918
2023-03-10 23:48:15:24,0,2.73958,-9.3085,91.2264
2023-03-10 23:48:15:34,0,2.76606,-9.29432,91.2594
2023-03-10 23:48:15:44,0,2.79263,-9.28188,91.2911
2023-03-10 23:48:15:54,0,2.8298,-9.27583,91.3246
2023-03-10 23:48:15:64,0,2.86443,-9.27157,91.3616
2023-03-10 23:48:15:74,0,2.90055,-9.2709,91.3956
2023-03-10 23:48:15:84,0,2.93303,-9.27259,91.431
2023-03-10 23:48:15:94,0,2.96795,-9.27576,91.4654
2023-03-10 23:48:15:104,0,3.00282,-9.27495,91.4991
2023-03-10 23:48:15:114,0,3.03881,-9.27485,91.5254
2023-03-10 23:48:15:124,0,3.07336,-9.26919,91.5527
2023-03-10 23:48:15:134,0,3.10825,-9.26406,91.5738
2023-03-10 23:48:15:144,0,3.14272,-9.25982,91.5868
2023-03-10 23:48:15:154,0,3.17612,-9.25663,91.597
2023-03-10 23:48:15:164,0,3.20954,-9.25396,91.6009
2023-03-10 23:48:15:174,0,3.24157,-9.2491,91.6
2023-03-10 23:48:15:184,0,3.27825,-9.2515,91.5945
2023-03-10 23:48:15:194,0,3.32371,-9.25205,91.5904
2023-03-10 23:48:15:204,0,3.37171,-9.25639,91.5888
2023-03-10 23:48:15:214,0,3.42051,-9.25671,91.5898
2023-03-10 23:48:15:224,0,3.46711,-9.25949,91.598
2023-03-10 23:48:15:234,0,3.51459,-9.26061,91.6094
2023-03-10 23:48:15:244,0,3.56114,-9.2653,91.6291
2023-03-10 23:48:15:254,0,3.60376,-9.27271,91.6562
2023-03-10 23:48:15:264,0,3.64564,-9.28222,91.6904
2023-03-10 23:48:15:274,0,3.68648,-9.29289,91.7289
2023-03-10 23:48:15:284,0,3.72539,-9.31015,91.7663
2023-03-10 23:48:15:294,0,3.76008,-9.32176,91.804
2023-03-10 23:48:15:304,0,3.79253,-9.33339,91.8389
2023-03-10 23:48:15:314,0,3.82642,-9.35234,91.875
2023-03-10 23:48:15:324,0,3.8596,-9.37224,91.9066
2023-03-10 23:48:15:334,0,3.88507,-9.39838,91.9396
2023-03-10 23:48:15:344,0,3.90222,-9.43139,91.9706
2023-03-10 23:48:15:354,0,3.9159,-9.46481,91.9948
2023-03-10 23:48:15:364,0,3.91777,-9.49637,92.0154
2023-03-10 23:48:15:374,0,3.91661,-9.52266,92.0333
2023-03-10 23:48:15:384,0,3.91552,-9.54683,92.0437
2023-03-10 23:48:15:394,0,3.91904,-9.56496,92.0526
2023-03-10 23:48:15:404,0,3.92146,-9.58292,92.0599
2023-03-10 23:48:15:414,0,3.93051,-9.59484,92.0665
2023-03-10 23:48:15:424,0,3.94821,-9.60873,92.0722
2023-03-10 23:48:15:434,0,3.97543,-9.61766,92.0861
2023-03-10 23:48:15:444,0,4.00921,-9.6272,92.0942
2023-03-10 23:48:15:454,0,4.04223,-9.63501,92.1091
2023-03-10 23:48:15:464,0,4.07129,-9.64307,92.1272
2023-03-10 23:48:15:474,0,4.09506,-9.64934,92.1459
2023-03-10 23:48:15:484,0,4.12024,-9.65979,92.1672
2023-03-10 23:48:15:494,0,4.14584,-9.66862,92.1882
2023-03-10 23:48:15:504,0,4.17136,-9.67879,92.2085
2023-03-10 23:48:15:514,0,4.19654,-9.69068,92.225
2023-03-10 23:48:15:524,0,4.2239,-9.70008,92.2412
2023-03-10 23:48:15:534,0,4.2544,-9.71077,92.2566
2023-03-10 23:48:15:544,0,4.28763,-9.71677,92.2738
2023-03-10 23:48:15:554,0,4.3232,-9.72427,92.2946
2023-03-10 23:48:15:564,0,4.35888,-9.72921,92.3183
2023-03-10 23:48:15:574,0,4.39632,-9.73524,92.3407
2023-03-10 23:48:15:584,0,4.4248,-9.73773,92.3645
2023-03-10 23:48:15:594,0,4.45004,-9.73873,92.3854
2023-03-10 23:48:15:604,0,4.4733,-9.74204,92.4026
2023-03-10 23:48:15:614,0,4.49334,-9.74656,92.4163
2023-03-10 23:48:15:624,0,4.51198,-9.74625,92.4258
2023-03-10 23:48:15:634,0,4.5327,-9.74683,92.4314
2023-03-10 23:48:15:644,0,4.54766,-9.75083,92.4339
2023-03-10 23:48:15:654,0,4.55723,-9.75303,92.4382
2023-03-10 23:48:15:664,0,4.56636,-9.75845,92.4428
2023-03-10 23:48:15:674,0,4.57875,-9.75933,92.4471
2023-03-10 23:48:15:684,0,4.58927,-9.76089,92.4496
2023-03-10 23:48:15:694,0,4.59757,-9.76559,92.454
2023-03-10 23:48:15:704,0,4.60627,-9.7636,92.4579
2023-03-10 23:48:15:714,0,4.61585,-9.76282,92.4595
