Timestamp_cmd,imu_cmd,roll_delta,pitch_delta,yaw_delta,voice_type,voice_length
2023-03-15 13:25:23:84,0,3.69361,-7.78499,-39.143,Q,Q
2023-03-15 13:25:23:92,0,3.60101,-7.60812,-39.2287,Q,Q
2023-03-15 13:25:23:102,0,3.49586,-7.43665,-39.3108,Q,Q
2023-03-15 13:25:23:112,0,3.39349,-7.27249,-39.3875,Q,Q
2023-03-15 13:25:23:122,0,3.29266,-7.09979,-39.4527,Q,Q
2023-03-15 13:25:23:132,0,3.18148,-6.92802,-39.5136,Q,Q
2023-03-15 13:25:23:143,0,3.07125,-6.75759,-39.5708,Q,Q
2023-03-15 13:25:23:153,0,2.96283,-6.58578,-39.6219,Q,Q
2023-03-15 13:25:23:163,0,2.86447,-6.41387,-39.6692,Q,Q
2023-03-15 13:25:23:173,0,2.78582,-6.24073,-39.7084,Q,Q
2023-03-15 13:25:23:183,0,2.71796,-6.06658,-39.7326,Q,Q
2023-03-15 13:25:23:192,0,2.66365,-5.89333,-39.7329,Q,Q
2023-03-15 13:25:23:203,0,2.62206,-5.72833,-39.715,Q,Q
2023-03-15 13:25:23:213,0,2.5911,-5.56723,-39.6721,Q,Q
2023-03-15 13:25:23:223,0,2.57063,-5.40938,-39.6145,Q,Q
2023-03-15 13:25:23:233,0,2.56539,-5.26151,-39.5434,Q,Q
2023-03-15 13:25:23:243,0,2.57228,-5.12101,-39.4561,Q,Q
2023-03-15 13:25:23:253,0,2.58201,-4.98844,-39.3527,Q,Q
2023-03-15 13:25:23:263,0,2.59333,-4.87063,-39.2257,Q,Q
2023-03-15 13:25:23:273,0,2.60701,-4.77188,-39.0801,Q,Q
2023-03-15 13:25:23:283,0,2.62227,-4.68487,-38.9323,Q,Q
2023-03-15 13:25:23:293,0,2.63843,-4.60373,-38.7777,Q,Q
2023-03-15 13:25:23:303,0,2.65326,-4.5303,-38.6178,Q,Q
2023-03-15 13:25:23:313,0,2.67048,-4.45347,-38.4495,Q,Q
2023-03-15 13:25:23:323,0,2.68758,-4.3767,-38.2711,Q,Q
2023-03-15 13:25:23:333,0,2.71217,-4.29757,-38.0854,Q,Q
2023-03-15 13:25:23:343,0,2.73793,-4.22297,-37.8944,Q,Q
2023-03-15 13:25:23:353,0,2.76853,-4.15599,-37.6986,Q,Q
2023-03-15 13:25:23:363,0,2.79561,-4.09946,-37.4966,Q,Q
2023-03-15 13:25:23:373,0,2.81429,-4.05626,-37.3024,Q,Q
2023-03-15 13:25:23:383,0,2.82595,-4.01561,-37.1227,Q,Q
2023-03-15 13:25:23:393,0,2.83722,-3.98474,-36.9534,Q,Q
2023-03-15 13:25:23:403,0,2.8459,-3.95509,-36.7958,Q,Q
2023-03-15 13:25:23:413,0,2.85693,-3.92868,-36.6399,Q,Q
2023-03-15 13:25:23:423,0,2.86667,-3.91499,-36.4771,Q,Q
2023-03-15 13:25:23:433,0,2.88569,-3.9053,-36.3117,Q,Q
2023-03-15 13:25:23:443,0,2.90044,-3.90033,-36.1458,Q,Q
2023-03-15 13:25:23:453,0,2.91409,-3.89559,-35.9784,Q,Q
2023-03-15 13:25:23:463,0,2.91815,-3.88968,-35.8151,Q,Q
2023-03-15 13:25:23:473,0,2.91733,-3.88113,-35.6561,Q,Q
2023-03-15 13:25:23:483,0,2.91501,-3.87113,-35.5009,Q,Q
2023-03-15 13:25:23:493,0,2.91193,-3.86106,-35.3536,Q,Q
2023-03-15 13:25:23:502,0,2.90962,-3.854,-35.2126,Q,Q
2023-03-15 13:25:23:513,0,2.90778,-3.84859,-35.0792,Q,Q
2023-03-15 13:25:23:523,0,2.90095,-3.84463,-34.9571,Q,Q
2023-03-15 13:25:23:533,0,2.88733,-3.84651,-34.8462,Q,Q
2023-03-15 13:25:23:543,0,2.86942,-3.85379,-34.7452,Q,Q
2023-03-15 13:25:23:553,0,2.85264,-3.87376,-34.651,Q,Q
2023-03-15 13:25:23:563,0,2.84194,-3.89565,-34.5648,Q,Q
2023-03-15 13:25:23:573,0,2.82926,-3.9244,-34.4812,Q,Q
2023-03-15 13:25:23:583,0,2.80807,-3.95579,-34.4031,Q,Q
2023-03-15 13:25:23:593,0,2.77505,-3.97992,-34.3244,Q,Q
2023-03-15 13:25:23:603,0,2.73487,-3.98591,-34.2468,Q,Q
2023-03-15 13:25:23:613,0,2.67799,-3.98575,-34.1737,Q,Q
2023-03-15 13:25:23:623,0,2.60478,-3.97357,-34.0929,Q,Q
2023-03-15 13:25:23:633,0,2.51654,-3.95838,-34.0089,Q,Q
2023-03-15 13:25:23:643,0,2.4158,-3.93899,-33.9203,Q,Q
2023-03-15 13:25:23:653,0,2.31331,-3.91982,-33.8298,Q,Q
2023-03-15 13:25:23:663,0,2.20455,-3.8997,-33.7354,Q,Q
2023-03-15 13:25:23:672,0,2.09766,-3.87375,-33.6382,Q,Q
2023-03-15 13:25:23:682,0,1.99458,-3.84495,-33.5403,Q,Q
2023-03-15 13:25:23:692,0,1.88805,-3.81697,-33.4367,Q,Q
2023-03-15 13:25:23:702,0,1.79002,-3.78942,-33.3345,Q,Q
2023-03-15 13:25:23:712,0,1.69674,-3.75899,-33.2335,Q,Q
2023-03-15 13:25:23:722,0,1.60876,-3.72715,-33.1382,Q,Q
2023-03-15 13:25:23:732,0,1.52204,-3.69849,-33.0454,Q,Q
2023-03-15 13:25:23:742,0,1.44186,-3.67528,-32.9486,Q,Q
2023-03-15 13:25:23:752,0,1.37037,-3.65377,-32.8537,Q,Q
2023-03-15 13:25:23:762,0,1.30442,-3.63583,-32.7571,Q,Q
2023-03-15 13:25:23:772,0,1.24578,-3.6163,-32.6571,Q,Q
2023-03-15 13:25:23:782,0,1.18697,-3.6061,-32.5585,Q,Q
2023-03-15 13:25:23:792,0,1.12335,-3.59229,-32.4588,Q,Q
2023-03-15 13:25:23:802,0,1.06034,-3.57474,-32.3593,Q,Q
2023-03-15 13:25:23:812,0,0.992768,-3.55482,-32.2551,Q,Q
2023-03-15 13:25:23:822,0,0.921756,-3.53458,-32.1482,Q,Q
2023-03-15 13:25:23:832,0,0.851122,-3.51942,-32.0436,Q,Q
2023-03-15 13:25:23:843,0,0.770621,-3.50296,-31.9417,Q,Q
2023-03-15 13:25:23:852,0,0.684126,-3.48667,-31.8448,Q,Q
2023-03-15 13:25:23:862,0,0.606354,-3.47772,-31.747,Q,Q
2023-03-15 13:25:23:872,0,0.537316,-3.47269,-31.654,Q,Q
2023-03-15 13:25:23:883,0,0.486244,-3.4718,-31.5655,Q,Q
2023-03-15 13:25:23:893,0,0.447305,-3.47118,-31.4795,Q,Q
2023-03-15 13:25:23:903,0,0.414434,-3.47656,-31.3991,Q,Q
2023-03-15 13:25:23:913,0,0.393023,-3.48091,-31.3273,Q,Q
2023-03-15 13:25:23:923,0,0.372221,-3.48735,-31.2581,Q,Q
2023-03-15 13:25:23:933,0,0.35261,-3.49115,-31.1902,Q,Q
2023-03-15 13:25:23:943,0,0.330888,-3.49218,-31.1252,Q,Q
2023-03-15 13:25:23:953,0,0.296993,-3.49297,-31.0612,Q,Q
2023-03-15 13:25:23:963,0,0.248169,-3.49277,-30.9974,Q,Q
2023-03-15 13:25:23:973,0,0.190469,-3.49552,-30.9346,Q,Q
2023-03-15 13:25:23:983,0,0.12392,-3.49714,-30.8804,Q,Q
2023-03-15 13:25:23:993,0,0.0473882,-3.50085,-30.8305,Q,Q
2023-03-15 13:25:24:2,0,-0.0272684,-3.49593,-30.7835,Q,Q
2023-03-15 13:25:24:13,0,-0.100156,-3.48959,-30.742,Q,Q
2023-03-15 13:25:24:23,0,-0.174557,-3.47737,-30.7072,Q,Q
2023-03-15 13:25:24:33,0,-0.24784,-3.46142,-30.6778,Q,Q
2023-03-15 13:25:24:43,0,-0.332287,-3.43547,-30.6504,Q,Q
2023-03-15 13:25:24:53,0,-0.425468,-3.40138,-30.6286,Q,Q
2023-03-15 13:25:24:63,0,-0.528552,-3.36385,-30.6127,Q,Q
2023-03-15 13:25:24:73,0,-0.63211,-3.32396,-30.6056,Q,Q
2023-03-15 13:25:24:83,0,-0.735593,-3.28215,-30.6014,Q,Q
2023-03-15 13:25:24:93,0,-0.820716,-3.23891,-30.604,Q,Q
2023-03-15 13:25:24:103,0,-0.889161,-3.19339,-30.6032,Q,Q
2023-03-15 13:25:24:113,0,-0.943359,-3.14762,-30.6052,Q,Q
2023-03-15 13:25:24:123,0,-0.986774,-3.10192,-30.6127,Q,Q
2023-03-15 13:25:24:133,0,-1.02161,-3.05271,-30.6288,Q,Q
2023-03-15 13:25:24:143,0,-1.04599,-3.00129,-30.6408,Q,Q
2023-03-15 13:25:24:153,0,-1.07047,-2.94898,-30.6579,Q,Q
2023-03-15 13:25:24:163,0,-1.10113,-2.89979,-30.6738,Q,Q
2023-03-15 13:25:24:173,0,-1.13776,-2.84601,-30.6955,Q,Q
2023-03-15 13:25:24:182,0,-1.18534,-2.79637,-30.717,Q,Q
2023-03-15 13:25:24:193,0,-1.24385,-2.74682,-30.7437,Q,Q
2023-03-15 13:25:24:203,0,-1.30774,-2.7003,-30.7741,Q,Q
2023-03-15 13:25:24:213,0,-1.37839,-2.6541,-30.8099,Q,Q
2023-03-15 13:25:24:223,0,-1.44234,-2.6091,-30.8481,Q,Q
2023-03-15 13:25:24:233,0,-1.49511,-2.56298,-30.8931,Q,Q
2023-03-15 13:25:24:243,0,-1.54392,-2.51519,-30.942,Q,Q
2023-03-15 13:25:24:253,0,-1.59476,-2.46563,-30.994,Q,Q
2023-03-15 13:25:24:262,0,-1.65344,-2.42119,-31.0488,Q,Q
2023-03-15 13:25:24:273,0,-1.72075,-2.38049,-31.1026,Q,Q
2023-03-15 13:25:24:283,0,-1.79857,-2.34417,-31.1555,Q,Q
2023-03-15 13:25:24:293,0,-1.88462,-2.3117,-31.2114,Q,Q
2023-03-15 13:25:24:302,0,-1.97306,-2.28187,-31.2638,Q,Q
2023-03-15 13:25:24:312,0,-2.06308,-2.24959,-31.3117,Q,Q
2023-03-15 13:25:24:322,0,-2.15483,-2.21522,-31.3528,Q,Q
2023-03-15 13:25:24:332,0,-2.23971,-2.17746,-31.3894,Q,Q
2023-03-15 13:25:24:342,0,-2.32362,-2.1388,-31.4168,Q,Q
2023-03-15 13:25:24:352,0,-2.40493,-2.09971,-31.436,Q,Q
2023-03-15 13:25:24:363,0,-2.48169,-2.05296,-31.4447,Q,Q
2023-03-15 13:25:24:373,0,-2.55865,-2.00812,-31.4467,Q,Q
2023-03-15 13:25:24:383,0,-2.63461,-1.95538,-31.4469,Q,Q
2023-03-15 13:25:24:393,0,-2.71043,-1.89649,-31.4422,Q,Q
2023-03-15 13:25:24:403,0,-2.78782,-1.83373,-31.4365,Q,Q
2023-03-15 13:25:24:413,0,-2.85969,-1.77191,-31.4216,Q,Q
2023-03-15 13:25:24:423,0,-2.93334,-1.71195,-31.4103,Q,Q
2023-03-15 13:25:24:433,0,-3.00856,-1.65556,-31.3976,Q,Q
2023-03-15 13:25:24:443,0,-3.08682,-1.59769,-31.3841,Q,Q
2023-03-15 13:25:24:453,0,-3.16186,-1.5456,-31.3789,Q,Q
2023-03-15 13:25:24:463,0,-3.2356,-1.49562,-31.3767,Q,Q
2023-03-15 13:25:24:473,0,-3.3043,-1.45293,-31.3785,Q,Q
2023-03-15 13:25:24:483,0,-3.36814,-1.41553,-31.3825,Q,Q
2023-03-15 13:25:24:493,0,-3.42582,-1.38028,-31.3905,Q,Q
2023-03-15 13:25:24:503,0,-3.47907,-1.34856,-31.3983,Q,Q
2023-03-15 13:25:24:513,0,-3.52815,-1.32037,-31.4077,Q,Q
2023-03-15 13:25:24:523,0,-3.57668,-1.29584,-31.4188,Q,Q
2023-03-15 13:25:24:533,0,-3.63283,-1.27634,-31.4274,Q,Q
2023-03-15 13:25:24:543,0,-3.69095,-1.25807,-31.4396,Q,Q
2023-03-15 13:25:24:553,0,-3.73853,-1.24385,-31.4512,Q,Q
2023-03-15 13:25:24:563,0,-3.78713,-1.22898,-31.4635,Q,Q
2023-03-15 13:25:24:573,0,-3.84007,-1.21774,-31.479,Q,Q
2023-03-15 13:25:24:583,0,-3.8923,-1.20932,-31.489,Q,Q
2023-03-15 13:25:24:593,0,-3.94659,-1.19994,-31.5042,Q,Q
2023-03-15 13:25:24:603,0,-3.99533,-1.19184,-31.5187,Q,Q
2023-03-15 13:25:24:613,0,-4.03597,-1.18331,-31.5329,Q,Q
2023-03-15 13:25:24:623,0,-4.07114,-1.17269,-31.5474,Q,Q
2023-03-15 13:25:24:633,0,-4.1068,-1.16325,-31.5586,Q,Q
2023-03-15 13:25:24:643,0,-4.14905,-1.14946,-31.5725,Q,Q
2023-03-15 13:25:24:653,0,-4.19216,-1.13978,-31.5862,Q,Q
2023-03-15 13:25:24:663,0,-4.23909,-1.13282,-31.6037,Q,Q
2023-03-15 13:25:24:673,0,-4.29422,-1.1221,-31.6274,Q,Q
2023-03-15 13:25:24:683,0,-4.34955,-1.11822,-31.6554,Q,Q
2023-03-15 13:25:24:693,0,-4.40288,-1.11867,-31.6891,Q,Q
2023-03-15 13:25:24:703,0,-4.44923,-1.12,-31.7303,Q,Q
2023-03-15 13:25:24:713,0,-4.48849,-1.12545,-31.7796,Q,Q
2023-03-15 13:25:24:723,0,-4.53154,-1.13542,-31.8375,Q,Q
2023-03-15 13:25:24:733,0,-4.57727,-1.14723,-31.9009,Q,Q
2023-03-15 13:25:24:743,0,-4.6258,-1.15998,-31.9733,Q,Q
2023-03-15 13:25:24:753,0,-4.67324,-1.1766,-32.0563,Q,Q
2023-03-15 13:25:24:763,0,-4.71558,-1.19214,-32.1503,Q,Q
2023-03-15 13:25:24:773,0,-4.74756,-1.20537,-32.2487,Q,Q
2023-03-15 13:25:24:783,0,-4.78017,-1.2211,-32.3567,Q,Q
2023-03-15 13:25:24:793,0,-4.82006,-1.23499,-32.4696,Q,Q
2023-03-15 13:25:24:803,0,-4.86714,-1.24666,-32.5943,Q,Q
2023-03-15 13:25:24:813,0,-4.92179,-1.25582,-32.7313,Q,Q
2023-03-15 13:25:24:822,0,-4.9705,-1.26989,-32.8805,Q,Q
2023-03-15 13:25:24:833,0,-5.01567,-1.29514,-33.0384,Q,Q
2023-03-15 13:25:24:843,0,-5.05396,-1.32398,-33.2007,Q,Q
2023-03-15 13:25:24:853,0,-5.08078,-1.35668,-33.3676,Q,Q
2023-03-15 13:25:24:862,0,-5.09727,-1.39923,-33.5397,Q,Q
2023-03-15 13:25:24:872,0,-5.10048,-1.44032,-33.7189,Q,Q
2023-03-15 13:25:24:882,0,-5.10458,-1.4788,-33.8918,Q,Q
2023-03-15 13:25:24:892,0,-5.11915,-1.51832,-34.0721,Q,Q
2023-03-15 13:25:24:902,0,-5.13968,-1.56025,-34.2584,Q,Q
2023-03-15 13:25:24:912,0,-5.15876,-1.60456,-34.4511,Q,Q
2023-03-15 13:25:24:922,0,-5.17096,-1.65177,-34.6565,Q,Q
2023-03-15 13:25:24:932,0,-5.18938,-1.70638,-34.8761,Q,Q
2023-03-15 13:25:24:942,0,-5.21102,-1.77083,-35.1198,Q,Q
2023-03-15 13:25:24:952,0,-5.2367,-1.84762,-35.4089,Q,Q
2023-03-15 13:25:24:962,0,-5.27639,-1.93338,-35.7425,Q,Q
2023-03-15 13:25:24:972,0,-5.32167,-2.03805,-36.1218,Q,Q
2023-03-15 13:25:24:982,0,-5.37826,-2.16153,-36.5483,Q,Q
2023-03-15 13:25:24:992,0,-5.44813,-2.31139,-37.0303,Q,Q
2023-03-15 13:25:25:2,0,-5.52813,-2.48024,-37.584,Q,Q
2023-03-15 13:25:25:12,0,-5.62034,-2.65795,-38.2086,Q,Q
2023-03-15 13:25:25:22,0,-5.71783,-2.85518,-38.8976,Q,Q
2023-03-15 13:25:25:32,0,-5.81069,-3.06362,-39.6423,Q,Q
2023-03-15 13:25:25:42,0,-5.90434,-3.28704,-40.4352,Q,Q
2023-03-15 13:25:25:52,0,-6.00145,-3.5316,-41.2623,Q,Q
2023-03-15 13:25:25:62,0,-6.10446,-3.79232,-42.1132,Q,Q
2023-03-15 13:25:25:72,0,-6.2011,-4.05932,-42.9773,Q,Q
2023-03-15 13:25:25:82,0,-6.28166,-4.326,-43.8547,Q,Q
2023-03-15 13:25:25:92,0,-6.3439,-4.58792,-44.7319,Q,Q
2023-03-15 13:25:25:102,0,-6.39806,-4.84047,-45.5981,Q,Q
2023-03-15 13:25:25:112,0,-6.44024,-5.08118,-46.441,Q,Q
2023-03-15 13:25:25:122,0,-6.47721,-5.30897,-47.2513,Q,Q
2023-03-15 13:25:25:132,0,-6.50431,-5.52001,-48.0245,Q,Q
2023-03-15 13:25:25:142,0,-6.52267,-5.71142,-48.7578,Q,Q
2023-03-15 13:25:25:152,0,-6.53718,-5.88346,-49.4473,Q,Q
2023-03-15 13:25:25:162,0,-6.55376,-6.04168,-50.0994,Q,Q
2023-03-15 13:25:25:173,0,-6.57322,-6.18263,-50.7231,Q,Q
2023-03-15 13:25:25:182,0,-6.59127,-6.30802,-51.3205,Q,Q
2023-03-15 13:25:25:192,0,-6.61252,-6.42392,-51.8857,Q,Q
2023-03-15 13:25:25:202,0,-6.63171,-6.52937,-52.4148,Q,Q
2023-03-15 13:25:25:212,0,-6.64583,-6.63038,-52.9105,Q,Q
2023-03-15 13:25:25:223,0,-6.65644,-6.73492,-53.3707,Q,Q
2023-03-15 13:25:25:232,0,-6.66823,-6.84047,-53.7994,Q,Q
2023-03-15 13:25:25:243,0,-6.67753,-6.94605,-54.2026,Q,Q
2023-03-15 13:25:25:252,0,-6.68611,-7.05545,-54.5785,Q,Q
2023-03-15 13:25:25:263,0,-6.69316,-7.16763,-54.9297,Q,Q
2023-03-15 13:25:25:273,0,-6.69778,-7.28002,-55.2568,Q,Q
2023-03-15 13:25:25:283,0,-6.69559,-7.38859,-55.5747,Q,Q
2023-03-15 13:25:25:293,0,-6.68898,-7.49775,-55.8749,Q,Q
2023-03-15 13:25:25:303,0,-6.6802,-7.60801,-56.1666,Q,Q
2023-03-15 13:25:25:313,0,-6.66647,-7.71615,-56.4532,Q,Q
2023-03-15 13:25:25:323,0,-6.64307,-7.81849,-56.7302,Q,Q
2023-03-15 13:25:25:333,0,-6.6213,-7.91673,-56.9929,Q,Q
2023-03-15 13:25:25:343,0,-6.59414,-8.00435,-57.241,Q,Q
2023-03-15 13:25:25:353,0,-6.56732,-8.09196,-57.4725,Q,Q
2023-03-15 13:25:25:363,0,-6.54065,-8.17219,-57.6931,Q,Q
2023-03-15 13:25:25:373,0,-6.5093,-8.25046,-57.9042,Q,Q
2023-03-15 13:25:25:383,0,-6.47833,-8.32654,-58.11,Q,Q
2023-03-15 13:25:25:393,0,-6.44222,-8.39964,-58.3173,Q,Q
2023-03-15 13:25:25:403,0,-6.40636,-8.4682,-58.5232,Q,Q
2023-03-15 13:25:25:413,0,-6.37336,-8.53437,-58.726,Q,Q
2023-03-15 13:25:25:423,0,-6.34318,-8.59762,-58.9287,Q,Q
2023-03-15 13:25:25:433,0,-6.31308,-8.65862,-59.1285,Q,Q
2023-03-15 13:25:25:443,0,-6.28788,-8.71714,-59.3298,Q,Q
2023-03-15 13:25:25:453,0,-6.27059,-8.77662,-59.5341,Q,Q
2023-03-15 13:25:25:463,0,-6.26,-8.84142,-59.7522,Q,Q
2023-03-15 13:25:25:473,0,-6.25494,-8.90842,-59.9868,Q,Q
2023-03-15 13:25:25:483,0,-6.25632,-8.96285,-60.2362,Q,Q
2023-03-15 13:25:25:493,0,-6.26196,-9.00472,-60.5009,Q,Q
2023-03-15 13:25:25:503,0,-6.26769,-9.03489,-60.7697,Q,Q
2023-03-15 13:25:25:513,0,-6.26623,-9.05916,-61.0355,Q,Q
2023-03-15 13:25:25:523,0,-6.25817,-9.08063,-61.2975,Q,Q
2023-03-15 13:25:25:533,0,-6.24655,-9.09832,-61.5564,Q,Q
2023-03-15 13:25:25:543,0,-6.22476,-9.12049,-61.8111,Q,Q
2023-03-15 13:25:25:553,0,-6.18456,-9.14257,-62.0658,Q,Q
2023-03-15 13:25:25:563,0,-6.12861,-9.16805,-62.3176,Q,Q
2023-03-15 13:25:25:573,0,-6.05804,-9.19982,-62.5693,Q,Q
2023-03-15 13:25:25:583,0,-5.98289,-9.23109,-62.8199,Q,Q
2023-03-15 13:25:25:593,0,-5.90379,-9.26818,-63.0685,Q,Q
2023-03-15 13:25:25:603,0,-5.82346,-9.30813,-63.3156,Q,Q
2023-03-15 13:25:25:613,0,-5.74842,-9.34669,-63.558,Q,Q
2023-03-15 13:25:25:623,0,-5.6669,-9.3766,-63.7924,Q,Q
2023-03-15 13:25:25:633,0,-5.5816,-9.40157,-64.0178,Q,Q
2023-03-15 13:25:25:643,0,-5.48508,-9.42448,-64.2209,Q,Q
2023-03-15 13:25:25:653,0,-5.38787,-9.44467,-64.4061,Q,Q
2023-03-15 13:25:25:663,0,-5.2859,-9.46346,-64.5737,Q,Q
2023-03-15 13:25:25:673,0,-5.18408,-9.48386,-64.7236,Q,Q
2023-03-15 13:25:25:683,0,-5.08305,-9.5075,-64.8546,Q,Q
2023-03-15 13:25:25:693,0,-4.97939,-9.53585,-64.9657,Q,Q
2023-03-15 13:25:25:703,0,-4.87996,-9.57369,-65.0588,Q,Q
2023-03-15 13:25:25:713,0,-4.78238,-9.61816,-65.1334,Q,Q
2023-03-15 13:25:25:723,0,-4.69718,-9.66917,-65.1855,Q,Q
2023-03-15 13:25:25:733,0,-4.61495,-9.72382,-65.2245,Q,Q
2023-03-15 13:25:25:743,0,-4.53543,-9.78436,-65.2417,Q,Q
2023-03-15 13:25:25:753,0,-4.45295,-9.84702,-65.2497,Q,Q
2023-03-15 13:25:25:763,0,-4.35476,-9.90633,-65.249,Q,Q
2023-03-15 13:25:25:773,0,-4.23387,-9.95799,-65.2485,Q,Q
2023-03-15 13:25:25:783,0,-4.09198,-9.99736,-65.2492,Q,Q
2023-03-15 13:25:25:793,0,-3.93443,-10.0359,-65.2401,Q,Q
2023-03-15 13:25:25:803,0,-3.76537,-10.0665,-65.2236,Q,Q
2023-03-15 13:25:25:813,0,-3.59959,-10.0998,-65.203,Q,Q
2023-03-15 13:25:25:823,0,-3.45349,-10.1336,-65.178,Q,Q
2023-03-15 13:25:25:833,0,-3.32918,-10.1627,-65.1551,Q,Q
2023-03-15 13:25:25:843,0,-3.2271,-10.1839,-65.1355,Q,Q
2023-03-15 13:25:25:853,0,-3.13663,-10.1886,-65.1289,Q,Q
2023-03-15 13:25:25:863,0,-3.05068,-10.1764,-65.1293,Q,Q
2023-03-15 13:25:25:873,0,-2.96068,-10.1478,-65.1314,Q,Q
2023-03-15 13:25:25:883,0,-2.86972,-10.1093,-65.1323,Q,Q
2023-03-15 13:25:25:893,0,-2.77499,-10.0641,-65.1308,Q,Q
2023-03-15 13:25:25:903,0,-2.68663,-10.0247,-65.1314,Q,Q
2023-03-15 13:25:25:913,0,-2.6094,-9.99301,-65.1314,Q,Q
2023-03-15 13:25:25:923,0,-2.54617,-9.96708,-65.14,Q,Q
2023-03-15 13:25:25:933,0,-2.49604,-9.94065,-65.1608,Q,Q
2023-03-15 13:25:25:943,0,-2.45272,-9.91503,-65.1969,Q,Q
2023-03-15 13:25:25:953,0,-2.42129,-9.8899,-65.2411,Q,Q
2023-03-15 13:25:25:963,0,-2.39238,-9.86393,-65.2906,Q,Q
2023-03-15 13:25:25:973,0,-2.36779,-9.83529,-65.3523,Q,Q
2023-03-15 13:25:25:983,0,-2.34177,-9.80399,-65.4125,Q,Q
2023-03-15 13:25:25:993,0,-2.31432,-9.76471,-65.4782,Q,Q
2023-03-15 13:25:26:2,0,-2.28947,-9.7239,-65.5436,Q,Q
2023-03-15 13:25:26:12,0,-2.26186,-9.68103,-65.6063,Q,Q
2023-03-15 13:25:26:22,0,-2.23164,-9.64427,-65.6645,Q,Q
2023-03-15 13:25:26:32,0,-2.20636,-9.60876,-65.7221,Q,Q
2023-03-15 13:25:26:42,0,-2.18847,-9.58198,-65.7795,Q,Q
2023-03-15 13:25:26:53,0,-2.17753,-9.55592,-65.8397,Q,Q
2023-03-15 13:25:26:63,0,-2.17519,-9.52838,-65.9015,Q,Q
2023-03-15 13:25:26:73,0,-2.17703,-9.49557,-65.9645,Q,Q
2023-03-15 13:25:26:83,0,-2.17309,-9.45845,-66.0283,Q,Q
2023-03-15 13:25:26:92,0,-2.1684,-9.41615,-66.0942,Q,Q
2023-03-15 13:25:26:103,0,-2.16515,-9.37152,-66.1627,Q,Q
2023-03-15 13:25:26:113,0,-2.16591,-9.32636,-66.2306,Q,Q
2023-03-15 13:25:26:123,0,-2.16877,-9.27618,-66.3017,Q,Q
2023-03-15 13:25:26:133,0,-2.17451,-9.22206,-66.3722,Q,Q
2023-03-15 13:25:26:143,0,-2.18131,-9.17534,-66.446,Q,Q
2023-03-15 13:25:26:153,0,-2.19216,-9.12906,-66.5273,Q,Q
2023-03-15 13:25:26:163,0,-2.2066,-9.08327,-66.6127,Q,Q
2023-03-15 13:25:26:173,0,-2.2346,-9.04138,-66.699,Q,Q
2023-03-15 13:25:26:183,0,-2.26818,-8.99637,-66.7898,Q,Q
2023-03-15 13:25:26:193,0,-2.29689,-8.95278,-66.8838,Q,Q
2023-03-15 13:25:26:203,0,-2.32228,-8.90521,-66.98,Q,Q
2023-03-15 13:25:26:213,0,-2.33956,-8.86154,-67.0742,Q,Q
2023-03-15 13:25:26:223,0,-2.35407,-8.81792,-67.1646,Q,Q
2023-03-15 13:25:26:233,0,-2.36883,-8.78013,-67.2464,Q,Q
2023-03-15 13:25:26:243,0,-2.38417,-8.75334,-67.3252,Q,Q
2023-03-15 13:25:26:253,0,-2.3962,-8.72989,-67.401,Q,Q
2023-03-15 13:25:26:263,0,-2.41149,-8.71086,-67.4718,Q,Q
2023-03-15 13:25:26:273,0,-2.42305,-8.69763,-67.5378,Q,Q
2023-03-15 13:25:26:283,0,-2.43612,-8.68288,-67.6014,Q,Q
2023-03-15 13:25:26:293,0,-2.44313,-8.66923,-67.6632,Q,Q
2023-03-15 13:25:26:303,0,-2.45126,-8.6502,-67.721,Q,Q
2023-03-15 13:25:26:313,0,-2.45845,-8.63087,-67.7744,Q,Q
2023-03-15 13:25:26:323,0,-2.46544,-8.61457,-67.828,Q,Q
2023-03-15 13:25:26:333,0,-2.46986,-8.59714,-67.875,Q,Q
2023-03-15 13:25:26:343,0,-2.46923,-8.58271,-67.9228,Q,Q
2023-03-15 13:25:26:353,0,-2.46634,-8.56839,-67.966,Q,Q
2023-03-15 13:25:26:363,0,-2.4653,-8.55935,-68.0056,Q,Q
2023-03-15 13:25:26:373,0,-2.46075,-8.54807,-68.049,Q,Q
2023-03-15 13:25:26:383,0,-2.45128,-8.54157,-68.091,Q,Q
2023-03-15 13:25:26:393,0,-2.43369,-8.53965,-68.1305,Q,Q
2023-03-15 13:25:26:403,0,-2.40963,-8.53365,-68.169,Q,Q
2023-03-15 13:25:26:413,0,-2.38295,-8.5339,-68.2073,Q,Q
2023-03-15 13:25:26:423,0,-2.35777,-8.53525,-68.2456,Q,Q
2023-03-15 13:25:26:433,0,-2.33128,-8.54117,-68.2797,Q,Q
2023-03-15 13:25:26:443,0,-2.30233,-8.55007,-68.3111,Q,Q
2023-03-15 13:25:26:453,0,-2.27126,-8.55556,-68.3434,Q,Q
2023-03-15 13:25:26:463,0,-2.23397,-8.56152,-68.3756,Q,Q
2023-03-15 13:25:26:473,0,-2.19373,-8.5637,-68.4035,Q,Q
2023-03-15 13:25:26:483,0,-2.1541,-8.56433,-68.4338,Q,Q
2023-03-15 13:25:26:493,0,-2.11727,-8.56347,-68.4633,Q,Q
2023-03-15 13:25:26:503,0,-2.08376,-8.55617,-68.4893,Q,Q
2023-03-15 13:25:26:513,0,-2.05412,-8.54762,-68.5137,Q,Q
2023-03-15 13:25:26:523,0,-2.02153,-8.53072,-68.5374,Q,Q
2023-03-15 13:25:26:533,0,-1.99254,-8.51578,-68.5601,Q,Q
2023-03-15 13:25:26:543,0,-1.97078,-8.49967,-68.5804,Q,Q
2023-03-15 13:25:26:553,0,-1.95267,-8.48749,-68.6054,Q,Q
2023-03-15 13:25:26:563,0,-1.93887,-8.47802,-68.6317,Q,Q
2023-03-15 13:25:26:573,0,-1.92728,-8.46917,-68.656,Q,Q
2023-03-15 13:25:26:583,0,-1.9183,-8.46046,-68.685,Q,Q
2023-03-15 13:25:26:593,0,-1.9033,-8.44905,-68.713,Q,Q
2023-03-15 13:25:26:603,0,-1.88693,-8.43732,-68.7369,Q,Q
2023-03-15 13:25:26:613,0,-1.87144,-8.42146,-68.7642,Q,Q
2023-03-15 13:25:26:623,0,-1.85494,-8.40424,-68.7892,Q,Q
2023-03-15 13:25:26:633,0,-1.84243,-8.38752,-68.8185,Q,Q
2023-03-15 13:25:26:643,0,-1.83581,-8.36938,-68.8491,Q,Q
2023-03-15 13:25:26:653,0,-1.83473,-8.34935,-68.8825,Q,Q
2023-03-15 13:25:26:662,0,-1.83845,-8.32976,-68.9246,Q,Q
2023-03-15 13:25:26:673,0,-1.8484,-8.31948,-68.9716,Q,Q
2023-03-15 13:25:26:683,0,-1.86007,-8.30929,-69.0229,Q,Q
2023-03-15 13:25:26:693,0,-1.86847,-8.30211,-69.0798,Q,Q
2023-03-15 13:25:26:703,0,-1.87388,-8.2976,-69.1412,Q,Q
2023-03-15 13:25:26:713,0,-1.87691,-8.28947,-69.2078,Q,Q
2023-03-15 13:25:26:723,0,-1.87924,-8.28506,-69.2745,Q,Q
2023-03-15 13:25:26:733,0,-1.87372,-8.28116,-69.3475,Q,Q
2023-03-15 13:25:26:743,0,-1.87249,-8.28058,-69.4166,Q,Q
2023-03-15 13:25:26:753,0,-1.87363,-8.2806,-69.4864,Q,Q
2023-03-15 13:25:26:763,0,-1.87485,-8.28227,-69.558,Q,Q
2023-03-15 13:25:26:773,0,-1.87933,-8.28157,-69.6288,Q,Q
2023-03-15 13:25:26:783,0,-1.8844,-8.27998,-69.7008,Q,Q
2023-03-15 13:25:26:793,0,-1.89056,-8.27446,-69.7718,Q,Q
2023-03-15 13:25:26:803,0,-1.90097,-8.27147,-69.839,Q,Q
2023-03-15 13:25:26:813,0,-1.91481,-8.27029,-69.9023,Q,Q
2023-03-15 13:25:26:823,0,-1.92967,-8.26476,-69.9624,Q,Q
2023-03-15 13:25:26:833,0,-1.94088,-8.25554,-70.0214,Q,Q
2023-03-15 13:25:26:843,0,-1.94681,-8.24752,-70.0733,Q,Q
2023-03-15 13:25:26:853,0,-1.95342,-8.23946,-70.1188,Q,Q
2023-03-15 13:25:26:863,0,-1.95685,-8.2266,-70.1605,Q,Q
2023-03-15 13:25:26:873,0,-1.95961,-8.21592,-70.199,Q,Q
2023-03-15 13:25:26:883,0,-1.96296,-8.20374,-70.2361,Q,Q
2023-03-15 13:25:26:893,0,-1.96641,-8.18921,-70.269,Q,Q
2023-03-15 13:25:26:903,0,-1.96731,-8.17835,-70.2959,Q,Q
2023-03-15 13:25:26:913,0,-1.96404,-8.16752,-70.3209,Q,Q
2023-03-15 13:25:26:923,0,-1.95314,-8.16586,-70.3375,Q,Q
2023-03-15 13:25:26:933,0,-1.94118,-8.16303,-70.3577,Q,Q
2023-03-15 13:25:26:943,0,-1.93431,-8.15502,-70.3758,Q,Q
2023-03-15 13:25:26:953,0,-1.93408,-8.15573,-70.3962,Q,Q
2023-03-15 13:25:26:963,0,-1.94174,-8.15769,-70.4173,Q,Q
2023-03-15 13:25:26:973,0,-1.95297,-8.16035,-70.4429,Q,Q
2023-03-15 13:25:26:983,0,-1.95837,-8.16942,-70.4635,Q,Q
2023-03-15 13:25:26:993,0,-1.95925,-8.17775,-70.4841,Q,Q
2023-03-15 13:25:27:3,0,-1.95717,-8.18594,-70.5047,Q,Q
2023-03-15 13:25:27:13,0,-1.95444,-8.1977,-70.5289,Q,Q
2023-03-15 13:25:27:23,0,-1.95545,-8.21067,-70.5557,Q,Q
2023-03-15 13:25:27:32,0,-1.96376,-8.2201,-70.5881,Q,Q
2023-03-15 13:25:27:43,0,-1.97593,-8.23035,-70.6221,Q,Q
2023-03-15 13:25:27:53,0,-1.992,-8.23924,-70.6617,Q,Q
2023-03-15 13:25:27:63,0,-2.00838,-8.24734,-70.7039,Q,Q
2023-03-15 13:25:27:73,0,-2.02724,-8.25892,-70.7471,Q,Q
2023-03-15 13:25:27:83,0,-2.04036,-8.26904,-70.7978,Q,Q
2023-03-15 13:25:27:93,0,-2.0552,-8.27903,-70.8459,Q,Q
2023-03-15 13:25:27:103,0,-2.06778,-8.28906,-70.895,Q,Q
2023-03-15 13:25:27:113,0,-2.07898,-8.30223,-70.9391,Q,Q
2023-03-15 13:25:27:123,0,-2.09008,-8.31415,-70.988,Q,Q
2023-03-15 13:25:27:133,0,-2.10202,-8.32573,-71.0396,Q,Q
2023-03-15 13:25:27:143,0,-2.11699,-8.33259,-71.0857,Q,Q
2023-03-15 13:25:27:153,0,-2.1363,-8.33752,-71.1334,Q,Q
2023-03-15 13:25:27:163,0,-2.16332,-8.34067,-71.1753,Q,Q
2023-03-15 13:25:27:173,0,-2.18946,-8.34769,-71.2162,Q,Q
2023-03-15 13:25:27:183,0,-2.2191,-8.35597,-71.2572,Q,Q
2023-03-15 13:25:27:193,0,-2.25615,-8.36227,-71.2944,Q,Q
2023-03-15 13:25:27:203,0,-2.29502,-8.36798,-71.333,Q,Q
2023-03-15 13:25:27:213,0,-2.33244,-8.37304,-71.3718,Q,Q
2023-03-15 13:25:27:223,0,-2.36731,-8.37465,-71.406,Q,Q
2023-03-15 13:25:27:233,0,-2.40196,-8.37768,-71.434,Q,Q
2023-03-15 13:25:27:243,0,-2.43403,-8.3744,-71.4611,Q,Q
2023-03-15 13:25:27:252,0,-2.45952,-8.36829,-71.4757,Q,Q
2023-03-15 13:25:27:262,0,-2.4778,-8.35935,-71.4892,Q,Q
2023-03-15 13:25:27:272,0,-2.49592,-8.34926,-71.4995,Q,Q
2023-03-15 13:25:27:282,0,-2.51828,-8.34298,-71.5045,Q,Q
2023-03-15 13:25:27:292,0,-2.5376,-8.3362,-71.508,Q,Q
2023-03-15 13:25:27:302,0,-2.55664,-8.32751,-71.5102,Q,Q
2023-03-15 13:25:27:313,0,-2.57529,-8.31796,-71.5134,Q,Q
2023-03-15 13:25:27:323,0,-2.60099,-8.31158,-71.519,Q,Q
2023-03-15 13:25:27:332,0,-2.62305,-8.31051,-71.527,Q,Q
2023-03-15 13:25:27:342,0,-2.64391,-8.31207,-71.5359,Q,Q
2023-03-15 13:25:27:352,0,-2.66389,-8.31008,-71.5461,Q,Q
2023-03-15 13:25:27:362,0,-2.67267,-8.31005,-71.5619,Q,Q
2023-03-15 13:25:27:373,0,-2.67625,-8.30584,-71.5876,Q,Q
2023-03-15 13:25:27:383,0,-2.67907,-8.30233,-71.6133,Q,Q
2023-03-15 13:25:27:393,0,-2.67876,-8.29638,-71.645,Q,Q
2023-03-15 13:25:27:403,0,-2.68558,-8.29793,-71.6764,Q,Q
2023-03-15 13:25:27:413,0,-2.6972,-8.29269,-71.7085,Q,Q
2023-03-15 13:25:27:423,0,-2.71204,-8.2919,-71.7398,Q,Q
2023-03-15 13:25:27:433,0,-2.73392,-8.2899,-71.7715,Q,Q
2023-03-15 13:25:27:442,0,-2.75685,-8.28733,-71.8017,Q,Q
2023-03-15 13:25:27:452,0,-2.77959,-8.28278,-71.834,Q,Q
2023-03-15 13:25:27:462,0,-2.80075,-8.27532,-71.8665,Q,Q
2023-03-15 13:25:27:472,0,-2.82206,-8.26568,-71.8953,Q,Q
2023-03-15 13:25:27:482,0,-2.84457,-8.25568,-71.9221,Q,Q
2023-03-15 13:25:27:492,0,-2.85778,-8.24694,-71.9442,Q,Q
2023-03-15 13:25:27:502,0,-2.86757,-8.23702,-71.9678,Q,Q
2023-03-15 13:25:27:512,0,-2.87967,-8.22803,-71.9893,Q,Q
2023-03-15 13:25:27:522,0,-2.88837,-8.21661,-72.01,Q,Q
2023-03-15 13:25:27:533,0,-2.89653,-8.20409,-72.027,Q,Q
2023-03-15 13:25:27:543,0,-2.90749,-8.19628,-72.0413,Q,Q
2023-03-15 13:25:27:553,0,-2.91292,-8.18702,-72.0593,Q,Q
2023-03-15 13:25:27:563,0,-2.92011,-8.17413,-72.0723,Q,Q
2023-03-15 13:25:27:572,0,-2.92667,-8.1588,-72.0858,Q,Q
2023-03-15 13:25:27:582,0,-2.93727,-8.14575,-72.0962,Q,Q
2023-03-15 13:25:27:593,0,-2.94868,-8.1375,-72.1136,Q,Q
2023-03-15 13:25:27:603,0,-2.95551,-8.12795,-72.1336,Q,Q
2023-03-15 13:25:27:613,0,-2.96249,-8.12022,-72.1545,Q,Q
2023-03-15 13:25:27:623,0,-2.96839,-8.11239,-72.1798,Q,Q
2023-03-15 13:25:27:633,0,-2.97617,-8.10435,-72.2074,Q,Q
2023-03-15 13:25:27:643,0,-2.98645,-8.09831,-72.2381,Q,Q
2023-03-15 13:25:27:653,0,-2.99896,-8.08819,-72.2697,Q,Q
2023-03-15 13:25:27:663,0,-3.0097,-8.08021,-72.3008,Q,Q
2023-03-15 13:25:27:673,0,-3.01894,-8.07397,-72.3335,Q,Q
2023-03-15 13:25:27:683,0,-3.02907,-8.07012,-72.3666,Q,Q
2023-03-15 13:25:27:692,0,-3.04087,-8.05931,-72.4033,Q,Q
2023-03-15 13:25:27:703,0,-3.05647,-8.04991,-72.4449,Q,Q
2023-03-15 13:25:27:713,0,-3.06896,-8.0349,-72.4895,Q,Q
2023-03-15 13:25:27:722,0,-3.07829,-8.01923,-72.5299,Q,Q
2023-03-15 13:25:27:733,0,-3.08722,-8.00555,-72.568,Q,Q
2023-03-15 13:25:27:743,0,-3.09066,-7.99797,-72.6019,Q,Q
2023-03-15 13:25:27:753,0,-3.09216,-7.98967,-72.6348,Q,Q
2023-03-15 13:25:27:763,0,-3.09106,-7.98816,-72.6684,Q,Q
2023-03-15 13:25:27:773,0,-3.09377,-7.9825,-72.7053,Q,Q
2023-03-15 13:25:27:783,0,-3.09613,-7.98201,-72.7423,Q,Q
2023-03-15 13:25:27:793,0,-3.10124,-7.97943,-72.7785,Q,Q
2023-03-15 13:25:27:803,0,-3.10853,-7.97605,-72.8139,Q,Q
2023-03-15 13:25:27:813,0,-3.11284,-7.97147,-72.8492,Q,Q
2023-03-15 13:25:27:823,0,-3.11672,-7.96938,-72.886,Q,Q
2023-03-15 13:25:27:833,0,-3.1187,-7.96546,-72.923,Q,Q
2023-03-15 13:25:27:843,0,-3.12453,-7.95873,-72.9597,Q,Q
2023-03-15 13:25:27:853,0,-3.12872,-7.95002,-72.9967,Q,Q
2023-03-15 13:25:27:863,0,-3.13304,-7.94235,-73.0344,Q,Q
2023-03-15 13:25:27:873,0,-3.135,-7.93238,-73.0691,Q,Q
2023-03-15 13:25:27:883,0,-3.13514,-7.92559,-73.1033,Q,Q
2023-03-15 13:25:27:893,0,-3.13341,-7.9206,-73.1406,Q,Q
2023-03-15 13:25:27:903,0,-3.13358,-7.9148,-73.1785,Q,Q
2023-03-15 13:25:27:913,0,-3.13048,-7.91264,-73.2188,Q,Q
2023-03-15 13:25:27:923,0,-3.12606,-7.90811,-73.2633,Q,Q
2023-03-15 13:25:27:933,0,-3.12028,-7.90858,-73.3061,Q,Q
2023-03-15 13:25:27:943,0,-3.11596,-7.90695,-73.3513,Q,Q
2023-03-15 13:25:27:953,0,-3.11298,-7.905,-73.3964,Q,Q
2023-03-15 13:25:27:963,0,-3.11669,-7.90134,-73.444,Q,Q
2023-03-15 13:25:27:973,0,-3.12303,-7.89787,-73.4896,Q,Q
2023-03-15 13:25:27:983,0,-3.131,-7.88899,-73.5365,Q,Q
2023-03-15 13:25:27:993,0,-3.14179,-7.88202,-73.581,Q,Q
2023-03-15 13:25:28:3,0,-3.15095,-7.87952,-73.6228,Q,Q
2023-03-15 13:25:28:13,0,-3.16285,-7.87555,-73.6641,Q,Q
2023-03-15 13:25:28:23,0,-3.17213,-7.86993,-73.7071,Q,Q
2023-03-15 13:25:28:33,0,-3.18254,-7.86614,-73.752,Q,Q
2023-03-15 13:25:28:43,0,-3.19285,-7.86462,-73.7971,Q,Q
2023-03-15 13:25:28:53,0,-3.20083,-7.85937,-73.8419,Q,Q
2023-03-15 13:25:28:63,0,-3.20944,-7.85704,-73.8842,Q,Q
2023-03-15 13:25:28:73,0,-3.21382,-7.85474,-73.9253,Q,Q
2023-03-15 13:25:28:83,0,-3.21762,-7.85327,-73.9689,Q,Q
2023-03-15 13:25:28:93,0,-3.22359,-7.84909,-74.0113,Q,Q
2023-03-15 13:25:28:103,0,-3.22932,-7.84404,-74.0542,Q,Q
2023-03-15 13:25:28:113,0,-3.23473,-7.83647,-74.0971,Q,Q
2023-03-15 13:25:28:123,0,-3.23613,-7.8306,-74.1429,Q,Q
2023-03-15 13:25:28:133,0,-3.23411,-7.82636,-74.194,Q,Q
2023-03-15 13:25:28:143,0,-3.23334,-7.82126,-74.2414,Q,Q
2023-03-15 13:25:28:152,0,-3.23128,-7.82111,-74.2935,Q,Q
2023-03-15 13:25:28:163,0,-3.23127,-7.82424,-74.3529,Q,Q
2023-03-15 13:25:28:173,0,-3.23175,-7.8255,-74.416,Q,Q
2023-03-15 13:25:28:183,0,-3.22954,-7.82417,-74.488,Q,Q
2023-03-15 13:25:28:193,0,-3.22434,-7.82542,-74.5668,Q,Q
2023-03-15 13:25:28:203,0,-3.22321,-7.82824,-74.6451,Q,Q
2023-03-15 13:25:28:213,0,-3.21918,-7.83424,-74.7265,Q,Q
2023-03-15 13:25:28:223,0,-3.21966,-7.84035,-74.8094,Q,Q
2023-03-15 13:25:28:233,0,-3.2219,-7.84378,-74.891,Q,Q
2023-03-15 13:25:28:243,0,-3.22741,-7.85035,-74.9711,Q,Q
2023-03-15 13:25:28:253,0,-3.23228,-7.85339,-75.0506,Q,Q
2023-03-15 13:25:28:263,0,-3.23892,-7.85192,-75.1274,Q,Q
2023-03-15 13:25:28:273,0,-3.24224,-7.84924,-75.2012,Q,Q
2023-03-15 13:25:28:283,0,-3.25302,-7.84838,-75.2682,Q,Q
2023-03-15 13:25:28:293,0,-3.26416,-7.8427,-75.33,Q,Q
2023-03-15 13:25:28:303,0,-3.27477,-7.83532,-75.3875,Q,Q
2023-03-15 13:25:28:313,0,-3.28351,-7.82624,-75.4349,Q,Q
2023-03-15 13:25:28:323,0,-3.29691,-7.81655,-75.4804,Q,Q
2023-03-15 13:25:28:333,0,-3.30628,-7.80878,-75.5203,Q,Q
2023-03-15 13:25:28:343,0,-3.3136,-7.80249,-75.5527,Q,Q
2023-03-15 13:25:28:353,0,-3.32139,-7.79817,-75.5774,Q,Q
2023-03-15 13:25:28:363,0,-3.33011,-7.7949,-75.5999,Q,Q
2023-03-15 13:25:28:373,0,-3.33579,-7.78968,-75.6203,Q,Q
2023-03-15 13:25:28:383,0,-3.34207,-7.78639,-75.6342,Q,Q
2023-03-15 13:25:28:392,0,-3.35201,-7.78199,-75.6477,Q,Q
2023-03-15 13:25:28:403,0,-3.36132,-7.77979,-75.662,Q,Q
2023-03-15 13:25:28:412,0,-3.37274,-7.78018,-75.6765,Q,Q
2023-03-15 13:25:28:423,0,-3.38058,-7.78419,-75.6927,Q,Q
2023-03-15 13:25:28:433,0,-3.39212,-7.78879,-75.7085,Q,Q
2023-03-15 13:25:28:443,0,-3.40078,-7.79746,-75.7237,Q,Q
2023-03-15 13:25:28:453,0,-3.40406,-7.8082,-75.7427,Q,Q
2023-03-15 13:25:28:463,0,-3.40356,-7.81769,-75.7593,Q,Q
2023-03-15 13:25:28:473,0,-3.40255,-7.83147,-75.7724,Q,Q
2023-03-15 13:25:28:483,0,-3.39405,-7.84768,-75.7825,Q,Q
2023-03-15 13:25:28:493,0,-3.38299,-7.86505,-75.7885,Q,Q
2023-03-15 13:25:28:503,0,-3.36816,-7.8881,-75.7898,Q,Q
2023-03-15 13:25:28:513,0,-3.35984,-7.91181,-75.7769,Q,Q
2023-03-15 13:25:28:523,0,-3.35294,-7.93334,-75.7602,Q,Q
2023-03-15 13:25:28:533,0,-3.34599,-7.95857,-75.7325,Q,Q
2023-03-15 13:25:28:543,0,-3.33749,-7.97829,-75.6948,Q,Q
2023-03-15 13:25:28:553,0,-3.33093,-7.99109,-75.6428,Q,Q
2023-03-15 13:25:28:563,0,-3.32063,-8.00827,-75.58,Q,Q
2023-03-15 13:25:28:573,0,-3.30092,-8.01818,-75.5011,Q,Q
2023-03-15 13:25:28:583,0,-3.27687,-8.02798,-75.4072,Q,Q
2023-03-15 13:25:28:593,0,-3.24956,-8.03073,-75.301,Q,Q
2023-03-15 13:25:28:603,0,-3.22259,-8.02891,-75.1842,Q,Q
2023-03-15 13:25:28:613,0,-3.19148,-8.01944,-75.0538,Q,Q
2023-03-15 13:25:28:623,0,-3.15227,-8.00427,-74.9019,Q,Q
2023-03-15 13:25:28:633,0,-3.10364,-7.99174,-74.7341,Q,Q
2023-03-15 13:25:28:643,0,-3.04674,-7.97704,-74.542,Q,Q
2023-03-15 13:25:28:653,0,-2.99135,-7.9681,-74.3257,Q,Q
2023-03-15 13:25:28:663,0,-2.94227,-7.96333,-74.0804,Q,Q
2023-03-15 13:25:28:673,0,-2.89572,-7.9655,-73.7794,Q,Q
2023-03-15 13:25:28:683,0,-2.84364,-7.97829,-73.4128,Q,Q
2023-03-15 13:25:28:693,0,-2.78052,-8.00961,-72.9741,Q,Q
2023-03-15 13:25:28:703,0,-2.71143,-8.0465,-72.465,Q,Q
2023-03-15 13:25:28:713,0,-2.64104,-8.08472,-71.8878,Q,Q
2023-03-15 13:25:28:723,0,-2.56693,-8.1158,-71.2366,Q,Q
2023-03-15 13:25:28:733,0,-2.49534,-8.13562,-70.511,Q,Q
2023-03-15 13:25:28:743,0,-2.42652,-8.14725,-69.708,Q,Q
2023-03-15 13:25:28:753,0,-2.36115,-8.14871,-68.8283,Q,Q
2023-03-15 13:25:28:763,0,-2.30021,-8.13952,-67.8806,Q,Q
2023-03-15 13:25:28:773,0,-2.24497,-8.12767,-66.8587,Q,Q
2023-03-15 13:25:28:783,0,-2.19635,-8.11895,-65.752,Q,Q
2023-03-15 13:25:28:793,0,-2.15381,-8.11771,-64.5718,Q,Q
2023-03-15 13:25:28:803,0,-2.11407,-8.13034,-63.3259,Q,Q
2023-03-15 13:25:28:813,0,-2.09048,-8.14295,-62.0405,Q,Q
2023-03-15 13:25:28:823,0,-2.07561,-8.15056,-60.7314,Q,Q
2023-03-15 13:25:28:833,0,-2.07454,-8.14682,-59.4098,Q,Q
2023-03-15 13:25:28:843,0,-2.07713,-8.12232,-58.0833,Q,Q
2023-03-15 13:25:28:853,0,-2.08542,-8.0802,-56.7476,Q,Q
2023-03-15 13:25:28:863,0,-2.10259,-8.03567,-55.4141,Q,Q
2023-03-15 13:25:28:873,0,-2.12132,-7.98886,-54.0959,Q,Q
2023-03-15 13:25:28:883,0,-2.1453,-7.94026,-52.8061,Q,Q
2023-03-15 13:25:28:893,0,-2.17429,-7.89933,-51.5539,Q,Q
2023-03-15 13:25:28:903,0,-2.20693,-7.85978,-50.3469,Q,Q
2023-03-15 13:25:28:913,0,-2.23932,-7.82846,-49.1897,Q,Q
2023-03-15 13:25:28:923,0,-2.2616,-7.79978,-48.0813,Q,Q
2023-03-15 13:25:28:933,0,-2.27518,-7.77813,-47.0291,Q,Q
2023-03-15 13:25:28:943,0,-2.28706,-7.75697,-46.0331,Q,Q
2023-03-15 13:25:28:953,0,-2.30002,-7.73592,-45.1058,Q,Q
2023-03-15 13:25:28:963,0,-2.32027,-7.70862,-44.2449,Q,Q
2023-03-15 13:25:28:973,0,-2.34477,-7.67529,-43.4618,Q,Q
2023-03-15 13:25:28:983,0,-2.36998,-7.63034,-42.7482,Q,Q
2023-03-15 13:25:28:993,0,-2.39883,-7.5776,-42.1045,Q,Q
2023-03-15 13:25:29:3,0,-2.41997,-7.52057,-41.5252,Q,Q
2023-03-15 13:25:29:13,0,-2.42842,-7.46467,-41.0038,Q,Q
2023-03-15 13:25:29:23,0,-2.42303,-7.41285,-40.5286,Q,Q
2023-03-15 13:25:29:33,0,-2.39959,-7.37047,-40.1039,Q,Q
2023-03-15 13:25:29:43,0,-2.35947,-7.33624,-39.7236,Q,Q
2023-03-15 13:25:29:52,0,-2.31396,-7.30706,-39.3824,Q,Q
2023-03-15 13:25:29:62,0,-2.26952,-7.28435,-39.0781,Q,Q
2023-03-15 13:25:29:72,0,-2.23051,-7.2628,-38.8059,Q,Q
2023-03-15 13:25:29:82,0,-2.20233,-7.24571,-38.5653,Q,Q
2023-03-15 13:25:29:92,0,-2.18266,-7.22042,-38.3589,Q,Q
2023-03-15 13:25:29:102,0,-2.16665,-7.18613,-38.1868,Q,Q
2023-03-15 13:25:29:112,0,-2.15663,-7.13715,-38.0459,Q,Q
2023-03-15 13:25:29:123,0,-2.14338,-7.07858,-37.9278,Q,Q
2023-03-15 13:25:29:133,0,-2.12284,-7.00971,-37.8335,Q,Q
2023-03-15 13:25:29:143,0,-2.09875,-6.93299,-37.7529,Q,Q
2023-03-15 13:25:29:153,0,-2.06175,-6.86057,-37.681,Q,Q
2023-03-15 13:25:29:162,0,-2.01364,-6.79259,-37.613,Q,Q
2023-03-15 13:25:29:173,0,-1.95196,-6.73347,-37.5397,Q,Q
2023-03-15 13:25:29:183,0,-1.88062,-6.68954,-37.4629,Q,Q
2023-03-15 13:25:29:193,0,-1.79492,-6.65471,-37.3868,Q,Q
2023-03-15 13:25:29:203,0,-1.69676,-6.63465,-37.305,Q,Q
2023-03-15 13:25:29:212,0,-1.59038,-6.62316,-37.2174,Q,Q
2023-03-15 13:25:29:222,0,-1.48145,-6.62455,-37.1251,Q,Q
2023-03-15 13:25:29:232,0,-1.36524,-6.64166,-37.0236,Q,Q
2023-03-15 13:25:29:242,0,-1.25037,-6.67289,-36.9148,Q,Q
2023-03-15 13:25:29:253,0,-1.13737,-6.71397,-36.8007,Q,Q
2023-03-15 13:25:29:262,0,-1.02083,-6.76501,-36.6777,Q,Q
2023-03-15 13:25:29:273,0,-0.905117,-6.82275,-36.5548,Q,Q
2023-03-15 13:25:29:282,0,-0.791335,-6.88873,-36.432,Q,Q
2023-03-15 13:25:29:292,0,-0.676685,-6.95514,-36.2996,Q,Q
2023-03-15 13:25:29:302,0,-0.566219,-7.02362,-36.165,Q,Q
2023-03-15 13:25:29:313,0,-0.457732,-7.09113,-36.0278,Q,Q
2023-03-15 13:25:29:323,0,-0.357394,-7.15986,-35.8774,Q,Q
2023-03-15 13:25:29:333,0,-0.264376,-7.23152,-35.7167,Q,Q
2023-03-15 13:25:29:343,0,-0.176094,-7.30271,-35.5542,Q,Q
2023-03-15 13:25:29:353,0,-0.103022,-7.37274,-35.3921,Q,Q
2023-03-15 13:25:29:363,0,-0.0391324,-7.43582,-35.2327,Q,Q
2023-03-15 13:25:29:373,0,0.0178632,-7.49372,-35.0749,Q,Q
2023-03-15 13:25:29:383,0,0.0674436,-7.53602,-34.9205,Q,Q
2023-03-15 13:25:29:393,0,0.109855,-7.57129,-34.7706,Q,Q
2023-03-15 13:25:29:403,0,0.143655,-7.60171,-34.6268,Q,Q
2023-03-15 13:25:29:413,0,0.171572,-7.6283,-34.4817,Q,Q
2023-03-15 13:25:29:423,0,0.194504,-7.65068,-34.3391,Q,Q
2023-03-15 13:25:29:433,0,0.217055,-7.67626,-34.1951,Q,Q
2023-03-15 13:25:29:443,0,0.233428,-7.7034,-34.0588,Q,Q
2023-03-15 13:25:29:453,0,0.247421,-7.73397,-33.9211,Q,Q
2023-03-15 13:25:29:463,0,0.261873,-7.7637,-33.7905,Q,Q
2023-03-15 13:25:29:473,0,0.268763,-7.78572,-33.6649,Q,Q
2023-03-15 13:25:29:483,0,0.273107,-7.79845,-33.5432,Q,Q
2023-03-15 13:25:29:493,0,0.271888,-7.80661,-33.425,Q,Q
2023-03-15 13:25:29:503,0,0.268149,-7.80926,-33.3117,Q,Q
2023-03-15 13:25:29:513,0,0.262658,-7.80499,-33.2055,Q,Q
2023-03-15 13:25:29:523,0,0.252507,-7.79897,-33.1033,Q,Q
2023-03-15 13:25:29:533,0,0.241944,-7.7897,-33.0082,Q,Q
2023-03-15 13:25:29:543,0,0.234927,-7.77308,-32.9206,Q,Q
2023-03-15 13:25:29:553,0,0.225627,-7.75223,-32.8412,Q,Q
2023-03-15 13:25:29:563,0,0.22406,-7.73307,-32.7628,Q,Q
2023-03-15 13:25:29:573,0,0.229991,-7.71912,-32.6866,Q,Q
2023-03-15 13:25:29:583,0,0.237076,-7.70353,-32.6112,Q,Q
2023-03-15 13:25:29:593,0,0.251501,-7.6885,-32.5443,Q,Q
2023-03-15 13:25:29:603,0,0.268114,-7.67352,-32.4815,Q,Q
2023-03-15 13:25:29:613,0,0.286959,-7.6631,-32.421,Q,Q
2023-03-15 13:25:29:623,0,0.301503,-7.65144,-32.3627,Q,Q
2023-03-15 13:25:29:633,0,0.310043,-7.64258,-32.3092,Q,Q
2023-03-15 13:25:29:643,0,0.312279,-7.62718,-32.2565,Q,Q
2023-03-15 13:25:29:653,0,0.303642,-7.61017,-32.2117,Q,Q
2023-03-15 13:25:29:663,0,0.288414,-7.59304,-32.1658,Q,Q
2023-03-15 13:25:29:673,0,0.261645,-7.57572,-32.1169,Q,Q
2023-03-15 13:25:29:683,0,0.234655,-7.55842,-32.0666,Q,Q
2023-03-15 13:25:29:693,0,0.210346,-7.5452,-32.0122,Q,Q
2023-03-15 13:25:29:703,0,0.189241,-7.53373,-31.9512,Q,Q
2023-03-15 13:25:29:713,0,0.169256,-7.52681,-31.8859,Q,Q
2023-03-15 13:25:29:723,0,0.154173,-7.52636,-31.8164,Q,Q
2023-03-15 13:25:29:733,0,0.138884,-7.52881,-31.7464,Q,Q
2023-03-15 13:25:29:743,0,0.125335,-7.52647,-31.6779,Q,Q
2023-03-15 13:25:29:753,0,0.110125,-7.52748,-31.6064,Q,Q
2023-03-15 13:25:29:763,0,0.0940976,-7.52979,-31.5347,Q,Q
2023-03-15 13:25:29:773,0,0.0873061,-7.53595,-31.4698,Q,Q
2023-03-15 13:25:29:783,0,0.0919498,-7.54116,-31.4045,Q,Q
2023-03-15 13:25:29:793,0,0.1008,-7.54822,-31.3407,Q,Q
2023-03-15 13:25:29:803,0,0.116473,-7.55248,-31.2768,Q,Q
2023-03-15 13:25:29:813,0,0.138024,-7.55546,-31.2132,Q,Q
2023-03-15 13:25:29:823,0,0.166149,-7.56016,-31.1517,Q,Q
2023-03-15 13:25:29:833,0,0.191902,-7.56744,-31.0901,Q,Q
2023-03-15 13:25:29:843,0,0.218872,-7.57346,-31.0339,Q,Q
2023-03-15 13:25:29:853,0,0.245174,-7.57445,-30.9826,Q,Q
2023-03-15 13:25:29:863,0,0.270143,-7.58011,-30.9286,Q,Q
2023-03-15 13:25:29:873,0,0.299722,-7.5848,-30.8765,Q,Q
2023-03-15 13:25:29:883,0,0.323304,-7.58728,-30.8248,Q,Q
2023-03-15 13:25:29:893,0,0.335577,-7.58323,-30.7691,Q,Q
2023-03-15 13:25:29:903,0,0.339754,-7.5827,-30.713,Q,Q
2023-03-15 13:25:29:913,0,0.335755,-7.577,-30.6545,Q,Q
2023-03-15 13:25:29:923,0,0.325589,-7.57835,-30.5935,Q,Q
2023-03-15 13:25:29:933,0,0.309986,-7.57921,-30.5315,Q,Q
2023-03-15 13:25:29:943,0,0.287262,-7.57655,-30.4631,Q,Q
2023-03-15 13:25:29:953,0,0.26147,-7.57712,-30.3955,Q,Q
2023-03-15 13:25:29:963,0,0.245072,-7.5734,-30.3227,Q,Q
2023-03-15 13:25:29:973,0,0.235011,-7.57085,-30.2547,Q,Q
2023-03-15 13:25:29:983,0,0.236655,-7.56961,-30.1835,Q,Q
2023-03-15 13:25:29:993,0,0.243219,-7.57221,-30.1131,Q,Q
2023-03-15 13:25:30:3,0,0.250168,-7.57262,-30.0387,Q,Q
2023-03-15 13:25:30:13,0,0.253536,-7.57363,-29.9706,Q,Q
2023-03-15 13:25:30:23,0,0.256389,-7.56952,-29.9049,Q,Q
2023-03-15 13:25:30:33,0,0.252659,-7.56363,-29.8386,Q,Q
2023-03-15 13:25:30:43,0,0.237547,-7.56593,-29.7755,Q,Q
2023-03-15 13:25:30:53,0,0.219919,-7.5682,-29.7171,Q,Q
2023-03-15 13:25:30:63,0,0.205286,-7.56848,-29.6613,Q,Q
2023-03-15 13:25:30:73,0,0.193084,-7.56854,-29.6059,Q,Q
2023-03-15 13:25:30:83,0,0.180711,-7.57191,-29.5515,Q,Q
2023-03-15 13:25:30:93,0,0.18001,-7.57991,-29.499,Q,Q
2023-03-15 13:25:30:103,0,0.18407,-7.58845,-29.4525,Q,Q
2023-03-15 13:25:30:113,0,0.197505,-7.5943,-29.4096,Q,Q
2023-03-15 13:25:30:123,0,0.21234,-7.60163,-29.3706,Q,Q
2023-03-15 13:25:30:133,0,0.225434,-7.60703,-29.3389,Q,Q
2023-03-15 13:25:30:143,0,0.237607,-7.60932,-29.3089,Q,Q
2023-03-15 13:25:30:153,0,0.243642,-7.60845,-29.2844,Q,Q
2023-03-15 13:25:30:163,0,0.251749,-7.60456,-29.272,Q,Q
2023-03-15 13:25:30:173,0,0.258093,-7.59476,-29.2635,Q,Q
2023-03-15 13:25:30:183,0,0.262336,-7.58208,-29.2589,Q,Q
2023-03-15 13:25:30:193,0,0.275468,-7.55701,-29.2583,Q,Q
2023-03-15 13:25:30:203,0,0.297522,-7.52811,-29.2638,Q,Q
2023-03-15 13:25:30:213,0,0.32098,-7.49858,-29.2729,Q,Q
2023-03-15 13:25:30:223,0,0.335665,-7.47219,-29.2814,Q,Q
2023-03-15 13:25:30:233,0,0.338467,-7.44838,-29.2892,Q,Q
2023-03-15 13:25:30:243,0,0.332186,-7.43117,-29.3028,Q,Q
2023-03-15 13:25:30:253,0,0.325288,-7.41795,-29.3217,Q,Q
2023-03-15 13:25:30:263,0,0.321768,-7.40558,-29.3427,Q,Q
2023-03-15 13:25:30:273,0,0.319286,-7.38557,-29.3647,Q,Q
2023-03-15 13:25:30:283,0,0.326232,-7.36152,-29.3911,Q,Q
2023-03-15 13:25:30:293,0,0.332631,-7.33832,-29.4114,Q,Q
2023-03-15 13:25:30:303,0,0.339698,-7.32152,-29.4324,Q,Q
2023-03-15 13:25:30:313,0,0.347099,-7.30479,-29.4565,Q,Q
2023-03-15 13:25:30:323,0,0.359954,-7.28942,-29.4778,Q,Q
2023-03-15 13:25:30:333,0,0.377693,-7.27245,-29.4988,Q,Q
2023-03-15 13:25:30:343,0,0.393291,-7.25597,-29.5175,Q,Q
2023-03-15 13:25:30:353,0,0.40706,-7.23999,-29.5344,Q,Q
2023-03-15 13:25:30:363,0,0.424205,-7.21869,-29.5527,Q,Q
2023-03-15 13:25:30:373,0,0.441842,-7.19751,-29.5677,Q,Q
2023-03-15 13:25:30:383,0,0.454289,-7.17784,-29.5742,Q,Q
2023-03-15 13:25:30:393,0,0.46111,-7.15537,-29.5761,Q,Q
2023-03-15 13:25:30:403,0,0.464366,-7.13984,-29.576,Q,Q
2023-03-15 13:25:30:413,0,0.470303,-7.12411,-29.5682,Q,Q
2023-03-15 13:25:30:423,0,0.478764,-7.10735,-29.5565,Q,Q
2023-03-15 13:25:30:433,0,0.486586,-7.09247,-29.5418,Q,Q
2023-03-15 13:25:30:443,0,0.496543,-7.07784,-29.5194,Q,Q
2023-03-15 13:25:30:453,0,0.505586,-7.07084,-29.496,Q,Q
2023-03-15 13:25:30:463,0,0.516355,-7.06485,-29.4693,Q,Q
2023-03-15 13:25:30:473,0,0.525536,-7.06269,-29.4373,Q,Q
2023-03-15 13:25:30:483,0,0.534071,-7.06309,-29.402,Q,Q
2023-03-15 13:25:30:493,0,0.544996,-7.06814,-29.3666,Q,Q
2023-03-15 13:25:30:503,0,0.556056,-7.08066,-29.3266,Q,Q
2023-03-15 13:25:30:513,0,0.570249,-7.09586,-29.2839,Q,Q
2023-03-15 13:25:30:523,0,0.593431,-7.10346,-29.2383,Q,Q
2023-03-15 13:25:30:533,0,0.610438,-7.11235,-29.1831,Q,Q
2023-03-15 13:25:30:543,0,0.628718,-7.12301,-29.1267,Q,Q
2023-03-15 13:25:30:553,0,0.645003,-7.13345,-29.0631,Q,Q
2023-03-15 13:25:30:563,0,0.660187,-7.14234,-28.9894,Q,Q
2023-03-15 13:25:30:573,0,0.662713,-7.15559,-28.9164,Q,Q
2023-03-15 13:25:30:583,0,0.658771,-7.17095,-28.842,Q,Q
2023-03-15 13:25:30:593,0,0.649162,-7.18219,-28.7654,Q,Q
2023-03-15 13:25:30:603,0,0.623198,-7.18918,-28.6957,Q,Q
2023-03-15 13:25:30:613,0,0.594951,-7.19147,-28.6328,Q,Q
2023-03-15 13:25:30:623,0,0.561933,-7.18722,-28.5732,Q,Q
2023-03-15 13:25:30:633,0,0.531512,-7.17547,-28.5157,Q,Q
2023-03-15 13:25:30:643,0,0.501043,-7.16702,-28.4599,Q,Q
2023-03-15 13:25:30:653,0,0.476677,-7.1602,-28.4048,Q,Q
2023-03-15 13:25:30:663,0,0.461795,-7.15846,-28.3521,Q,Q
2023-03-15 13:25:30:673,0,0.450308,-7.15821,-28.304,Q,Q
2023-03-15 13:25:30:683,0,0.445478,-7.16344,-28.255,Q,Q
2023-03-15 13:25:30:693,0,0.438559,-7.16657,-28.212,Q,Q
2023-03-15 13:25:30:703,0,0.424211,-7.16878,-28.1711,Q,Q
2023-03-15 13:25:30:713,0,0.408958,-7.16586,-28.1356,Q,Q
2023-03-15 13:25:30:723,0,0.391573,-7.16185,-28.1047,Q,Q
2023-03-15 13:25:30:733,0,0.371752,-7.15799,-28.0729,Q,Q
2023-03-15 13:25:30:743,0,0.349846,-7.1556,-28.0522,Q,Q
2023-03-15 13:25:30:753,0,0.333969,-7.15435,-28.0435,Q,Q
2023-03-15 13:25:30:763,0,0.316678,-7.1473,-28.0457,Q,Q
2023-03-15 13:25:30:773,0,0.295018,-7.14082,-28.0588,Q,Q
2023-03-15 13:25:30:783,0,0.26605,-7.13559,-28.0821,Q,Q
2023-03-15 13:25:30:793,0,0.224558,-7.13469,-28.1192,Q,Q
2023-03-15 13:25:30:803,0,0.162584,-7.1379,-28.1666,Q,Q
2023-03-15 13:25:30:813,0,0.0890892,-7.14896,-28.2276,Q,Q
2023-03-15 13:25:30:823,0,0.0149386,-7.16338,-28.3054,Q,Q
2023-03-15 13:25:30:833,0,-0.0467416,-7.18063,-28.3878,Q,Q
2023-03-15 13:25:30:843,0,-0.081045,-7.20041,-28.4772,Q,Q
2023-03-15 13:25:30:852,0,-0.0905945,-7.21586,-28.5703,Q,Q
2023-03-15 13:25:30:862,0,-0.0783421,-7.23283,-28.6636,Q,Q
2023-03-15 13:25:30:872,0,-0.0424881,-7.25002,-28.7603,Q,Q
2023-03-15 13:25:30:883,0,0.015396,-7.26445,-28.8426,Q,Q
2023-03-15 13:25:30:893,0,0.0869566,-7.27589,-28.9194,Q,Q
2023-03-15 13:25:30:903,0,0.164507,-7.27742,-28.9891,Q,Q
2023-03-15 13:25:30:913,0,0.246725,-7.26821,-29.0422,Q,Q
2023-03-15 13:25:30:923,0,0.32377,-7.25491,-29.0872,Q,Q
2023-03-15 13:25:30:933,0,0.389928,-7.24421,-29.1192,Q,Q
2023-03-15 13:25:30:943,0,0.444814,-7.23781,-29.1416,Q,Q
2023-03-15 13:25:30:953,0,0.485063,-7.23131,-29.1587,Q,Q
2023-03-15 13:25:30:963,0,0.518475,-7.21981,-29.1736,Q,Q
2023-03-15 13:25:30:973,0,0.543086,-7.20373,-29.1769,Q,Q
2023-03-15 13:25:30:983,0,0.564354,-7.18713,-29.1698,Q,Q
2023-03-15 13:25:30:993,0,0.576965,-7.16928,-29.1522,Q,Q
2023-03-15 13:25:31:3,0,0.582765,-7.1482,-29.1282,Q,Q
2023-03-15 13:25:31:13,0,0.568209,-7.13311,-29.0967,Q,Q
2023-03-15 13:25:31:22,0,0.538449,-7.12187,-29.0651,Q,Q
2023-03-15 13:25:31:33,0,0.499889,-7.11314,-29.0414,Q,Q
2023-03-15 13:25:31:43,0,0.453648,-7.09549,-29.0233,Q,Q
2023-03-15 13:25:31:53,0,0.4051,-7.07429,-29.0145,Q,Q
2023-03-15 13:25:31:63,0,0.357519,-7.04543,-29.0106,Q,Q
2023-03-15 13:25:31:73,0,0.307012,-7.01416,-29.0107,Q,Q
2023-03-15 13:25:31:83,0,0.266705,-6.98289,-29.0154,Q,Q
2023-03-15 13:25:31:93,0,0.240396,-6.95338,-29.0238,Q,Q
2023-03-15 13:25:31:103,0,0.223218,-6.92849,-29.0313,Q,Q
2023-03-15 13:25:31:113,0,0.210713,-6.90549,-29.0389,Q,Q
2023-03-15 13:25:31:123,0,0.196127,-6.89018,-29.0477,Q,Q
2023-03-15 13:25:31:133,0,0.175422,-6.87969,-29.0547,Q,Q
2023-03-15 13:25:31:143,0,0.141286,-6.87258,-29.0644,Q,Q
2023-03-15 13:25:31:153,0,0.112613,-6.86742,-29.0811,Q,Q
2023-03-15 13:25:31:163,0,0.0840891,-6.85824,-29.0956,Q,Q
2023-03-15 13:25:31:173,0,0.0528888,-6.85502,-29.1053,Q,Q
2023-03-15 13:25:31:183,0,0.0255814,-6.84658,-29.117,Q,Q
2023-03-15 13:25:31:193,0,0.00168312,-6.84311,-29.1256,Q,Q
2023-03-15 13:25:31:203,0,-0.0140452,-6.83526,-29.1307,Q,Q
2023-03-15 13:25:31:213,0,-0.0247612,-6.82454,-29.1294,Q,Q
2023-03-15 13:25:31:223,0,-0.0337498,-6.81485,-29.1232,Q,Q
2023-03-15 13:25:31:233,0,-0.0403186,-6.80142,-29.1057,Q,Q
2023-03-15 13:25:31:243,0,-0.0475387,-6.78246,-29.0803,Q,Q
2023-03-15 13:25:31:253,0,-0.048979,-6.76346,-29.044,Q,Q
2023-03-15 13:25:31:263,0,-0.0484853,-6.74645,-29.0014,Q,Q
2023-03-15 13:25:31:273,0,-0.0564761,-6.73074,-28.9479,Q,Q
2023-03-15 13:25:31:283,0,-0.0736109,-6.71943,-28.8799,Q,Q
2023-03-15 13:25:31:293,0,-0.101888,-6.71546,-28.8065,Q,Q
2023-03-15 13:25:31:303,0,-0.133305,-6.71423,-28.7242,Q,Q
2023-03-15 13:25:31:313,0,-0.161827,-6.71367,-28.635,Q,Q
2023-03-15 13:25:31:323,0,-0.17926,-6.72203,-28.5451,Q,Q
2023-03-15 13:25:31:333,0,-0.187867,-6.73683,-28.4501,Q,Q
2023-03-15 13:25:31:343,0,-0.191366,-6.75861,-28.3543,Q,Q
2023-03-15 13:25:31:353,0,-0.168595,-6.77523,-28.2603,Q,Q
2023-03-15 13:25:31:363,0,-0.138615,-6.78986,-28.155,Q,Q
2023-03-15 13:25:31:373,0,-0.114931,-6.80242,-28.0528,Q,Q
2023-03-15 13:25:31:383,0,-0.102129,-6.81383,-27.9508,Q,Q
2023-03-15 13:25:31:393,0,-0.0873342,-6.8245,-27.8481,Q,Q
2023-03-15 13:25:31:403,0,-0.0635273,-6.83701,-27.7464,Q,Q
2023-03-15 13:25:31:413,0,-0.0429009,-6.84689,-27.6442,Q,Q
2023-03-15 13:25:31:423,0,-0.0229582,-6.85585,-27.5404,Q,Q
2023-03-15 13:25:31:433,0,-0.00246384,-6.86778,-27.4381,Q,Q
2023-03-15 13:25:31:443,0,0.0112179,-6.87675,-27.3352,Q,Q
2023-03-15 13:25:31:453,0,0.0245969,-6.88437,-27.2341,Q,Q
2023-03-15 13:25:31:463,0,0.036389,-6.89084,-27.1361,Q,Q
2023-03-15 13:25:31:473,0,0.0433215,-6.8979,-27.0418,Q,Q
2023-03-15 13:25:31:483,0,0.0517715,-6.90018,-26.9508,Q,Q
2023-03-15 13:25:31:493,0,0.0579574,-6.90481,-26.8676,Q,Q
2023-03-15 13:25:31:503,0,0.0720267,-6.91042,-26.7922,Q,Q
2023-03-15 13:25:31:513,0,0.0882378,-6.91089,-26.7192,Q,Q
2023-03-15 13:25:31:523,0,0.103199,-6.91062,-26.6502,Q,Q
2023-03-15 13:25:31:533,0,0.116705,-6.90374,-26.5896,Q,Q
2023-03-15 13:25:31:543,0,0.13148,-6.9023,-26.5278,Q,Q
2023-03-15 13:25:31:553,0,0.142639,-6.90231,-26.4693,Q,Q
2023-03-15 13:25:31:563,0,0.16139,-6.90364,-26.4067,Q,Q
2023-03-15 13:25:31:573,0,0.178403,-6.91167,-26.3466,Q,Q
2023-03-15 13:25:31:583,0,0.191392,-6.92382,-26.2856,Q,Q
2023-03-15 13:25:31:593,0,0.207702,-6.93387,-26.2266,Q,Q
2023-03-15 13:25:31:603,0,0.228572,-6.94885,-26.169,Q,Q
2023-03-15 13:25:31:613,0,0.250589,-6.95775,-26.1092,Q,Q
2023-03-15 13:25:31:623,0,0.271087,-6.96933,-26.0486,Q,Q
2023-03-15 13:25:31:633,0,0.290097,-6.9776,-25.9931,Q,Q
2023-03-15 13:25:31:643,0,0.311876,-6.98274,-25.9345,Q,Q
2023-03-15 13:25:31:652,0,0.325339,-6.98713,-25.8744,Q,Q
2023-03-15 13:25:31:662,0,0.33576,-6.99,-25.8133,Q,Q
2023-03-15 13:25:31:673,0,0.345209,-6.99413,-25.7541,Q,Q
2023-03-15 13:25:31:683,0,0.35378,-7.00499,-25.6939,Q,Q
2023-03-15 13:25:31:693,0,0.360284,-7.01032,-25.6352,Q,Q
2023-03-15 13:25:31:703,0,0.365426,-7.01755,-25.5786,Q,Q
2023-03-15 13:25:31:713,0,0.373069,-7.02038,-25.5225,Q,Q
2023-03-15 13:25:31:723,0,0.370612,-7.0187,-25.4628,Q,Q
2023-03-15 13:25:31:733,0,0.366457,-7.01719,-25.4068,Q,Q
2023-03-15 13:25:31:743,0,0.359572,-7.01183,-25.3492,Q,Q
2023-03-15 13:25:31:753,0,0.347703,-7.00599,-25.2911,Q,Q
2023-03-15 13:25:31:763,0,0.335055,-7.00033,-25.2389,Q,Q
2023-03-15 13:25:31:773,0,0.316717,-6.9959,-25.1872,Q,Q
2023-03-15 13:25:31:783,0,0.300274,-6.99056,-25.1394,Q,Q
2023-03-15 13:25:31:793,0,0.285555,-6.98706,-25.094,Q,Q
2023-03-15 13:25:31:803,0,0.274702,-6.98346,-25.0498,Q,Q
2023-03-15 13:25:31:813,0,0.272304,-6.97785,-25.0077,Q,Q
2023-03-15 13:25:31:823,0,0.268384,-6.97718,-24.9661,Q,Q
2023-03-15 13:25:31:833,0,0.267572,-6.98007,-24.9276,Q,Q
2023-03-15 13:25:31:843,0,0.268903,-6.97788,-24.8941,Q,Q
2023-03-15 13:25:31:853,0,0.264834,-6.98481,-24.8664,Q,Q
2023-03-15 13:25:31:863,0,0.26189,-6.98699,-24.8439,Q,Q
2023-03-15 13:25:31:873,0,0.254294,-6.98984,-24.8281,Q,Q
2023-03-15 13:25:31:883,0,0.24283,-6.98663,-24.8164,Q,Q
2023-03-15 13:25:31:893,0,0.233089,-6.98832,-24.7992,Q,Q
2023-03-15 13:25:31:903,0,0.226201,-6.98849,-24.778,Q,Q
2023-03-15 13:25:31:913,0,0.218091,-6.98538,-24.7525,Q,Q
2023-03-15 13:25:31:923,0,0.211862,-6.98302,-24.7189,Q,Q
2023-03-15 13:25:31:933,0,0.200465,-6.97274,-24.6821,Q,Q
2023-03-15 13:25:31:943,0,0.186455,-6.95623,-24.6393,Q,Q
2023-03-15 13:25:31:953,0,0.158981,-6.94048,-24.5909,Q,Q
2023-03-15 13:25:31:963,0,0.120455,-6.92188,-24.5336,Q,Q
2023-03-15 13:25:31:973,0,0.0768593,-6.90237,-24.4749,Q,Q
2023-03-15 13:25:31:983,0,0.0280303,-6.89601,-24.408,Q,Q
2023-03-15 13:25:31:993,0,-0.0249871,-6.89051,-24.3371,Q,Q
2023-03-15 13:25:32:3,0,-0.0720343,-6.88595,-24.2685,Q,Q
2023-03-15 13:25:32:13,0,-0.106882,-6.88082,-24.1988,Q,Q
2023-03-15 13:25:32:23,0,-0.137807,-6.87183,-24.1255,Q,Q
2023-03-15 13:25:32:33,0,-0.166562,-6.86735,-24.0463,Q,Q
2023-03-15 13:25:32:43,0,-0.190596,-6.86848,-23.9687,Q,Q
2023-03-15 13:25:32:53,0,-0.208359,-6.8682,-23.895,Q,Q
2023-03-15 13:25:32:63,0,-0.224348,-6.86604,-23.8232,Q,Q
2023-03-15 13:25:32:73,0,-0.23644,-6.8684,-23.7539,Q,Q
2023-03-15 13:25:32:83,0,-0.246512,-6.86885,-23.6885,Q,Q
2023-03-15 13:25:32:93,0,-0.255357,-6.86822,-23.6235,Q,Q
2023-03-15 13:25:32:103,0,-0.264785,-6.86891,-23.5607,Q,Q
2023-03-15 13:25:32:113,0,-0.276797,-6.87667,-23.5,Q,Q
2023-03-15 13:25:32:123,0,-0.2863,-6.88152,-23.4461,Q,Q
2023-03-15 13:25:32:133,0,-0.295113,-6.88739,-23.3946,Q,Q
2023-03-15 13:25:32:143,0,-0.298083,-6.89339,-23.3431,Q,Q
2023-03-15 13:25:32:153,0,-0.294596,-6.89944,-23.2927,Q,Q
2023-03-15 13:25:32:163,0,-0.296613,-6.90662,-23.2404,Q,Q
2023-03-15 13:25:32:172,0,-0.308232,-6.91287,-23.19,Q,Q
2023-03-15 13:25:32:182,0,-0.326361,-6.92086,-23.1435,Q,Q
2023-03-15 13:25:32:193,0,-0.346895,-6.92944,-23.1025,Q,Q
2023-03-15 13:25:32:203,0,-0.36936,-6.92947,-23.063,Q,Q
2023-03-15 13:25:32:213,0,-0.390206,-6.92875,-23.0264,Q,Q
2023-03-15 13:25:32:223,0,-0.414046,-6.9292,-22.9911,Q,Q
2023-03-15 13:25:32:233,0,-0.432691,-6.92505,-22.957,Q,Q
2023-03-15 13:25:32:243,0,-0.450289,-6.92278,-22.9212,Q,Q
2023-03-15 13:25:32:253,0,-0.46648,-6.91979,-22.885,Q,Q
2023-03-15 13:25:32:263,0,-0.47923,-6.91947,-22.8553,Q,Q
2023-03-15 13:25:32:273,0,-0.491707,-6.9161,-22.8274,Q,Q
2023-03-15 13:25:32:283,0,-0.497358,-6.91206,-22.7992,Q,Q
2023-03-15 13:25:32:293,0,-0.501975,-6.90499,-22.7732,Q,Q
2023-03-15 13:25:32:303,0,-0.5044,-6.90041,-22.7473,Q,Q
2023-03-15 13:25:32:313,0,-0.503902,-6.8989,-22.7245,Q,Q
2023-03-15 13:25:32:323,0,-0.503859,-6.90547,-22.6972,Q,Q
2023-03-15 13:25:32:333,0,-0.500837,-6.91045,-22.6755,Q,Q
2023-03-15 13:25:32:343,0,-0.503431,-6.91462,-22.6495,Q,Q
2023-03-15 13:25:32:353,0,-0.503157,-6.91755,-22.6234,Q,Q
2023-03-15 13:25:32:363,0,-0.506589,-6.91931,-22.5967,Q,Q
2023-03-15 13:25:32:373,0,-0.513672,-6.92608,-22.5688,Q,Q
2023-03-15 13:25:32:383,0,-0.52137,-6.93025,-22.5429,Q,Q
2023-03-15 13:25:32:393,0,-0.531489,-6.92865,-22.5166,Q,Q
2023-03-15 13:25:32:403,0,-0.542379,-6.9311,-22.4894,Q,Q
2023-03-15 13:25:32:413,0,-0.552848,-6.93751,-22.4647,Q,Q
2023-03-15 13:25:32:423,0,-0.564753,-6.94253,-22.4338,Q,Q
2023-03-15 13:25:32:433,0,-0.579466,-6.93991,-22.4098,Q,Q
2023-03-15 13:25:32:443,0,-0.592954,-6.93833,-22.3829,Q,Q
2023-03-15 13:25:32:453,0,-0.605939,-6.93337,-22.3547,Q,Q
2023-03-15 13:25:32:463,0,-0.615266,-6.93027,-22.3315,Q,Q
2023-03-15 13:25:32:473,0,-0.620215,-6.92603,-22.3059,Q,Q
2023-03-15 13:25:32:483,0,-0.624243,-6.9202,-22.2796,Q,Q
2023-03-15 13:25:32:493,0,-0.627378,-6.91616,-22.258,Q,Q
2023-03-15 13:25:32:503,0,-0.625519,-6.90758,-22.2374,Q,Q
2023-03-15 13:25:32:513,0,-0.622977,-6.89699,-22.2133,Q,Q
2023-03-15 13:25:32:523,0,-0.626555,-6.8864,-22.1881,Q,Q
2023-03-15 13:25:32:533,0,-0.624893,-6.87712,-22.1641,Q,Q
2023-03-15 13:25:32:543,0,-0.617772,-6.86948,-22.1401,Q,Q
2023-03-15 13:25:32:553,0,-0.609115,-6.8626,-22.1121,Q,Q
2023-03-15 13:25:32:563,0,-0.604245,-6.85043,-22.0844,Q,Q
2023-03-15 13:25:32:573,0,-0.595676,-6.84435,-22.0528,Q,Q
2023-03-15 13:25:32:583,0,-0.588199,-6.83775,-22.0238,Q,Q
2023-03-15 13:25:32:593,0,-0.584875,-6.83034,-21.9922,Q,Q
2023-03-15 13:25:32:603,0,-0.580854,-6.82493,-21.9608,Q,Q
2023-03-15 13:25:32:613,0,-0.581768,-6.8174,-21.9317,Q,Q
2023-03-15 13:25:32:623,0,-0.581046,-6.80639,-21.9061,Q,Q
2023-03-15 13:25:32:633,0,-0.583285,-6.79825,-21.8798,Q,Q
2023-03-15 13:25:32:643,0,-0.582631,-6.78891,-21.8505,Q,Q
2023-03-15 13:25:32:653,0,-0.579861,-6.78327,-21.8203,Q,Q
2023-03-15 13:25:32:663,0,-0.579197,-6.78159,-21.7828,Q,Q
2023-03-15 13:25:32:673,0,-0.57723,-6.78268,-21.7469,Q,Q
2023-03-15 13:25:32:683,0,-0.573177,-6.7824,-21.7085,Q,Q
2023-03-15 13:25:32:693,0,-0.565232,-6.7818,-21.6743,Q,Q
2023-03-15 13:25:32:703,0,-0.563495,-6.78233,-21.6393,Q,Q
2023-03-15 13:25:32:713,0,-0.563087,-6.78487,-21.6009,Q,Q
2023-03-15 13:25:32:723,0,-0.564751,-6.78747,-21.5646,Q,Q
2023-03-15 13:25:32:733,0,-0.565659,-6.79187,-21.5244,Q,Q
2023-03-15 13:25:32:743,0,-0.569808,-6.79505,-21.4842,Q,Q
2023-03-15 13:25:32:753,0,-0.579419,-6.7966,-21.4439,Q,Q
2023-03-15 13:25:32:763,0,-0.587925,-6.79974,-21.4023,Q,Q
2023-03-15 13:25:32:773,0,-0.596539,-6.80523,-21.3601,Q,Q
2023-03-15 13:25:32:782,0,-0.60391,-6.81176,-21.3167,Q,Q
2023-03-15 13:25:32:792,0,-0.610527,-6.81721,-21.2732,Q,Q
2023-03-15 13:25:32:803,0,-0.616335,-6.82359,-21.2307,Q,Q
2023-03-15 13:25:32:812,0,-0.617924,-6.82776,-21.1911,Q,Q
2023-03-15 13:25:32:822,0,-0.618566,-6.82896,-21.1505,Q,Q
2023-03-15 13:25:32:833,0,-0.621315,-6.83415,-21.1081,Q,Q
2023-03-15 13:25:32:842,0,-0.623002,-6.83658,-21.0659,Q,Q
2023-03-15 13:25:32:852,0,-0.627179,-6.83584,-21.0246,Q,Q
2023-03-15 13:25:32:863,0,-0.632922,-6.83395,-20.981,Q,Q
2023-03-15 13:25:32:873,0,-0.641097,-6.83521,-20.9358,Q,Q
2023-03-15 13:25:32:883,0,-0.651586,-6.8345,-20.8929,Q,Q
2023-03-15 13:25:32:893,0,-0.65997,-6.83608,-20.8504,Q,Q
2023-03-15 13:25:32:903,0,-0.670498,-6.84521,-20.8073,Q,Q
2023-03-15 13:25:32:912,0,-0.683303,-6.85213,-20.7625,Q,Q
2023-03-15 13:25:32:923,0,-0.694086,-6.85633,-20.7187,Q,Q
2023-03-15 13:25:32:933,0,-0.707526,-6.85929,-20.6764,Q,Q
2023-03-15 13:25:32:943,0,-0.719824,-6.86644,-20.6336,Q,Q
2023-03-15 13:25:32:953,0,-0.733445,-6.86973,-20.59,Q,Q
2023-03-15 13:25:32:963,0,-0.751813,-6.87614,-20.5478,Q,Q
2023-03-15 13:25:32:973,0,-0.773858,-6.87666,-20.4995,Q,Q
2023-03-15 13:25:32:983,0,-0.791833,-6.87334,-20.456,Q,Q
2023-03-15 13:25:32:993,0,-0.812392,-6.87106,-20.4137,Q,Q
2023-03-15 13:25:33:3,0,-0.829543,-6.86583,-20.3662,Q,Q
2023-03-15 13:25:33:13,0,-0.846733,-6.86073,-20.3149,Q,Q
2023-03-15 13:25:33:23,0,-0.866041,-6.85524,-20.2651,Q,Q
2023-03-15 13:25:33:33,0,-0.886426,-6.85479,-20.2165,Q,Q
2023-03-15 13:25:33:43,0,-0.904383,-6.85011,-20.1709,Q,Q
2023-03-15 13:25:33:53,0,-0.921322,-6.84113,-20.1296,Q,Q
2023-03-15 13:25:33:63,0,-0.939113,-6.83409,-20.0852,Q,Q
2023-03-15 13:25:33:73,0,-0.956835,-6.82874,-20.0413,Q,Q
2023-03-15 13:25:33:83,0,-0.974408,-6.81908,-19.9961,Q,Q
2023-03-15 13:25:33:93,0,-1.00008,-6.80865,-19.9512,Q,Q
2023-03-15 13:25:33:103,0,-1.02604,-6.79631,-19.907,Q,Q
2023-03-15 13:25:33:113,0,-1.04802,-6.78135,-19.8634,Q,Q
2023-03-15 13:25:33:123,0,-1.07048,-6.76457,-19.822,Q,Q
2023-03-15 13:25:33:133,0,-1.08829,-6.75302,-19.7795,Q,Q
2023-03-15 13:25:33:143,0,-1.10342,-6.74258,-19.738,Q,Q
2023-03-15 13:25:33:153,0,-1.11553,-6.72924,-19.6969,Q,Q
2023-03-15 13:25:33:163,0,-1.12574,-6.71476,-19.6586,Q,Q
2023-03-15 13:25:33:173,0,-1.12971,-6.69833,-19.6209,Q,Q
2023-03-15 13:25:33:183,0,-1.12922,-6.68517,-19.5842,Q,Q
2023-03-15 13:25:33:193,0,-1.12699,-6.67566,-19.5417,Q,Q
2023-03-15 13:25:33:203,0,-1.12196,-6.66688,-19.5013,Q,Q
2023-03-15 13:25:33:213,0,-1.11934,-6.65916,-19.4592,Q,Q
2023-03-15 13:25:33:223,0,-1.12458,-6.6527,-19.4146,Q,Q
2023-03-15 13:25:33:233,0,-1.13471,-6.64714,-19.3708,Q,Q
2023-03-15 13:25:33:243,0,-1.14683,-6.64216,-19.3312,Q,Q
2023-03-15 13:25:33:253,0,-1.16199,-6.63333,-19.2944,Q,Q
2023-03-15 13:25:33:263,0,-1.17829,-6.63029,-19.2551,Q,Q
2023-03-15 13:25:33:273,0,-1.19371,-6.63086,-19.2157,Q,Q
2023-03-15 13:25:33:283,0,-1.20881,-6.63242,-19.1814,Q,Q
2023-03-15 13:25:33:293,0,-1.21981,-6.63233,-19.1498,Q,Q
2023-03-15 13:25:33:303,0,-1.22357,-6.63139,-19.1268,Q,Q
2023-03-15 13:25:33:313,0,-1.23549,-6.63075,-19.0996,Q,Q
2023-03-15 13:25:33:323,0,-1.24579,-6.62392,-19.0733,Q,Q
2023-03-15 13:25:33:333,0,-1.2598,-6.62008,-19.0449,Q,Q
2023-03-15 13:25:33:343,0,-1.27183,-6.61702,-19.0199,Q,Q
2023-03-15 13:25:33:353,0,-1.28553,-6.61486,-19.001,Q,Q
2023-03-15 13:25:33:363,0,-1.29904,-6.61408,-18.9798,Q,Q
2023-03-15 13:25:33:373,0,-1.3106,-6.61199,-18.9574,Q,Q
2023-03-15 13:25:33:383,0,-1.31752,-6.60746,-18.9373,Q,Q
2023-03-15 13:25:33:393,0,-1.32713,-6.60966,-18.9178,Q,Q
2023-03-15 13:25:33:403,0,-1.33205,-6.61161,-18.897,Q,Q
2023-03-15 13:25:33:413,0,-1.34026,-6.61671,-18.8789,Q,Q
2023-03-15 13:25:33:423,0,-1.34696,-6.62528,-18.8609,Q,Q
2023-03-15 13:25:33:433,0,-1.35664,-6.63038,-18.8438,Q,Q
2023-03-15 13:25:33:443,0,-1.36481,-6.63208,-18.8253,Q,Q
2023-03-15 13:25:33:453,0,-1.37871,-6.63664,-18.8051,Q,Q
