Timestamp_cmd,imu_cmd,roll_delta,pitch_delta,yaw_delta,voice_type,voice_length
2023-03-15 15:52:12:145,0,-13.1863,-8.52071,-18.8789,Q,Q
2023-03-15 15:52:12:152,0,-13.1792,-8.51388,-18.8848,Q,Q
2023-03-15 15:52:12:163,0,-13.1791,-8.51096,-18.8906,Q,Q
2023-03-15 15:52:12:173,0,-13.1785,-8.50988,-18.8968,Q,Q
2023-03-15 15:52:12:183,0,-13.1782,-8.50604,-18.9018,Q,Q
2023-03-15 15:52:12:193,0,-13.1846,-8.5017,-18.911,Q,Q
2023-03-15 15:52:12:203,0,-13.1887,-8.49768,-18.9203,Q,Q
2023-03-15 15:52:12:213,0,-13.1942,-8.48988,-18.9261,Q,Q
2023-03-15 15:52:12:223,0,-13.2008,-8.48689,-18.9263,Q,Q
2023-03-15 15:52:12:233,0,-13.2103,-8.48599,-18.9264,Q,Q
2023-03-15 15:52:12:243,0,-13.2142,-8.48485,-18.9229,Q,Q
2023-03-15 15:52:12:253,0,-13.2157,-8.48115,-18.9155,Q,Q
2023-03-15 15:52:12:263,0,-13.2192,-8.48243,-18.9087,Q,Q
2023-03-15 15:52:12:273,0,-13.2188,-8.47685,-18.9088,Q,Q
2023-03-15 15:52:12:283,0,-13.2154,-8.47639,-18.9079,Q,Q
2023-03-15 15:52:12:293,0,-13.2045,-8.47818,-18.907,Q,Q
2023-03-15 15:52:12:303,0,-13.1928,-8.48432,-18.9037,Q,Q
2023-03-15 15:52:12:313,0,-13.1845,-8.49136,-18.901,Q,Q
2023-03-15 15:52:12:323,0,-13.1737,-8.49895,-18.9005,Q,Q
2023-03-15 15:52:12:333,0,-13.1703,-8.50289,-18.902,Q,Q
2023-03-15 15:52:12:343,0,-13.169,-8.51028,-18.9006,Q,Q
2023-03-15 15:52:12:353,0,-13.1631,-8.51334,-18.8989,Q,Q
2023-03-15 15:52:12:363,0,-13.1602,-8.5163,-18.895,Q,Q
2023-03-15 15:52:12:373,0,-13.1565,-8.52095,-18.8911,Q,Q
2023-03-15 15:52:12:383,0,-13.1526,-8.52705,-18.8875,Q,Q
2023-03-15 15:52:12:393,0,-13.1469,-8.53258,-18.8808,Q,Q
2023-03-15 15:52:12:403,0,-13.1448,-8.5387,-18.8733,Q,Q
2023-03-15 15:52:12:413,0,-13.1399,-8.54614,-18.8626,Q,Q
2023-03-15 15:52:12:423,0,-13.1378,-8.54864,-18.855,Q,Q
2023-03-15 15:52:12:433,0,-13.1392,-8.55424,-18.8461,Q,Q
2023-03-15 15:52:12:443,0,-13.1399,-8.55954,-18.8355,Q,Q
2023-03-15 15:52:12:453,0,-13.138,-8.56776,-18.8267,Q,Q
2023-03-15 15:52:12:463,0,-13.1368,-8.57479,-18.8171,Q,Q
2023-03-15 15:52:12:473,0,-13.1397,-8.58149,-18.8091,Q,Q
2023-03-15 15:52:12:483,0,-13.1458,-8.58532,-18.8002,Q,Q
2023-03-15 15:52:12:493,0,-13.152,-8.58946,-18.7892,Q,Q
2023-03-15 15:52:12:503,0,-13.1567,-8.5947,-18.7833,Q,Q
2023-03-15 15:52:12:513,0,-13.1578,-8.5969,-18.7758,Q,Q
2023-03-15 15:52:12:523,0,-13.1646,-8.59836,-18.7695,Q,Q
2023-03-15 15:52:12:533,0,-13.1686,-8.59915,-18.7652,Q,Q
2023-03-15 15:52:12:543,0,-13.1731,-8.59931,-18.7643,Q,Q
2023-03-15 15:52:12:553,0,-13.1742,-8.59838,-18.7687,Q,Q
2023-03-15 15:52:12:563,0,-13.172,-8.59819,-18.7729,Q,Q
2023-03-15 15:52:12:573,0,-13.1666,-8.59399,-18.7803,Q,Q
2023-03-15 15:52:12:583,0,-13.1672,-8.59201,-18.7834,Q,Q
2023-03-15 15:52:12:593,0,-13.167,-8.59128,-18.7885,Q,Q
2023-03-15 15:52:12:603,0,-13.1656,-8.58967,-18.792,Q,Q
2023-03-15 15:52:12:613,0,-13.1667,-8.58997,-18.7912,Q,Q
2023-03-15 15:52:12:623,0,-13.1598,-8.58982,-18.8005,Q,Q
2023-03-15 15:52:12:633,0,-13.157,-8.58681,-18.8028,Q,Q
2023-03-15 15:52:12:643,0,-13.1482,-8.58525,-18.8013,Q,Q
2023-03-15 15:52:12:653,0,-13.1419,-8.58096,-18.8006,Q,Q
2023-03-15 15:52:12:663,0,-13.1431,-8.57505,-18.7988,Q,Q
2023-03-15 15:52:12:673,0,-13.1446,-8.56978,-18.7964,Q,Q
2023-03-15 15:52:12:683,0,-13.1409,-8.57159,-18.7926,Q,Q
2023-03-15 15:52:12:693,0,-13.1396,-8.57198,-18.7894,Q,Q
2023-03-15 15:52:12:703,0,-13.1443,-8.57135,-18.7872,Q,Q
2023-03-15 15:52:12:713,0,-13.1456,-8.57009,-18.7865,Q,Q
2023-03-15 15:52:12:723,0,-13.1549,-8.57007,-18.7782,Q,Q
2023-03-15 15:52:12:733,0,-13.1586,-8.57349,-18.7734,Q,Q
2023-03-15 15:52:12:743,0,-13.1618,-8.57535,-18.7681,Q,Q
2023-03-15 15:52:12:753,0,-13.1641,-8.57583,-18.7655,Q,Q
2023-03-15 15:52:12:763,0,-13.1687,-8.58171,-18.7618,Q,Q
2023-03-15 15:52:12:773,0,-13.1693,-8.58202,-18.7598,Q,Q
2023-03-15 15:52:12:783,0,-13.1688,-8.58419,-18.7569,Q,Q
2023-03-15 15:52:12:793,0,-13.1737,-8.58499,-18.7519,Q,Q
2023-03-15 15:52:12:803,0,-13.177,-8.58313,-18.7511,Q,Q
2023-03-15 15:52:12:813,0,-13.1792,-8.57918,-18.752,Q,Q
2023-03-15 15:52:12:823,0,-13.1791,-8.57657,-18.756,Q,Q
2023-03-15 15:52:12:833,0,-13.1853,-8.57429,-18.7607,Q,Q
2023-03-15 15:52:12:843,0,-13.1884,-8.5703,-18.7658,Q,Q
2023-03-15 15:52:12:853,0,-13.1869,-8.56832,-18.7699,Q,Q
2023-03-15 15:52:12:863,0,-13.1861,-8.56897,-18.7757,Q,Q
2023-03-15 15:52:12:873,0,-13.1842,-8.56717,-18.7806,Q,Q
2023-03-15 15:52:12:883,0,-13.1813,-8.56552,-18.7872,Q,Q
2023-03-15 15:52:12:893,0,-13.1764,-8.56407,-18.7902,Q,Q
2023-03-15 15:52:12:903,0,-13.1696,-8.56169,-18.7957,Q,Q
2023-03-15 15:52:12:913,0,-13.1637,-8.56014,-18.797,Q,Q
2023-03-15 15:52:12:923,0,-13.1635,-8.56175,-18.7938,Q,Q
2023-03-15 15:52:12:933,0,-13.1674,-8.56705,-18.7861,Q,Q
2023-03-15 15:52:12:943,0,-13.1724,-8.56658,-18.7813,Q,Q
2023-03-15 15:52:12:953,0,-13.1783,-8.56564,-18.7782,Q,Q
2023-03-15 15:52:12:963,0,-13.1846,-8.56465,-18.7759,Q,Q
2023-03-15 15:52:12:973,0,-13.1903,-8.56895,-18.7729,Q,Q
2023-03-15 15:52:12:983,0,-13.191,-8.57305,-18.7719,Q,Q
2023-03-15 15:52:12:993,0,-13.194,-8.575,-18.7721,Q,Q
2023-03-15 15:52:13:3,0,-13.1935,-8.57656,-18.7757,Q,Q
2023-03-15 15:52:13:13,0,-13.1919,-8.57695,-18.7795,Q,Q
2023-03-15 15:52:13:23,0,-13.1882,-8.57794,-18.7861,Q,Q
2023-03-15 15:52:13:33,0,-13.1884,-8.57673,-18.792,Q,Q
2023-03-15 15:52:13:43,0,-13.1913,-8.57691,-18.7976,Q,Q
2023-03-15 15:52:13:53,0,-13.1939,-8.57597,-18.8005,Q,Q
2023-03-15 15:52:13:63,0,-13.199,-8.57409,-18.8041,Q,Q
2023-03-15 15:52:13:73,0,-13.2028,-8.57363,-18.8044,Q,Q
2023-03-15 15:52:13:83,0,-13.2117,-8.56993,-18.8051,Q,Q
2023-03-15 15:52:13:93,0,-13.2154,-8.57119,-18.8051,Q,Q
2023-03-15 15:52:13:103,0,-13.2185,-8.57221,-18.7973,Q,Q
2023-03-15 15:52:13:113,0,-13.2178,-8.57165,-18.7919,Q,Q
2023-03-15 15:52:13:123,0,-13.2144,-8.56902,-18.7885,Q,Q
2023-03-15 15:52:13:133,0,-13.2134,-8.56666,-18.7869,Q,Q
2023-03-15 15:52:13:143,0,-13.2055,-8.56354,-18.7867,Q,Q
2023-03-15 15:52:13:153,0,-13.1973,-8.56504,-18.7844,Q,Q
2023-03-15 15:52:13:163,0,-13.1869,-8.57086,-18.7786,Q,Q
2023-03-15 15:52:13:173,0,-13.1786,-8.57685,-18.7723,Q,Q
2023-03-15 15:52:13:183,0,-13.17,-8.58187,-18.7697,Q,Q
2023-03-15 15:52:13:193,0,-13.1606,-8.58767,-18.7691,Q,Q
2023-03-15 15:52:13:203,0,-13.1532,-8.59147,-18.7685,Q,Q
2023-03-15 15:52:13:213,0,-13.1477,-8.59506,-18.7608,Q,Q
2023-03-15 15:52:13:223,0,-13.1469,-8.59998,-18.7543,Q,Q
2023-03-15 15:52:13:233,0,-13.1445,-8.60285,-18.7445,Q,Q
2023-03-15 15:52:13:243,0,-13.143,-8.60593,-18.7363,Q,Q
2023-03-15 15:52:13:253,0,-13.1388,-8.61124,-18.7259,Q,Q
2023-03-15 15:52:13:263,0,-13.1331,-8.61611,-18.7178,Q,Q
2023-03-15 15:52:13:273,0,-13.1323,-8.61943,-18.7075,Q,Q
2023-03-15 15:52:13:283,0,-13.1321,-8.6256,-18.6964,Q,Q
2023-03-15 15:52:13:293,0,-13.1272,-8.62813,-18.6897,Q,Q
2023-03-15 15:52:13:303,0,-13.1237,-8.63015,-18.6888,Q,Q
2023-03-15 15:52:13:313,0,-13.1244,-8.63206,-18.6838,Q,Q
2023-03-15 15:52:13:323,0,-13.1275,-8.63708,-18.6767,Q,Q
2023-03-15 15:52:13:333,0,-13.1301,-8.64275,-18.6734,Q,Q
2023-03-15 15:52:13:343,0,-13.1353,-8.64873,-18.6695,Q,Q
2023-03-15 15:52:13:353,0,-13.1409,-8.6521,-18.6606,Q,Q
2023-03-15 15:52:13:363,0,-13.1458,-8.6547,-18.6552,Q,Q
2023-03-15 15:52:13:373,0,-13.147,-8.65635,-18.6519,Q,Q
2023-03-15 15:52:13:383,0,-13.1526,-8.66468,-18.6468,Q,Q
2023-03-15 15:52:13:393,0,-13.1591,-8.66606,-18.6426,Q,Q
2023-03-15 15:52:13:403,0,-13.1639,-8.67229,-18.6367,Q,Q
2023-03-15 15:52:13:413,0,-13.1668,-8.67383,-18.6343,Q,Q
2023-03-15 15:52:13:423,0,-13.1705,-8.67348,-18.6319,Q,Q
2023-03-15 15:52:13:433,0,-13.1742,-8.67258,-18.6314,Q,Q
2023-03-15 15:52:13:443,0,-13.1747,-8.67276,-18.6362,Q,Q
2023-03-15 15:52:13:453,0,-13.1752,-8.67081,-18.6392,Q,Q
2023-03-15 15:52:13:463,0,-13.1771,-8.67026,-18.6432,Q,Q
2023-03-15 15:52:13:473,0,-13.1799,-8.67201,-18.6457,Q,Q
2023-03-15 15:52:13:483,0,-13.182,-8.67153,-18.6445,Q,Q
2023-03-15 15:52:13:493,0,-13.179,-8.66967,-18.6435,Q,Q
2023-03-15 15:52:13:503,0,-13.1768,-8.66931,-18.6436,Q,Q
2023-03-15 15:52:13:513,0,-13.1763,-8.66596,-18.6466,Q,Q
2023-03-15 15:52:13:523,0,-13.1763,-8.66361,-18.644,Q,Q
2023-03-15 15:52:13:533,0,-13.1765,-8.65918,-18.6425,Q,Q
2023-03-15 15:52:13:543,0,-13.1795,-8.65471,-18.6362,Q,Q
2023-03-15 15:52:13:553,0,-13.1846,-8.65294,-18.6318,Q,Q
2023-03-15 15:52:13:563,0,-13.1885,-8.65217,-18.6257,Q,Q
2023-03-15 15:52:13:573,0,-13.1907,-8.65301,-18.6187,Q,Q
2023-03-15 15:52:13:583,0,-13.1898,-8.65835,-18.6137,Q,Q
2023-03-15 15:52:13:593,0,-13.1889,-8.65879,-18.6071,Q,Q
2023-03-15 15:52:13:603,0,-13.1896,-8.66007,-18.604,Q,Q
2023-03-15 15:52:13:613,0,-13.1913,-8.66378,-18.5997,Q,Q
2023-03-15 15:52:13:623,0,-13.1913,-8.66795,-18.5914,Q,Q
2023-03-15 15:52:13:633,0,-13.1988,-8.67212,-18.5888,Q,Q
2023-03-15 15:52:13:643,0,-13.2042,-8.67573,-18.5853,Q,Q
2023-03-15 15:52:13:653,0,-13.2096,-8.67976,-18.582,Q,Q
2023-03-15 15:52:13:663,0,-13.2139,-8.6816,-18.5766,Q,Q
2023-03-15 15:52:13:673,0,-13.2161,-8.68184,-18.5752,Q,Q
2023-03-15 15:52:13:683,0,-13.2196,-8.6816,-18.5742,Q,Q
2023-03-15 15:52:13:693,0,-13.2167,-8.67787,-18.5727,Q,Q
2023-03-15 15:52:13:703,0,-13.2136,-8.67715,-18.5739,Q,Q
2023-03-15 15:52:13:713,0,-13.2152,-8.67683,-18.572,Q,Q
2023-03-15 15:52:13:723,0,-13.2156,-8.67831,-18.5727,Q,Q
2023-03-15 15:52:13:733,0,-13.2172,-8.67721,-18.5722,Q,Q
2023-03-15 15:52:13:743,0,-13.219,-8.67818,-18.5756,Q,Q
2023-03-15 15:52:13:753,0,-13.2223,-8.6773,-18.5787,Q,Q
2023-03-15 15:52:13:763,0,-13.2233,-8.67837,-18.5819,Q,Q
2023-03-15 15:52:13:773,0,-13.2192,-8.6794,-18.5808,Q,Q
2023-03-15 15:52:13:783,0,-13.2179,-8.68628,-18.5728,Q,Q
2023-03-15 15:52:13:793,0,-13.2167,-8.69447,-18.5662,Q,Q
2023-03-15 15:52:13:803,0,-13.2241,-8.70074,-18.5547,Q,Q
2023-03-15 15:52:13:813,0,-13.2317,-8.70427,-18.5453,Q,Q
2023-03-15 15:52:13:823,0,-13.2394,-8.70669,-18.539,Q,Q
2023-03-15 15:52:13:833,0,-13.2457,-8.70345,-18.5348,Q,Q
2023-03-15 15:52:13:843,0,-13.2539,-8.70215,-18.5325,Q,Q
2023-03-15 15:52:13:853,0,-13.2612,-8.70064,-18.5336,Q,Q
2023-03-15 15:52:13:863,0,-13.2659,-8.69836,-18.5356,Q,Q
2023-03-15 15:52:13:873,0,-13.2675,-8.69738,-18.5404,Q,Q
2023-03-15 15:52:13:883,0,-13.2653,-8.69462,-18.5535,Q,Q
2023-03-15 15:52:13:893,0,-13.2657,-8.6921,-18.5635,Q,Q
2023-03-15 15:52:13:903,0,-13.2644,-8.68624,-18.5764,Q,Q
2023-03-15 15:52:13:913,0,-13.2629,-8.6807,-18.5889,Q,Q
2023-03-15 15:52:13:923,0,-13.2618,-8.67258,-18.602,Q,Q
2023-03-15 15:52:13:933,0,-13.265,-8.66635,-18.6139,Q,Q
2023-03-15 15:52:13:943,0,-13.2654,-8.65912,-18.6241,Q,Q
2023-03-15 15:52:13:953,0,-13.269,-8.65331,-18.6325,Q,Q
2023-03-15 15:52:13:963,0,-13.2713,-8.64942,-18.6371,Q,Q
2023-03-15 15:52:13:973,0,-13.271,-8.64472,-18.6379,Q,Q
2023-03-15 15:52:13:983,0,-13.2677,-8.63843,-18.6398,Q,Q
2023-03-15 15:52:13:993,0,-13.2637,-8.63632,-18.642,Q,Q
2023-03-15 15:52:14:3,0,-13.2593,-8.63074,-18.6478,Q,Q
2023-03-15 15:52:14:13,0,-13.252,-8.62832,-18.65,Q,Q
2023-03-15 15:52:14:23,0,-13.2427,-8.62897,-18.6523,Q,Q
2023-03-15 15:52:14:32,0,-13.2309,-8.63309,-18.6542,Q,Q
2023-03-15 15:52:14:43,0,-13.2208,-8.63747,-18.6586,Q,Q
2023-03-15 15:52:14:52,0,-13.2124,-8.64271,-18.6639,Q,Q
2023-03-15 15:52:14:62,0,-13.2081,-8.64608,-18.6694,Q,Q
2023-03-15 15:52:14:72,0,-13.2032,-8.64719,-18.6788,Q,Q
2023-03-15 15:52:14:82,0,-13.199,-8.64879,-18.6879,Q,Q
2023-03-15 15:52:14:92,0,-13.1931,-8.6505,-18.693,Q,Q
2023-03-15 15:52:14:102,0,-13.1884,-8.64917,-18.6999,Q,Q
2023-03-15 15:52:14:113,0,-13.1847,-8.64782,-18.707,Q,Q
2023-03-15 15:52:14:123,0,-13.1826,-8.64714,-18.7146,Q,Q
2023-03-15 15:52:14:133,0,-13.1828,-8.64804,-18.7213,Q,Q
2023-03-15 15:52:14:143,0,-13.1831,-8.65158,-18.7258,Q,Q
2023-03-15 15:52:14:153,0,-13.1783,-8.65276,-18.7266,Q,Q
2023-03-15 15:52:14:163,0,-13.1747,-8.65562,-18.7283,Q,Q
2023-03-15 15:52:14:173,0,-13.1768,-8.66077,-18.7299,Q,Q
2023-03-15 15:52:14:183,0,-13.1782,-8.66243,-18.7318,Q,Q
2023-03-15 15:52:14:193,0,-13.1754,-8.66343,-18.7338,Q,Q
2023-03-15 15:52:14:203,0,-13.17,-8.66607,-18.7374,Q,Q
2023-03-15 15:52:14:213,0,-13.1699,-8.66998,-18.7383,Q,Q
2023-03-15 15:52:14:223,0,-13.1725,-8.67539,-18.741,Q,Q
2023-03-15 15:52:14:233,0,-13.1682,-8.67975,-18.7449,Q,Q
2023-03-15 15:52:14:243,0,-13.1641,-8.6835,-18.7469,Q,Q
2023-03-15 15:52:14:252,0,-13.1588,-8.68427,-18.7519,Q,Q
2023-03-15 15:52:14:263,0,-13.1574,-8.68552,-18.7542,Q,Q
2023-03-15 15:52:14:273,0,-13.1572,-8.688,-18.758,Q,Q
2023-03-15 15:52:14:283,0,-13.1569,-8.68738,-18.7655,Q,Q
2023-03-15 15:52:14:293,0,-13.1564,-8.68375,-18.7725,Q,Q
2023-03-15 15:52:14:303,0,-13.1541,-8.68352,-18.7798,Q,Q
2023-03-15 15:52:14:313,0,-13.1448,-8.67901,-18.7843,Q,Q
2023-03-15 15:52:14:323,0,-13.1377,-8.67274,-18.7951,Q,Q
2023-03-15 15:52:14:333,0,-13.1308,-8.66646,-18.8063,Q,Q
2023-03-15 15:52:14:343,0,-13.1228,-8.65918,-18.813,Q,Q
2023-03-15 15:52:14:353,0,-13.116,-8.65233,-18.817,Q,Q
2023-03-15 15:52:14:363,0,-13.1138,-8.64771,-18.8256,Q,Q
2023-03-15 15:52:14:373,0,-13.1117,-8.64156,-18.8317,Q,Q
2023-03-15 15:52:14:383,0,-13.1087,-8.63831,-18.8379,Q,Q
2023-03-15 15:52:14:393,0,-13.106,-8.63542,-18.844,Q,Q
2023-03-15 15:52:14:403,0,-13.1007,-8.63695,-18.8455,Q,Q
2023-03-15 15:52:14:413,0,-13.0949,-8.63969,-18.8467,Q,Q
2023-03-15 15:52:14:423,0,-13.0925,-8.64099,-18.8473,Q,Q
2023-03-15 15:52:14:433,0,-13.0914,-8.6403,-18.8418,Q,Q
2023-03-15 15:52:14:443,0,-13.0895,-8.64036,-18.8408,Q,Q
2023-03-15 15:52:14:453,0,-13.0895,-8.64947,-18.8348,Q,Q
2023-03-15 15:52:14:463,0,-13.0866,-8.65212,-18.8312,Q,Q
2023-03-15 15:52:14:473,0,-13.0883,-8.65248,-18.8217,Q,Q
2023-03-15 15:52:14:483,0,-13.0892,-8.65462,-18.8125,Q,Q
2023-03-15 15:52:14:493,0,-13.0921,-8.65803,-18.8016,Q,Q
2023-03-15 15:52:14:503,0,-13.09,-8.66024,-18.7913,Q,Q
2023-03-15 15:52:14:513,0,-13.0867,-8.65413,-18.7844,Q,Q
2023-03-15 15:52:14:523,0,-13.0602,-8.6284,-18.7754,Q,Q
2023-03-15 15:52:14:533,0,-13.0224,-8.62263,-18.7729,Q,Q
2023-03-15 15:52:14:543,0,-13.004,-8.62221,-18.7645,Q,Q
2023-03-15 15:52:14:553,0,-12.9999,-8.62399,-18.7583,Q,Q
2023-03-15 15:52:14:563,0,-13.0098,-8.63421,-18.7524,Q,Q
2023-03-15 15:52:14:573,0,-13.012,-8.64057,-18.7505,Q,Q
2023-03-15 15:52:14:583,0,-13.0128,-8.64807,-18.7462,Q,Q
2023-03-15 15:52:14:593,0,-13.0135,-8.65426,-18.7433,Q,Q
2023-03-15 15:52:14:603,0,-13.0118,-8.65977,-18.7405,Q,Q
2023-03-15 15:52:14:613,0,-13.0083,-8.66805,-18.7358,Q,Q
2023-03-15 15:52:14:623,0,-13.0012,-8.65967,-18.7268,Q,Q
2023-03-15 15:52:14:633,0,-12.9776,-8.65723,-18.7192,Q,Q
2023-03-15 15:52:14:643,0,-12.9667,-8.67085,-18.7098,Q,Q
2023-03-15 15:52:14:653,0,-12.9759,-8.68322,-18.6964,Q,Q
2023-03-15 15:52:14:663,0,-12.9917,-8.69082,-18.6853,Q,Q
2023-03-15 15:52:14:673,0,-13.0017,-8.69969,-18.6785,Q,Q
2023-03-15 15:52:14:683,0,-13.0058,-8.70293,-18.6698,Q,Q
2023-03-15 15:52:14:693,0,-13.0009,-8.70396,-18.6637,Q,Q
2023-03-15 15:52:14:703,0,-12.9928,-8.70719,-18.6598,Q,Q
2023-03-15 15:52:14:713,0,-12.9829,-8.70716,-18.6594,Q,Q
2023-03-15 15:52:14:723,0,-12.9737,-8.70818,-18.6586,Q,Q
2023-03-15 15:52:14:733,0,-12.9667,-8.70297,-18.6571,Q,Q
2023-03-15 15:52:14:743,0,-12.956,-8.70024,-18.658,Q,Q
2023-03-15 15:52:14:753,0,-12.9479,-8.69709,-18.6553,Q,Q
2023-03-15 15:52:14:763,0,-12.9435,-8.69564,-18.6599,Q,Q
2023-03-15 15:52:14:773,0,-12.9442,-8.69291,-18.6574,Q,Q
2023-03-15 15:52:14:783,0,-12.9495,-8.69007,-18.6541,Q,Q
2023-03-15 15:52:14:793,0,-12.9578,-8.69004,-18.6512,Q,Q
2023-03-15 15:52:14:803,0,-12.9668,-8.68797,-18.6456,Q,Q
2023-03-15 15:52:14:813,0,-12.9734,-8.69135,-18.6406,Q,Q
2023-03-15 15:52:14:823,0,-12.9765,-8.69382,-18.6376,Q,Q
2023-03-15 15:52:14:833,0,-12.9811,-8.69692,-18.6341,Q,Q
2023-03-15 15:52:14:843,0,-12.9839,-8.69568,-18.6326,Q,Q
2023-03-15 15:52:14:853,0,-12.9823,-8.69837,-18.6332,Q,Q
2023-03-15 15:52:14:863,0,-12.973,-8.70696,-18.6274,Q,Q
2023-03-15 15:52:14:873,0,-12.9675,-8.71554,-18.6196,Q,Q
2023-03-15 15:52:14:882,0,-12.9658,-8.72722,-18.6142,Q,Q
2023-03-15 15:52:14:892,0,-12.9647,-8.73525,-18.6088,Q,Q
2023-03-15 15:52:14:903,0,-12.9619,-8.74464,-18.605,Q,Q
2023-03-15 15:52:14:913,0,-12.9611,-8.75316,-18.5991,Q,Q
2023-03-15 15:52:14:923,0,-12.9586,-8.7618,-18.5969,Q,Q
2023-03-15 15:52:14:932,0,-12.9576,-8.76684,-18.5944,Q,Q
2023-03-15 15:52:14:943,0,-12.9583,-8.77296,-18.5876,Q,Q
2023-03-15 15:52:14:953,0,-12.9525,-8.77991,-18.5807,Q,Q
2023-03-15 15:52:14:963,0,-12.9446,-8.78705,-18.5724,Q,Q
2023-03-15 15:52:14:973,0,-12.9409,-8.79136,-18.5662,Q,Q
2023-03-15 15:52:14:983,0,-12.9318,-8.7941,-18.5588,Q,Q
2023-03-15 15:52:14:993,0,-12.9261,-8.79508,-18.5501,Q,Q
2023-03-15 15:52:15:3,0,-12.9188,-8.79653,-18.5415,Q,Q
2023-03-15 15:52:15:13,0,-12.9121,-8.79993,-18.5319,Q,Q
2023-03-15 15:52:15:23,0,-12.9122,-8.79843,-18.5249,Q,Q
2023-03-15 15:52:15:33,0,-12.9119,-8.80095,-18.5181,Q,Q
2023-03-15 15:52:15:43,0,-12.9154,-8.80242,-18.5132,Q,Q
2023-03-15 15:52:15:53,0,-12.9204,-8.80457,-18.5075,Q,Q
2023-03-15 15:52:15:63,0,-12.9238,-8.80655,-18.5041,Q,Q
2023-03-15 15:52:15:73,0,-12.934,-8.80687,-18.5015,Q,Q
2023-03-15 15:52:15:83,0,-12.9386,-8.80391,-18.5033,Q,Q
2023-03-15 15:52:15:93,0,-12.9451,-8.7996,-18.5037,Q,Q
2023-03-15 15:52:15:103,0,-12.9474,-8.7965,-18.5103,Q,Q
2023-03-15 15:52:15:113,0,-12.9462,-8.7927,-18.5152,Q,Q
2023-03-15 15:52:15:123,0,-12.9516,-8.78984,-18.5177,Q,Q
2023-03-15 15:52:15:133,0,-12.9533,-8.78717,-18.521,Q,Q
2023-03-15 15:52:15:143,0,-12.9501,-8.78008,-18.5269,Q,Q
2023-03-15 15:52:15:153,0,-12.9475,-8.77626,-18.5303,Q,Q
2023-03-15 15:52:15:163,0,-12.947,-8.77288,-18.5369,Q,Q
2023-03-15 15:52:15:173,0,-12.9446,-8.76678,-18.5449,Q,Q
2023-03-15 15:52:15:183,0,-12.9424,-8.76331,-18.5515,Q,Q
2023-03-15 15:52:15:193,0,-12.9372,-8.75829,-18.5603,Q,Q
2023-03-15 15:52:15:203,0,-12.934,-8.75542,-18.5636,Q,Q
2023-03-15 15:52:15:213,0,-12.9322,-8.75278,-18.5661,Q,Q
2023-03-15 15:52:15:223,0,-12.9278,-8.74652,-18.5665,Q,Q
2023-03-15 15:52:15:233,0,-12.919,-8.74306,-18.5686,Q,Q
2023-03-15 15:52:15:243,0,-12.9105,-8.74114,-18.566,Q,Q
2023-03-15 15:52:15:253,0,-12.9054,-8.73895,-18.5627,Q,Q
2023-03-15 15:52:15:263,0,-12.9017,-8.73485,-18.5641,Q,Q
2023-03-15 15:52:15:273,0,-12.897,-8.73233,-18.5625,Q,Q
2023-03-15 15:52:15:283,0,-12.8916,-8.72987,-18.5597,Q,Q
2023-03-15 15:52:15:293,0,-12.8899,-8.7286,-18.558,Q,Q
2023-03-15 15:52:15:303,0,-12.8878,-8.72776,-18.5565,Q,Q
2023-03-15 15:52:15:313,0,-12.8881,-8.7246,-18.5538,Q,Q
2023-03-15 15:52:15:323,0,-12.8882,-8.72455,-18.558,Q,Q
2023-03-15 15:52:15:333,0,-12.89,-8.72602,-18.5603,Q,Q
2023-03-15 15:52:15:343,0,-12.8933,-8.7237,-18.5598,Q,Q
2023-03-15 15:52:15:353,0,-12.8994,-8.72155,-18.5608,Q,Q
2023-03-15 15:52:15:363,0,-12.9042,-8.72192,-18.565,Q,Q
2023-03-15 15:52:15:373,0,-12.9053,-8.71902,-18.5666,Q,Q
2023-03-15 15:52:15:383,0,-12.9071,-8.71418,-18.5717,Q,Q
2023-03-15 15:52:15:393,0,-12.9104,-8.71432,-18.5737,Q,Q
2023-03-15 15:52:15:403,0,-12.915,-8.71252,-18.5788,Q,Q
2023-03-15 15:52:15:413,0,-12.9132,-8.70839,-18.5795,Q,Q
2023-03-15 15:52:15:423,0,-12.9118,-8.70789,-18.5784,Q,Q
2023-03-15 15:52:15:433,0,-12.9118,-8.71063,-18.5736,Q,Q
2023-03-15 15:52:15:443,0,-12.9203,-8.71505,-18.5685,Q,Q
2023-03-15 15:52:15:453,0,-12.9262,-8.71922,-18.5654,Q,Q
2023-03-15 15:52:15:463,0,-12.9328,-8.71755,-18.5682,Q,Q
2023-03-15 15:52:15:473,0,-12.9375,-8.71786,-18.5679,Q,Q
2023-03-15 15:52:15:483,0,-12.9393,-8.71381,-18.5739,Q,Q
2023-03-15 15:52:15:493,0,-12.9376,-8.70895,-18.5798,Q,Q
2023-03-15 15:52:15:503,0,-12.9313,-8.70678,-18.5863,Q,Q
2023-03-15 15:52:15:513,0,-12.9263,-8.70641,-18.5942,Q,Q
2023-03-15 15:52:15:523,0,-12.9225,-8.6962,-18.6034,Q,Q
2023-03-15 15:52:15:533,0,-12.9181,-8.69036,-18.6148,Q,Q
2023-03-15 15:52:15:543,0,-12.9141,-8.68506,-18.624,Q,Q
2023-03-15 15:52:15:553,0,-12.9097,-8.67843,-18.6345,Q,Q
2023-03-15 15:52:15:563,0,-12.9098,-8.67288,-18.6483,Q,Q
2023-03-15 15:52:15:573,0,-12.9091,-8.66317,-18.6557,Q,Q
2023-03-15 15:52:15:583,0,-12.9148,-8.65338,-18.6643,Q,Q
2023-03-15 15:52:15:593,0,-12.9214,-8.64754,-18.6677,Q,Q
2023-03-15 15:52:15:603,0,-12.9309,-8.64133,-18.6733,Q,Q
2023-03-15 15:52:15:613,0,-12.9395,-8.64068,-18.6739,Q,Q
2023-03-15 15:52:15:623,0,-12.9468,-8.63852,-18.6735,Q,Q
2023-03-15 15:52:15:633,0,-12.9512,-8.63465,-18.6751,Q,Q
2023-03-15 15:52:15:643,0,-12.9522,-8.63211,-18.6816,Q,Q
2023-03-15 15:52:15:653,0,-12.9522,-8.62998,-18.692,Q,Q
2023-03-15 15:52:15:663,0,-12.9434,-8.62996,-18.7002,Q,Q
2023-03-15 15:52:15:673,0,-12.933,-8.63279,-18.7043,Q,Q
2023-03-15 15:52:15:683,0,-12.9232,-8.63904,-18.7084,Q,Q
2023-03-15 15:52:15:693,0,-12.9155,-8.64218,-18.7119,Q,Q
2023-03-15 15:52:15:703,0,-12.9061,-8.64494,-18.715,Q,Q
2023-03-15 15:52:15:713,0,-12.8981,-8.64693,-18.7158,Q,Q
2023-03-15 15:52:15:723,0,-12.8862,-8.64888,-18.7191,Q,Q
2023-03-15 15:52:15:733,0,-12.8779,-8.65154,-18.7197,Q,Q
2023-03-15 15:52:15:743,0,-12.8691,-8.65402,-18.7161,Q,Q
2023-03-15 15:52:15:753,0,-12.8576,-8.65435,-18.7146,Q,Q
2023-03-15 15:52:15:763,0,-12.8436,-8.65027,-18.7116,Q,Q
2023-03-15 15:52:15:773,0,-12.8339,-8.65025,-18.7074,Q,Q
2023-03-15 15:52:15:783,0,-12.8224,-8.64873,-18.7033,Q,Q
2023-03-15 15:52:15:793,0,-12.8157,-8.64507,-18.7001,Q,Q
2023-03-15 15:52:15:803,0,-12.8047,-8.64533,-18.697,Q,Q
2023-03-15 15:52:15:813,0,-12.7983,-8.64834,-18.6944,Q,Q
2023-03-15 15:52:15:823,0,-12.7955,-8.65077,-18.6928,Q,Q
2023-03-15 15:52:15:833,0,-12.7918,-8.65328,-18.6913,Q,Q
2023-03-15 15:52:15:843,0,-12.7888,-8.65746,-18.688,Q,Q
2023-03-15 15:52:15:853,0,-12.791,-8.66039,-18.6829,Q,Q
2023-03-15 15:52:15:863,0,-12.7924,-8.65935,-18.6769,Q,Q
2023-03-15 15:52:15:873,0,-12.7958,-8.65869,-18.6712,Q,Q
2023-03-15 15:52:15:883,0,-12.7995,-8.65577,-18.6668,Q,Q
2023-03-15 15:52:15:893,0,-12.8046,-8.65419,-18.661,Q,Q
2023-03-15 15:52:15:903,0,-12.8107,-8.65676,-18.6545,Q,Q
2023-03-15 15:52:15:913,0,-12.8161,-8.65324,-18.6497,Q,Q
2023-03-15 15:52:15:923,0,-12.8238,-8.65198,-18.6445,Q,Q
2023-03-15 15:52:15:933,0,-12.8333,-8.64772,-18.6382,Q,Q
2023-03-15 15:52:15:943,0,-12.836,-8.64558,-18.6343,Q,Q
2023-03-15 15:52:15:953,0,-12.8393,-8.64167,-18.6349,Q,Q
2023-03-15 15:52:15:963,0,-12.8433,-8.63957,-18.6351,Q,Q
2023-03-15 15:52:15:973,0,-12.8496,-8.63712,-18.638,Q,Q
2023-03-15 15:52:15:983,0,-12.8553,-8.62959,-18.6382,Q,Q
2023-03-15 15:52:15:993,0,-12.8567,-8.62777,-18.6421,Q,Q
2023-03-15 15:52:16:3,0,-12.8555,-8.62623,-18.6429,Q,Q
2023-03-15 15:52:16:13,0,-12.8556,-8.62368,-18.6461,Q,Q
2023-03-15 15:52:16:23,0,-12.854,-8.62518,-18.6511,Q,Q
2023-03-15 15:52:16:33,0,-12.8533,-8.62563,-18.6473,Q,Q
2023-03-15 15:52:16:43,0,-12.8471,-8.62409,-18.6479,Q,Q
2023-03-15 15:52:16:53,0,-12.8403,-8.62196,-18.6496,Q,Q
2023-03-15 15:52:16:63,0,-12.8398,-8.62425,-18.6459,Q,Q
2023-03-15 15:52:16:73,0,-12.8386,-8.62656,-18.6378,Q,Q
2023-03-15 15:52:16:83,0,-12.8403,-8.62786,-18.6287,Q,Q
2023-03-15 15:52:16:94,0,-12.8416,-8.62878,-18.6222,Q,Q
2023-03-15 15:52:16:103,0,-12.8415,-8.63239,-18.6182,Q,Q
2023-03-15 15:52:16:113,0,-12.8449,-8.63476,-18.6113,Q,Q
2023-03-15 15:52:16:123,0,-12.8508,-8.63928,-18.6043,Q,Q
2023-03-15 15:52:16:133,0,-12.8557,-8.64173,-18.5956,Q,Q
2023-03-15 15:52:16:143,0,-12.861,-8.64091,-18.5901,Q,Q
2023-03-15 15:52:16:153,0,-12.8602,-8.6398,-18.5837,Q,Q
2023-03-15 15:52:16:163,0,-12.8641,-8.63951,-18.582,Q,Q
2023-03-15 15:52:16:173,0,-12.8696,-8.64108,-18.5822,Q,Q
2023-03-15 15:52:16:183,0,-12.8745,-8.64744,-18.5796,Q,Q
2023-03-15 15:52:16:193,0,-12.881,-8.64858,-18.5745,Q,Q
2023-03-15 15:52:16:203,0,-12.8862,-8.65145,-18.5733,Q,Q
2023-03-15 15:52:16:213,0,-12.8896,-8.65455,-18.5747,Q,Q
2023-03-15 15:52:16:223,0,-12.8909,-8.65661,-18.5789,Q,Q
2023-03-15 15:52:16:233,0,-12.8859,-8.66234,-18.5785,Q,Q
2023-03-15 15:52:16:243,0,-12.8818,-8.67166,-18.572,Q,Q
2023-03-15 15:52:16:253,0,-12.8842,-8.68299,-18.564,Q,Q
2023-03-15 15:52:16:263,0,-12.891,-8.69406,-18.5527,Q,Q
2023-03-15 15:52:16:273,0,-12.8973,-8.70268,-18.5433,Q,Q
2023-03-15 15:52:16:283,0,-12.9039,-8.70885,-18.5363,Q,Q
2023-03-15 15:52:16:293,0,-12.9065,-8.71082,-18.531,Q,Q
2023-03-15 15:52:16:303,0,-12.9049,-8.71678,-18.5278,Q,Q
2023-03-15 15:52:16:313,0,-12.9012,-8.7194,-18.5276,Q,Q
2023-03-15 15:52:16:323,0,-12.8954,-8.72053,-18.5279,Q,Q
2023-03-15 15:52:16:333,0,-12.8889,-8.71717,-18.5288,Q,Q
2023-03-15 15:52:16:343,0,-12.8784,-8.71593,-18.5339,Q,Q
2023-03-15 15:52:16:353,0,-12.8642,-8.71489,-18.5401,Q,Q
2023-03-15 15:52:16:363,0,-12.8533,-8.71146,-18.545,Q,Q
2023-03-15 15:52:16:373,0,-12.8472,-8.70592,-18.5478,Q,Q
2023-03-15 15:52:16:383,0,-12.8418,-8.70102,-18.5545,Q,Q
2023-03-15 15:52:16:393,0,-12.8421,-8.6982,-18.559,Q,Q
2023-03-15 15:52:16:403,0,-12.8415,-8.69484,-18.5672,Q,Q
2023-03-15 15:52:16:413,0,-12.8445,-8.69404,-18.5715,Q,Q
2023-03-15 15:52:16:423,0,-12.8465,-8.69621,-18.571,Q,Q
2023-03-15 15:52:16:433,0,-12.854,-8.69753,-18.572,Q,Q
2023-03-15 15:52:16:443,0,-12.8562,-8.69779,-18.5693,Q,Q
2023-03-15 15:52:16:453,0,-12.8602,-8.70011,-18.5714,Q,Q
2023-03-15 15:52:16:463,0,-12.8608,-8.69772,-18.5725,Q,Q
2023-03-15 15:52:16:473,0,-12.8535,-8.69738,-18.5766,Q,Q
2023-03-15 15:52:16:483,0,-12.8408,-8.69935,-18.5764,Q,Q
2023-03-15 15:52:16:493,0,-12.8289,-8.70594,-18.5751,Q,Q
2023-03-15 15:52:16:503,0,-12.8213,-8.71515,-18.5735,Q,Q
2023-03-15 15:52:16:513,0,-12.8147,-8.7208,-18.5758,Q,Q
2023-03-15 15:52:16:523,0,-12.8087,-8.72348,-18.5783,Q,Q
2023-03-15 15:52:16:533,0,-12.8008,-8.72607,-18.579,Q,Q
2023-03-15 15:52:16:543,0,-12.7921,-8.72811,-18.5803,Q,Q
2023-03-15 15:52:16:553,0,-12.7863,-8.72788,-18.5807,Q,Q
2023-03-15 15:52:16:563,0,-12.7767,-8.72559,-18.5822,Q,Q
2023-03-15 15:52:16:573,0,-12.7706,-8.725,-18.5822,Q,Q
2023-03-15 15:52:16:583,0,-12.7572,-8.719,-18.5796,Q,Q
2023-03-15 15:52:16:593,0,-12.7453,-8.71949,-18.5782,Q,Q
2023-03-15 15:52:16:603,0,-12.7391,-8.71983,-18.5754,Q,Q
2023-03-15 15:52:16:613,0,-12.7309,-8.72075,-18.5708,Q,Q
2023-03-15 15:52:16:623,0,-12.7233,-8.7251,-18.5647,Q,Q
2023-03-15 15:52:16:633,0,-12.7156,-8.72912,-18.5596,Q,Q
2023-03-15 15:52:16:643,0,-12.7116,-8.73403,-18.5585,Q,Q
2023-03-15 15:52:16:653,0,-12.7085,-8.73592,-18.5556,Q,Q
2023-03-15 15:52:16:663,0,-12.7046,-8.7344,-18.5533,Q,Q
2023-03-15 15:52:16:673,0,-12.7035,-8.73715,-18.5474,Q,Q
2023-03-15 15:52:16:683,0,-12.7047,-8.73952,-18.5417,Q,Q
2023-03-15 15:52:16:693,0,-12.7098,-8.74516,-18.5394,Q,Q
2023-03-15 15:52:16:703,0,-12.7143,-8.7455,-18.5365,Q,Q
2023-03-15 15:52:16:713,0,-12.7246,-8.74359,-18.5339,Q,Q
2023-03-15 15:52:16:723,0,-12.7318,-8.73796,-18.5308,Q,Q
2023-03-15 15:52:16:733,0,-12.7341,-8.73496,-18.5327,Q,Q
2023-03-15 15:52:16:743,0,-12.7331,-8.71865,-18.537,Q,Q
2023-03-15 15:52:16:753,0,-12.7092,-8.68389,-18.5351,Q,Q
2023-03-15 15:52:16:763,0,-12.6724,-8.66865,-18.5388,Q,Q
2023-03-15 15:52:16:773,0,-12.6563,-8.658,-18.5393,Q,Q
2023-03-15 15:52:16:783,0,-12.656,-8.64969,-18.5395,Q,Q
2023-03-15 15:52:16:793,0,-12.6631,-8.65014,-18.5454,Q,Q
2023-03-15 15:52:16:803,0,-12.6697,-8.64881,-18.5518,Q,Q
2023-03-15 15:52:16:813,0,-12.6717,-8.6495,-18.5566,Q,Q
2023-03-15 15:52:16:823,0,-12.6721,-8.646,-18.5616,Q,Q
2023-03-15 15:52:16:833,0,-12.6711,-8.64171,-18.5673,Q,Q
2023-03-15 15:52:16:843,0,-12.6662,-8.62787,-18.5698,Q,Q
2023-03-15 15:52:16:853,0,-12.6491,-8.61362,-18.5729,Q,Q
2023-03-15 15:52:16:863,0,-12.6339,-8.61486,-18.5767,Q,Q
2023-03-15 15:52:16:873,0,-12.6289,-8.61436,-18.5758,Q,Q
2023-03-15 15:52:16:883,0,-12.6285,-8.61279,-18.5733,Q,Q
2023-03-15 15:52:16:893,0,-12.6271,-8.61023,-18.5736,Q,Q
2023-03-15 15:52:16:903,0,-12.6257,-8.61048,-18.571,Q,Q
2023-03-15 15:52:16:913,0,-12.6291,-8.60926,-18.5667,Q,Q
2023-03-15 15:52:16:923,0,-12.6292,-8.60712,-18.5638,Q,Q
2023-03-15 15:52:16:933,0,-12.6311,-8.60757,-18.5605,Q,Q
2023-03-15 15:52:16:943,0,-12.6336,-8.60935,-18.5545,Q,Q
2023-03-15 15:52:16:953,0,-12.6353,-8.60813,-18.5489,Q,Q
2023-03-15 15:52:16:963,0,-12.6354,-8.60413,-18.5468,Q,Q
2023-03-15 15:52:16:973,0,-12.6309,-8.6021,-18.5408,Q,Q
2023-03-15 15:52:16:983,0,-12.6282,-8.60531,-18.5389,Q,Q
2023-03-15 15:52:16:993,0,-12.6291,-8.60561,-18.5373,Q,Q
2023-03-15 15:52:17:3,0,-12.6309,-8.60637,-18.5395,Q,Q
2023-03-15 15:52:17:13,0,-12.6299,-8.60702,-18.5415,Q,Q
2023-03-15 15:52:17:23,0,-12.6328,-8.61345,-18.5429,Q,Q
2023-03-15 15:52:17:33,0,-12.6396,-8.61565,-18.5391,Q,Q
2023-03-15 15:52:17:43,0,-12.645,-8.6179,-18.5369,Q,Q
2023-03-15 15:52:17:53,0,-12.6499,-8.62217,-18.5345,Q,Q
2023-03-15 15:52:17:63,0,-12.6489,-8.6241,-18.53,Q,Q
2023-03-15 15:52:17:73,0,-12.6451,-8.63631,-18.5212,Q,Q
2023-03-15 15:52:17:83,0,-12.647,-8.64875,-18.5054,Q,Q
2023-03-15 15:52:17:93,0,-12.6515,-8.66098,-18.4895,Q,Q
2023-03-15 15:52:17:103,0,-12.6633,-8.67447,-18.4767,Q,Q
2023-03-15 15:52:17:113,0,-12.6722,-8.68154,-18.4634,Q,Q
2023-03-15 15:52:17:123,0,-12.6829,-8.68441,-18.4517,Q,Q
2023-03-15 15:52:17:133,0,-12.6932,-8.68601,-18.4422,Q,Q
2023-03-15 15:52:17:143,0,-12.7028,-8.6858,-18.4342,Q,Q
2023-03-15 15:52:17:153,0,-12.7094,-8.68458,-18.4299,Q,Q
2023-03-15 15:52:17:163,0,-12.7061,-8.6817,-18.431,Q,Q
2023-03-15 15:52:17:173,0,-12.7042,-8.67899,-18.4317,Q,Q
2023-03-15 15:52:17:183,0,-12.7028,-8.67629,-18.438,Q,Q
2023-03-15 15:52:17:193,0,-12.7029,-8.67353,-18.4463,Q,Q
2023-03-15 15:52:17:203,0,-12.7079,-8.67089,-18.4564,Q,Q
2023-03-15 15:52:17:213,0,-12.7128,-8.66502,-18.4653,Q,Q
2023-03-15 15:52:17:223,0,-12.7254,-8.66025,-18.4738,Q,Q
2023-03-15 15:52:17:233,0,-12.7358,-8.65561,-18.4838,Q,Q
2023-03-15 15:52:17:243,0,-12.745,-8.65338,-18.4913,Q,Q
2023-03-15 15:52:17:253,0,-12.7555,-8.64969,-18.4934,Q,Q
2023-03-15 15:52:17:263,0,-12.7644,-8.64761,-18.4912,Q,Q
2023-03-15 15:52:17:273,0,-12.7704,-8.64735,-18.4903,Q,Q
2023-03-15 15:52:17:283,0,-12.7767,-8.64985,-18.4889,Q,Q
2023-03-15 15:52:17:293,0,-12.7813,-8.65057,-18.491,Q,Q
2023-03-15 15:52:17:303,0,-12.7788,-8.65095,-18.493,Q,Q
2023-03-15 15:52:17:313,0,-12.7712,-8.65722,-18.4896,Q,Q
2023-03-15 15:52:17:323,0,-12.7656,-8.66218,-18.4865,Q,Q
2023-03-15 15:52:17:333,0,-12.762,-8.67024,-18.4842,Q,Q
2023-03-15 15:52:17:343,0,-12.7572,-8.67325,-18.4811,Q,Q
2023-03-15 15:52:17:353,0,-12.7505,-8.67653,-18.4798,Q,Q
2023-03-15 15:52:17:363,0,-12.7478,-8.6803,-18.4793,Q,Q
2023-03-15 15:52:17:373,0,-12.7402,-8.68384,-18.4804,Q,Q
2023-03-15 15:52:17:383,0,-12.7345,-8.68476,-18.4797,Q,Q
2023-03-15 15:52:17:393,0,-12.7315,-8.68442,-18.4769,Q,Q
2023-03-15 15:52:17:403,0,-12.7265,-8.68358,-18.4765,Q,Q
2023-03-15 15:52:17:413,0,-12.7226,-8.68067,-18.4747,Q,Q
2023-03-15 15:52:17:423,0,-12.7196,-8.67881,-18.4702,Q,Q
2023-03-15 15:52:17:433,0,-12.7177,-8.6822,-18.4658,Q,Q
2023-03-15 15:52:17:443,0,-12.7143,-8.68407,-18.4617,Q,Q
2023-03-15 15:52:17:453,0,-12.7099,-8.691,-18.4592,Q,Q
2023-03-15 15:52:17:463,0,-12.7097,-8.69368,-18.4523,Q,Q
2023-03-15 15:52:17:473,0,-12.7102,-8.69607,-18.4453,Q,Q
2023-03-15 15:52:17:483,0,-12.7124,-8.70332,-18.4398,Q,Q
2023-03-15 15:52:17:493,0,-12.7138,-8.70736,-18.4352,Q,Q
2023-03-15 15:52:17:503,0,-12.7126,-8.71307,-18.4298,Q,Q
2023-03-15 15:52:17:513,0,-12.7179,-8.71628,-18.4255,Q,Q
2023-03-15 15:52:17:523,0,-12.7216,-8.71922,-18.4199,Q,Q
2023-03-15 15:52:17:533,0,-12.7257,-8.722,-18.4167,Q,Q
2023-03-15 15:52:17:543,0,-12.7287,-8.7238,-18.4154,Q,Q
2023-03-15 15:52:17:553,0,-12.7353,-8.72682,-18.4153,Q,Q
2023-03-15 15:52:17:563,0,-12.7394,-8.72813,-18.4181,Q,Q
2023-03-15 15:52:17:573,0,-12.7421,-8.72748,-18.4226,Q,Q
2023-03-15 15:52:17:583,0,-12.7438,-8.72499,-18.4307,Q,Q
2023-03-15 15:52:17:593,0,-12.741,-8.71829,-18.4372,Q,Q
2023-03-15 15:52:17:603,0,-12.7419,-8.71152,-18.4499,Q,Q
2023-03-15 15:52:17:613,0,-12.7396,-8.70516,-18.4587,Q,Q
2023-03-15 15:52:17:623,0,-12.7345,-8.69676,-18.4644,Q,Q
2023-03-15 15:52:17:633,0,-12.7317,-8.69174,-18.4705,Q,Q
2023-03-15 15:52:17:642,0,-12.7294,-8.68542,-18.477,Q,Q
2023-03-15 15:52:17:653,0,-12.7221,-8.67716,-18.4822,Q,Q
2023-03-15 15:52:17:663,0,-12.7219,-8.67076,-18.4841,Q,Q
2023-03-15 15:52:17:673,0,-12.7158,-8.6639,-18.4886,Q,Q
2023-03-15 15:52:17:683,0,-12.7115,-8.66013,-18.4887,Q,Q
2023-03-15 15:52:17:693,0,-12.7087,-8.6574,-18.487,Q,Q
2023-03-15 15:52:17:703,0,-12.707,-8.65931,-18.4864,Q,Q
2023-03-15 15:52:17:713,0,-12.7032,-8.65778,-18.4831,Q,Q
2023-03-15 15:52:17:723,0,-12.7002,-8.66003,-18.4809,Q,Q
2023-03-15 15:52:17:733,0,-12.7019,-8.65968,-18.475,Q,Q
2023-03-15 15:52:17:743,0,-12.7023,-8.66009,-18.4695,Q,Q
2023-03-15 15:52:17:753,0,-12.7044,-8.66056,-18.4652,Q,Q
2023-03-15 15:52:17:763,0,-12.7117,-8.66148,-18.4599,Q,Q
2023-03-15 15:52:17:773,0,-12.7148,-8.6654,-18.452,Q,Q
2023-03-15 15:52:17:783,0,-12.723,-8.66914,-18.4454,Q,Q
2023-03-15 15:52:17:793,0,-12.7286,-8.67333,-18.4401,Q,Q
2023-03-15 15:52:17:803,0,-12.7366,-8.67663,-18.4346,Q,Q
2023-03-15 15:52:17:813,0,-12.7388,-8.68002,-18.4293,Q,Q
2023-03-15 15:52:17:823,0,-12.7406,-8.68325,-18.4257,Q,Q
2023-03-15 15:52:17:833,0,-12.7425,-8.68862,-18.4225,Q,Q
2023-03-15 15:52:17:843,0,-12.7429,-8.68836,-18.4227,Q,Q
2023-03-15 15:52:17:853,0,-12.745,-8.68695,-18.4208,Q,Q
2023-03-15 15:52:17:863,0,-12.7459,-8.68323,-18.4179,Q,Q
2023-03-15 15:52:17:873,0,-12.7473,-8.67982,-18.4154,Q,Q
2023-03-15 15:52:17:883,0,-12.7484,-8.67821,-18.4162,Q,Q
2023-03-15 15:52:17:893,0,-12.7514,-8.67665,-18.4176,Q,Q
2023-03-15 15:52:17:903,0,-12.7477,-8.67767,-18.4183,Q,Q
2023-03-15 15:52:17:913,0,-12.74,-8.68258,-18.4119,Q,Q
2023-03-15 15:52:17:923,0,-12.7408,-8.68684,-18.4049,Q,Q
2023-03-15 15:52:17:933,0,-12.7475,-8.6929,-18.3971,Q,Q
2023-03-15 15:52:17:943,0,-12.7573,-8.69671,-18.3943,Q,Q
2023-03-15 15:52:17:953,0,-12.764,-8.6991,-18.3916,Q,Q
2023-03-15 15:52:17:963,0,-12.7692,-8.70109,-18.3888,Q,Q
2023-03-15 15:52:17:973,0,-12.7724,-8.70281,-18.3887,Q,Q
2023-03-15 15:52:17:983,0,-12.7712,-8.70109,-18.388,Q,Q
2023-03-15 15:52:17:993,0,-12.7705,-8.69972,-18.3908,Q,Q
2023-03-15 15:52:18:3,0,-12.7682,-8.70013,-18.3951,Q,Q
2023-03-15 15:52:18:13,0,-12.7683,-8.69691,-18.3962,Q,Q
2023-03-15 15:52:18:23,0,-12.7669,-8.69693,-18.3991,Q,Q
2023-03-15 15:52:18:33,0,-12.7661,-8.69307,-18.4041,Q,Q
2023-03-15 15:52:18:43,0,-12.7704,-8.69165,-18.4112,Q,Q
2023-03-15 15:52:18:53,0,-12.7789,-8.68685,-18.4118,Q,Q
2023-03-15 15:52:18:63,0,-12.7873,-8.68051,-18.4124,Q,Q
2023-03-15 15:52:18:73,0,-12.7948,-8.67477,-18.4119,Q,Q
2023-03-15 15:52:18:83,0,-12.8035,-8.67371,-18.4086,Q,Q
2023-03-15 15:52:18:93,0,-12.8081,-8.6746,-18.4052,Q,Q
2023-03-15 15:52:18:103,0,-12.8147,-8.67352,-18.4001,Q,Q
2023-03-15 15:52:18:113,0,-12.8187,-8.67713,-18.398,Q,Q
2023-03-15 15:52:18:123,0,-12.8229,-8.67981,-18.3965,Q,Q
2023-03-15 15:52:18:133,0,-12.8221,-8.67837,-18.399,Q,Q
2023-03-15 15:52:18:143,0,-12.8127,-8.68297,-18.4009,Q,Q
2023-03-15 15:52:18:153,0,-12.8018,-8.68544,-18.4018,Q,Q
2023-03-15 15:52:18:163,0,-12.7918,-8.69205,-18.3999,Q,Q
2023-03-15 15:52:18:173,0,-12.7845,-8.69845,-18.4007,Q,Q
2023-03-15 15:52:18:183,0,-12.7766,-8.70607,-18.3962,Q,Q
2023-03-15 15:52:18:193,0,-12.768,-8.71195,-18.392,Q,Q
2023-03-15 15:52:18:203,0,-12.7629,-8.71814,-18.3883,Q,Q
2023-03-15 15:52:18:213,0,-12.758,-8.71846,-18.3862,Q,Q
2023-03-15 15:52:18:223,0,-12.7551,-8.72162,-18.3828,Q,Q
2023-03-15 15:52:18:233,0,-12.7534,-8.7238,-18.3755,Q,Q
2023-03-15 15:52:18:243,0,-12.7492,-8.72588,-18.3693,Q,Q
2023-03-15 15:52:18:253,0,-12.7464,-8.72784,-18.3624,Q,Q
2023-03-15 15:52:18:263,0,-12.7417,-8.72757,-18.3589,Q,Q
2023-03-15 15:52:18:273,0,-12.735,-8.72952,-18.3551,Q,Q
2023-03-15 15:52:18:283,0,-12.733,-8.73705,-18.3549,Q,Q
2023-03-15 15:52:18:293,0,-12.7318,-8.74116,-18.3543,Q,Q
2023-03-15 15:52:18:303,0,-12.7296,-8.74787,-18.3521,Q,Q
2023-03-15 15:52:18:313,0,-12.7257,-8.75434,-18.351,Q,Q
2023-03-15 15:52:18:323,0,-12.7215,-8.75661,-18.3508,Q,Q
2023-03-15 15:52:18:333,0,-12.7178,-8.75863,-18.3502,Q,Q
2023-03-15 15:52:18:343,0,-12.7187,-8.76088,-18.3471,Q,Q
2023-03-15 15:52:18:353,0,-12.7233,-8.76304,-18.3466,Q,Q
2023-03-15 15:52:18:363,0,-12.7271,-8.76306,-18.3421,Q,Q
2023-03-15 15:52:18:373,0,-12.7308,-8.76204,-18.3403,Q,Q
2023-03-15 15:52:18:383,0,-12.7364,-8.76169,-18.3402,Q,Q
2023-03-15 15:52:18:393,0,-12.7361,-8.75644,-18.3437,Q,Q
2023-03-15 15:52:18:403,0,-12.7338,-8.75497,-18.3434,Q,Q
2023-03-15 15:52:18:413,0,-12.7301,-8.75225,-18.3483,Q,Q
2023-03-15 15:52:18:423,0,-12.7267,-8.74928,-18.3534,Q,Q
2023-03-15 15:52:18:433,0,-12.7263,-8.7403,-18.3596,Q,Q
2023-03-15 15:52:18:443,0,-12.7217,-8.73573,-18.3713,Q,Q
2023-03-15 15:52:18:453,0,-12.7149,-8.73311,-18.3794,Q,Q
2023-03-15 15:52:18:463,0,-12.7078,-8.72751,-18.3921,Q,Q
2023-03-15 15:52:18:473,0,-12.7044,-8.72153,-18.3998,Q,Q
2023-03-15 15:52:18:483,0,-12.6982,-8.71728,-18.4077,Q,Q
2023-03-15 15:52:18:493,0,-12.6904,-8.7114,-18.4175,Q,Q
2023-03-15 15:52:18:503,0,-12.6859,-8.70945,-18.4224,Q,Q
2023-03-15 15:52:18:513,0,-12.6829,-8.70719,-18.4217,Q,Q
2023-03-15 15:52:18:523,0,-12.6755,-8.70688,-18.4207,Q,Q
2023-03-15 15:52:18:533,0,-12.6735,-8.7072,-18.4163,Q,Q
2023-03-15 15:52:18:543,0,-12.6703,-8.70693,-18.4135,Q,Q
2023-03-15 15:52:18:553,0,-12.6672,-8.70751,-18.4075,Q,Q
2023-03-15 15:52:18:563,0,-12.6686,-8.70785,-18.4005,Q,Q
2023-03-15 15:52:18:573,0,-12.6661,-8.70913,-18.3939,Q,Q
2023-03-15 15:52:18:583,0,-12.6677,-8.70865,-18.385,Q,Q
2023-03-15 15:52:18:593,0,-12.6716,-8.70856,-18.3773,Q,Q
2023-03-15 15:52:18:603,0,-12.6731,-8.70782,-18.376,Q,Q
2023-03-15 15:52:18:613,0,-12.6744,-8.7071,-18.3731,Q,Q
2023-03-15 15:52:18:623,0,-12.6769,-8.70655,-18.376,Q,Q
2023-03-15 15:52:18:633,0,-12.6786,-8.71343,-18.3774,Q,Q
2023-03-15 15:52:18:643,0,-12.6768,-8.71112,-18.3832,Q,Q
2023-03-15 15:52:18:653,0,-12.6726,-8.70616,-18.3879,Q,Q
2023-03-15 15:52:18:663,0,-12.6751,-8.70591,-18.3934,Q,Q
2023-03-15 15:52:18:673,0,-12.6747,-8.70633,-18.3977,Q,Q
2023-03-15 15:52:18:683,0,-12.6784,-8.70922,-18.3998,Q,Q
2023-03-15 15:52:18:693,0,-12.6791,-8.70807,-18.4012,Q,Q
2023-03-15 15:52:18:703,0,-12.6749,-8.70562,-18.4024,Q,Q
2023-03-15 15:52:18:713,0,-12.6718,-8.70384,-18.3979,Q,Q
2023-03-15 15:52:18:723,0,-12.6702,-8.70625,-18.391,Q,Q
2023-03-15 15:52:18:733,0,-12.6741,-8.70836,-18.3829,Q,Q
2023-03-15 15:52:18:743,0,-12.6834,-8.70805,-18.3739,Q,Q
2023-03-15 15:52:18:753,0,-12.6904,-8.70792,-18.3685,Q,Q
2023-03-15 15:52:18:763,0,-12.6974,-8.70697,-18.366,Q,Q
2023-03-15 15:52:18:773,0,-12.7035,-8.70607,-18.3696,Q,Q
2023-03-15 15:52:18:783,0,-12.7056,-8.70228,-18.3691,Q,Q
2023-03-15 15:52:18:793,0,-12.7056,-8.70083,-18.375,Q,Q
2023-03-15 15:52:18:803,0,-12.7032,-8.70025,-18.3809,Q,Q
2023-03-15 15:52:18:813,0,-12.7003,-8.69241,-18.3881,Q,Q
2023-03-15 15:52:18:823,0,-12.6985,-8.68907,-18.3972,Q,Q
2023-03-15 15:52:18:833,0,-12.6986,-8.68471,-18.4045,Q,Q
2023-03-15 15:52:18:843,0,-12.7002,-8.68053,-18.4124,Q,Q
2023-03-15 15:52:18:853,0,-12.7044,-8.673,-18.4203,Q,Q
2023-03-15 15:52:18:863,0,-12.712,-8.6671,-18.4248,Q,Q
2023-03-15 15:52:18:873,0,-12.7225,-8.66218,-18.4307,Q,Q
2023-03-15 15:52:18:883,0,-12.7313,-8.65433,-18.4344,Q,Q
2023-03-15 15:52:18:893,0,-12.7433,-8.64839,-18.4341,Q,Q
2023-03-15 15:52:18:903,0,-12.7491,-8.64866,-18.4314,Q,Q
2023-03-15 15:52:18:913,0,-12.754,-8.64746,-18.4311,Q,Q
2023-03-15 15:52:18:923,0,-12.7573,-8.64719,-18.4321,Q,Q
2023-03-15 15:52:18:933,0,-12.7608,-8.64605,-18.4378,Q,Q
2023-03-15 15:52:18:943,0,-12.7567,-8.64168,-18.4419,Q,Q
2023-03-15 15:52:18:953,0,-12.7451,-8.64018,-18.4512,Q,Q
2023-03-15 15:52:18:963,0,-12.736,-8.64809,-18.4513,Q,Q
2023-03-15 15:52:18:973,0,-12.7282,-8.65645,-18.4517,Q,Q
2023-03-15 15:52:18:983,0,-12.7205,-8.66118,-18.4505,Q,Q
2023-03-15 15:52:18:993,0,-12.7117,-8.66711,-18.4516,Q,Q
2023-03-15 15:52:19:3,0,-12.7066,-8.67111,-18.45,Q,Q
2023-03-15 15:52:19:13,0,-12.7039,-8.67554,-18.4525,Q,Q
2023-03-15 15:52:19:23,0,-12.6953,-8.68035,-18.4535,Q,Q
2023-03-15 15:52:19:33,0,-12.6955,-8.67942,-18.4508,Q,Q
2023-03-15 15:52:19:43,0,-12.6924,-8.67931,-18.448,Q,Q
2023-03-15 15:52:19:53,0,-12.6866,-8.67866,-18.4433,Q,Q
2023-03-15 15:52:19:63,0,-12.6797,-8.67721,-18.4408,Q,Q
2023-03-15 15:52:19:73,0,-12.6722,-8.68024,-18.4408,Q,Q
2023-03-15 15:52:19:83,0,-12.6673,-8.68149,-18.4388,Q,Q
2023-03-15 15:52:19:93,0,-12.6659,-8.68128,-18.445,Q,Q
2023-03-15 15:52:19:103,0,-12.6669,-8.68409,-18.4501,Q,Q
2023-03-15 15:52:19:113,0,-12.668,-8.687,-18.4546,Q,Q
2023-03-15 15:52:19:123,0,-12.6663,-8.68912,-18.457,Q,Q
2023-03-15 15:52:19:133,0,-12.6669,-8.69524,-18.4568,Q,Q
2023-03-15 15:52:19:143,0,-12.6698,-8.69873,-18.4621,Q,Q
2023-03-15 15:52:19:153,0,-12.6685,-8.69898,-18.4673,Q,Q
2023-03-15 15:52:19:163,0,-12.6706,-8.6989,-18.4705,Q,Q
2023-03-15 15:52:19:173,0,-12.6721,-8.69886,-18.4753,Q,Q
2023-03-15 15:52:19:183,0,-12.6731,-8.70056,-18.4779,Q,Q
2023-03-15 15:52:19:193,0,-12.677,-8.69992,-18.4783,Q,Q
2023-03-15 15:52:19:203,0,-12.6782,-8.69849,-18.4815,Q,Q
2023-03-15 15:52:19:213,0,-12.68,-8.69663,-18.4875,Q,Q
2023-03-15 15:52:19:223,0,-12.6793,-8.6941,-18.4914,Q,Q
2023-03-15 15:52:19:233,0,-12.6801,-8.69001,-18.4984,Q,Q
2023-03-15 15:52:19:243,0,-12.6771,-8.68624,-18.5059,Q,Q
2023-03-15 15:52:19:253,0,-12.6718,-8.6772,-18.5152,Q,Q
2023-03-15 15:52:19:263,0,-12.6679,-8.6683,-18.5232,Q,Q
2023-03-15 15:52:19:273,0,-12.6665,-8.66315,-18.5303,Q,Q
2023-03-15 15:52:19:283,0,-12.6672,-8.65854,-18.5382,Q,Q
2023-03-15 15:52:19:293,0,-12.6665,-8.64994,-18.545,Q,Q
2023-03-15 15:52:19:303,0,-12.667,-8.64036,-18.5518,Q,Q
2023-03-15 15:52:19:313,0,-12.6662,-8.63198,-18.558,Q,Q
2023-03-15 15:52:19:323,0,-12.6665,-8.62207,-18.5632,Q,Q
2023-03-15 15:52:19:333,0,-12.6654,-8.61186,-18.5662,Q,Q
2023-03-15 15:52:19:343,0,-12.6658,-8.60685,-18.569,Q,Q
2023-03-15 15:52:19:353,0,-12.6625,-8.59885,-18.5714,Q,Q
2023-03-15 15:52:19:363,0,-12.6622,-8.59394,-18.5757,Q,Q
2023-03-15 15:52:19:373,0,-12.6666,-8.58846,-18.5761,Q,Q
2023-03-15 15:52:19:383,0,-12.6708,-8.58326,-18.5815,Q,Q
2023-03-15 15:52:19:393,0,-12.677,-8.5816,-18.5841,Q,Q
2023-03-15 15:52:19:403,0,-12.6812,-8.5752,-18.5879,Q,Q
2023-03-15 15:52:19:413,0,-12.6841,-8.57112,-18.5928,Q,Q
2023-03-15 15:52:19:423,0,-12.6899,-8.56715,-18.5969,Q,Q
2023-03-15 15:52:19:433,0,-12.6989,-8.56274,-18.6012,Q,Q
2023-03-15 15:52:19:443,0,-12.7022,-8.55486,-18.6072,Q,Q
2023-03-15 15:52:19:453,0,-12.709,-8.54973,-18.6105,Q,Q
2023-03-15 15:52:19:463,0,-12.7119,-8.54551,-18.6138,Q,Q
2023-03-15 15:52:19:473,0,-12.7171,-8.53995,-18.6207,Q,Q
2023-03-15 15:52:19:483,0,-12.7214,-8.53308,-18.6298,Q,Q
2023-03-15 15:52:19:493,0,-12.7273,-8.52325,-18.6357,Q,Q
2023-03-15 15:52:19:503,0,-12.7319,-8.51621,-18.6454,Q,Q
2023-03-15 15:52:19:513,0,-12.7412,-8.51135,-18.6496,Q,Q
2023-03-15 15:52:19:523,0,-12.7436,-8.50521,-18.6543,Q,Q
2023-03-15 15:52:19:533,0,-12.7461,-8.5018,-18.6597,Q,Q
2023-03-15 15:52:19:543,0,-12.7417,-8.49776,-18.6632,Q,Q
2023-03-15 15:52:19:553,0,-12.74,-8.49616,-18.659,Q,Q
2023-03-15 15:52:19:563,0,-12.7454,-8.49847,-18.6537,Q,Q
2023-03-15 15:52:19:573,0,-12.7495,-8.49979,-18.6468,Q,Q
2023-03-15 15:52:19:583,0,-12.7591,-8.49762,-18.6393,Q,Q
2023-03-15 15:52:19:593,0,-12.7652,-8.49385,-18.6357,Q,Q
2023-03-15 15:52:19:603,0,-12.773,-8.48649,-18.6318,Q,Q
2023-03-15 15:52:19:613,0,-12.779,-8.48087,-18.6315,Q,Q
2023-03-15 15:52:19:623,0,-12.785,-8.47475,-18.6313,Q,Q
2023-03-15 15:52:19:633,0,-12.7879,-8.46994,-18.6362,Q,Q
2023-03-15 15:52:19:643,0,-12.7896,-8.46724,-18.6427,Q,Q
2023-03-15 15:52:19:653,0,-12.7868,-8.46129,-18.6506,Q,Q
2023-03-15 15:52:19:663,0,-12.7884,-8.45356,-18.6607,Q,Q
2023-03-15 15:52:19:673,0,-12.7936,-8.44678,-18.6747,Q,Q
2023-03-15 15:52:19:683,0,-12.7935,-8.43812,-18.6914,Q,Q
2023-03-15 15:52:19:693,0,-12.7961,-8.43467,-18.7071,Q,Q
2023-03-15 15:52:19:702,0,-12.799,-8.42809,-18.7226,Q,Q
2023-03-15 15:52:19:713,0,-12.8003,-8.42163,-18.7347,Q,Q
2023-03-15 15:52:19:722,0,-12.8006,-8.41578,-18.7447,Q,Q
2023-03-15 15:52:19:733,0,-12.7995,-8.41108,-18.7525,Q,Q
2023-03-15 15:52:19:743,0,-12.7979,-8.40598,-18.7565,Q,Q
2023-03-15 15:52:19:753,0,-12.7953,-8.40155,-18.7589,Q,Q
2023-03-15 15:52:19:763,0,-12.7942,-8.39922,-18.7652,Q,Q
2023-03-15 15:52:19:773,0,-12.7925,-8.39232,-18.7697,Q,Q
2023-03-15 15:52:19:783,0,-12.7862,-8.38951,-18.7752,Q,Q
2023-03-15 15:52:19:793,0,-12.7777,-8.38729,-18.7797,Q,Q
2023-03-15 15:52:19:803,0,-12.7667,-8.39421,-18.7817,Q,Q
2023-03-15 15:52:19:813,0,-12.7518,-8.40192,-18.7842,Q,Q
2023-03-15 15:52:19:823,0,-12.7426,-8.40537,-18.7878,Q,Q
2023-03-15 15:52:19:833,0,-12.7322,-8.40943,-18.7908,Q,Q
2023-03-15 15:52:19:843,0,-12.7258,-8.41219,-18.7954,Q,Q
2023-03-15 15:52:19:853,0,-12.7204,-8.41236,-18.8001,Q,Q
2023-03-15 15:52:19:863,0,-12.7145,-8.41705,-18.7998,Q,Q
2023-03-15 15:52:19:873,0,-12.7083,-8.41921,-18.7977,Q,Q
2023-03-15 15:52:19:883,0,-12.7076,-8.42196,-18.7938,Q,Q
2023-03-15 15:52:19:893,0,-12.7043,-8.42151,-18.7905,Q,Q
2023-03-15 15:52:19:903,0,-12.6995,-8.42271,-18.7814,Q,Q
2023-03-15 15:52:19:913,0,-12.6951,-8.42804,-18.7752,Q,Q
2023-03-15 15:52:19:923,0,-12.6893,-8.43509,-18.7667,Q,Q
2023-03-15 15:52:19:933,0,-12.689,-8.44135,-18.7617,Q,Q
2023-03-15 15:52:19:943,0,-12.6873,-8.4488,-18.7538,Q,Q
2023-03-15 15:52:19:953,0,-12.6911,-8.45492,-18.7469,Q,Q
2023-03-15 15:52:19:963,0,-12.6929,-8.46367,-18.7374,Q,Q
2023-03-15 15:52:19:973,0,-12.6966,-8.47238,-18.7226,Q,Q
2023-03-15 15:52:19:983,0,-12.698,-8.47928,-18.7095,Q,Q
2023-03-15 15:52:19:993,0,-12.7023,-8.48857,-18.6958,Q,Q
2023-03-15 15:52:20:3,0,-12.7058,-8.49707,-18.6872,Q,Q
2023-03-15 15:52:20:13,0,-12.7073,-8.50322,-18.6779,Q,Q
2023-03-15 15:52:20:23,0,-12.7117,-8.50789,-18.6704,Q,Q
2023-03-15 15:52:20:33,0,-12.7167,-8.51139,-18.664,Q,Q
2023-03-15 15:52:20:43,0,-12.7235,-8.51416,-18.6555,Q,Q
2023-03-15 15:52:20:53,0,-12.7298,-8.51529,-18.6495,Q,Q
2023-03-15 15:52:20:63,0,-12.7307,-8.51683,-18.6501,Q,Q
2023-03-15 15:52:20:73,0,-12.7315,-8.51722,-18.6541,Q,Q
2023-03-15 15:52:20:83,0,-12.7305,-8.51783,-18.6577,Q,Q
2023-03-15 15:52:20:93,0,-12.7294,-8.52155,-18.6622,Q,Q
2023-03-15 15:52:20:103,0,-12.7249,-8.52178,-18.6676,Q,Q
2023-03-15 15:52:20:113,0,-12.722,-8.52126,-18.6747,Q,Q
2023-03-15 15:52:20:123,0,-12.7186,-8.52111,-18.6782,Q,Q
2023-03-15 15:52:20:133,0,-12.7111,-8.52091,-18.6812,Q,Q
2023-03-15 15:52:20:143,0,-12.7067,-8.51769,-18.6818,Q,Q
2023-03-15 15:52:20:153,0,-12.7048,-8.51764,-18.6796,Q,Q
2023-03-15 15:52:20:163,0,-12.7019,-8.51594,-18.6783,Q,Q
2023-03-15 15:52:20:173,0,-12.697,-8.51499,-18.6799,Q,Q
2023-03-15 15:52:20:183,0,-12.6939,-8.5168,-18.6763,Q,Q
2023-03-15 15:52:20:193,0,-12.6887,-8.51743,-18.6695,Q,Q
2023-03-15 15:52:20:202,0,-12.6851,-8.52344,-18.6624,Q,Q
2023-03-15 15:52:20:213,0,-12.6813,-8.52512,-18.6583,Q,Q
2023-03-15 15:52:20:223,0,-12.6811,-8.53055,-18.6487,Q,Q
2023-03-15 15:52:20:233,0,-12.6783,-8.53942,-18.6451,Q,Q
2023-03-15 15:52:20:243,0,-12.6778,-8.549,-18.6383,Q,Q
2023-03-15 15:52:20:253,0,-12.6779,-8.5568,-18.6341,Q,Q
2023-03-15 15:52:20:263,0,-12.6783,-8.56329,-18.6322,Q,Q
2023-03-15 15:52:20:273,0,-12.6757,-8.56958,-18.6275,Q,Q
2023-03-15 15:52:20:283,0,-12.6726,-8.5757,-18.6229,Q,Q
2023-03-15 15:52:20:293,0,-12.6647,-8.58225,-18.6225,Q,Q
2023-03-15 15:52:20:303,0,-12.6565,-8.58555,-18.6192,Q,Q
2023-03-15 15:52:20:313,0,-12.655,-8.58897,-18.6216,Q,Q
2023-03-15 15:52:20:323,0,-12.6475,-8.59151,-18.6237,Q,Q
2023-03-15 15:52:20:333,0,-12.6404,-8.59473,-18.6226,Q,Q
2023-03-15 15:52:20:343,0,-12.6345,-8.59318,-18.6213,Q,Q
2023-03-15 15:52:20:353,0,-12.6298,-8.59619,-18.6206,Q,Q
2023-03-15 15:52:20:363,0,-12.6234,-8.59476,-18.6229,Q,Q
2023-03-15 15:52:20:373,0,-12.6142,-8.59582,-18.6222,Q,Q
2023-03-15 15:52:20:383,0,-12.6049,-8.59828,-18.6199,Q,Q
2023-03-15 15:52:20:393,0,-12.599,-8.60352,-18.6112,Q,Q
2023-03-15 15:52:20:403,0,-12.5938,-8.6103,-18.603,Q,Q
2023-03-15 15:52:20:413,0,-12.5927,-8.61964,-18.5941,Q,Q
2023-03-15 15:52:20:423,0,-12.5951,-8.62488,-18.5874,Q,Q
2023-03-15 15:52:20:433,0,-12.5932,-8.62677,-18.5843,Q,Q
2023-03-15 15:52:20:443,0,-12.5953,-8.62983,-18.5817,Q,Q
2023-03-15 15:52:20:453,0,-12.5937,-8.63283,-18.582,Q,Q
2023-03-15 15:52:20:463,0,-12.5891,-8.63686,-18.5871,Q,Q
2023-03-15 15:52:20:473,0,-12.5825,-8.63532,-18.5949,Q,Q
2023-03-15 15:52:20:483,0,-12.5649,-8.61407,-18.6005,Q,Q
2023-03-15 15:52:20:493,0,-12.5328,-8.59248,-18.6104,Q,Q
2023-03-15 15:52:20:503,0,-12.507,-8.58931,-18.6219,Q,Q
2023-03-15 15:52:20:513,0,-12.5017,-8.59252,-18.6312,Q,Q
2023-03-15 15:52:20:523,0,-12.5087,-8.59488,-18.6413,Q,Q
2023-03-15 15:52:20:533,0,-12.5164,-8.59476,-18.6543,Q,Q
2023-03-15 15:52:20:543,0,-12.5194,-8.5949,-18.6598,Q,Q
2023-03-15 15:52:20:553,0,-12.5249,-8.59698,-18.6624,Q,Q
2023-03-15 15:52:20:563,0,-12.5334,-8.59797,-18.6666,Q,Q
2023-03-15 15:52:20:573,0,-12.5405,-8.5992,-18.6666,Q,Q
2023-03-15 15:52:20:583,0,-12.5456,-8.5994,-18.6665,Q,Q
2023-03-15 15:52:20:593,0,-12.5511,-8.60186,-18.6641,Q,Q
2023-03-15 15:52:20:603,0,-12.5493,-8.60277,-18.6687,Q,Q
2023-03-15 15:52:20:613,0,-12.5378,-8.60665,-18.6762,Q,Q
2023-03-15 15:52:20:623,0,-12.5267,-8.61013,-18.6861,Q,Q
2023-03-15 15:52:20:633,0,-12.5195,-8.61573,-18.6876,Q,Q
2023-03-15 15:52:20:643,0,-12.5127,-8.62017,-18.6896,Q,Q
2023-03-15 15:52:20:653,0,-12.5095,-8.62542,-18.6911,Q,Q
2023-03-15 15:52:20:663,0,-12.507,-8.62826,-18.6949,Q,Q
2023-03-15 15:52:20:673,0,-12.5046,-8.63299,-18.6966,Q,Q
2023-03-15 15:52:20:683,0,-12.5007,-8.63234,-18.6983,Q,Q
2023-03-15 15:52:20:693,0,-12.4972,-8.63357,-18.697,Q,Q
2023-03-15 15:52:20:703,0,-12.4894,-8.63432,-18.6923,Q,Q
2023-03-15 15:52:20:712,0,-12.4865,-8.63836,-18.688,Q,Q
2023-03-15 15:52:20:723,0,-12.4834,-8.63902,-18.6845,Q,Q
2023-03-15 15:52:20:733,0,-12.4786,-8.64327,-18.6797,Q,Q
2023-03-15 15:52:20:743,0,-12.4755,-8.6502,-18.6765,Q,Q
2023-03-15 15:52:20:753,0,-12.4716,-8.66011,-18.6739,Q,Q
2023-03-15 15:52:20:763,0,-12.4709,-8.66992,-18.6681,Q,Q
2023-03-15 15:52:20:773,0,-12.4709,-8.68409,-18.6613,Q,Q
2023-03-15 15:52:20:783,0,-12.471,-8.69662,-18.6546,Q,Q
2023-03-15 15:52:20:793,0,-12.472,-8.70933,-18.6452,Q,Q
2023-03-15 15:52:20:803,0,-12.4743,-8.71742,-18.6321,Q,Q
2023-03-15 15:52:20:813,0,-12.4786,-8.72624,-18.6238,Q,Q
2023-03-15 15:52:20:823,0,-12.4849,-8.72928,-18.6169,Q,Q
2023-03-15 15:52:20:833,0,-12.4904,-8.73531,-18.612,Q,Q
2023-03-15 15:52:20:843,0,-12.4973,-8.73629,-18.6051,Q,Q
2023-03-15 15:52:20:853,0,-12.5038,-8.73627,-18.599,Q,Q
2023-03-15 15:52:20:863,0,-12.5065,-8.73903,-18.5965,Q,Q
2023-03-15 15:52:20:873,0,-12.5098,-8.73855,-18.5957,Q,Q
2023-03-15 15:52:20:883,0,-12.5105,-8.73629,-18.598,Q,Q
2023-03-15 15:52:20:893,0,-12.5061,-8.73306,-18.6009,Q,Q
2023-03-15 15:52:20:903,0,-12.5056,-8.72778,-18.6066,Q,Q
2023-03-15 15:52:20:913,0,-12.5058,-8.72504,-18.6142,Q,Q
2023-03-15 15:52:20:923,0,-12.5047,-8.72227,-18.6175,Q,Q
2023-03-15 15:52:20:933,0,-12.4986,-8.72024,-18.6239,Q,Q
2023-03-15 15:52:20:943,0,-12.4977,-8.71343,-18.6294,Q,Q
2023-03-15 15:52:20:953,0,-12.4941,-8.7115,-18.633,Q,Q
2023-03-15 15:52:20:963,0,-12.4968,-8.70974,-18.6352,Q,Q
2023-03-15 15:52:20:973,0,-12.4971,-8.70711,-18.6359,Q,Q
2023-03-15 15:52:20:983,0,-12.4972,-8.70531,-18.6384,Q,Q
2023-03-15 15:52:20:993,0,-12.496,-8.70272,-18.6365,Q,Q
2023-03-15 15:52:21:3,0,-12.4994,-8.70035,-18.636,Q,Q
2023-03-15 15:52:21:13,0,-12.5009,-8.70177,-18.6329,Q,Q
2023-03-15 15:52:21:23,0,-12.5039,-8.70151,-18.6299,Q,Q
2023-03-15 15:52:21:33,0,-12.5043,-8.70553,-18.6235,Q,Q
2023-03-15 15:52:21:43,0,-12.5049,-8.70978,-18.6193,Q,Q
2023-03-15 15:52:21:53,0,-12.5096,-8.71435,-18.6129,Q,Q
2023-03-15 15:52:21:63,0,-12.5141,-8.71548,-18.6082,Q,Q
2023-03-15 15:52:21:73,0,-12.5205,-8.7192,-18.6052,Q,Q
2023-03-15 15:52:21:83,0,-12.5243,-8.72002,-18.6067,Q,Q
2023-03-15 15:52:21:93,0,-12.5244,-8.71695,-18.6067,Q,Q
2023-03-15 15:52:21:103,0,-12.5262,-8.71378,-18.6074,Q,Q
2023-03-15 15:52:21:113,0,-12.5274,-8.71092,-18.607,Q,Q
2023-03-15 15:52:21:123,0,-12.5259,-8.70492,-18.613,Q,Q
2023-03-15 15:52:21:133,0,-12.5245,-8.70424,-18.617,Q,Q
2023-03-15 15:52:21:143,0,-12.5234,-8.70064,-18.6198,Q,Q
2023-03-15 15:52:21:153,0,-12.5223,-8.69619,-18.6219,Q,Q
2023-03-15 15:52:21:163,0,-12.5208,-8.6899,-18.6246,Q,Q
2023-03-15 15:52:21:173,0,-12.5221,-8.68693,-18.6228,Q,Q
2023-03-15 15:52:21:183,0,-12.5233,-8.68443,-18.6259,Q,Q
2023-03-15 15:52:21:193,0,-12.5188,-8.68224,-18.6318,Q,Q
2023-03-15 15:52:21:203,0,-12.5138,-8.67773,-18.6355,Q,Q
2023-03-15 15:52:21:213,0,-12.5079,-8.68124,-18.6363,Q,Q
2023-03-15 15:52:21:223,0,-12.5049,-8.6854,-18.6341,Q,Q
2023-03-15 15:52:21:233,0,-12.5064,-8.68841,-18.631,Q,Q
2023-03-15 15:52:21:243,0,-12.5196,-8.68972,-18.628,Q,Q
2023-03-15 15:52:21:253,0,-12.5251,-8.69057,-18.6275,Q,Q
2023-03-15 15:52:21:263,0,-12.5359,-8.69095,-18.6261,Q,Q
2023-03-15 15:52:21:273,0,-12.5405,-8.68794,-18.6284,Q,Q
2023-03-15 15:52:21:283,0,-12.5415,-8.68466,-18.6318,Q,Q
2023-03-15 15:52:21:293,0,-12.544,-8.68385,-18.6347,Q,Q
2023-03-15 15:52:21:303,0,-12.5471,-8.6814,-18.6391,Q,Q
2023-03-15 15:52:21:313,0,-12.55,-8.67733,-18.6457,Q,Q
2023-03-15 15:52:21:323,0,-12.5517,-8.67129,-18.6525,Q,Q
2023-03-15 15:52:21:333,0,-12.553,-8.66474,-18.6606,Q,Q
2023-03-15 15:52:21:343,0,-12.5543,-8.65929,-18.6656,Q,Q
2023-03-15 15:52:21:353,0,-12.558,-8.65263,-18.67,Q,Q
2023-03-15 15:52:21:363,0,-12.5601,-8.64736,-18.6755,Q,Q
2023-03-15 15:52:21:373,0,-12.5666,-8.64153,-18.6788,Q,Q
2023-03-15 15:52:21:383,0,-12.5748,-8.64031,-18.6813,Q,Q
2023-03-15 15:52:21:393,0,-12.5809,-8.63744,-18.6771,Q,Q
2023-03-15 15:52:21:403,0,-12.5945,-8.63552,-18.6759,Q,Q
2023-03-15 15:52:21:413,0,-12.6018,-8.63346,-18.675,Q,Q
2023-03-15 15:52:21:423,0,-12.6027,-8.62925,-18.6753,Q,Q
2023-03-15 15:52:21:433,0,-12.6035,-8.62518,-18.6822,Q,Q
2023-03-15 15:52:21:443,0,-12.5984,-8.62418,-18.686,Q,Q
2023-03-15 15:52:21:453,0,-12.5931,-8.62379,-18.6862,Q,Q
2023-03-15 15:52:21:463,0,-12.5909,-8.625,-18.6869,Q,Q
2023-03-15 15:52:21:473,0,-12.5844,-8.62729,-18.6897,Q,Q
2023-03-15 15:52:21:483,0,-12.5793,-8.62984,-18.6909,Q,Q
2023-03-15 15:52:21:493,0,-12.5784,-8.63144,-18.6893,Q,Q
2023-03-15 15:52:21:503,0,-12.5821,-8.62994,-18.686,Q,Q
2023-03-15 15:52:21:513,0,-12.5904,-8.62828,-18.6827,Q,Q
2023-03-15 15:52:21:523,0,-12.6039,-8.62294,-18.6775,Q,Q
2023-03-15 15:52:21:533,0,-12.6213,-8.61972,-18.672,Q,Q
2023-03-15 15:52:21:543,0,-12.6412,-8.61765,-18.6693,Q,Q
2023-03-15 15:52:21:553,0,-12.6562,-8.62061,-18.666,Q,Q
2023-03-15 15:52:21:563,0,-12.6635,-8.62395,-18.6665,Q,Q
2023-03-15 15:52:21:573,0,-12.6656,-8.62993,-18.6684,Q,Q
2023-03-15 15:52:21:583,0,-12.6576,-8.64019,-18.6697,Q,Q
2023-03-15 15:52:21:593,0,-12.6521,-8.65518,-18.6688,Q,Q
2023-03-15 15:52:21:603,0,-12.6461,-8.67042,-18.6704,Q,Q
2023-03-15 15:52:21:613,0,-12.6381,-8.69033,-18.6724,Q,Q
2023-03-15 15:52:21:623,0,-12.6308,-8.70729,-18.6749,Q,Q
2023-03-15 15:52:21:633,0,-12.6247,-8.71992,-18.6767,Q,Q
2023-03-15 15:52:21:643,0,-12.6176,-8.73361,-18.6729,Q,Q
2023-03-15 15:52:21:653,0,-12.6126,-8.74584,-18.6702,Q,Q
2023-03-15 15:52:21:663,0,-12.6109,-8.75865,-18.6664,Q,Q
2023-03-15 15:52:21:673,0,-12.6043,-8.76964,-18.663,Q,Q
2023-03-15 15:52:21:683,0,-12.6034,-8.781,-18.6573,Q,Q
2023-03-15 15:52:21:693,0,-12.6008,-8.79065,-18.6544,Q,Q
2023-03-15 15:52:21:703,0,-12.5984,-8.79892,-18.6486,Q,Q
2023-03-15 15:52:21:713,0,-12.5966,-8.80525,-18.6418,Q,Q
2023-03-15 15:52:21:723,0,-12.5923,-8.81004,-18.6351,Q,Q
2023-03-15 15:52:21:733,0,-12.5908,-8.81836,-18.6252,Q,Q
2023-03-15 15:52:21:742,0,-12.5935,-8.82422,-18.621,Q,Q
2023-03-15 15:52:21:753,0,-12.5903,-8.82937,-18.6192,Q,Q
2023-03-15 15:52:21:763,0,-12.5899,-8.83265,-18.6161,Q,Q
2023-03-15 15:52:21:773,0,-12.5902,-8.83632,-18.6158,Q,Q
2023-03-15 15:52:21:783,0,-12.5918,-8.83948,-18.613,Q,Q
2023-03-15 15:52:21:793,0,-12.5968,-8.84389,-18.6123,Q,Q
2023-03-15 15:52:21:803,0,-12.6034,-8.84978,-18.6128,Q,Q
2023-03-15 15:52:21:813,0,-12.6103,-8.85251,-18.6094,Q,Q
2023-03-15 15:52:21:823,0,-12.6151,-8.85321,-18.6049,Q,Q
2023-03-15 15:52:21:833,0,-12.6186,-8.85851,-18.6004,Q,Q
2023-03-15 15:52:21:843,0,-12.6194,-8.86308,-18.5976,Q,Q
2023-03-15 15:52:21:853,0,-12.6262,-8.8623,-18.5937,Q,Q
2023-03-15 15:52:21:863,0,-12.6339,-8.86251,-18.5868,Q,Q
2023-03-15 15:52:21:873,0,-12.6387,-8.86359,-18.579,Q,Q
2023-03-15 15:52:21:883,0,-12.6463,-8.86379,-18.5731,Q,Q
2023-03-15 15:52:21:893,0,-12.6552,-8.86771,-18.5647,Q,Q
2023-03-15 15:52:21:903,0,-12.6625,-8.86529,-18.5589,Q,Q
2023-03-15 15:52:21:913,0,-12.6695,-8.86419,-18.5539,Q,Q
2023-03-15 15:52:21:923,0,-12.6715,-8.86122,-18.5495,Q,Q
2023-03-15 15:52:21:933,0,-12.6747,-8.8558,-18.5488,Q,Q
2023-03-15 15:52:21:943,0,-12.6808,-8.85496,-18.545,Q,Q
2023-03-15 15:52:21:953,0,-12.6868,-8.84913,-18.5464,Q,Q
2023-03-15 15:52:21:963,0,-12.7009,-8.83867,-18.5493,Q,Q
2023-03-15 15:52:21:973,0,-12.7185,-8.82443,-18.5527,Q,Q
2023-03-15 15:52:21:983,0,-12.7409,-8.8148,-18.5551,Q,Q
2023-03-15 15:52:21:993,0,-12.7644,-8.80655,-18.5544,Q,Q
2023-03-15 15:52:22:3,0,-12.7858,-8.79497,-18.5541,Q,Q
2023-03-15 15:52:22:13,0,-12.8107,-8.78122,-18.5499,Q,Q
2023-03-15 15:52:22:23,0,-12.8317,-8.7743,-18.5495,Q,Q
2023-03-15 15:52:22:33,0,-12.8485,-8.76931,-18.5459,Q,Q
2023-03-15 15:52:22:43,0,-12.8599,-8.76813,-18.5371,Q,Q
2023-03-15 15:52:22:53,0,-12.8731,-8.77783,-18.5248,Q,Q
2023-03-15 15:52:22:63,0,-12.8882,-8.78734,-18.5142,Q,Q
2023-03-15 15:52:22:73,0,-12.9027,-8.79851,-18.506,Q,Q
2023-03-15 15:52:22:83,0,-12.9172,-8.8035,-18.5048,Q,Q
2023-03-15 15:52:22:93,0,-12.9338,-8.80267,-18.4993,Q,Q
2023-03-15 15:52:22:103,0,-12.9491,-8.80206,-18.4945,Q,Q
2023-03-15 15:52:22:113,0,-12.9591,-8.79942,-18.4952,Q,Q
2023-03-15 15:52:22:123,0,-12.9663,-8.79793,-18.4969,Q,Q
2023-03-15 15:52:22:133,0,-12.9733,-8.79301,-18.4999,Q,Q
2023-03-15 15:52:22:143,0,-12.9758,-8.78605,-18.5072,Q,Q
2023-03-15 15:52:22:153,0,-12.9737,-8.77822,-18.5136,Q,Q
2023-03-15 15:52:22:163,0,-12.9728,-8.77806,-18.5159,Q,Q
2023-03-15 15:52:22:173,0,-12.9682,-8.77587,-18.5212,Q,Q
2023-03-15 15:52:22:183,0,-12.9655,-8.77411,-18.528,Q,Q
2023-03-15 15:52:22:193,0,-12.9625,-8.77157,-18.5286,Q,Q
2023-03-15 15:52:22:203,0,-12.9597,-8.76985,-18.5337,Q,Q
2023-03-15 15:52:22:213,0,-12.958,-8.76771,-18.5359,Q,Q
2023-03-15 15:52:22:223,0,-12.9567,-8.76727,-18.5361,Q,Q
2023-03-15 15:52:22:233,0,-12.9617,-8.76449,-18.5391,Q,Q
2023-03-15 15:52:22:243,0,-12.9588,-8.76224,-18.5441,Q,Q
2023-03-15 15:52:22:253,0,-12.9501,-8.76124,-18.5491,Q,Q
2023-03-15 15:52:22:263,0,-12.9413,-8.75852,-18.5544,Q,Q
2023-03-15 15:52:22:273,0,-12.9276,-8.76084,-18.5573,Q,Q
2023-03-15 15:52:22:283,0,-12.9134,-8.7664,-18.5584,Q,Q
2023-03-15 15:52:22:293,0,-12.9005,-8.77153,-18.5594,Q,Q
2023-03-15 15:52:22:303,0,-12.8855,-8.77596,-18.5633,Q,Q
2023-03-15 15:52:22:313,0,-12.8817,-8.77688,-18.5637,Q,Q
2023-03-15 15:52:22:323,0,-12.8782,-8.77671,-18.5678,Q,Q
2023-03-15 15:52:22:333,0,-12.8734,-8.77722,-18.5713,Q,Q
2023-03-15 15:52:22:343,0,-12.8666,-8.78038,-18.573,Q,Q
2023-03-15 15:52:22:353,0,-12.8614,-8.78082,-18.5717,Q,Q
2023-03-15 15:52:22:363,0,-12.8555,-8.77932,-18.5707,Q,Q
2023-03-15 15:52:22:373,0,-12.8497,-8.77611,-18.5702,Q,Q
2023-03-15 15:52:22:383,0,-12.8463,-8.77863,-18.5709,Q,Q
2023-03-15 15:52:22:393,0,-12.8483,-8.7826,-18.5667,Q,Q
2023-03-15 15:52:22:403,0,-12.8478,-8.78831,-18.5659,Q,Q
2023-03-15 15:52:22:413,0,-12.8502,-8.79352,-18.5616,Q,Q
2023-03-15 15:52:22:423,0,-12.8573,-8.80084,-18.5567,Q,Q
2023-03-15 15:52:22:433,0,-12.8628,-8.80817,-18.5514,Q,Q
2023-03-15 15:52:22:443,0,-12.8664,-8.81398,-18.549,Q,Q
2023-03-15 15:52:22:453,0,-12.8713,-8.82049,-18.545,Q,Q
2023-03-15 15:52:22:463,0,-12.8804,-8.83059,-18.5323,Q,Q
2023-03-15 15:52:22:473,0,-12.8911,-8.83729,-18.5258,Q,Q
2023-03-15 15:52:22:483,0,-12.9069,-8.84206,-18.5211,Q,Q
2023-03-15 15:52:22:493,0,-12.9184,-8.847,-18.5178,Q,Q
2023-03-15 15:52:22:503,0,-12.9263,-8.85326,-18.5173,Q,Q
2023-03-15 15:52:22:513,0,-12.9309,-8.85985,-18.5174,Q,Q
2023-03-15 15:52:22:523,0,-12.9363,-8.86357,-18.523,Q,Q
2023-03-15 15:52:22:533,0,-12.9403,-8.8638,-18.5295,Q,Q
