Timestamp_cmd,imu_cmd,roll_delta,pitch_delta,yaw_delta,voice_type,voice_length
2023-03-15 21:12:08:42,0,-54.7253,1.97763,147.955,Q,Q
2023-03-15 21:12:08:51,0,-54.7241,1.9758,147.953,Q,Q
2023-03-15 21:12:08:61,0,-54.7227,1.97477,147.954,Q,Q
2023-03-15 21:12:08:71,0,-54.7208,1.97458,147.954,Q,Q
2023-03-15 21:12:08:81,0,-54.7221,1.97522,147.954,Q,Q
2023-03-15 21:12:08:91,0,-54.7223,1.97189,147.953,Q,Q
2023-03-15 21:12:08:101,0,-54.7232,1.9727,147.953,Q,Q
2023-03-15 21:12:08:111,0,-54.7249,1.97122,147.948,Q,Q
2023-03-15 21:12:08:121,0,-54.7206,1.97174,147.951,Q,Q
2023-03-15 21:12:08:131,0,-54.7219,1.97281,147.953,Q,Q
2023-03-15 21:12:08:141,0,-54.7251,1.97423,147.953,Q,Q
2023-03-15 21:12:08:151,0,-54.7238,1.97842,147.953,Q,Q
2023-03-15 21:12:08:161,0,-54.7236,1.97694,147.956,Q,Q
2023-03-15 21:12:08:171,0,-54.7266,1.9781,147.955,Q,Q
2023-03-15 21:12:08:181,0,-54.728,1.9763,147.956,Q,Q
2023-03-15 21:12:08:191,0,-54.7258,1.97621,147.952,Q,Q
2023-03-15 21:12:08:201,0,-54.7273,1.97549,147.953,Q,Q
2023-03-15 21:12:08:211,0,-54.7287,1.97399,147.954,Q,Q
2023-03-15 21:12:08:221,0,-54.7301,1.97432,147.956,Q,Q
2023-03-15 21:12:08:231,0,-54.7272,1.97474,147.955,Q,Q
2023-03-15 21:12:08:241,0,-54.7254,1.97492,147.956,Q,Q
2023-03-15 21:12:08:251,0,-54.7297,1.97027,147.956,Q,Q
2023-03-15 21:12:08:261,0,-54.7332,1.97108,147.952,Q,Q
2023-03-15 21:12:08:271,0,-54.7335,1.9686,147.952,Q,Q
2023-03-15 21:12:08:281,0,-54.7332,1.97035,147.952,Q,Q
2023-03-15 21:12:08:291,0,-54.7336,1.96912,147.952,Q,Q
2023-03-15 21:12:08:301,0,-54.7315,1.96598,147.95,Q,Q
2023-03-15 21:12:08:311,0,-54.7319,1.96473,147.947,Q,Q
2023-03-15 21:12:08:321,0,-54.7309,1.9621,147.944,Q,Q
2023-03-15 21:12:08:331,0,-54.7325,1.95847,147.946,Q,Q
2023-03-15 21:12:08:341,0,-54.7314,1.95784,147.953,Q,Q
2023-03-15 21:12:08:351,0,-54.7313,1.95676,147.952,Q,Q
2023-03-15 21:12:08:361,0,-54.7287,1.95787,147.953,Q,Q
2023-03-15 21:12:08:371,0,-54.7289,1.95822,147.952,Q,Q
2023-03-15 21:12:08:381,0,-54.7257,1.95926,147.955,Q,Q
2023-03-15 21:12:08:391,0,-54.7241,1.95837,147.955,Q,Q
2023-03-15 21:12:08:401,0,-54.7235,1.95638,147.956,Q,Q
2023-03-15 21:12:08:411,0,-54.7253,1.95696,147.958,Q,Q
2023-03-15 21:12:08:421,0,-54.7256,1.95642,147.962,Q,Q
2023-03-15 21:12:08:431,0,-54.72,1.95205,147.967,Q,Q
2023-03-15 21:12:08:441,0,-54.7215,1.95275,147.966,Q,Q
2023-03-15 21:12:08:451,0,-54.7204,1.95183,147.963,Q,Q
2023-03-15 21:12:08:461,0,-54.7213,1.94854,147.962,Q,Q
2023-03-15 21:12:08:471,0,-54.7235,1.94498,147.963,Q,Q
2023-03-15 21:12:08:481,0,-54.7267,1.94385,147.961,Q,Q
2023-03-15 21:12:08:491,0,-54.7292,1.94721,147.961,Q,Q
2023-03-15 21:12:08:501,0,-54.7262,1.94803,147.963,Q,Q
2023-03-15 21:12:08:511,0,-54.73,1.94749,147.963,Q,Q
2023-03-15 21:12:08:521,0,-54.729,1.94939,147.961,Q,Q
2023-03-15 21:12:08:531,0,-54.7296,1.94903,147.962,Q,Q
2023-03-15 21:12:08:541,0,-54.7274,1.94817,147.961,Q,Q
2023-03-15 21:12:08:551,0,-54.7288,1.94557,147.964,Q,Q
2023-03-15 21:12:08:561,0,-54.7294,1.94601,147.962,Q,Q
2023-03-15 21:12:08:571,0,-54.7296,1.94443,147.961,Q,Q
2023-03-15 21:12:08:581,0,-54.7337,1.94478,147.961,Q,Q
2023-03-15 21:12:08:591,0,-54.7314,1.94371,147.961,Q,Q
2023-03-15 21:12:08:601,0,-54.7301,1.94407,147.963,Q,Q
2023-03-15 21:12:08:611,0,-54.7324,1.94295,147.963,Q,Q
2023-03-15 21:12:08:621,0,-54.7307,1.94218,147.964,Q,Q
2023-03-15 21:12:08:631,0,-54.7305,1.9382,147.963,Q,Q
2023-03-15 21:12:08:641,0,-54.7289,1.9383,147.961,Q,Q
2023-03-15 21:12:08:651,0,-54.7304,1.93591,147.964,Q,Q
2023-03-15 21:12:08:661,0,-54.7261,1.93983,147.962,Q,Q
2023-03-15 21:12:08:671,0,-54.7272,1.94253,147.962,Q,Q
2023-03-15 21:12:08:681,0,-54.7274,1.93917,147.96,Q,Q
2023-03-15 21:12:08:691,0,-54.7248,1.93887,147.959,Q,Q
2023-03-15 21:12:08:701,0,-54.7243,1.93911,147.958,Q,Q
2023-03-15 21:12:08:711,0,-54.7248,1.93836,147.96,Q,Q
2023-03-15 21:12:08:721,0,-54.7235,1.93647,147.96,Q,Q
2023-03-15 21:12:08:731,0,-54.7243,1.93572,147.961,Q,Q
2023-03-15 21:12:08:741,0,-54.7264,1.93639,147.963,Q,Q
2023-03-15 21:12:08:751,0,-54.7267,1.93681,147.962,Q,Q
2023-03-15 21:12:08:761,0,-54.7248,1.93923,147.961,Q,Q
2023-03-15 21:12:08:771,0,-54.7254,1.9389,147.964,Q,Q
2023-03-15 21:12:08:781,0,-54.7237,1.93791,147.967,Q,Q
2023-03-15 21:12:08:791,0,-54.7268,1.93864,147.97,Q,Q
2023-03-15 21:12:08:801,0,-54.7297,1.94004,147.971,Q,Q
2023-03-15 21:12:08:811,0,-54.7274,1.94119,147.969,Q,Q
2023-03-15 21:12:08:821,0,-54.7259,1.9399,147.972,Q,Q
2023-03-15 21:12:08:831,0,-54.7222,1.94204,147.973,Q,Q
2023-03-15 21:12:08:841,0,-54.7198,1.94241,147.975,Q,Q
2023-03-15 21:12:08:851,0,-54.7208,1.94378,147.973,Q,Q
2023-03-15 21:12:08:861,0,-54.7254,1.94439,147.97,Q,Q
2023-03-15 21:12:08:871,0,-54.7272,1.94278,147.972,Q,Q
2023-03-15 21:12:08:881,0,-54.727,1.94344,147.973,Q,Q
2023-03-15 21:12:08:891,0,-54.7284,1.94211,147.975,Q,Q
2023-03-15 21:12:08:901,0,-54.7259,1.94312,147.974,Q,Q
2023-03-15 21:12:08:911,0,-54.7287,1.94153,147.975,Q,Q
2023-03-15 21:12:08:921,0,-54.7305,1.94141,147.978,Q,Q
2023-03-15 21:12:08:931,0,-54.7282,1.94134,147.981,Q,Q
2023-03-15 21:12:08:941,0,-54.7259,1.94388,147.981,Q,Q
2023-03-15 21:12:08:951,0,-54.7238,1.94465,147.979,Q,Q
2023-03-15 21:12:08:961,0,-54.7243,1.94659,147.979,Q,Q
2023-03-15 21:12:08:971,0,-54.7263,1.9493,147.978,Q,Q
2023-03-15 21:12:08:981,0,-54.7279,1.94932,147.978,Q,Q
2023-03-15 21:12:08:991,0,-54.7306,1.94902,147.978,Q,Q
2023-03-15 21:12:09:1,0,-54.7309,1.95282,147.979,Q,Q
2023-03-15 21:12:09:11,0,-54.7297,1.95299,147.981,Q,Q
2023-03-15 21:12:09:21,0,-54.7295,1.95242,147.98,Q,Q
2023-03-15 21:12:09:31,0,-54.7305,1.94956,147.982,Q,Q
2023-03-15 21:12:09:41,0,-54.7328,1.95287,147.983,Q,Q
2023-03-15 21:12:09:51,0,-54.7342,1.95305,147.983,Q,Q
2023-03-15 21:12:09:61,0,-54.7347,1.95383,147.984,Q,Q
2023-03-15 21:12:09:71,0,-54.7347,1.95191,147.986,Q,Q
2023-03-15 21:12:09:81,0,-54.736,1.9521,147.981,Q,Q
2023-03-15 21:12:09:91,0,-54.7336,1.95122,147.982,Q,Q
2023-03-15 21:12:09:101,0,-54.735,1.9536,147.98,Q,Q
2023-03-15 21:12:09:111,0,-54.7358,1.95018,147.98,Q,Q
2023-03-15 21:12:09:121,0,-54.7363,1.95166,147.976,Q,Q
2023-03-15 21:12:09:131,0,-54.7397,1.94997,147.977,Q,Q
2023-03-15 21:12:09:141,0,-54.7402,1.95001,147.977,Q,Q
2023-03-15 21:12:09:151,0,-54.7396,1.95079,147.973,Q,Q
2023-03-15 21:12:09:161,0,-54.7415,1.95001,147.973,Q,Q
2023-03-15 21:12:09:171,0,-54.7404,1.95058,147.975,Q,Q
2023-03-15 21:12:09:181,0,-54.7389,1.95061,147.977,Q,Q
2023-03-15 21:12:09:191,0,-54.7374,1.94746,147.98,Q,Q
2023-03-15 21:12:09:201,0,-54.7378,1.9437,147.981,Q,Q
2023-03-15 21:12:09:211,0,-54.7374,1.94323,147.978,Q,Q
2023-03-15 21:12:09:221,0,-54.7368,1.94463,147.977,Q,Q
2023-03-15 21:12:09:231,0,-54.7359,1.94289,147.98,Q,Q
2023-03-15 21:12:09:241,0,-54.7361,1.94112,147.986,Q,Q
2023-03-15 21:12:09:251,0,-54.7394,1.94376,147.988,Q,Q
2023-03-15 21:12:09:261,0,-54.7428,1.94128,147.988,Q,Q
2023-03-15 21:12:09:271,0,-54.7442,1.93901,147.988,Q,Q
2023-03-15 21:12:09:281,0,-54.7468,1.94135,147.989,Q,Q
2023-03-15 21:12:09:291,0,-54.7459,1.94267,147.99,Q,Q
2023-03-15 21:12:09:301,0,-54.7452,1.94191,147.991,Q,Q
2023-03-15 21:12:09:311,0,-54.7444,1.9413,147.991,Q,Q
2023-03-15 21:12:09:321,0,-54.7427,1.94081,147.994,Q,Q
2023-03-15 21:12:09:331,0,-54.7422,1.94079,147.996,Q,Q
2023-03-15 21:12:09:341,0,-54.7416,1.93917,147.997,Q,Q
2023-03-15 21:12:09:351,0,-54.7411,1.9381,147.998,Q,Q
2023-03-15 21:12:09:361,0,-54.7395,1.9394,147.998,Q,Q
2023-03-15 21:12:09:371,0,-54.7388,1.93847,148.0,Q,Q
2023-03-15 21:12:09:381,0,-54.7392,1.93839,148.001,Q,Q
2023-03-15 21:12:09:391,0,-54.7383,1.93904,148.002,Q,Q
2023-03-15 21:12:09:401,0,-54.7376,1.93998,148.003,Q,Q
2023-03-15 21:12:09:411,0,-54.7354,1.93992,148.003,Q,Q
2023-03-15 21:12:09:421,0,-54.7347,1.93784,148.003,Q,Q
2023-03-15 21:12:09:431,0,-54.7317,1.93541,148.003,Q,Q
2023-03-15 21:12:09:441,0,-54.7307,1.93538,148.004,Q,Q
2023-03-15 21:12:09:451,0,-54.7311,1.93713,148.004,Q,Q
2023-03-15 21:12:09:461,0,-54.7307,1.93652,148.003,Q,Q
2023-03-15 21:12:09:471,0,-54.7311,1.93592,148.003,Q,Q
2023-03-15 21:12:09:481,0,-54.7289,1.93654,148.001,Q,Q
2023-03-15 21:12:09:491,0,-54.7286,1.93539,147.999,Q,Q
2023-03-15 21:12:09:501,0,-54.7301,1.93827,148.001,Q,Q
2023-03-15 21:12:09:511,0,-54.729,1.93931,148.001,Q,Q
2023-03-15 21:12:09:521,0,-54.7263,1.94093,148.003,Q,Q
2023-03-15 21:12:09:531,0,-54.724,1.9408,148.005,Q,Q
2023-03-15 21:12:09:541,0,-54.7229,1.94298,148.003,Q,Q
2023-03-15 21:12:09:551,0,-54.7224,1.94239,148.004,Q,Q
2023-03-15 21:12:09:561,0,-54.7252,1.94149,148.004,Q,Q
2023-03-15 21:12:09:571,0,-54.7241,1.94492,148.006,Q,Q
2023-03-15 21:12:09:581,0,-54.7242,1.9465,148.005,Q,Q
2023-03-15 21:12:09:591,0,-54.7255,1.94865,148.005,Q,Q
2023-03-15 21:12:09:601,0,-54.7262,1.95092,148.003,Q,Q
2023-03-15 21:12:09:611,0,-54.7263,1.95171,148.002,Q,Q
2023-03-15 21:12:09:621,0,-54.7262,1.94968,148.005,Q,Q
2023-03-15 21:12:09:631,0,-54.725,1.952,148.006,Q,Q
2023-03-15 21:12:09:641,0,-54.7276,1.95386,148.005,Q,Q
2023-03-15 21:12:09:651,0,-54.73,1.95731,148.005,Q,Q
2023-03-15 21:12:09:661,0,-54.7301,1.96003,148.004,Q,Q
2023-03-15 21:12:09:671,0,-54.7322,1.96075,148.004,Q,Q
2023-03-15 21:12:09:681,0,-54.7322,1.9581,148.007,Q,Q
2023-03-15 21:12:09:692,0,-54.7314,1.96139,148.008,Q,Q
2023-03-15 21:12:09:702,0,-54.7334,1.96183,148.008,Q,Q
2023-03-15 21:12:09:712,0,-54.735,1.96032,148.01,Q,Q
2023-03-15 21:12:09:722,0,-54.736,1.96447,148.011,Q,Q
2023-03-15 21:12:09:732,0,-54.7364,1.96674,148.008,Q,Q
2023-03-15 21:12:09:742,0,-54.7361,1.96824,148.009,Q,Q
2023-03-15 21:12:09:752,0,-54.7391,1.96744,148.01,Q,Q
2023-03-15 21:12:09:762,0,-54.7406,1.96736,148.01,Q,Q
2023-03-15 21:12:09:772,0,-54.7439,1.96621,148.012,Q,Q
2023-03-15 21:12:09:781,0,-54.7394,1.96435,148.015,Q,Q
2023-03-15 21:12:09:792,0,-54.7397,1.964,148.017,Q,Q
2023-03-15 21:12:09:802,0,-54.7387,1.96459,148.017,Q,Q
2023-03-15 21:12:09:812,0,-54.7396,1.96615,148.013,Q,Q
2023-03-15 21:12:09:822,0,-54.7426,1.96469,148.015,Q,Q
2023-03-15 21:12:09:832,0,-54.7449,1.96591,148.013,Q,Q
2023-03-15 21:12:09:842,0,-54.7415,1.96595,148.012,Q,Q
2023-03-15 21:12:09:852,0,-54.7386,1.96268,148.013,Q,Q
2023-03-15 21:12:09:862,0,-54.7387,1.96409,148.012,Q,Q
2023-03-15 21:12:09:872,0,-54.7391,1.96255,148.012,Q,Q
2023-03-15 21:12:09:882,0,-54.7379,1.9627,148.012,Q,Q
2023-03-15 21:12:09:892,0,-54.7386,1.96512,148.011,Q,Q
2023-03-15 21:12:09:902,0,-54.7432,1.9677,148.011,Q,Q
2023-03-15 21:12:09:912,0,-54.7437,1.96712,148.013,Q,Q
2023-03-15 21:12:09:922,0,-54.7434,1.96428,148.012,Q,Q
2023-03-15 21:12:09:932,0,-54.7488,1.96227,148.013,Q,Q
2023-03-15 21:12:09:942,0,-54.7511,1.96124,148.012,Q,Q
2023-03-15 21:12:09:952,0,-54.7484,1.96082,148.012,Q,Q
2023-03-15 21:12:09:962,0,-54.7488,1.96186,148.012,Q,Q
2023-03-15 21:12:09:972,0,-54.7504,1.96207,148.014,Q,Q
2023-03-15 21:12:09:982,0,-54.7514,1.96441,148.014,Q,Q
2023-03-15 21:12:09:992,0,-54.7522,1.9672,148.017,Q,Q
2023-03-15 21:12:10:2,0,-54.7485,1.96773,148.016,Q,Q
2023-03-15 21:12:10:12,0,-54.7493,1.96846,148.016,Q,Q
2023-03-15 21:12:10:22,0,-54.7513,1.97006,148.016,Q,Q
2023-03-15 21:12:10:32,0,-54.7529,1.96914,148.016,Q,Q
2023-03-15 21:12:10:42,0,-54.7514,1.96968,148.016,Q,Q
2023-03-15 21:12:10:52,0,-54.7503,1.97032,148.019,Q,Q
2023-03-15 21:12:10:62,0,-54.747,1.97017,148.019,Q,Q
2023-03-15 21:12:10:72,0,-54.7461,1.97113,148.02,Q,Q
2023-03-15 21:12:10:82,0,-54.7458,1.96855,148.021,Q,Q
2023-03-15 21:12:10:92,0,-54.7438,1.96655,148.019,Q,Q
2023-03-15 21:12:10:102,0,-54.7451,1.96381,148.023,Q,Q
2023-03-15 21:12:10:112,0,-54.7457,1.96289,148.022,Q,Q
2023-03-15 21:12:10:122,0,-54.7442,1.96494,148.02,Q,Q
2023-03-15 21:12:10:132,0,-54.7445,1.96489,148.022,Q,Q
2023-03-15 21:12:10:142,0,-54.7476,1.96319,148.02,Q,Q
2023-03-15 21:12:10:152,0,-54.7475,1.96134,148.02,Q,Q
2023-03-15 21:12:10:162,0,-54.7454,1.96045,148.023,Q,Q
2023-03-15 21:12:10:172,0,-54.7455,1.95796,148.024,Q,Q
2023-03-15 21:12:10:182,0,-54.7461,1.95726,148.025,Q,Q
2023-03-15 21:12:10:192,0,-54.7486,1.9579,148.028,Q,Q
2023-03-15 21:12:10:202,0,-54.7458,1.95763,148.028,Q,Q
2023-03-15 21:12:10:212,0,-54.7421,1.95428,148.029,Q,Q
2023-03-15 21:12:10:222,0,-54.7402,1.95315,148.031,Q,Q
2023-03-15 21:12:10:232,0,-54.7412,1.95553,148.029,Q,Q
2023-03-15 21:12:10:242,0,-54.7428,1.95944,148.026,Q,Q
2023-03-15 21:12:10:252,0,-54.7415,1.95953,148.027,Q,Q
2023-03-15 21:12:10:262,0,-54.7397,1.95824,148.028,Q,Q
2023-03-15 21:12:10:272,0,-54.7379,1.96089,148.03,Q,Q
2023-03-15 21:12:10:282,0,-54.7366,1.95859,148.029,Q,Q
2023-03-15 21:12:10:292,0,-54.7367,1.95991,148.028,Q,Q
2023-03-15 21:12:10:302,0,-54.7353,1.96392,148.029,Q,Q
2023-03-15 21:12:10:312,0,-54.7364,1.9639,148.033,Q,Q
2023-03-15 21:12:10:322,0,-54.7353,1.96084,148.034,Q,Q
2023-03-15 21:12:10:332,0,-54.7351,1.96278,148.034,Q,Q
2023-03-15 21:12:10:341,0,-54.7369,1.96374,148.035,Q,Q
2023-03-15 21:12:10:351,0,-54.7359,1.96571,148.037,Q,Q
2023-03-15 21:12:10:361,0,-54.7387,1.96373,148.04,Q,Q
2023-03-15 21:12:10:371,0,-54.738,1.966,148.04,Q,Q
2023-03-15 21:12:10:382,0,-54.7389,1.96468,148.04,Q,Q
2023-03-15 21:12:10:392,0,-54.7376,1.96547,148.04,Q,Q
2023-03-15 21:12:10:402,0,-54.7391,1.96454,148.04,Q,Q
2023-03-15 21:12:10:412,0,-54.7392,1.96301,148.041,Q,Q
2023-03-15 21:12:10:422,0,-54.7398,1.96225,148.041,Q,Q
2023-03-15 21:12:10:432,0,-54.7414,1.96262,148.041,Q,Q
2023-03-15 21:12:10:442,0,-54.74,1.96356,148.045,Q,Q
2023-03-15 21:12:10:452,0,-54.7373,1.96309,148.044,Q,Q
2023-03-15 21:12:10:462,0,-54.7369,1.96023,148.042,Q,Q
2023-03-15 21:12:10:472,0,-54.7367,1.95757,148.043,Q,Q
2023-03-15 21:12:10:482,0,-54.7391,1.95853,148.04,Q,Q
2023-03-15 21:12:10:492,0,-54.7389,1.95837,148.04,Q,Q
2023-03-15 21:12:10:502,0,-54.7405,1.95917,148.038,Q,Q
2023-03-15 21:12:10:512,0,-54.741,1.96018,148.038,Q,Q
2023-03-15 21:12:10:522,0,-54.7378,1.95879,148.041,Q,Q
2023-03-15 21:12:10:532,0,-54.7352,1.95464,148.041,Q,Q
2023-03-15 21:12:10:542,0,-54.7338,1.95452,148.042,Q,Q
2023-03-15 21:12:10:552,0,-54.7328,1.95653,148.045,Q,Q
2023-03-15 21:12:10:562,0,-54.7325,1.96029,148.043,Q,Q
2023-03-15 21:12:10:572,0,-54.7316,1.9613,148.042,Q,Q
2023-03-15 21:12:10:582,0,-54.7303,1.96262,148.044,Q,Q
2023-03-15 21:12:10:592,0,-54.7293,1.96187,148.048,Q,Q
2023-03-15 21:12:10:602,0,-54.7299,1.95971,148.05,Q,Q
2023-03-15 21:12:10:612,0,-54.7298,1.96027,148.048,Q,Q
2023-03-15 21:12:10:622,0,-54.7299,1.96079,148.049,Q,Q
2023-03-15 21:12:10:632,0,-54.7291,1.95982,148.048,Q,Q
2023-03-15 21:12:10:642,0,-54.7291,1.95952,148.043,Q,Q
2023-03-15 21:12:10:652,0,-54.7341,1.96144,148.044,Q,Q
2023-03-15 21:12:10:662,0,-54.7343,1.95811,148.046,Q,Q
2023-03-15 21:12:10:672,0,-54.7335,1.95585,148.044,Q,Q
2023-03-15 21:12:10:682,0,-54.7323,1.95628,148.044,Q,Q
2023-03-15 21:12:10:692,0,-54.7314,1.95433,148.046,Q,Q
2023-03-15 21:12:10:702,0,-54.7324,1.95393,148.044,Q,Q
2023-03-15 21:12:10:712,0,-54.7297,1.94783,148.044,Q,Q
2023-03-15 21:12:10:722,0,-54.7294,1.94587,148.042,Q,Q
2023-03-15 21:12:10:732,0,-54.7311,1.94475,148.041,Q,Q
2023-03-15 21:12:10:742,0,-54.7264,1.94105,148.04,Q,Q
2023-03-15 21:12:10:752,0,-54.7265,1.94134,148.036,Q,Q
2023-03-15 21:12:10:762,0,-54.725,1.93933,148.039,Q,Q
2023-03-15 21:12:10:772,0,-54.7229,1.94262,148.039,Q,Q
2023-03-15 21:12:10:782,0,-54.7206,1.9421,148.04,Q,Q
2023-03-15 21:12:10:792,0,-54.7189,1.94273,148.043,Q,Q
2023-03-15 21:12:10:802,0,-54.7192,1.94151,148.043,Q,Q
2023-03-15 21:12:10:812,0,-54.7165,1.93999,148.042,Q,Q
2023-03-15 21:12:10:822,0,-54.7183,1.94038,148.042,Q,Q
2023-03-15 21:12:10:832,0,-54.7179,1.93921,148.043,Q,Q
2023-03-15 21:12:10:842,0,-54.7174,1.93994,148.043,Q,Q
2023-03-15 21:12:10:852,0,-54.7194,1.9391,148.043,Q,Q
2023-03-15 21:12:10:862,0,-54.7191,1.9384,148.046,Q,Q
2023-03-15 21:12:10:872,0,-54.7187,1.93892,148.047,Q,Q
2023-03-15 21:12:10:882,0,-54.7183,1.9417,148.047,Q,Q
2023-03-15 21:12:10:892,0,-54.7196,1.94157,148.047,Q,Q
2023-03-15 21:12:10:902,0,-54.7191,1.93968,148.049,Q,Q
2023-03-15 21:12:10:912,0,-54.7205,1.93636,148.05,Q,Q
2023-03-15 21:12:10:922,0,-54.7219,1.93686,148.047,Q,Q
2023-03-15 21:12:10:932,0,-54.7214,1.93725,148.048,Q,Q
2023-03-15 21:12:10:942,0,-54.7222,1.9373,148.049,Q,Q
2023-03-15 21:12:10:952,0,-54.7191,1.93859,148.05,Q,Q
2023-03-15 21:12:10:962,0,-54.7169,1.93784,148.054,Q,Q
2023-03-15 21:12:10:972,0,-54.7134,1.93422,148.055,Q,Q
2023-03-15 21:12:10:982,0,-54.7115,1.93372,148.056,Q,Q
2023-03-15 21:12:10:992,0,-54.7108,1.93356,148.058,Q,Q
2023-03-15 21:12:11:2,0,-54.7098,1.93188,148.055,Q,Q
2023-03-15 21:12:11:12,0,-54.7131,1.93007,148.053,Q,Q
2023-03-15 21:12:11:22,0,-54.7155,1.92998,148.052,Q,Q
2023-03-15 21:12:11:32,0,-54.7081,1.93242,148.053,Q,Q
2023-03-15 21:12:11:42,0,-54.71,1.9343,148.053,Q,Q
2023-03-15 21:12:11:52,0,-54.7132,1.93354,148.055,Q,Q
2023-03-15 21:12:11:62,0,-54.7105,1.93104,148.055,Q,Q
2023-03-15 21:12:11:72,0,-54.7064,1.93025,148.052,Q,Q
2023-03-15 21:12:11:82,0,-54.7056,1.93064,148.051,Q,Q
2023-03-15 21:12:11:92,0,-54.7036,1.93167,148.051,Q,Q
2023-03-15 21:12:11:102,0,-54.7057,1.92891,148.05,Q,Q
2023-03-15 21:12:11:112,0,-54.7087,1.92538,148.047,Q,Q
2023-03-15 21:12:11:122,0,-54.7103,1.92666,148.044,Q,Q
2023-03-15 21:12:11:132,0,-54.7097,1.92487,148.042,Q,Q
2023-03-15 21:12:11:142,0,-54.7082,1.92483,148.042,Q,Q
2023-03-15 21:12:11:152,0,-54.7081,1.92653,148.04,Q,Q
2023-03-15 21:12:11:162,0,-54.7094,1.92501,148.042,Q,Q
2023-03-15 21:12:11:172,0,-54.7121,1.9238,148.044,Q,Q
2023-03-15 21:12:11:182,0,-54.7142,1.92157,148.047,Q,Q
2023-03-15 21:12:11:192,0,-54.7155,1.92112,148.047,Q,Q
2023-03-15 21:12:11:202,0,-54.7181,1.91889,148.049,Q,Q
2023-03-15 21:12:11:212,0,-54.7143,1.91909,148.051,Q,Q
2023-03-15 21:12:11:222,0,-54.717,1.91986,148.048,Q,Q
2023-03-15 21:12:11:232,0,-54.7153,1.92057,148.047,Q,Q
2023-03-15 21:12:11:242,0,-54.7127,1.92487,148.048,Q,Q
2023-03-15 21:12:11:252,0,-54.7115,1.92492,148.047,Q,Q
2023-03-15 21:12:11:262,0,-54.7112,1.92559,148.045,Q,Q
2023-03-15 21:12:11:272,0,-54.7113,1.92824,148.043,Q,Q
2023-03-15 21:12:11:282,0,-54.7107,1.92971,148.044,Q,Q
2023-03-15 21:12:11:292,0,-54.7112,1.93024,148.045,Q,Q
2023-03-15 21:12:11:302,0,-54.7124,1.92988,148.044,Q,Q
2023-03-15 21:12:11:312,0,-54.7098,1.92878,148.046,Q,Q
2023-03-15 21:12:11:322,0,-54.7104,1.92662,148.046,Q,Q
2023-03-15 21:12:11:332,0,-54.7081,1.92857,148.049,Q,Q
2023-03-15 21:12:11:342,0,-54.709,1.92946,148.05,Q,Q
2023-03-15 21:12:11:352,0,-54.706,1.92852,148.052,Q,Q
2023-03-15 21:12:11:362,0,-54.7057,1.92952,148.05,Q,Q
2023-03-15 21:12:11:372,0,-54.702,1.92595,148.048,Q,Q
2023-03-15 21:12:11:383,0,-54.7001,1.92594,148.048,Q,Q
2023-03-15 21:12:11:392,0,-54.6973,1.92969,148.046,Q,Q
2023-03-15 21:12:11:403,0,-54.6913,1.92985,148.047,Q,Q
2023-03-15 21:12:11:413,0,-54.6949,1.92845,148.052,Q,Q
2023-03-15 21:12:11:423,0,-54.6933,1.92982,148.053,Q,Q
2023-03-15 21:12:11:433,0,-54.6961,1.93061,148.053,Q,Q
2023-03-15 21:12:11:442,0,-54.6963,1.9287,148.055,Q,Q
2023-03-15 21:12:11:452,0,-54.6983,1.92768,148.056,Q,Q
2023-03-15 21:12:11:462,0,-54.6996,1.92355,148.055,Q,Q
2023-03-15 21:12:11:472,0,-54.7006,1.92261,148.053,Q,Q
2023-03-15 21:12:11:483,0,-54.7044,1.92321,148.052,Q,Q
2023-03-15 21:12:11:492,0,-54.7006,1.9251,148.052,Q,Q
2023-03-15 21:12:11:503,0,-54.7,1.92622,148.053,Q,Q
2023-03-15 21:12:11:513,0,-54.701,1.92999,148.053,Q,Q
2023-03-15 21:12:11:523,0,-54.7025,1.93002,148.051,Q,Q
2023-03-15 21:12:11:533,0,-54.7028,1.93292,148.052,Q,Q
2023-03-15 21:12:11:542,0,-54.7037,1.93315,148.053,Q,Q
2023-03-15 21:12:11:552,0,-54.7048,1.93219,148.053,Q,Q
2023-03-15 21:12:11:563,0,-54.7018,1.93157,148.054,Q,Q
2023-03-15 21:12:11:573,0,-54.702,1.93011,148.057,Q,Q
2023-03-15 21:12:11:583,0,-54.7022,1.93326,148.056,Q,Q
2023-03-15 21:12:11:592,0,-54.6997,1.93182,148.057,Q,Q
2023-03-15 21:12:11:603,0,-54.7005,1.9341,148.056,Q,Q
2023-03-15 21:12:11:613,0,-54.7007,1.93074,148.056,Q,Q
2023-03-15 21:12:11:623,0,-54.7039,1.93269,148.055,Q,Q
2023-03-15 21:12:11:633,0,-54.7014,1.93293,148.056,Q,Q
2023-03-15 21:12:11:643,0,-54.703,1.93527,148.055,Q,Q
2023-03-15 21:12:11:653,0,-54.702,1.93665,148.054,Q,Q
2023-03-15 21:12:11:663,0,-54.7012,1.93537,148.055,Q,Q
2023-03-15 21:12:11:672,0,-54.7006,1.93389,148.055,Q,Q
2023-03-15 21:12:11:682,0,-54.7033,1.93093,148.054,Q,Q
2023-03-15 21:12:11:692,0,-54.7036,1.92877,148.052,Q,Q
2023-03-15 21:12:11:702,0,-54.7004,1.92836,148.052,Q,Q
2023-03-15 21:12:11:713,0,-54.7008,1.92896,148.051,Q,Q
2023-03-15 21:12:11:723,0,-54.7048,1.92915,148.051,Q,Q
2023-03-15 21:12:11:733,0,-54.7042,1.92928,148.049,Q,Q
2023-03-15 21:12:11:743,0,-54.7061,1.92684,148.051,Q,Q
2023-03-15 21:12:11:753,0,-54.7063,1.92763,148.05,Q,Q
2023-03-15 21:12:11:763,0,-54.7046,1.92458,148.051,Q,Q
2023-03-15 21:12:11:773,0,-54.7024,1.9243,148.052,Q,Q
2023-03-15 21:12:11:783,0,-54.7028,1.92775,148.05,Q,Q
2023-03-15 21:12:11:793,0,-54.7021,1.92738,148.052,Q,Q
2023-03-15 21:12:11:803,0,-54.7049,1.92713,148.051,Q,Q
2023-03-15 21:12:11:813,0,-54.7031,1.9269,148.054,Q,Q
2023-03-15 21:12:11:823,0,-54.7032,1.9272,148.05,Q,Q
2023-03-15 21:12:11:832,0,-54.7044,1.9268,148.052,Q,Q
2023-03-15 21:12:11:843,0,-54.7074,1.92684,148.051,Q,Q
2023-03-15 21:12:11:853,0,-54.7099,1.93033,148.049,Q,Q
2023-03-15 21:12:11:863,0,-54.711,1.93164,148.051,Q,Q
2023-03-15 21:12:11:873,0,-54.7096,1.93263,148.051,Q,Q
2023-03-15 21:12:11:883,0,-54.7103,1.93355,148.051,Q,Q
2023-03-15 21:12:11:893,0,-54.7087,1.93475,148.051,Q,Q
2023-03-15 21:12:11:903,0,-54.7082,1.9325,148.055,Q,Q
2023-03-15 21:12:11:913,0,-54.707,1.93247,148.057,Q,Q
2023-03-15 21:12:11:923,0,-54.7083,1.93224,148.056,Q,Q
2023-03-15 21:12:11:933,0,-54.7105,1.93222,148.055,Q,Q
2023-03-15 21:12:11:943,0,-54.7097,1.93627,148.054,Q,Q
2023-03-15 21:12:11:953,0,-54.7104,1.93567,148.055,Q,Q
2023-03-15 21:12:11:963,0,-54.7092,1.93648,148.053,Q,Q
2023-03-15 21:12:11:973,0,-54.7085,1.93394,148.054,Q,Q
2023-03-15 21:12:11:983,0,-54.7085,1.93549,148.053,Q,Q
2023-03-15 21:12:11:993,0,-54.7082,1.93272,148.051,Q,Q
2023-03-15 21:12:12:3,0,-54.7072,1.93035,148.051,Q,Q
2023-03-15 21:12:12:13,0,-54.7091,1.92709,148.049,Q,Q
2023-03-15 21:12:12:23,0,-54.7062,1.92511,148.049,Q,Q
2023-03-15 21:12:12:33,0,-54.7055,1.92288,148.051,Q,Q
2023-03-15 21:12:12:43,0,-54.7061,1.92522,148.051,Q,Q
2023-03-15 21:12:12:53,0,-54.7055,1.9259,148.054,Q,Q
2023-03-15 21:12:12:63,0,-54.7058,1.92432,148.054,Q,Q
2023-03-15 21:12:12:73,0,-54.7077,1.92325,148.053,Q,Q
2023-03-15 21:12:12:83,0,-54.707,1.92201,148.054,Q,Q
2023-03-15 21:12:12:93,0,-54.7065,1.92269,148.054,Q,Q
2023-03-15 21:12:12:103,0,-54.7042,1.92266,148.056,Q,Q
2023-03-15 21:12:12:113,0,-54.7034,1.9244,148.059,Q,Q
2023-03-15 21:12:12:123,0,-54.7013,1.92537,148.057,Q,Q
2023-03-15 21:12:12:133,0,-54.6962,1.92452,148.056,Q,Q
2023-03-15 21:12:12:143,0,-54.6948,1.92421,148.056,Q,Q
2023-03-15 21:12:12:153,0,-54.6926,1.92379,148.056,Q,Q
2023-03-15 21:12:12:163,0,-54.6925,1.92517,148.055,Q,Q
2023-03-15 21:12:12:173,0,-54.6962,1.92268,148.057,Q,Q
2023-03-15 21:12:12:183,0,-54.6996,1.92347,148.059,Q,Q
2023-03-15 21:12:12:193,0,-54.7006,1.92275,148.059,Q,Q
2023-03-15 21:12:12:203,0,-54.6998,1.91979,148.057,Q,Q
2023-03-15 21:12:12:213,0,-54.7039,1.91763,148.056,Q,Q
2023-03-15 21:12:12:223,0,-54.7017,1.91865,148.056,Q,Q
2023-03-15 21:12:12:233,0,-54.7012,1.92179,148.056,Q,Q
2023-03-15 21:12:12:243,0,-54.6986,1.92087,148.057,Q,Q
2023-03-15 21:12:12:253,0,-54.7019,1.9195,148.059,Q,Q
2023-03-15 21:12:12:263,0,-54.7007,1.92105,148.061,Q,Q
2023-03-15 21:12:12:273,0,-54.7012,1.92384,148.062,Q,Q
2023-03-15 21:12:12:283,0,-54.6998,1.92505,148.061,Q,Q
2023-03-15 21:12:12:293,0,-54.7002,1.92524,148.058,Q,Q
2023-03-15 21:12:12:303,0,-54.7015,1.92559,148.056,Q,Q
2023-03-15 21:12:12:313,0,-54.703,1.92447,148.056,Q,Q
2023-03-15 21:12:12:323,0,-54.7031,1.92688,148.056,Q,Q
2023-03-15 21:12:12:333,0,-54.7043,1.92733,148.058,Q,Q
2023-03-15 21:12:12:343,0,-54.7006,1.92467,148.06,Q,Q
2023-03-15 21:12:12:353,0,-54.6999,1.92436,148.059,Q,Q
2023-03-15 21:12:12:363,0,-54.6995,1.92469,148.056,Q,Q
2023-03-15 21:12:12:373,0,-54.7029,1.92542,148.055,Q,Q
2023-03-15 21:12:12:383,0,-54.7001,1.92499,148.061,Q,Q
2023-03-15 21:12:12:393,0,-54.7005,1.92474,148.063,Q,Q
2023-03-15 21:12:12:403,0,-54.7026,1.9205,148.065,Q,Q
2023-03-15 21:12:12:413,0,-54.7044,1.92036,148.066,Q,Q
2023-03-15 21:12:12:423,0,-54.7066,1.91981,148.066,Q,Q
2023-03-15 21:12:12:433,0,-54.7057,1.91939,148.064,Q,Q
2023-03-15 21:12:12:443,0,-54.7061,1.92017,148.065,Q,Q
2023-03-15 21:12:12:453,0,-54.7065,1.92053,148.061,Q,Q
2023-03-15 21:12:12:463,0,-54.7041,1.92025,148.06,Q,Q
2023-03-15 21:12:12:473,0,-54.7047,1.92464,148.066,Q,Q
2023-03-15 21:12:12:483,0,-54.7033,1.92299,148.062,Q,Q
2023-03-15 21:12:12:493,0,-54.7023,1.92294,148.063,Q,Q
2023-03-15 21:12:12:503,0,-54.701,1.92162,148.063,Q,Q
2023-03-15 21:12:12:513,0,-54.6998,1.92224,148.064,Q,Q
2023-03-15 21:12:12:523,0,-54.7098,1.91603,148.064,Q,Q
2023-03-15 21:12:12:533,0,-54.7062,1.91842,148.063,Q,Q
2023-03-15 21:12:12:543,0,-54.6945,1.9207,148.064,Q,Q
2023-03-15 21:12:12:553,0,-54.7058,1.91726,148.059,Q,Q
2023-03-15 21:12:12:563,0,-54.7035,1.91485,148.057,Q,Q
2023-03-15 21:12:12:573,0,-54.7077,1.9133,148.058,Q,Q
2023-03-15 21:12:12:583,0,-54.7102,1.91255,148.057,Q,Q
2023-03-15 21:12:12:593,0,-54.7073,1.91232,148.057,Q,Q
2023-03-15 21:12:12:603,0,-54.7119,1.90851,148.056,Q,Q
2023-03-15 21:12:12:613,0,-54.7103,1.90703,148.056,Q,Q
2023-03-15 21:12:12:623,0,-54.7084,1.90424,148.057,Q,Q
2023-03-15 21:12:12:633,0,-54.7074,1.9019,148.057,Q,Q
2023-03-15 21:12:12:643,0,-54.7076,1.90234,148.06,Q,Q
2023-03-15 21:12:12:653,0,-54.7084,1.90584,148.059,Q,Q
2023-03-15 21:12:12:663,0,-54.7104,1.90697,148.06,Q,Q
2023-03-15 21:12:12:673,0,-54.7095,1.90619,148.06,Q,Q
2023-03-15 21:12:12:683,0,-54.7104,1.90789,148.062,Q,Q
2023-03-15 21:12:12:693,0,-54.712,1.9101,148.059,Q,Q
2023-03-15 21:12:12:703,0,-54.7117,1.91152,148.06,Q,Q
2023-03-15 21:12:12:713,0,-54.7167,1.91182,148.06,Q,Q
2023-03-15 21:12:12:723,0,-54.7171,1.91473,148.061,Q,Q
2023-03-15 21:12:12:733,0,-54.7211,1.91462,148.062,Q,Q
2023-03-15 21:12:12:743,0,-54.7092,1.91914,148.064,Q,Q
2023-03-15 21:12:12:753,0,-54.7146,1.91704,148.065,Q,Q
2023-03-15 21:12:12:763,0,-54.7148,1.92102,148.065,Q,Q
2023-03-15 21:12:12:773,0,-54.7084,1.92279,148.062,Q,Q
2023-03-15 21:12:12:783,0,-54.7164,1.91765,148.062,Q,Q
2023-03-15 21:12:12:793,0,-54.7066,1.91988,148.061,Q,Q
2023-03-15 21:12:12:803,0,-54.7099,1.91751,148.061,Q,Q
2023-03-15 21:12:12:813,0,-54.7104,1.91664,148.062,Q,Q
2023-03-15 21:12:12:823,0,-54.708,1.91838,148.064,Q,Q
2023-03-15 21:12:12:833,0,-54.7116,1.91646,148.065,Q,Q
2023-03-15 21:12:12:843,0,-54.7071,1.91545,148.062,Q,Q
2023-03-15 21:12:12:853,0,-54.7061,1.917,148.058,Q,Q
2023-03-15 21:12:12:863,0,-54.7053,1.91517,148.058,Q,Q
2023-03-15 21:12:12:873,0,-54.7057,1.91574,148.058,Q,Q
2023-03-15 21:12:12:883,0,-54.7067,1.91741,148.059,Q,Q
2023-03-15 21:12:12:893,0,-54.7079,1.91749,148.056,Q,Q
2023-03-15 21:12:12:903,0,-54.7083,1.92033,148.06,Q,Q
2023-03-15 21:12:12:913,0,-54.7117,1.92083,148.059,Q,Q
2023-03-15 21:12:12:923,0,-54.7099,1.92285,148.059,Q,Q
2023-03-15 21:12:12:933,0,-54.7078,1.92354,148.059,Q,Q
2023-03-15 21:12:12:943,0,-54.7053,1.9219,148.061,Q,Q
2023-03-15 21:12:12:953,0,-54.7024,1.92495,148.065,Q,Q
2023-03-15 21:12:12:963,0,-54.7042,1.92448,148.063,Q,Q
2023-03-15 21:12:12:973,0,-54.6981,1.92531,148.064,Q,Q
2023-03-15 21:12:12:983,0,-54.6975,1.92598,148.064,Q,Q
2023-03-15 21:12:12:993,0,-54.7011,1.92623,148.063,Q,Q
2023-03-15 21:12:13:3,0,-54.6996,1.9259,148.063,Q,Q
2023-03-15 21:12:13:13,0,-54.6999,1.92565,148.064,Q,Q
2023-03-15 21:12:13:23,0,-54.6989,1.92587,148.061,Q,Q
2023-03-15 21:12:13:33,0,-54.6979,1.92569,148.058,Q,Q
2023-03-15 21:12:13:43,0,-54.6973,1.92672,148.058,Q,Q
2023-03-15 21:12:13:53,0,-54.6974,1.92496,148.056,Q,Q
2023-03-15 21:12:13:63,0,-54.6941,1.92379,148.056,Q,Q
2023-03-15 21:12:13:73,0,-54.693,1.92595,148.056,Q,Q
2023-03-15 21:12:13:83,0,-54.6927,1.92509,148.055,Q,Q
2023-03-15 21:12:13:93,0,-54.6907,1.92606,148.06,Q,Q
2023-03-15 21:12:13:103,0,-54.6888,1.92626,148.061,Q,Q
2023-03-15 21:12:13:113,0,-54.6881,1.92728,148.062,Q,Q
2023-03-15 21:12:13:123,0,-54.6898,1.92515,148.063,Q,Q
2023-03-15 21:12:13:133,0,-54.6887,1.92321,148.062,Q,Q
2023-03-15 21:12:13:143,0,-54.6862,1.92641,148.06,Q,Q
2023-03-15 21:12:13:153,0,-54.6848,1.92816,148.06,Q,Q
2023-03-15 21:12:13:163,0,-54.6861,1.92761,148.06,Q,Q
2023-03-15 21:12:13:173,0,-54.6874,1.92629,148.059,Q,Q
2023-03-15 21:12:13:183,0,-54.6894,1.92952,148.06,Q,Q
2023-03-15 21:12:13:193,0,-54.6882,1.93224,148.06,Q,Q
2023-03-15 21:12:13:203,0,-54.6903,1.93343,148.059,Q,Q
2023-03-15 21:12:13:213,0,-54.6923,1.93181,148.058,Q,Q
2023-03-15 21:12:13:223,0,-54.6908,1.92957,148.057,Q,Q
2023-03-15 21:12:13:233,0,-54.6907,1.9293,148.054,Q,Q
2023-03-15 21:12:13:243,0,-54.6894,1.92686,148.054,Q,Q
2023-03-15 21:12:13:253,0,-54.6895,1.92829,148.054,Q,Q
2023-03-15 21:12:13:263,0,-54.6852,1.93077,148.059,Q,Q
2023-03-15 21:12:13:273,0,-54.6861,1.93077,148.06,Q,Q
2023-03-15 21:12:13:283,0,-54.6856,1.93345,148.063,Q,Q
2023-03-15 21:12:13:293,0,-54.683,1.93298,148.064,Q,Q
2023-03-15 21:12:13:303,0,-54.6814,1.93083,148.068,Q,Q
2023-03-15 21:12:13:313,0,-54.6829,1.93039,148.069,Q,Q
2023-03-15 21:12:13:323,0,-54.6811,1.9289,148.068,Q,Q
2023-03-15 21:12:13:333,0,-54.6799,1.92869,148.07,Q,Q
2023-03-15 21:12:13:343,0,-54.6816,1.93102,148.072,Q,Q
2023-03-15 21:12:13:353,0,-54.6854,1.93175,148.074,Q,Q
2023-03-15 21:12:13:363,0,-54.6813,1.93189,148.076,Q,Q
2023-03-15 21:12:13:373,0,-54.6817,1.93222,148.073,Q,Q
2023-03-15 21:12:13:383,0,-54.6824,1.93414,148.074,Q,Q
2023-03-15 21:12:13:393,0,-54.6788,1.93811,148.076,Q,Q
2023-03-15 21:12:13:403,0,-54.6765,1.93496,148.075,Q,Q
2023-03-15 21:12:13:413,0,-54.6746,1.93678,148.075,Q,Q
2023-03-15 21:12:13:423,0,-54.6732,1.93945,148.077,Q,Q
2023-03-15 21:12:13:433,0,-54.6738,1.93895,148.075,Q,Q
2023-03-15 21:12:13:443,0,-54.6722,1.93909,148.075,Q,Q
2023-03-15 21:12:13:453,0,-54.6703,1.94068,148.076,Q,Q
2023-03-15 21:12:13:463,0,-54.6699,1.9423,148.076,Q,Q
2023-03-15 21:12:13:473,0,-54.6662,1.94223,148.077,Q,Q
2023-03-15 21:12:13:483,0,-54.6667,1.94285,148.077,Q,Q
2023-03-15 21:12:13:493,0,-54.6648,1.94331,148.075,Q,Q
2023-03-15 21:12:13:503,0,-54.6655,1.94522,148.078,Q,Q
2023-03-15 21:12:13:513,0,-54.6695,1.94464,148.077,Q,Q
2023-03-15 21:12:13:523,0,-54.6666,1.94727,148.079,Q,Q
2023-03-15 21:12:13:533,0,-54.6695,1.9467,148.08,Q,Q
2023-03-15 21:12:13:543,0,-54.6701,1.95071,148.081,Q,Q
2023-03-15 21:12:13:553,0,-54.6732,1.94938,148.083,Q,Q
2023-03-15 21:12:13:563,0,-54.6742,1.94966,148.082,Q,Q
2023-03-15 21:12:13:573,0,-54.676,1.9525,148.083,Q,Q
2023-03-15 21:12:13:583,0,-54.6766,1.95168,148.083,Q,Q
2023-03-15 21:12:13:593,0,-54.6756,1.95314,148.082,Q,Q
2023-03-15 21:12:13:603,0,-54.6755,1.9549,148.08,Q,Q
2023-03-15 21:12:13:613,0,-54.6754,1.95821,148.081,Q,Q
2023-03-15 21:12:13:623,0,-54.6751,1.95906,148.081,Q,Q
2023-03-15 21:12:13:633,0,-54.6768,1.96172,148.079,Q,Q
2023-03-15 21:12:13:643,0,-54.6772,1.96315,148.079,Q,Q
2023-03-15 21:12:13:653,0,-54.6792,1.96428,148.077,Q,Q
2023-03-15 21:12:13:664,0,-54.681,1.96684,148.072,Q,Q
2023-03-15 21:12:13:673,0,-54.683,1.96658,148.07,Q,Q
2023-03-15 21:12:13:683,0,-54.6801,1.96401,148.07,Q,Q
2023-03-15 21:12:13:693,0,-54.6817,1.96333,148.071,Q,Q
2023-03-15 21:12:13:703,0,-54.6802,1.963,148.071,Q,Q
2023-03-15 21:12:13:714,0,-54.6785,1.96158,148.072,Q,Q
2023-03-15 21:12:13:723,0,-54.6773,1.96093,148.073,Q,Q
2023-03-15 21:12:13:734,0,-54.6725,1.95997,148.075,Q,Q
2023-03-15 21:12:13:743,0,-54.6743,1.96132,148.076,Q,Q
2023-03-15 21:12:13:754,0,-54.6733,1.95994,148.075,Q,Q
2023-03-15 21:12:13:764,0,-54.6763,1.95963,148.073,Q,Q
2023-03-15 21:12:13:774,0,-54.6758,1.95891,148.073,Q,Q
2023-03-15 21:12:13:783,0,-54.6766,1.96036,148.074,Q,Q
2023-03-15 21:12:13:794,0,-54.681,1.96118,148.074,Q,Q
2023-03-15 21:12:13:804,0,-54.6809,1.96419,148.077,Q,Q
2023-03-15 21:12:13:814,0,-54.6803,1.96287,148.078,Q,Q
2023-03-15 21:12:13:824,0,-54.6765,1.96216,148.078,Q,Q
2023-03-15 21:12:13:834,0,-54.6751,1.95966,148.078,Q,Q
2023-03-15 21:12:13:844,0,-54.6774,1.95893,148.081,Q,Q
2023-03-15 21:12:13:854,0,-54.6776,1.95856,148.079,Q,Q
2023-03-15 21:12:13:864,0,-54.6787,1.95696,148.075,Q,Q
2023-03-15 21:12:13:874,0,-54.6772,1.95788,148.074,Q,Q
2023-03-15 21:12:13:883,0,-54.6785,1.95802,148.072,Q,Q
2023-03-15 21:12:13:893,0,-54.6778,1.95909,148.072,Q,Q
2023-03-15 21:12:13:903,0,-54.68,1.95852,148.07,Q,Q
2023-03-15 21:12:13:914,0,-54.6816,1.95757,148.069,Q,Q
2023-03-15 21:12:13:923,0,-54.6794,1.95706,148.069,Q,Q
2023-03-15 21:12:13:933,0,-54.6789,1.95736,148.071,Q,Q
2023-03-15 21:12:13:943,0,-54.6822,1.95717,148.071,Q,Q
2023-03-15 21:12:13:954,0,-54.6847,1.95743,148.07,Q,Q
2023-03-15 21:12:13:963,0,-54.6877,1.95795,148.069,Q,Q
2023-03-15 21:12:13:974,0,-54.6867,1.95839,148.068,Q,Q
2023-03-15 21:12:13:984,0,-54.6862,1.95537,148.067,Q,Q
2023-03-15 21:12:13:994,0,-54.6851,1.95656,148.068,Q,Q
2023-03-15 21:12:14:4,0,-54.687,1.96116,148.066,Q,Q
2023-03-15 21:12:14:14,0,-54.6857,1.96352,148.064,Q,Q
2023-03-15 21:12:14:24,0,-54.686,1.96337,148.067,Q,Q
2023-03-15 21:12:14:34,0,-54.6854,1.96447,148.066,Q,Q
2023-03-15 21:12:14:44,0,-54.688,1.9643,148.068,Q,Q
2023-03-15 21:12:14:54,0,-54.6869,1.96506,148.069,Q,Q
2023-03-15 21:12:14:64,0,-54.6865,1.96298,148.071,Q,Q
2023-03-15 21:12:14:74,0,-54.6874,1.96168,148.072,Q,Q
2023-03-15 21:12:14:84,0,-54.6873,1.96502,148.072,Q,Q
2023-03-15 21:12:14:94,0,-54.6881,1.96549,148.068,Q,Q
2023-03-15 21:12:14:104,0,-54.6871,1.96526,148.07,Q,Q
2023-03-15 21:12:14:114,0,-54.6874,1.96786,148.072,Q,Q
2023-03-15 21:12:14:124,0,-54.6884,1.96894,148.074,Q,Q
2023-03-15 21:12:14:134,0,-54.6886,1.97149,148.074,Q,Q
2023-03-15 21:12:14:144,0,-54.6864,1.97244,148.073,Q,Q
2023-03-15 21:12:14:154,0,-54.6866,1.97351,148.076,Q,Q
2023-03-15 21:12:14:164,0,-54.686,1.97221,148.078,Q,Q
2023-03-15 21:12:14:174,0,-54.6851,1.96797,148.078,Q,Q
2023-03-15 21:12:14:184,0,-54.6869,1.96772,148.077,Q,Q
2023-03-15 21:12:14:194,0,-54.6875,1.96524,148.077,Q,Q
2023-03-15 21:12:14:204,0,-54.6879,1.96668,148.075,Q,Q
2023-03-15 21:12:14:214,0,-54.6847,1.96955,148.076,Q,Q
2023-03-15 21:12:14:224,0,-54.6835,1.97327,148.073,Q,Q
2023-03-15 21:12:14:234,0,-54.6837,1.97349,148.071,Q,Q
2023-03-15 21:12:14:244,0,-54.6832,1.97323,148.073,Q,Q
2023-03-15 21:12:14:254,0,-54.6849,1.97472,148.075,Q,Q
2023-03-15 21:12:14:264,0,-54.6856,1.97315,148.076,Q,Q
2023-03-15 21:12:14:274,0,-54.6868,1.97313,148.075,Q,Q
2023-03-15 21:12:14:284,0,-54.6892,1.97095,148.078,Q,Q
2023-03-15 21:12:14:294,0,-54.6899,1.97084,148.081,Q,Q
2023-03-15 21:12:14:304,0,-54.6892,1.9731,148.082,Q,Q
2023-03-15 21:12:14:314,0,-54.6896,1.97324,148.08,Q,Q
2023-03-15 21:12:14:324,0,-54.6886,1.97358,148.08,Q,Q
2023-03-15 21:12:14:334,0,-54.6922,1.97053,148.079,Q,Q
2023-03-15 21:12:14:344,0,-54.6937,1.969,148.08,Q,Q
2023-03-15 21:12:14:354,0,-54.6953,1.96979,148.079,Q,Q
2023-03-15 21:12:14:364,0,-54.6962,1.96929,148.08,Q,Q
2023-03-15 21:12:14:374,0,-54.6965,1.96955,148.08,Q,Q
2023-03-15 21:12:14:384,0,-54.6958,1.97085,148.079,Q,Q
2023-03-15 21:12:14:394,0,-54.694,1.97338,148.079,Q,Q
2023-03-15 21:12:14:404,0,-54.6966,1.97605,148.079,Q,Q
2023-03-15 21:12:14:414,0,-54.6999,1.97551,148.075,Q,Q
2023-03-15 21:12:14:424,0,-54.7,1.97628,148.077,Q,Q
2023-03-15 21:12:14:434,0,-54.6986,1.97482,148.076,Q,Q
2023-03-15 21:12:14:444,0,-54.7005,1.97355,148.076,Q,Q
2023-03-15 21:12:14:454,0,-54.7003,1.9733,148.077,Q,Q
2023-03-15 21:12:14:464,0,-54.6989,1.97204,148.079,Q,Q
2023-03-15 21:12:14:474,0,-54.7011,1.97241,148.075,Q,Q
2023-03-15 21:12:14:484,0,-54.7028,1.97347,148.074,Q,Q
2023-03-15 21:12:14:494,0,-54.7025,1.97319,148.075,Q,Q
2023-03-15 21:12:14:504,0,-54.7023,1.97282,148.075,Q,Q
2023-03-15 21:12:14:514,0,-54.699,1.97444,148.074,Q,Q
2023-03-15 21:12:14:524,0,-54.6972,1.97462,148.075,Q,Q
2023-03-15 21:12:14:534,0,-54.6949,1.9787,148.072,Q,Q
2023-03-15 21:12:14:544,0,-54.6944,1.97596,148.074,Q,Q
2023-03-15 21:12:14:554,0,-54.6935,1.9754,148.072,Q,Q
2023-03-15 21:12:14:564,0,-54.6946,1.97471,148.074,Q,Q
2023-03-15 21:12:14:574,0,-54.6942,1.976,148.077,Q,Q
2023-03-15 21:12:14:584,0,-54.6936,1.97834,148.077,Q,Q
2023-03-15 21:12:14:594,0,-54.6934,1.98005,148.077,Q,Q
2023-03-15 21:12:14:604,0,-54.6918,1.98076,148.076,Q,Q
2023-03-15 21:12:14:614,0,-54.6899,1.9813,148.074,Q,Q
2023-03-15 21:12:14:624,0,-54.6905,1.97675,148.075,Q,Q
2023-03-15 21:12:14:634,0,-54.6894,1.97703,148.076,Q,Q
2023-03-15 21:12:14:644,0,-54.6876,1.97575,148.076,Q,Q
2023-03-15 21:12:14:654,0,-54.6873,1.97349,148.078,Q,Q
2023-03-15 21:12:14:664,0,-54.6859,1.97278,148.077,Q,Q
2023-03-15 21:12:14:674,0,-54.6902,1.97358,148.078,Q,Q
2023-03-15 21:12:14:684,0,-54.6886,1.9775,148.074,Q,Q
2023-03-15 21:12:14:694,0,-54.69,1.97689,148.073,Q,Q
2023-03-15 21:12:14:704,0,-54.6897,1.9739,148.073,Q,Q
2023-03-15 21:12:14:714,0,-54.6871,1.97404,148.074,Q,Q
2023-03-15 21:12:14:724,0,-54.6875,1.97297,148.07,Q,Q
2023-03-15 21:12:14:734,0,-54.6889,1.96891,148.07,Q,Q
2023-03-15 21:12:14:744,0,-54.6931,1.96718,148.072,Q,Q
2023-03-15 21:12:14:754,0,-54.6941,1.96611,148.07,Q,Q
2023-03-15 21:12:14:764,0,-54.6962,1.96513,148.071,Q,Q
2023-03-15 21:12:14:774,0,-54.6969,1.96485,148.069,Q,Q
2023-03-15 21:12:14:784,0,-54.6983,1.96264,148.069,Q,Q
2023-03-15 21:12:14:794,0,-54.6974,1.96252,148.067,Q,Q
2023-03-15 21:12:14:804,0,-54.6947,1.95968,148.068,Q,Q
2023-03-15 21:12:14:814,0,-54.6924,1.96002,148.066,Q,Q
2023-03-15 21:12:14:824,0,-54.695,1.95917,148.067,Q,Q
2023-03-15 21:12:14:834,0,-54.6953,1.96001,148.066,Q,Q
2023-03-15 21:12:14:844,0,-54.6921,1.96189,148.066,Q,Q
2023-03-15 21:12:14:854,0,-54.6916,1.96024,148.069,Q,Q
2023-03-15 21:12:14:864,0,-54.6914,1.96084,148.068,Q,Q
2023-03-15 21:12:14:874,0,-54.6936,1.96127,148.07,Q,Q
2023-03-15 21:12:14:884,0,-54.6952,1.96158,148.073,Q,Q
2023-03-15 21:12:14:894,0,-54.696,1.96191,148.076,Q,Q
2023-03-15 21:12:14:904,0,-54.6942,1.96053,148.076,Q,Q
2023-03-15 21:12:14:914,0,-54.6937,1.96017,148.076,Q,Q
2023-03-15 21:12:14:924,0,-54.6975,1.95803,148.077,Q,Q
2023-03-15 21:12:14:934,0,-54.699,1.95675,148.074,Q,Q
2023-03-15 21:12:14:944,0,-54.7036,1.95793,148.075,Q,Q
2023-03-15 21:12:14:954,0,-54.7045,1.95788,148.075,Q,Q
2023-03-15 21:12:14:964,0,-54.7044,1.95811,148.072,Q,Q
2023-03-15 21:12:14:974,0,-54.7058,1.95868,148.071,Q,Q
2023-03-15 21:12:14:984,0,-54.7062,1.957,148.07,Q,Q
2023-03-15 21:12:14:994,0,-54.7055,1.95721,148.072,Q,Q
2023-03-15 21:12:15:4,0,-54.7078,1.95592,148.068,Q,Q
2023-03-15 21:12:15:14,0,-54.7052,1.958,148.068,Q,Q
2023-03-15 21:12:15:24,0,-54.7054,1.95686,148.066,Q,Q
2023-03-15 21:12:15:34,0,-54.7018,1.95667,148.066,Q,Q
2023-03-15 21:12:15:44,0,-54.6996,1.95766,148.065,Q,Q
2023-03-15 21:12:15:54,0,-54.6978,1.95744,148.069,Q,Q
2023-03-15 21:12:15:64,0,-54.6966,1.95661,148.07,Q,Q
2023-03-15 21:12:15:74,0,-54.6966,1.95841,148.071,Q,Q
2023-03-15 21:12:15:84,0,-54.6986,1.96032,148.072,Q,Q
2023-03-15 21:12:15:94,0,-54.6977,1.96185,148.074,Q,Q
2023-03-15 21:12:15:104,0,-54.6963,1.96227,148.075,Q,Q
2023-03-15 21:12:15:114,0,-54.6949,1.96202,148.077,Q,Q
2023-03-15 21:12:15:124,0,-54.696,1.96238,148.076,Q,Q
2023-03-15 21:12:15:134,0,-54.6961,1.9619,148.077,Q,Q
2023-03-15 21:12:15:144,0,-54.6964,1.96166,148.075,Q,Q
2023-03-15 21:12:15:154,0,-54.6961,1.96349,148.075,Q,Q
2023-03-15 21:12:15:164,0,-54.6951,1.96323,148.075,Q,Q
2023-03-15 21:12:15:174,0,-54.6966,1.96218,148.074,Q,Q
2023-03-15 21:12:15:184,0,-54.6946,1.96062,148.076,Q,Q
2023-03-15 21:12:15:194,0,-54.6946,1.96145,148.076,Q,Q
2023-03-15 21:12:15:204,0,-54.6942,1.9619,148.075,Q,Q
2023-03-15 21:12:15:214,0,-54.6967,1.95787,148.075,Q,Q
2023-03-15 21:12:15:224,0,-54.694,1.95644,148.075,Q,Q
2023-03-15 21:12:15:234,0,-54.6964,1.95837,148.073,Q,Q
2023-03-15 21:12:15:244,0,-54.6948,1.96145,148.073,Q,Q
2023-03-15 21:12:15:254,0,-54.6967,1.96085,148.073,Q,Q
2023-03-15 21:12:15:264,0,-54.6963,1.96144,148.071,Q,Q
2023-03-15 21:12:15:274,0,-54.6989,1.95887,148.072,Q,Q
2023-03-15 21:12:15:284,0,-54.6969,1.95876,148.073,Q,Q
2023-03-15 21:12:15:294,0,-54.6937,1.95653,148.075,Q,Q
2023-03-15 21:12:15:304,0,-54.6919,1.95472,148.077,Q,Q
2023-03-15 21:12:15:314,0,-54.6912,1.95339,148.078,Q,Q
2023-03-15 21:12:15:324,0,-54.6901,1.95365,148.081,Q,Q
2023-03-15 21:12:15:334,0,-54.6916,1.95296,148.083,Q,Q
2023-03-15 21:12:15:344,0,-54.6933,1.95122,148.081,Q,Q
2023-03-15 21:12:15:354,0,-54.6948,1.94646,148.079,Q,Q
2023-03-15 21:12:15:364,0,-54.6953,1.94511,148.077,Q,Q
2023-03-15 21:12:15:374,0,-54.6942,1.94627,148.081,Q,Q
2023-03-15 21:12:15:384,0,-54.6961,1.94562,148.082,Q,Q
2023-03-15 21:12:15:394,0,-54.6959,1.94658,148.08,Q,Q
2023-03-15 21:12:15:404,0,-54.6976,1.94774,148.078,Q,Q
2023-03-15 21:12:15:414,0,-54.6993,1.94792,148.08,Q,Q
2023-03-15 21:12:15:424,0,-54.7026,1.94555,148.078,Q,Q
2023-03-15 21:12:15:434,0,-54.7045,1.94478,148.078,Q,Q
2023-03-15 21:12:15:444,0,-54.7027,1.94909,148.075,Q,Q
2023-03-15 21:12:15:454,0,-54.7012,1.95027,148.073,Q,Q
2023-03-15 21:12:15:464,0,-54.6999,1.95156,148.072,Q,Q
2023-03-15 21:12:15:474,0,-54.6963,1.94876,148.074,Q,Q
2023-03-15 21:12:15:484,0,-54.695,1.94855,148.074,Q,Q
2023-03-15 21:12:15:494,0,-54.6987,1.94928,148.074,Q,Q
2023-03-15 21:12:15:504,0,-54.7004,1.95023,148.075,Q,Q
2023-03-15 21:12:15:514,0,-54.7004,1.95032,148.074,Q,Q
2023-03-15 21:12:15:524,0,-54.6997,1.94836,148.075,Q,Q
2023-03-15 21:12:15:534,0,-54.7009,1.94967,148.074,Q,Q
2023-03-15 21:12:15:544,0,-54.6984,1.95256,148.074,Q,Q
2023-03-15 21:12:15:554,0,-54.6934,1.95328,148.073,Q,Q
2023-03-15 21:12:15:564,0,-54.6924,1.95321,148.073,Q,Q
2023-03-15 21:12:15:574,0,-54.6902,1.95018,148.07,Q,Q
2023-03-15 21:12:15:584,0,-54.6902,1.94705,148.069,Q,Q
2023-03-15 21:12:15:594,0,-54.6895,1.94628,148.068,Q,Q
2023-03-15 21:12:15:604,0,-54.6894,1.94611,148.07,Q,Q
2023-03-15 21:12:15:614,0,-54.689,1.94345,148.069,Q,Q
2023-03-15 21:12:15:624,0,-54.687,1.94529,148.072,Q,Q
2023-03-15 21:12:15:634,0,-54.686,1.94346,148.069,Q,Q
2023-03-15 21:12:15:644,0,-54.6852,1.94494,148.069,Q,Q
2023-03-15 21:12:15:654,0,-54.6878,1.94612,148.068,Q,Q
2023-03-15 21:12:15:664,0,-54.6875,1.94736,148.064,Q,Q
2023-03-15 21:12:15:674,0,-54.6854,1.94617,148.064,Q,Q
2023-03-15 21:12:15:684,0,-54.6888,1.945,148.063,Q,Q
2023-03-15 21:12:15:694,0,-54.6883,1.94262,148.067,Q,Q
2023-03-15 21:12:15:704,0,-54.6899,1.94079,148.065,Q,Q
2023-03-15 21:12:15:714,0,-54.6891,1.94107,148.065,Q,Q
2023-03-15 21:12:15:724,0,-54.6888,1.94479,148.066,Q,Q
2023-03-15 21:12:15:734,0,-54.6882,1.94859,148.063,Q,Q
2023-03-15 21:12:15:744,0,-54.6891,1.94789,148.063,Q,Q
2023-03-15 21:12:15:754,0,-54.6864,1.94895,148.065,Q,Q
2023-03-15 21:12:15:764,0,-54.6858,1.95089,148.064,Q,Q
2023-03-15 21:12:15:774,0,-54.6832,1.94806,148.063,Q,Q
2023-03-15 21:12:15:784,0,-54.6838,1.94524,148.061,Q,Q
2023-03-15 21:12:15:794,0,-54.6854,1.94697,148.061,Q,Q
2023-03-15 21:12:15:804,0,-54.6872,1.94631,148.064,Q,Q
2023-03-15 21:12:15:815,0,-54.6857,1.94526,148.065,Q,Q
2023-03-15 21:12:15:824,0,-54.685,1.94378,148.064,Q,Q
2023-03-15 21:12:15:835,0,-54.6855,1.945,148.064,Q,Q
2023-03-15 21:12:15:845,0,-54.6847,1.94426,148.064,Q,Q
2023-03-15 21:12:15:855,0,-54.6847,1.9447,148.066,Q,Q
2023-03-15 21:12:15:865,0,-54.6845,1.94496,148.068,Q,Q
2023-03-15 21:12:15:875,0,-54.6865,1.94324,148.07,Q,Q
2023-03-15 21:12:15:885,0,-54.6876,1.94138,148.07,Q,Q
2023-03-15 21:12:15:895,0,-54.6871,1.94213,148.072,Q,Q
2023-03-15 21:12:15:904,0,-54.6876,1.94528,148.07,Q,Q
2023-03-15 21:12:15:915,0,-54.6879,1.94617,148.072,Q,Q
2023-03-15 21:12:15:925,0,-54.6846,1.94484,148.071,Q,Q
2023-03-15 21:12:15:934,0,-54.6831,1.94625,148.069,Q,Q
2023-03-15 21:12:15:944,0,-54.6827,1.94663,148.069,Q,Q
2023-03-15 21:12:15:954,0,-54.6807,1.94867,148.072,Q,Q
2023-03-15 21:12:15:964,0,-54.6825,1.94932,148.069,Q,Q
2023-03-15 21:12:15:974,0,-54.6839,1.94988,148.07,Q,Q
2023-03-15 21:12:15:984,0,-54.6834,1.94929,148.073,Q,Q
2023-03-15 21:12:15:994,0,-54.6836,1.95093,148.073,Q,Q
2023-03-15 21:12:16:4,0,-54.6867,1.9498,148.074,Q,Q
2023-03-15 21:12:16:14,0,-54.6856,1.94606,148.075,Q,Q
2023-03-15 21:12:16:25,0,-54.6871,1.94854,148.076,Q,Q
2023-03-15 21:12:16:35,0,-54.6858,1.94701,148.075,Q,Q
2023-03-15 21:12:16:45,0,-54.6875,1.9484,148.074,Q,Q
2023-03-15 21:12:16:55,0,-54.6887,1.94967,148.074,Q,Q
2023-03-15 21:12:16:65,0,-54.688,1.94992,148.073,Q,Q
2023-03-15 21:12:16:75,0,-54.6881,1.94895,148.072,Q,Q
2023-03-15 21:12:16:85,0,-54.6879,1.95118,148.073,Q,Q
2023-03-15 21:12:16:95,0,-54.6886,1.95517,148.072,Q,Q
2023-03-15 21:12:16:105,0,-54.6907,1.95522,148.074,Q,Q
2023-03-15 21:12:16:115,0,-54.6891,1.95712,148.075,Q,Q
2023-03-15 21:12:16:125,0,-54.6906,1.95592,148.074,Q,Q
2023-03-15 21:12:16:135,0,-54.6904,1.95785,148.074,Q,Q
2023-03-15 21:12:16:144,0,-54.6934,1.96047,148.072,Q,Q
2023-03-15 21:12:16:154,0,-54.6909,1.95976,148.074,Q,Q
2023-03-15 21:12:16:165,0,-54.6901,1.96044,148.077,Q,Q
2023-03-15 21:12:16:175,0,-54.6884,1.95972,148.077,Q,Q
2023-03-15 21:12:16:185,0,-54.6897,1.95859,148.079,Q,Q
2023-03-15 21:12:16:194,0,-54.6865,1.95782,148.079,Q,Q
2023-03-15 21:12:16:205,0,-54.6833,1.95511,148.079,Q,Q
2023-03-15 21:12:16:215,0,-54.6852,1.95223,148.079,Q,Q
2023-03-15 21:12:16:225,0,-54.6853,1.95177,148.077,Q,Q
2023-03-15 21:12:16:235,0,-54.6823,1.95127,148.079,Q,Q
2023-03-15 21:12:16:245,0,-54.6847,1.95431,148.079,Q,Q
2023-03-15 21:12:16:255,0,-54.6831,1.951,148.083,Q,Q
2023-03-15 21:12:16:265,0,-54.6864,1.94907,148.083,Q,Q
2023-03-15 21:12:16:275,0,-54.6901,1.94971,148.081,Q,Q
2023-03-15 21:12:16:285,0,-54.6914,1.95423,148.081,Q,Q
2023-03-15 21:12:16:295,0,-54.6915,1.95596,148.084,Q,Q
2023-03-15 21:12:16:305,0,-54.6904,1.95477,148.086,Q,Q
2023-03-15 21:12:16:315,0,-54.6911,1.95811,148.086,Q,Q
2023-03-15 21:12:16:325,0,-54.6892,1.96087,148.086,Q,Q
2023-03-15 21:12:16:335,0,-54.687,1.96395,148.082,Q,Q
2023-03-15 21:12:16:345,0,-54.6873,1.96323,148.083,Q,Q
2023-03-15 21:12:16:355,0,-54.69,1.96376,148.081,Q,Q
2023-03-15 21:12:16:365,0,-54.691,1.96088,148.08,Q,Q
2023-03-15 21:12:16:375,0,-54.6941,1.9591,148.082,Q,Q
2023-03-15 21:12:16:385,0,-54.6957,1.95867,148.081,Q,Q
2023-03-15 21:12:16:395,0,-54.6943,1.96157,148.08,Q,Q
2023-03-15 21:12:16:405,0,-54.6915,1.96075,148.078,Q,Q
2023-03-15 21:12:16:415,0,-54.6908,1.96157,148.077,Q,Q
2023-03-15 21:12:16:425,0,-54.6906,1.96263,148.076,Q,Q
2023-03-15 21:12:16:435,0,-54.6899,1.96411,148.074,Q,Q
2023-03-15 21:12:16:445,0,-54.6884,1.96226,148.076,Q,Q
2023-03-15 21:12:16:455,0,-54.6878,1.96085,148.075,Q,Q
2023-03-15 21:12:16:465,0,-54.6883,1.96152,148.077,Q,Q
2023-03-15 21:12:16:475,0,-54.6897,1.9624,148.077,Q,Q
2023-03-15 21:12:16:485,0,-54.6894,1.96377,148.076,Q,Q
2023-03-15 21:12:16:495,0,-54.6919,1.96691,148.075,Q,Q
2023-03-15 21:12:16:505,0,-54.6925,1.9678,148.076,Q,Q
2023-03-15 21:12:16:515,0,-54.6919,1.96633,148.075,Q,Q
2023-03-15 21:12:16:525,0,-54.6916,1.96531,148.075,Q,Q
2023-03-15 21:12:16:535,0,-54.6932,1.96543,148.075,Q,Q
2023-03-15 21:12:16:545,0,-54.6938,1.96821,148.077,Q,Q
2023-03-15 21:12:16:555,0,-54.6926,1.97028,148.075,Q,Q
2023-03-15 21:12:16:565,0,-54.6928,1.9701,148.075,Q,Q
2023-03-15 21:12:16:575,0,-54.6937,1.97266,148.072,Q,Q
2023-03-15 21:12:16:585,0,-54.6934,1.97237,148.071,Q,Q
2023-03-15 21:12:16:595,0,-54.6919,1.97094,148.074,Q,Q
2023-03-15 21:12:16:605,0,-54.6904,1.97152,148.076,Q,Q
2023-03-15 21:12:16:615,0,-54.6894,1.97074,148.076,Q,Q
2023-03-15 21:12:16:625,0,-54.6893,1.96833,148.078,Q,Q
2023-03-15 21:12:16:635,0,-54.6903,1.971,148.078,Q,Q
2023-03-15 21:12:16:645,0,-54.6891,1.969,148.083,Q,Q
2023-03-15 21:12:16:655,0,-54.6906,1.96895,148.085,Q,Q
2023-03-15 21:12:16:665,0,-54.6904,1.96705,148.081,Q,Q
2023-03-15 21:12:16:675,0,-54.6909,1.9654,148.082,Q,Q
2023-03-15 21:12:16:685,0,-54.6902,1.96494,148.081,Q,Q
2023-03-15 21:12:16:695,0,-54.691,1.96648,148.082,Q,Q
2023-03-15 21:12:16:705,0,-54.6906,1.96839,148.082,Q,Q
2023-03-15 21:12:16:715,0,-54.6929,1.96919,148.084,Q,Q
2023-03-15 21:12:16:725,0,-54.6954,1.96972,148.081,Q,Q
2023-03-15 21:12:16:735,0,-54.6929,1.96822,148.083,Q,Q
2023-03-15 21:12:16:745,0,-54.6912,1.96814,148.083,Q,Q
2023-03-15 21:12:16:755,0,-54.6893,1.96889,148.08,Q,Q
2023-03-15 21:12:16:765,0,-54.6858,1.97264,148.082,Q,Q
2023-03-15 21:12:16:775,0,-54.6844,1.97675,148.082,Q,Q
2023-03-15 21:12:16:785,0,-54.6861,1.97477,148.082,Q,Q
2023-03-15 21:12:16:795,0,-54.6871,1.97788,148.081,Q,Q
2023-03-15 21:12:16:805,0,-54.6861,1.97839,148.08,Q,Q
2023-03-15 21:12:16:815,0,-54.6869,1.97979,148.083,Q,Q
2023-03-15 21:12:16:825,0,-54.6871,1.98287,148.086,Q,Q
2023-03-15 21:12:16:835,0,-54.6871,1.98182,148.085,Q,Q
2023-03-15 21:12:16:845,0,-54.6853,1.98131,148.086,Q,Q
2023-03-15 21:12:16:855,0,-54.684,1.98071,148.088,Q,Q
2023-03-15 21:12:16:865,0,-54.6837,1.97962,148.09,Q,Q
2023-03-15 21:12:16:875,0,-54.6822,1.98055,148.091,Q,Q
2023-03-15 21:12:16:885,0,-54.6793,1.97875,148.09,Q,Q
2023-03-15 21:12:16:895,0,-54.6808,1.98075,148.091,Q,Q
2023-03-15 21:12:16:905,0,-54.6817,1.98278,148.091,Q,Q
2023-03-15 21:12:16:915,0,-54.6834,1.98067,148.093,Q,Q
2023-03-15 21:12:16:925,0,-54.687,1.98066,148.092,Q,Q
2023-03-15 21:12:16:935,0,-54.686,1.97737,148.091,Q,Q
2023-03-15 21:12:16:945,0,-54.6879,1.97565,148.089,Q,Q
2023-03-15 21:12:16:955,0,-54.6871,1.97535,148.091,Q,Q
2023-03-15 21:12:16:964,0,-54.6855,1.9737,148.093,Q,Q
2023-03-15 21:12:16:975,0,-54.6814,1.97686,148.096,Q,Q
2023-03-15 21:12:16:985,0,-54.6816,1.97748,148.096,Q,Q
2023-03-15 21:12:16:995,0,-54.6804,1.97887,148.095,Q,Q
2023-03-15 21:12:17:5,0,-54.68,1.97866,148.094,Q,Q
2023-03-15 21:12:17:15,0,-54.6794,1.98125,148.093,Q,Q
2023-03-15 21:12:17:25,0,-54.6803,1.98263,148.089,Q,Q
2023-03-15 21:12:17:35,0,-54.679,1.98328,148.087,Q,Q
2023-03-15 21:12:17:45,0,-54.6786,1.98329,148.089,Q,Q
2023-03-15 21:12:17:55,0,-54.6773,1.98559,148.09,Q,Q
2023-03-15 21:12:17:65,0,-54.6795,1.98604,148.093,Q,Q
2023-03-15 21:12:17:75,0,-54.6804,1.98068,148.093,Q,Q
2023-03-15 21:12:17:85,0,-54.6789,1.97837,148.093,Q,Q
2023-03-15 21:12:17:95,0,-54.6808,1.97391,148.091,Q,Q
2023-03-15 21:12:17:105,0,-54.6822,1.97249,148.09,Q,Q
2023-03-15 21:12:17:115,0,-54.6815,1.97527,148.092,Q,Q
2023-03-15 21:12:17:125,0,-54.6838,1.97784,148.089,Q,Q
2023-03-15 21:12:17:135,0,-54.6855,1.97631,148.092,Q,Q
2023-03-15 21:12:17:145,0,-54.6843,1.97721,148.088,Q,Q
2023-03-15 21:12:17:155,0,-54.684,1.97138,148.091,Q,Q
2023-03-15 21:12:17:165,0,-54.6813,1.97307,148.094,Q,Q
2023-03-15 21:12:17:175,0,-54.6834,1.97646,148.094,Q,Q
2023-03-15 21:12:17:185,0,-54.6856,1.97961,148.095,Q,Q
2023-03-15 21:12:17:195,0,-54.686,1.97731,148.094,Q,Q
2023-03-15 21:12:17:205,0,-54.6851,1.97867,148.092,Q,Q
2023-03-15 21:12:17:215,0,-54.6877,1.98028,148.094,Q,Q
2023-03-15 21:12:17:225,0,-54.6864,1.98079,148.093,Q,Q
2023-03-15 21:12:17:235,0,-54.6875,1.97855,148.093,Q,Q
2023-03-15 21:12:17:245,0,-54.6883,1.98061,148.092,Q,Q
2023-03-15 21:12:17:255,0,-54.687,1.97518,148.094,Q,Q
2023-03-15 21:12:17:265,0,-54.6897,1.9781,148.09,Q,Q
2023-03-15 21:12:17:275,0,-54.6879,1.97969,148.09,Q,Q
2023-03-15 21:12:17:285,0,-54.6874,1.98035,148.09,Q,Q
2023-03-15 21:12:17:295,0,-54.6892,1.97979,148.092,Q,Q
2023-03-15 21:12:17:305,0,-54.6908,1.97719,148.093,Q,Q
2023-03-15 21:12:17:315,0,-54.6878,1.97675,148.091,Q,Q
2023-03-15 21:12:17:325,0,-54.69,1.97566,148.091,Q,Q
2023-03-15 21:12:17:335,0,-54.6908,1.97441,148.09,Q,Q
2023-03-15 21:12:17:345,0,-54.6894,1.97492,148.091,Q,Q
2023-03-15 21:12:17:355,0,-54.6926,1.97423,148.089,Q,Q
2023-03-15 21:12:17:365,0,-54.6933,1.9742,148.09,Q,Q
2023-03-15 21:12:17:375,0,-54.6908,1.97239,148.093,Q,Q
2023-03-15 21:12:17:385,0,-54.6871,1.97131,148.094,Q,Q
2023-03-15 21:12:17:395,0,-54.6896,1.96978,148.094,Q,Q
2023-03-15 21:12:17:405,0,-54.6914,1.96988,148.093,Q,Q
2023-03-15 21:12:17:415,0,-54.6903,1.96911,148.092,Q,Q
2023-03-15 21:12:17:425,0,-54.6891,1.96775,148.09,Q,Q
2023-03-15 21:12:17:435,0,-54.6922,1.97163,148.09,Q,Q
2023-03-15 21:12:17:445,0,-54.6921,1.97046,148.088,Q,Q
2023-03-15 21:12:17:455,0,-54.6926,1.96849,148.091,Q,Q
2023-03-15 21:12:17:465,0,-54.6924,1.96792,148.088,Q,Q
2023-03-15 21:12:17:475,0,-54.6928,1.96384,148.089,Q,Q
2023-03-15 21:12:17:485,0,-54.692,1.96163,148.088,Q,Q
2023-03-15 21:12:17:495,0,-54.6893,1.95927,148.088,Q,Q
2023-03-15 21:12:17:505,0,-54.6888,1.95766,148.087,Q,Q
2023-03-15 21:12:17:515,0,-54.6886,1.95657,148.086,Q,Q
2023-03-15 21:12:17:525,0,-54.6872,1.95502,148.084,Q,Q
2023-03-15 21:12:17:535,0,-54.6871,1.95673,148.085,Q,Q
2023-03-15 21:12:17:545,0,-54.6878,1.95652,148.085,Q,Q
2023-03-15 21:12:17:555,0,-54.6872,1.96125,148.084,Q,Q
2023-03-15 21:12:17:565,0,-54.6861,1.96155,148.086,Q,Q
2023-03-15 21:12:17:575,0,-54.6881,1.96205,148.09,Q,Q
2023-03-15 21:12:17:585,0,-54.6911,1.9623,148.088,Q,Q
2023-03-15 21:12:17:595,0,-54.6937,1.96192,148.089,Q,Q
2023-03-15 21:12:17:605,0,-54.6957,1.96288,148.091,Q,Q
2023-03-15 21:12:17:615,0,-54.6942,1.96312,148.088,Q,Q
2023-03-15 21:12:17:625,0,-54.6945,1.96411,148.087,Q,Q
2023-03-15 21:12:17:635,0,-54.6946,1.9623,148.086,Q,Q
2023-03-15 21:12:17:645,0,-54.6945,1.96581,148.088,Q,Q
2023-03-15 21:12:17:655,0,-54.6927,1.96868,148.089,Q,Q
2023-03-15 21:12:17:665,0,-54.6895,1.96912,148.089,Q,Q
2023-03-15 21:12:17:675,0,-54.6903,1.96834,148.091,Q,Q
2023-03-15 21:12:17:685,0,-54.6912,1.96683,148.089,Q,Q
2023-03-15 21:12:17:695,0,-54.6931,1.96691,148.088,Q,Q
2023-03-15 21:12:17:705,0,-54.6932,1.96463,148.087,Q,Q
2023-03-15 21:12:17:715,0,-54.6946,1.96335,148.09,Q,Q
2023-03-15 21:12:17:725,0,-54.6953,1.96187,148.09,Q,Q
2023-03-15 21:12:17:735,0,-54.6951,1.96077,148.091,Q,Q
2023-03-15 21:12:17:745,0,-54.6948,1.96114,148.093,Q,Q
2023-03-15 21:12:17:755,0,-54.6964,1.95976,148.096,Q,Q
2023-03-15 21:12:17:765,0,-54.6949,1.96319,148.095,Q,Q
2023-03-15 21:12:17:775,0,-54.6955,1.96545,148.093,Q,Q
2023-03-15 21:12:17:785,0,-54.693,1.96706,148.093,Q,Q
2023-03-15 21:12:17:795,0,-54.6956,1.96537,148.093,Q,Q
2023-03-15 21:12:17:805,0,-54.695,1.9636,148.092,Q,Q
2023-03-15 21:12:17:815,0,-54.6942,1.96232,148.094,Q,Q
2023-03-15 21:12:17:825,0,-54.6975,1.96317,148.098,Q,Q
2023-03-15 21:12:17:835,0,-54.7008,1.96194,148.095,Q,Q
2023-03-15 21:12:17:845,0,-54.7018,1.96318,148.093,Q,Q
2023-03-15 21:12:17:855,0,-54.7023,1.96189,148.091,Q,Q
2023-03-15 21:12:17:865,0,-54.7046,1.96279,148.092,Q,Q
2023-03-15 21:12:17:875,0,-54.7017,1.96342,148.092,Q,Q
2023-03-15 21:12:17:885,0,-54.702,1.96148,148.091,Q,Q
2023-03-15 21:12:17:895,0,-54.7014,1.9621,148.091,Q,Q
2023-03-15 21:12:17:905,0,-54.6999,1.96389,148.094,Q,Q
2023-03-15 21:12:17:915,0,-54.697,1.96148,148.094,Q,Q
2023-03-15 21:12:17:925,0,-54.6997,1.96154,148.092,Q,Q
2023-03-15 21:12:17:935,0,-54.6975,1.96072,148.093,Q,Q
2023-03-15 21:12:17:945,0,-54.7005,1.95945,148.092,Q,Q
2023-03-15 21:12:17:955,0,-54.7016,1.95861,148.091,Q,Q
2023-03-15 21:12:17:965,0,-54.7009,1.95727,148.093,Q,Q
2023-03-15 21:12:17:975,0,-54.7017,1.95301,148.096,Q,Q
2023-03-15 21:12:17:985,0,-54.7016,1.95287,148.098,Q,Q
2023-03-15 21:12:17:995,0,-54.7044,1.95474,148.101,Q,Q
2023-03-15 21:12:18:5,0,-54.7022,1.95478,148.099,Q,Q
2023-03-15 21:12:18:15,0,-54.7018,1.95254,148.098,Q,Q
2023-03-15 21:12:18:25,0,-54.7049,1.95222,148.099,Q,Q
2023-03-15 21:12:18:35,0,-54.7039,1.95513,148.097,Q,Q
2023-03-15 21:12:18:45,0,-54.7037,1.95334,148.097,Q,Q
2023-03-15 21:12:18:55,0,-54.7016,1.95472,148.1,Q,Q
2023-03-15 21:12:18:65,0,-54.7029,1.95466,148.099,Q,Q
2023-03-15 21:12:18:75,0,-54.7006,1.95494,148.101,Q,Q
2023-03-15 21:12:18:85,0,-54.7019,1.9552,148.103,Q,Q
2023-03-15 21:12:18:95,0,-54.702,1.95656,148.103,Q,Q
2023-03-15 21:12:18:106,0,-54.7009,1.95805,148.101,Q,Q
2023-03-15 21:12:18:115,0,-54.6979,1.95789,148.104,Q,Q
2023-03-15 21:12:18:125,0,-54.696,1.9614,148.103,Q,Q
2023-03-15 21:12:18:135,0,-54.6947,1.96047,148.108,Q,Q
2023-03-15 21:12:18:145,0,-54.6956,1.9569,148.107,Q,Q
2023-03-15 21:12:18:155,0,-54.6932,1.95534,148.11,Q,Q
2023-03-15 21:12:18:165,0,-54.6902,1.95636,148.107,Q,Q
2023-03-15 21:12:18:175,0,-54.6891,1.95647,148.105,Q,Q
2023-03-15 21:12:18:185,0,-54.6885,1.95661,148.104,Q,Q
2023-03-15 21:12:18:195,0,-54.6924,1.95652,148.103,Q,Q
2023-03-15 21:12:18:205,0,-54.6913,1.95795,148.103,Q,Q
2023-03-15 21:12:18:215,0,-54.6917,1.95917,148.104,Q,Q
2023-03-15 21:12:18:225,0,-54.6907,1.95773,148.104,Q,Q
2023-03-15 21:12:18:235,0,-54.6895,1.95466,148.103,Q,Q
2023-03-15 21:12:18:245,0,-54.6904,1.95594,148.104,Q,Q
2023-03-15 21:12:18:255,0,-54.69,1.95328,148.105,Q,Q
2023-03-15 21:12:18:266,0,-54.6907,1.95209,148.106,Q,Q
2023-03-15 21:12:18:275,0,-54.6889,1.95033,148.108,Q,Q
2023-03-15 21:12:18:286,0,-54.6874,1.95029,148.109,Q,Q
2023-03-15 21:12:18:296,0,-54.687,1.94881,148.108,Q,Q
2023-03-15 21:12:18:306,0,-54.69,1.94704,148.109,Q,Q
2023-03-15 21:12:18:315,0,-54.6923,1.94274,148.108,Q,Q
2023-03-15 21:12:18:326,0,-54.6902,1.94156,148.11,Q,Q
2023-03-15 21:12:18:335,0,-54.6917,1.94243,148.112,Q,Q
2023-03-15 21:12:18:346,0,-54.6918,1.93931,148.115,Q,Q
2023-03-15 21:12:18:356,0,-54.694,1.93615,148.118,Q,Q
2023-03-15 21:12:18:366,0,-54.6931,1.93673,148.117,Q,Q
2023-03-15 21:12:18:376,0,-54.693,1.93711,148.114,Q,Q
2023-03-15 21:12:18:386,0,-54.694,1.93632,148.114,Q,Q
2023-03-15 21:12:18:396,0,-54.6907,1.94008,148.115,Q,Q
2023-03-15 21:12:18:406,0,-54.691,1.93684,148.117,Q,Q
2023-03-15 21:12:18:416,0,-54.6926,1.93637,148.117,Q,Q
2023-03-15 21:12:18:426,0,-54.693,1.93286,148.114,Q,Q
2023-03-15 21:12:18:435,0,-54.691,1.93446,148.115,Q,Q
2023-03-15 21:12:18:445,0,-54.6914,1.9338,148.116,Q,Q
2023-03-15 21:12:18:455,0,-54.6907,1.93428,148.116,Q,Q
2023-03-15 21:12:18:466,0,-54.6918,1.9395,148.115,Q,Q
2023-03-15 21:12:18:475,0,-54.6906,1.94102,148.116,Q,Q
2023-03-15 21:12:18:486,0,-54.6921,1.94138,148.119,Q,Q
2023-03-15 21:12:18:495,0,-54.6934,1.9398,148.12,Q,Q
2023-03-15 21:12:18:505,0,-54.6915,1.9355,148.123,Q,Q
2023-03-15 21:12:18:515,0,-54.6922,1.93255,148.123,Q,Q
2023-03-15 21:12:18:526,0,-54.6902,1.93239,148.127,Q,Q
2023-03-15 21:12:18:535,0,-54.6887,1.93499,148.126,Q,Q
2023-03-15 21:12:18:546,0,-54.689,1.9358,148.128,Q,Q
2023-03-15 21:12:18:556,0,-54.6881,1.93671,148.128,Q,Q
2023-03-15 21:12:18:566,0,-54.6875,1.93364,148.13,Q,Q
2023-03-15 21:12:18:576,0,-54.6832,1.93728,148.131,Q,Q
2023-03-15 21:12:18:586,0,-54.683,1.93813,148.132,Q,Q
2023-03-15 21:12:18:596,0,-54.6849,1.94029,148.133,Q,Q
2023-03-15 21:12:18:606,0,-54.6857,1.94009,148.133,Q,Q
2023-03-15 21:12:18:616,0,-54.6847,1.9398,148.133,Q,Q
2023-03-15 21:12:18:626,0,-54.6815,1.94158,148.129,Q,Q
2023-03-15 21:12:18:636,0,-54.6835,1.94244,148.129,Q,Q
2023-03-15 21:12:18:646,0,-54.6831,1.94379,148.128,Q,Q
2023-03-15 21:12:18:655,0,-54.6813,1.94454,148.13,Q,Q
2023-03-15 21:12:18:665,0,-54.6802,1.94518,148.13,Q,Q
2023-03-15 21:12:18:675,0,-54.6826,1.94351,148.128,Q,Q
2023-03-15 21:12:18:685,0,-54.6823,1.94352,148.126,Q,Q
2023-03-15 21:12:18:696,0,-54.6814,1.94469,148.124,Q,Q
2023-03-15 21:12:18:706,0,-54.6806,1.94401,148.123,Q,Q
2023-03-15 21:12:18:716,0,-54.6825,1.94383,148.123,Q,Q
2023-03-15 21:12:18:726,0,-54.6818,1.94065,148.122,Q,Q
2023-03-15 21:12:18:736,0,-54.6851,1.94185,148.122,Q,Q
2023-03-15 21:12:18:746,0,-54.6882,1.94533,148.123,Q,Q
2023-03-15 21:12:18:756,0,-54.6893,1.94658,148.126,Q,Q
2023-03-15 21:12:18:766,0,-54.6918,1.94599,148.124,Q,Q
2023-03-15 21:12:18:775,0,-54.6911,1.94501,148.123,Q,Q
2023-03-15 21:12:18:786,0,-54.6907,1.94592,148.122,Q,Q
2023-03-15 21:12:18:796,0,-54.6926,1.94625,148.123,Q,Q
2023-03-15 21:12:18:806,0,-54.6956,1.94396,148.123,Q,Q
2023-03-15 21:12:18:816,0,-54.696,1.94533,148.124,Q,Q
