Timestamp_cmd,imu_cmd,roll_delta,pitch_delta,yaw_delta,voice_type,voice_length
2023-03-15 14:08:45:429,0,5.48031,-5.56593,-26.1004,Q,Q
2023-03-15 14:08:45:438,0,5.48677,-5.56721,-26.0936,Q,Q
2023-03-15 14:08:45:448,0,5.49463,-5.56838,-26.083,Q,Q
2023-03-15 14:08:45:458,0,5.50188,-5.57103,-26.0714,Q,Q
2023-03-15 14:08:45:468,0,5.51168,-5.57332,-26.0599,Q,Q
2023-03-15 14:08:45:478,0,5.52065,-5.57305,-26.0465,Q,Q
2023-03-15 14:08:45:488,0,5.53421,-5.57424,-26.0327,Q,Q
2023-03-15 14:08:45:498,0,5.54055,-5.57955,-26.0197,Q,Q
2023-03-15 14:08:45:508,0,5.54162,-5.57762,-26.0041,Q,Q
2023-03-15 14:08:45:518,0,5.53246,-5.57927,-25.9917,Q,Q
2023-03-15 14:08:45:528,0,5.5128,-5.58419,-25.9816,Q,Q
2023-03-15 14:08:45:538,0,5.47943,-5.59851,-25.9734,Q,Q
2023-03-15 14:08:45:548,0,5.43845,-5.60921,-25.9648,Q,Q
2023-03-15 14:08:45:558,0,5.40595,-5.61495,-25.9674,Q,Q
2023-03-15 14:08:45:568,0,5.37623,-5.62049,-25.9658,Q,Q
2023-03-15 14:08:45:578,0,5.35033,-5.62448,-25.9623,Q,Q
2023-03-15 14:08:45:588,0,5.32893,-5.62609,-25.9589,Q,Q
2023-03-15 14:08:45:598,0,5.30473,-5.6289,-25.9556,Q,Q
2023-03-15 14:08:45:608,0,5.28177,-5.63,-25.9525,Q,Q
2023-03-15 14:08:45:618,0,5.26641,-5.62788,-25.9492,Q,Q
2023-03-15 14:08:45:628,0,5.25397,-5.62376,-25.947,Q,Q
2023-03-15 14:08:45:638,0,5.24455,-5.62109,-25.9447,Q,Q
2023-03-15 14:08:45:648,0,5.22738,-5.62044,-25.9429,Q,Q
2023-03-15 14:08:45:658,0,5.21335,-5.61968,-25.9431,Q,Q
2023-03-15 14:08:45:668,0,5.20231,-5.61968,-25.9446,Q,Q
2023-03-15 14:08:45:678,0,5.18958,-5.61419,-25.949,Q,Q
2023-03-15 14:08:45:688,0,5.18602,-5.61627,-25.9527,Q,Q
2023-03-15 14:08:45:698,0,5.18425,-5.61934,-25.958,Q,Q
2023-03-15 14:08:45:708,0,5.18749,-5.61744,-25.962,Q,Q
2023-03-15 14:08:45:718,0,5.18957,-5.61482,-25.9687,Q,Q
2023-03-15 14:08:45:728,0,5.1961,-5.61451,-25.9739,Q,Q
2023-03-15 14:08:45:738,0,5.2025,-5.61549,-25.975,Q,Q
2023-03-15 14:08:45:748,0,5.20731,-5.61293,-25.9793,Q,Q
2023-03-15 14:08:45:758,0,5.21326,-5.60846,-25.9847,Q,Q
2023-03-15 14:08:45:768,0,5.21662,-5.59803,-25.991,Q,Q
2023-03-15 14:08:45:778,0,5.21995,-5.58647,-26.0001,Q,Q
2023-03-15 14:08:45:788,0,5.22157,-5.57135,-26.0082,Q,Q
2023-03-15 14:08:45:798,0,5.22289,-5.56502,-26.0164,Q,Q
2023-03-15 14:08:45:808,0,5.2278,-5.56235,-26.0198,Q,Q
2023-03-15 14:08:45:818,0,5.23793,-5.56341,-26.0219,Q,Q
2023-03-15 14:08:45:828,0,5.24873,-5.5687,-26.0247,Q,Q
2023-03-15 14:08:45:838,0,5.25552,-5.57166,-26.0228,Q,Q
2023-03-15 14:08:45:848,0,5.26052,-5.57443,-26.0248,Q,Q
2023-03-15 14:08:45:858,0,5.26271,-5.57599,-26.0276,Q,Q
2023-03-15 14:08:45:868,0,5.26129,-5.57154,-26.0327,Q,Q
2023-03-15 14:08:45:878,0,5.25846,-5.56874,-26.0339,Q,Q
2023-03-15 14:08:45:888,0,5.25266,-5.55968,-26.03,Q,Q
2023-03-15 14:08:45:898,0,5.24568,-5.55457,-26.029,Q,Q
2023-03-15 14:08:45:908,0,5.23968,-5.54851,-26.0302,Q,Q
2023-03-15 14:08:45:918,0,5.23217,-5.54367,-26.0271,Q,Q
2023-03-15 14:08:45:928,0,5.22738,-5.53533,-26.0323,Q,Q
2023-03-15 14:08:45:938,0,5.22181,-5.53138,-26.0352,Q,Q
2023-03-15 14:08:45:948,0,5.21362,-5.52447,-26.0395,Q,Q
2023-03-15 14:08:45:958,0,5.20482,-5.52345,-26.0468,Q,Q
2023-03-15 14:08:45:968,0,5.19873,-5.52144,-26.0563,Q,Q
2023-03-15 14:08:45:978,0,5.19549,-5.51918,-26.0666,Q,Q
2023-03-15 14:08:45:988,0,5.19135,-5.52009,-26.0714,Q,Q
2023-03-15 14:08:45:998,0,5.18612,-5.52047,-26.0743,Q,Q
2023-03-15 14:08:46:8,0,5.18174,-5.52424,-26.0757,Q,Q
2023-03-15 14:08:46:17,0,5.18173,-5.52244,-26.0783,Q,Q
2023-03-15 14:08:46:27,0,5.17678,-5.51892,-26.0792,Q,Q
2023-03-15 14:08:46:37,0,5.17419,-5.51444,-26.0763,Q,Q
2023-03-15 14:08:46:47,0,5.16712,-5.50678,-26.0723,Q,Q
2023-03-15 14:08:46:57,0,5.1626,-5.50315,-26.0687,Q,Q
2023-03-15 14:08:46:67,0,5.16225,-5.4987,-26.0635,Q,Q
2023-03-15 14:08:46:77,0,5.16288,-5.49802,-26.0544,Q,Q
2023-03-15 14:08:46:88,0,5.16257,-5.49668,-26.0477,Q,Q
2023-03-15 14:08:46:98,0,5.15674,-5.49332,-26.0411,Q,Q
2023-03-15 14:08:46:107,0,5.15308,-5.4899,-26.0379,Q,Q
2023-03-15 14:08:46:118,0,5.1487,-5.49058,-26.0339,Q,Q
2023-03-15 14:08:46:128,0,5.14607,-5.48832,-26.0328,Q,Q
2023-03-15 14:08:46:138,0,5.13905,-5.48441,-26.0338,Q,Q
2023-03-15 14:08:46:148,0,5.13597,-5.48623,-26.0405,Q,Q
2023-03-15 14:08:46:158,0,5.13184,-5.4886,-26.0429,Q,Q
2023-03-15 14:08:46:168,0,5.1273,-5.48849,-26.0461,Q,Q
2023-03-15 14:08:46:178,0,5.12116,-5.4914,-26.0479,Q,Q
2023-03-15 14:08:46:188,0,5.11425,-5.49241,-26.0522,Q,Q
2023-03-15 14:08:46:198,0,5.10829,-5.4968,-26.0503,Q,Q
2023-03-15 14:08:46:208,0,5.10953,-5.49838,-26.0542,Q,Q
2023-03-15 14:08:46:218,0,5.12149,-5.50245,-26.0494,Q,Q
2023-03-15 14:08:46:228,0,5.13761,-5.50863,-26.041,Q,Q
2023-03-15 14:08:46:238,0,5.14054,-5.5147,-26.032,Q,Q
2023-03-15 14:08:46:248,0,5.13492,-5.52068,-26.0236,Q,Q
2023-03-15 14:08:46:258,0,5.13267,-5.52789,-26.0169,Q,Q
2023-03-15 14:08:46:268,0,5.14326,-5.53186,-26.0086,Q,Q
2023-03-15 14:08:46:278,0,5.15477,-5.53683,-25.9962,Q,Q
2023-03-15 14:08:46:288,0,5.16795,-5.53855,-25.9824,Q,Q
2023-03-15 14:08:46:298,0,5.17694,-5.53916,-25.9665,Q,Q
2023-03-15 14:08:46:308,0,5.1817,-5.54228,-25.9493,Q,Q
2023-03-15 14:08:46:318,0,5.18601,-5.54221,-25.9337,Q,Q
2023-03-15 14:08:46:328,0,5.19773,-5.5406,-25.919,Q,Q
2023-03-15 14:08:46:338,0,5.20603,-5.53816,-25.9026,Q,Q
2023-03-15 14:08:46:348,0,5.21797,-5.53964,-25.8877,Q,Q
2023-03-15 14:08:46:358,0,5.22696,-5.54108,-25.8727,Q,Q
2023-03-15 14:08:46:368,0,5.23643,-5.5418,-25.862,Q,Q
2023-03-15 14:08:46:378,0,5.24061,-5.54626,-25.8534,Q,Q
2023-03-15 14:08:46:388,0,5.24688,-5.55157,-25.8462,Q,Q
2023-03-15 14:08:46:398,0,5.25327,-5.55695,-25.8411,Q,Q
2023-03-15 14:08:46:408,0,5.26118,-5.56229,-25.8403,Q,Q
2023-03-15 14:08:46:418,0,5.26222,-5.56931,-25.8372,Q,Q
2023-03-15 14:08:46:428,0,5.26454,-5.57636,-25.8359,Q,Q
2023-03-15 14:08:46:437,0,5.26442,-5.58082,-25.8395,Q,Q
2023-03-15 14:08:46:448,0,5.26354,-5.58432,-25.8389,Q,Q
2023-03-15 14:08:46:458,0,5.26628,-5.58226,-25.837,Q,Q
2023-03-15 14:08:46:468,0,5.26248,-5.58204,-25.8387,Q,Q
2023-03-15 14:08:46:478,0,5.26136,-5.58252,-25.839,Q,Q
2023-03-15 14:08:46:488,0,5.25793,-5.58825,-25.8393,Q,Q
2023-03-15 14:08:46:498,0,5.25832,-5.58989,-25.8381,Q,Q
2023-03-15 14:08:46:508,0,5.25369,-5.59097,-25.8359,Q,Q
2023-03-15 14:08:46:518,0,5.24784,-5.59282,-25.8344,Q,Q
2023-03-15 14:08:46:528,0,5.23779,-5.59326,-25.8294,Q,Q
2023-03-15 14:08:46:537,0,5.2241,-5.59419,-25.8262,Q,Q
2023-03-15 14:08:46:547,0,5.20925,-5.59595,-25.8227,Q,Q
2023-03-15 14:08:46:557,0,5.192,-5.59903,-25.8191,Q,Q
2023-03-15 14:08:46:567,0,5.17402,-5.59538,-25.8204,Q,Q
2023-03-15 14:08:46:577,0,5.15856,-5.58956,-25.821,Q,Q
2023-03-15 14:08:46:587,0,5.14355,-5.58874,-25.8193,Q,Q
2023-03-15 14:08:46:597,0,5.12944,-5.58561,-25.8166,Q,Q
2023-03-15 14:08:46:607,0,5.11806,-5.58368,-25.8193,Q,Q
2023-03-15 14:08:46:617,0,5.10514,-5.58075,-25.8191,Q,Q
2023-03-15 14:08:46:627,0,5.09906,-5.57478,-25.8214,Q,Q
2023-03-15 14:08:46:638,0,5.0937,-5.56983,-25.8192,Q,Q
2023-03-15 14:08:46:648,0,5.08833,-5.56296,-25.8158,Q,Q
2023-03-15 14:08:46:658,0,5.08301,-5.55609,-25.8107,Q,Q
2023-03-15 14:08:46:668,0,5.07805,-5.56094,-25.8015,Q,Q
2023-03-15 14:08:46:678,0,5.07218,-5.56954,-25.7908,Q,Q
2023-03-15 14:08:46:688,0,5.07045,-5.57696,-25.7815,Q,Q
2023-03-15 14:08:46:698,0,5.07337,-5.58779,-25.7717,Q,Q
2023-03-15 14:08:46:708,0,5.07129,-5.59793,-25.7608,Q,Q
2023-03-15 14:08:46:718,0,5.06575,-5.60524,-25.7505,Q,Q
2023-03-15 14:08:46:727,0,5.05735,-5.60772,-25.7385,Q,Q
2023-03-15 14:08:46:737,0,5.05189,-5.6122,-25.7243,Q,Q
2023-03-15 14:08:46:747,0,5.05228,-5.61352,-25.7069,Q,Q
2023-03-15 14:08:46:757,0,5.05404,-5.61325,-25.6909,Q,Q
2023-03-15 14:08:46:767,0,5.05108,-5.61596,-25.6807,Q,Q
2023-03-15 14:08:46:777,0,5.05278,-5.61529,-25.6746,Q,Q
2023-03-15 14:08:46:787,0,5.05613,-5.61567,-25.6662,Q,Q
2023-03-15 14:08:46:797,0,5.06135,-5.62066,-25.6646,Q,Q
2023-03-15 14:08:46:807,0,5.0658,-5.62472,-25.6611,Q,Q
2023-03-15 14:08:46:817,0,5.06834,-5.62996,-25.6636,Q,Q
2023-03-15 14:08:46:827,0,5.07334,-5.63677,-25.6658,Q,Q
2023-03-15 14:08:46:837,0,5.08211,-5.64146,-25.6636,Q,Q
2023-03-15 14:08:46:847,0,5.09268,-5.64972,-25.6655,Q,Q
2023-03-15 14:08:46:857,0,5.09869,-5.65976,-25.6626,Q,Q
2023-03-15 14:08:46:867,0,5.10901,-5.67163,-25.6591,Q,Q
2023-03-15 14:08:46:877,0,5.1154,-5.67943,-25.654,Q,Q
2023-03-15 14:08:46:887,0,5.11987,-5.68496,-25.6544,Q,Q
2023-03-15 14:08:46:898,0,5.12536,-5.68814,-25.6554,Q,Q
2023-03-15 14:08:46:908,0,5.12645,-5.68633,-25.6578,Q,Q
2023-03-15 14:08:46:918,0,5.1244,-5.68652,-25.657,Q,Q
2023-03-15 14:08:46:928,0,5.12667,-5.68504,-25.6571,Q,Q
2023-03-15 14:08:46:937,0,5.12761,-5.6879,-25.6512,Q,Q
2023-03-15 14:08:46:947,0,5.12784,-5.68645,-25.6506,Q,Q
2023-03-15 14:08:46:957,0,5.12588,-5.68248,-25.6483,Q,Q
2023-03-15 14:08:46:967,0,5.11865,-5.68266,-25.6487,Q,Q
2023-03-15 14:08:46:977,0,5.11372,-5.6798,-25.6486,Q,Q
2023-03-15 14:08:46:987,0,5.10878,-5.67356,-25.644,Q,Q
2023-03-15 14:08:46:997,0,5.10529,-5.66472,-25.6405,Q,Q
2023-03-15 14:08:47:7,0,5.10219,-5.65758,-25.6385,Q,Q
2023-03-15 14:08:47:17,0,5.09955,-5.65446,-25.6325,Q,Q
2023-03-15 14:08:47:27,0,5.09451,-5.65287,-25.6265,Q,Q
2023-03-15 14:08:47:37,0,5.09017,-5.64939,-25.622,Q,Q
2023-03-15 14:08:47:47,0,5.08198,-5.64267,-25.6148,Q,Q
2023-03-15 14:08:47:57,0,5.07305,-5.63673,-25.6069,Q,Q
2023-03-15 14:08:47:67,0,5.06768,-5.63389,-25.5971,Q,Q
2023-03-15 14:08:47:77,0,5.06675,-5.63676,-25.5859,Q,Q
2023-03-15 14:08:47:87,0,5.06007,-5.64181,-25.5764,Q,Q
2023-03-15 14:08:47:97,0,5.05191,-5.65284,-25.5649,Q,Q
2023-03-15 14:08:47:108,0,5.04406,-5.6624,-25.5535,Q,Q
2023-03-15 14:08:47:118,0,5.04225,-5.67381,-25.5433,Q,Q
2023-03-15 14:08:47:128,0,5.04092,-5.68579,-25.5279,Q,Q
2023-03-15 14:08:47:138,0,5.0382,-5.69674,-25.5155,Q,Q
2023-03-15 14:08:47:148,0,5.03577,-5.70257,-25.5045,Q,Q
2023-03-15 14:08:47:158,0,5.03302,-5.70831,-25.4918,Q,Q
2023-03-15 14:08:47:168,0,5.03068,-5.70959,-25.479,Q,Q
2023-03-15 14:08:47:178,0,5.03337,-5.70751,-25.4685,Q,Q
2023-03-15 14:08:47:188,0,5.04004,-5.70675,-25.4602,Q,Q
2023-03-15 14:08:47:198,0,5.04449,-5.70786,-25.4551,Q,Q
2023-03-15 14:08:47:208,0,5.04824,-5.71094,-25.4543,Q,Q
2023-03-15 14:08:47:218,0,5.0528,-5.71114,-25.4502,Q,Q
2023-03-15 14:08:47:228,0,5.05325,-5.71176,-25.4507,Q,Q
2023-03-15 14:08:47:238,0,5.05242,-5.71478,-25.4481,Q,Q
2023-03-15 14:08:47:248,0,5.05123,-5.71871,-25.4447,Q,Q
2023-03-15 14:08:47:258,0,5.04787,-5.72053,-25.4435,Q,Q
2023-03-15 14:08:47:268,0,5.0417,-5.72141,-25.441,Q,Q
2023-03-15 14:08:47:278,0,5.03418,-5.72368,-25.4444,Q,Q
2023-03-15 14:08:47:288,0,5.02434,-5.72561,-25.4435,Q,Q
2023-03-15 14:08:47:298,0,5.01229,-5.72765,-25.4461,Q,Q
2023-03-15 14:08:47:308,0,4.99805,-5.73172,-25.445,Q,Q
2023-03-15 14:08:47:318,0,4.98735,-5.73284,-25.4457,Q,Q
2023-03-15 14:08:47:328,0,4.98423,-5.73019,-25.4502,Q,Q
2023-03-15 14:08:47:338,0,4.99112,-5.7254,-25.4495,Q,Q
2023-03-15 14:08:47:348,0,4.99743,-5.72147,-25.4475,Q,Q
2023-03-15 14:08:47:358,0,5.00183,-5.72257,-25.4439,Q,Q
2023-03-15 14:08:47:368,0,5.00375,-5.7238,-25.4401,Q,Q
2023-03-15 14:08:47:378,0,5.00447,-5.72432,-25.4378,Q,Q
2023-03-15 14:08:47:388,0,5.00172,-5.73121,-25.4363,Q,Q
2023-03-15 14:08:47:398,0,4.9962,-5.73631,-25.4349,Q,Q
2023-03-15 14:08:47:408,0,4.99388,-5.74015,-25.4329,Q,Q
2023-03-15 14:08:47:418,0,4.9932,-5.74155,-25.4277,Q,Q
2023-03-15 14:08:47:428,0,4.99167,-5.74155,-25.4165,Q,Q
2023-03-15 14:08:47:438,0,4.98879,-5.74403,-25.4042,Q,Q
2023-03-15 14:08:47:448,0,4.98334,-5.74711,-25.3934,Q,Q
2023-03-15 14:08:47:458,0,4.97535,-5.74816,-25.3826,Q,Q
2023-03-15 14:08:47:468,0,4.97004,-5.75068,-25.3637,Q,Q
2023-03-15 14:08:47:478,0,4.96802,-5.76305,-25.3466,Q,Q
2023-03-15 14:08:47:488,0,4.96179,-5.77749,-25.3336,Q,Q
2023-03-15 14:08:47:498,0,4.95059,-5.78371,-25.3224,Q,Q
2023-03-15 14:08:47:508,0,4.94346,-5.78234,-25.3106,Q,Q
2023-03-15 14:08:47:518,0,4.93756,-5.78024,-25.3023,Q,Q
2023-03-15 14:08:47:528,0,4.93536,-5.77799,-25.2931,Q,Q
2023-03-15 14:08:47:538,0,4.93076,-5.77971,-25.2897,Q,Q
2023-03-15 14:08:47:547,0,4.9306,-5.78628,-25.2808,Q,Q
2023-03-15 14:08:47:557,0,4.93728,-5.7962,-25.2715,Q,Q
2023-03-15 14:08:47:568,0,4.9459,-5.80882,-25.2644,Q,Q
2023-03-15 14:08:47:578,0,4.95096,-5.82467,-25.2544,Q,Q
2023-03-15 14:08:47:588,0,4.95656,-5.83583,-25.2512,Q,Q
2023-03-15 14:08:47:598,0,4.95397,-5.84577,-25.244,Q,Q
2023-03-15 14:08:47:608,0,4.95055,-5.85372,-25.2398,Q,Q
2023-03-15 14:08:47:618,0,4.94805,-5.8608,-25.2353,Q,Q
2023-03-15 14:08:47:628,0,4.94526,-5.86636,-25.2283,Q,Q
2023-03-15 14:08:47:638,0,4.94145,-5.86979,-25.2217,Q,Q
2023-03-15 14:08:47:648,0,4.94142,-5.86798,-25.2215,Q,Q
2023-03-15 14:08:47:658,0,4.93881,-5.86467,-25.2225,Q,Q
2023-03-15 14:08:47:668,0,4.93539,-5.86759,-25.2233,Q,Q
2023-03-15 14:08:47:678,0,4.93277,-5.86581,-25.2234,Q,Q
2023-03-15 14:08:47:688,0,4.9324,-5.86588,-25.2289,Q,Q
2023-03-15 14:08:47:698,0,4.93382,-5.86737,-25.232,Q,Q
2023-03-15 14:08:47:708,0,4.93631,-5.86709,-25.238,Q,Q
2023-03-15 14:08:47:717,0,4.93447,-5.87339,-25.2445,Q,Q
2023-03-15 14:08:47:728,0,4.93369,-5.87775,-25.2481,Q,Q
2023-03-15 14:08:47:738,0,4.93229,-5.88788,-25.2533,Q,Q
2023-03-15 14:08:47:748,0,4.93052,-5.90277,-25.2555,Q,Q
2023-03-15 14:08:47:758,0,4.92579,-5.91276,-25.2544,Q,Q
2023-03-15 14:08:47:768,0,4.92199,-5.91466,-25.2543,Q,Q
2023-03-15 14:08:47:778,0,4.92369,-5.91624,-25.2526,Q,Q
2023-03-15 14:08:47:788,0,4.92558,-5.91406,-25.252,Q,Q
2023-03-15 14:08:47:798,0,4.92966,-5.91431,-25.2482,Q,Q
2023-03-15 14:08:47:808,0,4.93362,-5.91288,-25.243,Q,Q
2023-03-15 14:08:47:818,0,4.93876,-5.9118,-25.2359,Q,Q
2023-03-15 14:08:47:828,0,4.94196,-5.90915,-25.2313,Q,Q
2023-03-15 14:08:47:838,0,4.94705,-5.90577,-25.2257,Q,Q
2023-03-15 14:08:47:848,0,4.9495,-5.90252,-25.218,Q,Q
2023-03-15 14:08:47:858,0,4.95585,-5.89976,-25.2138,Q,Q
2023-03-15 14:08:47:868,0,4.95974,-5.89816,-25.2068,Q,Q
2023-03-15 14:08:47:878,0,4.96536,-5.89856,-25.1975,Q,Q
2023-03-15 14:08:47:888,0,4.96657,-5.90033,-25.1878,Q,Q
2023-03-15 14:08:47:897,0,4.97114,-5.8999,-25.1814,Q,Q
2023-03-15 14:08:47:907,0,4.97019,-5.90342,-25.1741,Q,Q
2023-03-15 14:08:47:917,0,4.96943,-5.91001,-25.1652,Q,Q
2023-03-15 14:08:47:927,0,4.96794,-5.91472,-25.1569,Q,Q
2023-03-15 14:08:47:937,0,4.96686,-5.91764,-25.1509,Q,Q
2023-03-15 14:08:47:947,0,4.96483,-5.92544,-25.146,Q,Q
2023-03-15 14:08:47:957,0,4.96198,-5.92703,-25.1397,Q,Q
2023-03-15 14:08:47:967,0,4.9609,-5.93363,-25.1351,Q,Q
2023-03-15 14:08:47:978,0,4.96138,-5.93706,-25.1283,Q,Q
2023-03-15 14:08:47:987,0,4.95822,-5.94606,-25.1179,Q,Q
2023-03-15 14:08:47:998,0,4.95634,-5.95175,-25.1095,Q,Q
2023-03-15 14:08:48:7,0,4.95505,-5.9613,-25.0977,Q,Q
2023-03-15 14:08:48:18,0,4.94977,-5.96608,-25.0879,Q,Q
2023-03-15 14:08:48:28,0,4.94605,-5.96994,-25.0764,Q,Q
2023-03-15 14:08:48:38,0,4.94296,-5.97143,-25.0666,Q,Q
2023-03-15 14:08:48:48,0,4.93876,-5.97054,-25.0536,Q,Q
2023-03-15 14:08:48:58,0,4.93785,-5.96815,-25.0425,Q,Q
2023-03-15 14:08:48:68,0,4.93698,-5.96628,-25.0336,Q,Q
2023-03-15 14:08:48:78,0,4.93615,-5.96772,-25.0312,Q,Q
2023-03-15 14:08:48:88,0,4.93447,-5.96328,-25.0281,Q,Q
2023-03-15 14:08:48:98,0,4.93373,-5.96026,-25.028,Q,Q
2023-03-15 14:08:48:108,0,4.93468,-5.95439,-25.0328,Q,Q
2023-03-15 14:08:48:118,0,4.93256,-5.94857,-25.0416,Q,Q
2023-03-15 14:08:48:128,0,4.93684,-5.94216,-25.0525,Q,Q
2023-03-15 14:08:48:138,0,4.93734,-5.93669,-25.0666,Q,Q
2023-03-15 14:08:48:148,0,4.93661,-5.93376,-25.079,Q,Q
2023-03-15 14:08:48:158,0,4.9371,-5.9317,-25.0902,Q,Q
2023-03-15 14:08:48:168,0,4.93793,-5.92712,-25.1004,Q,Q
2023-03-15 14:08:48:178,0,4.93481,-5.92338,-25.1082,Q,Q
2023-03-15 14:08:48:188,0,4.93421,-5.92128,-25.1124,Q,Q
2023-03-15 14:08:48:198,0,4.93637,-5.91891,-25.1155,Q,Q
2023-03-15 14:08:48:208,0,4.93145,-5.91933,-25.1156,Q,Q
2023-03-15 14:08:48:218,0,4.92191,-5.91401,-25.1172,Q,Q
2023-03-15 14:08:48:228,0,4.91621,-5.90785,-25.117,Q,Q
2023-03-15 14:08:48:238,0,4.91517,-5.90244,-25.1179,Q,Q
2023-03-15 14:08:48:248,0,4.90583,-5.90568,-25.1156,Q,Q
2023-03-15 14:08:48:258,0,4.89034,-5.90287,-25.113,Q,Q
2023-03-15 14:08:48:268,0,4.88351,-5.89797,-25.1149,Q,Q
2023-03-15 14:08:48:278,0,4.88628,-5.89093,-25.1114,Q,Q
2023-03-15 14:08:48:288,0,4.88807,-5.89006,-25.108,Q,Q
2023-03-15 14:08:48:298,0,4.88212,-5.89041,-25.1052,Q,Q
2023-03-15 14:08:48:308,0,4.87764,-5.88311,-25.1011,Q,Q
2023-03-15 14:08:48:318,0,4.88043,-5.87861,-25.0993,Q,Q
2023-03-15 14:08:48:328,0,4.88448,-5.87425,-25.096,Q,Q
2023-03-15 14:08:48:338,0,4.89216,-5.87151,-25.0948,Q,Q
2023-03-15 14:08:48:348,0,4.89542,-5.86251,-25.0906,Q,Q
2023-03-15 14:08:48:358,0,4.89699,-5.85254,-25.0864,Q,Q
2023-03-15 14:08:48:368,0,4.89814,-5.83531,-25.0835,Q,Q
2023-03-15 14:08:48:378,0,4.89311,-5.81959,-25.0799,Q,Q
2023-03-15 14:08:48:388,0,4.89034,-5.80549,-25.0774,Q,Q
2023-03-15 14:08:48:398,0,4.89044,-5.79731,-25.0741,Q,Q
2023-03-15 14:08:48:408,0,4.89265,-5.79305,-25.0662,Q,Q
2023-03-15 14:08:48:418,0,4.89769,-5.79301,-25.06,Q,Q
2023-03-15 14:08:48:428,0,4.90774,-5.79013,-25.0532,Q,Q
2023-03-15 14:08:48:438,0,4.91376,-5.79155,-25.0463,Q,Q
2023-03-15 14:08:48:448,0,4.90992,-5.78903,-25.0395,Q,Q
2023-03-15 14:08:48:458,0,4.90147,-5.78604,-25.031,Q,Q
2023-03-15 14:08:48:468,0,4.89053,-5.79025,-25.0186,Q,Q
2023-03-15 14:08:48:478,0,4.86973,-5.79285,-25.0029,Q,Q
2023-03-15 14:08:48:488,0,4.84823,-5.79467,-24.9828,Q,Q
2023-03-15 14:08:48:498,0,4.83019,-5.79962,-24.9636,Q,Q
2023-03-15 14:08:48:508,0,4.81023,-5.8119,-24.9408,Q,Q
2023-03-15 14:08:48:518,0,4.78258,-5.8257,-24.9204,Q,Q
2023-03-15 14:08:48:528,0,4.76344,-5.83384,-24.9037,Q,Q
2023-03-15 14:08:48:538,0,4.7556,-5.83983,-24.8847,Q,Q
2023-03-15 14:08:48:548,0,4.75964,-5.84637,-24.8683,Q,Q
2023-03-15 14:08:48:558,0,4.76459,-5.85599,-24.8498,Q,Q
2023-03-15 14:08:48:568,0,4.76317,-5.8668,-24.837,Q,Q
2023-03-15 14:08:48:578,0,4.76126,-5.88209,-24.8282,Q,Q
2023-03-15 14:08:48:588,0,4.75381,-5.89568,-24.8179,Q,Q
2023-03-15 14:08:48:598,0,4.7506,-5.90543,-24.8145,Q,Q
2023-03-15 14:08:48:608,0,4.74973,-5.91725,-24.8097,Q,Q
2023-03-15 14:08:48:618,0,4.74973,-5.92528,-24.8087,Q,Q
2023-03-15 14:08:48:628,0,4.74722,-5.93316,-24.8111,Q,Q
2023-03-15 14:08:48:638,0,4.74452,-5.93836,-24.814,Q,Q
2023-03-15 14:08:48:648,0,4.74505,-5.93952,-24.8212,Q,Q
2023-03-15 14:08:48:658,0,4.74373,-5.94379,-24.8239,Q,Q
2023-03-15 14:08:48:668,0,4.74218,-5.94833,-24.824,Q,Q
2023-03-15 14:08:48:678,0,4.74665,-5.95477,-24.8274,Q,Q
2023-03-15 14:08:48:688,0,4.74869,-5.95783,-24.8328,Q,Q
2023-03-15 14:08:48:698,0,4.74979,-5.96341,-24.8386,Q,Q
2023-03-15 14:08:48:708,0,4.74743,-5.96273,-24.8451,Q,Q
2023-03-15 14:08:48:718,0,4.74556,-5.96361,-24.8528,Q,Q
2023-03-15 14:08:48:728,0,4.73976,-5.95958,-24.8564,Q,Q
2023-03-15 14:08:48:738,0,4.73584,-5.95154,-24.8511,Q,Q
2023-03-15 14:08:48:748,0,4.72761,-5.94124,-24.8442,Q,Q
2023-03-15 14:08:48:758,0,4.71585,-5.93142,-24.8404,Q,Q
2023-03-15 14:08:48:768,0,4.70707,-5.92148,-24.8354,Q,Q
2023-03-15 14:08:48:778,0,4.70048,-5.91441,-24.8254,Q,Q
2023-03-15 14:08:48:788,0,4.69272,-5.90911,-24.8155,Q,Q
2023-03-15 14:08:48:798,0,4.68687,-5.90244,-24.8054,Q,Q
2023-03-15 14:08:48:808,0,4.68188,-5.90325,-24.8001,Q,Q
2023-03-15 14:08:48:818,0,4.68155,-5.90079,-24.7978,Q,Q
2023-03-15 14:08:48:828,0,4.68113,-5.89731,-24.7867,Q,Q
2023-03-15 14:08:48:838,0,4.6788,-5.89859,-24.7785,Q,Q
2023-03-15 14:08:48:848,0,4.67759,-5.90559,-24.7644,Q,Q
2023-03-15 14:08:48:858,0,4.67611,-5.9079,-24.7572,Q,Q
2023-03-15 14:08:48:868,0,4.67023,-5.91153,-24.7467,Q,Q
2023-03-15 14:08:48:878,0,4.66416,-5.91117,-24.7348,Q,Q
2023-03-15 14:08:48:888,0,4.65849,-5.90838,-24.7214,Q,Q
2023-03-15 14:08:48:898,0,4.65654,-5.90492,-24.7068,Q,Q
2023-03-15 14:08:48:908,0,4.65558,-5.90329,-24.6922,Q,Q
2023-03-15 14:08:48:918,0,4.65372,-5.90441,-24.6738,Q,Q
2023-03-15 14:08:48:927,0,4.64752,-5.89921,-24.6549,Q,Q
2023-03-15 14:08:48:937,0,4.65004,-5.89294,-24.6388,Q,Q
2023-03-15 14:08:48:947,0,4.65319,-5.89129,-24.6222,Q,Q
2023-03-15 14:08:48:957,0,4.6515,-5.89445,-24.6052,Q,Q
2023-03-15 14:08:48:968,0,4.64711,-5.89354,-24.5883,Q,Q
2023-03-15 14:08:48:978,0,4.64847,-5.88777,-24.5753,Q,Q
2023-03-15 14:08:48:988,0,4.65642,-5.88493,-24.563,Q,Q
2023-03-15 14:08:48:998,0,4.65654,-5.88349,-24.5507,Q,Q
2023-03-15 14:08:49:8,0,4.64778,-5.88177,-24.5395,Q,Q
2023-03-15 14:08:49:18,0,4.63597,-5.88475,-24.5332,Q,Q
2023-03-15 14:08:49:28,0,4.61972,-5.89005,-24.5229,Q,Q
2023-03-15 14:08:49:38,0,4.60394,-5.89347,-24.5141,Q,Q
2023-03-15 14:08:49:48,0,4.59338,-5.90117,-24.5043,Q,Q
2023-03-15 14:08:49:58,0,4.58304,-5.90721,-24.4953,Q,Q
2023-03-15 14:08:49:68,0,4.57547,-5.91064,-24.4857,Q,Q
2023-03-15 14:08:49:78,0,4.57037,-5.90844,-24.4758,Q,Q
2023-03-15 14:08:49:88,0,4.57081,-5.90647,-24.4632,Q,Q
2023-03-15 14:08:49:98,0,4.57019,-5.90894,-24.4485,Q,Q
2023-03-15 14:08:49:108,0,4.5666,-5.91255,-24.436,Q,Q
2023-03-15 14:08:49:118,0,4.55832,-5.9173,-24.4255,Q,Q
2023-03-15 14:08:49:128,0,4.55011,-5.92569,-24.4164,Q,Q
2023-03-15 14:08:49:138,0,4.54544,-5.93291,-24.4071,Q,Q
2023-03-15 14:08:49:148,0,4.537,-5.94332,-24.399,Q,Q
2023-03-15 14:08:49:158,0,4.52857,-5.95092,-24.3948,Q,Q
2023-03-15 14:08:49:168,0,4.52008,-5.95645,-24.3906,Q,Q
2023-03-15 14:08:49:178,0,4.51898,-5.95636,-24.3895,Q,Q
2023-03-15 14:08:49:188,0,4.51938,-5.95936,-24.3889,Q,Q
2023-03-15 14:08:49:198,0,4.5165,-5.96139,-24.3889,Q,Q
2023-03-15 14:08:49:208,0,4.51074,-5.96723,-24.3932,Q,Q
2023-03-15 14:08:49:218,0,4.4983,-5.97303,-24.392,Q,Q
2023-03-15 14:08:49:228,0,4.4933,-5.97412,-24.3917,Q,Q
2023-03-15 14:08:49:238,0,4.48953,-5.97557,-24.3917,Q,Q
2023-03-15 14:08:49:248,0,4.48544,-5.98176,-24.3912,Q,Q
2023-03-15 14:08:49:258,0,4.47734,-5.98158,-24.3947,Q,Q
2023-03-15 14:08:49:268,0,4.46337,-5.97542,-24.395,Q,Q
2023-03-15 14:08:49:278,0,4.45164,-5.96707,-24.3957,Q,Q
2023-03-15 14:08:49:288,0,4.44509,-5.95858,-24.3983,Q,Q
2023-03-15 14:08:49:298,0,4.44182,-5.9619,-24.4,Q,Q
2023-03-15 14:08:49:308,0,4.43951,-5.97326,-24.3941,Q,Q
2023-03-15 14:08:49:318,0,4.43535,-5.98747,-24.3907,Q,Q
2023-03-15 14:08:49:328,0,4.43047,-6.0046,-24.3868,Q,Q
2023-03-15 14:08:49:338,0,4.41738,-6.01831,-24.3836,Q,Q
2023-03-15 14:08:49:348,0,4.40581,-6.02591,-24.3843,Q,Q
2023-03-15 14:08:49:358,0,4.39014,-6.03037,-24.3783,Q,Q
2023-03-15 14:08:49:368,0,4.3742,-6.03094,-24.3744,Q,Q
2023-03-15 14:08:49:378,0,4.36173,-6.02978,-24.364,Q,Q
2023-03-15 14:08:49:388,0,4.34678,-6.02667,-24.3511,Q,Q
2023-03-15 14:08:49:398,0,4.32891,-6.02701,-24.347,Q,Q
2023-03-15 14:08:49:408,0,4.31692,-6.02673,-24.3417,Q,Q
2023-03-15 14:08:49:418,0,4.29996,-6.02748,-24.3422,Q,Q
2023-03-15 14:08:49:428,0,4.2876,-6.01888,-24.3442,Q,Q
2023-03-15 14:08:49:438,0,4.28235,-6.00846,-24.3472,Q,Q
2023-03-15 14:08:49:448,0,4.27514,-5.99983,-24.3497,Q,Q
2023-03-15 14:08:49:458,0,4.26892,-5.99606,-24.3542,Q,Q
2023-03-15 14:08:49:468,0,4.26377,-5.99023,-24.3581,Q,Q
2023-03-15 14:08:49:478,0,4.26347,-5.98453,-24.361,Q,Q
2023-03-15 14:08:49:488,0,4.26783,-5.98475,-24.3605,Q,Q
2023-03-15 14:08:49:498,0,4.27468,-5.98823,-24.3589,Q,Q
2023-03-15 14:08:49:508,0,4.27997,-5.99283,-24.358,Q,Q
2023-03-15 14:08:49:518,0,4.27931,-5.99422,-24.3547,Q,Q
2023-03-15 14:08:49:528,0,4.27983,-5.99685,-24.3519,Q,Q
2023-03-15 14:08:49:538,0,4.28186,-5.99528,-24.3492,Q,Q
2023-03-15 14:08:49:548,0,4.28454,-5.98881,-24.3455,Q,Q
2023-03-15 14:08:49:558,0,4.29281,-5.98714,-24.3409,Q,Q
2023-03-15 14:08:49:568,0,4.2984,-5.98381,-24.3312,Q,Q
2023-03-15 14:08:49:578,0,4.30532,-5.98197,-24.3221,Q,Q
2023-03-15 14:08:49:587,0,4.311,-5.9823,-24.3148,Q,Q
2023-03-15 14:08:49:598,0,4.31179,-5.97955,-24.3084,Q,Q
2023-03-15 14:08:49:608,0,4.3133,-5.97949,-24.3047,Q,Q
2023-03-15 14:08:49:618,0,4.31506,-5.97504,-24.3032,Q,Q
2023-03-15 14:08:49:628,0,4.31364,-5.97003,-24.3017,Q,Q
2023-03-15 14:08:49:638,0,4.31379,-5.96828,-24.2998,Q,Q
2023-03-15 14:08:49:648,0,4.30798,-5.96354,-24.2994,Q,Q
2023-03-15 14:08:49:658,0,4.30395,-5.96075,-24.3006,Q,Q
2023-03-15 14:08:49:668,0,4.30049,-5.96311,-24.3028,Q,Q
2023-03-15 14:08:49:678,0,4.2944,-5.96302,-24.3036,Q,Q
2023-03-15 14:08:49:688,0,4.28761,-5.96132,-24.3034,Q,Q
2023-03-15 14:08:49:698,0,4.2803,-5.96502,-24.3066,Q,Q
2023-03-15 14:08:49:708,0,4.27269,-5.96537,-24.3095,Q,Q
2023-03-15 14:08:49:718,0,4.27094,-5.97005,-24.317,Q,Q
2023-03-15 14:08:49:728,0,4.27008,-5.9723,-24.3194,Q,Q
2023-03-15 14:08:49:738,0,4.26405,-5.97603,-24.3205,Q,Q
2023-03-15 14:08:49:748,0,4.26169,-5.97769,-24.3209,Q,Q
2023-03-15 14:08:49:758,0,4.26527,-5.98238,-24.3188,Q,Q
2023-03-15 14:08:49:768,0,4.26487,-5.98219,-24.315,Q,Q
2023-03-15 14:08:49:778,0,4.2686,-5.98086,-24.3137,Q,Q
2023-03-15 14:08:49:788,0,4.27354,-5.98213,-24.308,Q,Q
2023-03-15 14:08:49:798,0,4.27828,-5.97798,-24.3011,Q,Q
2023-03-15 14:08:49:808,0,4.27912,-5.97758,-24.2911,Q,Q
2023-03-15 14:08:49:818,0,4.2858,-5.97457,-24.2862,Q,Q
2023-03-15 14:08:49:828,0,4.29167,-5.97136,-24.2796,Q,Q
2023-03-15 14:08:49:838,0,4.298,-5.97324,-24.2707,Q,Q
2023-03-15 14:08:49:848,0,4.301,-5.97209,-24.2658,Q,Q
2023-03-15 14:08:49:858,0,4.30564,-5.97222,-24.2569,Q,Q
2023-03-15 14:08:49:868,0,4.3062,-5.97387,-24.2489,Q,Q
2023-03-15 14:08:49:878,0,4.30694,-5.9767,-24.2396,Q,Q
2023-03-15 14:08:49:888,0,4.30426,-5.97739,-24.2341,Q,Q
2023-03-15 14:08:49:898,0,4.30195,-5.98253,-24.2231,Q,Q
2023-03-15 14:08:49:908,0,4.2973,-5.98751,-24.2153,Q,Q
2023-03-15 14:08:49:918,0,4.29284,-5.9911,-24.2094,Q,Q
2023-03-15 14:08:49:928,0,4.28755,-5.99817,-24.1994,Q,Q
2023-03-15 14:08:49:938,0,4.27813,-6.00221,-24.1896,Q,Q
2023-03-15 14:08:49:948,0,4.2702,-6.00355,-24.1828,Q,Q
2023-03-15 14:08:49:958,0,4.26409,-6.01182,-24.179,Q,Q
2023-03-15 14:08:49:968,0,4.25929,-6.01644,-24.1694,Q,Q
2023-03-15 14:08:49:978,0,4.2516,-6.02302,-24.1629,Q,Q
2023-03-15 14:08:49:988,0,4.24434,-6.02148,-24.1582,Q,Q
2023-03-15 14:08:49:998,0,4.24226,-6.02268,-24.1558,Q,Q
2023-03-15 14:08:50:8,0,4.24183,-6.02447,-24.1503,Q,Q
2023-03-15 14:08:50:18,0,4.24304,-6.0304,-24.1429,Q,Q
2023-03-15 14:08:50:28,0,4.23871,-6.03324,-24.142,Q,Q
2023-03-15 14:08:50:38,0,4.23674,-6.03612,-24.1397,Q,Q
2023-03-15 14:08:50:48,0,4.23277,-6.03544,-24.1406,Q,Q
2023-03-15 14:08:50:58,0,4.2286,-6.03826,-24.141,Q,Q
2023-03-15 14:08:50:68,0,4.22479,-6.0389,-24.1425,Q,Q
2023-03-15 14:08:50:78,0,4.2214,-6.0368,-24.1453,Q,Q
2023-03-15 14:08:50:88,0,4.21818,-6.0414,-24.1458,Q,Q
2023-03-15 14:08:50:97,0,4.21598,-6.04312,-24.1477,Q,Q
2023-03-15 14:08:50:108,0,4.20959,-6.04577,-24.1467,Q,Q
2023-03-15 14:08:50:118,0,4.20612,-6.0451,-24.1459,Q,Q
2023-03-15 14:08:50:128,0,4.20603,-6.04491,-24.1438,Q,Q
2023-03-15 14:08:50:138,0,4.20458,-6.05173,-24.1372,Q,Q
2023-03-15 14:08:50:148,0,4.2041,-6.05584,-24.1312,Q,Q
2023-03-15 14:08:50:158,0,4.20203,-6.05531,-24.1227,Q,Q
2023-03-15 14:08:50:168,0,4.20288,-6.05442,-24.11,Q,Q
2023-03-15 14:08:50:178,0,4.19597,-6.06332,-24.1004,Q,Q
2023-03-15 14:08:50:188,0,4.17629,-6.06851,-24.0893,Q,Q
2023-03-15 14:08:50:198,0,4.16518,-6.06952,-24.084,Q,Q
2023-03-15 14:08:50:208,0,4.16977,-6.07109,-24.073,Q,Q
2023-03-15 14:08:50:218,0,4.1775,-6.08122,-24.0582,Q,Q
2023-03-15 14:08:50:228,0,4.18424,-6.09417,-24.0409,Q,Q
2023-03-15 14:08:50:238,0,4.1851,-6.11415,-24.0248,Q,Q
2023-03-15 14:08:50:248,0,4.17581,-6.13625,-24.0096,Q,Q
2023-03-15 14:08:50:258,0,4.16446,-6.15365,-23.9971,Q,Q
2023-03-15 14:08:50:268,0,4.1522,-6.16369,-23.9771,Q,Q
2023-03-15 14:08:50:277,0,4.13833,-6.17249,-23.9547,Q,Q
2023-03-15 14:08:50:287,0,4.12713,-6.17776,-23.9291,Q,Q
2023-03-15 14:08:50:298,0,4.11846,-6.1824,-23.9043,Q,Q
2023-03-15 14:08:50:308,0,4.10974,-6.18685,-23.8857,Q,Q
2023-03-15 14:08:50:318,0,4.09926,-6.19485,-23.8676,Q,Q
2023-03-15 14:08:50:328,0,4.0938,-6.19935,-23.8523,Q,Q
2023-03-15 14:08:50:338,0,4.08889,-6.20356,-23.8384,Q,Q
2023-03-15 14:08:50:348,0,4.08527,-6.21035,-23.8274,Q,Q
2023-03-15 14:08:50:358,0,4.08237,-6.21618,-23.8205,Q,Q
2023-03-15 14:08:50:368,0,4.08036,-6.22319,-23.8164,Q,Q
2023-03-15 14:08:50:378,0,4.07725,-6.23229,-23.815,Q,Q
2023-03-15 14:08:50:388,0,4.07988,-6.24073,-23.8124,Q,Q
2023-03-15 14:08:50:398,0,4.08807,-6.2507,-23.8144,Q,Q
2023-03-15 14:08:50:408,0,4.09131,-6.25775,-23.814,Q,Q
2023-03-15 14:08:50:418,0,4.09856,-6.26391,-23.8115,Q,Q
2023-03-15 14:08:50:428,0,4.1017,-6.26967,-23.81,Q,Q
2023-03-15 14:08:50:438,0,4.10855,-6.2713,-23.8079,Q,Q
2023-03-15 14:08:50:448,0,4.11409,-6.2713,-23.803,Q,Q
2023-03-15 14:08:50:458,0,4.11723,-6.26728,-23.7965,Q,Q
2023-03-15 14:08:50:468,0,4.11923,-6.267,-23.7891,Q,Q
2023-03-15 14:08:50:478,0,4.12001,-6.26533,-23.7778,Q,Q
2023-03-15 14:08:50:488,0,4.12439,-6.26879,-23.7654,Q,Q
2023-03-15 14:08:50:498,0,4.12943,-6.2719,-23.7561,Q,Q
2023-03-15 14:08:50:508,0,4.13403,-6.27358,-23.7485,Q,Q
2023-03-15 14:08:50:518,0,4.13542,-6.27567,-23.7435,Q,Q
2023-03-15 14:08:50:528,0,4.1394,-6.27429,-23.7396,Q,Q
2023-03-15 14:08:50:538,0,4.14117,-6.27,-23.7347,Q,Q
2023-03-15 14:08:50:548,0,4.14284,-6.27167,-23.7291,Q,Q
2023-03-15 14:08:50:558,0,4.14864,-6.26769,-23.7216,Q,Q
2023-03-15 14:08:50:568,0,4.14832,-6.26469,-23.7181,Q,Q
2023-03-15 14:08:50:578,0,4.14884,-6.26819,-23.7122,Q,Q
2023-03-15 14:08:50:588,0,4.14496,-6.27012,-23.7077,Q,Q
2023-03-15 14:08:50:598,0,4.14028,-6.27149,-23.706,Q,Q
2023-03-15 14:08:50:608,0,4.13785,-6.27771,-23.7006,Q,Q
2023-03-15 14:08:50:618,0,4.13554,-6.28054,-23.6986,Q,Q
2023-03-15 14:08:50:628,0,4.1317,-6.28486,-23.6935,Q,Q
2023-03-15 14:08:50:638,0,4.13017,-6.29009,-23.6848,Q,Q
2023-03-15 14:08:50:648,0,4.13222,-6.29679,-23.6755,Q,Q
2023-03-15 14:08:50:658,0,4.13493,-6.30509,-23.6651,Q,Q
2023-03-15 14:08:50:668,0,4.13826,-6.31305,-23.653,Q,Q
2023-03-15 14:08:50:678,0,4.1429,-6.32292,-23.6376,Q,Q
2023-03-15 14:08:50:688,0,4.14654,-6.3276,-23.6239,Q,Q
2023-03-15 14:08:50:698,0,4.15006,-6.33181,-23.6055,Q,Q
2023-03-15 14:08:50:708,0,4.15435,-6.33796,-23.5866,Q,Q
2023-03-15 14:08:50:718,0,4.15928,-6.3427,-23.573,Q,Q
2023-03-15 14:08:50:728,0,4.16402,-6.34638,-23.5564,Q,Q
2023-03-15 14:08:50:738,0,4.1668,-6.35035,-23.5383,Q,Q
2023-03-15 14:08:50:748,0,4.17498,-6.35749,-23.5211,Q,Q
2023-03-15 14:08:50:758,0,4.17784,-6.36249,-23.5058,Q,Q
2023-03-15 14:08:50:768,0,4.18352,-6.36573,-23.4947,Q,Q
2023-03-15 14:08:50:778,0,4.18514,-6.37214,-23.4861,Q,Q
2023-03-15 14:08:50:788,0,4.18706,-6.37705,-23.4766,Q,Q
2023-03-15 14:08:50:798,0,4.18864,-6.38132,-23.47,Q,Q
2023-03-15 14:08:50:808,0,4.18899,-6.38374,-23.4629,Q,Q
2023-03-15 14:08:50:818,0,4.19078,-6.38232,-23.4603,Q,Q
2023-03-15 14:08:50:828,0,4.1956,-6.3823,-23.4586,Q,Q
2023-03-15 14:08:50:838,0,4.19858,-6.38368,-23.4512,Q,Q
2023-03-15 14:08:50:848,0,4.19878,-6.38463,-23.4471,Q,Q
2023-03-15 14:08:50:858,0,4.19898,-6.38529,-23.4403,Q,Q
2023-03-15 14:08:50:868,0,4.20194,-6.38942,-23.433,Q,Q
2023-03-15 14:08:50:878,0,4.19888,-6.3938,-23.4231,Q,Q
2023-03-15 14:08:50:888,0,4.20002,-6.39766,-23.4179,Q,Q
2023-03-15 14:08:50:898,0,4.19695,-6.39952,-23.4087,Q,Q
2023-03-15 14:08:50:908,0,4.1976,-6.40486,-23.4025,Q,Q
2023-03-15 14:08:50:918,0,4.19922,-6.40809,-23.3971,Q,Q
2023-03-15 14:08:50:928,0,4.20006,-6.40824,-23.3937,Q,Q
2023-03-15 14:08:50:938,0,4.19867,-6.40556,-23.3881,Q,Q
2023-03-15 14:08:50:948,0,4.19607,-6.40302,-23.3827,Q,Q
2023-03-15 14:08:50:958,0,4.19494,-6.40493,-23.377,Q,Q
2023-03-15 14:08:50:968,0,4.1925,-6.40318,-23.3722,Q,Q
2023-03-15 14:08:50:978,0,4.19563,-6.40402,-23.3682,Q,Q
2023-03-15 14:08:50:988,0,4.20494,-6.40074,-23.3683,Q,Q
2023-03-15 14:08:50:998,0,4.21792,-6.40005,-23.3689,Q,Q
2023-03-15 14:08:51:8,0,4.2351,-6.40428,-23.3672,Q,Q
2023-03-15 14:08:51:18,0,4.25305,-6.40742,-23.3632,Q,Q
2023-03-15 14:08:51:28,0,4.26717,-6.40808,-23.3547,Q,Q
2023-03-15 14:08:51:38,0,4.28177,-6.40636,-23.3459,Q,Q
2023-03-15 14:08:51:48,0,4.29592,-6.40564,-23.3341,Q,Q
2023-03-15 14:08:51:58,0,4.31394,-6.40366,-23.325,Q,Q
2023-03-15 14:08:51:68,0,4.32287,-6.3992,-23.3081,Q,Q
2023-03-15 14:08:51:78,0,4.32641,-6.39766,-23.2898,Q,Q
2023-03-15 14:08:51:88,0,4.32925,-6.39092,-23.2723,Q,Q
2023-03-15 14:08:51:98,0,4.33075,-6.3816,-23.2553,Q,Q
2023-03-15 14:08:51:108,0,4.32898,-6.37427,-23.2403,Q,Q
2023-03-15 14:08:51:118,0,4.32452,-6.36711,-23.2318,Q,Q
2023-03-15 14:08:51:128,0,4.32533,-6.36576,-23.22,Q,Q
2023-03-15 14:08:51:138,0,4.32303,-6.36912,-23.2055,Q,Q
2023-03-15 14:08:51:148,0,4.32464,-6.37836,-23.1927,Q,Q
2023-03-15 14:08:51:158,0,4.32705,-6.38763,-23.1795,Q,Q
2023-03-15 14:08:51:168,0,4.32598,-6.39784,-23.1694,Q,Q
2023-03-15 14:08:51:178,0,4.32366,-6.4075,-23.1682,Q,Q
2023-03-15 14:08:51:188,0,4.31953,-6.4152,-23.1626,Q,Q
2023-03-15 14:08:51:198,0,4.313,-6.42497,-23.1552,Q,Q
2023-03-15 14:08:51:208,0,4.30215,-6.43195,-23.1449,Q,Q
2023-03-15 14:08:51:218,0,4.29432,-6.43452,-23.1373,Q,Q
2023-03-15 14:08:51:228,0,4.28433,-6.43617,-23.1352,Q,Q
2023-03-15 14:08:51:238,0,4.28126,-6.43604,-23.1379,Q,Q
2023-03-15 14:08:51:248,0,4.28302,-6.43191,-23.1426,Q,Q
2023-03-15 14:08:51:258,0,4.28625,-6.43009,-23.1512,Q,Q
2023-03-15 14:08:51:268,0,4.29084,-6.42723,-23.1617,Q,Q
2023-03-15 14:08:51:278,0,4.29838,-6.41782,-23.1729,Q,Q
2023-03-15 14:08:51:287,0,4.31158,-6.40971,-23.1856,Q,Q
2023-03-15 14:08:51:297,0,4.32513,-6.40178,-23.1954,Q,Q
2023-03-15 14:08:51:308,0,4.33715,-6.39818,-23.2096,Q,Q
2023-03-15 14:08:51:318,0,4.34574,-6.39613,-23.2208,Q,Q
2023-03-15 14:08:51:328,0,4.35602,-6.38998,-23.2319,Q,Q
2023-03-15 14:08:51:338,0,4.36912,-6.38677,-23.2415,Q,Q
2023-03-15 14:08:51:348,0,4.38168,-6.38318,-23.2492,Q,Q
2023-03-15 14:08:51:358,0,4.38632,-6.37481,-23.254,Q,Q
2023-03-15 14:08:51:368,0,4.38797,-6.36267,-23.2609,Q,Q
2023-03-15 14:08:51:378,0,4.38903,-6.34933,-23.2663,Q,Q
2023-03-15 14:08:51:388,0,4.38751,-6.33684,-23.2661,Q,Q
2023-03-15 14:08:51:398,0,4.38644,-6.32865,-23.2664,Q,Q
2023-03-15 14:08:51:408,0,4.3827,-6.32264,-23.2653,Q,Q
2023-03-15 14:08:51:418,0,4.37983,-6.31819,-23.267,Q,Q
2023-03-15 14:08:51:428,0,4.37563,-6.31304,-23.2725,Q,Q
2023-03-15 14:08:51:438,0,4.3679,-6.31006,-23.2804,Q,Q
2023-03-15 14:08:51:448,0,4.36262,-6.30776,-23.2909,Q,Q
2023-03-15 14:08:51:458,0,4.35159,-6.30048,-23.2972,Q,Q
2023-03-15 14:08:51:468,0,4.34302,-6.29662,-23.3068,Q,Q
2023-03-15 14:08:51:478,0,4.33723,-6.29627,-23.3158,Q,Q
2023-03-15 14:08:51:488,0,4.33532,-6.29475,-23.3265,Q,Q
2023-03-15 14:08:51:498,0,4.3298,-6.29629,-23.3346,Q,Q
2023-03-15 14:08:51:508,0,4.33162,-6.29362,-23.3408,Q,Q
2023-03-15 14:08:51:518,0,4.34201,-6.28481,-23.3462,Q,Q
2023-03-15 14:08:51:528,0,4.35661,-6.28522,-23.3529,Q,Q
2023-03-15 14:08:51:538,0,4.37133,-6.28356,-23.3543,Q,Q
2023-03-15 14:08:51:548,0,4.38407,-6.28508,-23.3581,Q,Q
2023-03-15 14:08:51:558,0,4.40061,-6.28715,-23.3562,Q,Q
2023-03-15 14:08:51:568,0,4.41829,-6.28612,-23.3503,Q,Q
2023-03-15 14:08:51:578,0,4.43359,-6.28396,-23.3418,Q,Q
2023-03-15 14:08:51:588,0,4.44899,-6.28841,-23.3316,Q,Q
2023-03-15 14:08:51:598,0,4.46422,-6.29239,-23.322,Q,Q
2023-03-15 14:08:51:608,0,4.4782,-6.29552,-23.3111,Q,Q
2023-03-15 14:08:51:618,0,4.49294,-6.29906,-23.2986,Q,Q
2023-03-15 14:08:51:628,0,4.50127,-6.30247,-23.2889,Q,Q
2023-03-15 14:08:51:637,0,4.51043,-6.29951,-23.2792,Q,Q
2023-03-15 14:08:51:647,0,4.51959,-6.29543,-23.2681,Q,Q
2023-03-15 14:08:51:658,0,4.52358,-6.29296,-23.2546,Q,Q
2023-03-15 14:08:51:668,0,4.52726,-6.28856,-23.2446,Q,Q
2023-03-15 14:08:51:678,0,4.53224,-6.28445,-23.2346,Q,Q
2023-03-15 14:08:51:688,0,4.53547,-6.28041,-23.229,Q,Q
2023-03-15 14:08:51:698,0,4.53557,-6.28144,-23.2228,Q,Q
2023-03-15 14:08:51:708,0,4.53573,-6.27803,-23.218,Q,Q
2023-03-15 14:08:51:718,0,4.53522,-6.27384,-23.2133,Q,Q
2023-03-15 14:08:51:728,0,4.5309,-6.27255,-23.2084,Q,Q
2023-03-15 14:08:51:738,0,4.5266,-6.27251,-23.2043,Q,Q
2023-03-15 14:08:51:748,0,4.52368,-6.27821,-23.2001,Q,Q
2023-03-15 14:08:51:758,0,4.51815,-6.27795,-23.1983,Q,Q
2023-03-15 14:08:51:767,0,4.5131,-6.27964,-23.196,Q,Q
2023-03-15 14:08:51:777,0,4.50717,-6.27952,-23.1974,Q,Q
2023-03-15 14:08:51:788,0,4.50407,-6.27861,-23.1924,Q,Q
2023-03-15 14:08:51:798,0,4.49497,-6.28499,-23.1887,Q,Q
2023-03-15 14:08:51:808,0,4.48587,-6.28868,-23.185,Q,Q
2023-03-15 14:08:51:818,0,4.47616,-6.29301,-23.1805,Q,Q
2023-03-15 14:08:51:828,0,4.46812,-6.29174,-23.1747,Q,Q
2023-03-15 14:08:51:838,0,4.46171,-6.29359,-23.1698,Q,Q
2023-03-15 14:08:51:848,0,4.45445,-6.29752,-23.1647,Q,Q
2023-03-15 14:08:51:858,0,4.4472,-6.29639,-23.1603,Q,Q
2023-03-15 14:08:51:868,0,4.44459,-6.3024,-23.1598,Q,Q
2023-03-15 14:08:51:878,0,4.44338,-6.3053,-23.1531,Q,Q
2023-03-15 14:08:51:888,0,4.44402,-6.30831,-23.1501,Q,Q
2023-03-15 14:08:51:898,0,4.44595,-6.30724,-23.1474,Q,Q
2023-03-15 14:08:51:908,0,4.44293,-6.3047,-23.1471,Q,Q
2023-03-15 14:08:51:918,0,4.44413,-6.30218,-23.1465,Q,Q
2023-03-15 14:08:51:928,0,4.44108,-6.2973,-23.1433,Q,Q
2023-03-15 14:08:51:938,0,4.43926,-6.29235,-23.1424,Q,Q
2023-03-15 14:08:51:948,0,4.43966,-6.28839,-23.1433,Q,Q
2023-03-15 14:08:51:958,0,4.43794,-6.28089,-23.1456,Q,Q
2023-03-15 14:08:51:968,0,4.44405,-6.2736,-23.1462,Q,Q
2023-03-15 14:08:51:978,0,4.45669,-6.26092,-23.1459,Q,Q
2023-03-15 14:08:51:988,0,4.46473,-6.24644,-23.1439,Q,Q
2023-03-15 14:08:51:998,0,4.47197,-6.23644,-23.1379,Q,Q
2023-03-15 14:08:52:8,0,4.48086,-6.22964,-23.1301,Q,Q
2023-03-15 14:08:52:18,0,4.48882,-6.22268,-23.1268,Q,Q
2023-03-15 14:08:52:28,0,4.49793,-6.2141,-23.13,Q,Q
2023-03-15 14:08:52:38,0,4.50459,-6.20732,-23.133,Q,Q
2023-03-15 14:08:52:48,0,4.50145,-6.19888,-23.137,Q,Q
2023-03-15 14:08:52:58,0,4.49785,-6.19336,-23.1453,Q,Q
2023-03-15 14:08:52:68,0,4.50143,-6.1943,-23.1554,Q,Q
2023-03-15 14:08:52:78,0,4.50792,-6.19981,-23.1593,Q,Q
2023-03-15 14:08:52:88,0,4.51579,-6.20563,-23.1587,Q,Q
2023-03-15 14:08:52:97,0,4.52463,-6.21429,-23.1578,Q,Q
2023-03-15 14:08:52:108,0,4.52794,-6.22119,-23.1599,Q,Q
2023-03-15 14:08:52:118,0,4.52805,-6.22688,-23.1612,Q,Q
2023-03-15 14:08:52:128,0,4.52331,-6.2297,-23.1626,Q,Q
2023-03-15 14:08:52:138,0,4.51529,-6.22975,-23.1572,Q,Q
2023-03-15 14:08:52:148,0,4.50903,-6.22975,-23.1512,Q,Q
2023-03-15 14:08:52:158,0,4.50177,-6.23062,-23.1422,Q,Q
2023-03-15 14:08:52:168,0,4.49415,-6.22771,-23.1356,Q,Q
2023-03-15 14:08:52:178,0,4.48866,-6.22239,-23.1305,Q,Q
2023-03-15 14:08:52:188,0,4.47792,-6.21541,-23.1288,Q,Q
2023-03-15 14:08:52:198,0,4.46505,-6.20678,-23.1273,Q,Q
2023-03-15 14:08:52:208,0,4.45297,-6.20195,-23.1269,Q,Q
2023-03-15 14:08:52:218,0,4.44628,-6.19534,-23.1275,Q,Q
2023-03-15 14:08:52:228,0,4.43857,-6.19003,-23.1286,Q,Q
2023-03-15 14:08:52:238,0,4.43161,-6.18571,-23.1306,Q,Q
2023-03-15 14:08:52:248,0,4.42712,-6.17896,-23.1336,Q,Q
2023-03-15 14:08:52:258,0,4.42394,-6.17035,-23.1367,Q,Q
2023-03-15 14:08:52:268,0,4.42094,-6.15506,-23.1349,Q,Q
2023-03-15 14:08:52:278,0,4.42169,-6.14278,-23.128,Q,Q
2023-03-15 14:08:52:288,0,4.41901,-6.13559,-23.1185,Q,Q
2023-03-15 14:08:52:298,0,4.4135,-6.12162,-23.1159,Q,Q
2023-03-15 14:08:52:308,0,4.40468,-6.11075,-23.1164,Q,Q
2023-03-15 14:08:52:318,0,4.38947,-6.09666,-23.1184,Q,Q
2023-03-15 14:08:52:328,0,4.37658,-6.08115,-23.1275,Q,Q
2023-03-15 14:08:52:338,0,4.3622,-6.06811,-23.1401,Q,Q
2023-03-15 14:08:52:348,0,4.34529,-6.06292,-23.1519,Q,Q
2023-03-15 14:08:52:358,0,4.32508,-6.05736,-23.1702,Q,Q
2023-03-15 14:08:52:368,0,4.30655,-6.04812,-23.1936,Q,Q
2023-03-15 14:08:52:378,0,4.29715,-6.03245,-23.2197,Q,Q
2023-03-15 14:08:52:388,0,4.29243,-6.01674,-23.2482,Q,Q
2023-03-15 14:08:52:398,0,4.28547,-6.00186,-23.275,Q,Q
2023-03-15 14:08:52:408,0,4.27311,-5.98617,-23.2996,Q,Q
2023-03-15 14:08:52:418,0,4.26347,-5.96725,-23.3245,Q,Q
2023-03-15 14:08:52:428,0,4.25815,-5.95146,-23.3515,Q,Q
2023-03-15 14:08:52:438,0,4.25353,-5.92952,-23.3779,Q,Q
2023-03-15 14:08:52:448,0,4.24497,-5.91137,-23.3982,Q,Q
2023-03-15 14:08:52:458,0,4.23377,-5.89702,-23.4221,Q,Q
2023-03-15 14:08:52:468,0,4.22462,-5.88018,-23.4402,Q,Q
2023-03-15 14:08:52:478,0,4.22276,-5.86257,-23.4603,Q,Q
2023-03-15 14:08:52:488,0,4.221,-5.84629,-23.4786,Q,Q
2023-03-15 14:08:52:498,0,4.21887,-5.83306,-23.4944,Q,Q
2023-03-15 14:08:52:508,0,4.22439,-5.82438,-23.5084,Q,Q
2023-03-15 14:08:52:518,0,4.22536,-5.80968,-23.5184,Q,Q
2023-03-15 14:08:52:528,0,4.23092,-5.7983,-23.5257,Q,Q
2023-03-15 14:08:52:538,0,4.23751,-5.78825,-23.5308,Q,Q
2023-03-15 14:08:52:548,0,4.24468,-5.78002,-23.5351,Q,Q
2023-03-15 14:08:52:558,0,4.24966,-5.77183,-23.534,Q,Q
2023-03-15 14:08:52:568,0,4.25148,-5.76389,-23.5338,Q,Q
2023-03-15 14:08:52:578,0,4.24864,-5.74922,-23.5349,Q,Q
2023-03-15 14:08:52:588,0,4.24588,-5.73634,-23.5363,Q,Q
2023-03-15 14:08:52:598,0,4.24152,-5.71968,-23.5421,Q,Q
2023-03-15 14:08:52:608,0,4.23475,-5.69583,-23.5487,Q,Q
2023-03-15 14:08:52:618,0,4.23125,-5.67183,-23.561,Q,Q
2023-03-15 14:08:52:628,0,4.22115,-5.64881,-23.5778,Q,Q
2023-03-15 14:08:52:638,0,4.2089,-5.62131,-23.6001,Q,Q
2023-03-15 14:08:52:648,0,4.18974,-5.59819,-23.6293,Q,Q
2023-03-15 14:08:52:657,0,4.1662,-5.57534,-23.6587,Q,Q
2023-03-15 14:08:52:667,0,4.13507,-5.54728,-23.6954,Q,Q
2023-03-15 14:08:52:678,0,4.11126,-5.51569,-23.7375,Q,Q
2023-03-15 14:08:52:688,0,4.08855,-5.48411,-23.7831,Q,Q
2023-03-15 14:08:52:698,0,4.05877,-5.45831,-23.8355,Q,Q
2023-03-15 14:08:52:708,0,4.028,-5.43079,-23.8954,Q,Q
2023-03-15 14:08:52:718,0,3.99512,-5.39975,-23.9588,Q,Q
2023-03-15 14:08:52:728,0,3.9608,-5.36841,-24.0282,Q,Q
2023-03-15 14:08:52:738,0,3.92748,-5.3377,-24.1013,Q,Q
2023-03-15 14:08:52:748,0,3.8946,-5.30607,-24.1821,Q,Q
2023-03-15 14:08:52:758,0,3.85899,-5.26757,-24.2662,Q,Q
2023-03-15 14:08:52:768,0,3.81507,-5.2359,-24.3534,Q,Q
2023-03-15 14:08:52:778,0,3.76532,-5.20225,-24.4492,Q,Q
2023-03-15 14:08:52:788,0,3.71142,-5.15866,-24.5524,Q,Q
2023-03-15 14:08:52:798,0,3.66356,-5.10742,-24.6652,Q,Q
2023-03-15 14:08:52:808,0,3.62499,-5.04549,-24.7825,Q,Q
2023-03-15 14:08:52:818,0,3.59084,-4.97859,-24.8977,Q,Q
2023-03-15 14:08:52:828,0,3.5518,-4.91725,-25.0189,Q,Q
2023-03-15 14:08:52:838,0,3.51125,-4.85999,-25.1376,Q,Q
2023-03-15 14:08:52:848,0,3.46576,-4.81312,-25.2573,Q,Q
2023-03-15 14:08:52:858,0,3.418,-4.77094,-25.3677,Q,Q
2023-03-15 14:08:52:868,0,3.38172,-4.72625,-25.4713,Q,Q
2023-03-15 14:08:52:878,0,3.35317,-4.6872,-25.5697,Q,Q
2023-03-15 14:08:52:888,0,3.3298,-4.64864,-25.6552,Q,Q
2023-03-15 14:08:52:898,0,3.31038,-4.61283,-25.7291,Q,Q
2023-03-15 14:08:52:908,0,3.2961,-4.58339,-25.7975,Q,Q
2023-03-15 14:08:52:918,0,3.27867,-4.56135,-25.8569,Q,Q
2023-03-15 14:08:52:928,0,3.26334,-4.54258,-25.906,Q,Q
2023-03-15 14:08:52:938,0,3.24839,-4.52778,-25.9448,Q,Q
2023-03-15 14:08:52:948,0,3.23709,-4.51769,-25.9745,Q,Q
2023-03-15 14:08:52:958,0,3.224,-4.50624,-25.999,Q,Q
2023-03-15 14:08:52:968,0,3.2144,-4.49419,-26.0207,Q,Q
2023-03-15 14:08:52:978,0,3.20043,-4.48501,-26.0321,Q,Q
2023-03-15 14:08:52:988,0,3.18857,-4.47839,-26.0347,Q,Q
2023-03-15 14:08:52:998,0,3.18069,-4.47906,-26.0321,Q,Q
2023-03-15 14:08:53:8,0,3.17505,-4.48851,-26.023,Q,Q
2023-03-15 14:08:53:18,0,3.16733,-4.50272,-26.0135,Q,Q
2023-03-15 14:08:53:28,0,3.15702,-4.51702,-26.0013,Q,Q
2023-03-15 14:08:53:38,0,3.14372,-4.52819,-25.9913,Q,Q
2023-03-15 14:08:53:48,0,3.13076,-4.53517,-25.9832,Q,Q
2023-03-15 14:08:53:58,0,3.11853,-4.54227,-25.9764,Q,Q
2023-03-15 14:08:53:68,0,3.10921,-4.54912,-25.9687,Q,Q
2023-03-15 14:08:53:78,0,3.09784,-4.55565,-25.9642,Q,Q
2023-03-15 14:08:53:88,0,3.08216,-4.5616,-25.9658,Q,Q
2023-03-15 14:08:53:98,0,3.07009,-4.56236,-25.9732,Q,Q
2023-03-15 14:08:53:108,0,3.06136,-4.56284,-25.9857,Q,Q
2023-03-15 14:08:53:118,0,3.0506,-4.56123,-25.9956,Q,Q
2023-03-15 14:08:53:128,0,3.04333,-4.55982,-26.01,Q,Q
2023-03-15 14:08:53:138,0,3.04042,-4.55483,-26.0241,Q,Q
2023-03-15 14:08:53:148,0,3.04316,-4.55569,-26.0408,Q,Q
2023-03-15 14:08:53:158,0,3.04554,-4.55578,-26.059,Q,Q
2023-03-15 14:08:53:168,0,3.05032,-4.55442,-26.0748,Q,Q
2023-03-15 14:08:53:178,0,3.05706,-4.55303,-26.0861,Q,Q
2023-03-15 14:08:53:188,0,3.06746,-4.55243,-26.0956,Q,Q
2023-03-15 14:08:53:198,0,3.07764,-4.55357,-26.1072,Q,Q
2023-03-15 14:08:53:208,0,3.08787,-4.55483,-26.1146,Q,Q
2023-03-15 14:08:53:218,0,3.09699,-4.55487,-26.1195,Q,Q
2023-03-15 14:08:53:228,0,3.10818,-4.55241,-26.1271,Q,Q
2023-03-15 14:08:53:238,0,3.11911,-4.55094,-26.1308,Q,Q
2023-03-15 14:08:53:248,0,3.12618,-4.54485,-26.1368,Q,Q
2023-03-15 14:08:53:258,0,3.13601,-4.54799,-26.1395,Q,Q
2023-03-15 14:08:53:268,0,3.14311,-4.55217,-26.1416,Q,Q
2023-03-15 14:08:53:278,0,3.15112,-4.55666,-26.1455,Q,Q
2023-03-15 14:08:53:288,0,3.15763,-4.55912,-26.1473,Q,Q
2023-03-15 14:08:53:298,0,3.15907,-4.56521,-26.1475,Q,Q
2023-03-15 14:08:53:308,0,3.16335,-4.57167,-26.1489,Q,Q
2023-03-15 14:08:53:318,0,3.16532,-4.57931,-26.1495,Q,Q
2023-03-15 14:08:53:328,0,3.16681,-4.58763,-26.1489,Q,Q
2023-03-15 14:08:53:338,0,3.1665,-4.59184,-26.1492,Q,Q
2023-03-15 14:08:53:348,0,3.17122,-4.59946,-26.1498,Q,Q
2023-03-15 14:08:53:358,0,3.17505,-4.60571,-26.1511,Q,Q
2023-03-15 14:08:53:368,0,3.17911,-4.6147,-26.149,Q,Q
2023-03-15 14:08:53:378,0,3.18097,-4.62283,-26.1463,Q,Q
2023-03-15 14:08:53:388,0,3.18309,-4.63252,-26.1463,Q,Q
2023-03-15 14:08:53:398,0,3.18427,-4.64587,-26.1437,Q,Q
2023-03-15 14:08:53:408,0,3.19022,-4.65747,-26.1402,Q,Q
2023-03-15 14:08:53:418,0,3.19815,-4.67076,-26.1354,Q,Q
2023-03-15 14:08:53:428,0,3.20496,-4.68142,-26.1284,Q,Q
2023-03-15 14:08:53:438,0,3.21152,-4.69664,-26.1192,Q,Q
2023-03-15 14:08:53:448,0,3.21584,-4.70965,-26.101,Q,Q
2023-03-15 14:08:53:458,0,3.22273,-4.72481,-26.0848,Q,Q
2023-03-15 14:08:53:468,0,3.22698,-4.73605,-26.061,Q,Q
2023-03-15 14:08:53:478,0,3.23127,-4.74656,-26.0441,Q,Q
2023-03-15 14:08:53:488,0,3.2359,-4.7593,-26.0243,Q,Q
2023-03-15 14:08:53:498,0,3.24065,-4.76604,-26.0061,Q,Q
2023-03-15 14:08:53:508,0,3.24252,-4.77386,-25.9864,Q,Q
2023-03-15 14:08:53:518,0,3.24287,-4.78257,-25.9709,Q,Q
2023-03-15 14:08:53:528,0,3.24388,-4.7907,-25.9543,Q,Q
2023-03-15 14:08:53:538,0,3.24791,-4.79588,-25.9382,Q,Q
2023-03-15 14:08:53:548,0,3.25529,-4.80486,-25.9232,Q,Q
2023-03-15 14:08:53:558,0,3.25896,-4.81734,-25.9088,Q,Q
2023-03-15 14:08:53:568,0,3.26601,-4.83313,-25.8962,Q,Q
2023-03-15 14:08:53:578,0,3.26935,-4.84842,-25.8821,Q,Q
2023-03-15 14:08:53:588,0,3.27673,-4.86479,-25.8721,Q,Q
2023-03-15 14:08:53:598,0,3.28473,-4.88639,-25.8639,Q,Q
2023-03-15 14:08:53:608,0,3.29141,-4.9061,-25.8525,Q,Q
2023-03-15 14:08:53:618,0,3.29882,-4.92414,-25.8427,Q,Q
2023-03-15 14:08:53:628,0,3.3082,-4.94443,-25.8351,Q,Q
2023-03-15 14:08:53:638,0,3.31789,-4.96219,-25.8265,Q,Q
2023-03-15 14:08:53:648,0,3.32535,-4.97676,-25.8175,Q,Q
2023-03-15 14:08:53:658,0,3.33022,-4.99293,-25.8055,Q,Q
2023-03-15 14:08:53:668,0,3.33703,-5.00386,-25.7955,Q,Q
2023-03-15 14:08:53:678,0,3.34223,-5.01577,-25.786,Q,Q
2023-03-15 14:08:53:688,0,3.34595,-5.02598,-25.7753,Q,Q
2023-03-15 14:08:53:698,0,3.35173,-5.03812,-25.7654,Q,Q
2023-03-15 14:08:53:708,0,3.35698,-5.04722,-25.7592,Q,Q
2023-03-15 14:08:53:718,0,3.3613,-5.06066,-25.752,Q,Q
2023-03-15 14:08:53:728,0,3.36521,-5.06778,-25.7442,Q,Q
2023-03-15 14:08:53:738,0,3.37342,-5.0812,-25.7388,Q,Q
2023-03-15 14:08:53:748,0,3.37844,-5.09049,-25.7374,Q,Q
2023-03-15 14:08:53:758,0,3.38512,-5.10247,-25.7374,Q,Q
2023-03-15 14:08:53:768,0,3.39284,-5.10991,-25.7336,Q,Q
2023-03-15 14:08:53:777,0,3.39893,-5.11788,-25.732,Q,Q
2023-03-15 14:08:53:788,0,3.40558,-5.12884,-25.7305,Q,Q
2023-03-15 14:08:53:798,0,3.40603,-5.13337,-25.7303,Q,Q
2023-03-15 14:08:53:808,0,3.40558,-5.13762,-25.7296,Q,Q
2023-03-15 14:08:53:818,0,3.40325,-5.14166,-25.726,Q,Q
2023-03-15 14:08:53:828,0,3.39703,-5.14689,-25.7247,Q,Q
2023-03-15 14:08:53:838,0,3.39071,-5.14907,-25.7223,Q,Q
2023-03-15 14:08:53:848,0,3.38951,-5.15244,-25.7224,Q,Q
2023-03-15 14:08:53:858,0,3.38739,-5.15733,-25.7202,Q,Q
2023-03-15 14:08:53:868,0,3.38537,-5.15688,-25.7208,Q,Q
2023-03-15 14:08:53:878,0,3.38574,-5.15539,-25.7228,Q,Q
2023-03-15 14:08:53:888,0,3.38498,-5.15479,-25.7229,Q,Q
2023-03-15 14:08:53:898,0,3.38128,-5.15398,-25.7268,Q,Q
2023-03-15 14:08:53:908,0,3.37676,-5.15017,-25.7296,Q,Q
2023-03-15 14:08:53:917,0,3.37696,-5.15635,-25.7321,Q,Q
2023-03-15 14:08:53:927,0,3.37846,-5.16857,-25.7314,Q,Q
2023-03-15 14:08:53:937,0,3.38533,-5.18222,-25.7284,Q,Q
2023-03-15 14:08:53:947,0,3.39297,-5.19893,-25.7267,Q,Q
2023-03-15 14:08:53:957,0,3.39712,-5.21221,-25.7264,Q,Q
2023-03-15 14:08:53:968,0,3.39742,-5.22141,-25.7247,Q,Q
2023-03-15 14:08:53:978,0,3.39582,-5.22624,-25.7211,Q,Q
2023-03-15 14:08:53:988,0,3.39552,-5.23341,-25.7152,Q,Q
2023-03-15 14:08:53:998,0,3.38971,-5.2338,-25.709,Q,Q
2023-03-15 14:08:54:8,0,3.38741,-5.23816,-25.7024,Q,Q
2023-03-15 14:08:54:18,0,3.38491,-5.24169,-25.6958,Q,Q
2023-03-15 14:08:54:28,0,3.38497,-5.24162,-25.6955,Q,Q
2023-03-15 14:08:54:38,0,3.38419,-5.2421,-25.6954,Q,Q
2023-03-15 14:08:54:48,0,3.38043,-5.23922,-25.6994,Q,Q
2023-03-15 14:08:54:58,0,3.37842,-5.24055,-25.7037,Q,Q
2023-03-15 14:08:54:68,0,3.3781,-5.23769,-25.7138,Q,Q
2023-03-15 14:08:54:78,0,3.37843,-5.23992,-25.7288,Q,Q
2023-03-15 14:08:54:88,0,3.37866,-5.23935,-25.7458,Q,Q
2023-03-15 14:08:54:98,0,3.38346,-5.23994,-25.7658,Q,Q
2023-03-15 14:08:54:107,0,3.38881,-5.23923,-25.7883,Q,Q
2023-03-15 14:08:54:118,0,3.39633,-5.23916,-25.8036,Q,Q
2023-03-15 14:08:54:128,0,3.40629,-5.24023,-25.8165,Q,Q
2023-03-15 14:08:54:138,0,3.41611,-5.23912,-25.8249,Q,Q
2023-03-15 14:08:54:148,0,3.42376,-5.23524,-25.8349,Q,Q
2023-03-15 14:08:54:158,0,3.42844,-5.229,-25.8416,Q,Q
2023-03-15 14:08:54:168,0,3.43549,-5.22266,-25.8464,Q,Q
2023-03-15 14:08:54:178,0,3.44068,-5.21603,-25.8491,Q,Q
2023-03-15 14:08:54:188,0,3.44533,-5.21255,-25.8465,Q,Q
2023-03-15 14:08:54:198,0,3.45386,-5.21621,-25.8425,Q,Q
2023-03-15 14:08:54:208,0,3.45657,-5.21954,-25.8409,Q,Q
2023-03-15 14:08:54:218,0,3.45989,-5.22151,-25.8426,Q,Q
2023-03-15 14:08:54:228,0,3.46147,-5.2232,-25.8449,Q,Q
2023-03-15 14:08:54:238,0,3.46095,-5.22139,-25.8487,Q,Q
2023-03-15 14:08:54:248,0,3.46332,-5.21681,-25.8532,Q,Q
2023-03-15 14:08:54:258,0,3.46702,-5.21551,-25.857,Q,Q
2023-03-15 14:08:54:268,0,3.46712,-5.21091,-25.8629,Q,Q
2023-03-15 14:08:54:277,0,3.46986,-5.20607,-25.8682,Q,Q
2023-03-15 14:08:54:288,0,3.46475,-5.20285,-25.872,Q,Q
2023-03-15 14:08:54:298,0,3.46137,-5.2042,-25.8777,Q,Q
2023-03-15 14:08:54:308,0,3.45671,-5.21081,-25.8834,Q,Q
2023-03-15 14:08:54:318,0,3.45441,-5.21081,-25.892,Q,Q
2023-03-15 14:08:54:328,0,3.45434,-5.21513,-25.9001,Q,Q
2023-03-15 14:08:54:338,0,3.455,-5.21575,-25.9052,Q,Q
2023-03-15 14:08:54:348,0,3.45397,-5.22054,-25.9044,Q,Q
2023-03-15 14:08:54:358,0,3.45748,-5.22231,-25.9072,Q,Q
2023-03-15 14:08:54:368,0,3.46048,-5.22517,-25.9055,Q,Q
2023-03-15 14:08:54:378,0,3.46404,-5.23156,-25.9032,Q,Q
2023-03-15 14:08:54:388,0,3.46466,-5.2365,-25.8989,Q,Q
2023-03-15 14:08:54:398,0,3.46536,-5.23708,-25.8942,Q,Q
2023-03-15 14:08:54:408,0,3.46978,-5.23734,-25.892,Q,Q
2023-03-15 14:08:54:418,0,3.47006,-5.23672,-25.8872,Q,Q
2023-03-15 14:08:54:428,0,3.47054,-5.23204,-25.8849,Q,Q
2023-03-15 14:08:54:438,0,3.47211,-5.22585,-25.8824,Q,Q
2023-03-15 14:08:54:448,0,3.4754,-5.21983,-25.8827,Q,Q
2023-03-15 14:08:54:458,0,3.48249,-5.21416,-25.8865,Q,Q
2023-03-15 14:08:54:468,0,3.48692,-5.2083,-25.8907,Q,Q
2023-03-15 14:08:54:478,0,3.49901,-5.20383,-25.8963,Q,Q
2023-03-15 14:08:54:488,0,3.50468,-5.20248,-25.9014,Q,Q
2023-03-15 14:08:54:498,0,3.50489,-5.20049,-25.9097,Q,Q
2023-03-15 14:08:54:508,0,3.50906,-5.20238,-25.9184,Q,Q
2023-03-15 14:08:54:518,0,3.51254,-5.20071,-25.9261,Q,Q
2023-03-15 14:08:54:528,0,3.51384,-5.19999,-25.9318,Q,Q
2023-03-15 14:08:54:538,0,3.51188,-5.19855,-25.9381,Q,Q
2023-03-15 14:08:54:548,0,3.51327,-5.19281,-25.9448,Q,Q
2023-03-15 14:08:54:558,0,3.51428,-5.19125,-25.9508,Q,Q
2023-03-15 14:08:54:568,0,3.51201,-5.19011,-25.9603,Q,Q
2023-03-15 14:08:54:578,0,3.51139,-5.18783,-25.9739,Q,Q
2023-03-15 14:08:54:588,0,3.50802,-5.18599,-25.9912,Q,Q
2023-03-15 14:08:54:598,0,3.50634,-5.18327,-26.01,Q,Q
2023-03-15 14:08:54:608,0,3.50162,-5.17702,-26.028,Q,Q
2023-03-15 14:08:54:618,0,3.49351,-5.16987,-26.0474,Q,Q
2023-03-15 14:08:54:628,0,3.48605,-5.16453,-26.0701,Q,Q
2023-03-15 14:08:54:638,0,3.47753,-5.15692,-26.09,Q,Q
2023-03-15 14:08:54:648,0,3.46962,-5.15047,-26.11,Q,Q
2023-03-15 14:08:54:658,0,3.46035,-5.14528,-26.126,Q,Q
2023-03-15 14:08:54:668,0,3.45286,-5.13687,-26.1388,Q,Q
2023-03-15 14:08:54:678,0,3.44745,-5.12628,-26.1496,Q,Q
2023-03-15 14:08:54:688,0,3.44433,-5.12031,-26.164,Q,Q
2023-03-15 14:08:54:698,0,3.44293,-5.11456,-26.1708,Q,Q
2023-03-15 14:08:54:708,0,3.43786,-5.11122,-26.1767,Q,Q
2023-03-15 14:08:54:717,0,3.43464,-5.11171,-26.1812,Q,Q
2023-03-15 14:08:54:727,0,3.42988,-5.11043,-26.1855,Q,Q
2023-03-15 14:08:54:738,0,3.42793,-5.10814,-26.1891,Q,Q
2023-03-15 14:08:54:748,0,3.42473,-5.10442,-26.1897,Q,Q
2023-03-15 14:08:54:758,0,3.42884,-5.10638,-26.1895,Q,Q
2023-03-15 14:08:54:768,0,3.43335,-5.10543,-26.1879,Q,Q
2023-03-15 14:08:54:777,0,3.43453,-5.10632,-26.1896,Q,Q
2023-03-15 14:08:54:788,0,3.43741,-5.10601,-26.1842,Q,Q
2023-03-15 14:08:54:798,0,3.44245,-5.10515,-26.1818,Q,Q
2023-03-15 14:08:54:808,0,3.4479,-5.09949,-26.1826,Q,Q
2023-03-15 14:08:54:818,0,3.44574,-5.09253,-26.1826,Q,Q
2023-03-15 14:08:54:828,0,3.4454,-5.08813,-26.1858,Q,Q
2023-03-15 14:08:54:838,0,3.44528,-5.08401,-26.1917,Q,Q
2023-03-15 14:08:54:848,0,3.44828,-5.08312,-26.1956,Q,Q
2023-03-15 14:08:54:858,0,3.45516,-5.08837,-26.196,Q,Q
2023-03-15 14:08:54:868,0,3.46675,-5.09967,-26.1979,Q,Q
2023-03-15 14:08:54:878,0,3.46944,-5.11211,-26.1952,Q,Q
2023-03-15 14:08:54:888,0,3.47282,-5.12002,-26.1949,Q,Q
2023-03-15 14:08:54:898,0,3.475,-5.12387,-26.1975,Q,Q
2023-03-15 14:08:54:908,0,3.47248,-5.12416,-26.1987,Q,Q
2023-03-15 14:08:54:918,0,3.46572,-5.12665,-26.1908,Q,Q
2023-03-15 14:08:54:928,0,3.4599,-5.12629,-26.1819,Q,Q
2023-03-15 14:08:54:938,0,3.45477,-5.12243,-26.1744,Q,Q
2023-03-15 14:08:54:948,0,3.44336,-5.11644,-26.1686,Q,Q
2023-03-15 14:08:54:958,0,3.4327,-5.11179,-26.1634,Q,Q
2023-03-15 14:08:54:967,0,3.42658,-5.11007,-26.1647,Q,Q
2023-03-15 14:08:54:978,0,3.42054,-5.10875,-26.1695,Q,Q
2023-03-15 14:08:54:988,0,3.41565,-5.1051,-26.175,Q,Q
2023-03-15 14:08:54:998,0,3.40967,-5.10443,-26.185,Q,Q
2023-03-15 14:08:55:8,0,3.40503,-5.10459,-26.1999,Q,Q
2023-03-15 14:08:55:18,0,3.40535,-5.11009,-26.2138,Q,Q
2023-03-15 14:08:55:28,0,3.40934,-5.11382,-26.2258,Q,Q
2023-03-15 14:08:55:38,0,3.41137,-5.1176,-26.2411,Q,Q
2023-03-15 14:08:55:48,0,3.41362,-5.12072,-26.2506,Q,Q
2023-03-15 14:08:55:58,0,3.4156,-5.12189,-26.2618,Q,Q
2023-03-15 14:08:55:68,0,3.41625,-5.12233,-26.2695,Q,Q
2023-03-15 14:08:55:78,0,3.41771,-5.11837,-26.2736,Q,Q
2023-03-15 14:08:55:88,0,3.41872,-5.10959,-26.2782,Q,Q
2023-03-15 14:08:55:98,0,3.4145,-5.10126,-26.2812,Q,Q
2023-03-15 14:08:55:108,0,3.41337,-5.09194,-26.284,Q,Q
2023-03-15 14:08:55:118,0,3.41818,-5.09194,-26.2838,Q,Q
2023-03-15 14:08:55:128,0,3.42415,-5.09467,-26.2853,Q,Q
2023-03-15 14:08:55:138,0,3.42721,-5.09979,-26.2843,Q,Q
2023-03-15 14:08:55:148,0,3.43093,-5.10283,-26.2878,Q,Q
2023-03-15 14:08:55:158,0,3.4301,-5.10358,-26.2931,Q,Q
2023-03-15 14:08:55:168,0,3.42776,-5.10444,-26.302,Q,Q
2023-03-15 14:08:55:178,0,3.42759,-5.10213,-26.3101,Q,Q
2023-03-15 14:08:55:188,0,3.42727,-5.09659,-26.3171,Q,Q
2023-03-15 14:08:55:198,0,3.42187,-5.08753,-26.3272,Q,Q
2023-03-15 14:08:55:208,0,3.41805,-5.08022,-26.3374,Q,Q
2023-03-15 14:08:55:218,0,3.40989,-5.07543,-26.3449,Q,Q
2023-03-15 14:08:55:228,0,3.39866,-5.0722,-26.3545,Q,Q
2023-03-15 14:08:55:238,0,3.38632,-5.0723,-26.3685,Q,Q
2023-03-15 14:08:55:248,0,3.37279,-5.07351,-26.3837,Q,Q
2023-03-15 14:08:55:258,0,3.3645,-5.08247,-26.3999,Q,Q
2023-03-15 14:08:55:268,0,3.3612,-5.09168,-26.4235,Q,Q
2023-03-15 14:08:55:277,0,3.36295,-5.1051,-26.4468,Q,Q
2023-03-15 14:08:55:288,0,3.36262,-5.11912,-26.468,Q,Q
2023-03-15 14:08:55:298,0,3.36912,-5.13492,-26.484,Q,Q
2023-03-15 14:08:55:308,0,3.38165,-5.13958,-26.4969,Q,Q
2023-03-15 14:08:55:318,0,3.40333,-5.15078,-26.505,Q,Q
2023-03-15 14:08:55:328,0,3.42263,-5.1625,-26.5047,Q,Q
2023-03-15 14:08:55:338,0,3.43672,-5.17464,-26.5048,Q,Q
2023-03-15 14:08:55:348,0,3.45887,-5.18419,-26.5075,Q,Q
2023-03-15 14:08:55:358,0,3.48218,-5.19048,-26.5062,Q,Q
2023-03-15 14:08:55:368,0,3.51147,-5.19983,-26.5034,Q,Q
2023-03-15 14:08:55:378,0,3.53806,-5.2077,-26.5065,Q,Q
2023-03-15 14:08:55:388,0,3.56515,-5.22003,-26.5096,Q,Q
2023-03-15 14:08:55:398,0,3.58768,-5.23395,-26.5127,Q,Q
2023-03-15 14:08:55:408,0,3.60829,-5.25146,-26.5215,Q,Q
2023-03-15 14:08:55:418,0,3.62139,-5.26385,-26.5327,Q,Q
2023-03-15 14:08:55:428,0,3.63537,-5.28083,-26.547,Q,Q
2023-03-15 14:08:55:438,0,3.63838,-5.2976,-26.5642,Q,Q
2023-03-15 14:08:55:448,0,3.64402,-5.31053,-26.5817,Q,Q
2023-03-15 14:08:55:458,0,3.64825,-5.32705,-26.6002,Q,Q
2023-03-15 14:08:55:468,0,3.6478,-5.33989,-26.6189,Q,Q
2023-03-15 14:08:55:478,0,3.64395,-5.3544,-26.6397,Q,Q
2023-03-15 14:08:55:488,0,3.64321,-5.36763,-26.6654,Q,Q
2023-03-15 14:08:55:498,0,3.64663,-5.38407,-26.6836,Q,Q
2023-03-15 14:08:55:508,0,3.65781,-5.3919,-26.7088,Q,Q
2023-03-15 14:08:55:518,0,3.67341,-5.40997,-26.7313,Q,Q
2023-03-15 14:08:55:528,0,3.6868,-5.43041,-26.7547,Q,Q
2023-03-15 14:08:55:538,0,3.69619,-5.44146,-26.7872,Q,Q
2023-03-15 14:08:55:548,0,3.70971,-5.45182,-26.8224,Q,Q
2023-03-15 14:08:55:558,0,3.72541,-5.46575,-26.8632,Q,Q
2023-03-15 14:08:55:568,0,3.73539,-5.4917,-26.8996,Q,Q
2023-03-15 14:08:55:578,0,3.7436,-5.52505,-26.9369,Q,Q
2023-03-15 14:08:55:588,0,3.75592,-5.55914,-26.9695,Q,Q
2023-03-15 14:08:55:598,0,3.77925,-5.5915,-26.9971,Q,Q
2023-03-15 14:08:55:608,0,3.80373,-5.62611,-27.0144,Q,Q
2023-03-15 14:08:55:618,0,3.82834,-5.66408,-27.0254,Q,Q
2023-03-15 14:08:55:628,0,3.8473,-5.70189,-27.0305,Q,Q
2023-03-15 14:08:55:638,0,3.86832,-5.73445,-27.025,Q,Q
2023-03-15 14:08:55:647,0,3.88692,-5.77159,-27.0118,Q,Q
2023-03-15 14:08:55:658,0,3.89994,-5.81141,-26.9966,Q,Q
2023-03-15 14:08:55:668,0,3.90942,-5.84421,-26.974,Q,Q
2023-03-15 14:08:55:678,0,3.92566,-5.87751,-26.9433,Q,Q
2023-03-15 14:08:55:688,0,3.95228,-5.9148,-26.899,Q,Q
2023-03-15 14:08:55:698,0,3.97903,-5.95395,-26.8512,Q,Q
2023-03-15 14:08:55:707,0,4.00711,-5.99134,-26.8006,Q,Q
2023-03-15 14:08:55:717,0,4.03592,-6.03481,-26.7532,Q,Q
2023-03-15 14:08:55:727,0,4.05827,-6.07638,-26.7108,Q,Q
2023-03-15 14:08:55:737,0,4.07098,-6.11445,-26.6738,Q,Q
2023-03-15 14:08:55:747,0,4.07058,-6.1541,-26.6407,Q,Q
2023-03-15 14:08:55:757,0,4.06162,-6.19342,-26.6089,Q,Q
2023-03-15 14:08:55:767,0,4.04599,-6.23787,-26.579,Q,Q
2023-03-15 14:08:55:778,0,4.02716,-6.28472,-26.5486,Q,Q
2023-03-15 14:08:55:788,0,3.99901,-6.33105,-26.5279,Q,Q
2023-03-15 14:08:55:798,0,3.95957,-6.38001,-26.5187,Q,Q
2023-03-15 14:08:55:808,0,3.90364,-6.43232,-26.5221,Q,Q
2023-03-15 14:08:55:818,0,3.83057,-6.47839,-26.5351,Q,Q
2023-03-15 14:08:55:828,0,3.74889,-6.51743,-26.5599,Q,Q
2023-03-15 14:08:55:838,0,3.66541,-6.54933,-26.5894,Q,Q
2023-03-15 14:08:55:848,0,3.58019,-6.57702,-26.6311,Q,Q
2023-03-15 14:08:55:858,0,3.50271,-6.59687,-26.6727,Q,Q
2023-03-15 14:08:55:868,0,3.4366,-6.61263,-26.7221,Q,Q
2023-03-15 14:08:55:878,0,3.38234,-6.6222,-26.7656,Q,Q
2023-03-15 14:08:55:888,0,3.33787,-6.62501,-26.8084,Q,Q
2023-03-15 14:08:55:898,0,3.30482,-6.62904,-26.8506,Q,Q
2023-03-15 14:08:55:908,0,3.27119,-6.62391,-26.894,Q,Q
2023-03-15 14:08:55:918,0,3.23686,-6.61639,-26.9378,Q,Q
2023-03-15 14:08:55:928,0,3.20439,-6.60334,-26.9793,Q,Q
2023-03-15 14:08:55:938,0,3.16722,-6.59354,-27.0207,Q,Q
2023-03-15 14:08:55:948,0,3.1313,-6.58522,-27.0568,Q,Q
2023-03-15 14:08:55:958,0,3.10603,-6.58155,-27.0888,Q,Q
2023-03-15 14:08:55:968,0,3.0927,-6.58212,-27.1145,Q,Q
2023-03-15 14:08:55:978,0,3.08142,-6.58237,-27.1369,Q,Q
2023-03-15 14:08:55:988,0,3.07055,-6.58009,-27.1547,Q,Q
2023-03-15 14:08:55:998,0,3.04963,-6.58181,-27.1731,Q,Q
2023-03-15 14:08:56:8,0,3.01774,-6.57865,-27.188,Q,Q
