Timestamp_cmd,imu_cmd,roll_delta,pitch_delta,yaw_delta,voice_type,voice_length
2023-03-14 22:30:06:805,0,-15.55,-3.39298,32.9129,Q,Q
2023-03-14 22:30:06:813,0,-15.558,-3.39273,32.9214,Q,Q
2023-03-14 22:30:06:823,0,-15.5701,-3.39228,32.9323,Q,Q
2023-03-14 22:30:06:833,0,-15.5791,-3.38287,32.9424,Q,Q
2023-03-14 22:30:06:843,0,-15.587,-3.37427,32.9506,Q,Q
2023-03-14 22:30:06:853,0,-15.59,-3.36236,32.959,Q,Q
2023-03-14 22:30:06:863,0,-15.5923,-3.34886,32.9669,Q,Q
2023-03-14 22:30:06:873,0,-15.5901,-3.33605,32.9735,Q,Q
2023-03-14 22:30:06:883,0,-15.5801,-3.31878,32.9809,Q,Q
2023-03-14 22:30:06:893,0,-15.5639,-3.29934,32.9965,Q,Q
2023-03-14 22:30:06:903,0,-15.5466,-3.28396,33.0154,Q,Q
2023-03-14 22:30:06:913,0,-15.537,-3.26514,33.033,Q,Q
2023-03-14 22:30:06:923,0,-15.5322,-3.24729,33.0541,Q,Q
2023-03-14 22:30:06:933,0,-15.5358,-3.22728,33.0762,Q,Q
2023-03-14 22:30:06:943,0,-15.5453,-3.20726,33.0969,Q,Q
2023-03-14 22:30:06:953,0,-15.5629,-3.19017,33.1184,Q,Q
2023-03-14 22:30:06:963,0,-15.5836,-3.17723,33.1428,Q,Q
2023-03-14 22:30:06:973,0,-15.6056,-3.16716,33.1734,Q,Q
2023-03-14 22:30:06:984,0,-15.6252,-3.16372,33.2058,Q,Q
2023-03-14 22:30:06:993,0,-15.6483,-3.16539,33.2425,Q,Q
2023-03-14 22:30:07:3,0,-15.6688,-3.16843,33.2799,Q,Q
2023-03-14 22:30:07:13,0,-15.6912,-3.17219,33.3201,Q,Q
2023-03-14 22:30:07:23,0,-15.7084,-3.17266,33.3525,Q,Q
2023-03-14 22:30:07:33,0,-15.7204,-3.1745,33.381,Q,Q
2023-03-14 22:30:07:43,0,-15.7289,-3.17327,33.4081,Q,Q
2023-03-14 22:30:07:53,0,-15.7334,-3.17459,33.4348,Q,Q
2023-03-14 22:30:07:63,0,-15.7355,-3.17276,33.4581,Q,Q
2023-03-14 22:30:07:73,0,-15.7401,-3.16809,33.4823,Q,Q
2023-03-14 22:30:07:83,0,-15.739,-3.16496,33.5031,Q,Q
2023-03-14 22:30:07:93,0,-15.7362,-3.15811,33.5222,Q,Q
2023-03-14 22:30:07:103,0,-15.7348,-3.14505,33.5386,Q,Q
2023-03-14 22:30:07:113,0,-15.734,-3.13325,33.5588,Q,Q
2023-03-14 22:30:07:123,0,-15.7333,-3.12336,33.5837,Q,Q
2023-03-14 22:30:07:133,0,-15.7296,-3.11732,33.6049,Q,Q
2023-03-14 22:30:07:143,0,-15.7214,-3.10989,33.6271,Q,Q
2023-03-14 22:30:07:153,0,-15.7117,-3.10562,33.6473,Q,Q
2023-03-14 22:30:07:164,0,-15.6955,-3.10444,33.6658,Q,Q
2023-03-14 22:30:07:173,0,-15.6786,-3.0969,33.6832,Q,Q
2023-03-14 22:30:07:183,0,-15.66,-3.08774,33.6965,Q,Q
2023-03-14 22:30:07:193,0,-15.6411,-3.07747,33.7062,Q,Q
2023-03-14 22:30:07:203,0,-15.6223,-3.06698,33.7158,Q,Q
2023-03-14 22:30:07:213,0,-15.6083,-3.05808,33.7244,Q,Q
2023-03-14 22:30:07:224,0,-15.5962,-3.04951,33.7411,Q,Q
2023-03-14 22:30:07:233,0,-15.5951,-3.04804,33.7581,Q,Q
2023-03-14 22:30:07:243,0,-15.5943,-3.04585,33.7765,Q,Q
2023-03-14 22:30:07:253,0,-15.5936,-3.04458,33.7942,Q,Q
2023-03-14 22:30:07:264,0,-15.5926,-3.04334,33.8105,Q,Q
2023-03-14 22:30:07:273,0,-15.5964,-3.04262,33.8322,Q,Q
2023-03-14 22:30:07:283,0,-15.6024,-3.04451,33.8555,Q,Q
2023-03-14 22:30:07:293,0,-15.6086,-3.04756,33.8807,Q,Q
2023-03-14 22:30:07:303,0,-15.6175,-3.04912,33.9046,Q,Q
2023-03-14 22:30:07:313,0,-15.6265,-3.05455,33.9285,Q,Q
2023-03-14 22:30:07:323,0,-15.6346,-3.05819,33.9514,Q,Q
2023-03-14 22:30:07:333,0,-15.6397,-3.06624,33.9753,Q,Q
2023-03-14 22:30:07:343,0,-15.6416,-3.07659,33.9996,Q,Q
2023-03-14 22:30:07:353,0,-15.6454,-3.08689,34.0239,Q,Q
2023-03-14 22:30:07:363,0,-15.6515,-3.10087,34.0525,Q,Q
2023-03-14 22:30:07:373,0,-15.6541,-3.11355,34.0786,Q,Q
2023-03-14 22:30:07:383,0,-15.653,-3.12789,34.1024,Q,Q
2023-03-14 22:30:07:393,0,-15.6449,-3.13664,34.1183,Q,Q
2023-03-14 22:30:07:403,0,-15.6272,-3.14239,34.134,Q,Q
2023-03-14 22:30:07:413,0,-15.6018,-3.14784,34.1426,Q,Q
2023-03-14 22:30:07:423,0,-15.5681,-3.15277,34.153,Q,Q
2023-03-14 22:30:07:433,0,-15.5352,-3.15197,34.1656,Q,Q
2023-03-14 22:30:07:443,0,-15.5039,-3.14882,34.1754,Q,Q
2023-03-14 22:30:07:453,0,-15.4785,-3.14684,34.1819,Q,Q
2023-03-14 22:30:07:463,0,-15.4564,-3.14534,34.1899,Q,Q
2023-03-14 22:30:07:473,0,-15.4339,-3.14348,34.195,Q,Q
2023-03-14 22:30:07:483,0,-15.4165,-3.14162,34.1985,Q,Q
2023-03-14 22:30:07:493,0,-15.3977,-3.13791,34.2032,Q,Q
2023-03-14 22:30:07:503,0,-15.3837,-3.13568,34.2049,Q,Q
2023-03-14 22:30:07:513,0,-15.3663,-3.13745,34.2063,Q,Q
2023-03-14 22:30:07:523,0,-15.3494,-3.13625,34.2015,Q,Q
2023-03-14 22:30:07:533,0,-15.3309,-3.13349,34.1928,Q,Q
2023-03-14 22:30:07:543,0,-15.3153,-3.13363,34.18,Q,Q
2023-03-14 22:30:07:553,0,-15.301,-3.13801,34.1679,Q,Q
2023-03-14 22:30:07:563,0,-15.2851,-3.14473,34.1544,Q,Q
2023-03-14 22:30:07:573,0,-15.2756,-3.15253,34.1433,Q,Q
2023-03-14 22:30:07:583,0,-15.266,-3.16081,34.134,Q,Q
2023-03-14 22:30:07:593,0,-15.2621,-3.16607,34.1246,Q,Q
2023-03-14 22:30:07:603,0,-15.2594,-3.17583,34.117,Q,Q
2023-03-14 22:30:07:613,0,-15.2581,-3.18417,34.1131,Q,Q
2023-03-14 22:30:07:623,0,-15.2555,-3.1875,34.1116,Q,Q
2023-03-14 22:30:07:633,0,-15.2555,-3.18407,34.1102,Q,Q
2023-03-14 22:30:07:643,0,-15.2561,-3.18076,34.1112,Q,Q
2023-03-14 22:30:07:653,0,-15.2535,-3.17638,34.1143,Q,Q
2023-03-14 22:30:07:663,0,-15.2549,-3.17264,34.116,Q,Q
2023-03-14 22:30:07:673,0,-15.2562,-3.16429,34.1174,Q,Q
2023-03-14 22:30:07:683,0,-15.2567,-3.15377,34.1213,Q,Q
2023-03-14 22:30:07:693,0,-15.2624,-3.14194,34.1249,Q,Q
2023-03-14 22:30:07:703,0,-15.2711,-3.1281,34.1276,Q,Q
2023-03-14 22:30:07:713,0,-15.2783,-3.11697,34.1418,Q,Q
2023-03-14 22:30:07:723,0,-15.285,-3.11022,34.1597,Q,Q
2023-03-14 22:30:07:733,0,-15.2912,-3.10685,34.1814,Q,Q
2023-03-14 22:30:07:743,0,-15.2971,-3.10628,34.2052,Q,Q
2023-03-14 22:30:07:753,0,-15.3046,-3.10225,34.23,Q,Q
2023-03-14 22:30:07:763,0,-15.3172,-3.10136,34.2605,Q,Q
2023-03-14 22:30:07:773,0,-15.3326,-3.09747,34.2906,Q,Q
2023-03-14 22:30:07:783,0,-15.3497,-3.08896,34.3235,Q,Q
2023-03-14 22:30:07:793,0,-15.3625,-3.0831,34.3618,Q,Q
2023-03-14 22:30:07:803,0,-15.3776,-3.0746,34.4029,Q,Q
2023-03-14 22:30:07:813,0,-15.3883,-3.07394,34.4431,Q,Q
2023-03-14 22:30:07:823,0,-15.3963,-3.07707,34.4859,Q,Q
2023-03-14 22:30:07:833,0,-15.4004,-3.07498,34.5291,Q,Q
2023-03-14 22:30:07:843,0,-15.4019,-3.07344,34.5699,Q,Q
2023-03-14 22:30:07:853,0,-15.4052,-3.07248,34.6095,Q,Q
2023-03-14 22:30:07:863,0,-15.4062,-3.07064,34.6409,Q,Q
2023-03-14 22:30:07:873,0,-15.4019,-3.0687,34.6679,Q,Q
2023-03-14 22:30:07:883,0,-15.3952,-3.06186,34.6886,Q,Q
2023-03-14 22:30:07:893,0,-15.3931,-3.0554,34.7046,Q,Q
2023-03-14 22:30:07:903,0,-15.3896,-3.05018,34.7199,Q,Q
2023-03-14 22:30:07:913,0,-15.3893,-3.04853,34.7324,Q,Q
2023-03-14 22:30:07:923,0,-15.3868,-3.0462,34.7468,Q,Q
2023-03-14 22:30:07:933,0,-15.3895,-3.0439,34.7602,Q,Q
2023-03-14 22:30:07:943,0,-15.3911,-3.04444,34.7722,Q,Q
2023-03-14 22:30:07:953,0,-15.3938,-3.05126,34.7897,Q,Q
2023-03-14 22:30:07:963,0,-15.3986,-3.05534,34.8041,Q,Q
2023-03-14 22:30:07:973,0,-15.4006,-3.05848,34.8156,Q,Q
2023-03-14 22:30:07:983,0,-15.4054,-3.06047,34.8195,Q,Q
2023-03-14 22:30:07:993,0,-15.4054,-3.06764,34.8203,Q,Q
2023-03-14 22:30:08:3,0,-15.4077,-3.06992,34.8203,Q,Q
2023-03-14 22:30:08:13,0,-15.4127,-3.07672,34.8192,Q,Q
2023-03-14 22:30:08:23,0,-15.416,-3.08853,34.8186,Q,Q
2023-03-14 22:30:08:33,0,-15.4232,-3.09844,34.8133,Q,Q
2023-03-14 22:30:08:43,0,-15.4278,-3.10485,34.8128,Q,Q
2023-03-14 22:30:08:53,0,-15.4352,-3.10909,34.8118,Q,Q
2023-03-14 22:30:08:63,0,-15.4417,-3.11245,34.8072,Q,Q
2023-03-14 22:30:08:73,0,-15.4466,-3.11372,34.8051,Q,Q
2023-03-14 22:30:08:83,0,-15.4577,-3.11645,34.8044,Q,Q
2023-03-14 22:30:08:93,0,-15.4728,-3.12114,34.8051,Q,Q
2023-03-14 22:30:08:103,0,-15.4874,-3.13,34.8081,Q,Q
2023-03-14 22:30:08:113,0,-15.5025,-3.14106,34.8135,Q,Q
2023-03-14 22:30:08:123,0,-15.5184,-3.15636,34.8209,Q,Q
2023-03-14 22:30:08:133,0,-15.5283,-3.166,34.8284,Q,Q
2023-03-14 22:30:08:143,0,-15.5338,-3.17315,34.8343,Q,Q
2023-03-14 22:30:08:153,0,-15.5371,-3.18152,34.8427,Q,Q
2023-03-14 22:30:08:163,0,-15.5311,-3.18796,34.8498,Q,Q
2023-03-14 22:30:08:173,0,-15.5243,-3.19547,34.8595,Q,Q
2023-03-14 22:30:08:183,0,-15.5219,-3.19927,34.8742,Q,Q
2023-03-14 22:30:08:193,0,-15.5162,-3.2026,34.8906,Q,Q
2023-03-14 22:30:08:203,0,-15.5133,-3.21075,34.9081,Q,Q
2023-03-14 22:30:08:213,0,-15.5081,-3.2157,34.9257,Q,Q
2023-03-14 22:30:08:223,0,-15.5011,-3.21658,34.9384,Q,Q
2023-03-14 22:30:08:233,0,-15.4909,-3.21676,34.9508,Q,Q
2023-03-14 22:30:08:243,0,-15.4837,-3.21119,34.9591,Q,Q
2023-03-14 22:30:08:253,0,-15.4754,-3.20427,34.9617,Q,Q
2023-03-14 22:30:08:263,0,-15.4658,-3.19413,34.9637,Q,Q
2023-03-14 22:30:08:273,0,-15.4623,-3.18466,34.9693,Q,Q
2023-03-14 22:30:08:283,0,-15.4613,-3.17982,34.9773,Q,Q
2023-03-14 22:30:08:293,0,-15.4676,-3.17784,34.9889,Q,Q
2023-03-14 22:30:08:303,0,-15.4827,-3.17694,35.0073,Q,Q
2023-03-14 22:30:08:313,0,-15.498,-3.17928,35.0211,Q,Q
2023-03-14 22:30:08:323,0,-15.5177,-3.17968,35.0395,Q,Q
2023-03-14 22:30:08:333,0,-15.5368,-3.18146,35.0658,Q,Q
2023-03-14 22:30:08:343,0,-15.5561,-3.18438,35.0935,Q,Q
2023-03-14 22:30:08:353,0,-15.5734,-3.18876,35.1279,Q,Q
2023-03-14 22:30:08:363,0,-15.5858,-3.19122,35.157,Q,Q
2023-03-14 22:30:08:373,0,-15.5968,-3.19319,35.1917,Q,Q
2023-03-14 22:30:08:383,0,-15.601,-3.19569,35.2223,Q,Q
2023-03-14 22:30:08:393,0,-15.5966,-3.19691,35.2504,Q,Q
2023-03-14 22:30:08:403,0,-15.5921,-3.20009,35.2739,Q,Q
2023-03-14 22:30:08:413,0,-15.5862,-3.20406,35.2937,Q,Q
2023-03-14 22:30:08:423,0,-15.5768,-3.20809,35.3118,Q,Q
2023-03-14 22:30:08:433,0,-15.5696,-3.21581,35.3319,Q,Q
2023-03-14 22:30:08:443,0,-15.5694,-3.22664,35.3503,Q,Q
2023-03-14 22:30:08:453,0,-15.5706,-3.23752,35.3736,Q,Q
2023-03-14 22:30:08:463,0,-15.5676,-3.25467,35.3957,Q,Q
2023-03-14 22:30:08:473,0,-15.5688,-3.27348,35.4178,Q,Q
2023-03-14 22:30:08:483,0,-15.5691,-3.29125,35.4325,Q,Q
2023-03-14 22:30:08:493,0,-15.5667,-3.31238,35.4411,Q,Q
2023-03-14 22:30:08:503,0,-15.5618,-3.33505,35.4498,Q,Q
2023-03-14 22:30:08:513,0,-15.5577,-3.35887,35.4577,Q,Q
2023-03-14 22:30:08:523,0,-15.5614,-3.38635,35.4715,Q,Q
2023-03-14 22:30:08:533,0,-15.5652,-3.41487,35.4845,Q,Q
2023-03-14 22:30:08:543,0,-15.5695,-3.44465,35.4935,Q,Q
2023-03-14 22:30:08:553,0,-15.576,-3.4766,35.5034,Q,Q
2023-03-14 22:30:08:563,0,-15.5775,-3.50716,35.5066,Q,Q
2023-03-14 22:30:08:573,0,-15.5791,-3.53559,35.503,Q,Q
2023-03-14 22:30:08:583,0,-15.5731,-3.56423,35.4963,Q,Q
2023-03-14 22:30:08:593,0,-15.567,-3.58952,35.4864,Q,Q
2023-03-14 22:30:08:603,0,-15.5593,-3.61431,35.4741,Q,Q
2023-03-14 22:30:08:613,0,-15.551,-3.63591,35.4596,Q,Q
2023-03-14 22:30:08:623,0,-15.5438,-3.65428,35.4472,Q,Q
2023-03-14 22:30:08:633,0,-15.531,-3.67371,35.4322,Q,Q
2023-03-14 22:30:08:643,0,-15.5225,-3.68665,35.4137,Q,Q
2023-03-14 22:30:08:653,0,-15.5109,-3.70231,35.3896,Q,Q
2023-03-14 22:30:08:663,0,-15.4958,-3.72096,35.3666,Q,Q
2023-03-14 22:30:08:673,0,-15.4771,-3.7337,35.3434,Q,Q
2023-03-14 22:30:08:683,0,-15.4599,-3.74739,35.3236,Q,Q
2023-03-14 22:30:08:693,0,-15.4452,-3.76075,35.3039,Q,Q
2023-03-14 22:30:08:703,0,-15.4364,-3.77739,35.2858,Q,Q
2023-03-14 22:30:08:713,0,-15.4302,-3.78939,35.2649,Q,Q
2023-03-14 22:30:08:723,0,-15.4306,-3.80393,35.2434,Q,Q
2023-03-14 22:30:08:733,0,-15.4328,-3.81535,35.2227,Q,Q
2023-03-14 22:30:08:743,0,-15.4417,-3.82581,35.2069,Q,Q
2023-03-14 22:30:08:753,0,-15.4504,-3.8427,35.195,Q,Q
2023-03-14 22:30:08:763,0,-15.4629,-3.86401,35.1857,Q,Q
2023-03-14 22:30:08:773,0,-15.4773,-3.88649,35.1823,Q,Q
2023-03-14 22:30:08:783,0,-15.4903,-3.90697,35.1741,Q,Q
2023-03-14 22:30:08:793,0,-15.5033,-3.92521,35.1733,Q,Q
2023-03-14 22:30:08:803,0,-15.515,-3.93947,35.1728,Q,Q
2023-03-14 22:30:08:813,0,-15.5248,-3.95177,35.1743,Q,Q
2023-03-14 22:30:08:823,0,-15.5345,-3.96436,35.1769,Q,Q
2023-03-14 22:30:08:833,0,-15.542,-3.97216,35.177,Q,Q
2023-03-14 22:30:08:843,0,-15.5422,-3.98287,35.1767,Q,Q
2023-03-14 22:30:08:853,0,-15.5404,-3.98857,35.1764,Q,Q
2023-03-14 22:30:08:863,0,-15.534,-3.99425,35.1755,Q,Q
2023-03-14 22:30:08:873,0,-15.5246,-3.99714,35.1651,Q,Q
2023-03-14 22:30:08:883,0,-15.5175,-4.00449,35.1513,Q,Q
2023-03-14 22:30:08:893,0,-15.5105,-4.00822,35.1354,Q,Q
2023-03-14 22:30:08:903,0,-15.5059,-4.01175,35.1147,Q,Q
2023-03-14 22:30:08:913,0,-15.4964,-4.0128,35.088,Q,Q
2023-03-14 22:30:08:923,0,-15.4917,-4.00978,35.0556,Q,Q
2023-03-14 22:30:08:933,0,-15.4822,-4.00163,35.0237,Q,Q
2023-03-14 22:30:08:943,0,-15.4798,-3.99466,34.9977,Q,Q
2023-03-14 22:30:08:953,0,-15.4771,-3.98557,34.9741,Q,Q
2023-03-14 22:30:08:963,0,-15.4819,-3.97963,34.9548,Q,Q
2023-03-14 22:30:08:973,0,-15.4926,-3.97603,34.9429,Q,Q
2023-03-14 22:30:08:983,0,-15.5097,-3.97316,34.9348,Q,Q
2023-03-14 22:30:08:993,0,-15.5278,-3.96876,34.931,Q,Q
2023-03-14 22:30:09:3,0,-15.543,-3.96184,34.9253,Q,Q
2023-03-14 22:30:09:13,0,-15.5528,-3.95586,34.9236,Q,Q
2023-03-14 22:30:09:24,0,-15.5585,-3.95186,34.9244,Q,Q
2023-03-14 22:30:09:33,0,-15.5646,-3.94733,34.9323,Q,Q
2023-03-14 22:30:09:43,0,-15.5685,-3.94364,34.9427,Q,Q
2023-03-14 22:30:09:53,0,-15.569,-3.9419,34.956,Q,Q
2023-03-14 22:30:09:63,0,-15.579,-3.93667,34.9719,Q,Q
2023-03-14 22:30:09:73,0,-15.5928,-3.93265,34.9856,Q,Q
2023-03-14 22:30:09:83,0,-15.6076,-3.92721,35.0023,Q,Q
2023-03-14 22:30:09:93,0,-15.6277,-3.92373,35.0187,Q,Q
2023-03-14 22:30:09:103,0,-15.6519,-3.91531,35.0345,Q,Q
2023-03-14 22:30:09:113,0,-15.6709,-3.90353,35.0507,Q,Q
2023-03-14 22:30:09:123,0,-15.6892,-3.88873,35.0722,Q,Q
2023-03-14 22:30:09:133,0,-15.7067,-3.8784,35.0983,Q,Q
2023-03-14 22:30:09:143,0,-15.7179,-3.87345,35.134,Q,Q
2023-03-14 22:30:09:153,0,-15.7277,-3.87108,35.1873,Q,Q
2023-03-14 22:30:09:163,0,-15.737,-3.87538,35.2367,Q,Q
2023-03-14 22:30:09:173,0,-15.7454,-3.87864,35.2818,Q,Q
2023-03-14 22:30:09:183,0,-15.7496,-3.87942,35.3246,Q,Q
2023-03-14 22:30:09:193,0,-15.7566,-3.87807,35.3679,Q,Q
2023-03-14 22:30:09:204,0,-15.7633,-3.8711,35.4079,Q,Q
2023-03-14 22:30:09:213,0,-15.7684,-3.86635,35.4465,Q,Q
2023-03-14 22:30:09:223,0,-15.7751,-3.86081,35.4785,Q,Q
2023-03-14 22:30:09:233,0,-15.7771,-3.85657,35.5055,Q,Q
2023-03-14 22:30:09:243,0,-15.7767,-3.8502,35.5275,Q,Q
2023-03-14 22:30:09:253,0,-15.7797,-3.84292,35.5451,Q,Q
2023-03-14 22:30:09:263,0,-15.7849,-3.83173,35.5596,Q,Q
2023-03-14 22:30:09:273,0,-15.7859,-3.82137,35.5739,Q,Q
2023-03-14 22:30:09:283,0,-15.7885,-3.81398,35.5879,Q,Q
2023-03-14 22:30:09:293,0,-15.7938,-3.8079,35.6018,Q,Q
2023-03-14 22:30:09:303,0,-15.8015,-3.80353,35.6157,Q,Q
2023-03-14 22:30:09:313,0,-15.8076,-3.8008,35.6281,Q,Q
2023-03-14 22:30:09:323,0,-15.8128,-3.80376,35.6417,Q,Q
2023-03-14 22:30:09:333,0,-15.8172,-3.80766,35.6533,Q,Q
2023-03-14 22:30:09:343,0,-15.8191,-3.81168,35.6606,Q,Q
2023-03-14 22:30:09:353,0,-15.8224,-3.82223,35.6595,Q,Q
2023-03-14 22:30:09:363,0,-15.828,-3.83351,35.6598,Q,Q
2023-03-14 22:30:09:373,0,-15.8322,-3.84618,35.6614,Q,Q
2023-03-14 22:30:09:383,0,-15.8337,-3.86023,35.6615,Q,Q
2023-03-14 22:30:09:393,0,-15.8329,-3.87726,35.6604,Q,Q
2023-03-14 22:30:09:403,0,-15.8264,-3.89084,35.6558,Q,Q
2023-03-14 22:30:09:413,0,-15.8158,-3.90247,35.6471,Q,Q
2023-03-14 22:30:09:423,0,-15.8011,-3.91037,35.6409,Q,Q
2023-03-14 22:30:09:433,0,-15.7829,-3.92091,35.6296,Q,Q
2023-03-14 22:30:09:443,0,-15.7575,-3.92252,35.6151,Q,Q
2023-03-14 22:30:09:453,0,-15.7298,-3.92079,35.6029,Q,Q
2023-03-14 22:30:09:463,0,-15.7024,-3.92107,35.5923,Q,Q
2023-03-14 22:30:09:473,0,-15.6816,-3.92328,35.5766,Q,Q
2023-03-14 22:30:09:483,0,-15.665,-3.92104,35.5673,Q,Q
2023-03-14 22:30:09:493,0,-15.6546,-3.92443,35.5613,Q,Q
2023-03-14 22:30:09:503,0,-15.651,-3.92934,35.5539,Q,Q
2023-03-14 22:30:09:513,0,-15.651,-3.93436,35.5454,Q,Q
2023-03-14 22:30:09:523,0,-15.6461,-3.93719,35.5427,Q,Q
2023-03-14 22:30:09:533,0,-15.6458,-3.93606,35.5386,Q,Q
2023-03-14 22:30:09:543,0,-15.6467,-3.93226,35.5307,Q,Q
2023-03-14 22:30:09:553,0,-15.6522,-3.92814,35.5239,Q,Q
2023-03-14 22:30:09:563,0,-15.6611,-3.92589,35.5209,Q,Q
2023-03-14 22:30:09:573,0,-15.679,-3.9264,35.5208,Q,Q
2023-03-14 22:30:09:583,0,-15.6977,-3.92904,35.5306,Q,Q
2023-03-14 22:30:09:593,0,-15.716,-3.93479,35.5526,Q,Q
2023-03-14 22:30:09:603,0,-15.7398,-3.94162,35.5791,Q,Q
2023-03-14 22:30:09:613,0,-15.7606,-3.95246,35.6134,Q,Q
2023-03-14 22:30:09:623,0,-15.7815,-3.96673,35.6566,Q,Q
2023-03-14 22:30:09:633,0,-15.8005,-3.98378,35.6996,Q,Q
2023-03-14 22:30:09:643,0,-15.8247,-4.00157,35.7396,Q,Q
2023-03-14 22:30:09:653,0,-15.847,-4.01795,35.7819,Q,Q
2023-03-14 22:30:09:663,0,-15.863,-4.03527,35.8197,Q,Q
2023-03-14 22:30:09:673,0,-15.8777,-4.04477,35.8481,Q,Q
2023-03-14 22:30:09:683,0,-15.8858,-4.05146,35.8697,Q,Q
2023-03-14 22:30:09:693,0,-15.8867,-4.05761,35.8838,Q,Q
2023-03-14 22:30:09:703,0,-15.884,-4.05959,35.8964,Q,Q
2023-03-14 22:30:09:713,0,-15.8782,-4.05219,35.8994,Q,Q
2023-03-14 22:30:09:723,0,-15.8713,-4.03946,35.8948,Q,Q
2023-03-14 22:30:09:733,0,-15.8684,-4.02001,35.8889,Q,Q
2023-03-14 22:30:09:743,0,-15.87,-3.99813,35.8865,Q,Q
2023-03-14 22:30:09:753,0,-15.873,-3.97475,35.885,Q,Q
2023-03-14 22:30:09:764,0,-15.8814,-3.95087,35.8816,Q,Q
2023-03-14 22:30:09:773,0,-15.8956,-3.92703,35.8816,Q,Q
2023-03-14 22:30:09:783,0,-15.9132,-3.90542,35.8873,Q,Q
2023-03-14 22:30:09:793,0,-15.9318,-3.88459,35.8975,Q,Q
2023-03-14 22:30:09:803,0,-15.9524,-3.86339,35.9079,Q,Q
2023-03-14 22:30:09:813,0,-15.9693,-3.84496,35.9209,Q,Q
2023-03-14 22:30:09:824,0,-15.9796,-3.82564,35.9386,Q,Q
2023-03-14 22:30:09:833,0,-15.9895,-3.80599,35.9593,Q,Q
2023-03-14 22:30:09:843,0,-15.9956,-3.79183,35.9837,Q,Q
2023-03-14 22:30:09:853,0,-16.0057,-3.78149,36.0164,Q,Q
2023-03-14 22:30:09:863,0,-16.0184,-3.77596,36.0492,Q,Q
2023-03-14 22:30:09:873,0,-16.032,-3.76883,36.084,Q,Q
2023-03-14 22:30:09:883,0,-16.0412,-3.7623,36.1183,Q,Q
2023-03-14 22:30:09:893,0,-16.048,-3.75478,36.1582,Q,Q
2023-03-14 22:30:09:903,0,-16.0465,-3.74303,36.1913,Q,Q
2023-03-14 22:30:09:913,0,-16.0458,-3.72431,36.2201,Q,Q
2023-03-14 22:30:09:923,0,-16.0415,-3.70232,36.2529,Q,Q
2023-03-14 22:30:09:933,0,-16.0408,-3.67473,36.2858,Q,Q
2023-03-14 22:30:09:944,0,-16.0427,-3.64225,36.3206,Q,Q
2023-03-14 22:30:09:953,0,-16.0459,-3.60967,36.3565,Q,Q
2023-03-14 22:30:09:963,0,-16.054,-3.5771,36.3956,Q,Q
2023-03-14 22:30:09:973,0,-16.064,-3.546,36.4334,Q,Q
2023-03-14 22:30:09:983,0,-16.0778,-3.51398,36.4692,Q,Q
2023-03-14 22:30:09:993,0,-16.0926,-3.48539,36.4992,Q,Q
2023-03-14 22:30:10:3,0,-16.098,-3.45551,36.5346,Q,Q
2023-03-14 22:30:10:13,0,-16.1057,-3.43216,36.5694,Q,Q
2023-03-14 22:30:10:24,0,-16.1145,-3.4076,36.5997,Q,Q
2023-03-14 22:30:10:33,0,-16.1189,-3.38829,36.6281,Q,Q
2023-03-14 22:30:10:44,0,-16.1202,-3.36691,36.6541,Q,Q
2023-03-14 22:30:10:53,0,-16.1155,-3.34442,36.6776,Q,Q
2023-03-14 22:30:10:64,0,-16.1047,-3.31823,36.6994,Q,Q
2023-03-14 22:30:10:73,0,-16.0857,-3.29314,36.7259,Q,Q
2023-03-14 22:30:10:83,0,-16.0718,-3.26421,36.7433,Q,Q
2023-03-14 22:30:10:93,0,-16.0544,-3.24042,36.7559,Q,Q
2023-03-14 22:30:10:103,0,-16.0323,-3.22122,36.7701,Q,Q
2023-03-14 22:30:10:113,0,-16.0119,-3.206,36.7857,Q,Q
2023-03-14 22:30:10:123,0,-15.9909,-3.19835,36.7971,Q,Q
2023-03-14 22:30:10:133,0,-15.9716,-3.19069,36.8085,Q,Q
2023-03-14 22:30:10:143,0,-15.9586,-3.19124,36.8172,Q,Q
2023-03-14 22:30:10:153,0,-15.9465,-3.19605,36.8178,Q,Q
2023-03-14 22:30:10:163,0,-15.9369,-3.20843,36.8182,Q,Q
2023-03-14 22:30:10:173,0,-15.931,-3.22586,36.8154,Q,Q
2023-03-14 22:30:10:183,0,-15.9245,-3.24683,36.8101,Q,Q
2023-03-14 22:30:10:193,0,-15.9093,-3.26971,36.797,Q,Q
2023-03-14 22:30:10:203,0,-15.889,-3.29223,36.7765,Q,Q
2023-03-14 22:30:10:213,0,-15.8728,-3.31555,36.7467,Q,Q
2023-03-14 22:30:10:223,0,-15.8504,-3.34547,36.7059,Q,Q
2023-03-14 22:30:10:233,0,-15.8229,-3.37466,36.6614,Q,Q
2023-03-14 22:30:10:243,0,-15.7945,-3.40051,36.613,Q,Q
2023-03-14 22:30:10:253,0,-15.765,-3.4248,36.5579,Q,Q
2023-03-14 22:30:10:263,0,-15.7347,-3.44765,36.5013,Q,Q
2023-03-14 22:30:10:273,0,-15.699,-3.46913,36.442,Q,Q
2023-03-14 22:30:10:283,0,-15.6645,-3.48891,36.3878,Q,Q
2023-03-14 22:30:10:293,0,-15.6298,-3.50747,36.3372,Q,Q
2023-03-14 22:30:10:303,0,-15.5983,-3.52798,36.2892,Q,Q
2023-03-14 22:30:10:313,0,-15.5671,-3.55053,36.2444,Q,Q
2023-03-14 22:30:10:323,0,-15.54,-3.57123,36.2001,Q,Q
2023-03-14 22:30:10:333,0,-15.5168,-3.58873,36.156,Q,Q
2023-03-14 22:30:10:343,0,-15.493,-3.60043,36.113,Q,Q
2023-03-14 22:30:10:353,0,-15.4727,-3.60934,36.0705,Q,Q
2023-03-14 22:30:10:363,0,-15.4536,-3.61676,36.0267,Q,Q
2023-03-14 22:30:10:373,0,-15.4351,-3.62602,35.9878,Q,Q
2023-03-14 22:30:10:383,0,-15.4196,-3.63221,35.9512,Q,Q
2023-03-14 22:30:10:393,0,-15.4021,-3.64026,35.9176,Q,Q
2023-03-14 22:30:10:403,0,-15.3881,-3.64652,35.8791,Q,Q
2023-03-14 22:30:10:413,0,-15.3726,-3.65355,35.8405,Q,Q
2023-03-14 22:30:10:423,0,-15.3502,-3.65863,35.8001,Q,Q
2023-03-14 22:30:10:433,0,-15.3317,-3.66344,35.7663,Q,Q
2023-03-14 22:30:10:443,0,-15.309,-3.66818,35.7304,Q,Q
2023-03-14 22:30:10:453,0,-15.2891,-3.67557,35.6983,Q,Q
2023-03-14 22:30:10:463,0,-15.2742,-3.68012,35.6665,Q,Q
2023-03-14 22:30:10:473,0,-15.2619,-3.68739,35.6371,Q,Q
2023-03-14 22:30:10:483,0,-15.2522,-3.69126,35.6041,Q,Q
2023-03-14 22:30:10:493,0,-15.2454,-3.69645,35.5664,Q,Q
2023-03-14 22:30:10:503,0,-15.2398,-3.70269,35.5326,Q,Q
2023-03-14 22:30:10:513,0,-15.2312,-3.70968,35.4976,Q,Q
2023-03-14 22:30:10:523,0,-15.2224,-3.72066,35.4706,Q,Q
2023-03-14 22:30:10:533,0,-15.216,-3.73225,35.4434,Q,Q
2023-03-14 22:30:10:543,0,-15.2097,-3.74669,35.4157,Q,Q
2023-03-14 22:30:10:553,0,-15.203,-3.75591,35.3871,Q,Q
2023-03-14 22:30:10:563,0,-15.196,-3.76452,35.358,Q,Q
2023-03-14 22:30:10:573,0,-15.1954,-3.77173,35.3318,Q,Q
2023-03-14 22:30:10:583,0,-15.1976,-3.78059,35.307,Q,Q
2023-03-14 22:30:10:593,0,-15.1992,-3.7875,35.2914,Q,Q
2023-03-14 22:30:10:603,0,-15.1986,-3.80078,35.2766,Q,Q
2023-03-14 22:30:10:613,0,-15.1992,-3.81048,35.263,Q,Q
2023-03-14 22:30:10:623,0,-15.2025,-3.81802,35.253,Q,Q
2023-03-14 22:30:10:633,0,-15.2045,-3.82889,35.2469,Q,Q
2023-03-14 22:30:10:643,0,-15.2082,-3.8407,35.2404,Q,Q
2023-03-14 22:30:10:653,0,-15.2146,-3.85092,35.2343,Q,Q
2023-03-14 22:30:10:663,0,-15.2259,-3.85842,35.2311,Q,Q
2023-03-14 22:30:10:673,0,-15.2415,-3.8681,35.2273,Q,Q
2023-03-14 22:30:10:683,0,-15.262,-3.87957,35.2234,Q,Q
2023-03-14 22:30:10:693,0,-15.2774,-3.88929,35.2221,Q,Q
2023-03-14 22:30:10:703,0,-15.2928,-3.89697,35.225,Q,Q
2023-03-14 22:30:10:713,0,-15.3067,-3.90159,35.2233,Q,Q
2023-03-14 22:30:10:723,0,-15.3162,-3.90335,35.2158,Q,Q
2023-03-14 22:30:10:733,0,-15.3194,-3.90248,35.2057,Q,Q
2023-03-14 22:30:10:743,0,-15.3236,-3.89928,35.1932,Q,Q
2023-03-14 22:30:10:753,0,-15.3235,-3.89367,35.1773,Q,Q
2023-03-14 22:30:10:763,0,-15.3211,-3.89154,35.1619,Q,Q
2023-03-14 22:30:10:773,0,-15.3154,-3.89266,35.1446,Q,Q
2023-03-14 22:30:10:783,0,-15.3069,-3.89102,35.1256,Q,Q
2023-03-14 22:30:10:793,0,-15.2931,-3.88937,35.1026,Q,Q
2023-03-14 22:30:10:803,0,-15.2738,-3.8885,35.0788,Q,Q
2023-03-14 22:30:10:813,0,-15.2562,-3.89248,35.0532,Q,Q
2023-03-14 22:30:10:823,0,-15.2477,-3.899,35.026,Q,Q
2023-03-14 22:30:10:833,0,-15.2418,-3.90309,34.9997,Q,Q
2023-03-14 22:30:10:844,0,-15.2406,-3.90839,34.978,Q,Q
2023-03-14 22:30:10:854,0,-15.2449,-3.91824,34.9572,Q,Q
2023-03-14 22:30:10:864,0,-15.2543,-3.92543,34.9368,Q,Q
2023-03-14 22:30:10:873,0,-15.271,-3.93382,34.915,Q,Q
2023-03-14 22:30:10:883,0,-15.2845,-3.94694,34.893,Q,Q
2023-03-14 22:30:10:893,0,-15.3037,-3.95724,34.8741,Q,Q
2023-03-14 22:30:10:903,0,-15.3177,-3.96943,34.8543,Q,Q
2023-03-14 22:30:10:913,0,-15.3307,-3.98595,34.8352,Q,Q
2023-03-14 22:30:10:923,0,-15.3411,-4.00326,34.8164,Q,Q
2023-03-14 22:30:10:933,0,-15.3436,-4.02015,34.7914,Q,Q
2023-03-14 22:30:10:944,0,-15.3436,-4.03437,34.7626,Q,Q
2023-03-14 22:30:10:953,0,-15.3377,-4.05888,34.7347,Q,Q
2023-03-14 22:30:10:964,0,-15.3242,-4.08149,34.7078,Q,Q
2023-03-14 22:30:10:974,0,-15.3117,-4.10491,34.6825,Q,Q
2023-03-14 22:30:10:984,0,-15.2976,-4.12416,34.6536,Q,Q
2023-03-14 22:30:10:993,0,-15.2833,-4.14679,34.6272,Q,Q
2023-03-14 22:30:11:3,0,-15.2582,-4.16306,34.6012,Q,Q
2023-03-14 22:30:11:13,0,-15.2368,-4.17338,34.5734,Q,Q
2023-03-14 22:30:11:23,0,-15.2131,-4.17678,34.5389,Q,Q
2023-03-14 22:30:11:33,0,-15.1897,-4.17379,34.5014,Q,Q
2023-03-14 22:30:11:44,0,-15.1704,-4.16782,34.4596,Q,Q
2023-03-14 22:30:11:53,0,-15.1548,-4.16545,34.4186,Q,Q
2023-03-14 22:30:11:64,0,-15.1431,-4.16408,34.3807,Q,Q
2023-03-14 22:30:11:73,0,-15.132,-4.16847,34.3398,Q,Q
2023-03-14 22:30:11:83,0,-15.1224,-4.17342,34.306,Q,Q
2023-03-14 22:30:11:93,0,-15.1214,-4.17593,34.272,Q,Q
2023-03-14 22:30:11:103,0,-15.1228,-4.17815,34.2432,Q,Q
2023-03-14 22:30:11:113,0,-15.131,-4.18417,34.2157,Q,Q
2023-03-14 22:30:11:123,0,-15.1334,-4.1888,34.1937,Q,Q
2023-03-14 22:30:11:133,0,-15.1404,-4.20129,34.173,Q,Q
2023-03-14 22:30:11:143,0,-15.1466,-4.21209,34.1462,Q,Q
2023-03-14 22:30:11:153,0,-15.149,-4.22046,34.127,Q,Q
2023-03-14 22:30:11:163,0,-15.1574,-4.22924,34.1187,Q,Q
2023-03-14 22:30:11:173,0,-15.1642,-4.23604,34.1163,Q,Q
2023-03-14 22:30:11:183,0,-15.1684,-4.23699,34.1161,Q,Q
2023-03-14 22:30:11:193,0,-15.1743,-4.23464,34.1172,Q,Q
2023-03-14 22:30:11:204,0,-15.1845,-4.22847,34.1188,Q,Q
2023-03-14 22:30:11:213,0,-15.1867,-4.21684,34.1262,Q,Q
2023-03-14 22:30:11:223,0,-15.1871,-4.20507,34.1359,Q,Q
2023-03-14 22:30:11:233,0,-15.1832,-4.18677,34.1492,Q,Q
2023-03-14 22:30:11:243,0,-15.175,-4.16851,34.1692,Q,Q
2023-03-14 22:30:11:253,0,-15.1616,-4.14761,34.19,Q,Q
2023-03-14 22:30:11:263,0,-15.1486,-4.12664,34.2066,Q,Q
2023-03-14 22:30:11:273,0,-15.1456,-4.11065,34.2187,Q,Q
2023-03-14 22:30:11:283,0,-15.1483,-4.09819,34.2292,Q,Q
2023-03-14 22:30:11:293,0,-15.154,-4.0906,34.2285,Q,Q
2023-03-14 22:30:11:303,0,-15.1506,-4.08676,34.2204,Q,Q
2023-03-14 22:30:11:313,0,-15.1474,-4.0813,34.2063,Q,Q
2023-03-14 22:30:11:324,0,-15.1388,-4.07714,34.1911,Q,Q
2023-03-14 22:30:11:333,0,-15.1319,-4.0712,34.173,Q,Q
2023-03-14 22:30:11:344,0,-15.1296,-4.06812,34.1531,Q,Q
2023-03-14 22:30:11:353,0,-15.128,-4.06906,34.1311,Q,Q
2023-03-14 22:30:11:363,0,-15.1251,-4.07111,34.1096,Q,Q
2023-03-14 22:30:11:373,0,-15.1241,-4.07123,34.0842,Q,Q
2023-03-14 22:30:11:383,0,-15.1236,-4.07129,34.058,Q,Q
2023-03-14 22:30:11:393,0,-15.1184,-4.07593,34.0221,Q,Q
2023-03-14 22:30:11:403,0,-15.1127,-4.078,33.9841,Q,Q
2023-03-14 22:30:11:413,0,-15.1018,-4.07717,33.9421,Q,Q
2023-03-14 22:30:11:423,0,-15.088,-4.07835,33.9041,Q,Q
2023-03-14 22:30:11:433,0,-15.0745,-4.08232,33.8736,Q,Q
2023-03-14 22:30:11:443,0,-15.0627,-4.08532,33.8449,Q,Q
2023-03-14 22:30:11:453,0,-15.0591,-4.08978,33.8103,Q,Q
2023-03-14 22:30:11:463,0,-15.0638,-4.08983,33.7691,Q,Q
2023-03-14 22:30:11:473,0,-15.0682,-4.09263,33.7305,Q,Q
2023-03-14 22:30:11:483,0,-15.0694,-4.09193,33.6988,Q,Q
2023-03-14 22:30:11:493,0,-15.0685,-4.0917,33.6746,Q,Q
2023-03-14 22:30:11:503,0,-15.0724,-4.09636,33.6488,Q,Q
2023-03-14 22:30:11:513,0,-15.0759,-4.10055,33.629,Q,Q
2023-03-14 22:30:11:523,0,-15.0817,-4.10311,33.6129,Q,Q
2023-03-14 22:30:11:533,0,-15.0845,-4.10639,33.5966,Q,Q
2023-03-14 22:30:11:543,0,-15.0872,-4.10747,33.5804,Q,Q
2023-03-14 22:30:11:553,0,-15.0888,-4.10698,33.5708,Q,Q
2023-03-14 22:30:11:563,0,-15.091,-4.1064,33.5618,Q,Q
2023-03-14 22:30:11:573,0,-15.0918,-4.10684,33.5514,Q,Q
2023-03-14 22:30:11:583,0,-15.0911,-4.10852,33.5411,Q,Q
2023-03-14 22:30:11:593,0,-15.0918,-4.10576,33.5272,Q,Q
2023-03-14 22:30:11:603,0,-15.0922,-4.09907,33.5085,Q,Q
2023-03-14 22:30:11:613,0,-15.0862,-4.09152,33.487,Q,Q
2023-03-14 22:30:11:623,0,-15.0814,-4.08395,33.4655,Q,Q
2023-03-14 22:30:11:633,0,-15.072,-4.0796,33.4481,Q,Q
2023-03-14 22:30:11:643,0,-15.0643,-4.07797,33.4371,Q,Q
2023-03-14 22:30:11:653,0,-15.0623,-4.07873,33.4318,Q,Q
2023-03-14 22:30:11:663,0,-15.0603,-4.08028,33.4334,Q,Q
2023-03-14 22:30:11:673,0,-15.0595,-4.08043,33.4394,Q,Q
2023-03-14 22:30:11:683,0,-15.0585,-4.07779,33.4458,Q,Q
2023-03-14 22:30:11:693,0,-15.0613,-4.07737,33.4525,Q,Q
2023-03-14 22:30:11:703,0,-15.0599,-4.07436,33.4602,Q,Q
2023-03-14 22:30:11:713,0,-15.0537,-4.0726,33.4632,Q,Q
2023-03-14 22:30:11:723,0,-15.0512,-4.07337,33.4693,Q,Q
2023-03-14 22:30:11:733,0,-15.0443,-4.07088,33.4733,Q,Q
2023-03-14 22:30:11:743,0,-15.0346,-4.06961,33.4786,Q,Q
2023-03-14 22:30:11:753,0,-15.0291,-4.07346,33.4796,Q,Q
2023-03-14 22:30:11:763,0,-15.0217,-4.08063,33.4783,Q,Q
2023-03-14 22:30:11:773,0,-15.0163,-4.08572,33.4697,Q,Q
2023-03-14 22:30:11:783,0,-15.0131,-4.08544,33.4542,Q,Q
2023-03-14 22:30:11:793,0,-15.0057,-4.08463,33.4362,Q,Q
2023-03-14 22:30:11:803,0,-15.0008,-4.08252,33.4188,Q,Q
2023-03-14 22:30:11:813,0,-14.9944,-4.07654,33.4088,Q,Q
2023-03-14 22:30:11:823,0,-14.993,-4.06724,33.4019,Q,Q
2023-03-14 22:30:11:833,0,-14.9889,-4.05517,33.4011,Q,Q
2023-03-14 22:30:11:843,0,-14.9873,-4.04416,33.4029,Q,Q
2023-03-14 22:30:11:853,0,-14.9832,-4.03795,33.4066,Q,Q
2023-03-14 22:30:11:863,0,-14.9792,-4.02856,33.4118,Q,Q
2023-03-14 22:30:11:873,0,-14.9758,-4.0193,33.4143,Q,Q
2023-03-14 22:30:11:883,0,-14.9719,-4.01378,33.4145,Q,Q
2023-03-14 22:30:11:893,0,-14.9699,-4.00981,33.413,Q,Q
2023-03-14 22:30:11:903,0,-14.9706,-4.00811,33.4116,Q,Q
2023-03-14 22:30:11:913,0,-14.9784,-4.01215,33.409,Q,Q
2023-03-14 22:30:11:923,0,-14.9852,-4.01844,33.4053,Q,Q
2023-03-14 22:30:11:933,0,-14.9924,-4.02503,33.4006,Q,Q
2023-03-14 22:30:11:943,0,-14.9965,-4.0274,33.3946,Q,Q
2023-03-14 22:30:11:953,0,-15.0034,-4.0289,33.3909,Q,Q
2023-03-14 22:30:11:963,0,-15.0083,-4.02557,33.3877,Q,Q
2023-03-14 22:30:11:973,0,-15.0176,-4.02448,33.3853,Q,Q
2023-03-14 22:30:11:983,0,-15.0286,-4.02728,33.3855,Q,Q
2023-03-14 22:30:11:993,0,-15.0378,-4.02928,33.3882,Q,Q
2023-03-14 22:30:12:3,0,-15.044,-4.03489,33.3932,Q,Q
2023-03-14 22:30:12:13,0,-15.0489,-4.04344,33.3969,Q,Q
2023-03-14 22:30:12:23,0,-15.0489,-4.05252,33.3985,Q,Q
2023-03-14 22:30:12:33,0,-15.0507,-4.06466,33.3944,Q,Q
2023-03-14 22:30:12:43,0,-15.0473,-4.07818,33.3918,Q,Q
2023-03-14 22:30:12:53,0,-15.0431,-4.09,33.3841,Q,Q
2023-03-14 22:30:12:64,0,-15.0422,-4.10155,33.3726,Q,Q
2023-03-14 22:30:12:73,0,-15.04,-4.11544,33.3576,Q,Q
2023-03-14 22:30:12:84,0,-15.0336,-4.12674,33.34,Q,Q
2023-03-14 22:30:12:93,0,-15.0276,-4.13615,33.323,Q,Q
2023-03-14 22:30:12:103,0,-15.0244,-4.14621,33.3081,Q,Q
2023-03-14 22:30:12:113,0,-15.0201,-4.15613,33.2885,Q,Q
2023-03-14 22:30:12:123,0,-15.0199,-4.167,33.2713,Q,Q
2023-03-14 22:30:12:133,0,-15.0199,-4.18269,33.2563,Q,Q
2023-03-14 22:30:12:143,0,-15.0199,-4.19779,33.2404,Q,Q
2023-03-14 22:30:12:153,0,-15.0131,-4.21333,33.2216,Q,Q
2023-03-14 22:30:12:163,0,-15.0043,-4.22939,33.2019,Q,Q
2023-03-14 22:30:12:173,0,-14.995,-4.24183,33.1862,Q,Q
2023-03-14 22:30:12:184,0,-14.9838,-4.25192,33.1672,Q,Q
2023-03-14 22:30:12:193,0,-14.9785,-4.26315,33.142,Q,Q
2023-03-14 22:30:12:204,0,-14.9762,-4.27285,33.1209,Q,Q
2023-03-14 22:30:12:213,0,-14.9776,-4.28617,33.1053,Q,Q
2023-03-14 22:30:12:223,0,-14.9842,-4.30915,33.0913,Q,Q
2023-03-14 22:30:12:233,0,-14.9938,-4.33517,33.0743,Q,Q
2023-03-14 22:30:12:243,0,-14.9995,-4.36537,33.0624,Q,Q
2023-03-14 22:30:12:253,0,-15.0061,-4.39709,33.0573,Q,Q
2023-03-14 22:30:12:263,0,-15.0075,-4.41965,33.0488,Q,Q
2023-03-14 22:30:12:273,0,-15.0079,-4.44042,33.0465,Q,Q
2023-03-14 22:30:12:283,0,-14.9989,-4.45001,33.041,Q,Q
2023-03-14 22:30:12:293,0,-14.9818,-4.45433,33.0317,Q,Q
2023-03-14 22:30:12:303,0,-14.9618,-4.45257,33.0257,Q,Q
2023-03-14 22:30:12:313,0,-14.9385,-4.4431,33.021,Q,Q
2023-03-14 22:30:12:323,0,-14.9195,-4.43304,33.0209,Q,Q
2023-03-14 22:30:12:333,0,-14.9077,-4.41815,33.0256,Q,Q
2023-03-14 22:30:12:343,0,-14.9076,-4.39903,33.0329,Q,Q
2023-03-14 22:30:12:353,0,-14.9121,-4.37275,33.0365,Q,Q
2023-03-14 22:30:12:363,0,-14.9172,-4.33911,33.0404,Q,Q
2023-03-14 22:30:12:373,0,-14.9174,-4.30135,33.045,Q,Q
2023-03-14 22:30:12:383,0,-14.9132,-4.25582,33.0526,Q,Q
2023-03-14 22:30:12:393,0,-14.9004,-4.2071,33.0593,Q,Q
2023-03-14 22:30:12:403,0,-14.8859,-4.1524,33.0666,Q,Q
2023-03-14 22:30:12:413,0,-14.8727,-4.08177,33.0704,Q,Q
2023-03-14 22:30:12:423,0,-14.851,-4.00326,33.0655,Q,Q
2023-03-14 22:30:12:433,0,-14.8298,-3.92467,33.0524,Q,Q
2023-03-14 22:30:12:443,0,-14.8121,-3.85288,33.0326,Q,Q
2023-03-14 22:30:12:453,0,-14.8035,-3.79413,33.0159,Q,Q
2023-03-14 22:30:12:463,0,-14.8052,-3.75167,33.0064,Q,Q
2023-03-14 22:30:12:473,0,-14.8142,-3.71448,33.005,Q,Q
2023-03-14 22:30:12:483,0,-14.8215,-3.6815,33.0096,Q,Q
2023-03-14 22:30:12:493,0,-14.8165,-3.65579,33.0175,Q,Q
2023-03-14 22:30:12:503,0,-14.8051,-3.62982,33.0366,Q,Q
2023-03-14 22:30:12:513,0,-14.7787,-3.60121,33.0686,Q,Q
2023-03-14 22:30:12:523,0,-14.7602,-3.57498,33.1087,Q,Q
2023-03-14 22:30:12:533,0,-14.7689,-3.5594,33.1008,Q,Q
2023-03-14 22:30:12:543,0,-14.7822,-3.53627,33.0987,Q,Q
2023-03-14 22:30:12:553,0,-14.7932,-3.52903,33.1523,Q,Q
2023-03-14 22:30:12:563,0,-14.8054,-3.54538,33.2369,Q,Q
2023-03-14 22:30:12:573,0,-14.8204,-3.57222,33.3193,Q,Q
2023-03-14 22:30:12:583,0,-14.8299,-3.58737,33.3939,Q,Q
2023-03-14 22:30:12:593,0,-14.826,-3.59613,33.4745,Q,Q
2023-03-14 22:30:12:603,0,-14.8169,-3.5987,33.5602,Q,Q
2023-03-14 22:30:12:613,0,-14.7982,-3.58024,33.6426,Q,Q
2023-03-14 22:30:12:623,0,-14.7835,-3.55664,33.7138,Q,Q
2023-03-14 22:30:12:633,0,-14.7702,-3.52877,33.7808,Q,Q
2023-03-14 22:30:12:643,0,-14.7551,-3.50477,33.8462,Q,Q
2023-03-14 22:30:12:653,0,-14.7489,-3.48474,33.907,Q,Q
2023-03-14 22:30:12:663,0,-14.7608,-3.46704,33.9536,Q,Q
2023-03-14 22:30:12:673,0,-14.7858,-3.44736,33.9926,Q,Q
2023-03-14 22:30:12:683,0,-14.8241,-3.42968,34.0151,Q,Q
2023-03-14 22:30:12:693,0,-14.8769,-3.40998,34.0187,Q,Q
2023-03-14 22:30:12:703,0,-14.9384,-3.38579,34.0042,Q,Q
2023-03-14 22:30:12:713,0,-15.0037,-3.35602,33.9719,Q,Q
2023-03-14 22:30:12:723,0,-15.0759,-3.3336,33.9226,Q,Q
2023-03-14 22:30:12:733,0,-15.1532,-3.3124,33.854,Q,Q
2023-03-14 22:30:12:743,0,-15.2439,-3.30697,33.7727,Q,Q
2023-03-14 22:30:12:753,0,-15.3658,-3.3211,33.6747,Q,Q
2023-03-14 22:30:12:763,0,-15.5201,-3.36662,33.5639,Q,Q
2023-03-14 22:30:12:773,0,-15.6999,-3.44438,33.4491,Q,Q
2023-03-14 22:30:12:783,0,-15.8895,-3.53632,33.33,Q,Q
2023-03-14 22:30:12:793,0,-16.0736,-3.62852,33.216,Q,Q
2023-03-14 22:30:12:803,0,-16.2468,-3.71988,33.1031,Q,Q
2023-03-14 22:30:12:813,0,-16.4037,-3.80576,32.9869,Q,Q
2023-03-14 22:30:12:823,0,-16.5357,-3.88851,32.8686,Q,Q
2023-03-14 22:30:12:833,0,-16.6535,-3.96807,32.7591,Q,Q
2023-03-14 22:30:12:843,0,-16.7661,-4.04379,32.6598,Q,Q
2023-03-14 22:30:12:853,0,-16.8686,-4.12547,32.579,Q,Q
2023-03-14 22:30:12:864,0,-16.9661,-4.21813,32.5203,Q,Q
2023-03-14 22:30:12:873,0,-17.045,-4.30832,32.4746,Q,Q
2023-03-14 22:30:12:883,0,-17.0944,-4.39309,32.4432,Q,Q
2023-03-14 22:30:12:893,0,-17.1199,-4.4633,32.4187,Q,Q
2023-03-14 22:30:12:903,0,-17.1128,-4.53938,32.4035,Q,Q
2023-03-14 22:30:12:913,0,-17.0692,-4.61076,32.3921,Q,Q
2023-03-14 22:30:12:923,0,-17.003,-4.66022,32.4009,Q,Q
2023-03-14 22:30:12:933,0,-16.9334,-4.69122,32.4372,Q,Q
2023-03-14 22:30:12:943,0,-16.8688,-4.70872,32.4925,Q,Q
2023-03-14 22:30:12:953,0,-16.8075,-4.7283,32.5607,Q,Q
2023-03-14 22:30:12:964,0,-16.7529,-4.73627,32.6282,Q,Q
2023-03-14 22:30:12:973,0,-16.7013,-4.73091,32.6956,Q,Q
2023-03-14 22:30:12:983,0,-16.6412,-4.71194,32.7576,Q,Q
2023-03-14 22:30:12:993,0,-16.5798,-4.68194,32.8223,Q,Q
2023-03-14 22:30:13:3,0,-16.534,-4.62997,32.8881,Q,Q
2023-03-14 22:30:13:13,0,-16.4918,-4.57783,32.9521,Q,Q
2023-03-14 22:30:13:23,0,-16.4589,-4.52378,33.0141,Q,Q
2023-03-14 22:30:13:33,0,-16.4307,-4.46864,33.0682,Q,Q
2023-03-14 22:30:13:43,0,-16.4101,-4.41532,33.1106,Q,Q
2023-03-14 22:30:13:53,0,-16.3879,-4.35667,33.1423,Q,Q
2023-03-14 22:30:13:63,0,-16.364,-4.29572,33.1625,Q,Q
2023-03-14 22:30:13:73,0,-16.3376,-4.23871,33.1753,Q,Q
2023-03-14 22:30:13:84,0,-16.3164,-4.18828,33.1838,Q,Q
2023-03-14 22:30:13:93,0,-16.2997,-4.14055,33.1892,Q,Q
2023-03-14 22:30:13:103,0,-16.2907,-4.10465,33.1923,Q,Q
2023-03-14 22:30:13:113,0,-16.2942,-4.08773,33.1917,Q,Q
2023-03-14 22:30:13:123,0,-16.3017,-4.0782,33.1792,Q,Q
2023-03-14 22:30:13:133,0,-16.3103,-4.06874,33.1561,Q,Q
2023-03-14 22:30:13:143,0,-16.3092,-4.06268,33.1212,Q,Q
2023-03-14 22:30:13:153,0,-16.3053,-4.058,33.0807,Q,Q
2023-03-14 22:30:13:163,0,-16.3005,-4.05512,33.0353,Q,Q
2023-03-14 22:30:13:173,0,-16.2927,-4.06024,32.9879,Q,Q
2023-03-14 22:30:13:183,0,-16.2865,-4.06609,32.9419,Q,Q
2023-03-14 22:30:13:193,0,-16.2875,-4.08032,32.8991,Q,Q
2023-03-14 22:30:13:203,0,-16.2912,-4.10096,32.8583,Q,Q
2023-03-14 22:30:13:213,0,-16.2985,-4.12388,32.8178,Q,Q
2023-03-14 22:30:13:223,0,-16.2981,-4.14471,32.7787,Q,Q
2023-03-14 22:30:13:233,0,-16.2944,-4.1608,32.7306,Q,Q
2023-03-14 22:30:13:244,0,-16.2861,-4.17928,32.6809,Q,Q
2023-03-14 22:30:13:253,0,-16.2758,-4.20058,32.6332,Q,Q
2023-03-14 22:30:13:263,0,-16.2672,-4.22415,32.5856,Q,Q
2023-03-14 22:30:13:273,0,-16.2656,-4.2499,32.5428,Q,Q
2023-03-14 22:30:13:283,0,-16.2696,-4.28306,32.504,Q,Q
2023-03-14 22:30:13:293,0,-16.2703,-4.31714,32.4664,Q,Q
2023-03-14 22:30:13:303,0,-16.2644,-4.34498,32.4268,Q,Q
2023-03-14 22:30:13:313,0,-16.255,-4.36946,32.3921,Q,Q
2023-03-14 22:30:13:323,0,-16.2453,-4.38848,32.3584,Q,Q
2023-03-14 22:30:13:333,0,-16.2387,-4.40533,32.3263,Q,Q
2023-03-14 22:30:13:343,0,-16.2404,-4.42517,32.2974,Q,Q
2023-03-14 22:30:13:353,0,-16.2447,-4.44161,32.2619,Q,Q
2023-03-14 22:30:13:363,0,-16.2449,-4.45239,32.2238,Q,Q
2023-03-14 22:30:13:373,0,-16.243,-4.46244,32.1829,Q,Q
2023-03-14 22:30:13:383,0,-16.2464,-4.47204,32.1438,Q,Q
2023-03-14 22:30:13:394,0,-16.2545,-4.479,32.1119,Q,Q
2023-03-14 22:30:13:403,0,-16.2637,-4.47998,32.081,Q,Q
2023-03-14 22:30:13:413,0,-16.2716,-4.47752,32.0564,Q,Q
2023-03-14 22:30:13:423,0,-16.2794,-4.47394,32.0399,Q,Q
2023-03-14 22:30:13:433,0,-16.285,-4.46934,32.0338,Q,Q
2023-03-14 22:30:13:443,0,-16.2877,-4.4591,32.0357,Q,Q
2023-03-14 22:30:13:453,0,-16.2913,-4.44678,32.0436,Q,Q
2023-03-14 22:30:13:463,0,-16.2909,-4.43342,32.0558,Q,Q
2023-03-14 22:30:13:473,0,-16.2905,-4.41311,32.069,Q,Q
2023-03-14 22:30:13:483,0,-16.2798,-4.39584,32.0837,Q,Q
2023-03-14 22:30:13:493,0,-16.2631,-4.37287,32.0968,Q,Q
2023-03-14 22:30:13:503,0,-16.2405,-4.34901,32.1121,Q,Q
2023-03-14 22:30:13:513,0,-16.2105,-4.32511,32.1245,Q,Q
2023-03-14 22:30:13:523,0,-16.1784,-4.29858,32.1397,Q,Q
2023-03-14 22:30:13:533,0,-16.1561,-4.27128,32.1608,Q,Q
2023-03-14 22:30:13:543,0,-16.1418,-4.24441,32.1843,Q,Q
2023-03-14 22:30:13:553,0,-16.1336,-4.22232,32.2067,Q,Q
2023-03-14 22:30:13:563,0,-16.1257,-4.19482,32.2306,Q,Q
2023-03-14 22:30:13:573,0,-16.1191,-4.16709,32.2614,Q,Q
2023-03-14 22:30:13:583,0,-16.1141,-4.13314,32.2967,Q,Q
2023-03-14 22:30:13:593,0,-16.1089,-4.09961,32.3348,Q,Q
2023-03-14 22:30:13:603,0,-16.1141,-4.07312,32.3758,Q,Q
2023-03-14 22:30:13:613,0,-16.1171,-4.05121,32.4177,Q,Q
2023-03-14 22:30:13:623,0,-16.1175,-4.04088,32.4512,Q,Q
2023-03-14 22:30:13:633,0,-16.1179,-4.03494,32.4847,Q,Q
2023-03-14 22:30:13:643,0,-16.1146,-4.02304,32.5139,Q,Q
2023-03-14 22:30:13:653,0,-16.106,-4.00746,32.5355,Q,Q
2023-03-14 22:30:13:663,0,-16.0975,-3.98938,32.551,Q,Q
2023-03-14 22:30:13:673,0,-16.0782,-3.97309,32.5703,Q,Q
2023-03-14 22:30:13:683,0,-16.0679,-3.9666,32.586,Q,Q
2023-03-14 22:30:13:693,0,-16.0567,-3.96207,32.5955,Q,Q
2023-03-14 22:30:13:703,0,-16.0477,-3.96587,32.6091,Q,Q
2023-03-14 22:30:13:714,0,-16.0449,-3.97391,32.6205,Q,Q
2023-03-14 22:30:13:724,0,-16.0411,-3.97658,32.636,Q,Q
2023-03-14 22:30:13:733,0,-16.0395,-3.9774,32.6558,Q,Q
2023-03-14 22:30:13:744,0,-16.0379,-3.98002,32.6752,Q,Q
2023-03-14 22:30:13:754,0,-16.036,-3.97641,32.6936,Q,Q
2023-03-14 22:30:13:764,0,-16.0388,-3.97346,32.7115,Q,Q
2023-03-14 22:30:13:773,0,-16.0396,-3.97396,32.7291,Q,Q
2023-03-14 22:30:13:784,0,-16.0414,-3.98186,32.7528,Q,Q
2023-03-14 22:30:13:794,0,-16.048,-3.99743,32.774,Q,Q
2023-03-14 22:30:13:803,0,-16.0451,-4.01133,32.7897,Q,Q
2023-03-14 22:30:13:813,0,-16.0421,-4.02334,32.8078,Q,Q
2023-03-14 22:30:13:823,0,-16.0386,-4.03925,32.8237,Q,Q
2023-03-14 22:30:13:833,0,-16.0353,-4.05652,32.8382,Q,Q
2023-03-14 22:30:13:844,0,-16.0374,-4.07545,32.8541,Q,Q
2023-03-14 22:30:13:853,0,-16.0425,-4.09211,32.8698,Q,Q
2023-03-14 22:30:13:864,0,-16.0458,-4.11005,32.8831,Q,Q
2023-03-14 22:30:13:874,0,-16.0534,-4.12441,32.8966,Q,Q
2023-03-14 22:30:13:883,0,-16.0592,-4.13831,32.9093,Q,Q
2023-03-14 22:30:13:893,0,-16.0594,-4.15015,32.92,Q,Q
2023-03-14 22:30:13:903,0,-16.0579,-4.15609,32.9329,Q,Q
2023-03-14 22:30:13:914,0,-16.059,-4.16561,32.9453,Q,Q
2023-03-14 22:30:13:924,0,-16.0639,-4.1723,32.9601,Q,Q
2023-03-14 22:30:13:933,0,-16.0704,-4.18203,32.9752,Q,Q
2023-03-14 22:30:13:944,0,-16.0769,-4.1879,32.9851,Q,Q
2023-03-14 22:30:13:953,0,-16.0793,-4.18976,32.9945,Q,Q
2023-03-14 22:30:13:963,0,-16.0852,-4.18956,33.0048,Q,Q
2023-03-14 22:30:13:973,0,-16.0842,-4.19119,33.0128,Q,Q
2023-03-14 22:30:13:983,0,-16.0843,-4.19417,33.0226,Q,Q
2023-03-14 22:30:13:993,0,-16.0832,-4.19607,33.0324,Q,Q
2023-03-14 22:30:14:3,0,-16.0754,-4.19887,33.0471,Q,Q
2023-03-14 22:30:14:13,0,-16.0651,-4.20063,33.0551,Q,Q
2023-03-14 22:30:14:24,0,-16.0518,-4.19869,33.0643,Q,Q
2023-03-14 22:30:14:33,0,-16.0405,-4.19462,33.075,Q,Q
2023-03-14 22:30:14:44,0,-16.0351,-4.19218,33.0876,Q,Q
2023-03-14 22:30:14:54,0,-16.0293,-4.18845,33.0991,Q,Q
2023-03-14 22:30:14:64,0,-16.0256,-4.1849,33.1094,Q,Q
2023-03-14 22:30:14:73,0,-16.0244,-4.1802,33.1206,Q,Q
2023-03-14 22:30:14:84,0,-16.0231,-4.17546,33.1305,Q,Q
2023-03-14 22:30:14:94,0,-16.0213,-4.17262,33.1402,Q,Q
2023-03-14 22:30:14:104,0,-16.0176,-4.17109,33.1438,Q,Q
2023-03-14 22:30:14:113,0,-16.0097,-4.17057,33.152,Q,Q
2023-03-14 22:30:14:124,0,-16.0009,-4.16878,33.1593,Q,Q
2023-03-14 22:30:14:134,0,-15.9985,-4.16519,33.1681,Q,Q
2023-03-14 22:30:14:144,0,-15.9935,-4.16484,33.1759,Q,Q
2023-03-14 22:30:14:154,0,-15.9929,-4.16815,33.1862,Q,Q
2023-03-14 22:30:14:163,0,-15.9943,-4.16648,33.1935,Q,Q
2023-03-14 22:30:14:173,0,-16.0002,-4.17116,33.2023,Q,Q
2023-03-14 22:30:14:184,0,-16.0024,-4.16905,33.2118,Q,Q
2023-03-14 22:30:14:194,0,-16.0067,-4.1707,33.2226,Q,Q
2023-03-14 22:30:14:203,0,-16.0069,-4.17095,33.2343,Q,Q
2023-03-14 22:30:14:214,0,-16.0026,-4.16813,33.2428,Q,Q
2023-03-14 22:30:14:224,0,-15.997,-4.16144,33.2532,Q,Q
2023-03-14 22:30:14:234,0,-15.9839,-4.15331,33.2589,Q,Q
2023-03-14 22:30:14:243,0,-15.9681,-4.13834,33.2606,Q,Q
2023-03-14 22:30:14:253,0,-15.954,-4.12716,33.2635,Q,Q
2023-03-14 22:30:14:264,0,-15.9422,-4.11462,33.2709,Q,Q
2023-03-14 22:30:14:273,0,-15.9328,-4.09924,33.2771,Q,Q
2023-03-14 22:30:14:283,0,-15.9272,-4.08788,33.2876,Q,Q
2023-03-14 22:30:14:293,0,-15.9217,-4.07594,33.2958,Q,Q
2023-03-14 22:30:14:304,0,-15.9158,-4.06596,33.3088,Q,Q
2023-03-14 22:30:14:313,0,-15.9109,-4.05796,33.3227,Q,Q
2023-03-14 22:30:14:323,0,-15.9128,-4.04985,33.3402,Q,Q
2023-03-14 22:30:14:333,0,-15.9152,-4.04383,33.3596,Q,Q
2023-03-14 22:30:14:343,0,-15.9186,-4.036,33.389,Q,Q
2023-03-14 22:30:14:353,0,-15.9236,-4.02538,33.4184,Q,Q
2023-03-14 22:30:14:363,0,-15.9293,-4.01155,33.4431,Q,Q
2023-03-14 22:30:14:373,0,-15.9315,-3.99192,33.4722,Q,Q
2023-03-14 22:30:14:383,0,-15.9227,-3.97049,33.4962,Q,Q
2023-03-14 22:30:14:393,0,-15.9072,-3.94097,33.5171,Q,Q
2023-03-14 22:30:14:403,0,-15.8811,-3.90592,33.5341,Q,Q
2023-03-14 22:30:14:413,0,-15.851,-3.85747,33.547,Q,Q
2023-03-14 22:30:14:423,0,-15.8152,-3.79314,33.5586,Q,Q
2023-03-14 22:30:14:433,0,-15.7852,-3.71801,33.5653,Q,Q
2023-03-14 22:30:14:443,0,-15.7673,-3.63884,33.5694,Q,Q
2023-03-14 22:30:14:453,0,-15.758,-3.55769,33.5785,Q,Q
2023-03-14 22:30:14:463,0,-15.7625,-3.48522,33.5942,Q,Q
2023-03-14 22:30:14:473,0,-15.7659,-3.41917,33.6144,Q,Q
2023-03-14 22:30:14:483,0,-15.762,-3.36252,33.6361,Q,Q
2023-03-14 22:30:14:493,0,-15.7578,-3.31255,33.6597,Q,Q
2023-03-14 22:30:14:504,0,-15.7593,-3.26871,33.6951,Q,Q
2023-03-14 22:30:14:513,0,-15.7696,-3.23425,33.7467,Q,Q
2023-03-14 22:30:14:524,0,-15.788,-3.215,33.8082,Q,Q
2023-03-14 22:30:14:533,0,-15.8185,-3.20672,33.8839,Q,Q
2023-03-14 22:30:14:543,0,-15.8479,-3.19953,33.9657,Q,Q
2023-03-14 22:30:14:553,0,-15.8783,-3.19199,34.0503,Q,Q
2023-03-14 22:30:14:563,0,-15.9063,-3.18529,34.1391,Q,Q
2023-03-14 22:30:14:573,0,-15.9332,-3.17247,34.2345,Q,Q
2023-03-14 22:30:14:583,0,-15.9654,-3.15434,34.3323,Q,Q
2023-03-14 22:30:14:593,0,-16.0036,-3.13909,34.4308,Q,Q
2023-03-14 22:30:14:603,0,-16.0401,-3.12475,34.5252,Q,Q
2023-03-14 22:30:14:613,0,-16.0775,-3.10926,34.6167,Q,Q
2023-03-14 22:30:14:623,0,-16.1106,-3.09071,34.7017,Q,Q
2023-03-14 22:30:14:633,0,-16.1356,-3.06999,34.7812,Q,Q
2023-03-14 22:30:14:643,0,-16.1536,-3.04603,34.8522,Q,Q
2023-03-14 22:30:14:653,0,-16.166,-3.02437,34.9181,Q,Q
2023-03-14 22:30:14:664,0,-16.1739,-3.00772,34.9811,Q,Q
2023-03-14 22:30:14:673,0,-16.179,-2.99766,35.0362,Q,Q
2023-03-14 22:30:14:683,0,-16.1855,-2.99898,35.0829,Q,Q
2023-03-14 22:30:14:693,0,-16.1865,-3.0088,35.1254,Q,Q
2023-03-14 22:30:14:703,0,-16.1872,-3.02795,35.1616,Q,Q
2023-03-14 22:30:14:713,0,-16.1824,-3.05326,35.1986,Q,Q
2023-03-14 22:30:14:723,0,-16.1797,-3.08366,35.2343,Q,Q
2023-03-14 22:30:14:733,0,-16.1762,-3.12022,35.2637,Q,Q
2023-03-14 22:30:14:743,0,-16.1687,-3.15908,35.2913,Q,Q
2023-03-14 22:30:14:753,0,-16.1609,-3.19874,35.3157,Q,Q
2023-03-14 22:30:14:763,0,-16.1515,-3.24002,35.3362,Q,Q
2023-03-14 22:30:14:773,0,-16.1385,-3.27828,35.354,Q,Q
2023-03-14 22:30:14:783,0,-16.1231,-3.31912,35.3725,Q,Q
2023-03-14 22:30:14:793,0,-16.1011,-3.35546,35.3913,Q,Q
2023-03-14 22:30:14:803,0,-16.0741,-3.39112,35.4086,Q,Q
2023-03-14 22:30:14:813,0,-16.0444,-3.4189,35.4269,Q,Q
2023-03-14 22:30:14:823,0,-16.0129,-3.43834,35.4454,Q,Q
2023-03-14 22:30:14:833,0,-15.9853,-3.45534,35.4641,Q,Q
2023-03-14 22:30:14:843,0,-15.9644,-3.46961,35.4839,Q,Q
2023-03-14 22:30:14:853,0,-15.9541,-3.48184,35.5052,Q,Q
2023-03-14 22:30:14:863,0,-15.9538,-3.48835,35.5331,Q,Q
2023-03-14 22:30:14:873,0,-15.9518,-3.48979,35.5709,Q,Q
2023-03-14 22:30:14:883,0,-15.9288,-3.48295,35.6411,Q,Q
2023-03-14 22:30:14:893,0,-15.9021,-3.48203,35.7274,Q,Q
2023-03-14 22:30:14:903,0,-15.8785,-3.47593,35.8009,Q,Q
2023-03-14 22:30:14:913,0,-15.8643,-3.46192,35.8651,Q,Q
2023-03-14 22:30:14:923,0,-15.8553,-3.44411,35.9351,Q,Q
2023-03-14 22:30:14:933,0,-15.8417,-3.43274,36.0089,Q,Q
2023-03-14 22:30:14:943,0,-15.8279,-3.42498,36.0804,Q,Q
2023-03-14 22:30:14:953,0,-15.8166,-3.42023,36.1525,Q,Q
2023-03-14 22:30:14:963,0,-15.8111,-3.41442,36.2209,Q,Q
2023-03-14 22:30:14:973,0,-15.8103,-3.41129,36.2831,Q,Q
2023-03-14 22:30:14:984,0,-15.8162,-3.41409,36.3426,Q,Q
2023-03-14 22:30:14:993,0,-15.8312,-3.42762,36.3987,Q,Q
2023-03-14 22:30:15:3,0,-15.854,-3.44856,36.4528,Q,Q
2023-03-14 22:30:15:13,0,-15.8816,-3.47846,36.5035,Q,Q
2023-03-14 22:30:15:23,0,-15.9142,-3.51423,36.5474,Q,Q
2023-03-14 22:30:15:33,0,-15.9508,-3.55497,36.5946,Q,Q
2023-03-14 22:30:15:43,0,-15.9925,-3.60302,36.6374,Q,Q
2023-03-14 22:30:15:53,0,-16.0355,-3.65284,36.6802,Q,Q
2023-03-14 22:30:15:63,0,-16.0839,-3.70705,36.7192,Q,Q
2023-03-14 22:30:15:73,0,-16.1368,-3.76067,36.754,Q,Q
2023-03-14 22:30:15:83,0,-16.193,-3.81419,36.7828,Q,Q
2023-03-14 22:30:15:93,0,-16.2508,-3.86501,36.8105,Q,Q
2023-03-14 22:30:15:103,0,-16.3104,-3.91252,36.8353,Q,Q
2023-03-14 22:30:15:113,0,-16.3807,-3.96004,36.8678,Q,Q
2023-03-14 22:30:15:123,0,-16.4564,-4.00056,36.9088,Q,Q
2023-03-14 22:30:15:133,0,-16.5322,-4.03911,36.9543,Q,Q
2023-03-14 22:30:15:144,0,-16.6036,-4.07215,37.0106,Q,Q
2023-03-14 22:30:15:153,0,-16.6722,-4.10481,37.0721,Q,Q
2023-03-14 22:30:15:163,0,-16.7293,-4.13175,37.1343,Q,Q
2023-03-14 22:30:15:173,0,-16.7704,-4.15006,37.1976,Q,Q
2023-03-14 22:30:15:184,0,-16.8009,-4.15657,37.2604,Q,Q
2023-03-14 22:30:15:193,0,-16.8218,-4.15177,37.3187,Q,Q
2023-03-14 22:30:15:204,0,-16.8303,-4.14074,37.3685,Q,Q
2023-03-14 22:30:15:213,0,-16.8332,-4.12484,37.4115,Q,Q
2023-03-14 22:30:15:223,0,-16.8342,-4.1097,37.4441,Q,Q
2023-03-14 22:30:15:233,0,-16.8287,-4.09492,37.4732,Q,Q
2023-03-14 22:30:15:243,0,-16.8266,-4.08622,37.4937,Q,Q
2023-03-14 22:30:15:253,0,-16.8237,-4.08021,37.5118,Q,Q
2023-03-14 22:30:15:263,0,-16.8186,-4.07677,37.5218,Q,Q
2023-03-14 22:30:15:273,0,-16.8154,-4.07426,37.5268,Q,Q
2023-03-14 22:30:15:283,0,-16.8068,-4.07133,37.5238,Q,Q
2023-03-14 22:30:15:293,0,-16.7935,-4.06959,37.5141,Q,Q
2023-03-14 22:30:15:303,0,-16.7702,-4.05884,37.4988,Q,Q
2023-03-14 22:30:15:313,0,-16.744,-4.04902,37.4802,Q,Q
2023-03-14 22:30:15:323,0,-16.7142,-4.03917,37.4548,Q,Q
2023-03-14 22:30:15:333,0,-16.6803,-4.02714,37.4259,Q,Q
2023-03-14 22:30:15:343,0,-16.6473,-4.01437,37.3984,Q,Q
2023-03-14 22:30:15:353,0,-16.6162,-3.9994,37.3678,Q,Q
2023-03-14 22:30:15:364,0,-16.5924,-3.98542,37.3396,Q,Q
2023-03-14 22:30:15:373,0,-16.5745,-3.97549,37.308,Q,Q
2023-03-14 22:30:15:383,0,-16.5603,-3.96432,37.2754,Q,Q
2023-03-14 22:30:15:393,0,-16.5509,-3.95153,37.2391,Q,Q
2023-03-14 22:30:15:403,0,-16.5391,-3.94024,37.2011,Q,Q
2023-03-14 22:30:15:413,0,-16.5252,-3.92935,37.1597,Q,Q
2023-03-14 22:30:15:423,0,-16.5059,-3.91745,37.113,Q,Q
2023-03-14 22:30:15:433,0,-16.4912,-3.9084,37.0646,Q,Q
2023-03-14 22:30:15:444,0,-16.4747,-3.90508,37.0158,Q,Q
2023-03-14 22:30:15:453,0,-16.4596,-3.90538,36.9654,Q,Q
2023-03-14 22:30:15:463,0,-16.4403,-3.91151,36.9185,Q,Q
2023-03-14 22:30:15:473,0,-16.4251,-3.92149,36.8688,Q,Q
2023-03-14 22:30:15:483,0,-16.4098,-3.93259,36.8197,Q,Q
2023-03-14 22:30:15:493,0,-16.3989,-3.94176,36.7703,Q,Q
2023-03-14 22:30:15:503,0,-16.3919,-3.94961,36.7269,Q,Q
2023-03-14 22:30:15:513,0,-16.3871,-3.962,36.6795,Q,Q
2023-03-14 22:30:15:523,0,-16.3825,-3.97236,36.6297,Q,Q
2023-03-14 22:30:15:533,0,-16.3822,-3.97665,36.5828,Q,Q
2023-03-14 22:30:15:543,0,-16.3856,-3.9821,36.538,Q,Q
2023-03-14 22:30:15:553,0,-16.3988,-3.9875,36.4961,Q,Q
2023-03-14 22:30:15:563,0,-16.4179,-3.98951,36.4525,Q,Q
2023-03-14 22:30:15:573,0,-16.4435,-3.98714,36.4016,Q,Q
2023-03-14 22:30:15:583,0,-16.474,-3.98876,36.3476,Q,Q
2023-03-14 22:30:15:593,0,-16.4977,-3.9939,36.301,Q,Q
2023-03-14 22:30:15:603,0,-16.528,-4.00401,36.2596,Q,Q
2023-03-14 22:30:15:613,0,-16.5572,-4.01629,36.2115,Q,Q
2023-03-14 22:30:15:623,0,-16.5868,-4.03271,36.1555,Q,Q
2023-03-14 22:30:15:633,0,-16.6157,-4.04488,36.0982,Q,Q
2023-03-14 22:30:15:643,0,-16.6403,-4.04794,36.0334,Q,Q
2023-03-14 22:30:15:653,0,-16.6551,-4.03851,35.956,Q,Q
2023-03-14 22:30:15:663,0,-16.6649,-4.0239,35.8664,Q,Q
2023-03-14 22:30:15:674,0,-16.669,-4.00614,35.7656,Q,Q
2023-03-14 22:30:15:683,0,-16.6721,-3.98848,35.6642,Q,Q
2023-03-14 22:30:15:693,0,-16.6724,-3.97234,35.5619,Q,Q
2023-03-14 22:30:15:703,0,-16.6696,-3.95533,35.4593,Q,Q
2023-03-14 22:30:15:713,0,-16.6655,-3.94009,35.3518,Q,Q
2023-03-14 22:30:15:723,0,-16.6658,-3.92479,35.25,Q,Q
2023-03-14 22:30:15:733,0,-16.6705,-3.90133,35.1553,Q,Q
2023-03-14 22:30:15:743,0,-16.6783,-3.88125,35.0605,Q,Q
2023-03-14 22:30:15:753,0,-16.6806,-3.85891,34.9717,Q,Q
2023-03-14 22:30:15:763,0,-16.682,-3.83508,34.8878,Q,Q
2023-03-14 22:30:15:773,0,-16.6833,-3.81135,34.8078,Q,Q
2023-03-14 22:30:15:783,0,-16.6849,-3.7818,34.7399,Q,Q
2023-03-14 22:30:15:793,0,-16.6874,-3.75617,34.6827,Q,Q
2023-03-14 22:30:15:803,0,-16.6924,-3.73492,34.643,Q,Q
2023-03-14 22:30:15:813,0,-16.6993,-3.71823,34.6228,Q,Q
2023-03-14 22:30:15:823,0,-16.7055,-3.70182,34.6101,Q,Q
2023-03-14 22:30:15:833,0,-16.7057,-3.68539,34.6087,Q,Q
2023-03-14 22:30:15:843,0,-16.6993,-3.65545,34.6034,Q,Q
2023-03-14 22:30:15:853,0,-16.693,-3.61608,34.5996,Q,Q
2023-03-14 22:30:15:863,0,-16.6808,-3.55788,34.5885,Q,Q
2023-03-14 22:30:15:873,0,-16.6609,-3.50181,34.5836,Q,Q
2023-03-14 22:30:15:883,0,-16.642,-3.45675,34.5971,Q,Q
2023-03-14 22:30:15:893,0,-16.6263,-3.42319,34.6264,Q,Q
2023-03-14 22:30:15:903,0,-16.6036,-3.39899,34.671,Q,Q
2023-03-14 22:30:15:914,0,-16.5777,-3.37972,34.7246,Q,Q
2023-03-14 22:30:15:924,0,-16.5484,-3.35749,34.7694,Q,Q
2023-03-14 22:30:15:934,0,-16.5144,-3.32574,34.802,Q,Q
2023-03-14 22:30:15:944,0,-16.4746,-3.27816,34.8228,Q,Q
2023-03-14 22:30:15:953,0,-16.4288,-3.2237,34.8393,Q,Q
2023-03-14 22:30:15:964,0,-16.387,-3.17411,34.8584,Q,Q
2023-03-14 22:30:15:973,0,-16.3712,-3.12913,34.8899,Q,Q
2023-03-14 22:30:15:984,0,-16.3802,-3.09719,34.9286,Q,Q
2023-03-14 22:30:15:993,0,-16.4117,-3.07483,34.972,Q,Q
2023-03-14 22:30:16:3,0,-16.4539,-3.07504,35.015,Q,Q
2023-03-14 22:30:16:13,0,-16.4988,-3.08615,35.0557,Q,Q
2023-03-14 22:30:16:23,0,-16.543,-3.10383,35.0923,Q,Q
2023-03-14 22:30:16:33,0,-16.5828,-3.11685,35.1219,Q,Q
2023-03-14 22:30:16:43,0,-16.61,-3.12059,35.138,Q,Q
2023-03-14 22:30:16:53,0,-16.6139,-3.11953,35.1427,Q,Q
2023-03-14 22:30:16:64,0,-16.6063,-3.11533,35.1346,Q,Q
2023-03-14 22:30:16:73,0,-16.5919,-3.11237,35.1248,Q,Q
2023-03-14 22:30:16:84,0,-16.5791,-3.1169,35.1118,Q,Q
2023-03-14 22:30:16:93,0,-16.5775,-3.1289,35.1082,Q,Q
2023-03-14 22:30:16:103,0,-16.5897,-3.14314,35.1105,Q,Q
2023-03-14 22:30:16:113,0,-16.61,-3.1641,35.1126,Q,Q
2023-03-14 22:30:16:123,0,-16.6359,-3.18424,35.1066,Q,Q
2023-03-14 22:30:16:133,0,-16.6608,-3.20335,35.0975,Q,Q
2023-03-14 22:30:16:143,0,-16.6811,-3.21107,35.0811,Q,Q
2023-03-14 22:30:16:153,0,-16.7058,-3.21027,35.0627,Q,Q
2023-03-14 22:30:16:164,0,-16.7319,-3.20857,35.0419,Q,Q
2023-03-14 22:30:16:173,0,-16.7711,-3.2108,35.0169,Q,Q
2023-03-14 22:30:16:184,0,-16.8119,-3.2201,34.9952,Q,Q
2023-03-14 22:30:16:193,0,-16.8617,-3.22738,34.975,Q,Q
2023-03-14 22:30:16:204,0,-16.9077,-3.24242,34.9521,Q,Q
2023-03-14 22:30:16:213,0,-16.9468,-3.25668,34.9283,Q,Q
2023-03-14 22:30:16:223,0,-16.9856,-3.27351,34.9099,Q,Q
2023-03-14 22:30:16:233,0,-17.0227,-3.29205,34.8888,Q,Q
2023-03-14 22:30:16:243,0,-17.0488,-3.30996,34.8618,Q,Q
2023-03-14 22:30:16:253,0,-17.0637,-3.31712,34.8304,Q,Q
2023-03-14 22:30:16:263,0,-17.0778,-3.31908,34.8077,Q,Q
2023-03-14 22:30:16:273,0,-17.0844,-3.32158,34.7844,Q,Q
2023-03-14 22:30:16:283,0,-17.085,-3.32989,34.7667,Q,Q
2023-03-14 22:30:16:293,0,-17.0873,-3.33645,34.752,Q,Q
2023-03-14 22:30:16:303,0,-17.0908,-3.3464,34.7409,Q,Q
2023-03-14 22:30:16:313,0,-17.1062,-3.35865,34.7289,Q,Q
2023-03-14 22:30:16:323,0,-17.1286,-3.37028,34.7086,Q,Q
2023-03-14 22:30:16:333,0,-17.1563,-3.38499,34.6912,Q,Q
2023-03-14 22:30:16:343,0,-17.183,-3.39838,34.6656,Q,Q
2023-03-14 22:30:16:353,0,-17.2101,-3.40716,34.642,Q,Q
2023-03-14 22:30:16:363,0,-17.2345,-3.41787,34.6198,Q,Q
2023-03-14 22:30:16:373,0,-17.2622,-3.43355,34.5998,Q,Q
2023-03-14 22:30:16:384,0,-17.2896,-3.44111,34.584,Q,Q
2023-03-14 22:30:16:393,0,-17.321,-3.44686,34.5663,Q,Q
2023-03-14 22:30:16:404,0,-17.3533,-3.44972,34.5501,Q,Q
2023-03-14 22:30:16:413,0,-17.3832,-3.45791,34.5247,Q,Q
2023-03-14 22:30:16:423,0,-17.4162,-3.47027,34.4952,Q,Q
2023-03-14 22:30:16:433,0,-17.4508,-3.48744,34.4684,Q,Q
2023-03-14 22:30:16:443,0,-17.4895,-3.51002,34.4394,Q,Q
2023-03-14 22:30:16:453,0,-17.5291,-3.53262,34.4099,Q,Q
2023-03-14 22:30:16:463,0,-17.5714,-3.55606,34.38,Q,Q
2023-03-14 22:30:16:473,0,-17.6204,-3.58502,34.3458,Q,Q
2023-03-14 22:30:16:483,0,-17.6635,-3.61007,34.3096,Q,Q
2023-03-14 22:30:16:493,0,-17.7029,-3.63056,34.2654,Q,Q
2023-03-14 22:30:16:503,0,-17.7381,-3.65046,34.2185,Q,Q
2023-03-14 22:30:16:513,0,-17.7664,-3.66339,34.171,Q,Q
2023-03-14 22:30:16:523,0,-17.7876,-3.67113,34.1307,Q,Q
2023-03-14 22:30:16:533,0,-17.8133,-3.67812,34.0945,Q,Q
2023-03-14 22:30:16:543,0,-17.8361,-3.68689,34.0607,Q,Q
2023-03-14 22:30:16:553,0,-17.8605,-3.6994,34.0319,Q,Q
2023-03-14 22:30:16:563,0,-17.8806,-3.70813,34.0018,Q,Q
2023-03-14 22:30:16:573,0,-17.8964,-3.71187,33.9731,Q,Q
2023-03-14 22:30:16:583,0,-17.914,-3.71584,33.9463,Q,Q
2023-03-14 22:30:16:593,0,-17.9279,-3.71489,33.9196,Q,Q
2023-03-14 22:30:16:603,0,-17.9415,-3.71067,33.8987,Q,Q
2023-03-14 22:30:16:613,0,-17.9511,-3.70391,33.88,Q,Q
2023-03-14 22:30:16:623,0,-17.9622,-3.69961,33.8649,Q,Q
2023-03-14 22:30:16:633,0,-17.9745,-3.69055,33.8494,Q,Q
2023-03-14 22:30:16:643,0,-17.9864,-3.67959,33.8286,Q,Q
2023-03-14 22:30:16:653,0,-17.9982,-3.66824,33.8072,Q,Q
2023-03-14 22:30:16:663,0,-18.0046,-3.65463,33.7858,Q,Q
2023-03-14 22:30:16:673,0,-18.0001,-3.64245,33.7602,Q,Q
2023-03-14 22:30:16:683,0,-17.9983,-3.63395,33.7403,Q,Q
2023-03-14 22:30:16:693,0,-17.9933,-3.62659,33.7162,Q,Q
2023-03-14 22:30:16:703,0,-17.9898,-3.62573,33.6924,Q,Q
2023-03-14 22:30:16:713,0,-17.9842,-3.62504,33.6687,Q,Q
2023-03-14 22:30:16:723,0,-17.9758,-3.6251,33.64,Q,Q
2023-03-14 22:30:16:733,0,-17.9618,-3.62677,33.6069,Q,Q
2023-03-14 22:30:16:744,0,-17.938,-3.62637,33.5783,Q,Q
2023-03-14 22:30:16:753,0,-17.91,-3.62914,33.5518,Q,Q
2023-03-14 22:30:16:764,0,-17.8758,-3.63384,33.5247,Q,Q
2023-03-14 22:30:16:773,0,-17.8406,-3.64089,33.4956,Q,Q
2023-03-14 22:30:16:783,0,-17.8057,-3.64746,33.469,Q,Q
2023-03-14 22:30:16:793,0,-17.7699,-3.65553,33.4391,Q,Q
2023-03-14 22:30:16:803,0,-17.7382,-3.66428,33.4066,Q,Q
2023-03-14 22:30:16:813,0,-17.705,-3.67187,33.3696,Q,Q
2023-03-14 22:30:16:823,0,-17.6735,-3.67574,33.33,Q,Q
2023-03-14 22:30:16:833,0,-17.643,-3.68504,33.2868,Q,Q
2023-03-14 22:30:16:844,0,-17.6146,-3.70113,33.2443,Q,Q
2023-03-14 22:30:16:853,0,-17.5856,-3.71703,33.2065,Q,Q
2023-03-14 22:30:16:863,0,-17.5621,-3.74001,33.167,Q,Q
2023-03-14 22:30:16:873,0,-17.5347,-3.7637,33.121,Q,Q
2023-03-14 22:30:16:883,0,-17.4995,-3.78879,33.0668,Q,Q
2023-03-14 22:30:16:893,0,-17.4567,-3.81158,33.0054,Q,Q
2023-03-14 22:30:16:903,0,-17.4073,-3.82784,32.9411,Q,Q
2023-03-14 22:30:16:913,0,-17.3596,-3.84148,32.8795,Q,Q
2023-03-14 22:30:16:923,0,-17.3149,-3.85544,32.8255,Q,Q
2023-03-14 22:30:16:933,0,-17.2724,-3.87333,32.7813,Q,Q
2023-03-14 22:30:16:943,0,-17.2367,-3.89495,32.7408,Q,Q
2023-03-14 22:30:16:953,0,-17.2134,-3.9129,32.7065,Q,Q
2023-03-14 22:30:16:963,0,-17.1962,-3.93228,32.6748,Q,Q
2023-03-14 22:30:16:973,0,-17.1828,-3.94861,32.6496,Q,Q
2023-03-14 22:30:16:983,0,-17.1635,-3.96543,32.6263,Q,Q
2023-03-14 22:30:16:993,0,-17.1354,-3.98288,32.6089,Q,Q
2023-03-14 22:30:17:4,0,-17.0984,-4.00736,32.5975,Q,Q
2023-03-14 22:30:17:13,0,-17.0716,-4.02179,32.596,Q,Q
2023-03-14 22:30:17:24,0,-17.0572,-4.03486,32.6031,Q,Q
2023-03-14 22:30:17:33,0,-17.0534,-4.0507,32.609,Q,Q
2023-03-14 22:30:17:43,0,-17.0548,-4.07111,32.6145,Q,Q
2023-03-14 22:30:17:53,0,-17.052,-4.09595,32.6172,Q,Q
2023-03-14 22:30:17:63,0,-17.0424,-4.11671,32.622,Q,Q
2023-03-14 22:30:17:73,0,-17.0205,-4.13785,32.621,Q,Q
2023-03-14 22:30:17:83,0,-16.9926,-4.15875,32.6168,Q,Q
2023-03-14 22:30:17:93,0,-16.9632,-4.17573,32.6178,Q,Q
2023-03-14 22:30:17:103,0,-16.9344,-4.19149,32.6213,Q,Q
2023-03-14 22:30:17:113,0,-16.9107,-4.21612,32.6277,Q,Q
2023-03-14 22:30:17:123,0,-16.8893,-4.24639,32.6354,Q,Q
2023-03-14 22:30:17:133,0,-16.8665,-4.27476,32.6409,Q,Q
2023-03-14 22:30:17:143,0,-16.8399,-4.30261,32.6478,Q,Q
2023-03-14 22:30:17:153,0,-16.8155,-4.32764,32.6488,Q,Q
2023-03-14 22:30:17:164,0,-16.7932,-4.34713,32.6492,Q,Q
2023-03-14 22:30:17:173,0,-16.7777,-4.35922,32.644,Q,Q
2023-03-14 22:30:17:183,0,-16.7637,-4.36715,32.6393,Q,Q
2023-03-14 22:30:17:193,0,-16.754,-4.37471,32.6393,Q,Q
2023-03-14 22:30:17:204,0,-16.746,-4.37749,32.6348,Q,Q
2023-03-14 22:30:17:213,0,-16.7344,-4.37701,32.6294,Q,Q
2023-03-14 22:30:17:223,0,-16.7258,-4.37668,32.6264,Q,Q
2023-03-14 22:30:17:233,0,-16.7203,-4.37308,32.6279,Q,Q
2023-03-14 22:30:17:243,0,-16.7184,-4.37385,32.6284,Q,Q
2023-03-14 22:30:17:253,0,-16.7179,-4.37439,32.6206,Q,Q
2023-03-14 22:30:17:264,0,-16.712,-4.37863,32.6054,Q,Q
2023-03-14 22:30:17:273,0,-16.7069,-4.37823,32.582,Q,Q
2023-03-14 22:30:17:283,0,-16.6957,-4.38007,32.5545,Q,Q
2023-03-14 22:30:17:293,0,-16.6828,-4.38134,32.522,Q,Q
2023-03-14 22:30:17:303,0,-16.6751,-4.38166,32.4862,Q,Q
2023-03-14 22:30:17:313,0,-16.6677,-4.38448,32.4479,Q,Q
2023-03-14 22:30:17:323,0,-16.6618,-4.38538,32.4079,Q,Q
2023-03-14 22:30:17:333,0,-16.6566,-4.3937,32.3695,Q,Q
2023-03-14 22:30:17:344,0,-16.6527,-4.40008,32.3281,Q,Q
2023-03-14 22:30:17:353,0,-16.6517,-4.4021,32.2864,Q,Q
2023-03-14 22:30:17:363,0,-16.6535,-4.40091,32.2436,Q,Q
2023-03-14 22:30:17:374,0,-16.6551,-4.39632,32.2042,Q,Q
2023-03-14 22:30:17:383,0,-16.6627,-4.39392,32.1661,Q,Q
