Timestamp_cmd,imu_cmd,roll_delta,pitch_delta,yaw_delta,voice_type,voice_length
2023-03-14 18:15:21:298,0,-15.8711,-4.10262,61.9595,Q,Q
2023-03-14 18:15:21:307,0,-15.88,-4.10518,61.9655,Q,Q
2023-03-14 18:15:21:317,0,-15.8896,-4.10366,61.967,Q,Q
2023-03-14 18:15:21:327,0,-15.8993,-4.10087,61.962,Q,Q
2023-03-14 18:15:21:337,0,-15.9074,-4.09921,61.9581,Q,Q
2023-03-14 18:15:21:347,0,-15.907,-4.09314,61.95,Q,Q
2023-03-14 18:15:21:357,0,-15.9049,-4.08543,61.9412,Q,Q
2023-03-14 18:15:21:367,0,-15.901,-4.08034,61.9346,Q,Q
2023-03-14 18:15:21:377,0,-15.8958,-4.07935,61.9301,Q,Q
2023-03-14 18:15:21:387,0,-15.8897,-4.07937,61.9263,Q,Q
2023-03-14 18:15:21:397,0,-15.8833,-4.0812,61.9235,Q,Q
2023-03-14 18:15:21:407,0,-15.8836,-4.0783,61.9184,Q,Q
2023-03-14 18:15:21:417,0,-15.8808,-4.0781,61.9102,Q,Q
2023-03-14 18:15:21:427,0,-15.8792,-4.07155,61.9025,Q,Q
2023-03-14 18:15:21:437,0,-15.8785,-4.06393,61.8915,Q,Q
2023-03-14 18:15:21:447,0,-15.8761,-4.05652,61.8804,Q,Q
2023-03-14 18:15:21:457,0,-15.8742,-4.04588,61.8675,Q,Q
2023-03-14 18:15:21:467,0,-15.8664,-4.03577,61.8554,Q,Q
2023-03-14 18:15:21:477,0,-15.8652,-4.02471,61.8451,Q,Q
2023-03-14 18:15:21:487,0,-15.8648,-4.01765,61.8327,Q,Q
2023-03-14 18:15:21:497,0,-15.8611,-4.00798,61.824,Q,Q
2023-03-14 18:15:21:507,0,-15.8546,-4.00447,61.8151,Q,Q
2023-03-14 18:15:21:517,0,-15.8513,-3.99746,61.8061,Q,Q
2023-03-14 18:15:21:527,0,-15.8477,-3.99306,61.7948,Q,Q
2023-03-14 18:15:21:537,0,-15.8444,-3.98685,61.787,Q,Q
2023-03-14 18:15:21:547,0,-15.8426,-3.98252,61.7786,Q,Q
2023-03-14 18:15:21:557,0,-15.842,-3.9804,61.7683,Q,Q
2023-03-14 18:15:21:567,0,-15.8415,-3.97632,61.7611,Q,Q
2023-03-14 18:15:21:577,0,-15.8469,-3.97407,61.7551,Q,Q
2023-03-14 18:15:21:587,0,-15.8508,-3.97203,61.7535,Q,Q
2023-03-14 18:15:21:597,0,-15.8516,-3.97021,61.7503,Q,Q
2023-03-14 18:15:21:607,0,-15.8525,-3.96637,61.7487,Q,Q
2023-03-14 18:15:21:617,0,-15.8513,-3.96396,61.7481,Q,Q
2023-03-14 18:15:21:627,0,-15.8532,-3.96119,61.7481,Q,Q
2023-03-14 18:15:21:637,0,-15.8543,-3.9586,61.7449,Q,Q
2023-03-14 18:15:21:647,0,-15.8539,-3.95315,61.7386,Q,Q
2023-03-14 18:15:21:657,0,-15.8523,-3.94704,61.729,Q,Q
2023-03-14 18:15:21:667,0,-15.8486,-3.9408,61.7158,Q,Q
2023-03-14 18:15:21:677,0,-15.8511,-3.93367,61.7024,Q,Q
2023-03-14 18:15:21:687,0,-15.8532,-3.92683,61.6887,Q,Q
2023-03-14 18:15:21:697,0,-15.8495,-3.92201,61.6762,Q,Q
2023-03-14 18:15:21:707,0,-15.8461,-3.91649,61.6625,Q,Q
2023-03-14 18:15:21:717,0,-15.8431,-3.91464,61.6529,Q,Q
2023-03-14 18:15:21:727,0,-15.8425,-3.91054,61.6473,Q,Q
2023-03-14 18:15:21:737,0,-15.8401,-3.91328,61.647,Q,Q
2023-03-14 18:15:21:747,0,-15.842,-3.91752,61.6493,Q,Q
2023-03-14 18:15:21:757,0,-15.8452,-3.91911,61.6484,Q,Q
2023-03-14 18:15:21:767,0,-15.8415,-3.92093,61.6478,Q,Q
2023-03-14 18:15:21:777,0,-15.8399,-3.91969,61.6471,Q,Q
2023-03-14 18:15:21:787,0,-15.8341,-3.92085,61.6393,Q,Q
2023-03-14 18:15:21:797,0,-15.8347,-3.92241,61.6401,Q,Q
2023-03-14 18:15:21:807,0,-15.8362,-3.92481,61.6396,Q,Q
2023-03-14 18:15:21:817,0,-15.8402,-3.92902,61.6365,Q,Q
2023-03-14 18:15:21:827,0,-15.8437,-3.92982,61.6344,Q,Q
2023-03-14 18:15:21:837,0,-15.8483,-3.92909,61.6294,Q,Q
2023-03-14 18:15:21:847,0,-15.8552,-3.92561,61.6233,Q,Q
2023-03-14 18:15:21:857,0,-15.8643,-3.92354,61.6208,Q,Q
2023-03-14 18:15:21:867,0,-15.8753,-3.91859,61.6162,Q,Q
2023-03-14 18:15:21:877,0,-15.893,-3.91657,61.6127,Q,Q
2023-03-14 18:15:21:887,0,-15.9041,-3.91577,61.6115,Q,Q
2023-03-14 18:15:21:897,0,-15.9201,-3.91661,61.6126,Q,Q
2023-03-14 18:15:21:907,0,-15.9378,-3.91874,61.6161,Q,Q
2023-03-14 18:15:21:917,0,-15.9531,-3.92214,61.6172,Q,Q
2023-03-14 18:15:21:927,0,-15.964,-3.93173,61.6155,Q,Q
2023-03-14 18:15:21:937,0,-15.9688,-3.93926,61.6095,Q,Q
2023-03-14 18:15:21:947,0,-15.9739,-3.94523,61.6,Q,Q
2023-03-14 18:15:21:957,0,-15.9787,-3.95147,61.5821,Q,Q
2023-03-14 18:15:21:967,0,-15.9813,-3.9579,61.564,Q,Q
2023-03-14 18:15:21:977,0,-15.9851,-3.96269,61.547,Q,Q
2023-03-14 18:15:21:987,0,-15.9886,-3.96832,61.5332,Q,Q
2023-03-14 18:15:21:997,0,-15.9946,-3.97674,61.5255,Q,Q
2023-03-14 18:15:22:7,0,-16.0013,-3.9825,61.5201,Q,Q
2023-03-14 18:15:22:17,0,-16.0001,-3.98488,61.5179,Q,Q
2023-03-14 18:15:22:27,0,-15.9949,-3.97654,61.5132,Q,Q
2023-03-14 18:15:22:37,0,-15.9785,-3.96224,61.4971,Q,Q
2023-03-14 18:15:22:47,0,-15.9451,-3.93407,61.4575,Q,Q
2023-03-14 18:15:22:57,0,-15.8963,-3.89403,61.3895,Q,Q
2023-03-14 18:15:22:67,0,-15.8462,-3.84732,61.2937,Q,Q
2023-03-14 18:15:22:77,0,-15.8069,-3.79644,61.1802,Q,Q
2023-03-14 18:15:22:87,0,-15.7881,-3.75311,61.0591,Q,Q
2023-03-14 18:15:22:97,0,-15.7958,-3.72395,60.9495,Q,Q
2023-03-14 18:15:22:107,0,-15.8303,-3.71098,60.8513,Q,Q
2023-03-14 18:15:22:117,0,-15.88,-3.71233,60.7758,Q,Q
2023-03-14 18:15:22:127,0,-15.9232,-3.72208,60.7125,Q,Q
2023-03-14 18:15:22:137,0,-15.9737,-3.74137,60.6765,Q,Q
2023-03-14 18:15:22:147,0,-16.0292,-3.77117,60.6653,Q,Q
2023-03-14 18:15:22:157,0,-16.0949,-3.80387,60.6792,Q,Q
2023-03-14 18:15:22:167,0,-16.1693,-3.84768,60.7219,Q,Q
2023-03-14 18:15:22:177,0,-16.2554,-3.90169,60.7947,Q,Q
2023-03-14 18:15:22:187,0,-16.3456,-3.96023,60.8935,Q,Q
2023-03-14 18:15:22:197,0,-16.4309,-4.0196,61.0083,Q,Q
2023-03-14 18:15:22:207,0,-16.5064,-4.07521,61.1362,Q,Q
2023-03-14 18:15:22:217,0,-16.5758,-4.1279,61.2715,Q,Q
2023-03-14 18:15:22:227,0,-16.6359,-4.17555,61.4089,Q,Q
2023-03-14 18:15:22:237,0,-16.6983,-4.21852,61.5521,Q,Q
2023-03-14 18:15:22:247,0,-16.7558,-4.25988,61.6926,Q,Q
2023-03-14 18:15:22:257,0,-16.8174,-4.28898,61.8262,Q,Q
2023-03-14 18:15:22:267,0,-16.884,-4.3021,61.9535,Q,Q
2023-03-14 18:15:22:277,0,-16.9616,-4.30951,62.0764,Q,Q
2023-03-14 18:15:22:287,0,-17.0607,-4.31234,62.1941,Q,Q
2023-03-14 18:15:22:297,0,-17.1774,-4.31701,62.3072,Q,Q
2023-03-14 18:15:22:307,0,-17.3015,-4.3188,62.4176,Q,Q
2023-03-14 18:15:22:317,0,-17.4141,-4.31747,62.523,Q,Q
2023-03-14 18:15:22:327,0,-17.5201,-4.31405,62.6229,Q,Q
2023-03-14 18:15:22:337,0,-17.629,-4.30804,62.7178,Q,Q
2023-03-14 18:15:22:347,0,-17.7482,-4.30252,62.806,Q,Q
2023-03-14 18:15:22:357,0,-17.879,-4.29265,62.878,Q,Q
2023-03-14 18:15:22:367,0,-18.0159,-4.28223,62.9205,Q,Q
2023-03-14 18:15:22:377,0,-18.147,-4.2706,62.924,Q,Q
2023-03-14 18:15:22:387,0,-18.2606,-4.25026,62.8791,Q,Q
2023-03-14 18:15:22:397,0,-18.3601,-4.23057,62.8009,Q,Q
2023-03-14 18:15:22:407,0,-18.4516,-4.21791,62.7093,Q,Q
2023-03-14 18:15:22:417,0,-18.5514,-4.21478,62.619,Q,Q
2023-03-14 18:15:22:427,0,-18.6657,-4.22281,62.5277,Q,Q
2023-03-14 18:15:22:437,0,-18.7821,-4.23839,62.4432,Q,Q
2023-03-14 18:15:22:447,0,-18.8926,-4.25414,62.365,Q,Q
2023-03-14 18:15:22:457,0,-18.9905,-4.26729,62.2939,Q,Q
2023-03-14 18:15:22:467,0,-19.0751,-4.27673,62.2289,Q,Q
2023-03-14 18:15:22:477,0,-19.1501,-4.28074,62.1697,Q,Q
2023-03-14 18:15:22:487,0,-19.2237,-4.28076,62.1221,Q,Q
2023-03-14 18:15:22:497,0,-19.3007,-4.2788,62.0921,Q,Q
2023-03-14 18:15:22:507,0,-19.3863,-4.2808,62.0742,Q,Q
2023-03-14 18:15:22:517,0,-19.4766,-4.28568,62.0706,Q,Q
2023-03-14 18:15:22:527,0,-19.5744,-4.29147,62.0924,Q,Q
2023-03-14 18:15:22:537,0,-19.6667,-4.293,62.1286,Q,Q
2023-03-14 18:15:22:547,0,-19.7514,-4.2947,62.1759,Q,Q
2023-03-14 18:15:22:557,0,-19.823,-4.29591,62.2254,Q,Q
2023-03-14 18:15:22:567,0,-19.8851,-4.291,62.2777,Q,Q
2023-03-14 18:15:22:577,0,-19.9326,-4.28529,62.3185,Q,Q
2023-03-14 18:15:22:587,0,-19.9673,-4.28326,62.3401,Q,Q
2023-03-14 18:15:22:597,0,-19.9897,-4.28987,62.3415,Q,Q
2023-03-14 18:15:22:607,0,-20.0029,-4.2998,62.325,Q,Q
2023-03-14 18:15:22:617,0,-20.0115,-4.31254,62.296,Q,Q
2023-03-14 18:15:22:627,0,-20.0102,-4.32681,62.2505,Q,Q
2023-03-14 18:15:22:637,0,-20.0063,-4.34743,62.1971,Q,Q
2023-03-14 18:15:22:647,0,-19.9877,-4.36447,62.1351,Q,Q
2023-03-14 18:15:22:657,0,-19.9597,-4.38005,62.0617,Q,Q
2023-03-14 18:15:22:667,0,-19.9196,-4.39533,61.9868,Q,Q
2023-03-14 18:15:22:677,0,-19.8781,-4.4088,61.9096,Q,Q
2023-03-14 18:15:22:687,0,-19.8372,-4.42133,61.8347,Q,Q
2023-03-14 18:15:22:697,0,-19.796,-4.4304,61.7628,Q,Q
2023-03-14 18:15:22:707,0,-19.758,-4.43896,61.697,Q,Q
2023-03-14 18:15:22:717,0,-19.7213,-4.44833,61.6397,Q,Q
2023-03-14 18:15:22:727,0,-19.6869,-4.45356,61.5785,Q,Q
2023-03-14 18:15:22:737,0,-19.6492,-4.45693,61.5211,Q,Q
2023-03-14 18:15:22:747,0,-19.609,-4.4603,61.4678,Q,Q
2023-03-14 18:15:22:757,0,-19.5684,-4.46681,61.4183,Q,Q
2023-03-14 18:15:22:767,0,-19.5255,-4.47216,61.3687,Q,Q
2023-03-14 18:15:22:777,0,-19.4825,-4.47756,61.3202,Q,Q
2023-03-14 18:15:22:787,0,-19.442,-4.48254,61.2736,Q,Q
2023-03-14 18:15:22:797,0,-19.3995,-4.48545,61.2298,Q,Q
2023-03-14 18:15:22:807,0,-19.3546,-4.49039,61.1863,Q,Q
2023-03-14 18:15:22:817,0,-19.3095,-4.49825,61.147,Q,Q
2023-03-14 18:15:22:827,0,-19.2681,-4.50662,61.1135,Q,Q
2023-03-14 18:15:22:837,0,-19.2286,-4.51064,61.0772,Q,Q
2023-03-14 18:15:22:847,0,-19.1916,-4.51265,61.0449,Q,Q
2023-03-14 18:15:22:857,0,-19.1539,-4.5175,61.0101,Q,Q
2023-03-14 18:15:22:867,0,-19.1071,-4.52505,60.9756,Q,Q
2023-03-14 18:15:22:877,0,-19.05,-4.54073,60.9352,Q,Q
2023-03-14 18:15:22:887,0,-18.9923,-4.5617,60.8877,Q,Q
2023-03-14 18:15:22:897,0,-18.9362,-4.58446,60.8368,Q,Q
2023-03-14 18:15:22:907,0,-18.883,-4.61206,60.7832,Q,Q
2023-03-14 18:15:22:917,0,-18.8309,-4.64147,60.7247,Q,Q
2023-03-14 18:15:22:927,0,-18.7781,-4.67031,60.6697,Q,Q
2023-03-14 18:15:22:937,0,-18.7266,-4.6973,60.6167,Q,Q
2023-03-14 18:15:22:947,0,-18.6745,-4.72656,60.5652,Q,Q
2023-03-14 18:15:22:957,0,-18.6248,-4.75503,60.5164,Q,Q
2023-03-14 18:15:22:967,0,-18.5775,-4.78575,60.4761,Q,Q
2023-03-14 18:15:22:977,0,-18.5335,-4.81169,60.4448,Q,Q
2023-03-14 18:15:22:987,0,-18.4931,-4.83257,60.4203,Q,Q
2023-03-14 18:15:22:997,0,-18.4591,-4.85103,60.402,Q,Q
2023-03-14 18:15:23:7,0,-18.4317,-4.86753,60.3947,Q,Q
2023-03-14 18:15:23:17,0,-18.4007,-4.88445,60.3927,Q,Q
2023-03-14 18:15:23:27,0,-18.3706,-4.89719,60.3927,Q,Q
2023-03-14 18:15:23:37,0,-18.3438,-4.90378,60.392,Q,Q
2023-03-14 18:15:23:47,0,-18.316,-4.9101,60.3944,Q,Q
2023-03-14 18:15:23:57,0,-18.2931,-4.91821,60.3988,Q,Q
2023-03-14 18:15:23:67,0,-18.2739,-4.92752,60.4111,Q,Q
2023-03-14 18:15:23:77,0,-18.257,-4.93572,60.4259,Q,Q
2023-03-14 18:15:23:87,0,-18.2458,-4.94763,60.4481,Q,Q
2023-03-14 18:15:23:97,0,-18.2379,-4.95846,60.4738,Q,Q
2023-03-14 18:15:23:107,0,-18.2355,-4.96822,60.5034,Q,Q
2023-03-14 18:15:23:117,0,-18.2308,-4.97805,60.5352,Q,Q
2023-03-14 18:15:23:127,0,-18.2251,-4.98807,60.5676,Q,Q
2023-03-14 18:15:23:137,0,-18.2144,-4.99326,60.6001,Q,Q
2023-03-14 18:15:23:147,0,-18.1944,-4.99091,60.6311,Q,Q
2023-03-14 18:15:23:157,0,-18.1756,-4.98638,60.6601,Q,Q
2023-03-14 18:15:23:167,0,-18.149,-4.97344,60.6879,Q,Q
2023-03-14 18:15:23:177,0,-18.121,-4.95457,60.7161,Q,Q
2023-03-14 18:15:23:187,0,-18.0926,-4.93981,60.7455,Q,Q
2023-03-14 18:15:23:197,0,-18.0684,-4.92873,60.7756,Q,Q
2023-03-14 18:15:23:207,0,-18.0448,-4.92034,60.8004,Q,Q
2023-03-14 18:15:23:217,0,-18.0153,-4.91283,60.8204,Q,Q
2023-03-14 18:15:23:227,0,-17.9885,-4.90841,60.8383,Q,Q
2023-03-14 18:15:23:237,0,-17.965,-4.90671,60.8539,Q,Q
2023-03-14 18:15:23:247,0,-17.9403,-4.90954,60.8687,Q,Q
2023-03-14 18:15:23:257,0,-17.914,-4.90923,60.8799,Q,Q
2023-03-14 18:15:23:267,0,-17.8842,-4.90694,60.8877,Q,Q
2023-03-14 18:15:23:277,0,-17.8558,-4.90504,60.8966,Q,Q
2023-03-14 18:15:23:287,0,-17.8261,-4.9089,60.9088,Q,Q
2023-03-14 18:15:23:297,0,-17.8049,-4.91492,60.9181,Q,Q
2023-03-14 18:15:23:307,0,-17.7834,-4.92351,60.9306,Q,Q
2023-03-14 18:15:23:317,0,-17.766,-4.92906,60.9429,Q,Q
2023-03-14 18:15:23:327,0,-17.7454,-4.93256,60.9557,Q,Q
2023-03-14 18:15:23:337,0,-17.7212,-4.93083,60.9692,Q,Q
2023-03-14 18:15:23:347,0,-17.7028,-4.92975,60.9795,Q,Q
2023-03-14 18:15:23:357,0,-17.686,-4.93278,60.9939,Q,Q
2023-03-14 18:15:23:367,0,-17.6724,-4.93135,61.0076,Q,Q
2023-03-14 18:15:23:377,0,-17.653,-4.92477,61.0239,Q,Q
2023-03-14 18:15:23:387,0,-17.6309,-4.91963,61.0399,Q,Q
2023-03-14 18:15:23:397,0,-17.6125,-4.91468,61.0507,Q,Q
2023-03-14 18:15:23:407,0,-17.5986,-4.90901,61.0631,Q,Q
2023-03-14 18:15:23:417,0,-17.5862,-4.90465,61.0699,Q,Q
2023-03-14 18:15:23:427,0,-17.5797,-4.90197,61.0745,Q,Q
2023-03-14 18:15:23:437,0,-17.5743,-4.89849,61.079,Q,Q
2023-03-14 18:15:23:447,0,-17.5727,-4.89646,61.0821,Q,Q
2023-03-14 18:15:23:457,0,-17.5669,-4.89733,61.0812,Q,Q
2023-03-14 18:15:23:467,0,-17.561,-4.89405,61.0818,Q,Q
2023-03-14 18:15:23:477,0,-17.5566,-4.89094,61.0799,Q,Q
2023-03-14 18:15:23:487,0,-17.5476,-4.88723,61.0736,Q,Q
2023-03-14 18:15:23:497,0,-17.5383,-4.88064,61.0673,Q,Q
2023-03-14 18:15:23:507,0,-17.5315,-4.87614,61.0563,Q,Q
2023-03-14 18:15:23:517,0,-17.5279,-4.87285,61.0468,Q,Q
2023-03-14 18:15:23:527,0,-17.5311,-4.87167,61.04,Q,Q
2023-03-14 18:15:23:537,0,-17.543,-4.86834,61.0385,Q,Q
2023-03-14 18:15:23:547,0,-17.5528,-4.86451,61.0459,Q,Q
2023-03-14 18:15:23:557,0,-17.5627,-4.86436,61.0623,Q,Q
2023-03-14 18:15:23:567,0,-17.5712,-4.86108,61.0848,Q,Q
2023-03-14 18:15:23:577,0,-17.5773,-4.86433,61.1162,Q,Q
2023-03-14 18:15:23:587,0,-17.5782,-4.86731,61.1556,Q,Q
2023-03-14 18:15:23:597,0,-17.5692,-4.86849,61.1901,Q,Q
2023-03-14 18:15:23:607,0,-17.559,-4.8676,61.2115,Q,Q
2023-03-14 18:15:23:617,0,-17.5342,-4.85118,61.2203,Q,Q
2023-03-14 18:15:23:627,0,-17.4932,-4.82519,61.2159,Q,Q
2023-03-14 18:15:23:637,0,-17.445,-4.80063,61.2006,Q,Q
2023-03-14 18:15:23:647,0,-17.4013,-4.7817,61.1824,Q,Q
2023-03-14 18:15:23:657,0,-17.3704,-4.76508,61.162,Q,Q
2023-03-14 18:15:23:667,0,-17.3552,-4.75232,61.1441,Q,Q
2023-03-14 18:15:23:677,0,-17.3458,-4.74309,61.1261,Q,Q
2023-03-14 18:15:23:687,0,-17.334,-4.73479,61.1075,Q,Q
2023-03-14 18:15:23:697,0,-17.3178,-4.72505,61.0891,Q,Q
2023-03-14 18:15:23:707,0,-17.3019,-4.7173,61.0717,Q,Q
2023-03-14 18:15:23:717,0,-17.2867,-4.70854,61.0548,Q,Q
2023-03-14 18:15:23:727,0,-17.2654,-4.69912,61.0355,Q,Q
2023-03-14 18:15:23:737,0,-17.2407,-4.68735,61.0192,Q,Q
2023-03-14 18:15:23:747,0,-17.2172,-4.67643,61.0037,Q,Q
2023-03-14 18:15:23:757,0,-17.1921,-4.6627,60.9872,Q,Q
2023-03-14 18:15:23:767,0,-17.1719,-4.64914,60.9738,Q,Q
2023-03-14 18:15:23:777,0,-17.1598,-4.64327,60.9669,Q,Q
2023-03-14 18:15:23:787,0,-17.1548,-4.64626,60.9655,Q,Q
2023-03-14 18:15:23:797,0,-17.1539,-4.65349,60.9677,Q,Q
2023-03-14 18:15:23:807,0,-17.149,-4.66213,60.9678,Q,Q
2023-03-14 18:15:23:817,0,-17.1397,-4.67457,60.9669,Q,Q
2023-03-14 18:15:23:827,0,-17.1301,-4.68566,60.9656,Q,Q
2023-03-14 18:15:23:837,0,-17.1194,-4.69855,60.963,Q,Q
2023-03-14 18:15:23:847,0,-17.1033,-4.709,60.9627,Q,Q
2023-03-14 18:15:23:857,0,-17.087,-4.72006,60.9596,Q,Q
2023-03-14 18:15:23:867,0,-17.0714,-4.73427,60.9518,Q,Q
2023-03-14 18:15:23:877,0,-17.0544,-4.74735,60.9425,Q,Q
2023-03-14 18:15:23:887,0,-17.0382,-4.76044,60.9384,Q,Q
2023-03-14 18:15:23:897,0,-17.0162,-4.77325,60.9333,Q,Q
2023-03-14 18:15:23:907,0,-16.9923,-4.78225,60.9295,Q,Q
2023-03-14 18:15:23:917,0,-16.9678,-4.78535,60.9209,Q,Q
2023-03-14 18:15:23:927,0,-16.9451,-4.78823,60.9133,Q,Q
2023-03-14 18:15:23:937,0,-16.9222,-4.78608,60.9083,Q,Q
2023-03-14 18:15:23:947,0,-16.9017,-4.78155,60.9024,Q,Q
2023-03-14 18:15:23:957,0,-16.8821,-4.77809,60.8992,Q,Q
2023-03-14 18:15:23:967,0,-16.8662,-4.77645,60.8981,Q,Q
2023-03-14 18:15:23:977,0,-16.8601,-4.77272,60.9011,Q,Q
2023-03-14 18:15:23:987,0,-16.8594,-4.76809,60.9168,Q,Q
2023-03-14 18:15:23:997,0,-16.8676,-4.76829,60.9317,Q,Q
2023-03-14 18:15:24:7,0,-16.8719,-4.77114,60.9437,Q,Q
2023-03-14 18:15:24:17,0,-16.8737,-4.77741,60.954,Q,Q
2023-03-14 18:15:24:27,0,-16.8748,-4.78378,60.9626,Q,Q
2023-03-14 18:15:24:37,0,-16.8689,-4.78996,60.965,Q,Q
2023-03-14 18:15:24:47,0,-16.8576,-4.79773,60.9632,Q,Q
2023-03-14 18:15:24:57,0,-16.8454,-4.80221,60.9535,Q,Q
2023-03-14 18:15:24:67,0,-16.836,-4.80803,60.9418,Q,Q
2023-03-14 18:15:24:77,0,-16.825,-4.80988,60.925,Q,Q
2023-03-14 18:15:24:87,0,-16.8127,-4.81306,60.9063,Q,Q
2023-03-14 18:15:24:97,0,-16.7951,-4.81412,60.8888,Q,Q
2023-03-14 18:15:24:107,0,-16.7841,-4.81922,60.8748,Q,Q
2023-03-14 18:15:24:117,0,-16.7702,-4.8217,60.8685,Q,Q
2023-03-14 18:15:24:127,0,-16.7555,-4.82883,60.8651,Q,Q
2023-03-14 18:15:24:137,0,-16.7391,-4.83251,60.8645,Q,Q
2023-03-14 18:15:24:147,0,-16.7176,-4.83418,60.8654,Q,Q
2023-03-14 18:15:24:157,0,-16.6945,-4.83488,60.8623,Q,Q
2023-03-14 18:15:24:167,0,-16.6754,-4.83246,60.866,Q,Q
2023-03-14 18:15:24:177,0,-16.6537,-4.82785,60.8693,Q,Q
2023-03-14 18:15:24:187,0,-16.6269,-4.82504,60.874,Q,Q
2023-03-14 18:15:24:197,0,-16.5978,-4.82487,60.8798,Q,Q
2023-03-14 18:15:24:207,0,-16.5762,-4.82542,60.8924,Q,Q
2023-03-14 18:15:24:217,0,-16.5636,-4.82865,60.9062,Q,Q
2023-03-14 18:15:24:227,0,-16.5541,-4.83258,60.9252,Q,Q
2023-03-14 18:15:24:237,0,-16.5538,-4.8368,60.9441,Q,Q
2023-03-14 18:15:24:247,0,-16.5472,-4.84498,60.9575,Q,Q
2023-03-14 18:15:24:257,0,-16.5444,-4.85366,60.971,Q,Q
2023-03-14 18:15:24:267,0,-16.5442,-4.86543,60.978,Q,Q
2023-03-14 18:15:24:277,0,-16.5486,-4.88179,60.9854,Q,Q
2023-03-14 18:15:24:287,0,-16.5579,-4.8985,60.9851,Q,Q
2023-03-14 18:15:24:297,0,-16.5763,-4.92484,60.9877,Q,Q
2023-03-14 18:15:24:307,0,-16.6065,-4.95423,60.9907,Q,Q
2023-03-14 18:15:24:317,0,-16.651,-4.98956,60.9973,Q,Q
2023-03-14 18:15:24:327,0,-16.6999,-5.0237,61.0066,Q,Q
2023-03-14 18:15:24:337,0,-16.7509,-5.05363,61.0181,Q,Q
2023-03-14 18:15:24:347,0,-16.7932,-5.07356,61.0228,Q,Q
2023-03-14 18:15:24:357,0,-16.8176,-5.07585,61.0143,Q,Q
2023-03-14 18:15:24:367,0,-16.8253,-5.06594,60.9963,Q,Q
2023-03-14 18:15:24:377,0,-16.8221,-5.04319,60.9703,Q,Q
2023-03-14 18:15:24:387,0,-16.8109,-5.00845,60.9326,Q,Q
2023-03-14 18:15:24:397,0,-16.785,-4.96259,60.8841,Q,Q
2023-03-14 18:15:24:407,0,-16.7399,-4.90272,60.8237,Q,Q
2023-03-14 18:15:24:417,0,-16.6811,-4.83584,60.7552,Q,Q
2023-03-14 18:15:24:427,0,-16.6131,-4.76824,60.6828,Q,Q
2023-03-14 18:15:24:437,0,-16.5408,-4.70054,60.621,Q,Q
2023-03-14 18:15:24:447,0,-16.4648,-4.64139,60.5724,Q,Q
2023-03-14 18:15:24:457,0,-16.3928,-4.59052,60.5463,Q,Q
2023-03-14 18:15:24:467,0,-16.3305,-4.54692,60.5415,Q,Q
2023-03-14 18:15:24:477,0,-16.2704,-4.49901,60.5498,Q,Q
2023-03-14 18:15:24:487,0,-16.2032,-4.45361,60.5573,Q,Q
2023-03-14 18:15:24:497,0,-16.1379,-4.41435,60.5692,Q,Q
2023-03-14 18:15:24:507,0,-16.0833,-4.38748,60.5908,Q,Q
2023-03-14 18:15:24:517,0,-16.0381,-4.37515,60.6088,Q,Q
2023-03-14 18:15:24:527,0,-16.0013,-4.36781,60.6197,Q,Q
2023-03-14 18:15:24:537,0,-15.9683,-4.36679,60.6306,Q,Q
2023-03-14 18:15:24:547,0,-15.9402,-4.38046,60.6405,Q,Q
2023-03-14 18:15:24:557,0,-15.915,-4.39817,60.6403,Q,Q
2023-03-14 18:15:24:567,0,-15.8855,-4.40072,60.6337,Q,Q
2023-03-14 18:15:24:577,0,-15.846,-4.39921,60.6256,Q,Q
2023-03-14 18:15:24:587,0,-15.81,-4.40415,60.6152,Q,Q
2023-03-14 18:15:24:597,0,-15.7896,-4.40656,60.6035,Q,Q
2023-03-14 18:15:24:607,0,-15.7948,-4.39724,60.5936,Q,Q
2023-03-14 18:15:24:617,0,-15.8095,-4.38354,60.5815,Q,Q
2023-03-14 18:15:24:627,0,-15.8256,-4.36351,60.5674,Q,Q
2023-03-14 18:15:24:637,0,-15.838,-4.33542,60.5497,Q,Q
2023-03-14 18:15:24:647,0,-15.8286,-4.30066,60.5271,Q,Q
2023-03-14 18:15:24:657,0,-15.7938,-4.26247,60.5106,Q,Q
2023-03-14 18:15:24:667,0,-15.741,-4.22495,60.501,Q,Q
2023-03-14 18:15:24:677,0,-15.6861,-4.20336,60.5016,Q,Q
2023-03-14 18:15:24:687,0,-15.6422,-4.19656,60.5174,Q,Q
2023-03-14 18:15:24:697,0,-15.6093,-4.20382,60.5405,Q,Q
2023-03-14 18:15:24:707,0,-15.5854,-4.2145,60.5618,Q,Q
2023-03-14 18:15:24:717,0,-15.5632,-4.23255,60.5884,Q,Q
2023-03-14 18:15:24:727,0,-15.548,-4.25331,60.6153,Q,Q
2023-03-14 18:15:24:737,0,-15.5394,-4.28238,60.6417,Q,Q
2023-03-14 18:15:24:747,0,-15.5228,-4.29276,60.6701,Q,Q
2023-03-14 18:15:24:757,0,-15.4808,-4.28411,60.6935,Q,Q
2023-03-14 18:15:24:767,0,-15.4178,-4.26594,60.7127,Q,Q
2023-03-14 18:15:24:777,0,-15.3483,-4.25711,60.7382,Q,Q
2023-03-14 18:15:24:787,0,-15.2902,-4.26022,60.7732,Q,Q
2023-03-14 18:15:24:797,0,-15.2477,-4.27219,60.8168,Q,Q
2023-03-14 18:15:24:807,0,-15.2131,-4.28402,60.8704,Q,Q
2023-03-14 18:15:24:817,0,-15.1864,-4.29984,60.9285,Q,Q
2023-03-14 18:15:24:827,0,-15.1694,-4.32537,60.9842,Q,Q
2023-03-14 18:15:24:837,0,-15.1735,-4.35453,61.0466,Q,Q
2023-03-14 18:15:24:847,0,-15.1935,-4.392,61.1133,Q,Q
2023-03-14 18:15:24:857,0,-15.2271,-4.43523,61.1848,Q,Q
2023-03-14 18:15:24:867,0,-15.2679,-4.47803,61.2593,Q,Q
2023-03-14 18:15:24:877,0,-15.3094,-4.52196,61.3333,Q,Q
2023-03-14 18:15:24:887,0,-15.3488,-4.56566,61.4122,Q,Q
2023-03-14 18:15:24:897,0,-15.382,-4.60959,61.4863,Q,Q
2023-03-14 18:15:24:907,0,-15.4115,-4.64706,61.5579,Q,Q
2023-03-14 18:15:24:917,0,-15.4239,-4.66987,61.6217,Q,Q
2023-03-14 18:15:24:927,0,-15.4193,-4.68133,61.6805,Q,Q
2023-03-14 18:15:24:937,0,-15.3948,-4.69061,61.7323,Q,Q
2023-03-14 18:15:24:947,0,-15.3566,-4.69335,61.7855,Q,Q
2023-03-14 18:15:24:957,0,-15.3039,-4.69627,61.8466,Q,Q
2023-03-14 18:15:24:967,0,-15.2345,-4.69586,61.9114,Q,Q
2023-03-14 18:15:24:977,0,-15.1569,-4.70134,61.9838,Q,Q
2023-03-14 18:15:24:987,0,-15.0874,-4.71789,62.056,Q,Q
2023-03-14 18:15:24:997,0,-15.0311,-4.72874,62.1235,Q,Q
2023-03-14 18:15:25:7,0,-14.9834,-4.72934,62.178,Q,Q
2023-03-14 18:15:25:17,0,-14.9312,-4.73486,62.2267,Q,Q
2023-03-14 18:15:25:27,0,-14.8858,-4.74798,62.2692,Q,Q
2023-03-14 18:15:25:37,0,-14.8549,-4.76581,62.3121,Q,Q
2023-03-14 18:15:25:47,0,-14.8456,-4.79175,62.3594,Q,Q
2023-03-14 18:15:25:57,0,-14.8473,-4.80894,62.4069,Q,Q
2023-03-14 18:15:25:67,0,-14.854,-4.82354,62.4492,Q,Q
2023-03-14 18:15:25:77,0,-14.8589,-4.83923,62.482,Q,Q
2023-03-14 18:15:25:87,0,-14.8641,-4.84473,62.5061,Q,Q
2023-03-14 18:15:25:97,0,-14.8681,-4.83625,62.521,Q,Q
2023-03-14 18:15:25:107,0,-14.8662,-4.81975,62.5227,Q,Q
2023-03-14 18:15:25:117,0,-14.8598,-4.80148,62.517,Q,Q
2023-03-14 18:15:25:127,0,-14.8561,-4.78716,62.5074,Q,Q
2023-03-14 18:15:25:137,0,-14.8554,-4.77818,62.501,Q,Q
2023-03-14 18:15:25:147,0,-14.8599,-4.76867,62.501,Q,Q
2023-03-14 18:15:25:157,0,-14.8728,-4.7525,62.5101,Q,Q
2023-03-14 18:15:25:167,0,-14.884,-4.73223,62.519,Q,Q
2023-03-14 18:15:25:177,0,-14.8938,-4.70204,62.5297,Q,Q
2023-03-14 18:15:25:187,0,-14.895,-4.66493,62.5462,Q,Q
2023-03-14 18:15:25:197,0,-14.8845,-4.63153,62.5606,Q,Q
2023-03-14 18:15:25:207,0,-14.8729,-4.60457,62.5907,Q,Q
2023-03-14 18:15:25:217,0,-14.8661,-4.5903,62.6209,Q,Q
2023-03-14 18:15:25:227,0,-14.8712,-4.58583,62.6499,Q,Q
2023-03-14 18:15:25:237,0,-14.8888,-4.57371,62.6725,Q,Q
2023-03-14 18:15:25:247,0,-14.9018,-4.55025,62.6822,Q,Q
2023-03-14 18:15:25:257,0,-14.9036,-4.52819,62.6819,Q,Q
2023-03-14 18:15:25:267,0,-14.8994,-4.5078,62.6801,Q,Q
2023-03-14 18:15:25:277,0,-14.8842,-4.49454,62.6855,Q,Q
2023-03-14 18:15:25:287,0,-14.8597,-4.49254,62.7117,Q,Q
2023-03-14 18:15:25:297,0,-14.8161,-4.50151,62.7576,Q,Q
2023-03-14 18:15:25:307,0,-14.75,-4.51989,62.8173,Q,Q
2023-03-14 18:15:25:317,0,-14.6712,-4.54083,62.8985,Q,Q
2023-03-14 18:15:25:327,0,-14.5905,-4.57154,63.0102,Q,Q
2023-03-14 18:15:25:337,0,-14.5237,-4.60251,63.1471,Q,Q
2023-03-14 18:15:25:347,0,-14.4587,-4.63023,63.29,Q,Q
2023-03-14 18:15:25:357,0,-14.3838,-4.64499,63.4298,Q,Q
2023-03-14 18:15:25:367,0,-14.2988,-4.63458,63.5436,Q,Q
2023-03-14 18:15:25:377,0,-14.2101,-4.60799,63.6258,Q,Q
2023-03-14 18:15:25:387,0,-14.1061,-4.5691,63.6748,Q,Q
2023-03-14 18:15:25:397,0,-14.0093,-4.52861,63.6993,Q,Q
2023-03-14 18:15:25:407,0,-13.925,-4.49888,63.6992,Q,Q
2023-03-14 18:15:25:417,0,-13.8621,-4.49295,63.6902,Q,Q
2023-03-14 18:15:25:427,0,-13.8175,-4.50372,63.6718,Q,Q
2023-03-14 18:15:25:437,0,-13.7869,-4.53642,63.6495,Q,Q
2023-03-14 18:15:25:447,0,-13.7737,-4.58483,63.6266,Q,Q
2023-03-14 18:15:25:457,0,-13.7692,-4.64221,63.5987,Q,Q
2023-03-14 18:15:25:467,0,-13.7626,-4.69168,63.5523,Q,Q
2023-03-14 18:15:25:477,0,-13.7555,-4.74483,63.498,Q,Q
2023-03-14 18:15:25:487,0,-13.752,-4.79951,63.4464,Q,Q
2023-03-14 18:15:25:497,0,-13.7541,-4.85642,63.3931,Q,Q
2023-03-14 18:15:25:507,0,-13.7651,-4.9089,63.3354,Q,Q
2023-03-14 18:15:25:517,0,-13.7834,-4.96499,63.281,Q,Q
2023-03-14 18:15:25:527,0,-13.8127,-5.02107,63.2274,Q,Q
2023-03-14 18:15:25:537,0,-13.8483,-5.08267,63.1702,Q,Q
2023-03-14 18:15:25:547,0,-13.8835,-5.14081,63.113,Q,Q
2023-03-14 18:15:25:557,0,-13.9138,-5.19697,63.0562,Q,Q
2023-03-14 18:15:25:567,0,-13.9289,-5.2464,63.0005,Q,Q
2023-03-14 18:15:25:577,0,-13.9318,-5.28726,62.9544,Q,Q
2023-03-14 18:15:25:587,0,-13.9276,-5.31593,62.9109,Q,Q
2023-03-14 18:15:25:597,0,-13.9139,-5.31915,62.8769,Q,Q
2023-03-14 18:15:25:607,0,-13.8883,-5.30524,62.8419,Q,Q
2023-03-14 18:15:25:617,0,-13.8569,-5.28994,62.8092,Q,Q
2023-03-14 18:15:25:627,0,-13.8309,-5.28011,62.7833,Q,Q
2023-03-14 18:15:25:637,0,-13.8194,-5.27307,62.7737,Q,Q
2023-03-14 18:15:25:647,0,-13.8173,-5.27091,62.7786,Q,Q
2023-03-14 18:15:25:657,0,-13.821,-5.26617,62.791,Q,Q
2023-03-14 18:15:25:667,0,-13.8211,-5.25244,62.804,Q,Q
2023-03-14 18:15:25:677,0,-13.8162,-5.22589,62.8171,Q,Q
2023-03-14 18:15:25:687,0,-13.8114,-5.19567,62.8299,Q,Q
2023-03-14 18:15:25:697,0,-13.8095,-5.15394,62.8405,Q,Q
2023-03-14 18:15:25:707,0,-13.8155,-5.12532,62.8539,Q,Q
2023-03-14 18:15:25:717,0,-13.8254,-5.09395,62.8725,Q,Q
2023-03-14 18:15:25:727,0,-13.8429,-5.07245,62.8938,Q,Q
2023-03-14 18:15:25:737,0,-13.8636,-5.07297,62.9241,Q,Q
2023-03-14 18:15:25:747,0,-13.8866,-5.06026,62.9585,Q,Q
2023-03-14 18:15:25:757,0,-13.8989,-5.0346,62.9962,Q,Q
2023-03-14 18:15:25:767,0,-13.899,-4.99756,63.0294,Q,Q
2023-03-14 18:15:25:777,0,-13.8923,-4.95307,63.0588,Q,Q
2023-03-14 18:15:25:787,0,-13.8914,-4.90663,63.0868,Q,Q
2023-03-14 18:15:25:797,0,-13.8912,-4.86501,63.1134,Q,Q
2023-03-14 18:15:25:807,0,-13.8973,-4.8276,63.1338,Q,Q
2023-03-14 18:15:25:817,0,-13.9006,-4.79492,63.148,Q,Q
2023-03-14 18:15:25:827,0,-13.9019,-4.76806,63.1582,Q,Q
2023-03-14 18:15:25:837,0,-13.9131,-4.75167,63.1671,Q,Q
2023-03-14 18:15:25:847,0,-13.9305,-4.73506,63.1731,Q,Q
2023-03-14 18:15:25:857,0,-13.945,-4.71604,63.1707,Q,Q
2023-03-14 18:15:25:867,0,-13.9551,-4.7006,63.1653,Q,Q
2023-03-14 18:15:25:877,0,-13.9651,-4.6861,63.1622,Q,Q
2023-03-14 18:15:25:887,0,-13.9726,-4.67208,63.1592,Q,Q
2023-03-14 18:15:25:897,0,-13.9776,-4.65777,63.1564,Q,Q
2023-03-14 18:15:25:907,0,-13.9695,-4.63814,63.1428,Q,Q
2023-03-14 18:15:25:917,0,-13.9615,-4.61765,63.122,Q,Q
2023-03-14 18:15:25:927,0,-13.9482,-4.60205,63.096,Q,Q
2023-03-14 18:15:25:937,0,-13.9359,-4.5844,63.0749,Q,Q
2023-03-14 18:15:25:947,0,-13.9246,-4.56663,63.0532,Q,Q
2023-03-14 18:15:25:957,0,-13.9086,-4.547,63.0338,Q,Q
2023-03-14 18:15:25:967,0,-13.8853,-4.53053,63.0136,Q,Q
2023-03-14 18:15:25:977,0,-13.8604,-4.52925,62.9977,Q,Q
2023-03-14 18:15:25:987,0,-13.8444,-4.52901,62.9829,Q,Q
2023-03-14 18:15:25:997,0,-13.8298,-4.52665,62.9631,Q,Q
2023-03-14 18:15:26:7,0,-13.8167,-4.52806,62.9357,Q,Q
2023-03-14 18:15:26:17,0,-13.8152,-4.53201,62.9036,Q,Q
2023-03-14 18:15:26:27,0,-13.8269,-4.54008,62.8737,Q,Q
2023-03-14 18:15:26:37,0,-13.8504,-4.55314,62.8465,Q,Q
2023-03-14 18:15:26:47,0,-13.883,-4.56256,62.8226,Q,Q
2023-03-14 18:15:26:57,0,-13.9158,-4.57098,62.8066,Q,Q
2023-03-14 18:15:26:67,0,-13.9408,-4.57261,62.79,Q,Q
2023-03-14 18:15:26:77,0,-13.9542,-4.5698,62.7768,Q,Q
2023-03-14 18:15:26:87,0,-13.9614,-4.56264,62.7663,Q,Q
2023-03-14 18:15:26:97,0,-13.9701,-4.55359,62.7619,Q,Q
2023-03-14 18:15:26:107,0,-13.9772,-4.54038,62.7567,Q,Q
2023-03-14 18:15:26:117,0,-13.9815,-4.52909,62.7536,Q,Q
2023-03-14 18:15:26:127,0,-13.9846,-4.52398,62.7569,Q,Q
2023-03-14 18:15:26:137,0,-13.992,-4.52303,62.767,Q,Q
2023-03-14 18:15:26:147,0,-13.9946,-4.52178,62.7858,Q,Q
2023-03-14 18:15:26:157,0,-13.9907,-4.52267,62.8101,Q,Q
2023-03-14 18:15:26:167,0,-13.9798,-4.52651,62.8363,Q,Q
2023-03-14 18:15:26:177,0,-13.9647,-4.53371,62.8673,Q,Q
2023-03-14 18:15:26:187,0,-13.9451,-4.54521,62.8959,Q,Q
2023-03-14 18:15:26:197,0,-13.9315,-4.55919,62.9263,Q,Q
2023-03-14 18:15:26:207,0,-13.9251,-4.57506,62.9527,Q,Q
2023-03-14 18:15:26:217,0,-13.93,-4.58362,62.9728,Q,Q
2023-03-14 18:15:26:227,0,-13.9294,-4.59019,62.9824,Q,Q
2023-03-14 18:15:26:237,0,-13.9209,-4.59142,62.9796,Q,Q
2023-03-14 18:15:26:247,0,-13.9014,-4.58325,62.9694,Q,Q
2023-03-14 18:15:26:257,0,-13.8704,-4.56996,62.9461,Q,Q
2023-03-14 18:15:26:267,0,-13.8263,-4.55398,62.9169,Q,Q
2023-03-14 18:15:26:277,0,-13.7788,-4.52778,62.8778,Q,Q
2023-03-14 18:15:26:287,0,-13.7374,-4.49744,62.8362,Q,Q
2023-03-14 18:15:26:297,0,-13.7092,-4.46479,62.7833,Q,Q
2023-03-14 18:15:26:307,0,-13.6851,-4.43331,62.723,Q,Q
2023-03-14 18:15:26:317,0,-13.6663,-4.40956,62.6628,Q,Q
2023-03-14 18:15:26:327,0,-13.6397,-4.39177,62.6005,Q,Q
2023-03-14 18:15:26:337,0,-13.6063,-4.38375,62.5406,Q,Q
2023-03-14 18:15:26:347,0,-13.5671,-4.38234,62.4857,Q,Q
2023-03-14 18:15:26:357,0,-13.5256,-4.3734,62.4325,Q,Q
2023-03-14 18:15:26:367,0,-13.4738,-4.36268,62.376,Q,Q
2023-03-14 18:15:26:377,0,-13.4206,-4.34974,62.3173,Q,Q
2023-03-14 18:15:26:387,0,-13.3785,-4.33864,62.2566,Q,Q
2023-03-14 18:15:26:397,0,-13.3452,-4.32762,62.1999,Q,Q
2023-03-14 18:15:26:407,0,-13.3146,-4.31215,62.1441,Q,Q
2023-03-14 18:15:26:417,0,-13.2874,-4.29436,62.0904,Q,Q
2023-03-14 18:15:26:427,0,-13.2553,-4.26842,62.0378,Q,Q
2023-03-14 18:15:26:437,0,-13.2265,-4.23597,61.9856,Q,Q
2023-03-14 18:15:26:447,0,-13.2047,-4.19827,61.9316,Q,Q
2023-03-14 18:15:26:457,0,-13.1896,-4.16344,61.8895,Q,Q
2023-03-14 18:15:26:467,0,-13.1962,-4.14223,61.8555,Q,Q
2023-03-14 18:15:26:477,0,-13.226,-4.12655,61.8393,Q,Q
2023-03-14 18:15:26:487,0,-13.2681,-4.12135,61.8373,Q,Q
2023-03-14 18:15:26:497,0,-13.3193,-4.12498,61.8476,Q,Q
2023-03-14 18:15:26:507,0,-13.3771,-4.13148,61.8655,Q,Q
2023-03-14 18:15:26:517,0,-13.4428,-4.147,61.8904,Q,Q
2023-03-14 18:15:26:527,0,-13.5034,-4.15513,61.9175,Q,Q
2023-03-14 18:15:26:537,0,-13.5573,-4.15526,61.9472,Q,Q
2023-03-14 18:15:26:547,0,-13.5948,-4.14839,61.9728,Q,Q
2023-03-14 18:15:26:557,0,-13.6187,-4.14867,61.9937,Q,Q
2023-03-14 18:15:26:567,0,-13.643,-4.15849,62.0156,Q,Q
2023-03-14 18:15:26:577,0,-13.6739,-4.17427,62.0385,Q,Q
2023-03-14 18:15:26:587,0,-13.6997,-4.18378,62.0562,Q,Q
2023-03-14 18:15:26:597,0,-13.7083,-4.18663,62.0637,Q,Q
2023-03-14 18:15:26:607,0,-13.7127,-4.1873,62.0651,Q,Q
2023-03-14 18:15:26:617,0,-13.7211,-4.18612,62.0603,Q,Q
2023-03-14 18:15:26:627,0,-13.7358,-4.17955,62.0514,Q,Q
2023-03-14 18:15:26:637,0,-13.7547,-4.16911,62.0321,Q,Q
2023-03-14 18:15:26:647,0,-13.7813,-4.15706,62.0048,Q,Q
2023-03-14 18:15:26:657,0,-13.8086,-4.14757,61.9781,Q,Q
2023-03-14 18:15:26:667,0,-13.8476,-4.13987,61.9556,Q,Q
2023-03-14 18:15:26:677,0,-13.8966,-4.13411,61.9343,Q,Q
2023-03-14 18:15:26:687,0,-13.946,-4.12607,61.914,Q,Q
2023-03-14 18:15:26:697,0,-13.9953,-4.11673,61.8986,Q,Q
2023-03-14 18:15:26:707,0,-14.0398,-4.11145,61.8853,Q,Q
2023-03-14 18:15:26:717,0,-14.0847,-4.11408,61.8762,Q,Q
2023-03-14 18:15:26:727,0,-14.1269,-4.12273,61.8785,Q,Q
2023-03-14 18:15:26:737,0,-14.1731,-4.13029,61.8799,Q,Q
2023-03-14 18:15:26:747,0,-14.2162,-4.13811,61.8826,Q,Q
2023-03-14 18:15:26:757,0,-14.2596,-4.14401,61.8839,Q,Q
2023-03-14 18:15:26:767,0,-14.2968,-4.14452,61.8828,Q,Q
2023-03-14 18:15:26:778,0,-14.3233,-4.14791,61.873,Q,Q
2023-03-14 18:15:26:787,0,-14.3451,-4.15114,61.8598,Q,Q
2023-03-14 18:15:26:797,0,-14.3587,-4.14912,61.8386,Q,Q
2023-03-14 18:15:26:807,0,-14.361,-4.15967,61.813,Q,Q
2023-03-14 18:15:26:817,0,-14.3568,-4.19515,61.7835,Q,Q
2023-03-14 18:15:26:827,0,-14.3471,-4.2418,61.7528,Q,Q
2023-03-14 18:15:26:837,0,-14.3325,-4.29707,61.721,Q,Q
2023-03-14 18:15:26:847,0,-14.314,-4.36079,61.6869,Q,Q
2023-03-14 18:15:26:857,0,-14.3034,-4.42431,61.651,Q,Q
2023-03-14 18:15:26:867,0,-14.3001,-4.48661,61.6175,Q,Q
2023-03-14 18:15:26:877,0,-14.3093,-4.54991,61.5941,Q,Q
2023-03-14 18:15:26:887,0,-14.3276,-4.60772,61.5731,Q,Q
2023-03-14 18:15:26:897,0,-14.352,-4.65509,61.5559,Q,Q
2023-03-14 18:15:26:907,0,-14.3719,-4.69872,61.5371,Q,Q
2023-03-14 18:15:26:917,0,-14.3962,-4.73725,61.5195,Q,Q
2023-03-14 18:15:26:927,0,-14.4273,-4.7723,61.5134,Q,Q
2023-03-14 18:15:26:937,0,-14.4698,-4.81623,61.509,Q,Q
2023-03-14 18:15:26:947,0,-14.5215,-4.85506,61.5005,Q,Q
2023-03-14 18:15:26:957,0,-14.5724,-4.89114,61.4927,Q,Q
2023-03-14 18:15:26:967,0,-14.6172,-4.90143,61.4862,Q,Q
2023-03-14 18:15:26:977,0,-14.6521,-4.9079,61.4849,Q,Q
2023-03-14 18:15:26:987,0,-14.6794,-4.91928,61.4858,Q,Q
2023-03-14 18:15:26:997,0,-14.7035,-4.92323,61.4932,Q,Q
2023-03-14 18:15:27:7,0,-14.7217,-4.92624,61.5046,Q,Q
2023-03-14 18:15:27:17,0,-14.7397,-4.92659,61.5234,Q,Q
2023-03-14 18:15:27:27,0,-14.7556,-4.92785,61.545,Q,Q
2023-03-14 18:15:27:37,0,-14.7745,-4.9283,61.5677,Q,Q
2023-03-14 18:15:27:47,0,-14.7918,-4.93511,61.593,Q,Q
2023-03-14 18:15:27:57,0,-14.8105,-4.94203,61.6171,Q,Q
2023-03-14 18:15:27:67,0,-14.8208,-4.95226,61.6414,Q,Q
2023-03-14 18:15:27:77,0,-14.829,-4.9671,61.6605,Q,Q
2023-03-14 18:15:27:87,0,-14.8318,-4.98861,61.6784,Q,Q
2023-03-14 18:15:27:97,0,-14.8382,-5.00725,61.6979,Q,Q
2023-03-14 18:15:27:107,0,-14.84,-5.0287,61.7186,Q,Q
2023-03-14 18:15:27:117,0,-14.8437,-5.04511,61.7362,Q,Q
2023-03-14 18:15:27:127,0,-14.849,-5.0617,61.749,Q,Q
2023-03-14 18:15:27:137,0,-14.8528,-5.07425,61.7565,Q,Q
2023-03-14 18:15:27:147,0,-14.8507,-5.08791,61.7581,Q,Q
2023-03-14 18:15:27:157,0,-14.8457,-5.10497,61.7531,Q,Q
2023-03-14 18:15:27:167,0,-14.8411,-5.11822,61.7395,Q,Q
2023-03-14 18:15:27:177,0,-14.8331,-5.1284,61.7199,Q,Q
2023-03-14 18:15:27:187,0,-14.8258,-5.13465,61.6981,Q,Q
2023-03-14 18:15:27:197,0,-14.8167,-5.13307,61.6639,Q,Q
2023-03-14 18:15:27:207,0,-14.8126,-5.13032,61.6249,Q,Q
2023-03-14 18:15:27:217,0,-14.8091,-5.11704,61.5929,Q,Q
2023-03-14 18:15:27:227,0,-14.8084,-5.09783,61.5651,Q,Q
2023-03-14 18:15:27:237,0,-14.8043,-5.07504,61.5472,Q,Q
2023-03-14 18:15:27:247,0,-14.8017,-5.04516,61.5341,Q,Q
2023-03-14 18:15:27:257,0,-14.8043,-5.01117,61.5335,Q,Q
2023-03-14 18:15:27:267,0,-14.8179,-4.97294,61.5445,Q,Q
2023-03-14 18:15:27:277,0,-14.8387,-4.93484,61.5576,Q,Q
2023-03-14 18:15:27:287,0,-14.8601,-4.89691,61.571,Q,Q
2023-03-14 18:15:27:297,0,-14.8764,-4.85594,61.5789,Q,Q
2023-03-14 18:15:27:307,0,-14.8863,-4.82292,61.5857,Q,Q
2023-03-14 18:15:27:317,0,-14.8954,-4.8007,61.5977,Q,Q
2023-03-14 18:15:27:327,0,-14.9055,-4.7752,61.6167,Q,Q
2023-03-14 18:15:27:337,0,-14.9132,-4.76491,61.6429,Q,Q
2023-03-14 18:15:27:347,0,-14.922,-4.76614,61.6773,Q,Q
2023-03-14 18:15:27:357,0,-14.9324,-4.77389,61.7294,Q,Q
2023-03-14 18:15:27:367,0,-14.9392,-4.78437,61.8002,Q,Q
2023-03-14 18:15:27:377,0,-14.946,-4.80204,61.8837,Q,Q
2023-03-14 18:15:27:387,0,-14.9543,-4.82297,61.9761,Q,Q
2023-03-14 18:15:27:397,0,-14.9669,-4.83904,62.0797,Q,Q
2023-03-14 18:15:27:407,0,-14.9825,-4.86314,62.1928,Q,Q
2023-03-14 18:15:27:417,0,-15.0022,-4.87753,62.3131,Q,Q
2023-03-14 18:15:27:427,0,-15.0232,-4.88081,62.4245,Q,Q
2023-03-14 18:15:27:437,0,-15.0403,-4.86999,62.5247,Q,Q
2023-03-14 18:15:27:447,0,-15.0542,-4.84748,62.6122,Q,Q
2023-03-14 18:15:27:457,0,-15.0727,-4.81653,62.6838,Q,Q
2023-03-14 18:15:27:467,0,-15.0893,-4.79054,62.7438,Q,Q
2023-03-14 18:15:27:477,0,-15.1071,-4.7684,62.7989,Q,Q
2023-03-14 18:15:27:487,0,-15.1195,-4.76122,62.8509,Q,Q
2023-03-14 18:15:27:497,0,-15.1265,-4.76191,62.9002,Q,Q
2023-03-14 18:15:27:507,0,-15.1307,-4.76742,62.9492,Q,Q
2023-03-14 18:15:27:517,0,-15.1297,-4.76756,62.996,Q,Q
2023-03-14 18:15:27:527,0,-15.1302,-4.77033,63.0405,Q,Q
2023-03-14 18:15:27:537,0,-15.1351,-4.76275,63.0827,Q,Q
2023-03-14 18:15:27:547,0,-15.1452,-4.75526,63.1224,Q,Q
2023-03-14 18:15:27:557,0,-15.1581,-4.75563,63.1628,Q,Q
2023-03-14 18:15:27:567,0,-15.1758,-4.77677,63.2031,Q,Q
2023-03-14 18:15:27:577,0,-15.1967,-4.81494,63.2461,Q,Q
2023-03-14 18:15:27:587,0,-15.2215,-4.85945,63.2928,Q,Q
2023-03-14 18:15:27:597,0,-15.2512,-4.8972,63.3366,Q,Q
2023-03-14 18:15:27:607,0,-15.2708,-4.9244,63.3695,Q,Q
2023-03-14 18:15:27:617,0,-15.284,-4.93753,63.3904,Q,Q
2023-03-14 18:15:27:627,0,-15.2897,-4.94571,63.4009,Q,Q
2023-03-14 18:15:27:637,0,-15.2952,-4.94836,63.407,Q,Q
2023-03-14 18:15:27:647,0,-15.2973,-4.94655,63.4061,Q,Q
2023-03-14 18:15:27:657,0,-15.3005,-4.94598,63.4034,Q,Q
2023-03-14 18:15:27:667,0,-15.2977,-4.93941,63.3923,Q,Q
2023-03-14 18:15:27:677,0,-15.2916,-4.93673,63.3824,Q,Q
2023-03-14 18:15:27:687,0,-15.2769,-4.9332,63.3706,Q,Q
2023-03-14 18:15:27:697,0,-15.2564,-4.92439,63.3573,Q,Q
2023-03-14 18:15:27:707,0,-15.2309,-4.91973,63.3448,Q,Q
2023-03-14 18:15:27:717,0,-15.2009,-4.91594,63.3344,Q,Q
2023-03-14 18:15:27:727,0,-15.1728,-4.91502,63.3345,Q,Q
2023-03-14 18:15:27:737,0,-15.1455,-4.9165,63.3379,Q,Q
2023-03-14 18:15:27:747,0,-15.1155,-4.91649,63.3465,Q,Q
2023-03-14 18:15:27:757,0,-15.091,-4.91483,63.3643,Q,Q
2023-03-14 18:15:27:767,0,-15.0662,-4.91575,63.3952,Q,Q
2023-03-14 18:15:27:777,0,-15.0429,-4.9159,63.4264,Q,Q
2023-03-14 18:15:27:787,0,-15.0198,-4.91641,63.4669,Q,Q
2023-03-14 18:15:27:797,0,-15.0035,-4.92051,63.5153,Q,Q
2023-03-14 18:15:27:807,0,-14.9932,-4.92361,63.5639,Q,Q
2023-03-14 18:15:27:817,0,-14.9854,-4.92817,63.6119,Q,Q
2023-03-14 18:15:27:827,0,-14.9775,-4.93143,63.6615,Q,Q
2023-03-14 18:15:27:837,0,-14.9765,-4.9384,63.7092,Q,Q
2023-03-14 18:15:27:847,0,-14.9744,-4.94736,63.7471,Q,Q
2023-03-14 18:15:27:857,0,-14.9654,-4.95501,63.7796,Q,Q
2023-03-14 18:15:27:867,0,-14.9569,-4.96455,63.8073,Q,Q
2023-03-14 18:15:27:877,0,-14.9518,-4.97707,63.8322,Q,Q
2023-03-14 18:15:27:887,0,-14.9503,-4.99335,63.8576,Q,Q
2023-03-14 18:15:27:897,0,-14.95,-5.00969,63.8793,Q,Q
2023-03-14 18:15:27:907,0,-14.9519,-5.02697,63.8985,Q,Q
2023-03-14 18:15:27:917,0,-14.9551,-5.04641,63.9218,Q,Q
2023-03-14 18:15:27:927,0,-14.9551,-5.06333,63.9455,Q,Q
2023-03-14 18:15:27:937,0,-14.959,-5.08089,63.9675,Q,Q
2023-03-14 18:15:27:947,0,-14.9651,-5.09718,63.993,Q,Q
2023-03-14 18:15:27:957,0,-14.9747,-5.11345,64.0234,Q,Q
2023-03-14 18:15:27:967,0,-14.982,-5.13375,64.0547,Q,Q
2023-03-14 18:15:27:977,0,-14.9817,-5.15138,64.0897,Q,Q
2023-03-14 18:15:27:987,0,-14.98,-5.16589,64.1266,Q,Q
2023-03-14 18:15:27:997,0,-14.9779,-5.1772,64.1626,Q,Q
2023-03-14 18:15:28:7,0,-14.9768,-5.18283,64.2001,Q,Q
2023-03-14 18:15:28:17,0,-14.9744,-5.18456,64.2353,Q,Q
2023-03-14 18:15:28:27,0,-14.9712,-5.18979,64.2748,Q,Q
2023-03-14 18:15:28:37,0,-14.9725,-5.19187,64.312,Q,Q
2023-03-14 18:15:28:47,0,-14.9732,-5.19236,64.3459,Q,Q
2023-03-14 18:15:28:57,0,-14.974,-5.19197,64.3817,Q,Q
2023-03-14 18:15:28:67,0,-14.9693,-5.18329,64.4148,Q,Q
2023-03-14 18:15:28:77,0,-14.9558,-5.17913,64.4391,Q,Q
2023-03-14 18:15:28:87,0,-14.9425,-5.17749,64.459,Q,Q
2023-03-14 18:15:28:97,0,-14.9289,-5.16864,64.4755,Q,Q
2023-03-14 18:15:28:107,0,-14.9111,-5.16017,64.4889,Q,Q
2023-03-14 18:15:28:117,0,-14.8923,-5.15192,64.4987,Q,Q
2023-03-14 18:15:28:127,0,-14.8715,-5.13504,64.507,Q,Q
2023-03-14 18:15:28:137,0,-14.8485,-5.12459,64.5133,Q,Q
2023-03-14 18:15:28:147,0,-14.8334,-5.11382,64.5181,Q,Q
2023-03-14 18:15:28:157,0,-14.8194,-5.09159,64.5219,Q,Q
2023-03-14 18:15:28:167,0,-14.7991,-5.07599,64.521,Q,Q
2023-03-14 18:15:28:177,0,-14.7823,-5.06849,64.5229,Q,Q
2023-03-14 18:15:28:187,0,-14.768,-5.05074,64.5244,Q,Q
2023-03-14 18:15:28:197,0,-14.747,-5.03354,64.528,Q,Q
2023-03-14 18:15:28:207,0,-14.732,-5.02347,64.531,Q,Q
2023-03-14 18:15:28:217,0,-14.7201,-5.01756,64.535,Q,Q
2023-03-14 18:15:28:227,0,-14.708,-5.00639,64.5391,Q,Q
2023-03-14 18:15:28:237,0,-14.6969,-4.99618,64.5403,Q,Q
2023-03-14 18:15:28:247,0,-14.6877,-4.98993,64.5419,Q,Q
2023-03-14 18:15:28:257,0,-14.6846,-4.98334,64.5465,Q,Q
2023-03-14 18:15:28:267,0,-14.6832,-4.97948,64.5512,Q,Q
2023-03-14 18:15:28:277,0,-14.6852,-4.97726,64.5576,Q,Q
2023-03-14 18:15:28:287,0,-14.6875,-4.97592,64.5621,Q,Q
2023-03-14 18:15:28:297,0,-14.6825,-4.9745,64.5626,Q,Q
2023-03-14 18:15:28:307,0,-14.677,-4.96996,64.5605,Q,Q
2023-03-14 18:15:28:317,0,-14.6672,-4.96096,64.5543,Q,Q
2023-03-14 18:15:28:327,0,-14.659,-4.95513,64.5457,Q,Q
2023-03-14 18:15:28:337,0,-14.6504,-4.95056,64.5374,Q,Q
2023-03-14 18:15:28:347,0,-14.6382,-4.94108,64.5188,Q,Q
2023-03-14 18:15:28:357,0,-14.6292,-4.9394,64.4989,Q,Q
2023-03-14 18:15:28:367,0,-14.6278,-4.93738,64.4803,Q,Q
2023-03-14 18:15:28:377,0,-14.6258,-4.93391,64.4614,Q,Q
2023-03-14 18:15:28:387,0,-14.6265,-4.93764,64.4409,Q,Q
2023-03-14 18:15:28:397,0,-14.6278,-4.9402,64.4227,Q,Q
2023-03-14 18:15:28:407,0,-14.6322,-4.94443,64.4113,Q,Q
2023-03-14 18:15:28:417,0,-14.6384,-4.94657,64.4016,Q,Q
2023-03-14 18:15:28:427,0,-14.6453,-4.94631,64.3947,Q,Q
2023-03-14 18:15:28:437,0,-14.6526,-4.94337,64.3879,Q,Q
2023-03-14 18:15:28:447,0,-14.6608,-4.93933,64.3867,Q,Q
2023-03-14 18:15:28:457,0,-14.6685,-4.93667,64.3831,Q,Q
2023-03-14 18:15:28:467,0,-14.6743,-4.92732,64.3755,Q,Q
2023-03-14 18:15:28:477,0,-14.6777,-4.91776,64.3621,Q,Q
2023-03-14 18:15:28:487,0,-14.6778,-4.90874,64.3445,Q,Q
2023-03-14 18:15:28:497,0,-14.6712,-4.90516,64.3276,Q,Q
2023-03-14 18:15:28:507,0,-14.6669,-4.90107,64.3099,Q,Q
2023-03-14 18:15:28:517,0,-14.6631,-4.89669,64.2868,Q,Q
2023-03-14 18:15:28:527,0,-14.6598,-4.88885,64.2635,Q,Q
2023-03-14 18:15:28:537,0,-14.6584,-4.87951,64.2414,Q,Q
2023-03-14 18:15:28:547,0,-14.6531,-4.87845,64.2141,Q,Q
2023-03-14 18:15:28:557,0,-14.6436,-4.8789,64.1867,Q,Q
2023-03-14 18:15:28:567,0,-14.6344,-4.88136,64.1574,Q,Q
2023-03-14 18:15:28:577,0,-14.6282,-4.88347,64.1275,Q,Q
2023-03-14 18:15:28:587,0,-14.6248,-4.88222,64.0952,Q,Q
2023-03-14 18:15:28:597,0,-14.6126,-4.88137,64.0635,Q,Q
2023-03-14 18:15:28:607,0,-14.6056,-4.89136,64.0276,Q,Q
2023-03-14 18:15:28:617,0,-14.6032,-4.9011,63.9931,Q,Q
2023-03-14 18:15:28:627,0,-14.5973,-4.91025,63.9588,Q,Q
2023-03-14 18:15:28:637,0,-14.5935,-4.92191,63.9216,Q,Q
2023-03-14 18:15:28:647,0,-14.5939,-4.93629,63.8828,Q,Q
2023-03-14 18:15:28:657,0,-14.5946,-4.94835,63.838,Q,Q
2023-03-14 18:15:28:667,0,-14.599,-4.96058,63.792,Q,Q
2023-03-14 18:15:28:677,0,-14.6052,-4.97264,63.7432,Q,Q
2023-03-14 18:15:28:687,0,-14.6081,-4.983,63.6898,Q,Q
2023-03-14 18:15:28:697,0,-14.6087,-4.993,63.6246,Q,Q
2023-03-14 18:15:28:707,0,-14.6065,-5.00306,63.554,Q,Q
2023-03-14 18:15:28:717,0,-14.6042,-5.0175,63.4758,Q,Q
2023-03-14 18:15:28:727,0,-14.6043,-5.03025,63.3984,Q,Q
2023-03-14 18:15:28:737,0,-14.6051,-5.0453,63.3214,Q,Q
2023-03-14 18:15:28:747,0,-14.6064,-5.05859,63.2451,Q,Q
2023-03-14 18:15:28:757,0,-14.602,-5.07289,63.1662,Q,Q
2023-03-14 18:15:28:767,0,-14.6014,-5.08168,63.0956,Q,Q
2023-03-14 18:15:28:777,0,-14.6058,-5.09172,63.0296,Q,Q
2023-03-14 18:15:28:787,0,-14.6045,-5.09866,62.9676,Q,Q
2023-03-14 18:15:28:797,0,-14.6037,-5.10574,62.9126,Q,Q
2023-03-14 18:15:28:807,0,-14.6066,-5.10893,62.8642,Q,Q
2023-03-14 18:15:28:817,0,-14.6108,-5.11079,62.8276,Q,Q
2023-03-14 18:15:28:827,0,-14.6112,-5.11641,62.8013,Q,Q
2023-03-14 18:15:28:837,0,-14.6113,-5.11811,62.7799,Q,Q
2023-03-14 18:15:28:847,0,-14.6146,-5.123,62.7748,Q,Q
2023-03-14 18:15:28:857,0,-14.6168,-5.12445,62.7761,Q,Q
2023-03-14 18:15:28:867,0,-14.6184,-5.12671,62.7835,Q,Q
2023-03-14 18:15:28:877,0,-14.6207,-5.12541,62.7926,Q,Q
2023-03-14 18:15:28:887,0,-14.6231,-5.13261,62.8082,Q,Q
2023-03-14 18:15:28:897,0,-14.6226,-5.14149,62.8339,Q,Q
2023-03-14 18:15:28:907,0,-14.6167,-5.15761,62.8744,Q,Q
2023-03-14 18:15:28:917,0,-14.6103,-5.1842,62.9241,Q,Q
2023-03-14 18:15:28:927,0,-14.6029,-5.21899,62.9789,Q,Q
2023-03-14 18:15:28:937,0,-14.5988,-5.26012,63.0423,Q,Q
2023-03-14 18:15:28:947,0,-14.5989,-5.30238,63.1083,Q,Q
2023-03-14 18:15:28:957,0,-14.6036,-5.33869,63.1752,Q,Q
2023-03-14 18:15:28:967,0,-14.6086,-5.36985,63.2387,Q,Q
2023-03-14 18:15:28:977,0,-14.6102,-5.39831,63.298,Q,Q
2023-03-14 18:15:28:987,0,-14.6082,-5.42793,63.3521,Q,Q
2023-03-14 18:15:28:997,0,-14.6081,-5.45168,63.4024,Q,Q
2023-03-14 18:15:29:7,0,-14.6105,-5.47101,63.4453,Q,Q
2023-03-14 18:15:29:17,0,-14.6142,-5.48966,63.4798,Q,Q
2023-03-14 18:15:29:27,0,-14.6209,-5.5046,63.5118,Q,Q
2023-03-14 18:15:29:37,0,-14.6247,-5.52037,63.535,Q,Q
2023-03-14 18:15:29:47,0,-14.6324,-5.52765,63.5562,Q,Q
2023-03-14 18:15:29:57,0,-14.6483,-5.53508,63.5749,Q,Q
2023-03-14 18:15:29:67,0,-14.66,-5.54226,63.5935,Q,Q
2023-03-14 18:15:29:77,0,-14.6663,-5.54706,63.6054,Q,Q
2023-03-14 18:15:29:87,0,-14.6697,-5.55257,63.6088,Q,Q
2023-03-14 18:15:29:97,0,-14.67,-5.55356,63.6082,Q,Q
2023-03-14 18:15:29:107,0,-14.6729,-5.55434,63.6125,Q,Q
2023-03-14 18:15:29:117,0,-14.6787,-5.5519,63.6155,Q,Q
2023-03-14 18:15:29:127,0,-14.6869,-5.54533,63.6166,Q,Q
2023-03-14 18:15:29:137,0,-14.6928,-5.53923,63.6133,Q,Q
2023-03-14 18:15:29:147,0,-14.7045,-5.5369,63.6138,Q,Q
2023-03-14 18:15:29:157,0,-14.7166,-5.53617,63.6235,Q,Q
2023-03-14 18:15:29:167,0,-14.7303,-5.5286,63.6351,Q,Q
2023-03-14 18:15:29:177,0,-14.7418,-5.52696,63.6465,Q,Q
2023-03-14 18:15:29:187,0,-14.7526,-5.52242,63.6609,Q,Q
2023-03-14 18:15:29:197,0,-14.7666,-5.51353,63.6743,Q,Q
2023-03-14 18:15:29:207,0,-14.7808,-5.49672,63.6859,Q,Q
2023-03-14 18:15:29:217,0,-14.8013,-5.4755,63.6954,Q,Q
2023-03-14 18:15:29:227,0,-14.8268,-5.44786,63.7044,Q,Q
2023-03-14 18:15:29:237,0,-14.8518,-5.42135,63.7104,Q,Q
2023-03-14 18:15:29:247,0,-14.8768,-5.39103,63.71,Q,Q
2023-03-14 18:15:29:257,0,-14.9046,-5.35683,63.7098,Q,Q
2023-03-14 18:15:29:267,0,-14.9287,-5.32565,63.7011,Q,Q
2023-03-14 18:15:29:277,0,-14.9476,-5.29305,63.6861,Q,Q
2023-03-14 18:15:29:287,0,-14.9645,-5.26611,63.6656,Q,Q
2023-03-14 18:15:29:297,0,-14.9833,-5.24028,63.6436,Q,Q
2023-03-14 18:15:29:307,0,-14.9977,-5.21432,63.6152,Q,Q
2023-03-14 18:15:29:317,0,-15.0117,-5.192,63.587,Q,Q
2023-03-14 18:15:29:327,0,-15.023,-5.16792,63.5545,Q,Q
2023-03-14 18:15:29:337,0,-15.0285,-5.14134,63.5212,Q,Q
2023-03-14 18:15:29:347,0,-15.0356,-5.11756,63.4921,Q,Q
2023-03-14 18:15:29:357,0,-15.0378,-5.10014,63.4657,Q,Q
2023-03-14 18:15:29:367,0,-15.0366,-5.08495,63.4425,Q,Q
2023-03-14 18:15:29:377,0,-15.0387,-5.0693,63.4254,Q,Q
2023-03-14 18:15:29:387,0,-15.0467,-5.05806,63.412,Q,Q
2023-03-14 18:15:29:397,0,-15.0592,-5.05099,63.407,Q,Q
2023-03-14 18:15:29:407,0,-15.0747,-5.04403,63.4075,Q,Q
2023-03-14 18:15:29:417,0,-15.0941,-5.03587,63.4175,Q,Q
2023-03-14 18:15:29:427,0,-15.1131,-5.03092,63.4333,Q,Q
2023-03-14 18:15:29:437,0,-15.1389,-5.02561,63.4544,Q,Q
2023-03-14 18:15:29:447,0,-15.1602,-5.0162,63.4792,Q,Q
2023-03-14 18:15:29:457,0,-15.182,-5.009,63.5031,Q,Q
2023-03-14 18:15:29:467,0,-15.2057,-5.00194,63.5284,Q,Q
2023-03-14 18:15:29:477,0,-15.2338,-4.9993,63.5525,Q,Q
2023-03-14 18:15:29:487,0,-15.2633,-4.99866,63.5726,Q,Q
2023-03-14 18:15:29:497,0,-15.2857,-4.98995,63.5904,Q,Q
2023-03-14 18:15:29:507,0,-15.3048,-4.98418,63.5992,Q,Q
2023-03-14 18:15:29:517,0,-15.3261,-4.98346,63.6082,Q,Q
2023-03-14 18:15:29:527,0,-15.3509,-4.98395,63.6126,Q,Q
2023-03-14 18:15:29:537,0,-15.3747,-4.98043,63.6149,Q,Q
2023-03-14 18:15:29:547,0,-15.3938,-4.97632,63.6123,Q,Q
2023-03-14 18:15:29:557,0,-15.4081,-4.97272,63.6097,Q,Q
2023-03-14 18:15:29:567,0,-15.4207,-4.97062,63.6051,Q,Q
2023-03-14 18:15:29:577,0,-15.4287,-4.96802,63.6019,Q,Q
2023-03-14 18:15:29:587,0,-15.4361,-4.96172,63.5937,Q,Q
2023-03-14 18:15:29:597,0,-15.441,-4.95627,63.587,Q,Q
2023-03-14 18:15:29:608,0,-15.4421,-4.9485,63.5818,Q,Q
2023-03-14 18:15:29:617,0,-15.4439,-4.94309,63.5765,Q,Q
2023-03-14 18:15:29:627,0,-15.4437,-4.93699,63.5766,Q,Q
2023-03-14 18:15:29:637,0,-15.4438,-4.93327,63.5764,Q,Q
2023-03-14 18:15:29:647,0,-15.4454,-4.92585,63.5731,Q,Q
2023-03-14 18:15:29:657,0,-15.4516,-4.92214,63.5715,Q,Q
2023-03-14 18:15:29:667,0,-15.4562,-4.91502,63.5683,Q,Q
2023-03-14 18:15:29:677,0,-15.4596,-4.90543,63.5616,Q,Q
2023-03-14 18:15:29:687,0,-15.4633,-4.90017,63.5551,Q,Q
2023-03-14 18:15:29:697,0,-15.4702,-4.89774,63.5439,Q,Q
2023-03-14 18:15:29:707,0,-15.4743,-4.89249,63.5289,Q,Q
2023-03-14 18:15:29:718,0,-15.4802,-4.88966,63.5151,Q,Q
2023-03-14 18:15:29:727,0,-15.4851,-4.88669,63.5033,Q,Q
2023-03-14 18:15:29:737,0,-15.4911,-4.8848,63.4924,Q,Q
2023-03-14 18:15:29:747,0,-15.4981,-4.87984,63.4823,Q,Q
2023-03-14 18:15:29:757,0,-15.5043,-4.87801,63.4713,Q,Q
2023-03-14 18:15:29:767,0,-15.5112,-4.87377,63.4666,Q,Q
2023-03-14 18:15:29:777,0,-15.5164,-4.86801,63.463,Q,Q
2023-03-14 18:15:29:787,0,-15.5254,-4.86384,63.4602,Q,Q
2023-03-14 18:15:29:797,0,-15.5297,-4.86094,63.4606,Q,Q
2023-03-14 18:15:29:807,0,-15.5397,-4.85737,63.4644,Q,Q
2023-03-14 18:15:29:817,0,-15.5477,-4.85566,63.4669,Q,Q
2023-03-14 18:15:29:827,0,-15.5513,-4.85271,63.4685,Q,Q
2023-03-14 18:15:29:837,0,-15.5529,-4.84789,63.4748,Q,Q
2023-03-14 18:15:29:847,0,-15.554,-4.84775,63.4781,Q,Q
2023-03-14 18:15:29:857,0,-15.5575,-4.84728,63.4843,Q,Q
2023-03-14 18:15:29:867,0,-15.5618,-4.84289,63.4872,Q,Q
2023-03-14 18:15:29:877,0,-15.5634,-4.84188,63.49,Q,Q
2023-03-14 18:15:29:887,0,-15.566,-4.84199,63.4915,Q,Q
2023-03-14 18:15:29:897,0,-15.5733,-4.84138,63.4901,Q,Q
2023-03-14 18:15:29:907,0,-15.5823,-4.8427,63.4914,Q,Q
2023-03-14 18:15:29:917,0,-15.5933,-4.84147,63.4921,Q,Q
2023-03-14 18:15:29:927,0,-15.607,-4.84174,63.4922,Q,Q
2023-03-14 18:15:29:937,0,-15.6191,-4.84551,63.4932,Q,Q
2023-03-14 18:15:29:947,0,-15.6275,-4.8493,63.4949,Q,Q
2023-03-14 18:15:29:957,0,-15.6407,-4.8533,63.4952,Q,Q
2023-03-14 18:15:29:967,0,-15.6576,-4.8523,63.4984,Q,Q
2023-03-14 18:15:29:977,0,-15.6711,-4.8527,63.5021,Q,Q
2023-03-14 18:15:29:987,0,-15.6819,-4.85332,63.5038,Q,Q
2023-03-14 18:15:29:997,0,-15.6971,-4.85128,63.5048,Q,Q
2023-03-14 18:15:30:7,0,-15.7114,-4.84499,63.5036,Q,Q
2023-03-14 18:15:30:17,0,-15.7233,-4.83644,63.5015,Q,Q
2023-03-14 18:15:30:27,0,-15.7363,-4.83361,63.4964,Q,Q
2023-03-14 18:15:30:37,0,-15.7477,-4.82474,63.4908,Q,Q
2023-03-14 18:15:30:47,0,-15.7614,-4.81596,63.4817,Q,Q
2023-03-14 18:15:30:57,0,-15.7749,-4.80573,63.4738,Q,Q
2023-03-14 18:15:30:67,0,-15.7887,-4.79885,63.4598,Q,Q
2023-03-14 18:15:30:77,0,-15.7982,-4.79453,63.446,Q,Q
2023-03-14 18:15:30:87,0,-15.809,-4.79011,63.4351,Q,Q
2023-03-14 18:15:30:97,0,-15.8202,-4.78045,63.4172,Q,Q
2023-03-14 18:15:30:107,0,-15.8233,-4.77334,63.4,Q,Q
2023-03-14 18:15:30:117,0,-15.8244,-4.76645,63.3829,Q,Q
2023-03-14 18:15:30:127,0,-15.8256,-4.76007,63.3665,Q,Q
2023-03-14 18:15:30:137,0,-15.825,-4.7532,63.3538,Q,Q
2023-03-14 18:15:30:147,0,-15.8269,-4.75242,63.3394,Q,Q
2023-03-14 18:15:30:157,0,-15.825,-4.7472,63.3295,Q,Q
2023-03-14 18:15:30:167,0,-15.8256,-4.74014,63.3183,Q,Q
2023-03-14 18:15:30:177,0,-15.8233,-4.73431,63.304,Q,Q
2023-03-14 18:15:30:187,0,-15.8175,-4.72912,63.2883,Q,Q
2023-03-14 18:15:30:197,0,-15.8111,-4.72754,63.2768,Q,Q
2023-03-14 18:15:30:207,0,-15.8072,-4.73164,63.2644,Q,Q
2023-03-14 18:15:30:217,0,-15.8006,-4.73935,63.2515,Q,Q
2023-03-14 18:15:30:227,0,-15.7932,-4.74417,63.2417,Q,Q
2023-03-14 18:15:30:237,0,-15.7876,-4.75391,63.2342,Q,Q
2023-03-14 18:15:30:247,0,-15.7816,-4.76364,63.2278,Q,Q
2023-03-14 18:15:30:257,0,-15.7751,-4.77138,63.2203,Q,Q
2023-03-14 18:15:30:267,0,-15.7699,-4.77318,63.2143,Q,Q
2023-03-14 18:15:30:277,0,-15.7661,-4.78044,63.2112,Q,Q
2023-03-14 18:15:30:287,0,-15.755,-4.78339,63.2056,Q,Q
2023-03-14 18:15:30:297,0,-15.7459,-4.78518,63.2032,Q,Q
2023-03-14 18:15:30:307,0,-15.7316,-4.78378,63.1983,Q,Q
2023-03-14 18:15:30:317,0,-15.7192,-4.78685,63.1924,Q,Q
2023-03-14 18:15:30:327,0,-15.7083,-4.79279,63.1907,Q,Q
2023-03-14 18:15:30:337,0,-15.6963,-4.79532,63.1846,Q,Q
2023-03-14 18:15:30:347,0,-15.6857,-4.7989,63.1778,Q,Q
2023-03-14 18:15:30:357,0,-15.6775,-4.80207,63.1742,Q,Q
2023-03-14 18:15:30:367,0,-15.6694,-4.80305,63.1717,Q,Q
2023-03-14 18:15:30:377,0,-15.6622,-4.80327,63.171,Q,Q
2023-03-14 18:15:30:387,0,-15.657,-4.80003,63.17,Q,Q
2023-03-14 18:15:30:397,0,-15.656,-4.80086,63.1725,Q,Q
2023-03-14 18:15:30:407,0,-15.6527,-4.80153,63.1761,Q,Q
2023-03-14 18:15:30:417,0,-15.6497,-4.79614,63.1801,Q,Q
2023-03-14 18:15:30:427,0,-15.6481,-4.79627,63.1829,Q,Q
2023-03-14 18:15:30:437,0,-15.6471,-4.79172,63.1868,Q,Q
2023-03-14 18:15:30:447,0,-15.6486,-4.78544,63.1889,Q,Q
2023-03-14 18:15:30:457,0,-15.6505,-4.77957,63.1907,Q,Q
2023-03-14 18:15:30:467,0,-15.651,-4.77418,63.1913,Q,Q
2023-03-14 18:15:30:477,0,-15.6513,-4.76994,63.1912,Q,Q
2023-03-14 18:15:30:487,0,-15.6517,-4.76739,63.1915,Q,Q
2023-03-14 18:15:30:497,0,-15.6518,-4.7657,63.1923,Q,Q
2023-03-14 18:15:30:507,0,-15.6555,-4.76387,63.1923,Q,Q
2023-03-14 18:15:30:517,0,-15.654,-4.76365,63.1898,Q,Q
2023-03-14 18:15:30:527,0,-15.6571,-4.76028,63.1868,Q,Q
2023-03-14 18:15:30:537,0,-15.658,-4.76052,63.1891,Q,Q
2023-03-14 18:15:30:547,0,-15.6565,-4.76286,63.1915,Q,Q
2023-03-14 18:15:30:557,0,-15.6501,-4.76184,63.1957,Q,Q
2023-03-14 18:15:30:567,0,-15.6463,-4.75814,63.2009,Q,Q
2023-03-14 18:15:30:577,0,-15.6408,-4.7594,63.2076,Q,Q
2023-03-14 18:15:30:587,0,-15.6326,-4.75717,63.2087,Q,Q
2023-03-14 18:15:30:597,0,-15.6267,-4.75738,63.2141,Q,Q
2023-03-14 18:15:30:607,0,-15.6193,-4.76139,63.221,Q,Q
2023-03-14 18:15:30:617,0,-15.6148,-4.76392,63.2266,Q,Q
2023-03-14 18:15:30:627,0,-15.6077,-4.76448,63.2289,Q,Q
2023-03-14 18:15:30:637,0,-15.5983,-4.76818,63.2351,Q,Q
2023-03-14 18:15:30:647,0,-15.5877,-4.77348,63.2463,Q,Q
2023-03-14 18:15:30:657,0,-15.5813,-4.77928,63.2569,Q,Q
2023-03-14 18:15:30:667,0,-15.5705,-4.7836,63.2669,Q,Q
2023-03-14 18:15:30:677,0,-15.5601,-4.78406,63.2805,Q,Q
2023-03-14 18:15:30:687,0,-15.5496,-4.78472,63.2949,Q,Q
2023-03-14 18:15:30:697,0,-15.5378,-4.78532,63.3116,Q,Q
2023-03-14 18:15:30:707,0,-15.5272,-4.79115,63.323,Q,Q
2023-03-14 18:15:30:717,0,-15.5126,-4.79563,63.3376,Q,Q
2023-03-14 18:15:30:727,0,-15.4982,-4.80219,63.3461,Q,Q
2023-03-14 18:15:30:737,0,-15.4839,-4.80785,63.3545,Q,Q
2023-03-14 18:15:30:747,0,-15.4728,-4.81531,63.3643,Q,Q
2023-03-14 18:15:30:757,0,-15.4596,-4.82204,63.3718,Q,Q
2023-03-14 18:15:30:767,0,-15.4494,-4.8325,63.3791,Q,Q
2023-03-14 18:15:30:777,0,-15.4382,-4.84147,63.3895,Q,Q
2023-03-14 18:15:30:787,0,-15.4257,-4.84824,63.3958,Q,Q
2023-03-14 18:15:30:797,0,-15.4151,-4.85897,63.4074,Q,Q
2023-03-14 18:15:30:807,0,-15.4036,-4.86793,63.4203,Q,Q
2023-03-14 18:15:30:817,0,-15.3881,-4.87574,63.4305,Q,Q
2023-03-14 18:15:30:827,0,-15.375,-4.88362,63.4445,Q,Q
2023-03-14 18:15:30:837,0,-15.3691,-4.89601,63.4563,Q,Q
2023-03-14 18:15:30:847,0,-15.3628,-4.90422,63.4707,Q,Q
2023-03-14 18:15:30:857,0,-15.3559,-4.91684,63.4867,Q,Q
2023-03-14 18:15:30:867,0,-15.3486,-4.92953,63.5037,Q,Q
2023-03-14 18:15:30:877,0,-15.3404,-4.93731,63.5205,Q,Q
2023-03-14 18:15:30:887,0,-15.3365,-4.94134,63.5344,Q,Q
2023-03-14 18:15:30:897,0,-15.3316,-4.94667,63.5452,Q,Q
2023-03-14 18:15:30:907,0,-15.3252,-4.94992,63.5548,Q,Q
2023-03-14 18:15:30:917,0,-15.3159,-4.95348,63.5656,Q,Q
2023-03-14 18:15:30:927,0,-15.3067,-4.95594,63.5717,Q,Q
2023-03-14 18:15:30:937,0,-15.3013,-4.95877,63.5805,Q,Q
2023-03-14 18:15:30:947,0,-15.2967,-4.96326,63.5859,Q,Q
2023-03-14 18:15:30:957,0,-15.2931,-4.96968,63.5949,Q,Q
2023-03-14 18:15:30:967,0,-15.2904,-4.97336,63.6007,Q,Q
2023-03-14 18:15:30:977,0,-15.2864,-4.97533,63.6055,Q,Q
2023-03-14 18:15:30:987,0,-15.2837,-4.97772,63.6123,Q,Q
2023-03-14 18:15:30:997,0,-15.2761,-4.9805,63.6205,Q,Q
2023-03-14 18:15:31:7,0,-15.27,-4.98093,63.6246,Q,Q
2023-03-14 18:15:31:17,0,-15.2637,-4.98489,63.632,Q,Q
2023-03-14 18:15:31:27,0,-15.2567,-4.99105,63.6383,Q,Q
2023-03-14 18:15:31:37,0,-15.2479,-4.99192,63.6436,Q,Q
2023-03-14 18:15:31:47,0,-15.2416,-4.99437,63.6493,Q,Q
2023-03-14 18:15:31:57,0,-15.2304,-4.99576,63.6481,Q,Q
2023-03-14 18:15:31:67,0,-15.2161,-4.99593,63.6514,Q,Q
2023-03-14 18:15:31:77,0,-15.2031,-4.99962,63.6572,Q,Q
2023-03-14 18:15:31:87,0,-15.1864,-5.0054,63.6656,Q,Q
2023-03-14 18:15:31:97,0,-15.1727,-5.01262,63.6727,Q,Q
2023-03-14 18:15:31:107,0,-15.1615,-5.0225,63.6806,Q,Q
2023-03-14 18:15:31:117,0,-15.1566,-5.03179,63.6899,Q,Q
2023-03-14 18:15:31:127,0,-15.1505,-5.04423,63.7025,Q,Q
2023-03-14 18:15:31:137,0,-15.142,-5.05412,63.7142,Q,Q
2023-03-14 18:15:31:147,0,-15.1325,-5.06242,63.7257,Q,Q
2023-03-14 18:15:31:157,0,-15.1238,-5.06633,63.736,Q,Q
2023-03-14 18:15:31:167,0,-15.1122,-5.0728,63.75,Q,Q
2023-03-14 18:15:31:177,0,-15.0983,-5.0799,63.7637,Q,Q
2023-03-14 18:15:31:187,0,-15.0862,-5.09221,63.7768,Q,Q
2023-03-14 18:15:31:197,0,-15.0759,-5.10388,63.796,Q,Q
2023-03-14 18:15:31:207,0,-15.0678,-5.11708,63.8106,Q,Q
2023-03-14 18:15:31:217,0,-15.0586,-5.12875,63.8257,Q,Q
2023-03-14 18:15:31:227,0,-15.0532,-5.13703,63.8409,Q,Q
2023-03-14 18:15:31:237,0,-15.0456,-5.14352,63.8523,Q,Q
2023-03-14 18:15:31:247,0,-15.039,-5.15025,63.8658,Q,Q
2023-03-14 18:15:31:257,0,-15.0313,-5.16231,63.8785,Q,Q
2023-03-14 18:15:31:267,0,-15.0257,-5.17098,63.89,Q,Q
2023-03-14 18:15:31:277,0,-15.0224,-5.1765,63.9048,Q,Q
2023-03-14 18:15:31:287,0,-15.0129,-5.18134,63.9218,Q,Q
2023-03-14 18:15:31:297,0,-15.0045,-5.18317,63.9346,Q,Q
2023-03-14 18:15:31:307,0,-14.9959,-5.1888,63.9426,Q,Q
2023-03-14 18:15:31:317,0,-14.9935,-5.19095,63.9547,Q,Q
2023-03-14 18:15:31:327,0,-14.989,-5.19126,63.9639,Q,Q
2023-03-14 18:15:31:337,0,-14.9843,-5.19231,63.9713,Q,Q
2023-03-14 18:15:31:347,0,-14.9766,-5.18823,63.9757,Q,Q
2023-03-14 18:15:31:357,0,-14.9641,-5.18546,63.9765,Q,Q
2023-03-14 18:15:31:367,0,-14.955,-5.18283,63.9811,Q,Q
2023-03-14 18:15:31:377,0,-14.9509,-5.17712,63.9813,Q,Q
2023-03-14 18:15:31:387,0,-14.9484,-5.17143,63.9793,Q,Q
2023-03-14 18:15:31:397,0,-14.9468,-5.16425,63.9797,Q,Q
2023-03-14 18:15:31:407,0,-14.9479,-5.16054,63.978,Q,Q
2023-03-14 18:15:31:417,0,-14.9506,-5.15714,63.9769,Q,Q
2023-03-14 18:15:31:427,0,-14.9507,-5.15223,63.9792,Q,Q
2023-03-14 18:15:31:437,0,-14.9489,-5.15073,63.9769,Q,Q
2023-03-14 18:15:31:447,0,-14.9443,-5.14632,63.9761,Q,Q
2023-03-14 18:15:31:457,0,-14.934,-5.14338,63.9751,Q,Q
2023-03-14 18:15:31:467,0,-14.9233,-5.13845,63.9773,Q,Q
2023-03-14 18:15:31:477,0,-14.9153,-5.13586,63.9782,Q,Q
2023-03-14 18:15:31:487,0,-14.906,-5.13002,63.9779,Q,Q
2023-03-14 18:15:31:497,0,-14.8954,-5.13009,63.9819,Q,Q
2023-03-14 18:15:31:507,0,-14.8813,-5.12258,63.9829,Q,Q
2023-03-14 18:15:31:517,0,-14.8714,-5.12555,63.9844,Q,Q
2023-03-14 18:15:31:527,0,-14.8694,-5.12483,63.9859,Q,Q
2023-03-14 18:15:31:537,0,-14.8651,-5.12297,63.9871,Q,Q
2023-03-14 18:15:31:547,0,-14.861,-5.12564,63.9874,Q,Q
2023-03-14 18:15:31:557,0,-14.8525,-5.12478,63.9868,Q,Q
2023-03-14 18:15:31:567,0,-14.8477,-5.1249,63.9866,Q,Q
2023-03-14 18:15:31:577,0,-14.845,-5.12641,63.9895,Q,Q
2023-03-14 18:15:31:587,0,-14.8417,-5.12945,63.9896,Q,Q
2023-03-14 18:15:31:597,0,-14.8356,-5.13076,63.989,Q,Q
2023-03-14 18:15:31:607,0,-14.8286,-5.13259,63.9902,Q,Q
2023-03-14 18:15:31:617,0,-14.8202,-5.13406,63.9871,Q,Q
2023-03-14 18:15:31:627,0,-14.8106,-5.13814,63.9874,Q,Q
2023-03-14 18:15:31:637,0,-14.8043,-5.13801,63.9894,Q,Q
2023-03-14 18:15:31:647,0,-14.7958,-5.14021,63.9876,Q,Q
2023-03-14 18:15:31:657,0,-14.7953,-5.14054,63.9871,Q,Q
2023-03-14 18:15:31:667,0,-14.7864,-5.14161,63.9877,Q,Q
2023-03-14 18:15:31:677,0,-14.7797,-5.13997,63.9883,Q,Q
2023-03-14 18:15:31:687,0,-14.7711,-5.14454,63.9882,Q,Q
2023-03-14 18:15:31:697,0,-14.7616,-5.14876,63.9929,Q,Q
2023-03-14 18:15:31:707,0,-14.7568,-5.15367,64.0013,Q,Q
2023-03-14 18:15:31:717,0,-14.7483,-5.161,64.0105,Q,Q
2023-03-14 18:15:31:728,0,-14.7459,-5.16573,64.0184,Q,Q
2023-03-14 18:15:31:737,0,-14.7409,-5.16814,64.0246,Q,Q
2023-03-14 18:15:31:747,0,-14.7345,-5.17065,64.0298,Q,Q
2023-03-14 18:15:31:757,0,-14.7261,-5.17262,64.0319,Q,Q
2023-03-14 18:15:31:767,0,-14.7184,-5.16483,64.0334,Q,Q
2023-03-14 18:15:31:777,0,-14.7051,-5.15599,64.0349,Q,Q
2023-03-14 18:15:31:787,0,-14.6983,-5.15477,64.0354,Q,Q
2023-03-14 18:15:31:797,0,-14.7008,-5.15198,64.0383,Q,Q
2023-03-14 18:15:31:807,0,-14.7078,-5.14846,64.0405,Q,Q
2023-03-14 18:15:31:817,0,-14.7094,-5.1428,64.0382,Q,Q
2023-03-14 18:15:31:827,0,-14.7115,-5.13376,64.033,Q,Q
2023-03-14 18:15:31:837,0,-14.7143,-5.1288,64.0293,Q,Q
2023-03-14 18:15:31:847,0,-14.7175,-5.12287,64.0268,Q,Q
2023-03-14 18:15:31:857,0,-14.7182,-5.1155,64.0185,Q,Q
2023-03-14 18:15:31:867,0,-14.7179,-5.1079,64.0136,Q,Q
2023-03-14 18:15:31:877,0,-14.7219,-5.10019,64.0088,Q,Q
