Timestamp_cmd,imu_cmd,roll_delta,pitch_delta,yaw_delta,voice_type,voice_length
2023-03-15 14:35:29:92,0,14.7656,-5.74403,-25.9177,Q,Q
2023-03-15 14:35:29:101,0,14.7598,-5.77281,-25.9065,Q,Q
2023-03-15 14:35:29:111,0,14.7523,-5.80355,-25.8995,Q,Q
2023-03-15 14:35:29:121,0,14.7396,-5.82806,-25.8823,Q,Q
2023-03-15 14:35:29:131,0,14.7185,-5.85279,-25.8619,Q,Q
2023-03-15 14:35:29:141,0,14.6916,-5.87583,-25.8411,Q,Q
2023-03-15 14:35:29:151,0,14.6679,-5.89421,-25.827,Q,Q
2023-03-15 14:35:29:161,0,14.6505,-5.90658,-25.8158,Q,Q
2023-03-15 14:35:29:171,0,14.6405,-5.90972,-25.809,Q,Q
2023-03-15 14:35:29:181,0,14.6326,-5.91537,-25.8118,Q,Q
2023-03-15 14:35:29:191,0,14.6266,-5.91643,-25.8248,Q,Q
2023-03-15 14:35:29:201,0,14.6223,-5.91622,-25.8483,Q,Q
2023-03-15 14:35:29:211,0,14.6225,-5.91318,-25.8804,Q,Q
2023-03-15 14:35:29:221,0,14.6225,-5.90955,-25.9164,Q,Q
2023-03-15 14:35:29:231,0,14.6301,-5.90346,-25.9652,Q,Q
2023-03-15 14:35:29:241,0,14.6427,-5.89731,-26.0162,Q,Q
2023-03-15 14:35:29:251,0,14.6573,-5.88797,-26.0698,Q,Q
2023-03-15 14:35:29:261,0,14.6736,-5.88401,-26.1198,Q,Q
2023-03-15 14:35:29:271,0,14.6879,-5.87919,-26.1704,Q,Q
2023-03-15 14:35:29:281,0,14.6986,-5.87005,-26.2154,Q,Q
2023-03-15 14:35:29:291,0,14.71,-5.85829,-26.2595,Q,Q
2023-03-15 14:35:29:301,0,14.7147,-5.84535,-26.302,Q,Q
2023-03-15 14:35:29:311,0,14.7177,-5.83155,-26.3396,Q,Q
2023-03-15 14:35:29:321,0,14.7129,-5.81548,-26.3759,Q,Q
2023-03-15 14:35:29:331,0,14.7047,-5.80698,-26.4075,Q,Q
2023-03-15 14:35:29:341,0,14.694,-5.7932,-26.4325,Q,Q
2023-03-15 14:35:29:351,0,14.6833,-5.77963,-26.455,Q,Q
2023-03-15 14:35:29:361,0,14.6768,-5.771,-26.4711,Q,Q
2023-03-15 14:35:29:371,0,14.6686,-5.75901,-26.4836,Q,Q
2023-03-15 14:35:29:381,0,14.6621,-5.7467,-26.4971,Q,Q
2023-03-15 14:35:29:391,0,14.6587,-5.73888,-26.5081,Q,Q
2023-03-15 14:35:29:401,0,14.6585,-5.72711,-26.5178,Q,Q
2023-03-15 14:35:29:411,0,14.659,-5.71617,-26.5273,Q,Q
2023-03-15 14:35:29:421,0,14.66,-5.71051,-26.5394,Q,Q
2023-03-15 14:35:29:431,0,14.6642,-5.70576,-26.5544,Q,Q
2023-03-15 14:35:29:441,0,14.6669,-5.70307,-26.5675,Q,Q
2023-03-15 14:35:29:451,0,14.6703,-5.70057,-26.5804,Q,Q
2023-03-15 14:35:29:461,0,14.6763,-5.70123,-26.587,Q,Q
2023-03-15 14:35:29:471,0,14.6838,-5.70279,-26.5939,Q,Q
2023-03-15 14:35:29:481,0,14.6916,-5.70261,-26.6005,Q,Q
2023-03-15 14:35:29:491,0,14.6999,-5.70166,-26.6067,Q,Q
2023-03-15 14:35:29:501,0,14.7063,-5.69481,-26.6135,Q,Q
2023-03-15 14:35:29:511,0,14.715,-5.68657,-26.6219,Q,Q
2023-03-15 14:35:29:521,0,14.7245,-5.68172,-26.6336,Q,Q
2023-03-15 14:35:29:531,0,14.7335,-5.67339,-26.6444,Q,Q
2023-03-15 14:35:29:541,0,14.7389,-5.66742,-26.6519,Q,Q
2023-03-15 14:35:29:551,0,14.741,-5.66677,-26.6652,Q,Q
2023-03-15 14:35:29:561,0,14.7471,-5.66646,-26.6768,Q,Q
2023-03-15 14:35:29:571,0,14.7549,-5.66528,-26.6899,Q,Q
2023-03-15 14:35:29:581,0,14.7627,-5.65905,-26.707,Q,Q
2023-03-15 14:35:29:591,0,14.7725,-5.65748,-26.7256,Q,Q
2023-03-15 14:35:29:601,0,14.7808,-5.64639,-26.7489,Q,Q
2023-03-15 14:35:29:611,0,14.7913,-5.64196,-26.7748,Q,Q
2023-03-15 14:35:29:621,0,14.8024,-5.63695,-26.8001,Q,Q
2023-03-15 14:35:29:631,0,14.8102,-5.63373,-26.8269,Q,Q
2023-03-15 14:35:29:641,0,14.8151,-5.63113,-26.8548,Q,Q
2023-03-15 14:35:29:651,0,14.8181,-5.62843,-26.8807,Q,Q
2023-03-15 14:35:29:661,0,14.8218,-5.62988,-26.9141,Q,Q
2023-03-15 14:35:29:671,0,14.8275,-5.63173,-26.942,Q,Q
2023-03-15 14:35:29:681,0,14.8314,-5.63508,-26.9747,Q,Q
2023-03-15 14:35:29:691,0,14.8375,-5.63748,-27.0025,Q,Q
2023-03-15 14:35:29:701,0,14.8452,-5.64602,-27.0276,Q,Q
2023-03-15 14:35:29:711,0,14.8535,-5.64779,-27.0578,Q,Q
2023-03-15 14:35:29:721,0,14.859,-5.65189,-27.0788,Q,Q
2023-03-15 14:35:29:731,0,14.8671,-5.6559,-27.0996,Q,Q
2023-03-15 14:35:29:741,0,14.8711,-5.65513,-27.1209,Q,Q
2023-03-15 14:35:29:751,0,14.8754,-5.65438,-27.1371,Q,Q
2023-03-15 14:35:29:761,0,14.8761,-5.64877,-27.1493,Q,Q
2023-03-15 14:35:29:771,0,14.8755,-5.63906,-27.1626,Q,Q
2023-03-15 14:35:29:781,0,14.8755,-5.62839,-27.1711,Q,Q
2023-03-15 14:35:29:791,0,14.8762,-5.61316,-27.1766,Q,Q
2023-03-15 14:35:29:801,0,14.8764,-5.6008,-27.1779,Q,Q
2023-03-15 14:35:29:811,0,14.8734,-5.59369,-27.1825,Q,Q
2023-03-15 14:35:29:821,0,14.8733,-5.58365,-27.1872,Q,Q
2023-03-15 14:35:29:831,0,14.8756,-5.57312,-27.1897,Q,Q
2023-03-15 14:35:29:841,0,14.8807,-5.56835,-27.1896,Q,Q
2023-03-15 14:35:29:851,0,14.8848,-5.55939,-27.1893,Q,Q
2023-03-15 14:35:29:861,0,14.8886,-5.54944,-27.1873,Q,Q
2023-03-15 14:35:29:871,0,14.8911,-5.54355,-27.1854,Q,Q
2023-03-15 14:35:29:881,0,14.8905,-5.53762,-27.1824,Q,Q
2023-03-15 14:35:29:891,0,14.8911,-5.52455,-27.174,Q,Q
2023-03-15 14:35:29:901,0,14.8874,-5.51195,-27.1661,Q,Q
2023-03-15 14:35:29:911,0,14.8767,-5.49881,-27.1531,Q,Q
2023-03-15 14:35:29:921,0,14.8678,-5.49097,-27.1433,Q,Q
2023-03-15 14:35:29:931,0,14.8656,-5.48151,-27.1301,Q,Q
2023-03-15 14:35:29:941,0,14.861,-5.47107,-27.1143,Q,Q
2023-03-15 14:35:29:951,0,14.857,-5.4601,-27.103,Q,Q
2023-03-15 14:35:29:961,0,14.8521,-5.44701,-27.0925,Q,Q
2023-03-15 14:35:29:971,0,14.8484,-5.42954,-27.0754,Q,Q
2023-03-15 14:35:29:981,0,14.8431,-5.41436,-27.0515,Q,Q
2023-03-15 14:35:29:991,0,14.8445,-5.39175,-27.0194,Q,Q
2023-03-15 14:35:30:1,0,14.847,-5.36346,-26.9804,Q,Q
2023-03-15 14:35:30:11,0,14.8493,-5.3329,-26.9399,Q,Q
2023-03-15 14:35:30:21,0,14.8492,-5.30122,-26.9064,Q,Q
2023-03-15 14:35:30:31,0,14.8441,-5.26957,-26.8778,Q,Q
2023-03-15 14:35:30:41,0,14.8408,-5.2399,-26.8583,Q,Q
2023-03-15 14:35:30:51,0,14.8327,-5.21466,-26.8456,Q,Q
2023-03-15 14:35:30:61,0,14.8254,-5.19269,-26.8481,Q,Q
2023-03-15 14:35:30:71,0,14.8235,-5.17519,-26.8612,Q,Q
2023-03-15 14:35:30:81,0,14.8286,-5.15876,-26.8816,Q,Q
2023-03-15 14:35:30:91,0,14.8347,-5.14111,-26.9037,Q,Q
2023-03-15 14:35:30:101,0,14.8345,-5.13058,-26.9334,Q,Q
2023-03-15 14:35:30:111,0,14.8365,-5.12417,-26.9654,Q,Q
2023-03-15 14:35:30:121,0,14.8373,-5.11962,-27.0016,Q,Q
2023-03-15 14:35:30:131,0,14.8403,-5.11521,-27.0353,Q,Q
2023-03-15 14:35:30:141,0,14.8355,-5.10794,-27.0709,Q,Q
2023-03-15 14:35:30:151,0,14.8286,-5.10188,-27.1061,Q,Q
2023-03-15 14:35:30:161,0,14.8218,-5.09862,-27.1407,Q,Q
2023-03-15 14:35:30:171,0,14.8165,-5.09652,-27.1695,Q,Q
2023-03-15 14:35:30:181,0,14.8123,-5.09796,-27.1968,Q,Q
2023-03-15 14:35:30:191,0,14.8174,-5.10109,-27.227,Q,Q
2023-03-15 14:35:30:201,0,14.8179,-5.10895,-27.251,Q,Q
2023-03-15 14:35:30:211,0,14.8176,-5.11451,-27.2755,Q,Q
2023-03-15 14:35:30:221,0,14.8118,-5.1179,-27.299,Q,Q
2023-03-15 14:35:30:231,0,14.8031,-5.1222,-27.3225,Q,Q
2023-03-15 14:35:30:241,0,14.7906,-5.13021,-27.3457,Q,Q
2023-03-15 14:35:30:251,0,14.7745,-5.1394,-27.3638,Q,Q
2023-03-15 14:35:30:261,0,14.7549,-5.14484,-27.3796,Q,Q
2023-03-15 14:35:30:271,0,14.7364,-5.14782,-27.393,Q,Q
2023-03-15 14:35:30:281,0,14.7162,-5.15014,-27.402,Q,Q
2023-03-15 14:35:30:291,0,14.6959,-5.15477,-27.4094,Q,Q
2023-03-15 14:35:30:301,0,14.6749,-5.15475,-27.4177,Q,Q
2023-03-15 14:35:30:311,0,14.6551,-5.15291,-27.4238,Q,Q
2023-03-15 14:35:30:321,0,14.6368,-5.1523,-27.4286,Q,Q
2023-03-15 14:35:30:331,0,14.6137,-5.15145,-27.4333,Q,Q
2023-03-15 14:35:30:341,0,14.5945,-5.1504,-27.4343,Q,Q
2023-03-15 14:35:30:350,0,14.5744,-5.14919,-27.4398,Q,Q
2023-03-15 14:35:30:361,0,14.5557,-5.14791,-27.4434,Q,Q
2023-03-15 14:35:30:370,0,14.5362,-5.14977,-27.447,Q,Q
2023-03-15 14:35:30:381,0,14.5167,-5.15152,-27.4527,Q,Q
2023-03-15 14:35:30:391,0,14.504,-5.15221,-27.4626,Q,Q
2023-03-15 14:35:30:401,0,14.4893,-5.15775,-27.4709,Q,Q
2023-03-15 14:35:30:411,0,14.4738,-5.15955,-27.4803,Q,Q
2023-03-15 14:35:30:421,0,14.4623,-5.16205,-27.4916,Q,Q
2023-03-15 14:35:30:431,0,14.4537,-5.16595,-27.5018,Q,Q
2023-03-15 14:35:30:441,0,14.4462,-5.16857,-27.5108,Q,Q
2023-03-15 14:35:30:451,0,14.4416,-5.17355,-27.5179,Q,Q
2023-03-15 14:35:30:461,0,14.4328,-5.17823,-27.5276,Q,Q
2023-03-15 14:35:30:471,0,14.4268,-5.18549,-27.5362,Q,Q
2023-03-15 14:35:30:481,0,14.4245,-5.194,-27.546,Q,Q
2023-03-15 14:35:30:491,0,14.4205,-5.1984,-27.5597,Q,Q
2023-03-15 14:35:30:501,0,14.4165,-5.19856,-27.5752,Q,Q
2023-03-15 14:35:30:511,0,14.4116,-5.20039,-27.5875,Q,Q
2023-03-15 14:35:30:520,0,14.4076,-5.20147,-27.5992,Q,Q
2023-03-15 14:35:30:530,0,14.4066,-5.20092,-27.6086,Q,Q
2023-03-15 14:35:30:541,0,14.4066,-5.19547,-27.623,Q,Q
2023-03-15 14:35:30:550,0,14.4052,-5.1947,-27.6321,Q,Q
2023-03-15 14:35:30:561,0,14.4028,-5.19282,-27.6417,Q,Q
2023-03-15 14:35:30:571,0,14.4009,-5.19579,-27.6501,Q,Q
2023-03-15 14:35:30:581,0,14.3979,-5.19963,-27.6559,Q,Q
2023-03-15 14:35:30:591,0,14.399,-5.20106,-27.6548,Q,Q
2023-03-15 14:35:30:601,0,14.4017,-5.20433,-27.654,Q,Q
2023-03-15 14:35:30:611,0,14.4038,-5.21004,-27.6478,Q,Q
2023-03-15 14:35:30:621,0,14.4069,-5.21609,-27.6413,Q,Q
2023-03-15 14:35:30:631,0,14.4079,-5.22212,-27.6359,Q,Q
2023-03-15 14:35:30:641,0,14.4065,-5.23001,-27.6256,Q,Q
2023-03-15 14:35:30:651,0,14.4033,-5.23348,-27.613,Q,Q
2023-03-15 14:35:30:661,0,14.4001,-5.23537,-27.6021,Q,Q
2023-03-15 14:35:30:671,0,14.3975,-5.23758,-27.585,Q,Q
2023-03-15 14:35:30:681,0,14.3886,-5.23752,-27.5744,Q,Q
2023-03-15 14:35:30:691,0,14.3775,-5.2344,-27.5598,Q,Q
2023-03-15 14:35:30:701,0,14.3692,-5.23234,-27.548,Q,Q
2023-03-15 14:35:30:711,0,14.3608,-5.23327,-27.5404,Q,Q
2023-03-15 14:35:30:721,0,14.3528,-5.23358,-27.5321,Q,Q
2023-03-15 14:35:30:731,0,14.3431,-5.23359,-27.5258,Q,Q
2023-03-15 14:35:30:741,0,14.3355,-5.23164,-27.5194,Q,Q
2023-03-15 14:35:30:751,0,14.3291,-5.2319,-27.5197,Q,Q
2023-03-15 14:35:30:761,0,14.3257,-5.23283,-27.516,Q,Q
2023-03-15 14:35:30:771,0,14.3202,-5.23582,-27.5161,Q,Q
2023-03-15 14:35:30:781,0,14.3153,-5.23601,-27.5164,Q,Q
2023-03-15 14:35:30:791,0,14.3087,-5.23748,-27.5111,Q,Q
2023-03-15 14:35:30:801,0,14.3036,-5.24212,-27.5095,Q,Q
2023-03-15 14:35:30:811,0,14.3007,-5.24708,-27.5036,Q,Q
2023-03-15 14:35:30:821,0,14.295,-5.25289,-27.4962,Q,Q
2023-03-15 14:35:30:831,0,14.2914,-5.25619,-27.4897,Q,Q
2023-03-15 14:35:30:841,0,14.2856,-5.26229,-27.4827,Q,Q
2023-03-15 14:35:30:851,0,14.2803,-5.26562,-27.4717,Q,Q
2023-03-15 14:35:30:861,0,14.2755,-5.27149,-27.4586,Q,Q
2023-03-15 14:35:30:871,0,14.2751,-5.28152,-27.4463,Q,Q
2023-03-15 14:35:30:881,0,14.2732,-5.28764,-27.4344,Q,Q
2023-03-15 14:35:30:891,0,14.276,-5.28996,-27.4198,Q,Q
2023-03-15 14:35:30:901,0,14.2721,-5.29765,-27.4057,Q,Q
2023-03-15 14:35:30:911,0,14.2727,-5.30287,-27.3917,Q,Q
2023-03-15 14:35:30:921,0,14.2738,-5.31188,-27.3766,Q,Q
2023-03-15 14:35:30:931,0,14.2746,-5.32159,-27.3603,Q,Q
2023-03-15 14:35:30:941,0,14.2711,-5.3279,-27.3469,Q,Q
2023-03-15 14:35:30:951,0,14.2666,-5.33941,-27.3268,Q,Q
2023-03-15 14:35:30:961,0,14.266,-5.35259,-27.3126,Q,Q
2023-03-15 14:35:30:971,0,14.2667,-5.36108,-27.3007,Q,Q
2023-03-15 14:35:30:981,0,14.2655,-5.36822,-27.2848,Q,Q
2023-03-15 14:35:30:991,0,14.2651,-5.37661,-27.2716,Q,Q
2023-03-15 14:35:31:1,0,14.2686,-5.38284,-27.257,Q,Q
2023-03-15 14:35:31:11,0,14.2724,-5.39336,-27.2362,Q,Q
2023-03-15 14:35:31:21,0,14.2762,-5.39939,-27.2164,Q,Q
2023-03-15 14:35:31:31,0,14.2781,-5.40374,-27.2002,Q,Q
2023-03-15 14:35:31:41,0,14.2824,-5.40453,-27.1831,Q,Q
2023-03-15 14:35:31:51,0,14.2849,-5.40561,-27.169,Q,Q
2023-03-15 14:35:31:61,0,14.2829,-5.40582,-27.152,Q,Q
2023-03-15 14:35:31:71,0,14.2843,-5.40445,-27.1363,Q,Q
2023-03-15 14:35:31:81,0,14.2897,-5.4053,-27.1198,Q,Q
2023-03-15 14:35:31:91,0,14.294,-5.41312,-27.101,Q,Q
2023-03-15 14:35:31:101,0,14.3001,-5.42507,-27.0824,Q,Q
2023-03-15 14:35:31:111,0,14.2989,-5.43687,-27.0662,Q,Q
2023-03-15 14:35:31:121,0,14.2944,-5.44899,-27.0512,Q,Q
2023-03-15 14:35:31:131,0,14.287,-5.4586,-27.0394,Q,Q
2023-03-15 14:35:31:141,0,14.2807,-5.46607,-27.0288,Q,Q
2023-03-15 14:35:31:151,0,14.2737,-5.47275,-27.0179,Q,Q
2023-03-15 14:35:31:161,0,14.2651,-5.47738,-27.0079,Q,Q
2023-03-15 14:35:31:171,0,14.2565,-5.47895,-26.9961,Q,Q
2023-03-15 14:35:31:181,0,14.2492,-5.48046,-26.9866,Q,Q
2023-03-15 14:35:31:191,0,14.2419,-5.48054,-26.9793,Q,Q
2023-03-15 14:35:31:201,0,14.2372,-5.48201,-26.9742,Q,Q
2023-03-15 14:35:31:211,0,14.232,-5.4807,-26.9728,Q,Q
2023-03-15 14:35:31:221,0,14.224,-5.48029,-26.9684,Q,Q
2023-03-15 14:35:31:231,0,14.22,-5.48209,-26.9664,Q,Q
2023-03-15 14:35:31:241,0,14.2131,-5.48057,-26.967,Q,Q
2023-03-15 14:35:31:251,0,14.2036,-5.4823,-26.9728,Q,Q
2023-03-15 14:35:31:261,0,14.1963,-5.4823,-26.9824,Q,Q
2023-03-15 14:35:31:271,0,14.1957,-5.48287,-26.9928,Q,Q
2023-03-15 14:35:31:281,0,14.1953,-5.48489,-27.0031,Q,Q
2023-03-15 14:35:31:291,0,14.198,-5.48833,-27.0177,Q,Q
2023-03-15 14:35:31:301,0,14.1994,-5.48985,-27.0289,Q,Q
2023-03-15 14:35:31:311,0,14.21,-5.48876,-27.0403,Q,Q
2023-03-15 14:35:31:321,0,14.2176,-5.48501,-27.0532,Q,Q
2023-03-15 14:35:31:331,0,14.222,-5.48256,-27.0623,Q,Q
2023-03-15 14:35:31:341,0,14.2291,-5.47566,-27.0743,Q,Q
2023-03-15 14:35:31:351,0,14.2397,-5.46729,-27.0852,Q,Q
2023-03-15 14:35:31:361,0,14.2494,-5.46173,-27.0921,Q,Q
2023-03-15 14:35:31:371,0,14.2572,-5.45888,-27.1007,Q,Q
2023-03-15 14:35:31:381,0,14.2643,-5.45887,-27.1109,Q,Q
2023-03-15 14:35:31:391,0,14.27,-5.45691,-27.1235,Q,Q
2023-03-15 14:35:31:401,0,14.2755,-5.45343,-27.138,Q,Q
2023-03-15 14:35:31:411,0,14.2784,-5.44958,-27.1546,Q,Q
2023-03-15 14:35:31:421,0,14.28,-5.44585,-27.1726,Q,Q
2023-03-15 14:35:31:431,0,14.2781,-5.4407,-27.1879,Q,Q
2023-03-15 14:35:31:441,0,14.276,-5.43446,-27.2093,Q,Q
2023-03-15 14:35:31:451,0,14.2746,-5.43048,-27.2338,Q,Q
2023-03-15 14:35:31:461,0,14.2745,-5.42773,-27.2632,Q,Q
2023-03-15 14:35:31:471,0,14.2722,-5.42382,-27.2981,Q,Q
2023-03-15 14:35:31:481,0,14.2692,-5.421,-27.3383,Q,Q
2023-03-15 14:35:31:491,0,14.2715,-5.41919,-27.3819,Q,Q
2023-03-15 14:35:31:501,0,14.2772,-5.42089,-27.4319,Q,Q
2023-03-15 14:35:31:511,0,14.2819,-5.42032,-27.4852,Q,Q
2023-03-15 14:35:31:521,0,14.2915,-5.42215,-27.5463,Q,Q
2023-03-15 14:35:31:531,0,14.3022,-5.42321,-27.6121,Q,Q
2023-03-15 14:35:31:541,0,14.3182,-5.42199,-27.6848,Q,Q
2023-03-15 14:35:31:551,0,14.3298,-5.4221,-27.7627,Q,Q
2023-03-15 14:35:31:561,0,14.3458,-5.42635,-27.8503,Q,Q
2023-03-15 14:35:31:571,0,14.3647,-5.43377,-27.9498,Q,Q
2023-03-15 14:35:31:581,0,14.3862,-5.44355,-28.0544,Q,Q
2023-03-15 14:35:31:591,0,14.412,-5.45138,-28.1698,Q,Q
2023-03-15 14:35:31:601,0,14.4372,-5.46275,-28.296,Q,Q
2023-03-15 14:35:31:611,0,14.4639,-5.4734,-28.4302,Q,Q
2023-03-15 14:35:31:621,0,14.4896,-5.48155,-28.5658,Q,Q
2023-03-15 14:35:31:631,0,14.5156,-5.4837,-28.7074,Q,Q
2023-03-15 14:35:31:641,0,14.5398,-5.49122,-28.8542,Q,Q
2023-03-15 14:35:31:651,0,14.5606,-5.49422,-29.0082,Q,Q
2023-03-15 14:35:31:661,0,14.5801,-5.48944,-29.1669,Q,Q
2023-03-15 14:35:31:671,0,14.5986,-5.47877,-29.3267,Q,Q
2023-03-15 14:35:31:681,0,14.6178,-5.47385,-29.4888,Q,Q
2023-03-15 14:35:31:691,0,14.6322,-5.46722,-29.6511,Q,Q
2023-03-15 14:35:31:701,0,14.6444,-5.46453,-29.8103,Q,Q
2023-03-15 14:35:31:711,0,14.6564,-5.45784,-29.9699,Q,Q
2023-03-15 14:35:31:721,0,14.6673,-5.45289,-30.1209,Q,Q
2023-03-15 14:35:31:731,0,14.6712,-5.44673,-30.2667,Q,Q
2023-03-15 14:35:31:741,0,14.6772,-5.44071,-30.408,Q,Q
2023-03-15 14:35:31:751,0,14.6809,-5.43612,-30.5475,Q,Q
2023-03-15 14:35:31:761,0,14.679,-5.42825,-30.6766,Q,Q
2023-03-15 14:35:31:771,0,14.6717,-5.41683,-30.7999,Q,Q
2023-03-15 14:35:31:781,0,14.6662,-5.40687,-30.9195,Q,Q
2023-03-15 14:35:31:791,0,14.6596,-5.39668,-31.0265,Q,Q
2023-03-15 14:35:31:801,0,14.6548,-5.38436,-31.1294,Q,Q
2023-03-15 14:35:31:811,0,14.65,-5.37561,-31.2258,Q,Q
2023-03-15 14:35:31:821,0,14.6478,-5.36303,-31.3184,Q,Q
2023-03-15 14:35:31:831,0,14.6429,-5.35272,-31.4003,Q,Q
2023-03-15 14:35:31:841,0,14.646,-5.34138,-31.4755,Q,Q
2023-03-15 14:35:31:851,0,14.6491,-5.32645,-31.5465,Q,Q
2023-03-15 14:35:31:861,0,14.6524,-5.31305,-31.6071,Q,Q
2023-03-15 14:35:31:871,0,14.6618,-5.29643,-31.6593,Q,Q
2023-03-15 14:35:31:881,0,14.6709,-5.27879,-31.7013,Q,Q
2023-03-15 14:35:31:891,0,14.6803,-5.26079,-31.737,Q,Q
2023-03-15 14:35:31:901,0,14.6893,-5.24005,-31.7625,Q,Q
2023-03-15 14:35:31:911,0,14.694,-5.21995,-31.7818,Q,Q
2023-03-15 14:35:31:921,0,14.6987,-5.19949,-31.7956,Q,Q
2023-03-15 14:35:31:930,0,14.7041,-5.17742,-31.8062,Q,Q
2023-03-15 14:35:31:940,0,14.7122,-5.15154,-31.8151,Q,Q
2023-03-15 14:35:31:950,0,14.7221,-5.12789,-31.8245,Q,Q
2023-03-15 14:35:31:960,0,14.7308,-5.10601,-31.8361,Q,Q
2023-03-15 14:35:31:970,0,14.7415,-5.08802,-31.8493,Q,Q
2023-03-15 14:35:31:980,0,14.7533,-5.0692,-31.8649,Q,Q
2023-03-15 14:35:31:990,0,14.7659,-5.04867,-31.8824,Q,Q
2023-03-15 14:35:32:1,0,14.777,-5.03195,-31.9033,Q,Q
2023-03-15 14:35:32:11,0,14.7933,-5.01727,-31.9272,Q,Q
2023-03-15 14:35:32:21,0,14.809,-4.99851,-31.9488,Q,Q
2023-03-15 14:35:32:31,0,14.8314,-4.98193,-31.9707,Q,Q
2023-03-15 14:35:32:41,0,14.8554,-4.97222,-31.9933,Q,Q
2023-03-15 14:35:32:51,0,14.8767,-4.96255,-32.0157,Q,Q
2023-03-15 14:35:32:61,0,14.8969,-4.95281,-32.0373,Q,Q
2023-03-15 14:35:32:71,0,14.9133,-4.94363,-32.0574,Q,Q
2023-03-15 14:35:32:81,0,14.9305,-4.93535,-32.074,Q,Q
2023-03-15 14:35:32:91,0,14.9436,-4.92389,-32.0872,Q,Q
2023-03-15 14:35:32:101,0,14.9514,-4.9141,-32.0981,Q,Q
2023-03-15 14:35:32:111,0,14.9556,-4.90217,-32.11,Q,Q
2023-03-15 14:35:32:121,0,14.958,-4.89277,-32.119,Q,Q
2023-03-15 14:35:32:131,0,14.9567,-4.88065,-32.1274,Q,Q
2023-03-15 14:35:32:141,0,14.9531,-4.86654,-32.1375,Q,Q
2023-03-15 14:35:32:151,0,14.9522,-4.85267,-32.1491,Q,Q
2023-03-15 14:35:32:161,0,14.9494,-4.83734,-32.1572,Q,Q
2023-03-15 14:35:32:171,0,14.9464,-4.82457,-32.1651,Q,Q
2023-03-15 14:35:32:181,0,14.9462,-4.81361,-32.1745,Q,Q
2023-03-15 14:35:32:191,0,14.9498,-4.80381,-32.1842,Q,Q
2023-03-15 14:35:32:201,0,14.9576,-4.79332,-32.1947,Q,Q
2023-03-15 14:35:32:211,0,14.9614,-4.78316,-32.2032,Q,Q
2023-03-15 14:35:32:221,0,14.9588,-4.77132,-32.2138,Q,Q
2023-03-15 14:35:32:231,0,14.9573,-4.7568,-32.2229,Q,Q
2023-03-15 14:35:32:241,0,14.9546,-4.74223,-32.2301,Q,Q
2023-03-15 14:35:32:251,0,14.9502,-4.73465,-32.2341,Q,Q
2023-03-15 14:35:32:261,0,14.9436,-4.72596,-32.2365,Q,Q
2023-03-15 14:35:32:271,0,14.9398,-4.71806,-32.2398,Q,Q
2023-03-15 14:35:32:281,0,14.9426,-4.71131,-32.2435,Q,Q
2023-03-15 14:35:32:291,0,14.9404,-4.70542,-32.2475,Q,Q
2023-03-15 14:35:32:301,0,14.947,-4.70153,-32.2503,Q,Q
2023-03-15 14:35:32:311,0,14.9576,-4.70385,-32.2515,Q,Q
2023-03-15 14:35:32:321,0,14.9665,-4.70748,-32.2521,Q,Q
2023-03-15 14:35:32:331,0,14.9746,-4.71,-32.2509,Q,Q
2023-03-15 14:35:32:341,0,14.9832,-4.71499,-32.2481,Q,Q
2023-03-15 14:35:32:351,0,14.989,-4.71708,-32.2453,Q,Q
2023-03-15 14:35:32:361,0,14.9982,-4.71982,-32.2442,Q,Q
2023-03-15 14:35:32:371,0,15.0053,-4.71753,-32.2401,Q,Q
2023-03-15 14:35:32:381,0,15.019,-4.71538,-32.237,Q,Q
2023-03-15 14:35:32:391,0,15.0309,-4.71218,-32.2336,Q,Q
2023-03-15 14:35:32:401,0,15.0466,-4.71559,-32.2291,Q,Q
2023-03-15 14:35:32:411,0,15.0624,-4.7123,-32.2248,Q,Q
2023-03-15 14:35:32:421,0,15.0807,-4.71359,-32.2182,Q,Q
2023-03-15 14:35:32:431,0,15.1043,-4.71352,-32.2104,Q,Q
2023-03-15 14:35:32:441,0,15.132,-4.71355,-32.2087,Q,Q
2023-03-15 14:35:32:451,0,15.1624,-4.71598,-32.2036,Q,Q
2023-03-15 14:35:32:461,0,15.1895,-4.7204,-32.1962,Q,Q
2023-03-15 14:35:32:471,0,15.2204,-4.72366,-32.1929,Q,Q
2023-03-15 14:35:32:481,0,15.2539,-4.72924,-32.1831,Q,Q
2023-03-15 14:35:32:491,0,15.2839,-4.73691,-32.1726,Q,Q
2023-03-15 14:35:32:501,0,15.3131,-4.74297,-32.161,Q,Q
2023-03-15 14:35:32:511,0,15.3406,-4.74856,-32.1468,Q,Q
2023-03-15 14:35:32:521,0,15.3631,-4.75742,-32.1326,Q,Q
2023-03-15 14:35:32:531,0,15.3873,-4.76721,-32.1166,Q,Q
2023-03-15 14:35:32:541,0,15.4051,-4.77288,-32.1018,Q,Q
2023-03-15 14:35:32:551,0,15.419,-4.78218,-32.0881,Q,Q
2023-03-15 14:35:32:561,0,15.4307,-4.7891,-32.0747,Q,Q
2023-03-15 14:35:32:571,0,15.4362,-4.79847,-32.0647,Q,Q
2023-03-15 14:35:32:581,0,15.4382,-4.80858,-32.0544,Q,Q
2023-03-15 14:35:32:591,0,15.4385,-4.81904,-32.0479,Q,Q
2023-03-15 14:35:32:601,0,15.4388,-4.82698,-32.0386,Q,Q
2023-03-15 14:35:32:611,0,15.4337,-4.83452,-32.0338,Q,Q
2023-03-15 14:35:32:621,0,15.4273,-4.84019,-32.0318,Q,Q
2023-03-15 14:35:32:631,0,15.4129,-4.85002,-32.0329,Q,Q
2023-03-15 14:35:32:641,0,15.3908,-4.86143,-32.0338,Q,Q
2023-03-15 14:35:32:651,0,15.373,-4.8712,-32.0359,Q,Q
2023-03-15 14:35:32:661,0,15.3565,-4.88414,-32.0403,Q,Q
2023-03-15 14:35:32:671,0,15.3443,-4.89798,-32.045,Q,Q
2023-03-15 14:35:32:681,0,15.3353,-4.9085,-32.0517,Q,Q
2023-03-15 14:35:32:691,0,15.3303,-4.92154,-32.0651,Q,Q
2023-03-15 14:35:32:701,0,15.3252,-4.93337,-32.0778,Q,Q
2023-03-15 14:35:32:711,0,15.318,-4.94401,-32.0888,Q,Q
2023-03-15 14:35:32:721,0,15.3079,-4.95395,-32.1035,Q,Q
2023-03-15 14:35:32:731,0,15.3028,-4.95969,-32.1166,Q,Q
2023-03-15 14:35:32:741,0,15.2973,-4.96777,-32.1285,Q,Q
2023-03-15 14:35:32:751,0,15.2911,-4.98214,-32.1374,Q,Q
2023-03-15 14:35:32:761,0,15.2815,-4.99706,-32.1499,Q,Q
2023-03-15 14:35:32:771,0,15.2718,-5.01002,-32.1604,Q,Q
2023-03-15 14:35:32:781,0,15.2649,-5.01918,-32.1752,Q,Q
2023-03-15 14:35:32:791,0,15.2609,-5.02827,-32.1893,Q,Q
2023-03-15 14:35:32:801,0,15.2603,-5.03294,-32.199,Q,Q
2023-03-15 14:35:32:811,0,15.2725,-5.0342,-32.2025,Q,Q
2023-03-15 14:35:32:821,0,15.2882,-5.02443,-32.2034,Q,Q
2023-03-15 14:35:32:831,0,15.2985,-5.01171,-32.1929,Q,Q
2023-03-15 14:35:32:841,0,15.3018,-4.99872,-32.1765,Q,Q
2023-03-15 14:35:32:851,0,15.2934,-4.99086,-32.1575,Q,Q
2023-03-15 14:35:32:861,0,15.2757,-4.98684,-32.1368,Q,Q
2023-03-15 14:35:32:871,0,15.2509,-4.98911,-32.1178,Q,Q
2023-03-15 14:35:32:881,0,15.2217,-4.99445,-32.1008,Q,Q
2023-03-15 14:35:32:891,0,15.189,-4.99793,-32.0904,Q,Q
2023-03-15 14:35:32:901,0,15.1624,-4.99814,-32.0882,Q,Q
2023-03-15 14:35:32:911,0,15.1425,-4.99493,-32.0883,Q,Q
2023-03-15 14:35:32:921,0,15.128,-4.99301,-32.0868,Q,Q
2023-03-15 14:35:32:931,0,15.1134,-4.9886,-32.0878,Q,Q
2023-03-15 14:35:32:941,0,15.1009,-4.9894,-32.0926,Q,Q
2023-03-15 14:35:32:951,0,15.0917,-4.98839,-32.096,Q,Q
2023-03-15 14:35:32:961,0,15.0884,-4.98367,-32.0964,Q,Q
2023-03-15 14:35:32:971,0,15.0811,-4.98167,-32.0903,Q,Q
2023-03-15 14:35:32:981,0,15.0768,-4.98422,-32.0794,Q,Q
2023-03-15 14:35:32:991,0,15.0748,-4.98658,-32.0698,Q,Q
2023-03-15 14:35:33:1,0,15.082,-4.99139,-32.063,Q,Q
2023-03-15 14:35:33:11,0,15.089,-4.99459,-32.0559,Q,Q
2023-03-15 14:35:33:21,0,15.0964,-5.00016,-32.0548,Q,Q
2023-03-15 14:35:33:31,0,15.0998,-5.01028,-32.0562,Q,Q
2023-03-15 14:35:33:41,0,15.1036,-5.01476,-32.0612,Q,Q
2023-03-15 14:35:33:51,0,15.1054,-5.01984,-32.0685,Q,Q
2023-03-15 14:35:33:61,0,15.1031,-5.02784,-32.0809,Q,Q
2023-03-15 14:35:33:71,0,15.0963,-5.03451,-32.0946,Q,Q
2023-03-15 14:35:33:81,0,15.0875,-5.03636,-32.1112,Q,Q
2023-03-15 14:35:33:91,0,15.0778,-5.04072,-32.1283,Q,Q
2023-03-15 14:35:33:101,0,15.0742,-5.04539,-32.1489,Q,Q
2023-03-15 14:35:33:111,0,15.0732,-5.04717,-32.1715,Q,Q
2023-03-15 14:35:33:121,0,15.0778,-5.04891,-32.1895,Q,Q
2023-03-15 14:35:33:131,0,15.0816,-5.04796,-32.2073,Q,Q
2023-03-15 14:35:33:141,0,15.087,-5.04841,-32.2251,Q,Q
2023-03-15 14:35:33:151,0,15.0916,-5.04423,-32.2425,Q,Q
2023-03-15 14:35:33:161,0,15.0947,-5.04198,-32.2552,Q,Q
2023-03-15 14:35:33:171,0,15.0933,-5.04375,-32.2693,Q,Q
2023-03-15 14:35:33:181,0,15.0868,-5.04397,-32.2859,Q,Q
2023-03-15 14:35:33:191,0,15.0803,-5.04498,-32.3009,Q,Q
2023-03-15 14:35:33:201,0,15.0766,-5.0488,-32.3168,Q,Q
2023-03-15 14:35:33:211,0,15.0698,-5.05045,-32.3342,Q,Q
2023-03-15 14:35:33:221,0,15.064,-5.0555,-32.3531,Q,Q
2023-03-15 14:35:33:231,0,15.0609,-5.06034,-32.375,Q,Q
2023-03-15 14:35:33:241,0,15.0618,-5.06549,-32.3982,Q,Q
2023-03-15 14:35:33:251,0,15.0642,-5.07315,-32.4182,Q,Q
2023-03-15 14:35:33:261,0,15.0718,-5.08327,-32.4355,Q,Q
2023-03-15 14:35:33:271,0,15.0784,-5.08643,-32.451,Q,Q
2023-03-15 14:35:33:281,0,15.0864,-5.08967,-32.4645,Q,Q
2023-03-15 14:35:33:291,0,15.0916,-5.08901,-32.4729,Q,Q
2023-03-15 14:35:33:301,0,15.0891,-5.08648,-32.4799,Q,Q
2023-03-15 14:35:33:311,0,15.0854,-5.08448,-32.4777,Q,Q
2023-03-15 14:35:33:321,0,15.0781,-5.07484,-32.4738,Q,Q
2023-03-15 14:35:33:331,0,15.0663,-5.06693,-32.463,Q,Q
2023-03-15 14:35:33:341,0,15.0542,-5.06095,-32.4548,Q,Q
2023-03-15 14:35:33:351,0,15.0356,-5.05792,-32.4486,Q,Q
2023-03-15 14:35:33:361,0,15.0171,-5.05827,-32.4437,Q,Q
2023-03-15 14:35:33:371,0,14.9978,-5.05829,-32.4394,Q,Q
2023-03-15 14:35:33:381,0,14.9803,-5.05861,-32.4425,Q,Q
2023-03-15 14:35:33:391,0,14.972,-5.06679,-32.4433,Q,Q
2023-03-15 14:35:33:401,0,14.9642,-5.07169,-32.4449,Q,Q
2023-03-15 14:35:33:411,0,14.9587,-5.07594,-32.4446,Q,Q
2023-03-15 14:35:33:421,0,14.9556,-5.08071,-32.4508,Q,Q
2023-03-15 14:35:33:431,0,14.9524,-5.08461,-32.454,Q,Q
2023-03-15 14:35:33:441,0,14.9462,-5.08732,-32.4573,Q,Q
2023-03-15 14:35:33:451,0,14.9399,-5.08463,-32.4582,Q,Q
2023-03-15 14:35:33:461,0,14.9317,-5.0835,-32.4575,Q,Q
2023-03-15 14:35:33:471,0,14.927,-5.07654,-32.4602,Q,Q
2023-03-15 14:35:33:481,0,14.9187,-5.07053,-32.463,Q,Q
2023-03-15 14:35:33:491,0,14.9166,-5.0628,-32.4628,Q,Q
2023-03-15 14:35:33:501,0,14.9144,-5.05259,-32.4642,Q,Q
2023-03-15 14:35:33:511,0,14.9133,-5.0374,-32.4692,Q,Q
2023-03-15 14:35:33:521,0,14.9117,-5.02463,-32.4741,Q,Q
2023-03-15 14:35:33:531,0,14.9109,-5.01199,-32.4825,Q,Q
2023-03-15 14:35:33:541,0,14.9028,-4.99891,-32.4956,Q,Q
2023-03-15 14:35:33:551,0,14.8986,-4.98563,-32.5102,Q,Q
2023-03-15 14:35:33:561,0,14.8941,-4.97268,-32.5271,Q,Q
2023-03-15 14:35:33:571,0,14.8885,-4.95912,-32.5469,Q,Q
2023-03-15 14:35:33:581,0,14.8851,-4.94657,-32.564,Q,Q
2023-03-15 14:35:33:591,0,14.8815,-4.93359,-32.5757,Q,Q
2023-03-15 14:35:33:601,0,14.8815,-4.92138,-32.5843,Q,Q
2023-03-15 14:35:33:611,0,14.8783,-4.91717,-32.5911,Q,Q
2023-03-15 14:35:33:621,0,14.8712,-4.91378,-32.6061,Q,Q
2023-03-15 14:35:33:631,0,14.8671,-4.91357,-32.6191,Q,Q
2023-03-15 14:35:33:641,0,14.8582,-4.91287,-32.6371,Q,Q
2023-03-15 14:35:33:651,0,14.8498,-4.91721,-32.6522,Q,Q
2023-03-15 14:35:33:661,0,14.8414,-4.9228,-32.6676,Q,Q
2023-03-15 14:35:33:671,0,14.8397,-4.929,-32.6854,Q,Q
2023-03-15 14:35:33:681,0,14.8347,-4.93909,-32.6997,Q,Q
2023-03-15 14:35:33:691,0,14.8325,-4.94571,-32.7129,Q,Q
2023-03-15 14:35:33:701,0,14.8312,-4.95035,-32.7228,Q,Q
2023-03-15 14:35:33:711,0,14.8298,-4.95372,-32.735,Q,Q
2023-03-15 14:35:33:721,0,14.8247,-4.95688,-32.7474,Q,Q
2023-03-15 14:35:33:731,0,14.82,-4.95479,-32.7656,Q,Q
2023-03-15 14:35:33:741,0,14.8197,-4.95595,-32.7866,Q,Q
2023-03-15 14:35:33:751,0,14.8237,-4.95104,-32.8078,Q,Q
2023-03-15 14:35:33:761,0,14.8312,-4.9479,-32.8263,Q,Q
2023-03-15 14:35:33:771,0,14.8476,-4.9499,-32.8562,Q,Q
2023-03-15 14:35:33:781,0,14.8728,-4.94966,-32.8843,Q,Q
2023-03-15 14:35:33:791,0,14.9075,-4.9473,-32.9179,Q,Q
2023-03-15 14:35:33:801,0,14.9405,-4.93583,-32.9539,Q,Q
2023-03-15 14:35:33:811,0,14.9646,-4.92937,-32.9858,Q,Q
2023-03-15 14:35:33:821,0,14.9871,-4.92494,-33.0194,Q,Q
2023-03-15 14:35:33:831,0,15.0049,-4.92337,-33.0503,Q,Q
2023-03-15 14:35:33:841,0,15.0144,-4.92753,-33.0698,Q,Q
2023-03-15 14:35:33:851,0,15.0222,-4.92763,-33.0892,Q,Q
2023-03-15 14:35:33:861,0,15.0301,-4.92561,-33.0942,Q,Q
2023-03-15 14:35:33:871,0,15.0298,-4.92009,-33.0932,Q,Q
2023-03-15 14:35:33:881,0,15.0271,-4.91466,-33.0903,Q,Q
2023-03-15 14:35:33:891,0,15.0197,-4.90702,-33.0879,Q,Q
2023-03-15 14:35:33:901,0,15.0136,-4.90226,-33.0843,Q,Q
2023-03-15 14:35:33:911,0,15.0106,-4.90261,-33.0803,Q,Q
2023-03-15 14:35:33:921,0,15.0022,-4.90944,-33.077,Q,Q
2023-03-15 14:35:33:931,0,14.9953,-4.91617,-33.075,Q,Q
2023-03-15 14:35:33:941,0,14.9888,-4.92421,-33.0742,Q,Q
2023-03-15 14:35:33:951,0,14.9793,-4.9355,-33.0687,Q,Q
2023-03-15 14:35:33:961,0,14.9721,-4.93876,-33.0678,Q,Q
2023-03-15 14:35:33:971,0,14.9605,-4.94384,-33.0649,Q,Q
2023-03-15 14:35:33:981,0,14.946,-4.94243,-33.0631,Q,Q
2023-03-15 14:35:33:991,0,14.932,-4.94042,-33.0581,Q,Q
2023-03-15 14:35:34:1,0,14.9149,-4.93111,-33.056,Q,Q
2023-03-15 14:35:34:11,0,14.8974,-4.92121,-33.0508,Q,Q
2023-03-15 14:35:34:21,0,14.882,-4.90962,-33.0464,Q,Q
2023-03-15 14:35:34:31,0,14.8684,-4.89347,-33.025,Q,Q
2023-03-15 14:35:34:41,0,14.8586,-4.87643,-32.9971,Q,Q
2023-03-15 14:35:34:51,0,14.8426,-4.85462,-32.9597,Q,Q
2023-03-15 14:35:34:61,0,14.8255,-4.83566,-32.9217,Q,Q
2023-03-15 14:35:34:71,0,14.8047,-4.82049,-32.8848,Q,Q
2023-03-15 14:35:34:81,0,14.7814,-4.80921,-32.8565,Q,Q
2023-03-15 14:35:34:91,0,14.7548,-4.80134,-32.8394,Q,Q
2023-03-15 14:35:34:101,0,14.7287,-4.79993,-32.8315,Q,Q
2023-03-15 14:35:34:111,0,14.7022,-4.79764,-32.83,Q,Q
2023-03-15 14:35:34:121,0,14.6756,-4.80137,-32.8319,Q,Q
2023-03-15 14:35:34:131,0,14.6552,-4.80687,-32.8331,Q,Q
2023-03-15 14:35:34:141,0,14.6378,-4.81251,-32.8351,Q,Q
2023-03-15 14:35:34:151,0,14.6177,-4.81535,-32.8403,Q,Q
2023-03-15 14:35:34:161,0,14.6025,-4.81673,-32.844,Q,Q
2023-03-15 14:35:34:171,0,14.5839,-4.81856,-32.8543,Q,Q
2023-03-15 14:35:34:181,0,14.5622,-4.82507,-32.8647,Q,Q
2023-03-15 14:35:34:191,0,14.5435,-4.83769,-32.8784,Q,Q
2023-03-15 14:35:34:201,0,14.5254,-4.857,-32.8951,Q,Q
2023-03-15 14:35:34:211,0,14.5116,-4.87996,-32.9208,Q,Q
2023-03-15 14:35:34:221,0,14.5061,-4.90431,-32.9541,Q,Q
2023-03-15 14:35:34:231,0,14.5005,-4.92919,-32.9937,Q,Q
2023-03-15 14:35:34:241,0,14.4953,-4.94772,-33.0404,Q,Q
2023-03-15 14:35:34:251,0,14.4897,-4.96131,-33.0888,Q,Q
2023-03-15 14:35:34:261,0,14.4804,-4.96546,-33.1393,Q,Q
2023-03-15 14:35:34:271,0,14.4652,-4.96233,-33.1866,Q,Q
2023-03-15 14:35:34:281,0,14.4456,-4.9513,-33.2348,Q,Q
2023-03-15 14:35:34:291,0,14.4271,-4.94103,-33.2821,Q,Q
2023-03-15 14:35:34:301,0,14.4162,-4.92826,-33.3261,Q,Q
2023-03-15 14:35:34:311,0,14.4108,-4.91232,-33.3637,Q,Q
2023-03-15 14:35:34:321,0,14.413,-4.89431,-33.3907,Q,Q
2023-03-15 14:35:34:331,0,14.4165,-4.87537,-33.4175,Q,Q
2023-03-15 14:35:34:341,0,14.4221,-4.85606,-33.4389,Q,Q
2023-03-15 14:35:34:351,0,14.4297,-4.84158,-33.4548,Q,Q
2023-03-15 14:35:34:361,0,14.4382,-4.83041,-33.4695,Q,Q
2023-03-15 14:35:34:371,0,14.4393,-4.82838,-33.4887,Q,Q
2023-03-15 14:35:34:381,0,14.4385,-4.82552,-33.5065,Q,Q
2023-03-15 14:35:34:391,0,14.4386,-4.82361,-33.5242,Q,Q
2023-03-15 14:35:34:401,0,14.4388,-4.8279,-33.5336,Q,Q
2023-03-15 14:35:34:411,0,14.4446,-4.82513,-33.5409,Q,Q
2023-03-15 14:35:34:421,0,14.4495,-4.8209,-33.5487,Q,Q
2023-03-15 14:35:34:431,0,14.4538,-4.81902,-33.5523,Q,Q
2023-03-15 14:35:34:441,0,14.4629,-4.81505,-33.5516,Q,Q
2023-03-15 14:35:34:451,0,14.4719,-4.80855,-33.5535,Q,Q
2023-03-15 14:35:34:461,0,14.4822,-4.80482,-33.5581,Q,Q
2023-03-15 14:35:34:471,0,14.4886,-4.80427,-33.5637,Q,Q
2023-03-15 14:35:34:481,0,14.487,-4.80945,-33.5618,Q,Q
2023-03-15 14:35:34:491,0,14.4856,-4.81776,-33.5509,Q,Q
2023-03-15 14:35:34:501,0,14.4939,-4.82956,-33.5367,Q,Q
2023-03-15 14:35:34:511,0,14.5054,-4.84602,-33.5136,Q,Q
2023-03-15 14:35:34:521,0,14.5202,-4.86831,-33.4896,Q,Q
2023-03-15 14:35:34:531,0,14.5414,-4.89095,-33.4667,Q,Q
2023-03-15 14:35:34:541,0,14.5574,-4.91414,-33.4454,Q,Q
2023-03-15 14:35:34:551,0,14.571,-4.9367,-33.4263,Q,Q
2023-03-15 14:35:34:561,0,14.5838,-4.95839,-33.4115,Q,Q
2023-03-15 14:35:34:571,0,14.5933,-4.97764,-33.3956,Q,Q
2023-03-15 14:35:34:581,0,14.5981,-4.99668,-33.3808,Q,Q
2023-03-15 14:35:34:591,0,14.6044,-5.01468,-33.3718,Q,Q
2023-03-15 14:35:34:601,0,14.6097,-5.0252,-33.3603,Q,Q
2023-03-15 14:35:34:611,0,14.6131,-5.02694,-33.352,Q,Q
2023-03-15 14:35:34:621,0,14.6185,-5.02423,-33.3473,Q,Q
2023-03-15 14:35:34:631,0,14.6276,-5.01581,-33.3386,Q,Q
2023-03-15 14:35:34:641,0,14.6373,-5.00131,-33.3375,Q,Q
2023-03-15 14:35:34:651,0,14.6384,-4.98518,-33.3341,Q,Q
2023-03-15 14:35:34:661,0,14.6376,-4.97002,-33.3315,Q,Q
2023-03-15 14:35:34:671,0,14.6312,-4.95141,-33.3265,Q,Q
2023-03-15 14:35:34:681,0,14.6219,-4.93204,-33.3241,Q,Q
2023-03-15 14:35:34:691,0,14.6122,-4.91257,-33.3218,Q,Q
2023-03-15 14:35:34:701,0,14.603,-4.89479,-33.3176,Q,Q
2023-03-15 14:35:34:711,0,14.592,-4.88313,-33.3114,Q,Q
2023-03-15 14:35:34:721,0,14.5884,-4.86889,-33.3085,Q,Q
2023-03-15 14:35:34:731,0,14.5826,-4.85732,-33.3069,Q,Q
2023-03-15 14:35:34:741,0,14.581,-4.84584,-33.3074,Q,Q
2023-03-15 14:35:34:751,0,14.5825,-4.83825,-33.3153,Q,Q
2023-03-15 14:35:34:761,0,14.5845,-4.83176,-33.3236,Q,Q
2023-03-15 14:35:34:771,0,14.5838,-4.8288,-33.3342,Q,Q
2023-03-15 14:35:34:781,0,14.5837,-4.82787,-33.348,Q,Q
2023-03-15 14:35:34:791,0,14.578,-4.82927,-33.3595,Q,Q
2023-03-15 14:35:34:801,0,14.5729,-4.82689,-33.3741,Q,Q
2023-03-15 14:35:34:811,0,14.5657,-4.82616,-33.3881,Q,Q
2023-03-15 14:35:34:821,0,14.5603,-4.82342,-33.4004,Q,Q
2023-03-15 14:35:34:831,0,14.5556,-4.81943,-33.4144,Q,Q
2023-03-15 14:35:34:841,0,14.5538,-4.81973,-33.4215,Q,Q
2023-03-15 14:35:34:851,0,14.5535,-4.81762,-33.4295,Q,Q
2023-03-15 14:35:34:861,0,14.5493,-4.82129,-33.4273,Q,Q
2023-03-15 14:35:34:871,0,14.542,-4.82741,-33.4219,Q,Q
2023-03-15 14:35:34:881,0,14.5317,-4.83289,-33.4211,Q,Q
2023-03-15 14:35:34:891,0,14.5161,-4.837,-33.418,Q,Q
2023-03-15 14:35:34:901,0,14.502,-4.83998,-33.4174,Q,Q
2023-03-15 14:35:34:911,0,14.4867,-4.84115,-33.4138,Q,Q
2023-03-15 14:35:34:921,0,14.4701,-4.84556,-33.4102,Q,Q
2023-03-15 14:35:34:931,0,14.4556,-4.85445,-33.4096,Q,Q
2023-03-15 14:35:34:941,0,14.4414,-4.85689,-33.4092,Q,Q
2023-03-15 14:35:34:951,0,14.4312,-4.86592,-33.4128,Q,Q
2023-03-15 14:35:34:961,0,14.4181,-4.87252,-33.4204,Q,Q
2023-03-15 14:35:34:971,0,14.4039,-4.8825,-33.4316,Q,Q
2023-03-15 14:35:34:981,0,14.3872,-4.8878,-33.4458,Q,Q
2023-03-15 14:35:34:991,0,14.3684,-4.89467,-33.4621,Q,Q
2023-03-15 14:35:35:1,0,14.3545,-4.8999,-33.4759,Q,Q
2023-03-15 14:35:35:11,0,14.3417,-4.90167,-33.491,Q,Q
2023-03-15 14:35:35:21,0,14.3296,-4.90108,-33.5089,Q,Q
2023-03-15 14:35:35:31,0,14.3239,-4.89703,-33.523,Q,Q
2023-03-15 14:35:35:41,0,14.3235,-4.89839,-33.5367,Q,Q
2023-03-15 14:35:35:51,0,14.3285,-4.8955,-33.545,Q,Q
2023-03-15 14:35:35:61,0,14.333,-4.89065,-33.5529,Q,Q
2023-03-15 14:35:35:71,0,14.3374,-4.88714,-33.566,Q,Q
2023-03-15 14:35:35:81,0,14.3348,-4.88259,-33.5805,Q,Q
2023-03-15 14:35:35:91,0,14.331,-4.88059,-33.595,Q,Q
2023-03-15 14:35:35:101,0,14.3309,-4.87935,-33.6078,Q,Q
2023-03-15 14:35:35:111,0,14.3309,-4.88089,-33.6194,Q,Q
2023-03-15 14:35:35:121,0,14.3294,-4.88677,-33.6277,Q,Q
2023-03-15 14:35:35:131,0,14.3316,-4.89447,-33.6353,Q,Q
2023-03-15 14:35:35:141,0,14.3311,-4.9034,-33.6451,Q,Q
2023-03-15 14:35:35:151,0,14.3285,-4.91059,-33.6563,Q,Q
2023-03-15 14:35:35:161,0,14.3205,-4.916,-33.668,Q,Q
2023-03-15 14:35:35:171,0,14.3116,-4.91865,-33.6789,Q,Q
2023-03-15 14:35:35:181,0,14.3067,-4.91761,-33.6909,Q,Q
2023-03-15 14:35:35:191,0,14.2992,-4.91581,-33.7065,Q,Q
2023-03-15 14:35:35:201,0,14.289,-4.91273,-33.7242,Q,Q
2023-03-15 14:35:35:211,0,14.2805,-4.90585,-33.7407,Q,Q
2023-03-15 14:35:35:221,0,14.2733,-4.90276,-33.7595,Q,Q
2023-03-15 14:35:35:231,0,14.2631,-4.90101,-33.7776,Q,Q
2023-03-15 14:35:35:241,0,14.2505,-4.89614,-33.7992,Q,Q
2023-03-15 14:35:35:251,0,14.2417,-4.89379,-33.8199,Q,Q
2023-03-15 14:35:35:261,0,14.2307,-4.8922,-33.8346,Q,Q
2023-03-15 14:35:35:271,0,14.2234,-4.89206,-33.8457,Q,Q
2023-03-15 14:35:35:281,0,14.2201,-4.88917,-33.8579,Q,Q
2023-03-15 14:35:35:291,0,14.2207,-4.8877,-33.8618,Q,Q
2023-03-15 14:35:35:301,0,14.2258,-4.88443,-33.8623,Q,Q
2023-03-15 14:35:35:311,0,14.2299,-4.879,-33.8556,Q,Q
2023-03-15 14:35:35:321,0,14.2316,-4.8733,-33.8419,Q,Q
2023-03-15 14:35:35:331,0,14.2369,-4.86766,-33.8265,Q,Q
2023-03-15 14:35:35:341,0,14.2402,-4.85855,-33.8114,Q,Q
2023-03-15 14:35:35:351,0,14.2488,-4.85182,-33.7919,Q,Q
2023-03-15 14:35:35:361,0,14.255,-4.84188,-33.777,Q,Q
2023-03-15 14:35:35:371,0,14.2632,-4.83802,-33.7598,Q,Q
2023-03-15 14:35:35:381,0,14.272,-4.83702,-33.7459,Q,Q
2023-03-15 14:35:35:391,0,14.2813,-4.836,-33.7346,Q,Q
2023-03-15 14:35:35:401,0,14.2896,-4.83448,-33.7266,Q,Q
2023-03-15 14:35:35:411,0,14.2916,-4.83375,-33.7194,Q,Q
2023-03-15 14:35:35:421,0,14.2939,-4.83233,-33.7168,Q,Q
2023-03-15 14:35:35:431,0,14.2981,-4.8348,-33.7145,Q,Q
2023-03-15 14:35:35:441,0,14.3023,-4.83927,-33.7154,Q,Q
2023-03-15 14:35:35:451,0,14.3037,-4.83953,-33.7161,Q,Q
2023-03-15 14:35:35:461,0,14.3012,-4.83901,-33.7185,Q,Q
2023-03-15 14:35:35:471,0,14.2962,-4.84039,-33.7235,Q,Q
2023-03-15 14:35:35:481,0,14.2948,-4.84195,-33.7284,Q,Q
2023-03-15 14:35:35:491,0,14.2929,-4.84075,-33.7327,Q,Q
2023-03-15 14:35:35:501,0,14.2918,-4.84089,-33.7371,Q,Q
2023-03-15 14:35:35:511,0,14.2953,-4.83876,-33.7406,Q,Q
2023-03-15 14:35:35:521,0,14.296,-4.83737,-33.7415,Q,Q
2023-03-15 14:35:35:531,0,14.2973,-4.83989,-33.7474,Q,Q
2023-03-15 14:35:35:541,0,14.2974,-4.83931,-33.7525,Q,Q
2023-03-15 14:35:35:551,0,14.3033,-4.83982,-33.7566,Q,Q
2023-03-15 14:35:35:561,0,14.3058,-4.83895,-33.7606,Q,Q
2023-03-15 14:35:35:571,0,14.3067,-4.83506,-33.7682,Q,Q
2023-03-15 14:35:35:581,0,14.309,-4.83233,-33.7743,Q,Q
2023-03-15 14:35:35:591,0,14.3121,-4.8279,-33.7817,Q,Q
2023-03-15 14:35:35:601,0,14.3106,-4.82475,-33.7897,Q,Q
2023-03-15 14:35:35:611,0,14.3072,-4.82123,-33.8007,Q,Q
2023-03-15 14:35:35:621,0,14.3021,-4.81875,-33.8103,Q,Q
2023-03-15 14:35:35:631,0,14.2985,-4.81554,-33.8193,Q,Q
2023-03-15 14:35:35:641,0,14.2974,-4.81151,-33.827,Q,Q
2023-03-15 14:35:35:651,0,14.297,-4.81239,-33.8338,Q,Q
2023-03-15 14:35:35:661,0,14.2961,-4.80958,-33.8409,Q,Q
2023-03-15 14:35:35:671,0,14.2978,-4.80767,-33.8449,Q,Q
2023-03-15 14:35:35:681,0,14.3014,-4.80268,-33.8464,Q,Q
2023-03-15 14:35:35:691,0,14.3002,-4.79632,-33.8461,Q,Q
2023-03-15 14:35:35:701,0,14.2949,-4.79574,-33.8462,Q,Q
2023-03-15 14:35:35:711,0,14.2868,-4.79016,-33.8474,Q,Q
2023-03-15 14:35:35:721,0,14.276,-4.78594,-33.8529,Q,Q
2023-03-15 14:35:35:731,0,14.2647,-4.7791,-33.8575,Q,Q
2023-03-15 14:35:35:741,0,14.2419,-4.76818,-33.857,Q,Q
2023-03-15 14:35:35:751,0,14.2202,-4.75599,-33.8495,Q,Q
2023-03-15 14:35:35:761,0,14.1952,-4.74679,-33.8441,Q,Q
2023-03-15 14:35:35:771,0,14.1701,-4.73414,-33.835,Q,Q
2023-03-15 14:35:35:781,0,14.1486,-4.72228,-33.8163,Q,Q
2023-03-15 14:35:35:791,0,14.117,-4.71401,-33.7915,Q,Q
2023-03-15 14:35:35:801,0,14.0842,-4.70985,-33.7661,Q,Q
2023-03-15 14:35:35:811,0,14.0493,-4.70328,-33.739,Q,Q
2023-03-15 14:35:35:821,0,14.0155,-4.69872,-33.7157,Q,Q
2023-03-15 14:35:35:831,0,13.9832,-4.68783,-33.6957,Q,Q
2023-03-15 14:35:35:841,0,13.963,-4.67872,-33.6746,Q,Q
2023-03-15 14:35:35:851,0,13.9499,-4.6699,-33.6553,Q,Q
2023-03-15 14:35:35:861,0,13.9415,-4.66153,-33.6332,Q,Q
2023-03-15 14:35:35:871,0,13.9439,-4.65123,-33.6156,Q,Q
2023-03-15 14:35:35:881,0,13.948,-4.63934,-33.6016,Q,Q
2023-03-15 14:35:35:891,0,13.9543,-4.6273,-33.5905,Q,Q
2023-03-15 14:35:35:901,0,13.9648,-4.62158,-33.5847,Q,Q
2023-03-15 14:35:35:911,0,13.9738,-4.61462,-33.5831,Q,Q
2023-03-15 14:35:35:921,0,13.9782,-4.61016,-33.5893,Q,Q
2023-03-15 14:35:35:931,0,13.98,-4.61154,-33.6036,Q,Q
2023-03-15 14:35:35:941,0,13.9859,-4.61578,-33.6187,Q,Q
2023-03-15 14:35:35:951,0,13.9944,-4.61942,-33.6388,Q,Q
2023-03-15 14:35:35:961,0,14.0019,-4.6229,-33.6621,Q,Q
2023-03-15 14:35:35:971,0,14.0127,-4.62652,-33.6858,Q,Q
2023-03-15 14:35:35:981,0,14.0182,-4.62847,-33.7055,Q,Q
2023-03-15 14:35:35:991,0,14.0227,-4.63347,-33.7243,Q,Q
2023-03-15 14:35:36:1,0,14.0229,-4.63668,-33.7428,Q,Q
2023-03-15 14:35:36:11,0,14.0212,-4.63666,-33.7617,Q,Q
2023-03-15 14:35:36:21,0,14.0107,-4.63959,-33.7817,Q,Q
2023-03-15 14:35:36:31,0,13.998,-4.63668,-33.7977,Q,Q
2023-03-15 14:35:36:41,0,13.9857,-4.63506,-33.8171,Q,Q
2023-03-15 14:35:36:51,0,13.9744,-4.6353,-33.8348,Q,Q
2023-03-15 14:35:36:61,0,13.9629,-4.63827,-33.8507,Q,Q
2023-03-15 14:35:36:71,0,13.9583,-4.64396,-33.8653,Q,Q
2023-03-15 14:35:36:81,0,13.9628,-4.64733,-33.8795,Q,Q
2023-03-15 14:35:36:91,0,13.9733,-4.64783,-33.8926,Q,Q
2023-03-15 14:35:36:101,0,13.9804,-4.64685,-33.9044,Q,Q
2023-03-15 14:35:36:111,0,13.9906,-4.64756,-33.9141,Q,Q
2023-03-15 14:35:36:121,0,13.9955,-4.64223,-33.9208,Q,Q
2023-03-15 14:35:36:131,0,14.0007,-4.64026,-33.9244,Q,Q
2023-03-15 14:35:36:141,0,14.0027,-4.64281,-33.9264,Q,Q
2023-03-15 14:35:36:151,0,13.9985,-4.64681,-33.9325,Q,Q
2023-03-15 14:35:36:161,0,13.993,-4.65159,-33.9378,Q,Q
2023-03-15 14:35:36:171,0,13.9854,-4.65423,-33.9424,Q,Q
2023-03-15 14:35:36:181,0,13.9782,-4.66022,-33.9455,Q,Q
2023-03-15 14:35:36:191,0,13.9698,-4.66748,-33.9527,Q,Q
2023-03-15 14:35:36:201,0,13.9563,-4.67263,-33.956,Q,Q
2023-03-15 14:35:36:211,0,13.944,-4.68004,-33.9585,Q,Q
2023-03-15 14:35:36:221,0,13.925,-4.68608,-33.9594,Q,Q
2023-03-15 14:35:36:231,0,13.9092,-4.69726,-33.9628,Q,Q
2023-03-15 14:35:36:241,0,13.889,-4.70844,-33.9643,Q,Q
2023-03-15 14:35:36:251,0,13.873,-4.71572,-33.9647,Q,Q
2023-03-15 14:35:36:261,0,13.8538,-4.7252,-33.9666,Q,Q
2023-03-15 14:35:36:271,0,13.8367,-4.72717,-33.9681,Q,Q
2023-03-15 14:35:36:281,0,13.8154,-4.73344,-33.9722,Q,Q
2023-03-15 14:35:36:291,0,13.8008,-4.73542,-33.9742,Q,Q
2023-03-15 14:35:36:301,0,13.7886,-4.73374,-33.9769,Q,Q
2023-03-15 14:35:36:311,0,13.7758,-4.73243,-33.9819,Q,Q
2023-03-15 14:35:36:321,0,13.7602,-4.73232,-33.9893,Q,Q
2023-03-15 14:35:36:331,0,13.7471,-4.73483,-33.9964,Q,Q
2023-03-15 14:35:36:341,0,13.7308,-4.73678,-34.0057,Q,Q
2023-03-15 14:35:36:351,0,13.7136,-4.73909,-34.0168,Q,Q
2023-03-15 14:35:36:361,0,13.6995,-4.74276,-34.0311,Q,Q
2023-03-15 14:35:36:371,0,13.6898,-4.74534,-34.0458,Q,Q
2023-03-15 14:35:36:381,0,13.6813,-4.75004,-34.0622,Q,Q
2023-03-15 14:35:36:391,0,13.67,-4.75488,-34.0788,Q,Q
2023-03-15 14:35:36:401,0,13.6656,-4.75618,-34.0931,Q,Q
2023-03-15 14:35:36:411,0,13.6619,-4.75809,-34.1097,Q,Q
2023-03-15 14:35:36:421,0,13.6528,-4.76171,-34.1254,Q,Q
2023-03-15 14:35:36:431,0,13.6437,-4.76512,-34.1404,Q,Q
2023-03-15 14:35:36:441,0,13.6314,-4.77284,-34.1582,Q,Q
2023-03-15 14:35:36:451,0,13.6224,-4.77955,-34.1836,Q,Q
2023-03-15 14:35:36:461,0,13.616,-4.78618,-34.2088,Q,Q
2023-03-15 14:35:36:471,0,13.6134,-4.79313,-34.2298,Q,Q
2023-03-15 14:35:36:481,0,13.6082,-4.80615,-34.2521,Q,Q
2023-03-15 14:35:36:491,0,13.6058,-4.81736,-34.2795,Q,Q
2023-03-15 14:35:36:501,0,13.6099,-4.83159,-34.3069,Q,Q
2023-03-15 14:35:36:511,0,13.6115,-4.84292,-34.3262,Q,Q
2023-03-15 14:35:36:521,0,13.6165,-4.86251,-34.3394,Q,Q
2023-03-15 14:35:36:531,0,13.6201,-4.88956,-34.3593,Q,Q
2023-03-15 14:35:36:541,0,13.6135,-4.90695,-34.3891,Q,Q
2023-03-15 14:35:36:551,0,13.6042,-4.91691,-34.417,Q,Q
2023-03-15 14:35:36:561,0,13.5909,-4.92504,-34.4469,Q,Q
2023-03-15 14:35:36:571,0,13.5821,-4.9263,-34.4773,Q,Q
2023-03-15 14:35:36:581,0,13.5739,-4.92751,-34.5055,Q,Q
2023-03-15 14:35:36:591,0,13.5676,-4.92842,-34.5286,Q,Q
2023-03-15 14:35:36:601,0,13.5617,-4.92816,-34.5449,Q,Q
2023-03-15 14:35:36:611,0,13.5605,-4.9264,-34.558,Q,Q
2023-03-15 14:35:36:621,0,13.5658,-4.92465,-34.5685,Q,Q
2023-03-15 14:35:36:631,0,13.5743,-4.92024,-34.5724,Q,Q
2023-03-15 14:35:36:641,0,13.5837,-4.916,-34.5741,Q,Q
2023-03-15 14:35:36:651,0,13.5893,-4.91281,-34.5724,Q,Q
2023-03-15 14:35:36:661,0,13.5929,-4.90474,-34.5642,Q,Q
2023-03-15 14:35:36:671,0,13.5934,-4.89007,-34.5516,Q,Q
2023-03-15 14:35:36:681,0,13.5919,-4.88055,-34.5447,Q,Q
2023-03-15 14:35:36:691,0,13.5911,-4.87449,-34.5311,Q,Q
2023-03-15 14:35:36:701,0,13.593,-4.87197,-34.5229,Q,Q
2023-03-15 14:35:36:711,0,13.6016,-4.8748,-34.5115,Q,Q
2023-03-15 14:35:36:721,0,13.6136,-4.88264,-34.5028,Q,Q
2023-03-15 14:35:36:731,0,13.6225,-4.89434,-34.4949,Q,Q
2023-03-15 14:35:36:741,0,13.6261,-4.90949,-34.4944,Q,Q
2023-03-15 14:35:36:751,0,13.6321,-4.91773,-34.4919,Q,Q
2023-03-15 14:35:36:761,0,13.6357,-4.92569,-34.4917,Q,Q
2023-03-15 14:35:36:771,0,13.6341,-4.93135,-34.4927,Q,Q
2023-03-15 14:35:36:781,0,13.627,-4.9347,-34.4918,Q,Q
2023-03-15 14:35:36:791,0,13.6207,-4.93787,-34.4928,Q,Q
2023-03-15 14:35:36:801,0,13.6153,-4.93732,-34.4934,Q,Q
2023-03-15 14:35:36:811,0,13.6081,-4.93695,-34.496,Q,Q
2023-03-15 14:35:36:821,0,13.6047,-4.93352,-34.4971,Q,Q
2023-03-15 14:35:36:831,0,13.5991,-4.93395,-34.5031,Q,Q
2023-03-15 14:35:36:841,0,13.5985,-4.93312,-34.5122,Q,Q
2023-03-15 14:35:36:851,0,13.5987,-4.93474,-34.524,Q,Q
2023-03-15 14:35:36:861,0,13.5983,-4.93068,-34.5356,Q,Q
2023-03-15 14:35:36:871,0,13.5959,-4.92716,-34.5505,Q,Q
2023-03-15 14:35:36:881,0,13.5925,-4.93027,-34.5671,Q,Q
2023-03-15 14:35:36:891,0,13.5922,-4.92836,-34.5844,Q,Q
2023-03-15 14:35:36:901,0,13.5966,-4.9293,-34.6029,Q,Q
2023-03-15 14:35:36:911,0,13.5998,-4.93163,-34.6242,Q,Q
2023-03-15 14:35:36:921,0,13.6065,-4.93261,-34.6428,Q,Q
2023-03-15 14:35:36:931,0,13.6111,-4.93587,-34.658,Q,Q
2023-03-15 14:35:36:941,0,13.6158,-4.93814,-34.6794,Q,Q
2023-03-15 14:35:36:951,0,13.6182,-4.93922,-34.7017,Q,Q
2023-03-15 14:35:36:961,0,13.6206,-4.93588,-34.7193,Q,Q
2023-03-15 14:35:36:971,0,13.6222,-4.9313,-34.7349,Q,Q
2023-03-15 14:35:36:981,0,13.6229,-4.93165,-34.7467,Q,Q
2023-03-15 14:35:36:991,0,13.625,-4.93121,-34.7551,Q,Q
2023-03-15 14:35:37:1,0,13.6243,-4.92776,-34.7584,Q,Q
2023-03-15 14:35:37:11,0,13.6208,-4.92485,-34.763,Q,Q
2023-03-15 14:35:37:21,0,13.6175,-4.91605,-34.7644,Q,Q
2023-03-15 14:35:37:31,0,13.6162,-4.90822,-34.766,Q,Q
2023-03-15 14:35:37:41,0,13.617,-4.90318,-34.764,Q,Q
2023-03-15 14:35:37:51,0,13.6156,-4.8974,-34.7596,Q,Q
2023-03-15 14:35:37:61,0,13.6123,-4.89321,-34.7552,Q,Q
2023-03-15 14:35:37:71,0,13.6054,-4.89085,-34.7518,Q,Q
2023-03-15 14:35:37:81,0,13.5997,-4.89401,-34.7447,Q,Q
2023-03-15 14:35:37:91,0,13.5936,-4.89611,-34.7414,Q,Q
2023-03-15 14:35:37:101,0,13.5869,-4.89922,-34.7406,Q,Q
2023-03-15 14:35:37:111,0,13.5786,-4.90474,-34.7388,Q,Q
2023-03-15 14:35:37:121,0,13.5707,-4.90986,-34.7405,Q,Q
2023-03-15 14:35:37:131,0,13.5698,-4.91787,-34.7463,Q,Q
2023-03-15 14:35:37:141,0,13.5685,-4.92723,-34.7485,Q,Q
2023-03-15 14:35:37:151,0,13.571,-4.93728,-34.7475,Q,Q
2023-03-15 14:35:37:161,0,13.5731,-4.9505,-34.7439,Q,Q
2023-03-15 14:35:37:171,0,13.578,-4.96149,-34.7377,Q,Q
2023-03-15 14:35:37:181,0,13.5856,-4.9676,-34.7256,Q,Q
2023-03-15 14:35:37:191,0,13.5998,-4.97231,-34.7074,Q,Q
2023-03-15 14:35:37:201,0,13.6273,-4.97022,-34.6868,Q,Q
2023-03-15 14:35:37:211,0,13.6618,-4.963,-34.6632,Q,Q
2023-03-15 14:35:37:221,0,13.7035,-4.94522,-34.6344,Q,Q
2023-03-15 14:35:37:231,0,13.7488,-4.91848,-34.5996,Q,Q
2023-03-15 14:35:37:241,0,13.7994,-4.88532,-34.5577,Q,Q
2023-03-15 14:35:37:251,0,13.8556,-4.85118,-34.5082,Q,Q
2023-03-15 14:35:37:261,0,13.9222,-4.81546,-34.4504,Q,Q
2023-03-15 14:35:37:271,0,13.999,-4.78067,-34.3867,Q,Q
2023-03-15 14:35:37:281,0,14.0755,-4.75645,-34.319,Q,Q
2023-03-15 14:35:37:291,0,14.1447,-4.74309,-34.25,Q,Q
2023-03-15 14:35:37:301,0,14.1912,-4.73668,-34.184,Q,Q
2023-03-15 14:35:37:311,0,14.2121,-4.73608,-34.1294,Q,Q
2023-03-15 14:35:37:321,0,14.2034,-4.74068,-34.0921,Q,Q
2023-03-15 14:35:37:331,0,14.1695,-4.74148,-34.0716,Q,Q
2023-03-15 14:35:37:341,0,14.1268,-4.73467,-34.0733,Q,Q
2023-03-15 14:35:37:351,0,14.0803,-4.7251,-34.0869,Q,Q
2023-03-15 14:35:37:361,0,14.0256,-4.71239,-34.1031,Q,Q
2023-03-15 14:35:37:371,0,13.9734,-4.69942,-34.1176,Q,Q
2023-03-15 14:35:37:381,0,13.9217,-4.68859,-34.1262,Q,Q
2023-03-15 14:35:37:391,0,13.8781,-4.67752,-34.1247,Q,Q
2023-03-15 14:35:37:401,0,13.8312,-4.66853,-34.1136,Q,Q
2023-03-15 14:35:37:411,0,13.7922,-4.65712,-34.0922,Q,Q
2023-03-15 14:35:37:421,0,13.753,-4.64077,-34.0607,Q,Q
2023-03-15 14:35:37:431,0,13.7178,-4.62348,-34.0171,Q,Q
2023-03-15 14:35:37:441,0,13.6896,-4.60709,-33.9701,Q,Q
2023-03-15 14:35:37:451,0,13.6724,-4.58782,-33.9132,Q,Q
2023-03-15 14:35:37:461,0,13.6667,-4.56803,-33.8558,Q,Q
2023-03-15 14:35:37:471,0,13.677,-4.54135,-33.7951,Q,Q
2023-03-15 14:35:37:481,0,13.7018,-4.51021,-33.7335,Q,Q
2023-03-15 14:35:37:491,0,13.7345,-4.48217,-33.6706,Q,Q
2023-03-15 14:35:37:501,0,13.7714,-4.45335,-33.6097,Q,Q
2023-03-15 14:35:37:511,0,13.8036,-4.42656,-33.5477,Q,Q
2023-03-15 14:35:37:521,0,13.8262,-4.39828,-33.4866,Q,Q
2023-03-15 14:35:37:531,0,13.8468,-4.37417,-33.4308,Q,Q
2023-03-15 14:35:37:541,0,13.8686,-4.35308,-33.3736,Q,Q
2023-03-15 14:35:37:551,0,13.8913,-4.33622,-33.3182,Q,Q
2023-03-15 14:35:37:561,0,13.9238,-4.32386,-33.2672,Q,Q
2023-03-15 14:35:37:571,0,13.9657,-4.3074,-33.2205,Q,Q
2023-03-15 14:35:37:581,0,14.0095,-4.29433,-33.1795,Q,Q
2023-03-15 14:35:37:591,0,14.0563,-4.27819,-33.1433,Q,Q
2023-03-15 14:35:37:601,0,14.102,-4.26616,-33.1071,Q,Q
2023-03-15 14:35:37:611,0,14.1429,-4.25914,-33.0777,Q,Q
2023-03-15 14:35:37:621,0,14.1793,-4.2568,-33.0532,Q,Q
2023-03-15 14:35:37:631,0,14.2149,-4.25893,-33.0357,Q,Q
2023-03-15 14:35:37:641,0,14.2484,-4.26164,-33.0292,Q,Q
2023-03-15 14:35:37:651,0,14.2839,-4.26719,-33.0316,Q,Q
2023-03-15 14:35:37:661,0,14.3228,-4.27203,-33.0389,Q,Q
2023-03-15 14:35:37:671,0,14.3663,-4.28263,-33.0483,Q,Q
2023-03-15 14:35:37:681,0,14.4202,-4.29088,-33.0532,Q,Q
2023-03-15 14:35:37:691,0,14.4695,-4.29566,-33.0542,Q,Q
2023-03-15 14:35:37:701,0,14.5165,-4.30133,-33.0502,Q,Q
2023-03-15 14:35:37:711,0,14.5541,-4.31002,-33.0339,Q,Q
2023-03-15 14:35:37:721,0,14.5815,-4.31866,-33.0155,Q,Q
2023-03-15 14:35:37:731,0,14.5952,-4.32702,-33.0011,Q,Q
2023-03-15 14:35:37:741,0,14.602,-4.33041,-32.9897,Q,Q
2023-03-15 14:35:37:751,0,14.6106,-4.33461,-32.9791,Q,Q
2023-03-15 14:35:37:761,0,14.6215,-4.34245,-32.9668,Q,Q
2023-03-15 14:35:37:771,0,14.6343,-4.35241,-32.9567,Q,Q
2023-03-15 14:35:37:781,0,14.6492,-4.37057,-32.9474,Q,Q
2023-03-15 14:35:37:791,0,14.6675,-4.3985,-32.9376,Q,Q
2023-03-15 14:35:37:801,0,14.6876,-4.42916,-32.9267,Q,Q
2023-03-15 14:35:37:811,0,14.7058,-4.46467,-32.9242,Q,Q
2023-03-15 14:35:37:821,0,14.7287,-4.49788,-32.9296,Q,Q
2023-03-15 14:35:37:831,0,14.7464,-4.52307,-32.9366,Q,Q
2023-03-15 14:35:37:841,0,14.7577,-4.5427,-32.939,Q,Q
2023-03-15 14:35:37:851,0,14.7536,-4.55558,-32.9311,Q,Q
2023-03-15 14:35:37:861,0,14.7365,-4.56726,-32.9234,Q,Q
2023-03-15 14:35:37:871,0,14.7209,-4.58164,-32.9196,Q,Q
2023-03-15 14:35:37:881,0,14.7087,-4.59226,-32.9301,Q,Q
2023-03-15 14:35:37:891,0,14.695,-4.60186,-32.9435,Q,Q
2023-03-15 14:35:37:901,0,14.677,-4.60535,-32.9625,Q,Q
2023-03-15 14:35:37:911,0,14.6592,-4.6156,-32.9856,Q,Q
2023-03-15 14:35:37:920,0,14.6414,-4.62779,-33.0054,Q,Q
2023-03-15 14:35:37:930,0,14.6206,-4.63792,-33.0245,Q,Q
2023-03-15 14:35:37:941,0,14.6013,-4.65165,-33.051,Q,Q
2023-03-15 14:35:37:951,0,14.5906,-4.66278,-33.0813,Q,Q
2023-03-15 14:35:37:961,0,14.5905,-4.67097,-33.1067,Q,Q
2023-03-15 14:35:37:971,0,14.5833,-4.6753,-33.1287,Q,Q
2023-03-15 14:35:37:981,0,14.568,-4.679,-33.1447,Q,Q
2023-03-15 14:35:37:991,0,14.5457,-4.68492,-33.1533,Q,Q
2023-03-15 14:35:38:1,0,14.5244,-4.7024,-33.156,Q,Q
2023-03-15 14:35:38:11,0,14.5098,-4.72553,-33.1586,Q,Q
2023-03-15 14:35:38:21,0,14.4947,-4.75074,-33.1642,Q,Q
2023-03-15 14:35:38:31,0,14.4739,-4.7713,-33.171,Q,Q
2023-03-15 14:35:38:41,0,14.4558,-4.78652,-33.1778,Q,Q
2023-03-15 14:35:38:51,0,14.4353,-4.80457,-33.192,Q,Q
2023-03-15 14:35:38:61,0,14.4268,-4.82245,-33.2101,Q,Q
2023-03-15 14:35:38:71,0,14.4192,-4.83663,-33.2266,Q,Q
2023-03-15 14:35:38:81,0,14.4019,-4.84576,-33.2385,Q,Q
2023-03-15 14:35:38:91,0,14.3819,-4.84984,-33.251,Q,Q
2023-03-15 14:35:38:101,0,14.3578,-4.85051,-33.262,Q,Q
2023-03-15 14:35:38:111,0,14.3366,-4.84852,-33.2674,Q,Q
2023-03-15 14:35:38:121,0,14.322,-4.84958,-33.2687,Q,Q
2023-03-15 14:35:38:131,0,14.3088,-4.84681,-33.2677,Q,Q
2023-03-15 14:35:38:141,0,14.2986,-4.85148,-33.2625,Q,Q
2023-03-15 14:35:38:151,0,14.295,-4.86407,-33.2539,Q,Q
2023-03-15 14:35:38:161,0,14.302,-4.88054,-33.2494,Q,Q
2023-03-15 14:35:38:171,0,14.3163,-4.89588,-33.2426,Q,Q
2023-03-15 14:35:38:181,0,14.3265,-4.89979,-33.2368,Q,Q
2023-03-15 14:35:38:191,0,14.3436,-4.90721,-33.2322,Q,Q
2023-03-15 14:35:38:201,0,14.3609,-4.91383,-33.2249,Q,Q
2023-03-15 14:35:38:211,0,14.3809,-4.92011,-33.215,Q,Q
2023-03-15 14:35:38:221,0,14.4006,-4.92048,-33.2004,Q,Q
2023-03-15 14:35:38:231,0,14.4175,-4.9242,-33.1885,Q,Q
2023-03-15 14:35:38:241,0,14.436,-4.91925,-33.176,Q,Q
2023-03-15 14:35:38:251,0,14.4614,-4.92064,-33.1613,Q,Q
2023-03-15 14:35:38:261,0,14.491,-4.91532,-33.1461,Q,Q
2023-03-15 14:35:38:271,0,14.5272,-4.91478,-33.1272,Q,Q
2023-03-15 14:35:38:281,0,14.5687,-4.91451,-33.1163,Q,Q
2023-03-15 14:35:38:291,0,14.607,-4.91523,-33.104,Q,Q
2023-03-15 14:35:38:301,0,14.6362,-4.91804,-33.0968,Q,Q
2023-03-15 14:35:38:311,0,14.6578,-4.91641,-33.095,Q,Q
2023-03-15 14:35:38:321,0,14.6702,-4.91049,-33.0972,Q,Q
2023-03-15 14:35:38:331,0,14.675,-4.90039,-33.1013,Q,Q
2023-03-15 14:35:38:341,0,14.6818,-4.88946,-33.1045,Q,Q
2023-03-15 14:35:38:351,0,14.691,-4.8762,-33.1082,Q,Q
2023-03-15 14:35:38:361,0,14.7066,-4.86415,-33.1036,Q,Q
2023-03-15 14:35:38:371,0,14.7235,-4.85755,-33.0961,Q,Q
2023-03-15 14:35:38:381,0,14.7434,-4.85481,-33.0881,Q,Q
2023-03-15 14:35:38:391,0,14.7667,-4.84957,-33.0754,Q,Q
2023-03-15 14:35:38:401,0,14.7865,-4.84218,-33.0667,Q,Q
2023-03-15 14:35:38:411,0,14.8035,-4.83542,-33.0464,Q,Q
2023-03-15 14:35:38:421,0,14.8239,-4.83024,-33.0316,Q,Q
2023-03-15 14:35:38:431,0,14.8391,-4.82358,-33.0129,Q,Q
2023-03-15 14:35:38:441,0,14.8547,-4.81974,-32.9955,Q,Q
2023-03-15 14:35:38:451,0,14.8649,-4.81396,-32.9784,Q,Q
2023-03-15 14:35:38:461,0,14.8725,-4.8063,-32.9658,Q,Q
2023-03-15 14:35:38:471,0,14.8758,-4.79544,-32.9556,Q,Q
2023-03-15 14:35:38:481,0,14.8798,-4.78319,-32.9489,Q,Q
2023-03-15 14:35:38:491,0,14.8882,-4.77112,-32.9417,Q,Q
2023-03-15 14:35:38:501,0,14.8958,-4.761,-32.9346,Q,Q
2023-03-15 14:35:38:511,0,14.8998,-4.75434,-32.9262,Q,Q
2023-03-15 14:35:38:521,0,14.9054,-4.75509,-32.9179,Q,Q
2023-03-15 14:35:38:531,0,14.9067,-4.75441,-32.9106,Q,Q
2023-03-15 14:35:38:541,0,14.9015,-4.75296,-32.9059,Q,Q
2023-03-15 14:35:38:551,0,14.8956,-4.74851,-32.8992,Q,Q
2023-03-15 14:35:38:561,0,14.8871,-4.74486,-32.8919,Q,Q
2023-03-15 14:35:38:571,0,14.8801,-4.74258,-32.8817,Q,Q
2023-03-15 14:35:38:581,0,14.871,-4.73868,-32.8685,Q,Q
2023-03-15 14:35:38:591,0,14.8564,-4.73249,-32.8527,Q,Q
2023-03-15 14:35:38:601,0,14.8463,-4.72422,-32.8405,Q,Q
2023-03-15 14:35:38:611,0,14.8365,-4.72062,-32.8269,Q,Q
2023-03-15 14:35:38:621,0,14.8223,-4.71237,-32.8129,Q,Q
2023-03-15 14:35:38:631,0,14.8066,-4.7055,-32.7996,Q,Q
2023-03-15 14:35:38:641,0,14.7841,-4.70173,-32.7861,Q,Q
2023-03-15 14:35:38:651,0,14.7667,-4.69678,-32.7779,Q,Q
2023-03-15 14:35:38:661,0,14.7567,-4.69129,-32.7677,Q,Q
2023-03-15 14:35:38:671,0,14.7424,-4.68436,-32.7563,Q,Q
2023-03-15 14:35:38:681,0,14.724,-4.6759,-32.7437,Q,Q
2023-03-15 14:35:38:691,0,14.7061,-4.66713,-32.7317,Q,Q
2023-03-15 14:35:38:701,0,14.6863,-4.6577,-32.7213,Q,Q
2023-03-15 14:35:38:711,0,14.6702,-4.64449,-32.7114,Q,Q
2023-03-15 14:35:38:721,0,14.6553,-4.63238,-32.7012,Q,Q
2023-03-15 14:35:38:731,0,14.6413,-4.62071,-32.6877,Q,Q
2023-03-15 14:35:38:741,0,14.626,-4.60962,-32.6766,Q,Q
2023-03-15 14:35:38:751,0,14.6147,-4.59716,-32.6617,Q,Q
2023-03-15 14:35:38:761,0,14.6102,-4.58751,-32.6485,Q,Q
2023-03-15 14:35:38:771,0,14.6175,-4.58276,-32.6334,Q,Q
2023-03-15 14:35:38:781,0,14.6235,-4.57924,-32.6153,Q,Q
2023-03-15 14:35:38:791,0,14.6295,-4.57918,-32.5947,Q,Q
2023-03-15 14:35:38:801,0,14.6348,-4.57659,-32.5762,Q,Q
2023-03-15 14:35:38:811,0,14.6335,-4.5752,-32.5542,Q,Q
2023-03-15 14:35:38:821,0,14.6223,-4.57289,-32.5277,Q,Q
2023-03-15 14:35:38:831,0,14.6016,-4.57431,-32.508,Q,Q
2023-03-15 14:35:38:841,0,14.5769,-4.57949,-32.4958,Q,Q
2023-03-15 14:35:38:851,0,14.5534,-4.58166,-32.4865,Q,Q
2023-03-15 14:35:38:861,0,14.5314,-4.58321,-32.4835,Q,Q
2023-03-15 14:35:38:871,0,14.5097,-4.58101,-32.4784,Q,Q
2023-03-15 14:35:38:881,0,14.4902,-4.57612,-32.4733,Q,Q
2023-03-15 14:35:38:891,0,14.474,-4.57288,-32.4663,Q,Q
2023-03-15 14:35:38:901,0,14.4556,-4.56934,-32.4545,Q,Q
2023-03-15 14:35:38:911,0,14.4337,-4.56754,-32.443,Q,Q
2023-03-15 14:35:38:921,0,14.4066,-4.56968,-32.433,Q,Q
2023-03-15 14:35:38:931,0,14.3808,-4.56889,-32.4251,Q,Q
2023-03-15 14:35:38:941,0,14.3474,-4.56711,-32.4159,Q,Q
2023-03-15 14:35:38:951,0,14.3151,-4.56472,-32.4093,Q,Q
2023-03-15 14:35:38:961,0,14.292,-4.56279,-32.4027,Q,Q
2023-03-15 14:35:38:971,0,14.276,-4.56227,-32.4006,Q,Q
2023-03-15 14:35:38:981,0,14.2681,-4.56175,-32.4013,Q,Q
2023-03-15 14:35:38:991,0,14.2737,-4.55417,-32.4037,Q,Q
2023-03-15 14:35:39:1,0,14.2872,-4.54902,-32.4091,Q,Q
2023-03-15 14:35:39:11,0,14.304,-4.546,-32.4122,Q,Q
2023-03-15 14:35:39:21,0,14.3287,-4.54842,-32.4209,Q,Q
2023-03-15 14:35:39:31,0,14.3561,-4.5552,-32.4321,Q,Q
2023-03-15 14:35:39:41,0,14.387,-4.56159,-32.4463,Q,Q
2023-03-15 14:35:39:51,0,14.4309,-4.57027,-32.456,Q,Q
2023-03-15 14:35:39:61,0,14.481,-4.57752,-32.4701,Q,Q
2023-03-15 14:35:39:71,0,14.5267,-4.58606,-32.4849,Q,Q
2023-03-15 14:35:39:81,0,14.5801,-4.59778,-32.4993,Q,Q
2023-03-15 14:35:39:91,0,14.6297,-4.61454,-32.5101,Q,Q
2023-03-15 14:35:39:101,0,14.6717,-4.63102,-32.5185,Q,Q
2023-03-15 14:35:39:111,0,14.7052,-4.64086,-32.52,Q,Q
2023-03-15 14:35:39:121,0,14.7353,-4.64854,-32.5263,Q,Q
2023-03-15 14:35:39:131,0,14.7558,-4.65687,-32.5305,Q,Q
2023-03-15 14:35:39:141,0,14.7787,-4.65949,-32.5323,Q,Q
2023-03-15 14:35:39:151,0,14.7975,-4.65374,-32.5295,Q,Q
2023-03-15 14:35:39:161,0,14.8114,-4.64682,-32.5251,Q,Q
2023-03-15 14:35:39:171,0,14.821,-4.63636,-32.5223,Q,Q
2023-03-15 14:35:39:181,0,14.8209,-4.62968,-32.5119,Q,Q
2023-03-15 14:35:39:191,0,14.8121,-4.62351,-32.4985,Q,Q
2023-03-15 14:35:39:201,0,14.7953,-4.61832,-32.4888,Q,Q
2023-03-15 14:35:39:211,0,14.778,-4.61308,-32.4785,Q,Q
2023-03-15 14:35:39:221,0,14.763,-4.60731,-32.4766,Q,Q
2023-03-15 14:35:39:231,0,14.7469,-4.59869,-32.4766,Q,Q
2023-03-15 14:35:39:241,0,14.7304,-4.58288,-32.474,Q,Q
2023-03-15 14:35:39:251,0,14.7181,-4.56141,-32.4709,Q,Q
2023-03-15 14:35:39:261,0,14.7105,-4.53444,-32.4682,Q,Q
2023-03-15 14:35:39:271,0,14.7016,-4.50449,-32.4685,Q,Q
2023-03-15 14:35:39:281,0,14.6981,-4.47211,-32.4686,Q,Q
2023-03-15 14:35:39:291,0,14.6976,-4.44135,-32.463,Q,Q
2023-03-15 14:35:39:301,0,14.7003,-4.41164,-32.4542,Q,Q
2023-03-15 14:35:39:311,0,14.7058,-4.38501,-32.4471,Q,Q
2023-03-15 14:35:39:321,0,14.7161,-4.36494,-32.4392,Q,Q
2023-03-15 14:35:39:331,0,14.7265,-4.3494,-32.423,Q,Q
2023-03-15 14:35:39:341,0,14.7349,-4.33531,-32.4038,Q,Q
2023-03-15 14:35:39:351,0,14.7439,-4.32219,-32.3785,Q,Q
2023-03-15 14:35:39:361,0,14.7553,-4.31214,-32.3501,Q,Q
2023-03-15 14:35:39:371,0,14.7619,-4.3017,-32.3155,Q,Q
2023-03-15 14:35:39:381,0,14.765,-4.29667,-32.2795,Q,Q
2023-03-15 14:35:39:391,0,14.7648,-4.29604,-32.24,Q,Q
2023-03-15 14:35:39:401,0,14.763,-4.296,-32.1991,Q,Q
2023-03-15 14:35:39:411,0,14.766,-4.29978,-32.1554,Q,Q
2023-03-15 14:35:39:421,0,14.7658,-4.30356,-32.1129,Q,Q
2023-03-15 14:35:39:431,0,14.7632,-4.30319,-32.0732,Q,Q
2023-03-15 14:35:39:441,0,14.7584,-4.30221,-32.0395,Q,Q
2023-03-15 14:35:39:451,0,14.7574,-4.30383,-32.0107,Q,Q
2023-03-15 14:35:39:461,0,14.7534,-4.30433,-31.9849,Q,Q
2023-03-15 14:35:39:471,0,14.7468,-4.30394,-31.9645,Q,Q
2023-03-15 14:35:39:481,0,14.7384,-4.30167,-31.9469,Q,Q
2023-03-15 14:35:39:491,0,14.7293,-4.29933,-31.9294,Q,Q
2023-03-15 14:35:39:501,0,14.7254,-4.29799,-31.9137,Q,Q
2023-03-15 14:35:39:511,0,14.7203,-4.29676,-31.9016,Q,Q
2023-03-15 14:35:39:521,0,14.7158,-4.29753,-31.891,Q,Q
2023-03-15 14:35:39:531,0,14.7116,-4.29848,-31.8833,Q,Q
2023-03-15 14:35:39:541,0,14.7099,-4.3016,-31.8799,Q,Q
2023-03-15 14:35:39:551,0,14.7115,-4.30319,-31.8753,Q,Q
2023-03-15 14:35:39:561,0,14.7221,-4.30805,-31.8732,Q,Q
2023-03-15 14:35:39:571,0,14.737,-4.309,-31.8695,Q,Q
2023-03-15 14:35:39:581,0,14.749,-4.31614,-31.865,Q,Q
2023-03-15 14:35:39:591,0,14.7592,-4.32448,-31.8576,Q,Q
2023-03-15 14:35:39:601,0,14.7726,-4.33112,-31.8491,Q,Q
2023-03-15 14:35:39:611,0,14.7785,-4.3355,-31.8416,Q,Q
2023-03-15 14:35:39:621,0,14.786,-4.33962,-31.8388,Q,Q
2023-03-15 14:35:39:631,0,14.7856,-4.34274,-31.8324,Q,Q
2023-03-15 14:35:39:641,0,14.7859,-4.34268,-31.8321,Q,Q
2023-03-15 14:35:39:651,0,14.7848,-4.34599,-31.8306,Q,Q
2023-03-15 14:35:39:661,0,14.7821,-4.35148,-31.8267,Q,Q
2023-03-15 14:35:39:671,0,14.7835,-4.3587,-31.8264,Q,Q
