Timestamp_cmd,imu_cmd,roll_delta,pitch_delta,yaw_delta,voice_type,voice_length
2023-03-15 14:07:20:258,0,1.26759,-5.04622,-37.7984,Q,Q
2023-03-15 14:07:20:265,0,1.24911,-5.04795,-37.7964,Q,Q
2023-03-15 14:07:20:276,0,1.22874,-5.04447,-37.7953,Q,Q
2023-03-15 14:07:20:286,0,1.20766,-5.04036,-37.8006,Q,Q
2023-03-15 14:07:20:296,0,1.18478,-5.03263,-37.8001,Q,Q
2023-03-15 14:07:20:306,0,1.16655,-5.02897,-37.7947,Q,Q
2023-03-15 14:07:20:316,0,1.1502,-5.02938,-37.7853,Q,Q
2023-03-15 14:07:20:326,0,1.13666,-5.03472,-37.7676,Q,Q
2023-03-15 14:07:20:336,0,1.12722,-5.04449,-37.7519,Q,Q
2023-03-15 14:07:20:346,0,1.11892,-5.05534,-37.7333,Q,Q
2023-03-15 14:07:20:356,0,1.11351,-5.06779,-37.7157,Q,Q
2023-03-15 14:07:20:366,0,1.11193,-5.08099,-37.6939,Q,Q
2023-03-15 14:07:20:376,0,1.11398,-5.09487,-37.6737,Q,Q
2023-03-15 14:07:20:386,0,1.11315,-5.10264,-37.6532,Q,Q
2023-03-15 14:07:20:396,0,1.11361,-5.10821,-37.6308,Q,Q
2023-03-15 14:07:20:406,0,1.10962,-5.10569,-37.6134,Q,Q
2023-03-15 14:07:20:416,0,1.10323,-5.10658,-37.6015,Q,Q
2023-03-15 14:07:20:426,0,1.10163,-5.10534,-37.5921,Q,Q
2023-03-15 14:07:20:436,0,1.10349,-5.10806,-37.5896,Q,Q
2023-03-15 14:07:20:446,0,1.11061,-5.10456,-37.5854,Q,Q
2023-03-15 14:07:20:456,0,1.12542,-5.10179,-37.5873,Q,Q
2023-03-15 14:07:20:466,0,1.13787,-5.09719,-37.5882,Q,Q
2023-03-15 14:07:20:476,0,1.14597,-5.09293,-37.5887,Q,Q
2023-03-15 14:07:20:486,0,1.15098,-5.08368,-37.5888,Q,Q
2023-03-15 14:07:20:496,0,1.15291,-5.08001,-37.5889,Q,Q
2023-03-15 14:07:20:506,0,1.15828,-5.07667,-37.5887,Q,Q
2023-03-15 14:07:20:516,0,1.16531,-5.0752,-37.5895,Q,Q
2023-03-15 14:07:20:526,0,1.16246,-5.07175,-37.587,Q,Q
2023-03-15 14:07:20:536,0,1.16273,-5.07222,-37.5833,Q,Q
2023-03-15 14:07:20:546,0,1.15837,-5.07493,-37.5786,Q,Q
2023-03-15 14:07:20:556,0,1.15562,-5.07305,-37.5776,Q,Q
2023-03-15 14:07:20:566,0,1.15905,-5.06653,-37.5759,Q,Q
2023-03-15 14:07:20:576,0,1.16321,-5.05921,-37.5714,Q,Q
2023-03-15 14:07:20:586,0,1.16638,-5.05516,-37.5651,Q,Q
2023-03-15 14:07:20:596,0,1.16839,-5.05423,-37.5623,Q,Q
2023-03-15 14:07:20:606,0,1.16746,-5.05467,-37.5621,Q,Q
2023-03-15 14:07:20:616,0,1.16561,-5.0563,-37.563,Q,Q
2023-03-15 14:07:20:626,0,1.16786,-5.05656,-37.564,Q,Q
2023-03-15 14:07:20:636,0,1.17354,-5.05963,-37.5652,Q,Q
2023-03-15 14:07:20:646,0,1.18051,-5.06814,-37.5687,Q,Q
2023-03-15 14:07:20:656,0,1.18762,-5.08076,-37.5744,Q,Q
2023-03-15 14:07:20:666,0,1.19041,-5.08698,-37.582,Q,Q
2023-03-15 14:07:20:676,0,1.19235,-5.09675,-37.5891,Q,Q
2023-03-15 14:07:20:686,0,1.19246,-5.10785,-37.5948,Q,Q
2023-03-15 14:07:20:696,0,1.19639,-5.11665,-37.5958,Q,Q
2023-03-15 14:07:20:706,0,1.20071,-5.12147,-37.5946,Q,Q
2023-03-15 14:07:20:716,0,1.20648,-5.13014,-37.5934,Q,Q
2023-03-15 14:07:20:726,0,1.21431,-5.13765,-37.5881,Q,Q
2023-03-15 14:07:20:736,0,1.22006,-5.14552,-37.5822,Q,Q
2023-03-15 14:07:20:746,0,1.23447,-5.15772,-37.579,Q,Q
2023-03-15 14:07:20:756,0,1.2523,-5.17146,-37.5759,Q,Q
2023-03-15 14:07:20:766,0,1.2671,-5.17946,-37.5749,Q,Q
2023-03-15 14:07:20:776,0,1.27465,-5.18623,-37.5713,Q,Q
2023-03-15 14:07:20:786,0,1.28049,-5.19278,-37.5701,Q,Q
2023-03-15 14:07:20:796,0,1.28339,-5.19612,-37.5723,Q,Q
2023-03-15 14:07:20:806,0,1.28515,-5.20217,-37.5725,Q,Q
2023-03-15 14:07:20:816,0,1.28564,-5.21041,-37.5704,Q,Q
2023-03-15 14:07:20:826,0,1.28052,-5.22031,-37.5704,Q,Q
2023-03-15 14:07:20:836,0,1.27189,-5.22696,-37.5708,Q,Q
2023-03-15 14:07:20:845,0,1.25817,-5.22769,-37.5678,Q,Q
2023-03-15 14:07:20:856,0,1.24501,-5.22675,-37.5588,Q,Q
2023-03-15 14:07:20:866,0,1.23556,-5.22383,-37.5448,Q,Q
2023-03-15 14:07:20:876,0,1.23305,-5.21815,-37.5277,Q,Q
2023-03-15 14:07:20:885,0,1.23478,-5.20954,-37.5049,Q,Q
2023-03-15 14:07:20:895,0,1.23914,-5.19811,-37.4778,Q,Q
2023-03-15 14:07:20:905,0,1.24443,-5.18483,-37.4522,Q,Q
2023-03-15 14:07:20:915,0,1.24641,-5.16649,-37.4249,Q,Q
2023-03-15 14:07:20:926,0,1.24304,-5.14787,-37.398,Q,Q
2023-03-15 14:07:20:936,0,1.23673,-5.12881,-37.3728,Q,Q
2023-03-15 14:07:20:945,0,1.22721,-5.11166,-37.3463,Q,Q
2023-03-15 14:07:20:955,0,1.21948,-5.10124,-37.327,Q,Q
2023-03-15 14:07:20:965,0,1.21515,-5.09295,-37.3069,Q,Q
2023-03-15 14:07:20:976,0,1.21959,-5.09091,-37.2916,Q,Q
2023-03-15 14:07:20:986,0,1.23158,-5.09584,-37.2752,Q,Q
2023-03-15 14:07:20:996,0,1.24675,-5.10517,-37.2567,Q,Q
2023-03-15 14:07:21:6,0,1.26166,-5.11714,-37.2411,Q,Q
2023-03-15 14:07:21:16,0,1.2733,-5.13231,-37.2267,Q,Q
2023-03-15 14:07:21:26,0,1.27784,-5.15094,-37.2156,Q,Q
2023-03-15 14:07:21:36,0,1.26837,-5.16906,-37.2051,Q,Q
2023-03-15 14:07:21:46,0,1.24809,-5.18622,-37.2048,Q,Q
2023-03-15 14:07:21:55,0,1.22752,-5.19751,-37.2088,Q,Q
2023-03-15 14:07:21:66,0,1.20835,-5.20461,-37.2101,Q,Q
2023-03-15 14:07:21:76,0,1.19113,-5.21108,-37.2119,Q,Q
2023-03-15 14:07:21:86,0,1.17217,-5.21916,-37.2189,Q,Q
2023-03-15 14:07:21:96,0,1.14895,-5.22822,-37.2255,Q,Q
2023-03-15 14:07:21:106,0,1.12821,-5.23512,-37.2353,Q,Q
2023-03-15 14:07:21:116,0,1.1092,-5.23635,-37.2523,Q,Q
2023-03-15 14:07:21:126,0,1.09207,-5.23337,-37.2705,Q,Q
2023-03-15 14:07:21:136,0,1.0764,-5.22629,-37.2876,Q,Q
2023-03-15 14:07:21:146,0,1.06716,-5.22259,-37.3033,Q,Q
2023-03-15 14:07:21:156,0,1.06066,-5.21544,-37.3196,Q,Q
2023-03-15 14:07:21:166,0,1.05907,-5.20843,-37.3348,Q,Q
2023-03-15 14:07:21:176,0,1.05464,-5.20354,-37.3506,Q,Q
2023-03-15 14:07:21:186,0,1.0553,-5.20215,-37.3646,Q,Q
2023-03-15 14:07:21:196,0,1.05155,-5.19758,-37.3782,Q,Q
2023-03-15 14:07:21:206,0,1.04804,-5.20096,-37.3882,Q,Q
2023-03-15 14:07:21:216,0,1.05033,-5.20444,-37.3961,Q,Q
2023-03-15 14:07:21:226,0,1.0539,-5.20458,-37.4032,Q,Q
2023-03-15 14:07:21:236,0,1.06196,-5.21197,-37.4068,Q,Q
2023-03-15 14:07:21:246,0,1.07388,-5.21718,-37.4079,Q,Q
2023-03-15 14:07:21:256,0,1.08741,-5.2213,-37.4,Q,Q
2023-03-15 14:07:21:266,0,1.10009,-5.23279,-37.3895,Q,Q
2023-03-15 14:07:21:276,0,1.10413,-5.24607,-37.3747,Q,Q
2023-03-15 14:07:21:285,0,1.10808,-5.25176,-37.3579,Q,Q
2023-03-15 14:07:21:296,0,1.11274,-5.26096,-37.3368,Q,Q
2023-03-15 14:07:21:306,0,1.11731,-5.271,-37.3182,Q,Q
2023-03-15 14:07:21:315,0,1.12153,-5.28071,-37.2953,Q,Q
2023-03-15 14:07:21:326,0,1.12826,-5.28826,-37.2743,Q,Q
2023-03-15 14:07:21:336,0,1.13739,-5.30062,-37.2519,Q,Q
2023-03-15 14:07:21:345,0,1.14574,-5.30778,-37.234,Q,Q
2023-03-15 14:07:21:356,0,1.15484,-5.31505,-37.2177,Q,Q
2023-03-15 14:07:21:366,0,1.15941,-5.32058,-37.203,Q,Q
2023-03-15 14:07:21:376,0,1.16731,-5.32655,-37.1883,Q,Q
2023-03-15 14:07:21:386,0,1.174,-5.32677,-37.1813,Q,Q
2023-03-15 14:07:21:396,0,1.17846,-5.32989,-37.1784,Q,Q
2023-03-15 14:07:21:406,0,1.1852,-5.33674,-37.1777,Q,Q
2023-03-15 14:07:21:415,0,1.19161,-5.34051,-37.1804,Q,Q
2023-03-15 14:07:21:426,0,1.19673,-5.34475,-37.1811,Q,Q
2023-03-15 14:07:21:436,0,1.20146,-5.35243,-37.1803,Q,Q
2023-03-15 14:07:21:446,0,1.20732,-5.35921,-37.1821,Q,Q
2023-03-15 14:07:21:456,0,1.21332,-5.36354,-37.1826,Q,Q
2023-03-15 14:07:21:466,0,1.22021,-5.36524,-37.1802,Q,Q
2023-03-15 14:07:21:476,0,1.22185,-5.3689,-37.1809,Q,Q
2023-03-15 14:07:21:486,0,1.22231,-5.37148,-37.1806,Q,Q
2023-03-15 14:07:21:496,0,1.21955,-5.37211,-37.1761,Q,Q
2023-03-15 14:07:21:506,0,1.21412,-5.37039,-37.1743,Q,Q
2023-03-15 14:07:21:516,0,1.20495,-5.36942,-37.1735,Q,Q
2023-03-15 14:07:21:525,0,1.19892,-5.36887,-37.1703,Q,Q
2023-03-15 14:07:21:536,0,1.18888,-5.36723,-37.1668,Q,Q
2023-03-15 14:07:21:546,0,1.18353,-5.3633,-37.1627,Q,Q
2023-03-15 14:07:21:555,0,1.18132,-5.36058,-37.1574,Q,Q
2023-03-15 14:07:21:566,0,1.17786,-5.35341,-37.1501,Q,Q
2023-03-15 14:07:21:576,0,1.17272,-5.3481,-37.1451,Q,Q
2023-03-15 14:07:21:586,0,1.17118,-5.34548,-37.1424,Q,Q
2023-03-15 14:07:21:596,0,1.16525,-5.34365,-37.139,Q,Q
2023-03-15 14:07:21:606,0,1.16528,-5.3409,-37.1337,Q,Q
2023-03-15 14:07:21:616,0,1.16874,-5.34262,-37.1278,Q,Q
2023-03-15 14:07:21:626,0,1.17094,-5.34338,-37.1228,Q,Q
2023-03-15 14:07:21:636,0,1.17177,-5.34293,-37.1234,Q,Q
2023-03-15 14:07:21:646,0,1.16963,-5.34128,-37.1224,Q,Q
2023-03-15 14:07:21:656,0,1.16598,-5.34098,-37.1259,Q,Q
2023-03-15 14:07:21:666,0,1.15718,-5.33854,-37.1326,Q,Q
2023-03-15 14:07:21:676,0,1.14346,-5.34206,-37.1432,Q,Q
2023-03-15 14:07:21:686,0,1.12429,-5.348,-37.1536,Q,Q
2023-03-15 14:07:21:696,0,1.10626,-5.35885,-37.1597,Q,Q
2023-03-15 14:07:21:706,0,1.0937,-5.37487,-37.1697,Q,Q
2023-03-15 14:07:21:716,0,1.08513,-5.39354,-37.1785,Q,Q
2023-03-15 14:07:21:726,0,1.07513,-5.41165,-37.1883,Q,Q
2023-03-15 14:07:21:736,0,1.06534,-5.4292,-37.1972,Q,Q
2023-03-15 14:07:21:746,0,1.05735,-5.44133,-37.2006,Q,Q
2023-03-15 14:07:21:756,0,1.05159,-5.45161,-37.2033,Q,Q
2023-03-15 14:07:21:766,0,1.04554,-5.45984,-37.1975,Q,Q
2023-03-15 14:07:21:776,0,1.03493,-5.46881,-37.188,Q,Q
2023-03-15 14:07:21:786,0,1.02385,-5.47272,-37.179,Q,Q
2023-03-15 14:07:21:796,0,1.01814,-5.47788,-37.1727,Q,Q
2023-03-15 14:07:21:806,0,1.00783,-5.48388,-37.1671,Q,Q
2023-03-15 14:07:21:816,0,0.996107,-5.48677,-37.1604,Q,Q
2023-03-15 14:07:21:826,0,0.98537,-5.49155,-37.1553,Q,Q
2023-03-15 14:07:21:836,0,0.978912,-5.49711,-37.1557,Q,Q
2023-03-15 14:07:21:846,0,0.975783,-5.49801,-37.1562,Q,Q
2023-03-15 14:07:21:855,0,0.977084,-5.50225,-37.1561,Q,Q
2023-03-15 14:07:21:865,0,0.977701,-5.50851,-37.1547,Q,Q
2023-03-15 14:07:21:875,0,0.979782,-5.51304,-37.1604,Q,Q
2023-03-15 14:07:21:885,0,0.979913,-5.51636,-37.1641,Q,Q
2023-03-15 14:07:21:895,0,0.984607,-5.5205,-37.1645,Q,Q
2023-03-15 14:07:21:906,0,0.984364,-5.52097,-37.1665,Q,Q
2023-03-15 14:07:21:915,0,0.983321,-5.52234,-37.1693,Q,Q
2023-03-15 14:07:21:925,0,0.979191,-5.51759,-37.1725,Q,Q
2023-03-15 14:07:21:936,0,0.975994,-5.51221,-37.1731,Q,Q
2023-03-15 14:07:21:946,0,0.973212,-5.50438,-37.1718,Q,Q
2023-03-15 14:07:21:955,0,0.970518,-5.49826,-37.17,Q,Q
2023-03-15 14:07:21:966,0,0.972893,-5.49713,-37.165,Q,Q
2023-03-15 14:07:21:976,0,0.979689,-5.49629,-37.1626,Q,Q
2023-03-15 14:07:21:986,0,0.985955,-5.49388,-37.16,Q,Q
2023-03-15 14:07:21:996,0,0.991113,-5.49102,-37.1584,Q,Q
2023-03-15 14:07:22:6,0,0.998113,-5.48844,-37.1569,Q,Q
2023-03-15 14:07:22:16,0,1.00144,-5.48513,-37.1567,Q,Q
2023-03-15 14:07:22:26,0,0.99992,-5.48468,-37.156,Q,Q
2023-03-15 14:07:22:36,0,0.998805,-5.48282,-37.1534,Q,Q
2023-03-15 14:07:22:46,0,0.995682,-5.48114,-37.1527,Q,Q
2023-03-15 14:07:22:56,0,0.992437,-5.47856,-37.1533,Q,Q
2023-03-15 14:07:22:66,0,0.988185,-5.47443,-37.1549,Q,Q
2023-03-15 14:07:22:76,0,0.982691,-5.47407,-37.1575,Q,Q
2023-03-15 14:07:22:86,0,0.977282,-5.47192,-37.157,Q,Q
2023-03-15 14:07:22:96,0,0.972365,-5.47531,-37.1597,Q,Q
2023-03-15 14:07:22:106,0,0.964599,-5.47773,-37.1613,Q,Q
2023-03-15 14:07:22:116,0,0.960478,-5.47961,-37.1643,Q,Q
2023-03-15 14:07:22:126,0,0.956368,-5.47728,-37.1659,Q,Q
2023-03-15 14:07:22:136,0,0.954743,-5.47472,-37.1672,Q,Q
2023-03-15 14:07:22:146,0,0.953113,-5.47404,-37.1644,Q,Q
2023-03-15 14:07:22:156,0,0.955045,-5.47441,-37.1616,Q,Q
2023-03-15 14:07:22:166,0,0.95443,-5.4767,-37.1565,Q,Q
2023-03-15 14:07:22:175,0,0.955536,-5.4745,-37.1551,Q,Q
2023-03-15 14:07:22:185,0,0.953369,-5.47453,-37.153,Q,Q
2023-03-15 14:07:22:196,0,0.950404,-5.47407,-37.1518,Q,Q
2023-03-15 14:07:22:206,0,0.952266,-5.47111,-37.1512,Q,Q
2023-03-15 14:07:22:216,0,0.952026,-5.46946,-37.1512,Q,Q
2023-03-15 14:07:22:226,0,0.953215,-5.46484,-37.1503,Q,Q
2023-03-15 14:07:22:235,0,0.955732,-5.46279,-37.1505,Q,Q
2023-03-15 14:07:22:246,0,0.961981,-5.46213,-37.1523,Q,Q
2023-03-15 14:07:22:256,0,0.958631,-5.46065,-37.152,Q,Q
2023-03-15 14:07:22:266,0,0.950908,-5.45868,-37.1534,Q,Q
2023-03-15 14:07:22:275,0,0.945475,-5.45862,-37.1518,Q,Q
2023-03-15 14:07:22:286,0,0.935889,-5.46065,-37.1547,Q,Q
2023-03-15 14:07:22:296,0,0.931241,-5.45742,-37.1564,Q,Q
2023-03-15 14:07:22:306,0,0.928657,-5.45759,-37.1518,Q,Q
2023-03-15 14:07:22:316,0,0.926429,-5.46101,-37.1487,Q,Q
2023-03-15 14:07:22:326,0,0.926807,-5.46398,-37.1474,Q,Q
2023-03-15 14:07:22:336,0,0.929441,-5.46604,-37.1411,Q,Q
2023-03-15 14:07:22:346,0,0.932246,-5.47182,-37.1337,Q,Q
2023-03-15 14:07:22:355,0,0.936717,-5.47688,-37.1232,Q,Q
2023-03-15 14:07:22:366,0,0.939485,-5.47975,-37.1115,Q,Q
2023-03-15 14:07:22:376,0,0.941885,-5.47908,-37.0978,Q,Q
2023-03-15 14:07:22:386,0,0.939621,-5.48428,-37.087,Q,Q
2023-03-15 14:07:22:396,0,0.936548,-5.48783,-37.0766,Q,Q
2023-03-15 14:07:22:406,0,0.934551,-5.49241,-37.0665,Q,Q
2023-03-15 14:07:22:416,0,0.933715,-5.49673,-37.0571,Q,Q
2023-03-15 14:07:22:426,0,0.92812,-5.5003,-37.046,Q,Q
2023-03-15 14:07:22:436,0,0.927335,-5.49983,-37.0361,Q,Q
2023-03-15 14:07:22:446,0,0.924588,-5.50339,-37.0265,Q,Q
2023-03-15 14:07:22:456,0,0.924951,-5.51036,-37.0233,Q,Q
2023-03-15 14:07:22:466,0,0.925612,-5.51436,-37.0165,Q,Q
2023-03-15 14:07:22:476,0,0.925304,-5.51385,-37.0107,Q,Q
2023-03-15 14:07:22:486,0,0.928733,-5.51328,-37.0078,Q,Q
2023-03-15 14:07:22:496,0,0.934406,-5.51392,-37.0032,Q,Q
2023-03-15 14:07:22:506,0,0.938195,-5.51361,-36.9967,Q,Q
2023-03-15 14:07:22:516,0,0.939779,-5.51351,-36.9889,Q,Q
2023-03-15 14:07:22:526,0,0.937709,-5.50881,-36.9853,Q,Q
2023-03-15 14:07:22:536,0,0.933541,-5.50061,-36.983,Q,Q
2023-03-15 14:07:22:546,0,0.924702,-5.49108,-36.9806,Q,Q
2023-03-15 14:07:22:556,0,0.914923,-5.48194,-36.9799,Q,Q
2023-03-15 14:07:22:566,0,0.903098,-5.47326,-36.9737,Q,Q
2023-03-15 14:07:22:576,0,0.896792,-5.47288,-36.9676,Q,Q
2023-03-15 14:07:22:586,0,0.89519,-5.47284,-36.9579,Q,Q
2023-03-15 14:07:22:596,0,0.901666,-5.4736,-36.941,Q,Q
2023-03-15 14:07:22:606,0,0.907045,-5.47562,-36.9264,Q,Q
2023-03-15 14:07:22:616,0,0.908269,-5.47577,-36.9102,Q,Q
2023-03-15 14:07:22:626,0,0.907625,-5.4744,-36.8901,Q,Q
2023-03-15 14:07:22:636,0,0.896442,-5.47077,-36.8704,Q,Q
2023-03-15 14:07:22:646,0,0.880663,-5.4683,-36.8489,Q,Q
2023-03-15 14:07:22:656,0,0.862569,-5.46598,-36.8275,Q,Q
2023-03-15 14:07:22:665,0,0.845444,-5.47023,-36.8042,Q,Q
2023-03-15 14:07:22:676,0,0.816041,-5.47998,-36.7818,Q,Q
2023-03-15 14:07:22:686,0,0.788359,-5.48038,-36.7687,Q,Q
2023-03-15 14:07:22:695,0,0.774417,-5.47716,-36.7583,Q,Q
2023-03-15 14:07:22:705,0,0.770897,-5.47181,-36.7478,Q,Q
2023-03-15 14:07:22:715,0,0.76225,-5.47293,-36.7309,Q,Q
2023-03-15 14:07:22:725,0,0.748571,-5.46898,-36.7134,Q,Q
2023-03-15 14:07:22:735,0,0.742757,-5.46732,-36.7,Q,Q
2023-03-15 14:07:22:745,0,0.741169,-5.46456,-36.688,Q,Q
2023-03-15 14:07:22:755,0,0.741069,-5.46821,-36.6745,Q,Q
2023-03-15 14:07:22:766,0,0.734786,-5.47362,-36.6561,Q,Q
2023-03-15 14:07:22:775,0,0.72873,-5.48186,-36.6339,Q,Q
2023-03-15 14:07:22:786,0,0.72645,-5.48729,-36.6063,Q,Q
2023-03-15 14:07:22:795,0,0.727949,-5.49092,-36.567,Q,Q
2023-03-15 14:07:22:806,0,0.731899,-5.49602,-36.5172,Q,Q
2023-03-15 14:07:22:816,0,0.737004,-5.49836,-36.4559,Q,Q
2023-03-15 14:07:22:826,0,0.742048,-5.50045,-36.3808,Q,Q
2023-03-15 14:07:22:835,0,0.748508,-5.49923,-36.2895,Q,Q
2023-03-15 14:07:22:846,0,0.758341,-5.49838,-36.1805,Q,Q
2023-03-15 14:07:22:856,0,0.768411,-5.49998,-36.0504,Q,Q
2023-03-15 14:07:22:866,0,0.77723,-5.49916,-35.9001,Q,Q
2023-03-15 14:07:22:875,0,0.779779,-5.49937,-35.7324,Q,Q
2023-03-15 14:07:22:886,0,0.777612,-5.49906,-35.5529,Q,Q
2023-03-15 14:07:22:895,0,0.776523,-5.4943,-35.3576,Q,Q
2023-03-15 14:07:22:906,0,0.773925,-5.48982,-35.1503,Q,Q
2023-03-15 14:07:22:915,0,0.765333,-5.48826,-34.9342,Q,Q
2023-03-15 14:07:22:926,0,0.762198,-5.48833,-34.7062,Q,Q
2023-03-15 14:07:22:935,0,0.759129,-5.49267,-34.4727,Q,Q
2023-03-15 14:07:22:946,0,0.750549,-5.4995,-34.235,Q,Q
2023-03-15 14:07:22:956,0,0.736416,-5.51132,-33.9987,Q,Q
2023-03-15 14:07:22:965,0,0.718986,-5.52269,-33.7659,Q,Q
2023-03-15 14:07:22:975,0,0.689132,-5.53343,-33.5355,Q,Q
2023-03-15 14:07:22:985,0,0.661402,-5.54939,-33.3113,Q,Q
2023-03-15 14:07:22:995,0,0.624929,-5.57304,-33.0856,Q,Q
2023-03-15 14:07:23:5,0,0.574989,-5.60986,-32.8581,Q,Q
2023-03-15 14:07:23:15,0,0.521846,-5.64603,-32.6326,Q,Q
2023-03-15 14:07:23:25,0,0.479624,-5.67962,-32.414,Q,Q
2023-03-15 14:07:23:35,0,0.452387,-5.70365,-32.1992,Q,Q
2023-03-15 14:07:23:45,0,0.429084,-5.72401,-31.9816,Q,Q
2023-03-15 14:07:23:55,0,0.403307,-5.74373,-31.7663,Q,Q
2023-03-15 14:07:23:68,0,0.377153,-5.76471,-31.5562,Q,Q
2023-03-15 14:07:23:75,0,0.358936,-5.78489,-31.3499,Q,Q
2023-03-15 14:07:23:85,0,0.35522,-5.8032,-31.1599,Q,Q
2023-03-15 14:07:23:95,0,0.35956,-5.8271,-30.9662,Q,Q
2023-03-15 14:07:23:105,0,0.361348,-5.85205,-30.7732,Q,Q
2023-03-15 14:07:23:115,0,0.35584,-5.87511,-30.5897,Q,Q
2023-03-15 14:07:23:126,0,0.351249,-5.88793,-30.4136,Q,Q
2023-03-15 14:07:23:136,0,0.343956,-5.89907,-30.2459,Q,Q
2023-03-15 14:07:23:146,0,0.33488,-5.91041,-30.0842,Q,Q
2023-03-15 14:07:23:156,0,0.333307,-5.92355,-29.9325,Q,Q
2023-03-15 14:07:23:166,0,0.339502,-5.93421,-29.7887,Q,Q
2023-03-15 14:07:23:176,0,0.356403,-5.95288,-29.6515,Q,Q
2023-03-15 14:07:23:186,0,0.373255,-5.97313,-29.5226,Q,Q
2023-03-15 14:07:23:195,0,0.387324,-5.99198,-29.4009,Q,Q
2023-03-15 14:07:23:206,0,0.397437,-6.01313,-29.2923,Q,Q
2023-03-15 14:07:23:215,0,0.400474,-6.03624,-29.1944,Q,Q
2023-03-15 14:07:23:226,0,0.38644,-6.06504,-29.1118,Q,Q
2023-03-15 14:07:23:236,0,0.363761,-6.09051,-29.0483,Q,Q
2023-03-15 14:07:23:245,0,0.352033,-6.1235,-28.9936,Q,Q
2023-03-15 14:07:23:256,0,0.362839,-6.16049,-28.9409,Q,Q
2023-03-15 14:07:23:265,0,0.389145,-6.21181,-28.8928,Q,Q
2023-03-15 14:07:23:275,0,0.409535,-6.27659,-28.8499,Q,Q
2023-03-15 14:07:23:286,0,0.416718,-6.33864,-28.8163,Q,Q
2023-03-15 14:07:23:296,0,0.408685,-6.39646,-28.8032,Q,Q
2023-03-15 14:07:23:306,0,0.384789,-6.44689,-28.8098,Q,Q
2023-03-15 14:07:23:316,0,0.3397,-6.49069,-28.8306,Q,Q
2023-03-15 14:07:23:326,0,0.274903,-6.5273,-28.8724,Q,Q
2023-03-15 14:07:23:336,0,0.200524,-6.55408,-28.9281,Q,Q
2023-03-15 14:07:23:346,0,0.126707,-6.57713,-28.9923,Q,Q
2023-03-15 14:07:23:356,0,0.0645297,-6.59474,-29.0628,Q,Q
2023-03-15 14:07:23:366,0,0.0170388,-6.61558,-29.1396,Q,Q
2023-03-15 14:07:23:376,0,-0.0209952,-6.63665,-29.2231,Q,Q
2023-03-15 14:07:23:386,0,-0.0485601,-6.65568,-29.3134,Q,Q
2023-03-15 14:07:23:396,0,-0.0734053,-6.67645,-29.4097,Q,Q
2023-03-15 14:07:23:406,0,-0.093739,-6.70057,-29.5142,Q,Q
2023-03-15 14:07:23:416,0,-0.121671,-6.7239,-29.6302,Q,Q
2023-03-15 14:07:23:426,0,-0.165028,-6.74807,-29.7559,Q,Q
2023-03-15 14:07:23:436,0,-0.220835,-6.77427,-29.8928,Q,Q
2023-03-15 14:07:23:446,0,-0.274651,-6.79294,-30.0414,Q,Q
2023-03-15 14:07:23:455,0,-0.318026,-6.81009,-30.1963,Q,Q
2023-03-15 14:07:23:465,0,-0.344121,-6.82267,-30.3586,Q,Q
2023-03-15 14:07:23:476,0,-0.350565,-6.83542,-30.5194,Q,Q
2023-03-15 14:07:23:486,0,-0.335359,-6.84699,-30.6778,Q,Q
2023-03-15 14:07:23:496,0,-0.314715,-6.86592,-30.8286,Q,Q
2023-03-15 14:07:23:506,0,-0.300209,-6.88964,-30.9759,Q,Q
2023-03-15 14:07:23:516,0,-0.304935,-6.91634,-31.1263,Q,Q
2023-03-15 14:07:23:526,0,-0.329313,-6.94121,-31.2782,Q,Q
2023-03-15 14:07:23:536,0,-0.369195,-6.96511,-31.4327,Q,Q
2023-03-15 14:07:23:546,0,-0.43015,-6.98433,-31.5841,Q,Q
2023-03-15 14:07:23:556,0,-0.497576,-6.99196,-31.7401,Q,Q
2023-03-15 14:07:23:566,0,-0.580356,-6.9967,-31.8917,Q,Q
2023-03-15 14:07:23:575,0,-0.664856,-6.99359,-32.0455,Q,Q
2023-03-15 14:07:23:586,0,-0.75099,-6.98378,-32.2035,Q,Q
2023-03-15 14:07:23:596,0,-0.819668,-6.96688,-32.3531,Q,Q
2023-03-15 14:07:23:606,0,-0.876316,-6.9402,-32.4932,Q,Q
2023-03-15 14:07:23:616,0,-0.923242,-6.90718,-32.6292,Q,Q
2023-03-15 14:07:23:626,0,-0.968936,-6.86661,-32.7653,Q,Q
2023-03-15 14:07:23:636,0,-1.02957,-6.82011,-32.8991,Q,Q
2023-03-15 14:07:23:646,0,-1.09486,-6.77011,-33.0297,Q,Q
2023-03-15 14:07:23:656,0,-1.15594,-6.7137,-33.1577,Q,Q
2023-03-15 14:07:23:666,0,-1.21423,-6.65601,-33.2756,Q,Q
2023-03-15 14:07:23:676,0,-1.25937,-6.59719,-33.385,Q,Q
2023-03-15 14:07:23:686,0,-1.27728,-6.54907,-33.4808,Q,Q
2023-03-15 14:07:23:696,0,-1.26798,-6.5036,-33.562,Q,Q
2023-03-15 14:07:23:706,0,-1.23523,-6.4589,-33.6275,Q,Q
2023-03-15 14:07:23:716,0,-1.17838,-6.40801,-33.6742,Q,Q
2023-03-15 14:07:23:726,0,-1.11389,-6.35623,-33.7122,Q,Q
2023-03-15 14:07:23:736,0,-1.05438,-6.30092,-33.7361,Q,Q
2023-03-15 14:07:23:746,0,-1.00915,-6.24498,-33.7468,Q,Q
2023-03-15 14:07:23:756,0,-0.984106,-6.18419,-33.7547,Q,Q
2023-03-15 14:07:23:766,0,-0.958002,-6.10541,-33.762,Q,Q
2023-03-15 14:07:23:776,0,-0.915969,-6.02103,-33.7637,Q,Q
2023-03-15 14:07:23:786,0,-0.846588,-5.94205,-33.7465,Q,Q
2023-03-15 14:07:23:796,0,-0.750554,-5.87175,-33.7056,Q,Q
2023-03-15 14:07:23:806,0,-0.630373,-5.80951,-33.6448,Q,Q
2023-03-15 14:07:23:816,0,-0.493481,-5.75235,-33.5584,Q,Q
2023-03-15 14:07:23:826,0,-0.354727,-5.69109,-33.4656,Q,Q
2023-03-15 14:07:23:836,0,-0.227604,-5.62712,-33.3739,Q,Q
2023-03-15 14:07:23:846,0,-0.134132,-5.55811,-33.2852,Q,Q
2023-03-15 14:07:23:856,0,-0.0774109,-5.50155,-33.2018,Q,Q
2023-03-15 14:07:23:866,0,-0.057043,-5.45774,-33.1304,Q,Q
2023-03-15 14:07:23:876,0,-0.0574724,-5.42395,-33.0722,Q,Q
2023-03-15 14:07:23:886,0,-0.0633854,-5.40372,-33.0228,Q,Q
2023-03-15 14:07:23:896,0,-0.0634702,-5.39414,-32.9761,Q,Q
2023-03-15 14:07:23:906,0,-0.0388065,-5.3903,-32.9288,Q,Q
2023-03-15 14:07:23:916,0,0.00703701,-5.40591,-32.8762,Q,Q
2023-03-15 14:07:23:926,0,0.0651402,-5.4268,-32.818,Q,Q
2023-03-15 14:07:23:936,0,0.117736,-5.44828,-32.7485,Q,Q
2023-03-15 14:07:23:946,0,0.160287,-5.4753,-32.6711,Q,Q
2023-03-15 14:07:23:956,0,0.189936,-5.5009,-32.5844,Q,Q
2023-03-15 14:07:23:966,0,0.208603,-5.52411,-32.4932,Q,Q
2023-03-15 14:07:23:976,0,0.225365,-5.54055,-32.3969,Q,Q
2023-03-15 14:07:23:986,0,0.245018,-5.54817,-32.2956,Q,Q
2023-03-15 14:07:23:996,0,0.260103,-5.5491,-32.1847,Q,Q
2023-03-15 14:07:24:6,0,0.269704,-5.54292,-32.069,Q,Q
2023-03-15 14:07:24:16,0,0.280645,-5.5366,-31.9514,Q,Q
2023-03-15 14:07:24:26,0,0.280035,-5.5226,-31.8269,Q,Q
2023-03-15 14:07:24:36,0,0.276408,-5.51271,-31.7028,Q,Q
2023-03-15 14:07:24:46,0,0.263736,-5.50429,-31.58,Q,Q
2023-03-15 14:07:24:56,0,0.239226,-5.50398,-31.4586,Q,Q
2023-03-15 14:07:24:65,0,0.20197,-5.50228,-31.3444,Q,Q
2023-03-15 14:07:24:75,0,0.163136,-5.50463,-31.2384,Q,Q
2023-03-15 14:07:24:85,0,0.126514,-5.51075,-31.1455,Q,Q
2023-03-15 14:07:24:95,0,0.0846575,-5.52555,-31.0622,Q,Q
2023-03-15 14:07:24:105,0,0.038032,-5.53812,-30.9911,Q,Q
2023-03-15 14:07:24:115,0,-0.00878276,-5.54631,-30.9406,Q,Q
2023-03-15 14:07:24:126,0,-0.0462697,-5.54998,-30.9039,Q,Q
2023-03-15 14:07:24:136,0,-0.077488,-5.55084,-30.8828,Q,Q
2023-03-15 14:07:24:145,0,-0.103511,-5.54708,-30.8741,Q,Q
2023-03-15 14:07:24:156,0,-0.13387,-5.54336,-30.8769,Q,Q
2023-03-15 14:07:24:166,0,-0.169039,-5.54235,-30.8895,Q,Q
2023-03-15 14:07:24:176,0,-0.209518,-5.54402,-30.9163,Q,Q
2023-03-15 14:07:24:185,0,-0.256408,-5.5511,-30.954,Q,Q
2023-03-15 14:07:24:196,0,-0.310923,-5.5602,-31.0009,Q,Q
2023-03-15 14:07:24:206,0,-0.370519,-5.5638,-31.055,Q,Q
2023-03-15 14:07:24:216,0,-0.425646,-5.56743,-31.1217,Q,Q
2023-03-15 14:07:24:226,0,-0.484817,-5.56658,-31.1953,Q,Q
2023-03-15 14:07:24:236,0,-0.539036,-5.55819,-31.2744,Q,Q
2023-03-15 14:07:24:246,0,-0.589243,-5.54689,-31.3539,Q,Q
2023-03-15 14:07:24:256,0,-0.636542,-5.53171,-31.4318,Q,Q
2023-03-15 14:07:24:266,0,-0.675415,-5.51495,-31.5088,Q,Q
2023-03-15 14:07:24:276,0,-0.713084,-5.49757,-31.5872,Q,Q
2023-03-15 14:07:24:286,0,-0.747241,-5.47628,-31.6597,Q,Q
2023-03-15 14:07:24:296,0,-0.782926,-5.45284,-31.729,Q,Q
2023-03-15 14:07:24:306,0,-0.812496,-5.42549,-31.7932,Q,Q
2023-03-15 14:07:24:316,0,-0.838746,-5.39984,-31.8487,Q,Q
2023-03-15 14:07:24:326,0,-0.858652,-5.37541,-31.8941,Q,Q
2023-03-15 14:07:24:336,0,-0.862884,-5.35589,-31.932,Q,Q
2023-03-15 14:07:24:346,0,-0.859544,-5.34288,-31.9621,Q,Q
2023-03-15 14:07:24:356,0,-0.853619,-5.33073,-31.9829,Q,Q
2023-03-15 14:07:24:366,0,-0.847364,-5.32263,-31.996,Q,Q
2023-03-15 14:07:24:376,0,-0.843197,-5.31571,-31.9953,Q,Q
2023-03-15 14:07:24:385,0,-0.837322,-5.31366,-31.9853,Q,Q
2023-03-15 14:07:24:395,0,-0.835421,-5.31236,-31.971,Q,Q
2023-03-15 14:07:24:406,0,-0.834617,-5.30704,-31.9484,Q,Q
2023-03-15 14:07:24:416,0,-0.835186,-5.30457,-31.9174,Q,Q
2023-03-15 14:07:24:426,0,-0.840034,-5.30126,-31.8817,Q,Q
2023-03-15 14:07:24:436,0,-0.850758,-5.30001,-31.8393,Q,Q
2023-03-15 14:07:24:446,0,-0.863088,-5.29884,-31.7964,Q,Q
2023-03-15 14:07:24:456,0,-0.878304,-5.29735,-31.749,Q,Q
2023-03-15 14:07:24:466,0,-0.895369,-5.29441,-31.704,Q,Q
2023-03-15 14:07:24:476,0,-0.90954,-5.30006,-31.6563,Q,Q
2023-03-15 14:07:24:486,0,-0.930585,-5.31396,-31.6045,Q,Q
2023-03-15 14:07:24:496,0,-0.960965,-5.32806,-31.5563,Q,Q
2023-03-15 14:07:24:506,0,-0.988218,-5.33823,-31.5091,Q,Q
2023-03-15 14:07:24:516,0,-1.00892,-5.34261,-31.4683,Q,Q
2023-03-15 14:07:24:526,0,-1.02201,-5.34487,-31.4261,Q,Q
2023-03-15 14:07:24:536,0,-1.03874,-5.35068,-31.3852,Q,Q
2023-03-15 14:07:24:546,0,-1.0578,-5.35356,-31.3422,Q,Q
2023-03-15 14:07:24:556,0,-1.07583,-5.35742,-31.3051,Q,Q
2023-03-15 14:07:24:566,0,-1.09715,-5.36258,-31.2677,Q,Q
2023-03-15 14:07:24:576,0,-1.11759,-5.3721,-31.235,Q,Q
2023-03-15 14:07:24:586,0,-1.14212,-5.37952,-31.2053,Q,Q
2023-03-15 14:07:24:595,0,-1.15931,-5.38269,-31.1732,Q,Q
2023-03-15 14:07:24:605,0,-1.16583,-5.38172,-31.1403,Q,Q
2023-03-15 14:07:24:615,0,-1.16205,-5.38317,-31.1067,Q,Q
2023-03-15 14:07:24:626,0,-1.16415,-5.38063,-31.0704,Q,Q
2023-03-15 14:07:24:636,0,-1.17081,-5.37616,-31.0288,Q,Q
2023-03-15 14:07:24:646,0,-1.17358,-5.37156,-30.9885,Q,Q
2023-03-15 14:07:24:656,0,-1.17577,-5.36422,-30.9503,Q,Q
2023-03-15 14:07:24:666,0,-1.1775,-5.35231,-30.9029,Q,Q
2023-03-15 14:07:24:676,0,-1.18115,-5.34022,-30.8539,Q,Q
2023-03-15 14:07:24:686,0,-1.18496,-5.3326,-30.7977,Q,Q
2023-03-15 14:07:24:696,0,-1.18518,-5.32562,-30.7354,Q,Q
2023-03-15 14:07:24:706,0,-1.18613,-5.31432,-30.6683,Q,Q
2023-03-15 14:07:24:716,0,-1.18244,-5.30091,-30.5977,Q,Q
2023-03-15 14:07:24:726,0,-1.18166,-5.28324,-30.5232,Q,Q
2023-03-15 14:07:24:736,0,-1.18191,-5.27053,-30.4469,Q,Q
2023-03-15 14:07:24:746,0,-1.17795,-5.26479,-30.3641,Q,Q
2023-03-15 14:07:24:756,0,-1.17714,-5.26333,-30.276,Q,Q
2023-03-15 14:07:24:766,0,-1.17833,-5.26492,-30.192,Q,Q
2023-03-15 14:07:24:776,0,-1.17772,-5.2656,-30.1025,Q,Q
2023-03-15 14:07:24:786,0,-1.17121,-5.26916,-30.0128,Q,Q
2023-03-15 14:07:24:796,0,-1.16201,-5.27789,-29.9198,Q,Q
2023-03-15 14:07:24:806,0,-1.15236,-5.28883,-29.825,Q,Q
2023-03-15 14:07:24:816,0,-1.14414,-5.2974,-29.7332,Q,Q
2023-03-15 14:07:24:826,0,-1.1369,-5.30805,-29.6357,Q,Q
2023-03-15 14:07:24:836,0,-1.12731,-5.31996,-29.534,Q,Q
2023-03-15 14:07:24:846,0,-1.11593,-5.3328,-29.4364,Q,Q
2023-03-15 14:07:24:856,0,-1.10308,-5.34676,-29.336,Q,Q
2023-03-15 14:07:24:866,0,-1.09393,-5.36129,-29.2358,Q,Q
2023-03-15 14:07:24:876,0,-1.08085,-5.37123,-29.1352,Q,Q
2023-03-15 14:07:24:886,0,-1.07306,-5.37914,-29.0368,Q,Q
2023-03-15 14:07:24:896,0,-1.06525,-5.38836,-28.9372,Q,Q
2023-03-15 14:07:24:906,0,-1.06158,-5.40065,-28.8408,Q,Q
2023-03-15 14:07:24:916,0,-1.05675,-5.40878,-28.7476,Q,Q
2023-03-15 14:07:24:926,0,-1.04684,-5.41581,-28.6593,Q,Q
2023-03-15 14:07:24:936,0,-1.0307,-5.42577,-28.5668,Q,Q
2023-03-15 14:07:24:945,0,-1.01224,-5.43301,-28.4713,Q,Q
2023-03-15 14:07:24:955,0,-0.990651,-5.4461,-28.3755,Q,Q
2023-03-15 14:07:24:966,0,-0.96969,-5.46173,-28.2768,Q,Q
2023-03-15 14:07:24:976,0,-0.94747,-5.47782,-28.1727,Q,Q
2023-03-15 14:07:24:986,0,-0.923012,-5.49027,-28.0689,Q,Q
2023-03-15 14:07:24:996,0,-0.900447,-5.50783,-27.9616,Q,Q
2023-03-15 14:07:25:6,0,-0.88007,-5.52402,-27.8586,Q,Q
2023-03-15 14:07:25:16,0,-0.862287,-5.54516,-27.7557,Q,Q
2023-03-15 14:07:25:26,0,-0.844869,-5.56468,-27.6541,Q,Q
2023-03-15 14:07:25:36,0,-0.832222,-5.58524,-27.5487,Q,Q
2023-03-15 14:07:25:46,0,-0.815919,-5.61194,-27.4525,Q,Q
2023-03-15 14:07:25:56,0,-0.801248,-5.63802,-27.3569,Q,Q
2023-03-15 14:07:25:66,0,-0.791629,-5.66489,-27.2612,Q,Q
2023-03-15 14:07:25:76,0,-0.784536,-5.69634,-27.1681,Q,Q
2023-03-15 14:07:25:86,0,-0.771517,-5.72739,-27.0746,Q,Q
2023-03-15 14:07:25:96,0,-0.756598,-5.75779,-26.9877,Q,Q
2023-03-15 14:07:25:105,0,-0.742472,-5.79105,-26.8948,Q,Q
2023-03-15 14:07:25:115,0,-0.722615,-5.82778,-26.8048,Q,Q
2023-03-15 14:07:25:126,0,-0.694184,-5.8637,-26.7174,Q,Q
2023-03-15 14:07:25:136,0,-0.653931,-5.89155,-26.6223,Q,Q
2023-03-15 14:07:25:146,0,-0.59568,-5.92101,-26.5238,Q,Q
2023-03-15 14:07:25:156,0,-0.52866,-5.94858,-26.4155,Q,Q
2023-03-15 14:07:25:166,0,-0.458184,-5.97164,-26.3005,Q,Q
2023-03-15 14:07:25:176,0,-0.371728,-5.99345,-26.1789,Q,Q
2023-03-15 14:07:25:186,0,-0.27176,-6.01373,-26.0532,Q,Q
2023-03-15 14:07:25:196,0,-0.1588,-6.03644,-25.9183,Q,Q
2023-03-15 14:07:25:206,0,-0.0368802,-6.06361,-25.7777,Q,Q
2023-03-15 14:07:25:216,0,0.0865447,-6.09033,-25.6261,Q,Q
2023-03-15 14:07:25:226,0,0.211571,-6.11544,-25.4678,Q,Q
2023-03-15 14:07:25:236,0,0.332869,-6.13678,-25.3004,Q,Q
2023-03-15 14:07:25:246,0,0.456549,-6.15858,-25.1347,Q,Q
2023-03-15 14:07:25:256,0,0.576343,-6.1787,-24.9695,Q,Q
2023-03-15 14:07:25:266,0,0.690348,-6.19329,-24.799,Q,Q
2023-03-15 14:07:25:276,0,0.798583,-6.21226,-24.6261,Q,Q
2023-03-15 14:07:25:286,0,0.908342,-6.23269,-24.4592,Q,Q
2023-03-15 14:07:25:296,0,1.01494,-6.24933,-24.2992,Q,Q
2023-03-15 14:07:25:306,0,1.11341,-6.26616,-24.1444,Q,Q
2023-03-15 14:07:25:316,0,1.19379,-6.28436,-23.9898,Q,Q
2023-03-15 14:07:25:326,0,1.26382,-6.30667,-23.8441,Q,Q
2023-03-15 14:07:25:336,0,1.32998,-6.32661,-23.7093,Q,Q
2023-03-15 14:07:25:346,0,1.39761,-6.34411,-23.5869,Q,Q
2023-03-15 14:07:25:356,0,1.46494,-6.36022,-23.4755,Q,Q
2023-03-15 14:07:25:366,0,1.53552,-6.3751,-23.3695,Q,Q
2023-03-15 14:07:25:376,0,1.60403,-6.39097,-23.2693,Q,Q
2023-03-15 14:07:25:385,0,1.67511,-6.4083,-23.1739,Q,Q
2023-03-15 14:07:25:396,0,1.75065,-6.42513,-23.075,Q,Q
2023-03-15 14:07:25:406,0,1.82617,-6.43894,-22.9794,Q,Q
2023-03-15 14:07:25:416,0,1.90559,-6.45659,-22.8897,Q,Q
2023-03-15 14:07:25:426,0,1.98252,-6.46825,-22.8013,Q,Q
2023-03-15 14:07:25:436,0,2.05714,-6.48101,-22.7158,Q,Q
2023-03-15 14:07:25:446,0,2.12973,-6.49805,-22.6326,Q,Q
2023-03-15 14:07:25:456,0,2.19184,-6.51082,-22.5495,Q,Q
2023-03-15 14:07:25:466,0,2.25011,-6.52888,-22.4666,Q,Q
2023-03-15 14:07:25:476,0,2.3056,-6.54992,-22.386,Q,Q
2023-03-15 14:07:25:486,0,2.35201,-6.57194,-22.3038,Q,Q
2023-03-15 14:07:25:496,0,2.3935,-6.59843,-22.2229,Q,Q
2023-03-15 14:07:25:506,0,2.42783,-6.62552,-22.1438,Q,Q
2023-03-15 14:07:25:516,0,2.45939,-6.65495,-22.0662,Q,Q
2023-03-15 14:07:25:526,0,2.48443,-6.6792,-21.9908,Q,Q
2023-03-15 14:07:25:536,0,2.5106,-6.70511,-21.9137,Q,Q
2023-03-15 14:07:25:546,0,2.52952,-6.73045,-21.8399,Q,Q
2023-03-15 14:07:25:556,0,2.54745,-6.75462,-21.7711,Q,Q
2023-03-15 14:07:25:566,0,2.56295,-6.77739,-21.7049,Q,Q
2023-03-15 14:07:25:576,0,2.57303,-6.80171,-21.6412,Q,Q
2023-03-15 14:07:25:586,0,2.58034,-6.8259,-21.5805,Q,Q
2023-03-15 14:07:25:596,0,2.58524,-6.85387,-21.52,Q,Q
2023-03-15 14:07:25:606,0,2.58961,-6.88076,-21.4646,Q,Q
2023-03-15 14:07:25:616,0,2.60137,-6.906,-21.4058,Q,Q
2023-03-15 14:07:25:626,0,2.61009,-6.92909,-21.3533,Q,Q
2023-03-15 14:07:25:636,0,2.62015,-6.95148,-21.3017,Q,Q
2023-03-15 14:07:25:646,0,2.63198,-6.96862,-21.2491,Q,Q
2023-03-15 14:07:25:656,0,2.64512,-6.98262,-21.2002,Q,Q
2023-03-15 14:07:25:666,0,2.65386,-6.9961,-21.151,Q,Q
2023-03-15 14:07:25:676,0,2.65933,-7.00653,-21.1022,Q,Q
2023-03-15 14:07:25:686,0,2.66395,-7.01914,-21.0528,Q,Q
2023-03-15 14:07:25:695,0,2.66541,-7.02803,-21.0055,Q,Q
2023-03-15 14:07:25:705,0,2.66994,-7.03717,-20.9592,Q,Q
2023-03-15 14:07:25:715,0,2.67085,-7.04853,-20.9093,Q,Q
2023-03-15 14:07:25:725,0,2.67202,-7.06188,-20.858,Q,Q
2023-03-15 14:07:25:735,0,2.67489,-7.07816,-20.7987,Q,Q
2023-03-15 14:07:25:746,0,2.68278,-7.09622,-20.735,Q,Q
2023-03-15 14:07:25:756,0,2.69457,-7.11843,-20.6691,Q,Q
2023-03-15 14:07:25:766,0,2.71034,-7.14966,-20.5982,Q,Q
2023-03-15 14:07:25:776,0,2.72666,-7.18515,-20.5248,Q,Q
2023-03-15 14:07:25:786,0,2.74365,-7.22391,-20.4399,Q,Q
2023-03-15 14:07:25:796,0,2.7536,-7.26687,-20.3511,Q,Q
2023-03-15 14:07:25:806,0,2.76472,-7.31118,-20.2676,Q,Q
2023-03-15 14:07:25:816,0,2.7686,-7.35849,-20.1816,Q,Q
2023-03-15 14:07:25:826,0,2.77099,-7.40075,-20.096,Q,Q
2023-03-15 14:07:25:836,0,2.76661,-7.44891,-20.0132,Q,Q
2023-03-15 14:07:25:846,0,2.76261,-7.49104,-19.9304,Q,Q
2023-03-15 14:07:25:856,0,2.76046,-7.52716,-19.8451,Q,Q
2023-03-15 14:07:25:866,0,2.76128,-7.56456,-19.7608,Q,Q
2023-03-15 14:07:25:876,0,2.77079,-7.59946,-19.6751,Q,Q
2023-03-15 14:07:25:886,0,2.7821,-7.6292,-19.5897,Q,Q
2023-03-15 14:07:25:895,0,2.79837,-7.65677,-19.5015,Q,Q
2023-03-15 14:07:25:905,0,2.8118,-7.67775,-19.4155,Q,Q
2023-03-15 14:07:25:916,0,2.8284,-7.69724,-19.3289,Q,Q
2023-03-15 14:07:25:926,0,2.84602,-7.70823,-19.2483,Q,Q
2023-03-15 14:07:25:936,0,2.86407,-7.71111,-19.1673,Q,Q
2023-03-15 14:07:25:946,0,2.8841,-7.70531,-19.0885,Q,Q
2023-03-15 14:07:25:956,0,2.90275,-7.70216,-19.0127,Q,Q
2023-03-15 14:07:25:966,0,2.92323,-7.693,-18.9374,Q,Q
2023-03-15 14:07:25:976,0,2.94161,-7.68576,-18.866,Q,Q
2023-03-15 14:07:25:986,0,2.95977,-7.67541,-18.7984,Q,Q
2023-03-15 14:07:25:996,0,2.97765,-7.65943,-18.7367,Q,Q
2023-03-15 14:07:26:6,0,2.98664,-7.64003,-18.6801,Q,Q
2023-03-15 14:07:26:16,0,2.99067,-7.62016,-18.6328,Q,Q
2023-03-15 14:07:26:26,0,2.9891,-7.60079,-18.5911,Q,Q
2023-03-15 14:07:26:36,0,2.98974,-7.58132,-18.5485,Q,Q
2023-03-15 14:07:26:46,0,2.99563,-7.56824,-18.5082,Q,Q
2023-03-15 14:07:26:56,0,3.00562,-7.55854,-18.4662,Q,Q
2023-03-15 14:07:26:66,0,3.01879,-7.55306,-18.4283,Q,Q
2023-03-15 14:07:26:76,0,3.02265,-7.54708,-18.3883,Q,Q
2023-03-15 14:07:26:86,0,3.02104,-7.54263,-18.3565,Q,Q
2023-03-15 14:07:26:96,0,3.02335,-7.53488,-18.3247,Q,Q
2023-03-15 14:07:26:106,0,3.02517,-7.52724,-18.295,Q,Q
2023-03-15 14:07:26:116,0,3.02573,-7.51864,-18.2599,Q,Q
2023-03-15 14:07:26:126,0,3.0194,-7.50617,-18.2262,Q,Q
2023-03-15 14:07:26:136,0,3.01277,-7.49283,-18.1939,Q,Q
2023-03-15 14:07:26:145,0,3.00427,-7.47916,-18.16,Q,Q
2023-03-15 14:07:26:156,0,2.99725,-7.46488,-18.1293,Q,Q
2023-03-15 14:07:26:166,0,2.98631,-7.45308,-18.0992,Q,Q
2023-03-15 14:07:26:176,0,2.97629,-7.43984,-18.0652,Q,Q
2023-03-15 14:07:26:186,0,2.96436,-7.43061,-18.0314,Q,Q
2023-03-15 14:07:26:196,0,2.95153,-7.41912,-17.9939,Q,Q
2023-03-15 14:07:26:206,0,2.93957,-7.40871,-17.9584,Q,Q
2023-03-15 14:07:26:216,0,2.92874,-7.40265,-17.9224,Q,Q
2023-03-15 14:07:26:226,0,2.91639,-7.39482,-17.888,Q,Q
2023-03-15 14:07:26:236,0,2.90708,-7.38667,-17.8513,Q,Q
2023-03-15 14:07:26:246,0,2.89709,-7.37992,-17.8214,Q,Q
2023-03-15 14:07:26:256,0,2.88367,-7.37219,-17.7928,Q,Q
2023-03-15 14:07:26:266,0,2.87007,-7.36745,-17.764,Q,Q
2023-03-15 14:07:26:276,0,2.85304,-7.36315,-17.7325,Q,Q
2023-03-15 14:07:26:286,0,2.83772,-7.35713,-17.7056,Q,Q
2023-03-15 14:07:26:296,0,2.82964,-7.34522,-17.6753,Q,Q
2023-03-15 14:07:26:306,0,2.82684,-7.33157,-17.6459,Q,Q
2023-03-15 14:07:26:316,0,2.82799,-7.3176,-17.6127,Q,Q
2023-03-15 14:07:26:326,0,2.82856,-7.30232,-17.5819,Q,Q
2023-03-15 14:07:26:336,0,2.82985,-7.28489,-17.5472,Q,Q
2023-03-15 14:07:26:346,0,2.8341,-7.2707,-17.5133,Q,Q
2023-03-15 14:07:26:356,0,2.82654,-7.25016,-17.4803,Q,Q
2023-03-15 14:07:26:366,0,2.82493,-7.2285,-17.4525,Q,Q
2023-03-15 14:07:26:376,0,2.82368,-7.2064,-17.4217,Q,Q
2023-03-15 14:07:26:386,0,2.8221,-7.18403,-17.3931,Q,Q
2023-03-15 14:07:26:396,0,2.81854,-7.15933,-17.3695,Q,Q
2023-03-15 14:07:26:405,0,2.80942,-7.13592,-17.3493,Q,Q
2023-03-15 14:07:26:415,0,2.79536,-7.11149,-17.3344,Q,Q
2023-03-15 14:07:26:426,0,2.77538,-7.08843,-17.3243,Q,Q
2023-03-15 14:07:26:436,0,2.7576,-7.06789,-17.3177,Q,Q
2023-03-15 14:07:26:445,0,2.74768,-7.0422,-17.3137,Q,Q
2023-03-15 14:07:26:456,0,2.74366,-7.02098,-17.3155,Q,Q
2023-03-15 14:07:26:466,0,2.74042,-7.00934,-17.32,Q,Q
2023-03-15 14:07:26:475,0,2.73594,-7.00018,-17.327,Q,Q
2023-03-15 14:07:26:486,0,2.73599,-6.99652,-17.3369,Q,Q
2023-03-15 14:07:26:496,0,2.73922,-6.99844,-17.3487,Q,Q
2023-03-15 14:07:26:506,0,2.75057,-7.0019,-17.3573,Q,Q
2023-03-15 14:07:26:516,0,2.7684,-7.00634,-17.3643,Q,Q
2023-03-15 14:07:26:526,0,2.79113,-7.0136,-17.3687,Q,Q
2023-03-15 14:07:26:536,0,2.81921,-7.01876,-17.3701,Q,Q
2023-03-15 14:07:26:546,0,2.84675,-7.0266,-17.3683,Q,Q
2023-03-15 14:07:26:556,0,2.86996,-7.03062,-17.3618,Q,Q
2023-03-15 14:07:26:566,0,2.89527,-7.03807,-17.3519,Q,Q
2023-03-15 14:07:26:576,0,2.92116,-7.03921,-17.3402,Q,Q
2023-03-15 14:07:26:586,0,2.94952,-7.03651,-17.325,Q,Q
2023-03-15 14:07:26:596,0,2.97588,-7.03247,-17.3104,Q,Q
2023-03-15 14:07:26:606,0,2.99622,-7.02645,-17.2926,Q,Q
2023-03-15 14:07:26:616,0,3.00998,-7.0169,-17.2714,Q,Q
2023-03-15 14:07:26:626,0,3.00798,-7.00284,-17.2495,Q,Q
2023-03-15 14:07:26:636,0,2.9887,-6.98562,-17.2306,Q,Q
2023-03-15 14:07:26:646,0,2.95789,-6.96509,-17.2095,Q,Q
2023-03-15 14:07:26:656,0,2.92535,-6.94905,-17.1945,Q,Q
2023-03-15 14:07:26:666,0,2.87989,-6.93599,-17.1776,Q,Q
2023-03-15 14:07:26:676,0,2.82985,-6.93016,-17.1641,Q,Q
2023-03-15 14:07:26:686,0,2.78089,-6.92681,-17.1537,Q,Q
2023-03-15 14:07:26:696,0,2.7417,-6.92434,-17.1416,Q,Q
2023-03-15 14:07:26:706,0,2.71153,-6.92463,-17.1305,Q,Q
2023-03-15 14:07:26:716,0,2.68749,-6.92029,-17.1227,Q,Q
2023-03-15 14:07:26:726,0,2.6737,-6.9134,-17.119,Q,Q
2023-03-15 14:07:26:736,0,2.67621,-6.90607,-17.1121,Q,Q
2023-03-15 14:07:26:746,0,2.6892,-6.90082,-17.1018,Q,Q
2023-03-15 14:07:26:756,0,2.70442,-6.89887,-17.0883,Q,Q
2023-03-15 14:07:26:766,0,2.728,-6.90161,-17.0697,Q,Q
2023-03-15 14:07:26:776,0,2.75463,-6.91003,-17.0476,Q,Q
2023-03-15 14:07:26:786,0,2.78243,-6.9186,-17.0193,Q,Q
2023-03-15 14:07:26:796,0,2.81412,-6.929,-16.9932,Q,Q
2023-03-15 14:07:26:806,0,2.84709,-6.93746,-16.9691,Q,Q
2023-03-15 14:07:26:816,0,2.87392,-6.94167,-16.9447,Q,Q
2023-03-15 14:07:26:826,0,2.8942,-6.94954,-16.9253,Q,Q
2023-03-15 14:07:26:836,0,2.9037,-6.95386,-16.9093,Q,Q
2023-03-15 14:07:26:846,0,2.89263,-6.95349,-16.8944,Q,Q
2023-03-15 14:07:26:856,0,2.8654,-6.9552,-16.8857,Q,Q
2023-03-15 14:07:26:866,0,2.82862,-6.9689,-16.8866,Q,Q
2023-03-15 14:07:26:876,0,2.78701,-6.98224,-16.8938,Q,Q
2023-03-15 14:07:26:886,0,2.75224,-6.9996,-16.9109,Q,Q
2023-03-15 14:07:26:896,0,2.7309,-7.01447,-16.9371,Q,Q
2023-03-15 14:07:26:906,0,2.73035,-7.02973,-16.9721,Q,Q
2023-03-15 14:07:26:915,0,2.74604,-7.04374,-17.009,Q,Q
2023-03-15 14:07:26:925,0,2.76917,-7.04727,-17.0497,Q,Q
2023-03-15 14:07:26:936,0,2.79674,-7.0505,-17.0962,Q,Q
2023-03-15 14:07:26:946,0,2.82319,-7.04863,-17.1366,Q,Q
2023-03-15 14:07:26:956,0,2.84975,-7.0345,-17.168,Q,Q
2023-03-15 14:07:26:966,0,2.88557,-7.01532,-17.198,Q,Q
2023-03-15 14:07:26:976,0,2.92526,-6.99677,-17.2233,Q,Q
2023-03-15 14:07:26:986,0,2.96331,-6.97101,-17.2408,Q,Q
2023-03-15 14:07:26:996,0,2.99728,-6.93818,-17.2559,Q,Q
2023-03-15 14:07:27:6,0,3.0245,-6.90197,-17.271,Q,Q
2023-03-15 14:07:27:16,0,3.04546,-6.86092,-17.2833,Q,Q
2023-03-15 14:07:27:26,0,3.05035,-6.81935,-17.2908,Q,Q
2023-03-15 14:07:27:36,0,3.03981,-6.77556,-17.2995,Q,Q
2023-03-15 14:07:27:46,0,3.01389,-6.73045,-17.3122,Q,Q
2023-03-15 14:07:27:56,0,2.98597,-6.68858,-17.3286,Q,Q
2023-03-15 14:07:27:66,0,2.95644,-6.64896,-17.344,Q,Q
2023-03-15 14:07:27:76,0,2.92072,-6.61472,-17.3672,Q,Q
2023-03-15 14:07:27:86,0,2.88085,-6.58363,-17.3922,Q,Q
2023-03-15 14:07:27:96,0,2.83894,-6.55185,-17.4178,Q,Q
2023-03-15 14:07:27:106,0,2.80068,-6.52201,-17.4446,Q,Q
2023-03-15 14:07:27:116,0,2.76584,-6.49107,-17.4719,Q,Q
2023-03-15 14:07:27:126,0,2.73195,-6.45457,-17.4973,Q,Q
2023-03-15 14:07:27:136,0,2.69656,-6.42379,-17.5189,Q,Q
2023-03-15 14:07:27:146,0,2.66181,-6.3967,-17.5367,Q,Q
2023-03-15 14:07:27:156,0,2.62696,-6.37886,-17.5527,Q,Q
2023-03-15 14:07:27:166,0,2.59163,-6.37179,-17.5633,Q,Q
2023-03-15 14:07:27:176,0,2.55216,-6.37135,-17.5738,Q,Q
2023-03-15 14:07:27:186,0,2.51632,-6.36945,-17.5809,Q,Q
2023-03-15 14:07:27:196,0,2.49699,-6.36614,-17.5877,Q,Q
2023-03-15 14:07:27:206,0,2.48884,-6.3678,-17.5934,Q,Q
2023-03-15 14:07:27:216,0,2.48394,-6.37012,-17.5967,Q,Q
2023-03-15 14:07:27:226,0,2.48049,-6.37152,-17.6036,Q,Q
2023-03-15 14:07:27:236,0,2.47683,-6.37233,-17.6088,Q,Q
2023-03-15 14:07:27:246,0,2.47717,-6.37894,-17.6117,Q,Q
2023-03-15 14:07:27:256,0,2.47956,-6.38147,-17.6138,Q,Q
2023-03-15 14:07:27:266,0,2.4816,-6.39212,-17.616,Q,Q
2023-03-15 14:07:27:276,0,2.48532,-6.40186,-17.622,Q,Q
2023-03-15 14:07:27:286,0,2.49062,-6.41211,-17.6281,Q,Q
2023-03-15 14:07:27:296,0,2.49465,-6.42702,-17.6362,Q,Q
2023-03-15 14:07:27:306,0,2.50205,-6.43952,-17.6472,Q,Q
2023-03-15 14:07:27:316,0,2.5089,-6.45437,-17.659,Q,Q
2023-03-15 14:07:27:326,0,2.51481,-6.47278,-17.6736,Q,Q
2023-03-15 14:07:27:336,0,2.52515,-6.49415,-17.6883,Q,Q
2023-03-15 14:07:27:346,0,2.53202,-6.51533,-17.707,Q,Q
2023-03-15 14:07:27:356,0,2.53507,-6.53623,-17.724,Q,Q
2023-03-15 14:07:27:366,0,2.54309,-6.55752,-17.7479,Q,Q
2023-03-15 14:07:27:376,0,2.54871,-6.5801,-17.7698,Q,Q
2023-03-15 14:07:27:386,0,2.56272,-6.60185,-17.7977,Q,Q
2023-03-15 14:07:27:396,0,2.57429,-6.62459,-17.8331,Q,Q
2023-03-15 14:07:27:406,0,2.58249,-6.64815,-17.8695,Q,Q
2023-03-15 14:07:27:415,0,2.5932,-6.67068,-17.9078,Q,Q
2023-03-15 14:07:27:426,0,2.60609,-6.69309,-17.949,Q,Q
2023-03-15 14:07:27:436,0,2.62679,-6.71352,-17.9933,Q,Q
2023-03-15 14:07:27:446,0,2.65367,-6.74104,-18.0374,Q,Q
2023-03-15 14:07:27:456,0,2.68894,-6.76749,-18.0851,Q,Q
2023-03-15 14:07:27:466,0,2.72722,-6.79713,-18.1294,Q,Q
2023-03-15 14:07:27:476,0,2.77505,-6.82639,-18.1733,Q,Q
2023-03-15 14:07:27:486,0,2.82186,-6.84592,-18.2157,Q,Q
2023-03-15 14:07:27:496,0,2.88584,-6.85652,-18.2651,Q,Q
2023-03-15 14:07:27:506,0,2.95868,-6.86508,-18.3182,Q,Q
2023-03-15 14:07:27:516,0,3.03232,-6.87358,-18.3763,Q,Q
2023-03-15 14:07:27:526,0,3.10327,-6.88863,-18.4353,Q,Q
2023-03-15 14:07:27:536,0,3.17451,-6.90575,-18.4983,Q,Q
2023-03-15 14:07:27:546,0,3.24993,-6.92315,-18.5704,Q,Q
2023-03-15 14:07:27:556,0,3.32992,-6.93617,-18.6398,Q,Q
2023-03-15 14:07:27:566,0,3.41713,-6.94806,-18.7096,Q,Q
2023-03-15 14:07:27:576,0,3.51129,-6.95947,-18.7793,Q,Q
2023-03-15 14:07:27:586,0,3.60933,-6.96602,-18.8549,Q,Q
2023-03-15 14:07:27:596,0,3.69835,-6.97577,-18.9271,Q,Q
2023-03-15 14:07:27:606,0,3.77703,-6.98697,-19.0033,Q,Q
2023-03-15 14:07:27:616,0,3.84121,-6.99739,-19.0898,Q,Q
2023-03-15 14:07:27:626,0,3.88932,-6.9988,-19.1813,Q,Q
2023-03-15 14:07:27:636,0,3.92026,-7.00558,-19.2788,Q,Q
2023-03-15 14:07:27:646,0,3.94516,-7.01009,-19.3804,Q,Q
2023-03-15 14:07:27:656,0,3.96124,-7.01359,-19.4906,Q,Q
2023-03-15 14:07:27:666,0,3.97186,-7.02119,-19.6113,Q,Q
2023-03-15 14:07:27:675,0,3.98012,-7.02695,-19.7354,Q,Q
2023-03-15 14:07:27:685,0,3.98266,-7.03148,-19.8699,Q,Q
2023-03-15 14:07:27:696,0,3.97406,-7.02564,-20.0174,Q,Q
2023-03-15 14:07:27:706,0,3.94925,-7.01718,-20.182,Q,Q
2023-03-15 14:07:27:716,0,3.9101,-7.00177,-20.3562,Q,Q
2023-03-15 14:07:27:726,0,3.85979,-6.9802,-20.5453,Q,Q
2023-03-15 14:07:27:736,0,3.8036,-6.95791,-20.7517,Q,Q
2023-03-15 14:07:27:746,0,3.74121,-6.93232,-20.9752,Q,Q
2023-03-15 14:07:27:756,0,3.66725,-6.89988,-21.2159,Q,Q
2023-03-15 14:07:27:765,0,3.59133,-6.8617,-21.4767,Q,Q
2023-03-15 14:07:27:775,0,3.53104,-6.8188,-21.7577,Q,Q
2023-03-15 14:07:27:786,0,3.48731,-6.76675,-22.049,Q,Q
2023-03-15 14:07:27:796,0,3.46656,-6.70947,-22.3524,Q,Q
2023-03-15 14:07:27:806,0,3.46349,-6.65138,-22.6622,Q,Q
2023-03-15 14:07:27:816,0,3.46146,-6.58168,-22.9706,Q,Q
2023-03-15 14:07:27:826,0,3.4566,-6.50845,-23.2818,Q,Q
2023-03-15 14:07:27:836,0,3.44936,-6.42557,-23.5971,Q,Q
2023-03-15 14:07:27:846,0,3.43619,-6.33727,-23.9113,Q,Q
2023-03-15 14:07:27:856,0,3.41853,-6.23907,-24.2267,Q,Q
2023-03-15 14:07:27:866,0,3.39296,-6.13235,-24.5405,Q,Q
2023-03-15 14:07:27:876,0,3.36365,-6.01717,-24.8518,Q,Q
2023-03-15 14:07:27:886,0,3.32536,-5.89594,-25.1569,Q,Q
2023-03-15 14:07:27:896,0,3.28834,-5.76972,-25.4571,Q,Q
2023-03-15 14:07:27:906,0,3.25804,-5.64673,-25.747,Q,Q
2023-03-15 14:07:27:916,0,3.24001,-5.51998,-26.0268,Q,Q
2023-03-15 14:07:27:925,0,3.24473,-5.39428,-26.291,Q,Q
2023-03-15 14:07:27:936,0,3.27333,-5.2758,-26.5391,Q,Q
2023-03-15 14:07:27:946,0,3.31888,-5.16399,-26.768,Q,Q
2023-03-15 14:07:27:956,0,3.36248,-5.06381,-26.9733,Q,Q
2023-03-15 14:07:27:966,0,3.39849,-4.97276,-27.1666,Q,Q
2023-03-15 14:07:27:976,0,3.42722,-4.89421,-27.3477,Q,Q
2023-03-15 14:07:27:986,0,3.44521,-4.82141,-27.5117,Q,Q
2023-03-15 14:07:27:996,0,3.46783,-4.75205,-27.6647,Q,Q
2023-03-15 14:07:28:6,0,3.49417,-4.68432,-27.8058,Q,Q
2023-03-15 14:07:28:16,0,3.51987,-4.62906,-27.9344,Q,Q
2023-03-15 14:07:28:26,0,3.54779,-4.57434,-28.0481,Q,Q
2023-03-15 14:07:28:36,0,3.57976,-4.52968,-28.1483,Q,Q
2023-03-15 14:07:28:46,0,3.62234,-4.48727,-28.2398,Q,Q
2023-03-15 14:07:28:56,0,3.67762,-4.44955,-28.3172,Q,Q
2023-03-15 14:07:28:66,0,3.7387,-4.42099,-28.3819,Q,Q
2023-03-15 14:07:28:76,0,3.80496,-4.40059,-28.4309,Q,Q
2023-03-15 14:07:28:86,0,3.86816,-4.3819,-28.4633,Q,Q
2023-03-15 14:07:28:96,0,3.93206,-4.37062,-28.4828,Q,Q
2023-03-15 14:07:28:106,0,3.98694,-4.36254,-28.4879,Q,Q
2023-03-15 14:07:28:116,0,4.03251,-4.36122,-28.4846,Q,Q
2023-03-15 14:07:28:126,0,4.06452,-4.36067,-28.4728,Q,Q
2023-03-15 14:07:28:136,0,4.09094,-4.36705,-28.4553,Q,Q
2023-03-15 14:07:28:146,0,4.11557,-4.37159,-28.4275,Q,Q
2023-03-15 14:07:28:156,0,4.1426,-4.38522,-28.3921,Q,Q
2023-03-15 14:07:28:166,0,4.17172,-4.39887,-28.3532,Q,Q
2023-03-15 14:07:28:176,0,4.20189,-4.40912,-28.31,Q,Q
2023-03-15 14:07:28:186,0,4.22467,-4.41702,-28.2627,Q,Q
2023-03-15 14:07:28:196,0,4.23299,-4.42738,-28.2121,Q,Q
2023-03-15 14:07:28:206,0,4.22807,-4.4349,-28.1638,Q,Q
2023-03-15 14:07:28:216,0,4.21384,-4.43687,-28.1255,Q,Q
2023-03-15 14:07:28:226,0,4.20105,-4.43657,-28.0906,Q,Q
2023-03-15 14:07:28:236,0,4.19393,-4.43932,-28.0543,Q,Q
2023-03-15 14:07:28:246,0,4.19589,-4.4566,-28.0185,Q,Q
2023-03-15 14:07:28:256,0,4.20336,-4.49186,-27.98,Q,Q
2023-03-15 14:07:28:266,0,4.21567,-4.54489,-27.9472,Q,Q
2023-03-15 14:07:28:276,0,4.23703,-4.60895,-27.9242,Q,Q
2023-03-15 14:07:28:286,0,4.26482,-4.67948,-27.9126,Q,Q
2023-03-15 14:07:28:296,0,4.29241,-4.75343,-27.9091,Q,Q
2023-03-15 14:07:28:306,0,4.30674,-4.82333,-27.9195,Q,Q
2023-03-15 14:07:28:316,0,4.30242,-4.88545,-27.9428,Q,Q
2023-03-15 14:07:28:326,0,4.26474,-4.93712,-27.986,Q,Q
2023-03-15 14:07:28:336,0,4.20177,-4.97891,-28.0396,Q,Q
2023-03-15 14:07:28:346,0,4.12095,-5.01805,-28.0994,Q,Q
2023-03-15 14:07:28:356,0,4.03246,-5.05611,-28.1641,Q,Q
2023-03-15 14:07:28:366,0,3.94192,-5.09675,-28.2284,Q,Q
2023-03-15 14:07:28:376,0,3.85776,-5.14141,-28.2995,Q,Q
2023-03-15 14:07:28:386,0,3.77659,-5.1847,-28.3733,Q,Q
2023-03-15 14:07:28:396,0,3.69843,-5.2246,-28.4482,Q,Q
2023-03-15 14:07:28:406,0,3.63155,-5.25912,-28.526,Q,Q
2023-03-15 14:07:28:416,0,3.56672,-5.29289,-28.6029,Q,Q
2023-03-15 14:07:28:426,0,3.51216,-5.32161,-28.6819,Q,Q
2023-03-15 14:07:28:436,0,3.47015,-5.34721,-28.7605,Q,Q
2023-03-15 14:07:28:446,0,3.43845,-5.36973,-28.8342,Q,Q
2023-03-15 14:07:28:456,0,3.41752,-5.39884,-28.9027,Q,Q
2023-03-15 14:07:28:466,0,3.40082,-5.42699,-28.9729,Q,Q
2023-03-15 14:07:28:475,0,3.38492,-5.4577,-29.0415,Q,Q
2023-03-15 14:07:28:486,0,3.36853,-5.482,-29.1133,Q,Q
2023-03-15 14:07:28:496,0,3.34499,-5.50844,-29.1835,Q,Q
2023-03-15 14:07:28:506,0,3.31769,-5.53628,-29.2576,Q,Q
2023-03-15 14:07:28:516,0,3.28966,-5.56658,-29.3304,Q,Q
2023-03-15 14:07:28:526,0,3.26286,-5.59335,-29.4076,Q,Q
2023-03-15 14:07:28:536,0,3.24227,-5.62253,-29.4798,Q,Q
2023-03-15 14:07:28:546,0,3.22968,-5.64616,-29.5485,Q,Q
2023-03-15 14:07:28:556,0,3.22141,-5.6671,-29.6156,Q,Q
2023-03-15 14:07:28:566,0,3.2133,-5.67899,-29.6713,Q,Q
2023-03-15 14:07:28:576,0,3.20534,-5.6895,-29.7121,Q,Q
2023-03-15 14:07:28:586,0,3.19879,-5.69933,-29.7371,Q,Q
2023-03-15 14:07:28:596,0,3.18139,-5.71377,-29.7485,Q,Q
2023-03-15 14:07:28:606,0,3.15977,-5.73617,-29.7436,Q,Q
2023-03-15 14:07:28:616,0,3.13675,-5.76732,-29.7243,Q,Q
2023-03-15 14:07:28:626,0,3.11768,-5.79974,-29.6966,Q,Q
2023-03-15 14:07:28:636,0,3.09906,-5.82797,-29.6583,Q,Q
2023-03-15 14:07:28:646,0,3.08188,-5.85347,-29.6175,Q,Q
2023-03-15 14:07:28:656,0,3.05915,-5.88229,-29.5689,Q,Q
2023-03-15 14:07:28:666,0,3.02968,-5.91737,-29.5127,Q,Q
2023-03-15 14:07:28:676,0,2.99309,-5.96052,-29.4551,Q,Q
2023-03-15 14:07:28:686,0,2.94759,-6.00198,-29.3975,Q,Q
2023-03-15 14:07:28:696,0,2.8989,-6.04821,-29.3441,Q,Q
2023-03-15 14:07:28:706,0,2.8459,-6.09163,-29.2937,Q,Q
2023-03-15 14:07:28:716,0,2.78401,-6.13732,-29.2493,Q,Q
2023-03-15 14:07:28:726,0,2.71309,-6.18432,-29.2109,Q,Q
2023-03-15 14:07:28:736,0,2.6375,-6.23603,-29.1841,Q,Q
2023-03-15 14:07:28:746,0,2.55532,-6.27646,-29.1696,Q,Q
2023-03-15 14:07:28:756,0,2.47693,-6.31187,-29.1621,Q,Q
2023-03-15 14:07:28:766,0,2.41119,-6.34301,-29.1638,Q,Q
2023-03-15 14:07:28:776,0,2.35818,-6.3713,-29.1689,Q,Q
2023-03-15 14:07:28:786,0,2.31773,-6.39571,-29.1806,Q,Q
2023-03-15 14:07:28:796,0,2.29134,-6.41135,-29.1945,Q,Q
2023-03-15 14:07:28:806,0,2.2872,-6.42554,-29.2124,Q,Q
2023-03-15 14:07:28:816,0,2.29163,-6.44275,-29.2347,Q,Q
2023-03-15 14:07:28:826,0,2.28849,-6.45612,-29.2583,Q,Q
2023-03-15 14:07:28:836,0,2.27787,-6.46332,-29.2895,Q,Q
2023-03-15 14:07:28:846,0,2.26906,-6.46075,-29.3269,Q,Q
2023-03-15 14:07:28:856,0,2.26322,-6.45573,-29.3648,Q,Q
2023-03-15 14:07:28:866,0,2.25457,-6.44873,-29.3991,Q,Q
2023-03-15 14:07:28:876,0,2.24704,-6.43807,-29.4345,Q,Q
2023-03-15 14:07:28:886,0,2.23811,-6.42205,-29.4672,Q,Q
2023-03-15 14:07:28:896,0,2.23617,-6.4016,-29.4996,Q,Q
2023-03-15 14:07:28:906,0,2.23824,-6.38579,-29.5273,Q,Q
2023-03-15 14:07:28:916,0,2.24291,-6.37576,-29.5575,Q,Q
2023-03-15 14:07:28:926,0,2.24308,-6.36542,-29.583,Q,Q
2023-03-15 14:07:28:936,0,2.23736,-6.34938,-29.6106,Q,Q
2023-03-15 14:07:28:946,0,2.2304,-6.33395,-29.6396,Q,Q
2023-03-15 14:07:28:956,0,2.22435,-6.31399,-29.6694,Q,Q
2023-03-15 14:07:28:966,0,2.22354,-6.29915,-29.7006,Q,Q
2023-03-15 14:07:28:976,0,2.21728,-6.29086,-29.7304,Q,Q
2023-03-15 14:07:28:986,0,2.21128,-6.28449,-29.7606,Q,Q
2023-03-15 14:07:28:996,0,2.20156,-6.28075,-29.7918,Q,Q
2023-03-15 14:07:29:6,0,2.18438,-6.27649,-29.8217,Q,Q
2023-03-15 14:07:29:16,0,2.16435,-6.26912,-29.8493,Q,Q
2023-03-15 14:07:29:26,0,2.1443,-6.26721,-29.8742,Q,Q
2023-03-15 14:07:29:35,0,2.12559,-6.26212,-29.8967,Q,Q
2023-03-15 14:07:29:45,0,2.10997,-6.25448,-29.9156,Q,Q
2023-03-15 14:07:29:55,0,2.09035,-6.25456,-29.9291,Q,Q
2023-03-15 14:07:29:65,0,2.07298,-6.24722,-29.9397,Q,Q
2023-03-15 14:07:29:75,0,2.05959,-6.23395,-29.9472,Q,Q
2023-03-15 14:07:29:85,0,2.05691,-6.21956,-29.952,Q,Q
2023-03-15 14:07:29:95,0,2.05609,-6.1994,-29.9523,Q,Q
2023-03-15 14:07:29:105,0,2.05705,-6.1802,-29.9528,Q,Q
2023-03-15 14:07:29:115,0,2.05969,-6.16229,-29.9531,Q,Q
2023-03-15 14:07:29:126,0,2.07254,-6.14701,-29.9581,Q,Q
2023-03-15 14:07:29:136,0,2.08912,-6.13587,-29.9641,Q,Q
2023-03-15 14:07:29:146,0,2.106,-6.12631,-29.9699,Q,Q
2023-03-15 14:07:29:156,0,2.12732,-6.11678,-29.9796,Q,Q
2023-03-15 14:07:29:166,0,2.14604,-6.1071,-29.9873,Q,Q
2023-03-15 14:07:29:176,0,2.16846,-6.09505,-29.9935,Q,Q
2023-03-15 14:07:29:186,0,2.19285,-6.07516,-29.9991,Q,Q
2023-03-15 14:07:29:196,0,2.21898,-6.05698,-30.0078,Q,Q
2023-03-15 14:07:29:206,0,2.24526,-6.03719,-30.0198,Q,Q
2023-03-15 14:07:29:216,0,2.27115,-6.02465,-30.0372,Q,Q
2023-03-15 14:07:29:226,0,2.29636,-6.01065,-30.054,Q,Q
2023-03-15 14:07:29:236,0,2.31861,-5.99887,-30.0739,Q,Q
2023-03-15 14:07:29:246,0,2.33988,-5.98228,-30.0971,Q,Q
2023-03-15 14:07:29:256,0,2.3625,-5.96487,-30.1281,Q,Q
2023-03-15 14:07:29:266,0,2.38239,-5.94127,-30.1581,Q,Q
2023-03-15 14:07:29:276,0,2.39414,-5.91695,-30.1883,Q,Q
2023-03-15 14:07:29:286,0,2.40195,-5.891,-30.2182,Q,Q
2023-03-15 14:07:29:296,0,2.41566,-5.86639,-30.2473,Q,Q
2023-03-15 14:07:29:306,0,2.43604,-5.85048,-30.2707,Q,Q
2023-03-15 14:07:29:316,0,2.45126,-5.84229,-30.287,Q,Q
2023-03-15 14:07:29:326,0,2.45186,-5.83352,-30.3046,Q,Q
2023-03-15 14:07:29:336,0,2.44919,-5.82423,-30.3226,Q,Q
2023-03-15 14:07:29:346,0,2.44143,-5.81412,-30.3384,Q,Q
2023-03-15 14:07:29:356,0,2.43226,-5.79907,-30.3487,Q,Q
2023-03-15 14:07:29:366,0,2.4241,-5.78568,-30.3562,Q,Q
2023-03-15 14:07:29:376,0,2.4096,-5.77106,-30.3558,Q,Q
2023-03-15 14:07:29:386,0,2.39257,-5.75041,-30.3581,Q,Q
2023-03-15 14:07:29:396,0,2.37219,-5.73477,-30.3621,Q,Q
2023-03-15 14:07:29:406,0,2.35022,-5.72002,-30.3699,Q,Q
2023-03-15 14:07:29:416,0,2.32551,-5.70562,-30.3749,Q,Q
2023-03-15 14:07:29:426,0,2.29811,-5.69436,-30.3846,Q,Q
2023-03-15 14:07:29:436,0,2.27355,-5.68026,-30.3926,Q,Q
2023-03-15 14:07:29:445,0,2.25143,-5.67139,-30.4039,Q,Q
2023-03-15 14:07:29:455,0,2.22903,-5.66913,-30.4126,Q,Q
2023-03-15 14:07:29:466,0,2.21396,-5.67038,-30.4253,Q,Q
2023-03-15 14:07:29:475,0,2.20422,-5.67523,-30.4403,Q,Q
2023-03-15 14:07:29:486,0,2.19742,-5.68151,-30.458,Q,Q
2023-03-15 14:07:29:496,0,2.19738,-5.69311,-30.4712,Q,Q
2023-03-15 14:07:29:506,0,2.19832,-5.703,-30.4817,Q,Q
2023-03-15 14:07:29:516,0,2.20144,-5.71015,-30.4926,Q,Q
2023-03-15 14:07:29:526,0,2.20543,-5.71793,-30.5041,Q,Q
2023-03-15 14:07:29:536,0,2.21428,-5.7247,-30.5138,Q,Q
2023-03-15 14:07:29:546,0,2.22875,-5.72954,-30.5185,Q,Q
2023-03-15 14:07:29:556,0,2.25026,-5.73578,-30.519,Q,Q
2023-03-15 14:07:29:566,0,2.27215,-5.74495,-30.5175,Q,Q
2023-03-15 14:07:29:576,0,2.2954,-5.7559,-30.5128,Q,Q
2023-03-15 14:07:29:586,0,2.31424,-5.76457,-30.5041,Q,Q
2023-03-15 14:07:29:596,0,2.3255,-5.76901,-30.497,Q,Q
2023-03-15 14:07:29:606,0,2.32655,-5.76945,-30.4933,Q,Q
2023-03-15 14:07:29:616,0,2.32104,-5.76746,-30.4899,Q,Q
2023-03-15 14:07:29:626,0,2.31063,-5.76261,-30.486,Q,Q
2023-03-15 14:07:29:636,0,2.29639,-5.75684,-30.4871,Q,Q
2023-03-15 14:07:29:646,0,2.28235,-5.74983,-30.4923,Q,Q
2023-03-15 14:07:29:656,0,2.26831,-5.7414,-30.5018,Q,Q
2023-03-15 14:07:29:666,0,2.25028,-5.73782,-30.5129,Q,Q
2023-03-15 14:07:29:676,0,2.23169,-5.73565,-30.529,Q,Q
2023-03-15 14:07:29:686,0,2.2138,-5.7334,-30.5452,Q,Q
2023-03-15 14:07:29:696,0,2.19801,-5.72863,-30.567,Q,Q
2023-03-15 14:07:29:706,0,2.18295,-5.72132,-30.59,Q,Q
2023-03-15 14:07:29:716,0,2.16855,-5.7124,-30.6152,Q,Q
2023-03-15 14:07:29:726,0,2.15395,-5.71064,-30.6363,Q,Q
2023-03-15 14:07:29:736,0,2.14127,-5.71035,-30.6586,Q,Q
2023-03-15 14:07:29:746,0,2.13143,-5.71187,-30.6745,Q,Q
2023-03-15 14:07:29:756,0,2.12619,-5.70997,-30.6926,Q,Q
2023-03-15 14:07:29:766,0,2.12996,-5.71444,-30.7069,Q,Q
2023-03-15 14:07:29:776,0,2.13284,-5.71601,-30.7131,Q,Q
2023-03-15 14:07:29:786,0,2.14052,-5.71591,-30.7223,Q,Q
2023-03-15 14:07:29:796,0,2.14522,-5.71418,-30.7253,Q,Q
2023-03-15 14:07:29:806,0,2.15263,-5.71385,-30.7281,Q,Q
2023-03-15 14:07:29:816,0,2.1678,-5.71627,-30.7284,Q,Q
2023-03-15 14:07:29:826,0,2.18101,-5.71393,-30.7305,Q,Q
2023-03-15 14:07:29:836,0,2.18972,-5.71051,-30.7338,Q,Q
2023-03-15 14:07:29:846,0,2.19684,-5.71102,-30.7349,Q,Q
2023-03-15 14:07:29:856,0,2.2011,-5.71505,-30.7394,Q,Q
2023-03-15 14:07:29:866,0,2.20435,-5.71727,-30.7462,Q,Q
2023-03-15 14:07:29:876,0,2.20214,-5.71475,-30.7559,Q,Q
2023-03-15 14:07:29:886,0,2.19997,-5.71755,-30.7717,Q,Q
2023-03-15 14:07:29:896,0,2.19913,-5.71706,-30.7886,Q,Q
2023-03-15 14:07:29:906,0,2.19971,-5.717,-30.8086,Q,Q
2023-03-15 14:07:29:916,0,2.19681,-5.71059,-30.8327,Q,Q
2023-03-15 14:07:29:926,0,2.19587,-5.70598,-30.8536,Q,Q
2023-03-15 14:07:29:936,0,2.19481,-5.70347,-30.8715,Q,Q
2023-03-15 14:07:29:945,0,2.1922,-5.69975,-30.8916,Q,Q
2023-03-15 14:07:29:955,0,2.18439,-5.6956,-30.9117,Q,Q
2023-03-15 14:07:29:966,0,2.17553,-5.68793,-30.9313,Q,Q
2023-03-15 14:07:29:975,0,2.16417,-5.67806,-30.95,Q,Q
2023-03-15 14:07:29:986,0,2.15791,-5.67355,-30.9715,Q,Q
2023-03-15 14:07:29:996,0,2.15164,-5.66881,-30.9901,Q,Q
2023-03-15 14:07:30:6,0,2.15708,-5.66482,-31.0068,Q,Q
2023-03-15 14:07:30:16,0,2.16356,-5.66309,-31.0245,Q,Q
2023-03-15 14:07:30:26,0,2.16728,-5.65611,-31.0373,Q,Q
2023-03-15 14:07:30:36,0,2.16477,-5.64926,-31.0454,Q,Q
2023-03-15 14:07:30:46,0,2.1552,-5.64017,-31.0552,Q,Q
2023-03-15 14:07:30:56,0,2.13427,-5.63122,-31.0618,Q,Q
2023-03-15 14:07:30:66,0,2.10931,-5.62614,-31.0671,Q,Q
2023-03-15 14:07:30:76,0,2.08071,-5.62856,-31.0746,Q,Q
2023-03-15 14:07:30:86,0,2.05772,-5.63307,-31.079,Q,Q
2023-03-15 14:07:30:96,0,2.03707,-5.63972,-31.0833,Q,Q
2023-03-15 14:07:30:105,0,2.01845,-5.64922,-31.0894,Q,Q
2023-03-15 14:07:30:115,0,1.99965,-5.65489,-31.0986,Q,Q
2023-03-15 14:07:30:126,0,1.98403,-5.65447,-31.1043,Q,Q
2023-03-15 14:07:30:136,0,1.96938,-5.65236,-31.1121,Q,Q
2023-03-15 14:07:30:146,0,1.95175,-5.65092,-31.1165,Q,Q
2023-03-15 14:07:30:156,0,1.92969,-5.64882,-31.1232,Q,Q
2023-03-15 14:07:30:166,0,1.89966,-5.6469,-31.1315,Q,Q
2023-03-15 14:07:30:175,0,1.86701,-5.64274,-31.1455,Q,Q
2023-03-15 14:07:30:186,0,1.83826,-5.63922,-31.1623,Q,Q
2023-03-15 14:07:30:196,0,1.81416,-5.63604,-31.1808,Q,Q
2023-03-15 14:07:30:206,0,1.79651,-5.63594,-31.2004,Q,Q
2023-03-15 14:07:30:216,0,1.78315,-5.63978,-31.223,Q,Q
2023-03-15 14:07:30:226,0,1.77796,-5.64229,-31.2516,Q,Q
2023-03-15 14:07:30:236,0,1.77458,-5.64473,-31.2753,Q,Q
2023-03-15 14:07:30:245,0,1.7689,-5.64841,-31.2996,Q,Q
2023-03-15 14:07:30:256,0,1.7547,-5.6528,-31.3251,Q,Q
2023-03-15 14:07:30:266,0,1.74105,-5.65981,-31.3475,Q,Q
2023-03-15 14:07:30:276,0,1.72489,-5.6689,-31.3626,Q,Q
2023-03-15 14:07:30:286,0,1.71373,-5.67614,-31.3784,Q,Q
2023-03-15 14:07:30:296,0,1.71951,-5.6799,-31.3905,Q,Q
2023-03-15 14:07:30:306,0,1.74247,-5.67891,-31.3949,Q,Q
2023-03-15 14:07:30:316,0,1.76835,-5.67327,-31.3919,Q,Q
2023-03-15 14:07:30:326,0,1.78268,-5.67213,-31.3757,Q,Q
2023-03-15 14:07:30:336,0,1.78891,-5.67861,-31.3553,Q,Q
2023-03-15 14:07:30:346,0,1.79069,-5.687,-31.3342,Q,Q
2023-03-15 14:07:30:356,0,1.79442,-5.69325,-31.3173,Q,Q
2023-03-15 14:07:30:366,0,1.79564,-5.7008,-31.3028,Q,Q
2023-03-15 14:07:30:376,0,1.80746,-5.71003,-31.2915,Q,Q
2023-03-15 14:07:30:386,0,1.8293,-5.71775,-31.2808,Q,Q
2023-03-15 14:07:30:396,0,1.85476,-5.72944,-31.2729,Q,Q
2023-03-15 14:07:30:406,0,1.88271,-5.74357,-31.2701,Q,Q
2023-03-15 14:07:30:416,0,1.91218,-5.75714,-31.266,Q,Q
2023-03-15 14:07:30:426,0,1.93997,-5.76927,-31.2648,Q,Q
2023-03-15 14:07:30:436,0,1.9604,-5.77974,-31.262,Q,Q
2023-03-15 14:07:30:446,0,1.98079,-5.78657,-31.2598,Q,Q
2023-03-15 14:07:30:455,0,1.99599,-5.79946,-31.2589,Q,Q
2023-03-15 14:07:30:466,0,2.01299,-5.80898,-31.2639,Q,Q
2023-03-15 14:07:30:476,0,2.03716,-5.81575,-31.2709,Q,Q
2023-03-15 14:07:30:486,0,2.06443,-5.82247,-31.2763,Q,Q
2023-03-15 14:07:30:496,0,2.09475,-5.82721,-31.2779,Q,Q
2023-03-15 14:07:30:506,0,2.11738,-5.83247,-31.2762,Q,Q
2023-03-15 14:07:30:516,0,2.13229,-5.83769,-31.267,Q,Q
2023-03-15 14:07:30:526,0,2.14107,-5.84287,-31.2563,Q,Q
2023-03-15 14:07:30:536,0,2.14891,-5.84839,-31.2453,Q,Q
2023-03-15 14:07:30:546,0,2.15694,-5.85424,-31.232,Q,Q
2023-03-15 14:07:30:556,0,2.16879,-5.85225,-31.2225,Q,Q
2023-03-15 14:07:30:566,0,2.18161,-5.84389,-31.2068,Q,Q
2023-03-15 14:07:30:576,0,2.19029,-5.8367,-31.1919,Q,Q
2023-03-15 14:07:30:586,0,2.18437,-5.82677,-31.174,Q,Q
2023-03-15 14:07:30:596,0,2.16921,-5.81411,-31.1589,Q,Q
2023-03-15 14:07:30:606,0,2.15927,-5.80163,-31.139,Q,Q
2023-03-15 14:07:30:616,0,2.14991,-5.78894,-31.1207,Q,Q
2023-03-15 14:07:30:626,0,2.15505,-5.78164,-31.1098,Q,Q
2023-03-15 14:07:30:636,0,2.17492,-5.77367,-31.1042,Q,Q
2023-03-15 14:07:30:646,0,2.21236,-5.75487,-31.1014,Q,Q
2023-03-15 14:07:30:656,0,2.26086,-5.72515,-31.0992,Q,Q
2023-03-15 14:07:30:666,0,2.30545,-5.69197,-31.0902,Q,Q
2023-03-15 14:07:30:676,0,2.33636,-5.66072,-31.0815,Q,Q
2023-03-15 14:07:30:686,0,2.34857,-5.63181,-31.0726,Q,Q
2023-03-15 14:07:30:696,0,2.34699,-5.60659,-31.0662,Q,Q
2023-03-15 14:07:30:706,0,2.3414,-5.58005,-31.0642,Q,Q
2023-03-15 14:07:30:716,0,2.32922,-5.55816,-31.0612,Q,Q
2023-03-15 14:07:30:726,0,2.32241,-5.54408,-31.0655,Q,Q
2023-03-15 14:07:30:736,0,2.33386,-5.53283,-31.0685,Q,Q
2023-03-15 14:07:30:745,0,2.34817,-5.52524,-31.0726,Q,Q
