Timestamp_cmd,imu_cmd,roll_delta,pitch_delta,yaw_delta,voice_type,voice_length
2023-03-15 15:39:14:888,0,-8.51849,0.472279,-18.5655,Q,Q
2023-03-15 15:39:14:896,0,-8.54592,0.456925,-18.6152,Q,Q
2023-03-15 15:39:14:906,0,-8.57181,0.437033,-18.6656,Q,Q
2023-03-15 15:39:14:916,0,-8.59684,0.412235,-18.7168,Q,Q
2023-03-15 15:39:14:926,0,-8.61666,0.389801,-18.7679,Q,Q
2023-03-15 15:39:14:936,0,-8.63741,0.364796,-18.8189,Q,Q
2023-03-15 15:39:14:947,0,-8.66047,0.337075,-18.8684,Q,Q
2023-03-15 15:39:14:956,0,-8.6863,0.303013,-18.9169,Q,Q
2023-03-15 15:39:14:966,0,-8.71686,0.267953,-18.9686,Q,Q
2023-03-15 15:39:14:977,0,-8.74487,0.233836,-19.0183,Q,Q
2023-03-15 15:39:14:987,0,-8.76322,0.210403,-19.0737,Q,Q
2023-03-15 15:39:14:997,0,-8.77131,0.193075,-19.131,Q,Q
2023-03-15 15:39:15:7,0,-8.77184,0.178032,-19.1874,Q,Q
2023-03-15 15:39:15:17,0,-8.7644,0.161162,-19.2413,Q,Q
2023-03-15 15:39:15:26,0,-8.75912,0.143387,-19.2954,Q,Q
2023-03-15 15:39:15:37,0,-8.74555,0.127279,-19.3449,Q,Q
2023-03-15 15:39:15:47,0,-8.73122,0.11007,-19.3936,Q,Q
2023-03-15 15:39:15:57,0,-8.71534,0.095874,-19.4369,Q,Q
2023-03-15 15:39:15:67,0,-8.70077,0.084861,-19.4793,Q,Q
2023-03-15 15:39:15:77,0,-8.69125,0.0732074,-19.5142,Q,Q
2023-03-15 15:39:15:87,0,-8.67921,0.0604209,-19.5522,Q,Q
2023-03-15 15:39:15:97,0,-8.66262,0.0482123,-19.5799,Q,Q
2023-03-15 15:39:15:107,0,-8.63756,0.0377789,-19.6042,Q,Q
2023-03-15 15:39:15:117,0,-8.60835,0.0280527,-19.6227,Q,Q
2023-03-15 15:39:15:127,0,-8.5842,0.0152538,-19.6381,Q,Q
2023-03-15 15:39:15:137,0,-8.5581,0.00429339,-19.6472,Q,Q
2023-03-15 15:39:15:147,0,-8.53039,-0.00166518,-19.6529,Q,Q
2023-03-15 15:39:15:157,0,-8.50096,-0.00459058,-19.6586,Q,Q
2023-03-15 15:39:15:167,0,-8.47056,-0.00615037,-19.6618,Q,Q
2023-03-15 15:39:15:177,0,-8.44527,-0.0104953,-19.6587,Q,Q
2023-03-15 15:39:15:187,0,-8.42622,-0.014743,-19.658,Q,Q
2023-03-15 15:39:15:197,0,-8.41056,-0.0159403,-19.6586,Q,Q
2023-03-15 15:39:15:207,0,-8.39446,-0.0143815,-19.6603,Q,Q
2023-03-15 15:39:15:217,0,-8.37555,-0.015419,-19.6612,Q,Q
2023-03-15 15:39:15:227,0,-8.35553,-0.020736,-19.6646,Q,Q
2023-03-15 15:39:15:237,0,-8.3322,-0.0301097,-19.6689,Q,Q
2023-03-15 15:39:15:247,0,-8.30687,-0.038507,-19.6723,Q,Q
2023-03-15 15:39:15:256,0,-8.28536,-0.0508165,-19.6783,Q,Q
2023-03-15 15:39:15:266,0,-8.26266,-0.0618619,-19.6882,Q,Q
2023-03-15 15:39:15:276,0,-8.24544,-0.0727024,-19.6929,Q,Q
2023-03-15 15:39:15:286,0,-8.23176,-0.079077,-19.6968,Q,Q
2023-03-15 15:39:15:296,0,-8.22725,-0.0870295,-19.6979,Q,Q
2023-03-15 15:39:15:306,0,-8.22292,-0.0939625,-19.7005,Q,Q
2023-03-15 15:39:15:316,0,-8.22704,-0.103971,-19.6964,Q,Q
2023-03-15 15:39:15:326,0,-8.23295,-0.113661,-19.6965,Q,Q
2023-03-15 15:39:15:337,0,-8.24105,-0.121671,-19.7016,Q,Q
2023-03-15 15:39:15:346,0,-8.25223,-0.130793,-19.708,Q,Q
2023-03-15 15:39:15:356,0,-8.26791,-0.139898,-19.713,Q,Q
2023-03-15 15:39:15:367,0,-8.28491,-0.144023,-19.7196,Q,Q
2023-03-15 15:39:15:376,0,-8.30319,-0.151785,-19.7261,Q,Q
2023-03-15 15:39:15:386,0,-8.319,-0.157902,-19.735,Q,Q
2023-03-15 15:39:15:396,0,-8.33809,-0.1586,-19.7439,Q,Q
2023-03-15 15:39:15:407,0,-8.35862,-0.166695,-19.7591,Q,Q
2023-03-15 15:39:15:416,0,-8.38011,-0.175193,-19.772,Q,Q
2023-03-15 15:39:15:427,0,-8.40015,-0.186256,-19.7859,Q,Q
2023-03-15 15:39:15:436,0,-8.41135,-0.201365,-19.8002,Q,Q
2023-03-15 15:39:15:446,0,-8.41055,-0.214948,-19.8105,Q,Q
2023-03-15 15:39:15:456,0,-8.39779,-0.235966,-19.8174,Q,Q
2023-03-15 15:39:15:466,0,-8.37843,-0.258216,-19.8253,Q,Q
2023-03-15 15:39:15:477,0,-8.35431,-0.272941,-19.8362,Q,Q
2023-03-15 15:39:15:486,0,-8.33439,-0.287806,-19.8487,Q,Q
2023-03-15 15:39:15:497,0,-8.31534,-0.303176,-19.8617,Q,Q
2023-03-15 15:39:15:506,0,-8.30168,-0.317256,-19.8716,Q,Q
2023-03-15 15:39:15:516,0,-8.29703,-0.329336,-19.8853,Q,Q
2023-03-15 15:39:15:526,0,-8.29545,-0.343759,-19.9039,Q,Q
2023-03-15 15:39:15:536,0,-8.29592,-0.355374,-19.9179,Q,Q
2023-03-15 15:39:15:547,0,-8.29489,-0.37081,-19.9354,Q,Q
2023-03-15 15:39:15:556,0,-8.2918,-0.38594,-19.9507,Q,Q
2023-03-15 15:39:15:566,0,-8.28509,-0.398578,-19.9658,Q,Q
2023-03-15 15:39:15:576,0,-8.27364,-0.410545,-19.9792,Q,Q
2023-03-15 15:39:15:587,0,-8.25319,-0.42264,-19.9953,Q,Q
2023-03-15 15:39:15:596,0,-8.23155,-0.434693,-20.0073,Q,Q
2023-03-15 15:39:15:606,0,-8.20644,-0.446042,-20.0177,Q,Q
2023-03-15 15:39:15:616,0,-8.17852,-0.461349,-20.0262,Q,Q
2023-03-15 15:39:15:626,0,-8.15727,-0.478352,-20.0295,Q,Q
2023-03-15 15:39:15:637,0,-8.14337,-0.495395,-20.0311,Q,Q
2023-03-15 15:39:15:646,0,-8.13706,-0.516914,-20.0268,Q,Q
2023-03-15 15:39:15:657,0,-8.13597,-0.538026,-20.0217,Q,Q
2023-03-15 15:39:15:666,0,-8.14004,-0.560115,-20.0151,Q,Q
2023-03-15 15:39:15:676,0,-8.1487,-0.579947,-20.0053,Q,Q
2023-03-15 15:39:15:686,0,-8.15462,-0.604831,-19.9884,Q,Q
2023-03-15 15:39:15:696,0,-8.16166,-0.626956,-19.9742,Q,Q
2023-03-15 15:39:15:706,0,-8.16616,-0.648804,-19.9556,Q,Q
2023-03-15 15:39:15:716,0,-8.17248,-0.670016,-19.9337,Q,Q
2023-03-15 15:39:15:726,0,-8.18071,-0.687578,-19.9091,Q,Q
2023-03-15 15:39:15:736,0,-8.18974,-0.706697,-19.8753,Q,Q
2023-03-15 15:39:15:747,0,-8.19859,-0.729426,-19.8369,Q,Q
2023-03-15 15:39:15:756,0,-8.21354,-0.748049,-19.7941,Q,Q
2023-03-15 15:39:15:766,0,-8.22927,-0.770791,-19.742,Q,Q
2023-03-15 15:39:15:777,0,-8.25009,-0.795201,-19.6865,Q,Q
2023-03-15 15:39:15:786,0,-8.26974,-0.82014,-19.6238,Q,Q
2023-03-15 15:39:15:796,0,-8.29702,-0.858211,-19.557,Q,Q
2023-03-15 15:39:15:806,0,-8.32619,-0.893451,-19.4821,Q,Q
2023-03-15 15:39:15:816,0,-8.35741,-0.92688,-19.4079,Q,Q
2023-03-15 15:39:15:826,0,-8.38113,-0.959733,-19.3455,Q,Q
2023-03-15 15:39:15:837,0,-8.39833,-0.976748,-19.2905,Q,Q
2023-03-15 15:39:15:846,0,-8.4137,-0.98025,-19.2388,Q,Q
2023-03-15 15:39:15:857,0,-8.43766,-0.975632,-19.1846,Q,Q
2023-03-15 15:39:15:867,0,-8.47776,-0.967394,-19.1288,Q,Q
2023-03-15 15:39:15:876,0,-8.52501,-0.953564,-19.0711,Q,Q
2023-03-15 15:39:15:886,0,-8.56463,-0.940903,-19.0066,Q,Q
2023-03-15 15:39:15:896,0,-8.59186,-0.927441,-18.9402,Q,Q
2023-03-15 15:39:15:906,0,-8.60734,-0.91583,-18.8709,Q,Q
2023-03-15 15:39:15:916,0,-8.62126,-0.89918,-18.8035,Q,Q
2023-03-15 15:39:15:927,0,-8.63131,-0.878266,-18.7436,Q,Q
2023-03-15 15:39:15:936,0,-8.64241,-0.85938,-18.6825,Q,Q
2023-03-15 15:39:15:947,0,-8.65459,-0.839041,-18.6254,Q,Q
2023-03-15 15:39:15:957,0,-8.66613,-0.820605,-18.5702,Q,Q
2023-03-15 15:39:15:967,0,-8.6727,-0.809646,-18.5178,Q,Q
2023-03-15 15:39:15:977,0,-8.68145,-0.805097,-18.4576,Q,Q
2023-03-15 15:39:15:987,0,-8.68164,-0.798676,-18.4041,Q,Q
2023-03-15 15:39:15:997,0,-8.67423,-0.789272,-18.3553,Q,Q
2023-03-15 15:39:16:7,0,-8.66431,-0.780012,-18.3142,Q,Q
2023-03-15 15:39:16:17,0,-8.65274,-0.769666,-18.2778,Q,Q
2023-03-15 15:39:16:26,0,-8.65153,-0.756194,-18.2424,Q,Q
2023-03-15 15:39:16:36,0,-8.65083,-0.746214,-18.2104,Q,Q
2023-03-15 15:39:16:47,0,-8.66413,-0.740818,-18.1839,Q,Q
2023-03-15 15:39:16:56,0,-8.68077,-0.736031,-18.1638,Q,Q
2023-03-15 15:39:16:66,0,-8.70677,-0.730633,-18.1424,Q,Q
2023-03-15 15:39:16:76,0,-8.73447,-0.728971,-18.1258,Q,Q
2023-03-15 15:39:16:86,0,-8.76547,-0.735095,-18.1156,Q,Q
2023-03-15 15:39:16:96,0,-8.79445,-0.748732,-18.1088,Q,Q
2023-03-15 15:39:16:106,0,-8.82833,-0.764618,-18.1034,Q,Q
2023-03-15 15:39:16:116,0,-8.86272,-0.78484,-18.1054,Q,Q
2023-03-15 15:39:16:126,0,-8.889,-0.807046,-18.1138,Q,Q
2023-03-15 15:39:16:136,0,-8.90596,-0.8281,-18.1319,Q,Q
2023-03-15 15:39:16:146,0,-8.91512,-0.847909,-18.153,Q,Q
2023-03-15 15:39:16:156,0,-8.91732,-0.86558,-18.1798,Q,Q
2023-03-15 15:39:16:166,0,-8.92001,-0.88729,-18.209,Q,Q
2023-03-15 15:39:16:176,0,-8.92604,-0.908118,-18.2409,Q,Q
2023-03-15 15:39:16:186,0,-8.94851,-0.92881,-18.2743,Q,Q
2023-03-15 15:39:16:196,0,-8.98184,-0.950577,-18.3149,Q,Q
2023-03-15 15:39:16:206,0,-9.02674,-0.9691,-18.3605,Q,Q
2023-03-15 15:39:16:216,0,-9.07942,-0.98022,-18.4085,Q,Q
2023-03-15 15:39:16:226,0,-9.13439,-0.990765,-18.4557,Q,Q
2023-03-15 15:39:16:236,0,-9.18537,-1.00132,-18.5074,Q,Q
2023-03-15 15:39:16:246,0,-9.23222,-1.00394,-18.5629,Q,Q
2023-03-15 15:39:16:256,0,-9.26784,-1.00857,-18.6135,Q,Q
2023-03-15 15:39:16:266,0,-9.29758,-1.01292,-18.6644,Q,Q
2023-03-15 15:39:16:276,0,-9.32901,-1.00826,-18.7084,Q,Q
2023-03-15 15:39:16:286,0,-9.35572,-1.00418,-18.7537,Q,Q
2023-03-15 15:39:16:296,0,-9.36799,-0.999542,-18.7945,Q,Q
2023-03-15 15:39:16:306,0,-9.38548,-0.993685,-18.8349,Q,Q
2023-03-15 15:39:16:316,0,-9.40322,-0.996878,-18.8815,Q,Q
2023-03-15 15:39:16:326,0,-9.43129,-1.00885,-18.9297,Q,Q
2023-03-15 15:39:16:336,0,-9.47047,-1.02844,-18.9818,Q,Q
2023-03-15 15:39:16:346,0,-9.49883,-1.05327,-19.0438,Q,Q
2023-03-15 15:39:16:356,0,-9.51061,-1.08082,-19.1146,Q,Q
2023-03-15 15:39:16:366,0,-9.51139,-1.11213,-19.1935,Q,Q
2023-03-15 15:39:16:376,0,-9.50771,-1.14757,-19.2757,Q,Q
2023-03-15 15:39:16:386,0,-9.49964,-1.18754,-19.3594,Q,Q
2023-03-15 15:39:16:396,0,-9.48754,-1.22047,-19.4451,Q,Q
2023-03-15 15:39:16:406,0,-9.47725,-1.25549,-19.5321,Q,Q
2023-03-15 15:39:16:416,0,-9.4668,-1.29248,-19.6175,Q,Q
2023-03-15 15:39:16:426,0,-9.46113,-1.32884,-19.6991,Q,Q
2023-03-15 15:39:16:436,0,-9.45688,-1.36051,-19.7809,Q,Q
2023-03-15 15:39:16:446,0,-9.45392,-1.38795,-19.8558,Q,Q
2023-03-15 15:39:16:456,0,-9.45558,-1.41275,-19.9208,Q,Q
2023-03-15 15:39:16:466,0,-9.46267,-1.43149,-19.9821,Q,Q
2023-03-15 15:39:16:476,0,-9.48023,-1.44412,-20.0335,Q,Q
2023-03-15 15:39:16:486,0,-9.50479,-1.45245,-20.0746,Q,Q
2023-03-15 15:39:16:496,0,-9.53522,-1.45134,-20.1095,Q,Q
2023-03-15 15:39:16:506,0,-9.57716,-1.44063,-20.1425,Q,Q
2023-03-15 15:39:16:516,0,-9.62459,-1.42162,-20.1629,Q,Q
2023-03-15 15:39:16:526,0,-9.67175,-1.40093,-20.1775,Q,Q
2023-03-15 15:39:16:536,0,-9.71587,-1.37095,-20.1809,Q,Q
2023-03-15 15:39:16:547,0,-9.75586,-1.34574,-20.1794,Q,Q
2023-03-15 15:39:16:556,0,-9.79478,-1.32339,-20.1689,Q,Q
2023-03-15 15:39:16:567,0,-9.83313,-1.30666,-20.1502,Q,Q
2023-03-15 15:39:16:577,0,-9.87462,-1.29164,-20.1264,Q,Q
2023-03-15 15:39:16:587,0,-9.9097,-1.27277,-20.0972,Q,Q
2023-03-15 15:39:16:597,0,-9.93246,-1.251,-20.0696,Q,Q
2023-03-15 15:39:16:607,0,-9.94791,-1.22727,-20.0418,Q,Q
2023-03-15 15:39:16:617,0,-9.96166,-1.19859,-20.0136,Q,Q
2023-03-15 15:39:16:626,0,-9.9678,-1.16668,-19.9864,Q,Q
2023-03-15 15:39:16:637,0,-9.97674,-1.14025,-19.9601,Q,Q
2023-03-15 15:39:16:647,0,-9.9828,-1.11268,-19.9382,Q,Q
2023-03-15 15:39:16:657,0,-9.9926,-1.08027,-19.9203,Q,Q
2023-03-15 15:39:16:667,0,-10.0017,-1.04692,-19.9077,Q,Q
2023-03-15 15:39:16:677,0,-10.0061,-1.01884,-19.8915,Q,Q
2023-03-15 15:39:16:687,0,-9.99858,-0.99685,-19.8783,Q,Q
2023-03-15 15:39:16:697,0,-9.98696,-0.979399,-19.8641,Q,Q
2023-03-15 15:39:16:707,0,-9.97406,-0.966748,-19.8527,Q,Q
2023-03-15 15:39:16:716,0,-9.96516,-0.9538,-19.8445,Q,Q
2023-03-15 15:39:16:727,0,-9.95784,-0.939593,-19.841,Q,Q
2023-03-15 15:39:16:737,0,-9.94692,-0.923657,-19.8446,Q,Q
2023-03-15 15:39:16:747,0,-9.94124,-0.908975,-19.8481,Q,Q
2023-03-15 15:39:16:756,0,-9.94042,-0.892522,-19.855,Q,Q
2023-03-15 15:39:16:766,0,-9.94474,-0.873986,-19.8623,Q,Q
2023-03-15 15:39:16:776,0,-9.95211,-0.856379,-19.8694,Q,Q
2023-03-15 15:39:16:786,0,-9.95795,-0.833939,-19.8804,Q,Q
2023-03-15 15:39:16:796,0,-9.96189,-0.806386,-19.8896,Q,Q
2023-03-15 15:39:16:807,0,-9.97193,-0.780839,-19.8986,Q,Q
2023-03-15 15:39:16:816,0,-9.98204,-0.749939,-19.9019,Q,Q
2023-03-15 15:39:16:826,0,-9.98874,-0.720768,-19.9002,Q,Q
2023-03-15 15:39:16:837,0,-9.9907,-0.693472,-19.893,Q,Q
2023-03-15 15:39:16:847,0,-9.98847,-0.664511,-19.8839,Q,Q
2023-03-15 15:39:16:857,0,-9.98386,-0.633427,-19.8685,Q,Q
2023-03-15 15:39:16:867,0,-9.97511,-0.598439,-19.8508,Q,Q
2023-03-15 15:39:16:877,0,-9.97006,-0.56007,-19.8282,Q,Q
2023-03-15 15:39:16:886,0,-9.96315,-0.519934,-19.8039,Q,Q
2023-03-15 15:39:16:897,0,-9.95583,-0.480473,-19.7803,Q,Q
2023-03-15 15:39:16:907,0,-9.94903,-0.440811,-19.7545,Q,Q
2023-03-15 15:39:16:917,0,-9.94036,-0.405765,-19.7264,Q,Q
2023-03-15 15:39:16:927,0,-9.92206,-0.376674,-19.6981,Q,Q
2023-03-15 15:39:16:937,0,-9.89629,-0.350545,-19.6712,Q,Q
2023-03-15 15:39:16:947,0,-9.86714,-0.328928,-19.6447,Q,Q
2023-03-15 15:39:16:957,0,-9.83313,-0.311734,-19.6215,Q,Q
2023-03-15 15:39:16:967,0,-9.80011,-0.297464,-19.598,Q,Q
2023-03-15 15:39:16:977,0,-9.7725,-0.284822,-19.5768,Q,Q
2023-03-15 15:39:16:987,0,-9.75503,-0.270974,-19.5587,Q,Q
2023-03-15 15:39:16:997,0,-9.74766,-0.260866,-19.544,Q,Q
2023-03-15 15:39:17:7,0,-9.75022,-0.252168,-19.5295,Q,Q
2023-03-15 15:39:17:17,0,-9.75317,-0.243163,-19.5117,Q,Q
2023-03-15 15:39:17:27,0,-9.75794,-0.235274,-19.4946,Q,Q
2023-03-15 15:39:17:37,0,-9.76348,-0.224171,-19.4788,Q,Q
2023-03-15 15:39:17:47,0,-9.76896,-0.213817,-19.4635,Q,Q
2023-03-15 15:39:17:57,0,-9.78093,-0.203765,-19.4475,Q,Q
2023-03-15 15:39:17:67,0,-9.79556,-0.193146,-19.4333,Q,Q
2023-03-15 15:39:17:77,0,-9.82159,-0.179093,-19.4185,Q,Q
2023-03-15 15:39:17:87,0,-9.84887,-0.165687,-19.4053,Q,Q
2023-03-15 15:39:17:97,0,-9.88155,-0.148894,-19.3895,Q,Q
2023-03-15 15:39:17:106,0,-9.92226,-0.134116,-19.3796,Q,Q
2023-03-15 15:39:17:117,0,-9.96109,-0.118977,-19.375,Q,Q
2023-03-15 15:39:17:127,0,-10.0008,-0.100222,-19.3732,Q,Q
2023-03-15 15:39:17:137,0,-10.0428,-0.0840791,-19.3764,Q,Q
2023-03-15 15:39:17:147,0,-10.0803,-0.0713949,-19.3834,Q,Q
2023-03-15 15:39:17:157,0,-10.1168,-0.0598035,-19.3976,Q,Q
2023-03-15 15:39:17:167,0,-10.1484,-0.0507213,-19.4158,Q,Q
2023-03-15 15:39:17:177,0,-10.1782,-0.0410182,-19.4364,Q,Q
2023-03-15 15:39:17:187,0,-10.2057,-0.028838,-19.4647,Q,Q
2023-03-15 15:39:17:197,0,-10.2339,-0.0171205,-19.4962,Q,Q
2023-03-15 15:39:17:207,0,-10.2601,-0.00165206,-19.5237,Q,Q
2023-03-15 15:39:17:217,0,-10.2865,0.0105249,-19.5508,Q,Q
2023-03-15 15:39:17:227,0,-10.3064,0.0167347,-19.5743,Q,Q
2023-03-15 15:39:17:237,0,-10.321,0.0243419,-19.602,Q,Q
2023-03-15 15:39:17:247,0,-10.3284,0.0309969,-19.6242,Q,Q
2023-03-15 15:39:17:257,0,-10.3289,0.0405406,-19.6496,Q,Q
2023-03-15 15:39:17:267,0,-10.3231,0.0508153,-19.6747,Q,Q
2023-03-15 15:39:17:277,0,-10.3138,0.0626748,-19.6959,Q,Q
2023-03-15 15:39:17:287,0,-10.3006,0.0778544,-19.7221,Q,Q
2023-03-15 15:39:17:297,0,-10.2859,0.0939822,-19.7368,Q,Q
2023-03-15 15:39:17:307,0,-10.2762,0.113165,-19.7556,Q,Q
2023-03-15 15:39:17:316,0,-10.2674,0.132403,-19.7713,Q,Q
2023-03-15 15:39:17:326,0,-10.2664,0.148693,-19.7878,Q,Q
2023-03-15 15:39:17:336,0,-10.2751,0.162855,-19.8003,Q,Q
2023-03-15 15:39:17:346,0,-10.2873,0.176587,-19.8153,Q,Q
2023-03-15 15:39:17:356,0,-10.3032,0.18952,-19.8241,Q,Q
2023-03-15 15:39:17:366,0,-10.316,0.204176,-19.8348,Q,Q
2023-03-15 15:39:17:376,0,-10.3264,0.217286,-19.8399,Q,Q
2023-03-15 15:39:17:387,0,-10.3393,0.225437,-19.845,Q,Q
2023-03-15 15:39:17:397,0,-10.3462,0.234842,-19.8454,Q,Q
2023-03-15 15:39:17:407,0,-10.3528,0.245386,-19.8455,Q,Q
2023-03-15 15:39:17:416,0,-10.3583,0.257297,-19.8418,Q,Q
2023-03-15 15:39:17:427,0,-10.366,0.26969,-19.8337,Q,Q
2023-03-15 15:39:17:437,0,-10.3751,0.282447,-19.8264,Q,Q
2023-03-15 15:39:17:447,0,-10.3936,0.304277,-19.8177,Q,Q
2023-03-15 15:39:17:456,0,-10.4158,0.327302,-19.8101,Q,Q
2023-03-15 15:39:17:467,0,-10.4373,0.347309,-19.8015,Q,Q
2023-03-15 15:39:17:477,0,-10.4609,0.362973,-19.7959,Q,Q
2023-03-15 15:39:17:487,0,-10.4838,0.376069,-19.7883,Q,Q
2023-03-15 15:39:17:497,0,-10.5012,0.385531,-19.7835,Q,Q
2023-03-15 15:39:17:507,0,-10.5138,0.396964,-19.7817,Q,Q
2023-03-15 15:39:17:517,0,-10.5195,0.408048,-19.7823,Q,Q
2023-03-15 15:39:17:527,0,-10.5233,0.417926,-19.7848,Q,Q
2023-03-15 15:39:17:537,0,-10.5278,0.422951,-19.7889,Q,Q
2023-03-15 15:39:17:547,0,-10.5336,0.426039,-19.789,Q,Q
2023-03-15 15:39:17:557,0,-10.5389,0.427785,-19.7937,Q,Q
2023-03-15 15:39:17:567,0,-10.5451,0.426404,-19.7997,Q,Q
2023-03-15 15:39:17:577,0,-10.549,0.423783,-19.8043,Q,Q
2023-03-15 15:39:17:587,0,-10.5594,0.418715,-19.8083,Q,Q
2023-03-15 15:39:17:597,0,-10.5664,0.413008,-19.8165,Q,Q
2023-03-15 15:39:17:607,0,-10.576,0.408118,-19.8238,Q,Q
2023-03-15 15:39:17:617,0,-10.5793,0.404882,-19.8296,Q,Q
2023-03-15 15:39:17:627,0,-10.5899,0.400278,-19.8358,Q,Q
2023-03-15 15:39:17:637,0,-10.6006,0.395914,-19.8424,Q,Q
2023-03-15 15:39:17:647,0,-10.6122,0.385773,-19.8511,Q,Q
2023-03-15 15:39:17:657,0,-10.6254,0.375311,-19.8614,Q,Q
2023-03-15 15:39:17:667,0,-10.6366,0.362184,-19.8657,Q,Q
2023-03-15 15:39:17:677,0,-10.6414,0.346114,-19.8734,Q,Q
2023-03-15 15:39:17:687,0,-10.6454,0.329978,-19.8812,Q,Q
2023-03-15 15:39:17:697,0,-10.6436,0.314355,-19.888,Q,Q
2023-03-15 15:39:17:707,0,-10.6413,0.299753,-19.8999,Q,Q
2023-03-15 15:39:17:717,0,-10.6399,0.283346,-19.9081,Q,Q
2023-03-15 15:39:17:727,0,-10.6391,0.268159,-19.919,Q,Q
2023-03-15 15:39:17:737,0,-10.6428,0.252995,-19.9304,Q,Q
2023-03-15 15:39:17:747,0,-10.6533,0.23529,-19.9401,Q,Q
2023-03-15 15:39:17:757,0,-10.6635,0.217185,-19.9502,Q,Q
2023-03-15 15:39:17:767,0,-10.6729,0.200935,-19.9618,Q,Q
2023-03-15 15:39:17:776,0,-10.6851,0.186127,-19.9707,Q,Q
2023-03-15 15:39:17:786,0,-10.6991,0.170263,-19.9765,Q,Q
2023-03-15 15:39:17:797,0,-10.71,0.155113,-19.9827,Q,Q
2023-03-15 15:39:17:806,0,-10.7218,0.143669,-19.9883,Q,Q
2023-03-15 15:39:17:816,0,-10.7321,0.138131,-19.9922,Q,Q
2023-03-15 15:39:17:827,0,-10.7426,0.133825,-19.9919,Q,Q
2023-03-15 15:39:17:837,0,-10.7557,0.131593,-19.99,Q,Q
2023-03-15 15:39:17:847,0,-10.7703,0.122951,-19.9877,Q,Q
2023-03-15 15:39:17:857,0,-10.7826,0.113721,-19.9782,Q,Q
2023-03-15 15:39:17:867,0,-10.7956,0.100191,-19.9685,Q,Q
2023-03-15 15:39:17:877,0,-10.8068,0.083544,-19.9579,Q,Q
2023-03-15 15:39:17:887,0,-10.813,0.0688266,-19.9457,Q,Q
2023-03-15 15:39:17:897,0,-10.8122,0.0565445,-19.9348,Q,Q
2023-03-15 15:39:17:906,0,-10.8037,0.0401149,-19.9253,Q,Q
2023-03-15 15:39:17:916,0,-10.7951,0.0268837,-19.9128,Q,Q
2023-03-15 15:39:17:927,0,-10.7831,0.0165975,-19.8983,Q,Q
2023-03-15 15:39:17:937,0,-10.7651,0.00619973,-19.8821,Q,Q
2023-03-15 15:39:17:947,0,-10.7517,-0.00315122,-19.8709,Q,Q
2023-03-15 15:39:17:957,0,-10.7427,-0.0139357,-19.8574,Q,Q
2023-03-15 15:39:17:967,0,-10.737,-0.0192005,-19.8464,Q,Q
2023-03-15 15:39:17:977,0,-10.7336,-0.0242375,-19.8364,Q,Q
2023-03-15 15:39:17:987,0,-10.736,-0.0319249,-19.8264,Q,Q
2023-03-15 15:39:17:997,0,-10.7383,-0.0408993,-19.8191,Q,Q
2023-03-15 15:39:18:7,0,-10.7414,-0.0563381,-19.8102,Q,Q
2023-03-15 15:39:18:17,0,-10.7382,-0.0715365,-19.8046,Q,Q
2023-03-15 15:39:18:27,0,-10.734,-0.0872893,-19.7996,Q,Q
2023-03-15 15:39:18:37,0,-10.7261,-0.10351,-19.7949,Q,Q
2023-03-15 15:39:18:47,0,-10.7114,-0.120009,-19.7912,Q,Q
2023-03-15 15:39:18:57,0,-10.6934,-0.133008,-19.7864,Q,Q
2023-03-15 15:39:18:67,0,-10.673,-0.143101,-19.7812,Q,Q
2023-03-15 15:39:18:77,0,-10.6531,-0.149789,-19.7784,Q,Q
2023-03-15 15:39:18:87,0,-10.6324,-0.152556,-19.7765,Q,Q
2023-03-15 15:39:18:97,0,-10.6121,-0.156122,-19.7757,Q,Q
2023-03-15 15:39:18:107,0,-10.5923,-0.154361,-19.7785,Q,Q
2023-03-15 15:39:18:117,0,-10.5746,-0.15382,-19.7859,Q,Q
2023-03-15 15:39:18:127,0,-10.5587,-0.155373,-19.7926,Q,Q
2023-03-15 15:39:18:137,0,-10.542,-0.160516,-19.7989,Q,Q
2023-03-15 15:39:18:147,0,-10.5241,-0.16661,-19.8072,Q,Q
2023-03-15 15:39:18:157,0,-10.5071,-0.1771,-19.8162,Q,Q
2023-03-15 15:39:18:167,0,-10.4893,-0.181276,-19.8241,Q,Q
2023-03-15 15:39:18:177,0,-10.4698,-0.182756,-19.8349,Q,Q
2023-03-15 15:39:18:187,0,-10.4557,-0.179469,-19.8459,Q,Q
2023-03-15 15:39:18:197,0,-10.4414,-0.178452,-19.8545,Q,Q
2023-03-15 15:39:18:207,0,-10.4314,-0.172512,-19.8626,Q,Q
2023-03-15 15:39:18:217,0,-10.4194,-0.161538,-19.8685,Q,Q
2023-03-15 15:39:18:227,0,-10.4078,-0.152676,-19.8707,Q,Q
2023-03-15 15:39:18:237,0,-10.3957,-0.142826,-19.8769,Q,Q
2023-03-15 15:39:18:247,0,-10.387,-0.134666,-19.8826,Q,Q
2023-03-15 15:39:18:257,0,-10.3797,-0.127618,-19.8937,Q,Q
2023-03-15 15:39:18:267,0,-10.3756,-0.121405,-19.9049,Q,Q
2023-03-15 15:39:18:277,0,-10.3722,-0.116452,-19.9153,Q,Q
2023-03-15 15:39:18:287,0,-10.3708,-0.114418,-19.9295,Q,Q
2023-03-15 15:39:18:297,0,-10.3741,-0.113544,-19.9454,Q,Q
2023-03-15 15:39:18:306,0,-10.3849,-0.111983,-19.9604,Q,Q
2023-03-15 15:39:18:316,0,-10.3942,-0.114772,-19.9742,Q,Q
2023-03-15 15:39:18:327,0,-10.4054,-0.117231,-19.9851,Q,Q
2023-03-15 15:39:18:337,0,-10.4153,-0.124841,-19.9941,Q,Q
2023-03-15 15:39:18:347,0,-10.4268,-0.12442,-20.0021,Q,Q
2023-03-15 15:39:18:357,0,-10.43,-0.123092,-20.0081,Q,Q
2023-03-15 15:39:18:367,0,-10.4292,-0.119036,-20.0121,Q,Q
2023-03-15 15:39:18:377,0,-10.4268,-0.11557,-20.013,Q,Q
2023-03-15 15:39:18:387,0,-10.4217,-0.106686,-20.0158,Q,Q
2023-03-15 15:39:18:397,0,-10.4257,-0.0978978,-20.0195,Q,Q
2023-03-15 15:39:18:407,0,-10.4284,-0.0965268,-20.0272,Q,Q
2023-03-15 15:39:18:417,0,-10.4348,-0.100813,-20.0382,Q,Q
2023-03-15 15:39:18:427,0,-10.444,-0.106122,-20.0523,Q,Q
2023-03-15 15:39:18:437,0,-10.4545,-0.115448,-20.0769,Q,Q
2023-03-15 15:39:18:447,0,-10.4652,-0.130538,-20.1027,Q,Q
2023-03-15 15:39:18:457,0,-10.4763,-0.147067,-20.1381,Q,Q
2023-03-15 15:39:18:467,0,-10.4855,-0.164573,-20.1756,Q,Q
2023-03-15 15:39:18:477,0,-10.4915,-0.184415,-20.2141,Q,Q
2023-03-15 15:39:18:487,0,-10.5002,-0.202093,-20.2526,Q,Q
2023-03-15 15:39:18:497,0,-10.5026,-0.217156,-20.286,Q,Q
2023-03-15 15:39:18:507,0,-10.5058,-0.230024,-20.3135,Q,Q
2023-03-15 15:39:18:517,0,-10.5097,-0.236425,-20.3422,Q,Q
2023-03-15 15:39:18:527,0,-10.5159,-0.241281,-20.3711,Q,Q
2023-03-15 15:39:18:537,0,-10.5213,-0.240343,-20.3862,Q,Q
2023-03-15 15:39:18:547,0,-10.5305,-0.235552,-20.3958,Q,Q
2023-03-15 15:39:18:557,0,-10.5379,-0.232098,-20.4045,Q,Q
2023-03-15 15:39:18:567,0,-10.5457,-0.230338,-20.4074,Q,Q
2023-03-15 15:39:18:577,0,-10.5501,-0.225251,-20.4095,Q,Q
2023-03-15 15:39:18:587,0,-10.5566,-0.221721,-20.4107,Q,Q
2023-03-15 15:39:18:597,0,-10.5656,-0.220408,-20.4073,Q,Q
2023-03-15 15:39:18:607,0,-10.5732,-0.221385,-20.4057,Q,Q
2023-03-15 15:39:18:617,0,-10.5823,-0.22477,-20.4033,Q,Q
2023-03-15 15:39:18:627,0,-10.5927,-0.228905,-20.3981,Q,Q
2023-03-15 15:39:18:637,0,-10.6015,-0.232851,-20.3937,Q,Q
2023-03-15 15:39:18:647,0,-10.6124,-0.236958,-20.3921,Q,Q
2023-03-15 15:39:18:657,0,-10.6184,-0.237219,-20.3897,Q,Q
2023-03-15 15:39:18:667,0,-10.6193,-0.235861,-20.3878,Q,Q
2023-03-15 15:39:18:677,0,-10.6223,-0.228466,-20.3845,Q,Q
2023-03-15 15:39:18:687,0,-10.6262,-0.223046,-20.3818,Q,Q
2023-03-15 15:39:18:697,0,-10.633,-0.214866,-20.3791,Q,Q
2023-03-15 15:39:18:707,0,-10.639,-0.207533,-20.3724,Q,Q
2023-03-15 15:39:18:717,0,-10.6478,-0.199777,-20.369,Q,Q
2023-03-15 15:39:18:727,0,-10.6594,-0.191462,-20.3656,Q,Q
2023-03-15 15:39:18:737,0,-10.6655,-0.184022,-20.3574,Q,Q
2023-03-15 15:39:18:747,0,-10.6721,-0.176649,-20.3511,Q,Q
2023-03-15 15:39:18:757,0,-10.6757,-0.172807,-20.3427,Q,Q
2023-03-15 15:39:18:767,0,-10.6777,-0.170436,-20.333,Q,Q
2023-03-15 15:39:18:777,0,-10.6833,-0.169492,-20.3203,Q,Q
2023-03-15 15:39:18:787,0,-10.6847,-0.169568,-20.3077,Q,Q
2023-03-15 15:39:18:797,0,-10.6908,-0.171763,-20.2942,Q,Q
2023-03-15 15:39:18:807,0,-10.6988,-0.173811,-20.2791,Q,Q
2023-03-15 15:39:18:816,0,-10.7107,-0.170349,-20.2637,Q,Q
2023-03-15 15:39:18:827,0,-10.7194,-0.173021,-20.2453,Q,Q
2023-03-15 15:39:18:837,0,-10.7281,-0.174894,-20.2273,Q,Q
2023-03-15 15:39:18:847,0,-10.7421,-0.179395,-20.2057,Q,Q
2023-03-15 15:39:18:857,0,-10.7569,-0.182205,-20.1885,Q,Q
2023-03-15 15:39:18:867,0,-10.7695,-0.186723,-20.1728,Q,Q
2023-03-15 15:39:18:877,0,-10.7837,-0.189004,-20.163,Q,Q
2023-03-15 15:39:18:887,0,-10.7986,-0.188223,-20.1517,Q,Q
2023-03-15 15:39:18:897,0,-10.8133,-0.191355,-20.1471,Q,Q
2023-03-15 15:39:18:907,0,-10.8275,-0.196728,-20.1421,Q,Q
2023-03-15 15:39:18:916,0,-10.8445,-0.201643,-20.1381,Q,Q
2023-03-15 15:39:18:927,0,-10.8595,-0.209409,-20.1341,Q,Q
2023-03-15 15:39:18:937,0,-10.8704,-0.22411,-20.1311,Q,Q
2023-03-15 15:39:18:947,0,-10.8778,-0.238345,-20.1251,Q,Q
2023-03-15 15:39:18:957,0,-10.8853,-0.261357,-20.1251,Q,Q
2023-03-15 15:39:18:967,0,-10.8921,-0.280154,-20.1249,Q,Q
2023-03-15 15:39:18:977,0,-10.8831,-0.295075,-20.1263,Q,Q
2023-03-15 15:39:18:987,0,-10.873,-0.299488,-20.1234,Q,Q
2023-03-15 15:39:18:997,0,-10.8612,-0.303191,-20.1185,Q,Q
2023-03-15 15:39:19:7,0,-10.8534,-0.310634,-20.1089,Q,Q
2023-03-15 15:39:19:17,0,-10.8482,-0.313882,-20.103,Q,Q
2023-03-15 15:39:19:27,0,-10.8427,-0.315691,-20.0927,Q,Q
2023-03-15 15:39:19:37,0,-10.837,-0.3222,-20.0817,Q,Q
2023-03-15 15:39:19:47,0,-10.8294,-0.331978,-20.0699,Q,Q
2023-03-15 15:39:19:57,0,-10.8205,-0.337065,-20.0595,Q,Q
2023-03-15 15:39:19:67,0,-10.8124,-0.337274,-20.05,Q,Q
2023-03-15 15:39:19:77,0,-10.8066,-0.343182,-20.0423,Q,Q
2023-03-15 15:39:19:87,0,-10.8024,-0.346695,-20.0346,Q,Q
2023-03-15 15:39:19:97,0,-10.8001,-0.348021,-20.0291,Q,Q
2023-03-15 15:39:19:107,0,-10.7932,-0.354184,-20.0266,Q,Q
2023-03-15 15:39:19:116,0,-10.7909,-0.360616,-20.0217,Q,Q
2023-03-15 15:39:19:127,0,-10.7917,-0.367829,-20.0161,Q,Q
2023-03-15 15:39:19:137,0,-10.7982,-0.379671,-20.0144,Q,Q
2023-03-15 15:39:19:147,0,-10.8105,-0.391708,-20.0149,Q,Q
2023-03-15 15:39:19:157,0,-10.819,-0.402873,-20.0155,Q,Q
2023-03-15 15:39:19:167,0,-10.8273,-0.412963,-20.017,Q,Q
2023-03-15 15:39:19:177,0,-10.8344,-0.423272,-20.0154,Q,Q
2023-03-15 15:39:19:187,0,-10.8425,-0.430571,-20.015,Q,Q
2023-03-15 15:39:19:197,0,-10.8534,-0.438832,-20.013,Q,Q
2023-03-15 15:39:19:207,0,-10.8619,-0.447968,-20.0118,Q,Q
2023-03-15 15:39:19:217,0,-10.8713,-0.450853,-20.0106,Q,Q
2023-03-15 15:39:19:227,0,-10.8777,-0.457021,-20.0061,Q,Q
2023-03-15 15:39:19:237,0,-10.8863,-0.462435,-20.0009,Q,Q
2023-03-15 15:39:19:247,0,-10.8911,-0.464586,-19.9986,Q,Q
2023-03-15 15:39:19:257,0,-10.8985,-0.46881,-19.9944,Q,Q
2023-03-15 15:39:19:267,0,-10.9011,-0.468222,-19.9896,Q,Q
2023-03-15 15:39:19:277,0,-10.8978,-0.467935,-19.982,Q,Q
2023-03-15 15:39:19:287,0,-10.9004,-0.467253,-19.9762,Q,Q
2023-03-15 15:39:19:297,0,-10.9019,-0.46334,-19.9747,Q,Q
2023-03-15 15:39:19:307,0,-10.9057,-0.461425,-19.9754,Q,Q
2023-03-15 15:39:19:317,0,-10.9098,-0.457878,-19.9769,Q,Q
2023-03-15 15:39:19:326,0,-10.9139,-0.45358,-19.9759,Q,Q
2023-03-15 15:39:19:336,0,-10.9179,-0.449621,-19.9798,Q,Q
2023-03-15 15:39:19:346,0,-10.9234,-0.445317,-19.9846,Q,Q
2023-03-15 15:39:19:357,0,-10.9274,-0.439802,-19.9905,Q,Q
2023-03-15 15:39:19:367,0,-10.9287,-0.437146,-19.9965,Q,Q
2023-03-15 15:39:19:377,0,-10.9299,-0.432144,-20.0017,Q,Q
2023-03-15 15:39:19:387,0,-10.9328,-0.431299,-20.0107,Q,Q
2023-03-15 15:39:19:397,0,-10.9315,-0.424676,-20.0211,Q,Q
2023-03-15 15:39:19:406,0,-10.9311,-0.417193,-20.0338,Q,Q
2023-03-15 15:39:19:416,0,-10.9246,-0.409649,-20.0434,Q,Q
2023-03-15 15:39:19:427,0,-10.9148,-0.400212,-20.0512,Q,Q
2023-03-15 15:39:19:437,0,-10.9074,-0.386558,-20.0616,Q,Q
2023-03-15 15:39:19:447,0,-10.8968,-0.373734,-20.0705,Q,Q
2023-03-15 15:39:19:457,0,-10.8813,-0.360138,-20.0772,Q,Q
2023-03-15 15:39:19:467,0,-10.8674,-0.346077,-20.0802,Q,Q
2023-03-15 15:39:19:477,0,-10.8511,-0.330846,-20.0863,Q,Q
2023-03-15 15:39:19:487,0,-10.8362,-0.315092,-20.089,Q,Q
2023-03-15 15:39:19:497,0,-10.8213,-0.301479,-20.0939,Q,Q
2023-03-15 15:39:19:507,0,-10.8067,-0.283045,-20.1022,Q,Q
2023-03-15 15:39:19:517,0,-10.7941,-0.268286,-20.1127,Q,Q
2023-03-15 15:39:19:527,0,-10.7803,-0.251364,-20.1242,Q,Q
2023-03-15 15:39:19:537,0,-10.7642,-0.234042,-20.1367,Q,Q
2023-03-15 15:39:19:547,0,-10.7502,-0.213527,-20.1517,Q,Q
2023-03-15 15:39:19:557,0,-10.7345,-0.195306,-20.1657,Q,Q
2023-03-15 15:39:19:567,0,-10.7194,-0.169648,-20.1826,Q,Q
2023-03-15 15:39:19:577,0,-10.7042,-0.148993,-20.1963,Q,Q
2023-03-15 15:39:19:587,0,-10.6874,-0.128502,-20.2109,Q,Q
2023-03-15 15:39:19:597,0,-10.6761,-0.110434,-20.2253,Q,Q
2023-03-15 15:39:19:606,0,-10.6637,-0.0933433,-20.2381,Q,Q
2023-03-15 15:39:19:616,0,-10.6496,-0.0755249,-20.2522,Q,Q
2023-03-15 15:39:19:627,0,-10.6408,-0.0617627,-20.2689,Q,Q
2023-03-15 15:39:19:637,0,-10.6278,-0.0449913,-20.2848,Q,Q
2023-03-15 15:39:19:647,0,-10.6133,-0.0315022,-20.2995,Q,Q
2023-03-15 15:39:19:657,0,-10.5994,-0.018879,-20.3108,Q,Q
2023-03-15 15:39:19:666,0,-10.5862,-0.00645051,-20.3214,Q,Q
2023-03-15 15:39:19:676,0,-10.5716,-0.00140849,-20.333,Q,Q
2023-03-15 15:39:19:687,0,-10.5601,0.00655268,-20.3416,Q,Q
2023-03-15 15:39:19:697,0,-10.5501,0.0180656,-20.3508,Q,Q
2023-03-15 15:39:19:707,0,-10.5448,0.0268028,-20.3568,Q,Q
2023-03-15 15:39:19:716,0,-10.5434,0.0376197,-20.3627,Q,Q
2023-03-15 15:39:19:727,0,-10.5468,0.0482578,-20.3716,Q,Q
2023-03-15 15:39:19:737,0,-10.5536,0.0545746,-20.3799,Q,Q
2023-03-15 15:39:19:747,0,-10.5602,0.0605723,-20.3892,Q,Q
2023-03-15 15:39:19:756,0,-10.5682,0.063348,-20.4021,Q,Q
2023-03-15 15:39:19:766,0,-10.5737,0.067749,-20.4188,Q,Q
2023-03-15 15:39:19:776,0,-10.5846,0.0702244,-20.434,Q,Q
2023-03-15 15:39:19:786,0,-10.5978,0.0764102,-20.4531,Q,Q
2023-03-15 15:39:19:796,0,-10.6117,0.0772202,-20.468,Q,Q
2023-03-15 15:39:19:806,0,-10.6255,0.0785086,-20.4829,Q,Q
2023-03-15 15:39:19:817,0,-10.6414,0.0777365,-20.4959,Q,Q
2023-03-15 15:39:19:827,0,-10.6536,0.0781924,-20.5088,Q,Q
2023-03-15 15:39:19:836,0,-10.6616,0.0721554,-20.5181,Q,Q
2023-03-15 15:39:19:847,0,-10.6722,0.0702995,-20.5268,Q,Q
2023-03-15 15:39:19:857,0,-10.685,0.0674224,-20.5311,Q,Q
2023-03-15 15:39:19:867,0,-10.6964,0.0673184,-20.534,Q,Q
2023-03-15 15:39:19:877,0,-10.7096,0.0680723,-20.5315,Q,Q
2023-03-15 15:39:19:886,0,-10.7218,0.0660683,-20.5254,Q,Q
2023-03-15 15:39:19:897,0,-10.7395,0.0661418,-20.5212,Q,Q
2023-03-15 15:39:19:906,0,-10.7533,0.0645205,-20.5145,Q,Q
2023-03-15 15:39:19:917,0,-10.7612,0.0647421,-20.505,Q,Q
2023-03-15 15:39:19:927,0,-10.7686,0.0641928,-20.4902,Q,Q
2023-03-15 15:39:19:937,0,-10.7715,0.062326,-20.4781,Q,Q
2023-03-15 15:39:19:947,0,-10.7723,0.0619404,-20.4648,Q,Q
2023-03-15 15:39:19:957,0,-10.7714,0.0608307,-20.4453,Q,Q
2023-03-15 15:39:19:967,0,-10.77,0.0621862,-20.4278,Q,Q
2023-03-15 15:39:19:977,0,-10.7796,0.0644906,-20.4106,Q,Q
2023-03-15 15:39:19:987,0,-10.7826,0.0703408,-20.3987,Q,Q
2023-03-15 15:39:19:997,0,-10.7828,0.0780911,-20.3862,Q,Q
2023-03-15 15:39:20:6,0,-10.7825,0.0841106,-20.3743,Q,Q
2023-03-15 15:39:20:16,0,-10.7808,0.0883662,-20.3671,Q,Q
2023-03-15 15:39:20:27,0,-10.7772,0.0932934,-20.3601,Q,Q
2023-03-15 15:39:20:37,0,-10.7764,0.0959142,-20.3541,Q,Q
2023-03-15 15:39:20:47,0,-10.775,0.0953873,-20.3481,Q,Q
2023-03-15 15:39:20:57,0,-10.7738,0.0917865,-20.347,Q,Q
2023-03-15 15:39:20:67,0,-10.7773,0.0918278,-20.3464,Q,Q
2023-03-15 15:39:20:77,0,-10.7822,0.0925116,-20.3432,Q,Q
2023-03-15 15:39:20:87,0,-10.7839,0.0911877,-20.3408,Q,Q
2023-03-15 15:39:20:97,0,-10.7828,0.090267,-20.3332,Q,Q
2023-03-15 15:39:20:107,0,-10.7791,0.089947,-20.3202,Q,Q
2023-03-15 15:39:20:117,0,-10.7722,0.092904,-20.3071,Q,Q
2023-03-15 15:39:20:126,0,-10.7693,0.0934236,-20.2901,Q,Q
2023-03-15 15:39:20:137,0,-10.7636,0.0929683,-20.2745,Q,Q
2023-03-15 15:39:20:147,0,-10.7579,0.0930732,-20.2561,Q,Q
2023-03-15 15:39:20:157,0,-10.7536,0.0890422,-20.2383,Q,Q
2023-03-15 15:39:20:167,0,-10.7509,0.0873108,-20.2192,Q,Q
2023-03-15 15:39:20:177,0,-10.7465,0.0865219,-20.2027,Q,Q
2023-03-15 15:39:20:187,0,-10.7408,0.0874344,-20.1927,Q,Q
2023-03-15 15:39:20:197,0,-10.7337,0.0861183,-20.1826,Q,Q
2023-03-15 15:39:20:207,0,-10.7251,0.0869023,-20.1805,Q,Q
2023-03-15 15:39:20:217,0,-10.7166,0.0882333,-20.1802,Q,Q
2023-03-15 15:39:20:227,0,-10.7074,0.0904397,-20.1836,Q,Q
2023-03-15 15:39:20:237,0,-10.7012,0.0906829,-20.1933,Q,Q
2023-03-15 15:39:20:247,0,-10.699,0.0918886,-20.2008,Q,Q
2023-03-15 15:39:20:257,0,-10.6989,0.0901978,-20.212,Q,Q
2023-03-15 15:39:20:267,0,-10.7003,0.0881336,-20.2229,Q,Q
2023-03-15 15:39:20:277,0,-10.7043,0.088576,-20.234,Q,Q
2023-03-15 15:39:20:287,0,-10.7132,0.0871905,-20.2406,Q,Q
2023-03-15 15:39:20:297,0,-10.7239,0.0881373,-20.2512,Q,Q
2023-03-15 15:39:20:307,0,-10.7369,0.0887372,-20.2605,Q,Q
2023-03-15 15:39:20:317,0,-10.7529,0.0906058,-20.2658,Q,Q
2023-03-15 15:39:20:327,0,-10.7714,0.0924599,-20.2719,Q,Q
2023-03-15 15:39:20:337,0,-10.7929,0.0954506,-20.2778,Q,Q
2023-03-15 15:39:20:347,0,-10.8143,0.0950238,-20.2801,Q,Q
2023-03-15 15:39:20:356,0,-10.8335,0.0969262,-20.284,Q,Q
2023-03-15 15:39:20:366,0,-10.8486,0.0996104,-20.2905,Q,Q
2023-03-15 15:39:20:377,0,-10.8651,0.0988024,-20.2991,Q,Q
2023-03-15 15:39:20:387,0,-10.8783,0.0975215,-20.306,Q,Q
2023-03-15 15:39:20:397,0,-10.8867,0.0908011,-20.3154,Q,Q
2023-03-15 15:39:20:407,0,-10.8962,0.0845413,-20.3198,Q,Q
2023-03-15 15:39:20:417,0,-10.9049,0.0816297,-20.3289,Q,Q
2023-03-15 15:39:20:427,0,-10.9129,0.0817463,-20.3382,Q,Q
2023-03-15 15:39:20:437,0,-10.9215,0.0765711,-20.3491,Q,Q
2023-03-15 15:39:20:447,0,-10.9288,0.0743328,-20.3599,Q,Q
2023-03-15 15:39:20:457,0,-10.9334,0.0703632,-20.3675,Q,Q
2023-03-15 15:39:20:467,0,-10.9354,0.0678672,-20.376,Q,Q
2023-03-15 15:39:20:477,0,-10.9356,0.0696639,-20.3819,Q,Q
2023-03-15 15:39:20:487,0,-10.9319,0.0702886,-20.3867,Q,Q
2023-03-15 15:39:20:497,0,-10.926,0.0724287,-20.3951,Q,Q
2023-03-15 15:39:20:507,0,-10.9176,0.0758824,-20.4035,Q,Q
2023-03-15 15:39:20:517,0,-10.9103,0.0799786,-20.4129,Q,Q
2023-03-15 15:39:20:527,0,-10.9006,0.080768,-20.4254,Q,Q
2023-03-15 15:39:20:537,0,-10.8885,0.0816833,-20.4386,Q,Q
2023-03-15 15:39:20:547,0,-10.8764,0.0828851,-20.4493,Q,Q
2023-03-15 15:39:20:557,0,-10.8621,0.084546,-20.4618,Q,Q
2023-03-15 15:39:20:567,0,-10.8471,0.0838741,-20.4762,Q,Q
2023-03-15 15:39:20:577,0,-10.8305,0.0842413,-20.4881,Q,Q
2023-03-15 15:39:20:587,0,-10.8197,0.0825627,-20.5036,Q,Q
2023-03-15 15:39:20:597,0,-10.8098,0.0816855,-20.5198,Q,Q
2023-03-15 15:39:20:607,0,-10.7963,0.0873524,-20.5336,Q,Q
2023-03-15 15:39:20:617,0,-10.7849,0.0904832,-20.5437,Q,Q
2023-03-15 15:39:20:627,0,-10.7731,0.0956765,-20.5517,Q,Q
2023-03-15 15:39:20:637,0,-10.7626,0.100954,-20.5579,Q,Q
2023-03-15 15:39:20:647,0,-10.7528,0.109165,-20.5639,Q,Q
2023-03-15 15:39:20:657,0,-10.7463,0.117019,-20.5729,Q,Q
2023-03-15 15:39:20:667,0,-10.7422,0.125863,-20.5837,Q,Q
2023-03-15 15:39:20:677,0,-10.7482,0.133486,-20.5969,Q,Q
2023-03-15 15:39:20:687,0,-10.7508,0.142329,-20.605,Q,Q
2023-03-15 15:39:20:697,0,-10.7551,0.145875,-20.6126,Q,Q
2023-03-15 15:39:20:707,0,-10.7577,0.144566,-20.6207,Q,Q
2023-03-15 15:39:20:717,0,-10.7623,0.138958,-20.6223,Q,Q
2023-03-15 15:39:20:727,0,-10.7653,0.133744,-20.6289,Q,Q
2023-03-15 15:39:20:737,0,-10.7702,0.132494,-20.633,Q,Q
2023-03-15 15:39:20:747,0,-10.7717,0.125148,-20.6337,Q,Q
2023-03-15 15:39:20:756,0,-10.7697,0.120244,-20.6306,Q,Q
2023-03-15 15:39:20:766,0,-10.7665,0.115928,-20.6296,Q,Q
2023-03-15 15:39:20:776,0,-10.7647,0.11284,-20.62,Q,Q
2023-03-15 15:39:20:786,0,-10.7639,0.109779,-20.6096,Q,Q
2023-03-15 15:39:20:796,0,-10.7646,0.107179,-20.5991,Q,Q
2023-03-15 15:39:20:806,0,-10.7638,0.109051,-20.5928,Q,Q
2023-03-15 15:39:20:817,0,-10.7625,0.109628,-20.5847,Q,Q
2023-03-15 15:39:20:827,0,-10.7629,0.104574,-20.5756,Q,Q
2023-03-15 15:39:20:837,0,-10.7572,0.101898,-20.5688,Q,Q
2023-03-15 15:39:20:847,0,-10.7529,0.0965312,-20.5622,Q,Q
2023-03-15 15:39:20:857,0,-10.7503,0.0916648,-20.5578,Q,Q
2023-03-15 15:39:20:866,0,-10.7493,0.0893865,-20.5512,Q,Q
2023-03-15 15:39:20:876,0,-10.7493,0.0846497,-20.5476,Q,Q
2023-03-15 15:39:20:886,0,-10.7465,0.0789194,-20.5431,Q,Q
2023-03-15 15:39:20:897,0,-10.7482,0.075852,-20.5407,Q,Q
2023-03-15 15:39:20:907,0,-10.7445,0.0752134,-20.5372,Q,Q
2023-03-15 15:39:20:916,0,-10.7442,0.0758847,-20.533,Q,Q
2023-03-15 15:39:20:927,0,-10.7468,0.0729006,-20.5273,Q,Q
2023-03-15 15:39:20:937,0,-10.7444,0.0678182,-20.5222,Q,Q
2023-03-15 15:39:20:947,0,-10.7413,0.0612234,-20.5133,Q,Q
2023-03-15 15:39:20:957,0,-10.7403,0.053285,-20.5094,Q,Q
2023-03-15 15:39:20:967,0,-10.7364,0.0473234,-20.5061,Q,Q
2023-03-15 15:39:20:977,0,-10.7279,0.0411108,-20.5005,Q,Q
2023-03-15 15:39:20:987,0,-10.7218,0.0337287,-20.4943,Q,Q
2023-03-15 15:39:20:997,0,-10.7113,0.0239575,-20.4906,Q,Q
2023-03-15 15:39:21:7,0,-10.7001,0.0169937,-20.485,Q,Q
2023-03-15 15:39:21:17,0,-10.6921,0.00914662,-20.4796,Q,Q
2023-03-15 15:39:21:27,0,-10.6831,0.00241605,-20.4745,Q,Q
2023-03-15 15:39:21:37,0,-10.672,-0.00668885,-20.4727,Q,Q
2023-03-15 15:39:21:47,0,-10.6611,-0.00823536,-20.4672,Q,Q
2023-03-15 15:39:21:57,0,-10.6493,-0.0092693,-20.4688,Q,Q
2023-03-15 15:39:21:67,0,-10.6382,-0.0116313,-20.4705,Q,Q
2023-03-15 15:39:21:77,0,-10.6266,-0.0156387,-20.4739,Q,Q
2023-03-15 15:39:21:87,0,-10.6151,-0.0194151,-20.4832,Q,Q
2023-03-15 15:39:21:97,0,-10.6026,-0.0255533,-20.4916,Q,Q
2023-03-15 15:39:21:107,0,-10.5976,-0.028387,-20.5052,Q,Q
2023-03-15 15:39:21:117,0,-10.594,-0.0359227,-20.521,Q,Q
2023-03-15 15:39:21:127,0,-10.5923,-0.0414976,-20.5391,Q,Q
2023-03-15 15:39:21:137,0,-10.5936,-0.0454289,-20.5607,Q,Q
2023-03-15 15:39:21:147,0,-10.5945,-0.0472599,-20.5845,Q,Q
2023-03-15 15:39:21:157,0,-10.602,-0.0486797,-20.6097,Q,Q
2023-03-15 15:39:21:167,0,-10.6094,-0.051123,-20.6332,Q,Q
2023-03-15 15:39:21:177,0,-10.6174,-0.0551141,-20.6518,Q,Q
2023-03-15 15:39:21:187,0,-10.6226,-0.0525849,-20.6739,Q,Q
2023-03-15 15:39:21:197,0,-10.6262,-0.0555632,-20.6938,Q,Q
2023-03-15 15:39:21:207,0,-10.6273,-0.0568006,-20.7132,Q,Q
2023-03-15 15:39:21:217,0,-10.625,-0.0568905,-20.7298,Q,Q
2023-03-15 15:39:21:227,0,-10.6199,-0.0572503,-20.7482,Q,Q
2023-03-15 15:39:21:237,0,-10.6168,-0.0511713,-20.7672,Q,Q
2023-03-15 15:39:21:247,0,-10.61,-0.0476479,-20.7821,Q,Q
2023-03-15 15:39:21:257,0,-10.6024,-0.0431894,-20.8007,Q,Q
2023-03-15 15:39:21:267,0,-10.5938,-0.0404425,-20.8143,Q,Q
2023-03-15 15:39:21:277,0,-10.5891,-0.0422154,-20.8257,Q,Q
2023-03-15 15:39:21:287,0,-10.5814,-0.0450542,-20.8414,Q,Q
2023-03-15 15:39:21:297,0,-10.5735,-0.0451085,-20.8569,Q,Q
2023-03-15 15:39:21:307,0,-10.5705,-0.0486639,-20.8714,Q,Q
2023-03-15 15:39:21:317,0,-10.5645,-0.0503802,-20.8868,Q,Q
2023-03-15 15:39:21:327,0,-10.5589,-0.0519582,-20.8961,Q,Q
2023-03-15 15:39:21:337,0,-10.5569,-0.0549512,-20.9065,Q,Q
2023-03-15 15:39:21:347,0,-10.5562,-0.053043,-20.9133,Q,Q
2023-03-15 15:39:21:357,0,-10.556,-0.050895,-20.9198,Q,Q
2023-03-15 15:39:21:367,0,-10.5541,-0.0517519,-20.9226,Q,Q
2023-03-15 15:39:21:376,0,-10.5519,-0.0517739,-20.9255,Q,Q
2023-03-15 15:39:21:386,0,-10.5487,-0.0540807,-20.9237,Q,Q
2023-03-15 15:39:21:397,0,-10.5402,-0.0530846,-20.9231,Q,Q
2023-03-15 15:39:21:407,0,-10.534,-0.0512378,-20.9193,Q,Q
2023-03-15 15:39:21:417,0,-10.5287,-0.0492257,-20.9164,Q,Q
2023-03-15 15:39:21:427,0,-10.52,-0.0486298,-20.9147,Q,Q
2023-03-15 15:39:21:437,0,-10.5063,-0.0472817,-20.9106,Q,Q
2023-03-15 15:39:21:447,0,-10.4953,-0.0479281,-20.9009,Q,Q
2023-03-15 15:39:21:457,0,-10.4851,-0.0515003,-20.8912,Q,Q
2023-03-15 15:39:21:467,0,-10.4774,-0.056548,-20.8833,Q,Q
2023-03-15 15:39:21:477,0,-10.4752,-0.0632448,-20.8779,Q,Q
2023-03-15 15:39:21:487,0,-10.4805,-0.0656446,-20.875,Q,Q
2023-03-15 15:39:21:497,0,-10.4863,-0.0695482,-20.8713,Q,Q
2023-03-15 15:39:21:507,0,-10.497,-0.0719087,-20.8665,Q,Q
2023-03-15 15:39:21:517,0,-10.5038,-0.0778029,-20.8643,Q,Q
2023-03-15 15:39:21:527,0,-10.5105,-0.0810674,-20.864,Q,Q
2023-03-15 15:39:21:537,0,-10.5178,-0.0852077,-20.8649,Q,Q
2023-03-15 15:39:21:547,0,-10.5309,-0.092672,-20.869,Q,Q
2023-03-15 15:39:21:557,0,-10.5413,-0.102005,-20.8727,Q,Q
2023-03-15 15:39:21:567,0,-10.5572,-0.108575,-20.8777,Q,Q
2023-03-15 15:39:21:577,0,-10.5715,-0.109847,-20.8856,Q,Q
2023-03-15 15:39:21:587,0,-10.5819,-0.114995,-20.8923,Q,Q
2023-03-15 15:39:21:597,0,-10.5966,-0.119949,-20.8964,Q,Q
2023-03-15 15:39:21:607,0,-10.6105,-0.132304,-20.9002,Q,Q
2023-03-15 15:39:21:617,0,-10.625,-0.144494,-20.9092,Q,Q
2023-03-15 15:39:21:627,0,-10.6294,-0.160203,-20.9159,Q,Q
2023-03-15 15:39:21:637,0,-10.6285,-0.175783,-20.9215,Q,Q
2023-03-15 15:39:21:647,0,-10.6271,-0.191321,-20.9264,Q,Q
2023-03-15 15:39:21:657,0,-10.6222,-0.204564,-20.931,Q,Q
2023-03-15 15:39:21:667,0,-10.6143,-0.218911,-20.9397,Q,Q
2023-03-15 15:39:21:677,0,-10.6079,-0.231257,-20.9456,Q,Q
2023-03-15 15:39:21:687,0,-10.5979,-0.244864,-20.953,Q,Q
2023-03-15 15:39:21:697,0,-10.5831,-0.254581,-20.9571,Q,Q
2023-03-15 15:39:21:707,0,-10.5692,-0.266933,-20.9592,Q,Q
2023-03-15 15:39:21:717,0,-10.5524,-0.277898,-20.9654,Q,Q
2023-03-15 15:39:21:727,0,-10.536,-0.289379,-20.9721,Q,Q
2023-03-15 15:39:21:737,0,-10.5198,-0.30228,-20.9763,Q,Q
2023-03-15 15:39:21:747,0,-10.5047,-0.317156,-20.9833,Q,Q
2023-03-15 15:39:21:757,0,-10.4951,-0.328889,-20.9965,Q,Q
2023-03-15 15:39:21:767,0,-10.4859,-0.341097,-21.0081,Q,Q
2023-03-15 15:39:21:777,0,-10.4771,-0.350901,-21.0224,Q,Q
2023-03-15 15:39:21:787,0,-10.464,-0.360027,-21.0408,Q,Q
2023-03-15 15:39:21:797,0,-10.4516,-0.368446,-21.063,Q,Q
2023-03-15 15:39:21:807,0,-10.4359,-0.380728,-21.0907,Q,Q
2023-03-15 15:39:21:817,0,-10.421,-0.391493,-21.1247,Q,Q
2023-03-15 15:39:21:827,0,-10.4065,-0.402479,-21.1619,Q,Q
2023-03-15 15:39:21:837,0,-10.3927,-0.409123,-21.2067,Q,Q
2023-03-15 15:39:21:847,0,-10.3847,-0.420725,-21.2588,Q,Q
2023-03-15 15:39:21:857,0,-10.3764,-0.429918,-21.3149,Q,Q
2023-03-15 15:39:21:867,0,-10.3717,-0.443254,-21.373,Q,Q
2023-03-15 15:39:21:877,0,-10.3705,-0.458214,-21.4367,Q,Q
2023-03-15 15:39:21:886,0,-10.3679,-0.477009,-21.5039,Q,Q
2023-03-15 15:39:21:896,0,-10.3592,-0.495859,-21.5719,Q,Q
2023-03-15 15:39:21:906,0,-10.3511,-0.518105,-21.6401,Q,Q
2023-03-15 15:39:21:917,0,-10.3369,-0.54917,-21.7038,Q,Q
2023-03-15 15:39:21:927,0,-10.3215,-0.585647,-21.7658,Q,Q
2023-03-15 15:39:21:937,0,-10.3064,-0.623756,-21.8227,Q,Q
2023-03-15 15:39:21:947,0,-10.2907,-0.665136,-21.8758,Q,Q
2023-03-15 15:39:21:957,0,-10.2744,-0.708999,-21.9276,Q,Q
2023-03-15 15:39:21:967,0,-10.2545,-0.754171,-21.9758,Q,Q
2023-03-15 15:39:21:977,0,-10.2326,-0.798795,-22.0168,Q,Q
2023-03-15 15:39:21:987,0,-10.2094,-0.84817,-22.059,Q,Q
2023-03-15 15:39:21:997,0,-10.1817,-0.900058,-22.0957,Q,Q
2023-03-15 15:39:22:7,0,-10.1543,-0.951139,-22.1293,Q,Q
2023-03-15 15:39:22:17,0,-10.1252,-1.00163,-22.1605,Q,Q
2023-03-15 15:39:22:27,0,-10.095,-1.05283,-22.1894,Q,Q
2023-03-15 15:39:22:37,0,-10.0659,-1.09837,-22.2202,Q,Q
2023-03-15 15:39:22:47,0,-10.0285,-1.14209,-22.248,Q,Q
2023-03-15 15:39:22:57,0,-9.99013,-1.18742,-22.2787,Q,Q
2023-03-15 15:39:22:67,0,-9.95092,-1.23044,-22.3063,Q,Q
2023-03-15 15:39:22:77,0,-9.90899,-1.27589,-22.3373,Q,Q
2023-03-15 15:39:22:87,0,-9.86609,-1.32031,-22.3708,Q,Q
2023-03-15 15:39:22:97,0,-9.82174,-1.36633,-22.4084,Q,Q
2023-03-15 15:39:22:107,0,-9.77299,-1.40885,-22.4442,Q,Q
2023-03-15 15:39:22:117,0,-9.72094,-1.45246,-22.4808,Q,Q
2023-03-15 15:39:22:127,0,-9.66579,-1.49425,-22.5188,Q,Q
2023-03-15 15:39:22:137,0,-9.61333,-1.53641,-22.5614,Q,Q
2023-03-15 15:39:22:147,0,-9.55707,-1.57092,-22.6041,Q,Q
2023-03-15 15:39:22:157,0,-9.49959,-1.60898,-22.6458,Q,Q
2023-03-15 15:39:22:167,0,-9.44028,-1.64506,-22.6896,Q,Q
2023-03-15 15:39:22:177,0,-9.38312,-1.67775,-22.73,Q,Q
2023-03-15 15:39:22:187,0,-9.32699,-1.70806,-22.7694,Q,Q
2023-03-15 15:39:22:197,0,-9.27121,-1.7335,-22.8028,Q,Q
2023-03-15 15:39:22:207,0,-9.21444,-1.75591,-22.8292,Q,Q
2023-03-15 15:39:22:217,0,-9.159,-1.7763,-22.8527,Q,Q
2023-03-15 15:39:22:227,0,-9.10805,-1.80063,-22.8642,Q,Q
2023-03-15 15:39:22:237,0,-9.05668,-1.82329,-22.8629,Q,Q
2023-03-15 15:39:22:247,0,-9.01089,-1.84482,-22.85,Q,Q
2023-03-15 15:39:22:257,0,-8.97307,-1.86478,-22.8334,Q,Q
2023-03-15 15:39:22:267,0,-8.93769,-1.88636,-22.8079,Q,Q
2023-03-15 15:39:22:277,0,-8.90668,-1.90036,-22.7791,Q,Q
2023-03-15 15:39:22:287,0,-8.87299,-1.91491,-22.7393,Q,Q
2023-03-15 15:39:22:297,0,-8.83901,-1.92764,-22.6972,Q,Q
2023-03-15 15:39:22:307,0,-8.80273,-1.9469,-22.6498,Q,Q
2023-03-15 15:39:22:317,0,-8.76656,-1.96774,-22.5993,Q,Q
2023-03-15 15:39:22:327,0,-8.73648,-1.98851,-22.543,Q,Q
2023-03-15 15:39:22:337,0,-8.70846,-2.00649,-22.4811,Q,Q
2023-03-15 15:39:22:347,0,-8.68328,-2.02089,-22.4135,Q,Q
2023-03-15 15:39:22:357,0,-8.6617,-2.03419,-22.3417,Q,Q
2023-03-15 15:39:22:367,0,-8.64249,-2.04764,-22.2707,Q,Q
2023-03-15 15:39:22:377,0,-8.62511,-2.06151,-22.1999,Q,Q
2023-03-15 15:39:22:387,0,-8.61173,-2.07206,-22.1284,Q,Q
2023-03-15 15:39:22:397,0,-8.5991,-2.0795,-22.0547,Q,Q
2023-03-15 15:39:22:406,0,-8.58475,-2.08826,-21.9857,Q,Q
2023-03-15 15:39:22:417,0,-8.57268,-2.0955,-21.9215,Q,Q
2023-03-15 15:39:22:427,0,-8.56402,-2.10466,-21.8599,Q,Q
2023-03-15 15:39:22:437,0,-8.5593,-2.117,-21.8023,Q,Q
2023-03-15 15:39:22:447,0,-8.56052,-2.1273,-21.7516,Q,Q
2023-03-15 15:39:22:457,0,-8.56126,-2.13987,-21.7065,Q,Q
2023-03-15 15:39:22:467,0,-8.56212,-2.15097,-21.6644,Q,Q
2023-03-15 15:39:22:477,0,-8.56733,-2.1641,-21.6246,Q,Q
2023-03-15 15:39:22:487,0,-8.56872,-2.18034,-21.5886,Q,Q
2023-03-15 15:39:22:497,0,-8.57128,-2.19513,-21.5498,Q,Q
2023-03-15 15:39:22:507,0,-8.5764,-2.2057,-21.5144,Q,Q
2023-03-15 15:39:22:517,0,-8.58108,-2.21152,-21.4821,Q,Q
2023-03-15 15:39:22:527,0,-8.58411,-2.21654,-21.4455,Q,Q
2023-03-15 15:39:22:537,0,-8.58702,-2.22422,-21.413,Q,Q
2023-03-15 15:39:22:547,0,-8.59448,-2.22497,-21.3827,Q,Q
2023-03-15 15:39:22:557,0,-8.6013,-2.22456,-21.3521,Q,Q
2023-03-15 15:39:22:567,0,-8.60659,-2.2239,-21.3157,Q,Q
2023-03-15 15:39:22:577,0,-8.61099,-2.2247,-21.2793,Q,Q
2023-03-15 15:39:22:587,0,-8.61833,-2.22625,-21.2478,Q,Q
2023-03-15 15:39:22:597,0,-8.62658,-2.22693,-21.2131,Q,Q
2023-03-15 15:39:22:607,0,-8.62991,-2.23052,-21.1839,Q,Q
2023-03-15 15:39:22:617,0,-8.63151,-2.2336,-21.1561,Q,Q
2023-03-15 15:39:22:627,0,-8.63109,-2.24045,-21.1362,Q,Q
2023-03-15 15:39:22:637,0,-8.63234,-2.24544,-21.1177,Q,Q
2023-03-15 15:39:22:647,0,-8.63676,-2.25269,-21.107,Q,Q
2023-03-15 15:39:22:657,0,-8.64512,-2.25598,-21.1009,Q,Q
2023-03-15 15:39:22:667,0,-8.65617,-2.2575,-21.0974,Q,Q
2023-03-15 15:39:22:677,0,-8.66632,-2.255,-21.0979,Q,Q
2023-03-15 15:39:22:687,0,-8.68044,-2.2551,-21.101,Q,Q
2023-03-15 15:39:22:697,0,-8.69774,-2.25399,-21.1073,Q,Q
2023-03-15 15:39:22:707,0,-8.71428,-2.25303,-21.1145,Q,Q
2023-03-15 15:39:22:717,0,-8.72849,-2.25249,-21.1233,Q,Q
2023-03-15 15:39:22:727,0,-8.74673,-2.24717,-21.1307,Q,Q
2023-03-15 15:39:22:737,0,-8.76759,-2.24097,-21.1368,Q,Q
2023-03-15 15:39:22:747,0,-8.77973,-2.23716,-21.1452,Q,Q
2023-03-15 15:39:22:757,0,-8.7935,-2.23035,-21.1517,Q,Q
2023-03-15 15:39:22:767,0,-8.80624,-2.22088,-21.1524,Q,Q
2023-03-15 15:39:22:777,0,-8.81891,-2.21006,-21.1514,Q,Q
2023-03-15 15:39:22:787,0,-8.83131,-2.19966,-21.1496,Q,Q
2023-03-15 15:39:22:797,0,-8.84005,-2.18885,-21.1408,Q,Q
2023-03-15 15:39:22:807,0,-8.8476,-2.17505,-21.136,Q,Q
2023-03-15 15:39:22:817,0,-8.85802,-2.16361,-21.1246,Q,Q
2023-03-15 15:39:22:827,0,-8.8671,-2.14706,-21.1166,Q,Q
2023-03-15 15:39:22:837,0,-8.87849,-2.13291,-21.1048,Q,Q
2023-03-15 15:39:22:847,0,-8.89053,-2.11407,-21.0971,Q,Q
2023-03-15 15:39:22:857,0,-8.89924,-2.1015,-21.0831,Q,Q
2023-03-15 15:39:22:867,0,-8.90887,-2.09013,-21.067,Q,Q
2023-03-15 15:39:22:877,0,-8.9129,-2.07899,-21.0534,Q,Q
2023-03-15 15:39:22:887,0,-8.91769,-2.06362,-21.0378,Q,Q
2023-03-15 15:39:22:897,0,-8.92174,-2.05226,-21.0239,Q,Q
2023-03-15 15:39:22:906,0,-8.92148,-2.03926,-21.0104,Q,Q
2023-03-15 15:39:22:917,0,-8.92567,-2.02834,-20.9976,Q,Q
2023-03-15 15:39:22:927,0,-8.92902,-2.01499,-20.9858,Q,Q
2023-03-15 15:39:22:937,0,-8.93174,-2.00609,-20.9739,Q,Q
2023-03-15 15:39:22:947,0,-8.93213,-1.99596,-20.9604,Q,Q
2023-03-15 15:39:22:957,0,-8.93397,-1.98176,-20.9473,Q,Q
2023-03-15 15:39:22:967,0,-8.93363,-1.97447,-20.9342,Q,Q
2023-03-15 15:39:22:977,0,-8.93394,-1.96873,-20.9226,Q,Q
2023-03-15 15:39:22:987,0,-8.93733,-1.95886,-20.9164,Q,Q
2023-03-15 15:39:22:997,0,-8.93512,-1.94959,-20.9081,Q,Q
2023-03-15 15:39:23:7,0,-8.93532,-1.94057,-20.9005,Q,Q
2023-03-15 15:39:23:17,0,-8.93826,-1.93357,-20.8971,Q,Q
2023-03-15 15:39:23:27,0,-8.94018,-1.92237,-20.8913,Q,Q
2023-03-15 15:39:23:37,0,-8.94605,-1.91502,-20.8863,Q,Q
2023-03-15 15:39:23:47,0,-8.95194,-1.90847,-20.8816,Q,Q
2023-03-15 15:39:23:57,0,-8.95942,-1.90268,-20.8803,Q,Q
2023-03-15 15:39:23:67,0,-8.96452,-1.89864,-20.8766,Q,Q
2023-03-15 15:39:23:77,0,-8.97018,-1.89374,-20.878,Q,Q
2023-03-15 15:39:23:87,0,-8.97705,-1.88624,-20.8789,Q,Q
2023-03-15 15:39:23:97,0,-8.98461,-1.88056,-20.8775,Q,Q
2023-03-15 15:39:23:107,0,-8.99386,-1.87477,-20.8776,Q,Q
2023-03-15 15:39:23:117,0,-9.00608,-1.86649,-20.8822,Q,Q
2023-03-15 15:39:23:127,0,-9.01503,-1.8559,-20.8852,Q,Q
2023-03-15 15:39:23:137,0,-9.02442,-1.84379,-20.8937,Q,Q
2023-03-15 15:39:23:147,0,-9.03987,-1.83254,-20.9018,Q,Q
2023-03-15 15:39:23:157,0,-9.05059,-1.82168,-20.9122,Q,Q
2023-03-15 15:39:23:167,0,-9.06039,-1.81302,-20.9243,Q,Q
2023-03-15 15:39:23:177,0,-9.06607,-1.80609,-20.9347,Q,Q
2023-03-15 15:39:23:187,0,-9.06818,-1.80349,-20.9463,Q,Q
2023-03-15 15:39:23:197,0,-9.0706,-1.79619,-20.9571,Q,Q
2023-03-15 15:39:23:207,0,-9.07693,-1.78984,-20.9713,Q,Q
2023-03-15 15:39:23:217,0,-9.08496,-1.78169,-20.9846,Q,Q
2023-03-15 15:39:23:227,0,-9.09607,-1.77181,-20.995,Q,Q
2023-03-15 15:39:23:237,0,-9.11171,-1.76406,-21.0061,Q,Q
2023-03-15 15:39:23:247,0,-9.12374,-1.7548,-21.015,Q,Q
2023-03-15 15:39:23:257,0,-9.13537,-1.74468,-21.0182,Q,Q
2023-03-15 15:39:23:267,0,-9.14611,-1.73868,-21.0178,Q,Q
2023-03-15 15:39:23:277,0,-9.15741,-1.72999,-21.0235,Q,Q
2023-03-15 15:39:23:287,0,-9.1713,-1.72006,-21.0251,Q,Q
2023-03-15 15:39:23:297,0,-9.18002,-1.70637,-21.0264,Q,Q
2023-03-15 15:39:23:307,0,-9.18864,-1.69156,-21.0267,Q,Q
2023-03-15 15:39:23:317,0,-9.19773,-1.6739,-21.031,Q,Q
2023-03-15 15:39:23:327,0,-9.20419,-1.65989,-21.0339,Q,Q
2023-03-15 15:39:23:337,0,-9.21058,-1.64617,-21.0368,Q,Q
2023-03-15 15:39:23:346,0,-9.21279,-1.63306,-21.0397,Q,Q
2023-03-15 15:39:23:357,0,-9.21226,-1.62192,-21.0448,Q,Q
2023-03-15 15:39:23:367,0,-9.20754,-1.60918,-21.0478,Q,Q
2023-03-15 15:39:23:377,0,-9.20252,-1.6022,-21.0493,Q,Q
2023-03-15 15:39:23:386,0,-9.19537,-1.59242,-21.0513,Q,Q
2023-03-15 15:39:23:397,0,-9.18811,-1.5847,-21.0474,Q,Q
2023-03-15 15:39:23:407,0,-9.18136,-1.57893,-21.0469,Q,Q
2023-03-15 15:39:23:417,0,-9.17395,-1.57294,-21.0488,Q,Q
2023-03-15 15:39:23:426,0,-9.16459,-1.56177,-21.0487,Q,Q
2023-03-15 15:39:23:437,0,-9.15462,-1.55482,-21.0508,Q,Q
2023-03-15 15:39:23:447,0,-9.14532,-1.54858,-21.0497,Q,Q
2023-03-15 15:39:23:457,0,-9.13082,-1.54041,-21.053,Q,Q
2023-03-15 15:39:23:467,0,-9.11751,-1.53344,-21.0526,Q,Q
2023-03-15 15:39:23:477,0,-9.10945,-1.5266,-21.0539,Q,Q
2023-03-15 15:39:23:487,0,-9.10356,-1.51624,-21.0597,Q,Q
2023-03-15 15:39:23:497,0,-9.1016,-1.50731,-21.0659,Q,Q
2023-03-15 15:39:23:507,0,-9.10008,-1.49516,-21.0734,Q,Q
2023-03-15 15:39:23:517,0,-9.09849,-1.48606,-21.0796,Q,Q
2023-03-15 15:39:23:527,0,-9.09912,-1.47656,-21.0858,Q,Q
2023-03-15 15:39:23:537,0,-9.09856,-1.46929,-21.0914,Q,Q
2023-03-15 15:39:23:547,0,-9.09996,-1.46635,-21.0961,Q,Q
2023-03-15 15:39:23:557,0,-9.10177,-1.46121,-21.1019,Q,Q
2023-03-15 15:39:23:567,0,-9.10029,-1.45774,-21.1048,Q,Q
2023-03-15 15:39:23:577,0,-9.09504,-1.4525,-21.1058,Q,Q
2023-03-15 15:39:23:587,0,-9.08763,-1.45067,-21.1072,Q,Q
2023-03-15 15:39:23:597,0,-9.07787,-1.44766,-21.1087,Q,Q
2023-03-15 15:39:23:607,0,-9.06735,-1.44518,-21.1028,Q,Q
2023-03-15 15:39:23:617,0,-9.05541,-1.44633,-21.0965,Q,Q
2023-03-15 15:39:23:627,0,-9.04584,-1.44289,-21.0863,Q,Q
2023-03-15 15:39:23:637,0,-9.03265,-1.44116,-21.0836,Q,Q
2023-03-15 15:39:23:647,0,-9.01758,-1.44147,-21.0759,Q,Q
2023-03-15 15:39:23:657,0,-9.00005,-1.44117,-21.0684,Q,Q
2023-03-15 15:39:23:667,0,-8.98187,-1.43583,-21.0596,Q,Q
2023-03-15 15:39:23:677,0,-8.96213,-1.43119,-21.0529,Q,Q
2023-03-15 15:39:23:687,0,-8.93866,-1.42476,-21.0473,Q,Q
2023-03-15 15:39:23:697,0,-8.91956,-1.42144,-21.0401,Q,Q
2023-03-15 15:39:23:707,0,-8.89431,-1.42042,-21.0366,Q,Q
2023-03-15 15:39:23:717,0,-8.87297,-1.4147,-21.0328,Q,Q
2023-03-15 15:39:23:727,0,-8.85504,-1.40752,-21.0333,Q,Q
2023-03-15 15:39:23:737,0,-8.83745,-1.40276,-21.0376,Q,Q
2023-03-15 15:39:23:747,0,-8.82121,-1.39841,-21.0416,Q,Q
2023-03-15 15:39:23:757,0,-8.80526,-1.39093,-21.0454,Q,Q
2023-03-15 15:39:23:767,0,-8.79292,-1.38341,-21.0552,Q,Q
2023-03-15 15:39:23:777,0,-8.78287,-1.37877,-21.0622,Q,Q
2023-03-15 15:39:23:787,0,-8.76968,-1.37759,-21.0713,Q,Q
2023-03-15 15:39:23:797,0,-8.75992,-1.3734,-21.0803,Q,Q
2023-03-15 15:39:23:807,0,-8.74105,-1.37131,-21.0871,Q,Q
2023-03-15 15:39:23:817,0,-8.72382,-1.36846,-21.0977,Q,Q
2023-03-15 15:39:23:827,0,-8.70767,-1.36651,-21.1071,Q,Q
2023-03-15 15:39:23:837,0,-8.68983,-1.36156,-21.1147,Q,Q
2023-03-15 15:39:23:847,0,-8.67298,-1.35183,-21.1179,Q,Q
2023-03-15 15:39:23:857,0,-8.65757,-1.34774,-21.1201,Q,Q
2023-03-15 15:39:23:867,0,-8.64008,-1.345,-21.1221,Q,Q
2023-03-15 15:39:23:877,0,-8.62577,-1.34302,-21.1222,Q,Q
2023-03-15 15:39:23:887,0,-8.61541,-1.34342,-21.1216,Q,Q
2023-03-15 15:39:23:897,0,-8.60459,-1.34746,-21.1219,Q,Q
2023-03-15 15:39:23:907,0,-8.59238,-1.35374,-21.1215,Q,Q
2023-03-15 15:39:23:917,0,-8.57805,-1.35974,-21.1205,Q,Q
2023-03-15 15:39:23:927,0,-8.56206,-1.36438,-21.1177,Q,Q
2023-03-15 15:39:23:937,0,-8.54727,-1.36782,-21.1165,Q,Q
2023-03-15 15:39:23:947,0,-8.53192,-1.36799,-21.1193,Q,Q
2023-03-15 15:39:23:957,0,-8.51536,-1.36724,-21.1209,Q,Q
2023-03-15 15:39:23:967,0,-8.50087,-1.36511,-21.1224,Q,Q
2023-03-15 15:39:23:977,0,-8.48653,-1.36308,-21.1221,Q,Q
2023-03-15 15:39:23:987,0,-8.4735,-1.35899,-21.1221,Q,Q
2023-03-15 15:39:23:997,0,-8.46643,-1.35861,-21.1201,Q,Q
2023-03-15 15:39:24:7,0,-8.45614,-1.35772,-21.1194,Q,Q
2023-03-15 15:39:24:17,0,-8.44593,-1.35506,-21.1207,Q,Q
2023-03-15 15:39:24:27,0,-8.441,-1.35032,-21.1243,Q,Q
2023-03-15 15:39:24:37,0,-8.43443,-1.34733,-21.1252,Q,Q
2023-03-15 15:39:24:47,0,-8.42927,-1.34468,-21.1266,Q,Q
2023-03-15 15:39:24:57,0,-8.41997,-1.34666,-21.1247,Q,Q
2023-03-15 15:39:24:67,0,-8.41076,-1.35117,-21.1194,Q,Q
2023-03-15 15:39:24:77,0,-8.3961,-1.35893,-21.11,Q,Q
2023-03-15 15:39:24:86,0,-8.38179,-1.36284,-21.1009,Q,Q
2023-03-15 15:39:24:97,0,-8.37059,-1.36824,-21.089,Q,Q
2023-03-15 15:39:24:107,0,-8.36155,-1.37118,-21.0727,Q,Q
2023-03-15 15:39:24:117,0,-8.35323,-1.37252,-21.0604,Q,Q
2023-03-15 15:39:24:127,0,-8.34795,-1.37309,-21.0415,Q,Q
2023-03-15 15:39:24:137,0,-8.34567,-1.37606,-21.0202,Q,Q
2023-03-15 15:39:24:147,0,-8.347,-1.37758,-20.9962,Q,Q
2023-03-15 15:39:24:157,0,-8.35212,-1.37837,-20.9779,Q,Q
2023-03-15 15:39:24:167,0,-8.35663,-1.38033,-20.9563,Q,Q
2023-03-15 15:39:24:177,0,-8.35865,-1.384,-20.943,Q,Q
2023-03-15 15:39:24:186,0,-8.36772,-1.38495,-20.9303,Q,Q
2023-03-15 15:39:24:197,0,-8.37241,-1.38513,-20.9194,Q,Q
2023-03-15 15:39:24:207,0,-8.38122,-1.38152,-20.911,Q,Q
2023-03-15 15:39:24:216,0,-8.38885,-1.3781,-20.9041,Q,Q
2023-03-15 15:39:24:227,0,-8.40276,-1.37452,-20.8993,Q,Q
2023-03-15 15:39:24:237,0,-8.41383,-1.37313,-20.8937,Q,Q
2023-03-15 15:39:24:247,0,-8.42676,-1.3669,-20.8919,Q,Q
2023-03-15 15:39:24:257,0,-8.43893,-1.35954,-20.8866,Q,Q
2023-03-15 15:39:24:267,0,-8.44647,-1.35292,-20.8835,Q,Q
2023-03-15 15:39:24:277,0,-8.45503,-1.3468,-20.884,Q,Q
2023-03-15 15:39:24:286,0,-8.46171,-1.33899,-20.8853,Q,Q
2023-03-15 15:39:24:297,0,-8.46615,-1.33321,-20.8842,Q,Q
2023-03-15 15:39:24:307,0,-8.46891,-1.33131,-20.888,Q,Q
2023-03-15 15:39:24:316,0,-8.46966,-1.32699,-20.8925,Q,Q
2023-03-15 15:39:24:327,0,-8.46928,-1.32105,-20.8942,Q,Q
2023-03-15 15:39:24:337,0,-8.46616,-1.31793,-20.8972,Q,Q
2023-03-15 15:39:24:347,0,-8.45957,-1.31594,-20.8992,Q,Q
2023-03-15 15:39:24:357,0,-8.4528,-1.31105,-20.8968,Q,Q
2023-03-15 15:39:24:367,0,-8.45193,-1.30704,-20.8984,Q,Q
2023-03-15 15:39:24:377,0,-8.45157,-1.30061,-20.8975,Q,Q
2023-03-15 15:39:24:387,0,-8.4516,-1.29658,-20.8946,Q,Q
2023-03-15 15:39:24:397,0,-8.45473,-1.29253,-20.8932,Q,Q
2023-03-15 15:39:24:407,0,-8.45392,-1.2884,-20.8888,Q,Q
2023-03-15 15:39:24:416,0,-8.4545,-1.28507,-20.8863,Q,Q
2023-03-15 15:39:24:427,0,-8.46021,-1.28477,-20.8825,Q,Q
2023-03-15 15:39:24:437,0,-8.4596,-1.2882,-20.8784,Q,Q
2023-03-15 15:39:24:446,0,-8.46146,-1.29186,-20.8728,Q,Q
2023-03-15 15:39:24:456,0,-8.46115,-1.28876,-20.8706,Q,Q
2023-03-15 15:39:24:466,0,-8.46169,-1.28717,-20.862,Q,Q
2023-03-15 15:39:24:477,0,-8.46654,-1.28809,-20.858,Q,Q
2023-03-15 15:39:24:487,0,-8.46963,-1.28764,-20.8576,Q,Q
2023-03-15 15:39:24:497,0,-8.47123,-1.28508,-20.8532,Q,Q
2023-03-15 15:39:24:507,0,-8.47438,-1.28824,-20.8449,Q,Q
2023-03-15 15:39:24:517,0,-8.47755,-1.29247,-20.8386,Q,Q
2023-03-15 15:39:24:527,0,-8.48388,-1.29884,-20.8283,Q,Q
2023-03-15 15:39:24:537,0,-8.49257,-1.30468,-20.8194,Q,Q
2023-03-15 15:39:24:546,0,-8.50076,-1.30509,-20.8082,Q,Q
2023-03-15 15:39:24:557,0,-8.50693,-1.30548,-20.7993,Q,Q
2023-03-15 15:39:24:567,0,-8.51724,-1.30447,-20.7911,Q,Q
2023-03-15 15:39:24:577,0,-8.53042,-1.30125,-20.7818,Q,Q
2023-03-15 15:39:24:587,0,-8.54299,-1.29632,-20.7742,Q,Q
2023-03-15 15:39:24:597,0,-8.5508,-1.29412,-20.7678,Q,Q
2023-03-15 15:39:24:607,0,-8.56395,-1.28712,-20.7649,Q,Q
2023-03-15 15:39:24:617,0,-8.57632,-1.28066,-20.7628,Q,Q
2023-03-15 15:39:24:627,0,-8.59072,-1.2765,-20.7623,Q,Q
2023-03-15 15:39:24:637,0,-8.6106,-1.27195,-20.7623,Q,Q
2023-03-15 15:39:24:646,0,-8.63315,-1.27121,-20.7638,Q,Q
2023-03-15 15:39:24:657,0,-8.65478,-1.26631,-20.767,Q,Q
2023-03-15 15:39:24:667,0,-8.67734,-1.26436,-20.7759,Q,Q
2023-03-15 15:39:24:677,0,-8.69716,-1.26185,-20.7808,Q,Q
2023-03-15 15:39:24:687,0,-8.71596,-1.26321,-20.7853,Q,Q
2023-03-15 15:39:24:697,0,-8.73268,-1.25804,-20.7946,Q,Q
2023-03-15 15:39:24:706,0,-8.7429,-1.25568,-20.8006,Q,Q
2023-03-15 15:39:24:716,0,-8.74978,-1.25348,-20.8057,Q,Q
2023-03-15 15:39:24:727,0,-8.75926,-1.25075,-20.8105,Q,Q
2023-03-15 15:39:24:737,0,-8.76502,-1.24763,-20.8126,Q,Q
2023-03-15 15:39:24:747,0,-8.76942,-1.24519,-20.8161,Q,Q
2023-03-15 15:39:24:757,0,-8.77446,-1.2426,-20.8222,Q,Q
2023-03-15 15:39:24:766,0,-8.77602,-1.23952,-20.825,Q,Q
2023-03-15 15:39:24:777,0,-8.78222,-1.23768,-20.8283,Q,Q
2023-03-15 15:39:24:787,0,-8.78354,-1.23192,-20.8324,Q,Q
2023-03-15 15:39:24:797,0,-8.78538,-1.22939,-20.841,Q,Q
2023-03-15 15:39:24:807,0,-8.79255,-1.22655,-20.8495,Q,Q
2023-03-15 15:39:24:817,0,-8.79585,-1.22628,-20.8539,Q,Q
2023-03-15 15:39:24:827,0,-8.80056,-1.22132,-20.8589,Q,Q
2023-03-15 15:39:24:837,0,-8.80165,-1.21354,-20.8698,Q,Q
2023-03-15 15:39:24:847,0,-8.80547,-1.20554,-20.8743,Q,Q
2023-03-15 15:39:24:857,0,-8.80278,-1.19517,-20.8815,Q,Q
2023-03-15 15:39:24:866,0,-8.8018,-1.19036,-20.8885,Q,Q
2023-03-15 15:39:24:877,0,-8.79917,-1.18324,-20.8977,Q,Q
2023-03-15 15:39:24:887,0,-8.79766,-1.1748,-20.9046,Q,Q
2023-03-15 15:39:24:897,0,-8.79557,-1.16448,-20.9164,Q,Q
2023-03-15 15:39:24:907,0,-8.79542,-1.15139,-20.9286,Q,Q
2023-03-15 15:39:24:917,0,-8.798,-1.13926,-20.943,Q,Q
2023-03-15 15:39:24:926,0,-8.79706,-1.13156,-20.9553,Q,Q
2023-03-15 15:39:24:937,0,-8.79404,-1.12036,-20.9676,Q,Q
2023-03-15 15:39:24:947,0,-8.78954,-1.11325,-20.9774,Q,Q
2023-03-15 15:39:24:957,0,-8.78908,-1.1093,-20.9807,Q,Q
2023-03-15 15:39:24:966,0,-8.78669,-1.10325,-20.9857,Q,Q
2023-03-15 15:39:24:977,0,-8.78816,-1.10415,-20.988,Q,Q
2023-03-15 15:39:24:987,0,-8.79,-1.10487,-20.9829,Q,Q
2023-03-15 15:39:24:997,0,-8.79384,-1.10563,-20.9807,Q,Q
2023-03-15 15:39:25:7,0,-8.7948,-1.10691,-20.9733,Q,Q
2023-03-15 15:39:25:17,0,-8.79434,-1.10801,-20.9578,Q,Q
2023-03-15 15:39:25:27,0,-8.79516,-1.11177,-20.942,Q,Q
2023-03-15 15:39:25:37,0,-8.79644,-1.11233,-20.9283,Q,Q
2023-03-15 15:39:25:46,0,-8.7963,-1.11317,-20.9162,Q,Q
2023-03-15 15:39:25:57,0,-8.797,-1.11783,-20.9044,Q,Q
2023-03-15 15:39:25:67,0,-8.80148,-1.12238,-20.8882,Q,Q
2023-03-15 15:39:25:77,0,-8.80334,-1.12885,-20.8711,Q,Q
2023-03-15 15:39:25:87,0,-8.80665,-1.13728,-20.8546,Q,Q
2023-03-15 15:39:25:97,0,-8.8111,-1.14598,-20.8361,Q,Q
2023-03-15 15:39:25:107,0,-8.81342,-1.15658,-20.8202,Q,Q
2023-03-15 15:39:25:117,0,-8.80948,-1.16801,-20.802,Q,Q
2023-03-15 15:39:25:126,0,-8.80861,-1.17859,-20.785,Q,Q
2023-03-15 15:39:25:137,0,-8.80169,-1.18461,-20.7666,Q,Q
2023-03-15 15:39:25:147,0,-8.79447,-1.19515,-20.7478,Q,Q
2023-03-15 15:39:25:157,0,-8.78626,-1.2024,-20.7295,Q,Q
