Timestamp_cmd,imu_cmd,roll_delta,pitch_delta,yaw_delta,voice_type,voice_length
2023-03-15 21:26:47:337,0,-54.866,1.88537,148.021,Q,Q
2023-03-15 21:26:47:340,0,-54.8669,1.8877,148.02,Q,Q
2023-03-15 21:26:47:350,0,-54.8709,1.88746,148.02,Q,Q
2023-03-15 21:26:47:360,0,-54.8698,1.88903,148.02,Q,Q
2023-03-15 21:26:47:370,0,-54.8701,1.88603,148.018,Q,Q
2023-03-15 21:26:47:380,0,-54.8661,1.88554,148.019,Q,Q
2023-03-15 21:26:47:390,0,-54.8697,1.88461,148.018,Q,Q
2023-03-15 21:26:47:400,0,-54.8683,1.88197,148.023,Q,Q
2023-03-15 21:26:47:410,0,-54.8682,1.88029,148.019,Q,Q
2023-03-15 21:26:47:420,0,-54.8674,1.87853,148.018,Q,Q
2023-03-15 21:26:47:430,0,-54.8671,1.8806,148.018,Q,Q
2023-03-15 21:26:47:440,0,-54.8663,1.88149,148.015,Q,Q
2023-03-15 21:26:47:450,0,-54.863,1.8827,148.016,Q,Q
2023-03-15 21:26:47:460,0,-54.8614,1.88396,148.014,Q,Q
2023-03-15 21:26:47:470,0,-54.8624,1.88553,148.016,Q,Q
2023-03-15 21:26:47:480,0,-54.861,1.8869,148.016,Q,Q
2023-03-15 21:26:47:490,0,-54.8613,1.88448,148.017,Q,Q
2023-03-15 21:26:47:500,0,-54.8608,1.88518,148.016,Q,Q
2023-03-15 21:26:47:510,0,-54.8594,1.88703,148.017,Q,Q
2023-03-15 21:26:47:520,0,-54.8567,1.88915,148.015,Q,Q
2023-03-15 21:26:47:530,0,-54.8557,1.89027,148.016,Q,Q
2023-03-15 21:26:47:540,0,-54.8541,1.89018,148.016,Q,Q
2023-03-15 21:26:47:550,0,-54.8522,1.8952,148.019,Q,Q
2023-03-15 21:26:47:560,0,-54.8526,1.89675,148.019,Q,Q
2023-03-15 21:26:47:570,0,-54.8534,1.89292,148.019,Q,Q
2023-03-15 21:26:47:580,0,-54.8549,1.89232,148.02,Q,Q
2023-03-15 21:26:47:590,0,-54.8569,1.89347,148.02,Q,Q
2023-03-15 21:26:47:600,0,-54.8573,1.89358,148.017,Q,Q
2023-03-15 21:26:47:611,0,-54.8553,1.89281,148.012,Q,Q
2023-03-15 21:26:47:620,0,-54.8585,1.89028,148.012,Q,Q
2023-03-15 21:26:47:630,0,-54.858,1.88976,148.013,Q,Q
2023-03-15 21:26:47:640,0,-54.8566,1.88964,148.013,Q,Q
2023-03-15 21:26:47:650,0,-54.8495,1.88798,148.012,Q,Q
2023-03-15 21:26:47:660,0,-54.847,1.88628,148.013,Q,Q
2023-03-15 21:26:47:670,0,-54.8464,1.88507,148.012,Q,Q
2023-03-15 21:26:47:680,0,-54.8455,1.88677,148.011,Q,Q
2023-03-15 21:26:47:691,0,-54.8447,1.88888,148.01,Q,Q
2023-03-15 21:26:47:700,0,-54.8436,1.8883,148.015,Q,Q
2023-03-15 21:26:47:710,0,-54.8434,1.88553,148.017,Q,Q
2023-03-15 21:26:47:720,0,-54.8435,1.88359,148.019,Q,Q
2023-03-15 21:26:47:730,0,-54.8437,1.8854,148.02,Q,Q
2023-03-15 21:26:47:740,0,-54.8429,1.88601,148.022,Q,Q
2023-03-15 21:26:47:750,0,-54.8417,1.8861,148.024,Q,Q
2023-03-15 21:26:47:760,0,-54.8407,1.88383,148.023,Q,Q
2023-03-15 21:26:47:770,0,-54.8416,1.88516,148.021,Q,Q
2023-03-15 21:26:47:780,0,-54.8412,1.88376,148.02,Q,Q
2023-03-15 21:26:47:790,0,-54.8404,1.88144,148.019,Q,Q
2023-03-15 21:26:47:800,0,-54.8417,1.88261,148.017,Q,Q
2023-03-15 21:26:47:810,0,-54.8378,1.88097,148.015,Q,Q
2023-03-15 21:26:47:820,0,-54.8379,1.88101,148.016,Q,Q
2023-03-15 21:26:47:830,0,-54.8367,1.88032,148.014,Q,Q
2023-03-15 21:26:47:840,0,-54.8382,1.87634,148.013,Q,Q
2023-03-15 21:26:47:850,0,-54.8353,1.87669,148.011,Q,Q
2023-03-15 21:26:47:860,0,-54.8368,1.87772,148.011,Q,Q
2023-03-15 21:26:47:870,0,-54.8388,1.87704,148.009,Q,Q
2023-03-15 21:26:47:880,0,-54.8385,1.87701,148.01,Q,Q
2023-03-15 21:26:47:890,0,-54.8414,1.87962,148.01,Q,Q
2023-03-15 21:26:47:900,0,-54.8464,1.88161,148.012,Q,Q
2023-03-15 21:26:47:910,0,-54.8452,1.88102,148.009,Q,Q
2023-03-15 21:26:47:920,0,-54.844,1.8806,148.007,Q,Q
2023-03-15 21:26:47:930,0,-54.8417,1.88174,148.007,Q,Q
2023-03-15 21:26:47:940,0,-54.8434,1.88336,148.005,Q,Q
2023-03-15 21:26:47:950,0,-54.8424,1.88251,148.005,Q,Q
2023-03-15 21:26:47:960,0,-54.8423,1.88336,148.007,Q,Q
2023-03-15 21:26:47:970,0,-54.8425,1.88448,148.007,Q,Q
2023-03-15 21:26:47:980,0,-54.8425,1.88113,148.007,Q,Q
2023-03-15 21:26:47:990,0,-54.845,1.87968,148.009,Q,Q
2023-03-15 21:26:48:0,0,-54.845,1.87952,148.01,Q,Q
2023-03-15 21:26:48:10,0,-54.8447,1.87704,148.008,Q,Q
2023-03-15 21:26:48:20,0,-54.8467,1.87824,148.005,Q,Q
2023-03-15 21:26:48:30,0,-54.8474,1.87858,148.007,Q,Q
2023-03-15 21:26:48:40,0,-54.8484,1.87867,148.007,Q,Q
2023-03-15 21:26:48:50,0,-54.8473,1.8781,148.008,Q,Q
2023-03-15 21:26:48:60,0,-54.8471,1.88176,148.005,Q,Q
2023-03-15 21:26:48:70,0,-54.8505,1.88204,148.002,Q,Q
2023-03-15 21:26:48:80,0,-54.8518,1.88203,148.003,Q,Q
2023-03-15 21:26:48:90,0,-54.8502,1.88268,148.005,Q,Q
2023-03-15 21:26:48:100,0,-54.85,1.88034,148.002,Q,Q
2023-03-15 21:26:48:110,0,-54.8513,1.88167,148.001,Q,Q
2023-03-15 21:26:48:120,0,-54.8539,1.88297,148.001,Q,Q
2023-03-15 21:26:48:130,0,-54.8498,1.88431,148.002,Q,Q
2023-03-15 21:26:48:140,0,-54.852,1.88245,148.003,Q,Q
2023-03-15 21:26:48:150,0,-54.853,1.88377,148.002,Q,Q
2023-03-15 21:26:48:160,0,-54.8529,1.88377,148.002,Q,Q
2023-03-15 21:26:48:170,0,-54.8532,1.88597,148.003,Q,Q
2023-03-15 21:26:48:180,0,-54.8539,1.88758,148.004,Q,Q
2023-03-15 21:26:48:190,0,-54.8543,1.88867,148.005,Q,Q
2023-03-15 21:26:48:200,0,-54.8555,1.88923,148.006,Q,Q
2023-03-15 21:26:48:211,0,-54.8582,1.89294,148.011,Q,Q
2023-03-15 21:26:48:220,0,-54.8548,1.89542,148.012,Q,Q
2023-03-15 21:26:48:231,0,-54.853,1.8922,148.011,Q,Q
2023-03-15 21:26:48:240,0,-54.8518,1.89065,148.013,Q,Q
2023-03-15 21:26:48:250,0,-54.8525,1.88972,148.012,Q,Q
2023-03-15 21:26:48:260,0,-54.8519,1.88933,148.013,Q,Q
2023-03-15 21:26:48:270,0,-54.8493,1.892,148.013,Q,Q
2023-03-15 21:26:48:280,0,-54.8513,1.89144,148.012,Q,Q
2023-03-15 21:26:48:290,0,-54.8496,1.89352,148.009,Q,Q
2023-03-15 21:26:48:300,0,-54.8509,1.89178,148.012,Q,Q
2023-03-15 21:26:48:310,0,-54.8537,1.88821,148.012,Q,Q
2023-03-15 21:26:48:320,0,-54.8549,1.88595,148.011,Q,Q
2023-03-15 21:26:48:330,0,-54.8533,1.887,148.012,Q,Q
2023-03-15 21:26:48:340,0,-54.8531,1.88881,148.01,Q,Q
2023-03-15 21:26:48:350,0,-54.8551,1.8894,148.009,Q,Q
2023-03-15 21:26:48:360,0,-54.8576,1.88671,148.009,Q,Q
2023-03-15 21:26:48:370,0,-54.858,1.88123,148.01,Q,Q
2023-03-15 21:26:48:380,0,-54.8586,1.88047,148.007,Q,Q
2023-03-15 21:26:48:390,0,-54.86,1.87965,148.005,Q,Q
2023-03-15 21:26:48:400,0,-54.8592,1.87922,148.003,Q,Q
2023-03-15 21:26:48:411,0,-54.8587,1.88008,148.003,Q,Q
2023-03-15 21:26:48:420,0,-54.8582,1.87957,148.001,Q,Q
2023-03-15 21:26:48:430,0,-54.8563,1.87959,148.0,Q,Q
2023-03-15 21:26:48:440,0,-54.857,1.88124,148.0,Q,Q
2023-03-15 21:26:48:450,0,-54.8551,1.88118,148.001,Q,Q
2023-03-15 21:26:48:460,0,-54.8522,1.8808,148.002,Q,Q
2023-03-15 21:26:48:470,0,-54.853,1.87747,148.002,Q,Q
2023-03-15 21:26:48:480,0,-54.8517,1.87468,148.005,Q,Q
2023-03-15 21:26:48:490,0,-54.85,1.87228,148.008,Q,Q
2023-03-15 21:26:48:500,0,-54.848,1.87495,148.012,Q,Q
2023-03-15 21:26:48:510,0,-54.8473,1.87395,148.011,Q,Q
2023-03-15 21:26:48:520,0,-54.848,1.87589,148.01,Q,Q
2023-03-15 21:26:48:531,0,-54.8478,1.8767,148.011,Q,Q
2023-03-15 21:26:48:541,0,-54.8482,1.87671,148.008,Q,Q
2023-03-15 21:26:48:550,0,-54.8492,1.87864,148.005,Q,Q
2023-03-15 21:26:48:561,0,-54.8485,1.87534,148.008,Q,Q
2023-03-15 21:26:48:571,0,-54.8531,1.87302,148.007,Q,Q
2023-03-15 21:26:48:581,0,-54.8551,1.8744,148.006,Q,Q
2023-03-15 21:26:48:591,0,-54.8531,1.87253,148.01,Q,Q
2023-03-15 21:26:48:600,0,-54.8485,1.87273,148.012,Q,Q
2023-03-15 21:26:48:610,0,-54.8463,1.87494,148.01,Q,Q
2023-03-15 21:26:48:621,0,-54.8469,1.86951,148.014,Q,Q
2023-03-15 21:26:48:631,0,-54.8464,1.87099,148.015,Q,Q
2023-03-15 21:26:48:640,0,-54.8473,1.87272,148.017,Q,Q
2023-03-15 21:26:48:650,0,-54.8488,1.87338,148.019,Q,Q
2023-03-15 21:26:48:660,0,-54.849,1.8706,148.018,Q,Q
2023-03-15 21:26:48:670,0,-54.8477,1.8718,148.019,Q,Q
2023-03-15 21:26:48:681,0,-54.8478,1.87071,148.02,Q,Q
2023-03-15 21:26:48:691,0,-54.8469,1.87519,148.019,Q,Q
2023-03-15 21:26:48:700,0,-54.8483,1.87379,148.019,Q,Q
2023-03-15 21:26:48:710,0,-54.8512,1.87361,148.016,Q,Q
2023-03-15 21:26:48:720,0,-54.8512,1.87364,148.013,Q,Q
2023-03-15 21:26:48:730,0,-54.8539,1.87199,148.015,Q,Q
2023-03-15 21:26:48:740,0,-54.8514,1.87449,148.014,Q,Q
2023-03-15 21:26:48:750,0,-54.8507,1.87329,148.015,Q,Q
2023-03-15 21:26:48:760,0,-54.8513,1.87328,148.014,Q,Q
2023-03-15 21:26:48:770,0,-54.8509,1.87343,148.014,Q,Q
2023-03-15 21:26:48:780,0,-54.8514,1.87108,148.014,Q,Q
2023-03-15 21:26:48:790,0,-54.8501,1.87043,148.012,Q,Q
2023-03-15 21:26:48:800,0,-54.851,1.87071,148.013,Q,Q
2023-03-15 21:26:48:811,0,-54.8504,1.86931,148.011,Q,Q
2023-03-15 21:26:48:820,0,-54.8525,1.86897,148.013,Q,Q
2023-03-15 21:26:48:831,0,-54.8496,1.86789,148.013,Q,Q
2023-03-15 21:26:48:840,0,-54.847,1.86896,148.014,Q,Q
2023-03-15 21:26:48:850,0,-54.842,1.86815,148.016,Q,Q
2023-03-15 21:26:48:860,0,-54.8405,1.86727,148.012,Q,Q
2023-03-15 21:26:48:870,0,-54.84,1.86661,148.012,Q,Q
2023-03-15 21:26:48:880,0,-54.8383,1.86468,148.007,Q,Q
2023-03-15 21:26:48:890,0,-54.8368,1.86461,148.007,Q,Q
2023-03-15 21:26:48:900,0,-54.8373,1.86243,148.008,Q,Q
2023-03-15 21:26:48:910,0,-54.837,1.8638,148.006,Q,Q
2023-03-15 21:26:48:920,0,-54.8358,1.86359,148.008,Q,Q
2023-03-15 21:26:48:930,0,-54.8358,1.86171,148.01,Q,Q
2023-03-15 21:26:48:940,0,-54.8354,1.86034,148.005,Q,Q
2023-03-15 21:26:48:950,0,-54.8361,1.85825,148.005,Q,Q
2023-03-15 21:26:48:960,0,-54.833,1.85609,148.003,Q,Q
2023-03-15 21:26:48:970,0,-54.8326,1.85595,148.003,Q,Q
2023-03-15 21:26:48:981,0,-54.8316,1.85354,148.0,Q,Q
2023-03-15 21:26:48:991,0,-54.8306,1.85517,147.997,Q,Q
2023-03-15 21:26:49:0,0,-54.8293,1.85543,147.998,Q,Q
2023-03-15 21:26:49:11,0,-54.8292,1.85378,148.0,Q,Q
2023-03-15 21:26:49:20,0,-54.8333,1.8517,148.0,Q,Q
2023-03-15 21:26:49:30,0,-54.833,1.84823,148.001,Q,Q
2023-03-15 21:26:49:40,0,-54.8335,1.84677,148.0,Q,Q
2023-03-15 21:26:49:50,0,-54.8356,1.84475,148.0,Q,Q
2023-03-15 21:26:49:60,0,-54.8354,1.84231,148.002,Q,Q
2023-03-15 21:26:49:70,0,-54.837,1.84333,148.005,Q,Q
2023-03-15 21:26:49:80,0,-54.8372,1.84212,148.006,Q,Q
2023-03-15 21:26:49:90,0,-54.8353,1.84107,148.003,Q,Q
2023-03-15 21:26:49:100,0,-54.8373,1.84029,148.001,Q,Q
2023-03-15 21:26:49:110,0,-54.84,1.839,147.998,Q,Q
2023-03-15 21:26:49:120,0,-54.8457,1.83884,147.998,Q,Q
2023-03-15 21:26:49:130,0,-54.8466,1.83958,148.002,Q,Q
2023-03-15 21:26:49:140,0,-54.8472,1.84001,148.003,Q,Q
2023-03-15 21:26:49:150,0,-54.8454,1.83422,148.001,Q,Q
2023-03-15 21:26:49:160,0,-54.8438,1.83098,148.0,Q,Q
2023-03-15 21:26:49:171,0,-54.8458,1.83,148.0,Q,Q
2023-03-15 21:26:49:180,0,-54.8464,1.82964,147.999,Q,Q
2023-03-15 21:26:49:191,0,-54.8477,1.83237,148.0,Q,Q
2023-03-15 21:26:49:200,0,-54.8475,1.83007,147.999,Q,Q
2023-03-15 21:26:49:210,0,-54.8482,1.82901,147.998,Q,Q
2023-03-15 21:26:49:220,0,-54.8508,1.82791,147.999,Q,Q
2023-03-15 21:26:49:230,0,-54.851,1.82778,148.001,Q,Q
2023-03-15 21:26:49:240,0,-54.8497,1.82946,148.001,Q,Q
2023-03-15 21:26:49:250,0,-54.8495,1.83045,148.001,Q,Q
2023-03-15 21:26:49:260,0,-54.8506,1.82764,148.0,Q,Q
2023-03-15 21:26:49:271,0,-54.8491,1.82806,148.0,Q,Q
2023-03-15 21:26:49:280,0,-54.8492,1.82989,148.001,Q,Q
2023-03-15 21:26:49:291,0,-54.8496,1.82956,147.999,Q,Q
2023-03-15 21:26:49:300,0,-54.8498,1.83046,147.998,Q,Q
2023-03-15 21:26:49:311,0,-54.8521,1.83318,147.999,Q,Q
2023-03-15 21:26:49:320,0,-54.8512,1.83207,147.997,Q,Q
2023-03-15 21:26:49:331,0,-54.8516,1.83424,147.999,Q,Q
2023-03-15 21:26:49:340,0,-54.8509,1.83316,147.997,Q,Q
2023-03-15 21:26:49:350,0,-54.8482,1.83544,147.996,Q,Q
2023-03-15 21:26:49:360,0,-54.8491,1.83288,147.995,Q,Q
2023-03-15 21:26:49:370,0,-54.8475,1.83236,147.992,Q,Q
2023-03-15 21:26:49:380,0,-54.8485,1.83156,147.991,Q,Q
2023-03-15 21:26:49:390,0,-54.8452,1.83108,147.989,Q,Q
2023-03-15 21:26:49:400,0,-54.8467,1.82727,147.99,Q,Q
2023-03-15 21:26:49:411,0,-54.8473,1.82669,147.993,Q,Q
2023-03-15 21:26:49:420,0,-54.8499,1.82404,147.992,Q,Q
2023-03-15 21:26:49:430,0,-54.8515,1.82577,147.992,Q,Q
2023-03-15 21:26:49:440,0,-54.8519,1.82413,147.992,Q,Q
2023-03-15 21:26:49:450,0,-54.8483,1.82218,147.989,Q,Q
2023-03-15 21:26:49:460,0,-54.8491,1.8193,147.99,Q,Q
2023-03-15 21:26:49:470,0,-54.8486,1.81804,147.99,Q,Q
2023-03-15 21:26:49:480,0,-54.8471,1.81387,147.99,Q,Q
2023-03-15 21:26:49:490,0,-54.8473,1.80926,147.988,Q,Q
2023-03-15 21:26:49:500,0,-54.8477,1.80547,147.987,Q,Q
2023-03-15 21:26:49:511,0,-54.8492,1.80424,147.989,Q,Q
2023-03-15 21:26:49:520,0,-54.848,1.80389,147.99,Q,Q
2023-03-15 21:26:49:530,0,-54.8487,1.8046,147.988,Q,Q
2023-03-15 21:26:49:540,0,-54.8497,1.80592,147.988,Q,Q
2023-03-15 21:26:49:550,0,-54.8482,1.80638,147.988,Q,Q
2023-03-15 21:26:49:560,0,-54.8488,1.80751,147.987,Q,Q
2023-03-15 21:26:49:570,0,-54.8489,1.80658,147.987,Q,Q
2023-03-15 21:26:49:580,0,-54.8484,1.81014,147.99,Q,Q
2023-03-15 21:26:49:590,0,-54.8497,1.8094,147.991,Q,Q
2023-03-15 21:26:49:600,0,-54.8482,1.80794,147.994,Q,Q
2023-03-15 21:26:49:610,0,-54.8508,1.8081,147.993,Q,Q
2023-03-15 21:26:49:620,0,-54.8494,1.80846,147.992,Q,Q
2023-03-15 21:26:49:630,0,-54.8476,1.80951,147.991,Q,Q
2023-03-15 21:26:49:640,0,-54.8489,1.80986,147.989,Q,Q
2023-03-15 21:26:49:650,0,-54.8519,1.80973,147.992,Q,Q
2023-03-15 21:26:49:660,0,-54.8539,1.80811,147.993,Q,Q
2023-03-15 21:26:49:670,0,-54.8532,1.80735,147.993,Q,Q
2023-03-15 21:26:49:680,0,-54.8544,1.808,147.991,Q,Q
2023-03-15 21:26:49:690,0,-54.855,1.80801,147.993,Q,Q
2023-03-15 21:26:49:700,0,-54.8585,1.80653,147.992,Q,Q
2023-03-15 21:26:49:710,0,-54.8561,1.80828,147.989,Q,Q
2023-03-15 21:26:49:720,0,-54.8556,1.81107,147.987,Q,Q
2023-03-15 21:26:49:730,0,-54.8536,1.81165,147.986,Q,Q
2023-03-15 21:26:49:740,0,-54.8544,1.81398,147.989,Q,Q
2023-03-15 21:26:49:751,0,-54.8557,1.81774,147.988,Q,Q
2023-03-15 21:26:49:760,0,-54.8577,1.81776,147.987,Q,Q
2023-03-15 21:26:49:770,0,-54.8562,1.81962,147.988,Q,Q
2023-03-15 21:26:49:780,0,-54.8557,1.82227,147.986,Q,Q
2023-03-15 21:26:49:790,0,-54.853,1.82189,147.985,Q,Q
2023-03-15 21:26:49:800,0,-54.8547,1.82274,147.985,Q,Q
2023-03-15 21:26:49:810,0,-54.8528,1.82103,147.987,Q,Q
2023-03-15 21:26:49:820,0,-54.8493,1.81944,147.986,Q,Q
2023-03-15 21:26:49:830,0,-54.8502,1.8189,147.986,Q,Q
2023-03-15 21:26:49:840,0,-54.8491,1.81877,147.988,Q,Q
2023-03-15 21:26:49:850,0,-54.8476,1.8182,147.988,Q,Q
2023-03-15 21:26:49:860,0,-54.8482,1.81763,147.989,Q,Q
2023-03-15 21:26:49:870,0,-54.846,1.81941,147.99,Q,Q
2023-03-15 21:26:49:880,0,-54.8465,1.81925,147.99,Q,Q
2023-03-15 21:26:49:891,0,-54.8471,1.81715,147.989,Q,Q
2023-03-15 21:26:49:900,0,-54.8487,1.81499,147.987,Q,Q
2023-03-15 21:26:49:910,0,-54.8503,1.8156,147.988,Q,Q
2023-03-15 21:26:49:920,0,-54.8512,1.81546,147.987,Q,Q
2023-03-15 21:26:49:930,0,-54.8538,1.81534,147.986,Q,Q
2023-03-15 21:26:49:940,0,-54.8532,1.81851,147.984,Q,Q
2023-03-15 21:26:49:950,0,-54.8506,1.81868,147.983,Q,Q
2023-03-15 21:26:49:960,0,-54.8489,1.82014,147.985,Q,Q
2023-03-15 21:26:49:970,0,-54.8486,1.81878,147.986,Q,Q
2023-03-15 21:26:49:980,0,-54.8496,1.82011,147.986,Q,Q
2023-03-15 21:26:49:990,0,-54.8529,1.82487,147.988,Q,Q
2023-03-15 21:26:50:0,0,-54.8576,1.82588,147.99,Q,Q
2023-03-15 21:26:50:10,0,-54.8575,1.82585,147.989,Q,Q
2023-03-15 21:26:50:20,0,-54.8557,1.82551,147.988,Q,Q
2023-03-15 21:26:50:30,0,-54.8545,1.82573,147.99,Q,Q
2023-03-15 21:26:50:40,0,-54.8527,1.82434,147.99,Q,Q
2023-03-15 21:26:50:50,0,-54.8573,1.82218,147.991,Q,Q
2023-03-15 21:26:50:60,0,-54.8605,1.82149,147.995,Q,Q
2023-03-15 21:26:50:70,0,-54.8608,1.82104,147.995,Q,Q
2023-03-15 21:26:50:80,0,-54.8617,1.82383,147.995,Q,Q
2023-03-15 21:26:50:90,0,-54.8582,1.82278,147.996,Q,Q
2023-03-15 21:26:50:100,0,-54.8627,1.82585,147.996,Q,Q
2023-03-15 21:26:50:110,0,-54.8637,1.8259,147.998,Q,Q
2023-03-15 21:26:50:120,0,-54.8621,1.82621,147.999,Q,Q
2023-03-15 21:26:50:130,0,-54.8615,1.82397,147.996,Q,Q
2023-03-15 21:26:50:140,0,-54.8609,1.82235,147.998,Q,Q
2023-03-15 21:26:50:150,0,-54.8602,1.822,148.0,Q,Q
2023-03-15 21:26:50:160,0,-54.8575,1.82037,147.999,Q,Q
2023-03-15 21:26:50:170,0,-54.8611,1.82057,147.998,Q,Q
2023-03-15 21:26:50:180,0,-54.8595,1.82081,147.998,Q,Q
2023-03-15 21:26:50:190,0,-54.8606,1.82116,148.0,Q,Q
2023-03-15 21:26:50:200,0,-54.8587,1.82238,148.0,Q,Q
2023-03-15 21:26:50:210,0,-54.8604,1.82274,148.001,Q,Q
2023-03-15 21:26:50:220,0,-54.8635,1.82182,148.004,Q,Q
2023-03-15 21:26:50:230,0,-54.8635,1.8199,148.003,Q,Q
2023-03-15 21:26:50:240,0,-54.8631,1.82277,148.002,Q,Q
2023-03-15 21:26:50:250,0,-54.8608,1.82228,148.001,Q,Q
2023-03-15 21:26:50:260,0,-54.8602,1.82032,148.001,Q,Q
2023-03-15 21:26:50:270,0,-54.8608,1.8194,148.002,Q,Q
2023-03-15 21:26:50:280,0,-54.8613,1.82385,148.001,Q,Q
2023-03-15 21:26:50:290,0,-54.8618,1.82697,148.001,Q,Q
2023-03-15 21:26:50:300,0,-54.8605,1.82919,148.0,Q,Q
2023-03-15 21:26:50:310,0,-54.8604,1.82808,147.998,Q,Q
2023-03-15 21:26:50:320,0,-54.8621,1.82814,147.993,Q,Q
2023-03-15 21:26:50:330,0,-54.8597,1.82656,147.994,Q,Q
2023-03-15 21:26:50:340,0,-54.8608,1.82747,147.991,Q,Q
2023-03-15 21:26:50:350,0,-54.8575,1.8295,147.99,Q,Q
2023-03-15 21:26:50:360,0,-54.8585,1.82879,147.991,Q,Q
2023-03-15 21:26:50:370,0,-54.8591,1.8251,147.996,Q,Q
2023-03-15 21:26:50:380,0,-54.8593,1.8284,147.997,Q,Q
2023-03-15 21:26:50:390,0,-54.8588,1.82809,147.998,Q,Q
2023-03-15 21:26:50:400,0,-54.8565,1.82714,147.997,Q,Q
2023-03-15 21:26:50:410,0,-54.8531,1.8255,147.994,Q,Q
2023-03-15 21:26:50:420,0,-54.855,1.82525,147.994,Q,Q
2023-03-15 21:26:50:430,0,-54.8577,1.826,147.996,Q,Q
2023-03-15 21:26:50:440,0,-54.8584,1.82537,147.998,Q,Q
2023-03-15 21:26:50:450,0,-54.8597,1.82658,147.999,Q,Q
2023-03-15 21:26:50:460,0,-54.8603,1.82507,147.999,Q,Q
2023-03-15 21:26:50:470,0,-54.8579,1.82347,148.0,Q,Q
2023-03-15 21:26:50:480,0,-54.8587,1.82419,148.001,Q,Q
2023-03-15 21:26:50:490,0,-54.861,1.82298,148.004,Q,Q
2023-03-15 21:26:50:500,0,-54.8594,1.824,148.004,Q,Q
2023-03-15 21:26:50:510,0,-54.8604,1.83032,148.0,Q,Q
2023-03-15 21:26:50:520,0,-54.8624,1.83317,147.997,Q,Q
2023-03-15 21:26:50:530,0,-54.8623,1.83391,147.995,Q,Q
2023-03-15 21:26:50:540,0,-54.8658,1.83041,147.993,Q,Q
2023-03-15 21:26:50:550,0,-54.8651,1.83238,147.994,Q,Q
2023-03-15 21:26:50:560,0,-54.8652,1.83226,147.997,Q,Q
2023-03-15 21:26:50:570,0,-54.8647,1.83225,147.999,Q,Q
2023-03-15 21:26:50:580,0,-54.8647,1.83497,148.0,Q,Q
2023-03-15 21:26:50:590,0,-54.8671,1.83457,147.999,Q,Q
2023-03-15 21:26:50:600,0,-54.8662,1.83515,148.002,Q,Q
2023-03-15 21:26:50:610,0,-54.8677,1.83617,148.0,Q,Q
2023-03-15 21:26:50:620,0,-54.8642,1.83504,148.006,Q,Q
2023-03-15 21:26:50:630,0,-54.863,1.83102,148.007,Q,Q
2023-03-15 21:26:50:640,0,-54.8628,1.83131,148.006,Q,Q
2023-03-15 21:26:50:650,0,-54.861,1.82927,148.005,Q,Q
2023-03-15 21:26:50:660,0,-54.8607,1.82752,148.0,Q,Q
2023-03-15 21:26:50:670,0,-54.8627,1.82847,148.001,Q,Q
2023-03-15 21:26:50:680,0,-54.8653,1.82691,147.999,Q,Q
2023-03-15 21:26:50:690,0,-54.8633,1.82546,148.002,Q,Q
2023-03-15 21:26:50:700,0,-54.8664,1.82668,148.002,Q,Q
2023-03-15 21:26:50:710,0,-54.8647,1.82445,148.0,Q,Q
2023-03-15 21:26:50:720,0,-54.8634,1.82509,147.998,Q,Q
2023-03-15 21:26:50:730,0,-54.8647,1.82503,147.996,Q,Q
2023-03-15 21:26:50:740,0,-54.8637,1.82665,147.992,Q,Q
2023-03-15 21:26:50:750,0,-54.8621,1.82645,147.989,Q,Q
2023-03-15 21:26:50:760,0,-54.8639,1.82635,147.99,Q,Q
2023-03-15 21:26:50:770,0,-54.8628,1.82385,147.99,Q,Q
2023-03-15 21:26:50:780,0,-54.862,1.8245,147.991,Q,Q
2023-03-15 21:26:50:790,0,-54.8635,1.82629,147.995,Q,Q
2023-03-15 21:26:50:800,0,-54.8637,1.82757,147.996,Q,Q
2023-03-15 21:26:50:810,0,-54.8629,1.82904,147.999,Q,Q
2023-03-15 21:26:50:820,0,-54.8635,1.82906,148.0,Q,Q
2023-03-15 21:26:50:830,0,-54.8644,1.82929,147.997,Q,Q
2023-03-15 21:26:50:840,0,-54.8659,1.82955,147.997,Q,Q
2023-03-15 21:26:50:850,0,-54.8671,1.83009,147.995,Q,Q
2023-03-15 21:26:50:860,0,-54.8659,1.82957,147.993,Q,Q
2023-03-15 21:26:50:870,0,-54.8663,1.82993,147.992,Q,Q
2023-03-15 21:26:50:880,0,-54.8638,1.82786,147.993,Q,Q
2023-03-15 21:26:50:890,0,-54.8634,1.8285,147.996,Q,Q
2023-03-15 21:26:50:900,0,-54.8588,1.83171,147.996,Q,Q
2023-03-15 21:26:50:910,0,-54.858,1.83343,147.997,Q,Q
2023-03-15 21:26:50:920,0,-54.8607,1.83448,148.002,Q,Q
2023-03-15 21:26:50:930,0,-54.8621,1.83846,148.003,Q,Q
2023-03-15 21:26:50:940,0,-54.8607,1.83524,148.004,Q,Q
2023-03-15 21:26:50:950,0,-54.8598,1.835,148.005,Q,Q
2023-03-15 21:26:50:960,0,-54.8615,1.83748,148.005,Q,Q
2023-03-15 21:26:50:970,0,-54.863,1.83886,148.003,Q,Q
2023-03-15 21:26:50:980,0,-54.8607,1.83794,148.001,Q,Q
2023-03-15 21:26:50:990,0,-54.8599,1.83784,148.0,Q,Q
2023-03-15 21:26:51:0,0,-54.8631,1.83943,148.004,Q,Q
2023-03-15 21:26:51:10,0,-54.8578,1.84042,148.004,Q,Q
2023-03-15 21:26:51:20,0,-54.856,1.84019,148.004,Q,Q
2023-03-15 21:26:51:30,0,-54.8562,1.84244,148.005,Q,Q
2023-03-15 21:26:51:40,0,-54.8566,1.84314,148.006,Q,Q
2023-03-15 21:26:51:50,0,-54.8557,1.84431,148.006,Q,Q
2023-03-15 21:26:51:60,0,-54.8543,1.84543,148.006,Q,Q
2023-03-15 21:26:51:70,0,-54.8554,1.84844,148.005,Q,Q
2023-03-15 21:26:51:80,0,-54.8551,1.84814,148.003,Q,Q
2023-03-15 21:26:51:90,0,-54.8527,1.84484,148.006,Q,Q
2023-03-15 21:26:51:100,0,-54.8516,1.84448,148.007,Q,Q
2023-03-15 21:26:51:110,0,-54.8523,1.84462,148.01,Q,Q
2023-03-15 21:26:51:120,0,-54.8545,1.84217,148.011,Q,Q
2023-03-15 21:26:51:130,0,-54.8543,1.84203,148.012,Q,Q
2023-03-15 21:26:51:140,0,-54.8585,1.84272,148.011,Q,Q
2023-03-15 21:26:51:150,0,-54.8578,1.84358,148.013,Q,Q
2023-03-15 21:26:51:160,0,-54.8591,1.84393,148.013,Q,Q
2023-03-15 21:26:51:170,0,-54.8594,1.84388,148.012,Q,Q
2023-03-15 21:26:51:180,0,-54.8601,1.84212,148.011,Q,Q
2023-03-15 21:26:51:190,0,-54.8582,1.84237,148.009,Q,Q
2023-03-15 21:26:51:200,0,-54.8597,1.83787,148.009,Q,Q
2023-03-15 21:26:51:210,0,-54.8576,1.83762,148.01,Q,Q
2023-03-15 21:26:51:220,0,-54.8561,1.83909,148.009,Q,Q
2023-03-15 21:26:51:230,0,-54.8574,1.84172,148.01,Q,Q
2023-03-15 21:26:51:240,0,-54.8569,1.84155,148.012,Q,Q
2023-03-15 21:26:51:250,0,-54.8589,1.84359,148.011,Q,Q
2023-03-15 21:26:51:260,0,-54.8598,1.84359,148.011,Q,Q
2023-03-15 21:26:51:270,0,-54.8604,1.84299,148.014,Q,Q
2023-03-15 21:26:51:280,0,-54.8622,1.84505,148.015,Q,Q
2023-03-15 21:26:51:290,0,-54.8636,1.84525,148.013,Q,Q
2023-03-15 21:26:51:300,0,-54.8653,1.84235,148.013,Q,Q
2023-03-15 21:26:51:310,0,-54.8642,1.83872,148.012,Q,Q
2023-03-15 21:26:51:320,0,-54.8645,1.83738,148.011,Q,Q
2023-03-15 21:26:51:330,0,-54.8665,1.83672,148.01,Q,Q
2023-03-15 21:26:51:340,0,-54.8668,1.83725,148.006,Q,Q
2023-03-15 21:26:51:350,0,-54.8698,1.83678,148.006,Q,Q
2023-03-15 21:26:51:360,0,-54.8715,1.83729,148.007,Q,Q
2023-03-15 21:26:51:370,0,-54.8721,1.83913,148.007,Q,Q
2023-03-15 21:26:51:380,0,-54.8719,1.83626,148.007,Q,Q
2023-03-15 21:26:51:390,0,-54.8698,1.83751,148.006,Q,Q
2023-03-15 21:26:51:400,0,-54.8709,1.83724,148.005,Q,Q
2023-03-15 21:26:51:410,0,-54.8727,1.83829,148.008,Q,Q
2023-03-15 21:26:51:420,0,-54.8752,1.84067,148.009,Q,Q
2023-03-15 21:26:51:430,0,-54.8789,1.83917,148.01,Q,Q
2023-03-15 21:26:51:440,0,-54.8788,1.84173,148.011,Q,Q
2023-03-15 21:26:51:450,0,-54.8797,1.84293,148.009,Q,Q
2023-03-15 21:26:51:460,0,-54.8779,1.84405,148.01,Q,Q
2023-03-15 21:26:51:470,0,-54.879,1.84388,148.008,Q,Q
2023-03-15 21:26:51:480,0,-54.8762,1.84304,148.005,Q,Q
2023-03-15 21:26:51:490,0,-54.8756,1.84228,148.005,Q,Q
2023-03-15 21:26:51:500,0,-54.8724,1.84235,148.005,Q,Q
2023-03-15 21:26:51:510,0,-54.8706,1.84319,148.005,Q,Q
2023-03-15 21:26:51:520,0,-54.8709,1.84287,148.009,Q,Q
2023-03-15 21:26:51:530,0,-54.8687,1.84599,148.009,Q,Q
2023-03-15 21:26:51:540,0,-54.8711,1.84564,148.009,Q,Q
2023-03-15 21:26:51:550,0,-54.8718,1.84453,148.009,Q,Q
2023-03-15 21:26:51:560,0,-54.8708,1.84434,148.012,Q,Q
2023-03-15 21:26:51:570,0,-54.8696,1.84144,148.015,Q,Q
2023-03-15 21:26:51:580,0,-54.8706,1.83989,148.02,Q,Q
2023-03-15 21:26:51:590,0,-54.8719,1.84038,148.022,Q,Q
2023-03-15 21:26:51:600,0,-54.8737,1.84114,148.021,Q,Q
2023-03-15 21:26:51:610,0,-54.8741,1.84023,148.021,Q,Q
2023-03-15 21:26:51:620,0,-54.8708,1.84179,148.022,Q,Q
2023-03-15 21:26:51:630,0,-54.8723,1.84281,148.022,Q,Q
2023-03-15 21:26:51:640,0,-54.8729,1.84261,148.021,Q,Q
2023-03-15 21:26:51:650,0,-54.8773,1.84169,148.018,Q,Q
2023-03-15 21:26:51:660,0,-54.8806,1.83942,148.018,Q,Q
2023-03-15 21:26:51:670,0,-54.8806,1.83951,148.02,Q,Q
2023-03-15 21:26:51:680,0,-54.8795,1.8397,148.021,Q,Q
2023-03-15 21:26:51:690,0,-54.8794,1.83731,148.021,Q,Q
2023-03-15 21:26:51:700,0,-54.8824,1.83965,148.021,Q,Q
2023-03-15 21:26:51:710,0,-54.8834,1.84263,148.022,Q,Q
2023-03-15 21:26:51:720,0,-54.8829,1.8437,148.024,Q,Q
2023-03-15 21:26:51:730,0,-54.884,1.84576,148.025,Q,Q
2023-03-15 21:26:51:740,0,-54.8842,1.84827,148.022,Q,Q
2023-03-15 21:26:51:750,0,-54.885,1.8519,148.022,Q,Q
2023-03-15 21:26:51:760,0,-54.8855,1.85299,148.022,Q,Q
2023-03-15 21:26:51:770,0,-54.8891,1.85333,148.021,Q,Q
2023-03-15 21:26:51:780,0,-54.8911,1.85309,148.018,Q,Q
2023-03-15 21:26:51:790,0,-54.8938,1.85359,148.021,Q,Q
2023-03-15 21:26:51:800,0,-54.8911,1.85637,148.02,Q,Q
2023-03-15 21:26:51:810,0,-54.8917,1.85461,148.02,Q,Q
2023-03-15 21:26:51:820,0,-54.8958,1.85386,148.019,Q,Q
2023-03-15 21:26:51:830,0,-54.8965,1.8545,148.021,Q,Q
2023-03-15 21:26:51:840,0,-54.8979,1.85199,148.02,Q,Q
2023-03-15 21:26:51:850,0,-54.9002,1.85472,148.018,Q,Q
2023-03-15 21:26:51:860,0,-54.8992,1.85346,148.022,Q,Q
2023-03-15 21:26:51:870,0,-54.8991,1.85133,148.018,Q,Q
2023-03-15 21:26:51:880,0,-54.9003,1.84971,148.018,Q,Q
2023-03-15 21:26:51:890,0,-54.8999,1.8523,148.02,Q,Q
2023-03-15 21:26:51:900,0,-54.8964,1.85406,148.019,Q,Q
2023-03-15 21:26:51:910,0,-54.8949,1.85283,148.019,Q,Q
2023-03-15 21:26:51:920,0,-54.8949,1.84919,148.02,Q,Q
2023-03-15 21:26:51:930,0,-54.8969,1.85068,148.017,Q,Q
2023-03-15 21:26:51:940,0,-54.8926,1.8518,148.016,Q,Q
2023-03-15 21:26:51:950,0,-54.8905,1.85173,148.016,Q,Q
2023-03-15 21:26:51:960,0,-54.8877,1.8511,148.016,Q,Q
2023-03-15 21:26:51:970,0,-54.8852,1.85191,148.017,Q,Q
2023-03-15 21:26:51:980,0,-54.8833,1.84802,148.021,Q,Q
2023-03-15 21:26:51:990,0,-54.8855,1.84373,148.023,Q,Q
2023-03-15 21:26:52:0,0,-54.8854,1.84442,148.02,Q,Q
2023-03-15 21:26:52:10,0,-54.8884,1.84357,148.02,Q,Q
2023-03-15 21:26:52:20,0,-54.8878,1.84263,148.019,Q,Q
2023-03-15 21:26:52:30,0,-54.8897,1.84421,148.021,Q,Q
2023-03-15 21:26:52:40,0,-54.8906,1.84272,148.026,Q,Q
2023-03-15 21:26:52:50,0,-54.8925,1.84248,148.029,Q,Q
2023-03-15 21:26:52:60,0,-54.8922,1.83857,148.027,Q,Q
2023-03-15 21:26:52:70,0,-54.8903,1.8394,148.027,Q,Q
2023-03-15 21:26:52:80,0,-54.8891,1.83665,148.024,Q,Q
2023-03-15 21:26:52:90,0,-54.8893,1.83753,148.027,Q,Q
2023-03-15 21:26:52:100,0,-54.8899,1.83821,148.025,Q,Q
2023-03-15 21:26:52:110,0,-54.8933,1.83771,148.025,Q,Q
2023-03-15 21:26:52:120,0,-54.8919,1.83757,148.026,Q,Q
2023-03-15 21:26:52:130,0,-54.8921,1.83751,148.029,Q,Q
2023-03-15 21:26:52:140,0,-54.8917,1.83611,148.029,Q,Q
2023-03-15 21:26:52:150,0,-54.8908,1.83539,148.032,Q,Q
2023-03-15 21:26:52:160,0,-54.89,1.83505,148.035,Q,Q
2023-03-15 21:26:52:170,0,-54.8917,1.83873,148.034,Q,Q
2023-03-15 21:26:52:180,0,-54.8899,1.83617,148.032,Q,Q
2023-03-15 21:26:52:190,0,-54.8903,1.83472,148.033,Q,Q
2023-03-15 21:26:52:200,0,-54.8934,1.83241,148.032,Q,Q
2023-03-15 21:26:52:210,0,-54.8951,1.83089,148.034,Q,Q
2023-03-15 21:26:52:220,0,-54.8969,1.83051,148.035,Q,Q
2023-03-15 21:26:52:230,0,-54.8985,1.82852,148.035,Q,Q
2023-03-15 21:26:52:240,0,-54.8987,1.82844,148.035,Q,Q
2023-03-15 21:26:52:250,0,-54.8972,1.8288,148.033,Q,Q
2023-03-15 21:26:52:260,0,-54.8961,1.83092,148.033,Q,Q
2023-03-15 21:26:52:270,0,-54.8931,1.83106,148.035,Q,Q
2023-03-15 21:26:52:280,0,-54.8951,1.83436,148.035,Q,Q
2023-03-15 21:26:52:290,0,-54.8971,1.83583,148.034,Q,Q
2023-03-15 21:26:52:300,0,-54.8963,1.83476,148.033,Q,Q
2023-03-15 21:26:52:310,0,-54.8951,1.83268,148.034,Q,Q
2023-03-15 21:26:52:320,0,-54.8952,1.83324,148.033,Q,Q
2023-03-15 21:26:52:330,0,-54.8958,1.82898,148.035,Q,Q
2023-03-15 21:26:52:340,0,-54.8952,1.82955,148.035,Q,Q
2023-03-15 21:26:52:350,0,-54.894,1.82997,148.037,Q,Q
2023-03-15 21:26:52:360,0,-54.8922,1.82932,148.041,Q,Q
2023-03-15 21:26:52:370,0,-54.8914,1.8295,148.042,Q,Q
2023-03-15 21:26:52:380,0,-54.8931,1.82813,148.037,Q,Q
2023-03-15 21:26:52:390,0,-54.8961,1.83148,148.04,Q,Q
2023-03-15 21:26:52:400,0,-54.8959,1.83362,148.042,Q,Q
2023-03-15 21:26:52:410,0,-54.8944,1.83379,148.044,Q,Q
2023-03-15 21:26:52:420,0,-54.8946,1.83484,148.041,Q,Q
2023-03-15 21:26:52:430,0,-54.8951,1.8348,148.041,Q,Q
2023-03-15 21:26:52:440,0,-54.893,1.83475,148.043,Q,Q
2023-03-15 21:26:52:450,0,-54.8936,1.83341,148.042,Q,Q
2023-03-15 21:26:52:460,0,-54.8941,1.83409,148.045,Q,Q
2023-03-15 21:26:52:470,0,-54.8954,1.83141,148.047,Q,Q
2023-03-15 21:26:52:480,0,-54.8986,1.83196,148.048,Q,Q
2023-03-15 21:26:52:490,0,-54.8987,1.83206,148.048,Q,Q
2023-03-15 21:26:52:500,0,-54.9005,1.83253,148.046,Q,Q
2023-03-15 21:26:52:510,0,-54.8994,1.83231,148.048,Q,Q
2023-03-15 21:26:52:520,0,-54.8972,1.83111,148.049,Q,Q
2023-03-15 21:26:52:530,0,-54.8992,1.83119,148.05,Q,Q
2023-03-15 21:26:52:540,0,-54.8965,1.8324,148.055,Q,Q
2023-03-15 21:26:52:550,0,-54.8966,1.83268,148.054,Q,Q
2023-03-15 21:26:52:560,0,-54.8979,1.83127,148.052,Q,Q
2023-03-15 21:26:52:570,0,-54.8989,1.82969,148.051,Q,Q
2023-03-15 21:26:52:580,0,-54.9018,1.83,148.048,Q,Q
2023-03-15 21:26:52:590,0,-54.9018,1.83037,148.048,Q,Q
2023-03-15 21:26:52:600,0,-54.9019,1.82991,148.048,Q,Q
2023-03-15 21:26:52:610,0,-54.9032,1.83077,148.046,Q,Q
2023-03-15 21:26:52:620,0,-54.8989,1.83023,148.05,Q,Q
2023-03-15 21:26:52:630,0,-54.8989,1.83067,148.052,Q,Q
2023-03-15 21:26:52:640,0,-54.8969,1.83133,148.051,Q,Q
2023-03-15 21:26:52:650,0,-54.8964,1.83033,148.051,Q,Q
2023-03-15 21:26:52:660,0,-54.8936,1.82925,148.053,Q,Q
2023-03-15 21:26:52:670,0,-54.8922,1.8268,148.054,Q,Q
2023-03-15 21:26:52:680,0,-54.89,1.82818,148.053,Q,Q
2023-03-15 21:26:52:690,0,-54.8904,1.82941,148.056,Q,Q
2023-03-15 21:26:52:700,0,-54.89,1.82812,148.054,Q,Q
2023-03-15 21:26:52:710,0,-54.8913,1.82996,148.053,Q,Q
2023-03-15 21:26:52:720,0,-54.8894,1.82848,148.055,Q,Q
2023-03-15 21:26:52:730,0,-54.8904,1.82853,148.054,Q,Q
2023-03-15 21:26:52:740,0,-54.8904,1.8293,148.052,Q,Q
2023-03-15 21:26:52:750,0,-54.888,1.82568,148.053,Q,Q
2023-03-15 21:26:52:760,0,-54.8864,1.82637,148.054,Q,Q
2023-03-15 21:26:52:770,0,-54.8857,1.82433,148.055,Q,Q
2023-03-15 21:26:52:780,0,-54.8883,1.82711,148.055,Q,Q
2023-03-15 21:26:52:790,0,-54.8881,1.82873,148.055,Q,Q
2023-03-15 21:26:52:800,0,-54.8894,1.82896,148.057,Q,Q
2023-03-15 21:26:52:810,0,-54.8865,1.82818,148.058,Q,Q
2023-03-15 21:26:52:820,0,-54.8853,1.8318,148.058,Q,Q
2023-03-15 21:26:52:830,0,-54.8848,1.8333,148.062,Q,Q
2023-03-15 21:26:52:840,0,-54.8851,1.83157,148.06,Q,Q
2023-03-15 21:26:52:850,0,-54.8853,1.83333,148.056,Q,Q
2023-03-15 21:26:52:860,0,-54.8827,1.83457,148.055,Q,Q
2023-03-15 21:26:52:870,0,-54.8834,1.83445,148.055,Q,Q
2023-03-15 21:26:52:880,0,-54.8827,1.83253,148.055,Q,Q
2023-03-15 21:26:52:890,0,-54.8792,1.83231,148.054,Q,Q
2023-03-15 21:26:52:900,0,-54.8816,1.83133,148.056,Q,Q
2023-03-15 21:26:52:910,0,-54.8825,1.83144,148.056,Q,Q
2023-03-15 21:26:52:920,0,-54.8797,1.83194,148.055,Q,Q
2023-03-15 21:26:52:930,0,-54.8766,1.82987,148.055,Q,Q
2023-03-15 21:26:52:940,0,-54.8771,1.83054,148.055,Q,Q
2023-03-15 21:26:52:950,0,-54.8776,1.83043,148.056,Q,Q
2023-03-15 21:26:52:960,0,-54.8772,1.83435,148.053,Q,Q
2023-03-15 21:26:52:970,0,-54.8776,1.83455,148.052,Q,Q
2023-03-15 21:26:52:980,0,-54.8764,1.83643,148.053,Q,Q
2023-03-15 21:26:52:990,0,-54.8775,1.83613,148.054,Q,Q
2023-03-15 21:26:53:0,0,-54.8776,1.83543,148.058,Q,Q
2023-03-15 21:26:53:10,0,-54.8768,1.83452,148.056,Q,Q
2023-03-15 21:26:53:20,0,-54.8756,1.8343,148.057,Q,Q
2023-03-15 21:26:53:30,0,-54.8755,1.83364,148.059,Q,Q
2023-03-15 21:26:53:40,0,-54.876,1.83529,148.06,Q,Q
2023-03-15 21:26:53:50,0,-54.8776,1.83161,148.061,Q,Q
2023-03-15 21:26:53:60,0,-54.8795,1.83456,148.06,Q,Q
2023-03-15 21:26:53:70,0,-54.8822,1.83436,148.059,Q,Q
2023-03-15 21:26:53:80,0,-54.883,1.83368,148.057,Q,Q
2023-03-15 21:26:53:90,0,-54.8827,1.83643,148.055,Q,Q
2023-03-15 21:26:53:100,0,-54.8812,1.83705,148.051,Q,Q
2023-03-15 21:26:53:110,0,-54.8806,1.83817,148.049,Q,Q
2023-03-15 21:26:53:120,0,-54.8813,1.83782,148.05,Q,Q
2023-03-15 21:26:53:130,0,-54.8763,1.84078,148.049,Q,Q
2023-03-15 21:26:53:140,0,-54.8742,1.84147,148.05,Q,Q
2023-03-15 21:26:53:150,0,-54.8761,1.84092,148.049,Q,Q
2023-03-15 21:26:53:160,0,-54.8727,1.84171,148.051,Q,Q
2023-03-15 21:26:53:170,0,-54.8756,1.83948,148.052,Q,Q
2023-03-15 21:26:53:180,0,-54.8738,1.8415,148.051,Q,Q
2023-03-15 21:26:53:190,0,-54.8737,1.84317,148.049,Q,Q
2023-03-15 21:26:53:200,0,-54.8728,1.84082,148.053,Q,Q
2023-03-15 21:26:53:210,0,-54.8722,1.83966,148.052,Q,Q
2023-03-15 21:26:53:220,0,-54.872,1.84093,148.051,Q,Q
2023-03-15 21:26:53:230,0,-54.8721,1.84001,148.053,Q,Q
2023-03-15 21:26:53:240,0,-54.8732,1.83881,148.054,Q,Q
2023-03-15 21:26:53:250,0,-54.8695,1.84008,148.052,Q,Q
2023-03-15 21:26:53:260,0,-54.8654,1.84188,148.052,Q,Q
2023-03-15 21:26:53:270,0,-54.8657,1.8447,148.052,Q,Q
2023-03-15 21:26:53:280,0,-54.8644,1.8449,148.052,Q,Q
2023-03-15 21:26:53:290,0,-54.8611,1.84833,148.051,Q,Q
2023-03-15 21:26:53:300,0,-54.8596,1.84895,148.05,Q,Q
2023-03-15 21:26:53:310,0,-54.8583,1.84937,148.048,Q,Q
2023-03-15 21:26:53:320,0,-54.8583,1.84929,148.048,Q,Q
2023-03-15 21:26:53:330,0,-54.8578,1.85048,148.049,Q,Q
2023-03-15 21:26:53:340,0,-54.8563,1.85122,148.051,Q,Q
2023-03-15 21:26:53:350,0,-54.8574,1.8493,148.05,Q,Q
2023-03-15 21:26:53:360,0,-54.8589,1.84679,148.048,Q,Q
2023-03-15 21:26:53:370,0,-54.8567,1.84679,148.049,Q,Q
2023-03-15 21:26:53:380,0,-54.856,1.84442,148.049,Q,Q
2023-03-15 21:26:53:390,0,-54.8564,1.84575,148.048,Q,Q
2023-03-15 21:26:53:400,0,-54.8573,1.84748,148.045,Q,Q
2023-03-15 21:26:53:410,0,-54.8586,1.84926,148.046,Q,Q
2023-03-15 21:26:53:420,0,-54.8597,1.84721,148.044,Q,Q
2023-03-15 21:26:53:430,0,-54.8615,1.84976,148.045,Q,Q
2023-03-15 21:26:53:440,0,-54.8618,1.8514,148.046,Q,Q
2023-03-15 21:26:53:450,0,-54.8619,1.85008,148.048,Q,Q
2023-03-15 21:26:53:460,0,-54.8638,1.85037,148.049,Q,Q
2023-03-15 21:26:53:470,0,-54.8609,1.85035,148.048,Q,Q
2023-03-15 21:26:53:480,0,-54.8616,1.84815,148.044,Q,Q
2023-03-15 21:26:53:490,0,-54.8641,1.85037,148.043,Q,Q
2023-03-15 21:26:53:500,0,-54.8648,1.8525,148.044,Q,Q
2023-03-15 21:26:53:510,0,-54.8623,1.85504,148.043,Q,Q
2023-03-15 21:26:53:520,0,-54.8617,1.85511,148.043,Q,Q
2023-03-15 21:26:53:530,0,-54.8647,1.85454,148.044,Q,Q
2023-03-15 21:26:53:540,0,-54.865,1.85106,148.045,Q,Q
2023-03-15 21:26:53:550,0,-54.8656,1.84947,148.043,Q,Q
2023-03-15 21:26:53:560,0,-54.8624,1.84978,148.044,Q,Q
2023-03-15 21:26:53:570,0,-54.8609,1.84844,148.047,Q,Q
2023-03-15 21:26:53:580,0,-54.8597,1.85049,148.042,Q,Q
2023-03-15 21:26:53:590,0,-54.8598,1.84811,148.042,Q,Q
2023-03-15 21:26:53:600,0,-54.862,1.84769,148.042,Q,Q
2023-03-15 21:26:53:610,0,-54.8622,1.84764,148.043,Q,Q
2023-03-15 21:26:53:620,0,-54.8593,1.84945,148.044,Q,Q
2023-03-15 21:26:53:630,0,-54.8594,1.85146,148.047,Q,Q
2023-03-15 21:26:53:640,0,-54.8566,1.85138,148.049,Q,Q
2023-03-15 21:26:53:650,0,-54.8557,1.85154,148.052,Q,Q
2023-03-15 21:26:53:660,0,-54.8549,1.85006,148.05,Q,Q
2023-03-15 21:26:53:670,0,-54.8544,1.85233,148.049,Q,Q
2023-03-15 21:26:53:680,0,-54.8573,1.85244,148.051,Q,Q
2023-03-15 21:26:53:690,0,-54.8571,1.85376,148.054,Q,Q
2023-03-15 21:26:53:700,0,-54.8585,1.85658,148.051,Q,Q
2023-03-15 21:26:53:710,0,-54.8581,1.85857,148.051,Q,Q
2023-03-15 21:26:53:720,0,-54.8602,1.85667,148.05,Q,Q
2023-03-15 21:26:53:730,0,-54.8624,1.85822,148.049,Q,Q
2023-03-15 21:26:53:740,0,-54.8616,1.85652,148.05,Q,Q
2023-03-15 21:26:53:750,0,-54.8634,1.85956,148.047,Q,Q
2023-03-15 21:26:53:760,0,-54.8638,1.86117,148.048,Q,Q
2023-03-15 21:26:53:770,0,-54.8634,1.86219,148.048,Q,Q
2023-03-15 21:26:53:780,0,-54.8617,1.86106,148.045,Q,Q
2023-03-15 21:26:53:790,0,-54.8629,1.8649,148.043,Q,Q
2023-03-15 21:26:53:800,0,-54.8616,1.86454,148.045,Q,Q
2023-03-15 21:26:53:810,0,-54.8603,1.866,148.042,Q,Q
2023-03-15 21:26:53:820,0,-54.8605,1.86286,148.042,Q,Q
2023-03-15 21:26:53:830,0,-54.8593,1.86114,148.042,Q,Q
2023-03-15 21:26:53:840,0,-54.8585,1.86109,148.042,Q,Q
2023-03-15 21:26:53:850,0,-54.8607,1.86241,148.041,Q,Q
2023-03-15 21:26:53:860,0,-54.8604,1.86538,148.041,Q,Q
2023-03-15 21:26:53:870,0,-54.8611,1.86633,148.041,Q,Q
2023-03-15 21:26:53:880,0,-54.8605,1.86606,148.039,Q,Q
2023-03-15 21:26:53:890,0,-54.8603,1.86556,148.042,Q,Q
2023-03-15 21:26:53:900,0,-54.8617,1.86633,148.038,Q,Q
2023-03-15 21:26:53:910,0,-54.8613,1.86383,148.04,Q,Q
2023-03-15 21:26:53:920,0,-54.8639,1.8621,148.04,Q,Q
2023-03-15 21:26:53:930,0,-54.8668,1.86177,148.04,Q,Q
2023-03-15 21:26:53:940,0,-54.8665,1.86207,148.039,Q,Q
2023-03-15 21:26:53:950,0,-54.866,1.85909,148.04,Q,Q
2023-03-15 21:26:53:960,0,-54.8657,1.85955,148.042,Q,Q
2023-03-15 21:26:53:970,0,-54.8676,1.86187,148.042,Q,Q
2023-03-15 21:26:53:980,0,-54.8644,1.86043,148.043,Q,Q
2023-03-15 21:26:53:990,0,-54.8609,1.85961,148.044,Q,Q
2023-03-15 21:26:54:0,0,-54.8566,1.85771,148.048,Q,Q
2023-03-15 21:26:54:10,0,-54.8511,1.85619,148.047,Q,Q
2023-03-15 21:26:54:20,0,-54.8476,1.85638,148.049,Q,Q
2023-03-15 21:26:54:30,0,-54.8469,1.85866,148.049,Q,Q
2023-03-15 21:26:54:40,0,-54.8479,1.85984,148.048,Q,Q
2023-03-15 21:26:54:50,0,-54.85,1.85916,148.048,Q,Q
2023-03-15 21:26:54:60,0,-54.8512,1.85796,148.048,Q,Q
2023-03-15 21:26:54:70,0,-54.851,1.85638,148.047,Q,Q
2023-03-15 21:26:54:80,0,-54.8536,1.85391,148.048,Q,Q
2023-03-15 21:26:54:90,0,-54.856,1.85465,148.048,Q,Q
2023-03-15 21:26:54:100,0,-54.8576,1.85315,148.046,Q,Q
2023-03-15 21:26:54:110,0,-54.8587,1.85113,148.046,Q,Q
2023-03-15 21:26:54:120,0,-54.8582,1.84987,148.046,Q,Q
2023-03-15 21:26:54:130,0,-54.8577,1.84876,148.048,Q,Q
2023-03-15 21:26:54:140,0,-54.8582,1.85103,148.05,Q,Q
2023-03-15 21:26:54:150,0,-54.8605,1.85188,148.05,Q,Q
2023-03-15 21:26:54:160,0,-54.8605,1.85043,148.052,Q,Q
2023-03-15 21:26:54:170,0,-54.859,1.84929,148.051,Q,Q
2023-03-15 21:26:54:180,0,-54.8587,1.85441,148.053,Q,Q
2023-03-15 21:26:54:190,0,-54.8555,1.85601,148.052,Q,Q
2023-03-15 21:26:54:200,0,-54.8581,1.8571,148.053,Q,Q
2023-03-15 21:26:54:210,0,-54.8586,1.85566,148.054,Q,Q
2023-03-15 21:26:54:220,0,-54.86,1.85101,148.054,Q,Q
2023-03-15 21:26:54:230,0,-54.8619,1.84411,148.054,Q,Q
2023-03-15 21:26:54:240,0,-54.8606,1.84373,148.054,Q,Q
2023-03-15 21:26:54:250,0,-54.8609,1.84188,148.05,Q,Q
2023-03-15 21:26:54:260,0,-54.86,1.84002,148.049,Q,Q
2023-03-15 21:26:54:270,0,-54.8599,1.8433,148.047,Q,Q
2023-03-15 21:26:54:280,0,-54.8581,1.84463,148.049,Q,Q
2023-03-15 21:26:54:290,0,-54.8573,1.84493,148.048,Q,Q
2023-03-15 21:26:54:300,0,-54.8576,1.84424,148.049,Q,Q
2023-03-15 21:26:54:310,0,-54.8604,1.84214,148.054,Q,Q
2023-03-15 21:26:54:320,0,-54.8613,1.84068,148.05,Q,Q
2023-03-15 21:26:54:330,0,-54.8595,1.84042,148.049,Q,Q
2023-03-15 21:26:54:340,0,-54.8557,1.839,148.048,Q,Q
2023-03-15 21:26:54:350,0,-54.8521,1.8399,148.047,Q,Q
2023-03-15 21:26:54:360,0,-54.8514,1.8429,148.044,Q,Q
2023-03-15 21:26:54:370,0,-54.8532,1.84264,148.042,Q,Q
2023-03-15 21:26:54:380,0,-54.8533,1.84123,148.042,Q,Q
2023-03-15 21:26:54:390,0,-54.8572,1.84135,148.043,Q,Q
2023-03-15 21:26:54:400,0,-54.8579,1.8397,148.045,Q,Q
2023-03-15 21:26:54:410,0,-54.857,1.83897,148.042,Q,Q
2023-03-15 21:26:54:420,0,-54.8584,1.83688,148.04,Q,Q
2023-03-15 21:26:54:430,0,-54.8599,1.83414,148.04,Q,Q
2023-03-15 21:26:54:440,0,-54.863,1.83285,148.04,Q,Q
2023-03-15 21:26:54:450,0,-54.8651,1.83442,148.038,Q,Q
2023-03-15 21:26:54:460,0,-54.8692,1.83383,148.039,Q,Q
2023-03-15 21:26:54:470,0,-54.8662,1.83244,148.039,Q,Q
2023-03-15 21:26:54:480,0,-54.8672,1.83234,148.04,Q,Q
2023-03-15 21:26:54:490,0,-54.8671,1.83146,148.04,Q,Q
2023-03-15 21:26:54:500,0,-54.8682,1.83269,148.039,Q,Q
2023-03-15 21:26:54:510,0,-54.8653,1.83344,148.038,Q,Q
2023-03-15 21:26:54:520,0,-54.8664,1.83307,148.039,Q,Q
2023-03-15 21:26:54:530,0,-54.8673,1.83513,148.039,Q,Q
2023-03-15 21:26:54:540,0,-54.8671,1.8358,148.04,Q,Q
2023-03-15 21:26:54:550,0,-54.8678,1.83801,148.038,Q,Q
2023-03-15 21:26:54:560,0,-54.867,1.83678,148.039,Q,Q
2023-03-15 21:26:54:570,0,-54.8679,1.83805,148.038,Q,Q
2023-03-15 21:26:54:580,0,-54.8715,1.83634,148.036,Q,Q
2023-03-15 21:26:54:590,0,-54.868,1.83627,148.035,Q,Q
2023-03-15 21:26:54:600,0,-54.8677,1.83757,148.035,Q,Q
2023-03-15 21:26:54:610,0,-54.8696,1.83859,148.034,Q,Q
2023-03-15 21:26:54:620,0,-54.871,1.83965,148.034,Q,Q
2023-03-15 21:26:54:630,0,-54.8677,1.83928,148.036,Q,Q
2023-03-15 21:26:54:640,0,-54.8663,1.84022,148.033,Q,Q
2023-03-15 21:26:54:650,0,-54.8703,1.84174,148.034,Q,Q
2023-03-15 21:26:54:660,0,-54.8697,1.8418,148.033,Q,Q
2023-03-15 21:26:54:670,0,-54.8698,1.83886,148.035,Q,Q
2023-03-15 21:26:54:680,0,-54.8707,1.83862,148.036,Q,Q
2023-03-15 21:26:54:690,0,-54.868,1.8401,148.039,Q,Q
2023-03-15 21:26:54:700,0,-54.87,1.8416,148.038,Q,Q
2023-03-15 21:26:54:710,0,-54.8718,1.83956,148.036,Q,Q
2023-03-15 21:26:54:720,0,-54.8677,1.84278,148.037,Q,Q
2023-03-15 21:26:54:730,0,-54.8697,1.84327,148.038,Q,Q
2023-03-15 21:26:54:740,0,-54.8722,1.84616,148.039,Q,Q
2023-03-15 21:26:54:750,0,-54.8686,1.84765,148.038,Q,Q
2023-03-15 21:26:54:760,0,-54.871,1.8485,148.038,Q,Q
2023-03-15 21:26:54:770,0,-54.8711,1.8487,148.037,Q,Q
2023-03-15 21:26:54:780,0,-54.8744,1.84664,148.037,Q,Q
2023-03-15 21:26:54:790,0,-54.873,1.84428,148.033,Q,Q
2023-03-15 21:26:54:800,0,-54.873,1.84434,148.035,Q,Q
2023-03-15 21:26:54:810,0,-54.8732,1.8456,148.038,Q,Q
2023-03-15 21:26:54:820,0,-54.8746,1.84679,148.036,Q,Q
2023-03-15 21:26:54:830,0,-54.8729,1.84734,148.036,Q,Q
2023-03-15 21:26:54:840,0,-54.875,1.84792,148.038,Q,Q
2023-03-15 21:26:54:850,0,-54.8761,1.8456,148.038,Q,Q
2023-03-15 21:26:54:860,0,-54.8757,1.84443,148.038,Q,Q
2023-03-15 21:26:54:870,0,-54.8758,1.84329,148.039,Q,Q
2023-03-15 21:26:54:880,0,-54.8754,1.84176,148.039,Q,Q
2023-03-15 21:26:54:890,0,-54.8753,1.84279,148.037,Q,Q
2023-03-15 21:26:54:900,0,-54.8735,1.84061,148.035,Q,Q
2023-03-15 21:26:54:910,0,-54.8736,1.84096,148.035,Q,Q
2023-03-15 21:26:54:920,0,-54.8743,1.84052,148.036,Q,Q
2023-03-15 21:26:54:930,0,-54.8734,1.83928,148.034,Q,Q
2023-03-15 21:26:54:940,0,-54.8728,1.83942,148.032,Q,Q
2023-03-15 21:26:54:950,0,-54.8738,1.83904,148.034,Q,Q
2023-03-15 21:26:54:960,0,-54.8755,1.83781,148.035,Q,Q
2023-03-15 21:26:54:970,0,-54.873,1.83885,148.034,Q,Q
2023-03-15 21:26:54:980,0,-54.8728,1.84271,148.039,Q,Q
2023-03-15 21:26:54:990,0,-54.875,1.84173,148.039,Q,Q
2023-03-15 21:26:55:0,0,-54.8765,1.84185,148.041,Q,Q
2023-03-15 21:26:55:10,0,-54.8768,1.84197,148.043,Q,Q
2023-03-15 21:26:55:20,0,-54.8785,1.84221,148.043,Q,Q
2023-03-15 21:26:55:30,0,-54.8793,1.84279,148.041,Q,Q
2023-03-15 21:26:55:40,0,-54.8796,1.84439,148.04,Q,Q
2023-03-15 21:26:55:50,0,-54.8793,1.84544,148.041,Q,Q
2023-03-15 21:26:55:60,0,-54.8792,1.84522,148.042,Q,Q
2023-03-15 21:26:55:70,0,-54.8814,1.84569,148.042,Q,Q
2023-03-15 21:26:55:80,0,-54.8811,1.84647,148.042,Q,Q
2023-03-15 21:26:55:90,0,-54.8798,1.84702,148.042,Q,Q
2023-03-15 21:26:55:100,0,-54.8776,1.85197,148.042,Q,Q
2023-03-15 21:26:55:110,0,-54.879,1.85374,148.039,Q,Q
2023-03-15 21:26:55:120,0,-54.8799,1.85574,148.04,Q,Q
2023-03-15 21:26:55:130,0,-54.8789,1.8575,148.039,Q,Q
2023-03-15 21:26:55:140,0,-54.8806,1.85762,148.04,Q,Q
2023-03-15 21:26:55:150,0,-54.8838,1.85867,148.043,Q,Q
2023-03-15 21:26:55:160,0,-54.8863,1.85887,148.039,Q,Q
2023-03-15 21:26:55:170,0,-54.8831,1.85559,148.041,Q,Q
2023-03-15 21:26:55:180,0,-54.8815,1.85392,148.043,Q,Q
2023-03-15 21:26:55:190,0,-54.8802,1.85485,148.048,Q,Q
2023-03-15 21:26:55:200,0,-54.8816,1.85834,148.048,Q,Q
2023-03-15 21:26:55:210,0,-54.883,1.85741,148.047,Q,Q
2023-03-15 21:26:55:220,0,-54.8805,1.85207,148.045,Q,Q
2023-03-15 21:26:55:230,0,-54.8787,1.85202,148.046,Q,Q
2023-03-15 21:26:55:240,0,-54.8789,1.85529,148.043,Q,Q
2023-03-15 21:26:55:250,0,-54.8799,1.85487,148.045,Q,Q
2023-03-15 21:26:55:260,0,-54.8788,1.85785,148.047,Q,Q
2023-03-15 21:26:55:270,0,-54.8774,1.85709,148.05,Q,Q
2023-03-15 21:26:55:280,0,-54.8781,1.85727,148.05,Q,Q
2023-03-15 21:26:55:290,0,-54.8799,1.85541,148.051,Q,Q
2023-03-15 21:26:55:300,0,-54.8792,1.85333,148.05,Q,Q
2023-03-15 21:26:55:310,0,-54.8783,1.85555,148.048,Q,Q
2023-03-15 21:26:55:320,0,-54.8822,1.85438,148.047,Q,Q
2023-03-15 21:26:55:330,0,-54.8839,1.85657,148.048,Q,Q
2023-03-15 21:26:55:340,0,-54.8852,1.85893,148.05,Q,Q
2023-03-15 21:26:55:350,0,-54.8862,1.86246,148.051,Q,Q
2023-03-15 21:26:55:360,0,-54.8855,1.86347,148.051,Q,Q
2023-03-15 21:26:55:370,0,-54.8868,1.86446,148.049,Q,Q
2023-03-15 21:26:55:380,0,-54.8848,1.86453,148.045,Q,Q
2023-03-15 21:26:55:390,0,-54.885,1.86635,148.046,Q,Q
2023-03-15 21:26:55:400,0,-54.8846,1.8677,148.047,Q,Q
2023-03-15 21:26:55:410,0,-54.8843,1.86692,148.048,Q,Q
2023-03-15 21:26:55:420,0,-54.8823,1.86861,148.048,Q,Q
2023-03-15 21:26:55:430,0,-54.8814,1.8701,148.049,Q,Q
2023-03-15 21:26:55:440,0,-54.8797,1.87109,148.047,Q,Q
2023-03-15 21:26:55:450,0,-54.8839,1.86987,148.048,Q,Q
2023-03-15 21:26:55:460,0,-54.8799,1.86779,148.045,Q,Q
2023-03-15 21:26:55:470,0,-54.8802,1.86879,148.041,Q,Q
2023-03-15 21:26:55:480,0,-54.8793,1.86693,148.042,Q,Q
2023-03-15 21:26:55:490,0,-54.8813,1.86753,148.043,Q,Q
2023-03-15 21:26:55:500,0,-54.8841,1.86774,148.04,Q,Q
2023-03-15 21:26:55:510,0,-54.8841,1.8696,148.042,Q,Q
2023-03-15 21:26:55:520,0,-54.8823,1.8682,148.044,Q,Q
2023-03-15 21:26:55:530,0,-54.8826,1.8714,148.044,Q,Q
2023-03-15 21:26:55:540,0,-54.8827,1.87222,148.042,Q,Q
2023-03-15 21:26:55:550,0,-54.8855,1.87081,148.042,Q,Q
2023-03-15 21:26:55:560,0,-54.8849,1.87414,148.042,Q,Q
2023-03-15 21:26:55:570,0,-54.8826,1.8734,148.041,Q,Q
2023-03-15 21:26:55:580,0,-54.8856,1.87344,148.042,Q,Q
2023-03-15 21:26:55:590,0,-54.8883,1.87389,148.042,Q,Q
2023-03-15 21:26:55:600,0,-54.8855,1.87277,148.04,Q,Q
2023-03-15 21:26:55:610,0,-54.8843,1.8729,148.037,Q,Q
2023-03-15 21:26:55:620,0,-54.8867,1.87046,148.036,Q,Q
2023-03-15 21:26:55:630,0,-54.8863,1.87043,148.033,Q,Q
2023-03-15 21:26:55:640,0,-54.8872,1.8693,148.033,Q,Q
2023-03-15 21:26:55:650,0,-54.8873,1.86669,148.033,Q,Q
2023-03-15 21:26:55:660,0,-54.8887,1.86889,148.033,Q,Q
2023-03-15 21:26:55:670,0,-54.8873,1.86746,148.034,Q,Q
2023-03-15 21:26:55:680,0,-54.8891,1.86615,148.034,Q,Q
2023-03-15 21:26:55:690,0,-54.8873,1.867,148.032,Q,Q
2023-03-15 21:26:55:700,0,-54.8856,1.87147,148.033,Q,Q
2023-03-15 21:26:55:710,0,-54.8867,1.87018,148.033,Q,Q
2023-03-15 21:26:55:720,0,-54.8864,1.8693,148.033,Q,Q
2023-03-15 21:26:55:730,0,-54.886,1.86969,148.032,Q,Q
2023-03-15 21:26:55:740,0,-54.884,1.86911,148.03,Q,Q
2023-03-15 21:26:55:750,0,-54.8821,1.86877,148.031,Q,Q
2023-03-15 21:26:55:760,0,-54.8833,1.86903,148.032,Q,Q
2023-03-15 21:26:55:770,0,-54.8846,1.86906,148.032,Q,Q
2023-03-15 21:26:55:780,0,-54.8826,1.86823,148.034,Q,Q
2023-03-15 21:26:55:789,0,-54.8833,1.86785,148.036,Q,Q
2023-03-15 21:26:55:800,0,-54.8858,1.86936,148.039,Q,Q
2023-03-15 21:26:55:810,0,-54.8888,1.87226,148.036,Q,Q
2023-03-15 21:26:55:820,0,-54.8888,1.8724,148.036,Q,Q
2023-03-15 21:26:55:830,0,-54.8866,1.87381,148.037,Q,Q
2023-03-15 21:26:55:840,0,-54.8871,1.87281,148.032,Q,Q
2023-03-15 21:26:55:850,0,-54.889,1.87299,148.03,Q,Q
2023-03-15 21:26:55:860,0,-54.8878,1.87218,148.03,Q,Q
2023-03-15 21:26:55:870,0,-54.8868,1.87259,148.032,Q,Q
2023-03-15 21:26:55:880,0,-54.8845,1.87183,148.034,Q,Q
2023-03-15 21:26:55:890,0,-54.884,1.87087,148.032,Q,Q
2023-03-15 21:26:55:900,0,-54.8772,1.86977,148.031,Q,Q
2023-03-15 21:26:55:910,0,-54.8762,1.87119,148.031,Q,Q
2023-03-15 21:26:55:920,0,-54.8768,1.87038,148.03,Q,Q
2023-03-15 21:26:55:930,0,-54.8786,1.87454,148.029,Q,Q
2023-03-15 21:26:55:940,0,-54.8795,1.87645,148.03,Q,Q
2023-03-15 21:26:55:950,0,-54.8788,1.87428,148.029,Q,Q
2023-03-15 21:26:55:960,0,-54.8827,1.8747,148.031,Q,Q
2023-03-15 21:26:55:970,0,-54.8812,1.87004,148.032,Q,Q
2023-03-15 21:26:55:980,0,-54.8804,1.87134,148.034,Q,Q
2023-03-15 21:26:55:990,0,-54.8818,1.86883,148.033,Q,Q
2023-03-15 21:26:56:0,0,-54.8799,1.86924,148.033,Q,Q
2023-03-15 21:26:56:10,0,-54.8775,1.87043,148.031,Q,Q
2023-03-15 21:26:56:20,0,-54.8752,1.87139,148.028,Q,Q
2023-03-15 21:26:56:30,0,-54.8748,1.87019,148.029,Q,Q
2023-03-15 21:26:56:40,0,-54.8727,1.87152,148.03,Q,Q
2023-03-15 21:26:56:50,0,-54.8707,1.86939,148.029,Q,Q
2023-03-15 21:26:56:60,0,-54.872,1.86786,148.027,Q,Q
2023-03-15 21:26:56:70,0,-54.8721,1.86992,148.026,Q,Q
2023-03-15 21:26:56:80,0,-54.8718,1.8696,148.025,Q,Q
2023-03-15 21:26:56:90,0,-54.8692,1.86871,148.025,Q,Q
2023-03-15 21:26:56:100,0,-54.8668,1.86942,148.029,Q,Q
2023-03-15 21:26:56:110,0,-54.8646,1.86982,148.025,Q,Q
2023-03-15 21:26:56:120,0,-54.8652,1.87122,148.021,Q,Q
2023-03-15 21:26:56:130,0,-54.8644,1.87263,148.022,Q,Q
2023-03-15 21:26:56:140,0,-54.8638,1.87312,148.022,Q,Q
2023-03-15 21:26:56:150,0,-54.8644,1.87184,148.021,Q,Q
2023-03-15 21:26:56:160,0,-54.8638,1.8714,148.021,Q,Q
2023-03-15 21:26:56:170,0,-54.8624,1.87232,148.02,Q,Q
2023-03-15 21:26:56:180,0,-54.8623,1.8724,148.02,Q,Q
2023-03-15 21:26:56:190,0,-54.8635,1.86895,148.019,Q,Q
2023-03-15 21:26:56:200,0,-54.8618,1.86776,148.017,Q,Q
2023-03-15 21:26:56:210,0,-54.8619,1.8659,148.015,Q,Q
2023-03-15 21:26:56:220,0,-54.8632,1.86689,148.013,Q,Q
2023-03-15 21:26:56:230,0,-54.8647,1.86886,148.015,Q,Q
2023-03-15 21:26:56:240,0,-54.8639,1.87093,148.015,Q,Q
2023-03-15 21:26:56:250,0,-54.8656,1.8717,148.014,Q,Q
2023-03-15 21:26:56:260,0,-54.8668,1.87041,148.012,Q,Q
2023-03-15 21:26:56:270,0,-54.8701,1.87083,148.012,Q,Q
2023-03-15 21:26:56:280,0,-54.8702,1.87246,148.015,Q,Q
2023-03-15 21:26:56:290,0,-54.8703,1.8728,148.014,Q,Q
2023-03-15 21:26:56:300,0,-54.87,1.87568,148.013,Q,Q
2023-03-15 21:26:56:310,0,-54.8686,1.87413,148.012,Q,Q
2023-03-15 21:26:56:320,0,-54.8671,1.87303,148.011,Q,Q
2023-03-15 21:26:56:330,0,-54.8662,1.87167,148.009,Q,Q
2023-03-15 21:26:56:340,0,-54.868,1.87163,148.01,Q,Q
2023-03-15 21:26:56:349,0,-54.8658,1.87072,148.009,Q,Q
2023-03-15 21:26:56:360,0,-54.867,1.87034,148.009,Q,Q
2023-03-15 21:26:56:369,0,-54.8684,1.86878,148.01,Q,Q
2023-03-15 21:26:56:379,0,-54.8676,1.86813,148.012,Q,Q
2023-03-15 21:26:56:390,0,-54.8667,1.87053,148.015,Q,Q
2023-03-15 21:26:56:400,0,-54.8666,1.86989,148.018,Q,Q
2023-03-15 21:26:56:410,0,-54.8653,1.86918,148.018,Q,Q
2023-03-15 21:26:56:420,0,-54.8664,1.86979,148.016,Q,Q
2023-03-15 21:26:56:430,0,-54.865,1.86853,148.017,Q,Q
2023-03-15 21:26:56:440,0,-54.8624,1.86969,148.02,Q,Q
2023-03-15 21:26:56:450,0,-54.8614,1.87037,148.018,Q,Q
2023-03-15 21:26:56:460,0,-54.8608,1.86935,148.02,Q,Q
2023-03-15 21:26:56:470,0,-54.8616,1.86621,148.022,Q,Q
2023-03-15 21:26:56:480,0,-54.8612,1.86648,148.024,Q,Q
2023-03-15 21:26:56:490,0,-54.862,1.86583,148.019,Q,Q
2023-03-15 21:26:56:500,0,-54.8606,1.86995,148.021,Q,Q
2023-03-15 21:26:56:510,0,-54.8627,1.87042,148.02,Q,Q
2023-03-15 21:26:56:520,0,-54.8603,1.87297,148.017,Q,Q
2023-03-15 21:26:56:530,0,-54.8624,1.87265,148.013,Q,Q
2023-03-15 21:26:56:540,0,-54.8604,1.87553,148.014,Q,Q
2023-03-15 21:26:56:550,0,-54.8603,1.87714,148.012,Q,Q
2023-03-15 21:26:56:560,0,-54.863,1.87692,148.015,Q,Q
2023-03-15 21:26:56:570,0,-54.8605,1.87346,148.012,Q,Q
2023-03-15 21:26:56:580,0,-54.8617,1.87099,148.014,Q,Q
2023-03-15 21:26:56:590,0,-54.8608,1.87285,148.015,Q,Q
2023-03-15 21:26:56:599,0,-54.862,1.8728,148.02,Q,Q
2023-03-15 21:26:56:610,0,-54.8633,1.87233,148.021,Q,Q
2023-03-15 21:26:56:619,0,-54.8598,1.87259,148.022,Q,Q
2023-03-15 21:26:56:629,0,-54.8613,1.87123,148.022,Q,Q
2023-03-15 21:26:56:640,0,-54.8625,1.87411,148.022,Q,Q
2023-03-15 21:26:56:650,0,-54.8646,1.87351,148.023,Q,Q
2023-03-15 21:26:56:659,0,-54.8661,1.87168,148.021,Q,Q
2023-03-15 21:26:56:670,0,-54.8648,1.87248,148.02,Q,Q
2023-03-15 21:26:56:680,0,-54.8673,1.87123,148.021,Q,Q
2023-03-15 21:26:56:690,0,-54.8639,1.8715,148.02,Q,Q
2023-03-15 21:26:56:700,0,-54.8615,1.87,148.021,Q,Q
2023-03-15 21:26:56:710,0,-54.8631,1.87071,148.023,Q,Q
2023-03-15 21:26:56:720,0,-54.8618,1.87079,148.023,Q,Q
2023-03-15 21:26:56:730,0,-54.863,1.8715,148.023,Q,Q
2023-03-15 21:26:56:740,0,-54.8624,1.87253,148.022,Q,Q
2023-03-15 21:26:56:750,0,-54.8663,1.87234,148.02,Q,Q
2023-03-15 21:26:56:760,0,-54.8673,1.87088,148.02,Q,Q
2023-03-15 21:26:56:770,0,-54.8656,1.87003,148.021,Q,Q
2023-03-15 21:26:56:780,0,-54.8656,1.87072,148.022,Q,Q
2023-03-15 21:26:56:790,0,-54.8636,1.87101,148.023,Q,Q
2023-03-15 21:26:56:800,0,-54.8616,1.87481,148.025,Q,Q
2023-03-15 21:26:56:810,0,-54.8623,1.87765,148.028,Q,Q
2023-03-15 21:26:56:820,0,-54.8636,1.87738,148.028,Q,Q
2023-03-15 21:26:56:830,0,-54.8668,1.87721,148.028,Q,Q
2023-03-15 21:26:56:840,0,-54.8656,1.87866,148.031,Q,Q
2023-03-15 21:26:56:850,0,-54.8649,1.87721,148.032,Q,Q
2023-03-15 21:26:56:860,0,-54.8669,1.87959,148.036,Q,Q
2023-03-15 21:26:56:869,0,-54.8653,1.87703,148.036,Q,Q
2023-03-15 21:26:56:879,0,-54.8653,1.87676,148.036,Q,Q
2023-03-15 21:26:56:889,0,-54.8635,1.87541,148.037,Q,Q
2023-03-15 21:26:56:899,0,-54.8651,1.87341,148.036,Q,Q
2023-03-15 21:26:56:909,0,-54.8659,1.87467,148.039,Q,Q
2023-03-15 21:26:56:920,0,-54.8681,1.87872,148.04,Q,Q
2023-03-15 21:26:56:930,0,-54.8682,1.87735,148.04,Q,Q
2023-03-15 21:26:56:940,0,-54.8686,1.87985,148.04,Q,Q
2023-03-15 21:26:56:950,0,-54.8684,1.88178,148.037,Q,Q
2023-03-15 21:26:56:960,0,-54.8672,1.88283,148.037,Q,Q
2023-03-15 21:26:56:969,0,-54.8695,1.88197,148.038,Q,Q
2023-03-15 21:26:56:979,0,-54.8682,1.88271,148.04,Q,Q
2023-03-15 21:26:56:990,0,-54.8691,1.88111,148.042,Q,Q
2023-03-15 21:26:57:0,0,-54.8702,1.88162,148.041,Q,Q
2023-03-15 21:26:57:10,0,-54.8687,1.88189,148.041,Q,Q
2023-03-15 21:26:57:20,0,-54.8701,1.88053,148.043,Q,Q
2023-03-15 21:26:57:30,0,-54.8695,1.88154,148.045,Q,Q
2023-03-15 21:26:57:40,0,-54.8709,1.8803,148.044,Q,Q
2023-03-15 21:26:57:50,0,-54.8715,1.87941,148.045,Q,Q
2023-03-15 21:26:57:60,0,-54.869,1.87812,148.047,Q,Q
2023-03-15 21:26:57:70,0,-54.8672,1.88052,148.047,Q,Q
2023-03-15 21:26:57:80,0,-54.8671,1.87856,148.047,Q,Q
2023-03-15 21:26:57:90,0,-54.8663,1.88252,148.049,Q,Q
2023-03-15 21:26:57:100,0,-54.8657,1.87972,148.052,Q,Q
2023-03-15 21:26:57:110,0,-54.8681,1.8819,148.053,Q,Q
2023-03-15 21:26:57:120,0,-54.8696,1.88242,148.051,Q,Q
2023-03-15 21:26:57:130,0,-54.8711,1.88165,148.052,Q,Q
2023-03-15 21:26:57:140,0,-54.8708,1.88386,148.052,Q,Q
2023-03-15 21:26:57:150,0,-54.8719,1.87965,148.052,Q,Q
2023-03-15 21:26:57:160,0,-54.8721,1.88415,148.054,Q,Q
2023-03-15 21:26:57:170,0,-54.8694,1.88197,148.053,Q,Q
2023-03-15 21:26:57:180,0,-54.8707,1.88393,148.052,Q,Q
2023-03-15 21:26:57:190,0,-54.8713,1.88276,148.053,Q,Q
2023-03-15 21:26:57:200,0,-54.8726,1.88018,148.057,Q,Q
2023-03-15 21:26:57:210,0,-54.8737,1.88039,148.055,Q,Q
2023-03-15 21:26:57:220,0,-54.8756,1.87757,148.054,Q,Q
2023-03-15 21:26:57:230,0,-54.8756,1.87946,148.053,Q,Q
2023-03-15 21:26:57:240,0,-54.8781,1.87864,148.052,Q,Q
2023-03-15 21:26:57:250,0,-54.8785,1.87638,148.049,Q,Q
2023-03-15 21:26:57:260,0,-54.8805,1.87575,148.049,Q,Q
2023-03-15 21:26:57:270,0,-54.8802,1.87535,148.049,Q,Q
2023-03-15 21:26:57:280,0,-54.8798,1.87505,148.049,Q,Q
2023-03-15 21:26:57:290,0,-54.88,1.87365,148.05,Q,Q
2023-03-15 21:26:57:300,0,-54.8796,1.87418,148.046,Q,Q
2023-03-15 21:26:57:310,0,-54.8812,1.87256,148.045,Q,Q
2023-03-15 21:26:57:320,0,-54.8836,1.86994,148.045,Q,Q
2023-03-15 21:26:57:330,0,-54.8856,1.86844,148.047,Q,Q
2023-03-15 21:26:57:340,0,-54.8878,1.86874,148.046,Q,Q
2023-03-15 21:26:57:350,0,-54.8904,1.86848,148.046,Q,Q
2023-03-15 21:26:57:360,0,-54.8904,1.87126,148.047,Q,Q
2023-03-15 21:26:57:370,0,-54.8917,1.87498,148.047,Q,Q
2023-03-15 21:26:57:380,0,-54.8918,1.8759,148.047,Q,Q
2023-03-15 21:26:57:390,0,-54.8919,1.87429,148.046,Q,Q
2023-03-15 21:26:57:400,0,-54.89,1.87272,148.044,Q,Q
2023-03-15 21:26:57:410,0,-54.8886,1.87044,148.045,Q,Q
2023-03-15 21:26:57:420,0,-54.889,1.87271,148.045,Q,Q
2023-03-15 21:26:57:430,0,-54.8885,1.87325,148.046,Q,Q
2023-03-15 21:26:57:440,0,-54.8908,1.87331,148.045,Q,Q
2023-03-15 21:26:57:450,0,-54.8881,1.87446,148.043,Q,Q
2023-03-15 21:26:57:460,0,-54.8868,1.87565,148.044,Q,Q
2023-03-15 21:26:57:470,0,-54.8842,1.87507,148.046,Q,Q
2023-03-15 21:26:57:480,0,-54.8848,1.87496,148.046,Q,Q
2023-03-15 21:26:57:490,0,-54.8866,1.87337,148.046,Q,Q
2023-03-15 21:26:57:500,0,-54.8853,1.87091,148.047,Q,Q
2023-03-15 21:26:57:510,0,-54.8853,1.87057,148.044,Q,Q
2023-03-15 21:26:57:520,0,-54.8841,1.87239,148.046,Q,Q
2023-03-15 21:26:57:530,0,-54.8831,1.87089,148.045,Q,Q
2023-03-15 21:26:57:540,0,-54.8837,1.8714,148.047,Q,Q
2023-03-15 21:26:57:550,0,-54.8852,1.87475,148.047,Q,Q
2023-03-15 21:26:57:560,0,-54.8825,1.87124,148.044,Q,Q
2023-03-15 21:26:57:570,0,-54.8818,1.87378,148.045,Q,Q
2023-03-15 21:26:57:580,0,-54.8814,1.87436,148.043,Q,Q
2023-03-15 21:26:57:590,0,-54.8828,1.87561,148.043,Q,Q
2023-03-15 21:26:57:600,0,-54.8804,1.87694,148.042,Q,Q
2023-03-15 21:26:57:610,0,-54.878,1.87706,148.042,Q,Q
2023-03-15 21:26:57:620,0,-54.8786,1.87557,148.044,Q,Q
2023-03-15 21:26:57:630,0,-54.8788,1.87683,148.041,Q,Q
2023-03-15 21:26:57:640,0,-54.8755,1.8742,148.045,Q,Q
2023-03-15 21:26:57:650,0,-54.8755,1.87298,148.046,Q,Q
2023-03-15 21:26:57:660,0,-54.8713,1.87351,148.051,Q,Q
2023-03-15 21:26:57:670,0,-54.8746,1.87566,148.052,Q,Q
2023-03-15 21:26:57:680,0,-54.8736,1.87462,148.053,Q,Q
2023-03-15 21:26:57:690,0,-54.8701,1.87367,148.053,Q,Q
2023-03-15 21:26:57:700,0,-54.8711,1.87422,148.051,Q,Q
2023-03-15 21:26:57:710,0,-54.8699,1.8753,148.052,Q,Q
2023-03-15 21:26:57:720,0,-54.8707,1.87428,148.05,Q,Q
2023-03-15 21:26:57:730,0,-54.8684,1.87443,148.051,Q,Q
2023-03-15 21:26:57:740,0,-54.8693,1.87148,148.049,Q,Q
2023-03-15 21:26:57:750,0,-54.8707,1.87154,148.046,Q,Q
2023-03-15 21:26:57:760,0,-54.8699,1.87071,148.047,Q,Q
2023-03-15 21:26:57:770,0,-54.8688,1.87282,148.047,Q,Q
2023-03-15 21:26:57:780,0,-54.8712,1.87148,148.042,Q,Q
2023-03-15 21:26:57:790,0,-54.8711,1.86978,148.039,Q,Q
2023-03-15 21:26:57:800,0,-54.8701,1.8721,148.038,Q,Q
2023-03-15 21:26:57:810,0,-54.8707,1.87256,148.038,Q,Q
2023-03-15 21:26:57:820,0,-54.868,1.87297,148.04,Q,Q
2023-03-15 21:26:57:830,0,-54.8706,1.87268,148.041,Q,Q
2023-03-15 21:26:57:840,0,-54.8698,1.87217,148.043,Q,Q
2023-03-15 21:26:57:850,0,-54.8721,1.87085,148.043,Q,Q
2023-03-15 21:26:57:860,0,-54.8718,1.87183,148.046,Q,Q
2023-03-15 21:26:57:870,0,-54.8699,1.87311,148.048,Q,Q
2023-03-15 21:26:57:880,0,-54.8714,1.87252,148.043,Q,Q
2023-03-15 21:26:57:890,0,-54.8718,1.86988,148.043,Q,Q
2023-03-15 21:26:57:900,0,-54.8684,1.87086,148.047,Q,Q
2023-03-15 21:26:57:910,0,-54.8686,1.87108,148.044,Q,Q
2023-03-15 21:26:57:920,0,-54.8684,1.87376,148.043,Q,Q
2023-03-15 21:26:57:930,0,-54.866,1.87206,148.047,Q,Q
2023-03-15 21:26:57:940,0,-54.8646,1.87044,148.044,Q,Q
2023-03-15 21:26:57:950,0,-54.8657,1.872,148.044,Q,Q
2023-03-15 21:26:57:960,0,-54.8651,1.87474,148.045,Q,Q
2023-03-15 21:26:57:970,0,-54.8654,1.87817,148.046,Q,Q
2023-03-15 21:26:57:980,0,-54.8648,1.87602,148.047,Q,Q
2023-03-15 21:26:57:990,0,-54.8607,1.87527,148.047,Q,Q
2023-03-15 21:26:58:0,0,-54.8637,1.87287,148.048,Q,Q
2023-03-15 21:26:58:10,0,-54.8622,1.87313,148.046,Q,Q
2023-03-15 21:26:58:20,0,-54.8649,1.87204,148.047,Q,Q
2023-03-15 21:26:58:30,0,-54.8643,1.87449,148.049,Q,Q
2023-03-15 21:26:58:40,0,-54.8617,1.87367,148.048,Q,Q
2023-03-15 21:26:58:50,0,-54.8623,1.86947,148.05,Q,Q
2023-03-15 21:26:58:60,0,-54.8631,1.86723,148.053,Q,Q
2023-03-15 21:26:58:70,0,-54.8609,1.86676,148.057,Q,Q
2023-03-15 21:26:58:80,0,-54.8639,1.86744,148.058,Q,Q
2023-03-15 21:26:58:90,0,-54.862,1.86392,148.056,Q,Q
2023-03-15 21:26:58:100,0,-54.8647,1.8668,148.057,Q,Q
2023-03-15 21:26:58:110,0,-54.8654,1.86589,148.056,Q,Q
