Timestamp_cmd,imu_cmd,roll_delta,pitch_delta,yaw_delta,voice_type,voice_length
2023-03-14 18:25:26:455,0,-15.2049,-2.96602,60.1223,Q,Q
2023-03-14 18:25:26:463,0,-15.2277,-2.97337,60.125,Q,Q
2023-03-14 18:25:26:473,0,-15.2517,-2.97892,60.1296,Q,Q
2023-03-14 18:25:26:483,0,-15.2715,-2.98196,60.1328,Q,Q
2023-03-14 18:25:26:493,0,-15.2813,-2.98194,60.1366,Q,Q
2023-03-14 18:25:26:503,0,-15.2795,-2.98651,60.1394,Q,Q
2023-03-14 18:25:26:513,0,-15.2757,-2.99169,60.1367,Q,Q
2023-03-14 18:25:26:523,0,-15.2711,-2.99894,60.1394,Q,Q
2023-03-14 18:25:26:533,0,-15.2685,-3.00742,60.1413,Q,Q
2023-03-14 18:25:26:543,0,-15.2688,-3.01417,60.143,Q,Q
2023-03-14 18:25:26:553,0,-15.2671,-3.01727,60.1475,Q,Q
2023-03-14 18:25:26:563,0,-15.2662,-3.01999,60.1502,Q,Q
2023-03-14 18:25:26:573,0,-15.2629,-3.02304,60.1525,Q,Q
2023-03-14 18:25:26:583,0,-15.2632,-3.02799,60.157,Q,Q
2023-03-14 18:25:26:593,0,-15.2645,-3.03421,60.1629,Q,Q
2023-03-14 18:25:26:603,0,-15.2666,-3.04541,60.1718,Q,Q
2023-03-14 18:25:26:613,0,-15.2705,-3.0568,60.181,Q,Q
2023-03-14 18:25:26:623,0,-15.2768,-3.06988,60.1882,Q,Q
2023-03-14 18:25:26:633,0,-15.281,-3.0869,60.1956,Q,Q
2023-03-14 18:25:26:643,0,-15.2835,-3.10102,60.2017,Q,Q
2023-03-14 18:25:26:653,0,-15.2849,-3.11574,60.2046,Q,Q
2023-03-14 18:25:26:663,0,-15.2853,-3.12907,60.2058,Q,Q
2023-03-14 18:25:26:673,0,-15.2838,-3.13987,60.2068,Q,Q
2023-03-14 18:25:26:683,0,-15.28,-3.1479,60.2074,Q,Q
2023-03-14 18:25:26:693,0,-15.2724,-3.15628,60.2059,Q,Q
2023-03-14 18:25:26:703,0,-15.2621,-3.16601,60.2061,Q,Q
2023-03-14 18:25:26:713,0,-15.2518,-3.17376,60.2069,Q,Q
2023-03-14 18:25:26:723,0,-15.2494,-3.18149,60.2071,Q,Q
2023-03-14 18:25:26:733,0,-15.25,-3.18423,60.2046,Q,Q
2023-03-14 18:25:26:743,0,-15.2534,-3.18628,60.2016,Q,Q
2023-03-14 18:25:26:753,0,-15.2555,-3.18793,60.194,Q,Q
2023-03-14 18:25:26:763,0,-15.2604,-3.19285,60.1851,Q,Q
2023-03-14 18:25:26:773,0,-15.264,-3.19703,60.1763,Q,Q
2023-03-14 18:25:26:783,0,-15.2695,-3.20136,60.1661,Q,Q
2023-03-14 18:25:26:793,0,-15.2721,-3.20377,60.1581,Q,Q
2023-03-14 18:25:26:803,0,-15.2701,-3.21713,60.1494,Q,Q
2023-03-14 18:25:26:813,0,-15.2675,-3.22462,60.1455,Q,Q
2023-03-14 18:25:26:823,0,-15.2665,-3.23255,60.1391,Q,Q
2023-03-14 18:25:26:833,0,-15.2604,-3.23475,60.1339,Q,Q
2023-03-14 18:25:26:843,0,-15.2549,-3.23283,60.1216,Q,Q
2023-03-14 18:25:26:853,0,-15.2472,-3.22729,60.1103,Q,Q
2023-03-14 18:25:26:863,0,-15.2425,-3.2285,60.1022,Q,Q
2023-03-14 18:25:26:873,0,-15.2327,-3.23349,60.0994,Q,Q
2023-03-14 18:25:26:883,0,-15.2263,-3.2353,60.0994,Q,Q
2023-03-14 18:25:26:893,0,-15.221,-3.23599,60.0959,Q,Q
2023-03-14 18:25:26:903,0,-15.2174,-3.23773,60.0957,Q,Q
2023-03-14 18:25:26:913,0,-15.22,-3.23562,60.1009,Q,Q
2023-03-14 18:25:26:923,0,-15.221,-3.23729,60.106,Q,Q
2023-03-14 18:25:26:933,0,-15.2203,-3.2443,60.111,Q,Q
2023-03-14 18:25:26:943,0,-15.2177,-3.25292,60.1169,Q,Q
2023-03-14 18:25:26:953,0,-15.214,-3.256,60.1179,Q,Q
2023-03-14 18:25:26:963,0,-15.2042,-3.25996,60.1196,Q,Q
2023-03-14 18:25:26:973,0,-15.1906,-3.26505,60.1195,Q,Q
2023-03-14 18:25:26:983,0,-15.1771,-3.27089,60.1145,Q,Q
2023-03-14 18:25:26:993,0,-15.1586,-3.27177,60.1107,Q,Q
2023-03-14 18:25:27:3,0,-15.1427,-3.27591,60.1066,Q,Q
2023-03-14 18:25:27:13,0,-15.1312,-3.28148,60.1028,Q,Q
2023-03-14 18:25:27:23,0,-15.1248,-3.28705,60.1005,Q,Q
2023-03-14 18:25:27:33,0,-15.1222,-3.2891,60.1037,Q,Q
2023-03-14 18:25:27:43,0,-15.1251,-3.29467,60.1147,Q,Q
2023-03-14 18:25:27:53,0,-15.1383,-3.29995,60.1344,Q,Q
2023-03-14 18:25:27:63,0,-15.1623,-3.30676,60.1658,Q,Q
2023-03-14 18:25:27:73,0,-15.1912,-3.31232,60.2002,Q,Q
2023-03-14 18:25:27:83,0,-15.2263,-3.31499,60.2411,Q,Q
2023-03-14 18:25:27:93,0,-15.2597,-3.31581,60.2823,Q,Q
2023-03-14 18:25:27:103,0,-15.2967,-3.31688,60.3274,Q,Q
2023-03-14 18:25:27:113,0,-15.3324,-3.31856,60.3761,Q,Q
2023-03-14 18:25:27:123,0,-15.3733,-3.31575,60.4261,Q,Q
2023-03-14 18:25:27:133,0,-15.4163,-3.31403,60.4781,Q,Q
2023-03-14 18:25:27:143,0,-15.4642,-3.31383,60.5297,Q,Q
2023-03-14 18:25:27:153,0,-15.5203,-3.3169,60.5875,Q,Q
2023-03-14 18:25:27:163,0,-15.5904,-3.32907,60.6513,Q,Q
2023-03-14 18:25:27:173,0,-15.6703,-3.34819,60.7152,Q,Q
2023-03-14 18:25:27:183,0,-15.7499,-3.36956,60.7786,Q,Q
2023-03-14 18:25:27:193,0,-15.8185,-3.3857,60.8378,Q,Q
2023-03-14 18:25:27:203,0,-15.867,-3.38567,60.8879,Q,Q
2023-03-14 18:25:27:213,0,-15.8919,-3.36688,60.9215,Q,Q
2023-03-14 18:25:27:223,0,-15.891,-3.33411,60.931,Q,Q
2023-03-14 18:25:27:233,0,-15.8829,-3.29461,60.9235,Q,Q
2023-03-14 18:25:27:243,0,-15.8849,-3.24669,60.908,Q,Q
2023-03-14 18:25:27:253,0,-15.906,-3.20112,60.8868,Q,Q
2023-03-14 18:25:27:263,0,-15.9499,-3.16268,60.8649,Q,Q
2023-03-14 18:25:27:273,0,-16.001,-3.1325,60.8466,Q,Q
2023-03-14 18:25:27:283,0,-16.0408,-3.10864,60.8266,Q,Q
2023-03-14 18:25:27:293,0,-16.0584,-3.08976,60.8013,Q,Q
2023-03-14 18:25:27:303,0,-16.0552,-3.07192,60.7667,Q,Q
2023-03-14 18:25:27:313,0,-16.0328,-3.05177,60.7305,Q,Q
2023-03-14 18:25:27:323,0,-16.002,-3.03266,60.6894,Q,Q
2023-03-14 18:25:27:333,0,-15.9746,-3.02099,60.6452,Q,Q
2023-03-14 18:25:27:343,0,-15.9589,-3.01411,60.6009,Q,Q
2023-03-14 18:25:27:353,0,-15.9607,-3.01478,60.5541,Q,Q
2023-03-14 18:25:27:363,0,-15.9738,-3.0223,60.5125,Q,Q
2023-03-14 18:25:27:373,0,-15.993,-3.03361,60.4742,Q,Q
2023-03-14 18:25:27:383,0,-16.0162,-3.04611,60.4408,Q,Q
2023-03-14 18:25:27:393,0,-16.0379,-3.06761,60.4156,Q,Q
2023-03-14 18:25:27:403,0,-16.0587,-3.09442,60.3973,Q,Q
2023-03-14 18:25:27:413,0,-16.0818,-3.12416,60.3944,Q,Q
2023-03-14 18:25:27:423,0,-16.1088,-3.14838,60.4043,Q,Q
2023-03-14 18:25:27:433,0,-16.1475,-3.16895,60.4229,Q,Q
2023-03-14 18:25:27:443,0,-16.1969,-3.18461,60.4467,Q,Q
2023-03-14 18:25:27:453,0,-16.2606,-3.19712,60.4801,Q,Q
2023-03-14 18:25:27:463,0,-16.3457,-3.20635,60.5189,Q,Q
2023-03-14 18:25:27:473,0,-16.4588,-3.21637,60.5739,Q,Q
2023-03-14 18:25:27:483,0,-16.6053,-3.22015,60.6405,Q,Q
2023-03-14 18:25:27:493,0,-16.7823,-3.21618,60.7185,Q,Q
2023-03-14 18:25:27:503,0,-16.9938,-3.20575,60.8109,Q,Q
2023-03-14 18:25:27:513,0,-17.2318,-3.19102,60.9153,Q,Q
2023-03-14 18:25:27:523,0,-17.5086,-3.17541,61.0284,Q,Q
2023-03-14 18:25:27:533,0,-17.8162,-3.15717,61.1541,Q,Q
2023-03-14 18:25:27:543,0,-18.1421,-3.14262,61.2881,Q,Q
2023-03-14 18:25:27:553,0,-18.4693,-3.12294,61.4242,Q,Q
2023-03-14 18:25:27:563,0,-18.7957,-3.09603,61.5562,Q,Q
2023-03-14 18:25:27:573,0,-19.1223,-3.06044,61.6786,Q,Q
2023-03-14 18:25:27:583,0,-19.45,-3.02141,61.7939,Q,Q
2023-03-14 18:25:27:593,0,-19.7734,-2.98047,61.9001,Q,Q
2023-03-14 18:25:27:603,0,-20.0908,-2.94248,61.9958,Q,Q
2023-03-14 18:25:27:613,0,-20.3969,-2.914,62.0859,Q,Q
2023-03-14 18:25:27:623,0,-20.6983,-2.89177,62.1635,Q,Q
2023-03-14 18:25:27:633,0,-20.9848,-2.87833,62.2409,Q,Q
2023-03-14 18:25:27:643,0,-21.2706,-2.87508,62.319,Q,Q
2023-03-14 18:25:27:653,0,-21.5549,-2.87934,62.39,Q,Q
2023-03-14 18:25:27:663,0,-21.8323,-2.89583,62.4596,Q,Q
2023-03-14 18:25:27:673,0,-22.0949,-2.91933,62.5221,Q,Q
2023-03-14 18:25:27:683,0,-22.3361,-2.94765,62.5708,Q,Q
2023-03-14 18:25:27:693,0,-22.5537,-2.97453,62.606,Q,Q
2023-03-14 18:25:27:703,0,-22.7491,-3.0102,62.6312,Q,Q
2023-03-14 18:25:27:713,0,-22.9231,-3.04925,62.649,Q,Q
2023-03-14 18:25:27:723,0,-23.095,-3.0886,62.6616,Q,Q
2023-03-14 18:25:27:733,0,-23.2622,-3.13486,62.6767,Q,Q
2023-03-14 18:25:27:743,0,-23.4384,-3.18656,62.696,Q,Q
2023-03-14 18:25:27:753,0,-23.6211,-3.23691,62.7169,Q,Q
2023-03-14 18:25:27:763,0,-23.7876,-3.28999,62.7413,Q,Q
2023-03-14 18:25:27:773,0,-23.9289,-3.33484,62.7513,Q,Q
2023-03-14 18:25:27:783,0,-24.0416,-3.36704,62.7455,Q,Q
2023-03-14 18:25:27:793,0,-24.1271,-3.39024,62.7248,Q,Q
2023-03-14 18:25:27:803,0,-24.1924,-3.4032,62.6963,Q,Q
2023-03-14 18:25:27:813,0,-24.2504,-3.41157,62.6565,Q,Q
2023-03-14 18:25:27:823,0,-24.309,-3.41462,62.6133,Q,Q
2023-03-14 18:25:27:833,0,-24.3736,-3.42804,62.573,Q,Q
2023-03-14 18:25:27:843,0,-24.4457,-3.44513,62.5328,Q,Q
2023-03-14 18:25:27:853,0,-24.5112,-3.46823,62.5002,Q,Q
2023-03-14 18:25:27:863,0,-24.563,-3.48465,62.4706,Q,Q
2023-03-14 18:25:27:873,0,-24.5919,-3.49709,62.4335,Q,Q
2023-03-14 18:25:27:883,0,-24.6037,-3.50805,62.4006,Q,Q
2023-03-14 18:25:27:893,0,-24.6094,-3.51304,62.3644,Q,Q
2023-03-14 18:25:27:903,0,-24.6153,-3.52236,62.3395,Q,Q
2023-03-14 18:25:27:913,0,-24.6126,-3.53471,62.3209,Q,Q
2023-03-14 18:25:27:923,0,-24.6031,-3.54771,62.3051,Q,Q
2023-03-14 18:25:27:933,0,-24.5779,-3.55974,62.2915,Q,Q
2023-03-14 18:25:27:943,0,-24.5412,-3.57135,62.2777,Q,Q
2023-03-14 18:25:27:953,0,-24.4912,-3.58304,62.2651,Q,Q
2023-03-14 18:25:27:963,0,-24.439,-3.58992,62.2553,Q,Q
2023-03-14 18:25:27:973,0,-24.3803,-3.59382,62.2424,Q,Q
2023-03-14 18:25:27:983,0,-24.309,-3.60077,62.226,Q,Q
2023-03-14 18:25:27:993,0,-24.2203,-3.60509,62.2018,Q,Q
2023-03-14 18:25:28:3,0,-24.1098,-3.61209,62.1627,Q,Q
2023-03-14 18:25:28:13,0,-23.9798,-3.61868,62.1141,Q,Q
2023-03-14 18:25:28:23,0,-23.8405,-3.62146,62.0607,Q,Q
2023-03-14 18:25:28:33,0,-23.7028,-3.62421,61.9976,Q,Q
2023-03-14 18:25:28:43,0,-23.5648,-3.62925,61.9296,Q,Q
2023-03-14 18:25:28:53,0,-23.4249,-3.63672,61.8541,Q,Q
2023-03-14 18:25:28:63,0,-23.2813,-3.64483,61.7761,Q,Q
2023-03-14 18:25:28:73,0,-23.1276,-3.64855,61.6943,Q,Q
2023-03-14 18:25:28:83,0,-22.958,-3.65008,61.6138,Q,Q
2023-03-14 18:25:28:93,0,-22.7631,-3.64286,61.5261,Q,Q
2023-03-14 18:25:28:103,0,-22.5465,-3.63315,61.4375,Q,Q
2023-03-14 18:25:28:113,0,-22.3219,-3.62006,61.3476,Q,Q
2023-03-14 18:25:28:123,0,-22.1008,-3.60297,61.2586,Q,Q
2023-03-14 18:25:28:133,0,-21.8881,-3.58648,61.1729,Q,Q
2023-03-14 18:25:28:143,0,-21.6951,-3.57397,61.0952,Q,Q
2023-03-14 18:25:28:153,0,-21.5162,-3.56821,61.0239,Q,Q
2023-03-14 18:25:28:163,0,-21.3369,-3.57037,60.953,Q,Q
2023-03-14 18:25:28:173,0,-21.1476,-3.5689,60.878,Q,Q
2023-03-14 18:25:28:183,0,-20.9473,-3.56135,60.799,Q,Q
2023-03-14 18:25:28:193,0,-20.743,-3.54394,60.7186,Q,Q
2023-03-14 18:25:28:203,0,-20.5409,-3.5267,60.6408,Q,Q
2023-03-14 18:25:28:213,0,-20.3625,-3.51027,60.5692,Q,Q
2023-03-14 18:25:28:223,0,-20.2068,-3.49628,60.5097,Q,Q
2023-03-14 18:25:28:233,0,-20.0701,-3.48503,60.4558,Q,Q
2023-03-14 18:25:28:243,0,-19.9444,-3.47458,60.4074,Q,Q
2023-03-14 18:25:28:253,0,-19.8302,-3.46684,60.3614,Q,Q
2023-03-14 18:25:28:263,0,-19.7176,-3.45827,60.3185,Q,Q
2023-03-14 18:25:28:273,0,-19.6117,-3.44823,60.2763,Q,Q
2023-03-14 18:25:28:283,0,-19.5156,-3.43297,60.2448,Q,Q
2023-03-14 18:25:28:293,0,-19.433,-3.41743,60.2197,Q,Q
2023-03-14 18:25:28:303,0,-19.3672,-3.40825,60.2015,Q,Q
2023-03-14 18:25:28:313,0,-19.3102,-3.40333,60.1922,Q,Q
2023-03-14 18:25:28:323,0,-19.2611,-3.40014,60.1891,Q,Q
2023-03-14 18:25:28:333,0,-19.2132,-3.39552,60.1872,Q,Q
2023-03-14 18:25:28:343,0,-19.1664,-3.39563,60.1863,Q,Q
2023-03-14 18:25:28:353,0,-19.1219,-3.39801,60.1851,Q,Q
2023-03-14 18:25:28:363,0,-19.0757,-3.40044,60.1851,Q,Q
2023-03-14 18:25:28:373,0,-19.0315,-3.40552,60.1767,Q,Q
2023-03-14 18:25:28:383,0,-18.9864,-3.41175,60.1596,Q,Q
2023-03-14 18:25:28:393,0,-18.9317,-3.42094,60.1204,Q,Q
2023-03-14 18:25:28:403,0,-18.8784,-3.42954,60.0624,Q,Q
2023-03-14 18:25:28:413,0,-18.8301,-3.4375,59.9829,Q,Q
2023-03-14 18:25:28:423,0,-18.7902,-3.44966,59.8929,Q,Q
2023-03-14 18:25:28:433,0,-18.7636,-3.46859,59.7927,Q,Q
2023-03-14 18:25:28:443,0,-18.7467,-3.49021,59.6881,Q,Q
2023-03-14 18:25:28:453,0,-18.7386,-3.51752,59.5722,Q,Q
2023-03-14 18:25:28:463,0,-18.7234,-3.54922,59.4195,Q,Q
2023-03-14 18:25:28:473,0,-18.6964,-3.59144,59.2063,Q,Q
2023-03-14 18:25:28:483,0,-18.6467,-3.63953,58.8999,Q,Q
2023-03-14 18:25:28:493,0,-18.5714,-3.69835,58.503,Q,Q
2023-03-14 18:25:28:503,0,-18.479,-3.77239,58.028,Q,Q
2023-03-14 18:25:28:513,0,-18.3893,-3.86066,57.4938,Q,Q
2023-03-14 18:25:28:523,0,-18.3084,-3.97397,56.8995,Q,Q
2023-03-14 18:25:28:533,0,-18.2278,-4.10648,56.2131,Q,Q
2023-03-14 18:25:28:543,0,-18.1319,-4.25604,55.3921,Q,Q
2023-03-14 18:25:28:553,0,-18.0013,-4.41554,54.4268,Q,Q
2023-03-14 18:25:28:563,0,-17.8403,-4.58406,53.3496,Q,Q
2023-03-14 18:25:28:573,0,-17.662,-4.75878,52.2159,Q,Q
2023-03-14 18:25:28:583,0,-17.4912,-4.94063,51.0616,Q,Q
2023-03-14 18:25:28:593,0,-17.3457,-5.12567,49.8975,Q,Q
2023-03-14 18:25:28:603,0,-17.216,-5.30676,48.7015,Q,Q
2023-03-14 18:25:28:613,0,-17.1042,-5.47417,47.4696,Q,Q
2023-03-14 18:25:28:623,0,-16.9869,-5.62045,46.224,Q,Q
2023-03-14 18:25:28:633,0,-16.8702,-5.7563,44.9932,Q,Q
2023-03-14 18:25:28:643,0,-16.7671,-5.89045,43.8188,Q,Q
2023-03-14 18:25:28:653,0,-16.6965,-6.03608,42.7205,Q,Q
2023-03-14 18:25:28:663,0,-16.6568,-6.20038,41.6896,Q,Q
2023-03-14 18:25:28:673,0,-16.6392,-6.37915,40.715,Q,Q
2023-03-14 18:25:28:683,0,-16.6347,-6.56421,39.8063,Q,Q
2023-03-14 18:25:28:693,0,-16.6362,-6.74358,38.9775,Q,Q
2023-03-14 18:25:28:703,0,-16.6377,-6.91805,38.2435,Q,Q
2023-03-14 18:25:28:713,0,-16.6331,-7.07614,37.5957,Q,Q
2023-03-14 18:25:28:723,0,-16.6115,-7.21704,37.0369,Q,Q
2023-03-14 18:25:28:733,0,-16.5802,-7.33522,36.5656,Q,Q
2023-03-14 18:25:28:743,0,-16.5413,-7.43479,36.1752,Q,Q
2023-03-14 18:25:28:753,0,-16.5003,-7.50436,35.8617,Q,Q
2023-03-14 18:25:28:763,0,-16.4582,-7.55139,35.6146,Q,Q
2023-03-14 18:25:28:773,0,-16.4185,-7.57602,35.4303,Q,Q
2023-03-14 18:25:28:783,0,-16.3843,-7.58382,35.3018,Q,Q
2023-03-14 18:25:28:793,0,-16.3583,-7.58301,35.2217,Q,Q
2023-03-14 18:25:28:803,0,-16.3464,-7.5699,35.185,Q,Q
2023-03-14 18:25:28:813,0,-16.3367,-7.54499,35.1794,Q,Q
2023-03-14 18:25:28:823,0,-16.3324,-7.51202,35.2024,Q,Q
2023-03-14 18:25:28:833,0,-16.334,-7.47617,35.2531,Q,Q
2023-03-14 18:25:28:843,0,-16.3357,-7.43219,35.3148,Q,Q
2023-03-14 18:25:28:853,0,-16.333,-7.38085,35.3759,Q,Q
2023-03-14 18:25:28:863,0,-16.3279,-7.31841,35.4355,Q,Q
2023-03-14 18:25:28:873,0,-16.3256,-7.253,35.5086,Q,Q
2023-03-14 18:25:28:883,0,-16.3348,-7.18771,35.5956,Q,Q
2023-03-14 18:25:28:893,0,-16.3526,-7.12407,35.6859,Q,Q
2023-03-14 18:25:28:903,0,-16.3708,-7.06528,35.7739,Q,Q
2023-03-14 18:25:28:913,0,-16.3999,-7.01027,35.8597,Q,Q
2023-03-14 18:25:28:923,0,-16.4306,-6.95838,35.9464,Q,Q
2023-03-14 18:25:28:933,0,-16.4631,-6.91061,36.0387,Q,Q
2023-03-14 18:25:28:943,0,-16.4886,-6.86191,36.1381,Q,Q
2023-03-14 18:25:28:953,0,-16.5153,-6.81405,36.2536,Q,Q
2023-03-14 18:25:28:963,0,-16.5472,-6.7626,36.3814,Q,Q
2023-03-14 18:25:28:973,0,-16.5775,-6.70412,36.5099,Q,Q
2023-03-14 18:25:28:983,0,-16.6163,-6.64468,36.6517,Q,Q
2023-03-14 18:25:28:993,0,-16.6684,-6.58537,36.8112,Q,Q
2023-03-14 18:25:29:3,0,-16.7328,-6.52897,36.9799,Q,Q
2023-03-14 18:25:29:13,0,-16.8045,-6.47822,37.1572,Q,Q
2023-03-14 18:25:29:23,0,-16.8803,-6.42103,37.3397,Q,Q
2023-03-14 18:25:29:33,0,-16.9515,-6.3661,37.5197,Q,Q
2023-03-14 18:25:29:43,0,-17.0208,-6.3108,37.6966,Q,Q
2023-03-14 18:25:29:53,0,-17.0881,-6.2612,37.8711,Q,Q
2023-03-14 18:25:29:63,0,-17.155,-6.21682,38.0357,Q,Q
2023-03-14 18:25:29:73,0,-17.2224,-6.18005,38.1968,Q,Q
2023-03-14 18:25:29:83,0,-17.2914,-6.14359,38.3508,Q,Q
2023-03-14 18:25:29:93,0,-17.3611,-6.11045,38.4949,Q,Q
2023-03-14 18:25:29:103,0,-17.4277,-6.0761,38.6227,Q,Q
2023-03-14 18:25:29:113,0,-17.4863,-6.04465,38.732,Q,Q
2023-03-14 18:25:29:123,0,-17.5431,-6.01931,38.8287,Q,Q
2023-03-14 18:25:29:133,0,-17.5956,-6.00305,38.9096,Q,Q
2023-03-14 18:25:29:143,0,-17.6491,-5.99301,38.9754,Q,Q
2023-03-14 18:25:29:153,0,-17.7084,-5.99895,39.0197,Q,Q
2023-03-14 18:25:29:163,0,-17.77,-6.01597,39.0392,Q,Q
2023-03-14 18:25:29:173,0,-17.8192,-6.04058,39.0214,Q,Q
2023-03-14 18:25:29:183,0,-17.8518,-6.07331,38.9521,Q,Q
2023-03-14 18:25:29:193,0,-17.865,-6.10728,38.8179,Q,Q
2023-03-14 18:25:29:203,0,-17.8623,-6.14386,38.6336,Q,Q
2023-03-14 18:25:29:213,0,-17.8452,-6.18051,38.4122,Q,Q
2023-03-14 18:25:29:223,0,-17.823,-6.22008,38.1636,Q,Q
2023-03-14 18:25:29:233,0,-17.8039,-6.26403,37.8994,Q,Q
2023-03-14 18:25:29:243,0,-17.791,-6.31038,37.6265,Q,Q
2023-03-14 18:25:29:253,0,-17.7855,-6.35875,37.3544,Q,Q
2023-03-14 18:25:29:263,0,-17.7931,-6.401,37.0883,Q,Q
2023-03-14 18:25:29:273,0,-17.7944,-6.43233,36.8169,Q,Q
2023-03-14 18:25:29:283,0,-17.7877,-6.45801,36.5475,Q,Q
2023-03-14 18:25:29:293,0,-17.7711,-6.46712,36.2841,Q,Q
2023-03-14 18:25:29:303,0,-17.7556,-6.46519,36.044,Q,Q
2023-03-14 18:25:29:313,0,-17.7495,-6.46419,35.8262,Q,Q
2023-03-14 18:25:29:323,0,-17.745,-6.4614,35.6298,Q,Q
2023-03-14 18:25:29:333,0,-17.7485,-6.45785,35.467,Q,Q
2023-03-14 18:25:29:343,0,-17.7542,-6.44507,35.342,Q,Q
2023-03-14 18:25:29:353,0,-17.7498,-6.4289,35.2446,Q,Q
2023-03-14 18:25:29:363,0,-17.7327,-6.40226,35.1773,Q,Q
2023-03-14 18:25:29:373,0,-17.7058,-6.36458,35.1328,Q,Q
2023-03-14 18:25:29:383,0,-17.6854,-6.31727,35.1184,Q,Q
2023-03-14 18:25:29:393,0,-17.6766,-6.2688,35.1313,Q,Q
2023-03-14 18:25:29:403,0,-17.6714,-6.21926,35.1734,Q,Q
2023-03-14 18:25:29:413,0,-17.6648,-6.17246,35.2413,Q,Q
2023-03-14 18:25:29:423,0,-17.6454,-6.12354,35.3396,Q,Q
2023-03-14 18:25:29:433,0,-17.6178,-6.0686,35.4576,Q,Q
2023-03-14 18:25:29:443,0,-17.5855,-6.01219,35.5995,Q,Q
2023-03-14 18:25:29:453,0,-17.5556,-5.94881,35.7673,Q,Q
2023-03-14 18:25:29:463,0,-17.525,-5.87703,35.9657,Q,Q
2023-03-14 18:25:29:473,0,-17.4928,-5.79762,36.1987,Q,Q
2023-03-14 18:25:29:483,0,-17.4641,-5.70667,36.478,Q,Q
2023-03-14 18:25:29:493,0,-17.4418,-5.60676,36.8175,Q,Q
2023-03-14 18:25:29:503,0,-17.4195,-5.48621,37.2245,Q,Q
2023-03-14 18:25:29:513,0,-17.3921,-5.35079,37.6895,Q,Q
2023-03-14 18:25:29:523,0,-17.3491,-5.19396,38.1987,Q,Q
2023-03-14 18:25:29:533,0,-17.2967,-5.0142,38.7555,Q,Q
2023-03-14 18:25:29:543,0,-17.2409,-4.81905,39.3566,Q,Q
2023-03-14 18:25:29:553,0,-17.1932,-4.62225,40.0029,Q,Q
2023-03-14 18:25:29:563,0,-17.157,-4.42445,40.7009,Q,Q
2023-03-14 18:25:29:573,0,-17.1305,-4.23138,41.4554,Q,Q
2023-03-14 18:25:29:583,0,-17.1069,-4.04015,42.2542,Q,Q
2023-03-14 18:25:29:593,0,-17.0733,-3.84679,43.0865,Q,Q
2023-03-14 18:25:29:603,0,-17.0253,-3.64747,43.9413,Q,Q
2023-03-14 18:25:29:613,0,-16.9591,-3.44781,44.8129,Q,Q
2023-03-14 18:25:29:623,0,-16.8806,-3.24639,45.6922,Q,Q
2023-03-14 18:25:29:633,0,-16.801,-3.05415,46.5891,Q,Q
2023-03-14 18:25:29:643,0,-16.7255,-2.87978,47.5051,Q,Q
2023-03-14 18:25:29:653,0,-16.6557,-2.72022,48.4311,Q,Q
2023-03-14 18:25:29:663,0,-16.5868,-2.5772,49.3546,Q,Q
2023-03-14 18:25:29:673,0,-16.5069,-2.44085,50.2591,Q,Q
2023-03-14 18:25:29:683,0,-16.4131,-2.31524,51.1268,Q,Q
2023-03-14 18:25:29:693,0,-16.3096,-2.19321,51.9512,Q,Q
2023-03-14 18:25:29:703,0,-16.2028,-2.07876,52.7387,Q,Q
2023-03-14 18:25:29:713,0,-16.0928,-1.98414,53.4882,Q,Q
2023-03-14 18:25:29:723,0,-15.9937,-1.90757,54.2075,Q,Q
2023-03-14 18:25:29:733,0,-15.9043,-1.85551,54.8947,Q,Q
2023-03-14 18:25:29:743,0,-15.8179,-1.81354,55.5498,Q,Q
2023-03-14 18:25:29:753,0,-15.7274,-1.78712,56.1678,Q,Q
2023-03-14 18:25:29:763,0,-15.6329,-1.76836,56.7493,Q,Q
2023-03-14 18:25:29:773,0,-15.5346,-1.75583,57.2848,Q,Q
2023-03-14 18:25:29:783,0,-15.4378,-1.74844,57.7718,Q,Q
2023-03-14 18:25:29:793,0,-15.3405,-1.74747,58.2139,Q,Q
2023-03-14 18:25:29:803,0,-15.2499,-1.76194,58.6156,Q,Q
2023-03-14 18:25:29:813,0,-15.1632,-1.78742,58.9786,Q,Q
2023-03-14 18:25:29:823,0,-15.0841,-1.82003,59.3052,Q,Q
2023-03-14 18:25:29:833,0,-15.0063,-1.8645,59.5986,Q,Q
2023-03-14 18:25:29:843,0,-14.9327,-1.91679,59.8624,Q,Q
2023-03-14 18:25:29:853,0,-14.8592,-1.97263,60.1019,Q,Q
2023-03-14 18:25:29:863,0,-14.7884,-2.02671,60.3106,Q,Q
2023-03-14 18:25:29:873,0,-14.7191,-2.07983,60.5003,Q,Q
2023-03-14 18:25:29:883,0,-14.6526,-2.12488,60.666,Q,Q
2023-03-14 18:25:29:893,0,-14.5864,-2.16709,60.8014,Q,Q
2023-03-14 18:25:29:903,0,-14.5221,-2.20583,60.9138,Q,Q
2023-03-14 18:25:29:913,0,-14.4617,-2.24225,61.0023,Q,Q
2023-03-14 18:25:29:923,0,-14.4042,-2.28098,61.0747,Q,Q
2023-03-14 18:25:29:933,0,-14.3447,-2.31985,61.1306,Q,Q
2023-03-14 18:25:29:943,0,-14.285,-2.35649,61.1749,Q,Q
2023-03-14 18:25:29:953,0,-14.2249,-2.39046,61.2088,Q,Q
2023-03-14 18:25:29:963,0,-14.1612,-2.42339,61.2383,Q,Q
2023-03-14 18:25:29:973,0,-14.098,-2.45056,61.2621,Q,Q
2023-03-14 18:25:29:983,0,-14.0359,-2.48044,61.2817,Q,Q
2023-03-14 18:25:29:993,0,-13.9719,-2.50623,61.3009,Q,Q
2023-03-14 18:25:30:3,0,-13.9102,-2.52818,61.3231,Q,Q
2023-03-14 18:25:30:13,0,-13.8482,-2.54773,61.3469,Q,Q
2023-03-14 18:25:30:23,0,-13.7908,-2.56501,61.3681,Q,Q
2023-03-14 18:25:30:33,0,-13.7372,-2.57885,61.3936,Q,Q
2023-03-14 18:25:30:43,0,-13.6891,-2.58766,61.4204,Q,Q
2023-03-14 18:25:30:53,0,-13.6445,-2.59644,61.4507,Q,Q
2023-03-14 18:25:30:63,0,-13.5989,-2.60415,61.4862,Q,Q
2023-03-14 18:25:30:73,0,-13.5535,-2.60905,61.5225,Q,Q
2023-03-14 18:25:30:83,0,-13.5088,-2.60404,61.5593,Q,Q
2023-03-14 18:25:30:93,0,-13.46,-2.59833,61.5981,Q,Q
2023-03-14 18:25:30:103,0,-13.4134,-2.58867,61.6316,Q,Q
2023-03-14 18:25:30:113,0,-13.3695,-2.57991,61.6645,Q,Q
2023-03-14 18:25:30:123,0,-13.3274,-2.56259,61.6903,Q,Q
2023-03-14 18:25:30:133,0,-13.2912,-2.55125,61.7136,Q,Q
2023-03-14 18:25:30:143,0,-13.2617,-2.53988,61.7331,Q,Q
2023-03-14 18:25:30:153,0,-13.2372,-2.53013,61.7493,Q,Q
2023-03-14 18:25:30:163,0,-13.2112,-2.5285,61.7614,Q,Q
2023-03-14 18:25:30:173,0,-13.1882,-2.5295,61.7723,Q,Q
2023-03-14 18:25:30:183,0,-13.1651,-2.52981,61.7842,Q,Q
2023-03-14 18:25:30:193,0,-13.1508,-2.53063,61.7991,Q,Q
2023-03-14 18:25:30:203,0,-13.1419,-2.53502,61.8128,Q,Q
2023-03-14 18:25:30:213,0,-13.1402,-2.53692,61.8258,Q,Q
2023-03-14 18:25:30:223,0,-13.141,-2.53963,61.8386,Q,Q
2023-03-14 18:25:30:233,0,-13.1449,-2.54639,61.8493,Q,Q
2023-03-14 18:25:30:243,0,-13.1521,-2.55772,61.8592,Q,Q
2023-03-14 18:25:30:253,0,-13.1673,-2.56986,61.8686,Q,Q
2023-03-14 18:25:30:263,0,-13.1882,-2.58608,61.8762,Q,Q
2023-03-14 18:25:30:273,0,-13.2115,-2.60075,61.882,Q,Q
2023-03-14 18:25:30:283,0,-13.2411,-2.61578,61.8899,Q,Q
2023-03-14 18:25:30:293,0,-13.2739,-2.62868,61.8984,Q,Q
2023-03-14 18:25:30:303,0,-13.3043,-2.63483,61.9048,Q,Q
2023-03-14 18:25:30:313,0,-13.3347,-2.63796,61.9106,Q,Q
2023-03-14 18:25:30:323,0,-13.3589,-2.63289,61.9076,Q,Q
2023-03-14 18:25:30:333,0,-13.3779,-2.62258,61.8976,Q,Q
2023-03-14 18:25:30:343,0,-13.3985,-2.60343,61.8826,Q,Q
2023-03-14 18:25:30:353,0,-13.414,-2.58145,61.8579,Q,Q
2023-03-14 18:25:30:363,0,-13.4244,-2.5612,61.8335,Q,Q
2023-03-14 18:25:30:373,0,-13.4347,-2.54602,61.8068,Q,Q
2023-03-14 18:25:30:383,0,-13.4315,-2.52357,61.7727,Q,Q
2023-03-14 18:25:30:393,0,-13.4122,-2.50476,61.7425,Q,Q
2023-03-14 18:25:30:403,0,-13.3788,-2.48261,61.7102,Q,Q
2023-03-14 18:25:30:413,0,-13.3412,-2.46404,61.6779,Q,Q
2023-03-14 18:25:30:423,0,-13.298,-2.44884,61.6507,Q,Q
2023-03-14 18:25:30:433,0,-13.2542,-2.43673,61.6238,Q,Q
2023-03-14 18:25:30:443,0,-13.2174,-2.42797,61.6011,Q,Q
2023-03-14 18:25:30:453,0,-13.1913,-2.42001,61.5862,Q,Q
2023-03-14 18:25:30:463,0,-13.1745,-2.40493,61.5766,Q,Q
2023-03-14 18:25:30:473,0,-13.164,-2.38514,61.5623,Q,Q
2023-03-14 18:25:30:483,0,-13.148,-2.3525,61.5365,Q,Q
2023-03-14 18:25:30:493,0,-13.1169,-2.31311,61.5083,Q,Q
2023-03-14 18:25:30:503,0,-13.0855,-2.27438,61.4868,Q,Q
2023-03-14 18:25:30:513,0,-13.0555,-2.24363,61.467,Q,Q
2023-03-14 18:25:30:523,0,-13.0399,-2.2284,61.4553,Q,Q
2023-03-14 18:25:30:533,0,-13.0384,-2.22592,61.4411,Q,Q
2023-03-14 18:25:30:543,0,-13.0577,-2.22871,61.4263,Q,Q
2023-03-14 18:25:30:553,0,-13.0917,-2.22195,61.4087,Q,Q
2023-03-14 18:25:30:563,0,-13.1374,-2.20732,61.3926,Q,Q
2023-03-14 18:25:30:573,0,-13.1843,-2.18455,61.3723,Q,Q
2023-03-14 18:25:30:583,0,-13.2157,-2.16468,61.3504,Q,Q
2023-03-14 18:25:30:593,0,-13.2401,-2.16157,61.331,Q,Q
2023-03-14 18:25:30:603,0,-13.2728,-2.1671,61.3258,Q,Q
2023-03-14 18:25:30:613,0,-13.3213,-2.17831,61.3281,Q,Q
2023-03-14 18:25:30:623,0,-13.3711,-2.18955,61.3266,Q,Q
2023-03-14 18:25:30:633,0,-13.4215,-2.19984,61.3237,Q,Q
2023-03-14 18:25:30:643,0,-13.4576,-2.2052,61.3179,Q,Q
2023-03-14 18:25:30:653,0,-13.4846,-2.20488,61.3067,Q,Q
2023-03-14 18:25:30:663,0,-13.4988,-2.1897,61.2901,Q,Q
2023-03-14 18:25:30:673,0,-13.4939,-2.17053,61.271,Q,Q
2023-03-14 18:25:30:683,0,-13.4742,-2.15266,61.2502,Q,Q
2023-03-14 18:25:30:693,0,-13.4499,-2.13902,61.2376,Q,Q
2023-03-14 18:25:30:703,0,-13.4291,-2.12596,61.2212,Q,Q
2023-03-14 18:25:30:713,0,-13.4179,-2.11796,61.2039,Q,Q
2023-03-14 18:25:30:723,0,-13.4147,-2.12436,61.1907,Q,Q
2023-03-14 18:25:30:733,0,-13.4276,-2.14018,61.1765,Q,Q
2023-03-14 18:25:30:743,0,-13.4529,-2.15512,61.1645,Q,Q
2023-03-14 18:25:30:753,0,-13.4888,-2.17975,61.1515,Q,Q
2023-03-14 18:25:30:763,0,-13.5239,-2.21572,61.1319,Q,Q
2023-03-14 18:25:30:773,0,-13.5619,-2.24693,61.1126,Q,Q
2023-03-14 18:25:30:783,0,-13.596,-2.27461,61.0982,Q,Q
2023-03-14 18:25:30:793,0,-13.6279,-2.31168,61.0849,Q,Q
2023-03-14 18:25:30:803,0,-13.656,-2.36497,61.0763,Q,Q
2023-03-14 18:25:30:813,0,-13.6897,-2.42651,61.0713,Q,Q
2023-03-14 18:25:30:823,0,-13.7344,-2.49741,61.0796,Q,Q
2023-03-14 18:25:30:833,0,-13.7799,-2.57337,61.105,Q,Q
2023-03-14 18:25:30:843,0,-13.827,-2.6588,61.1382,Q,Q
2023-03-14 18:25:30:853,0,-13.8688,-2.74626,61.1787,Q,Q
2023-03-14 18:25:30:863,0,-13.905,-2.82652,61.2238,Q,Q
2023-03-14 18:25:30:873,0,-13.9274,-2.89081,61.2712,Q,Q
2023-03-14 18:25:30:883,0,-13.9381,-2.94254,61.3206,Q,Q
2023-03-14 18:25:30:893,0,-13.9548,-2.9885,61.3689,Q,Q
2023-03-14 18:25:30:903,0,-13.9773,-3.0299,61.4205,Q,Q
2023-03-14 18:25:30:913,0,-14.0137,-3.0664,61.4656,Q,Q
2023-03-14 18:25:30:923,0,-14.063,-3.09415,61.5091,Q,Q
2023-03-14 18:25:30:933,0,-14.12,-3.11475,61.5475,Q,Q
2023-03-14 18:25:30:943,0,-14.1754,-3.12715,61.5886,Q,Q
2023-03-14 18:25:30:953,0,-14.2252,-3.13495,61.6255,Q,Q
2023-03-14 18:25:30:963,0,-14.2642,-3.13472,61.662,Q,Q
2023-03-14 18:25:30:973,0,-14.2983,-3.13142,61.6983,Q,Q
2023-03-14 18:25:30:983,0,-14.3233,-3.12763,61.7338,Q,Q
2023-03-14 18:25:30:993,0,-14.3456,-3.12075,61.7727,Q,Q
2023-03-14 18:25:31:3,0,-14.3676,-3.11336,61.8115,Q,Q
2023-03-14 18:25:31:13,0,-14.3811,-3.10336,61.8517,Q,Q
2023-03-14 18:25:31:23,0,-14.3806,-3.09484,61.8901,Q,Q
2023-03-14 18:25:31:33,0,-14.3715,-3.09455,61.924,Q,Q
2023-03-14 18:25:31:43,0,-14.3507,-3.09744,61.9561,Q,Q
2023-03-14 18:25:31:53,0,-14.3215,-3.10703,61.9907,Q,Q
2023-03-14 18:25:31:63,0,-14.2873,-3.12468,62.0285,Q,Q
2023-03-14 18:25:31:73,0,-14.2524,-3.15343,62.0664,Q,Q
2023-03-14 18:25:31:83,0,-14.227,-3.18941,62.1053,Q,Q
2023-03-14 18:25:31:93,0,-14.222,-3.22677,62.146,Q,Q
2023-03-14 18:25:31:103,0,-14.237,-3.27048,62.1872,Q,Q
2023-03-14 18:25:31:113,0,-14.2699,-3.31849,62.23,Q,Q
2023-03-14 18:25:31:123,0,-14.308,-3.37174,62.2755,Q,Q
2023-03-14 18:25:31:133,0,-14.3453,-3.42481,62.3168,Q,Q
2023-03-14 18:25:31:143,0,-14.3821,-3.47038,62.35,Q,Q
2023-03-14 18:25:31:153,0,-14.4075,-3.51147,62.3767,Q,Q
2023-03-14 18:25:31:163,0,-14.4174,-3.54353,62.3995,Q,Q
2023-03-14 18:25:31:173,0,-14.4228,-3.56851,62.4219,Q,Q
2023-03-14 18:25:31:183,0,-14.4202,-3.59357,62.4476,Q,Q
2023-03-14 18:25:31:193,0,-14.4167,-3.60904,62.4744,Q,Q
2023-03-14 18:25:31:203,0,-14.4203,-3.62477,62.5054,Q,Q
2023-03-14 18:25:31:213,0,-14.4226,-3.63259,62.5421,Q,Q
2023-03-14 18:25:31:223,0,-14.4343,-3.63906,62.5824,Q,Q
2023-03-14 18:25:31:233,0,-14.4377,-3.63708,62.6266,Q,Q
2023-03-14 18:25:31:243,0,-14.4362,-3.63074,62.6767,Q,Q
2023-03-14 18:25:31:253,0,-14.4248,-3.62573,62.7269,Q,Q
2023-03-14 18:25:31:263,0,-14.4148,-3.62466,62.7791,Q,Q
2023-03-14 18:25:31:273,0,-14.4067,-3.62435,62.8415,Q,Q
2023-03-14 18:25:31:283,0,-14.3985,-3.62258,62.8999,Q,Q
2023-03-14 18:25:31:293,0,-14.3868,-3.61872,62.9574,Q,Q
2023-03-14 18:25:31:303,0,-14.3709,-3.61226,63.0135,Q,Q
2023-03-14 18:25:31:313,0,-14.35,-3.6087,63.0608,Q,Q
2023-03-14 18:25:31:323,0,-14.3197,-3.60805,63.1,Q,Q
2023-03-14 18:25:31:333,0,-14.2908,-3.61744,63.1383,Q,Q
2023-03-14 18:25:31:343,0,-14.2697,-3.62928,63.1807,Q,Q
2023-03-14 18:25:31:353,0,-14.2506,-3.63868,63.2244,Q,Q
2023-03-14 18:25:31:363,0,-14.2445,-3.64594,63.2707,Q,Q
2023-03-14 18:25:31:373,0,-14.2471,-3.65888,63.3245,Q,Q
2023-03-14 18:25:31:383,0,-14.265,-3.67134,63.388,Q,Q
2023-03-14 18:25:31:393,0,-14.2883,-3.6847,63.454,Q,Q
2023-03-14 18:25:31:403,0,-14.3203,-3.69562,63.5181,Q,Q
2023-03-14 18:25:31:413,0,-14.3519,-3.6922,63.5819,Q,Q
2023-03-14 18:25:31:423,0,-14.382,-3.68379,63.6443,Q,Q
2023-03-14 18:25:31:433,0,-14.4106,-3.66612,63.7001,Q,Q
2023-03-14 18:25:31:443,0,-14.4425,-3.64711,63.7496,Q,Q
2023-03-14 18:25:31:453,0,-14.4714,-3.61983,63.7924,Q,Q
2023-03-14 18:25:31:463,0,-14.4914,-3.57393,63.8329,Q,Q
2023-03-14 18:25:31:473,0,-14.5066,-3.54631,63.8599,Q,Q
2023-03-14 18:25:31:483,0,-14.5224,-3.53487,63.8762,Q,Q
2023-03-14 18:25:31:493,0,-14.5444,-3.5302,63.8817,Q,Q
2023-03-14 18:25:31:503,0,-14.5699,-3.53282,63.8752,Q,Q
2023-03-14 18:25:31:513,0,-14.5901,-3.53581,63.8688,Q,Q
2023-03-14 18:25:31:523,0,-14.6014,-3.53233,63.849,Q,Q
2023-03-14 18:25:31:533,0,-14.601,-3.52928,63.8134,Q,Q
2023-03-14 18:25:31:543,0,-14.5965,-3.52094,63.7643,Q,Q
2023-03-14 18:25:31:553,0,-14.5904,-3.50821,63.7038,Q,Q
2023-03-14 18:25:31:563,0,-14.5856,-3.49005,63.6334,Q,Q
2023-03-14 18:25:31:573,0,-14.584,-3.46194,63.5513,Q,Q
2023-03-14 18:25:31:583,0,-14.5857,-3.43682,63.4642,Q,Q
2023-03-14 18:25:31:593,0,-14.5851,-3.40761,63.3752,Q,Q
2023-03-14 18:25:31:603,0,-14.5755,-3.37285,63.2824,Q,Q
2023-03-14 18:25:31:613,0,-14.5619,-3.34416,63.1898,Q,Q
2023-03-14 18:25:31:623,0,-14.5606,-3.32571,63.1066,Q,Q
2023-03-14 18:25:31:633,0,-14.5697,-3.30728,63.0312,Q,Q
2023-03-14 18:25:31:643,0,-14.5892,-3.2816,62.9569,Q,Q
2023-03-14 18:25:31:653,0,-14.6052,-3.25113,62.8793,Q,Q
2023-03-14 18:25:31:663,0,-14.6162,-3.21514,62.7978,Q,Q
2023-03-14 18:25:31:673,0,-14.6259,-3.17329,62.7151,Q,Q
2023-03-14 18:25:31:683,0,-14.6425,-3.13368,62.6349,Q,Q
2023-03-14 18:25:31:693,0,-14.6657,-3.09829,62.5635,Q,Q
2023-03-14 18:25:31:703,0,-14.6962,-3.07135,62.4972,Q,Q
2023-03-14 18:25:31:713,0,-14.7336,-3.05368,62.4431,Q,Q
2023-03-14 18:25:31:723,0,-14.7792,-3.04246,62.3946,Q,Q
2023-03-14 18:25:31:733,0,-14.8233,-3.04006,62.3532,Q,Q
2023-03-14 18:25:31:743,0,-14.8618,-3.03629,62.31,Q,Q
2023-03-14 18:25:31:753,0,-14.8915,-3.03227,62.2661,Q,Q
2023-03-14 18:25:31:763,0,-14.9203,-3.02749,62.2275,Q,Q
2023-03-14 18:25:31:773,0,-14.9519,-3.02813,62.1864,Q,Q
2023-03-14 18:25:31:783,0,-14.9955,-3.03194,62.1525,Q,Q
2023-03-14 18:25:31:793,0,-15.0358,-3.04474,62.1216,Q,Q
2023-03-14 18:25:31:803,0,-15.0809,-3.066,62.0968,Q,Q
2023-03-14 18:25:31:813,0,-15.1302,-3.09785,62.078,Q,Q
2023-03-14 18:25:31:823,0,-15.1817,-3.13464,62.0715,Q,Q
2023-03-14 18:25:31:833,0,-15.2325,-3.16724,62.0623,Q,Q
2023-03-14 18:25:31:843,0,-15.2716,-3.18505,62.04,Q,Q
2023-03-14 18:25:31:853,0,-15.3008,-3.19069,62.0042,Q,Q
2023-03-14 18:25:31:863,0,-15.3155,-3.19576,61.9583,Q,Q
2023-03-14 18:25:31:873,0,-15.3287,-3.19987,61.9138,Q,Q
2023-03-14 18:25:31:883,0,-15.3412,-3.21008,61.8627,Q,Q
2023-03-14 18:25:31:893,0,-15.3665,-3.23426,61.8192,Q,Q
2023-03-14 18:25:31:903,0,-15.3987,-3.27179,61.7785,Q,Q
2023-03-14 18:25:31:913,0,-15.4386,-3.32254,61.745,Q,Q
2023-03-14 18:25:31:923,0,-15.4848,-3.38283,61.7222,Q,Q
2023-03-14 18:25:31:933,0,-15.53,-3.44736,61.7089,Q,Q
2023-03-14 18:25:31:943,0,-15.57,-3.52397,61.7039,Q,Q
2023-03-14 18:25:31:953,0,-15.602,-3.60307,61.7108,Q,Q
2023-03-14 18:25:31:963,0,-15.6296,-3.68842,61.7332,Q,Q
2023-03-14 18:25:31:973,0,-15.6545,-3.77977,61.7705,Q,Q
2023-03-14 18:25:31:983,0,-15.6915,-3.87559,61.8279,Q,Q
2023-03-14 18:25:31:993,0,-15.732,-3.97114,61.9051,Q,Q
2023-03-14 18:25:32:3,0,-15.775,-4.06789,62.0066,Q,Q
2023-03-14 18:25:32:13,0,-15.8097,-4.16202,62.1251,Q,Q
2023-03-14 18:25:32:23,0,-15.8435,-4.25311,62.2568,Q,Q
2023-03-14 18:25:32:33,0,-15.8811,-4.34374,62.402,Q,Q
2023-03-14 18:25:32:43,0,-15.9351,-4.43881,62.5503,Q,Q
2023-03-14 18:25:32:53,0,-15.9762,-4.53249,62.6995,Q,Q
2023-03-14 18:25:32:63,0,-15.9863,-4.62072,62.8505,Q,Q
2023-03-14 18:25:32:73,0,-15.9944,-4.71814,63.0106,Q,Q
2023-03-14 18:25:32:83,0,-16.0096,-4.76904,63.175,Q,Q
2023-03-14 18:25:32:93,0,-16.0075,-4.89838,63.2863,Q,Q
2023-03-14 18:25:32:103,0,-16.0034,-4.95187,63.3699,Q,Q
2023-03-14 18:25:32:113,0,-15.9802,-4.97794,63.4459,Q,Q
2023-03-14 18:25:32:123,0,-15.9472,-4.99752,63.5198,Q,Q
2023-03-14 18:25:32:133,0,-15.9072,-4.99818,63.5839,Q,Q
2023-03-14 18:25:32:143,0,-15.8683,-4.99019,63.6209,Q,Q
2023-03-14 18:25:32:153,0,-15.8395,-4.97655,63.6451,Q,Q
2023-03-14 18:25:32:163,0,-15.8176,-4.9475,63.6576,Q,Q
2023-03-14 18:25:32:173,0,-15.7892,-4.89899,63.6554,Q,Q
2023-03-14 18:25:32:183,0,-15.7436,-4.8558,63.6309,Q,Q
2023-03-14 18:25:32:193,0,-15.6897,-4.81368,63.5871,Q,Q
2023-03-14 18:25:32:203,0,-15.6493,-4.77571,63.5327,Q,Q
2023-03-14 18:25:32:213,0,-15.6235,-4.75516,63.4723,Q,Q
2023-03-14 18:25:32:223,0,-15.6218,-4.73599,63.4159,Q,Q
2023-03-14 18:25:32:233,0,-15.6501,-4.71908,63.3624,Q,Q
2023-03-14 18:25:32:243,0,-15.6943,-4.71135,63.3085,Q,Q
2023-03-14 18:25:32:253,0,-15.7572,-4.71168,63.262,Q,Q
2023-03-14 18:25:32:263,0,-15.841,-4.71546,63.2211,Q,Q
2023-03-14 18:25:32:273,0,-15.9395,-4.72647,63.1827,Q,Q
2023-03-14 18:25:32:283,0,-16.0489,-4.73829,63.1507,Q,Q
2023-03-14 18:25:32:293,0,-16.1638,-4.76039,63.1124,Q,Q
2023-03-14 18:25:32:303,0,-16.2919,-4.78952,63.067,Q,Q
2023-03-14 18:25:32:313,0,-16.4403,-4.82307,63.0128,Q,Q
2023-03-14 18:25:32:323,0,-16.6064,-4.85563,62.9523,Q,Q
2023-03-14 18:25:32:333,0,-16.7786,-4.9026,62.882,Q,Q
2023-03-14 18:25:32:343,0,-16.9861,-4.95905,62.8016,Q,Q
2023-03-14 18:25:32:353,0,-17.236,-5.04276,62.7186,Q,Q
2023-03-14 18:25:32:363,0,-17.5002,-5.1425,62.642,Q,Q
2023-03-14 18:25:32:373,0,-17.7673,-5.23266,62.5639,Q,Q
2023-03-14 18:25:32:383,0,-18.0016,-5.31375,62.465,Q,Q
2023-03-14 18:25:32:393,0,-18.1886,-5.37813,62.3436,Q,Q
2023-03-14 18:25:32:403,0,-18.3411,-5.42114,62.2106,Q,Q
2023-03-14 18:25:32:413,0,-18.4734,-5.45316,62.0804,Q,Q
2023-03-14 18:25:32:423,0,-18.5979,-5.48906,61.963,Q,Q
2023-03-14 18:25:32:433,0,-18.724,-5.52916,61.8546,Q,Q
2023-03-14 18:25:32:443,0,-18.8505,-5.57655,61.7477,Q,Q
2023-03-14 18:25:32:453,0,-18.9624,-5.6192,61.6333,Q,Q
2023-03-14 18:25:32:463,0,-19.0529,-5.65369,61.5159,Q,Q
2023-03-14 18:25:32:473,0,-19.1031,-5.67396,61.4,Q,Q
2023-03-14 18:25:32:483,0,-19.1325,-5.68701,61.2859,Q,Q
2023-03-14 18:25:32:493,0,-19.1738,-5.69221,61.1863,Q,Q
2023-03-14 18:25:32:503,0,-19.2168,-5.69809,61.0978,Q,Q
2023-03-14 18:25:32:513,0,-19.248,-5.70372,61.007,Q,Q
2023-03-14 18:25:32:523,0,-19.269,-5.71278,60.917,Q,Q
2023-03-14 18:25:32:533,0,-19.2895,-5.71523,60.8273,Q,Q
2023-03-14 18:25:32:543,0,-19.3152,-5.70853,60.7539,Q,Q
2023-03-14 18:25:32:553,0,-19.3484,-5.70576,60.6986,Q,Q
2023-03-14 18:25:32:563,0,-19.3705,-5.70442,60.6511,Q,Q
2023-03-14 18:25:32:573,0,-19.3681,-5.70178,60.6028,Q,Q
2023-03-14 18:25:32:583,0,-19.3445,-5.70456,60.5552,Q,Q
2023-03-14 18:25:32:593,0,-19.2995,-5.70622,60.5136,Q,Q
2023-03-14 18:25:32:603,0,-19.2432,-5.71232,60.4761,Q,Q
2023-03-14 18:25:32:613,0,-19.1753,-5.71179,60.4383,Q,Q
2023-03-14 18:25:32:623,0,-19.0959,-5.71903,60.3946,Q,Q
2023-03-14 18:25:32:633,0,-19.0086,-5.74043,60.3354,Q,Q
2023-03-14 18:25:32:643,0,-18.9117,-5.75967,60.2658,Q,Q
2023-03-14 18:25:32:653,0,-18.801,-5.78266,60.191,Q,Q
2023-03-14 18:25:32:663,0,-18.6937,-5.81737,60.1141,Q,Q
2023-03-14 18:25:32:673,0,-18.5902,-5.86172,60.034,Q,Q
2023-03-14 18:25:32:683,0,-18.485,-5.91089,59.9487,Q,Q
2023-03-14 18:25:32:693,0,-18.3811,-5.96413,59.8647,Q,Q
2023-03-14 18:25:32:703,0,-18.2719,-6.02045,59.7804,Q,Q
2023-03-14 18:25:32:713,0,-18.1434,-6.08109,59.6809,Q,Q
2023-03-14 18:25:32:723,0,-17.9971,-6.12634,59.5601,Q,Q
2023-03-14 18:25:32:733,0,-17.838,-6.16751,59.4108,Q,Q
2023-03-14 18:25:32:743,0,-17.671,-6.19653,59.2505,Q,Q
2023-03-14 18:25:32:753,0,-17.5019,-6.22177,59.077,Q,Q
2023-03-14 18:25:32:763,0,-17.3504,-6.24186,58.9177,Q,Q
2023-03-14 18:25:32:773,0,-17.191,-6.25038,58.7775,Q,Q
2023-03-14 18:25:32:783,0,-17.0316,-6.2588,58.6598,Q,Q
2023-03-14 18:25:32:793,0,-16.8873,-6.24774,58.5748,Q,Q
2023-03-14 18:25:32:803,0,-16.7419,-6.23028,58.5285,Q,Q
2023-03-14 18:25:32:813,0,-16.6116,-6.21193,58.5115,Q,Q
2023-03-14 18:25:32:823,0,-16.4889,-6.18462,58.5159,Q,Q
2023-03-14 18:25:32:833,0,-16.3617,-6.14962,58.5383,Q,Q
2023-03-14 18:25:32:843,0,-16.249,-6.11095,58.5778,Q,Q
2023-03-14 18:25:32:853,0,-16.1441,-6.0739,58.6246,Q,Q
2023-03-14 18:25:32:863,0,-16.0688,-6.04483,58.6953,Q,Q
2023-03-14 18:25:32:873,0,-16.014,-6.02489,58.7792,Q,Q
2023-03-14 18:25:32:883,0,-15.9442,-5.99969,58.8488,Q,Q
2023-03-14 18:25:32:893,0,-15.8707,-5.96358,58.92,Q,Q
2023-03-14 18:25:32:903,0,-15.8173,-5.93874,58.9884,Q,Q
2023-03-14 18:25:32:913,0,-15.7863,-5.92065,59.0513,Q,Q
2023-03-14 18:25:32:923,0,-15.7681,-5.9089,59.1119,Q,Q
2023-03-14 18:25:32:933,0,-15.7616,-5.90199,59.1628,Q,Q
2023-03-14 18:25:32:943,0,-15.7502,-5.89657,59.1926,Q,Q
2023-03-14 18:25:32:953,0,-15.7299,-5.89098,59.2073,Q,Q
2023-03-14 18:25:32:963,0,-15.7141,-5.88536,59.2062,Q,Q
2023-03-14 18:25:32:973,0,-15.6864,-5.87314,59.1875,Q,Q
2023-03-14 18:25:32:983,0,-15.6612,-5.85759,59.1654,Q,Q
2023-03-14 18:25:32:993,0,-15.6296,-5.83269,59.1467,Q,Q
2023-03-14 18:25:33:3,0,-15.5944,-5.8073,59.1282,Q,Q
2023-03-14 18:25:33:13,0,-15.5682,-5.78662,59.1066,Q,Q
2023-03-14 18:25:33:23,0,-15.5386,-5.77322,59.0875,Q,Q
2023-03-14 18:25:33:34,0,-15.5077,-5.76869,59.0706,Q,Q
2023-03-14 18:25:33:43,0,-15.4787,-5.77251,59.0521,Q,Q
2023-03-14 18:25:33:53,0,-15.4379,-5.77717,59.0306,Q,Q
2023-03-14 18:25:33:63,0,-15.3764,-5.77504,59.002,Q,Q
2023-03-14 18:25:33:73,0,-15.2982,-5.75676,58.9655,Q,Q
2023-03-14 18:25:33:83,0,-15.2151,-5.73282,58.926,Q,Q
2023-03-14 18:25:33:93,0,-15.134,-5.71117,58.8905,Q,Q
2023-03-14 18:25:33:103,0,-15.0603,-5.69514,58.8621,Q,Q
2023-03-14 18:25:33:113,0,-14.9809,-5.67588,58.8324,Q,Q
2023-03-14 18:25:33:123,0,-14.9032,-5.66441,58.8091,Q,Q
2023-03-14 18:25:33:133,0,-14.8395,-5.6609,58.7958,Q,Q
2023-03-14 18:25:33:143,0,-14.7923,-5.66552,58.788,Q,Q
2023-03-14 18:25:33:153,0,-14.7569,-5.67757,58.7842,Q,Q
2023-03-14 18:25:33:163,0,-14.7212,-5.69631,58.7838,Q,Q
2023-03-14 18:25:33:173,0,-14.6923,-5.72538,58.787,Q,Q
2023-03-14 18:25:33:183,0,-14.6649,-5.75935,58.7967,Q,Q
2023-03-14 18:25:33:193,0,-14.6293,-5.79616,58.809,Q,Q
2023-03-14 18:25:33:203,0,-14.5908,-5.84084,58.8283,Q,Q
2023-03-14 18:25:33:213,0,-14.5471,-5.87294,58.8502,Q,Q
2023-03-14 18:25:33:223,0,-14.4929,-5.91157,58.8681,Q,Q
2023-03-14 18:25:33:233,0,-14.4525,-5.95719,58.8883,Q,Q
2023-03-14 18:25:33:243,0,-14.4144,-6.00413,58.909,Q,Q
2023-03-14 18:25:33:253,0,-14.3554,-6.05017,58.922,Q,Q
2023-03-14 18:25:33:263,0,-14.2934,-6.08821,58.9272,Q,Q
2023-03-14 18:25:33:273,0,-14.2277,-6.12802,58.9238,Q,Q
2023-03-14 18:25:33:283,0,-14.151,-6.162,58.9131,Q,Q
2023-03-14 18:25:33:293,0,-14.0731,-6.19078,58.9049,Q,Q
2023-03-14 18:25:33:303,0,-13.9853,-6.21331,58.9023,Q,Q
2023-03-14 18:25:33:313,0,-13.9008,-6.23147,58.9019,Q,Q
2023-03-14 18:25:33:323,0,-13.8163,-6.24467,58.9084,Q,Q
2023-03-14 18:25:33:333,0,-13.7386,-6.24402,58.9144,Q,Q
2023-03-14 18:25:33:343,0,-13.6774,-6.23548,58.9214,Q,Q
2023-03-14 18:25:33:353,0,-13.6259,-6.22439,58.927,Q,Q
2023-03-14 18:25:33:363,0,-13.5837,-6.21038,58.9302,Q,Q
2023-03-14 18:25:33:373,0,-13.5554,-6.19417,58.9324,Q,Q
2023-03-14 18:25:33:383,0,-13.544,-6.17837,58.9336,Q,Q
2023-03-14 18:25:33:393,0,-13.5282,-6.1553,58.9297,Q,Q
2023-03-14 18:25:33:403,0,-13.5098,-6.12529,58.9332,Q,Q
2023-03-14 18:25:33:413,0,-13.4983,-6.0985,58.9416,Q,Q
2023-03-14 18:25:33:423,0,-13.489,-6.07205,58.9499,Q,Q
2023-03-14 18:25:33:433,0,-13.4942,-6.04596,58.955,Q,Q
2023-03-14 18:25:33:443,0,-13.5122,-6.03565,58.9657,Q,Q
2023-03-14 18:25:33:453,0,-13.5229,-6.03593,58.9842,Q,Q
2023-03-14 18:25:33:463,0,-13.5297,-6.04028,59.0134,Q,Q
2023-03-14 18:25:33:473,0,-13.533,-6.04062,59.0489,Q,Q
2023-03-14 18:25:33:483,0,-13.5353,-6.04386,59.0932,Q,Q
2023-03-14 18:25:33:493,0,-13.5437,-6.04604,59.1487,Q,Q
2023-03-14 18:25:33:503,0,-13.5576,-6.04849,59.2014,Q,Q
2023-03-14 18:25:33:513,0,-13.5704,-6.05848,59.2642,Q,Q
2023-03-14 18:25:33:523,0,-13.5754,-6.07308,59.3288,Q,Q
2023-03-14 18:25:33:533,0,-13.5634,-6.09118,59.3913,Q,Q
2023-03-14 18:25:33:543,0,-13.5447,-6.11547,59.446,Q,Q
2023-03-14 18:25:33:553,0,-13.5248,-6.13799,59.4951,Q,Q
2023-03-14 18:25:33:563,0,-13.507,-6.16865,59.5394,Q,Q
2023-03-14 18:25:33:573,0,-13.4891,-6.19955,59.5746,Q,Q
2023-03-14 18:25:33:583,0,-13.4732,-6.23445,59.602,Q,Q
2023-03-14 18:25:33:593,0,-13.4411,-6.26623,59.6188,Q,Q
2023-03-14 18:25:33:603,0,-13.3897,-6.296,59.6195,Q,Q
2023-03-14 18:25:33:613,0,-13.3272,-6.31957,59.6036,Q,Q
2023-03-14 18:25:33:623,0,-13.2627,-6.33821,59.5636,Q,Q
2023-03-14 18:25:33:633,0,-13.1972,-6.35607,59.51,Q,Q
2023-03-14 18:25:33:643,0,-13.1402,-6.36766,59.4599,Q,Q
2023-03-14 18:25:33:653,0,-13.0922,-6.37805,59.4143,Q,Q
2023-03-14 18:25:33:663,0,-13.0498,-6.3863,59.3598,Q,Q
2023-03-14 18:25:33:673,0,-13.0089,-6.38973,59.2943,Q,Q
2023-03-14 18:25:33:683,0,-12.9683,-6.38348,59.2309,Q,Q
2023-03-14 18:25:33:693,0,-12.9169,-6.36907,59.1624,Q,Q
2023-03-14 18:25:33:703,0,-12.8602,-6.34316,59.0901,Q,Q
2023-03-14 18:25:33:713,0,-12.8008,-6.3093,59.021,Q,Q
2023-03-14 18:25:33:723,0,-12.7381,-6.2701,58.9596,Q,Q
2023-03-14 18:25:33:733,0,-12.6916,-6.23395,58.9091,Q,Q
2023-03-14 18:25:33:743,0,-12.656,-6.20318,58.8687,Q,Q
2023-03-14 18:25:33:753,0,-12.6223,-6.17148,58.8347,Q,Q
2023-03-14 18:25:33:763,0,-12.5986,-6.14208,58.8128,Q,Q
2023-03-14 18:25:33:773,0,-12.5621,-6.11297,58.7974,Q,Q
2023-03-14 18:25:33:783,0,-12.5204,-6.0739,58.792,Q,Q
2023-03-14 18:25:33:793,0,-12.4792,-6.03493,58.7893,Q,Q
2023-03-14 18:25:33:803,0,-12.4382,-5.99083,58.7952,Q,Q
2023-03-14 18:25:33:813,0,-12.4031,-5.94897,58.8035,Q,Q
2023-03-14 18:25:33:823,0,-12.3846,-5.91891,58.8203,Q,Q
2023-03-14 18:25:33:833,0,-12.3748,-5.90112,58.8417,Q,Q
2023-03-14 18:25:33:843,0,-12.3645,-5.89183,58.8631,Q,Q
2023-03-14 18:25:33:853,0,-12.3465,-5.88572,58.8874,Q,Q
2023-03-14 18:25:33:863,0,-12.336,-5.88249,58.9193,Q,Q
2023-03-14 18:25:33:873,0,-12.3341,-5.88701,58.9535,Q,Q
2023-03-14 18:25:33:883,0,-12.3391,-5.89512,58.9868,Q,Q
2023-03-14 18:25:33:893,0,-12.3435,-5.89993,59.0194,Q,Q
2023-03-14 18:25:33:903,0,-12.3484,-5.91163,59.0595,Q,Q
2023-03-14 18:25:33:914,0,-12.3504,-5.9278,59.1029,Q,Q
2023-03-14 18:25:33:923,0,-12.3522,-5.94799,59.147,Q,Q
2023-03-14 18:25:33:933,0,-12.3488,-5.96807,59.1961,Q,Q
2023-03-14 18:25:33:943,0,-12.3395,-5.99559,59.2421,Q,Q
2023-03-14 18:25:33:953,0,-12.3331,-6.02667,59.2894,Q,Q
2023-03-14 18:25:33:963,0,-12.3237,-6.05797,59.3294,Q,Q
2023-03-14 18:25:33:973,0,-12.323,-6.09355,59.3659,Q,Q
2023-03-14 18:25:33:983,0,-12.3211,-6.12929,59.3957,Q,Q
2023-03-14 18:25:33:993,0,-12.3175,-6.16542,59.4147,Q,Q
2023-03-14 18:25:34:3,0,-12.312,-6.19885,59.415,Q,Q
2023-03-14 18:25:34:13,0,-12.2956,-6.22825,59.401,Q,Q
2023-03-14 18:25:34:23,0,-12.2718,-6.26039,59.3782,Q,Q
2023-03-14 18:25:34:33,0,-12.2435,-6.28218,59.3483,Q,Q
2023-03-14 18:25:34:43,0,-12.2103,-6.30112,59.3132,Q,Q
2023-03-14 18:25:34:53,0,-12.1777,-6.31334,59.2661,Q,Q
2023-03-14 18:25:34:63,0,-12.1389,-6.32417,59.2136,Q,Q
2023-03-14 18:25:34:73,0,-12.1032,-6.32905,59.1591,Q,Q
2023-03-14 18:25:34:83,0,-12.0753,-6.3298,59.1048,Q,Q
2023-03-14 18:25:34:93,0,-12.0555,-6.32579,59.0478,Q,Q
2023-03-14 18:25:34:103,0,-12.0384,-6.3145,58.991,Q,Q
2023-03-14 18:25:34:113,0,-12.0213,-6.30105,58.9346,Q,Q
2023-03-14 18:25:34:123,0,-12.0083,-6.28484,58.8803,Q,Q
2023-03-14 18:25:34:133,0,-11.9979,-6.26868,58.8241,Q,Q
2023-03-14 18:25:34:143,0,-11.976,-6.24112,58.7623,Q,Q
2023-03-14 18:25:34:153,0,-11.9599,-6.20624,58.7117,Q,Q
2023-03-14 18:25:34:163,0,-11.9472,-6.17779,58.6651,Q,Q
2023-03-14 18:25:34:173,0,-11.9447,-6.15205,58.6252,Q,Q
2023-03-14 18:25:34:183,0,-11.9529,-6.12776,58.5936,Q,Q
2023-03-14 18:25:34:193,0,-11.9633,-6.11151,58.575,Q,Q
2023-03-14 18:25:34:203,0,-11.9744,-6.09665,58.5631,Q,Q
2023-03-14 18:25:34:213,0,-11.9911,-6.08256,58.5591,Q,Q
2023-03-14 18:25:34:223,0,-12.0059,-6.07709,58.5637,Q,Q
2023-03-14 18:25:34:233,0,-12.0302,-6.07902,58.5731,Q,Q
2023-03-14 18:25:34:243,0,-12.0466,-6.08099,58.5937,Q,Q
2023-03-14 18:25:34:253,0,-12.061,-6.08938,58.6123,Q,Q
2023-03-14 18:25:34:263,0,-12.0794,-6.10068,58.6307,Q,Q
2023-03-14 18:25:34:273,0,-12.0996,-6.11941,58.6414,Q,Q
2023-03-14 18:25:34:283,0,-12.1211,-6.1402,58.6487,Q,Q
2023-03-14 18:25:34:293,0,-12.1397,-6.16355,58.6495,Q,Q
2023-03-14 18:25:34:303,0,-12.1486,-6.18257,58.6489,Q,Q
2023-03-14 18:25:34:313,0,-12.1481,-6.20433,58.6563,Q,Q
2023-03-14 18:25:34:323,0,-12.1437,-6.22469,58.6682,Q,Q
2023-03-14 18:25:34:333,0,-12.147,-6.25066,58.6813,Q,Q
2023-03-14 18:25:34:343,0,-12.1459,-6.27846,58.6898,Q,Q
2023-03-14 18:25:34:353,0,-12.1466,-6.3015,58.6958,Q,Q
2023-03-14 18:25:34:363,0,-12.1342,-6.31509,58.6996,Q,Q
2023-03-14 18:25:34:373,0,-12.1237,-6.32494,58.705,Q,Q
2023-03-14 18:25:34:383,0,-12.1213,-6.3299,58.7066,Q,Q
2023-03-14 18:25:34:393,0,-12.1127,-6.33445,58.7056,Q,Q
2023-03-14 18:25:34:403,0,-12.0981,-6.33086,58.7016,Q,Q
2023-03-14 18:25:34:413,0,-12.096,-6.33565,58.7026,Q,Q
2023-03-14 18:25:34:423,0,-12.0873,-6.3389,58.7067,Q,Q
2023-03-14 18:25:34:433,0,-12.0731,-6.34312,58.7129,Q,Q
2023-03-14 18:25:34:443,0,-12.0549,-6.34898,58.7213,Q,Q
2023-03-14 18:25:34:453,0,-12.0331,-6.35655,58.7318,Q,Q
2023-03-14 18:25:34:463,0,-12.0206,-6.36583,58.741,Q,Q
2023-03-14 18:25:34:473,0,-12.0061,-6.3781,58.7519,Q,Q
2023-03-14 18:25:34:483,0,-11.9911,-6.39466,58.7664,Q,Q
2023-03-14 18:25:34:493,0,-11.9779,-6.41433,58.7824,Q,Q
2023-03-14 18:25:34:503,0,-11.9697,-6.43333,58.8013,Q,Q
2023-03-14 18:25:34:513,0,-11.9678,-6.45583,58.8244,Q,Q
2023-03-14 18:25:34:523,0,-11.9608,-6.47758,58.8504,Q,Q
2023-03-14 18:25:34:533,0,-11.9554,-6.49679,58.8739,Q,Q
2023-03-14 18:25:34:543,0,-11.9471,-6.5123,58.8996,Q,Q
2023-03-14 18:25:34:553,0,-11.9355,-6.52388,58.9221,Q,Q
2023-03-14 18:25:34:563,0,-11.9291,-6.53229,58.9462,Q,Q
2023-03-14 18:25:34:573,0,-11.9243,-6.53951,58.9671,Q,Q
2023-03-14 18:25:34:583,0,-11.9199,-6.54249,58.9934,Q,Q
2023-03-14 18:25:34:593,0,-11.9104,-6.54871,59.0226,Q,Q
2023-03-14 18:25:34:603,0,-11.8942,-6.55127,59.0501,Q,Q
2023-03-14 18:25:34:613,0,-11.8868,-6.54776,59.0701,Q,Q
2023-03-14 18:25:34:623,0,-11.8829,-6.54399,59.0807,Q,Q
2023-03-14 18:25:34:633,0,-11.8795,-6.53651,59.0969,Q,Q
2023-03-14 18:25:34:643,0,-11.8685,-6.5217,59.1124,Q,Q
2023-03-14 18:25:34:653,0,-11.8715,-6.50318,59.1292,Q,Q
2023-03-14 18:25:34:663,0,-11.8789,-6.48048,59.1352,Q,Q
2023-03-14 18:25:34:673,0,-11.8888,-6.44079,59.1255,Q,Q
2023-03-14 18:25:34:683,0,-11.907,-6.38089,59.0932,Q,Q
2023-03-14 18:25:34:693,0,-11.9299,-6.30522,59.0562,Q,Q
2023-03-14 18:25:34:703,0,-11.9464,-6.2263,59.0168,Q,Q
2023-03-14 18:25:34:713,0,-11.9628,-6.14588,58.9816,Q,Q
2023-03-14 18:25:34:723,0,-11.9835,-6.06626,58.9629,Q,Q
2023-03-14 18:25:34:733,0,-12.003,-5.9898,58.9537,Q,Q
2023-03-14 18:25:34:743,0,-12.0171,-5.9172,58.9602,Q,Q
2023-03-14 18:25:34:753,0,-12.027,-5.84135,58.9724,Q,Q
2023-03-14 18:25:34:763,0,-12.0331,-5.76642,58.993,Q,Q
2023-03-14 18:25:34:773,0,-12.0345,-5.69102,59.019,Q,Q
2023-03-14 18:25:34:783,0,-12.0394,-5.61399,59.0547,Q,Q
2023-03-14 18:25:34:793,0,-12.0418,-5.53913,59.0964,Q,Q
2023-03-14 18:25:34:803,0,-12.0349,-5.46985,59.1469,Q,Q
2023-03-14 18:25:34:813,0,-12.0112,-5.40684,59.2042,Q,Q
2023-03-14 18:25:34:823,0,-11.9719,-5.35399,59.2695,Q,Q
2023-03-14 18:25:34:833,0,-11.9181,-5.30753,59.3389,Q,Q
2023-03-14 18:25:34:843,0,-11.8548,-5.26918,59.4184,Q,Q
2023-03-14 18:25:34:853,0,-11.789,-5.24097,59.5048,Q,Q
2023-03-14 18:25:34:863,0,-11.7208,-5.21722,59.5958,Q,Q
2023-03-14 18:25:34:873,0,-11.6527,-5.20304,59.6865,Q,Q
2023-03-14 18:25:34:883,0,-11.59,-5.18942,59.7771,Q,Q
2023-03-14 18:25:34:893,0,-11.5298,-5.1716,59.8611,Q,Q
2023-03-14 18:25:34:903,0,-11.4692,-5.14565,59.9336,Q,Q
2023-03-14 18:25:34:913,0,-11.4011,-5.11767,59.9918,Q,Q
2023-03-14 18:25:34:923,0,-11.3201,-5.08816,60.0343,Q,Q
2023-03-14 18:25:34:933,0,-11.2364,-5.05959,60.0696,Q,Q
2023-03-14 18:25:34:943,0,-11.1563,-5.03195,60.0927,Q,Q
2023-03-14 18:25:34:953,0,-11.0909,-5.01018,60.1103,Q,Q
2023-03-14 18:25:34:963,0,-11.0389,-4.99305,60.1213,Q,Q
2023-03-14 18:25:34:973,0,-11.0057,-4.98438,60.1249,Q,Q
2023-03-14 18:25:34:983,0,-10.9861,-4.98574,60.1256,Q,Q
2023-03-14 18:25:34:993,0,-10.9777,-4.99223,60.114,Q,Q
2023-03-14 18:25:35:3,0,-10.9782,-5.0103,60.1022,Q,Q
2023-03-14 18:25:35:13,0,-10.9817,-5.04112,60.091,Q,Q
2023-03-14 18:25:35:23,0,-10.9749,-5.08306,60.0493,Q,Q
2023-03-14 18:25:35:33,0,-10.9657,-5.10012,60.0223,Q,Q
2023-03-14 18:25:35:43,0,-10.9598,-5.10851,60.0305,Q,Q
2023-03-14 18:25:35:53,0,-10.9643,-5.13645,60.0601,Q,Q
2023-03-14 18:25:35:63,0,-10.9813,-5.17539,60.0959,Q,Q
2023-03-14 18:25:35:73,0,-11.0188,-5.20826,60.1564,Q,Q
2023-03-14 18:25:35:83,0,-11.0547,-5.23911,60.2301,Q,Q
2023-03-14 18:25:35:93,0,-11.0782,-5.2813,60.3104,Q,Q
2023-03-14 18:25:35:103,0,-11.0913,-5.3203,60.3899,Q,Q
2023-03-14 18:25:35:113,0,-11.1047,-5.36538,60.4817,Q,Q
2023-03-14 18:25:35:123,0,-11.121,-5.40516,60.575,Q,Q
2023-03-14 18:25:35:133,0,-11.14,-5.44486,60.6741,Q,Q
2023-03-14 18:25:35:143,0,-11.1612,-5.48555,60.7733,Q,Q
2023-03-14 18:25:35:153,0,-11.1769,-5.52529,60.8447,Q,Q
2023-03-14 18:25:35:163,0,-11.1904,-5.56706,60.8877,Q,Q
2023-03-14 18:25:35:173,0,-11.2062,-5.58675,60.9047,Q,Q
2023-03-14 18:25:35:183,0,-11.2234,-5.59163,60.9023,Q,Q
2023-03-14 18:25:35:193,0,-11.2512,-5.59433,60.8762,Q,Q
2023-03-14 18:25:35:203,0,-11.2902,-5.59224,60.8351,Q,Q
2023-03-14 18:25:35:213,0,-11.3492,-5.58302,60.783,Q,Q
2023-03-14 18:25:35:223,0,-11.4354,-5.56899,60.7284,Q,Q
2023-03-14 18:25:35:233,0,-11.5412,-5.55116,60.6671,Q,Q
2023-03-14 18:25:35:243,0,-11.6655,-5.52162,60.5938,Q,Q
2023-03-14 18:25:35:253,0,-11.7956,-5.48498,60.5091,Q,Q
2023-03-14 18:25:35:263,0,-11.9279,-5.44289,60.4216,Q,Q
2023-03-14 18:25:35:273,0,-12.05,-5.39109,60.3208,Q,Q
2023-03-14 18:25:35:283,0,-12.1525,-5.33752,60.2176,Q,Q
2023-03-14 18:25:35:293,0,-12.2423,-5.28007,60.1203,Q,Q
2023-03-14 18:25:35:303,0,-12.3332,-5.21911,60.0357,Q,Q
2023-03-14 18:25:35:313,0,-12.4297,-5.15796,59.9709,Q,Q
2023-03-14 18:25:35:323,0,-12.5343,-5.0971,59.9238,Q,Q
2023-03-14 18:25:35:333,0,-12.6472,-5.04361,59.8949,Q,Q
2023-03-14 18:25:35:343,0,-12.7703,-4.99958,59.8854,Q,Q
2023-03-14 18:25:35:353,0,-12.9077,-4.96578,59.8931,Q,Q
2023-03-14 18:25:35:363,0,-13.0615,-4.94262,59.9135,Q,Q
2023-03-14 18:25:35:373,0,-13.2372,-4.936,59.9482,Q,Q
2023-03-14 18:25:35:383,0,-13.4192,-4.93922,59.9938,Q,Q
2023-03-14 18:25:35:393,0,-13.5793,-4.9485,60.0442,Q,Q
2023-03-14 18:25:35:403,0,-13.696,-4.95822,60.0967,Q,Q
2023-03-14 18:25:35:413,0,-13.7732,-4.95699,60.1282,Q,Q
2023-03-14 18:25:35:423,0,-13.8101,-4.94807,60.1458,Q,Q
2023-03-14 18:25:35:433,0,-13.826,-4.94887,60.1598,Q,Q
2023-03-14 18:25:35:443,0,-13.8258,-4.93598,60.1565,Q,Q
2023-03-14 18:25:35:453,0,-13.8216,-4.91237,60.1294,Q,Q
2023-03-14 18:25:35:463,0,-13.8146,-4.88544,60.0988,Q,Q
2023-03-14 18:25:35:473,0,-13.7942,-4.85343,60.0624,Q,Q
2023-03-14 18:25:35:483,0,-13.7615,-4.80841,60.0195,Q,Q
2023-03-14 18:25:35:493,0,-13.7112,-4.76106,59.9722,Q,Q
2023-03-14 18:25:35:503,0,-13.6558,-4.70653,59.9326,Q,Q
2023-03-14 18:25:35:513,0,-13.6112,-4.66055,59.9089,Q,Q
2023-03-14 18:25:35:523,0,-13.5857,-4.61998,59.8995,Q,Q
2023-03-14 18:25:35:533,0,-13.5765,-4.57871,59.9035,Q,Q
2023-03-14 18:25:35:543,0,-13.5665,-4.54323,59.9105,Q,Q
2023-03-14 18:25:35:553,0,-13.5522,-4.50815,59.9012,Q,Q
2023-03-14 18:25:35:563,0,-13.534,-4.47238,59.8872,Q,Q
2023-03-14 18:25:35:573,0,-13.5118,-4.44289,59.8837,Q,Q
2023-03-14 18:25:35:583,0,-13.4949,-4.42142,59.8818,Q,Q
2023-03-14 18:25:35:593,0,-13.4855,-4.40136,59.8721,Q,Q
2023-03-14 18:25:35:603,0,-13.475,-4.38067,59.8611,Q,Q
2023-03-14 18:25:35:613,0,-13.4583,-4.35559,59.8491,Q,Q
2023-03-14 18:25:35:623,0,-13.4372,-4.33247,59.8311,Q,Q
2023-03-14 18:25:35:633,0,-13.4173,-4.30386,59.8099,Q,Q
2023-03-14 18:25:35:643,0,-13.408,-4.27722,59.7922,Q,Q
2023-03-14 18:25:35:653,0,-13.4042,-4.24988,59.7826,Q,Q
2023-03-14 18:25:35:663,0,-13.3989,-4.22109,59.7855,Q,Q
2023-03-14 18:25:35:673,0,-13.3903,-4.19308,59.8102,Q,Q
2023-03-14 18:25:35:683,0,-13.3718,-4.16317,59.8538,Q,Q
2023-03-14 18:25:35:693,0,-13.3506,-4.12747,59.9019,Q,Q
2023-03-14 18:25:35:703,0,-13.3264,-4.08724,59.9542,Q,Q
2023-03-14 18:25:35:713,0,-13.2992,-4.03529,60.0098,Q,Q
2023-03-14 18:25:35:723,0,-13.2691,-3.97515,60.0665,Q,Q
2023-03-14 18:25:35:733,0,-13.239,-3.915,60.1288,Q,Q
2023-03-14 18:25:35:743,0,-13.2123,-3.86021,60.1981,Q,Q
2023-03-14 18:25:35:753,0,-13.1873,-3.80661,60.2745,Q,Q
2023-03-14 18:25:35:763,0,-13.1612,-3.76721,60.3648,Q,Q
2023-03-14 18:25:35:773,0,-13.1303,-3.74341,60.4692,Q,Q
2023-03-14 18:25:35:783,0,-13.0963,-3.72436,60.5865,Q,Q
2023-03-14 18:25:35:793,0,-13.0485,-3.70482,60.7145,Q,Q
2023-03-14 18:25:35:803,0,-12.9894,-3.6859,60.845,Q,Q
2023-03-14 18:25:35:813,0,-12.9229,-3.67078,60.9897,Q,Q
2023-03-14 18:25:35:823,0,-12.8444,-3.65686,61.1421,Q,Q
2023-03-14 18:25:35:833,0,-12.7572,-3.64158,61.3011,Q,Q
2023-03-14 18:25:35:843,0,-12.6676,-3.6242,61.4687,Q,Q
2023-03-14 18:25:35:853,0,-12.5761,-3.59974,61.6377,Q,Q
2023-03-14 18:25:35:863,0,-12.4806,-3.56622,61.8071,Q,Q
2023-03-14 18:25:35:873,0,-12.3869,-3.531,61.9717,Q,Q
2023-03-14 18:25:35:883,0,-12.2968,-3.4975,62.1374,Q,Q
2023-03-14 18:25:35:893,0,-12.2195,-3.46928,62.3089,Q,Q
2023-03-14 18:25:35:903,0,-12.1464,-3.45246,62.484,Q,Q
2023-03-14 18:25:35:913,0,-12.0816,-3.43938,62.6626,Q,Q
2023-03-14 18:25:35:923,0,-12.0151,-3.43274,62.8383,Q,Q
2023-03-14 18:25:35:933,0,-11.9454,-3.42415,63.0064,Q,Q
2023-03-14 18:25:35:943,0,-11.8731,-3.42644,63.1697,Q,Q
2023-03-14 18:25:35:953,0,-11.8002,-3.43329,63.3241,Q,Q
2023-03-14 18:25:35:963,0,-11.7303,-3.44652,63.4651,Q,Q
2023-03-14 18:25:35:973,0,-11.6607,-3.4739,63.6016,Q,Q
2023-03-14 18:25:35:983,0,-11.6035,-3.50926,63.726,Q,Q
2023-03-14 18:25:35:993,0,-11.5608,-3.54928,63.8408,Q,Q
2023-03-14 18:25:36:3,0,-11.5295,-3.59309,63.9438,Q,Q
2023-03-14 18:25:36:13,0,-11.5091,-3.63723,64.0378,Q,Q
2023-03-14 18:25:36:23,0,-11.4981,-3.68257,64.1246,Q,Q
2023-03-14 18:25:36:33,0,-11.4903,-3.72709,64.2023,Q,Q
2023-03-14 18:25:36:43,0,-11.4831,-3.77614,64.2681,Q,Q
2023-03-14 18:25:36:53,0,-11.4711,-3.82591,64.3266,Q,Q
2023-03-14 18:25:36:63,0,-11.4583,-3.87416,64.3803,Q,Q
2023-03-14 18:25:36:73,0,-11.4501,-3.92557,64.4247,Q,Q
2023-03-14 18:25:36:83,0,-11.4391,-3.97914,64.4606,Q,Q
2023-03-14 18:25:36:93,0,-11.431,-4.02491,64.4844,Q,Q
2023-03-14 18:25:36:103,0,-11.4228,-4.06981,64.4966,Q,Q
2023-03-14 18:25:36:113,0,-11.4114,-4.10559,64.4944,Q,Q
2023-03-14 18:25:36:123,0,-11.3985,-4.13166,64.4825,Q,Q
2023-03-14 18:25:36:133,0,-11.382,-4.15732,64.4654,Q,Q
2023-03-14 18:25:36:143,0,-11.3638,-4.17701,64.4418,Q,Q
2023-03-14 18:25:36:153,0,-11.3507,-4.19179,64.4146,Q,Q
2023-03-14 18:25:36:163,0,-11.3422,-4.20203,64.3864,Q,Q
2023-03-14 18:25:36:173,0,-11.3369,-4.20943,64.3575,Q,Q
2023-03-14 18:25:36:183,0,-11.3368,-4.21497,64.3298,Q,Q
2023-03-14 18:25:36:193,0,-11.3377,-4.21927,64.3017,Q,Q
2023-03-14 18:25:36:203,0,-11.3388,-4.21923,64.2668,Q,Q
2023-03-14 18:25:36:213,0,-11.3371,-4.2129,64.2276,Q,Q
2023-03-14 18:25:36:223,0,-11.3325,-4.20812,64.1796,Q,Q
2023-03-14 18:25:36:233,0,-11.3325,-4.2023,64.1254,Q,Q
2023-03-14 18:25:36:243,0,-11.331,-4.19092,64.0604,Q,Q
2023-03-14 18:25:36:253,0,-11.3349,-4.17516,63.9893,Q,Q
2023-03-14 18:25:36:263,0,-11.3361,-4.15758,63.9083,Q,Q
2023-03-14 18:25:36:273,0,-11.3351,-4.13727,63.8279,Q,Q
2023-03-14 18:25:36:283,0,-11.3275,-4.11516,63.7441,Q,Q
2023-03-14 18:25:36:293,0,-11.3205,-4.09365,63.6605,Q,Q
2023-03-14 18:25:36:303,0,-11.3097,-4.07339,63.582,Q,Q
2023-03-14 18:25:36:313,0,-11.2996,-4.04935,63.5057,Q,Q
2023-03-14 18:25:36:323,0,-11.2863,-4.02445,63.4366,Q,Q
2023-03-14 18:25:36:333,0,-11.2757,-3.9967,63.3799,Q,Q
2023-03-14 18:25:36:343,0,-11.266,-3.9683,63.3349,Q,Q
2023-03-14 18:25:36:353,0,-11.2598,-3.93729,63.3048,Q,Q
2023-03-14 18:25:36:363,0,-11.2535,-3.9049,63.2874,Q,Q
2023-03-14 18:25:36:373,0,-11.2427,-3.87688,63.2812,Q,Q
2023-03-14 18:25:36:383,0,-11.2309,-3.84463,63.2832,Q,Q
2023-03-14 18:25:36:393,0,-11.2184,-3.80712,63.2833,Q,Q
2023-03-14 18:25:36:403,0,-11.205,-3.77218,63.2865,Q,Q
2023-03-14 18:25:36:413,0,-11.1881,-3.73837,63.2838,Q,Q
2023-03-14 18:25:36:423,0,-11.1708,-3.70736,63.2727,Q,Q
2023-03-14 18:25:36:433,0,-11.1515,-3.68044,63.2628,Q,Q
2023-03-14 18:25:36:443,0,-11.1363,-3.65629,63.2543,Q,Q
2023-03-14 18:25:36:453,0,-11.1235,-3.6477,63.2459,Q,Q
2023-03-14 18:25:36:463,0,-11.1171,-3.64974,63.2422,Q,Q
2023-03-14 18:25:36:473,0,-11.1206,-3.65764,63.2463,Q,Q
2023-03-14 18:25:36:483,0,-11.1304,-3.67232,63.2545,Q,Q
2023-03-14 18:25:36:493,0,-11.14,-3.68746,63.2627,Q,Q
2023-03-14 18:25:36:503,0,-11.1477,-3.70904,63.2723,Q,Q
2023-03-14 18:25:36:513,0,-11.151,-3.73298,63.2837,Q,Q
2023-03-14 18:25:36:523,0,-11.1489,-3.75726,63.2989,Q,Q
2023-03-14 18:25:36:533,0,-11.1459,-3.7889,63.3226,Q,Q
2023-03-14 18:25:36:543,0,-11.137,-3.81406,63.3527,Q,Q
2023-03-14 18:25:36:553,0,-11.1161,-3.83654,63.3885,Q,Q
2023-03-14 18:25:36:563,0,-11.0825,-3.85863,63.4337,Q,Q
2023-03-14 18:25:36:573,0,-11.0375,-3.87364,63.4812,Q,Q
2023-03-14 18:25:36:583,0,-10.982,-3.88802,63.5273,Q,Q
2023-03-14 18:25:36:593,0,-10.9205,-3.90178,63.5664,Q,Q
2023-03-14 18:25:36:603,0,-10.8458,-3.91522,63.6014,Q,Q
2023-03-14 18:25:36:613,0,-10.7615,-3.93028,63.6322,Q,Q
2023-03-14 18:25:36:623,0,-10.6657,-3.94612,63.6612,Q,Q
2023-03-14 18:25:36:633,0,-10.5603,-3.96165,63.684,Q,Q
2023-03-14 18:25:36:643,0,-10.4543,-3.97598,63.7006,Q,Q
2023-03-14 18:25:36:653,0,-10.3503,-3.9916,63.7202,Q,Q
2023-03-14 18:25:36:663,0,-10.2578,-4.01374,63.7361,Q,Q
2023-03-14 18:25:36:673,0,-10.1669,-4.04725,63.7558,Q,Q
2023-03-14 18:25:36:683,0,-10.0809,-4.08778,63.7802,Q,Q
2023-03-14 18:25:36:693,0,-9.99862,-4.13378,63.8105,Q,Q
2023-03-14 18:25:36:703,0,-9.92568,-4.18403,63.8442,Q,Q
2023-03-14 18:25:36:713,0,-9.85518,-4.23935,63.8804,Q,Q
2023-03-14 18:25:36:723,0,-9.79302,-4.29871,63.9234,Q,Q
2023-03-14 18:25:36:733,0,-9.74471,-4.35322,63.9694,Q,Q
2023-03-14 18:25:36:743,0,-9.71044,-4.40587,64.0177,Q,Q
2023-03-14 18:25:36:753,0,-9.68915,-4.45391,64.0602,Q,Q
2023-03-14 18:25:36:763,0,-9.6815,-4.49241,64.106,Q,Q
2023-03-14 18:25:36:773,0,-9.68847,-4.52325,64.1503,Q,Q
2023-03-14 18:25:36:783,0,-9.71347,-4.54455,64.1963,Q,Q
2023-03-14 18:25:36:793,0,-9.75027,-4.55335,64.2303,Q,Q
2023-03-14 18:25:36:803,0,-9.79331,-4.56018,64.2536,Q,Q
2023-03-14 18:25:36:813,0,-9.8428,-4.57099,64.2792,Q,Q
2023-03-14 18:25:36:823,0,-9.8968,-4.58383,64.312,Q,Q
2023-03-14 18:25:36:833,0,-9.94713,-4.60853,64.3542,Q,Q
2023-03-14 18:25:36:843,0,-9.9926,-4.63592,64.3995,Q,Q
2023-03-14 18:25:36:853,0,-10.0359,-4.66053,64.4397,Q,Q
2023-03-14 18:25:36:863,0,-10.069,-4.68135,64.473,Q,Q
2023-03-14 18:25:36:873,0,-10.0859,-4.6919,64.4879,Q,Q
2023-03-14 18:25:36:883,0,-10.0836,-4.69712,64.4793,Q,Q
2023-03-14 18:25:36:893,0,-10.0684,-4.69982,64.453,Q,Q
2023-03-14 18:25:36:903,0,-10.0442,-4.70474,64.4167,Q,Q
2023-03-14 18:25:36:913,0,-10.0143,-4.72102,64.3747,Q,Q
2023-03-14 18:25:36:923,0,-9.98614,-4.76356,64.3452,Q,Q
2023-03-14 18:25:36:933,0,-9.97497,-4.81726,64.3363,Q,Q
2023-03-14 18:25:36:943,0,-9.98278,-4.88477,64.3379,Q,Q
2023-03-14 18:25:36:953,0,-9.98339,-4.95479,64.3337,Q,Q
2023-03-14 18:25:36:963,0,-9.96288,-5.01858,64.3345,Q,Q
2023-03-14 18:25:36:973,0,-9.93862,-5.08285,64.3407,Q,Q
2023-03-14 18:25:36:983,0,-9.91525,-5.15059,64.3618,Q,Q
2023-03-14 18:25:36:993,0,-9.9042,-5.2099,64.3871,Q,Q
2023-03-14 18:25:37:3,0,-9.89644,-5.25938,64.4095,Q,Q
2023-03-14 18:25:37:13,0,-9.88251,-5.29554,64.4258,Q,Q
2023-03-14 18:25:37:23,0,-9.86468,-5.31571,64.4347,Q,Q
2023-03-14 18:25:37:33,0,-9.84749,-5.33057,64.4348,Q,Q
