Timestamp_cmd,imu_cmd,roll_delta,pitch_delta,yaw_delta
2023-03-11 18:04:02:734,0,-6.72719,-1.34658,87.7113
2023-03-11 18:04:02:742,0,-6.74544,-1.35373,87.7359
2023-03-11 18:04:02:752,0,-6.75866,-1.36262,87.755
2023-03-11 18:04:02:762,0,-6.76764,-1.38179,87.7667
2023-03-11 18:04:02:772,0,-6.76819,-1.40302,87.7733
2023-03-11 18:04:02:782,0,-6.75782,-1.42868,87.7739
2023-03-11 18:04:02:792,0,-6.72977,-1.45577,87.7681
2023-03-11 18:04:02:802,0,-6.69219,-1.47746,87.7527
2023-03-11 18:04:02:812,0,-6.64204,-1.48908,87.7321
2023-03-11 18:04:02:822,0,-6.59099,-1.49164,87.7115
2023-03-11 18:04:02:832,0,-6.53708,-1.48865,87.6923
2023-03-11 18:04:02:842,0,-6.49042,-1.48006,87.6795
2023-03-11 18:04:02:852,0,-6.45273,-1.46317,87.6675
2023-03-11 18:04:02:862,0,-6.42406,-1.43972,87.6567
2023-03-11 18:04:02:872,0,-6.39895,-1.40638,87.647
2023-03-11 18:04:02:882,0,-6.37019,-1.36611,87.6322
2023-03-11 18:04:02:892,0,-6.34255,-1.31401,87.6201
2023-03-11 18:04:02:902,0,-6.32099,-1.2591,87.6071
2023-03-11 18:04:02:912,0,-6.3098,-1.20781,87.5943
2023-03-11 18:04:02:922,0,-6.31556,-1.16902,87.5851
2023-03-11 18:04:02:932,0,-6.33762,-1.13599,87.5764
2023-03-11 18:04:02:942,0,-6.37239,-1.11157,87.5719
2023-03-11 18:04:02:952,0,-6.41361,-1.09553,87.5676
2023-03-11 18:04:02:962,0,-6.45725,-1.09144,87.5615
2023-03-11 18:04:02:972,0,-6.49821,-1.09024,87.56
2023-03-11 18:04:02:982,0,-6.53054,-1.0911,87.5621
2023-03-11 18:04:02:992,0,-6.54944,-1.09829,87.5726
2023-03-11 18:04:03:2,0,-6.55964,-1.10646,87.586
2023-03-11 18:04:03:12,0,-6.56675,-1.11739,87.6031
2023-03-11 18:04:03:22,0,-6.57686,-1.13198,87.6221
2023-03-11 18:04:03:32,0,-6.58911,-1.14882,87.6381
2023-03-11 18:04:03:42,0,-6.6066,-1.16236,87.6543
2023-03-11 18:04:03:52,0,-6.61873,-1.17472,87.6704
2023-03-11 18:04:03:62,0,-6.62534,-1.18892,87.6835
2023-03-11 18:04:03:72,0,-6.62919,-1.20157,87.6941
2023-03-11 18:04:03:82,0,-6.62599,-1.21379,87.7024
2023-03-11 18:04:03:92,0,-6.61723,-1.22451,87.7076
2023-03-11 18:04:03:102,0,-6.60616,-1.23781,87.7112
2023-03-11 18:04:03:112,0,-6.5923,-1.24992,87.7129
2023-03-11 18:04:03:122,0,-6.57937,-1.25928,87.7153
2023-03-11 18:04:03:132,0,-6.56964,-1.26833,87.7161
2023-03-11 18:04:03:142,0,-6.56782,-1.28203,87.7204
2023-03-11 18:04:03:152,0,-6.56929,-1.29036,87.7268
2023-03-11 18:04:03:162,0,-6.57359,-1.29923,87.7342
2023-03-11 18:04:03:172,0,-6.5729,-1.30764,87.7433
2023-03-11 18:04:03:182,0,-6.57236,-1.31429,87.7557
2023-03-11 18:04:03:192,0,-6.57649,-1.32022,87.7663
2023-03-11 18:04:03:202,0,-6.57975,-1.32126,87.7759
2023-03-11 18:04:03:212,0,-6.58556,-1.32867,87.7857
2023-03-11 18:04:03:222,0,-6.58859,-1.3304,87.7916
2023-03-11 18:04:03:232,0,-6.58609,-1.33274,87.798
2023-03-11 18:04:03:242,0,-6.58474,-1.33666,87.8062
2023-03-11 18:04:03:252,0,-6.58383,-1.33973,87.8145
2023-03-11 18:04:03:262,0,-6.58695,-1.34306,87.8184
2023-03-11 18:04:03:272,0,-6.5945,-1.34196,87.8172
2023-03-11 18:04:03:282,0,-6.59883,-1.33774,87.8149
2023-03-11 18:04:03:292,0,-6.59752,-1.33715,87.8088
2023-03-11 18:04:03:302,0,-6.59562,-1.3389,87.8038
2023-03-11 18:04:03:312,0,-6.5901,-1.33616,87.7945
2023-03-11 18:04:03:322,0,-6.58129,-1.3366,87.787
2023-03-11 18:04:03:332,0,-6.57717,-1.34313,87.7785
2023-03-11 18:04:03:342,0,-6.57753,-1.34957,87.7696
2023-03-11 18:04:03:352,0,-6.57988,-1.36037,87.7635
2023-03-11 18:04:03:362,0,-6.58216,-1.36952,87.7586
2023-03-11 18:04:03:372,0,-6.58096,-1.37495,87.752
2023-03-11 18:04:03:382,0,-6.57726,-1.3794,87.7465
2023-03-11 18:04:03:392,0,-6.5717,-1.3807,87.7375
2023-03-11 18:04:03:402,0,-6.56502,-1.37798,87.7302
2023-03-11 18:04:03:412,0,-6.55242,-1.36971,87.7216
2023-03-11 18:04:03:422,0,-6.54552,-1.36048,87.7136
2023-03-11 18:04:03:432,0,-6.53805,-1.34925,87.7107
2023-03-11 18:04:03:442,0,-6.54,-1.34844,87.7096
2023-03-11 18:04:03:452,0,-6.54505,-1.34913,87.7154
2023-03-11 18:04:03:462,0,-6.55272,-1.35885,87.7294
2023-03-11 18:04:03:472,0,-6.57308,-1.37684,87.7507
2023-03-11 18:04:03:482,0,-6.5941,-1.40664,87.7787
2023-03-11 18:04:03:492,0,-6.61456,-1.43926,87.8081
2023-03-11 18:04:03:502,0,-6.63025,-1.47422,87.8411
2023-03-11 18:04:03:512,0,-6.63377,-1.51517,87.8659
2023-03-11 18:04:03:522,0,-6.62553,-1.54945,87.8824
2023-03-11 18:04:03:532,0,-6.60778,-1.57744,87.8888
2023-03-11 18:04:03:542,0,-6.58004,-1.60251,87.8864
2023-03-11 18:04:03:552,0,-6.55458,-1.61917,87.8825
2023-03-11 18:04:03:562,0,-6.53784,-1.63465,87.8719
2023-03-11 18:04:03:572,0,-6.53341,-1.64619,87.8625
2023-03-11 18:04:03:582,0,-6.54409,-1.65269,87.857
2023-03-11 18:04:03:592,0,-6.56869,-1.65755,87.8548
2023-03-11 18:04:03:602,0,-6.59429,-1.6603,87.8609
2023-03-11 18:04:03:612,0,-6.61549,-1.66358,87.8704
2023-03-11 18:04:03:622,0,-6.63591,-1.67125,87.8804
2023-03-11 18:04:03:632,0,-6.65551,-1.68159,87.898
2023-03-11 18:04:03:642,0,-6.6681,-1.69316,87.9186
2023-03-11 18:04:03:652,0,-6.67975,-1.70572,87.9401
2023-03-11 18:04:03:662,0,-6.68883,-1.71895,87.9622
2023-03-11 18:04:03:672,0,-6.70599,-1.73106,87.9864
2023-03-11 18:04:03:682,0,-6.72488,-1.74678,88.0098
2023-03-11 18:04:03:692,0,-6.74844,-1.75985,88.031
2023-03-11 18:04:03:702,0,-6.76977,-1.77785,88.0492
2023-03-11 18:04:03:712,0,-6.78601,-1.80428,88.0621
2023-03-11 18:04:03:722,0,-6.80088,-1.83198,88.0716
2023-03-11 18:04:03:732,0,-6.80847,-1.86471,88.0838
2023-03-11 18:04:03:742,0,-6.80964,-1.8964,88.0962
2023-03-11 18:04:03:752,0,-6.80905,-1.92684,88.1059
2023-03-11 18:04:03:762,0,-6.8083,-1.9581,88.1195
2023-03-11 18:04:03:772,0,-6.80664,-1.9856,88.134
2023-03-11 18:04:03:782,0,-6.80543,-2.0157,88.1544
2023-03-11 18:04:03:792,0,-6.80625,-2.04107,88.1754
2023-03-11 18:04:03:802,0,-6.80774,-2.06586,88.1968
2023-03-11 18:04:03:812,0,-6.8065,-2.08832,88.2188
2023-03-11 18:04:03:822,0,-6.80487,-2.10974,88.2396
2023-03-11 18:04:03:832,0,-6.80287,-2.12473,88.2599
2023-03-11 18:04:03:842,0,-6.80523,-2.13665,88.2795
2023-03-11 18:04:03:852,0,-6.81216,-2.15102,88.2924
2023-03-11 18:04:03:862,0,-6.81624,-2.16482,88.3061
2023-03-11 18:04:03:872,0,-6.82025,-2.17391,88.3205
2023-03-11 18:04:03:882,0,-6.82134,-2.18444,88.3319
2023-03-11 18:04:03:892,0,-6.82882,-2.19615,88.3394
2023-03-11 18:04:03:902,0,-6.83943,-2.20635,88.3429
2023-03-11 18:04:03:912,0,-6.84848,-2.21379,88.3458
2023-03-11 18:04:03:922,0,-6.85951,-2.2168,88.3496
2023-03-11 18:04:03:932,0,-6.86813,-2.22184,88.3533
2023-03-11 18:04:03:942,0,-6.87867,-2.22531,88.3588
2023-03-11 18:04:03:952,0,-6.89257,-2.22831,88.3612
2023-03-11 18:04:03:962,0,-6.90525,-2.22922,88.3646
2023-03-11 18:04:03:972,0,-6.91533,-2.23094,88.3683
2023-03-11 18:04:03:982,0,-6.92751,-2.23311,88.3725
2023-03-11 18:04:03:992,0,-6.94026,-2.23103,88.3772
2023-03-11 18:04:04:2,0,-6.94681,-2.23182,88.388
2023-03-11 18:04:04:12,0,-6.94589,-2.23194,88.396
2023-03-11 18:04:04:22,0,-6.93973,-2.23203,88.4052
2023-03-11 18:04:04:32,0,-6.92602,-2.23542,88.4098
2023-03-11 18:04:04:42,0,-6.91007,-2.23908,88.4094
2023-03-11 18:04:04:52,0,-6.89346,-2.23929,88.407
2023-03-11 18:04:04:62,0,-6.87267,-2.23837,88.4015
2023-03-11 18:04:04:72,0,-6.8507,-2.23625,88.3939
2023-03-11 18:04:04:82,0,-6.83332,-2.23509,88.3862
2023-03-11 18:04:04:92,0,-6.81925,-2.23219,88.3752
2023-03-11 18:04:04:102,0,-6.80711,-2.22623,88.3592
2023-03-11 18:04:04:112,0,-6.79127,-2.21668,88.3415
2023-03-11 18:04:04:122,0,-6.77097,-2.20878,88.3244
2023-03-11 18:04:04:132,0,-6.74671,-2.19462,88.3083
2023-03-11 18:04:04:142,0,-6.72249,-2.17799,88.2922
2023-03-11 18:04:04:152,0,-6.69671,-2.156,88.2765
2023-03-11 18:04:04:162,0,-6.67441,-2.13205,88.2616
2023-03-11 18:04:04:172,0,-6.65352,-2.10884,88.2541
2023-03-11 18:04:04:182,0,-6.6352,-2.07912,88.2391
2023-03-11 18:04:04:192,0,-6.62009,-2.05401,88.23
2023-03-11 18:04:04:202,0,-6.60824,-2.03027,88.2218
2023-03-11 18:04:04:212,0,-6.59946,-2.01161,88.2135
2023-03-11 18:04:04:222,0,-6.59219,-1.99996,88.2088
2023-03-11 18:04:04:232,0,-6.58404,-1.9955,88.2004
2023-03-11 18:04:04:242,0,-6.57451,-1.99425,88.1897
2023-03-11 18:04:04:252,0,-6.56407,-1.99812,88.1747
2023-03-11 18:04:04:262,0,-6.55038,-2.0047,88.1578
2023-03-11 18:04:04:272,0,-6.52692,-2.01252,88.1385
2023-03-11 18:04:04:282,0,-6.50562,-2.01822,88.1165
2023-03-11 18:04:04:292,0,-6.47878,-2.02198,88.0936
2023-03-11 18:04:04:302,0,-6.45652,-2.02522,88.0741
2023-03-11 18:04:04:312,0,-6.43583,-2.02563,88.0577
2023-03-11 18:04:04:322,0,-6.42255,-2.02762,88.0434
2023-03-11 18:04:04:332,0,-6.41069,-2.0278,88.0326
2023-03-11 18:04:04:342,0,-6.40019,-2.02555,88.0286
2023-03-11 18:04:04:352,0,-6.39157,-2.02448,88.0273
2023-03-11 18:04:04:362,0,-6.37763,-2.02097,88.0261
2023-03-11 18:04:04:372,0,-6.36192,-2.01618,88.0257
2023-03-11 18:04:04:382,0,-6.34677,-2.01093,88.0278
2023-03-11 18:04:04:392,0,-6.33305,-1.99765,88.0301
2023-03-11 18:04:04:402,0,-6.32386,-1.98909,88.0309
2023-03-11 18:04:04:412,0,-6.31487,-1.98219,88.0355
2023-03-11 18:04:04:422,0,-6.31481,-1.98101,88.0457
2023-03-11 18:04:04:432,0,-6.32165,-1.98429,88.0628
2023-03-11 18:04:04:442,0,-6.33083,-1.99325,88.0813
2023-03-11 18:04:04:452,0,-6.3447,-2.00846,88.1014
2023-03-11 18:04:04:462,0,-6.36054,-2.02496,88.1273
2023-03-11 18:04:04:472,0,-6.37146,-2.04438,88.1537
2023-03-11 18:04:04:482,0,-6.38176,-2.06335,88.1822
2023-03-11 18:04:04:492,0,-6.38794,-2.08322,88.2118
2023-03-11 18:04:04:502,0,-6.39271,-2.10531,88.2385
2023-03-11 18:04:04:512,0,-6.39054,-2.12584,88.2614
2023-03-11 18:04:04:522,0,-6.38608,-2.14062,88.2793
2023-03-11 18:04:04:532,0,-6.37594,-2.15882,88.2924
2023-03-11 18:04:04:542,0,-6.35975,-2.17043,88.3017
2023-03-11 18:04:04:552,0,-6.34245,-2.18402,88.3104
2023-03-11 18:04:04:562,0,-6.32193,-2.19765,88.3116
2023-03-11 18:04:04:572,0,-6.2984,-2.20983,88.3132
2023-03-11 18:04:04:582,0,-6.27225,-2.22309,88.3142
2023-03-11 18:04:04:592,0,-6.24847,-2.23706,88.3152
2023-03-11 18:04:04:602,0,-6.22465,-2.24957,88.3157
2023-03-11 18:04:04:612,0,-6.20218,-2.25839,88.3124
2023-03-11 18:04:04:622,0,-6.18983,-2.26861,88.3075
2023-03-11 18:04:04:632,0,-6.1861,-2.27424,88.2997
2023-03-11 18:04:04:642,0,-6.18366,-2.28134,88.2899
2023-03-11 18:04:04:652,0,-6.18636,-2.28741,88.2799
2023-03-11 18:04:04:662,0,-6.1947,-2.29238,88.2699
2023-03-11 18:04:04:672,0,-6.20059,-2.29721,88.2607
2023-03-11 18:04:04:682,0,-6.20961,-2.30012,88.2525
2023-03-11 18:04:04:692,0,-6.21901,-2.30302,88.2451
2023-03-11 18:04:04:702,0,-6.22987,-2.30421,88.2376
2023-03-11 18:04:04:712,0,-6.23981,-2.30506,88.2296
2023-03-11 18:04:04:722,0,-6.24946,-2.30759,88.2246
2023-03-11 18:04:04:732,0,-6.25908,-2.31379,88.2234
2023-03-11 18:04:04:742,0,-6.26957,-2.32357,88.2257
2023-03-11 18:04:04:752,0,-6.27845,-2.33397,88.229
2023-03-11 18:04:04:762,0,-6.28901,-2.34703,88.2359
2023-03-11 18:04:04:772,0,-6.30156,-2.35861,88.2459
2023-03-11 18:04:04:782,0,-6.31136,-2.37078,88.2593
2023-03-11 18:04:04:792,0,-6.32182,-2.3822,88.2712
2023-03-11 18:04:04:802,0,-6.33287,-2.39037,88.2803
2023-03-11 18:04:04:812,0,-6.34131,-2.40372,88.2918
2023-03-11 18:04:04:822,0,-6.35313,-2.42042,88.308
2023-03-11 18:04:04:832,0,-6.36718,-2.43768,88.3236
2023-03-11 18:04:04:842,0,-6.38368,-2.45654,88.338
2023-03-11 18:04:04:852,0,-6.3993,-2.47509,88.3541
2023-03-11 18:04:04:862,0,-6.41797,-2.49365,88.3692
2023-03-11 18:04:04:872,0,-6.43527,-2.51034,88.3804
2023-03-11 18:04:04:882,0,-6.45459,-2.52803,88.3904
2023-03-11 18:04:04:892,0,-6.47088,-2.54639,88.4005
2023-03-11 18:04:04:902,0,-6.48522,-2.55911,88.4125
2023-03-11 18:04:04:912,0,-6.50291,-2.57669,88.4216
2023-03-11 18:04:04:922,0,-6.51363,-2.58918,88.4282
2023-03-11 18:04:04:932,0,-6.52449,-2.60206,88.435
2023-03-11 18:04:04:942,0,-6.53298,-2.6157,88.4411
2023-03-11 18:04:04:952,0,-6.53987,-2.62366,88.4472
2023-03-11 18:04:04:962,0,-6.55031,-2.62726,88.4518
2023-03-11 18:04:04:972,0,-6.56121,-2.63275,88.4523
2023-03-11 18:04:04:982,0,-6.56776,-2.64085,88.4528
2023-03-11 18:04:04:992,0,-6.57,-2.64803,88.4553
2023-03-11 18:04:05:2,0,-6.56984,-2.65845,88.4591
2023-03-11 18:04:05:12,0,-6.56282,-2.66542,88.4638
2023-03-11 18:04:05:22,0,-6.54568,-2.672,88.4688
2023-03-11 18:04:05:32,0,-6.51537,-2.67321,88.4772
2023-03-11 18:04:05:42,0,-6.4887,-2.67042,88.4818
2023-03-11 18:04:05:52,0,-6.46207,-2.66842,88.4842
2023-03-11 18:04:05:62,0,-6.42697,-2.6673,88.4905
2023-03-11 18:04:05:72,0,-6.40045,-2.66683,88.4891
2023-03-11 18:04:05:82,0,-6.37295,-2.66595,88.4845
2023-03-11 18:04:05:92,0,-6.34728,-2.66661,88.477
2023-03-11 18:04:05:102,0,-6.32678,-2.66886,88.4658
2023-03-11 18:04:05:112,0,-6.30683,-2.67026,88.4494
2023-03-11 18:04:05:122,0,-6.28663,-2.67499,88.4329
2023-03-11 18:04:05:132,0,-6.26618,-2.68044,88.4158
2023-03-11 18:04:05:142,0,-6.25282,-2.68779,88.4
2023-03-11 18:04:05:152,0,-6.23997,-2.69443,88.3882
2023-03-11 18:04:05:162,0,-6.23078,-2.70606,88.3795
2023-03-11 18:04:05:172,0,-6.22213,-2.71152,88.3755
2023-03-11 18:04:05:182,0,-6.21661,-2.72294,88.3766
2023-03-11 18:04:05:192,0,-6.21046,-2.73339,88.3762
2023-03-11 18:04:05:202,0,-6.20531,-2.74566,88.3829
2023-03-11 18:04:05:212,0,-6.20463,-2.75536,88.3926
2023-03-11 18:04:05:222,0,-6.20468,-2.77001,88.4036
2023-03-11 18:04:05:232,0,-6.20613,-2.78269,88.414
2023-03-11 18:04:05:242,0,-6.20686,-2.79518,88.4256
2023-03-11 18:04:05:252,0,-6.21142,-2.81188,88.4349
2023-03-11 18:04:05:262,0,-6.2143,-2.82532,88.447
2023-03-11 18:04:05:272,0,-6.22141,-2.84068,88.4563
2023-03-11 18:04:05:282,0,-6.22692,-2.85742,88.464
2023-03-11 18:04:05:292,0,-6.23577,-2.87386,88.4736
2023-03-11 18:04:05:302,0,-6.24958,-2.88714,88.4833
2023-03-11 18:04:05:312,0,-6.26266,-2.90127,88.494
2023-03-11 18:04:05:322,0,-6.27643,-2.92014,88.502
2023-03-11 18:04:05:332,0,-6.2875,-2.94305,88.5117
2023-03-11 18:04:05:342,0,-6.29725,-2.96147,88.5246
2023-03-11 18:04:05:352,0,-6.3076,-2.97838,88.5342
2023-03-11 18:04:05:362,0,-6.31798,-2.99548,88.5438
2023-03-11 18:04:05:372,0,-6.32882,-3.00794,88.5566
2023-03-11 18:04:05:382,0,-6.34179,-3.02241,88.565
2023-03-11 18:04:05:392,0,-6.35891,-3.03283,88.5724
2023-03-11 18:04:05:402,0,-6.3771,-3.04273,88.5812
2023-03-11 18:04:05:412,0,-6.40753,-3.04425,88.5883
2023-03-11 18:04:05:422,0,-6.43933,-3.04484,88.5931
2023-03-11 18:04:05:432,0,-6.46678,-3.04781,88.6006
2023-03-11 18:04:05:442,0,-6.48715,-3.04158,88.6055
2023-03-11 18:04:05:452,0,-6.49935,-3.03616,88.6119
2023-03-11 18:04:05:462,0,-6.49927,-3.02706,88.6201
2023-03-11 18:04:05:472,0,-6.49286,-3.01379,88.6282
2023-03-11 18:04:05:482,0,-6.4792,-3.00228,88.6394
2023-03-11 18:04:05:492,0,-6.46534,-2.99242,88.6527
2023-03-11 18:04:05:502,0,-6.45255,-2.98125,88.6608
2023-03-11 18:04:05:512,0,-6.43974,-2.97419,88.6667
2023-03-11 18:04:05:522,0,-6.42871,-2.97055,88.6648
2023-03-11 18:04:05:532,0,-6.42022,-2.96994,88.6601
2023-03-11 18:04:05:542,0,-6.41541,-2.96919,88.6501
2023-03-11 18:04:05:552,0,-6.41004,-2.9715,88.6409
2023-03-11 18:04:05:562,0,-6.40802,-2.97408,88.6273
2023-03-11 18:04:05:572,0,-6.40132,-2.98214,88.6074
2023-03-11 18:04:05:582,0,-6.39219,-2.9967,88.5935
2023-03-11 18:04:05:592,0,-6.38381,-3.01121,88.5825
2023-03-11 18:04:05:602,0,-6.37718,-3.02668,88.5834
2023-03-11 18:04:05:612,0,-6.37314,-3.04185,88.5897
2023-03-11 18:04:05:622,0,-6.37178,-3.05643,88.6027
2023-03-11 18:04:05:632,0,-6.37403,-3.06762,88.6234
2023-03-11 18:04:05:642,0,-6.37762,-3.07809,88.649
2023-03-11 18:04:05:652,0,-6.38582,-3.08744,88.6717
2023-03-11 18:04:05:662,0,-6.39471,-3.09897,88.6996
2023-03-11 18:04:05:672,0,-6.407,-3.11122,88.7294
2023-03-11 18:04:05:682,0,-6.41105,-3.11656,88.7543
2023-03-11 18:04:05:692,0,-6.41869,-3.12169,88.7739
2023-03-11 18:04:05:702,0,-6.42378,-3.13028,88.7862
2023-03-11 18:04:05:712,0,-6.43407,-3.13654,88.7941
2023-03-11 18:04:05:722,0,-6.44601,-3.14012,88.7984
2023-03-11 18:04:05:732,0,-6.46504,-3.14251,88.7996
2023-03-11 18:04:05:742,0,-6.47722,-3.14587,88.7927
2023-03-11 18:04:05:752,0,-6.49352,-3.14675,88.7822
2023-03-11 18:04:05:762,0,-6.51111,-3.14988,88.7734
2023-03-11 18:04:05:772,0,-6.52686,-3.15068,88.7616
2023-03-11 18:04:05:782,0,-6.53842,-3.15464,88.7489
2023-03-11 18:04:05:792,0,-6.55161,-3.15718,88.7349
2023-03-11 18:04:05:802,0,-6.54964,-3.15819,88.7155
2023-03-11 18:04:05:812,0,-6.53682,-3.16535,88.6928
2023-03-11 18:04:05:822,0,-6.51556,-3.17511,88.6652
2023-03-11 18:04:05:832,0,-6.49154,-3.18941,88.6357
2023-03-11 18:04:05:842,0,-6.46681,-3.2013,88.6125
2023-03-11 18:04:05:852,0,-6.44737,-3.21173,88.5861
2023-03-11 18:04:05:862,0,-6.43548,-3.22125,88.5639
2023-03-11 18:04:05:872,0,-6.42807,-3.22785,88.5426
2023-03-11 18:04:05:882,0,-6.42597,-3.2339,88.5229
2023-03-11 18:04:05:892,0,-6.42075,-3.2387,88.5109
2023-03-11 18:04:05:902,0,-6.42036,-3.24086,88.5015
2023-03-11 18:04:05:912,0,-6.41683,-3.24627,88.4972
2023-03-11 18:04:05:922,0,-6.41335,-3.2478,88.498
2023-03-11 18:04:05:932,0,-6.40807,-3.24654,88.502
2023-03-11 18:04:05:943,0,-6.40044,-3.24839,88.5081
2023-03-11 18:04:05:953,0,-6.40053,-3.25091,88.5156
2023-03-11 18:04:05:962,0,-6.3979,-3.25349,88.5237
2023-03-11 18:04:05:972,0,-6.39973,-3.26127,88.534
2023-03-11 18:04:05:982,0,-6.40257,-3.27013,88.5455
2023-03-11 18:04:05:992,0,-6.40701,-3.27878,88.5563
2023-03-11 18:04:06:2,0,-6.40884,-3.29475,88.5685
2023-03-11 18:04:06:12,0,-6.41355,-3.31035,88.5811
2023-03-11 18:04:06:22,0,-6.41757,-3.32809,88.595
2023-03-11 18:04:06:32,0,-6.4249,-3.34243,88.6076
2023-03-11 18:04:06:42,0,-6.43413,-3.35545,88.621
2023-03-11 18:04:06:52,0,-6.44236,-3.37167,88.6323
2023-03-11 18:04:06:62,0,-6.45501,-3.38827,88.6413
2023-03-11 18:04:06:72,0,-6.47013,-3.40343,88.6499
2023-03-11 18:04:06:82,0,-6.48304,-3.42251,88.6573
2023-03-11 18:04:06:92,0,-6.49392,-3.43828,88.6647
2023-03-11 18:04:06:102,0,-6.50971,-3.45454,88.6722
2023-03-11 18:04:06:112,0,-6.5227,-3.47311,88.6795
2023-03-11 18:04:06:122,0,-6.53663,-3.49047,88.688
2023-03-11 18:04:06:132,0,-6.55082,-3.5078,88.6993
2023-03-11 18:04:06:142,0,-6.56429,-3.52665,88.7111
2023-03-11 18:04:06:152,0,-6.5767,-3.54346,88.7224
2023-03-11 18:04:06:162,0,-6.58867,-3.55903,88.7331
2023-03-11 18:04:06:172,0,-6.60307,-3.57283,88.7463
2023-03-11 18:04:06:182,0,-6.6194,-3.59041,88.7588
2023-03-11 18:04:06:192,0,-6.63298,-3.60564,88.7673
2023-03-11 18:04:06:202,0,-6.64638,-3.613,88.7813
2023-03-11 18:04:06:212,0,-6.65872,-3.62201,88.7928
2023-03-11 18:04:06:222,0,-6.66823,-3.62812,88.8076
2023-03-11 18:04:06:232,0,-6.6744,-3.63591,88.8226
2023-03-11 18:04:06:242,0,-6.68273,-3.63982,88.8327
2023-03-11 18:04:06:252,0,-6.68941,-3.64737,88.8477
2023-03-11 18:04:06:262,0,-6.69488,-3.65684,88.861
2023-03-11 18:04:06:272,0,-6.70257,-3.66281,88.876
2023-03-11 18:04:06:282,0,-6.71408,-3.67185,88.8896
2023-03-11 18:04:06:292,0,-6.72524,-3.68185,88.9048
2023-03-11 18:04:06:302,0,-6.73585,-3.68955,88.9188
2023-03-11 18:04:06:312,0,-6.74663,-3.7012,88.9346
2023-03-11 18:04:06:322,0,-6.75074,-3.71144,88.954
2023-03-11 18:04:06:332,0,-6.75441,-3.71946,88.971
2023-03-11 18:04:06:342,0,-6.75288,-3.72891,88.9853
2023-03-11 18:04:06:352,0,-6.75055,-3.7392,88.9992
2023-03-11 18:04:06:362,0,-6.75588,-3.74812,89.0102
2023-03-11 18:04:06:372,0,-6.7649,-3.75828,89.0226
2023-03-11 18:04:06:382,0,-6.77997,-3.76934,89.0302
2023-03-11 18:04:06:392,0,-6.7995,-3.78428,89.0381
2023-03-11 18:04:06:402,0,-6.81502,-3.79842,89.045
2023-03-11 18:04:06:412,0,-6.82753,-3.82063,89.0525
2023-03-11 18:04:06:422,0,-6.82953,-3.84721,89.061
2023-03-11 18:04:06:432,0,-6.82137,-3.87263,89.0713
2023-03-11 18:04:06:442,0,-6.80609,-3.89769,89.0849
2023-03-11 18:04:06:452,0,-6.78355,-3.91659,89.0959
2023-03-11 18:04:06:462,0,-6.75543,-3.93404,89.11
2023-03-11 18:04:06:472,0,-6.72582,-3.94795,89.1192
2023-03-11 18:04:06:482,0,-6.69531,-3.96094,89.1353
2023-03-11 18:04:06:492,0,-6.66694,-3.97396,89.1452
2023-03-11 18:04:06:502,0,-6.64474,-3.9884,89.1549
2023-03-11 18:04:06:512,0,-6.6255,-3.99841,89.1614
2023-03-11 18:04:06:522,0,-6.60689,-4.00223,89.1598
2023-03-11 18:04:06:532,0,-6.58661,-4.00099,89.1531
2023-03-11 18:04:06:542,0,-6.56343,-3.99261,89.1394
2023-03-11 18:04:06:552,0,-6.53664,-3.97875,89.1273
2023-03-11 18:04:06:562,0,-6.50231,-3.96158,89.1127
2023-03-11 18:04:06:572,0,-6.46699,-3.94323,89.1007
2023-03-11 18:04:06:582,0,-6.43678,-3.92528,89.0934
2023-03-11 18:04:06:592,0,-6.40768,-3.90446,89.089
2023-03-11 18:04:06:602,0,-6.38616,-3.88484,89.09
2023-03-11 18:04:06:612,0,-6.36647,-3.86612,89.0961
2023-03-11 18:04:06:622,0,-6.35577,-3.84689,89.1084
2023-03-11 18:04:06:632,0,-6.35421,-3.82522,89.1218
2023-03-11 18:04:06:642,0,-6.35125,-3.80322,89.1383
2023-03-11 18:04:06:652,0,-6.34285,-3.78425,89.1535
2023-03-11 18:04:06:662,0,-6.32451,-3.76609,89.1741
2023-03-11 18:04:06:672,0,-6.29444,-3.75215,89.1933
2023-03-11 18:04:06:682,0,-6.26009,-3.74156,89.2087
2023-03-11 18:04:06:692,0,-6.23305,-3.7349,89.2233
2023-03-11 18:04:06:702,0,-6.21203,-3.73006,89.244
2023-03-11 18:04:06:712,0,-6.19861,-3.73229,89.2701
2023-03-11 18:04:06:722,0,-6.195,-3.73755,89.2946
2023-03-11 18:04:06:732,0,-6.19735,-3.74499,89.3177
2023-03-11 18:04:06:742,0,-6.21171,-3.74976,89.3316
2023-03-11 18:04:06:752,0,-6.22463,-3.74962,89.3442
2023-03-11 18:04:06:762,0,-6.23603,-3.74835,89.3532
2023-03-11 18:04:06:772,0,-6.24402,-3.7432,89.3561
2023-03-11 18:04:06:782,0,-6.26259,-3.74033,89.3605
2023-03-11 18:04:06:792,0,-6.29315,-3.73821,89.363
2023-03-11 18:04:06:802,0,-6.33373,-3.74474,89.3665
2023-03-11 18:04:06:812,0,-6.38327,-3.75606,89.3782
2023-03-11 18:04:06:822,0,-6.42371,-3.7724,89.3881
2023-03-11 18:04:06:832,0,-6.46112,-3.79248,89.3974
2023-03-11 18:04:06:842,0,-6.49366,-3.80889,89.406
2023-03-11 18:04:06:852,0,-6.51742,-3.82589,89.4102
2023-03-11 18:04:06:862,0,-6.53427,-3.84169,89.4112
2023-03-11 18:04:06:872,0,-6.54695,-3.85101,89.4052
2023-03-11 18:04:06:882,0,-6.5621,-3.85609,89.3907
2023-03-11 18:04:06:892,0,-6.57787,-3.85934,89.3748
2023-03-11 18:04:06:902,0,-6.59673,-3.86258,89.3572
2023-03-11 18:04:06:912,0,-6.62191,-3.86584,89.3399
2023-03-11 18:04:06:922,0,-6.65156,-3.87395,89.3267
2023-03-11 18:04:06:932,0,-6.68923,-3.88405,89.318
2023-03-11 18:04:06:942,0,-6.72726,-3.89356,89.3164
2023-03-11 18:04:06:952,0,-6.76219,-3.90359,89.3146
2023-03-11 18:04:06:962,0,-6.79087,-3.91355,89.3151
2023-03-11 18:04:06:972,0,-6.81377,-3.92156,89.3165
2023-03-11 18:04:06:982,0,-6.83136,-3.92584,89.3194
2023-03-11 18:04:06:992,0,-6.84637,-3.92635,89.3259
2023-03-11 18:04:07:2,0,-6.85413,-3.92687,89.3447
2023-03-11 18:04:07:12,0,-6.86496,-3.91993,89.3786
2023-03-11 18:04:07:22,0,-6.88246,-3.91383,89.4291
2023-03-11 18:04:07:32,0,-6.90215,-3.91418,89.4956
2023-03-11 18:04:07:42,0,-6.926,-3.91593,89.575
2023-03-11 18:04:07:52,0,-6.94837,-3.92091,89.657
2023-03-11 18:04:07:62,0,-6.96325,-3.92898,89.7372
2023-03-11 18:04:07:72,0,-6.96865,-3.93796,89.8129
2023-03-11 18:04:07:82,0,-6.95908,-3.94904,89.8736
2023-03-11 18:04:07:92,0,-6.9373,-3.95874,89.9171
2023-03-11 18:04:07:102,0,-6.90509,-3.97199,89.9446
2023-03-11 18:04:07:112,0,-6.86271,-3.9899,89.9553
2023-03-11 18:04:07:122,0,-6.82107,-4.01057,89.9424
2023-03-11 18:04:07:132,0,-6.78182,-4.03013,89.9126
2023-03-11 18:04:07:142,0,-6.74977,-4.0533,89.8611
2023-03-11 18:04:07:152,0,-6.71657,-4.0791,89.7968
2023-03-11 18:04:07:162,0,-6.68548,-4.10337,89.7237
2023-03-11 18:04:07:172,0,-6.66315,-4.12738,89.6476
2023-03-11 18:04:07:182,0,-6.64508,-4.15797,89.5725
2023-03-11 18:04:07:192,0,-6.62778,-4.1846,89.5023
2023-03-11 18:04:07:202,0,-6.61315,-4.21252,89.4463
2023-03-11 18:04:07:212,0,-6.60534,-4.24125,89.4024
2023-03-11 18:04:07:222,0,-6.59509,-4.26798,89.3694
2023-03-11 18:04:07:232,0,-6.58839,-4.29458,89.3517
2023-03-11 18:04:07:242,0,-6.58023,-4.32602,89.3444
2023-03-11 18:04:07:252,0,-6.5713,-4.35951,89.347
2023-03-11 18:04:07:262,0,-6.56154,-4.39103,89.3636
2023-03-11 18:04:07:272,0,-6.55377,-4.42009,89.391
2023-03-11 18:04:07:282,0,-6.544,-4.44858,89.4342
2023-03-11 18:04:07:292,0,-6.52862,-4.47772,89.484
2023-03-11 18:04:07:302,0,-6.51286,-4.50238,89.5406
2023-03-11 18:04:07:312,0,-6.49895,-4.52824,89.6037
2023-03-11 18:04:07:322,0,-6.49137,-4.5491,89.6714
2023-03-11 18:04:07:332,0,-6.49221,-4.56639,89.7418
2023-03-11 18:04:07:342,0,-6.49492,-4.57767,89.8008
2023-03-11 18:04:07:352,0,-6.50255,-4.59127,89.8539
2023-03-11 18:04:07:362,0,-6.50746,-4.59908,89.8931
2023-03-11 18:04:07:372,0,-6.50733,-4.60916,89.924
2023-03-11 18:04:07:382,0,-6.50505,-4.6151,89.9382
2023-03-11 18:04:07:392,0,-6.50153,-4.61424,89.9377
2023-03-11 18:04:07:402,0,-6.49862,-4.61037,89.9268
2023-03-11 18:04:07:412,0,-6.49623,-4.60209,89.9012
2023-03-11 18:04:07:422,0,-6.49371,-4.59577,89.8631
2023-03-11 18:04:07:432,0,-6.49462,-4.58536,89.8236
2023-03-11 18:04:07:442,0,-6.50414,-4.57216,89.7786
2023-03-11 18:04:07:452,0,-6.51781,-4.55943,89.7261
2023-03-11 18:04:07:462,0,-6.53469,-4.55061,89.6713
2023-03-11 18:04:07:472,0,-6.54269,-4.54793,89.6208
2023-03-11 18:04:07:482,0,-6.55192,-4.54713,89.5723
2023-03-11 18:04:07:492,0,-6.56101,-4.54447,89.5248
2023-03-11 18:04:07:502,0,-6.56408,-4.54116,89.4791
2023-03-11 18:04:07:512,0,-6.55891,-4.53472,89.4339
2023-03-11 18:04:07:522,0,-6.5545,-4.53005,89.3934
2023-03-11 18:04:07:532,0,-6.55484,-4.52833,89.362
2023-03-11 18:04:07:542,0,-6.5588,-4.52583,89.3407
2023-03-11 18:04:07:552,0,-6.56938,-4.52341,89.3219
2023-03-11 18:04:07:562,0,-6.58635,-4.52478,89.3142
2023-03-11 18:04:07:572,0,-6.61321,-4.52694,89.3118
2023-03-11 18:04:07:582,0,-6.64615,-4.53517,89.3207
2023-03-11 18:04:07:592,0,-6.68416,-4.54822,89.3375
2023-03-11 18:04:07:602,0,-6.71822,-4.56356,89.3547
2023-03-11 18:04:07:612,0,-6.74513,-4.58716,89.3781
2023-03-11 18:04:07:622,0,-6.76803,-4.61491,89.4022
2023-03-11 18:04:07:632,0,-6.78342,-4.6489,89.4255
2023-03-11 18:04:07:642,0,-6.79457,-4.68653,89.4437
2023-03-11 18:04:07:652,0,-6.80245,-4.72841,89.4543
2023-03-11 18:04:07:662,0,-6.79732,-4.77333,89.4553
2023-03-11 18:04:07:672,0,-6.78129,-4.8236,89.4454
2023-03-11 18:04:07:682,0,-6.75861,-4.86909,89.4305
2023-03-11 18:04:07:692,0,-6.73147,-4.91133,89.4097
2023-03-11 18:04:07:702,0,-6.70155,-4.9477,89.3843
2023-03-11 18:04:07:712,0,-6.67247,-4.97852,89.3538
2023-03-11 18:04:07:723,0,-6.64807,-4.99876,89.3211
2023-03-11 18:04:07:732,0,-6.62486,-5.01482,89.2873
2023-03-11 18:04:07:742,0,-6.60418,-5.02295,89.2597
2023-03-11 18:04:07:752,0,-6.58616,-5.02292,89.2334
2023-03-11 18:04:07:762,0,-6.57738,-5.0111,89.2077
2023-03-11 18:04:07:772,0,-6.57493,-4.99351,89.1811
2023-03-11 18:04:07:782,0,-6.57861,-4.97073,89.152
2023-03-11 18:04:07:792,0,-6.58491,-4.95099,89.1255
2023-03-11 18:04:07:803,0,-6.59505,-4.92872,89.0951
2023-03-11 18:04:07:812,0,-6.60686,-4.91146,89.0629
2023-03-11 18:04:07:822,0,-6.61798,-4.89799,89.028
2023-03-11 18:04:07:832,0,-6.6297,-4.89448,88.9975
2023-03-11 18:04:07:842,0,-6.64449,-4.89514,88.9729
2023-03-11 18:04:07:852,0,-6.66351,-4.89929,88.956
2023-03-11 18:04:07:862,0,-6.6869,-4.90234,88.9432
2023-03-11 18:04:07:872,0,-6.71601,-4.90623,88.9313
2023-03-11 18:04:07:882,0,-6.74115,-4.91687,88.9243
2023-03-11 18:04:07:892,0,-6.76879,-4.93661,88.9245
2023-03-11 18:04:07:902,0,-6.79761,-4.95444,88.9339
2023-03-11 18:04:07:912,0,-6.82212,-4.97216,88.9436
2023-03-11 18:04:07:922,0,-6.84821,-4.99239,88.9508
2023-03-11 18:04:07:932,0,-6.86876,-5.01868,88.9649
2023-03-11 18:04:07:942,0,-6.88406,-5.04301,88.9819
2023-03-11 18:04:07:952,0,-6.89612,-5.06028,88.9876
2023-03-11 18:04:07:962,0,-6.90633,-5.06883,88.9893
2023-03-11 18:04:07:972,0,-6.91786,-5.07177,88.9842
2023-03-11 18:04:07:982,0,-6.93734,-5.07284,88.9844
2023-03-11 18:04:07:992,0,-6.96643,-5.08004,88.9861
2023-03-11 18:04:08:2,0,-7.0028,-5.09133,88.9947
2023-03-11 18:04:08:12,0,-7.0394,-5.10507,89.0025
2023-03-11 18:04:08:22,0,-7.06856,-5.11736,89.0073
2023-03-11 18:04:08:32,0,-7.09067,-5.13042,89.0095
2023-03-11 18:04:08:42,0,-7.1093,-5.13526,89.0129
2023-03-11 18:04:08:52,0,-7.12012,-5.14523,89.0176
2023-03-11 18:04:08:62,0,-7.13082,-5.15123,89.0286
2023-03-11 18:04:08:72,0,-7.1435,-5.16039,89.0412
2023-03-11 18:04:08:82,0,-7.16213,-5.17071,89.0585
2023-03-11 18:04:08:92,0,-7.18049,-5.18228,89.0707
2023-03-11 18:04:08:102,0,-7.19378,-5.20022,89.0789
2023-03-11 18:04:08:112,0,-7.19672,-5.22132,89.0919
2023-03-11 18:04:08:122,0,-7.1971,-5.24188,89.105
2023-03-11 18:04:08:132,0,-7.18756,-5.26388,89.116
2023-03-11 18:04:08:142,0,-7.17978,-5.275,89.1185
2023-03-11 18:04:08:152,0,-7.16678,-5.28253,89.1132
2023-03-11 18:04:08:162,0,-7.15863,-5.28597,89.0977
2023-03-11 18:04:08:172,0,-7.15409,-5.29428,89.0742
2023-03-11 18:04:08:182,0,-7.15391,-5.30673,89.0433
2023-03-11 18:04:08:192,0,-7.15325,-5.32689,89.0017
2023-03-11 18:04:08:202,0,-7.14983,-5.34811,88.9475
2023-03-11 18:04:08:212,0,-7.14894,-5.37403,88.8876
2023-03-11 18:04:08:222,0,-7.14455,-5.39694,88.8266
2023-03-11 18:04:08:232,0,-7.13594,-5.41265,88.7648
2023-03-11 18:04:08:242,0,-7.12629,-5.42817,88.7032
2023-03-11 18:04:08:252,0,-7.11864,-5.43691,88.6506
2023-03-11 18:04:08:262,0,-7.11242,-5.44543,88.6102
2023-03-11 18:04:08:272,0,-7.10856,-5.44949,88.579
2023-03-11 18:04:08:282,0,-7.10812,-5.4531,88.5664
2023-03-11 18:04:08:292,0,-7.1081,-5.44944,88.5662
2023-03-11 18:04:08:302,0,-7.1103,-5.43767,88.5769
2023-03-11 18:04:08:312,0,-7.11523,-5.42016,88.5994
2023-03-11 18:04:08:322,0,-7.12825,-5.3992,88.6295
2023-03-11 18:04:08:332,0,-7.14646,-5.38046,88.6608
2023-03-11 18:04:08:342,0,-7.17097,-5.36476,88.6974
2023-03-11 18:04:08:352,0,-7.19817,-5.3508,88.7331
2023-03-11 18:04:08:362,0,-7.22859,-5.33387,88.7613
2023-03-11 18:04:08:372,0,-7.2561,-5.31878,88.7822
2023-03-11 18:04:08:382,0,-7.27691,-5.31167,88.7946
2023-03-11 18:04:08:392,0,-7.29235,-5.3055,88.8018
2023-03-11 18:04:08:402,0,-7.30298,-5.30579,88.81
2023-03-11 18:04:08:412,0,-7.31176,-5.30977,88.8152
2023-03-11 18:04:08:422,0,-7.32514,-5.30888,88.8231
2023-03-11 18:04:08:432,0,-7.33932,-5.30973,88.8344
2023-03-11 18:04:08:442,0,-7.35333,-5.31154,88.8533
2023-03-11 18:04:08:452,0,-7.36917,-5.3182,88.8755
2023-03-11 18:04:08:462,0,-7.38583,-5.33056,88.9077
2023-03-11 18:04:08:472,0,-7.40682,-5.35016,88.9514
2023-03-11 18:04:08:482,0,-7.41855,-5.37424,88.9983
2023-03-11 18:04:08:492,0,-7.4246,-5.39833,89.0497
2023-03-11 18:04:08:502,0,-7.42335,-5.41797,89.1012
2023-03-11 18:04:08:512,0,-7.41594,-5.43438,89.1448
2023-03-11 18:04:08:522,0,-7.40186,-5.44384,89.1823
2023-03-11 18:04:08:532,0,-7.38341,-5.45298,89.2167
2023-03-11 18:04:08:542,0,-7.36615,-5.46038,89.2475
2023-03-11 18:04:08:552,0,-7.34784,-5.46323,89.2712
2023-03-11 18:04:08:562,0,-7.33491,-5.46217,89.2922
2023-03-11 18:04:08:572,0,-7.32761,-5.46765,89.3151
2023-03-11 18:04:08:582,0,-7.32688,-5.47286,89.3409
2023-03-11 18:04:08:592,0,-7.33181,-5.47414,89.3701
2023-03-11 18:04:08:602,0,-7.34596,-5.47562,89.3992
2023-03-11 18:04:08:612,0,-7.35992,-5.4766,89.4242
2023-03-11 18:04:08:622,0,-7.36853,-5.47647,89.4433
2023-03-11 18:04:08:632,0,-7.37115,-5.4803,89.4502
2023-03-11 18:04:08:642,0,-7.36692,-5.48093,89.4428
2023-03-11 18:04:08:652,0,-7.35992,-5.48555,89.4322
2023-03-11 18:04:08:662,0,-7.35923,-5.49505,89.421
2023-03-11 18:04:08:672,0,-7.3628,-5.50065,89.4065
2023-03-11 18:04:08:682,0,-7.37332,-5.50216,89.393
2023-03-11 18:04:08:692,0,-7.39045,-5.50517,89.3825
2023-03-11 18:04:08:702,0,-7.41691,-5.50974,89.3736
2023-03-11 18:04:08:712,0,-7.44219,-5.51405,89.3676
2023-03-11 18:04:08:722,0,-7.4586,-5.52566,89.3597
2023-03-11 18:04:08:732,0,-7.46737,-5.53189,89.3525
2023-03-11 18:04:08:742,0,-7.46466,-5.53275,89.3412
2023-03-11 18:04:08:752,0,-7.45682,-5.53537,89.3223
2023-03-11 18:04:08:762,0,-7.45309,-5.53484,89.3056
2023-03-11 18:04:08:772,0,-7.45448,-5.5387,89.2931
2023-03-11 18:04:08:782,0,-7.4645,-5.54834,89.2822
2023-03-11 18:04:08:792,0,-7.47995,-5.56132,89.2763
2023-03-11 18:04:08:802,0,-7.49462,-5.57927,89.2666
2023-03-11 18:04:08:812,0,-7.50207,-5.60319,89.2532
2023-03-11 18:04:08:822,0,-7.49873,-5.63121,89.2402
2023-03-11 18:04:08:832,0,-7.4875,-5.66296,89.2272
2023-03-11 18:04:08:842,0,-7.46744,-5.70313,89.2116
2023-03-11 18:04:08:852,0,-7.44335,-5.75208,89.1944
2023-03-11 18:04:08:862,0,-7.41114,-5.7992,89.1731
2023-03-11 18:04:08:872,0,-7.37528,-5.84554,89.1572
2023-03-11 18:04:08:882,0,-7.33657,-5.89211,89.1397
2023-03-11 18:04:08:892,0,-7.29835,-5.92814,89.1239
2023-03-11 18:04:08:902,0,-7.2642,-5.96395,89.1151
2023-03-11 18:04:08:912,0,-7.22936,-5.9933,89.108
2023-03-11 18:04:08:922,0,-7.20029,-6.01446,89.1019
2023-03-11 18:04:08:932,0,-7.16863,-6.02563,89.0936
2023-03-11 18:04:08:942,0,-7.13997,-6.0319,89.0893
2023-03-11 18:04:08:952,0,-7.115,-6.03037,89.0863
2023-03-11 18:04:08:962,0,-7.09152,-6.02347,89.0792
2023-03-11 18:04:08:972,0,-7.07302,-6.00867,89.0688
2023-03-11 18:04:08:982,0,-7.06369,-5.99199,89.0578
2023-03-11 18:04:08:992,0,-7.05074,-5.97645,89.0436
2023-03-11 18:04:09:2,0,-7.04534,-5.96389,89.0293
2023-03-11 18:04:09:12,0,-7.04659,-5.95029,89.0148
2023-03-11 18:04:09:22,0,-7.05504,-5.94158,89.0008
2023-03-11 18:04:09:32,0,-7.06515,-5.93903,88.9825
2023-03-11 18:04:09:42,0,-7.07226,-5.94045,88.9637
2023-03-11 18:04:09:52,0,-7.08183,-5.95207,88.9472
2023-03-11 18:04:09:62,0,-7.09158,-5.97241,88.9339
2023-03-11 18:04:09:72,0,-7.09928,-5.99462,88.9267
2023-03-11 18:04:09:82,0,-7.10708,-6.02114,88.9201
2023-03-11 18:04:09:92,0,-7.1086,-6.04739,88.9096
2023-03-11 18:04:09:102,0,-7.10689,-6.06894,88.8963
2023-03-11 18:04:09:112,0,-7.1091,-6.08635,88.8865
2023-03-11 18:04:09:122,0,-7.10545,-6.10037,88.8749
2023-03-11 18:04:09:132,0,-7.10367,-6.11466,88.865
2023-03-11 18:04:09:142,0,-7.09686,-6.12488,88.8516
2023-03-11 18:04:09:152,0,-7.09468,-6.13381,88.8391
2023-03-11 18:04:09:162,0,-7.09295,-6.14209,88.8228
2023-03-11 18:04:09:172,0,-7.08846,-6.1485,88.8087
2023-03-11 18:04:09:182,0,-7.08089,-6.15307,88.7932
2023-03-11 18:04:09:192,0,-7.06979,-6.15632,88.7746
2023-03-11 18:04:09:202,0,-7.06283,-6.16006,88.753
2023-03-11 18:04:09:212,0,-7.06109,-6.16137,88.7354
2023-03-11 18:04:09:222,0,-7.05964,-6.16381,88.7213
2023-03-11 18:04:09:232,0,-7.06249,-6.16694,88.7123
2023-03-11 18:04:09:242,0,-7.06707,-6.16736,88.7093
2023-03-11 18:04:09:252,0,-7.07573,-6.16355,88.7108
2023-03-11 18:04:09:262,0,-7.08093,-6.15743,88.7223
2023-03-11 18:04:09:272,0,-7.08981,-6.14894,88.7364
2023-03-11 18:04:09:282,0,-7.09382,-6.13763,88.7567
2023-03-11 18:04:09:292,0,-7.0923,-6.12487,88.7808
2023-03-11 18:04:09:302,0,-7.09454,-6.10446,88.8104
2023-03-11 18:04:09:312,0,-7.09707,-6.08305,88.8461
2023-03-11 18:04:09:322,0,-7.10213,-6.0546,88.8861
2023-03-11 18:04:09:332,0,-7.11017,-6.02696,88.9251
2023-03-11 18:04:09:342,0,-7.12223,-5.9996,88.9617
2023-03-11 18:04:09:352,0,-7.14192,-5.96603,88.9975
2023-03-11 18:04:09:362,0,-7.15568,-5.93359,89.0301
2023-03-11 18:04:09:372,0,-7.16758,-5.90355,89.0569
2023-03-11 18:04:09:382,0,-7.17831,-5.87115,89.0764
2023-03-11 18:04:09:392,0,-7.18724,-5.84094,89.0922
2023-03-11 18:04:09:402,0,-7.20235,-5.80907,89.0993
2023-03-11 18:04:09:412,0,-7.21546,-5.77461,89.104
2023-03-11 18:04:09:422,0,-7.22947,-5.74164,89.1016
2023-03-11 18:04:09:432,0,-7.24381,-5.70703,89.0942
2023-03-11 18:04:09:442,0,-7.26153,-5.67265,89.0846
2023-03-11 18:04:09:452,0,-7.28321,-5.64034,89.0782
2023-03-11 18:04:09:462,0,-7.30587,-5.61473,89.0734
2023-03-11 18:04:09:472,0,-7.33231,-5.59086,89.072
2023-03-11 18:04:09:482,0,-7.35773,-5.5687,89.0688
2023-03-11 18:04:09:492,0,-7.38797,-5.54297,89.069
2023-03-11 18:04:09:502,0,-7.42187,-5.51689,89.0645
2023-03-11 18:04:09:512,0,-7.46441,-5.49174,89.0554
2023-03-11 18:04:09:522,0,-7.50445,-5.46277,89.0443
2023-03-11 18:04:09:532,0,-7.55324,-5.43266,89.0323
2023-03-11 18:04:09:542,0,-7.60063,-5.40161,89.0207
2023-03-11 18:04:09:552,0,-7.64254,-5.3748,89.0061
2023-03-11 18:04:09:562,0,-7.68654,-5.35012,88.9985
2023-03-11 18:04:09:572,0,-7.72652,-5.3223,88.993
2023-03-11 18:04:09:582,0,-7.76932,-5.29601,88.9904
2023-03-11 18:04:09:592,0,-7.80789,-5.26622,88.9937
2023-03-11 18:04:09:602,0,-7.844,-5.23966,89.0024
2023-03-11 18:04:09:612,0,-7.87764,-5.20916,89.0185
2023-03-11 18:04:09:622,0,-7.90344,-5.18199,89.0313
2023-03-11 18:04:09:632,0,-7.92482,-5.1602,89.0522
2023-03-11 18:04:09:642,0,-7.93517,-5.14254,89.0767
2023-03-11 18:04:09:652,0,-7.94253,-5.12887,89.1056
2023-03-11 18:04:09:662,0,-7.94716,-5.11619,89.1269
2023-03-11 18:04:09:672,0,-7.94768,-5.10292,89.148
2023-03-11 18:04:09:682,0,-7.94386,-5.08753,89.1636
2023-03-11 18:04:09:692,0,-7.93969,-5.07041,89.1738
2023-03-11 18:04:09:702,0,-7.93245,-5.05494,89.1779
2023-03-11 18:04:09:712,0,-7.9211,-5.03703,89.1759
2023-03-11 18:04:09:722,0,-7.90847,-5.01715,89.1681
2023-03-11 18:04:09:732,0,-7.8933,-4.99631,89.1571
2023-03-11 18:04:09:742,0,-7.87392,-4.97487,89.1335
2023-03-11 18:04:09:752,0,-7.85445,-4.95429,89.1081
2023-03-11 18:04:09:762,0,-7.83453,-4.92388,89.0774
2023-03-11 18:04:09:772,0,-7.81732,-4.89528,89.0438
2023-03-11 18:04:09:782,0,-7.79854,-4.86322,89.0033
2023-03-11 18:04:09:792,0,-7.78254,-4.82997,88.9619
2023-03-11 18:04:09:802,0,-7.77158,-4.79769,88.9198
2023-03-11 18:04:09:812,0,-7.76378,-4.76711,88.8775
2023-03-11 18:04:09:822,0,-7.75876,-4.73637,88.8415
2023-03-11 18:04:09:832,0,-7.76062,-4.70334,88.8029
2023-03-11 18:04:09:842,0,-7.76357,-4.66592,88.7676
2023-03-11 18:04:09:852,0,-7.76995,-4.6235,88.7333
2023-03-11 18:04:09:862,0,-7.77013,-4.58254,88.7016
2023-03-11 18:04:09:872,0,-7.76749,-4.54517,88.6744
2023-03-11 18:04:09:882,0,-7.76832,-4.51262,88.6518
2023-03-11 18:04:09:892,0,-7.76923,-4.47723,88.6333
2023-03-11 18:04:09:902,0,-7.77252,-4.44029,88.6188
2023-03-11 18:04:09:912,0,-7.78284,-4.4007,88.6098
2023-03-11 18:04:09:922,0,-7.79037,-4.36601,88.5998
2023-03-11 18:04:09:932,0,-7.80723,-4.33084,88.5948
2023-03-11 18:04:09:942,0,-7.82368,-4.29603,88.5918
2023-03-11 18:04:09:952,0,-7.84264,-4.26684,88.5922
2023-03-11 18:04:09:962,0,-7.85991,-4.23955,88.592
2023-03-11 18:04:09:972,0,-7.87789,-4.20814,88.5912
2023-03-11 18:04:09:982,0,-7.89395,-4.18,88.5872
2023-03-11 18:04:09:992,0,-7.90929,-4.15077,88.5827
2023-03-11 18:04:10:2,0,-7.92052,-4.1193,88.578
2023-03-11 18:04:10:12,0,-7.93531,-4.09135,88.5725
2023-03-11 18:04:10:22,0,-7.95249,-4.06054,88.5624
2023-03-11 18:04:10:32,0,-7.97001,-4.03362,88.5503
2023-03-11 18:04:10:42,0,-7.98775,-4.01274,88.5369
2023-03-11 18:04:10:52,0,-8.00642,-3.99006,88.5222
2023-03-11 18:04:10:62,0,-8.02419,-3.97036,88.5109
2023-03-11 18:04:10:72,0,-8.0488,-3.94989,88.5034
2023-03-11 18:04:10:82,0,-8.06833,-3.93228,88.4971
2023-03-11 18:04:10:92,0,-8.08713,-3.91861,88.4931
2023-03-11 18:04:10:102,0,-8.10218,-3.90309,88.5002
2023-03-11 18:04:10:112,0,-8.11759,-3.88867,88.5096
2023-03-11 18:04:10:122,0,-8.13223,-3.87257,88.5154
2023-03-11 18:04:10:132,0,-8.14448,-3.85965,88.5182
2023-03-11 18:04:10:142,0,-8.15658,-3.84619,88.526
2023-03-11 18:04:10:152,0,-8.16875,-3.83916,88.5279
2023-03-11 18:04:10:162,0,-8.18406,-3.82702,88.5285
2023-03-11 18:04:10:172,0,-8.19661,-3.81412,88.5272
2023-03-11 18:04:10:183,0,-8.20327,-3.80364,88.5254
2023-03-11 18:04:10:192,0,-8.21213,-3.79393,88.5227
2023-03-11 18:04:10:202,0,-8.21762,-3.77997,88.5168
2023-03-11 18:04:10:212,0,-8.21819,-3.77226,88.5129
2023-03-11 18:04:10:222,0,-8.2182,-3.7641,88.5066
2023-03-11 18:04:10:232,0,-8.21643,-3.757,88.5038
2023-03-11 18:04:10:242,0,-8.21279,-3.74751,88.4999
2023-03-11 18:04:10:252,0,-8.21013,-3.73525,88.4979
2023-03-11 18:04:10:262,0,-8.205,-3.72896,88.5007
2023-03-11 18:04:10:272,0,-8.20263,-3.72339,88.5069
2023-03-11 18:04:10:282,0,-8.19787,-3.71699,88.5139
2023-03-11 18:04:10:292,0,-8.19066,-3.714,88.5162
2023-03-11 18:04:10:302,0,-8.18639,-3.70559,88.5198
2023-03-11 18:04:10:312,0,-8.18239,-3.69861,88.5242
2023-03-11 18:04:10:322,0,-8.17166,-3.68826,88.5226
2023-03-11 18:04:10:332,0,-8.16412,-3.68289,88.5214
2023-03-11 18:04:10:342,0,-8.15056,-3.67788,88.5172
2023-03-11 18:04:10:352,0,-8.1409,-3.67084,88.5102
2023-03-11 18:04:10:362,0,-8.12931,-3.66177,88.5024
2023-03-11 18:04:10:372,0,-8.11891,-3.65759,88.4981
2023-03-11 18:04:10:382,0,-8.11176,-3.64403,88.4928
2023-03-11 18:04:10:392,0,-8.09963,-3.63402,88.4817
2023-03-11 18:04:10:402,0,-8.09376,-3.62146,88.4742
2023-03-11 18:04:10:412,0,-8.08399,-3.60569,88.4681
2023-03-11 18:04:10:422,0,-8.07155,-3.59808,88.4617
2023-03-11 18:04:10:432,0,-8.0587,-3.5931,88.4562
2023-03-11 18:04:10:442,0,-8.04645,-3.5913,88.452
2023-03-11 18:04:10:452,0,-8.03006,-3.59164,88.45
2023-03-11 18:04:10:462,0,-8.01641,-3.59316,88.4489
2023-03-11 18:04:10:472,0,-8.00674,-3.59401,88.4536
2023-03-11 18:04:10:482,0,-7.99428,-3.60199,88.4623
2023-03-11 18:04:10:492,0,-7.99023,-3.60629,88.4686
2023-03-11 18:04:10:502,0,-7.99009,-3.61197,88.475
2023-03-11 18:04:10:512,0,-7.99884,-3.61526,88.482
2023-03-11 18:04:10:522,0,-8.00668,-3.61781,88.4899
2023-03-11 18:04:10:532,0,-8.01958,-3.6249,88.4993
2023-03-11 18:04:10:542,0,-8.03345,-3.63083,88.5001
2023-03-11 18:04:10:552,0,-8.04185,-3.63708,88.4988
2023-03-11 18:04:10:562,0,-8.04508,-3.64295,88.4937
2023-03-11 18:04:10:572,0,-8.0466,-3.65379,88.4864
2023-03-11 18:04:10:582,0,-8.04668,-3.66441,88.4799
2023-03-11 18:04:10:592,0,-8.05029,-3.67988,88.4737
2023-03-11 18:04:10:602,0,-8.05435,-3.6962,88.4663
2023-03-11 18:04:10:612,0,-8.06773,-3.72065,88.4644
2023-03-11 18:04:10:622,0,-8.07737,-3.74548,88.4631
2023-03-11 18:04:10:632,0,-8.09374,-3.76841,88.4693
2023-03-11 18:04:10:642,0,-8.10891,-3.78879,88.4739
2023-03-11 18:04:10:652,0,-8.12432,-3.80887,88.4762
2023-03-11 18:04:10:662,0,-8.13326,-3.82904,88.4762
2023-03-11 18:04:10:672,0,-8.13946,-3.84838,88.475
2023-03-11 18:04:10:682,0,-8.14506,-3.87122,88.474
2023-03-11 18:04:10:692,0,-8.14841,-3.8912,88.4699
2023-03-11 18:04:10:702,0,-8.15869,-3.91223,88.467
2023-03-11 18:04:10:712,0,-8.16858,-3.92848,88.4692
2023-03-11 18:04:10:722,0,-8.17926,-3.94383,88.4707
2023-03-11 18:04:10:732,0,-8.19203,-3.96075,88.4787
2023-03-11 18:04:10:742,0,-8.20931,-3.97726,88.4875
2023-03-11 18:04:10:752,0,-8.22365,-3.99336,88.4967
2023-03-11 18:04:10:762,0,-8.23512,-4.00804,88.5041
2023-03-11 18:04:10:772,0,-8.23865,-4.01925,88.5138
2023-03-11 18:04:10:782,0,-8.23822,-4.02443,88.5233
2023-03-11 18:04:10:792,0,-8.23835,-4.02414,88.5325
2023-03-11 18:04:10:802,0,-8.23475,-4.01641,88.5376
2023-03-11 18:04:10:812,0,-8.23656,-4.00705,88.5382
2023-03-11 18:04:10:822,0,-8.23634,-3.98745,88.53
2023-03-11 18:04:10:832,0,-8.23846,-3.96389,88.5193
2023-03-11 18:04:10:842,0,-8.24189,-3.9417,88.5051
2023-03-11 18:04:10:852,0,-8.24604,-3.91437,88.4852
2023-03-11 18:04:10:862,0,-8.24409,-3.88616,88.4609
2023-03-11 18:04:10:872,0,-8.24051,-3.85863,88.4331
2023-03-11 18:04:10:882,0,-8.23733,-3.82548,88.403
2023-03-11 18:04:10:892,0,-8.23332,-3.79579,88.3667
2023-03-11 18:04:10:902,0,-8.22849,-3.76721,88.332
2023-03-11 18:04:10:912,0,-8.22278,-3.74322,88.3024
2023-03-11 18:04:10:922,0,-8.21709,-3.71687,88.2728
2023-03-11 18:04:10:932,0,-8.21376,-3.69306,88.2447
2023-03-11 18:04:10:942,0,-8.212,-3.67263,88.2216
2023-03-11 18:04:10:952,0,-8.20879,-3.65559,88.2025
2023-03-11 18:04:10:962,0,-8.20737,-3.64247,88.1911
2023-03-11 18:04:10:972,0,-8.20498,-3.6339,88.1841
2023-03-11 18:04:10:982,0,-8.20692,-3.62593,88.183
2023-03-11 18:04:10:992,0,-8.21331,-3.62201,88.1816
2023-03-11 18:04:11:2,0,-8.21683,-3.61971,88.1874
2023-03-11 18:04:11:12,0,-8.21874,-3.62133,88.1937
2023-03-11 18:04:11:22,0,-8.22166,-3.62519,88.2023
2023-03-11 18:04:11:32,0,-8.2254,-3.63319,88.2146
2023-03-11 18:04:11:42,0,-8.22778,-3.63953,88.2301
2023-03-11 18:04:11:52,0,-8.2325,-3.65311,88.2465
2023-03-11 18:04:11:62,0,-8.23309,-3.6781,88.2683
2023-03-11 18:04:11:72,0,-8.23736,-3.70437,88.2937
2023-03-11 18:04:11:82,0,-8.24578,-3.73029,88.3182
2023-03-11 18:04:11:92,0,-8.25113,-3.75762,88.3487
2023-03-11 18:04:11:102,0,-8.25781,-3.78585,88.3771
2023-03-11 18:04:11:112,0,-8.26609,-3.81418,88.4095
2023-03-11 18:04:11:122,0,-8.27122,-3.84583,88.4392
2023-03-11 18:04:11:132,0,-8.27431,-3.88239,88.4658
2023-03-11 18:04:11:142,0,-8.27453,-3.9175,88.4967
2023-03-11 18:04:11:152,0,-8.26923,-3.95405,88.5202
2023-03-11 18:04:11:162,0,-8.25621,-3.98912,88.5384
2023-03-11 18:04:11:172,0,-8.24573,-4.02386,88.5564
2023-03-11 18:04:11:182,0,-8.23483,-4.05243,88.5719
2023-03-11 18:04:11:192,0,-8.2216,-4.08129,88.5834
2023-03-11 18:04:11:202,0,-8.20482,-4.10506,88.5902
2023-03-11 18:04:11:212,0,-8.18787,-4.12862,88.5937
2023-03-11 18:04:11:222,0,-8.16871,-4.15262,88.6006
2023-03-11 18:04:11:232,0,-8.1512,-4.17477,88.6063
2023-03-11 18:04:11:242,0,-8.13316,-4.19751,88.6125
2023-03-11 18:04:11:252,0,-8.11597,-4.21913,88.6205
2023-03-11 18:04:11:262,0,-8.10374,-4.23406,88.6332
2023-03-11 18:04:11:272,0,-8.09557,-4.24457,88.6453
2023-03-11 18:04:11:282,0,-8.08841,-4.25496,88.6599
2023-03-11 18:04:11:292,0,-8.0827,-4.26273,88.674
2023-03-11 18:04:11:302,0,-8.07865,-4.265,88.6903
2023-03-11 18:04:11:312,0,-8.07341,-4.26862,88.7067
2023-03-11 18:04:11:322,0,-8.0691,-4.26645,88.7188
2023-03-11 18:04:11:332,0,-8.0671,-4.26284,88.7227
2023-03-11 18:04:11:342,0,-8.06363,-4.25691,88.7256
2023-03-11 18:04:11:352,0,-8.06385,-4.2518,88.7217
2023-03-11 18:04:11:362,0,-8.06821,-4.2468,88.7162
2023-03-11 18:04:11:372,0,-8.07364,-4.23446,88.7082
2023-03-11 18:04:11:382,0,-8.08096,-4.22674,88.6986
2023-03-11 18:04:11:392,0,-8.08648,-4.21683,88.6807
2023-03-11 18:04:11:402,0,-8.09105,-4.20796,88.6607
2023-03-11 18:04:11:412,0,-8.09648,-4.19534,88.6416
2023-03-11 18:04:11:422,0,-8.10534,-4.18473,88.6218
2023-03-11 18:04:11:432,0,-8.11368,-4.16749,88.6007
2023-03-11 18:04:11:442,0,-8.11679,-4.14825,88.5792
2023-03-11 18:04:11:452,0,-8.11277,-4.1293,88.559
2023-03-11 18:04:11:462,0,-8.11369,-4.10951,88.5436
2023-03-11 18:04:11:472,0,-8.11308,-4.09582,88.5342
2023-03-11 18:04:11:482,0,-8.11214,-4.08067,88.5223
2023-03-11 18:04:11:492,0,-8.1121,-4.06737,88.5136
2023-03-11 18:04:11:502,0,-8.11475,-4.05558,88.5089
2023-03-11 18:04:11:512,0,-8.11804,-4.0385,88.5053
2023-03-11 18:04:11:522,0,-8.1222,-4.02831,88.5074
2023-03-11 18:04:11:532,0,-8.12743,-4.01832,88.507
2023-03-11 18:04:11:542,0,-8.13233,-4.00969,88.5098
2023-03-11 18:04:11:552,0,-8.13518,-4.00666,88.5138
2023-03-11 18:04:11:562,0,-8.13825,-4.00218,88.5153
2023-03-11 18:04:11:572,0,-8.14123,-4.00316,88.5187
2023-03-11 18:04:11:582,0,-8.13806,-4.00384,88.5241
2023-03-11 18:04:11:592,0,-8.13541,-4.00122,88.5305
2023-03-11 18:04:11:602,0,-8.13276,-3.99807,88.5338
2023-03-11 18:04:11:612,0,-8.12506,-3.99993,88.5358
2023-03-11 18:04:11:622,0,-8.1182,-3.99817,88.5366
2023-03-11 18:04:11:632,0,-8.10814,-3.99733,88.5396
2023-03-11 18:04:11:642,0,-8.10236,-3.99714,88.5421
2023-03-11 18:04:11:652,0,-8.09747,-3.99836,88.5499
2023-03-11 18:04:11:662,0,-8.08842,-3.9975,88.5549
2023-03-11 18:04:11:672,0,-8.08473,-3.99653,88.5601
2023-03-11 18:04:11:682,0,-8.07801,-3.99328,88.5656
2023-03-11 18:04:11:692,0,-8.07214,-3.99289,88.5723
2023-03-11 18:04:11:702,0,-8.06776,-3.98872,88.5797
2023-03-11 18:04:11:712,0,-8.06609,-3.98527,88.585
2023-03-11 18:04:11:722,0,-8.0656,-3.98403,88.5853
2023-03-11 18:04:11:732,0,-8.06389,-3.97786,88.5875
2023-03-11 18:04:11:742,0,-8.06504,-3.96975,88.5889
2023-03-11 18:04:11:752,0,-8.06769,-3.95901,88.5891
2023-03-11 18:04:11:762,0,-8.07087,-3.94865,88.5878
2023-03-11 18:04:11:772,0,-8.06979,-3.9356,88.5794
2023-03-11 18:04:11:782,0,-8.07528,-3.92146,88.5676
2023-03-11 18:04:11:792,0,-8.08049,-3.91166,88.5551
2023-03-11 18:04:11:802,0,-8.0824,-3.90018,88.5406
2023-03-11 18:04:11:812,0,-8.08588,-3.88682,88.5247
2023-03-11 18:04:11:822,0,-8.09191,-3.8749,88.5072
2023-03-11 18:04:11:832,0,-8.09629,-3.86237,88.4875
2023-03-11 18:04:11:842,0,-8.10122,-3.85046,88.4675
2023-03-11 18:04:11:852,0,-8.10789,-3.83893,88.4496
2023-03-11 18:04:11:862,0,-8.11409,-3.82573,88.4315
2023-03-11 18:04:11:872,0,-8.11883,-3.81327,88.4127
2023-03-11 18:04:11:882,0,-8.11805,-3.80027,88.3991
2023-03-11 18:04:11:892,0,-8.11573,-3.79036,88.3861
2023-03-11 18:04:11:902,0,-8.11122,-3.78062,88.3712
2023-03-11 18:04:11:912,0,-8.10821,-3.76917,88.3634
2023-03-11 18:04:11:922,0,-8.10276,-3.75451,88.3547
2023-03-11 18:04:11:932,0,-8.09709,-3.73729,88.3504
2023-03-11 18:04:11:942,0,-8.08914,-3.71788,88.3483
2023-03-11 18:04:11:952,0,-8.08339,-3.70091,88.3446
2023-03-11 18:04:11:962,0,-8.07306,-3.68371,88.3428
2023-03-11 18:04:11:972,0,-8.06639,-3.67001,88.3393
2023-03-11 18:04:11:982,0,-8.05628,-3.65948,88.3385
2023-03-11 18:04:11:992,0,-8.05194,-3.64903,88.3359
2023-03-11 18:04:12:2,0,-8.04794,-3.63756,88.3332
2023-03-11 18:04:12:12,0,-8.0386,-3.62613,88.3285
2023-03-11 18:04:12:22,0,-8.02982,-3.62102,88.3257
2023-03-11 18:04:12:32,0,-8.02225,-3.62523,88.322
2023-03-11 18:04:12:42,0,-8.01448,-3.63335,88.322
2023-03-11 18:04:12:52,0,-8.00642,-3.64593,88.3227
2023-03-11 18:04:12:62,0,-7.99778,-3.66092,88.329
2023-03-11 18:04:12:72,0,-7.98957,-3.67542,88.3361
2023-03-11 18:04:12:82,0,-7.98249,-3.69049,88.3463
2023-03-11 18:04:12:92,0,-7.97573,-3.70662,88.3568
2023-03-11 18:04:12:102,0,-7.97125,-3.72412,88.3681
2023-03-11 18:04:12:112,0,-7.9731,-3.7381,88.3786
2023-03-11 18:04:12:122,0,-7.97683,-3.74794,88.3885
2023-03-11 18:04:12:132,0,-7.98559,-3.75915,88.3985
2023-03-11 18:04:12:142,0,-7.9935,-3.7707,88.4043
2023-03-11 18:04:12:152,0,-8.00743,-3.77809,88.4079
2023-03-11 18:04:12:162,0,-8.02582,-3.78439,88.4131
2023-03-11 18:04:12:172,0,-8.04155,-3.7925,88.4163
2023-03-11 18:04:12:182,0,-8.05741,-3.79744,88.42
2023-03-11 18:04:12:192,0,-8.07024,-3.80068,88.4233
2023-03-11 18:04:12:202,0,-8.08318,-3.8023,88.4259
2023-03-11 18:04:12:212,0,-8.09502,-3.8081,88.4294
2023-03-11 18:04:12:222,0,-8.10868,-3.80906,88.4357
2023-03-11 18:04:12:232,0,-8.12329,-3.80336,88.44
2023-03-11 18:04:12:242,0,-8.13858,-3.80116,88.4462
2023-03-11 18:04:12:252,0,-8.1517,-3.79499,88.4488
2023-03-11 18:04:12:262,0,-8.15765,-3.79162,88.451
2023-03-11 18:04:12:272,0,-8.16242,-3.79512,88.4562
2023-03-11 18:04:12:282,0,-8.15755,-3.79603,88.4616
2023-03-11 18:04:12:292,0,-8.15238,-3.79365,88.4643
2023-03-11 18:04:12:302,0,-8.14241,-3.79742,88.466
2023-03-11 18:04:12:312,0,-8.13341,-3.79628,88.4698
2023-03-11 18:04:12:322,0,-8.12778,-3.79381,88.4695
2023-03-11 18:04:12:332,0,-8.11925,-3.7919,88.4699
2023-03-11 18:04:12:342,0,-8.10749,-3.79071,88.467
2023-03-11 18:04:12:352,0,-8.09514,-3.79075,88.4602
2023-03-11 18:04:12:362,0,-8.08451,-3.79275,88.454
2023-03-11 18:04:12:372,0,-8.07219,-3.79492,88.4462
2023-03-11 18:04:12:382,0,-8.06029,-3.79561,88.4392
2023-03-11 18:04:12:392,0,-8.0448,-3.79939,88.4286
2023-03-11 18:04:12:402,0,-8.03185,-3.80116,88.4215
2023-03-11 18:04:12:412,0,-8.01792,-3.8073,88.4124
2023-03-11 18:04:12:422,0,-8.00511,-3.8102,88.4085
2023-03-11 18:04:12:432,0,-7.99238,-3.81617,88.404
2023-03-11 18:04:12:442,0,-7.98495,-3.82297,88.4018
2023-03-11 18:04:12:452,0,-7.98059,-3.82938,88.3999
2023-03-11 18:04:12:462,0,-7.98097,-3.83172,88.4051
2023-03-11 18:04:12:472,0,-7.98154,-3.83303,88.4089
2023-03-11 18:04:12:482,0,-7.98716,-3.8374,88.4152
2023-03-11 18:04:12:492,0,-7.99026,-3.83686,88.4221
2023-03-11 18:04:12:502,0,-7.99536,-3.83614,88.4252
2023-03-11 18:04:12:512,0,-8.00253,-3.83191,88.4292
2023-03-11 18:04:12:522,0,-8.0102,-3.82844,88.4328
2023-03-11 18:04:12:532,0,-8.02159,-3.8257,88.4357
2023-03-11 18:04:12:542,0,-8.03087,-3.823,88.4372
2023-03-11 18:04:12:552,0,-8.0391,-3.81939,88.4373
2023-03-11 18:04:12:562,0,-8.0516,-3.81695,88.4352
2023-03-11 18:04:12:572,0,-8.06344,-3.81225,88.4345
2023-03-11 18:04:12:582,0,-8.07932,-3.80774,88.4307
2023-03-11 18:04:12:592,0,-8.09028,-3.80332,88.4286
2023-03-11 18:04:12:602,0,-8.10603,-3.79701,88.4266
2023-03-11 18:04:12:612,0,-8.12555,-3.79166,88.427
2023-03-11 18:04:12:622,0,-8.13995,-3.78813,88.4256
2023-03-11 18:04:12:632,0,-8.15299,-3.7825,88.4252
2023-03-11 18:04:12:642,0,-8.16397,-3.77702,88.4235
2023-03-11 18:04:12:652,0,-8.1732,-3.77475,88.4227
2023-03-11 18:04:12:662,0,-8.18004,-3.77617,88.4206
2023-03-11 18:04:12:672,0,-8.18412,-3.77338,88.4179
2023-03-11 18:04:12:682,0,-8.1867,-3.77401,88.4142
2023-03-11 18:04:12:692,0,-8.18694,-3.77782,88.4103
2023-03-11 18:04:12:702,0,-8.18509,-3.77902,88.4043
2023-03-11 18:04:12:712,0,-8.184,-3.77973,88.3982
2023-03-11 18:04:12:722,0,-8.17986,-3.78089,88.3967
2023-03-11 18:04:12:732,0,-8.1793,-3.77853,88.3917
2023-03-11 18:04:12:742,0,-8.17824,-3.77493,88.3915
2023-03-11 18:04:12:752,0,-8.1758,-3.77098,88.3918
2023-03-11 18:04:12:762,0,-8.17319,-3.76792,88.3953
2023-03-11 18:04:12:772,0,-8.16618,-3.76571,88.3959
2023-03-11 18:04:12:782,0,-8.15867,-3.76258,88.399
2023-03-11 18:04:12:792,0,-8.15012,-3.75576,88.3993
2023-03-11 18:04:12:802,0,-8.14271,-3.74798,88.4022
2023-03-11 18:04:12:812,0,-8.13365,-3.73839,88.4042
2023-03-11 18:04:12:822,0,-8.12797,-3.72567,88.4046
2023-03-11 18:04:12:832,0,-8.1206,-3.71578,88.4016
2023-03-11 18:04:12:842,0,-8.11263,-3.70756,88.3955
2023-03-11 18:04:12:852,0,-8.0997,-3.70205,88.393
2023-03-11 18:04:12:862,0,-8.08898,-3.70321,88.3953
2023-03-11 18:04:12:872,0,-8.08066,-3.71003,88.3977
2023-03-11 18:04:12:882,0,-8.07589,-3.71383,88.3995
2023-03-11 18:04:12:892,0,-8.0715,-3.71757,88.4034
2023-03-11 18:04:12:902,0,-8.07212,-3.71997,88.4085
2023-03-11 18:04:12:912,0,-8.07248,-3.72259,88.4118
2023-03-11 18:04:12:922,0,-8.07794,-3.72701,88.4232
2023-03-11 18:04:12:932,0,-8.08533,-3.7353,88.4319
2023-03-11 18:04:12:942,0,-8.09418,-3.74001,88.4409
2023-03-11 18:04:12:952,0,-8.10009,-3.74487,88.4475
2023-03-11 18:04:12:962,0,-8.10317,-3.74667,88.4494
2023-03-11 18:04:12:972,0,-8.10854,-3.74882,88.4503
2023-03-11 18:04:12:982,0,-8.11655,-3.74968,88.4481
2023-03-11 18:04:12:992,0,-8.12451,-3.74937,88.4442
2023-03-11 18:04:13:2,0,-8.13233,-3.74785,88.4398
2023-03-11 18:04:13:12,0,-8.14482,-3.74425,88.4303
2023-03-11 18:04:13:22,0,-8.15527,-3.74432,88.4236
2023-03-11 18:04:13:32,0,-8.16285,-3.74268,88.4206
2023-03-11 18:04:13:42,0,-8.17354,-3.74027,88.4145
2023-03-11 18:04:13:52,0,-8.18391,-3.73728,88.4118
2023-03-11 18:04:13:62,0,-8.19208,-3.73083,88.41
2023-03-11 18:04:13:72,0,-8.19659,-3.71931,88.4079
2023-03-11 18:04:13:82,0,-8.19777,-3.71187,88.4058
2023-03-11 18:04:13:92,0,-8.20014,-3.70761,88.405
2023-03-11 18:04:13:102,0,-8.20205,-3.70778,88.409
2023-03-11 18:04:13:112,0,-8.20281,-3.71157,88.4144
2023-03-11 18:04:13:122,0,-8.2052,-3.7123,88.4214
2023-03-11 18:04:13:132,0,-8.20869,-3.71389,88.4288
2023-03-11 18:04:13:142,0,-8.21039,-3.71698,88.4322
2023-03-11 18:04:13:152,0,-8.21431,-3.71854,88.4359
2023-03-11 18:04:13:162,0,-8.21607,-3.72527,88.4436
2023-03-11 18:04:13:172,0,-8.21866,-3.73114,88.4494
2023-03-11 18:04:13:182,0,-8.22194,-3.74068,88.4529
2023-03-11 18:04:13:192,0,-8.22306,-3.74989,88.4598
2023-03-11 18:04:13:202,0,-8.22494,-3.75711,88.4673
2023-03-11 18:04:13:212,0,-8.22661,-3.76848,88.4728
2023-03-11 18:04:13:222,0,-8.22496,-3.78132,88.4798
2023-03-11 18:04:13:232,0,-8.22205,-3.79377,88.4853
2023-03-11 18:04:13:242,0,-8.21302,-3.80789,88.4899
2023-03-11 18:04:13:252,0,-8.20529,-3.81919,88.4951
2023-03-11 18:04:13:262,0,-8.19632,-3.82901,88.5022
2023-03-11 18:04:13:272,0,-8.18422,-3.83897,88.5112
2023-03-11 18:04:13:282,0,-8.17346,-3.8488,88.5195
2023-03-11 18:04:13:292,0,-8.16214,-3.85444,88.5304
2023-03-11 18:04:13:302,0,-8.14363,-3.85801,88.5425
2023-03-11 18:04:13:312,0,-8.12526,-3.8571,88.5524
2023-03-11 18:04:13:322,0,-8.11001,-3.85624,88.5622
2023-03-11 18:04:13:332,0,-8.09228,-3.85533,88.5688
2023-03-11 18:04:13:342,0,-8.07962,-3.85292,88.5757
2023-03-11 18:04:13:352,0,-8.06458,-3.85184,88.5756
2023-03-11 18:04:13:362,0,-8.04828,-3.84725,88.5789
2023-03-11 18:04:13:372,0,-8.04045,-3.84864,88.573
2023-03-11 18:04:13:382,0,-8.03985,-3.85173,88.571
2023-03-11 18:04:13:392,0,-8.03393,-3.852,88.5699
2023-03-11 18:04:13:402,0,-8.03068,-3.84937,88.5621
2023-03-11 18:04:13:412,0,-8.02914,-3.84573,88.5562
2023-03-11 18:04:13:422,0,-8.02824,-3.84062,88.5506
2023-03-11 18:04:13:432,0,-8.02721,-3.83628,88.5421
2023-03-11 18:04:13:442,0,-8.02693,-3.82978,88.5358
2023-03-11 18:04:13:452,0,-8.03233,-3.82111,88.5333
2023-03-11 18:04:13:462,0,-8.03845,-3.81979,88.5326
2023-03-11 18:04:13:472,0,-8.04292,-3.81429,88.5289
2023-03-11 18:04:13:482,0,-8.04739,-3.81039,88.5237
2023-03-11 18:04:13:492,0,-8.05328,-3.8071,88.5222
2023-03-11 18:04:13:502,0,-8.05587,-3.8073,88.522
2023-03-11 18:04:13:512,0,-8.05724,-3.80833,88.5235
2023-03-11 18:04:13:522,0,-8.05765,-3.80901,88.524
2023-03-11 18:04:13:532,0,-8.05759,-3.81419,88.526
2023-03-11 18:04:13:542,0,-8.05772,-3.81472,88.5272
2023-03-11 18:04:13:552,0,-8.0598,-3.82077,88.529
2023-03-11 18:04:13:562,0,-8.05867,-3.82258,88.5325
2023-03-11 18:04:13:572,0,-8.05473,-3.82277,88.5345
2023-03-11 18:04:13:582,0,-8.04442,-3.81823,88.536
2023-03-11 18:04:13:592,0,-8.03139,-3.81215,88.5369
2023-03-11 18:04:13:602,0,-8.01796,-3.80828,88.5357
2023-03-11 18:04:13:612,0,-8.01035,-3.80232,88.5315
2023-03-11 18:04:13:622,0,-7.99817,-3.79632,88.5299
2023-03-11 18:04:13:632,0,-7.99089,-3.78702,88.5269
2023-03-11 18:04:13:642,0,-7.98554,-3.78213,88.5213
2023-03-11 18:04:13:652,0,-7.97734,-3.77622,88.5178
2023-03-11 18:04:13:662,0,-7.9712,-3.7751,88.5173
2023-03-11 18:04:13:672,0,-7.96378,-3.77722,88.5159
2023-03-11 18:04:13:682,0,-7.95405,-3.78192,88.5167
2023-03-11 18:04:13:692,0,-7.94619,-3.78621,88.5154
2023-03-11 18:04:13:702,0,-7.94092,-3.78878,88.5134
2023-03-11 18:04:13:712,0,-7.93881,-3.79182,88.511
2023-03-11 18:04:13:722,0,-7.93404,-3.78946,88.5093
2023-03-11 18:04:13:732,0,-7.93601,-3.78822,88.5076
2023-03-11 18:04:13:742,0,-7.94172,-3.78896,88.5073
2023-03-11 18:04:13:752,0,-7.94975,-3.78713,88.5043
2023-03-11 18:04:13:762,0,-7.9545,-3.78606,88.5008
2023-03-11 18:04:13:772,0,-7.9639,-3.78053,88.4987
2023-03-11 18:04:13:782,0,-7.97196,-3.77348,88.4939
2023-03-11 18:04:13:792,0,-7.98414,-3.76368,88.4904
2023-03-11 18:04:13:802,0,-7.99531,-3.7526,88.4795
2023-03-11 18:04:13:812,0,-8.00766,-3.7434,88.4715
2023-03-11 18:04:13:822,0,-8.02228,-3.72885,88.457
2023-03-11 18:04:13:832,0,-8.03535,-3.7173,88.4453
2023-03-11 18:04:13:842,0,-8.04496,-3.71036,88.4308
2023-03-11 18:04:13:852,0,-8.05579,-3.70267,88.4197
2023-03-11 18:04:13:862,0,-8.06501,-3.69575,88.4078
2023-03-11 18:04:13:872,0,-8.07503,-3.68471,88.3992
2023-03-11 18:04:13:882,0,-8.08637,-3.66684,88.3894
2023-03-11 18:04:13:892,0,-8.094,-3.6531,88.3795
2023-03-11 18:04:13:902,0,-8.10017,-3.64481,88.3687
2023-03-11 18:04:13:912,0,-8.10284,-3.63815,88.3614
2023-03-11 18:04:13:922,0,-8.10218,-3.63164,88.3581
2023-03-11 18:04:13:932,0,-8.10182,-3.62744,88.3531
2023-03-11 18:04:13:942,0,-8.1021,-3.62313,88.3476
2023-03-11 18:04:13:952,0,-8.10414,-3.61503,88.3424
2023-03-11 18:04:13:962,0,-8.10809,-3.61173,88.343
2023-03-11 18:04:13:972,0,-8.11207,-3.60994,88.346
2023-03-11 18:04:13:982,0,-8.11236,-3.60923,88.3473
2023-03-11 18:04:13:992,0,-8.1131,-3.6094,88.3473
2023-03-11 18:04:14:2,0,-8.11722,-3.61161,88.3493
2023-03-11 18:04:14:12,0,-8.11407,-3.61249,88.3517
2023-03-11 18:04:14:22,0,-8.10655,-3.61422,88.3556
2023-03-11 18:04:14:32,0,-8.0984,-3.61965,88.3608
2023-03-11 18:04:14:42,0,-8.09016,-3.62191,88.3596
2023-03-11 18:04:14:52,0,-8.07971,-3.63228,88.3595
2023-03-11 18:04:14:62,0,-8.06864,-3.64077,88.3616
2023-03-11 18:04:14:72,0,-8.05153,-3.65273,88.3602
2023-03-11 18:04:14:82,0,-8.03921,-3.66681,88.3676
2023-03-11 18:04:14:92,0,-8.02698,-3.67775,88.3744
2023-03-11 18:04:14:102,0,-8.0171,-3.69205,88.3875
2023-03-11 18:04:14:112,0,-8.00847,-3.70529,88.3982
2023-03-11 18:04:14:122,0,-8.00183,-3.71204,88.407
