Timestamp_cmd,imu_cmd,roll_delta,pitch_delta,yaw_delta,voice_type,voice_length
2023-03-15 15:31:46:564,0,-1.68266,-1.45552,-20.6597,Q,Q
2023-03-15 15:31:46:572,0,-1.70864,-1.46576,-20.6457,Q,Q
2023-03-15 15:31:46:582,0,-1.73347,-1.47541,-20.6311,Q,Q
2023-03-15 15:31:46:593,0,-1.76248,-1.49063,-20.6137,Q,Q
2023-03-15 15:31:46:603,0,-1.79021,-1.4988,-20.5963,Q,Q
2023-03-15 15:31:46:614,0,-1.82001,-1.50871,-20.581,Q,Q
2023-03-15 15:31:46:622,0,-1.85013,-1.51299,-20.5681,Q,Q
2023-03-15 15:31:46:632,0,-1.8745,-1.52186,-20.555,Q,Q
2023-03-15 15:31:46:642,0,-1.8988,-1.53262,-20.5398,Q,Q
2023-03-15 15:31:46:652,0,-1.92103,-1.54251,-20.5272,Q,Q
2023-03-15 15:31:46:662,0,-1.93978,-1.54467,-20.5122,Q,Q
2023-03-15 15:31:46:673,0,-1.95894,-1.54803,-20.4968,Q,Q
2023-03-15 15:31:46:682,0,-1.98036,-1.54911,-20.4884,Q,Q
2023-03-15 15:31:46:692,0,-2.00198,-1.54969,-20.4853,Q,Q
2023-03-15 15:31:46:702,0,-2.02869,-1.5542,-20.4828,Q,Q
2023-03-15 15:31:46:713,0,-2.05454,-1.55226,-20.4826,Q,Q
2023-03-15 15:31:46:723,0,-2.08198,-1.55028,-20.4881,Q,Q
2023-03-15 15:31:46:733,0,-2.10667,-1.54652,-20.4965,Q,Q
2023-03-15 15:31:46:743,0,-2.13032,-1.53717,-20.511,Q,Q
2023-03-15 15:31:46:753,0,-2.15025,-1.53116,-20.5281,Q,Q
2023-03-15 15:31:46:762,0,-2.16662,-1.51828,-20.5514,Q,Q
2023-03-15 15:31:46:773,0,-2.1778,-1.50594,-20.5733,Q,Q
2023-03-15 15:31:46:783,0,-2.18697,-1.49423,-20.5987,Q,Q
2023-03-15 15:31:46:793,0,-2.19168,-1.4824,-20.6203,Q,Q
2023-03-15 15:31:46:803,0,-2.19963,-1.47194,-20.6448,Q,Q
2023-03-15 15:31:46:813,0,-2.21281,-1.46354,-20.6691,Q,Q
2023-03-15 15:31:46:823,0,-2.22803,-1.45036,-20.699,Q,Q
2023-03-15 15:31:46:833,0,-2.24177,-1.43772,-20.7284,Q,Q
2023-03-15 15:31:46:843,0,-2.25721,-1.42169,-20.7561,Q,Q
2023-03-15 15:31:46:853,0,-2.27149,-1.41555,-20.7838,Q,Q
2023-03-15 15:31:46:863,0,-2.28627,-1.41032,-20.8099,Q,Q
2023-03-15 15:31:46:873,0,-2.29629,-1.40316,-20.8402,Q,Q
2023-03-15 15:31:46:883,0,-2.30036,-1.39358,-20.8671,Q,Q
2023-03-15 15:31:46:893,0,-2.30518,-1.38353,-20.8995,Q,Q
2023-03-15 15:31:46:903,0,-2.31356,-1.37201,-20.9281,Q,Q
2023-03-15 15:31:46:913,0,-2.32423,-1.35998,-20.9611,Q,Q
2023-03-15 15:31:46:923,0,-2.33367,-1.34509,-20.9915,Q,Q
2023-03-15 15:31:46:933,0,-2.34941,-1.33438,-21.0249,Q,Q
2023-03-15 15:31:46:943,0,-2.3682,-1.32869,-21.0593,Q,Q
2023-03-15 15:31:46:953,0,-2.38718,-1.32184,-21.0885,Q,Q
2023-03-15 15:31:46:962,0,-2.40586,-1.31488,-21.1205,Q,Q
2023-03-15 15:31:46:973,0,-2.4199,-1.31473,-21.1581,Q,Q
2023-03-15 15:31:46:983,0,-2.43188,-1.31538,-21.1928,Q,Q
2023-03-15 15:31:46:993,0,-2.43757,-1.30821,-21.2331,Q,Q
2023-03-15 15:31:47:2,0,-2.43564,-1.30398,-21.2737,Q,Q
2023-03-15 15:31:47:12,0,-2.43092,-1.29958,-21.313,Q,Q
2023-03-15 15:31:47:22,0,-2.42218,-1.30035,-21.3531,Q,Q
2023-03-15 15:31:47:32,0,-2.41557,-1.29982,-21.3905,Q,Q
2023-03-15 15:31:47:42,0,-2.41039,-1.30229,-21.4263,Q,Q
2023-03-15 15:31:47:52,0,-2.40905,-1.30848,-21.4599,Q,Q
2023-03-15 15:31:47:62,0,-2.41053,-1.31408,-21.4913,Q,Q
2023-03-15 15:31:47:73,0,-2.41503,-1.31703,-21.522,Q,Q
2023-03-15 15:31:47:83,0,-2.41772,-1.31719,-21.5581,Q,Q
2023-03-15 15:31:47:92,0,-2.4173,-1.31737,-21.591,Q,Q
2023-03-15 15:31:47:103,0,-2.41362,-1.31705,-21.6179,Q,Q
2023-03-15 15:31:47:112,0,-2.40891,-1.31121,-21.6443,Q,Q
2023-03-15 15:31:47:123,0,-2.40792,-1.30659,-21.6636,Q,Q
2023-03-15 15:31:47:132,0,-2.41363,-1.30097,-21.6854,Q,Q
2023-03-15 15:31:47:143,0,-2.42955,-1.29608,-21.7051,Q,Q
2023-03-15 15:31:47:152,0,-2.45429,-1.28867,-21.7309,Q,Q
2023-03-15 15:31:47:162,0,-2.48542,-1.28615,-21.7543,Q,Q
2023-03-15 15:31:47:172,0,-2.52574,-1.28579,-21.7848,Q,Q
2023-03-15 15:31:47:182,0,-2.56633,-1.2865,-21.8214,Q,Q
2023-03-15 15:31:47:193,0,-2.60588,-1.28632,-21.8652,Q,Q
2023-03-15 15:31:47:202,0,-2.6384,-1.28134,-21.9136,Q,Q
2023-03-15 15:31:47:213,0,-2.66392,-1.27232,-21.9653,Q,Q
2023-03-15 15:31:47:222,0,-2.68919,-1.26209,-22.0202,Q,Q
2023-03-15 15:31:47:233,0,-2.7146,-1.25023,-22.0726,Q,Q
2023-03-15 15:31:47:242,0,-2.73709,-1.238,-22.1274,Q,Q
2023-03-15 15:31:47:252,0,-2.75264,-1.22622,-22.1815,Q,Q
2023-03-15 15:31:47:262,0,-2.77089,-1.21238,-22.2335,Q,Q
2023-03-15 15:31:47:273,0,-2.78677,-1.20134,-22.2858,Q,Q
2023-03-15 15:31:47:283,0,-2.79742,-1.19174,-22.3407,Q,Q
2023-03-15 15:31:47:293,0,-2.80619,-1.1851,-22.3936,Q,Q
2023-03-15 15:31:47:303,0,-2.81289,-1.1796,-22.4413,Q,Q
2023-03-15 15:31:47:313,0,-2.82182,-1.17149,-22.4911,Q,Q
2023-03-15 15:31:47:322,0,-2.82929,-1.168,-22.5384,Q,Q
2023-03-15 15:31:47:332,0,-2.83963,-1.16415,-22.5852,Q,Q
2023-03-15 15:31:47:342,0,-2.85631,-1.1588,-22.6312,Q,Q
2023-03-15 15:31:47:352,0,-2.87622,-1.1501,-22.6724,Q,Q
2023-03-15 15:31:47:362,0,-2.90147,-1.14043,-22.7121,Q,Q
2023-03-15 15:31:47:372,0,-2.92519,-1.12931,-22.75,Q,Q
2023-03-15 15:31:47:382,0,-2.94438,-1.12156,-22.7869,Q,Q
2023-03-15 15:31:47:393,0,-2.96013,-1.11116,-22.8214,Q,Q
2023-03-15 15:31:47:403,0,-2.97598,-1.09876,-22.8553,Q,Q
2023-03-15 15:31:47:413,0,-2.99597,-1.08503,-22.8829,Q,Q
2023-03-15 15:31:47:422,0,-3.01467,-1.06879,-22.9101,Q,Q
2023-03-15 15:31:47:433,0,-3.03933,-1.05038,-22.9347,Q,Q
2023-03-15 15:31:47:442,0,-3.06866,-1.03636,-22.9527,Q,Q
2023-03-15 15:31:47:452,0,-3.09681,-1.0286,-22.9747,Q,Q
2023-03-15 15:31:47:462,0,-3.12411,-1.02057,-22.991,Q,Q
2023-03-15 15:31:47:472,0,-3.14237,-1.01524,-23.0109,Q,Q
2023-03-15 15:31:47:482,0,-3.15461,-1.00813,-23.0265,Q,Q
2023-03-15 15:31:47:492,0,-3.17053,-1.00149,-23.0432,Q,Q
2023-03-15 15:31:47:502,0,-3.1816,-0.998957,-23.0602,Q,Q
2023-03-15 15:31:47:512,0,-3.19224,-1.00177,-23.0731,Q,Q
2023-03-15 15:31:47:523,0,-3.20425,-0.997193,-23.0877,Q,Q
2023-03-15 15:31:47:532,0,-3.21412,-0.995194,-23.1013,Q,Q
2023-03-15 15:31:47:543,0,-3.21834,-0.989995,-23.1139,Q,Q
2023-03-15 15:31:47:553,0,-3.22541,-0.985782,-23.1282,Q,Q
2023-03-15 15:31:47:563,0,-3.23468,-0.980292,-23.1391,Q,Q
2023-03-15 15:31:47:572,0,-3.24175,-0.979606,-23.1544,Q,Q
2023-03-15 15:31:47:583,0,-3.25338,-0.97961,-23.1653,Q,Q
2023-03-15 15:31:47:593,0,-3.26319,-0.979728,-23.18,Q,Q
2023-03-15 15:31:47:602,0,-3.26663,-0.978611,-23.1887,Q,Q
2023-03-15 15:31:47:613,0,-3.26858,-0.973817,-23.194,Q,Q
2023-03-15 15:31:47:623,0,-3.2685,-0.972873,-23.1951,Q,Q
2023-03-15 15:31:47:633,0,-3.27621,-0.971466,-23.1948,Q,Q
2023-03-15 15:31:47:643,0,-3.28493,-0.973094,-23.1934,Q,Q
2023-03-15 15:31:47:652,0,-3.29727,-0.983194,-23.1889,Q,Q
2023-03-15 15:31:47:663,0,-3.3151,-0.989867,-23.1845,Q,Q
2023-03-15 15:31:47:673,0,-3.33225,-0.995927,-23.179,Q,Q
2023-03-15 15:31:47:683,0,-3.35294,-0.99865,-23.1714,Q,Q
2023-03-15 15:31:47:693,0,-3.37383,-1.00759,-23.1602,Q,Q
2023-03-15 15:31:47:703,0,-3.39141,-1.01581,-23.1499,Q,Q
2023-03-15 15:31:47:713,0,-3.41224,-1.02372,-23.1433,Q,Q
2023-03-15 15:31:47:723,0,-3.43168,-1.02657,-23.1394,Q,Q
2023-03-15 15:31:47:733,0,-3.45521,-1.02807,-23.1352,Q,Q
2023-03-15 15:31:47:743,0,-3.47322,-1.03035,-23.1338,Q,Q
2023-03-15 15:31:47:753,0,-3.48833,-1.02953,-23.132,Q,Q
2023-03-15 15:31:47:763,0,-3.49952,-1.02809,-23.1347,Q,Q
2023-03-15 15:31:47:773,0,-3.50458,-1.02918,-23.1358,Q,Q
2023-03-15 15:31:47:782,0,-3.50521,-1.03347,-23.1398,Q,Q
2023-03-15 15:31:47:792,0,-3.50596,-1.0451,-23.1463,Q,Q
2023-03-15 15:31:47:802,0,-3.50075,-1.05477,-23.1577,Q,Q
2023-03-15 15:31:47:813,0,-3.49127,-1.06053,-23.1732,Q,Q
2023-03-15 15:31:47:823,0,-3.47965,-1.06187,-23.1882,Q,Q
2023-03-15 15:31:47:833,0,-3.47391,-1.06512,-23.2044,Q,Q
2023-03-15 15:31:47:843,0,-3.47734,-1.06948,-23.2234,Q,Q
2023-03-15 15:31:47:853,0,-3.48127,-1.07329,-23.2422,Q,Q
2023-03-15 15:31:47:863,0,-3.48664,-1.0783,-23.2653,Q,Q
2023-03-15 15:31:47:873,0,-3.48945,-1.08507,-23.2942,Q,Q
2023-03-15 15:31:47:883,0,-3.49857,-1.09162,-23.3308,Q,Q
2023-03-15 15:31:47:893,0,-3.50672,-1.09644,-23.3761,Q,Q
2023-03-15 15:31:47:903,0,-3.51493,-1.10989,-23.4263,Q,Q
2023-03-15 15:31:47:913,0,-3.51939,-1.12401,-23.4806,Q,Q
2023-03-15 15:31:47:923,0,-3.52718,-1.13731,-23.539,Q,Q
2023-03-15 15:31:47:933,0,-3.54156,-1.15233,-23.5995,Q,Q
2023-03-15 15:31:47:943,0,-3.55906,-1.1716,-23.6565,Q,Q
2023-03-15 15:31:47:953,0,-3.5812,-1.18845,-23.7168,Q,Q
2023-03-15 15:31:47:963,0,-3.60355,-1.20447,-23.773,Q,Q
2023-03-15 15:31:47:973,0,-3.62242,-1.21807,-23.822,Q,Q
2023-03-15 15:31:47:983,0,-3.6422,-1.22782,-23.8664,Q,Q
2023-03-15 15:31:47:993,0,-3.65853,-1.23288,-23.9036,Q,Q
2023-03-15 15:31:48:2,0,-3.67132,-1.23802,-23.937,Q,Q
2023-03-15 15:31:48:13,0,-3.68064,-1.23465,-23.961,Q,Q
2023-03-15 15:31:48:22,0,-3.68796,-1.23227,-23.9799,Q,Q
2023-03-15 15:31:48:32,0,-3.69021,-1.23228,-23.9928,Q,Q
2023-03-15 15:31:48:43,0,-3.69115,-1.22922,-24.0031,Q,Q
2023-03-15 15:31:48:53,0,-3.69177,-1.2313,-24.0092,Q,Q
2023-03-15 15:31:48:63,0,-3.6879,-1.22947,-24.0171,Q,Q
2023-03-15 15:31:48:73,0,-3.68554,-1.23005,-24.0202,Q,Q
2023-03-15 15:31:48:83,0,-3.68215,-1.22763,-24.0218,Q,Q
2023-03-15 15:31:48:93,0,-3.67939,-1.22967,-24.0245,Q,Q
2023-03-15 15:31:48:103,0,-3.67633,-1.23165,-24.0252,Q,Q
2023-03-15 15:31:48:113,0,-3.6723,-1.2333,-24.025,Q,Q
2023-03-15 15:31:48:123,0,-3.66804,-1.24134,-24.0208,Q,Q
2023-03-15 15:31:48:133,0,-3.67052,-1.25332,-24.0189,Q,Q
2023-03-15 15:31:48:143,0,-3.67338,-1.26325,-24.0147,Q,Q
2023-03-15 15:31:48:153,0,-3.67836,-1.27878,-24.0118,Q,Q
2023-03-15 15:31:48:163,0,-3.68248,-1.29126,-24.0126,Q,Q
2023-03-15 15:31:48:173,0,-3.67867,-1.30468,-24.0151,Q,Q
2023-03-15 15:31:48:183,0,-3.67466,-1.31664,-24.0155,Q,Q
2023-03-15 15:31:48:193,0,-3.66652,-1.33161,-24.0102,Q,Q
2023-03-15 15:31:48:203,0,-3.65987,-1.34502,-24.0051,Q,Q
2023-03-15 15:31:48:213,0,-3.65372,-1.35847,-24.0033,Q,Q
2023-03-15 15:31:48:223,0,-3.65214,-1.37016,-23.9989,Q,Q
2023-03-15 15:31:48:233,0,-3.6524,-1.38318,-23.993,Q,Q
2023-03-15 15:31:48:243,0,-3.65579,-1.39317,-23.9873,Q,Q
2023-03-15 15:31:48:253,0,-3.65905,-1.40581,-23.9796,Q,Q
2023-03-15 15:31:48:263,0,-3.65724,-1.41774,-23.9704,Q,Q
2023-03-15 15:31:48:273,0,-3.65157,-1.42943,-23.9598,Q,Q
2023-03-15 15:31:48:282,0,-3.64917,-1.43937,-23.9503,Q,Q
2023-03-15 15:31:48:292,0,-3.6494,-1.44811,-23.9387,Q,Q
2023-03-15 15:31:48:302,0,-3.64852,-1.45539,-23.9303,Q,Q
2023-03-15 15:31:48:313,0,-3.65616,-1.46411,-23.9214,Q,Q
2023-03-15 15:31:48:323,0,-3.66704,-1.46898,-23.9095,Q,Q
2023-03-15 15:31:48:333,0,-3.6733,-1.46996,-23.8992,Q,Q
2023-03-15 15:31:48:343,0,-3.68092,-1.47023,-23.8855,Q,Q
2023-03-15 15:31:48:353,0,-3.69131,-1.46903,-23.8707,Q,Q
2023-03-15 15:31:48:363,0,-3.69922,-1.46933,-23.8544,Q,Q
2023-03-15 15:31:48:373,0,-3.70942,-1.47275,-23.8338,Q,Q
2023-03-15 15:31:48:383,0,-3.71866,-1.474,-23.8174,Q,Q
2023-03-15 15:31:48:393,0,-3.72406,-1.47681,-23.8011,Q,Q
2023-03-15 15:31:48:403,0,-3.73261,-1.47766,-23.7882,Q,Q
2023-03-15 15:31:48:413,0,-3.74106,-1.47827,-23.779,Q,Q
2023-03-15 15:31:48:423,0,-3.75037,-1.47722,-23.7708,Q,Q
2023-03-15 15:31:48:433,0,-3.76569,-1.48157,-23.7627,Q,Q
2023-03-15 15:31:48:443,0,-3.78009,-1.48358,-23.752,Q,Q
2023-03-15 15:31:48:453,0,-3.78849,-1.49011,-23.7498,Q,Q
2023-03-15 15:31:48:463,0,-3.79495,-1.49869,-23.7489,Q,Q
2023-03-15 15:31:48:473,0,-3.80231,-1.50917,-23.7465,Q,Q
2023-03-15 15:31:48:483,0,-3.80879,-1.51859,-23.7488,Q,Q
2023-03-15 15:31:48:493,0,-3.81402,-1.52792,-23.7541,Q,Q
2023-03-15 15:31:48:502,0,-3.81817,-1.53272,-23.7634,Q,Q
2023-03-15 15:31:48:513,0,-3.82331,-1.53542,-23.77,Q,Q
2023-03-15 15:31:48:523,0,-3.82848,-1.53143,-23.781,Q,Q
2023-03-15 15:31:48:533,0,-3.8359,-1.52879,-23.7916,Q,Q
2023-03-15 15:31:48:543,0,-3.84861,-1.5285,-23.8029,Q,Q
2023-03-15 15:31:48:553,0,-3.85879,-1.5264,-23.8164,Q,Q
2023-03-15 15:31:48:563,0,-3.86879,-1.52436,-23.8318,Q,Q
2023-03-15 15:31:48:573,0,-3.88285,-1.52451,-23.8477,Q,Q
2023-03-15 15:31:48:583,0,-3.89735,-1.52394,-23.8661,Q,Q
2023-03-15 15:31:48:593,0,-3.90773,-1.51805,-23.8862,Q,Q
2023-03-15 15:31:48:603,0,-3.91654,-1.51321,-23.9079,Q,Q
2023-03-15 15:31:48:613,0,-3.92075,-1.50854,-23.9306,Q,Q
2023-03-15 15:31:48:623,0,-3.91855,-1.50273,-23.9524,Q,Q
2023-03-15 15:31:48:632,0,-3.91957,-1.49301,-23.9754,Q,Q
2023-03-15 15:31:48:643,0,-3.91929,-1.49163,-23.9983,Q,Q
2023-03-15 15:31:48:653,0,-3.92099,-1.48778,-24.0199,Q,Q
2023-03-15 15:31:48:663,0,-3.91891,-1.48513,-24.0442,Q,Q
2023-03-15 15:31:48:673,0,-3.92065,-1.47919,-24.066,Q,Q
2023-03-15 15:31:48:683,0,-3.92253,-1.47322,-24.0843,Q,Q
2023-03-15 15:31:48:692,0,-3.92578,-1.46758,-24.106,Q,Q
2023-03-15 15:31:48:703,0,-3.92855,-1.46834,-24.1227,Q,Q
2023-03-15 15:31:48:712,0,-3.92909,-1.46531,-24.137,Q,Q
2023-03-15 15:31:48:723,0,-3.92476,-1.46551,-24.1496,Q,Q
2023-03-15 15:31:48:733,0,-3.92257,-1.46488,-24.1659,Q,Q
2023-03-15 15:31:48:742,0,-3.91507,-1.46246,-24.1806,Q,Q
2023-03-15 15:31:48:753,0,-3.90908,-1.46308,-24.1931,Q,Q
2023-03-15 15:31:48:762,0,-3.90242,-1.4603,-24.2066,Q,Q
2023-03-15 15:31:48:772,0,-3.89712,-1.45591,-24.2176,Q,Q
2023-03-15 15:31:48:782,0,-3.88747,-1.45781,-24.2259,Q,Q
2023-03-15 15:31:48:792,0,-3.87974,-1.45903,-24.2342,Q,Q
2023-03-15 15:31:48:802,0,-3.87283,-1.4626,-24.2386,Q,Q
2023-03-15 15:31:48:812,0,-3.86821,-1.46503,-24.2458,Q,Q
2023-03-15 15:31:48:822,0,-3.86334,-1.46792,-24.2515,Q,Q
2023-03-15 15:31:48:832,0,-3.85873,-1.47185,-24.2553,Q,Q
2023-03-15 15:31:48:842,0,-3.85267,-1.47395,-24.2569,Q,Q
2023-03-15 15:31:48:852,0,-3.85033,-1.47816,-24.2606,Q,Q
2023-03-15 15:31:48:862,0,-3.8533,-1.47955,-24.264,Q,Q
2023-03-15 15:31:48:872,0,-3.85167,-1.48427,-24.2668,Q,Q
2023-03-15 15:31:48:882,0,-3.85225,-1.48904,-24.2684,Q,Q
2023-03-15 15:31:48:892,0,-3.8549,-1.49474,-24.268,Q,Q
2023-03-15 15:31:48:902,0,-3.8578,-1.50339,-24.2671,Q,Q
2023-03-15 15:31:48:912,0,-3.86524,-1.50594,-24.2674,Q,Q
2023-03-15 15:31:48:922,0,-3.87151,-1.50668,-24.265,Q,Q
2023-03-15 15:31:48:932,0,-3.87517,-1.51002,-24.2643,Q,Q
2023-03-15 15:31:48:942,0,-3.88353,-1.51278,-24.2602,Q,Q
2023-03-15 15:31:48:952,0,-3.89139,-1.51478,-24.2613,Q,Q
2023-03-15 15:31:48:962,0,-3.90114,-1.51111,-24.2604,Q,Q
2023-03-15 15:31:48:972,0,-3.91169,-1.51192,-24.2588,Q,Q
2023-03-15 15:31:48:982,0,-3.92644,-1.5117,-24.26,Q,Q
2023-03-15 15:31:48:993,0,-3.9342,-1.51131,-24.2614,Q,Q
2023-03-15 15:31:49:2,0,-3.94166,-1.51396,-24.2631,Q,Q
2023-03-15 15:31:49:12,0,-3.95332,-1.52152,-24.2631,Q,Q
2023-03-15 15:31:49:22,0,-3.96365,-1.52352,-24.2637,Q,Q
2023-03-15 15:31:49:32,0,-3.97419,-1.5248,-24.2676,Q,Q
2023-03-15 15:31:49:42,0,-3.981,-1.52038,-24.2734,Q,Q
2023-03-15 15:31:49:53,0,-3.98741,-1.5146,-24.2771,Q,Q
2023-03-15 15:31:49:62,0,-3.9933,-1.51341,-24.2856,Q,Q
2023-03-15 15:31:49:72,0,-3.99843,-1.51051,-24.2947,Q,Q
2023-03-15 15:31:49:82,0,-4.00177,-1.51038,-24.3018,Q,Q
2023-03-15 15:31:49:92,0,-4.00454,-1.51052,-24.3038,Q,Q
2023-03-15 15:31:49:102,0,-4.00507,-1.51497,-24.3104,Q,Q
2023-03-15 15:31:49:112,0,-4.00595,-1.51484,-24.3179,Q,Q
2023-03-15 15:31:49:122,0,-4.00911,-1.51411,-24.3192,Q,Q
2023-03-15 15:31:49:133,0,-4.01641,-1.51062,-24.3265,Q,Q
2023-03-15 15:31:49:142,0,-4.02347,-1.51079,-24.3388,Q,Q
2023-03-15 15:31:49:153,0,-4.03083,-1.50325,-24.349,Q,Q
2023-03-15 15:31:49:162,0,-4.03648,-1.49352,-24.3661,Q,Q
2023-03-15 15:31:49:173,0,-4.04145,-1.48246,-24.3843,Q,Q
2023-03-15 15:31:49:182,0,-4.04605,-1.47062,-24.3992,Q,Q
2023-03-15 15:31:49:192,0,-4.05196,-1.45936,-24.4176,Q,Q
2023-03-15 15:31:49:203,0,-4.06071,-1.44859,-24.4404,Q,Q
2023-03-15 15:31:49:213,0,-4.07072,-1.43773,-24.4651,Q,Q
2023-03-15 15:31:49:223,0,-4.08039,-1.42635,-24.4908,Q,Q
2023-03-15 15:31:49:233,0,-4.09181,-1.41673,-24.5216,Q,Q
2023-03-15 15:31:49:243,0,-4.10137,-1.40416,-24.5535,Q,Q
2023-03-15 15:31:49:253,0,-4.10791,-1.39415,-24.5876,Q,Q
2023-03-15 15:31:49:263,0,-4.11229,-1.38052,-24.6218,Q,Q
2023-03-15 15:31:49:273,0,-4.11368,-1.36696,-24.6528,Q,Q
2023-03-15 15:31:49:283,0,-4.1183,-1.35386,-24.6821,Q,Q
2023-03-15 15:31:49:293,0,-4.12059,-1.33863,-24.7088,Q,Q
2023-03-15 15:31:49:303,0,-4.12157,-1.31771,-24.7318,Q,Q
2023-03-15 15:31:49:313,0,-4.12276,-1.29957,-24.7491,Q,Q
2023-03-15 15:31:49:323,0,-4.12786,-1.27834,-24.7662,Q,Q
2023-03-15 15:31:49:333,0,-4.13123,-1.2634,-24.775,Q,Q
2023-03-15 15:31:49:343,0,-4.13241,-1.24891,-24.7817,Q,Q
2023-03-15 15:31:49:353,0,-4.13343,-1.23409,-24.7831,Q,Q
2023-03-15 15:31:49:363,0,-4.13862,-1.21859,-24.7864,Q,Q
2023-03-15 15:31:49:373,0,-4.14133,-1.20159,-24.7909,Q,Q
2023-03-15 15:31:49:383,0,-4.14465,-1.18053,-24.796,Q,Q
2023-03-15 15:31:49:393,0,-4.14934,-1.16659,-24.7975,Q,Q
2023-03-15 15:31:49:403,0,-4.16099,-1.15321,-24.8005,Q,Q
2023-03-15 15:31:49:413,0,-4.17201,-1.13996,-24.8039,Q,Q
2023-03-15 15:31:49:423,0,-4.18125,-1.13281,-24.8121,Q,Q
2023-03-15 15:31:49:433,0,-4.19089,-1.12836,-24.8214,Q,Q
2023-03-15 15:31:49:443,0,-4.20088,-1.13155,-24.8375,Q,Q
2023-03-15 15:31:49:453,0,-4.20762,-1.13236,-24.8529,Q,Q
2023-03-15 15:31:49:463,0,-4.21427,-1.13611,-24.8742,Q,Q
2023-03-15 15:31:49:473,0,-4.22234,-1.14175,-24.8923,Q,Q
2023-03-15 15:31:49:483,0,-4.23782,-1.14655,-24.9194,Q,Q
2023-03-15 15:31:49:493,0,-4.25091,-1.15345,-24.9428,Q,Q
2023-03-15 15:31:49:503,0,-4.26627,-1.1588,-24.9616,Q,Q
2023-03-15 15:31:49:513,0,-4.28587,-1.16475,-24.9824,Q,Q
2023-03-15 15:31:49:523,0,-4.30581,-1.17058,-24.9973,Q,Q
2023-03-15 15:31:49:532,0,-4.32963,-1.17345,-25.0117,Q,Q
2023-03-15 15:31:49:543,0,-4.34494,-1.17738,-25.0239,Q,Q
2023-03-15 15:31:49:553,0,-4.36263,-1.17884,-25.0329,Q,Q
2023-03-15 15:31:49:563,0,-4.37817,-1.1789,-25.0445,Q,Q
2023-03-15 15:31:49:573,0,-4.39385,-1.18041,-25.052,Q,Q
2023-03-15 15:31:49:583,0,-4.40546,-1.17597,-25.0593,Q,Q
2023-03-15 15:31:49:593,0,-4.41765,-1.16925,-25.0648,Q,Q
2023-03-15 15:31:49:603,0,-4.42816,-1.16542,-25.071,Q,Q
2023-03-15 15:31:49:613,0,-4.43544,-1.15819,-25.0776,Q,Q
2023-03-15 15:31:49:623,0,-4.44153,-1.15278,-25.0828,Q,Q
2023-03-15 15:31:49:633,0,-4.44789,-1.14727,-25.0861,Q,Q
2023-03-15 15:31:49:643,0,-4.45305,-1.14172,-25.0943,Q,Q
2023-03-15 15:31:49:653,0,-4.45682,-1.1391,-25.1126,Q,Q
2023-03-15 15:31:49:663,0,-4.45945,-1.14006,-25.1339,Q,Q
2023-03-15 15:31:49:673,0,-4.45822,-1.14136,-25.1621,Q,Q
2023-03-15 15:31:49:683,0,-4.45249,-1.14266,-25.1877,Q,Q
2023-03-15 15:31:49:693,0,-4.44783,-1.14048,-25.2159,Q,Q
2023-03-15 15:31:49:703,0,-4.4423,-1.13994,-25.2362,Q,Q
2023-03-15 15:31:49:713,0,-4.43957,-1.13425,-25.253,Q,Q
2023-03-15 15:31:49:723,0,-4.43844,-1.1285,-25.2685,Q,Q
2023-03-15 15:31:49:733,0,-4.44115,-1.12026,-25.2762,Q,Q
2023-03-15 15:31:49:743,0,-4.44229,-1.11385,-25.2766,Q,Q
2023-03-15 15:31:49:753,0,-4.44354,-1.11313,-25.2766,Q,Q
2023-03-15 15:31:49:762,0,-4.44112,-1.11964,-25.2725,Q,Q
2023-03-15 15:31:49:772,0,-4.43391,-1.12027,-25.2681,Q,Q
2023-03-15 15:31:49:783,0,-4.4277,-1.12265,-25.2629,Q,Q
2023-03-15 15:31:49:793,0,-4.42168,-1.12439,-25.2572,Q,Q
2023-03-15 15:31:49:803,0,-4.41496,-1.1334,-25.2526,Q,Q
2023-03-15 15:31:49:813,0,-4.40688,-1.13834,-25.2481,Q,Q
2023-03-15 15:31:49:822,0,-4.40077,-1.14817,-25.2433,Q,Q
2023-03-15 15:31:49:832,0,-4.39412,-1.15772,-25.239,Q,Q
2023-03-15 15:31:49:843,0,-4.39037,-1.17231,-25.2383,Q,Q
2023-03-15 15:31:49:852,0,-4.39336,-1.18421,-25.2408,Q,Q
2023-03-15 15:31:49:863,0,-4.40351,-1.19339,-25.2494,Q,Q
2023-03-15 15:31:49:873,0,-4.41591,-1.20252,-25.2624,Q,Q
2023-03-15 15:31:49:882,0,-4.43389,-1.21236,-25.2795,Q,Q
2023-03-15 15:31:49:893,0,-4.45398,-1.22484,-25.3011,Q,Q
2023-03-15 15:31:49:902,0,-4.47926,-1.24425,-25.3209,Q,Q
2023-03-15 15:31:49:913,0,-4.50069,-1.25823,-25.3412,Q,Q
2023-03-15 15:31:49:923,0,-4.5245,-1.27168,-25.3621,Q,Q
2023-03-15 15:31:49:933,0,-4.5538,-1.28415,-25.3771,Q,Q
2023-03-15 15:31:49:943,0,-4.5792,-1.28829,-25.3869,Q,Q
2023-03-15 15:31:49:953,0,-4.6027,-1.29202,-25.3921,Q,Q
2023-03-15 15:31:49:963,0,-4.62282,-1.29794,-25.3997,Q,Q
2023-03-15 15:31:49:973,0,-4.6385,-1.30359,-25.4053,Q,Q
2023-03-15 15:31:49:983,0,-4.65129,-1.31086,-25.4087,Q,Q
2023-03-15 15:31:49:993,0,-4.66181,-1.31804,-25.4135,Q,Q
2023-03-15 15:31:50:3,0,-4.67081,-1.32279,-25.4194,Q,Q
2023-03-15 15:31:50:13,0,-4.68006,-1.33063,-25.4212,Q,Q
2023-03-15 15:31:50:23,0,-4.69226,-1.33585,-25.4229,Q,Q
2023-03-15 15:31:50:33,0,-4.70551,-1.34363,-25.4289,Q,Q
2023-03-15 15:31:50:43,0,-4.71158,-1.34841,-25.4353,Q,Q
2023-03-15 15:31:50:53,0,-4.71508,-1.35338,-25.4438,Q,Q
2023-03-15 15:31:50:63,0,-4.71611,-1.35881,-25.4529,Q,Q
2023-03-15 15:31:50:73,0,-4.71247,-1.36164,-25.4621,Q,Q
2023-03-15 15:31:50:83,0,-4.71302,-1.36646,-25.4724,Q,Q
2023-03-15 15:31:50:93,0,-4.72425,-1.37352,-25.4884,Q,Q
2023-03-15 15:31:50:103,0,-4.73174,-1.38169,-25.5038,Q,Q
2023-03-15 15:31:50:113,0,-4.73975,-1.39092,-25.5205,Q,Q
2023-03-15 15:31:50:123,0,-4.74892,-1.40033,-25.535,Q,Q
2023-03-15 15:31:50:133,0,-4.75919,-1.41104,-25.5505,Q,Q
2023-03-15 15:31:50:143,0,-4.76564,-1.41653,-25.5645,Q,Q
2023-03-15 15:31:50:153,0,-4.77075,-1.42428,-25.5782,Q,Q
2023-03-15 15:31:50:163,0,-4.77408,-1.43605,-25.5863,Q,Q
2023-03-15 15:31:50:173,0,-4.77936,-1.44947,-25.5911,Q,Q
2023-03-15 15:31:50:183,0,-4.78715,-1.46485,-25.5909,Q,Q
2023-03-15 15:31:50:193,0,-4.79312,-1.47867,-25.5923,Q,Q
2023-03-15 15:31:50:203,0,-4.7996,-1.4923,-25.5936,Q,Q
2023-03-15 15:31:50:213,0,-4.80234,-1.5071,-25.591,Q,Q
2023-03-15 15:31:50:223,0,-4.80247,-1.51752,-25.589,Q,Q
2023-03-15 15:31:50:233,0,-4.80218,-1.52934,-25.5807,Q,Q
2023-03-15 15:31:50:243,0,-4.79734,-1.53993,-25.5746,Q,Q
2023-03-15 15:31:50:253,0,-4.79555,-1.55197,-25.565,Q,Q
2023-03-15 15:31:50:263,0,-4.79457,-1.56294,-25.5603,Q,Q
2023-03-15 15:31:50:273,0,-4.79296,-1.57373,-25.5549,Q,Q
2023-03-15 15:31:50:283,0,-4.78794,-1.58519,-25.5517,Q,Q
2023-03-15 15:31:50:293,0,-4.79088,-1.59485,-25.5504,Q,Q
2023-03-15 15:31:50:303,0,-4.78991,-1.60419,-25.549,Q,Q
2023-03-15 15:31:50:313,0,-4.79261,-1.61352,-25.5513,Q,Q
2023-03-15 15:31:50:323,0,-4.7943,-1.62721,-25.5567,Q,Q
2023-03-15 15:31:50:333,0,-4.7932,-1.63905,-25.5606,Q,Q
2023-03-15 15:31:50:343,0,-4.79236,-1.65068,-25.5689,Q,Q
2023-03-15 15:31:50:353,0,-4.79076,-1.66459,-25.5776,Q,Q
2023-03-15 15:31:50:363,0,-4.78436,-1.67224,-25.5876,Q,Q
2023-03-15 15:31:50:373,0,-4.78072,-1.68018,-25.597,Q,Q
2023-03-15 15:31:50:383,0,-4.77809,-1.68944,-25.6044,Q,Q
2023-03-15 15:31:50:393,0,-4.77698,-1.69617,-25.6144,Q,Q
2023-03-15 15:31:50:403,0,-4.77269,-1.70336,-25.6255,Q,Q
2023-03-15 15:31:50:413,0,-4.77233,-1.70819,-25.6363,Q,Q
2023-03-15 15:31:50:423,0,-4.77324,-1.70966,-25.6484,Q,Q
2023-03-15 15:31:50:433,0,-4.77498,-1.71307,-25.6598,Q,Q
2023-03-15 15:31:50:443,0,-4.77484,-1.7199,-25.6675,Q,Q
2023-03-15 15:31:50:453,0,-4.77258,-1.73204,-25.674,Q,Q
2023-03-15 15:31:50:463,0,-4.76488,-1.74811,-25.6788,Q,Q
2023-03-15 15:31:50:473,0,-4.75513,-1.76722,-25.6846,Q,Q
2023-03-15 15:31:50:483,0,-4.74594,-1.78331,-25.6898,Q,Q
2023-03-15 15:31:50:493,0,-4.74371,-1.79473,-25.6935,Q,Q
2023-03-15 15:31:50:503,0,-4.74282,-1.79853,-25.6956,Q,Q
2023-03-15 15:31:50:513,0,-4.74396,-1.80329,-25.6962,Q,Q
2023-03-15 15:31:50:523,0,-4.74743,-1.80914,-25.6967,Q,Q
2023-03-15 15:31:50:532,0,-4.75177,-1.81505,-25.6968,Q,Q
2023-03-15 15:31:50:542,0,-4.75817,-1.82192,-25.6957,Q,Q
2023-03-15 15:31:50:552,0,-4.75987,-1.82725,-25.7006,Q,Q
2023-03-15 15:31:50:562,0,-4.76699,-1.83166,-25.7082,Q,Q
2023-03-15 15:31:50:572,0,-4.77346,-1.83063,-25.7128,Q,Q
2023-03-15 15:31:50:582,0,-4.783,-1.8371,-25.7196,Q,Q
2023-03-15 15:31:50:592,0,-4.79048,-1.84373,-25.7295,Q,Q
2023-03-15 15:31:50:602,0,-4.79344,-1.8474,-25.7422,Q,Q
2023-03-15 15:31:50:613,0,-4.79445,-1.8516,-25.7572,Q,Q
2023-03-15 15:31:50:623,0,-4.7981,-1.85439,-25.7702,Q,Q
2023-03-15 15:31:50:633,0,-4.80041,-1.85671,-25.7852,Q,Q
2023-03-15 15:31:50:643,0,-4.79977,-1.85908,-25.7995,Q,Q
2023-03-15 15:31:50:653,0,-4.79843,-1.86198,-25.8137,Q,Q
2023-03-15 15:31:50:663,0,-4.79997,-1.86708,-25.8248,Q,Q
2023-03-15 15:31:50:673,0,-4.79526,-1.87134,-25.8405,Q,Q
2023-03-15 15:31:50:683,0,-4.78776,-1.87272,-25.8536,Q,Q
2023-03-15 15:31:50:693,0,-4.77581,-1.87903,-25.8657,Q,Q
2023-03-15 15:31:50:703,0,-4.76421,-1.88931,-25.8733,Q,Q
2023-03-15 15:31:50:713,0,-4.74949,-1.90288,-25.8827,Q,Q
2023-03-15 15:31:50:723,0,-4.73586,-1.91681,-25.8844,Q,Q
2023-03-15 15:31:50:733,0,-4.72218,-1.9304,-25.8862,Q,Q
2023-03-15 15:31:50:743,0,-4.70899,-1.94234,-25.8895,Q,Q
2023-03-15 15:31:50:752,0,-4.69957,-1.9549,-25.8892,Q,Q
2023-03-15 15:31:50:762,0,-4.68812,-1.96488,-25.8888,Q,Q
2023-03-15 15:31:50:773,0,-4.67737,-1.97542,-25.8864,Q,Q
2023-03-15 15:31:50:783,0,-4.66825,-1.98971,-25.8814,Q,Q
2023-03-15 15:31:50:793,0,-4.65999,-2.00414,-25.8749,Q,Q
2023-03-15 15:31:50:803,0,-4.6531,-2.01844,-25.8667,Q,Q
2023-03-15 15:31:50:813,0,-4.64886,-2.03557,-25.8598,Q,Q
2023-03-15 15:31:50:823,0,-4.64737,-2.04906,-25.8568,Q,Q
2023-03-15 15:31:50:833,0,-4.64394,-2.06206,-25.8548,Q,Q
2023-03-15 15:31:50:843,0,-4.6398,-2.07674,-25.8574,Q,Q
2023-03-15 15:31:50:853,0,-4.63836,-2.08965,-25.8649,Q,Q
2023-03-15 15:31:50:863,0,-4.63861,-2.10354,-25.8711,Q,Q
2023-03-15 15:31:50:873,0,-4.63938,-2.1159,-25.8767,Q,Q
2023-03-15 15:31:50:883,0,-4.64341,-2.12775,-25.8867,Q,Q
2023-03-15 15:31:50:893,0,-4.65418,-2.13968,-25.8983,Q,Q
2023-03-15 15:31:50:903,0,-4.6646,-2.15066,-25.9111,Q,Q
2023-03-15 15:31:50:913,0,-4.67536,-2.16156,-25.9222,Q,Q
2023-03-15 15:31:50:923,0,-4.68753,-2.17084,-25.9383,Q,Q
2023-03-15 15:31:50:933,0,-4.70284,-2.17955,-25.9556,Q,Q
2023-03-15 15:31:50:943,0,-4.71517,-2.18994,-25.9722,Q,Q
2023-03-15 15:31:50:953,0,-4.72827,-2.20525,-25.9915,Q,Q
2023-03-15 15:31:50:963,0,-4.73619,-2.2208,-26.0083,Q,Q
2023-03-15 15:31:50:973,0,-4.74488,-2.23635,-26.0247,Q,Q
2023-03-15 15:31:50:983,0,-4.74849,-2.25064,-26.0438,Q,Q
2023-03-15 15:31:50:993,0,-4.75499,-2.26628,-26.0609,Q,Q
2023-03-15 15:31:51:3,0,-4.75535,-2.28382,-26.0757,Q,Q
2023-03-15 15:31:51:13,0,-4.75728,-2.3017,-26.0884,Q,Q
2023-03-15 15:31:51:23,0,-4.75425,-2.32077,-26.1036,Q,Q
2023-03-15 15:31:51:33,0,-4.74615,-2.34065,-26.116,Q,Q
2023-03-15 15:31:51:43,0,-4.73673,-2.35405,-26.1265,Q,Q
2023-03-15 15:31:51:53,0,-4.72747,-2.36931,-26.1381,Q,Q
2023-03-15 15:31:51:63,0,-4.71288,-2.38513,-26.1504,Q,Q
2023-03-15 15:31:51:73,0,-4.69658,-2.40277,-26.1584,Q,Q
2023-03-15 15:31:51:83,0,-4.67622,-2.42094,-26.1662,Q,Q
2023-03-15 15:31:51:93,0,-4.654,-2.44081,-26.1724,Q,Q
2023-03-15 15:31:51:103,0,-4.62943,-2.45775,-26.1786,Q,Q
2023-03-15 15:31:51:113,0,-4.6038,-2.47905,-26.1791,Q,Q
2023-03-15 15:31:51:123,0,-4.58396,-2.50124,-26.1779,Q,Q
2023-03-15 15:31:51:133,0,-4.5652,-2.52543,-26.1759,Q,Q
2023-03-15 15:31:51:143,0,-4.55243,-2.54804,-26.1752,Q,Q
2023-03-15 15:31:51:153,0,-4.53988,-2.56858,-26.1732,Q,Q
2023-03-15 15:31:51:163,0,-4.52579,-2.58776,-26.1679,Q,Q
2023-03-15 15:31:51:173,0,-4.51269,-2.61355,-26.1641,Q,Q
2023-03-15 15:31:51:183,0,-4.49866,-2.63886,-26.1634,Q,Q
2023-03-15 15:31:51:193,0,-4.48606,-2.66385,-26.1635,Q,Q
2023-03-15 15:31:51:203,0,-4.47336,-2.68719,-26.1649,Q,Q
2023-03-15 15:31:51:213,0,-4.4635,-2.70867,-26.1676,Q,Q
2023-03-15 15:31:51:223,0,-4.45318,-2.72699,-26.174,Q,Q
2023-03-15 15:31:51:233,0,-4.44939,-2.74395,-26.1791,Q,Q
2023-03-15 15:31:51:243,0,-4.44989,-2.76489,-26.1821,Q,Q
2023-03-15 15:31:51:253,0,-4.451,-2.78953,-26.1864,Q,Q
2023-03-15 15:31:51:263,0,-4.45384,-2.81391,-26.1922,Q,Q
2023-03-15 15:31:51:273,0,-4.4596,-2.83925,-26.1962,Q,Q
2023-03-15 15:31:51:283,0,-4.46677,-2.85835,-26.2029,Q,Q
2023-03-15 15:31:51:293,0,-4.47592,-2.87977,-26.2093,Q,Q
2023-03-15 15:31:51:303,0,-4.48758,-2.89749,-26.2147,Q,Q
2023-03-15 15:31:51:313,0,-4.5019,-2.91581,-26.2162,Q,Q
2023-03-15 15:31:51:323,0,-4.5117,-2.92635,-26.2182,Q,Q
2023-03-15 15:31:51:333,0,-4.52143,-2.93697,-26.2185,Q,Q
2023-03-15 15:31:51:343,0,-4.53182,-2.94823,-26.2191,Q,Q
2023-03-15 15:31:51:353,0,-4.54755,-2.96198,-26.2209,Q,Q
2023-03-15 15:31:51:363,0,-4.56664,-2.97433,-26.221,Q,Q
2023-03-15 15:31:51:373,0,-4.581,-2.99082,-26.22,Q,Q
2023-03-15 15:31:51:383,0,-4.59478,-3.01116,-26.2218,Q,Q
2023-03-15 15:31:51:393,0,-4.60841,-3.02887,-26.2226,Q,Q
2023-03-15 15:31:51:403,0,-4.62139,-3.04822,-26.2271,Q,Q
2023-03-15 15:31:51:413,0,-4.63969,-3.06681,-26.2296,Q,Q
2023-03-15 15:31:51:423,0,-4.65523,-3.08085,-26.2395,Q,Q
2023-03-15 15:31:51:433,0,-4.67849,-3.09219,-26.2484,Q,Q
2023-03-15 15:31:51:443,0,-4.70455,-3.10205,-26.2593,Q,Q
2023-03-15 15:31:51:453,0,-4.73322,-3.10755,-26.2744,Q,Q
2023-03-15 15:31:51:463,0,-4.76054,-3.10994,-26.2933,Q,Q
2023-03-15 15:31:51:473,0,-4.78699,-3.10813,-26.3142,Q,Q
2023-03-15 15:31:51:483,0,-4.81145,-3.10732,-26.3321,Q,Q
2023-03-15 15:31:51:493,0,-4.8336,-3.11311,-26.3506,Q,Q
2023-03-15 15:31:51:503,0,-4.85612,-3.11653,-26.3638,Q,Q
2023-03-15 15:31:51:513,0,-4.87045,-3.12461,-26.3755,Q,Q
2023-03-15 15:31:51:523,0,-4.88437,-3.12979,-26.3901,Q,Q
2023-03-15 15:31:51:533,0,-4.89349,-3.13703,-26.4028,Q,Q
2023-03-15 15:31:51:543,0,-4.90051,-3.14578,-26.4149,Q,Q
2023-03-15 15:31:51:553,0,-4.90739,-3.14985,-26.4257,Q,Q
2023-03-15 15:31:51:563,0,-4.90949,-3.1555,-26.4358,Q,Q
2023-03-15 15:31:51:573,0,-4.91266,-3.15732,-26.4475,Q,Q
2023-03-15 15:31:51:583,0,-4.91678,-3.16367,-26.4575,Q,Q
2023-03-15 15:31:51:593,0,-4.92565,-3.17204,-26.4668,Q,Q
2023-03-15 15:31:51:603,0,-4.93704,-3.18422,-26.4779,Q,Q
2023-03-15 15:31:51:613,0,-4.95373,-3.19589,-26.4916,Q,Q
2023-03-15 15:31:51:623,0,-4.97384,-3.20636,-26.4995,Q,Q
2023-03-15 15:31:51:633,0,-4.98716,-3.21275,-26.5117,Q,Q
2023-03-15 15:31:51:643,0,-5.00534,-3.21774,-26.5211,Q,Q
2023-03-15 15:31:51:653,0,-5.02453,-3.22326,-26.5243,Q,Q
2023-03-15 15:31:51:663,0,-5.04577,-3.23353,-26.5282,Q,Q
2023-03-15 15:31:51:673,0,-5.06761,-3.24394,-26.5337,Q,Q
2023-03-15 15:31:51:683,0,-5.08775,-3.25291,-26.5383,Q,Q
2023-03-15 15:31:51:693,0,-5.11661,-3.26605,-26.5489,Q,Q
2023-03-15 15:31:51:703,0,-5.15075,-3.284,-26.5604,Q,Q
2023-03-15 15:31:51:713,0,-5.18443,-3.30064,-26.5774,Q,Q
2023-03-15 15:31:51:723,0,-5.22159,-3.32454,-26.5994,Q,Q
2023-03-15 15:31:51:733,0,-5.25493,-3.34591,-26.6275,Q,Q
2023-03-15 15:31:51:743,0,-5.28669,-3.37246,-26.6642,Q,Q
2023-03-15 15:31:51:753,0,-5.31363,-3.39806,-26.7033,Q,Q
2023-03-15 15:31:51:763,0,-5.33674,-3.41883,-26.7496,Q,Q
2023-03-15 15:31:51:773,0,-5.35559,-3.43635,-26.7996,Q,Q
2023-03-15 15:31:51:783,0,-5.3683,-3.4525,-26.8597,Q,Q
2023-03-15 15:31:51:793,0,-5.37793,-3.46705,-26.9178,Q,Q
2023-03-15 15:31:51:803,0,-5.39034,-3.47717,-26.9843,Q,Q
2023-03-15 15:31:51:813,0,-5.40269,-3.48634,-27.0505,Q,Q
2023-03-15 15:31:51:823,0,-5.41647,-3.49354,-27.1232,Q,Q
2023-03-15 15:31:51:833,0,-5.42863,-3.49789,-27.1962,Q,Q
2023-03-15 15:31:51:843,0,-5.44222,-3.50004,-27.2688,Q,Q
2023-03-15 15:31:51:853,0,-5.4499,-3.50212,-27.3444,Q,Q
2023-03-15 15:31:51:863,0,-5.46193,-3.50552,-27.4159,Q,Q
2023-03-15 15:31:51:873,0,-5.46836,-3.50796,-27.4848,Q,Q
2023-03-15 15:31:51:883,0,-5.47487,-3.51073,-27.5508,Q,Q
2023-03-15 15:31:51:893,0,-5.48002,-3.51258,-27.6111,Q,Q
2023-03-15 15:31:51:903,0,-5.48398,-3.51237,-27.6709,Q,Q
2023-03-15 15:31:51:913,0,-5.49247,-3.51279,-27.7254,Q,Q
2023-03-15 15:31:51:923,0,-5.50131,-3.51206,-27.7804,Q,Q
2023-03-15 15:31:51:933,0,-5.50949,-3.50829,-27.8359,Q,Q
2023-03-15 15:31:51:943,0,-5.52141,-3.50273,-27.8866,Q,Q
2023-03-15 15:31:51:953,0,-5.53164,-3.49412,-27.9335,Q,Q
2023-03-15 15:31:51:963,0,-5.54362,-3.48727,-27.9805,Q,Q
2023-03-15 15:31:51:973,0,-5.55939,-3.47923,-28.0288,Q,Q
2023-03-15 15:31:51:983,0,-5.5729,-3.46735,-28.0719,Q,Q
2023-03-15 15:31:51:993,0,-5.57479,-3.45564,-28.1113,Q,Q
2023-03-15 15:31:52:3,0,-5.56977,-3.44444,-28.1427,Q,Q
2023-03-15 15:31:52:13,0,-5.56712,-3.43759,-28.1681,Q,Q
2023-03-15 15:31:52:23,0,-5.55878,-3.42899,-28.1903,Q,Q
2023-03-15 15:31:52:32,0,-5.5491,-3.42057,-28.2074,Q,Q
2023-03-15 15:31:52:43,0,-5.53909,-3.41621,-28.2185,Q,Q
2023-03-15 15:31:52:53,0,-5.5275,-3.41397,-28.2318,Q,Q
2023-03-15 15:31:52:63,0,-5.51851,-3.41031,-28.241,Q,Q
2023-03-15 15:31:52:73,0,-5.51015,-3.4047,-28.2507,Q,Q
2023-03-15 15:31:52:83,0,-5.49858,-3.39862,-28.2616,Q,Q
2023-03-15 15:31:52:93,0,-5.48374,-3.39411,-28.2763,Q,Q
2023-03-15 15:31:52:102,0,-5.46085,-3.39311,-28.2977,Q,Q
2023-03-15 15:31:52:113,0,-5.43435,-3.39013,-28.3265,Q,Q
2023-03-15 15:31:52:123,0,-5.40633,-3.38596,-28.3603,Q,Q
2023-03-15 15:31:52:133,0,-5.38187,-3.38527,-28.3981,Q,Q
2023-03-15 15:31:52:143,0,-5.36012,-3.38862,-28.4381,Q,Q
2023-03-15 15:31:52:153,0,-5.33879,-3.39541,-28.4814,Q,Q
2023-03-15 15:31:52:163,0,-5.31806,-3.39685,-28.5301,Q,Q
2023-03-15 15:31:52:173,0,-5.29407,-3.39788,-28.5777,Q,Q
2023-03-15 15:31:52:183,0,-5.27095,-3.39987,-28.6243,Q,Q
2023-03-15 15:31:52:193,0,-5.24524,-3.40025,-28.6664,Q,Q
2023-03-15 15:31:52:203,0,-5.2164,-3.40234,-28.7034,Q,Q
2023-03-15 15:31:52:213,0,-5.17804,-3.40763,-28.7358,Q,Q
2023-03-15 15:31:52:223,0,-5.1298,-3.41156,-28.761,Q,Q
2023-03-15 15:31:52:233,0,-5.07933,-3.41222,-28.783,Q,Q
2023-03-15 15:31:52:243,0,-5.02167,-3.41745,-28.7976,Q,Q
2023-03-15 15:31:52:253,0,-4.96557,-3.42023,-28.811,Q,Q
2023-03-15 15:31:52:263,0,-4.90652,-3.42857,-28.8192,Q,Q
2023-03-15 15:31:52:273,0,-4.85157,-3.4338,-28.8265,Q,Q
2023-03-15 15:31:52:283,0,-4.79624,-3.44064,-28.8234,Q,Q
2023-03-15 15:31:52:293,0,-4.74356,-3.44873,-28.8163,Q,Q
2023-03-15 15:31:52:303,0,-4.6958,-3.46001,-28.8028,Q,Q
2023-03-15 15:31:52:313,0,-4.65215,-3.47544,-28.7838,Q,Q
2023-03-15 15:31:52:323,0,-4.61334,-3.48914,-28.7615,Q,Q
2023-03-15 15:31:52:333,0,-4.58551,-3.50613,-28.7372,Q,Q
2023-03-15 15:31:52:343,0,-4.562,-3.51757,-28.7166,Q,Q
2023-03-15 15:31:52:352,0,-4.5493,-3.5216,-28.6952,Q,Q
2023-03-15 15:31:52:363,0,-4.5412,-3.51982,-28.6757,Q,Q
2023-03-15 15:31:52:373,0,-4.5402,-3.50876,-28.6589,Q,Q
2023-03-15 15:31:52:383,0,-4.54234,-3.49851,-28.641,Q,Q
2023-03-15 15:31:52:393,0,-4.55147,-3.48937,-28.6262,Q,Q
2023-03-15 15:31:52:403,0,-4.56373,-3.48205,-28.6184,Q,Q
2023-03-15 15:31:52:413,0,-4.5799,-3.47419,-28.6118,Q,Q
2023-03-15 15:31:52:423,0,-4.60058,-3.46016,-28.6161,Q,Q
2023-03-15 15:31:52:433,0,-4.62737,-3.44369,-28.6259,Q,Q
2023-03-15 15:31:52:443,0,-4.65806,-3.42839,-28.6424,Q,Q
2023-03-15 15:31:52:453,0,-4.69226,-3.41435,-28.6656,Q,Q
2023-03-15 15:31:52:463,0,-4.72676,-3.40445,-28.6964,Q,Q
2023-03-15 15:31:52:473,0,-4.75946,-3.39876,-28.7349,Q,Q
2023-03-15 15:31:52:483,0,-4.79439,-3.3944,-28.7772,Q,Q
2023-03-15 15:31:52:493,0,-4.82097,-3.39456,-28.8264,Q,Q
2023-03-15 15:31:52:503,0,-4.84012,-3.39379,-28.8722,Q,Q
2023-03-15 15:31:52:513,0,-4.85681,-3.39965,-28.92,Q,Q
2023-03-15 15:31:52:523,0,-4.8689,-3.40541,-28.9696,Q,Q
2023-03-15 15:31:52:533,0,-4.87752,-3.41318,-29.0165,Q,Q
2023-03-15 15:31:52:543,0,-4.88628,-3.42369,-29.0632,Q,Q
2023-03-15 15:31:52:553,0,-4.89103,-3.4339,-29.1074,Q,Q
2023-03-15 15:31:52:563,0,-4.89502,-3.44444,-29.1536,Q,Q
2023-03-15 15:31:52:573,0,-4.89938,-3.45072,-29.2023,Q,Q
2023-03-15 15:31:52:583,0,-4.90176,-3.45743,-29.2478,Q,Q
2023-03-15 15:31:52:593,0,-4.90213,-3.46077,-29.2981,Q,Q
2023-03-15 15:31:52:603,0,-4.89939,-3.47221,-29.354,Q,Q
2023-03-15 15:31:52:612,0,-4.89745,-3.49339,-29.4187,Q,Q
2023-03-15 15:31:52:622,0,-4.88818,-3.52038,-29.5058,Q,Q
2023-03-15 15:31:52:633,0,-4.87529,-3.5518,-29.6115,Q,Q
2023-03-15 15:31:52:643,0,-4.85954,-3.58716,-29.7379,Q,Q
2023-03-15 15:31:52:653,0,-4.84248,-3.62049,-29.8791,Q,Q
2023-03-15 15:31:52:663,0,-4.82234,-3.65187,-30.0379,Q,Q
2023-03-15 15:31:52:673,0,-4.80089,-3.6865,-30.2106,Q,Q
2023-03-15 15:31:52:683,0,-4.78484,-3.71446,-30.3967,Q,Q
2023-03-15 15:31:52:693,0,-4.76869,-3.7431,-30.5879,Q,Q
2023-03-15 15:31:52:703,0,-4.75232,-3.77008,-30.7846,Q,Q
2023-03-15 15:31:52:713,0,-4.74238,-3.79273,-30.9837,Q,Q
2023-03-15 15:31:52:723,0,-4.73013,-3.81128,-31.1892,Q,Q
2023-03-15 15:31:52:733,0,-4.71143,-3.82604,-31.3931,Q,Q
2023-03-15 15:31:52:743,0,-4.69252,-3.83965,-31.597,Q,Q
2023-03-15 15:31:52:753,0,-4.67046,-3.8529,-31.7954,Q,Q
2023-03-15 15:31:52:763,0,-4.65065,-3.86307,-31.9868,Q,Q
2023-03-15 15:31:52:773,0,-4.62012,-3.86911,-32.1706,Q,Q
2023-03-15 15:31:52:783,0,-4.58831,-3.86961,-32.3492,Q,Q
2023-03-15 15:31:52:793,0,-4.55246,-3.87154,-32.5085,Q,Q
2023-03-15 15:31:52:803,0,-4.50829,-3.87137,-32.6552,Q,Q
2023-03-15 15:31:52:813,0,-4.45592,-3.86507,-32.7825,Q,Q
2023-03-15 15:31:52:823,0,-4.40454,-3.85542,-32.8928,Q,Q
2023-03-15 15:31:52:833,0,-4.35844,-3.83796,-32.9848,Q,Q
2023-03-15 15:31:52:843,0,-4.30901,-3.81833,-33.0581,Q,Q
2023-03-15 15:31:52:853,0,-4.25656,-3.79421,-33.1134,Q,Q
2023-03-15 15:31:52:863,0,-4.20905,-3.76648,-33.1447,Q,Q
2023-03-15 15:31:52:873,0,-4.1644,-3.73813,-33.1532,Q,Q
2023-03-15 15:31:52:883,0,-4.11972,-3.71839,-33.1525,Q,Q
2023-03-15 15:31:52:893,0,-4.07858,-3.70271,-33.1356,Q,Q
2023-03-15 15:31:52:903,0,-4.04422,-3.69491,-33.1041,Q,Q
2023-03-15 15:31:52:913,0,-4.01364,-3.69118,-33.0705,Q,Q
2023-03-15 15:31:52:923,0,-3.98623,-3.69141,-33.0347,Q,Q
2023-03-15 15:31:52:933,0,-3.96549,-3.69055,-32.9934,Q,Q
2023-03-15 15:31:52:943,0,-3.94777,-3.69052,-32.9487,Q,Q
2023-03-15 15:31:52:953,0,-3.93558,-3.69056,-32.9041,Q,Q
2023-03-15 15:31:52:963,0,-3.92946,-3.69955,-32.8599,Q,Q
2023-03-15 15:31:52:973,0,-3.929,-3.70125,-32.8155,Q,Q
2023-03-15 15:31:52:983,0,-3.93836,-3.70456,-32.771,Q,Q
2023-03-15 15:31:52:993,0,-3.95774,-3.70705,-32.731,Q,Q
2023-03-15 15:31:53:3,0,-3.98535,-3.70929,-32.6954,Q,Q
2023-03-15 15:31:53:13,0,-4.02195,-3.71159,-32.6584,Q,Q
2023-03-15 15:31:53:23,0,-4.0628,-3.71099,-32.6239,Q,Q
2023-03-15 15:31:53:33,0,-4.11051,-3.70994,-32.5943,Q,Q
2023-03-15 15:31:53:43,0,-4.15951,-3.70604,-32.5666,Q,Q
2023-03-15 15:31:53:53,0,-4.20664,-3.70058,-32.5423,Q,Q
2023-03-15 15:31:53:63,0,-4.25377,-3.69215,-32.5172,Q,Q
2023-03-15 15:31:53:73,0,-4.30044,-3.68238,-32.4949,Q,Q
2023-03-15 15:31:53:83,0,-4.34685,-3.66852,-32.4692,Q,Q
2023-03-15 15:31:53:93,0,-4.3937,-3.6554,-32.4494,Q,Q
2023-03-15 15:31:53:103,0,-4.43855,-3.6364,-32.434,Q,Q
2023-03-15 15:31:53:113,0,-4.48622,-3.62018,-32.4185,Q,Q
2023-03-15 15:31:53:123,0,-4.52406,-3.60338,-32.4038,Q,Q
2023-03-15 15:31:53:133,0,-4.55901,-3.58477,-32.3909,Q,Q
2023-03-15 15:31:53:143,0,-4.59144,-3.56691,-32.3834,Q,Q
2023-03-15 15:31:53:153,0,-4.61749,-3.54707,-32.3753,Q,Q
2023-03-15 15:31:53:163,0,-4.63896,-3.53182,-32.3706,Q,Q
2023-03-15 15:31:53:173,0,-4.65662,-3.51552,-32.3661,Q,Q
2023-03-15 15:31:53:183,0,-4.66618,-3.50038,-32.3654,Q,Q
2023-03-15 15:31:53:193,0,-4.67788,-3.48607,-32.3632,Q,Q
2023-03-15 15:31:53:203,0,-4.68686,-3.47129,-32.3612,Q,Q
2023-03-15 15:31:53:213,0,-4.69189,-3.4619,-32.3599,Q,Q
2023-03-15 15:31:53:223,0,-4.69761,-3.45678,-32.3583,Q,Q
2023-03-15 15:31:53:233,0,-4.70252,-3.45421,-32.3591,Q,Q
2023-03-15 15:31:53:243,0,-4.70748,-3.45412,-32.3547,Q,Q
2023-03-15 15:31:53:253,0,-4.70922,-3.45189,-32.3498,Q,Q
2023-03-15 15:31:53:263,0,-4.70771,-3.45177,-32.3451,Q,Q
2023-03-15 15:31:53:273,0,-4.7088,-3.45476,-32.3377,Q,Q
2023-03-15 15:31:53:283,0,-4.71043,-3.45598,-32.3335,Q,Q
2023-03-15 15:31:53:293,0,-4.71162,-3.45774,-32.3208,Q,Q
2023-03-15 15:31:53:303,0,-4.71065,-3.45567,-32.3085,Q,Q
2023-03-15 15:31:53:313,0,-4.71284,-3.45684,-32.2964,Q,Q
2023-03-15 15:31:53:323,0,-4.71303,-3.45474,-32.2839,Q,Q
2023-03-15 15:31:53:333,0,-4.72041,-3.45256,-32.2664,Q,Q
2023-03-15 15:31:53:343,0,-4.72691,-3.44618,-32.2514,Q,Q
2023-03-15 15:31:53:353,0,-4.73605,-3.43507,-32.237,Q,Q
2023-03-15 15:31:53:362,0,-4.74703,-3.42412,-32.2166,Q,Q
2023-03-15 15:31:53:373,0,-4.75842,-3.41056,-32.1958,Q,Q
2023-03-15 15:31:53:383,0,-4.77071,-3.3975,-32.1801,Q,Q
2023-03-15 15:31:53:393,0,-4.77865,-3.38674,-32.1665,Q,Q
2023-03-15 15:31:53:403,0,-4.78764,-3.37666,-32.1539,Q,Q
2023-03-15 15:31:53:413,0,-4.79502,-3.36744,-32.1399,Q,Q
2023-03-15 15:31:53:423,0,-4.80418,-3.35573,-32.1278,Q,Q
2023-03-15 15:31:53:433,0,-4.81001,-3.34727,-32.1165,Q,Q
2023-03-15 15:31:53:443,0,-4.81863,-3.3366,-32.1072,Q,Q
2023-03-15 15:31:53:453,0,-4.83446,-3.33059,-32.0999,Q,Q
2023-03-15 15:31:53:463,0,-4.85248,-3.32232,-32.0968,Q,Q
2023-03-15 15:31:53:473,0,-4.871,-3.31532,-32.0953,Q,Q
2023-03-15 15:31:53:483,0,-4.88858,-3.30545,-32.0954,Q,Q
2023-03-15 15:31:53:493,0,-4.90777,-3.29588,-32.1039,Q,Q
2023-03-15 15:31:53:503,0,-4.92142,-3.28585,-32.1091,Q,Q
2023-03-15 15:31:53:513,0,-4.93635,-3.27865,-32.114,Q,Q
2023-03-15 15:31:53:523,0,-4.95245,-3.26837,-32.1185,Q,Q
2023-03-15 15:31:53:533,0,-4.96803,-3.26695,-32.124,Q,Q
2023-03-15 15:31:53:543,0,-4.98186,-3.26131,-32.1295,Q,Q
2023-03-15 15:31:53:553,0,-4.9979,-3.2601,-32.1339,Q,Q
2023-03-15 15:31:53:563,0,-5.01309,-3.25613,-32.137,Q,Q
2023-03-15 15:31:53:573,0,-5.02381,-3.25379,-32.1405,Q,Q
2023-03-15 15:31:53:583,0,-5.03602,-3.24925,-32.1444,Q,Q
2023-03-15 15:31:53:593,0,-5.04881,-3.24811,-32.1449,Q,Q
2023-03-15 15:31:53:603,0,-5.05845,-3.24791,-32.1452,Q,Q
2023-03-15 15:31:53:613,0,-5.0679,-3.24719,-32.1472,Q,Q
2023-03-15 15:31:53:623,0,-5.07653,-3.25103,-32.1451,Q,Q
2023-03-15 15:31:53:632,0,-5.08176,-3.25342,-32.1476,Q,Q
2023-03-15 15:31:53:643,0,-5.08633,-3.25595,-32.1465,Q,Q
2023-03-15 15:31:53:653,0,-5.09212,-3.257,-32.1479,Q,Q
2023-03-15 15:31:53:663,0,-5.09284,-3.25691,-32.1456,Q,Q
2023-03-15 15:31:53:673,0,-5.09619,-3.25538,-32.1453,Q,Q
2023-03-15 15:31:53:683,0,-5.099,-3.25495,-32.1425,Q,Q
2023-03-15 15:31:53:693,0,-5.10319,-3.26031,-32.1427,Q,Q
2023-03-15 15:31:53:703,0,-5.10466,-3.26442,-32.1375,Q,Q
2023-03-15 15:31:53:713,0,-5.10145,-3.26901,-32.129,Q,Q
2023-03-15 15:31:53:723,0,-5.09648,-3.27753,-32.1187,Q,Q
2023-03-15 15:31:53:733,0,-5.09575,-3.29127,-32.1086,Q,Q
2023-03-15 15:31:53:743,0,-5.09636,-3.29707,-32.099,Q,Q
2023-03-15 15:31:53:753,0,-5.10104,-3.30401,-32.0849,Q,Q
2023-03-15 15:31:53:762,0,-5.10321,-3.30694,-32.0712,Q,Q
2023-03-15 15:31:53:772,0,-5.10856,-3.30879,-32.0594,Q,Q
2023-03-15 15:31:53:783,0,-5.11321,-3.30948,-32.0433,Q,Q
2023-03-15 15:31:53:793,0,-5.11944,-3.30879,-32.0282,Q,Q
2023-03-15 15:31:53:803,0,-5.12866,-3.30995,-32.0118,Q,Q
2023-03-15 15:31:53:813,0,-5.1422,-3.30996,-32.0032,Q,Q
2023-03-15 15:31:53:823,0,-5.15374,-3.31325,-31.9943,Q,Q
2023-03-15 15:31:53:833,0,-5.16565,-3.31244,-31.9887,Q,Q
2023-03-15 15:31:53:843,0,-5.1806,-3.31383,-31.9844,Q,Q
2023-03-15 15:31:53:853,0,-5.19636,-3.31454,-31.9838,Q,Q
2023-03-15 15:31:53:863,0,-5.21376,-3.32052,-31.9835,Q,Q
2023-03-15 15:31:53:873,0,-5.2298,-3.32659,-31.9867,Q,Q
2023-03-15 15:31:53:883,0,-5.23695,-3.33352,-31.9883,Q,Q
2023-03-15 15:31:53:893,0,-5.2407,-3.34125,-31.9923,Q,Q
2023-03-15 15:31:53:903,0,-5.24848,-3.34604,-31.9935,Q,Q
2023-03-15 15:31:53:913,0,-5.25275,-3.35093,-31.9935,Q,Q
2023-03-15 15:31:53:923,0,-5.2555,-3.3528,-31.9973,Q,Q
2023-03-15 15:31:53:933,0,-5.25408,-3.34806,-31.9994,Q,Q
2023-03-15 15:31:53:943,0,-5.25163,-3.34689,-31.9944,Q,Q
2023-03-15 15:31:53:953,0,-5.24718,-3.3453,-31.9887,Q,Q
2023-03-15 15:31:53:963,0,-5.24258,-3.34545,-31.9795,Q,Q
2023-03-15 15:31:53:973,0,-5.23621,-3.34614,-31.973,Q,Q
2023-03-15 15:31:53:982,0,-5.22828,-3.34529,-31.9703,Q,Q
2023-03-15 15:31:53:993,0,-5.22135,-3.34306,-31.9681,Q,Q
2023-03-15 15:31:54:3,0,-5.21532,-3.34207,-31.9699,Q,Q
2023-03-15 15:31:54:13,0,-5.21199,-3.34129,-31.9718,Q,Q
2023-03-15 15:31:54:23,0,-5.21064,-3.3399,-31.9736,Q,Q
2023-03-15 15:31:54:33,0,-5.20845,-3.33479,-31.9812,Q,Q
2023-03-15 15:31:54:43,0,-5.21432,-3.32649,-31.9873,Q,Q
2023-03-15 15:31:54:53,0,-5.22163,-3.31932,-32.0013,Q,Q
2023-03-15 15:31:54:63,0,-5.22644,-3.3088,-32.0154,Q,Q
2023-03-15 15:31:54:73,0,-5.2331,-3.3018,-32.0339,Q,Q
2023-03-15 15:31:54:83,0,-5.24218,-3.29454,-32.0523,Q,Q
2023-03-15 15:31:54:93,0,-5.25013,-3.29089,-32.0751,Q,Q
2023-03-15 15:31:54:103,0,-5.25566,-3.28889,-32.1,Q,Q
2023-03-15 15:31:54:113,0,-5.26268,-3.28315,-32.1226,Q,Q
2023-03-15 15:31:54:123,0,-5.27072,-3.27926,-32.1433,Q,Q
2023-03-15 15:31:54:133,0,-5.28057,-3.27888,-32.165,Q,Q
2023-03-15 15:31:54:143,0,-5.29257,-3.27564,-32.1876,Q,Q
2023-03-15 15:31:54:152,0,-5.30132,-3.26937,-32.2099,Q,Q
2023-03-15 15:31:54:162,0,-5.30993,-3.26595,-32.2294,Q,Q
2023-03-15 15:31:54:172,0,-5.3169,-3.26379,-32.2434,Q,Q
2023-03-15 15:31:54:182,0,-5.31978,-3.26131,-32.2556,Q,Q
2023-03-15 15:31:54:193,0,-5.31729,-3.26156,-32.2633,Q,Q
2023-03-15 15:31:54:203,0,-5.30928,-3.26208,-32.2724,Q,Q
2023-03-15 15:31:54:213,0,-5.30007,-3.26485,-32.2776,Q,Q
2023-03-15 15:31:54:223,0,-5.28834,-3.26661,-32.2866,Q,Q
2023-03-15 15:31:54:233,0,-5.279,-3.26863,-32.2934,Q,Q
2023-03-15 15:31:54:243,0,-5.27421,-3.26819,-32.2986,Q,Q
2023-03-15 15:31:54:253,0,-5.27484,-3.26782,-32.3021,Q,Q
2023-03-15 15:31:54:263,0,-5.27661,-3.26925,-32.3045,Q,Q
2023-03-15 15:31:54:273,0,-5.28221,-3.26986,-32.3101,Q,Q
2023-03-15 15:31:54:283,0,-5.28261,-3.2668,-32.3118,Q,Q
2023-03-15 15:31:54:293,0,-5.28602,-3.26568,-32.3164,Q,Q
2023-03-15 15:31:54:303,0,-5.28561,-3.26319,-32.3162,Q,Q
2023-03-15 15:31:54:313,0,-5.28389,-3.26093,-32.3196,Q,Q
2023-03-15 15:31:54:323,0,-5.27704,-3.26396,-32.3207,Q,Q
2023-03-15 15:31:54:333,0,-5.27361,-3.26484,-32.3226,Q,Q
2023-03-15 15:31:54:343,0,-5.27198,-3.26777,-32.3223,Q,Q
2023-03-15 15:31:54:353,0,-5.27166,-3.27197,-32.3235,Q,Q
2023-03-15 15:31:54:363,0,-5.27883,-3.27342,-32.3246,Q,Q
2023-03-15 15:31:54:373,0,-5.28329,-3.27573,-32.3267,Q,Q
2023-03-15 15:31:54:383,0,-5.2895,-3.28187,-32.3234,Q,Q
2023-03-15 15:31:54:393,0,-5.29593,-3.28555,-32.322,Q,Q
2023-03-15 15:31:54:403,0,-5.29454,-3.28892,-32.3198,Q,Q
2023-03-15 15:31:54:413,0,-5.29334,-3.29186,-32.3222,Q,Q
2023-03-15 15:31:54:423,0,-5.28901,-3.29266,-32.3222,Q,Q
2023-03-15 15:31:54:433,0,-5.28127,-3.29459,-32.3233,Q,Q
2023-03-15 15:31:54:443,0,-5.27551,-3.29813,-32.323,Q,Q
2023-03-15 15:31:54:453,0,-5.2708,-3.30008,-32.3235,Q,Q
2023-03-15 15:31:54:463,0,-5.26549,-3.29929,-32.3241,Q,Q
2023-03-15 15:31:54:473,0,-5.25985,-3.2959,-32.3226,Q,Q
2023-03-15 15:31:54:483,0,-5.25519,-3.2955,-32.3168,Q,Q
2023-03-15 15:31:54:493,0,-5.25089,-3.30128,-32.3104,Q,Q
2023-03-15 15:31:54:503,0,-5.24917,-3.29906,-32.3016,Q,Q
2023-03-15 15:31:54:513,0,-5.24543,-3.29465,-32.2935,Q,Q
2023-03-15 15:31:54:523,0,-5.24513,-3.29328,-32.2885,Q,Q
2023-03-15 15:31:54:533,0,-5.24737,-3.28363,-32.2852,Q,Q
2023-03-15 15:31:54:543,0,-5.24796,-3.28019,-32.2846,Q,Q
2023-03-15 15:31:54:553,0,-5.2487,-3.27695,-32.2815,Q,Q
2023-03-15 15:31:54:563,0,-5.25214,-3.28024,-32.2775,Q,Q
2023-03-15 15:31:54:573,0,-5.25596,-3.28589,-32.2767,Q,Q
2023-03-15 15:31:54:583,0,-5.25984,-3.28897,-32.2813,Q,Q
2023-03-15 15:31:54:593,0,-5.26576,-3.29131,-32.2894,Q,Q
2023-03-15 15:31:54:603,0,-5.26764,-3.28902,-32.2955,Q,Q
2023-03-15 15:31:54:613,0,-5.27628,-3.29153,-32.301,Q,Q
2023-03-15 15:31:54:623,0,-5.28459,-3.3001,-32.3072,Q,Q
2023-03-15 15:31:54:633,0,-5.29385,-3.30552,-32.3094,Q,Q
2023-03-15 15:31:54:643,0,-5.29983,-3.31292,-32.3072,Q,Q
2023-03-15 15:31:54:653,0,-5.30113,-3.31794,-32.3062,Q,Q
2023-03-15 15:31:54:662,0,-5.305,-3.31848,-32.3057,Q,Q
2023-03-15 15:31:54:673,0,-5.31246,-3.31974,-32.3083,Q,Q
2023-03-15 15:31:54:683,0,-5.31742,-3.31891,-32.3089,Q,Q
2023-03-15 15:31:54:693,0,-5.32497,-3.31518,-32.3109,Q,Q
2023-03-15 15:31:54:703,0,-5.33999,-3.30825,-32.3222,Q,Q
2023-03-15 15:31:54:713,0,-5.3534,-3.3004,-32.3335,Q,Q
2023-03-15 15:31:54:723,0,-5.36644,-3.29195,-32.3488,Q,Q
2023-03-15 15:31:54:733,0,-5.37581,-3.28423,-32.365,Q,Q
2023-03-15 15:31:54:743,0,-5.38072,-3.27606,-32.3781,Q,Q
2023-03-15 15:31:54:753,0,-5.3864,-3.2717,-32.3949,Q,Q
2023-03-15 15:31:54:763,0,-5.39476,-3.27067,-32.4114,Q,Q
2023-03-15 15:31:54:773,0,-5.40834,-3.26834,-32.4284,Q,Q
2023-03-15 15:31:54:783,0,-5.41903,-3.26038,-32.4458,Q,Q
2023-03-15 15:31:54:793,0,-5.43456,-3.25711,-32.4601,Q,Q
2023-03-15 15:31:54:803,0,-5.4517,-3.25289,-32.4727,Q,Q
2023-03-15 15:31:54:813,0,-5.46747,-3.25093,-32.4856,Q,Q
2023-03-15 15:31:54:823,0,-5.48146,-3.24714,-32.5015,Q,Q
2023-03-15 15:31:54:833,0,-5.49367,-3.24382,-32.514,Q,Q
2023-03-15 15:31:54:843,0,-5.50674,-3.24035,-32.5249,Q,Q
2023-03-15 15:31:54:853,0,-5.51192,-3.23216,-32.5355,Q,Q
2023-03-15 15:31:54:863,0,-5.51717,-3.22411,-32.5489,Q,Q
2023-03-15 15:31:54:873,0,-5.52075,-3.21609,-32.56,Q,Q
2023-03-15 15:31:54:883,0,-5.52366,-3.20894,-32.5732,Q,Q
2023-03-15 15:31:54:893,0,-5.52848,-3.19889,-32.5821,Q,Q
2023-03-15 15:31:54:903,0,-5.53046,-3.19345,-32.597,Q,Q
2023-03-15 15:31:54:913,0,-5.53402,-3.18952,-32.6107,Q,Q
2023-03-15 15:31:54:923,0,-5.53472,-3.18597,-32.6261,Q,Q
2023-03-15 15:31:54:933,0,-5.53808,-3.18107,-32.637,Q,Q
2023-03-15 15:31:54:943,0,-5.54224,-3.18057,-32.6511,Q,Q
2023-03-15 15:31:54:953,0,-5.54631,-3.17836,-32.665,Q,Q
2023-03-15 15:31:54:963,0,-5.54916,-3.17552,-32.6806,Q,Q
2023-03-15 15:31:54:973,0,-5.55313,-3.17435,-32.6948,Q,Q
2023-03-15 15:31:54:983,0,-5.55809,-3.17009,-32.7091,Q,Q
2023-03-15 15:31:54:993,0,-5.56189,-3.16931,-32.7211,Q,Q
2023-03-15 15:31:55:3,0,-5.5655,-3.16528,-32.7297,Q,Q
2023-03-15 15:31:55:13,0,-5.56679,-3.16025,-32.7344,Q,Q
2023-03-15 15:31:55:23,0,-5.56623,-3.15678,-32.7377,Q,Q
2023-03-15 15:31:55:33,0,-5.56042,-3.1555,-32.7405,Q,Q
2023-03-15 15:31:55:43,0,-5.56008,-3.15122,-32.7418,Q,Q
2023-03-15 15:31:55:53,0,-5.56081,-3.14905,-32.7434,Q,Q
2023-03-15 15:31:55:63,0,-5.55774,-3.14905,-32.745,Q,Q
2023-03-15 15:31:55:73,0,-5.55591,-3.15168,-32.7411,Q,Q
2023-03-15 15:31:55:83,0,-5.55217,-3.14964,-32.7392,Q,Q
2023-03-15 15:31:55:93,0,-5.54647,-3.14904,-32.7391,Q,Q
2023-03-15 15:31:55:103,0,-5.54778,-3.15097,-32.7352,Q,Q
2023-03-15 15:31:55:113,0,-5.54638,-3.15166,-32.7338,Q,Q
2023-03-15 15:31:55:123,0,-5.54894,-3.15124,-32.7311,Q,Q
2023-03-15 15:31:55:133,0,-5.54938,-3.15688,-32.7302,Q,Q
2023-03-15 15:31:55:143,0,-5.54571,-3.16125,-32.7297,Q,Q
2023-03-15 15:31:55:153,0,-5.54698,-3.16308,-32.7254,Q,Q
2023-03-15 15:31:55:163,0,-5.5443,-3.16521,-32.7251,Q,Q
2023-03-15 15:31:55:173,0,-5.54494,-3.16591,-32.7238,Q,Q
2023-03-15 15:31:55:183,0,-5.54434,-3.16592,-32.7219,Q,Q
2023-03-15 15:31:55:193,0,-5.54291,-3.16475,-32.7257,Q,Q
2023-03-15 15:31:55:203,0,-5.54332,-3.16247,-32.7292,Q,Q
2023-03-15 15:31:55:213,0,-5.54187,-3.15842,-32.7316,Q,Q
2023-03-15 15:31:55:223,0,-5.53951,-3.15423,-32.7366,Q,Q
2023-03-15 15:31:55:233,0,-5.53864,-3.1501,-32.7404,Q,Q
2023-03-15 15:31:55:243,0,-5.54141,-3.15073,-32.7465,Q,Q
2023-03-15 15:31:55:253,0,-5.54599,-3.14846,-32.7532,Q,Q
2023-03-15 15:31:55:263,0,-5.55175,-3.14436,-32.7572,Q,Q
2023-03-15 15:31:55:273,0,-5.55347,-3.14191,-32.7648,Q,Q
2023-03-15 15:31:55:283,0,-5.55924,-3.14016,-32.7729,Q,Q
2023-03-15 15:31:55:293,0,-5.56228,-3.13765,-32.78,Q,Q
2023-03-15 15:31:55:303,0,-5.57003,-3.13127,-32.7885,Q,Q
2023-03-15 15:31:55:313,0,-5.57835,-3.12983,-32.794,Q,Q
2023-03-15 15:31:55:323,0,-5.57844,-3.12427,-32.8027,Q,Q
2023-03-15 15:31:55:333,0,-5.57851,-3.12239,-32.8054,Q,Q
2023-03-15 15:31:55:343,0,-5.57993,-3.12034,-32.8058,Q,Q
2023-03-15 15:31:55:353,0,-5.5807,-3.11304,-32.8103,Q,Q
2023-03-15 15:31:55:363,0,-5.58146,-3.10151,-32.8156,Q,Q
2023-03-15 15:31:55:373,0,-5.58683,-3.08935,-32.8204,Q,Q
2023-03-15 15:31:55:383,0,-5.5937,-3.07355,-32.8252,Q,Q
2023-03-15 15:31:55:393,0,-5.59781,-3.06347,-32.8342,Q,Q
2023-03-15 15:31:55:403,0,-5.60848,-3.05477,-32.845,Q,Q
2023-03-15 15:31:55:413,0,-5.61647,-3.05017,-32.8537,Q,Q
2023-03-15 15:31:55:423,0,-5.62561,-3.04803,-32.8684,Q,Q
2023-03-15 15:31:55:433,0,-5.63684,-3.04382,-32.8838,Q,Q
2023-03-15 15:31:55:443,0,-5.6507,-3.03443,-32.903,Q,Q
2023-03-15 15:31:55:453,0,-5.66604,-3.03013,-32.9242,Q,Q
2023-03-15 15:31:55:463,0,-5.67738,-3.02254,-32.946,Q,Q
2023-03-15 15:31:55:473,0,-5.68437,-3.01643,-32.967,Q,Q
2023-03-15 15:31:55:483,0,-5.68984,-3.01233,-32.9813,Q,Q
2023-03-15 15:31:55:493,0,-5.6924,-3.00805,-32.9939,Q,Q
2023-03-15 15:31:55:503,0,-5.69479,-3.00091,-33.006,Q,Q
2023-03-15 15:31:55:513,0,-5.69206,-2.99755,-33.0188,Q,Q
2023-03-15 15:31:55:523,0,-5.69238,-2.99301,-33.0274,Q,Q
2023-03-15 15:31:55:533,0,-5.68583,-2.99067,-33.037,Q,Q
2023-03-15 15:31:55:543,0,-5.67869,-2.98352,-33.0465,Q,Q
2023-03-15 15:31:55:553,0,-5.67307,-2.98005,-33.0542,Q,Q
2023-03-15 15:31:55:563,0,-5.6673,-2.9765,-33.0603,Q,Q
2023-03-15 15:31:55:573,0,-5.65971,-2.97406,-33.0669,Q,Q
2023-03-15 15:31:55:583,0,-5.65288,-2.9766,-33.0757,Q,Q
2023-03-15 15:31:55:593,0,-5.64809,-2.97763,-33.0838,Q,Q
2023-03-15 15:31:55:603,0,-5.63909,-2.98096,-33.093,Q,Q
2023-03-15 15:31:55:613,0,-5.63435,-2.98224,-33.1006,Q,Q
2023-03-15 15:31:55:623,0,-5.63232,-2.98375,-33.1099,Q,Q
2023-03-15 15:31:55:633,0,-5.62279,-2.98528,-33.1184,Q,Q
2023-03-15 15:31:55:643,0,-5.61501,-2.98947,-33.1262,Q,Q
2023-03-15 15:31:55:653,0,-5.60619,-2.99476,-33.1337,Q,Q
2023-03-15 15:31:55:663,0,-5.59637,-3.00009,-33.1387,Q,Q
2023-03-15 15:31:55:673,0,-5.58101,-3.00642,-33.1402,Q,Q
2023-03-15 15:31:55:682,0,-5.56548,-3.01942,-33.1437,Q,Q
2023-03-15 15:31:55:692,0,-5.55007,-3.02688,-33.1452,Q,Q
2023-03-15 15:31:55:703,0,-5.53295,-3.03429,-33.1421,Q,Q
2023-03-15 15:31:55:713,0,-5.51982,-3.03956,-33.1407,Q,Q
2023-03-15 15:31:55:723,0,-5.50706,-3.04561,-33.1341,Q,Q
2023-03-15 15:31:55:733,0,-5.49158,-3.0502,-33.1313,Q,Q
2023-03-15 15:31:55:743,0,-5.47827,-3.05146,-33.1281,Q,Q
2023-03-15 15:31:55:753,0,-5.46554,-3.05438,-33.1244,Q,Q
2023-03-15 15:31:55:763,0,-5.45865,-3.06588,-33.1189,Q,Q
2023-03-15 15:31:55:773,0,-5.44781,-3.07375,-33.1146,Q,Q
2023-03-15 15:31:55:783,0,-5.44381,-3.08269,-33.1172,Q,Q
2023-03-15 15:31:55:793,0,-5.43702,-3.09413,-33.1165,Q,Q
2023-03-15 15:31:55:803,0,-5.43009,-3.10652,-33.1218,Q,Q
2023-03-15 15:31:55:813,0,-5.42462,-3.11571,-33.1248,Q,Q
2023-03-15 15:31:55:823,0,-5.42056,-3.12358,-33.1303,Q,Q
2023-03-15 15:31:55:833,0,-5.42222,-3.13827,-33.1341,Q,Q
2023-03-15 15:31:55:843,0,-5.42404,-3.1469,-33.1354,Q,Q
2023-03-15 15:31:55:853,0,-5.42753,-3.15618,-33.1344,Q,Q
2023-03-15 15:31:55:863,0,-5.43366,-3.16632,-33.1316,Q,Q
2023-03-15 15:31:55:873,0,-5.43458,-3.17507,-33.1302,Q,Q
2023-03-15 15:31:55:883,0,-5.43323,-3.18415,-33.1238,Q,Q
2023-03-15 15:31:55:892,0,-5.43279,-3.18986,-33.1175,Q,Q
2023-03-15 15:31:55:903,0,-5.42975,-3.19616,-33.1107,Q,Q
2023-03-15 15:31:55:913,0,-5.42606,-3.20246,-33.1031,Q,Q
2023-03-15 15:31:55:923,0,-5.4222,-3.20951,-33.0949,Q,Q
2023-03-15 15:31:55:933,0,-5.42033,-3.21802,-33.0845,Q,Q
2023-03-15 15:31:55:943,0,-5.41556,-3.22595,-33.077,Q,Q
2023-03-15 15:31:55:953,0,-5.41068,-3.23102,-33.0696,Q,Q
2023-03-15 15:31:55:963,0,-5.40592,-3.24016,-33.0685,Q,Q
2023-03-15 15:31:55:973,0,-5.40212,-3.24945,-33.0673,Q,Q
2023-03-15 15:31:55:983,0,-5.39434,-3.2566,-33.0645,Q,Q
2023-03-15 15:31:55:993,0,-5.39112,-3.2653,-33.065,Q,Q
2023-03-15 15:31:56:3,0,-5.38979,-3.27178,-33.0674,Q,Q
2023-03-15 15:31:56:13,0,-5.39189,-3.27557,-33.0686,Q,Q
2023-03-15 15:31:56:23,0,-5.39404,-3.27687,-33.0668,Q,Q
2023-03-15 15:31:56:33,0,-5.39433,-3.28097,-33.0659,Q,Q
2023-03-15 15:31:56:43,0,-5.40251,-3.28408,-33.0654,Q,Q
2023-03-15 15:31:56:53,0,-5.40721,-3.28715,-33.0663,Q,Q
2023-03-15 15:31:56:63,0,-5.41365,-3.29251,-33.0706,Q,Q
2023-03-15 15:31:56:73,0,-5.41328,-3.29233,-33.0744,Q,Q
2023-03-15 15:31:56:83,0,-5.41571,-3.2915,-33.0803,Q,Q
2023-03-15 15:31:56:93,0,-5.41169,-3.29437,-33.0874,Q,Q
2023-03-15 15:31:56:103,0,-5.4102,-3.29925,-33.0908,Q,Q
2023-03-15 15:31:56:113,0,-5.40706,-3.30247,-33.0937,Q,Q
2023-03-15 15:31:56:123,0,-5.40127,-3.30369,-33.0993,Q,Q
2023-03-15 15:31:56:133,0,-5.39568,-3.3085,-33.1037,Q,Q
2023-03-15 15:31:56:143,0,-5.39314,-3.30577,-33.1103,Q,Q
2023-03-15 15:31:56:153,0,-5.39024,-3.30973,-33.1159,Q,Q
2023-03-15 15:31:56:163,0,-5.39197,-3.31018,-33.1193,Q,Q
2023-03-15 15:31:56:173,0,-5.39045,-3.30782,-33.1201,Q,Q
2023-03-15 15:31:56:183,0,-5.3911,-3.30399,-33.1199,Q,Q
2023-03-15 15:31:56:193,0,-5.39357,-3.3034,-33.1134,Q,Q
2023-03-15 15:31:56:203,0,-5.39403,-3.30184,-33.1128,Q,Q
2023-03-15 15:31:56:213,0,-5.39574,-3.29506,-33.1098,Q,Q
2023-03-15 15:31:56:223,0,-5.39541,-3.29082,-33.1062,Q,Q
2023-03-15 15:31:56:233,0,-5.39268,-3.28185,-33.1054,Q,Q
2023-03-15 15:31:56:243,0,-5.39333,-3.27168,-33.1067,Q,Q
2023-03-15 15:31:56:253,0,-5.40082,-3.26588,-33.1068,Q,Q
2023-03-15 15:31:56:263,0,-5.40666,-3.2623,-33.1111,Q,Q
2023-03-15 15:31:56:273,0,-5.41307,-3.2656,-33.113,Q,Q
2023-03-15 15:31:56:283,0,-5.42286,-3.26974,-33.1156,Q,Q
2023-03-15 15:31:56:293,0,-5.43348,-3.27474,-33.1187,Q,Q
2023-03-15 15:31:56:303,0,-5.43962,-3.27532,-33.1281,Q,Q
2023-03-15 15:31:56:313,0,-5.45129,-3.27272,-33.138,Q,Q
2023-03-15 15:31:56:323,0,-5.46001,-3.27026,-33.1451,Q,Q
2023-03-15 15:31:56:333,0,-5.46718,-3.26798,-33.1518,Q,Q
2023-03-15 15:31:56:343,0,-5.47258,-3.26693,-33.1537,Q,Q
2023-03-15 15:31:56:353,0,-5.47674,-3.26923,-33.1555,Q,Q
2023-03-15 15:31:56:363,0,-5.48265,-3.26718,-33.159,Q,Q
2023-03-15 15:31:56:373,0,-5.48836,-3.26304,-33.1675,Q,Q
2023-03-15 15:31:56:383,0,-5.49571,-3.25698,-33.1745,Q,Q
2023-03-15 15:31:56:393,0,-5.50321,-3.25132,-33.1868,Q,Q
2023-03-15 15:31:56:403,0,-5.51136,-3.24867,-33.1981,Q,Q
2023-03-15 15:31:56:413,0,-5.52141,-3.25023,-33.2121,Q,Q
2023-03-15 15:31:56:423,0,-5.53422,-3.25172,-33.2322,Q,Q
2023-03-15 15:31:56:433,0,-5.55002,-3.26073,-33.2528,Q,Q
2023-03-15 15:31:56:443,0,-5.56604,-3.26949,-33.2745,Q,Q
2023-03-15 15:31:56:453,0,-5.58849,-3.27843,-33.2956,Q,Q
2023-03-15 15:31:56:463,0,-5.61255,-3.29125,-33.3165,Q,Q
2023-03-15 15:31:56:473,0,-5.63731,-3.30432,-33.3376,Q,Q
2023-03-15 15:31:56:483,0,-5.65709,-3.31089,-33.3539,Q,Q
2023-03-15 15:31:56:493,0,-5.66896,-3.31549,-33.367,Q,Q
2023-03-15 15:31:56:503,0,-5.68036,-3.31475,-33.3768,Q,Q
2023-03-15 15:31:56:513,0,-5.69245,-3.31364,-33.3802,Q,Q
2023-03-15 15:31:56:523,0,-5.69948,-3.31404,-33.3768,Q,Q
2023-03-15 15:31:56:533,0,-5.70436,-3.3177,-33.3764,Q,Q
2023-03-15 15:31:56:543,0,-5.70926,-3.32088,-33.373,Q,Q
2023-03-15 15:31:56:553,0,-5.71563,-3.32474,-33.3713,Q,Q
2023-03-15 15:31:56:563,0,-5.72281,-3.32604,-33.3656,Q,Q
2023-03-15 15:31:56:573,0,-5.72683,-3.32502,-33.3642,Q,Q
2023-03-15 15:31:56:583,0,-5.72743,-3.32412,-33.3635,Q,Q
2023-03-15 15:31:56:593,0,-5.72616,-3.32384,-33.3686,Q,Q
2023-03-15 15:31:56:603,0,-5.72468,-3.32863,-33.3697,Q,Q
2023-03-15 15:31:56:613,0,-5.72711,-3.33212,-33.3741,Q,Q
2023-03-15 15:31:56:623,0,-5.72938,-3.33663,-33.3755,Q,Q
2023-03-15 15:31:56:633,0,-5.73193,-3.33988,-33.3878,Q,Q
2023-03-15 15:31:56:643,0,-5.73547,-3.3446,-33.3982,Q,Q
2023-03-15 15:31:56:653,0,-5.74189,-3.34926,-33.4049,Q,Q
2023-03-15 15:31:56:663,0,-5.7512,-3.35605,-33.4147,Q,Q
2023-03-15 15:31:56:673,0,-5.76401,-3.3596,-33.4222,Q,Q
2023-03-15 15:31:56:683,0,-5.77901,-3.36727,-33.4315,Q,Q
2023-03-15 15:31:56:693,0,-5.79744,-3.37067,-33.4415,Q,Q
2023-03-15 15:31:56:702,0,-5.81875,-3.37612,-33.4527,Q,Q
2023-03-15 15:31:56:712,0,-5.83388,-3.37906,-33.4626,Q,Q
2023-03-15 15:31:56:723,0,-5.84491,-3.37863,-33.4733,Q,Q
2023-03-15 15:31:56:733,0,-5.84919,-3.37949,-33.4868,Q,Q
2023-03-15 15:31:56:743,0,-5.85342,-3.37752,-33.5006,Q,Q
2023-03-15 15:31:56:753,0,-5.84814,-3.37528,-33.5143,Q,Q
2023-03-15 15:31:56:763,0,-5.8429,-3.37211,-33.5318,Q,Q
2023-03-15 15:31:56:773,0,-5.83844,-3.36636,-33.5478,Q,Q
2023-03-15 15:31:56:783,0,-5.83499,-3.35759,-33.5683,Q,Q
2023-03-15 15:31:56:793,0,-5.83206,-3.35114,-33.5873,Q,Q
2023-03-15 15:31:56:803,0,-5.831,-3.34708,-33.6111,Q,Q
2023-03-15 15:31:56:813,0,-5.82988,-3.34254,-33.6317,Q,Q
2023-03-15 15:31:56:823,0,-5.83217,-3.3355,-33.6509,Q,Q
2023-03-15 15:31:56:833,0,-5.83194,-3.33162,-33.6691,Q,Q
2023-03-15 15:31:56:843,0,-5.83184,-3.32855,-33.6913,Q,Q
2023-03-15 15:31:56:853,0,-5.8292,-3.32197,-33.7135,Q,Q
2023-03-15 15:31:56:863,0,-5.82193,-3.31384,-33.7311,Q,Q
2023-03-15 15:31:56:873,0,-5.81673,-3.30248,-33.7448,Q,Q
2023-03-15 15:31:56:883,0,-5.80922,-3.2921,-33.7562,Q,Q
2023-03-15 15:31:56:893,0,-5.80353,-3.28306,-33.7663,Q,Q
2023-03-15 15:31:56:903,0,-5.7946,-3.27763,-33.7765,Q,Q
2023-03-15 15:31:56:913,0,-5.78507,-3.27414,-33.7889,Q,Q
2023-03-15 15:31:56:923,0,-5.77473,-3.27226,-33.8064,Q,Q
2023-03-15 15:31:56:933,0,-5.76466,-3.27153,-33.8308,Q,Q
2023-03-15 15:31:56:943,0,-5.74917,-3.26926,-33.8565,Q,Q
2023-03-15 15:31:56:953,0,-5.73784,-3.26626,-33.8847,Q,Q
