Timestamp_cmd,imu_cmd,roll_delta,pitch_delta,yaw_delta
2023-03-11 20:56:21:515,0,-4.52038,-4.60879,88.7491
2023-03-11 20:56:21:523,0,-4.58047,-4.57804,88.7749
2023-03-11 20:56:21:533,0,-4.64491,-4.54756,88.8055
2023-03-11 20:56:21:543,0,-4.70455,-4.52637,88.8355
2023-03-11 20:56:21:553,0,-4.75714,-4.51352,88.8627
2023-03-11 20:56:21:563,0,-4.79267,-4.51116,88.8842
2023-03-11 20:56:21:573,0,-4.8198,-4.51507,88.8938
2023-03-11 20:56:21:583,0,-4.83783,-4.52101,88.8947
2023-03-11 20:56:21:593,0,-4.84414,-4.52418,88.8884
2023-03-11 20:56:21:603,0,-4.84042,-4.52474,88.8721
2023-03-11 20:56:21:613,0,-4.83365,-4.51719,88.8419
2023-03-11 20:56:21:623,0,-4.82043,-4.49533,88.7928
2023-03-11 20:56:21:633,0,-4.80046,-4.461,88.7365
2023-03-11 20:56:21:643,0,-4.78341,-4.41928,88.6781
2023-03-11 20:56:21:653,0,-4.77522,-4.37289,88.619
2023-03-11 20:56:21:663,0,-4.78465,-4.32631,88.5693
2023-03-11 20:56:21:673,0,-4.81197,-4.2797,88.5262
2023-03-11 20:56:21:683,0,-4.83668,-4.2317,88.4903
2023-03-11 20:56:21:693,0,-4.85029,-4.17789,88.4508
2023-03-11 20:56:21:703,0,-4.85203,-4.12355,88.4092
2023-03-11 20:56:21:713,0,-4.84146,-4.06861,88.3695
2023-03-11 20:56:21:723,0,-4.82997,-4.01693,88.3324
2023-03-11 20:56:21:733,0,-4.82554,-3.96896,88.3049
2023-03-11 20:56:21:743,0,-4.83703,-3.92688,88.2804
2023-03-11 20:56:21:753,0,-4.8593,-3.89413,88.2594
2023-03-11 20:56:21:763,0,-4.89118,-3.86536,88.2443
2023-03-11 20:56:21:773,0,-4.92133,-3.83178,88.2295
2023-03-11 20:56:21:783,0,-4.94925,-3.80938,88.2122
2023-03-11 20:56:21:793,0,-4.97912,-3.79922,88.1966
2023-03-11 20:56:21:803,0,-5.01915,-3.79682,88.1862
2023-03-11 20:56:21:813,0,-5.0547,-3.80044,88.1759
2023-03-11 20:56:21:823,0,-5.09135,-3.80615,88.1688
2023-03-11 20:56:21:833,0,-5.12477,-3.81369,88.1631
2023-03-11 20:56:21:843,0,-5.15308,-3.8273,88.1585
2023-03-11 20:56:21:853,0,-5.17902,-3.84099,88.1529
2023-03-11 20:56:21:863,0,-5.20314,-3.85371,88.1445
2023-03-11 20:56:21:873,0,-5.21993,-3.86502,88.1325
2023-03-11 20:56:21:883,0,-5.23237,-3.87541,88.1189
2023-03-11 20:56:21:893,0,-5.23842,-3.88856,88.1042
2023-03-11 20:56:21:903,0,-5.2377,-3.89872,88.0834
2023-03-11 20:56:21:913,0,-5.22896,-3.90539,88.0614
2023-03-11 20:56:21:923,0,-5.21795,-3.91108,88.0406
2023-03-11 20:56:21:933,0,-5.20238,-3.91741,88.0172
2023-03-11 20:56:21:943,0,-5.18247,-3.91927,87.9914
2023-03-11 20:56:21:953,0,-5.16056,-3.92548,87.9629
2023-03-11 20:56:21:963,0,-5.13678,-3.92448,87.9327
2023-03-11 20:56:21:973,0,-5.10862,-3.92461,87.9016
2023-03-11 20:56:21:983,0,-5.0771,-3.92101,87.8705
2023-03-11 20:56:21:993,0,-5.04387,-3.91401,87.8346
2023-03-11 20:56:22:3,0,-5.00518,-3.91015,87.8032
2023-03-11 20:56:22:13,0,-4.97,-3.9039,87.7718
2023-03-11 20:56:22:23,0,-4.93879,-3.90283,87.7404
2023-03-11 20:56:22:33,0,-4.91038,-3.89907,87.7114
2023-03-11 20:56:22:43,0,-4.88481,-3.89325,87.6846
2023-03-11 20:56:22:53,0,-4.86271,-3.88427,87.6606
2023-03-11 20:56:22:63,0,-4.84274,-3.8748,87.6384
2023-03-11 20:56:22:73,0,-4.82848,-3.86599,87.6178
2023-03-11 20:56:22:83,0,-4.8151,-3.85505,87.6028
2023-03-11 20:56:22:93,0,-4.80778,-3.84507,87.5904
2023-03-11 20:56:22:103,0,-4.80458,-3.83033,87.5845
2023-03-11 20:56:22:113,0,-4.80088,-3.8166,87.5811
2023-03-11 20:56:22:123,0,-4.80403,-3.79826,87.5801
2023-03-11 20:56:22:133,0,-4.8098,-3.7783,87.5809
2023-03-11 20:56:22:143,0,-4.81662,-3.76073,87.5827
2023-03-11 20:56:22:153,0,-4.82152,-3.74688,87.591
2023-03-11 20:56:22:163,0,-4.82711,-3.73911,87.601
2023-03-11 20:56:22:173,0,-4.83721,-3.73583,87.611
2023-03-11 20:56:22:183,0,-4.84428,-3.73505,87.6228
2023-03-11 20:56:22:193,0,-4.85062,-3.7308,87.6306
2023-03-11 20:56:22:203,0,-4.85403,-3.7228,87.6386
2023-03-11 20:56:22:213,0,-4.86035,-3.71802,87.6507
2023-03-11 20:56:22:223,0,-4.86913,-3.71323,87.6614
2023-03-11 20:56:22:233,0,-4.88371,-3.71228,87.6743
2023-03-11 20:56:22:243,0,-4.89619,-3.71016,87.6842
2023-03-11 20:56:22:253,0,-4.90512,-3.71057,87.6907
2023-03-11 20:56:22:263,0,-4.90692,-3.70418,87.6964
2023-03-11 20:56:22:273,0,-4.91055,-3.69954,87.6984
2023-03-11 20:56:22:283,0,-4.9126,-3.6905,87.6972
2023-03-11 20:56:22:293,0,-4.9181,-3.6816,87.6992
2023-03-11 20:56:22:303,0,-4.92449,-3.67065,87.6998
2023-03-11 20:56:22:313,0,-4.9339,-3.66223,87.6966
2023-03-11 20:56:22:323,0,-4.9428,-3.64995,87.6922
2023-03-11 20:56:22:333,0,-4.95034,-3.63879,87.6854
2023-03-11 20:56:22:343,0,-4.95521,-3.62549,87.6776
2023-03-11 20:56:22:353,0,-4.96232,-3.61207,87.6695
2023-03-11 20:56:22:363,0,-4.96817,-3.59734,87.6602
2023-03-11 20:56:22:373,0,-4.97274,-3.57755,87.6484
2023-03-11 20:56:22:383,0,-4.97753,-3.56205,87.6348
2023-03-11 20:56:22:393,0,-4.98061,-3.55586,87.6214
2023-03-11 20:56:22:403,0,-4.98484,-3.54815,87.608
2023-03-11 20:56:22:413,0,-4.98756,-3.53819,87.5947
2023-03-11 20:56:22:423,0,-4.98827,-3.52651,87.5797
2023-03-11 20:56:22:433,0,-4.98629,-3.51525,87.5635
2023-03-11 20:56:22:443,0,-4.98226,-3.50084,87.546
2023-03-11 20:56:22:453,0,-4.97801,-3.49057,87.5288
2023-03-11 20:56:22:463,0,-4.97458,-3.48036,87.5159
2023-03-11 20:56:22:473,0,-4.97085,-3.47218,87.5026
2023-03-11 20:56:22:483,0,-4.97321,-3.46009,87.491
2023-03-11 20:56:22:493,0,-4.97437,-3.45103,87.4825
2023-03-11 20:56:22:503,0,-4.9761,-3.44368,87.4763
2023-03-11 20:56:22:513,0,-4.98221,-3.43812,87.4739
2023-03-11 20:56:22:523,0,-4.99188,-3.4372,87.4785
2023-03-11 20:56:22:533,0,-4.99867,-3.44461,87.4885
2023-03-11 20:56:22:543,0,-5.01201,-3.45796,87.5091
2023-03-11 20:56:22:553,0,-5.02717,-3.47818,87.5381
2023-03-11 20:56:22:563,0,-5.04122,-3.50638,87.5692
2023-03-11 20:56:22:573,0,-5.05011,-3.53773,87.6037
2023-03-11 20:56:22:583,0,-5.05934,-3.57114,87.641
2023-03-11 20:56:22:593,0,-5.06201,-3.60609,87.6747
2023-03-11 20:56:22:603,0,-5.05924,-3.63947,87.7023
2023-03-11 20:56:22:613,0,-5.05507,-3.6693,87.7265
2023-03-11 20:56:22:623,0,-5.05128,-3.69769,87.747
2023-03-11 20:56:22:633,0,-5.04863,-3.72331,87.7577
2023-03-11 20:56:22:643,0,-5.05324,-3.75043,87.7683
2023-03-11 20:56:22:653,0,-5.06351,-3.77326,87.7831
2023-03-11 20:56:22:663,0,-5.0795,-3.79459,87.7963
2023-03-11 20:56:22:673,0,-5.09925,-3.81254,87.8056
2023-03-11 20:56:22:683,0,-5.11957,-3.8303,87.8177
2023-03-11 20:56:22:693,0,-5.13978,-3.84936,87.8294
2023-03-11 20:56:22:703,0,-5.15397,-3.86621,87.8399
2023-03-11 20:56:22:713,0,-5.16484,-3.88166,87.8537
2023-03-11 20:56:22:723,0,-5.17372,-3.8966,87.8683
2023-03-11 20:56:22:733,0,-5.17658,-3.91217,87.8871
2023-03-11 20:56:22:743,0,-5.17622,-3.92679,87.905
2023-03-11 20:56:22:753,0,-5.17073,-3.94764,87.9299
2023-03-11 20:56:22:763,0,-5.16083,-3.96639,87.9529
2023-03-11 20:56:22:773,0,-5.15039,-3.99007,87.9813
2023-03-11 20:56:22:783,0,-5.13511,-4.00959,88.0065
2023-03-11 20:56:22:793,0,-5.10978,-4.0254,88.0287
2023-03-11 20:56:22:803,0,-5.08274,-4.03849,88.0523
2023-03-11 20:56:22:813,0,-5.05212,-4.05219,88.0754
2023-03-11 20:56:22:823,0,-5.02024,-4.06521,88.1025
2023-03-11 20:56:22:833,0,-4.98759,-4.07879,88.1276
2023-03-11 20:56:22:843,0,-4.94924,-4.09448,88.1542
2023-03-11 20:56:22:853,0,-4.9166,-4.11271,88.1808
2023-03-11 20:56:22:863,0,-4.88782,-4.12251,88.2078
2023-03-11 20:56:22:873,0,-4.86961,-4.12751,88.2327
2023-03-11 20:56:22:883,0,-4.85215,-4.13194,88.2522
2023-03-11 20:56:22:893,0,-4.83215,-4.13649,88.2667
2023-03-11 20:56:22:903,0,-4.80983,-4.14724,88.2779
2023-03-11 20:56:22:913,0,-4.78689,-4.15449,88.2831
2023-03-11 20:56:22:923,0,-4.75703,-4.16229,88.2787
2023-03-11 20:56:22:933,0,-4.72264,-4.165,88.2679
2023-03-11 20:56:22:943,0,-4.69059,-4.16279,88.2523
2023-03-11 20:56:22:953,0,-4.66548,-4.16034,88.2288
2023-03-11 20:56:22:963,0,-4.64681,-4.15799,88.2015
2023-03-11 20:56:22:973,0,-4.63762,-4.16384,88.1755
2023-03-11 20:56:22:983,0,-4.63502,-4.17584,88.156
2023-03-11 20:56:22:993,0,-4.63437,-4.18901,88.1339
2023-03-11 20:56:23:3,0,-4.64096,-4.20236,88.1125
2023-03-11 20:56:23:13,0,-4.6453,-4.2157,88.0939
2023-03-11 20:56:23:23,0,-4.64767,-4.23073,88.0764
2023-03-11 20:56:23:33,0,-4.64612,-4.2444,88.0641
2023-03-11 20:56:23:43,0,-4.64684,-4.26028,88.0554
2023-03-11 20:56:23:53,0,-4.64972,-4.2749,88.0448
2023-03-11 20:56:23:63,0,-4.65107,-4.29214,88.033
2023-03-11 20:56:23:73,0,-4.65206,-4.31196,88.0252
2023-03-11 20:56:23:83,0,-4.65323,-4.33315,88.017
2023-03-11 20:56:23:93,0,-4.65565,-4.35662,88.0088
2023-03-11 20:56:23:103,0,-4.65474,-4.36931,87.9986
2023-03-11 20:56:23:113,0,-4.6541,-4.38161,87.9818
2023-03-11 20:56:23:123,0,-4.65604,-4.38944,87.9678
2023-03-11 20:56:23:133,0,-4.65894,-4.39052,87.949
2023-03-11 20:56:23:143,0,-4.6646,-4.39044,87.935
2023-03-11 20:56:23:153,0,-4.66966,-4.38603,87.9206
2023-03-11 20:56:23:163,0,-4.67737,-4.37683,87.9065
2023-03-11 20:56:23:173,0,-4.6878,-4.36275,87.8983
2023-03-11 20:56:23:183,0,-4.69556,-4.34763,87.8917
2023-03-11 20:56:23:193,0,-4.70354,-4.33275,87.8866
2023-03-11 20:56:23:203,0,-4.70617,-4.31498,87.8828
2023-03-11 20:56:23:213,0,-4.70749,-4.29575,87.8805
2023-03-11 20:56:23:223,0,-4.70185,-4.27327,87.8794
2023-03-11 20:56:23:233,0,-4.69753,-4.24765,87.8744
2023-03-11 20:56:23:243,0,-4.69086,-4.22045,87.8697
2023-03-11 20:56:23:253,0,-4.68703,-4.19048,87.8654
2023-03-11 20:56:23:263,0,-4.68567,-4.15727,87.8584
2023-03-11 20:56:23:273,0,-4.68904,-4.12254,87.8546
2023-03-11 20:56:23:283,0,-4.68997,-4.08896,87.8575
2023-03-11 20:56:23:293,0,-4.68915,-4.05516,87.8693
2023-03-11 20:56:23:303,0,-4.68728,-4.02369,87.8852
2023-03-11 20:56:23:313,0,-4.68393,-3.98898,87.9059
2023-03-11 20:56:23:323,0,-4.68461,-3.95561,87.9309
2023-03-11 20:56:23:333,0,-4.69276,-3.92575,87.9568
2023-03-11 20:56:23:343,0,-4.70377,-3.89507,87.9815
2023-03-11 20:56:23:353,0,-4.71975,-3.87617,88.0
2023-03-11 20:56:23:363,0,-4.73978,-3.8653,88.0163
2023-03-11 20:56:23:373,0,-4.75665,-3.85735,88.0275
2023-03-11 20:56:23:383,0,-4.76557,-3.85477,88.0304
2023-03-11 20:56:23:393,0,-4.77422,-3.85522,88.0292
2023-03-11 20:56:23:403,0,-4.77954,-3.86139,88.0242
2023-03-11 20:56:23:413,0,-4.78662,-3.86385,88.0159
2023-03-11 20:56:23:423,0,-4.79623,-3.86957,88.0111
2023-03-11 20:56:23:433,0,-4.80909,-3.87699,88.0085
2023-03-11 20:56:23:443,0,-4.82097,-3.88382,88.0086
2023-03-11 20:56:23:453,0,-4.83168,-3.89242,88.0122
2023-03-11 20:56:23:463,0,-4.83707,-3.89754,88.0193
2023-03-11 20:56:23:473,0,-4.84203,-3.89994,88.0287
2023-03-11 20:56:23:483,0,-4.83927,-3.90186,88.037
2023-03-11 20:56:23:493,0,-4.8357,-3.90477,88.0433
2023-03-11 20:56:23:503,0,-4.83483,-3.90722,88.0492
2023-03-11 20:56:23:513,0,-4.82587,-3.91306,88.0564
2023-03-11 20:56:23:523,0,-4.81509,-3.92021,88.0613
2023-03-11 20:56:23:533,0,-4.80654,-3.93565,88.0672
2023-03-11 20:56:23:543,0,-4.7972,-3.9571,88.0774
2023-03-11 20:56:23:553,0,-4.78903,-3.97586,88.0885
2023-03-11 20:56:23:563,0,-4.78269,-3.9936,88.0992
2023-03-11 20:56:23:573,0,-4.78153,-4.00711,88.1119
2023-03-11 20:56:23:583,0,-4.7784,-4.01834,88.1265
2023-03-11 20:56:23:593,0,-4.77075,-4.02876,88.1392
2023-03-11 20:56:23:603,0,-4.76405,-4.03713,88.1511
2023-03-11 20:56:23:613,0,-4.75407,-4.04406,88.1634
2023-03-11 20:56:23:623,0,-4.74675,-4.05269,88.1715
2023-03-11 20:56:23:633,0,-4.74379,-4.05924,88.1809
2023-03-11 20:56:23:643,0,-4.73889,-4.06687,88.19
2023-03-11 20:56:23:653,0,-4.7359,-4.07767,88.1977
2023-03-11 20:56:23:663,0,-4.73685,-4.08646,88.2038
2023-03-11 20:56:23:673,0,-4.73434,-4.0954,88.2112
2023-03-11 20:56:23:683,0,-4.73106,-4.10651,88.2119
2023-03-11 20:56:23:693,0,-4.72929,-4.11097,88.2142
2023-03-11 20:56:23:703,0,-4.73073,-4.1184,88.2132
2023-03-11 20:56:23:713,0,-4.72956,-4.12754,88.2178
2023-03-11 20:56:23:723,0,-4.73068,-4.13426,88.2178
2023-03-11 20:56:23:733,0,-4.7338,-4.1356,88.2174
2023-03-11 20:56:23:743,0,-4.73556,-4.13627,88.2169
2023-03-11 20:56:23:753,0,-4.73612,-4.13846,88.2173
2023-03-11 20:56:23:763,0,-4.73454,-4.14777,88.219
2023-03-11 20:56:23:773,0,-4.73009,-4.15707,88.222
2023-03-11 20:56:23:783,0,-4.72825,-4.1702,88.2298
2023-03-11 20:56:23:793,0,-4.7264,-4.1799,88.2388
2023-03-11 20:56:23:803,0,-4.72467,-4.18644,88.2461
2023-03-11 20:56:23:813,0,-4.71806,-4.19178,88.2545
2023-03-11 20:56:23:823,0,-4.71058,-4.1957,88.2658
2023-03-11 20:56:23:833,0,-4.69903,-4.20044,88.2802
2023-03-11 20:56:23:843,0,-4.69393,-4.21025,88.2905
2023-03-11 20:56:23:853,0,-4.68509,-4.21814,88.3084
2023-03-11 20:56:23:863,0,-4.67544,-4.22685,88.324
2023-03-11 20:56:23:873,0,-4.66932,-4.23657,88.3458
2023-03-11 20:56:23:883,0,-4.66485,-4.24869,88.3665
2023-03-11 20:56:23:893,0,-4.66244,-4.26282,88.3882
2023-03-11 20:56:23:903,0,-4.66441,-4.28253,88.4124
2023-03-11 20:56:23:913,0,-4.6688,-4.30421,88.4318
2023-03-11 20:56:23:923,0,-4.67159,-4.32654,88.45
2023-03-11 20:56:23:933,0,-4.67333,-4.35023,88.4649
2023-03-11 20:56:23:943,0,-4.67319,-4.36983,88.4768
2023-03-11 20:56:23:953,0,-4.66953,-4.38726,88.4857
2023-03-11 20:56:23:963,0,-4.66943,-4.40077,88.4956
2023-03-11 20:56:23:973,0,-4.67068,-4.41047,88.5074
2023-03-11 20:56:23:983,0,-4.67316,-4.4126,88.5199
2023-03-11 20:56:23:993,0,-4.67814,-4.41501,88.5326
2023-03-11 20:56:24:3,0,-4.68476,-4.41151,88.5494
2023-03-11 20:56:24:13,0,-4.68988,-4.4101,88.5669
2023-03-11 20:56:24:23,0,-4.69638,-4.40902,88.5825
2023-03-11 20:56:24:33,0,-4.70145,-4.41025,88.5931
2023-03-11 20:56:24:43,0,-4.70604,-4.41405,88.6061
2023-03-11 20:56:24:53,0,-4.71168,-4.41152,88.6147
2023-03-11 20:56:24:63,0,-4.71205,-4.41014,88.6184
2023-03-11 20:56:24:73,0,-4.71684,-4.40839,88.623
2023-03-11 20:56:24:83,0,-4.72691,-4.40679,88.6269
2023-03-11 20:56:24:93,0,-4.73872,-4.4083,88.6295
2023-03-11 20:56:24:103,0,-4.74883,-4.40557,88.6337
2023-03-11 20:56:24:113,0,-4.7628,-4.40747,88.6437
2023-03-11 20:56:24:123,0,-4.7747,-4.40383,88.6578
2023-03-11 20:56:24:133,0,-4.78422,-4.39852,88.6702
2023-03-11 20:56:24:143,0,-4.78464,-4.39223,88.6825
2023-03-11 20:56:24:153,0,-4.78263,-4.38244,88.694
2023-03-11 20:56:24:163,0,-4.77969,-4.37744,88.7043
2023-03-11 20:56:24:173,0,-4.77618,-4.36969,88.7154
2023-03-11 20:56:24:183,0,-4.77258,-4.35947,88.725
2023-03-11 20:56:24:193,0,-4.77269,-4.35349,88.737
2023-03-11 20:56:24:203,0,-4.77231,-4.34826,88.7505
2023-03-11 20:56:24:213,0,-4.77373,-4.34617,88.7555
2023-03-11 20:56:24:223,0,-4.7657,-4.34295,88.7615
2023-03-11 20:56:24:233,0,-4.75366,-4.34715,88.7709
2023-03-11 20:56:24:243,0,-4.74296,-4.35631,88.777
2023-03-11 20:56:24:253,0,-4.73224,-4.36758,88.7882
2023-03-11 20:56:24:263,0,-4.7271,-4.37954,88.799
2023-03-11 20:56:24:273,0,-4.7244,-4.39348,88.8223
2023-03-11 20:56:24:283,0,-4.72891,-4.40833,88.8474
2023-03-11 20:56:24:293,0,-4.73813,-4.43084,88.8803
2023-03-11 20:56:24:303,0,-4.74856,-4.45238,88.918
2023-03-11 20:56:24:313,0,-4.75725,-4.47286,88.9656
2023-03-11 20:56:24:323,0,-4.76008,-4.49164,89.0109
2023-03-11 20:56:24:333,0,-4.75296,-4.50862,89.0556
2023-03-11 20:56:24:343,0,-4.7431,-4.52596,89.0952
2023-03-11 20:56:24:353,0,-4.72954,-4.53977,89.1337
2023-03-11 20:56:24:363,0,-4.71654,-4.55412,89.1688
2023-03-11 20:56:24:373,0,-4.70796,-4.5657,89.1984
2023-03-11 20:56:24:383,0,-4.70213,-4.58309,89.2246
2023-03-11 20:56:24:393,0,-4.7091,-4.59815,89.2424
2023-03-11 20:56:24:403,0,-4.72007,-4.61247,89.252
2023-03-11 20:56:24:413,0,-4.74229,-4.62441,89.249
2023-03-11 20:56:24:423,0,-4.76215,-4.64157,89.2265
2023-03-11 20:56:24:433,0,-4.77084,-4.65462,89.1701
2023-03-11 20:56:24:443,0,-4.76259,-4.66389,89.0641
2023-03-11 20:56:24:453,0,-4.74977,-4.68017,88.9092
2023-03-11 20:56:24:463,0,-4.72758,-4.71551,88.7111
2023-03-11 20:56:24:473,0,-4.71614,-4.76164,88.4892
2023-03-11 20:56:24:483,0,-4.7143,-4.81845,88.2538
2023-03-11 20:56:24:493,0,-4.71747,-4.86676,88.0114
2023-03-11 20:56:24:503,0,-4.72384,-4.90863,87.7659
2023-03-11 20:56:24:513,0,-4.7336,-4.94038,87.5281
2023-03-11 20:56:24:523,0,-4.74289,-4.96915,87.3098
2023-03-11 20:56:24:533,0,-4.75253,-4.99573,87.1142
2023-03-11 20:56:24:543,0,-4.7632,-5.01327,86.9424
2023-03-11 20:56:24:553,0,-4.77691,-5.03003,86.7923
2023-03-11 20:56:24:563,0,-4.78585,-5.04212,86.6568
2023-03-11 20:56:24:573,0,-4.79298,-5.05238,86.5323
2023-03-11 20:56:24:583,0,-4.79473,-5.05805,86.4178
2023-03-11 20:56:24:593,0,-4.7947,-5.06655,86.3165
2023-03-11 20:56:24:603,0,-4.79918,-5.07671,86.2317
2023-03-11 20:56:24:613,0,-4.80608,-5.07937,86.1649
2023-03-11 20:56:24:623,0,-4.80843,-5.08314,86.1126
2023-03-11 20:56:24:633,0,-4.80948,-5.0833,86.0848
2023-03-11 20:56:24:643,0,-4.81155,-5.07837,86.0756
2023-03-11 20:56:24:653,0,-4.8118,-5.06586,86.0859
2023-03-11 20:56:24:663,0,-4.80743,-5.05875,86.113
2023-03-11 20:56:24:673,0,-4.79714,-5.05093,86.1578
2023-03-11 20:56:24:683,0,-4.78127,-5.04361,86.2177
2023-03-11 20:56:24:693,0,-4.76012,-5.03222,86.2864
2023-03-11 20:56:24:703,0,-4.73817,-5.01633,86.3534
2023-03-11 20:56:24:713,0,-4.71727,-4.99549,86.4203
2023-03-11 20:56:24:723,0,-4.7021,-4.97243,86.4854
2023-03-11 20:56:24:733,0,-4.69617,-4.94427,86.548
2023-03-11 20:56:24:743,0,-4.69894,-4.91614,86.6085
2023-03-11 20:56:24:753,0,-4.7067,-4.89055,86.6665
2023-03-11 20:56:24:763,0,-4.72305,-4.86312,86.7245
2023-03-11 20:56:24:773,0,-4.7416,-4.84109,86.7808
2023-03-11 20:56:24:783,0,-4.76055,-4.82089,86.835
2023-03-11 20:56:24:793,0,-4.77707,-4.80313,86.8886
2023-03-11 20:56:24:803,0,-4.79057,-4.78542,86.935
2023-03-11 20:56:24:813,0,-4.80288,-4.77684,86.9766
2023-03-11 20:56:24:823,0,-4.81384,-4.76785,87.014
2023-03-11 20:56:24:833,0,-4.82688,-4.76447,87.0473
2023-03-11 20:56:24:843,0,-4.84209,-4.7632,87.0794
2023-03-11 20:56:24:853,0,-4.85953,-4.76462,87.1211
2023-03-11 20:56:24:863,0,-4.8805,-4.77399,87.1767
2023-03-11 20:56:24:873,0,-4.90145,-4.79085,87.2387
2023-03-11 20:56:24:883,0,-4.92655,-4.80944,87.3174
2023-03-11 20:56:24:893,0,-4.94529,-4.83014,87.4017
2023-03-11 20:56:24:903,0,-4.95933,-4.84932,87.4869
2023-03-11 20:56:24:913,0,-4.97293,-4.86079,87.5682
2023-03-11 20:56:24:923,0,-4.97968,-4.86969,87.6405
2023-03-11 20:56:24:933,0,-4.9814,-4.86848,87.7032
2023-03-11 20:56:24:943,0,-4.97619,-4.86949,87.7534
2023-03-11 20:56:24:953,0,-4.96754,-4.87209,87.789
2023-03-11 20:56:24:963,0,-4.95421,-4.88096,87.8139
2023-03-11 20:56:24:973,0,-4.9434,-4.90044,87.8306
2023-03-11 20:56:24:983,0,-4.93722,-4.92547,87.8394
2023-03-11 20:56:24:993,0,-4.92864,-4.95308,87.8445
2023-03-11 20:56:25:3,0,-4.91907,-4.97598,87.8442
2023-03-11 20:56:25:13,0,-4.90815,-4.99279,87.8369
2023-03-11 20:56:25:23,0,-4.8907,-5.00276,87.8324
2023-03-11 20:56:25:33,0,-4.87156,-5.00195,87.8273
2023-03-11 20:56:25:43,0,-4.84642,-4.98946,87.8188
2023-03-11 20:56:25:53,0,-4.82119,-4.97328,87.805
2023-03-11 20:56:25:63,0,-4.8043,-4.94721,87.792
2023-03-11 20:56:25:73,0,-4.79181,-4.91849,87.7762
2023-03-11 20:56:25:83,0,-4.78256,-4.88665,87.7606
2023-03-11 20:56:25:93,0,-4.77754,-4.85262,87.7482
2023-03-11 20:56:25:103,0,-4.77464,-4.82091,87.7309
2023-03-11 20:56:25:113,0,-4.76812,-4.79246,87.7079
2023-03-11 20:56:25:123,0,-4.75325,-4.7676,87.684
2023-03-11 20:56:25:133,0,-4.72711,-4.74461,87.6551
2023-03-11 20:56:25:143,0,-4.68838,-4.71849,87.6212
2023-03-11 20:56:25:153,0,-4.64698,-4.69524,87.58
2023-03-11 20:56:25:164,0,-4.60204,-4.66893,87.5336
2023-03-11 20:56:25:173,0,-4.5656,-4.64095,87.4907
2023-03-11 20:56:25:184,0,-4.53467,-4.61818,87.4495
2023-03-11 20:56:25:193,0,-4.51321,-4.59519,87.413
2023-03-11 20:56:25:203,0,-4.50073,-4.5735,87.3805
2023-03-11 20:56:25:213,0,-4.49523,-4.5501,87.3548
2023-03-11 20:56:25:223,0,-4.49403,-4.52752,87.3336
2023-03-11 20:56:25:233,0,-4.49725,-4.50756,87.3189
2023-03-11 20:56:25:243,0,-4.50653,-4.48466,87.3103
2023-03-11 20:56:25:253,0,-4.51889,-4.45935,87.3051
2023-03-11 20:56:25:263,0,-4.53634,-4.43576,87.3029
2023-03-11 20:56:25:273,0,-4.56271,-4.41314,87.3017
2023-03-11 20:56:25:283,0,-4.59189,-4.39343,87.3081
2023-03-11 20:56:25:293,0,-4.6187,-4.37913,87.3108
2023-03-11 20:56:25:303,0,-4.64023,-4.36495,87.3163
2023-03-11 20:56:25:313,0,-4.65758,-4.35754,87.3289
2023-03-11 20:56:25:323,0,-4.67575,-4.36359,87.3477
2023-03-11 20:56:25:333,0,-4.69332,-4.3778,87.3712
2023-03-11 20:56:25:343,0,-4.71478,-4.40419,87.3966
2023-03-11 20:56:25:353,0,-4.73832,-4.44083,87.4276
2023-03-11 20:56:25:363,0,-4.76621,-4.48003,87.46
2023-03-11 20:56:25:373,0,-4.79586,-4.52393,87.4896
2023-03-11 20:56:25:383,0,-4.8272,-4.56091,87.5145
2023-03-11 20:56:25:393,0,-4.85943,-4.59589,87.5388
2023-03-11 20:56:25:403,0,-4.88782,-4.62352,87.5591
2023-03-11 20:56:25:413,0,-4.91309,-4.64025,87.5788
2023-03-11 20:56:25:423,0,-4.94077,-4.65043,87.5953
2023-03-11 20:56:25:433,0,-4.96662,-4.64717,87.6085
2023-03-11 20:56:25:443,0,-4.99365,-4.63662,87.6232
2023-03-11 20:56:25:453,0,-5.01661,-4.61697,87.6339
2023-03-11 20:56:25:463,0,-5.03957,-4.59703,87.6369
2023-03-11 20:56:25:473,0,-5.06415,-4.56863,87.6412
2023-03-11 20:56:25:483,0,-5.08798,-4.54554,87.6404
2023-03-11 20:56:25:493,0,-5.105,-4.52653,87.6373
2023-03-11 20:56:25:503,0,-5.11623,-4.51187,87.6297
2023-03-11 20:56:25:513,0,-5.11245,-4.49946,87.6167
2023-03-11 20:56:25:523,0,-5.09968,-4.49015,87.6032
2023-03-11 20:56:25:533,0,-5.08052,-4.47728,87.5888
2023-03-11 20:56:25:543,0,-5.05405,-4.46253,87.5745
2023-03-11 20:56:25:553,0,-5.03366,-4.44122,87.566
2023-03-11 20:56:25:563,0,-5.02127,-4.41719,87.5654
2023-03-11 20:56:25:573,0,-5.01825,-4.39459,87.5755
2023-03-11 20:56:25:583,0,-5.02003,-4.37286,87.6009
2023-03-11 20:56:25:593,0,-5.02209,-4.35128,87.6373
2023-03-11 20:56:25:603,0,-5.01773,-4.32661,87.685
2023-03-11 20:56:25:613,0,-5.01168,-4.29819,87.7372
2023-03-11 20:56:25:623,0,-5.00464,-4.26725,87.7916
2023-03-11 20:56:25:633,0,-5.00213,-4.23671,87.8437
2023-03-11 20:56:25:643,0,-5.00302,-4.21257,87.8929
2023-03-11 20:56:25:653,0,-5.01161,-4.18943,87.9306
2023-03-11 20:56:25:663,0,-5.02192,-4.17293,87.9593
2023-03-11 20:56:25:673,0,-5.03822,-4.16043,87.978
2023-03-11 20:56:25:683,0,-5.06038,-4.15401,87.9875
2023-03-11 20:56:25:693,0,-5.08609,-4.15035,87.9842
2023-03-11 20:56:25:703,0,-5.11353,-4.14744,87.9677
2023-03-11 20:56:25:713,0,-5.13148,-4.14594,87.9356
2023-03-11 20:56:25:723,0,-5.14231,-4.14196,87.894
2023-03-11 20:56:25:733,0,-5.15133,-4.14219,87.8384
2023-03-11 20:56:25:743,0,-5.15802,-4.14655,87.7771
2023-03-11 20:56:25:753,0,-5.16377,-4.15196,87.7157
2023-03-11 20:56:25:763,0,-5.16743,-4.15993,87.649
2023-03-11 20:56:25:773,0,-5.16791,-4.16642,87.5892
2023-03-11 20:56:25:783,0,-5.17254,-4.17668,87.5316
2023-03-11 20:56:25:794,0,-5.18052,-4.18564,87.4846
2023-03-11 20:56:25:803,0,-5.195,-4.19535,87.4434
2023-03-11 20:56:25:813,0,-5.21203,-4.20681,87.4128
2023-03-11 20:56:25:823,0,-5.231,-4.21709,87.3895
2023-03-11 20:56:25:833,0,-5.25571,-4.22145,87.3726
2023-03-11 20:56:25:843,0,-5.27861,-4.22816,87.3639
2023-03-11 20:56:25:853,0,-5.2971,-4.23796,87.3555
2023-03-11 20:56:25:863,0,-5.31824,-4.25325,87.3548
2023-03-11 20:56:25:873,0,-5.33781,-4.26497,87.3571
2023-03-11 20:56:25:883,0,-5.35066,-4.27937,87.3632
2023-03-11 20:56:25:893,0,-5.35504,-4.29489,87.3728
2023-03-11 20:56:25:903,0,-5.3547,-4.31483,87.389
2023-03-11 20:56:25:913,0,-5.34893,-4.33988,87.3996
2023-03-11 20:56:25:923,0,-5.34611,-4.36091,87.4115
2023-03-11 20:56:25:933,0,-5.34048,-4.37169,87.4156
2023-03-11 20:56:25:943,0,-5.33456,-4.37746,87.4112
2023-03-11 20:56:25:953,0,-5.32692,-4.38072,87.4016
2023-03-11 20:56:25:963,0,-5.30796,-4.38176,87.3912
2023-03-11 20:56:25:973,0,-5.28412,-4.38687,87.3832
2023-03-11 20:56:25:983,0,-5.25401,-4.39564,87.3837
2023-03-11 20:56:25:993,0,-5.2304,-4.39794,87.3935
2023-03-11 20:56:26:3,0,-5.2143,-4.39849,87.4095
2023-03-11 20:56:26:13,0,-5.20924,-4.39074,87.4326
2023-03-11 20:56:26:23,0,-5.20567,-4.38426,87.4615
2023-03-11 20:56:26:33,0,-5.20526,-4.3782,87.492
2023-03-11 20:56:26:43,0,-5.20055,-4.37261,87.5231
2023-03-11 20:56:26:53,0,-5.19267,-4.37297,87.5588
2023-03-11 20:56:26:63,0,-5.18185,-4.37878,87.5991
2023-03-11 20:56:26:73,0,-5.17299,-4.39014,87.6433
2023-03-11 20:56:26:83,0,-5.17197,-4.40768,87.6911
2023-03-11 20:56:26:93,0,-5.17146,-4.42422,87.7454
2023-03-11 20:56:26:103,0,-5.17779,-4.44327,87.8016
2023-03-11 20:56:26:113,0,-5.19467,-4.46256,87.8621
2023-03-11 20:56:26:123,0,-5.21184,-4.48467,87.9311
2023-03-11 20:56:26:133,0,-5.23036,-4.50771,88.0051
2023-03-11 20:56:26:143,0,-5.24024,-4.52788,88.0771
2023-03-11 20:56:26:153,0,-5.24521,-4.55111,88.1431
2023-03-11 20:56:26:163,0,-5.243,-4.57102,88.2014
2023-03-11 20:56:26:173,0,-5.24387,-4.58484,88.2434
2023-03-11 20:56:26:183,0,-5.24227,-4.58982,88.2753
2023-03-11 20:56:26:193,0,-5.23731,-4.58755,88.2862
2023-03-11 20:56:26:203,0,-5.23235,-4.58377,88.2837
2023-03-11 20:56:26:213,0,-5.23639,-4.58693,88.2721
2023-03-11 20:56:26:223,0,-5.24994,-4.5891,88.2591
2023-03-11 20:56:26:233,0,-5.26912,-4.58932,88.2431
2023-03-11 20:56:26:243,0,-5.28091,-4.58344,88.2239
2023-03-11 20:56:26:253,0,-5.28365,-4.57718,88.2056
2023-03-11 20:56:26:263,0,-5.29041,-4.57376,88.2009
2023-03-11 20:56:26:273,0,-5.29834,-4.56691,88.2071
2023-03-11 20:56:26:283,0,-5.30673,-4.55519,88.2253
2023-03-11 20:56:26:293,0,-5.30536,-4.53532,88.2545
2023-03-11 20:56:26:303,0,-5.29619,-4.51112,88.2953
2023-03-11 20:56:26:313,0,-5.28929,-4.49178,88.3406
2023-03-11 20:56:26:323,0,-5.29634,-4.47897,88.3963
2023-03-11 20:56:26:333,0,-5.30293,-4.46467,88.4526
2023-03-11 20:56:26:343,0,-5.30626,-4.45317,88.5038
2023-03-11 20:56:26:353,0,-5.29996,-4.44352,88.5452
2023-03-11 20:56:26:363,0,-5.29307,-4.44267,88.5813
2023-03-11 20:56:26:373,0,-5.29113,-4.44776,88.6037
2023-03-11 20:56:26:383,0,-5.28799,-4.45947,88.6126
2023-03-11 20:56:26:393,0,-5.28247,-4.47262,88.6021
2023-03-11 20:56:26:403,0,-5.28071,-4.48503,88.5809
2023-03-11 20:56:26:413,0,-5.29317,-4.49581,88.5475
2023-03-11 20:56:26:423,0,-5.3176,-4.50072,88.4988
2023-03-11 20:56:26:433,0,-5.34616,-4.49611,88.4383
2023-03-11 20:56:26:443,0,-5.37867,-4.48905,88.3699
2023-03-11 20:56:26:453,0,-5.41186,-4.48621,88.2965
2023-03-11 20:56:26:463,0,-5.45288,-4.491,88.2307
2023-03-11 20:56:26:473,0,-5.49711,-4.49901,88.1733
2023-03-11 20:56:26:483,0,-5.53326,-4.50942,88.1227
2023-03-11 20:56:26:493,0,-5.55704,-4.51542,88.081
2023-03-11 20:56:26:503,0,-5.57194,-4.53358,88.0516
2023-03-11 20:56:26:513,0,-5.58458,-4.55682,88.0384
2023-03-11 20:56:26:523,0,-5.59759,-4.58613,88.0393
2023-03-11 20:56:26:533,0,-5.61399,-4.62155,88.0523
2023-03-11 20:56:26:543,0,-5.62209,-4.65845,88.0728
2023-03-11 20:56:26:553,0,-5.63216,-4.70156,88.0998
2023-03-11 20:56:26:563,0,-5.64371,-4.74605,88.1322
2023-03-11 20:56:26:573,0,-5.65033,-4.79633,88.1657
2023-03-11 20:56:26:583,0,-5.6512,-4.85005,88.2028
2023-03-11 20:56:26:593,0,-5.64565,-4.90661,88.2377
2023-03-11 20:56:26:603,0,-5.63601,-4.9568,88.266
2023-03-11 20:56:26:613,0,-5.61654,-5.00405,88.2864
2023-03-11 20:56:26:623,0,-5.59056,-5.04315,88.304
2023-03-11 20:56:26:633,0,-5.55372,-5.07847,88.321
2023-03-11 20:56:26:643,0,-5.51137,-5.11416,88.3369
2023-03-11 20:56:26:653,0,-5.46826,-5.14397,88.3499
2023-03-11 20:56:26:663,0,-5.43114,-5.16355,88.3641
2023-03-11 20:56:26:673,0,-5.39461,-5.17639,88.3761
2023-03-11 20:56:26:683,0,-5.36844,-5.18875,88.386
2023-03-11 20:56:26:693,0,-5.34025,-5.19623,88.39
2023-03-11 20:56:26:703,0,-5.31214,-5.20124,88.393
2023-03-11 20:56:26:713,0,-5.28184,-5.20446,88.3926
2023-03-11 20:56:26:723,0,-5.25408,-5.20664,88.3934
2023-03-11 20:56:26:733,0,-5.22766,-5.21173,88.3957
2023-03-11 20:56:26:743,0,-5.20341,-5.22058,88.3959
2023-03-11 20:56:26:753,0,-5.17853,-5.2268,88.3949
2023-03-11 20:56:26:763,0,-5.15252,-5.23762,88.3922
2023-03-11 20:56:26:773,0,-5.12798,-5.24648,88.3892
2023-03-11 20:56:26:783,0,-5.10139,-5.25376,88.3839
2023-03-11 20:56:26:793,0,-5.07529,-5.26199,88.3767
2023-03-11 20:56:26:803,0,-5.04926,-5.26371,88.3676
2023-03-11 20:56:26:813,0,-5.01868,-5.2583,88.361
2023-03-11 20:56:26:823,0,-4.98438,-5.24827,88.3551
2023-03-11 20:56:26:833,0,-4.95374,-5.24596,88.3492
2023-03-11 20:56:26:843,0,-4.9216,-5.24221,88.3444
2023-03-11 20:56:26:853,0,-4.88916,-5.23971,88.3382
2023-03-11 20:56:26:863,0,-4.85298,-5.23397,88.3329
2023-03-11 20:56:26:873,0,-4.81616,-5.22412,88.3313
2023-03-11 20:56:26:884,0,-4.78251,-5.21017,88.3288
2023-03-11 20:56:26:893,0,-4.74986,-5.1923,88.3226
2023-03-11 20:56:26:903,0,-4.71587,-5.16735,88.3134
2023-03-11 20:56:26:913,0,-4.6856,-5.1385,88.3068
2023-03-11 20:56:26:923,0,-4.65926,-5.10974,88.296
2023-03-11 20:56:26:933,0,-4.63472,-5.08747,88.2859
2023-03-11 20:56:26:943,0,-4.61276,-5.0614,88.2809
2023-03-11 20:56:26:953,0,-4.59261,-5.03984,88.2721
2023-03-11 20:56:26:963,0,-4.57529,-5.0217,88.2671
2023-03-11 20:56:26:974,0,-4.56368,-5.00641,88.27
2023-03-11 20:56:26:983,0,-4.55624,-4.98947,88.272
2023-03-11 20:56:26:993,0,-4.54766,-4.97871,88.2815
2023-03-11 20:56:27:3,0,-4.54119,-4.96086,88.2892
2023-03-11 20:56:27:13,0,-4.53618,-4.94722,88.2969
2023-03-11 20:56:27:23,0,-4.53084,-4.93519,88.3088
2023-03-11 20:56:27:33,0,-4.52507,-4.92445,88.3195
2023-03-11 20:56:27:43,0,-4.51579,-4.91121,88.3297
2023-03-11 20:56:27:53,0,-4.51007,-4.9059,88.337
2023-03-11 20:56:27:63,0,-4.50228,-4.90116,88.3416
2023-03-11 20:56:27:73,0,-4.49348,-4.89469,88.339
2023-03-11 20:56:27:83,0,-4.48642,-4.88738,88.3326
2023-03-11 20:56:27:93,0,-4.4773,-4.87912,88.3161
2023-03-11 20:56:27:103,0,-4.472,-4.86967,88.2939
2023-03-11 20:56:27:113,0,-4.46702,-4.86158,88.269
2023-03-11 20:56:27:123,0,-4.4659,-4.86028,88.24
2023-03-11 20:56:27:133,0,-4.46643,-4.86052,88.2116
2023-03-11 20:56:27:143,0,-4.46766,-4.86092,88.1802
2023-03-11 20:56:27:153,0,-4.46792,-4.86437,88.1513
2023-03-11 20:56:27:163,0,-4.47177,-4.86535,88.1176
2023-03-11 20:56:27:173,0,-4.47617,-4.8638,88.0814
2023-03-11 20:56:27:183,0,-4.48028,-4.85984,88.0457
2023-03-11 20:56:27:193,0,-4.49009,-4.85246,88.0111
2023-03-11 20:56:27:203,0,-4.5006,-4.84763,87.9775
2023-03-11 20:56:27:213,0,-4.51242,-4.84144,87.9477
2023-03-11 20:56:27:223,0,-4.51992,-4.83558,87.9187
2023-03-11 20:56:27:233,0,-4.5263,-4.83119,87.8901
2023-03-11 20:56:27:243,0,-4.52796,-4.82308,87.8661
2023-03-11 20:56:27:253,0,-4.52644,-4.81283,87.8379
2023-03-11 20:56:27:263,0,-4.52839,-4.80232,87.8136
2023-03-11 20:56:27:273,0,-4.5349,-4.79198,87.794
2023-03-11 20:56:27:283,0,-4.54106,-4.78614,87.7737
2023-03-11 20:56:27:293,0,-4.55418,-4.7766,87.7544
2023-03-11 20:56:27:303,0,-4.56678,-4.76483,87.7337
2023-03-11 20:56:27:313,0,-4.57928,-4.75871,87.7205
2023-03-11 20:56:27:323,0,-4.59339,-4.75296,87.7086
2023-03-11 20:56:27:333,0,-4.60304,-4.74664,87.6959
2023-03-11 20:56:27:343,0,-4.61559,-4.73799,87.6846
2023-03-11 20:56:27:353,0,-4.62409,-4.72739,87.6693
2023-03-11 20:56:27:363,0,-4.63377,-4.71904,87.6529
2023-03-11 20:56:27:373,0,-4.64064,-4.71091,87.6389
2023-03-11 20:56:27:383,0,-4.64444,-4.70637,87.6258
2023-03-11 20:56:27:393,0,-4.65082,-4.70166,87.6132
2023-03-11 20:56:27:403,0,-4.66409,-4.69413,87.6046
2023-03-11 20:56:27:413,0,-4.67306,-4.68769,87.5947
2023-03-11 20:56:27:423,0,-4.68224,-4.67725,87.5839
2023-03-11 20:56:27:433,0,-4.69191,-4.66842,87.5749
2023-03-11 20:56:27:443,0,-4.70159,-4.66187,87.5694
2023-03-11 20:56:27:453,0,-4.71285,-4.65286,87.5599
2023-03-11 20:56:27:463,0,-4.71666,-4.64465,87.5513
2023-03-11 20:56:27:473,0,-4.72229,-4.63765,87.5404
2023-03-11 20:56:27:483,0,-4.72606,-4.63154,87.5313
2023-03-11 20:56:27:493,0,-4.73253,-4.62824,87.5252
2023-03-11 20:56:27:503,0,-4.74077,-4.62641,87.5194
2023-03-11 20:56:27:513,0,-4.74948,-4.62333,87.5156
2023-03-11 20:56:27:523,0,-4.76529,-4.62316,87.5179
2023-03-11 20:56:27:533,0,-4.7855,-4.62322,87.5189
2023-03-11 20:56:27:543,0,-4.80138,-4.61978,87.5206
2023-03-11 20:56:27:553,0,-4.81109,-4.61555,87.5219
2023-03-11 20:56:27:563,0,-4.82245,-4.61274,87.5273
2023-03-11 20:56:27:573,0,-4.83216,-4.60908,87.5324
2023-03-11 20:56:27:583,0,-4.8406,-4.60369,87.5383
2023-03-11 20:56:27:593,0,-4.84741,-4.60138,87.5454
2023-03-11 20:56:27:603,0,-4.8498,-4.59663,87.5553
2023-03-11 20:56:27:613,0,-4.85415,-4.59626,87.5637
2023-03-11 20:56:27:623,0,-4.86053,-4.59458,87.5749
2023-03-11 20:56:27:633,0,-4.86598,-4.5884,87.5842
2023-03-11 20:56:27:643,0,-4.87006,-4.58244,87.5941
2023-03-11 20:56:27:653,0,-4.87349,-4.58019,87.6018
2023-03-11 20:56:27:663,0,-4.87889,-4.57748,87.605
2023-03-11 20:56:27:673,0,-4.8855,-4.57503,87.6098
2023-03-11 20:56:27:683,0,-4.88964,-4.57559,87.6127
2023-03-11 20:56:27:693,0,-4.89288,-4.57266,87.6191
2023-03-11 20:56:27:703,0,-4.89518,-4.56984,87.6218
2023-03-11 20:56:27:713,0,-4.89842,-4.56662,87.6251
2023-03-11 20:56:27:723,0,-4.90496,-4.56022,87.6312
2023-03-11 20:56:27:733,0,-4.91196,-4.55574,87.6366
2023-03-11 20:56:27:743,0,-4.92367,-4.55077,87.6453
2023-03-11 20:56:27:753,0,-4.93484,-4.54903,87.6556
2023-03-11 20:56:27:763,0,-4.94672,-4.55162,87.6713
2023-03-11 20:56:27:773,0,-4.95925,-4.55288,87.683
2023-03-11 20:56:27:783,0,-4.97235,-4.55088,87.6972
2023-03-11 20:56:27:793,0,-4.98417,-4.54468,87.7071
2023-03-11 20:56:27:803,0,-4.99127,-4.53661,87.7186
2023-03-11 20:56:27:813,0,-4.99437,-4.52139,87.719
2023-03-11 20:56:27:823,0,-4.9947,-4.50374,87.7167
2023-03-11 20:56:27:833,0,-4.99535,-4.48096,87.7063
2023-03-11 20:56:27:844,0,-4.99622,-4.45792,87.6939
2023-03-11 20:56:27:853,0,-4.99821,-4.43391,87.6725
2023-03-11 20:56:27:863,0,-5.00328,-4.40771,87.6512
2023-03-11 20:56:27:874,0,-5.00653,-4.37694,87.6253
2023-03-11 20:56:27:883,0,-5.00868,-4.35289,87.5978
2023-03-11 20:56:27:893,0,-5.01136,-4.33734,87.572
2023-03-11 20:56:27:903,0,-5.01302,-4.3218,87.5517
2023-03-11 20:56:27:913,0,-5.01744,-4.3106,87.5356
2023-03-11 20:56:27:923,0,-5.02959,-4.29408,87.5208
2023-03-11 20:56:27:933,0,-5.04389,-4.27642,87.5103
2023-03-11 20:56:27:943,0,-5.05842,-4.25992,87.5034
2023-03-11 20:56:27:953,0,-5.07122,-4.24478,87.5027
2023-03-11 20:56:27:963,0,-5.08218,-4.23154,87.5056
2023-03-11 20:56:27:973,0,-5.08829,-4.22203,87.5129
2023-03-11 20:56:27:983,0,-5.09609,-4.2072,87.5201
2023-03-11 20:56:27:993,0,-5.0948,-4.19284,87.5287
2023-03-11 20:56:28:3,0,-5.09696,-4.18313,87.5415
2023-03-11 20:56:28:13,0,-5.10519,-4.17671,87.5529
2023-03-11 20:56:28:23,0,-5.11742,-4.17245,87.5613
2023-03-11 20:56:28:33,0,-5.12996,-4.16675,87.5674
2023-03-11 20:56:28:43,0,-5.14624,-4.15994,87.5724
2023-03-11 20:56:28:53,0,-5.16073,-4.15411,87.5804
2023-03-11 20:56:28:63,0,-5.17791,-4.14944,87.5825
2023-03-11 20:56:28:73,0,-5.19037,-4.14788,87.5866
2023-03-11 20:56:28:83,0,-5.19806,-4.15042,87.5911
2023-03-11 20:56:28:93,0,-5.2059,-4.15271,87.5953
2023-03-11 20:56:28:103,0,-5.21024,-4.15303,87.598
2023-03-11 20:56:28:113,0,-5.21033,-4.15427,87.5981
2023-03-11 20:56:28:123,0,-5.20802,-4.16004,87.5953
2023-03-11 20:56:28:133,0,-5.20529,-4.16889,87.5962
2023-03-11 20:56:28:143,0,-5.20412,-4.17705,87.5965
2023-03-11 20:56:28:153,0,-5.20428,-4.18549,87.5983
2023-03-11 20:56:28:163,0,-5.20362,-4.19217,87.602
2023-03-11 20:56:28:173,0,-5.20411,-4.19408,87.6052
2023-03-11 20:56:28:183,0,-5.20094,-4.18952,87.6084
2023-03-11 20:56:28:193,0,-5.19944,-4.18759,87.616
2023-03-11 20:56:28:203,0,-5.19341,-4.19373,87.6242
2023-03-11 20:56:28:213,0,-5.18785,-4.19488,87.631
2023-03-11 20:56:28:223,0,-5.17842,-4.19943,87.6397
2023-03-11 20:56:28:233,0,-5.17269,-4.20501,87.6428
2023-03-11 20:56:28:243,0,-5.17021,-4.21371,87.6499
2023-03-11 20:56:28:253,0,-5.16542,-4.2221,87.655
2023-03-11 20:56:28:263,0,-5.16038,-4.23024,87.6595
2023-03-11 20:56:28:273,0,-5.15289,-4.23758,87.6637
2023-03-11 20:56:28:283,0,-5.14581,-4.24265,87.6654
2023-03-11 20:56:28:293,0,-5.13421,-4.25275,87.6666
2023-03-11 20:56:28:303,0,-5.12823,-4.26049,87.6713
2023-03-11 20:56:28:313,0,-5.12169,-4.26494,87.6744
2023-03-11 20:56:28:323,0,-5.1132,-4.27048,87.6804
2023-03-11 20:56:28:333,0,-5.10561,-4.27982,87.6855
2023-03-11 20:56:28:343,0,-5.1008,-4.28546,87.693
2023-03-11 20:56:28:353,0,-5.09861,-4.28807,87.6997
2023-03-11 20:56:28:363,0,-5.09308,-4.28915,87.7073
2023-03-11 20:56:28:373,0,-5.0869,-4.29099,87.7108
2023-03-11 20:56:28:383,0,-5.07874,-4.29282,87.7135
2023-03-11 20:56:28:394,0,-5.07337,-4.2906,87.7153
2023-03-11 20:56:28:404,0,-5.07051,-4.28629,87.7154
2023-03-11 20:56:28:414,0,-5.07,-4.28452,87.714
2023-03-11 20:56:28:423,0,-5.07256,-4.2828,87.7068
2023-03-11 20:56:28:433,0,-5.07358,-4.27908,87.7002
2023-03-11 20:56:28:443,0,-5.07683,-4.27396,87.6927
2023-03-11 20:56:28:453,0,-5.077,-4.26961,87.6843
2023-03-11 20:56:28:463,0,-5.0777,-4.26549,87.6756
2023-03-11 20:56:28:473,0,-5.07944,-4.26195,87.6634
2023-03-11 20:56:28:483,0,-5.07943,-4.25779,87.6532
2023-03-11 20:56:28:493,0,-5.0796,-4.25677,87.646
2023-03-11 20:56:28:503,0,-5.08298,-4.2542,87.6396
2023-03-11 20:56:28:513,0,-5.08735,-4.24984,87.6401
2023-03-11 20:56:28:523,0,-5.0885,-4.24741,87.6396
2023-03-11 20:56:28:533,0,-5.0888,-4.2437,87.6369
2023-03-11 20:56:28:543,0,-5.0893,-4.23992,87.6372
2023-03-11 20:56:28:553,0,-5.08685,-4.23507,87.6391
2023-03-11 20:56:28:563,0,-5.08631,-4.23071,87.6368
2023-03-11 20:56:28:573,0,-5.08811,-4.22722,87.6352
2023-03-11 20:56:28:583,0,-5.08637,-4.2225,87.6325
2023-03-11 20:56:28:593,0,-5.09018,-4.21701,87.6276
2023-03-11 20:56:28:603,0,-5.09258,-4.2098,87.6217
2023-03-11 20:56:28:613,0,-5.0949,-4.20347,87.6174
2023-03-11 20:56:28:623,0,-5.09384,-4.20648,87.6151
2023-03-11 20:56:28:633,0,-5.09938,-4.21002,87.6149
2023-03-11 20:56:28:643,0,-5.10209,-4.21629,87.6161
2023-03-11 20:56:28:653,0,-5.11033,-4.22155,87.6168
2023-03-11 20:56:28:663,0,-5.11402,-4.22896,87.6178
2023-03-11 20:56:28:673,0,-5.11947,-4.23255,87.622
2023-03-11 20:56:28:683,0,-5.12376,-4.23635,87.6274
2023-03-11 20:56:28:693,0,-5.13101,-4.23903,87.6346
2023-03-11 20:56:28:703,0,-5.13453,-4.24127,87.6428
2023-03-11 20:56:28:713,0,-5.13712,-4.24429,87.6535
2023-03-11 20:56:28:723,0,-5.13643,-4.24607,87.6603
2023-03-11 20:56:28:733,0,-5.1394,-4.24337,87.6651
2023-03-11 20:56:28:743,0,-5.14264,-4.23553,87.6674
2023-03-11 20:56:28:753,0,-5.14749,-4.22981,87.6648
2023-03-11 20:56:28:763,0,-5.15242,-4.2228,87.6629
2023-03-11 20:56:28:773,0,-5.1586,-4.21898,87.6562
2023-03-11 20:56:28:783,0,-5.16149,-4.20996,87.6493
2023-03-11 20:56:28:793,0,-5.16716,-4.20417,87.6394
2023-03-11 20:56:28:803,0,-5.1754,-4.20136,87.6298
2023-03-11 20:56:28:813,0,-5.18506,-4.20131,87.6198
2023-03-11 20:56:28:823,0,-5.19043,-4.19901,87.6147
2023-03-11 20:56:28:833,0,-5.20124,-4.19501,87.6078
2023-03-11 20:56:28:843,0,-5.20933,-4.18617,87.6002
2023-03-11 20:56:28:853,0,-5.21551,-4.18087,87.5915
2023-03-11 20:56:28:863,0,-5.21426,-4.17724,87.5878
2023-03-11 20:56:28:873,0,-5.20708,-4.17858,87.5871
2023-03-11 20:56:28:883,0,-5.19832,-4.17974,87.5868
2023-03-11 20:56:28:893,0,-5.18457,-4.17951,87.5891
2023-03-11 20:56:28:903,0,-5.17303,-4.17936,87.5904
2023-03-11 20:56:28:913,0,-5.15637,-4.17736,87.5966
2023-03-11 20:56:28:923,0,-5.14029,-4.17467,87.5987
2023-03-11 20:56:28:933,0,-5.12212,-4.17308,87.6044
2023-03-11 20:56:28:943,0,-5.1041,-4.16791,87.611
2023-03-11 20:56:28:953,0,-5.08652,-4.16655,87.6171
2023-03-11 20:56:28:963,0,-5.07129,-4.16872,87.6195
2023-03-11 20:56:28:973,0,-5.05825,-4.17422,87.6223
2023-03-11 20:56:28:983,0,-5.04314,-4.1785,87.6256
2023-03-11 20:56:28:994,0,-5.03395,-4.18099,87.6243
2023-03-11 20:56:29:3,0,-5.02153,-4.18684,87.6272
2023-03-11 20:56:29:13,0,-5.01148,-4.19803,87.6264
2023-03-11 20:56:29:23,0,-5.00098,-4.20487,87.6299
2023-03-11 20:56:29:33,0,-4.98814,-4.21226,87.6323
2023-03-11 20:56:29:43,0,-4.97881,-4.21993,87.6361
2023-03-11 20:56:29:53,0,-4.96809,-4.22907,87.6425
2023-03-11 20:56:29:63,0,-4.95662,-4.23971,87.6524
2023-03-11 20:56:29:73,0,-4.94658,-4.24888,87.6621
2023-03-11 20:56:29:83,0,-4.93585,-4.25696,87.6712
2023-03-11 20:56:29:93,0,-4.92978,-4.26592,87.6855
2023-03-11 20:56:29:103,0,-4.92397,-4.27178,87.7007
2023-03-11 20:56:29:113,0,-4.92273,-4.27728,87.7122
2023-03-11 20:56:29:123,0,-4.92493,-4.28028,87.7211
2023-03-11 20:56:29:133,0,-4.92201,-4.2851,87.7312
2023-03-11 20:56:29:143,0,-4.91703,-4.28962,87.7352
2023-03-11 20:56:29:153,0,-4.91259,-4.29012,87.7361
2023-03-11 20:56:29:163,0,-4.9074,-4.28929,87.7391
2023-03-11 20:56:29:173,0,-4.90891,-4.28947,87.7405
2023-03-11 20:56:29:183,0,-4.90924,-4.29006,87.7377
2023-03-11 20:56:29:193,0,-4.91006,-4.291,87.7302
2023-03-11 20:56:29:203,0,-4.91017,-4.29166,87.7242
2023-03-11 20:56:29:213,0,-4.91099,-4.29351,87.7226
2023-03-11 20:56:29:223,0,-4.90597,-4.28973,87.7164
2023-03-11 20:56:29:233,0,-4.90487,-4.2872,87.7144
2023-03-11 20:56:29:243,0,-4.90457,-4.28378,87.7128
2023-03-11 20:56:29:253,0,-4.90665,-4.27768,87.712
2023-03-11 20:56:29:263,0,-4.90501,-4.27559,87.7104
2023-03-11 20:56:29:273,0,-4.9027,-4.26914,87.7123
2023-03-11 20:56:29:283,0,-4.897,-4.26149,87.7105
2023-03-11 20:56:29:293,0,-4.88768,-4.24928,87.71
2023-03-11 20:56:29:303,0,-4.88031,-4.24043,87.7075
2023-03-11 20:56:29:313,0,-4.87653,-4.23247,87.7052
2023-03-11 20:56:29:323,0,-4.87381,-4.2236,87.6988
2023-03-11 20:56:29:333,0,-4.86924,-4.21714,87.6907
2023-03-11 20:56:29:343,0,-4.86488,-4.20787,87.6865
2023-03-11 20:56:29:353,0,-4.86295,-4.19941,87.6765
2023-03-11 20:56:29:363,0,-4.8552,-4.19467,87.6712
2023-03-11 20:56:29:373,0,-4.85002,-4.19587,87.6658
2023-03-11 20:56:29:383,0,-4.84603,-4.20203,87.6608
2023-03-11 20:56:29:393,0,-4.8381,-4.20533,87.6571
2023-03-11 20:56:29:403,0,-4.83355,-4.2095,87.6585
2023-03-11 20:56:29:413,0,-4.83567,-4.21073,87.6609
2023-03-11 20:56:29:423,0,-4.83623,-4.21392,87.6682
2023-03-11 20:56:29:433,0,-4.83575,-4.21446,87.6758
2023-03-11 20:56:29:443,0,-4.83529,-4.21631,87.6843
2023-03-11 20:56:29:453,0,-4.83283,-4.2157,87.6964
2023-03-11 20:56:29:463,0,-4.83529,-4.21357,87.7049
2023-03-11 20:56:29:473,0,-4.83492,-4.21068,87.7132
2023-03-11 20:56:29:483,0,-4.83542,-4.20866,87.7146
2023-03-11 20:56:29:493,0,-4.84057,-4.20501,87.7167
2023-03-11 20:56:29:503,0,-4.84899,-4.20089,87.7163
2023-03-11 20:56:29:513,0,-4.85837,-4.19278,87.708
2023-03-11 20:56:29:523,0,-4.87178,-4.18938,87.7045
2023-03-11 20:56:29:533,0,-4.88251,-4.18398,87.695
2023-03-11 20:56:29:543,0,-4.88725,-4.18013,87.6829
2023-03-11 20:56:29:553,0,-4.89257,-4.17614,87.6688
2023-03-11 20:56:29:563,0,-4.89615,-4.17511,87.6577
2023-03-11 20:56:29:573,0,-4.90509,-4.17068,87.6456
2023-03-11 20:56:29:583,0,-4.91346,-4.16392,87.6376
2023-03-11 20:56:29:593,0,-4.91896,-4.15347,87.6281
2023-03-11 20:56:29:603,0,-4.91896,-4.14465,87.619
2023-03-11 20:56:29:613,0,-4.91636,-4.14266,87.6131
2023-03-11 20:56:29:623,0,-4.9137,-4.14008,87.6088
2023-03-11 20:56:29:633,0,-4.91106,-4.13725,87.6073
2023-03-11 20:56:29:643,0,-4.90566,-4.13526,87.6069
2023-03-11 20:56:29:653,0,-4.89783,-4.13083,87.6076
2023-03-11 20:56:29:663,0,-4.88981,-4.12774,87.6076
2023-03-11 20:56:29:673,0,-4.88408,-4.12467,87.6108
2023-03-11 20:56:29:683,0,-4.87857,-4.12469,87.6112
2023-03-11 20:56:29:693,0,-4.87366,-4.1207,87.6112
2023-03-11 20:56:29:703,0,-4.86708,-4.12179,87.6103
2023-03-11 20:56:29:713,0,-4.86413,-4.12322,87.6107
2023-03-11 20:56:29:723,0,-4.86002,-4.12419,87.6073
2023-03-11 20:56:29:733,0,-4.85387,-4.12395,87.6057
2023-03-11 20:56:29:743,0,-4.85264,-4.12524,87.6033
2023-03-11 20:56:29:753,0,-4.84498,-4.12866,87.6054
2023-03-11 20:56:29:763,0,-4.84251,-4.13273,87.6057
2023-03-11 20:56:29:773,0,-4.84129,-4.14174,87.6077
2023-03-11 20:56:29:783,0,-4.83756,-4.1483,87.6096
2023-03-11 20:56:29:793,0,-4.83701,-4.15572,87.6174
2023-03-11 20:56:29:803,0,-4.83886,-4.16178,87.6285
2023-03-11 20:56:29:813,0,-4.84174,-4.16741,87.6375
2023-03-11 20:56:29:823,0,-4.84324,-4.17108,87.65
2023-03-11 20:56:29:833,0,-4.84864,-4.17412,87.6596
2023-03-11 20:56:29:843,0,-4.85783,-4.17895,87.6709
2023-03-11 20:56:29:853,0,-4.86029,-4.18426,87.6795
2023-03-11 20:56:29:863,0,-4.86334,-4.18498,87.6866
2023-03-11 20:56:29:873,0,-4.86683,-4.18735,87.6879
2023-03-11 20:56:29:883,0,-4.87098,-4.18964,87.6897
2023-03-11 20:56:29:893,0,-4.87534,-4.19466,87.6893
2023-03-11 20:56:29:903,0,-4.882,-4.19377,87.6857
2023-03-11 20:56:29:913,0,-4.8855,-4.19432,87.6801
2023-03-11 20:56:29:923,0,-4.88963,-4.19433,87.6758
2023-03-11 20:56:29:933,0,-4.895,-4.1966,87.669
2023-03-11 20:56:29:943,0,-4.89952,-4.19809,87.6619
2023-03-11 20:56:29:953,0,-4.90295,-4.19577,87.6563
2023-03-11 20:56:29:963,0,-4.90031,-4.19184,87.6467
2023-03-11 20:56:29:973,0,-4.89598,-4.19293,87.6419
2023-03-11 20:56:29:983,0,-4.89075,-4.19253,87.6404
2023-03-11 20:56:29:993,0,-4.88613,-4.1891,87.6386
2023-03-11 20:56:30:3,0,-4.88306,-4.18648,87.6401
2023-03-11 20:56:30:13,0,-4.88158,-4.18573,87.6462
2023-03-11 20:56:30:23,0,-4.88337,-4.18282,87.6512
2023-03-11 20:56:30:33,0,-4.88199,-4.18211,87.6533
2023-03-11 20:56:30:43,0,-4.8783,-4.17473,87.6552
2023-03-11 20:56:30:53,0,-4.87679,-4.17017,87.6565
2023-03-11 20:56:30:63,0,-4.87375,-4.16387,87.6555
2023-03-11 20:56:30:73,0,-4.86795,-4.15812,87.6525
2023-03-11 20:56:30:83,0,-4.86188,-4.14954,87.647
2023-03-11 20:56:30:93,0,-4.86217,-4.14341,87.6386
2023-03-11 20:56:30:103,0,-4.86168,-4.13872,87.6309
2023-03-11 20:56:30:113,0,-4.85527,-4.13042,87.621
2023-03-11 20:56:30:123,0,-4.84587,-4.12711,87.6128
2023-03-11 20:56:30:133,0,-4.84294,-4.13106,87.6057
2023-03-11 20:56:30:143,0,-4.84236,-4.14095,87.5999
2023-03-11 20:56:30:153,0,-4.84218,-4.14893,87.6015
2023-03-11 20:56:30:163,0,-4.8462,-4.15509,87.605
2023-03-11 20:56:30:173,0,-4.8529,-4.16032,87.6099
2023-03-11 20:56:30:183,0,-4.86087,-4.16341,87.6148
2023-03-11 20:56:30:193,0,-4.87038,-4.16395,87.6261
2023-03-11 20:56:30:203,0,-4.873,-4.16702,87.6353
2023-03-11 20:56:30:213,0,-4.87,-4.16948,87.644
2023-03-11 20:56:30:223,0,-4.87126,-4.16894,87.6526
2023-03-11 20:56:30:233,0,-4.8702,-4.16664,87.6565
2023-03-11 20:56:30:243,0,-4.86975,-4.16416,87.6541
2023-03-11 20:56:30:253,0,-4.86792,-4.16183,87.6508
2023-03-11 20:56:30:263,0,-4.87284,-4.15623,87.6425
2023-03-11 20:56:30:273,0,-4.87504,-4.15241,87.633
2023-03-11 20:56:30:283,0,-4.8806,-4.1495,87.6242
2023-03-11 20:56:30:293,0,-4.88595,-4.14364,87.611
2023-03-11 20:56:30:303,0,-4.89619,-4.1366,87.5952
2023-03-11 20:56:30:313,0,-4.90522,-4.13101,87.5804
2023-03-11 20:56:30:323,0,-4.91086,-4.12362,87.5666
2023-03-11 20:56:30:333,0,-4.91677,-4.10908,87.558
2023-03-11 20:56:30:343,0,-4.92087,-4.09335,87.5467
2023-03-11 20:56:30:353,0,-4.92204,-4.0813,87.5338
2023-03-11 20:56:30:363,0,-4.921,-4.07508,87.5236
2023-03-11 20:56:30:373,0,-4.92198,-4.0711,87.521
2023-03-11 20:56:30:383,0,-4.92353,-4.06853,87.521
2023-03-11 20:56:30:393,0,-4.92461,-4.06649,87.5223
2023-03-11 20:56:30:403,0,-4.92569,-4.06099,87.5252
2023-03-11 20:56:30:413,0,-4.92356,-4.0587,87.5301
2023-03-11 20:56:30:423,0,-4.92205,-4.05944,87.5338
2023-03-11 20:56:30:433,0,-4.92019,-4.05876,87.5423
2023-03-11 20:56:30:443,0,-4.91773,-4.05415,87.549
2023-03-11 20:56:30:453,0,-4.91502,-4.05237,87.5567
2023-03-11 20:56:30:463,0,-4.90698,-4.05169,87.5636
2023-03-11 20:56:30:473,0,-4.89979,-4.05377,87.5696
2023-03-11 20:56:30:483,0,-4.88977,-4.05671,87.5775
2023-03-11 20:56:30:493,0,-4.88261,-4.06268,87.5843
2023-03-11 20:56:30:503,0,-4.87357,-4.06718,87.5894
2023-03-11 20:56:30:513,0,-4.86648,-4.07332,87.5977
2023-03-11 20:56:30:523,0,-4.85448,-4.08117,87.6022
2023-03-11 20:56:30:533,0,-4.84488,-4.0891,87.6091
2023-03-11 20:56:30:543,0,-4.83453,-4.09831,87.6155
2023-03-11 20:56:30:553,0,-4.82637,-4.1068,87.6269
2023-03-11 20:56:30:563,0,-4.81407,-4.1123,87.6378
2023-03-11 20:56:30:573,0,-4.80553,-4.11311,87.6465
2023-03-11 20:56:30:583,0,-4.80075,-4.11621,87.6543
2023-03-11 20:56:30:593,0,-4.79655,-4.11876,87.6566
2023-03-11 20:56:30:603,0,-4.78741,-4.12276,87.659
2023-03-11 20:56:30:613,0,-4.77903,-4.12365,87.6633
2023-03-11 20:56:30:623,0,-4.77168,-4.12198,87.6653
2023-03-11 20:56:30:633,0,-4.76488,-4.12335,87.6658
2023-03-11 20:56:30:643,0,-4.76134,-4.12119,87.6623
2023-03-11 20:56:30:653,0,-4.75341,-4.11919,87.6556
2023-03-11 20:56:30:663,0,-4.74372,-4.11682,87.6513
2023-03-11 20:56:30:673,0,-4.7382,-4.11108,87.6464
2023-03-11 20:56:30:683,0,-4.73266,-4.10563,87.6382
2023-03-11 20:56:30:693,0,-4.72817,-4.09823,87.6326
2023-03-11 20:56:30:703,0,-4.72171,-4.08864,87.6232
2023-03-11 20:56:30:713,0,-4.71412,-4.08157,87.6131
2023-03-11 20:56:30:723,0,-4.71396,-4.07869,87.6092
2023-03-11 20:56:30:733,0,-4.71127,-4.07417,87.6064
2023-03-11 20:56:30:743,0,-4.70939,-4.06459,87.6057
2023-03-11 20:56:30:753,0,-4.71052,-4.05902,87.6077
2023-03-11 20:56:30:763,0,-4.70828,-4.0567,87.6118
2023-03-11 20:56:30:773,0,-4.70748,-4.049,87.6183
2023-03-11 20:56:30:783,0,-4.70789,-4.04551,87.6223
2023-03-11 20:56:30:793,0,-4.70813,-4.04112,87.6254
2023-03-11 20:56:30:803,0,-4.70658,-4.0352,87.6275
2023-03-11 20:56:30:813,0,-4.70522,-4.02698,87.631
2023-03-11 20:56:30:823,0,-4.6999,-4.01998,87.6312
2023-03-11 20:56:30:833,0,-4.69947,-4.01524,87.6311
2023-03-11 20:56:30:843,0,-4.69572,-4.01192,87.6282
2023-03-11 20:56:30:853,0,-4.69326,-4.00468,87.6225
2023-03-11 20:56:30:863,0,-4.68271,-4.00067,87.6134
2023-03-11 20:56:30:873,0,-4.6706,-4.00266,87.606
2023-03-11 20:56:30:883,0,-4.65839,-4.0111,87.6035
2023-03-11 20:56:30:893,0,-4.64958,-4.02017,87.6017
2023-03-11 20:56:30:903,0,-4.6479,-4.02949,87.6027
2023-03-11 20:56:30:913,0,-4.64713,-4.0384,87.607
2023-03-11 20:56:30:923,0,-4.64598,-4.04573,87.6161
2023-03-11 20:56:30:933,0,-4.64888,-4.0549,87.6247
2023-03-11 20:56:30:943,0,-4.6498,-4.06323,87.6357
2023-03-11 20:56:30:953,0,-4.64937,-4.07099,87.6471
2023-03-11 20:56:30:963,0,-4.64937,-4.07915,87.6594
2023-03-11 20:56:30:973,0,-4.64815,-4.08242,87.6674
2023-03-11 20:56:30:983,0,-4.64715,-4.089,87.6746
2023-03-11 20:56:30:993,0,-4.64987,-4.09156,87.6811
2023-03-11 20:56:31:4,0,-4.65449,-4.09284,87.6828
2023-03-11 20:56:31:13,0,-4.65966,-4.09326,87.6815
2023-03-11 20:56:31:23,0,-4.66525,-4.0926,87.6754
2023-03-11 20:56:31:33,0,-4.67247,-4.0938,87.6684
2023-03-11 20:56:31:43,0,-4.67978,-4.09297,87.6591
2023-03-11 20:56:31:53,0,-4.68996,-4.09282,87.6506
2023-03-11 20:56:31:63,0,-4.69965,-4.09024,87.6408
2023-03-11 20:56:31:73,0,-4.70343,-4.08761,87.6356
2023-03-11 20:56:31:83,0,-4.70728,-4.08339,87.6271
2023-03-11 20:56:31:93,0,-4.7082,-4.07485,87.6177
2023-03-11 20:56:31:103,0,-4.70388,-4.06889,87.6099
2023-03-11 20:56:31:113,0,-4.69626,-4.0678,87.6025
2023-03-11 20:56:31:123,0,-4.68939,-4.0671,87.5981
2023-03-11 20:56:31:133,0,-4.68412,-4.06768,87.5949
2023-03-11 20:56:31:143,0,-4.6791,-4.0693,87.5965
2023-03-11 20:56:31:153,0,-4.67311,-4.06807,87.5983
2023-03-11 20:56:31:163,0,-4.67228,-4.06374,87.5986
2023-03-11 20:56:31:173,0,-4.6711,-4.06107,87.5994
2023-03-11 20:56:31:183,0,-4.67145,-4.05748,87.6046
2023-03-11 20:56:31:193,0,-4.66653,-4.05497,87.6124
2023-03-11 20:56:31:203,0,-4.66155,-4.0545,87.6199
2023-03-11 20:56:31:213,0,-4.6551,-4.05552,87.6236
2023-03-11 20:56:31:223,0,-4.65186,-4.0565,87.6251
2023-03-11 20:56:31:233,0,-4.64854,-4.05719,87.6254
2023-03-11 20:56:31:243,0,-4.65054,-4.05828,87.6288
2023-03-11 20:56:31:253,0,-4.64882,-4.06115,87.6293
2023-03-11 20:56:31:263,0,-4.64726,-4.06392,87.6285
2023-03-11 20:56:31:273,0,-4.64436,-4.06611,87.6288
2023-03-11 20:56:31:283,0,-4.64058,-4.06881,87.6322
2023-03-11 20:56:31:293,0,-4.63729,-4.07204,87.6346
2023-03-11 20:56:31:303,0,-4.63311,-4.07496,87.638
2023-03-11 20:56:31:313,0,-4.62918,-4.07903,87.6426
2023-03-11 20:56:31:323,0,-4.62459,-4.08293,87.6514
2023-03-11 20:56:31:333,0,-4.62229,-4.08515,87.6598
2023-03-11 20:56:31:343,0,-4.62263,-4.0914,87.6681
2023-03-11 20:56:31:353,0,-4.62417,-4.09212,87.6778
2023-03-11 20:56:31:363,0,-4.62913,-4.09275,87.6842
2023-03-11 20:56:31:373,0,-4.63767,-4.093,87.6906
2023-03-11 20:56:31:383,0,-4.64615,-4.09454,87.6945
2023-03-11 20:56:31:393,0,-4.65044,-4.09296,87.6933
2023-03-11 20:56:31:403,0,-4.65274,-4.08882,87.6869
2023-03-11 20:56:31:413,0,-4.65903,-4.08425,87.6818
2023-03-11 20:56:31:423,0,-4.66441,-4.07737,87.6713
2023-03-11 20:56:31:433,0,-4.66953,-4.07026,87.6583
2023-03-11 20:56:31:443,0,-4.67645,-4.06349,87.6426
2023-03-11 20:56:31:453,0,-4.68181,-4.05504,87.6272
2023-03-11 20:56:31:463,0,-4.688,-4.04729,87.6125
2023-03-11 20:56:31:473,0,-4.69105,-4.03867,87.6009
2023-03-11 20:56:31:483,0,-4.69696,-4.02976,87.5881
2023-03-11 20:56:31:493,0,-4.69981,-4.01921,87.5805
2023-03-11 20:56:31:503,0,-4.70389,-4.01181,87.5767
2023-03-11 20:56:31:513,0,-4.71055,-4.00445,87.5746
2023-03-11 20:56:31:523,0,-4.71447,-3.9961,87.5755
2023-03-11 20:56:31:533,0,-4.71875,-3.98692,87.5754
2023-03-11 20:56:31:543,0,-4.72025,-3.978,87.578
2023-03-11 20:56:31:553,0,-4.72194,-3.96959,87.5817
2023-03-11 20:56:31:563,0,-4.72456,-3.96189,87.5829
2023-03-11 20:56:31:573,0,-4.72547,-3.95474,87.5831
2023-03-11 20:56:31:583,0,-4.72916,-3.94693,87.5779
2023-03-11 20:56:31:593,0,-4.73626,-3.93219,87.5753
2023-03-11 20:56:31:603,0,-4.74176,-3.92353,87.569
2023-03-11 20:56:31:613,0,-4.7448,-3.9216,87.566
2023-03-11 20:56:31:623,0,-4.74807,-3.9283,87.5632
2023-03-11 20:56:31:633,0,-4.75113,-3.93825,87.5607
2023-03-11 20:56:31:643,0,-4.75908,-3.94825,87.5658
2023-03-11 20:56:31:653,0,-4.76871,-3.95496,87.5734
2023-03-11 20:56:31:663,0,-4.78323,-3.96182,87.5817
2023-03-11 20:56:31:673,0,-4.79142,-3.97126,87.594
2023-03-11 20:56:31:683,0,-4.805,-3.97933,87.6109
2023-03-11 20:56:31:693,0,-4.81793,-3.9863,87.6296
2023-03-11 20:56:31:703,0,-4.82753,-3.99199,87.6469
2023-03-11 20:56:31:713,0,-4.83,-3.99964,87.6611
2023-03-11 20:56:31:723,0,-4.83285,-4.00324,87.6666
2023-03-11 20:56:31:733,0,-4.83734,-4.01147,87.6698
2023-03-11 20:56:31:744,0,-4.8426,-4.01717,87.6751
2023-03-11 20:56:31:753,0,-4.8538,-4.02272,87.6689
2023-03-11 20:56:31:763,0,-4.86137,-4.02558,87.6619
2023-03-11 20:56:31:773,0,-4.86951,-4.02553,87.6523
2023-03-11 20:56:31:783,0,-4.87747,-4.02237,87.6422
2023-03-11 20:56:31:793,0,-4.88227,-4.01981,87.6298
2023-03-11 20:56:31:803,0,-4.88632,-4.01438,87.6202
2023-03-11 20:56:31:813,0,-4.89332,-4.00717,87.6135
2023-03-11 20:56:31:823,0,-4.89777,-3.99878,87.6085
2023-03-11 20:56:31:833,0,-4.89948,-3.98819,87.6039
2023-03-11 20:56:31:844,0,-4.89884,-3.97745,87.6027
2023-03-11 20:56:31:853,0,-4.89561,-3.96586,87.6022
2023-03-11 20:56:31:864,0,-4.89283,-3.95543,87.6032
2023-03-11 20:56:31:873,0,-4.88375,-3.94673,87.6044
2023-03-11 20:56:31:883,0,-4.87359,-3.93864,87.6083
2023-03-11 20:56:31:893,0,-4.86304,-3.92793,87.6073
2023-03-11 20:56:31:903,0,-4.84931,-3.92039,87.6082
2023-03-11 20:56:31:913,0,-4.84067,-3.90787,87.608
2023-03-11 20:56:31:923,0,-4.83551,-3.89642,87.6047
2023-03-11 20:56:31:933,0,-4.82631,-3.88873,87.6046
2023-03-11 20:56:31:943,0,-4.81946,-3.87752,87.6017
2023-03-11 20:56:31:953,0,-4.80957,-3.87164,87.5988
2023-03-11 20:56:31:963,0,-4.8002,-3.86966,87.5996
2023-03-11 20:56:31:973,0,-4.78897,-3.8659,87.5971
2023-03-11 20:56:31:983,0,-4.77321,-3.86751,87.5923
2023-03-11 20:56:31:993,0,-4.76518,-3.87372,87.5917
2023-03-11 20:56:32:3,0,-4.75663,-3.88205,87.5888
2023-03-11 20:56:32:13,0,-4.74742,-3.88608,87.5865
2023-03-11 20:56:32:23,0,-4.74051,-3.89337,87.5899
2023-03-11 20:56:32:33,0,-4.73565,-3.90663,87.5969
2023-03-11 20:56:32:43,0,-4.7304,-3.91796,87.6066
2023-03-11 20:56:32:53,0,-4.72716,-3.92497,87.6205
2023-03-11 20:56:32:63,0,-4.72478,-3.93512,87.6325
2023-03-11 20:56:32:73,0,-4.72083,-3.94824,87.646
2023-03-11 20:56:32:83,0,-4.71836,-3.95838,87.6623
2023-03-11 20:56:32:93,0,-4.7155,-3.96622,87.6772
2023-03-11 20:56:32:103,0,-4.71011,-3.97074,87.6954
2023-03-11 20:56:32:113,0,-4.70347,-3.97875,87.7126
2023-03-11 20:56:32:123,0,-4.69996,-3.98651,87.7299
2023-03-11 20:56:32:133,0,-4.70249,-3.99118,87.7423
2023-03-11 20:56:32:143,0,-4.71098,-3.99337,87.7483
2023-03-11 20:56:32:153,0,-4.71691,-3.99811,87.7545
2023-03-11 20:56:32:163,0,-4.72246,-4.00403,87.7579
2023-03-11 20:56:32:174,0,-4.72961,-4.0112,87.7576
2023-03-11 20:56:32:183,0,-4.73546,-4.01172,87.7564
2023-03-11 20:56:32:193,0,-4.74533,-4.01854,87.755
2023-03-11 20:56:32:203,0,-4.75048,-4.02316,87.7507
2023-03-11 20:56:32:213,0,-4.75599,-4.02661,87.7474
2023-03-11 20:56:32:223,0,-4.76599,-4.0334,87.7487
2023-03-11 20:56:32:233,0,-4.77181,-4.03824,87.7526
2023-03-11 20:56:32:243,0,-4.77834,-4.03991,87.7543
2023-03-11 20:56:32:253,0,-4.78091,-4.04146,87.76
2023-03-11 20:56:32:263,0,-4.78286,-4.04362,87.7667
2023-03-11 20:56:32:273,0,-4.78114,-4.04657,87.7768
2023-03-11 20:56:32:284,0,-4.77744,-4.04493,87.7856
2023-03-11 20:56:32:293,0,-4.77482,-4.04429,87.7945
2023-03-11 20:56:32:304,0,-4.769,-4.04545,87.7966
2023-03-11 20:56:32:313,0,-4.76122,-4.04603,87.7992
2023-03-11 20:56:32:323,0,-4.75474,-4.04209,87.7982
2023-03-11 20:56:32:333,0,-4.74976,-4.04153,87.7934
2023-03-11 20:56:32:343,0,-4.74832,-4.03826,87.7892
2023-03-11 20:56:32:353,0,-4.74402,-4.03814,87.7835
2023-03-11 20:56:32:363,0,-4.7394,-4.04215,87.7741
2023-03-11 20:56:32:373,0,-4.7328,-4.04935,87.768
2023-03-11 20:56:32:383,0,-4.72696,-4.06377,87.7647
2023-03-11 20:56:32:393,0,-4.7253,-4.07468,87.7674
2023-03-11 20:56:32:403,0,-4.73126,-4.08738,87.7736
2023-03-11 20:56:32:413,0,-4.73557,-4.09292,87.7817
2023-03-11 20:56:32:423,0,-4.74072,-4.10106,87.7954
2023-03-11 20:56:32:433,0,-4.74577,-4.10299,87.8112
2023-03-11 20:56:32:443,0,-4.74911,-4.10523,87.8276
2023-03-11 20:56:32:453,0,-4.7537,-4.10327,87.8399
2023-03-11 20:56:32:463,0,-4.75385,-4.10242,87.8504
2023-03-11 20:56:32:473,0,-4.75496,-4.09917,87.8551
2023-03-11 20:56:32:483,0,-4.75585,-4.09554,87.8558
2023-03-11 20:56:32:493,0,-4.75963,-4.09402,87.8539
2023-03-11 20:56:32:503,0,-4.76746,-4.08889,87.8461
2023-03-11 20:56:32:513,0,-4.77535,-4.08526,87.8369
2023-03-11 20:56:32:523,0,-4.78329,-4.07923,87.8236
2023-03-11 20:56:32:533,0,-4.79204,-4.07342,87.8086
2023-03-11 20:56:32:543,0,-4.80043,-4.06574,87.7934
2023-03-11 20:56:32:553,0,-4.81088,-4.05806,87.7826
2023-03-11 20:56:32:563,0,-4.81951,-4.04847,87.775
2023-03-11 20:56:32:573,0,-4.82784,-4.03803,87.7636
2023-03-11 20:56:32:583,0,-4.83334,-4.02383,87.7512
2023-03-11 20:56:32:593,0,-4.83719,-4.00902,87.7445
2023-03-11 20:56:32:603,0,-4.83606,-4.00047,87.7384
2023-03-11 20:56:32:613,0,-4.83112,-3.99555,87.735
2023-03-11 20:56:32:623,0,-4.82681,-3.98933,87.7359
2023-03-11 20:56:32:633,0,-4.8231,-3.98334,87.7327
2023-03-11 20:56:32:643,0,-4.81669,-3.98102,87.727
2023-03-11 20:56:32:653,0,-4.8123,-3.97579,87.7214
2023-03-11 20:56:32:663,0,-4.80385,-3.97065,87.7159
2023-03-11 20:56:32:673,0,-4.79376,-3.96851,87.7123
2023-03-11 20:56:32:683,0,-4.78851,-3.96904,87.7076
2023-03-11 20:56:32:693,0,-4.7815,-3.97057,87.7042
2023-03-11 20:56:32:703,0,-4.77533,-3.96732,87.7009
2023-03-11 20:56:32:713,0,-4.77304,-3.96748,87.6962
2023-03-11 20:56:32:723,0,-4.77015,-3.96523,87.6928
2023-03-11 20:56:32:733,0,-4.77159,-3.96527,87.6892
2023-03-11 20:56:32:743,0,-4.76808,-3.96954,87.689
2023-03-11 20:56:32:753,0,-4.76489,-3.97411,87.6915
2023-03-11 20:56:32:763,0,-4.76208,-3.97995,87.6959
2023-03-11 20:56:32:773,0,-4.75693,-3.9886,87.7002
2023-03-11 20:56:32:783,0,-4.74981,-3.99801,87.7042
2023-03-11 20:56:32:793,0,-4.74151,-4.00055,87.7116
2023-03-11 20:56:32:803,0,-4.73549,-4.00818,87.7215
2023-03-11 20:56:32:813,0,-4.72965,-4.01698,87.7323
2023-03-11 20:56:32:823,0,-4.72742,-4.02462,87.7466
2023-03-11 20:56:32:834,0,-4.72452,-4.03069,87.7579
2023-03-11 20:56:32:844,0,-4.72715,-4.03689,87.7701
2023-03-11 20:56:32:854,0,-4.72958,-4.0442,87.78
2023-03-11 20:56:32:863,0,-4.73275,-4.05015,87.7906
2023-03-11 20:56:32:873,0,-4.7353,-4.05279,87.7961
2023-03-11 20:56:32:883,0,-4.74183,-4.05586,87.7996
2023-03-11 20:56:32:893,0,-4.74816,-4.0575,87.8015
2023-03-11 20:56:32:903,0,-4.75716,-4.05751,87.802
