Timestamp_cmd,imu_cmd,roll_delta,pitch_delta,yaw_delta
2023-03-10 21:46:03:933,0,-7.37443,-8.13476,89.3215
2023-03-10 21:46:03:941,0,-7.36948,-8.13995,89.329
2023-03-10 21:46:03:951,0,-7.35338,-8.14749,89.3413
2023-03-10 21:46:03:961,0,-7.32476,-8.15672,89.3534
2023-03-10 21:46:03:972,0,-7.28603,-8.17607,89.3714
2023-03-10 21:46:03:982,0,-7.24232,-8.20104,89.3893
2023-03-10 21:46:03:992,0,-7.19322,-8.23372,89.4032
2023-03-10 21:46:04:2,0,-7.13388,-8.27359,89.4063
2023-03-10 21:46:04:12,0,-7.07456,-8.30916,89.3957
2023-03-10 21:46:04:21,0,-7.01465,-8.34674,89.3709
2023-03-10 21:46:04:32,0,-6.95241,-8.37702,89.3289
2023-03-10 21:46:04:42,0,-6.89544,-8.39764,89.2692
2023-03-10 21:46:04:52,0,-6.84158,-8.40172,89.2037
2023-03-10 21:46:04:62,0,-6.79285,-8.39899,89.1408
2023-03-10 21:46:04:72,0,-6.74056,-8.40049,89.0849
2023-03-10 21:46:04:82,0,-6.69077,-8.39839,89.0381
2023-03-10 21:46:04:92,0,-6.65284,-8.39043,89.0006
2023-03-10 21:46:04:102,0,-6.62853,-8.38274,88.9737
2023-03-10 21:46:04:112,0,-6.61767,-8.37581,88.963
2023-03-10 21:46:04:122,0,-6.61548,-8.3671,88.9618
2023-03-10 21:46:04:132,0,-6.61892,-8.35617,88.9687
2023-03-10 21:46:04:142,0,-6.61694,-8.33829,88.9665
2023-03-10 21:46:04:152,0,-6.60909,-8.31604,88.9607
2023-03-10 21:46:04:162,0,-6.59061,-8.29173,88.9437
2023-03-10 21:46:04:172,0,-6.56444,-8.2697,88.9153
2023-03-10 21:46:04:182,0,-6.53206,-8.25144,88.8788
2023-03-10 21:46:04:192,0,-6.49772,-8.24158,88.8327
2023-03-10 21:46:04:202,0,-6.4636,-8.23597,88.7846
2023-03-10 21:46:04:212,0,-6.42409,-8.23598,88.7324
2023-03-10 21:46:04:222,0,-6.38351,-8.24252,88.6789
2023-03-10 21:46:04:232,0,-6.34805,-8.25107,88.6245
2023-03-10 21:46:04:242,0,-6.31671,-8.26094,88.5669
2023-03-10 21:46:04:252,0,-6.28832,-8.26548,88.5136
2023-03-10 21:46:04:262,0,-6.26084,-8.26654,88.4575
2023-03-10 21:46:04:272,0,-6.23305,-8.26185,88.4018
2023-03-10 21:46:04:281,0,-6.20269,-8.25591,88.3482
2023-03-10 21:46:04:291,0,-6.17708,-8.24883,88.2913
2023-03-10 21:46:04:301,0,-6.15563,-8.23841,88.2353
2023-03-10 21:46:04:311,0,-6.13926,-8.22539,88.1798
2023-03-10 21:46:04:321,0,-6.1268,-8.21395,88.1221
2023-03-10 21:46:04:331,0,-6.12065,-8.2006,88.0672
2023-03-10 21:46:04:341,0,-6.11911,-8.19019,88.011
2023-03-10 21:46:04:351,0,-6.12874,-8.17893,87.9565
2023-03-10 21:46:04:362,0,-6.14401,-8.1669,87.902
2023-03-10 21:46:04:372,0,-6.15433,-8.1544,87.8463
2023-03-10 21:46:04:381,0,-6.1658,-8.14761,87.7897
2023-03-10 21:46:04:392,0,-6.17806,-8.14472,87.7277
2023-03-10 21:46:04:402,0,-6.19375,-8.14559,87.6706
2023-03-10 21:46:04:412,0,-6.21584,-8.15079,87.6081
2023-03-10 21:46:04:422,0,-6.23799,-8.15948,87.5455
2023-03-10 21:46:04:432,0,-6.2674,-8.17756,87.4812
2023-03-10 21:46:04:442,0,-6.29323,-8.20184,87.4226
2023-03-10 21:46:04:452,0,-6.32084,-8.23227,87.3647
2023-03-10 21:46:04:462,0,-6.35237,-8.26719,87.3116
2023-03-10 21:46:04:472,0,-6.38257,-8.30244,87.2695
2023-03-10 21:46:04:482,0,-6.40893,-8.3413,87.2325
2023-03-10 21:46:04:492,0,-6.42749,-8.38179,87.1996
2023-03-10 21:46:04:502,0,-6.4426,-8.41927,87.17
2023-03-10 21:46:04:512,0,-6.44575,-8.45274,87.1434
2023-03-10 21:46:04:522,0,-6.43525,-8.47698,87.1185
2023-03-10 21:46:04:532,0,-6.41263,-8.49075,87.0959
2023-03-10 21:46:04:542,0,-6.38659,-8.49901,87.0725
2023-03-10 21:46:04:551,0,-6.3647,-8.50026,87.0534
2023-03-10 21:46:04:562,0,-6.34509,-8.49723,87.0415
2023-03-10 21:46:04:572,0,-6.33472,-8.49282,87.0327
2023-03-10 21:46:04:582,0,-6.33426,-8.49253,87.0338
2023-03-10 21:46:04:592,0,-6.33867,-8.48914,87.0413
2023-03-10 21:46:04:602,0,-6.34344,-8.48753,87.051
2023-03-10 21:46:04:612,0,-6.35022,-8.48551,87.066
2023-03-10 21:46:04:622,0,-6.35816,-8.48624,87.0775
2023-03-10 21:46:04:632,0,-6.36636,-8.4888,87.087
2023-03-10 21:46:04:642,0,-6.37111,-8.49487,87.0945
2023-03-10 21:46:04:652,0,-6.38067,-8.50569,87.0982
2023-03-10 21:46:04:662,0,-6.38961,-8.51832,87.1046
2023-03-10 21:46:04:672,0,-6.40013,-8.53167,87.107
2023-03-10 21:46:04:682,0,-6.41411,-8.54926,87.1103
2023-03-10 21:46:04:692,0,-6.42745,-8.56229,87.1124
2023-03-10 21:46:04:702,0,-6.44097,-8.57105,87.1104
2023-03-10 21:46:04:712,0,-6.45617,-8.57801,87.1172
2023-03-10 21:46:04:722,0,-6.47152,-8.58428,87.1237
2023-03-10 21:46:04:732,0,-6.48445,-8.58759,87.1358
2023-03-10 21:46:04:742,0,-6.49692,-8.59479,87.1496
2023-03-10 21:46:04:752,0,-6.51006,-8.60012,87.1686
2023-03-10 21:46:04:762,0,-6.52093,-8.61258,87.1942
2023-03-10 21:46:04:772,0,-6.52714,-8.62261,87.2196
2023-03-10 21:46:04:782,0,-6.52239,-8.62572,87.2442
2023-03-10 21:46:04:792,0,-6.52118,-8.62907,87.268
2023-03-10 21:46:04:802,0,-6.51687,-8.62823,87.2865
2023-03-10 21:46:04:812,0,-6.50906,-8.62725,87.2981
2023-03-10 21:46:04:821,0,-6.49607,-8.62059,87.3024
2023-03-10 21:46:04:831,0,-6.48902,-8.61383,87.3008
2023-03-10 21:46:04:841,0,-6.47561,-8.60729,87.2989
2023-03-10 21:46:04:851,0,-6.46131,-8.60637,87.2985
2023-03-10 21:46:04:861,0,-6.45067,-8.60055,87.2961
2023-03-10 21:46:04:871,0,-6.44463,-8.58981,87.2894
2023-03-10 21:46:04:881,0,-6.43766,-8.57107,87.2787
2023-03-10 21:46:04:891,0,-6.42773,-8.55383,87.267
2023-03-10 21:46:04:901,0,-6.41873,-8.54298,87.2541
2023-03-10 21:46:04:911,0,-6.41088,-8.53517,87.2484
2023-03-10 21:46:04:921,0,-6.40885,-8.53138,87.2495
2023-03-10 21:46:04:932,0,-6.41251,-8.52381,87.2537
2023-03-10 21:46:04:942,0,-6.41398,-8.51427,87.2605
2023-03-10 21:46:04:952,0,-6.41312,-8.4987,87.2657
2023-03-10 21:46:04:962,0,-6.41391,-8.47968,87.2723
2023-03-10 21:46:04:972,0,-6.41222,-8.45893,87.2866
2023-03-10 21:46:04:982,0,-6.41524,-8.43859,87.3029
2023-03-10 21:46:04:992,0,-6.42046,-8.42219,87.3256
2023-03-10 21:46:05:2,0,-6.4282,-8.41318,87.3563
2023-03-10 21:46:05:12,0,-6.43609,-8.40545,87.3898
2023-03-10 21:46:05:22,0,-6.44751,-8.39969,87.4221
2023-03-10 21:46:05:32,0,-6.45497,-8.39769,87.4513
2023-03-10 21:46:05:42,0,-6.46093,-8.39371,87.4731
2023-03-10 21:46:05:51,0,-6.46543,-8.3865,87.4893
2023-03-10 21:46:05:61,0,-6.46502,-8.3808,87.4985
2023-03-10 21:46:05:72,0,-6.46767,-8.37572,87.501
2023-03-10 21:46:05:82,0,-6.47401,-8.36797,87.5005
2023-03-10 21:46:05:91,0,-6.48743,-8.36645,87.5021
2023-03-10 21:46:05:101,0,-6.5003,-8.36913,87.5063
2023-03-10 21:46:05:112,0,-6.5135,-8.37007,87.5111
2023-03-10 21:46:05:122,0,-6.52133,-8.3721,87.5189
2023-03-10 21:46:05:132,0,-6.52517,-8.3741,87.5216
2023-03-10 21:46:05:142,0,-6.52224,-8.37016,87.5231
2023-03-10 21:46:05:152,0,-6.51526,-8.36622,87.5196
2023-03-10 21:46:05:162,0,-6.50704,-8.35754,87.5124
2023-03-10 21:46:05:172,0,-6.50127,-8.34991,87.5017
2023-03-10 21:46:05:182,0,-6.49988,-8.33785,87.4869
2023-03-10 21:46:05:192,0,-6.50279,-8.32727,87.4761
2023-03-10 21:46:05:202,0,-6.51244,-8.31584,87.4682
2023-03-10 21:46:05:215,0,-6.52602,-8.30477,87.4651
2023-03-10 21:46:05:222,0,-6.53966,-8.29225,87.4648
2023-03-10 21:46:05:232,0,-6.55636,-8.2798,87.4696
2023-03-10 21:46:05:242,0,-6.57634,-8.27275,87.477
2023-03-10 21:46:05:252,0,-6.60346,-8.27195,87.4898
2023-03-10 21:46:05:262,0,-6.63976,-8.2787,87.5142
2023-03-10 21:46:05:272,0,-6.68054,-8.29456,87.5475
2023-03-10 21:46:05:282,0,-6.72459,-8.31609,87.5815
2023-03-10 21:46:05:292,0,-6.76403,-8.33456,87.6135
2023-03-10 21:46:05:302,0,-6.80334,-8.36175,87.6519
2023-03-10 21:46:05:312,0,-6.8361,-8.3941,87.6874
2023-03-10 21:46:05:322,0,-6.86866,-8.4383,87.7231
2023-03-10 21:46:05:332,0,-6.90398,-8.48665,87.7608
2023-03-10 21:46:05:342,0,-6.93205,-8.53426,87.7911
2023-03-10 21:46:05:352,0,-6.96021,-8.58008,87.8156
2023-03-10 21:46:05:362,0,-6.98328,-8.62684,87.8378
2023-03-10 21:46:05:372,0,-7.01022,-8.66975,87.8565
2023-03-10 21:46:05:382,0,-7.0396,-8.70641,87.883
2023-03-10 21:46:05:392,0,-7.07301,-8.73675,87.9084
2023-03-10 21:46:05:402,0,-7.10325,-8.76284,87.9407
2023-03-10 21:46:05:412,0,-7.12859,-8.7836,87.9674
2023-03-10 21:46:05:422,0,-7.15445,-8.80263,87.9921
2023-03-10 21:46:05:432,0,-7.17783,-8.82376,88.015
2023-03-10 21:46:05:442,0,-7.19789,-8.84504,88.0331
2023-03-10 21:46:05:452,0,-7.21291,-8.86909,88.0475
2023-03-10 21:46:05:462,0,-7.23018,-8.88999,88.0563
2023-03-10 21:46:05:472,0,-7.24401,-8.90818,88.058
2023-03-10 21:46:05:482,0,-7.24725,-8.92379,88.0504
2023-03-10 21:46:05:492,0,-7.24613,-8.93612,88.0354
2023-03-10 21:46:05:502,0,-7.2451,-8.94844,88.0173
2023-03-10 21:46:05:512,0,-7.24528,-8.95914,88.0027
2023-03-10 21:46:05:522,0,-7.24482,-8.9662,87.9878
2023-03-10 21:46:05:532,0,-7.25001,-8.97174,87.9749
2023-03-10 21:46:05:542,0,-7.25928,-8.97582,87.9685
2023-03-10 21:46:05:552,0,-7.26752,-8.97933,87.9689
2023-03-10 21:46:05:562,0,-7.27371,-8.97838,87.9766
2023-03-10 21:46:05:572,0,-7.27605,-8.98265,87.9932
2023-03-10 21:46:05:582,0,-7.26958,-8.98205,88.0096
2023-03-10 21:46:05:592,0,-7.25908,-8.98227,88.0312
2023-03-10 21:46:05:602,0,-7.24401,-8.98249,88.0568
2023-03-10 21:46:05:612,0,-7.22711,-8.97909,88.074
2023-03-10 21:46:05:622,0,-7.21586,-8.97325,88.0855
2023-03-10 21:46:05:632,0,-7.20974,-8.96514,88.0936
2023-03-10 21:46:05:642,0,-7.20879,-8.9534,88.0957
2023-03-10 21:46:05:652,0,-7.21232,-8.93404,88.0914
2023-03-10 21:46:05:662,0,-7.21657,-8.91921,88.0887
2023-03-10 21:46:05:672,0,-7.22804,-8.9111,88.0913
2023-03-10 21:46:05:682,0,-7.24081,-8.89788,88.0945
2023-03-10 21:46:05:692,0,-7.25682,-8.88229,88.1034
2023-03-10 21:46:05:702,0,-7.27547,-8.87151,88.116
2023-03-10 21:46:05:712,0,-7.29119,-8.86243,88.1266
2023-03-10 21:46:05:722,0,-7.30695,-8.84969,88.1361
2023-03-10 21:46:05:732,0,-7.31521,-8.84135,88.1422
2023-03-10 21:46:05:742,0,-7.32731,-8.83728,88.1511
2023-03-10 21:46:05:752,0,-7.3338,-8.83827,88.1539
2023-03-10 21:46:05:762,0,-7.32998,-8.84597,88.1506
2023-03-10 21:46:05:772,0,-7.32172,-8.85554,88.1489
2023-03-10 21:46:05:782,0,-7.30701,-8.8654,88.1407
2023-03-10 21:46:05:792,0,-7.29312,-8.87144,88.1349
2023-03-10 21:46:05:802,0,-7.2765,-8.88026,88.1279
2023-03-10 21:46:05:812,0,-7.25905,-8.88965,88.1208
2023-03-10 21:46:05:822,0,-7.23401,-8.8995,88.1141
2023-03-10 21:46:05:832,0,-7.20767,-8.90552,88.1091
2023-03-10 21:46:05:842,0,-7.18153,-8.91113,88.1074
2023-03-10 21:46:05:852,0,-7.1566,-8.92061,88.1095
2023-03-10 21:46:05:862,0,-7.13188,-8.93024,88.1155
2023-03-10 21:46:05:872,0,-7.11193,-8.93976,88.1249
2023-03-10 21:46:05:882,0,-7.08954,-8.95003,88.1327
2023-03-10 21:46:05:892,0,-7.06678,-8.9613,88.1444
2023-03-10 21:46:05:902,0,-7.04383,-8.97056,88.1577
2023-03-10 21:46:05:912,0,-7.02258,-8.98831,88.1718
2023-03-10 21:46:05:922,0,-7.00103,-9.00144,88.1866
2023-03-10 21:46:05:932,0,-6.97727,-9.01312,88.1961
2023-03-10 21:46:05:942,0,-6.953,-9.02769,88.2049
2023-03-10 21:46:05:952,0,-6.92287,-9.03999,88.2071
2023-03-10 21:46:05:962,0,-6.89313,-9.052,88.2067
2023-03-10 21:46:05:972,0,-6.86252,-9.06177,88.2074
2023-03-10 21:46:05:982,0,-6.83413,-9.07319,88.2069
2023-03-10 21:46:05:992,0,-6.80747,-9.08131,88.2009
2023-03-10 21:46:06:2,0,-6.78279,-9.08817,88.1989
2023-03-10 21:46:06:12,0,-6.75896,-9.09416,88.1917
2023-03-10 21:46:06:22,0,-6.73814,-9.10061,88.1848
2023-03-10 21:46:06:32,0,-6.72124,-9.10045,88.1776
2023-03-10 21:46:06:42,0,-6.70724,-9.09676,88.165
2023-03-10 21:46:06:52,0,-6.69867,-9.08887,88.154
2023-03-10 21:46:06:62,0,-6.69463,-9.08959,88.1418
2023-03-10 21:46:06:72,0,-6.69054,-9.08741,88.1273
2023-03-10 21:46:06:82,0,-6.68998,-9.08397,88.1137
2023-03-10 21:46:06:92,0,-6.68954,-9.08536,88.0981
2023-03-10 21:46:06:102,0,-6.69209,-9.0846,88.0825
2023-03-10 21:46:06:112,0,-6.69725,-9.08595,88.0667
2023-03-10 21:46:06:122,0,-6.7028,-9.08892,88.0525
2023-03-10 21:46:06:132,0,-6.70583,-9.09596,88.0451
2023-03-10 21:46:06:142,0,-6.70485,-9.10196,88.0411
2023-03-10 21:46:06:152,0,-6.70389,-9.11129,88.0401
2023-03-10 21:46:06:162,0,-6.70208,-9.11897,88.0413
2023-03-10 21:46:06:172,0,-6.70013,-9.13229,88.0443
2023-03-10 21:46:06:182,0,-6.69627,-9.14345,88.0499
2023-03-10 21:46:06:191,0,-6.69152,-9.15439,88.0548
2023-03-10 21:46:06:201,0,-6.68205,-9.16963,88.058
2023-03-10 21:46:06:211,0,-6.67058,-9.18297,88.0551
2023-03-10 21:46:06:221,0,-6.65511,-9.1938,88.0479
2023-03-10 21:46:06:231,0,-6.63565,-9.21064,88.0364
2023-03-10 21:46:06:241,0,-6.61466,-9.22948,88.0237
2023-03-10 21:46:06:251,0,-6.58987,-9.25011,88.005
2023-03-10 21:46:06:261,0,-6.56606,-9.27073,87.9809
2023-03-10 21:46:06:271,0,-6.53822,-9.29192,87.9478
2023-03-10 21:46:06:281,0,-6.50388,-9.31619,87.9123
2023-03-10 21:46:06:291,0,-6.46481,-9.35059,87.8778
2023-03-10 21:46:06:301,0,-6.42227,-9.38336,87.8422
2023-03-10 21:46:06:311,0,-6.37623,-9.41491,87.8015
2023-03-10 21:46:06:321,0,-6.3292,-9.43988,87.7581
2023-03-10 21:46:06:331,0,-6.28246,-9.46003,87.7133
2023-03-10 21:46:06:341,0,-6.24006,-9.47397,87.6686
2023-03-10 21:46:06:351,0,-6.20713,-9.48261,87.6231
2023-03-10 21:46:06:361,0,-6.17942,-9.49179,87.5782
2023-03-10 21:46:06:371,0,-6.14785,-9.50142,87.5363
2023-03-10 21:46:06:381,0,-6.12107,-9.51595,87.496
2023-03-10 21:46:06:391,0,-6.1005,-9.5372,87.4641
2023-03-10 21:46:06:401,0,-6.08303,-9.55999,87.4388
2023-03-10 21:46:06:411,0,-6.06984,-9.58067,87.417
2023-03-10 21:46:06:421,0,-6.05467,-9.59939,87.3986
2023-03-10 21:46:06:431,0,-6.04541,-9.62128,87.3846
2023-03-10 21:46:06:441,0,-6.03372,-9.64674,87.3714
2023-03-10 21:46:06:451,0,-6.0227,-9.66645,87.3616
2023-03-10 21:46:06:461,0,-6.00843,-9.68528,87.3534
2023-03-10 21:46:06:471,0,-5.98998,-9.70152,87.343
2023-03-10 21:46:06:481,0,-5.96664,-9.71704,87.3273
2023-03-10 21:46:06:491,0,-5.93732,-9.72703,87.3107
2023-03-10 21:46:06:501,0,-5.90086,-9.73373,87.2933
2023-03-10 21:46:06:511,0,-5.85577,-9.73529,87.266
2023-03-10 21:46:06:521,0,-5.80783,-9.72236,87.2387
2023-03-10 21:46:06:531,0,-5.76353,-9.69837,87.212
2023-03-10 21:46:06:541,0,-5.71987,-9.66036,87.1801
2023-03-10 21:46:06:551,0,-5.68082,-9.62058,87.1562
2023-03-10 21:46:06:561,0,-5.65204,-9.58939,87.1348
2023-03-10 21:46:06:571,0,-5.62929,-9.56243,87.1189
2023-03-10 21:46:06:581,0,-5.61324,-9.53485,87.1129
2023-03-10 21:46:06:591,0,-5.59398,-9.50721,87.1162
2023-03-10 21:46:06:601,0,-5.56532,-9.47708,87.1163
2023-03-10 21:46:06:611,0,-5.5229,-9.43726,87.1105
2023-03-10 21:46:06:621,0,-5.46546,-9.39121,87.0957
2023-03-10 21:46:06:631,0,-5.3984,-9.35197,87.0708
2023-03-10 21:46:06:641,0,-5.33023,-9.32715,87.0485
2023-03-10 21:46:06:651,0,-5.26143,-9.31217,87.0212
2023-03-10 21:46:06:661,0,-5.19378,-9.31376,87.0005
2023-03-10 21:46:06:671,0,-5.11657,-9.31872,86.9852
2023-03-10 21:46:06:681,0,-5.02736,-9.319,86.9723
2023-03-10 21:46:06:691,0,-4.92356,-9.31585,86.9612
2023-03-10 21:46:06:701,0,-4.81398,-9.30768,86.9509
2023-03-10 21:46:06:711,0,-4.70518,-9.30261,86.9366
2023-03-10 21:46:06:721,0,-4.60623,-9.29233,86.9218
2023-03-10 21:46:06:731,0,-4.5181,-9.28234,86.902
2023-03-10 21:46:06:741,0,-4.44419,-9.27795,86.8788
2023-03-10 21:46:06:752,0,-4.37987,-9.277,86.8513
2023-03-10 21:46:06:761,0,-4.31665,-9.27978,86.8208
2023-03-10 21:46:06:772,0,-4.25779,-9.28587,86.7865
2023-03-10 21:46:06:781,0,-4.19728,-9.29751,86.7461
2023-03-10 21:46:06:792,0,-4.13902,-9.30719,86.7013
2023-03-10 21:46:06:802,0,-4.09004,-9.31429,86.6593
2023-03-10 21:46:06:812,0,-4.05184,-9.32131,86.6112
2023-03-10 21:46:06:822,0,-4.02076,-9.32378,86.5684
2023-03-10 21:46:06:832,0,-3.99909,-9.32372,86.5272
2023-03-10 21:46:06:842,0,-3.98699,-9.31899,86.484
2023-03-10 21:46:06:852,0,-3.98182,-9.30967,86.4432
2023-03-10 21:46:06:862,0,-3.97802,-9.30513,86.404
2023-03-10 21:46:06:872,0,-3.97632,-9.29354,86.3632
2023-03-10 21:46:06:882,0,-3.96915,-9.27745,86.3158
2023-03-10 21:46:06:892,0,-3.96498,-9.26235,86.2701
2023-03-10 21:46:06:902,0,-3.96413,-9.24897,86.224
2023-03-10 21:46:06:912,0,-3.96939,-9.23658,86.1782
2023-03-10 21:46:06:922,0,-3.97413,-9.22598,86.1343
2023-03-10 21:46:06:932,0,-3.98123,-9.22314,86.0964
2023-03-10 21:46:06:942,0,-3.98249,-9.22981,86.0644
2023-03-10 21:46:06:952,0,-3.98605,-9.24605,86.0451
2023-03-10 21:46:06:962,0,-3.99054,-9.27374,86.0347
2023-03-10 21:46:06:972,0,-3.99008,-9.31826,86.0439
2023-03-10 21:46:06:982,0,-3.9879,-9.3636,86.0722
2023-03-10 21:46:06:992,0,-3.97881,-9.41074,86.1096
2023-03-10 21:46:07:2,0,-3.96446,-9.44685,86.1586
2023-03-10 21:46:07:12,0,-3.95201,-9.45606,86.219
2023-03-10 21:46:07:22,0,-3.94057,-9.44603,86.2792
2023-03-10 21:46:07:32,0,-3.92987,-9.42519,86.3323
2023-03-10 21:46:07:42,0,-3.92095,-9.39877,86.3725
2023-03-10 21:46:07:52,0,-3.90994,-9.37149,86.4022
2023-03-10 21:46:07:62,0,-3.90031,-9.34478,86.426
2023-03-10 21:46:07:72,0,-3.88343,-9.314,86.4388
2023-03-10 21:46:07:82,0,-3.85593,-9.28758,86.4322
2023-03-10 21:46:07:92,0,-3.82523,-9.26369,86.4093
2023-03-10 21:46:07:102,0,-3.7955,-9.253,86.3673
2023-03-10 21:46:07:112,0,-3.76868,-9.25012,86.3097
2023-03-10 21:46:07:122,0,-3.74944,-9.26144,86.2444
2023-03-10 21:46:07:132,0,-3.72476,-9.27766,86.1669
2023-03-10 21:46:07:142,0,-3.69647,-9.29978,86.086
2023-03-10 21:46:07:152,0,-3.67118,-9.32282,86.0059
2023-03-10 21:46:07:162,0,-3.63549,-9.34821,85.9285
2023-03-10 21:46:07:172,0,-3.6088,-9.38069,85.8596
2023-03-10 21:46:07:182,0,-3.58656,-9.42421,85.7991
2023-03-10 21:46:07:192,0,-3.57102,-9.47618,85.7467
2023-03-10 21:46:07:202,0,-3.56062,-9.53092,85.7039
2023-03-10 21:46:07:212,0,-3.55032,-9.582,85.674
2023-03-10 21:46:07:222,0,-3.53342,-9.63015,85.6486
2023-03-10 21:46:07:232,0,-3.49727,-9.65992,85.6266
2023-03-10 21:46:07:242,0,-3.45067,-9.68037,85.609
2023-03-10 21:46:07:252,0,-3.40282,-9.69257,85.6024
2023-03-10 21:46:07:262,0,-3.36068,-9.702,85.6064
2023-03-10 21:46:07:272,0,-3.32951,-9.70442,85.6137
2023-03-10 21:46:07:282,0,-3.31245,-9.70063,85.6322
2023-03-10 21:46:07:292,0,-3.30772,-9.69579,85.658
2023-03-10 21:46:07:302,0,-3.30959,-9.68791,85.69
2023-03-10 21:46:07:312,0,-3.31336,-9.67917,85.725
2023-03-10 21:46:07:322,0,-3.3246,-9.66593,85.7629
2023-03-10 21:46:07:332,0,-3.337,-9.64913,85.8051
2023-03-10 21:46:07:342,0,-3.35284,-9.62913,85.8477
2023-03-10 21:46:07:351,0,-3.36678,-9.60351,85.8914
2023-03-10 21:46:07:361,0,-3.37581,-9.58095,85.9322
2023-03-10 21:46:07:371,0,-3.39162,-9.55078,85.9701
2023-03-10 21:46:07:381,0,-3.40706,-9.52049,85.9976
2023-03-10 21:46:07:392,0,-3.4175,-9.48777,86.0148
2023-03-10 21:46:07:402,0,-3.42639,-9.45758,86.0245
2023-03-10 21:46:07:412,0,-3.42982,-9.42918,86.0314
2023-03-10 21:46:07:422,0,-3.43411,-9.40727,86.0359
2023-03-10 21:46:07:432,0,-3.43945,-9.39098,86.036
2023-03-10 21:46:07:442,0,-3.44802,-9.37576,86.0376
2023-03-10 21:46:07:452,0,-3.45286,-9.36551,86.0362
2023-03-10 21:46:07:462,0,-3.45216,-9.35747,86.0369
2023-03-10 21:46:07:472,0,-3.44737,-9.3485,86.0387
2023-03-10 21:46:07:482,0,-3.43734,-9.34321,86.0404
2023-03-10 21:46:07:492,0,-3.42717,-9.3422,86.0434
2023-03-10 21:46:07:502,0,-3.41342,-9.34438,86.0498
2023-03-10 21:46:07:512,0,-3.39576,-9.3489,86.0552
2023-03-10 21:46:07:522,0,-3.38453,-9.35449,86.0569
2023-03-10 21:46:07:532,0,-3.37849,-9.35845,86.0583
2023-03-10 21:46:07:542,0,-3.37731,-9.3613,86.0619
2023-03-10 21:46:07:552,0,-3.37494,-9.36678,86.0648
2023-03-10 21:46:07:562,0,-3.37225,-9.37485,86.0661
2023-03-10 21:46:07:572,0,-3.36341,-9.38258,86.0693
2023-03-10 21:46:07:582,0,-3.35402,-9.39222,86.0738
2023-03-10 21:46:07:592,0,-3.34021,-9.40095,86.0759
2023-03-10 21:46:07:602,0,-3.32803,-9.40872,86.0765
2023-03-10 21:46:07:612,0,-3.31809,-9.41486,86.0811
2023-03-10 21:46:07:622,0,-3.3084,-9.41915,86.0846
2023-03-10 21:46:07:632,0,-3.3055,-9.42353,86.0865
2023-03-10 21:46:07:642,0,-3.30421,-9.42515,86.0912
2023-03-10 21:46:07:652,0,-3.30687,-9.42702,86.0956
2023-03-10 21:46:07:662,0,-3.31069,-9.42083,86.0957
2023-03-10 21:46:07:672,0,-3.31573,-9.4178,86.0942
2023-03-10 21:46:07:682,0,-3.31873,-9.41349,86.0913
2023-03-10 21:46:07:692,0,-3.32284,-9.41425,86.0866
2023-03-10 21:46:07:702,0,-3.32231,-9.41599,86.0785
2023-03-10 21:46:07:712,0,-3.31908,-9.41733,86.0697
2023-03-10 21:46:07:722,0,-3.30761,-9.41859,86.0606
2023-03-10 21:46:07:732,0,-3.29722,-9.41818,86.0515
2023-03-10 21:46:07:742,0,-3.28859,-9.41185,86.0435
2023-03-10 21:46:07:752,0,-3.28339,-9.39997,86.0384
2023-03-10 21:46:07:762,0,-3.2776,-9.38672,86.0301
2023-03-10 21:46:07:772,0,-3.2672,-9.37927,86.0187
2023-03-10 21:46:07:782,0,-3.2602,-9.37781,86.0066
2023-03-10 21:46:07:792,0,-3.25317,-9.36563,85.9961
2023-03-10 21:46:07:802,0,-3.24307,-9.34787,85.9872
2023-03-10 21:46:07:812,0,-3.22414,-9.33208,85.9754
2023-03-10 21:46:07:822,0,-3.20785,-9.32758,85.9604
2023-03-10 21:46:07:832,0,-3.20506,-9.32829,85.9528
2023-03-10 21:46:07:842,0,-3.21379,-9.33406,85.9545
2023-03-10 21:46:07:852,0,-3.22617,-9.34526,85.9557
2023-03-10 21:46:07:862,0,-3.24311,-9.35248,85.9611
2023-03-10 21:46:07:872,0,-3.26139,-9.36141,85.9712
2023-03-10 21:46:07:882,0,-3.28003,-9.36615,85.9805
2023-03-10 21:46:07:892,0,-3.30295,-9.36932,85.9896
2023-03-10 21:46:07:902,0,-3.32188,-9.36677,85.9978
2023-03-10 21:46:07:912,0,-3.34189,-9.36087,86.0073
2023-03-10 21:46:07:922,0,-3.36059,-9.35101,86.0192
2023-03-10 21:46:07:932,0,-3.37881,-9.34281,86.03
2023-03-10 21:46:07:942,0,-3.39854,-9.33409,86.0428
2023-03-10 21:46:07:952,0,-3.41656,-9.32839,86.0597
2023-03-10 21:46:07:962,0,-3.42812,-9.32255,86.0743
2023-03-10 21:46:07:972,0,-3.43648,-9.31881,86.0921
2023-03-10 21:46:07:982,0,-3.43975,-9.32377,86.1087
2023-03-10 21:46:07:992,0,-3.43914,-9.32424,86.1212
2023-03-10 21:46:08:2,0,-3.44115,-9.32585,86.1308
2023-03-10 21:46:08:12,0,-3.43846,-9.32222,86.1338
2023-03-10 21:46:08:22,0,-3.42997,-9.32281,86.135
2023-03-10 21:46:08:32,0,-3.41547,-9.32717,86.1393
2023-03-10 21:46:08:42,0,-3.40164,-9.33469,86.1469
2023-03-10 21:46:08:52,0,-3.38922,-9.34286,86.1574
2023-03-10 21:46:08:62,0,-3.37467,-9.35268,86.1705
2023-03-10 21:46:08:72,0,-3.35765,-9.36113,86.1816
2023-03-10 21:46:08:82,0,-3.3431,-9.36753,86.1918
2023-03-10 21:46:08:92,0,-3.3264,-9.36906,86.2038
2023-03-10 21:46:08:102,0,-3.31243,-9.36981,86.2169
2023-03-10 21:46:08:112,0,-3.30074,-9.37548,86.2327
2023-03-10 21:46:08:122,0,-3.28711,-9.38049,86.2487
2023-03-10 21:46:08:132,0,-3.2725,-9.3867,86.2619
2023-03-10 21:46:08:142,0,-3.24481,-9.39125,86.2765
2023-03-10 21:46:08:152,0,-3.21707,-9.3938,86.2858
2023-03-10 21:46:08:162,0,-3.19457,-9.39536,86.2949
2023-03-10 21:46:08:172,0,-3.17338,-9.38979,86.3005
2023-03-10 21:46:08:182,0,-3.15618,-9.38152,86.3008
2023-03-10 21:46:08:192,0,-3.14236,-9.36812,86.2948
2023-03-10 21:46:08:202,0,-3.12914,-9.35585,86.2901
2023-03-10 21:46:08:212,0,-3.11624,-9.34229,86.2826
2023-03-10 21:46:08:222,0,-3.1054,-9.33047,86.281
2023-03-10 21:46:08:232,0,-3.09859,-9.31781,86.2765
2023-03-10 21:46:08:242,0,-3.09522,-9.3073,86.2694
2023-03-10 21:46:08:252,0,-3.09341,-9.29904,86.2649
2023-03-10 21:46:08:262,0,-3.0929,-9.2951,86.2614
2023-03-10 21:46:08:272,0,-3.09197,-9.28681,86.2592
2023-03-10 21:46:08:282,0,-3.09458,-9.28522,86.2531
2023-03-10 21:46:08:292,0,-3.1002,-9.29016,86.2548
2023-03-10 21:46:08:302,0,-3.10697,-9.29754,86.2608
2023-03-10 21:46:08:312,0,-3.1186,-9.30378,86.2727
2023-03-10 21:46:08:322,0,-3.1443,-9.31184,86.2865
2023-03-10 21:46:08:332,0,-3.17038,-9.31931,86.2978
2023-03-10 21:46:08:342,0,-3.19498,-9.322,86.3111
2023-03-10 21:46:08:352,0,-3.22164,-9.32349,86.3222
2023-03-10 21:46:08:362,0,-3.24448,-9.32141,86.3337
2023-03-10 21:46:08:372,0,-3.26157,-9.31944,86.3416
2023-03-10 21:46:08:382,0,-3.27699,-9.31663,86.3501
2023-03-10 21:46:08:392,0,-3.29775,-9.31219,86.3616
2023-03-10 21:46:08:402,0,-3.32748,-9.31274,86.3708
2023-03-10 21:46:08:412,0,-3.35739,-9.31351,86.3826
2023-03-10 21:46:08:422,0,-3.39956,-9.32073,86.3986
2023-03-10 21:46:08:432,0,-3.42658,-9.32359,86.4123
2023-03-10 21:46:08:442,0,-3.43519,-9.32772,86.4201
2023-03-10 21:46:08:452,0,-3.44173,-9.32846,86.4237
2023-03-10 21:46:08:462,0,-3.45453,-9.32431,86.4285
2023-03-10 21:46:08:472,0,-3.46962,-9.32364,86.4352
2023-03-10 21:46:08:482,0,-3.48215,-9.32734,86.4363
2023-03-10 21:46:08:492,0,-3.48658,-9.32762,86.4402
2023-03-10 21:46:08:502,0,-3.48825,-9.33322,86.4398
2023-03-10 21:46:08:512,0,-3.49006,-9.3358,86.4392
2023-03-10 21:46:08:522,0,-3.49581,-9.34154,86.4377
2023-03-10 21:46:08:532,0,-3.50034,-9.34821,86.4441
2023-03-10 21:46:08:542,0,-3.50422,-9.35519,86.4475
2023-03-10 21:46:08:552,0,-3.50626,-9.35972,86.4518
2023-03-10 21:46:08:562,0,-3.5068,-9.36961,86.4515
2023-03-10 21:46:08:572,0,-3.50975,-9.37577,86.4512
2023-03-10 21:46:08:582,0,-3.51073,-9.38568,86.4553
2023-03-10 21:46:08:592,0,-3.51504,-9.39646,86.4598
2023-03-10 21:46:08:602,0,-3.51679,-9.40481,86.4641
2023-03-10 21:46:08:612,0,-3.52091,-9.41475,86.4661
2023-03-10 21:46:08:622,0,-3.53061,-9.424,86.468
2023-03-10 21:46:08:632,0,-3.5396,-9.43255,86.4748
2023-03-10 21:46:08:642,0,-3.54451,-9.43743,86.4813
2023-03-10 21:46:08:652,0,-3.55076,-9.44454,86.4895
2023-03-10 21:46:08:662,0,-3.55468,-9.45442,86.4972
2023-03-10 21:46:08:672,0,-3.55829,-9.46322,86.5005
2023-03-10 21:46:08:682,0,-3.55989,-9.47368,86.4957
2023-03-10 21:46:08:692,0,-3.56852,-9.48822,86.4933
2023-03-10 21:46:08:702,0,-3.57649,-9.50599,86.4881
2023-03-10 21:46:08:712,0,-3.58639,-9.52377,86.4872
2023-03-10 21:46:08:722,0,-3.59554,-9.53862,86.4811
2023-03-10 21:46:08:732,0,-3.60659,-9.55267,86.4777
2023-03-10 21:46:08:742,0,-3.61297,-9.56496,86.4732
2023-03-10 21:46:08:752,0,-3.61459,-9.57123,86.4613
2023-03-10 21:46:08:762,0,-3.61394,-9.57718,86.4521
2023-03-10 21:46:08:772,0,-3.61297,-9.58563,86.4414
2023-03-10 21:46:08:782,0,-3.61257,-9.59146,86.43
2023-03-10 21:46:08:792,0,-3.61252,-9.59837,86.4211
2023-03-10 21:46:08:802,0,-3.61439,-9.60477,86.4098
2023-03-10 21:46:08:812,0,-3.62435,-9.61048,86.4004
2023-03-10 21:46:08:822,0,-3.63529,-9.62039,86.3868
2023-03-10 21:46:08:832,0,-3.64428,-9.63099,86.3737
2023-03-10 21:46:08:842,0,-3.65472,-9.63829,86.3596
2023-03-10 21:46:08:852,0,-3.66606,-9.64746,86.3497
2023-03-10 21:46:08:862,0,-3.67985,-9.66024,86.3399
2023-03-10 21:46:08:872,0,-3.70036,-9.67258,86.3285
2023-03-10 21:46:08:882,0,-3.72354,-9.6872,86.3228
2023-03-10 21:46:08:892,0,-3.74431,-9.70191,86.3159
2023-03-10 21:46:08:902,0,-3.76437,-9.71777,86.3111
2023-03-10 21:46:08:912,0,-3.78147,-9.73222,86.31
2023-03-10 21:46:08:922,0,-3.79554,-9.74473,86.3064
2023-03-10 21:46:08:932,0,-3.80302,-9.75807,86.3046
2023-03-10 21:46:08:942,0,-3.8065,-9.76464,86.3029
2023-03-10 21:46:08:952,0,-3.80834,-9.77209,86.3023
2023-03-10 21:46:08:962,0,-3.8125,-9.77956,86.3063
2023-03-10 21:46:08:972,0,-3.81441,-9.78724,86.3071
2023-03-10 21:46:08:982,0,-3.81991,-9.7858,86.3051
2023-03-10 21:46:08:992,0,-3.82163,-9.78245,86.3007
2023-03-10 21:46:09:2,0,-3.81805,-9.7762,86.2944
2023-03-10 21:46:09:12,0,-3.81387,-9.76647,86.283
2023-03-10 21:46:09:22,0,-3.80746,-9.75681,86.2682
2023-03-10 21:46:09:32,0,-3.79893,-9.7509,86.2522
2023-03-10 21:46:09:42,0,-3.79381,-9.74064,86.2358
2023-03-10 21:46:09:52,0,-3.79537,-9.72868,86.2199
2023-03-10 21:46:09:62,0,-3.80433,-9.71776,86.2099
2023-03-10 21:46:09:72,0,-3.81767,-9.70629,86.1976
2023-03-10 21:46:09:82,0,-3.82461,-9.69025,86.1897
2023-03-10 21:46:09:92,0,-3.82053,-9.67647,86.1782
2023-03-10 21:46:09:102,0,-3.80798,-9.65998,86.1677
2023-03-10 21:46:09:112,0,-3.79495,-9.64879,86.1574
2023-03-10 21:46:09:122,0,-3.78572,-9.63631,86.1512
2023-03-10 21:46:09:132,0,-3.78192,-9.62531,86.1492
2023-03-10 21:46:09:142,0,-3.78319,-9.61836,86.1488
2023-03-10 21:46:09:152,0,-3.79306,-9.61046,86.1531
2023-03-10 21:46:09:162,0,-3.8006,-9.59932,86.161
2023-03-10 21:46:09:172,0,-3.80474,-9.59117,86.1648
2023-03-10 21:46:09:182,0,-3.80732,-9.58032,86.1675
2023-03-10 21:46:09:192,0,-3.80411,-9.56664,86.1706
2023-03-10 21:46:09:202,0,-3.80502,-9.5617,86.1721
2023-03-10 21:46:09:212,0,-3.79925,-9.55686,86.171
2023-03-10 21:46:09:222,0,-3.79505,-9.552,86.1728
2023-03-10 21:46:09:232,0,-3.79365,-9.54674,86.1763
2023-03-10 21:46:09:242,0,-3.79589,-9.54408,86.1745
2023-03-10 21:46:09:252,0,-3.79756,-9.53713,86.1731
2023-03-10 21:46:09:262,0,-3.79842,-9.53219,86.1672
2023-03-10 21:46:09:272,0,-3.80008,-9.52644,86.1636
2023-03-10 21:46:09:282,0,-3.80752,-9.51927,86.16
2023-03-10 21:46:09:292,0,-3.82306,-9.51253,86.1535
2023-03-10 21:46:09:302,0,-3.8493,-9.50847,86.1516
2023-03-10 21:46:09:312,0,-3.88304,-9.50159,86.1449
2023-03-10 21:46:09:322,0,-3.91516,-9.49357,86.1398
2023-03-10 21:46:09:332,0,-3.94949,-9.4855,86.1324
2023-03-10 21:46:09:342,0,-3.98709,-9.47576,86.1285
2023-03-10 21:46:09:352,0,-4.02833,-9.4655,86.1223
2023-03-10 21:46:09:362,0,-4.06996,-9.45738,86.1115
2023-03-10 21:46:09:372,0,-4.11056,-9.44907,86.1014
2023-03-10 21:46:09:382,0,-4.14583,-9.44311,86.0893
2023-03-10 21:46:09:392,0,-4.17921,-9.43429,86.0734
2023-03-10 21:46:09:402,0,-4.20527,-9.42808,86.0529
2023-03-10 21:46:09:412,0,-4.22607,-9.42067,86.0303
2023-03-10 21:46:09:422,0,-4.23969,-9.40789,86.0069
2023-03-10 21:46:09:432,0,-4.25628,-9.39747,85.9818
2023-03-10 21:46:09:442,0,-4.26974,-9.3921,85.9544
2023-03-10 21:46:09:452,0,-4.28268,-9.38494,85.9316
2023-03-10 21:46:09:462,0,-4.29273,-9.38194,85.9062
2023-03-10 21:46:09:472,0,-4.3044,-9.38417,85.8776
2023-03-10 21:46:09:482,0,-4.31916,-9.38665,85.8543
2023-03-10 21:46:09:492,0,-4.33388,-9.39145,85.8306
2023-03-10 21:46:09:502,0,-4.34283,-9.39468,85.8052
2023-03-10 21:46:09:512,0,-4.34772,-9.39559,85.7776
2023-03-10 21:46:09:522,0,-4.34815,-9.40066,85.7535
2023-03-10 21:46:09:532,0,-4.3499,-9.40542,85.7274
2023-03-10 21:46:09:542,0,-4.34645,-9.41252,85.7056
2023-03-10 21:46:09:552,0,-4.3465,-9.41254,85.684
2023-03-10 21:46:09:562,0,-4.35051,-9.41204,85.6631
2023-03-10 21:46:09:572,0,-4.35333,-9.41552,85.6416
2023-03-10 21:46:09:582,0,-4.36734,-9.4281,85.6264
2023-03-10 21:46:09:592,0,-4.38895,-9.44485,85.617
2023-03-10 21:46:09:602,0,-4.41794,-9.46765,85.6075
2023-03-10 21:46:09:612,0,-4.45135,-9.48917,85.6005
2023-03-10 21:46:09:622,0,-4.48074,-9.50952,85.5916
2023-03-10 21:46:09:632,0,-4.50236,-9.52383,85.582
2023-03-10 21:46:09:642,0,-4.51099,-9.53383,85.5734
2023-03-10 21:46:09:652,0,-4.51296,-9.54497,85.5676
2023-03-10 21:46:09:662,0,-4.51851,-9.55915,85.5679
2023-03-10 21:46:09:672,0,-4.53443,-9.57649,85.5782
2023-03-10 21:46:09:682,0,-4.55263,-9.59483,85.5969
2023-03-10 21:46:09:692,0,-4.57191,-9.60584,85.6184
2023-03-10 21:46:09:702,0,-4.58327,-9.60951,85.6384
2023-03-10 21:46:09:712,0,-4.58193,-9.60526,85.661
2023-03-10 21:46:09:722,0,-4.56169,-9.59859,85.6818
2023-03-10 21:46:09:732,0,-4.52503,-9.58961,85.7004
2023-03-10 21:46:09:742,0,-4.4839,-9.57778,85.7126
2023-03-10 21:46:09:752,0,-4.44246,-9.56494,85.7229
2023-03-10 21:46:09:762,0,-4.40543,-9.54789,85.7273
2023-03-10 21:46:09:772,0,-4.37815,-9.53313,85.727
2023-03-10 21:46:09:782,0,-4.35518,-9.5186,85.722
2023-03-10 21:46:09:792,0,-4.33788,-9.50611,85.7158
2023-03-10 21:46:09:802,0,-4.32226,-9.49379,85.7067
2023-03-10 21:46:09:812,0,-4.31161,-9.48493,85.6961
2023-03-10 21:46:09:822,0,-4.29883,-9.47869,85.6849
2023-03-10 21:46:09:832,0,-4.2924,-9.47142,85.6721
2023-03-10 21:46:09:842,0,-4.28813,-9.46938,85.6593
2023-03-10 21:46:09:852,0,-4.28867,-9.46776,85.6481
2023-03-10 21:46:09:862,0,-4.29386,-9.46992,85.6407
2023-03-10 21:46:09:872,0,-4.29847,-9.46632,85.633
2023-03-10 21:46:09:882,0,-4.29518,-9.45893,85.6262
2023-03-10 21:46:09:892,0,-4.29745,-9.45518,85.624
2023-03-10 21:46:09:902,0,-4.29686,-9.45666,85.6194
2023-03-10 21:46:09:912,0,-4.29928,-9.46124,85.6201
2023-03-10 21:46:09:922,0,-4.29974,-9.46296,85.617
2023-03-10 21:46:09:932,0,-4.3011,-9.46379,85.6167
2023-03-10 21:46:09:942,0,-4.30586,-9.46759,85.6227
2023-03-10 21:46:09:952,0,-4.30864,-9.46861,85.6252
2023-03-10 21:46:09:962,0,-4.31394,-9.47383,85.6327
2023-03-10 21:46:09:972,0,-4.31644,-9.47931,85.6418
2023-03-10 21:46:09:982,0,-4.32445,-9.48734,85.6523
2023-03-10 21:46:09:992,0,-4.32846,-9.49985,85.6666
2023-03-10 21:46:10:2,0,-4.33279,-9.51172,85.6821
2023-03-10 21:46:10:12,0,-4.3365,-9.52485,85.7005
2023-03-10 21:46:10:22,0,-4.33816,-9.5358,85.7178
2023-03-10 21:46:10:32,0,-4.34578,-9.54924,85.732
2023-03-10 21:46:10:42,0,-4.34836,-9.56262,85.7459
2023-03-10 21:46:10:52,0,-4.35058,-9.58019,85.7591
2023-03-10 21:46:10:62,0,-4.34938,-9.59895,85.7746
2023-03-10 21:46:10:72,0,-4.34989,-9.61449,85.7865
2023-03-10 21:46:10:82,0,-4.35388,-9.63032,85.8022
2023-03-10 21:46:10:92,0,-4.35902,-9.64963,85.8228
2023-03-10 21:46:10:102,0,-4.35519,-9.67123,85.8428
2023-03-10 21:46:10:112,0,-4.3428,-9.68648,85.8579
2023-03-10 21:46:10:122,0,-4.32807,-9.70306,85.8704
2023-03-10 21:46:10:132,0,-4.31039,-9.71607,85.8805
2023-03-10 21:46:10:142,0,-4.3052,-9.72971,85.8928
2023-03-10 21:46:10:152,0,-4.3031,-9.74317,85.9033
2023-03-10 21:46:10:162,0,-4.30502,-9.75471,85.9137
2023-03-10 21:46:10:172,0,-4.30352,-9.76511,85.9246
2023-03-10 21:46:10:182,0,-4.29228,-9.77407,85.9318
2023-03-10 21:46:10:192,0,-4.27257,-9.77925,85.9303
2023-03-10 21:46:10:202,0,-4.25042,-9.7834,85.9328
2023-03-10 21:46:10:212,0,-4.22386,-9.78648,85.9322
2023-03-10 21:46:10:222,0,-4.20273,-9.79081,85.9326
2023-03-10 21:46:10:232,0,-4.19046,-9.79381,85.9353
2023-03-10 21:46:10:242,0,-4.18463,-9.80025,85.9399
2023-03-10 21:46:10:252,0,-4.1854,-9.80665,85.9438
2023-03-10 21:46:10:262,0,-4.18873,-9.81409,85.9488
2023-03-10 21:46:10:272,0,-4.18947,-9.82206,85.9554
2023-03-10 21:46:10:282,0,-4.18726,-9.82708,85.9644
2023-03-10 21:46:10:292,0,-4.18937,-9.83283,85.9716
2023-03-10 21:46:10:302,0,-4.18837,-9.83688,85.9792
2023-03-10 21:46:10:312,0,-4.18702,-9.8362,85.9861
2023-03-10 21:46:10:322,0,-4.18955,-9.83826,85.9955
2023-03-10 21:46:10:332,0,-4.19573,-9.84079,86.0048
2023-03-10 21:46:10:342,0,-4.2017,-9.84534,86.015
2023-03-10 21:46:10:352,0,-4.20277,-9.85267,86.0257
2023-03-10 21:46:10:362,0,-4.20164,-9.85556,86.029
2023-03-10 21:46:10:372,0,-4.20392,-9.85811,86.0331
2023-03-10 21:46:10:382,0,-4.20514,-9.86235,86.038
2023-03-10 21:46:10:392,0,-4.20645,-9.8646,86.0419
2023-03-10 21:46:10:402,0,-4.21022,-9.87186,86.0451
2023-03-10 21:46:10:412,0,-4.21112,-9.87844,86.047
2023-03-10 21:46:10:422,0,-4.21103,-9.89057,86.0506
2023-03-10 21:46:10:432,0,-4.21367,-9.89986,86.0551
2023-03-10 21:46:10:442,0,-4.21911,-9.90312,86.0648
2023-03-10 21:46:10:452,0,-4.22447,-9.90556,86.0702
2023-03-10 21:46:10:462,0,-4.22979,-9.90819,86.076
2023-03-10 21:46:10:472,0,-4.23499,-9.91203,86.0856
2023-03-10 21:46:10:482,0,-4.24026,-9.91371,86.0958
2023-03-10 21:46:10:492,0,-4.24946,-9.91672,86.1025
2023-03-10 21:46:10:502,0,-4.25185,-9.91594,86.1107
2023-03-10 21:46:10:512,0,-4.25265,-9.91654,86.1162
2023-03-10 21:46:10:522,0,-4.25315,-9.91167,86.1189
2023-03-10 21:46:10:532,0,-4.25784,-9.90787,86.1215
2023-03-10 21:46:10:542,0,-4.2594,-9.90265,86.1239
2023-03-10 21:46:10:552,0,-4.25899,-9.89812,86.1272
2023-03-10 21:46:10:562,0,-4.26092,-9.89202,86.1256
2023-03-10 21:46:10:572,0,-4.26519,-9.88927,86.1222
2023-03-10 21:46:10:582,0,-4.27168,-9.88841,86.124
2023-03-10 21:46:10:592,0,-4.27807,-9.88934,86.1247
2023-03-10 21:46:10:602,0,-4.28026,-9.88663,86.1279
2023-03-10 21:46:10:612,0,-4.28584,-9.88109,86.1294
2023-03-10 21:46:10:622,0,-4.28783,-9.87115,86.1287
2023-03-10 21:46:10:632,0,-4.29006,-9.8651,86.1256
2023-03-10 21:46:10:642,0,-4.28739,-9.85639,86.1198
2023-03-10 21:46:10:652,0,-4.28387,-9.85381,86.1183
2023-03-10 21:46:10:662,0,-4.28343,-9.85208,86.1172
2023-03-10 21:46:10:672,0,-4.28229,-9.85041,86.1193
2023-03-10 21:46:10:682,0,-4.28024,-9.84764,86.1237
2023-03-10 21:46:10:692,0,-4.28061,-9.84565,86.1287
2023-03-10 21:46:10:702,0,-4.28691,-9.84256,86.1318
2023-03-10 21:46:10:712,0,-4.29294,-9.84157,86.1397
2023-03-10 21:46:10:722,0,-4.29618,-9.84087,86.1495
2023-03-10 21:46:10:732,0,-4.29583,-9.84238,86.1622
2023-03-10 21:46:10:742,0,-4.29508,-9.84321,86.1723
2023-03-10 21:46:10:752,0,-4.29378,-9.84522,86.1792
2023-03-10 21:46:10:762,0,-4.28939,-9.84988,86.1812
2023-03-10 21:46:10:772,0,-4.28735,-9.85496,86.1912
2023-03-10 21:46:10:782,0,-4.28742,-9.86246,86.2006
2023-03-10 21:46:10:792,0,-4.28809,-9.86972,86.2087
2023-03-10 21:46:10:802,0,-4.28778,-9.8727,86.2087
2023-03-10 21:46:10:812,0,-4.28067,-9.87478,86.2074
2023-03-10 21:46:10:822,0,-4.27593,-9.8755,86.2111
2023-03-10 21:46:10:832,0,-4.27053,-9.87643,86.2116
2023-03-10 21:46:10:842,0,-4.26318,-9.87908,86.2105
2023-03-10 21:46:10:852,0,-4.26222,-9.88098,86.2175
2023-03-10 21:46:10:862,0,-4.26432,-9.88082,86.2235
2023-03-10 21:46:10:872,0,-4.26951,-9.87793,86.231
2023-03-10 21:46:10:883,0,-4.27239,-9.87627,86.2372
2023-03-10 21:46:10:892,0,-4.27262,-9.87355,86.2384
2023-03-10 21:46:10:902,0,-4.27105,-9.86892,86.2391
2023-03-10 21:46:10:912,0,-4.2678,-9.86456,86.2378
2023-03-10 21:46:10:922,0,-4.26727,-9.85871,86.2309
2023-03-10 21:46:10:932,0,-4.26815,-9.85388,86.2233
2023-03-10 21:46:10:942,0,-4.27582,-9.84917,86.2165
2023-03-10 21:46:10:952,0,-4.2882,-9.84438,86.2121
2023-03-10 21:46:10:962,0,-4.30378,-9.84084,86.2122
2023-03-10 21:46:10:972,0,-4.31802,-9.8406,86.212
2023-03-10 21:46:10:982,0,-4.32999,-9.83603,86.2105
2023-03-10 21:46:10:992,0,-4.33308,-9.83087,86.2079
2023-03-10 21:46:11:2,0,-4.34132,-9.82546,86.2094
2023-03-10 21:46:11:12,0,-4.34836,-9.82549,86.2159
2023-03-10 21:46:11:22,0,-4.35288,-9.82574,86.2209
2023-03-10 21:46:11:32,0,-4.36049,-9.82831,86.2239
2023-03-10 21:46:11:42,0,-4.36839,-9.82872,86.2275
2023-03-10 21:46:11:52,0,-4.37628,-9.83145,86.2312
2023-03-10 21:46:11:62,0,-4.38397,-9.835,86.2362
2023-03-10 21:46:11:72,0,-4.38758,-9.83392,86.2408
2023-03-10 21:46:11:82,0,-4.38677,-9.83397,86.247
2023-03-10 21:46:11:92,0,-4.37933,-9.83801,86.2525
2023-03-10 21:46:11:102,0,-4.37457,-9.84262,86.2596
2023-03-10 21:46:11:112,0,-4.36796,-9.84725,86.2661
2023-03-10 21:46:11:122,0,-4.36197,-9.85263,86.2723
2023-03-10 21:46:11:132,0,-4.3612,-9.85433,86.2801
2023-03-10 21:46:11:142,0,-4.36044,-9.85672,86.2831
2023-03-10 21:46:11:152,0,-4.36954,-9.86058,86.2888
2023-03-10 21:46:11:162,0,-4.37803,-9.86293,86.2917
2023-03-10 21:46:11:172,0,-4.38281,-9.86573,86.2928
2023-03-10 21:46:11:182,0,-4.38455,-9.87222,86.2949
2023-03-10 21:46:11:192,0,-4.38769,-9.87864,86.2984
2023-03-10 21:46:11:202,0,-4.39117,-9.88819,86.3058
2023-03-10 21:46:11:212,0,-4.3961,-9.89458,86.3107
2023-03-10 21:46:11:222,0,-4.39926,-9.89811,86.3168
2023-03-10 21:46:11:232,0,-4.39972,-9.90219,86.3198
2023-03-10 21:46:11:242,0,-4.40199,-9.90273,86.3213
2023-03-10 21:46:11:252,0,-4.40459,-9.89819,86.3232
2023-03-10 21:46:11:262,0,-4.40531,-9.89605,86.3257
2023-03-10 21:46:11:272,0,-4.40269,-9.89283,86.3257
2023-03-10 21:46:11:282,0,-4.39342,-9.88787,86.3197
2023-03-10 21:46:11:292,0,-4.38036,-9.88324,86.3127
2023-03-10 21:46:11:302,0,-4.3612,-9.87887,86.3038
2023-03-10 21:46:11:312,0,-4.33521,-9.87523,86.288
2023-03-10 21:46:11:322,0,-4.31485,-9.87322,86.2735
2023-03-10 21:46:11:332,0,-4.30115,-9.87041,86.2611
2023-03-10 21:46:11:342,0,-4.29719,-9.8708,86.2537
2023-03-10 21:46:11:352,0,-4.29833,-9.86779,86.2482
2023-03-10 21:46:11:362,0,-4.30043,-9.87014,86.2441
2023-03-10 21:46:11:372,0,-4.29724,-9.87053,86.241
2023-03-10 21:46:11:383,0,-4.29645,-9.86916,86.2436
2023-03-10 21:46:11:392,0,-4.29769,-9.86494,86.2437
2023-03-10 21:46:11:402,0,-4.30205,-9.85661,86.2448
2023-03-10 21:46:11:412,0,-4.30137,-9.84862,86.242
2023-03-10 21:46:11:423,0,-4.29665,-9.8447,86.2379
2023-03-10 21:46:11:432,0,-4.28595,-9.84243,86.2363
2023-03-10 21:46:11:443,0,-4.26991,-9.84565,86.2347
2023-03-10 21:46:11:452,0,-4.25578,-9.84714,86.2366
2023-03-10 21:46:11:462,0,-4.24503,-9.85132,86.2368
2023-03-10 21:46:11:472,0,-4.23594,-9.85328,86.2404
2023-03-10 21:46:11:483,0,-4.22556,-9.8551,86.2405
2023-03-10 21:46:11:493,0,-4.21662,-9.85803,86.2445
2023-03-10 21:46:11:502,0,-4.2072,-9.8596,86.252
2023-03-10 21:46:11:512,0,-4.19993,-9.86104,86.2622
2023-03-10 21:46:11:523,0,-4.19218,-9.8656,86.2721
2023-03-10 21:46:11:532,0,-4.18806,-9.86803,86.2823
2023-03-10 21:46:11:542,0,-4.1838,-9.87297,86.2913
2023-03-10 21:46:11:552,0,-4.18183,-9.87945,86.2963
2023-03-10 21:46:11:562,0,-4.18408,-9.88732,86.3018
2023-03-10 21:46:11:572,0,-4.18783,-9.89551,86.3086
2023-03-10 21:46:11:582,0,-4.19497,-9.90315,86.3241
2023-03-10 21:46:11:592,0,-4.2048,-9.90908,86.3354
2023-03-10 21:46:11:602,0,-4.2117,-9.91826,86.3513
2023-03-10 21:46:11:612,0,-4.21996,-9.92472,86.3721
2023-03-10 21:46:11:622,0,-4.2325,-9.93168,86.398
2023-03-10 21:46:11:632,0,-4.241,-9.93204,86.4179
2023-03-10 21:46:11:643,0,-4.25346,-9.93467,86.4396
2023-03-10 21:46:11:652,0,-4.26038,-9.93594,86.4531
2023-03-10 21:46:11:662,0,-4.2674,-9.93321,86.4669
2023-03-10 21:46:11:673,0,-4.27437,-9.93011,86.475
2023-03-10 21:46:11:683,0,-4.28717,-9.92724,86.4804
2023-03-10 21:46:11:693,0,-4.30017,-9.92682,86.4834
2023-03-10 21:46:11:702,0,-4.3125,-9.92532,86.4879
2023-03-10 21:46:11:713,0,-4.32395,-9.92242,86.4872
2023-03-10 21:46:11:723,0,-4.33065,-9.91721,86.4896
2023-03-10 21:46:11:733,0,-4.33435,-9.91559,86.4931
2023-03-10 21:46:11:742,0,-4.33627,-9.91058,86.4962
2023-03-10 21:46:11:752,0,-4.34381,-9.90923,86.5005
2023-03-10 21:46:11:762,0,-4.3523,-9.90877,86.5041
2023-03-10 21:46:11:772,0,-4.36395,-9.90637,86.5081
2023-03-10 21:46:11:782,0,-4.37085,-9.90685,86.5084
2023-03-10 21:46:11:792,0,-4.37671,-9.90831,86.5043
2023-03-10 21:46:11:802,0,-4.37957,-9.90741,86.4983
2023-03-10 21:46:11:812,0,-4.38034,-9.90738,86.4923
2023-03-10 21:46:11:822,0,-4.38422,-9.91109,86.4865
2023-03-10 21:46:11:832,0,-4.38667,-9.91522,86.4851
2023-03-10 21:46:11:842,0,-4.38655,-9.92228,86.4832
2023-03-10 21:46:11:852,0,-4.38967,-9.92785,86.4878
2023-03-10 21:46:11:862,0,-4.39473,-9.93332,86.4915
2023-03-10 21:46:11:872,0,-4.39931,-9.94038,86.498
2023-03-10 21:46:11:882,0,-4.40147,-9.94569,86.5065
2023-03-10 21:46:11:892,0,-4.39919,-9.94832,86.5132
2023-03-10 21:46:11:902,0,-4.39365,-9.95076,86.5196
2023-03-10 21:46:11:912,0,-4.38429,-9.9502,86.5288
2023-03-10 21:46:11:922,0,-4.3762,-9.94754,86.5378
2023-03-10 21:46:11:932,0,-4.36911,-9.94784,86.5412
2023-03-10 21:46:11:942,0,-4.36493,-9.94684,86.5473
2023-03-10 21:46:11:952,0,-4.3605,-9.9472,86.55
2023-03-10 21:46:11:962,0,-4.36079,-9.94638,86.5569
2023-03-10 21:46:11:972,0,-4.36364,-9.94359,86.5582
2023-03-10 21:46:11:982,0,-4.36482,-9.94389,86.5627
2023-03-10 21:46:11:992,0,-4.36358,-9.95121,86.5667
2023-03-10 21:46:12:2,0,-4.36242,-9.96122,86.5702
2023-03-10 21:46:12:12,0,-4.36141,-9.97146,86.576
2023-03-10 21:46:12:22,0,-4.36191,-9.98118,86.5747
2023-03-10 21:46:12:32,0,-4.36346,-9.989,86.5736
2023-03-10 21:46:12:42,0,-4.36329,-9.99589,86.5651
2023-03-10 21:46:12:52,0,-4.36827,-10.0027,86.5583
2023-03-10 21:46:12:62,0,-4.3726,-10.0019,86.5535
2023-03-10 21:46:12:72,0,-4.37299,-10.0042,86.55
2023-03-10 21:46:12:82,0,-4.37191,-10.0027,86.5449
2023-03-10 21:46:12:92,0,-4.36732,-9.99851,86.5404
2023-03-10 21:46:12:102,0,-4.36033,-9.99592,86.5344
2023-03-10 21:46:12:112,0,-4.35579,-9.99313,86.5304
2023-03-10 21:46:12:122,0,-4.35122,-9.99278,86.5245
2023-03-10 21:46:12:132,0,-4.34611,-9.98991,86.5244
2023-03-10 21:46:12:142,0,-4.34715,-9.98529,86.5224
2023-03-10 21:46:12:152,0,-4.35033,-9.98591,86.5185
2023-03-10 21:46:12:162,0,-4.35465,-9.98502,86.5165
2023-03-10 21:46:12:172,0,-4.35864,-9.98721,86.5156
2023-03-10 21:46:12:182,0,-4.35871,-9.98725,86.5076
2023-03-10 21:46:12:192,0,-4.3562,-9.98773,86.5008
2023-03-10 21:46:12:202,0,-4.35807,-9.98238,86.4925
2023-03-10 21:46:12:212,0,-4.35732,-9.97631,86.4845
2023-03-10 21:46:12:222,0,-4.35464,-9.96655,86.4731
2023-03-10 21:46:12:233,0,-4.34888,-9.95885,86.4579
2023-03-10 21:46:12:242,0,-4.33894,-9.95427,86.4499
2023-03-10 21:46:12:252,0,-4.33139,-9.9527,86.4434
2023-03-10 21:46:12:262,0,-4.3272,-9.95161,86.4396
2023-03-10 21:46:12:272,0,-4.32295,-9.95155,86.4375
2023-03-10 21:46:12:282,0,-4.32024,-9.951,86.4372
2023-03-10 21:46:12:292,0,-4.32289,-9.9475,86.4384
2023-03-10 21:46:12:303,0,-4.32294,-9.94678,86.4405
2023-03-10 21:46:12:312,0,-4.31932,-9.94343,86.4396
2023-03-10 21:46:12:322,0,-4.31443,-9.94573,86.4389
2023-03-10 21:46:12:332,0,-4.31233,-9.94992,86.4393
2023-03-10 21:46:12:342,0,-4.30746,-9.95465,86.4357
2023-03-10 21:46:12:352,0,-4.30459,-9.95925,86.4347
2023-03-10 21:46:12:362,0,-4.30276,-9.96402,86.4336
2023-03-10 21:46:12:372,0,-4.30445,-9.96897,86.4346
2023-03-10 21:46:12:382,0,-4.30795,-9.97704,86.4396
2023-03-10 21:46:12:392,0,-4.31255,-9.9869,86.441
2023-03-10 21:46:12:402,0,-4.31384,-10.0001,86.4468
2023-03-10 21:46:12:412,0,-4.31746,-10.0084,86.4506
2023-03-10 21:46:12:422,0,-4.31923,-10.0181,86.4552
2023-03-10 21:46:12:432,0,-4.32588,-10.0311,86.4608
2023-03-10 21:46:12:442,0,-4.3335,-10.0457,86.4631
2023-03-10 21:46:12:453,0,-4.34589,-10.0614,86.47
2023-03-10 21:46:12:462,0,-4.36014,-10.0777,86.473
2023-03-10 21:46:12:472,0,-4.37052,-10.0902,86.4707
2023-03-10 21:46:12:482,0,-4.37278,-10.1013,86.4614
2023-03-10 21:46:12:492,0,-4.37609,-10.1115,86.446
2023-03-10 21:46:12:502,0,-4.37826,-10.1185,86.4319
2023-03-10 21:46:12:512,0,-4.38317,-10.1228,86.4169
2023-03-10 21:46:12:522,0,-4.38748,-10.1269,86.401
2023-03-10 21:46:12:532,0,-4.3929,-10.1262,86.3833
2023-03-10 21:46:12:542,0,-4.39993,-10.1253,86.3676
2023-03-10 21:46:12:553,0,-4.40735,-10.1292,86.3533
2023-03-10 21:46:12:563,0,-4.41438,-10.1276,86.3425
2023-03-10 21:46:12:573,0,-4.4202,-10.1254,86.3307
2023-03-10 21:46:12:582,0,-4.42759,-10.1206,86.3226
2023-03-10 21:46:12:592,0,-4.43571,-10.1167,86.3157
2023-03-10 21:46:12:602,0,-4.44354,-10.1112,86.307
2023-03-10 21:46:12:612,0,-4.44508,-10.1074,86.3007
2023-03-10 21:46:12:622,0,-4.44909,-10.1017,86.2966
2023-03-10 21:46:12:632,0,-4.45433,-10.0962,86.2932
2023-03-10 21:46:12:642,0,-4.46469,-10.0965,86.2929
2023-03-10 21:46:12:652,0,-4.47426,-10.0984,86.2929
2023-03-10 21:46:12:662,0,-4.47758,-10.0983,86.2943
2023-03-10 21:46:12:672,0,-4.47808,-10.096,86.2954
2023-03-10 21:46:12:683,0,-4.47915,-10.0962,86.3004
2023-03-10 21:46:12:693,0,-4.48376,-10.0977,86.307
2023-03-10 21:46:12:702,0,-4.49301,-10.0953,86.3128
2023-03-10 21:46:12:712,0,-4.49706,-10.0913,86.3176
2023-03-10 21:46:12:722,0,-4.50283,-10.0895,86.3221
2023-03-10 21:46:12:732,0,-4.51421,-10.0874,86.3295
2023-03-10 21:46:12:742,0,-4.52374,-10.0907,86.3315
2023-03-10 21:46:12:752,0,-4.5294,-10.0894,86.3328
2023-03-10 21:46:12:762,0,-4.53801,-10.0883,86.33
2023-03-10 21:46:12:772,0,-4.54566,-10.0875,86.3269
2023-03-10 21:46:12:782,0,-4.55386,-10.0888,86.3225
2023-03-10 21:46:12:792,0,-4.55981,-10.0907,86.3185
2023-03-10 21:46:12:802,0,-4.56023,-10.1026,86.3185
2023-03-10 21:46:12:812,0,-4.56813,-10.1136,86.3262
2023-03-10 21:46:12:822,0,-4.57722,-10.1227,86.332
2023-03-10 21:46:12:832,0,-4.58813,-10.131,86.3414
2023-03-10 21:46:12:842,0,-4.59396,-10.1411,86.3518
2023-03-10 21:46:12:852,0,-4.59889,-10.1439,86.364
2023-03-10 21:46:12:862,0,-4.60171,-10.1448,86.3738
2023-03-10 21:46:12:872,0,-4.6049,-10.1489,86.3822
2023-03-10 21:46:12:882,0,-4.60911,-10.1516,86.3967
2023-03-10 21:46:12:892,0,-4.61669,-10.1564,86.4122
2023-03-10 21:46:12:902,0,-4.62014,-10.1537,86.4248
2023-03-10 21:46:12:912,0,-4.61998,-10.1538,86.4349
2023-03-10 21:46:12:922,0,-4.61511,-10.1515,86.4414
2023-03-10 21:46:12:932,0,-4.61012,-10.1485,86.4452
2023-03-10 21:46:12:942,0,-4.60624,-10.144,86.4504
2023-03-10 21:46:12:952,0,-4.61005,-10.1421,86.4543
2023-03-10 21:46:12:962,0,-4.61131,-10.141,86.4551
2023-03-10 21:46:12:972,0,-4.6136,-10.1409,86.4594
2023-03-10 21:46:12:982,0,-4.61423,-10.1408,86.4628
2023-03-10 21:46:12:992,0,-4.6142,-10.1438,86.4618
2023-03-10 21:46:13:2,0,-4.61538,-10.1442,86.4613
2023-03-10 21:46:13:12,0,-4.61607,-10.1406,86.4579
2023-03-10 21:46:13:23,0,-4.61106,-10.1324,86.4453
2023-03-10 21:46:13:32,0,-4.59759,-10.1211,86.4304
2023-03-10 21:46:13:42,0,-4.58423,-10.112,86.4159
2023-03-10 21:46:13:52,0,-4.56756,-10.1109,86.4053
2023-03-10 21:46:13:62,0,-4.55527,-10.1092,86.4005
2023-03-10 21:46:13:72,0,-4.54566,-10.1102,86.3938
2023-03-10 21:46:13:82,0,-4.53724,-10.108,86.3928
2023-03-10 21:46:13:92,0,-4.53308,-10.1062,86.3911
2023-03-10 21:46:13:102,0,-4.52969,-10.1025,86.3919
2023-03-10 21:46:13:112,0,-4.52174,-10.1006,86.3972
2023-03-10 21:46:13:122,0,-4.51333,-10.098,86.4065
2023-03-10 21:46:13:132,0,-4.50383,-10.1021,86.4164
2023-03-10 21:46:13:142,0,-4.49192,-10.1066,86.4265
2023-03-10 21:46:13:152,0,-4.47921,-10.1145,86.4328
2023-03-10 21:46:13:162,0,-4.46219,-10.1211,86.438
2023-03-10 21:46:13:172,0,-4.4412,-10.1311,86.4438
2023-03-10 21:46:13:182,0,-4.4189,-10.1433,86.4477
2023-03-10 21:46:13:192,0,-4.39698,-10.1548,86.4562
2023-03-10 21:46:13:202,0,-4.37801,-10.1666,86.4633
2023-03-10 21:46:13:212,0,-4.36629,-10.1833,86.4743
2023-03-10 21:46:13:223,0,-4.36284,-10.2002,86.4889
2023-03-10 21:46:13:233,0,-4.36324,-10.2145,86.5039
2023-03-10 21:46:13:243,0,-4.36712,-10.2283,86.5195
2023-03-10 21:46:13:253,0,-4.36584,-10.2405,86.5374
2023-03-10 21:46:13:263,0,-4.36705,-10.2516,86.5539
2023-03-10 21:46:13:272,0,-4.36918,-10.2571,86.5695
2023-03-10 21:46:13:282,0,-4.36948,-10.2621,86.5817
2023-03-10 21:46:13:292,0,-4.37488,-10.2646,86.591
2023-03-10 21:46:13:302,0,-4.37865,-10.2662,86.593
2023-03-10 21:46:13:312,0,-4.38142,-10.2668,86.5987
2023-03-10 21:46:13:322,0,-4.38629,-10.2612,86.5984
2023-03-10 21:46:13:332,0,-4.39094,-10.2566,86.5974
2023-03-10 21:46:13:342,0,-4.39394,-10.2472,86.595
2023-03-10 21:46:13:352,0,-4.39825,-10.2393,86.5902
2023-03-10 21:46:13:362,0,-4.40228,-10.2337,86.5856
2023-03-10 21:46:13:372,0,-4.41046,-10.2255,86.5799
2023-03-10 21:46:13:382,0,-4.41422,-10.219,86.5755
2023-03-10 21:46:13:392,0,-4.42057,-10.2135,86.5722
2023-03-10 21:46:13:402,0,-4.42659,-10.2052,86.569
2023-03-10 21:46:13:412,0,-4.43155,-10.1993,86.5622
2023-03-10 21:46:13:422,0,-4.43196,-10.193,86.5582
2023-03-10 21:46:13:432,0,-4.43569,-10.1822,86.5519
2023-03-10 21:46:13:442,0,-4.43284,-10.1758,86.5461
2023-03-10 21:46:13:453,0,-4.42917,-10.1677,86.5407
2023-03-10 21:46:13:462,0,-4.42689,-10.1613,86.5364
2023-03-10 21:46:13:472,0,-4.42423,-10.153,86.5316
2023-03-10 21:46:13:482,0,-4.42183,-10.1467,86.5288
2023-03-10 21:46:13:492,0,-4.42471,-10.1394,86.5256
2023-03-10 21:46:13:502,0,-4.42725,-10.133,86.5241
2023-03-10 21:46:13:512,0,-4.42884,-10.126,86.5265
2023-03-10 21:46:13:522,0,-4.43109,-10.1203,86.5277
2023-03-10 21:46:13:532,0,-4.43322,-10.1182,86.5299
2023-03-10 21:46:13:542,0,-4.4371,-10.1134,86.5312
2023-03-10 21:46:13:552,0,-4.43737,-10.1138,86.5308
2023-03-10 21:46:13:563,0,-4.44312,-10.115,86.5287
2023-03-10 21:46:13:573,0,-4.44347,-10.1163,86.5248
2023-03-10 21:46:13:583,0,-4.44503,-10.1157,86.525
2023-03-10 21:46:13:593,0,-4.45078,-10.118,86.5269
2023-03-10 21:46:13:602,0,-4.45983,-10.1156,86.5243
2023-03-10 21:46:13:613,0,-4.47246,-10.121,86.5209
2023-03-10 21:46:13:622,0,-4.48085,-10.1283,86.5193
2023-03-10 21:46:13:632,0,-4.48848,-10.1408,86.5234
2023-03-10 21:46:13:642,0,-4.49127,-10.1543,86.5278
2023-03-10 21:46:13:652,0,-4.49528,-10.1626,86.5345
2023-03-10 21:46:13:662,0,-4.50238,-10.1706,86.5434
2023-03-10 21:46:13:672,0,-4.51231,-10.1776,86.5552
2023-03-10 21:46:13:682,0,-4.52155,-10.1844,86.5619
2023-03-10 21:46:13:693,0,-4.52425,-10.1903,86.5714
2023-03-10 21:46:13:702,0,-4.52698,-10.1922,86.5803
2023-03-10 21:46:13:713,0,-4.52706,-10.1963,86.583
2023-03-10 21:46:13:723,0,-4.52631,-10.1928,86.5869
2023-03-10 21:46:13:732,0,-4.52646,-10.1885,86.5904
2023-03-10 21:46:13:742,0,-4.52219,-10.1874,86.5886
2023-03-10 21:46:13:752,0,-4.52191,-10.1876,86.5836
2023-03-10 21:46:13:762,0,-4.52168,-10.1846,86.5767
2023-03-10 21:46:13:772,0,-4.52521,-10.1855,86.57
2023-03-10 21:46:13:782,0,-4.52845,-10.187,86.5644
2023-03-10 21:46:13:793,0,-4.52996,-10.1925,86.5572
2023-03-10 21:46:13:803,0,-4.53507,-10.1983,86.5514
2023-03-10 21:46:13:813,0,-4.54091,-10.2041,86.5461
2023-03-10 21:46:13:822,0,-4.54861,-10.2099,86.5438
2023-03-10 21:46:13:833,0,-4.55064,-10.2202,86.5435
2023-03-10 21:46:13:843,0,-4.55227,-10.2325,86.5447
2023-03-10 21:46:13:852,0,-4.54822,-10.2391,86.5424
2023-03-10 21:46:13:862,0,-4.54099,-10.2445,86.5386
2023-03-10 21:46:13:872,0,-4.53091,-10.2568,86.537
2023-03-10 21:46:13:882,0,-4.52126,-10.2759,86.5422
2023-03-10 21:46:13:892,0,-4.51467,-10.2964,86.5571
2023-03-10 21:46:13:903,0,-4.50311,-10.3185,86.5722
2023-03-10 21:46:13:912,0,-4.49021,-10.3396,86.5921
2023-03-10 21:46:13:923,0,-4.48024,-10.3654,86.6115
2023-03-10 21:46:13:933,0,-4.47144,-10.3941,86.6347
2023-03-10 21:46:13:943,0,-4.45997,-10.4252,86.6572
2023-03-10 21:46:13:952,0,-4.45281,-10.4634,86.6828
2023-03-10 21:46:13:962,0,-4.4433,-10.5053,86.7123
2023-03-10 21:46:13:972,0,-4.43323,-10.5484,86.7386
2023-03-10 21:46:13:982,0,-4.42255,-10.5928,86.7594
2023-03-10 21:46:13:992,0,-4.40717,-10.6378,86.7745
2023-03-10 21:46:14:2,0,-4.39058,-10.6867,86.7931
2023-03-10 21:46:14:13,0,-4.37411,-10.7371,86.8075
2023-03-10 21:46:14:23,0,-4.35604,-10.789,86.816
2023-03-10 21:46:14:32,0,-4.33722,-10.8421,86.819
2023-03-10 21:46:14:43,0,-4.31603,-10.9008,86.8217
2023-03-10 21:46:14:53,0,-4.29884,-10.9662,86.8154
2023-03-10 21:46:14:62,0,-4.27886,-11.0327,86.8018
2023-03-10 21:46:14:72,0,-4.25455,-11.1042,86.7822
2023-03-10 21:46:14:82,0,-4.22977,-11.1804,86.7564
2023-03-10 21:46:14:92,0,-4.21086,-11.2603,86.7248
2023-03-10 21:46:14:102,0,-4.19398,-11.3411,86.6916
2023-03-10 21:46:14:112,0,-4.18589,-11.4245,86.658
2023-03-10 21:46:14:122,0,-4.1733,-11.5147,86.6243
2023-03-10 21:46:14:132,0,-4.15437,-11.6097,86.5765
2023-03-10 21:46:14:142,0,-4.12536,-11.7018,86.52
2023-03-10 21:46:14:152,0,-4.09032,-11.7978,86.4545
2023-03-10 21:46:14:162,0,-4.05838,-11.8994,86.3893
2023-03-10 21:46:14:172,0,-4.02885,-12.0031,86.3244
2023-03-10 21:46:14:182,0,-3.99528,-12.114,86.2629
2023-03-10 21:46:14:192,0,-3.96023,-12.2336,86.2058
2023-03-10 21:46:14:202,0,-3.91987,-12.3623,86.1505
2023-03-10 21:46:14:212,0,-3.87416,-12.4917,86.0947
2023-03-10 21:46:14:222,0,-3.82951,-12.628,86.0459
2023-03-10 21:46:14:232,0,-3.78545,-12.7685,86.0018
2023-03-10 21:46:14:242,0,-3.73681,-12.9096,85.9626
2023-03-10 21:46:14:252,0,-3.6863,-13.0575,85.932
2023-03-10 21:46:14:262,0,-3.63876,-13.2138,85.9063
2023-03-10 21:46:14:272,0,-3.59239,-13.3751,85.8882
2023-03-10 21:46:14:282,0,-3.54222,-13.5425,85.8733
2023-03-10 21:46:14:292,0,-3.49502,-13.7132,85.866
2023-03-10 21:46:14:302,0,-3.44691,-13.8894,85.8601
2023-03-10 21:46:14:312,0,-3.3974,-14.0698,85.8552
2023-03-10 21:46:14:322,0,-3.34547,-14.2592,85.8479
2023-03-10 21:46:14:332,0,-3.28902,-14.4586,85.8292
2023-03-10 21:46:14:342,0,-3.23051,-14.6728,85.8009
2023-03-10 21:46:14:352,0,-3.1642,-14.9014,85.7522
2023-03-10 21:46:14:362,0,-3.09791,-15.1432,85.6878
2023-03-10 21:46:14:372,0,-3.02756,-15.4002,85.6195
2023-03-10 21:46:14:382,0,-2.96525,-15.6664,85.5501
2023-03-10 21:46:14:392,0,-2.90741,-15.9385,85.4834
2023-03-10 21:46:14:403,0,-2.85002,-16.2192,85.4192
2023-03-10 21:46:14:413,0,-2.79273,-16.5052,85.3593
2023-03-10 21:46:14:422,0,-2.73522,-16.7904,85.297
2023-03-10 21:46:14:433,0,-2.67533,-17.0853,85.2417
2023-03-10 21:46:14:443,0,-2.61494,-17.3813,85.1965
2023-03-10 21:46:14:452,0,-2.55134,-17.6822,85.16
2023-03-10 21:46:14:462,0,-2.48501,-17.9833,85.131
2023-03-10 21:46:14:472,0,-2.41539,-18.2933,85.1026
2023-03-10 21:46:14:482,0,-2.34234,-18.6074,85.083
2023-03-10 21:46:14:492,0,-2.26836,-18.917,85.0709
2023-03-10 21:46:14:502,0,-2.19156,-19.229,85.0602
2023-03-10 21:46:14:512,0,-2.12024,-19.5398,85.0581
2023-03-10 21:46:14:522,0,-2.05082,-19.8564,85.0671
2023-03-10 21:46:14:532,0,-1.98672,-20.1733,85.0909
2023-03-10 21:46:14:542,0,-1.92736,-20.5001,85.1167
2023-03-10 21:46:14:553,0,-1.86597,-20.8279,85.1491
2023-03-10 21:46:14:562,0,-1.80554,-21.1596,85.1849
2023-03-10 21:46:14:573,0,-1.74413,-21.4978,85.2129
2023-03-10 21:46:14:582,0,-1.67858,-21.8379,85.2338
2023-03-10 21:46:14:593,0,-1.60701,-22.1806,85.2518
2023-03-10 21:46:14:603,0,-1.52904,-22.524,85.2661
2023-03-10 21:46:14:613,0,-1.4557,-22.8753,85.2911
2023-03-10 21:46:14:622,0,-1.39052,-23.2335,85.3238
2023-03-10 21:46:14:632,0,-1.33396,-23.5994,85.3697
2023-03-10 21:46:14:642,0,-1.28186,-23.9661,85.4226
2023-03-10 21:46:14:653,0,-1.24163,-24.345,85.4808
2023-03-10 21:46:14:662,0,-1.19586,-24.7197,85.5304
2023-03-10 21:46:14:672,0,-1.14388,-25.0941,85.5747
2023-03-10 21:46:14:682,0,-1.08157,-25.4688,85.6083
2023-03-10 21:46:14:693,0,-1.01853,-25.846,85.6454
2023-03-10 21:46:14:703,0,-0.962316,-26.2302,85.6911
2023-03-10 21:46:14:713,0,-0.916842,-26.6212,85.7473
2023-03-10 21:46:14:723,0,-0.87791,-27.0145,85.8131
2023-03-10 21:46:14:733,0,-0.84156,-27.4136,85.8847
2023-03-10 21:46:14:743,0,-0.809006,-27.8126,85.96
2023-03-10 21:46:14:752,0,-0.778224,-28.2133,86.0421
2023-03-10 21:46:14:762,0,-0.739208,-28.6156,86.1226
2023-03-10 21:46:14:773,0,-0.690417,-29.016,86.2035
2023-03-10 21:46:14:783,1,-0.638501,-29.4189,86.2849
2023-03-10 21:46:14:792,1,-0.580607,-29.8221,86.3708
2023-03-10 21:46:14:802,1,-0.525899,-30.2288,86.4685
2023-03-10 21:46:14:812,1,-0.476779,-30.6376,86.5723
2023-03-10 21:46:14:823,1,-0.428322,-31.0511,86.6801
2023-03-10 21:46:14:833,1,-0.383131,-31.4691,86.793
2023-03-10 21:46:14:843,1,-0.329706,-31.8932,86.9016
2023-03-10 21:46:14:853,1,-0.279654,-32.3303,87.0186
2023-03-10 21:46:14:863,1,-0.228768,-32.7709,87.1423
2023-03-10 21:46:14:872,1,-0.181798,-33.2207,87.2667
2023-03-10 21:46:14:882,1,-0.132846,-33.6709,87.3899
2023-03-10 21:46:14:893,1,-0.0795643,-34.125,87.5021
2023-03-10 21:46:14:903,1,-0.0264219,-34.5827,87.6183
2023-03-10 21:46:14:912,1,0.0268,-35.041,87.7394
2023-03-10 21:46:14:923,1,0.074849,-35.5102,87.8653
2023-03-10 21:46:14:933,1,0.119286,-35.9882,87.9951
2023-03-10 21:46:14:943,1,0.162218,-36.4675,88.1298
2023-03-10 21:46:14:953,1,0.205199,-36.9474,88.2636
2023-03-10 21:46:14:962,1,0.250654,-37.4267,88.3944
2023-03-10 21:46:14:973,1,0.299091,-37.9112,88.5247
2023-03-10 21:46:14:982,1,0.341126,-38.3961,88.6576
2023-03-10 21:46:14:992,1,0.381222,-38.8844,88.8033
2023-03-10 21:46:15:3,1,0.409642,-39.3809,88.9642
2023-03-10 21:46:15:12,1,0.433005,-39.8853,89.1333
2023-03-10 21:46:15:22,1,0.455981,-40.4003,89.311
2023-03-10 21:46:15:32,1,0.473657,-40.9151,89.4952
2023-03-10 21:46:15:43,1,0.486414,-41.4161,89.6788
2023-03-10 21:46:15:53,1,0.505466,-41.9073,89.8515
2023-03-10 21:46:15:63,1,0.524501,-42.3928,90.024
2023-03-10 21:46:15:73,1,0.536457,-42.8787,90.1999
2023-03-10 21:46:15:83,1,0.54193,-43.3628,90.3784
2023-03-10 21:46:15:93,1,0.533586,-43.8486,90.5675
2023-03-10 21:46:15:102,1,0.521523,-44.3319,90.7594
2023-03-10 21:46:15:112,1,0.511633,-44.8165,90.9444
2023-03-10 21:46:15:123,1,0.508111,-45.2956,91.123
2023-03-10 21:46:15:133,1,0.516353,-45.7819,91.2821
2023-03-10 21:46:15:143,1,0.522823,-46.272,91.4256
2023-03-10 21:46:15:152,1,0.537394,-46.7572,91.5517
2023-03-10 21:46:15:162,1,0.562883,-47.2436,91.6645
2023-03-10 21:46:15:172,1,0.604479,-47.7269,91.7732
2023-03-10 21:46:15:182,1,0.639868,-48.2091,91.8953
2023-03-10 21:46:15:192,1,0.668957,-48.6914,92.0191
2023-03-10 21:46:15:202,1,0.680052,-49.1632,92.1426
2023-03-10 21:46:15:212,1,0.676311,-49.6301,92.263
2023-03-10 21:46:15:222,1,0.662908,-50.0868,92.3861
2023-03-10 21:46:15:232,1,0.639768,-50.5361,92.5205
2023-03-10 21:46:15:242,1,0.615575,-50.9754,92.6623
2023-03-10 21:46:15:252,1,0.599102,-51.4045,92.8079
2023-03-10 21:46:15:262,1,0.581317,-51.831,92.9702
2023-03-10 21:46:15:273,1,0.563913,-52.2498,93.1367
2023-03-10 21:46:15:282,1,0.546674,-52.66,93.3081
2023-03-10 21:46:15:292,1,0.530518,-53.0623,93.4794
2023-03-10 21:46:15:302,1,0.518473,-53.4585,93.6507
2023-03-10 21:46:15:313,1,0.500341,-53.8457,93.828
