Timestamp_cmd,imu_cmd,roll_delta,pitch_delta,yaw_delta
2023-03-11 21:09:18:316,0,-10.8232,1.20617,91.3418
2023-03-11 21:09:18:324,0,-10.8378,1.20052,91.3057
2023-03-11 21:09:18:334,0,-10.8511,1.1956,91.2696
2023-03-11 21:09:18:345,0,-10.8631,1.19188,91.2303
2023-03-11 21:09:18:355,0,-10.8774,1.19251,91.1869
2023-03-11 21:09:18:365,0,-10.8865,1.19454,91.147
2023-03-11 21:09:18:375,0,-10.8856,1.19389,91.1003
2023-03-11 21:09:18:385,0,-10.8777,1.1957,91.0538
2023-03-11 21:09:18:395,0,-10.8535,1.19702,91.0072
2023-03-11 21:09:18:405,0,-10.8236,1.19684,90.96
2023-03-11 21:09:18:415,0,-10.7945,1.19325,90.9153
2023-03-11 21:09:18:425,0,-10.767,1.19119,90.873
2023-03-11 21:09:18:435,0,-10.7399,1.18531,90.8315
2023-03-11 21:09:18:445,0,-10.7177,1.18157,90.7893
2023-03-11 21:09:18:455,0,-10.7,1.17396,90.7486
2023-03-11 21:09:18:465,0,-10.6837,1.16206,90.7118
2023-03-11 21:09:18:475,0,-10.6645,1.14657,90.6755
2023-03-11 21:09:18:485,0,-10.6512,1.13257,90.6435
2023-03-11 21:09:18:495,0,-10.643,1.11743,90.6124
2023-03-11 21:09:18:505,0,-10.6357,1.10658,90.5837
2023-03-11 21:09:18:515,0,-10.6267,1.0925,90.5588
2023-03-11 21:09:18:525,0,-10.6192,1.08043,90.5371
2023-03-11 21:09:18:535,0,-10.6145,1.07095,90.5189
2023-03-11 21:09:18:545,0,-10.6116,1.06306,90.4994
2023-03-11 21:09:18:555,0,-10.6065,1.06119,90.4826
2023-03-11 21:09:18:565,0,-10.5977,1.05984,90.4675
2023-03-11 21:09:18:575,0,-10.5901,1.06606,90.4536
2023-03-11 21:09:18:585,0,-10.5793,1.07395,90.4423
2023-03-11 21:09:18:595,0,-10.5659,1.08162,90.4317
2023-03-11 21:09:18:605,0,-10.5521,1.08898,90.4257
2023-03-11 21:09:18:615,0,-10.5362,1.0983,90.4193
2023-03-11 21:09:18:625,0,-10.524,1.1062,90.4119
2023-03-11 21:09:18:635,0,-10.5072,1.11487,90.4051
2023-03-11 21:09:18:645,0,-10.4902,1.12493,90.4019
2023-03-11 21:09:18:655,0,-10.4729,1.13465,90.3956
2023-03-11 21:09:18:665,0,-10.4537,1.14151,90.3907
2023-03-11 21:09:18:675,0,-10.4377,1.15149,90.3824
2023-03-11 21:09:18:684,0,-10.4229,1.15528,90.3775
2023-03-11 21:09:18:694,0,-10.4089,1.15959,90.3716
2023-03-11 21:09:18:704,0,-10.3994,1.16542,90.3714
2023-03-11 21:09:18:714,0,-10.3871,1.17096,90.3753
2023-03-11 21:09:18:724,0,-10.3794,1.1775,90.3703
2023-03-11 21:09:18:734,0,-10.374,1.18237,90.3677
2023-03-11 21:09:18:744,0,-10.3725,1.18851,90.366
2023-03-11 21:09:18:755,0,-10.3663,1.19755,90.3621
2023-03-11 21:09:18:765,0,-10.3553,1.20411,90.3595
2023-03-11 21:09:18:775,0,-10.3422,1.21337,90.3547
2023-03-11 21:09:18:785,0,-10.3312,1.22381,90.3506
2023-03-11 21:09:18:795,0,-10.3218,1.23421,90.3439
2023-03-11 21:09:18:805,0,-10.313,1.24319,90.3327
2023-03-11 21:09:18:815,0,-10.3078,1.25251,90.3209
2023-03-11 21:09:18:825,0,-10.3025,1.26594,90.3089
2023-03-11 21:09:18:835,0,-10.3044,1.27801,90.2935
2023-03-11 21:09:18:845,0,-10.3037,1.28543,90.2744
2023-03-11 21:09:18:855,0,-10.2993,1.2919,90.2573
2023-03-11 21:09:18:865,0,-10.2939,1.29696,90.2347
2023-03-11 21:09:18:875,0,-10.2913,1.30018,90.2168
2023-03-11 21:09:18:885,0,-10.2849,1.29988,90.1977
2023-03-11 21:09:18:895,0,-10.2846,1.29962,90.1784
2023-03-11 21:09:18:905,0,-10.281,1.30015,90.1615
2023-03-11 21:09:18:915,0,-10.2783,1.29291,90.1449
2023-03-11 21:09:18:925,0,-10.2731,1.27967,90.1314
2023-03-11 21:09:18:935,0,-10.2765,1.26584,90.1239
2023-03-11 21:09:18:945,0,-10.2818,1.25049,90.1234
2023-03-11 21:09:18:954,0,-10.2896,1.23237,90.1215
2023-03-11 21:09:18:964,0,-10.2976,1.21447,90.1225
2023-03-11 21:09:18:974,0,-10.3065,1.19614,90.1277
2023-03-11 21:09:18:984,0,-10.3101,1.17863,90.1314
2023-03-11 21:09:18:994,0,-10.3147,1.15753,90.1393
2023-03-11 21:09:19:4,0,-10.3162,1.13872,90.1486
2023-03-11 21:09:19:14,0,-10.3184,1.12138,90.1533
2023-03-11 21:09:19:24,0,-10.3159,1.1012,90.1603
2023-03-11 21:09:19:34,0,-10.3165,1.08882,90.1685
2023-03-11 21:09:19:44,0,-10.3175,1.07691,90.1747
2023-03-11 21:09:19:54,0,-10.3225,1.06416,90.1818
2023-03-11 21:09:19:64,0,-10.3296,1.05038,90.1907
2023-03-11 21:09:19:74,0,-10.3422,1.03603,90.1979
2023-03-11 21:09:19:85,0,-10.3535,1.02427,90.2038
2023-03-11 21:09:19:94,0,-10.364,1.01419,90.2103
2023-03-11 21:09:19:104,0,-10.3761,1.00145,90.218
2023-03-11 21:09:19:114,0,-10.388,0.990037,90.216
2023-03-11 21:09:19:124,0,-10.3996,0.984731,90.2147
2023-03-11 21:09:19:134,0,-10.4015,0.984316,90.2129
2023-03-11 21:09:19:144,0,-10.404,0.97709,90.2102
2023-03-11 21:09:19:155,0,-10.4055,0.970924,90.2089
2023-03-11 21:09:19:165,0,-10.4045,0.963859,90.2028
2023-03-11 21:09:19:175,0,-10.4045,0.964507,90.1946
2023-03-11 21:09:19:185,0,-10.4023,0.967086,90.1835
2023-03-11 21:09:19:195,0,-10.3969,0.972613,90.169
2023-03-11 21:09:19:205,0,-10.3927,0.981001,90.1541
2023-03-11 21:09:19:215,0,-10.3874,0.986594,90.1374
2023-03-11 21:09:19:225,0,-10.3797,0.989726,90.1197
2023-03-11 21:09:19:235,0,-10.3737,0.99427,90.101
2023-03-11 21:09:19:245,0,-10.3689,0.999538,90.08
2023-03-11 21:09:19:255,0,-10.3639,1.00365,90.0606
2023-03-11 21:09:19:265,0,-10.3574,1.00757,90.0445
2023-03-11 21:09:19:275,0,-10.3502,1.00506,90.0316
2023-03-11 21:09:19:285,0,-10.343,1.00414,90.0173
2023-03-11 21:09:19:295,0,-10.3354,1.00173,90.01
2023-03-11 21:09:19:305,0,-10.3304,0.995485,90.0014
2023-03-11 21:09:19:315,0,-10.3277,0.987093,90.0003
2023-03-11 21:09:19:325,0,-10.3257,0.978015,89.9999
2023-03-11 21:09:19:335,0,-10.3278,0.97107,90.0
2023-03-11 21:09:19:345,0,-10.334,0.963448,89.9996
2023-03-11 21:09:19:355,0,-10.3378,0.95799,89.9997
2023-03-11 21:09:19:365,0,-10.3454,0.951979,90.0057
2023-03-11 21:09:19:375,0,-10.3544,0.943784,90.006
2023-03-11 21:09:19:385,0,-10.3639,0.936637,90.0105
2023-03-11 21:09:19:395,0,-10.3747,0.92362,90.015
2023-03-11 21:09:19:405,0,-10.3846,0.914742,90.0213
2023-03-11 21:09:19:414,0,-10.3926,0.906849,90.0263
2023-03-11 21:09:19:425,0,-10.4019,0.901041,90.0309
2023-03-11 21:09:19:435,0,-10.4105,0.896547,90.0347
2023-03-11 21:09:19:444,0,-10.4188,0.896516,90.0346
2023-03-11 21:09:19:455,0,-10.4327,0.897014,90.0317
2023-03-11 21:09:19:465,0,-10.4546,0.904597,90.024
2023-03-11 21:09:19:475,0,-10.4778,0.914548,90.0107
2023-03-11 21:09:19:485,0,-10.501,0.925312,89.9923
2023-03-11 21:09:19:495,0,-10.5324,0.933784,89.9723
2023-03-11 21:09:19:505,0,-10.5656,0.941838,89.9492
2023-03-11 21:09:19:514,0,-10.599,0.950792,89.9266
2023-03-11 21:09:19:524,0,-10.6357,0.959997,89.9038
2023-03-11 21:09:19:534,0,-10.6796,0.967652,89.8837
2023-03-11 21:09:19:545,0,-10.7229,0.971602,89.8592
2023-03-11 21:09:19:555,0,-10.7676,0.973745,89.8387
2023-03-11 21:09:19:565,0,-10.8123,0.962784,89.8274
2023-03-11 21:09:19:575,0,-10.8553,0.945559,89.8184
2023-03-11 21:09:19:585,0,-10.8894,0.923683,89.8175
2023-03-11 21:09:19:595,0,-10.9165,0.895803,89.818
2023-03-11 21:09:19:605,0,-10.9381,0.866623,89.8205
2023-03-11 21:09:19:615,0,-10.9496,0.838566,89.825
2023-03-11 21:09:19:625,0,-10.9524,0.813018,89.8304
2023-03-11 21:09:19:635,0,-10.9424,0.785677,89.8356
2023-03-11 21:09:19:645,0,-10.9209,0.761633,89.8429
2023-03-11 21:09:19:655,0,-10.8936,0.746681,89.8471
2023-03-11 21:09:19:665,0,-10.8579,0.737446,89.8497
2023-03-11 21:09:19:675,0,-10.8197,0.742195,89.8518
2023-03-11 21:09:19:685,0,-10.7857,0.752307,89.8502
2023-03-11 21:09:19:695,0,-10.7638,0.772094,89.8412
2023-03-11 21:09:19:705,0,-10.7626,0.800026,89.8284
2023-03-11 21:09:19:715,0,-10.7795,0.832739,89.8066
2023-03-11 21:09:19:725,0,-10.8245,0.86946,89.7791
2023-03-11 21:09:19:735,0,-10.8944,0.895033,89.7483
2023-03-11 21:09:19:745,0,-10.991,0.914491,89.7129
2023-03-11 21:09:19:755,0,-11.1132,0.928294,89.6765
2023-03-11 21:09:19:765,0,-11.2512,0.945947,89.6408
2023-03-11 21:09:19:775,0,-11.3907,0.970696,89.611
2023-03-11 21:09:19:785,0,-11.5321,0.999679,89.586
2023-03-11 21:09:19:795,0,-11.6801,1.02312,89.567
2023-03-11 21:09:19:805,0,-11.8318,1.04625,89.5463
2023-03-11 21:09:19:815,0,-11.9877,1.06668,89.5264
2023-03-11 21:09:19:825,0,-12.1443,1.09103,89.5084
2023-03-11 21:09:19:835,0,-12.295,1.1171,89.4863
2023-03-11 21:09:19:845,0,-12.4425,1.14368,89.4698
2023-03-11 21:09:19:855,0,-12.5869,1.17343,89.4522
2023-03-11 21:09:19:865,0,-12.7298,1.19851,89.4304
2023-03-11 21:09:19:875,0,-12.8746,1.22798,89.4103
2023-03-11 21:09:19:885,0,-13.0172,1.24855,89.3889
2023-03-11 21:09:19:895,0,-13.1593,1.26267,89.3683
2023-03-11 21:09:19:905,0,-13.2883,1.26892,89.3466
2023-03-11 21:09:19:915,0,-13.405,1.26855,89.3263
2023-03-11 21:09:19:925,0,-13.4989,1.2687,89.3017
2023-03-11 21:09:19:935,0,-13.5736,1.27245,89.2769
2023-03-11 21:09:19:945,0,-13.6256,1.28234,89.2467
2023-03-11 21:09:19:955,0,-13.6683,1.29663,89.2116
2023-03-11 21:09:19:965,0,-13.709,1.31198,89.1761
2023-03-11 21:09:19:975,0,-13.7479,1.32463,89.1402
2023-03-11 21:09:19:985,0,-13.7898,1.32643,89.1043
2023-03-11 21:09:19:995,0,-13.8361,1.32161,89.0695
2023-03-11 21:09:20:5,0,-13.8772,1.31134,89.0362
2023-03-11 21:09:20:15,0,-13.9043,1.30161,89.0068
2023-03-11 21:09:20:25,0,-13.9123,1.30623,88.9768
2023-03-11 21:09:20:35,0,-13.9024,1.32026,88.9516
2023-03-11 21:09:20:45,0,-13.8788,1.35126,88.9207
2023-03-11 21:09:20:55,0,-13.854,1.37872,88.8932
2023-03-11 21:09:20:65,0,-13.8366,1.40864,88.8668
2023-03-11 21:09:20:75,0,-13.8309,1.43494,88.8499
2023-03-11 21:09:20:85,0,-13.8293,1.45352,88.8457
2023-03-11 21:09:20:95,0,-13.8283,1.46626,88.8527
2023-03-11 21:09:20:105,0,-13.8265,1.47516,88.8674
2023-03-11 21:09:20:115,0,-13.8203,1.48225,88.8805
2023-03-11 21:09:20:125,0,-13.8086,1.49319,88.8918
2023-03-11 21:09:20:135,0,-13.7927,1.51017,88.894
2023-03-11 21:09:20:145,0,-13.7727,1.52799,88.8865
2023-03-11 21:09:20:155,0,-13.7481,1.5487,88.8701
2023-03-11 21:09:20:165,0,-13.7231,1.56856,88.8458
2023-03-11 21:09:20:175,0,-13.6957,1.57709,88.8214
2023-03-11 21:09:20:185,0,-13.6609,1.58692,88.7901
2023-03-11 21:09:20:195,0,-13.6256,1.59368,88.7617
2023-03-11 21:09:20:205,0,-13.5933,1.59736,88.7288
2023-03-11 21:09:20:215,0,-13.5689,1.6028,88.693
2023-03-11 21:09:20:225,0,-13.5368,1.61424,88.657
2023-03-11 21:09:20:235,0,-13.4986,1.62021,88.6219
2023-03-11 21:09:20:245,0,-13.4517,1.62495,88.5875
2023-03-11 21:09:20:255,0,-13.4015,1.62936,88.5538
2023-03-11 21:09:20:265,0,-13.3433,1.62763,88.5229
2023-03-11 21:09:20:275,0,-13.2795,1.62583,88.4949
2023-03-11 21:09:20:285,0,-13.2127,1.62137,88.4698
2023-03-11 21:09:20:295,0,-13.141,1.61872,88.4469
2023-03-11 21:09:20:305,0,-13.068,1.61655,88.4204
2023-03-11 21:09:20:315,0,-12.9984,1.61422,88.4004
2023-03-11 21:09:20:325,0,-12.9259,1.61105,88.3799
2023-03-11 21:09:20:335,0,-12.8602,1.60987,88.3628
2023-03-11 21:09:20:345,0,-12.7981,1.60902,88.348
2023-03-11 21:09:20:355,0,-12.731,1.60627,88.3319
2023-03-11 21:09:20:365,0,-12.6713,1.60485,88.3144
2023-03-11 21:09:20:375,0,-12.6051,1.60001,88.2937
2023-03-11 21:09:20:385,0,-12.5346,1.59439,88.2714
2023-03-11 21:09:20:395,0,-12.4645,1.58878,88.2449
2023-03-11 21:09:20:405,0,-12.3949,1.5756,88.2142
2023-03-11 21:09:20:415,0,-12.3321,1.56041,88.1826
2023-03-11 21:09:20:425,0,-12.2681,1.54038,88.1506
2023-03-11 21:09:20:435,0,-12.2099,1.52597,88.1135
2023-03-11 21:09:20:445,0,-12.1516,1.51058,88.0761
2023-03-11 21:09:20:455,0,-12.0939,1.49433,88.0414
2023-03-11 21:09:20:465,0,-12.0368,1.47532,88.0057
2023-03-11 21:09:20:475,0,-11.9722,1.45303,87.9746
2023-03-11 21:09:20:485,0,-11.8971,1.4349,87.9421
2023-03-11 21:09:20:495,0,-11.8196,1.42047,87.9131
2023-03-11 21:09:20:505,0,-11.7386,1.41123,87.8856
2023-03-11 21:09:20:515,0,-11.6578,1.40924,87.8592
2023-03-11 21:09:20:525,0,-11.5823,1.40124,87.8426
2023-03-11 21:09:20:535,0,-11.5046,1.40048,87.8379
2023-03-11 21:09:20:545,0,-11.4204,1.38842,87.847
2023-03-11 21:09:20:555,0,-11.3399,1.38131,87.8718
2023-03-11 21:09:20:565,0,-11.2631,1.3833,87.8993
2023-03-11 21:09:20:575,0,-11.1937,1.388,87.9256
2023-03-11 21:09:20:585,0,-11.1355,1.39869,87.9439
2023-03-11 21:09:20:595,0,-11.0911,1.40568,87.9613
2023-03-11 21:09:20:605,0,-11.0637,1.40778,87.973
2023-03-11 21:09:20:615,0,-11.0422,1.41222,87.9764
2023-03-11 21:09:20:625,0,-11.0291,1.40911,87.9729
2023-03-11 21:09:20:635,0,-11.0239,1.40113,87.9661
2023-03-11 21:09:20:645,0,-11.0218,1.38829,87.952
2023-03-11 21:09:20:655,0,-11.0303,1.36829,87.9346
2023-03-11 21:09:20:665,0,-11.0352,1.34632,87.9172
2023-03-11 21:09:20:675,0,-11.0419,1.32261,87.8963
2023-03-11 21:09:20:685,0,-11.043,1.29371,87.8755
2023-03-11 21:09:20:695,0,-11.0411,1.2629,87.8611
2023-03-11 21:09:20:705,0,-11.0346,1.23342,87.8498
2023-03-11 21:09:20:714,0,-11.0304,1.20426,87.8428
2023-03-11 21:09:20:725,0,-11.0277,1.17501,87.8397
2023-03-11 21:09:20:735,0,-11.0232,1.14821,87.8409
2023-03-11 21:09:20:745,0,-11.0171,1.12432,87.8467
2023-03-11 21:09:20:755,0,-11.0037,1.10262,87.854
2023-03-11 21:09:20:765,0,-10.987,1.08391,87.8656
2023-03-11 21:09:20:775,0,-10.9714,1.0689,87.8717
2023-03-11 21:09:20:785,0,-10.9613,1.05181,87.8771
2023-03-11 21:09:20:795,0,-10.96,1.03293,87.8765
2023-03-11 21:09:20:805,0,-10.9597,1.02125,87.8717
2023-03-11 21:09:20:815,0,-10.9623,1.00584,87.8696
2023-03-11 21:09:20:825,0,-10.9621,0.994139,87.8651
2023-03-11 21:09:20:835,0,-10.9615,0.988749,87.8593
2023-03-11 21:09:20:845,0,-10.9525,0.980371,87.8566
2023-03-11 21:09:20:855,0,-10.9398,0.970619,87.856
2023-03-11 21:09:20:865,0,-10.9234,0.955546,87.8602
2023-03-11 21:09:20:875,0,-10.9126,0.938559,87.8667
2023-03-11 21:09:20:885,0,-10.9008,0.922824,87.8847
2023-03-11 21:09:20:895,0,-10.8932,0.905494,87.9062
2023-03-11 21:09:20:905,0,-10.8823,0.889807,87.9318
2023-03-11 21:09:20:915,0,-10.8722,0.870973,87.9637
2023-03-11 21:09:20:925,0,-10.8608,0.854246,87.9953
2023-03-11 21:09:20:935,0,-10.8521,0.838717,88.0257
2023-03-11 21:09:20:945,0,-10.8392,0.820871,88.0558
2023-03-11 21:09:20:955,0,-10.8175,0.800785,88.0884
2023-03-11 21:09:20:965,0,-10.7935,0.771701,88.1216
2023-03-11 21:09:20:975,0,-10.7703,0.736216,88.1585
2023-03-11 21:09:20:985,0,-10.7577,0.699476,88.1961
2023-03-11 21:09:20:995,0,-10.7559,0.661704,88.2339
2023-03-11 21:09:21:5,0,-10.7671,0.630206,88.2732
2023-03-11 21:09:21:15,0,-10.7757,0.609137,88.3079
2023-03-11 21:09:21:25,0,-10.7821,0.586607,88.3373
2023-03-11 21:09:21:35,0,-10.7835,0.563823,88.3588
2023-03-11 21:09:21:45,0,-10.7755,0.540361,88.3683
2023-03-11 21:09:21:55,0,-10.768,0.520786,88.3692
2023-03-11 21:09:21:65,0,-10.756,0.504283,88.3559
2023-03-11 21:09:21:75,0,-10.7406,0.497805,88.3322
2023-03-11 21:09:21:85,0,-10.7279,0.495012,88.3053
2023-03-11 21:09:21:95,0,-10.7199,0.49794,88.2725
2023-03-11 21:09:21:105,0,-10.7174,0.503406,88.2393
2023-03-11 21:09:21:115,0,-10.7256,0.513933,88.2033
2023-03-11 21:09:21:125,0,-10.7369,0.525208,88.1706
2023-03-11 21:09:21:135,0,-10.7524,0.537418,88.1425
2023-03-11 21:09:21:145,0,-10.7673,0.550104,88.1228
2023-03-11 21:09:21:155,0,-10.7823,0.562349,88.1024
2023-03-11 21:09:21:165,0,-10.7908,0.577719,88.0882
2023-03-11 21:09:21:175,0,-10.8024,0.591972,88.0761
2023-03-11 21:09:21:185,0,-10.8149,0.606873,88.0663
2023-03-11 21:09:21:195,0,-10.8253,0.615879,88.0588
2023-03-11 21:09:21:205,0,-10.8362,0.614674,88.0541
2023-03-11 21:09:21:215,0,-10.8436,0.615123,88.05
2023-03-11 21:09:21:225,0,-10.8523,0.611077,88.0458
2023-03-11 21:09:21:235,0,-10.8608,0.608651,88.0422
2023-03-11 21:09:21:245,0,-10.8672,0.602929,88.0348
2023-03-11 21:09:21:255,0,-10.8687,0.592389,88.0289
2023-03-11 21:09:21:265,0,-10.8705,0.581358,88.0259
2023-03-11 21:09:21:275,0,-10.866,0.5689,88.0181
2023-03-11 21:09:21:285,0,-10.8533,0.557134,88.0118
2023-03-11 21:09:21:295,0,-10.8442,0.541466,88.0057
2023-03-11 21:09:21:305,0,-10.838,0.524594,88.0023
2023-03-11 21:09:21:315,0,-10.8289,0.508885,87.9984
2023-03-11 21:09:21:325,0,-10.8186,0.493807,87.9974
2023-03-11 21:09:21:335,0,-10.8041,0.482307,87.9958
2023-03-11 21:09:21:345,0,-10.7877,0.469306,87.9962
2023-03-11 21:09:21:355,0,-10.7703,0.457322,87.9972
2023-03-11 21:09:21:365,0,-10.7574,0.445834,87.9971
2023-03-11 21:09:21:375,0,-10.7397,0.439672,87.9926
2023-03-11 21:09:21:385,0,-10.7258,0.434211,87.9851
2023-03-11 21:09:21:395,0,-10.711,0.426766,87.9827
2023-03-11 21:09:21:405,0,-10.6967,0.41856,87.9787
2023-03-11 21:09:21:415,0,-10.6835,0.409084,87.9742
2023-03-11 21:09:21:425,0,-10.6715,0.400476,87.976
2023-03-11 21:09:21:435,0,-10.6644,0.397594,87.9719
2023-03-11 21:09:21:445,0,-10.6635,0.390881,87.968
2023-03-11 21:09:21:455,0,-10.6662,0.383815,87.9677
2023-03-11 21:09:21:465,0,-10.672,0.373926,87.9682
2023-03-11 21:09:21:475,0,-10.6752,0.363959,87.9694
2023-03-11 21:09:21:485,0,-10.6802,0.356278,87.9705
2023-03-11 21:09:21:495,0,-10.6855,0.345093,87.9749
2023-03-11 21:09:21:505,0,-10.6916,0.334767,87.9776
2023-03-11 21:09:21:515,0,-10.6943,0.324562,87.9839
2023-03-11 21:09:21:525,0,-10.6992,0.314267,87.9906
2023-03-11 21:09:21:535,0,-10.7045,0.308493,87.9982
2023-03-11 21:09:21:545,0,-10.7156,0.305265,88.005
2023-03-11 21:09:21:555,0,-10.7278,0.300545,88.0148
2023-03-11 21:09:21:565,0,-10.7394,0.297343,88.0237
2023-03-11 21:09:21:575,0,-10.753,0.294647,88.0352
2023-03-11 21:09:21:585,0,-10.7637,0.296259,88.0485
2023-03-11 21:09:21:595,0,-10.7706,0.301133,88.0593
2023-03-11 21:09:21:605,0,-10.7765,0.307755,88.0681
2023-03-11 21:09:21:615,0,-10.779,0.317852,88.0742
2023-03-11 21:09:21:625,0,-10.7756,0.326504,88.0749
2023-03-11 21:09:21:635,0,-10.7713,0.336565,88.0715
2023-03-11 21:09:21:645,0,-10.7641,0.346369,88.0635
2023-03-11 21:09:21:655,0,-10.7614,0.355193,88.0482
2023-03-11 21:09:21:665,0,-10.7648,0.364068,88.0358
2023-03-11 21:09:21:675,0,-10.7646,0.373366,88.0178
2023-03-11 21:09:21:685,0,-10.7594,0.376316,88.0046
2023-03-11 21:09:21:695,0,-10.7446,0.375425,87.9944
2023-03-11 21:09:21:705,0,-10.7276,0.371715,87.9909
2023-03-11 21:09:21:715,0,-10.7185,0.361121,87.9895
2023-03-11 21:09:21:725,0,-10.7085,0.356556,87.9895
2023-03-11 21:09:21:735,0,-10.699,0.353028,87.9937
2023-03-11 21:09:21:745,0,-10.688,0.348621,88.0013
2023-03-11 21:09:21:755,0,-10.6787,0.33967,88.0144
2023-03-11 21:09:21:764,0,-10.6652,0.331122,88.0256
2023-03-11 21:09:21:775,0,-10.651,0.320666,88.0407
2023-03-11 21:09:21:785,0,-10.6342,0.314343,88.0572
2023-03-11 21:09:21:795,0,-10.6153,0.310673,88.0768
2023-03-11 21:09:21:805,0,-10.5934,0.303896,88.0902
2023-03-11 21:09:21:815,0,-10.5711,0.299013,88.0994
2023-03-11 21:09:21:825,0,-10.5462,0.293972,88.1019
2023-03-11 21:09:21:835,0,-10.5233,0.289551,88.1001
2023-03-11 21:09:21:845,0,-10.4967,0.288347,88.0941
2023-03-11 21:09:21:855,0,-10.477,0.291411,88.0887
2023-03-11 21:09:21:865,0,-10.4647,0.2901,88.0818
2023-03-11 21:09:21:875,0,-10.4629,0.286158,88.0811
2023-03-11 21:09:21:885,0,-10.4609,0.27103,88.0865
2023-03-11 21:09:21:895,0,-10.4562,0.252185,88.1022
2023-03-11 21:09:21:905,0,-10.4398,0.232946,88.1199
2023-03-11 21:09:21:915,0,-10.4213,0.211068,88.1391
2023-03-11 21:09:21:925,0,-10.4033,0.186905,88.1505
2023-03-11 21:09:21:935,0,-10.3872,0.163108,88.1573
2023-03-11 21:09:21:945,0,-10.3878,0.14121,88.157
2023-03-11 21:09:21:955,0,-10.3987,0.124105,88.1419
2023-03-11 21:09:21:965,0,-10.4191,0.115357,88.1217
2023-03-11 21:09:21:975,0,-10.4451,0.11685,88.0922
2023-03-11 21:09:21:985,0,-10.4651,0.118051,88.0649
2023-03-11 21:09:21:995,0,-10.4667,0.1161,88.0388
2023-03-11 21:09:22:5,0,-10.4425,0.115158,88.025
2023-03-11 21:09:22:15,0,-10.3953,0.112376,88.0267
2023-03-11 21:09:22:25,0,-10.3443,0.107566,88.0389
2023-03-11 21:09:22:35,0,-10.3,0.111709,88.0654
2023-03-11 21:09:22:45,0,-10.2691,0.125567,88.0982
2023-03-11 21:09:22:55,0,-10.2484,0.148365,88.1357
2023-03-11 21:09:22:65,0,-10.2341,0.173428,88.1851
2023-03-11 21:09:22:75,0,-10.2252,0.188382,88.2421
2023-03-11 21:09:22:85,0,-10.2222,0.198028,88.303
2023-03-11 21:09:22:95,0,-10.2195,0.203502,88.3682
2023-03-11 21:09:22:105,0,-10.2108,0.20472,88.4301
2023-03-11 21:09:22:115,0,-10.1815,0.202192,88.4875
2023-03-11 21:09:22:125,0,-10.1457,0.204881,88.5355
2023-03-11 21:09:22:135,0,-10.1045,0.215267,88.5677
2023-03-11 21:09:22:145,0,-10.0702,0.228227,88.5878
2023-03-11 21:09:22:155,0,-10.0459,0.237314,88.5959
2023-03-11 21:09:22:165,0,-10.0305,0.243281,88.5927
2023-03-11 21:09:22:175,0,-10.0246,0.24893,88.5765
2023-03-11 21:09:22:185,0,-10.0218,0.258854,88.5453
2023-03-11 21:09:22:195,0,-10.0275,0.271007,88.497
2023-03-11 21:09:22:205,0,-10.0349,0.28244,88.4356
2023-03-11 21:09:22:215,0,-10.0471,0.292453,88.3632
2023-03-11 21:09:22:225,0,-10.0697,0.292648,88.2828
2023-03-11 21:09:22:235,0,-10.0943,0.2886,88.1994
2023-03-11 21:09:22:245,0,-10.1173,0.274215,88.1174
2023-03-11 21:09:22:254,0,-10.1365,0.254969,88.0387
2023-03-11 21:09:22:265,0,-10.1598,0.231455,87.9573
2023-03-11 21:09:22:275,0,-10.1913,0.208656,87.8795
2023-03-11 21:09:22:285,0,-10.2279,0.182932,87.8054
2023-03-11 21:09:22:295,0,-10.2614,0.148041,87.7417
2023-03-11 21:09:22:305,0,-10.2966,0.112322,87.6862
2023-03-11 21:09:22:315,0,-10.333,0.0774733,87.6429
2023-03-11 21:09:22:325,0,-10.3737,0.0428603,87.6124
2023-03-11 21:09:22:335,0,-10.4161,0.0108947,87.5953
2023-03-11 21:09:22:345,0,-10.4527,-0.0178877,87.5911
2023-03-11 21:09:22:355,0,-10.4787,-0.0396866,87.5929
2023-03-11 21:09:22:365,0,-10.4878,-0.0547466,87.6078
2023-03-11 21:09:22:375,0,-10.4917,-0.056833,87.6251
2023-03-11 21:09:22:385,0,-10.4933,-0.0659179,87.6517
2023-03-11 21:09:22:395,0,-10.5121,-0.0837929,87.6827
2023-03-11 21:09:22:405,0,-10.5343,-0.0794112,87.722
2023-03-11 21:09:22:415,0,-10.5446,-0.08017,87.7598
2023-03-11 21:09:22:425,0,-10.5467,-0.095532,87.7954
2023-03-11 21:09:22:435,0,-10.5511,-0.117314,87.8337
2023-03-11 21:09:22:445,0,-10.5463,-0.128281,87.8781
2023-03-11 21:09:22:455,0,-10.5246,-0.1422,87.9168
2023-03-11 21:09:22:465,0,-10.4951,-0.170222,87.9483
2023-03-11 21:09:22:475,0,-10.4745,-0.204928,87.9774
2023-03-11 21:09:22:485,0,-10.4673,-0.240716,88.005
2023-03-11 21:09:22:495,0,-10.4693,-0.277189,88.0233
2023-03-11 21:09:22:505,0,-10.4769,-0.316912,88.0272
2023-03-11 21:09:22:515,0,-10.492,-0.351873,88.0163
2023-03-11 21:09:22:525,0,-10.5081,-0.374054,87.9899
2023-03-11 21:09:22:535,0,-10.5232,-0.389705,87.95
2023-03-11 21:09:22:545,0,-10.5273,-0.399913,87.903
2023-03-11 21:09:22:555,0,-10.5178,-0.401761,87.862
2023-03-11 21:09:22:565,0,-10.4971,-0.403843,87.8351
2023-03-11 21:09:22:575,0,-10.4699,-0.410302,87.8179
2023-03-11 21:09:22:585,0,-10.4464,-0.419282,87.812
2023-03-11 21:09:22:595,0,-10.43,-0.43106,87.8119
2023-03-11 21:09:22:605,0,-10.4219,-0.43804,87.8184
2023-03-11 21:09:22:615,0,-10.4181,-0.436783,87.8309
2023-03-11 21:09:22:625,0,-10.4098,-0.433637,87.8474
2023-03-11 21:09:22:635,0,-10.3986,-0.42121,87.8725
2023-03-11 21:09:22:645,0,-10.3799,-0.410202,87.9011
2023-03-11 21:09:22:655,0,-10.3606,-0.40476,87.9347
2023-03-11 21:09:22:665,0,-10.3452,-0.400151,87.977
2023-03-11 21:09:22:675,0,-10.3359,-0.390441,88.0183
2023-03-11 21:09:22:685,0,-10.3308,-0.379132,88.0655
2023-03-11 21:09:22:695,0,-10.3347,-0.36644,88.1143
2023-03-11 21:09:22:705,0,-10.3458,-0.358372,88.1595
2023-03-11 21:09:22:715,0,-10.3619,-0.350692,88.1955
2023-03-11 21:09:22:725,0,-10.3802,-0.340405,88.2238
2023-03-11 21:09:22:735,0,-10.3986,-0.32492,88.2446
2023-03-11 21:09:22:745,0,-10.41,-0.301282,88.2644
2023-03-11 21:09:22:755,0,-10.4128,-0.272351,88.2805
2023-03-11 21:09:22:765,0,-10.4116,-0.247966,88.2919
2023-03-11 21:09:22:775,0,-10.4141,-0.229793,88.3019
2023-03-11 21:09:22:785,0,-10.4139,-0.217196,88.3103
2023-03-11 21:09:22:795,0,-10.4132,-0.208448,88.3218
2023-03-11 21:09:22:805,0,-10.4136,-0.19678,88.3338
2023-03-11 21:09:22:815,0,-10.4125,-0.177974,88.3373
2023-03-11 21:09:22:825,0,-10.3909,-0.150715,88.3402
2023-03-11 21:09:22:835,0,-10.3502,-0.116807,88.3468
2023-03-11 21:09:22:845,0,-10.2968,-0.0947748,88.3515
2023-03-11 21:09:22:855,0,-10.2359,-0.0832218,88.3665
2023-03-11 21:09:22:865,0,-10.1696,-0.0760221,88.3893
2023-03-11 21:09:22:875,0,-10.1066,-0.0788303,88.4163
2023-03-11 21:09:22:885,0,-10.0448,-0.0798377,88.4481
2023-03-11 21:09:22:895,0,-9.99326,-0.0948989,88.484
2023-03-11 21:09:22:905,0,-9.94437,-0.115886,88.5215
2023-03-11 21:09:22:915,0,-9.89978,-0.145022,88.5614
2023-03-11 21:09:22:925,0,-9.85848,-0.18191,88.6124
2023-03-11 21:09:22:935,0,-9.81641,-0.225325,88.6672
2023-03-11 21:09:22:945,0,-9.78304,-0.276684,88.7186
2023-03-11 21:09:22:955,0,-9.75561,-0.334365,88.7687
2023-03-11 21:09:22:965,0,-9.73108,-0.399518,88.8149
2023-03-11 21:09:22:975,0,-9.70286,-0.465492,88.8593
2023-03-11 21:09:22:985,0,-9.67662,-0.530826,88.9004
2023-03-11 21:09:22:995,0,-9.65652,-0.592122,88.939
2023-03-11 21:09:23:5,0,-9.63807,-0.648915,88.9727
2023-03-11 21:09:23:15,0,-9.63092,-0.702965,89.0081
2023-03-11 21:09:23:25,0,-9.6335,-0.751448,89.0389
2023-03-11 21:09:23:35,0,-9.64499,-0.80141,89.0722
2023-03-11 21:09:23:45,0,-9.66109,-0.847403,89.1021
2023-03-11 21:09:23:55,0,-9.68302,-0.886393,89.1283
2023-03-11 21:09:23:65,0,-9.70202,-0.917238,89.1488
2023-03-11 21:09:23:75,0,-9.7223,-0.937512,89.1597
2023-03-11 21:09:23:85,0,-9.74284,-0.949235,89.1667
2023-03-11 21:09:23:95,0,-9.75896,-0.957471,89.162
2023-03-11 21:09:23:105,0,-9.76789,-0.965785,89.1581
2023-03-11 21:09:23:115,0,-9.77097,-0.978886,89.1583
2023-03-11 21:09:23:125,0,-9.76795,-1.00439,89.1559
2023-03-11 21:09:23:135,0,-9.76199,-1.04009,89.1542
2023-03-11 21:09:23:145,0,-9.75556,-1.07703,89.1551
2023-03-11 21:09:23:155,0,-9.74462,-1.11197,89.1543
2023-03-11 21:09:23:165,0,-9.72751,-1.14319,89.1496
2023-03-11 21:09:23:175,0,-9.70755,-1.16889,89.148
2023-03-11 21:09:23:185,0,-9.69063,-1.18916,89.1532
2023-03-11 21:09:23:195,0,-9.68167,-1.20721,89.1705
2023-03-11 21:09:23:205,0,-9.67915,-1.2253,89.1958
2023-03-11 21:09:23:215,0,-9.68797,-1.24258,89.2309
2023-03-11 21:09:23:225,0,-9.70317,-1.2593,89.2739
2023-03-11 21:09:23:235,0,-9.71734,-1.27825,89.3205
2023-03-11 21:09:23:245,0,-9.72874,-1.29809,89.3712
2023-03-11 21:09:23:255,0,-9.73059,-1.32059,89.4196
2023-03-11 21:09:23:265,0,-9.72487,-1.34333,89.4611
2023-03-11 21:09:23:275,0,-9.70652,-1.36318,89.492
2023-03-11 21:09:23:285,0,-9.67881,-1.3811,89.5206
2023-03-11 21:09:23:295,0,-9.64301,-1.39768,89.5428
2023-03-11 21:09:23:305,0,-9.60814,-1.41303,89.5538
2023-03-11 21:09:23:315,0,-9.57207,-1.42545,89.5589
2023-03-11 21:09:23:325,0,-9.54716,-1.4391,89.5613
2023-03-11 21:09:23:335,0,-9.54168,-1.44787,89.5581
2023-03-11 21:09:23:345,0,-9.54091,-1.45628,89.5555
2023-03-11 21:09:23:355,0,-9.5394,-1.45878,89.5503
2023-03-11 21:09:23:365,0,-9.54034,-1.46448,89.5466
2023-03-11 21:09:23:375,0,-9.54669,-1.46234,89.5412
2023-03-11 21:09:23:385,0,-9.55945,-1.45367,89.5363
2023-03-11 21:09:23:395,0,-9.58272,-1.43978,89.5292
2023-03-11 21:09:23:405,0,-9.61296,-1.42481,89.5246
2023-03-11 21:09:23:415,0,-9.64704,-1.40838,89.5227
2023-03-11 21:09:23:425,0,-9.67962,-1.39026,89.5249
2023-03-11 21:09:23:435,0,-9.70793,-1.36115,89.5235
2023-03-11 21:09:23:445,0,-9.7356,-1.3249,89.5217
2023-03-11 21:09:23:455,0,-9.77201,-1.27774,89.5171
2023-03-11 21:09:23:465,0,-9.81745,-1.22657,89.509
2023-03-11 21:09:23:475,0,-9.86703,-1.17217,89.4994
2023-03-11 21:09:23:485,0,-9.91744,-1.11793,89.4907
2023-03-11 21:09:23:495,0,-9.96831,-1.06543,89.4822
2023-03-11 21:09:23:505,0,-10.0144,-1.02256,89.4741
2023-03-11 21:09:23:515,0,-10.0477,-0.994197,89.4647
2023-03-11 21:09:23:525,0,-10.0757,-0.97429,89.4543
2023-03-11 21:09:23:535,0,-10.0974,-0.959946,89.4355
2023-03-11 21:09:23:545,0,-10.1096,-0.94657,89.4122
2023-03-11 21:09:23:555,0,-10.1201,-0.942062,89.3779
2023-03-11 21:09:23:565,0,-10.1322,-0.933369,89.3302
2023-03-11 21:09:23:575,0,-10.1528,-0.934548,89.2762
2023-03-11 21:09:23:585,0,-10.1859,-0.941326,89.2151
2023-03-11 21:09:23:595,0,-10.2288,-0.956741,89.1497
2023-03-11 21:09:23:605,0,-10.2696,-0.984527,89.0785
2023-03-11 21:09:23:615,0,-10.3054,-1.01504,89.0044
2023-03-11 21:09:23:625,0,-10.3337,-1.05189,88.9277
2023-03-11 21:09:23:635,0,-10.3546,-1.08527,88.8505
2023-03-11 21:09:23:645,0,-10.3685,-1.11841,88.7744
2023-03-11 21:09:23:655,0,-10.3832,-1.15075,88.7035
2023-03-11 21:09:23:665,0,-10.3986,-1.1832,88.6368
2023-03-11 21:09:23:675,0,-10.4207,-1.20874,88.573
2023-03-11 21:09:23:685,0,-10.4453,-1.22665,88.5182
2023-03-11 21:09:23:695,0,-10.4769,-1.24746,88.4712
2023-03-11 21:09:23:705,0,-10.5164,-1.26821,88.4311
2023-03-11 21:09:23:715,0,-10.55,-1.28533,88.397
2023-03-11 21:09:23:725,0,-10.5785,-1.30282,88.3642
2023-03-11 21:09:23:735,0,-10.6033,-1.31155,88.3314
2023-03-11 21:09:23:745,0,-10.6179,-1.31601,88.296
2023-03-11 21:09:23:755,0,-10.6345,-1.31744,88.2554
2023-03-11 21:09:23:765,0,-10.6595,-1.31733,88.2095
2023-03-11 21:09:23:775,0,-10.6894,-1.32015,88.1632
2023-03-11 21:09:23:785,0,-10.7313,-1.32688,88.1112
2023-03-11 21:09:23:795,0,-10.7913,-1.34279,88.0596
2023-03-11 21:09:23:805,0,-10.8651,-1.36359,88.0122
2023-03-11 21:09:23:815,0,-10.9466,-1.38922,87.9718
2023-03-11 21:09:23:825,0,-11.0309,-1.41655,87.9388
2023-03-11 21:09:23:835,0,-11.1167,-1.44682,87.9114
2023-03-11 21:09:23:845,0,-11.2007,-1.47565,87.8938
2023-03-11 21:09:23:855,0,-11.268,-1.49722,87.8786
2023-03-11 21:09:23:865,0,-11.3195,-1.5137,87.862
2023-03-11 21:09:23:875,0,-11.3567,-1.5186,87.8391
2023-03-11 21:09:23:885,0,-11.3749,-1.51196,87.8108
2023-03-11 21:09:23:895,0,-11.3761,-1.50526,87.7712
2023-03-11 21:09:23:905,0,-11.3686,-1.4997,87.7244
2023-03-11 21:09:23:915,0,-11.3595,-1.49273,87.6706
2023-03-11 21:09:23:925,0,-11.357,-1.49363,87.6156
2023-03-11 21:09:23:935,0,-11.3622,-1.50152,87.5563
2023-03-11 21:09:23:945,0,-11.3747,-1.50888,87.4956
2023-03-11 21:09:23:955,0,-11.3831,-1.52023,87.4363
2023-03-11 21:09:23:965,0,-11.3881,-1.52414,87.3825
2023-03-11 21:09:23:975,0,-11.3902,-1.52362,87.3289
2023-03-11 21:09:23:985,0,-11.3817,-1.51618,87.2841
2023-03-11 21:09:23:995,0,-11.3622,-1.50384,87.2465
2023-03-11 21:09:24:5,0,-11.3382,-1.48593,87.2236
2023-03-11 21:09:24:15,0,-11.3138,-1.46532,87.2013
2023-03-11 21:09:24:25,0,-11.293,-1.43952,87.1939
2023-03-11 21:09:24:35,0,-11.274,-1.41025,87.1918
2023-03-11 21:09:24:45,0,-11.2592,-1.38377,87.1917
2023-03-11 21:09:24:55,0,-11.2424,-1.35625,87.191
2023-03-11 21:09:24:65,0,-11.2196,-1.33299,87.1906
2023-03-11 21:09:24:75,0,-11.1962,-1.31743,87.1888
2023-03-11 21:09:24:85,0,-11.1728,-1.30767,87.186
2023-03-11 21:09:24:95,0,-11.1469,-1.30367,87.1836
2023-03-11 21:09:24:105,0,-11.1234,-1.29888,87.1785
2023-03-11 21:09:24:115,0,-11.0939,-1.29142,87.1619
2023-03-11 21:09:24:125,0,-11.0617,-1.2898,87.1442
2023-03-11 21:09:24:135,0,-11.0245,-1.29031,87.1237
2023-03-11 21:09:24:145,0,-10.9828,-1.29792,87.1047
2023-03-11 21:09:24:155,0,-10.9347,-1.30061,87.0856
2023-03-11 21:09:24:165,0,-10.8852,-1.30019,87.0668
2023-03-11 21:09:24:175,0,-10.8403,-1.29704,87.0506
2023-03-11 21:09:24:185,0,-10.8055,-1.28936,87.034
2023-03-11 21:09:24:195,0,-10.7783,-1.27757,87.0174
2023-03-11 21:09:24:205,0,-10.7574,-1.26747,87.0038
2023-03-11 21:09:24:215,0,-10.732,-1.2595,86.9937
2023-03-11 21:09:24:225,0,-10.7019,-1.24809,86.9815
2023-03-11 21:09:24:235,0,-10.6668,-1.24288,86.9714
2023-03-11 21:09:24:245,0,-10.6287,-1.243,86.9649
2023-03-11 21:09:24:255,0,-10.5943,-1.24311,86.9641
2023-03-11 21:09:24:265,0,-10.5665,-1.23953,86.9638
2023-03-11 21:09:24:275,0,-10.5406,-1.23214,86.963
2023-03-11 21:09:24:285,0,-10.527,-1.22588,86.9643
2023-03-11 21:09:24:295,0,-10.5177,-1.2192,86.9657
2023-03-11 21:09:24:305,0,-10.5121,-1.21895,86.9649
2023-03-11 21:09:24:315,0,-10.5091,-1.22365,86.9629
2023-03-11 21:09:24:325,0,-10.4996,-1.22754,86.9619
2023-03-11 21:09:24:335,0,-10.4915,-1.23819,86.9526
2023-03-11 21:09:24:345,0,-10.4894,-1.25075,86.9413
2023-03-11 21:09:24:355,0,-10.4975,-1.27178,86.9282
2023-03-11 21:09:24:365,0,-10.5033,-1.29627,86.9134
2023-03-11 21:09:24:375,0,-10.5176,-1.32497,86.8965
2023-03-11 21:09:24:385,0,-10.5389,-1.35573,86.8785
2023-03-11 21:09:24:395,0,-10.5668,-1.39018,86.859
2023-03-11 21:09:24:405,0,-10.6028,-1.42632,86.8422
2023-03-11 21:09:24:415,0,-10.6305,-1.46063,86.8243
2023-03-11 21:09:24:425,0,-10.6406,-1.49245,86.8125
2023-03-11 21:09:24:435,0,-10.6408,-1.52106,86.8019
2023-03-11 21:09:24:445,0,-10.6309,-1.54467,86.7985
2023-03-11 21:09:24:455,0,-10.6153,-1.56808,86.8003
2023-03-11 21:09:24:465,0,-10.6032,-1.58797,86.8078
2023-03-11 21:09:24:475,0,-10.5985,-1.60236,86.8142
2023-03-11 21:09:24:485,0,-10.6039,-1.61325,86.8229
2023-03-11 21:09:24:495,0,-10.6101,-1.62018,86.8337
2023-03-11 21:09:24:505,0,-10.62,-1.62012,86.842
2023-03-11 21:09:24:515,0,-10.6289,-1.6226,86.8518
2023-03-11 21:09:24:525,0,-10.6356,-1.6212,86.8586
2023-03-11 21:09:24:535,0,-10.6354,-1.61419,86.862
2023-03-11 21:09:24:545,0,-10.6285,-1.60473,86.8616
2023-03-11 21:09:24:555,0,-10.6251,-1.59892,86.8597
2023-03-11 21:09:24:565,0,-10.6228,-1.5911,86.8526
2023-03-11 21:09:24:575,0,-10.6164,-1.58462,86.8503
2023-03-11 21:09:24:585,0,-10.6064,-1.58011,86.8419
2023-03-11 21:09:24:595,0,-10.5964,-1.56745,86.8274
2023-03-11 21:09:24:605,0,-10.5881,-1.55476,86.8115
2023-03-11 21:09:24:615,0,-10.5866,-1.54637,86.7923
2023-03-11 21:09:24:625,0,-10.5949,-1.5434,86.7769
2023-03-11 21:09:24:635,0,-10.6195,-1.54735,86.7659
2023-03-11 21:09:24:645,0,-10.6484,-1.56135,86.7606
2023-03-11 21:09:24:655,0,-10.6767,-1.58745,86.7643
2023-03-11 21:09:24:665,0,-10.6951,-1.61917,86.7694
2023-03-11 21:09:24:675,0,-10.7013,-1.65446,86.7765
2023-03-11 21:09:24:685,0,-10.695,-1.68526,86.7916
2023-03-11 21:09:24:695,0,-10.6886,-1.71169,86.8184
2023-03-11 21:09:24:705,0,-10.6943,-1.73672,86.8524
2023-03-11 21:09:24:715,0,-10.7068,-1.76337,86.8895
2023-03-11 21:09:24:725,0,-10.7144,-1.78898,86.9353
2023-03-11 21:09:24:735,0,-10.7174,-1.8113,86.9798
2023-03-11 21:09:24:745,0,-10.7141,-1.82494,87.0278
2023-03-11 21:09:24:755,0,-10.7103,-1.837,87.076
2023-03-11 21:09:24:765,0,-10.7076,-1.84469,87.1198
2023-03-11 21:09:24:775,0,-10.706,-1.84958,87.1614
2023-03-11 21:09:24:785,0,-10.7033,-1.85079,87.1997
2023-03-11 21:09:24:795,0,-10.7059,-1.85076,87.2391
2023-03-11 21:09:24:805,0,-10.7121,-1.85819,87.2796
2023-03-11 21:09:24:815,0,-10.7237,-1.86699,87.3203
2023-03-11 21:09:24:825,0,-10.7304,-1.87662,87.3575
2023-03-11 21:09:24:835,0,-10.7353,-1.88264,87.3968
2023-03-11 21:09:24:845,0,-10.7325,-1.88904,87.4289
2023-03-11 21:09:24:855,0,-10.7299,-1.89624,87.4635
2023-03-11 21:09:24:865,0,-10.7191,-1.90665,87.4957
2023-03-11 21:09:24:875,0,-10.6951,-1.91094,87.529
2023-03-11 21:09:24:885,0,-10.6659,-1.91286,87.5537
2023-03-11 21:09:24:895,0,-10.6375,-1.91245,87.5704
2023-03-11 21:09:24:905,0,-10.6094,-1.90793,87.5825
2023-03-11 21:09:24:915,0,-10.5722,-1.90189,87.5822
2023-03-11 21:09:24:925,0,-10.518,-1.8983,87.5791
2023-03-11 21:09:24:935,0,-10.4658,-1.89087,87.572
2023-03-11 21:09:24:945,0,-10.4192,-1.88086,87.5619
2023-03-11 21:09:24:955,0,-10.376,-1.87907,87.5545
2023-03-11 21:09:24:965,0,-10.3259,-1.88592,87.5496
2023-03-11 21:09:24:975,0,-10.2522,-1.88502,87.5466
2023-03-11 21:09:24:985,0,-10.17,-1.88256,87.5484
2023-03-11 21:09:24:995,0,-10.0965,-1.88132,87.5504
2023-03-11 21:09:25:5,0,-10.0271,-1.87584,87.5502
2023-03-11 21:09:25:15,0,-9.95446,-1.86422,87.5491
2023-03-11 21:09:25:25,0,-9.88277,-1.85554,87.5541
2023-03-11 21:09:25:35,0,-9.80685,-1.85006,87.5576
2023-03-11 21:09:25:45,0,-9.7296,-1.85224,87.5598
2023-03-11 21:09:25:55,0,-9.64744,-1.84974,87.5597
2023-03-11 21:09:25:65,0,-9.57198,-1.84804,87.5613
2023-03-11 21:09:25:75,0,-9.50605,-1.84309,87.5635
2023-03-11 21:09:25:85,0,-9.45166,-1.84161,87.5632
2023-03-11 21:09:25:95,0,-9.40416,-1.84355,87.5568
2023-03-11 21:09:25:105,0,-9.36905,-1.84238,87.5509
2023-03-11 21:09:25:115,0,-9.34262,-1.84028,87.5505
2023-03-11 21:09:25:125,0,-9.31751,-1.83856,87.545
2023-03-11 21:09:25:135,0,-9.29074,-1.84179,87.5318
2023-03-11 21:09:25:145,0,-9.26534,-1.8473,87.5124
2023-03-11 21:09:25:155,0,-9.23686,-1.85085,87.4931
2023-03-11 21:09:25:165,0,-9.19313,-1.85085,87.4713
2023-03-11 21:09:25:175,0,-9.12922,-1.84632,87.449
2023-03-11 21:09:25:185,0,-9.06253,-1.8427,87.4265
2023-03-11 21:09:25:195,0,-9.01874,-1.83573,87.4023
2023-03-11 21:09:25:205,0,-8.98725,-1.8326,87.3775
2023-03-11 21:09:25:215,0,-8.95216,-1.83148,87.3529
2023-03-11 21:09:25:225,0,-8.9056,-1.83445,87.3332
2023-03-11 21:09:25:234,0,-8.84018,-1.83789,87.3143
2023-03-11 21:09:25:245,0,-8.75414,-1.84265,87.3
2023-03-11 21:09:25:255,0,-8.66232,-1.85457,87.29
2023-03-11 21:09:25:265,0,-8.57479,-1.8675,87.2804
2023-03-11 21:09:25:275,0,-8.49687,-1.88037,87.2792
2023-03-11 21:09:25:285,0,-8.43808,-1.89743,87.2805
2023-03-11 21:09:25:295,0,-8.40202,-1.92262,87.2877
2023-03-11 21:09:25:305,0,-8.3688,-1.94985,87.3003
2023-03-11 21:09:25:315,0,-8.30724,-1.96812,87.3142
2023-03-11 21:09:25:325,0,-8.22238,-1.97903,87.3338
2023-03-11 21:09:25:335,0,-8.13213,-1.99122,87.3559
2023-03-11 21:09:25:345,0,-8.05651,-2.01023,87.3831
2023-03-11 21:09:25:355,0,-7.98385,-2.03643,87.4189
2023-03-11 21:09:25:365,0,-7.92088,-2.06514,87.4586
2023-03-11 21:09:25:375,0,-7.87235,-2.0871,87.5004
2023-03-11 21:09:25:385,0,-7.83505,-2.10698,87.5412
2023-03-11 21:09:25:395,0,-7.78618,-2.12405,87.5814
2023-03-11 21:09:25:405,0,-7.73034,-2.13688,87.6236
2023-03-11 21:09:25:415,0,-7.68132,-2.14165,87.6703
2023-03-11 21:09:25:425,0,-7.65232,-2.141,87.7147
2023-03-11 21:09:25:435,0,-7.63577,-2.13622,87.7607
2023-03-11 21:09:25:445,0,-7.61555,-2.12389,87.8106
2023-03-11 21:09:25:455,0,-7.59381,-2.10597,87.8603
2023-03-11 21:09:25:465,0,-7.58749,-2.08901,87.9117
2023-03-11 21:09:25:475,0,-7.5929,-2.07765,87.9593
2023-03-11 21:09:25:485,0,-7.61035,-2.07074,87.9996
2023-03-11 21:09:25:495,0,-7.62757,-2.0669,88.0264
2023-03-11 21:09:25:504,0,-7.63587,-2.06091,88.0414
2023-03-11 21:09:25:515,0,-7.63473,-2.05814,88.0512
2023-03-11 21:09:25:525,0,-7.62912,-2.0605,88.0534
2023-03-11 21:09:25:535,0,-7.62588,-2.06831,88.0513
2023-03-11 21:09:25:545,0,-7.6342,-2.08806,88.0505
2023-03-11 21:09:25:555,0,-7.65693,-2.11442,88.0445
2023-03-11 21:09:25:565,0,-7.68831,-2.1462,88.0272
2023-03-11 21:09:25:575,0,-7.7252,-2.17511,88.0045
2023-03-11 21:09:25:585,0,-7.75895,-2.2013,87.982
2023-03-11 21:09:25:595,0,-7.80069,-2.23335,87.9589
2023-03-11 21:09:25:605,0,-7.85572,-2.26908,87.9425
2023-03-11 21:09:25:615,0,-7.91235,-2.30332,87.9287
2023-03-11 21:09:25:625,0,-7.96835,-2.33316,87.9157
2023-03-11 21:09:25:635,0,-8.02002,-2.36056,87.905
2023-03-11 21:09:25:645,0,-8.07033,-2.39594,87.8969
2023-03-11 21:09:25:655,0,-8.11214,-2.42984,87.8952
2023-03-11 21:09:25:665,0,-8.14288,-2.45748,87.8943
2023-03-11 21:09:25:675,0,-8.16548,-2.4763,87.8946
2023-03-11 21:09:25:685,0,-8.19228,-2.48881,87.8946
2023-03-11 21:09:25:695,0,-8.22477,-2.50253,87.8982
2023-03-11 21:09:25:705,0,-8.26017,-2.5151,87.9019
2023-03-11 21:09:25:715,0,-8.28454,-2.52348,87.9085
2023-03-11 21:09:25:725,0,-8.30325,-2.52974,87.9136
2023-03-11 21:09:25:735,0,-8.31279,-2.53631,87.9231
2023-03-11 21:09:25:745,0,-8.31405,-2.54496,87.9332
2023-03-11 21:09:25:755,0,-8.30588,-2.55151,87.9425
2023-03-11 21:09:25:765,0,-8.30157,-2.55454,87.949
2023-03-11 21:09:25:775,0,-8.2913,-2.55667,87.9508
2023-03-11 21:09:25:785,0,-8.2885,-2.56181,87.9544
2023-03-11 21:09:25:795,0,-8.28798,-2.56463,87.96
2023-03-11 21:09:25:805,0,-8.29637,-2.57001,87.9688
2023-03-11 21:09:25:815,0,-8.30509,-2.57804,87.9763
2023-03-11 21:09:25:825,0,-8.29991,-2.58747,87.986
2023-03-11 21:09:25:835,0,-8.28536,-2.5918,87.9943
2023-03-11 21:09:25:845,0,-8.2693,-2.59676,88.005
2023-03-11 21:09:25:855,0,-8.2583,-2.60479,88.0162
2023-03-11 21:09:25:865,0,-8.24777,-2.61324,88.0279
2023-03-11 21:09:25:875,0,-8.22501,-2.62306,88.0377
2023-03-11 21:09:25:885,0,-8.18945,-2.63417,88.0507
2023-03-11 21:09:25:895,0,-8.15434,-2.64606,88.0639
2023-03-11 21:09:25:905,0,-8.12181,-2.6529,88.0707
2023-03-11 21:09:25:915,0,-8.09406,-2.65695,88.0786
2023-03-11 21:09:25:925,0,-8.07516,-2.65871,88.0839
2023-03-11 21:09:25:935,0,-8.06248,-2.65846,88.0838
2023-03-11 21:09:25:945,0,-8.05089,-2.65261,88.0754
2023-03-11 21:09:25:955,0,-8.03465,-2.63755,88.0587
2023-03-11 21:09:25:965,0,-8.0241,-2.62242,88.0332
2023-03-11 21:09:25:975,0,-8.01118,-2.60416,87.9995
2023-03-11 21:09:25:985,0,-7.99009,-2.58493,87.9615
2023-03-11 21:09:25:995,0,-7.96709,-2.56884,87.919
2023-03-11 21:09:26:5,0,-7.94835,-2.55564,87.8714
2023-03-11 21:09:26:15,0,-7.9428,-2.55229,87.8223
2023-03-11 21:09:26:25,0,-7.953,-2.55506,87.7744
2023-03-11 21:09:26:35,0,-7.98186,-2.56812,87.7279
2023-03-11 21:09:26:45,0,-8.02169,-2.59001,87.685
2023-03-11 21:09:26:55,0,-8.05241,-2.6117,87.6438
2023-03-11 21:09:26:65,0,-8.07,-2.63294,87.6036
2023-03-11 21:09:26:75,0,-8.07479,-2.64813,87.5666
2023-03-11 21:09:26:85,0,-8.07662,-2.65892,87.5282
2023-03-11 21:09:26:95,0,-8.07826,-2.66284,87.494
2023-03-11 21:09:26:105,0,-8.08256,-2.66175,87.4645
2023-03-11 21:09:26:115,0,-8.09456,-2.65485,87.4369
2023-03-11 21:09:26:125,0,-8.09918,-2.64339,87.4182
2023-03-11 21:09:26:135,0,-8.09299,-2.6362,87.4064
2023-03-11 21:09:26:145,0,-8.07475,-2.62745,87.4014
2023-03-11 21:09:26:155,0,-8.05003,-2.6224,87.4039
2023-03-11 21:09:26:165,0,-8.01817,-2.61656,87.4184
2023-03-11 21:09:26:175,0,-7.97894,-2.6035,87.4308
2023-03-11 21:09:26:185,0,-7.9326,-2.59161,87.4383
2023-03-11 21:09:26:195,0,-7.8859,-2.58586,87.4481
2023-03-11 21:09:26:205,0,-7.84049,-2.58401,87.459
2023-03-11 21:09:26:215,0,-7.80377,-2.58523,87.4679
2023-03-11 21:09:26:225,0,-7.76209,-2.58988,87.4741
2023-03-11 21:09:26:235,0,-7.72061,-2.59612,87.4781
2023-03-11 21:09:26:245,0,-7.68292,-2.59787,87.4768
2023-03-11 21:09:26:255,0,-7.64872,-2.60305,87.4785
2023-03-11 21:09:26:265,0,-7.62861,-2.60748,87.4817
2023-03-11 21:09:26:275,0,-7.61546,-2.60994,87.4811
2023-03-11 21:09:26:285,0,-7.60491,-2.61532,87.4852
2023-03-11 21:09:26:295,0,-7.59655,-2.61998,87.4893
2023-03-11 21:09:26:305,0,-7.58407,-2.62183,87.4933
2023-03-11 21:09:26:315,0,-7.57494,-2.62078,87.4978
2023-03-11 21:09:26:325,0,-7.56376,-2.62343,87.5045
2023-03-11 21:09:26:335,0,-7.56167,-2.63143,87.5083
2023-03-11 21:09:26:345,0,-7.55865,-2.6413,87.5118
2023-03-11 21:09:26:355,0,-7.55067,-2.65013,87.5159
2023-03-11 21:09:26:365,0,-7.53832,-2.65904,87.5203
2023-03-11 21:09:26:375,0,-7.52538,-2.66733,87.5272
2023-03-11 21:09:26:385,0,-7.5158,-2.67467,87.5355
2023-03-11 21:09:26:395,0,-7.50744,-2.68101,87.5476
2023-03-11 21:09:26:405,0,-7.49972,-2.68613,87.5574
2023-03-11 21:09:26:415,0,-7.49904,-2.69766,87.57
2023-03-11 21:09:26:425,0,-7.50365,-2.70795,87.5819
2023-03-11 21:09:26:435,0,-7.51496,-2.72414,87.5966
2023-03-11 21:09:26:445,0,-7.51798,-2.73808,87.6154
2023-03-11 21:09:26:455,0,-7.51332,-2.75139,87.6359
2023-03-11 21:09:26:465,0,-7.506,-2.76682,87.6571
2023-03-11 21:09:26:475,0,-7.49586,-2.78173,87.6776
2023-03-11 21:09:26:485,0,-7.48559,-2.79197,87.7002
2023-03-11 21:09:26:495,0,-7.46601,-2.80291,87.7222
2023-03-11 21:09:26:505,0,-7.45221,-2.81317,87.7469
2023-03-11 21:09:26:515,0,-7.44436,-2.82096,87.7801
2023-03-11 21:09:26:525,0,-7.44279,-2.83449,87.8148
2023-03-11 21:09:26:535,0,-7.44708,-2.85328,87.8486
2023-03-11 21:09:26:545,0,-7.45515,-2.88193,87.8797
2023-03-11 21:09:26:555,0,-7.46273,-2.91693,87.9159
2023-03-11 21:09:26:565,0,-7.46165,-2.9585,87.9496
2023-03-11 21:09:26:575,0,-7.44879,-2.99859,87.9821
2023-03-11 21:09:26:585,0,-7.42227,-3.03476,88.0098
2023-03-11 21:09:26:595,0,-7.38575,-3.06959,88.0351
2023-03-11 21:09:26:605,0,-7.35337,-3.10628,88.0584
2023-03-11 21:09:26:615,0,-7.3174,-3.13827,88.0805
2023-03-11 21:09:26:625,0,-7.28898,-3.16562,88.101
2023-03-11 21:09:26:635,0,-7.26541,-3.18354,88.1169
2023-03-11 21:09:26:645,0,-7.24291,-3.20046,88.1319
2023-03-11 21:09:26:655,0,-7.2201,-3.2177,88.1436
2023-03-11 21:09:26:665,0,-7.19382,-3.23911,88.1564
2023-03-11 21:09:26:675,0,-7.17421,-3.26203,88.1717
2023-03-11 21:09:26:685,0,-7.1555,-3.28714,88.1922
2023-03-11 21:09:26:695,0,-7.14736,-3.31832,88.2143
2023-03-11 21:09:26:705,0,-7.14824,-3.34981,88.235
2023-03-11 21:09:26:715,0,-7.16218,-3.37596,88.2567
2023-03-11 21:09:26:725,0,-7.1782,-3.39549,88.2769
2023-03-11 21:09:26:735,0,-7.19644,-3.40774,88.2978
2023-03-11 21:09:26:745,0,-7.21375,-3.41765,88.318
2023-03-11 21:09:26:755,0,-7.22275,-3.42138,88.3344
2023-03-11 21:09:26:765,0,-7.2247,-3.42212,88.3536
2023-03-11 21:09:26:775,0,-7.22846,-3.41479,88.3712
2023-03-11 21:09:26:785,0,-7.2331,-3.40351,88.3891
2023-03-11 21:09:26:795,0,-7.24844,-3.38778,88.4049
2023-03-11 21:09:26:805,0,-7.26978,-3.36686,88.4268
2023-03-11 21:09:26:815,0,-7.28117,-3.34621,88.4464
2023-03-11 21:09:26:825,0,-7.2907,-3.31981,88.4644
2023-03-11 21:09:26:835,0,-7.29297,-3.29324,88.4798
2023-03-11 21:09:26:845,0,-7.29084,-3.25772,88.4913
2023-03-11 21:09:26:855,0,-7.29434,-3.21421,88.4947
2023-03-11 21:09:26:865,0,-7.2966,-3.16566,88.4945
2023-03-11 21:09:26:875,0,-7.29736,-3.12324,88.4926
2023-03-11 21:09:26:885,0,-7.29849,-3.07771,88.4841
2023-03-11 21:09:26:895,0,-7.29637,-3.03191,88.4679
2023-03-11 21:09:26:905,0,-7.28913,-2.99469,88.45
2023-03-11 21:09:26:915,0,-7.27999,-2.95782,88.4289
2023-03-11 21:09:26:925,0,-7.27371,-2.92526,88.4044
2023-03-11 21:09:26:935,0,-7.27188,-2.89416,88.3841
2023-03-11 21:09:26:945,0,-7.27328,-2.85757,88.3633
2023-03-11 21:09:26:955,0,-7.27707,-2.81604,88.3505
2023-03-11 21:09:26:965,0,-7.28766,-2.78338,88.3397
2023-03-11 21:09:26:975,0,-7.30448,-2.75461,88.3324
2023-03-11 21:09:26:985,0,-7.31869,-2.72158,88.332
2023-03-11 21:09:26:995,0,-7.33467,-2.68981,88.3363
2023-03-11 21:09:27:5,0,-7.34791,-2.65782,88.3456
2023-03-11 21:09:27:15,0,-7.35454,-2.62961,88.3589
2023-03-11 21:09:27:25,0,-7.35527,-2.60393,88.372
2023-03-11 21:09:27:35,0,-7.36261,-2.5787,88.3876
2023-03-11 21:09:27:45,0,-7.36885,-2.55936,88.4031
2023-03-11 21:09:27:55,0,-7.3752,-2.53611,88.4171
2023-03-11 21:09:27:65,0,-7.39105,-2.52131,88.4342
2023-03-11 21:09:27:75,0,-7.40886,-2.51077,88.4514
2023-03-11 21:09:27:85,0,-7.42726,-2.51161,88.4647
2023-03-11 21:09:27:95,0,-7.4425,-2.51657,88.4863
2023-03-11 21:09:27:105,0,-7.45526,-2.53039,88.5049
2023-03-11 21:09:27:115,0,-7.46566,-2.55142,88.5194
2023-03-11 21:09:27:125,0,-7.48082,-2.57594,88.5354
2023-03-11 21:09:27:135,0,-7.49972,-2.60091,88.5506
2023-03-11 21:09:27:145,0,-7.52361,-2.63192,88.5687
2023-03-11 21:09:27:155,0,-7.5529,-2.66692,88.587
2023-03-11 21:09:27:165,0,-7.58634,-2.70479,88.6136
2023-03-11 21:09:27:175,0,-7.61987,-2.74718,88.6474
2023-03-11 21:09:27:185,0,-7.64914,-2.78974,88.6903
2023-03-11 21:09:27:195,0,-7.67483,-2.83629,88.745
2023-03-11 21:09:27:205,0,-7.69912,-2.8802,88.8084
2023-03-11 21:09:27:215,0,-7.72453,-2.92933,88.8723
2023-03-11 21:09:27:225,0,-7.74784,-2.97618,88.942
2023-03-11 21:09:27:235,0,-7.77466,-3.01475,89.0113
2023-03-11 21:09:27:245,0,-7.80279,-3.05004,89.0783
2023-03-11 21:09:27:255,0,-7.83521,-3.0777,89.1432
2023-03-11 21:09:27:265,0,-7.86908,-3.10075,89.2014
2023-03-11 21:09:27:275,0,-7.89431,-3.11326,89.2557
2023-03-11 21:09:27:285,0,-7.91557,-3.11467,89.2993
2023-03-11 21:09:27:295,0,-7.93028,-3.10664,89.3358
2023-03-11 21:09:27:305,0,-7.95056,-3.09345,89.3656
2023-03-11 21:09:27:315,0,-7.96468,-3.08128,89.3931
2023-03-11 21:09:27:325,0,-7.98837,-3.06004,89.4139
2023-03-11 21:09:27:335,0,-8.01557,-3.04129,89.4337
2023-03-11 21:09:27:345,0,-8.03799,-3.02717,89.4486
2023-03-11 21:09:27:355,0,-8.05368,-3.01131,89.4608
2023-03-11 21:09:27:365,0,-8.06245,-3.00211,89.474
2023-03-11 21:09:27:375,0,-8.06263,-2.99664,89.4836
2023-03-11 21:09:27:385,0,-8.04649,-2.98843,89.4911
2023-03-11 21:09:27:395,0,-8.02442,-2.98645,89.4965
2023-03-11 21:09:27:405,0,-8.00118,-2.9892,89.502
2023-03-11 21:09:27:415,0,-7.98426,-2.99571,89.5079
2023-03-11 21:09:27:425,0,-7.96865,-3.00956,89.5189
2023-03-11 21:09:27:435,0,-7.96124,-3.03107,89.5363
2023-03-11 21:09:27:445,0,-7.95212,-3.05898,89.5597
2023-03-11 21:09:27:455,0,-7.93919,-3.09124,89.59
2023-03-11 21:09:27:465,0,-7.91804,-3.12933,89.6281
2023-03-11 21:09:27:475,0,-7.89136,-3.17245,89.6665
2023-03-11 21:09:27:485,0,-7.8621,-3.2203,89.7129
2023-03-11 21:09:27:495,0,-7.8251,-3.26372,89.7591
2023-03-11 21:09:27:505,0,-7.78435,-3.30462,89.811
2023-03-11 21:09:27:515,0,-7.74686,-3.34367,89.8644
2023-03-11 21:09:27:525,0,-7.70694,-3.38373,89.9184
2023-03-11 21:09:27:535,0,-7.66658,-3.42088,89.9723
2023-03-11 21:09:27:545,0,-7.62538,-3.45269,90.028
2023-03-11 21:09:27:555,0,-7.58552,-3.48615,90.0868
2023-03-11 21:09:27:565,0,-7.54176,-3.51611,90.1425
2023-03-11 21:09:27:575,0,-7.49947,-3.54114,90.1967
2023-03-11 21:09:27:585,0,-7.45684,-3.56304,90.2449
2023-03-11 21:09:27:595,0,-7.41049,-3.5833,90.2884
2023-03-11 21:09:27:605,0,-7.36618,-3.5945,90.3288
2023-03-11 21:09:27:615,0,-7.32087,-3.60088,90.3581
2023-03-11 21:09:27:625,0,-7.28257,-3.60157,90.3808
2023-03-11 21:09:27:635,0,-7.24386,-3.60084,90.3989
2023-03-11 21:09:27:645,0,-7.2124,-3.59433,90.4083
2023-03-11 21:09:27:655,0,-7.18275,-3.58692,90.4107
2023-03-11 21:09:27:665,0,-7.16084,-3.57393,90.4027
2023-03-11 21:09:27:675,0,-7.14563,-3.55823,90.3923
2023-03-11 21:09:27:685,0,-7.12856,-3.5426,90.377
2023-03-11 21:09:27:695,0,-7.1056,-3.52138,90.3537
2023-03-11 21:09:27:705,0,-7.08054,-3.50273,90.3315
2023-03-11 21:09:27:715,0,-7.05195,-3.48565,90.3074
2023-03-11 21:09:27:725,0,-7.01924,-3.4704,90.2829
2023-03-11 21:09:27:735,0,-6.99197,-3.45637,90.2636
2023-03-11 21:09:27:745,0,-6.96588,-3.44161,90.2424
2023-03-11 21:09:27:755,0,-6.94178,-3.42662,90.2223
2023-03-11 21:09:27:765,0,-6.92104,-3.41532,90.2021
2023-03-11 21:09:27:775,0,-6.91202,-3.40443,90.1827
2023-03-11 21:09:27:785,0,-6.9101,-3.38902,90.16
2023-03-11 21:09:27:795,0,-6.91701,-3.37521,90.1408
2023-03-11 21:09:27:805,0,-6.93527,-3.3563,90.1202
2023-03-11 21:09:27:815,0,-6.96167,-3.33464,90.1045
2023-03-11 21:09:27:825,0,-6.98993,-3.31004,90.0911
2023-03-11 21:09:27:835,0,-7.01981,-3.27841,90.0805
2023-03-11 21:09:27:845,0,-7.05593,-3.24535,90.0765
2023-03-11 21:09:27:855,0,-7.09621,-3.20941,90.0692
2023-03-11 21:09:27:865,0,-7.14075,-3.18022,90.0711
2023-03-11 21:09:27:875,0,-7.1804,-3.16089,90.0753
2023-03-11 21:09:27:885,0,-7.21542,-3.14625,90.0816
2023-03-11 21:09:27:895,0,-7.23574,-3.14092,90.0862
2023-03-11 21:09:27:905,0,-7.24611,-3.14441,90.0909
2023-03-11 21:09:27:915,0,-7.23589,-3.14999,90.0931
2023-03-11 21:09:27:925,0,-7.21354,-3.15705,90.0916
2023-03-11 21:09:27:935,0,-7.18449,-3.16956,90.0848
2023-03-11 21:09:27:945,0,-7.15381,-3.18206,90.0796
2023-03-11 21:09:27:955,0,-7.11556,-3.19901,90.0658
2023-03-11 21:09:27:965,0,-7.07477,-3.21793,90.0483
2023-03-11 21:09:27:975,0,-7.02686,-3.23774,90.0247
2023-03-11 21:09:27:985,0,-6.98178,-3.25191,89.9918
2023-03-11 21:09:27:995,0,-6.93992,-3.26473,89.9533
2023-03-11 21:09:28:5,0,-6.89544,-3.27561,89.9127
2023-03-11 21:09:28:15,0,-6.8468,-3.2839,89.8716
2023-03-11 21:09:28:25,0,-6.8103,-3.28779,89.8323
2023-03-11 21:09:28:35,0,-6.78662,-3.29196,89.7994
2023-03-11 21:09:28:45,0,-6.77833,-3.30035,89.7755
2023-03-11 21:09:28:55,0,-6.79068,-3.30905,89.7677
2023-03-11 21:09:28:65,0,-6.81726,-3.31721,89.7689
2023-03-11 21:09:28:75,0,-6.85945,-3.33462,89.7851
2023-03-11 21:09:28:85,0,-6.90623,-3.35063,89.8078
2023-03-11 21:09:28:95,0,-6.95963,-3.36457,89.8408
2023-03-11 21:09:28:105,0,-7.01338,-3.37593,89.8802
2023-03-11 21:09:28:115,0,-7.05483,-3.38254,89.9198
2023-03-11 21:09:28:125,0,-7.08595,-3.3877,89.9591
2023-03-11 21:09:28:135,0,-7.10538,-3.39602,89.9896
2023-03-11 21:09:28:145,0,-7.11658,-3.40331,90.0095
2023-03-11 21:09:28:155,0,-7.11629,-3.40943,90.021
2023-03-11 21:09:28:165,0,-7.11434,-3.41875,90.0201
2023-03-11 21:09:28:175,0,-7.10998,-3.42764,90.0078
2023-03-11 21:09:28:185,0,-7.10615,-3.43526,89.9813
2023-03-11 21:09:28:195,0,-7.10742,-3.44384,89.9456
2023-03-11 21:09:28:205,0,-7.1094,-3.45245,89.9017
2023-03-11 21:09:28:215,0,-7.10971,-3.46289,89.858
2023-03-11 21:09:28:225,0,-7.10669,-3.47666,89.8107
2023-03-11 21:09:28:235,0,-7.09603,-3.48857,89.771
2023-03-11 21:09:28:245,0,-7.07837,-3.50022,89.7276
2023-03-11 21:09:28:255,0,-7.05509,-3.51085,89.6918
2023-03-11 21:09:28:265,0,-7.01798,-3.5282,89.6586
2023-03-11 21:09:28:275,0,-6.97559,-3.54744,89.639
2023-03-11 21:09:28:285,0,-6.93124,-3.57072,89.6248
2023-03-11 21:09:28:295,0,-6.88476,-3.59377,89.6201
2023-03-11 21:09:28:305,0,-6.84469,-3.61289,89.6237
2023-03-11 21:09:28:315,0,-6.80595,-3.62808,89.6293
2023-03-11 21:09:28:324,0,-6.76937,-3.64121,89.6405
2023-03-11 21:09:28:334,0,-6.73986,-3.65276,89.6571
2023-03-11 21:09:28:345,0,-6.71942,-3.66211,89.6774
2023-03-11 21:09:28:355,0,-6.70378,-3.67574,89.6953
2023-03-11 21:09:28:365,0,-6.68266,-3.68378,89.715
2023-03-11 21:09:28:375,0,-6.64945,-3.69189,89.7377
2023-03-11 21:09:28:385,0,-6.61448,-3.705,89.7635
2023-03-11 21:09:28:395,0,-6.57808,-3.71225,89.7846
2023-03-11 21:09:28:405,0,-6.54975,-3.71575,89.8091
2023-03-11 21:09:28:415,0,-6.53706,-3.72348,89.8307
2023-03-11 21:09:28:425,0,-6.53112,-3.72911,89.8514
2023-03-11 21:09:28:435,0,-6.52513,-3.73722,89.873
2023-03-11 21:09:28:445,0,-6.5143,-3.74474,89.8933
2023-03-11 21:09:28:455,0,-6.49937,-3.75387,89.9121
2023-03-11 21:09:28:465,0,-6.48452,-3.76244,89.9295
2023-03-11 21:09:28:475,0,-6.45599,-3.76454,89.9489
2023-03-11 21:09:28:485,0,-6.41735,-3.7625,89.9669
2023-03-11 21:09:28:495,0,-6.38497,-3.76454,89.9867
2023-03-11 21:09:28:505,0,-6.36687,-3.76662,90.0038
2023-03-11 21:09:28:515,0,-6.34944,-3.76762,90.0211
2023-03-11 21:09:28:525,0,-6.32647,-3.76492,90.0401
2023-03-11 21:09:28:535,0,-6.2969,-3.76337,90.0562
2023-03-11 21:09:28:545,0,-6.26872,-3.76225,90.0745
2023-03-11 21:09:28:555,0,-6.23501,-3.75713,90.0917
2023-03-11 21:09:28:565,0,-6.19294,-3.75227,90.1119
2023-03-11 21:09:28:575,0,-6.15224,-3.7478,90.1351
2023-03-11 21:09:28:585,0,-6.12485,-3.74352,90.1602
2023-03-11 21:09:28:595,0,-6.10118,-3.74177,90.185
2023-03-11 21:09:28:605,0,-6.08467,-3.74155,90.2026
2023-03-11 21:09:28:615,0,-6.07727,-3.74803,90.224
2023-03-11 21:09:28:625,0,-6.05938,-3.7538,90.2399
2023-03-11 21:09:28:635,0,-6.02829,-3.76349,90.2552
2023-03-11 21:09:28:645,0,-5.982,-3.7742,90.2747
2023-03-11 21:09:28:655,0,-5.9229,-3.78021,90.2912
2023-03-11 21:09:28:665,0,-5.85827,-3.78132,90.3005
2023-03-11 21:09:28:675,0,-5.79167,-3.77626,90.3076
2023-03-11 21:09:28:685,0,-5.72557,-3.76933,90.3137
2023-03-11 21:09:28:695,0,-5.66055,-3.76578,90.316
2023-03-11 21:09:28:705,0,-5.60126,-3.76156,90.3205
2023-03-11 21:09:28:715,0,-5.5439,-3.75516,90.3202
2023-03-11 21:09:28:725,0,-5.49015,-3.74427,90.3154
2023-03-11 21:09:28:735,0,-5.44395,-3.73362,90.309
2023-03-11 21:09:28:745,0,-5.40509,-3.7294,90.3029
2023-03-11 21:09:28:755,0,-5.36402,-3.72853,90.2949
2023-03-11 21:09:28:765,0,-5.32806,-3.7264,90.2805
2023-03-11 21:09:28:775,0,-5.29066,-3.7211,90.2706
2023-03-11 21:09:28:785,0,-5.25461,-3.71153,90.2616
2023-03-11 21:09:28:795,0,-5.21832,-3.69836,90.2486
2023-03-11 21:09:28:805,0,-5.18642,-3.67783,90.2306
2023-03-11 21:09:28:815,0,-5.14358,-3.64832,90.2029
2023-03-11 21:09:28:825,0,-5.09675,-3.61358,90.1627
2023-03-11 21:09:28:835,0,-5.05548,-3.57977,90.1126
2023-03-11 21:09:28:845,0,-5.01908,-3.54556,90.0589
2023-03-11 21:09:28:855,0,-4.98668,-3.51755,90.0092
2023-03-11 21:09:28:865,0,-4.96956,-3.48978,89.9593
2023-03-11 21:09:28:875,0,-4.96938,-3.47366,89.9185
2023-03-11 21:09:28:885,0,-4.98353,-3.46168,89.8775
2023-03-11 21:09:28:895,0,-4.99801,-3.45478,89.8389
2023-03-11 21:09:28:905,0,-4.99956,-3.44678,89.8031
2023-03-11 21:09:28:915,0,-4.99046,-3.43378,89.7723
2023-03-11 21:09:28:925,0,-4.97761,-3.41928,89.7506
2023-03-11 21:09:28:935,0,-4.96757,-3.40493,89.7361
2023-03-11 21:09:28:945,0,-4.97513,-3.38488,89.7245
2023-03-11 21:09:28:955,0,-4.99743,-3.36761,89.7184
2023-03-11 21:09:28:965,0,-5.02708,-3.35115,89.7198
2023-03-11 21:09:28:975,0,-5.05126,-3.3417,89.7334
2023-03-11 21:09:28:985,0,-5.06536,-3.3383,89.75
2023-03-11 21:09:28:995,0,-5.07654,-3.34096,89.7699
2023-03-11 21:09:29:5,0,-5.08226,-3.34954,89.7887
2023-03-11 21:09:29:15,0,-5.09448,-3.36073,89.8052
2023-03-11 21:09:29:25,0,-5.11145,-3.37858,89.8196
2023-03-11 21:09:29:35,0,-5.13259,-3.39997,89.8325
2023-03-11 21:09:29:45,0,-5.14985,-3.42767,89.84
2023-03-11 21:09:29:55,0,-5.1661,-3.45857,89.8463
2023-03-11 21:09:29:65,0,-5.17839,-3.49989,89.8462
2023-03-11 21:09:29:75,0,-5.18728,-3.5398,89.8473
2023-03-11 21:09:29:85,0,-5.19226,-3.58188,89.8447
2023-03-11 21:09:29:95,0,-5.18961,-3.6271,89.8404
2023-03-11 21:09:29:105,0,-5.181,-3.67349,89.8348
2023-03-11 21:09:29:115,0,-5.17073,-3.71778,89.8275
2023-03-11 21:09:29:125,0,-5.15466,-3.76015,89.8156
2023-03-11 21:09:29:135,0,-5.13822,-3.79489,89.801
2023-03-11 21:09:29:145,0,-5.12063,-3.82491,89.7869
2023-03-11 21:09:29:155,0,-5.10903,-3.85215,89.775
2023-03-11 21:09:29:165,0,-5.09669,-3.8725,89.7651
2023-03-11 21:09:29:175,0,-5.08801,-3.8911,89.7594
2023-03-11 21:09:29:185,0,-5.07704,-3.91106,89.7563
2023-03-11 21:09:29:195,0,-5.06391,-3.92915,89.7575
2023-03-11 21:09:29:205,0,-5.0574,-3.94709,89.7595
2023-03-11 21:09:29:215,0,-5.05377,-3.96489,89.7598
2023-03-11 21:09:29:225,0,-5.04693,-3.98024,89.7634
2023-03-11 21:09:29:235,0,-5.04115,-3.99413,89.7692
2023-03-11 21:09:29:245,0,-5.0339,-4.00683,89.777
2023-03-11 21:09:29:255,0,-5.02867,-4.01061,89.7824
2023-03-11 21:09:29:265,0,-5.02692,-4.01284,89.7918
2023-03-11 21:09:29:275,0,-5.0202,-4.0158,89.8018
2023-03-11 21:09:29:285,0,-5.011,-4.01668,89.8128
2023-03-11 21:09:29:295,0,-5.00756,-4.01956,89.8275
2023-03-11 21:09:29:305,0,-5.00879,-4.01777,89.8412
2023-03-11 21:09:29:315,0,-5.01583,-4.01646,89.8524
2023-03-11 21:09:29:325,0,-5.0261,-4.01336,89.8589
2023-03-11 21:09:29:335,0,-5.0332,-4.01218,89.8647
2023-03-11 21:09:29:345,0,-5.03774,-4.01443,89.8722
2023-03-11 21:09:29:355,0,-5.04439,-4.01936,89.8788
2023-03-11 21:09:29:365,0,-5.05553,-4.02384,89.8837
2023-03-11 21:09:29:375,0,-5.06351,-4.03161,89.8874
2023-03-11 21:09:29:385,0,-5.06704,-4.03891,89.8864
2023-03-11 21:09:29:395,0,-5.0671,-4.04659,89.8892
2023-03-11 21:09:29:405,0,-5.07201,-4.05356,89.8883
2023-03-11 21:09:29:415,0,-5.07565,-4.05963,89.8885
2023-03-11 21:09:29:425,0,-5.08646,-4.06526,89.889
2023-03-11 21:09:29:435,0,-5.10211,-4.07035,89.8925
2023-03-11 21:09:29:445,0,-5.122,-4.07378,89.8924
2023-03-11 21:09:29:455,0,-5.14002,-4.0712,89.8919
2023-03-11 21:09:29:465,0,-5.15682,-4.0602,89.892
2023-03-11 21:09:29:474,0,-5.16921,-4.05018,89.8909
2023-03-11 21:09:29:485,0,-5.18291,-4.03589,89.8871
2023-03-11 21:09:29:495,0,-5.2031,-4.02676,89.8879
2023-03-11 21:09:29:505,0,-5.22243,-4.01911,89.889
2023-03-11 21:09:29:515,0,-5.24017,-4.00853,89.8872
2023-03-11 21:09:29:525,0,-5.25742,-3.991,89.8821
2023-03-11 21:09:29:535,0,-5.27983,-3.97205,89.8771
2023-03-11 21:09:29:545,0,-5.30805,-3.95048,89.8672
2023-03-11 21:09:29:555,0,-5.34017,-3.93365,89.8555
2023-03-11 21:09:29:565,0,-5.37917,-3.91824,89.8464
2023-03-11 21:09:29:575,0,-5.41761,-3.90331,89.8338
2023-03-11 21:09:29:585,0,-5.45355,-3.89024,89.8235
2023-03-11 21:09:29:595,0,-5.4857,-3.87993,89.8101
2023-03-11 21:09:29:605,0,-5.51533,-3.87085,89.7971
2023-03-11 21:09:29:615,0,-5.53932,-3.86333,89.7845
2023-03-11 21:09:29:625,0,-5.55724,-3.85831,89.769
2023-03-11 21:09:29:635,0,-5.57199,-3.85104,89.7504
2023-03-11 21:09:29:645,0,-5.59171,-3.84343,89.7289
2023-03-11 21:09:29:655,0,-5.61054,-3.83299,89.7088
2023-03-11 21:09:29:665,0,-5.63122,-3.82804,89.6948
2023-03-11 21:09:29:675,0,-5.65247,-3.82061,89.6788
2023-03-11 21:09:29:685,0,-5.6665,-3.8107,89.6662
2023-03-11 21:09:29:695,0,-5.67481,-3.79418,89.6553
2023-03-11 21:09:29:705,0,-5.68273,-3.77751,89.6423
2023-03-11 21:09:29:715,0,-5.6861,-3.76052,89.6286
2023-03-11 21:09:29:725,0,-5.69514,-3.74085,89.6167
