Timestamp_cmd,imu_cmd,roll_delta,pitch_delta,yaw_delta,voice_type,voice_length
2023-03-14 17:13:58:884,0,-1.58799,-1.92994,68.9352,Q,Q
2023-03-14 17:13:58:886,0,-1.57865,-1.927,68.9349,Q,Q
2023-03-14 17:13:58:896,0,-1.57182,-1.9192,68.9325,Q,Q
2023-03-14 17:13:58:906,0,-1.56922,-1.91389,68.9301,Q,Q
2023-03-14 17:13:58:916,0,-1.56901,-1.91004,68.9228,Q,Q
2023-03-14 17:13:58:926,0,-1.56712,-1.90785,68.9193,Q,Q
2023-03-14 17:13:58:936,0,-1.56311,-1.90897,68.9202,Q,Q
2023-03-14 17:13:58:946,0,-1.55975,-1.9113,68.9239,Q,Q
2023-03-14 17:13:58:956,0,-1.55914,-1.91395,68.9333,Q,Q
2023-03-14 17:13:58:966,0,-1.55437,-1.91844,68.945,Q,Q
2023-03-14 17:13:58:976,0,-1.55465,-1.92417,68.9572,Q,Q
2023-03-14 17:13:58:986,0,-1.5554,-1.92926,68.9747,Q,Q
2023-03-14 17:13:58:996,0,-1.55638,-1.93171,68.9952,Q,Q
2023-03-14 17:13:59:6,0,-1.55826,-1.93657,69.0168,Q,Q
2023-03-14 17:13:59:16,0,-1.55618,-1.94382,69.0395,Q,Q
2023-03-14 17:13:59:26,0,-1.55197,-1.9468,69.0616,Q,Q
2023-03-14 17:13:59:36,0,-1.54965,-1.94993,69.0778,Q,Q
2023-03-14 17:13:59:46,0,-1.54857,-1.95242,69.0923,Q,Q
2023-03-14 17:13:59:56,0,-1.53988,-1.95538,69.1073,Q,Q
2023-03-14 17:13:59:66,0,-1.52515,-1.95712,69.1187,Q,Q
2023-03-14 17:13:59:77,0,-1.50846,-1.96221,69.128,Q,Q
2023-03-14 17:13:59:86,0,-1.49892,-1.96731,69.1378,Q,Q
2023-03-14 17:13:59:96,0,-1.48854,-1.97618,69.1454,Q,Q
2023-03-14 17:13:59:106,0,-1.48258,-1.98513,69.1509,Q,Q
2023-03-14 17:13:59:116,0,-1.47481,-1.99367,69.1528,Q,Q
2023-03-14 17:13:59:126,0,-1.46778,-2.00073,69.1563,Q,Q
2023-03-14 17:13:59:136,0,-1.46156,-2.0056,69.1584,Q,Q
2023-03-14 17:13:59:146,0,-1.45869,-2.00834,69.1638,Q,Q
2023-03-14 17:13:59:156,0,-1.45372,-2.01016,69.1707,Q,Q
2023-03-14 17:13:59:166,0,-1.44625,-2.00741,69.1705,Q,Q
2023-03-14 17:13:59:176,0,-1.44054,-2.00061,69.1732,Q,Q
2023-03-14 17:13:59:186,0,-1.43359,-1.99058,69.173,Q,Q
2023-03-14 17:13:59:196,0,-1.42914,-1.98197,69.1741,Q,Q
2023-03-14 17:13:59:206,0,-1.42479,-1.97209,69.174,Q,Q
2023-03-14 17:13:59:216,0,-1.42481,-1.96436,69.1737,Q,Q
2023-03-14 17:13:59:226,0,-1.42598,-1.95127,69.1717,Q,Q
2023-03-14 17:13:59:236,0,-1.42782,-1.94077,69.1725,Q,Q
2023-03-14 17:13:59:246,0,-1.43275,-1.93364,69.1718,Q,Q
2023-03-14 17:13:59:256,0,-1.43152,-1.92373,69.1697,Q,Q
2023-03-14 17:13:59:266,0,-1.434,-1.91139,69.162,Q,Q
2023-03-14 17:13:59:276,0,-1.43237,-1.89788,69.1546,Q,Q
2023-03-14 17:13:59:286,0,-1.42605,-1.88281,69.1417,Q,Q
2023-03-14 17:13:59:296,0,-1.41682,-1.87222,69.1287,Q,Q
2023-03-14 17:13:59:306,0,-1.41016,-1.86227,69.1165,Q,Q
2023-03-14 17:13:59:316,0,-1.40121,-1.85699,69.1056,Q,Q
2023-03-14 17:13:59:326,0,-1.39572,-1.84854,69.0964,Q,Q
2023-03-14 17:13:59:336,0,-1.38519,-1.84038,69.0833,Q,Q
2023-03-14 17:13:59:346,0,-1.38323,-1.83074,69.0684,Q,Q
2023-03-14 17:13:59:356,0,-1.3791,-1.82027,69.0602,Q,Q
2023-03-14 17:13:59:366,0,-1.37281,-1.81034,69.0518,Q,Q
2023-03-14 17:13:59:376,0,-1.36546,-1.80314,69.044,Q,Q
2023-03-14 17:13:59:386,0,-1.35883,-1.79396,69.0413,Q,Q
2023-03-14 17:13:59:396,0,-1.35357,-1.78731,69.0427,Q,Q
2023-03-14 17:13:59:406,0,-1.3495,-1.77969,69.0496,Q,Q
2023-03-14 17:13:59:416,0,-1.34371,-1.77368,69.0614,Q,Q
2023-03-14 17:13:59:426,0,-1.33959,-1.76964,69.0727,Q,Q
2023-03-14 17:13:59:436,0,-1.33488,-1.76279,69.0845,Q,Q
2023-03-14 17:13:59:446,0,-1.33317,-1.75898,69.0961,Q,Q
2023-03-14 17:13:59:456,0,-1.32957,-1.75896,69.1058,Q,Q
2023-03-14 17:13:59:466,0,-1.32496,-1.75593,69.1158,Q,Q
2023-03-14 17:13:59:476,0,-1.32102,-1.752,69.1242,Q,Q
2023-03-14 17:13:59:486,0,-1.32092,-1.74532,69.1295,Q,Q
2023-03-14 17:13:59:496,0,-1.31815,-1.7406,69.1305,Q,Q
2023-03-14 17:13:59:506,0,-1.31647,-1.73626,69.1321,Q,Q
2023-03-14 17:13:59:516,0,-1.31681,-1.72941,69.1305,Q,Q
2023-03-14 17:13:59:526,0,-1.31624,-1.72478,69.1271,Q,Q
2023-03-14 17:13:59:536,0,-1.3139,-1.71816,69.1273,Q,Q
2023-03-14 17:13:59:546,0,-1.31309,-1.71258,69.1283,Q,Q
2023-03-14 17:13:59:556,0,-1.31135,-1.70645,69.1296,Q,Q
2023-03-14 17:13:59:566,0,-1.30888,-1.69783,69.1337,Q,Q
2023-03-14 17:13:59:576,0,-1.30227,-1.69163,69.1416,Q,Q
2023-03-14 17:13:59:586,0,-1.29592,-1.68225,69.148,Q,Q
2023-03-14 17:13:59:596,0,-1.29113,-1.67312,69.1583,Q,Q
2023-03-14 17:13:59:606,0,-1.28445,-1.66056,69.1715,Q,Q
2023-03-14 17:13:59:616,0,-1.2793,-1.65328,69.1871,Q,Q
2023-03-14 17:13:59:626,0,-1.27369,-1.64771,69.2024,Q,Q
2023-03-14 17:13:59:636,0,-1.27271,-1.64064,69.2185,Q,Q
2023-03-14 17:13:59:646,0,-1.2755,-1.63254,69.2301,Q,Q
2023-03-14 17:13:59:656,0,-1.28092,-1.62426,69.2403,Q,Q
2023-03-14 17:13:59:666,0,-1.28578,-1.61549,69.2442,Q,Q
2023-03-14 17:13:59:676,0,-1.28991,-1.60526,69.2445,Q,Q
2023-03-14 17:13:59:686,0,-1.29479,-1.59067,69.2402,Q,Q
2023-03-14 17:13:59:696,0,-1.29802,-1.5783,69.2301,Q,Q
2023-03-14 17:13:59:706,0,-1.30001,-1.56632,69.218,Q,Q
2023-03-14 17:13:59:716,0,-1.29949,-1.55668,69.2059,Q,Q
2023-03-14 17:13:59:726,0,-1.29507,-1.54604,69.1987,Q,Q
2023-03-14 17:13:59:736,0,-1.28946,-1.54353,69.198,Q,Q
2023-03-14 17:13:59:746,0,-1.28744,-1.54065,69.2055,Q,Q
2023-03-14 17:13:59:756,0,-1.28585,-1.5353,69.2108,Q,Q
2023-03-14 17:13:59:766,0,-1.28685,-1.531,69.224,Q,Q
2023-03-14 17:13:59:776,0,-1.28893,-1.53192,69.2421,Q,Q
2023-03-14 17:13:59:786,0,-1.28921,-1.53407,69.2657,Q,Q
2023-03-14 17:13:59:796,0,-1.29523,-1.5383,69.2946,Q,Q
2023-03-14 17:13:59:806,0,-1.30078,-1.54147,69.3255,Q,Q
2023-03-14 17:13:59:816,0,-1.31532,-1.5472,69.3692,Q,Q
2023-03-14 17:13:59:826,0,-1.33812,-1.55792,69.4225,Q,Q
2023-03-14 17:13:59:836,0,-1.36377,-1.56405,69.4764,Q,Q
2023-03-14 17:13:59:846,0,-1.38362,-1.56923,69.5293,Q,Q
2023-03-14 17:13:59:856,0,-1.39351,-1.56783,69.5713,Q,Q
2023-03-14 17:13:59:866,0,-1.39451,-1.55923,69.6083,Q,Q
2023-03-14 17:13:59:876,0,-1.39954,-1.54839,69.6398,Q,Q
2023-03-14 17:13:59:886,0,-1.4194,-1.53873,69.6802,Q,Q
2023-03-14 17:13:59:896,0,-1.45957,-1.5341,69.727,Q,Q
2023-03-14 17:13:59:906,0,-1.52332,-1.5415,69.7939,Q,Q
2023-03-14 17:13:59:916,0,-1.59953,-1.56181,69.8775,Q,Q
2023-03-14 17:13:59:926,0,-1.68469,-1.5916,69.9758,Q,Q
2023-03-14 17:13:59:936,0,-1.76639,-1.62753,70.0856,Q,Q
2023-03-14 17:13:59:946,0,-1.8302,-1.65911,70.1948,Q,Q
2023-03-14 17:13:59:956,0,-1.88302,-1.67701,70.2878,Q,Q
2023-03-14 17:13:59:966,0,-1.92429,-1.6743,70.3726,Q,Q
2023-03-14 17:13:59:976,0,-1.95442,-1.66487,70.4433,Q,Q
2023-03-14 17:13:59:986,0,-1.98228,-1.64663,70.5003,Q,Q
2023-03-14 17:13:59:996,0,-2.01365,-1.62521,70.5453,Q,Q
2023-03-14 17:14:00:6,0,-2.04492,-1.60859,70.5884,Q,Q
2023-03-14 17:14:00:16,0,-2.0902,-1.59963,70.6307,Q,Q
2023-03-14 17:14:00:26,0,-2.14794,-1.59232,70.6722,Q,Q
2023-03-14 17:14:00:36,0,-2.2095,-1.5898,70.7092,Q,Q
2023-03-14 17:14:00:46,0,-2.26021,-1.58509,70.7431,Q,Q
2023-03-14 17:14:00:56,0,-2.28765,-1.57875,70.7755,Q,Q
2023-03-14 17:14:00:66,0,-2.27592,-1.56388,70.8014,Q,Q
2023-03-14 17:14:00:76,0,-2.22714,-1.53999,70.8257,Q,Q
2023-03-14 17:14:00:86,0,-2.16183,-1.50562,70.8485,Q,Q
2023-03-14 17:14:00:96,0,-2.09802,-1.45602,70.8742,Q,Q
2023-03-14 17:14:00:106,0,-2.04178,-1.39838,70.9071,Q,Q
2023-03-14 17:14:00:116,0,-2.00022,-1.33536,70.9398,Q,Q
2023-03-14 17:14:00:126,0,-1.98011,-1.27799,70.9776,Q,Q
2023-03-14 17:14:00:136,0,-1.97324,-1.22349,71.0172,Q,Q
2023-03-14 17:14:00:146,0,-1.97839,-1.17061,71.0588,Q,Q
2023-03-14 17:14:00:156,0,-1.998,-1.12213,71.1054,Q,Q
2023-03-14 17:14:00:166,0,-2.03871,-1.07151,71.1502,Q,Q
2023-03-14 17:14:00:176,0,-2.09381,-1.02286,71.1973,Q,Q
2023-03-14 17:14:00:186,0,-2.16804,-0.971018,71.2445,Q,Q
2023-03-14 17:14:00:196,0,-2.2564,-0.923768,71.288,Q,Q
2023-03-14 17:14:00:206,0,-2.36239,-0.879749,71.3317,Q,Q
2023-03-14 17:14:00:217,0,-2.48733,-0.846069,71.3753,Q,Q
2023-03-14 17:14:00:227,0,-2.62848,-0.819674,71.416,Q,Q
2023-03-14 17:14:00:236,0,-2.79093,-0.787504,71.4545,Q,Q
2023-03-14 17:14:00:246,0,-2.96912,-0.757565,71.486,Q,Q
2023-03-14 17:14:00:256,0,-3.1552,-0.727323,71.5104,Q,Q
2023-03-14 17:14:00:266,0,-3.34827,-0.698805,71.5265,Q,Q
2023-03-14 17:14:00:276,0,-3.53571,-0.668132,71.5287,Q,Q
2023-03-14 17:14:00:286,0,-3.71184,-0.636881,71.5205,Q,Q
2023-03-14 17:14:00:296,0,-3.87009,-0.602381,71.4984,Q,Q
2023-03-14 17:14:00:306,0,-4.02639,-0.559522,71.4625,Q,Q
2023-03-14 17:14:00:316,0,-4.18981,-0.516182,71.4186,Q,Q
2023-03-14 17:14:00:326,0,-4.35813,-0.471631,71.3646,Q,Q
2023-03-14 17:14:00:337,0,-4.53891,-0.41988,71.3117,Q,Q
2023-03-14 17:14:00:346,0,-4.73273,-0.373472,71.254,Q,Q
2023-03-14 17:14:00:356,0,-4.94952,-0.329193,71.1918,Q,Q
2023-03-14 17:14:00:366,0,-5.18311,-0.29211,71.128,Q,Q
2023-03-14 17:14:00:376,0,-5.42204,-0.268028,71.0639,Q,Q
2023-03-14 17:14:00:386,0,-5.64768,-0.243495,71.0016,Q,Q
2023-03-14 17:14:00:396,0,-5.83745,-0.224436,70.9417,Q,Q
2023-03-14 17:14:00:406,0,-5.99025,-0.196832,70.899,Q,Q
2023-03-14 17:14:00:416,0,-6.12237,-0.155764,70.8616,Q,Q
2023-03-14 17:14:00:426,0,-6.24282,-0.111299,70.8332,Q,Q
2023-03-14 17:14:00:436,0,-6.3418,-0.0672565,70.815,Q,Q
2023-03-14 17:14:00:447,0,-6.42382,-0.0244852,70.8067,Q,Q
2023-03-14 17:14:00:456,0,-6.4928,0.0173309,70.8015,Q,Q
2023-03-14 17:14:00:466,0,-6.54887,0.0516023,70.8023,Q,Q
2023-03-14 17:14:00:476,0,-6.59983,0.0719637,70.807,Q,Q
2023-03-14 17:14:00:486,0,-6.65188,0.0885419,70.8172,Q,Q
2023-03-14 17:14:00:496,0,-6.71166,0.097296,70.8261,Q,Q
2023-03-14 17:14:00:506,0,-6.77829,0.0993163,70.8351,Q,Q
2023-03-14 17:14:00:516,0,-6.85065,0.0898633,70.8431,Q,Q
2023-03-14 17:14:00:526,0,-6.92377,0.077958,70.8535,Q,Q
2023-03-14 17:14:00:536,0,-6.99815,0.0615825,70.8633,Q,Q
2023-03-14 17:14:00:546,0,-7.0704,0.0432701,70.867,Q,Q
2023-03-14 17:14:00:556,0,-7.14526,0.0231807,70.874,Q,Q
2023-03-14 17:14:00:566,0,-7.2259,0.000405959,70.8855,Q,Q
2023-03-14 17:14:00:576,0,-7.30782,-0.0198342,70.8956,Q,Q
2023-03-14 17:14:00:586,0,-7.38782,-0.0369213,70.9086,Q,Q
2023-03-14 17:14:00:596,0,-7.46177,-0.0516371,70.9245,Q,Q
2023-03-14 17:14:00:606,0,-7.53294,-0.0615065,70.9414,Q,Q
2023-03-14 17:14:00:616,0,-7.60646,-0.0645781,70.9544,Q,Q
2023-03-14 17:14:00:626,0,-7.67156,-0.0687349,70.9688,Q,Q
2023-03-14 17:14:00:636,0,-7.72329,-0.0666856,70.9804,Q,Q
2023-03-14 17:14:00:646,0,-7.76803,-0.0629352,70.9882,Q,Q
2023-03-14 17:14:00:656,0,-7.80454,-0.0539091,70.9878,Q,Q
2023-03-14 17:14:00:666,0,-7.83014,-0.0416093,70.9805,Q,Q
2023-03-14 17:14:00:676,0,-7.84609,-0.029364,70.9659,Q,Q
2023-03-14 17:14:00:686,0,-7.85721,-0.0183384,70.941,Q,Q
2023-03-14 17:14:00:696,0,-7.85965,-0.008568,70.91,Q,Q
2023-03-14 17:14:00:706,0,-7.85036,0.00212989,70.8732,Q,Q
2023-03-14 17:14:00:716,0,-7.82961,0.016713,70.8302,Q,Q
2023-03-14 17:14:00:726,0,-7.79587,0.0312152,70.7808,Q,Q
2023-03-14 17:14:00:736,0,-7.7497,0.0458251,70.723,Q,Q
2023-03-14 17:14:00:746,0,-7.68733,0.0581822,70.6547,Q,Q
2023-03-14 17:14:00:756,0,-7.61249,0.0655089,70.5835,Q,Q
2023-03-14 17:14:00:766,0,-7.52466,0.0718701,70.5076,Q,Q
2023-03-14 17:14:00:776,0,-7.42652,0.0723717,70.4276,Q,Q
2023-03-14 17:14:00:786,0,-7.31975,0.0695496,70.3431,Q,Q
2023-03-14 17:14:00:796,0,-7.20946,0.0677885,70.2583,Q,Q
2023-03-14 17:14:00:806,0,-7.09868,0.0643056,70.1756,Q,Q
2023-03-14 17:14:00:816,0,-6.99144,0.0604489,70.0957,Q,Q
2023-03-14 17:14:00:826,0,-6.88468,0.0572437,70.0208,Q,Q
2023-03-14 17:14:00:836,0,-6.77398,0.0557542,69.9532,Q,Q
2023-03-14 17:14:00:846,0,-6.6647,0.0512225,69.8935,Q,Q
2023-03-14 17:14:00:856,0,-6.56372,0.0516033,69.8375,Q,Q
2023-03-14 17:14:00:866,0,-6.46664,0.0462137,69.7881,Q,Q
2023-03-14 17:14:00:877,0,-6.37238,0.0402196,69.7394,Q,Q
2023-03-14 17:14:00:886,0,-6.28231,0.0272542,69.6961,Q,Q
2023-03-14 17:14:00:896,0,-6.19158,0.018136,69.6572,Q,Q
2023-03-14 17:14:00:906,0,-6.09794,0.00759323,69.6181,Q,Q
2023-03-14 17:14:00:916,0,-5.99924,-0.000754283,69.5828,Q,Q
2023-03-14 17:14:00:926,0,-5.90854,-0.004213,69.552,Q,Q
2023-03-14 17:14:00:936,0,-5.82567,-0.00881883,69.5247,Q,Q
2023-03-14 17:14:00:946,0,-5.75124,-0.0155798,69.505,Q,Q
2023-03-14 17:14:00:956,0,-5.68078,-0.0207472,69.481,Q,Q
2023-03-14 17:14:00:966,0,-5.61008,-0.024247,69.4588,Q,Q
2023-03-14 17:14:00:976,0,-5.54849,-0.0339885,69.4388,Q,Q
2023-03-14 17:14:00:986,0,-5.49146,-0.0396272,69.4209,Q,Q
2023-03-14 17:14:00:996,0,-5.43242,-0.04147,69.4047,Q,Q
2023-03-14 17:14:01:6,0,-5.37134,-0.0389485,69.3896,Q,Q
2023-03-14 17:14:01:16,0,-5.30493,-0.0380563,69.374,Q,Q
2023-03-14 17:14:01:26,0,-5.24331,-0.0341275,69.3651,Q,Q
2023-03-14 17:14:01:36,0,-5.18971,-0.0328474,69.361,Q,Q
2023-03-14 17:14:01:46,0,-5.14573,-0.0301761,69.3634,Q,Q
2023-03-14 17:14:01:56,0,-5.11035,-0.0329405,69.3639,Q,Q
2023-03-14 17:14:01:66,0,-5.07847,-0.0422458,69.3631,Q,Q
2023-03-14 17:14:01:76,0,-5.04935,-0.0515715,69.3632,Q,Q
2023-03-14 17:14:01:86,0,-5.02108,-0.0573187,69.3622,Q,Q
2023-03-14 17:14:01:96,0,-4.99718,-0.0661287,69.3593,Q,Q
2023-03-14 17:14:01:106,0,-4.97549,-0.0756658,69.357,Q,Q
2023-03-14 17:14:01:116,0,-4.9608,-0.0913567,69.3536,Q,Q
2023-03-14 17:14:01:126,0,-4.94622,-0.105711,69.3498,Q,Q
2023-03-14 17:14:01:136,0,-4.93038,-0.116205,69.3456,Q,Q
2023-03-14 17:14:01:146,0,-4.91731,-0.133889,69.3464,Q,Q
2023-03-14 17:14:01:156,0,-4.90901,-0.151093,69.35,Q,Q
2023-03-14 17:14:01:166,0,-4.90608,-0.163967,69.356,Q,Q
2023-03-14 17:14:01:176,0,-4.90496,-0.179074,69.3668,Q,Q
2023-03-14 17:14:01:186,0,-4.90317,-0.193767,69.3808,Q,Q
2023-03-14 17:14:01:196,0,-4.90298,-0.211851,69.3967,Q,Q
2023-03-14 17:14:01:206,0,-4.89806,-0.22934,69.4142,Q,Q
2023-03-14 17:14:01:216,0,-4.89153,-0.244906,69.4323,Q,Q
2023-03-14 17:14:01:226,0,-4.88267,-0.259569,69.453,Q,Q
2023-03-14 17:14:01:236,0,-4.86977,-0.277292,69.4722,Q,Q
2023-03-14 17:14:01:246,0,-4.86072,-0.294483,69.4933,Q,Q
2023-03-14 17:14:01:256,0,-4.85189,-0.310492,69.5119,Q,Q
2023-03-14 17:14:01:266,0,-4.84459,-0.325348,69.5343,Q,Q
2023-03-14 17:14:01:276,0,-4.83705,-0.339159,69.555,Q,Q
2023-03-14 17:14:01:286,0,-4.82774,-0.354386,69.5754,Q,Q
2023-03-14 17:14:01:296,0,-4.81597,-0.369957,69.5948,Q,Q
2023-03-14 17:14:01:306,0,-4.79965,-0.388322,69.6096,Q,Q
2023-03-14 17:14:01:316,0,-4.78388,-0.404434,69.6256,Q,Q
2023-03-14 17:14:01:326,0,-4.76584,-0.422809,69.6366,Q,Q
2023-03-14 17:14:01:336,0,-4.7388,-0.446907,69.641,Q,Q
2023-03-14 17:14:01:346,0,-4.70883,-0.463315,69.6391,Q,Q
2023-03-14 17:14:01:356,0,-4.67724,-0.479695,69.6347,Q,Q
2023-03-14 17:14:01:366,0,-4.64357,-0.496506,69.6234,Q,Q
2023-03-14 17:14:01:376,0,-4.61258,-0.511263,69.6054,Q,Q
2023-03-14 17:14:01:386,0,-4.58263,-0.526218,69.5876,Q,Q
2023-03-14 17:14:01:396,0,-4.55686,-0.538887,69.5701,Q,Q
2023-03-14 17:14:01:406,0,-4.53007,-0.551552,69.5506,Q,Q
2023-03-14 17:14:01:416,0,-4.50216,-0.557678,69.5322,Q,Q
2023-03-14 17:14:01:426,0,-4.4786,-0.561878,69.5184,Q,Q
2023-03-14 17:14:01:436,0,-4.45575,-0.565663,69.5053,Q,Q
2023-03-14 17:14:01:446,0,-4.43091,-0.566331,69.494,Q,Q
2023-03-14 17:14:01:456,0,-4.40652,-0.564472,69.4889,Q,Q
2023-03-14 17:14:01:466,0,-4.38495,-0.563225,69.4858,Q,Q
2023-03-14 17:14:01:476,0,-4.36359,-0.563058,69.4812,Q,Q
2023-03-14 17:14:01:486,0,-4.34131,-0.56223,69.4769,Q,Q
2023-03-14 17:14:01:496,0,-4.32606,-0.568222,69.4716,Q,Q
2023-03-14 17:14:01:506,0,-4.31023,-0.573905,69.4661,Q,Q
2023-03-14 17:14:01:516,0,-4.29487,-0.581014,69.4632,Q,Q
2023-03-14 17:14:01:526,0,-4.27502,-0.590361,69.465,Q,Q
2023-03-14 17:14:01:536,0,-4.25491,-0.600117,69.4665,Q,Q
2023-03-14 17:14:01:546,0,-4.23404,-0.608529,69.4713,Q,Q
2023-03-14 17:14:01:556,0,-4.20732,-0.618129,69.483,Q,Q
2023-03-14 17:14:01:566,0,-4.1752,-0.626504,69.496,Q,Q
2023-03-14 17:14:01:576,0,-4.14537,-0.633455,69.5063,Q,Q
2023-03-14 17:14:01:586,0,-4.11733,-0.639446,69.5176,Q,Q
2023-03-14 17:14:01:596,0,-4.08928,-0.643654,69.5313,Q,Q
2023-03-14 17:14:01:606,0,-4.06845,-0.649798,69.5455,Q,Q
2023-03-14 17:14:01:616,0,-4.04654,-0.653523,69.5564,Q,Q
2023-03-14 17:14:01:626,0,-4.02469,-0.656143,69.5666,Q,Q
2023-03-14 17:14:01:636,0,-3.99768,-0.653134,69.575,Q,Q
2023-03-14 17:14:01:646,0,-3.97247,-0.649936,69.5795,Q,Q
2023-03-14 17:14:01:656,0,-3.94126,-0.645789,69.5789,Q,Q
2023-03-14 17:14:01:666,0,-3.91158,-0.640428,69.5783,Q,Q
2023-03-14 17:14:01:676,0,-3.88314,-0.63636,69.5737,Q,Q
2023-03-14 17:14:01:686,0,-3.85334,-0.637542,69.5663,Q,Q
2023-03-14 17:14:01:696,0,-3.82689,-0.634651,69.5593,Q,Q
2023-03-14 17:14:01:706,0,-3.79729,-0.631031,69.5492,Q,Q
2023-03-14 17:14:01:716,0,-3.77109,-0.627147,69.5357,Q,Q
2023-03-14 17:14:01:726,0,-3.74306,-0.628383,69.52,Q,Q
2023-03-14 17:14:01:736,0,-3.71688,-0.628915,69.5035,Q,Q
2023-03-14 17:14:01:746,0,-3.69858,-0.628382,69.4832,Q,Q
2023-03-14 17:14:01:756,0,-3.68202,-0.627073,69.4632,Q,Q
2023-03-14 17:14:01:766,0,-3.67184,-0.62775,69.4419,Q,Q
2023-03-14 17:14:01:776,0,-3.66396,-0.630108,69.4183,Q,Q
2023-03-14 17:14:01:786,0,-3.6605,-0.634115,69.393,Q,Q
2023-03-14 17:14:01:796,0,-3.66123,-0.64124,69.3665,Q,Q
2023-03-14 17:14:01:806,0,-3.66523,-0.649515,69.3383,Q,Q
2023-03-14 17:14:01:816,0,-3.66804,-0.659603,69.3117,Q,Q
2023-03-14 17:14:01:826,0,-3.66789,-0.672785,69.2841,Q,Q
2023-03-14 17:14:01:836,0,-3.66099,-0.686644,69.2518,Q,Q
2023-03-14 17:14:01:846,0,-3.65424,-0.703274,69.2179,Q,Q
2023-03-14 17:14:01:856,0,-3.64637,-0.721391,69.1826,Q,Q
2023-03-14 17:14:01:866,0,-3.64097,-0.742692,69.1468,Q,Q
2023-03-14 17:14:01:876,0,-3.63424,-0.768626,69.1132,Q,Q
2023-03-14 17:14:01:886,0,-3.62965,-0.791152,69.0769,Q,Q
2023-03-14 17:14:01:896,0,-3.6291,-0.816042,69.04,Q,Q
2023-03-14 17:14:01:906,0,-3.6357,-0.842856,69.0004,Q,Q
2023-03-14 17:14:01:916,0,-3.64782,-0.868536,68.9596,Q,Q
2023-03-14 17:14:01:926,0,-3.65457,-0.896618,68.9211,Q,Q
2023-03-14 17:14:01:936,0,-3.65762,-0.9298,68.8829,Q,Q
2023-03-14 17:14:01:946,0,-3.66054,-0.965452,68.8461,Q,Q
2023-03-14 17:14:01:956,0,-3.6599,-0.996313,68.8061,Q,Q
2023-03-14 17:14:01:966,0,-3.65757,-1.03115,68.7627,Q,Q
2023-03-14 17:14:01:976,0,-3.6564,-1.06598,68.7159,Q,Q
2023-03-14 17:14:01:986,0,-3.6487,-1.09978,68.6652,Q,Q
2023-03-14 17:14:01:996,0,-3.64021,-1.1349,68.6102,Q,Q
2023-03-14 17:14:02:6,0,-3.63058,-1.16761,68.5581,Q,Q
2023-03-14 17:14:02:16,0,-3.61903,-1.19882,68.505,Q,Q
2023-03-14 17:14:02:26,0,-3.60922,-1.23017,68.4523,Q,Q
2023-03-14 17:14:02:36,0,-3.59565,-1.25678,68.3948,Q,Q
2023-03-14 17:14:02:46,0,-3.5809,-1.28245,68.3388,Q,Q
2023-03-14 17:14:02:56,0,-3.55963,-1.30759,68.2869,Q,Q
2023-03-14 17:14:02:66,0,-3.54,-1.32912,68.2402,Q,Q
2023-03-14 17:14:02:76,0,-3.52106,-1.35452,68.1949,Q,Q
2023-03-14 17:14:02:86,0,-3.50678,-1.37813,68.1532,Q,Q
2023-03-14 17:14:02:96,0,-3.49203,-1.39983,68.1208,Q,Q
2023-03-14 17:14:02:106,0,-3.48142,-1.42057,68.0899,Q,Q
2023-03-14 17:14:02:116,0,-3.47108,-1.44254,68.0637,Q,Q
2023-03-14 17:14:02:126,0,-3.45485,-1.46476,68.0384,Q,Q
2023-03-14 17:14:02:136,0,-3.44099,-1.48568,68.0137,Q,Q
2023-03-14 17:14:02:146,0,-3.42569,-1.50589,67.9951,Q,Q
2023-03-14 17:14:02:156,0,-3.41091,-1.52637,67.9801,Q,Q
2023-03-14 17:14:02:166,0,-3.39587,-1.54437,67.9664,Q,Q
2023-03-14 17:14:02:176,0,-3.37579,-1.5621,67.9574,Q,Q
2023-03-14 17:14:02:186,0,-3.36243,-1.58023,67.949,Q,Q
2023-03-14 17:14:02:196,0,-3.35174,-1.59662,67.9462,Q,Q
2023-03-14 17:14:02:206,0,-3.33996,-1.61244,67.945,Q,Q
2023-03-14 17:14:02:216,0,-3.33328,-1.62633,67.9489,Q,Q
2023-03-14 17:14:02:226,0,-3.33112,-1.63891,67.9558,Q,Q
2023-03-14 17:14:02:236,0,-3.33493,-1.65284,67.966,Q,Q
2023-03-14 17:14:02:246,0,-3.34165,-1.66602,67.9806,Q,Q
2023-03-14 17:14:02:257,0,-3.34655,-1.67587,67.9935,Q,Q
2023-03-14 17:14:02:266,0,-3.35378,-1.68163,68.0101,Q,Q
2023-03-14 17:14:02:276,0,-3.35686,-1.68718,68.0256,Q,Q
2023-03-14 17:14:02:287,0,-3.3639,-1.69626,68.041,Q,Q
2023-03-14 17:14:02:297,0,-3.36799,-1.70359,68.0554,Q,Q
2023-03-14 17:14:02:307,0,-3.36936,-1.70727,68.0662,Q,Q
2023-03-14 17:14:02:317,0,-3.3687,-1.71609,68.0716,Q,Q
2023-03-14 17:14:02:326,0,-3.36354,-1.72207,68.0764,Q,Q
2023-03-14 17:14:02:336,0,-3.3584,-1.72495,68.0764,Q,Q
2023-03-14 17:14:02:346,0,-3.34789,-1.72697,68.0743,Q,Q
2023-03-14 17:14:02:356,0,-3.33457,-1.72802,68.0713,Q,Q
2023-03-14 17:14:02:366,0,-3.32179,-1.72915,68.0719,Q,Q
2023-03-14 17:14:02:376,0,-3.30666,-1.72755,68.0748,Q,Q
2023-03-14 17:14:02:386,0,-3.28771,-1.72492,68.0761,Q,Q
2023-03-14 17:14:02:396,0,-3.27038,-1.72396,68.0782,Q,Q
2023-03-14 17:14:02:406,0,-3.24994,-1.7195,68.0857,Q,Q
2023-03-14 17:14:02:416,0,-3.22613,-1.71625,68.0993,Q,Q
2023-03-14 17:14:02:426,0,-3.20179,-1.71178,68.116,Q,Q
2023-03-14 17:14:02:436,0,-3.16821,-1.70184,68.1369,Q,Q
2023-03-14 17:14:02:446,0,-3.13317,-1.6909,68.1594,Q,Q
2023-03-14 17:14:02:456,0,-3.1016,-1.68194,68.1872,Q,Q
2023-03-14 17:14:02:466,0,-3.07247,-1.67646,68.224,Q,Q
2023-03-14 17:14:02:476,0,-3.04399,-1.67376,68.2625,Q,Q
2023-03-14 17:14:02:486,0,-3.00972,-1.66821,68.3069,Q,Q
2023-03-14 17:14:02:496,0,-2.97543,-1.66145,68.3543,Q,Q
2023-03-14 17:14:02:506,0,-2.93911,-1.65466,68.4124,Q,Q
2023-03-14 17:14:02:516,0,-2.90015,-1.64499,68.4671,Q,Q
2023-03-14 17:14:02:526,0,-2.8612,-1.63581,68.5252,Q,Q
2023-03-14 17:14:02:536,0,-2.82409,-1.62833,68.5843,Q,Q
2023-03-14 17:14:02:546,0,-2.79129,-1.623,68.6459,Q,Q
2023-03-14 17:14:02:556,0,-2.75937,-1.61968,68.7101,Q,Q
2023-03-14 17:14:02:566,0,-2.72894,-1.62338,68.7737,Q,Q
2023-03-14 17:14:02:576,0,-2.70023,-1.62665,68.8398,Q,Q
2023-03-14 17:14:02:586,0,-2.66867,-1.6291,68.9024,Q,Q
2023-03-14 17:14:02:596,0,-2.63542,-1.63227,68.9637,Q,Q
2023-03-14 17:14:02:606,0,-2.60621,-1.63859,69.0211,Q,Q
2023-03-14 17:14:02:616,0,-2.57405,-1.64406,69.0749,Q,Q
2023-03-14 17:14:02:626,0,-2.54693,-1.65592,69.1246,Q,Q
2023-03-14 17:14:02:636,0,-2.52382,-1.66141,69.1629,Q,Q
2023-03-14 17:14:02:646,0,-2.50184,-1.67088,69.191,Q,Q
2023-03-14 17:14:02:656,0,-2.48518,-1.68583,69.2188,Q,Q
2023-03-14 17:14:02:666,0,-2.46911,-1.69685,69.235,Q,Q
2023-03-14 17:14:02:676,0,-2.45121,-1.70753,69.2463,Q,Q
2023-03-14 17:14:02:686,0,-2.43273,-1.72023,69.2534,Q,Q
2023-03-14 17:14:02:696,0,-2.41632,-1.733,69.2524,Q,Q
2023-03-14 17:14:02:706,0,-2.40035,-1.74626,69.2506,Q,Q
2023-03-14 17:14:02:716,0,-2.38951,-1.75468,69.2468,Q,Q
2023-03-14 17:14:02:726,0,-2.37525,-1.76207,69.2428,Q,Q
2023-03-14 17:14:02:736,0,-2.36345,-1.77017,69.2364,Q,Q
2023-03-14 17:14:02:746,0,-2.34897,-1.77638,69.2315,Q,Q
2023-03-14 17:14:02:756,0,-2.33388,-1.77779,69.2272,Q,Q
2023-03-14 17:14:02:766,0,-2.315,-1.78326,69.224,Q,Q
2023-03-14 17:14:02:776,0,-2.29272,-1.78924,69.227,Q,Q
2023-03-14 17:14:02:786,0,-2.27093,-1.79266,69.2342,Q,Q
2023-03-14 17:14:02:796,0,-2.24912,-1.7957,69.2431,Q,Q
2023-03-14 17:14:02:806,0,-2.22746,-1.80042,69.2559,Q,Q
2023-03-14 17:14:02:816,0,-2.20143,-1.79916,69.2674,Q,Q
2023-03-14 17:14:02:826,0,-2.17475,-1.79766,69.2783,Q,Q
2023-03-14 17:14:02:836,0,-2.14817,-1.80178,69.2968,Q,Q
2023-03-14 17:14:02:846,0,-2.12358,-1.81103,69.3151,Q,Q
2023-03-14 17:14:02:856,0,-2.09803,-1.82097,69.3285,Q,Q
2023-03-14 17:14:02:866,0,-2.07673,-1.83242,69.3418,Q,Q
2023-03-14 17:14:02:876,0,-2.05105,-1.84199,69.3575,Q,Q
2023-03-14 17:14:02:886,0,-2.02813,-1.84638,69.3708,Q,Q
2023-03-14 17:14:02:896,0,-2.00307,-1.85177,69.387,Q,Q
2023-03-14 17:14:02:906,0,-1.98,-1.85787,69.4022,Q,Q
2023-03-14 17:14:02:916,0,-1.95823,-1.8645,69.4179,Q,Q
2023-03-14 17:14:02:926,0,-1.93953,-1.87564,69.43,Q,Q
2023-03-14 17:14:02:936,0,-1.92621,-1.88494,69.4361,Q,Q
2023-03-14 17:14:02:946,0,-1.91513,-1.89632,69.4402,Q,Q
2023-03-14 17:14:02:956,0,-1.91999,-1.91912,69.443,Q,Q
2023-03-14 17:14:02:966,0,-1.93249,-1.9504,69.4496,Q,Q
2023-03-14 17:14:02:976,0,-1.95676,-1.99509,69.4676,Q,Q
2023-03-14 17:14:02:986,0,-1.99592,-2.03713,69.4948,Q,Q
2023-03-14 17:14:02:996,0,-2.04261,-2.08149,69.5312,Q,Q
2023-03-14 17:14:03:6,0,-2.08555,-2.11714,69.5756,Q,Q
2023-03-14 17:14:03:16,0,-2.12362,-2.14333,69.6161,Q,Q
2023-03-14 17:14:03:26,0,-2.14643,-2.15906,69.6491,Q,Q
2023-03-14 17:14:03:36,0,-2.15491,-2.15653,69.6642,Q,Q
2023-03-14 17:14:03:46,0,-2.14891,-2.14042,69.6629,Q,Q
2023-03-14 17:14:03:56,0,-2.12516,-2.11531,69.6536,Q,Q
2023-03-14 17:14:03:66,0,-2.08058,-2.08791,69.6356,Q,Q
2023-03-14 17:14:03:76,0,-2.00144,-2.06685,69.6084,Q,Q
2023-03-14 17:14:03:86,0,-1.89403,-2.05426,69.5808,Q,Q
2023-03-14 17:14:03:96,0,-1.77157,-2.04245,69.5573,Q,Q
2023-03-14 17:14:03:106,0,-1.65082,-2.0349,69.5297,Q,Q
2023-03-14 17:14:03:116,0,-1.53972,-2.03215,69.4928,Q,Q
2023-03-14 17:14:03:126,0,-1.4489,-2.03238,69.4482,Q,Q
2023-03-14 17:14:03:136,0,-1.37862,-2.04371,69.4054,Q,Q
2023-03-14 17:14:03:146,0,-1.3299,-2.06915,69.3729,Q,Q
2023-03-14 17:14:03:156,0,-1.2983,-2.11178,69.3487,Q,Q
2023-03-14 17:14:03:166,0,-1.28227,-2.16656,69.3361,Q,Q
2023-03-14 17:14:03:176,0,-1.2722,-2.22421,69.3365,Q,Q
2023-03-14 17:14:03:186,0,-1.26571,-2.28598,69.3472,Q,Q
2023-03-14 17:14:03:196,0,-1.25714,-2.34214,69.3633,Q,Q
2023-03-14 17:14:03:206,0,-1.25488,-2.39956,69.39,Q,Q
2023-03-14 17:14:03:216,0,-1.25618,-2.44167,69.4213,Q,Q
2023-03-14 17:14:03:226,0,-1.25811,-2.47093,69.4565,Q,Q
2023-03-14 17:14:03:236,0,-1.25805,-2.49592,69.4968,Q,Q
2023-03-14 17:14:03:247,0,-1.25474,-2.51481,69.5404,Q,Q
2023-03-14 17:14:03:256,0,-1.24304,-2.52344,69.5866,Q,Q
2023-03-14 17:14:03:266,0,-1.21726,-2.53417,69.6338,Q,Q
2023-03-14 17:14:03:276,0,-1.18423,-2.53515,69.6855,Q,Q
2023-03-14 17:14:03:286,0,-1.14785,-2.53194,69.7358,Q,Q
2023-03-14 17:14:03:296,0,-1.11803,-2.53512,69.7874,Q,Q
2023-03-14 17:14:03:306,0,-1.09654,-2.53312,69.8316,Q,Q
2023-03-14 17:14:03:316,0,-1.07301,-2.52302,69.8843,Q,Q
2023-03-14 17:14:03:326,0,-1.0559,-2.52468,69.9193,Q,Q
2023-03-14 17:14:03:336,0,-1.03897,-2.53446,69.9432,Q,Q
2023-03-14 17:14:03:346,0,-1.02441,-2.54219,69.97,Q,Q
2023-03-14 17:14:03:356,0,-1.01483,-2.56541,70.0066,Q,Q
2023-03-14 17:14:03:366,0,-1.01843,-2.59159,70.0436,Q,Q
2023-03-14 17:14:03:376,0,-1.01784,-2.62176,70.0767,Q,Q
2023-03-14 17:14:03:386,0,-1.01457,-2.6639,70.1162,Q,Q
2023-03-14 17:14:03:396,0,-1.01381,-2.72025,70.1599,Q,Q
2023-03-14 17:14:03:406,0,-1.01919,-2.78754,70.2106,Q,Q
2023-03-14 17:14:03:416,0,-1.03306,-2.85789,70.2618,Q,Q
2023-03-14 17:14:03:426,0,-1.04938,-2.93526,70.3191,Q,Q
2023-03-14 17:14:03:436,0,-1.06491,-3.01275,70.3852,Q,Q
2023-03-14 17:14:03:446,0,-1.06902,-3.08804,70.4606,Q,Q
2023-03-14 17:14:03:456,0,-1.05832,-3.16091,70.5392,Q,Q
2023-03-14 17:14:03:466,0,-1.02993,-3.22227,70.6168,Q,Q
2023-03-14 17:14:03:476,0,-0.981436,-3.27672,70.6908,Q,Q
2023-03-14 17:14:03:486,0,-0.924832,-3.32718,70.7571,Q,Q
2023-03-14 17:14:03:496,0,-0.873126,-3.36522,70.8231,Q,Q
2023-03-14 17:14:03:506,0,-0.82287,-3.39778,70.8862,Q,Q
2023-03-14 17:14:03:517,0,-0.782273,-3.42401,70.9383,Q,Q
2023-03-14 17:14:03:526,0,-0.74767,-3.44605,70.981,Q,Q
2023-03-14 17:14:03:536,0,-0.722323,-3.46744,71.0179,Q,Q
2023-03-14 17:14:03:546,0,-0.704505,-3.48156,71.0434,Q,Q
2023-03-14 17:14:03:556,0,-0.688266,-3.49418,71.0582,Q,Q
2023-03-14 17:14:03:566,0,-0.671287,-3.50507,71.0586,Q,Q
2023-03-14 17:14:03:576,0,-0.649971,-3.51126,71.0487,Q,Q
2023-03-14 17:14:03:586,0,-0.621201,-3.51329,71.0192,Q,Q
2023-03-14 17:14:03:596,0,-0.58426,-3.51611,70.9765,Q,Q
2023-03-14 17:14:03:607,0,-0.541046,-3.51497,70.9211,Q,Q
2023-03-14 17:14:03:617,0,-0.490178,-3.51359,70.8548,Q,Q
2023-03-14 17:14:03:626,0,-0.433239,-3.51489,70.7797,Q,Q
2023-03-14 17:14:03:637,0,-0.381393,-3.52885,70.7009,Q,Q
2023-03-14 17:14:03:646,0,-0.331817,-3.55439,70.6302,Q,Q
2023-03-14 17:14:03:656,0,-0.290102,-3.58744,70.567,Q,Q
2023-03-14 17:14:03:666,0,-0.249935,-3.62295,70.5057,Q,Q
2023-03-14 17:14:03:676,0,-0.208704,-3.65583,70.4509,Q,Q
2023-03-14 17:14:03:686,0,-0.152659,-3.68437,70.4007,Q,Q
2023-03-14 17:14:03:696,0,-0.0854152,-3.7082,70.3571,Q,Q
2023-03-14 17:14:03:706,0,-0.00265568,-3.72293,70.3184,Q,Q
2023-03-14 17:14:03:716,0,0.0894812,-3.72446,70.2822,Q,Q
2023-03-14 17:14:03:726,0,0.183475,-3.72332,70.2523,Q,Q
2023-03-14 17:14:03:736,0,0.277717,-3.71708,70.2299,Q,Q
2023-03-14 17:14:03:747,0,0.358204,-3.71575,70.2134,Q,Q
2023-03-14 17:14:03:756,0,0.433227,-3.7181,70.2054,Q,Q
2023-03-14 17:14:03:766,0,0.498955,-3.73487,70.2084,Q,Q
2023-03-14 17:14:03:776,0,0.558878,-3.75644,70.2147,Q,Q
2023-03-14 17:14:03:786,0,0.614135,-3.784,70.2325,Q,Q
2023-03-14 17:14:03:796,0,0.669572,-3.80819,70.2532,Q,Q
2023-03-14 17:14:03:806,0,0.721301,-3.82535,70.2738,Q,Q
2023-03-14 17:14:03:816,0,0.773752,-3.83652,70.2965,Q,Q
2023-03-14 17:14:03:826,0,0.824538,-3.83544,70.3173,Q,Q
2023-03-14 17:14:03:836,0,0.874594,-3.82749,70.3281,Q,Q
2023-03-14 17:14:03:846,0,0.922127,-3.81153,70.3472,Q,Q
2023-03-14 17:14:03:856,0,0.965531,-3.79379,70.3701,Q,Q
2023-03-14 17:14:03:866,0,1.0075,-3.78271,70.3971,Q,Q
2023-03-14 17:14:03:876,0,1.0462,-3.76902,70.431,Q,Q
2023-03-14 17:14:03:886,0,1.08196,-3.75873,70.467,Q,Q
2023-03-14 17:14:03:896,0,1.11538,-3.74589,70.5053,Q,Q
2023-03-14 17:14:03:906,0,1.1465,-3.72655,70.5418,Q,Q
2023-03-14 17:14:03:916,0,1.17405,-3.70581,70.5673,Q,Q
2023-03-14 17:14:03:926,0,1.19938,-3.68752,70.5798,Q,Q
2023-03-14 17:14:03:936,0,1.21811,-3.67526,70.5827,Q,Q
2023-03-14 17:14:03:946,0,1.23083,-3.67056,70.5772,Q,Q
2023-03-14 17:14:03:956,0,1.22812,-3.67704,70.5704,Q,Q
2023-03-14 17:14:03:966,0,1.21541,-3.68963,70.5623,Q,Q
2023-03-14 17:14:03:976,0,1.19865,-3.71428,70.5595,Q,Q
2023-03-14 17:14:03:986,0,1.17759,-3.74104,70.559,Q,Q
2023-03-14 17:14:03:996,0,1.15414,-3.7675,70.5554,Q,Q
2023-03-14 17:14:04:6,0,1.12921,-3.78663,70.5503,Q,Q
2023-03-14 17:14:04:16,0,1.10166,-3.80184,70.5432,Q,Q
2023-03-14 17:14:04:26,0,1.06648,-3.81816,70.531,Q,Q
2023-03-14 17:14:04:36,0,1.02406,-3.83261,70.5076,Q,Q
2023-03-14 17:14:04:46,0,0.980789,-3.84317,70.4804,Q,Q
2023-03-14 17:14:04:56,0,0.94048,-3.84736,70.4435,Q,Q
2023-03-14 17:14:04:66,0,0.907003,-3.84962,70.3991,Q,Q
2023-03-14 17:14:04:76,0,0.870151,-3.86108,70.3605,Q,Q
2023-03-14 17:14:04:86,0,0.834462,-3.8796,70.3225,Q,Q
2023-03-14 17:14:04:96,0,0.79722,-3.90861,70.2994,Q,Q
2023-03-14 17:14:04:106,0,0.761045,-3.93837,70.2934,Q,Q
2023-03-14 17:14:04:116,0,0.726337,-3.95922,70.2873,Q,Q
2023-03-14 17:14:04:126,0,0.69994,-3.96981,70.2738,Q,Q
2023-03-14 17:14:04:136,0,0.676751,-3.97243,70.2552,Q,Q
2023-03-14 17:14:04:146,0,0.650295,-3.9677,70.2261,Q,Q
2023-03-14 17:14:04:156,0,0.614937,-3.95923,70.1841,Q,Q
2023-03-14 17:14:04:166,0,0.581106,-3.95596,70.1358,Q,Q
2023-03-14 17:14:04:176,0,0.547244,-3.95827,70.0857,Q,Q
2023-03-14 17:14:04:186,0,0.509212,-3.97055,70.0395,Q,Q
2023-03-14 17:14:04:196,0,0.471593,-3.9856,70.0049,Q,Q
2023-03-14 17:14:04:206,0,0.441196,-3.99234,69.9784,Q,Q
2023-03-14 17:14:04:216,0,0.415418,-3.99103,69.9514,Q,Q
2023-03-14 17:14:04:226,0,0.40311,-3.97905,69.9279,Q,Q
2023-03-14 17:14:04:236,0,0.392276,-3.96148,69.9111,Q,Q
2023-03-14 17:14:04:246,0,0.382531,-3.94077,69.9039,Q,Q
2023-03-14 17:14:04:256,0,0.381391,-3.91135,69.8979,Q,Q
2023-03-14 17:14:04:266,0,0.381449,-3.87977,69.8922,Q,Q
2023-03-14 17:14:04:276,0,0.387795,-3.85121,69.8992,Q,Q
2023-03-14 17:14:04:286,0,0.394076,-3.83458,69.9149,Q,Q
2023-03-14 17:14:04:296,0,0.399017,-3.81992,69.9316,Q,Q
2023-03-14 17:14:04:306,0,0.406284,-3.79906,69.9414,Q,Q
2023-03-14 17:14:04:316,0,0.423281,-3.78043,69.9363,Q,Q
2023-03-14 17:14:04:326,0,0.442038,-3.76213,69.9199,Q,Q
2023-03-14 17:14:04:336,0,0.455886,-3.74377,69.8872,Q,Q
2023-03-14 17:14:04:346,0,0.458913,-3.72391,69.8379,Q,Q
2023-03-14 17:14:04:356,0,0.454226,-3.70555,69.7656,Q,Q
2023-03-14 17:14:04:366,0,0.44251,-3.68732,69.6857,Q,Q
2023-03-14 17:14:04:376,0,0.429084,-3.6693,69.5972,Q,Q
2023-03-14 17:14:04:386,0,0.409588,-3.65584,69.5109,Q,Q
2023-03-14 17:14:04:396,0,0.387686,-3.64564,69.4254,Q,Q
2023-03-14 17:14:04:406,0,0.365748,-3.6404,69.3445,Q,Q
2023-03-14 17:14:04:416,0,0.336368,-3.63769,69.271,Q,Q
2023-03-14 17:14:04:426,0,0.306359,-3.63422,69.2013,Q,Q
2023-03-14 17:14:04:436,0,0.28084,-3.63056,69.1357,Q,Q
2023-03-14 17:14:04:446,0,0.257715,-3.62101,69.0725,Q,Q
2023-03-14 17:14:04:456,0,0.2344,-3.61393,69.0144,Q,Q
2023-03-14 17:14:04:466,0,0.217741,-3.61371,68.9559,Q,Q
2023-03-14 17:14:04:476,0,0.204565,-3.6206,68.9088,Q,Q
2023-03-14 17:14:04:486,0,0.197505,-3.63677,68.8783,Q,Q
2023-03-14 17:14:04:496,0,0.199614,-3.66201,68.8627,Q,Q
2023-03-14 17:14:04:506,0,0.204001,-3.69414,68.8655,Q,Q
2023-03-14 17:14:04:516,0,0.211936,-3.7318,68.8806,Q,Q
2023-03-14 17:14:04:526,0,0.223807,-3.7691,68.9054,Q,Q
2023-03-14 17:14:04:536,0,0.232657,-3.80291,68.9357,Q,Q
2023-03-14 17:14:04:546,0,0.242333,-3.84113,68.9805,Q,Q
2023-03-14 17:14:04:556,0,0.252577,-3.87552,69.028,Q,Q
2023-03-14 17:14:04:566,0,0.267932,-3.90298,69.0767,Q,Q
2023-03-14 17:14:04:576,0,0.288214,-3.92692,69.1229,Q,Q
2023-03-14 17:14:04:586,0,0.310819,-3.96329,69.1755,Q,Q
2023-03-14 17:14:04:596,0,0.326435,-4.01458,69.2373,Q,Q
2023-03-14 17:14:04:606,0,0.34007,-4.06887,69.3057,Q,Q
2023-03-14 17:14:04:616,0,0.35019,-4.13788,69.3741,Q,Q
2023-03-14 17:14:04:626,0,0.360742,-4.22298,69.4474,Q,Q
2023-03-14 17:14:04:636,0,0.382922,-4.33051,69.5245,Q,Q
2023-03-14 17:14:04:646,0,0.406486,-4.45286,69.6118,Q,Q
2023-03-14 17:14:04:657,0,0.428367,-4.58358,69.6967,Q,Q
2023-03-14 17:14:04:666,0,0.451036,-4.71246,69.777,Q,Q
2023-03-14 17:14:04:676,0,0.476402,-4.83759,69.8574,Q,Q
2023-03-14 17:14:04:686,0,0.50603,-4.96165,69.9353,Q,Q
2023-03-14 17:14:04:696,0,0.538774,-5.08204,70.0147,Q,Q
2023-03-14 17:14:04:706,0,0.564859,-5.19595,70.0953,Q,Q
2023-03-14 17:14:04:716,0,0.585046,-5.30336,70.1705,Q,Q
2023-03-14 17:14:04:726,0,0.592394,-5.40512,70.2438,Q,Q
2023-03-14 17:14:04:736,0,0.588797,-5.4959,70.315,Q,Q
2023-03-14 17:14:04:746,0,0.573689,-5.57401,70.386,Q,Q
2023-03-14 17:14:04:756,0,0.546019,-5.64054,70.4551,Q,Q
2023-03-14 17:14:04:766,0,0.509444,-5.69702,70.519,Q,Q
2023-03-14 17:14:04:776,0,0.467476,-5.73981,70.5788,Q,Q
2023-03-14 17:14:04:787,0,0.419352,-5.76429,70.6277,Q,Q
2023-03-14 17:14:04:796,0,0.37108,-5.77541,70.6681,Q,Q
2023-03-14 17:14:04:806,0,0.324039,-5.77804,70.6928,Q,Q
2023-03-14 17:14:04:816,0,0.278055,-5.77724,70.7128,Q,Q
2023-03-14 17:14:04:826,0,0.233753,-5.78103,70.7263,Q,Q
2023-03-14 17:14:04:836,0,0.192844,-5.78441,70.7311,Q,Q
2023-03-14 17:14:04:846,0,0.155615,-5.7875,70.7342,Q,Q
2023-03-14 17:14:04:856,0,0.125823,-5.79433,70.736,Q,Q
2023-03-14 17:14:04:866,0,0.103935,-5.80362,70.7393,Q,Q
2023-03-14 17:14:04:876,0,0.0803124,-5.81077,70.7406,Q,Q
2023-03-14 17:14:04:886,0,0.0637715,-5.82369,70.7409,Q,Q
2023-03-14 17:14:04:896,0,0.0489252,-5.83319,70.7386,Q,Q
2023-03-14 17:14:04:906,0,0.0387479,-5.84616,70.7372,Q,Q
2023-03-14 17:14:04:916,0,0.0264711,-5.86069,70.733,Q,Q
2023-03-14 17:14:04:926,0,0.0172632,-5.87176,70.7273,Q,Q
2023-03-14 17:14:04:936,0,0.0160868,-5.88466,70.7201,Q,Q
2023-03-14 17:14:04:946,0,0.0192553,-5.89812,70.7119,Q,Q
2023-03-14 17:14:04:956,0,0.0291227,-5.91021,70.7042,Q,Q
2023-03-14 17:14:04:966,0,0.0421253,-5.92061,70.7006,Q,Q
2023-03-14 17:14:04:977,0,0.0514273,-5.9296,70.6904,Q,Q
2023-03-14 17:14:04:986,0,0.0562859,-5.93667,70.6788,Q,Q
2023-03-14 17:14:04:996,0,0.0592748,-5.93956,70.6607,Q,Q
2023-03-14 17:14:05:6,0,0.0606686,-5.94514,70.6318,Q,Q
2023-03-14 17:14:05:16,0,0.0561936,-5.96413,70.5919,Q,Q
2023-03-14 17:14:05:26,0,0.0444033,-5.99238,70.5464,Q,Q
2023-03-14 17:14:05:36,0,0.0243369,-6.01423,70.4975,Q,Q
2023-03-14 17:14:05:46,0,0.0105286,-6.01637,70.4461,Q,Q
2023-03-14 17:14:05:56,0,0.00522219,-6.00023,70.3873,Q,Q
2023-03-14 17:14:05:66,0,0.0106006,-5.96767,70.3136,Q,Q
2023-03-14 17:14:05:76,0,0.0262092,-5.9289,70.233,Q,Q
2023-03-14 17:14:05:86,0,0.0346494,-5.88822,70.1437,Q,Q
2023-03-14 17:14:05:97,0,0.0430191,-5.83745,70.0515,Q,Q
2023-03-14 17:14:05:106,0,0.0569813,-5.78369,69.9581,Q,Q
2023-03-14 17:14:05:116,0,0.0817468,-5.72653,69.865,Q,Q
2023-03-14 17:14:05:126,0,0.107965,-5.68125,69.7714,Q,Q
2023-03-14 17:14:05:136,0,0.127093,-5.63971,69.6886,Q,Q
2023-03-14 17:14:05:146,0,0.148734,-5.60349,69.6181,Q,Q
2023-03-14 17:14:05:156,0,0.168311,-5.57442,69.5621,Q,Q
2023-03-14 17:14:05:166,0,0.187691,-5.55271,69.5199,Q,Q
2023-03-14 17:14:05:176,0,0.203216,-5.53609,69.4935,Q,Q
2023-03-14 17:14:05:186,0,0.213844,-5.51935,69.4792,Q,Q
2023-03-14 17:14:05:196,0,0.211258,-5.50589,69.4705,Q,Q
2023-03-14 17:14:05:206,0,0.201728,-5.4809,69.4697,Q,Q
2023-03-14 17:14:05:216,0,0.191894,-5.4481,69.4717,Q,Q
2023-03-14 17:14:05:226,0,0.186689,-5.41495,69.4711,Q,Q
2023-03-14 17:14:05:236,0,0.182766,-5.38494,69.4696,Q,Q
2023-03-14 17:14:05:246,0,0.17953,-5.35058,69.4702,Q,Q
2023-03-14 17:14:05:256,0,0.173886,-5.31438,69.4723,Q,Q
2023-03-14 17:14:05:266,0,0.168535,-5.28708,69.471,Q,Q
2023-03-14 17:14:05:276,0,0.159228,-5.25833,69.4698,Q,Q
2023-03-14 17:14:05:286,0,0.139688,-5.22578,69.4738,Q,Q
2023-03-14 17:14:05:296,0,0.113677,-5.19863,69.4834,Q,Q
2023-03-14 17:14:05:306,0,0.0846583,-5.17659,69.4959,Q,Q
2023-03-14 17:14:05:316,0,0.0505499,-5.1525,69.5119,Q,Q
2023-03-14 17:14:05:326,0,0.0238034,-5.12909,69.5274,Q,Q
2023-03-14 17:14:05:336,0,-0.00533668,-5.11726,69.5348,Q,Q
2023-03-14 17:14:05:346,0,-0.0414258,-5.10469,69.5486,Q,Q
2023-03-14 17:14:05:356,0,-0.0778259,-5.09501,69.5583,Q,Q
2023-03-14 17:14:05:366,0,-0.110785,-5.08329,69.561,Q,Q
2023-03-14 17:14:05:376,0,-0.137145,-5.07461,69.5618,Q,Q
2023-03-14 17:14:05:386,0,-0.167258,-5.06868,69.5626,Q,Q
2023-03-14 17:14:05:396,0,-0.196014,-5.06787,69.5607,Q,Q
2023-03-14 17:14:05:406,0,-0.22261,-5.0734,69.5571,Q,Q
2023-03-14 17:14:05:416,0,-0.242931,-5.08327,69.5517,Q,Q
2023-03-14 17:14:05:426,0,-0.257494,-5.09437,69.5425,Q,Q
2023-03-14 17:14:05:436,0,-0.263076,-5.10548,69.523,Q,Q
2023-03-14 17:14:05:446,0,-0.266787,-5.10879,69.4985,Q,Q
2023-03-14 17:14:05:456,0,-0.268057,-5.1047,69.4619,Q,Q
2023-03-14 17:14:05:466,0,-0.27111,-5.09649,69.4205,Q,Q
2023-03-14 17:14:05:476,0,-0.27512,-5.08626,69.369,Q,Q
2023-03-14 17:14:05:486,0,-0.278594,-5.07988,69.3128,Q,Q
2023-03-14 17:14:05:496,0,-0.281241,-5.07631,69.2556,Q,Q
2023-03-14 17:14:05:506,0,-0.280824,-5.08058,69.2006,Q,Q
2023-03-14 17:14:05:516,0,-0.276128,-5.08969,69.149,Q,Q
2023-03-14 17:14:05:526,0,-0.267562,-5.10223,69.1072,Q,Q
2023-03-14 17:14:05:536,0,-0.261059,-5.11832,69.0672,Q,Q
2023-03-14 17:14:05:546,0,-0.258328,-5.14124,69.0457,Q,Q
2023-03-14 17:14:05:556,0,-0.257329,-5.17334,69.0259,Q,Q
2023-03-14 17:14:05:566,0,-0.259993,-5.20167,69.0134,Q,Q
2023-03-14 17:14:05:576,0,-0.267676,-5.22655,69.0038,Q,Q
2023-03-14 17:14:05:586,0,-0.276329,-5.24948,68.9949,Q,Q
2023-03-14 17:14:05:596,0,-0.283205,-5.27303,68.9912,Q,Q
2023-03-14 17:14:05:606,0,-0.28826,-5.29765,68.9846,Q,Q
2023-03-14 17:14:05:616,0,-0.29301,-5.32046,68.9757,Q,Q
2023-03-14 17:14:05:626,0,-0.292294,-5.3398,68.9727,Q,Q
2023-03-14 17:14:05:636,0,-0.293382,-5.3634,68.9715,Q,Q
2023-03-14 17:14:05:646,0,-0.29325,-5.38592,68.9729,Q,Q
2023-03-14 17:14:05:656,0,-0.295849,-5.40497,68.9773,Q,Q
2023-03-14 17:14:05:666,0,-0.305349,-5.42047,68.9828,Q,Q
2023-03-14 17:14:05:676,0,-0.308483,-5.43165,68.9911,Q,Q
2023-03-14 17:14:05:686,0,-0.315282,-5.44194,69.0033,Q,Q
2023-03-14 17:14:05:696,0,-0.320872,-5.45117,69.0176,Q,Q
2023-03-14 17:14:05:706,0,-0.330943,-5.46211,69.0341,Q,Q
2023-03-14 17:14:05:716,0,-0.343362,-5.47012,69.052,Q,Q
2023-03-14 17:14:05:726,0,-0.35648,-5.47815,69.07,Q,Q
2023-03-14 17:14:05:736,0,-0.370394,-5.48784,69.0873,Q,Q
2023-03-14 17:14:05:746,0,-0.382782,-5.49739,69.1059,Q,Q
2023-03-14 17:14:05:756,0,-0.393418,-5.50455,69.1233,Q,Q
2023-03-14 17:14:05:766,0,-0.407619,-5.5162,69.1452,Q,Q
2023-03-14 17:14:05:776,0,-0.425427,-5.52921,69.1669,Q,Q
2023-03-14 17:14:05:786,0,-0.443241,-5.54232,69.1909,Q,Q
2023-03-14 17:14:05:796,0,-0.457893,-5.55472,69.2084,Q,Q
2023-03-14 17:14:05:806,0,-0.468411,-5.56583,69.2247,Q,Q
2023-03-14 17:14:05:816,0,-0.478875,-5.5763,69.2397,Q,Q
2023-03-14 17:14:05:826,0,-0.477399,-5.58435,69.2503,Q,Q
2023-03-14 17:14:05:836,0,-0.466427,-5.59862,69.258,Q,Q
2023-03-14 17:14:05:846,0,-0.456585,-5.61295,69.2671,Q,Q
2023-03-14 17:14:05:856,0,-0.445531,-5.62668,69.2737,Q,Q
2023-03-14 17:14:05:866,0,-0.435919,-5.63761,69.2827,Q,Q
2023-03-14 17:14:05:876,0,-0.429347,-5.64278,69.2865,Q,Q
2023-03-14 17:14:05:886,0,-0.426855,-5.6449,69.2854,Q,Q
2023-03-14 17:14:05:896,0,-0.425389,-5.64374,69.2839,Q,Q
2023-03-14 17:14:05:906,0,-0.421263,-5.63661,69.2825,Q,Q
2023-03-14 17:14:05:916,0,-0.414615,-5.63316,69.2753,Q,Q
2023-03-14 17:14:05:926,0,-0.41075,-5.62644,69.2711,Q,Q
2023-03-14 17:14:05:936,0,-0.404293,-5.61965,69.2649,Q,Q
2023-03-14 17:14:05:946,0,-0.400592,-5.60914,69.2609,Q,Q
2023-03-14 17:14:05:956,0,-0.401371,-5.59963,69.2571,Q,Q
2023-03-14 17:14:05:966,0,-0.406587,-5.58893,69.2557,Q,Q
2023-03-14 17:14:05:976,0,-0.414486,-5.58194,69.2536,Q,Q
2023-03-14 17:14:05:986,0,-0.430767,-5.57102,69.2508,Q,Q
2023-03-14 17:14:05:996,0,-0.4509,-5.56012,69.251,Q,Q
2023-03-14 17:14:06:6,0,-0.470264,-5.55099,69.2524,Q,Q
2023-03-14 17:14:06:16,0,-0.48307,-5.54856,69.2483,Q,Q
2023-03-14 17:14:06:26,0,-0.488776,-5.55365,69.2435,Q,Q
2023-03-14 17:14:06:36,0,-0.490066,-5.55931,69.2368,Q,Q
2023-03-14 17:14:06:46,0,-0.483937,-5.56723,69.2276,Q,Q
2023-03-14 17:14:06:56,0,-0.471102,-5.57714,69.2163,Q,Q
2023-03-14 17:14:06:66,0,-0.446692,-5.58375,69.201,Q,Q
2023-03-14 17:14:06:76,0,-0.424881,-5.58246,69.1836,Q,Q
2023-03-14 17:14:06:86,0,-0.415151,-5.57682,69.1669,Q,Q
2023-03-14 17:14:06:96,0,-0.411209,-5.57093,69.1487,Q,Q
2023-03-14 17:14:06:106,0,-0.402017,-5.56683,69.128,Q,Q
2023-03-14 17:14:06:116,0,-0.378929,-5.55862,69.1062,Q,Q
2023-03-14 17:14:06:126,0,-0.353512,-5.55026,69.0826,Q,Q
2023-03-14 17:14:06:136,0,-0.331229,-5.54308,69.0604,Q,Q
2023-03-14 17:14:06:146,0,-0.30842,-5.53932,69.0394,Q,Q
2023-03-14 17:14:06:156,0,-0.292993,-5.53276,69.0199,Q,Q
2023-03-14 17:14:06:166,0,-0.273595,-5.5232,69.0011,Q,Q
2023-03-14 17:14:06:176,0,-0.252121,-5.51236,68.9844,Q,Q
2023-03-14 17:14:06:186,0,-0.233033,-5.49997,68.974,Q,Q
2023-03-14 17:14:06:196,0,-0.236016,-5.486,68.9688,Q,Q
2023-03-14 17:14:06:206,0,-0.255284,-5.47469,68.9658,Q,Q
2023-03-14 17:14:06:216,0,-0.261261,-5.46141,68.9623,Q,Q
2023-03-14 17:14:06:226,0,-0.262463,-5.44349,68.9632,Q,Q
2023-03-14 17:14:06:236,0,-0.275516,-5.42627,68.97,Q,Q
2023-03-14 17:14:06:246,0,-0.296015,-5.4136,68.9773,Q,Q
2023-03-14 17:14:06:256,0,-0.311719,-5.40922,68.9828,Q,Q
2023-03-14 17:14:06:266,0,-0.318894,-5.40305,68.9842,Q,Q
2023-03-14 17:14:06:276,0,-0.30386,-5.39719,68.9813,Q,Q
2023-03-14 17:14:06:286,0,-0.265737,-5.39568,68.9766,Q,Q
2023-03-14 17:14:06:296,0,-0.23522,-5.39741,68.9708,Q,Q
2023-03-14 17:14:06:306,0,-0.219559,-5.40475,68.967,Q,Q
2023-03-14 17:14:06:316,0,-0.211299,-5.4115,68.9561,Q,Q
2023-03-14 17:14:06:326,0,-0.194026,-5.41872,68.9422,Q,Q
2023-03-14 17:14:06:336,0,-0.172472,-5.42736,68.9227,Q,Q
2023-03-14 17:14:06:346,0,-0.151884,-5.42987,68.9065,Q,Q
2023-03-14 17:14:06:356,0,-0.128233,-5.43429,68.8919,Q,Q
2023-03-14 17:14:06:366,0,-0.102662,-5.44328,68.8784,Q,Q
2023-03-14 17:14:06:376,0,-0.0825417,-5.45461,68.8715,Q,Q
2023-03-14 17:14:06:386,0,-0.0707253,-5.46612,68.8693,Q,Q
2023-03-14 17:14:06:396,0,-0.0648839,-5.47129,68.8655,Q,Q
2023-03-14 17:14:06:406,0,-0.0576918,-5.47939,68.8673,Q,Q
2023-03-14 17:14:06:416,0,-0.0434939,-5.48704,68.8723,Q,Q
2023-03-14 17:14:06:426,0,-0.0258273,-5.49781,68.8753,Q,Q
2023-03-14 17:14:06:436,0,-0.017559,-5.50293,68.8779,Q,Q
2023-03-14 17:14:06:446,0,-0.0188608,-5.50574,68.883,Q,Q
2023-03-14 17:14:06:456,0,-0.0297581,-5.50736,68.8878,Q,Q
2023-03-14 17:14:06:466,0,-0.0474149,-5.50932,68.8976,Q,Q
2023-03-14 17:14:06:476,0,-0.0641983,-5.51283,68.9028,Q,Q
2023-03-14 17:14:06:486,0,-0.0792965,-5.51396,68.9041,Q,Q
2023-03-14 17:14:06:496,0,-0.0834114,-5.52239,68.9032,Q,Q
2023-03-14 17:14:06:506,0,-0.0870781,-5.52732,68.9042,Q,Q
2023-03-14 17:14:06:516,0,-0.092162,-5.54229,68.9059,Q,Q
2023-03-14 17:14:06:526,0,-0.0882441,-5.55434,68.9106,Q,Q
2023-03-14 17:14:06:536,0,-0.0809038,-5.56219,68.9162,Q,Q
2023-03-14 17:14:06:546,0,-0.0672235,-5.56389,68.9187,Q,Q
2023-03-14 17:14:06:556,0,-0.0565926,-5.55572,68.9246,Q,Q
2023-03-14 17:14:06:566,0,-0.0535442,-5.54629,68.9394,Q,Q
2023-03-14 17:14:06:576,0,-0.0668885,-5.53382,68.9532,Q,Q
2023-03-14 17:14:06:586,0,-0.075881,-5.51858,68.9648,Q,Q
2023-03-14 17:14:06:596,0,-0.0781914,-5.49527,68.9817,Q,Q
2023-03-14 17:14:06:606,0,-0.133929,-5.45926,69.0109,Q,Q
2023-03-14 17:14:06:616,0,-0.270824,-5.42332,69.0438,Q,Q
2023-03-14 17:14:06:626,0,-0.430062,-5.39783,69.0804,Q,Q
2023-03-14 17:14:06:636,0,-0.540903,-5.39123,69.1167,Q,Q
2023-03-14 17:14:06:646,0,-0.584892,-5.39287,69.1438,Q,Q
2023-03-14 17:14:06:656,0,-0.593788,-5.3921,69.1563,Q,Q
2023-03-14 17:14:06:666,0,-0.603252,-5.38752,69.1628,Q,Q
2023-03-14 17:14:06:676,0,-0.621023,-5.38934,69.1674,Q,Q
2023-03-14 17:14:06:686,0,-0.61432,-5.39561,69.1685,Q,Q
2023-03-14 17:14:06:696,0,-0.599437,-5.40182,69.1597,Q,Q
2023-03-14 17:14:06:706,0,-0.595891,-5.40035,69.1454,Q,Q
2023-03-14 17:14:06:716,0,-0.605017,-5.40332,69.1331,Q,Q
2023-03-14 17:14:06:726,0,-0.59561,-5.40081,69.1178,Q,Q
2023-03-14 17:14:06:736,0,-0.569276,-5.38698,69.0982,Q,Q
2023-03-14 17:14:06:746,0,-0.542485,-5.37036,69.0807,Q,Q
2023-03-14 17:14:06:756,0,-0.521465,-5.34692,69.0645,Q,Q
2023-03-14 17:14:06:766,0,-0.512833,-5.31829,69.0587,Q,Q
2023-03-14 17:14:06:776,0,-0.521437,-5.29161,69.0675,Q,Q
2023-03-14 17:14:06:787,0,-0.541468,-5.27104,69.0817,Q,Q
2023-03-14 17:14:06:796,0,-0.561201,-5.25371,69.0983,Q,Q
2023-03-14 17:14:06:806,0,-0.563767,-5.245,69.1117,Q,Q
2023-03-14 17:14:06:816,0,-0.547899,-5.23666,69.1215,Q,Q
2023-03-14 17:14:06:826,0,-0.532617,-5.22878,69.13,Q,Q
2023-03-14 17:14:06:836,0,-0.52732,-5.22393,69.1382,Q,Q
2023-03-14 17:14:06:846,0,-0.527285,-5.22343,69.1546,Q,Q
2023-03-14 17:14:06:856,0,-0.524775,-5.221,69.1648,Q,Q
2023-03-14 17:14:06:866,0,-0.520534,-5.22348,69.1726,Q,Q
2023-03-14 17:14:06:876,0,-0.522849,-5.22814,69.18,Q,Q
2023-03-14 17:14:06:886,0,-0.523934,-5.23559,69.1911,Q,Q
2023-03-14 17:14:06:896,0,-0.526775,-5.24125,69.1991,Q,Q
2023-03-14 17:14:06:906,0,-0.528727,-5.24265,69.2081,Q,Q
2023-03-14 17:14:06:916,0,-0.528938,-5.24064,69.2146,Q,Q
2023-03-14 17:14:06:926,0,-0.534304,-5.23548,69.2209,Q,Q
2023-03-14 17:14:06:936,0,-0.547143,-5.23035,69.2252,Q,Q
2023-03-14 17:14:06:946,0,-0.563872,-5.22203,69.2313,Q,Q
2023-03-14 17:14:06:956,0,-0.58181,-5.21486,69.2341,Q,Q
2023-03-14 17:14:06:966,0,-0.599885,-5.20869,69.2401,Q,Q
2023-03-14 17:14:06:976,0,-0.613068,-5.20238,69.2457,Q,Q
2023-03-14 17:14:06:986,0,-0.625391,-5.19732,69.2521,Q,Q
2023-03-14 17:14:06:996,0,-0.632923,-5.19159,69.2571,Q,Q
2023-03-14 17:14:07:6,0,-0.632494,-5.18458,69.2624,Q,Q
2023-03-14 17:14:07:16,0,-0.628867,-5.18101,69.2694,Q,Q
2023-03-14 17:14:07:26,0,-0.62027,-5.17774,69.2732,Q,Q
2023-03-14 17:14:07:36,0,-0.605759,-5.17779,69.2813,Q,Q
2023-03-14 17:14:07:46,0,-0.593608,-5.17485,69.2826,Q,Q
2023-03-14 17:14:07:56,0,-0.583568,-5.17302,69.285,Q,Q
2023-03-14 17:14:07:66,0,-0.575492,-5.16676,69.286,Q,Q
2023-03-14 17:14:07:76,0,-0.568278,-5.16464,69.2857,Q,Q
2023-03-14 17:14:07:86,0,-0.563852,-5.16791,69.2873,Q,Q
2023-03-14 17:14:07:96,0,-0.565625,-5.16581,69.2892,Q,Q
2023-03-14 17:14:07:106,0,-0.567733,-5.16716,69.2885,Q,Q
2023-03-14 17:14:07:116,0,-0.565101,-5.16521,69.2882,Q,Q
2023-03-14 17:14:07:126,0,-0.57016,-5.16433,69.2893,Q,Q
2023-03-14 17:14:07:136,0,-0.572901,-5.15973,69.2899,Q,Q
2023-03-14 17:14:07:146,0,-0.577891,-5.16245,69.2942,Q,Q
2023-03-14 17:14:07:156,0,-0.582909,-5.16166,69.3061,Q,Q
2023-03-14 17:14:07:166,0,-0.587917,-5.16009,69.3167,Q,Q
2023-03-14 17:14:07:176,0,-0.594015,-5.16521,69.3347,Q,Q
2023-03-14 17:14:07:186,0,-0.603683,-5.17035,69.3574,Q,Q
2023-03-14 17:14:07:196,0,-0.608179,-5.1731,69.3769,Q,Q
2023-03-14 17:14:07:206,0,-0.610356,-5.17342,69.3967,Q,Q
2023-03-14 17:14:07:216,0,-0.612564,-5.17548,69.4156,Q,Q
2023-03-14 17:14:07:226,0,-0.612153,-5.18032,69.434,Q,Q
2023-03-14 17:14:07:236,0,-0.614561,-5.18477,69.4465,Q,Q
2023-03-14 17:14:07:246,0,-0.610193,-5.19304,69.4553,Q,Q
2023-03-14 17:14:07:256,0,-0.602277,-5.19975,69.459,Q,Q
2023-03-14 17:14:07:266,0,-0.59317,-5.2065,69.4576,Q,Q
2023-03-14 17:14:07:276,0,-0.582633,-5.20949,69.4547,Q,Q
2023-03-14 17:14:07:286,0,-0.567853,-5.21078,69.4518,Q,Q
2023-03-14 17:14:07:296,0,-0.556665,-5.21348,69.4497,Q,Q
2023-03-14 17:14:07:306,0,-0.544744,-5.21475,69.4461,Q,Q
2023-03-14 17:14:07:316,0,-0.531284,-5.21476,69.4432,Q,Q
2023-03-14 17:14:07:326,0,-0.51662,-5.21553,69.4366,Q,Q
2023-03-14 17:14:07:336,0,-0.501815,-5.21513,69.4357,Q,Q
2023-03-14 17:14:07:346,0,-0.4856,-5.21255,69.4326,Q,Q
2023-03-14 17:14:07:356,0,-0.475586,-5.2109,69.4313,Q,Q
2023-03-14 17:14:07:366,0,-0.466904,-5.2035,69.4292,Q,Q
2023-03-14 17:14:07:376,0,-0.465163,-5.19412,69.4321,Q,Q
2023-03-14 17:14:07:386,0,-0.461532,-5.18661,69.433,Q,Q
2023-03-14 17:14:07:396,0,-0.457114,-5.17963,69.4303,Q,Q
2023-03-14 17:14:07:406,0,-0.448342,-5.1714,69.4287,Q,Q
2023-03-14 17:14:07:416,0,-0.436833,-5.16485,69.4266,Q,Q
2023-03-14 17:14:07:426,0,-0.4264,-5.15938,69.423,Q,Q
2023-03-14 17:14:07:436,0,-0.414452,-5.15238,69.4212,Q,Q
2023-03-14 17:14:07:446,0,-0.400255,-5.15023,69.4227,Q,Q
2023-03-14 17:14:07:456,0,-0.387996,-5.14523,69.4218,Q,Q
2023-03-14 17:14:07:466,0,-0.374281,-5.14132,69.4264,Q,Q
2023-03-14 17:14:07:476,0,-0.360656,-5.14062,69.4272,Q,Q
2023-03-14 17:14:07:486,0,-0.335234,-5.14124,69.4278,Q,Q
2023-03-14 17:14:07:496,0,-0.307825,-5.14446,69.4325,Q,Q
2023-03-14 17:14:07:506,0,-0.286545,-5.14932,69.4372,Q,Q
2023-03-14 17:14:07:516,0,-0.265747,-5.15963,69.4476,Q,Q
2023-03-14 17:14:07:526,0,-0.249399,-5.17055,69.4574,Q,Q
2023-03-14 17:14:07:536,0,-0.232961,-5.18295,69.4668,Q,Q
2023-03-14 17:14:07:546,0,-0.217061,-5.19039,69.4804,Q,Q
2023-03-14 17:14:07:556,0,-0.201714,-5.19768,69.4962,Q,Q
2023-03-14 17:14:07:566,0,-0.18829,-5.20742,69.5147,Q,Q
2023-03-14 17:14:07:576,0,-0.175864,-5.21438,69.5302,Q,Q
2023-03-14 17:14:07:586,0,-0.166883,-5.22363,69.5469,Q,Q
2023-03-14 17:14:07:596,0,-0.157676,-5.23272,69.5655,Q,Q
2023-03-14 17:14:07:606,0,-0.151479,-5.23905,69.5828,Q,Q
2023-03-14 17:14:07:616,0,-0.150723,-5.24234,69.6001,Q,Q
2023-03-14 17:14:07:626,0,-0.151187,-5.24605,69.6154,Q,Q
2023-03-14 17:14:07:636,0,-0.149155,-5.24873,69.6248,Q,Q
2023-03-14 17:14:07:646,0,-0.144203,-5.24981,69.6334,Q,Q
2023-03-14 17:14:07:656,0,-0.139064,-5.25466,69.6399,Q,Q
2023-03-14 17:14:07:666,0,-0.136499,-5.25442,69.6464,Q,Q
2023-03-14 17:14:07:676,0,-0.129612,-5.25291,69.6478,Q,Q
2023-03-14 17:14:07:686,0,-0.121979,-5.25501,69.6519,Q,Q
2023-03-14 17:14:07:696,0,-0.118045,-5.25139,69.6545,Q,Q
2023-03-14 17:14:07:706,0,-0.111553,-5.24937,69.6564,Q,Q
2023-03-14 17:14:07:716,0,-0.104053,-5.24905,69.6608,Q,Q
2023-03-14 17:14:07:726,0,-0.0956964,-5.24614,69.6694,Q,Q
2023-03-14 17:14:07:736,0,-0.0812494,-5.23944,69.6775,Q,Q
2023-03-14 17:14:07:746,0,-0.0684156,-5.23173,69.684,Q,Q
2023-03-14 17:14:07:756,0,-0.0537094,-5.22283,69.694,Q,Q
2023-03-14 17:14:07:766,0,-0.0372114,-5.219,69.7077,Q,Q
2023-03-14 17:14:07:776,0,-0.0251529,-5.21343,69.7222,Q,Q
2023-03-14 17:14:07:786,0,-0.0192548,-5.21122,69.7435,Q,Q
2023-03-14 17:14:07:796,0,-0.0113957,-5.20388,69.7667,Q,Q
2023-03-14 17:14:07:806,0,-0.0027105,-5.2024,69.789,Q,Q
2023-03-14 17:14:07:816,0,0.00238979,-5.20357,69.8097,Q,Q
2023-03-14 17:14:07:826,0,0.00805212,-5.20033,69.8278,Q,Q
2023-03-14 17:14:07:836,0,0.0144431,-5.19999,69.8494,Q,Q
2023-03-14 17:14:07:846,0,0.018672,-5.19794,69.8696,Q,Q
2023-03-14 17:14:07:856,0,0.0243853,-5.19373,69.8913,Q,Q
2023-03-14 17:14:07:866,0,0.0305682,-5.19236,69.9101,Q,Q
2023-03-14 17:14:07:876,0,0.0395351,-5.19004,69.9287,Q,Q
2023-03-14 17:14:07:886,0,0.0435104,-5.18856,69.9434,Q,Q
2023-03-14 17:14:07:896,0,0.0478945,-5.18526,69.9576,Q,Q
2023-03-14 17:14:07:906,0,0.0530015,-5.18214,69.9713,Q,Q
2023-03-14 17:14:07:916,0,0.0591359,-5.18407,69.9893,Q,Q
2023-03-14 17:14:07:926,0,0.0652929,-5.18258,70.0036,Q,Q
2023-03-14 17:14:07:936,0,0.070497,-5.18533,70.0136,Q,Q
2023-03-14 17:14:07:946,0,0.0709078,-5.18932,70.0285,Q,Q
2023-03-14 17:14:07:956,0,0.0694178,-5.19285,70.0421,Q,Q
2023-03-14 17:14:07:966,0,0.0629573,-5.19856,70.0563,Q,Q
2023-03-14 17:14:07:976,0,0.0574083,-5.20397,70.07,Q,Q
2023-03-14 17:14:07:986,0,0.0512552,-5.21049,70.0831,Q,Q
2023-03-14 17:14:07:996,0,0.0412487,-5.21734,70.0926,Q,Q
2023-03-14 17:14:08:6,0,0.0329473,-5.22599,70.1017,Q,Q
2023-03-14 17:14:08:16,0,0.0263116,-5.22907,70.1076,Q,Q
2023-03-14 17:14:08:26,0,0.0216593,-5.23337,70.1076,Q,Q
2023-03-14 17:14:08:36,0,0.017965,-5.24167,70.1086,Q,Q
2023-03-14 17:14:08:46,0,0.0186239,-5.24333,70.1067,Q,Q
2023-03-14 17:14:08:56,0,0.0167261,-5.2455,70.1027,Q,Q
2023-03-14 17:14:08:66,0,0.0193394,-5.24691,70.0966,Q,Q
2023-03-14 17:14:08:76,0,0.0230063,-5.24513,70.0894,Q,Q
2023-03-14 17:14:08:86,0,0.0247558,-5.24521,70.0847,Q,Q
2023-03-14 17:14:08:96,0,0.0256354,-5.24358,70.0731,Q,Q
2023-03-14 17:14:08:106,0,0.0270924,-5.23875,70.0655,Q,Q
2023-03-14 17:14:08:116,0,0.0285499,-5.23698,70.0589,Q,Q
2023-03-14 17:14:08:126,0,0.0299276,-5.2316,70.0537,Q,Q
2023-03-14 17:14:08:136,0,0.032052,-5.22657,70.0505,Q,Q
2023-03-14 17:14:08:146,0,0.0365165,-5.22248,70.0436,Q,Q
2023-03-14 17:14:08:156,0,0.0440068,-5.21209,70.0389,Q,Q
2023-03-14 17:14:08:166,0,0.0492318,-5.2037,70.0319,Q,Q
2023-03-14 17:14:08:176,0,0.0556361,-5.19466,70.0256,Q,Q
2023-03-14 17:14:08:186,0,0.0679935,-5.18616,70.0206,Q,Q
2023-03-14 17:14:08:196,0,0.0795396,-5.18515,70.0158,Q,Q
2023-03-14 17:14:08:206,0,0.0904495,-5.1771,70.0114,Q,Q
2023-03-14 17:14:08:216,0,0.105934,-5.17063,70.006,Q,Q
2023-03-14 17:14:08:226,0,0.119015,-5.15808,70.0036,Q,Q
2023-03-14 17:14:08:236,0,0.133785,-5.15727,69.9973,Q,Q
2023-03-14 17:14:08:246,0,0.141793,-5.15428,69.9938,Q,Q
2023-03-14 17:14:08:256,0,0.152343,-5.1467,69.9894,Q,Q
2023-03-14 17:14:08:266,0,0.164863,-5.14307,69.9804,Q,Q
2023-03-14 17:14:08:276,0,0.173628,-5.13986,69.9733,Q,Q
2023-03-14 17:14:08:286,0,0.185624,-5.13755,69.9678,Q,Q
2023-03-14 17:14:08:296,0,0.19316,-5.13013,69.9653,Q,Q
2023-03-14 17:14:08:306,0,0.199211,-5.12808,69.9591,Q,Q
2023-03-14 17:14:08:316,0,0.20911,-5.1243,69.9564,Q,Q
2023-03-14 17:14:08:326,0,0.222934,-5.12403,69.9506,Q,Q
2023-03-14 17:14:08:336,0,0.237654,-5.12091,69.9468,Q,Q
2023-03-14 17:14:08:346,0,0.254311,-5.12037,69.9413,Q,Q
2023-03-14 17:14:08:356,0,0.272227,-5.12207,69.939,Q,Q
2023-03-14 17:14:08:366,0,0.288899,-5.12154,69.935,Q,Q
2023-03-14 17:14:08:376,0,0.307875,-5.12239,69.9342,Q,Q
2023-03-14 17:14:08:386,0,0.326767,-5.12521,69.9342,Q,Q
2023-03-14 17:14:08:396,0,0.343149,-5.12908,69.9363,Q,Q
2023-03-14 17:14:08:406,0,0.360712,-5.1339,69.9408,Q,Q
2023-03-14 17:14:08:416,0,0.374603,-5.13576,69.9452,Q,Q
2023-03-14 17:14:08:426,0,0.38649,-5.13928,69.9525,Q,Q
2023-03-14 17:14:08:436,0,0.398705,-5.13973,69.9627,Q,Q
2023-03-14 17:14:08:446,0,0.411488,-5.13772,69.9739,Q,Q
2023-03-14 17:14:08:456,0,0.425829,-5.13573,69.9849,Q,Q
2023-03-14 17:14:08:466,0,0.436305,-5.13074,69.9929,Q,Q
2023-03-14 17:14:08:476,0,0.447237,-5.12718,69.9978,Q,Q
2023-03-14 17:14:08:486,0,0.461438,-5.12504,69.9991,Q,Q
2023-03-14 17:14:08:496,0,0.469967,-5.12073,70.0029,Q,Q
2023-03-14 17:14:08:506,0,0.477994,-5.11892,70.004,Q,Q
2023-03-14 17:14:08:516,0,0.482874,-5.1148,70.0006,Q,Q
2023-03-14 17:14:08:526,0,0.490654,-5.10985,69.9966,Q,Q
2023-03-14 17:14:08:536,0,0.499301,-5.10352,69.9908,Q,Q
2023-03-14 17:14:08:546,0,0.506159,-5.09534,69.9851,Q,Q
2023-03-14 17:14:08:556,0,0.514963,-5.0873,69.9781,Q,Q
2023-03-14 17:14:08:566,0,0.522275,-5.08117,69.9719,Q,Q
2023-03-14 17:14:08:576,0,0.531919,-5.07525,69.9681,Q,Q
2023-03-14 17:14:08:586,0,0.540684,-5.07356,69.9654,Q,Q
2023-03-14 17:14:08:596,0,0.548319,-5.07307,69.9641,Q,Q
2023-03-14 17:14:08:606,0,0.557583,-5.06917,69.9615,Q,Q
2023-03-14 17:14:08:616,0,0.562555,-5.06601,69.9618,Q,Q
2023-03-14 17:14:08:626,0,0.570105,-5.0615,69.9603,Q,Q
2023-03-14 17:14:08:636,0,0.57778,-5.05418,69.9574,Q,Q
2023-03-14 17:14:08:646,0,0.581356,-5.04762,69.9549,Q,Q
2023-03-14 17:14:08:656,0,0.587823,-5.03819,69.9513,Q,Q
2023-03-14 17:14:08:666,0,0.591578,-5.02962,69.9444,Q,Q
2023-03-14 17:14:08:676,0,0.597451,-5.01926,69.937,Q,Q
2023-03-14 17:14:08:686,0,0.603173,-5.00872,69.9319,Q,Q
2023-03-14 17:14:08:696,0,0.610823,-5.00034,69.9227,Q,Q
2023-03-14 17:14:08:706,0,0.614557,-4.99381,69.912,Q,Q
2023-03-14 17:14:08:716,0,0.61497,-4.98681,69.8987,Q,Q
2023-03-14 17:14:08:726,0,0.618775,-4.97996,69.8834,Q,Q
2023-03-14 17:14:08:736,0,0.626256,-4.97064,69.8743,Q,Q
2023-03-14 17:14:08:746,0,0.632994,-4.962,69.8604,Q,Q
2023-03-14 17:14:08:756,0,0.641791,-4.95643,69.8493,Q,Q
2023-03-14 17:14:08:766,0,0.647917,-4.95024,69.8419,Q,Q
2023-03-14 17:14:08:776,0,0.658323,-4.93884,69.8351,Q,Q
2023-03-14 17:14:08:786,0,0.67805,-4.91903,69.8313,Q,Q
2023-03-14 17:14:08:797,0,0.706437,-4.89686,69.8278,Q,Q
2023-03-14 17:14:08:806,0,0.730488,-4.88304,69.8296,Q,Q
2023-03-14 17:14:08:816,0,0.747052,-4.87586,69.826,Q,Q
2023-03-14 17:14:08:826,0,0.755681,-4.86616,69.8252,Q,Q
2023-03-14 17:14:08:836,0,0.767818,-4.86312,69.8236,Q,Q
2023-03-14 17:14:08:846,0,0.7815,-4.86277,69.8217,Q,Q
2023-03-14 17:14:08:856,0,0.790191,-4.86524,69.821,Q,Q
2023-03-14 17:14:08:866,0,0.793442,-4.86933,69.8189,Q,Q
2023-03-14 17:14:08:876,0,0.798179,-4.87379,69.8153,Q,Q
2023-03-14 17:14:08:886,0,0.805697,-4.87909,69.811,Q,Q
2023-03-14 17:14:08:896,0,0.815343,-4.8817,69.8111,Q,Q
2023-03-14 17:14:08:906,0,0.824938,-4.88357,69.8097,Q,Q
2023-03-14 17:14:08:916,0,0.829904,-4.88538,69.809,Q,Q
2023-03-14 17:14:08:926,0,0.833232,-4.88501,69.807,Q,Q
2023-03-14 17:14:08:936,0,0.831921,-4.87797,69.8053,Q,Q
2023-03-14 17:14:08:946,0,0.83279,-4.87265,69.8046,Q,Q
2023-03-14 17:14:08:956,0,0.828301,-4.86704,69.8024,Q,Q
2023-03-14 17:14:08:966,0,0.825741,-4.86356,69.8018,Q,Q
2023-03-14 17:14:08:976,0,0.821153,-4.86213,69.8015,Q,Q
2023-03-14 17:14:08:986,0,0.815591,-4.86093,69.8017,Q,Q
2023-03-14 17:14:08:996,0,0.812046,-4.8577,69.7996,Q,Q
2023-03-14 17:14:09:6,0,0.812444,-4.85717,69.7981,Q,Q
2023-03-14 17:14:09:16,0,0.810406,-4.85638,69.7958,Q,Q
2023-03-14 17:14:09:26,0,0.807035,-4.85878,69.7965,Q,Q
2023-03-14 17:14:09:36,0,0.805329,-4.85959,69.7945,Q,Q
2023-03-14 17:14:09:46,0,0.809464,-4.86077,69.7955,Q,Q
2023-03-14 17:14:09:56,0,0.815928,-4.85733,69.7987,Q,Q
2023-03-14 17:14:09:66,0,0.823056,-4.85452,69.8039,Q,Q
2023-03-14 17:14:09:76,0,0.827469,-4.84893,69.8087,Q,Q
2023-03-14 17:14:09:86,0,0.833945,-4.84274,69.8129,Q,Q
2023-03-14 17:14:09:96,0,0.837466,-4.83493,69.8139,Q,Q
2023-03-14 17:14:09:106,0,0.84288,-4.82709,69.8106,Q,Q
2023-03-14 17:14:09:116,0,0.847866,-4.81853,69.8105,Q,Q
2023-03-14 17:14:09:126,0,0.854552,-4.80959,69.8064,Q,Q
2023-03-14 17:14:09:137,0,0.864423,-4.80101,69.8062,Q,Q
2023-03-14 17:14:09:146,0,0.872825,-4.7922,69.8035,Q,Q
2023-03-14 17:14:09:156,0,0.880885,-4.78571,69.8053,Q,Q
2023-03-14 17:14:09:166,0,0.890306,-4.77991,69.8057,Q,Q
2023-03-14 17:14:09:176,0,0.900908,-4.77164,69.8009,Q,Q
2023-03-14 17:14:09:186,0,0.909179,-4.76529,69.7979,Q,Q
2023-03-14 17:14:09:196,0,0.916043,-4.76331,69.7933,Q,Q
2023-03-14 17:14:09:206,0,0.924071,-4.76101,69.7904,Q,Q
2023-03-14 17:14:09:216,0,0.932782,-4.76098,69.7863,Q,Q
2023-03-14 17:14:09:226,0,0.938731,-4.75382,69.7836,Q,Q
2023-03-14 17:14:09:236,0,0.942289,-4.74896,69.7829,Q,Q
2023-03-14 17:14:09:246,0,0.948176,-4.74572,69.7833,Q,Q
2023-03-14 17:14:09:256,0,0.952351,-4.74147,69.7826,Q,Q
2023-03-14 17:14:09:266,0,0.955047,-4.7374,69.7814,Q,Q
2023-03-14 17:14:09:276,0,0.960438,-4.73293,69.7819,Q,Q
2023-03-14 17:14:09:286,0,0.965913,-4.73115,69.7859,Q,Q
2023-03-14 17:14:09:296,0,0.968532,-4.73121,69.7901,Q,Q
2023-03-14 17:14:09:306,0,0.968397,-4.72993,69.7953,Q,Q
2023-03-14 17:14:09:316,0,0.966543,-4.72816,69.8033,Q,Q
2023-03-14 17:14:09:326,0,0.963903,-4.72672,69.8102,Q,Q
2023-03-14 17:14:09:336,0,0.962984,-4.72741,69.8124,Q,Q
2023-03-14 17:14:09:346,0,0.964828,-4.72451,69.8158,Q,Q
2023-03-14 17:14:09:356,0,0.963165,-4.71964,69.8192,Q,Q
