Timestamp_cmd,imu_cmd,roll_delta,pitch_delta,yaw_delta,voice_type,voice_length
2023-03-15 11:11:31:212,0,-26.4637,7.49509,-9.97395,Q,Q
2023-03-15 11:11:31:220,0,-26.6741,7.51317,-10.1058,Q,Q
2023-03-15 11:11:31:230,0,-26.8374,7.53305,-10.1967,Q,Q
2023-03-15 11:11:31:240,0,-26.9624,7.56537,-10.2555,Q,Q
2023-03-15 11:11:31:250,0,-27.0465,7.60569,-10.2752,Q,Q
2023-03-15 11:11:31:260,0,-27.1102,7.65099,-10.269,Q,Q
2023-03-15 11:11:31:270,0,-27.1816,7.71049,-10.2546,Q,Q
2023-03-15 11:11:31:280,0,-27.2523,7.78109,-10.2373,Q,Q
2023-03-15 11:11:31:290,0,-27.327,7.84313,-10.2288,Q,Q
2023-03-15 11:11:31:300,0,-27.4187,7.89515,-10.2405,Q,Q
2023-03-15 11:11:31:310,0,-27.5152,7.94183,-10.2539,Q,Q
2023-03-15 11:11:31:320,0,-27.6008,7.98395,-10.2611,Q,Q
2023-03-15 11:11:31:330,0,-27.6637,8.01167,-10.2535,Q,Q
2023-03-15 11:11:31:340,0,-27.7201,8.04319,-10.2496,Q,Q
2023-03-15 11:11:31:350,0,-27.7714,8.08837,-10.2558,Q,Q
2023-03-15 11:11:31:360,0,-27.7973,8.15131,-10.2589,Q,Q
2023-03-15 11:11:31:370,0,-27.8316,8.22874,-10.283,Q,Q
2023-03-15 11:11:31:380,0,-27.9111,8.31621,-10.3572,Q,Q
2023-03-15 11:11:31:390,0,-28.0003,8.38711,-10.476,Q,Q
2023-03-15 11:11:31:400,0,-28.0781,8.44455,-10.6142,Q,Q
2023-03-15 11:11:31:410,0,-28.1534,8.48291,-10.7723,Q,Q
2023-03-15 11:11:31:420,0,-28.2166,8.49457,-10.9333,Q,Q
2023-03-15 11:11:31:430,0,-28.3133,8.49694,-11.0991,Q,Q
2023-03-15 11:11:31:440,0,-28.4517,8.47774,-11.2665,Q,Q
2023-03-15 11:11:31:450,0,-28.6099,8.42469,-11.4357,Q,Q
2023-03-15 11:11:31:460,0,-28.7718,8.33904,-11.5957,Q,Q
2023-03-15 11:11:31:470,0,-28.9286,8.2329,-11.7397,Q,Q
2023-03-15 11:11:31:479,0,-29.0755,8.12069,-11.8835,Q,Q
2023-03-15 11:11:31:489,0,-29.2009,8.0068,-12.0197,Q,Q
2023-03-15 11:11:31:499,0,-29.2938,7.90671,-12.1451,Q,Q
2023-03-15 11:11:31:509,0,-29.3706,7.82925,-12.2582,Q,Q
2023-03-15 11:11:31:519,0,-29.4257,7.75929,-12.3552,Q,Q
2023-03-15 11:11:31:529,0,-29.4567,7.69879,-12.4261,Q,Q
2023-03-15 11:11:31:539,0,-29.4496,7.65191,-12.4498,Q,Q
2023-03-15 11:11:31:549,0,-29.4187,7.61419,-12.4435,Q,Q
2023-03-15 11:11:31:559,0,-29.3759,7.5847,-12.4114,Q,Q
2023-03-15 11:11:31:569,0,-29.3398,7.57228,-12.363,Q,Q
2023-03-15 11:11:31:579,0,-29.3043,7.57005,-12.3004,Q,Q
2023-03-15 11:11:31:589,0,-29.2752,7.57275,-12.2423,Q,Q
2023-03-15 11:11:31:599,0,-29.2492,7.57452,-12.1937,Q,Q
2023-03-15 11:11:31:609,0,-29.2303,7.5774,-12.1692,Q,Q
2023-03-15 11:11:31:619,0,-29.2168,7.58185,-12.1638,Q,Q
2023-03-15 11:11:31:629,0,-29.2091,7.5819,-12.1771,Q,Q
2023-03-15 11:11:31:639,0,-29.2047,7.58328,-12.2099,Q,Q
2023-03-15 11:11:31:649,0,-29.1936,7.58459,-12.252,Q,Q
2023-03-15 11:11:31:659,0,-29.1769,7.5845,-12.2929,Q,Q
2023-03-15 11:11:31:669,0,-29.1489,7.57285,-12.3257,Q,Q
2023-03-15 11:11:31:679,0,-29.1085,7.56227,-12.3464,Q,Q
2023-03-15 11:11:31:689,0,-29.0508,7.5523,-12.3382,Q,Q
2023-03-15 11:11:31:699,0,-28.9707,7.5584,-12.3178,Q,Q
2023-03-15 11:11:31:709,0,-28.8865,7.56777,-12.2919,Q,Q
2023-03-15 11:11:31:719,0,-28.8042,7.59538,-12.2691,Q,Q
2023-03-15 11:11:31:729,0,-28.7353,7.62805,-12.2589,Q,Q
2023-03-15 11:11:31:739,0,-28.6782,7.66786,-12.252,Q,Q
2023-03-15 11:11:31:749,0,-28.6319,7.70459,-12.2432,Q,Q
2023-03-15 11:11:31:759,0,-28.5957,7.73446,-12.2402,Q,Q
2023-03-15 11:11:31:769,0,-28.5699,7.76136,-12.2541,Q,Q
2023-03-15 11:11:31:779,0,-28.5494,7.77706,-12.2986,Q,Q
2023-03-15 11:11:31:789,0,-28.5329,7.77961,-12.3582,Q,Q
2023-03-15 11:11:31:799,0,-28.5038,7.76749,-12.4136,Q,Q
2023-03-15 11:11:31:808,0,-28.4668,7.72953,-12.4729,Q,Q
2023-03-15 11:11:31:819,0,-28.427,7.67095,-12.5456,Q,Q
2023-03-15 11:11:31:829,0,-28.387,7.59314,-12.6334,Q,Q
2023-03-15 11:11:31:839,0,-28.3498,7.49774,-12.7418,Q,Q
2023-03-15 11:11:31:849,0,-28.3111,7.39274,-12.8599,Q,Q
2023-03-15 11:11:31:859,0,-28.2669,7.27587,-12.9824,Q,Q
2023-03-15 11:11:31:869,0,-28.2138,7.14955,-13.0927,Q,Q
2023-03-15 11:11:31:879,0,-28.1459,7.01807,-13.1921,Q,Q
2023-03-15 11:11:31:889,0,-28.0629,6.88535,-13.2797,Q,Q
2023-03-15 11:11:31:899,0,-27.9601,6.75373,-13.3537,Q,Q
2023-03-15 11:11:31:909,0,-27.8358,6.62534,-13.4113,Q,Q
2023-03-15 11:11:31:918,0,-27.6981,6.5156,-13.4592,Q,Q
2023-03-15 11:11:31:929,0,-27.553,6.42796,-13.5002,Q,Q
2023-03-15 11:11:31:939,0,-27.4154,6.35899,-13.5379,Q,Q
2023-03-15 11:11:31:949,0,-27.2911,6.305,-13.5676,Q,Q
2023-03-15 11:11:31:959,0,-27.1831,6.26732,-13.5987,Q,Q
2023-03-15 11:11:31:969,0,-27.0939,6.24167,-13.6339,Q,Q
2023-03-15 11:11:31:979,0,-27.0222,6.21887,-13.6673,Q,Q
2023-03-15 11:11:31:989,0,-26.9637,6.19656,-13.6954,Q,Q
2023-03-15 11:11:31:998,0,-26.9028,6.17417,-13.713,Q,Q
2023-03-15 11:11:32:8,0,-26.8357,6.15256,-13.7053,Q,Q
2023-03-15 11:11:32:18,0,-26.742,6.14251,-13.6431,Q,Q
2023-03-15 11:11:32:28,0,-26.6362,6.12234,-13.5591,Q,Q
2023-03-15 11:11:32:39,0,-26.5249,6.1431,-13.4674,Q,Q
2023-03-15 11:11:32:48,0,-26.4203,6.17924,-13.3714,Q,Q
2023-03-15 11:11:32:58,0,-26.3251,6.24625,-13.2596,Q,Q
2023-03-15 11:11:32:68,0,-26.2306,6.31759,-13.1349,Q,Q
2023-03-15 11:11:32:78,0,-26.1383,6.39312,-13.0226,Q,Q
2023-03-15 11:11:32:88,0,-26.0587,6.47988,-12.9301,Q,Q
2023-03-15 11:11:32:98,0,-25.9985,6.56633,-12.8477,Q,Q
2023-03-15 11:11:32:108,0,-25.9458,6.64418,-12.7514,Q,Q
2023-03-15 11:11:32:118,0,-25.8966,6.72071,-12.6482,Q,Q
2023-03-15 11:11:32:128,0,-25.8573,6.76707,-12.5557,Q,Q
2023-03-15 11:11:32:138,0,-25.8297,6.80147,-12.4773,Q,Q
2023-03-15 11:11:32:148,0,-25.8156,6.83313,-12.4254,Q,Q
2023-03-15 11:11:32:158,0,-25.8027,6.85671,-12.3822,Q,Q
2023-03-15 11:11:32:168,0,-25.7939,6.87467,-12.3463,Q,Q
2023-03-15 11:11:32:178,0,-25.7776,6.88858,-12.3109,Q,Q
2023-03-15 11:11:32:188,0,-25.7608,6.90135,-12.2833,Q,Q
2023-03-15 11:11:32:198,0,-25.7412,6.91642,-12.2699,Q,Q
2023-03-15 11:11:32:208,0,-25.7228,6.9298,-12.268,Q,Q
2023-03-15 11:11:32:218,0,-25.699,6.94777,-12.2716,Q,Q
2023-03-15 11:11:32:228,0,-25.671,6.96371,-12.27,Q,Q
2023-03-15 11:11:32:238,0,-25.6341,6.97573,-12.2653,Q,Q
2023-03-15 11:11:32:248,0,-25.5921,6.98652,-12.2544,Q,Q
2023-03-15 11:11:32:258,0,-25.5474,6.9979,-12.2352,Q,Q
2023-03-15 11:11:32:268,0,-25.5057,7.01124,-12.214,Q,Q
2023-03-15 11:11:32:278,0,-25.4695,7.02659,-12.1893,Q,Q
2023-03-15 11:11:32:288,0,-25.4403,7.04012,-12.1611,Q,Q
2023-03-15 11:11:32:298,0,-25.4172,7.04864,-12.1307,Q,Q
2023-03-15 11:11:32:308,0,-25.4026,7.04754,-12.0978,Q,Q
2023-03-15 11:11:32:318,0,-25.3938,7.04207,-12.0591,Q,Q
2023-03-15 11:11:32:328,0,-25.3906,7.03368,-12.023,Q,Q
2023-03-15 11:11:32:338,0,-25.3826,7.02688,-11.9921,Q,Q
2023-03-15 11:11:32:348,0,-25.3774,7.01499,-11.9642,Q,Q
2023-03-15 11:11:32:358,0,-25.3784,6.99722,-11.9434,Q,Q
2023-03-15 11:11:32:367,0,-25.3811,6.98318,-11.9226,Q,Q
2023-03-15 11:11:32:377,0,-25.3869,6.96822,-11.9016,Q,Q
2023-03-15 11:11:32:387,0,-25.3951,6.94918,-11.8796,Q,Q
2023-03-15 11:11:32:397,0,-25.413,6.92432,-11.865,Q,Q
2023-03-15 11:11:32:407,0,-25.4293,6.89312,-11.8541,Q,Q
2023-03-15 11:11:32:417,0,-25.4471,6.85879,-11.8377,Q,Q
2023-03-15 11:11:32:427,0,-25.4643,6.81352,-11.8099,Q,Q
2023-03-15 11:11:32:437,0,-25.4829,6.76053,-11.784,Q,Q
2023-03-15 11:11:32:447,0,-25.507,6.70419,-11.7652,Q,Q
2023-03-15 11:11:32:457,0,-25.5473,6.65027,-11.7586,Q,Q
2023-03-15 11:11:32:467,0,-25.5958,6.5996,-11.7752,Q,Q
2023-03-15 11:11:32:477,0,-25.6467,6.54594,-11.8122,Q,Q
2023-03-15 11:11:32:487,0,-25.696,6.48941,-11.8541,Q,Q
2023-03-15 11:11:32:497,0,-25.7443,6.42343,-11.9022,Q,Q
2023-03-15 11:11:32:507,0,-25.7914,6.35294,-11.9555,Q,Q
2023-03-15 11:11:32:517,0,-25.8417,6.27321,-12.0162,Q,Q
2023-03-15 11:11:32:527,0,-25.8937,6.18884,-12.0832,Q,Q
2023-03-15 11:11:32:537,0,-25.9509,6.1056,-12.1556,Q,Q
2023-03-15 11:11:32:547,0,-26.0086,6.02398,-12.2368,Q,Q
2023-03-15 11:11:32:557,0,-26.0722,5.945,-12.3176,Q,Q
2023-03-15 11:11:32:567,0,-26.1441,5.87949,-12.3967,Q,Q
2023-03-15 11:11:32:577,0,-26.2263,5.82027,-12.4726,Q,Q
2023-03-15 11:11:32:587,0,-26.3165,5.77154,-12.5466,Q,Q
2023-03-15 11:11:32:597,0,-26.4037,5.73619,-12.6156,Q,Q
2023-03-15 11:11:32:607,0,-26.4927,5.70835,-12.6853,Q,Q
2023-03-15 11:11:32:617,0,-26.5781,5.69056,-12.7476,Q,Q
2023-03-15 11:11:32:627,0,-26.6611,5.68302,-12.7995,Q,Q
2023-03-15 11:11:32:637,0,-26.7365,5.68293,-12.8344,Q,Q
2023-03-15 11:11:32:647,0,-26.803,5.69175,-12.8562,Q,Q
2023-03-15 11:11:32:657,0,-26.8668,5.71181,-12.8682,Q,Q
2023-03-15 11:11:32:667,0,-26.9299,5.74356,-12.8769,Q,Q
2023-03-15 11:11:32:677,0,-26.988,5.7764,-12.876,Q,Q
2023-03-15 11:11:32:687,0,-27.047,5.80848,-12.8639,Q,Q
2023-03-15 11:11:32:697,0,-27.1093,5.84048,-12.8494,Q,Q
2023-03-15 11:11:32:707,0,-27.1765,5.87029,-12.8335,Q,Q
2023-03-15 11:11:32:717,0,-27.246,5.90166,-12.818,Q,Q
2023-03-15 11:11:32:727,0,-27.3207,5.93442,-12.8002,Q,Q
2023-03-15 11:11:32:737,0,-27.3886,5.97039,-12.7904,Q,Q
2023-03-15 11:11:32:747,0,-27.4468,6.00589,-12.7834,Q,Q
2023-03-15 11:11:32:757,0,-27.5013,6.0418,-12.7759,Q,Q
2023-03-15 11:11:32:767,0,-27.5463,6.0739,-12.7713,Q,Q
2023-03-15 11:11:32:777,0,-27.5837,6.10397,-12.7711,Q,Q
2023-03-15 11:11:32:787,0,-27.6112,6.13028,-12.7739,Q,Q
2023-03-15 11:11:32:797,0,-27.6364,6.14703,-12.7807,Q,Q
2023-03-15 11:11:32:807,0,-27.6592,6.15494,-12.7824,Q,Q
2023-03-15 11:11:32:817,0,-27.679,6.1569,-12.7804,Q,Q
2023-03-15 11:11:32:827,0,-27.7056,6.14624,-12.7807,Q,Q
2023-03-15 11:11:32:837,0,-27.7475,6.12977,-12.7843,Q,Q
2023-03-15 11:11:32:847,0,-27.8002,6.11713,-12.7901,Q,Q
2023-03-15 11:11:32:857,0,-27.8588,6.10923,-12.8033,Q,Q
2023-03-15 11:11:32:867,0,-27.9154,6.10424,-12.8211,Q,Q
2023-03-15 11:11:32:877,0,-27.964,6.10797,-12.8433,Q,Q
2023-03-15 11:11:32:887,0,-28.0037,6.11893,-12.8653,Q,Q
2023-03-15 11:11:32:896,0,-28.0362,6.13957,-12.8868,Q,Q
2023-03-15 11:11:32:906,0,-28.063,6.16639,-12.8995,Q,Q
2023-03-15 11:11:32:916,0,-28.0932,6.19228,-12.9033,Q,Q
2023-03-15 11:11:32:926,0,-28.1329,6.22155,-12.9018,Q,Q
2023-03-15 11:11:32:936,0,-28.1911,6.24872,-12.8931,Q,Q
2023-03-15 11:11:32:946,0,-28.2691,6.27507,-12.879,Q,Q
2023-03-15 11:11:32:956,0,-28.36,6.30063,-12.8688,Q,Q
2023-03-15 11:11:32:967,0,-28.4589,6.32221,-12.8545,Q,Q
2023-03-15 11:11:32:976,0,-28.5595,6.34141,-12.8478,Q,Q
2023-03-15 11:11:32:986,0,-28.6492,6.36239,-12.8486,Q,Q
2023-03-15 11:11:32:996,0,-28.7255,6.38342,-12.852,Q,Q
2023-03-15 11:11:33:6,0,-28.7875,6.40918,-12.8544,Q,Q
2023-03-15 11:11:33:16,0,-28.8302,6.43628,-12.8634,Q,Q
2023-03-15 11:11:33:26,0,-28.866,6.46509,-12.8714,Q,Q
2023-03-15 11:11:33:36,0,-28.9003,6.49449,-12.8814,Q,Q
2023-03-15 11:11:33:46,0,-28.9385,6.52028,-12.8986,Q,Q
2023-03-15 11:11:33:56,0,-28.9884,6.54775,-12.9223,Q,Q
2023-03-15 11:11:33:66,0,-29.0577,6.57317,-12.9508,Q,Q
2023-03-15 11:11:33:76,0,-29.1416,6.59439,-12.9849,Q,Q
2023-03-15 11:11:33:86,0,-29.2358,6.6041,-13.0195,Q,Q
2023-03-15 11:11:33:96,0,-29.3373,6.61124,-13.0531,Q,Q
2023-03-15 11:11:33:106,0,-29.4391,6.61162,-13.0829,Q,Q
2023-03-15 11:11:33:116,0,-29.5339,6.61184,-13.1061,Q,Q
2023-03-15 11:11:33:126,0,-29.6187,6.60655,-13.1271,Q,Q
2023-03-15 11:11:33:136,0,-29.7007,6.60399,-13.1457,Q,Q
2023-03-15 11:11:33:146,0,-29.7867,6.60653,-13.1722,Q,Q
2023-03-15 11:11:33:156,0,-29.8779,6.61228,-13.202,Q,Q
2023-03-15 11:11:33:166,0,-29.9791,6.63239,-13.2347,Q,Q
2023-03-15 11:11:33:176,0,-30.0828,6.65317,-13.266,Q,Q
2023-03-15 11:11:33:186,0,-30.1918,6.67195,-13.2864,Q,Q
2023-03-15 11:11:33:196,0,-30.2858,6.69277,-13.2885,Q,Q
2023-03-15 11:11:33:206,0,-30.3567,6.70832,-13.2643,Q,Q
2023-03-15 11:11:33:216,0,-30.4064,6.72421,-13.2254,Q,Q
2023-03-15 11:11:33:226,0,-30.4274,6.73472,-13.1691,Q,Q
2023-03-15 11:11:33:236,0,-30.4378,6.75535,-13.1166,Q,Q
2023-03-15 11:11:33:246,0,-30.4357,6.77343,-13.0647,Q,Q
2023-03-15 11:11:33:256,0,-30.4345,6.78759,-13.0158,Q,Q
2023-03-15 11:11:33:266,0,-30.4378,6.80363,-12.9728,Q,Q
2023-03-15 11:11:33:276,0,-30.4461,6.81973,-12.9368,Q,Q
2023-03-15 11:11:33:286,0,-30.4521,6.8316,-12.9093,Q,Q
2023-03-15 11:11:33:295,0,-30.4531,6.84215,-12.8843,Q,Q
2023-03-15 11:11:33:306,0,-30.4564,6.846,-12.866,Q,Q
2023-03-15 11:11:33:316,0,-30.4607,6.8457,-12.861,Q,Q
2023-03-15 11:11:33:325,0,-30.4602,6.83556,-12.8667,Q,Q
2023-03-15 11:11:33:335,0,-30.4579,6.82241,-12.8857,Q,Q
2023-03-15 11:11:33:345,0,-30.4495,6.80797,-12.9146,Q,Q
2023-03-15 11:11:33:356,0,-30.4321,6.78963,-12.9599,Q,Q
2023-03-15 11:11:33:365,0,-30.4009,6.76157,-13.0142,Q,Q
2023-03-15 11:11:33:375,0,-30.3525,6.72854,-13.075,Q,Q
2023-03-15 11:11:33:385,0,-30.283,6.68131,-13.1466,Q,Q
2023-03-15 11:11:33:395,0,-30.1905,6.62701,-13.2189,Q,Q
2023-03-15 11:11:33:405,0,-30.0599,6.56625,-13.2954,Q,Q
2023-03-15 11:11:33:415,0,-29.8988,6.49749,-13.3784,Q,Q
2023-03-15 11:11:33:425,0,-29.7058,6.42153,-13.4619,Q,Q
2023-03-15 11:11:33:435,0,-29.481,6.34099,-13.5512,Q,Q
2023-03-15 11:11:33:445,0,-29.2313,6.25355,-13.6411,Q,Q
2023-03-15 11:11:33:455,0,-28.9517,6.1669,-13.7383,Q,Q
2023-03-15 11:11:33:465,0,-28.6544,6.08187,-13.8346,Q,Q
2023-03-15 11:11:33:475,0,-28.3372,5.9985,-13.9278,Q,Q
2023-03-15 11:11:33:485,0,-28.0107,5.92187,-14.0163,Q,Q
2023-03-15 11:11:33:495,0,-27.6804,5.85335,-14.0973,Q,Q
2023-03-15 11:11:33:505,0,-27.363,5.79373,-14.172,Q,Q
2023-03-15 11:11:33:515,0,-27.0502,5.73722,-14.2405,Q,Q
2023-03-15 11:11:33:525,0,-26.7574,5.68819,-14.3077,Q,Q
2023-03-15 11:11:33:535,0,-26.4875,5.65801,-14.3665,Q,Q
2023-03-15 11:11:33:545,0,-26.2377,5.63572,-14.4239,Q,Q
2023-03-15 11:11:33:555,0,-26.0153,5.62479,-14.4823,Q,Q
2023-03-15 11:11:33:565,0,-25.8077,5.633,-14.5406,Q,Q
2023-03-15 11:11:33:575,0,-25.6208,5.64871,-14.6023,Q,Q
2023-03-15 11:11:33:585,0,-25.451,5.67222,-14.6667,Q,Q
2023-03-15 11:11:33:595,0,-25.2964,5.69883,-14.7344,Q,Q
2023-03-15 11:11:33:605,0,-25.1556,5.73388,-14.804,Q,Q
2023-03-15 11:11:33:615,0,-25.014,5.77252,-14.8737,Q,Q
2023-03-15 11:11:33:625,0,-24.8678,5.81306,-14.9461,Q,Q
2023-03-15 11:11:33:635,0,-24.7175,5.85723,-15.0139,Q,Q
2023-03-15 11:11:33:645,0,-24.566,5.90189,-15.0789,Q,Q
2023-03-15 11:11:33:655,0,-24.4073,5.94616,-15.1357,Q,Q
2023-03-15 11:11:33:665,0,-24.2585,5.98414,-15.1891,Q,Q
2023-03-15 11:11:33:675,0,-24.117,6.02085,-15.2379,Q,Q
2023-03-15 11:11:33:685,0,-23.982,6.05671,-15.2808,Q,Q
2023-03-15 11:11:33:695,0,-23.8544,6.09968,-15.3271,Q,Q
2023-03-15 11:11:33:704,0,-23.7405,6.15043,-15.3806,Q,Q
2023-03-15 11:11:33:715,0,-23.6332,6.21349,-15.4452,Q,Q
2023-03-15 11:11:33:725,0,-23.539,6.28677,-15.5109,Q,Q
2023-03-15 11:11:33:735,0,-23.4443,6.36921,-15.5736,Q,Q
2023-03-15 11:11:33:745,0,-23.3541,6.45561,-15.6371,Q,Q
2023-03-15 11:11:33:755,0,-23.2753,6.54308,-15.6962,Q,Q
2023-03-15 11:11:33:765,0,-23.2095,6.62923,-15.7669,Q,Q
2023-03-15 11:11:33:775,0,-23.1572,6.72733,-15.8511,Q,Q
2023-03-15 11:11:33:785,0,-23.1248,6.83753,-15.9578,Q,Q
2023-03-15 11:11:33:794,0,-23.1139,6.96354,-16.0893,Q,Q
2023-03-15 11:11:33:804,0,-23.1195,7.09917,-16.2368,Q,Q
2023-03-15 11:11:33:814,0,-23.1419,7.23627,-16.4075,Q,Q
2023-03-15 11:11:33:824,0,-23.1815,7.38441,-16.59,Q,Q
2023-03-15 11:11:33:834,0,-23.2387,7.53999,-16.7898,Q,Q
2023-03-15 11:11:33:844,0,-23.306,7.69876,-16.9977,Q,Q
2023-03-15 11:11:33:854,0,-23.3784,7.86019,-17.2065,Q,Q
2023-03-15 11:11:33:864,0,-23.4498,8.02125,-17.4069,Q,Q
2023-03-15 11:11:33:874,0,-23.5286,8.1791,-17.5964,Q,Q
2023-03-15 11:11:33:884,0,-23.6044,8.34082,-17.776,Q,Q
2023-03-15 11:11:33:894,0,-23.6812,8.5097,-17.9401,Q,Q
2023-03-15 11:11:33:904,0,-23.7569,8.68397,-18.0986,Q,Q
2023-03-15 11:11:33:914,0,-23.8185,8.86442,-18.237,Q,Q
2023-03-15 11:11:33:924,0,-23.8685,9.04734,-18.3524,Q,Q
2023-03-15 11:11:33:934,0,-23.9027,9.2408,-18.4434,Q,Q
2023-03-15 11:11:33:944,0,-23.9306,9.44894,-18.5213,Q,Q
2023-03-15 11:11:33:954,0,-23.9613,9.64825,-18.5877,Q,Q
2023-03-15 11:11:33:964,0,-24.0074,9.83595,-18.6437,Q,Q
2023-03-15 11:11:33:974,0,-24.0745,9.99466,-18.6943,Q,Q
2023-03-15 11:11:33:984,0,-24.1528,10.139,-18.7398,Q,Q
2023-03-15 11:11:33:994,0,-24.2272,10.291,-18.7699,Q,Q
2023-03-15 11:11:34:4,0,-24.28,10.4305,-18.7809,Q,Q
2023-03-15 11:11:34:14,0,-24.3161,10.5502,-18.7697,Q,Q
2023-03-15 11:11:34:24,0,-24.3164,10.6627,-18.7138,Q,Q
2023-03-15 11:11:34:34,0,-24.2865,10.7628,-18.6181,Q,Q
2023-03-15 11:11:34:44,0,-24.233,10.8555,-18.4827,Q,Q
2023-03-15 11:11:34:54,0,-24.1717,10.9648,-18.3141,Q,Q
2023-03-15 11:11:34:64,0,-24.1086,11.0658,-18.1298,Q,Q
2023-03-15 11:11:34:74,0,-24.0675,11.1691,-17.9429,Q,Q
2023-03-15 11:11:34:84,0,-24.0415,11.2805,-17.7419,Q,Q
2023-03-15 11:11:34:94,0,-24.02,11.3831,-17.5379,Q,Q
2023-03-15 11:11:34:104,0,-23.9795,11.4825,-17.3156,Q,Q
2023-03-15 11:11:34:114,0,-23.9117,11.5757,-17.0697,Q,Q
2023-03-15 11:11:34:124,0,-23.8445,11.6563,-16.8224,Q,Q
2023-03-15 11:11:34:134,0,-23.7894,11.7259,-16.5913,Q,Q
2023-03-15 11:11:34:144,0,-23.7489,11.7937,-16.3761,Q,Q
2023-03-15 11:11:34:154,0,-23.7082,11.86,-16.1773,Q,Q
2023-03-15 11:11:34:163,0,-23.6647,11.934,-15.9882,Q,Q
2023-03-15 11:11:34:173,0,-23.6076,12.0049,-15.8144,Q,Q
2023-03-15 11:11:34:184,0,-23.5415,12.0513,-15.6536,Q,Q
2023-03-15 11:11:34:193,0,-23.4857,12.0725,-15.5352,Q,Q
2023-03-15 11:11:34:204,0,-23.4479,12.0754,-15.4588,Q,Q
2023-03-15 11:11:34:213,0,-23.4254,12.06,-15.4129,Q,Q
2023-03-15 11:11:34:223,0,-23.4122,12.0181,-15.3918,Q,Q
2023-03-15 11:11:34:233,0,-23.3942,11.9673,-15.385,Q,Q
2023-03-15 11:11:34:244,0,-23.3611,11.8976,-15.3807,Q,Q
2023-03-15 11:11:34:253,0,-23.3116,11.8174,-15.3597,Q,Q
2023-03-15 11:11:34:263,0,-23.2411,11.7308,-15.3192,Q,Q
2023-03-15 11:11:34:273,0,-23.1593,11.6431,-15.2606,Q,Q
2023-03-15 11:11:34:283,0,-23.08,11.5725,-15.1971,Q,Q
2023-03-15 11:11:34:293,0,-23.0119,11.5237,-15.1321,Q,Q
2023-03-15 11:11:34:303,0,-22.9527,11.4954,-15.0715,Q,Q
2023-03-15 11:11:34:313,0,-22.9071,11.4987,-15.0117,Q,Q
2023-03-15 11:11:34:323,0,-22.8567,11.5361,-14.9415,Q,Q
2023-03-15 11:11:34:333,0,-22.8073,11.5738,-14.8744,Q,Q
2023-03-15 11:11:34:343,0,-22.7711,11.6145,-14.8142,Q,Q
2023-03-15 11:11:34:353,0,-22.764,11.6555,-14.7678,Q,Q
2023-03-15 11:11:34:363,0,-22.7707,11.7039,-14.7256,Q,Q
2023-03-15 11:11:34:373,0,-22.7912,11.7638,-14.6849,Q,Q
2023-03-15 11:11:34:383,0,-22.817,11.8285,-14.6609,Q,Q
2023-03-15 11:11:34:393,0,-22.8505,11.8912,-14.6536,Q,Q
2023-03-15 11:11:34:403,0,-22.893,11.9651,-14.6633,Q,Q
2023-03-15 11:11:34:413,0,-22.9413,12.0453,-14.6824,Q,Q
2023-03-15 11:11:34:423,0,-22.9806,12.1231,-14.7007,Q,Q
2023-03-15 11:11:34:433,0,-23.0023,12.1951,-14.7167,Q,Q
2023-03-15 11:11:34:443,0,-23.0123,12.2523,-14.7306,Q,Q
2023-03-15 11:11:34:453,0,-23.0153,12.305,-14.7476,Q,Q
2023-03-15 11:11:34:463,0,-23.016,12.3512,-14.7579,Q,Q
2023-03-15 11:11:34:473,0,-23.0202,12.3957,-14.7633,Q,Q
2023-03-15 11:11:34:483,0,-23.0261,12.443,-14.7661,Q,Q
2023-03-15 11:11:34:493,0,-23.0392,12.492,-14.7662,Q,Q
2023-03-15 11:11:34:503,0,-23.0516,12.5471,-14.7622,Q,Q
2023-03-15 11:11:34:513,0,-23.0676,12.6058,-14.7559,Q,Q
2023-03-15 11:11:34:523,0,-23.0797,12.6684,-14.7492,Q,Q
2023-03-15 11:11:34:533,0,-23.0908,12.7276,-14.7346,Q,Q
2023-03-15 11:11:34:543,0,-23.0934,12.7923,-14.7101,Q,Q
2023-03-15 11:11:34:553,0,-23.0923,12.8492,-14.6758,Q,Q
2023-03-15 11:11:34:563,0,-23.0911,12.9083,-14.638,Q,Q
2023-03-15 11:11:34:573,0,-23.0884,12.9644,-14.6042,Q,Q
2023-03-15 11:11:34:583,0,-23.096,13.0215,-14.5674,Q,Q
2023-03-15 11:11:34:593,0,-23.11,13.0735,-14.5448,Q,Q
2023-03-15 11:11:34:602,0,-23.1289,13.1274,-14.5357,Q,Q
2023-03-15 11:11:34:612,0,-23.1468,13.187,-14.5293,Q,Q
2023-03-15 11:11:34:622,0,-23.1553,13.2384,-14.5168,Q,Q
2023-03-15 11:11:34:632,0,-23.1556,13.2816,-14.4945,Q,Q
2023-03-15 11:11:34:642,0,-23.1467,13.3139,-14.4612,Q,Q
2023-03-15 11:11:34:652,0,-23.1337,13.3482,-14.424,Q,Q
2023-03-15 11:11:34:662,0,-23.1192,13.3751,-14.3929,Q,Q
2023-03-15 11:11:34:672,0,-23.1036,13.3978,-14.3565,Q,Q
2023-03-15 11:11:34:682,0,-23.0815,13.4318,-14.3037,Q,Q
2023-03-15 11:11:34:692,0,-23.0442,13.4992,-14.2349,Q,Q
2023-03-15 11:11:34:702,0,-23.0103,13.5565,-14.1583,Q,Q
2023-03-15 11:11:34:712,0,-22.9977,13.6099,-14.0993,Q,Q
2023-03-15 11:11:34:722,0,-22.9978,13.6691,-14.0569,Q,Q
2023-03-15 11:11:34:732,0,-23.0043,13.7329,-14.0232,Q,Q
2023-03-15 11:11:34:742,0,-23.0058,13.7906,-13.9849,Q,Q
2023-03-15 11:11:34:752,0,-23.0165,13.8323,-13.9857,Q,Q
2023-03-15 11:11:34:762,0,-23.0361,13.8636,-14.0212,Q,Q
2023-03-15 11:11:34:772,0,-23.0658,13.8875,-14.0695,Q,Q
2023-03-15 11:11:34:782,0,-23.0894,13.8937,-14.1014,Q,Q
2023-03-15 11:11:34:792,0,-23.0921,13.8839,-14.1138,Q,Q
2023-03-15 11:11:34:802,0,-23.08,13.862,-14.1368,Q,Q
2023-03-15 11:11:34:812,0,-23.0797,13.8423,-14.1858,Q,Q
2023-03-15 11:11:34:822,0,-23.0978,13.8256,-14.2516,Q,Q
2023-03-15 11:11:34:832,0,-23.1296,13.8187,-14.3262,Q,Q
2023-03-15 11:11:34:842,0,-23.1648,13.8279,-14.4097,Q,Q
2023-03-15 11:11:34:852,0,-23.1969,13.8406,-14.4967,Q,Q
2023-03-15 11:11:34:862,0,-23.2227,13.8468,-14.5777,Q,Q
2023-03-15 11:11:34:872,0,-23.2363,13.8334,-14.641,Q,Q
2023-03-15 11:11:34:882,0,-23.2254,13.812,-14.6594,Q,Q
2023-03-15 11:11:34:892,0,-23.1957,13.7973,-14.6405,Q,Q
2023-03-15 11:11:34:902,0,-23.1648,13.7784,-14.6269,Q,Q
2023-03-15 11:11:34:912,0,-23.1538,13.7629,-14.6317,Q,Q
2023-03-15 11:11:34:922,0,-23.1617,13.7592,-14.6493,Q,Q
2023-03-15 11:11:34:932,0,-23.1818,13.7668,-14.6629,Q,Q
2023-03-15 11:11:34:942,0,-23.1999,13.7791,-14.6713,Q,Q
2023-03-15 11:11:34:952,0,-23.2162,13.79,-14.6763,Q,Q
2023-03-15 11:11:34:962,0,-23.2355,13.7978,-14.6929,Q,Q
2023-03-15 11:11:34:972,0,-23.2732,13.8057,-14.7377,Q,Q
2023-03-15 11:11:34:982,0,-23.3228,13.8206,-14.8054,Q,Q
2023-03-15 11:11:34:992,0,-23.365,13.8391,-14.8751,Q,Q
2023-03-15 11:11:35:2,0,-23.3913,13.8523,-14.93,Q,Q
2023-03-15 11:11:35:12,0,-23.397,13.8644,-14.9647,Q,Q
2023-03-15 11:11:35:22,0,-23.3924,13.8675,-14.9916,Q,Q
2023-03-15 11:11:35:32,0,-23.3876,13.8673,-15.007,Q,Q
2023-03-15 11:11:35:42,0,-23.3744,13.8624,-15.0074,Q,Q
2023-03-15 11:11:35:52,0,-23.3537,13.8538,-14.9995,Q,Q
2023-03-15 11:11:35:62,0,-23.3412,13.8394,-14.9985,Q,Q
2023-03-15 11:11:35:72,0,-23.345,13.8237,-15.017,Q,Q
2023-03-15 11:11:35:82,0,-23.3668,13.8019,-15.0555,Q,Q
2023-03-15 11:11:35:92,0,-23.3997,13.7786,-15.1117,Q,Q
2023-03-15 11:11:35:102,0,-23.4422,13.7514,-15.1826,Q,Q
2023-03-15 11:11:35:111,0,-23.4767,13.7292,-15.2525,Q,Q
2023-03-15 11:11:35:121,0,-23.4966,13.6974,-15.3103,Q,Q
2023-03-15 11:11:35:131,0,-23.4999,13.66,-15.3554,Q,Q
2023-03-15 11:11:35:141,0,-23.4967,13.6239,-15.3996,Q,Q
2023-03-15 11:11:35:152,0,-23.4915,13.5932,-15.4458,Q,Q
2023-03-15 11:11:35:161,0,-23.4882,13.5728,-15.4918,Q,Q
2023-03-15 11:11:35:171,0,-23.4834,13.5592,-15.5284,Q,Q
2023-03-15 11:11:35:181,0,-23.4788,13.5511,-15.5708,Q,Q
2023-03-15 11:11:35:191,0,-23.4878,13.5501,-15.627,Q,Q
2023-03-15 11:11:35:201,0,-23.5087,13.5524,-15.7053,Q,Q
2023-03-15 11:11:35:211,0,-23.5386,13.558,-15.7848,Q,Q
2023-03-15 11:11:35:221,0,-23.5648,13.5617,-15.857,Q,Q
2023-03-15 11:11:35:231,0,-23.588,13.5675,-15.9233,Q,Q
2023-03-15 11:11:35:241,0,-23.603,13.5679,-15.9841,Q,Q
2023-03-15 11:11:35:251,0,-23.6167,13.5701,-16.04,Q,Q
2023-03-15 11:11:35:261,0,-23.6305,13.5706,-16.0993,Q,Q
2023-03-15 11:11:35:271,0,-23.653,13.5643,-16.173,Q,Q
2023-03-15 11:11:35:281,0,-23.6775,13.5604,-16.2474,Q,Q
2023-03-15 11:11:35:291,0,-23.6895,13.5572,-16.3112,Q,Q
2023-03-15 11:11:35:301,0,-23.6887,13.5539,-16.3667,Q,Q
2023-03-15 11:11:35:311,0,-23.6773,13.5579,-16.4149,Q,Q
2023-03-15 11:11:35:321,0,-23.661,13.5651,-16.4559,Q,Q
2023-03-15 11:11:35:331,0,-23.6509,13.5747,-16.4927,Q,Q
2023-03-15 11:11:35:341,0,-23.6473,13.5891,-16.5346,Q,Q
2023-03-15 11:11:35:351,0,-23.6435,13.6064,-16.5772,Q,Q
2023-03-15 11:11:35:361,0,-23.643,13.6245,-16.6183,Q,Q
2023-03-15 11:11:35:371,0,-23.6411,13.6444,-16.6575,Q,Q
2023-03-15 11:11:35:381,0,-23.6329,13.6617,-16.6966,Q,Q
2023-03-15 11:11:35:391,0,-23.6268,13.6804,-16.7314,Q,Q
2023-03-15 11:11:35:401,0,-23.6153,13.7011,-16.7562,Q,Q
2023-03-15 11:11:35:411,0,-23.6112,13.7316,-16.7804,Q,Q
2023-03-15 11:11:35:421,0,-23.6104,13.7597,-16.7938,Q,Q
2023-03-15 11:11:35:431,0,-23.617,13.7853,-16.8036,Q,Q
2023-03-15 11:11:35:441,0,-23.6253,13.8117,-16.8102,Q,Q
2023-03-15 11:11:35:450,0,-23.6337,13.8409,-16.8169,Q,Q
2023-03-15 11:11:35:460,0,-23.6386,13.8679,-16.8214,Q,Q
2023-03-15 11:11:35:471,0,-23.6401,13.9034,-16.8199,Q,Q
2023-03-15 11:11:35:480,0,-23.6401,13.9373,-16.8146,Q,Q
2023-03-15 11:11:35:491,0,-23.6345,13.9639,-16.7921,Q,Q
2023-03-15 11:11:35:501,0,-23.628,13.9927,-16.7702,Q,Q
2023-03-15 11:11:35:511,0,-23.6154,14.0241,-16.75,Q,Q
2023-03-15 11:11:35:521,0,-23.6039,14.0474,-16.735,Q,Q
2023-03-15 11:11:35:531,0,-23.593,14.0649,-16.7259,Q,Q
2023-03-15 11:11:35:540,0,-23.5877,14.0738,-16.7242,Q,Q
2023-03-15 11:11:35:550,0,-23.5847,14.0838,-16.7251,Q,Q
2023-03-15 11:11:35:560,0,-23.5884,14.0934,-16.7349,Q,Q
2023-03-15 11:11:35:570,0,-23.584,14.0996,-16.7434,Q,Q
2023-03-15 11:11:35:580,0,-23.574,14.1106,-16.7509,Q,Q
2023-03-15 11:11:35:590,0,-23.5543,14.1232,-16.7577,Q,Q
2023-03-15 11:11:35:600,0,-23.5358,14.1423,-16.7649,Q,Q
2023-03-15 11:11:35:610,0,-23.522,14.1654,-16.778,Q,Q
2023-03-15 11:11:35:620,0,-23.5152,14.1889,-16.7865,Q,Q
2023-03-15 11:11:35:630,0,-23.5094,14.2088,-16.7899,Q,Q
2023-03-15 11:11:35:640,0,-23.5042,14.2251,-16.7907,Q,Q
2023-03-15 11:11:35:650,0,-23.5019,14.2423,-16.7878,Q,Q
2023-03-15 11:11:35:660,0,-23.491,14.2586,-16.775,Q,Q
2023-03-15 11:11:35:670,0,-23.472,14.2789,-16.7573,Q,Q
2023-03-15 11:11:35:680,0,-23.4353,14.305,-16.7256,Q,Q
2023-03-15 11:11:35:690,0,-23.3868,14.3341,-16.6734,Q,Q
2023-03-15 11:11:35:700,0,-23.3347,14.3633,-16.6067,Q,Q
2023-03-15 11:11:35:710,0,-23.2848,14.3912,-16.5333,Q,Q
2023-03-15 11:11:35:720,0,-23.238,14.418,-16.4608,Q,Q
2023-03-15 11:11:35:730,0,-23.1925,14.4452,-16.3897,Q,Q
2023-03-15 11:11:35:740,0,-23.144,14.4777,-16.3109,Q,Q
2023-03-15 11:11:35:750,0,-23.0904,14.5085,-16.2277,Q,Q
2023-03-15 11:11:35:760,0,-23.0249,14.5597,-16.1403,Q,Q
2023-03-15 11:11:35:770,0,-22.9434,14.6278,-16.0449,Q,Q
2023-03-15 11:11:35:780,0,-22.8551,14.6804,-15.949,Q,Q
2023-03-15 11:11:35:790,0,-22.777,14.7256,-15.8563,Q,Q
2023-03-15 11:11:35:800,0,-22.7211,14.7549,-15.7809,Q,Q
2023-03-15 11:11:35:810,0,-22.6873,14.7728,-15.7163,Q,Q
2023-03-15 11:11:35:820,0,-22.6679,14.7845,-15.66,Q,Q
2023-03-15 11:11:35:830,0,-22.6456,14.8062,-15.5964,Q,Q
2023-03-15 11:11:35:840,0,-22.6129,14.8253,-15.534,Q,Q
2023-03-15 11:11:35:850,0,-22.5738,14.8369,-15.4716,Q,Q
2023-03-15 11:11:35:860,0,-22.5379,14.8441,-15.4177,Q,Q
2023-03-15 11:11:35:870,0,-22.5193,14.8527,-15.3776,Q,Q
2023-03-15 11:11:35:880,0,-22.515,14.8659,-15.3493,Q,Q
2023-03-15 11:11:35:890,0,-22.5187,14.8824,-15.3239,Q,Q
2023-03-15 11:11:35:900,0,-22.5296,14.8948,-15.3049,Q,Q
2023-03-15 11:11:35:910,0,-22.5427,14.9077,-15.2908,Q,Q
2023-03-15 11:11:35:920,0,-22.5541,14.9193,-15.2767,Q,Q
2023-03-15 11:11:35:930,0,-22.5617,14.9341,-15.2621,Q,Q
2023-03-15 11:11:35:940,0,-22.5632,14.9478,-15.2449,Q,Q
2023-03-15 11:11:35:949,0,-22.555,14.9655,-15.2271,Q,Q
2023-03-15 11:11:35:960,0,-22.542,14.9869,-15.2035,Q,Q
2023-03-15 11:11:35:970,0,-22.5285,15.0111,-15.1734,Q,Q
2023-03-15 11:11:35:980,0,-22.5128,15.0354,-15.1395,Q,Q
2023-03-15 11:11:35:990,0,-22.5,15.0536,-15.1088,Q,Q
2023-03-15 11:11:35:999,0,-22.4903,15.0684,-15.0782,Q,Q
2023-03-15 11:11:36:9,0,-22.4798,15.0863,-15.049,Q,Q
2023-03-15 11:11:36:19,0,-22.4735,15.0992,-15.026,Q,Q
2023-03-15 11:11:36:29,0,-22.4659,15.1035,-15.0068,Q,Q
2023-03-15 11:11:36:40,0,-22.4582,15.1035,-14.9922,Q,Q
2023-03-15 11:11:36:49,0,-22.4494,15.0987,-14.9815,Q,Q
2023-03-15 11:11:36:59,0,-22.4372,15.0866,-14.9697,Q,Q
2023-03-15 11:11:36:69,0,-22.4189,15.0663,-14.9581,Q,Q
2023-03-15 11:11:36:79,0,-22.3957,15.0359,-14.939,Q,Q
2023-03-15 11:11:36:89,0,-22.3674,15.0008,-14.9161,Q,Q
2023-03-15 11:11:36:99,0,-22.3357,14.9568,-14.8826,Q,Q
2023-03-15 11:11:36:109,0,-22.2894,14.9077,-14.8417,Q,Q
2023-03-15 11:11:36:119,0,-22.2289,14.8449,-14.7919,Q,Q
2023-03-15 11:11:36:129,0,-22.1615,14.7639,-14.7286,Q,Q
2023-03-15 11:11:36:139,0,-22.0893,14.66,-14.6645,Q,Q
2023-03-15 11:11:36:149,0,-22.0075,14.5517,-14.5978,Q,Q
2023-03-15 11:11:36:159,0,-21.9372,14.4373,-14.5408,Q,Q
2023-03-15 11:11:36:169,0,-21.8875,14.3224,-14.5027,Q,Q
2023-03-15 11:11:36:179,0,-21.8434,14.2074,-14.4758,Q,Q
2023-03-15 11:11:36:189,0,-21.7996,14.0892,-14.4532,Q,Q
2023-03-15 11:11:36:199,0,-21.7472,13.9633,-14.4381,Q,Q
2023-03-15 11:11:36:209,0,-21.6896,13.8382,-14.4268,Q,Q
2023-03-15 11:11:36:219,0,-21.6194,13.7441,-14.4186,Q,Q
2023-03-15 11:11:36:229,0,-21.5288,13.6502,-14.4173,Q,Q
2023-03-15 11:11:36:239,0,-21.4431,13.5241,-14.4389,Q,Q
2023-03-15 11:11:36:249,0,-21.3736,13.3823,-14.4766,Q,Q
2023-03-15 11:11:36:259,0,-21.3297,13.2279,-14.5326,Q,Q
2023-03-15 11:11:36:269,0,-21.3029,13.0457,-14.6038,Q,Q
2023-03-15 11:11:36:279,0,-21.2769,12.8513,-14.6798,Q,Q
2023-03-15 11:11:36:289,0,-21.2376,12.6548,-14.7534,Q,Q
2023-03-15 11:11:36:299,0,-21.1818,12.4463,-14.8233,Q,Q
2023-03-15 11:11:36:309,0,-21.1192,12.2333,-14.885,Q,Q
2023-03-15 11:11:36:319,0,-21.0568,12.026,-14.9399,Q,Q
2023-03-15 11:11:36:329,0,-21.0006,11.8198,-14.9956,Q,Q
2023-03-15 11:11:36:339,0,-20.9444,11.6322,-15.0471,Q,Q
2023-03-15 11:11:36:349,0,-20.8928,11.463,-15.0937,Q,Q
2023-03-15 11:11:36:359,0,-20.8435,11.316,-15.1342,Q,Q
2023-03-15 11:11:36:369,0,-20.8036,11.1897,-15.1708,Q,Q
2023-03-15 11:11:36:378,0,-20.7735,11.0953,-15.1988,Q,Q
2023-03-15 11:11:36:388,0,-20.7474,11.0279,-15.2131,Q,Q
2023-03-15 11:11:36:398,0,-20.7236,10.9797,-15.2093,Q,Q
2023-03-15 11:11:36:408,0,-20.7024,10.9617,-15.1915,Q,Q
2023-03-15 11:11:36:418,0,-20.6805,10.9737,-15.1635,Q,Q
2023-03-15 11:11:36:428,0,-20.666,11.0068,-15.1333,Q,Q
2023-03-15 11:11:36:438,0,-20.6619,11.0553,-15.1025,Q,Q
2023-03-15 11:11:36:448,0,-20.6673,11.121,-15.0726,Q,Q
2023-03-15 11:11:36:458,0,-20.6814,11.1963,-15.0461,Q,Q
2023-03-15 11:11:36:468,0,-20.706,11.2811,-15.033,Q,Q
2023-03-15 11:11:36:478,0,-20.7378,11.3765,-15.0362,Q,Q
2023-03-15 11:11:36:488,0,-20.7723,11.4767,-15.0415,Q,Q
2023-03-15 11:11:36:498,0,-20.799,11.5642,-15.0428,Q,Q
2023-03-15 11:11:36:508,0,-20.8128,11.6478,-15.039,Q,Q
2023-03-15 11:11:36:518,0,-20.8132,11.7217,-15.0243,Q,Q
2023-03-15 11:11:36:528,0,-20.7958,11.7838,-14.9983,Q,Q
2023-03-15 11:11:36:538,0,-20.7652,11.8452,-14.9527,Q,Q
2023-03-15 11:11:36:548,0,-20.7235,11.9313,-14.9057,Q,Q
2023-03-15 11:11:36:558,0,-20.6648,12.0471,-14.861,Q,Q
2023-03-15 11:11:36:568,0,-20.6017,12.142,-14.8269,Q,Q
2023-03-15 11:11:36:578,0,-20.556,12.2268,-14.8078,Q,Q
2023-03-15 11:11:36:588,0,-20.5387,12.294,-14.8022,Q,Q
2023-03-15 11:11:36:598,0,-20.5419,12.3495,-14.8073,Q,Q
2023-03-15 11:11:36:608,0,-20.5542,12.3894,-14.8204,Q,Q
2023-03-15 11:11:36:618,0,-20.5614,12.4332,-14.8326,Q,Q
2023-03-15 11:11:36:628,0,-20.5457,12.4702,-14.8337,Q,Q
2023-03-15 11:11:36:638,0,-20.5215,12.499,-14.837,Q,Q
2023-03-15 11:11:36:647,0,-20.5071,12.5239,-14.8459,Q,Q
2023-03-15 11:11:36:658,0,-20.5036,12.5463,-14.8609,Q,Q
2023-03-15 11:11:36:668,0,-20.5047,12.5655,-14.8783,Q,Q
2023-03-15 11:11:36:678,0,-20.5067,12.5806,-14.9069,Q,Q
2023-03-15 11:11:36:688,0,-20.5144,12.5971,-14.9415,Q,Q
2023-03-15 11:11:36:698,0,-20.521,12.6096,-14.9831,Q,Q
2023-03-15 11:11:36:708,0,-20.5209,12.6258,-15.0195,Q,Q
2023-03-15 11:11:36:718,0,-20.5174,12.6433,-15.0643,Q,Q
2023-03-15 11:11:36:728,0,-20.5089,12.6652,-15.1127,Q,Q
2023-03-15 11:11:36:738,0,-20.4966,12.7081,-15.1613,Q,Q
2023-03-15 11:11:36:748,0,-20.4774,12.7715,-15.2071,Q,Q
2023-03-15 11:11:36:758,0,-20.4492,12.8333,-15.2497,Q,Q
2023-03-15 11:11:36:768,0,-20.4347,12.8742,-15.3022,Q,Q
2023-03-15 11:11:36:778,0,-20.441,12.9055,-15.3651,Q,Q
2023-03-15 11:11:36:788,0,-20.4624,12.9327,-15.4327,Q,Q
2023-03-15 11:11:36:798,0,-20.4828,12.959,-15.5036,Q,Q
2023-03-15 11:11:36:808,0,-20.4922,12.9977,-15.5697,Q,Q
2023-03-15 11:11:36:818,0,-20.4791,13.0296,-15.6284,Q,Q
2023-03-15 11:11:36:828,0,-20.4508,13.0644,-15.6746,Q,Q
2023-03-15 11:11:36:837,0,-20.4253,13.0966,-15.7189,Q,Q
2023-03-15 11:11:36:848,0,-20.4136,13.1281,-15.7716,Q,Q
2023-03-15 11:11:36:858,0,-20.4197,13.1625,-15.839,Q,Q
2023-03-15 11:11:36:868,0,-20.4302,13.2057,-15.9047,Q,Q
2023-03-15 11:11:36:878,0,-20.4536,13.2447,-15.9862,Q,Q
2023-03-15 11:11:36:887,0,-20.4847,13.2978,-16.0831,Q,Q
2023-03-15 11:11:36:897,0,-20.5176,13.3835,-16.1951,Q,Q
2023-03-15 11:11:36:907,0,-20.555,13.4672,-16.3173,Q,Q
2023-03-15 11:11:36:917,0,-20.5943,13.5299,-16.436,Q,Q
2023-03-15 11:11:36:927,0,-20.6359,13.5746,-16.5473,Q,Q
2023-03-15 11:11:36:937,0,-20.683,13.6014,-16.6651,Q,Q
2023-03-15 11:11:36:947,0,-20.7329,13.6253,-16.7869,Q,Q
2023-03-15 11:11:36:957,0,-20.7669,13.638,-16.907,Q,Q
2023-03-15 11:11:36:967,0,-20.7967,13.6395,-17.0225,Q,Q
2023-03-15 11:11:36:977,0,-20.8145,13.6366,-17.1263,Q,Q
2023-03-15 11:11:36:987,0,-20.8344,13.6254,-17.2169,Q,Q
2023-03-15 11:11:36:997,0,-20.8404,13.6094,-17.2731,Q,Q
2023-03-15 11:11:37:7,0,-20.8304,13.6063,-17.2984,Q,Q
2023-03-15 11:11:37:17,0,-20.8067,13.6167,-17.2892,Q,Q
2023-03-15 11:11:37:27,0,-20.7809,13.6368,-17.2549,Q,Q
2023-03-15 11:11:37:37,0,-20.7501,13.6607,-17.1951,Q,Q
2023-03-15 11:11:37:47,0,-20.7153,13.6883,-17.1149,Q,Q
2023-03-15 11:11:37:57,0,-20.6675,13.7278,-17.0161,Q,Q
2023-03-15 11:11:37:67,0,-20.6085,13.7721,-16.9094,Q,Q
2023-03-15 11:11:37:77,0,-20.5448,13.8039,-16.8002,Q,Q
2023-03-15 11:11:37:87,0,-20.4833,13.8233,-16.6931,Q,Q
2023-03-15 11:11:37:97,0,-20.4355,13.8339,-16.6004,Q,Q
2023-03-15 11:11:37:107,0,-20.4057,13.8265,-16.5168,Q,Q
2023-03-15 11:11:37:117,0,-20.3919,13.796,-16.4521,Q,Q
2023-03-15 11:11:37:127,0,-20.3787,13.7622,-16.3963,Q,Q
2023-03-15 11:11:37:137,0,-20.3553,13.7169,-16.3424,Q,Q
2023-03-15 11:11:37:147,0,-20.3234,13.6535,-16.2889,Q,Q
2023-03-15 11:11:37:156,0,-20.2863,13.5866,-16.2391,Q,Q
2023-03-15 11:11:37:167,0,-20.2516,13.5048,-16.1946,Q,Q
2023-03-15 11:11:37:177,0,-20.2198,13.416,-16.1635,Q,Q
2023-03-15 11:11:37:187,0,-20.1858,13.3195,-16.1357,Q,Q
2023-03-15 11:11:37:197,0,-20.1473,13.2178,-16.1116,Q,Q
2023-03-15 11:11:37:207,0,-20.1156,13.1148,-16.0923,Q,Q
2023-03-15 11:11:37:217,0,-20.0856,13.0123,-16.0846,Q,Q
2023-03-15 11:11:37:227,0,-20.0638,12.902,-16.0884,Q,Q
2023-03-15 11:11:37:237,0,-20.0471,12.7956,-16.093,Q,Q
2023-03-15 11:11:37:247,0,-20.0335,12.685,-16.1019,Q,Q
2023-03-15 11:11:37:257,0,-20.0149,12.5741,-16.1034,Q,Q
2023-03-15 11:11:37:267,0,-19.9865,12.4624,-16.087,Q,Q
2023-03-15 11:11:37:277,0,-19.9463,12.3533,-16.0561,Q,Q
2023-03-15 11:11:37:287,0,-19.8954,12.2478,-16.0125,Q,Q
2023-03-15 11:11:37:297,0,-19.8437,12.1447,-15.9705,Q,Q
2023-03-15 11:11:37:307,0,-19.8,12.0497,-15.9357,Q,Q
2023-03-15 11:11:37:317,0,-19.7645,11.967,-15.902,Q,Q
2023-03-15 11:11:37:327,0,-19.738,11.8913,-15.8673,Q,Q
2023-03-15 11:11:37:337,0,-19.7133,11.8156,-15.8366,Q,Q
2023-03-15 11:11:37:347,0,-19.6804,11.738,-15.8084,Q,Q
2023-03-15 11:11:37:356,0,-19.6343,11.6597,-15.773,Q,Q
2023-03-15 11:11:37:366,0,-19.5708,11.6042,-15.7343,Q,Q
2023-03-15 11:11:37:376,0,-19.4763,11.5445,-15.6915,Q,Q
2023-03-15 11:11:37:386,0,-19.3716,11.4676,-15.6447,Q,Q
2023-03-15 11:11:37:396,0,-19.2767,11.392,-15.6036,Q,Q
2023-03-15 11:11:37:406,0,-19.1988,11.3068,-15.573,Q,Q
2023-03-15 11:11:37:416,0,-19.1248,11.2234,-15.5515,Q,Q
2023-03-15 11:11:37:426,0,-19.0579,11.1268,-15.5358,Q,Q
2023-03-15 11:11:37:436,0,-18.9897,11.0278,-15.5171,Q,Q
2023-03-15 11:11:37:446,0,-18.9143,10.9279,-15.4914,Q,Q
2023-03-15 11:11:37:456,0,-18.8314,10.8298,-15.4616,Q,Q
2023-03-15 11:11:37:466,0,-18.7424,10.7217,-15.4334,Q,Q
2023-03-15 11:11:37:476,0,-18.6541,10.6022,-15.4039,Q,Q
2023-03-15 11:11:37:486,0,-18.5721,10.4803,-15.3756,Q,Q
2023-03-15 11:11:37:496,0,-18.4978,10.3574,-15.3454,Q,Q
2023-03-15 11:11:37:506,0,-18.4243,10.2196,-15.3224,Q,Q
2023-03-15 11:11:37:516,0,-18.3545,10.0715,-15.3014,Q,Q
2023-03-15 11:11:37:526,0,-18.2858,9.91925,-15.2809,Q,Q
2023-03-15 11:11:37:536,0,-18.2177,9.7606,-15.2603,Q,Q
2023-03-15 11:11:37:546,0,-18.1448,9.59688,-15.2398,Q,Q
2023-03-15 11:11:37:556,0,-18.0667,9.44743,-15.2234,Q,Q
2023-03-15 11:11:37:566,0,-17.9704,9.3369,-15.2032,Q,Q
2023-03-15 11:11:37:576,0,-17.8506,9.22198,-15.1806,Q,Q
2023-03-15 11:11:37:586,0,-17.7187,9.08806,-15.1546,Q,Q
2023-03-15 11:11:37:596,0,-17.5893,8.93548,-15.12,Q,Q
2023-03-15 11:11:37:606,0,-17.461,8.76812,-15.0868,Q,Q
2023-03-15 11:11:37:616,0,-17.3291,8.58445,-15.0556,Q,Q
2023-03-15 11:11:37:626,0,-17.1927,8.39056,-15.031,Q,Q
2023-03-15 11:11:37:636,0,-17.0503,8.17593,-15.0113,Q,Q
2023-03-15 11:11:37:646,0,-16.8962,7.95662,-14.9992,Q,Q
2023-03-15 11:11:37:656,0,-16.727,7.71875,-14.9849,Q,Q
2023-03-15 11:11:37:666,0,-16.5358,7.45224,-14.9692,Q,Q
2023-03-15 11:11:37:676,0,-16.3229,7.16151,-14.9586,Q,Q
2023-03-15 11:11:37:686,0,-16.0937,6.85406,-14.9533,Q,Q
2023-03-15 11:11:37:696,0,-15.8537,6.52782,-14.9585,Q,Q
2023-03-15 11:11:37:706,0,-15.6041,6.1757,-14.9694,Q,Q
2023-03-15 11:11:37:716,0,-15.3499,5.8021,-14.9925,Q,Q
2023-03-15 11:11:37:726,0,-15.0897,5.4066,-15.0265,Q,Q
2023-03-15 11:11:37:736,0,-14.7935,4.99012,-15.0569,Q,Q
2023-03-15 11:11:37:746,0,-14.4506,4.53965,-15.0715,Q,Q
2023-03-15 11:11:37:756,0,-14.0408,4.05913,-15.0509,Q,Q
2023-03-15 11:11:37:766,0,-13.5809,3.55872,-14.9957,Q,Q
2023-03-15 11:11:37:776,0,-13.1044,3.04446,-14.9179,Q,Q
2023-03-15 11:11:37:786,0,-12.6352,2.5232,-14.8314,Q,Q
2023-03-15 11:11:37:796,0,-12.185,1.99194,-14.7458,Q,Q
2023-03-15 11:11:37:806,0,-11.7573,1.45229,-14.6619,Q,Q
2023-03-15 11:11:37:815,0,-11.3516,0.912937,-14.5879,Q,Q
2023-03-15 11:11:37:826,0,-10.9562,0.374258,-14.5122,Q,Q
2023-03-15 11:11:37:835,0,-10.5602,-0.172901,-14.4429,Q,Q
2023-03-15 11:11:37:846,0,-10.1618,-0.717845,-14.381,Q,Q
2023-03-15 11:11:37:855,0,-9.75838,-1.25476,-14.3232,Q,Q
2023-03-15 11:11:37:865,0,-9.35673,-1.77002,-14.2751,Q,Q
2023-03-15 11:11:37:875,0,-8.96481,-2.26184,-14.2418,Q,Q
2023-03-15 11:11:37:885,0,-8.58224,-2.74193,-14.2286,Q,Q
2023-03-15 11:11:37:895,0,-8.20607,-3.20291,-14.2296,Q,Q
2023-03-15 11:11:37:905,0,-7.8349,-3.64792,-14.2471,Q,Q
2023-03-15 11:11:37:915,0,-7.46516,-4.07989,-14.2818,Q,Q
2023-03-15 11:11:37:925,0,-7.09314,-4.49542,-14.3253,Q,Q
2023-03-15 11:11:37:935,0,-6.7234,-4.88752,-14.385,Q,Q
2023-03-15 11:11:37:945,0,-6.36099,-5.25427,-14.4628,Q,Q
2023-03-15 11:11:37:955,0,-6.01703,-5.59542,-14.5617,Q,Q
2023-03-15 11:11:37:965,0,-5.68758,-5.89962,-14.6822,Q,Q
2023-03-15 11:11:37:975,0,-5.38243,-6.17181,-14.815,Q,Q
2023-03-15 11:11:37:985,0,-5.09116,-6.41349,-14.9589,Q,Q
2023-03-15 11:11:37:995,0,-4.80769,-6.64422,-15.1033,Q,Q
2023-03-15 11:11:38:5,0,-4.53742,-6.85638,-15.2422,Q,Q
2023-03-15 11:11:38:15,0,-4.26971,-7.06401,-15.3734,Q,Q
2023-03-15 11:11:38:25,0,-4.01112,-7.2667,-15.4955,Q,Q
2023-03-15 11:11:38:35,0,-3.76432,-7.45587,-15.6132,Q,Q
2023-03-15 11:11:38:45,0,-3.52795,-7.64514,-15.7326,Q,Q
2023-03-15 11:11:38:55,0,-3.30413,-7.82425,-15.8433,Q,Q
2023-03-15 11:11:38:65,0,-3.09038,-7.98815,-15.9493,Q,Q
2023-03-15 11:11:38:75,0,-2.88848,-8.13272,-16.0574,Q,Q
2023-03-15 11:11:38:85,0,-2.69301,-8.26601,-16.1694,Q,Q
2023-03-15 11:11:38:95,0,-2.49925,-8.39392,-16.2839,Q,Q
2023-03-15 11:11:38:105,0,-2.3106,-8.50516,-16.3939,Q,Q
2023-03-15 11:11:38:115,0,-2.11725,-8.59902,-16.4903,Q,Q
2023-03-15 11:11:38:125,0,-1.90903,-8.70066,-16.57,Q,Q
2023-03-15 11:11:38:135,0,-1.68624,-8.79288,-16.6199,Q,Q
2023-03-15 11:11:38:145,0,-1.45697,-8.86198,-16.6363,Q,Q
2023-03-15 11:11:38:155,0,-1.21608,-8.91,-16.6176,Q,Q
2023-03-15 11:11:38:165,0,-0.966111,-8.94072,-16.5651,Q,Q
2023-03-15 11:11:38:175,0,-0.72437,-8.95513,-16.4695,Q,Q
2023-03-15 11:11:38:184,0,-0.495178,-8.96175,-16.3401,Q,Q
2023-03-15 11:11:38:194,0,-0.274121,-8.96797,-16.1787,Q,Q
2023-03-15 11:11:38:205,0,-0.0635589,-8.95661,-15.9963,Q,Q
2023-03-15 11:11:38:215,0,0.139778,-8.92549,-15.8052,Q,Q
2023-03-15 11:11:38:224,0,0.333736,-8.89996,-15.6151,Q,Q
2023-03-15 11:11:38:235,0,0.525381,-8.87033,-15.4377,Q,Q
2023-03-15 11:11:38:244,0,0.721423,-8.83502,-15.2808,Q,Q
2023-03-15 11:11:38:254,0,0.92479,-8.7877,-15.1417,Q,Q
2023-03-15 11:11:38:264,0,1.13587,-8.73689,-15.0228,Q,Q
2023-03-15 11:11:38:274,0,1.35201,-8.68237,-14.9285,Q,Q
2023-03-15 11:11:38:284,0,1.56672,-8.62353,-14.8481,Q,Q
2023-03-15 11:11:38:294,0,1.77952,-8.56759,-14.7832,Q,Q
2023-03-15 11:11:38:304,0,1.99298,-8.5217,-14.7353,Q,Q
2023-03-15 11:11:38:314,0,2.21283,-8.49838,-14.7004,Q,Q
2023-03-15 11:11:38:324,0,2.4392,-8.49219,-14.6869,Q,Q
2023-03-15 11:11:38:334,0,2.66261,-8.49775,-14.6893,Q,Q
2023-03-15 11:11:38:344,0,2.88287,-8.51056,-14.7034,Q,Q
2023-03-15 11:11:38:354,0,3.09792,-8.52277,-14.7256,Q,Q
2023-03-15 11:11:38:364,0,3.30401,-8.53507,-14.7522,Q,Q
2023-03-15 11:11:38:374,0,3.50892,-8.55456,-14.7873,Q,Q
2023-03-15 11:11:38:384,0,3.7021,-8.57445,-14.8305,Q,Q
2023-03-15 11:11:38:394,0,3.88592,-8.59621,-14.8817,Q,Q
2023-03-15 11:11:38:404,0,4.05857,-8.61519,-14.9391,Q,Q
2023-03-15 11:11:38:414,0,4.21775,-8.63288,-15.0029,Q,Q
2023-03-15 11:11:38:424,0,4.37212,-8.6433,-15.0616,Q,Q
2023-03-15 11:11:38:434,0,4.51959,-8.63674,-15.1225,Q,Q
2023-03-15 11:11:38:444,0,4.66106,-8.6123,-15.1857,Q,Q
2023-03-15 11:11:38:454,0,4.78642,-8.57823,-15.2497,Q,Q
2023-03-15 11:11:38:464,0,4.89522,-8.53355,-15.3158,Q,Q
2023-03-15 11:11:38:474,0,4.98559,-8.47703,-15.3877,Q,Q
2023-03-15 11:11:38:484,0,5.0593,-8.41438,-15.4692,Q,Q
2023-03-15 11:11:38:494,0,5.11436,-8.34886,-15.5602,Q,Q
2023-03-15 11:11:38:504,0,5.15304,-8.28308,-15.6543,Q,Q
2023-03-15 11:11:38:514,0,5.17843,-8.21499,-15.7593,Q,Q
2023-03-15 11:11:38:524,0,5.19107,-8.13232,-15.86,Q,Q
2023-03-15 11:11:38:534,0,5.19374,-8.04191,-15.9656,Q,Q
2023-03-15 11:11:38:544,0,5.18999,-7.93973,-16.0747,Q,Q
2023-03-15 11:11:38:554,0,5.18121,-7.83486,-16.1774,Q,Q
2023-03-15 11:11:38:564,0,5.16835,-7.73173,-16.2792,Q,Q
2023-03-15 11:11:38:574,0,5.16364,-7.63722,-16.3726,Q,Q
2023-03-15 11:11:38:584,0,5.16208,-7.54699,-16.4603,Q,Q
2023-03-15 11:11:38:594,0,5.1665,-7.46984,-16.5425,Q,Q
2023-03-15 11:11:38:604,0,5.17403,-7.39935,-16.621,Q,Q
2023-03-15 11:11:38:614,0,5.18678,-7.33572,-16.6939,Q,Q
2023-03-15 11:11:38:624,0,5.20783,-7.27273,-16.7657,Q,Q
2023-03-15 11:11:38:634,0,5.22436,-7.19419,-16.8273,Q,Q
2023-03-15 11:11:38:644,0,5.24542,-7.09843,-16.8863,Q,Q
2023-03-15 11:11:38:654,0,5.2653,-6.9982,-16.9394,Q,Q
2023-03-15 11:11:38:664,0,5.28424,-6.89326,-16.9821,Q,Q
2023-03-15 11:11:38:674,0,5.30781,-6.80145,-17.0185,Q,Q
2023-03-15 11:11:38:684,0,5.32824,-6.70851,-17.0423,Q,Q
2023-03-15 11:11:38:693,0,5.3501,-6.60848,-17.0651,Q,Q
2023-03-15 11:11:38:704,0,5.37075,-6.51074,-17.0815,Q,Q
2023-03-15 11:11:38:714,0,5.39575,-6.40967,-17.0911,Q,Q
2023-03-15 11:11:38:723,0,5.42532,-6.29945,-17.0949,Q,Q
2023-03-15 11:11:38:733,0,5.4542,-6.18951,-17.0916,Q,Q
2023-03-15 11:11:38:744,0,5.48568,-6.07571,-17.0832,Q,Q
2023-03-15 11:11:38:753,0,5.51564,-5.96705,-17.0592,Q,Q
2023-03-15 11:11:38:763,0,5.53037,-5.86483,-17.0303,Q,Q
2023-03-15 11:11:38:773,0,5.53669,-5.76221,-17.0013,Q,Q
2023-03-15 11:11:38:783,0,5.53981,-5.66692,-16.9697,Q,Q
2023-03-15 11:11:38:793,0,5.54545,-5.56465,-16.9369,Q,Q
2023-03-15 11:11:38:803,0,5.55851,-5.46107,-16.9062,Q,Q
2023-03-15 11:11:38:813,0,5.57624,-5.35946,-16.8666,Q,Q
2023-03-15 11:11:38:823,0,5.59254,-5.26095,-16.8246,Q,Q
2023-03-15 11:11:38:833,0,5.60801,-5.16427,-16.7766,Q,Q
2023-03-15 11:11:38:843,0,5.61685,-5.07755,-16.7195,Q,Q
2023-03-15 11:11:38:853,0,5.62333,-5.00232,-16.6557,Q,Q
2023-03-15 11:11:38:863,0,5.62823,-4.93519,-16.5873,Q,Q
2023-03-15 11:11:38:873,0,5.62569,-4.87661,-16.5156,Q,Q
2023-03-15 11:11:38:883,0,5.61641,-4.82542,-16.4434,Q,Q
2023-03-15 11:11:38:893,0,5.60209,-4.77575,-16.3705,Q,Q
2023-03-15 11:11:38:903,0,5.58399,-4.73269,-16.3017,Q,Q
2023-03-15 11:11:38:913,0,5.56869,-4.69007,-16.2273,Q,Q
2023-03-15 11:11:38:923,0,5.55842,-4.65355,-16.1588,Q,Q
2023-03-15 11:11:38:933,0,5.54727,-4.62468,-16.084,Q,Q
2023-03-15 11:11:38:943,0,5.53892,-4.60047,-16.0085,Q,Q
2023-03-15 11:11:38:953,0,5.53299,-4.58984,-15.9323,Q,Q
2023-03-15 11:11:38:963,0,5.52146,-4.58716,-15.8529,Q,Q
2023-03-15 11:11:38:973,0,5.50747,-4.59111,-15.7763,Q,Q
2023-03-15 11:11:38:983,0,5.47741,-4.60202,-15.6989,Q,Q
2023-03-15 11:11:38:993,0,5.44017,-4.61572,-15.6243,Q,Q
2023-03-15 11:11:39:3,0,5.39274,-4.63815,-15.5576,Q,Q
2023-03-15 11:11:39:13,0,5.33542,-4.66735,-15.4929,Q,Q
2023-03-15 11:11:39:23,0,5.26815,-4.6988,-15.4267,Q,Q
2023-03-15 11:11:39:33,0,5.19888,-4.73311,-15.3655,Q,Q
2023-03-15 11:11:39:43,0,5.13078,-4.77749,-15.3045,Q,Q
2023-03-15 11:11:39:53,0,5.06775,-4.82336,-15.2416,Q,Q
2023-03-15 11:11:39:63,0,5.00706,-4.87482,-15.1781,Q,Q
2023-03-15 11:11:39:73,0,4.93636,-4.9318,-15.1112,Q,Q
2023-03-15 11:11:39:83,0,4.86508,-4.99971,-15.0366,Q,Q
2023-03-15 11:11:39:93,0,4.7835,-5.08029,-14.9606,Q,Q
2023-03-15 11:11:39:103,0,4.69064,-5.16699,-14.8767,Q,Q
2023-03-15 11:11:39:113,0,4.58148,-5.24472,-14.7885,Q,Q
2023-03-15 11:11:39:123,0,4.44571,-5.31445,-14.699,Q,Q
2023-03-15 11:11:39:133,0,4.28502,-5.3718,-14.6104,Q,Q
2023-03-15 11:11:39:143,0,4.10256,-5.41666,-14.5186,Q,Q
2023-03-15 11:11:39:152,0,3.90857,-5.44584,-14.4295,Q,Q
2023-03-15 11:11:39:163,0,3.71519,-5.46324,-14.3437,Q,Q
2023-03-15 11:11:39:173,0,3.52367,-5.46293,-14.2618,Q,Q
2023-03-15 11:11:39:182,0,3.34283,-5.44604,-14.1836,Q,Q
2023-03-15 11:11:39:192,0,3.17669,-5.41417,-14.1103,Q,Q
2023-03-15 11:11:39:202,0,3.03533,-5.37564,-14.0388,Q,Q
2023-03-15 11:11:39:212,0,2.92633,-5.34033,-13.9674,Q,Q
2023-03-15 11:11:39:222,0,2.83659,-5.32155,-13.8913,Q,Q
2023-03-15 11:11:39:232,0,2.75503,-5.31103,-13.8157,Q,Q
2023-03-15 11:11:39:242,0,2.68099,-5.31193,-13.7392,Q,Q
2023-03-15 11:11:39:252,0,2.61168,-5.31379,-13.6671,Q,Q
2023-03-15 11:11:39:262,0,2.54599,-5.31343,-13.597,Q,Q
2023-03-15 11:11:39:272,0,2.4811,-5.30699,-13.5339,Q,Q
2023-03-15 11:11:39:282,0,2.42252,-5.30048,-13.4746,Q,Q
2023-03-15 11:11:39:292,0,2.3601,-5.2905,-13.4225,Q,Q
2023-03-15 11:11:39:302,0,2.30458,-5.28255,-13.3741,Q,Q
2023-03-15 11:11:39:312,0,2.24258,-5.27802,-13.3311,Q,Q
2023-03-15 11:11:39:322,0,2.17994,-5.27881,-13.2861,Q,Q
2023-03-15 11:11:39:332,0,2.11768,-5.27902,-13.2459,Q,Q
2023-03-15 11:11:39:342,0,2.04742,-5.28769,-13.2132,Q,Q
2023-03-15 11:11:39:352,0,1.96942,-5.29867,-13.1908,Q,Q
2023-03-15 11:11:39:362,0,1.88856,-5.30876,-13.1787,Q,Q
2023-03-15 11:11:39:372,0,1.80398,-5.31554,-13.1763,Q,Q
2023-03-15 11:11:39:382,0,1.71368,-5.31884,-13.1896,Q,Q
2023-03-15 11:11:39:392,0,1.61553,-5.31723,-13.226,Q,Q
2023-03-15 11:11:39:402,0,1.51381,-5.31505,-13.2925,Q,Q
2023-03-15 11:11:39:412,0,1.41308,-5.31854,-13.3974,Q,Q
2023-03-15 11:11:39:422,0,1.3069,-5.31342,-13.5428,Q,Q
2023-03-15 11:11:39:432,0,1.20087,-5.30512,-13.7365,Q,Q
2023-03-15 11:11:39:442,0,1.08837,-5.29716,-13.9819,Q,Q
2023-03-15 11:11:39:452,0,0.96786,-5.28834,-14.2784,Q,Q
2023-03-15 11:11:39:462,0,0.836869,-5.2899,-14.6376,Q,Q
2023-03-15 11:11:39:472,0,0.697368,-5.3029,-15.0648,Q,Q
2023-03-15 11:11:39:482,0,0.544186,-5.33075,-15.5644,Q,Q
2023-03-15 11:11:39:492,0,0.38031,-5.37029,-16.1389,Q,Q
2023-03-15 11:11:39:502,0,0.208186,-5.42197,-16.797,Q,Q
2023-03-15 11:11:39:512,0,0.0415281,-5.49486,-17.5447,Q,Q
2023-03-15 11:11:39:522,0,-0.118437,-5.60019,-18.374,Q,Q
2023-03-15 11:11:39:532,0,-0.273723,-5.75236,-19.2939,Q,Q
2023-03-15 11:11:39:541,0,-0.417302,-5.94457,-20.3006,Q,Q
2023-03-15 11:11:39:552,0,-0.564863,-6.15926,-21.3856,Q,Q
2023-03-15 11:11:39:562,0,-0.730137,-6.37771,-22.5484,Q,Q
2023-03-15 11:11:39:572,0,-0.92012,-6.58916,-23.7726,Q,Q
2023-03-15 11:11:39:582,0,-1.12844,-6.7936,-25.038,Q,Q
2023-03-15 11:11:39:592,0,-1.33583,-6.99968,-26.3329,Q,Q
2023-03-15 11:11:39:602,0,-1.52362,-7.22211,-27.6361,Q,Q
2023-03-15 11:11:39:612,0,-1.68672,-7.46127,-28.9375,Q,Q
2023-03-15 11:11:39:621,0,-1.82634,-7.71128,-30.2305,Q,Q
2023-03-15 11:11:39:632,0,-1.94935,-7.97021,-31.5068,Q,Q
2023-03-15 11:11:39:642,0,-2.06857,-8.23042,-32.7561,Q,Q
2023-03-15 11:11:39:651,0,-2.19216,-8.48215,-33.9727,Q,Q
2023-03-15 11:11:39:661,0,-2.31858,-8.7241,-35.1511,Q,Q
2023-03-15 11:11:39:671,0,-2.44387,-8.95961,-36.2825,Q,Q
2023-03-15 11:11:39:681,0,-2.55678,-9.17786,-37.3649,Q,Q
2023-03-15 11:11:39:691,0,-2.65713,-9.38372,-38.3825,Q,Q
2023-03-15 11:11:39:701,0,-2.74148,-9.57218,-39.3342,Q,Q
2023-03-15 11:11:39:711,0,-2.81058,-9.74433,-40.2262,Q,Q
2023-03-15 11:11:39:721,0,-2.85917,-9.89771,-41.0565,Q,Q
2023-03-15 11:11:39:731,0,-2.89233,-10.0344,-41.8271,Q,Q
2023-03-15 11:11:39:741,0,-2.90138,-10.1502,-42.5355,Q,Q
2023-03-15 11:11:39:751,0,-2.88699,-10.2339,-43.1813,Q,Q
2023-03-15 11:11:39:761,0,-2.85239,-10.3055,-43.7662,Q,Q
2023-03-15 11:11:39:771,0,-2.8096,-10.3712,-44.2856,Q,Q
2023-03-15 11:11:39:781,0,-2.76995,-10.4201,-44.7472,Q,Q
2023-03-15 11:11:39:791,0,-2.73054,-10.4551,-45.1597,Q,Q
2023-03-15 11:11:39:801,0,-2.69265,-10.4808,-45.531,Q,Q
2023-03-15 11:11:39:811,0,-2.66158,-10.4938,-45.8593,Q,Q
2023-03-15 11:11:39:821,0,-2.62253,-10.4985,-46.1504,Q,Q
2023-03-15 11:11:39:831,0,-2.56682,-10.5094,-46.4043,Q,Q
2023-03-15 11:11:39:841,0,-2.50744,-10.5298,-46.6296,Q,Q
2023-03-15 11:11:39:851,0,-2.45697,-10.5355,-46.8209,Q,Q
2023-03-15 11:11:39:861,0,-2.42485,-10.5334,-46.9907,Q,Q
2023-03-15 11:11:39:871,0,-2.41745,-10.5203,-47.1325,Q,Q
2023-03-15 11:11:39:881,0,-2.42073,-10.5038,-47.2466,Q,Q
2023-03-15 11:11:39:891,0,-2.43427,-10.4838,-47.3316,Q,Q
2023-03-15 11:11:39:901,0,-2.45295,-10.4616,-47.3993,Q,Q
2023-03-15 11:11:39:911,0,-2.47198,-10.4464,-47.4597,Q,Q
2023-03-15 11:11:39:921,0,-2.48873,-10.4415,-47.5208,Q,Q
2023-03-15 11:11:39:931,0,-2.49684,-10.4405,-47.5845,Q,Q
2023-03-15 11:11:39:941,0,-2.49486,-10.4466,-47.6505,Q,Q
2023-03-15 11:11:39:951,0,-2.48897,-10.4537,-47.7128,Q,Q
2023-03-15 11:11:39:961,0,-2.48303,-10.462,-47.7756,Q,Q
2023-03-15 11:11:39:971,0,-2.47751,-10.4694,-47.8308,Q,Q
2023-03-15 11:11:39:981,0,-2.46991,-10.4751,-47.8774,Q,Q
2023-03-15 11:11:39:991,0,-2.46083,-10.4802,-47.9177,Q,Q
2023-03-15 11:11:40:1,0,-2.44717,-10.4853,-47.95,Q,Q
2023-03-15 11:11:40:11,0,-2.42514,-10.4874,-47.9851,Q,Q
2023-03-15 11:11:40:21,0,-2.40257,-10.4862,-48.0191,Q,Q
2023-03-15 11:11:40:31,0,-2.37926,-10.4845,-48.0512,Q,Q
2023-03-15 11:11:40:41,0,-2.36102,-10.4773,-48.0811,Q,Q
2023-03-15 11:11:40:51,0,-2.34702,-10.4673,-48.108,Q,Q
2023-03-15 11:11:40:61,0,-2.33327,-10.4561,-48.1294,Q,Q
2023-03-15 11:11:40:71,0,-2.32221,-10.4415,-48.1447,Q,Q
2023-03-15 11:11:40:81,0,-2.31886,-10.4255,-48.1613,Q,Q
2023-03-15 11:11:40:90,0,-2.31993,-10.4105,-48.1824,Q,Q
2023-03-15 11:11:40:101,0,-2.32193,-10.3957,-48.2087,Q,Q
2023-03-15 11:11:40:111,0,-2.32097,-10.3882,-48.2321,Q,Q
2023-03-15 11:11:40:120,0,-2.31005,-10.3845,-48.2574,Q,Q
2023-03-15 11:11:40:130,0,-2.28861,-10.3871,-48.2829,Q,Q
2023-03-15 11:11:40:140,0,-2.27198,-10.3887,-48.311,Q,Q
2023-03-15 11:11:40:150,0,-2.26249,-10.3875,-48.3376,Q,Q
2023-03-15 11:11:40:160,0,-2.26325,-10.385,-48.3624,Q,Q
2023-03-15 11:11:40:170,0,-2.27149,-10.3817,-48.3872,Q,Q
2023-03-15 11:11:40:180,0,-2.29024,-10.3776,-48.4108,Q,Q
2023-03-15 11:11:40:190,0,-2.31003,-10.3724,-48.4378,Q,Q
2023-03-15 11:11:40:200,0,-2.33191,-10.3699,-48.466,Q,Q
2023-03-15 11:11:40:210,0,-2.35267,-10.3753,-48.5012,Q,Q
2023-03-15 11:11:40:220,0,-2.37225,-10.3769,-48.5423,Q,Q
2023-03-15 11:11:40:230,0,-2.39203,-10.3773,-48.5813,Q,Q
2023-03-15 11:11:40:240,0,-2.41374,-10.3809,-48.6183,Q,Q
2023-03-15 11:11:40:250,0,-2.43934,-10.3889,-48.6546,Q,Q
2023-03-15 11:11:40:260,0,-2.46776,-10.3936,-48.6862,Q,Q
2023-03-15 11:11:40:270,0,-2.50126,-10.3988,-48.7121,Q,Q
2023-03-15 11:11:40:280,0,-2.54261,-10.4093,-48.7397,Q,Q
2023-03-15 11:11:40:290,0,-2.58619,-10.4262,-48.7683,Q,Q
2023-03-15 11:11:40:300,0,-2.62495,-10.4473,-48.8027,Q,Q
2023-03-15 11:11:40:310,0,-2.65155,-10.4625,-48.8448,Q,Q
2023-03-15 11:11:40:320,0,-2.67128,-10.478,-48.8872,Q,Q
2023-03-15 11:11:40:330,0,-2.68885,-10.4891,-48.9332,Q,Q
2023-03-15 11:11:40:340,0,-2.71495,-10.4984,-48.9751,Q,Q
2023-03-15 11:11:40:350,0,-2.74271,-10.5103,-49.0222,Q,Q
2023-03-15 11:11:40:360,0,-2.77381,-10.5141,-49.0636,Q,Q
2023-03-15 11:11:40:370,0,-2.8071,-10.5146,-49.1059,Q,Q
2023-03-15 11:11:40:380,0,-2.83953,-10.5189,-49.1459,Q,Q
2023-03-15 11:11:40:390,0,-2.86254,-10.524,-49.1839,Q,Q
2023-03-15 11:11:40:400,0,-2.87692,-10.5307,-49.2213,Q,Q
2023-03-15 11:11:40:410,0,-2.88365,-10.5422,-49.2604,Q,Q
2023-03-15 11:11:40:420,0,-2.89798,-10.5524,-49.302,Q,Q
2023-03-15 11:11:40:430,0,-2.91418,-10.5588,-49.3475,Q,Q
2023-03-15 11:11:40:440,0,-2.93762,-10.561,-49.3866,Q,Q
2023-03-15 11:11:40:450,0,-2.95897,-10.5633,-49.4282,Q,Q
2023-03-15 11:11:40:460,0,-2.97723,-10.5629,-49.4651,Q,Q
2023-03-15 11:11:40:470,0,-2.99688,-10.557,-49.5036,Q,Q
2023-03-15 11:11:40:480,0,-3.01807,-10.5541,-49.548,Q,Q
2023-03-15 11:11:40:490,0,-3.03259,-10.5456,-49.5921,Q,Q
2023-03-15 11:11:40:500,0,-3.04524,-10.5354,-49.6366,Q,Q
2023-03-15 11:11:40:510,0,-3.06162,-10.5226,-49.6769,Q,Q
2023-03-15 11:11:40:520,0,-3.07977,-10.5043,-49.717,Q,Q
2023-03-15 11:11:40:529,0,-3.10159,-10.4858,-49.757,Q,Q
2023-03-15 11:11:40:540,0,-3.12513,-10.4659,-49.7948,Q,Q
2023-03-15 11:11:40:550,0,-3.15361,-10.4468,-49.8297,Q,Q
2023-03-15 11:11:40:559,0,-3.18113,-10.4304,-49.8544,Q,Q
2023-03-15 11:11:40:570,0,-3.21026,-10.4241,-49.8791,Q,Q
2023-03-15 11:11:40:580,0,-3.23438,-10.4134,-49.9106,Q,Q
2023-03-15 11:11:40:589,0,-3.25177,-10.3957,-49.9412,Q,Q
2023-03-15 11:11:40:600,0,-3.25282,-10.3721,-49.9739,Q,Q
2023-03-15 11:11:40:610,0,-3.2518,-10.3496,-50.0056,Q,Q
2023-03-15 11:11:40:620,0,-3.24916,-10.3249,-50.0366,Q,Q
2023-03-15 11:11:40:629,0,-3.25861,-10.3009,-50.0682,Q,Q
2023-03-15 11:11:40:640,0,-3.26516,-10.2777,-50.104,Q,Q
2023-03-15 11:11:40:649,0,-3.27166,-10.2511,-50.1353,Q,Q
2023-03-15 11:11:40:659,0,-3.27325,-10.2222,-50.1627,Q,Q
2023-03-15 11:11:40:669,0,-3.27792,-10.1934,-50.1825,Q,Q
2023-03-15 11:11:40:679,0,-3.29262,-10.1646,-50.2025,Q,Q
2023-03-15 11:11:40:689,0,-3.31164,-10.1413,-50.2244,Q,Q
2023-03-15 11:11:40:699,0,-3.33589,-10.1232,-50.2425,Q,Q
2023-03-15 11:11:40:709,0,-3.35959,-10.1032,-50.2628,Q,Q
2023-03-15 11:11:40:719,0,-3.38272,-10.084,-50.2809,Q,Q
2023-03-15 11:11:40:729,0,-3.40807,-10.0591,-50.2941,Q,Q
2023-03-15 11:11:40:739,0,-3.43589,-10.0321,-50.3105,Q,Q
2023-03-15 11:11:40:749,0,-3.46409,-10.0088,-50.324,Q,Q
2023-03-15 11:11:40:759,0,-3.49018,-9.98407,-50.3382,Q,Q
2023-03-15 11:11:40:769,0,-3.5132,-9.96235,-50.348,Q,Q
2023-03-15 11:11:40:779,0,-3.52906,-9.94777,-50.3581,Q,Q
2023-03-15 11:11:40:789,0,-3.53346,-9.93486,-50.3723,Q,Q
2023-03-15 11:11:40:799,0,-3.53751,-9.92376,-50.3875,Q,Q
2023-03-15 11:11:40:809,0,-3.54382,-9.91235,-50.4037,Q,Q
2023-03-15 11:11:40:819,0,-3.55606,-9.90073,-50.4274,Q,Q
2023-03-15 11:11:40:829,0,-3.58064,-9.88892,-50.4477,Q,Q
2023-03-15 11:11:40:839,0,-3.61653,-9.87521,-50.4686,Q,Q
2023-03-15 11:11:40:849,0,-3.66041,-9.8592,-50.4914,Q,Q
2023-03-15 11:11:40:859,0,-3.71306,-9.84674,-50.5188,Q,Q
2023-03-15 11:11:40:869,0,-3.76522,-9.83851,-50.5506,Q,Q
2023-03-15 11:11:40:879,0,-3.81295,-9.84361,-50.584,Q,Q
2023-03-15 11:11:40:889,0,-3.85588,-9.86348,-50.6246,Q,Q
2023-03-15 11:11:40:899,0,-3.90298,-9.87985,-50.665,Q,Q
2023-03-15 11:11:40:909,0,-3.95002,-9.88452,-50.7164,Q,Q
2023-03-15 11:11:40:919,0,-3.99585,-9.88317,-50.7754,Q,Q
2023-03-15 11:11:40:929,0,-4.04978,-9.87907,-50.8379,Q,Q
2023-03-15 11:11:40:939,0,-4.10169,-9.88289,-50.9027,Q,Q
2023-03-15 11:11:40:949,0,-4.14216,-9.89183,-50.9692,Q,Q
2023-03-15 11:11:40:959,0,-4.1709,-9.90469,-51.0377,Q,Q
2023-03-15 11:11:40:969,0,-4.19368,-9.92092,-51.1045,Q,Q
2023-03-15 11:11:40:979,0,-4.2006,-9.93656,-51.1678,Q,Q
2023-03-15 11:11:40:989,0,-4.1971,-9.95181,-51.2306,Q,Q
2023-03-15 11:11:40:999,0,-4.19394,-9.96203,-51.2838,Q,Q
2023-03-15 11:11:41:9,0,-4.19449,-9.97113,-51.342,Q,Q
2023-03-15 11:11:41:19,0,-4.19882,-9.97476,-51.3962,Q,Q
2023-03-15 11:11:41:29,0,-4.20042,-9.97525,-51.4487,Q,Q
2023-03-15 11:11:41:39,0,-4.19515,-9.97728,-51.4962,Q,Q
2023-03-15 11:11:41:49,0,-4.18824,-9.9768,-51.5379,Q,Q
2023-03-15 11:11:41:59,0,-4.17623,-9.97638,-51.5757,Q,Q
2023-03-15 11:11:41:68,0,-4.16842,-9.97874,-51.6121,Q,Q
2023-03-15 11:11:41:78,0,-4.16716,-9.98057,-51.6462,Q,Q
2023-03-15 11:11:41:88,0,-4.17577,-9.98314,-51.6808,Q,Q
2023-03-15 11:11:41:98,0,-4.18304,-9.98851,-51.7152,Q,Q
2023-03-15 11:11:41:108,0,-4.18545,-9.99718,-51.7489,Q,Q
2023-03-15 11:11:41:118,0,-4.1866,-10.0039,-51.7858,Q,Q
2023-03-15 11:11:41:128,0,-4.18765,-10.0077,-51.8211,Q,Q
2023-03-15 11:11:41:138,0,-4.19611,-10.0158,-51.8563,Q,Q
2023-03-15 11:11:41:148,0,-4.2049,-10.0271,-51.8879,Q,Q
2023-03-15 11:11:41:158,0,-4.21935,-10.0382,-51.9197,Q,Q
2023-03-15 11:11:41:168,0,-4.23082,-10.0508,-51.9503,Q,Q
2023-03-15 11:11:41:178,0,-4.24245,-10.0636,-51.9816,Q,Q
2023-03-15 11:11:41:188,0,-4.2536,-10.0855,-52.0154,Q,Q
2023-03-15 11:11:41:198,0,-4.26578,-10.1141,-52.0541,Q,Q
2023-03-15 11:11:41:208,0,-4.27427,-10.1314,-52.0966,Q,Q
2023-03-15 11:11:41:218,0,-4.27744,-10.1413,-52.1491,Q,Q
2023-03-15 11:11:41:228,0,-4.26405,-10.154,-52.2041,Q,Q
2023-03-15 11:11:41:238,0,-4.2406,-10.1721,-52.2604,Q,Q
2023-03-15 11:11:41:248,0,-4.20986,-10.1884,-52.3181,Q,Q
2023-03-15 11:11:41:258,0,-4.17918,-10.2046,-52.3829,Q,Q
2023-03-15 11:11:41:268,0,-4.15498,-10.2101,-52.4505,Q,Q
2023-03-15 11:11:41:278,0,-4.13567,-10.2183,-52.5178,Q,Q
2023-03-15 11:11:41:288,0,-4.11592,-10.2218,-52.5831,Q,Q
2023-03-15 11:11:41:298,0,-4.08621,-10.2313,-52.6447,Q,Q
2023-03-15 11:11:41:308,0,-4.05531,-10.2419,-52.7069,Q,Q
2023-03-15 11:11:41:318,0,-4.02121,-10.2509,-52.7706,Q,Q
2023-03-15 11:11:41:328,0,-3.99106,-10.262,-52.8263,Q,Q
2023-03-15 11:11:41:338,0,-3.95229,-10.2729,-52.8787,Q,Q
2023-03-15 11:11:41:348,0,-3.90079,-10.2867,-52.9175,Q,Q
2023-03-15 11:11:41:358,0,-3.85016,-10.2998,-52.95,Q,Q
2023-03-15 11:11:41:368,0,-3.79881,-10.3159,-52.9781,Q,Q
2023-03-15 11:11:41:378,0,-3.74904,-10.3337,-53.0044,Q,Q
2023-03-15 11:11:41:388,0,-3.69713,-10.3558,-53.0288,Q,Q
2023-03-15 11:11:41:398,0,-3.64725,-10.3818,-53.0529,Q,Q
2023-03-15 11:11:41:408,0,-3.59551,-10.4026,-53.0765,Q,Q
2023-03-15 11:11:41:417,0,-3.54594,-10.4207,-53.1041,Q,Q
2023-03-15 11:11:41:427,0,-3.50095,-10.4387,-53.1312,Q,Q
2023-03-15 11:11:41:437,0,-3.45526,-10.4552,-53.1658,Q,Q
2023-03-15 11:11:41:447,0,-3.40816,-10.4702,-53.2028,Q,Q
2023-03-15 11:11:41:457,0,-3.36566,-10.4894,-53.237,Q,Q
2023-03-15 11:11:41:467,0,-3.32401,-10.499,-53.2774,Q,Q
2023-03-15 11:11:41:477,0,-3.28112,-10.5065,-53.3206,Q,Q
2023-03-15 11:11:41:488,0,-3.24703,-10.5146,-53.3682,Q,Q
2023-03-15 11:11:41:497,0,-3.21571,-10.5179,-53.4089,Q,Q
2023-03-15 11:11:41:508,0,-3.1852,-10.5223,-53.4501,Q,Q
2023-03-15 11:11:41:517,0,-3.16286,-10.5253,-53.4925,Q,Q
2023-03-15 11:11:41:528,0,-3.14082,-10.5234,-53.5316,Q,Q
2023-03-15 11:11:41:537,0,-3.1257,-10.5244,-53.5685,Q,Q
2023-03-15 11:11:41:548,0,-3.11271,-10.527,-53.6095,Q,Q
2023-03-15 11:11:41:557,0,-3.09519,-10.5273,-53.6525,Q,Q
2023-03-15 11:11:41:567,0,-3.08463,-10.5271,-53.6915,Q,Q
2023-03-15 11:11:41:577,0,-3.07537,-10.5298,-53.7288,Q,Q
2023-03-15 11:11:41:588,0,-3.07238,-10.5296,-53.7655,Q,Q
2023-03-15 11:11:41:597,0,-3.07292,-10.5267,-53.8043,Q,Q
2023-03-15 11:11:41:607,0,-3.07401,-10.5276,-53.8441,Q,Q
2023-03-15 11:11:41:617,0,-3.07907,-10.5232,-53.884,Q,Q
2023-03-15 11:11:41:627,0,-3.08439,-10.5146,-53.9222,Q,Q
2023-03-15 11:11:41:637,0,-3.09248,-10.5037,-53.9566,Q,Q
2023-03-15 11:11:41:647,0,-3.0977,-10.4935,-53.9886,Q,Q
2023-03-15 11:11:41:657,0,-3.10254,-10.483,-54.0271,Q,Q
2023-03-15 11:11:41:667,0,-3.1047,-10.4716,-54.067,Q,Q
2023-03-15 11:11:41:677,0,-3.10396,-10.4577,-54.1026,Q,Q
2023-03-15 11:11:41:687,0,-3.10477,-10.4438,-54.1385,Q,Q
2023-03-15 11:11:41:697,0,-3.10676,-10.4302,-54.1779,Q,Q
2023-03-15 11:11:41:707,0,-3.11038,-10.4196,-54.2146,Q,Q
