Timestamp_cmd,imu_cmd,roll_delta,pitch_delta,yaw_delta
2023-03-11 22:55:27:466,0,-10.2456,0.263961,-28.2418
2023-03-11 22:55:27:474,0,-10.2689,0.257979,-28.3215
2023-03-11 22:55:27:484,0,-10.2917,0.256032,-28.4079
2023-03-11 22:55:27:495,0,-10.314,0.252652,-28.4949
2023-03-11 22:55:27:505,0,-10.3244,0.247823,-28.587
2023-03-11 22:55:27:515,0,-10.3301,0.245135,-28.6833
2023-03-11 22:55:27:525,0,-10.3296,0.239152,-28.7838
2023-03-11 22:55:27:535,0,-10.3203,0.230025,-28.878
2023-03-11 22:55:27:545,0,-10.3117,0.217377,-28.9679
2023-03-11 22:55:27:555,0,-10.2983,0.211059,-29.0488
2023-03-11 22:55:27:565,0,-10.2788,0.209359,-29.1235
2023-03-11 22:55:27:575,0,-10.2525,0.218599,-29.1964
2023-03-11 22:55:27:585,0,-10.2277,0.239622,-29.2596
2023-03-11 22:55:27:595,0,-10.2029,0.264189,-29.3151
2023-03-11 22:55:27:605,0,-10.178,0.291452,-29.3635
2023-03-11 22:55:27:615,0,-10.1516,0.317092,-29.4115
2023-03-11 22:55:27:625,0,-10.1273,0.340273,-29.466
2023-03-11 22:55:27:635,0,-10.1044,0.367791,-29.522
2023-03-11 22:55:27:645,0,-10.0844,0.400053,-29.5872
2023-03-11 22:55:27:655,0,-10.0679,0.429191,-29.6562
2023-03-11 22:55:27:665,0,-10.0531,0.458083,-29.7214
2023-03-11 22:55:27:675,0,-10.0485,0.476163,-29.7842
2023-03-11 22:55:27:685,0,-10.0485,0.49,-29.8413
2023-03-11 22:55:27:695,0,-10.0676,0.495864,-29.8917
2023-03-11 22:55:27:705,0,-10.1029,0.49977,-29.9334
2023-03-11 22:55:27:715,0,-10.1443,0.506055,-29.9771
2023-03-11 22:55:27:725,0,-10.1917,0.509723,-30.0152
2023-03-11 22:55:27:735,0,-10.2415,0.513565,-30.0378
2023-03-11 22:55:27:745,0,-10.2958,0.516203,-30.0456
2023-03-11 22:55:27:755,0,-10.3631,0.522285,-30.0436
2023-03-11 22:55:27:765,0,-10.445,0.526401,-30.0355
2023-03-11 22:55:27:775,0,-10.5274,0.531408,-30.0184
2023-03-11 22:55:27:785,0,-10.6211,0.541075,-29.9932
2023-03-11 22:55:27:795,0,-10.7129,0.551425,-29.9503
2023-03-11 22:55:27:805,0,-10.7989,0.557391,-29.8935
2023-03-11 22:55:27:815,0,-10.8707,0.548677,-29.8189
2023-03-11 22:55:27:825,0,-10.9179,0.527085,-29.7391
2023-03-11 22:55:27:834,0,-10.9381,0.504353,-29.6557
2023-03-11 22:55:27:844,0,-10.9184,0.478918,-29.5619
2023-03-11 22:55:27:854,0,-10.8704,0.455839,-29.456
2023-03-11 22:55:27:864,0,-10.8137,0.427932,-29.3377
2023-03-11 22:55:27:874,0,-10.757,0.396073,-29.2156
2023-03-11 22:55:27:884,0,-10.695,0.359694,-29.0916
2023-03-11 22:55:27:895,0,-10.6131,0.324305,-28.965
2023-03-11 22:55:27:905,0,-10.5278,0.302959,-28.8418
2023-03-11 22:55:27:915,0,-10.4432,0.289888,-28.7261
2023-03-11 22:55:27:925,0,-10.3531,0.28019,-28.6108
2023-03-11 22:55:27:935,0,-10.2582,0.273262,-28.4981
2023-03-11 22:55:27:945,0,-10.1685,0.266659,-28.3857
2023-03-11 22:55:27:955,0,-10.0801,0.261472,-28.2773
2023-03-11 22:55:27:965,0,-10.002,0.259622,-28.1666
2023-03-11 22:55:27:975,0,-9.92733,0.259989,-28.0622
2023-03-11 22:55:27:985,0,-9.86243,0.263202,-27.9615
2023-03-11 22:55:27:995,0,-9.80383,0.264399,-27.8634
2023-03-11 22:55:28:5,0,-9.74812,0.267899,-27.7646
2023-03-11 22:55:28:15,0,-9.69728,0.271713,-27.6661
2023-03-11 22:55:28:25,0,-9.65208,0.274201,-27.5672
2023-03-11 22:55:28:35,0,-9.6158,0.271915,-27.4704
2023-03-11 22:55:28:45,0,-9.5864,0.263997,-27.3794
2023-03-11 22:55:28:54,0,-9.55553,0.256466,-27.2928
2023-03-11 22:55:28:65,0,-9.52618,0.247759,-27.2169
2023-03-11 22:55:28:75,0,-9.49867,0.241242,-27.1505
2023-03-11 22:55:28:85,0,-9.47688,0.230691,-27.0907
2023-03-11 22:55:28:95,0,-9.45491,0.222582,-27.0367
2023-03-11 22:55:28:105,0,-9.43835,0.214785,-26.9917
2023-03-11 22:55:28:115,0,-9.42736,0.203529,-26.9515
2023-03-11 22:55:28:125,0,-9.41934,0.197084,-26.9228
2023-03-11 22:55:28:135,0,-9.40882,0.190975,-26.8999
2023-03-11 22:55:28:144,0,-9.39131,0.183469,-26.8791
2023-03-11 22:55:28:155,0,-9.37063,0.175787,-26.8644
2023-03-11 22:55:28:165,0,-9.34377,0.171703,-26.8539
2023-03-11 22:55:28:175,0,-9.31199,0.170186,-26.8487
2023-03-11 22:55:28:185,0,-9.27494,0.165473,-26.8462
2023-03-11 22:55:28:195,0,-9.238,0.165851,-26.8467
2023-03-11 22:55:28:205,0,-9.20198,0.173277,-26.8482
2023-03-11 22:55:28:215,0,-9.16485,0.178313,-26.8502
2023-03-11 22:55:28:225,0,-9.12704,0.182917,-26.8497
2023-03-11 22:55:28:235,0,-9.09295,0.189773,-26.8515
2023-03-11 22:55:28:245,0,-9.06016,0.199728,-26.85
2023-03-11 22:55:28:255,0,-9.02908,0.210793,-26.8485
2023-03-11 22:55:28:265,0,-8.99277,0.22441,-26.8485
2023-03-11 22:55:28:275,0,-8.95647,0.23672,-26.8453
2023-03-11 22:55:28:285,0,-8.91641,0.247016,-26.8347
2023-03-11 22:55:28:295,0,-8.88393,0.256091,-26.8227
2023-03-11 22:55:28:305,0,-8.85594,0.268458,-26.8099
2023-03-11 22:55:28:315,0,-8.834,0.275083,-26.7944
2023-03-11 22:55:28:325,0,-8.81074,0.27697,-26.7708
2023-03-11 22:55:28:335,0,-8.78537,0.276333,-26.7465
2023-03-11 22:55:28:345,0,-8.76133,0.275364,-26.7259
2023-03-11 22:55:28:355,0,-8.73706,0.271607,-26.6993
2023-03-11 22:55:28:365,0,-8.71442,0.268586,-26.6691
2023-03-11 22:55:28:374,0,-8.69336,0.27018,-26.6425
2023-03-11 22:55:28:384,0,-8.67601,0.27008,-26.6121
2023-03-11 22:55:28:395,0,-8.66017,0.27191,-26.5823
2023-03-11 22:55:28:405,0,-8.65174,0.268414,-26.5516
2023-03-11 22:55:28:414,0,-8.63911,0.268965,-26.5204
2023-03-11 22:55:28:425,0,-8.62679,0.26954,-26.4914
2023-03-11 22:55:28:435,0,-8.61089,0.269028,-26.4591
2023-03-11 22:55:28:445,0,-8.59453,0.271679,-26.4307
2023-03-11 22:55:28:455,0,-8.58044,0.276856,-26.4017
2023-03-11 22:55:28:465,0,-8.56688,0.278387,-26.3746
2023-03-11 22:55:28:475,0,-8.55449,0.28406,-26.3481
2023-03-11 22:55:28:485,0,-8.54336,0.293739,-26.3257
2023-03-11 22:55:28:495,0,-8.5373,0.305568,-26.3023
2023-03-11 22:55:28:505,0,-8.53454,0.3166,-26.2799
2023-03-11 22:55:28:515,0,-8.52947,0.326821,-26.2568
2023-03-11 22:55:28:525,0,-8.52539,0.337019,-26.2389
2023-03-11 22:55:28:535,0,-8.52212,0.351806,-26.2215
2023-03-11 22:55:28:545,0,-8.51804,0.367068,-26.2057
2023-03-11 22:55:28:555,0,-8.51382,0.380392,-26.19
2023-03-11 22:55:28:565,0,-8.50763,0.390033,-26.1725
2023-03-11 22:55:28:575,0,-8.50399,0.398553,-26.1551
2023-03-11 22:55:28:585,0,-8.49998,0.401494,-26.135
2023-03-11 22:55:28:595,0,-8.49666,0.400452,-26.1138
2023-03-11 22:55:28:605,0,-8.48929,0.397577,-26.0934
2023-03-11 22:55:28:615,0,-8.47671,0.400804,-26.0788
2023-03-11 22:55:28:625,0,-8.46337,0.407608,-26.0634
2023-03-11 22:55:28:635,0,-8.44665,0.417734,-26.0485
2023-03-11 22:55:28:645,0,-8.43073,0.434398,-26.0356
2023-03-11 22:55:28:655,0,-8.42381,0.446568,-26.0221
2023-03-11 22:55:28:665,0,-8.41986,0.462243,-26.0055
2023-03-11 22:55:28:675,0,-8.41672,0.481591,-25.9863
2023-03-11 22:55:28:685,0,-8.42214,0.503932,-25.9725
2023-03-11 22:55:28:695,0,-8.43096,0.519368,-25.9488
2023-03-11 22:55:28:705,0,-8.44088,0.530326,-25.9273
2023-03-11 22:55:28:715,0,-8.44846,0.542554,-25.9064
2023-03-11 22:55:28:725,0,-8.45009,0.55008,-25.885
2023-03-11 22:55:28:735,0,-8.44747,0.557449,-25.8618
2023-03-11 22:55:28:745,0,-8.43693,0.566261,-25.8401
2023-03-11 22:55:28:755,0,-8.42361,0.578431,-25.82
2023-03-11 22:55:28:765,0,-8.40351,0.58806,-25.8035
2023-03-11 22:55:28:775,0,-8.38381,0.600331,-25.7861
2023-03-11 22:55:28:785,0,-8.36656,0.615678,-25.769
2023-03-11 22:55:28:795,0,-8.34767,0.632158,-25.7497
2023-03-11 22:55:28:805,0,-8.33428,0.646706,-25.7337
2023-03-11 22:55:28:815,0,-8.32557,0.663528,-25.7199
2023-03-11 22:55:28:825,0,-8.31791,0.6792,-25.7061
2023-03-11 22:55:28:835,0,-8.31067,0.697587,-25.6935
2023-03-11 22:55:28:845,0,-8.29944,0.70845,-25.681
2023-03-11 22:55:28:855,0,-8.28902,0.720122,-25.671
2023-03-11 22:55:28:865,0,-8.28145,0.728316,-25.6613
2023-03-11 22:55:28:875,0,-8.27664,0.738956,-25.6538
2023-03-11 22:55:28:885,0,-8.27131,0.745728,-25.6434
2023-03-11 22:55:28:895,0,-8.26997,0.751718,-25.6314
2023-03-11 22:55:28:905,0,-8.26586,0.752801,-25.6192
2023-03-11 22:55:28:915,0,-8.26527,0.747671,-25.6051
2023-03-11 22:55:28:925,0,-8.26611,0.744615,-25.5927
2023-03-11 22:55:28:935,0,-8.26766,0.736145,-25.5771
2023-03-11 22:55:28:945,0,-8.27043,0.728703,-25.5621
2023-03-11 22:55:28:955,0,-8.27036,0.720368,-25.5497
2023-03-11 22:55:28:964,0,-8.2678,0.720597,-25.5377
2023-03-11 22:55:28:974,0,-8.26351,0.725844,-25.5267
2023-03-11 22:55:28:984,0,-8.25946,0.733635,-25.5194
2023-03-11 22:55:28:994,0,-8.24414,0.740133,-25.5135
2023-03-11 22:55:29:4,0,-8.22861,0.750489,-25.5032
2023-03-11 22:55:29:14,0,-8.21081,0.759319,-25.4972
2023-03-11 22:55:29:24,0,-8.18524,0.77333,-25.4916
2023-03-11 22:55:29:34,0,-8.16063,0.791428,-25.4928
2023-03-11 22:55:29:44,0,-8.13603,0.808367,-25.4935
2023-03-11 22:55:29:54,0,-8.11365,0.827943,-25.5
2023-03-11 22:55:29:64,0,-8.09724,0.850655,-25.5089
2023-03-11 22:55:29:74,0,-8.08299,0.870548,-25.5183
2023-03-11 22:55:29:84,0,-8.07434,0.895589,-25.5301
2023-03-11 22:55:29:94,0,-8.0673,0.920693,-25.5433
2023-03-11 22:55:29:104,0,-8.06867,0.949227,-25.555
2023-03-11 22:55:29:114,0,-8.07287,0.972448,-25.5634
2023-03-11 22:55:29:125,0,-8.08075,0.993989,-25.5733
2023-03-11 22:55:29:135,0,-8.08721,1.01189,-25.5791
2023-03-11 22:55:29:145,0,-8.09405,1.0169,-25.5832
2023-03-11 22:55:29:155,0,-8.0986,1.02116,-25.584
2023-03-11 22:55:29:165,0,-8.1033,1.02035,-25.5837
2023-03-11 22:55:29:175,0,-8.10092,1.01318,-25.5818
2023-03-11 22:55:29:185,0,-8.10009,1.00792,-25.5833
2023-03-11 22:55:29:195,0,-8.09633,0.996677,-25.5772
2023-03-11 22:55:29:205,0,-8.08693,0.980985,-25.5666
2023-03-11 22:55:29:215,0,-8.07498,0.959009,-25.5537
2023-03-11 22:55:29:225,0,-8.06059,0.936011,-25.5418
2023-03-11 22:55:29:235,0,-8.04515,0.915915,-25.5302
2023-03-11 22:55:29:245,0,-8.02689,0.899187,-25.5219
2023-03-11 22:55:29:255,0,-8.00867,0.88603,-25.5112
2023-03-11 22:55:29:265,0,-7.99036,0.879985,-25.5023
2023-03-11 22:55:29:275,0,-7.97747,0.872199,-25.4866
2023-03-11 22:55:29:285,0,-7.96996,0.866182,-25.4667
2023-03-11 22:55:29:295,0,-7.95914,0.858773,-25.4458
2023-03-11 22:55:29:305,0,-7.94861,0.857416,-25.4151
2023-03-11 22:55:29:315,0,-7.93769,0.864209,-25.3815
2023-03-11 22:55:29:325,0,-7.92668,0.871566,-25.3417
2023-03-11 22:55:29:335,0,-7.91589,0.878956,-25.2941
2023-03-11 22:55:29:345,0,-7.907,0.891221,-25.2415
2023-03-11 22:55:29:355,0,-7.90185,0.905653,-25.1801
2023-03-11 22:55:29:365,0,-7.90028,0.924287,-25.1193
2023-03-11 22:55:29:375,0,-7.90067,0.949427,-25.0536
2023-03-11 22:55:29:385,0,-7.90454,0.981373,-24.9791
2023-03-11 22:55:29:395,0,-7.90466,1.01745,-24.8908
2023-03-11 22:55:29:405,0,-7.90606,1.06091,-24.7867
2023-03-11 22:55:29:415,0,-7.90549,1.10925,-24.6695
2023-03-11 22:55:29:425,0,-7.90967,1.15931,-24.5407
2023-03-11 22:55:29:435,0,-7.91045,1.20304,-24.4005
2023-03-11 22:55:29:445,0,-7.90986,1.24436,-24.2512
2023-03-11 22:55:29:455,0,-7.90673,1.27874,-24.0915
2023-03-11 22:55:29:465,0,-7.89629,1.31552,-23.9299
2023-03-11 22:55:29:475,0,-7.87912,1.34269,-23.7723
2023-03-11 22:55:29:485,0,-7.85916,1.3731,-23.6251
2023-03-11 22:55:29:495,0,-7.82791,1.40146,-23.4912
2023-03-11 22:55:29:505,0,-7.78788,1.43064,-23.3669
2023-03-11 22:55:29:515,0,-7.74504,1.45712,-23.2542
2023-03-11 22:55:29:525,0,-7.70545,1.48227,-23.1526
2023-03-11 22:55:29:535,0,-7.66742,1.50304,-23.0637
2023-03-11 22:55:29:545,0,-7.64439,1.52102,-22.9865
2023-03-11 22:55:29:555,0,-7.6271,1.53087,-22.9179
2023-03-11 22:55:29:565,0,-7.61762,1.535,-22.8587
2023-03-11 22:55:29:575,0,-7.61237,1.53873,-22.8121
2023-03-11 22:55:29:585,0,-7.61424,1.53438,-22.77
2023-03-11 22:55:29:595,0,-7.62685,1.52406,-22.7321
2023-03-11 22:55:29:605,0,-7.64095,1.50262,-22.6982
2023-03-11 22:55:29:615,0,-7.65994,1.47304,-22.6675
2023-03-11 22:55:29:625,0,-7.67738,1.43445,-22.6372
2023-03-11 22:55:29:635,0,-7.69314,1.38965,-22.6072
2023-03-11 22:55:29:645,0,-7.70114,1.3436,-22.5815
2023-03-11 22:55:29:655,0,-7.69872,1.29622,-22.5597
2023-03-11 22:55:29:665,0,-7.68392,1.24824,-22.5394
2023-03-11 22:55:29:675,0,-7.66583,1.19947,-22.5213
2023-03-11 22:55:29:685,0,-7.63623,1.15594,-22.5106
2023-03-11 22:55:29:695,0,-7.60091,1.11263,-22.5028
2023-03-11 22:55:29:705,0,-7.5541,1.07751,-22.4956
2023-03-11 22:55:29:715,0,-7.4969,1.04872,-22.4884
2023-03-11 22:55:29:725,0,-7.43954,1.02654,-22.4886
2023-03-11 22:55:29:735,0,-7.37761,1.01355,-22.4917
2023-03-11 22:55:29:745,0,-7.32077,1.01584,-22.496
2023-03-11 22:55:29:755,0,-7.27513,1.02846,-22.5002
2023-03-11 22:55:29:765,0,-7.24066,1.05237,-22.5074
2023-03-11 22:55:29:775,0,-7.22035,1.08819,-22.512
2023-03-11 22:55:29:785,0,-7.21169,1.13032,-22.5166
2023-03-11 22:55:29:795,0,-7.21976,1.1795,-22.5218
2023-03-11 22:55:29:805,0,-7.23964,1.23896,-22.5258
2023-03-11 22:55:29:815,0,-7.26804,1.30095,-22.5314
2023-03-11 22:55:29:825,0,-7.30912,1.36501,-22.539
2023-03-11 22:55:29:835,0,-7.35829,1.42932,-22.5523
2023-03-11 22:55:29:845,0,-7.419,1.48934,-22.5706
2023-03-11 22:55:29:855,0,-7.48164,1.53951,-22.5923
2023-03-11 22:55:29:865,0,-7.55441,1.57495,-22.6153
2023-03-11 22:55:29:875,0,-7.62997,1.59667,-22.6415
2023-03-11 22:55:29:885,0,-7.70439,1.60913,-22.6749
2023-03-11 22:55:29:895,0,-7.77599,1.61528,-22.715
2023-03-11 22:55:29:905,0,-7.84461,1.60958,-22.7561
2023-03-11 22:55:29:915,0,-7.90535,1.59907,-22.7962
2023-03-11 22:55:29:925,0,-7.95925,1.58834,-22.8368
2023-03-11 22:55:29:935,0,-8.00396,1.57724,-22.8731
2023-03-11 22:55:29:945,0,-8.04131,1.56295,-22.9079
2023-03-11 22:55:29:955,0,-8.06905,1.55018,-22.9381
2023-03-11 22:55:29:965,0,-8.08649,1.54082,-22.9652
2023-03-11 22:55:29:975,0,-8.10244,1.5384,-22.9935
2023-03-11 22:55:29:985,0,-8.10861,1.5394,-23.0153
2023-03-11 22:55:29:995,0,-8.10985,1.54755,-23.0348
2023-03-11 22:55:30:5,0,-8.10423,1.55856,-23.0449
2023-03-11 22:55:30:15,0,-8.08887,1.57319,-23.0587
2023-03-11 22:55:30:25,0,-8.06531,1.58237,-23.0659
2023-03-11 22:55:30:35,0,-8.04367,1.5891,-23.0685
2023-03-11 22:55:30:45,0,-8.02104,1.59385,-23.0727
2023-03-11 22:55:30:55,0,-8.00179,1.59691,-23.076
2023-03-11 22:55:30:65,0,-7.98001,1.60071,-23.0828
2023-03-11 22:55:30:75,0,-7.95704,1.60594,-23.096
2023-03-11 22:55:30:85,0,-7.92442,1.60712,-23.1098
2023-03-11 22:55:30:95,0,-7.88506,1.60087,-23.1241
2023-03-11 22:55:30:105,0,-7.84647,1.59307,-23.1428
2023-03-11 22:55:30:115,0,-7.80462,1.5856,-23.1651
2023-03-11 22:55:30:125,0,-7.76176,1.57505,-23.1822
2023-03-11 22:55:30:135,0,-7.72657,1.56994,-23.1981
2023-03-11 22:55:30:145,0,-7.69901,1.56246,-23.2097
2023-03-11 22:55:30:155,0,-7.67927,1.55538,-23.2212
2023-03-11 22:55:30:165,0,-7.66574,1.54744,-23.23
2023-03-11 22:55:30:175,0,-7.65622,1.54084,-23.239
2023-03-11 22:55:30:185,0,-7.64711,1.53482,-23.2472
2023-03-11 22:55:30:195,0,-7.64187,1.52949,-23.2591
2023-03-11 22:55:30:205,0,-7.64161,1.52127,-23.2693
2023-03-11 22:55:30:215,0,-7.64115,1.50658,-23.2796
2023-03-11 22:55:30:225,0,-7.64233,1.49014,-23.2926
2023-03-11 22:55:30:235,0,-7.64333,1.47615,-23.3119
2023-03-11 22:55:30:245,0,-7.64269,1.46553,-23.3387
2023-03-11 22:55:30:255,0,-7.6323,1.45936,-23.3657
2023-03-11 22:55:30:265,0,-7.61856,1.45281,-23.3879
2023-03-11 22:55:30:275,0,-7.60198,1.44493,-23.4064
2023-03-11 22:55:30:285,0,-7.58442,1.43791,-23.417
2023-03-11 22:55:30:295,0,-7.57682,1.4338,-23.4253
2023-03-11 22:55:30:305,0,-7.5734,1.43349,-23.4293
2023-03-11 22:55:30:315,0,-7.56734,1.43085,-23.4301
2023-03-11 22:55:30:325,0,-7.55656,1.43205,-23.4241
2023-03-11 22:55:30:335,0,-7.54,1.43741,-23.4122
2023-03-11 22:55:30:345,0,-7.52237,1.44158,-23.3981
2023-03-11 22:55:30:355,0,-7.49906,1.44901,-23.3909
2023-03-11 22:55:30:365,0,-7.47516,1.45998,-23.3805
2023-03-11 22:55:30:375,0,-7.44759,1.46942,-23.3735
2023-03-11 22:55:30:385,0,-7.42062,1.47691,-23.3683
2023-03-11 22:55:30:395,0,-7.39386,1.48501,-23.3722
2023-03-11 22:55:30:405,0,-7.37001,1.48876,-23.376
2023-03-11 22:55:30:415,0,-7.3451,1.49195,-23.3872
2023-03-11 22:55:30:425,0,-7.31987,1.49849,-23.4046
2023-03-11 22:55:30:435,0,-7.29202,1.5049,-23.4326
2023-03-11 22:55:30:445,0,-7.2585,1.51381,-23.4659
2023-03-11 22:55:30:455,0,-7.22694,1.5216,-23.5052
2023-03-11 22:55:30:465,0,-7.19818,1.52686,-23.5473
2023-03-11 22:55:30:475,0,-7.17548,1.53302,-23.5952
2023-03-11 22:55:30:485,0,-7.15371,1.53843,-23.6482
2023-03-11 22:55:30:495,0,-7.14064,1.54067,-23.7058
2023-03-11 22:55:30:505,0,-7.13651,1.54443,-23.7679
2023-03-11 22:55:30:515,0,-7.14246,1.5448,-23.8259
2023-03-11 22:55:30:525,0,-7.16233,1.54121,-23.8719
2023-03-11 22:55:30:535,0,-7.19342,1.52692,-23.903
2023-03-11 22:55:30:545,0,-7.23311,1.509,-23.9213
2023-03-11 22:55:30:554,0,-7.27795,1.49205,-23.9333
2023-03-11 22:55:30:564,0,-7.32391,1.47869,-23.9391
2023-03-11 22:55:30:574,0,-7.36532,1.46285,-23.9421
2023-03-11 22:55:30:585,0,-7.38997,1.44249,-23.9368
2023-03-11 22:55:30:595,0,-7.39449,1.42394,-23.9333
2023-03-11 22:55:30:604,0,-7.37571,1.41067,-23.9388
2023-03-11 22:55:30:614,0,-7.34779,1.40685,-23.9503
2023-03-11 22:55:30:625,0,-7.31978,1.41397,-23.9635
2023-03-11 22:55:30:635,0,-7.30449,1.42133,-23.9785
2023-03-11 22:55:30:645,0,-7.30298,1.41965,-23.9885
2023-03-11 22:55:30:655,0,-7.3104,1.4094,-24.0057
2023-03-11 22:55:30:665,0,-7.32002,1.37921,-24.0168
2023-03-11 22:55:30:675,0,-7.32653,1.33817,-24.029
2023-03-11 22:55:30:685,0,-7.32976,1.29543,-24.0485
2023-03-11 22:55:30:695,0,-7.32775,1.26104,-24.0824
2023-03-11 22:55:30:705,0,-7.3271,1.23773,-24.122
2023-03-11 22:55:30:715,0,-7.33019,1.2218,-24.1593
2023-03-11 22:55:30:725,0,-7.33722,1.20602,-24.1964
2023-03-11 22:55:30:735,0,-7.34876,1.17662,-24.2175
2023-03-11 22:55:30:745,0,-7.36522,1.13402,-24.2224
2023-03-11 22:55:30:755,0,-7.38286,1.07133,-24.2185
2023-03-11 22:55:30:765,0,-7.39605,0.997956,-24.2173
2023-03-11 22:55:30:775,0,-7.40214,0.919337,-24.216
2023-03-11 22:55:30:785,0,-7.39056,0.839427,-24.2143
2023-03-11 22:55:30:795,0,-7.37442,0.75563,-24.2007
2023-03-11 22:55:30:805,0,-7.36483,0.668011,-24.1705
2023-03-11 22:55:30:815,0,-7.37491,0.576277,-24.1263
2023-03-11 22:55:30:825,0,-7.40227,0.474312,-24.0752
2023-03-11 22:55:30:835,0,-7.43988,0.369929,-24.0199
2023-03-11 22:55:30:845,0,-7.47629,0.266914,-23.9626
2023-03-11 22:55:30:855,0,-7.50654,0.17154,-23.9015
2023-03-11 22:55:30:865,0,-7.52962,0.0788882,-23.8362
2023-03-11 22:55:30:875,0,-7.55033,-0.00999032,-23.7718
2023-03-11 22:55:30:885,0,-7.56913,-0.0869893,-23.6973
2023-03-11 22:55:30:895,0,-7.58168,-0.157381,-23.6222
2023-03-11 22:55:30:905,0,-7.59452,-0.217028,-23.5452
2023-03-11 22:55:30:915,0,-7.60261,-0.278424,-23.465
2023-03-11 22:55:30:925,0,-7.6033,-0.332027,-23.385
2023-03-11 22:55:30:935,0,-7.5964,-0.377517,-23.3124
2023-03-11 22:55:30:945,0,-7.58566,-0.412802,-23.2407
2023-03-11 22:55:30:955,0,-7.56894,-0.439995,-23.168
2023-03-11 22:55:30:965,0,-7.54437,-0.459743,-23.0962
2023-03-11 22:55:30:975,0,-7.50989,-0.484886,-23.0166
2023-03-11 22:55:30:985,0,-7.47246,-0.514487,-22.9316
2023-03-11 22:55:30:995,0,-7.43591,-0.550607,-22.8485
2023-03-11 22:55:31:5,0,-7.39416,-0.587221,-22.7739
2023-03-11 22:55:31:15,0,-7.35042,-0.618949,-22.7106
2023-03-11 22:55:31:25,0,-7.30574,-0.643245,-22.6592
2023-03-11 22:55:31:35,0,-7.26149,-0.660441,-22.6227
2023-03-11 22:55:31:45,0,-7.21282,-0.673249,-22.5966
2023-03-11 22:55:31:55,0,-7.1618,-0.690799,-22.5807
2023-03-11 22:55:31:65,0,-7.10541,-0.714492,-22.5814
2023-03-11 22:55:31:75,0,-7.04396,-0.745306,-22.6074
2023-03-11 22:55:31:85,0,-6.97281,-0.782087,-22.6642
2023-03-11 22:55:31:95,0,-6.88616,-0.80346,-22.7501
2023-03-11 22:55:31:105,0,-6.78361,-0.80792,-22.8626
2023-03-11 22:55:31:115,0,-6.66685,-0.795081,-23.0026
2023-03-11 22:55:31:125,0,-6.53342,-0.765797,-23.1607
2023-03-11 22:55:31:135,0,-6.39449,-0.742688,-23.3472
2023-03-11 22:55:31:145,0,-6.26856,-0.736583,-23.5567
2023-03-11 22:55:31:155,0,-6.16512,-0.745114,-23.7916
2023-03-11 22:55:31:165,0,-6.07205,-0.747931,-24.0579
2023-03-11 22:55:31:175,0,-5.97539,-0.751832,-24.3466
2023-03-11 22:55:31:185,0,-5.87583,-0.77517,-24.6401
2023-03-11 22:55:31:195,0,-5.78688,-0.788963,-24.9311
2023-03-11 22:55:31:205,0,-5.70875,-0.791372,-25.2226
2023-03-11 22:55:31:215,0,-5.64246,-0.795577,-25.5171
2023-03-11 22:55:31:225,0,-5.61409,-0.809323,-25.8107
2023-03-11 22:55:31:235,0,-5.63063,-0.832274,-26.0972
2023-03-11 22:55:31:245,0,-5.67523,-0.838394,-26.3764
2023-03-11 22:55:31:255,0,-5.71378,-0.830669,-26.6387
2023-03-11 22:55:31:265,0,-5.73834,-0.835115,-26.8741
2023-03-11 22:55:31:275,0,-5.76305,-0.862289,-27.0838
2023-03-11 22:55:31:285,0,-5.79611,-0.896492,-27.2696
2023-03-11 22:55:31:295,0,-5.82245,-0.914806,-27.4472
2023-03-11 22:55:31:305,0,-5.82117,-0.927434,-27.6117
2023-03-11 22:55:31:315,0,-5.79145,-0.932832,-27.7579
2023-03-11 22:55:31:325,0,-5.76446,-0.934734,-27.8856
2023-03-11 22:55:31:335,0,-5.73327,-0.923008,-28.0017
2023-03-11 22:55:31:345,0,-5.68537,-0.900966,-28.1079
2023-03-11 22:55:31:355,0,-5.61799,-0.875565,-28.1999
2023-03-11 22:55:31:365,0,-5.54838,-0.84492,-28.2801
2023-03-11 22:55:31:375,0,-5.46966,-0.810125,-28.3478
2023-03-11 22:55:31:385,0,-5.38324,-0.781822,-28.4102
2023-03-11 22:55:31:395,0,-5.29662,-0.753084,-28.4737
2023-03-11 22:55:31:405,0,-5.20249,-0.729946,-28.5367
2023-03-11 22:55:31:415,0,-5.10914,-0.699103,-28.5914
2023-03-11 22:55:31:425,0,-5.02473,-0.677299,-28.6416
2023-03-11 22:55:31:435,0,-4.95852,-0.670263,-28.6849
2023-03-11 22:55:31:445,0,-4.90399,-0.672378,-28.7199
2023-03-11 22:55:31:455,0,-4.86953,-0.685751,-28.748
2023-03-11 22:55:31:465,0,-4.84778,-0.699102,-28.7723
2023-03-11 22:55:31:475,0,-4.83922,-0.711544,-28.7946
2023-03-11 22:55:31:485,0,-4.83882,-0.721312,-28.8249
2023-03-11 22:55:31:495,0,-4.84358,-0.721347,-28.8643
2023-03-11 22:55:31:505,0,-4.84881,-0.71992,-28.9032
2023-03-11 22:55:31:515,0,-4.8618,-0.713112,-28.9413
2023-03-11 22:55:31:525,0,-4.88436,-0.706807,-28.9802
2023-03-11 22:55:31:535,0,-4.91961,-0.70012,-29.0169
2023-03-11 22:55:31:545,0,-4.95504,-0.699344,-29.056
2023-03-11 22:55:31:555,0,-4.99267,-0.702944,-29.0953
2023-03-11 22:55:31:565,0,-5.02454,-0.712529,-29.1398
2023-03-11 22:55:31:575,0,-5.05217,-0.721897,-29.1891
2023-03-11 22:55:31:585,0,-5.07458,-0.725152,-29.2446
2023-03-11 22:55:31:595,0,-5.0923,-0.728188,-29.3009
2023-03-11 22:55:31:605,0,-5.10026,-0.730383,-29.3551
2023-03-11 22:55:31:615,0,-5.10452,-0.733486,-29.4023
2023-03-11 22:55:31:625,0,-5.10831,-0.738627,-29.4437
2023-03-11 22:55:31:635,0,-5.11264,-0.74825,-29.4834
2023-03-11 22:55:31:645,0,-5.12219,-0.758104,-29.5192
2023-03-11 22:55:31:655,0,-5.13661,-0.759371,-29.5531
2023-03-11 22:55:31:665,0,-5.1564,-0.752801,-29.5875
2023-03-11 22:55:31:675,0,-5.17169,-0.740171,-29.6135
2023-03-11 22:55:31:685,0,-5.18665,-0.7317,-29.63
2023-03-11 22:55:31:695,0,-5.20019,-0.720588,-29.632
2023-03-11 22:55:31:705,0,-5.21098,-0.712681,-29.6217
2023-03-11 22:55:31:715,0,-5.22465,-0.706751,-29.604
2023-03-11 22:55:31:725,0,-5.24596,-0.696911,-29.5832
2023-03-11 22:55:31:735,0,-5.27584,-0.67737,-29.5557
2023-03-11 22:55:31:745,0,-5.30465,-0.649872,-29.5302
2023-03-11 22:55:31:755,0,-5.33346,-0.608279,-29.5043
2023-03-11 22:55:31:765,0,-5.35155,-0.563607,-29.4777
2023-03-11 22:55:31:775,0,-5.36148,-0.519017,-29.4502
2023-03-11 22:55:31:785,0,-5.35448,-0.477575,-29.4148
2023-03-11 22:55:31:795,0,-5.34461,-0.447074,-29.3752
2023-03-11 22:55:31:805,0,-5.33435,-0.42621,-29.3335
2023-03-11 22:55:31:815,0,-5.31747,-0.410213,-29.2977
2023-03-11 22:55:31:825,0,-5.30814,-0.395531,-29.2724
2023-03-11 22:55:31:835,0,-5.29646,-0.38096,-29.2483
2023-03-11 22:55:31:845,0,-5.28395,-0.370679,-29.2221
2023-03-11 22:55:31:855,0,-5.27565,-0.364052,-29.2019
2023-03-11 22:55:31:865,0,-5.27825,-0.355197,-29.1873
2023-03-11 22:55:31:875,0,-5.28551,-0.341498,-29.1759
2023-03-11 22:55:31:885,0,-5.29648,-0.315613,-29.1764
2023-03-11 22:55:31:895,0,-5.30752,-0.284671,-29.1842
2023-03-11 22:55:31:905,0,-5.32562,-0.253362,-29.2018
2023-03-11 22:55:31:915,0,-5.34204,-0.218006,-29.2147
2023-03-11 22:55:31:925,0,-5.35542,-0.186967,-29.2252
2023-03-11 22:55:31:935,0,-5.36952,-0.158044,-29.2325
2023-03-11 22:55:31:945,0,-5.38354,-0.135996,-29.2356
2023-03-11 22:55:31:955,0,-5.3926,-0.112283,-29.2352
2023-03-11 22:55:31:965,0,-5.40101,-0.0910082,-29.2293
2023-03-11 22:55:31:975,0,-5.40747,-0.0691294,-29.2219
2023-03-11 22:55:31:985,0,-5.40511,-0.0479078,-29.2148
2023-03-11 22:55:31:995,0,-5.40058,-0.0256659,-29.1994
2023-03-11 22:55:32:5,0,-5.4001,-0.008423,-29.1746
2023-03-11 22:55:32:15,0,-5.402,0.00424005,-29.1396
2023-03-11 22:55:32:25,0,-5.40938,0.0148115,-29.0962
2023-03-11 22:55:32:35,0,-5.43385,0.0213654,-29.0494
2023-03-11 22:55:32:45,0,-5.46789,0.0284111,-29.0111
2023-03-11 22:55:32:55,0,-5.49723,0.0372386,-28.9806
2023-03-11 22:55:32:65,0,-5.50874,0.0476428,-28.956
2023-03-11 22:55:32:75,0,-5.49478,0.0607826,-28.934
2023-03-11 22:55:32:85,0,-5.45572,0.0806704,-28.9123
2023-03-11 22:55:32:95,0,-5.40383,0.101534,-28.8894
2023-03-11 22:55:32:105,0,-5.34305,0.122318,-28.86
2023-03-11 22:55:32:115,0,-5.27744,0.143503,-28.8288
2023-03-11 22:55:32:125,0,-5.20839,0.161706,-28.7831
2023-03-11 22:55:32:135,0,-5.14023,0.17902,-28.7306
2023-03-11 22:55:32:145,0,-5.07411,0.196027,-28.6599
2023-03-11 22:55:32:155,0,-5.02236,0.206948,-28.5763
2023-03-11 22:55:32:165,0,-4.9813,0.211791,-28.4772
2023-03-11 22:55:32:175,0,-4.94865,0.21216,-28.3641
2023-03-11 22:55:32:185,0,-4.91639,0.207276,-28.2365
2023-03-11 22:55:32:195,0,-4.89029,0.201797,-28.0996
2023-03-11 22:55:32:205,0,-4.87026,0.200004,-27.9504
2023-03-11 22:55:32:215,0,-4.86348,0.200319,-27.7966
2023-03-11 22:55:32:225,0,-4.86773,0.209526,-27.6338
2023-03-11 22:55:32:235,0,-4.88423,0.224229,-27.4662
2023-03-11 22:55:32:245,0,-4.91759,0.247065,-27.2959
2023-03-11 22:55:32:255,0,-4.96029,0.274914,-27.1298
2023-03-11 22:55:32:265,0,-5.00651,0.309292,-26.9677
2023-03-11 22:55:32:275,0,-5.04703,0.342575,-26.8098
2023-03-11 22:55:32:285,0,-5.06738,0.372493,-26.6578
2023-03-11 22:55:32:295,0,-5.06723,0.398578,-26.5053
2023-03-11 22:55:32:305,0,-5.04137,0.423079,-26.3553
2023-03-11 22:55:32:315,0,-5.00089,0.44926,-26.2126
2023-03-11 22:55:32:325,0,-4.96093,0.474604,-26.0752
2023-03-11 22:55:32:335,0,-4.92417,0.506074,-25.9508
2023-03-11 22:55:32:344,0,-4.89507,0.536647,-25.8391
2023-03-11 22:55:32:355,0,-4.87397,0.563019,-25.7403
2023-03-11 22:55:32:364,0,-4.85469,0.589311,-25.6549
2023-03-11 22:55:32:375,0,-4.83354,0.614504,-25.5789
2023-03-11 22:55:32:385,0,-4.81732,0.636673,-25.5174
2023-03-11 22:55:32:395,0,-4.80199,0.648487,-25.4696
2023-03-11 22:55:32:404,0,-4.78693,0.649406,-25.4348
2023-03-11 22:55:32:415,0,-4.7739,0.648192,-25.4157
2023-03-11 22:55:32:425,0,-4.77337,0.64298,-25.409
2023-03-11 22:55:32:435,0,-4.79762,0.630609,-25.4182
2023-03-11 22:55:32:445,0,-4.84342,0.616041,-25.4451
2023-03-11 22:55:32:455,0,-4.90391,0.59905,-25.4909
2023-03-11 22:55:32:465,0,-4.97586,0.580604,-25.5461
2023-03-11 22:55:32:475,0,-5.0496,0.563136,-25.6154
2023-03-11 22:55:32:485,0,-5.1267,0.546406,-25.6918
2023-03-11 22:55:32:495,0,-5.20874,0.525233,-25.7799
2023-03-11 22:55:32:505,0,-5.29009,0.504158,-25.8788
2023-03-11 22:55:32:515,0,-5.37312,0.479228,-25.9892
2023-03-11 22:55:32:525,0,-5.4553,0.455643,-26.1062
2023-03-11 22:55:32:535,0,-5.52741,0.425158,-26.2265
2023-03-11 22:55:32:545,0,-5.59595,0.392398,-26.3515
2023-03-11 22:55:32:555,0,-5.66633,0.364082,-26.4825
2023-03-11 22:55:32:565,0,-5.74013,0.334416,-26.6179
2023-03-11 22:55:32:575,0,-5.82184,0.304272,-26.7618
2023-03-11 22:55:32:585,0,-5.9044,0.269575,-26.909
2023-03-11 22:55:32:595,0,-5.98954,0.23326,-27.0617
2023-03-11 22:55:32:605,0,-6.0692,0.187877,-27.2195
2023-03-11 22:55:32:615,0,-6.1476,0.141371,-27.3786
2023-03-11 22:55:32:625,0,-6.22126,0.0885248,-27.5434
2023-03-11 22:55:32:635,0,-6.29102,0.0319337,-27.7032
2023-03-11 22:55:32:645,0,-6.36183,-0.0343207,-27.8545
2023-03-11 22:55:32:655,0,-6.43214,-0.104141,-28.0064
2023-03-11 22:55:32:665,0,-6.5047,-0.172294,-28.1514
2023-03-11 22:55:32:675,0,-6.57013,-0.240776,-28.2886
2023-03-11 22:55:32:685,0,-6.63042,-0.308945,-28.4224
2023-03-11 22:55:32:695,0,-6.68443,-0.371504,-28.5447
2023-03-11 22:55:32:705,0,-6.73658,-0.428223,-28.6571
2023-03-11 22:55:32:715,0,-6.7899,-0.48704,-28.7566
2023-03-11 22:55:32:725,0,-6.8389,-0.540101,-28.849
2023-03-11 22:55:32:735,0,-6.88511,-0.588737,-28.9325
2023-03-11 22:55:32:745,0,-6.92432,-0.63152,-29.0042
2023-03-11 22:55:32:755,0,-6.95598,-0.67238,-29.0691
2023-03-11 22:55:32:765,0,-6.98268,-0.708906,-29.1214
2023-03-11 22:55:32:775,0,-7.0026,-0.747455,-29.1628
2023-03-11 22:55:32:785,0,-7.02033,-0.781908,-29.194
2023-03-11 22:55:32:795,0,-7.03575,-0.810928,-29.2166
2023-03-11 22:55:32:805,0,-7.04828,-0.83205,-29.2346
2023-03-11 22:55:32:815,0,-7.0532,-0.846433,-29.2464
2023-03-11 22:55:32:825,0,-7.0543,-0.85738,-29.2504
2023-03-11 22:55:32:835,0,-7.05333,-0.861858,-29.2495
2023-03-11 22:55:32:845,0,-7.0525,-0.865471,-29.2453
2023-03-11 22:55:32:855,0,-7.05331,-0.863205,-29.238
2023-03-11 22:55:32:865,0,-7.0528,-0.85963,-29.2302
2023-03-11 22:55:32:875,0,-7.05487,-0.851263,-29.2207
2023-03-11 22:55:32:885,0,-7.05599,-0.844953,-29.2053
2023-03-11 22:55:32:895,0,-7.0538,-0.840707,-29.189
2023-03-11 22:55:32:905,0,-7.04602,-0.833364,-29.1735
2023-03-11 22:55:32:915,0,-7.03238,-0.822462,-29.1631
2023-03-11 22:55:32:925,0,-7.008,-0.809459,-29.1568
2023-03-11 22:55:32:935,0,-6.97784,-0.79295,-29.1575
2023-03-11 22:55:32:945,0,-6.94859,-0.767246,-29.1661
2023-03-11 22:55:32:955,0,-6.9193,-0.733332,-29.1883
2023-03-11 22:55:32:965,0,-6.8969,-0.695626,-29.2227
2023-03-11 22:55:32:975,0,-6.88352,-0.655786,-29.2664
2023-03-11 22:55:32:985,0,-6.89307,-0.615054,-29.3172
2023-03-11 22:55:32:995,0,-6.92341,-0.580213,-29.3689
2023-03-11 22:55:33:5,0,-6.974,-0.559409,-29.4246
2023-03-11 22:55:33:15,0,-7.04475,-0.554946,-29.4755
2023-03-11 22:55:33:25,0,-7.12719,-0.567312,-29.525
2023-03-11 22:55:33:35,0,-7.22143,-0.59954,-29.5721
2023-03-11 22:55:33:45,0,-7.3098,-0.655109,-29.624
2023-03-11 22:55:33:55,0,-7.39153,-0.715804,-29.6783
2023-03-11 22:55:33:65,0,-7.46514,-0.778389,-29.7386
2023-03-11 22:55:33:75,0,-7.53015,-0.836355,-29.8099
2023-03-11 22:55:33:85,0,-7.5843,-0.880564,-29.8924
2023-03-11 22:55:33:95,0,-7.63132,-0.918456,-29.9811
2023-03-11 22:55:33:105,0,-7.67534,-0.947433,-30.0725
2023-03-11 22:55:33:115,0,-7.71613,-0.970171,-30.1637
2023-03-11 22:55:33:125,0,-7.74576,-0.992584,-30.2533
2023-03-11 22:55:33:135,0,-7.7732,-1.02046,-30.338
2023-03-11 22:55:33:145,0,-7.79614,-1.04661,-30.427
2023-03-11 22:55:33:155,0,-7.82565,-1.07261,-30.5195
2023-03-11 22:55:33:165,0,-7.85542,-1.08739,-30.6159
2023-03-11 22:55:33:175,0,-7.89372,-1.10183,-30.7127
2023-03-11 22:55:33:185,0,-7.94025,-1.11474,-30.8077
2023-03-11 22:55:33:195,0,-7.98837,-1.1247,-30.9047
2023-03-11 22:55:33:205,0,-8.03837,-1.13911,-30.9996
2023-03-11 22:55:33:215,0,-8.08546,-1.16316,-31.0923
2023-03-11 22:55:33:225,0,-8.12155,-1.19286,-31.1858
2023-03-11 22:55:33:235,0,-8.15377,-1.22857,-31.2803
2023-03-11 22:55:33:245,0,-8.17929,-1.26284,-31.3812
2023-03-11 22:55:33:255,0,-8.20066,-1.29681,-31.4911
2023-03-11 22:55:33:265,0,-8.21998,-1.332,-31.602
2023-03-11 22:55:33:275,0,-8.24146,-1.36791,-31.7169
2023-03-11 22:55:33:285,0,-8.27248,-1.40544,-31.8346
2023-03-11 22:55:33:295,0,-8.30731,-1.44622,-31.9505
2023-03-11 22:55:33:305,0,-8.34093,-1.48893,-32.0671
2023-03-11 22:55:33:315,0,-8.37254,-1.53043,-32.1821
2023-03-11 22:55:33:325,0,-8.40438,-1.57113,-32.2912
2023-03-11 22:55:33:335,0,-8.4308,-1.60727,-32.3957
2023-03-11 22:55:33:345,0,-8.44871,-1.64039,-32.496
2023-03-11 22:55:33:355,0,-8.45966,-1.6733,-32.5913
2023-03-11 22:55:33:365,0,-8.46654,-1.69674,-32.6771
2023-03-11 22:55:33:375,0,-8.46815,-1.72084,-32.7567
2023-03-11 22:55:33:385,0,-8.47401,-1.73739,-32.8267
2023-03-11 22:55:33:395,0,-8.48079,-1.75136,-32.8877
2023-03-11 22:55:33:405,0,-8.49218,-1.7628,-32.9458
2023-03-11 22:55:33:415,0,-8.50135,-1.76934,-33.0015
2023-03-11 22:55:33:425,0,-8.51116,-1.77157,-33.0498
2023-03-11 22:55:33:435,0,-8.52151,-1.77095,-33.0911
2023-03-11 22:55:33:445,0,-8.52608,-1.76887,-33.1239
2023-03-11 22:55:33:455,0,-8.53316,-1.76161,-33.1569
2023-03-11 22:55:33:465,0,-8.52884,-1.75676,-33.1787
2023-03-11 22:55:33:475,0,-8.52514,-1.75083,-33.1967
2023-03-11 22:55:33:485,0,-8.52031,-1.74527,-33.2088
2023-03-11 22:55:33:495,0,-8.50977,-1.73999,-33.2145
2023-03-11 22:55:33:505,0,-8.49449,-1.7411,-33.2214
2023-03-11 22:55:33:515,0,-8.47451,-1.73836,-33.2291
2023-03-11 22:55:33:525,0,-8.44549,-1.72905,-33.2406
2023-03-11 22:55:33:534,0,-8.41434,-1.71701,-33.2558
2023-03-11 22:55:33:545,0,-8.3834,-1.70564,-33.2702
2023-03-11 22:55:33:555,0,-8.3557,-1.69232,-33.2867
2023-03-11 22:55:33:565,0,-8.3316,-1.67912,-33.3039
2023-03-11 22:55:33:575,0,-8.31263,-1.66147,-33.3294
2023-03-11 22:55:33:585,0,-8.3027,-1.64105,-33.3596
2023-03-11 22:55:33:595,0,-8.29948,-1.61516,-33.3961
2023-03-11 22:55:33:605,0,-8.30399,-1.58,-33.441
2023-03-11 22:55:33:615,0,-8.30896,-1.54408,-33.4937
2023-03-11 22:55:33:625,0,-8.31643,-1.5075,-33.5515
2023-03-11 22:55:33:635,0,-8.32366,-1.47415,-33.6152
2023-03-11 22:55:33:645,0,-8.32835,-1.44456,-33.6746
2023-03-11 22:55:33:655,0,-8.32748,-1.42273,-33.735
2023-03-11 22:55:33:665,0,-8.32257,-1.40753,-33.7807
2023-03-11 22:55:33:675,0,-8.31154,-1.40114,-33.823
2023-03-11 22:55:33:685,0,-8.29682,-1.40187,-33.8498
2023-03-11 22:55:33:695,0,-8.27911,-1.40601,-33.8633
2023-03-11 22:55:33:705,0,-8.25928,-1.41276,-33.8697
2023-03-11 22:55:33:715,0,-8.24477,-1.42145,-33.8663
2023-03-11 22:55:33:725,0,-8.23153,-1.43255,-33.8587
2023-03-11 22:55:33:735,0,-8.22118,-1.44112,-33.8516
2023-03-11 22:55:33:745,0,-8.21426,-1.44826,-33.8425
2023-03-11 22:55:33:755,0,-8.21154,-1.45559,-33.8313
2023-03-11 22:55:33:765,0,-8.21543,-1.45948,-33.829
2023-03-11 22:55:33:775,0,-8.22224,-1.46255,-33.8334
2023-03-11 22:55:33:785,0,-8.23186,-1.47179,-33.8402
2023-03-11 22:55:33:795,0,-8.23945,-1.48366,-33.8457
2023-03-11 22:55:33:805,0,-8.24628,-1.49828,-33.8563
2023-03-11 22:55:33:815,0,-8.25118,-1.51533,-33.8658
2023-03-11 22:55:33:825,0,-8.26091,-1.53291,-33.8783
2023-03-11 22:55:33:835,0,-8.26537,-1.53801,-33.8977
2023-03-11 22:55:33:845,0,-8.27436,-1.53731,-33.9191
2023-03-11 22:55:33:855,0,-8.28299,-1.53145,-33.9411
2023-03-11 22:55:33:865,0,-8.29119,-1.52077,-33.9621
2023-03-11 22:55:33:875,0,-8.29609,-1.50733,-33.9788
2023-03-11 22:55:33:885,0,-8.29411,-1.49422,-33.9947
2023-03-11 22:55:33:895,0,-8.29426,-1.48173,-34.0087
2023-03-11 22:55:33:905,0,-8.29024,-1.46611,-34.0244
2023-03-11 22:55:33:915,0,-8.28767,-1.4557,-34.0335
2023-03-11 22:55:33:925,0,-8.28823,-1.44586,-34.037
2023-03-11 22:55:33:935,0,-8.28984,-1.43579,-34.04
2023-03-11 22:55:33:945,0,-8.2954,-1.42378,-34.042
2023-03-11 22:55:33:955,0,-8.30357,-1.41104,-34.0484
2023-03-11 22:55:33:965,0,-8.3104,-1.39769,-34.0513
2023-03-11 22:55:33:975,0,-8.31809,-1.38278,-34.0503
2023-03-11 22:55:33:985,0,-8.331,-1.3686,-34.0532
2023-03-11 22:55:33:995,0,-8.34372,-1.34982,-34.0601
2023-03-11 22:55:34:5,0,-8.35487,-1.32859,-34.0727
2023-03-11 22:55:34:15,0,-8.36824,-1.30953,-34.0897
2023-03-11 22:55:34:25,0,-8.3805,-1.29275,-34.1085
2023-03-11 22:55:34:35,0,-8.3855,-1.27673,-34.1246
2023-03-11 22:55:34:45,0,-8.39062,-1.26134,-34.1431
2023-03-11 22:55:34:55,0,-8.39729,-1.24553,-34.1644
2023-03-11 22:55:34:65,0,-8.4028,-1.22827,-34.1893
2023-03-11 22:55:34:75,0,-8.40809,-1.20885,-34.212
2023-03-11 22:55:34:85,0,-8.41403,-1.18592,-34.2321
2023-03-11 22:55:34:95,0,-8.4133,-1.16464,-34.25
2023-03-11 22:55:34:105,0,-8.40899,-1.14414,-34.2629
2023-03-11 22:55:34:115,0,-8.4042,-1.12154,-34.2735
2023-03-11 22:55:34:125,0,-8.39263,-1.10087,-34.2855
2023-03-11 22:55:34:135,0,-8.38557,-1.07871,-34.2911
2023-03-11 22:55:34:145,0,-8.37876,-1.05782,-34.2952
2023-03-11 22:55:34:155,0,-8.37392,-1.03756,-34.3045
2023-03-11 22:55:34:165,0,-8.37441,-1.01917,-34.3137
2023-03-11 22:55:34:175,0,-8.37179,-1.00289,-34.3242
2023-03-11 22:55:34:185,0,-8.37415,-0.98696,-34.3329
2023-03-11 22:55:34:195,0,-8.37377,-0.971996,-34.3438
2023-03-11 22:55:34:205,0,-8.36845,-0.958713,-34.3564
2023-03-11 22:55:34:215,0,-8.36043,-0.950888,-34.3714
2023-03-11 22:55:34:225,0,-8.35745,-0.943619,-34.3836
2023-03-11 22:55:34:235,0,-8.35436,-0.943264,-34.3948
2023-03-11 22:55:34:245,0,-8.35849,-0.94047,-34.4094
2023-03-11 22:55:34:255,0,-8.36336,-0.940368,-34.4219
2023-03-11 22:55:34:265,0,-8.36946,-0.935437,-34.4352
2023-03-11 22:55:34:275,0,-8.37227,-0.932971,-34.4463
2023-03-11 22:55:34:285,0,-8.36615,-0.931997,-34.4584
2023-03-11 22:55:34:295,0,-8.35954,-0.931711,-34.4701
2023-03-11 22:55:34:305,0,-8.35177,-0.929426,-34.4829
2023-03-11 22:55:34:315,0,-8.34554,-0.924941,-34.4957
2023-03-11 22:55:34:325,0,-8.34082,-0.920582,-34.5025
2023-03-11 22:55:34:335,0,-8.3395,-0.913927,-34.5114
2023-03-11 22:55:34:345,0,-8.33662,-0.910036,-34.522
2023-03-11 22:55:34:355,0,-8.32902,-0.903346,-34.5315
2023-03-11 22:55:34:365,0,-8.32231,-0.903584,-34.5354
2023-03-11 22:55:34:375,0,-8.31623,-0.903454,-34.541
2023-03-11 22:55:34:385,0,-8.30104,-0.904521,-34.5481
2023-03-11 22:55:34:395,0,-8.29097,-0.906405,-34.5559
2023-03-11 22:55:34:405,0,-8.28037,-0.911844,-34.5623
2023-03-11 22:55:34:415,0,-8.26902,-0.916972,-34.5672
2023-03-11 22:55:34:425,0,-8.26018,-0.924112,-34.5695
2023-03-11 22:55:34:435,0,-8.25335,-0.933788,-34.5721
2023-03-11 22:55:34:445,0,-8.24677,-0.944237,-34.5725
2023-03-11 22:55:34:455,0,-8.24048,-0.949714,-34.5786
2023-03-11 22:55:34:465,0,-8.23657,-0.959792,-34.5813
2023-03-11 22:55:34:475,0,-8.23008,-0.96595,-34.5853
2023-03-11 22:55:34:485,0,-8.22026,-0.972839,-34.5921
2023-03-11 22:55:34:495,0,-8.20842,-0.978096,-34.6
2023-03-11 22:55:34:505,0,-8.19673,-0.980073,-34.6084
2023-03-11 22:55:34:515,0,-8.18757,-0.981265,-34.6174
2023-03-11 22:55:34:525,0,-8.1789,-0.981902,-34.6294
2023-03-11 22:55:34:535,0,-8.17149,-0.974815,-34.6479
2023-03-11 22:55:34:545,0,-8.16957,-0.971403,-34.6672
2023-03-11 22:55:34:555,0,-8.16713,-0.965635,-34.6774
2023-03-11 22:55:34:565,0,-8.16361,-0.966264,-34.6879
2023-03-11 22:55:34:575,0,-8.16115,-0.96952,-34.7022
2023-03-11 22:55:34:585,0,-8.15821,-0.974664,-34.7204
2023-03-11 22:55:34:595,0,-8.16072,-0.97479,-34.7373
2023-03-11 22:55:34:605,0,-8.16276,-0.973243,-34.7626
2023-03-11 22:55:34:615,0,-8.16187,-0.969012,-34.7874
2023-03-11 22:55:34:625,0,-8.16306,-0.963742,-34.8075
2023-03-11 22:55:34:635,0,-8.16492,-0.961523,-34.8282
2023-03-11 22:55:34:645,0,-8.16442,-0.961646,-34.8474
2023-03-11 22:55:34:655,0,-8.16292,-0.962726,-34.8695
2023-03-11 22:55:34:665,0,-8.15966,-0.961843,-34.8863
2023-03-11 22:55:34:675,0,-8.1555,-0.961589,-34.9043
2023-03-11 22:55:34:685,0,-8.1515,-0.957283,-34.9215
2023-03-11 22:55:34:695,0,-8.1525,-0.949845,-34.9383
2023-03-11 22:55:34:705,0,-8.15126,-0.940875,-34.9526
2023-03-11 22:55:34:715,0,-8.15644,-0.930406,-34.9665
2023-03-11 22:55:34:725,0,-8.16234,-0.924803,-34.9803
2023-03-11 22:55:34:735,0,-8.16762,-0.919104,-34.9927
2023-03-11 22:55:34:745,0,-8.17291,-0.915312,-35.0043
2023-03-11 22:55:34:755,0,-8.18133,-0.91205,-35.0206
2023-03-11 22:55:34:765,0,-8.1854,-0.904971,-35.0369
2023-03-11 22:55:34:775,0,-8.18827,-0.896564,-35.0567
2023-03-11 22:55:34:785,0,-8.19045,-0.886185,-35.076
2023-03-11 22:55:34:795,0,-8.19005,-0.879787,-35.0919
2023-03-11 22:55:34:805,0,-8.1919,-0.874296,-35.106
2023-03-11 22:55:34:815,0,-8.19098,-0.873986,-35.1229
2023-03-11 22:55:34:825,0,-8.19177,-0.87371,-35.1416
2023-03-11 22:55:34:835,0,-8.19463,-0.871054,-35.1588
2023-03-11 22:55:34:845,0,-8.1946,-0.866087,-35.178
2023-03-11 22:55:34:855,0,-8.19552,-0.862306,-35.1944
2023-03-11 22:55:34:865,0,-8.19316,-0.860615,-35.2096
2023-03-11 22:55:34:875,0,-8.19454,-0.855725,-35.2261
2023-03-11 22:55:34:885,0,-8.1949,-0.852674,-35.2354
2023-03-11 22:55:34:895,0,-8.18888,-0.854319,-35.2459
2023-03-11 22:55:34:905,0,-8.18325,-0.853038,-35.255
2023-03-11 22:55:34:915,0,-8.17782,-0.85223,-35.2595
2023-03-11 22:55:34:925,0,-8.17264,-0.852096,-35.2697
2023-03-11 22:55:34:935,0,-8.16604,-0.852955,-35.2817
2023-03-11 22:55:34:945,0,-8.16284,-0.855404,-35.2927
2023-03-11 22:55:34:955,0,-8.16084,-0.853917,-35.3055
2023-03-11 22:55:34:965,0,-8.16076,-0.858874,-35.3162
2023-03-11 22:55:34:975,0,-8.16402,-0.8632,-35.3285
2023-03-11 22:55:34:985,0,-8.16982,-0.866058,-35.3436
2023-03-11 22:55:34:995,0,-8.17671,-0.864114,-35.358
2023-03-11 22:55:35:5,0,-8.18064,-0.859067,-35.3685
2023-03-11 22:55:35:15,0,-8.18541,-0.852813,-35.3783
2023-03-11 22:55:35:25,0,-8.18964,-0.846077,-35.3918
2023-03-11 22:55:35:35,0,-8.19007,-0.837837,-35.4067
2023-03-11 22:55:35:45,0,-8.19269,-0.832279,-35.4209
2023-03-11 22:55:35:55,0,-8.19572,-0.821292,-35.4338
2023-03-11 22:55:35:65,0,-8.19634,-0.810826,-35.4499
2023-03-11 22:55:35:75,0,-8.20157,-0.801656,-35.4638
2023-03-11 22:55:35:85,0,-8.20581,-0.790789,-35.4798
2023-03-11 22:55:35:95,0,-8.20776,-0.783018,-35.4982
2023-03-11 22:55:35:105,0,-8.20662,-0.777328,-35.5182
2023-03-11 22:55:35:115,0,-8.20441,-0.765745,-35.5365
2023-03-11 22:55:35:125,0,-8.19899,-0.75657,-35.5548
2023-03-11 22:55:35:135,0,-8.19168,-0.74786,-35.5739
2023-03-11 22:55:35:145,0,-8.1853,-0.735018,-35.5902
2023-03-11 22:55:35:155,0,-8.18077,-0.723434,-35.605
2023-03-11 22:55:35:165,0,-8.17775,-0.714282,-35.619
2023-03-11 22:55:35:175,0,-8.17727,-0.704432,-35.6293
2023-03-11 22:55:35:185,0,-8.17899,-0.696116,-35.6424
2023-03-11 22:55:35:195,0,-8.1808,-0.688696,-35.6538
2023-03-11 22:55:35:205,0,-8.18025,-0.684348,-35.668
2023-03-11 22:55:35:215,0,-8.17393,-0.679611,-35.6833
2023-03-11 22:55:35:225,0,-8.16613,-0.676058,-35.6963
2023-03-11 22:55:35:235,0,-8.15871,-0.669296,-35.7115
2023-03-11 22:55:35:245,0,-8.15458,-0.666266,-35.7236
2023-03-11 22:55:35:255,0,-8.14431,-0.660627,-35.7343
2023-03-11 22:55:35:265,0,-8.14022,-0.657307,-35.7441
2023-03-11 22:55:35:275,0,-8.13968,-0.651179,-35.7536
2023-03-11 22:55:35:285,0,-8.14015,-0.647399,-35.7638
2023-03-11 22:55:35:295,0,-8.13559,-0.650735,-35.7709
2023-03-11 22:55:35:305,0,-8.13745,-0.653267,-35.7731
2023-03-11 22:55:35:315,0,-8.14147,-0.661671,-35.7721
2023-03-11 22:55:35:325,0,-8.14485,-0.671383,-35.773
2023-03-11 22:55:35:335,0,-8.1575,-0.681985,-35.7711
2023-03-11 22:55:35:345,0,-8.17278,-0.689691,-35.7699
2023-03-11 22:55:35:355,0,-8.182,-0.694946,-35.7733
2023-03-11 22:55:35:365,0,-8.18885,-0.699144,-35.7729
2023-03-11 22:55:35:375,0,-8.19359,-0.701254,-35.7731
2023-03-11 22:55:35:385,0,-8.19506,-0.704726,-35.7743
2023-03-11 22:55:35:395,0,-8.19556,-0.708374,-35.7762
2023-03-11 22:55:35:405,0,-8.19575,-0.707808,-35.7797
2023-03-11 22:55:35:415,0,-8.19679,-0.707507,-35.7839
2023-03-11 22:55:35:425,0,-8.19918,-0.704915,-35.7906
2023-03-11 22:55:35:435,0,-8.19722,-0.705093,-35.8015
2023-03-11 22:55:35:445,0,-8.20341,-0.703389,-35.8149
2023-03-11 22:55:35:455,0,-8.21265,-0.698449,-35.8262
2023-03-11 22:55:35:465,0,-8.22167,-0.692707,-35.8397
2023-03-11 22:55:35:475,0,-8.23154,-0.688931,-35.8533
2023-03-11 22:55:35:485,0,-8.24348,-0.687441,-35.8668
2023-03-11 22:55:35:495,0,-8.25456,-0.685184,-35.8833
2023-03-11 22:55:35:505,0,-8.26246,-0.678658,-35.8998
2023-03-11 22:55:35:515,0,-8.26532,-0.670846,-35.9217
2023-03-11 22:55:35:525,0,-8.26366,-0.66223,-35.9344
2023-03-11 22:55:35:535,0,-8.26329,-0.658565,-35.9482
2023-03-11 22:55:35:545,0,-8.2612,-0.655361,-35.9568
2023-03-11 22:55:35:555,0,-8.2592,-0.655857,-35.967
2023-03-11 22:55:35:565,0,-8.25696,-0.654362,-35.9759
2023-03-11 22:55:35:575,0,-8.25412,-0.652524,-35.9842
2023-03-11 22:55:35:585,0,-8.2511,-0.653003,-35.9915
2023-03-11 22:55:35:595,0,-8.24535,-0.654746,-35.9996
2023-03-11 22:55:35:605,0,-8.24328,-0.653704,-36.0046
2023-03-11 22:55:35:615,0,-8.23871,-0.652266,-36.0073
2023-03-11 22:55:35:625,0,-8.2326,-0.651998,-36.0123
2023-03-11 22:55:35:635,0,-8.22867,-0.650091,-36.0228
2023-03-11 22:55:35:645,0,-8.22586,-0.652576,-36.0303
2023-03-11 22:55:35:655,0,-8.22408,-0.654396,-36.0372
2023-03-11 22:55:35:665,0,-8.22318,-0.656195,-36.041
2023-03-11 22:55:35:675,0,-8.22402,-0.661031,-36.0503
2023-03-11 22:55:35:685,0,-8.22927,-0.664225,-36.0543
2023-03-11 22:55:35:695,0,-8.23509,-0.668386,-36.0605
2023-03-11 22:55:35:705,0,-8.23774,-0.674235,-36.0676
2023-03-11 22:55:35:715,0,-8.23798,-0.678189,-36.0748
2023-03-11 22:55:35:725,0,-8.24008,-0.682198,-36.0793
2023-03-11 22:55:35:735,0,-8.24121,-0.684842,-36.0836
2023-03-11 22:55:35:745,0,-8.2431,-0.683928,-36.0855
2023-03-11 22:55:35:755,0,-8.25062,-0.689049,-36.086
2023-03-11 22:55:35:765,0,-8.25436,-0.687043,-36.0923
2023-03-11 22:55:35:775,0,-8.25652,-0.68193,-36.0981
2023-03-11 22:55:35:785,0,-8.25592,-0.677432,-36.1076
2023-03-11 22:55:35:795,0,-8.25852,-0.67304,-36.1194
2023-03-11 22:55:35:805,0,-8.25904,-0.669551,-36.1294
2023-03-11 22:55:35:815,0,-8.25768,-0.662928,-36.145
2023-03-11 22:55:35:825,0,-8.25839,-0.655481,-36.1624
2023-03-11 22:55:35:835,0,-8.25657,-0.651661,-36.182
2023-03-11 22:55:35:845,0,-8.24609,-0.644801,-36.2016
2023-03-11 22:55:35:855,0,-8.23568,-0.639787,-36.222
2023-03-11 22:55:35:865,0,-8.22638,-0.632142,-36.2425
2023-03-11 22:55:35:875,0,-8.22001,-0.630367,-36.2585
2023-03-11 22:55:35:885,0,-8.21434,-0.625824,-36.2761
2023-03-11 22:55:35:895,0,-8.21037,-0.620455,-36.2892
2023-03-11 22:55:35:905,0,-8.20785,-0.617597,-36.3008
2023-03-11 22:55:35:915,0,-8.20798,-0.613524,-36.3105
2023-03-11 22:55:35:925,0,-8.20343,-0.610987,-36.3169
2023-03-11 22:55:35:935,0,-8.2047,-0.608018,-36.3232
2023-03-11 22:55:35:945,0,-8.20684,-0.602111,-36.3308
2023-03-11 22:55:35:955,0,-8.20939,-0.595919,-36.3366
2023-03-11 22:55:35:965,0,-8.21027,-0.587875,-36.3403
2023-03-11 22:55:35:975,0,-8.21069,-0.580567,-36.3452
2023-03-11 22:55:35:985,0,-8.21096,-0.575908,-36.3458
2023-03-11 22:55:35:995,0,-8.21471,-0.570958,-36.3476
2023-03-11 22:55:36:5,0,-8.21748,-0.563853,-36.3539
2023-03-11 22:55:36:15,0,-8.2245,-0.556507,-36.361
2023-03-11 22:55:36:25,0,-8.22535,-0.549907,-36.3686
2023-03-11 22:55:36:35,0,-8.22432,-0.549752,-36.3735
2023-03-11 22:55:36:45,0,-8.22626,-0.551145,-36.3762
2023-03-11 22:55:36:55,0,-8.23178,-0.557331,-36.3801
2023-03-11 22:55:36:65,0,-8.23996,-0.562136,-36.3892
2023-03-11 22:55:36:75,0,-8.25117,-0.568723,-36.4011
2023-03-11 22:55:36:85,0,-8.26004,-0.571006,-36.4105
2023-03-11 22:55:36:95,0,-8.26243,-0.573247,-36.42
2023-03-11 22:55:36:105,0,-8.25938,-0.572727,-36.4277
2023-03-11 22:55:36:115,0,-8.25426,-0.572557,-36.436
2023-03-11 22:55:36:125,0,-8.2445,-0.569297,-36.4476
2023-03-11 22:55:36:135,0,-8.23296,-0.566641,-36.4548
2023-03-11 22:55:36:145,0,-8.22241,-0.560838,-36.465
2023-03-11 22:55:36:155,0,-8.21346,-0.554742,-36.4749
2023-03-11 22:55:36:165,0,-8.20913,-0.545668,-36.4857
2023-03-11 22:55:36:175,0,-8.20909,-0.540022,-36.4995
2023-03-11 22:55:36:185,0,-8.21106,-0.532802,-36.5124
2023-03-11 22:55:36:195,0,-8.21234,-0.52673,-36.5244
2023-03-11 22:55:36:205,0,-8.22089,-0.520355,-36.5346
2023-03-11 22:55:36:215,0,-8.22909,-0.515562,-36.5411
2023-03-11 22:55:36:225,0,-8.23429,-0.509341,-36.547
2023-03-11 22:55:36:235,0,-8.23908,-0.50576,-36.5521
2023-03-11 22:55:36:245,0,-8.24288,-0.496093,-36.5578
2023-03-11 22:55:36:255,0,-8.24369,-0.489747,-36.5677
2023-03-11 22:55:36:265,0,-8.24138,-0.485445,-36.5727
2023-03-11 22:55:36:275,0,-8.23403,-0.484045,-36.5755
2023-03-11 22:55:36:285,0,-8.22301,-0.489928,-36.5784
2023-03-11 22:55:36:295,0,-8.21358,-0.494052,-36.5836
2023-03-11 22:55:36:305,0,-8.20598,-0.503177,-36.5881
2023-03-11 22:55:36:315,0,-8.19453,-0.509248,-36.5892
2023-03-11 22:55:36:325,0,-8.18685,-0.513247,-36.5899
2023-03-11 22:55:36:335,0,-8.18154,-0.520564,-36.5878
2023-03-11 22:55:36:345,0,-8.17219,-0.525628,-36.5799
2023-03-11 22:55:36:355,0,-8.1624,-0.530345,-36.5751
2023-03-11 22:55:36:365,0,-8.15572,-0.533697,-36.5637
2023-03-11 22:55:36:375,0,-8.15104,-0.539331,-36.5575
2023-03-11 22:55:36:385,0,-8.14902,-0.546203,-36.5485
2023-03-11 22:55:36:395,0,-8.14663,-0.553562,-36.5398
2023-03-11 22:55:36:405,0,-8.14553,-0.562609,-36.5347
2023-03-11 22:55:36:415,0,-8.14664,-0.567978,-36.5329
2023-03-11 22:55:36:425,0,-8.14509,-0.57679,-36.5265
2023-03-11 22:55:36:435,0,-8.14303,-0.589199,-36.5221
2023-03-11 22:55:36:445,0,-8.14169,-0.599707,-36.5179
2023-03-11 22:55:36:455,0,-8.14218,-0.603682,-36.515
2023-03-11 22:55:36:465,0,-8.14624,-0.608639,-36.5098
2023-03-11 22:55:36:475,0,-8.15038,-0.610546,-36.5054
2023-03-11 22:55:36:485,0,-8.1528,-0.615628,-36.5043
2023-03-11 22:55:36:495,0,-8.15731,-0.615272,-36.5054
2023-03-11 22:55:36:505,0,-8.15736,-0.615925,-36.5047
2023-03-11 22:55:36:515,0,-8.15356,-0.611517,-36.5065
2023-03-11 22:55:36:525,0,-8.15215,-0.608857,-36.5107
2023-03-11 22:55:36:535,0,-8.14652,-0.604315,-36.5165
2023-03-11 22:55:36:545,0,-8.13657,-0.598829,-36.5273
2023-03-11 22:55:36:555,0,-8.13134,-0.592798,-36.5383
2023-03-11 22:55:36:565,0,-8.1237,-0.586122,-36.5524
2023-03-11 22:55:36:575,0,-8.11192,-0.57935,-36.5671
2023-03-11 22:55:36:585,0,-8.10546,-0.574849,-36.5844
2023-03-11 22:55:36:595,0,-8.10003,-0.571677,-36.601
2023-03-11 22:55:36:605,0,-8.0928,-0.567628,-36.6126
2023-03-11 22:55:36:615,0,-8.08708,-0.5649,-36.6258
2023-03-11 22:55:36:625,0,-8.08579,-0.563448,-36.6412
2023-03-11 22:55:36:635,0,-8.083,-0.563291,-36.6514
2023-03-11 22:55:36:645,0,-8.07928,-0.559564,-36.6567
2023-03-11 22:55:36:655,0,-8.07641,-0.554945,-36.6622
2023-03-11 22:55:36:665,0,-8.07389,-0.554826,-36.6629
2023-03-11 22:55:36:675,0,-8.07136,-0.548484,-36.6668
2023-03-11 22:55:36:685,0,-8.0675,-0.542605,-36.6706
2023-03-11 22:55:36:695,0,-8.06017,-0.534587,-36.6675
2023-03-11 22:55:36:705,0,-8.05263,-0.530556,-36.6627
2023-03-11 22:55:36:715,0,-8.03779,-0.525515,-36.656
2023-03-11 22:55:36:725,0,-8.02136,-0.518979,-36.6495
2023-03-11 22:55:36:735,0,-8.00633,-0.512696,-36.6413
2023-03-11 22:55:36:745,0,-7.99062,-0.498181,-36.6266
2023-03-11 22:55:36:755,0,-7.97388,-0.48151,-36.6105
2023-03-11 22:55:36:765,0,-7.95758,-0.471118,-36.5863
2023-03-11 22:55:36:775,0,-7.94664,-0.462875,-36.5513
2023-03-11 22:55:36:785,0,-7.93929,-0.460017,-36.5146
2023-03-11 22:55:36:795,0,-7.94142,-0.46138,-36.4723
2023-03-11 22:55:36:805,0,-7.93987,-0.467945,-36.4195
2023-03-11 22:55:36:815,0,-7.93696,-0.472633,-36.373
2023-03-11 22:55:36:825,0,-7.93431,-0.469803,-36.3366
2023-03-11 22:55:36:835,0,-7.93988,-0.4587,-36.3032
2023-03-11 22:55:36:845,0,-7.94569,-0.446475,-36.2695
2023-03-11 22:55:36:855,0,-7.95108,-0.434057,-36.241
2023-03-11 22:55:36:865,0,-7.95994,-0.424445,-36.2202
2023-03-11 22:55:36:875,0,-7.97322,-0.415209,-36.208
2023-03-11 22:55:36:885,0,-7.98593,-0.407154,-36.2042
2023-03-11 22:55:36:895,0,-8.00433,-0.402077,-36.2084
2023-03-11 22:55:36:905,0,-8.02692,-0.395747,-36.2197
2023-03-11 22:55:36:915,0,-8.04723,-0.389551,-36.2364
2023-03-11 22:55:36:925,0,-8.07071,-0.384972,-36.2606
2023-03-11 22:55:36:935,0,-8.09335,-0.377669,-36.2928
2023-03-11 22:55:36:945,0,-8.11631,-0.368983,-36.3268
2023-03-11 22:55:36:955,0,-8.13835,-0.361301,-36.3648
2023-03-11 22:55:36:965,0,-8.15844,-0.35571,-36.4077
2023-03-11 22:55:36:975,0,-8.17651,-0.345934,-36.4529
2023-03-11 22:55:36:985,0,-8.1882,-0.337633,-36.5029
2023-03-11 22:55:36:995,0,-8.1944,-0.322772,-36.5499
2023-03-11 22:55:37:5,0,-8.19966,-0.312671,-36.5908
2023-03-11 22:55:37:15,0,-8.2009,-0.30913,-36.6273
2023-03-11 22:55:37:25,0,-8.19881,-0.305628,-36.6644
2023-03-11 22:55:37:35,0,-8.19655,-0.302087,-36.7047
2023-03-11 22:55:37:45,0,-8.19082,-0.300424,-36.7417
2023-03-11 22:55:37:55,0,-8.17995,-0.298019,-36.7738
2023-03-11 22:55:37:65,0,-8.1672,-0.291106,-36.8013
2023-03-11 22:55:37:75,0,-8.15156,-0.28206,-36.8257
2023-03-11 22:55:37:85,0,-8.13793,-0.2744,-36.8438
2023-03-11 22:55:37:95,0,-8.1284,-0.267618,-36.8588
2023-03-11 22:55:37:105,0,-8.12292,-0.260429,-36.8696
2023-03-11 22:55:37:115,0,-8.12486,-0.252193,-36.88
2023-03-11 22:55:37:125,0,-8.12859,-0.246356,-36.8866
2023-03-11 22:55:37:135,0,-8.13108,-0.243423,-36.894
2023-03-11 22:55:37:145,0,-8.13042,-0.239944,-36.8985
2023-03-11 22:55:37:154,0,-8.12504,-0.232732,-36.8996
2023-03-11 22:55:37:165,0,-8.11688,-0.230367,-36.9039
2023-03-11 22:55:37:175,0,-8.10929,-0.230856,-36.9061
2023-03-11 22:55:37:185,0,-8.10437,-0.229894,-36.9074
2023-03-11 22:55:37:195,0,-8.10385,-0.22957,-36.9072
2023-03-11 22:55:37:205,0,-8.10714,-0.232115,-36.9071
2023-03-11 22:55:37:215,0,-8.10822,-0.236309,-36.9111
2023-03-11 22:55:37:225,0,-8.11387,-0.23885,-36.9175
2023-03-11 22:55:37:235,0,-8.11617,-0.238854,-36.9227
2023-03-11 22:55:37:245,0,-8.11829,-0.236828,-36.9295
2023-03-11 22:55:37:255,0,-8.11214,-0.232905,-36.9387
2023-03-11 22:55:37:265,0,-8.10466,-0.22774,-36.952
2023-03-11 22:55:37:275,0,-8.09794,-0.220542,-36.9654
2023-03-11 22:55:37:285,0,-8.08926,-0.217518,-36.9791
2023-03-11 22:55:37:295,0,-8.08178,-0.209981,-36.9958
2023-03-11 22:55:37:305,0,-8.07957,-0.20013,-37.0109
2023-03-11 22:55:37:315,0,-8.07196,-0.189,-37.0247
2023-03-11 22:55:37:325,0,-8.07025,-0.181378,-37.038
2023-03-11 22:55:37:335,0,-8.06359,-0.174337,-37.0504
2023-03-11 22:55:37:345,0,-8.05871,-0.168522,-37.0644
2023-03-11 22:55:37:355,0,-8.04939,-0.163499,-37.0736
2023-03-11 22:55:37:365,0,-8.03996,-0.157474,-37.0813
2023-03-11 22:55:37:375,0,-8.03273,-0.151612,-37.0894
2023-03-11 22:55:37:385,0,-8.03287,-0.14745,-37.0939
2023-03-11 22:55:37:395,0,-8.03344,-0.146962,-37.0968
2023-03-11 22:55:37:405,0,-8.03616,-0.147302,-37.0998
2023-03-11 22:55:37:415,0,-8.03901,-0.14739,-37.1037
2023-03-11 22:55:37:425,0,-8.03921,-0.14922,-37.1059
2023-03-11 22:55:37:435,0,-8.03872,-0.146447,-37.11
2023-03-11 22:55:37:445,0,-8.03708,-0.144622,-37.1119
2023-03-11 22:55:37:455,0,-8.03563,-0.143351,-37.1151
2023-03-11 22:55:37:465,0,-8.02783,-0.142095,-37.1192
2023-03-11 22:55:37:475,0,-8.02525,-0.141509,-37.1214
2023-03-11 22:55:37:485,0,-8.02514,-0.140317,-37.1252
2023-03-11 22:55:37:495,0,-8.02692,-0.137345,-37.1264
2023-03-11 22:55:37:505,0,-8.02821,-0.138557,-37.135
2023-03-11 22:55:37:515,0,-8.02621,-0.13924,-37.141
2023-03-11 22:55:37:525,0,-8.023,-0.146964,-37.1394
2023-03-11 22:55:37:535,0,-8.02573,-0.158083,-37.1337
2023-03-11 22:55:37:545,0,-8.02474,-0.17377,-37.1287
2023-03-11 22:55:37:555,0,-8.02753,-0.187342,-37.1237
2023-03-11 22:55:37:565,0,-8.0337,-0.19741,-37.1155
2023-03-11 22:55:37:575,0,-8.04046,-0.205288,-37.1054
2023-03-11 22:55:37:585,0,-8.04684,-0.21123,-37.0917
2023-03-11 22:55:37:595,0,-8.05065,-0.216935,-37.0781
2023-03-11 22:55:37:605,0,-8.05266,-0.2201,-37.0681
2023-03-11 22:55:37:615,0,-8.05542,-0.226092,-37.0572
2023-03-11 22:55:37:625,0,-8.05991,-0.232649,-37.0501
2023-03-11 22:55:37:635,0,-8.06858,-0.234807,-37.0473
2023-03-11 22:55:37:645,0,-8.08409,-0.238591,-37.0466
2023-03-11 22:55:37:655,0,-8.10029,-0.242081,-37.0516
2023-03-11 22:55:37:664,0,-8.11702,-0.244475,-37.0548
2023-03-11 22:55:37:675,0,-8.13555,-0.243505,-37.0616
2023-03-11 22:55:37:685,0,-8.15317,-0.239145,-37.0641
2023-03-11 22:55:37:695,0,-8.17154,-0.231829,-37.0654
2023-03-11 22:55:37:705,0,-8.18672,-0.225868,-37.0622
2023-03-11 22:55:37:715,0,-8.20169,-0.218817,-37.059
2023-03-11 22:55:37:725,0,-8.2203,-0.211019,-37.0599
2023-03-11 22:55:37:735,0,-8.2347,-0.202063,-37.0614
2023-03-11 22:55:37:745,0,-8.24552,-0.191028,-37.0643
2023-03-11 22:55:37:755,0,-8.25167,-0.183772,-37.0661
2023-03-11 22:55:37:765,0,-8.25442,-0.18046,-37.0705
2023-03-11 22:55:37:775,0,-8.24994,-0.180528,-37.0766
2023-03-11 22:55:37:785,0,-8.24345,-0.178157,-37.0838
2023-03-11 22:55:37:795,0,-8.23717,-0.175705,-37.0901
2023-03-11 22:55:37:805,0,-8.23185,-0.173027,-37.096
2023-03-11 22:55:37:815,0,-8.22493,-0.170401,-37.1004
2023-03-11 22:55:37:825,0,-8.21775,-0.162878,-37.1072
2023-03-11 22:55:37:835,0,-8.20712,-0.154374,-37.1093
2023-03-11 22:55:37:845,0,-8.20285,-0.144919,-37.1125
2023-03-11 22:55:37:855,0,-8.19755,-0.137959,-37.1163
2023-03-11 22:55:37:865,0,-8.19232,-0.129004,-37.1208
2023-03-11 22:55:37:875,0,-8.18229,-0.122785,-37.1253
2023-03-11 22:55:37:885,0,-8.17274,-0.121583,-37.1345
2023-03-11 22:55:37:895,0,-8.15553,-0.12301,-37.1399
2023-03-11 22:55:37:905,0,-8.13753,-0.125782,-37.1469
2023-03-11 22:55:37:915,0,-8.11806,-0.131175,-37.1472
2023-03-11 22:55:37:925,0,-8.10145,-0.133991,-37.1484
2023-03-11 22:55:37:935,0,-8.08981,-0.135447,-37.1506
2023-03-11 22:55:37:945,0,-8.07806,-0.13621,-37.1505
2023-03-11 22:55:37:955,0,-8.06791,-0.13829,-37.1519
2023-03-11 22:55:37:965,0,-8.0583,-0.142494,-37.1514
2023-03-11 22:55:37:975,0,-8.04648,-0.147532,-37.1531
2023-03-11 22:55:37:985,0,-8.03594,-0.150032,-37.1551
2023-03-11 22:55:37:995,0,-8.02111,-0.150122,-37.1533
2023-03-11 22:55:38:5,0,-8.00925,-0.152423,-37.1544
2023-03-11 22:55:38:15,0,-7.99625,-0.149815,-37.1567
2023-03-11 22:55:38:25,0,-7.98219,-0.148606,-37.1587
2023-03-11 22:55:38:35,0,-7.96672,-0.147023,-37.1615
2023-03-11 22:55:38:45,0,-7.95091,-0.14842,-37.1683
2023-03-11 22:55:38:55,0,-7.94017,-0.149404,-37.1781
2023-03-11 22:55:38:65,0,-7.93024,-0.147586,-37.1859
2023-03-11 22:55:38:75,0,-7.91993,-0.148416,-37.1957
2023-03-11 22:55:38:85,0,-7.9123,-0.149195,-37.2058
2023-03-11 22:55:38:95,0,-7.9027,-0.150976,-37.2146
2023-03-11 22:55:38:105,0,-7.89532,-0.152314,-37.2201
2023-03-11 22:55:38:115,0,-7.89095,-0.149951,-37.2246
2023-03-11 22:55:38:125,0,-7.88191,-0.151794,-37.2248
2023-03-11 22:55:38:135,0,-7.87841,-0.151119,-37.2237
2023-03-11 22:55:38:145,0,-7.8744,-0.152974,-37.2208
2023-03-11 22:55:38:155,0,-7.87043,-0.153689,-37.2147
2023-03-11 22:55:38:165,0,-7.86597,-0.151593,-37.2078
2023-03-11 22:55:38:175,0,-7.85721,-0.149839,-37.2029
2023-03-11 22:55:38:185,0,-7.85025,-0.150948,-37.1938
2023-03-11 22:55:38:195,0,-7.84985,-0.148081,-37.1898
2023-03-11 22:55:38:205,0,-7.84447,-0.142439,-37.1883
2023-03-11 22:55:38:215,0,-7.83867,-0.13552,-37.1911
2023-03-11 22:55:38:225,0,-7.83858,-0.129854,-37.1957
2023-03-11 22:55:38:235,0,-7.8386,-0.12748,-37.199
2023-03-11 22:55:38:245,0,-7.84141,-0.121829,-37.2067
2023-03-11 22:55:38:255,0,-7.84602,-0.117516,-37.2186
2023-03-11 22:55:38:265,0,-7.8475,-0.11247,-37.2321
2023-03-11 22:55:38:275,0,-7.85264,-0.10871,-37.2421
2023-03-11 22:55:38:285,0,-7.85727,-0.11133,-37.2495
2023-03-11 22:55:38:295,0,-7.86424,-0.118393,-37.2532
2023-03-11 22:55:38:305,0,-7.87091,-0.125746,-37.2543
2023-03-11 22:55:38:315,0,-7.88315,-0.136089,-37.2553
2023-03-11 22:55:38:325,0,-7.90187,-0.146166,-37.2539
2023-03-11 22:55:38:335,0,-7.91788,-0.157988,-37.2491
2023-03-11 22:55:38:345,0,-7.93387,-0.164077,-37.2402
2023-03-11 22:55:38:355,0,-7.9507,-0.167843,-37.2293
2023-03-11 22:55:38:365,0,-7.96259,-0.170944,-37.22
2023-03-11 22:55:38:375,0,-7.96727,-0.172308,-37.2125
2023-03-11 22:55:38:385,0,-7.97061,-0.172993,-37.2057
2023-03-11 22:55:38:395,0,-7.9736,-0.170711,-37.2012
2023-03-11 22:55:38:405,0,-7.97608,-0.172334,-37.1978
2023-03-11 22:55:38:415,0,-7.98451,-0.173201,-37.2007
2023-03-11 22:55:38:425,0,-7.99443,-0.171833,-37.2065
2023-03-11 22:55:38:435,0,-8.00702,-0.170961,-37.2114
2023-03-11 22:55:38:445,0,-8.01833,-0.171674,-37.2191
2023-03-11 22:55:38:455,0,-8.02942,-0.174238,-37.2288
2023-03-11 22:55:38:465,0,-8.04172,-0.172658,-37.2402
2023-03-11 22:55:38:475,0,-8.04925,-0.173587,-37.2473
2023-03-11 22:55:38:485,0,-8.05445,-0.169824,-37.2512
2023-03-11 22:55:38:495,0,-8.06284,-0.16884,-37.2572
2023-03-11 22:55:38:505,0,-8.06271,-0.165315,-37.2627
2023-03-11 22:55:38:515,0,-8.05984,-0.163323,-37.2676
2023-03-11 22:55:38:525,0,-8.05684,-0.166823,-37.2697
2023-03-11 22:55:38:535,0,-8.04846,-0.172653,-37.2688
2023-03-11 22:55:38:545,0,-8.0388,-0.175105,-37.2687
2023-03-11 22:55:38:555,0,-8.02489,-0.178036,-37.2689
