Timestamp_cmd,imu_cmd,roll_delta,pitch_delta,yaw_delta
Timestamp_cmd,imu_cmd,roll_delta,pitch_delta,yaw_delta
Timestamp_cmd,imu_cmd,roll_delta,pitch_delta,yaw_delta
Timestamp_cmd,imu_cmd,roll_delta,pitch_delta,yaw_delta
2023-03-10 21:35:54:415,0,6.84566,-8.61251,93.2054
2023-03-10 21:35:54:423,0,6.82395,-8.58869,93.1812
2023-03-10 21:35:54:433,0,6.80438,-8.56727,93.1553
2023-03-10 21:35:54:443,0,6.78634,-8.55233,93.1357
2023-03-10 21:35:54:453,0,6.76636,-8.53954,93.122
2023-03-10 21:35:54:463,0,6.7515,-8.52329,93.1113
2023-03-10 21:35:54:473,0,6.73994,-8.50437,93.0997
2023-03-10 21:35:54:483,0,6.73383,-8.4794,93.0898
2023-03-10 21:35:54:493,0,6.73108,-8.458,93.081
2023-03-10 21:35:54:503,0,6.7316,-8.43855,93.0778
2023-03-10 21:35:54:513,0,6.73064,-8.42096,93.0749
2023-03-10 21:35:54:523,0,6.73016,-8.40873,93.0742
2023-03-10 21:35:54:533,0,6.72874,-8.39939,93.069
2023-03-10 21:35:54:543,0,6.7262,-8.39034,93.064
2023-03-10 21:35:54:553,0,6.72526,-8.38032,93.0546
2023-03-10 21:35:54:563,0,6.72928,-8.37195,93.038
2023-03-10 21:35:54:573,0,6.74098,-8.36599,93.0187
2023-03-10 21:35:54:583,0,6.76063,-8.36407,92.9992
2023-03-10 21:35:54:593,0,6.78236,-8.36167,92.9828
2023-03-10 21:35:54:603,0,6.80886,-8.36309,92.9632
2023-03-10 21:35:54:613,0,6.8354,-8.37045,92.9431
2023-03-10 21:35:54:623,0,6.85725,-8.37827,92.9281
2023-03-10 21:35:54:633,0,6.87999,-8.39089,92.9179
2023-03-10 21:35:54:643,0,6.90302,-8.40518,92.9057
2023-03-10 21:35:54:653,0,6.92386,-8.4162,92.892
2023-03-10 21:35:54:663,0,6.93741,-8.42809,92.8775
2023-03-10 21:35:54:673,0,6.95111,-8.43516,92.8665
2023-03-10 21:35:54:683,0,6.96374,-8.44365,92.8482
2023-03-10 21:35:54:693,0,6.97489,-8.44835,92.8264
2023-03-10 21:35:54:703,0,6.98259,-8.45116,92.8063
2023-03-10 21:35:54:713,0,6.99016,-8.45505,92.7806
2023-03-10 21:35:54:723,0,7.00007,-8.45637,92.7504
2023-03-10 21:35:54:733,0,7.00633,-8.45495,92.7162
2023-03-10 21:35:54:743,0,7.01184,-8.45272,92.6816
2023-03-10 21:35:54:753,0,7.01634,-8.45247,92.6452
2023-03-10 21:35:54:763,0,7.01417,-8.44546,92.6035
2023-03-10 21:35:54:773,0,7.01149,-8.43992,92.5585
2023-03-10 21:35:54:783,0,7.00694,-8.43429,92.5138
2023-03-10 21:35:54:793,0,6.9981,-8.42597,92.4632
2023-03-10 21:35:54:803,0,6.99023,-8.41881,92.4119
2023-03-10 21:35:54:812,0,6.9848,-8.41742,92.3562
2023-03-10 21:35:54:822,0,6.98038,-8.41492,92.2953
2023-03-10 21:35:54:832,0,6.98938,-8.41378,92.2307
2023-03-10 21:35:54:842,0,7.01184,-8.41527,92.163
2023-03-10 21:35:54:852,0,7.0475,-8.41896,92.0922
2023-03-10 21:35:54:862,0,7.09112,-8.42457,92.0167
2023-03-10 21:35:54:872,0,7.13309,-8.44043,91.9434
2023-03-10 21:35:54:882,0,7.17021,-8.46109,91.8749
2023-03-10 21:35:54:892,0,7.20643,-8.48436,91.8048
2023-03-10 21:35:54:902,0,7.24112,-8.51173,91.7401
2023-03-10 21:35:54:912,0,7.27304,-8.53953,91.6801
2023-03-10 21:35:54:922,0,7.29977,-8.56708,91.6208
2023-03-10 21:35:54:932,0,7.32638,-8.59544,91.564
2023-03-10 21:35:54:942,0,7.35286,-8.62537,91.5125
2023-03-10 21:35:54:952,0,7.37874,-8.65012,91.4648
2023-03-10 21:35:54:962,0,7.40236,-8.67325,91.421
2023-03-10 21:35:54:973,0,7.42058,-8.69333,91.3801
2023-03-10 21:35:54:982,0,7.43467,-8.71472,91.3504
2023-03-10 21:35:54:993,0,7.44701,-8.73012,91.3247
2023-03-10 21:35:55:3,0,7.45564,-8.7425,91.2961
2023-03-10 21:35:55:13,0,7.4662,-8.75315,91.2775
2023-03-10 21:35:55:23,0,7.47616,-8.76593,91.2627
2023-03-10 21:35:55:33,0,7.48009,-8.77735,91.2539
2023-03-10 21:35:55:43,0,7.47441,-8.78797,91.2469
2023-03-10 21:35:55:53,0,7.4642,-8.79665,91.2419
2023-03-10 21:35:55:63,0,7.45493,-8.8039,91.2427
2023-03-10 21:35:55:73,0,7.43888,-8.81038,91.2435
2023-03-10 21:35:55:83,0,7.41572,-8.81836,91.2439
2023-03-10 21:35:55:93,0,7.39353,-8.82599,91.246
2023-03-10 21:35:55:103,0,7.37048,-8.83735,91.246
2023-03-10 21:35:55:113,0,7.35088,-8.85211,91.2543
2023-03-10 21:35:55:123,0,7.33148,-8.86483,91.2604
2023-03-10 21:35:55:133,0,7.30985,-8.87428,91.2635
2023-03-10 21:35:55:143,0,7.29223,-8.88555,91.2622
2023-03-10 21:35:55:153,0,7.2723,-8.89446,91.2602
2023-03-10 21:35:55:163,0,7.25608,-8.89957,91.2578
2023-03-10 21:35:55:173,0,7.23731,-8.90258,91.2528
2023-03-10 21:35:55:183,0,7.21982,-8.90119,91.2444
2023-03-10 21:35:55:193,0,7.20172,-8.90289,91.2328
2023-03-10 21:35:55:203,0,7.18608,-8.90189,91.2168
2023-03-10 21:35:55:213,0,7.17223,-8.89865,91.2018
2023-03-10 21:35:55:223,0,7.15755,-8.89626,91.1852
2023-03-10 21:35:55:233,0,7.1405,-8.89197,91.1679
2023-03-10 21:35:55:243,0,7.12849,-8.88589,91.1479
2023-03-10 21:35:55:253,0,7.12382,-8.88274,91.1256
2023-03-10 21:35:55:263,0,7.12671,-8.88443,91.1013
2023-03-10 21:35:55:273,0,7.12805,-8.89271,91.08
2023-03-10 21:35:55:283,0,7.13127,-8.90158,91.0592
2023-03-10 21:35:55:293,0,7.13775,-8.91292,91.0334
2023-03-10 21:35:55:303,0,7.1486,-8.92305,91.0035
2023-03-10 21:35:55:313,0,7.16118,-8.93738,90.9708
2023-03-10 21:35:55:322,0,7.17808,-8.95092,90.9321
2023-03-10 21:35:55:332,0,7.19664,-8.96471,90.8911
2023-03-10 21:35:55:342,0,7.21281,-8.97357,90.8525
2023-03-10 21:35:55:352,0,7.2276,-8.98195,90.8109
2023-03-10 21:35:55:362,0,7.24038,-8.99072,90.7709
2023-03-10 21:35:55:372,0,7.24804,-9.00031,90.7286
2023-03-10 21:35:55:382,0,7.24991,-9.00494,90.6892
2023-03-10 21:35:55:392,0,7.25107,-8.99934,90.6502
2023-03-10 21:35:55:402,0,7.25228,-8.99464,90.6111
2023-03-10 21:35:55:412,0,7.25531,-8.99103,90.5729
2023-03-10 21:35:55:422,0,7.26672,-8.98429,90.5341
2023-03-10 21:35:55:432,0,7.27905,-8.97581,90.4923
2023-03-10 21:35:55:442,0,7.29099,-8.96758,90.4554
2023-03-10 21:35:55:452,0,7.30535,-8.96252,90.42
2023-03-10 21:35:55:462,0,7.318,-8.95734,90.3888
2023-03-10 21:35:55:472,0,7.33068,-8.9505,90.3614
2023-03-10 21:35:55:482,0,7.34008,-8.94911,90.3324
2023-03-10 21:35:55:492,0,7.34459,-8.94519,90.3052
2023-03-10 21:35:55:502,0,7.35087,-8.94977,90.2877
2023-03-10 21:35:55:512,0,7.35573,-8.95159,90.2643
2023-03-10 21:35:55:522,0,7.35844,-8.95629,90.2497
2023-03-10 21:35:55:532,0,7.36011,-8.95898,90.2386
2023-03-10 21:35:55:543,0,7.36124,-8.96181,90.2291
2023-03-10 21:35:55:552,0,7.36353,-8.9707,90.2207
2023-03-10 21:35:55:562,0,7.3604,-8.9776,90.2135
2023-03-10 21:35:55:572,0,7.35747,-8.98455,90.2103
2023-03-10 21:35:55:582,0,7.35032,-8.98949,90.2091
2023-03-10 21:35:55:592,0,7.34678,-8.99748,90.2111
2023-03-10 21:35:55:602,0,7.33515,-9.0032,90.2109
2023-03-10 21:35:55:612,0,7.32377,-9.00575,90.2141
2023-03-10 21:35:55:622,0,7.30812,-9.0116,90.2187
2023-03-10 21:35:55:632,0,7.29175,-9.01467,90.2214
2023-03-10 21:35:55:642,0,7.27769,-9.01813,90.2239
2023-03-10 21:35:55:652,0,7.25846,-9.01801,90.225
2023-03-10 21:35:55:662,0,7.24277,-9.01606,90.2219
2023-03-10 21:35:55:672,0,7.2279,-9.01388,90.2181
2023-03-10 21:35:55:682,0,7.21532,-9.00768,90.2104
2023-03-10 21:35:55:692,0,7.20688,-9.00347,90.2012
2023-03-10 21:35:55:702,0,7.1983,-8.99961,90.1892
2023-03-10 21:35:55:712,0,7.19277,-8.99628,90.1769
2023-03-10 21:35:55:722,0,7.18963,-8.99172,90.1608
2023-03-10 21:35:55:732,0,7.18211,-8.98997,90.146
2023-03-10 21:35:55:742,0,7.18047,-8.9863,90.132
2023-03-10 21:35:55:752,0,7.17349,-8.98156,90.119
2023-03-10 21:35:55:762,0,7.17073,-8.97829,90.1087
2023-03-10 21:35:55:772,0,7.16683,-8.97804,90.1004
2023-03-10 21:35:55:782,0,7.16795,-8.97972,90.0878
2023-03-10 21:35:55:792,0,7.17045,-8.98337,90.0782
2023-03-10 21:35:55:802,0,7.1706,-8.99401,90.0707
2023-03-10 21:35:55:812,0,7.17154,-9.00187,90.0665
2023-03-10 21:35:55:822,0,7.17485,-9.01138,90.0621
2023-03-10 21:35:55:832,0,7.1757,-9.02055,90.0613
2023-03-10 21:35:55:842,0,7.17631,-9.02565,90.0599
2023-03-10 21:35:55:852,0,7.17126,-9.03209,90.0622
2023-03-10 21:35:55:862,0,7.16341,-9.03736,90.068
2023-03-10 21:35:55:873,0,7.15533,-9.04472,90.0741
2023-03-10 21:35:55:882,0,7.14887,-9.05012,90.0847
2023-03-10 21:35:55:892,0,7.13974,-9.0546,90.0905
2023-03-10 21:35:55:903,0,7.1318,-9.05727,90.0996
2023-03-10 21:35:55:913,0,7.12281,-9.0558,90.106
2023-03-10 21:35:55:923,0,7.11906,-9.05521,90.1121
2023-03-10 21:35:55:933,0,7.11388,-9.05272,90.1105
2023-03-10 21:35:55:943,0,7.10706,-9.04992,90.1068
2023-03-10 21:35:55:953,0,7.09941,-9.04326,90.1028
2023-03-10 21:35:55:963,0,7.08792,-9.04261,90.0987
2023-03-10 21:35:55:973,0,7.07496,-9.03717,90.0956
2023-03-10 21:35:55:983,0,7.06655,-9.03359,90.0902
2023-03-10 21:35:55:993,0,7.05602,-9.03215,90.0862
2023-03-10 21:35:56:3,0,7.04933,-9.02719,90.0794
2023-03-10 21:35:56:13,0,7.04507,-9.02124,90.0739
2023-03-10 21:35:56:23,0,7.05099,-9.01229,90.06
2023-03-10 21:35:56:33,0,7.05793,-9.00667,90.052
2023-03-10 21:35:56:43,0,7.07056,-9.00533,90.0463
2023-03-10 21:35:56:53,0,7.08288,-9.01196,90.0443
2023-03-10 21:35:56:63,0,7.09532,-9.0155,90.04
2023-03-10 21:35:56:73,0,7.10566,-9.01919,90.0364
2023-03-10 21:35:56:83,0,7.11048,-9.02141,90.0367
2023-03-10 21:35:56:93,0,7.11953,-9.0231,90.0355
2023-03-10 21:35:56:103,0,7.12792,-9.02291,90.036
2023-03-10 21:35:56:113,0,7.13743,-9.02294,90.0398
2023-03-10 21:35:56:123,0,7.14669,-9.0214,90.0416
2023-03-10 21:35:56:133,0,7.15486,-9.0236,90.0464
2023-03-10 21:35:56:143,0,7.16853,-9.02528,90.0537
2023-03-10 21:35:56:153,0,7.18054,-9.02847,90.0581
2023-03-10 21:35:56:163,0,7.19115,-9.03577,90.0648
2023-03-10 21:35:56:173,0,7.20092,-9.04263,90.0677
2023-03-10 21:35:56:183,0,7.20927,-9.04898,90.0735
2023-03-10 21:35:56:193,0,7.21963,-9.05822,90.0792
2023-03-10 21:35:56:203,0,7.22717,-9.0677,90.0899
2023-03-10 21:35:56:213,0,7.23572,-9.07949,90.0991
2023-03-10 21:35:56:223,0,7.24393,-9.09344,90.106
2023-03-10 21:35:56:233,0,7.25375,-9.10416,90.1143
2023-03-10 21:35:56:243,0,7.26135,-9.11616,90.1224
2023-03-10 21:35:56:253,0,7.27088,-9.12326,90.1293
2023-03-10 21:35:56:263,0,7.27345,-9.13342,90.1423
2023-03-10 21:35:56:273,0,7.27227,-9.1416,90.1538
2023-03-10 21:35:56:283,0,7.27441,-9.14554,90.1617
2023-03-10 21:35:56:293,0,7.27224,-9.15083,90.1691
2023-03-10 21:35:56:303,0,7.26595,-9.15577,90.177
2023-03-10 21:35:56:313,0,7.26056,-9.15948,90.1811
2023-03-10 21:35:56:323,0,7.25457,-9.16408,90.1865
2023-03-10 21:35:56:333,0,7.24925,-9.16932,90.1896
2023-03-10 21:35:56:343,0,7.24551,-9.17265,90.1902
2023-03-10 21:35:56:353,0,7.24435,-9.17112,90.1877
2023-03-10 21:35:56:363,0,7.24791,-9.16596,90.182
2023-03-10 21:35:56:373,0,7.24917,-9.15861,90.1747
2023-03-10 21:35:56:383,0,7.2524,-9.14537,90.1634
2023-03-10 21:35:56:393,0,7.25416,-9.13175,90.1486
2023-03-10 21:35:56:403,0,7.25576,-9.11909,90.1333
2023-03-10 21:35:56:413,0,7.25553,-9.10732,90.1186
2023-03-10 21:35:56:423,0,7.25568,-9.09459,90.1041
2023-03-10 21:35:56:433,0,7.25581,-9.08556,90.0874
2023-03-10 21:35:56:443,0,7.25531,-9.07447,90.0761
2023-03-10 21:35:56:453,0,7.25366,-9.06463,90.0665
2023-03-10 21:35:56:463,0,7.25787,-9.0556,90.06
2023-03-10 21:35:56:473,0,7.25885,-9.04711,90.0546
2023-03-10 21:35:56:483,0,7.26029,-9.042,90.0503
2023-03-10 21:35:56:493,0,7.26016,-9.03554,90.0483
2023-03-10 21:35:56:503,0,7.26331,-9.03267,90.0484
2023-03-10 21:35:56:513,0,7.26173,-9.03125,90.0507
2023-03-10 21:35:56:523,0,7.25948,-9.02908,90.0525
2023-03-10 21:35:56:533,0,7.25354,-9.02619,90.0559
2023-03-10 21:35:56:543,0,7.24734,-9.02167,90.0612
2023-03-10 21:35:56:553,0,7.24347,-9.01832,90.0627
2023-03-10 21:35:56:563,0,7.23818,-9.01363,90.0624
2023-03-10 21:35:56:573,0,7.23619,-9.00951,90.0629
2023-03-10 21:35:56:583,0,7.23132,-9.00427,90.0613
2023-03-10 21:35:56:593,0,7.22741,-9.0,90.0562
2023-03-10 21:35:56:603,0,7.22291,-8.99483,90.0506
2023-03-10 21:35:56:613,0,7.22046,-8.9908,90.0428
2023-03-10 21:35:56:623,0,7.21806,-8.98879,90.0368
2023-03-10 21:35:56:633,0,7.21543,-8.99189,90.0285
2023-03-10 21:35:56:643,0,7.2111,-8.99259,90.0216
2023-03-10 21:35:56:653,0,7.2012,-8.99479,90.02
2023-03-10 21:35:56:663,0,7.19554,-9.0005,90.018
2023-03-10 21:35:56:673,0,7.18681,-8.99907,90.017
2023-03-10 21:35:56:683,0,7.17748,-8.99403,90.0164
2023-03-10 21:35:56:693,0,7.16404,-8.99046,90.0174
2023-03-10 21:35:56:703,0,7.15134,-8.9853,90.0177
2023-03-10 21:35:56:713,0,7.14204,-8.98115,90.0157
2023-03-10 21:35:56:723,0,7.1316,-8.98101,90.0115
2023-03-10 21:35:56:733,0,7.12389,-8.97872,90.0041
2023-03-10 21:35:56:743,0,7.11898,-8.97254,89.9941
2023-03-10 21:35:56:753,0,7.116,-8.97004,89.9854
2023-03-10 21:35:56:763,0,7.1122,-8.96823,89.9753
2023-03-10 21:35:56:773,0,7.10863,-8.96007,89.9686
2023-03-10 21:35:56:783,0,7.10584,-8.95487,89.9553
2023-03-10 21:35:56:793,0,7.10349,-8.94786,89.9431
2023-03-10 21:35:56:803,0,7.09888,-8.94044,89.9278
2023-03-10 21:35:56:813,0,7.09438,-8.93374,89.9142
2023-03-10 21:35:56:823,0,7.09366,-8.92805,89.9015
2023-03-10 21:35:56:833,0,7.09022,-8.92539,89.8902
2023-03-10 21:35:56:843,0,7.08765,-8.9165,89.8781
2023-03-10 21:35:56:853,0,7.08814,-8.90881,89.8619
2023-03-10 21:35:56:863,0,7.08866,-8.89743,89.8479
2023-03-10 21:35:56:873,0,7.09328,-8.89004,89.8311
2023-03-10 21:35:56:883,0,7.09809,-8.88884,89.8164
2023-03-10 21:35:56:893,0,7.10578,-8.88709,89.8037
2023-03-10 21:35:56:903,0,7.11333,-8.88642,89.7965
2023-03-10 21:35:56:913,0,7.11671,-8.88778,89.7933
2023-03-10 21:35:56:923,0,7.12068,-8.88608,89.7885
2023-03-10 21:35:56:933,0,7.11954,-8.88392,89.7852
2023-03-10 21:35:56:943,0,7.11924,-8.88081,89.7837
2023-03-10 21:35:56:953,0,7.12411,-8.88,89.7805
2023-03-10 21:35:56:963,0,7.13001,-8.88162,89.7813
2023-03-10 21:35:56:973,0,7.13612,-8.88602,89.7828
2023-03-10 21:35:56:983,0,7.14472,-8.89032,89.7833
2023-03-10 21:35:56:993,0,7.15393,-8.89899,89.785
2023-03-10 21:35:57:3,0,7.16529,-8.91166,89.7845
2023-03-10 21:35:57:13,0,7.17749,-8.92459,89.7861
2023-03-10 21:35:57:23,0,7.18795,-8.93592,89.7915
2023-03-10 21:35:57:33,0,7.1979,-8.9519,89.7991
2023-03-10 21:35:57:43,0,7.20123,-8.96676,89.8078
2023-03-10 21:35:57:53,0,7.2047,-8.97751,89.8199
2023-03-10 21:35:57:63,0,7.20605,-8.99115,89.8295
2023-03-10 21:35:57:73,0,7.21314,-9.00389,89.8369
2023-03-10 21:35:57:83,0,7.22189,-9.01113,89.8445
2023-03-10 21:35:57:93,0,7.23155,-9.01961,89.8501
2023-03-10 21:35:57:103,0,7.23761,-9.02217,89.8551
2023-03-10 21:35:57:113,0,7.24507,-9.0248,89.8619
2023-03-10 21:35:57:123,0,7.25332,-9.02679,89.8682
2023-03-10 21:35:57:133,0,7.25397,-9.0325,89.8746
2023-03-10 21:35:57:143,0,7.25409,-9.03719,89.8836
2023-03-10 21:35:57:153,0,7.2546,-9.04326,89.8884
2023-03-10 21:35:57:163,0,7.25105,-9.04775,89.8935
2023-03-10 21:35:57:173,0,7.2438,-9.05025,89.8978
2023-03-10 21:35:57:183,0,7.23691,-9.05188,89.9008
2023-03-10 21:35:57:193,0,7.234,-9.05386,89.8993
2023-03-10 21:35:57:203,0,7.22909,-9.05972,89.8987
2023-03-10 21:35:57:213,0,7.22521,-9.06226,89.894
2023-03-10 21:35:57:223,0,7.2233,-9.06757,89.8847
2023-03-10 21:35:57:233,0,7.22222,-9.06895,89.8761
2023-03-10 21:35:57:243,0,7.22168,-9.06589,89.8703
2023-03-10 21:35:57:253,0,7.22136,-9.06598,89.8681
2023-03-10 21:35:57:263,0,7.22363,-9.06449,89.8664
2023-03-10 21:35:57:273,0,7.22723,-9.05777,89.8693
2023-03-10 21:35:57:283,0,7.23041,-9.05388,89.8753
2023-03-10 21:35:57:293,0,7.22855,-9.04911,89.8861
2023-03-10 21:35:57:303,0,7.22517,-9.0434,89.8944
2023-03-10 21:35:57:313,0,7.22101,-9.0377,89.9029
2023-03-10 21:35:57:323,0,7.2129,-9.03992,89.9115
2023-03-10 21:35:57:333,0,7.20746,-9.04369,89.9197
2023-03-10 21:35:57:343,0,7.20602,-9.04804,89.9256
2023-03-10 21:35:57:353,0,7.20113,-9.05514,89.9282
2023-03-10 21:35:57:363,0,7.19845,-9.06067,89.9308
2023-03-10 21:35:57:373,0,7.19613,-9.06459,89.9305
2023-03-10 21:35:57:383,0,7.18978,-9.06825,89.9264
2023-03-10 21:35:57:393,0,7.18514,-9.07354,89.9224
2023-03-10 21:35:57:403,0,7.17406,-9.07759,89.9253
2023-03-10 21:35:57:413,0,7.15901,-9.08608,89.9247
2023-03-10 21:35:57:423,0,7.14327,-9.09637,89.9277
2023-03-10 21:35:57:433,0,7.12867,-9.10238,89.9303
2023-03-10 21:35:57:443,0,7.12013,-9.10905,89.9348
2023-03-10 21:35:57:453,0,7.11796,-9.11415,89.9368
2023-03-10 21:35:57:463,0,7.11895,-9.11984,89.9361
2023-03-10 21:35:57:473,0,7.12023,-9.12119,89.9335
2023-03-10 21:35:57:483,0,7.12898,-9.12291,89.9306
2023-03-10 21:35:57:493,0,7.13501,-9.12476,89.9244
2023-03-10 21:35:57:503,0,7.14203,-9.12776,89.9153
2023-03-10 21:35:57:513,0,7.14477,-9.12807,89.9116
2023-03-10 21:35:57:523,0,7.14623,-9.12432,89.9026
2023-03-10 21:35:57:533,0,7.1504,-9.12078,89.8937
2023-03-10 21:35:57:543,0,7.15673,-9.12359,89.8897
2023-03-10 21:35:57:553,0,7.16542,-9.12921,89.8815
2023-03-10 21:35:57:563,0,7.17086,-9.14152,89.8804
2023-03-10 21:35:57:573,0,7.16961,-9.15309,89.8854
2023-03-10 21:35:57:583,0,7.1699,-9.16581,89.8906
2023-03-10 21:35:57:593,0,7.16811,-9.17152,89.8997
2023-03-10 21:35:57:603,0,7.16078,-9.18054,89.9095
2023-03-10 21:35:57:613,0,7.15237,-9.18876,89.9187
2023-03-10 21:35:57:623,0,7.14352,-9.19447,89.9255
2023-03-10 21:35:57:633,0,7.13626,-9.19856,89.9327
2023-03-10 21:35:57:643,0,7.13013,-9.20537,89.9401
2023-03-10 21:35:57:653,0,7.12339,-9.21029,89.9481
2023-03-10 21:35:57:663,0,7.1203,-9.21815,89.9535
2023-03-10 21:35:57:673,0,7.11922,-9.22199,89.9554
2023-03-10 21:35:57:683,0,7.11447,-9.22688,89.9599
2023-03-10 21:35:57:693,0,7.11474,-9.22933,89.9645
2023-03-10 21:35:57:703,0,7.10724,-9.22692,89.9698
2023-03-10 21:35:57:713,0,7.10075,-9.22881,89.9726
2023-03-10 21:35:57:723,0,7.0961,-9.23004,89.9738
2023-03-10 21:35:57:733,0,7.09256,-9.22832,89.9762
2023-03-10 21:35:57:743,0,7.09217,-9.23071,89.9796
2023-03-10 21:35:57:753,0,7.08867,-9.23705,89.9821
2023-03-10 21:35:57:763,0,7.08781,-9.24279,89.9851
2023-03-10 21:35:57:773,0,7.08768,-9.2426,89.9886
2023-03-10 21:35:57:783,0,7.08591,-9.24032,89.9874
2023-03-10 21:35:57:793,0,7.08779,-9.2374,89.9859
2023-03-10 21:35:57:803,0,7.09055,-9.2384,89.9877
2023-03-10 21:35:57:813,0,7.09501,-9.24365,89.992
2023-03-10 21:35:57:823,0,7.09506,-9.25162,89.9985
2023-03-10 21:35:57:833,0,7.09403,-9.25713,90.0035
2023-03-10 21:35:57:843,0,7.09447,-9.25993,90.0097
2023-03-10 21:35:57:853,0,7.09322,-9.25607,90.018
2023-03-10 21:35:57:863,0,7.09045,-9.25677,90.0252
2023-03-10 21:35:57:873,0,7.0873,-9.25466,90.0298
2023-03-10 21:35:57:883,0,7.08445,-9.25756,90.0325
2023-03-10 21:35:57:893,0,7.07934,-9.25954,90.0374
2023-03-10 21:35:57:903,0,7.07275,-9.26255,90.0395
2023-03-10 21:35:57:913,0,7.06895,-9.26717,90.0397
2023-03-10 21:35:57:923,0,7.0662,-9.26996,90.0431
2023-03-10 21:35:57:933,0,7.06368,-9.28341,90.0446
2023-03-10 21:35:57:943,0,7.06502,-9.29248,90.0485
2023-03-10 21:35:57:953,0,7.06389,-9.29818,90.0552
2023-03-10 21:35:57:963,0,7.06438,-9.306,90.061
2023-03-10 21:35:57:973,0,7.06004,-9.31511,90.0693
2023-03-10 21:35:57:983,0,7.05664,-9.32265,90.0781
2023-03-10 21:35:57:993,0,7.05532,-9.32821,90.0887
2023-03-10 21:35:58:3,0,7.05793,-9.33448,90.099
2023-03-10 21:35:58:13,0,7.05826,-9.34395,90.1123
2023-03-10 21:35:58:23,0,7.06092,-9.35372,90.1242
2023-03-10 21:35:58:33,0,7.06327,-9.35907,90.1362
2023-03-10 21:35:58:43,0,7.06868,-9.3644,90.1477
2023-03-10 21:35:58:53,0,7.06956,-9.36875,90.1552
2023-03-10 21:35:58:63,0,7.06695,-9.36907,90.1642
2023-03-10 21:35:58:73,0,7.0629,-9.36854,90.1693
2023-03-10 21:35:58:83,0,7.05458,-9.3643,90.1756
2023-03-10 21:35:58:93,0,7.04289,-9.35755,90.1837
2023-03-10 21:35:58:103,0,7.02638,-9.35073,90.1928
2023-03-10 21:35:58:113,0,7.00516,-9.34611,90.1967
2023-03-10 21:35:58:123,0,6.9836,-9.34238,90.1984
2023-03-10 21:35:58:133,0,6.96351,-9.34223,90.2012
2023-03-10 21:35:58:143,0,6.94991,-9.34323,90.2009
2023-03-10 21:35:58:153,0,6.94216,-9.34683,90.198
2023-03-10 21:35:58:163,0,6.93939,-9.35159,90.1914
2023-03-10 21:35:58:173,0,6.94119,-9.35461,90.1856
2023-03-10 21:35:58:183,0,6.94032,-9.35894,90.1817
2023-03-10 21:35:58:193,0,6.93819,-9.36425,90.1784
2023-03-10 21:35:58:203,0,6.9353,-9.36801,90.1802
2023-03-10 21:35:58:213,0,6.93333,-9.37154,90.1821
2023-03-10 21:35:58:223,0,6.93008,-9.37178,90.1832
2023-03-10 21:35:58:233,0,6.93431,-9.37655,90.1825
2023-03-10 21:35:58:243,0,6.94136,-9.3748,90.1869
2023-03-10 21:35:58:253,0,6.95721,-9.37751,90.1872
2023-03-10 21:35:58:263,0,6.97339,-9.38427,90.1865
2023-03-10 21:35:58:273,0,6.98631,-9.39071,90.1863
2023-03-10 21:35:58:283,0,6.99797,-9.39505,90.1902
2023-03-10 21:35:58:293,0,7.007,-9.40227,90.1976
2023-03-10 21:35:58:303,0,7.01239,-9.41009,90.209
2023-03-10 21:35:58:313,0,7.01757,-9.41472,90.2246
2023-03-10 21:35:58:323,0,7.0225,-9.41728,90.2427
2023-03-10 21:35:58:333,0,7.02113,-9.41931,90.2629
2023-03-10 21:35:58:343,0,7.02103,-9.42075,90.277
2023-03-10 21:35:58:353,0,7.02023,-9.42084,90.2884
2023-03-10 21:35:58:363,0,7.01955,-9.42192,90.2947
2023-03-10 21:35:58:373,0,7.01954,-9.42344,90.3
2023-03-10 21:35:58:383,0,7.01387,-9.4241,90.3014
2023-03-10 21:35:58:393,0,7.00786,-9.42599,90.2944
2023-03-10 21:35:58:403,0,7.00032,-9.4273,90.2863
2023-03-10 21:35:58:413,0,6.99257,-9.42972,90.2737
2023-03-10 21:35:58:423,0,6.98317,-9.42988,90.2584
2023-03-10 21:35:58:433,0,6.978,-9.42791,90.2452
2023-03-10 21:35:58:443,0,6.97561,-9.43161,90.2347
2023-03-10 21:35:58:453,0,6.97397,-9.43533,90.2262
2023-03-10 21:35:58:463,0,6.97541,-9.44062,90.2181
2023-03-10 21:35:58:473,0,6.97407,-9.44213,90.2131
2023-03-10 21:35:58:483,0,6.97402,-9.44639,90.2059
2023-03-10 21:35:58:493,0,6.97724,-9.44395,90.198
2023-03-10 21:35:58:503,0,6.9769,-9.44322,90.1943
2023-03-10 21:35:58:513,0,6.97888,-9.43886,90.1932
2023-03-10 21:35:58:523,0,6.97753,-9.43756,90.191
2023-03-10 21:35:58:533,0,6.97624,-9.4377,90.1901
2023-03-10 21:35:58:543,0,6.97294,-9.43873,90.1897
2023-03-10 21:35:58:553,0,6.97114,-9.43749,90.1923
2023-03-10 21:35:58:563,0,6.96872,-9.43838,90.1952
2023-03-10 21:35:58:573,0,6.96264,-9.43744,90.1998
2023-03-10 21:35:58:583,0,6.9579,-9.43365,90.2037
2023-03-10 21:35:58:593,0,6.95586,-9.43,90.2123
2023-03-10 21:35:58:603,0,6.94951,-9.42926,90.2129
2023-03-10 21:35:58:613,0,6.94728,-9.42736,90.2125
2023-03-10 21:35:58:623,0,6.94417,-9.42492,90.2106
2023-03-10 21:35:58:633,0,6.94198,-9.42334,90.2052
2023-03-10 21:35:58:643,0,6.94081,-9.42169,90.2018
2023-03-10 21:35:58:653,0,6.93869,-9.42145,90.195
2023-03-10 21:35:58:663,0,6.93621,-9.42269,90.1898
2023-03-10 21:35:58:673,0,6.93638,-9.41866,90.1837
2023-03-10 21:35:58:683,0,6.9415,-9.41542,90.1757
2023-03-10 21:35:58:693,0,6.94697,-9.41306,90.1677
2023-03-10 21:35:58:703,0,6.95277,-9.41203,90.1623
2023-03-10 21:35:58:713,0,6.95513,-9.41674,90.1626
2023-03-10 21:35:58:723,0,6.96164,-9.41845,90.1681
2023-03-10 21:35:58:733,0,6.96761,-9.419,90.1704
2023-03-10 21:35:58:743,0,6.97099,-9.41711,90.1718
2023-03-10 21:35:58:753,0,6.97646,-9.41675,90.176
2023-03-10 21:35:58:763,0,6.98004,-9.41681,90.1781
2023-03-10 21:35:58:773,0,6.98212,-9.41807,90.1793
2023-03-10 21:35:58:783,0,6.98141,-9.41869,90.1825
2023-03-10 21:35:58:793,0,6.97764,-9.42044,90.1884
2023-03-10 21:35:58:803,0,6.97652,-9.42134,90.1874
2023-03-10 21:35:58:813,0,6.97492,-9.4272,90.1868
2023-03-10 21:35:58:823,0,6.97306,-9.42821,90.1873
2023-03-10 21:35:58:833,0,6.97247,-9.43029,90.1882
2023-03-10 21:35:58:843,0,6.97347,-9.44188,90.1922
2023-03-10 21:35:58:853,0,6.97065,-9.44746,90.1971
2023-03-10 21:35:58:863,0,6.9719,-9.44691,90.2007
2023-03-10 21:35:58:873,0,6.9744,-9.44431,90.204
2023-03-10 21:35:58:883,0,6.97511,-9.44377,90.2051
2023-03-10 21:35:58:893,0,6.97728,-9.44317,90.2119
2023-03-10 21:35:58:903,0,6.97341,-9.44446,90.218
2023-03-10 21:35:58:913,0,6.96873,-9.44797,90.2227
2023-03-10 21:35:58:923,0,6.95899,-9.45072,90.2305
2023-03-10 21:35:58:933,0,6.95025,-9.45243,90.2376
2023-03-10 21:35:58:943,0,6.94219,-9.45295,90.2489
2023-03-10 21:35:58:953,0,6.936,-9.45516,90.2536
2023-03-10 21:35:58:963,0,6.93363,-9.45674,90.256
2023-03-10 21:35:58:973,0,6.92989,-9.45542,90.2556
2023-03-10 21:35:58:983,0,6.92523,-9.45539,90.2539
2023-03-10 21:35:58:993,0,6.9213,-9.45277,90.257
2023-03-10 21:35:59:3,0,6.91621,-9.45412,90.2578
2023-03-10 21:35:59:13,0,6.90985,-9.45231,90.26
2023-03-10 21:35:59:23,0,6.90265,-9.45119,90.2632
2023-03-10 21:35:59:33,0,6.89564,-9.4501,90.2614
2023-03-10 21:35:59:43,0,6.89566,-9.45119,90.26
2023-03-10 21:35:59:52,0,6.8974,-9.44913,90.257
2023-03-10 21:35:59:62,0,6.90648,-9.44587,90.2542
2023-03-10 21:35:59:72,0,6.91553,-9.44382,90.2497
2023-03-10 21:35:59:82,0,6.92311,-9.43938,90.2481
2023-03-10 21:35:59:92,0,6.92547,-9.43464,90.2464
2023-03-10 21:35:59:102,0,6.92827,-9.43117,90.246
2023-03-10 21:35:59:112,0,6.93363,-9.42717,90.2469
2023-03-10 21:35:59:122,0,6.93383,-9.42276,90.2505
2023-03-10 21:35:59:132,0,6.93203,-9.42064,90.2589
2023-03-10 21:35:59:142,0,6.93441,-9.4218,90.2635
2023-03-10 21:35:59:152,0,6.93533,-9.42142,90.268
2023-03-10 21:35:59:162,0,6.93905,-9.42676,90.2729
2023-03-10 21:35:59:172,0,6.94268,-9.43289,90.2768
2023-03-10 21:35:59:182,0,6.94351,-9.43916,90.285
2023-03-10 21:35:59:192,0,6.9488,-9.4406,90.2902
2023-03-10 21:35:59:202,0,6.9487,-9.44563,90.2996
2023-03-10 21:35:59:212,0,6.94832,-9.45174,90.3086
2023-03-10 21:35:59:222,0,6.94845,-9.45699,90.3182
2023-03-10 21:35:59:232,0,6.94505,-9.46092,90.3259
2023-03-10 21:35:59:242,0,6.94212,-9.4642,90.334
2023-03-10 21:35:59:253,0,6.93886,-9.46413,90.3408
2023-03-10 21:35:59:263,0,6.93737,-9.46633,90.347
2023-03-10 21:35:59:273,0,6.93606,-9.46474,90.3478
2023-03-10 21:35:59:283,0,6.9349,-9.46235,90.3512
2023-03-10 21:35:59:293,0,6.93526,-9.45772,90.3465
2023-03-10 21:35:59:303,0,6.9389,-9.4545,90.3398
2023-03-10 21:35:59:313,0,6.93939,-9.45114,90.3256
2023-03-10 21:35:59:323,0,6.94053,-9.44927,90.3139
2023-03-10 21:35:59:333,0,6.94304,-9.44648,90.3016
2023-03-10 21:35:59:343,0,6.94781,-9.45078,90.2901
2023-03-10 21:35:59:353,0,6.95476,-9.45746,90.2851
2023-03-10 21:35:59:363,0,6.95543,-9.46563,90.2858
2023-03-10 21:35:59:373,0,6.95712,-9.47363,90.2859
2023-03-10 21:35:59:383,0,6.95784,-9.47647,90.2899
2023-03-10 21:35:59:393,0,6.95863,-9.479,90.2971
2023-03-10 21:35:59:403,0,6.96006,-9.48004,90.3048
2023-03-10 21:35:59:413,0,6.9607,-9.48388,90.3132
2023-03-10 21:35:59:423,0,6.96379,-9.48568,90.3212
2023-03-10 21:35:59:433,0,6.9685,-9.48992,90.3267
2023-03-10 21:35:59:443,0,6.97414,-9.49087,90.3339
2023-03-10 21:35:59:453,0,6.97639,-9.48985,90.3355
2023-03-10 21:35:59:463,0,6.97887,-9.49068,90.3385
2023-03-10 21:35:59:473,0,6.98041,-9.48949,90.339
2023-03-10 21:35:59:483,0,6.97598,-9.48633,90.3449
2023-03-10 21:35:59:493,0,6.97173,-9.48073,90.3475
2023-03-10 21:35:59:503,0,6.96755,-9.47508,90.3516
2023-03-10 21:35:59:513,0,6.9604,-9.46971,90.357
2023-03-10 21:35:59:523,0,6.96145,-9.46381,90.355
2023-03-10 21:35:59:533,0,6.96103,-9.45852,90.3551
2023-03-10 21:35:59:542,0,6.9629,-9.45576,90.3529
2023-03-10 21:35:59:552,0,6.9651,-9.45396,90.3488
2023-03-10 21:35:59:562,0,6.96453,-9.45435,90.3428
2023-03-10 21:35:59:572,0,6.96475,-9.45124,90.3395
2023-03-10 21:35:59:582,0,6.96719,-9.44622,90.3292
2023-03-10 21:35:59:592,0,6.97364,-9.43869,90.3219
2023-03-10 21:35:59:602,0,6.98432,-9.43467,90.317
2023-03-10 21:35:59:612,0,6.99757,-9.43576,90.3129
2023-03-10 21:35:59:622,0,7.01023,-9.43721,90.313
2023-03-10 21:35:59:632,0,7.02078,-9.4385,90.3127
2023-03-10 21:35:59:642,0,7.03136,-9.43556,90.3124
2023-03-10 21:35:59:652,0,7.03739,-9.43259,90.3118
2023-03-10 21:35:59:662,0,7.0442,-9.4304,90.3126
2023-03-10 21:35:59:672,0,7.04697,-9.42607,90.3122
2023-03-10 21:35:59:682,0,7.04803,-9.42237,90.3146
2023-03-10 21:35:59:692,0,7.04657,-9.42134,90.3133
2023-03-10 21:35:59:702,0,7.04431,-9.42111,90.3133
2023-03-10 21:35:59:712,0,7.04067,-9.42357,90.3126
2023-03-10 21:35:59:722,0,7.03594,-9.42489,90.3103
2023-03-10 21:35:59:732,0,7.02954,-9.42864,90.3117
2023-03-10 21:35:59:742,0,7.0254,-9.43224,90.3122
2023-03-10 21:35:59:752,0,7.02329,-9.43216,90.3108
2023-03-10 21:35:59:762,0,7.02054,-9.43383,90.3128
2023-03-10 21:35:59:772,0,7.01384,-9.43757,90.3155
2023-03-10 21:35:59:782,0,7.00942,-9.43957,90.3209
2023-03-10 21:35:59:792,0,7.00353,-9.44382,90.3197
2023-03-10 21:35:59:802,0,6.99736,-9.44923,90.3216
2023-03-10 21:35:59:812,0,6.99179,-9.45526,90.3235
2023-03-10 21:35:59:822,0,6.98771,-9.46131,90.3248
2023-03-10 21:35:59:832,0,6.98115,-9.46418,90.3246
2023-03-10 21:35:59:842,0,6.97801,-9.46531,90.3235
2023-03-10 21:35:59:852,0,6.97403,-9.46566,90.3226
2023-03-10 21:35:59:862,0,6.96828,-9.46669,90.3203
2023-03-10 21:35:59:872,0,6.95969,-9.46816,90.3181
2023-03-10 21:35:59:882,0,6.94861,-9.46719,90.3207
2023-03-10 21:35:59:892,0,6.93745,-9.46527,90.3256
2023-03-10 21:35:59:902,0,6.92584,-9.46634,90.3295
2023-03-10 21:35:59:912,0,6.91382,-9.46423,90.3307
2023-03-10 21:35:59:922,0,6.90363,-9.46181,90.3321
2023-03-10 21:35:59:932,0,6.88889,-9.457,90.3341
2023-03-10 21:35:59:942,0,6.87824,-9.45443,90.3399
2023-03-10 21:35:59:952,0,6.8698,-9.44991,90.3452
2023-03-10 21:35:59:962,0,6.86069,-9.44517,90.3454
2023-03-10 21:35:59:972,0,6.85216,-9.44211,90.3455
2023-03-10 21:35:59:982,0,6.84372,-9.43582,90.3455
2023-03-10 21:35:59:992,0,6.84165,-9.42981,90.3421
2023-03-10 21:36:00:2,0,6.84293,-9.42611,90.3392
2023-03-10 21:36:00:12,0,6.84402,-9.42366,90.3325
2023-03-10 21:36:00:22,0,6.84321,-9.42754,90.3291
2023-03-10 21:36:00:32,0,6.84038,-9.43029,90.3236
2023-03-10 21:36:00:42,0,6.84184,-9.43717,90.3248
2023-03-10 21:36:00:52,0,6.8423,-9.44377,90.323
2023-03-10 21:36:00:62,0,6.84538,-9.44967,90.3234
2023-03-10 21:36:00:72,0,6.84595,-9.46143,90.3289
2023-03-10 21:36:00:82,0,6.84764,-9.47105,90.3299
2023-03-10 21:36:00:93,0,6.84459,-9.47825,90.3357
2023-03-10 21:36:00:103,0,6.84156,-9.48949,90.3422
2023-03-10 21:36:00:113,0,6.83702,-9.50214,90.3471
2023-03-10 21:36:00:123,0,6.83004,-9.51609,90.3522
2023-03-10 21:36:00:133,0,6.82673,-9.52832,90.3574
2023-03-10 21:36:00:143,0,6.82306,-9.53568,90.3645
2023-03-10 21:36:00:153,0,6.82146,-9.54503,90.3711
2023-03-10 21:36:00:163,0,6.82108,-9.55351,90.3768
2023-03-10 21:36:00:173,0,6.82464,-9.5583,90.3809
2023-03-10 21:36:00:183,0,6.82514,-9.56149,90.3795
2023-03-10 21:36:00:193,0,6.82537,-9.56016,90.3813
2023-03-10 21:36:00:203,0,6.82722,-9.56187,90.3767
2023-03-10 21:36:00:213,0,6.83151,-9.56101,90.3722
2023-03-10 21:36:00:223,0,6.83507,-9.55709,90.3657
2023-03-10 21:36:00:233,0,6.8355,-9.55356,90.3557
2023-03-10 21:36:00:243,0,6.83741,-9.55006,90.3457
2023-03-10 21:36:00:253,0,6.84207,-9.54949,90.3358
2023-03-10 21:36:00:263,0,6.84854,-9.5492,90.3295
2023-03-10 21:36:00:273,0,6.85449,-9.55304,90.3288
2023-03-10 21:36:00:283,0,6.85989,-9.56862,90.3299
2023-03-10 21:36:00:293,0,6.85748,-9.57745,90.3312
2023-03-10 21:36:00:303,0,6.85696,-9.58511,90.3367
2023-03-10 21:36:00:313,0,6.86021,-9.59049,90.3399
2023-03-10 21:36:00:323,0,6.86108,-9.59894,90.3485
2023-03-10 21:36:00:333,0,6.86412,-9.60593,90.3559
2023-03-10 21:36:00:343,0,6.86666,-9.61544,90.368
2023-03-10 21:36:00:353,0,6.86819,-9.62311,90.3789
2023-03-10 21:36:00:363,0,6.86927,-9.63394,90.3893
2023-03-10 21:36:00:373,0,6.86798,-9.63953,90.3982
2023-03-10 21:36:00:383,0,6.87082,-9.64375,90.4056
2023-03-10 21:36:00:393,0,6.87463,-9.64311,90.4135
2023-03-10 21:36:00:403,0,6.87646,-9.64302,90.4143
2023-03-10 21:36:00:413,0,6.87848,-9.64587,90.415
2023-03-10 21:36:00:423,0,6.88028,-9.64777,90.4165
2023-03-10 21:36:00:433,0,6.8846,-9.6481,90.4159
2023-03-10 21:36:00:443,0,6.88524,-9.64817,90.4108
2023-03-10 21:36:00:453,0,6.88857,-9.64544,90.402
2023-03-10 21:36:00:463,0,6.891,-9.64787,90.3942
2023-03-10 21:36:00:473,0,6.89601,-9.64893,90.3905
2023-03-10 21:36:00:483,0,6.89621,-9.64852,90.382
2023-03-10 21:36:00:493,0,6.89599,-9.6515,90.3757
2023-03-10 21:36:00:503,0,6.89858,-9.64777,90.3709
2023-03-10 21:36:00:513,0,6.90369,-9.64101,90.3663
2023-03-10 21:36:00:523,0,6.91284,-9.64077,90.3654
2023-03-10 21:36:00:533,0,6.92043,-9.64053,90.3701
2023-03-10 21:36:00:543,0,6.92628,-9.64483,90.3745
2023-03-10 21:36:00:553,0,6.92805,-9.64754,90.385
2023-03-10 21:36:00:563,0,6.93128,-9.64942,90.392
2023-03-10 21:36:00:573,0,6.93151,-9.64891,90.4002
2023-03-10 21:36:00:583,0,6.93301,-9.65038,90.4076
2023-03-10 21:36:00:593,0,6.93638,-9.65076,90.416
2023-03-10 21:36:00:603,0,6.93689,-9.65048,90.4211
2023-03-10 21:36:00:613,0,6.93679,-9.65194,90.4236
2023-03-10 21:36:00:623,0,6.93793,-9.64997,90.4246
2023-03-10 21:36:00:633,0,6.93584,-9.65044,90.4248
2023-03-10 21:36:00:643,0,6.93263,-9.65386,90.4223
2023-03-10 21:36:00:653,0,6.93109,-9.6583,90.4179
2023-03-10 21:36:00:663,0,6.92959,-9.66422,90.4121
2023-03-10 21:36:00:673,0,6.92967,-9.6712,90.4145
2023-03-10 21:36:00:683,0,6.9292,-9.67852,90.42
2023-03-10 21:36:00:693,0,6.92857,-9.68602,90.4216
2023-03-10 21:36:00:703,0,6.92754,-9.69211,90.43
2023-03-10 21:36:00:713,0,6.92533,-9.69713,90.4385
2023-03-10 21:36:00:723,0,6.92355,-9.70235,90.4469
2023-03-10 21:36:00:733,0,6.91943,-9.70817,90.4596
2023-03-10 21:36:00:743,0,6.91387,-9.71179,90.4701
2023-03-10 21:36:00:753,0,6.90881,-9.71506,90.4801
2023-03-10 21:36:00:763,0,6.90232,-9.71342,90.4905
2023-03-10 21:36:00:773,0,6.89287,-9.71223,90.4944
2023-03-10 21:36:00:783,0,6.88307,-9.71242,90.4968
2023-03-10 21:36:00:793,0,6.87386,-9.71301,90.4992
2023-03-10 21:36:00:803,0,6.86666,-9.70989,90.499
2023-03-10 21:36:00:813,0,6.85744,-9.70817,90.4975
2023-03-10 21:36:00:823,0,6.8538,-9.70221,90.4945
2023-03-10 21:36:00:833,0,6.85249,-9.69836,90.489
2023-03-10 21:36:00:843,0,6.84951,-9.69263,90.4822
2023-03-10 21:36:00:853,0,6.85024,-9.6914,90.4764
2023-03-10 21:36:00:863,0,6.85326,-9.68601,90.4719
2023-03-10 21:36:00:873,0,6.85697,-9.6823,90.4635
2023-03-10 21:36:00:883,0,6.8611,-9.6799,90.4565
2023-03-10 21:36:00:892,0,6.8647,-9.67611,90.4507
2023-03-10 21:36:00:903,0,6.86379,-9.67081,90.4481
2023-03-10 21:36:00:913,0,6.86113,-9.66766,90.4476
2023-03-10 21:36:00:922,0,6.85729,-9.66295,90.451
2023-03-10 21:36:00:933,0,6.85642,-9.66156,90.4484
2023-03-10 21:36:00:943,0,6.85593,-9.66043,90.451
2023-03-10 21:36:00:952,0,6.85537,-9.65916,90.4552
2023-03-10 21:36:00:963,0,6.85677,-9.66104,90.4596
2023-03-10 21:36:00:973,0,6.85825,-9.66473,90.465
2023-03-10 21:36:00:983,0,6.8567,-9.67178,90.4696
2023-03-10 21:36:00:993,0,6.85563,-9.67758,90.4768
2023-03-10 21:36:01:2,0,6.85068,-9.68348,90.4867
2023-03-10 21:36:01:13,0,6.84614,-9.68981,90.4941
2023-03-10 21:36:01:22,0,6.83946,-9.69597,90.504
2023-03-10 21:36:01:33,0,6.83711,-9.70345,90.5097
2023-03-10 21:36:01:42,0,6.83352,-9.70859,90.5169
2023-03-10 21:36:01:52,0,6.83212,-9.71406,90.5241
2023-03-10 21:36:01:63,0,6.83095,-9.71823,90.5317
2023-03-10 21:36:01:73,0,6.83503,-9.71849,90.535
2023-03-10 21:36:01:83,0,6.84169,-9.71864,90.5383
2023-03-10 21:36:01:93,0,6.84403,-9.72189,90.5392
2023-03-10 21:36:01:103,0,6.84457,-9.71981,90.54
2023-03-10 21:36:01:113,0,6.84926,-9.71862,90.5416
2023-03-10 21:36:01:123,0,6.85691,-9.71479,90.5385
2023-03-10 21:36:01:133,0,6.86146,-9.70437,90.5355
2023-03-10 21:36:01:143,0,6.86756,-9.69867,90.5324
2023-03-10 21:36:01:153,0,6.87556,-9.69611,90.5305
2023-03-10 21:36:01:163,0,6.88408,-9.69601,90.5309
2023-03-10 21:36:01:173,0,6.8915,-9.70096,90.5303
2023-03-10 21:36:01:183,0,6.89518,-9.70626,90.533
2023-03-10 21:36:01:193,0,6.89728,-9.71254,90.5378
2023-03-10 21:36:01:203,0,6.89856,-9.71509,90.5389
2023-03-10 21:36:01:213,0,6.90364,-9.71942,90.5393
2023-03-10 21:36:01:223,0,6.90595,-9.71896,90.5419
2023-03-10 21:36:01:233,0,6.90749,-9.72011,90.5444
2023-03-10 21:36:01:243,0,6.90524,-9.72432,90.548
2023-03-10 21:36:01:253,0,6.90395,-9.72981,90.555
2023-03-10 21:36:01:263,0,6.89966,-9.73409,90.5583
2023-03-10 21:36:01:273,0,6.89402,-9.73558,90.5658
2023-03-10 21:36:01:283,0,6.88823,-9.73663,90.5766
2023-03-10 21:36:01:293,0,6.88044,-9.73133,90.5873
2023-03-10 21:36:01:303,0,6.87458,-9.73024,90.5964
2023-03-10 21:36:01:313,0,6.86556,-9.72171,90.6029
2023-03-10 21:36:01:323,0,6.85954,-9.71537,90.609
2023-03-10 21:36:01:333,0,6.85472,-9.71087,90.6115
2023-03-10 21:36:01:343,0,6.85035,-9.71017,90.6096
2023-03-10 21:36:01:353,0,6.84616,-9.7091,90.6087
2023-03-10 21:36:01:363,0,6.84784,-9.70573,90.6041
2023-03-10 21:36:01:373,0,6.85048,-9.7085,90.5988
2023-03-10 21:36:01:383,0,6.84792,-9.70597,90.5973
2023-03-10 21:36:01:393,0,6.84484,-9.70037,90.5933
2023-03-10 21:36:01:403,0,6.8398,-9.69301,90.5915
2023-03-10 21:36:01:413,0,6.83846,-9.68672,90.5923
2023-03-10 21:36:01:423,0,6.83951,-9.68774,90.6014
2023-03-10 21:36:01:433,0,6.84031,-9.68869,90.6157
2023-03-10 21:36:01:443,0,6.83994,-9.68678,90.6264
2023-03-10 21:36:01:453,0,6.83975,-9.68453,90.6362
2023-03-10 21:36:01:463,0,6.83771,-9.6803,90.6474
2023-03-10 21:36:01:473,0,6.83038,-9.67746,90.6645
2023-03-10 21:36:01:483,0,6.81554,-9.68221,90.6854
2023-03-10 21:36:01:493,0,6.79533,-9.69614,90.7073
2023-03-10 21:36:01:503,0,6.7741,-9.71477,90.7328
2023-03-10 21:36:01:513,0,6.76009,-9.73503,90.7545
2023-03-10 21:36:01:523,0,6.75915,-9.75431,90.771
2023-03-10 21:36:01:533,0,6.77185,-9.76768,90.7801
2023-03-10 21:36:01:543,0,6.79594,-9.76491,90.7737
2023-03-10 21:36:01:553,0,6.83558,-9.75779,90.7543
2023-03-10 21:36:01:563,0,6.88194,-9.74688,90.7225
2023-03-10 21:36:01:573,0,6.92955,-9.7326,90.6859
2023-03-10 21:36:01:583,0,6.97903,-9.71402,90.6495
2023-03-10 21:36:01:593,0,7.02221,-9.69844,90.6186
2023-03-10 21:36:01:603,0,7.05805,-9.68242,90.5959
2023-03-10 21:36:01:613,0,7.08238,-9.67108,90.588
2023-03-10 21:36:01:623,0,7.09964,-9.66004,90.5898
2023-03-10 21:36:01:633,0,7.1104,-9.64791,90.6035
2023-03-10 21:36:01:643,0,7.11563,-9.64083,90.6251
2023-03-10 21:36:01:653,0,7.10863,-9.6372,90.6549
2023-03-10 21:36:01:663,0,7.09891,-9.6421,90.6919
2023-03-10 21:36:01:673,0,7.07708,-9.65404,90.7398
2023-03-10 21:36:01:683,0,7.04109,-9.67308,90.7882
2023-03-10 21:36:01:693,0,6.99563,-9.69713,90.8349
2023-03-10 21:36:01:703,0,6.94366,-9.72813,90.8856
2023-03-10 21:36:01:713,0,6.89217,-9.76748,90.9303
2023-03-10 21:36:01:723,0,6.8382,-9.81274,90.9741
2023-03-10 21:36:01:733,0,6.7895,-9.86284,91.0221
2023-03-10 21:36:01:743,0,6.75081,-9.919,91.066
2023-03-10 21:36:01:753,0,6.71947,-9.97099,91.1108
2023-03-10 21:36:01:763,0,6.69424,-10.016,91.1515
2023-03-10 21:36:01:773,0,6.67139,-10.0512,91.1927
2023-03-10 21:36:01:783,0,6.64719,-10.0802,91.232
2023-03-10 21:36:01:793,0,6.61881,-10.0986,91.2747
2023-03-10 21:36:01:803,0,6.5883,-10.1143,91.3184
2023-03-10 21:36:01:813,0,6.56192,-10.1253,91.3639
2023-03-10 21:36:01:823,0,6.54058,-10.1341,91.4124
2023-03-10 21:36:01:833,0,6.52885,-10.1461,91.4576
2023-03-10 21:36:01:843,0,6.52784,-10.1583,91.4947
2023-03-10 21:36:01:853,0,6.54414,-10.1647,91.5272
2023-03-10 21:36:01:863,0,6.57633,-10.1692,91.5513
2023-03-10 21:36:01:873,0,6.6162,-10.1734,91.5626
2023-03-10 21:36:01:883,0,6.65828,-10.1736,91.5594
2023-03-10 21:36:01:893,0,6.70571,-10.1749,91.5503
2023-03-10 21:36:01:903,0,6.75307,-10.1727,91.5332
2023-03-10 21:36:01:913,0,6.79829,-10.1811,91.5111
2023-03-10 21:36:01:923,0,6.84564,-10.1884,91.4854
2023-03-10 21:36:01:933,0,6.89279,-10.2007,91.4549
2023-03-10 21:36:01:943,0,6.94274,-10.2121,91.4196
2023-03-10 21:36:01:953,0,6.99399,-10.2214,91.3802
2023-03-10 21:36:01:963,0,7.04736,-10.2272,91.338
2023-03-10 21:36:01:972,0,7.10014,-10.225,91.2962
2023-03-10 21:36:01:983,0,7.14304,-10.213,91.2596
2023-03-10 21:36:01:993,0,7.16971,-10.1982,91.2306
2023-03-10 21:36:02:3,0,7.17552,-10.1794,91.2147
2023-03-10 21:36:02:13,0,7.16457,-10.1581,91.2109
2023-03-10 21:36:02:23,0,7.14164,-10.1334,91.2106
2023-03-10 21:36:02:33,0,7.11275,-10.1005,91.2147
2023-03-10 21:36:02:43,0,7.08389,-10.0622,91.2125
2023-03-10 21:36:02:53,0,7.05095,-10.0238,91.2083
2023-03-10 21:36:02:63,0,7.0121,-9.98898,91.2132
2023-03-10 21:36:02:73,0,6.96153,-9.96022,91.2186
2023-03-10 21:36:02:83,0,6.8973,-9.93843,91.2276
2023-03-10 21:36:02:93,0,6.82738,-9.919,91.2375
2023-03-10 21:36:02:103,0,6.7575,-9.90367,91.2448
2023-03-10 21:36:02:113,0,6.6912,-9.89179,91.249
2023-03-10 21:36:02:123,0,6.63036,-9.88324,91.2504
2023-03-10 21:36:02:133,0,6.57731,-9.88243,91.2465
2023-03-10 21:36:02:143,0,6.53393,-9.88195,91.2328
2023-03-10 21:36:02:153,0,6.50663,-9.87854,91.2059
2023-03-10 21:36:02:163,0,6.48279,-9.86653,91.1709
2023-03-10 21:36:02:173,0,6.46388,-9.8514,91.1283
2023-03-10 21:36:02:183,0,6.44291,-9.83341,91.082
2023-03-10 21:36:02:193,0,6.42231,-9.81248,91.0324
2023-03-10 21:36:02:203,0,6.40227,-9.78881,90.9865
2023-03-10 21:36:02:213,0,6.38084,-9.76964,90.9414
2023-03-10 21:36:02:223,0,6.35928,-9.74999,90.8992
2023-03-10 21:36:02:233,0,6.34073,-9.73333,90.8632
2023-03-10 21:36:02:243,0,6.32304,-9.71266,90.8267
2023-03-10 21:36:02:253,0,6.30558,-9.69663,90.7934
2023-03-10 21:36:02:263,0,6.2896,-9.67705,90.7615
2023-03-10 21:36:02:273,0,6.27241,-9.66022,90.7306
2023-03-10 21:36:02:283,0,6.2557,-9.64354,90.7035
2023-03-10 21:36:02:293,0,6.23496,-9.63084,90.6756
2023-03-10 21:36:02:303,0,6.21593,-9.62115,90.6519
2023-03-10 21:36:02:313,0,6.197,-9.61374,90.6286
2023-03-10 21:36:02:323,0,6.17709,-9.61756,90.6097
2023-03-10 21:36:02:333,0,6.14916,-9.62651,90.5969
2023-03-10 21:36:02:343,0,6.12268,-9.64101,90.5859
2023-03-10 21:36:02:353,0,6.08778,-9.65144,90.5808
2023-03-10 21:36:02:363,0,6.05324,-9.65481,90.5794
2023-03-10 21:36:02:373,0,6.01664,-9.65942,90.5816
2023-03-10 21:36:02:383,0,5.98287,-9.66566,90.5877
2023-03-10 21:36:02:393,0,5.94767,-9.68033,90.5994
2023-03-10 21:36:02:403,0,5.91276,-9.69775,90.6174
2023-03-10 21:36:02:413,0,5.88487,-9.71964,90.634
2023-03-10 21:36:02:423,0,5.86466,-9.74339,90.6482
2023-03-10 21:36:02:433,0,5.85034,-9.76343,90.6588
2023-03-10 21:36:02:443,0,5.84122,-9.79057,90.6639
2023-03-10 21:36:02:453,0,5.83996,-9.82627,90.6668
2023-03-10 21:36:02:463,0,5.84781,-9.86595,90.6617
2023-03-10 21:36:02:473,0,5.86808,-9.90277,90.6349
2023-03-10 21:36:02:483,0,5.90084,-9.92454,90.5925
2023-03-10 21:36:02:493,0,5.95094,-9.93531,90.5363
2023-03-10 21:36:02:503,0,6.00138,-9.93016,90.472
2023-03-10 21:36:02:513,0,6.0387,-9.91852,90.4098
2023-03-10 21:36:02:523,0,6.0536,-9.9088,90.3576
2023-03-10 21:36:02:533,0,6.04417,-9.90371,90.3198
2023-03-10 21:36:02:543,0,6.02251,-9.8982,90.2869
2023-03-10 21:36:02:553,0,5.99423,-9.88258,90.2599
2023-03-10 21:36:02:563,0,5.95846,-9.86155,90.234
2023-03-10 21:36:02:573,0,5.92281,-9.84131,90.2116
2023-03-10 21:36:02:583,0,5.88347,-9.82257,90.1929
2023-03-10 21:36:02:593,0,5.84331,-9.80537,90.1756
2023-03-10 21:36:02:603,0,5.80954,-9.78527,90.1594
2023-03-10 21:36:02:613,0,5.78154,-9.77068,90.1456
2023-03-10 21:36:02:623,0,5.75302,-9.75559,90.1297
2023-03-10 21:36:02:633,0,5.72439,-9.7436,90.1184
2023-03-10 21:36:02:643,0,5.68772,-9.7362,90.1095
2023-03-10 21:36:02:653,0,5.65038,-9.72743,90.1029
2023-03-10 21:36:02:663,0,5.60866,-9.72235,90.1025
2023-03-10 21:36:02:673,0,5.56601,-9.71039,90.1076
2023-03-10 21:36:02:683,0,5.51568,-9.70776,90.1205
2023-03-10 21:36:02:693,0,5.45839,-9.70044,90.1422
2023-03-10 21:36:02:703,0,5.39337,-9.69508,90.1732
2023-03-10 21:36:02:713,0,5.33013,-9.6871,90.2046
2023-03-10 21:36:02:723,0,5.26997,-9.67926,90.2398
2023-03-10 21:36:02:733,0,5.21293,-9.66412,90.2757
2023-03-10 21:36:02:743,0,5.16083,-9.64514,90.3086
2023-03-10 21:36:02:753,0,5.11638,-9.62389,90.3301
2023-03-10 21:36:02:763,0,5.07383,-9.60146,90.3441
2023-03-10 21:36:02:773,0,5.04106,-9.57793,90.3449
2023-03-10 21:36:02:783,0,5.01498,-9.55953,90.3402
2023-03-10 21:36:02:793,0,4.99667,-9.53849,90.321
2023-03-10 21:36:02:803,0,4.98818,-9.51573,90.2905
2023-03-10 21:36:02:813,0,4.98379,-9.48365,90.2536
2023-03-10 21:36:02:823,0,4.97629,-9.45261,90.2077
2023-03-10 21:36:02:833,0,4.96325,-9.4165,90.1581
2023-03-10 21:36:02:843,0,4.94387,-9.38811,90.1122
2023-03-10 21:36:02:853,0,4.92406,-9.36712,90.0706
2023-03-10 21:36:02:863,0,4.91195,-9.3532,90.0331
2023-03-10 21:36:02:873,0,4.91342,-9.33981,89.9916
2023-03-10 21:36:02:883,0,4.92046,-9.33801,89.9476
2023-03-10 21:36:02:893,0,4.93169,-9.35001,89.9001
2023-03-10 21:36:02:903,0,4.93844,-9.367,89.8535
2023-03-10 21:36:02:913,0,4.93574,-9.39295,89.81
2023-03-10 21:36:02:923,0,4.92309,-9.42543,89.7653
2023-03-10 21:36:02:933,0,4.90947,-9.46907,89.729
2023-03-10 21:36:02:943,0,4.88907,-9.5205,89.7056
2023-03-10 21:36:02:953,0,4.87675,-9.58119,89.6906
2023-03-10 21:36:02:963,0,4.86392,-9.64656,89.6877
2023-03-10 21:36:02:973,0,4.85169,-9.71134,89.6924
2023-03-10 21:36:02:983,0,4.83737,-9.77032,89.7023
2023-03-10 21:36:02:993,0,4.82445,-9.82311,89.7204
2023-03-10 21:36:03:3,0,4.81157,-9.86639,89.7433
2023-03-10 21:36:03:13,0,4.79383,-9.89905,89.7748
2023-03-10 21:36:03:23,0,4.77536,-9.92324,89.8148
2023-03-10 21:36:03:33,0,4.75728,-9.94288,89.8609
2023-03-10 21:36:03:43,0,4.737,-9.96226,89.9122
2023-03-10 21:36:03:53,0,4.71302,-9.98182,89.9713
2023-03-10 21:36:03:63,0,4.68755,-10.0012,90.0386
2023-03-10 21:36:03:73,0,4.65795,-10.0211,90.1101
2023-03-10 21:36:03:83,0,4.62945,-10.0438,90.1739
2023-03-10 21:36:03:93,0,4.60257,-10.0629,90.2411
2023-03-10 21:36:03:103,0,4.5722,-10.0877,90.3027
2023-03-10 21:36:03:113,0,4.54361,-10.1092,90.3663
2023-03-10 21:36:03:123,0,4.51371,-10.1376,90.4279
2023-03-10 21:36:03:133,0,4.4841,-10.1709,90.4882
2023-03-10 21:36:03:143,0,4.46195,-10.2109,90.5447
2023-03-10 21:36:03:153,0,4.44353,-10.2634,90.6029
2023-03-10 21:36:03:163,0,4.43005,-10.3192,90.6548
2023-03-10 21:36:03:173,0,4.41754,-10.3723,90.7
2023-03-10 21:36:03:183,0,4.41195,-10.4203,90.736
2023-03-10 21:36:03:193,0,4.41225,-10.4607,90.7638
2023-03-10 21:36:03:203,0,4.4167,-10.5051,90.784
2023-03-10 21:36:03:213,0,4.42139,-10.5507,90.7974
2023-03-10 21:36:03:223,0,4.42594,-10.5971,90.8098
2023-03-10 21:36:03:233,0,4.42346,-10.6342,90.8179
2023-03-10 21:36:03:243,0,4.42093,-10.6736,90.8225
2023-03-10 21:36:03:253,0,4.41452,-10.7048,90.823
2023-03-10 21:36:03:263,0,4.40201,-10.7295,90.8224
2023-03-10 21:36:03:273,0,4.38576,-10.7428,90.8156
2023-03-10 21:36:03:283,0,4.36815,-10.751,90.8045
2023-03-10 21:36:03:293,0,4.34213,-10.7529,90.7901
2023-03-10 21:36:03:303,0,4.31486,-10.7524,90.773
2023-03-10 21:36:03:313,0,4.28721,-10.7465,90.7467
2023-03-10 21:36:03:323,0,4.26199,-10.7367,90.7163
2023-03-10 21:36:03:333,0,4.23938,-10.7183,90.6836
2023-03-10 21:36:03:343,0,4.21959,-10.6989,90.6512
2023-03-10 21:36:03:353,0,4.20788,-10.6869,90.6264
2023-03-10 21:36:03:363,0,4.20369,-10.6781,90.6089
2023-03-10 21:36:03:373,0,4.19573,-10.6774,90.6009
2023-03-10 21:36:03:383,0,4.18276,-10.6738,90.5977
2023-03-10 21:36:03:393,0,4.16008,-10.6686,90.5983
2023-03-10 21:36:03:403,0,4.13839,-10.6603,90.5973
2023-03-10 21:36:03:413,0,4.11606,-10.6507,90.5963
2023-03-10 21:36:03:423,0,4.09045,-10.6429,90.5939
2023-03-10 21:36:03:433,0,4.05979,-10.6374,90.5914
2023-03-10 21:36:03:443,0,4.03554,-10.6264,90.5891
2023-03-10 21:36:03:453,0,4.01497,-10.6166,90.5884
2023-03-10 21:36:03:463,0,3.99741,-10.6084,90.5948
2023-03-10 21:36:03:473,0,3.97978,-10.6054,90.6086
2023-03-10 21:36:03:483,0,3.96128,-10.6029,90.6343
2023-03-10 21:36:03:493,0,3.94397,-10.5973,90.6624
2023-03-10 21:36:03:503,0,3.91934,-10.5926,90.6949
2023-03-10 21:36:03:513,0,3.89088,-10.5882,90.7322
2023-03-10 21:36:03:523,0,3.85772,-10.589,90.775
2023-03-10 21:36:03:533,0,3.82053,-10.5953,90.8181
2023-03-10 21:36:03:543,0,3.779,-10.6068,90.8615
2023-03-10 21:36:03:553,0,3.73332,-10.6203,90.905
2023-03-10 21:36:03:563,0,3.68554,-10.6428,90.9497
2023-03-10 21:36:03:573,0,3.63319,-10.6671,90.9934
2023-03-10 21:36:03:583,0,3.57174,-10.6933,91.0342
2023-03-10 21:36:03:593,0,3.5071,-10.7228,91.0718
2023-03-10 21:36:03:603,0,3.43429,-10.7506,91.1042
2023-03-10 21:36:03:613,0,3.35237,-10.7756,91.1382
2023-03-10 21:36:03:623,0,3.25797,-10.8004,91.1712
2023-03-10 21:36:03:633,0,3.1508,-10.8246,91.2046
2023-03-10 21:36:03:643,0,3.03073,-10.8455,91.237
2023-03-10 21:36:03:653,0,2.90084,-10.8661,91.2687
2023-03-10 21:36:03:663,0,2.77345,-10.8869,91.2989
2023-03-10 21:36:03:673,0,2.64499,-10.8974,91.3317
2023-03-10 21:36:03:683,0,2.5252,-10.9002,91.3618
2023-03-10 21:36:03:693,0,2.41712,-10.8925,91.3821
2023-03-10 21:36:03:703,0,2.31429,-10.8834,91.3985
2023-03-10 21:36:03:713,0,2.21636,-10.8752,91.413
2023-03-10 21:36:03:723,0,2.11961,-10.8684,91.428
2023-03-10 21:36:03:733,0,2.02229,-10.8547,91.4374
2023-03-10 21:36:03:743,0,1.93428,-10.8339,91.4427
2023-03-10 21:36:03:753,0,1.85731,-10.8086,91.4443
2023-03-10 21:36:03:762,0,1.79131,-10.7818,91.4403
2023-03-10 21:36:03:773,0,1.73118,-10.7588,91.4343
2023-03-10 21:36:03:783,0,1.66547,-10.7299,91.4216
2023-03-10 21:36:03:793,0,1.60545,-10.7027,91.4058
2023-03-10 21:36:03:802,0,1.55249,-10.6793,91.3895
2023-03-10 21:36:03:813,0,1.50933,-10.6587,91.37
2023-03-10 21:36:03:823,0,1.47808,-10.6402,91.3507
2023-03-10 21:36:03:832,0,1.44736,-10.6228,91.3341
2023-03-10 21:36:03:843,0,1.41977,-10.6044,91.3148
2023-03-10 21:36:03:852,0,1.39385,-10.5859,91.3001
2023-03-10 21:36:03:863,0,1.36821,-10.572,91.2873
2023-03-10 21:36:03:872,0,1.34648,-10.5555,91.2705
2023-03-10 21:36:03:882,0,1.32604,-10.5394,91.258
2023-03-10 21:36:03:892,0,1.31584,-10.5268,91.2428
2023-03-10 21:36:03:903,0,1.30355,-10.5155,91.2298
2023-03-10 21:36:03:912,0,1.29926,-10.503,91.2112
2023-03-10 21:36:03:922,0,1.2972,-10.4893,91.1888
2023-03-10 21:36:03:933,0,1.29514,-10.4766,91.1678
2023-03-10 21:36:03:943,0,1.29684,-10.4629,91.1467
2023-03-10 21:36:03:953,0,1.30141,-10.4519,91.1209
2023-03-10 21:36:03:963,0,1.31052,-10.4419,91.0888
2023-03-10 21:36:03:973,0,1.32255,-10.4321,91.0591
2023-03-10 21:36:03:983,0,1.33324,-10.4216,91.0254
2023-03-10 21:36:03:993,0,1.33999,-10.4133,90.9933
2023-03-10 21:36:04:3,0,1.34621,-10.4099,90.9626
2023-03-10 21:36:04:13,0,1.35253,-10.4075,90.9317
2023-03-10 21:36:04:23,0,1.35501,-10.4065,90.9001
2023-03-10 21:36:04:33,0,1.35711,-10.4056,90.8681
2023-03-10 21:36:04:43,0,1.36081,-10.396,90.8319
2023-03-10 21:36:04:53,0,1.36974,-10.3857,90.7932
2023-03-10 21:36:04:63,0,1.38525,-10.3819,90.756
2023-03-10 21:36:04:73,0,1.40095,-10.3775,90.7196
2023-03-10 21:36:04:83,0,1.42033,-10.3732,90.6823
2023-03-10 21:36:04:93,0,1.44154,-10.37,90.6425
2023-03-10 21:36:04:103,0,1.46096,-10.3696,90.6034
