Timestamp_cmd,imu_cmd,roll_delta,pitch_delta,yaw_delta,voice_type,voice_length
2023-03-14 22:27:36:87,0,-11.0693,-3.90462,26.271,Q,Q
2023-03-14 22:27:36:95,0,-11.072,-3.90113,26.292,Q,Q
2023-03-14 22:27:36:105,0,-11.0754,-3.89448,26.3187,Q,Q
2023-03-14 22:27:36:115,0,-11.0842,-3.89081,26.3508,Q,Q
2023-03-14 22:27:36:125,0,-11.0971,-3.88532,26.3828,Q,Q
2023-03-14 22:27:36:135,0,-11.1146,-3.8792,26.4179,Q,Q
2023-03-14 22:27:36:146,0,-11.1293,-3.86622,26.4503,Q,Q
2023-03-14 22:27:36:155,0,-11.1331,-3.85526,26.4869,Q,Q
2023-03-14 22:27:36:165,0,-11.1333,-3.84211,26.5103,Q,Q
2023-03-14 22:27:36:176,0,-11.1264,-3.83256,26.5201,Q,Q
2023-03-14 22:27:36:186,0,-11.1141,-3.83207,26.5224,Q,Q
2023-03-14 22:27:36:196,0,-11.1072,-3.82967,26.5036,Q,Q
2023-03-14 22:27:36:206,0,-11.104,-3.82454,26.4717,Q,Q
2023-03-14 22:27:36:216,0,-11.1022,-3.82221,26.433,Q,Q
2023-03-14 22:27:36:226,0,-11.106,-3.81584,26.3988,Q,Q
2023-03-14 22:27:36:236,0,-11.113,-3.80779,26.3683,Q,Q
2023-03-14 22:27:36:246,0,-11.1292,-3.79634,26.3374,Q,Q
2023-03-14 22:27:36:256,0,-11.1515,-3.78499,26.3081,Q,Q
2023-03-14 22:27:36:266,0,-11.1732,-3.77554,26.285,Q,Q
2023-03-14 22:27:36:276,0,-11.1954,-3.75972,26.265,Q,Q
2023-03-14 22:27:36:286,0,-11.2164,-3.74964,26.2558,Q,Q
2023-03-14 22:27:36:296,0,-11.2419,-3.74779,26.2555,Q,Q
2023-03-14 22:27:36:306,0,-11.2732,-3.75021,26.2652,Q,Q
2023-03-14 22:27:36:316,0,-11.3045,-3.75568,26.281,Q,Q
2023-03-14 22:27:36:326,0,-11.3311,-3.76878,26.3026,Q,Q
2023-03-14 22:27:36:336,0,-11.3609,-3.78612,26.3358,Q,Q
2023-03-14 22:27:36:345,0,-11.3921,-3.80741,26.3768,Q,Q
2023-03-14 22:27:36:356,0,-11.4159,-3.84027,26.4186,Q,Q
2023-03-14 22:27:36:365,0,-11.4329,-3.87813,26.46,Q,Q
2023-03-14 22:27:36:376,0,-11.4492,-3.92047,26.4991,Q,Q
2023-03-14 22:27:36:386,0,-11.4573,-3.96034,26.5273,Q,Q
2023-03-14 22:27:36:396,0,-11.4655,-4.00487,26.5481,Q,Q
2023-03-14 22:27:36:406,0,-11.4723,-4.0477,26.5578,Q,Q
2023-03-14 22:27:36:415,0,-11.4753,-4.08246,26.5639,Q,Q
2023-03-14 22:27:36:426,0,-11.4738,-4.11187,26.5677,Q,Q
2023-03-14 22:27:36:435,0,-11.4648,-4.13476,26.5652,Q,Q
2023-03-14 22:27:36:445,0,-11.451,-4.15263,26.5604,Q,Q
2023-03-14 22:27:36:455,0,-11.4346,-4.16024,26.5602,Q,Q
2023-03-14 22:27:36:465,0,-11.4113,-4.16499,26.5609,Q,Q
2023-03-14 22:27:36:475,0,-11.3868,-4.1612,26.5606,Q,Q
2023-03-14 22:27:36:485,0,-11.3648,-4.15492,26.5624,Q,Q
2023-03-14 22:27:36:495,0,-11.3465,-4.14675,26.5606,Q,Q
2023-03-14 22:27:36:506,0,-11.3292,-4.1366,26.5601,Q,Q
2023-03-14 22:27:36:516,0,-11.3101,-4.11946,26.5641,Q,Q
2023-03-14 22:27:36:525,0,-11.2922,-4.10445,26.5686,Q,Q
2023-03-14 22:27:36:535,0,-11.2738,-4.09657,26.5749,Q,Q
2023-03-14 22:27:36:545,0,-11.2538,-4.09198,26.5843,Q,Q
2023-03-14 22:27:36:555,0,-11.2317,-4.0865,26.5939,Q,Q
2023-03-14 22:27:36:565,0,-11.2102,-4.07826,26.6017,Q,Q
2023-03-14 22:27:36:576,0,-11.1876,-4.07229,26.6049,Q,Q
2023-03-14 22:27:36:585,0,-11.1683,-4.06539,26.6103,Q,Q
2023-03-14 22:27:36:595,0,-11.1561,-4.05889,26.6171,Q,Q
2023-03-14 22:27:36:605,0,-11.1494,-4.05674,26.629,Q,Q
2023-03-14 22:27:36:615,0,-11.1506,-4.05337,26.6416,Q,Q
2023-03-14 22:27:36:625,0,-11.1597,-4.05038,26.6553,Q,Q
2023-03-14 22:27:36:635,0,-11.1695,-4.04661,26.669,Q,Q
2023-03-14 22:27:36:645,0,-11.1842,-4.04349,26.6821,Q,Q
2023-03-14 22:27:36:655,0,-11.1999,-4.03994,26.6978,Q,Q
2023-03-14 22:27:36:665,0,-11.2114,-4.03758,26.7119,Q,Q
2023-03-14 22:27:36:675,0,-11.2263,-4.03509,26.7279,Q,Q
2023-03-14 22:27:36:685,0,-11.2399,-4.03858,26.7444,Q,Q
2023-03-14 22:27:36:696,0,-11.2557,-4.04452,26.7659,Q,Q
2023-03-14 22:27:36:705,0,-11.2718,-4.05131,26.7838,Q,Q
2023-03-14 22:27:36:715,0,-11.2931,-4.06141,26.8066,Q,Q
2023-03-14 22:27:36:725,0,-11.3105,-4.06855,26.8309,Q,Q
2023-03-14 22:27:36:735,0,-11.3333,-4.07822,26.8531,Q,Q
2023-03-14 22:27:36:745,0,-11.3558,-4.08653,26.8781,Q,Q
2023-03-14 22:27:36:756,0,-11.3691,-4.09556,26.9034,Q,Q
2023-03-14 22:27:36:765,0,-11.3866,-4.10045,26.9284,Q,Q
2023-03-14 22:27:36:776,0,-11.4024,-4.10503,26.9548,Q,Q
2023-03-14 22:27:36:785,0,-11.4212,-4.112,26.9891,Q,Q
2023-03-14 22:27:36:795,0,-11.4403,-4.1199,27.0268,Q,Q
2023-03-14 22:27:36:805,0,-11.4584,-4.13132,27.0662,Q,Q
2023-03-14 22:27:36:815,0,-11.4738,-4.14483,27.1075,Q,Q
2023-03-14 22:27:36:826,0,-11.4812,-4.15427,27.148,Q,Q
2023-03-14 22:27:36:835,0,-11.4847,-4.16337,27.189,Q,Q
2023-03-14 22:27:36:845,0,-11.4887,-4.17777,27.2242,Q,Q
2023-03-14 22:27:36:855,0,-11.4934,-4.19024,27.2612,Q,Q
2023-03-14 22:27:36:865,0,-11.5003,-4.19981,27.2982,Q,Q
2023-03-14 22:27:36:875,0,-11.5089,-4.20768,27.3334,Q,Q
2023-03-14 22:27:36:885,0,-11.5197,-4.21896,27.3643,Q,Q
2023-03-14 22:27:36:895,0,-11.5285,-4.22981,27.3962,Q,Q
2023-03-14 22:27:36:905,0,-11.5393,-4.24188,27.4325,Q,Q
2023-03-14 22:27:36:916,0,-11.5588,-4.25587,27.4705,Q,Q
2023-03-14 22:27:36:925,0,-11.577,-4.26728,27.5072,Q,Q
2023-03-14 22:27:36:935,0,-11.5981,-4.27859,27.5388,Q,Q
2023-03-14 22:27:36:945,0,-11.6155,-4.28693,27.5694,Q,Q
2023-03-14 22:27:36:955,0,-11.6324,-4.29571,27.5932,Q,Q
2023-03-14 22:27:36:965,0,-11.6442,-4.30644,27.6154,Q,Q
2023-03-14 22:27:36:975,0,-11.6568,-4.3164,27.6353,Q,Q
2023-03-14 22:27:36:985,0,-11.666,-4.32668,27.654,Q,Q
2023-03-14 22:27:36:995,0,-11.6706,-4.33957,27.6706,Q,Q
2023-03-14 22:27:37:6,0,-11.6728,-4.35066,27.6865,Q,Q
2023-03-14 22:27:37:15,0,-11.6797,-4.36285,27.6987,Q,Q
2023-03-14 22:27:37:26,0,-11.6811,-4.37434,27.7109,Q,Q
2023-03-14 22:27:37:36,0,-11.6917,-4.3868,27.7226,Q,Q
2023-03-14 22:27:37:46,0,-11.701,-4.39737,27.7278,Q,Q
2023-03-14 22:27:37:55,0,-11.7161,-4.40886,27.7316,Q,Q
2023-03-14 22:27:37:66,0,-11.7347,-4.41988,27.7354,Q,Q
2023-03-14 22:27:37:76,0,-11.7514,-4.43212,27.7386,Q,Q
2023-03-14 22:27:37:86,0,-11.7692,-4.44216,27.7407,Q,Q
2023-03-14 22:27:37:96,0,-11.7814,-4.45971,27.7453,Q,Q
2023-03-14 22:27:37:105,0,-11.7877,-4.47672,27.7488,Q,Q
2023-03-14 22:27:37:115,0,-11.7882,-4.49435,27.7522,Q,Q
2023-03-14 22:27:37:125,0,-11.7802,-4.50902,27.751,Q,Q
2023-03-14 22:27:37:136,0,-11.7682,-4.52007,27.7394,Q,Q
2023-03-14 22:27:37:145,0,-11.7539,-4.53067,27.7222,Q,Q
2023-03-14 22:27:37:156,0,-11.7444,-4.53833,27.6991,Q,Q
2023-03-14 22:27:37:165,0,-11.7404,-4.54867,27.6795,Q,Q
2023-03-14 22:27:37:175,0,-11.7424,-4.56033,27.6562,Q,Q
2023-03-14 22:27:37:185,0,-11.7482,-4.56938,27.6239,Q,Q
2023-03-14 22:27:37:195,0,-11.76,-4.57881,27.5896,Q,Q
2023-03-14 22:27:37:205,0,-11.7776,-4.58581,27.5579,Q,Q
2023-03-14 22:27:37:215,0,-11.8017,-4.59735,27.5273,Q,Q
2023-03-14 22:27:37:225,0,-11.8308,-4.60698,27.4969,Q,Q
2023-03-14 22:27:37:235,0,-11.8604,-4.6122,27.4726,Q,Q
2023-03-14 22:27:37:245,0,-11.8812,-4.6157,27.4458,Q,Q
2023-03-14 22:27:37:255,0,-11.8994,-4.62126,27.4223,Q,Q
2023-03-14 22:27:37:265,0,-11.913,-4.62017,27.3939,Q,Q
2023-03-14 22:27:37:275,0,-11.9208,-4.61938,27.361,Q,Q
2023-03-14 22:27:37:285,0,-11.9227,-4.62184,27.3246,Q,Q
2023-03-14 22:27:37:295,0,-11.911,-4.6175,27.2855,Q,Q
2023-03-14 22:27:37:305,0,-11.8929,-4.60734,27.2491,Q,Q
2023-03-14 22:27:37:315,0,-11.8721,-4.59871,27.215,Q,Q
2023-03-14 22:27:37:325,0,-11.8461,-4.5942,27.1878,Q,Q
2023-03-14 22:27:37:335,0,-11.8218,-4.59756,27.1656,Q,Q
2023-03-14 22:27:37:345,0,-11.7984,-4.60048,27.1486,Q,Q
2023-03-14 22:27:37:355,0,-11.776,-4.60755,27.1366,Q,Q
2023-03-14 22:27:37:365,0,-11.75,-4.61295,27.1245,Q,Q
2023-03-14 22:27:37:375,0,-11.724,-4.61802,27.1195,Q,Q
2023-03-14 22:27:37:385,0,-11.692,-4.6153,27.1192,Q,Q
2023-03-14 22:27:37:395,0,-11.6611,-4.61254,27.1169,Q,Q
2023-03-14 22:27:37:405,0,-11.6259,-4.60477,27.1162,Q,Q
2023-03-14 22:27:37:415,0,-11.5955,-4.59179,27.1125,Q,Q
2023-03-14 22:27:37:425,0,-11.5674,-4.57211,27.107,Q,Q
2023-03-14 22:27:37:435,0,-11.5344,-4.55239,27.0961,Q,Q
2023-03-14 22:27:37:445,0,-11.5051,-4.52903,27.0804,Q,Q
2023-03-14 22:27:37:455,0,-11.4767,-4.50823,27.0632,Q,Q
2023-03-14 22:27:37:465,0,-11.4533,-4.49418,27.0493,Q,Q
2023-03-14 22:27:37:475,0,-11.4463,-4.48513,27.0399,Q,Q
2023-03-14 22:27:37:485,0,-11.4447,-4.4861,27.0306,Q,Q
2023-03-14 22:27:37:496,0,-11.4455,-4.48805,27.0262,Q,Q
2023-03-14 22:27:37:505,0,-11.4518,-4.48953,27.0221,Q,Q
2023-03-14 22:27:37:515,0,-11.4624,-4.49509,27.014,Q,Q
2023-03-14 22:27:37:525,0,-11.4764,-4.50254,27.0116,Q,Q
2023-03-14 22:27:37:535,0,-11.4911,-4.51329,27.0141,Q,Q
2023-03-14 22:27:37:545,0,-11.509,-4.52618,27.0209,Q,Q
2023-03-14 22:27:37:555,0,-11.5303,-4.54235,27.0337,Q,Q
2023-03-14 22:27:37:565,0,-11.5524,-4.56073,27.0493,Q,Q
2023-03-14 22:27:37:575,0,-11.5773,-4.5776,27.0687,Q,Q
2023-03-14 22:27:37:585,0,-11.6009,-4.59309,27.0881,Q,Q
2023-03-14 22:27:37:595,0,-11.6184,-4.60672,27.1069,Q,Q
2023-03-14 22:27:37:605,0,-11.6368,-4.62187,27.1261,Q,Q
2023-03-14 22:27:37:615,0,-11.6515,-4.63505,27.1433,Q,Q
2023-03-14 22:27:37:625,0,-11.6621,-4.64979,27.1621,Q,Q
2023-03-14 22:27:37:635,0,-11.6686,-4.66094,27.1803,Q,Q
2023-03-14 22:27:37:645,0,-11.6719,-4.67783,27.2039,Q,Q
2023-03-14 22:27:37:655,0,-11.6689,-4.69104,27.2243,Q,Q
2023-03-14 22:27:37:665,0,-11.6597,-4.70303,27.2436,Q,Q
2023-03-14 22:27:37:676,0,-11.647,-4.70496,27.262,Q,Q
2023-03-14 22:27:37:685,0,-11.6296,-4.70478,27.2709,Q,Q
2023-03-14 22:27:37:695,0,-11.6097,-4.70122,27.2752,Q,Q
2023-03-14 22:27:37:706,0,-11.5893,-4.69582,27.2824,Q,Q
2023-03-14 22:27:37:716,0,-11.5776,-4.69077,27.2898,Q,Q
2023-03-14 22:27:37:726,0,-11.5682,-4.68145,27.2986,Q,Q
2023-03-14 22:27:37:736,0,-11.5536,-4.67514,27.3074,Q,Q
2023-03-14 22:27:37:746,0,-11.5392,-4.66299,27.3134,Q,Q
2023-03-14 22:27:37:755,0,-11.5218,-4.64845,27.3182,Q,Q
2023-03-14 22:27:37:765,0,-11.504,-4.62942,27.3165,Q,Q
2023-03-14 22:27:37:776,0,-11.485,-4.61068,27.3199,Q,Q
2023-03-14 22:27:37:786,0,-11.4693,-4.59333,27.3245,Q,Q
2023-03-14 22:27:37:796,0,-11.4556,-4.5805,27.3336,Q,Q
2023-03-14 22:27:37:805,0,-11.4438,-4.57149,27.3422,Q,Q
2023-03-14 22:27:37:815,0,-11.4392,-4.56313,27.351,Q,Q
2023-03-14 22:27:37:826,0,-11.4369,-4.55474,27.3598,Q,Q
2023-03-14 22:27:37:836,0,-11.4435,-4.54735,27.3681,Q,Q
2023-03-14 22:27:37:846,0,-11.4499,-4.53555,27.3741,Q,Q
2023-03-14 22:27:37:856,0,-11.4588,-4.52383,27.3792,Q,Q
2023-03-14 22:27:37:866,0,-11.4673,-4.51264,27.387,Q,Q
2023-03-14 22:27:37:876,0,-11.4807,-4.50017,27.4025,Q,Q
2023-03-14 22:27:37:885,0,-11.4937,-4.49146,27.4134,Q,Q
2023-03-14 22:27:37:896,0,-11.5077,-4.4904,27.4311,Q,Q
2023-03-14 22:27:37:906,0,-11.5239,-4.49051,27.4529,Q,Q
2023-03-14 22:27:37:916,0,-11.5393,-4.49157,27.4765,Q,Q
2023-03-14 22:27:37:926,0,-11.5507,-4.48768,27.4989,Q,Q
2023-03-14 22:27:37:936,0,-11.5562,-4.48425,27.5183,Q,Q
2023-03-14 22:27:37:945,0,-11.5609,-4.48214,27.5403,Q,Q
2023-03-14 22:27:37:955,0,-11.5606,-4.47697,27.5622,Q,Q
2023-03-14 22:27:37:965,0,-11.5631,-4.47365,27.5828,Q,Q
2023-03-14 22:27:37:975,0,-11.5659,-4.46626,27.6022,Q,Q
2023-03-14 22:27:37:985,0,-11.5664,-4.45937,27.6218,Q,Q
2023-03-14 22:27:37:995,0,-11.5686,-4.4531,27.6395,Q,Q
2023-03-14 22:27:38:5,0,-11.5692,-4.44802,27.6624,Q,Q
2023-03-14 22:27:38:15,0,-11.5705,-4.44205,27.6869,Q,Q
2023-03-14 22:27:38:25,0,-11.5724,-4.43837,27.7113,Q,Q
2023-03-14 22:27:38:35,0,-11.5711,-4.43624,27.735,Q,Q
2023-03-14 22:27:38:45,0,-11.5722,-4.43433,27.756,Q,Q
2023-03-14 22:27:38:55,0,-11.5688,-4.42844,27.7763,Q,Q
2023-03-14 22:27:38:66,0,-11.5629,-4.42009,27.7879,Q,Q
2023-03-14 22:27:38:76,0,-11.5436,-4.40761,27.7946,Q,Q
2023-03-14 22:27:38:86,0,-11.5225,-4.39483,27.7982,Q,Q
2023-03-14 22:27:38:96,0,-11.4966,-4.38335,27.7969,Q,Q
2023-03-14 22:27:38:106,0,-11.4754,-4.37351,27.7963,Q,Q
2023-03-14 22:27:38:116,0,-11.4572,-4.36671,27.7934,Q,Q
2023-03-14 22:27:38:126,0,-11.4481,-4.36065,27.7921,Q,Q
2023-03-14 22:27:38:136,0,-11.4498,-4.35759,27.7914,Q,Q
2023-03-14 22:27:38:145,0,-11.4548,-4.35395,27.7935,Q,Q
2023-03-14 22:27:38:156,0,-11.466,-4.35023,27.7947,Q,Q
2023-03-14 22:27:38:166,0,-11.4773,-4.33927,27.8045,Q,Q
2023-03-14 22:27:38:176,0,-11.4915,-4.33167,27.8156,Q,Q
2023-03-14 22:27:38:186,0,-11.5008,-4.32061,27.8328,Q,Q
2023-03-14 22:27:38:195,0,-11.5078,-4.30727,27.8532,Q,Q
2023-03-14 22:27:38:206,0,-11.512,-4.29235,27.874,Q,Q
2023-03-14 22:27:38:215,0,-11.5221,-4.2805,27.8945,Q,Q
2023-03-14 22:27:38:226,0,-11.542,-4.27099,27.9148,Q,Q
2023-03-14 22:27:38:236,0,-11.5701,-4.26213,27.9322,Q,Q
2023-03-14 22:27:38:246,0,-11.596,-4.2445,27.9351,Q,Q
2023-03-14 22:27:38:255,0,-11.6156,-4.22033,27.9296,Q,Q
2023-03-14 22:27:38:266,0,-11.6247,-4.19252,27.9121,Q,Q
2023-03-14 22:27:38:276,0,-11.6254,-4.16261,27.8909,Q,Q
2023-03-14 22:27:38:286,0,-11.624,-4.13728,27.8733,Q,Q
2023-03-14 22:27:38:296,0,-11.6289,-4.12273,27.8499,Q,Q
2023-03-14 22:27:38:306,0,-11.6398,-4.11081,27.8343,Q,Q
2023-03-14 22:27:38:316,0,-11.6584,-4.09754,27.8187,Q,Q
2023-03-14 22:27:38:326,0,-11.6818,-4.09101,27.8051,Q,Q
2023-03-14 22:27:38:336,0,-11.7019,-4.084,27.7895,Q,Q
2023-03-14 22:27:38:346,0,-11.716,-4.06932,27.7746,Q,Q
2023-03-14 22:27:38:355,0,-11.7225,-4.05035,27.7635,Q,Q
2023-03-14 22:27:38:366,0,-11.721,-4.02294,27.7525,Q,Q
2023-03-14 22:27:38:376,0,-11.7174,-3.99318,27.7472,Q,Q
2023-03-14 22:27:38:386,0,-11.7134,-3.96391,27.7438,Q,Q
2023-03-14 22:27:38:396,0,-11.7123,-3.9384,27.7484,Q,Q
2023-03-14 22:27:38:405,0,-11.7057,-3.91374,27.7521,Q,Q
2023-03-14 22:27:38:416,0,-11.6924,-3.89685,27.7609,Q,Q
2023-03-14 22:27:38:426,0,-11.6719,-3.88291,27.7729,Q,Q
2023-03-14 22:27:38:435,0,-11.6397,-3.87598,27.7947,Q,Q
2023-03-14 22:27:38:445,0,-11.601,-3.87677,27.8275,Q,Q
2023-03-14 22:27:38:456,0,-11.5608,-3.87979,27.8614,Q,Q
2023-03-14 22:27:38:465,0,-11.5248,-3.88402,27.8946,Q,Q
2023-03-14 22:27:38:475,0,-11.4985,-3.88738,27.9137,Q,Q
2023-03-14 22:27:38:485,0,-11.4822,-3.88567,27.9253,Q,Q
2023-03-14 22:27:38:496,0,-11.4675,-3.87685,27.9287,Q,Q
2023-03-14 22:27:38:506,0,-11.4557,-3.86051,27.9241,Q,Q
2023-03-14 22:27:38:516,0,-11.4427,-3.84224,27.9103,Q,Q
2023-03-14 22:27:38:526,0,-11.4308,-3.81498,27.8983,Q,Q
2023-03-14 22:27:38:536,0,-11.4257,-3.79192,27.8834,Q,Q
2023-03-14 22:27:38:546,0,-11.4303,-3.76862,27.874,Q,Q
2023-03-14 22:27:38:555,0,-11.4504,-3.75114,27.8727,Q,Q
2023-03-14 22:27:38:565,0,-11.4897,-3.73828,27.8802,Q,Q
2023-03-14 22:27:38:576,0,-11.5459,-3.73582,27.8906,Q,Q
2023-03-14 22:27:38:586,0,-11.6056,-3.73345,27.8994,Q,Q
2023-03-14 22:27:38:596,0,-11.6641,-3.72831,27.9072,Q,Q
2023-03-14 22:27:38:605,0,-11.714,-3.73224,27.9117,Q,Q
2023-03-14 22:27:38:616,0,-11.7463,-3.73119,27.9135,Q,Q
2023-03-14 22:27:38:626,0,-11.773,-3.72105,27.9183,Q,Q
2023-03-14 22:27:38:636,0,-11.8028,-3.71175,27.9248,Q,Q
2023-03-14 22:27:38:646,0,-11.8399,-3.71387,27.9284,Q,Q
2023-03-14 22:27:38:656,0,-11.8797,-3.72734,27.9274,Q,Q
2023-03-14 22:27:38:666,0,-11.9332,-3.74998,27.9303,Q,Q
2023-03-14 22:27:38:676,0,-11.9936,-3.79296,27.9427,Q,Q
2023-03-14 22:27:38:686,0,-12.0682,-3.85961,27.9674,Q,Q
2023-03-14 22:27:38:695,0,-12.155,-3.95876,28.0023,Q,Q
2023-03-14 22:27:38:706,0,-12.2601,-4.07464,28.0548,Q,Q
2023-03-14 22:27:38:715,0,-12.3764,-4.2057,28.116,Q,Q
2023-03-14 22:27:38:726,0,-12.4802,-4.33166,28.1813,Q,Q
2023-03-14 22:27:38:736,0,-12.5658,-4.44631,28.2509,Q,Q
2023-03-14 22:27:38:746,0,-12.6237,-4.53875,28.3222,Q,Q
2023-03-14 22:27:38:756,0,-12.6574,-4.6076,28.3978,Q,Q
2023-03-14 22:27:38:766,0,-12.6775,-4.65599,28.4779,Q,Q
2023-03-14 22:27:38:776,0,-12.692,-4.68847,28.5546,Q,Q
2023-03-14 22:27:38:786,0,-12.6978,-4.70785,28.6135,Q,Q
2023-03-14 22:27:38:796,0,-12.6919,-4.7232,28.6573,Q,Q
2023-03-14 22:27:38:806,0,-12.6784,-4.73495,28.691,Q,Q
2023-03-14 22:27:38:816,0,-12.6544,-4.74144,28.7185,Q,Q
2023-03-14 22:27:38:826,0,-12.6218,-4.73951,28.7429,Q,Q
2023-03-14 22:27:38:836,0,-12.578,-4.73278,28.7614,Q,Q
2023-03-14 22:27:38:845,0,-12.519,-4.72347,28.781,Q,Q
2023-03-14 22:27:38:856,0,-12.4635,-4.7142,28.8008,Q,Q
2023-03-14 22:27:38:866,0,-12.4114,-4.71182,28.815,Q,Q
2023-03-14 22:27:38:876,0,-12.358,-4.71745,28.8304,Q,Q
2023-03-14 22:27:38:886,0,-12.319,-4.73125,28.8443,Q,Q
2023-03-14 22:27:38:896,0,-12.2952,-4.75725,28.856,Q,Q
2023-03-14 22:27:38:906,0,-12.2804,-4.79241,28.8581,Q,Q
2023-03-14 22:27:38:916,0,-12.2638,-4.8267,28.8515,Q,Q
2023-03-14 22:27:38:926,0,-12.241,-4.8555,28.8368,Q,Q
2023-03-14 22:27:38:936,0,-12.2173,-4.88098,28.8125,Q,Q
2023-03-14 22:27:38:946,0,-12.1994,-4.90568,28.7892,Q,Q
2023-03-14 22:27:38:956,0,-12.2014,-4.92852,28.7646,Q,Q
2023-03-14 22:27:38:966,0,-12.2173,-4.94653,28.7434,Q,Q
2023-03-14 22:27:38:975,0,-12.2402,-4.9542,28.7247,Q,Q
2023-03-14 22:27:38:985,0,-12.2642,-4.95469,28.7083,Q,Q
2023-03-14 22:27:38:995,0,-12.2806,-4.95337,28.6867,Q,Q
2023-03-14 22:27:39:6,0,-12.2846,-4.94455,28.6605,Q,Q
2023-03-14 22:27:39:16,0,-12.2768,-4.93567,28.6347,Q,Q
2023-03-14 22:27:39:26,0,-12.2677,-4.93,28.6087,Q,Q
2023-03-14 22:27:39:36,0,-12.2618,-4.93692,28.5843,Q,Q
2023-03-14 22:27:39:46,0,-12.2552,-4.95083,28.5564,Q,Q
2023-03-14 22:27:39:56,0,-12.2473,-4.96436,28.5211,Q,Q
2023-03-14 22:27:39:66,0,-12.2323,-4.97678,28.4862,Q,Q
2023-03-14 22:27:39:76,0,-12.2076,-4.97884,28.4536,Q,Q
2023-03-14 22:27:39:86,0,-12.1803,-4.97808,28.4225,Q,Q
2023-03-14 22:27:39:96,0,-12.1524,-4.98393,28.3943,Q,Q
2023-03-14 22:27:39:106,0,-12.1096,-4.98389,28.3647,Q,Q
2023-03-14 22:27:39:116,0,-12.0625,-4.98565,28.338,Q,Q
2023-03-14 22:27:39:126,0,-12.0198,-4.98532,28.3215,Q,Q
2023-03-14 22:27:39:136,0,-11.9944,-4.98814,28.3189,Q,Q
2023-03-14 22:27:39:145,0,-11.9855,-4.98739,28.326,Q,Q
2023-03-14 22:27:39:155,0,-11.995,-4.9921,28.3452,Q,Q
2023-03-14 22:27:39:166,0,-12.0177,-5.00157,28.3748,Q,Q
2023-03-14 22:27:39:176,0,-12.0509,-5.01158,28.4086,Q,Q
2023-03-14 22:27:39:186,0,-12.0897,-5.02542,28.4418,Q,Q
2023-03-14 22:27:39:196,0,-12.1346,-5.03867,28.4738,Q,Q
2023-03-14 22:27:39:206,0,-12.1786,-5.04701,28.5003,Q,Q
2023-03-14 22:27:39:216,0,-12.2157,-5.05822,28.5196,Q,Q
2023-03-14 22:27:39:226,0,-12.2492,-5.06254,28.5379,Q,Q
2023-03-14 22:27:39:236,0,-12.2742,-5.05953,28.554,Q,Q
2023-03-14 22:27:39:246,0,-12.2942,-5.05155,28.5645,Q,Q
2023-03-14 22:27:39:256,0,-12.3097,-5.04992,28.5692,Q,Q
2023-03-14 22:27:39:266,0,-12.3247,-5.05046,28.5773,Q,Q
2023-03-14 22:27:39:276,0,-12.3443,-5.05327,28.5857,Q,Q
2023-03-14 22:27:39:286,0,-12.3726,-5.0527,28.5954,Q,Q
2023-03-14 22:27:39:296,0,-12.4073,-5.05252,28.6051,Q,Q
2023-03-14 22:27:39:306,0,-12.4438,-5.04537,28.6108,Q,Q
2023-03-14 22:27:39:316,0,-12.4771,-5.02797,28.6093,Q,Q
2023-03-14 22:27:39:326,0,-12.5124,-5.00137,28.6047,Q,Q
2023-03-14 22:27:39:336,0,-12.5503,-4.97181,28.5978,Q,Q
2023-03-14 22:27:39:346,0,-12.5885,-4.93941,28.5849,Q,Q
2023-03-14 22:27:39:356,0,-12.6267,-4.91285,28.5676,Q,Q
2023-03-14 22:27:39:366,0,-12.6604,-4.88968,28.548,Q,Q
2023-03-14 22:27:39:376,0,-12.6883,-4.86817,28.5243,Q,Q
2023-03-14 22:27:39:386,0,-12.71,-4.85353,28.4975,Q,Q
2023-03-14 22:27:39:395,0,-12.7217,-4.84429,28.4689,Q,Q
2023-03-14 22:27:39:406,0,-12.7345,-4.83562,28.4389,Q,Q
2023-03-14 22:27:39:416,0,-12.7419,-4.82293,28.4017,Q,Q
2023-03-14 22:27:39:426,0,-12.7391,-4.80923,28.3639,Q,Q
2023-03-14 22:27:39:436,0,-12.7302,-4.79415,28.3173,Q,Q
2023-03-14 22:27:39:445,0,-12.7148,-4.78103,28.2782,Q,Q
2023-03-14 22:27:39:456,0,-12.6933,-4.76478,28.242,Q,Q
2023-03-14 22:27:39:466,0,-12.677,-4.74711,28.2105,Q,Q
2023-03-14 22:27:39:476,0,-12.6685,-4.7209,28.1873,Q,Q
2023-03-14 22:27:39:485,0,-12.6745,-4.70209,28.1667,Q,Q
2023-03-14 22:27:39:495,0,-12.6868,-4.68484,28.1525,Q,Q
2023-03-14 22:27:39:505,0,-12.7011,-4.66713,28.1365,Q,Q
2023-03-14 22:27:39:515,0,-12.7142,-4.65364,28.1252,Q,Q
2023-03-14 22:27:39:525,0,-12.7238,-4.6487,28.112,Q,Q
2023-03-14 22:27:39:535,0,-12.7339,-4.64572,28.0972,Q,Q
2023-03-14 22:27:39:546,0,-12.739,-4.65329,28.0788,Q,Q
2023-03-14 22:27:39:556,0,-12.7329,-4.66475,28.054,Q,Q
2023-03-14 22:27:39:566,0,-12.7191,-4.67564,28.024,Q,Q
2023-03-14 22:27:39:576,0,-12.7032,-4.68561,27.9945,Q,Q
2023-03-14 22:27:39:586,0,-12.6842,-4.68628,27.9615,Q,Q
2023-03-14 22:27:39:596,0,-12.6666,-4.67948,27.9289,Q,Q
2023-03-14 22:27:39:606,0,-12.6494,-4.67278,27.8924,Q,Q
2023-03-14 22:27:39:616,0,-12.6293,-4.6674,27.8526,Q,Q
2023-03-14 22:27:39:625,0,-12.6129,-4.66418,27.8129,Q,Q
2023-03-14 22:27:39:635,0,-12.6032,-4.66729,27.7769,Q,Q
2023-03-14 22:27:39:646,0,-12.5973,-4.6782,27.7472,Q,Q
2023-03-14 22:27:39:655,0,-12.5948,-4.69777,27.7245,Q,Q
2023-03-14 22:27:39:666,0,-12.596,-4.7174,27.7052,Q,Q
2023-03-14 22:27:39:676,0,-12.5993,-4.74157,27.6857,Q,Q
2023-03-14 22:27:39:686,0,-12.5993,-4.76668,27.6607,Q,Q
2023-03-14 22:27:39:696,0,-12.5943,-4.78862,27.6262,Q,Q
2023-03-14 22:27:39:706,0,-12.5785,-4.8061,27.5886,Q,Q
2023-03-14 22:27:39:716,0,-12.5586,-4.81772,27.5477,Q,Q
2023-03-14 22:27:39:726,0,-12.539,-4.82448,27.5009,Q,Q
2023-03-14 22:27:39:736,0,-12.5169,-4.8337,27.4522,Q,Q
2023-03-14 22:27:39:745,0,-12.4972,-4.84123,27.4085,Q,Q
2023-03-14 22:27:39:755,0,-12.4861,-4.85093,27.3668,Q,Q
2023-03-14 22:27:39:766,0,-12.4769,-4.86941,27.3246,Q,Q
2023-03-14 22:27:39:776,0,-12.4647,-4.88787,27.2849,Q,Q
2023-03-14 22:27:39:786,0,-12.445,-4.90193,27.2483,Q,Q
2023-03-14 22:27:39:796,0,-12.4167,-4.91317,27.2134,Q,Q
2023-03-14 22:27:39:806,0,-12.3895,-4.91969,27.177,Q,Q
2023-03-14 22:27:39:816,0,-12.3602,-4.9278,27.1483,Q,Q
2023-03-14 22:27:39:826,0,-12.3351,-4.93515,27.114,Q,Q
2023-03-14 22:27:39:836,0,-12.3161,-4.94069,27.0822,Q,Q
2023-03-14 22:27:39:846,0,-12.3012,-4.94114,27.0494,Q,Q
2023-03-14 22:27:39:856,0,-12.2901,-4.94574,27.0176,Q,Q
2023-03-14 22:27:39:865,0,-12.2761,-4.94773,26.9847,Q,Q
2023-03-14 22:27:39:876,0,-12.2595,-4.95039,26.9531,Q,Q
2023-03-14 22:27:39:886,0,-12.2416,-4.94869,26.9202,Q,Q
2023-03-14 22:27:39:896,0,-12.2226,-4.94309,26.8796,Q,Q
2023-03-14 22:27:39:906,0,-12.1997,-4.93792,26.8381,Q,Q
2023-03-14 22:27:39:916,0,-12.1757,-4.93773,26.7982,Q,Q
2023-03-14 22:27:39:926,0,-12.1548,-4.93533,26.7663,Q,Q
2023-03-14 22:27:39:936,0,-12.1411,-4.93907,26.7393,Q,Q
2023-03-14 22:27:39:946,0,-12.133,-4.94253,26.7079,Q,Q
2023-03-14 22:27:39:955,0,-12.1196,-4.94916,26.6742,Q,Q
2023-03-14 22:27:39:966,0,-12.1062,-4.95895,26.6431,Q,Q
2023-03-14 22:27:39:976,0,-12.0913,-4.96508,26.6135,Q,Q
2023-03-14 22:27:39:985,0,-12.0741,-4.96999,26.5904,Q,Q
2023-03-14 22:27:39:995,0,-12.0572,-4.9739,26.5681,Q,Q
2023-03-14 22:27:40:6,0,-12.0368,-4.98256,26.5472,Q,Q
2023-03-14 22:27:40:16,0,-12.0211,-4.99125,26.5318,Q,Q
2023-03-14 22:27:40:26,0,-12.009,-4.99742,26.5197,Q,Q
2023-03-14 22:27:40:36,0,-11.9984,-5.0042,26.5036,Q,Q
2023-03-14 22:27:40:46,0,-11.9708,-5.01748,26.4756,Q,Q
2023-03-14 22:27:40:56,0,-11.9429,-5.02765,26.4544,Q,Q
2023-03-14 22:27:40:65,0,-11.9172,-5.03283,26.4384,Q,Q
2023-03-14 22:27:40:76,0,-11.9002,-5.04234,26.4277,Q,Q
2023-03-14 22:27:40:86,0,-11.8859,-5.05302,26.4146,Q,Q
2023-03-14 22:27:40:96,0,-11.8713,-5.06365,26.3989,Q,Q
2023-03-14 22:27:40:106,0,-11.8541,-5.07416,26.3865,Q,Q
2023-03-14 22:27:40:116,0,-11.8406,-5.08367,26.3781,Q,Q
2023-03-14 22:27:40:126,0,-11.8322,-5.0895,26.3721,Q,Q
2023-03-14 22:27:40:136,0,-11.8283,-5.10064,26.3675,Q,Q
2023-03-14 22:27:40:146,0,-11.8272,-5.10981,26.3651,Q,Q
2023-03-14 22:27:40:156,0,-11.8289,-5.11448,26.3614,Q,Q
2023-03-14 22:27:40:166,0,-11.8281,-5.11676,26.3545,Q,Q
2023-03-14 22:27:40:176,0,-11.8258,-5.11868,26.3484,Q,Q
2023-03-14 22:27:40:186,0,-11.8252,-5.1177,26.3439,Q,Q
2023-03-14 22:27:40:196,0,-11.8288,-5.11325,26.3372,Q,Q
2023-03-14 22:27:40:206,0,-11.8318,-5.10805,26.3327,Q,Q
2023-03-14 22:27:40:216,0,-11.8361,-5.10392,26.3253,Q,Q
2023-03-14 22:27:40:226,0,-11.8375,-5.10329,26.3215,Q,Q
2023-03-14 22:27:40:236,0,-11.8411,-5.09736,26.3148,Q,Q
2023-03-14 22:27:40:246,0,-11.8423,-5.09351,26.3044,Q,Q
2023-03-14 22:27:40:256,0,-11.8415,-5.09029,26.2942,Q,Q
2023-03-14 22:27:40:266,0,-11.8458,-5.08479,26.2791,Q,Q
2023-03-14 22:27:40:276,0,-11.8499,-5.07474,26.2633,Q,Q
2023-03-14 22:27:40:286,0,-11.8576,-5.06737,26.2493,Q,Q
2023-03-14 22:27:40:296,0,-11.8678,-5.06011,26.2355,Q,Q
2023-03-14 22:27:40:306,0,-11.8821,-5.0521,26.2205,Q,Q
2023-03-14 22:27:40:316,0,-11.8985,-5.04786,26.2017,Q,Q
2023-03-14 22:27:40:326,0,-11.9167,-5.0418,26.1786,Q,Q
2023-03-14 22:27:40:336,0,-11.9345,-5.03781,26.157,Q,Q
2023-03-14 22:27:40:346,0,-11.9554,-5.03594,26.136,Q,Q
2023-03-14 22:27:40:355,0,-11.9761,-5.03437,26.1153,Q,Q
2023-03-14 22:27:40:365,0,-11.9977,-5.03212,26.0894,Q,Q
2023-03-14 22:27:40:376,0,-12.0121,-5.02625,26.0623,Q,Q
2023-03-14 22:27:40:386,0,-12.0202,-5.02184,26.0349,Q,Q
2023-03-14 22:27:40:396,0,-12.0259,-5.01705,26.0117,Q,Q
2023-03-14 22:27:40:406,0,-12.0339,-5.01823,25.9924,Q,Q
2023-03-14 22:27:40:416,0,-12.0417,-5.01856,25.9726,Q,Q
2023-03-14 22:27:40:426,0,-12.0472,-5.01911,25.9502,Q,Q
2023-03-14 22:27:40:436,0,-12.0517,-5.01599,25.9228,Q,Q
2023-03-14 22:27:40:446,0,-12.0576,-5.0073,25.8983,Q,Q
2023-03-14 22:27:40:456,0,-12.0595,-4.99954,25.8687,Q,Q
2023-03-14 22:27:40:466,0,-12.0568,-5.00071,25.8393,Q,Q
2023-03-14 22:27:40:476,0,-12.052,-5.00518,25.8061,Q,Q
2023-03-14 22:27:40:486,0,-12.0477,-5.0046,25.7701,Q,Q
2023-03-14 22:27:40:496,0,-12.0395,-5.00724,25.723,Q,Q
2023-03-14 22:27:40:505,0,-12.0328,-5.01078,25.6708,Q,Q
2023-03-14 22:27:40:515,0,-12.0244,-5.02106,25.6097,Q,Q
2023-03-14 22:27:40:525,0,-12.0149,-5.02968,25.5413,Q,Q
2023-03-14 22:27:40:536,0,-12.0028,-5.04254,25.462,Q,Q
2023-03-14 22:27:40:545,0,-11.9902,-5.05277,25.3719,Q,Q
2023-03-14 22:27:40:556,0,-11.9763,-5.06567,25.282,Q,Q
2023-03-14 22:27:40:566,0,-11.9686,-5.07845,25.1897,Q,Q
2023-03-14 22:27:40:576,0,-11.9667,-5.09688,25.1009,Q,Q
2023-03-14 22:27:40:586,0,-11.964,-5.11913,25.0141,Q,Q
2023-03-14 22:27:40:596,0,-11.9617,-5.13854,24.9251,Q,Q
2023-03-14 22:27:40:606,0,-11.9539,-5.15518,24.8313,Q,Q
2023-03-14 22:27:40:616,0,-11.9392,-5.17227,24.7425,Q,Q
2023-03-14 22:27:40:626,0,-11.9108,-5.1898,24.6495,Q,Q
2023-03-14 22:27:40:636,0,-11.8787,-5.20094,24.5519,Q,Q
2023-03-14 22:27:40:646,0,-11.8425,-5.20948,24.4575,Q,Q
2023-03-14 22:27:40:656,0,-11.8066,-5.21984,24.3655,Q,Q
2023-03-14 22:27:40:666,0,-11.7659,-5.23466,24.2796,Q,Q
2023-03-14 22:27:40:675,0,-11.7235,-5.25377,24.1987,Q,Q
2023-03-14 22:27:40:685,0,-11.6844,-5.27032,24.116,Q,Q
2023-03-14 22:27:40:695,0,-11.6409,-5.28993,24.0339,Q,Q
2023-03-14 22:27:40:706,0,-11.5926,-5.30366,23.9518,Q,Q
2023-03-14 22:27:40:715,0,-11.5438,-5.31837,23.8696,Q,Q
2023-03-14 22:27:40:726,0,-11.49,-5.3347,23.7858,Q,Q
2023-03-14 22:27:40:736,0,-11.4312,-5.34925,23.6969,Q,Q
2023-03-14 22:27:40:746,0,-11.3788,-5.36252,23.6107,Q,Q
2023-03-14 22:27:40:756,0,-11.3343,-5.38003,23.5198,Q,Q
2023-03-14 22:27:40:766,0,-11.303,-5.40229,23.4273,Q,Q
2023-03-14 22:27:40:776,0,-11.2763,-5.43209,23.3272,Q,Q
2023-03-14 22:27:40:786,0,-11.2445,-5.46478,23.2238,Q,Q
2023-03-14 22:27:40:796,0,-11.2161,-5.49441,23.1166,Q,Q
2023-03-14 22:27:40:806,0,-11.1834,-5.5255,23.009,Q,Q
2023-03-14 22:27:40:815,0,-11.1501,-5.5529,22.9019,Q,Q
2023-03-14 22:27:40:826,0,-11.1167,-5.57838,22.7912,Q,Q
2023-03-14 22:27:40:836,0,-11.0832,-5.60078,22.6802,Q,Q
2023-03-14 22:27:40:846,0,-11.0496,-5.62161,22.5687,Q,Q
2023-03-14 22:27:40:855,0,-11.0209,-5.64358,22.4598,Q,Q
2023-03-14 22:27:40:866,0,-11.0009,-5.6623,22.3557,Q,Q
2023-03-14 22:27:40:875,0,-10.98,-5.67911,22.2581,Q,Q
2023-03-14 22:27:40:885,0,-10.9635,-5.69837,22.1648,Q,Q
2023-03-14 22:27:40:895,0,-10.945,-5.71881,22.0803,Q,Q
2023-03-14 22:27:40:906,0,-10.9265,-5.73678,21.9971,Q,Q
2023-03-14 22:27:40:916,0,-10.903,-5.74661,21.9174,Q,Q
2023-03-14 22:27:40:926,0,-10.8834,-5.75619,21.8448,Q,Q
2023-03-14 22:27:40:936,0,-10.8616,-5.7621,21.7777,Q,Q
2023-03-14 22:27:40:946,0,-10.8407,-5.76919,21.7246,Q,Q
2023-03-14 22:27:40:956,0,-10.8192,-5.77587,21.6814,Q,Q
2023-03-14 22:27:40:965,0,-10.8086,-5.78227,21.6567,Q,Q
2023-03-14 22:27:40:976,0,-10.7937,-5.79226,21.646,Q,Q
2023-03-14 22:27:40:986,0,-10.7791,-5.79855,21.635,Q,Q
2023-03-14 22:27:40:996,0,-10.7622,-5.79495,21.635,Q,Q
2023-03-14 22:27:41:6,0,-10.7443,-5.78815,21.6391,Q,Q
2023-03-14 22:27:41:16,0,-10.7213,-5.77616,21.6435,Q,Q
2023-03-14 22:27:41:26,0,-10.6992,-5.76569,21.6491,Q,Q
2023-03-14 22:27:41:36,0,-10.6791,-5.75101,21.6547,Q,Q
2023-03-14 22:27:41:46,0,-10.6686,-5.73616,21.6594,Q,Q
2023-03-14 22:27:41:56,0,-10.6662,-5.72404,21.6651,Q,Q
2023-03-14 22:27:41:66,0,-10.6673,-5.71999,21.6712,Q,Q
2023-03-14 22:27:41:76,0,-10.6702,-5.71435,21.678,Q,Q
2023-03-14 22:27:41:86,0,-10.67,-5.71033,21.6775,Q,Q
2023-03-14 22:27:41:96,0,-10.6688,-5.70524,21.6762,Q,Q
2023-03-14 22:27:41:106,0,-10.6671,-5.69637,21.6745,Q,Q
2023-03-14 22:27:41:116,0,-10.6647,-5.69658,21.6725,Q,Q
2023-03-14 22:27:41:126,0,-10.6614,-5.69676,21.6668,Q,Q
2023-03-14 22:27:41:136,0,-10.6426,-5.69667,21.6583,Q,Q
2023-03-14 22:27:41:146,0,-10.6355,-5.69123,21.6625,Q,Q
2023-03-14 22:27:41:156,0,-10.6363,-5.68418,21.6717,Q,Q
2023-03-14 22:27:41:166,0,-10.6463,-5.68632,21.6883,Q,Q
2023-03-14 22:27:41:176,0,-10.6579,-5.6876,21.704,Q,Q
2023-03-14 22:27:41:186,0,-10.6707,-5.68403,21.7191,Q,Q
2023-03-14 22:27:41:196,0,-10.6819,-5.67632,21.7354,Q,Q
2023-03-14 22:27:41:206,0,-10.6849,-5.66666,21.7504,Q,Q
2023-03-14 22:27:41:215,0,-10.6835,-5.65564,21.7625,Q,Q
2023-03-14 22:27:41:226,0,-10.6845,-5.65038,21.7784,Q,Q
2023-03-14 22:27:41:236,0,-10.6911,-5.64296,21.8014,Q,Q
2023-03-14 22:27:41:246,0,-10.7044,-5.63777,21.8215,Q,Q
2023-03-14 22:27:41:256,0,-10.7194,-5.62707,21.8402,Q,Q
2023-03-14 22:27:41:266,0,-10.7365,-5.60787,21.8533,Q,Q
2023-03-14 22:27:41:276,0,-10.7543,-5.59107,21.8664,Q,Q
2023-03-14 22:27:41:285,0,-10.775,-5.57675,21.8855,Q,Q
2023-03-14 22:27:41:296,0,-10.7975,-5.5678,21.9,Q,Q
2023-03-14 22:27:41:306,0,-10.8164,-5.55942,21.9108,Q,Q
2023-03-14 22:27:41:316,0,-10.8253,-5.55573,21.9182,Q,Q
2023-03-14 22:27:41:326,0,-10.8231,-5.55069,21.9225,Q,Q
2023-03-14 22:27:41:336,0,-10.8208,-5.5438,21.9251,Q,Q
2023-03-14 22:27:41:346,0,-10.8131,-5.5362,21.926,Q,Q
2023-03-14 22:27:41:355,0,-10.7999,-5.53081,21.9259,Q,Q
2023-03-14 22:27:41:366,0,-10.7872,-5.52977,21.9287,Q,Q
2023-03-14 22:27:41:376,0,-10.7762,-5.52865,21.9281,Q,Q
2023-03-14 22:27:41:385,0,-10.7706,-5.52899,21.9262,Q,Q
2023-03-14 22:27:41:396,0,-10.7641,-5.53078,21.9276,Q,Q
2023-03-14 22:27:41:406,0,-10.7577,-5.52719,21.9246,Q,Q
2023-03-14 22:27:41:416,0,-10.7542,-5.53042,21.9201,Q,Q
2023-03-14 22:27:41:425,0,-10.75,-5.53483,21.9121,Q,Q
2023-03-14 22:27:41:435,0,-10.7488,-5.52949,21.9078,Q,Q
2023-03-14 22:27:41:445,0,-10.7438,-5.52509,21.9029,Q,Q
2023-03-14 22:27:41:455,0,-10.742,-5.5205,21.901,Q,Q
2023-03-14 22:27:41:465,0,-10.7392,-5.51804,21.8977,Q,Q
2023-03-14 22:27:41:475,0,-10.7328,-5.5152,21.8979,Q,Q
2023-03-14 22:27:41:486,0,-10.7316,-5.51127,21.9012,Q,Q
2023-03-14 22:27:41:496,0,-10.7305,-5.50616,21.9071,Q,Q
2023-03-14 22:27:41:505,0,-10.7325,-5.50157,21.9152,Q,Q
2023-03-14 22:27:41:516,0,-10.7358,-5.49788,21.9235,Q,Q
2023-03-14 22:27:41:526,0,-10.7426,-5.49341,21.9273,Q,Q
2023-03-14 22:27:41:535,0,-10.7507,-5.4886,21.9312,Q,Q
2023-03-14 22:27:41:545,0,-10.7608,-5.48515,21.9343,Q,Q
2023-03-14 22:27:41:556,0,-10.7674,-5.48584,21.9295,Q,Q
2023-03-14 22:27:41:565,0,-10.7775,-5.48421,21.9289,Q,Q
2023-03-14 22:27:41:576,0,-10.7815,-5.48449,21.9301,Q,Q
2023-03-14 22:27:41:585,0,-10.7925,-5.48562,21.9291,Q,Q
2023-03-14 22:27:41:596,0,-10.7999,-5.48746,21.9251,Q,Q
2023-03-14 22:27:41:606,0,-10.8157,-5.4903,21.9198,Q,Q
2023-03-14 22:27:41:616,0,-10.8274,-5.49235,21.9082,Q,Q
2023-03-14 22:27:41:625,0,-10.8391,-5.49973,21.8954,Q,Q
2023-03-14 22:27:41:636,0,-10.8468,-5.50724,21.8853,Q,Q
2023-03-14 22:27:41:646,0,-10.8594,-5.51368,21.874,Q,Q
2023-03-14 22:27:41:656,0,-10.8729,-5.51805,21.859,Q,Q
2023-03-14 22:27:41:666,0,-10.8832,-5.52065,21.8415,Q,Q
2023-03-14 22:27:41:676,0,-10.8908,-5.5244,21.8137,Q,Q
2023-03-14 22:27:41:685,0,-10.8731,-5.53343,21.7746,Q,Q
2023-03-14 22:27:41:695,0,-10.8641,-5.53391,21.752,Q,Q
2023-03-14 22:27:41:706,0,-10.8549,-5.53483,21.7316,Q,Q
2023-03-14 22:27:41:715,0,-10.8507,-5.54032,21.7092,Q,Q
2023-03-14 22:27:41:726,0,-10.8484,-5.54732,21.68,Q,Q
2023-03-14 22:27:41:736,0,-10.8432,-5.54574,21.648,Q,Q
2023-03-14 22:27:41:746,0,-10.837,-5.54075,21.6167,Q,Q
2023-03-14 22:27:41:756,0,-10.8336,-5.53758,21.5885,Q,Q
2023-03-14 22:27:41:766,0,-10.8297,-5.53858,21.5572,Q,Q
2023-03-14 22:27:41:776,0,-10.8186,-5.53793,21.5289,Q,Q
2023-03-14 22:27:41:786,0,-10.8045,-5.53801,21.5028,Q,Q
2023-03-14 22:27:41:795,0,-10.7882,-5.54053,21.4834,Q,Q
2023-03-14 22:27:41:806,0,-10.7714,-5.54686,21.4668,Q,Q
2023-03-14 22:27:41:816,0,-10.7577,-5.55542,21.4604,Q,Q
2023-03-14 22:27:41:826,0,-10.747,-5.56773,21.4634,Q,Q
2023-03-14 22:27:41:835,0,-10.744,-5.57699,21.4698,Q,Q
2023-03-14 22:27:41:846,0,-10.7442,-5.58755,21.4832,Q,Q
2023-03-14 22:27:41:856,0,-10.7444,-5.5976,21.5012,Q,Q
2023-03-14 22:27:41:866,0,-10.7441,-5.60158,21.5241,Q,Q
2023-03-14 22:27:41:876,0,-10.7485,-5.60177,21.5514,Q,Q
2023-03-14 22:27:41:886,0,-10.7492,-5.60142,21.5842,Q,Q
2023-03-14 22:27:41:896,0,-10.7524,-5.60841,21.6228,Q,Q
2023-03-14 22:27:41:906,0,-10.7613,-5.60872,21.6584,Q,Q
2023-03-14 22:27:41:916,0,-10.7649,-5.60671,21.6975,Q,Q
2023-03-14 22:27:41:926,0,-10.7739,-5.60068,21.7294,Q,Q
2023-03-14 22:27:41:936,0,-10.7851,-5.59125,21.7598,Q,Q
2023-03-14 22:27:41:945,0,-10.8014,-5.58403,21.7948,Q,Q
2023-03-14 22:27:41:956,0,-10.8259,-5.57165,21.8258,Q,Q
2023-03-14 22:27:41:966,0,-10.8548,-5.56164,21.8537,Q,Q
2023-03-14 22:27:41:976,0,-10.8887,-5.54772,21.8703,Q,Q
2023-03-14 22:27:41:986,0,-10.9179,-5.5364,21.8782,Q,Q
2023-03-14 22:27:41:996,0,-10.9395,-5.51859,21.8738,Q,Q
2023-03-14 22:27:42:6,0,-10.9582,-5.50703,21.8669,Q,Q
2023-03-14 22:27:42:16,0,-10.9755,-5.49623,21.8533,Q,Q
2023-03-14 22:27:42:26,0,-10.9925,-5.48381,21.8402,Q,Q
2023-03-14 22:27:42:35,0,-11.0106,-5.46609,21.8189,Q,Q
2023-03-14 22:27:42:45,0,-11.0257,-5.45008,21.7913,Q,Q
2023-03-14 22:27:42:56,0,-11.0341,-5.43606,21.7616,Q,Q
2023-03-14 22:27:42:66,0,-11.0424,-5.42317,21.7325,Q,Q
2023-03-14 22:27:42:76,0,-11.0529,-5.41415,21.7059,Q,Q
2023-03-14 22:27:42:86,0,-11.0621,-5.40752,21.6801,Q,Q
2023-03-14 22:27:42:96,0,-11.0688,-5.39995,21.654,Q,Q
2023-03-14 22:27:42:106,0,-11.0816,-5.39064,21.6244,Q,Q
2023-03-14 22:27:42:116,0,-11.0899,-5.38371,21.5953,Q,Q
2023-03-14 22:27:42:126,0,-11.0966,-5.37392,21.5673,Q,Q
2023-03-14 22:27:42:136,0,-11.1003,-5.36377,21.5373,Q,Q
2023-03-14 22:27:42:146,0,-11.0989,-5.35816,21.5064,Q,Q
2023-03-14 22:27:42:156,0,-11.0978,-5.35381,21.4782,Q,Q
2023-03-14 22:27:42:165,0,-11.0906,-5.35166,21.4509,Q,Q
2023-03-14 22:27:42:176,0,-11.0855,-5.34984,21.4212,Q,Q
2023-03-14 22:27:42:186,0,-11.0802,-5.35187,21.3957,Q,Q
2023-03-14 22:27:42:196,0,-11.0741,-5.36362,21.3737,Q,Q
2023-03-14 22:27:42:206,0,-11.0704,-5.37448,21.3556,Q,Q
2023-03-14 22:27:42:216,0,-11.0652,-5.38738,21.3346,Q,Q
2023-03-14 22:27:42:225,0,-11.0593,-5.39871,21.3139,Q,Q
2023-03-14 22:27:42:236,0,-11.0521,-5.40699,21.2925,Q,Q
2023-03-14 22:27:42:246,0,-11.0419,-5.41353,21.273,Q,Q
2023-03-14 22:27:42:256,0,-11.032,-5.41822,21.2558,Q,Q
2023-03-14 22:27:42:266,0,-11.0226,-5.42047,21.2374,Q,Q
2023-03-14 22:27:42:276,0,-11.0168,-5.41879,21.2125,Q,Q
2023-03-14 22:27:42:286,0,-11.0112,-5.41693,21.184,Q,Q
2023-03-14 22:27:42:296,0,-11.004,-5.40948,21.1487,Q,Q
2023-03-14 22:27:42:306,0,-10.9972,-5.4034,21.1148,Q,Q
2023-03-14 22:27:42:316,0,-10.9844,-5.39501,21.0722,Q,Q
2023-03-14 22:27:42:326,0,-10.9706,-5.3874,21.0294,Q,Q
2023-03-14 22:27:42:335,0,-10.9615,-5.38141,20.9817,Q,Q
2023-03-14 22:27:42:346,0,-10.953,-5.37542,20.9338,Q,Q
2023-03-14 22:27:42:356,0,-10.9489,-5.36939,20.8837,Q,Q
2023-03-14 22:27:42:366,0,-10.9437,-5.36457,20.8305,Q,Q
2023-03-14 22:27:42:376,0,-10.9331,-5.35943,20.7744,Q,Q
2023-03-14 22:27:42:386,0,-10.9172,-5.35849,20.7188,Q,Q
2023-03-14 22:27:42:396,0,-10.8975,-5.36188,20.6601,Q,Q
2023-03-14 22:27:42:406,0,-10.8809,-5.36588,20.5993,Q,Q
2023-03-14 22:27:42:416,0,-10.8701,-5.36865,20.53,Q,Q
2023-03-14 22:27:42:425,0,-10.863,-5.36983,20.4522,Q,Q
2023-03-14 22:27:42:436,0,-10.8617,-5.37368,20.3656,Q,Q
2023-03-14 22:27:42:446,0,-10.8569,-5.37572,20.2773,Q,Q
2023-03-14 22:27:42:456,0,-10.8513,-5.37501,20.1785,Q,Q
2023-03-14 22:27:42:466,0,-10.8384,-5.37904,20.0692,Q,Q
2023-03-14 22:27:42:476,0,-10.8149,-5.38993,19.9579,Q,Q
2023-03-14 22:27:42:486,0,-10.7852,-5.40529,19.8555,Q,Q
2023-03-14 22:27:42:496,0,-10.7456,-5.43321,19.7552,Q,Q
2023-03-14 22:27:42:505,0,-10.7014,-5.47224,19.656,Q,Q
2023-03-14 22:27:42:516,0,-10.6564,-5.51775,19.5596,Q,Q
2023-03-14 22:27:42:526,0,-10.6234,-5.55783,19.4654,Q,Q
2023-03-14 22:27:42:536,0,-10.6077,-5.59348,19.3639,Q,Q
2023-03-14 22:27:42:546,0,-10.6075,-5.62537,19.2563,Q,Q
2023-03-14 22:27:42:555,0,-10.6161,-5.65214,19.1431,Q,Q
2023-03-14 22:27:42:565,0,-10.6202,-5.68343,19.0277,Q,Q
2023-03-14 22:27:42:575,0,-10.6052,-5.72132,18.9142,Q,Q
2023-03-14 22:27:42:586,0,-10.5709,-5.76238,18.81,Q,Q
2023-03-14 22:27:42:595,0,-10.5218,-5.80683,18.7265,Q,Q
2023-03-14 22:27:42:606,0,-10.4731,-5.84837,18.6522,Q,Q
2023-03-14 22:27:42:616,0,-10.4385,-5.87864,18.587,Q,Q
2023-03-14 22:27:42:626,0,-10.4259,-5.89401,18.5246,Q,Q
2023-03-14 22:27:42:636,0,-10.4365,-5.90308,18.4592,Q,Q
2023-03-14 22:27:42:646,0,-10.4572,-5.90272,18.393,Q,Q
2023-03-14 22:27:42:656,0,-10.4781,-5.90388,18.3231,Q,Q
2023-03-14 22:27:42:666,0,-10.4893,-5.90153,18.2581,Q,Q
2023-03-14 22:27:42:676,0,-10.4899,-5.89784,18.1983,Q,Q
2023-03-14 22:27:42:686,0,-10.48,-5.89067,18.1412,Q,Q
2023-03-14 22:27:42:696,0,-10.4645,-5.8816,18.0953,Q,Q
2023-03-14 22:27:42:705,0,-10.4476,-5.8719,18.0601,Q,Q
2023-03-14 22:27:42:716,0,-10.437,-5.8624,18.0314,Q,Q
2023-03-14 22:27:42:725,0,-10.436,-5.8544,18.0061,Q,Q
2023-03-14 22:27:42:736,0,-10.4468,-5.84923,17.9852,Q,Q
2023-03-14 22:27:42:746,0,-10.4646,-5.84828,17.9645,Q,Q
2023-03-14 22:27:42:756,0,-10.4857,-5.84217,17.9395,Q,Q
2023-03-14 22:27:42:766,0,-10.5008,-5.83265,17.9133,Q,Q
2023-03-14 22:27:42:776,0,-10.5171,-5.82324,17.8946,Q,Q
2023-03-14 22:27:42:786,0,-10.535,-5.81348,17.8811,Q,Q
2023-03-14 22:27:42:796,0,-10.5662,-5.80715,17.8725,Q,Q
2023-03-14 22:27:42:806,0,-10.6063,-5.79828,17.8676,Q,Q
2023-03-14 22:27:42:816,0,-10.6559,-5.79062,17.8613,Q,Q
2023-03-14 22:27:42:826,0,-10.7101,-5.78037,17.8515,Q,Q
2023-03-14 22:27:42:836,0,-10.7663,-5.76212,17.8374,Q,Q
2023-03-14 22:27:42:846,0,-10.8201,-5.73828,17.8124,Q,Q
2023-03-14 22:27:42:856,0,-10.877,-5.7073,17.778,Q,Q
2023-03-14 22:27:42:866,0,-10.931,-5.67721,17.7379,Q,Q
2023-03-14 22:27:42:876,0,-10.9897,-5.65089,17.6966,Q,Q
2023-03-14 22:27:42:886,0,-11.0521,-5.62599,17.6563,Q,Q
2023-03-14 22:27:42:896,0,-11.1177,-5.60314,17.6145,Q,Q
2023-03-14 22:27:42:906,0,-11.1833,-5.58411,17.5715,Q,Q
2023-03-14 22:27:42:916,0,-11.2472,-5.5657,17.523,Q,Q
2023-03-14 22:27:42:926,0,-11.3027,-5.55271,17.476,Q,Q
2023-03-14 22:27:42:936,0,-11.3559,-5.53954,17.4279,Q,Q
2023-03-14 22:27:42:946,0,-11.4002,-5.52299,17.3772,Q,Q
2023-03-14 22:27:42:956,0,-11.4367,-5.50863,17.3216,Q,Q
2023-03-14 22:27:42:965,0,-11.4638,-5.5025,17.2708,Q,Q
2023-03-14 22:27:42:976,0,-11.481,-5.50887,17.2262,Q,Q
2023-03-14 22:27:42:985,0,-11.4917,-5.51463,17.185,Q,Q
2023-03-14 22:27:42:996,0,-11.4961,-5.51961,17.1531,Q,Q
2023-03-14 22:27:43:6,0,-11.5027,-5.52747,17.1291,Q,Q
2023-03-14 22:27:43:16,0,-11.5121,-5.53967,17.1078,Q,Q
2023-03-14 22:27:43:26,0,-11.5294,-5.55122,17.0946,Q,Q
2023-03-14 22:27:43:35,0,-11.5582,-5.56268,17.0844,Q,Q
2023-03-14 22:27:43:46,0,-11.5932,-5.57231,17.0742,Q,Q
2023-03-14 22:27:43:56,0,-11.6297,-5.5817,17.0528,Q,Q
2023-03-14 22:27:43:65,0,-11.6691,-5.58507,17.0189,Q,Q
2023-03-14 22:27:43:75,0,-11.7022,-5.58377,16.9676,Q,Q
2023-03-14 22:27:43:85,0,-11.7346,-5.58193,16.9029,Q,Q
2023-03-14 22:27:43:96,0,-11.7656,-5.58423,16.8315,Q,Q
2023-03-14 22:27:43:106,0,-11.7986,-5.59345,16.7506,Q,Q
2023-03-14 22:27:43:116,0,-11.8255,-5.61007,16.6685,Q,Q
2023-03-14 22:27:43:125,0,-11.8454,-5.6279,16.5873,Q,Q
2023-03-14 22:27:43:136,0,-11.8611,-5.64472,16.5103,Q,Q
2023-03-14 22:27:43:146,0,-11.8742,-5.65761,16.4406,Q,Q
2023-03-14 22:27:43:155,0,-11.8876,-5.66623,16.3802,Q,Q
2023-03-14 22:27:43:166,0,-11.9005,-5.67348,16.3291,Q,Q
2023-03-14 22:27:43:176,0,-11.9157,-5.68258,16.2931,Q,Q
2023-03-14 22:27:43:186,0,-11.9339,-5.69051,16.2711,Q,Q
2023-03-14 22:27:43:196,0,-11.9577,-5.69834,16.2684,Q,Q
2023-03-14 22:27:43:206,0,-11.9884,-5.70417,16.2758,Q,Q
2023-03-14 22:27:43:216,0,-12.0242,-5.70177,16.2941,Q,Q
2023-03-14 22:27:43:225,0,-12.062,-5.68974,16.3207,Q,Q
2023-03-14 22:27:43:236,0,-12.1006,-5.66573,16.3548,Q,Q
2023-03-14 22:27:43:246,0,-12.1332,-5.62596,16.3909,Q,Q
2023-03-14 22:27:43:256,0,-12.1602,-5.5751,16.4264,Q,Q
2023-03-14 22:27:43:266,0,-12.189,-5.51459,16.4629,Q,Q
2023-03-14 22:27:43:276,0,-12.2184,-5.45225,16.4986,Q,Q
2023-03-14 22:27:43:286,0,-12.2449,-5.38873,16.533,Q,Q
2023-03-14 22:27:43:296,0,-12.2748,-5.33038,16.5647,Q,Q
2023-03-14 22:27:43:306,0,-12.3036,-5.27734,16.5934,Q,Q
2023-03-14 22:27:43:316,0,-12.3318,-5.2287,16.6154,Q,Q
2023-03-14 22:27:43:326,0,-12.3574,-5.18617,16.6364,Q,Q
2023-03-14 22:27:43:336,0,-12.3838,-5.15399,16.6561,Q,Q
2023-03-14 22:27:43:346,0,-12.4091,-5.13876,16.675,Q,Q
2023-03-14 22:27:43:356,0,-12.4319,-5.14044,16.6926,Q,Q
2023-03-14 22:27:43:365,0,-12.4468,-5.1492,16.7148,Q,Q
2023-03-14 22:27:43:376,0,-12.4628,-5.16829,16.7373,Q,Q
2023-03-14 22:27:43:386,0,-12.4752,-5.19211,16.7587,Q,Q
2023-03-14 22:27:43:396,0,-12.485,-5.21808,16.7782,Q,Q
2023-03-14 22:27:43:406,0,-12.4919,-5.24288,16.7942,Q,Q
2023-03-14 22:27:43:416,0,-12.4901,-5.26519,16.8076,Q,Q
2023-03-14 22:27:43:426,0,-12.4857,-5.28117,16.8168,Q,Q
2023-03-14 22:27:43:436,0,-12.4759,-5.29345,16.8247,Q,Q
2023-03-14 22:27:43:446,0,-12.464,-5.29998,16.8336,Q,Q
2023-03-14 22:27:43:456,0,-12.4561,-5.30946,16.8403,Q,Q
2023-03-14 22:27:43:465,0,-12.448,-5.31342,16.843,Q,Q
2023-03-14 22:27:43:476,0,-12.4392,-5.3172,16.8498,Q,Q
2023-03-14 22:27:43:486,0,-12.428,-5.32202,16.8504,Q,Q
2023-03-14 22:27:43:495,0,-12.4145,-5.32107,16.8429,Q,Q
2023-03-14 22:27:43:506,0,-12.4037,-5.32197,16.8363,Q,Q
2023-03-14 22:27:43:516,0,-12.3895,-5.32281,16.8321,Q,Q
2023-03-14 22:27:43:526,0,-12.3804,-5.32053,16.8279,Q,Q
2023-03-14 22:27:43:536,0,-12.3776,-5.32047,16.8216,Q,Q
2023-03-14 22:27:43:546,0,-12.3689,-5.31637,16.8119,Q,Q
2023-03-14 22:27:43:556,0,-12.3608,-5.31191,16.8048,Q,Q
2023-03-14 22:27:43:566,0,-12.354,-5.30558,16.7987,Q,Q
2023-03-14 22:27:43:575,0,-12.3431,-5.30536,16.7874,Q,Q
2023-03-14 22:27:43:585,0,-12.3235,-5.30187,16.775,Q,Q
2023-03-14 22:27:43:596,0,-12.3018,-5.30533,16.7613,Q,Q
2023-03-14 22:27:43:606,0,-12.2833,-5.30926,16.7533,Q,Q
2023-03-14 22:27:43:616,0,-12.2608,-5.31508,16.7457,Q,Q
2023-03-14 22:27:43:626,0,-12.2399,-5.32487,16.7429,Q,Q
2023-03-14 22:27:43:636,0,-12.2166,-5.33292,16.737,Q,Q
2023-03-14 22:27:43:646,0,-12.1919,-5.34852,16.7297,Q,Q
2023-03-14 22:27:43:656,0,-12.1674,-5.36494,16.7253,Q,Q
2023-03-14 22:27:43:666,0,-12.1434,-5.38584,16.7267,Q,Q
2023-03-14 22:27:43:676,0,-12.118,-5.41478,16.7248,Q,Q
2023-03-14 22:27:43:686,0,-12.0869,-5.43964,16.7257,Q,Q
2023-03-14 22:27:43:696,0,-12.0577,-5.46629,16.7312,Q,Q
2023-03-14 22:27:43:706,0,-12.0252,-5.49502,16.7385,Q,Q
2023-03-14 22:27:43:716,0,-11.9907,-5.52554,16.7463,Q,Q
2023-03-14 22:27:43:725,0,-11.9603,-5.55642,16.7524,Q,Q
2023-03-14 22:27:43:736,0,-11.9307,-5.58734,16.7608,Q,Q
2023-03-14 22:27:43:745,0,-11.8988,-5.61746,16.7655,Q,Q
2023-03-14 22:27:43:756,0,-11.872,-5.64488,16.7745,Q,Q
2023-03-14 22:27:43:766,0,-11.8446,-5.67797,16.7805,Q,Q
2023-03-14 22:27:43:776,0,-11.8187,-5.71597,16.7828,Q,Q
2023-03-14 22:27:43:786,0,-11.7924,-5.75273,16.788,Q,Q
2023-03-14 22:27:43:796,0,-11.7625,-5.79218,16.7923,Q,Q
2023-03-14 22:27:43:806,0,-11.7367,-5.83352,16.7955,Q,Q
2023-03-14 22:27:43:816,0,-11.7129,-5.86848,16.7931,Q,Q
2023-03-14 22:27:43:825,0,-11.6884,-5.89513,16.7833,Q,Q
2023-03-14 22:27:43:836,0,-11.6642,-5.91699,16.7693,Q,Q
2023-03-14 22:27:43:846,0,-11.6359,-5.9364,16.753,Q,Q
2023-03-14 22:27:43:856,0,-11.61,-5.95704,16.7329,Q,Q
2023-03-14 22:27:43:866,0,-11.585,-5.97572,16.7119,Q,Q
2023-03-14 22:27:43:876,0,-11.5614,-5.98708,16.6857,Q,Q
2023-03-14 22:27:43:886,0,-11.5402,-5.99533,16.6526,Q,Q
2023-03-14 22:27:43:896,0,-11.5185,-5.99747,16.6125,Q,Q
2023-03-14 22:27:43:906,0,-11.4966,-5.99913,16.5797,Q,Q
2023-03-14 22:27:43:916,0,-11.4762,-5.99334,16.5429,Q,Q
2023-03-14 22:27:43:925,0,-11.4614,-5.98876,16.5064,Q,Q
2023-03-14 22:27:43:935,0,-11.4505,-5.98044,16.4733,Q,Q
2023-03-14 22:27:43:945,0,-11.4431,-5.97775,16.4419,Q,Q
2023-03-14 22:27:43:956,0,-11.4388,-5.97298,16.4144,Q,Q
2023-03-14 22:27:43:965,0,-11.436,-5.96578,16.3857,Q,Q
2023-03-14 22:27:43:976,0,-11.4334,-5.95805,16.3585,Q,Q
2023-03-14 22:27:43:986,0,-11.4319,-5.95119,16.3334,Q,Q
2023-03-14 22:27:43:995,0,-11.4335,-5.94317,16.3134,Q,Q
2023-03-14 22:27:44:6,0,-11.4332,-5.94181,16.2935,Q,Q
2023-03-14 22:27:44:16,0,-11.4343,-5.93776,16.2764,Q,Q
2023-03-14 22:27:44:26,0,-11.4374,-5.9362,16.2653,Q,Q
2023-03-14 22:27:44:36,0,-11.4457,-5.93202,16.252,Q,Q
2023-03-14 22:27:44:46,0,-11.4524,-5.92857,16.2388,Q,Q
2023-03-14 22:27:44:55,0,-11.4589,-5.92561,16.2284,Q,Q
2023-03-14 22:27:44:66,0,-11.4676,-5.92248,16.2228,Q,Q
2023-03-14 22:27:44:76,0,-11.4708,-5.92066,16.2158,Q,Q
2023-03-14 22:27:44:86,0,-11.4741,-5.91969,16.2095,Q,Q
2023-03-14 22:27:44:95,0,-11.4801,-5.91864,16.204,Q,Q
2023-03-14 22:27:44:105,0,-11.4855,-5.91938,16.2042,Q,Q
2023-03-14 22:27:44:116,0,-11.4919,-5.92379,16.2054,Q,Q
2023-03-14 22:27:44:126,0,-11.4949,-5.92705,16.2092,Q,Q
2023-03-14 22:27:44:136,0,-11.5042,-5.92874,16.2158,Q,Q
2023-03-14 22:27:44:146,0,-11.5149,-5.93369,16.2256,Q,Q
2023-03-14 22:27:44:156,0,-11.5273,-5.93634,16.2333,Q,Q
2023-03-14 22:27:44:166,0,-11.5414,-5.94024,16.2454,Q,Q
2023-03-14 22:27:44:176,0,-11.5563,-5.94444,16.2536,Q,Q
2023-03-14 22:27:44:186,0,-11.5714,-5.95133,16.2656,Q,Q
2023-03-14 22:27:44:196,0,-11.5842,-5.95733,16.2755,Q,Q
2023-03-14 22:27:44:206,0,-11.5982,-5.96375,16.2866,Q,Q
2023-03-14 22:27:44:216,0,-11.6121,-5.97189,16.2949,Q,Q
2023-03-14 22:27:44:226,0,-11.6196,-5.97775,16.3014,Q,Q
2023-03-14 22:27:44:236,0,-11.6222,-5.98284,16.3085,Q,Q
2023-03-14 22:27:44:246,0,-11.6239,-5.98814,16.3143,Q,Q
2023-03-14 22:27:44:256,0,-11.624,-5.99456,16.3217,Q,Q
2023-03-14 22:27:44:266,0,-11.6245,-6.00197,16.3313,Q,Q
2023-03-14 22:27:44:276,0,-11.6296,-6.00551,16.3381,Q,Q
2023-03-14 22:27:44:286,0,-11.63,-6.00561,16.3471,Q,Q
2023-03-14 22:27:44:296,0,-11.631,-6.00632,16.3523,Q,Q
2023-03-14 22:27:44:306,0,-11.6351,-6.00778,16.3569,Q,Q
2023-03-14 22:27:44:316,0,-11.6358,-6.01287,16.3665,Q,Q
2023-03-14 22:27:44:326,0,-11.6357,-6.00741,16.3707,Q,Q
2023-03-14 22:27:44:336,0,-11.632,-5.9991,16.3713,Q,Q
2023-03-14 22:27:44:345,0,-11.623,-5.99362,16.371,Q,Q
2023-03-14 22:27:44:356,0,-11.6156,-5.98708,16.3695,Q,Q
2023-03-14 22:27:44:366,0,-11.6102,-5.98204,16.364,Q,Q
2023-03-14 22:27:44:376,0,-11.6051,-5.97609,16.3584,Q,Q
2023-03-14 22:27:44:385,0,-11.5984,-5.97176,16.3521,Q,Q
2023-03-14 22:27:44:396,0,-11.5873,-5.96479,16.3427,Q,Q
2023-03-14 22:27:44:406,0,-11.5778,-5.95619,16.325,Q,Q
2023-03-14 22:27:44:416,0,-11.5552,-5.94879,16.3048,Q,Q
2023-03-14 22:27:44:426,0,-11.5379,-5.94073,16.2832,Q,Q
2023-03-14 22:27:44:436,0,-11.5211,-5.93788,16.2638,Q,Q
2023-03-14 22:27:44:446,0,-11.5063,-5.94107,16.2441,Q,Q
2023-03-14 22:27:44:456,0,-11.4984,-5.94367,16.2224,Q,Q
2023-03-14 22:27:44:465,0,-11.4964,-5.94708,16.2013,Q,Q
2023-03-14 22:27:44:475,0,-11.4936,-5.94773,16.1793,Q,Q
2023-03-14 22:27:44:485,0,-11.4874,-5.95107,16.1571,Q,Q
2023-03-14 22:27:44:496,0,-11.4856,-5.95648,16.1402,Q,Q
2023-03-14 22:27:44:506,0,-11.4821,-5.96228,16.1278,Q,Q
2023-03-14 22:27:44:516,0,-11.4798,-5.96552,16.1169,Q,Q
2023-03-14 22:27:44:526,0,-11.4801,-5.97175,16.1071,Q,Q
2023-03-14 22:27:44:536,0,-11.4787,-5.97539,16.1003,Q,Q
2023-03-14 22:27:44:546,0,-11.4777,-5.98153,16.0958,Q,Q
2023-03-14 22:27:44:556,0,-11.4761,-5.98894,16.0938,Q,Q
2023-03-14 22:27:44:565,0,-11.4738,-5.99296,16.093,Q,Q
2023-03-14 22:27:44:576,0,-11.4784,-5.99742,16.0933,Q,Q
2023-03-14 22:27:44:586,0,-11.482,-6.00027,16.0948,Q,Q
2023-03-14 22:27:44:596,0,-11.4877,-5.99855,16.0959,Q,Q
2023-03-14 22:27:44:606,0,-11.4912,-5.99641,16.0992,Q,Q
2023-03-14 22:27:44:615,0,-11.5,-5.99414,16.1028,Q,Q
2023-03-14 22:27:44:626,0,-11.5102,-5.9966,16.113,Q,Q
2023-03-14 22:27:44:635,0,-11.5221,-5.99946,16.1207,Q,Q
2023-03-14 22:27:44:646,0,-11.535,-6.00204,16.1295,Q,Q
2023-03-14 22:27:44:656,0,-11.5477,-6.00279,16.1351,Q,Q
2023-03-14 22:27:44:666,0,-11.5609,-5.99816,16.1364,Q,Q
2023-03-14 22:27:44:676,0,-11.5694,-5.99581,16.1376,Q,Q
2023-03-14 22:27:44:686,0,-11.5746,-5.99818,16.1399,Q,Q
2023-03-14 22:27:44:696,0,-11.5798,-6.00498,16.1413,Q,Q
2023-03-14 22:27:44:706,0,-11.5861,-6.01344,16.1441,Q,Q
2023-03-14 22:27:44:716,0,-11.5956,-6.01995,16.1433,Q,Q
2023-03-14 22:27:44:726,0,-11.6025,-6.02313,16.1373,Q,Q
2023-03-14 22:27:44:735,0,-11.6129,-6.01867,16.132,Q,Q
2023-03-14 22:27:44:746,0,-11.625,-6.01741,16.1248,Q,Q
2023-03-14 22:27:44:756,0,-11.6375,-6.01413,16.1175,Q,Q
2023-03-14 22:27:44:766,0,-11.6487,-6.01499,16.1147,Q,Q
2023-03-14 22:27:44:776,0,-11.6596,-6.01274,16.1108,Q,Q
2023-03-14 22:27:44:786,0,-11.6712,-6.01278,16.1055,Q,Q
2023-03-14 22:27:44:796,0,-11.682,-6.01367,16.0989,Q,Q
2023-03-14 22:27:44:806,0,-11.6929,-6.01747,16.0929,Q,Q
2023-03-14 22:27:44:816,0,-11.7024,-6.02133,16.087,Q,Q
2023-03-14 22:27:44:826,0,-11.7146,-6.02809,16.0785,Q,Q
2023-03-14 22:27:44:836,0,-11.7269,-6.0346,16.0734,Q,Q
2023-03-14 22:27:44:845,0,-11.7333,-6.04005,16.0712,Q,Q
2023-03-14 22:27:44:856,0,-11.746,-6.04722,16.069,Q,Q
2023-03-14 22:27:44:865,0,-11.7533,-6.0538,16.0722,Q,Q
2023-03-14 22:27:44:876,0,-11.7601,-6.06182,16.0786,Q,Q
2023-03-14 22:27:44:886,0,-11.7682,-6.06818,16.0871,Q,Q
2023-03-14 22:27:44:896,0,-11.7767,-6.07256,16.0988,Q,Q
2023-03-14 22:27:44:905,0,-11.7826,-6.07761,16.1113,Q,Q
2023-03-14 22:27:44:916,0,-11.7881,-6.07834,16.1213,Q,Q
2023-03-14 22:27:44:926,0,-11.7918,-6.08057,16.1327,Q,Q
2023-03-14 22:27:44:936,0,-11.7962,-6.08526,16.1466,Q,Q
2023-03-14 22:27:44:946,0,-11.8039,-6.08832,16.1562,Q,Q
2023-03-14 22:27:44:956,0,-11.8114,-6.09527,16.1646,Q,Q
2023-03-14 22:27:44:966,0,-11.8163,-6.10415,16.1778,Q,Q
2023-03-14 22:27:44:976,0,-11.8219,-6.11011,16.1854,Q,Q
2023-03-14 22:27:44:986,0,-11.8299,-6.11865,16.1947,Q,Q
2023-03-14 22:27:44:996,0,-11.8328,-6.12505,16.2017,Q,Q
2023-03-14 22:27:45:6,0,-11.8387,-6.13001,16.2121,Q,Q
2023-03-14 22:27:45:16,0,-11.8454,-6.13637,16.2233,Q,Q
2023-03-14 22:27:45:26,0,-11.855,-6.14156,16.241,Q,Q
2023-03-14 22:27:45:36,0,-11.8609,-6.14763,16.2573,Q,Q
2023-03-14 22:27:45:46,0,-11.8646,-6.14867,16.2751,Q,Q
2023-03-14 22:27:45:56,0,-11.8666,-6.14877,16.2939,Q,Q
2023-03-14 22:27:45:66,0,-11.868,-6.14852,16.3126,Q,Q
2023-03-14 22:27:45:75,0,-11.8702,-6.14899,16.3291,Q,Q
2023-03-14 22:27:45:86,0,-11.8717,-6.14956,16.3462,Q,Q
2023-03-14 22:27:45:96,0,-11.873,-6.15199,16.3539,Q,Q
2023-03-14 22:27:45:106,0,-11.8739,-6.156,16.362,Q,Q
2023-03-14 22:27:45:116,0,-11.8769,-6.15928,16.3695,Q,Q
2023-03-14 22:27:45:126,0,-11.8765,-6.16498,16.3744,Q,Q
2023-03-14 22:27:45:135,0,-11.8779,-6.16917,16.3736,Q,Q
2023-03-14 22:27:45:146,0,-11.8757,-6.17,16.374,Q,Q
2023-03-14 22:27:45:156,0,-11.878,-6.17651,16.372,Q,Q
2023-03-14 22:27:45:166,0,-11.881,-6.18092,16.3706,Q,Q
2023-03-14 22:27:45:176,0,-11.8854,-6.18121,16.3699,Q,Q
2023-03-14 22:27:45:186,0,-11.8869,-6.18054,16.3704,Q,Q
2023-03-14 22:27:45:196,0,-11.8899,-6.1795,16.3641,Q,Q
2023-03-14 22:27:45:206,0,-11.8883,-6.17784,16.3605,Q,Q
2023-03-14 22:27:45:216,0,-11.8895,-6.17496,16.3501,Q,Q
2023-03-14 22:27:45:226,0,-11.8919,-6.16994,16.3419,Q,Q
2023-03-14 22:27:45:236,0,-11.8933,-6.16572,16.3359,Q,Q
2023-03-14 22:27:45:246,0,-11.8945,-6.1644,16.3294,Q,Q
2023-03-14 22:27:45:256,0,-11.8975,-6.16329,16.3226,Q,Q
2023-03-14 22:27:45:266,0,-11.9011,-6.16273,16.3115,Q,Q
2023-03-14 22:27:45:276,0,-11.9019,-6.15822,16.2993,Q,Q
2023-03-14 22:27:45:286,0,-11.8981,-6.16036,16.2896,Q,Q
2023-03-14 22:27:45:296,0,-11.8943,-6.16415,16.2852,Q,Q
2023-03-14 22:27:45:306,0,-11.8916,-6.16959,16.289,Q,Q
2023-03-14 22:27:45:315,0,-11.8928,-6.17801,16.2901,Q,Q
2023-03-14 22:27:45:326,0,-11.8982,-6.18578,16.2943,Q,Q
2023-03-14 22:27:45:336,0,-11.9008,-6.18963,16.2959,Q,Q
2023-03-14 22:27:45:346,0,-11.901,-6.1918,16.3004,Q,Q
2023-03-14 22:27:45:355,0,-11.9014,-6.19601,16.3019,Q,Q
2023-03-14 22:27:45:366,0,-11.8977,-6.20345,16.3101,Q,Q
2023-03-14 22:27:45:376,0,-11.8945,-6.2091,16.3151,Q,Q
2023-03-14 22:27:45:386,0,-11.8924,-6.21153,16.3211,Q,Q
2023-03-14 22:27:45:396,0,-11.8906,-6.21133,16.3269,Q,Q
2023-03-14 22:27:45:406,0,-11.8931,-6.21279,16.329,Q,Q
2023-03-14 22:27:45:416,0,-11.8968,-6.21206,16.3345,Q,Q
2023-03-14 22:27:45:426,0,-11.905,-6.21317,16.3388,Q,Q
2023-03-14 22:27:45:436,0,-11.9108,-6.21638,16.3429,Q,Q
2023-03-14 22:27:45:446,0,-11.9149,-6.21791,16.3436,Q,Q
2023-03-14 22:27:45:455,0,-11.9144,-6.21884,16.3455,Q,Q
2023-03-14 22:27:45:465,0,-11.9183,-6.21508,16.3482,Q,Q
2023-03-14 22:27:45:476,0,-11.9177,-6.21185,16.3507,Q,Q
2023-03-14 22:27:45:486,0,-11.9163,-6.20946,16.3544,Q,Q
2023-03-14 22:27:45:496,0,-11.9169,-6.20961,16.3601,Q,Q
2023-03-14 22:27:45:506,0,-11.9245,-6.21446,16.3691,Q,Q
2023-03-14 22:27:45:516,0,-11.9363,-6.21791,16.3734,Q,Q
2023-03-14 22:27:45:526,0,-11.9445,-6.22,16.3763,Q,Q
2023-03-14 22:27:45:536,0,-11.9444,-6.22571,16.3799,Q,Q
2023-03-14 22:27:45:546,0,-11.9411,-6.23536,16.3829,Q,Q
2023-03-14 22:27:45:555,0,-11.934,-6.25087,16.3904,Q,Q
2023-03-14 22:27:45:565,0,-11.9236,-6.26483,16.3994,Q,Q
2023-03-14 22:27:45:576,0,-11.9144,-6.27658,16.4113,Q,Q
2023-03-14 22:27:45:586,0,-11.9027,-6.29471,16.4248,Q,Q
2023-03-14 22:27:45:596,0,-11.8947,-6.3103,16.4367,Q,Q
2023-03-14 22:27:45:606,0,-11.8859,-6.32157,16.4508,Q,Q
2023-03-14 22:27:45:616,0,-11.8781,-6.3374,16.4713,Q,Q
2023-03-14 22:27:45:626,0,-11.8677,-6.34595,16.4892,Q,Q
2023-03-14 22:27:45:636,0,-11.8621,-6.36165,16.5094,Q,Q
2023-03-14 22:27:45:646,0,-11.8563,-6.37691,16.5297,Q,Q
2023-03-14 22:27:45:655,0,-11.8543,-6.39509,16.5482,Q,Q
2023-03-14 22:27:45:666,0,-11.8523,-6.40869,16.5683,Q,Q
2023-03-14 22:27:45:676,0,-11.853,-6.4218,16.5894,Q,Q
2023-03-14 22:27:45:686,0,-11.8558,-6.43484,16.6135,Q,Q
2023-03-14 22:27:45:696,0,-11.8615,-6.45142,16.636,Q,Q
2023-03-14 22:27:45:706,0,-11.868,-6.47041,16.6574,Q,Q
2023-03-14 22:27:45:716,0,-11.8755,-6.48587,16.6804,Q,Q
2023-03-14 22:27:45:726,0,-11.8818,-6.50216,16.7021,Q,Q
2023-03-14 22:27:45:736,0,-11.8888,-6.51714,16.7249,Q,Q
2023-03-14 22:27:45:745,0,-11.8928,-6.53129,16.7485,Q,Q
2023-03-14 22:27:45:756,0,-11.8974,-6.54393,16.7704,Q,Q
2023-03-14 22:27:45:765,0,-11.9009,-6.55621,16.7928,Q,Q
2023-03-14 22:27:45:776,0,-11.9017,-6.56612,16.8125,Q,Q
2023-03-14 22:27:45:786,0,-11.9013,-6.57451,16.8334,Q,Q
2023-03-14 22:27:45:796,0,-11.8975,-6.58253,16.8499,Q,Q
2023-03-14 22:27:45:806,0,-11.8943,-6.58737,16.8605,Q,Q
2023-03-14 22:27:45:816,0,-11.8896,-6.59416,16.8683,Q,Q
2023-03-14 22:27:45:826,0,-11.8843,-6.59867,16.8753,Q,Q
2023-03-14 22:27:45:836,0,-11.884,-6.60178,16.8746,Q,Q
2023-03-14 22:27:45:846,0,-11.8825,-6.60462,16.8733,Q,Q
2023-03-14 22:27:45:856,0,-11.8818,-6.60735,16.8684,Q,Q
2023-03-14 22:27:45:866,0,-11.8858,-6.6108,16.8639,Q,Q
2023-03-14 22:27:45:876,0,-11.8899,-6.60977,16.8569,Q,Q
2023-03-14 22:27:45:886,0,-11.8975,-6.60694,16.8501,Q,Q
2023-03-14 22:27:45:896,0,-11.9051,-6.60838,16.8473,Q,Q
2023-03-14 22:27:45:906,0,-11.9109,-6.60683,16.853,Q,Q
2023-03-14 22:27:45:916,0,-11.9202,-6.60588,16.8615,Q,Q
2023-03-14 22:27:45:926,0,-11.9265,-6.60693,16.8734,Q,Q
2023-03-14 22:27:45:936,0,-11.9321,-6.60528,16.8933,Q,Q
2023-03-14 22:27:45:946,0,-11.9364,-6.60066,16.9195,Q,Q
2023-03-14 22:27:45:956,0,-11.9357,-6.59826,16.9499,Q,Q
2023-03-14 22:27:45:966,0,-11.9343,-6.59673,16.9857,Q,Q
2023-03-14 22:27:45:976,0,-11.932,-6.59643,17.0232,Q,Q
2023-03-14 22:27:45:985,0,-11.927,-6.60116,17.0624,Q,Q
2023-03-14 22:27:45:995,0,-11.9203,-6.60459,17.0984,Q,Q
2023-03-14 22:27:46:6,0,-11.9136,-6.6108,17.137,Q,Q
2023-03-14 22:27:46:16,0,-11.9055,-6.62,17.1746,Q,Q
2023-03-14 22:27:46:26,0,-11.9004,-6.63205,17.2114,Q,Q
2023-03-14 22:27:46:36,0,-11.9005,-6.6442,17.2445,Q,Q
2023-03-14 22:27:46:46,0,-11.8944,-6.65518,17.2782,Q,Q
2023-03-14 22:27:46:56,0,-11.8874,-6.66651,17.3103,Q,Q
2023-03-14 22:27:46:66,0,-11.8829,-6.67903,17.3418,Q,Q
2023-03-14 22:27:46:76,0,-11.8791,-6.69248,17.3709,Q,Q
2023-03-14 22:27:46:86,0,-11.8764,-6.7061,17.4034,Q,Q
2023-03-14 22:27:46:96,0,-11.8757,-6.71807,17.4356,Q,Q
2023-03-14 22:27:46:106,0,-11.8818,-6.72822,17.4687,Q,Q
2023-03-14 22:27:46:116,0,-11.8912,-6.73786,17.5008,Q,Q
2023-03-14 22:27:46:126,0,-11.9075,-6.74798,17.5348,Q,Q
2023-03-14 22:27:46:136,0,-11.9228,-6.76013,17.5626,Q,Q
2023-03-14 22:27:46:146,0,-11.9409,-6.77077,17.5926,Q,Q
2023-03-14 22:27:46:156,0,-11.957,-6.77759,17.6209,Q,Q
2023-03-14 22:27:46:165,0,-11.9762,-6.7906,17.6501,Q,Q
2023-03-14 22:27:46:175,0,-11.9939,-6.80167,17.6757,Q,Q
2023-03-14 22:27:46:185,0,-12.0033,-6.81137,17.6955,Q,Q
2023-03-14 22:27:46:195,0,-12.0092,-6.82702,17.7186,Q,Q
2023-03-14 22:27:46:206,0,-12.018,-6.84012,17.746,Q,Q
2023-03-14 22:27:46:216,0,-12.0292,-6.85438,17.7718,Q,Q
2023-03-14 22:27:46:225,0,-12.0487,-6.86745,17.801,Q,Q
2023-03-14 22:27:46:236,0,-12.0746,-6.88492,17.833,Q,Q
2023-03-14 22:27:46:246,0,-12.1018,-6.89522,17.8631,Q,Q
2023-03-14 22:27:46:256,0,-12.1311,-6.90289,17.8976,Q,Q
2023-03-14 22:27:46:266,0,-12.1586,-6.91118,17.9333,Q,Q
2023-03-14 22:27:46:276,0,-12.1917,-6.92349,17.976,Q,Q
2023-03-14 22:27:46:286,0,-12.2273,-6.93649,18.0215,Q,Q
2023-03-14 22:27:46:296,0,-12.2651,-6.95258,18.0677,Q,Q
2023-03-14 22:27:46:306,0,-12.3018,-6.96585,18.1164,Q,Q
2023-03-14 22:27:46:316,0,-12.3338,-6.97932,18.1628,Q,Q
2023-03-14 22:27:46:326,0,-12.3668,-6.9948,18.2106,Q,Q
2023-03-14 22:27:46:336,0,-12.3984,-7.00868,18.2599,Q,Q
2023-03-14 22:27:46:346,0,-12.4258,-7.0247,18.3093,Q,Q
2023-03-14 22:27:46:356,0,-12.4504,-7.03834,18.3563,Q,Q
2023-03-14 22:27:46:366,0,-12.47,-7.05247,18.3997,Q,Q
2023-03-14 22:27:46:376,0,-12.4878,-7.06184,18.4424,Q,Q
2023-03-14 22:27:46:386,0,-12.5032,-7.07544,18.4867,Q,Q
2023-03-14 22:27:46:396,0,-12.5195,-7.08956,18.5307,Q,Q
2023-03-14 22:27:46:406,0,-12.5362,-7.10468,18.5676,Q,Q
2023-03-14 22:27:46:416,0,-12.5549,-7.12428,18.6037,Q,Q
2023-03-14 22:27:46:426,0,-12.5745,-7.14118,18.6339,Q,Q
2023-03-14 22:27:46:436,0,-12.5922,-7.15275,18.6528,Q,Q
2023-03-14 22:27:46:445,0,-12.6054,-7.16722,18.6666,Q,Q
2023-03-14 22:27:46:455,0,-12.6193,-7.18584,18.68,Q,Q
2023-03-14 22:27:46:466,0,-12.6374,-7.20917,18.6902,Q,Q
2023-03-14 22:27:46:476,0,-12.6564,-7.23315,18.6944,Q,Q
2023-03-14 22:27:46:486,0,-12.6752,-7.25718,18.6939,Q,Q
2023-03-14 22:27:46:496,0,-12.6925,-7.2765,18.6871,Q,Q
2023-03-14 22:27:46:506,0,-12.7087,-7.29175,18.6769,Q,Q
2023-03-14 22:27:46:516,0,-12.7209,-7.30499,18.6655,Q,Q
2023-03-14 22:27:46:526,0,-12.7327,-7.31522,18.6545,Q,Q
2023-03-14 22:27:46:536,0,-12.7426,-7.32199,18.6456,Q,Q
2023-03-14 22:27:46:546,0,-12.7508,-7.32334,18.6336,Q,Q
2023-03-14 22:27:46:556,0,-12.7519,-7.32303,18.622,Q,Q
2023-03-14 22:27:46:566,0,-12.7537,-7.32304,18.6101,Q,Q
2023-03-14 22:27:46:576,0,-12.7496,-7.32376,18.589,Q,Q
2023-03-14 22:27:46:586,0,-12.7378,-7.3285,18.5678,Q,Q
2023-03-14 22:27:46:596,0,-12.7278,-7.33028,18.5455,Q,Q
2023-03-14 22:27:46:606,0,-12.7173,-7.3358,18.5243,Q,Q
2023-03-14 22:27:46:616,0,-12.7049,-7.34206,18.5007,Q,Q
2023-03-14 22:27:46:626,0,-12.6906,-7.35351,18.479,Q,Q
2023-03-14 22:27:46:636,0,-12.6795,-7.36847,18.4651,Q,Q
2023-03-14 22:27:46:646,0,-12.6654,-7.38223,18.4521,Q,Q
2023-03-14 22:27:46:656,0,-12.6446,-7.39475,18.4414,Q,Q
2023-03-14 22:27:46:666,0,-12.6161,-7.40508,18.4327,Q,Q
