Timestamp_cmd,imu_cmd,roll_delta,pitch_delta,yaw_delta,voice_type,voice_length
2023-03-15 21:47:47:992,0,-12.6768,-6.06914,-24.9157,Q,Q
2023-03-15 21:47:48:0,0,-12.6331,-6.06624,-24.9268,Q,Q
2023-03-15 21:47:48:10,0,-12.5742,-6.05744,-24.9332,Q,Q
2023-03-15 21:47:48:20,0,-12.5169,-6.04225,-24.9409,Q,Q
2023-03-15 21:47:48:30,0,-12.4567,-6.0246,-24.9511,Q,Q
2023-03-15 21:47:48:40,0,-12.3983,-6.00767,-24.9545,Q,Q
2023-03-15 21:47:48:50,0,-12.3456,-5.99634,-24.9568,Q,Q
2023-03-15 21:47:48:60,0,-12.296,-5.98984,-24.9551,Q,Q
2023-03-15 21:47:48:70,0,-12.2578,-5.98367,-24.9497,Q,Q
2023-03-15 21:47:48:80,0,-12.2279,-5.97912,-24.9462,Q,Q
2023-03-15 21:47:48:90,0,-12.2083,-5.97344,-24.9394,Q,Q
2023-03-15 21:47:48:100,0,-12.1949,-5.96441,-24.928,Q,Q
2023-03-15 21:47:48:110,0,-12.1884,-5.95893,-24.9201,Q,Q
2023-03-15 21:47:48:120,0,-12.1858,-5.94873,-24.9194,Q,Q
2023-03-15 21:47:48:130,0,-12.188,-5.94257,-24.9149,Q,Q
2023-03-15 21:47:48:140,0,-12.1904,-5.94019,-24.9165,Q,Q
2023-03-15 21:47:48:150,0,-12.1957,-5.94216,-24.9251,Q,Q
2023-03-15 21:47:48:160,0,-12.2014,-5.94329,-24.9291,Q,Q
2023-03-15 21:47:48:170,0,-12.2061,-5.94505,-24.939,Q,Q
2023-03-15 21:47:48:180,0,-12.2081,-5.9474,-24.947,Q,Q
2023-03-15 21:47:48:190,0,-12.2128,-5.94764,-24.9574,Q,Q
2023-03-15 21:47:48:200,0,-12.2166,-5.94829,-24.9646,Q,Q
2023-03-15 21:47:48:210,0,-12.2199,-5.95001,-24.9712,Q,Q
2023-03-15 21:47:48:220,0,-12.2207,-5.95069,-24.9808,Q,Q
2023-03-15 21:47:48:230,0,-12.2236,-5.95266,-24.9877,Q,Q
2023-03-15 21:47:48:240,0,-12.227,-5.95598,-24.9868,Q,Q
2023-03-15 21:47:48:250,0,-12.2285,-5.95891,-24.9863,Q,Q
2023-03-15 21:47:48:260,0,-12.2317,-5.96155,-24.9854,Q,Q
2023-03-15 21:47:48:270,0,-12.2358,-5.9572,-24.9827,Q,Q
2023-03-15 21:47:48:280,0,-12.2409,-5.95632,-24.9777,Q,Q
2023-03-15 21:47:48:290,0,-12.2472,-5.95412,-24.9701,Q,Q
2023-03-15 21:47:48:300,0,-12.2557,-5.95075,-24.9617,Q,Q
2023-03-15 21:47:48:310,0,-12.2627,-5.94647,-24.9532,Q,Q
2023-03-15 21:47:48:320,0,-12.2682,-5.94134,-24.9449,Q,Q
2023-03-15 21:47:48:330,0,-12.273,-5.9387,-24.936,Q,Q
2023-03-15 21:47:48:340,0,-12.28,-5.93002,-24.9265,Q,Q
2023-03-15 21:47:48:350,0,-12.289,-5.92695,-24.9181,Q,Q
2023-03-15 21:47:48:360,0,-12.2946,-5.92195,-24.9119,Q,Q
2023-03-15 21:47:48:370,0,-12.2948,-5.91693,-24.9036,Q,Q
2023-03-15 21:47:48:380,0,-12.2929,-5.9131,-24.8956,Q,Q
2023-03-15 21:47:48:389,0,-12.2882,-5.90679,-24.8939,Q,Q
2023-03-15 21:47:48:399,0,-12.2794,-5.90463,-24.8901,Q,Q
2023-03-15 21:47:48:409,0,-12.2688,-5.90017,-24.8879,Q,Q
2023-03-15 21:47:48:419,0,-12.26,-5.89835,-24.8852,Q,Q
2023-03-15 21:47:48:429,0,-12.2474,-5.89258,-24.8844,Q,Q
2023-03-15 21:47:48:439,0,-12.2331,-5.88597,-24.8859,Q,Q
2023-03-15 21:47:48:449,0,-12.2174,-5.87833,-24.8873,Q,Q
2023-03-15 21:47:48:459,0,-12.196,-5.87398,-24.8882,Q,Q
2023-03-15 21:47:48:469,0,-12.1747,-5.87806,-24.8883,Q,Q
2023-03-15 21:47:48:479,0,-12.1578,-5.88319,-24.8891,Q,Q
2023-03-15 21:47:48:489,0,-12.1419,-5.88756,-24.8883,Q,Q
2023-03-15 21:47:48:499,0,-12.1293,-5.88635,-24.8877,Q,Q
2023-03-15 21:47:48:509,0,-12.124,-5.88868,-24.8871,Q,Q
2023-03-15 21:47:48:519,0,-12.1234,-5.88864,-24.8856,Q,Q
2023-03-15 21:47:48:529,0,-12.1235,-5.8903,-24.8835,Q,Q
2023-03-15 21:47:48:539,0,-12.1288,-5.88977,-24.8808,Q,Q
2023-03-15 21:47:48:550,0,-12.1357,-5.88658,-24.8779,Q,Q
2023-03-15 21:47:48:560,0,-12.1379,-5.88654,-24.8763,Q,Q
2023-03-15 21:47:48:570,0,-12.1391,-5.88397,-24.8737,Q,Q
2023-03-15 21:47:48:580,0,-12.1364,-5.88039,-24.8769,Q,Q
2023-03-15 21:47:48:590,0,-12.128,-5.87557,-24.8814,Q,Q
2023-03-15 21:47:48:600,0,-12.1192,-5.87002,-24.8829,Q,Q
2023-03-15 21:47:48:610,0,-12.11,-5.86588,-24.888,Q,Q
2023-03-15 21:47:48:620,0,-12.1012,-5.86266,-24.891,Q,Q
2023-03-15 21:47:48:630,0,-12.0933,-5.8577,-24.8949,Q,Q
2023-03-15 21:47:48:640,0,-12.0895,-5.85531,-24.9017,Q,Q
2023-03-15 21:47:48:650,0,-12.0869,-5.85718,-24.9046,Q,Q
2023-03-15 21:47:48:660,0,-12.0849,-5.85877,-24.9085,Q,Q
2023-03-15 21:47:48:670,0,-12.0766,-5.85106,-24.9123,Q,Q
2023-03-15 21:47:48:680,0,-12.0705,-5.84087,-24.9153,Q,Q
2023-03-15 21:47:48:690,0,-12.0674,-5.83192,-24.9162,Q,Q
2023-03-15 21:47:48:700,0,-12.0589,-5.82446,-24.9126,Q,Q
2023-03-15 21:47:48:710,0,-12.0517,-5.81583,-24.9118,Q,Q
2023-03-15 21:47:48:720,0,-12.0466,-5.81283,-24.9109,Q,Q
2023-03-15 21:47:48:729,0,-12.0435,-5.81056,-24.9083,Q,Q
2023-03-15 21:47:48:739,0,-12.0387,-5.80088,-24.9082,Q,Q
2023-03-15 21:47:48:749,0,-12.0386,-5.7935,-24.9062,Q,Q
2023-03-15 21:47:48:759,0,-12.0372,-5.78454,-24.9071,Q,Q
2023-03-15 21:47:48:769,0,-12.0364,-5.77346,-24.9103,Q,Q
2023-03-15 21:47:48:779,0,-12.0333,-5.76427,-24.9122,Q,Q
2023-03-15 21:47:48:789,0,-12.0302,-5.75442,-24.9119,Q,Q
2023-03-15 21:47:48:799,0,-12.0225,-5.74413,-24.9151,Q,Q
2023-03-15 21:47:48:810,0,-12.0141,-5.73263,-24.9161,Q,Q
2023-03-15 21:47:48:819,0,-12.009,-5.72053,-24.9157,Q,Q
2023-03-15 21:47:48:830,0,-11.9984,-5.70824,-24.9203,Q,Q
2023-03-15 21:47:48:839,0,-11.9926,-5.69517,-24.9218,Q,Q
2023-03-15 21:47:48:850,0,-11.9841,-5.68245,-24.9203,Q,Q
2023-03-15 21:47:48:860,0,-11.9775,-5.67024,-24.9185,Q,Q
2023-03-15 21:47:48:869,0,-11.9726,-5.65741,-24.9207,Q,Q
2023-03-15 21:47:48:880,0,-11.9719,-5.6445,-24.9199,Q,Q
2023-03-15 21:47:48:890,0,-11.9722,-5.6323,-24.9143,Q,Q
2023-03-15 21:47:48:900,0,-11.9753,-5.62182,-24.9138,Q,Q
2023-03-15 21:47:48:910,0,-11.98,-5.6149,-24.9085,Q,Q
2023-03-15 21:47:48:920,0,-11.9821,-5.60788,-24.9031,Q,Q
2023-03-15 21:47:48:930,0,-11.9869,-5.60131,-24.8957,Q,Q
2023-03-15 21:47:48:940,0,-11.9917,-5.59231,-24.8901,Q,Q
2023-03-15 21:47:48:950,0,-11.9928,-5.58499,-24.8823,Q,Q
2023-03-15 21:47:48:960,0,-11.9962,-5.57617,-24.8731,Q,Q
2023-03-15 21:47:48:970,0,-11.9966,-5.56377,-24.8657,Q,Q
2023-03-15 21:47:48:980,0,-11.9979,-5.55518,-24.8546,Q,Q
2023-03-15 21:47:48:990,0,-12.0028,-5.54525,-24.8478,Q,Q
2023-03-15 21:47:49:0,0,-12.0114,-5.53502,-24.8384,Q,Q
2023-03-15 21:47:49:10,0,-12.018,-5.52496,-24.8305,Q,Q
2023-03-15 21:47:49:20,0,-12.0268,-5.51612,-24.8242,Q,Q
2023-03-15 21:47:49:30,0,-12.0373,-5.50447,-24.8185,Q,Q
2023-03-15 21:47:49:40,0,-12.0441,-5.48882,-24.8159,Q,Q
2023-03-15 21:47:49:50,0,-12.0464,-5.47737,-24.8119,Q,Q
2023-03-15 21:47:49:60,0,-12.0483,-5.46744,-24.8059,Q,Q
2023-03-15 21:47:49:70,0,-12.0524,-5.45463,-24.8001,Q,Q
2023-03-15 21:47:49:80,0,-12.056,-5.44135,-24.7986,Q,Q
2023-03-15 21:47:49:90,0,-12.0575,-5.42444,-24.7933,Q,Q
2023-03-15 21:47:49:100,0,-12.0609,-5.40758,-24.7846,Q,Q
2023-03-15 21:47:49:110,0,-12.0652,-5.39265,-24.7786,Q,Q
2023-03-15 21:47:49:120,0,-12.0641,-5.37954,-24.769,Q,Q
2023-03-15 21:47:49:129,0,-12.0678,-5.37059,-24.7559,Q,Q
2023-03-15 21:47:49:139,0,-12.0684,-5.3648,-24.7423,Q,Q
2023-03-15 21:47:49:150,0,-12.0711,-5.36245,-24.7253,Q,Q
2023-03-15 21:47:49:159,0,-12.0744,-5.35853,-24.7111,Q,Q
2023-03-15 21:47:49:169,0,-12.0785,-5.35479,-24.6955,Q,Q
2023-03-15 21:47:49:179,0,-12.0902,-5.35327,-24.6777,Q,Q
2023-03-15 21:47:49:189,0,-12.1029,-5.35204,-24.6615,Q,Q
2023-03-15 21:47:49:200,0,-12.1135,-5.3521,-24.6429,Q,Q
2023-03-15 21:47:49:209,0,-12.1262,-5.36189,-24.6308,Q,Q
2023-03-15 21:47:49:219,0,-12.1402,-5.37281,-24.6215,Q,Q
2023-03-15 21:47:49:229,0,-12.1539,-5.38172,-24.6114,Q,Q
2023-03-15 21:47:49:239,0,-12.1629,-5.3898,-24.6036,Q,Q
2023-03-15 21:47:49:250,0,-12.1697,-5.39419,-24.5952,Q,Q
2023-03-15 21:47:49:259,0,-12.1794,-5.39924,-24.5867,Q,Q
2023-03-15 21:47:49:270,0,-12.1876,-5.40352,-24.5773,Q,Q
2023-03-15 21:47:49:280,0,-12.1995,-5.40701,-24.5649,Q,Q
2023-03-15 21:47:49:290,0,-12.2076,-5.41088,-24.5559,Q,Q
2023-03-15 21:47:49:300,0,-12.2169,-5.41736,-24.5421,Q,Q
2023-03-15 21:47:49:310,0,-12.2231,-5.42026,-24.5298,Q,Q
2023-03-15 21:47:49:320,0,-12.2276,-5.42511,-24.5152,Q,Q
2023-03-15 21:47:49:330,0,-12.2358,-5.43082,-24.5027,Q,Q
2023-03-15 21:47:49:340,0,-12.24,-5.43354,-24.4951,Q,Q
2023-03-15 21:47:49:350,0,-12.243,-5.43454,-24.4901,Q,Q
2023-03-15 21:47:49:360,0,-12.2431,-5.43286,-24.4848,Q,Q
2023-03-15 21:47:49:370,0,-12.2404,-5.43538,-24.4851,Q,Q
2023-03-15 21:47:49:380,0,-12.241,-5.44229,-24.4858,Q,Q
2023-03-15 21:47:49:390,0,-12.2366,-5.44813,-24.4885,Q,Q
2023-03-15 21:47:49:400,0,-12.2319,-5.45492,-24.4923,Q,Q
2023-03-15 21:47:49:410,0,-12.2284,-5.46044,-24.4991,Q,Q
2023-03-15 21:47:49:420,0,-12.2236,-5.46516,-24.5072,Q,Q
2023-03-15 21:47:49:430,0,-12.2167,-5.46886,-24.5133,Q,Q
2023-03-15 21:47:49:440,0,-12.2166,-5.46998,-24.5212,Q,Q
2023-03-15 21:47:49:450,0,-12.2095,-5.47408,-24.5269,Q,Q
2023-03-15 21:47:49:460,0,-12.2025,-5.47398,-24.5321,Q,Q
2023-03-15 21:47:49:470,0,-12.198,-5.47626,-24.5359,Q,Q
2023-03-15 21:47:49:480,0,-12.19,-5.48188,-24.5384,Q,Q
2023-03-15 21:47:49:490,0,-12.1819,-5.4865,-24.5408,Q,Q
2023-03-15 21:47:49:500,0,-12.1712,-5.48624,-24.5463,Q,Q
2023-03-15 21:47:49:510,0,-12.1594,-5.49026,-24.5469,Q,Q
2023-03-15 21:47:49:520,0,-12.1441,-5.49218,-24.5475,Q,Q
2023-03-15 21:47:49:530,0,-12.1276,-5.49652,-24.5428,Q,Q
2023-03-15 21:47:49:540,0,-12.1131,-5.50115,-24.5369,Q,Q
2023-03-15 21:47:49:550,0,-12.0974,-5.50312,-24.5314,Q,Q
2023-03-15 21:47:49:560,0,-12.0821,-5.50603,-24.5236,Q,Q
2023-03-15 21:47:49:570,0,-12.0663,-5.51276,-24.5155,Q,Q
2023-03-15 21:47:49:580,0,-12.0527,-5.51644,-24.5053,Q,Q
2023-03-15 21:47:49:590,0,-12.0429,-5.52125,-24.4951,Q,Q
2023-03-15 21:47:49:600,0,-12.0342,-5.52965,-24.4869,Q,Q
2023-03-15 21:47:49:610,0,-12.026,-5.53861,-24.4787,Q,Q
2023-03-15 21:47:49:620,0,-12.019,-5.54546,-24.4709,Q,Q
2023-03-15 21:47:49:630,0,-12.0154,-5.55093,-24.462,Q,Q
2023-03-15 21:47:49:640,0,-12.0086,-5.55814,-24.4537,Q,Q
2023-03-15 21:47:49:650,0,-11.9952,-5.56324,-24.4473,Q,Q
2023-03-15 21:47:49:660,0,-11.9839,-5.56797,-24.4414,Q,Q
2023-03-15 21:47:49:670,0,-11.9737,-5.57311,-24.4345,Q,Q
2023-03-15 21:47:49:680,0,-11.9661,-5.58404,-24.4247,Q,Q
2023-03-15 21:47:49:690,0,-11.9604,-5.59244,-24.4188,Q,Q
2023-03-15 21:47:49:700,0,-11.9564,-5.59938,-24.4104,Q,Q
2023-03-15 21:47:49:710,0,-11.9544,-5.61313,-24.4002,Q,Q
2023-03-15 21:47:49:720,0,-11.9519,-5.62487,-24.3903,Q,Q
2023-03-15 21:47:49:730,0,-11.9488,-5.63737,-24.3818,Q,Q
2023-03-15 21:47:49:740,0,-11.9469,-5.65328,-24.3706,Q,Q
2023-03-15 21:47:49:750,0,-11.9434,-5.66903,-24.3549,Q,Q
2023-03-15 21:47:49:760,0,-11.9395,-5.69072,-24.3379,Q,Q
2023-03-15 21:47:49:770,0,-11.9364,-5.71054,-24.3178,Q,Q
2023-03-15 21:47:49:780,0,-11.9301,-5.72997,-24.2919,Q,Q
2023-03-15 21:47:49:790,0,-11.9252,-5.74283,-24.2636,Q,Q
2023-03-15 21:47:49:800,0,-11.9237,-5.75648,-24.235,Q,Q
2023-03-15 21:47:49:810,0,-11.9213,-5.77284,-24.2065,Q,Q
2023-03-15 21:47:49:820,0,-11.9221,-5.78999,-24.1758,Q,Q
2023-03-15 21:47:49:830,0,-11.9224,-5.81184,-24.1485,Q,Q
2023-03-15 21:47:49:840,0,-11.9264,-5.83298,-24.128,Q,Q
2023-03-15 21:47:49:850,0,-11.9369,-5.85594,-24.1066,Q,Q
2023-03-15 21:47:49:860,0,-11.9493,-5.88234,-24.087,Q,Q
2023-03-15 21:47:49:870,0,-11.962,-5.90848,-24.0682,Q,Q
2023-03-15 21:47:49:880,0,-11.9777,-5.93068,-24.0574,Q,Q
2023-03-15 21:47:49:890,0,-11.9972,-5.9522,-24.0437,Q,Q
2023-03-15 21:47:49:900,0,-12.0192,-5.97409,-24.0347,Q,Q
2023-03-15 21:47:49:910,0,-12.0374,-5.99905,-24.0282,Q,Q
2023-03-15 21:47:49:920,0,-12.0531,-6.02021,-24.0222,Q,Q
2023-03-15 21:47:49:930,0,-12.0646,-6.03703,-24.015,Q,Q
2023-03-15 21:47:49:940,0,-12.0799,-6.04854,-24.008,Q,Q
2023-03-15 21:47:49:950,0,-12.0899,-6.05647,-24.0061,Q,Q
2023-03-15 21:47:49:960,0,-12.0988,-6.06273,-24.005,Q,Q
2023-03-15 21:47:49:970,0,-12.106,-6.06839,-24.0087,Q,Q
2023-03-15 21:47:49:980,0,-12.1086,-6.07441,-24.0096,Q,Q
2023-03-15 21:47:49:990,0,-12.1131,-6.07711,-24.0098,Q,Q
2023-03-15 21:47:50:0,0,-12.1154,-6.08267,-24.0135,Q,Q
2023-03-15 21:47:50:10,0,-12.1177,-6.08532,-24.0186,Q,Q
2023-03-15 21:47:50:20,0,-12.1169,-6.08695,-24.0239,Q,Q
2023-03-15 21:47:50:30,0,-12.1221,-6.08753,-24.0326,Q,Q
2023-03-15 21:47:50:40,0,-12.1272,-6.08741,-24.0435,Q,Q
2023-03-15 21:47:50:50,0,-12.13,-6.09098,-24.0544,Q,Q
2023-03-15 21:47:50:60,0,-12.1328,-6.0937,-24.0665,Q,Q
2023-03-15 21:47:50:70,0,-12.1338,-6.09985,-24.0759,Q,Q
2023-03-15 21:47:50:80,0,-12.1401,-6.1095,-24.0853,Q,Q
2023-03-15 21:47:50:90,0,-12.1472,-6.11543,-24.0941,Q,Q
2023-03-15 21:47:50:100,0,-12.157,-6.12701,-24.1036,Q,Q
2023-03-15 21:47:50:110,0,-12.168,-6.13463,-24.1082,Q,Q
2023-03-15 21:47:50:120,0,-12.1809,-6.14092,-24.114,Q,Q
2023-03-15 21:47:50:130,0,-12.1929,-6.14528,-24.1146,Q,Q
2023-03-15 21:47:50:140,0,-12.2058,-6.14905,-24.1102,Q,Q
2023-03-15 21:47:50:150,0,-12.2224,-6.15172,-24.1029,Q,Q
2023-03-15 21:47:50:160,0,-12.2397,-6.1563,-24.0965,Q,Q
2023-03-15 21:47:50:170,0,-12.2527,-6.16089,-24.0878,Q,Q
2023-03-15 21:47:50:180,0,-12.2671,-6.16571,-24.0804,Q,Q
2023-03-15 21:47:50:190,0,-12.2756,-6.17215,-24.076,Q,Q
2023-03-15 21:47:50:199,0,-12.2802,-6.17435,-24.0721,Q,Q
2023-03-15 21:47:50:210,0,-12.282,-6.1801,-24.0717,Q,Q
2023-03-15 21:47:50:220,0,-12.2842,-6.18606,-24.0718,Q,Q
2023-03-15 21:47:50:230,0,-12.2829,-6.19009,-24.0733,Q,Q
2023-03-15 21:47:50:240,0,-12.2769,-6.1929,-24.0774,Q,Q
2023-03-15 21:47:50:250,0,-12.2741,-6.196,-24.0814,Q,Q
2023-03-15 21:47:50:260,0,-12.2687,-6.20053,-24.0863,Q,Q
2023-03-15 21:47:50:270,0,-12.2663,-6.20341,-24.0896,Q,Q
2023-03-15 21:47:50:280,0,-12.2602,-6.20592,-24.0896,Q,Q
2023-03-15 21:47:50:290,0,-12.2543,-6.20505,-24.0896,Q,Q
2023-03-15 21:47:50:300,0,-12.2439,-6.20001,-24.0907,Q,Q
2023-03-15 21:47:50:310,0,-12.238,-6.19649,-24.0865,Q,Q
2023-03-15 21:47:50:320,0,-12.2375,-6.19064,-24.082,Q,Q
2023-03-15 21:47:50:330,0,-12.2352,-6.18638,-24.08,Q,Q
2023-03-15 21:47:50:340,0,-12.2373,-6.18144,-24.076,Q,Q
2023-03-15 21:47:50:350,0,-12.2367,-6.17674,-24.0754,Q,Q
2023-03-15 21:47:50:360,0,-12.2392,-6.17048,-24.0782,Q,Q
2023-03-15 21:47:50:370,0,-12.2434,-6.16231,-24.0796,Q,Q
2023-03-15 21:47:50:380,0,-12.2485,-6.15733,-24.0832,Q,Q
2023-03-15 21:47:50:390,0,-12.2551,-6.15265,-24.0853,Q,Q
2023-03-15 21:47:50:400,0,-12.2575,-6.15084,-24.0908,Q,Q
2023-03-15 21:47:50:410,0,-12.2623,-6.14621,-24.097,Q,Q
2023-03-15 21:47:50:420,0,-12.2699,-6.1454,-24.1014,Q,Q
2023-03-15 21:47:50:430,0,-12.2722,-6.14278,-24.109,Q,Q
2023-03-15 21:47:50:440,0,-12.2769,-6.13927,-24.115,Q,Q
2023-03-15 21:47:50:450,0,-12.2847,-6.13471,-24.1227,Q,Q
2023-03-15 21:47:50:460,0,-12.2875,-6.12862,-24.1264,Q,Q
2023-03-15 21:47:50:470,0,-12.2915,-6.12437,-24.1289,Q,Q
2023-03-15 21:47:50:480,0,-12.2946,-6.11735,-24.1317,Q,Q
2023-03-15 21:47:50:490,0,-12.298,-6.11067,-24.1313,Q,Q
2023-03-15 21:47:50:500,0,-12.299,-6.10506,-24.1237,Q,Q
2023-03-15 21:47:50:510,0,-12.3024,-6.09874,-24.1152,Q,Q
2023-03-15 21:47:50:520,0,-12.3021,-6.08795,-24.107,Q,Q
2023-03-15 21:47:50:530,0,-12.3039,-6.07676,-24.092,Q,Q
2023-03-15 21:47:50:540,0,-12.3018,-6.06274,-24.0779,Q,Q
2023-03-15 21:47:50:550,0,-12.3006,-6.04984,-24.0655,Q,Q
2023-03-15 21:47:50:560,0,-12.3044,-6.03415,-24.053,Q,Q
2023-03-15 21:47:50:570,0,-12.3089,-6.01981,-24.0455,Q,Q
2023-03-15 21:47:50:580,0,-12.314,-6.00749,-24.0393,Q,Q
2023-03-15 21:47:50:590,0,-12.3179,-5.99607,-24.0329,Q,Q
2023-03-15 21:47:50:600,0,-12.3225,-5.98264,-24.0302,Q,Q
2023-03-15 21:47:50:610,0,-12.3239,-5.97608,-24.035,Q,Q
2023-03-15 21:47:50:620,0,-12.3239,-5.973,-24.0401,Q,Q
2023-03-15 21:47:50:629,0,-12.3292,-5.97284,-24.0505,Q,Q
2023-03-15 21:47:50:639,0,-12.3355,-5.9728,-24.0657,Q,Q
2023-03-15 21:47:50:649,0,-12.3442,-5.9706,-24.0786,Q,Q
2023-03-15 21:47:50:659,0,-12.3601,-5.96927,-24.0902,Q,Q
2023-03-15 21:47:50:669,0,-12.3806,-5.9643,-24.1054,Q,Q
2023-03-15 21:47:50:679,0,-12.4035,-5.96083,-24.1175,Q,Q
2023-03-15 21:47:50:689,0,-12.4251,-5.9578,-24.1293,Q,Q
2023-03-15 21:47:50:699,0,-12.4463,-5.95301,-24.1394,Q,Q
2023-03-15 21:47:50:709,0,-12.4624,-5.95013,-24.1488,Q,Q
2023-03-15 21:47:50:719,0,-12.4746,-5.94438,-24.161,Q,Q
2023-03-15 21:47:50:729,0,-12.4792,-5.93507,-24.1713,Q,Q
2023-03-15 21:47:50:739,0,-12.4842,-5.92447,-24.1823,Q,Q
2023-03-15 21:47:50:749,0,-12.486,-5.91267,-24.1944,Q,Q
2023-03-15 21:47:50:759,0,-12.4872,-5.89718,-24.2049,Q,Q
2023-03-15 21:47:50:769,0,-12.4878,-5.8794,-24.2201,Q,Q
2023-03-15 21:47:50:779,0,-12.4896,-5.86889,-24.2341,Q,Q
2023-03-15 21:47:50:789,0,-12.4947,-5.86021,-24.2516,Q,Q
2023-03-15 21:47:50:799,0,-12.4986,-5.84928,-24.272,Q,Q
2023-03-15 21:47:50:814,0,-12.5051,-5.83964,-24.2926,Q,Q
2023-03-15 21:47:50:819,0,-12.5121,-5.82758,-24.3104,Q,Q
2023-03-15 21:47:50:829,0,-12.5201,-5.81708,-24.3262,Q,Q
2023-03-15 21:47:50:839,0,-12.5216,-5.80759,-24.3404,Q,Q
2023-03-15 21:47:50:849,0,-12.5221,-5.79553,-24.3521,Q,Q
2023-03-15 21:47:50:859,0,-12.5184,-5.78444,-24.3588,Q,Q
2023-03-15 21:47:50:869,0,-12.5111,-5.77716,-24.3641,Q,Q
2023-03-15 21:47:50:879,0,-12.5032,-5.77211,-24.3623,Q,Q
2023-03-15 21:47:50:889,0,-12.4973,-5.76723,-24.3577,Q,Q
2023-03-15 21:47:50:899,0,-12.4958,-5.76498,-24.352,Q,Q
2023-03-15 21:47:50:909,0,-12.5001,-5.76001,-24.343,Q,Q
2023-03-15 21:47:50:919,0,-12.5069,-5.75337,-24.3316,Q,Q
2023-03-15 21:47:50:929,0,-12.5161,-5.7447,-24.3197,Q,Q
2023-03-15 21:47:50:939,0,-12.5273,-5.73022,-24.3042,Q,Q
2023-03-15 21:47:50:949,0,-12.5373,-5.71368,-24.2902,Q,Q
2023-03-15 21:47:50:959,0,-12.545,-5.70113,-24.2786,Q,Q
2023-03-15 21:47:50:969,0,-12.5533,-5.68315,-24.2724,Q,Q
2023-03-15 21:47:50:979,0,-12.5613,-5.6685,-24.2672,Q,Q
2023-03-15 21:47:50:989,0,-12.5679,-5.64741,-24.2681,Q,Q
2023-03-15 21:47:50:999,0,-12.575,-5.63348,-24.2675,Q,Q
2023-03-15 21:47:51:9,0,-12.5893,-5.61554,-24.2722,Q,Q
2023-03-15 21:47:51:19,0,-12.6061,-5.59937,-24.2778,Q,Q
2023-03-15 21:47:51:29,0,-12.6232,-5.58424,-24.2889,Q,Q
2023-03-15 21:47:51:39,0,-12.642,-5.5662,-24.3009,Q,Q
2023-03-15 21:47:51:49,0,-12.6617,-5.54726,-24.3102,Q,Q
2023-03-15 21:47:51:59,0,-12.684,-5.52942,-24.3185,Q,Q
2023-03-15 21:47:51:69,0,-12.7037,-5.51125,-24.3204,Q,Q
2023-03-15 21:47:51:79,0,-12.7199,-5.49382,-24.3241,Q,Q
2023-03-15 21:47:51:89,0,-12.7389,-5.47246,-24.3233,Q,Q
2023-03-15 21:47:51:99,0,-12.7595,-5.45228,-24.3177,Q,Q
2023-03-15 21:47:51:109,0,-12.7771,-5.43321,-24.3136,Q,Q
2023-03-15 21:47:51:119,0,-12.7992,-5.41015,-24.3053,Q,Q
2023-03-15 21:47:51:129,0,-12.8272,-5.39034,-24.2989,Q,Q
2023-03-15 21:47:51:139,0,-12.8586,-5.36799,-24.2951,Q,Q
2023-03-15 21:47:51:149,0,-12.8926,-5.34673,-24.2932,Q,Q
2023-03-15 21:47:51:159,0,-12.9202,-5.32624,-24.2901,Q,Q
2023-03-15 21:47:51:169,0,-12.9419,-5.30845,-24.2922,Q,Q
2023-03-15 21:47:51:179,0,-12.9585,-5.28614,-24.2968,Q,Q
2023-03-15 21:47:51:189,0,-12.9687,-5.264,-24.3041,Q,Q
2023-03-15 21:47:51:199,0,-12.9793,-5.24461,-24.3146,Q,Q
2023-03-15 21:47:51:209,0,-12.9859,-5.22514,-24.328,Q,Q
2023-03-15 21:47:51:219,0,-12.9893,-5.20457,-24.343,Q,Q
2023-03-15 21:47:51:229,0,-12.9967,-5.18595,-24.3586,Q,Q
2023-03-15 21:47:51:239,0,-13.0053,-5.17166,-24.3728,Q,Q
2023-03-15 21:47:51:249,0,-13.0095,-5.15829,-24.3895,Q,Q
2023-03-15 21:47:51:259,0,-13.0136,-5.14317,-24.4038,Q,Q
2023-03-15 21:47:51:269,0,-13.0153,-5.12535,-24.416,Q,Q
2023-03-15 21:47:51:279,0,-13.0121,-5.10267,-24.4272,Q,Q
2023-03-15 21:47:51:289,0,-13.0054,-5.08214,-24.4362,Q,Q
2023-03-15 21:47:51:299,0,-13.0003,-5.06156,-24.4436,Q,Q
2023-03-15 21:47:51:309,0,-12.989,-5.03788,-24.446,Q,Q
2023-03-15 21:47:51:319,0,-12.9798,-5.00954,-24.449,Q,Q
2023-03-15 21:47:51:329,0,-12.9701,-4.98353,-24.4502,Q,Q
2023-03-15 21:47:51:339,0,-12.9596,-4.95934,-24.4511,Q,Q
2023-03-15 21:47:51:349,0,-12.956,-4.94016,-24.449,Q,Q
2023-03-15 21:47:51:359,0,-12.9475,-4.92193,-24.4507,Q,Q
2023-03-15 21:47:51:369,0,-12.9387,-4.89988,-24.4522,Q,Q
2023-03-15 21:47:51:379,0,-12.9341,-4.87828,-24.4527,Q,Q
2023-03-15 21:47:51:389,0,-12.9256,-4.85395,-24.4612,Q,Q
2023-03-15 21:47:51:399,0,-12.9106,-4.82914,-24.4643,Q,Q
2023-03-15 21:47:51:409,0,-12.8975,-4.80296,-24.4718,Q,Q
2023-03-15 21:47:51:419,0,-12.887,-4.78342,-24.4795,Q,Q
2023-03-15 21:47:51:429,0,-12.8817,-4.76577,-24.4859,Q,Q
2023-03-15 21:47:51:439,0,-12.8778,-4.75076,-24.4914,Q,Q
2023-03-15 21:47:51:449,0,-12.8843,-4.73979,-24.5041,Q,Q
2023-03-15 21:47:51:459,0,-12.8935,-4.72239,-24.5092,Q,Q
2023-03-15 21:47:51:469,0,-12.9095,-4.71113,-24.5158,Q,Q
2023-03-15 21:47:51:480,0,-12.9229,-4.69674,-24.5221,Q,Q
2023-03-15 21:47:51:489,0,-12.9344,-4.68929,-24.529,Q,Q
2023-03-15 21:47:51:499,0,-12.945,-4.67959,-24.5352,Q,Q
2023-03-15 21:47:51:509,0,-12.9546,-4.6697,-24.5357,Q,Q
2023-03-15 21:47:51:520,0,-12.9609,-4.66269,-24.5403,Q,Q
2023-03-15 21:47:51:530,0,-12.9694,-4.65478,-24.5448,Q,Q
2023-03-15 21:47:51:540,0,-12.976,-4.64606,-24.5451,Q,Q
2023-03-15 21:47:51:550,0,-12.9807,-4.63719,-24.5471,Q,Q
2023-03-15 21:47:51:559,0,-12.9827,-4.62844,-24.5515,Q,Q
2023-03-15 21:47:51:570,0,-12.9832,-4.6234,-24.5506,Q,Q
2023-03-15 21:47:51:580,0,-12.9817,-4.61638,-24.5532,Q,Q
2023-03-15 21:47:51:590,0,-12.9772,-4.6146,-24.5559,Q,Q
2023-03-15 21:47:51:600,0,-12.9676,-4.61315,-24.5591,Q,Q
2023-03-15 21:47:51:610,0,-12.9576,-4.61006,-24.5641,Q,Q
2023-03-15 21:47:51:620,0,-12.9414,-4.6103,-24.5687,Q,Q
2023-03-15 21:47:51:630,0,-12.9254,-4.61084,-24.5794,Q,Q
2023-03-15 21:47:51:640,0,-12.914,-4.61004,-24.5954,Q,Q
2023-03-15 21:47:51:650,0,-12.9013,-4.60872,-24.6066,Q,Q
2023-03-15 21:47:51:660,0,-12.8846,-4.60716,-24.6201,Q,Q
2023-03-15 21:47:51:670,0,-12.8703,-4.60895,-24.6279,Q,Q
2023-03-15 21:47:51:680,0,-12.8556,-4.61427,-24.6325,Q,Q
2023-03-15 21:47:51:690,0,-12.8396,-4.62295,-24.6396,Q,Q
2023-03-15 21:47:51:700,0,-12.8251,-4.62482,-24.639,Q,Q
2023-03-15 21:47:51:710,0,-12.8089,-4.62398,-24.64,Q,Q
2023-03-15 21:47:51:720,0,-12.7905,-4.62121,-24.6365,Q,Q
2023-03-15 21:47:51:729,0,-12.7754,-4.61841,-24.6325,Q,Q
2023-03-15 21:47:51:740,0,-12.7603,-4.61662,-24.6241,Q,Q
2023-03-15 21:47:51:750,0,-12.7478,-4.61609,-24.6164,Q,Q
2023-03-15 21:47:51:760,0,-12.7338,-4.61711,-24.6062,Q,Q
2023-03-15 21:47:51:770,0,-12.7184,-4.61479,-24.601,Q,Q
2023-03-15 21:47:51:780,0,-12.7022,-4.61435,-24.5903,Q,Q
2023-03-15 21:47:51:790,0,-12.6843,-4.617,-24.5819,Q,Q
2023-03-15 21:47:51:800,0,-12.6671,-4.61953,-24.5762,Q,Q
2023-03-15 21:47:51:810,0,-12.6488,-4.62195,-24.5722,Q,Q
2023-03-15 21:47:51:820,0,-12.6399,-4.62903,-24.5673,Q,Q
2023-03-15 21:47:51:830,0,-12.6266,-4.63387,-24.5651,Q,Q
2023-03-15 21:47:51:840,0,-12.6201,-4.63934,-24.5607,Q,Q
2023-03-15 21:47:51:850,0,-12.6113,-4.64331,-24.5596,Q,Q
2023-03-15 21:47:51:859,0,-12.6024,-4.6457,-24.5582,Q,Q
2023-03-15 21:47:51:869,0,-12.5948,-4.64847,-24.5532,Q,Q
2023-03-15 21:47:51:879,0,-12.5893,-4.65162,-24.5471,Q,Q
2023-03-15 21:47:51:890,0,-12.5854,-4.65572,-24.5426,Q,Q
2023-03-15 21:47:51:899,0,-12.5819,-4.66129,-24.5363,Q,Q
2023-03-15 21:47:51:910,0,-12.5781,-4.66516,-24.5281,Q,Q
2023-03-15 21:47:51:920,0,-12.576,-4.67034,-24.5212,Q,Q
2023-03-15 21:47:51:930,0,-12.5713,-4.67686,-24.5138,Q,Q
2023-03-15 21:47:51:940,0,-12.5665,-4.68244,-24.5029,Q,Q
2023-03-15 21:47:51:950,0,-12.5614,-4.6839,-24.4926,Q,Q
2023-03-15 21:47:51:960,0,-12.5568,-4.68774,-24.4816,Q,Q
2023-03-15 21:47:51:970,0,-12.5496,-4.6949,-24.4779,Q,Q
2023-03-15 21:47:51:980,0,-12.5444,-4.7029,-24.4737,Q,Q
2023-03-15 21:47:51:990,0,-12.5355,-4.70953,-24.4739,Q,Q
2023-03-15 21:47:52:0,0,-12.5273,-4.71467,-24.4734,Q,Q
2023-03-15 21:47:52:10,0,-12.5218,-4.72246,-24.4722,Q,Q
2023-03-15 21:47:52:20,0,-12.5145,-4.73174,-24.4725,Q,Q
2023-03-15 21:47:52:30,0,-12.5065,-4.74597,-24.4723,Q,Q
2023-03-15 21:47:52:40,0,-12.4993,-4.75601,-24.4693,Q,Q
2023-03-15 21:47:52:50,0,-12.4839,-4.7649,-24.4669,Q,Q
2023-03-15 21:47:52:60,0,-12.4726,-4.77901,-24.4644,Q,Q
2023-03-15 21:47:52:70,0,-12.4598,-4.79109,-24.4614,Q,Q
2023-03-15 21:47:52:80,0,-12.4475,-4.80614,-24.4552,Q,Q
2023-03-15 21:47:52:90,0,-12.4354,-4.82002,-24.4497,Q,Q
2023-03-15 21:47:52:100,0,-12.4263,-4.83531,-24.4411,Q,Q
2023-03-15 21:47:52:110,0,-12.4171,-4.85119,-24.4322,Q,Q
2023-03-15 21:47:52:120,0,-12.4126,-4.8669,-24.4244,Q,Q
2023-03-15 21:47:52:130,0,-12.4111,-4.88312,-24.4158,Q,Q
2023-03-15 21:47:52:140,0,-12.4085,-4.89517,-24.408,Q,Q
2023-03-15 21:47:52:150,0,-12.4052,-4.91026,-24.3968,Q,Q
2023-03-15 21:47:52:160,0,-12.4002,-4.92495,-24.3868,Q,Q
2023-03-15 21:47:52:170,0,-12.3994,-4.93779,-24.3755,Q,Q
2023-03-15 21:47:52:180,0,-12.3971,-4.94595,-24.363,Q,Q
2023-03-15 21:47:52:190,0,-12.39,-4.95373,-24.3531,Q,Q
2023-03-15 21:47:52:200,0,-12.3849,-4.96433,-24.3478,Q,Q
2023-03-15 21:47:52:210,0,-12.3813,-4.96882,-24.3404,Q,Q
2023-03-15 21:47:52:220,0,-12.3752,-4.97258,-24.334,Q,Q
2023-03-15 21:47:52:230,0,-12.3733,-4.97266,-24.3291,Q,Q
2023-03-15 21:47:52:240,0,-12.3687,-4.97479,-24.3288,Q,Q
2023-03-15 21:47:52:250,0,-12.366,-4.97951,-24.3295,Q,Q
2023-03-15 21:47:52:260,0,-12.3653,-4.98605,-24.3308,Q,Q
2023-03-15 21:47:52:270,0,-12.3678,-4.99683,-24.3397,Q,Q
2023-03-15 21:47:52:280,0,-12.3734,-5.00536,-24.3514,Q,Q
2023-03-15 21:47:52:290,0,-12.3842,-5.01488,-24.3645,Q,Q
2023-03-15 21:47:52:300,0,-12.3999,-5.01996,-24.3741,Q,Q
2023-03-15 21:47:52:310,0,-12.4182,-5.02852,-24.3827,Q,Q
2023-03-15 21:47:52:320,0,-12.438,-5.03682,-24.3887,Q,Q
2023-03-15 21:47:52:330,0,-12.4616,-5.04851,-24.3918,Q,Q
2023-03-15 21:47:52:340,0,-12.484,-5.05781,-24.3923,Q,Q
2023-03-15 21:47:52:350,0,-12.5048,-5.06679,-24.3915,Q,Q
2023-03-15 21:47:52:360,0,-12.5219,-5.07244,-24.3925,Q,Q
2023-03-15 21:47:52:370,0,-12.541,-5.07674,-24.3933,Q,Q
2023-03-15 21:47:52:380,0,-12.5559,-5.07977,-24.3938,Q,Q
2023-03-15 21:47:52:390,0,-12.5661,-5.08022,-24.3934,Q,Q
2023-03-15 21:47:52:400,0,-12.5717,-5.07739,-24.3981,Q,Q
2023-03-15 21:47:52:410,0,-12.5745,-5.07992,-24.4009,Q,Q
2023-03-15 21:47:52:419,0,-12.5754,-5.08258,-24.4051,Q,Q
2023-03-15 21:47:52:430,0,-12.577,-5.08444,-24.4103,Q,Q
2023-03-15 21:47:52:440,0,-12.5769,-5.0861,-24.4165,Q,Q
2023-03-15 21:47:52:450,0,-12.579,-5.08915,-24.4252,Q,Q
2023-03-15 21:47:52:460,0,-12.5765,-5.09259,-24.4322,Q,Q
2023-03-15 21:47:52:470,0,-12.5757,-5.09433,-24.44,Q,Q
2023-03-15 21:47:52:480,0,-12.5751,-5.08943,-24.4507,Q,Q
2023-03-15 21:47:52:490,0,-12.5714,-5.08696,-24.4571,Q,Q
2023-03-15 21:47:52:500,0,-12.562,-5.08307,-24.4611,Q,Q
2023-03-15 21:47:52:510,0,-12.5491,-5.08122,-24.4627,Q,Q
2023-03-15 21:47:52:520,0,-12.5436,-5.08135,-24.4638,Q,Q
2023-03-15 21:47:52:530,0,-12.536,-5.08074,-24.4642,Q,Q
2023-03-15 21:47:52:540,0,-12.5299,-5.07919,-24.4608,Q,Q
2023-03-15 21:47:52:550,0,-12.5228,-5.07618,-24.4543,Q,Q
2023-03-15 21:47:52:560,0,-12.5205,-5.0687,-24.4502,Q,Q
2023-03-15 21:47:52:570,0,-12.5196,-5.06477,-24.4488,Q,Q
2023-03-15 21:47:52:580,0,-12.5171,-5.0585,-24.4454,Q,Q
2023-03-15 21:47:52:590,0,-12.5185,-5.0521,-24.4397,Q,Q
2023-03-15 21:47:52:600,0,-12.519,-5.04615,-24.4371,Q,Q
2023-03-15 21:47:52:610,0,-12.5161,-5.04127,-24.4347,Q,Q
2023-03-15 21:47:52:620,0,-12.5145,-5.03719,-24.4311,Q,Q
2023-03-15 21:47:52:630,0,-12.5107,-5.03417,-24.4288,Q,Q
2023-03-15 21:47:52:640,0,-12.504,-5.03226,-24.4286,Q,Q
2023-03-15 21:47:52:650,0,-12.4961,-5.02853,-24.4238,Q,Q
2023-03-15 21:47:52:660,0,-12.4921,-5.02719,-24.4201,Q,Q
2023-03-15 21:47:52:670,0,-12.485,-5.02389,-24.4174,Q,Q
2023-03-15 21:47:52:680,0,-12.4777,-5.02325,-24.4159,Q,Q
2023-03-15 21:47:52:690,0,-12.4703,-5.02168,-24.4104,Q,Q
2023-03-15 21:47:52:700,0,-12.4731,-5.02433,-24.4006,Q,Q
2023-03-15 21:47:52:710,0,-12.4759,-5.02704,-24.3937,Q,Q
2023-03-15 21:47:52:720,0,-12.4785,-5.02895,-24.3841,Q,Q
2023-03-15 21:47:52:730,0,-12.4804,-5.02985,-24.3762,Q,Q
2023-03-15 21:47:52:740,0,-12.4826,-5.03423,-24.3652,Q,Q
2023-03-15 21:47:52:750,0,-12.4824,-5.03826,-24.3559,Q,Q
2023-03-15 21:47:52:760,0,-12.4826,-5.04187,-24.3485,Q,Q
2023-03-15 21:47:52:770,0,-12.488,-5.0426,-24.3368,Q,Q
2023-03-15 21:47:52:780,0,-12.4894,-5.0452,-24.3327,Q,Q
2023-03-15 21:47:52:790,0,-12.4937,-5.04776,-24.3266,Q,Q
2023-03-15 21:47:52:800,0,-12.4984,-5.05104,-24.3254,Q,Q
2023-03-15 21:47:52:810,0,-12.504,-5.05458,-24.3278,Q,Q
2023-03-15 21:47:52:820,0,-12.5134,-5.05236,-24.329,Q,Q
2023-03-15 21:47:52:830,0,-12.5214,-5.05124,-24.3324,Q,Q
2023-03-15 21:47:52:840,0,-12.5291,-5.05112,-24.3371,Q,Q
2023-03-15 21:47:52:850,0,-12.5384,-5.04934,-24.3405,Q,Q
2023-03-15 21:47:52:860,0,-12.5404,-5.04836,-24.3446,Q,Q
2023-03-15 21:47:52:869,0,-12.5452,-5.04059,-24.3478,Q,Q
2023-03-15 21:47:52:879,0,-12.5491,-5.03614,-24.3546,Q,Q
2023-03-15 21:47:52:890,0,-12.5525,-5.03248,-24.357,Q,Q
2023-03-15 21:47:52:900,0,-12.5566,-5.02659,-24.3626,Q,Q
2023-03-15 21:47:52:910,0,-12.5577,-5.02082,-24.3648,Q,Q
2023-03-15 21:47:52:920,0,-12.5629,-5.01192,-24.3641,Q,Q
2023-03-15 21:47:52:930,0,-12.5698,-5.00254,-24.3604,Q,Q
2023-03-15 21:47:52:940,0,-12.5718,-4.99634,-24.3545,Q,Q
2023-03-15 21:47:52:950,0,-12.5749,-4.98672,-24.3482,Q,Q
2023-03-15 21:47:52:960,0,-12.5842,-4.97568,-24.3356,Q,Q
2023-03-15 21:47:52:970,0,-12.5921,-4.97048,-24.3233,Q,Q
2023-03-15 21:47:52:980,0,-12.5999,-4.96486,-24.309,Q,Q
2023-03-15 21:47:52:990,0,-12.6094,-4.96161,-24.2929,Q,Q
2023-03-15 21:47:53:0,0,-12.6188,-4.95659,-24.2764,Q,Q
2023-03-15 21:47:53:10,0,-12.6308,-4.94791,-24.2574,Q,Q
2023-03-15 21:47:53:20,0,-12.6425,-4.94316,-24.2409,Q,Q
2023-03-15 21:47:53:30,0,-12.6574,-4.93789,-24.2266,Q,Q
2023-03-15 21:47:53:40,0,-12.6669,-4.93108,-24.2171,Q,Q
2023-03-15 21:47:53:50,0,-12.676,-4.922,-24.2065,Q,Q
2023-03-15 21:47:53:60,0,-12.6841,-4.91654,-24.1965,Q,Q
2023-03-15 21:47:53:70,0,-12.695,-4.91025,-24.1904,Q,Q
2023-03-15 21:47:53:80,0,-12.701,-4.90433,-24.1856,Q,Q
2023-03-15 21:47:53:90,0,-12.7099,-4.89461,-24.1855,Q,Q
2023-03-15 21:47:53:100,0,-12.7114,-4.88257,-24.186,Q,Q
2023-03-15 21:47:53:110,0,-12.7056,-4.87907,-24.1903,Q,Q
2023-03-15 21:47:53:119,0,-12.7023,-4.88014,-24.1913,Q,Q
2023-03-15 21:47:53:130,0,-12.6991,-4.88727,-24.1961,Q,Q
2023-03-15 21:47:53:140,0,-12.6966,-4.89276,-24.2011,Q,Q
2023-03-15 21:47:53:150,0,-12.6973,-4.89756,-24.2056,Q,Q
2023-03-15 21:47:53:160,0,-12.7016,-4.90275,-24.211,Q,Q
2023-03-15 21:47:53:170,0,-12.7159,-4.90676,-24.2116,Q,Q
2023-03-15 21:47:53:180,0,-12.734,-4.91214,-24.211,Q,Q
2023-03-15 21:47:53:190,0,-12.7497,-4.91582,-24.2075,Q,Q
2023-03-15 21:47:53:200,0,-12.7663,-4.91919,-24.2034,Q,Q
2023-03-15 21:47:53:210,0,-12.7841,-4.9267,-24.1993,Q,Q
2023-03-15 21:47:53:220,0,-12.7989,-4.93273,-24.1972,Q,Q
2023-03-15 21:47:53:230,0,-12.8089,-4.93753,-24.2,Q,Q
2023-03-15 21:47:53:240,0,-12.8205,-4.93874,-24.2018,Q,Q
2023-03-15 21:47:53:250,0,-12.8296,-4.94096,-24.2049,Q,Q
2023-03-15 21:47:53:260,0,-12.839,-4.94406,-24.2135,Q,Q
2023-03-15 21:47:53:269,0,-12.8498,-4.94895,-24.2202,Q,Q
2023-03-15 21:47:53:280,0,-12.8599,-4.95821,-24.231,Q,Q
2023-03-15 21:47:53:290,0,-12.8738,-4.96851,-24.24,Q,Q
2023-03-15 21:47:53:300,0,-12.8861,-4.98004,-24.2478,Q,Q
2023-03-15 21:47:53:310,0,-12.9004,-4.9882,-24.2555,Q,Q
2023-03-15 21:47:53:320,0,-12.9145,-4.99547,-24.264,Q,Q
2023-03-15 21:47:53:330,0,-12.9192,-5.0043,-24.2726,Q,Q
2023-03-15 21:47:53:340,0,-12.9278,-5.00753,-24.2789,Q,Q
2023-03-15 21:47:53:350,0,-12.9371,-5.01283,-24.2822,Q,Q
2023-03-15 21:47:53:360,0,-12.9371,-5.01795,-24.2845,Q,Q
2023-03-15 21:47:53:370,0,-12.9395,-5.02518,-24.2845,Q,Q
2023-03-15 21:47:53:380,0,-12.9415,-5.03231,-24.2783,Q,Q
2023-03-15 21:47:53:390,0,-12.9407,-5.03686,-24.2738,Q,Q
2023-03-15 21:47:53:400,0,-12.9424,-5.04024,-24.2655,Q,Q
2023-03-15 21:47:53:410,0,-12.9449,-5.04396,-24.2592,Q,Q
2023-03-15 21:47:53:420,0,-12.948,-5.04539,-24.2502,Q,Q
2023-03-15 21:47:53:430,0,-12.9492,-5.04757,-24.2447,Q,Q
2023-03-15 21:47:53:440,0,-12.9478,-5.0488,-24.2362,Q,Q
2023-03-15 21:47:53:450,0,-12.9415,-5.0509,-24.2302,Q,Q
2023-03-15 21:47:53:460,0,-12.9368,-5.05532,-24.2255,Q,Q
2023-03-15 21:47:53:470,0,-12.9312,-5.05878,-24.2211,Q,Q
2023-03-15 21:47:53:480,0,-12.9186,-5.06022,-24.2163,Q,Q
2023-03-15 21:47:53:490,0,-12.9097,-5.06308,-24.2148,Q,Q
2023-03-15 21:47:53:500,0,-12.8968,-5.06159,-24.215,Q,Q
2023-03-15 21:47:53:510,0,-12.8824,-5.06235,-24.2124,Q,Q
2023-03-15 21:47:53:520,0,-12.8724,-5.06516,-24.2078,Q,Q
2023-03-15 21:47:53:530,0,-12.8626,-5.06732,-24.2107,Q,Q
2023-03-15 21:47:53:540,0,-12.8563,-5.06639,-24.2103,Q,Q
2023-03-15 21:47:53:550,0,-12.8439,-5.06509,-24.2072,Q,Q
2023-03-15 21:47:53:560,0,-12.8323,-5.06493,-24.2063,Q,Q
2023-03-15 21:47:53:570,0,-12.8189,-5.06632,-24.2036,Q,Q
2023-03-15 21:47:53:580,0,-12.8063,-5.06323,-24.1985,Q,Q
2023-03-15 21:47:53:590,0,-12.7945,-5.06143,-24.1947,Q,Q
2023-03-15 21:47:53:600,0,-12.7878,-5.06223,-24.1902,Q,Q
2023-03-15 21:47:53:610,0,-12.7805,-5.06511,-24.1852,Q,Q
2023-03-15 21:47:53:620,0,-12.7707,-5.06802,-24.1817,Q,Q
2023-03-15 21:47:53:629,0,-12.7619,-5.06717,-24.1769,Q,Q
2023-03-15 21:47:53:640,0,-12.7566,-5.06869,-24.1745,Q,Q
2023-03-15 21:47:53:650,0,-12.7475,-5.0724,-24.1707,Q,Q
2023-03-15 21:47:53:660,0,-12.735,-5.07323,-24.1668,Q,Q
2023-03-15 21:47:53:670,0,-12.7222,-5.07587,-24.1692,Q,Q
2023-03-15 21:47:53:680,0,-12.7096,-5.08015,-24.1709,Q,Q
2023-03-15 21:47:53:690,0,-12.6952,-5.08484,-24.1718,Q,Q
2023-03-15 21:47:53:700,0,-12.6793,-5.09014,-24.1764,Q,Q
2023-03-15 21:47:53:710,0,-12.6648,-5.09476,-24.1789,Q,Q
2023-03-15 21:47:53:720,0,-12.6515,-5.10058,-24.1847,Q,Q
2023-03-15 21:47:53:730,0,-12.6391,-5.10323,-24.1855,Q,Q
2023-03-15 21:47:53:740,0,-12.6263,-5.10538,-24.1853,Q,Q
2023-03-15 21:47:53:750,0,-12.6126,-5.11047,-24.1846,Q,Q
2023-03-15 21:47:53:760,0,-12.5955,-5.11393,-24.1827,Q,Q
2023-03-15 21:47:53:770,0,-12.5805,-5.11803,-24.1777,Q,Q
2023-03-15 21:47:53:780,0,-12.5671,-5.12488,-24.1748,Q,Q
2023-03-15 21:47:53:790,0,-12.5547,-5.12975,-24.1688,Q,Q
2023-03-15 21:47:53:800,0,-12.5422,-5.13661,-24.1627,Q,Q
2023-03-15 21:47:53:810,0,-12.5334,-5.14283,-24.1532,Q,Q
2023-03-15 21:47:53:820,0,-12.5264,-5.15005,-24.1447,Q,Q
2023-03-15 21:47:53:830,0,-12.5231,-5.15564,-24.1325,Q,Q
2023-03-15 21:47:53:840,0,-12.5203,-5.15864,-24.1197,Q,Q
2023-03-15 21:47:53:850,0,-12.5188,-5.15977,-24.1072,Q,Q
2023-03-15 21:47:53:860,0,-12.5199,-5.16828,-24.0955,Q,Q
2023-03-15 21:47:53:870,0,-12.5213,-5.16901,-24.0844,Q,Q
2023-03-15 21:47:53:879,0,-12.5226,-5.17203,-24.0742,Q,Q
2023-03-15 21:47:53:890,0,-12.5235,-5.17252,-24.0634,Q,Q
2023-03-15 21:47:53:900,0,-12.5218,-5.17655,-24.0533,Q,Q
2023-03-15 21:47:53:910,0,-12.5262,-5.18285,-24.0476,Q,Q
2023-03-15 21:47:53:920,0,-12.5301,-5.18956,-24.0413,Q,Q
2023-03-15 21:47:53:930,0,-12.5378,-5.19282,-24.0381,Q,Q
2023-03-15 21:47:53:940,0,-12.5414,-5.1952,-24.0366,Q,Q
2023-03-15 21:47:53:950,0,-12.5438,-5.19666,-24.0374,Q,Q
2023-03-15 21:47:53:960,0,-12.5412,-5.19469,-24.0384,Q,Q
2023-03-15 21:47:53:970,0,-12.5351,-5.19686,-24.0427,Q,Q
2023-03-15 21:47:53:980,0,-12.5368,-5.20192,-24.0506,Q,Q
2023-03-15 21:47:53:990,0,-12.5383,-5.20808,-24.0546,Q,Q
2023-03-15 21:47:54:0,0,-12.543,-5.21435,-24.0624,Q,Q
2023-03-15 21:47:54:10,0,-12.5538,-5.22086,-24.0688,Q,Q
2023-03-15 21:47:54:20,0,-12.5687,-5.22122,-24.0745,Q,Q
2023-03-15 21:47:54:30,0,-12.5879,-5.22609,-24.0794,Q,Q
2023-03-15 21:47:54:40,0,-12.6039,-5.22823,-24.0897,Q,Q
2023-03-15 21:47:54:50,0,-12.6169,-5.22787,-24.0962,Q,Q
2023-03-15 21:47:54:60,0,-12.6305,-5.23023,-24.0988,Q,Q
2023-03-15 21:47:54:70,0,-12.6354,-5.235,-24.1051,Q,Q
2023-03-15 21:47:54:80,0,-12.6404,-5.23719,-24.1092,Q,Q
2023-03-15 21:47:54:90,0,-12.6467,-5.23882,-24.1145,Q,Q
2023-03-15 21:47:54:100,0,-12.651,-5.24084,-24.1228,Q,Q
2023-03-15 21:47:54:110,0,-12.6507,-5.24166,-24.1254,Q,Q
2023-03-15 21:47:54:120,0,-12.6512,-5.24213,-24.1307,Q,Q
2023-03-15 21:47:54:130,0,-12.6488,-5.24372,-24.1365,Q,Q
2023-03-15 21:47:54:139,0,-12.643,-5.24271,-24.1424,Q,Q
2023-03-15 21:47:54:150,0,-12.6368,-5.24356,-24.1496,Q,Q
2023-03-15 21:47:54:160,0,-12.6326,-5.24666,-24.1583,Q,Q
2023-03-15 21:47:54:170,0,-12.6243,-5.24748,-24.1674,Q,Q
2023-03-15 21:47:54:180,0,-12.6159,-5.24873,-24.1762,Q,Q
2023-03-15 21:47:54:190,0,-12.6087,-5.25115,-24.1875,Q,Q
2023-03-15 21:47:54:200,0,-12.6011,-5.2508,-24.1977,Q,Q
2023-03-15 21:47:54:210,0,-12.5892,-5.24777,-24.2069,Q,Q
2023-03-15 21:47:54:220,0,-12.5836,-5.25114,-24.2149,Q,Q
2023-03-15 21:47:54:230,0,-12.5772,-5.25701,-24.2179,Q,Q
2023-03-15 21:47:54:240,0,-12.5653,-5.2651,-24.2232,Q,Q
2023-03-15 21:47:54:250,0,-12.557,-5.27333,-24.2296,Q,Q
2023-03-15 21:47:54:260,0,-12.5498,-5.28014,-24.2348,Q,Q
2023-03-15 21:47:54:270,0,-12.5421,-5.28438,-24.2374,Q,Q
2023-03-15 21:47:54:280,0,-12.5334,-5.28758,-24.2401,Q,Q
2023-03-15 21:47:54:290,0,-12.5224,-5.28727,-24.2416,Q,Q
2023-03-15 21:47:54:300,0,-12.512,-5.28697,-24.2405,Q,Q
2023-03-15 21:47:54:310,0,-12.4994,-5.28693,-24.237,Q,Q
2023-03-15 21:47:54:320,0,-12.4864,-5.28778,-24.2296,Q,Q
2023-03-15 21:47:54:330,0,-12.4738,-5.29017,-24.2239,Q,Q
2023-03-15 21:47:54:340,0,-12.4608,-5.28866,-24.2243,Q,Q
2023-03-15 21:47:54:350,0,-12.4459,-5.28618,-24.2215,Q,Q
2023-03-15 21:47:54:360,0,-12.431,-5.28896,-24.2189,Q,Q
2023-03-15 21:47:54:370,0,-12.4095,-5.29448,-24.2164,Q,Q
2023-03-15 21:47:54:380,0,-12.3879,-5.29578,-24.2146,Q,Q
2023-03-15 21:47:54:390,0,-12.3648,-5.29703,-24.2136,Q,Q
2023-03-15 21:47:54:400,0,-12.3406,-5.30216,-24.2154,Q,Q
2023-03-15 21:47:54:410,0,-12.3213,-5.30653,-24.213,Q,Q
2023-03-15 21:47:54:420,0,-12.2994,-5.312,-24.2108,Q,Q
2023-03-15 21:47:54:430,0,-12.2813,-5.3161,-24.213,Q,Q
2023-03-15 21:47:54:440,0,-12.2646,-5.31984,-24.2099,Q,Q
2023-03-15 21:47:54:450,0,-12.2481,-5.3209,-24.2061,Q,Q
2023-03-15 21:47:54:460,0,-12.2322,-5.31923,-24.2034,Q,Q
2023-03-15 21:47:54:470,0,-12.216,-5.31929,-24.2001,Q,Q
2023-03-15 21:47:54:480,0,-12.1997,-5.31691,-24.1944,Q,Q
2023-03-15 21:47:54:490,0,-12.1881,-5.3106,-24.1926,Q,Q
2023-03-15 21:47:54:500,0,-12.1761,-5.30718,-24.1888,Q,Q
2023-03-15 21:47:54:510,0,-12.1635,-5.30376,-24.1897,Q,Q
2023-03-15 21:47:54:520,0,-12.1524,-5.3013,-24.1891,Q,Q
2023-03-15 21:47:54:530,0,-12.1415,-5.29768,-24.1901,Q,Q
2023-03-15 21:47:54:540,0,-12.1285,-5.29219,-24.1927,Q,Q
2023-03-15 21:47:54:550,0,-12.1149,-5.28549,-24.1957,Q,Q
2023-03-15 21:47:54:560,0,-12.1042,-5.2787,-24.2031,Q,Q
2023-03-15 21:47:54:570,0,-12.0946,-5.27541,-24.212,Q,Q
2023-03-15 21:47:54:580,0,-12.082,-5.27369,-24.2181,Q,Q
2023-03-15 21:47:54:590,0,-12.0726,-5.27105,-24.2243,Q,Q
2023-03-15 21:47:54:600,0,-12.0615,-5.2693,-24.2348,Q,Q
2023-03-15 21:47:54:610,0,-12.0493,-5.26769,-24.2435,Q,Q
2023-03-15 21:47:54:620,0,-12.0358,-5.26447,-24.2532,Q,Q
2023-03-15 21:47:54:630,0,-12.0222,-5.25943,-24.2607,Q,Q
2023-03-15 21:47:54:640,0,-12.0127,-5.25746,-24.2656,Q,Q
2023-03-15 21:47:54:650,0,-12.0004,-5.25544,-24.2722,Q,Q
2023-03-15 21:47:54:660,0,-11.9917,-5.25793,-24.273,Q,Q
2023-03-15 21:47:54:670,0,-11.9841,-5.25552,-24.2737,Q,Q
2023-03-15 21:47:54:680,0,-11.9747,-5.25416,-24.2733,Q,Q
2023-03-15 21:47:54:690,0,-11.9665,-5.24776,-24.271,Q,Q
2023-03-15 21:47:54:700,0,-11.9575,-5.24256,-24.2703,Q,Q
2023-03-15 21:47:54:710,0,-11.9472,-5.23957,-24.2684,Q,Q
2023-03-15 21:47:54:720,0,-11.9359,-5.23394,-24.2626,Q,Q
2023-03-15 21:47:54:730,0,-11.9215,-5.22751,-24.2568,Q,Q
2023-03-15 21:47:54:740,0,-11.9078,-5.2206,-24.2549,Q,Q
2023-03-15 21:47:54:750,0,-11.8947,-5.21245,-24.2516,Q,Q
2023-03-15 21:47:54:760,0,-11.8818,-5.20671,-24.2521,Q,Q
2023-03-15 21:47:54:770,0,-11.8687,-5.20042,-24.2543,Q,Q
2023-03-15 21:47:54:780,0,-11.855,-5.19279,-24.2565,Q,Q
2023-03-15 21:47:54:790,0,-11.8388,-5.17989,-24.2616,Q,Q
2023-03-15 21:47:54:800,0,-11.8189,-5.17201,-24.2687,Q,Q
2023-03-15 21:47:54:810,0,-11.8004,-5.16773,-24.2783,Q,Q
2023-03-15 21:47:54:819,0,-11.7838,-5.1672,-24.2863,Q,Q
2023-03-15 21:47:54:830,0,-11.7683,-5.16717,-24.2964,Q,Q
2023-03-15 21:47:54:840,0,-11.755,-5.16583,-24.3071,Q,Q
2023-03-15 21:47:54:850,0,-11.7409,-5.16271,-24.3181,Q,Q
2023-03-15 21:47:54:860,0,-11.7332,-5.15809,-24.3297,Q,Q
2023-03-15 21:47:54:870,0,-11.7307,-5.15532,-24.336,Q,Q
2023-03-15 21:47:54:880,0,-11.7309,-5.15321,-24.339,Q,Q
2023-03-15 21:47:54:890,0,-11.7284,-5.14914,-24.3382,Q,Q
2023-03-15 21:47:54:899,0,-11.7259,-5.14384,-24.3396,Q,Q
2023-03-15 21:47:54:910,0,-11.7251,-5.13789,-24.3434,Q,Q
2023-03-15 21:47:54:920,0,-11.724,-5.13417,-24.3421,Q,Q
2023-03-15 21:47:54:930,0,-11.7207,-5.12918,-24.3465,Q,Q
2023-03-15 21:47:54:940,0,-11.716,-5.12266,-24.3496,Q,Q
2023-03-15 21:47:54:950,0,-11.712,-5.11211,-24.3538,Q,Q
2023-03-15 21:47:54:960,0,-11.7065,-5.10493,-24.3599,Q,Q
2023-03-15 21:47:54:970,0,-11.7001,-5.09883,-24.3661,Q,Q
2023-03-15 21:47:54:980,0,-11.6907,-5.09761,-24.3716,Q,Q
2023-03-15 21:47:54:990,0,-11.6826,-5.0925,-24.3816,Q,Q
2023-03-15 21:47:55:0,0,-11.6752,-5.08908,-24.3929,Q,Q
2023-03-15 21:47:55:10,0,-11.6702,-5.08323,-24.4073,Q,Q
2023-03-15 21:47:55:20,0,-11.6658,-5.07705,-24.4213,Q,Q
2023-03-15 21:47:55:30,0,-11.6604,-5.06897,-24.4365,Q,Q
2023-03-15 21:47:55:40,0,-11.6534,-5.06033,-24.45,Q,Q
2023-03-15 21:47:55:49,0,-11.643,-5.04982,-24.4675,Q,Q
2023-03-15 21:47:55:60,0,-11.6326,-5.03956,-24.4874,Q,Q
2023-03-15 21:47:55:70,0,-11.6215,-5.03062,-24.504,Q,Q
2023-03-15 21:47:55:80,0,-11.6109,-5.02431,-24.5162,Q,Q
2023-03-15 21:47:55:90,0,-11.598,-5.01778,-24.53,Q,Q
2023-03-15 21:47:55:100,0,-11.5866,-5.01115,-24.5421,Q,Q
2023-03-15 21:47:55:110,0,-11.5805,-5.00276,-24.5563,Q,Q
2023-03-15 21:47:55:120,0,-11.5704,-4.99169,-24.5684,Q,Q
2023-03-15 21:47:55:130,0,-11.5585,-4.97999,-24.5801,Q,Q
2023-03-15 21:47:55:140,0,-11.5495,-4.96892,-24.5933,Q,Q
2023-03-15 21:47:55:150,0,-11.5367,-4.95524,-24.5992,Q,Q
2023-03-15 21:47:55:160,0,-11.5222,-4.9418,-24.6082,Q,Q
2023-03-15 21:47:55:170,0,-11.5119,-4.93398,-24.6204,Q,Q
2023-03-15 21:47:55:180,0,-11.5026,-4.92668,-24.6255,Q,Q
2023-03-15 21:47:55:190,0,-11.4907,-4.9216,-24.6312,Q,Q
2023-03-15 21:47:55:200,0,-11.4811,-4.90995,-24.6394,Q,Q
2023-03-15 21:47:55:210,0,-11.4675,-4.90255,-24.6446,Q,Q
2023-03-15 21:47:55:220,0,-11.4554,-4.89843,-24.6536,Q,Q
2023-03-15 21:47:55:230,0,-11.4424,-4.89525,-24.6631,Q,Q
2023-03-15 21:47:55:240,0,-11.4314,-4.89345,-24.6671,Q,Q
2023-03-15 21:47:55:250,0,-11.4218,-4.89377,-24.6704,Q,Q
2023-03-15 21:47:55:260,0,-11.4124,-4.89714,-24.6722,Q,Q
2023-03-15 21:47:55:270,0,-11.406,-4.89528,-24.6776,Q,Q
2023-03-15 21:47:55:280,0,-11.3998,-4.89615,-24.6788,Q,Q
2023-03-15 21:47:55:290,0,-11.397,-4.89607,-24.6799,Q,Q
2023-03-15 21:47:55:300,0,-11.3945,-4.89735,-24.6754,Q,Q
2023-03-15 21:47:55:310,0,-11.3888,-4.9004,-24.6712,Q,Q
2023-03-15 21:47:55:319,0,-11.3851,-4.89826,-24.6665,Q,Q
2023-03-15 21:47:55:329,0,-11.3823,-4.89701,-24.658,Q,Q
2023-03-15 21:47:55:340,0,-11.3765,-4.89698,-24.6505,Q,Q
2023-03-15 21:47:55:350,0,-11.3754,-4.89459,-24.6465,Q,Q
2023-03-15 21:47:55:360,0,-11.3773,-4.89258,-24.6454,Q,Q
2023-03-15 21:47:55:369,0,-11.3815,-4.8948,-24.6423,Q,Q
2023-03-15 21:47:55:380,0,-11.3862,-4.89683,-24.638,Q,Q
2023-03-15 21:47:55:390,0,-11.3944,-4.89872,-24.6375,Q,Q
2023-03-15 21:47:55:399,0,-11.4001,-4.89856,-24.6332,Q,Q
2023-03-15 21:47:55:410,0,-11.4085,-4.89998,-24.6317,Q,Q
2023-03-15 21:47:55:420,0,-11.4152,-4.90268,-24.6338,Q,Q
2023-03-15 21:47:55:430,0,-11.4225,-4.90656,-24.6294,Q,Q
2023-03-15 21:47:55:440,0,-11.4295,-4.90416,-24.6294,Q,Q
2023-03-15 21:47:55:450,0,-11.4369,-4.90537,-24.6263,Q,Q
2023-03-15 21:47:55:460,0,-11.4467,-4.90539,-24.6242,Q,Q
2023-03-15 21:47:55:470,0,-11.4607,-4.91059,-24.6201,Q,Q
2023-03-15 21:47:55:480,0,-11.4721,-4.91179,-24.6155,Q,Q
2023-03-15 21:47:55:490,0,-11.4845,-4.91487,-24.6096,Q,Q
2023-03-15 21:47:55:500,0,-11.5031,-4.91892,-24.609,Q,Q
2023-03-15 21:47:55:510,0,-11.5202,-4.92054,-24.6079,Q,Q
2023-03-15 21:47:55:520,0,-11.5375,-4.92198,-24.611,Q,Q
2023-03-15 21:47:55:530,0,-11.5518,-4.92372,-24.6119,Q,Q
2023-03-15 21:47:55:540,0,-11.5688,-4.92687,-24.6176,Q,Q
2023-03-15 21:47:55:550,0,-11.5803,-4.93046,-24.621,Q,Q
2023-03-15 21:47:55:560,0,-11.5906,-4.9321,-24.6269,Q,Q
2023-03-15 21:47:55:570,0,-11.6,-4.9334,-24.6313,Q,Q
2023-03-15 21:47:55:580,0,-11.6067,-4.93263,-24.6379,Q,Q
2023-03-15 21:47:55:590,0,-11.6103,-4.92726,-24.6421,Q,Q
2023-03-15 21:47:55:600,0,-11.6109,-4.91991,-24.6483,Q,Q
2023-03-15 21:47:55:610,0,-11.6129,-4.90898,-24.6547,Q,Q
2023-03-15 21:47:55:620,0,-11.6164,-4.9015,-24.6602,Q,Q
2023-03-15 21:47:55:630,0,-11.6204,-4.8933,-24.6687,Q,Q
2023-03-15 21:47:55:640,0,-11.6259,-4.88102,-24.6825,Q,Q
2023-03-15 21:47:55:650,0,-11.6265,-4.87024,-24.697,Q,Q
2023-03-15 21:47:55:660,0,-11.6289,-4.86538,-24.7096,Q,Q
2023-03-15 21:47:55:670,0,-11.631,-4.86426,-24.723,Q,Q
2023-03-15 21:47:55:680,0,-11.6331,-4.86756,-24.7407,Q,Q
2023-03-15 21:47:55:690,0,-11.6347,-4.86858,-24.7536,Q,Q
2023-03-15 21:47:55:700,0,-11.6408,-4.86715,-24.7684,Q,Q
2023-03-15 21:47:55:710,0,-11.6513,-4.8675,-24.7801,Q,Q
2023-03-15 21:47:55:719,0,-11.6679,-4.86949,-24.7903,Q,Q
2023-03-15 21:47:55:730,0,-11.685,-4.87051,-24.7944,Q,Q
2023-03-15 21:47:55:740,0,-11.703,-4.87104,-24.7977,Q,Q
2023-03-15 21:47:55:750,0,-11.7189,-4.86989,-24.7986,Q,Q
2023-03-15 21:47:55:760,0,-11.737,-4.86742,-24.7929,Q,Q
2023-03-15 21:47:55:770,0,-11.7546,-4.86381,-24.7864,Q,Q
2023-03-15 21:47:55:779,0,-11.7725,-4.8628,-24.7757,Q,Q
2023-03-15 21:47:55:789,0,-11.7885,-4.86301,-24.7651,Q,Q
2023-03-15 21:47:55:800,0,-11.801,-4.85953,-24.7568,Q,Q
2023-03-15 21:47:55:810,0,-11.8131,-4.85643,-24.7553,Q,Q
2023-03-15 21:47:55:820,0,-11.822,-4.85324,-24.7481,Q,Q
2023-03-15 21:47:55:830,0,-11.8343,-4.85751,-24.7453,Q,Q
2023-03-15 21:47:55:840,0,-11.8449,-4.86071,-24.7471,Q,Q
2023-03-15 21:47:55:850,0,-11.8535,-4.86344,-24.7488,Q,Q
2023-03-15 21:47:55:860,0,-11.8658,-4.86866,-24.7518,Q,Q
2023-03-15 21:47:55:870,0,-11.8773,-4.86756,-24.759,Q,Q
2023-03-15 21:47:55:880,0,-11.8929,-4.86827,-24.7696,Q,Q
2023-03-15 21:47:55:890,0,-11.9066,-4.86558,-24.7809,Q,Q
2023-03-15 21:47:55:899,0,-11.9155,-4.86118,-24.8,Q,Q
2023-03-15 21:47:55:910,0,-11.9266,-4.85601,-24.815,Q,Q
2023-03-15 21:47:55:920,0,-11.9341,-4.8505,-24.8316,Q,Q
2023-03-15 21:47:55:930,0,-11.9405,-4.84506,-24.8451,Q,Q
2023-03-15 21:47:55:940,0,-11.9438,-4.84164,-24.8643,Q,Q
2023-03-15 21:47:55:950,0,-11.9458,-4.83563,-24.879,Q,Q
2023-03-15 21:47:55:960,0,-11.9537,-4.82976,-24.8915,Q,Q
2023-03-15 21:47:55:970,0,-11.9612,-4.81765,-24.9043,Q,Q
2023-03-15 21:47:55:980,0,-11.9661,-4.80846,-24.9171,Q,Q
2023-03-15 21:47:55:990,0,-11.9699,-4.80191,-24.9292,Q,Q
2023-03-15 21:47:56:0,0,-11.9729,-4.79167,-24.9329,Q,Q
2023-03-15 21:47:56:10,0,-11.9749,-4.77774,-24.9382,Q,Q
2023-03-15 21:47:56:20,0,-11.9727,-4.76473,-24.9456,Q,Q
2023-03-15 21:47:56:30,0,-11.9704,-4.75569,-24.9499,Q,Q
2023-03-15 21:47:56:40,0,-11.9685,-4.74605,-24.9532,Q,Q
2023-03-15 21:47:56:50,0,-11.9595,-4.74061,-24.9537,Q,Q
2023-03-15 21:47:56:60,0,-11.9509,-4.73643,-24.9533,Q,Q
2023-03-15 21:47:56:70,0,-11.9451,-4.73258,-24.9565,Q,Q
2023-03-15 21:47:56:80,0,-11.9419,-4.73349,-24.9566,Q,Q
2023-03-15 21:47:56:90,0,-11.9339,-4.7337,-24.9565,Q,Q
2023-03-15 21:47:56:100,0,-11.929,-4.73498,-24.958,Q,Q
2023-03-15 21:47:56:110,0,-11.9267,-4.73818,-24.9538,Q,Q
2023-03-15 21:47:56:120,0,-11.9235,-4.73922,-24.9487,Q,Q
2023-03-15 21:47:56:130,0,-11.9243,-4.73798,-24.9427,Q,Q
2023-03-15 21:47:56:140,0,-11.9237,-4.73938,-24.9377,Q,Q
2023-03-15 21:47:56:150,0,-11.9259,-4.73933,-24.9302,Q,Q
2023-03-15 21:47:56:160,0,-11.9263,-4.7342,-24.9241,Q,Q
2023-03-15 21:47:56:170,0,-11.9287,-4.73206,-24.9152,Q,Q
2023-03-15 21:47:56:180,0,-11.9324,-4.72946,-24.9105,Q,Q
2023-03-15 21:47:56:190,0,-11.9381,-4.72561,-24.904,Q,Q
2023-03-15 21:47:56:200,0,-11.9411,-4.72233,-24.9055,Q,Q
2023-03-15 21:47:56:210,0,-11.9457,-4.71766,-24.9056,Q,Q
2023-03-15 21:47:56:219,0,-11.9509,-4.71495,-24.9078,Q,Q
2023-03-15 21:47:56:230,0,-11.9544,-4.71357,-24.9112,Q,Q
2023-03-15 21:47:56:240,0,-11.954,-4.70974,-24.9159,Q,Q
2023-03-15 21:47:56:250,0,-11.9568,-4.70415,-24.9223,Q,Q
2023-03-15 21:47:56:260,0,-11.9568,-4.69801,-24.9299,Q,Q
2023-03-15 21:47:56:270,0,-11.9587,-4.69615,-24.9361,Q,Q
2023-03-15 21:47:56:280,0,-11.9597,-4.69155,-24.9421,Q,Q
2023-03-15 21:47:56:290,0,-11.9633,-4.68624,-24.9484,Q,Q
2023-03-15 21:47:56:300,0,-11.9691,-4.68216,-24.9542,Q,Q
2023-03-15 21:47:56:310,0,-11.9724,-4.67998,-24.959,Q,Q
2023-03-15 21:47:56:320,0,-11.9768,-4.67721,-24.9599,Q,Q
2023-03-15 21:47:56:329,0,-11.977,-4.67512,-24.9594,Q,Q
2023-03-15 21:47:56:339,0,-11.9794,-4.67337,-24.9589,Q,Q
2023-03-15 21:47:56:349,0,-11.9801,-4.6708,-24.9561,Q,Q
2023-03-15 21:47:56:360,0,-11.9813,-4.66649,-24.9506,Q,Q
2023-03-15 21:47:56:370,0,-11.9797,-4.66334,-24.9409,Q,Q
2023-03-15 21:47:56:379,0,-11.9795,-4.65947,-24.9289,Q,Q
2023-03-15 21:47:56:390,0,-11.9793,-4.65841,-24.9163,Q,Q
2023-03-15 21:47:56:400,0,-11.9741,-4.65596,-24.905,Q,Q
2023-03-15 21:47:56:410,0,-11.9724,-4.65445,-24.894,Q,Q
2023-03-15 21:47:56:420,0,-11.9702,-4.65666,-24.883,Q,Q
2023-03-15 21:47:56:430,0,-11.9718,-4.65283,-24.8712,Q,Q
2023-03-15 21:47:56:440,0,-11.9702,-4.64834,-24.8622,Q,Q
2023-03-15 21:47:56:450,0,-11.9657,-4.64301,-24.8545,Q,Q
2023-03-15 21:47:56:460,0,-11.9584,-4.64514,-24.8458,Q,Q
2023-03-15 21:47:56:470,0,-11.9542,-4.65195,-24.8404,Q,Q
2023-03-15 21:47:56:480,0,-11.9519,-4.65992,-24.8338,Q,Q
2023-03-15 21:47:56:490,0,-11.9506,-4.66874,-24.8278,Q,Q
2023-03-15 21:47:56:500,0,-11.9516,-4.67517,-24.8244,Q,Q
2023-03-15 21:47:56:510,0,-11.9561,-4.67589,-24.822,Q,Q
2023-03-15 21:47:56:520,0,-11.9624,-4.67755,-24.8158,Q,Q
2023-03-15 21:47:56:530,0,-11.976,-4.67853,-24.8103,Q,Q
2023-03-15 21:47:56:540,0,-11.9878,-4.68364,-24.8017,Q,Q
2023-03-15 21:47:56:550,0,-11.9993,-4.69034,-24.7911,Q,Q
2023-03-15 21:47:56:560,0,-12.0091,-4.69576,-24.7782,Q,Q
2023-03-15 21:47:56:570,0,-12.0203,-4.70406,-24.7687,Q,Q
2023-03-15 21:47:56:580,0,-12.0284,-4.70925,-24.7599,Q,Q
2023-03-15 21:47:56:590,0,-12.033,-4.71038,-24.7555,Q,Q
2023-03-15 21:47:56:600,0,-12.0345,-4.71226,-24.7525,Q,Q
2023-03-15 21:47:56:610,0,-12.0363,-4.71071,-24.7499,Q,Q
2023-03-15 21:47:56:620,0,-12.0355,-4.70764,-24.7504,Q,Q
2023-03-15 21:47:56:630,0,-12.0296,-4.70785,-24.7508,Q,Q
2023-03-15 21:47:56:640,0,-12.0248,-4.7036,-24.7536,Q,Q
2023-03-15 21:47:56:650,0,-12.0177,-4.70375,-24.7561,Q,Q
2023-03-15 21:47:56:659,0,-12.0095,-4.70786,-24.76,Q,Q
2023-03-15 21:47:56:670,0,-12.0004,-4.71015,-24.7668,Q,Q
2023-03-15 21:47:56:680,0,-11.9978,-4.70708,-24.7709,Q,Q
2023-03-15 21:47:56:690,0,-11.9956,-4.70449,-24.7788,Q,Q
2023-03-15 21:47:56:700,0,-11.9921,-4.70152,-24.7836,Q,Q
2023-03-15 21:47:56:710,0,-11.9885,-4.69982,-24.7909,Q,Q
2023-03-15 21:47:56:720,0,-11.9808,-4.70162,-24.7948,Q,Q
2023-03-15 21:47:56:730,0,-11.9773,-4.70251,-24.7986,Q,Q
2023-03-15 21:47:56:740,0,-11.9668,-4.70078,-24.8006,Q,Q
2023-03-15 21:47:56:750,0,-11.9556,-4.70506,-24.7986,Q,Q
2023-03-15 21:47:56:760,0,-11.9496,-4.70474,-24.798,Q,Q
2023-03-15 21:47:56:770,0,-11.9418,-4.70693,-24.7995,Q,Q
2023-03-15 21:47:56:780,0,-11.937,-4.70801,-24.7955,Q,Q
2023-03-15 21:47:56:790,0,-11.9316,-4.70492,-24.7926,Q,Q
2023-03-15 21:47:56:800,0,-11.9256,-4.7066,-24.7843,Q,Q
2023-03-15 21:47:56:809,0,-11.9182,-4.70592,-24.7784,Q,Q
2023-03-15 21:47:56:819,0,-11.9098,-4.7084,-24.7701,Q,Q
2023-03-15 21:47:56:829,0,-11.9002,-4.71002,-24.7617,Q,Q
2023-03-15 21:47:56:839,0,-11.8876,-4.71347,-24.7562,Q,Q
2023-03-15 21:47:56:849,0,-11.8728,-4.71584,-24.7492,Q,Q
2023-03-15 21:47:56:859,0,-11.8598,-4.71853,-24.7434,Q,Q
2023-03-15 21:47:56:869,0,-11.8465,-4.71868,-24.7409,Q,Q
2023-03-15 21:47:56:879,0,-11.8343,-4.72655,-24.7397,Q,Q
2023-03-15 21:47:56:889,0,-11.821,-4.73429,-24.7377,Q,Q
2023-03-15 21:47:56:899,0,-11.8099,-4.74046,-24.7381,Q,Q
2023-03-15 21:47:56:909,0,-11.8002,-4.75122,-24.7315,Q,Q
2023-03-15 21:47:56:919,0,-11.7906,-4.75985,-24.7253,Q,Q
2023-03-15 21:47:56:930,0,-11.7859,-4.77148,-24.7166,Q,Q
2023-03-15 21:47:56:939,0,-11.7837,-4.77923,-24.7098,Q,Q
2023-03-15 21:47:56:949,0,-11.7858,-4.78508,-24.6981,Q,Q
2023-03-15 21:47:56:959,0,-11.7864,-4.78986,-24.6912,Q,Q
2023-03-15 21:47:56:970,0,-11.7907,-4.79184,-24.6824,Q,Q
2023-03-15 21:47:56:980,0,-11.7939,-4.79624,-24.6712,Q,Q
2023-03-15 21:47:56:990,0,-11.7958,-4.79621,-24.6652,Q,Q
2023-03-15 21:47:57:0,0,-11.7982,-4.79826,-24.6575,Q,Q
2023-03-15 21:47:57:10,0,-11.8004,-4.79845,-24.6522,Q,Q
2023-03-15 21:47:57:20,0,-11.8049,-4.79979,-24.6469,Q,Q
2023-03-15 21:47:57:30,0,-11.8092,-4.80138,-24.6435,Q,Q
2023-03-15 21:47:57:40,0,-11.812,-4.80485,-24.645,Q,Q
2023-03-15 21:47:57:50,0,-11.812,-4.80843,-24.6477,Q,Q
2023-03-15 21:47:57:59,0,-11.8114,-4.81097,-24.6502,Q,Q
2023-03-15 21:47:57:70,0,-11.8063,-4.81584,-24.6534,Q,Q
2023-03-15 21:47:57:80,0,-11.8039,-4.81914,-24.657,Q,Q
2023-03-15 21:47:57:90,0,-11.8003,-4.82317,-24.6622,Q,Q
2023-03-15 21:47:57:100,0,-11.7988,-4.82844,-24.6613,Q,Q
2023-03-15 21:47:57:110,0,-11.7975,-4.83156,-24.6629,Q,Q
2023-03-15 21:47:57:120,0,-11.7997,-4.8369,-24.6654,Q,Q
2023-03-15 21:47:57:130,0,-11.8034,-4.83997,-24.6652,Q,Q
2023-03-15 21:47:57:140,0,-11.8076,-4.8394,-24.6633,Q,Q
2023-03-15 21:47:57:150,0,-11.8154,-4.84482,-24.6594,Q,Q
2023-03-15 21:47:57:160,0,-11.8206,-4.84488,-24.6549,Q,Q
2023-03-15 21:47:57:169,0,-11.8215,-4.84508,-24.6519,Q,Q
2023-03-15 21:47:57:179,0,-11.8225,-4.84321,-24.6466,Q,Q
2023-03-15 21:47:57:190,0,-11.8203,-4.84359,-24.6479,Q,Q
2023-03-15 21:47:57:200,0,-11.8219,-4.84109,-24.6488,Q,Q
2023-03-15 21:47:57:210,0,-11.8259,-4.84232,-24.6517,Q,Q
2023-03-15 21:47:57:220,0,-11.831,-4.84059,-24.6557,Q,Q
2023-03-15 21:47:57:230,0,-11.8334,-4.83986,-24.6608,Q,Q
2023-03-15 21:47:57:240,0,-11.8325,-4.83763,-24.6691,Q,Q
2023-03-15 21:47:57:250,0,-11.8287,-4.84249,-24.6757,Q,Q
2023-03-15 21:47:57:260,0,-11.8297,-4.85112,-24.6846,Q,Q
2023-03-15 21:47:57:270,0,-11.8272,-4.86289,-24.6935,Q,Q
2023-03-15 21:47:57:280,0,-11.8286,-4.87502,-24.7041,Q,Q
2023-03-15 21:47:57:290,0,-11.8286,-4.88131,-24.7131,Q,Q
2023-03-15 21:47:57:299,0,-11.8344,-4.88857,-24.7233,Q,Q
2023-03-15 21:47:57:310,0,-11.8416,-4.89166,-24.7314,Q,Q
2023-03-15 21:47:57:320,0,-11.852,-4.89703,-24.7349,Q,Q
2023-03-15 21:47:57:330,0,-11.8633,-4.90787,-24.7375,Q,Q
2023-03-15 21:47:57:340,0,-11.8757,-4.91506,-24.7333,Q,Q
2023-03-15 21:47:57:349,0,-11.8852,-4.91644,-24.7281,Q,Q
2023-03-15 21:47:57:359,0,-11.8937,-4.91716,-24.7211,Q,Q
2023-03-15 21:47:57:369,0,-11.9012,-4.91715,-24.7176,Q,Q
2023-03-15 21:47:57:380,0,-11.9067,-4.91768,-24.7131,Q,Q
2023-03-15 21:47:57:390,0,-11.9075,-4.9204,-24.7084,Q,Q
2023-03-15 21:47:57:399,0,-11.9049,-4.92208,-24.7117,Q,Q
2023-03-15 21:47:57:410,0,-11.8997,-4.92872,-24.7132,Q,Q
2023-03-15 21:47:57:420,0,-11.892,-4.93046,-24.7178,Q,Q
2023-03-15 21:47:57:430,0,-11.8836,-4.9316,-24.7247,Q,Q
2023-03-15 21:47:57:440,0,-11.8775,-4.93335,-24.7341,Q,Q
2023-03-15 21:47:57:450,0,-11.8692,-4.93942,-24.7421,Q,Q
2023-03-15 21:47:57:460,0,-11.8649,-4.94099,-24.7494,Q,Q
2023-03-15 21:47:57:470,0,-11.8605,-4.93716,-24.7617,Q,Q
2023-03-15 21:47:57:480,0,-11.8517,-4.93675,-24.7779,Q,Q
2023-03-15 21:47:57:489,0,-11.8441,-4.9318,-24.7925,Q,Q
2023-03-15 21:47:57:500,0,-11.8384,-4.92522,-24.801,Q,Q
2023-03-15 21:47:57:510,0,-11.835,-4.92414,-24.8103,Q,Q
2023-03-15 21:47:57:519,0,-11.8273,-4.92423,-24.8181,Q,Q
2023-03-15 21:47:57:530,0,-11.8208,-4.92647,-24.8237,Q,Q
2023-03-15 21:47:57:539,0,-11.8147,-4.92501,-24.8295,Q,Q
2023-03-15 21:47:57:550,0,-11.8125,-4.92145,-24.8319,Q,Q
2023-03-15 21:47:57:560,0,-11.8066,-4.91823,-24.8343,Q,Q
2023-03-15 21:47:57:570,0,-11.8005,-4.91271,-24.8339,Q,Q
2023-03-15 21:47:57:580,0,-11.7972,-4.90712,-24.836,Q,Q
2023-03-15 21:47:57:590,0,-11.7893,-4.90389,-24.8391,Q,Q
2023-03-15 21:47:57:600,0,-11.7799,-4.9001,-24.8416,Q,Q
2023-03-15 21:47:57:610,0,-11.7699,-4.89677,-24.845,Q,Q
2023-03-15 21:47:57:620,0,-11.7606,-4.89028,-24.8472,Q,Q
2023-03-15 21:47:57:630,0,-11.7472,-4.88755,-24.8535,Q,Q
2023-03-15 21:47:57:640,0,-11.7351,-4.88903,-24.8559,Q,Q
2023-03-15 21:47:57:650,0,-11.7213,-4.89071,-24.8574,Q,Q
2023-03-15 21:47:57:659,0,-11.7074,-4.89483,-24.8578,Q,Q
2023-03-15 21:47:57:670,0,-11.6914,-4.89759,-24.8563,Q,Q
2023-03-15 21:47:57:679,0,-11.6775,-4.89929,-24.8535,Q,Q
2023-03-15 21:47:57:690,0,-11.6667,-4.90125,-24.8487,Q,Q
2023-03-15 21:47:57:700,0,-11.6568,-4.90524,-24.8431,Q,Q
2023-03-15 21:47:57:710,0,-11.6497,-4.91007,-24.8335,Q,Q
2023-03-15 21:47:57:720,0,-11.6445,-4.91254,-24.8205,Q,Q
2023-03-15 21:47:57:730,0,-11.6371,-4.91513,-24.8089,Q,Q
2023-03-15 21:47:57:740,0,-11.634,-4.917,-24.7976,Q,Q
2023-03-15 21:47:57:750,0,-11.631,-4.91831,-24.7871,Q,Q
2023-03-15 21:47:57:759,0,-11.6305,-4.92476,-24.7775,Q,Q
2023-03-15 21:47:57:770,0,-11.6242,-4.92581,-24.7696,Q,Q
2023-03-15 21:47:57:780,0,-11.6206,-4.92793,-24.7624,Q,Q
2023-03-15 21:47:57:790,0,-11.6095,-4.92898,-24.7573,Q,Q
2023-03-15 21:47:57:799,0,-11.6015,-4.92946,-24.753,Q,Q
2023-03-15 21:47:57:810,0,-11.5901,-4.93007,-24.7498,Q,Q
2023-03-15 21:47:57:820,0,-11.5824,-4.93369,-24.7471,Q,Q
2023-03-15 21:47:57:830,0,-11.5755,-4.93631,-24.7432,Q,Q
2023-03-15 21:47:57:839,0,-11.5669,-4.93616,-24.7465,Q,Q
2023-03-15 21:47:57:850,0,-11.5595,-4.93191,-24.7494,Q,Q
2023-03-15 21:47:57:859,0,-11.553,-4.92631,-24.7544,Q,Q
2023-03-15 21:47:57:869,0,-11.542,-4.92728,-24.7572,Q,Q
2023-03-15 21:47:57:879,0,-11.528,-4.92065,-24.7545,Q,Q
2023-03-15 21:47:57:890,0,-11.5143,-4.91565,-24.7512,Q,Q
2023-03-15 21:47:57:900,0,-11.5031,-4.91026,-24.7485,Q,Q
2023-03-15 21:47:57:910,0,-11.4951,-4.90687,-24.7407,Q,Q
2023-03-15 21:47:57:920,0,-11.4858,-4.89932,-24.7311,Q,Q
2023-03-15 21:47:57:930,0,-11.4766,-4.89103,-24.7187,Q,Q
2023-03-15 21:47:57:939,0,-11.4682,-4.88408,-24.7076,Q,Q
2023-03-15 21:47:57:950,0,-11.4592,-4.87836,-24.697,Q,Q
2023-03-15 21:47:57:960,0,-11.4521,-4.87436,-24.688,Q,Q
2023-03-15 21:47:57:970,0,-11.4465,-4.86276,-24.676,Q,Q
2023-03-15 21:47:57:980,0,-11.4407,-4.85079,-24.6642,Q,Q
2023-03-15 21:47:57:990,0,-11.4357,-4.84334,-24.6544,Q,Q
2023-03-15 21:47:58:0,0,-11.4367,-4.83521,-24.6464,Q,Q
2023-03-15 21:47:58:10,0,-11.4367,-4.82684,-24.6419,Q,Q
2023-03-15 21:47:58:19,0,-11.4325,-4.82087,-24.6344,Q,Q
2023-03-15 21:47:58:30,0,-11.4305,-4.82451,-24.6262,Q,Q
2023-03-15 21:47:58:40,0,-11.4268,-4.83007,-24.6236,Q,Q
2023-03-15 21:47:58:50,0,-11.4245,-4.83599,-24.6253,Q,Q
2023-03-15 21:47:58:60,0,-11.4207,-4.84621,-24.6294,Q,Q
2023-03-15 21:47:58:70,0,-11.4199,-4.85039,-24.6345,Q,Q
2023-03-15 21:47:58:80,0,-11.4248,-4.85485,-24.6357,Q,Q
2023-03-15 21:47:58:90,0,-11.434,-4.85652,-24.6356,Q,Q
2023-03-15 21:47:58:100,0,-11.4489,-4.85957,-24.6324,Q,Q
2023-03-15 21:47:58:110,0,-11.4632,-4.86131,-24.6288,Q,Q
2023-03-15 21:47:58:120,0,-11.4804,-4.86258,-24.6212,Q,Q
2023-03-15 21:47:58:130,0,-11.4929,-4.86108,-24.6131,Q,Q
2023-03-15 21:47:58:140,0,-11.5058,-4.85996,-24.6055,Q,Q
2023-03-15 21:47:58:150,0,-11.5205,-4.86072,-24.5937,Q,Q
2023-03-15 21:47:58:160,0,-11.536,-4.8592,-24.5857,Q,Q
2023-03-15 21:47:58:169,0,-11.5518,-4.85671,-24.5798,Q,Q
2023-03-15 21:47:58:179,0,-11.5658,-4.85814,-24.5743,Q,Q
2023-03-15 21:47:58:190,0,-11.5775,-4.86047,-24.5717,Q,Q
2023-03-15 21:47:58:199,0,-11.5847,-4.86184,-24.5703,Q,Q
2023-03-15 21:47:58:210,0,-11.5897,-4.8606,-24.5748,Q,Q
2023-03-15 21:47:58:220,0,-11.5919,-4.86442,-24.5757,Q,Q
2023-03-15 21:47:58:230,0,-11.5924,-4.86343,-24.5791,Q,Q
2023-03-15 21:47:58:240,0,-11.5888,-4.86384,-24.5874,Q,Q
2023-03-15 21:47:58:250,0,-11.5828,-4.8649,-24.5961,Q,Q
2023-03-15 21:47:58:259,0,-11.5725,-4.86471,-24.6058,Q,Q
2023-03-15 21:47:58:270,0,-11.562,-4.86396,-24.6122,Q,Q
2023-03-15 21:47:58:280,0,-11.5512,-4.86312,-24.6194,Q,Q
2023-03-15 21:47:58:289,0,-11.5411,-4.86394,-24.6269,Q,Q
2023-03-15 21:47:58:299,0,-11.5327,-4.8682,-24.636,Q,Q
2023-03-15 21:47:58:310,0,-11.5246,-4.86608,-24.646,Q,Q
2023-03-15 21:47:58:320,0,-11.5175,-4.86603,-24.6523,Q,Q
2023-03-15 21:47:58:330,0,-11.5093,-4.86468,-24.6593,Q,Q
2023-03-15 21:47:58:340,0,-11.5033,-4.85906,-24.6664,Q,Q
2023-03-15 21:47:58:350,0,-11.4975,-4.85344,-24.6687,Q,Q
2023-03-15 21:47:58:360,0,-11.4902,-4.84623,-24.6703,Q,Q
2023-03-15 21:47:58:369,0,-11.484,-4.83798,-24.6712,Q,Q
2023-03-15 21:47:58:379,0,-11.4776,-4.82946,-24.6694,Q,Q
