Timestamp_cmd,imu_cmd,roll_delta,pitch_delta,yaw_delta,voice_type,voice_length
2023-03-15 12:15:55:499,0,-0.577839,0.14237,13.6297,Q,Q
2023-03-15 12:15:55:507,0,-0.606105,0.111721,13.8876,Q,Q
2023-03-15 12:15:55:517,0,-0.639037,0.0934998,14.1468,Q,Q
2023-03-15 12:15:55:527,0,-0.679402,0.0846655,14.4091,Q,Q
2023-03-15 12:15:55:537,0,-0.712496,0.0846498,14.6761,Q,Q
2023-03-15 12:15:55:548,0,-0.73895,0.0797128,14.9535,Q,Q
2023-03-15 12:15:55:557,0,-0.763826,0.0889091,15.2443,Q,Q
2023-03-15 12:15:55:568,0,-0.785541,0.0853909,15.5375,Q,Q
2023-03-15 12:15:55:577,0,-0.807582,0.0912844,15.8411,Q,Q
2023-03-15 12:15:55:587,0,-0.839861,0.0987551,16.1417,Q,Q
2023-03-15 12:15:55:597,0,-0.876197,0.1058,16.4311,Q,Q
2023-03-15 12:15:55:607,0,-0.930285,0.119563,16.7142,Q,Q
2023-03-15 12:15:55:618,0,-0.999055,0.134282,16.988,Q,Q
2023-03-15 12:15:55:628,0,-1.06851,0.152,17.2582,Q,Q
2023-03-15 12:15:55:638,0,-1.13435,0.161896,17.5164,Q,Q
2023-03-15 12:15:55:648,0,-1.18857,0.156504,17.7674,Q,Q
2023-03-15 12:15:55:658,0,-1.23686,0.151236,18.0052,Q,Q
2023-03-15 12:15:55:668,0,-1.28534,0.145119,18.2292,Q,Q
2023-03-15 12:15:55:677,0,-1.32907,0.13945,18.4387,Q,Q
2023-03-15 12:15:55:688,0,-1.36606,0.135171,18.6435,Q,Q
2023-03-15 12:15:55:697,0,-1.39789,0.13067,18.831,Q,Q
2023-03-15 12:15:55:708,0,-1.42845,0.130331,19.0104,Q,Q
2023-03-15 12:15:55:717,0,-1.45368,0.128161,19.1849,Q,Q
2023-03-15 12:15:55:728,0,-1.47634,0.120714,19.3581,Q,Q
2023-03-15 12:15:55:738,0,-1.49817,0.112247,19.5254,Q,Q
2023-03-15 12:15:55:748,0,-1.51152,0.10308,19.6936,Q,Q
2023-03-15 12:15:55:758,0,-1.51624,0.0969372,19.858,Q,Q
2023-03-15 12:15:55:768,0,-1.51489,0.0983072,20.0182,Q,Q
2023-03-15 12:15:55:778,0,-1.50772,0.107911,20.1699,Q,Q
2023-03-15 12:15:55:787,0,-1.50692,0.115583,20.3179,Q,Q
2023-03-15 12:15:55:798,0,-1.5074,0.123366,20.4657,Q,Q
2023-03-15 12:15:55:808,0,-1.5057,0.131103,20.613,Q,Q
2023-03-15 12:15:55:818,0,-1.51283,0.130603,20.7571,Q,Q
2023-03-15 12:15:55:828,0,-1.52795,0.122544,20.9008,Q,Q
2023-03-15 12:15:55:838,0,-1.54847,0.110751,21.0432,Q,Q
2023-03-15 12:15:55:848,0,-1.57147,0.0941323,21.1844,Q,Q
2023-03-15 12:15:55:858,0,-1.59031,0.0790383,21.3223,Q,Q
2023-03-15 12:15:55:868,0,-1.60824,0.0705376,21.4513,Q,Q
2023-03-15 12:15:55:878,0,-1.62201,0.0674455,21.5801,Q,Q
2023-03-15 12:15:55:888,0,-1.63862,0.0693946,21.7036,Q,Q
2023-03-15 12:15:55:898,0,-1.65556,0.0764506,21.8275,Q,Q
2023-03-15 12:15:55:908,0,-1.67242,0.0839393,21.946,Q,Q
2023-03-15 12:15:55:918,0,-1.69219,0.0973414,22.0626,Q,Q
2023-03-15 12:15:55:928,0,-1.70487,0.109325,22.182,Q,Q
2023-03-15 12:15:55:938,0,-1.71948,0.122169,22.298,Q,Q
2023-03-15 12:15:55:948,0,-1.73324,0.134101,22.4215,Q,Q
2023-03-15 12:15:55:958,0,-1.75401,0.151795,22.5425,Q,Q
2023-03-15 12:15:55:968,0,-1.77568,0.165583,22.6662,Q,Q
2023-03-15 12:15:55:978,0,-1.79941,0.17857,22.79,Q,Q
2023-03-15 12:15:55:988,0,-1.83199,0.192732,22.9137,Q,Q
2023-03-15 12:15:55:998,0,-1.87109,0.204765,23.0376,Q,Q
2023-03-15 12:15:56:8,0,-1.91519,0.218449,23.1549,Q,Q
2023-03-15 12:15:56:18,0,-1.9605,0.226828,23.2722,Q,Q
2023-03-15 12:15:56:28,0,-2.00365,0.230882,23.3854,Q,Q
2023-03-15 12:15:56:38,0,-2.04904,0.232573,23.5018,Q,Q
2023-03-15 12:15:56:48,0,-2.0928,0.234011,23.6227,Q,Q
2023-03-15 12:15:56:58,0,-2.1345,0.236142,23.7435,Q,Q
2023-03-15 12:15:56:68,0,-2.17261,0.234605,23.8683,Q,Q
2023-03-15 12:15:56:78,0,-2.20881,0.237809,23.9979,Q,Q
2023-03-15 12:15:56:87,0,-2.24316,0.244724,24.1278,Q,Q
2023-03-15 12:15:56:97,0,-2.27802,0.251234,24.2551,Q,Q
2023-03-15 12:15:56:107,0,-2.31174,0.259738,24.3838,Q,Q
2023-03-15 12:15:56:117,0,-2.34176,0.269834,24.5094,Q,Q
2023-03-15 12:15:56:127,0,-2.37321,0.278472,24.6359,Q,Q
2023-03-15 12:15:56:137,0,-2.39812,0.287478,24.7588,Q,Q
2023-03-15 12:15:56:147,0,-2.42776,0.290993,24.8789,Q,Q
2023-03-15 12:15:56:157,0,-2.45208,0.295252,25.0002,Q,Q
2023-03-15 12:15:56:167,0,-2.47393,0.298961,25.1172,Q,Q
2023-03-15 12:15:56:177,0,-2.49495,0.304029,25.2325,Q,Q
2023-03-15 12:15:56:187,0,-2.51363,0.314541,25.3402,Q,Q
2023-03-15 12:15:56:198,0,-2.53358,0.330895,25.4485,Q,Q
2023-03-15 12:15:56:207,0,-2.55857,0.349354,25.5518,Q,Q
2023-03-15 12:15:56:217,0,-2.58276,0.367041,25.6537,Q,Q
2023-03-15 12:15:56:227,0,-2.60885,0.378145,25.753,Q,Q
2023-03-15 12:15:56:238,0,-2.63455,0.384345,25.8513,Q,Q
2023-03-15 12:15:56:247,0,-2.65463,0.384615,25.9508,Q,Q
2023-03-15 12:15:56:257,0,-2.66758,0.386139,26.048,Q,Q
2023-03-15 12:15:56:267,0,-2.67434,0.386027,26.138,Q,Q
2023-03-15 12:15:56:277,0,-2.68298,0.388159,26.2238,Q,Q
2023-03-15 12:15:56:287,0,-2.69159,0.39201,26.3038,Q,Q
2023-03-15 12:15:56:297,0,-2.70661,0.397269,26.381,Q,Q
2023-03-15 12:15:56:307,0,-2.72631,0.399382,26.4605,Q,Q
2023-03-15 12:15:56:317,0,-2.74923,0.404688,26.5374,Q,Q
2023-03-15 12:15:56:327,0,-2.76835,0.404974,26.6133,Q,Q
2023-03-15 12:15:56:337,0,-2.77552,0.408581,26.6944,Q,Q
2023-03-15 12:15:56:347,0,-2.77828,0.405665,26.7767,Q,Q
2023-03-15 12:15:56:357,0,-2.77059,0.406165,26.8591,Q,Q
2023-03-15 12:15:56:367,0,-2.77226,0.407365,26.946,Q,Q
2023-03-15 12:15:56:378,0,-2.78809,0.410693,27.0294,Q,Q
2023-03-15 12:15:56:388,0,-2.81562,0.415191,27.1069,Q,Q
2023-03-15 12:15:56:398,0,-2.85224,0.414157,27.181,Q,Q
2023-03-15 12:15:56:407,0,-2.88159,0.415048,27.2557,Q,Q
2023-03-15 12:15:56:417,0,-2.90854,0.409032,27.3301,Q,Q
2023-03-15 12:15:56:428,0,-2.92323,0.401078,27.4078,Q,Q
2023-03-15 12:15:56:438,0,-2.93296,0.396095,27.4873,Q,Q
2023-03-15 12:15:56:447,0,-2.94636,0.391743,27.5703,Q,Q
2023-03-15 12:15:56:458,0,-2.95857,0.387778,27.6515,Q,Q
2023-03-15 12:15:56:468,0,-2.97555,0.386846,27.7328,Q,Q
2023-03-15 12:15:56:477,0,-2.99251,0.388736,27.8173,Q,Q
2023-03-15 12:15:56:487,0,-3.01425,0.392402,27.9026,Q,Q
2023-03-15 12:15:56:498,0,-3.02851,0.393643,27.987,Q,Q
2023-03-15 12:15:56:507,0,-3.04081,0.391757,28.0787,Q,Q
2023-03-15 12:15:56:517,0,-3.05037,0.392073,28.1656,Q,Q
2023-03-15 12:15:56:527,0,-3.062,0.397887,28.2519,Q,Q
2023-03-15 12:15:56:537,0,-3.07686,0.412333,28.338,Q,Q
2023-03-15 12:15:56:547,0,-3.09175,0.426227,28.4265,Q,Q
2023-03-15 12:15:56:557,0,-3.11232,0.44428,28.5101,Q,Q
2023-03-15 12:15:56:567,0,-3.13593,0.461125,28.597,Q,Q
2023-03-15 12:15:56:577,0,-3.16173,0.481934,28.6836,Q,Q
2023-03-15 12:15:56:587,0,-3.18782,0.500378,28.7681,Q,Q
2023-03-15 12:15:56:597,0,-3.21585,0.509204,28.8523,Q,Q
2023-03-15 12:15:56:607,0,-3.23154,0.518961,28.935,Q,Q
2023-03-15 12:15:56:617,0,-3.23793,0.52513,29.0193,Q,Q
2023-03-15 12:15:56:627,0,-3.24569,0.527592,29.0989,Q,Q
2023-03-15 12:15:56:637,0,-3.24633,0.524467,29.1787,Q,Q
2023-03-15 12:15:56:647,0,-3.24969,0.524872,29.2553,Q,Q
2023-03-15 12:15:56:657,0,-3.25606,0.524217,29.3283,Q,Q
2023-03-15 12:15:56:668,0,-3.26519,0.526853,29.399,Q,Q
2023-03-15 12:15:56:678,0,-3.27358,0.522933,29.4712,Q,Q
2023-03-15 12:15:56:687,0,-3.28329,0.517089,29.544,Q,Q
2023-03-15 12:15:56:697,0,-3.29007,0.508459,29.616,Q,Q
2023-03-15 12:15:56:707,0,-3.29482,0.500055,29.687,Q,Q
2023-03-15 12:15:56:717,0,-3.29581,0.488574,29.7567,Q,Q
2023-03-15 12:15:56:727,0,-3.2933,0.483821,29.828,Q,Q
2023-03-15 12:15:56:737,0,-3.29012,0.476504,29.8963,Q,Q
2023-03-15 12:15:56:747,0,-3.28342,0.473394,29.9613,Q,Q
2023-03-15 12:15:56:757,0,-3.27908,0.472951,30.0227,Q,Q
2023-03-15 12:15:56:767,0,-3.27864,0.471915,30.081,Q,Q
2023-03-15 12:15:56:777,0,-3.27891,0.46725,30.137,Q,Q
2023-03-15 12:15:56:787,0,-3.28108,0.461897,30.1927,Q,Q
2023-03-15 12:15:56:797,0,-3.27852,0.458105,30.2462,Q,Q
2023-03-15 12:15:56:807,0,-3.27155,0.454284,30.2984,Q,Q
2023-03-15 12:15:56:817,0,-3.26443,0.451761,30.3529,Q,Q
2023-03-15 12:15:56:827,0,-3.25515,0.453002,30.4045,Q,Q
2023-03-15 12:15:56:837,0,-3.25267,0.455419,30.4557,Q,Q
2023-03-15 12:15:56:847,0,-3.25161,0.459814,30.505,Q,Q
2023-03-15 12:15:56:857,0,-3.25153,0.47181,30.5536,Q,Q
2023-03-15 12:15:56:867,0,-3.25445,0.479315,30.6015,Q,Q
2023-03-15 12:15:56:877,0,-3.25501,0.487108,30.6445,Q,Q
2023-03-15 12:15:56:887,0,-3.25826,0.488512,30.6865,Q,Q
2023-03-15 12:15:56:897,0,-3.26614,0.492166,30.7234,Q,Q
2023-03-15 12:15:56:907,0,-3.27356,0.492003,30.7561,Q,Q
2023-03-15 12:15:56:917,0,-3.27968,0.489837,30.7857,Q,Q
2023-03-15 12:15:56:927,0,-3.28632,0.484974,30.8063,Q,Q
2023-03-15 12:15:56:937,0,-3.28802,0.472296,30.8226,Q,Q
2023-03-15 12:15:56:947,0,-3.28833,0.458472,30.837,Q,Q
2023-03-15 12:15:56:957,0,-3.29517,0.439049,30.8468,Q,Q
2023-03-15 12:15:56:967,0,-3.30888,0.419006,30.8572,Q,Q
2023-03-15 12:15:56:977,0,-3.32676,0.407166,30.8707,Q,Q
2023-03-15 12:15:56:987,0,-3.337,0.395741,30.8837,Q,Q
2023-03-15 12:15:56:997,0,-3.33951,0.391477,30.9107,Q,Q
2023-03-15 12:15:57:7,0,-3.33793,0.390441,30.9473,Q,Q
2023-03-15 12:15:57:17,0,-3.33856,0.389188,30.9913,Q,Q
2023-03-15 12:15:57:27,0,-3.33633,0.388841,31.0387,Q,Q
2023-03-15 12:15:57:38,0,-3.33713,0.390091,31.0887,Q,Q
2023-03-15 12:15:57:48,0,-3.33728,0.390926,31.1453,Q,Q
2023-03-15 12:15:57:57,0,-3.34075,0.394075,31.2052,Q,Q
2023-03-15 12:15:57:67,0,-3.34799,0.399158,31.2661,Q,Q
2023-03-15 12:15:57:78,0,-3.35358,0.405363,31.3318,Q,Q
2023-03-15 12:15:57:87,0,-3.35456,0.410332,31.3942,Q,Q
2023-03-15 12:15:57:97,0,-3.3454,0.410614,31.4599,Q,Q
2023-03-15 12:15:57:107,0,-3.33074,0.415459,31.5303,Q,Q
2023-03-15 12:15:57:117,0,-3.31693,0.419811,31.6096,Q,Q
2023-03-15 12:15:57:128,0,-3.30801,0.427725,31.6875,Q,Q
2023-03-15 12:15:57:137,0,-3.2986,0.432427,31.7711,Q,Q
2023-03-15 12:15:57:147,0,-3.29293,0.441402,31.8542,Q,Q
2023-03-15 12:15:57:157,0,-3.29109,0.453898,31.9405,Q,Q
2023-03-15 12:15:57:167,0,-3.28941,0.472671,32.0321,Q,Q
2023-03-15 12:15:57:177,0,-3.28154,0.490985,32.1325,Q,Q
2023-03-15 12:15:57:187,0,-3.26881,0.511773,32.2454,Q,Q
2023-03-15 12:15:57:197,0,-3.24815,0.532132,32.3654,Q,Q
2023-03-15 12:15:57:207,0,-3.21984,0.557666,32.4941,Q,Q
2023-03-15 12:15:57:217,0,-3.18991,0.587581,32.6315,Q,Q
2023-03-15 12:15:57:227,0,-3.16008,0.622561,32.7697,Q,Q
2023-03-15 12:15:57:237,0,-3.13271,0.659067,32.9101,Q,Q
2023-03-15 12:15:57:247,0,-3.10931,0.694171,33.0438,Q,Q
2023-03-15 12:15:57:257,0,-3.08591,0.727925,33.1752,Q,Q
2023-03-15 12:15:57:267,0,-3.06641,0.757757,33.3045,Q,Q
2023-03-15 12:15:57:277,0,-3.05249,0.781424,33.4308,Q,Q
2023-03-15 12:15:57:287,0,-3.04179,0.793467,33.5579,Q,Q
2023-03-15 12:15:57:298,0,-3.03099,0.798606,33.6809,Q,Q
2023-03-15 12:15:57:307,0,-3.02288,0.795935,33.8062,Q,Q
2023-03-15 12:15:57:317,0,-3.01296,0.799942,33.9329,Q,Q
2023-03-15 12:15:57:327,0,-3.00342,0.80294,34.0563,Q,Q
2023-03-15 12:15:57:337,0,-2.98756,0.807266,34.1804,Q,Q
2023-03-15 12:15:57:347,0,-2.97013,0.807691,34.3043,Q,Q
2023-03-15 12:15:57:358,0,-2.95192,0.804702,34.4303,Q,Q
2023-03-15 12:15:57:367,0,-2.92623,0.799539,34.5578,Q,Q
2023-03-15 12:15:57:378,0,-2.89884,0.78386,34.6844,Q,Q
2023-03-15 12:15:57:388,0,-2.86913,0.76225,34.8199,Q,Q
2023-03-15 12:15:57:398,0,-2.84289,0.73126,34.9632,Q,Q
2023-03-15 12:15:57:407,0,-2.82224,0.694658,35.1073,Q,Q
2023-03-15 12:15:57:417,0,-2.80999,0.649762,35.2554,Q,Q
2023-03-15 12:15:57:427,0,-2.79719,0.600124,35.4037,Q,Q
2023-03-15 12:15:57:437,0,-2.78137,0.543745,35.5542,Q,Q
2023-03-15 12:15:57:447,0,-2.75809,0.486693,35.7028,Q,Q
2023-03-15 12:15:57:457,0,-2.72659,0.424398,35.8517,Q,Q
2023-03-15 12:15:57:467,0,-2.69331,0.36191,36.0031,Q,Q
2023-03-15 12:15:57:477,0,-2.65442,0.297014,36.1629,Q,Q
2023-03-15 12:15:57:487,0,-2.60684,0.231043,36.322,Q,Q
2023-03-15 12:15:57:497,0,-2.55764,0.169942,36.4851,Q,Q
2023-03-15 12:15:57:507,0,-2.51091,0.11981,36.6431,Q,Q
2023-03-15 12:15:57:517,0,-2.46254,0.0707177,36.8013,Q,Q
2023-03-15 12:15:57:528,0,-2.42349,0.0214053,36.9596,Q,Q
2023-03-15 12:15:57:537,0,-2.39351,-0.0256507,37.1204,Q,Q
2023-03-15 12:15:57:548,0,-2.36667,-0.0733861,37.2803,Q,Q
2023-03-15 12:15:57:558,0,-2.34484,-0.116098,37.4346,Q,Q
2023-03-15 12:15:57:567,0,-2.32371,-0.153563,37.58,Q,Q
2023-03-15 12:15:57:578,0,-2.30235,-0.180129,37.7124,Q,Q
2023-03-15 12:15:57:587,0,-2.28031,-0.189979,37.8235,Q,Q
2023-03-15 12:15:57:597,0,-2.26504,-0.177232,37.9211,Q,Q
2023-03-15 12:15:57:607,0,-2.24987,-0.148764,38.0056,Q,Q
2023-03-15 12:15:57:617,0,-2.2344,-0.125229,38.0894,Q,Q
2023-03-15 12:15:57:627,0,-2.21978,-0.102993,38.1774,Q,Q
2023-03-15 12:15:57:637,0,-2.19716,-0.0874849,38.2617,Q,Q
2023-03-15 12:15:57:647,0,-2.16128,-0.0673686,38.338,Q,Q
2023-03-15 12:15:57:657,0,-2.11971,-0.0426091,38.4088,Q,Q
2023-03-15 12:15:57:667,0,-2.07535,-0.0218245,38.4729,Q,Q
2023-03-15 12:15:57:678,0,-2.0283,-0.00372183,38.5372,Q,Q
2023-03-15 12:15:57:687,0,-1.98927,0.00921754,38.5988,Q,Q
2023-03-15 12:15:57:697,0,-1.96006,0.0168814,38.6624,Q,Q
2023-03-15 12:15:57:708,0,-1.94196,0.023361,38.7202,Q,Q
2023-03-15 12:15:57:717,0,-1.92419,0.0247157,38.7735,Q,Q
2023-03-15 12:15:57:728,0,-1.90792,0.0183577,38.8266,Q,Q
2023-03-15 12:15:57:737,0,-1.89234,0.0200344,38.8816,Q,Q
2023-03-15 12:15:57:748,0,-1.87181,0.0248002,38.9353,Q,Q
2023-03-15 12:15:57:757,0,-1.85341,0.0260854,38.9859,Q,Q
2023-03-15 12:15:57:768,0,-1.83948,0.0246549,39.0358,Q,Q
2023-03-15 12:15:57:778,0,-1.82868,0.0227057,39.0882,Q,Q
2023-03-15 12:15:57:788,0,-1.82667,0.0167953,39.1459,Q,Q
2023-03-15 12:15:57:797,0,-1.82572,0.0108695,39.2019,Q,Q
2023-03-15 12:15:57:807,0,-1.81907,3.05819e-06,39.2636,Q,Q
2023-03-15 12:15:57:817,0,-1.81269,-0.0144075,39.3225,Q,Q
2023-03-15 12:15:57:828,0,-1.81194,-0.0289015,39.3836,Q,Q
2023-03-15 12:15:57:837,0,-1.80664,-0.0384453,39.4458,Q,Q
2023-03-15 12:15:57:848,0,-1.80273,-0.0470835,39.5152,Q,Q
2023-03-15 12:15:57:857,0,-1.79709,-0.0564929,39.5888,Q,Q
2023-03-15 12:15:57:867,0,-1.79257,-0.0577531,39.6633,Q,Q
2023-03-15 12:15:57:878,0,-1.79227,-0.0567094,39.7404,Q,Q
2023-03-15 12:15:57:887,0,-1.79592,-0.0526373,39.8234,Q,Q
2023-03-15 12:15:57:897,0,-1.80863,-0.0424565,39.9096,Q,Q
2023-03-15 12:15:57:907,0,-1.82923,-0.0295708,39.9933,Q,Q
2023-03-15 12:15:57:918,0,-1.85181,-0.0143293,40.0757,Q,Q
2023-03-15 12:15:57:928,0,-1.875,-9.03211e-05,40.1577,Q,Q
2023-03-15 12:15:57:937,0,-1.89236,0.0114331,40.2357,Q,Q
2023-03-15 12:15:57:948,0,-1.91004,0.0169556,40.3097,Q,Q
2023-03-15 12:15:57:957,0,-1.92953,0.021734,40.3816,Q,Q
2023-03-15 12:15:57:967,0,-1.95147,0.0176057,40.4525,Q,Q
2023-03-15 12:15:57:978,0,-1.98255,0.012783,40.516,Q,Q
2023-03-15 12:15:57:988,0,-2.0082,0.00559024,40.5781,Q,Q
2023-03-15 12:15:57:998,0,-2.03524,-0.00183696,40.6337,Q,Q
2023-03-15 12:15:58:8,0,-2.06564,-0.00838659,40.6886,Q,Q
2023-03-15 12:15:58:18,0,-2.09262,-0.0116536,40.7382,Q,Q
2023-03-15 12:15:58:28,0,-2.11565,-0.0124591,40.783,Q,Q
2023-03-15 12:15:58:37,0,-2.13431,-0.0121005,40.8296,Q,Q
2023-03-15 12:15:58:47,0,-2.14901,-0.0166528,40.8756,Q,Q
2023-03-15 12:15:58:57,0,-2.16205,-0.0201448,40.9245,Q,Q
2023-03-15 12:15:58:68,0,-2.16772,-0.0219296,40.975,Q,Q
2023-03-15 12:15:58:78,0,-2.16858,-0.0261264,41.0148,Q,Q
2023-03-15 12:15:58:88,0,-2.16894,-0.0238404,41.0496,Q,Q
2023-03-15 12:15:58:97,0,-2.16685,-0.0221747,41.0803,Q,Q
2023-03-15 12:15:58:107,0,-2.16342,-0.0177124,41.105,Q,Q
2023-03-15 12:15:58:118,0,-2.16359,-0.0027856,41.126,Q,Q
2023-03-15 12:15:58:128,0,-2.16386,0.0138544,41.144,Q,Q
2023-03-15 12:15:58:137,0,-2.1647,0.0231428,41.1686,Q,Q
2023-03-15 12:15:58:148,0,-2.16086,0.0404812,41.1916,Q,Q
2023-03-15 12:15:58:158,0,-2.15819,0.0596672,41.2078,Q,Q
2023-03-15 12:15:58:168,0,-2.16226,0.0831808,41.2282,Q,Q
2023-03-15 12:15:58:177,0,-2.16504,0.108204,41.2475,Q,Q
2023-03-15 12:15:58:188,0,-2.17135,0.13441,41.269,Q,Q
2023-03-15 12:15:58:198,0,-2.17764,0.165484,41.286,Q,Q
2023-03-15 12:15:58:208,0,-2.18598,0.195044,41.3015,Q,Q
2023-03-15 12:15:58:218,0,-2.1868,0.224667,41.32,Q,Q
2023-03-15 12:15:58:228,0,-2.1891,0.250745,41.3423,Q,Q
2023-03-15 12:15:58:238,0,-2.19391,0.27635,41.3669,Q,Q
2023-03-15 12:15:58:248,0,-2.2008,0.29505,41.3925,Q,Q
2023-03-15 12:15:58:258,0,-2.20934,0.308845,41.4185,Q,Q
2023-03-15 12:15:58:268,0,-2.22037,0.324041,41.446,Q,Q
2023-03-15 12:15:58:278,0,-2.23101,0.336025,41.4704,Q,Q
2023-03-15 12:15:58:288,0,-2.23891,0.34731,41.4922,Q,Q
2023-03-15 12:15:58:298,0,-2.24587,0.354845,41.5155,Q,Q
2023-03-15 12:15:58:308,0,-2.25191,0.364948,41.5384,Q,Q
2023-03-15 12:15:58:318,0,-2.25565,0.36935,41.5643,Q,Q
2023-03-15 12:15:58:328,0,-2.25728,0.375083,41.589,Q,Q
2023-03-15 12:15:58:338,0,-2.2613,0.377412,41.6151,Q,Q
2023-03-15 12:15:58:348,0,-2.26883,0.381473,41.6435,Q,Q
2023-03-15 12:15:58:357,0,-2.27647,0.387676,41.6731,Q,Q
2023-03-15 12:15:58:368,0,-2.2833,0.39424,41.6981,Q,Q
2023-03-15 12:15:58:377,0,-2.28714,0.401622,41.7197,Q,Q
2023-03-15 12:15:58:388,0,-2.29323,0.399908,41.7422,Q,Q
2023-03-15 12:15:58:397,0,-2.29762,0.39629,41.7672,Q,Q
2023-03-15 12:15:58:407,0,-2.30438,0.393364,41.7942,Q,Q
2023-03-15 12:15:58:417,0,-2.31997,0.388891,41.8183,Q,Q
2023-03-15 12:15:58:427,0,-2.3438,0.382805,41.8451,Q,Q
2023-03-15 12:15:58:437,0,-2.37259,0.380339,41.8697,Q,Q
2023-03-15 12:15:58:447,0,-2.40201,0.379463,41.8923,Q,Q
2023-03-15 12:15:58:457,0,-2.42954,0.377915,41.9109,Q,Q
2023-03-15 12:15:58:467,0,-2.44516,0.380686,41.9307,Q,Q
2023-03-15 12:15:58:477,0,-2.45404,0.388022,41.9529,Q,Q
2023-03-15 12:15:58:487,0,-2.46633,0.397801,41.9743,Q,Q
2023-03-15 12:15:58:497,0,-2.47393,0.411091,41.9946,Q,Q
2023-03-15 12:15:58:508,0,-2.47845,0.430479,42.0159,Q,Q
2023-03-15 12:15:58:517,0,-2.48688,0.450091,42.0414,Q,Q
2023-03-15 12:15:58:527,0,-2.48985,0.465742,42.0659,Q,Q
2023-03-15 12:15:58:537,0,-2.4939,0.478039,42.0896,Q,Q
2023-03-15 12:15:58:548,0,-2.50696,0.494787,42.1107,Q,Q
2023-03-15 12:15:58:558,0,-2.51575,0.502634,42.131,Q,Q
2023-03-15 12:15:58:568,0,-2.52848,0.509579,42.1456,Q,Q
2023-03-15 12:15:58:578,0,-2.54065,0.513693,42.1613,Q,Q
2023-03-15 12:15:58:588,0,-2.5506,0.518496,42.1711,Q,Q
2023-03-15 12:15:58:598,0,-2.56128,0.521059,42.1805,Q,Q
2023-03-15 12:15:58:608,0,-2.56967,0.523384,42.1888,Q,Q
2023-03-15 12:15:58:617,0,-2.57733,0.523361,42.2007,Q,Q
2023-03-15 12:15:58:627,0,-2.58313,0.525418,42.2159,Q,Q
2023-03-15 12:15:58:637,0,-2.59026,0.526685,42.2307,Q,Q
2023-03-15 12:15:58:647,0,-2.59678,0.522757,42.2459,Q,Q
2023-03-15 12:15:58:657,0,-2.59497,0.520302,42.2615,Q,Q
2023-03-15 12:15:58:667,0,-2.59031,0.514401,42.279,Q,Q
2023-03-15 12:15:58:677,0,-2.58067,0.507047,42.2938,Q,Q
2023-03-15 12:15:58:687,0,-2.57537,0.500687,42.3074,Q,Q
2023-03-15 12:15:58:697,0,-2.57451,0.496043,42.3214,Q,Q
2023-03-15 12:15:58:708,0,-2.5791,0.490854,42.3337,Q,Q
2023-03-15 12:15:58:718,0,-2.58264,0.484913,42.3389,Q,Q
2023-03-15 12:15:58:728,0,-2.58931,0.474881,42.3405,Q,Q
2023-03-15 12:15:58:738,0,-2.59555,0.467549,42.3466,Q,Q
2023-03-15 12:15:58:748,0,-2.60284,0.456294,42.3463,Q,Q
2023-03-15 12:15:58:758,0,-2.60952,0.445765,42.3484,Q,Q
2023-03-15 12:15:58:768,0,-2.62176,0.433232,42.3499,Q,Q
2023-03-15 12:15:58:778,0,-2.63561,0.427025,42.35,Q,Q
2023-03-15 12:15:58:788,0,-2.63986,0.425866,42.3506,Q,Q
2023-03-15 12:15:58:798,0,-2.64746,0.428034,42.3534,Q,Q
2023-03-15 12:15:58:808,0,-2.6514,0.429596,42.3589,Q,Q
2023-03-15 12:15:58:818,0,-2.65954,0.436685,42.3671,Q,Q
2023-03-15 12:15:58:828,0,-2.66933,0.444943,42.3757,Q,Q
2023-03-15 12:15:58:838,0,-2.68396,0.445391,42.3869,Q,Q
2023-03-15 12:15:58:848,0,-2.69788,0.44794,42.3993,Q,Q
2023-03-15 12:15:58:858,0,-2.71432,0.449247,42.4075,Q,Q
2023-03-15 12:15:58:868,0,-2.7308,0.447573,42.4176,Q,Q
2023-03-15 12:15:58:878,0,-2.7497,0.445439,42.4225,Q,Q
2023-03-15 12:15:58:888,0,-2.76805,0.444412,42.4263,Q,Q
2023-03-15 12:15:58:898,0,-2.79062,0.444283,42.4241,Q,Q
2023-03-15 12:15:58:908,0,-2.81913,0.447165,42.4215,Q,Q
2023-03-15 12:15:58:918,0,-2.84781,0.450161,42.4154,Q,Q
2023-03-15 12:15:58:928,0,-2.87361,0.448701,42.4076,Q,Q
2023-03-15 12:15:58:938,0,-2.89815,0.452177,42.3962,Q,Q
2023-03-15 12:15:58:948,0,-2.91773,0.454095,42.3785,Q,Q
2023-03-15 12:15:58:958,0,-2.93766,0.465797,42.353,Q,Q
2023-03-15 12:15:58:968,0,-2.95977,0.476762,42.3157,Q,Q
2023-03-15 12:15:58:978,0,-2.98996,0.484103,42.268,Q,Q
2023-03-15 12:15:58:988,0,-3.02366,0.490165,42.2085,Q,Q
2023-03-15 12:15:58:998,0,-3.0648,0.489816,42.1326,Q,Q
2023-03-15 12:15:59:8,0,-3.11149,0.489059,42.029,Q,Q
2023-03-15 12:15:59:18,0,-3.15531,0.491311,41.901,Q,Q
2023-03-15 12:15:59:28,0,-3.19621,0.488297,41.7391,Q,Q
2023-03-15 12:15:59:38,0,-3.22658,0.478406,41.5536,Q,Q
2023-03-15 12:15:59:48,0,-3.25526,0.458548,41.3378,Q,Q
2023-03-15 12:15:59:58,0,-3.28697,0.42503,41.0805,Q,Q
2023-03-15 12:15:59:68,0,-3.33096,0.383688,40.767,Q,Q
2023-03-15 12:15:59:78,0,-3.38897,0.326321,40.3881,Q,Q
2023-03-15 12:15:59:88,0,-3.46067,0.251386,39.9311,Q,Q
2023-03-15 12:15:59:98,0,-3.54007,0.149668,39.3864,Q,Q
2023-03-15 12:15:59:108,0,-3.63253,0.0248063,38.7405,Q,Q
2023-03-15 12:15:59:118,0,-3.73851,-0.117216,37.9743,Q,Q
2023-03-15 12:15:59:128,0,-3.85782,-0.277534,37.0667,Q,Q
2023-03-15 12:15:59:138,0,-3.97908,-0.45068,36.0068,Q,Q
2023-03-15 12:15:59:148,0,-4.09181,-0.64676,34.8036,Q,Q
2023-03-15 12:15:59:157,0,-4.18757,-0.873458,33.4772,Q,Q
2023-03-15 12:15:59:167,0,-4.25588,-1.1305,32.0494,Q,Q
2023-03-15 12:15:59:177,0,-4.30116,-1.41214,30.5383,Q,Q
2023-03-15 12:15:59:188,0,-4.3224,-1.71616,28.9533,Q,Q
2023-03-15 12:15:59:198,0,-4.32312,-2.03284,27.3146,Q,Q
2023-03-15 12:15:59:208,0,-4.31432,-2.35914,25.6461,Q,Q
2023-03-15 12:15:59:218,0,-4.29711,-2.67766,23.9663,Q,Q
2023-03-15 12:15:59:228,0,-4.26279,-2.98527,22.2904,Q,Q
2023-03-15 12:15:59:238,0,-4.19926,-3.26954,20.6376,Q,Q
2023-03-15 12:15:59:248,0,-4.10349,-3.52646,19.0072,Q,Q
2023-03-15 12:15:59:258,0,-3.95856,-3.74866,17.396,Q,Q
2023-03-15 12:15:59:268,0,-3.76809,-3.93079,15.8054,Q,Q
2023-03-15 12:15:59:278,0,-3.54638,-4.07446,14.254,Q,Q
2023-03-15 12:15:59:288,0,-3.31285,-4.19,12.7516,Q,Q
2023-03-15 12:15:59:298,0,-3.0783,-4.28703,11.3179,Q,Q
2023-03-15 12:15:59:308,0,-2.86563,-4.37124,9.96751,Q,Q
2023-03-15 12:15:59:318,0,-2.67278,-4.45362,8.70681,Q,Q
2023-03-15 12:15:59:328,0,-2.50059,-4.52356,7.53021,Q,Q
2023-03-15 12:15:59:338,0,-2.34986,-4.56778,6.43744,Q,Q
2023-03-15 12:15:59:348,0,-2.21268,-4.583,5.42674,Q,Q
2023-03-15 12:15:59:358,0,-2.08792,-4.56637,4.4833,Q,Q
2023-03-15 12:15:59:368,0,-1.97332,-4.51369,3.61626,Q,Q
2023-03-15 12:15:59:378,0,-1.86565,-4.41829,2.82069,Q,Q
2023-03-15 12:15:59:388,0,-1.77459,-4.28861,2.1049,Q,Q
2023-03-15 12:15:59:398,0,-1.69818,-4.12739,1.46216,Q,Q
2023-03-15 12:15:59:408,0,-1.62609,-3.94258,0.88601,Q,Q
2023-03-15 12:15:59:417,0,-1.55524,-3.73492,0.372106,Q,Q
2023-03-15 12:15:59:427,0,-1.47556,-3.5157,-0.0868848,Q,Q
2023-03-15 12:15:59:437,0,-1.38608,-3.2907,-0.495231,Q,Q
2023-03-15 12:15:59:447,0,-1.29027,-3.06929,-0.855096,Q,Q
2023-03-15 12:15:59:457,0,-1.20085,-2.85627,-1.17112,Q,Q
2023-03-15 12:15:59:468,0,-1.11854,-2.653,-1.45483,Q,Q
2023-03-15 12:15:59:477,0,-1.05279,-2.46069,-1.71326,Q,Q
2023-03-15 12:15:59:488,0,-1.00087,-2.27162,-1.94939,Q,Q
2023-03-15 12:15:59:498,0,-0.968562,-2.09376,-2.1727,Q,Q
2023-03-15 12:15:59:508,0,-0.945966,-1.92626,-2.38517,Q,Q
2023-03-15 12:15:59:518,0,-0.926857,-1.76717,-2.58446,Q,Q
2023-03-15 12:15:59:528,0,-0.903126,-1.61309,-2.77618,Q,Q
2023-03-15 12:15:59:538,0,-0.872794,-1.46786,-2.95443,Q,Q
2023-03-15 12:15:59:548,0,-0.838823,-1.32168,-3.12056,Q,Q
2023-03-15 12:15:59:558,0,-0.807429,-1.19183,-3.27644,Q,Q
2023-03-15 12:15:59:568,0,-0.792512,-1.06576,-3.42177,Q,Q
2023-03-15 12:15:59:578,0,-0.777078,-0.898946,-3.54802,Q,Q
2023-03-15 12:15:59:588,0,-0.749817,-0.759821,-3.6823,Q,Q
2023-03-15 12:15:59:598,0,-0.718974,-0.628921,-3.79912,Q,Q
2023-03-15 12:15:59:608,0,-0.702052,-0.500057,-3.90376,Q,Q
2023-03-15 12:15:59:618,0,-0.695712,-0.382091,-4.00195,Q,Q
2023-03-15 12:15:59:628,0,-0.708199,-0.279021,-4.0957,Q,Q
2023-03-15 12:15:59:638,0,-0.736884,-0.160311,-4.17267,Q,Q
2023-03-15 12:15:59:648,0,-0.764804,-0.0442632,-4.24241,Q,Q
2023-03-15 12:15:59:658,0,-0.782656,0.0753325,-4.29906,Q,Q
2023-03-15 12:15:59:667,0,-0.774095,0.191206,-4.34176,Q,Q
2023-03-15 12:15:59:678,0,-0.750525,0.294111,-4.37434,Q,Q
2023-03-15 12:15:59:688,0,-0.729,0.400314,-4.39332,Q,Q
2023-03-15 12:15:59:698,0,-0.708906,0.500385,-4.40685,Q,Q
2023-03-15 12:15:59:708,0,-0.696313,0.589933,-4.41423,Q,Q
2023-03-15 12:15:59:718,0,-0.688652,0.660066,-4.41866,Q,Q
2023-03-15 12:15:59:728,0,-0.690452,0.720284,-4.41553,Q,Q
2023-03-15 12:15:59:738,0,-0.70824,0.770032,-4.41187,Q,Q
2023-03-15 12:15:59:748,0,-0.740056,0.812502,-4.4083,Q,Q
2023-03-15 12:15:59:758,0,-0.777316,0.854348,-4.40863,Q,Q
2023-03-15 12:15:59:768,0,-0.819471,0.894309,-4.40809,Q,Q
2023-03-15 12:15:59:778,0,-0.857248,0.932622,-4.41542,Q,Q
2023-03-15 12:15:59:788,0,-0.89115,0.969083,-4.42611,Q,Q
2023-03-15 12:15:59:798,0,-0.913314,0.998105,-4.4326,Q,Q
2023-03-15 12:15:59:808,0,-0.929049,1.02509,-4.43744,Q,Q
2023-03-15 12:15:59:818,0,-0.933823,1.04536,-4.44122,Q,Q
2023-03-15 12:15:59:828,0,-0.938041,1.06321,-4.441,Q,Q
2023-03-15 12:15:59:838,0,-0.942717,1.08481,-4.43481,Q,Q
2023-03-15 12:15:59:848,0,-0.94551,1.10358,-4.4206,Q,Q
2023-03-15 12:15:59:858,0,-0.949798,1.12387,-4.40057,Q,Q
2023-03-15 12:15:59:868,0,-0.952203,1.14674,-4.37366,Q,Q
2023-03-15 12:15:59:878,0,-0.950262,1.17521,-4.3392,Q,Q
2023-03-15 12:15:59:888,0,-0.94856,1.20302,-4.2997,Q,Q
2023-03-15 12:15:59:898,0,-0.955203,1.23312,-4.25534,Q,Q
2023-03-15 12:15:59:908,0,-0.965793,1.25916,-4.21196,Q,Q
2023-03-15 12:15:59:918,0,-0.976829,1.28284,-4.16733,Q,Q
2023-03-15 12:15:59:928,0,-0.986584,1.30413,-4.1263,Q,Q
2023-03-15 12:15:59:938,0,-0.9974,1.32376,-4.08359,Q,Q
2023-03-15 12:15:59:948,0,-1.00649,1.33927,-4.04352,Q,Q
2023-03-15 12:15:59:958,0,-1.01267,1.34729,-4.00788,Q,Q
2023-03-15 12:15:59:968,0,-1.02618,1.35787,-3.97442,Q,Q
2023-03-15 12:15:59:978,0,-1.04666,1.36621,-3.9449,Q,Q
2023-03-15 12:15:59:988,0,-1.06711,1.36507,-3.92556,Q,Q
2023-03-15 12:15:59:998,0,-1.09233,1.37153,-3.90243,Q,Q
2023-03-15 12:16:00:8,0,-1.11872,1.37152,-3.88244,Q,Q
2023-03-15 12:16:00:18,0,-1.14233,1.36278,-3.86482,Q,Q
2023-03-15 12:16:00:28,0,-1.16409,1.341,-3.85013,Q,Q
2023-03-15 12:16:00:38,0,-1.18795,1.31589,-3.83953,Q,Q
2023-03-15 12:16:00:48,0,-1.2091,1.28254,-3.83406,Q,Q
2023-03-15 12:16:00:58,0,-1.22707,1.2569,-3.82668,Q,Q
2023-03-15 12:16:00:68,0,-1.24286,1.23944,-3.82043,Q,Q
2023-03-15 12:16:00:78,0,-1.25042,1.22381,-3.8095,Q,Q
2023-03-15 12:16:00:88,0,-1.24984,1.21616,-3.79762,Q,Q
2023-03-15 12:16:00:98,0,-1.24559,1.20804,-3.78706,Q,Q
2023-03-15 12:16:00:108,0,-1.24085,1.19631,-3.77225,Q,Q
2023-03-15 12:16:00:118,0,-1.24729,1.18688,-3.75422,Q,Q
2023-03-15 12:16:00:128,0,-1.25299,1.17624,-3.73536,Q,Q
2023-03-15 12:16:00:138,0,-1.26412,1.17064,-3.71504,Q,Q
2023-03-15 12:16:00:148,0,-1.27639,1.1523,-3.6964,Q,Q
2023-03-15 12:16:00:158,0,-1.29177,1.13345,-3.67933,Q,Q
2023-03-15 12:16:00:168,0,-1.31127,1.11577,-3.65808,Q,Q
2023-03-15 12:16:00:178,0,-1.32192,1.09905,-3.6373,Q,Q
2023-03-15 12:16:00:187,0,-1.32921,1.08226,-3.63246,Q,Q
2023-03-15 12:16:00:198,0,-1.32591,1.06442,-3.62888,Q,Q
2023-03-15 12:16:00:208,0,-1.3154,1.04838,-3.61914,Q,Q
2023-03-15 12:16:00:218,0,-1.30168,1.02755,-3.61185,Q,Q
2023-03-15 12:16:00:228,0,-1.29529,1.00218,-3.60833,Q,Q
2023-03-15 12:16:00:238,0,-1.28871,0.973848,-3.60785,Q,Q
2023-03-15 12:16:00:248,0,-1.2888,0.947228,-3.60918,Q,Q
2023-03-15 12:16:00:258,0,-1.30152,0.923899,-3.61011,Q,Q
2023-03-15 12:16:00:268,0,-1.32241,0.904678,-3.61285,Q,Q
2023-03-15 12:16:00:278,0,-1.35259,0.884218,-3.61916,Q,Q
2023-03-15 12:16:00:288,0,-1.38948,0.859737,-3.6324,Q,Q
2023-03-15 12:16:00:298,0,-1.42973,0.836013,-3.64335,Q,Q
2023-03-15 12:16:00:308,0,-1.46412,0.806759,-3.65774,Q,Q
2023-03-15 12:16:00:318,0,-1.49437,0.777283,-3.67183,Q,Q
2023-03-15 12:16:00:328,0,-1.51989,0.743032,-3.68391,Q,Q
2023-03-15 12:16:00:338,0,-1.54319,0.708424,-3.69738,Q,Q
2023-03-15 12:16:00:348,0,-1.57203,0.679058,-3.71306,Q,Q
2023-03-15 12:16:00:358,0,-1.60431,0.653548,-3.7347,Q,Q
2023-03-15 12:16:00:368,0,-1.65152,0.630998,-3.75558,Q,Q
2023-03-15 12:16:00:378,0,-1.70367,0.614434,-3.7802,Q,Q
2023-03-15 12:16:00:388,0,-1.76294,0.594526,-3.81063,Q,Q
2023-03-15 12:16:00:398,0,-1.82153,0.578012,-3.84257,Q,Q
2023-03-15 12:16:00:408,0,-1.87578,0.563026,-3.87735,Q,Q
2023-03-15 12:16:00:418,0,-1.91615,0.542443,-3.91724,Q,Q
2023-03-15 12:16:00:428,0,-1.9437,0.519995,-3.95454,Q,Q
2023-03-15 12:16:00:438,0,-1.96436,0.49746,-3.99097,Q,Q
2023-03-15 12:16:00:448,0,-1.98721,0.485721,-4.02608,Q,Q
2023-03-15 12:16:00:458,0,-2.01514,0.477512,-4.06586,Q,Q
2023-03-15 12:16:00:468,0,-2.05573,0.471008,-4.10736,Q,Q
2023-03-15 12:16:00:477,0,-2.10747,0.472188,-4.14824,Q,Q
2023-03-15 12:16:00:488,0,-2.16014,0.470604,-4.18839,Q,Q
2023-03-15 12:16:00:498,0,-2.21224,0.466978,-4.22767,Q,Q
2023-03-15 12:16:00:508,0,-2.26664,0.458492,-4.26,Q,Q
2023-03-15 12:16:00:518,0,-2.31786,0.445824,-4.2871,Q,Q
2023-03-15 12:16:00:528,0,-2.36704,0.429327,-4.31015,Q,Q
2023-03-15 12:16:00:538,0,-2.41588,0.409815,-4.32996,Q,Q
2023-03-15 12:16:00:548,0,-2.46295,0.389814,-4.34835,Q,Q
2023-03-15 12:16:00:558,0,-2.51393,0.370054,-4.35875,Q,Q
2023-03-15 12:16:00:568,0,-2.57728,0.35248,-4.36292,Q,Q
2023-03-15 12:16:00:578,0,-2.65038,0.334205,-4.36057,Q,Q
2023-03-15 12:16:00:588,0,-2.72799,0.312892,-4.35733,Q,Q
2023-03-15 12:16:00:598,0,-2.81682,0.282043,-4.34773,Q,Q
2023-03-15 12:16:00:608,0,-2.91209,0.251417,-4.33458,Q,Q
2023-03-15 12:16:00:618,0,-3.00357,0.216888,-4.31546,Q,Q
2023-03-15 12:16:00:628,0,-3.08988,0.183791,-4.28954,Q,Q
2023-03-15 12:16:00:638,0,-3.18343,0.154266,-4.25507,Q,Q
2023-03-15 12:16:00:648,0,-3.28025,0.125947,-4.21742,Q,Q
2023-03-15 12:16:00:658,0,-3.3775,0.0998564,-4.17545,Q,Q
2023-03-15 12:16:00:668,0,-3.47259,0.0775594,-4.13404,Q,Q
2023-03-15 12:16:00:678,0,-3.5583,0.0629228,-4.09563,Q,Q
2023-03-15 12:16:00:688,0,-3.63049,0.050104,-4.06122,Q,Q
2023-03-15 12:16:00:697,0,-3.68556,0.0353807,-4.02902,Q,Q
2023-03-15 12:16:00:708,0,-3.73425,0.0149112,-3.99805,Q,Q
2023-03-15 12:16:00:718,0,-3.77796,-0.00439718,-3.97901,Q,Q
2023-03-15 12:16:00:728,0,-3.8191,-0.0228694,-3.96404,Q,Q
2023-03-15 12:16:00:738,0,-3.85076,-0.0398024,-3.95793,Q,Q
2023-03-15 12:16:00:748,0,-3.88007,-0.0608776,-3.95949,Q,Q
2023-03-15 12:16:00:758,0,-3.90049,-0.0805984,-3.96559,Q,Q
2023-03-15 12:16:00:768,0,-3.9158,-0.0926477,-3.98041,Q,Q
2023-03-15 12:16:00:778,0,-3.93113,-0.105109,-3.9962,Q,Q
2023-03-15 12:16:00:788,0,-3.94624,-0.11373,-4.02062,Q,Q
2023-03-15 12:16:00:798,0,-3.96443,-0.124575,-4.04987,Q,Q
2023-03-15 12:16:00:808,0,-3.9785,-0.143218,-4.08435,Q,Q
2023-03-15 12:16:00:818,0,-3.97916,-0.155243,-4.12269,Q,Q
2023-03-15 12:16:00:828,0,-3.9726,-0.162111,-4.15517,Q,Q
2023-03-15 12:16:00:838,0,-3.96713,-0.162342,-4.18984,Q,Q
2023-03-15 12:16:00:848,0,-3.96287,-0.15814,-4.22357,Q,Q
2023-03-15 12:16:00:858,0,-3.9638,-0.154081,-4.25478,Q,Q
2023-03-15 12:16:00:868,0,-3.97052,-0.147294,-4.28645,Q,Q
2023-03-15 12:16:00:878,0,-3.97539,-0.139929,-4.31829,Q,Q
2023-03-15 12:16:00:888,0,-3.98144,-0.135624,-4.35683,Q,Q
2023-03-15 12:16:00:898,0,-3.9811,-0.134686,-4.40352,Q,Q
2023-03-15 12:16:00:908,0,-3.97357,-0.136352,-4.45425,Q,Q
2023-03-15 12:16:00:918,0,-3.95265,-0.144325,-4.51952,Q,Q
2023-03-15 12:16:00:928,0,-3.92223,-0.152406,-4.59809,Q,Q
2023-03-15 12:16:00:938,0,-3.88565,-0.158911,-4.6849,Q,Q
2023-03-15 12:16:00:948,0,-3.84298,-0.167433,-4.77462,Q,Q
2023-03-15 12:16:00:958,0,-3.80979,-0.179367,-4.87436,Q,Q
2023-03-15 12:16:00:968,0,-3.79028,-0.202161,-4.97218,Q,Q
2023-03-15 12:16:00:978,0,-3.78358,-0.226199,-5.07496,Q,Q
2023-03-15 12:16:00:988,0,-3.79019,-0.254451,-5.18262,Q,Q
2023-03-15 12:16:00:998,0,-3.80433,-0.288222,-5.28972,Q,Q
2023-03-15 12:16:01:8,0,-3.82371,-0.325017,-5.40001,Q,Q
2023-03-15 12:16:01:18,0,-3.83395,-0.357841,-5.51198,Q,Q
2023-03-15 12:16:01:28,0,-3.83174,-0.389161,-5.62239,Q,Q
2023-03-15 12:16:01:38,0,-3.82043,-0.415837,-5.7258,Q,Q
2023-03-15 12:16:01:48,0,-3.80414,-0.436804,-5.82448,Q,Q
2023-03-15 12:16:01:58,0,-3.79524,-0.455505,-5.91337,Q,Q
2023-03-15 12:16:01:68,0,-3.78161,-0.469278,-5.99325,Q,Q
2023-03-15 12:16:01:78,0,-3.7661,-0.486451,-6.06319,Q,Q
2023-03-15 12:16:01:88,0,-3.73655,-0.500978,-6.12985,Q,Q
2023-03-15 12:16:01:98,0,-3.70187,-0.507813,-6.18528,Q,Q
2023-03-15 12:16:01:108,0,-3.67514,-0.512335,-6.23031,Q,Q
2023-03-15 12:16:01:118,0,-3.65555,-0.517922,-6.26651,Q,Q
2023-03-15 12:16:01:128,0,-3.64654,-0.527952,-6.29811,Q,Q
2023-03-15 12:16:01:138,0,-3.63695,-0.540425,-6.32325,Q,Q
2023-03-15 12:16:01:148,0,-3.624,-0.554738,-6.34069,Q,Q
2023-03-15 12:16:01:158,0,-3.60001,-0.565209,-6.3553,Q,Q
2023-03-15 12:16:01:168,0,-3.57118,-0.573725,-6.365,Q,Q
2023-03-15 12:16:01:178,0,-3.53961,-0.583711,-6.36946,Q,Q
2023-03-15 12:16:01:188,0,-3.50981,-0.59292,-6.37085,Q,Q
2023-03-15 12:16:01:198,0,-3.4837,-0.599276,-6.3709,Q,Q
2023-03-15 12:16:01:208,0,-3.46499,-0.605563,-6.37364,Q,Q
2023-03-15 12:16:01:218,0,-3.45563,-0.607354,-6.3779,Q,Q
2023-03-15 12:16:01:228,0,-3.45578,-0.608767,-6.38334,Q,Q
2023-03-15 12:16:01:238,0,-3.46069,-0.616569,-6.39136,Q,Q
2023-03-15 12:16:01:248,0,-3.46837,-0.625471,-6.40119,Q,Q
2023-03-15 12:16:01:258,0,-3.47205,-0.633599,-6.41809,Q,Q
2023-03-15 12:16:01:268,0,-3.47479,-0.643466,-6.43231,Q,Q
2023-03-15 12:16:01:278,0,-3.4745,-0.657535,-6.45085,Q,Q
2023-03-15 12:16:01:288,0,-3.47326,-0.671806,-6.47102,Q,Q
2023-03-15 12:16:01:298,0,-3.47282,-0.679332,-6.49331,Q,Q
2023-03-15 12:16:01:308,0,-3.47165,-0.691041,-6.51332,Q,Q
2023-03-15 12:16:01:318,0,-3.46994,-0.703964,-6.54039,Q,Q
2023-03-15 12:16:01:328,0,-3.46513,-0.718272,-6.57319,Q,Q
2023-03-15 12:16:01:338,0,-3.46092,-0.730697,-6.60805,Q,Q
2023-03-15 12:16:01:348,0,-3.45605,-0.740855,-6.64215,Q,Q
2023-03-15 12:16:01:358,0,-3.44806,-0.744621,-6.67646,Q,Q
2023-03-15 12:16:01:368,0,-3.43643,-0.752751,-6.71665,Q,Q
2023-03-15 12:16:01:378,0,-3.42576,-0.755369,-6.75716,Q,Q
2023-03-15 12:16:01:388,0,-3.41397,-0.758102,-6.80199,Q,Q
2023-03-15 12:16:01:398,0,-3.39687,-0.763348,-6.84509,Q,Q
2023-03-15 12:16:01:408,0,-3.37412,-0.767484,-6.88887,Q,Q
2023-03-15 12:16:01:418,0,-3.35299,-0.771276,-6.93334,Q,Q
2023-03-15 12:16:01:428,0,-3.32592,-0.781322,-6.97933,Q,Q
2023-03-15 12:16:01:438,0,-3.2998,-0.789269,-7.02767,Q,Q
2023-03-15 12:16:01:448,0,-3.27651,-0.796417,-7.07516,Q,Q
2023-03-15 12:16:01:458,0,-3.26134,-0.805966,-7.12371,Q,Q
2023-03-15 12:16:01:468,0,-3.25585,-0.817339,-7.17402,Q,Q
2023-03-15 12:16:01:478,0,-3.25517,-0.829906,-7.22475,Q,Q
2023-03-15 12:16:01:488,0,-3.26203,-0.838463,-7.28022,Q,Q
2023-03-15 12:16:01:498,0,-3.27907,-0.844498,-7.33438,Q,Q
2023-03-15 12:16:01:508,0,-3.29898,-0.851269,-7.39236,Q,Q
2023-03-15 12:16:01:518,0,-3.31762,-0.86046,-7.45106,Q,Q
2023-03-15 12:16:01:528,0,-3.33842,-0.873526,-7.51201,Q,Q
2023-03-15 12:16:01:538,0,-3.3567,-0.891731,-7.57201,Q,Q
2023-03-15 12:16:01:548,0,-3.36858,-0.918769,-7.62705,Q,Q
2023-03-15 12:16:01:558,0,-3.37398,-0.954856,-7.6834,Q,Q
2023-03-15 12:16:01:568,0,-3.36704,-0.99729,-7.73298,Q,Q
2023-03-15 12:16:01:578,0,-3.34794,-1.04881,-7.78093,Q,Q
2023-03-15 12:16:01:588,0,-3.31339,-1.11269,-7.82945,Q,Q
2023-03-15 12:16:01:598,0,-3.26823,-1.18916,-7.87454,Q,Q
2023-03-15 12:16:01:608,0,-3.21639,-1.27583,-7.92099,Q,Q
2023-03-15 12:16:01:618,0,-3.15928,-1.3715,-7.9676,Q,Q
2023-03-15 12:16:01:628,0,-3.09946,-1.47309,-8.01957,Q,Q
2023-03-15 12:16:01:638,0,-3.04397,-1.57777,-8.07938,Q,Q
2023-03-15 12:16:01:648,0,-2.98793,-1.6864,-8.14601,Q,Q
2023-03-15 12:16:01:658,0,-2.93266,-1.79667,-8.22328,Q,Q
2023-03-15 12:16:01:668,0,-2.87006,-1.91504,-8.30696,Q,Q
2023-03-15 12:16:01:678,0,-2.79099,-2.04273,-8.39797,Q,Q
2023-03-15 12:16:01:688,0,-2.69727,-2.17734,-8.48608,Q,Q
2023-03-15 12:16:01:698,0,-2.58885,-2.31393,-8.57825,Q,Q
2023-03-15 12:16:01:708,0,-2.47147,-2.44807,-8.67176,Q,Q
2023-03-15 12:16:01:718,0,-2.34602,-2.58234,-8.77062,Q,Q
2023-03-15 12:16:01:728,0,-2.22444,-2.70738,-8.86962,Q,Q
2023-03-15 12:16:01:738,0,-2.11892,-2.82474,-8.97408,Q,Q
2023-03-15 12:16:01:748,0,-2.03609,-2.92689,-9.07784,Q,Q
2023-03-15 12:16:01:758,0,-1.97518,-3.03116,-9.18202,Q,Q
2023-03-15 12:16:01:768,0,-1.92974,-3.13873,-9.27735,Q,Q
2023-03-15 12:16:01:778,0,-1.89004,-3.26065,-9.36913,Q,Q
2023-03-15 12:16:01:788,0,-1.84724,-3.39103,-9.45543,Q,Q
2023-03-15 12:16:01:798,0,-1.7973,-3.53162,-9.53654,Q,Q
2023-03-15 12:16:01:808,0,-1.72967,-3.67214,-9.60875,Q,Q
2023-03-15 12:16:01:818,0,-1.64158,-3.82111,-9.67375,Q,Q
2023-03-15 12:16:01:828,0,-1.53059,-3.97625,-9.73094,Q,Q
2023-03-15 12:16:01:838,0,-1.40093,-4.13141,-9.77666,Q,Q
2023-03-15 12:16:01:848,0,-1.25953,-4.28343,-9.80873,Q,Q
2023-03-15 12:16:01:858,0,-1.11673,-4.44118,-9.82643,Q,Q
2023-03-15 12:16:01:868,0,-0.979058,-4.5928,-9.83353,Q,Q
2023-03-15 12:16:01:878,0,-0.845194,-4.74614,-9.83455,Q,Q
2023-03-15 12:16:01:888,0,-0.716903,-4.89045,-9.82199,Q,Q
2023-03-15 12:16:01:898,0,-0.585312,-5.02441,-9.80637,Q,Q
2023-03-15 12:16:01:908,0,-0.440326,-5.14651,-9.79286,Q,Q
2023-03-15 12:16:01:918,0,-0.277515,-5.25396,-9.77819,Q,Q
2023-03-15 12:16:01:928,0,-0.102548,-5.34439,-9.76045,Q,Q
2023-03-15 12:16:01:938,0,0.0812466,-5.41704,-9.73702,Q,Q
2023-03-15 12:16:01:948,0,0.268224,-5.47617,-9.71215,Q,Q
2023-03-15 12:16:01:958,0,0.459103,-5.52043,-9.68523,Q,Q
2023-03-15 12:16:01:968,0,0.642917,-5.547,-9.65987,Q,Q
2023-03-15 12:16:01:978,0,0.818693,-5.55072,-9.63931,Q,Q
2023-03-15 12:16:01:988,0,0.983226,-5.53892,-9.62463,Q,Q
2023-03-15 12:16:01:998,0,1.13885,-5.51319,-9.62101,Q,Q
2023-03-15 12:16:02:8,0,1.2959,-5.4632,-9.62831,Q,Q
2023-03-15 12:16:02:18,0,1.4585,-5.3882,-9.64488,Q,Q
2023-03-15 12:16:02:28,0,1.62786,-5.29564,-9.66801,Q,Q
2023-03-15 12:16:02:38,0,1.80693,-5.19303,-9.69869,Q,Q
2023-03-15 12:16:02:48,0,1.99207,-5.07718,-9.72838,Q,Q
2023-03-15 12:16:02:58,0,2.18435,-4.95755,-9.7597,Q,Q
2023-03-15 12:16:02:68,0,2.3761,-4.83034,-9.79335,Q,Q
2023-03-15 12:16:02:78,0,2.56852,-4.70434,-9.83563,Q,Q
2023-03-15 12:16:02:88,0,2.76296,-4.593,-9.88162,Q,Q
2023-03-15 12:16:02:98,0,2.94649,-4.48226,-9.92156,Q,Q
2023-03-15 12:16:02:108,0,3.11114,-4.38096,-9.96197,Q,Q
2023-03-15 12:16:02:118,0,3.25239,-4.27588,-10.0036,Q,Q
2023-03-15 12:16:02:128,0,3.37684,-4.18069,-10.0492,Q,Q
2023-03-15 12:16:02:138,0,3.48256,-4.08667,-10.0946,Q,Q
2023-03-15 12:16:02:148,0,3.57563,-3.99657,-10.1427,Q,Q
2023-03-15 12:16:02:158,0,3.65907,-3.91372,-10.1917,Q,Q
2023-03-15 12:16:02:168,0,3.74078,-3.83279,-10.2442,Q,Q
2023-03-15 12:16:02:178,0,3.82882,-3.75961,-10.3014,Q,Q
2023-03-15 12:16:02:188,0,3.92543,-3.68291,-10.3531,Q,Q
2023-03-15 12:16:02:198,0,4.02685,-3.6083,-10.4068,Q,Q
2023-03-15 12:16:02:208,0,4.12515,-3.53086,-10.4554,Q,Q
2023-03-15 12:16:02:218,0,4.20559,-3.44099,-10.5044,Q,Q
2023-03-15 12:16:02:228,0,4.26992,-3.34191,-10.5517,Q,Q
2023-03-15 12:16:02:238,0,4.31465,-3.22578,-10.5981,Q,Q
2023-03-15 12:16:02:248,0,4.34571,-3.08814,-10.6466,Q,Q
2023-03-15 12:16:02:258,0,4.37737,-2.95044,-10.6972,Q,Q
2023-03-15 12:16:02:268,0,4.40308,-2.79902,-10.7397,Q,Q
2023-03-15 12:16:02:278,0,4.43484,-2.65187,-10.7822,Q,Q
2023-03-15 12:16:02:288,0,4.46998,-2.50458,-10.8212,Q,Q
2023-03-15 12:16:02:298,0,4.50484,-2.36099,-10.8557,Q,Q
2023-03-15 12:16:02:308,0,4.54323,-2.22279,-10.8821,Q,Q
2023-03-15 12:16:02:318,0,4.57067,-2.09216,-10.9028,Q,Q
2023-03-15 12:16:02:328,0,4.58662,-1.97012,-10.9183,Q,Q
2023-03-15 12:16:02:338,0,4.59163,-1.85535,-10.9298,Q,Q
2023-03-15 12:16:02:348,0,4.58509,-1.74819,-10.9375,Q,Q
2023-03-15 12:16:02:357,0,4.5747,-1.64358,-10.9496,Q,Q
2023-03-15 12:16:02:368,0,4.56272,-1.53735,-10.9587,Q,Q
2023-03-15 12:16:02:378,0,4.55747,-1.43907,-10.9675,Q,Q
2023-03-15 12:16:02:388,0,4.56476,-1.34404,-10.9719,Q,Q
2023-03-15 12:16:02:398,0,4.58633,-1.24928,-10.9747,Q,Q
2023-03-15 12:16:02:408,0,4.62154,-1.15961,-10.9747,Q,Q
2023-03-15 12:16:02:418,0,4.67406,-1.07076,-10.9655,Q,Q
2023-03-15 12:16:02:428,0,4.73566,-0.981845,-10.9441,Q,Q
2023-03-15 12:16:02:438,0,4.79782,-0.895069,-10.9099,Q,Q
2023-03-15 12:16:02:448,0,4.84423,-0.831224,-10.8637,Q,Q
2023-03-15 12:16:02:458,0,4.86202,-0.758962,-10.8021,Q,Q
2023-03-15 12:16:02:468,0,4.85278,-0.685661,-10.7321,Q,Q
2023-03-15 12:16:02:478,0,4.82079,-0.60563,-10.6635,Q,Q
2023-03-15 12:16:02:488,0,4.77061,-0.524803,-10.5912,Q,Q
2023-03-15 12:16:02:498,0,4.70921,-0.444288,-10.5195,Q,Q
2023-03-15 12:16:02:508,0,4.63277,-0.360071,-10.4463,Q,Q
2023-03-15 12:16:02:518,0,4.5587,-0.279267,-10.3867,Q,Q
2023-03-15 12:16:02:528,0,4.49003,-0.194539,-10.3311,Q,Q
2023-03-15 12:16:02:538,0,4.4242,-0.113052,-10.2756,Q,Q
2023-03-15 12:16:02:548,0,4.3575,-0.0267131,-10.2158,Q,Q
2023-03-15 12:16:02:558,0,4.27365,0.0654887,-10.1525,Q,Q
2023-03-15 12:16:02:568,0,4.15827,0.162032,-10.0859,Q,Q
2023-03-15 12:16:02:578,0,4.00846,0.266627,-10.0218,Q,Q
2023-03-15 12:16:02:588,0,3.8356,0.378446,-9.96069,Q,Q
2023-03-15 12:16:02:598,0,3.63994,0.494656,-9.89887,Q,Q
2023-03-15 12:16:02:608,0,3.43292,0.606326,-9.83446,Q,Q
2023-03-15 12:16:02:618,0,3.2109,0.711418,-9.77553,Q,Q
2023-03-15 12:16:02:628,0,2.99729,0.811648,-9.72381,Q,Q
2023-03-15 12:16:02:638,0,2.79743,0.908421,-9.68004,Q,Q
2023-03-15 12:16:02:648,0,2.60851,1.00825,-9.64137,Q,Q
2023-03-15 12:16:02:658,0,2.42897,1.11127,-9.60391,Q,Q
2023-03-15 12:16:02:668,0,2.25693,1.21882,-9.56646,Q,Q
2023-03-15 12:16:02:678,0,2.08744,1.32605,-9.53263,Q,Q
2023-03-15 12:16:02:688,0,1.92437,1.43052,-9.49703,Q,Q
2023-03-15 12:16:02:698,0,1.77379,1.52367,-9.46279,Q,Q
2023-03-15 12:16:02:708,0,1.63338,1.6075,-9.43129,Q,Q
2023-03-15 12:16:02:718,0,1.50799,1.68169,-9.3991,Q,Q
2023-03-15 12:16:02:728,0,1.39153,1.74399,-9.36481,Q,Q
2023-03-15 12:16:02:738,0,1.28306,1.79265,-9.32901,Q,Q
2023-03-15 12:16:02:748,0,1.18621,1.82466,-9.29155,Q,Q
2023-03-15 12:16:02:758,0,1.1016,1.84738,-9.24989,Q,Q
2023-03-15 12:16:02:768,0,1.02114,1.86077,-9.20362,Q,Q
2023-03-15 12:16:02:778,0,0.946945,1.86026,-9.15051,Q,Q
2023-03-15 12:16:02:788,0,0.882165,1.85385,-9.09363,Q,Q
2023-03-15 12:16:02:798,0,0.823451,1.8375,-9.03874,Q,Q
2023-03-15 12:16:02:808,0,0.776964,1.82135,-8.98268,Q,Q
2023-03-15 12:16:02:818,0,0.741453,1.80389,-8.92714,Q,Q
2023-03-15 12:16:02:828,0,0.710111,1.78572,-8.87684,Q,Q
2023-03-15 12:16:02:838,0,0.685114,1.77107,-8.82394,Q,Q
2023-03-15 12:16:02:848,0,0.657248,1.75036,-8.76831,Q,Q
2023-03-15 12:16:02:858,0,0.620184,1.72735,-8.71465,Q,Q
2023-03-15 12:16:02:868,0,0.575241,1.70237,-8.66302,Q,Q
2023-03-15 12:16:02:878,0,0.52053,1.67763,-8.61874,Q,Q
2023-03-15 12:16:02:888,0,0.458039,1.65241,-8.57494,Q,Q
2023-03-15 12:16:02:898,0,0.389052,1.62472,-8.53338,Q,Q
2023-03-15 12:16:02:908,0,0.306979,1.59638,-8.49434,Q,Q
2023-03-15 12:16:02:918,0,0.217015,1.55642,-8.45525,Q,Q
2023-03-15 12:16:02:928,0,0.118863,1.50868,-8.41859,Q,Q
2023-03-15 12:16:02:938,0,0.0177882,1.45134,-8.37962,Q,Q
2023-03-15 12:16:02:948,0,-0.0828793,1.3863,-8.33978,Q,Q
2023-03-15 12:16:02:958,0,-0.177397,1.30799,-8.30119,Q,Q
2023-03-15 12:16:02:968,0,-0.260924,1.22223,-8.2589,Q,Q
2023-03-15 12:16:02:978,0,-0.327151,1.13094,-8.22089,Q,Q
2023-03-15 12:16:02:988,0,-0.374561,1.03371,-8.18383,Q,Q
2023-03-15 12:16:02:998,0,-0.402259,0.93338,-8.14678,Q,Q
2023-03-15 12:16:03:8,0,-0.408878,0.830659,-8.11313,Q,Q
2023-03-15 12:16:03:18,0,-0.38918,0.729218,-8.07927,Q,Q
2023-03-15 12:16:03:28,0,-0.351375,0.617902,-8.04464,Q,Q
2023-03-15 12:16:03:38,0,-0.29807,0.509623,-8.00152,Q,Q
2023-03-15 12:16:03:48,0,-0.245395,0.393805,-7.9599,Q,Q
2023-03-15 12:16:03:58,0,-0.197397,0.273881,-7.9222,Q,Q
2023-03-15 12:16:03:68,0,-0.150563,0.155376,-7.8855,Q,Q
2023-03-15 12:16:03:78,0,-0.103705,0.0322086,-7.85432,Q,Q
2023-03-15 12:16:03:88,0,-0.0488695,-0.0908298,-7.82913,Q,Q
2023-03-15 12:16:03:98,0,0.00943494,-0.212748,-7.80531,Q,Q
2023-03-15 12:16:03:108,0,0.0773947,-0.335482,-7.78638,Q,Q
2023-03-15 12:16:03:118,0,0.150434,-0.46029,-7.77053,Q,Q
2023-03-15 12:16:03:128,0,0.221453,-0.58229,-7.75367,Q,Q
2023-03-15 12:16:03:138,0,0.283586,-0.702112,-7.73844,Q,Q
2023-03-15 12:16:03:148,0,0.329577,-0.819881,-7.71999,Q,Q
2023-03-15 12:16:03:158,0,0.357184,-0.939284,-7.70268,Q,Q
2023-03-15 12:16:03:167,0,0.3676,-1.05329,-7.68451,Q,Q
2023-03-15 12:16:03:177,0,0.369822,-1.16645,-7.66841,Q,Q
2023-03-15 12:16:03:188,0,0.381911,-1.27831,-7.6552,Q,Q
2023-03-15 12:16:03:198,0,0.400394,-1.3904,-7.64093,Q,Q
2023-03-15 12:16:03:208,0,0.434167,-1.5004,-7.63112,Q,Q
2023-03-15 12:16:03:218,0,0.483701,-1.6092,-7.62434,Q,Q
2023-03-15 12:16:03:228,0,0.538609,-1.70705,-7.61529,Q,Q
2023-03-15 12:16:03:238,0,0.598547,-1.8015,-7.61158,Q,Q
2023-03-15 12:16:03:248,0,0.655491,-1.88346,-7.61189,Q,Q
2023-03-15 12:16:03:258,0,0.710259,-1.95802,-7.62029,Q,Q
2023-03-15 12:16:03:268,0,0.757632,-2.02788,-7.63255,Q,Q
2023-03-15 12:16:03:278,0,0.796127,-2.10367,-7.64766,Q,Q
2023-03-15 12:16:03:288,0,0.830366,-2.18425,-7.67199,Q,Q
2023-03-15 12:16:03:298,0,0.858696,-2.27573,-7.70466,Q,Q
2023-03-15 12:16:03:308,0,0.889408,-2.37624,-7.74484,Q,Q
2023-03-15 12:16:03:318,0,0.92889,-2.4862,-7.79998,Q,Q
2023-03-15 12:16:03:328,0,0.980212,-2.59884,-7.85975,Q,Q
2023-03-15 12:16:03:338,0,1.04419,-2.71676,-7.93232,Q,Q
2023-03-15 12:16:03:348,0,1.12759,-2.83828,-8.01088,Q,Q
2023-03-15 12:16:03:358,0,1.22978,-2.96464,-8.09279,Q,Q
2023-03-15 12:16:03:368,0,1.3506,-3.09401,-8.17631,Q,Q
2023-03-15 12:16:03:378,0,1.48277,-3.2204,-8.25877,Q,Q
2023-03-15 12:16:03:388,0,1.61769,-3.33918,-8.344,Q,Q
2023-03-15 12:16:03:398,0,1.75267,-3.44827,-8.42815,Q,Q
2023-03-15 12:16:03:408,0,1.87665,-3.55406,-8.51178,Q,Q
2023-03-15 12:16:03:418,0,1.97112,-3.64149,-8.59558,Q,Q
2023-03-15 12:16:03:428,0,2.0322,-3.71014,-8.69057,Q,Q
2023-03-15 12:16:03:438,0,2.06238,-3.75459,-8.80031,Q,Q
2023-03-15 12:16:03:448,0,2.06911,-3.76992,-8.92104,Q,Q
2023-03-15 12:16:03:458,0,2.06409,-3.76113,-9.0494,Q,Q
2023-03-15 12:16:03:468,0,2.05268,-3.73285,-9.19148,Q,Q
2023-03-15 12:16:03:478,0,2.04057,-3.69389,-9.33919,Q,Q
2023-03-15 12:16:03:488,0,2.02885,-3.64199,-9.49475,Q,Q
2023-03-15 12:16:03:498,0,2.01403,-3.58084,-9.66105,Q,Q
2023-03-15 12:16:03:508,0,1.99019,-3.5116,-9.84457,Q,Q
2023-03-15 12:16:03:518,0,1.95122,-3.43977,-10.0399,Q,Q
2023-03-15 12:16:03:528,0,1.88703,-3.36423,-10.2588,Q,Q
2023-03-15 12:16:03:538,0,1.79837,-3.28258,-10.502,Q,Q
2023-03-15 12:16:03:548,0,1.68036,-3.20341,-10.7737,Q,Q
2023-03-15 12:16:03:558,0,1.54329,-3.12453,-11.0752,Q,Q
2023-03-15 12:16:03:568,0,1.39983,-3.04892,-11.4082,Q,Q
2023-03-15 12:16:03:578,0,1.25759,-2.96961,-11.7659,Q,Q
2023-03-15 12:16:03:588,0,1.12,-2.89733,-12.1485,Q,Q
2023-03-15 12:16:03:598,0,0.984954,-2.83021,-12.5572,Q,Q
2023-03-15 12:16:03:608,0,0.859637,-2.76211,-12.9964,Q,Q
2023-03-15 12:16:03:618,0,0.75184,-2.69175,-13.4596,Q,Q
2023-03-15 12:16:03:628,0,0.648152,-2.62147,-13.9435,Q,Q
2023-03-15 12:16:03:638,0,0.545538,-2.54442,-14.453,Q,Q
2023-03-15 12:16:03:648,0,0.431603,-2.46925,-14.9882,Q,Q
2023-03-15 12:16:03:658,0,0.308556,-2.39815,-15.5376,Q,Q
2023-03-15 12:16:03:668,0,0.181625,-2.34119,-16.1028,Q,Q
2023-03-15 12:16:03:678,0,0.0642902,-2.2972,-16.6736,Q,Q
2023-03-15 12:16:03:688,0,-0.0209319,-2.27213,-17.2511,Q,Q
2023-03-15 12:16:03:698,0,-0.0599101,-2.2643,-17.8209,Q,Q
2023-03-15 12:16:03:708,0,-0.0554261,-2.25936,-18.3842,Q,Q
2023-03-15 12:16:03:718,0,-0.0133436,-2.25053,-18.9389,Q,Q
2023-03-15 12:16:03:728,0,0.0497045,-2.22976,-19.4774,Q,Q
2023-03-15 12:16:03:738,0,0.112612,-2.18819,-20.0045,Q,Q
2023-03-15 12:16:03:748,0,0.161445,-2.13171,-20.5162,Q,Q
2023-03-15 12:16:03:758,0,0.179929,-2.06157,-21.0068,Q,Q
2023-03-15 12:16:03:768,0,0.166221,-1.98792,-21.4764,Q,Q
2023-03-15 12:16:03:778,0,0.127792,-1.91552,-21.9131,Q,Q
2023-03-15 12:16:03:788,0,0.0678089,-1.85169,-22.3199,Q,Q
2023-03-15 12:16:03:798,0,0.0074889,-1.79692,-22.6957,Q,Q
2023-03-15 12:16:03:808,0,-0.0475091,-1.7551,-23.047,Q,Q
2023-03-15 12:16:03:818,0,-0.0905044,-1.71511,-23.3694,Q,Q
2023-03-15 12:16:03:828,0,-0.121212,-1.69591,-23.6745,Q,Q
2023-03-15 12:16:03:838,0,-0.146656,-1.66877,-23.9561,Q,Q
2023-03-15 12:16:03:848,0,-0.161701,-1.64538,-24.2316,Q,Q
2023-03-15 12:16:03:858,0,-0.179391,-1.63022,-24.5032,Q,Q
2023-03-15 12:16:03:868,0,-0.203499,-1.62081,-24.7525,Q,Q
2023-03-15 12:16:03:878,0,-0.235434,-1.618,-24.9911,Q,Q
2023-03-15 12:16:03:888,0,-0.26765,-1.63131,-25.217,Q,Q
2023-03-15 12:16:03:898,0,-0.278291,-1.66919,-25.4294,Q,Q
2023-03-15 12:16:03:908,0,-0.2654,-1.71158,-25.6244,Q,Q
2023-03-15 12:16:03:918,0,-0.222964,-1.7602,-25.8017,Q,Q
2023-03-15 12:16:03:928,0,-0.148623,-1.81451,-25.9639,Q,Q
2023-03-15 12:16:03:938,0,-0.0413927,-1.86636,-26.0993,Q,Q
2023-03-15 12:16:03:948,0,0.102175,-1.91813,-26.2203,Q,Q
2023-03-15 12:16:03:958,0,0.279237,-1.96757,-26.3214,Q,Q
2023-03-15 12:16:03:968,0,0.491084,-2.00835,-26.3994,Q,Q
2023-03-15 12:16:03:978,0,0.741198,-2.03574,-26.457,Q,Q
2023-03-15 12:16:03:988,0,1.04312,-2.05444,-26.4983,Q,Q
2023-03-15 12:16:03:998,0,1.40571,-2.06306,-26.5152,Q,Q
2023-03-15 12:16:04:8,0,1.81746,-2.06929,-26.5166,Q,Q
2023-03-15 12:16:04:18,0,2.26262,-2.06717,-26.4897,Q,Q
2023-03-15 12:16:04:28,0,2.72139,-2.06246,-26.4367,Q,Q
2023-03-15 12:16:04:38,0,3.16506,-2.05646,-26.3628,Q,Q
2023-03-15 12:16:04:48,0,3.58628,-2.0522,-26.2684,Q,Q
2023-03-15 12:16:04:58,0,3.96289,-2.04874,-26.1567,Q,Q
2023-03-15 12:16:04:68,0,4.28086,-2.05275,-26.0427,Q,Q
2023-03-15 12:16:04:78,0,4.53757,-2.07023,-25.9325,Q,Q
2023-03-15 12:16:04:88,0,4.76007,-2.10336,-25.8343,Q,Q
2023-03-15 12:16:04:98,0,4.98392,-2.15353,-25.7535,Q,Q
2023-03-15 12:16:04:108,0,5.22077,-2.21607,-25.6828,Q,Q
2023-03-15 12:16:04:118,0,5.47326,-2.27916,-25.6154,Q,Q
2023-03-15 12:16:04:128,0,5.72696,-2.34111,-25.5489,Q,Q
2023-03-15 12:16:04:138,0,5.96248,-2.40314,-25.4805,Q,Q
2023-03-15 12:16:04:148,0,6.16657,-2.46498,-25.4145,Q,Q
2023-03-15 12:16:04:158,0,6.33677,-2.52954,-25.3506,Q,Q
2023-03-15 12:16:04:168,0,6.46411,-2.59731,-25.2892,Q,Q
2023-03-15 12:16:04:178,0,6.55513,-2.66306,-25.234,Q,Q
2023-03-15 12:16:04:188,0,6.60815,-2.72791,-25.1793,Q,Q
2023-03-15 12:16:04:198,0,6.63172,-2.78623,-25.132,Q,Q
2023-03-15 12:16:04:208,0,6.62539,-2.83967,-25.0892,Q,Q
2023-03-15 12:16:04:218,0,6.58993,-2.88882,-25.0473,Q,Q
2023-03-15 12:16:04:228,0,6.53227,-2.93572,-25.0172,Q,Q
2023-03-15 12:16:04:238,0,6.45979,-2.97446,-24.9916,Q,Q
2023-03-15 12:16:04:248,0,6.38345,-3.00367,-24.9719,Q,Q
2023-03-15 12:16:04:258,0,6.31438,-3.03469,-24.9614,Q,Q
2023-03-15 12:16:04:268,0,6.25055,-3.06151,-24.9508,Q,Q
2023-03-15 12:16:04:278,0,6.19531,-3.08853,-24.9476,Q,Q
2023-03-15 12:16:04:288,0,6.14016,-3.11712,-24.9511,Q,Q
2023-03-15 12:16:04:297,0,6.09029,-3.14371,-24.9599,Q,Q
2023-03-15 12:16:04:308,0,6.04566,-3.16319,-24.9759,Q,Q
2023-03-15 12:16:04:318,0,6.01023,-3.17441,-24.9987,Q,Q
2023-03-15 12:16:04:328,0,5.97835,-3.174,-25.0268,Q,Q
2023-03-15 12:16:04:338,0,5.95305,-3.1599,-25.0613,Q,Q
2023-03-15 12:16:04:348,0,5.92851,-3.13408,-25.0994,Q,Q
2023-03-15 12:16:04:358,0,5.90557,-3.10539,-25.1403,Q,Q
2023-03-15 12:16:04:368,0,5.88384,-3.07632,-25.1804,Q,Q
2023-03-15 12:16:04:378,0,5.86993,-3.04886,-25.2265,Q,Q
2023-03-15 12:16:04:388,0,5.85654,-3.0265,-25.2714,Q,Q
2023-03-15 12:16:04:398,0,5.84948,-3.01508,-25.3185,Q,Q
2023-03-15 12:16:04:408,0,5.84147,-3.00987,-25.3603,Q,Q
2023-03-15 12:16:04:418,0,5.82923,-3.01174,-25.4033,Q,Q
2023-03-15 12:16:04:428,0,5.81158,-3.01214,-25.447,Q,Q
2023-03-15 12:16:04:438,0,5.7903,-3.01195,-25.4885,Q,Q
2023-03-15 12:16:04:448,0,5.758,-3.01507,-25.5293,Q,Q
2023-03-15 12:16:04:457,0,5.72118,-3.01585,-25.5628,Q,Q
2023-03-15 12:16:04:467,0,5.68047,-3.02425,-25.5922,Q,Q
2023-03-15 12:16:04:478,0,5.63478,-3.03901,-25.6172,Q,Q
2023-03-15 12:16:04:488,0,5.58138,-3.05866,-25.6425,Q,Q
2023-03-15 12:16:04:498,0,5.52501,-3.08229,-25.664,Q,Q
2023-03-15 12:16:04:508,0,5.46787,-3.10129,-25.6835,Q,Q
2023-03-15 12:16:04:518,0,5.41274,-3.11684,-25.7027,Q,Q
2023-03-15 12:16:04:528,0,5.36007,-3.13108,-25.7162,Q,Q
2023-03-15 12:16:04:538,0,5.30733,-3.14072,-25.7298,Q,Q
2023-03-15 12:16:04:548,0,5.26336,-3.14547,-25.7381,Q,Q
2023-03-15 12:16:04:558,0,5.21979,-3.144,-25.7442,Q,Q
2023-03-15 12:16:04:568,0,5.17314,-3.14294,-25.7424,Q,Q
2023-03-15 12:16:04:578,0,5.12458,-3.14167,-25.7414,Q,Q
2023-03-15 12:16:04:588,0,5.07319,-3.13501,-25.742,Q,Q
2023-03-15 12:16:04:598,0,5.02445,-3.12442,-25.7465,Q,Q
2023-03-15 12:16:04:608,0,4.97577,-3.13924,-25.7617,Q,Q
2023-03-15 12:16:04:618,0,4.93002,-3.12865,-25.7656,Q,Q
2023-03-15 12:16:04:628,0,4.89493,-3.11103,-25.7793,Q,Q
2023-03-15 12:16:04:638,0,4.87741,-3.10393,-25.8015,Q,Q
2023-03-15 12:16:04:648,0,4.87366,-3.1034,-25.8235,Q,Q
2023-03-15 12:16:04:658,0,4.87141,-3.09454,-25.8402,Q,Q
2023-03-15 12:16:04:668,0,4.86874,-3.08742,-25.8558,Q,Q
2023-03-15 12:16:04:678,0,4.85746,-3.08467,-25.8742,Q,Q
2023-03-15 12:16:04:688,0,4.83611,-3.08063,-25.8913,Q,Q
2023-03-15 12:16:04:698,0,4.80477,-3.06105,-25.9086,Q,Q
2023-03-15 12:16:04:708,0,4.78111,-3.04884,-25.9314,Q,Q
2023-03-15 12:16:04:718,0,4.76836,-3.03731,-25.9567,Q,Q
2023-03-15 12:16:04:728,0,4.76184,-3.02699,-25.98,Q,Q
2023-03-15 12:16:04:738,0,4.75869,-3.01937,-26.0007,Q,Q
2023-03-15 12:16:04:748,0,4.75647,-3.01144,-26.0209,Q,Q
2023-03-15 12:16:04:758,0,4.74857,-3.01155,-26.0419,Q,Q
2023-03-15 12:16:04:768,0,4.73025,-3.01106,-26.0618,Q,Q
2023-03-15 12:16:04:778,0,4.70833,-3.01227,-26.0816,Q,Q
2023-03-15 12:16:04:788,0,4.67719,-3.01692,-26.0981,Q,Q
2023-03-15 12:16:04:798,0,4.64497,-3.02055,-26.1154,Q,Q
2023-03-15 12:16:04:808,0,4.60549,-3.02514,-26.1344,Q,Q
2023-03-15 12:16:04:818,0,4.56773,-3.03304,-26.1497,Q,Q
2023-03-15 12:16:04:828,0,4.52855,-3.0456,-26.1693,Q,Q
2023-03-15 12:16:04:838,0,4.49735,-3.05696,-26.1868,Q,Q
2023-03-15 12:16:04:848,0,4.47335,-3.06762,-26.2036,Q,Q
2023-03-15 12:16:04:858,0,4.45865,-3.07494,-26.2257,Q,Q
2023-03-15 12:16:04:868,0,4.4509,-3.07879,-26.2487,Q,Q
2023-03-15 12:16:04:878,0,4.44838,-3.07461,-26.2729,Q,Q
2023-03-15 12:16:04:888,0,4.44308,-3.06519,-26.2961,Q,Q
2023-03-15 12:16:04:898,0,4.43364,-3.05374,-26.3181,Q,Q
2023-03-15 12:16:04:908,0,4.41755,-3.04281,-26.3389,Q,Q
2023-03-15 12:16:04:918,0,4.39455,-3.03207,-26.3519,Q,Q
2023-03-15 12:16:04:928,0,4.36123,-3.02183,-26.3659,Q,Q
2023-03-15 12:16:04:938,0,4.3264,-3.01904,-26.382,Q,Q
2023-03-15 12:16:04:948,0,4.29301,-3.01972,-26.3969,Q,Q
2023-03-15 12:16:04:958,0,4.2613,-3.02264,-26.4126,Q,Q
2023-03-15 12:16:04:968,0,4.24213,-3.01977,-26.4302,Q,Q
2023-03-15 12:16:04:978,0,4.22432,-3.01507,-26.4491,Q,Q
2023-03-15 12:16:04:988,0,4.2081,-3.00155,-26.4676,Q,Q
2023-03-15 12:16:04:998,0,4.19149,-2.98943,-26.4874,Q,Q
2023-03-15 12:16:05:8,0,4.17138,-2.96779,-26.5064,Q,Q
2023-03-15 12:16:05:18,0,4.14607,-2.9455,-26.526,Q,Q
2023-03-15 12:16:05:28,0,4.12006,-2.92351,-26.5476,Q,Q
2023-03-15 12:16:05:38,0,4.09362,-2.91468,-26.5715,Q,Q
2023-03-15 12:16:05:48,0,4.07081,-2.90028,-26.5997,Q,Q
2023-03-15 12:16:05:58,0,4.04997,-2.90433,-26.6351,Q,Q
2023-03-15 12:16:05:68,0,4.02733,-2.91282,-26.6697,Q,Q
2023-03-15 12:16:05:78,0,4.00883,-2.91535,-26.7118,Q,Q
2023-03-15 12:16:05:88,0,4.00129,-2.92012,-26.7628,Q,Q
2023-03-15 12:16:05:98,0,4.00379,-2.92263,-26.8103,Q,Q
2023-03-15 12:16:05:108,0,4.01003,-2.92462,-26.8485,Q,Q
2023-03-15 12:16:05:118,0,4.01304,-2.92595,-26.8773,Q,Q
2023-03-15 12:16:05:128,0,4.01154,-2.93286,-26.9011,Q,Q
2023-03-15 12:16:05:138,0,3.99788,-2.94055,-26.9197,Q,Q
2023-03-15 12:16:05:148,0,3.97979,-2.94959,-26.9328,Q,Q
2023-03-15 12:16:05:158,0,3.97003,-2.9558,-26.9454,Q,Q
2023-03-15 12:16:05:168,0,3.96571,-2.96381,-26.9542,Q,Q
2023-03-15 12:16:05:178,0,3.96537,-2.9704,-26.9548,Q,Q
2023-03-15 12:16:05:188,0,3.96606,-2.97719,-26.9488,Q,Q
2023-03-15 12:16:05:198,0,3.95958,-2.9864,-26.9395,Q,Q
2023-03-15 12:16:05:208,0,3.94516,-3.00075,-26.9319,Q,Q
2023-03-15 12:16:05:218,0,3.92089,-3.01295,-26.9209,Q,Q
2023-03-15 12:16:05:228,0,3.89385,-3.02298,-26.9091,Q,Q
2023-03-15 12:16:05:238,0,3.86365,-3.03325,-26.9056,Q,Q
2023-03-15 12:16:05:248,0,3.83163,-3.0418,-26.8974,Q,Q
2023-03-15 12:16:05:258,0,3.79943,-3.05188,-26.8846,Q,Q
2023-03-15 12:16:05:268,0,3.76776,-3.06325,-26.8693,Q,Q
2023-03-15 12:16:05:278,0,3.73836,-3.07819,-26.8454,Q,Q
2023-03-15 12:16:05:288,0,3.71281,-3.09126,-26.8207,Q,Q
2023-03-15 12:16:05:298,0,3.68705,-3.09914,-26.7935,Q,Q
2023-03-15 12:16:05:308,0,3.66304,-3.09672,-26.7602,Q,Q
2023-03-15 12:16:05:318,0,3.64143,-3.09234,-26.725,Q,Q
2023-03-15 12:16:05:328,0,3.62169,-3.08381,-26.6773,Q,Q
2023-03-15 12:16:05:338,0,3.60191,-3.07746,-26.6212,Q,Q
2023-03-15 12:16:05:348,0,3.57962,-3.06936,-26.555,Q,Q
2023-03-15 12:16:05:358,0,3.55219,-3.06543,-26.4817,Q,Q
2023-03-15 12:16:05:368,0,3.5142,-3.0619,-26.3974,Q,Q
2023-03-15 12:16:05:378,0,3.47043,-3.05835,-26.3058,Q,Q
2023-03-15 12:16:05:388,0,3.41873,-3.05403,-26.2105,Q,Q
2023-03-15 12:16:05:398,0,3.36809,-3.04593,-26.1087,Q,Q
2023-03-15 12:16:05:408,0,3.31797,-3.03407,-26.0001,Q,Q
2023-03-15 12:16:05:418,0,3.26759,-3.02119,-25.8875,Q,Q
2023-03-15 12:16:05:428,0,3.21824,-3.00571,-25.7686,Q,Q
2023-03-15 12:16:05:438,0,3.16498,-2.9899,-25.6429,Q,Q
2023-03-15 12:16:05:448,0,3.1038,-2.9756,-25.5146,Q,Q
2023-03-15 12:16:05:458,0,3.0348,-2.9573,-25.3784,Q,Q
2023-03-15 12:16:05:468,0,2.96063,-2.94242,-25.2408,Q,Q
2023-03-15 12:16:05:478,0,2.87743,-2.9271,-25.1023,Q,Q
2023-03-15 12:16:05:488,0,2.78853,-2.91609,-24.9656,Q,Q
2023-03-15 12:16:05:498,0,2.6911,-2.90189,-24.8351,Q,Q
2023-03-15 12:16:05:508,0,2.59076,-2.89335,-24.704,Q,Q
2023-03-15 12:16:05:518,0,2.48978,-2.88745,-24.5831,Q,Q
2023-03-15 12:16:05:528,0,2.39591,-2.88561,-24.4722,Q,Q
2023-03-15 12:16:05:538,0,2.31236,-2.88351,-24.3711,Q,Q
2023-03-15 12:16:05:548,0,2.24261,-2.88446,-24.2761,Q,Q
2023-03-15 12:16:05:558,0,2.18289,-2.8873,-24.1918,Q,Q
2023-03-15 12:16:05:568,0,2.13084,-2.89099,-24.1157,Q,Q
2023-03-15 12:16:05:578,0,2.07937,-2.8996,-24.0505,Q,Q
2023-03-15 12:16:05:588,0,2.02019,-2.91101,-23.9958,Q,Q
2023-03-15 12:16:05:598,0,1.94792,-2.92839,-23.9529,Q,Q
2023-03-15 12:16:05:608,0,1.87087,-2.95396,-23.9234,Q,Q
2023-03-15 12:16:05:618,0,1.79421,-2.98087,-23.9097,Q,Q
2023-03-15 12:16:05:628,0,1.72783,-3.00114,-23.9057,Q,Q
2023-03-15 12:16:05:638,0,1.66894,-3.05082,-23.9199,Q,Q
2023-03-15 12:16:05:648,0,1.604,-3.09925,-23.9406,Q,Q
2023-03-15 12:16:05:658,0,1.53601,-3.13709,-23.9707,Q,Q
2023-03-15 12:16:05:668,0,1.46781,-3.16931,-24.0139,Q,Q
2023-03-15 12:16:05:678,0,1.40937,-3.20813,-24.0768,Q,Q
2023-03-15 12:16:05:688,0,1.35683,-3.23575,-24.147,Q,Q
2023-03-15 12:16:05:698,0,1.30575,-3.25535,-24.2188,Q,Q
2023-03-15 12:16:05:708,0,1.25277,-3.28468,-24.3045,Q,Q
2023-03-15 12:16:05:718,0,1.20174,-3.31528,-24.3917,Q,Q
2023-03-15 12:16:05:728,0,1.1486,-3.3392,-24.4791,Q,Q
2023-03-15 12:16:05:738,0,1.09678,-3.36518,-24.5787,Q,Q
2023-03-15 12:16:05:748,0,1.04532,-3.39398,-24.6841,Q,Q
2023-03-15 12:16:05:758,0,0.99969,-3.4179,-24.7884,Q,Q
2023-03-15 12:16:05:768,0,0.958539,-3.43529,-24.897,Q,Q
2023-03-15 12:16:05:778,0,0.927729,-3.4514,-25.0078,Q,Q
2023-03-15 12:16:05:788,0,0.905166,-3.46887,-25.1183,Q,Q
2023-03-15 12:16:05:798,0,0.887476,-3.48352,-25.2231,Q,Q
2023-03-15 12:16:05:808,0,0.866113,-3.49788,-25.3243,Q,Q
2023-03-15 12:16:05:818,0,0.836979,-3.51014,-25.4242,Q,Q
2023-03-15 12:16:05:828,0,0.809383,-3.52425,-25.5261,Q,Q
2023-03-15 12:16:05:837,0,0.786725,-3.53266,-25.6306,Q,Q
2023-03-15 12:16:05:848,0,0.76212,-3.53966,-25.7292,Q,Q
2023-03-15 12:16:05:858,0,0.738545,-3.54893,-25.8282,Q,Q
2023-03-15 12:16:05:868,0,0.708404,-3.5599,-25.9222,Q,Q
2023-03-15 12:16:05:878,0,0.688225,-3.56814,-26.0154,Q,Q
2023-03-15 12:16:05:888,0,0.665106,-3.57602,-26.1016,Q,Q
2023-03-15 12:16:05:898,0,0.634721,-3.5811,-26.186,Q,Q
2023-03-15 12:16:05:908,0,0.597734,-3.58666,-26.2674,Q,Q
2023-03-15 12:16:05:918,0,0.560609,-3.59047,-26.3462,Q,Q
2023-03-15 12:16:05:928,0,0.529867,-3.59506,-26.4241,Q,Q
2023-03-15 12:16:05:938,0,0.502176,-3.59753,-26.4951,Q,Q
2023-03-15 12:16:05:948,0,0.472276,-3.60196,-26.5615,Q,Q
2023-03-15 12:16:05:958,0,0.447554,-3.60163,-26.6221,Q,Q
