Timestamp_cmd,imu_cmd,roll_delta,pitch_delta,yaw_delta,voice_type,voice_length
2023-03-15 21:09:02:936,0,-54.2389,2.21179,134.408,Q,Q
2023-03-15 21:09:02:945,0,-54.2397,2.21165,134.406,Q,Q
2023-03-15 21:09:02:955,0,-54.2399,2.21256,134.404,Q,Q
2023-03-15 21:09:02:965,0,-54.2388,2.21231,134.405,Q,Q
2023-03-15 21:09:02:975,0,-54.2393,2.21127,134.402,Q,Q
2023-03-15 21:09:02:985,0,-54.241,2.21152,134.403,Q,Q
2023-03-15 21:09:02:995,0,-54.2405,2.21372,134.402,Q,Q
2023-03-15 21:09:03:5,0,-54.2372,2.21562,134.401,Q,Q
2023-03-15 21:09:03:15,0,-54.2374,2.21707,134.4,Q,Q
2023-03-15 21:09:03:25,0,-54.2399,2.21731,134.403,Q,Q
2023-03-15 21:09:03:35,0,-54.2416,2.21809,134.398,Q,Q
2023-03-15 21:09:03:45,0,-54.2418,2.21787,134.397,Q,Q
2023-03-15 21:09:03:55,0,-54.2371,2.21824,134.395,Q,Q
2023-03-15 21:09:03:65,0,-54.2318,2.2158,134.395,Q,Q
2023-03-15 21:09:03:75,0,-54.2341,2.21906,134.394,Q,Q
2023-03-15 21:09:03:85,0,-54.2365,2.22087,134.395,Q,Q
2023-03-15 21:09:03:95,0,-54.2362,2.22032,134.392,Q,Q
2023-03-15 21:09:03:105,0,-54.235,2.21905,134.394,Q,Q
2023-03-15 21:09:03:115,0,-54.2352,2.21859,134.391,Q,Q
2023-03-15 21:09:03:125,0,-54.2392,2.21922,134.39,Q,Q
2023-03-15 21:09:03:135,0,-54.2403,2.21994,134.391,Q,Q
2023-03-15 21:09:03:145,0,-54.2412,2.22005,134.389,Q,Q
2023-03-15 21:09:03:155,0,-54.2431,2.22153,134.389,Q,Q
2023-03-15 21:09:03:165,0,-54.2404,2.22245,134.39,Q,Q
2023-03-15 21:09:03:175,0,-54.2421,2.22301,134.388,Q,Q
2023-03-15 21:09:03:185,0,-54.2413,2.22358,134.387,Q,Q
2023-03-15 21:09:03:195,0,-54.2444,2.22779,134.387,Q,Q
2023-03-15 21:09:03:205,0,-54.2426,2.22847,134.387,Q,Q
2023-03-15 21:09:03:215,0,-54.2414,2.22958,134.385,Q,Q
2023-03-15 21:09:03:225,0,-54.2397,2.23084,134.383,Q,Q
2023-03-15 21:09:03:235,0,-54.2392,2.22999,134.383,Q,Q
2023-03-15 21:09:03:245,0,-54.239,2.22959,134.383,Q,Q
2023-03-15 21:09:03:255,0,-54.235,2.23348,134.385,Q,Q
2023-03-15 21:09:03:265,0,-54.2354,2.23604,134.384,Q,Q
2023-03-15 21:09:03:275,0,-54.2366,2.23455,134.385,Q,Q
2023-03-15 21:09:03:285,0,-54.2353,2.23449,134.388,Q,Q
2023-03-15 21:09:03:295,0,-54.2375,2.23483,134.388,Q,Q
2023-03-15 21:09:03:305,0,-54.2366,2.23469,134.389,Q,Q
2023-03-15 21:09:03:315,0,-54.2382,2.2359,134.387,Q,Q
2023-03-15 21:09:03:325,0,-54.2344,2.23435,134.389,Q,Q
2023-03-15 21:09:03:335,0,-54.2349,2.23463,134.389,Q,Q
2023-03-15 21:09:03:345,0,-54.2331,2.23349,134.39,Q,Q
2023-03-15 21:09:03:355,0,-54.229,2.23343,134.395,Q,Q
2023-03-15 21:09:03:365,0,-54.2284,2.23392,134.395,Q,Q
2023-03-15 21:09:03:375,0,-54.2289,2.23656,134.396,Q,Q
2023-03-15 21:09:03:385,0,-54.2315,2.23706,134.395,Q,Q
2023-03-15 21:09:03:395,0,-54.2323,2.23456,134.395,Q,Q
2023-03-15 21:09:03:405,0,-54.2318,2.23655,134.398,Q,Q
2023-03-15 21:09:03:415,0,-54.2331,2.23791,134.397,Q,Q
2023-03-15 21:09:03:425,0,-54.231,2.23919,134.396,Q,Q
2023-03-15 21:09:03:435,0,-54.2311,2.23569,134.396,Q,Q
2023-03-15 21:09:03:445,0,-54.2316,2.23529,134.402,Q,Q
2023-03-15 21:09:03:455,0,-54.2363,2.23685,134.401,Q,Q
2023-03-15 21:09:03:465,0,-54.2367,2.23906,134.399,Q,Q
2023-03-15 21:09:03:475,0,-54.2368,2.23724,134.398,Q,Q
2023-03-15 21:09:03:485,0,-54.2343,2.23642,134.4,Q,Q
2023-03-15 21:09:03:495,0,-54.2353,2.23565,134.402,Q,Q
2023-03-15 21:09:03:505,0,-54.2356,2.23507,134.403,Q,Q
2023-03-15 21:09:03:515,0,-54.2354,2.23654,134.404,Q,Q
2023-03-15 21:09:03:525,0,-54.2381,2.23565,134.405,Q,Q
2023-03-15 21:09:03:535,0,-54.2372,2.2398,134.405,Q,Q
2023-03-15 21:09:03:545,0,-54.2358,2.24333,134.405,Q,Q
2023-03-15 21:09:03:554,0,-54.235,2.2429,134.404,Q,Q
2023-03-15 21:09:03:564,0,-54.2358,2.24193,134.402,Q,Q
2023-03-15 21:09:03:575,0,-54.235,2.24255,134.399,Q,Q
2023-03-15 21:09:03:584,0,-54.2381,2.24322,134.399,Q,Q
2023-03-15 21:09:03:595,0,-54.2401,2.24168,134.399,Q,Q
2023-03-15 21:09:03:604,0,-54.2374,2.24353,134.398,Q,Q
2023-03-15 21:09:03:615,0,-54.2385,2.24202,134.396,Q,Q
2023-03-15 21:09:03:625,0,-54.2377,2.2424,134.394,Q,Q
2023-03-15 21:09:03:635,0,-54.2365,2.24444,134.392,Q,Q
2023-03-15 21:09:03:645,0,-54.2369,2.24572,134.393,Q,Q
2023-03-15 21:09:03:655,0,-54.2397,2.245,134.394,Q,Q
2023-03-15 21:09:03:665,0,-54.2391,2.24468,134.392,Q,Q
2023-03-15 21:09:03:675,0,-54.2378,2.24536,134.391,Q,Q
2023-03-15 21:09:03:685,0,-54.2367,2.24199,134.389,Q,Q
2023-03-15 21:09:03:694,0,-54.2364,2.24123,134.39,Q,Q
2023-03-15 21:09:03:704,0,-54.237,2.23995,134.39,Q,Q
2023-03-15 21:09:03:714,0,-54.2361,2.23883,134.388,Q,Q
2023-03-15 21:09:03:724,0,-54.2389,2.23854,134.388,Q,Q
2023-03-15 21:09:03:735,0,-54.2416,2.23988,134.389,Q,Q
2023-03-15 21:09:03:744,0,-54.2422,2.23833,134.392,Q,Q
2023-03-15 21:09:03:755,0,-54.2435,2.2418,134.394,Q,Q
2023-03-15 21:09:03:765,0,-54.2407,2.24151,134.396,Q,Q
2023-03-15 21:09:03:775,0,-54.241,2.24147,134.398,Q,Q
2023-03-15 21:09:03:785,0,-54.2375,2.24033,134.399,Q,Q
2023-03-15 21:09:03:795,0,-54.236,2.23652,134.399,Q,Q
2023-03-15 21:09:03:805,0,-54.2344,2.23475,134.401,Q,Q
2023-03-15 21:09:03:815,0,-54.2322,2.23393,134.4,Q,Q
2023-03-15 21:09:03:825,0,-54.2306,2.23447,134.403,Q,Q
2023-03-15 21:09:03:835,0,-54.2312,2.23257,134.401,Q,Q
2023-03-15 21:09:03:845,0,-54.2323,2.2346,134.398,Q,Q
2023-03-15 21:09:03:855,0,-54.2319,2.2312,134.397,Q,Q
2023-03-15 21:09:03:865,0,-54.2299,2.23257,134.396,Q,Q
2023-03-15 21:09:03:875,0,-54.2309,2.2301,134.396,Q,Q
2023-03-15 21:09:03:885,0,-54.229,2.22917,134.399,Q,Q
2023-03-15 21:09:03:895,0,-54.2293,2.2279,134.4,Q,Q
2023-03-15 21:09:03:905,0,-54.2294,2.23015,134.398,Q,Q
2023-03-15 21:09:03:915,0,-54.2316,2.22948,134.398,Q,Q
2023-03-15 21:09:03:925,0,-54.2327,2.22675,134.396,Q,Q
2023-03-15 21:09:03:935,0,-54.2341,2.22858,134.397,Q,Q
2023-03-15 21:09:03:945,0,-54.2341,2.22914,134.394,Q,Q
2023-03-15 21:09:03:955,0,-54.2358,2.23105,134.39,Q,Q
2023-03-15 21:09:03:965,0,-54.2387,2.2353,134.387,Q,Q
2023-03-15 21:09:03:975,0,-54.2405,2.23546,134.39,Q,Q
2023-03-15 21:09:03:985,0,-54.2422,2.23445,134.388,Q,Q
2023-03-15 21:09:03:995,0,-54.2469,2.23461,134.386,Q,Q
2023-03-15 21:09:04:5,0,-54.2489,2.23169,134.385,Q,Q
2023-03-15 21:09:04:15,0,-54.2479,2.23056,134.386,Q,Q
2023-03-15 21:09:04:25,0,-54.2492,2.22925,134.385,Q,Q
2023-03-15 21:09:04:35,0,-54.25,2.23144,134.387,Q,Q
2023-03-15 21:09:04:45,0,-54.252,2.23216,134.389,Q,Q
2023-03-15 21:09:04:55,0,-54.2494,2.23246,134.391,Q,Q
2023-03-15 21:09:04:65,0,-54.2484,2.23451,134.39,Q,Q
2023-03-15 21:09:04:75,0,-54.247,2.23645,134.388,Q,Q
2023-03-15 21:09:04:85,0,-54.2496,2.23818,134.387,Q,Q
2023-03-15 21:09:04:95,0,-54.248,2.2394,134.389,Q,Q
2023-03-15 21:09:04:104,0,-54.2481,2.23829,134.389,Q,Q
2023-03-15 21:09:04:115,0,-54.2485,2.23697,134.39,Q,Q
2023-03-15 21:09:04:125,0,-54.2476,2.23735,134.391,Q,Q
2023-03-15 21:09:04:135,0,-54.2469,2.23823,134.393,Q,Q
2023-03-15 21:09:04:145,0,-54.2431,2.23514,134.396,Q,Q
2023-03-15 21:09:04:154,0,-54.241,2.23211,134.393,Q,Q
2023-03-15 21:09:04:165,0,-54.2404,2.23056,134.395,Q,Q
2023-03-15 21:09:04:175,0,-54.2414,2.23259,134.395,Q,Q
2023-03-15 21:09:04:185,0,-54.2428,2.23527,134.394,Q,Q
2023-03-15 21:09:04:195,0,-54.2425,2.23467,134.397,Q,Q
2023-03-15 21:09:04:205,0,-54.2429,2.23539,134.399,Q,Q
2023-03-15 21:09:04:215,0,-54.2414,2.23068,134.398,Q,Q
2023-03-15 21:09:04:225,0,-54.2392,2.23589,134.395,Q,Q
2023-03-15 21:09:04:235,0,-54.2402,2.23209,134.394,Q,Q
2023-03-15 21:09:04:245,0,-54.2381,2.23295,134.395,Q,Q
2023-03-15 21:09:04:255,0,-54.2375,2.23237,134.398,Q,Q
2023-03-15 21:09:04:265,0,-54.2401,2.23664,134.399,Q,Q
2023-03-15 21:09:04:275,0,-54.2414,2.23854,134.401,Q,Q
2023-03-15 21:09:04:285,0,-54.2428,2.23733,134.4,Q,Q
2023-03-15 21:09:04:295,0,-54.243,2.23517,134.402,Q,Q
2023-03-15 21:09:04:305,0,-54.2453,2.23466,134.404,Q,Q
2023-03-15 21:09:04:315,0,-54.2481,2.23461,134.403,Q,Q
2023-03-15 21:09:04:325,0,-54.2467,2.2333,134.401,Q,Q
2023-03-15 21:09:04:335,0,-54.2477,2.22991,134.4,Q,Q
2023-03-15 21:09:04:345,0,-54.2498,2.23288,134.401,Q,Q
2023-03-15 21:09:04:355,0,-54.2501,2.23286,134.401,Q,Q
2023-03-15 21:09:04:365,0,-54.2513,2.2362,134.401,Q,Q
2023-03-15 21:09:04:375,0,-54.2518,2.23349,134.402,Q,Q
2023-03-15 21:09:04:385,0,-54.2501,2.23191,134.404,Q,Q
2023-03-15 21:09:04:395,0,-54.2492,2.231,134.402,Q,Q
2023-03-15 21:09:04:405,0,-54.2474,2.23278,134.403,Q,Q
2023-03-15 21:09:04:415,0,-54.2469,2.23217,134.403,Q,Q
2023-03-15 21:09:04:425,0,-54.2477,2.22999,134.405,Q,Q
2023-03-15 21:09:04:435,0,-54.2491,2.23148,134.407,Q,Q
2023-03-15 21:09:04:445,0,-54.2507,2.23084,134.407,Q,Q
2023-03-15 21:09:04:455,0,-54.2496,2.22977,134.407,Q,Q
2023-03-15 21:09:04:465,0,-54.2528,2.23196,134.409,Q,Q
2023-03-15 21:09:04:475,0,-54.2545,2.22924,134.411,Q,Q
2023-03-15 21:09:04:485,0,-54.2534,2.22813,134.411,Q,Q
2023-03-15 21:09:04:495,0,-54.2545,2.23186,134.411,Q,Q
2023-03-15 21:09:04:505,0,-54.2552,2.23191,134.411,Q,Q
2023-03-15 21:09:04:515,0,-54.2568,2.23239,134.411,Q,Q
2023-03-15 21:09:04:525,0,-54.258,2.23354,134.408,Q,Q
2023-03-15 21:09:04:535,0,-54.2604,2.23307,134.411,Q,Q
2023-03-15 21:09:04:545,0,-54.261,2.23248,134.41,Q,Q
2023-03-15 21:09:04:555,0,-54.2609,2.23337,134.41,Q,Q
2023-03-15 21:09:04:565,0,-54.2596,2.23209,134.412,Q,Q
2023-03-15 21:09:04:575,0,-54.2603,2.22956,134.41,Q,Q
2023-03-15 21:09:04:585,0,-54.2635,2.22644,134.41,Q,Q
2023-03-15 21:09:04:595,0,-54.2601,2.22818,134.409,Q,Q
2023-03-15 21:09:04:605,0,-54.2617,2.22898,134.408,Q,Q
2023-03-15 21:09:04:615,0,-54.2617,2.22792,134.409,Q,Q
2023-03-15 21:09:04:625,0,-54.2604,2.23103,134.408,Q,Q
2023-03-15 21:09:04:635,0,-54.2616,2.22953,134.407,Q,Q
2023-03-15 21:09:04:645,0,-54.2606,2.22865,134.409,Q,Q
2023-03-15 21:09:04:655,0,-54.2605,2.22667,134.406,Q,Q
2023-03-15 21:09:04:665,0,-54.2577,2.22836,134.405,Q,Q
2023-03-15 21:09:04:675,0,-54.26,2.22646,134.409,Q,Q
2023-03-15 21:09:04:685,0,-54.2604,2.23019,134.411,Q,Q
2023-03-15 21:09:04:695,0,-54.2596,2.23262,134.414,Q,Q
2023-03-15 21:09:04:705,0,-54.2572,2.2346,134.41,Q,Q
2023-03-15 21:09:04:715,0,-54.2559,2.23875,134.411,Q,Q
2023-03-15 21:09:04:725,0,-54.2556,2.23691,134.414,Q,Q
2023-03-15 21:09:04:735,0,-54.2567,2.23616,134.417,Q,Q
2023-03-15 21:09:04:745,0,-54.2592,2.23786,134.415,Q,Q
2023-03-15 21:09:04:755,0,-54.2611,2.23986,134.414,Q,Q
2023-03-15 21:09:04:765,0,-54.2627,2.24152,134.414,Q,Q
2023-03-15 21:09:04:775,0,-54.2658,2.24203,134.411,Q,Q
2023-03-15 21:09:04:785,0,-54.2676,2.24172,134.41,Q,Q
2023-03-15 21:09:04:795,0,-54.2694,2.23691,134.41,Q,Q
2023-03-15 21:09:04:805,0,-54.2678,2.23299,134.411,Q,Q
2023-03-15 21:09:04:815,0,-54.2674,2.23444,134.409,Q,Q
2023-03-15 21:09:04:825,0,-54.2668,2.23557,134.407,Q,Q
2023-03-15 21:09:04:835,0,-54.2723,2.2393,134.404,Q,Q
2023-03-15 21:09:04:845,0,-54.2737,2.24016,134.403,Q,Q
2023-03-15 21:09:04:855,0,-54.2726,2.24276,134.403,Q,Q
2023-03-15 21:09:04:865,0,-54.275,2.24033,134.401,Q,Q
2023-03-15 21:09:04:875,0,-54.2777,2.24111,134.402,Q,Q
2023-03-15 21:09:04:885,0,-54.2794,2.23811,134.401,Q,Q
2023-03-15 21:09:04:895,0,-54.2805,2.23589,134.399,Q,Q
2023-03-15 21:09:04:905,0,-54.278,2.23765,134.397,Q,Q
2023-03-15 21:09:04:915,0,-54.2723,2.24305,134.397,Q,Q
2023-03-15 21:09:04:925,0,-54.2702,2.24333,134.397,Q,Q
2023-03-15 21:09:04:935,0,-54.2681,2.2403,134.398,Q,Q
2023-03-15 21:09:04:945,0,-54.2683,2.24464,134.396,Q,Q
2023-03-15 21:09:04:955,0,-54.265,2.2516,134.393,Q,Q
2023-03-15 21:09:04:965,0,-54.2678,2.24899,134.395,Q,Q
2023-03-15 21:09:04:975,0,-54.2685,2.25032,134.398,Q,Q
2023-03-15 21:09:04:985,0,-54.2693,2.24943,134.403,Q,Q
2023-03-15 21:09:04:995,0,-54.2725,2.25053,134.402,Q,Q
2023-03-15 21:09:05:5,0,-54.2703,2.24954,134.4,Q,Q
2023-03-15 21:09:05:15,0,-54.2716,2.24715,134.399,Q,Q
2023-03-15 21:09:05:25,0,-54.2787,2.24545,134.398,Q,Q
2023-03-15 21:09:05:35,0,-54.2789,2.24566,134.395,Q,Q
2023-03-15 21:09:05:45,0,-54.2769,2.24731,134.393,Q,Q
2023-03-15 21:09:05:55,0,-54.277,2.24526,134.393,Q,Q
2023-03-15 21:09:05:65,0,-54.2803,2.24173,134.392,Q,Q
2023-03-15 21:09:05:75,0,-54.2882,2.23575,134.393,Q,Q
2023-03-15 21:09:05:85,0,-54.2887,2.23722,134.395,Q,Q
2023-03-15 21:09:05:95,0,-54.2848,2.23815,134.395,Q,Q
2023-03-15 21:09:05:105,0,-54.2818,2.24045,134.393,Q,Q
2023-03-15 21:09:05:115,0,-54.2838,2.24296,134.396,Q,Q
2023-03-15 21:09:05:125,0,-54.2841,2.23983,134.397,Q,Q
2023-03-15 21:09:05:135,0,-54.2868,2.23823,134.396,Q,Q
2023-03-15 21:09:05:145,0,-54.2863,2.23817,134.395,Q,Q
2023-03-15 21:09:05:155,0,-54.2863,2.24068,134.396,Q,Q
2023-03-15 21:09:05:165,0,-54.2872,2.24155,134.397,Q,Q
2023-03-15 21:09:05:175,0,-54.2863,2.23815,134.396,Q,Q
2023-03-15 21:09:05:185,0,-54.29,2.2351,134.399,Q,Q
2023-03-15 21:09:05:195,0,-54.2886,2.2329,134.401,Q,Q
2023-03-15 21:09:05:205,0,-54.2851,2.23457,134.4,Q,Q
2023-03-15 21:09:05:215,0,-54.2788,2.23742,134.402,Q,Q
2023-03-15 21:09:05:225,0,-54.2816,2.23867,134.403,Q,Q
2023-03-15 21:09:05:235,0,-54.2802,2.24154,134.403,Q,Q
2023-03-15 21:09:05:245,0,-54.2839,2.24149,134.403,Q,Q
2023-03-15 21:09:05:255,0,-54.2847,2.24217,134.402,Q,Q
2023-03-15 21:09:05:265,0,-54.2835,2.24226,134.402,Q,Q
2023-03-15 21:09:05:275,0,-54.2841,2.24212,134.4,Q,Q
2023-03-15 21:09:05:285,0,-54.2838,2.24193,134.402,Q,Q
2023-03-15 21:09:05:295,0,-54.2756,2.24469,134.405,Q,Q
2023-03-15 21:09:05:305,0,-54.2762,2.24457,134.402,Q,Q
2023-03-15 21:09:05:315,0,-54.2775,2.2433,134.404,Q,Q
2023-03-15 21:09:05:325,0,-54.2763,2.2425,134.401,Q,Q
2023-03-15 21:09:05:335,0,-54.2771,2.24395,134.399,Q,Q
2023-03-15 21:09:05:345,0,-54.2759,2.24504,134.399,Q,Q
2023-03-15 21:09:05:355,0,-54.272,2.24767,134.402,Q,Q
2023-03-15 21:09:05:365,0,-54.2692,2.2496,134.402,Q,Q
2023-03-15 21:09:05:375,0,-54.2686,2.24871,134.404,Q,Q
2023-03-15 21:09:05:385,0,-54.268,2.2482,134.402,Q,Q
2023-03-15 21:09:05:395,0,-54.2674,2.24675,134.4,Q,Q
2023-03-15 21:09:05:405,0,-54.2658,2.24536,134.401,Q,Q
2023-03-15 21:09:05:415,0,-54.2644,2.24659,134.402,Q,Q
2023-03-15 21:09:05:425,0,-54.2657,2.24631,134.404,Q,Q
2023-03-15 21:09:05:435,0,-54.2675,2.24736,134.403,Q,Q
2023-03-15 21:09:05:445,0,-54.2669,2.24891,134.403,Q,Q
2023-03-15 21:09:05:455,0,-54.2703,2.24644,134.405,Q,Q
2023-03-15 21:09:05:465,0,-54.2664,2.24342,134.405,Q,Q
2023-03-15 21:09:05:475,0,-54.2639,2.24081,134.403,Q,Q
2023-03-15 21:09:05:485,0,-54.2622,2.24223,134.401,Q,Q
2023-03-15 21:09:05:495,0,-54.2671,2.24133,134.403,Q,Q
2023-03-15 21:09:05:505,0,-54.2669,2.24335,134.403,Q,Q
2023-03-15 21:09:05:515,0,-54.2667,2.24438,134.405,Q,Q
2023-03-15 21:09:05:525,0,-54.2658,2.24497,134.408,Q,Q
2023-03-15 21:09:05:535,0,-54.2658,2.2448,134.407,Q,Q
2023-03-15 21:09:05:545,0,-54.2657,2.24579,134.408,Q,Q
2023-03-15 21:09:05:555,0,-54.2664,2.24502,134.41,Q,Q
2023-03-15 21:09:05:565,0,-54.2726,2.24322,134.408,Q,Q
2023-03-15 21:09:05:575,0,-54.2705,2.24389,134.407,Q,Q
2023-03-15 21:09:05:585,0,-54.2752,2.24248,134.405,Q,Q
2023-03-15 21:09:05:595,0,-54.2752,2.24512,134.405,Q,Q
2023-03-15 21:09:05:604,0,-54.277,2.24648,134.406,Q,Q
2023-03-15 21:09:05:614,0,-54.2736,2.25009,134.411,Q,Q
2023-03-15 21:09:05:625,0,-54.2783,2.24775,134.41,Q,Q
2023-03-15 21:09:05:635,0,-54.2744,2.25019,134.412,Q,Q
2023-03-15 21:09:05:645,0,-54.2776,2.24865,134.413,Q,Q
2023-03-15 21:09:05:655,0,-54.2753,2.24987,134.413,Q,Q
2023-03-15 21:09:05:665,0,-54.2709,2.2525,134.412,Q,Q
2023-03-15 21:09:05:675,0,-54.2731,2.25297,134.414,Q,Q
2023-03-15 21:09:05:685,0,-54.2728,2.25058,134.413,Q,Q
2023-03-15 21:09:05:695,0,-54.275,2.24921,134.413,Q,Q
2023-03-15 21:09:05:705,0,-54.2746,2.24951,134.415,Q,Q
2023-03-15 21:09:05:715,0,-54.274,2.24995,134.412,Q,Q
2023-03-15 21:09:05:725,0,-54.2719,2.25303,134.413,Q,Q
2023-03-15 21:09:05:735,0,-54.2734,2.25238,134.413,Q,Q
2023-03-15 21:09:05:745,0,-54.2746,2.25166,134.415,Q,Q
2023-03-15 21:09:05:755,0,-54.277,2.25036,134.415,Q,Q
2023-03-15 21:09:05:765,0,-54.2778,2.24808,134.415,Q,Q
2023-03-15 21:09:05:775,0,-54.2747,2.24927,134.416,Q,Q
2023-03-15 21:09:05:785,0,-54.2749,2.24831,134.418,Q,Q
2023-03-15 21:09:05:795,0,-54.2747,2.25026,134.415,Q,Q
2023-03-15 21:09:05:805,0,-54.2759,2.25183,134.414,Q,Q
2023-03-15 21:09:05:815,0,-54.277,2.25057,134.415,Q,Q
2023-03-15 21:09:05:825,0,-54.2756,2.25014,134.414,Q,Q
2023-03-15 21:09:05:835,0,-54.2781,2.24862,134.411,Q,Q
2023-03-15 21:09:05:845,0,-54.2784,2.24918,134.41,Q,Q
2023-03-15 21:09:05:855,0,-54.2764,2.24996,134.407,Q,Q
2023-03-15 21:09:05:865,0,-54.2747,2.25139,134.406,Q,Q
2023-03-15 21:09:05:875,0,-54.2743,2.24947,134.408,Q,Q
2023-03-15 21:09:05:885,0,-54.2743,2.24834,134.405,Q,Q
2023-03-15 21:09:05:895,0,-54.2743,2.25224,134.405,Q,Q
2023-03-15 21:09:05:905,0,-54.276,2.25025,134.407,Q,Q
2023-03-15 21:09:05:915,0,-54.2786,2.24984,134.408,Q,Q
2023-03-15 21:09:05:925,0,-54.2801,2.24988,134.409,Q,Q
2023-03-15 21:09:05:935,0,-54.2769,2.24833,134.409,Q,Q
2023-03-15 21:09:05:945,0,-54.2772,2.24654,134.409,Q,Q
2023-03-15 21:09:05:955,0,-54.2751,2.24698,134.407,Q,Q
2023-03-15 21:09:05:965,0,-54.2739,2.24384,134.408,Q,Q
2023-03-15 21:09:05:975,0,-54.2744,2.2433,134.407,Q,Q
2023-03-15 21:09:05:985,0,-54.2712,2.24374,134.407,Q,Q
2023-03-15 21:09:05:995,0,-54.2667,2.24582,134.408,Q,Q
2023-03-15 21:09:06:5,0,-54.2661,2.24664,134.408,Q,Q
2023-03-15 21:09:06:15,0,-54.266,2.24576,134.409,Q,Q
2023-03-15 21:09:06:25,0,-54.266,2.24642,134.409,Q,Q
2023-03-15 21:09:06:35,0,-54.2639,2.24521,134.409,Q,Q
2023-03-15 21:09:06:45,0,-54.2632,2.24295,134.409,Q,Q
2023-03-15 21:09:06:55,0,-54.2608,2.24393,134.41,Q,Q
2023-03-15 21:09:06:65,0,-54.26,2.24354,134.409,Q,Q
2023-03-15 21:09:06:75,0,-54.2589,2.24331,134.409,Q,Q
2023-03-15 21:09:06:85,0,-54.2586,2.24363,134.41,Q,Q
2023-03-15 21:09:06:95,0,-54.2576,2.2434,134.408,Q,Q
2023-03-15 21:09:06:105,0,-54.2587,2.24353,134.408,Q,Q
2023-03-15 21:09:06:115,0,-54.2594,2.24387,134.408,Q,Q
2023-03-15 21:09:06:125,0,-54.2608,2.24318,134.408,Q,Q
2023-03-15 21:09:06:135,0,-54.2634,2.24122,134.407,Q,Q
2023-03-15 21:09:06:145,0,-54.2677,2.24047,134.406,Q,Q
2023-03-15 21:09:06:155,0,-54.267,2.24091,134.407,Q,Q
2023-03-15 21:09:06:165,0,-54.2674,2.24173,134.409,Q,Q
2023-03-15 21:09:06:175,0,-54.2667,2.24239,134.41,Q,Q
2023-03-15 21:09:06:185,0,-54.2658,2.23917,134.413,Q,Q
2023-03-15 21:09:06:195,0,-54.2683,2.23906,134.415,Q,Q
2023-03-15 21:09:06:205,0,-54.2684,2.23418,134.412,Q,Q
2023-03-15 21:09:06:215,0,-54.2739,2.23367,134.41,Q,Q
2023-03-15 21:09:06:225,0,-54.2723,2.23821,134.412,Q,Q
2023-03-15 21:09:06:235,0,-54.2745,2.23907,134.412,Q,Q
2023-03-15 21:09:06:245,0,-54.2729,2.23606,134.412,Q,Q
2023-03-15 21:09:06:255,0,-54.2722,2.23835,134.413,Q,Q
2023-03-15 21:09:06:265,0,-54.273,2.23971,134.414,Q,Q
2023-03-15 21:09:06:275,0,-54.2729,2.23807,134.411,Q,Q
2023-03-15 21:09:06:285,0,-54.2741,2.23808,134.412,Q,Q
2023-03-15 21:09:06:295,0,-54.2739,2.2376,134.412,Q,Q
2023-03-15 21:09:06:305,0,-54.2749,2.23788,134.416,Q,Q
2023-03-15 21:09:06:315,0,-54.2724,2.23602,134.416,Q,Q
2023-03-15 21:09:06:325,0,-54.2681,2.23856,134.418,Q,Q
2023-03-15 21:09:06:335,0,-54.2677,2.23176,134.419,Q,Q
2023-03-15 21:09:06:345,0,-54.2669,2.23265,134.416,Q,Q
2023-03-15 21:09:06:355,0,-54.2675,2.23446,134.417,Q,Q
2023-03-15 21:09:06:365,0,-54.269,2.23521,134.415,Q,Q
2023-03-15 21:09:06:375,0,-54.2709,2.23379,134.414,Q,Q
2023-03-15 21:09:06:385,0,-54.2672,2.23254,134.417,Q,Q
2023-03-15 21:09:06:395,0,-54.2674,2.23115,134.418,Q,Q
2023-03-15 21:09:06:405,0,-54.2674,2.22966,134.418,Q,Q
2023-03-15 21:09:06:415,0,-54.2656,2.22949,134.419,Q,Q
2023-03-15 21:09:06:425,0,-54.2637,2.23057,134.416,Q,Q
2023-03-15 21:09:06:435,0,-54.2639,2.23028,134.414,Q,Q
2023-03-15 21:09:06:445,0,-54.2634,2.22888,134.414,Q,Q
2023-03-15 21:09:06:455,0,-54.2625,2.22833,134.412,Q,Q
2023-03-15 21:09:06:465,0,-54.2624,2.22778,134.412,Q,Q
2023-03-15 21:09:06:475,0,-54.265,2.22268,134.412,Q,Q
2023-03-15 21:09:06:485,0,-54.2654,2.22314,134.414,Q,Q
2023-03-15 21:09:06:495,0,-54.2657,2.22454,134.415,Q,Q
2023-03-15 21:09:06:505,0,-54.2657,2.22846,134.416,Q,Q
2023-03-15 21:09:06:515,0,-54.264,2.22716,134.414,Q,Q
2023-03-15 21:09:06:525,0,-54.2669,2.23001,134.414,Q,Q
2023-03-15 21:09:06:535,0,-54.268,2.2293,134.415,Q,Q
2023-03-15 21:09:06:545,0,-54.2711,2.22666,134.416,Q,Q
2023-03-15 21:09:06:555,0,-54.2687,2.22813,134.419,Q,Q
2023-03-15 21:09:06:565,0,-54.269,2.22429,134.42,Q,Q
2023-03-15 21:09:06:575,0,-54.2697,2.22836,134.418,Q,Q
2023-03-15 21:09:06:585,0,-54.2697,2.22724,134.419,Q,Q
2023-03-15 21:09:06:595,0,-54.2697,2.22722,134.419,Q,Q
2023-03-15 21:09:06:605,0,-54.2686,2.22881,134.418,Q,Q
2023-03-15 21:09:06:615,0,-54.2693,2.2281,134.418,Q,Q
2023-03-15 21:09:06:624,0,-54.2682,2.22706,134.417,Q,Q
2023-03-15 21:09:06:635,0,-54.2713,2.22651,134.416,Q,Q
2023-03-15 21:09:06:645,0,-54.2682,2.22667,134.413,Q,Q
2023-03-15 21:09:06:655,0,-54.2675,2.22706,134.413,Q,Q
2023-03-15 21:09:06:665,0,-54.2679,2.22378,134.414,Q,Q
2023-03-15 21:09:06:675,0,-54.269,2.21942,134.414,Q,Q
2023-03-15 21:09:06:685,0,-54.2718,2.21825,134.413,Q,Q
2023-03-15 21:09:06:695,0,-54.2707,2.21992,134.411,Q,Q
2023-03-15 21:09:06:705,0,-54.2718,2.21945,134.411,Q,Q
2023-03-15 21:09:06:715,0,-54.2704,2.22028,134.41,Q,Q
2023-03-15 21:09:06:725,0,-54.2674,2.2194,134.411,Q,Q
2023-03-15 21:09:06:735,0,-54.2666,2.21643,134.412,Q,Q
2023-03-15 21:09:06:745,0,-54.2656,2.21605,134.413,Q,Q
2023-03-15 21:09:06:755,0,-54.2686,2.21659,134.413,Q,Q
2023-03-15 21:09:06:765,0,-54.2657,2.21554,134.416,Q,Q
2023-03-15 21:09:06:775,0,-54.2659,2.21735,134.414,Q,Q
2023-03-15 21:09:06:785,0,-54.2655,2.21765,134.414,Q,Q
2023-03-15 21:09:06:795,0,-54.2639,2.21859,134.414,Q,Q
2023-03-15 21:09:06:805,0,-54.263,2.21665,134.413,Q,Q
2023-03-15 21:09:06:815,0,-54.2638,2.21764,134.412,Q,Q
2023-03-15 21:09:06:825,0,-54.2643,2.21601,134.413,Q,Q
2023-03-15 21:09:06:835,0,-54.2655,2.2144,134.412,Q,Q
2023-03-15 21:09:06:845,0,-54.2666,2.21459,134.411,Q,Q
2023-03-15 21:09:06:855,0,-54.2628,2.21313,134.409,Q,Q
2023-03-15 21:09:06:865,0,-54.2639,2.21248,134.408,Q,Q
2023-03-15 21:09:06:875,0,-54.2633,2.21142,134.406,Q,Q
2023-03-15 21:09:06:885,0,-54.2606,2.20986,134.409,Q,Q
2023-03-15 21:09:06:895,0,-54.26,2.20817,134.41,Q,Q
2023-03-15 21:09:06:905,0,-54.259,2.21021,134.413,Q,Q
2023-03-15 21:09:06:915,0,-54.2575,2.21193,134.416,Q,Q
2023-03-15 21:09:06:925,0,-54.2553,2.21534,134.418,Q,Q
2023-03-15 21:09:06:935,0,-54.2565,2.21363,134.415,Q,Q
2023-03-15 21:09:06:945,0,-54.2567,2.21527,134.416,Q,Q
2023-03-15 21:09:06:955,0,-54.2582,2.21189,134.413,Q,Q
2023-03-15 21:09:06:965,0,-54.257,2.20868,134.41,Q,Q
2023-03-15 21:09:06:975,0,-54.2571,2.20917,134.411,Q,Q
2023-03-15 21:09:06:985,0,-54.2533,2.2092,134.412,Q,Q
2023-03-15 21:09:06:995,0,-54.255,2.20939,134.413,Q,Q
2023-03-15 21:09:07:5,0,-54.2506,2.20983,134.415,Q,Q
2023-03-15 21:09:07:15,0,-54.2507,2.2088,134.413,Q,Q
2023-03-15 21:09:07:25,0,-54.2513,2.2119,134.414,Q,Q
2023-03-15 21:09:07:35,0,-54.2521,2.21084,134.412,Q,Q
2023-03-15 21:09:07:45,0,-54.2519,2.20965,134.413,Q,Q
2023-03-15 21:09:07:55,0,-54.2511,2.2117,134.412,Q,Q
2023-03-15 21:09:07:65,0,-54.2488,2.20883,134.413,Q,Q
2023-03-15 21:09:07:75,0,-54.2486,2.20896,134.41,Q,Q
2023-03-15 21:09:07:85,0,-54.2494,2.20823,134.406,Q,Q
2023-03-15 21:09:07:95,0,-54.2457,2.2068,134.408,Q,Q
2023-03-15 21:09:07:105,0,-54.2435,2.20632,134.411,Q,Q
2023-03-15 21:09:07:115,0,-54.2426,2.20448,134.409,Q,Q
2023-03-15 21:09:07:125,0,-54.2405,2.20314,134.408,Q,Q
2023-03-15 21:09:07:135,0,-54.2397,2.20311,134.409,Q,Q
2023-03-15 21:09:07:145,0,-54.239,2.20496,134.407,Q,Q
2023-03-15 21:09:07:155,0,-54.238,2.20599,134.403,Q,Q
2023-03-15 21:09:07:165,0,-54.2367,2.20677,134.401,Q,Q
2023-03-15 21:09:07:175,0,-54.2369,2.20478,134.404,Q,Q
2023-03-15 21:09:07:185,0,-54.2377,2.20284,134.405,Q,Q
2023-03-15 21:09:07:195,0,-54.2382,2.20113,134.404,Q,Q
2023-03-15 21:09:07:205,0,-54.2391,2.20269,134.404,Q,Q
2023-03-15 21:09:07:215,0,-54.2341,2.20488,134.405,Q,Q
2023-03-15 21:09:07:225,0,-54.2352,2.20469,134.406,Q,Q
2023-03-15 21:09:07:235,0,-54.2328,2.20409,134.405,Q,Q
2023-03-15 21:09:07:245,0,-54.2289,2.20452,134.405,Q,Q
2023-03-15 21:09:07:255,0,-54.2291,2.20454,134.409,Q,Q
2023-03-15 21:09:07:265,0,-54.2269,2.20536,134.407,Q,Q
2023-03-15 21:09:07:275,0,-54.2286,2.20586,134.407,Q,Q
2023-03-15 21:09:07:285,0,-54.229,2.20581,134.406,Q,Q
2023-03-15 21:09:07:295,0,-54.2307,2.20522,134.403,Q,Q
2023-03-15 21:09:07:305,0,-54.2348,2.2014,134.4,Q,Q
2023-03-15 21:09:07:315,0,-54.2353,2.20268,134.398,Q,Q
2023-03-15 21:09:07:325,0,-54.2332,2.20154,134.401,Q,Q
2023-03-15 21:09:07:335,0,-54.2352,2.20275,134.402,Q,Q
2023-03-15 21:09:07:345,0,-54.234,2.20388,134.402,Q,Q
2023-03-15 21:09:07:355,0,-54.234,2.20354,134.402,Q,Q
2023-03-15 21:09:07:365,0,-54.2323,2.20552,134.399,Q,Q
2023-03-15 21:09:07:375,0,-54.232,2.20605,134.397,Q,Q
2023-03-15 21:09:07:385,0,-54.2281,2.20865,134.398,Q,Q
2023-03-15 21:09:07:395,0,-54.2255,2.20823,134.398,Q,Q
2023-03-15 21:09:07:405,0,-54.2243,2.20818,134.403,Q,Q
2023-03-15 21:09:07:415,0,-54.226,2.21259,134.403,Q,Q
2023-03-15 21:09:07:425,0,-54.2254,2.21439,134.401,Q,Q
2023-03-15 21:09:07:435,0,-54.2252,2.21311,134.4,Q,Q
2023-03-15 21:09:07:445,0,-54.2247,2.21375,134.4,Q,Q
2023-03-15 21:09:07:455,0,-54.2231,2.21574,134.399,Q,Q
2023-03-15 21:09:07:465,0,-54.2238,2.2155,134.401,Q,Q
2023-03-15 21:09:07:475,0,-54.226,2.2138,134.401,Q,Q
2023-03-15 21:09:07:485,0,-54.2221,2.21301,134.398,Q,Q
2023-03-15 21:09:07:495,0,-54.223,2.21279,134.397,Q,Q
2023-03-15 21:09:07:505,0,-54.2218,2.21049,134.396,Q,Q
2023-03-15 21:09:07:515,0,-54.2221,2.20814,134.393,Q,Q
2023-03-15 21:09:07:525,0,-54.2223,2.20564,134.392,Q,Q
2023-03-15 21:09:07:535,0,-54.2213,2.20496,134.391,Q,Q
2023-03-15 21:09:07:545,0,-54.2203,2.20541,134.393,Q,Q
2023-03-15 21:09:07:555,0,-54.2214,2.20795,134.396,Q,Q
2023-03-15 21:09:07:565,0,-54.2217,2.20771,134.397,Q,Q
2023-03-15 21:09:07:575,0,-54.2237,2.20792,134.398,Q,Q
2023-03-15 21:09:07:585,0,-54.2228,2.20986,134.397,Q,Q
2023-03-15 21:09:07:595,0,-54.2243,2.21208,134.401,Q,Q
2023-03-15 21:09:07:605,0,-54.2248,2.21118,134.403,Q,Q
2023-03-15 21:09:07:614,0,-54.2263,2.21157,134.402,Q,Q
2023-03-15 21:09:07:624,0,-54.2265,2.21357,134.405,Q,Q
2023-03-15 21:09:07:634,0,-54.2262,2.21373,134.404,Q,Q
2023-03-15 21:09:07:644,0,-54.2274,2.21305,134.405,Q,Q
2023-03-15 21:09:07:654,0,-54.2277,2.21383,134.405,Q,Q
2023-03-15 21:09:07:665,0,-54.2265,2.21396,134.404,Q,Q
2023-03-15 21:09:07:675,0,-54.2258,2.21151,134.406,Q,Q
2023-03-15 21:09:07:684,0,-54.2256,2.21054,134.406,Q,Q
2023-03-15 21:09:07:695,0,-54.2265,2.20704,134.404,Q,Q
2023-03-15 21:09:07:705,0,-54.2262,2.20736,134.404,Q,Q
2023-03-15 21:09:07:715,0,-54.2251,2.20528,134.401,Q,Q
2023-03-15 21:09:07:725,0,-54.2252,2.20302,134.399,Q,Q
2023-03-15 21:09:07:735,0,-54.2262,2.2027,134.4,Q,Q
2023-03-15 21:09:07:745,0,-54.2261,2.20225,134.401,Q,Q
2023-03-15 21:09:07:755,0,-54.2272,2.20276,134.403,Q,Q
2023-03-15 21:09:07:765,0,-54.231,2.2027,134.403,Q,Q
2023-03-15 21:09:07:775,0,-54.229,2.20075,134.399,Q,Q
2023-03-15 21:09:07:785,0,-54.2305,2.19732,134.4,Q,Q
2023-03-15 21:09:07:795,0,-54.2272,2.19583,134.398,Q,Q
2023-03-15 21:09:07:805,0,-54.231,2.19827,134.396,Q,Q
2023-03-15 21:09:07:815,0,-54.2323,2.19872,134.398,Q,Q
2023-03-15 21:09:07:825,0,-54.2335,2.19863,134.396,Q,Q
2023-03-15 21:09:07:835,0,-54.233,2.19848,134.4,Q,Q
2023-03-15 21:09:07:845,0,-54.2353,2.19674,134.401,Q,Q
2023-03-15 21:09:07:855,0,-54.2346,2.19778,134.4,Q,Q
2023-03-15 21:09:07:865,0,-54.2333,2.20001,134.4,Q,Q
2023-03-15 21:09:07:875,0,-54.2324,2.19897,134.397,Q,Q
2023-03-15 21:09:07:885,0,-54.235,2.19772,134.397,Q,Q
2023-03-15 21:09:07:895,0,-54.2341,2.19833,134.393,Q,Q
2023-03-15 21:09:07:905,0,-54.2364,2.19853,134.395,Q,Q
2023-03-15 21:09:07:915,0,-54.2369,2.1984,134.394,Q,Q
2023-03-15 21:09:07:925,0,-54.2336,2.19675,134.394,Q,Q
2023-03-15 21:09:07:935,0,-54.2334,2.19448,134.394,Q,Q
2023-03-15 21:09:07:945,0,-54.2345,2.1941,134.391,Q,Q
2023-03-15 21:09:07:955,0,-54.2337,2.19543,134.388,Q,Q
2023-03-15 21:09:07:965,0,-54.2379,2.19533,134.389,Q,Q
2023-03-15 21:09:07:975,0,-54.2389,2.19338,134.388,Q,Q
2023-03-15 21:09:07:985,0,-54.2394,2.19259,134.388,Q,Q
2023-03-15 21:09:07:995,0,-54.2396,2.19157,134.387,Q,Q
2023-03-15 21:09:08:5,0,-54.2405,2.19041,134.391,Q,Q
2023-03-15 21:09:08:15,0,-54.2439,2.19166,134.395,Q,Q
2023-03-15 21:09:08:25,0,-54.2426,2.19019,134.395,Q,Q
2023-03-15 21:09:08:35,0,-54.2441,2.18979,134.391,Q,Q
2023-03-15 21:09:08:45,0,-54.244,2.18925,134.391,Q,Q
2023-03-15 21:09:08:55,0,-54.2433,2.19186,134.393,Q,Q
2023-03-15 21:09:08:65,0,-54.2469,2.19394,134.391,Q,Q
2023-03-15 21:09:08:75,0,-54.2444,2.19577,134.388,Q,Q
2023-03-15 21:09:08:85,0,-54.2456,2.19317,134.391,Q,Q
2023-03-15 21:09:08:95,0,-54.2449,2.19516,134.391,Q,Q
2023-03-15 21:09:08:105,0,-54.2435,2.19475,134.391,Q,Q
2023-03-15 21:09:08:115,0,-54.2426,2.19465,134.392,Q,Q
2023-03-15 21:09:08:125,0,-54.2441,2.19554,134.395,Q,Q
2023-03-15 21:09:08:135,0,-54.2454,2.19608,134.392,Q,Q
2023-03-15 21:09:08:145,0,-54.2445,2.19528,134.391,Q,Q
2023-03-15 21:09:08:154,0,-54.2443,2.194,134.391,Q,Q
2023-03-15 21:09:08:164,0,-54.2458,2.19467,134.389,Q,Q
2023-03-15 21:09:08:175,0,-54.2454,2.19485,134.391,Q,Q
2023-03-15 21:09:08:185,0,-54.247,2.19289,134.393,Q,Q
2023-03-15 21:09:08:195,0,-54.248,2.19224,134.392,Q,Q
2023-03-15 21:09:08:205,0,-54.248,2.19381,134.391,Q,Q
2023-03-15 21:09:08:215,0,-54.244,2.19443,134.393,Q,Q
2023-03-15 21:09:08:225,0,-54.2425,2.19572,134.392,Q,Q
2023-03-15 21:09:08:235,0,-54.2386,2.19542,134.391,Q,Q
2023-03-15 21:09:08:245,0,-54.2392,2.19383,134.392,Q,Q
2023-03-15 21:09:08:255,0,-54.2414,2.19247,134.392,Q,Q
2023-03-15 21:09:08:265,0,-54.2447,2.19065,134.392,Q,Q
2023-03-15 21:09:08:275,0,-54.2436,2.18878,134.392,Q,Q
2023-03-15 21:09:08:285,0,-54.2445,2.18683,134.392,Q,Q
2023-03-15 21:09:08:295,0,-54.2443,2.18845,134.391,Q,Q
2023-03-15 21:09:08:305,0,-54.2454,2.18931,134.393,Q,Q
2023-03-15 21:09:08:315,0,-54.2455,2.19261,134.392,Q,Q
2023-03-15 21:09:08:325,0,-54.2472,2.19202,134.393,Q,Q
2023-03-15 21:09:08:335,0,-54.2439,2.18937,134.395,Q,Q
2023-03-15 21:09:08:345,0,-54.2444,2.19025,134.394,Q,Q
2023-03-15 21:09:08:355,0,-54.2406,2.19118,134.396,Q,Q
2023-03-15 21:09:08:365,0,-54.24,2.19152,134.394,Q,Q
2023-03-15 21:09:08:375,0,-54.2402,2.19046,134.397,Q,Q
2023-03-15 21:09:08:384,0,-54.2391,2.18908,134.397,Q,Q
2023-03-15 21:09:08:394,0,-54.2411,2.18981,134.395,Q,Q
2023-03-15 21:09:08:404,0,-54.2393,2.18736,134.395,Q,Q
2023-03-15 21:09:08:414,0,-54.2403,2.1835,134.394,Q,Q
2023-03-15 21:09:08:425,0,-54.239,2.18232,134.394,Q,Q
2023-03-15 21:09:08:435,0,-54.2395,2.18428,134.397,Q,Q
2023-03-15 21:09:08:445,0,-54.2381,2.18592,134.394,Q,Q
2023-03-15 21:09:08:455,0,-54.2376,2.18912,134.393,Q,Q
2023-03-15 21:09:08:465,0,-54.2371,2.19081,134.393,Q,Q
2023-03-15 21:09:08:475,0,-54.235,2.19144,134.393,Q,Q
2023-03-15 21:09:08:485,0,-54.2328,2.19278,134.39,Q,Q
2023-03-15 21:09:08:495,0,-54.2343,2.19135,134.39,Q,Q
2023-03-15 21:09:08:505,0,-54.2334,2.19002,134.392,Q,Q
2023-03-15 21:09:08:515,0,-54.2351,2.18712,134.394,Q,Q
2023-03-15 21:09:08:525,0,-54.2328,2.18534,134.396,Q,Q
2023-03-15 21:09:08:535,0,-54.2334,2.18352,134.398,Q,Q
2023-03-15 21:09:08:545,0,-54.2336,2.18363,134.401,Q,Q
2023-03-15 21:09:08:555,0,-54.2343,2.18038,134.402,Q,Q
2023-03-15 21:09:08:565,0,-54.2348,2.1804,134.401,Q,Q
2023-03-15 21:09:08:575,0,-54.2373,2.18077,134.401,Q,Q
2023-03-15 21:09:08:585,0,-54.2399,2.1813,134.402,Q,Q
2023-03-15 21:09:08:595,0,-54.2354,2.18313,134.401,Q,Q
2023-03-15 21:09:08:605,0,-54.2321,2.18286,134.405,Q,Q
2023-03-15 21:09:08:615,0,-54.23,2.18391,134.4,Q,Q
2023-03-15 21:09:08:625,0,-54.2309,2.18278,134.399,Q,Q
2023-03-15 21:09:08:635,0,-54.2279,2.18264,134.4,Q,Q
2023-03-15 21:09:08:645,0,-54.2281,2.18328,134.4,Q,Q
2023-03-15 21:09:08:655,0,-54.23,2.18665,134.4,Q,Q
2023-03-15 21:09:08:665,0,-54.2301,2.1888,134.399,Q,Q
2023-03-15 21:09:08:675,0,-54.2299,2.18893,134.402,Q,Q
2023-03-15 21:09:08:685,0,-54.2284,2.18892,134.401,Q,Q
2023-03-15 21:09:08:695,0,-54.2282,2.18717,134.402,Q,Q
2023-03-15 21:09:08:705,0,-54.2291,2.18475,134.403,Q,Q
2023-03-15 21:09:08:715,0,-54.2267,2.18706,134.404,Q,Q
2023-03-15 21:09:08:725,0,-54.2273,2.18438,134.405,Q,Q
2023-03-15 21:09:08:735,0,-54.2297,2.18662,134.404,Q,Q
2023-03-15 21:09:08:745,0,-54.234,2.18718,134.402,Q,Q
2023-03-15 21:09:08:755,0,-54.2362,2.18543,134.406,Q,Q
2023-03-15 21:09:08:765,0,-54.2353,2.18595,134.405,Q,Q
2023-03-15 21:09:08:775,0,-54.2356,2.18563,134.406,Q,Q
2023-03-15 21:09:08:785,0,-54.2367,2.18592,134.408,Q,Q
2023-03-15 21:09:08:795,0,-54.2398,2.18908,134.406,Q,Q
2023-03-15 21:09:08:805,0,-54.2408,2.19197,134.405,Q,Q
2023-03-15 21:09:08:815,0,-54.2413,2.19252,134.403,Q,Q
2023-03-15 21:09:08:825,0,-54.2389,2.19311,134.408,Q,Q
2023-03-15 21:09:08:835,0,-54.2405,2.19488,134.41,Q,Q
2023-03-15 21:09:08:845,0,-54.2397,2.19335,134.412,Q,Q
2023-03-15 21:09:08:855,0,-54.2377,2.19199,134.413,Q,Q
2023-03-15 21:09:08:865,0,-54.2399,2.18984,134.414,Q,Q
2023-03-15 21:09:08:875,0,-54.2405,2.19211,134.414,Q,Q
2023-03-15 21:09:08:884,0,-54.2428,2.19464,134.413,Q,Q
2023-03-15 21:09:08:895,0,-54.2426,2.19424,134.412,Q,Q
2023-03-15 21:09:08:905,0,-54.2413,2.19391,134.411,Q,Q
2023-03-15 21:09:08:915,0,-54.2404,2.19481,134.412,Q,Q
2023-03-15 21:09:08:925,0,-54.2405,2.19191,134.414,Q,Q
2023-03-15 21:09:08:935,0,-54.2429,2.19142,134.412,Q,Q
2023-03-15 21:09:08:945,0,-54.2399,2.18707,134.413,Q,Q
2023-03-15 21:09:08:955,0,-54.2412,2.18745,134.413,Q,Q
2023-03-15 21:09:08:965,0,-54.2414,2.18757,134.412,Q,Q
2023-03-15 21:09:08:974,0,-54.2458,2.18839,134.408,Q,Q
2023-03-15 21:09:08:985,0,-54.2454,2.18632,134.41,Q,Q
2023-03-15 21:09:08:995,0,-54.2429,2.18823,134.409,Q,Q
2023-03-15 21:09:09:5,0,-54.2422,2.1867,134.409,Q,Q
2023-03-15 21:09:09:15,0,-54.241,2.18349,134.406,Q,Q
2023-03-15 21:09:09:25,0,-54.2417,2.18304,134.408,Q,Q
2023-03-15 21:09:09:35,0,-54.2413,2.18467,134.408,Q,Q
2023-03-15 21:09:09:45,0,-54.2395,2.18611,134.409,Q,Q
2023-03-15 21:09:09:55,0,-54.2395,2.18356,134.411,Q,Q
2023-03-15 21:09:09:64,0,-54.2407,2.18446,134.409,Q,Q
2023-03-15 21:09:09:75,0,-54.2413,2.18602,134.411,Q,Q
2023-03-15 21:09:09:85,0,-54.2396,2.18613,134.411,Q,Q
2023-03-15 21:09:09:95,0,-54.2391,2.18739,134.412,Q,Q
2023-03-15 21:09:09:105,0,-54.2364,2.18594,134.409,Q,Q
2023-03-15 21:09:09:115,0,-54.2352,2.18621,134.411,Q,Q
2023-03-15 21:09:09:124,0,-54.2362,2.1865,134.413,Q,Q
2023-03-15 21:09:09:135,0,-54.2339,2.18588,134.413,Q,Q
2023-03-15 21:09:09:144,0,-54.231,2.18613,134.414,Q,Q
2023-03-15 21:09:09:155,0,-54.2308,2.18761,134.414,Q,Q
2023-03-15 21:09:09:165,0,-54.2298,2.18758,134.414,Q,Q
2023-03-15 21:09:09:174,0,-54.2288,2.18759,134.415,Q,Q
2023-03-15 21:09:09:184,0,-54.2285,2.18839,134.413,Q,Q
2023-03-15 21:09:09:194,0,-54.2278,2.18946,134.414,Q,Q
2023-03-15 21:09:09:205,0,-54.2305,2.1901,134.413,Q,Q
2023-03-15 21:09:09:215,0,-54.2296,2.19076,134.414,Q,Q
2023-03-15 21:09:09:224,0,-54.2289,2.19049,134.414,Q,Q
2023-03-15 21:09:09:235,0,-54.23,2.19208,134.415,Q,Q
2023-03-15 21:09:09:245,0,-54.2312,2.18748,134.415,Q,Q
2023-03-15 21:09:09:255,0,-54.2287,2.18656,134.414,Q,Q
2023-03-15 21:09:09:265,0,-54.2273,2.18978,134.414,Q,Q
2023-03-15 21:09:09:275,0,-54.2253,2.19048,134.413,Q,Q
2023-03-15 21:09:09:285,0,-54.2252,2.19046,134.413,Q,Q
2023-03-15 21:09:09:295,0,-54.2302,2.19025,134.412,Q,Q
2023-03-15 21:09:09:305,0,-54.2299,2.18861,134.411,Q,Q
2023-03-15 21:09:09:315,0,-54.2333,2.18808,134.41,Q,Q
2023-03-15 21:09:09:325,0,-54.2351,2.18784,134.413,Q,Q
2023-03-15 21:09:09:335,0,-54.2331,2.18602,134.413,Q,Q
2023-03-15 21:09:09:344,0,-54.235,2.1856,134.411,Q,Q
2023-03-15 21:09:09:355,0,-54.2355,2.18482,134.411,Q,Q
2023-03-15 21:09:09:365,0,-54.2357,2.18498,134.413,Q,Q
2023-03-15 21:09:09:375,0,-54.2383,2.1843,134.412,Q,Q
2023-03-15 21:09:09:385,0,-54.2386,2.1849,134.413,Q,Q
2023-03-15 21:09:09:395,0,-54.2383,2.18447,134.415,Q,Q
2023-03-15 21:09:09:405,0,-54.2391,2.18269,134.416,Q,Q
2023-03-15 21:09:09:415,0,-54.2402,2.18286,134.417,Q,Q
2023-03-15 21:09:09:425,0,-54.241,2.18336,134.417,Q,Q
2023-03-15 21:09:09:435,0,-54.2404,2.18384,134.418,Q,Q
2023-03-15 21:09:09:445,0,-54.2417,2.18803,134.417,Q,Q
2023-03-15 21:09:09:455,0,-54.2411,2.18882,134.417,Q,Q
2023-03-15 21:09:09:465,0,-54.2404,2.19004,134.42,Q,Q
2023-03-15 21:09:09:475,0,-54.2424,2.18785,134.417,Q,Q
2023-03-15 21:09:09:485,0,-54.2441,2.18876,134.414,Q,Q
2023-03-15 21:09:09:495,0,-54.2435,2.19018,134.416,Q,Q
2023-03-15 21:09:09:505,0,-54.2434,2.19003,134.414,Q,Q
2023-03-15 21:09:09:515,0,-54.2443,2.18931,134.412,Q,Q
2023-03-15 21:09:09:525,0,-54.2441,2.1871,134.415,Q,Q
2023-03-15 21:09:09:535,0,-54.2438,2.18997,134.414,Q,Q
2023-03-15 21:09:09:545,0,-54.2413,2.1903,134.413,Q,Q
2023-03-15 21:09:09:555,0,-54.2418,2.18838,134.415,Q,Q
2023-03-15 21:09:09:564,0,-54.2407,2.18741,134.416,Q,Q
2023-03-15 21:09:09:574,0,-54.2434,2.18566,134.412,Q,Q
2023-03-15 21:09:09:584,0,-54.2394,2.18579,134.413,Q,Q
2023-03-15 21:09:09:595,0,-54.2359,2.18703,134.412,Q,Q
2023-03-15 21:09:09:605,0,-54.2361,2.18511,134.415,Q,Q
2023-03-15 21:09:09:615,0,-54.2364,2.18467,134.416,Q,Q
2023-03-15 21:09:09:625,0,-54.2365,2.1852,134.413,Q,Q
2023-03-15 21:09:09:635,0,-54.2381,2.18521,134.41,Q,Q
2023-03-15 21:09:09:645,0,-54.2394,2.18627,134.408,Q,Q
2023-03-15 21:09:09:655,0,-54.24,2.19021,134.408,Q,Q
2023-03-15 21:09:09:665,0,-54.2448,2.18949,134.409,Q,Q
2023-03-15 21:09:09:675,0,-54.2445,2.19028,134.409,Q,Q
2023-03-15 21:09:09:684,0,-54.2407,2.19217,134.408,Q,Q
2023-03-15 21:09:09:694,0,-54.2434,2.19018,134.407,Q,Q
2023-03-15 21:09:09:705,0,-54.2438,2.19151,134.406,Q,Q
2023-03-15 21:09:09:715,0,-54.2429,2.19184,134.401,Q,Q
2023-03-15 21:09:09:725,0,-54.2445,2.19332,134.4,Q,Q
2023-03-15 21:09:09:735,0,-54.2433,2.19179,134.402,Q,Q
2023-03-15 21:09:09:745,0,-54.2445,2.19068,134.4,Q,Q
2023-03-15 21:09:09:755,0,-54.2453,2.19108,134.401,Q,Q
2023-03-15 21:09:09:764,0,-54.2466,2.18869,134.401,Q,Q
2023-03-15 21:09:09:775,0,-54.2451,2.18896,134.399,Q,Q
2023-03-15 21:09:09:785,0,-54.2456,2.18733,134.398,Q,Q
2023-03-15 21:09:09:795,0,-54.2503,2.19014,134.394,Q,Q
2023-03-15 21:09:09:805,0,-54.2509,2.18856,134.393,Q,Q
2023-03-15 21:09:09:815,0,-54.252,2.18723,134.393,Q,Q
2023-03-15 21:09:09:825,0,-54.2535,2.18616,134.395,Q,Q
2023-03-15 21:09:09:835,0,-54.2531,2.18753,134.397,Q,Q
2023-03-15 21:09:09:845,0,-54.2516,2.1902,134.397,Q,Q
2023-03-15 21:09:09:855,0,-54.2521,2.19032,134.398,Q,Q
2023-03-15 21:09:09:864,0,-54.252,2.18903,134.396,Q,Q
2023-03-15 21:09:09:874,0,-54.2548,2.18864,134.397,Q,Q
2023-03-15 21:09:09:885,0,-54.254,2.18567,134.398,Q,Q
2023-03-15 21:09:09:895,0,-54.2529,2.18455,134.398,Q,Q
2023-03-15 21:09:09:905,0,-54.2552,2.18098,134.396,Q,Q
2023-03-15 21:09:09:914,0,-54.2562,2.18247,134.394,Q,Q
2023-03-15 21:09:09:925,0,-54.2561,2.18038,134.393,Q,Q
2023-03-15 21:09:09:935,0,-54.2576,2.18474,134.392,Q,Q
2023-03-15 21:09:09:944,0,-54.2584,2.18296,134.393,Q,Q
2023-03-15 21:09:09:955,0,-54.2576,2.18168,134.393,Q,Q
2023-03-15 21:09:09:964,0,-54.2574,2.17968,134.391,Q,Q
2023-03-15 21:09:09:974,0,-54.2563,2.17866,134.391,Q,Q
2023-03-15 21:09:09:984,0,-54.2563,2.17794,134.392,Q,Q
2023-03-15 21:09:09:995,0,-54.2565,2.17645,134.394,Q,Q
2023-03-15 21:09:10:4,0,-54.2567,2.17519,134.394,Q,Q
2023-03-15 21:09:10:14,0,-54.2542,2.17593,134.394,Q,Q
2023-03-15 21:09:10:25,0,-54.2561,2.1776,134.389,Q,Q
2023-03-15 21:09:10:35,0,-54.2544,2.1795,134.391,Q,Q
2023-03-15 21:09:10:45,0,-54.2531,2.17607,134.389,Q,Q
2023-03-15 21:09:10:55,0,-54.2538,2.17818,134.388,Q,Q
2023-03-15 21:09:10:64,0,-54.2575,2.17733,134.389,Q,Q
2023-03-15 21:09:10:74,0,-54.2596,2.17654,134.395,Q,Q
2023-03-15 21:09:10:84,0,-54.2576,2.1774,134.396,Q,Q
2023-03-15 21:09:10:95,0,-54.2561,2.17576,134.397,Q,Q
2023-03-15 21:09:10:105,0,-54.2593,2.17485,134.4,Q,Q
2023-03-15 21:09:10:115,0,-54.2564,2.17434,134.4,Q,Q
2023-03-15 21:09:10:125,0,-54.2581,2.17515,134.401,Q,Q
2023-03-15 21:09:10:135,0,-54.2581,2.17239,134.403,Q,Q
2023-03-15 21:09:10:145,0,-54.2558,2.17115,134.404,Q,Q
2023-03-15 21:09:10:155,0,-54.2576,2.17576,134.408,Q,Q
2023-03-15 21:09:10:165,0,-54.2579,2.17636,134.405,Q,Q
2023-03-15 21:09:10:175,0,-54.2587,2.17407,134.403,Q,Q
2023-03-15 21:09:10:184,0,-54.2571,2.17438,134.403,Q,Q
2023-03-15 21:09:10:194,0,-54.2576,2.178,134.404,Q,Q
2023-03-15 21:09:10:204,0,-54.2593,2.1784,134.408,Q,Q
2023-03-15 21:09:10:215,0,-54.2591,2.17807,134.408,Q,Q
2023-03-15 21:09:10:225,0,-54.2625,2.1795,134.409,Q,Q
2023-03-15 21:09:10:234,0,-54.2625,2.18111,134.41,Q,Q
2023-03-15 21:09:10:245,0,-54.2601,2.18141,134.411,Q,Q
2023-03-15 21:09:10:255,0,-54.2586,2.17966,134.411,Q,Q
2023-03-15 21:09:10:265,0,-54.2577,2.17947,134.408,Q,Q
2023-03-15 21:09:10:275,0,-54.2583,2.1852,134.408,Q,Q
2023-03-15 21:09:10:285,0,-54.2569,2.1852,134.407,Q,Q
2023-03-15 21:09:10:295,0,-54.2543,2.1867,134.407,Q,Q
2023-03-15 21:09:10:304,0,-54.2541,2.18873,134.412,Q,Q
2023-03-15 21:09:10:314,0,-54.2526,2.18728,134.41,Q,Q
2023-03-15 21:09:10:325,0,-54.2513,2.18419,134.408,Q,Q
2023-03-15 21:09:10:335,0,-54.2498,2.1833,134.409,Q,Q
2023-03-15 21:09:10:344,0,-54.2496,2.18584,134.409,Q,Q
2023-03-15 21:09:10:355,0,-54.2517,2.18687,134.408,Q,Q
2023-03-15 21:09:10:365,0,-54.2492,2.18503,134.409,Q,Q
2023-03-15 21:09:10:375,0,-54.2503,2.1835,134.408,Q,Q
2023-03-15 21:09:10:385,0,-54.248,2.18447,134.41,Q,Q
2023-03-15 21:09:10:394,0,-54.2471,2.18387,134.406,Q,Q
2023-03-15 21:09:10:405,0,-54.246,2.18548,134.409,Q,Q
2023-03-15 21:09:10:415,0,-54.2443,2.18354,134.408,Q,Q
2023-03-15 21:09:10:425,0,-54.2435,2.18432,134.409,Q,Q
2023-03-15 21:09:10:435,0,-54.2428,2.18563,134.41,Q,Q
2023-03-15 21:09:10:445,0,-54.2434,2.18558,134.412,Q,Q
2023-03-15 21:09:10:454,0,-54.2472,2.18496,134.411,Q,Q
2023-03-15 21:09:10:464,0,-54.2477,2.18473,134.407,Q,Q
2023-03-15 21:09:10:475,0,-54.2465,2.18289,134.405,Q,Q
2023-03-15 21:09:10:485,0,-54.249,2.18389,134.405,Q,Q
2023-03-15 21:09:10:495,0,-54.2491,2.18289,134.406,Q,Q
2023-03-15 21:09:10:505,0,-54.2468,2.18299,134.408,Q,Q
2023-03-15 21:09:10:514,0,-54.2472,2.18261,134.407,Q,Q
2023-03-15 21:09:10:525,0,-54.2436,2.18594,134.405,Q,Q
2023-03-15 21:09:10:535,0,-54.2415,2.18813,134.404,Q,Q
2023-03-15 21:09:10:545,0,-54.2396,2.18727,134.403,Q,Q
2023-03-15 21:09:10:554,0,-54.2403,2.18411,134.404,Q,Q
2023-03-15 21:09:10:564,0,-54.2424,2.18481,134.405,Q,Q
2023-03-15 21:09:10:574,0,-54.2432,2.18662,134.404,Q,Q
2023-03-15 21:09:10:584,0,-54.2439,2.18534,134.402,Q,Q
2023-03-15 21:09:10:594,0,-54.2455,2.18671,134.401,Q,Q
2023-03-15 21:09:10:604,0,-54.2447,2.1851,134.402,Q,Q
2023-03-15 21:09:10:614,0,-54.2464,2.18664,134.402,Q,Q
2023-03-15 21:09:10:624,0,-54.2445,2.18757,134.401,Q,Q
2023-03-15 21:09:10:635,0,-54.2418,2.18554,134.4,Q,Q
2023-03-15 21:09:10:644,0,-54.238,2.18762,134.4,Q,Q
2023-03-15 21:09:10:655,0,-54.2383,2.1881,134.4,Q,Q
2023-03-15 21:09:10:665,0,-54.2384,2.1871,134.399,Q,Q
2023-03-15 21:09:10:675,0,-54.2396,2.18637,134.397,Q,Q
2023-03-15 21:09:10:684,0,-54.2374,2.18669,134.396,Q,Q
2023-03-15 21:09:10:695,0,-54.2389,2.18505,134.398,Q,Q
2023-03-15 21:09:10:704,0,-54.2384,2.18374,134.398,Q,Q
2023-03-15 21:09:10:714,0,-54.239,2.18833,134.399,Q,Q
2023-03-15 21:09:10:724,0,-54.2406,2.18801,134.4,Q,Q
2023-03-15 21:09:10:735,0,-54.2381,2.18576,134.399,Q,Q
2023-03-15 21:09:10:745,0,-54.2368,2.1848,134.401,Q,Q
2023-03-15 21:09:10:755,0,-54.2348,2.18645,134.402,Q,Q
2023-03-15 21:09:10:764,0,-54.2359,2.18607,134.402,Q,Q
2023-03-15 21:09:10:775,0,-54.2384,2.1853,134.402,Q,Q
2023-03-15 21:09:10:785,0,-54.2366,2.18529,134.401,Q,Q
2023-03-15 21:09:10:794,0,-54.2344,2.18472,134.403,Q,Q
2023-03-15 21:09:10:805,0,-54.2325,2.18493,134.407,Q,Q
2023-03-15 21:09:10:815,0,-54.2323,2.18548,134.409,Q,Q
2023-03-15 21:09:10:825,0,-54.2319,2.18541,134.41,Q,Q
2023-03-15 21:09:10:835,0,-54.2296,2.18762,134.413,Q,Q
2023-03-15 21:09:10:845,0,-54.2298,2.1846,134.415,Q,Q
2023-03-15 21:09:10:855,0,-54.2295,2.1851,134.415,Q,Q
2023-03-15 21:09:10:864,0,-54.2283,2.18217,134.415,Q,Q
2023-03-15 21:09:10:875,0,-54.229,2.1864,134.417,Q,Q
2023-03-15 21:09:10:885,0,-54.2298,2.18624,134.418,Q,Q
2023-03-15 21:09:10:895,0,-54.2299,2.18546,134.42,Q,Q
2023-03-15 21:09:10:904,0,-54.2342,2.18749,134.42,Q,Q
2023-03-15 21:09:10:915,0,-54.2335,2.18916,134.418,Q,Q
2023-03-15 21:09:10:924,0,-54.2361,2.18957,134.417,Q,Q
2023-03-15 21:09:10:935,0,-54.2357,2.18991,134.415,Q,Q
2023-03-15 21:09:10:945,0,-54.2371,2.19026,134.415,Q,Q
2023-03-15 21:09:10:955,0,-54.2387,2.18816,134.412,Q,Q
2023-03-15 21:09:10:965,0,-54.2389,2.18873,134.414,Q,Q
2023-03-15 21:09:10:974,0,-54.2393,2.19074,134.415,Q,Q
2023-03-15 21:09:10:985,0,-54.2395,2.18986,134.417,Q,Q
2023-03-15 21:09:10:995,0,-54.2398,2.19,134.42,Q,Q
2023-03-15 21:09:11:5,0,-54.2419,2.188,134.421,Q,Q
2023-03-15 21:09:11:15,0,-54.2403,2.18667,134.421,Q,Q
2023-03-15 21:09:11:25,0,-54.239,2.18708,134.42,Q,Q
2023-03-15 21:09:11:35,0,-54.24,2.18725,134.419,Q,Q
2023-03-15 21:09:11:45,0,-54.2405,2.18794,134.419,Q,Q
2023-03-15 21:09:11:55,0,-54.242,2.18469,134.418,Q,Q
2023-03-15 21:09:11:65,0,-54.2417,2.18694,134.417,Q,Q
2023-03-15 21:09:11:75,0,-54.241,2.18735,134.419,Q,Q
2023-03-15 21:09:11:84,0,-54.2416,2.18952,134.419,Q,Q
2023-03-15 21:09:11:94,0,-54.2416,2.1904,134.421,Q,Q
2023-03-15 21:09:11:105,0,-54.241,2.18826,134.423,Q,Q
2023-03-15 21:09:11:115,0,-54.2407,2.18718,134.42,Q,Q
2023-03-15 21:09:11:124,0,-54.2413,2.18713,134.422,Q,Q
2023-03-15 21:09:11:135,0,-54.2411,2.18885,134.422,Q,Q
2023-03-15 21:09:11:145,0,-54.2394,2.18894,134.424,Q,Q
2023-03-15 21:09:11:155,0,-54.2383,2.18807,134.423,Q,Q
2023-03-15 21:09:11:165,0,-54.2403,2.18663,134.424,Q,Q
2023-03-15 21:09:11:175,0,-54.2403,2.18723,134.421,Q,Q
2023-03-15 21:09:11:184,0,-54.2401,2.19079,134.422,Q,Q
2023-03-15 21:09:11:195,0,-54.2385,2.19123,134.42,Q,Q
2023-03-15 21:09:11:205,0,-54.2369,2.19213,134.419,Q,Q
2023-03-15 21:09:11:214,0,-54.2399,2.18767,134.417,Q,Q
2023-03-15 21:09:11:225,0,-54.2413,2.18773,134.421,Q,Q
2023-03-15 21:09:11:234,0,-54.2403,2.18973,134.419,Q,Q
2023-03-15 21:09:11:244,0,-54.2374,2.19054,134.418,Q,Q
2023-03-15 21:09:11:254,0,-54.2356,2.18972,134.418,Q,Q
2023-03-15 21:09:11:264,0,-54.2334,2.18907,134.42,Q,Q
2023-03-15 21:09:11:275,0,-54.2322,2.19117,134.423,Q,Q
2023-03-15 21:09:11:284,0,-54.2295,2.19017,134.425,Q,Q
2023-03-15 21:09:11:295,0,-54.2293,2.18889,134.424,Q,Q
2023-03-15 21:09:11:304,0,-54.2313,2.18974,134.42,Q,Q
2023-03-15 21:09:11:315,0,-54.2319,2.19234,134.418,Q,Q
2023-03-15 21:09:11:324,0,-54.2312,2.19342,134.419,Q,Q
2023-03-15 21:09:11:335,0,-54.2315,2.19474,134.418,Q,Q
2023-03-15 21:09:11:344,0,-54.2364,2.19076,134.42,Q,Q
2023-03-15 21:09:11:354,0,-54.2391,2.19135,134.422,Q,Q
2023-03-15 21:09:11:364,0,-54.2385,2.19094,134.422,Q,Q
2023-03-15 21:09:11:374,0,-54.2393,2.19335,134.423,Q,Q
2023-03-15 21:09:11:384,0,-54.238,2.19317,134.425,Q,Q
2023-03-15 21:09:11:394,0,-54.2372,2.19108,134.424,Q,Q
2023-03-15 21:09:11:404,0,-54.2389,2.19126,134.425,Q,Q
2023-03-15 21:09:11:415,0,-54.2381,2.19066,134.425,Q,Q
2023-03-15 21:09:11:424,0,-54.2396,2.19253,134.426,Q,Q
2023-03-15 21:09:11:435,0,-54.2401,2.19191,134.426,Q,Q
2023-03-15 21:09:11:444,0,-54.2409,2.19247,134.426,Q,Q
2023-03-15 21:09:11:455,0,-54.2417,2.19249,134.423,Q,Q
2023-03-15 21:09:11:465,0,-54.2402,2.19076,134.423,Q,Q
2023-03-15 21:09:11:475,0,-54.2419,2.19316,134.421,Q,Q
2023-03-15 21:09:11:485,0,-54.2425,2.18949,134.42,Q,Q
2023-03-15 21:09:11:494,0,-54.2431,2.1926,134.421,Q,Q
2023-03-15 21:09:11:505,0,-54.2405,2.19551,134.419,Q,Q
2023-03-15 21:09:11:515,0,-54.2394,2.1952,134.419,Q,Q
2023-03-15 21:09:11:525,0,-54.2363,2.19485,134.42,Q,Q
2023-03-15 21:09:11:535,0,-54.2383,2.19444,134.42,Q,Q
2023-03-15 21:09:11:545,0,-54.2409,2.19465,134.422,Q,Q
2023-03-15 21:09:11:555,0,-54.2411,2.19497,134.423,Q,Q
2023-03-15 21:09:11:565,0,-54.2378,2.19362,134.427,Q,Q
2023-03-15 21:09:11:575,0,-54.2371,2.19333,134.427,Q,Q
2023-03-15 21:09:11:584,0,-54.2391,2.19529,134.425,Q,Q
2023-03-15 21:09:11:594,0,-54.2407,2.1953,134.426,Q,Q
2023-03-15 21:09:11:604,0,-54.2406,2.19661,134.425,Q,Q
2023-03-15 21:09:11:614,0,-54.2428,2.19551,134.426,Q,Q
2023-03-15 21:09:11:624,0,-54.2399,2.19436,134.428,Q,Q
2023-03-15 21:09:11:635,0,-54.2376,2.19413,134.426,Q,Q
2023-03-15 21:09:11:644,0,-54.2365,2.19635,134.423,Q,Q
2023-03-15 21:09:11:655,0,-54.2362,2.19674,134.422,Q,Q
2023-03-15 21:09:11:664,0,-54.2338,2.19694,134.425,Q,Q
2023-03-15 21:09:11:675,0,-54.2373,2.19736,134.425,Q,Q
2023-03-15 21:09:11:685,0,-54.238,2.19568,134.425,Q,Q
2023-03-15 21:09:11:695,0,-54.2399,2.19483,134.422,Q,Q
2023-03-15 21:09:11:705,0,-54.2437,2.19682,134.42,Q,Q
2023-03-15 21:09:11:714,0,-54.2406,2.19512,134.423,Q,Q
2023-03-15 21:09:11:724,0,-54.2395,2.19567,134.424,Q,Q
2023-03-15 21:09:11:734,0,-54.2417,2.19533,134.427,Q,Q
2023-03-15 21:09:11:744,0,-54.2431,2.19319,134.425,Q,Q
2023-03-15 21:09:11:754,0,-54.2409,2.19088,134.427,Q,Q
2023-03-15 21:09:11:764,0,-54.2429,2.18963,134.429,Q,Q
2023-03-15 21:09:11:774,0,-54.2428,2.18856,134.429,Q,Q
2023-03-15 21:09:11:785,0,-54.2435,2.18727,134.428,Q,Q
2023-03-15 21:09:11:794,0,-54.2412,2.1876,134.427,Q,Q
2023-03-15 21:09:11:805,0,-54.2406,2.18812,134.424,Q,Q
2023-03-15 21:09:11:815,0,-54.2424,2.19145,134.426,Q,Q
2023-03-15 21:09:11:824,0,-54.2443,2.19361,134.426,Q,Q
2023-03-15 21:09:11:835,0,-54.2423,2.19477,134.426,Q,Q
2023-03-15 21:09:11:844,0,-54.2402,2.19482,134.426,Q,Q
2023-03-15 21:09:11:855,0,-54.2429,2.1932,134.425,Q,Q
2023-03-15 21:09:11:865,0,-54.2424,2.19542,134.425,Q,Q
2023-03-15 21:09:11:874,0,-54.2432,2.19481,134.424,Q,Q
2023-03-15 21:09:11:884,0,-54.2403,2.19594,134.423,Q,Q
2023-03-15 21:09:11:894,0,-54.2415,2.19749,134.422,Q,Q
2023-03-15 21:09:11:905,0,-54.2404,2.19855,134.421,Q,Q
2023-03-15 21:09:11:915,0,-54.2414,2.19724,134.422,Q,Q
2023-03-15 21:09:11:925,0,-54.2374,2.19814,134.424,Q,Q
2023-03-15 21:09:11:935,0,-54.2344,2.19941,134.426,Q,Q
2023-03-15 21:09:11:944,0,-54.2344,2.19874,134.427,Q,Q
2023-03-15 21:09:11:954,0,-54.2332,2.19889,134.428,Q,Q
2023-03-15 21:09:11:965,0,-54.2303,2.20083,134.427,Q,Q
2023-03-15 21:09:11:975,0,-54.2285,2.20028,134.426,Q,Q
2023-03-15 21:09:11:984,0,-54.2304,2.19964,134.427,Q,Q
2023-03-15 21:09:11:994,0,-54.2305,2.20135,134.424,Q,Q
2023-03-15 21:09:12:4,0,-54.2281,2.20125,134.423,Q,Q
2023-03-15 21:09:12:15,0,-54.225,2.19756,134.423,Q,Q
2023-03-15 21:09:12:25,0,-54.226,2.19537,134.424,Q,Q
2023-03-15 21:09:12:35,0,-54.2256,2.19504,134.422,Q,Q
2023-03-15 21:09:12:45,0,-54.226,2.19345,134.422,Q,Q
2023-03-15 21:09:12:54,0,-54.2271,2.19679,134.424,Q,Q
2023-03-15 21:09:12:64,0,-54.2268,2.1967,134.425,Q,Q
2023-03-15 21:09:12:75,0,-54.2248,2.19379,134.425,Q,Q
2023-03-15 21:09:12:84,0,-54.2218,2.19448,134.422,Q,Q
2023-03-15 21:09:12:94,0,-54.2239,2.19537,134.421,Q,Q
2023-03-15 21:09:12:104,0,-54.2235,2.1991,134.419,Q,Q
2023-03-15 21:09:12:115,0,-54.2265,2.19932,134.417,Q,Q
2023-03-15 21:09:12:125,0,-54.225,2.20051,134.417,Q,Q
2023-03-15 21:09:12:135,0,-54.2256,2.19837,134.417,Q,Q
2023-03-15 21:09:12:144,0,-54.2249,2.19954,134.415,Q,Q
2023-03-15 21:09:12:155,0,-54.2255,2.20169,134.416,Q,Q
2023-03-15 21:09:12:164,0,-54.2251,2.20315,134.419,Q,Q
2023-03-15 21:09:12:175,0,-54.2247,2.20325,134.422,Q,Q
2023-03-15 21:09:12:185,0,-54.2242,2.20358,134.419,Q,Q
2023-03-15 21:09:12:195,0,-54.2247,2.20583,134.421,Q,Q
2023-03-15 21:09:12:204,0,-54.2239,2.20641,134.421,Q,Q
2023-03-15 21:09:12:214,0,-54.2244,2.20848,134.423,Q,Q
2023-03-15 21:09:12:224,0,-54.2289,2.20743,134.421,Q,Q
2023-03-15 21:09:12:235,0,-54.2287,2.20704,134.422,Q,Q
2023-03-15 21:09:12:244,0,-54.2259,2.20813,134.424,Q,Q
2023-03-15 21:09:12:254,0,-54.2273,2.20489,134.426,Q,Q
2023-03-15 21:09:12:264,0,-54.2256,2.2051,134.426,Q,Q
2023-03-15 21:09:12:274,0,-54.2279,2.20637,134.425,Q,Q
2023-03-15 21:09:12:284,0,-54.2245,2.20732,134.424,Q,Q
2023-03-15 21:09:12:295,0,-54.2245,2.20828,134.424,Q,Q
2023-03-15 21:09:12:304,0,-54.2232,2.20805,134.425,Q,Q
2023-03-15 21:09:12:315,0,-54.2209,2.20681,134.427,Q,Q
2023-03-15 21:09:12:324,0,-54.2232,2.20549,134.424,Q,Q
2023-03-15 21:09:12:335,0,-54.2226,2.20576,134.427,Q,Q
2023-03-15 21:09:12:344,0,-54.2215,2.20855,134.424,Q,Q
2023-03-15 21:09:12:354,0,-54.2202,2.20875,134.423,Q,Q
2023-03-15 21:09:12:364,0,-54.218,2.21022,134.421,Q,Q
2023-03-15 21:09:12:374,0,-54.2171,2.2074,134.419,Q,Q
2023-03-15 21:09:12:384,0,-54.2163,2.20651,134.421,Q,Q
2023-03-15 21:09:12:394,0,-54.2183,2.20657,134.424,Q,Q
2023-03-15 21:09:12:404,0,-54.2217,2.20691,134.424,Q,Q
2023-03-15 21:09:12:414,0,-54.224,2.20409,134.422,Q,Q
2023-03-15 21:09:12:424,0,-54.2264,2.20001,134.423,Q,Q
2023-03-15 21:09:12:435,0,-54.2256,2.20078,134.421,Q,Q
2023-03-15 21:09:12:444,0,-54.2223,2.19999,134.42,Q,Q
2023-03-15 21:09:12:455,0,-54.2245,2.19851,134.422,Q,Q
2023-03-15 21:09:12:464,0,-54.2265,2.20019,134.422,Q,Q
2023-03-15 21:09:12:474,0,-54.225,2.2016,134.418,Q,Q
2023-03-15 21:09:12:484,0,-54.2262,2.20408,134.416,Q,Q
2023-03-15 21:09:12:495,0,-54.2252,2.20515,134.418,Q,Q
2023-03-15 21:09:12:504,0,-54.2254,2.20621,134.418,Q,Q
2023-03-15 21:09:12:514,0,-54.2281,2.20722,134.417,Q,Q
2023-03-15 21:09:12:524,0,-54.2205,2.2076,134.418,Q,Q
2023-03-15 21:09:12:534,0,-54.221,2.20764,134.416,Q,Q
2023-03-15 21:09:12:544,0,-54.2219,2.20998,134.415,Q,Q
2023-03-15 21:09:12:554,0,-54.2228,2.2123,134.416,Q,Q
2023-03-15 21:09:12:564,0,-54.2243,2.21127,134.417,Q,Q
2023-03-15 21:09:12:574,0,-54.2239,2.21095,134.418,Q,Q
2023-03-15 21:09:12:584,0,-54.224,2.21013,134.418,Q,Q
2023-03-15 21:09:12:594,0,-54.2187,2.2092,134.42,Q,Q
2023-03-15 21:09:12:604,0,-54.2193,2.20682,134.419,Q,Q
2023-03-15 21:09:12:614,0,-54.2173,2.20772,134.415,Q,Q
2023-03-15 21:09:12:624,0,-54.2184,2.20596,134.416,Q,Q
2023-03-15 21:09:12:634,0,-54.2185,2.20671,134.413,Q,Q
2023-03-15 21:09:12:644,0,-54.2176,2.2068,134.416,Q,Q
2023-03-15 21:09:12:654,0,-54.216,2.20873,134.416,Q,Q
2023-03-15 21:09:12:664,0,-54.2172,2.21001,134.417,Q,Q
2023-03-15 21:09:12:674,0,-54.2169,2.21288,134.42,Q,Q
2023-03-15 21:09:12:684,0,-54.2152,2.21327,134.42,Q,Q
2023-03-15 21:09:12:694,0,-54.216,2.21112,134.417,Q,Q
2023-03-15 21:09:12:704,0,-54.2173,2.20505,134.418,Q,Q
2023-03-15 21:09:12:714,0,-54.2161,2.2036,134.417,Q,Q
2023-03-15 21:09:12:724,0,-54.2162,2.20349,134.415,Q,Q
2023-03-15 21:09:12:734,0,-54.2186,2.2043,134.415,Q,Q
2023-03-15 21:09:12:744,0,-54.219,2.20169,134.414,Q,Q
2023-03-15 21:09:12:754,0,-54.2196,2.20257,134.412,Q,Q
2023-03-15 21:09:12:764,0,-54.2191,2.20288,134.415,Q,Q
2023-03-15 21:09:12:774,0,-54.22,2.20342,134.416,Q,Q
2023-03-15 21:09:12:784,0,-54.2192,2.20366,134.415,Q,Q
2023-03-15 21:09:12:794,0,-54.2177,2.2015,134.412,Q,Q
2023-03-15 21:09:12:804,0,-54.218,2.20242,134.41,Q,Q
2023-03-15 21:09:12:814,0,-54.2197,2.19814,134.41,Q,Q
2023-03-15 21:09:12:824,0,-54.2214,2.19758,134.414,Q,Q
2023-03-15 21:09:12:834,0,-54.2214,2.19668,134.413,Q,Q
2023-03-15 21:09:12:844,0,-54.2207,2.19424,134.415,Q,Q
2023-03-15 21:09:12:855,0,-54.2214,2.19924,134.42,Q,Q
2023-03-15 21:09:12:864,0,-54.2219,2.19895,134.421,Q,Q
2023-03-15 21:09:12:874,0,-54.2228,2.1977,134.422,Q,Q
2023-03-15 21:09:12:884,0,-54.2222,2.19368,134.424,Q,Q
2023-03-15 21:09:12:895,0,-54.2229,2.19657,134.424,Q,Q
2023-03-15 21:09:12:904,0,-54.224,2.1959,134.424,Q,Q
2023-03-15 21:09:12:914,0,-54.2241,2.19438,134.424,Q,Q
2023-03-15 21:09:12:924,0,-54.2259,2.19636,134.426,Q,Q
2023-03-15 21:09:12:934,0,-54.2251,2.19291,134.426,Q,Q
2023-03-15 21:09:12:944,0,-54.2252,2.19269,134.425,Q,Q
2023-03-15 21:09:12:954,0,-54.2227,2.19291,134.425,Q,Q
2023-03-15 21:09:12:964,0,-54.2228,2.19322,134.426,Q,Q
2023-03-15 21:09:12:975,0,-54.2214,2.19261,134.427,Q,Q
2023-03-15 21:09:12:984,0,-54.2221,2.18791,134.428,Q,Q
2023-03-15 21:09:12:995,0,-54.2242,2.18804,134.43,Q,Q
2023-03-15 21:09:13:4,0,-54.2229,2.18762,134.429,Q,Q
2023-03-15 21:09:13:14,0,-54.2196,2.19123,134.43,Q,Q
2023-03-15 21:09:13:24,0,-54.2189,2.18883,134.426,Q,Q
2023-03-15 21:09:13:34,0,-54.2163,2.18716,134.427,Q,Q
2023-03-15 21:09:13:44,0,-54.2156,2.18822,134.426,Q,Q
2023-03-15 21:09:13:54,0,-54.2152,2.18868,134.426,Q,Q
2023-03-15 21:09:13:64,0,-54.2166,2.18696,134.424,Q,Q
2023-03-15 21:09:13:74,0,-54.2153,2.18464,134.422,Q,Q
2023-03-15 21:09:13:84,0,-54.2124,2.18438,134.42,Q,Q
2023-03-15 21:09:13:94,0,-54.2128,2.18364,134.422,Q,Q
2023-03-15 21:09:13:104,0,-54.2121,2.18156,134.423,Q,Q
2023-03-15 21:09:13:114,0,-54.2111,2.17871,134.423,Q,Q
2023-03-15 21:09:13:124,0,-54.2114,2.17743,134.421,Q,Q
2023-03-15 21:09:13:134,0,-54.2137,2.17631,134.42,Q,Q
2023-03-15 21:09:13:144,0,-54.2144,2.17727,134.421,Q,Q
2023-03-15 21:09:13:154,0,-54.2127,2.17449,134.424,Q,Q
2023-03-15 21:09:13:164,0,-54.2128,2.17424,134.424,Q,Q
2023-03-15 21:09:13:174,0,-54.2107,2.17376,134.421,Q,Q
2023-03-15 21:09:13:184,0,-54.2112,2.17373,134.419,Q,Q
2023-03-15 21:09:13:194,0,-54.2102,2.17564,134.42,Q,Q
2023-03-15 21:09:13:204,0,-54.2082,2.17542,134.418,Q,Q
2023-03-15 21:09:13:214,0,-54.2081,2.17453,134.414,Q,Q
2023-03-15 21:09:13:224,0,-54.209,2.17763,134.413,Q,Q
2023-03-15 21:09:13:235,0,-54.2082,2.17861,134.411,Q,Q
2023-03-15 21:09:13:244,0,-54.2062,2.1818,134.41,Q,Q
2023-03-15 21:09:13:254,0,-54.2056,2.18084,134.412,Q,Q
2023-03-15 21:09:13:264,0,-54.2055,2.18004,134.413,Q,Q
2023-03-15 21:09:13:274,0,-54.2064,2.1816,134.411,Q,Q
2023-03-15 21:09:13:284,0,-54.207,2.18217,134.409,Q,Q
2023-03-15 21:09:13:294,0,-54.2051,2.18139,134.411,Q,Q
2023-03-15 21:09:13:304,0,-54.2063,2.18232,134.418,Q,Q
2023-03-15 21:09:13:314,0,-54.2095,2.18431,134.416,Q,Q
2023-03-15 21:09:13:324,0,-54.2095,2.18394,134.412,Q,Q
2023-03-15 21:09:13:334,0,-54.2112,2.18281,134.409,Q,Q
2023-03-15 21:09:13:344,0,-54.2101,2.18112,134.406,Q,Q
2023-03-15 21:09:13:354,0,-54.2089,2.18219,134.406,Q,Q
2023-03-15 21:09:13:364,0,-54.2071,2.18018,134.408,Q,Q
2023-03-15 21:09:13:374,0,-54.2078,2.17829,134.409,Q,Q
2023-03-15 21:09:13:384,0,-54.2049,2.17866,134.407,Q,Q
2023-03-15 21:09:13:394,0,-54.2069,2.17828,134.407,Q,Q
2023-03-15 21:09:13:404,0,-54.2071,2.17797,134.405,Q,Q
2023-03-15 21:09:13:414,0,-54.2102,2.177,134.408,Q,Q
2023-03-15 21:09:13:424,0,-54.2096,2.1776,134.407,Q,Q
2023-03-15 21:09:13:434,0,-54.2064,2.17941,134.404,Q,Q
2023-03-15 21:09:13:444,0,-54.2061,2.17749,134.402,Q,Q
2023-03-15 21:09:13:454,0,-54.2046,2.1763,134.403,Q,Q
2023-03-15 21:09:13:464,0,-54.2042,2.17255,134.401,Q,Q
2023-03-15 21:09:13:474,0,-54.2013,2.17323,134.402,Q,Q
2023-03-15 21:09:13:484,0,-54.2055,2.17304,134.404,Q,Q
2023-03-15 21:09:13:494,0,-54.2034,2.17253,134.401,Q,Q
2023-03-15 21:09:13:504,0,-54.1988,2.17361,134.404,Q,Q
2023-03-15 21:09:13:514,0,-54.1997,2.17399,134.399,Q,Q
2023-03-15 21:09:13:524,0,-54.1987,2.17701,134.399,Q,Q
2023-03-15 21:09:13:534,0,-54.1965,2.17453,134.399,Q,Q
2023-03-15 21:09:13:544,0,-54.1959,2.17273,134.398,Q,Q
2023-03-15 21:09:13:554,0,-54.1948,2.16995,134.398,Q,Q
2023-03-15 21:09:13:564,0,-54.1951,2.17025,134.398,Q,Q
2023-03-15 21:09:13:575,0,-54.1928,2.17368,134.399,Q,Q
2023-03-15 21:09:13:584,0,-54.1929,2.17258,134.4,Q,Q
2023-03-15 21:09:13:594,0,-54.1935,2.17266,134.398,Q,Q
2023-03-15 21:09:13:604,0,-54.1952,2.17258,134.398,Q,Q
2023-03-15 21:09:13:614,0,-54.1978,2.1716,134.398,Q,Q
2023-03-15 21:09:13:624,0,-54.1999,2.17152,134.399,Q,Q
2023-03-15 21:09:13:634,0,-54.198,2.17146,134.395,Q,Q
2023-03-15 21:09:13:644,0,-54.1989,2.17298,134.396,Q,Q
2023-03-15 21:09:13:654,0,-54.1984,2.17415,134.398,Q,Q
2023-03-15 21:09:13:664,0,-54.2019,2.17618,134.397,Q,Q
2023-03-15 21:09:13:674,0,-54.1997,2.17656,134.397,Q,Q
2023-03-15 21:09:13:684,0,-54.1971,2.18003,134.395,Q,Q
2023-03-15 21:09:13:694,0,-54.2002,2.17906,134.394,Q,Q
2023-03-15 21:09:13:704,0,-54.1982,2.1791,134.397,Q,Q
